{"displayFieldName":"TOWNNAME","fieldAliases":{"ID":"ID","DIS_CODE":"DIS_CODE","TOWNNAME":"TOWNNAME","LI":"LI","LIN":"LIN","STREET":"STREET","SECT":"SECT","MAREA":"MAREA","LANE":"LANE","ALLEY":"ALLEY","HOUSE_NO":"HOUSE_NO","E_COORD97":"E_COORD97","N_COORD97":"N_COORD97","ADDRESS":"ADDRESS","OBJECTID":"OBJECTID"},"geometryType":"esriGeometryPoint","spatialReference":{"wkid":102443,"latestWkid":3826},"fields":[{"name":"ID","type":"esriFieldTypeDouble","alias":"ID"},{"name":"DIS_CODE","type":"esriFieldTypeInteger","alias":"DIS_CODE"},{"name":"TOWNNAME","type":"esriFieldTypeString","alias":"TOWNNAME","length":8},{"name":"LI","type":"esriFieldTypeString","alias":"LI","length":8},{"name":"LIN","type":"esriFieldTypeString","alias":"LIN","length":12},{"name":"STREET","type":"esriFieldTypeString","alias":"STREET","length":20},{"name":"SECT","type":"esriFieldTypeString","alias":"SECT","length":8},{"name":"MAREA","type":"esriFieldTypeString","alias":"MAREA","length":12},{"name":"LANE","type":"esriFieldTypeString","alias":"LANE","length":10},{"name":"ALLEY","type":"esriFieldTypeString","alias":"ALLEY","length":10},{"name":"HOUSE_NO","type":"esriFieldTypeString","alias":"HOUSE_NO","length":20},{"name":"E_COORD97","type":"esriFieldTypeDouble","alias":"E_COORD97"},{"name":"N_COORD97","type":"esriFieldTypeDouble","alias":"N_COORD97"},{"name":"ADDRESS","type":"esriFieldTypeString","alias":"ADDRESS","length":50},{"name":"OBJECTID","type":"esriFieldTypeOID","alias":"OBJECTID"}],"features":[{"attributes":{"ID":355810,"DIS_CODE":0,"TOWNNAME":"東區","LI":"東門里","LIN":"8鄰","STREET":"前鋒路","SECT":" ","MAREA":" ","LANE":" ","ALLEY":" ","HOUSE_NO":"２６號之１三樓","E_COORD97":169316.29999999999,"N_COORD97":2543437.8399999999,"ADDRESS":"前鋒路２６號之１三樓","OBJECTID":355801},"geometry":{"x":169316.30000000168,"y":2543437.8399999999}},{"attributes":{"ID":355811,"DIS_CODE":0,"TOWNNAME":"東區","LI":"東門里","LIN":"8鄰","STREET":"前鋒路","SECT":" ","MAREA":" ","LANE":" ","ALLEY":" ","HOUSE_NO":"２６號之１五樓","E_COORD97":169316.29999999999,"N_COORD97":2543437.8399999999,"ADDRESS":"前鋒路２６號之１五樓","OBJECTID":355802},"geometry":{"x":169316.30000000168,"y":2543437.8399999999}},{"attributes":{"ID":355812,"DIS_CODE":0,"TOWNNAME":"新市區","LI":"社內里","LIN":"20鄰","STREET":" ","SECT":" ","MAREA":"社內","LANE":" ","ALLEY":" ","HOUSE_NO":"２０７之３號","E_COORD97":175894.54000000001,"N_COORD97":2552998.0499999998,"ADDRESS":"社內２０７之３號","OBJECTID":355803},"geometry":{"x":175894.54000000097,"y":2552998.0500000007}},{"attributes":{"ID":355813,"DIS_CODE":0,"TOWNNAME":"新市區","LI":"社內里","LIN":"20鄰","STREET":" ","SECT":" ","MAREA":"社內","LANE":" ","ALLEY":" ","HOUSE_NO":"２０７之２號","E_COORD97":175913.40993299999,"N_COORD97":2553009.95157,"ADDRESS":"社內２０７之２號","OBJECTID":355804},"geometry":{"x":175913.40993299894,"y":2553009.9515710007}},{"attributes":{"ID":355814,"DIS_CODE":0,"TOWNNAME":"新營區","LI":"埤寮里","LIN":"4鄰","STREET":" ","SECT":" ","MAREA":"許丑","LANE":" ","ALLEY":" ","HOUSE_NO":"４３之６號","E_COORD97":179778.64999999999,"N_COORD97":2580993.6099999999,"ADDRESS":"許丑４３之６號","OBJECTID":355805},"geometry":{"x":179778.65000000037,"y":2580993.6099999994}},{"attributes":{"ID":355815,"DIS_CODE":0,"TOWNNAME":"永康區","LI":"南灣里","LIN":"1鄰","STREET":"大灣二街","SECT":" ","MAREA":" ","LANE":" ","ALLEY":" ","HOUSE_NO":"１１５號","E_COORD97":174734.51000000001,"N_COORD97":2544790.7000000002,"ADDRESS":"大灣二街１１５號","OBJECTID":355806},"geometry":{"x":174734.51000000164,"y":2544790.6999999993}},{"attributes":{"ID":355816,"DIS_CODE":0,"TOWNNAME":"新營區","LI":"嘉芳里","LIN":"4鄰","STREET":" ","SECT":" ","MAREA":"茄苳腳","LANE":" ","ALLEY":" ","HOUSE_NO":"５０號之２５","E_COORD97":176851.20000000001,"N_COORD97":2578373.1499999999,"ADDRESS":"茄苳腳５０之２５號","OBJECTID":355807},"geometry":{"x":176851.20000000112,"y":2578373.1500000022}},{"attributes":{"ID":355817,"DIS_CODE":0,"TOWNNAME":"永康區","LI":"正強里","LIN":"20鄰","STREET":"中山南路","SECT":" ","MAREA":" ","LANE":"４７１巷","ALLEY":" ","HOUSE_NO":"３１號","E_COORD97":173158.28,"N_COORD97":2547168.8100000001,"ADDRESS":"中山南路４７１巷３１號","OBJECTID":355808},"geometry":{"x":173158.28000000212,"y":2547168.8099999987}},{"attributes":{"ID":355818,"DIS_CODE":0,"TOWNNAME":"歸仁區","LI":"後市里","LIN":"33鄰","STREET":"文化街","SECT":"二段","MAREA":" ","LANE":"５３巷","ALLEY":" ","HOUSE_NO":"７號四樓","E_COORD97":177407.39000000001,"N_COORD97":2541070.7599999998,"ADDRESS":"文化街二段５３巷７號四樓","OBJECTID":355809},"geometry":{"x":177407.3900000006,"y":2541070.7600000016}},{"attributes":{"ID":355819,"DIS_CODE":0,"TOWNNAME":"歸仁區","LI":"後市里","LIN":"33鄰","STREET":"文化街","SECT":"二段","MAREA":" ","LANE":"５３巷","ALLEY":" ","HOUSE_NO":"７號九樓","E_COORD97":177407.39000000001,"N_COORD97":2541070.7599999998,"ADDRESS":"文化街二段５３巷７號九樓","OBJECTID":355810},"geometry":{"x":177407.3900000006,"y":2541070.7600000016}},{"attributes":{"ID":355820,"DIS_CODE":0,"TOWNNAME":"永康區","LI":"復國里","LIN":"33鄰","STREET":"復華一街","SECT":" ","MAREA":" ","LANE":"６６巷","ALLEY":" ","HOUSE_NO":"３４號","E_COORD97":172549.81,"N_COORD97":2545200.5299999998,"ADDRESS":"復華一街６６巷３４號","OBJECTID":355811},"geometry":{"x":172549.80999999959,"y":2545200.5300000012}},{"attributes":{"ID":355821,"DIS_CODE":0,"TOWNNAME":"永康區","LI":"復華里","LIN":"33鄰","STREET":"復華十街","SECT":" ","MAREA":" ","LANE":"１１巷","ALLEY":" ","HOUSE_NO":"１號","E_COORD97":172508.54999999999,"N_COORD97":2546185.1499999999,"ADDRESS":"復華十街１１巷１號","OBJECTID":355812},"geometry":{"x":172508.55000000075,"y":2546185.1500000004}},{"attributes":{"ID":355822,"DIS_CODE":0,"TOWNNAME":"永康區","LI":"勝利里","LIN":"33鄰","STREET":"小東路","SECT":" ","MAREA":" ","LANE":"４４９巷","ALLEY":" ","HOUSE_NO":"１０號","E_COORD97":171457.85000000001,"N_COORD97":2544417.6600000001,"ADDRESS":"小東路４４９巷１０號","OBJECTID":355813},"geometry":{"x":171457.84999999963,"y":2544417.660000002}},{"attributes":{"ID":355823,"DIS_CODE":0,"TOWNNAME":"永康區","LI":"勝利里","LIN":"33鄰","STREET":"小東路","SECT":" ","MAREA":" ","LANE":"４４９巷","ALLEY":" ","HOUSE_NO":"２０號","E_COORD97":171459.73999999999,"N_COORD97":2544437.6699999999,"ADDRESS":"小東路４４９巷２０號","OBJECTID":355814},"geometry":{"x":171459.74000000022,"y":2544437.6700000018}},{"attributes":{"ID":355824,"DIS_CODE":0,"TOWNNAME":"永康區","LI":"復國里","LIN":"33鄰","STREET":"復華一街","SECT":" ","MAREA":" ","LANE":"６６巷","ALLEY":" ","HOUSE_NO":"３７號","E_COORD97":172517.98999999999,"N_COORD97":2545161.02,"ADDRESS":"復華一街６６巷３７號","OBJECTID":355815},"geometry":{"x":172517.99000000115,"y":2545161.0200000014}},{"attributes":{"ID":355825,"DIS_CODE":0,"TOWNNAME":"永康區","LI":"崑山里","LIN":"33鄰","STREET":"國光二街","SECT":" ","MAREA":" ","LANE":"７０巷","ALLEY":" ","HOUSE_NO":"６１號","E_COORD97":173928.45000000001,"N_COORD97":2544916.4900000002,"ADDRESS":"國光二街７０巷６１號","OBJECTID":355816},"geometry":{"x":173928.45000000205,"y":2544916.4900000039}},{"attributes":{"ID":355826,"DIS_CODE":0,"TOWNNAME":"永康區","LI":"復國里","LIN":"33鄰","STREET":"復華一街","SECT":" ","MAREA":" ","LANE":"６６巷","ALLEY":" ","HOUSE_NO":"３９號","E_COORD97":172523.20000000001,"N_COORD97":2545161.02,"ADDRESS":"復華一街６６巷３９號","OBJECTID":355817},"geometry":{"x":172523.20000000112,"y":2545161.0200000014}},{"attributes":{"ID":355827,"DIS_CODE":0,"TOWNNAME":"永康區","LI":"勝利里","LIN":"33鄰","STREET":"小東路","SECT":" ","MAREA":" ","LANE":"４４９巷","ALLEY":" ","HOUSE_NO":"１號","E_COORD97":171441.17999999999,"N_COORD97":2544406.9900000002,"ADDRESS":"小東路４４９巷１號","OBJECTID":355818},"geometry":{"x":171441.18000000156,"y":2544406.9900000002}},{"attributes":{"ID":355828,"DIS_CODE":0,"TOWNNAME":"永康區","LI":"勝利里","LIN":"33鄰","STREET":"小東路","SECT":" ","MAREA":" ","LANE":"４４９巷","ALLEY":" ","HOUSE_NO":"２４號","E_COORD97":171460.32000000001,"N_COORD97":2544445.6699999999,"ADDRESS":"小東路４４９巷２４號","OBJECTID":355819},"geometry":{"x":171460.3200000003,"y":2544445.6699999999}},{"attributes":{"ID":355829,"DIS_CODE":0,"TOWNNAME":"永康區","LI":"勝利里","LIN":"33鄰","STREET":"小東路","SECT":" ","MAREA":" ","LANE":"４４９巷","ALLEY":" ","HOUSE_NO":"１５號","E_COORD97":171445.20000000001,"N_COORD97":2544441.5,"ADDRESS":"小東路４４９巷１５號","OBJECTID":355820},"geometry":{"x":171445.20000000112,"y":2544441.5000000037}},{"attributes":{"ID":355830,"DIS_CODE":0,"TOWNNAME":"永康區","LI":"勝利里","LIN":"33鄰","STREET":"小東路","SECT":" ","MAREA":" ","LANE":"４４９巷","ALLEY":" ","HOUSE_NO":"１５號之１","E_COORD97":171447.48000000001,"N_COORD97":2544446.2999999998,"ADDRESS":"小東路４４９巷１５號之１","OBJECTID":355821},"geometry":{"x":171447.48000000138,"y":2544446.3000000007}},{"attributes":{"ID":355831,"DIS_CODE":0,"TOWNNAME":"永康區","LI":"勝利里","LIN":"33鄰","STREET":"小東路","SECT":" ","MAREA":" ","LANE":"４４９巷","ALLEY":" ","HOUSE_NO":"２６號","E_COORD97":171460.91,"N_COORD97":2544449.4199999999,"ADDRESS":"小東路４４９巷２６號","OBJECTID":355822},"geometry":{"x":171460.91000000108,"y":2544449.4200000018}},{"attributes":{"ID":355832,"DIS_CODE":0,"TOWNNAME":"東區","LI":"東門里","LIN":"8鄰","STREET":"前鋒路","SECT":" ","MAREA":" ","LANE":" ","ALLEY":" ","HOUSE_NO":"２６號之１四樓","E_COORD97":169316.29999999999,"N_COORD97":2543437.8399999999,"ADDRESS":"前鋒路２６號之１四樓","OBJECTID":355823},"geometry":{"x":169316.30000000168,"y":2543437.8399999999}},{"attributes":{"ID":355833,"DIS_CODE":0,"TOWNNAME":"東區","LI":"崇信里","LIN":"20鄰","STREET":"崇信街","SECT":" ","MAREA":" ","LANE":"５１巷","ALLEY":" ","HOUSE_NO":"５號","E_COORD97":170761.82000000001,"N_COORD97":2542466.2000000002,"ADDRESS":"崇信街５１巷５號","OBJECTID":355824},"geometry":{"x":170761.82000000123,"y":2542466.2000000011}},{"attributes":{"ID":355834,"DIS_CODE":0,"TOWNNAME":"永康區","LI":"勝利里","LIN":"33鄰","STREET":"小東路","SECT":" ","MAREA":" ","LANE":"４４９巷","ALLEY":" ","HOUSE_NO":"２３號","E_COORD97":171448.39999999999,"N_COORD97":2544469.75,"ADDRESS":"小東路４４９巷２３號","OBJECTID":355825},"geometry":{"x":171448.40000000037,"y":2544469.75}},{"attributes":{"ID":355835,"DIS_CODE":0,"TOWNNAME":"柳營區","LI":"旭山里","LIN":"20鄰","STREET":" ","SECT":" ","MAREA":"山子腳","LANE":" ","ALLEY":" ","HOUSE_NO":"４３號之１","E_COORD97":187182.39000000001,"N_COORD97":2574386.9700000002,"ADDRESS":"山子腳４３號之１","OBJECTID":355826},"geometry":{"x":187182.38999999966,"y":2574386.9700000025}},{"attributes":{"ID":355836,"DIS_CODE":0,"TOWNNAME":"永康區","LI":"崑山里","LIN":"33鄰","STREET":"國光二街","SECT":" ","MAREA":" ","LANE":"７０巷","ALLEY":" ","HOUSE_NO":"５３號","E_COORD97":173920.63,"N_COORD97":2544896.7999999998,"ADDRESS":"國光二街７０巷５３號","OBJECTID":355827},"geometry":{"x":173920.63000000082,"y":2544896.8000000007}},{"attributes":{"ID":355837,"DIS_CODE":0,"TOWNNAME":"永康區","LI":"勝利里","LIN":"33鄰","STREET":"小東路","SECT":" ","MAREA":" ","LANE":"４４９巷","ALLEY":" ","HOUSE_NO":"１５號之２","E_COORD97":171447.91,"N_COORD97":2544450.5499999998,"ADDRESS":"小東路４４９巷１５號之２","OBJECTID":355828},"geometry":{"x":171447.91000000015,"y":2544450.5500000007}},{"attributes":{"ID":355838,"DIS_CODE":0,"TOWNNAME":"柳營區","LI":"旭山里","LIN":"20鄰","STREET":" ","SECT":" ","MAREA":"山子腳","LANE":" ","ALLEY":" ","HOUSE_NO":"４３號","E_COORD97":187168.31,"N_COORD97":2574387.3199999998,"ADDRESS":"山子腳４３號","OBJECTID":355829},"geometry":{"x":187168.31000000052,"y":2574387.3200000022}},{"attributes":{"ID":355839,"DIS_CODE":0,"TOWNNAME":"柳營區","LI":"旭山里","LIN":"20鄰","STREET":" ","SECT":" ","MAREA":"山子腳","LANE":" ","ALLEY":" ","HOUSE_NO":"４４號之１","E_COORD97":187265.78,"N_COORD97":2574374.0099999998,"ADDRESS":"山子腳４４號之１","OBJECTID":355830},"geometry":{"x":187265.78000000119,"y":2574374.0099999998}},{"attributes":{"ID":355840,"DIS_CODE":0,"TOWNNAME":"柳營區","LI":"旭山里","LIN":"20鄰","STREET":" ","SECT":" ","MAREA":"山子腳","LANE":" ","ALLEY":" ","HOUSE_NO":"４４號之２","E_COORD97":187230.42999999999,"N_COORD97":2574331.3599999999,"ADDRESS":"山子腳４４號之２","OBJECTID":355831},"geometry":{"x":187230.43000000063,"y":2574331.3600000031}},{"attributes":{"ID":355841,"DIS_CODE":0,"TOWNNAME":"柳營區","LI":"旭山里","LIN":"20鄰","STREET":" ","SECT":" ","MAREA":"山子腳","LANE":" ","ALLEY":" ","HOUSE_NO":"４４號之５","E_COORD97":187230.51999999999,"N_COORD97":2574353.0299999998,"ADDRESS":"山子腳４４號之５","OBJECTID":355832},"geometry":{"x":187230.51999999955,"y":2574353.0299999993}},{"attributes":{"ID":355842,"DIS_CODE":0,"TOWNNAME":"柳營區","LI":"旭山里","LIN":"20鄰","STREET":" ","SECT":" ","MAREA":"山子腳","LANE":" ","ALLEY":" ","HOUSE_NO":"４４號之６","E_COORD97":187235.79000000001,"N_COORD97":2574352.7000000002,"ADDRESS":"山子腳４４號之６","OBJECTID":355833},"geometry":{"x":187235.79000000004,"y":2574352.700000003}},{"attributes":{"ID":355843,"DIS_CODE":0,"TOWNNAME":"柳營區","LI":"旭山里","LIN":"20鄰","STREET":" ","SECT":" ","MAREA":"山子腳","LANE":" ","ALLEY":" ","HOUSE_NO":"４４號之７","E_COORD97":187224.54999999999,"N_COORD97":2574349.4500000002,"ADDRESS":"山子腳４４號之７","OBJECTID":355834},"geometry":{"x":187224.55000000075,"y":2574349.4499999993}},{"attributes":{"ID":355844,"DIS_CODE":0,"TOWNNAME":"柳營區","LI":"旭山里","LIN":"20鄰","STREET":" ","SECT":" ","MAREA":"山子腳","LANE":" ","ALLEY":" ","HOUSE_NO":"４５號","E_COORD97":187173.70999999999,"N_COORD97":2574294.02,"ADDRESS":"山子腳４５號","OBJECTID":355835},"geometry":{"x":187173.70999999996,"y":2574294.0200000014}},{"attributes":{"ID":355845,"DIS_CODE":0,"TOWNNAME":"柳營區","LI":"旭山里","LIN":"20鄰","STREET":" ","SECT":" ","MAREA":"山子腳","LANE":" ","ALLEY":" ","HOUSE_NO":"４６之２號","E_COORD97":187188.04999999999,"N_COORD97":2574344.7200000002,"ADDRESS":"山子腳４６之２號","OBJECTID":355836},"geometry":{"x":187188.04999999981,"y":2574344.7200000025}},{"attributes":{"ID":355846,"DIS_CODE":0,"TOWNNAME":"柳營區","LI":"旭山里","LIN":"20鄰","STREET":" ","SECT":" ","MAREA":"山子腳","LANE":" ","ALLEY":" ","HOUSE_NO":"４７號之１０","E_COORD97":187330.34,"N_COORD97":2574290.1200000001,"ADDRESS":"山子腳４７號之１０","OBJECTID":355837},"geometry":{"x":187330.33999999985,"y":2574290.120000001}},{"attributes":{"ID":355847,"DIS_CODE":0,"TOWNNAME":"永康區","LI":"勝利里","LIN":"33鄰","STREET":"小東路","SECT":" ","MAREA":" ","LANE":"４４９巷","ALLEY":" ","HOUSE_NO":"１１號","E_COORD97":171444.32000000001,"N_COORD97":2544432.9900000002,"ADDRESS":"小東路４４９巷１１號","OBJECTID":355838},"geometry":{"x":171444.32000000123,"y":2544432.9900000021}},{"attributes":{"ID":355848,"DIS_CODE":0,"TOWNNAME":"永康區","LI":"勝利里","LIN":"33鄰","STREET":"小東路","SECT":" ","MAREA":" ","LANE":"４４９巷","ALLEY":" ","HOUSE_NO":"１４號","E_COORD97":171458.57000000001,"N_COORD97":2544425.6600000001,"ADDRESS":"小東路４４９巷１４號","OBJECTID":355839},"geometry":{"x":171458.57000000123,"y":2544425.6600000001}},{"attributes":{"ID":355849,"DIS_CODE":0,"TOWNNAME":"永康區","LI":"勝利里","LIN":"33鄰","STREET":"小東路","SECT":" ","MAREA":" ","LANE":"４４９巷","ALLEY":" ","HOUSE_NO":"８號","E_COORD97":171456.32000000001,"N_COORD97":2544413.9100000001,"ADDRESS":"小東路４４９巷８號","OBJECTID":355840},"geometry":{"x":171456.32000000123,"y":2544413.9100000001}},{"attributes":{"ID":355850,"DIS_CODE":0,"TOWNNAME":"仁德區","LI":"成功里","LIN":"33鄰","STREET":"成功一街","SECT":" ","MAREA":" ","LANE":"４３巷","ALLEY":" ","HOUSE_NO":"２０號","E_COORD97":170614.64999999999,"N_COORD97":2540105.27,"ADDRESS":"成功一街４３巷２０號","OBJECTID":355841},"geometry":{"x":170614.64999999944,"y":2540105.2699999996}},{"attributes":{"ID":355851,"DIS_CODE":0,"TOWNNAME":"永康區","LI":"南灣里","LIN":"1鄰","STREET":"大灣二街","SECT":" ","MAREA":" ","LANE":" ","ALLEY":" ","HOUSE_NO":"１０９號","E_COORD97":174745.04999999999,"N_COORD97":2544779.23,"ADDRESS":"大灣二街１０９號","OBJECTID":355842},"geometry":{"x":174745.05000000075,"y":2544779.2300000042}},{"attributes":{"ID":355852,"DIS_CODE":0,"TOWNNAME":"新營區","LI":"太北里","LIN":"2鄰","STREET":" ","SECT":" ","MAREA":"太子宮","LANE":" ","ALLEY":" ","HOUSE_NO":"１５號之７","E_COORD97":176157.35999999999,"N_COORD97":2577126.27,"ADDRESS":"太子宮１５號之７","OBJECTID":355843},"geometry":{"x":176157.36000000127,"y":2577126.2700000014}},{"attributes":{"ID":355853,"DIS_CODE":0,"TOWNNAME":"柳營區","LI":"旭山里","LIN":"20鄰","STREET":" ","SECT":" ","MAREA":"山子腳","LANE":" ","ALLEY":" ","HOUSE_NO":"４８號之１０","E_COORD97":187287.17999999999,"N_COORD97":2574055.6699999999,"ADDRESS":"山子腳４８號之１０","OBJECTID":355844},"geometry":{"x":187287.1799999997,"y":2574055.6700000018}},{"attributes":{"ID":355854,"DIS_CODE":0,"TOWNNAME":"新營區","LI":"新北里","LIN":"33鄰","STREET":"新北八街","SECT":" ","MAREA":" ","LANE":"７６巷","ALLEY":" ","HOUSE_NO":"１６號","E_COORD97":178758.85999999999,"N_COORD97":2579157.8399999999,"ADDRESS":"新北八街７６巷１６號","OBJECTID":355845},"geometry":{"x":178758.86000000127,"y":2579157.8400000017}},{"attributes":{"ID":355855,"DIS_CODE":0,"TOWNNAME":"東區","LI":"路東里","LIN":"9鄰","STREET":"大同路","SECT":"二段","MAREA":" ","LANE":"１９巷","ALLEY":" ","HOUSE_NO":"４號","E_COORD97":169277.17000000001,"N_COORD97":2542341.75,"ADDRESS":"大同路二段１９巷４號","OBJECTID":355846},"geometry":{"x":169277.17000000086,"y":2542341.7500000019}},{"attributes":{"ID":355856,"DIS_CODE":0,"TOWNNAME":"北區","LI":"安民里","LIN":"9鄰","STREET":"西門路","SECT":"三段","MAREA":" ","LANE":"４５巷","ALLEY":" ","HOUSE_NO":"７號","E_COORD97":168235.92999999999,"N_COORD97":2544695.1600000001,"ADDRESS":"西門路三段４５巷７號","OBJECTID":355847},"geometry":{"x":168235.93000000063,"y":2544695.160000002}},{"attributes":{"ID":355857,"DIS_CODE":0,"TOWNNAME":"安南區","LI":"南興里","LIN":"9鄰","STREET":"安興街","SECT":" ","MAREA":" ","LANE":"６３２巷","ALLEY":" ","HOUSE_NO":"５５號之３","E_COORD97":163658.45999999999,"N_COORD97":2552467.3900000001,"ADDRESS":"安興街６３２巷５５號之３","OBJECTID":355848},"geometry":{"x":163658.45999999903,"y":2552467.3900000006}},{"attributes":{"ID":355858,"DIS_CODE":0,"TOWNNAME":"東區","LI":"東門里","LIN":"8鄰","STREET":"前鋒路","SECT":" ","MAREA":" ","LANE":" ","ALLEY":" ","HOUSE_NO":"２６號之２二樓","E_COORD97":169315.82999999999,"N_COORD97":2543445.4900000002,"ADDRESS":"前鋒路２６號之２二樓","OBJECTID":355849},"geometry":{"x":169315.83000000007,"y":2543445.4900000021}},{"attributes":{"ID":355859,"DIS_CODE":0,"TOWNNAME":"柳營區","LI":"旭山里","LIN":"20鄰","STREET":" ","SECT":" ","MAREA":"山子腳","LANE":" ","ALLEY":" ","HOUSE_NO":"４８號之１２","E_COORD97":187363.37,"N_COORD97":2574164.0699999998,"ADDRESS":"山子腳４８號之１２","OBJECTID":355850},"geometry":{"x":187363.37000000104,"y":2574164.0700000003}},{"attributes":{"ID":355860,"DIS_CODE":0,"TOWNNAME":"東區","LI":"東門里","LIN":"8鄰","STREET":"前鋒路","SECT":" ","MAREA":" ","LANE":" ","ALLEY":" ","HOUSE_NO":"２６號之２三樓","E_COORD97":169315.82999999999,"N_COORD97":2543445.4900000002,"ADDRESS":"前鋒路２６號之２三樓","OBJECTID":355851},"geometry":{"x":169315.83000000007,"y":2543445.4900000021}},{"attributes":{"ID":355861,"DIS_CODE":0,"TOWNNAME":"北區","LI":"長榮里","LIN":"5鄰","STREET":"長勝路","SECT":" ","MAREA":" ","LANE":" ","ALLEY":" ","HOUSE_NO":"４３號","E_COORD97":169966.35000000001,"N_COORD97":2545602.0299999998,"ADDRESS":"長勝路４３號","OBJECTID":355852},"geometry":{"x":169966.34999999963,"y":2545602.0299999993}},{"attributes":{"ID":355862,"DIS_CODE":0,"TOWNNAME":"北區","LI":"長榮里","LIN":"13鄰","STREET":"長榮路","SECT":"五段","MAREA":" ","LANE":" ","ALLEY":" ","HOUSE_NO":"５號","E_COORD97":170104.29999999999,"N_COORD97":2545370.02,"ADDRESS":"長榮路五段５號","OBJECTID":355853},"geometry":{"x":170104.29999999981,"y":2545370.0200000014}},{"attributes":{"ID":355863,"DIS_CODE":0,"TOWNNAME":"柳營區","LI":"旭山里","LIN":"20鄰","STREET":" ","SECT":" ","MAREA":"山子腳","LANE":" ","ALLEY":" ","HOUSE_NO":"４８號之１３","E_COORD97":187371.70000000001,"N_COORD97":2574214.27,"ADDRESS":"山子腳４８號之１３","OBJECTID":355854},"geometry":{"x":187371.70000000112,"y":2574214.2700000014}},{"attributes":{"ID":355864,"DIS_CODE":0,"TOWNNAME":"安南區","LI":"南興里","LIN":"9鄰","STREET":"安興街","SECT":" ","MAREA":" ","LANE":"６３２巷","ALLEY":" ","HOUSE_NO":"５５號之１","E_COORD97":163650.04000000001,"N_COORD97":2552469.4900000002,"ADDRESS":"安興街６３２巷５５號之１","OBJECTID":355855},"geometry":{"x":163650.04000000097,"y":2552469.4900000002}},{"attributes":{"ID":355865,"DIS_CODE":0,"TOWNNAME":"仁德區","LI":"成功里","LIN":"33鄰","STREET":"成功一街","SECT":" ","MAREA":" ","LANE":"４３巷","ALLEY":" ","HOUSE_NO":"１６號","E_COORD97":170601.67999999999,"N_COORD97":2540105.77,"ADDRESS":"成功一街４３巷１６號","OBJECTID":355856},"geometry":{"x":170601.6799999997,"y":2540105.7699999996}},{"attributes":{"ID":355866,"DIS_CODE":0,"TOWNNAME":"仁德區","LI":"成功里","LIN":"33鄰","STREET":"成功一街","SECT":" ","MAREA":" ","LANE":"４３巷","ALLEY":" ","HOUSE_NO":"１７號","E_COORD97":170607.95999999999,"N_COORD97":2540113.02,"ADDRESS":"成功一街４３巷１７號","OBJECTID":355857},"geometry":{"x":170607.96000000089,"y":2540113.0199999996}},{"attributes":{"ID":355867,"DIS_CODE":0,"TOWNNAME":"仁德區","LI":"成功里","LIN":"33鄰","STREET":"成功一街","SECT":" ","MAREA":" ","LANE":"４３巷","ALLEY":" ","HOUSE_NO":"１０號","E_COORD97":170581.51999999999,"N_COORD97":2540105.02,"ADDRESS":"成功一街４３巷１０號","OBJECTID":355858},"geometry":{"x":170581.52000000048,"y":2540105.0200000014}},{"attributes":{"ID":355868,"DIS_CODE":0,"TOWNNAME":"新市區","LI":"新和里","LIN":"33鄰","STREET":"忠孝街","SECT":" ","MAREA":" ","LANE":"２１８巷","ALLEY":" ","HOUSE_NO":"２號","E_COORD97":177757.89999999999,"N_COORD97":2552922.5,"ADDRESS":"忠孝街２１８巷２號","OBJECTID":355859},"geometry":{"x":177757.90000000037,"y":2552922.5}},{"attributes":{"ID":355869,"DIS_CODE":0,"TOWNNAME":"新市區","LI":"新和里","LIN":"33鄰","STREET":"忠孝街","SECT":" ","MAREA":" ","LANE":"２１８巷","ALLEY":" ","HOUSE_NO":"５號","E_COORD97":177762.54000000001,"N_COORD97":2552935.5,"ADDRESS":"忠孝街２１８巷５號","OBJECTID":355860},"geometry":{"x":177762.54000000097,"y":2552935.5000000019}},{"attributes":{"ID":355870,"DIS_CODE":0,"TOWNNAME":"永康區","LI":"崑山里","LIN":"33鄰","STREET":"國光二街","SECT":" ","MAREA":" ","LANE":"７０巷","ALLEY":" ","HOUSE_NO":"５７號","E_COORD97":173924.53,"N_COORD97":2544905.29,"ADDRESS":"國光二街７０巷５７號","OBJECTID":355861},"geometry":{"x":173924.53000000212,"y":2544905.2899999991}},{"attributes":{"ID":355871,"DIS_CODE":0,"TOWNNAME":"永康區","LI":"崑山里","LIN":"33鄰","STREET":"國光二街","SECT":" ","MAREA":" ","LANE":"７０巷","ALLEY":" ","HOUSE_NO":"６３號","E_COORD97":173930.53,"N_COORD97":2544922.9900000002,"ADDRESS":"國光二街７０巷６３號","OBJECTID":355862},"geometry":{"x":173930.53000000026,"y":2544922.9900000039}},{"attributes":{"ID":355872,"DIS_CODE":0,"TOWNNAME":"永康區","LI":"復國里","LIN":"33鄰","STREET":"復華一街","SECT":" ","MAREA":" ","LANE":"６６巷","ALLEY":" ","HOUSE_NO":"１２號","E_COORD97":172547.85999999999,"N_COORD97":2545138.9900000002,"ADDRESS":"復華一街６６巷１２號","OBJECTID":355863},"geometry":{"x":172547.86000000127,"y":2545138.9900000002}},{"attributes":{"ID":355873,"DIS_CODE":0,"TOWNNAME":"永康區","LI":"復國里","LIN":"33鄰","STREET":"復華一街","SECT":" ","MAREA":" ","LANE":"６６巷","ALLEY":" ","HOUSE_NO":"２６號","E_COORD97":172548.87,"N_COORD97":2545182.7799999998,"ADDRESS":"復華一街６６巷２６號","OBJECTID":355864},"geometry":{"x":172548.87000000197,"y":2545182.7800000012}},{"attributes":{"ID":355874,"DIS_CODE":0,"TOWNNAME":"永康區","LI":"復華里","LIN":"33鄰","STREET":"忠孝路","SECT":" ","MAREA":" ","LANE":"３５２巷","ALLEY":" ","HOUSE_NO":"１２號","E_COORD97":172448.42999999999,"N_COORD97":2546296.9900000002,"ADDRESS":"忠孝路３５２巷１２號","OBJECTID":355865},"geometry":{"x":172448.43000000063,"y":2546296.9900000021}},{"attributes":{"ID":355875,"DIS_CODE":0,"TOWNNAME":"永康區","LI":"復華里","LIN":"33鄰","STREET":"復華十街","SECT":" ","MAREA":" ","LANE":"１１巷","ALLEY":" ","HOUSE_NO":"１８號","E_COORD97":172503.04000000001,"N_COORD97":2546216.0299999998,"ADDRESS":"復華十街１１巷１８號","OBJECTID":355866},"geometry":{"x":172503.04000000004,"y":2546216.0299999993}},{"attributes":{"ID":355876,"DIS_CODE":0,"TOWNNAME":"永康區","LI":"復華里","LIN":"33鄰","STREET":"忠孝路","SECT":" ","MAREA":" ","LANE":"３５２巷","ALLEY":" ","HOUSE_NO":"２４號","E_COORD97":172451,"N_COORD97":2546260.9900000002,"ADDRESS":"忠孝路３５２巷２４號","OBJECTID":355867},"geometry":{"x":172451,"y":2546260.9900000002}},{"attributes":{"ID":355877,"DIS_CODE":0,"TOWNNAME":"永康區","LI":"復國里","LIN":"33鄰","STREET":"復華一街","SECT":" ","MAREA":" ","LANE":"６６巷","ALLEY":" ","HOUSE_NO":"１４號","E_COORD97":172548.87,"N_COORD97":2545145.6499999999,"ADDRESS":"復華一街６６巷１４號","OBJECTID":355868},"geometry":{"x":172548.87000000197,"y":2545145.6499999985}},{"attributes":{"ID":355878,"DIS_CODE":0,"TOWNNAME":"永康區","LI":"復華里","LIN":"33鄰","STREET":"忠孝路","SECT":" ","MAREA":" ","LANE":"３５２巷","ALLEY":" ","HOUSE_NO":"６號","E_COORD97":172446.06,"N_COORD97":2546314.75,"ADDRESS":"忠孝路３５２巷６號","OBJECTID":355869},"geometry":{"x":172446.06000000052,"y":2546314.7500000019}},{"attributes":{"ID":355879,"DIS_CODE":0,"TOWNNAME":"永康區","LI":"復華里","LIN":"33鄰","STREET":"忠孝路","SECT":" ","MAREA":" ","LANE":"３５２巷","ALLEY":" ","HOUSE_NO":"１０號","E_COORD97":172448.06,"N_COORD97":2546303.25,"ADDRESS":"忠孝路３５２巷１０號","OBJECTID":355870},"geometry":{"x":172448.05999999959,"y":2546303.25}},{"attributes":{"ID":355880,"DIS_CODE":0,"TOWNNAME":"永康區","LI":"復國里","LIN":"33鄰","STREET":"復華一街","SECT":" ","MAREA":" ","LANE":"３６巷","ALLEY":" ","HOUSE_NO":"３號","E_COORD97":172593.67999999999,"N_COORD97":2545116.77,"ADDRESS":"復華一街３６巷３號","OBJECTID":355871},"geometry":{"x":172593.6799999997,"y":2545116.7699999977}},{"attributes":{"ID":355881,"DIS_CODE":0,"TOWNNAME":"東區","LI":"東門里","LIN":"8鄰","STREET":"前鋒路","SECT":" ","MAREA":" ","LANE":" ","ALLEY":" ","HOUSE_NO":"２６號之２五樓","E_COORD97":169315.82999999999,"N_COORD97":2543445.4900000002,"ADDRESS":"前鋒路２６號之２五樓","OBJECTID":355872},"geometry":{"x":169315.83000000007,"y":2543445.4900000021}},{"attributes":{"ID":355882,"DIS_CODE":0,"TOWNNAME":"永康區","LI":"復國里","LIN":"33鄰","STREET":"復華一街","SECT":" ","MAREA":" ","LANE":"６６巷","ALLEY":" ","HOUSE_NO":"７號","E_COORD97":172512.26000000001,"N_COORD97":2545114.02,"ADDRESS":"復華一街６６巷７號","OBJECTID":355873},"geometry":{"x":172512.26000000071,"y":2545114.0199999996}},{"attributes":{"ID":355883,"DIS_CODE":0,"TOWNNAME":"永康區","LI":"復國里","LIN":"33鄰","STREET":"復華一街","SECT":" ","MAREA":" ","LANE":"６６巷","ALLEY":" ","HOUSE_NO":"３號","E_COORD97":172504.78,"N_COORD97":2545114.02,"ADDRESS":"復華一街６６巷３號","OBJECTID":355874},"geometry":{"x":172504.78000000026,"y":2545114.0199999996}},{"attributes":{"ID":355884,"DIS_CODE":0,"TOWNNAME":"永康區","LI":"復國里","LIN":"33鄰","STREET":"復華一街","SECT":" ","MAREA":" ","LANE":"６６巷","ALLEY":" ","HOUSE_NO":"２２號","E_COORD97":172548.29000000001,"N_COORD97":2545173.7799999998,"ADDRESS":"復華一街６６巷２２號","OBJECTID":355875},"geometry":{"x":172548.29000000097,"y":2545173.7799999993}},{"attributes":{"ID":355885,"DIS_CODE":0,"TOWNNAME":"永康區","LI":"復國里","LIN":"33鄰","STREET":"復華一街","SECT":" ","MAREA":" ","LANE":"６６巷","ALLEY":" ","HOUSE_NO":"１７號","E_COORD97":172532.56,"N_COORD97":2545133.27,"ADDRESS":"復華一街６６巷１７號","OBJECTID":355876},"geometry":{"x":172532.56000000052,"y":2545133.2699999996}},{"attributes":{"ID":355886,"DIS_CODE":0,"TOWNNAME":"永康區","LI":"復國里","LIN":"33鄰","STREET":"復華一街","SECT":" ","MAREA":" ","LANE":"３６巷","ALLEY":" ","HOUSE_NO":"２號","E_COORD97":172593.01000000001,"N_COORD97":2545112.27,"ADDRESS":"復華一街３６巷２號","OBJECTID":355877},"geometry":{"x":172593.00999999978,"y":2545112.2699999996}},{"attributes":{"ID":355887,"DIS_CODE":0,"TOWNNAME":"永康區","LI":"復國里","LIN":"33鄰","STREET":"復華一街","SECT":" ","MAREA":" ","LANE":"６６巷","ALLEY":" ","HOUSE_NO":"２１號","E_COORD97":172533.06,"N_COORD97":2545143.27,"ADDRESS":"復華一街６６巷２１號","OBJECTID":355878},"geometry":{"x":172533.05999999959,"y":2545143.2699999996}},{"attributes":{"ID":355888,"DIS_CODE":0,"TOWNNAME":"永康區","LI":"復華里","LIN":"33鄰","STREET":"復華十街","SECT":" ","MAREA":" ","LANE":"１１巷","ALLEY":" ","HOUSE_NO":"２０號","E_COORD97":172499.98000000001,"N_COORD97":2546211.0299999998,"ADDRESS":"復華十街１１巷２０號","OBJECTID":355879},"geometry":{"x":172499.98000000138,"y":2546211.0300000012}},{"attributes":{"ID":355889,"DIS_CODE":0,"TOWNNAME":"永康區","LI":"復華里","LIN":"33鄰","STREET":"復華十街","SECT":" ","MAREA":" ","LANE":"１１巷","ALLEY":" ","HOUSE_NO":"８號","E_COORD97":172519.54999999999,"N_COORD97":2546208.6099999999,"ADDRESS":"復華十街１１巷８號","OBJECTID":355880},"geometry":{"x":172519.54999999981,"y":2546208.6099999994}},{"attributes":{"ID":355890,"DIS_CODE":0,"TOWNNAME":"安南區","LI":"鹿耳里","LIN":"9鄰","STREET":"北汕尾二路","SECT":" ","MAREA":" ","LANE":"５５０巷","ALLEY":" ","HOUSE_NO":"２４號","E_COORD97":160562.56,"N_COORD97":2548006.3500000001,"ADDRESS":"北汕尾二路５５０巷２４號","OBJECTID":355881},"geometry":{"x":160562.56000000052,"y":2548006.3500000015}},{"attributes":{"ID":355891,"DIS_CODE":0,"TOWNNAME":"安南區","LI":"鹿耳里","LIN":"9鄰","STREET":"北汕尾二路","SECT":" ","MAREA":" ","LANE":"５５０巷","ALLEY":" ","HOUSE_NO":"２６號","E_COORD97":160564.94,"N_COORD97":2548004.6499999999,"ADDRESS":"北汕尾二路５５０巷２６號","OBJECTID":355882},"geometry":{"x":160564.94000000041,"y":2548004.6500000022}},{"attributes":{"ID":355892,"DIS_CODE":0,"TOWNNAME":"安南區","LI":"鹿耳里","LIN":"9鄰","STREET":"北汕尾二路","SECT":" ","MAREA":" ","LANE":"５５０巷","ALLEY":" ","HOUSE_NO":"２８號","E_COORD97":160567.32000000001,"N_COORD97":2548003.6299999999,"ADDRESS":"北汕尾二路５５０巷２８號","OBJECTID":355883},"geometry":{"x":160567.3200000003,"y":2548003.6300000008}},{"attributes":{"ID":355893,"DIS_CODE":0,"TOWNNAME":"安南區","LI":"鹿耳里","LIN":"9鄰","STREET":"北汕尾二路","SECT":" ","MAREA":" ","LANE":"５５０巷","ALLEY":" ","HOUSE_NO":"３０號","E_COORD97":160572.42999999999,"N_COORD97":2547997.8500000001,"ADDRESS":"北汕尾二路５５０巷３０號","OBJECTID":355884},"geometry":{"x":160572.4299999997,"y":2547997.8499999996}},{"attributes":{"ID":355894,"DIS_CODE":0,"TOWNNAME":"永康區","LI":"復華里","LIN":"33鄰","STREET":"忠孝路","SECT":" ","MAREA":" ","LANE":"３５２巷","ALLEY":" ","HOUSE_NO":"１４號","E_COORD97":172448.95999999999,"N_COORD97":2546291.2400000002,"ADDRESS":"忠孝路３５２巷１４號","OBJECTID":355885},"geometry":{"x":172448.96000000089,"y":2546291.2400000039}},{"attributes":{"ID":355895,"DIS_CODE":0,"TOWNNAME":"永康區","LI":"復國里","LIN":"33鄰","STREET":"復華一街","SECT":" ","MAREA":" ","LANE":"６６巷","ALLEY":" ","HOUSE_NO":"６號","E_COORD97":172545.26999999999,"N_COORD97":2545116.4900000002,"ADDRESS":"復華一街６６巷６號","OBJECTID":355886},"geometry":{"x":172545.26999999955,"y":2545116.4900000039}},{"attributes":{"ID":355896,"DIS_CODE":0,"TOWNNAME":"永康區","LI":"復華里","LIN":"33鄰","STREET":"忠孝路","SECT":" ","MAREA":" ","LANE":"３５２巷","ALLEY":" ","HOUSE_NO":"２２號","E_COORD97":172450.17999999999,"N_COORD97":2546266.9900000002,"ADDRESS":"忠孝路３５２巷２２號","OBJECTID":355887},"geometry":{"x":172450.18000000063,"y":2546266.9900000021}},{"attributes":{"ID":355897,"DIS_CODE":0,"TOWNNAME":"永康區","LI":"復國里","LIN":"33鄰","STREET":"復華一街","SECT":" ","MAREA":" ","LANE":"６６巷","ALLEY":" ","HOUSE_NO":"８號","E_COORD97":172545.82000000001,"N_COORD97":2545123.4900000002,"ADDRESS":"復華一街６６巷８號","OBJECTID":355888},"geometry":{"x":172545.8200000003,"y":2545123.4900000021}},{"attributes":{"ID":355898,"DIS_CODE":0,"TOWNNAME":"永康區","LI":"崑山里","LIN":"33鄰","STREET":"崑山街","SECT":" ","MAREA":" ","LANE":"１２３巷","ALLEY":" ","HOUSE_NO":"６號","E_COORD97":173985.13,"N_COORD97":2544813.0600000001,"ADDRESS":"崑山街１２３巷６號","OBJECTID":355889},"geometry":{"x":173985.13000000082,"y":2544813.0600000005}},{"attributes":{"ID":355899,"DIS_CODE":0,"TOWNNAME":"永康區","LI":"\u25A0行里","LIN":"33鄰","STREET":"中正北路","SECT":" ","MAREA":" ","LANE":"７１巷","ALLEY":" ","HOUSE_NO":"１１號","E_COORD97":172075.38,"N_COORD97":2549176.48,"ADDRESS":"中正北路７１巷１１號","OBJECTID":355890},"geometry":{"x":172075.37999999989,"y":2549176.4800000023}},{"attributes":{"ID":355900,"DIS_CODE":0,"TOWNNAME":"仁德區","LI":"成功里","LIN":"33鄰","STREET":"成功一街","SECT":" ","MAREA":" ","LANE":"４３巷","ALLEY":" ","HOUSE_NO":"９號","E_COORD97":170587.51000000001,"N_COORD97":2540113.02,"ADDRESS":"成功一街４３巷９號","OBJECTID":355891},"geometry":{"x":170587.50999999978,"y":2540113.0199999996}},{"attributes":{"ID":355901,"DIS_CODE":0,"TOWNNAME":"仁德區","LI":"成功里","LIN":"33鄰","STREET":"成功一街","SECT":" ","MAREA":" ","LANE":"４３巷","ALLEY":" ","HOUSE_NO":"８號","E_COORD97":170573.89000000001,"N_COORD97":2540105.27,"ADDRESS":"成功一街４３巷８號","OBJECTID":355892},"geometry":{"x":170573.8900000006,"y":2540105.2699999996}},{"attributes":{"ID":355902,"DIS_CODE":0,"TOWNNAME":"仁德區","LI":"後壁里","LIN":"33鄰","STREET":"德洋二街","SECT":" ","MAREA":" ","LANE":"３９巷","ALLEY":" ","HOUSE_NO":"６１號","E_COORD97":172224.53,"N_COORD97":2539426.1600000001,"ADDRESS":"德洋二街３９巷６１號","OBJECTID":355893},"geometry":{"x":172224.53000000119,"y":2539426.1600000039}},{"attributes":{"ID":355903,"DIS_CODE":0,"TOWNNAME":"仁德區","LI":"後壁里","LIN":"33鄰","STREET":"德洋二街","SECT":" ","MAREA":" ","LANE":"３９巷","ALLEY":" ","HOUSE_NO":"４３號","E_COORD97":172262.04999999999,"N_COORD97":2539426.4100000001,"ADDRESS":"德洋二街３９巷４３號","OBJECTID":355894},"geometry":{"x":172262.04999999981,"y":2539426.4100000001}},{"attributes":{"ID":355904,"DIS_CODE":0,"TOWNNAME":"仁德區","LI":"後壁里","LIN":"33鄰","STREET":"德洋二街","SECT":" ","MAREA":" ","LANE":"３９巷","ALLEY":" ","HOUSE_NO":"７２號","E_COORD97":172187.39000000001,"N_COORD97":2539443.5099999998,"ADDRESS":"德洋二街３９巷７２號","OBJECTID":355895},"geometry":{"x":172187.3900000006,"y":2539443.5100000035}},{"attributes":{"ID":355905,"DIS_CODE":0,"TOWNNAME":"仁德區","LI":"後壁里","LIN":"33鄰","STREET":"德洋二街","SECT":" ","MAREA":" ","LANE":"３９巷","ALLEY":" ","HOUSE_NO":"７１號","E_COORD97":172200.62,"N_COORD97":2539424.9100000001,"ADDRESS":"德洋二街３９巷７１號","OBJECTID":355896},"geometry":{"x":172200.62000000011,"y":2539424.910000002}},{"attributes":{"ID":355906,"DIS_CODE":0,"TOWNNAME":"東區","LI":"東門里","LIN":"8鄰","STREET":"前鋒路","SECT":" ","MAREA":" ","LANE":" ","ALLEY":" ","HOUSE_NO":"２６號之２四樓","E_COORD97":169315.82999999999,"N_COORD97":2543445.4900000002,"ADDRESS":"前鋒路２６號之２四樓","OBJECTID":355897},"geometry":{"x":169315.83000000007,"y":2543445.4900000021}},{"attributes":{"ID":355907,"DIS_CODE":0,"TOWNNAME":"東區","LI":"東門里","LIN":"8鄰","STREET":"前鋒路","SECT":" ","MAREA":" ","LANE":" ","ALLEY":" ","HOUSE_NO":"２６號五樓","E_COORD97":169301.32999999999,"N_COORD97":2543440.04,"ADDRESS":"前鋒路２６號五樓","OBJECTID":355898},"geometry":{"x":169301.33000000101,"y":2543440.0400000028}},{"attributes":{"ID":355908,"DIS_CODE":0,"TOWNNAME":"東區","LI":"東門里","LIN":"8鄰","STREET":"前鋒路","SECT":" ","MAREA":" ","LANE":" ","ALLEY":" ","HOUSE_NO":"２６號四樓","E_COORD97":169301.32999999999,"N_COORD97":2543440.04,"ADDRESS":"前鋒路２６號四樓","OBJECTID":355899},"geometry":{"x":169301.33000000101,"y":2543440.0400000028}},{"attributes":{"ID":355909,"DIS_CODE":0,"TOWNNAME":"東區","LI":"東門里","LIN":"8鄰","STREET":"前鋒路","SECT":" ","MAREA":" ","LANE":" ","ALLEY":" ","HOUSE_NO":"２８號五樓","E_COORD97":169299.67000000001,"N_COORD97":2543443.6299999999,"ADDRESS":"前鋒路２８號五樓","OBJECTID":355900},"geometry":{"x":169299.66999999993,"y":2543443.6300000008}},{"attributes":{"ID":355910,"DIS_CODE":0,"TOWNNAME":"東區","LI":"東門里","LIN":"8鄰","STREET":"前鋒路","SECT":" ","MAREA":" ","LANE":" ","ALLEY":" ","HOUSE_NO":"２８號四樓","E_COORD97":169299.67000000001,"N_COORD97":2543443.6299999999,"ADDRESS":"前鋒路２８號四樓","OBJECTID":355901},"geometry":{"x":169299.66999999993,"y":2543443.6300000008}},{"attributes":{"ID":355911,"DIS_CODE":0,"TOWNNAME":"東區","LI":"東門里","LIN":"8鄰","STREET":"前鋒路","SECT":" ","MAREA":" ","LANE":" ","ALLEY":" ","HOUSE_NO":"４４號二樓","E_COORD97":169304.13,"N_COORD97":2543476.71,"ADDRESS":"前鋒路４４號二樓","OBJECTID":355902},"geometry":{"x":169304.13000000175,"y":2543476.7100000009}},{"attributes":{"ID":355912,"DIS_CODE":0,"TOWNNAME":"南區","LI":"國宅里","LIN":"9鄰","STREET":"金華路","SECT":"二段","MAREA":" ","LANE":"２１巷","ALLEY":" ","HOUSE_NO":"４２之１號","E_COORD97":166891.85000000001,"N_COORD97":2541925.3999999999,"ADDRESS":"金華路二段２１巷４２之１號","OBJECTID":355903},"geometry":{"x":166891.85000000056,"y":2541925.4000000004}},{"attributes":{"ID":355913,"DIS_CODE":0,"TOWNNAME":"新營區","LI":"興業里","LIN":" ","STREET":"公誠街","SECT":" ","MAREA":" ","LANE":"９巷","ALLEY":" ","HOUSE_NO":"５之１號","E_COORD97":180322.75,"N_COORD97":2578019.7400000002,"ADDRESS":"公誠街９巷５之１號","OBJECTID":355904},"geometry":{"x":180322.75000000093,"y":2578019.7400000021}},{"attributes":{"ID":355914,"DIS_CODE":0,"TOWNNAME":"中西區","LI":"公正里","LIN":"9鄰","STREET":"民族路","SECT":"二段","MAREA":" ","LANE":"５７巷","ALLEY":" ","HOUSE_NO":"１２之５號","E_COORD97":169016.26000000001,"N_COORD97":2543803.4700000002,"ADDRESS":"民族路二段５７巷１２之５號","OBJECTID":355905},"geometry":{"x":169016.25999999978,"y":2543803.4700000007}},{"attributes":{"ID":355915,"DIS_CODE":0,"TOWNNAME":"中西區","LI":"公正里","LIN":"9鄰","STREET":"民族路","SECT":"二段","MAREA":" ","LANE":"５７巷","ALLEY":" ","HOUSE_NO":"１２之６號","E_COORD97":169016.42000000001,"N_COORD97":2543796.0099999998,"ADDRESS":"民族路二段５７巷１２之６號","OBJECTID":355906},"geometry":{"x":169016.42000000086,"y":2543796.0099999998}},{"attributes":{"ID":355916,"DIS_CODE":0,"TOWNNAME":"中西區","LI":"協和里","LIN":"9鄰","STREET":"臨安路","SECT":"一段","MAREA":" ","LANE":"２６７巷","ALLEY":" ","HOUSE_NO":"４號","E_COORD97":167369.57000000001,"N_COORD97":2544740.5899999999,"ADDRESS":"臨安路一段２６７巷４號","OBJECTID":355907},"geometry":{"x":167369.57000000123,"y":2544740.5899999999}},{"attributes":{"ID":355917,"DIS_CODE":0,"TOWNNAME":"仁德區","LI":"後壁里","LIN":"33鄰","STREET":"德洋二街","SECT":" ","MAREA":" ","LANE":"３９巷","ALLEY":" ","HOUSE_NO":"４９號","E_COORD97":172249.70000000001,"N_COORD97":2539427.6600000001,"ADDRESS":"德洋二街３９巷４９號","OBJECTID":355908},"geometry":{"x":172249.70000000019,"y":2539427.660000002}},{"attributes":{"ID":355918,"DIS_CODE":0,"TOWNNAME":"仁德區","LI":"後壁里","LIN":"33鄰","STREET":"德洋二街","SECT":" ","MAREA":" ","LANE":"３９巷","ALLEY":" ","HOUSE_NO":"３７號","E_COORD97":172274.25,"N_COORD97":2539425.1600000001,"ADDRESS":"德洋二街３９巷３７號","OBJECTID":355909},"geometry":{"x":172274.25,"y":2539425.1600000001}},{"attributes":{"ID":355919,"DIS_CODE":0,"TOWNNAME":"仁德區","LI":"後壁里","LIN":"33鄰","STREET":"德洋二街","SECT":" ","MAREA":" ","LANE":"３９巷","ALLEY":" ","HOUSE_NO":"３９號","E_COORD97":172270.25,"N_COORD97":2539425.6600000001,"ADDRESS":"德洋二街３９巷３９號","OBJECTID":355910},"geometry":{"x":172270.25000000093,"y":2539425.6600000001}},{"attributes":{"ID":355920,"DIS_CODE":0,"TOWNNAME":"仁德區","LI":"後壁里","LIN":"33鄰","STREET":"德洋二街","SECT":" ","MAREA":" ","LANE":"３９巷","ALLEY":" ","HOUSE_NO":"４１號","E_COORD97":172266.14000000001,"N_COORD97":2539425.9100000001,"ADDRESS":"德洋二街３９巷４１號","OBJECTID":355911},"geometry":{"x":172266.13999999966,"y":2539425.910000002}},{"attributes":{"ID":355921,"DIS_CODE":0,"TOWNNAME":"仁德區","LI":"後壁里","LIN":"33鄰","STREET":"德洋二街","SECT":" ","MAREA":" ","LANE":"３１巷","ALLEY":" ","HOUSE_NO":"６號","E_COORD97":172381.62,"N_COORD97":2539400.27,"ADDRESS":"德洋二街３１巷６號","OBJECTID":355912},"geometry":{"x":172381.62000000104,"y":2539400.2699999996}},{"attributes":{"ID":355922,"DIS_CODE":0,"TOWNNAME":"仁德區","LI":"後壁里","LIN":"33鄰","STREET":"德洋二街","SECT":" ","MAREA":" ","LANE":"３９巷","ALLEY":" ","HOUSE_NO":"６５號","E_COORD97":172213.88,"N_COORD97":2539425.6600000001,"ADDRESS":"德洋二街３９巷６５號","OBJECTID":355913},"geometry":{"x":172213.87999999989,"y":2539425.6600000001}},{"attributes":{"ID":355923,"DIS_CODE":0,"TOWNNAME":"仁德區","LI":"後壁里","LIN":"33鄰","STREET":"德洋二街","SECT":" ","MAREA":" ","LANE":"３９巷","ALLEY":" ","HOUSE_NO":"４７號","E_COORD97":172253.84,"N_COORD97":2539427.4100000001,"ADDRESS":"德洋二街３９巷４７號","OBJECTID":355914},"geometry":{"x":172253.84000000171,"y":2539427.4099999983}},{"attributes":{"ID":355924,"DIS_CODE":0,"TOWNNAME":"仁德區","LI":"後壁里","LIN":"33鄰","STREET":"德洋二街","SECT":" ","MAREA":" ","LANE":"３９巷","ALLEY":" ","HOUSE_NO":"６９號","E_COORD97":172205.32000000001,"N_COORD97":2539424.9100000001,"ADDRESS":"德洋二街３９巷６９號","OBJECTID":355915},"geometry":{"x":172205.32000000216,"y":2539424.910000002}},{"attributes":{"ID":355925,"DIS_CODE":0,"TOWNNAME":"安南區","LI":"顯宮里","LIN":"9鄰","STREET":"媽祖宮路","SECT":" ","MAREA":" ","LANE":" ","ALLEY":" ","HOUSE_NO":"２３１號","E_COORD97":160348.29999999999,"N_COORD97":2548662.2799999998,"ADDRESS":"媽祖宮路２３１號","OBJECTID":355916},"geometry":{"x":160348.29999999981,"y":2548662.2799999993}},{"attributes":{"ID":355926,"DIS_CODE":0,"TOWNNAME":"仁德區","LI":"後壁里","LIN":"33鄰","STREET":"德洋二街","SECT":" ","MAREA":" ","LANE":"３９巷","ALLEY":" ","HOUSE_NO":"５１號","E_COORD97":172246.41,"N_COORD97":2539428.1600000001,"ADDRESS":"德洋二街３９巷５１號","OBJECTID":355917},"geometry":{"x":172246.41000000015,"y":2539428.1600000001}},{"attributes":{"ID":355927,"DIS_CODE":0,"TOWNNAME":"仁德區","LI":"後壁里","LIN":"33鄰","STREET":"德洋二街","SECT":" ","MAREA":" ","LANE":"３９巷","ALLEY":" ","HOUSE_NO":"５７號","E_COORD97":172233.73000000001,"N_COORD97":2539429.4100000001,"ADDRESS":"德洋二街３９巷５７號","OBJECTID":355918},"geometry":{"x":172233.73000000138,"y":2539429.4100000001}},{"attributes":{"ID":355928,"DIS_CODE":0,"TOWNNAME":"仁德區","LI":"後壁里","LIN":"33鄰","STREET":"德洋二街","SECT":" ","MAREA":" ","LANE":"３９巷","ALLEY":" ","HOUSE_NO":"５３號","E_COORD97":172241.95000000001,"N_COORD97":2539428.6600000001,"ADDRESS":"德洋二街３９巷５３號","OBJECTID":355919},"geometry":{"x":172241.95000000112,"y":2539428.6600000001}},{"attributes":{"ID":355929,"DIS_CODE":0,"TOWNNAME":"仁德區","LI":"後壁里","LIN":"33鄰","STREET":"德洋二街","SECT":" ","MAREA":" ","LANE":"３９巷","ALLEY":" ","HOUSE_NO":"７３號","E_COORD97":172196.17000000001,"N_COORD97":2539424.9100000001,"ADDRESS":"德洋二街３９巷７３號","OBJECTID":355920},"geometry":{"x":172196.17000000086,"y":2539424.910000002}},{"attributes":{"ID":355930,"DIS_CODE":0,"TOWNNAME":"仁德區","LI":"後壁里","LIN":"33鄰","STREET":"民安路","SECT":"一段","MAREA":" ","LANE":"８２巷","ALLEY":" ","HOUSE_NO":"１４２號","E_COORD97":171953.67000000001,"N_COORD97":2539760.1600000001,"ADDRESS":"民安路一段８２巷１４２號","OBJECTID":355921},"geometry":{"x":171953.67000000086,"y":2539760.1600000001}},{"attributes":{"ID":355931,"DIS_CODE":0,"TOWNNAME":"仁德區","LI":"後壁里","LIN":"33鄰","STREET":"民安路","SECT":"一段","MAREA":" ","LANE":"８２巷","ALLEY":" ","HOUSE_NO":"１３４號","E_COORD97":171963.87,"N_COORD97":2539738.9100000001,"ADDRESS":"民安路一段８２巷１３４號","OBJECTID":355922},"geometry":{"x":171963.87000000011,"y":2539738.9100000001}},{"attributes":{"ID":355932,"DIS_CODE":0,"TOWNNAME":"東區","LI":"東門里","LIN":"8鄰","STREET":"前鋒路","SECT":" ","MAREA":" ","LANE":" ","ALLEY":" ","HOUSE_NO":"４４號三樓","E_COORD97":169304.13,"N_COORD97":2543476.71,"ADDRESS":"前鋒路４４號三樓","OBJECTID":355923},"geometry":{"x":169304.13000000175,"y":2543476.7100000009}},{"attributes":{"ID":355933,"DIS_CODE":0,"TOWNNAME":"東區","LI":"東門里","LIN":"8鄰","STREET":"前鋒路","SECT":" ","MAREA":" ","LANE":" ","ALLEY":" ","HOUSE_NO":"４４號五樓","E_COORD97":169304.13,"N_COORD97":2543476.71,"ADDRESS":"前鋒路４４號五樓","OBJECTID":355924},"geometry":{"x":169304.13000000175,"y":2543476.7100000009}},{"attributes":{"ID":355934,"DIS_CODE":0,"TOWNNAME":"東區","LI":"東門里","LIN":"8鄰","STREET":"前鋒路","SECT":" ","MAREA":" ","LANE":" ","ALLEY":" ","HOUSE_NO":"４４號六樓","E_COORD97":169304.13,"N_COORD97":2543476.71,"ADDRESS":"前鋒路４４號六樓","OBJECTID":355925},"geometry":{"x":169304.13000000175,"y":2543476.7100000009}},{"attributes":{"ID":355935,"DIS_CODE":0,"TOWNNAME":"東區","LI":"東門里","LIN":"8鄰","STREET":"前鋒路","SECT":" ","MAREA":" ","LANE":" ","ALLEY":" ","HOUSE_NO":"４４號四樓","E_COORD97":169304.13,"N_COORD97":2543476.71,"ADDRESS":"前鋒路４４號四樓","OBJECTID":355926},"geometry":{"x":169304.13000000175,"y":2543476.7100000009}},{"attributes":{"ID":355936,"DIS_CODE":0,"TOWNNAME":"新化區","LI":"北勢里","LIN":"8鄰","STREET":"永新路","SECT":" ","MAREA":" ","LANE":" ","ALLEY":" ","HOUSE_NO":"２５號五樓之２","E_COORD97":177802.42999999999,"N_COORD97":2550963.2999999998,"ADDRESS":"永新路２５號五樓之２","OBJECTID":355927},"geometry":{"x":177802.4299999997,"y":2550963.3000000045}},{"attributes":{"ID":355937,"DIS_CODE":0,"TOWNNAME":"新化區","LI":"北勢里","LIN":"8鄰","STREET":"永新路","SECT":" ","MAREA":" ","LANE":" ","ALLEY":" ","HOUSE_NO":"２５號四樓之２","E_COORD97":177802.42999999999,"N_COORD97":2550963.2999999998,"ADDRESS":"永新路２５號四樓之２","OBJECTID":355928},"geometry":{"x":177802.4299999997,"y":2550963.3000000045}},{"attributes":{"ID":355938,"DIS_CODE":0,"TOWNNAME":"新化區","LI":"北勢里","LIN":"8鄰","STREET":"永新路","SECT":" ","MAREA":" ","LANE":" ","ALLEY":" ","HOUSE_NO":"３７號七樓之２","E_COORD97":177802.42999999999,"N_COORD97":2550963.2999999998,"ADDRESS":"永新路３７號七樓之２","OBJECTID":355929},"geometry":{"x":177802.4299999997,"y":2550963.3000000045}},{"attributes":{"ID":355939,"DIS_CODE":0,"TOWNNAME":"新化區","LI":"北勢里","LIN":"8鄰","STREET":"永新路","SECT":" ","MAREA":" ","LANE":" ","ALLEY":" ","HOUSE_NO":"２５號五樓之１","E_COORD97":177802.29999999999,"N_COORD97":2550963.2999999998,"ADDRESS":"永新路２５號五樓之１","OBJECTID":355930},"geometry":{"x":177802.29999999981,"y":2550963.3000000045}},{"attributes":{"ID":355940,"DIS_CODE":0,"TOWNNAME":"中西區","LI":"中正里","LIN":"9鄰","STREET":"海安路","SECT":" ","MAREA":" ","LANE":"１５９巷","ALLEY":" ","HOUSE_NO":"３號","E_COORD97":167557.26000000001,"N_COORD97":2543822.9199999999,"ADDRESS":"海安路１５９巷３號","OBJECTID":355931},"geometry":{"x":167557.26000000071,"y":2543822.9200000018}},{"attributes":{"ID":355941,"DIS_CODE":0,"TOWNNAME":"中西區","LI":"中正里","LIN":"9鄰","STREET":"海安路","SECT":" ","MAREA":" ","LANE":"１５９巷","ALLEY":" ","HOUSE_NO":"５號","E_COORD97":167553.94,"N_COORD97":2543829.46,"ADDRESS":"海安路１５９巷５號","OBJECTID":355932},"geometry":{"x":167553.94000000041,"y":2543829.4600000028}},{"attributes":{"ID":355942,"DIS_CODE":0,"TOWNNAME":"中西區","LI":"中正里","LIN":"9鄰","STREET":"海安路","SECT":" ","MAREA":" ","LANE":"１５９巷","ALLEY":" ","HOUSE_NO":"１１號","E_COORD97":167551.13,"N_COORD97":2543842.2999999998,"ADDRESS":"海安路１５９巷１１號","OBJECTID":355933},"geometry":{"x":167551.13000000175,"y":2543842.3000000007}},{"attributes":{"ID":355943,"DIS_CODE":0,"TOWNNAME":"中西區","LI":"中正里","LIN":"9鄰","STREET":"海安路","SECT":" ","MAREA":" ","LANE":"１５９巷","ALLEY":" ","HOUSE_NO":"１３號","E_COORD97":167551.20999999999,"N_COORD97":2543845.8700000001,"ADDRESS":"海安路１５９巷１３號","OBJECTID":355934},"geometry":{"x":167551.21000000089,"y":2543845.870000001}},{"attributes":{"ID":355944,"DIS_CODE":0,"TOWNNAME":"中西區","LI":"中正里","LIN":"9鄰","STREET":"海安路","SECT":" ","MAREA":" ","LANE":"１５９巷","ALLEY":" ","HOUSE_NO":"１５號","E_COORD97":167551.13,"N_COORD97":2543848.29,"ADDRESS":"海安路１５９巷１５號","OBJECTID":355935},"geometry":{"x":167551.13000000175,"y":2543848.2899999972}},{"attributes":{"ID":355945,"DIS_CODE":0,"TOWNNAME":"永康區","LI":"東灣里","LIN":" ","STREET":"大灣東路","SECT":" ","MAREA":" ","LANE":" ","ALLEY":" ","HOUSE_NO":"２２２之４號","E_COORD97":174801.07000000001,"N_COORD97":2544426.79,"ADDRESS":"大灣東路２２２之４號","OBJECTID":355936},"geometry":{"x":174801.07000000123,"y":2544426.7899999991}},{"attributes":{"ID":355946,"DIS_CODE":0,"TOWNNAME":"永康區","LI":"中華里","LIN":"18鄰","STREET":"忠義街","SECT":" ","MAREA":" ","LANE":" ","ALLEY":" ","HOUSE_NO":"４１號","E_COORD97":171708.45000000001,"N_COORD97":2544501.8599999999,"ADDRESS":"忠義街４１號","OBJECTID":355937},"geometry":{"x":171708.45000000112,"y":2544501.8599999994}},{"attributes":{"ID":355947,"DIS_CODE":0,"TOWNNAME":"永康區","LI":"永康里","LIN":" ","STREET":"永正路","SECT":" ","MAREA":" ","LANE":" ","ALLEY":" ","HOUSE_NO":"８１之１號","E_COORD97":173531.84,"N_COORD97":2547464.2999999998,"ADDRESS":"永正路８１之１號","OBJECTID":355938},"geometry":{"x":173531.83999999985,"y":2547464.3000000045}},{"attributes":{"ID":355948,"DIS_CODE":0,"TOWNNAME":"永康區","LI":"東灣里","LIN":" ","STREET":"大灣東路","SECT":" ","MAREA":" ","LANE":" ","ALLEY":" ","HOUSE_NO":"２２０之３號","E_COORD97":174780.64999999999,"N_COORD97":2544443.0499999998,"ADDRESS":"大灣東路２２０之３號","OBJECTID":355939},"geometry":{"x":174780.6500000013,"y":2544443.0500000026}},{"attributes":{"ID":355949,"DIS_CODE":0,"TOWNNAME":"永康區","LI":"甲頂里","LIN":" ","STREET":"中正南路","SECT":" ","MAREA":" ","LANE":" ","ALLEY":" ","HOUSE_NO":"１６７號","E_COORD97":169835.22,"N_COORD97":2547127.9900000002,"ADDRESS":"中正南路１６７號","OBJECTID":355940},"geometry":{"x":169835.21999999974,"y":2547127.9900000021}},{"attributes":{"ID":355950,"DIS_CODE":0,"TOWNNAME":"永康區","LI":"永康里","LIN":" ","STREET":"永正路","SECT":" ","MAREA":" ","LANE":" ","ALLEY":" ","HOUSE_NO":"８１之７號","E_COORD97":173528.23999999999,"N_COORD97":2547481.2999999998,"ADDRESS":"永正路８１之７號","OBJECTID":355941},"geometry":{"x":173528.24000000115,"y":2547481.3000000045}},{"attributes":{"ID":355951,"DIS_CODE":0,"TOWNNAME":"永康區","LI":"\u25A0行里","LIN":" ","STREET":"中正北路","SECT":" ","MAREA":" ","LANE":" ","ALLEY":" ","HOUSE_NO":"２５１之２號","E_COORD97":172650.01999999999,"N_COORD97":2549116.5299999998,"ADDRESS":"中正北路２５１之２號","OBJECTID":355942},"geometry":{"x":172650.01999999955,"y":2549116.5300000012}},{"attributes":{"ID":355952,"DIS_CODE":0,"TOWNNAME":"永康區","LI":"永康里","LIN":" ","STREET":"永中街","SECT":" ","MAREA":" ","LANE":" ","ALLEY":" ","HOUSE_NO":"１７號","E_COORD97":173860.26999999999,"N_COORD97":2547099.96,"ADDRESS":"永中街１７號","OBJECTID":355943},"geometry":{"x":173860.26999999955,"y":2547099.9600000009}},{"attributes":{"ID":355953,"DIS_CODE":0,"TOWNNAME":"永康區","LI":"龍潭里","LIN":" ","STREET":"永明街","SECT":" ","MAREA":" ","LANE":" ","ALLEY":" ","HOUSE_NO":"２１８之４號","E_COORD97":174565.70999999999,"N_COORD97":2547169.96,"ADDRESS":"永明街２１８之４號","OBJECTID":355944},"geometry":{"x":174565.71000000089,"y":2547169.9600000028}},{"attributes":{"ID":355954,"DIS_CODE":0,"TOWNNAME":"永康區","LI":"永康里","LIN":" ","STREET":"中山北路","SECT":" ","MAREA":" ","LANE":" ","ALLEY":" ","HOUSE_NO":"１２５號","E_COORD97":174118.94,"N_COORD97":2547491.1200000001,"ADDRESS":"中山北路１２５號","OBJECTID":355945},"geometry":{"x":174118.94000000134,"y":2547491.1200000029}},{"attributes":{"ID":355955,"DIS_CODE":0,"TOWNNAME":"安南區","LI":"學東里","LIN":"4鄰","STREET":"公學路","SECT":"六段","MAREA":" ","LANE":" ","ALLEY":" ","HOUSE_NO":"４７１號","E_COORD97":162685.56,"N_COORD97":2553185.6699999999,"ADDRESS":"公學路六段４７１號","OBJECTID":355946},"geometry":{"x":162685.55999999959,"y":2553185.6699999999}},{"attributes":{"ID":355956,"DIS_CODE":0,"TOWNNAME":"安南區","LI":"學東里","LIN":"4鄰","STREET":"公學路","SECT":"六段","MAREA":" ","LANE":" ","ALLEY":" ","HOUSE_NO":"４７５號","E_COORD97":162669.64999999999,"N_COORD97":2553185.9900000002,"ADDRESS":"公學路六段４７５號","OBJECTID":355947},"geometry":{"x":162669.6500000013,"y":2553185.9900000021}},{"attributes":{"ID":355957,"DIS_CODE":0,"TOWNNAME":"永康區","LI":"網寮里","LIN":"26鄰","STREET":"永大一路","SECT":" ","MAREA":" ","LANE":"１０８巷","ALLEY":" ","HOUSE_NO":"２１號五樓之１","E_COORD97":174022.63,"N_COORD97":2546453.4300000002,"ADDRESS":"永大一路１０８巷２１號五樓之１","OBJECTID":355948},"geometry":{"x":174022.62999999989,"y":2546453.4300000016}},{"attributes":{"ID":355958,"DIS_CODE":0,"TOWNNAME":"永康區","LI":"網寮里","LIN":"26鄰","STREET":"永大一路","SECT":" ","MAREA":" ","LANE":"１０８巷","ALLEY":" ","HOUSE_NO":"２１號九樓之１","E_COORD97":174022.63,"N_COORD97":2546453.4300000002,"ADDRESS":"永大一路１０８巷２１號九樓之１","OBJECTID":355949},"geometry":{"x":174022.62999999989,"y":2546453.4300000016}},{"attributes":{"ID":355959,"DIS_CODE":0,"TOWNNAME":"永康區","LI":"網寮里","LIN":"26鄰","STREET":"永大一路","SECT":" ","MAREA":" ","LANE":"１０８巷","ALLEY":" ","HOUSE_NO":"２１號二樓之１","E_COORD97":174022.63,"N_COORD97":2546453.4300000002,"ADDRESS":"永大一路１０８巷２１號二樓之１","OBJECTID":355950},"geometry":{"x":174022.62999999989,"y":2546453.4300000016}},{"attributes":{"ID":355960,"DIS_CODE":0,"TOWNNAME":"永康區","LI":"網寮里","LIN":"26鄰","STREET":"永大一路","SECT":" ","MAREA":" ","LANE":"１０８巷","ALLEY":" ","HOUSE_NO":"２１號三樓之１","E_COORD97":174022.63,"N_COORD97":2546453.4300000002,"ADDRESS":"永大一路１０８巷２１號三樓之１","OBJECTID":355951},"geometry":{"x":174022.62999999989,"y":2546453.4300000016}},{"attributes":{"ID":355961,"DIS_CODE":0,"TOWNNAME":"仁德區","LI":"後壁里","LIN":"33鄰","STREET":"德洋二街","SECT":" ","MAREA":" ","LANE":"３９巷","ALLEY":" ","HOUSE_NO":"３０號","E_COORD97":172259.14999999999,"N_COORD97":2539474.77,"ADDRESS":"德洋二街３９巷３０號","OBJECTID":355952},"geometry":{"x":172259.15000000224,"y":2539474.7699999996}},{"attributes":{"ID":355962,"DIS_CODE":0,"TOWNNAME":"仁德區","LI":"後壁里","LIN":"33鄰","STREET":"德洋二街","SECT":" ","MAREA":" ","LANE":"３１巷","ALLEY":" ","HOUSE_NO":"１０號","E_COORD97":172381.75,"N_COORD97":2539391.77,"ADDRESS":"德洋二街３１巷１０號","OBJECTID":355953},"geometry":{"x":172381.75000000186,"y":2539391.7700000014}},{"attributes":{"ID":355963,"DIS_CODE":0,"TOWNNAME":"新化區","LI":"北勢里","LIN":"8鄰","STREET":"永新路","SECT":" ","MAREA":" ","LANE":" ","ALLEY":" ","HOUSE_NO":"３７號七樓之１","E_COORD97":177802.29999999999,"N_COORD97":2550963.2999999998,"ADDRESS":"永新路３７號七樓之１","OBJECTID":355954},"geometry":{"x":177802.29999999981,"y":2550963.3000000045}},{"attributes":{"ID":355964,"DIS_CODE":0,"TOWNNAME":"新化區","LI":"北勢里","LIN":"8鄰","STREET":"永新路","SECT":" ","MAREA":" ","LANE":" ","ALLEY":" ","HOUSE_NO":"１３號七樓之３","E_COORD97":177802.39999999999,"N_COORD97":2550963.2999999998,"ADDRESS":"永新路１３號七樓之３","OBJECTID":355955},"geometry":{"x":177802.40000000224,"y":2550963.3000000045}},{"attributes":{"ID":355965,"DIS_CODE":0,"TOWNNAME":"永康區","LI":"二王里","LIN":"8鄰","STREET":"二王路","SECT":" ","MAREA":" ","LANE":" ","ALLEY":" ","HOUSE_NO":"１６號十一樓之３","E_COORD97":172976.39999999999,"N_COORD97":2546819.7999999998,"ADDRESS":"二王路１６號十一樓之３","OBJECTID":355956},"geometry":{"x":172976.4000000013,"y":2546819.7999999989}},{"attributes":{"ID":355966,"DIS_CODE":0,"TOWNNAME":"永康區","LI":"二王里","LIN":"8鄰","STREET":"二王路","SECT":" ","MAREA":" ","LANE":" ","ALLEY":" ","HOUSE_NO":"１６號十三樓之２","E_COORD97":172976.42999999999,"N_COORD97":2546819.7999999998,"ADDRESS":"二王路１６號十三樓之２","OBJECTID":355957},"geometry":{"x":172976.4299999997,"y":2546819.7999999989}},{"attributes":{"ID":355967,"DIS_CODE":0,"TOWNNAME":"東區","LI":"自強里","LIN":"8鄰","STREET":"東門路","SECT":"三段","MAREA":" ","LANE":" ","ALLEY":" ","HOUSE_NO":"１３號七樓","E_COORD97":171098.26000000001,"N_COORD97":2542396.1299999999,"ADDRESS":"東門路三段１３號七樓","OBJECTID":355958},"geometry":{"x":171098.26000000164,"y":2542396.1300000008}},{"attributes":{"ID":355968,"DIS_CODE":0,"TOWNNAME":"永康區","LI":"勝利里","LIN":"33鄰","STREET":"中華路","SECT":" ","MAREA":" ","LANE":"２３巷","ALLEY":" ","HOUSE_NO":"１１號","E_COORD97":171470.09,"N_COORD97":2544465.29,"ADDRESS":"中華路２３巷１１號","OBJECTID":355959},"geometry":{"x":171470.08999999985,"y":2544465.2899999972}},{"attributes":{"ID":355969,"DIS_CODE":0,"TOWNNAME":"永康區","LI":"崑山里","LIN":"33鄰","STREET":"崑山街","SECT":" ","MAREA":" ","LANE":"１２３巷","ALLEY":" ","HOUSE_NO":"１０號","E_COORD97":173969.26999999999,"N_COORD97":2544815.96,"ADDRESS":"崑山街１２３巷１０號","OBJECTID":355960},"geometry":{"x":173969.26999999955,"y":2544815.9600000028}},{"attributes":{"ID":355970,"DIS_CODE":0,"TOWNNAME":"永康區","LI":"\u25A0洲里","LIN":"33鄰","STREET":"洲尾街","SECT":" ","MAREA":" ","LANE":"７４巷","ALLEY":" ","HOUSE_NO":"１號之１","E_COORD97":170942.44,"N_COORD97":2548954.0099999998,"ADDRESS":"洲尾街７４巷１號之１","OBJECTID":355961},"geometry":{"x":170942.44000000134,"y":2548954.0100000016}},{"attributes":{"ID":355971,"DIS_CODE":0,"TOWNNAME":"永康區","LI":"復國里","LIN":"33鄰","STREET":"復華一街","SECT":" ","MAREA":" ","LANE":"３６巷","ALLEY":" ","HOUSE_NO":"１號","E_COORD97":172592.32000000001,"N_COORD97":2545107.5299999998,"ADDRESS":"復華一街３６巷１號","OBJECTID":355962},"geometry":{"x":172592.32000000123,"y":2545107.5299999993}},{"attributes":{"ID":355972,"DIS_CODE":0,"TOWNNAME":"永康區","LI":"復華里","LIN":"33鄰","STREET":"復華十街","SECT":" ","MAREA":" ","LANE":"２４巷","ALLEY":" ","HOUSE_NO":"５號","E_COORD97":172528.35999999999,"N_COORD97":2546124.6000000001,"ADDRESS":"復華十街２４巷５號","OBJECTID":355963},"geometry":{"x":172528.36000000034,"y":2546124.5999999996}},{"attributes":{"ID":355973,"DIS_CODE":0,"TOWNNAME":"永康區","LI":"崑山里","LIN":"33鄰","STREET":"國光二街","SECT":" ","MAREA":" ","LANE":"７０巷","ALLEY":" ","HOUSE_NO":"３１號","E_COORD97":173904.57999999999,"N_COORD97":2544852.0499999998,"ADDRESS":"國光二街７０巷３１號","OBJECTID":355964},"geometry":{"x":173904.58000000007,"y":2544852.0500000045}},{"attributes":{"ID":355974,"DIS_CODE":0,"TOWNNAME":"永康區","LI":"崑山里","LIN":"33鄰","STREET":"崑山街","SECT":" ","MAREA":" ","LANE":"１４３巷","ALLEY":" ","HOUSE_NO":"１１號","E_COORD97":173978.04000000001,"N_COORD97":2544855.7200000002,"ADDRESS":"崑山街１４３巷１１號","OBJECTID":355965},"geometry":{"x":173978.04000000004,"y":2544855.7200000025}},{"attributes":{"ID":355975,"DIS_CODE":0,"TOWNNAME":"永康區","LI":"勝利里","LIN":"33鄰","STREET":"中華路","SECT":" ","MAREA":" ","LANE":"７巷","ALLEY":" ","HOUSE_NO":"３６號","E_COORD97":171454.17000000001,"N_COORD97":2544398.4900000002,"ADDRESS":"中華路７巷３６號","OBJECTID":355966},"geometry":{"x":171454.16999999993,"y":2544398.4900000021}},{"attributes":{"ID":355976,"DIS_CODE":0,"TOWNNAME":"永康區","LI":"崑山里","LIN":"33鄰","STREET":"崑山街","SECT":" ","MAREA":" ","LANE":"１４３巷","ALLEY":" ","HOUSE_NO":"１５號","E_COORD97":173959.04999999999,"N_COORD97":2544861.1400000001,"ADDRESS":"崑山街１４３巷１５號","OBJECTID":355967},"geometry":{"x":173959.04999999981,"y":2544861.1399999987}},{"attributes":{"ID":355977,"DIS_CODE":0,"TOWNNAME":"永康區","LI":"勝利里","LIN":"33鄰","STREET":"中華路","SECT":" ","MAREA":" ","LANE":"２３巷","ALLEY":" ","HOUSE_NO":"２０號","E_COORD97":171442.25,"N_COORD97":2544479.75,"ADDRESS":"中華路２３巷２０號","OBJECTID":355968},"geometry":{"x":171442.25,"y":2544479.75}},{"attributes":{"ID":355978,"DIS_CODE":0,"TOWNNAME":"永康區","LI":"勝利里","LIN":"33鄰","STREET":"中華路","SECT":" ","MAREA":" ","LANE":"２３巷","ALLEY":" ","HOUSE_NO":"１３號","E_COORD97":171466.01999999999,"N_COORD97":2544465.04,"ADDRESS":"中華路２３巷１３號","OBJECTID":355969},"geometry":{"x":171466.02000000048,"y":2544465.040000001}},{"attributes":{"ID":355979,"DIS_CODE":0,"TOWNNAME":"永康區","LI":"勝利里","LIN":"33鄰","STREET":"中華路","SECT":" ","MAREA":" ","LANE":"２３巷","ALLEY":" ","HOUSE_NO":"１６號","E_COORD97":171459.42999999999,"N_COORD97":2544484.25,"ADDRESS":"中華路２３巷１６號","OBJECTID":355970},"geometry":{"x":171459.4299999997,"y":2544484.2500000019}},{"attributes":{"ID":355980,"DIS_CODE":0,"TOWNNAME":"永康區","LI":"勝利里","LIN":"33鄰","STREET":"中華路","SECT":" ","MAREA":" ","LANE":"７巷","ALLEY":" ","HOUSE_NO":"２２號","E_COORD97":171484.89999999999,"N_COORD97":2544396.9900000002,"ADDRESS":"中華路７巷２２號","OBJECTID":355971},"geometry":{"x":171484.9000000013,"y":2544396.9900000002}},{"attributes":{"ID":355981,"DIS_CODE":0,"TOWNNAME":"永康區","LI":"崑山里","LIN":"33鄰","STREET":"崑山街","SECT":" ","MAREA":" ","LANE":"１４３巷","ALLEY":" ","HOUSE_NO":"１３號","E_COORD97":173969.89999999999,"N_COORD97":2544858.9199999999,"ADDRESS":"崑山街１４３巷１３號","OBJECTID":355972},"geometry":{"x":173969.9000000013,"y":2544858.9200000037}},{"attributes":{"ID":355982,"DIS_CODE":0,"TOWNNAME":"永康區","LI":"崑山里","LIN":"33鄰","STREET":"國光二街","SECT":" ","MAREA":" ","LANE":"７０巷","ALLEY":" ","HOUSE_NO":"３５號","E_COORD97":173906.51999999999,"N_COORD97":2544856.5499999998,"ADDRESS":"國光二街７０巷３５號","OBJECTID":355973},"geometry":{"x":173906.51999999955,"y":2544856.5500000026}},{"attributes":{"ID":355983,"DIS_CODE":0,"TOWNNAME":"永康區","LI":"崑山里","LIN":"33鄰","STREET":"崑山街","SECT":" ","MAREA":" ","LANE":"１２３巷","ALLEY":" ","HOUSE_NO":"１８號","E_COORD97":173937.97,"N_COORD97":2544832.21,"ADDRESS":"崑山街１２３巷１８號","OBJECTID":355974},"geometry":{"x":173937.9700000016,"y":2544832.2100000028}},{"attributes":{"ID":355984,"DIS_CODE":0,"TOWNNAME":"永康區","LI":"崑山里","LIN":"33鄰","STREET":"崑山街","SECT":" ","MAREA":" ","LANE":"１４３巷","ALLEY":" ","HOUSE_NO":"１７號","E_COORD97":173946.95999999999,"N_COORD97":2544866.2400000002,"ADDRESS":"崑山街１４３巷１７號","OBJECTID":355975},"geometry":{"x":173946.96000000089,"y":2544866.2400000002}},{"attributes":{"ID":355985,"DIS_CODE":0,"TOWNNAME":"永康區","LI":"勝利里","LIN":"33鄰","STREET":"中華路","SECT":" ","MAREA":" ","LANE":"２３巷","ALLEY":" ","HOUSE_NO":"１８號","E_COORD97":171448.79000000001,"N_COORD97":2544484,"ADDRESS":"中華路２３巷１８號","OBJECTID":355976},"geometry":{"x":171448.79000000004,"y":2544484}},{"attributes":{"ID":355986,"DIS_CODE":0,"TOWNNAME":"新市區","LI":"大社里","LIN":"26鄰","STREET":" ","SECT":" ","MAREA":"大社","LANE":" ","ALLEY":" ","HOUSE_NO":"６６３號","E_COORD97":179964.34,"N_COORD97":2554330.25,"ADDRESS":"大社６６３號","OBJECTID":355977},"geometry":{"x":179964.34000000078,"y":2554330.2500000019}},{"attributes":{"ID":355987,"DIS_CODE":0,"TOWNNAME":"新市區","LI":"大社里","LIN":"26鄰","STREET":" ","SECT":" ","MAREA":"大社","LANE":" ","ALLEY":" ","HOUSE_NO":"６７２號之１","E_COORD97":179907.64000000001,"N_COORD97":2554327.2999999998,"ADDRESS":"大社６７２號之１","OBJECTID":355978},"geometry":{"x":179907.6400000006,"y":2554327.3000000026}},{"attributes":{"ID":355988,"DIS_CODE":0,"TOWNNAME":"永康區","LI":"復華里","LIN":"26鄰","STREET":"復華八街","SECT":" ","MAREA":" ","LANE":"４７巷","ALLEY":" ","HOUSE_NO":"３６號四樓之２","E_COORD97":172690.41,"N_COORD97":2546385.6800000002,"ADDRESS":"復華八街４７巷３６號四樓之２","OBJECTID":355979},"geometry":{"x":172690.41000000015,"y":2546385.6800000034}},{"attributes":{"ID":355989,"DIS_CODE":0,"TOWNNAME":"永康區","LI":"復華里","LIN":"26鄰","STREET":"復華八街","SECT":" ","MAREA":" ","LANE":"４７巷","ALLEY":" ","HOUSE_NO":"３６號二樓之３","E_COORD97":172690.37,"N_COORD97":2546385.6800000002,"ADDRESS":"復華八街４７巷３６號二樓之３","OBJECTID":355980},"geometry":{"x":172690.37000000104,"y":2546385.6800000034}},{"attributes":{"ID":355990,"DIS_CODE":0,"TOWNNAME":"永康區","LI":"復華里","LIN":"26鄰","STREET":"復華八街","SECT":" ","MAREA":" ","LANE":"４７巷","ALLEY":" ","HOUSE_NO":"３６號四樓之６","E_COORD97":172690.38,"N_COORD97":2546385.6800000002,"ADDRESS":"復華八街４７巷３６號四樓之６","OBJECTID":355981},"geometry":{"x":172690.37999999989,"y":2546385.6800000034}},{"attributes":{"ID":355991,"DIS_CODE":0,"TOWNNAME":"新市區","LI":"港墘里","LIN":"26鄰","STREET":"中山路","SECT":" ","MAREA":" ","LANE":"７８巷","ALLEY":" ","HOUSE_NO":"２０號","E_COORD97":178169.98000000001,"N_COORD97":2552872.7400000002,"ADDRESS":"中山路７８巷２０號","OBJECTID":355982},"geometry":{"x":178169.98000000138,"y":2552872.7400000021}},{"attributes":{"ID":355992,"DIS_CODE":0,"TOWNNAME":"永康區","LI":"崑山里","LIN":"33鄰","STREET":"崑山街","SECT":" ","MAREA":" ","LANE":"１４３巷","ALLEY":" ","HOUSE_NO":"３號","E_COORD97":173998.29000000001,"N_COORD97":2544847.6200000001,"ADDRESS":"崑山街１４３巷３號","OBJECTID":355983},"geometry":{"x":173998.29000000004,"y":2544847.620000001}},{"attributes":{"ID":355993,"DIS_CODE":0,"TOWNNAME":"永康區","LI":"崑山里","LIN":"33鄰","STREET":"崑山街","SECT":" ","MAREA":" ","LANE":"１２３巷","ALLEY":" ","HOUSE_NO":"２４號","E_COORD97":173926.57000000001,"N_COORD97":2544835.96,"ADDRESS":"崑山街１２３巷２４號","OBJECTID":355984},"geometry":{"x":173926.57000000123,"y":2544835.9600000046}},{"attributes":{"ID":355994,"DIS_CODE":0,"TOWNNAME":"永康區","LI":"勝利里","LIN":"33鄰","STREET":"中華路","SECT":" ","MAREA":" ","LANE":"２３巷","ALLEY":" ","HOUSE_NO":"３號","E_COORD97":171485.45000000001,"N_COORD97":2544465.04,"ADDRESS":"中華路２３巷３號","OBJECTID":355985},"geometry":{"x":171485.44999999925,"y":2544465.040000001}},{"attributes":{"ID":355995,"DIS_CODE":0,"TOWNNAME":"永康區","LI":"埔園里","LIN":"33鄰","STREET":"埔園街","SECT":" ","MAREA":" ","LANE":"１４７巷","ALLEY":" ","HOUSE_NO":"３號","E_COORD97":173870.60000000001,"N_COORD97":2548157.2400000002,"ADDRESS":"埔園街１４７巷３號","OBJECTID":355986},"geometry":{"x":173870.59999999963,"y":2548157.2400000021}},{"attributes":{"ID":355996,"DIS_CODE":0,"TOWNNAME":"永康區","LI":"崑山里","LIN":"33鄰","STREET":"崑山街","SECT":" ","MAREA":" ","LANE":"１２３巷","ALLEY":" ","HOUSE_NO":"１６號","E_COORD97":173947.95999999999,"N_COORD97":2544827.9900000002,"ADDRESS":"崑山街１２３巷１６號","OBJECTID":355987},"geometry":{"x":173947.95999999996,"y":2544827.9900000039}},{"attributes":{"ID":355997,"DIS_CODE":0,"TOWNNAME":"永康區","LI":"勝利里","LIN":"33鄰","STREET":"中華路","SECT":" ","MAREA":" ","LANE":"２３巷","ALLEY":" ","HOUSE_NO":"５號","E_COORD97":171480.79999999999,"N_COORD97":2544465.04,"ADDRESS":"中華路２３巷５號","OBJECTID":355988},"geometry":{"x":171480.79999999981,"y":2544465.040000001}},{"attributes":{"ID":355998,"DIS_CODE":0,"TOWNNAME":"永康區","LI":"勝利里","LIN":"33鄰","STREET":"中華路","SECT":" ","MAREA":" ","LANE":"７巷","ALLEY":" ","HOUSE_NO":"２６號","E_COORD97":171475.29000000001,"N_COORD97":2544395.2400000002,"ADDRESS":"中華路７巷２６號","OBJECTID":355989},"geometry":{"x":171475.29000000097,"y":2544395.2400000002}},{"attributes":{"ID":355999,"DIS_CODE":0,"TOWNNAME":"永康區","LI":"勝利里","LIN":"33鄰","STREET":"中華路","SECT":" ","MAREA":" ","LANE":"２３巷","ALLEY":" ","HOUSE_NO":"２２號","E_COORD97":171435.67999999999,"N_COORD97":2544480.25,"ADDRESS":"中華路２３巷２２號","OBJECTID":355990},"geometry":{"x":171435.6799999997,"y":2544480.2500000037}},{"attributes":{"ID":356000,"DIS_CODE":0,"TOWNNAME":"東區","LI":"自強里","LIN":"8鄰","STREET":"東門路","SECT":"三段","MAREA":" ","LANE":" ","ALLEY":" ","HOUSE_NO":"１３號七樓之１","E_COORD97":171098.26000000001,"N_COORD97":2542396.1299999999,"ADDRESS":"東門路三段１３號七樓之１","OBJECTID":355991},"geometry":{"x":171098.26000000164,"y":2542396.1300000008}},{"attributes":{"ID":356001,"DIS_CODE":0,"TOWNNAME":"東區","LI":"自強里","LIN":"8鄰","STREET":"東門路","SECT":"三段","MAREA":" ","LANE":" ","ALLEY":" ","HOUSE_NO":"１３號七樓之２","E_COORD97":171098.26000000001,"N_COORD97":2542396.1299999999,"ADDRESS":"東門路三段１３號七樓之２","OBJECTID":355992},"geometry":{"x":171098.26000000164,"y":2542396.1300000008}},{"attributes":{"ID":356002,"DIS_CODE":0,"TOWNNAME":"東區","LI":"自強里","LIN":"8鄰","STREET":"東門路","SECT":"三段","MAREA":" ","LANE":" ","ALLEY":" ","HOUSE_NO":"１３號七樓之３","E_COORD97":171098.26000000001,"N_COORD97":2542396.1299999999,"ADDRESS":"東門路三段１３號七樓之３","OBJECTID":355993},"geometry":{"x":171098.26000000164,"y":2542396.1300000008}},{"attributes":{"ID":356003,"DIS_CODE":0,"TOWNNAME":"東區","LI":"自強里","LIN":"8鄰","STREET":"東門路","SECT":"三段","MAREA":" ","LANE":" ","ALLEY":" ","HOUSE_NO":"１３號九樓","E_COORD97":171098.26000000001,"N_COORD97":2542396.1299999999,"ADDRESS":"東門路三段１３號九樓","OBJECTID":355994},"geometry":{"x":171098.26000000164,"y":2542396.1300000008}},{"attributes":{"ID":356004,"DIS_CODE":0,"TOWNNAME":"官田區","LI":"隆本里","LIN":"26鄰","STREET":"信義街","SECT":"二段","MAREA":" ","LANE":"４１巷","ALLEY":" ","HOUSE_NO":"１６號","E_COORD97":179698.64999999999,"N_COORD97":2565974.25,"ADDRESS":"信義街二段４１巷１６號","OBJECTID":355995},"geometry":{"x":179698.65000000037,"y":2565974.25}},{"attributes":{"ID":356005,"DIS_CODE":0,"TOWNNAME":"官田區","LI":"隆本里","LIN":"26鄰","STREET":"信義街","SECT":"二段","MAREA":" ","LANE":"５３巷","ALLEY":" ","HOUSE_NO":"２號","E_COORD97":179745.76999999999,"N_COORD97":2566006.7200000002,"ADDRESS":"信義街二段５３巷２號","OBJECTID":355996},"geometry":{"x":179745.77000000048,"y":2566006.7200000044}},{"attributes":{"ID":356006,"DIS_CODE":0,"TOWNNAME":"官田區","LI":"隆本里","LIN":"26鄰","STREET":"信義街","SECT":"二段","MAREA":" ","LANE":"５３巷","ALLEY":" ","HOUSE_NO":"６號","E_COORD97":179739.12,"N_COORD97":2566006.6899999999,"ADDRESS":"信義街二段５３巷６號","OBJECTID":355997},"geometry":{"x":179739.12000000011,"y":2566006.6900000013}},{"attributes":{"ID":356007,"DIS_CODE":0,"TOWNNAME":"官田區","LI":"隆本里","LIN":"26鄰","STREET":"信義街","SECT":"二段","MAREA":" ","LANE":"６１巷","ALLEY":" ","HOUSE_NO":"１號","E_COORD97":179746.28,"N_COORD97":2566024.1499999999,"ADDRESS":"信義街二段６１巷１號","OBJECTID":355998},"geometry":{"x":179746.28000000119,"y":2566024.1500000022}},{"attributes":{"ID":356008,"DIS_CODE":0,"TOWNNAME":"官田區","LI":"隆本里","LIN":"26鄰","STREET":"信義街","SECT":"二段","MAREA":" ","LANE":"６１巷","ALLEY":" ","HOUSE_NO":"２號","E_COORD97":179746.04999999999,"N_COORD97":2566039.1800000002,"ADDRESS":"信義街二段６１巷２號","OBJECTID":355999},"geometry":{"x":179746.04999999981,"y":2566039.1799999997}},{"attributes":{"ID":356009,"DIS_CODE":0,"TOWNNAME":"官田區","LI":"隆本里","LIN":"26鄰","STREET":"信義街","SECT":"二段","MAREA":" ","LANE":"６１巷","ALLEY":" ","HOUSE_NO":"３號","E_COORD97":179739.16,"N_COORD97":2566023.7400000002,"ADDRESS":"信義街二段６１巷３號","OBJECTID":356000},"geometry":{"x":179739.16000000015,"y":2566023.7400000021}}]}