{"displayFieldName":"TOWNNAME","fieldAliases":{"ID":"ID","DIS_CODE":"DIS_CODE","TOWNNAME":"TOWNNAME","LI":"LI","LIN":"LIN","STREET":"STREET","SECT":"SECT","MAREA":"MAREA","LANE":"LANE","ALLEY":"ALLEY","HOUSE_NO":"HOUSE_NO","E_COORD97":"E_COORD97","N_COORD97":"N_COORD97","ADDRESS":"ADDRESS","OBJECTID":"OBJECTID"},"geometryType":"esriGeometryPoint","spatialReference":{"wkid":102443,"latestWkid":3826},"fields":[{"name":"ID","type":"esriFieldTypeDouble","alias":"ID"},{"name":"DIS_CODE","type":"esriFieldTypeInteger","alias":"DIS_CODE"},{"name":"TOWNNAME","type":"esriFieldTypeString","alias":"TOWNNAME","length":8},{"name":"LI","type":"esriFieldTypeString","alias":"LI","length":8},{"name":"LIN","type":"esriFieldTypeString","alias":"LIN","length":12},{"name":"STREET","type":"esriFieldTypeString","alias":"STREET","length":20},{"name":"SECT","type":"esriFieldTypeString","alias":"SECT","length":8},{"name":"MAREA","type":"esriFieldTypeString","alias":"MAREA","length":12},{"name":"LANE","type":"esriFieldTypeString","alias":"LANE","length":10},{"name":"ALLEY","type":"esriFieldTypeString","alias":"ALLEY","length":10},{"name":"HOUSE_NO","type":"esriFieldTypeString","alias":"HOUSE_NO","length":20},{"name":"E_COORD97","type":"esriFieldTypeDouble","alias":"E_COORD97"},{"name":"N_COORD97","type":"esriFieldTypeDouble","alias":"N_COORD97"},{"name":"ADDRESS","type":"esriFieldTypeString","alias":"ADDRESS","length":50},{"name":"OBJECTID","type":"esriFieldTypeOID","alias":"OBJECTID"}],"features":[{"attributes":{"ID":474426,"DIS_CODE":0,"TOWNNAME":"中西區","LI":"大涼里","LIN":"18鄰","STREET":"府前二街","SECT":" ","MAREA":" ","LANE":" ","ALLEY":" ","HOUSE_NO":"８６號二樓","E_COORD97":166661.78,"N_COORD97":2544007.3100000001,"ADDRESS":"府前二街８６號二樓","OBJECTID":474401},"geometry":{"x":166661.78000000026,"y":2544007.3100000024}},{"attributes":{"ID":474427,"DIS_CODE":0,"TOWNNAME":"中西區","LI":"大涼里","LIN":"18鄰","STREET":"府前二街","SECT":" ","MAREA":" ","LANE":" ","ALLEY":" ","HOUSE_NO":"８６號八樓","E_COORD97":166661.78,"N_COORD97":2544007.3100000001,"ADDRESS":"府前二街８６號八樓","OBJECTID":474402},"geometry":{"x":166661.78000000026,"y":2544007.3100000024}},{"attributes":{"ID":474428,"DIS_CODE":0,"TOWNNAME":"中西區","LI":"大涼里","LIN":"18鄰","STREET":"府前二街","SECT":" ","MAREA":" ","LANE":" ","ALLEY":" ","HOUSE_NO":"８６號三樓","E_COORD97":166661.78,"N_COORD97":2544007.3100000001,"ADDRESS":"府前二街８６號三樓","OBJECTID":474403},"geometry":{"x":166661.78000000026,"y":2544007.3100000024}},{"attributes":{"ID":474429,"DIS_CODE":0,"TOWNNAME":"中西區","LI":"大涼里","LIN":"18鄰","STREET":"府前二街","SECT":" ","MAREA":" ","LANE":" ","ALLEY":" ","HOUSE_NO":"８６號五樓","E_COORD97":166661.78,"N_COORD97":2544007.3100000001,"ADDRESS":"府前二街８６號五樓","OBJECTID":474404},"geometry":{"x":166661.78000000026,"y":2544007.3100000024}},{"attributes":{"ID":474430,"DIS_CODE":0,"TOWNNAME":"中西區","LI":"大涼里","LIN":"18鄰","STREET":"府前二街","SECT":" ","MAREA":" ","LANE":" ","ALLEY":" ","HOUSE_NO":"８６號六樓","E_COORD97":166661.78,"N_COORD97":2544007.3100000001,"ADDRESS":"府前二街８６號六樓","OBJECTID":474405},"geometry":{"x":166661.78000000026,"y":2544007.3100000024}},{"attributes":{"ID":474431,"DIS_CODE":0,"TOWNNAME":"中西區","LI":"大涼里","LIN":"18鄰","STREET":"府前二街","SECT":" ","MAREA":" ","LANE":" ","ALLEY":" ","HOUSE_NO":"８６號四樓","E_COORD97":166661.78,"N_COORD97":2544007.3100000001,"ADDRESS":"府前二街８６號四樓","OBJECTID":474406},"geometry":{"x":166661.78000000026,"y":2544007.3100000024}},{"attributes":{"ID":474432,"DIS_CODE":0,"TOWNNAME":"中西區","LI":"大涼里","LIN":"18鄰","STREET":"府前二街","SECT":" ","MAREA":" ","LANE":" ","ALLEY":" ","HOUSE_NO":"８８號七樓","E_COORD97":166661.60000000001,"N_COORD97":2544015.3399999999,"ADDRESS":"府前二街８８號七樓","OBJECTID":474407},"geometry":{"x":166661.60000000056,"y":2544015.3400000017}},{"attributes":{"ID":474433,"DIS_CODE":0,"TOWNNAME":"中西區","LI":"大涼里","LIN":"18鄰","STREET":"府前二街","SECT":" ","MAREA":" ","LANE":" ","ALLEY":" ","HOUSE_NO":"８８號二樓","E_COORD97":166661.60000000001,"N_COORD97":2544015.3399999999,"ADDRESS":"府前二街８８號二樓","OBJECTID":474408},"geometry":{"x":166661.60000000056,"y":2544015.3400000017}},{"attributes":{"ID":474434,"DIS_CODE":0,"TOWNNAME":"中西區","LI":"大涼里","LIN":"18鄰","STREET":"府前二街","SECT":" ","MAREA":" ","LANE":" ","ALLEY":" ","HOUSE_NO":"８８號八樓","E_COORD97":166661.60000000001,"N_COORD97":2544015.3399999999,"ADDRESS":"府前二街８８號八樓","OBJECTID":474409},"geometry":{"x":166661.60000000056,"y":2544015.3400000017}},{"attributes":{"ID":474435,"DIS_CODE":0,"TOWNNAME":"中西區","LI":"大涼里","LIN":"18鄰","STREET":"府前二街","SECT":" ","MAREA":" ","LANE":" ","ALLEY":" ","HOUSE_NO":"８８號三樓","E_COORD97":166661.60000000001,"N_COORD97":2544015.3399999999,"ADDRESS":"府前二街８８號三樓","OBJECTID":474410},"geometry":{"x":166661.60000000056,"y":2544015.3400000017}},{"attributes":{"ID":474436,"DIS_CODE":0,"TOWNNAME":"中西區","LI":"大涼里","LIN":"18鄰","STREET":"府前二街","SECT":" ","MAREA":" ","LANE":" ","ALLEY":" ","HOUSE_NO":"８８號五樓","E_COORD97":166661.60000000001,"N_COORD97":2544015.3399999999,"ADDRESS":"府前二街８８號五樓","OBJECTID":474411},"geometry":{"x":166661.60000000056,"y":2544015.3400000017}},{"attributes":{"ID":474437,"DIS_CODE":0,"TOWNNAME":"中西區","LI":"大涼里","LIN":"18鄰","STREET":"府前二街","SECT":" ","MAREA":" ","LANE":" ","ALLEY":" ","HOUSE_NO":"８８號六樓","E_COORD97":166661.60000000001,"N_COORD97":2544015.3399999999,"ADDRESS":"府前二街８８號六樓","OBJECTID":474412},"geometry":{"x":166661.60000000056,"y":2544015.3400000017}},{"attributes":{"ID":474438,"DIS_CODE":0,"TOWNNAME":"中西區","LI":"大涼里","LIN":"18鄰","STREET":"府前二街","SECT":" ","MAREA":" ","LANE":" ","ALLEY":" ","HOUSE_NO":"８８號四樓","E_COORD97":166661.60000000001,"N_COORD97":2544015.3399999999,"ADDRESS":"府前二街８８號四樓","OBJECTID":474413},"geometry":{"x":166661.60000000056,"y":2544015.3400000017}},{"attributes":{"ID":474439,"DIS_CODE":0,"TOWNNAME":"中西區","LI":"大涼里","LIN":"18鄰","STREET":"府前二街","SECT":" ","MAREA":" ","LANE":" ","ALLEY":" ","HOUSE_NO":"９０號七樓","E_COORD97":166661.41,"N_COORD97":2544023.8500000001,"ADDRESS":"府前二街９０號七樓","OBJECTID":474414},"geometry":{"x":166661.41000000201,"y":2544023.8499999996}},{"attributes":{"ID":474440,"DIS_CODE":0,"TOWNNAME":"中西區","LI":"大涼里","LIN":"18鄰","STREET":"府前二街","SECT":" ","MAREA":" ","LANE":" ","ALLEY":" ","HOUSE_NO":"９０號二樓","E_COORD97":166661.41,"N_COORD97":2544023.8500000001,"ADDRESS":"府前二街９０號二樓","OBJECTID":474415},"geometry":{"x":166661.41000000201,"y":2544023.8499999996}},{"attributes":{"ID":474441,"DIS_CODE":0,"TOWNNAME":"中西區","LI":"大涼里","LIN":"18鄰","STREET":"府前二街","SECT":" ","MAREA":" ","LANE":" ","ALLEY":" ","HOUSE_NO":"９０號八樓","E_COORD97":166661.41,"N_COORD97":2544023.8500000001,"ADDRESS":"府前二街９０號八樓","OBJECTID":474416},"geometry":{"x":166661.41000000201,"y":2544023.8499999996}},{"attributes":{"ID":474442,"DIS_CODE":0,"TOWNNAME":"中西區","LI":"大涼里","LIN":"18鄰","STREET":"府前二街","SECT":" ","MAREA":" ","LANE":" ","ALLEY":" ","HOUSE_NO":"９０號三樓","E_COORD97":166661.41,"N_COORD97":2544023.8500000001,"ADDRESS":"府前二街９０號三樓","OBJECTID":474417},"geometry":{"x":166661.41000000201,"y":2544023.8499999996}},{"attributes":{"ID":474443,"DIS_CODE":0,"TOWNNAME":"中西區","LI":"大涼里","LIN":"18鄰","STREET":"府前二街","SECT":" ","MAREA":" ","LANE":" ","ALLEY":" ","HOUSE_NO":"９０號五樓","E_COORD97":166661.41,"N_COORD97":2544023.8500000001,"ADDRESS":"府前二街９０號五樓","OBJECTID":474418},"geometry":{"x":166661.41000000201,"y":2544023.8499999996}},{"attributes":{"ID":474444,"DIS_CODE":0,"TOWNNAME":"中西區","LI":"大涼里","LIN":"18鄰","STREET":"府前二街","SECT":" ","MAREA":" ","LANE":" ","ALLEY":" ","HOUSE_NO":"９０號六樓","E_COORD97":166661.41,"N_COORD97":2544023.8500000001,"ADDRESS":"府前二街９０號六樓","OBJECTID":474419},"geometry":{"x":166661.41000000201,"y":2544023.8499999996}},{"attributes":{"ID":474445,"DIS_CODE":0,"TOWNNAME":"中西區","LI":"大涼里","LIN":"18鄰","STREET":"府前二街","SECT":" ","MAREA":" ","LANE":" ","ALLEY":" ","HOUSE_NO":"９０號四樓","E_COORD97":166661.41,"N_COORD97":2544023.8500000001,"ADDRESS":"府前二街９０號四樓","OBJECTID":474420},"geometry":{"x":166661.41000000201,"y":2544023.8499999996}},{"attributes":{"ID":474446,"DIS_CODE":0,"TOWNNAME":"中西區","LI":"大涼里","LIN":"18鄰","STREET":"府前二街","SECT":" ","MAREA":" ","LANE":" ","ALLEY":" ","HOUSE_NO":"９２號七樓","E_COORD97":166661.23000000001,"N_COORD97":2544033.4700000002,"ADDRESS":"府前二街９２號七樓","OBJECTID":474421},"geometry":{"x":166661.23000000231,"y":2544033.4700000025}},{"attributes":{"ID":474447,"DIS_CODE":0,"TOWNNAME":"中西區","LI":"大涼里","LIN":"18鄰","STREET":"府前二街","SECT":" ","MAREA":" ","LANE":" ","ALLEY":" ","HOUSE_NO":"９２號二樓","E_COORD97":166661.23000000001,"N_COORD97":2544033.4700000002,"ADDRESS":"府前二街９２號二樓","OBJECTID":474422},"geometry":{"x":166661.23000000231,"y":2544033.4700000025}},{"attributes":{"ID":474448,"DIS_CODE":0,"TOWNNAME":"中西區","LI":"大涼里","LIN":"18鄰","STREET":"府前二街","SECT":" ","MAREA":" ","LANE":" ","ALLEY":" ","HOUSE_NO":"９２號八樓","E_COORD97":166661.23000000001,"N_COORD97":2544033.4700000002,"ADDRESS":"府前二街９２號八樓","OBJECTID":474423},"geometry":{"x":166661.23000000231,"y":2544033.4700000025}},{"attributes":{"ID":474449,"DIS_CODE":0,"TOWNNAME":"中西區","LI":"大涼里","LIN":"18鄰","STREET":"府前二街","SECT":" ","MAREA":" ","LANE":" ","ALLEY":" ","HOUSE_NO":"９２號三樓","E_COORD97":166661.23000000001,"N_COORD97":2544033.4700000002,"ADDRESS":"府前二街９２號三樓","OBJECTID":474424},"geometry":{"x":166661.23000000231,"y":2544033.4700000025}},{"attributes":{"ID":474450,"DIS_CODE":0,"TOWNNAME":"中西區","LI":"大涼里","LIN":"18鄰","STREET":"府前二街","SECT":" ","MAREA":" ","LANE":" ","ALLEY":" ","HOUSE_NO":"９２號五樓","E_COORD97":166661.23000000001,"N_COORD97":2544033.4700000002,"ADDRESS":"府前二街９２號五樓","OBJECTID":474425},"geometry":{"x":166661.23000000231,"y":2544033.4700000025}},{"attributes":{"ID":474451,"DIS_CODE":0,"TOWNNAME":"中西區","LI":"大涼里","LIN":"18鄰","STREET":"府前二街","SECT":" ","MAREA":" ","LANE":" ","ALLEY":" ","HOUSE_NO":"９２號六樓","E_COORD97":166661.23000000001,"N_COORD97":2544033.4700000002,"ADDRESS":"府前二街９２號六樓","OBJECTID":474426},"geometry":{"x":166661.23000000231,"y":2544033.4700000025}},{"attributes":{"ID":474452,"DIS_CODE":0,"TOWNNAME":"佳里區","LI":"鎮山里","LIN":"18鄰","STREET":"佳南路","SECT":" ","MAREA":" ","LANE":" ","ALLEY":" ","HOUSE_NO":"２１６號","E_COORD97":166120.56,"N_COORD97":2561023.0800000001,"ADDRESS":"佳南路２１６號","OBJECTID":474427},"geometry":{"x":166120.56000000145,"y":2561023.0800000038}},{"attributes":{"ID":474453,"DIS_CODE":0,"TOWNNAME":"永康區","LI":"大橋里","LIN":"18鄰","STREET":"大橋二街","SECT":" ","MAREA":" ","LANE":" ","ALLEY":" ","HOUSE_NO":"１８６號九樓之２","E_COORD97":171107.76999999999,"N_COORD97":2546778.8999999999,"ADDRESS":"大橋二街１８６號九樓之２","OBJECTID":474428},"geometry":{"x":171107.76999999955,"y":2546778.9000000022}},{"attributes":{"ID":474454,"DIS_CODE":0,"TOWNNAME":"永康區","LI":"大橋里","LIN":"18鄰","STREET":"大橋二街","SECT":" ","MAREA":" ","LANE":" ","ALLEY":" ","HOUSE_NO":"１８６號五樓之３","E_COORD97":171107.73000000001,"N_COORD97":2546778.8999999999,"ADDRESS":"大橋二街１８６號五樓之３","OBJECTID":474429},"geometry":{"x":171107.73000000231,"y":2546778.9000000022}},{"attributes":{"ID":474455,"DIS_CODE":0,"TOWNNAME":"永康區","LI":"大橋里","LIN":"18鄰","STREET":"大橋二街","SECT":" ","MAREA":" ","LANE":" ","ALLEY":" ","HOUSE_NO":"１９２號六樓之１","E_COORD97":171134.72,"N_COORD97":2546764.96,"ADDRESS":"大橋二街１９２號六樓之１","OBJECTID":474430},"geometry":{"x":171134.72000000067,"y":2546764.9600000046}},{"attributes":{"ID":474456,"DIS_CODE":0,"TOWNNAME":"永康區","LI":"大橋里","LIN":"18鄰","STREET":"大橋二街","SECT":" ","MAREA":" ","LANE":" ","ALLEY":" ","HOUSE_NO":"１９２號十一樓之１","E_COORD97":171135.97,"N_COORD97":2546764.96,"ADDRESS":"大橋二街１９２號十一樓之１","OBJECTID":474431},"geometry":{"x":171135.97000000067,"y":2546764.9600000046}},{"attributes":{"ID":474457,"DIS_CODE":0,"TOWNNAME":"永康區","LI":"大橋里","LIN":"18鄰","STREET":"大橋二街","SECT":" ","MAREA":" ","LANE":" ","ALLEY":" ","HOUSE_NO":"１９２號八樓之３","E_COORD97":171134.82000000001,"N_COORD97":2546764.96,"ADDRESS":"大橋二街１９２號八樓之３","OBJECTID":474432},"geometry":{"x":171134.8200000003,"y":2546764.9600000046}},{"attributes":{"ID":474458,"DIS_CODE":0,"TOWNNAME":"歸仁區","LI":"辜厝里","LIN":"18鄰","STREET":"大順一街","SECT":" ","MAREA":" ","LANE":" ","ALLEY":" ","HOUSE_NO":"１號八樓之１","E_COORD97":177458.10999999999,"N_COORD97":2540505.9500000002,"ADDRESS":"大順一街１號八樓之１","OBJECTID":474433},"geometry":{"x":177458.11000000034,"y":2540505.9500000011}},{"attributes":{"ID":474459,"DIS_CODE":0,"TOWNNAME":"歸仁區","LI":"許厝里","LIN":"18鄰","STREET":"仁愛北街","SECT":" ","MAREA":" ","LANE":" ","ALLEY":" ","HOUSE_NO":"５６號三樓","E_COORD97":178300.32999999999,"N_COORD97":2540855.25,"ADDRESS":"仁愛北街５６號三樓","OBJECTID":474434},"geometry":{"x":178300.33000000007,"y":2540855.25}},{"attributes":{"ID":474460,"DIS_CODE":0,"TOWNNAME":"歸仁區","LI":"辜厝里","LIN":"18鄰","STREET":"大順一街","SECT":" ","MAREA":" ","LANE":" ","ALLEY":" ","HOUSE_NO":"１號二樓","E_COORD97":177457.67999999999,"N_COORD97":2540505.9500000002,"ADDRESS":"大順一街１號二樓","OBJECTID":474435},"geometry":{"x":177457.68000000063,"y":2540505.9500000011}},{"attributes":{"ID":474461,"DIS_CODE":0,"TOWNNAME":"歸仁區","LI":"辜厝里","LIN":"18鄰","STREET":"大順一街","SECT":" ","MAREA":" ","LANE":" ","ALLEY":" ","HOUSE_NO":"１號九樓之２","E_COORD97":177458.13,"N_COORD97":2540505.9500000002,"ADDRESS":"大順一街１號九樓之２","OBJECTID":474436},"geometry":{"x":177458.13000000082,"y":2540505.9500000011}},{"attributes":{"ID":474462,"DIS_CODE":0,"TOWNNAME":"歸仁區","LI":"辜厝里","LIN":"18鄰","STREET":"大順一街","SECT":" ","MAREA":" ","LANE":" ","ALLEY":" ","HOUSE_NO":"１號六樓之１","E_COORD97":177458.10999999999,"N_COORD97":2540505.9500000002,"ADDRESS":"大順一街１號六樓之１","OBJECTID":474437},"geometry":{"x":177458.11000000034,"y":2540505.9500000011}},{"attributes":{"ID":474463,"DIS_CODE":0,"TOWNNAME":"歸仁區","LI":"許厝里","LIN":"18鄰","STREET":"仁愛北街","SECT":" ","MAREA":" ","LANE":" ","ALLEY":" ","HOUSE_NO":"５６號五樓","E_COORD97":178300.32999999999,"N_COORD97":2540855.25,"ADDRESS":"仁愛北街５６號五樓","OBJECTID":474438},"geometry":{"x":178300.33000000007,"y":2540855.25}},{"attributes":{"ID":474464,"DIS_CODE":0,"TOWNNAME":"歸仁區","LI":"許厝里","LIN":"18鄰","STREET":"仁愛北街","SECT":" ","MAREA":" ","LANE":" ","ALLEY":" ","HOUSE_NO":"６４號五樓","E_COORD97":178300.42999999999,"N_COORD97":2540875.25,"ADDRESS":"仁愛北街６４號五樓","OBJECTID":474439},"geometry":{"x":178300.43000000063,"y":2540875.25}},{"attributes":{"ID":474465,"DIS_CODE":0,"TOWNNAME":"北區","LI":"賢北里","LIN":"18鄰","STREET":"和緯路","SECT":"五段","MAREA":" ","LANE":" ","ALLEY":" ","HOUSE_NO":"２７８號二樓","E_COORD97":165958.26000000001,"N_COORD97":2545102.1699999999,"ADDRESS":"和緯路五段２７８號二樓","OBJECTID":474440},"geometry":{"x":165958.25999999978,"y":2545102.1700000018}},{"attributes":{"ID":474466,"DIS_CODE":0,"TOWNNAME":"北區","LI":"賢北里","LIN":"18鄰","STREET":"和緯路","SECT":"五段","MAREA":" ","LANE":" ","ALLEY":" ","HOUSE_NO":"２７８號三樓","E_COORD97":165958.26000000001,"N_COORD97":2545102.1699999999,"ADDRESS":"和緯路五段２７８號三樓","OBJECTID":474441},"geometry":{"x":165958.25999999978,"y":2545102.1700000018}},{"attributes":{"ID":474467,"DIS_CODE":0,"TOWNNAME":"北區","LI":"賢北里","LIN":"18鄰","STREET":"和緯路","SECT":"五段","MAREA":" ","LANE":" ","ALLEY":" ","HOUSE_NO":"２７８號五樓","E_COORD97":165958.26000000001,"N_COORD97":2545102.1699999999,"ADDRESS":"和緯路五段２７８號五樓","OBJECTID":474442},"geometry":{"x":165958.25999999978,"y":2545102.1700000018}},{"attributes":{"ID":474468,"DIS_CODE":0,"TOWNNAME":"北區","LI":"賢北里","LIN":"18鄰","STREET":"和緯路","SECT":"五段","MAREA":" ","LANE":" ","ALLEY":" ","HOUSE_NO":"２７８號四樓","E_COORD97":165958.26000000001,"N_COORD97":2545102.1699999999,"ADDRESS":"和緯路五段２７８號四樓","OBJECTID":474443},"geometry":{"x":165958.25999999978,"y":2545102.1700000018}},{"attributes":{"ID":474469,"DIS_CODE":0,"TOWNNAME":"新營區","LI":"永生里","LIN":"18鄰","STREET":"康樂街","SECT":" ","MAREA":" ","LANE":" ","ALLEY":" ","HOUSE_NO":"４５號四樓之３","E_COORD97":179884.63,"N_COORD97":2577852.3799999999,"ADDRESS":"康樂街４５號四樓之３","OBJECTID":474444},"geometry":{"x":179884.62999999989,"y":2577852.379999999}},{"attributes":{"ID":474470,"DIS_CODE":0,"TOWNNAME":"南區","LI":"新興里","LIN":"18鄰","STREET":"三官路","SECT":" ","MAREA":" ","LANE":" ","ALLEY":" ","HOUSE_NO":"１２７號五樓","E_COORD97":167331.51999999999,"N_COORD97":2542113.5899999999,"ADDRESS":"三官路１２７號五樓","OBJECTID":474445},"geometry":{"x":167331.52000000048,"y":2542113.5899999999}},{"attributes":{"ID":474471,"DIS_CODE":0,"TOWNNAME":"南區","LI":"新興里","LIN":"18鄰","STREET":"三官路","SECT":" ","MAREA":" ","LANE":" ","ALLEY":" ","HOUSE_NO":"１２７號四樓","E_COORD97":167331.51999999999,"N_COORD97":2542113.5899999999,"ADDRESS":"三官路１２７號四樓","OBJECTID":474446},"geometry":{"x":167331.52000000048,"y":2542113.5899999999}},{"attributes":{"ID":474472,"DIS_CODE":0,"TOWNNAME":"南區","LI":"新興里","LIN":"18鄰","STREET":"三官路","SECT":" ","MAREA":" ","LANE":" ","ALLEY":" ","HOUSE_NO":"１３１號五樓","E_COORD97":167327.91,"N_COORD97":2542104,"ADDRESS":"三官路１３１號五樓","OBJECTID":474447},"geometry":{"x":167327.91000000108,"y":2542104}},{"attributes":{"ID":474473,"DIS_CODE":0,"TOWNNAME":"佳里區","LI":"鎮山里","LIN":"18鄰","STREET":"佳南路","SECT":" ","MAREA":" ","LANE":" ","ALLEY":" ","HOUSE_NO":"２３６號","E_COORD97":166090,"N_COORD97":2561031.8399999999,"ADDRESS":"佳南路２３６號","OBJECTID":474448},"geometry":{"x":166090.00000000093,"y":2561031.8400000017}},{"attributes":{"ID":474474,"DIS_CODE":0,"TOWNNAME":"南區","LI":"新興里","LIN":"18鄰","STREET":"三官路","SECT":" ","MAREA":" ","LANE":" ","ALLEY":" ","HOUSE_NO":"１３１號四樓","E_COORD97":167327.91,"N_COORD97":2542104,"ADDRESS":"三官路１３１號四樓","OBJECTID":474449},"geometry":{"x":167327.91000000108,"y":2542104}},{"attributes":{"ID":474475,"DIS_CODE":0,"TOWNNAME":"南區","LI":"新興里","LIN":"18鄰","STREET":"三官路","SECT":" ","MAREA":" ","LANE":" ","ALLEY":" ","HOUSE_NO":"１３３號二樓","E_COORD97":167325.91,"N_COORD97":2542099.3999999999,"ADDRESS":"三官路１３３號二樓","OBJECTID":474450},"geometry":{"x":167325.91000000201,"y":2542099.3999999985}},{"attributes":{"ID":474476,"DIS_CODE":0,"TOWNNAME":"南區","LI":"新興里","LIN":"18鄰","STREET":"三官路","SECT":" ","MAREA":" ","LANE":" ","ALLEY":" ","HOUSE_NO":"１３３號三樓","E_COORD97":167325.91,"N_COORD97":2542099.3999999999,"ADDRESS":"三官路１３３號三樓","OBJECTID":474451},"geometry":{"x":167325.91000000201,"y":2542099.3999999985}},{"attributes":{"ID":474477,"DIS_CODE":0,"TOWNNAME":"南區","LI":"新興里","LIN":"18鄰","STREET":"三官路","SECT":" ","MAREA":" ","LANE":" ","ALLEY":" ","HOUSE_NO":"１３３號五樓","E_COORD97":167325.91,"N_COORD97":2542099.3999999999,"ADDRESS":"三官路１３３號五樓","OBJECTID":474452},"geometry":{"x":167325.91000000201,"y":2542099.3999999985}},{"attributes":{"ID":474478,"DIS_CODE":0,"TOWNNAME":"南區","LI":"新興里","LIN":"18鄰","STREET":"三官路","SECT":" ","MAREA":" ","LANE":" ","ALLEY":" ","HOUSE_NO":"１３３號四樓","E_COORD97":167325.91,"N_COORD97":2542099.3999999999,"ADDRESS":"三官路１３３號四樓","OBJECTID":474453},"geometry":{"x":167325.91000000201,"y":2542099.3999999985}},{"attributes":{"ID":474479,"DIS_CODE":0,"TOWNNAME":"南區","LI":"新興里","LIN":"18鄰","STREET":"三官路","SECT":" ","MAREA":" ","LANE":" ","ALLEY":" ","HOUSE_NO":"１３５號二樓","E_COORD97":167324.31,"N_COORD97":2542095.3999999999,"ADDRESS":"三官路１３５號二樓","OBJECTID":474454},"geometry":{"x":167324.31000000145,"y":2542095.4000000004}},{"attributes":{"ID":474480,"DIS_CODE":0,"TOWNNAME":"南區","LI":"新興里","LIN":"18鄰","STREET":"三官路","SECT":" ","MAREA":" ","LANE":" ","ALLEY":" ","HOUSE_NO":"１３５號三樓","E_COORD97":167324.31,"N_COORD97":2542095.3999999999,"ADDRESS":"三官路１３５號三樓","OBJECTID":474455},"geometry":{"x":167324.31000000145,"y":2542095.4000000004}},{"attributes":{"ID":474481,"DIS_CODE":0,"TOWNNAME":"南區","LI":"新興里","LIN":"18鄰","STREET":"三官路","SECT":" ","MAREA":" ","LANE":" ","ALLEY":" ","HOUSE_NO":"１３５號五樓","E_COORD97":167324.31,"N_COORD97":2542095.3999999999,"ADDRESS":"三官路１３５號五樓","OBJECTID":474456},"geometry":{"x":167324.31000000145,"y":2542095.4000000004}},{"attributes":{"ID":474482,"DIS_CODE":0,"TOWNNAME":"南區","LI":"新興里","LIN":"18鄰","STREET":"三官路","SECT":" ","MAREA":" ","LANE":" ","ALLEY":" ","HOUSE_NO":"１３５號四樓","E_COORD97":167324.31,"N_COORD97":2542095.3999999999,"ADDRESS":"三官路１３５號四樓","OBJECTID":474457},"geometry":{"x":167324.31000000145,"y":2542095.4000000004}},{"attributes":{"ID":474483,"DIS_CODE":0,"TOWNNAME":"南區","LI":"新興里","LIN":"18鄰","STREET":"三官路","SECT":" ","MAREA":" ","LANE":" ","ALLEY":" ","HOUSE_NO":"１３７號二樓","E_COORD97":167323.31,"N_COORD97":2542090.6099999999,"ADDRESS":"三官路１３７號二樓","OBJECTID":474458},"geometry":{"x":167323.31000000052,"y":2542090.6100000031}},{"attributes":{"ID":474484,"DIS_CODE":0,"TOWNNAME":"南區","LI":"新興里","LIN":"18鄰","STREET":"三官路","SECT":" ","MAREA":" ","LANE":" ","ALLEY":" ","HOUSE_NO":"１３７號三樓","E_COORD97":167323.31,"N_COORD97":2542090.6099999999,"ADDRESS":"三官路１３７號三樓","OBJECTID":474459},"geometry":{"x":167323.31000000052,"y":2542090.6100000031}},{"attributes":{"ID":474485,"DIS_CODE":0,"TOWNNAME":"南區","LI":"新興里","LIN":"18鄰","STREET":"三官路","SECT":" ","MAREA":" ","LANE":" ","ALLEY":" ","HOUSE_NO":"１３７號五樓","E_COORD97":167323.31,"N_COORD97":2542090.6099999999,"ADDRESS":"三官路１３７號五樓","OBJECTID":474460},"geometry":{"x":167323.31000000052,"y":2542090.6100000031}},{"attributes":{"ID":474486,"DIS_CODE":0,"TOWNNAME":"南區","LI":"新興里","LIN":"18鄰","STREET":"三官路","SECT":" ","MAREA":" ","LANE":" ","ALLEY":" ","HOUSE_NO":"１３７號四樓","E_COORD97":167323.31,"N_COORD97":2542090.6099999999,"ADDRESS":"三官路１３７號四樓","OBJECTID":474461},"geometry":{"x":167323.31000000052,"y":2542090.6100000031}},{"attributes":{"ID":474487,"DIS_CODE":0,"TOWNNAME":"南區","LI":"新興里","LIN":"18鄰","STREET":"三官路","SECT":" ","MAREA":" ","LANE":" ","ALLEY":" ","HOUSE_NO":"１３９號三樓","E_COORD97":167320.31,"N_COORD97":2542085.6099999999,"ADDRESS":"三官路１３９號三樓","OBJECTID":474462},"geometry":{"x":167320.30999999959,"y":2542085.6099999994}},{"attributes":{"ID":474488,"DIS_CODE":0,"TOWNNAME":"南區","LI":"新興里","LIN":"18鄰","STREET":"三官路","SECT":" ","MAREA":" ","LANE":" ","ALLEY":" ","HOUSE_NO":"１３９號五樓","E_COORD97":167320.31,"N_COORD97":2542085.6099999999,"ADDRESS":"三官路１３９號五樓","OBJECTID":474463},"geometry":{"x":167320.30999999959,"y":2542085.6099999994}},{"attributes":{"ID":474489,"DIS_CODE":0,"TOWNNAME":"南區","LI":"新興里","LIN":"18鄰","STREET":"三官路","SECT":" ","MAREA":" ","LANE":" ","ALLEY":" ","HOUSE_NO":"１３９號四樓","E_COORD97":167320.31,"N_COORD97":2542085.6099999999,"ADDRESS":"三官路１３９號四樓","OBJECTID":474464},"geometry":{"x":167320.30999999959,"y":2542085.6099999994}},{"attributes":{"ID":474490,"DIS_CODE":0,"TOWNNAME":"南區","LI":"新興里","LIN":"18鄰","STREET":"三官路","SECT":" ","MAREA":" ","LANE":" ","ALLEY":" ","HOUSE_NO":"１４１號三樓","E_COORD97":167317.10999999999,"N_COORD97":2542080.4100000001,"ADDRESS":"三官路１４１號三樓","OBJECTID":474465},"geometry":{"x":167317.11000000034,"y":2542080.410000002}},{"attributes":{"ID":474491,"DIS_CODE":0,"TOWNNAME":"南區","LI":"新興里","LIN":"18鄰","STREET":"三官路","SECT":" ","MAREA":" ","LANE":" ","ALLEY":" ","HOUSE_NO":"１４１號五樓","E_COORD97":167317.10999999999,"N_COORD97":2542080.4100000001,"ADDRESS":"三官路１４１號五樓","OBJECTID":474466},"geometry":{"x":167317.11000000034,"y":2542080.410000002}},{"attributes":{"ID":474492,"DIS_CODE":0,"TOWNNAME":"南區","LI":"新興里","LIN":"18鄰","STREET":"三官路","SECT":" ","MAREA":" ","LANE":" ","ALLEY":" ","HOUSE_NO":"１４１號四樓","E_COORD97":167317.10999999999,"N_COORD97":2542080.4100000001,"ADDRESS":"三官路１４１號四樓","OBJECTID":474467},"geometry":{"x":167317.11000000034,"y":2542080.410000002}},{"attributes":{"ID":474493,"DIS_CODE":0,"TOWNNAME":"北區","LI":"實踐里","LIN":"18鄰","STREET":"大武街","SECT":" ","MAREA":" ","LANE":" ","ALLEY":" ","HOUSE_NO":"２１１號之１二樓","E_COORD97":169639.45999999999,"N_COORD97":2546109.73,"ADDRESS":"大武街２１１號之１二樓","OBJECTID":474468},"geometry":{"x":169639.46000000089,"y":2546109.7300000023}},{"attributes":{"ID":474494,"DIS_CODE":0,"TOWNNAME":"北區","LI":"實踐里","LIN":"18鄰","STREET":"大武街","SECT":" ","MAREA":" ","LANE":" ","ALLEY":" ","HOUSE_NO":"２１１號之１三樓","E_COORD97":169639.45999999999,"N_COORD97":2546109.73,"ADDRESS":"大武街２１１號之１三樓","OBJECTID":474469},"geometry":{"x":169639.46000000089,"y":2546109.7300000023}},{"attributes":{"ID":474495,"DIS_CODE":0,"TOWNNAME":"北區","LI":"實踐里","LIN":"18鄰","STREET":"大武街","SECT":" ","MAREA":" ","LANE":" ","ALLEY":" ","HOUSE_NO":"２１１號之１五樓","E_COORD97":169639.45999999999,"N_COORD97":2546109.73,"ADDRESS":"大武街２１１號之１五樓","OBJECTID":474470},"geometry":{"x":169639.46000000089,"y":2546109.7300000023}},{"attributes":{"ID":474496,"DIS_CODE":0,"TOWNNAME":"北區","LI":"實踐里","LIN":"18鄰","STREET":"大武街","SECT":" ","MAREA":" ","LANE":" ","ALLEY":" ","HOUSE_NO":"２１１號之１四樓","E_COORD97":169639.45999999999,"N_COORD97":2546109.73,"ADDRESS":"大武街２１１號之１四樓","OBJECTID":474471},"geometry":{"x":169639.46000000089,"y":2546109.7300000023}},{"attributes":{"ID":474497,"DIS_CODE":0,"TOWNNAME":"北區","LI":"實踐里","LIN":"18鄰","STREET":"大武街","SECT":" ","MAREA":" ","LANE":" ","ALLEY":" ","HOUSE_NO":"２１１號之２二樓","E_COORD97":169628.25,"N_COORD97":2546112.0899999999,"ADDRESS":"大武街２１１號之２二樓","OBJECTID":474472},"geometry":{"x":169628.25,"y":2546112.0900000036}},{"attributes":{"ID":474498,"DIS_CODE":0,"TOWNNAME":"北區","LI":"實踐里","LIN":"18鄰","STREET":"大武街","SECT":" ","MAREA":" ","LANE":" ","ALLEY":" ","HOUSE_NO":"２１１號之２三樓","E_COORD97":169628.25,"N_COORD97":2546112.0899999999,"ADDRESS":"大武街２１１號之２三樓","OBJECTID":474473},"geometry":{"x":169628.25,"y":2546112.0900000036}},{"attributes":{"ID":474499,"DIS_CODE":0,"TOWNNAME":"北區","LI":"實踐里","LIN":"18鄰","STREET":"大武街","SECT":" ","MAREA":" ","LANE":" ","ALLEY":" ","HOUSE_NO":"２１１號之２五樓","E_COORD97":169628.25,"N_COORD97":2546112.0899999999,"ADDRESS":"大武街２１１號之２五樓","OBJECTID":474474},"geometry":{"x":169628.25,"y":2546112.0900000036}},{"attributes":{"ID":474500,"DIS_CODE":0,"TOWNNAME":"北區","LI":"實踐里","LIN":"18鄰","STREET":"大武街","SECT":" ","MAREA":" ","LANE":" ","ALLEY":" ","HOUSE_NO":"２１１號之２四樓","E_COORD97":169628.25,"N_COORD97":2546112.0899999999,"ADDRESS":"大武街２１１號之２四樓","OBJECTID":474475},"geometry":{"x":169628.25,"y":2546112.0900000036}},{"attributes":{"ID":474501,"DIS_CODE":0,"TOWNNAME":"北區","LI":"實踐里","LIN":"18鄰","STREET":"大武街","SECT":" ","MAREA":" ","LANE":" ","ALLEY":" ","HOUSE_NO":"２１１號之３二樓","E_COORD97":169628.84,"N_COORD97":2546121.6200000001,"ADDRESS":"大武街２１１號之３二樓","OBJECTID":474476},"geometry":{"x":169628.84000000078,"y":2546121.620000001}},{"attributes":{"ID":474502,"DIS_CODE":0,"TOWNNAME":"北區","LI":"實踐里","LIN":"18鄰","STREET":"大武街","SECT":" ","MAREA":" ","LANE":" ","ALLEY":" ","HOUSE_NO":"２１１號之３三樓","E_COORD97":169628.84,"N_COORD97":2546121.6200000001,"ADDRESS":"大武街２１１號之３三樓","OBJECTID":474477},"geometry":{"x":169628.84000000078,"y":2546121.620000001}},{"attributes":{"ID":474503,"DIS_CODE":0,"TOWNNAME":"北區","LI":"實踐里","LIN":"18鄰","STREET":"大武街","SECT":" ","MAREA":" ","LANE":" ","ALLEY":" ","HOUSE_NO":"２１１號之３五樓","E_COORD97":169628.84,"N_COORD97":2546121.6200000001,"ADDRESS":"大武街２１１號之３五樓","OBJECTID":474478},"geometry":{"x":169628.84000000078,"y":2546121.620000001}},{"attributes":{"ID":474504,"DIS_CODE":0,"TOWNNAME":"北區","LI":"實踐里","LIN":"18鄰","STREET":"大武街","SECT":" ","MAREA":" ","LANE":" ","ALLEY":" ","HOUSE_NO":"２１１號之３四樓","E_COORD97":169628.84,"N_COORD97":2546121.6200000001,"ADDRESS":"大武街２１１號之３四樓","OBJECTID":474479},"geometry":{"x":169628.84000000078,"y":2546121.620000001}},{"attributes":{"ID":474505,"DIS_CODE":0,"TOWNNAME":"南區","LI":"南華里","LIN":"18鄰","STREET":"中華南路","SECT":"二段","MAREA":" ","LANE":" ","ALLEY":" ","HOUSE_NO":"２５４號三樓","E_COORD97":166818.10999999999,"N_COORD97":2540265.7200000002,"ADDRESS":"中華南路二段２５４號三樓","OBJECTID":474480},"geometry":{"x":166818.11000000127,"y":2540265.7200000007}},{"attributes":{"ID":474506,"DIS_CODE":0,"TOWNNAME":"南區","LI":"南華里","LIN":"18鄰","STREET":"中華南路","SECT":"二段","MAREA":" ","LANE":" ","ALLEY":" ","HOUSE_NO":"２５４號五樓","E_COORD97":166818.10999999999,"N_COORD97":2540265.7200000002,"ADDRESS":"中華南路二段２５４號五樓","OBJECTID":474481},"geometry":{"x":166818.11000000127,"y":2540265.7200000007}},{"attributes":{"ID":474507,"DIS_CODE":0,"TOWNNAME":"南區","LI":"南華里","LIN":"18鄰","STREET":"中華南路","SECT":"二段","MAREA":" ","LANE":" ","ALLEY":" ","HOUSE_NO":"２５４號四樓","E_COORD97":166818.10999999999,"N_COORD97":2540265.7200000002,"ADDRESS":"中華南路二段２５４號四樓","OBJECTID":474482},"geometry":{"x":166818.11000000127,"y":2540265.7200000007}},{"attributes":{"ID":474508,"DIS_CODE":0,"TOWNNAME":"南區","LI":"南華里","LIN":"18鄰","STREET":"中華南路","SECT":"二段","MAREA":" ","LANE":" ","ALLEY":" ","HOUSE_NO":"２５８號三樓","E_COORD97":166811.17999999999,"N_COORD97":2540266.6400000001,"ADDRESS":"中華南路二段２５８號三樓","OBJECTID":474483},"geometry":{"x":166811.1799999997,"y":2540266.6400000006}},{"attributes":{"ID":474509,"DIS_CODE":0,"TOWNNAME":"南區","LI":"南華里","LIN":"18鄰","STREET":"中華南路","SECT":"二段","MAREA":" ","LANE":" ","ALLEY":" ","HOUSE_NO":"２５８號五樓","E_COORD97":166811.17999999999,"N_COORD97":2540266.6400000001,"ADDRESS":"中華南路二段２５８號五樓","OBJECTID":474484},"geometry":{"x":166811.1799999997,"y":2540266.6400000006}},{"attributes":{"ID":474510,"DIS_CODE":0,"TOWNNAME":"南區","LI":"南華里","LIN":"18鄰","STREET":"中華南路","SECT":"二段","MAREA":" ","LANE":" ","ALLEY":" ","HOUSE_NO":"２５８號四樓","E_COORD97":166811.17999999999,"N_COORD97":2540266.6400000001,"ADDRESS":"中華南路二段２５８號四樓","OBJECTID":474485},"geometry":{"x":166811.1799999997,"y":2540266.6400000006}},{"attributes":{"ID":474511,"DIS_CODE":0,"TOWNNAME":"南區","LI":"南華里","LIN":"18鄰","STREET":"中華南路","SECT":"二段","MAREA":" ","LANE":" ","ALLEY":" ","HOUSE_NO":"２６２號三樓","E_COORD97":166803.97,"N_COORD97":2540270.52,"ADDRESS":"中華南路二段２６２號三樓","OBJECTID":474486},"geometry":{"x":166803.96999999974,"y":2540270.5200000033}},{"attributes":{"ID":474512,"DIS_CODE":0,"TOWNNAME":"南區","LI":"南華里","LIN":"18鄰","STREET":"中華南路","SECT":"二段","MAREA":" ","LANE":" ","ALLEY":" ","HOUSE_NO":"２６２號五樓","E_COORD97":166803.97,"N_COORD97":2540270.52,"ADDRESS":"中華南路二段２６２號五樓","OBJECTID":474487},"geometry":{"x":166803.96999999974,"y":2540270.5200000033}},{"attributes":{"ID":474513,"DIS_CODE":0,"TOWNNAME":"南區","LI":"南華里","LIN":"18鄰","STREET":"中華南路","SECT":"二段","MAREA":" ","LANE":" ","ALLEY":" ","HOUSE_NO":"２６２號四樓","E_COORD97":166803.97,"N_COORD97":2540270.52,"ADDRESS":"中華南路二段２６２號四樓","OBJECTID":474488},"geometry":{"x":166803.96999999974,"y":2540270.5200000033}},{"attributes":{"ID":474514,"DIS_CODE":0,"TOWNNAME":"南區","LI":"南華里","LIN":"18鄰","STREET":"中華南路","SECT":"二段","MAREA":" ","LANE":" ","ALLEY":" ","HOUSE_NO":"２６６號三樓","E_COORD97":166794.82000000001,"N_COORD97":2540272.8300000001,"ADDRESS":"中華南路二段２６６號三樓","OBJECTID":474489},"geometry":{"x":166794.82000000123,"y":2540272.8300000019}},{"attributes":{"ID":474515,"DIS_CODE":0,"TOWNNAME":"南區","LI":"南華里","LIN":"18鄰","STREET":"中華南路","SECT":"二段","MAREA":" ","LANE":" ","ALLEY":" ","HOUSE_NO":"２６６號五樓","E_COORD97":166794.82000000001,"N_COORD97":2540272.8300000001,"ADDRESS":"中華南路二段２６６號五樓","OBJECTID":474490},"geometry":{"x":166794.82000000123,"y":2540272.8300000019}},{"attributes":{"ID":474516,"DIS_CODE":0,"TOWNNAME":"南區","LI":"南華里","LIN":"18鄰","STREET":"中華南路","SECT":"二段","MAREA":" ","LANE":" ","ALLEY":" ","HOUSE_NO":"２６６號四樓","E_COORD97":166794.82000000001,"N_COORD97":2540272.8300000001,"ADDRESS":"中華南路二段２６６號四樓","OBJECTID":474491},"geometry":{"x":166794.82000000123,"y":2540272.8300000019}},{"attributes":{"ID":474517,"DIS_CODE":0,"TOWNNAME":"南區","LI":"南華里","LIN":"18鄰","STREET":"中華南路","SECT":"二段","MAREA":" ","LANE":" ","ALLEY":" ","HOUSE_NO":"２７０號三樓","E_COORD97":166785.70000000001,"N_COORD97":2540275.4100000001,"ADDRESS":"中華南路二段２７０號三樓","OBJECTID":474492},"geometry":{"x":166785.70000000019,"y":2540275.4100000039}},{"attributes":{"ID":474518,"DIS_CODE":0,"TOWNNAME":"南區","LI":"南華里","LIN":"18鄰","STREET":"中華南路","SECT":"二段","MAREA":" ","LANE":" ","ALLEY":" ","HOUSE_NO":"２７０號五樓","E_COORD97":166785.70000000001,"N_COORD97":2540275.4100000001,"ADDRESS":"中華南路二段２７０號五樓","OBJECTID":474493},"geometry":{"x":166785.70000000019,"y":2540275.4100000039}},{"attributes":{"ID":474519,"DIS_CODE":0,"TOWNNAME":"南區","LI":"南華里","LIN":"18鄰","STREET":"中華南路","SECT":"二段","MAREA":" ","LANE":" ","ALLEY":" ","HOUSE_NO":"２７０號四樓","E_COORD97":166785.70000000001,"N_COORD97":2540275.4100000001,"ADDRESS":"中華南路二段２７０號四樓","OBJECTID":474494},"geometry":{"x":166785.70000000019,"y":2540275.4100000039}},{"attributes":{"ID":474520,"DIS_CODE":0,"TOWNNAME":"南區","LI":"南華里","LIN":"18鄰","STREET":"中華南路","SECT":"二段","MAREA":" ","LANE":" ","ALLEY":" ","HOUSE_NO":"２７４號三樓","E_COORD97":166777.38,"N_COORD97":2540277.4399999999,"ADDRESS":"中華南路二段２７４號三樓","OBJECTID":474495},"geometry":{"x":166777.37999999989,"y":2540277.4399999995}},{"attributes":{"ID":474521,"DIS_CODE":0,"TOWNNAME":"南區","LI":"南華里","LIN":"18鄰","STREET":"中華南路","SECT":"二段","MAREA":" ","LANE":" ","ALLEY":" ","HOUSE_NO":"２７４號五樓","E_COORD97":166777.38,"N_COORD97":2540277.4399999999,"ADDRESS":"中華南路二段２７４號五樓","OBJECTID":474496},"geometry":{"x":166777.37999999989,"y":2540277.4399999995}},{"attributes":{"ID":474522,"DIS_CODE":0,"TOWNNAME":"南區","LI":"南華里","LIN":"18鄰","STREET":"中華南路","SECT":"二段","MAREA":" ","LANE":" ","ALLEY":" ","HOUSE_NO":"２７４號四樓","E_COORD97":166777.38,"N_COORD97":2540277.4399999999,"ADDRESS":"中華南路二段２７４號四樓","OBJECTID":474497},"geometry":{"x":166777.37999999989,"y":2540277.4399999995}},{"attributes":{"ID":474523,"DIS_CODE":0,"TOWNNAME":"南區","LI":"南華里","LIN":"18鄰","STREET":"中華南路","SECT":"二段","MAREA":" ","LANE":" ","ALLEY":" ","HOUSE_NO":"２７８號三樓","E_COORD97":166767.76999999999,"N_COORD97":2540278.6400000001,"ADDRESS":"中華南路二段２７８號三樓","OBJECTID":474498},"geometry":{"x":166767.76999999955,"y":2540278.6400000025}},{"attributes":{"ID":474524,"DIS_CODE":0,"TOWNNAME":"南區","LI":"南華里","LIN":"18鄰","STREET":"中華南路","SECT":"二段","MAREA":" ","LANE":" ","ALLEY":" ","HOUSE_NO":"２７８號五樓","E_COORD97":166767.76999999999,"N_COORD97":2540278.6400000001,"ADDRESS":"中華南路二段２７８號五樓","OBJECTID":474499},"geometry":{"x":166767.76999999955,"y":2540278.6400000025}},{"attributes":{"ID":474525,"DIS_CODE":0,"TOWNNAME":"南區","LI":"南華里","LIN":"18鄰","STREET":"中華南路","SECT":"二段","MAREA":" ","LANE":" ","ALLEY":" ","HOUSE_NO":"２７８號四樓","E_COORD97":166767.76999999999,"N_COORD97":2540278.6400000001,"ADDRESS":"中華南路二段２７８號四樓","OBJECTID":474500},"geometry":{"x":166767.76999999955,"y":2540278.6400000025}},{"attributes":{"ID":474526,"DIS_CODE":0,"TOWNNAME":"南區","LI":"南華里","LIN":"18鄰","STREET":"中華南路","SECT":"二段","MAREA":" ","LANE":" ","ALLEY":" ","HOUSE_NO":"２８２號三樓","E_COORD97":166758.70999999999,"N_COORD97":2540280.4900000002,"ADDRESS":"中華南路二段２８２號三樓","OBJECTID":474501},"geometry":{"x":166758.70999999996,"y":2540280.4900000002}},{"attributes":{"ID":474527,"DIS_CODE":0,"TOWNNAME":"南區","LI":"南華里","LIN":"18鄰","STREET":"中華南路","SECT":"二段","MAREA":" ","LANE":" ","ALLEY":" ","HOUSE_NO":"２８２號五樓","E_COORD97":166758.70999999999,"N_COORD97":2540280.4900000002,"ADDRESS":"中華南路二段２８２號五樓","OBJECTID":474502},"geometry":{"x":166758.70999999996,"y":2540280.4900000002}},{"attributes":{"ID":474528,"DIS_CODE":0,"TOWNNAME":"南區","LI":"南華里","LIN":"18鄰","STREET":"中華南路","SECT":"二段","MAREA":" ","LANE":" ","ALLEY":" ","HOUSE_NO":"２８２號四樓","E_COORD97":166758.70999999999,"N_COORD97":2540280.4900000002,"ADDRESS":"中華南路二段２８２號四樓","OBJECTID":474503},"geometry":{"x":166758.70999999996,"y":2540280.4900000002}},{"attributes":{"ID":474529,"DIS_CODE":0,"TOWNNAME":"南區","LI":"南華里","LIN":"18鄰","STREET":"中華南路","SECT":"二段","MAREA":" ","LANE":" ","ALLEY":" ","HOUSE_NO":"２８６號三樓","E_COORD97":166749.25,"N_COORD97":2540283.23,"ADDRESS":"中華南路二段２８６號三樓","OBJECTID":474504},"geometry":{"x":166749.25000000093,"y":2540283.2300000004}},{"attributes":{"ID":474530,"DIS_CODE":0,"TOWNNAME":"南區","LI":"南華里","LIN":"18鄰","STREET":"中華南路","SECT":"二段","MAREA":" ","LANE":" ","ALLEY":" ","HOUSE_NO":"２８６號五樓","E_COORD97":166749.25,"N_COORD97":2540283.23,"ADDRESS":"中華南路二段２８６號五樓","OBJECTID":474505},"geometry":{"x":166749.25000000093,"y":2540283.2300000004}},{"attributes":{"ID":474531,"DIS_CODE":0,"TOWNNAME":"南區","LI":"南華里","LIN":"18鄰","STREET":"中華南路","SECT":"二段","MAREA":" ","LANE":" ","ALLEY":" ","HOUSE_NO":"２８６號四樓","E_COORD97":166749.25,"N_COORD97":2540283.23,"ADDRESS":"中華南路二段２８６號四樓","OBJECTID":474506},"geometry":{"x":166749.25000000093,"y":2540283.2300000004}},{"attributes":{"ID":474532,"DIS_CODE":0,"TOWNNAME":"南區","LI":"南華里","LIN":"18鄰","STREET":"中華南路","SECT":"二段","MAREA":" ","LANE":" ","ALLEY":" ","HOUSE_NO":"２９０號三樓","E_COORD97":166741.76000000001,"N_COORD97":2540284.4300000002,"ADDRESS":"中華南路二段２９０號三樓","OBJECTID":474507},"geometry":{"x":166741.76000000071,"y":2540284.4299999997}},{"attributes":{"ID":474533,"DIS_CODE":0,"TOWNNAME":"南區","LI":"南華里","LIN":"18鄰","STREET":"中華南路","SECT":"二段","MAREA":" ","LANE":" ","ALLEY":" ","HOUSE_NO":"２９０號五樓","E_COORD97":166741.76000000001,"N_COORD97":2540284.4300000002,"ADDRESS":"中華南路二段２９０號五樓","OBJECTID":474508},"geometry":{"x":166741.76000000071,"y":2540284.4299999997}},{"attributes":{"ID":474534,"DIS_CODE":0,"TOWNNAME":"南區","LI":"南華里","LIN":"18鄰","STREET":"中華南路","SECT":"二段","MAREA":" ","LANE":" ","ALLEY":" ","HOUSE_NO":"２９０號四樓","E_COORD97":166741.76000000001,"N_COORD97":2540284.4300000002,"ADDRESS":"中華南路二段２９０號四樓","OBJECTID":474509},"geometry":{"x":166741.76000000071,"y":2540284.4299999997}},{"attributes":{"ID":474535,"DIS_CODE":0,"TOWNNAME":"南區","LI":"南華里","LIN":"18鄰","STREET":"中華南路","SECT":"二段","MAREA":" ","LANE":" ","ALLEY":" ","HOUSE_NO":"２９４號三樓","E_COORD97":166731.97,"N_COORD97":2540286.2799999998,"ADDRESS":"中華南路二段２９４號三樓","OBJECTID":474510},"geometry":{"x":166731.97000000067,"y":2540286.2800000012}},{"attributes":{"ID":474536,"DIS_CODE":0,"TOWNNAME":"南區","LI":"南華里","LIN":"18鄰","STREET":"中華南路","SECT":"二段","MAREA":" ","LANE":" ","ALLEY":" ","HOUSE_NO":"２９４號五樓","E_COORD97":166731.97,"N_COORD97":2540286.2799999998,"ADDRESS":"中華南路二段２９４號五樓","OBJECTID":474511},"geometry":{"x":166731.97000000067,"y":2540286.2800000012}},{"attributes":{"ID":474537,"DIS_CODE":0,"TOWNNAME":"南區","LI":"南華里","LIN":"18鄰","STREET":"中華南路","SECT":"二段","MAREA":" ","LANE":" ","ALLEY":" ","HOUSE_NO":"２９４號四樓","E_COORD97":166731.97,"N_COORD97":2540286.2799999998,"ADDRESS":"中華南路二段２９４號四樓","OBJECTID":474512},"geometry":{"x":166731.97000000067,"y":2540286.2800000012}},{"attributes":{"ID":474538,"DIS_CODE":0,"TOWNNAME":"南區","LI":"南華里","LIN":"18鄰","STREET":"中華南路","SECT":"二段","MAREA":" ","LANE":" ","ALLEY":" ","HOUSE_NO":"２９８號三樓","E_COORD97":166725.87,"N_COORD97":2540287.5699999998,"ADDRESS":"中華南路二段２９８號三樓","OBJECTID":474513},"geometry":{"x":166725.87000000197,"y":2540287.5700000003}},{"attributes":{"ID":474539,"DIS_CODE":0,"TOWNNAME":"南區","LI":"南華里","LIN":"18鄰","STREET":"中華南路","SECT":"二段","MAREA":" ","LANE":" ","ALLEY":" ","HOUSE_NO":"２９８號五樓","E_COORD97":166725.87,"N_COORD97":2540287.5699999998,"ADDRESS":"中華南路二段２９８號五樓","OBJECTID":474514},"geometry":{"x":166725.87000000197,"y":2540287.5700000003}},{"attributes":{"ID":474540,"DIS_CODE":0,"TOWNNAME":"南區","LI":"南華里","LIN":"18鄰","STREET":"中華南路","SECT":"二段","MAREA":" ","LANE":" ","ALLEY":" ","HOUSE_NO":"２９８號四樓","E_COORD97":166725.87,"N_COORD97":2540287.5699999998,"ADDRESS":"中華南路二段２９８號四樓","OBJECTID":474515},"geometry":{"x":166725.87000000197,"y":2540287.5700000003}},{"attributes":{"ID":474541,"DIS_CODE":0,"TOWNNAME":"北區","LI":"成德里","LIN":"18鄰","STREET":"文成三路","SECT":" ","MAREA":" ","LANE":" ","ALLEY":" ","HOUSE_NO":"１１８號二樓","E_COORD97":168815.32000000001,"N_COORD97":2546351.0099999998,"ADDRESS":"文成三路１１８號二樓","OBJECTID":474516},"geometry":{"x":168815.32000000123,"y":2546351.0100000016}},{"attributes":{"ID":474542,"DIS_CODE":0,"TOWNNAME":"北區","LI":"成德里","LIN":"18鄰","STREET":"文成三路","SECT":" ","MAREA":" ","LANE":" ","ALLEY":" ","HOUSE_NO":"１１８號三樓","E_COORD97":168815.32000000001,"N_COORD97":2546351.0099999998,"ADDRESS":"文成三路１１８號三樓","OBJECTID":474517},"geometry":{"x":168815.32000000123,"y":2546351.0100000016}},{"attributes":{"ID":474543,"DIS_CODE":0,"TOWNNAME":"北區","LI":"成德里","LIN":"18鄰","STREET":"文成三路","SECT":" ","MAREA":" ","LANE":" ","ALLEY":" ","HOUSE_NO":"１１８號四樓","E_COORD97":168815.32000000001,"N_COORD97":2546351.0099999998,"ADDRESS":"文成三路１１８號四樓","OBJECTID":474518},"geometry":{"x":168815.32000000123,"y":2546351.0100000016}},{"attributes":{"ID":474544,"DIS_CODE":0,"TOWNNAME":"東區","LI":"崇文里","LIN":"18鄰","STREET":"崇德二十街","SECT":" ","MAREA":" ","LANE":" ","ALLEY":" ","HOUSE_NO":"７９號","E_COORD97":171029.13,"N_COORD97":2540924.6299999999,"ADDRESS":"崇德二十街７９號","OBJECTID":474519},"geometry":{"x":171029.12999999989,"y":2540924.6300000008}},{"attributes":{"ID":474545,"DIS_CODE":0,"TOWNNAME":"新營區","LI":"永生里","LIN":"18鄰","STREET":"康樂街","SECT":" ","MAREA":" ","LANE":" ","ALLEY":" ","HOUSE_NO":"４５號二樓之４","E_COORD97":179884.56,"N_COORD97":2577852.3799999999,"ADDRESS":"康樂街４５號二樓之４","OBJECTID":474520},"geometry":{"x":179884.56000000052,"y":2577852.379999999}},{"attributes":{"ID":474546,"DIS_CODE":0,"TOWNNAME":"歸仁區","LI":"許厝里","LIN":"18鄰","STREET":"仁愛北街","SECT":" ","MAREA":" ","LANE":" ","ALLEY":" ","HOUSE_NO":"６４號六樓","E_COORD97":178300.42999999999,"N_COORD97":2540875.25,"ADDRESS":"仁愛北街６４號六樓","OBJECTID":474521},"geometry":{"x":178300.43000000063,"y":2540875.25}},{"attributes":{"ID":474547,"DIS_CODE":0,"TOWNNAME":"歸仁區","LI":"辜厝里","LIN":"18鄰","STREET":"大順一街","SECT":" ","MAREA":" ","LANE":" ","ALLEY":" ","HOUSE_NO":"１號五樓之２","E_COORD97":177458.13,"N_COORD97":2540505.9500000002,"ADDRESS":"大順一街１號五樓之２","OBJECTID":474522},"geometry":{"x":177458.13000000082,"y":2540505.9500000011}},{"attributes":{"ID":474548,"DIS_CODE":0,"TOWNNAME":"歸仁區","LI":"辜厝里","LIN":"18鄰","STREET":"大順一街","SECT":" ","MAREA":" ","LANE":" ","ALLEY":" ","HOUSE_NO":"１號三樓","E_COORD97":177457.67999999999,"N_COORD97":2540505.9500000002,"ADDRESS":"大順一街１號三樓","OBJECTID":474523},"geometry":{"x":177457.68000000063,"y":2540505.9500000011}},{"attributes":{"ID":474549,"DIS_CODE":0,"TOWNNAME":"歸仁區","LI":"辜厝里","LIN":"18鄰","STREET":"大順一街","SECT":" ","MAREA":" ","LANE":" ","ALLEY":" ","HOUSE_NO":"１號八樓","E_COORD97":177457.67999999999,"N_COORD97":2540505.9500000002,"ADDRESS":"大順一街１號八樓","OBJECTID":474524},"geometry":{"x":177457.68000000063,"y":2540505.9500000011}},{"attributes":{"ID":474550,"DIS_CODE":0,"TOWNNAME":"歸仁區","LI":"辜厝里","LIN":"18鄰","STREET":"大順一街","SECT":" ","MAREA":" ","LANE":" ","ALLEY":" ","HOUSE_NO":"１號十四樓之２","E_COORD97":177458.38,"N_COORD97":2540505.9500000002,"ADDRESS":"大順一街１號十四樓之２","OBJECTID":474525},"geometry":{"x":177458.38000000082,"y":2540505.9500000011}},{"attributes":{"ID":474551,"DIS_CODE":0,"TOWNNAME":"歸仁區","LI":"許厝里","LIN":"18鄰","STREET":"仁愛北街","SECT":" ","MAREA":" ","LANE":" ","ALLEY":" ","HOUSE_NO":"６２號四樓","E_COORD97":178300.42999999999,"N_COORD97":2540875.25,"ADDRESS":"仁愛北街６２號四樓","OBJECTID":474526},"geometry":{"x":178300.43000000063,"y":2540875.25}},{"attributes":{"ID":474552,"DIS_CODE":0,"TOWNNAME":"麻豆區","LI":"\u25A0江里","LIN":"18鄰","STREET":"民權路","SECT":" ","MAREA":" ","LANE":" ","ALLEY":" ","HOUSE_NO":"１９號二樓","E_COORD97":173383.45000000001,"N_COORD97":2564760.2200000002,"ADDRESS":"民權路１９號二樓","OBJECTID":474527},"geometry":{"x":173383.45000000019,"y":2564760.2200000025}},{"attributes":{"ID":474553,"DIS_CODE":0,"TOWNNAME":"麻豆區","LI":"\u25A0江里","LIN":"18鄰","STREET":"民權路","SECT":" ","MAREA":" ","LANE":" ","ALLEY":" ","HOUSE_NO":"１９號三樓","E_COORD97":173383.45000000001,"N_COORD97":2564760.2200000002,"ADDRESS":"民權路１９號三樓","OBJECTID":474528},"geometry":{"x":173383.45000000019,"y":2564760.2200000025}},{"attributes":{"ID":474554,"DIS_CODE":0,"TOWNNAME":"麻豆區","LI":"\u25A0江里","LIN":"18鄰","STREET":"民權路","SECT":" ","MAREA":" ","LANE":" ","ALLEY":" ","HOUSE_NO":"１９號五樓","E_COORD97":173383.45000000001,"N_COORD97":2564760.2200000002,"ADDRESS":"民權路１９號五樓","OBJECTID":474529},"geometry":{"x":173383.45000000019,"y":2564760.2200000025}},{"attributes":{"ID":474555,"DIS_CODE":0,"TOWNNAME":"麻豆區","LI":"\u25A0江里","LIN":"18鄰","STREET":"民權路","SECT":" ","MAREA":" ","LANE":" ","ALLEY":" ","HOUSE_NO":"１９號四樓","E_COORD97":173383.45000000001,"N_COORD97":2564760.2200000002,"ADDRESS":"民權路１９號四樓","OBJECTID":474530},"geometry":{"x":173383.45000000019,"y":2564760.2200000025}},{"attributes":{"ID":474556,"DIS_CODE":0,"TOWNNAME":"北區","LI":"中樓里","LIN":"18鄰","STREET":"東豐路","SECT":" ","MAREA":" ","LANE":" ","ALLEY":" ","HOUSE_NO":"１５５號三樓","E_COORD97":169882.45000000001,"N_COORD97":2544900.3700000001,"ADDRESS":"東豐路１５５號三樓","OBJECTID":474531},"geometry":{"x":169882.45000000112,"y":2544900.370000001}},{"attributes":{"ID":474557,"DIS_CODE":0,"TOWNNAME":"北區","LI":"中樓里","LIN":"18鄰","STREET":"東豐路","SECT":" ","MAREA":" ","LANE":" ","ALLEY":" ","HOUSE_NO":"１５５號四樓","E_COORD97":169882.45000000001,"N_COORD97":2544900.3700000001,"ADDRESS":"東豐路１５５號四樓","OBJECTID":474532},"geometry":{"x":169882.45000000112,"y":2544900.370000001}},{"attributes":{"ID":474558,"DIS_CODE":0,"TOWNNAME":"安平區","LI":"平通里","LIN":"18鄰","STREET":"建平八街","SECT":" ","MAREA":" ","LANE":" ","ALLEY":" ","HOUSE_NO":"５５１號七樓之１","E_COORD97":164767.76999999999,"N_COORD97":2543634.0699999998,"ADDRESS":"建平八街５５１號七樓之１","OBJECTID":474533},"geometry":{"x":164767.76999999955,"y":2543634.070000004}},{"attributes":{"ID":474559,"DIS_CODE":0,"TOWNNAME":"安平區","LI":"平通里","LIN":"18鄰","STREET":"建平八街","SECT":" ","MAREA":" ","LANE":" ","ALLEY":" ","HOUSE_NO":"５５１號七樓之２","E_COORD97":164767.76999999999,"N_COORD97":2543634.0699999998,"ADDRESS":"建平八街５５１號七樓之２","OBJECTID":474534},"geometry":{"x":164767.76999999955,"y":2543634.070000004}},{"attributes":{"ID":474560,"DIS_CODE":0,"TOWNNAME":"安平區","LI":"平通里","LIN":"18鄰","STREET":"建平八街","SECT":" ","MAREA":" ","LANE":" ","ALLEY":" ","HOUSE_NO":"５５１號七樓之３","E_COORD97":164767.76999999999,"N_COORD97":2543634.0699999998,"ADDRESS":"建平八街５５１號七樓之３","OBJECTID":474535},"geometry":{"x":164767.76999999955,"y":2543634.070000004}},{"attributes":{"ID":474561,"DIS_CODE":0,"TOWNNAME":"安平區","LI":"平通里","LIN":"18鄰","STREET":"建平八街","SECT":" ","MAREA":" ","LANE":" ","ALLEY":" ","HOUSE_NO":"５５１號七樓之４","E_COORD97":164767.76999999999,"N_COORD97":2543634.0699999998,"ADDRESS":"建平八街５５１號七樓之４","OBJECTID":474536},"geometry":{"x":164767.76999999955,"y":2543634.070000004}},{"attributes":{"ID":474562,"DIS_CODE":0,"TOWNNAME":"安平區","LI":"平通里","LIN":"18鄰","STREET":"建平八街","SECT":" ","MAREA":" ","LANE":" ","ALLEY":" ","HOUSE_NO":"５５１號七樓之５","E_COORD97":164767.76999999999,"N_COORD97":2543634.0699999998,"ADDRESS":"建平八街５５１號七樓之５","OBJECTID":474537},"geometry":{"x":164767.76999999955,"y":2543634.070000004}},{"attributes":{"ID":474563,"DIS_CODE":0,"TOWNNAME":"安平區","LI":"平通里","LIN":"18鄰","STREET":"建平八街","SECT":" ","MAREA":" ","LANE":" ","ALLEY":" ","HOUSE_NO":"５５１號七樓之６","E_COORD97":164767.76999999999,"N_COORD97":2543634.0699999998,"ADDRESS":"建平八街５５１號七樓之６","OBJECTID":474538},"geometry":{"x":164767.76999999955,"y":2543634.070000004}},{"attributes":{"ID":474564,"DIS_CODE":0,"TOWNNAME":"安平區","LI":"平通里","LIN":"18鄰","STREET":"建平八街","SECT":" ","MAREA":" ","LANE":" ","ALLEY":" ","HOUSE_NO":"５５１號七樓之７","E_COORD97":164767.76999999999,"N_COORD97":2543634.0699999998,"ADDRESS":"建平八街５５１號七樓之７","OBJECTID":474539},"geometry":{"x":164767.76999999955,"y":2543634.070000004}},{"attributes":{"ID":474565,"DIS_CODE":0,"TOWNNAME":"安平區","LI":"平通里","LIN":"18鄰","STREET":"建平八街","SECT":" ","MAREA":" ","LANE":" ","ALLEY":" ","HOUSE_NO":"５５１號七樓之８","E_COORD97":164767.76999999999,"N_COORD97":2543634.0699999998,"ADDRESS":"建平八街５５１號七樓之８","OBJECTID":474540},"geometry":{"x":164767.76999999955,"y":2543634.070000004}},{"attributes":{"ID":474566,"DIS_CODE":0,"TOWNNAME":"安平區","LI":"平通里","LIN":"18鄰","STREET":"建平八街","SECT":" ","MAREA":" ","LANE":" ","ALLEY":" ","HOUSE_NO":"５５１號九樓之１","E_COORD97":164767.76999999999,"N_COORD97":2543634.0699999998,"ADDRESS":"建平八街５５１號九樓之１","OBJECTID":474541},"geometry":{"x":164767.76999999955,"y":2543634.070000004}},{"attributes":{"ID":474567,"DIS_CODE":0,"TOWNNAME":"安平區","LI":"平通里","LIN":"18鄰","STREET":"建平八街","SECT":" ","MAREA":" ","LANE":" ","ALLEY":" ","HOUSE_NO":"５５１號九樓之２","E_COORD97":164767.76999999999,"N_COORD97":2543634.0699999998,"ADDRESS":"建平八街５５１號九樓之２","OBJECTID":474542},"geometry":{"x":164767.76999999955,"y":2543634.070000004}},{"attributes":{"ID":474568,"DIS_CODE":0,"TOWNNAME":"安平區","LI":"平通里","LIN":"18鄰","STREET":"建平八街","SECT":" ","MAREA":" ","LANE":" ","ALLEY":" ","HOUSE_NO":"５５１號九樓之３","E_COORD97":164767.76999999999,"N_COORD97":2543634.0699999998,"ADDRESS":"建平八街５５１號九樓之３","OBJECTID":474543},"geometry":{"x":164767.76999999955,"y":2543634.070000004}},{"attributes":{"ID":474569,"DIS_CODE":0,"TOWNNAME":"安平區","LI":"平通里","LIN":"18鄰","STREET":"建平八街","SECT":" ","MAREA":" ","LANE":" ","ALLEY":" ","HOUSE_NO":"５５１號九樓之４","E_COORD97":164767.76999999999,"N_COORD97":2543634.0699999998,"ADDRESS":"建平八街５５１號九樓之４","OBJECTID":474544},"geometry":{"x":164767.76999999955,"y":2543634.070000004}},{"attributes":{"ID":474570,"DIS_CODE":0,"TOWNNAME":"安平區","LI":"平通里","LIN":"18鄰","STREET":"建平八街","SECT":" ","MAREA":" ","LANE":" ","ALLEY":" ","HOUSE_NO":"５５１號九樓之５","E_COORD97":164767.76999999999,"N_COORD97":2543634.0699999998,"ADDRESS":"建平八街５５１號九樓之５","OBJECTID":474545},"geometry":{"x":164767.76999999955,"y":2543634.070000004}},{"attributes":{"ID":474571,"DIS_CODE":0,"TOWNNAME":"安平區","LI":"國平里","LIN":"18鄰","STREET":"育平五街","SECT":" ","MAREA":" ","LANE":" ","ALLEY":" ","HOUSE_NO":"６號三樓之７","E_COORD97":164895.03,"N_COORD97":2543486.02,"ADDRESS":"育平五街６號三樓之７","OBJECTID":474546},"geometry":{"x":164895.03000000119,"y":2543486.0200000014}},{"attributes":{"ID":474572,"DIS_CODE":0,"TOWNNAME":"安平區","LI":"平通里","LIN":"18鄰","STREET":"建平八街","SECT":" ","MAREA":" ","LANE":" ","ALLEY":" ","HOUSE_NO":"５５１號九樓之６","E_COORD97":164767.76999999999,"N_COORD97":2543634.0699999998,"ADDRESS":"建平八街５５１號九樓之６","OBJECTID":474547},"geometry":{"x":164767.76999999955,"y":2543634.070000004}},{"attributes":{"ID":474573,"DIS_CODE":0,"TOWNNAME":"安平區","LI":"平通里","LIN":"18鄰","STREET":"建平八街","SECT":" ","MAREA":" ","LANE":" ","ALLEY":" ","HOUSE_NO":"５５１號九樓之７","E_COORD97":164767.76999999999,"N_COORD97":2543634.0699999998,"ADDRESS":"建平八街５５１號九樓之７","OBJECTID":474548},"geometry":{"x":164767.76999999955,"y":2543634.070000004}},{"attributes":{"ID":474574,"DIS_CODE":0,"TOWNNAME":"安平區","LI":"平通里","LIN":"18鄰","STREET":"建平八街","SECT":" ","MAREA":" ","LANE":" ","ALLEY":" ","HOUSE_NO":"５５１號九樓之８","E_COORD97":164767.76999999999,"N_COORD97":2543634.0699999998,"ADDRESS":"建平八街５５１號九樓之８","OBJECTID":474549},"geometry":{"x":164767.76999999955,"y":2543634.070000004}},{"attributes":{"ID":474575,"DIS_CODE":0,"TOWNNAME":"安平區","LI":"平通里","LIN":"18鄰","STREET":"建平八街","SECT":" ","MAREA":" ","LANE":" ","ALLEY":" ","HOUSE_NO":"５５１號二十一樓之１","E_COORD97":164767.76999999999,"N_COORD97":2543634.0699999998,"ADDRESS":"建平八街５５１號二十一樓之１","OBJECTID":474550},"geometry":{"x":164767.76999999955,"y":2543634.070000004}},{"attributes":{"ID":474576,"DIS_CODE":0,"TOWNNAME":"安平區","LI":"平通里","LIN":"18鄰","STREET":"建平八街","SECT":" ","MAREA":" ","LANE":" ","ALLEY":" ","HOUSE_NO":"５５１號二十一樓之２","E_COORD97":164767.76999999999,"N_COORD97":2543634.0699999998,"ADDRESS":"建平八街５５１號二十一樓之２","OBJECTID":474551},"geometry":{"x":164767.76999999955,"y":2543634.070000004}},{"attributes":{"ID":474577,"DIS_CODE":0,"TOWNNAME":"安平區","LI":"平通里","LIN":"18鄰","STREET":"建平八街","SECT":" ","MAREA":" ","LANE":" ","ALLEY":" ","HOUSE_NO":"５５１號二十一樓之３","E_COORD97":164767.76999999999,"N_COORD97":2543634.0699999998,"ADDRESS":"建平八街５５１號二十一樓之３","OBJECTID":474552},"geometry":{"x":164767.76999999955,"y":2543634.070000004}},{"attributes":{"ID":474578,"DIS_CODE":0,"TOWNNAME":"安平區","LI":"平通里","LIN":"18鄰","STREET":"建平八街","SECT":" ","MAREA":" ","LANE":" ","ALLEY":" ","HOUSE_NO":"５５１號二十一樓之４","E_COORD97":164767.76999999999,"N_COORD97":2543634.0699999998,"ADDRESS":"建平八街５５１號二十一樓之４","OBJECTID":474553},"geometry":{"x":164767.76999999955,"y":2543634.070000004}},{"attributes":{"ID":474579,"DIS_CODE":0,"TOWNNAME":"安平區","LI":"平通里","LIN":"18鄰","STREET":"建平八街","SECT":" ","MAREA":" ","LANE":" ","ALLEY":" ","HOUSE_NO":"５５１號二十一樓之５","E_COORD97":164767.76999999999,"N_COORD97":2543634.0699999998,"ADDRESS":"建平八街５５１號二十一樓之５","OBJECTID":474554},"geometry":{"x":164767.76999999955,"y":2543634.070000004}},{"attributes":{"ID":474580,"DIS_CODE":0,"TOWNNAME":"安平區","LI":"平通里","LIN":"18鄰","STREET":"建平八街","SECT":" ","MAREA":" ","LANE":" ","ALLEY":" ","HOUSE_NO":"５５１號二十一樓之６","E_COORD97":164767.76999999999,"N_COORD97":2543634.0699999998,"ADDRESS":"建平八街５５１號二十一樓之６","OBJECTID":474555},"geometry":{"x":164767.76999999955,"y":2543634.070000004}},{"attributes":{"ID":474581,"DIS_CODE":0,"TOWNNAME":"安平區","LI":"平通里","LIN":"18鄰","STREET":"建平八街","SECT":" ","MAREA":" ","LANE":" ","ALLEY":" ","HOUSE_NO":"５５１號二十一樓之７","E_COORD97":164767.76999999999,"N_COORD97":2543634.0699999998,"ADDRESS":"建平八街５５１號二十一樓之７","OBJECTID":474556},"geometry":{"x":164767.76999999955,"y":2543634.070000004}},{"attributes":{"ID":474582,"DIS_CODE":0,"TOWNNAME":"安平區","LI":"平通里","LIN":"18鄰","STREET":"建平八街","SECT":" ","MAREA":" ","LANE":" ","ALLEY":" ","HOUSE_NO":"５５１號二十一樓之８","E_COORD97":164767.76999999999,"N_COORD97":2543634.0699999998,"ADDRESS":"建平八街５５１號二十一樓之８","OBJECTID":474557},"geometry":{"x":164767.76999999955,"y":2543634.070000004}},{"attributes":{"ID":474583,"DIS_CODE":0,"TOWNNAME":"安平區","LI":"平通里","LIN":"18鄰","STREET":"建平八街","SECT":" ","MAREA":" ","LANE":" ","ALLEY":" ","HOUSE_NO":"５５１號二十二樓之１","E_COORD97":164767.76999999999,"N_COORD97":2543634.0699999998,"ADDRESS":"建平八街５５１號二十二樓之１","OBJECTID":474558},"geometry":{"x":164767.76999999955,"y":2543634.070000004}},{"attributes":{"ID":474584,"DIS_CODE":0,"TOWNNAME":"安平區","LI":"平通里","LIN":"18鄰","STREET":"建平八街","SECT":" ","MAREA":" ","LANE":" ","ALLEY":" ","HOUSE_NO":"５５１號二十二樓之２","E_COORD97":164767.76999999999,"N_COORD97":2543634.0699999998,"ADDRESS":"建平八街５５１號二十二樓之２","OBJECTID":474559},"geometry":{"x":164767.76999999955,"y":2543634.070000004}},{"attributes":{"ID":474585,"DIS_CODE":0,"TOWNNAME":"東區","LI":"崇文里","LIN":"18鄰","STREET":"崇德二十街","SECT":" ","MAREA":" ","LANE":" ","ALLEY":" ","HOUSE_NO":"８１號","E_COORD97":171034.60000000001,"N_COORD97":2540924.73,"ADDRESS":"崇德二十街８１號","OBJECTID":474560},"geometry":{"x":171034.5999999987,"y":2540924.7300000023}},{"attributes":{"ID":474586,"DIS_CODE":0,"TOWNNAME":"安平區","LI":"平通里","LIN":"18鄰","STREET":"建平八街","SECT":" ","MAREA":" ","LANE":" ","ALLEY":" ","HOUSE_NO":"５５１號二十二樓之３","E_COORD97":164767.76999999999,"N_COORD97":2543634.0699999998,"ADDRESS":"建平八街５５１號二十二樓之３","OBJECTID":474561},"geometry":{"x":164767.76999999955,"y":2543634.070000004}},{"attributes":{"ID":474587,"DIS_CODE":0,"TOWNNAME":"安平區","LI":"平通里","LIN":"18鄰","STREET":"建平八街","SECT":" ","MAREA":" ","LANE":" ","ALLEY":" ","HOUSE_NO":"５５１號二十二樓之４","E_COORD97":164767.76999999999,"N_COORD97":2543634.0699999998,"ADDRESS":"建平八街５５１號二十二樓之４","OBJECTID":474562},"geometry":{"x":164767.76999999955,"y":2543634.070000004}},{"attributes":{"ID":474588,"DIS_CODE":0,"TOWNNAME":"安平區","LI":"平通里","LIN":"18鄰","STREET":"建平八街","SECT":" ","MAREA":" ","LANE":" ","ALLEY":" ","HOUSE_NO":"５５１號二十二樓之５","E_COORD97":164767.76999999999,"N_COORD97":2543634.0699999998,"ADDRESS":"建平八街５５１號二十二樓之５","OBJECTID":474563},"geometry":{"x":164767.76999999955,"y":2543634.070000004}},{"attributes":{"ID":474589,"DIS_CODE":0,"TOWNNAME":"安平區","LI":"平通里","LIN":"18鄰","STREET":"建平八街","SECT":" ","MAREA":" ","LANE":" ","ALLEY":" ","HOUSE_NO":"５５１號二十二樓之６","E_COORD97":164767.76999999999,"N_COORD97":2543634.0699999998,"ADDRESS":"建平八街５５１號二十二樓之６","OBJECTID":474564},"geometry":{"x":164767.76999999955,"y":2543634.070000004}},{"attributes":{"ID":474590,"DIS_CODE":0,"TOWNNAME":"安平區","LI":"平通里","LIN":"18鄰","STREET":"建平八街","SECT":" ","MAREA":" ","LANE":" ","ALLEY":" ","HOUSE_NO":"５５１號二十二樓之７","E_COORD97":164767.76999999999,"N_COORD97":2543634.0699999998,"ADDRESS":"建平八街５５１號二十二樓之７","OBJECTID":474565},"geometry":{"x":164767.76999999955,"y":2543634.070000004}},{"attributes":{"ID":474591,"DIS_CODE":0,"TOWNNAME":"安平區","LI":"平通里","LIN":"18鄰","STREET":"建平八街","SECT":" ","MAREA":" ","LANE":" ","ALLEY":" ","HOUSE_NO":"５５１號二十二樓之８","E_COORD97":164767.76999999999,"N_COORD97":2543634.0699999998,"ADDRESS":"建平八街５５１號二十二樓之８","OBJECTID":474566},"geometry":{"x":164767.76999999955,"y":2543634.070000004}},{"attributes":{"ID":474592,"DIS_CODE":0,"TOWNNAME":"安平區","LI":"平通里","LIN":"18鄰","STREET":"建平八街","SECT":" ","MAREA":" ","LANE":" ","ALLEY":" ","HOUSE_NO":"５５１號二十三樓之１","E_COORD97":164767.76999999999,"N_COORD97":2543634.0699999998,"ADDRESS":"建平八街５５１號二十三樓之１","OBJECTID":474567},"geometry":{"x":164767.76999999955,"y":2543634.070000004}},{"attributes":{"ID":474593,"DIS_CODE":0,"TOWNNAME":"安平區","LI":"平通里","LIN":"18鄰","STREET":"建平八街","SECT":" ","MAREA":" ","LANE":" ","ALLEY":" ","HOUSE_NO":"５５１號二十三樓之２","E_COORD97":164767.76999999999,"N_COORD97":2543634.0699999998,"ADDRESS":"建平八街５５１號二十三樓之２","OBJECTID":474568},"geometry":{"x":164767.76999999955,"y":2543634.070000004}},{"attributes":{"ID":474594,"DIS_CODE":0,"TOWNNAME":"安平區","LI":"平通里","LIN":"18鄰","STREET":"建平八街","SECT":" ","MAREA":" ","LANE":" ","ALLEY":" ","HOUSE_NO":"５５１號二十三樓之３","E_COORD97":164767.76999999999,"N_COORD97":2543634.0699999998,"ADDRESS":"建平八街５５１號二十三樓之３","OBJECTID":474569},"geometry":{"x":164767.76999999955,"y":2543634.070000004}},{"attributes":{"ID":474595,"DIS_CODE":0,"TOWNNAME":"安平區","LI":"平通里","LIN":"18鄰","STREET":"建平八街","SECT":" ","MAREA":" ","LANE":" ","ALLEY":" ","HOUSE_NO":"５５１號二十三樓之４","E_COORD97":164767.76999999999,"N_COORD97":2543634.0699999998,"ADDRESS":"建平八街５５１號二十三樓之４","OBJECTID":474570},"geometry":{"x":164767.76999999955,"y":2543634.070000004}},{"attributes":{"ID":474596,"DIS_CODE":0,"TOWNNAME":"安平區","LI":"平通里","LIN":"18鄰","STREET":"建平八街","SECT":" ","MAREA":" ","LANE":" ","ALLEY":" ","HOUSE_NO":"５５１號二十三樓之５","E_COORD97":164767.76999999999,"N_COORD97":2543634.0699999998,"ADDRESS":"建平八街５５１號二十三樓之５","OBJECTID":474571},"geometry":{"x":164767.76999999955,"y":2543634.070000004}},{"attributes":{"ID":474597,"DIS_CODE":0,"TOWNNAME":"安平區","LI":"平通里","LIN":"18鄰","STREET":"建平八街","SECT":" ","MAREA":" ","LANE":" ","ALLEY":" ","HOUSE_NO":"５５１號二十三樓之６","E_COORD97":164767.76999999999,"N_COORD97":2543634.0699999998,"ADDRESS":"建平八街５５１號二十三樓之６","OBJECTID":474572},"geometry":{"x":164767.76999999955,"y":2543634.070000004}},{"attributes":{"ID":474598,"DIS_CODE":0,"TOWNNAME":"安平區","LI":"平通里","LIN":"18鄰","STREET":"建平八街","SECT":" ","MAREA":" ","LANE":" ","ALLEY":" ","HOUSE_NO":"５５１號二十三樓之７","E_COORD97":164767.76999999999,"N_COORD97":2543634.0699999998,"ADDRESS":"建平八街５５１號二十三樓之７","OBJECTID":474573},"geometry":{"x":164767.76999999955,"y":2543634.070000004}},{"attributes":{"ID":474599,"DIS_CODE":0,"TOWNNAME":"安平區","LI":"平通里","LIN":"18鄰","STREET":"建平八街","SECT":" ","MAREA":" ","LANE":" ","ALLEY":" ","HOUSE_NO":"５５１號二十三樓之８","E_COORD97":164767.76999999999,"N_COORD97":2543634.0699999998,"ADDRESS":"建平八街５５１號二十三樓之８","OBJECTID":474574},"geometry":{"x":164767.76999999955,"y":2543634.070000004}},{"attributes":{"ID":474600,"DIS_CODE":0,"TOWNNAME":"安平區","LI":"平通里","LIN":"18鄰","STREET":"建平八街","SECT":" ","MAREA":" ","LANE":" ","ALLEY":" ","HOUSE_NO":"５５１號二十五樓之１","E_COORD97":164767.76999999999,"N_COORD97":2543634.0699999998,"ADDRESS":"建平八街５５１號二十五樓之１","OBJECTID":474575},"geometry":{"x":164767.76999999955,"y":2543634.070000004}},{"attributes":{"ID":474601,"DIS_CODE":0,"TOWNNAME":"安平區","LI":"平通里","LIN":"18鄰","STREET":"建平八街","SECT":" ","MAREA":" ","LANE":" ","ALLEY":" ","HOUSE_NO":"５５１號二十五樓之２","E_COORD97":164767.76999999999,"N_COORD97":2543634.0699999998,"ADDRESS":"建平八街５５１號二十五樓之２","OBJECTID":474576},"geometry":{"x":164767.76999999955,"y":2543634.070000004}},{"attributes":{"ID":474602,"DIS_CODE":0,"TOWNNAME":"安平區","LI":"平通里","LIN":"18鄰","STREET":"建平八街","SECT":" ","MAREA":" ","LANE":" ","ALLEY":" ","HOUSE_NO":"５５１號二十五樓之３","E_COORD97":164767.76999999999,"N_COORD97":2543634.0699999998,"ADDRESS":"建平八街５５１號二十五樓之３","OBJECTID":474577},"geometry":{"x":164767.76999999955,"y":2543634.070000004}},{"attributes":{"ID":474603,"DIS_CODE":0,"TOWNNAME":"安平區","LI":"平通里","LIN":"18鄰","STREET":"建平八街","SECT":" ","MAREA":" ","LANE":" ","ALLEY":" ","HOUSE_NO":"５５１號二十五樓之４","E_COORD97":164767.76999999999,"N_COORD97":2543634.0699999998,"ADDRESS":"建平八街５５１號二十五樓之４","OBJECTID":474578},"geometry":{"x":164767.76999999955,"y":2543634.070000004}},{"attributes":{"ID":474604,"DIS_CODE":0,"TOWNNAME":"安平區","LI":"平通里","LIN":"18鄰","STREET":"建平八街","SECT":" ","MAREA":" ","LANE":" ","ALLEY":" ","HOUSE_NO":"５５１號二十五樓之５","E_COORD97":164767.76999999999,"N_COORD97":2543634.0699999998,"ADDRESS":"建平八街５５１號二十五樓之５","OBJECTID":474579},"geometry":{"x":164767.76999999955,"y":2543634.070000004}},{"attributes":{"ID":474605,"DIS_CODE":0,"TOWNNAME":"安平區","LI":"平通里","LIN":"18鄰","STREET":"建平八街","SECT":" ","MAREA":" ","LANE":" ","ALLEY":" ","HOUSE_NO":"５５１號二十五樓之６","E_COORD97":164767.76999999999,"N_COORD97":2543634.0699999998,"ADDRESS":"建平八街５５１號二十五樓之６","OBJECTID":474580},"geometry":{"x":164767.76999999955,"y":2543634.070000004}},{"attributes":{"ID":474606,"DIS_CODE":0,"TOWNNAME":"安平區","LI":"平通里","LIN":"18鄰","STREET":"建平八街","SECT":" ","MAREA":" ","LANE":" ","ALLEY":" ","HOUSE_NO":"５５１號二十五樓之７","E_COORD97":164767.76999999999,"N_COORD97":2543634.0699999998,"ADDRESS":"建平八街５５１號二十五樓之７","OBJECTID":474581},"geometry":{"x":164767.76999999955,"y":2543634.070000004}},{"attributes":{"ID":474607,"DIS_CODE":0,"TOWNNAME":"安平區","LI":"平通里","LIN":"18鄰","STREET":"建平八街","SECT":" ","MAREA":" ","LANE":" ","ALLEY":" ","HOUSE_NO":"５５１號二十五樓之８","E_COORD97":164767.76999999999,"N_COORD97":2543634.0699999998,"ADDRESS":"建平八街５５１號二十五樓之８","OBJECTID":474582},"geometry":{"x":164767.76999999955,"y":2543634.070000004}},{"attributes":{"ID":474608,"DIS_CODE":0,"TOWNNAME":"安平區","LI":"平通里","LIN":"18鄰","STREET":"建平八街","SECT":" ","MAREA":" ","LANE":" ","ALLEY":" ","HOUSE_NO":"５５１號二十四樓之１","E_COORD97":164767.76999999999,"N_COORD97":2543634.0699999998,"ADDRESS":"建平八街５５１號二十四樓之１","OBJECTID":474583},"geometry":{"x":164767.76999999955,"y":2543634.070000004}},{"attributes":{"ID":474609,"DIS_CODE":0,"TOWNNAME":"安平區","LI":"平通里","LIN":"18鄰","STREET":"建平八街","SECT":" ","MAREA":" ","LANE":" ","ALLEY":" ","HOUSE_NO":"５５１號二十四樓之２","E_COORD97":164767.76999999999,"N_COORD97":2543634.0699999998,"ADDRESS":"建平八街５５１號二十四樓之２","OBJECTID":474584},"geometry":{"x":164767.76999999955,"y":2543634.070000004}},{"attributes":{"ID":474610,"DIS_CODE":0,"TOWNNAME":"安平區","LI":"平通里","LIN":"18鄰","STREET":"建平八街","SECT":" ","MAREA":" ","LANE":" ","ALLEY":" ","HOUSE_NO":"５５１號二十四樓之３","E_COORD97":164767.76999999999,"N_COORD97":2543634.0699999998,"ADDRESS":"建平八街５５１號二十四樓之３","OBJECTID":474585},"geometry":{"x":164767.76999999955,"y":2543634.070000004}},{"attributes":{"ID":474611,"DIS_CODE":0,"TOWNNAME":"安平區","LI":"平通里","LIN":"18鄰","STREET":"建平八街","SECT":" ","MAREA":" ","LANE":" ","ALLEY":" ","HOUSE_NO":"５５１號二十四樓之４","E_COORD97":164767.76999999999,"N_COORD97":2543634.0699999998,"ADDRESS":"建平八街５５１號二十四樓之４","OBJECTID":474586},"geometry":{"x":164767.76999999955,"y":2543634.070000004}},{"attributes":{"ID":474612,"DIS_CODE":0,"TOWNNAME":"安平區","LI":"平通里","LIN":"18鄰","STREET":"建平八街","SECT":" ","MAREA":" ","LANE":" ","ALLEY":" ","HOUSE_NO":"５５１號二十四樓之５","E_COORD97":164767.76999999999,"N_COORD97":2543634.0699999998,"ADDRESS":"建平八街５５１號二十四樓之５","OBJECTID":474587},"geometry":{"x":164767.76999999955,"y":2543634.070000004}},{"attributes":{"ID":474613,"DIS_CODE":0,"TOWNNAME":"安平區","LI":"平通里","LIN":"18鄰","STREET":"建平八街","SECT":" ","MAREA":" ","LANE":" ","ALLEY":" ","HOUSE_NO":"５５１號二十四樓之６","E_COORD97":164767.76999999999,"N_COORD97":2543634.0699999998,"ADDRESS":"建平八街５５１號二十四樓之６","OBJECTID":474588},"geometry":{"x":164767.76999999955,"y":2543634.070000004}},{"attributes":{"ID":474614,"DIS_CODE":0,"TOWNNAME":"安平區","LI":"平通里","LIN":"18鄰","STREET":"建平八街","SECT":" ","MAREA":" ","LANE":" ","ALLEY":" ","HOUSE_NO":"５５１號二十四樓之７","E_COORD97":164767.76999999999,"N_COORD97":2543634.0699999998,"ADDRESS":"建平八街５５１號二十四樓之７","OBJECTID":474589},"geometry":{"x":164767.76999999955,"y":2543634.070000004}},{"attributes":{"ID":474615,"DIS_CODE":0,"TOWNNAME":"安平區","LI":"平通里","LIN":"18鄰","STREET":"建平八街","SECT":" ","MAREA":" ","LANE":" ","ALLEY":" ","HOUSE_NO":"５５１號二十四樓之８","E_COORD97":164767.76999999999,"N_COORD97":2543634.0699999998,"ADDRESS":"建平八街５５１號二十四樓之８","OBJECTID":474590},"geometry":{"x":164767.76999999955,"y":2543634.070000004}},{"attributes":{"ID":474616,"DIS_CODE":0,"TOWNNAME":"安平區","LI":"平通里","LIN":"18鄰","STREET":"建平八街","SECT":" ","MAREA":" ","LANE":" ","ALLEY":" ","HOUSE_NO":"５５１號二十樓之１","E_COORD97":164767.76999999999,"N_COORD97":2543634.0699999998,"ADDRESS":"建平八街５５１號二十樓之１","OBJECTID":474591},"geometry":{"x":164767.76999999955,"y":2543634.070000004}},{"attributes":{"ID":474617,"DIS_CODE":0,"TOWNNAME":"安平區","LI":"平通里","LIN":"18鄰","STREET":"建平八街","SECT":" ","MAREA":" ","LANE":" ","ALLEY":" ","HOUSE_NO":"５５１號二十樓之２","E_COORD97":164767.76999999999,"N_COORD97":2543634.0699999998,"ADDRESS":"建平八街５５１號二十樓之２","OBJECTID":474592},"geometry":{"x":164767.76999999955,"y":2543634.070000004}},{"attributes":{"ID":474618,"DIS_CODE":0,"TOWNNAME":"安平區","LI":"平通里","LIN":"18鄰","STREET":"建平八街","SECT":" ","MAREA":" ","LANE":" ","ALLEY":" ","HOUSE_NO":"５５１號二十樓之３","E_COORD97":164767.76999999999,"N_COORD97":2543634.0699999998,"ADDRESS":"建平八街５５１號二十樓之３","OBJECTID":474593},"geometry":{"x":164767.76999999955,"y":2543634.070000004}},{"attributes":{"ID":474619,"DIS_CODE":0,"TOWNNAME":"安平區","LI":"平通里","LIN":"18鄰","STREET":"建平八街","SECT":" ","MAREA":" ","LANE":" ","ALLEY":" ","HOUSE_NO":"５５１號二十樓之４","E_COORD97":164767.76999999999,"N_COORD97":2543634.0699999998,"ADDRESS":"建平八街５５１號二十樓之４","OBJECTID":474594},"geometry":{"x":164767.76999999955,"y":2543634.070000004}},{"attributes":{"ID":474620,"DIS_CODE":0,"TOWNNAME":"安平區","LI":"平通里","LIN":"18鄰","STREET":"建平八街","SECT":" ","MAREA":" ","LANE":" ","ALLEY":" ","HOUSE_NO":"５５１號二十樓之５","E_COORD97":164767.76999999999,"N_COORD97":2543634.0699999998,"ADDRESS":"建平八街５５１號二十樓之５","OBJECTID":474595},"geometry":{"x":164767.76999999955,"y":2543634.070000004}},{"attributes":{"ID":474621,"DIS_CODE":0,"TOWNNAME":"安平區","LI":"平通里","LIN":"18鄰","STREET":"建平八街","SECT":" ","MAREA":" ","LANE":" ","ALLEY":" ","HOUSE_NO":"５５１號二十樓之６","E_COORD97":164767.76999999999,"N_COORD97":2543634.0699999998,"ADDRESS":"建平八街５５１號二十樓之６","OBJECTID":474596},"geometry":{"x":164767.76999999955,"y":2543634.070000004}},{"attributes":{"ID":474622,"DIS_CODE":0,"TOWNNAME":"安平區","LI":"平通里","LIN":"18鄰","STREET":"建平八街","SECT":" ","MAREA":" ","LANE":" ","ALLEY":" ","HOUSE_NO":"５５１號二十樓之７","E_COORD97":164767.76999999999,"N_COORD97":2543634.0699999998,"ADDRESS":"建平八街５５１號二十樓之７","OBJECTID":474597},"geometry":{"x":164767.76999999955,"y":2543634.070000004}},{"attributes":{"ID":474623,"DIS_CODE":0,"TOWNNAME":"安平區","LI":"平通里","LIN":"18鄰","STREET":"建平八街","SECT":" ","MAREA":" ","LANE":" ","ALLEY":" ","HOUSE_NO":"５５１號二十樓之８","E_COORD97":164767.76999999999,"N_COORD97":2543634.0699999998,"ADDRESS":"建平八街５５１號二十樓之８","OBJECTID":474598},"geometry":{"x":164767.76999999955,"y":2543634.070000004}},{"attributes":{"ID":474624,"DIS_CODE":0,"TOWNNAME":"安平區","LI":"平通里","LIN":"18鄰","STREET":"建平八街","SECT":" ","MAREA":" ","LANE":" ","ALLEY":" ","HOUSE_NO":"５５１號八樓之１","E_COORD97":164767.76999999999,"N_COORD97":2543634.0699999998,"ADDRESS":"建平八街５５１號八樓之１","OBJECTID":474599},"geometry":{"x":164767.76999999955,"y":2543634.070000004}},{"attributes":{"ID":474625,"DIS_CODE":0,"TOWNNAME":"安平區","LI":"平通里","LIN":"18鄰","STREET":"建平八街","SECT":" ","MAREA":" ","LANE":" ","ALLEY":" ","HOUSE_NO":"５５１號八樓之２","E_COORD97":164767.76999999999,"N_COORD97":2543634.0699999998,"ADDRESS":"建平八街５５１號八樓之２","OBJECTID":474600},"geometry":{"x":164767.76999999955,"y":2543634.070000004}}]}