{"displayFieldName":"TOWNNAME","fieldAliases":{"ID":"ID","DIS_CODE":"DIS_CODE","TOWNNAME":"TOWNNAME","LI":"LI","LIN":"LIN","STREET":"STREET","SECT":"SECT","MAREA":"MAREA","LANE":"LANE","ALLEY":"ALLEY","HOUSE_NO":"HOUSE_NO","E_COORD97":"E_COORD97","N_COORD97":"N_COORD97","ADDRESS":"ADDRESS","OBJECTID":"OBJECTID"},"geometryType":"esriGeometryPoint","spatialReference":{"wkid":102443,"latestWkid":3826},"fields":[{"name":"ID","type":"esriFieldTypeDouble","alias":"ID"},{"name":"DIS_CODE","type":"esriFieldTypeInteger","alias":"DIS_CODE"},{"name":"TOWNNAME","type":"esriFieldTypeString","alias":"TOWNNAME","length":8},{"name":"LI","type":"esriFieldTypeString","alias":"LI","length":8},{"name":"LIN","type":"esriFieldTypeString","alias":"LIN","length":12},{"name":"STREET","type":"esriFieldTypeString","alias":"STREET","length":20},{"name":"SECT","type":"esriFieldTypeString","alias":"SECT","length":8},{"name":"MAREA","type":"esriFieldTypeString","alias":"MAREA","length":12},{"name":"LANE","type":"esriFieldTypeString","alias":"LANE","length":10},{"name":"ALLEY","type":"esriFieldTypeString","alias":"ALLEY","length":10},{"name":"HOUSE_NO","type":"esriFieldTypeString","alias":"HOUSE_NO","length":20},{"name":"E_COORD97","type":"esriFieldTypeDouble","alias":"E_COORD97"},{"name":"N_COORD97","type":"esriFieldTypeDouble","alias":"N_COORD97"},{"name":"ADDRESS","type":"esriFieldTypeString","alias":"ADDRESS","length":50},{"name":"OBJECTID","type":"esriFieldTypeOID","alias":"OBJECTID"}],"features":[{"attributes":{"ID":220602,"DIS_CODE":0,"TOWNNAME":"東區","LI":"南聖里","LIN":"9鄰","STREET":"裕和路","SECT":" ","MAREA":" ","LANE":" ","ALLEY":" ","HOUSE_NO":"８７號","E_COORD97":172129.5,"N_COORD97":2543166.3799999999,"ADDRESS":"裕和路８７號","OBJECTID":220601},"geometry":{"x":172129.50000000093,"y":2543166.3800000027}},{"attributes":{"ID":220603,"DIS_CODE":0,"TOWNNAME":"東區","LI":"南聖里","LIN":"9鄰","STREET":"裕和路","SECT":" ","MAREA":" ","LANE":" ","ALLEY":" ","HOUSE_NO":"８９號","E_COORD97":172129.85999999999,"N_COORD97":2543159.77,"ADDRESS":"裕和路８９號","OBJECTID":220602},"geometry":{"x":172129.86000000034,"y":2543159.7699999996}},{"attributes":{"ID":220604,"DIS_CODE":0,"TOWNNAME":"東區","LI":"南聖里","LIN":"9鄰","STREET":"裕和路","SECT":" ","MAREA":" ","LANE":" ","ALLEY":" ","HOUSE_NO":"９１號","E_COORD97":172130.75,"N_COORD97":2543152.27,"ADDRESS":"裕和路９１號","OBJECTID":220603},"geometry":{"x":172130.74999999907,"y":2543152.2700000014}},{"attributes":{"ID":220605,"DIS_CODE":0,"TOWNNAME":"安定區","LI":"中沙里","LIN":"4鄰","STREET":" ","SECT":" ","MAREA":"中崙","LANE":" ","ALLEY":" ","HOUSE_NO":"１４２之１號","E_COORD97":169175.91,"N_COORD97":2553217.2999999998,"ADDRESS":"中崙１４２之１號","OBJECTID":220604},"geometry":{"x":169175.91000000108,"y":2553217.3000000007}},{"attributes":{"ID":220606,"DIS_CODE":0,"TOWNNAME":"學甲區","LI":"秀昌里","LIN":"28鄰","STREET":" ","SECT":" ","MAREA":"煥昌","LANE":" ","ALLEY":" ","HOUSE_NO":"５７號","E_COORD97":166150.76999999999,"N_COORD97":2570865.2000000002,"ADDRESS":"煥昌５７號","OBJECTID":220605},"geometry":{"x":166150.76999999955,"y":2570865.2000000011}},{"attributes":{"ID":220607,"DIS_CODE":0,"TOWNNAME":"安定區","LI":"中沙里","LIN":"4鄰","STREET":" ","SECT":" ","MAREA":"中崙","LANE":" ","ALLEY":" ","HOUSE_NO":"１２５號之７","E_COORD97":169100.73000000001,"N_COORD97":2553161.2999999998,"ADDRESS":"中崙１２５號之７","OBJECTID":220606},"geometry":{"x":169100.73000000138,"y":2553161.3000000026}},{"attributes":{"ID":220608,"DIS_CODE":0,"TOWNNAME":"安定區","LI":"保西里","LIN":"4鄰","STREET":" ","SECT":" ","MAREA":"安定","LANE":" ","ALLEY":" ","HOUSE_NO":"３５４之７號","E_COORD97":171730.72,"N_COORD97":2557703.3199999998,"ADDRESS":"安定３５４之７號","OBJECTID":220607},"geometry":{"x":171730.7200000016,"y":2557703.3200000022}},{"attributes":{"ID":220609,"DIS_CODE":0,"TOWNNAME":"永康區","LI":"龍潭里","LIN":"25鄰","STREET":"龍昌街","SECT":" ","MAREA":" ","LANE":" ","ALLEY":" ","HOUSE_NO":"２２號","E_COORD97":175025.98999999999,"N_COORD97":2547794.9300000002,"ADDRESS":"龍昌街２２號","OBJECTID":220608},"geometry":{"x":175025.99000000022,"y":2547794.9300000016}},{"attributes":{"ID":220610,"DIS_CODE":0,"TOWNNAME":"永康區","LI":"埔園里","LIN":"28鄰","STREET":"中山路","SECT":" ","MAREA":" ","LANE":" ","ALLEY":" ","HOUSE_NO":"３５４號十三樓之３","E_COORD97":173656.64999999999,"N_COORD97":2548283.27,"ADDRESS":"中山路３５４號十三樓之３","OBJECTID":220609},"geometry":{"x":173656.6500000013,"y":2548283.2699999996}},{"attributes":{"ID":220611,"DIS_CODE":0,"TOWNNAME":"永康區","LI":"埔園里","LIN":"28鄰","STREET":"中山路","SECT":" ","MAREA":" ","LANE":" ","ALLEY":" ","HOUSE_NO":"３５４號七樓之６","E_COORD97":173655.39999999999,"N_COORD97":2548283.27,"ADDRESS":"中山路３５４號七樓之６","OBJECTID":220610},"geometry":{"x":173655.40000000037,"y":2548283.2699999996}},{"attributes":{"ID":220612,"DIS_CODE":0,"TOWNNAME":"東區","LI":"泉南里","LIN":"28鄰","STREET":"長榮路","SECT":"一段","MAREA":" ","LANE":" ","ALLEY":" ","HOUSE_NO":"８５號三樓","E_COORD97":169682.03,"N_COORD97":2542598.79,"ADDRESS":"長榮路一段８５號三樓","OBJECTID":220611},"geometry":{"x":169682.03000000119,"y":2542598.790000001}},{"attributes":{"ID":220613,"DIS_CODE":0,"TOWNNAME":"永康區","LI":"網寮里","LIN":"9鄰","STREET":"永二街","SECT":" ","MAREA":" ","LANE":"２４４巷","ALLEY":"６弄","HOUSE_NO":"７號","E_COORD97":173287.59,"N_COORD97":2546385.1699999999,"ADDRESS":"永二街２４４巷６弄７號","OBJECTID":220612},"geometry":{"x":173287.58999999985,"y":2546385.1699999999}},{"attributes":{"ID":220614,"DIS_CODE":0,"TOWNNAME":"東區","LI":"泉南里","LIN":"28鄰","STREET":"長榮路","SECT":"一段","MAREA":" ","LANE":" ","ALLEY":" ","HOUSE_NO":"８５號四樓","E_COORD97":169682.03,"N_COORD97":2542598.79,"ADDRESS":"長榮路一段８５號四樓","OBJECTID":220613},"geometry":{"x":169682.03000000119,"y":2542598.790000001}},{"attributes":{"ID":220615,"DIS_CODE":0,"TOWNNAME":"東區","LI":"泉南里","LIN":"28鄰","STREET":"長榮路","SECT":"一段","MAREA":" ","LANE":" ","ALLEY":" ","HOUSE_NO":"８５號五樓","E_COORD97":169682.03,"N_COORD97":2542598.79,"ADDRESS":"長榮路一段８５號五樓","OBJECTID":220614},"geometry":{"x":169682.03000000119,"y":2542598.790000001}},{"attributes":{"ID":220616,"DIS_CODE":0,"TOWNNAME":"永康區","LI":"龍潭里","LIN":"23鄰","STREET":"自強路","SECT":" ","MAREA":" ","LANE":"７５０巷","ALLEY":"６８弄","HOUSE_NO":"２號","E_COORD97":174555.42000000001,"N_COORD97":2548457.8500000001,"ADDRESS":"自強路７５０巷６８弄２號","OBJECTID":220615},"geometry":{"x":174555.42000000179,"y":2548457.8499999996}},{"attributes":{"ID":220617,"DIS_CODE":0,"TOWNNAME":"永康區","LI":"龍潭里","LIN":"23鄰","STREET":"自強路","SECT":" ","MAREA":" ","LANE":"７５０巷","ALLEY":"１８弄","HOUSE_NO":"３８之９號","E_COORD97":174428.31,"N_COORD97":2548387.04,"ADDRESS":"自強路７５０巷１８弄３８之９號","OBJECTID":220616},"geometry":{"x":174428.30999999959,"y":2548387.040000001}},{"attributes":{"ID":220618,"DIS_CODE":0,"TOWNNAME":"東區","LI":"泉南里","LIN":"28鄰","STREET":"長榮路","SECT":"一段","MAREA":" ","LANE":" ","ALLEY":" ","HOUSE_NO":"８５號六樓","E_COORD97":169682.03,"N_COORD97":2542598.79,"ADDRESS":"長榮路一段８５號六樓","OBJECTID":220617},"geometry":{"x":169682.03000000119,"y":2542598.790000001}},{"attributes":{"ID":220619,"DIS_CODE":0,"TOWNNAME":"永康區","LI":"復興里","LIN":"24鄰","STREET":"復興路","SECT":" ","MAREA":" ","LANE":"３５６巷","ALLEY":"８０弄","HOUSE_NO":"４號","E_COORD97":172382.84,"N_COORD97":2544540.2799999998,"ADDRESS":"復興路３５６巷８０弄４號","OBJECTID":220618},"geometry":{"x":172382.84000000078,"y":2544540.2800000031}},{"attributes":{"ID":220620,"DIS_CODE":0,"TOWNNAME":"永康區","LI":"網寮里","LIN":"17鄰","STREET":"永興路","SECT":" ","MAREA":" ","LANE":"４２７巷","ALLEY":"２弄","HOUSE_NO":"２３之２號","E_COORD97":173240.37,"N_COORD97":2546827.7999999998,"ADDRESS":"永興路４２７巷２弄２３之２號","OBJECTID":220619},"geometry":{"x":173240.37000000011,"y":2546827.8000000026}},{"attributes":{"ID":220621,"DIS_CODE":0,"TOWNNAME":"永康區","LI":"網寮里","LIN":"17鄰","STREET":"永興路","SECT":" ","MAREA":" ","LANE":"４２７巷","ALLEY":"１３弄","HOUSE_NO":"２號","E_COORD97":173289.57000000001,"N_COORD97":2546817.9900000002,"ADDRESS":"永興路４２７巷１３弄２號","OBJECTID":220620},"geometry":{"x":173289.5700000003,"y":2546817.9899999984}},{"attributes":{"ID":220622,"DIS_CODE":0,"TOWNNAME":"永康區","LI":"網寮里","LIN":"9鄰","STREET":"永二街","SECT":" ","MAREA":" ","LANE":"２４４巷","ALLEY":"６弄","HOUSE_NO":"９號","E_COORD97":173292,"N_COORD97":2546382.4199999999,"ADDRESS":"永二街２４４巷６弄９號","OBJECTID":220621},"geometry":{"x":173291.99999999907,"y":2546382.4200000018}},{"attributes":{"ID":220623,"DIS_CODE":0,"TOWNNAME":"永康區","LI":"正強里","LIN":"23鄰","STREET":"中正路","SECT":" ","MAREA":" ","LANE":"１２７巷","ALLEY":"４６弄","HOUSE_NO":"３號","E_COORD97":173377.89999999999,"N_COORD97":2547730.3900000001,"ADDRESS":"中正路１２７巷４６弄３號","OBJECTID":220622},"geometry":{"x":173377.90000000224,"y":2547730.3900000006}},{"attributes":{"ID":220624,"DIS_CODE":0,"TOWNNAME":"安定區","LI":"海寮里","LIN":"14鄰","STREET":" ","SECT":" ","MAREA":"海寮","LANE":" ","ALLEY":" ","HOUSE_NO":"１３２之４２號","E_COORD97":169010.79000000001,"N_COORD97":2555461.2999999998,"ADDRESS":"海寮１３２之４２號","OBJECTID":220623},"geometry":{"x":169010.79000000004,"y":2555461.3000000007}},{"attributes":{"ID":220625,"DIS_CODE":0,"TOWNNAME":"安定區","LI":"海寮里","LIN":"14鄰","STREET":" ","SECT":" ","MAREA":"海寮","LANE":" ","ALLEY":" ","HOUSE_NO":"１３２之３０號","E_COORD97":169045.98999999999,"N_COORD97":2555450.2999999998,"ADDRESS":"海寮１３２之３０號","OBJECTID":220624},"geometry":{"x":169045.99000000209,"y":2555450.3000000007}},{"attributes":{"ID":220626,"DIS_CODE":0,"TOWNNAME":"安定區","LI":"海寮里","LIN":"14鄰","STREET":" ","SECT":" ","MAREA":"海寮","LANE":" ","ALLEY":" ","HOUSE_NO":"１３２號之６８","E_COORD97":168980.98000000001,"N_COORD97":2555463.2999999998,"ADDRESS":"海寮１３２號之６８","OBJECTID":220625},"geometry":{"x":168980.98000000138,"y":2555463.3000000026}},{"attributes":{"ID":220627,"DIS_CODE":0,"TOWNNAME":"安定區","LI":"海寮里","LIN":"14鄰","STREET":" ","SECT":" ","MAREA":"海寮","LANE":" ","ALLEY":" ","HOUSE_NO":"１３２號之８","E_COORD97":169062.73000000001,"N_COORD97":2555416.2999999998,"ADDRESS":"海寮１３２號之８","OBJECTID":220626},"geometry":{"x":169062.73000000045,"y":2555416.3000000026}},{"attributes":{"ID":220628,"DIS_CODE":0,"TOWNNAME":"安定區","LI":"新吉里","LIN":"17鄰","STREET":" ","SECT":" ","MAREA":"新吉","LANE":" ","ALLEY":" ","HOUSE_NO":"２０５號","E_COORD97":168952.62,"N_COORD97":2554087.25,"ADDRESS":"新吉２０５號","OBJECTID":220627},"geometry":{"x":168952.62000000011,"y":2554087.25}},{"attributes":{"ID":220629,"DIS_CODE":0,"TOWNNAME":"安定區","LI":"大同里","LIN":"4鄰","STREET":" ","SECT":" ","MAREA":"大同","LANE":" ","ALLEY":" ","HOUSE_NO":"４１號","E_COORD97":170404.97,"N_COORD97":2553935.25,"ADDRESS":"大同４１號","OBJECTID":220628},"geometry":{"x":170404.96999999974,"y":2553935.25}},{"attributes":{"ID":220630,"DIS_CODE":0,"TOWNNAME":"永康區","LI":"正強里","LIN":"23鄰","STREET":"自強路","SECT":" ","MAREA":" ","LANE":"２５５巷","ALLEY":"６弄","HOUSE_NO":"１１號","E_COORD97":173232,"N_COORD97":2547650.7999999998,"ADDRESS":"自強路２５５巷６弄１１號","OBJECTID":220629},"geometry":{"x":173232,"y":2547650.8000000045}},{"attributes":{"ID":220631,"DIS_CODE":0,"TOWNNAME":"安定區","LI":"中沙里","LIN":"4鄰","STREET":" ","SECT":" ","MAREA":"中崙","LANE":" ","ALLEY":" ","HOUSE_NO":"１３２號","E_COORD97":169070.01000000001,"N_COORD97":2553217.25,"ADDRESS":"中崙１３２號","OBJECTID":220630},"geometry":{"x":169070.00999999978,"y":2553217.2500000037}},{"attributes":{"ID":220632,"DIS_CODE":0,"TOWNNAME":"仁德區","LI":"大甲里","LIN":"23鄰","STREET":"中正西路","SECT":" ","MAREA":" ","LANE":"１１９６巷","ALLEY":"５５０弄","HOUSE_NO":"１２１號","E_COORD97":169126.72960600001,"N_COORD97":2536478.4051799998,"ADDRESS":"中正西路１１９６巷５５０弄１２１號","OBJECTID":220631},"geometry":{"x":169126.72960599978,"y":2536478.4051799998}},{"attributes":{"ID":220633,"DIS_CODE":0,"TOWNNAME":"安定區","LI":"海寮里","LIN":"18鄰","STREET":" ","SECT":" ","MAREA":"海寮","LANE":" ","ALLEY":" ","HOUSE_NO":"１７３之８號","E_COORD97":169364.14000000001,"N_COORD97":2555501.2999999998,"ADDRESS":"海寮１７３之８號","OBJECTID":220632},"geometry":{"x":169364.13999999966,"y":2555501.3000000007}},{"attributes":{"ID":220634,"DIS_CODE":0,"TOWNNAME":"安定區","LI":"海寮里","LIN":"17鄰","STREET":" ","SECT":" ","MAREA":"海寮","LANE":" ","ALLEY":" ","HOUSE_NO":"１６７之４號","E_COORD97":169366.34,"N_COORD97":2555476.2999999998,"ADDRESS":"海寮１６７之４號","OBJECTID":220633},"geometry":{"x":169366.33999999985,"y":2555476.3000000026}},{"attributes":{"ID":220635,"DIS_CODE":0,"TOWNNAME":"安定區","LI":"六嘉里","LIN":"7鄰","STREET":" ","SECT":" ","MAREA":"六塊寮","LANE":" ","ALLEY":" ","HOUSE_NO":"６３之３號","E_COORD97":170152.92000000001,"N_COORD97":2553283.2999999998,"ADDRESS":"六塊寮６３之３號","OBJECTID":220634},"geometry":{"x":170152.91999999993,"y":2553283.3000000026}},{"attributes":{"ID":220636,"DIS_CODE":0,"TOWNNAME":"安定區","LI":"南安里","LIN":"5鄰","STREET":" ","SECT":" ","MAREA":"油車","LANE":" ","ALLEY":" ","HOUSE_NO":"５５號之４","E_COORD97":170562.79999999999,"N_COORD97":2555537.2999999998,"ADDRESS":"油車５５號之４","OBJECTID":220635},"geometry":{"x":170562.80000000075,"y":2555537.3000000026}},{"attributes":{"ID":220637,"DIS_CODE":0,"TOWNNAME":"安定區","LI":"南安里","LIN":"5鄰","STREET":" ","SECT":" ","MAREA":"油車","LANE":" ","ALLEY":" ","HOUSE_NO":"６１號","E_COORD97":170500.94,"N_COORD97":2555510.25,"ADDRESS":"油車６１號","OBJECTID":220636},"geometry":{"x":170500.94000000227,"y":2555510.2500000019}},{"attributes":{"ID":220638,"DIS_CODE":0,"TOWNNAME":"安定區","LI":"海寮里","LIN":"18鄰","STREET":" ","SECT":" ","MAREA":"海寮","LANE":" ","ALLEY":" ","HOUSE_NO":"１７１之２號","E_COORD97":169314.34,"N_COORD97":2555508.2999999998,"ADDRESS":"海寮１７１之２號","OBJECTID":220637},"geometry":{"x":169314.34000000171,"y":2555508.3000000007}},{"attributes":{"ID":220639,"DIS_CODE":0,"TOWNNAME":"新市區","LI":"豐華里","LIN":"13鄰","STREET":" ","SECT":" ","MAREA":"豐華","LANE":" ","ALLEY":" ","HOUSE_NO":"４７之１４０號","E_COORD97":174246.10000000001,"N_COORD97":2554421.0499999998,"ADDRESS":"豐華４７之１４０號","OBJECTID":220638},"geometry":{"x":174246.10000000056,"y":2554421.0500000026}},{"attributes":{"ID":220640,"DIS_CODE":0,"TOWNNAME":"新市區","LI":"豐華里","LIN":"5鄰","STREET":" ","SECT":" ","MAREA":"豐華","LANE":" ","ALLEY":" ","HOUSE_NO":"３８之６５號","E_COORD97":173163.64999999999,"N_COORD97":2555188.5499999998,"ADDRESS":"豐華３８之６５號","OBJECTID":220639},"geometry":{"x":173163.65000000037,"y":2555188.5500000007}},{"attributes":{"ID":220641,"DIS_CODE":0,"TOWNNAME":"新市區","LI":"潭頂里","LIN":"4鄰","STREET":" ","SECT":" ","MAREA":"潭頂","LANE":" ","ALLEY":" ","HOUSE_NO":"２０４號","E_COORD97":180888.69,"N_COORD97":2553140.75,"ADDRESS":"潭頂２０４號","OBJECTID":220640},"geometry":{"x":180888.69000000041,"y":2553140.7500000019}},{"attributes":{"ID":220642,"DIS_CODE":0,"TOWNNAME":"新市區","LI":"豐華里","LIN":"4鄰","STREET":" ","SECT":" ","MAREA":"豐華","LANE":" ","ALLEY":" ","HOUSE_NO":"２８號","E_COORD97":173744.14999999999,"N_COORD97":2554160.5,"ADDRESS":"豐華２８號","OBJECTID":220641},"geometry":{"x":173744.15000000224,"y":2554160.5}},{"attributes":{"ID":220643,"DIS_CODE":0,"TOWNNAME":"七股區","LI":"後港里","LIN":"16鄰","STREET":" ","SECT":" ","MAREA":"港西","LANE":" ","ALLEY":" ","HOUSE_NO":"５６號","E_COORD97":162246.81,"N_COORD97":2564922.8900000001,"ADDRESS":"港西５６號","OBJECTID":220642},"geometry":{"x":162246.80999999959,"y":2564922.8900000006}},{"attributes":{"ID":220644,"DIS_CODE":0,"TOWNNAME":"新市區","LI":"潭頂里","LIN":"4鄰","STREET":" ","SECT":" ","MAREA":"潭頂","LANE":" ","ALLEY":" ","HOUSE_NO":"１９７號","E_COORD97":180908.78,"N_COORD97":2553004.5,"ADDRESS":"潭頂１９７號","OBJECTID":220643},"geometry":{"x":180908.78000000212,"y":2553004.5}},{"attributes":{"ID":220645,"DIS_CODE":0,"TOWNNAME":"後壁區","LI":"菁寮里","LIN":"1鄰","STREET":" ","SECT":" ","MAREA":"菁寮","LANE":" ","ALLEY":" ","HOUSE_NO":"１號之１０","E_COORD97":181805.07999999999,"N_COORD97":2585982.98,"ADDRESS":"菁寮１號之１０","OBJECTID":220644},"geometry":{"x":181805.08000000101,"y":2585982.9800000004}},{"attributes":{"ID":220646,"DIS_CODE":0,"TOWNNAME":"後壁區","LI":"菁寮里","LIN":"1鄰","STREET":" ","SECT":" ","MAREA":"菁寮","LANE":" ","ALLEY":" ","HOUSE_NO":"１號之１２","E_COORD97":181773,"N_COORD97":2585887.9300000002,"ADDRESS":"菁寮１號之１２","OBJECTID":220645},"geometry":{"x":181772.99999999907,"y":2585887.9299999997}},{"attributes":{"ID":220647,"DIS_CODE":0,"TOWNNAME":"後壁區","LI":"菁寮里","LIN":"1鄰","STREET":" ","SECT":" ","MAREA":"菁寮","LANE":" ","ALLEY":" ","HOUSE_NO":"１號之１５","E_COORD97":181798.73999999999,"N_COORD97":2586024.6299999999,"ADDRESS":"菁寮１號之１５","OBJECTID":220646},"geometry":{"x":181798.73999999929,"y":2586024.629999999}},{"attributes":{"ID":220648,"DIS_CODE":0,"TOWNNAME":"後壁區","LI":"菁寮里","LIN":"1鄰","STREET":" ","SECT":" ","MAREA":"菁寮","LANE":" ","ALLEY":" ","HOUSE_NO":"１號之２０","E_COORD97":181795.03,"N_COORD97":2586082.75,"ADDRESS":"菁寮１號之２０","OBJECTID":220647},"geometry":{"x":181795.03000000026,"y":2586082.75}},{"attributes":{"ID":220649,"DIS_CODE":0,"TOWNNAME":"後壁區","LI":"菁寮里","LIN":"1鄰","STREET":" ","SECT":" ","MAREA":"菁寮","LANE":" ","ALLEY":" ","HOUSE_NO":"１號之２３","E_COORD97":181823.35999999999,"N_COORD97":2586103.6800000002,"ADDRESS":"菁寮１號之２３","OBJECTID":220648},"geometry":{"x":181823.36000000034,"y":2586103.6799999997}},{"attributes":{"ID":220650,"DIS_CODE":0,"TOWNNAME":"後壁區","LI":"菁寮里","LIN":"1鄰","STREET":" ","SECT":" ","MAREA":"菁寮","LANE":" ","ALLEY":" ","HOUSE_NO":"１號之２６","E_COORD97":181752.23999999999,"N_COORD97":2586100.4399999999,"ADDRESS":"菁寮１號之２６","OBJECTID":220649},"geometry":{"x":181752.24000000022,"y":2586100.4399999995}},{"attributes":{"ID":220651,"DIS_CODE":0,"TOWNNAME":"後壁區","LI":"菁寮里","LIN":"1鄰","STREET":" ","SECT":" ","MAREA":"菁寮","LANE":" ","ALLEY":" ","HOUSE_NO":"１號之２","E_COORD97":182028.26000000001,"N_COORD97":2586113.1299999999,"ADDRESS":"菁寮１號之２","OBJECTID":220650},"geometry":{"x":182028.25999999978,"y":2586113.129999999}},{"attributes":{"ID":220652,"DIS_CODE":0,"TOWNNAME":"後壁區","LI":"墨林里","LIN":"8鄰","STREET":" ","SECT":" ","MAREA":"菁寮","LANE":" ","ALLEY":" ","HOUSE_NO":"２４５號","E_COORD97":182232.66,"N_COORD97":2586530.1299999999,"ADDRESS":"菁寮２４５號","OBJECTID":220651},"geometry":{"x":182232.66000000015,"y":2586530.129999999}},{"attributes":{"ID":220653,"DIS_CODE":0,"TOWNNAME":"後壁區","LI":"墨林里","LIN":"8鄰","STREET":" ","SECT":" ","MAREA":"菁寮","LANE":" ","ALLEY":" ","HOUSE_NO":"２４６號","E_COORD97":182260.64999999999,"N_COORD97":2586497.4199999999,"ADDRESS":"菁寮２４６號","OBJECTID":220652},"geometry":{"x":182260.65000000224,"y":2586497.4200000018}},{"attributes":{"ID":220654,"DIS_CODE":0,"TOWNNAME":"後壁區","LI":"墨林里","LIN":"8鄰","STREET":" ","SECT":" ","MAREA":"菁寮","LANE":" ","ALLEY":" ","HOUSE_NO":"２４７號之２","E_COORD97":182312.97,"N_COORD97":2586546.5800000001,"ADDRESS":"菁寮２４７號之２","OBJECTID":220653},"geometry":{"x":182312.96999999974,"y":2586546.5800000019}},{"attributes":{"ID":220655,"DIS_CODE":0,"TOWNNAME":"後壁區","LI":"墨林里","LIN":"8鄰","STREET":" ","SECT":" ","MAREA":"菁寮","LANE":" ","ALLEY":" ","HOUSE_NO":"２４７號","E_COORD97":182283.98000000001,"N_COORD97":2586516.9900000002,"ADDRESS":"菁寮２４７號","OBJECTID":220654},"geometry":{"x":182283.98000000231,"y":2586516.9900000021}},{"attributes":{"ID":220656,"DIS_CODE":0,"TOWNNAME":"後壁區","LI":"墨林里","LIN":"8鄰","STREET":" ","SECT":" ","MAREA":"菁寮","LANE":" ","ALLEY":" ","HOUSE_NO":"２４８號","E_COORD97":182298.85999999999,"N_COORD97":2586492.1099999999,"ADDRESS":"菁寮２４８號","OBJECTID":220655},"geometry":{"x":182298.86000000127,"y":2586492.1100000013}},{"attributes":{"ID":220657,"DIS_CODE":0,"TOWNNAME":"後壁區","LI":"菁寮里","LIN":"4鄰","STREET":" ","SECT":" ","MAREA":"菁寮","LANE":" ","ALLEY":" ","HOUSE_NO":"３９號","E_COORD97":182067.01000000001,"N_COORD97":2586294.6600000001,"ADDRESS":"菁寮３９號","OBJECTID":220656},"geometry":{"x":182067.00999999978,"y":2586294.6600000039}},{"attributes":{"ID":220658,"DIS_CODE":0,"TOWNNAME":"後壁區","LI":"菁寮里","LIN":"4鄰","STREET":" ","SECT":" ","MAREA":"菁寮","LANE":" ","ALLEY":" ","HOUSE_NO":"３３號","E_COORD97":182041.84,"N_COORD97":2586297.73,"ADDRESS":"菁寮３３號","OBJECTID":220657},"geometry":{"x":182041.84000000171,"y":2586297.7300000042}},{"attributes":{"ID":220659,"DIS_CODE":0,"TOWNNAME":"後壁區","LI":"菁寮里","LIN":"4鄰","STREET":" ","SECT":" ","MAREA":"菁寮","LANE":" ","ALLEY":" ","HOUSE_NO":"３５號","E_COORD97":182051.45999999999,"N_COORD97":2586333.3900000001,"ADDRESS":"菁寮３５號","OBJECTID":220658},"geometry":{"x":182051.46000000183,"y":2586333.3900000006}},{"attributes":{"ID":220660,"DIS_CODE":0,"TOWNNAME":"後壁區","LI":"菁寮里","LIN":"4鄰","STREET":" ","SECT":" ","MAREA":"菁寮","LANE":" ","ALLEY":" ","HOUSE_NO":"３６號","E_COORD97":182057.76999999999,"N_COORD97":2586364.71,"ADDRESS":"菁寮３６號","OBJECTID":220659},"geometry":{"x":182057.77000000048,"y":2586364.7100000009}},{"attributes":{"ID":220661,"DIS_CODE":0,"TOWNNAME":"後壁區","LI":"菁寮里","LIN":"4鄰","STREET":" ","SECT":" ","MAREA":"菁寮","LANE":" ","ALLEY":" ","HOUSE_NO":"３８號","E_COORD97":182071.26000000001,"N_COORD97":2586315.5499999998,"ADDRESS":"菁寮３８號","OBJECTID":220660},"geometry":{"x":182071.26000000164,"y":2586315.5500000007}},{"attributes":{"ID":220662,"DIS_CODE":0,"TOWNNAME":"後壁區","LI":"菁寮里","LIN":"4鄰","STREET":" ","SECT":" ","MAREA":"菁寮","LANE":" ","ALLEY":" ","HOUSE_NO":"４１號之２","E_COORD97":182092.54999999999,"N_COORD97":2586305.4900000002,"ADDRESS":"菁寮４１號之２","OBJECTID":220661},"geometry":{"x":182092.54999999981,"y":2586305.4900000002}},{"attributes":{"ID":220663,"DIS_CODE":0,"TOWNNAME":"後壁區","LI":"菁寮里","LIN":"4鄰","STREET":" ","SECT":" ","MAREA":"菁寮","LANE":" ","ALLEY":" ","HOUSE_NO":"４１號之３","E_COORD97":182100.45999999999,"N_COORD97":2586320.1400000001,"ADDRESS":"菁寮４１號之３","OBJECTID":220662},"geometry":{"x":182100.46000000183,"y":2586320.1400000025}},{"attributes":{"ID":220664,"DIS_CODE":0,"TOWNNAME":"後壁區","LI":"菁寮里","LIN":"4鄰","STREET":" ","SECT":" ","MAREA":"菁寮","LANE":" ","ALLEY":" ","HOUSE_NO":"４１號之４","E_COORD97":182100.04000000001,"N_COORD97":2586323.7400000002,"ADDRESS":"菁寮４１號之４","OBJECTID":220663},"geometry":{"x":182100.0400000019,"y":2586323.7400000002}},{"attributes":{"ID":220665,"DIS_CODE":0,"TOWNNAME":"永康區","LI":"正強里","LIN":"23鄰","STREET":"自強路","SECT":" ","MAREA":" ","LANE":"２５５巷","ALLEY":"６弄","HOUSE_NO":"３號","E_COORD97":173243.47,"N_COORD97":2547640.7200000002,"ADDRESS":"自強路２５５巷６弄３號","OBJECTID":220664},"geometry":{"x":173243.47000000067,"y":2547640.7200000007}},{"attributes":{"ID":220666,"DIS_CODE":0,"TOWNNAME":"永康區","LI":"正強里","LIN":"23鄰","STREET":"中正路","SECT":" ","MAREA":" ","LANE":"１２７巷","ALLEY":"３２弄","HOUSE_NO":"１號","E_COORD97":173370.04999999999,"N_COORD97":2547770.4500000002,"ADDRESS":"中正路１２７巷３２弄１號","OBJECTID":220665},"geometry":{"x":173370.05000000075,"y":2547770.4500000011}},{"attributes":{"ID":220667,"DIS_CODE":0,"TOWNNAME":"永康區","LI":"龍潭里","LIN":"23鄰","STREET":"自強路","SECT":" ","MAREA":" ","LANE":"７５０巷","ALLEY":"６８弄","HOUSE_NO":"４５號","E_COORD97":174570.69,"N_COORD97":2548383.8799999999,"ADDRESS":"自強路７５０巷６８弄４５號","OBJECTID":220666},"geometry":{"x":174570.69000000041,"y":2548383.8800000027}},{"attributes":{"ID":220668,"DIS_CODE":0,"TOWNNAME":"永康區","LI":"龍潭里","LIN":"23鄰","STREET":"自強路","SECT":" ","MAREA":" ","LANE":"７５０巷","ALLEY":"６８弄","HOUSE_NO":"１３號","E_COORD97":174571.95999999999,"N_COORD97":2548427.4399999999,"ADDRESS":"自強路７５０巷６８弄１３號","OBJECTID":220667},"geometry":{"x":174571.95999999996,"y":2548427.4399999995}},{"attributes":{"ID":220669,"DIS_CODE":0,"TOWNNAME":"後壁區","LI":"菁寮里","LIN":"4鄰","STREET":" ","SECT":" ","MAREA":"菁寮","LANE":" ","ALLEY":" ","HOUSE_NO":"４１號之５","E_COORD97":182099.54000000001,"N_COORD97":2586327.9399999999,"ADDRESS":"菁寮４１號之５","OBJECTID":220668},"geometry":{"x":182099.54000000004,"y":2586327.9399999995}},{"attributes":{"ID":220670,"DIS_CODE":0,"TOWNNAME":"後壁區","LI":"菁寮里","LIN":"4鄰","STREET":" ","SECT":" ","MAREA":"菁寮","LANE":" ","ALLEY":" ","HOUSE_NO":"４１號之７","E_COORD97":182099.03,"N_COORD97":2586336.0099999998,"ADDRESS":"菁寮４１號之７","OBJECTID":220669},"geometry":{"x":182099.03000000119,"y":2586336.0100000035}},{"attributes":{"ID":220671,"DIS_CODE":0,"TOWNNAME":"後壁區","LI":"菁寮里","LIN":"4鄰","STREET":" ","SECT":" ","MAREA":"菁寮","LANE":" ","ALLEY":" ","HOUSE_NO":"４１號","E_COORD97":182101.56,"N_COORD97":2586281.3799999999,"ADDRESS":"菁寮４１號","OBJECTID":220670},"geometry":{"x":182101.56000000052,"y":2586281.3799999971}},{"attributes":{"ID":220672,"DIS_CODE":0,"TOWNNAME":"後壁區","LI":"菁寮里","LIN":"4鄰","STREET":" ","SECT":" ","MAREA":"菁寮","LANE":" ","ALLEY":" ","HOUSE_NO":"４２號","E_COORD97":182083.16,"N_COORD97":2586338.46,"ADDRESS":"菁寮４２號","OBJECTID":220671},"geometry":{"x":182083.16000000108,"y":2586338.4600000028}},{"attributes":{"ID":220673,"DIS_CODE":0,"TOWNNAME":"後壁區","LI":"菁寮里","LIN":"4鄰","STREET":" ","SECT":" ","MAREA":"菁寮","LANE":" ","ALLEY":" ","HOUSE_NO":"４３號之１","E_COORD97":182099.32999999999,"N_COORD97":2586346.0699999998,"ADDRESS":"菁寮４３號之１","OBJECTID":220672},"geometry":{"x":182099.33000000007,"y":2586346.070000004}},{"attributes":{"ID":220674,"DIS_CODE":0,"TOWNNAME":"後壁區","LI":"菁寮里","LIN":"4鄰","STREET":" ","SECT":" ","MAREA":"菁寮","LANE":" ","ALLEY":" ","HOUSE_NO":"４３號之６","E_COORD97":182097.32999999999,"N_COORD97":2586359.0099999998,"ADDRESS":"菁寮４３號之６","OBJECTID":220673},"geometry":{"x":182097.33000000007,"y":2586359.0099999998}},{"attributes":{"ID":220675,"DIS_CODE":0,"TOWNNAME":"後壁區","LI":"墨林里","LIN":"13鄰","STREET":" ","SECT":" ","MAREA":"菁寮","LANE":" ","ALLEY":" ","HOUSE_NO":"３３４號","E_COORD97":182140.10999999999,"N_COORD97":2586367.8500000001,"ADDRESS":"菁寮３３４號","OBJECTID":220674},"geometry":{"x":182140.11000000034,"y":2586367.8500000015}},{"attributes":{"ID":220676,"DIS_CODE":0,"TOWNNAME":"後壁區","LI":"墨林里","LIN":"13鄰","STREET":" ","SECT":" ","MAREA":"菁寮","LANE":" ","ALLEY":" ","HOUSE_NO":"３３５號","E_COORD97":182136,"N_COORD97":2586366.5299999998,"ADDRESS":"菁寮３３５號","OBJECTID":220675},"geometry":{"x":182136.00000000186,"y":2586366.5300000012}},{"attributes":{"ID":220677,"DIS_CODE":0,"TOWNNAME":"後壁區","LI":"墨林里","LIN":"13鄰","STREET":" ","SECT":" ","MAREA":"菁寮","LANE":" ","ALLEY":" ","HOUSE_NO":"３３６號","E_COORD97":182130.07999999999,"N_COORD97":2586364.3900000001,"ADDRESS":"菁寮３３６號","OBJECTID":220676},"geometry":{"x":182130.08000000007,"y":2586364.3900000006}},{"attributes":{"ID":220678,"DIS_CODE":0,"TOWNNAME":"學甲區","LI":"秀昌里","LIN":"28鄰","STREET":" ","SECT":" ","MAREA":"煥昌","LANE":" ","ALLEY":" ","HOUSE_NO":"５８號","E_COORD97":166127.67999999999,"N_COORD97":2570877.96,"ADDRESS":"煥昌５８號","OBJECTID":220677},"geometry":{"x":166127.6799999997,"y":2570877.9600000028}},{"attributes":{"ID":220679,"DIS_CODE":0,"TOWNNAME":"後壁區","LI":"墨林里","LIN":"13鄰","STREET":" ","SECT":" ","MAREA":"菁寮","LANE":" ","ALLEY":" ","HOUSE_NO":"３３７號","E_COORD97":182114.98000000001,"N_COORD97":2586361.8599999999,"ADDRESS":"菁寮３３７號","OBJECTID":220678},"geometry":{"x":182114.98000000138,"y":2586361.8600000013}},{"attributes":{"ID":220680,"DIS_CODE":0,"TOWNNAME":"後壁區","LI":"菁寮里","LIN":"7鄰","STREET":" ","SECT":" ","MAREA":"菁寮","LANE":" ","ALLEY":" ","HOUSE_NO":"７８號","E_COORD97":182016.76000000001,"N_COORD97":2586382.6299999999,"ADDRESS":"菁寮７８號","OBJECTID":220679},"geometry":{"x":182016.75999999978,"y":2586382.6300000008}},{"attributes":{"ID":220681,"DIS_CODE":0,"TOWNNAME":"後壁區","LI":"菁寮里","LIN":"7鄰","STREET":" ","SECT":" ","MAREA":"菁寮","LANE":" ","ALLEY":" ","HOUSE_NO":"７９號之１","E_COORD97":181995.16,"N_COORD97":2586398.3700000001,"ADDRESS":"菁寮７９號之１","OBJECTID":220680},"geometry":{"x":181995.16000000015,"y":2586398.370000001}},{"attributes":{"ID":220682,"DIS_CODE":0,"TOWNNAME":"後壁區","LI":"新東里","LIN":"4鄰","STREET":" ","SECT":" ","MAREA":"新港東","LANE":" ","ALLEY":" ","HOUSE_NO":"３７號","E_COORD97":181438.60000000001,"N_COORD97":2581925.7400000002,"ADDRESS":"新港東３７號","OBJECTID":220681},"geometry":{"x":181438.60000000056,"y":2581925.7400000002}},{"attributes":{"ID":220683,"DIS_CODE":0,"TOWNNAME":"後壁區","LI":"新東里","LIN":"4鄰","STREET":" ","SECT":" ","MAREA":"新港東","LANE":" ","ALLEY":" ","HOUSE_NO":"３９號之２","E_COORD97":181465.92999999999,"N_COORD97":2581953.6200000001,"ADDRESS":"新港東３９號之２","OBJECTID":220682},"geometry":{"x":181465.9299999997,"y":2581953.6200000029}},{"attributes":{"ID":220684,"DIS_CODE":0,"TOWNNAME":"後壁區","LI":"新東里","LIN":"4鄰","STREET":" ","SECT":" ","MAREA":"新港東","LANE":" ","ALLEY":" ","HOUSE_NO":"３９號之４","E_COORD97":181473.60000000001,"N_COORD97":2581950.7400000002,"ADDRESS":"新港東３９號之４","OBJECTID":220683},"geometry":{"x":181473.5999999987,"y":2581950.7400000002}},{"attributes":{"ID":220685,"DIS_CODE":0,"TOWNNAME":"後壁區","LI":"新東里","LIN":"4鄰","STREET":" ","SECT":" ","MAREA":"新港東","LANE":" ","ALLEY":" ","HOUSE_NO":"３９號","E_COORD97":181452.28,"N_COORD97":2581945.6499999999,"ADDRESS":"新港東３９號","OBJECTID":220684},"geometry":{"x":181452.28000000026,"y":2581945.6500000022}},{"attributes":{"ID":220686,"DIS_CODE":0,"TOWNNAME":"後壁區","LI":"新東里","LIN":"4鄰","STREET":" ","SECT":" ","MAREA":"新港東","LANE":" ","ALLEY":" ","HOUSE_NO":"４０號","E_COORD97":181464.48999999999,"N_COORD97":2581942.2400000002,"ADDRESS":"新港東４０號","OBJECTID":220685},"geometry":{"x":181464.49000000022,"y":2581942.2400000021}},{"attributes":{"ID":220687,"DIS_CODE":0,"TOWNNAME":"後壁區","LI":"新東里","LIN":"4鄰","STREET":" ","SECT":" ","MAREA":"新港東","LANE":" ","ALLEY":" ","HOUSE_NO":"４１號","E_COORD97":181458.34,"N_COORD97":2581927.6299999999,"ADDRESS":"新港東４１號","OBJECTID":220686},"geometry":{"x":181458.33999999985,"y":2581927.6300000008}},{"attributes":{"ID":220688,"DIS_CODE":0,"TOWNNAME":"後壁區","LI":"新東里","LIN":"4鄰","STREET":" ","SECT":" ","MAREA":"新港東","LANE":" ","ALLEY":" ","HOUSE_NO":"４２號之１","E_COORD97":181458.23000000001,"N_COORD97":2581905.5600000001,"ADDRESS":"新港東４２號之１","OBJECTID":220687},"geometry":{"x":181458.23000000045,"y":2581905.5600000024}},{"attributes":{"ID":220689,"DIS_CODE":0,"TOWNNAME":"後壁區","LI":"新東里","LIN":"4鄰","STREET":" ","SECT":" ","MAREA":"新港東","LANE":" ","ALLEY":" ","HOUSE_NO":"４２號之２","E_COORD97":181453.01999999999,"N_COORD97":2581905.7999999998,"ADDRESS":"新港東４２號之２","OBJECTID":220688},"geometry":{"x":181453.01999999955,"y":2581905.8000000007}},{"attributes":{"ID":220690,"DIS_CODE":0,"TOWNNAME":"後壁區","LI":"新東里","LIN":"4鄰","STREET":" ","SECT":" ","MAREA":"新港東","LANE":" ","ALLEY":" ","HOUSE_NO":"４２號","E_COORD97":181446.48999999999,"N_COORD97":2581913.9700000002,"ADDRESS":"新港東４２號","OBJECTID":220689},"geometry":{"x":181446.49000000115,"y":2581913.9700000025}},{"attributes":{"ID":220691,"DIS_CODE":0,"TOWNNAME":"後壁區","LI":"新東里","LIN":"4鄰","STREET":" ","SECT":" ","MAREA":"新港東","LANE":" ","ALLEY":" ","HOUSE_NO":"４３號之２","E_COORD97":181441.53,"N_COORD97":2581893.46,"ADDRESS":"新港東４３號之２","OBJECTID":220690},"geometry":{"x":181441.53000000119,"y":2581893.4600000028}},{"attributes":{"ID":220692,"DIS_CODE":0,"TOWNNAME":"後壁區","LI":"新東里","LIN":"4鄰","STREET":" ","SECT":" ","MAREA":"新港東","LANE":" ","ALLEY":" ","HOUSE_NO":"４４號之２","E_COORD97":181416.07999999999,"N_COORD97":2581859.3399999999,"ADDRESS":"新港東４４號之２","OBJECTID":220691},"geometry":{"x":181416.08000000007,"y":2581859.3400000017}},{"attributes":{"ID":220693,"DIS_CODE":0,"TOWNNAME":"後壁區","LI":"新東里","LIN":"4鄰","STREET":" ","SECT":" ","MAREA":"新港東","LANE":" ","ALLEY":" ","HOUSE_NO":"４４號之３","E_COORD97":181422.79999999999,"N_COORD97":2581878.0299999998,"ADDRESS":"新港東４４號之３","OBJECTID":220692},"geometry":{"x":181422.79999999981,"y":2581878.0300000012}},{"attributes":{"ID":220694,"DIS_CODE":0,"TOWNNAME":"東區","LI":"泉南里","LIN":"28鄰","STREET":"長榮路","SECT":"一段","MAREA":" ","LANE":" ","ALLEY":" ","HOUSE_NO":"８９號五樓","E_COORD97":169675.73000000001,"N_COORD97":2542628.5800000001,"ADDRESS":"長榮路一段８９號五樓","OBJECTID":220693},"geometry":{"x":169675.73000000138,"y":2542628.5800000019}},{"attributes":{"ID":220695,"DIS_CODE":0,"TOWNNAME":"東區","LI":"泉南里","LIN":"28鄰","STREET":"長榮路","SECT":"一段","MAREA":" ","LANE":" ","ALLEY":" ","HOUSE_NO":"８９號六樓","E_COORD97":169675.73000000001,"N_COORD97":2542628.5800000001,"ADDRESS":"長榮路一段８９號六樓","OBJECTID":220694},"geometry":{"x":169675.73000000138,"y":2542628.5800000019}},{"attributes":{"ID":220696,"DIS_CODE":0,"TOWNNAME":"永康區","LI":"勝利里","LIN":"38鄰","STREET":"勝利街","SECT":" ","MAREA":" ","LANE":"１９７巷","ALLEY":"８弄","HOUSE_NO":"１號","E_COORD97":171315.06,"N_COORD97":2545140.7200000002,"ADDRESS":"勝利街１９７巷８弄１號","OBJECTID":220695},"geometry":{"x":171315.06000000052,"y":2545140.7200000007}},{"attributes":{"ID":220697,"DIS_CODE":0,"TOWNNAME":"永康區","LI":"勝利里","LIN":"20鄰","STREET":"勝利街","SECT":" ","MAREA":" ","LANE":"１９７巷","ALLEY":"４０弄","HOUSE_NO":"６號","E_COORD97":171258.45000000001,"N_COORD97":2545166.5099999998,"ADDRESS":"勝利街１９７巷４０弄６號","OBJECTID":220696},"geometry":{"x":171258.45000000205,"y":2545166.5100000035}},{"attributes":{"ID":220698,"DIS_CODE":0,"TOWNNAME":"後壁區","LI":"新東里","LIN":"4鄰","STREET":" ","SECT":" ","MAREA":"新港東","LANE":" ","ALLEY":" ","HOUSE_NO":"４４號之５","E_COORD97":181430.48000000001,"N_COORD97":2581868.4300000002,"ADDRESS":"新港東４４號之５","OBJECTID":220697},"geometry":{"x":181430.48000000045,"y":2581868.4300000016}},{"attributes":{"ID":220699,"DIS_CODE":0,"TOWNNAME":"後壁區","LI":"平安里","LIN":"4鄰","STREET":" ","SECT":" ","MAREA":"葯店口","LANE":" ","ALLEY":" ","HOUSE_NO":"５５號之１２","E_COORD97":182446.26000000001,"N_COORD97":2584027.3100000001,"ADDRESS":"葯店口５５號之１２","OBJECTID":220698},"geometry":{"x":182446.26000000071,"y":2584027.3100000024}},{"attributes":{"ID":220700,"DIS_CODE":0,"TOWNNAME":"後壁區","LI":"平安里","LIN":"4鄰","STREET":" ","SECT":" ","MAREA":"葯店口","LANE":" ","ALLEY":" ","HOUSE_NO":"５５號之１５","E_COORD97":182439.70000000001,"N_COORD97":2584105.1600000001,"ADDRESS":"葯店口５５號之１５","OBJECTID":220699},"geometry":{"x":182439.70000000019,"y":2584105.160000002}},{"attributes":{"ID":220701,"DIS_CODE":0,"TOWNNAME":"後壁區","LI":"平安里","LIN":"4鄰","STREET":" ","SECT":" ","MAREA":"葯店口","LANE":" ","ALLEY":" ","HOUSE_NO":"５５號之１","E_COORD97":182066.75,"N_COORD97":2584602.8900000001,"ADDRESS":"葯店口５５號之１","OBJECTID":220700},"geometry":{"x":182066.75000000093,"y":2584602.8900000025}},{"attributes":{"ID":220702,"DIS_CODE":0,"TOWNNAME":"後壁區","LI":"平安里","LIN":"4鄰","STREET":" ","SECT":" ","MAREA":"葯店口","LANE":" ","ALLEY":" ","HOUSE_NO":"５５號之２０","E_COORD97":182123.70999999999,"N_COORD97":2584269.8799999999,"ADDRESS":"葯店口５５號之２０","OBJECTID":220701},"geometry":{"x":182123.70999999996,"y":2584269.879999999}},{"attributes":{"ID":220703,"DIS_CODE":0,"TOWNNAME":"後壁區","LI":"平安里","LIN":"4鄰","STREET":" ","SECT":" ","MAREA":"葯店口","LANE":" ","ALLEY":" ","HOUSE_NO":"５５號之２５","E_COORD97":182068.35999999999,"N_COORD97":2584278.54,"ADDRESS":"葯店口５５號之２５","OBJECTID":220702},"geometry":{"x":182068.36000000127,"y":2584278.540000001}},{"attributes":{"ID":220704,"DIS_CODE":0,"TOWNNAME":"後壁區","LI":"平安里","LIN":"4鄰","STREET":" ","SECT":" ","MAREA":"葯店口","LANE":" ","ALLEY":" ","HOUSE_NO":"５５號之２６","E_COORD97":182052.69,"N_COORD97":2584296.2599999998,"ADDRESS":"葯店口５５號之２６","OBJECTID":220703},"geometry":{"x":182052.69000000134,"y":2584296.2599999998}},{"attributes":{"ID":220705,"DIS_CODE":0,"TOWNNAME":"後壁區","LI":"平安里","LIN":"4鄰","STREET":" ","SECT":" ","MAREA":"葯店口","LANE":" ","ALLEY":" ","HOUSE_NO":"５５號之３５","E_COORD97":182219.79000000001,"N_COORD97":2584089.27,"ADDRESS":"葯店口５５號之３５","OBJECTID":220704},"geometry":{"x":182219.79000000004,"y":2584089.2699999977}},{"attributes":{"ID":220706,"DIS_CODE":0,"TOWNNAME":"後壁區","LI":"平安里","LIN":"4鄰","STREET":" ","SECT":" ","MAREA":"葯店口","LANE":" ","ALLEY":" ","HOUSE_NO":"５５號之３","E_COORD97":182084.17999999999,"N_COORD97":2584552.1400000001,"ADDRESS":"葯店口５５號之３","OBJECTID":220705},"geometry":{"x":182084.18000000063,"y":2584552.1400000006}},{"attributes":{"ID":220707,"DIS_CODE":0,"TOWNNAME":"後壁區","LI":"平安里","LIN":"4鄰","STREET":" ","SECT":" ","MAREA":"葯店口","LANE":" ","ALLEY":" ","HOUSE_NO":"５５號之４０","E_COORD97":182314.81,"N_COORD97":2584194.1800000002,"ADDRESS":"葯店口５５號之４０","OBJECTID":220706},"geometry":{"x":182314.81000000145,"y":2584194.1799999997}},{"attributes":{"ID":220708,"DIS_CODE":0,"TOWNNAME":"後壁區","LI":"平安里","LIN":"4鄰","STREET":" ","SECT":" ","MAREA":"葯店口","LANE":" ","ALLEY":" ","HOUSE_NO":"５５號之４１","E_COORD97":182320.45000000001,"N_COORD97":2584194.9900000002,"ADDRESS":"葯店口５５號之４１","OBJECTID":220707},"geometry":{"x":182320.45000000019,"y":2584194.9900000021}},{"attributes":{"ID":220709,"DIS_CODE":0,"TOWNNAME":"後壁區","LI":"平安里","LIN":"4鄰","STREET":" ","SECT":" ","MAREA":"葯店口","LANE":" ","ALLEY":" ","HOUSE_NO":"５５號之６","E_COORD97":182090.14000000001,"N_COORD97":2584618.54,"ADDRESS":"葯店口５５號之６","OBJECTID":220708},"geometry":{"x":182090.13999999966,"y":2584618.5399999991}},{"attributes":{"ID":220710,"DIS_CODE":0,"TOWNNAME":"後壁區","LI":"竹新里","LIN":"13鄰","STREET":" ","SECT":" ","MAREA":"新厝","LANE":" ","ALLEY":" ","HOUSE_NO":"９號之８","E_COORD97":179232.26000000001,"N_COORD97":2582016.6499999999,"ADDRESS":"新厝９號之８","OBJECTID":220709},"geometry":{"x":179232.26000000071,"y":2582016.6500000022}},{"attributes":{"ID":220711,"DIS_CODE":0,"TOWNNAME":"後壁區","LI":"新東里","LIN":"14鄰","STREET":" ","SECT":" ","MAREA":"新港東","LANE":" ","ALLEY":" ","HOUSE_NO":"１４７號之１６４","E_COORD97":181344.60000000001,"N_COORD97":2582249.27,"ADDRESS":"新港東１４７號之１６４","OBJECTID":220710},"geometry":{"x":181344.59999999963,"y":2582249.2700000014}},{"attributes":{"ID":220712,"DIS_CODE":0,"TOWNNAME":"後壁區","LI":"新東里","LIN":"14鄰","STREET":" ","SECT":" ","MAREA":"新港東","LANE":" ","ALLEY":" ","HOUSE_NO":"１４７號之３","E_COORD97":181277.38,"N_COORD97":2582081.8500000001,"ADDRESS":"新港東１４７號之３","OBJECTID":220711},"geometry":{"x":181277.38000000082,"y":2582081.8500000034}},{"attributes":{"ID":220713,"DIS_CODE":0,"TOWNNAME":"後壁區","LI":"新東里","LIN":"1鄰","STREET":" ","SECT":" ","MAREA":"新港東","LANE":" ","ALLEY":" ","HOUSE_NO":"１８９號","E_COORD97":180282.37,"N_COORD97":2581313.79,"ADDRESS":"新港東１８９號","OBJECTID":220712},"geometry":{"x":180282.37000000197,"y":2581313.790000001}},{"attributes":{"ID":220714,"DIS_CODE":0,"TOWNNAME":"後壁區","LI":"新東里","LIN":"4鄰","STREET":" ","SECT":" ","MAREA":"新港東","LANE":" ","ALLEY":" ","HOUSE_NO":"４５號之１６","E_COORD97":181379.62,"N_COORD97":2581747.6499999999,"ADDRESS":"新港東４５號之１６","OBJECTID":220713},"geometry":{"x":181379.62000000104,"y":2581747.6500000004}},{"attributes":{"ID":220715,"DIS_CODE":0,"TOWNNAME":"後壁區","LI":"新東里","LIN":"4鄰","STREET":" ","SECT":" ","MAREA":"新港東","LANE":" ","ALLEY":" ","HOUSE_NO":"４５號之２","E_COORD97":181403.48000000001,"N_COORD97":2581829.8500000001,"ADDRESS":"新港東４５號之２","OBJECTID":220714},"geometry":{"x":181403.48000000045,"y":2581829.8499999996}},{"attributes":{"ID":220716,"DIS_CODE":0,"TOWNNAME":"後壁區","LI":"新東里","LIN":"4鄰","STREET":" ","SECT":" ","MAREA":"新港東","LANE":" ","ALLEY":" ","HOUSE_NO":"４５號之３","E_COORD97":181407.92000000001,"N_COORD97":2581826.25,"ADDRESS":"新港東４５號之３","OBJECTID":220715},"geometry":{"x":181407.92000000086,"y":2581826.2500000019}},{"attributes":{"ID":220717,"DIS_CODE":0,"TOWNNAME":"後壁區","LI":"新東里","LIN":"4鄰","STREET":" ","SECT":" ","MAREA":"新港東","LANE":" ","ALLEY":" ","HOUSE_NO":"４５號之４","E_COORD97":181413.32000000001,"N_COORD97":2581824.6499999999,"ADDRESS":"新港東４５號之４","OBJECTID":220716},"geometry":{"x":181413.3200000003,"y":2581824.6500000022}},{"attributes":{"ID":220718,"DIS_CODE":0,"TOWNNAME":"後壁區","LI":"新東里","LIN":"4鄰","STREET":" ","SECT":" ","MAREA":"新港東","LANE":" ","ALLEY":" ","HOUSE_NO":"４５號之５","E_COORD97":181417.73000000001,"N_COORD97":2581822.1400000001,"ADDRESS":"新港東４５號之５","OBJECTID":220717},"geometry":{"x":181417.73000000231,"y":2581822.1400000006}},{"attributes":{"ID":220719,"DIS_CODE":0,"TOWNNAME":"後壁區","LI":"新東里","LIN":"4鄰","STREET":" ","SECT":" ","MAREA":"新港東","LANE":" ","ALLEY":" ","HOUSE_NO":"４５號之６","E_COORD97":181434.12,"N_COORD97":2581856.23,"ADDRESS":"新港東４５號之６","OBJECTID":220718},"geometry":{"x":181434.12000000104,"y":2581856.2299999986}},{"attributes":{"ID":220720,"DIS_CODE":0,"TOWNNAME":"後壁區","LI":"新東里","LIN":"1鄰","STREET":" ","SECT":" ","MAREA":"新港東","LANE":" ","ALLEY":" ","HOUSE_NO":"２００號之４","E_COORD97":180913.84,"N_COORD97":2581445.0299999998,"ADDRESS":"新港東２００號之４","OBJECTID":220719},"geometry":{"x":180913.83999999985,"y":2581445.0299999993}},{"attributes":{"ID":220721,"DIS_CODE":0,"TOWNNAME":"永康區","LI":"龍潭里","LIN":"23鄰","STREET":"自強路","SECT":" ","MAREA":" ","LANE":"７５０巷","ALLEY":"１８弄","HOUSE_NO":"３０號","E_COORD97":174421.53,"N_COORD97":2548432.4900000002,"ADDRESS":"自強路７５０巷１８弄３０號","OBJECTID":220720},"geometry":{"x":174421.53000000119,"y":2548432.4900000021}},{"attributes":{"ID":220722,"DIS_CODE":0,"TOWNNAME":"東區","LI":"泉南里","LIN":"28鄰","STREET":"長榮路","SECT":"一段","MAREA":" ","LANE":" ","ALLEY":" ","HOUSE_NO":"９３號十一樓","E_COORD97":169677.19,"N_COORD97":2542646.1200000001,"ADDRESS":"長榮路一段９３號十一樓","OBJECTID":220721},"geometry":{"x":169677.19000000227,"y":2542646.1200000029}},{"attributes":{"ID":220723,"DIS_CODE":0,"TOWNNAME":"東區","LI":"崇明里","LIN":"23鄰","STREET":"中華東路","SECT":"三段","MAREA":" ","LANE":"３９９巷","ALLEY":"１６弄","HOUSE_NO":"１１號","E_COORD97":170017.60999999999,"N_COORD97":2541491.7000000002,"ADDRESS":"中華東路三段３９９巷１６弄１１號","OBJECTID":220722},"geometry":{"x":170017.61000000034,"y":2541491.6999999993}},{"attributes":{"ID":220724,"DIS_CODE":0,"TOWNNAME":"後壁區","LI":"新東里","LIN":"1鄰","STREET":" ","SECT":" ","MAREA":"新港東","LANE":" ","ALLEY":" ","HOUSE_NO":"２００號之５","E_COORD97":180919.09,"N_COORD97":2581444.6400000001,"ADDRESS":"新港東２００號之５","OBJECTID":220723},"geometry":{"x":180919.08999999985,"y":2581444.6400000025}},{"attributes":{"ID":220725,"DIS_CODE":0,"TOWNNAME":"後壁區","LI":"新東里","LIN":"4鄰","STREET":" ","SECT":" ","MAREA":"新港東","LANE":" ","ALLEY":" ","HOUSE_NO":"５１號","E_COORD97":181487.64000000001,"N_COORD97":2581939.2799999998,"ADDRESS":"新港東５１號","OBJECTID":220724},"geometry":{"x":181487.6400000006,"y":2581939.2799999993}},{"attributes":{"ID":220726,"DIS_CODE":0,"TOWNNAME":"後壁區","LI":"新東里","LIN":"4鄰","STREET":" ","SECT":" ","MAREA":"新港東","LANE":" ","ALLEY":" ","HOUSE_NO":"５２號","E_COORD97":181489.76000000001,"N_COORD97":2581946.79,"ADDRESS":"新港東５２號","OBJECTID":220725},"geometry":{"x":181489.76000000164,"y":2581946.790000001}},{"attributes":{"ID":220727,"DIS_CODE":0,"TOWNNAME":"後壁區","LI":"新東里","LIN":"1鄰","STREET":" ","SECT":" ","MAREA":"新港東","LANE":" ","ALLEY":" ","HOUSE_NO":"４號之１","E_COORD97":181271.32999999999,"N_COORD97":2581948.29,"ADDRESS":"新港東４號之１","OBJECTID":220726},"geometry":{"x":181271.33000000101,"y":2581948.2899999991}},{"attributes":{"ID":220728,"DIS_CODE":0,"TOWNNAME":"後壁區","LI":"新東里","LIN":"1鄰","STREET":" ","SECT":" ","MAREA":"新港東","LANE":" ","ALLEY":" ","HOUSE_NO":"４號","E_COORD97":181278.22,"N_COORD97":2581967.5899999999,"ADDRESS":"新港東４號","OBJECTID":220727},"geometry":{"x":181278.22000000067,"y":2581967.5899999999}},{"attributes":{"ID":220729,"DIS_CODE":0,"TOWNNAME":"後壁區","LI":"新東里","LIN":"1鄰","STREET":" ","SECT":" ","MAREA":"新港東","LANE":" ","ALLEY":" ","HOUSE_NO":"５號之１","E_COORD97":181293.67000000001,"N_COORD97":2581941.4100000001,"ADDRESS":"新港東５號之１","OBJECTID":220728},"geometry":{"x":181293.66999999993,"y":2581941.4100000001}},{"attributes":{"ID":220730,"DIS_CODE":0,"TOWNNAME":"後壁區","LI":"新東里","LIN":"1鄰","STREET":" ","SECT":" ","MAREA":"新港東","LANE":" ","ALLEY":" ","HOUSE_NO":"６號","E_COORD97":181295.28,"N_COORD97":2581953.2400000002,"ADDRESS":"新港東６號","OBJECTID":220729},"geometry":{"x":181295.28000000212,"y":2581953.2400000002}},{"attributes":{"ID":220731,"DIS_CODE":0,"TOWNNAME":"後壁區","LI":"新東里","LIN":"6鄰","STREET":" ","SECT":" ","MAREA":"新港東","LANE":" ","ALLEY":" ","HOUSE_NO":"６１號之１","E_COORD97":181497.01999999999,"N_COORD97":2581820.5600000001,"ADDRESS":"新港東６１號之１","OBJECTID":220730},"geometry":{"x":181497.02000000048,"y":2581820.5600000042}},{"attributes":{"ID":220732,"DIS_CODE":0,"TOWNNAME":"後壁區","LI":"新東里","LIN":"6鄰","STREET":" ","SECT":" ","MAREA":"新港東","LANE":" ","ALLEY":" ","HOUSE_NO":"６１號之２","E_COORD97":181504.79000000001,"N_COORD97":2581835.0899999999,"ADDRESS":"新港東６１號之２","OBJECTID":220731},"geometry":{"x":181504.79000000004,"y":2581835.0899999999}},{"attributes":{"ID":220733,"DIS_CODE":0,"TOWNNAME":"後壁區","LI":"新東里","LIN":"6鄰","STREET":" ","SECT":" ","MAREA":"新港東","LANE":" ","ALLEY":" ","HOUSE_NO":"６１號之３","E_COORD97":181510.45999999999,"N_COORD97":2581821.7000000002,"ADDRESS":"新港東６１號之３","OBJECTID":220732},"geometry":{"x":181510.45999999996,"y":2581821.700000003}},{"attributes":{"ID":220734,"DIS_CODE":0,"TOWNNAME":"後壁區","LI":"新東里","LIN":"6鄰","STREET":" ","SECT":" ","MAREA":"新港東","LANE":" ","ALLEY":" ","HOUSE_NO":"６１號","E_COORD97":181519.51999999999,"N_COORD97":2581844.1699999999,"ADDRESS":"新港東６１號","OBJECTID":220733},"geometry":{"x":181519.51999999955,"y":2581844.1700000018}},{"attributes":{"ID":220735,"DIS_CODE":0,"TOWNNAME":"後壁區","LI":"新東里","LIN":"6鄰","STREET":" ","SECT":" ","MAREA":"新港東","LANE":" ","ALLEY":" ","HOUSE_NO":"６２號","E_COORD97":181524.91,"N_COORD97":2581858.8199999998,"ADDRESS":"新港東６２號","OBJECTID":220734},"geometry":{"x":181524.91000000108,"y":2581858.8199999984}},{"attributes":{"ID":220736,"DIS_CODE":0,"TOWNNAME":"後壁區","LI":"新東里","LIN":"6鄰","STREET":" ","SECT":" ","MAREA":"新港東","LANE":" ","ALLEY":" ","HOUSE_NO":"６３號","E_COORD97":181531.29999999999,"N_COORD97":2581875.8799999999,"ADDRESS":"新港東６３號","OBJECTID":220735},"geometry":{"x":181531.29999999981,"y":2581875.879999999}},{"attributes":{"ID":220737,"DIS_CODE":0,"TOWNNAME":"後壁區","LI":"新東里","LIN":"8鄰","STREET":" ","SECT":" ","MAREA":"新港東","LANE":" ","ALLEY":" ","HOUSE_NO":"８１號","E_COORD97":181750.70000000001,"N_COORD97":2581801.4900000002,"ADDRESS":"新港東８１號","OBJECTID":220736},"geometry":{"x":181750.70000000112,"y":2581801.4900000021}},{"attributes":{"ID":220738,"DIS_CODE":0,"TOWNNAME":"後壁區","LI":"平安里","LIN":"4鄰","STREET":" ","SECT":" ","MAREA":"葯店口","LANE":" ","ALLEY":" ","HOUSE_NO":"３５號","E_COORD97":181914.54999999999,"N_COORD97":2584774.48,"ADDRESS":"葯店口３５號","OBJECTID":220737},"geometry":{"x":181914.54999999981,"y":2584774.4800000023}},{"attributes":{"ID":220739,"DIS_CODE":0,"TOWNNAME":"後壁區","LI":"平安里","LIN":"4鄰","STREET":" ","SECT":" ","MAREA":"葯店口","LANE":" ","ALLEY":" ","HOUSE_NO":"３６號","E_COORD97":181933.59,"N_COORD97":2584787.4100000001,"ADDRESS":"葯店口３６號","OBJECTID":220738},"geometry":{"x":181933.59000000078,"y":2584787.4100000039}},{"attributes":{"ID":220740,"DIS_CODE":0,"TOWNNAME":"後壁區","LI":"平安里","LIN":"4鄰","STREET":" ","SECT":" ","MAREA":"葯店口","LANE":" ","ALLEY":" ","HOUSE_NO":"３７號","E_COORD97":181928.54000000001,"N_COORD97":2584778.1699999999,"ADDRESS":"葯店口３７號","OBJECTID":220739},"geometry":{"x":181928.54000000004,"y":2584778.1699999999}},{"attributes":{"ID":220741,"DIS_CODE":0,"TOWNNAME":"後壁區","LI":"平安里","LIN":"4鄰","STREET":" ","SECT":" ","MAREA":"葯店口","LANE":" ","ALLEY":" ","HOUSE_NO":"３９號之２","E_COORD97":181906,"N_COORD97":2584752.1400000001,"ADDRESS":"葯店口３９號之２","OBJECTID":220740},"geometry":{"x":181906.00000000093,"y":2584752.1400000006}},{"attributes":{"ID":220742,"DIS_CODE":0,"TOWNNAME":"後壁區","LI":"平安里","LIN":"4鄰","STREET":" ","SECT":" ","MAREA":"葯店口","LANE":" ","ALLEY":" ","HOUSE_NO":"３９號","E_COORD97":181930.57000000001,"N_COORD97":2584740.4900000002,"ADDRESS":"葯店口３９號","OBJECTID":220741},"geometry":{"x":181930.57000000216,"y":2584740.4900000021}},{"attributes":{"ID":220743,"DIS_CODE":0,"TOWNNAME":"後壁區","LI":"平安里","LIN":"4鄰","STREET":" ","SECT":" ","MAREA":"葯店口","LANE":" ","ALLEY":" ","HOUSE_NO":"４６號之５","E_COORD97":182012.88,"N_COORD97":2584688.71,"ADDRESS":"葯店口４６號之５","OBJECTID":220742},"geometry":{"x":182012.88000000175,"y":2584688.7100000028}},{"attributes":{"ID":220744,"DIS_CODE":0,"TOWNNAME":"後壁區","LI":"平安里","LIN":"4鄰","STREET":" ","SECT":" ","MAREA":"葯店口","LANE":" ","ALLEY":" ","HOUSE_NO":"４６號之６","E_COORD97":182045.73000000001,"N_COORD97":2584700.5099999998,"ADDRESS":"葯店口４６號之６","OBJECTID":220743},"geometry":{"x":182045.73000000138,"y":2584700.5099999998}},{"attributes":{"ID":220745,"DIS_CODE":0,"TOWNNAME":"後壁區","LI":"平安里","LIN":"4鄰","STREET":" ","SECT":" ","MAREA":"葯店口","LANE":" ","ALLEY":" ","HOUSE_NO":"５０號之２","E_COORD97":181924.88,"N_COORD97":2584688.8999999999,"ADDRESS":"葯店口５０號之２","OBJECTID":220744},"geometry":{"x":181924.88000000082,"y":2584688.9000000004}},{"attributes":{"ID":220746,"DIS_CODE":0,"TOWNNAME":"後壁區","LI":"平安里","LIN":"4鄰","STREET":" ","SECT":" ","MAREA":"葯店口","LANE":" ","ALLEY":" ","HOUSE_NO":"５０號之３","E_COORD97":181928.03,"N_COORD97":2584711.5,"ADDRESS":"葯店口５０號之３","OBJECTID":220745},"geometry":{"x":181928.03000000119,"y":2584711.5}},{"attributes":{"ID":220747,"DIS_CODE":0,"TOWNNAME":"後壁區","LI":"平安里","LIN":"4鄰","STREET":" ","SECT":" ","MAREA":"葯店口","LANE":" ","ALLEY":" ","HOUSE_NO":"５１號之１","E_COORD97":181971.37,"N_COORD97":2584719.3300000001,"ADDRESS":"葯店口５１號之１","OBJECTID":220746},"geometry":{"x":181971.37000000104,"y":2584719.3300000001}},{"attributes":{"ID":220748,"DIS_CODE":0,"TOWNNAME":"後壁區","LI":"平安里","LIN":"4鄰","STREET":" ","SECT":" ","MAREA":"葯店口","LANE":" ","ALLEY":" ","HOUSE_NO":"５１號之２","E_COORD97":181968.26999999999,"N_COORD97":2584729.54,"ADDRESS":"葯店口５１號之２","OBJECTID":220747},"geometry":{"x":181968.27000000048,"y":2584729.540000001}},{"attributes":{"ID":220749,"DIS_CODE":0,"TOWNNAME":"後壁區","LI":"平安里","LIN":"4鄰","STREET":" ","SECT":" ","MAREA":"葯店口","LANE":" ","ALLEY":" ","HOUSE_NO":"５１號","E_COORD97":181964.85000000001,"N_COORD97":2584710.1000000001,"ADDRESS":"葯店口５１號","OBJECTID":220748},"geometry":{"x":181964.84999999963,"y":2584710.0999999996}},{"attributes":{"ID":220750,"DIS_CODE":0,"TOWNNAME":"後壁區","LI":"平安里","LIN":"4鄰","STREET":" ","SECT":" ","MAREA":"葯店口","LANE":" ","ALLEY":" ","HOUSE_NO":"５２號之１","E_COORD97":181965.92999999999,"N_COORD97":2584691.9300000002,"ADDRESS":"葯店口５２號之１","OBJECTID":220749},"geometry":{"x":181965.9299999997,"y":2584691.9300000034}},{"attributes":{"ID":220751,"DIS_CODE":0,"TOWNNAME":"永康區","LI":"王行里","LIN":"14鄰","STREET":"經華路","SECT":" ","MAREA":" ","LANE":" ","ALLEY":" ","HOUSE_NO":"２號","E_COORD97":175116.92000000001,"N_COORD97":2549380.1499999999,"ADDRESS":"經華路２號","OBJECTID":220750},"geometry":{"x":175116.92000000086,"y":2549380.1499999985}},{"attributes":{"ID":220752,"DIS_CODE":0,"TOWNNAME":"後壁區","LI":"平安里","LIN":"4鄰","STREET":" ","SECT":" ","MAREA":"葯店口","LANE":" ","ALLEY":" ","HOUSE_NO":"５２號之２","E_COORD97":181987.22,"N_COORD97":2584666.3199999998,"ADDRESS":"葯店口５２號之２","OBJECTID":220751},"geometry":{"x":181987.22000000067,"y":2584666.320000004}},{"attributes":{"ID":220753,"DIS_CODE":0,"TOWNNAME":"東區","LI":"崇明里","LIN":"23鄰","STREET":"中華東路","SECT":"三段","MAREA":" ","LANE":"３９９巷","ALLEY":"１６弄","HOUSE_NO":"１３號","E_COORD97":170012.06,"N_COORD97":2541490.3199999998,"ADDRESS":"中華東路三段３９９巷１６弄１３號","OBJECTID":220752},"geometry":{"x":170012.05999999959,"y":2541490.3200000022}},{"attributes":{"ID":220754,"DIS_CODE":0,"TOWNNAME":"東區","LI":"崇明里","LIN":"23鄰","STREET":"中華東路","SECT":"三段","MAREA":" ","LANE":"３９９巷","ALLEY":"１６弄","HOUSE_NO":"１５號","E_COORD97":170003.22,"N_COORD97":2541489.1000000001,"ADDRESS":"中華東路三段３９９巷１６弄１５號","OBJECTID":220753},"geometry":{"x":170003.21999999881,"y":2541489.0999999996}},{"attributes":{"ID":220755,"DIS_CODE":0,"TOWNNAME":"東區","LI":"崇明里","LIN":"23鄰","STREET":"中華東路","SECT":"三段","MAREA":" ","LANE":"３９９巷","ALLEY":"１６弄","HOUSE_NO":"１７號","E_COORD97":169995.42000000001,"N_COORD97":2541486.6800000002,"ADDRESS":"中華東路三段３９９巷１６弄１７號","OBJECTID":220754},"geometry":{"x":169995.42000000179,"y":2541486.6800000034}},{"attributes":{"ID":220756,"DIS_CODE":0,"TOWNNAME":"東區","LI":"崇明里","LIN":"23鄰","STREET":"中華東路","SECT":"三段","MAREA":" ","LANE":"３９９巷","ALLEY":"２０弄","HOUSE_NO":"８４號","E_COORD97":169804.35999999999,"N_COORD97":2541415.2200000002,"ADDRESS":"中華東路三段３９９巷２０弄８４號","OBJECTID":220755},"geometry":{"x":169804.36000000034,"y":2541415.2200000007}},{"attributes":{"ID":220757,"DIS_CODE":0,"TOWNNAME":"東區","LI":"崇明里","LIN":"23鄰","STREET":"中華東路","SECT":"三段","MAREA":" ","LANE":"３９９巷","ALLEY":"２０弄","HOUSE_NO":"８號","E_COORD97":170050.01999999999,"N_COORD97":2541463.2999999998,"ADDRESS":"中華東路三段３９９巷２０弄８號","OBJECTID":220756},"geometry":{"x":170050.01999999955,"y":2541463.3000000045}},{"attributes":{"ID":220758,"DIS_CODE":0,"TOWNNAME":"永康區","LI":"龍潭里","LIN":"23鄰","STREET":"自強路","SECT":" ","MAREA":" ","LANE":"７５０巷","ALLEY":"１８弄","HOUSE_NO":"１８號","E_COORD97":174433.54000000001,"N_COORD97":2548443.79,"ADDRESS":"自強路７５０巷１８弄１８號","OBJECTID":220757},"geometry":{"x":174433.54000000097,"y":2548443.790000001}},{"attributes":{"ID":220759,"DIS_CODE":0,"TOWNNAME":"永康區","LI":"復興里","LIN":"3鄰","STREET":"復興路","SECT":" ","MAREA":" ","LANE":"２７７巷","ALLEY":"７８弄","HOUSE_NO":"１３號","E_COORD97":172300.51000000001,"N_COORD97":2544114.27,"ADDRESS":"復興路２７７巷７８弄１３號","OBJECTID":220758},"geometry":{"x":172300.51000000071,"y":2544114.2700000014}},{"attributes":{"ID":220760,"DIS_CODE":0,"TOWNNAME":"東區","LI":"泉南里","LIN":"28鄰","STREET":"長榮路","SECT":"一段","MAREA":" ","LANE":" ","ALLEY":" ","HOUSE_NO":"９９號八樓","E_COORD97":169711.54999999999,"N_COORD97":2542644.0800000001,"ADDRESS":"長榮路一段９９號八樓","OBJECTID":220759},"geometry":{"x":169711.55000000075,"y":2542644.0800000038}},{"attributes":{"ID":220761,"DIS_CODE":0,"TOWNNAME":"東區","LI":"泉南里","LIN":"28鄰","STREET":"長榮路","SECT":"一段","MAREA":" ","LANE":" ","ALLEY":" ","HOUSE_NO":"９９號九樓","E_COORD97":169711.54999999999,"N_COORD97":2542644.0800000001,"ADDRESS":"長榮路一段９９號九樓","OBJECTID":220760},"geometry":{"x":169711.55000000075,"y":2542644.0800000038}},{"attributes":{"ID":220762,"DIS_CODE":0,"TOWNNAME":"東區","LI":"泉南里","LIN":"28鄰","STREET":"長榮路","SECT":"一段","MAREA":" ","LANE":" ","ALLEY":" ","HOUSE_NO":"９９號十樓","E_COORD97":169711.54999999999,"N_COORD97":2542644.0800000001,"ADDRESS":"長榮路一段９９號十樓","OBJECTID":220761},"geometry":{"x":169711.55000000075,"y":2542644.0800000038}},{"attributes":{"ID":220763,"DIS_CODE":0,"TOWNNAME":"後壁區","LI":"平安里","LIN":"4鄰","STREET":" ","SECT":" ","MAREA":"葯店口","LANE":" ","ALLEY":" ","HOUSE_NO":"５２號","E_COORD97":181966.31,"N_COORD97":2584650.5,"ADDRESS":"葯店口５２號","OBJECTID":220762},"geometry":{"x":181966.31000000052,"y":2584650.5}},{"attributes":{"ID":220764,"DIS_CODE":0,"TOWNNAME":"東區","LI":"泉南里","LIN":"28鄰","STREET":"長榮路","SECT":"一段","MAREA":" ","LANE":" ","ALLEY":" ","HOUSE_NO":"９９號十一樓","E_COORD97":169711.54999999999,"N_COORD97":2542644.0800000001,"ADDRESS":"長榮路一段９９號十一樓","OBJECTID":220763},"geometry":{"x":169711.55000000075,"y":2542644.0800000038}},{"attributes":{"ID":220765,"DIS_CODE":0,"TOWNNAME":"東區","LI":"泉南里","LIN":"28鄰","STREET":"長榮路","SECT":"一段","MAREA":" ","LANE":" ","ALLEY":" ","HOUSE_NO":"９９號十二樓","E_COORD97":169711.54999999999,"N_COORD97":2542644.0800000001,"ADDRESS":"長榮路一段９９號十二樓","OBJECTID":220764},"geometry":{"x":169711.55000000075,"y":2542644.0800000038}},{"attributes":{"ID":220766,"DIS_CODE":0,"TOWNNAME":"東區","LI":"泉南里","LIN":"28鄰","STREET":"長榮路","SECT":"一段","MAREA":" ","LANE":" ","ALLEY":" ","HOUSE_NO":"９９號十三樓","E_COORD97":169711.54999999999,"N_COORD97":2542644.0800000001,"ADDRESS":"長榮路一段９９號十三樓","OBJECTID":220765},"geometry":{"x":169711.55000000075,"y":2542644.0800000038}},{"attributes":{"ID":220767,"DIS_CODE":0,"TOWNNAME":"後壁區","LI":"平安里","LIN":"4鄰","STREET":" ","SECT":" ","MAREA":"葯店口","LANE":" ","ALLEY":" ","HOUSE_NO":"５３號","E_COORD97":182012.04000000001,"N_COORD97":2584612.1000000001,"ADDRESS":"葯店口５３號","OBJECTID":220766},"geometry":{"x":182012.0400000019,"y":2584612.0999999996}},{"attributes":{"ID":220768,"DIS_CODE":0,"TOWNNAME":"東區","LI":"泉南里","LIN":"28鄰","STREET":"長榮路","SECT":"一段","MAREA":" ","LANE":" ","ALLEY":" ","HOUSE_NO":"９９號十四樓","E_COORD97":169711.54999999999,"N_COORD97":2542644.0800000001,"ADDRESS":"長榮路一段９９號十四樓","OBJECTID":220767},"geometry":{"x":169711.55000000075,"y":2542644.0800000038}},{"attributes":{"ID":220769,"DIS_CODE":0,"TOWNNAME":"東區","LI":"泉南里","LIN":"28鄰","STREET":"長榮路","SECT":"一段","MAREA":" ","LANE":" ","ALLEY":" ","HOUSE_NO":"９９號十五樓","E_COORD97":169711.54999999999,"N_COORD97":2542644.0800000001,"ADDRESS":"長榮路一段９９號十五樓","OBJECTID":220768},"geometry":{"x":169711.55000000075,"y":2542644.0800000038}},{"attributes":{"ID":220770,"DIS_CODE":0,"TOWNNAME":"永康區","LI":"大橋里","LIN":"28鄰","STREET":"大橋一街","SECT":" ","MAREA":" ","LANE":" ","ALLEY":" ","HOUSE_NO":"２１０號五樓之２","E_COORD97":170925.70000000001,"N_COORD97":2546403.29,"ADDRESS":"大橋一街２１０號五樓之２","OBJECTID":220769},"geometry":{"x":170925.70000000019,"y":2546403.2899999991}},{"attributes":{"ID":220771,"DIS_CODE":0,"TOWNNAME":"永康區","LI":"大橋里","LIN":"28鄰","STREET":"大橋一街","SECT":" ","MAREA":" ","LANE":" ","ALLEY":" ","HOUSE_NO":"２１０號七樓之２","E_COORD97":170925.70000000001,"N_COORD97":2546403.29,"ADDRESS":"大橋一街２１０號七樓之２","OBJECTID":220770},"geometry":{"x":170925.70000000019,"y":2546403.2899999991}},{"attributes":{"ID":220772,"DIS_CODE":0,"TOWNNAME":"後壁區","LI":"平安里","LIN":"4鄰","STREET":" ","SECT":" ","MAREA":"葯店口","LANE":" ","ALLEY":" ","HOUSE_NO":"５４號","E_COORD97":182045.64000000001,"N_COORD97":2584661.25,"ADDRESS":"葯店口５４號","OBJECTID":220771},"geometry":{"x":182045.63999999966,"y":2584661.2500000019}},{"attributes":{"ID":220773,"DIS_CODE":0,"TOWNNAME":"後壁區","LI":"平安里","LIN":"1鄰","STREET":" ","SECT":" ","MAREA":"葯店口","LANE":" ","ALLEY":" ","HOUSE_NO":"５號","E_COORD97":181867.63,"N_COORD97":2585032.2400000002,"ADDRESS":"葯店口５號","OBJECTID":220772},"geometry":{"x":181867.63000000082,"y":2585032.2400000002}},{"attributes":{"ID":220774,"DIS_CODE":0,"TOWNNAME":"後壁區","LI":"平安里","LIN":"8鄰","STREET":" ","SECT":" ","MAREA":"葯店口","LANE":" ","ALLEY":" ","HOUSE_NO":"７９號","E_COORD97":181866.63,"N_COORD97":2584831.3399999999,"ADDRESS":"葯店口７９號","OBJECTID":220773},"geometry":{"x":181866.62999999989,"y":2584831.3399999999}},{"attributes":{"ID":220775,"DIS_CODE":0,"TOWNNAME":"後壁區","LI":"平安里","LIN":"8鄰","STREET":" ","SECT":" ","MAREA":"葯店口","LANE":" ","ALLEY":" ","HOUSE_NO":"８０號之３","E_COORD97":181844.60999999999,"N_COORD97":2584795.6499999999,"ADDRESS":"葯店口８０號之３","OBJECTID":220774},"geometry":{"x":181844.61000000127,"y":2584795.6500000004}},{"attributes":{"ID":220776,"DIS_CODE":0,"TOWNNAME":"後壁區","LI":"平安里","LIN":"8鄰","STREET":" ","SECT":" ","MAREA":"葯店口","LANE":" ","ALLEY":" ","HOUSE_NO":"８０號之６","E_COORD97":181841.14000000001,"N_COORD97":2584824.1099999999,"ADDRESS":"葯店口８０號之６","OBJECTID":220775},"geometry":{"x":181841.13999999966,"y":2584824.1100000013}},{"attributes":{"ID":220777,"DIS_CODE":0,"TOWNNAME":"後壁區","LI":"長安里","LIN":" ","STREET":" ","SECT":" ","MAREA":"中寮","LANE":" ","ALLEY":" ","HOUSE_NO":"２２號","E_COORD97":184483.01999999999,"N_COORD97":2581291.75,"ADDRESS":"中寮２２號","OBJECTID":220776},"geometry":{"x":184483.01999999862,"y":2581291.75}},{"attributes":{"ID":220778,"DIS_CODE":0,"TOWNNAME":"後壁區","LI":"烏樹里","LIN":"4鄰","STREET":" ","SECT":" ","MAREA":"烏樹林","LANE":" ","ALLEY":" ","HOUSE_NO":"３９號","E_COORD97":186233.5,"N_COORD97":2581582.02,"ADDRESS":"烏樹林３９號","OBJECTID":220777},"geometry":{"x":186233.50000000093,"y":2581582.0199999977}},{"attributes":{"ID":220779,"DIS_CODE":0,"TOWNNAME":"後壁區","LI":"菁寮里","LIN":"4鄰","STREET":" ","SECT":" ","MAREA":"菁寮","LANE":" ","ALLEY":" ","HOUSE_NO":"４５號","E_COORD97":182092.64000000001,"N_COORD97":2586371.0299999998,"ADDRESS":"菁寮４５號","OBJECTID":220778},"geometry":{"x":182092.6400000006,"y":2586371.0299999993}},{"attributes":{"ID":220780,"DIS_CODE":0,"TOWNNAME":"後壁區","LI":"菁豊里","LIN":" ","STREET":" ","SECT":" ","MAREA":"崩埤","LANE":" ","ALLEY":" ","HOUSE_NO":"１２號","E_COORD97":185022,"N_COORD97":2587018.4700000002,"ADDRESS":"崩埤１２號","OBJECTID":220779},"geometry":{"x":185022,"y":2587018.4700000044}},{"attributes":{"ID":220781,"DIS_CODE":0,"TOWNNAME":"七股區","LI":"七股里","LIN":"13鄰","STREET":" ","SECT":" ","MAREA":"七股","LANE":" ","ALLEY":" ","HOUSE_NO":"１１６號之１０","E_COORD97":160815.85999999999,"N_COORD97":2559525.1099999999,"ADDRESS":"七股１１６號之１０","OBJECTID":220780},"geometry":{"x":160815.86000000127,"y":2559525.1100000013}},{"attributes":{"ID":220782,"DIS_CODE":0,"TOWNNAME":"七股區","LI":"七股里","LIN":"13鄰","STREET":" ","SECT":" ","MAREA":"七股","LANE":" ","ALLEY":" ","HOUSE_NO":"１１６號之１１","E_COORD97":160816.56,"N_COORD97":2559529.21,"ADDRESS":"七股１１６號之１１","OBJECTID":220781},"geometry":{"x":160816.56000000052,"y":2559529.2100000028}},{"attributes":{"ID":220783,"DIS_CODE":0,"TOWNNAME":"佳里區","LI":"子龍里","LIN":"4鄰","STREET":" ","SECT":" ","MAREA":"子良廟","LANE":" ","ALLEY":" ","HOUSE_NO":"４３號","E_COORD97":168948.57999999999,"N_COORD97":2563905.4100000001,"ADDRESS":"子良廟４３號","OBJECTID":220782},"geometry":{"x":168948.58000000194,"y":2563905.4100000001}},{"attributes":{"ID":220784,"DIS_CODE":0,"TOWNNAME":"佳里區","LI":"子龍里","LIN":"4鄰","STREET":" ","SECT":" ","MAREA":"子良廟","LANE":" ","ALLEY":" ","HOUSE_NO":"４４號","E_COORD97":168909.09,"N_COORD97":2563930.1400000001,"ADDRESS":"子良廟４４號","OBJECTID":220783},"geometry":{"x":168909.08999999985,"y":2563930.1400000025}},{"attributes":{"ID":220785,"DIS_CODE":0,"TOWNNAME":"永康區","LI":"復華里","LIN":"36鄰","STREET":"復華七街","SECT":" ","MAREA":" ","LANE":"３９巷","ALLEY":"９弄","HOUSE_NO":"１０號","E_COORD97":172581.85000000001,"N_COORD97":2546020.1400000001,"ADDRESS":"復華七街３９巷９弄１０號","OBJECTID":220784},"geometry":{"x":172581.84999999963,"y":2546020.1400000006}},{"attributes":{"ID":220786,"DIS_CODE":0,"TOWNNAME":"永康區","LI":"網寮里","LIN":"18鄰","STREET":"永二街","SECT":" ","MAREA":" ","LANE":"１９３巷","ALLEY":"２弄","HOUSE_NO":"９號","E_COORD97":173455.07000000001,"N_COORD97":2546288.5,"ADDRESS":"永二街１９３巷２弄９號","OBJECTID":220785},"geometry":{"x":173455.07000000123,"y":2546288.5}},{"attributes":{"ID":220787,"DIS_CODE":0,"TOWNNAME":"永康區","LI":"復華里","LIN":"1鄰","STREET":"復國二路","SECT":" ","MAREA":" ","LANE":" ","ALLEY":" ","HOUSE_NO":"２２４號","E_COORD97":172977.70000000001,"N_COORD97":2545892.0299999998,"ADDRESS":"復國二路２２４號","OBJECTID":220786},"geometry":{"x":172977.70000000112,"y":2545892.0300000012}},{"attributes":{"ID":220788,"DIS_CODE":0,"TOWNNAME":"永康區","LI":"復國里","LIN":"21鄰","STREET":"復國一路","SECT":" ","MAREA":" ","LANE":" ","ALLEY":" ","HOUSE_NO":"３５３號","E_COORD97":172755.51999999999,"N_COORD97":2545815.8199999998,"ADDRESS":"復國一路３５３號","OBJECTID":220787},"geometry":{"x":172755.51999999955,"y":2545815.820000004}},{"attributes":{"ID":220789,"DIS_CODE":0,"TOWNNAME":"永康區","LI":"復國里","LIN":"28鄰","STREET":"復國一路","SECT":" ","MAREA":" ","LANE":" ","ALLEY":" ","HOUSE_NO":"２２７號","E_COORD97":172727.32000000001,"N_COORD97":2545390.0299999998,"ADDRESS":"復國一路２２７號","OBJECTID":220788},"geometry":{"x":172727.31999999937,"y":2545390.0300000012}},{"attributes":{"ID":220790,"DIS_CODE":0,"TOWNNAME":"永康區","LI":"復國里","LIN":"28鄰","STREET":"復國一路","SECT":" ","MAREA":" ","LANE":" ","ALLEY":" ","HOUSE_NO":"２３５號","E_COORD97":172728.62,"N_COORD97":2545407.0299999998,"ADDRESS":"復國一路２３５號","OBJECTID":220789},"geometry":{"x":172728.62000000197,"y":2545407.0300000012}},{"attributes":{"ID":220791,"DIS_CODE":0,"TOWNNAME":"永康區","LI":"復國里","LIN":"28鄰","STREET":"復國一路","SECT":" ","MAREA":" ","LANE":" ","ALLEY":" ","HOUSE_NO":"１８９號","E_COORD97":172712.34,"N_COORD97":2545249.7400000002,"ADDRESS":"復國一路１８９號","OBJECTID":220790},"geometry":{"x":172712.34000000078,"y":2545249.7400000002}},{"attributes":{"ID":220792,"DIS_CODE":0,"TOWNNAME":"永康區","LI":"復國里","LIN":"28鄰","STREET":"復國一路","SECT":" ","MAREA":" ","LANE":" ","ALLEY":" ","HOUSE_NO":"１９５號","E_COORD97":172713.29999999999,"N_COORD97":2545262.4900000002,"ADDRESS":"復國一路１９５號","OBJECTID":220791},"geometry":{"x":172713.29999999981,"y":2545262.4900000021}},{"attributes":{"ID":220793,"DIS_CODE":0,"TOWNNAME":"永康區","LI":"網寮里","LIN":"17鄰","STREET":"永興路","SECT":" ","MAREA":" ","LANE":"４２７巷","ALLEY":"２弄","HOUSE_NO":"２９號","E_COORD97":173220.03,"N_COORD97":2546828.4500000002,"ADDRESS":"永興路４２７巷２弄２９號","OBJECTID":220792},"geometry":{"x":173220.03000000119,"y":2546828.4500000011}},{"attributes":{"ID":220794,"DIS_CODE":0,"TOWNNAME":"永康區","LI":"大橋里","LIN":"28鄰","STREET":"中華路","SECT":" ","MAREA":" ","LANE":" ","ALLEY":" ","HOUSE_NO":"６７８號之１","E_COORD97":171042.17999999999,"N_COORD97":2546210.71,"ADDRESS":"中華路６７８號之１","OBJECTID":220793},"geometry":{"x":171042.1799999997,"y":2546210.7100000046}},{"attributes":{"ID":220795,"DIS_CODE":0,"TOWNNAME":"永康區","LI":"復興里","LIN":"30鄰","STREET":"復興路","SECT":" ","MAREA":" ","LANE":"３５６巷","ALLEY":"８０弄","HOUSE_NO":"２００號","E_COORD97":172570.70999999999,"N_COORD97":2544616.02,"ADDRESS":"復興路３５６巷８０弄２００號","OBJECTID":220794},"geometry":{"x":172570.71000000089,"y":2544616.0199999996}},{"attributes":{"ID":220796,"DIS_CODE":0,"TOWNNAME":"永康區","LI":"龍潭里","LIN":"23鄰","STREET":"自強路","SECT":" ","MAREA":" ","LANE":"７５０巷","ALLEY":"１８弄","HOUSE_NO":"６號","E_COORD97":174443.39000000001,"N_COORD97":2548470.54,"ADDRESS":"自強路７５０巷１８弄６號","OBJECTID":220795},"geometry":{"x":174443.38999999873,"y":2548470.5399999991}},{"attributes":{"ID":220797,"DIS_CODE":0,"TOWNNAME":"永康區","LI":"\u25A0行里","LIN":"23鄰","STREET":"中正南路","SECT":" ","MAREA":" ","LANE":"５９２巷","ALLEY":"３８弄","HOUSE_NO":"３６號","E_COORD97":171674.26000000001,"N_COORD97":2548611.71,"ADDRESS":"中正南路５９２巷３８弄３６號","OBJECTID":220796},"geometry":{"x":171674.25999999978,"y":2548611.7100000028}},{"attributes":{"ID":220798,"DIS_CODE":0,"TOWNNAME":"永康區","LI":"\u25A0行里","LIN":"23鄰","STREET":"中正南路","SECT":" ","MAREA":" ","LANE":"５９２巷","ALLEY":"３８弄","HOUSE_NO":"２８號","E_COORD97":171663.20000000001,"N_COORD97":2548600.71,"ADDRESS":"中正南路５９２巷３８弄２８號","OBJECTID":220797},"geometry":{"x":171663.20000000019,"y":2548600.7100000046}},{"attributes":{"ID":220799,"DIS_CODE":0,"TOWNNAME":"永康區","LI":"\u25A0行里","LIN":"23鄰","STREET":"中正南路","SECT":" ","MAREA":" ","LANE":"５９２巷","ALLEY":"３８弄","HOUSE_NO":"２２號","E_COORD97":171654.17999999999,"N_COORD97":2548591.96,"ADDRESS":"中正南路５９２巷３８弄２２號","OBJECTID":220798},"geometry":{"x":171654.1799999997,"y":2548591.9600000009}},{"attributes":{"ID":220800,"DIS_CODE":0,"TOWNNAME":"永康區","LI":"復國里","LIN":"22鄰","STREET":"復華六街","SECT":" ","MAREA":" ","LANE":"９３巷","ALLEY":"１１弄","HOUSE_NO":"１９號","E_COORD97":172665.76000000001,"N_COORD97":2545785.8500000001,"ADDRESS":"復華六街９３巷１１弄１９號","OBJECTID":220799},"geometry":{"x":172665.75999999978,"y":2545785.8500000015}},{"attributes":{"ID":220801,"DIS_CODE":0,"TOWNNAME":"永康區","LI":"復興里","LIN":"3鄰","STREET":"復興路","SECT":" ","MAREA":" ","LANE":"２７７巷","ALLEY":"７８弄","HOUSE_NO":"４８號","E_COORD97":172288.14999999999,"N_COORD97":2544154.0299999998,"ADDRESS":"復興路２７７巷７８弄４８號","OBJECTID":220800},"geometry":{"x":172288.1500000013,"y":2544154.0299999993}}]}