{"displayFieldName":"TOWNNAME","fieldAliases":{"ID":"ID","DIS_CODE":"DIS_CODE","TOWNNAME":"TOWNNAME","LI":"LI","LIN":"LIN","STREET":"STREET","SECT":"SECT","MAREA":"MAREA","LANE":"LANE","ALLEY":"ALLEY","HOUSE_NO":"HOUSE_NO","E_COORD97":"E_COORD97","N_COORD97":"N_COORD97","ADDRESS":"ADDRESS","OBJECTID":"OBJECTID"},"geometryType":"esriGeometryPoint","spatialReference":{"wkid":102443,"latestWkid":3826},"fields":[{"name":"ID","type":"esriFieldTypeDouble","alias":"ID"},{"name":"DIS_CODE","type":"esriFieldTypeInteger","alias":"DIS_CODE"},{"name":"TOWNNAME","type":"esriFieldTypeString","alias":"TOWNNAME","length":8},{"name":"LI","type":"esriFieldTypeString","alias":"LI","length":8},{"name":"LIN","type":"esriFieldTypeString","alias":"LIN","length":12},{"name":"STREET","type":"esriFieldTypeString","alias":"STREET","length":20},{"name":"SECT","type":"esriFieldTypeString","alias":"SECT","length":8},{"name":"MAREA","type":"esriFieldTypeString","alias":"MAREA","length":12},{"name":"LANE","type":"esriFieldTypeString","alias":"LANE","length":10},{"name":"ALLEY","type":"esriFieldTypeString","alias":"ALLEY","length":10},{"name":"HOUSE_NO","type":"esriFieldTypeString","alias":"HOUSE_NO","length":20},{"name":"E_COORD97","type":"esriFieldTypeDouble","alias":"E_COORD97"},{"name":"N_COORD97","type":"esriFieldTypeDouble","alias":"N_COORD97"},{"name":"ADDRESS","type":"esriFieldTypeString","alias":"ADDRESS","length":50},{"name":"OBJECTID","type":"esriFieldTypeOID","alias":"OBJECTID"}],"features":[{"attributes":{"ID":567428,"DIS_CODE":0,"TOWNNAME":"佳里區","LI":"建南里","LIN":"37鄰","STREET":"安南路","SECT":" ","MAREA":" ","LANE":" ","ALLEY":" ","HOUSE_NO":"１６７號","E_COORD97":165652.5,"N_COORD97":2561324.23,"ADDRESS":"安南路１６７號","OBJECTID":567401},"geometry":{"x":165652.50000000093,"y":2561324.2300000042}},{"attributes":{"ID":567429,"DIS_CODE":0,"TOWNNAME":"佳里區","LI":"建南里","LIN":"37鄰","STREET":"安南路","SECT":" ","MAREA":" ","LANE":" ","ALLEY":" ","HOUSE_NO":"１６８號","E_COORD97":165628.20000000001,"N_COORD97":2561363.2999999998,"ADDRESS":"安南路１６８號","OBJECTID":567402},"geometry":{"x":165628.20000000019,"y":2561363.3000000007}},{"attributes":{"ID":567430,"DIS_CODE":0,"TOWNNAME":"佳里區","LI":"建南里","LIN":"37鄰","STREET":"安南路","SECT":" ","MAREA":" ","LANE":" ","ALLEY":" ","HOUSE_NO":"１６９號","E_COORD97":165648.16,"N_COORD97":2561324.5800000001,"ADDRESS":"安南路１６９號","OBJECTID":567403},"geometry":{"x":165648.16000000108,"y":2561324.5800000001}},{"attributes":{"ID":567431,"DIS_CODE":0,"TOWNNAME":"佳里區","LI":"建南里","LIN":"37鄰","STREET":"安南路","SECT":" ","MAREA":" ","LANE":" ","ALLEY":" ","HOUSE_NO":"１７１號","E_COORD97":165643.62,"N_COORD97":2561324.6000000001,"ADDRESS":"安南路１７１號","OBJECTID":567404},"geometry":{"x":165643.62000000011,"y":2561324.6000000015}},{"attributes":{"ID":567432,"DIS_CODE":0,"TOWNNAME":"佳里區","LI":"建南里","LIN":"37鄰","STREET":"安南路","SECT":" ","MAREA":" ","LANE":" ","ALLEY":" ","HOUSE_NO":"１７３號","E_COORD97":165638.89000000001,"N_COORD97":2561324.8700000001,"ADDRESS":"安南路１７３號","OBJECTID":567405},"geometry":{"x":165638.8900000006,"y":2561324.8700000029}},{"attributes":{"ID":567433,"DIS_CODE":0,"TOWNNAME":"佳里區","LI":"建南里","LIN":"37鄰","STREET":"安南路","SECT":" ","MAREA":" ","LANE":" ","ALLEY":" ","HOUSE_NO":"１７５號","E_COORD97":165634.94,"N_COORD97":2561324.73,"ADDRESS":"安南路１７５號","OBJECTID":567406},"geometry":{"x":165634.94000000041,"y":2561324.7300000023}},{"attributes":{"ID":567434,"DIS_CODE":0,"TOWNNAME":"佳里區","LI":"建南里","LIN":"37鄰","STREET":"安南路","SECT":" ","MAREA":" ","LANE":" ","ALLEY":" ","HOUSE_NO":"１７７號","E_COORD97":165630.60000000001,"N_COORD97":2561324.8599999999,"ADDRESS":"安南路１７７號","OBJECTID":567407},"geometry":{"x":165630.60000000056,"y":2561324.8599999994}},{"attributes":{"ID":567435,"DIS_CODE":0,"TOWNNAME":"佳里區","LI":"建南里","LIN":"37鄰","STREET":"安南路","SECT":" ","MAREA":" ","LANE":" ","ALLEY":" ","HOUSE_NO":"１７９號","E_COORD97":165625.17000000001,"N_COORD97":2561324.71,"ADDRESS":"安南路１７９號","OBJECTID":567408},"geometry":{"x":165625.17000000179,"y":2561324.709999999}},{"attributes":{"ID":567436,"DIS_CODE":0,"TOWNNAME":"佳里區","LI":"建南里","LIN":"37鄰","STREET":"安南路","SECT":" ","MAREA":" ","LANE":" ","ALLEY":" ","HOUSE_NO":"１９１號","E_COORD97":165591.29000000001,"N_COORD97":2561324.6400000001,"ADDRESS":"安南路１９１號","OBJECTID":567409},"geometry":{"x":165591.29000000097,"y":2561324.6400000006}},{"attributes":{"ID":567437,"DIS_CODE":0,"TOWNNAME":"佳里區","LI":"建南里","LIN":"37鄰","STREET":"安南路","SECT":" ","MAREA":" ","LANE":" ","ALLEY":" ","HOUSE_NO":"１９３號","E_COORD97":165597.20999999999,"N_COORD97":2561324.1200000001,"ADDRESS":"安南路１９３號","OBJECTID":567410},"geometry":{"x":165597.20999999996,"y":2561324.120000001}},{"attributes":{"ID":567438,"DIS_CODE":0,"TOWNNAME":"佳里區","LI":"建南里","LIN":"37鄰","STREET":"安南路","SECT":" ","MAREA":" ","LANE":" ","ALLEY":" ","HOUSE_NO":"１９５號","E_COORD97":165602.42999999999,"N_COORD97":2561324.1099999999,"ADDRESS":"安南路１９５號","OBJECTID":567411},"geometry":{"x":165602.4299999997,"y":2561324.1100000031}},{"attributes":{"ID":567439,"DIS_CODE":0,"TOWNNAME":"佳里區","LI":"建南里","LIN":"37鄰","STREET":"安南路","SECT":" ","MAREA":" ","LANE":" ","ALLEY":" ","HOUSE_NO":"１９７號","E_COORD97":165585.88,"N_COORD97":2561325.3999999999,"ADDRESS":"安南路１９７號","OBJECTID":567412},"geometry":{"x":165585.87999999989,"y":2561325.4000000004}},{"attributes":{"ID":567440,"DIS_CODE":0,"TOWNNAME":"佳里區","LI":"建南里","LIN":"37鄰","STREET":"安南路","SECT":" ","MAREA":" ","LANE":" ","ALLEY":" ","HOUSE_NO":"１９９號","E_COORD97":165581.53,"N_COORD97":2561325.21,"ADDRESS":"安南路１９９號","OBJECTID":567413},"geometry":{"x":165581.53000000119,"y":2561325.2100000028}},{"attributes":{"ID":567441,"DIS_CODE":0,"TOWNNAME":"佳里區","LI":"建南里","LIN":"37鄰","STREET":"安南路","SECT":" ","MAREA":" ","LANE":" ","ALLEY":" ","HOUSE_NO":"２０１號","E_COORD97":165576.95000000001,"N_COORD97":2561324.5099999998,"ADDRESS":"安南路２０１號","OBJECTID":567414},"geometry":{"x":165576.95000000112,"y":2561324.5099999998}},{"attributes":{"ID":567442,"DIS_CODE":0,"TOWNNAME":"佳里區","LI":"建南里","LIN":"37鄰","STREET":"祥和三街","SECT":" ","MAREA":" ","LANE":" ","ALLEY":" ","HOUSE_NO":"２５８號","E_COORD97":165545.69,"N_COORD97":2561247.2599999998,"ADDRESS":"祥和三街２５８號","OBJECTID":567415},"geometry":{"x":165545.69000000041,"y":2561247.2599999998}},{"attributes":{"ID":567443,"DIS_CODE":0,"TOWNNAME":"佳里區","LI":"建南里","LIN":"37鄰","STREET":"祥和三街","SECT":" ","MAREA":" ","LANE":" ","ALLEY":" ","HOUSE_NO":"２６０號","E_COORD97":165529.45999999999,"N_COORD97":2561246.3100000001,"ADDRESS":"祥和三街２６０號","OBJECTID":567416},"geometry":{"x":165529.45999999996,"y":2561246.3100000024}},{"attributes":{"ID":567444,"DIS_CODE":0,"TOWNNAME":"佳里區","LI":"建南里","LIN":"37鄰","STREET":"祥和三街","SECT":" ","MAREA":" ","LANE":" ","ALLEY":" ","HOUSE_NO":"２６２號","E_COORD97":165523.89000000001,"N_COORD97":2561246.2599999998,"ADDRESS":"祥和三街２６２號","OBJECTID":567417},"geometry":{"x":165523.8900000006,"y":2561246.2600000016}},{"attributes":{"ID":567445,"DIS_CODE":0,"TOWNNAME":"佳里區","LI":"建南里","LIN":"37鄰","STREET":"祥和三街","SECT":" ","MAREA":" ","LANE":" ","ALLEY":" ","HOUSE_NO":"２６４號","E_COORD97":165519.81,"N_COORD97":2561246.9500000002,"ADDRESS":"祥和三街２６４號","OBJECTID":567418},"geometry":{"x":165519.80999999959,"y":2561246.950000003}},{"attributes":{"ID":567446,"DIS_CODE":0,"TOWNNAME":"佳里區","LI":"建南里","LIN":"37鄰","STREET":"祥和三街","SECT":" ","MAREA":" ","LANE":" ","ALLEY":" ","HOUSE_NO":"２６６號","E_COORD97":165516.32000000001,"N_COORD97":2561247.4300000002,"ADDRESS":"祥和三街２６６號","OBJECTID":567419},"geometry":{"x":165516.32000000123,"y":2561247.4300000034}},{"attributes":{"ID":567447,"DIS_CODE":0,"TOWNNAME":"佳里區","LI":"建南里","LIN":"37鄰","STREET":"祥和三街","SECT":" ","MAREA":" ","LANE":" ","ALLEY":" ","HOUSE_NO":"２６８號","E_COORD97":165511.85000000001,"N_COORD97":2561247.8599999999,"ADDRESS":"祥和三街２６８號","OBJECTID":567420},"geometry":{"x":165511.85000000149,"y":2561247.8600000031}},{"attributes":{"ID":567448,"DIS_CODE":0,"TOWNNAME":"佳里區","LI":"建南里","LIN":"37鄰","STREET":"祥和三街","SECT":" ","MAREA":" ","LANE":" ","ALLEY":" ","HOUSE_NO":"２７０號","E_COORD97":165507.89000000001,"N_COORD97":2561248.4900000002,"ADDRESS":"祥和三街２７０號","OBJECTID":567421},"geometry":{"x":165507.88999999966,"y":2561248.4900000021}},{"attributes":{"ID":567449,"DIS_CODE":0,"TOWNNAME":"佳里區","LI":"建南里","LIN":"37鄰","STREET":"祥和三街","SECT":" ","MAREA":" ","LANE":" ","ALLEY":" ","HOUSE_NO":"２７２號","E_COORD97":165504.39999999999,"N_COORD97":2561248.3900000001,"ADDRESS":"祥和三街２７２號","OBJECTID":567422},"geometry":{"x":165504.4000000013,"y":2561248.3900000006}},{"attributes":{"ID":567450,"DIS_CODE":0,"TOWNNAME":"佳里區","LI":"建南里","LIN":"37鄰","STREET":"祥和三街","SECT":" ","MAREA":" ","LANE":" ","ALLEY":" ","HOUSE_NO":"２７４號","E_COORD97":165498,"N_COORD97":2561248.8100000001,"ADDRESS":"祥和三街２７４號","OBJECTID":567423},"geometry":{"x":165498.00000000093,"y":2561248.8100000005}},{"attributes":{"ID":567451,"DIS_CODE":0,"TOWNNAME":"佳里區","LI":"建南里","LIN":"37鄰","STREET":"祥和三街","SECT":" ","MAREA":" ","LANE":" ","ALLEY":" ","HOUSE_NO":"２８０號","E_COORD97":165487.26000000001,"N_COORD97":2561249.8199999998,"ADDRESS":"祥和三街２８０號","OBJECTID":567424},"geometry":{"x":165487.26000000164,"y":2561249.8200000022}},{"attributes":{"ID":567452,"DIS_CODE":0,"TOWNNAME":"佳里區","LI":"建南里","LIN":"37鄰","STREET":"祥和三街","SECT":" ","MAREA":" ","LANE":" ","ALLEY":" ","HOUSE_NO":"２８２號","E_COORD97":165482.82999999999,"N_COORD97":2561249.9300000002,"ADDRESS":"祥和三街２８２號","OBJECTID":567425},"geometry":{"x":165482.83000000007,"y":2561249.9299999997}},{"attributes":{"ID":567453,"DIS_CODE":0,"TOWNNAME":"佳里區","LI":"建南里","LIN":"37鄰","STREET":"祥和三街","SECT":" ","MAREA":" ","LANE":" ","ALLEY":" ","HOUSE_NO":"２８４號","E_COORD97":165478.20000000001,"N_COORD97":2561249.9900000002,"ADDRESS":"祥和三街２８４號","OBJECTID":567426},"geometry":{"x":165478.20000000112,"y":2561249.9900000002}},{"attributes":{"ID":567454,"DIS_CODE":0,"TOWNNAME":"佳里區","LI":"建南里","LIN":"37鄰","STREET":"祥和三街","SECT":" ","MAREA":" ","LANE":" ","ALLEY":" ","HOUSE_NO":"２８６號","E_COORD97":165473.91,"N_COORD97":2561250.9300000002,"ADDRESS":"祥和三街２８６號","OBJECTID":567427},"geometry":{"x":165473.91000000015,"y":2561250.9300000034}},{"attributes":{"ID":567455,"DIS_CODE":0,"TOWNNAME":"佳里區","LI":"建南里","LIN":"37鄰","STREET":"祥和三街","SECT":" ","MAREA":" ","LANE":" ","ALLEY":" ","HOUSE_NO":"２８８號","E_COORD97":165468.69,"N_COORD97":2561251.4100000001,"ADDRESS":"祥和三街２８８號","OBJECTID":567428},"geometry":{"x":165468.69000000134,"y":2561251.4100000039}},{"attributes":{"ID":567456,"DIS_CODE":0,"TOWNNAME":"佳里區","LI":"建南里","LIN":"37鄰","STREET":"祥和三街","SECT":" ","MAREA":" ","LANE":" ","ALLEY":" ","HOUSE_NO":"２９０號","E_COORD97":165464.26999999999,"N_COORD97":2561251.3300000001,"ADDRESS":"祥和三街２９０號","OBJECTID":567429},"geometry":{"x":165464.26999999955,"y":2561251.3300000001}},{"attributes":{"ID":567457,"DIS_CODE":0,"TOWNNAME":"佳里區","LI":"建南里","LIN":"37鄰","STREET":"祥和三街","SECT":" ","MAREA":" ","LANE":" ","ALLEY":" ","HOUSE_NO":"２９２號","E_COORD97":165459.53,"N_COORD97":2561251.73,"ADDRESS":"祥和三街２９２號","OBJECTID":567430},"geometry":{"x":165459.53000000119,"y":2561251.7300000004}},{"attributes":{"ID":567458,"DIS_CODE":0,"TOWNNAME":"佳里區","LI":"建南里","LIN":"37鄰","STREET":"祥和三街","SECT":" ","MAREA":" ","LANE":" ","ALLEY":" ","HOUSE_NO":"２９４號","E_COORD97":165455.07000000001,"N_COORD97":2561251.7200000002,"ADDRESS":"祥和三街２９４號","OBJECTID":567431},"geometry":{"x":165455.07000000216,"y":2561251.7200000007}},{"attributes":{"ID":567459,"DIS_CODE":0,"TOWNNAME":"佳里區","LI":"建南里","LIN":"37鄰","STREET":"祥和三街","SECT":" ","MAREA":" ","LANE":" ","ALLEY":" ","HOUSE_NO":"２９６號","E_COORD97":165450.64999999999,"N_COORD97":2561252.7400000002,"ADDRESS":"祥和三街２９６號","OBJECTID":567432},"geometry":{"x":165450.65000000037,"y":2561252.7400000039}},{"attributes":{"ID":567460,"DIS_CODE":0,"TOWNNAME":"佳里區","LI":"建南里","LIN":"37鄰","STREET":"祥和三街","SECT":" ","MAREA":" ","LANE":" ","ALLEY":" ","HOUSE_NO":"２９８號","E_COORD97":165446.5,"N_COORD97":2561252.75,"ADDRESS":"祥和三街２９８號","OBJECTID":567433},"geometry":{"x":165446.5,"y":2561252.7500000019}},{"attributes":{"ID":567461,"DIS_CODE":0,"TOWNNAME":"佳里區","LI":"建南里","LIN":"37鄰","STREET":"祥和三街","SECT":" ","MAREA":" ","LANE":" ","ALLEY":" ","HOUSE_NO":"３００號","E_COORD97":165442.25,"N_COORD97":2561252.9900000002,"ADDRESS":"祥和三街３００號","OBJECTID":567434},"geometry":{"x":165442.25000000093,"y":2561252.9900000002}},{"attributes":{"ID":567462,"DIS_CODE":0,"TOWNNAME":"佳里區","LI":"建南里","LIN":"37鄰","STREET":"祥和三街","SECT":" ","MAREA":" ","LANE":" ","ALLEY":" ","HOUSE_NO":"３０２號","E_COORD97":165437.5,"N_COORD97":2561253.4399999999,"ADDRESS":"祥和三街３０２號","OBJECTID":567435},"geometry":{"x":165437.5,"y":2561253.4399999995}},{"attributes":{"ID":567463,"DIS_CODE":0,"TOWNNAME":"永康區","LI":"埔園里","LIN":"37鄰","STREET":"龍中街","SECT":" ","MAREA":" ","LANE":" ","ALLEY":" ","HOUSE_NO":"４６１號","E_COORD97":174388.85999999999,"N_COORD97":2548212.1200000001,"ADDRESS":"龍中街４６１號","OBJECTID":567436},"geometry":{"x":174388.86000000127,"y":2548212.1200000029}},{"attributes":{"ID":567464,"DIS_CODE":0,"TOWNNAME":"永康區","LI":"埔園里","LIN":"37鄰","STREET":"龍中街","SECT":" ","MAREA":" ","LANE":" ","ALLEY":" ","HOUSE_NO":"４０１號之３","E_COORD97":174408.57999999999,"N_COORD97":2548065.1899999999,"ADDRESS":"龍中街４０１號之３","OBJECTID":567437},"geometry":{"x":174408.58000000007,"y":2548065.1900000013}},{"attributes":{"ID":567465,"DIS_CODE":0,"TOWNNAME":"永康區","LI":"埔園里","LIN":"37鄰","STREET":"龍中街","SECT":" ","MAREA":" ","LANE":" ","ALLEY":" ","HOUSE_NO":"４２３號","E_COORD97":174400.23999999999,"N_COORD97":2548117.3799999999,"ADDRESS":"龍中街４２３號","OBJECTID":567438},"geometry":{"x":174400.24000000022,"y":2548117.3800000008}},{"attributes":{"ID":567466,"DIS_CODE":0,"TOWNNAME":"永康區","LI":"埔園里","LIN":"37鄰","STREET":"龍國街","SECT":" ","MAREA":" ","LANE":" ","ALLEY":" ","HOUSE_NO":"１２５號","E_COORD97":174293.10000000001,"N_COORD97":2548072.8999999999,"ADDRESS":"龍國街１２５號","OBJECTID":567439},"geometry":{"x":174293.10000000056,"y":2548072.9000000004}},{"attributes":{"ID":567467,"DIS_CODE":0,"TOWNNAME":"永康區","LI":"埔園里","LIN":"37鄰","STREET":"龍中街","SECT":" ","MAREA":" ","LANE":" ","ALLEY":" ","HOUSE_NO":"４４５號","E_COORD97":174393.82999999999,"N_COORD97":2548173.8700000001,"ADDRESS":"龍中街４４５號","OBJECTID":567440},"geometry":{"x":174393.83000000101,"y":2548173.8700000029}},{"attributes":{"ID":567468,"DIS_CODE":0,"TOWNNAME":"永康區","LI":"埔園里","LIN":"37鄰","STREET":"龍國街","SECT":" ","MAREA":" ","LANE":" ","ALLEY":" ","HOUSE_NO":"９１號","E_COORD97":174191.57999999999,"N_COORD97":2548088.9300000002,"ADDRESS":"龍國街９１號","OBJECTID":567441},"geometry":{"x":174191.58000000007,"y":2548088.9299999997}},{"attributes":{"ID":567469,"DIS_CODE":0,"TOWNNAME":"永康區","LI":"埔園里","LIN":"37鄰","STREET":"永大路","SECT":"三段","MAREA":" ","LANE":" ","ALLEY":" ","HOUSE_NO":"３５８號","E_COORD97":174147.26999999999,"N_COORD97":2548180.7799999998,"ADDRESS":"永大路三段３５８號","OBJECTID":567442},"geometry":{"x":174147.26999999955,"y":2548180.7799999993}},{"attributes":{"ID":567470,"DIS_CODE":0,"TOWNNAME":"永康區","LI":"埔園里","LIN":"37鄰","STREET":"龍中街","SECT":" ","MAREA":" ","LANE":" ","ALLEY":" ","HOUSE_NO":"４５３號","E_COORD97":174391.5,"N_COORD97":2548190.6200000001,"ADDRESS":"龍中街４５３號","OBJECTID":567443},"geometry":{"x":174391.5,"y":2548190.620000001}},{"attributes":{"ID":567471,"DIS_CODE":0,"TOWNNAME":"永康區","LI":"埔園里","LIN":"37鄰","STREET":"龍中街","SECT":" ","MAREA":" ","LANE":" ","ALLEY":" ","HOUSE_NO":"４１７號","E_COORD97":174401.64999999999,"N_COORD97":2548105.1400000001,"ADDRESS":"龍中街４１７號","OBJECTID":567444},"geometry":{"x":174401.65000000037,"y":2548105.1400000006}},{"attributes":{"ID":567472,"DIS_CODE":0,"TOWNNAME":"永康區","LI":"埔園里","LIN":"37鄰","STREET":"龍中街","SECT":" ","MAREA":" ","LANE":" ","ALLEY":" ","HOUSE_NO":"４２７號","E_COORD97":174399.13,"N_COORD97":2548125.8799999999,"ADDRESS":"龍中街４２７號","OBJECTID":567445},"geometry":{"x":174399.12999999989,"y":2548125.879999999}},{"attributes":{"ID":567473,"DIS_CODE":0,"TOWNNAME":"永康區","LI":"埔園里","LIN":"37鄰","STREET":"龍中街","SECT":" ","MAREA":" ","LANE":" ","ALLEY":" ","HOUSE_NO":"４２１號","E_COORD97":174400.73999999999,"N_COORD97":2548113.3900000001,"ADDRESS":"龍中街４２１號","OBJECTID":567446},"geometry":{"x":174400.74000000022,"y":2548113.3900000006}},{"attributes":{"ID":567474,"DIS_CODE":0,"TOWNNAME":"永康區","LI":"埔園里","LIN":"37鄰","STREET":"龍中街","SECT":" ","MAREA":" ","LANE":" ","ALLEY":" ","HOUSE_NO":"４０９號","E_COORD97":174403.53,"N_COORD97":2548088.1400000001,"ADDRESS":"龍中街４０９號","OBJECTID":567447},"geometry":{"x":174403.53000000026,"y":2548088.1400000006}},{"attributes":{"ID":567475,"DIS_CODE":0,"TOWNNAME":"永康區","LI":"埔園里","LIN":"37鄰","STREET":"龍埔街","SECT":" ","MAREA":" ","LANE":" ","ALLEY":" ","HOUSE_NO":"２１５號","E_COORD97":174330.81,"N_COORD97":2548266.9700000002,"ADDRESS":"龍埔街２１５號","OBJECTID":567448},"geometry":{"x":174330.81000000052,"y":2548266.9700000025}},{"attributes":{"ID":567476,"DIS_CODE":0,"TOWNNAME":"永康區","LI":"埔園里","LIN":"37鄰","STREET":"龍中街","SECT":" ","MAREA":" ","LANE":" ","ALLEY":" ","HOUSE_NO":"４１３號","E_COORD97":174402.73000000001,"N_COORD97":2548096.3900000001,"ADDRESS":"龍中街４１３號","OBJECTID":567449},"geometry":{"x":174402.73000000045,"y":2548096.3900000006}},{"attributes":{"ID":567477,"DIS_CODE":0,"TOWNNAME":"永康區","LI":"埔園里","LIN":"37鄰","STREET":"龍中街","SECT":" ","MAREA":" ","LANE":" ","ALLEY":" ","HOUSE_NO":"４０７號","E_COORD97":174404.23999999999,"N_COORD97":2548084.1400000001,"ADDRESS":"龍中街４０７號","OBJECTID":567450},"geometry":{"x":174404.24000000022,"y":2548084.1400000006}},{"attributes":{"ID":567478,"DIS_CODE":0,"TOWNNAME":"永康區","LI":"埔園里","LIN":"37鄰","STREET":"龍中街","SECT":" ","MAREA":" ","LANE":" ","ALLEY":" ","HOUSE_NO":"４０３號之３","E_COORD97":174407.48000000001,"N_COORD97":2548073.1899999999,"ADDRESS":"龍中街４０３號之３","OBJECTID":567451},"geometry":{"x":174407.48000000045,"y":2548073.1899999995}},{"attributes":{"ID":567479,"DIS_CODE":0,"TOWNNAME":"永康區","LI":"埔園里","LIN":"37鄰","STREET":"龍中街","SECT":" ","MAREA":" ","LANE":" ","ALLEY":" ","HOUSE_NO":"４１５號","E_COORD97":174402.23999999999,"N_COORD97":2548100.8900000001,"ADDRESS":"龍中街４１５號","OBJECTID":567452},"geometry":{"x":174402.24000000022,"y":2548100.8900000043}},{"attributes":{"ID":567480,"DIS_CODE":0,"TOWNNAME":"永康區","LI":"埔園里","LIN":"37鄰","STREET":"龍中街","SECT":" ","MAREA":" ","LANE":" ","ALLEY":" ","HOUSE_NO":"４２９號","E_COORD97":174398.73000000001,"N_COORD97":2548130.1299999999,"ADDRESS":"龍中街４２９號","OBJECTID":567453},"geometry":{"x":174398.73000000138,"y":2548130.129999999}},{"attributes":{"ID":567481,"DIS_CODE":0,"TOWNNAME":"永康區","LI":"埔園里","LIN":"37鄰","STREET":"龍中街","SECT":" ","MAREA":" ","LANE":" ","ALLEY":" ","HOUSE_NO":"４０３號之２","E_COORD97":174407.51999999999,"N_COORD97":2548073.1899999999,"ADDRESS":"龍中街４０３號之２","OBJECTID":567454},"geometry":{"x":174407.52000000048,"y":2548073.1899999995}},{"attributes":{"ID":567482,"DIS_CODE":0,"TOWNNAME":"永康區","LI":"埔園里","LIN":"37鄰","STREET":"龍中街","SECT":" ","MAREA":" ","LANE":" ","ALLEY":" ","HOUSE_NO":"４０５號","E_COORD97":174404.67000000001,"N_COORD97":2548079.8900000001,"ADDRESS":"龍中街４０５號","OBJECTID":567455},"geometry":{"x":174404.67000000179,"y":2548079.8900000006}},{"attributes":{"ID":567483,"DIS_CODE":0,"TOWNNAME":"永康區","LI":"埔園里","LIN":"37鄰","STREET":"龍中街","SECT":" ","MAREA":" ","LANE":" ","ALLEY":" ","HOUSE_NO":"４３９號","E_COORD97":174396.44,"N_COORD97":2548151.6299999999,"ADDRESS":"龍中街４３９號","OBJECTID":567456},"geometry":{"x":174396.44000000227,"y":2548151.6300000027}},{"attributes":{"ID":567484,"DIS_CODE":0,"TOWNNAME":"永康區","LI":"埔園里","LIN":"37鄰","STREET":"龍國街","SECT":" ","MAREA":" ","LANE":" ","ALLEY":" ","HOUSE_NO":"１８９號","E_COORD97":174392.57000000001,"N_COORD97":2548060.2999999998,"ADDRESS":"龍國街１８９號","OBJECTID":567457},"geometry":{"x":174392.57000000123,"y":2548060.3000000007}},{"attributes":{"ID":567485,"DIS_CODE":0,"TOWNNAME":"永康區","LI":"埔園里","LIN":"37鄰","STREET":"龍國街","SECT":" ","MAREA":" ","LANE":" ","ALLEY":" ","HOUSE_NO":"１３５號","E_COORD97":174318.5,"N_COORD97":2548072.04,"ADDRESS":"龍國街１３５號","OBJECTID":567458},"geometry":{"x":174318.50000000093,"y":2548072.040000001}},{"attributes":{"ID":567486,"DIS_CODE":0,"TOWNNAME":"永康區","LI":"埔園里","LIN":"37鄰","STREET":"龍國街","SECT":" ","MAREA":" ","LANE":" ","ALLEY":" ","HOUSE_NO":"７７號","E_COORD97":174150.87,"N_COORD97":2548098.98,"ADDRESS":"龍國街７７號","OBJECTID":567459},"geometry":{"x":174150.87000000197,"y":2548098.9800000004}},{"attributes":{"ID":567487,"DIS_CODE":0,"TOWNNAME":"永康區","LI":"埔園里","LIN":"37鄰","STREET":"龍國街","SECT":" ","MAREA":" ","LANE":" ","ALLEY":" ","HOUSE_NO":"１７７號","E_COORD97":174383.95000000001,"N_COORD97":2548073.0800000001,"ADDRESS":"龍國街１７７號","OBJECTID":567460},"geometry":{"x":174383.95000000019,"y":2548073.0800000019}},{"attributes":{"ID":567488,"DIS_CODE":0,"TOWNNAME":"東區","LI":"大智里","LIN":"37鄰","STREET":"崇善十五街","SECT":" ","MAREA":" ","LANE":" ","ALLEY":" ","HOUSE_NO":"５之１號","E_COORD97":171449.14999999999,"N_COORD97":2540564.4100000001,"ADDRESS":"崇善十五街５之１號","OBJECTID":567461},"geometry":{"x":171449.1500000013,"y":2540564.410000002}},{"attributes":{"ID":567489,"DIS_CODE":0,"TOWNNAME":"東區","LI":"大智里","LIN":"37鄰","STREET":"崇善十五街","SECT":" ","MAREA":" ","LANE":" ","ALLEY":" ","HOUSE_NO":"５號","E_COORD97":171445.22,"N_COORD97":2540567.6800000002,"ADDRESS":"崇善十五街５號","OBJECTID":567462},"geometry":{"x":171445.21999999974,"y":2540567.6799999978}},{"attributes":{"ID":567490,"DIS_CODE":0,"TOWNNAME":"東區","LI":"大智里","LIN":"37鄰","STREET":"崇善十五街","SECT":" ","MAREA":" ","LANE":" ","ALLEY":" ","HOUSE_NO":"５之１０號","E_COORD97":171473.38,"N_COORD97":2540530.0299999998,"ADDRESS":"崇善十五街５之１０號","OBJECTID":567463},"geometry":{"x":171473.37999999989,"y":2540530.0299999993}},{"attributes":{"ID":567491,"DIS_CODE":0,"TOWNNAME":"東區","LI":"大智里","LIN":"37鄰","STREET":"崇善十五街","SECT":" ","MAREA":" ","LANE":" ","ALLEY":" ","HOUSE_NO":"５之１１號","E_COORD97":171476,"N_COORD97":2540526.75,"ADDRESS":"崇善十五街５之１１號","OBJECTID":567464},"geometry":{"x":171476,"y":2540526.75}},{"attributes":{"ID":567492,"DIS_CODE":0,"TOWNNAME":"東區","LI":"大智里","LIN":"37鄰","STREET":"崇善十五街","SECT":" ","MAREA":" ","LANE":" ","ALLEY":" ","HOUSE_NO":"５之１２號","E_COORD97":171477.31,"N_COORD97":2540523.1499999999,"ADDRESS":"崇善十五街５之１２號","OBJECTID":567465},"geometry":{"x":171477.30999999866,"y":2540523.1500000004}},{"attributes":{"ID":567493,"DIS_CODE":0,"TOWNNAME":"東區","LI":"大智里","LIN":"37鄰","STREET":"崇善十五街","SECT":" ","MAREA":" ","LANE":" ","ALLEY":" ","HOUSE_NO":"５之１３號","E_COORD97":171479.26999999999,"N_COORD97":2540518.8900000001,"ADDRESS":"崇善十五街５之１３號","OBJECTID":567466},"geometry":{"x":171479.27000000142,"y":2540518.8900000006}},{"attributes":{"ID":567494,"DIS_CODE":0,"TOWNNAME":"東區","LI":"大智里","LIN":"37鄰","STREET":"崇善十五街","SECT":" ","MAREA":" ","LANE":" ","ALLEY":" ","HOUSE_NO":"５之１５號","E_COORD97":171483.20000000001,"N_COORD97":2540513.98,"ADDRESS":"崇善十五街５之１５號","OBJECTID":567467},"geometry":{"x":171483.20000000019,"y":2540513.9800000023}},{"attributes":{"ID":567495,"DIS_CODE":0,"TOWNNAME":"東區","LI":"大智里","LIN":"37鄰","STREET":"崇善十五街","SECT":" ","MAREA":" ","LANE":" ","ALLEY":" ","HOUSE_NO":"５之１６號","E_COORD97":171487.13,"N_COORD97":2540510.0499999998,"ADDRESS":"崇善十五街５之１６號","OBJECTID":567468},"geometry":{"x":171487.12999999989,"y":2540510.0500000026}},{"attributes":{"ID":567496,"DIS_CODE":0,"TOWNNAME":"東區","LI":"大智里","LIN":"37鄰","STREET":"崇善十五街","SECT":" ","MAREA":" ","LANE":" ","ALLEY":" ","HOUSE_NO":"５之１７號","E_COORD97":171490.20999999999,"N_COORD97":2540503.1000000001,"ADDRESS":"崇善十五街５之１７號","OBJECTID":567469},"geometry":{"x":171490.20999999903,"y":2540503.0999999996}},{"attributes":{"ID":567497,"DIS_CODE":0,"TOWNNAME":"東區","LI":"大智里","LIN":"37鄰","STREET":"崇善十五街","SECT":" ","MAREA":" ","LANE":" ","ALLEY":" ","HOUSE_NO":"５之１８號","E_COORD97":171495.39999999999,"N_COORD97":2540499.7999999998,"ADDRESS":"崇善十五街５之１８號","OBJECTID":567470},"geometry":{"x":171495.4000000013,"y":2540499.8000000007}},{"attributes":{"ID":567498,"DIS_CODE":0,"TOWNNAME":"東區","LI":"大智里","LIN":"37鄰","STREET":"崇善十五街","SECT":" ","MAREA":" ","LANE":" ","ALLEY":" ","HOUSE_NO":"５之３２號","E_COORD97":171540.19,"N_COORD97":2540440.3799999999,"ADDRESS":"崇善十五街５之３２號","OBJECTID":567471},"geometry":{"x":171540.19000000227,"y":2540440.3800000027}},{"attributes":{"ID":567499,"DIS_CODE":0,"TOWNNAME":"東區","LI":"大智里","LIN":"37鄰","STREET":"崇善十五街","SECT":" ","MAREA":" ","LANE":" ","ALLEY":" ","HOUSE_NO":"５之２３號","E_COORD97":171516.62,"N_COORD97":2540474.3300000001,"ADDRESS":"崇善十五街５之２３號","OBJECTID":567472},"geometry":{"x":171516.62000000197,"y":2540474.3300000001}},{"attributes":{"ID":567500,"DIS_CODE":0,"TOWNNAME":"東區","LI":"大智里","LIN":"37鄰","STREET":"崇善十五街","SECT":" ","MAREA":" ","LANE":" ","ALLEY":" ","HOUSE_NO":"５之１９號","E_COORD97":171499.17000000001,"N_COORD97":2540493.6699999999,"ADDRESS":"崇善十五街５之１９號","OBJECTID":567473},"geometry":{"x":171499.17000000179,"y":2540493.6700000037}},{"attributes":{"ID":567501,"DIS_CODE":0,"TOWNNAME":"東區","LI":"大智里","LIN":"37鄰","STREET":"崇善十五街","SECT":" ","MAREA":" ","LANE":" ","ALLEY":" ","HOUSE_NO":"５之２０號","E_COORD97":171502.94,"N_COORD97":2540488.48,"ADDRESS":"崇善十五街５之２０號","OBJECTID":567474},"geometry":{"x":171502.94000000227,"y":2540488.4799999986}},{"attributes":{"ID":567502,"DIS_CODE":0,"TOWNNAME":"東區","LI":"大智里","LIN":"37鄰","STREET":"崇善十五街","SECT":" ","MAREA":" ","LANE":" ","ALLEY":" ","HOUSE_NO":"５之２１號","E_COORD97":171508.13,"N_COORD97":2540484.71,"ADDRESS":"崇善十五街５之２１號","OBJECTID":567475},"geometry":{"x":171508.13000000082,"y":2540484.7100000028}},{"attributes":{"ID":567503,"DIS_CODE":0,"TOWNNAME":"東區","LI":"大智里","LIN":"37鄰","STREET":"崇善十五街","SECT":" ","MAREA":" ","LANE":" ","ALLEY":" ","HOUSE_NO":"５之２２號","E_COORD97":171512.84,"N_COORD97":2540479.52,"ADDRESS":"崇善十五街５之２２號","OBJECTID":567476},"geometry":{"x":171512.83999999985,"y":2540479.5199999996}},{"attributes":{"ID":567504,"DIS_CODE":0,"TOWNNAME":"東區","LI":"大智里","LIN":"37鄰","STREET":"崇善十五街","SECT":" ","MAREA":" ","LANE":" ","ALLEY":" ","HOUSE_NO":"５之２５號","E_COORD97":171522.26999999999,"N_COORD97":2540470.5600000001,"ADDRESS":"崇善十五街５之２５號","OBJECTID":567477},"geometry":{"x":171522.27000000048,"y":2540470.5600000005}},{"attributes":{"ID":567505,"DIS_CODE":0,"TOWNNAME":"東區","LI":"大智里","LIN":"37鄰","STREET":"崇善十五街","SECT":" ","MAREA":" ","LANE":" ","ALLEY":" ","HOUSE_NO":"５之２６號","E_COORD97":171524.16,"N_COORD97":2540465.3700000001,"ADDRESS":"崇善十五街５之２６號","OBJECTID":567478},"geometry":{"x":171524.16000000015,"y":2540465.370000001}},{"attributes":{"ID":567506,"DIS_CODE":0,"TOWNNAME":"東區","LI":"大智里","LIN":"37鄰","STREET":"崇善十五街","SECT":" ","MAREA":" ","LANE":" ","ALLEY":" ","HOUSE_NO":"５之２７號","E_COORD97":171527.92999999999,"N_COORD97":2540460.6600000001,"ADDRESS":"崇善十五街５之２７號","OBJECTID":567479},"geometry":{"x":171527.93000000063,"y":2540460.660000002}},{"attributes":{"ID":567507,"DIS_CODE":0,"TOWNNAME":"東區","LI":"大智里","LIN":"37鄰","STREET":"崇善十五街","SECT":" ","MAREA":" ","LANE":" ","ALLEY":" ","HOUSE_NO":"５之２８號","E_COORD97":171530.76000000001,"N_COORD97":2540454.5299999998,"ADDRESS":"崇善十五街５之２８號","OBJECTID":567480},"geometry":{"x":171530.76000000071,"y":2540454.5300000012}},{"attributes":{"ID":567508,"DIS_CODE":0,"TOWNNAME":"東區","LI":"大智里","LIN":"37鄰","STREET":"崇善十五街","SECT":" ","MAREA":" ","LANE":" ","ALLEY":" ","HOUSE_NO":"５之２９號","E_COORD97":171533.59,"N_COORD97":2540451.7000000002,"ADDRESS":"崇善十五街５之２９號","OBJECTID":567481},"geometry":{"x":171533.59000000078,"y":2540451.6999999993}},{"attributes":{"ID":567509,"DIS_CODE":0,"TOWNNAME":"東區","LI":"大智里","LIN":"37鄰","STREET":"崇善十五街","SECT":" ","MAREA":" ","LANE":" ","ALLEY":" ","HOUSE_NO":"５之３０號","E_COORD97":171536.42000000001,"N_COORD97":2540447.9300000002,"ADDRESS":"崇善十五街５之３０號","OBJECTID":567482},"geometry":{"x":171536.42000000179,"y":2540447.9300000016}},{"attributes":{"ID":567510,"DIS_CODE":0,"TOWNNAME":"東區","LI":"大智里","LIN":"37鄰","STREET":"崇善十五街","SECT":" ","MAREA":" ","LANE":" ","ALLEY":" ","HOUSE_NO":"５之３１號","E_COORD97":171538.31,"N_COORD97":2540445.1000000001,"ADDRESS":"崇善十五街５之３１號","OBJECTID":567483},"geometry":{"x":171538.30999999866,"y":2540445.0999999996}},{"attributes":{"ID":567511,"DIS_CODE":0,"TOWNNAME":"東區","LI":"大智里","LIN":"37鄰","STREET":"崇善十五街","SECT":" ","MAREA":" ","LANE":" ","ALLEY":" ","HOUSE_NO":"５之２號","E_COORD97":171452.01999999999,"N_COORD97":2540561.0899999999,"ADDRESS":"崇善十五街５之２號","OBJECTID":567484},"geometry":{"x":171452.01999999955,"y":2540561.0899999999}},{"attributes":{"ID":567512,"DIS_CODE":0,"TOWNNAME":"東區","LI":"大智里","LIN":"37鄰","STREET":"崇善十五街","SECT":" ","MAREA":" ","LANE":" ","ALLEY":" ","HOUSE_NO":"５之３號","E_COORD97":171455.79000000001,"N_COORD97":2540558.7400000002,"ADDRESS":"崇善十五街５之３號","OBJECTID":567485},"geometry":{"x":171455.79000000004,"y":2540558.7400000021}},{"attributes":{"ID":567513,"DIS_CODE":0,"TOWNNAME":"東區","LI":"大智里","LIN":"37鄰","STREET":"崇善十五街","SECT":" ","MAREA":" ","LANE":" ","ALLEY":" ","HOUSE_NO":"５之５號","E_COORD97":171458.62,"N_COORD97":2540554.96,"ADDRESS":"崇善十五街５之５號","OBJECTID":567486},"geometry":{"x":171458.62000000011,"y":2540554.9600000028}},{"attributes":{"ID":567514,"DIS_CODE":0,"TOWNNAME":"東區","LI":"大智里","LIN":"37鄰","STREET":"崇善十五街","SECT":" ","MAREA":" ","LANE":" ","ALLEY":" ","HOUSE_NO":"５之６號","E_COORD97":171462.39000000001,"N_COORD97":2540552.6099999999,"ADDRESS":"崇善十五街５之６號","OBJECTID":567487},"geometry":{"x":171462.3900000006,"y":2540552.6100000013}},{"attributes":{"ID":567515,"DIS_CODE":0,"TOWNNAME":"東區","LI":"大智里","LIN":"37鄰","STREET":"崇善十五街","SECT":" ","MAREA":" ","LANE":" ","ALLEY":" ","HOUSE_NO":"５之７號","E_COORD97":171464.75,"N_COORD97":2540548.8300000001,"ADDRESS":"崇善十五街５之７號","OBJECTID":567488},"geometry":{"x":171464.75000000186,"y":2540548.8300000001}},{"attributes":{"ID":567516,"DIS_CODE":0,"TOWNNAME":"東區","LI":"大智里","LIN":"37鄰","STREET":"崇善十五街","SECT":" ","MAREA":" ","LANE":" ","ALLEY":" ","HOUSE_NO":"５之８號","E_COORD97":171466.63,"N_COORD97":2540544.1200000001,"ADDRESS":"崇善十五街５之８號","OBJECTID":567489},"geometry":{"x":171466.62999999989,"y":2540544.1200000029}},{"attributes":{"ID":567517,"DIS_CODE":0,"TOWNNAME":"東區","LI":"大智里","LIN":"37鄰","STREET":"崇善十五街","SECT":" ","MAREA":" ","LANE":" ","ALLEY":" ","HOUSE_NO":"５之９號","E_COORD97":171470.41,"N_COORD97":2540538.9300000002,"ADDRESS":"崇善十五街５之９號","OBJECTID":567490},"geometry":{"x":171470.40999999922,"y":2540538.9299999978}},{"attributes":{"ID":567518,"DIS_CODE":0,"TOWNNAME":"永康區","LI":"埔園里","LIN":"37鄰","STREET":"龍國街","SECT":" ","MAREA":" ","LANE":" ","ALLEY":" ","HOUSE_NO":"１３３號","E_COORD97":174313.20000000001,"N_COORD97":2548072.79,"ADDRESS":"龍國街１３３號","OBJECTID":567491},"geometry":{"x":174313.20000000205,"y":2548072.7900000028}},{"attributes":{"ID":567519,"DIS_CODE":0,"TOWNNAME":"永康區","LI":"埔園里","LIN":"37鄰","STREET":"龍埔街","SECT":" ","MAREA":" ","LANE":" ","ALLEY":" ","HOUSE_NO":"２１３號","E_COORD97":174334.73999999999,"N_COORD97":2548267,"ADDRESS":"龍埔街２１３號","OBJECTID":567492},"geometry":{"x":174334.74000000022,"y":2548267.0000000019}},{"attributes":{"ID":567520,"DIS_CODE":0,"TOWNNAME":"永康區","LI":"埔園里","LIN":"37鄰","STREET":"龍國街","SECT":" ","MAREA":" ","LANE":" ","ALLEY":" ","HOUSE_NO":"１８７號","E_COORD97":174382.81,"N_COORD97":2548097.0800000001,"ADDRESS":"龍國街１８７號","OBJECTID":567493},"geometry":{"x":174382.80999999959,"y":2548097.0800000019}},{"attributes":{"ID":567521,"DIS_CODE":0,"TOWNNAME":"永康區","LI":"西灣里","LIN":"37鄰","STREET":"永華路","SECT":" ","MAREA":" ","LANE":" ","ALLEY":" ","HOUSE_NO":"３１８號","E_COORD97":174100.42000000001,"N_COORD97":2545668.0800000001,"ADDRESS":"永華路３１８號","OBJECTID":567494},"geometry":{"x":174100.41999999993,"y":2545668.0800000038}},{"attributes":{"ID":567522,"DIS_CODE":0,"TOWNNAME":"永康區","LI":"西灣里","LIN":"37鄰","STREET":"永華路","SECT":" ","MAREA":" ","LANE":" ","ALLEY":" ","HOUSE_NO":"２５２號","E_COORD97":174106.38,"N_COORD97":2545606.0899999999,"ADDRESS":"永華路２５２號","OBJECTID":567495},"geometry":{"x":174106.37999999896,"y":2545606.0899999999}},{"attributes":{"ID":567523,"DIS_CODE":0,"TOWNNAME":"永康區","LI":"西灣里","LIN":"37鄰","STREET":"永華路","SECT":" ","MAREA":" ","LANE":" ","ALLEY":" ","HOUSE_NO":"２５６號","E_COORD97":174105.81,"N_COORD97":2545610.3399999999,"ADDRESS":"永華路２５６號","OBJECTID":567496},"geometry":{"x":174105.80999999959,"y":2545610.3399999999}},{"attributes":{"ID":567524,"DIS_CODE":0,"TOWNNAME":"永康區","LI":"西灣里","LIN":"37鄰","STREET":"永華路","SECT":" ","MAREA":" ","LANE":" ","ALLEY":" ","HOUSE_NO":"３２０號","E_COORD97":174100.23000000001,"N_COORD97":2545672.5800000001,"ADDRESS":"永華路３２０號","OBJECTID":567497},"geometry":{"x":174100.23000000138,"y":2545672.5800000019}},{"attributes":{"ID":567525,"DIS_CODE":0,"TOWNNAME":"東區","LI":"虎尾里","LIN":"34鄰","STREET":"東成街","SECT":" ","MAREA":" ","LANE":" ","ALLEY":" ","HOUSE_NO":"１０１號","E_COORD97":171581.26999999999,"N_COORD97":2542311.0099999998,"ADDRESS":"東成街１０１號","OBJECTID":567498},"geometry":{"x":171581.27000000048,"y":2542311.0099999998}},{"attributes":{"ID":567526,"DIS_CODE":0,"TOWNNAME":"永康區","LI":"西灣里","LIN":"37鄰","STREET":"永華路","SECT":" ","MAREA":" ","LANE":" ","ALLEY":" ","HOUSE_NO":"３０６號","E_COORD97":174103.76000000001,"N_COORD97":2545647.8300000001,"ADDRESS":"永華路３０６號","OBJECTID":567499},"geometry":{"x":174103.76000000164,"y":2545647.8300000001}},{"attributes":{"ID":567527,"DIS_CODE":0,"TOWNNAME":"永康區","LI":"西灣里","LIN":"37鄰","STREET":"永華路","SECT":" ","MAREA":" ","LANE":" ","ALLEY":" ","HOUSE_NO":"２５０號","E_COORD97":174106.63,"N_COORD97":2545601.3399999999,"ADDRESS":"永華路２５０號","OBJECTID":567500},"geometry":{"x":174106.63000000082,"y":2545601.3399999999}},{"attributes":{"ID":567528,"DIS_CODE":0,"TOWNNAME":"永康區","LI":"西灣里","LIN":"37鄰","STREET":"永華路","SECT":" ","MAREA":" ","LANE":" ","ALLEY":" ","HOUSE_NO":"２９８號","E_COORD97":174105.64999999999,"N_COORD97":2545633.0800000001,"ADDRESS":"永華路２９８號","OBJECTID":567501},"geometry":{"x":174105.6500000013,"y":2545633.0800000001}},{"attributes":{"ID":567529,"DIS_CODE":0,"TOWNNAME":"仁德區","LI":"仁德里","LIN":"37鄰","STREET":"中山路","SECT":" ","MAREA":" ","LANE":" ","ALLEY":" ","HOUSE_NO":"７７０號","E_COORD97":172649.37,"N_COORD97":2541546.75,"ADDRESS":"中山路７７０號","OBJECTID":567502},"geometry":{"x":172649.37000000104,"y":2541546.75}},{"attributes":{"ID":567530,"DIS_CODE":0,"TOWNNAME":"東區","LI":"泉南里","LIN":"1鄰","STREET":"東門路","SECT":"一段","MAREA":" ","LANE":" ","ALLEY":" ","HOUSE_NO":"１８６號","E_COORD97":169614.91,"N_COORD97":2543105.5299999998,"ADDRESS":"東門路一段１８６號","OBJECTID":567503},"geometry":{"x":169614.91000000108,"y":2543105.5300000012}},{"attributes":{"ID":567531,"DIS_CODE":0,"TOWNNAME":"東區","LI":"泉南里","LIN":"1鄰","STREET":"東門路","SECT":"一段","MAREA":" ","LANE":" ","ALLEY":" ","HOUSE_NO":"１９８號","E_COORD97":169647.32999999999,"N_COORD97":2543095.1200000001,"ADDRESS":"東門路一段１９８號","OBJECTID":567504},"geometry":{"x":169647.33000000101,"y":2543095.120000001}},{"attributes":{"ID":567532,"DIS_CODE":0,"TOWNNAME":"東區","LI":"泉南里","LIN":"1鄰","STREET":"東門路","SECT":"一段","MAREA":" ","LANE":" ","ALLEY":" ","HOUSE_NO":"２００號","E_COORD97":169651.98999999999,"N_COORD97":2543093.1299999999,"ADDRESS":"東門路一段２００號","OBJECTID":567505},"geometry":{"x":169651.99000000022,"y":2543093.1299999971}},{"attributes":{"ID":567533,"DIS_CODE":0,"TOWNNAME":"東區","LI":"泉南里","LIN":"1鄰","STREET":"東門路","SECT":"一段","MAREA":" ","LANE":" ","ALLEY":" ","HOUSE_NO":"２０２號","E_COORD97":169654.66,"N_COORD97":2543092.1899999999,"ADDRESS":"東門路一段２０２號","OBJECTID":567506},"geometry":{"x":169654.66000000015,"y":2543092.1899999995}},{"attributes":{"ID":567534,"DIS_CODE":0,"TOWNNAME":"東區","LI":"泉南里","LIN":"1鄰","STREET":"東門路","SECT":"一段","MAREA":" ","LANE":" ","ALLEY":" ","HOUSE_NO":"２０４號","E_COORD97":169659.57999999999,"N_COORD97":2543090.73,"ADDRESS":"東門路一段２０４號","OBJECTID":567507},"geometry":{"x":169659.58000000101,"y":2543090.7300000042}},{"attributes":{"ID":567535,"DIS_CODE":0,"TOWNNAME":"東區","LI":"泉南里","LIN":"1鄰","STREET":"東門路","SECT":"一段","MAREA":" ","LANE":" ","ALLEY":" ","HOUSE_NO":"２０６號","E_COORD97":169663.98000000001,"N_COORD97":2543088.4700000002,"ADDRESS":"東門路一段２０６號","OBJECTID":567508},"geometry":{"x":169663.98000000138,"y":2543088.4700000007}},{"attributes":{"ID":567536,"DIS_CODE":0,"TOWNNAME":"東區","LI":"泉南里","LIN":"1鄰","STREET":"東門路","SECT":"一段","MAREA":" ","LANE":" ","ALLEY":" ","HOUSE_NO":"２１０號","E_COORD97":169672.37,"N_COORD97":2543086.0699999998,"ADDRESS":"東門路一段２１０號","OBJECTID":567509},"geometry":{"x":169672.37000000104,"y":2543086.0700000022}},{"attributes":{"ID":567537,"DIS_CODE":0,"TOWNNAME":"永康區","LI":"西灣里","LIN":"37鄰","STREET":"永華路","SECT":" ","MAREA":" ","LANE":" ","ALLEY":" ","HOUSE_NO":"２５８號","E_COORD97":174105.17000000001,"N_COORD97":2545615.0899999999,"ADDRESS":"永華路２５８號","OBJECTID":567510},"geometry":{"x":174105.17000000086,"y":2545615.0900000017}},{"attributes":{"ID":567538,"DIS_CODE":0,"TOWNNAME":"永康區","LI":"西灣里","LIN":"37鄰","STREET":"永華路","SECT":" ","MAREA":" ","LANE":" ","ALLEY":" ","HOUSE_NO":"２３０號","E_COORD97":174116.29999999999,"N_COORD97":2545562.73,"ADDRESS":"永華路２３０號","OBJECTID":567511},"geometry":{"x":174116.29999999981,"y":2545562.7300000023}},{"attributes":{"ID":567539,"DIS_CODE":0,"TOWNNAME":"永康區","LI":"西灣里","LIN":"37鄰","STREET":"永華路","SECT":" ","MAREA":" ","LANE":" ","ALLEY":" ","HOUSE_NO":"３０８號","E_COORD97":174103.10999999999,"N_COORD97":2545652.8300000001,"ADDRESS":"永華路３０８號","OBJECTID":567512},"geometry":{"x":174103.11000000034,"y":2545652.8300000038}},{"attributes":{"ID":567540,"DIS_CODE":0,"TOWNNAME":"永康區","LI":"\u25A0行里","LIN":"37鄰","STREET":"仁愛街","SECT":" ","MAREA":" ","LANE":" ","ALLEY":" ","HOUSE_NO":"９６號","E_COORD97":172055.95000000001,"N_COORD97":2549441.1600000001,"ADDRESS":"仁愛街９６號","OBJECTID":567513},"geometry":{"x":172055.95000000112,"y":2549441.1600000039}},{"attributes":{"ID":567541,"DIS_CODE":0,"TOWNNAME":"仁德區","LI":"仁德里","LIN":"37鄰","STREET":"中山路","SECT":" ","MAREA":" ","LANE":" ","ALLEY":" ","HOUSE_NO":"７７８號","E_COORD97":172631.70999999999,"N_COORD97":2541551.75,"ADDRESS":"中山路７７８號","OBJECTID":567514},"geometry":{"x":172631.71000000089,"y":2541551.7500000019}},{"attributes":{"ID":567542,"DIS_CODE":0,"TOWNNAME":"仁德區","LI":"仁德里","LIN":"37鄰","STREET":"中山路","SECT":" ","MAREA":" ","LANE":" ","ALLEY":" ","HOUSE_NO":"８１６號","E_COORD97":172528.92000000001,"N_COORD97":2541588.4900000002,"ADDRESS":"中山路８１６號","OBJECTID":567515},"geometry":{"x":172528.91999999993,"y":2541588.4900000021}},{"attributes":{"ID":567543,"DIS_CODE":0,"TOWNNAME":"仁德區","LI":"仁德里","LIN":"37鄰","STREET":"中山路","SECT":" ","MAREA":" ","LANE":" ","ALLEY":" ","HOUSE_NO":"７８６號","E_COORD97":172617.20999999999,"N_COORD97":2541556.5,"ADDRESS":"中山路７８６號","OBJECTID":567516},"geometry":{"x":172617.20999999996,"y":2541556.5000000019}},{"attributes":{"ID":567544,"DIS_CODE":0,"TOWNNAME":"仁德區","LI":"仁義里","LIN":"37鄰","STREET":"仁義六街","SECT":" ","MAREA":" ","LANE":" ","ALLEY":" ","HOUSE_NO":"３２號","E_COORD97":173568.73000000001,"N_COORD97":2540137.02,"ADDRESS":"仁義六街３２號","OBJECTID":567517},"geometry":{"x":173568.73000000045,"y":2540137.0199999996}},{"attributes":{"ID":567545,"DIS_CODE":0,"TOWNNAME":"仁德區","LI":"仁義里","LIN":"37鄰","STREET":"中正路","SECT":"二段","MAREA":" ","LANE":" ","ALLEY":" ","HOUSE_NO":"７７０號","E_COORD97":173475.37,"N_COORD97":2540131.2799999998,"ADDRESS":"中正路二段７７０號","OBJECTID":567518},"geometry":{"x":173475.37000000011,"y":2540131.2799999993}},{"attributes":{"ID":567546,"DIS_CODE":0,"TOWNNAME":"仁德區","LI":"仁義里","LIN":"37鄰","STREET":"中正路","SECT":"二段","MAREA":" ","LANE":" ","ALLEY":" ","HOUSE_NO":"７３８號","E_COORD97":173450.57000000001,"N_COORD97":2540071.52,"ADDRESS":"中正路二段７３８號","OBJECTID":567519},"geometry":{"x":173450.5700000003,"y":2540071.5200000014}},{"attributes":{"ID":567547,"DIS_CODE":0,"TOWNNAME":"仁德區","LI":"仁義里","LIN":"37鄰","STREET":"中正路","SECT":"二段","MAREA":" ","LANE":" ","ALLEY":" ","HOUSE_NO":"７４２號","E_COORD97":173453.97,"N_COORD97":2540079.52,"ADDRESS":"中正路二段７４２號","OBJECTID":567520},"geometry":{"x":173453.96999999974,"y":2540079.5199999996}},{"attributes":{"ID":567548,"DIS_CODE":0,"TOWNNAME":"仁德區","LI":"仁義里","LIN":"37鄰","STREET":"中正路","SECT":"二段","MAREA":" ","LANE":" ","ALLEY":" ","HOUSE_NO":"７５８號","E_COORD97":173479.95999999999,"N_COORD97":2540101.0299999998,"ADDRESS":"中正路二段７５８號","OBJECTID":567521},"geometry":{"x":173479.95999999996,"y":2540101.0300000012}},{"attributes":{"ID":567549,"DIS_CODE":0,"TOWNNAME":"仁德區","LI":"仁義里","LIN":"37鄰","STREET":"中正路","SECT":"二段","MAREA":" ","LANE":" ","ALLEY":" ","HOUSE_NO":"７６２號","E_COORD97":173471.07000000001,"N_COORD97":2540120.2799999998,"ADDRESS":"中正路二段７６２號","OBJECTID":567522},"geometry":{"x":173471.0700000003,"y":2540120.2800000012}},{"attributes":{"ID":567550,"DIS_CODE":0,"TOWNNAME":"仁德區","LI":"仁德里","LIN":"37鄰","STREET":"中山路","SECT":" ","MAREA":" ","LANE":" ","ALLEY":" ","HOUSE_NO":"８２０號","E_COORD97":172507.07000000001,"N_COORD97":2541596.2400000002,"ADDRESS":"中山路８２０號","OBJECTID":567523},"geometry":{"x":172507.07000000216,"y":2541596.2400000021}},{"attributes":{"ID":567551,"DIS_CODE":0,"TOWNNAME":"仁德區","LI":"仁義里","LIN":"37鄰","STREET":"中正路","SECT":"二段","MAREA":" ","LANE":" ","ALLEY":" ","HOUSE_NO":"７４０號","E_COORD97":173452.26999999999,"N_COORD97":2540075.52,"ADDRESS":"中正路二段７４０號","OBJECTID":567524},"geometry":{"x":173452.26999999955,"y":2540075.5200000014}},{"attributes":{"ID":567552,"DIS_CODE":0,"TOWNNAME":"仁德區","LI":"仁義里","LIN":"37鄰","STREET":"仁義六街","SECT":" ","MAREA":" ","LANE":" ","ALLEY":" ","HOUSE_NO":"３０號","E_COORD97":173565.20000000001,"N_COORD97":2540139.7599999998,"ADDRESS":"仁義六街３０號","OBJECTID":567525},"geometry":{"x":173565.20000000019,"y":2540139.7599999998}},{"attributes":{"ID":567553,"DIS_CODE":0,"TOWNNAME":"仁德區","LI":"仁德里","LIN":"37鄰","STREET":"中山路","SECT":" ","MAREA":" ","LANE":" ","ALLEY":" ","HOUSE_NO":"７８０號","E_COORD97":172628.26000000001,"N_COORD97":2541552.5,"ADDRESS":"中山路７８０號","OBJECTID":567526},"geometry":{"x":172628.25999999978,"y":2541552.4999999981}},{"attributes":{"ID":567554,"DIS_CODE":0,"TOWNNAME":"仁德區","LI":"仁德里","LIN":"37鄰","STREET":"中山路","SECT":" ","MAREA":" ","LANE":" ","ALLEY":" ","HOUSE_NO":"７９０號","E_COORD97":172600.59,"N_COORD97":2541570.5,"ADDRESS":"中山路７９０號","OBJECTID":567527},"geometry":{"x":172600.58999999985,"y":2541570.5000000019}},{"attributes":{"ID":567555,"DIS_CODE":0,"TOWNNAME":"仁德區","LI":"仁義里","LIN":"37鄰","STREET":"中正路","SECT":"二段","MAREA":" ","LANE":" ","ALLEY":" ","HOUSE_NO":"７６８號","E_COORD97":173473.82000000001,"N_COORD97":2540124.7799999998,"ADDRESS":"中正路二段７６８號","OBJECTID":567528},"geometry":{"x":173473.82000000123,"y":2540124.7799999993}},{"attributes":{"ID":567556,"DIS_CODE":0,"TOWNNAME":"仁德區","LI":"仁義里","LIN":"37鄰","STREET":"中正路","SECT":"二段","MAREA":" ","LANE":" ","ALLEY":" ","HOUSE_NO":"７６０號","E_COORD97":173467.16,"N_COORD97":2540112.7799999998,"ADDRESS":"中正路二段７６０號","OBJECTID":567529},"geometry":{"x":173467.16000000015,"y":2540112.7800000031}},{"attributes":{"ID":567557,"DIS_CODE":0,"TOWNNAME":"仁德區","LI":"仁德里","LIN":"37鄰","STREET":"中山路","SECT":" ","MAREA":" ","LANE":" ","ALLEY":" ","HOUSE_NO":"８２２號","E_COORD97":172500.17999999999,"N_COORD97":2541598.2400000002,"ADDRESS":"中山路８２２號","OBJECTID":567530},"geometry":{"x":172500.1799999997,"y":2541598.2400000002}},{"attributes":{"ID":567558,"DIS_CODE":0,"TOWNNAME":"仁德區","LI":"仁義里","LIN":"37鄰","STREET":"中正路","SECT":"二段","MAREA":" ","LANE":" ","ALLEY":" ","HOUSE_NO":"８０６號","E_COORD97":173510.38,"N_COORD97":2540294.0299999998,"ADDRESS":"中正路二段８０６號","OBJECTID":567531},"geometry":{"x":173510.38000000082,"y":2540294.0300000031}},{"attributes":{"ID":567559,"DIS_CODE":0,"TOWNNAME":"仁德區","LI":"仁義里","LIN":"37鄰","STREET":"中正路","SECT":"二段","MAREA":" ","LANE":" ","ALLEY":" ","HOUSE_NO":"７４６號","E_COORD97":173464.14999999999,"N_COORD97":2540093.0299999998,"ADDRESS":"中正路二段７４６號","OBJECTID":567532},"geometry":{"x":173464.15000000037,"y":2540093.0299999993}},{"attributes":{"ID":567560,"DIS_CODE":0,"TOWNNAME":"仁德區","LI":"仁義里","LIN":"37鄰","STREET":"中正路","SECT":"二段","MAREA":" ","LANE":" ","ALLEY":" ","HOUSE_NO":"７３６號","E_COORD97":173449.17999999999,"N_COORD97":2540067.52,"ADDRESS":"中正路二段７３６號","OBJECTID":567533},"geometry":{"x":173449.1799999997,"y":2540067.5200000014}},{"attributes":{"ID":567561,"DIS_CODE":0,"TOWNNAME":"仁德區","LI":"太子里","LIN":"37鄰","STREET":"長興二街","SECT":" ","MAREA":" ","LANE":" ","ALLEY":" ","HOUSE_NO":"２號","E_COORD97":174481.87,"N_COORD97":2543752.5099999998,"ADDRESS":"長興二街２號","OBJECTID":567534},"geometry":{"x":174481.87000000104,"y":2543752.5099999979}},{"attributes":{"ID":567562,"DIS_CODE":0,"TOWNNAME":"東區","LI":"泉南里","LIN":"6鄰","STREET":"東門路","SECT":"一段","MAREA":" ","LANE":" ","ALLEY":" ","HOUSE_NO":"１３２號之３","E_COORD97":169456.19,"N_COORD97":2543139.4399999999,"ADDRESS":"東門路一段１３２號之３","OBJECTID":567535},"geometry":{"x":169456.19000000041,"y":2543139.4400000032}},{"attributes":{"ID":567563,"DIS_CODE":0,"TOWNNAME":"東區","LI":"泉南里","LIN":"6鄰","STREET":"東門路","SECT":"一段","MAREA":" ","LANE":" ","ALLEY":" ","HOUSE_NO":"１３２號之４","E_COORD97":169443.87,"N_COORD97":2543142.8100000001,"ADDRESS":"東門路一段１３２號之４","OBJECTID":567536},"geometry":{"x":169443.87000000104,"y":2543142.8100000024}},{"attributes":{"ID":567564,"DIS_CODE":0,"TOWNNAME":"東區","LI":"泉南里","LIN":"6鄰","STREET":"東門路","SECT":"一段","MAREA":" ","LANE":" ","ALLEY":" ","HOUSE_NO":"１３２號之５","E_COORD97":169437.79999999999,"N_COORD97":2543144.3300000001,"ADDRESS":"東門路一段１３２號之５","OBJECTID":567537},"geometry":{"x":169437.79999999981,"y":2543144.3300000019}},{"attributes":{"ID":567565,"DIS_CODE":0,"TOWNNAME":"東區","LI":"泉南里","LIN":"6鄰","STREET":"東門路","SECT":"一段","MAREA":" ","LANE":" ","ALLEY":" ","HOUSE_NO":"１３２號之７","E_COORD97":169442.01999999999,"N_COORD97":2543138.4300000002,"ADDRESS":"東門路一段１３２號之７","OBJECTID":567538},"geometry":{"x":169442.02000000048,"y":2543138.4299999997}},{"attributes":{"ID":567566,"DIS_CODE":0,"TOWNNAME":"東區","LI":"泉南里","LIN":"6鄰","STREET":"東門路","SECT":"一段","MAREA":" ","LANE":" ","ALLEY":" ","HOUSE_NO":"１３２號之９","E_COORD97":169450.88,"N_COORD97":2543136.0699999998,"ADDRESS":"東門路一段１３２號之９","OBJECTID":567539},"geometry":{"x":169450.87999999989,"y":2543136.070000004}},{"attributes":{"ID":567567,"DIS_CODE":0,"TOWNNAME":"永康區","LI":"\u25A0行里","LIN":"37鄰","STREET":"仁愛街","SECT":" ","MAREA":" ","LANE":" ","ALLEY":" ","HOUSE_NO":"８０號","E_COORD97":172042.34,"N_COORD97":2549408.1600000001,"ADDRESS":"仁愛街８０號","OBJECTID":567540},"geometry":{"x":172042.34000000078,"y":2549408.160000002}},{"attributes":{"ID":567568,"DIS_CODE":0,"TOWNNAME":"永康區","LI":"\u25A0行里","LIN":"37鄰","STREET":"仁愛街","SECT":" ","MAREA":" ","LANE":" ","ALLEY":" ","HOUSE_NO":"８６號","E_COORD97":172047.39000000001,"N_COORD97":2549418.9100000001,"ADDRESS":"仁愛街８６號","OBJECTID":567541},"geometry":{"x":172047.38999999966,"y":2549418.9099999983}},{"attributes":{"ID":567569,"DIS_CODE":0,"TOWNNAME":"永康區","LI":"\u25A0行里","LIN":"37鄰","STREET":"仁愛街","SECT":" ","MAREA":" ","LANE":" ","ALLEY":" ","HOUSE_NO":"８２號","E_COORD97":172044,"N_COORD97":2549411.9100000001,"ADDRESS":"仁愛街８２號","OBJECTID":567542},"geometry":{"x":172044,"y":2549411.9100000001}},{"attributes":{"ID":567570,"DIS_CODE":0,"TOWNNAME":"永康區","LI":"\u25A0洲里","LIN":"37鄰","STREET":"\u25A0洲二街","SECT":" ","MAREA":" ","LANE":" ","ALLEY":" ","HOUSE_NO":"１９９號","E_COORD97":171764.73000000001,"N_COORD97":2549446.25,"ADDRESS":"\u25A0洲二街１９９號","OBJECTID":567543},"geometry":{"x":171764.73000000045,"y":2549446.25}},{"attributes":{"ID":567571,"DIS_CODE":0,"TOWNNAME":"東區","LI":"東安里","LIN":"4鄰","STREET":"東門路","SECT":"二段","MAREA":" ","LANE":" ","ALLEY":" ","HOUSE_NO":"１７號","E_COORD97":169964.06,"N_COORD97":2543009.6800000002,"ADDRESS":"東門路二段１７號","OBJECTID":567544},"geometry":{"x":169964.06000000052,"y":2543009.6800000016}},{"attributes":{"ID":567572,"DIS_CODE":0,"TOWNNAME":"永康區","LI":"\u25A0洲里","LIN":"37鄰","STREET":"\u25A0洲二街","SECT":" ","MAREA":" ","LANE":" ","ALLEY":" ","HOUSE_NO":"２０３號","E_COORD97":171771.88,"N_COORD97":2549453,"ADDRESS":"\u25A0洲二街２０３號","OBJECTID":567545},"geometry":{"x":171771.87999999989,"y":2549453.0000000019}},{"attributes":{"ID":567573,"DIS_CODE":0,"TOWNNAME":"永康區","LI":"\u25A0洲里","LIN":"37鄰","STREET":"\u25A0洲二街","SECT":" ","MAREA":" ","LANE":" ","ALLEY":" ","HOUSE_NO":"２０１號","E_COORD97":171768.35999999999,"N_COORD97":2549449.75,"ADDRESS":"\u25A0洲二街２０１號","OBJECTID":567546},"geometry":{"x":171768.36000000127,"y":2549449.75}},{"attributes":{"ID":567574,"DIS_CODE":0,"TOWNNAME":"東區","LI":"崇文里","LIN":"37鄰","STREET":"崇德二十五街","SECT":" ","MAREA":" ","LANE":" ","ALLEY":" ","HOUSE_NO":"６號","E_COORD97":170828.57999999999,"N_COORD97":2540643.6699999999,"ADDRESS":"崇德二十五街６號","OBJECTID":567547},"geometry":{"x":170828.58000000194,"y":2540643.6700000018}},{"attributes":{"ID":567575,"DIS_CODE":0,"TOWNNAME":"東區","LI":"後甲里","LIN":"25鄰","STREET":"中華東路","SECT":"一段","MAREA":" ","LANE":" ","ALLEY":" ","HOUSE_NO":"１５１號","E_COORD97":171477.16,"N_COORD97":2543532.02,"ADDRESS":"中華東路一段１５１號","OBJECTID":567548},"geometry":{"x":171477.16000000015,"y":2543532.0200000033}},{"attributes":{"ID":567576,"DIS_CODE":0,"TOWNNAME":"東區","LI":"後甲里","LIN":"25鄰","STREET":"中華東路","SECT":"一段","MAREA":" ","LANE":" ","ALLEY":" ","HOUSE_NO":"１５７號","E_COORD97":171474.26000000001,"N_COORD97":2543513.46,"ADDRESS":"中華東路一段１５７號","OBJECTID":567549},"geometry":{"x":171474.25999999978,"y":2543513.4600000046}},{"attributes":{"ID":567577,"DIS_CODE":0,"TOWNNAME":"東區","LI":"後甲里","LIN":"25鄰","STREET":"中華東路","SECT":"一段","MAREA":" ","LANE":" ","ALLEY":" ","HOUSE_NO":"１６３號","E_COORD97":171472.32999999999,"N_COORD97":2543489.8500000001,"ADDRESS":"中華東路一段１６３號","OBJECTID":567550},"geometry":{"x":171472.33000000007,"y":2543489.8500000015}},{"attributes":{"ID":567578,"DIS_CODE":0,"TOWNNAME":"東區","LI":"後甲里","LIN":"25鄰","STREET":"中華東路","SECT":"一段","MAREA":" ","LANE":" ","ALLEY":" ","HOUSE_NO":"１６７號","E_COORD97":171471.13,"N_COORD97":2543477.8599999999,"ADDRESS":"中華東路一段１６７號","OBJECTID":567551},"geometry":{"x":171471.13000000082,"y":2543477.8599999994}},{"attributes":{"ID":567579,"DIS_CODE":0,"TOWNNAME":"東區","LI":"後甲里","LIN":"25鄰","STREET":"中華東路","SECT":"一段","MAREA":" ","LANE":" ","ALLEY":" ","HOUSE_NO":"１８３號","E_COORD97":171466.29999999999,"N_COORD97":2543447.2599999998,"ADDRESS":"中華東路一段１８３號","OBJECTID":567552},"geometry":{"x":171466.30000000075,"y":2543447.2600000016}},{"attributes":{"ID":567580,"DIS_CODE":0,"TOWNNAME":"西港區","LI":"慶安里","LIN":"28鄰","STREET":"新興街","SECT":" ","MAREA":" ","LANE":" ","ALLEY":" ","HOUSE_NO":"１３號之１","E_COORD97":168210.39000000001,"N_COORD97":2557763.8500000001,"ADDRESS":"新興街１３號之１","OBJECTID":567553},"geometry":{"x":168210.39000000153,"y":2557763.8500000015}},{"attributes":{"ID":567581,"DIS_CODE":0,"TOWNNAME":"東區","LI":"後甲里","LIN":"25鄰","STREET":"中華東路","SECT":"一段","MAREA":" ","LANE":" ","ALLEY":" ","HOUSE_NO":"１８５號","E_COORD97":171465.82000000001,"N_COORD97":2543441.9199999999,"ADDRESS":"中華東路一段１８５號","OBJECTID":567554},"geometry":{"x":171465.8200000003,"y":2543441.9200000018}},{"attributes":{"ID":567582,"DIS_CODE":0,"TOWNNAME":"東區","LI":"後甲里","LIN":"25鄰","STREET":"中華東路","SECT":"一段","MAREA":" ","LANE":" ","ALLEY":" ","HOUSE_NO":"１９３號","E_COORD97":171465.34,"N_COORD97":2543423.3700000001,"ADDRESS":"中華東路一段１９３號","OBJECTID":567555},"geometry":{"x":171465.33999999985,"y":2543423.3700000029}},{"attributes":{"ID":567583,"DIS_CODE":0,"TOWNNAME":"東區","LI":"後甲里","LIN":"25鄰","STREET":"中華東路","SECT":"一段","MAREA":" ","LANE":" ","ALLEY":" ","HOUSE_NO":"１９９號","E_COORD97":171463.64999999999,"N_COORD97":2543409.8300000001,"ADDRESS":"中華東路一段１９９號","OBJECTID":567556},"geometry":{"x":171463.65000000037,"y":2543409.8300000019}},{"attributes":{"ID":567584,"DIS_CODE":0,"TOWNNAME":"永康區","LI":"埔園里","LIN":"37鄰","STREET":"龍中街","SECT":" ","MAREA":" ","LANE":" ","ALLEY":" ","HOUSE_NO":"４３５號","E_COORD97":174396.92999999999,"N_COORD97":2548142.8799999999,"ADDRESS":"龍中街４３５號","OBJECTID":567557},"geometry":{"x":174396.9299999997,"y":2548142.879999999}},{"attributes":{"ID":567585,"DIS_CODE":0,"TOWNNAME":"永康區","LI":"埔園里","LIN":"37鄰","STREET":"龍中街","SECT":" ","MAREA":" ","LANE":" ","ALLEY":" ","HOUSE_NO":"４２５號","E_COORD97":174399.63,"N_COORD97":2548121.8799999999,"ADDRESS":"龍中街４２５號","OBJECTID":567558},"geometry":{"x":174399.62999999896,"y":2548121.879999999}},{"attributes":{"ID":567586,"DIS_CODE":0,"TOWNNAME":"永康區","LI":"崑山里","LIN":"37鄰","STREET":"大仁街","SECT":" ","MAREA":" ","LANE":" ","ALLEY":" ","HOUSE_NO":"１８６號之１","E_COORD97":173927.29000000001,"N_COORD97":2545014.9199999999,"ADDRESS":"大仁街１８６號之１","OBJECTID":567559},"geometry":{"x":173927.29000000004,"y":2545014.9200000037}},{"attributes":{"ID":567587,"DIS_CODE":0,"TOWNNAME":"永康區","LI":"埔園里","LIN":"37鄰","STREET":"龍埔街","SECT":" ","MAREA":" ","LANE":" ","ALLEY":" ","HOUSE_NO":"２０１號","E_COORD97":174361.60999999999,"N_COORD97":2548259.7000000002,"ADDRESS":"龍埔街２０１號","OBJECTID":567560},"geometry":{"x":174361.61000000127,"y":2548259.6999999993}},{"attributes":{"ID":567588,"DIS_CODE":0,"TOWNNAME":"永康區","LI":"\u25A0洲里","LIN":"37鄰","STREET":"\u25A0洲二街","SECT":" ","MAREA":" ","LANE":" ","ALLEY":" ","HOUSE_NO":"１９５號","E_COORD97":171751.45999999999,"N_COORD97":2549439,"ADDRESS":"\u25A0洲二街１９５號","OBJECTID":567561},"geometry":{"x":171751.46000000183,"y":2549439.0000000019}},{"attributes":{"ID":567589,"DIS_CODE":0,"TOWNNAME":"永康區","LI":"埔園里","LIN":"37鄰","STREET":"龍中街","SECT":" ","MAREA":" ","LANE":" ","ALLEY":" ","HOUSE_NO":"４５９號","E_COORD97":174389.66,"N_COORD97":2548205.1200000001,"ADDRESS":"龍中街４５９號","OBJECTID":567562},"geometry":{"x":174389.66000000201,"y":2548205.1200000048}},{"attributes":{"ID":567590,"DIS_CODE":0,"TOWNNAME":"永康區","LI":"\u25A0行里","LIN":"37鄰","STREET":"仁愛街","SECT":" ","MAREA":" ","LANE":" ","ALLEY":" ","HOUSE_NO":"７６號","E_COORD97":172038.70000000001,"N_COORD97":2549399.8999999999,"ADDRESS":"仁愛街７６號","OBJECTID":567563},"geometry":{"x":172038.70000000112,"y":2549399.9000000022}},{"attributes":{"ID":567591,"DIS_CODE":0,"TOWNNAME":"永康區","LI":"\u25A0行里","LIN":"37鄰","STREET":"仁愛街","SECT":" ","MAREA":" ","LANE":" ","ALLEY":" ","HOUSE_NO":"７８號","E_COORD97":172040.54000000001,"N_COORD97":2549404.1499999999,"ADDRESS":"仁愛街７８號","OBJECTID":567564},"geometry":{"x":172040.54000000004,"y":2549404.1500000041}},{"attributes":{"ID":567592,"DIS_CODE":0,"TOWNNAME":"永康區","LI":"永康里","LIN":"37鄰","STREET":"大同街","SECT":" ","MAREA":" ","LANE":" ","ALLEY":" ","HOUSE_NO":"８０２號","E_COORD97":174499.22,"N_COORD97":2546810.4199999999,"ADDRESS":"大同街８０２號","OBJECTID":567565},"geometry":{"x":174499.22000000067,"y":2546810.4199999999}},{"attributes":{"ID":567593,"DIS_CODE":0,"TOWNNAME":"永康區","LI":"\u25A0行里","LIN":"37鄰","STREET":"仁愛街","SECT":" ","MAREA":" ","LANE":" ","ALLEY":" ","HOUSE_NO":"８８號","E_COORD97":172049,"N_COORD97":2549423.1600000001,"ADDRESS":"仁愛街８８號","OBJECTID":567566},"geometry":{"x":172049,"y":2549423.1600000001}},{"attributes":{"ID":567594,"DIS_CODE":0,"TOWNNAME":"中西區","LI":"西湖里","LIN":"32鄰","STREET":"湖美二街","SECT":" ","MAREA":" ","LANE":" ","ALLEY":" ","HOUSE_NO":"１４８號","E_COORD97":166151.98000000001,"N_COORD97":2545036.8399999999,"ADDRESS":"湖美二街１４８號","OBJECTID":567567},"geometry":{"x":166151.98000000045,"y":2545036.8400000017}},{"attributes":{"ID":567595,"DIS_CODE":0,"TOWNNAME":"安平區","LI":"育平里","LIN":"32鄰","STREET":"府平路","SECT":" ","MAREA":" ","LANE":" ","ALLEY":" ","HOUSE_NO":"３７４號","E_COORD97":164642.91,"N_COORD97":2543106.4700000002,"ADDRESS":"府平路３７４號","OBJECTID":567568},"geometry":{"x":164642.91000000108,"y":2543106.4700000044}},{"attributes":{"ID":567596,"DIS_CODE":0,"TOWNNAME":"安平區","LI":"平通里","LIN":"32鄰","STREET":"永華十街","SECT":" ","MAREA":" ","LANE":" ","ALLEY":" ","HOUSE_NO":"５３號","E_COORD97":164540.29000000001,"N_COORD97":2543751.6099999999,"ADDRESS":"永華十街５３號","OBJECTID":567569},"geometry":{"x":164540.29000000097,"y":2543751.6100000031}},{"attributes":{"ID":567597,"DIS_CODE":0,"TOWNNAME":"東區","LI":"忠孝里","LIN":"32鄰","STREET":"崇明六街","SECT":" ","MAREA":" ","LANE":" ","ALLEY":" ","HOUSE_NO":"１４號","E_COORD97":169655.78,"N_COORD97":2542193.3900000001,"ADDRESS":"崇明六街１４號","OBJECTID":567570},"geometry":{"x":169655.78000000026,"y":2542193.3900000006}},{"attributes":{"ID":567598,"DIS_CODE":0,"TOWNNAME":"西港區","LI":"慶安里","LIN":"28鄰","STREET":"新興街","SECT":" ","MAREA":" ","LANE":" ","ALLEY":" ","HOUSE_NO":"１７號之１３","E_COORD97":168194.70999999999,"N_COORD97":2557816.6499999999,"ADDRESS":"新興街１７號之１３","OBJECTID":567571},"geometry":{"x":168194.70999999996,"y":2557816.6500000022}},{"attributes":{"ID":567599,"DIS_CODE":0,"TOWNNAME":"西港區","LI":"慶安里","LIN":"28鄰","STREET":"新興街","SECT":" ","MAREA":" ","LANE":" ","ALLEY":" ","HOUSE_NO":"１７號之１４","E_COORD97":168193.95999999999,"N_COORD97":2557820.75,"ADDRESS":"新興街１７號之１４","OBJECTID":567572},"geometry":{"x":168193.96000000089,"y":2557820.75}},{"attributes":{"ID":567600,"DIS_CODE":0,"TOWNNAME":"西港區","LI":"慶安里","LIN":"28鄰","STREET":"新興街","SECT":" ","MAREA":" ","LANE":" ","ALLEY":" ","HOUSE_NO":"１７號之１５","E_COORD97":168192.92999999999,"N_COORD97":2557824.6899999999,"ADDRESS":"新興街１７號之１５","OBJECTID":567573},"geometry":{"x":168192.9299999997,"y":2557824.6900000032}},{"attributes":{"ID":567601,"DIS_CODE":0,"TOWNNAME":"西港區","LI":"慶安里","LIN":"28鄰","STREET":"新興街","SECT":" ","MAREA":" ","LANE":" ","ALLEY":" ","HOUSE_NO":"１７號之１６","E_COORD97":168191.85999999999,"N_COORD97":2557828.3500000001,"ADDRESS":"新興街１７號之１６","OBJECTID":567574},"geometry":{"x":168191.86000000034,"y":2557828.3500000015}},{"attributes":{"ID":567602,"DIS_CODE":0,"TOWNNAME":"西港區","LI":"慶安里","LIN":"28鄰","STREET":"新興街","SECT":" ","MAREA":" ","LANE":" ","ALLEY":" ","HOUSE_NO":"１７號之１７","E_COORD97":168191.25,"N_COORD97":2557832.29,"ADDRESS":"新興街１７號之１７","OBJECTID":567575},"geometry":{"x":168191.25000000186,"y":2557832.2899999991}},{"attributes":{"ID":567603,"DIS_CODE":0,"TOWNNAME":"西港區","LI":"慶安里","LIN":"28鄰","STREET":"新興街","SECT":" ","MAREA":" ","LANE":" ","ALLEY":" ","HOUSE_NO":"１７號之１８","E_COORD97":168190.13,"N_COORD97":2557836.6899999999,"ADDRESS":"新興街１７號之１８","OBJECTID":567576},"geometry":{"x":168190.12999999896,"y":2557836.6899999995}},{"attributes":{"ID":567604,"DIS_CODE":0,"TOWNNAME":"西港區","LI":"慶安里","LIN":"28鄰","STREET":"新興街","SECT":" ","MAREA":" ","LANE":" ","ALLEY":" ","HOUSE_NO":"１７號之１９","E_COORD97":168189.20000000001,"N_COORD97":2557840.5800000001,"ADDRESS":"新興街１７號之１９","OBJECTID":567577},"geometry":{"x":168189.20000000112,"y":2557840.5800000019}},{"attributes":{"ID":567605,"DIS_CODE":0,"TOWNNAME":"西港區","LI":"慶安里","LIN":"28鄰","STREET":"新興街","SECT":" ","MAREA":" ","LANE":" ","ALLEY":" ","HOUSE_NO":"１７號之１","E_COORD97":168197.85999999999,"N_COORD97":2557795.8300000001,"ADDRESS":"新興街１７號之１","OBJECTID":567578},"geometry":{"x":168197.86000000127,"y":2557795.8300000001}},{"attributes":{"ID":567606,"DIS_CODE":0,"TOWNNAME":"西港區","LI":"慶安里","LIN":"28鄰","STREET":"新興街","SECT":" ","MAREA":" ","LANE":" ","ALLEY":" ","HOUSE_NO":"１７號之２０","E_COORD97":168188.28,"N_COORD97":2557844.7799999998,"ADDRESS":"新興街１７號之２０","OBJECTID":567579},"geometry":{"x":168188.28000000119,"y":2557844.7800000012}},{"attributes":{"ID":567607,"DIS_CODE":0,"TOWNNAME":"西港區","LI":"慶安里","LIN":"28鄰","STREET":"新興街","SECT":" ","MAREA":" ","LANE":" ","ALLEY":" ","HOUSE_NO":"１７號之２１","E_COORD97":168188.17999999999,"N_COORD97":2557849.0899999999,"ADDRESS":"新興街１７號之２１","OBJECTID":567580},"geometry":{"x":168188.18000000063,"y":2557849.0899999999}},{"attributes":{"ID":567608,"DIS_CODE":0,"TOWNNAME":"西港區","LI":"慶安里","LIN":"28鄰","STREET":"新興街","SECT":" ","MAREA":" ","LANE":" ","ALLEY":" ","HOUSE_NO":"１７號之２","E_COORD97":168196.72,"N_COORD97":2557799.9399999999,"ADDRESS":"新興街１７號之２","OBJECTID":567581},"geometry":{"x":168196.72000000067,"y":2557799.9400000013}},{"attributes":{"ID":567609,"DIS_CODE":0,"TOWNNAME":"西港區","LI":"慶安里","LIN":"28鄰","STREET":"新興街","SECT":" ","MAREA":" ","LANE":" ","ALLEY":" ","HOUSE_NO":"１７號之３","E_COORD97":168196.10999999999,"N_COORD97":2557803.7799999998,"ADDRESS":"新興街１７號之３","OBJECTID":567582},"geometry":{"x":168196.11000000127,"y":2557803.7800000031}},{"attributes":{"ID":567610,"DIS_CODE":0,"TOWNNAME":"西港區","LI":"慶安里","LIN":"28鄰","STREET":"新興街","SECT":" ","MAREA":" ","LANE":" ","ALLEY":" ","HOUSE_NO":"１７號之４","E_COORD97":168195.10999999999,"N_COORD97":2557807.3900000001,"ADDRESS":"新興街１７號之４","OBJECTID":567583},"geometry":{"x":168195.11000000127,"y":2557807.3900000043}},{"attributes":{"ID":567611,"DIS_CODE":0,"TOWNNAME":"西港區","LI":"慶安里","LIN":"28鄰","STREET":"新興街","SECT":" ","MAREA":" ","LANE":" ","ALLEY":" ","HOUSE_NO":"１７號之５","E_COORD97":168185.12,"N_COORD97":2557804.9399999999,"ADDRESS":"新興街１７號之５","OBJECTID":567584},"geometry":{"x":168185.12000000011,"y":2557804.9399999995}},{"attributes":{"ID":567612,"DIS_CODE":0,"TOWNNAME":"西港區","LI":"慶安里","LIN":"28鄰","STREET":"新興街","SECT":" ","MAREA":" ","LANE":" ","ALLEY":" ","HOUSE_NO":"１７號之６","E_COORD97":168181.19,"N_COORD97":2557803.75,"ADDRESS":"新興街１７號之６","OBJECTID":567585},"geometry":{"x":168181.19000000041,"y":2557803.75}},{"attributes":{"ID":567613,"DIS_CODE":0,"TOWNNAME":"西港區","LI":"慶安里","LIN":"28鄰","STREET":"新興街","SECT":" ","MAREA":" ","LANE":" ","ALLEY":" ","HOUSE_NO":"１７號之７","E_COORD97":168177.35000000001,"N_COORD97":2557802.4500000002,"ADDRESS":"新興街１７號之７","OBJECTID":567586},"geometry":{"x":168177.35000000056,"y":2557802.450000003}},{"attributes":{"ID":567614,"DIS_CODE":0,"TOWNNAME":"西港區","LI":"慶安里","LIN":"28鄰","STREET":"新興街","SECT":" ","MAREA":" ","LANE":" ","ALLEY":" ","HOUSE_NO":"１７號之８","E_COORD97":168173.45000000001,"N_COORD97":2557801.23,"ADDRESS":"新興街１７號之８","OBJECTID":567587},"geometry":{"x":168173.45000000112,"y":2557801.2300000004}},{"attributes":{"ID":567615,"DIS_CODE":0,"TOWNNAME":"西港區","LI":"慶安里","LIN":"28鄰","STREET":"新興街","SECT":" ","MAREA":" ","LANE":" ","ALLEY":" ","HOUSE_NO":"１７號之９","E_COORD97":168169.32999999999,"N_COORD97":2557799.27,"ADDRESS":"新興街１７號之９","OBJECTID":567588},"geometry":{"x":168169.33000000101,"y":2557799.2699999996}},{"attributes":{"ID":567616,"DIS_CODE":0,"TOWNNAME":"西港區","LI":"慶安里","LIN":"28鄰","STREET":"新興街","SECT":" ","MAREA":" ","LANE":" ","ALLEY":" ","HOUSE_NO":"１７號","E_COORD97":168208.48999999999,"N_COORD97":2557784.9500000002,"ADDRESS":"新興街１７號","OBJECTID":567589},"geometry":{"x":168208.49000000209,"y":2557784.9499999993}},{"attributes":{"ID":567617,"DIS_CODE":0,"TOWNNAME":"西港區","LI":"慶安里","LIN":"28鄰","STREET":"新興街","SECT":" ","MAREA":" ","LANE":" ","ALLEY":" ","HOUSE_NO":"１９號","E_COORD97":168187.34,"N_COORD97":2557853.3300000001,"ADDRESS":"新興街１９號","OBJECTID":567590},"geometry":{"x":168187.34000000078,"y":2557853.3300000001}},{"attributes":{"ID":567618,"DIS_CODE":0,"TOWNNAME":"西港區","LI":"慶安里","LIN":"28鄰","STREET":"新興街","SECT":" ","MAREA":" ","LANE":" ","ALLEY":" ","HOUSE_NO":"２３號","E_COORD97":168185.42000000001,"N_COORD97":2557862,"ADDRESS":"新興街２３號","OBJECTID":567591},"geometry":{"x":168185.42000000086,"y":2557862.0000000019}},{"attributes":{"ID":567619,"DIS_CODE":0,"TOWNNAME":"西港區","LI":"慶安里","LIN":"28鄰","STREET":"新興街","SECT":" ","MAREA":" ","LANE":" ","ALLEY":" ","HOUSE_NO":"２５號之１","E_COORD97":168177.45000000001,"N_COORD97":2557924.27,"ADDRESS":"新興街２５號之１","OBJECTID":567592},"geometry":{"x":168177.45000000019,"y":2557924.2699999996}},{"attributes":{"ID":567620,"DIS_CODE":0,"TOWNNAME":"西港區","LI":"慶安里","LIN":"28鄰","STREET":"新興街","SECT":" ","MAREA":" ","LANE":" ","ALLEY":" ","HOUSE_NO":"２５號之２","E_COORD97":168184.01999999999,"N_COORD97":2557873.8300000001,"ADDRESS":"新興街２５號之２","OBJECTID":567593},"geometry":{"x":168184.02000000048,"y":2557873.8300000001}},{"attributes":{"ID":567621,"DIS_CODE":0,"TOWNNAME":"西港區","LI":"慶安里","LIN":"28鄰","STREET":"新興街","SECT":" ","MAREA":" ","LANE":" ","ALLEY":" ","HOUSE_NO":"２５號","E_COORD97":168184.04999999999,"N_COORD97":2557866.96,"ADDRESS":"新興街２５號","OBJECTID":567594},"geometry":{"x":168184.05000000168,"y":2557866.9600000009}},{"attributes":{"ID":567622,"DIS_CODE":0,"TOWNNAME":"西港區","LI":"慶安里","LIN":"28鄰","STREET":"新興街","SECT":" ","MAREA":" ","LANE":" ","ALLEY":" ","HOUSE_NO":"９號之１","E_COORD97":168219.45999999999,"N_COORD97":2557710.77,"ADDRESS":"新興街９號之１","OBJECTID":567595},"geometry":{"x":168219.46000000089,"y":2557710.7699999996}},{"attributes":{"ID":567623,"DIS_CODE":0,"TOWNNAME":"西港區","LI":"慶安里","LIN":"28鄰","STREET":"新興街","SECT":" ","MAREA":" ","LANE":" ","ALLEY":" ","HOUSE_NO":"９號之２","E_COORD97":168218.04000000001,"N_COORD97":2557714.5899999999,"ADDRESS":"新興街９號之２","OBJECTID":567596},"geometry":{"x":168218.03999999911,"y":2557714.5900000017}},{"attributes":{"ID":567624,"DIS_CODE":0,"TOWNNAME":"西港區","LI":"慶安里","LIN":"28鄰","STREET":"新興街","SECT":" ","MAREA":" ","LANE":" ","ALLEY":" ","HOUSE_NO":"９號","E_COORD97":168221.53,"N_COORD97":2557706.96,"ADDRESS":"新興街９號","OBJECTID":567597},"geometry":{"x":168221.53000000026,"y":2557706.9600000028}},{"attributes":{"ID":567625,"DIS_CODE":0,"TOWNNAME":"永康區","LI":"埔園里","LIN":"28鄰","STREET":"中山路","SECT":" ","MAREA":" ","LANE":" ","ALLEY":" ","HOUSE_NO":"３６０號","E_COORD97":173646.20999999999,"N_COORD97":2548300.23,"ADDRESS":"中山路３６０號","OBJECTID":567598},"geometry":{"x":173646.20999999996,"y":2548300.2300000004}},{"attributes":{"ID":567626,"DIS_CODE":0,"TOWNNAME":"東區","LI":"後甲里","LIN":"28鄰","STREET":"裕永一街","SECT":" ","MAREA":" ","LANE":" ","ALLEY":" ","HOUSE_NO":"２６０號","E_COORD97":172736.60000000001,"N_COORD97":2543462.52,"ADDRESS":"裕永一街２６０號","OBJECTID":567599},"geometry":{"x":172736.5999999987,"y":2543462.5200000014}},{"attributes":{"ID":567627,"DIS_CODE":0,"TOWNNAME":"東區","LI":"後甲里","LIN":"28鄰","STREET":"裕永一街","SECT":" ","MAREA":" ","LANE":" ","ALLEY":" ","HOUSE_NO":"２６８號","E_COORD97":172745.82000000001,"N_COORD97":2543466.3700000001,"ADDRESS":"裕永一街２６８號","OBJECTID":567600},"geometry":{"x":172745.8200000003,"y":2543466.370000001}}]}