{"displayFieldName":"TOWNNAME","fieldAliases":{"ID":"ID","DIS_CODE":"DIS_CODE","TOWNNAME":"TOWNNAME","LI":"LI","LIN":"LIN","STREET":"STREET","SECT":"SECT","MAREA":"MAREA","LANE":"LANE","ALLEY":"ALLEY","HOUSE_NO":"HOUSE_NO","E_COORD97":"E_COORD97","N_COORD97":"N_COORD97","ADDRESS":"ADDRESS","OBJECTID":"OBJECTID"},"geometryType":"esriGeometryPoint","spatialReference":{"wkid":102443,"latestWkid":3826},"fields":[{"name":"ID","type":"esriFieldTypeDouble","alias":"ID"},{"name":"DIS_CODE","type":"esriFieldTypeInteger","alias":"DIS_CODE"},{"name":"TOWNNAME","type":"esriFieldTypeString","alias":"TOWNNAME","length":8},{"name":"LI","type":"esriFieldTypeString","alias":"LI","length":8},{"name":"LIN","type":"esriFieldTypeString","alias":"LIN","length":12},{"name":"STREET","type":"esriFieldTypeString","alias":"STREET","length":20},{"name":"SECT","type":"esriFieldTypeString","alias":"SECT","length":8},{"name":"MAREA","type":"esriFieldTypeString","alias":"MAREA","length":12},{"name":"LANE","type":"esriFieldTypeString","alias":"LANE","length":10},{"name":"ALLEY","type":"esriFieldTypeString","alias":"ALLEY","length":10},{"name":"HOUSE_NO","type":"esriFieldTypeString","alias":"HOUSE_NO","length":20},{"name":"E_COORD97","type":"esriFieldTypeDouble","alias":"E_COORD97"},{"name":"N_COORD97","type":"esriFieldTypeDouble","alias":"N_COORD97"},{"name":"ADDRESS","type":"esriFieldTypeString","alias":"ADDRESS","length":50},{"name":"OBJECTID","type":"esriFieldTypeOID","alias":"OBJECTID"}],"features":[{"attributes":{"ID":509628,"DIS_CODE":0,"TOWNNAME":"安南區","LI":"淵中里","LIN":"1鄰","STREET":"樂安一街","SECT":" ","MAREA":" ","LANE":" ","ALLEY":" ","HOUSE_NO":"２１７號","E_COORD97":165573.98000000001,"N_COORD97":2549843.7000000002,"ADDRESS":"樂安一街２１７號","OBJECTID":509601},"geometry":{"x":165573.98000000045,"y":2549843.7000000011}},{"attributes":{"ID":509629,"DIS_CODE":0,"TOWNNAME":"安南區","LI":"南興里","LIN":"1鄰","STREET":"安中路","SECT":"五段","MAREA":" ","LANE":" ","ALLEY":" ","HOUSE_NO":"４１８號之１５","E_COORD97":162621.95000000001,"N_COORD97":2551545.6200000001,"ADDRESS":"安中路五段４１８號之１５","OBJECTID":509602},"geometry":{"x":162621.95000000112,"y":2551545.6200000029}},{"attributes":{"ID":509630,"DIS_CODE":0,"TOWNNAME":"安南區","LI":"安富里","LIN":"1鄰","STREET":"郡安路","SECT":"五段","MAREA":" ","LANE":" ","ALLEY":" ","HOUSE_NO":"２０７號","E_COORD97":167312.09,"N_COORD97":2547747.8599999999,"ADDRESS":"郡安路五段２０７號","OBJECTID":509603},"geometry":{"x":167312.08999999985,"y":2547747.8600000013}},{"attributes":{"ID":509631,"DIS_CODE":0,"TOWNNAME":"南區","LI":"明德里","LIN":"7鄰","STREET":"新都路","SECT":" ","MAREA":" ","LANE":" ","ALLEY":" ","HOUSE_NO":"２５９號","E_COORD97":167889.57000000001,"N_COORD97":2541045.8199999998,"ADDRESS":"新都路２５９號","OBJECTID":509604},"geometry":{"x":167889.57000000123,"y":2541045.820000004}},{"attributes":{"ID":509632,"DIS_CODE":0,"TOWNNAME":"南區","LI":"明德里","LIN":"7鄰","STREET":"新都路","SECT":" ","MAREA":" ","LANE":" ","ALLEY":" ","HOUSE_NO":"２６３號","E_COORD97":167879.06,"N_COORD97":2541030.0699999998,"ADDRESS":"新都路２６３號","OBJECTID":509605},"geometry":{"x":167879.06000000052,"y":2541030.0700000003}},{"attributes":{"ID":509633,"DIS_CODE":0,"TOWNNAME":"南區","LI":"明德里","LIN":"7鄰","STREET":"新都路","SECT":" ","MAREA":" ","LANE":" ","ALLEY":" ","HOUSE_NO":"２６５號","E_COORD97":167877.14999999999,"N_COORD97":2541018.6200000001,"ADDRESS":"新都路２６５號","OBJECTID":509606},"geometry":{"x":167877.15000000224,"y":2541018.6200000029}},{"attributes":{"ID":509634,"DIS_CODE":0,"TOWNNAME":"中西區","LI":"協和里","LIN":"1鄰","STREET":"文賢路","SECT":" ","MAREA":" ","LANE":" ","ALLEY":" ","HOUSE_NO":"９５號","E_COORD97":167408.82000000001,"N_COORD97":2544649.7000000002,"ADDRESS":"文賢路９５號","OBJECTID":509607},"geometry":{"x":167408.8200000003,"y":2544649.7000000011}},{"attributes":{"ID":509635,"DIS_CODE":0,"TOWNNAME":"中西區","LI":"公正里","LIN":"1鄰","STREET":"北門路","SECT":"一段","MAREA":" ","LANE":" ","ALLEY":" ","HOUSE_NO":"１７３號","E_COORD97":169191.79000000001,"N_COORD97":2544064.8100000001,"ADDRESS":"北門路一段１７３號","OBJECTID":509608},"geometry":{"x":169191.79000000097,"y":2544064.8100000024}},{"attributes":{"ID":509636,"DIS_CODE":0,"TOWNNAME":"中西區","LI":"協和里","LIN":"1鄰","STREET":"文賢路","SECT":" ","MAREA":" ","LANE":" ","ALLEY":" ","HOUSE_NO":"１０１號","E_COORD97":167408.59,"N_COORD97":2544659.8100000001,"ADDRESS":"文賢路１０１號","OBJECTID":509609},"geometry":{"x":167408.58999999985,"y":2544659.8100000005}},{"attributes":{"ID":509637,"DIS_CODE":0,"TOWNNAME":"中西區","LI":"協和里","LIN":"1鄰","STREET":"文賢路","SECT":" ","MAREA":" ","LANE":" ","ALLEY":" ","HOUSE_NO":"１０７號","E_COORD97":167412.91,"N_COORD97":2544674.6499999999,"ADDRESS":"文賢路１０７號","OBJECTID":509610},"geometry":{"x":167412.91000000108,"y":2544674.6500000041}},{"attributes":{"ID":509638,"DIS_CODE":0,"TOWNNAME":"中西區","LI":"協和里","LIN":"1鄰","STREET":"文賢路","SECT":" ","MAREA":" ","LANE":" ","ALLEY":" ","HOUSE_NO":"１０９號","E_COORD97":167413.72,"N_COORD97":2544678.3700000001,"ADDRESS":"文賢路１０９號","OBJECTID":509611},"geometry":{"x":167413.72000000067,"y":2544678.3700000029}},{"attributes":{"ID":509639,"DIS_CODE":0,"TOWNNAME":"中西區","LI":"協和里","LIN":"1鄰","STREET":"文賢路","SECT":" ","MAREA":" ","LANE":" ","ALLEY":" ","HOUSE_NO":"１１１號","E_COORD97":167414.89000000001,"N_COORD97":2544681.3900000001,"ADDRESS":"文賢路１１１號","OBJECTID":509612},"geometry":{"x":167414.88999999966,"y":2544681.3900000025}},{"attributes":{"ID":509640,"DIS_CODE":0,"TOWNNAME":"中西區","LI":"大涼里","LIN":"1鄰","STREET":"金華路","SECT":"三段","MAREA":" ","LANE":" ","ALLEY":" ","HOUSE_NO":"１９１號","E_COORD97":167294.81,"N_COORD97":2543843.9900000002,"ADDRESS":"金華路三段１９１號","OBJECTID":509613},"geometry":{"x":167294.80999999959,"y":2543843.9900000002}},{"attributes":{"ID":509641,"DIS_CODE":0,"TOWNNAME":"中西區","LI":"大涼里","LIN":"1鄰","STREET":"金華路","SECT":"三段","MAREA":" ","LANE":" ","ALLEY":" ","HOUSE_NO":"１９３號","E_COORD97":167295.87,"N_COORD97":2543847.5099999998,"ADDRESS":"金華路三段１９３號","OBJECTID":509614},"geometry":{"x":167295.87000000104,"y":2543847.5100000035}},{"attributes":{"ID":509642,"DIS_CODE":0,"TOWNNAME":"中西區","LI":"大涼里","LIN":"1鄰","STREET":"中正路","SECT":" ","MAREA":" ","LANE":" ","ALLEY":" ","HOUSE_NO":"３４３號之１４","E_COORD97":167284.59,"N_COORD97":2543809.48,"ADDRESS":"中正路３４３號之１４","OBJECTID":509615},"geometry":{"x":167284.58999999985,"y":2543809.4800000023}},{"attributes":{"ID":509643,"DIS_CODE":0,"TOWNNAME":"中西區","LI":"大涼里","LIN":"1鄰","STREET":"中正路","SECT":" ","MAREA":" ","LANE":" ","ALLEY":" ","HOUSE_NO":"３４３號之１６","E_COORD97":167276.79999999999,"N_COORD97":2543811.1099999999,"ADDRESS":"中正路３４３號之１６","OBJECTID":509616},"geometry":{"x":167276.79999999981,"y":2543811.1099999994}},{"attributes":{"ID":509644,"DIS_CODE":0,"TOWNNAME":"中西區","LI":"大涼里","LIN":"1鄰","STREET":"中正路","SECT":" ","MAREA":" ","LANE":" ","ALLEY":" ","HOUSE_NO":"３４３號之１７","E_COORD97":167272.76999999999,"N_COORD97":2543812.02,"ADDRESS":"中正路３４３號之１７","OBJECTID":509617},"geometry":{"x":167272.76999999955,"y":2543812.0199999996}},{"attributes":{"ID":509645,"DIS_CODE":0,"TOWNNAME":"中西區","LI":"大涼里","LIN":"1鄰","STREET":"中正路","SECT":" ","MAREA":" ","LANE":" ","ALLEY":" ","HOUSE_NO":"３４３號之１８","E_COORD97":167268.64999999999,"N_COORD97":2543813.1299999999,"ADDRESS":"中正路３４３號之１８","OBJECTID":509618},"geometry":{"x":167268.6500000013,"y":2543813.1300000008}},{"attributes":{"ID":509646,"DIS_CODE":0,"TOWNNAME":"中西區","LI":"大涼里","LIN":"1鄰","STREET":"中正路","SECT":" ","MAREA":" ","LANE":" ","ALLEY":" ","HOUSE_NO":"３４３號之１９","E_COORD97":167264.10999999999,"N_COORD97":2543814.0299999998,"ADDRESS":"中正路３４３號之１９","OBJECTID":509619},"geometry":{"x":167264.11000000127,"y":2543814.0300000012}},{"attributes":{"ID":509647,"DIS_CODE":0,"TOWNNAME":"中西區","LI":"大涼里","LIN":"1鄰","STREET":"中正路","SECT":" ","MAREA":" ","LANE":" ","ALLEY":" ","HOUSE_NO":"３４３號之２０","E_COORD97":167260.09,"N_COORD97":2543815.04,"ADDRESS":"中正路３４３號之２０","OBJECTID":509620},"geometry":{"x":167260.09000000078,"y":2543815.0399999991}},{"attributes":{"ID":509648,"DIS_CODE":0,"TOWNNAME":"中西區","LI":"大涼里","LIN":"1鄰","STREET":"中正路","SECT":" ","MAREA":" ","LANE":" ","ALLEY":" ","HOUSE_NO":"３４３號之２１","E_COORD97":167255.95999999999,"N_COORD97":2543816.04,"ADDRESS":"中正路３４３號之２１","OBJECTID":509621},"geometry":{"x":167255.96000000089,"y":2543816.0399999972}},{"attributes":{"ID":509649,"DIS_CODE":0,"TOWNNAME":"中西區","LI":"大涼里","LIN":"1鄰","STREET":"中正路","SECT":" ","MAREA":" ","LANE":" ","ALLEY":" ","HOUSE_NO":"３４３號之２２","E_COORD97":167251.47,"N_COORD97":2543817.3300000001,"ADDRESS":"中正路３４３號之２２","OBJECTID":509622},"geometry":{"x":167251.46999999974,"y":2543817.3300000001}},{"attributes":{"ID":509650,"DIS_CODE":0,"TOWNNAME":"中西區","LI":"大涼里","LIN":"1鄰","STREET":"中正路","SECT":" ","MAREA":" ","LANE":" ","ALLEY":" ","HOUSE_NO":"３４３號之２４","E_COORD97":167244.39999999999,"N_COORD97":2543818.6099999999,"ADDRESS":"中正路３４３號之２４","OBJECTID":509623},"geometry":{"x":167244.40000000037,"y":2543818.6099999994}},{"attributes":{"ID":509651,"DIS_CODE":0,"TOWNNAME":"中西區","LI":"大涼里","LIN":"1鄰","STREET":"中正路","SECT":" ","MAREA":" ","LANE":" ","ALLEY":" ","HOUSE_NO":"３４３號之２６","E_COORD97":167237.17999999999,"N_COORD97":2543820.4399999999,"ADDRESS":"中正路３４３號之２６","OBJECTID":509624},"geometry":{"x":167237.18000000063,"y":2543820.4399999976}},{"attributes":{"ID":509652,"DIS_CODE":0,"TOWNNAME":"中西區","LI":"大涼里","LIN":"1鄰","STREET":"中正路","SECT":" ","MAREA":" ","LANE":" ","ALLEY":" ","HOUSE_NO":"３５２號之１４","E_COORD97":167293.29999999999,"N_COORD97":2543849.0800000001,"ADDRESS":"中正路３５２號之１４","OBJECTID":509625},"geometry":{"x":167293.29999999981,"y":2543849.0800000019}},{"attributes":{"ID":509653,"DIS_CODE":0,"TOWNNAME":"中西區","LI":"大涼里","LIN":"1鄰","STREET":"中正路","SECT":" ","MAREA":" ","LANE":" ","ALLEY":" ","HOUSE_NO":"３５２號之１５","E_COORD97":167289.26000000001,"N_COORD97":2543850.0899999999,"ADDRESS":"中正路３５２號之１５","OBJECTID":509626},"geometry":{"x":167289.26000000071,"y":2543850.0899999999}},{"attributes":{"ID":509654,"DIS_CODE":0,"TOWNNAME":"中西區","LI":"大涼里","LIN":"1鄰","STREET":"中正路","SECT":" ","MAREA":" ","LANE":" ","ALLEY":" ","HOUSE_NO":"３５２號之１６","E_COORD97":167285.35999999999,"N_COORD97":2543851.25,"ADDRESS":"中正路３５２號之１６","OBJECTID":509627},"geometry":{"x":167285.36000000034,"y":2543851.2500000019}},{"attributes":{"ID":509655,"DIS_CODE":0,"TOWNNAME":"中西區","LI":"大涼里","LIN":"1鄰","STREET":"中正路","SECT":" ","MAREA":" ","LANE":" ","ALLEY":" ","HOUSE_NO":"３５２號之１７","E_COORD97":167281.31,"N_COORD97":2543851.9399999999,"ADDRESS":"中正路３５２號之１７","OBJECTID":509628},"geometry":{"x":167281.30999999959,"y":2543851.9400000013}},{"attributes":{"ID":509656,"DIS_CODE":0,"TOWNNAME":"中西區","LI":"大涼里","LIN":"1鄰","STREET":"中正路","SECT":" ","MAREA":" ","LANE":" ","ALLEY":" ","HOUSE_NO":"３５２號之１８","E_COORD97":167277.41,"N_COORD97":2543852.9500000002,"ADDRESS":"中正路３５２號之１８","OBJECTID":509629},"geometry":{"x":167277.41000000108,"y":2543852.9499999993}},{"attributes":{"ID":509657,"DIS_CODE":0,"TOWNNAME":"中西區","LI":"大涼里","LIN":"1鄰","STREET":"中正路","SECT":" ","MAREA":" ","LANE":" ","ALLEY":" ","HOUSE_NO":"３５２號之１９","E_COORD97":167273.51000000001,"N_COORD97":2543853.6699999999,"ADDRESS":"中正路３５２號之１９","OBJECTID":509630},"geometry":{"x":167273.50999999978,"y":2543853.6700000037}},{"attributes":{"ID":509658,"DIS_CODE":0,"TOWNNAME":"中西區","LI":"大涼里","LIN":"1鄰","STREET":"中正路","SECT":" ","MAREA":" ","LANE":" ","ALLEY":" ","HOUSE_NO":"３５２號之２０","E_COORD97":167269.60999999999,"N_COORD97":2543854.5299999998,"ADDRESS":"中正路３５２號之２０","OBJECTID":509631},"geometry":{"x":167269.61000000034,"y":2543854.5300000012}},{"attributes":{"ID":509659,"DIS_CODE":0,"TOWNNAME":"中西區","LI":"大涼里","LIN":"1鄰","STREET":"中正路","SECT":" ","MAREA":" ","LANE":" ","ALLEY":" ","HOUSE_NO":"３５２號之２１","E_COORD97":167265.70999999999,"N_COORD97":2543855.3999999999,"ADDRESS":"中正路３５２號之２１","OBJECTID":509632},"geometry":{"x":167265.70999999996,"y":2543855.4000000004}},{"attributes":{"ID":509660,"DIS_CODE":0,"TOWNNAME":"中西區","LI":"大涼里","LIN":"1鄰","STREET":"中正路","SECT":" ","MAREA":" ","LANE":" ","ALLEY":" ","HOUSE_NO":"３５２號之２２","E_COORD97":167261.37,"N_COORD97":2543856.5499999998,"ADDRESS":"中正路３５２號之２２","OBJECTID":509633},"geometry":{"x":167261.37000000011,"y":2543856.5500000026}},{"attributes":{"ID":509661,"DIS_CODE":0,"TOWNNAME":"中西區","LI":"大涼里","LIN":"1鄰","STREET":"中正路","SECT":" ","MAREA":" ","LANE":" ","ALLEY":" ","HOUSE_NO":"３５２號之２３","E_COORD97":167257.47,"N_COORD97":2543857.2799999998,"ADDRESS":"中正路３５２號之２３","OBJECTID":509634},"geometry":{"x":167257.47000000067,"y":2543857.2799999993}},{"attributes":{"ID":509662,"DIS_CODE":0,"TOWNNAME":"中西區","LI":"大涼里","LIN":"1鄰","STREET":"中正路","SECT":" ","MAREA":" ","LANE":" ","ALLEY":" ","HOUSE_NO":"３５２號之２４","E_COORD97":167253.70999999999,"N_COORD97":2543858,"ADDRESS":"中正路３５２號之２４","OBJECTID":509635},"geometry":{"x":167253.70999999996,"y":2543858.0000000037}},{"attributes":{"ID":509663,"DIS_CODE":0,"TOWNNAME":"中西區","LI":"大涼里","LIN":"1鄰","STREET":"中正路","SECT":" ","MAREA":" ","LANE":" ","ALLEY":" ","HOUSE_NO":"３５２號之２５","E_COORD97":167249.67000000001,"N_COORD97":2543858.7200000002,"ADDRESS":"中正路３５２號之２５","OBJECTID":509636},"geometry":{"x":167249.67000000086,"y":2543858.7200000025}},{"attributes":{"ID":509664,"DIS_CODE":0,"TOWNNAME":"中西區","LI":"大涼里","LIN":"1鄰","STREET":"中正路","SECT":" ","MAREA":" ","LANE":" ","ALLEY":" ","HOUSE_NO":"３５２號之２６","E_COORD97":167245.32999999999,"N_COORD97":2543859.4399999999,"ADDRESS":"中正路３５２號之２６","OBJECTID":509637},"geometry":{"x":167245.33000000101,"y":2543859.4400000013}},{"attributes":{"ID":509665,"DIS_CODE":0,"TOWNNAME":"中西區","LI":"大涼里","LIN":"1鄰","STREET":"中正路","SECT":" ","MAREA":" ","LANE":" ","ALLEY":" ","HOUSE_NO":"３５２號之２７","E_COORD97":167217.26000000001,"N_COORD97":2543860.5299999998,"ADDRESS":"中正路３５２號之２７","OBJECTID":509638},"geometry":{"x":167217.25999999978,"y":2543860.5300000031}},{"attributes":{"ID":509666,"DIS_CODE":0,"TOWNNAME":"仁德區","LI":"仁義里","LIN":"1鄰","STREET":"義林五街","SECT":" ","MAREA":" ","LANE":" ","ALLEY":" ","HOUSE_NO":"２３號","E_COORD97":174401.51000000001,"N_COORD97":2541002.5099999998,"ADDRESS":"義林五街２３號","OBJECTID":509639},"geometry":{"x":174401.50999999978,"y":2541002.5099999998}},{"attributes":{"ID":509667,"DIS_CODE":0,"TOWNNAME":"中西區","LI":"大涼里","LIN":"1鄰","STREET":"金華路","SECT":"三段","MAREA":" ","LANE":" ","ALLEY":" ","HOUSE_NO":"１７９號","E_COORD97":167288.10999999999,"N_COORD97":2543813,"ADDRESS":"金華路三段１７９號","OBJECTID":509640},"geometry":{"x":167288.11000000127,"y":2543813}},{"attributes":{"ID":509668,"DIS_CODE":0,"TOWNNAME":"中西區","LI":"大涼里","LIN":"1鄰","STREET":"金華路","SECT":"三段","MAREA":" ","LANE":" ","ALLEY":" ","HOUSE_NO":"１８１號","E_COORD97":167287.76000000001,"N_COORD97":2543817.23,"ADDRESS":"金華路三段１８１號","OBJECTID":509641},"geometry":{"x":167287.76000000071,"y":2543817.2300000023}},{"attributes":{"ID":509669,"DIS_CODE":0,"TOWNNAME":"中西區","LI":"大涼里","LIN":"1鄰","STREET":"金華路","SECT":"三段","MAREA":" ","LANE":" ","ALLEY":" ","HOUSE_NO":"１８５號","E_COORD97":167290.57999999999,"N_COORD97":2543828.8500000001,"ADDRESS":"金華路三段１８５號","OBJECTID":509642},"geometry":{"x":167290.57999999914,"y":2543828.8500000015}},{"attributes":{"ID":509670,"DIS_CODE":0,"TOWNNAME":"中西區","LI":"大涼里","LIN":"1鄰","STREET":"金華路","SECT":"三段","MAREA":" ","LANE":" ","ALLEY":" ","HOUSE_NO":"１８７號","E_COORD97":167290.94,"N_COORD97":2543831.3100000001,"ADDRESS":"金華路三段１８７號","OBJECTID":509643},"geometry":{"x":167290.94000000134,"y":2543831.3100000005}},{"attributes":{"ID":509671,"DIS_CODE":0,"TOWNNAME":"中西區","LI":"大涼里","LIN":"1鄰","STREET":"中正路","SECT":" ","MAREA":" ","LANE":" ","ALLEY":" ","HOUSE_NO":"３４３號之１５","E_COORD97":167280.63,"N_COORD97":2543810.4100000001,"ADDRESS":"中正路３４３號之１５","OBJECTID":509644},"geometry":{"x":167280.63000000082,"y":2543810.4100000001}},{"attributes":{"ID":509672,"DIS_CODE":0,"TOWNNAME":"中西區","LI":"藥王里","LIN":"1鄰","STREET":"民權路","SECT":"三段","MAREA":" ","LANE":" ","ALLEY":" ","HOUSE_NO":"２１６號","E_COORD97":167411.79999999999,"N_COORD97":2544278.8100000001,"ADDRESS":"民權路三段２１６號","OBJECTID":509645},"geometry":{"x":167411.79999999981,"y":2544278.8100000005}},{"attributes":{"ID":509673,"DIS_CODE":0,"TOWNNAME":"中西區","LI":"藥王里","LIN":"1鄰","STREET":"民權路","SECT":"三段","MAREA":" ","LANE":" ","ALLEY":" ","HOUSE_NO":"２１８號","E_COORD97":167409.62,"N_COORD97":2544280.2599999998,"ADDRESS":"民權路三段２１８號","OBJECTID":509646},"geometry":{"x":167409.62000000104,"y":2544280.2600000016}},{"attributes":{"ID":509674,"DIS_CODE":0,"TOWNNAME":"中西區","LI":"藥王里","LIN":"1鄰","STREET":"民權路","SECT":"三段","MAREA":" ","LANE":" ","ALLEY":" ","HOUSE_NO":"２２０號","E_COORD97":167406.23000000001,"N_COORD97":2544281.71,"ADDRESS":"民權路三段２２０號","OBJECTID":509647},"geometry":{"x":167406.23000000045,"y":2544281.7100000046}},{"attributes":{"ID":509675,"DIS_CODE":0,"TOWNNAME":"中西區","LI":"藥王里","LIN":"1鄰","STREET":"民權路","SECT":"三段","MAREA":" ","LANE":" ","ALLEY":" ","HOUSE_NO":"２２２號","E_COORD97":167401.88,"N_COORD97":2544283.4100000001,"ADDRESS":"民權路三段２２２號","OBJECTID":509648},"geometry":{"x":167401.87999999896,"y":2544283.410000002}},{"attributes":{"ID":509676,"DIS_CODE":0,"TOWNNAME":"中西區","LI":"藥王里","LIN":"1鄰","STREET":"民權路","SECT":"三段","MAREA":" ","LANE":" ","ALLEY":" ","HOUSE_NO":"２２４號","E_COORD97":167397.04000000001,"N_COORD97":2544285.8199999998,"ADDRESS":"民權路三段２２４號","OBJECTID":509649},"geometry":{"x":167397.04000000004,"y":2544285.8200000003}},{"attributes":{"ID":509677,"DIS_CODE":0,"TOWNNAME":"中西區","LI":"藥王里","LIN":"1鄰","STREET":"民權路","SECT":"三段","MAREA":" ","LANE":" ","ALLEY":" ","HOUSE_NO":"２２６號","E_COORD97":167385.66,"N_COORD97":2544288.9700000002,"ADDRESS":"民權路三段２２６號","OBJECTID":509650},"geometry":{"x":167385.66000000108,"y":2544288.9700000007}},{"attributes":{"ID":509678,"DIS_CODE":0,"TOWNNAME":"中西區","LI":"藥王里","LIN":"1鄰","STREET":"民權路","SECT":"三段","MAREA":" ","LANE":" ","ALLEY":" ","HOUSE_NO":"２２８號","E_COORD97":167381.54999999999,"N_COORD97":2544292.1099999999,"ADDRESS":"民權路三段２２８號","OBJECTID":509651},"geometry":{"x":167381.54999999981,"y":2544292.1100000013}},{"attributes":{"ID":509679,"DIS_CODE":0,"TOWNNAME":"中西區","LI":"藥王里","LIN":"1鄰","STREET":"民權路","SECT":"三段","MAREA":" ","LANE":" ","ALLEY":" ","HOUSE_NO":"２３０號","E_COORD97":167366.54000000001,"N_COORD97":2544299.6099999999,"ADDRESS":"民權路三段２３０號","OBJECTID":509652},"geometry":{"x":167366.54000000004,"y":2544299.6099999994}},{"attributes":{"ID":509680,"DIS_CODE":0,"TOWNNAME":"中西區","LI":"藥王里","LIN":"1鄰","STREET":"民權路","SECT":"三段","MAREA":" ","LANE":" ","ALLEY":" ","HOUSE_NO":"２３２號","E_COORD97":167346.94,"N_COORD97":2544306.4300000002,"ADDRESS":"民權路三段２３２號","OBJECTID":509653},"geometry":{"x":167346.94000000134,"y":2544306.4300000016}},{"attributes":{"ID":509681,"DIS_CODE":0,"TOWNNAME":"中西區","LI":"協進里","LIN":"1鄰","STREET":"民生路","SECT":"二段","MAREA":" ","LANE":" ","ALLEY":" ","HOUSE_NO":"２０４號","E_COORD97":167301.01000000001,"N_COORD97":2544119.2799999998,"ADDRESS":"民生路二段２０４號","OBJECTID":509654},"geometry":{"x":167301.01000000164,"y":2544119.2799999993}},{"attributes":{"ID":509682,"DIS_CODE":0,"TOWNNAME":"中西區","LI":"協進里","LIN":"1鄰","STREET":"民生路","SECT":"二段","MAREA":" ","LANE":" ","ALLEY":" ","HOUSE_NO":"２０６號","E_COORD97":167297.95000000001,"N_COORD97":2544120.6499999999,"ADDRESS":"民生路二段２０６號","OBJECTID":509655},"geometry":{"x":167297.95000000019,"y":2544120.6500000004}},{"attributes":{"ID":509683,"DIS_CODE":0,"TOWNNAME":"中西區","LI":"協進里","LIN":"1鄰","STREET":"民生路","SECT":"二段","MAREA":" ","LANE":" ","ALLEY":" ","HOUSE_NO":"２０８號","E_COORD97":167295.51999999999,"N_COORD97":2544121.4900000002,"ADDRESS":"民生路二段２０８號","OBJECTID":509656},"geometry":{"x":167295.51999999862,"y":2544121.4900000002}},{"attributes":{"ID":509684,"DIS_CODE":0,"TOWNNAME":"中西區","LI":"協進里","LIN":"1鄰","STREET":"民生路","SECT":"二段","MAREA":" ","LANE":" ","ALLEY":" ","HOUSE_NO":"１９０號","E_COORD97":167350.25,"N_COORD97":2544102.1499999999,"ADDRESS":"民生路二段１９０號","OBJECTID":509657},"geometry":{"x":167350.25,"y":2544102.1500000022}},{"attributes":{"ID":509685,"DIS_CODE":0,"TOWNNAME":"中西區","LI":"協進里","LIN":"1鄰","STREET":"民生路","SECT":"二段","MAREA":" ","LANE":" ","ALLEY":" ","HOUSE_NO":"１９２號","E_COORD97":167344.32999999999,"N_COORD97":2544104.04,"ADDRESS":"民生路二段１９２號","OBJECTID":509658},"geometry":{"x":167344.33000000007,"y":2544104.0399999991}},{"attributes":{"ID":509686,"DIS_CODE":0,"TOWNNAME":"中西區","LI":"協進里","LIN":"1鄰","STREET":"民生路","SECT":"二段","MAREA":" ","LANE":" ","ALLEY":" ","HOUSE_NO":"１９４號","E_COORD97":167337.78,"N_COORD97":2544106.1499999999,"ADDRESS":"民生路二段１９４號","OBJECTID":509659},"geometry":{"x":167337.78000000119,"y":2544106.1500000022}},{"attributes":{"ID":509687,"DIS_CODE":0,"TOWNNAME":"中西區","LI":"協進里","LIN":"1鄰","STREET":"民生路","SECT":"二段","MAREA":" ","LANE":" ","ALLEY":" ","HOUSE_NO":"１９６號","E_COORD97":167331.23000000001,"N_COORD97":2544108.3700000001,"ADDRESS":"民生路二段１９６號","OBJECTID":509660},"geometry":{"x":167331.23000000138,"y":2544108.3700000029}},{"attributes":{"ID":509688,"DIS_CODE":0,"TOWNNAME":"中西區","LI":"協進里","LIN":"1鄰","STREET":"民生路","SECT":"二段","MAREA":" ","LANE":" ","ALLEY":" ","HOUSE_NO":"１９８號","E_COORD97":167324.57999999999,"N_COORD97":2544111.0099999998,"ADDRESS":"民生路二段１９８號","OBJECTID":509661},"geometry":{"x":167324.58000000194,"y":2544111.0099999998}},{"attributes":{"ID":509689,"DIS_CODE":0,"TOWNNAME":"中西區","LI":"協進里","LIN":"1鄰","STREET":"民生路","SECT":"二段","MAREA":" ","LANE":" ","ALLEY":" ","HOUSE_NO":"２００號","E_COORD97":167318.76999999999,"N_COORD97":2544113.0099999998,"ADDRESS":"民生路二段２００號","OBJECTID":509662},"geometry":{"x":167318.76999999955,"y":2544113.0100000016}},{"attributes":{"ID":509690,"DIS_CODE":0,"TOWNNAME":"中西區","LI":"協進里","LIN":"1鄰","STREET":"金華路","SECT":"四段","MAREA":" ","LANE":" ","ALLEY":" ","HOUSE_NO":"１３號","E_COORD97":167370.32000000001,"N_COORD97":2544143.3999999999,"ADDRESS":"金華路四段１３號","OBJECTID":509663},"geometry":{"x":167370.3200000003,"y":2544143.4000000004}},{"attributes":{"ID":509691,"DIS_CODE":0,"TOWNNAME":"中西區","LI":"協進里","LIN":"1鄰","STREET":"金華路","SECT":"四段","MAREA":" ","LANE":" ","ALLEY":" ","HOUSE_NO":"１５號","E_COORD97":167371.60999999999,"N_COORD97":2544148.0299999998,"ADDRESS":"金華路四段１５號","OBJECTID":509664},"geometry":{"x":167371.61000000034,"y":2544148.0299999993}},{"attributes":{"ID":509692,"DIS_CODE":0,"TOWNNAME":"中西區","LI":"協進里","LIN":"1鄰","STREET":"金華路","SECT":"四段","MAREA":" ","LANE":" ","ALLEY":" ","HOUSE_NO":"１７號","E_COORD97":167367.48999999999,"N_COORD97":2544203.5,"ADDRESS":"金華路四段１７號","OBJECTID":509665},"geometry":{"x":167367.49000000022,"y":2544203.5}},{"attributes":{"ID":509693,"DIS_CODE":0,"TOWNNAME":"中西區","LI":"協進里","LIN":"1鄰","STREET":"金華路","SECT":"四段","MAREA":" ","LANE":" ","ALLEY":" ","HOUSE_NO":"１號","E_COORD97":167356.79999999999,"N_COORD97":2544108.2599999998,"ADDRESS":"金華路四段１號","OBJECTID":509666},"geometry":{"x":167356.80000000168,"y":2544108.2600000016}},{"attributes":{"ID":509694,"DIS_CODE":0,"TOWNNAME":"中西區","LI":"協進里","LIN":"1鄰","STREET":"金華路","SECT":"四段","MAREA":" ","LANE":" ","ALLEY":" ","HOUSE_NO":"３號","E_COORD97":167359.01000000001,"N_COORD97":2544113.3300000001,"ADDRESS":"金華路四段３號","OBJECTID":509667},"geometry":{"x":167359.01000000071,"y":2544113.3300000001}},{"attributes":{"ID":509695,"DIS_CODE":0,"TOWNNAME":"中西區","LI":"協進里","LIN":"1鄰","STREET":"金華路","SECT":"四段","MAREA":" ","LANE":" ","ALLEY":" ","HOUSE_NO":"５號","E_COORD97":167360.70000000001,"N_COORD97":2544118.5,"ADDRESS":"金華路四段５號","OBJECTID":509668},"geometry":{"x":167360.70000000019,"y":2544118.5}},{"attributes":{"ID":509696,"DIS_CODE":0,"TOWNNAME":"中西區","LI":"協進里","LIN":"1鄰","STREET":"金華路","SECT":"四段","MAREA":" ","LANE":" ","ALLEY":" ","HOUSE_NO":"７號","E_COORD97":167362.07999999999,"N_COORD97":2544123.6699999999,"ADDRESS":"金華路四段７號","OBJECTID":509669},"geometry":{"x":167362.08000000101,"y":2544123.6699999999}},{"attributes":{"ID":509697,"DIS_CODE":0,"TOWNNAME":"中西區","LI":"協進里","LIN":"1鄰","STREET":"金華路","SECT":"四段","MAREA":" ","LANE":" ","ALLEY":" ","HOUSE_NO":"１１號底一層之２","E_COORD97":167361.45999999999,"N_COORD97":2544137.6099999999,"ADDRESS":"金華路四段１１號底一層之２","OBJECTID":509670},"geometry":{"x":167361.46000000089,"y":2544137.6099999994}},{"attributes":{"ID":509698,"DIS_CODE":0,"TOWNNAME":"永康區","LI":"\u25A0洲里","LIN":"1鄰","STREET":"仁愛街","SECT":" ","MAREA":" ","LANE":" ","ALLEY":" ","HOUSE_NO":"３號之１","E_COORD97":171927.19,"N_COORD97":2549205.48,"ADDRESS":"仁愛街３號之１","OBJECTID":509671},"geometry":{"x":171927.19000000134,"y":2549205.4800000042}},{"attributes":{"ID":509699,"DIS_CODE":0,"TOWNNAME":"永康區","LI":"五王里","LIN":"1鄰","STREET":"中華二路","SECT":" ","MAREA":" ","LANE":" ","ALLEY":" ","HOUSE_NO":"２２０號","E_COORD97":171568.84,"N_COORD97":2545441.8700000001,"ADDRESS":"中華二路２２０號","OBJECTID":509672},"geometry":{"x":171568.83999999985,"y":2545441.870000001}},{"attributes":{"ID":509700,"DIS_CODE":0,"TOWNNAME":"永康區","LI":"中華里","LIN":"1鄰","STREET":"小東路","SECT":" ","MAREA":" ","LANE":" ","ALLEY":" ","HOUSE_NO":"６８９號之７１","E_COORD97":172059.69,"N_COORD97":2544344.3399999999,"ADDRESS":"小東路６８９號之７１","OBJECTID":509673},"geometry":{"x":172059.69000000041,"y":2544344.3400000017}},{"attributes":{"ID":509701,"DIS_CODE":0,"TOWNNAME":"永康區","LI":"中華里","LIN":"1鄰","STREET":"小東路","SECT":" ","MAREA":" ","LANE":" ","ALLEY":" ","HOUSE_NO":"６８９號之８４","E_COORD97":172059.72,"N_COORD97":2544344.3399999999,"ADDRESS":"小東路６８９號之８４","OBJECTID":509674},"geometry":{"x":172059.7200000016,"y":2544344.3400000017}},{"attributes":{"ID":509702,"DIS_CODE":0,"TOWNNAME":"永康區","LI":"中華里","LIN":"1鄰","STREET":"小東路","SECT":" ","MAREA":" ","LANE":" ","ALLEY":" ","HOUSE_NO":"６８９號之５５","E_COORD97":172059.85000000001,"N_COORD97":2544344.3399999999,"ADDRESS":"小東路６８９號之５５","OBJECTID":509675},"geometry":{"x":172059.84999999963,"y":2544344.3400000017}},{"attributes":{"ID":509703,"DIS_CODE":0,"TOWNNAME":"仁德區","LI":"仁義里","LIN":"1鄰","STREET":"義林五街","SECT":" ","MAREA":" ","LANE":" ","ALLEY":" ","HOUSE_NO":"１１號","E_COORD97":174429.70000000001,"N_COORD97":2540997.2599999998,"ADDRESS":"義林五街１１號","OBJECTID":509676},"geometry":{"x":174429.70000000019,"y":2540997.2599999998}},{"attributes":{"ID":509704,"DIS_CODE":0,"TOWNNAME":"永康區","LI":"中華里","LIN":"1鄰","STREET":"小東路","SECT":" ","MAREA":" ","LANE":" ","ALLEY":" ","HOUSE_NO":"６８９號之７８","E_COORD97":172059.84,"N_COORD97":2544344.3399999999,"ADDRESS":"小東路６８９號之７８","OBJECTID":509677},"geometry":{"x":172059.83999999985,"y":2544344.3400000017}},{"attributes":{"ID":509705,"DIS_CODE":0,"TOWNNAME":"永康區","LI":"中華里","LIN":"1鄰","STREET":"小東路","SECT":" ","MAREA":" ","LANE":" ","ALLEY":" ","HOUSE_NO":"６８９號之８３","E_COORD97":172059.79000000001,"N_COORD97":2544344.3399999999,"ADDRESS":"小東路６８９號之８３","OBJECTID":509678},"geometry":{"x":172059.79000000097,"y":2544344.3400000017}},{"attributes":{"ID":509706,"DIS_CODE":0,"TOWNNAME":"永康區","LI":"中華里","LIN":"1鄰","STREET":"小東路","SECT":" ","MAREA":" ","LANE":" ","ALLEY":" ","HOUSE_NO":"６８９號之８８","E_COORD97":172059.84,"N_COORD97":2544344.3399999999,"ADDRESS":"小東路６８９號之８８","OBJECTID":509679},"geometry":{"x":172059.83999999985,"y":2544344.3400000017}},{"attributes":{"ID":509707,"DIS_CODE":0,"TOWNNAME":"永康區","LI":"中華里","LIN":"1鄰","STREET":"小東路","SECT":" ","MAREA":" ","LANE":" ","ALLEY":" ","HOUSE_NO":"６８９號之８７","E_COORD97":172059.76999999999,"N_COORD97":2544344.3399999999,"ADDRESS":"小東路６８９號之８７","OBJECTID":509680},"geometry":{"x":172059.77000000048,"y":2544344.3400000017}},{"attributes":{"ID":509708,"DIS_CODE":0,"TOWNNAME":"永康區","LI":"中華里","LIN":"1鄰","STREET":"小東路","SECT":" ","MAREA":" ","LANE":" ","ALLEY":" ","HOUSE_NO":"６８９號之３７","E_COORD97":172059.76999999999,"N_COORD97":2544344.3399999999,"ADDRESS":"小東路６８９號之３７","OBJECTID":509681},"geometry":{"x":172059.77000000048,"y":2544344.3400000017}},{"attributes":{"ID":509709,"DIS_CODE":0,"TOWNNAME":"永康區","LI":"中華里","LIN":"1鄰","STREET":"小東路","SECT":" ","MAREA":" ","LANE":" ","ALLEY":" ","HOUSE_NO":"６８９號之８２","E_COORD97":172059.82999999999,"N_COORD97":2544344.3399999999,"ADDRESS":"小東路６８９號之８２","OBJECTID":509682},"geometry":{"x":172059.83000000101,"y":2544344.3400000017}},{"attributes":{"ID":509710,"DIS_CODE":0,"TOWNNAME":"永康區","LI":"中華里","LIN":"1鄰","STREET":"小東路","SECT":" ","MAREA":" ","LANE":" ","ALLEY":" ","HOUSE_NO":"６８９號之６３","E_COORD97":172059.79000000001,"N_COORD97":2544344.3399999999,"ADDRESS":"小東路６８９號之６３","OBJECTID":509683},"geometry":{"x":172059.79000000097,"y":2544344.3400000017}},{"attributes":{"ID":509711,"DIS_CODE":0,"TOWNNAME":"永康區","LI":"中華里","LIN":"1鄰","STREET":"小東路","SECT":" ","MAREA":" ","LANE":" ","ALLEY":" ","HOUSE_NO":"６８９號之９３","E_COORD97":172059.79000000001,"N_COORD97":2544344.3399999999,"ADDRESS":"小東路６８９號之９３","OBJECTID":509684},"geometry":{"x":172059.79000000097,"y":2544344.3400000017}},{"attributes":{"ID":509712,"DIS_CODE":0,"TOWNNAME":"永康區","LI":"中華里","LIN":"1鄰","STREET":"小東路","SECT":" ","MAREA":" ","LANE":" ","ALLEY":" ","HOUSE_NO":"６８９號之７","E_COORD97":172058.51999999999,"N_COORD97":2544344.3399999999,"ADDRESS":"小東路６８９號之７","OBJECTID":509685},"geometry":{"x":172058.51999999955,"y":2544344.3400000017}},{"attributes":{"ID":509713,"DIS_CODE":0,"TOWNNAME":"永康區","LI":"中華里","LIN":"1鄰","STREET":"小東路","SECT":" ","MAREA":" ","LANE":" ","ALLEY":" ","HOUSE_NO":"６８９號之２２","E_COORD97":172059.82999999999,"N_COORD97":2544344.3399999999,"ADDRESS":"小東路６８９號之２２","OBJECTID":509686},"geometry":{"x":172059.83000000101,"y":2544344.3400000017}},{"attributes":{"ID":509714,"DIS_CODE":0,"TOWNNAME":"永康區","LI":"中華里","LIN":"1鄰","STREET":"小東路","SECT":" ","MAREA":" ","LANE":" ","ALLEY":" ","HOUSE_NO":"６８９號之１０８","E_COORD97":172061.09,"N_COORD97":2544344.3399999999,"ADDRESS":"小東路６８９號之１０８","OBJECTID":509687},"geometry":{"x":172061.09000000078,"y":2544344.3400000017}},{"attributes":{"ID":509715,"DIS_CODE":0,"TOWNNAME":"永康區","LI":"中華里","LIN":"1鄰","STREET":"小東路","SECT":" ","MAREA":" ","LANE":" ","ALLEY":" ","HOUSE_NO":"６８９號之２８","E_COORD97":172059.84,"N_COORD97":2544344.3399999999,"ADDRESS":"小東路６８９號之２８","OBJECTID":509688},"geometry":{"x":172059.83999999985,"y":2544344.3400000017}},{"attributes":{"ID":509716,"DIS_CODE":0,"TOWNNAME":"永康區","LI":"中華里","LIN":"1鄰","STREET":"小東路","SECT":" ","MAREA":" ","LANE":" ","ALLEY":" ","HOUSE_NO":"６８９號之９５","E_COORD97":172059.85000000001,"N_COORD97":2544344.3399999999,"ADDRESS":"小東路６８９號之９５","OBJECTID":509689},"geometry":{"x":172059.84999999963,"y":2544344.3400000017}},{"attributes":{"ID":509717,"DIS_CODE":0,"TOWNNAME":"永康區","LI":"中華里","LIN":"1鄰","STREET":"小東路","SECT":" ","MAREA":" ","LANE":" ","ALLEY":" ","HOUSE_NO":"６８９號之３４","E_COORD97":172059.72,"N_COORD97":2544344.3399999999,"ADDRESS":"小東路６８９號之３４","OBJECTID":509690},"geometry":{"x":172059.7200000016,"y":2544344.3400000017}},{"attributes":{"ID":509718,"DIS_CODE":0,"TOWNNAME":"永康區","LI":"中華里","LIN":"1鄰","STREET":"小東路","SECT":" ","MAREA":" ","LANE":" ","ALLEY":" ","HOUSE_NO":"６８９號之１０２","E_COORD97":172061.07999999999,"N_COORD97":2544344.3399999999,"ADDRESS":"小東路６８９號之１０２","OBJECTID":509691},"geometry":{"x":172061.08000000101,"y":2544344.3400000017}},{"attributes":{"ID":509719,"DIS_CODE":0,"TOWNNAME":"永康區","LI":"中華里","LIN":"1鄰","STREET":"小東路","SECT":" ","MAREA":" ","LANE":" ","ALLEY":" ","HOUSE_NO":"６８９號之１０５","E_COORD97":172061.10000000001,"N_COORD97":2544344.3399999999,"ADDRESS":"小東路６８９號之１０５","OBJECTID":509692},"geometry":{"x":172061.10000000056,"y":2544344.3400000017}},{"attributes":{"ID":509720,"DIS_CODE":0,"TOWNNAME":"永康區","LI":"\u25A0洲里","LIN":"1鄰","STREET":"仁愛街","SECT":" ","MAREA":" ","LANE":" ","ALLEY":" ","HOUSE_NO":"３號之２","E_COORD97":171929.92999999999,"N_COORD97":2549210.23,"ADDRESS":"仁愛街３號之２","OBJECTID":509693},"geometry":{"x":171929.93000000063,"y":2549210.2299999986}},{"attributes":{"ID":509721,"DIS_CODE":0,"TOWNNAME":"永康區","LI":"中華里","LIN":"1鄰","STREET":"小東路","SECT":" ","MAREA":" ","LANE":" ","ALLEY":" ","HOUSE_NO":"６８９號之３８","E_COORD97":172059.84,"N_COORD97":2544344.3399999999,"ADDRESS":"小東路６８９號之３８","OBJECTID":509694},"geometry":{"x":172059.83999999985,"y":2544344.3400000017}},{"attributes":{"ID":509722,"DIS_CODE":0,"TOWNNAME":"永康區","LI":"\u25A0洲里","LIN":"1鄰","STREET":"仁愛街","SECT":" ","MAREA":" ","LANE":" ","ALLEY":" ","HOUSE_NO":"１５號","E_COORD97":171943.04999999999,"N_COORD97":2549236.46,"ADDRESS":"仁愛街１５號","OBJECTID":509695},"geometry":{"x":171943.04999999981,"y":2549236.4600000046}},{"attributes":{"ID":509723,"DIS_CODE":0,"TOWNNAME":"永康區","LI":"中華里","LIN":"1鄰","STREET":"小東路","SECT":" ","MAREA":" ","LANE":" ","ALLEY":" ","HOUSE_NO":"６８９號之８","E_COORD97":172058.59,"N_COORD97":2544344.3399999999,"ADDRESS":"小東路６８９號之８","OBJECTID":509696},"geometry":{"x":172058.58999999985,"y":2544344.3400000017}},{"attributes":{"ID":509724,"DIS_CODE":0,"TOWNNAME":"永康區","LI":"中華里","LIN":"1鄰","STREET":"小東路","SECT":" ","MAREA":" ","LANE":" ","ALLEY":" ","HOUSE_NO":"６８９號之９９","E_COORD97":172059.78,"N_COORD97":2544344.3399999999,"ADDRESS":"小東路６８９號之９９","OBJECTID":509697},"geometry":{"x":172059.78000000212,"y":2544344.3400000017}},{"attributes":{"ID":509725,"DIS_CODE":0,"TOWNNAME":"永康區","LI":"中華里","LIN":"1鄰","STREET":"小東路","SECT":" ","MAREA":" ","LANE":" ","ALLEY":" ","HOUSE_NO":"６８９號之３９","E_COORD97":172059.78,"N_COORD97":2544344.3399999999,"ADDRESS":"小東路６８９號之３９","OBJECTID":509698},"geometry":{"x":172059.78000000212,"y":2544344.3400000017}},{"attributes":{"ID":509726,"DIS_CODE":0,"TOWNNAME":"永康區","LI":"中華里","LIN":"1鄰","STREET":"小東路","SECT":" ","MAREA":" ","LANE":" ","ALLEY":" ","HOUSE_NO":"６８９號之６５","E_COORD97":172059.85000000001,"N_COORD97":2544344.3399999999,"ADDRESS":"小東路６８９號之６５","OBJECTID":509699},"geometry":{"x":172059.84999999963,"y":2544344.3400000017}},{"attributes":{"ID":509727,"DIS_CODE":0,"TOWNNAME":"永康區","LI":"中華里","LIN":"1鄰","STREET":"小東路","SECT":" ","MAREA":" ","LANE":" ","ALLEY":" ","HOUSE_NO":"６８９號之９７","E_COORD97":172059.76999999999,"N_COORD97":2544344.3399999999,"ADDRESS":"小東路６８９號之９７","OBJECTID":509700},"geometry":{"x":172059.77000000048,"y":2544344.3400000017}},{"attributes":{"ID":509728,"DIS_CODE":0,"TOWNNAME":"永康區","LI":"中華里","LIN":"1鄰","STREET":"小東路","SECT":" ","MAREA":" ","LANE":" ","ALLEY":" ","HOUSE_NO":"６８９號之１０","E_COORD97":172059.73999999999,"N_COORD97":2544344.3399999999,"ADDRESS":"小東路６８９號之１０","OBJECTID":509701},"geometry":{"x":172059.74000000022,"y":2544344.3400000017}},{"attributes":{"ID":509729,"DIS_CODE":0,"TOWNNAME":"永康區","LI":"中華里","LIN":"1鄰","STREET":"小東路","SECT":" ","MAREA":" ","LANE":" ","ALLEY":" ","HOUSE_NO":"６８９號之１５","E_COORD97":172059.85000000001,"N_COORD97":2544344.3399999999,"ADDRESS":"小東路６８９號之１５","OBJECTID":509702},"geometry":{"x":172059.84999999963,"y":2544344.3400000017}},{"attributes":{"ID":509730,"DIS_CODE":0,"TOWNNAME":"永康區","LI":"中華里","LIN":"1鄰","STREET":"小東路","SECT":" ","MAREA":" ","LANE":" ","ALLEY":" ","HOUSE_NO":"６８９號之１９","E_COORD97":172059.78,"N_COORD97":2544344.3399999999,"ADDRESS":"小東路６８９號之１９","OBJECTID":509703},"geometry":{"x":172059.78000000212,"y":2544344.3400000017}},{"attributes":{"ID":509731,"DIS_CODE":0,"TOWNNAME":"永康區","LI":"中華里","LIN":"1鄰","STREET":"小東路","SECT":" ","MAREA":" ","LANE":" ","ALLEY":" ","HOUSE_NO":"６８９號之３","E_COORD97":172058.54000000001,"N_COORD97":2544344.3399999999,"ADDRESS":"小東路６８９號之３","OBJECTID":509704},"geometry":{"x":172058.54000000097,"y":2544344.3400000017}},{"attributes":{"ID":509732,"DIS_CODE":0,"TOWNNAME":"永康區","LI":"中華里","LIN":"1鄰","STREET":"小東路","SECT":" ","MAREA":" ","LANE":" ","ALLEY":" ","HOUSE_NO":"６８９號之１０９","E_COORD97":172061.03,"N_COORD97":2544344.3399999999,"ADDRESS":"小東路６８９號之１０９","OBJECTID":509705},"geometry":{"x":172061.03000000026,"y":2544344.3400000017}},{"attributes":{"ID":509733,"DIS_CODE":0,"TOWNNAME":"永康區","LI":"中華里","LIN":"1鄰","STREET":"小東路","SECT":" ","MAREA":" ","LANE":" ","ALLEY":" ","HOUSE_NO":"６８９號之４６","E_COORD97":172059.79999999999,"N_COORD97":2544344.3399999999,"ADDRESS":"小東路６８９號之４６","OBJECTID":509706},"geometry":{"x":172059.80000000075,"y":2544344.3400000017}},{"attributes":{"ID":509734,"DIS_CODE":0,"TOWNNAME":"永康區","LI":"中華里","LIN":"1鄰","STREET":"小東路","SECT":" ","MAREA":" ","LANE":" ","ALLEY":" ","HOUSE_NO":"６８９號之１２","E_COORD97":172059.82999999999,"N_COORD97":2544344.3399999999,"ADDRESS":"小東路６８９號之１２","OBJECTID":509707},"geometry":{"x":172059.83000000101,"y":2544344.3400000017}},{"attributes":{"ID":509735,"DIS_CODE":0,"TOWNNAME":"永康區","LI":"中華里","LIN":"1鄰","STREET":"小東路","SECT":" ","MAREA":" ","LANE":" ","ALLEY":" ","HOUSE_NO":"６８９號之２５","E_COORD97":172059.85000000001,"N_COORD97":2544344.3399999999,"ADDRESS":"小東路６８９號之２５","OBJECTID":509708},"geometry":{"x":172059.84999999963,"y":2544344.3400000017}},{"attributes":{"ID":509736,"DIS_CODE":0,"TOWNNAME":"永康區","LI":"中華里","LIN":"1鄰","STREET":"小東路","SECT":" ","MAREA":" ","LANE":" ","ALLEY":" ","HOUSE_NO":"６８９號之９","E_COORD97":172058.53,"N_COORD97":2544344.3399999999,"ADDRESS":"小東路６８９號之９","OBJECTID":509709},"geometry":{"x":172058.53000000119,"y":2544344.3400000017}},{"attributes":{"ID":509737,"DIS_CODE":0,"TOWNNAME":"永康區","LI":"中華里","LIN":"1鄰","STREET":"小東路","SECT":" ","MAREA":" ","LANE":" ","ALLEY":" ","HOUSE_NO":"６８９號之６","E_COORD97":172058.54999999999,"N_COORD97":2544344.3399999999,"ADDRESS":"小東路６８９號之６","OBJECTID":509710},"geometry":{"x":172058.54999999981,"y":2544344.3400000017}},{"attributes":{"ID":509738,"DIS_CODE":0,"TOWNNAME":"永康區","LI":"中華里","LIN":"1鄰","STREET":"小東路","SECT":" ","MAREA":" ","LANE":" ","ALLEY":" ","HOUSE_NO":"６８９號之２９","E_COORD97":172059.78,"N_COORD97":2544344.3399999999,"ADDRESS":"小東路６８９號之２９","OBJECTID":509711},"geometry":{"x":172059.78000000212,"y":2544344.3400000017}},{"attributes":{"ID":509739,"DIS_CODE":0,"TOWNNAME":"永康區","LI":"中華里","LIN":"1鄰","STREET":"小東路","SECT":" ","MAREA":" ","LANE":" ","ALLEY":" ","HOUSE_NO":"６８９號之５","E_COORD97":172058.60000000001,"N_COORD97":2544344.3399999999,"ADDRESS":"小東路６８９號之５","OBJECTID":509712},"geometry":{"x":172058.60000000149,"y":2544344.3400000017}},{"attributes":{"ID":509740,"DIS_CODE":0,"TOWNNAME":"永康區","LI":"中華里","LIN":"1鄰","STREET":"忠孝路","SECT":" ","MAREA":" ","LANE":" ","ALLEY":" ","HOUSE_NO":"９號","E_COORD97":172070.14000000001,"N_COORD97":2544411.7200000002,"ADDRESS":"忠孝路９號","OBJECTID":509713},"geometry":{"x":172070.13999999873,"y":2544411.7200000007}},{"attributes":{"ID":509741,"DIS_CODE":0,"TOWNNAME":"永康區","LI":"中華里","LIN":"1鄰","STREET":"小東路","SECT":" ","MAREA":" ","LANE":" ","ALLEY":" ","HOUSE_NO":"６８９號","E_COORD97":172068.91,"N_COORD97":2544344.6899999999,"ADDRESS":"小東路６８９號","OBJECTID":509714},"geometry":{"x":172068.91000000201,"y":2544344.6900000032}},{"attributes":{"ID":509742,"DIS_CODE":0,"TOWNNAME":"永康區","LI":"中華里","LIN":"1鄰","STREET":"小東路","SECT":" ","MAREA":" ","LANE":" ","ALLEY":" ","HOUSE_NO":"６８９號之２４","E_COORD97":172059.72,"N_COORD97":2544344.3399999999,"ADDRESS":"小東路６８９號之２４","OBJECTID":509715},"geometry":{"x":172059.7200000016,"y":2544344.3400000017}},{"attributes":{"ID":509743,"DIS_CODE":0,"TOWNNAME":"永康區","LI":"大灣里","LIN":"1鄰","STREET":"大安街","SECT":" ","MAREA":" ","LANE":" ","ALLEY":" ","HOUSE_NO":"３８０號","E_COORD97":174648.76999999999,"N_COORD97":2545719.9900000002,"ADDRESS":"大安街３８０號","OBJECTID":509716},"geometry":{"x":174648.76999999955,"y":2545719.9900000039}},{"attributes":{"ID":509744,"DIS_CODE":0,"TOWNNAME":"永康區","LI":"大灣里","LIN":"1鄰","STREET":"大安街","SECT":" ","MAREA":" ","LANE":" ","ALLEY":" ","HOUSE_NO":"４０８號","E_COORD97":174640.35000000001,"N_COORD97":2545766.6699999999,"ADDRESS":"大安街４０８號","OBJECTID":509717},"geometry":{"x":174640.35000000149,"y":2545766.6700000018}},{"attributes":{"ID":509745,"DIS_CODE":0,"TOWNNAME":"永康區","LI":"大灣里","LIN":"1鄰","STREET":"大安街","SECT":" ","MAREA":" ","LANE":" ","ALLEY":" ","HOUSE_NO":"４１０號","E_COORD97":174639.26000000001,"N_COORD97":2545771.1699999999,"ADDRESS":"大安街４１０號","OBJECTID":509718},"geometry":{"x":174639.25999999978,"y":2545771.1699999999}},{"attributes":{"ID":509746,"DIS_CODE":0,"TOWNNAME":"中西區","LI":"西湖里","LIN":"1鄰","STREET":"民權路","SECT":"四段","MAREA":" ","LANE":" ","ALLEY":" ","HOUSE_NO":"３０號","E_COORD97":166581.16,"N_COORD97":2544415.7200000002,"ADDRESS":"民權路四段３０號","OBJECTID":509719},"geometry":{"x":166581.16000000015,"y":2544415.7200000007}},{"attributes":{"ID":509747,"DIS_CODE":0,"TOWNNAME":"中西區","LI":"西湖里","LIN":"1鄰","STREET":"民權路","SECT":"四段","MAREA":" ","LANE":" ","ALLEY":" ","HOUSE_NO":"４６號","E_COORD97":166534.81,"N_COORD97":2544447.5899999999,"ADDRESS":"民權路四段４６號","OBJECTID":509720},"geometry":{"x":166534.81000000052,"y":2544447.5900000017}},{"attributes":{"ID":509748,"DIS_CODE":0,"TOWNNAME":"中西區","LI":"西湖里","LIN":"1鄰","STREET":"民權路","SECT":"四段","MAREA":" ","LANE":" ","ALLEY":" ","HOUSE_NO":"５２號","E_COORD97":166508.39000000001,"N_COORD97":2544448.8599999999,"ADDRESS":"民權路四段５２號","OBJECTID":509721},"geometry":{"x":166508.39000000153,"y":2544448.8600000013}},{"attributes":{"ID":509749,"DIS_CODE":0,"TOWNNAME":"中西區","LI":"西湖里","LIN":"1鄰","STREET":"民權路","SECT":"四段","MAREA":" ","LANE":" ","ALLEY":" ","HOUSE_NO":"５４號","E_COORD97":166503.57000000001,"N_COORD97":2544448.6099999999,"ADDRESS":"民權路四段５４號","OBJECTID":509722},"geometry":{"x":166503.5700000003,"y":2544448.6099999994}},{"attributes":{"ID":509750,"DIS_CODE":0,"TOWNNAME":"中西區","LI":"西湖里","LIN":"1鄰","STREET":"民權路","SECT":"四段","MAREA":" ","LANE":" ","ALLEY":" ","HOUSE_NO":"５６號","E_COORD97":166499.25,"N_COORD97":2544448.6099999999,"ADDRESS":"民權路四段５６號","OBJECTID":509723},"geometry":{"x":166499.25,"y":2544448.6099999994}},{"attributes":{"ID":509751,"DIS_CODE":0,"TOWNNAME":"中西區","LI":"西湖里","LIN":"1鄰","STREET":"民權路","SECT":"四段","MAREA":" ","LANE":" ","ALLEY":" ","HOUSE_NO":"５８號","E_COORD97":166494.42000000001,"N_COORD97":2544448.6099999999,"ADDRESS":"民權路四段５８號","OBJECTID":509724},"geometry":{"x":166494.41999999993,"y":2544448.6099999994}},{"attributes":{"ID":509752,"DIS_CODE":0,"TOWNNAME":"中西區","LI":"西湖里","LIN":"1鄰","STREET":"民權路","SECT":"四段","MAREA":" ","LANE":" ","ALLEY":" ","HOUSE_NO":"６０號","E_COORD97":166490.10000000001,"N_COORD97":2544448.1000000001,"ADDRESS":"民權路四段６０號","OBJECTID":509725},"geometry":{"x":166490.10000000056,"y":2544448.1000000015}},{"attributes":{"ID":509753,"DIS_CODE":0,"TOWNNAME":"中西區","LI":"西湖里","LIN":"1鄰","STREET":"民權路","SECT":"四段","MAREA":" ","LANE":" ","ALLEY":" ","HOUSE_NO":"６２號","E_COORD97":166485.53,"N_COORD97":2544448.1000000001,"ADDRESS":"民權路四段６２號","OBJECTID":509726},"geometry":{"x":166485.53000000026,"y":2544448.1000000015}},{"attributes":{"ID":509754,"DIS_CODE":0,"TOWNNAME":"中西區","LI":"西湖里","LIN":"1鄰","STREET":"民權路","SECT":"四段","MAREA":" ","LANE":" ","ALLEY":" ","HOUSE_NO":"６４號","E_COORD97":166480.95999999999,"N_COORD97":2544448.1000000001,"ADDRESS":"民權路四段６４號","OBJECTID":509727},"geometry":{"x":166480.95999999903,"y":2544448.1000000015}},{"attributes":{"ID":509755,"DIS_CODE":0,"TOWNNAME":"中西區","LI":"西湖里","LIN":"1鄰","STREET":"民權路","SECT":"四段","MAREA":" ","LANE":" ","ALLEY":" ","HOUSE_NO":"６８號","E_COORD97":166471.82000000001,"N_COORD97":2544447.6000000001,"ADDRESS":"民權路四段６８號","OBJECTID":509728},"geometry":{"x":166471.8200000003,"y":2544447.6000000015}},{"attributes":{"ID":509756,"DIS_CODE":0,"TOWNNAME":"中西區","LI":"西湖里","LIN":"1鄰","STREET":"民權路","SECT":"四段","MAREA":" ","LANE":" ","ALLEY":" ","HOUSE_NO":"７０號","E_COORD97":166467.5,"N_COORD97":2544447.3399999999,"ADDRESS":"民權路四段７０號","OBJECTID":509729},"geometry":{"x":166467.50000000093,"y":2544447.3399999999}},{"attributes":{"ID":509757,"DIS_CODE":0,"TOWNNAME":"中西區","LI":"西湖里","LIN":"1鄰","STREET":"民權路","SECT":"四段","MAREA":" ","LANE":" ","ALLEY":" ","HOUSE_NO":"７２號","E_COORD97":166462.67000000001,"N_COORD97":2544447.0899999999,"ADDRESS":"民權路四段７２號","OBJECTID":509730},"geometry":{"x":166462.67000000179,"y":2544447.089999998}},{"attributes":{"ID":509758,"DIS_CODE":0,"TOWNNAME":"中西區","LI":"西湖里","LIN":"1鄰","STREET":"民權路","SECT":"四段","MAREA":" ","LANE":" ","ALLEY":" ","HOUSE_NO":"７４號","E_COORD97":166458.35000000001,"N_COORD97":2544447.3399999999,"ADDRESS":"民權路四段７４號","OBJECTID":509731},"geometry":{"x":166458.35000000056,"y":2544447.3399999999}},{"attributes":{"ID":509759,"DIS_CODE":0,"TOWNNAME":"仁德區","LI":"仁義里","LIN":"1鄰","STREET":"義林七街","SECT":" ","MAREA":" ","LANE":" ","ALLEY":" ","HOUSE_NO":"１０９號","E_COORD97":174209.82999999999,"N_COORD97":2541134.77,"ADDRESS":"義林七街１０９號","OBJECTID":509732},"geometry":{"x":174209.83000000007,"y":2541134.7700000014}},{"attributes":{"ID":509760,"DIS_CODE":0,"TOWNNAME":"仁德區","LI":"太子里","LIN":"1鄰","STREET":"太子北路","SECT":" ","MAREA":" ","LANE":" ","ALLEY":" ","HOUSE_NO":"３０號","E_COORD97":174202.51999999999,"N_COORD97":2543587.75,"ADDRESS":"太子北路３０號","OBJECTID":509733},"geometry":{"x":174202.52000000048,"y":2543587.75}},{"attributes":{"ID":509761,"DIS_CODE":0,"TOWNNAME":"仁德區","LI":"仁義里","LIN":"1鄰","STREET":"義林七街","SECT":" ","MAREA":" ","LANE":" ","ALLEY":" ","HOUSE_NO":"１７６號","E_COORD97":174246.26000000001,"N_COORD97":2541152.77,"ADDRESS":"義林七街１７６號","OBJECTID":509734},"geometry":{"x":174246.26000000164,"y":2541152.7699999996}},{"attributes":{"ID":509762,"DIS_CODE":0,"TOWNNAME":"仁德區","LI":"太子里","LIN":"1鄰","STREET":"太子北路","SECT":" ","MAREA":" ","LANE":" ","ALLEY":" ","HOUSE_NO":"２９號","E_COORD97":174178.95000000001,"N_COORD97":2543588,"ADDRESS":"太子北路２９號","OBJECTID":509735},"geometry":{"x":174178.95000000019,"y":2543588.0000000019}},{"attributes":{"ID":509763,"DIS_CODE":0,"TOWNNAME":"仁德區","LI":"太子里","LIN":"1鄰","STREET":"太子北路","SECT":" ","MAREA":" ","LANE":" ","ALLEY":" ","HOUSE_NO":"３１號","E_COORD97":174185.45999999999,"N_COORD97":2543596.25,"ADDRESS":"太子北路３１號","OBJECTID":509736},"geometry":{"x":174185.45999999996,"y":2543596.2500000019}},{"attributes":{"ID":509764,"DIS_CODE":0,"TOWNNAME":"仁德區","LI":"仁義里","LIN":"1鄰","STREET":"義林七街","SECT":" ","MAREA":" ","LANE":" ","ALLEY":" ","HOUSE_NO":"９９號","E_COORD97":174230.32000000001,"N_COORD97":2541132.27,"ADDRESS":"義林七街９９號","OBJECTID":509737},"geometry":{"x":174230.3200000003,"y":2541132.2699999996}},{"attributes":{"ID":509765,"DIS_CODE":0,"TOWNNAME":"仁德區","LI":"仁義里","LIN":"1鄰","STREET":"義林五街","SECT":" ","MAREA":" ","LANE":" ","ALLEY":" ","HOUSE_NO":"９３號","E_COORD97":174200.51000000001,"N_COORD97":2541030.27,"ADDRESS":"義林五街９３號","OBJECTID":509738},"geometry":{"x":174200.51000000164,"y":2541030.2699999996}},{"attributes":{"ID":509766,"DIS_CODE":0,"TOWNNAME":"仁德區","LI":"仁義里","LIN":"1鄰","STREET":"義林三街","SECT":" ","MAREA":" ","LANE":" ","ALLEY":" ","HOUSE_NO":"３４號","E_COORD97":174406.20999999999,"N_COORD97":2540966.7599999998,"ADDRESS":"義林三街３４號","OBJECTID":509739},"geometry":{"x":174406.21000000089,"y":2540966.7599999998}},{"attributes":{"ID":509767,"DIS_CODE":0,"TOWNNAME":"仁德區","LI":"仁義里","LIN":"1鄰","STREET":"義林五街","SECT":" ","MAREA":" ","LANE":" ","ALLEY":" ","HOUSE_NO":"５號","E_COORD97":174441.95000000001,"N_COORD97":2540995.5099999998,"ADDRESS":"義林五街５號","OBJECTID":509740},"geometry":{"x":174441.95000000205,"y":2540995.5099999998}},{"attributes":{"ID":509768,"DIS_CODE":0,"TOWNNAME":"仁德區","LI":"仁義里","LIN":"1鄰","STREET":"義林路","SECT":" ","MAREA":" ","LANE":" ","ALLEY":" ","HOUSE_NO":"１４７號之１","E_COORD97":174408.59,"N_COORD97":2540559.04,"ADDRESS":"義林路１４７號之１","OBJECTID":509741},"geometry":{"x":174408.59000000078,"y":2540559.040000001}},{"attributes":{"ID":509769,"DIS_CODE":0,"TOWNNAME":"仁德區","LI":"仁義里","LIN":"1鄰","STREET":"義林五街","SECT":" ","MAREA":" ","LANE":" ","ALLEY":" ","HOUSE_NO":"１號","E_COORD97":174450.81,"N_COORD97":2540994.2599999998,"ADDRESS":"義林五街１號","OBJECTID":509742},"geometry":{"x":174450.81000000145,"y":2540994.2599999998}},{"attributes":{"ID":509770,"DIS_CODE":0,"TOWNNAME":"仁德區","LI":"仁義里","LIN":"1鄰","STREET":"義林五街","SECT":" ","MAREA":" ","LANE":" ","ALLEY":" ","HOUSE_NO":"９２號","E_COORD97":174197.19,"N_COORD97":2541048.77,"ADDRESS":"義林五街９２號","OBJECTID":509743},"geometry":{"x":174197.19000000134,"y":2541048.7700000033}},{"attributes":{"ID":509771,"DIS_CODE":0,"TOWNNAME":"仁德區","LI":"仁義里","LIN":"1鄰","STREET":"義林七街","SECT":" ","MAREA":" ","LANE":" ","ALLEY":" ","HOUSE_NO":"１９８號","E_COORD97":174208.39999999999,"N_COORD97":2541158.02,"ADDRESS":"義林七街１９８號","OBJECTID":509744},"geometry":{"x":174208.40000000037,"y":2541158.0199999996}},{"attributes":{"ID":509772,"DIS_CODE":0,"TOWNNAME":"仁德區","LI":"仁義里","LIN":"1鄰","STREET":"義林六街","SECT":" ","MAREA":" ","LANE":" ","ALLEY":" ","HOUSE_NO":"６７號","E_COORD97":174250.39999999999,"N_COORD97":2541075.5099999998,"ADDRESS":"義林六街６７號","OBJECTID":509745},"geometry":{"x":174250.40000000037,"y":2541075.5100000016}},{"attributes":{"ID":509773,"DIS_CODE":0,"TOWNNAME":"仁德區","LI":"仁義里","LIN":"1鄰","STREET":"中山路","SECT":" ","MAREA":" ","LANE":" ","ALLEY":" ","HOUSE_NO":"２９號","E_COORD97":175209.64999999999,"N_COORD97":2541072.2400000002,"ADDRESS":"中山路２９號","OBJECTID":509746},"geometry":{"x":175209.65000000037,"y":2541072.2400000002}},{"attributes":{"ID":509774,"DIS_CODE":0,"TOWNNAME":"仁德區","LI":"仁義里","LIN":"1鄰","STREET":"義林五街","SECT":" ","MAREA":" ","LANE":" ","ALLEY":" ","HOUSE_NO":"１８之５號","E_COORD97":174405.26000000001,"N_COORD97":2541022.7999999998,"ADDRESS":"義林五街１８之５號","OBJECTID":509747},"geometry":{"x":174405.25999999978,"y":2541022.8000000026}},{"attributes":{"ID":509775,"DIS_CODE":0,"TOWNNAME":"仁德區","LI":"仁義里","LIN":"1鄰","STREET":"義林六街","SECT":" ","MAREA":" ","LANE":" ","ALLEY":" ","HOUSE_NO":"４３號","E_COORD97":174362.51000000001,"N_COORD97":2541061.52,"ADDRESS":"義林六街４３號","OBJECTID":509748},"geometry":{"x":174362.50999999978,"y":2541061.5200000014}},{"attributes":{"ID":509776,"DIS_CODE":0,"TOWNNAME":"仁德區","LI":"仁義里","LIN":"1鄰","STREET":"義林五街","SECT":" ","MAREA":" ","LANE":" ","ALLEY":" ","HOUSE_NO":"１０６號","E_COORD97":174174.78,"N_COORD97":2541051.02,"ADDRESS":"義林五街１０６號","OBJECTID":509749},"geometry":{"x":174174.78000000026,"y":2541051.0200000014}},{"attributes":{"ID":509777,"DIS_CODE":0,"TOWNNAME":"仁德區","LI":"仁義里","LIN":"1鄰","STREET":"義林七街","SECT":" ","MAREA":" ","LANE":" ","ALLEY":" ","HOUSE_NO":"１９２號","E_COORD97":174216.39999999999,"N_COORD97":2541156.77,"ADDRESS":"義林七街１９２號","OBJECTID":509750},"geometry":{"x":174216.40000000037,"y":2541156.7699999996}},{"attributes":{"ID":509778,"DIS_CODE":0,"TOWNNAME":"仁德區","LI":"仁義里","LIN":"1鄰","STREET":"中山路","SECT":" ","MAREA":" ","LANE":" ","ALLEY":" ","HOUSE_NO":"９７號","E_COORD97":174939,"N_COORD97":2541092.7400000002,"ADDRESS":"中山路９７號","OBJECTID":509751},"geometry":{"x":174939,"y":2541092.7400000002}},{"attributes":{"ID":509779,"DIS_CODE":0,"TOWNNAME":"仁德區","LI":"仁義里","LIN":"1鄰","STREET":"義林五街","SECT":" ","MAREA":" ","LANE":" ","ALLEY":" ","HOUSE_NO":"３０號","E_COORD97":174381.01999999999,"N_COORD97":2541024.77,"ADDRESS":"義林五街３０號","OBJECTID":509752},"geometry":{"x":174381.01999999955,"y":2541024.7700000033}},{"attributes":{"ID":509780,"DIS_CODE":0,"TOWNNAME":"仁德區","LI":"仁義里","LIN":"1鄰","STREET":"中山路","SECT":" ","MAREA":" ","LANE":" ","ALLEY":" ","HOUSE_NO":"１２３號","E_COORD97":174691.42999999999,"N_COORD97":2541131.5,"ADDRESS":"中山路１２３號","OBJECTID":509753},"geometry":{"x":174691.43000000063,"y":2541131.5}},{"attributes":{"ID":509781,"DIS_CODE":0,"TOWNNAME":"仁德區","LI":"仁義里","LIN":"1鄰","STREET":"義林五街","SECT":" ","MAREA":" ","LANE":" ","ALLEY":" ","HOUSE_NO":"１２８號","E_COORD97":174135.35000000001,"N_COORD97":2541054.27,"ADDRESS":"義林五街１２８號","OBJECTID":509754},"geometry":{"x":174135.35000000149,"y":2541054.2699999996}},{"attributes":{"ID":509782,"DIS_CODE":0,"TOWNNAME":"仁德區","LI":"仁義里","LIN":"1鄰","STREET":"義林五街","SECT":" ","MAREA":" ","LANE":" ","ALLEY":" ","HOUSE_NO":"１０８號","E_COORD97":174169.89000000001,"N_COORD97":2541051.52,"ADDRESS":"義林五街１０８號","OBJECTID":509755},"geometry":{"x":174169.88999999966,"y":2541051.5200000014}},{"attributes":{"ID":509783,"DIS_CODE":0,"TOWNNAME":"仁德區","LI":"仁義里","LIN":"1鄰","STREET":"義林三街","SECT":" ","MAREA":" ","LANE":" ","ALLEY":" ","HOUSE_NO":"２６號","E_COORD97":174424.59,"N_COORD97":2540964.27,"ADDRESS":"義林三街２６號","OBJECTID":509756},"geometry":{"x":174424.58999999985,"y":2540964.2700000014}},{"attributes":{"ID":509784,"DIS_CODE":0,"TOWNNAME":"仁德區","LI":"仁義里","LIN":"1鄰","STREET":"義林五街","SECT":" ","MAREA":" ","LANE":" ","ALLEY":" ","HOUSE_NO":"９８號","E_COORD97":174187.87,"N_COORD97":2541049.77,"ADDRESS":"義林五街９８號","OBJECTID":509757},"geometry":{"x":174187.87000000011,"y":2541049.7700000014}},{"attributes":{"ID":509785,"DIS_CODE":0,"TOWNNAME":"仁德區","LI":"仁義里","LIN":"1鄰","STREET":"義林七街","SECT":" ","MAREA":" ","LANE":" ","ALLEY":" ","HOUSE_NO":"１８８號","E_COORD97":174225.01000000001,"N_COORD97":2541155.52,"ADDRESS":"義林七街１８８號","OBJECTID":509758},"geometry":{"x":174225.00999999978,"y":2541155.5200000033}},{"attributes":{"ID":509786,"DIS_CODE":0,"TOWNNAME":"仁德區","LI":"仁義里","LIN":"1鄰","STREET":"義林七街","SECT":" ","MAREA":" ","LANE":" ","ALLEY":" ","HOUSE_NO":"１９６號","E_COORD97":174212.07000000001,"N_COORD97":2541157.27,"ADDRESS":"義林七街１９６號","OBJECTID":509759},"geometry":{"x":174212.0700000003,"y":2541157.2700000033}},{"attributes":{"ID":509787,"DIS_CODE":0,"TOWNNAME":"仁德區","LI":"仁義里","LIN":"1鄰","STREET":"義林五街","SECT":" ","MAREA":" ","LANE":" ","ALLEY":" ","HOUSE_NO":"２９號","E_COORD97":174387.12,"N_COORD97":2541004.7599999998,"ADDRESS":"義林五街２９號","OBJECTID":509760},"geometry":{"x":174387.12000000104,"y":2541004.7600000035}},{"attributes":{"ID":509788,"DIS_CODE":0,"TOWNNAME":"仁德區","LI":"仁義里","LIN":"1鄰","STREET":"義林六街","SECT":" ","MAREA":" ","LANE":" ","ALLEY":" ","HOUSE_NO":"５１號","E_COORD97":174344.20000000001,"N_COORD97":2541063.77,"ADDRESS":"義林六街５１號","OBJECTID":509761},"geometry":{"x":174344.20000000112,"y":2541063.7700000014}},{"attributes":{"ID":509789,"DIS_CODE":0,"TOWNNAME":"仁德區","LI":"仁義里","LIN":"1鄰","STREET":"義林五街","SECT":" ","MAREA":" ","LANE":" ","ALLEY":" ","HOUSE_NO":"１０２號","E_COORD97":174178.98000000001,"N_COORD97":2541050.77,"ADDRESS":"義林五街１０２號","OBJECTID":509762},"geometry":{"x":174178.98000000045,"y":2541050.7699999996}},{"attributes":{"ID":509790,"DIS_CODE":0,"TOWNNAME":"仁德區","LI":"仁義里","LIN":"1鄰","STREET":"中山路","SECT":" ","MAREA":" ","LANE":" ","ALLEY":" ","HOUSE_NO":"２２１號","E_COORD97":174346.14000000001,"N_COORD97":2541183.9900000002,"ADDRESS":"中山路２２１號","OBJECTID":509763},"geometry":{"x":174346.13999999966,"y":2541183.9900000021}},{"attributes":{"ID":509791,"DIS_CODE":0,"TOWNNAME":"仁德區","LI":"仁義里","LIN":"1鄰","STREET":"中山路","SECT":" ","MAREA":" ","LANE":" ","ALLEY":" ","HOUSE_NO":"１５５號","E_COORD97":174553.01000000001,"N_COORD97":2541135,"ADDRESS":"中山路１５５號","OBJECTID":509764},"geometry":{"x":174553.01000000164,"y":2541135}},{"attributes":{"ID":509792,"DIS_CODE":0,"TOWNNAME":"仁德區","LI":"仁義里","LIN":"1鄰","STREET":"義林路","SECT":" ","MAREA":" ","LANE":" ","ALLEY":" ","HOUSE_NO":"１９３號","E_COORD97":174468.51999999999,"N_COORD97":2540991.2599999998,"ADDRESS":"義林路１９３號","OBJECTID":509765},"geometry":{"x":174468.52000000048,"y":2540991.2600000035}},{"attributes":{"ID":509793,"DIS_CODE":0,"TOWNNAME":"仁德區","LI":"仁義里","LIN":"1鄰","STREET":"中山路","SECT":" ","MAREA":" ","LANE":" ","ALLEY":" ","HOUSE_NO":"２３５號","E_COORD97":174293.22,"N_COORD97":2541189.4900000002,"ADDRESS":"中山路２３５號","OBJECTID":509766},"geometry":{"x":174293.21999999974,"y":2541189.4900000002}},{"attributes":{"ID":509794,"DIS_CODE":0,"TOWNNAME":"仁德區","LI":"仁義里","LIN":"1鄰","STREET":"義林五街","SECT":" ","MAREA":" ","LANE":" ","ALLEY":" ","HOUSE_NO":"１００號","E_COORD97":174184.07000000001,"N_COORD97":2541050.27,"ADDRESS":"義林五街１００號","OBJECTID":509767},"geometry":{"x":174184.07000000123,"y":2541050.2700000014}},{"attributes":{"ID":509795,"DIS_CODE":0,"TOWNNAME":"仁德區","LI":"仁義里","LIN":"1鄰","STREET":"義林六街","SECT":" ","MAREA":" ","LANE":" ","ALLEY":" ","HOUSE_NO":"８１號","E_COORD97":174230.01999999999,"N_COORD97":2541077.7599999998,"ADDRESS":"義林六街８１號","OBJECTID":509768},"geometry":{"x":174230.01999999955,"y":2541077.7599999998}},{"attributes":{"ID":509796,"DIS_CODE":0,"TOWNNAME":"仁德區","LI":"仁義里","LIN":"1鄰","STREET":"義林五街","SECT":" ","MAREA":" ","LANE":" ","ALLEY":" ","HOUSE_NO":"４６號","E_COORD97":174350.97,"N_COORD97":2541028.52,"ADDRESS":"義林五街４６號","OBJECTID":509769},"geometry":{"x":174350.96999999974,"y":2541028.5199999996}},{"attributes":{"ID":509797,"DIS_CODE":0,"TOWNNAME":"仁德區","LI":"仁義里","LIN":"1鄰","STREET":"義林六街","SECT":" ","MAREA":" ","LANE":" ","ALLEY":" ","HOUSE_NO":"７５號","E_COORD97":174228.87,"N_COORD97":2541063.52,"ADDRESS":"義林六街７５號","OBJECTID":509770},"geometry":{"x":174228.87000000197,"y":2541063.5199999996}},{"attributes":{"ID":509798,"DIS_CODE":0,"TOWNNAME":"仁德區","LI":"仁義里","LIN":"1鄰","STREET":"義林六街","SECT":" ","MAREA":" ","LANE":" ","ALLEY":" ","HOUSE_NO":"３９號","E_COORD97":174372.35000000001,"N_COORD97":2541060.52,"ADDRESS":"義林六街３９號","OBJECTID":509771},"geometry":{"x":174372.34999999963,"y":2541060.5200000033}},{"attributes":{"ID":509799,"DIS_CODE":0,"TOWNNAME":"仁德區","LI":"仁義里","LIN":"1鄰","STREET":"中山路","SECT":" ","MAREA":" ","LANE":" ","ALLEY":" ","HOUSE_NO":"２５５號","E_COORD97":174263.20000000001,"N_COORD97":2541193.2400000002,"ADDRESS":"中山路２５５號","OBJECTID":509772},"geometry":{"x":174263.20000000019,"y":2541193.2400000021}},{"attributes":{"ID":509800,"DIS_CODE":0,"TOWNNAME":"仁德區","LI":"仁義里","LIN":"1鄰","STREET":"義林五街","SECT":" ","MAREA":" ","LANE":" ","ALLEY":" ","HOUSE_NO":"１１６號","E_COORD97":174155.88,"N_COORD97":2541053.02,"ADDRESS":"義林五街１１６號","OBJECTID":509773},"geometry":{"x":174155.88000000082,"y":2541053.0199999996}},{"attributes":{"ID":509801,"DIS_CODE":0,"TOWNNAME":"仁德區","LI":"仁義里","LIN":"1鄰","STREET":"義林五街","SECT":" ","MAREA":" ","LANE":" ","ALLEY":" ","HOUSE_NO":"１８之１號","E_COORD97":174418.32000000001,"N_COORD97":2541021.0499999998,"ADDRESS":"義林五街１８之１號","OBJECTID":509774},"geometry":{"x":174418.32000000123,"y":2541021.0500000045}},{"attributes":{"ID":509802,"DIS_CODE":0,"TOWNNAME":"仁德區","LI":"仁義里","LIN":"1鄰","STREET":"義林七街","SECT":" ","MAREA":" ","LANE":" ","ALLEY":" ","HOUSE_NO":"１１３號","E_COORD97":174201.20000000001,"N_COORD97":2541136.02,"ADDRESS":"義林七街１１３號","OBJECTID":509775},"geometry":{"x":174201.20000000205,"y":2541136.0200000014}},{"attributes":{"ID":509803,"DIS_CODE":0,"TOWNNAME":"仁德區","LI":"後壁里","LIN":"1鄰","STREET":"中正路","SECT":"二段","MAREA":" ","LANE":" ","ALLEY":" ","HOUSE_NO":"３３８號","E_COORD97":173266.54000000001,"N_COORD97":2539103.77,"ADDRESS":"中正路二段３３８號","OBJECTID":509776},"geometry":{"x":173266.5400000019,"y":2539103.7700000014}},{"attributes":{"ID":509804,"DIS_CODE":0,"TOWNNAME":"仁德區","LI":"仁義里","LIN":"1鄰","STREET":"義林七街","SECT":" ","MAREA":" ","LANE":" ","ALLEY":" ","HOUSE_NO":"９５號","E_COORD97":174238.76000000001,"N_COORD97":2541131.27,"ADDRESS":"義林七街９５號","OBJECTID":509777},"geometry":{"x":174238.75999999978,"y":2541131.2700000014}},{"attributes":{"ID":509805,"DIS_CODE":0,"TOWNNAME":"仁德區","LI":"後壁里","LIN":"1鄰","STREET":"中正路","SECT":"二段","MAREA":" ","LANE":" ","ALLEY":" ","HOUSE_NO":"４０８號","E_COORD97":173284.51000000001,"N_COORD97":2539256.52,"ADDRESS":"中正路二段４０８號","OBJECTID":509778},"geometry":{"x":173284.50999999978,"y":2539256.5199999977}},{"attributes":{"ID":509806,"DIS_CODE":0,"TOWNNAME":"仁德區","LI":"後壁里","LIN":"1鄰","STREET":"中正路","SECT":"二段","MAREA":" ","LANE":" ","ALLEY":" ","HOUSE_NO":"３９２號","E_COORD97":173278.75,"N_COORD97":2539223.77,"ADDRESS":"中正路二段３９２號","OBJECTID":509779},"geometry":{"x":173278.75000000093,"y":2539223.7699999996}},{"attributes":{"ID":509807,"DIS_CODE":0,"TOWNNAME":"仁德區","LI":"仁義里","LIN":"1鄰","STREET":"義林七街","SECT":" ","MAREA":" ","LANE":" ","ALLEY":" ","HOUSE_NO":"１７２號","E_COORD97":174251.29000000001,"N_COORD97":2541151.77,"ADDRESS":"義林七街１７２號","OBJECTID":509780},"geometry":{"x":174251.2900000019,"y":2541151.7700000014}},{"attributes":{"ID":509808,"DIS_CODE":0,"TOWNNAME":"仁德區","LI":"保安里","LIN":"1鄰","STREET":"文賢路","SECT":"一段","MAREA":" ","LANE":" ","ALLEY":" ","HOUSE_NO":"５１３號","E_COORD97":171077.17000000001,"N_COORD97":2537115.0800000001,"ADDRESS":"文賢路一段５１３號","OBJECTID":509781},"geometry":{"x":171077.17000000086,"y":2537115.0800000019}},{"attributes":{"ID":509809,"DIS_CODE":0,"TOWNNAME":"仁德區","LI":"後壁里","LIN":"1鄰","STREET":"中正路","SECT":"二段","MAREA":" ","LANE":" ","ALLEY":" ","HOUSE_NO":"３９６號","E_COORD97":173280.32000000001,"N_COORD97":2539230.77,"ADDRESS":"中正路二段３９６號","OBJECTID":509782},"geometry":{"x":173280.32000000123,"y":2539230.7699999996}},{"attributes":{"ID":509810,"DIS_CODE":0,"TOWNNAME":"安南區","LI":"國安里","LIN":"1鄰","STREET":"國安街","SECT":" ","MAREA":" ","LANE":" ","ALLEY":" ","HOUSE_NO":"２０２號","E_COORD97":166634.85999999999,"N_COORD97":2546953.02,"ADDRESS":"國安街２０２號","OBJECTID":509783},"geometry":{"x":166634.86000000127,"y":2546953.0200000033}},{"attributes":{"ID":509811,"DIS_CODE":0,"TOWNNAME":"安南區","LI":"安富里","LIN":"1鄰","STREET":"郡安路","SECT":"五段","MAREA":" ","LANE":" ","ALLEY":" ","HOUSE_NO":"２０６號","E_COORD97":167320.35000000001,"N_COORD97":2547749.6899999999,"ADDRESS":"郡安路五段２０６號","OBJECTID":509784},"geometry":{"x":167320.34999999963,"y":2547749.6900000013}},{"attributes":{"ID":509812,"DIS_CODE":0,"TOWNNAME":"東區","LI":"和平里","LIN":"1鄰","STREET":"東門路","SECT":"三段","MAREA":" ","LANE":" ","ALLEY":" ","HOUSE_NO":"３２號之１","E_COORD97":171089.19,"N_COORD97":2542301.23,"ADDRESS":"東門路三段３２號之１","OBJECTID":509785},"geometry":{"x":171089.19000000227,"y":2542301.2300000023}},{"attributes":{"ID":509813,"DIS_CODE":0,"TOWNNAME":"東區","LI":"中西里","LIN":"1鄰","STREET":"長榮路","SECT":"二段","MAREA":" ","LANE":" ","ALLEY":" ","HOUSE_NO":"１７號","E_COORD97":169932.70999999999,"N_COORD97":2543116.7799999998,"ADDRESS":"長榮路二段１７號","OBJECTID":509786},"geometry":{"x":169932.71000000089,"y":2543116.7800000012}},{"attributes":{"ID":509814,"DIS_CODE":0,"TOWNNAME":"東區","LI":"崇德里","LIN":"1鄰","STREET":"崇善路","SECT":" ","MAREA":" ","LANE":" ","ALLEY":" ","HOUSE_NO":"２６６號","E_COORD97":170815.85000000001,"N_COORD97":2541952.5099999998,"ADDRESS":"崇善路２６６號","OBJECTID":509787},"geometry":{"x":170815.84999999963,"y":2541952.5100000035}},{"attributes":{"ID":509815,"DIS_CODE":0,"TOWNNAME":"東區","LI":"東光里","LIN":"1鄰","STREET":"東寧路","SECT":" ","MAREA":" ","LANE":" ","ALLEY":" ","HOUSE_NO":"４１５號","E_COORD97":171016.97,"N_COORD97":2543348.21,"ADDRESS":"東寧路４１５號","OBJECTID":509788},"geometry":{"x":171016.96999999881,"y":2543348.2100000009}},{"attributes":{"ID":509816,"DIS_CODE":0,"TOWNNAME":"東區","LI":"東光里","LIN":"1鄰","STREET":"東寧路","SECT":" ","MAREA":" ","LANE":" ","ALLEY":" ","HOUSE_NO":"４１９號","E_COORD97":171025.98999999999,"N_COORD97":2543345.25,"ADDRESS":"東寧路４１９號","OBJECTID":509789},"geometry":{"x":171025.99000000209,"y":2543345.2500000019}},{"attributes":{"ID":509817,"DIS_CODE":0,"TOWNNAME":"東區","LI":"東明里","LIN":"1鄰","STREET":"怡東路","SECT":" ","MAREA":" ","LANE":" ","ALLEY":" ","HOUSE_NO":"２２號","E_COORD97":170820.87,"N_COORD97":2543472.4500000002,"ADDRESS":"怡東路２２號","OBJECTID":509790},"geometry":{"x":170820.87000000011,"y":2543472.4500000011}},{"attributes":{"ID":509818,"DIS_CODE":0,"TOWNNAME":"東區","LI":"東明里","LIN":"1鄰","STREET":"東寧路","SECT":" ","MAREA":" ","LANE":" ","ALLEY":" ","HOUSE_NO":"３２９號","E_COORD97":170834.42999999999,"N_COORD97":2543410.0699999998,"ADDRESS":"東寧路３２９號","OBJECTID":509791},"geometry":{"x":170834.43000000063,"y":2543410.0700000003}},{"attributes":{"ID":509819,"DIS_CODE":0,"TOWNNAME":"東區","LI":"東明里","LIN":"1鄰","STREET":"東寧路","SECT":" ","MAREA":" ","LANE":" ","ALLEY":" ","HOUSE_NO":"３４５號","E_COORD97":170862.14000000001,"N_COORD97":2543398.4700000002,"ADDRESS":"東寧路３４５號","OBJECTID":509792},"geometry":{"x":170862.1400000006,"y":2543398.4700000025}},{"attributes":{"ID":509820,"DIS_CODE":0,"TOWNNAME":"歸仁區","LI":"六甲里","LIN":"36鄰","STREET":"六甲路","SECT":" ","MAREA":" ","LANE":" ","ALLEY":" ","HOUSE_NO":"３５０號","E_COORD97":175567.97,"N_COORD97":2539244.25,"ADDRESS":"六甲路３５０號","OBJECTID":509793},"geometry":{"x":175567.96999999974,"y":2539244.25}},{"attributes":{"ID":509821,"DIS_CODE":0,"TOWNNAME":"東區","LI":"東明里","LIN":"1鄰","STREET":"東寧路","SECT":" ","MAREA":" ","LANE":" ","ALLEY":" ","HOUSE_NO":"３５３號","E_COORD97":170882.23999999999,"N_COORD97":2543390.3999999999,"ADDRESS":"東寧路３５３號","OBJECTID":509794},"geometry":{"x":170882.24000000115,"y":2543390.4000000004}},{"attributes":{"ID":509822,"DIS_CODE":0,"TOWNNAME":"東區","LI":"東明里","LIN":"1鄰","STREET":"東興路","SECT":" ","MAREA":" ","LANE":" ","ALLEY":" ","HOUSE_NO":"１３號","E_COORD97":170906.29000000001,"N_COORD97":2543428.8999999999,"ADDRESS":"東興路１３號","OBJECTID":509795},"geometry":{"x":170906.29000000004,"y":2543428.9000000022}},{"attributes":{"ID":509823,"DIS_CODE":0,"TOWNNAME":"東區","LI":"東明里","LIN":"1鄰","STREET":"東興路","SECT":" ","MAREA":" ","LANE":" ","ALLEY":" ","HOUSE_NO":"１９號","E_COORD97":170907.38,"N_COORD97":2543441.8700000001,"ADDRESS":"東興路１９號","OBJECTID":509796},"geometry":{"x":170907.37999999989,"y":2543441.870000001}},{"attributes":{"ID":509824,"DIS_CODE":0,"TOWNNAME":"東區","LI":"東明里","LIN":"1鄰","STREET":"東興路","SECT":" ","MAREA":" ","LANE":" ","ALLEY":" ","HOUSE_NO":"２１號","E_COORD97":170908.07000000001,"N_COORD97":2543446.3700000001,"ADDRESS":"東興路２１號","OBJECTID":509797},"geometry":{"x":170908.0700000003,"y":2543446.3700000048}},{"attributes":{"ID":509825,"DIS_CODE":0,"TOWNNAME":"東區","LI":"東明里","LIN":"1鄰","STREET":"東興路","SECT":" ","MAREA":" ","LANE":" ","ALLEY":" ","HOUSE_NO":"５號","E_COORD97":170900.41,"N_COORD97":2543414.8300000001,"ADDRESS":"東興路５號","OBJECTID":509798},"geometry":{"x":170900.41000000015,"y":2543414.8300000001}},{"attributes":{"ID":509826,"DIS_CODE":0,"TOWNNAME":"東區","LI":"東明里","LIN":"1鄰","STREET":"東興路","SECT":" ","MAREA":" ","LANE":" ","ALLEY":" ","HOUSE_NO":"７號","E_COORD97":170901.78,"N_COORD97":2543419.3399999999,"ADDRESS":"東興路７號","OBJECTID":509799},"geometry":{"x":170901.78000000026,"y":2543419.3400000017}},{"attributes":{"ID":509827,"DIS_CODE":0,"TOWNNAME":"東區","LI":"東明里","LIN":"1鄰","STREET":"東興路","SECT":" ","MAREA":" ","LANE":" ","ALLEY":" ","HOUSE_NO":"９號","E_COORD97":170902.04999999999,"N_COORD97":2543423.4300000002,"ADDRESS":"東興路９號","OBJECTID":509800},"geometry":{"x":170902.05000000075,"y":2543423.4299999997}}]}