{"displayFieldName":"TOWNNAME","fieldAliases":{"ID":"ID","DIS_CODE":"DIS_CODE","TOWNNAME":"TOWNNAME","LI":"LI","LIN":"LIN","STREET":"STREET","SECT":"SECT","MAREA":"MAREA","LANE":"LANE","ALLEY":"ALLEY","HOUSE_NO":"HOUSE_NO","E_COORD97":"E_COORD97","N_COORD97":"N_COORD97","ADDRESS":"ADDRESS","OBJECTID":"OBJECTID"},"geometryType":"esriGeometryPoint","spatialReference":{"wkid":102443,"latestWkid":3826},"fields":[{"name":"ID","type":"esriFieldTypeDouble","alias":"ID"},{"name":"DIS_CODE","type":"esriFieldTypeInteger","alias":"DIS_CODE"},{"name":"TOWNNAME","type":"esriFieldTypeString","alias":"TOWNNAME","length":8},{"name":"LI","type":"esriFieldTypeString","alias":"LI","length":8},{"name":"LIN","type":"esriFieldTypeString","alias":"LIN","length":12},{"name":"STREET","type":"esriFieldTypeString","alias":"STREET","length":20},{"name":"SECT","type":"esriFieldTypeString","alias":"SECT","length":8},{"name":"MAREA","type":"esriFieldTypeString","alias":"MAREA","length":12},{"name":"LANE","type":"esriFieldTypeString","alias":"LANE","length":10},{"name":"ALLEY","type":"esriFieldTypeString","alias":"ALLEY","length":10},{"name":"HOUSE_NO","type":"esriFieldTypeString","alias":"HOUSE_NO","length":20},{"name":"E_COORD97","type":"esriFieldTypeDouble","alias":"E_COORD97"},{"name":"N_COORD97","type":"esriFieldTypeDouble","alias":"N_COORD97"},{"name":"ADDRESS","type":"esriFieldTypeString","alias":"ADDRESS","length":50},{"name":"OBJECTID","type":"esriFieldTypeOID","alias":"OBJECTID"}],"features":[{"attributes":{"ID":350810,"DIS_CODE":0,"TOWNNAME":"北區","LI":"六甲里","LIN":"6鄰","STREET":"西門路","SECT":"四段","MAREA":" ","LANE":"２００巷","ALLEY":" ","HOUSE_NO":"２０號四樓","E_COORD97":168925.04000000001,"N_COORD97":2545593.9700000002,"ADDRESS":"西門路四段２００巷２０號四樓","OBJECTID":350801},"geometry":{"x":168925.0400000019,"y":2545593.9700000007}},{"attributes":{"ID":350811,"DIS_CODE":0,"TOWNNAME":"北區","LI":"六甲里","LIN":"6鄰","STREET":"西門路","SECT":"四段","MAREA":" ","LANE":"２００巷","ALLEY":" ","HOUSE_NO":"２２號七樓","E_COORD97":168933.47,"N_COORD97":2545593.1299999999,"ADDRESS":"西門路四段２００巷２２號七樓","OBJECTID":350802},"geometry":{"x":168933.46999999974,"y":2545593.1300000008}},{"attributes":{"ID":350812,"DIS_CODE":0,"TOWNNAME":"中西區","LI":"元安里","LIN":"6鄰","STREET":"建安街","SECT":" ","MAREA":" ","LANE":"６１巷","ALLEY":" ","HOUSE_NO":"５號","E_COORD97":167496.85000000001,"N_COORD97":2543218.8700000001,"ADDRESS":"建安街６１巷５號","OBJECTID":350803},"geometry":{"x":167496.85000000149,"y":2543218.870000001}},{"attributes":{"ID":350813,"DIS_CODE":0,"TOWNNAME":"北區","LI":"六甲里","LIN":"6鄰","STREET":"西門路","SECT":"四段","MAREA":" ","LANE":"２００巷","ALLEY":" ","HOUSE_NO":"２２號九樓","E_COORD97":168933.47,"N_COORD97":2545593.1299999999,"ADDRESS":"西門路四段２００巷２２號九樓","OBJECTID":350804},"geometry":{"x":168933.46999999974,"y":2545593.1300000008}},{"attributes":{"ID":350814,"DIS_CODE":0,"TOWNNAME":"北區","LI":"六甲里","LIN":"6鄰","STREET":"西門路","SECT":"四段","MAREA":" ","LANE":"２００巷","ALLEY":" ","HOUSE_NO":"２２號二樓","E_COORD97":168933.47,"N_COORD97":2545593.1299999999,"ADDRESS":"西門路四段２００巷２２號二樓","OBJECTID":350805},"geometry":{"x":168933.46999999974,"y":2545593.1300000008}},{"attributes":{"ID":350815,"DIS_CODE":0,"TOWNNAME":"北區","LI":"六甲里","LIN":"6鄰","STREET":"西門路","SECT":"四段","MAREA":" ","LANE":"２００巷","ALLEY":" ","HOUSE_NO":"２２號八樓","E_COORD97":168933.47,"N_COORD97":2545593.1299999999,"ADDRESS":"西門路四段２００巷２２號八樓","OBJECTID":350806},"geometry":{"x":168933.46999999974,"y":2545593.1300000008}},{"attributes":{"ID":350816,"DIS_CODE":0,"TOWNNAME":"北區","LI":"六甲里","LIN":"6鄰","STREET":"西門路","SECT":"四段","MAREA":" ","LANE":"２００巷","ALLEY":" ","HOUSE_NO":"２２號三樓","E_COORD97":168933.47,"N_COORD97":2545593.1299999999,"ADDRESS":"西門路四段２００巷２２號三樓","OBJECTID":350807},"geometry":{"x":168933.46999999974,"y":2545593.1300000008}},{"attributes":{"ID":350817,"DIS_CODE":0,"TOWNNAME":"北區","LI":"六甲里","LIN":"6鄰","STREET":"西門路","SECT":"四段","MAREA":" ","LANE":"２００巷","ALLEY":" ","HOUSE_NO":"２２號五樓","E_COORD97":168933.47,"N_COORD97":2545593.1299999999,"ADDRESS":"西門路四段２００巷２２號五樓","OBJECTID":350808},"geometry":{"x":168933.46999999974,"y":2545593.1300000008}},{"attributes":{"ID":350818,"DIS_CODE":0,"TOWNNAME":"北區","LI":"六甲里","LIN":"6鄰","STREET":"西門路","SECT":"四段","MAREA":" ","LANE":"２００巷","ALLEY":" ","HOUSE_NO":"２２號六樓","E_COORD97":168933.47,"N_COORD97":2545593.1299999999,"ADDRESS":"西門路四段２００巷２２號六樓","OBJECTID":350809},"geometry":{"x":168933.46999999974,"y":2545593.1300000008}},{"attributes":{"ID":350819,"DIS_CODE":0,"TOWNNAME":"北區","LI":"六甲里","LIN":"6鄰","STREET":"西門路","SECT":"四段","MAREA":" ","LANE":"２００巷","ALLEY":" ","HOUSE_NO":"２２號四樓","E_COORD97":168933.47,"N_COORD97":2545593.1299999999,"ADDRESS":"西門路四段２００巷２２號四樓","OBJECTID":350810},"geometry":{"x":168933.46999999974,"y":2545593.1300000008}},{"attributes":{"ID":350820,"DIS_CODE":0,"TOWNNAME":"北區","LI":"六甲里","LIN":"6鄰","STREET":"西門路","SECT":"四段","MAREA":" ","LANE":"２００巷","ALLEY":" ","HOUSE_NO":"２４號七樓","E_COORD97":168936.01000000001,"N_COORD97":2545603.4500000002,"ADDRESS":"西門路四段２００巷２４號七樓","OBJECTID":350811},"geometry":{"x":168936.00999999978,"y":2545603.4499999974}},{"attributes":{"ID":350821,"DIS_CODE":0,"TOWNNAME":"北區","LI":"六甲里","LIN":"6鄰","STREET":"西門路","SECT":"四段","MAREA":" ","LANE":"２００巷","ALLEY":" ","HOUSE_NO":"２４號九樓","E_COORD97":168936.01000000001,"N_COORD97":2545603.4500000002,"ADDRESS":"西門路四段２００巷２４號九樓","OBJECTID":350812},"geometry":{"x":168936.00999999978,"y":2545603.4499999974}},{"attributes":{"ID":350822,"DIS_CODE":0,"TOWNNAME":"北區","LI":"六甲里","LIN":"6鄰","STREET":"西門路","SECT":"四段","MAREA":" ","LANE":"２００巷","ALLEY":" ","HOUSE_NO":"２４號二樓","E_COORD97":168936.01000000001,"N_COORD97":2545603.4500000002,"ADDRESS":"西門路四段２００巷２４號二樓","OBJECTID":350813},"geometry":{"x":168936.00999999978,"y":2545603.4499999974}},{"attributes":{"ID":350823,"DIS_CODE":0,"TOWNNAME":"北區","LI":"六甲里","LIN":"6鄰","STREET":"西門路","SECT":"四段","MAREA":" ","LANE":"２００巷","ALLEY":" ","HOUSE_NO":"２４號八樓","E_COORD97":168936.01000000001,"N_COORD97":2545603.4500000002,"ADDRESS":"西門路四段２００巷２４號八樓","OBJECTID":350814},"geometry":{"x":168936.00999999978,"y":2545603.4499999974}},{"attributes":{"ID":350824,"DIS_CODE":0,"TOWNNAME":"北區","LI":"六甲里","LIN":"6鄰","STREET":"西門路","SECT":"四段","MAREA":" ","LANE":"２００巷","ALLEY":" ","HOUSE_NO":"２４號三樓","E_COORD97":168936.01000000001,"N_COORD97":2545603.4500000002,"ADDRESS":"西門路四段２００巷２４號三樓","OBJECTID":350815},"geometry":{"x":168936.00999999978,"y":2545603.4499999974}},{"attributes":{"ID":350825,"DIS_CODE":0,"TOWNNAME":"北區","LI":"六甲里","LIN":"6鄰","STREET":"西門路","SECT":"四段","MAREA":" ","LANE":"２００巷","ALLEY":" ","HOUSE_NO":"２４號五樓","E_COORD97":168936.01000000001,"N_COORD97":2545603.4500000002,"ADDRESS":"西門路四段２００巷２４號五樓","OBJECTID":350816},"geometry":{"x":168936.00999999978,"y":2545603.4499999974}},{"attributes":{"ID":350826,"DIS_CODE":0,"TOWNNAME":"北區","LI":"六甲里","LIN":"6鄰","STREET":"西門路","SECT":"四段","MAREA":" ","LANE":"２００巷","ALLEY":" ","HOUSE_NO":"２４號六樓","E_COORD97":168936.01000000001,"N_COORD97":2545603.4500000002,"ADDRESS":"西門路四段２００巷２４號六樓","OBJECTID":350817},"geometry":{"x":168936.00999999978,"y":2545603.4499999974}},{"attributes":{"ID":350827,"DIS_CODE":0,"TOWNNAME":"北區","LI":"六甲里","LIN":"6鄰","STREET":"西門路","SECT":"四段","MAREA":" ","LANE":"２００巷","ALLEY":" ","HOUSE_NO":"２４號四樓","E_COORD97":168936.01000000001,"N_COORD97":2545603.4500000002,"ADDRESS":"西門路四段２００巷２４號四樓","OBJECTID":350818},"geometry":{"x":168936.00999999978,"y":2545603.4499999974}},{"attributes":{"ID":350828,"DIS_CODE":0,"TOWNNAME":"北區","LI":"六甲里","LIN":"6鄰","STREET":"西門路","SECT":"四段","MAREA":" ","LANE":"２００巷","ALLEY":" ","HOUSE_NO":"２６號七樓","E_COORD97":168927.14999999999,"N_COORD97":2545604.9300000002,"ADDRESS":"西門路四段２００巷２６號七樓","OBJECTID":350819},"geometry":{"x":168927.1500000013,"y":2545604.9300000016}},{"attributes":{"ID":350829,"DIS_CODE":0,"TOWNNAME":"北區","LI":"六甲里","LIN":"6鄰","STREET":"西門路","SECT":"四段","MAREA":" ","LANE":"２００巷","ALLEY":" ","HOUSE_NO":"２６號九樓","E_COORD97":168927.14999999999,"N_COORD97":2545604.9300000002,"ADDRESS":"西門路四段２００巷２６號九樓","OBJECTID":350820},"geometry":{"x":168927.1500000013,"y":2545604.9300000016}},{"attributes":{"ID":350830,"DIS_CODE":0,"TOWNNAME":"北區","LI":"六甲里","LIN":"6鄰","STREET":"西門路","SECT":"四段","MAREA":" ","LANE":"２００巷","ALLEY":" ","HOUSE_NO":"２６號二樓","E_COORD97":168927.14999999999,"N_COORD97":2545604.9300000002,"ADDRESS":"西門路四段２００巷２６號二樓","OBJECTID":350821},"geometry":{"x":168927.1500000013,"y":2545604.9300000016}},{"attributes":{"ID":350831,"DIS_CODE":0,"TOWNNAME":"北區","LI":"六甲里","LIN":"6鄰","STREET":"西門路","SECT":"四段","MAREA":" ","LANE":"２００巷","ALLEY":" ","HOUSE_NO":"８號三樓","E_COORD97":168874.39999999999,"N_COORD97":2545603.6600000001,"ADDRESS":"西門路四段２００巷８號三樓","OBJECTID":350822},"geometry":{"x":168874.4000000013,"y":2545603.660000002}},{"attributes":{"ID":350832,"DIS_CODE":0,"TOWNNAME":"北區","LI":"六甲里","LIN":"6鄰","STREET":"西門路","SECT":"四段","MAREA":" ","LANE":"２００巷","ALLEY":" ","HOUSE_NO":"２６號八樓","E_COORD97":168927.14999999999,"N_COORD97":2545604.9300000002,"ADDRESS":"西門路四段２００巷２６號八樓","OBJECTID":350823},"geometry":{"x":168927.1500000013,"y":2545604.9300000016}},{"attributes":{"ID":350833,"DIS_CODE":0,"TOWNNAME":"北區","LI":"六甲里","LIN":"6鄰","STREET":"西門路","SECT":"四段","MAREA":" ","LANE":"２００巷","ALLEY":" ","HOUSE_NO":"２６號三樓","E_COORD97":168927.14999999999,"N_COORD97":2545604.9300000002,"ADDRESS":"西門路四段２００巷２６號三樓","OBJECTID":350824},"geometry":{"x":168927.1500000013,"y":2545604.9300000016}},{"attributes":{"ID":350834,"DIS_CODE":0,"TOWNNAME":"北區","LI":"六甲里","LIN":"6鄰","STREET":"西門路","SECT":"四段","MAREA":" ","LANE":"２００巷","ALLEY":" ","HOUSE_NO":"２６號五樓","E_COORD97":168927.14999999999,"N_COORD97":2545604.9300000002,"ADDRESS":"西門路四段２００巷２６號五樓","OBJECTID":350825},"geometry":{"x":168927.1500000013,"y":2545604.9300000016}},{"attributes":{"ID":350835,"DIS_CODE":0,"TOWNNAME":"北區","LI":"六甲里","LIN":"6鄰","STREET":"西門路","SECT":"四段","MAREA":" ","LANE":"２００巷","ALLEY":" ","HOUSE_NO":"２６號六樓","E_COORD97":168927.14999999999,"N_COORD97":2545604.9300000002,"ADDRESS":"西門路四段２００巷２６號六樓","OBJECTID":350826},"geometry":{"x":168927.1500000013,"y":2545604.9300000016}},{"attributes":{"ID":350836,"DIS_CODE":0,"TOWNNAME":"北區","LI":"六甲里","LIN":"6鄰","STREET":"西門路","SECT":"四段","MAREA":" ","LANE":"２００巷","ALLEY":" ","HOUSE_NO":"２６號四樓","E_COORD97":168927.14999999999,"N_COORD97":2545604.9300000002,"ADDRESS":"西門路四段２００巷２６號四樓","OBJECTID":350827},"geometry":{"x":168927.1500000013,"y":2545604.9300000016}},{"attributes":{"ID":350837,"DIS_CODE":0,"TOWNNAME":"北區","LI":"六甲里","LIN":"6鄰","STREET":"西門路","SECT":"四段","MAREA":" ","LANE":"２００巷","ALLEY":" ","HOUSE_NO":"２號七樓","E_COORD97":168884.73999999999,"N_COORD97":2545613.1400000001,"ADDRESS":"西門路四段２００巷２號七樓","OBJECTID":350828},"geometry":{"x":168884.74000000022,"y":2545613.1400000006}},{"attributes":{"ID":350838,"DIS_CODE":0,"TOWNNAME":"北區","LI":"六甲里","LIN":"6鄰","STREET":"西門路","SECT":"四段","MAREA":" ","LANE":"２００巷","ALLEY":" ","HOUSE_NO":"２號九樓","E_COORD97":168884.73999999999,"N_COORD97":2545613.1400000001,"ADDRESS":"西門路四段２００巷２號九樓","OBJECTID":350829},"geometry":{"x":168884.74000000022,"y":2545613.1400000006}},{"attributes":{"ID":350839,"DIS_CODE":0,"TOWNNAME":"北區","LI":"六甲里","LIN":"6鄰","STREET":"西門路","SECT":"四段","MAREA":" ","LANE":"２００巷","ALLEY":" ","HOUSE_NO":"２號二樓","E_COORD97":168884.73999999999,"N_COORD97":2545613.1400000001,"ADDRESS":"西門路四段２００巷２號二樓","OBJECTID":350830},"geometry":{"x":168884.74000000022,"y":2545613.1400000006}},{"attributes":{"ID":350840,"DIS_CODE":0,"TOWNNAME":"北區","LI":"六甲里","LIN":"6鄰","STREET":"西門路","SECT":"四段","MAREA":" ","LANE":"２００巷","ALLEY":" ","HOUSE_NO":"２號八樓","E_COORD97":168884.73999999999,"N_COORD97":2545613.1400000001,"ADDRESS":"西門路四段２００巷２號八樓","OBJECTID":350831},"geometry":{"x":168884.74000000022,"y":2545613.1400000006}},{"attributes":{"ID":350841,"DIS_CODE":0,"TOWNNAME":"北區","LI":"六甲里","LIN":"6鄰","STREET":"西門路","SECT":"四段","MAREA":" ","LANE":"２００巷","ALLEY":" ","HOUSE_NO":"２號三樓","E_COORD97":168884.73999999999,"N_COORD97":2545613.1400000001,"ADDRESS":"西門路四段２００巷２號三樓","OBJECTID":350832},"geometry":{"x":168884.74000000022,"y":2545613.1400000006}},{"attributes":{"ID":350842,"DIS_CODE":0,"TOWNNAME":"北區","LI":"六甲里","LIN":"6鄰","STREET":"西門路","SECT":"四段","MAREA":" ","LANE":"２００巷","ALLEY":" ","HOUSE_NO":"２號五樓","E_COORD97":168884.73999999999,"N_COORD97":2545613.1400000001,"ADDRESS":"西門路四段２００巷２號五樓","OBJECTID":350833},"geometry":{"x":168884.74000000022,"y":2545613.1400000006}},{"attributes":{"ID":350843,"DIS_CODE":0,"TOWNNAME":"北區","LI":"六甲里","LIN":"6鄰","STREET":"西門路","SECT":"四段","MAREA":" ","LANE":"２００巷","ALLEY":" ","HOUSE_NO":"２號六樓","E_COORD97":168884.73999999999,"N_COORD97":2545613.1400000001,"ADDRESS":"西門路四段２００巷２號六樓","OBJECTID":350834},"geometry":{"x":168884.74000000022,"y":2545613.1400000006}},{"attributes":{"ID":350844,"DIS_CODE":0,"TOWNNAME":"北區","LI":"六甲里","LIN":"6鄰","STREET":"西門路","SECT":"四段","MAREA":" ","LANE":"２００巷","ALLEY":" ","HOUSE_NO":"２號四樓","E_COORD97":168884.73999999999,"N_COORD97":2545613.1400000001,"ADDRESS":"西門路四段２００巷２號四樓","OBJECTID":350835},"geometry":{"x":168884.74000000022,"y":2545613.1400000006}},{"attributes":{"ID":350845,"DIS_CODE":0,"TOWNNAME":"北區","LI":"六甲里","LIN":"6鄰","STREET":"西門路","SECT":"四段","MAREA":" ","LANE":"２００巷","ALLEY":" ","HOUSE_NO":"６號七樓","E_COORD97":168876.09,"N_COORD97":2545613.7799999998,"ADDRESS":"西門路四段２００巷６號七樓","OBJECTID":350836},"geometry":{"x":168876.09000000078,"y":2545613.7799999993}},{"attributes":{"ID":350846,"DIS_CODE":0,"TOWNNAME":"北區","LI":"六甲里","LIN":"6鄰","STREET":"西門路","SECT":"四段","MAREA":" ","LANE":"２００巷","ALLEY":" ","HOUSE_NO":"６號九樓","E_COORD97":168876.09,"N_COORD97":2545613.7799999998,"ADDRESS":"西門路四段２００巷６號九樓","OBJECTID":350837},"geometry":{"x":168876.09000000078,"y":2545613.7799999993}},{"attributes":{"ID":350847,"DIS_CODE":0,"TOWNNAME":"北區","LI":"六甲里","LIN":"6鄰","STREET":"西門路","SECT":"四段","MAREA":" ","LANE":"２００巷","ALLEY":" ","HOUSE_NO":"６號二樓","E_COORD97":168876.09,"N_COORD97":2545613.7799999998,"ADDRESS":"西門路四段２００巷６號二樓","OBJECTID":350838},"geometry":{"x":168876.09000000078,"y":2545613.7799999993}},{"attributes":{"ID":350848,"DIS_CODE":0,"TOWNNAME":"安平區","LI":"國平里","LIN":"18鄰","STREET":"育平五街","SECT":" ","MAREA":" ","LANE":" ","ALLEY":" ","HOUSE_NO":"２號","E_COORD97":164909.70999999999,"N_COORD97":2543484.1899999999,"ADDRESS":"育平五街２號","OBJECTID":350839},"geometry":{"x":164909.71000000183,"y":2543484.1900000013}},{"attributes":{"ID":350849,"DIS_CODE":0,"TOWNNAME":"北區","LI":"六甲里","LIN":"6鄰","STREET":"西門路","SECT":"四段","MAREA":" ","LANE":"２００巷","ALLEY":" ","HOUSE_NO":"６號八樓","E_COORD97":168876.09,"N_COORD97":2545613.7799999998,"ADDRESS":"西門路四段２００巷６號八樓","OBJECTID":350840},"geometry":{"x":168876.09000000078,"y":2545613.7799999993}},{"attributes":{"ID":350850,"DIS_CODE":0,"TOWNNAME":"北區","LI":"六甲里","LIN":"6鄰","STREET":"西門路","SECT":"四段","MAREA":" ","LANE":"２００巷","ALLEY":" ","HOUSE_NO":"６號三樓","E_COORD97":168876.09,"N_COORD97":2545613.7799999998,"ADDRESS":"西門路四段２００巷６號三樓","OBJECTID":350841},"geometry":{"x":168876.09000000078,"y":2545613.7799999993}},{"attributes":{"ID":350851,"DIS_CODE":0,"TOWNNAME":"北區","LI":"六甲里","LIN":"6鄰","STREET":"西門路","SECT":"四段","MAREA":" ","LANE":"２００巷","ALLEY":" ","HOUSE_NO":"６號五樓","E_COORD97":168876.09,"N_COORD97":2545613.7799999998,"ADDRESS":"西門路四段２００巷６號五樓","OBJECTID":350842},"geometry":{"x":168876.09000000078,"y":2545613.7799999993}},{"attributes":{"ID":350852,"DIS_CODE":0,"TOWNNAME":"北區","LI":"六甲里","LIN":"6鄰","STREET":"西門路","SECT":"四段","MAREA":" ","LANE":"２００巷","ALLEY":" ","HOUSE_NO":"６號六樓","E_COORD97":168876.09,"N_COORD97":2545613.7799999998,"ADDRESS":"西門路四段２００巷６號六樓","OBJECTID":350843},"geometry":{"x":168876.09000000078,"y":2545613.7799999993}},{"attributes":{"ID":350853,"DIS_CODE":0,"TOWNNAME":"北區","LI":"六甲里","LIN":"6鄰","STREET":"西門路","SECT":"四段","MAREA":" ","LANE":"２００巷","ALLEY":" ","HOUSE_NO":"６號四樓","E_COORD97":168876.09,"N_COORD97":2545613.7799999998,"ADDRESS":"西門路四段２００巷６號四樓","OBJECTID":350844},"geometry":{"x":168876.09000000078,"y":2545613.7799999993}},{"attributes":{"ID":350854,"DIS_CODE":0,"TOWNNAME":"北區","LI":"六甲里","LIN":"6鄰","STREET":"西門路","SECT":"四段","MAREA":" ","LANE":"２００巷","ALLEY":" ","HOUSE_NO":"８號七樓","E_COORD97":168874.39999999999,"N_COORD97":2545603.6600000001,"ADDRESS":"西門路四段２００巷８號七樓","OBJECTID":350845},"geometry":{"x":168874.4000000013,"y":2545603.660000002}},{"attributes":{"ID":350855,"DIS_CODE":0,"TOWNNAME":"中西區","LI":"元安里","LIN":"6鄰","STREET":"建安街","SECT":" ","MAREA":" ","LANE":"５１巷","ALLEY":" ","HOUSE_NO":"１１號","E_COORD97":167516.10999999999,"N_COORD97":2543201.8900000001,"ADDRESS":"建安街５１巷１１號","OBJECTID":350846},"geometry":{"x":167516.1099999994,"y":2543201.8900000043}},{"attributes":{"ID":350856,"DIS_CODE":0,"TOWNNAME":"中西區","LI":"元安里","LIN":"6鄰","STREET":"建安街","SECT":" ","MAREA":" ","LANE":"５１巷","ALLEY":" ","HOUSE_NO":"１３號","E_COORD97":167515.75,"N_COORD97":2543198.23,"ADDRESS":"建安街５１巷１３號","OBJECTID":350847},"geometry":{"x":167515.75,"y":2543198.2300000004}},{"attributes":{"ID":350857,"DIS_CODE":0,"TOWNNAME":"中西區","LI":"元安里","LIN":"6鄰","STREET":"建安街","SECT":" ","MAREA":" ","LANE":"５１巷","ALLEY":" ","HOUSE_NO":"１號","E_COORD97":167517.45000000001,"N_COORD97":2543222.9399999999,"ADDRESS":"建安街５１巷１號","OBJECTID":350848},"geometry":{"x":167517.45000000112,"y":2543222.9399999995}},{"attributes":{"ID":350858,"DIS_CODE":0,"TOWNNAME":"六甲區","LI":"水林里","LIN":"18鄰","STREET":"民族街","SECT":" ","MAREA":" ","LANE":"１６巷","ALLEY":" ","HOUSE_NO":"５２號","E_COORD97":183575.39999999999,"N_COORD97":2570366.21,"ADDRESS":"民族街１６巷５２號","OBJECTID":350849},"geometry":{"x":183575.40000000037,"y":2570366.2100000009}},{"attributes":{"ID":350859,"DIS_CODE":0,"TOWNNAME":"六甲區","LI":"水林里","LIN":"18鄰","STREET":"民族街","SECT":" ","MAREA":" ","LANE":"１６巷","ALLEY":" ","HOUSE_NO":"５４號","E_COORD97":183570.91,"N_COORD97":2570367.0600000001,"ADDRESS":"民族街１６巷５４號","OBJECTID":350850},"geometry":{"x":183570.91000000201,"y":2570367.0600000005}},{"attributes":{"ID":350860,"DIS_CODE":0,"TOWNNAME":"六甲區","LI":"水林里","LIN":"18鄰","STREET":"民族街","SECT":" ","MAREA":" ","LANE":"１６巷","ALLEY":" ","HOUSE_NO":"５號","E_COORD97":183619.01999999999,"N_COORD97":2570315.1899999999,"ADDRESS":"民族街１６巷５號","OBJECTID":350851},"geometry":{"x":183619.02000000048,"y":2570315.1900000013}},{"attributes":{"ID":350861,"DIS_CODE":0,"TOWNNAME":"六甲區","LI":"水林里","LIN":"18鄰","STREET":"民族街","SECT":" ","MAREA":" ","LANE":"１６巷","ALLEY":" ","HOUSE_NO":"６號","E_COORD97":183637.76000000001,"N_COORD97":2570317.7400000002,"ADDRESS":"民族街１６巷６號","OBJECTID":350852},"geometry":{"x":183637.76000000071,"y":2570317.7400000002}},{"attributes":{"ID":350862,"DIS_CODE":0,"TOWNNAME":"六甲區","LI":"水林里","LIN":"18鄰","STREET":"民族街","SECT":" ","MAREA":" ","LANE":"１６巷","ALLEY":" ","HOUSE_NO":"７號","E_COORD97":183625.04999999999,"N_COORD97":2570341.3100000001,"ADDRESS":"民族街１６巷７號","OBJECTID":350853},"geometry":{"x":183625.04999999981,"y":2570341.3100000005}},{"attributes":{"ID":350863,"DIS_CODE":0,"TOWNNAME":"六甲區","LI":"水林里","LIN":"18鄰","STREET":"民族街","SECT":" ","MAREA":" ","LANE":"１６巷","ALLEY":" ","HOUSE_NO":"８號","E_COORD97":183638.87,"N_COORD97":2570323.48,"ADDRESS":"民族街１６巷８號","OBJECTID":350854},"geometry":{"x":183638.87000000197,"y":2570323.4800000004}},{"attributes":{"ID":350864,"DIS_CODE":0,"TOWNNAME":"六甲區","LI":"水林里","LIN":"18鄰","STREET":"民族街","SECT":" ","MAREA":" ","LANE":"１６巷","ALLEY":" ","HOUSE_NO":"９號","E_COORD97":183620.41,"N_COORD97":2570341.77,"ADDRESS":"民族街１６巷９號","OBJECTID":350855},"geometry":{"x":183620.41000000108,"y":2570341.7700000014}},{"attributes":{"ID":350865,"DIS_CODE":0,"TOWNNAME":"柳營區","LI":"八翁里","LIN":"18鄰","STREET":"中山西路","SECT":"三段","MAREA":" ","LANE":"７０１巷","ALLEY":" ","HOUSE_NO":"１０號","E_COORD97":178005.85999999999,"N_COORD97":2575032.8900000001,"ADDRESS":"中山西路三段７０１巷１０號","OBJECTID":350856},"geometry":{"x":178005.86000000034,"y":2575032.8900000006}},{"attributes":{"ID":350866,"DIS_CODE":0,"TOWNNAME":"柳營區","LI":"八翁里","LIN":"18鄰","STREET":"中山西路","SECT":"三段","MAREA":" ","LANE":"７０１巷","ALLEY":" ","HOUSE_NO":"１１號","E_COORD97":178024.01000000001,"N_COORD97":2575031.3900000001,"ADDRESS":"中山西路三段７０１巷１１號","OBJECTID":350857},"geometry":{"x":178024.00999999978,"y":2575031.3900000025}},{"attributes":{"ID":350867,"DIS_CODE":0,"TOWNNAME":"中西區","LI":"元安里","LIN":"6鄰","STREET":"建安街","SECT":" ","MAREA":" ","LANE":"５１巷","ALLEY":" ","HOUSE_NO":"２５號","E_COORD97":167515.19,"N_COORD97":2543168.1600000001,"ADDRESS":"建安街５１巷２５號","OBJECTID":350858},"geometry":{"x":167515.19000000041,"y":2543168.1600000001}},{"attributes":{"ID":350868,"DIS_CODE":0,"TOWNNAME":"中西區","LI":"元安里","LIN":"6鄰","STREET":"建安街","SECT":" ","MAREA":" ","LANE":"５１巷","ALLEY":" ","HOUSE_NO":"２７號","E_COORD97":167515.04999999999,"N_COORD97":2543163.1400000001,"ADDRESS":"建安街５１巷２７號","OBJECTID":350859},"geometry":{"x":167515.05000000075,"y":2543163.1400000025}},{"attributes":{"ID":350869,"DIS_CODE":0,"TOWNNAME":"中西區","LI":"元安里","LIN":"6鄰","STREET":"建安街","SECT":" ","MAREA":" ","LANE":"５１巷","ALLEY":" ","HOUSE_NO":"２９號","E_COORD97":167515.04999999999,"N_COORD97":2543159.9300000002,"ADDRESS":"建安街５１巷２９號","OBJECTID":350860},"geometry":{"x":167515.05000000075,"y":2543159.9300000034}},{"attributes":{"ID":350870,"DIS_CODE":0,"TOWNNAME":"北區","LI":"六甲里","LIN":"6鄰","STREET":"西門路","SECT":"四段","MAREA":" ","LANE":"２００巷","ALLEY":" ","HOUSE_NO":"８號九樓","E_COORD97":168874.39999999999,"N_COORD97":2545603.6600000001,"ADDRESS":"西門路四段２００巷８號九樓","OBJECTID":350861},"geometry":{"x":168874.4000000013,"y":2545603.660000002}},{"attributes":{"ID":350871,"DIS_CODE":0,"TOWNNAME":"北區","LI":"六甲里","LIN":"6鄰","STREET":"西門路","SECT":"四段","MAREA":" ","LANE":"２００巷","ALLEY":" ","HOUSE_NO":"８號二樓","E_COORD97":168874.39999999999,"N_COORD97":2545603.6600000001,"ADDRESS":"西門路四段２００巷８號二樓","OBJECTID":350862},"geometry":{"x":168874.4000000013,"y":2545603.660000002}},{"attributes":{"ID":350872,"DIS_CODE":0,"TOWNNAME":"北區","LI":"六甲里","LIN":"6鄰","STREET":"西門路","SECT":"四段","MAREA":" ","LANE":"２００巷","ALLEY":" ","HOUSE_NO":"８號八樓","E_COORD97":168874.39999999999,"N_COORD97":2545603.6600000001,"ADDRESS":"西門路四段２００巷８號八樓","OBJECTID":350863},"geometry":{"x":168874.4000000013,"y":2545603.660000002}},{"attributes":{"ID":350873,"DIS_CODE":0,"TOWNNAME":"北區","LI":"六甲里","LIN":"6鄰","STREET":"西門路","SECT":"四段","MAREA":" ","LANE":"２００巷","ALLEY":" ","HOUSE_NO":"８號五樓","E_COORD97":168874.39999999999,"N_COORD97":2545603.6600000001,"ADDRESS":"西門路四段２００巷８號五樓","OBJECTID":350864},"geometry":{"x":168874.4000000013,"y":2545603.660000002}},{"attributes":{"ID":350874,"DIS_CODE":0,"TOWNNAME":"北區","LI":"六甲里","LIN":"6鄰","STREET":"西門路","SECT":"四段","MAREA":" ","LANE":"２００巷","ALLEY":" ","HOUSE_NO":"８號六樓","E_COORD97":168874.39999999999,"N_COORD97":2545603.6600000001,"ADDRESS":"西門路四段２００巷８號六樓","OBJECTID":350865},"geometry":{"x":168874.4000000013,"y":2545603.660000002}},{"attributes":{"ID":350875,"DIS_CODE":0,"TOWNNAME":"北區","LI":"六甲里","LIN":"6鄰","STREET":"西門路","SECT":"四段","MAREA":" ","LANE":"２００巷","ALLEY":" ","HOUSE_NO":"８號四樓","E_COORD97":168874.39999999999,"N_COORD97":2545603.6600000001,"ADDRESS":"西門路四段２００巷８號四樓","OBJECTID":350866},"geometry":{"x":168874.4000000013,"y":2545603.660000002}},{"attributes":{"ID":350876,"DIS_CODE":0,"TOWNNAME":"北區","LI":"國姓里","LIN":"6鄰","STREET":"西門路","SECT":"四段","MAREA":" ","LANE":"１２６巷","ALLEY":" ","HOUSE_NO":"１５號二樓之１","E_COORD97":168822.76999999999,"N_COORD97":2545452.9900000002,"ADDRESS":"西門路四段１２６巷１５號二樓之１","OBJECTID":350867},"geometry":{"x":168822.76999999955,"y":2545452.9900000021}},{"attributes":{"ID":350877,"DIS_CODE":0,"TOWNNAME":"北區","LI":"東興里","LIN":"8鄰","STREET":"小東路","SECT":" ","MAREA":" ","LANE":" ","ALLEY":" ","HOUSE_NO":"３１７號","E_COORD97":171143.37,"N_COORD97":2544406.6800000002,"ADDRESS":"小東路３１７號","OBJECTID":350868},"geometry":{"x":171143.37000000011,"y":2544406.6800000016}},{"attributes":{"ID":350878,"DIS_CODE":0,"TOWNNAME":"北區","LI":"東興里","LIN":"8鄰","STREET":"小東路","SECT":" ","MAREA":" ","LANE":" ","ALLEY":" ","HOUSE_NO":"３１９號","E_COORD97":171146.67999999999,"N_COORD97":2544405.1299999999,"ADDRESS":"小東路３１９號","OBJECTID":350869},"geometry":{"x":171146.68000000063,"y":2544405.1299999971}},{"attributes":{"ID":350879,"DIS_CODE":0,"TOWNNAME":"北區","LI":"東興里","LIN":"8鄰","STREET":"小東路","SECT":" ","MAREA":" ","LANE":" ","ALLEY":" ","HOUSE_NO":"３２１號","E_COORD97":171149.5,"N_COORD97":2544404.1600000001,"ADDRESS":"小東路３２１號","OBJECTID":350870},"geometry":{"x":171149.50000000186,"y":2544404.160000002}},{"attributes":{"ID":350880,"DIS_CODE":0,"TOWNNAME":"北區","LI":"東興里","LIN":"8鄰","STREET":"小東路","SECT":" ","MAREA":" ","LANE":" ","ALLEY":" ","HOUSE_NO":"３２３號","E_COORD97":171156.79000000001,"N_COORD97":2544404.3500000001,"ADDRESS":"小東路３２３號","OBJECTID":350871},"geometry":{"x":171156.79000000004,"y":2544404.3499999978}},{"attributes":{"ID":350881,"DIS_CODE":0,"TOWNNAME":"北區","LI":"東興里","LIN":"8鄰","STREET":"小東路","SECT":" ","MAREA":" ","LANE":" ","ALLEY":" ","HOUSE_NO":"３２５號","E_COORD97":171163.51000000001,"N_COORD97":2544403.6699999999,"ADDRESS":"小東路３２５號","OBJECTID":350872},"geometry":{"x":171163.50999999978,"y":2544403.6700000018}},{"attributes":{"ID":350882,"DIS_CODE":0,"TOWNNAME":"北區","LI":"東興里","LIN":"8鄰","STREET":"小東路","SECT":" ","MAREA":" ","LANE":" ","ALLEY":" ","HOUSE_NO":"３２７號","E_COORD97":171167.98000000001,"N_COORD97":2544402.4100000001,"ADDRESS":"小東路３２７號","OBJECTID":350873},"geometry":{"x":171167.98000000045,"y":2544402.410000002}},{"attributes":{"ID":350883,"DIS_CODE":0,"TOWNNAME":"北區","LI":"東興里","LIN":"8鄰","STREET":"小東路","SECT":" ","MAREA":" ","LANE":" ","ALLEY":" ","HOUSE_NO":"３２９號","E_COORD97":171172.45999999999,"N_COORD97":2544401.6299999999,"ADDRESS":"小東路３２９號","OBJECTID":350874},"geometry":{"x":171172.46000000089,"y":2544401.629999999}},{"attributes":{"ID":350884,"DIS_CODE":0,"TOWNNAME":"北區","LI":"東興里","LIN":"8鄰","STREET":"小東路","SECT":" ","MAREA":" ","LANE":" ","ALLEY":" ","HOUSE_NO":"３３１號","E_COORD97":171176.64000000001,"N_COORD97":2544400.5600000001,"ADDRESS":"小東路３３１號","OBJECTID":350875},"geometry":{"x":171176.63999999966,"y":2544400.5599999987}},{"attributes":{"ID":350885,"DIS_CODE":0,"TOWNNAME":"北區","LI":"東興里","LIN":"8鄰","STREET":"小東路","SECT":" ","MAREA":" ","LANE":" ","ALLEY":" ","HOUSE_NO":"３３３號","E_COORD97":171182.87,"N_COORD97":2544397.9399999999,"ADDRESS":"小東路３３３號","OBJECTID":350876},"geometry":{"x":171182.87000000104,"y":2544397.9400000013}},{"attributes":{"ID":350886,"DIS_CODE":0,"TOWNNAME":"六甲區","LI":"水林里","LIN":"18鄰","STREET":"民族街","SECT":" ","MAREA":" ","LANE":" ","ALLEY":" ","HOUSE_NO":"１８號","E_COORD97":183613.5,"N_COORD97":2570300.6200000001,"ADDRESS":"民族街１８號","OBJECTID":350877},"geometry":{"x":183613.5,"y":2570300.6200000029}},{"attributes":{"ID":350887,"DIS_CODE":0,"TOWNNAME":"柳營區","LI":"八翁里","LIN":"18鄰","STREET":"中山西路","SECT":"三段","MAREA":" ","LANE":"７０１巷","ALLEY":" ","HOUSE_NO":"２７號","E_COORD97":178028.89000000001,"N_COORD97":2574976.25,"ADDRESS":"中山西路三段７０１巷２７號","OBJECTID":350878},"geometry":{"x":178028.89000000153,"y":2574976.25}},{"attributes":{"ID":350888,"DIS_CODE":0,"TOWNNAME":"柳營區","LI":"八翁里","LIN":"18鄰","STREET":"中山西路","SECT":"三段","MAREA":" ","LANE":"７０１巷","ALLEY":" ","HOUSE_NO":"２８號","E_COORD97":178011.16,"N_COORD97":2574981.1699999999,"ADDRESS":"中山西路三段７０１巷２８號","OBJECTID":350879},"geometry":{"x":178011.16000000108,"y":2574981.1700000018}},{"attributes":{"ID":350889,"DIS_CODE":0,"TOWNNAME":"柳營區","LI":"八翁里","LIN":"18鄰","STREET":"中山西路","SECT":"三段","MAREA":" ","LANE":"７０１巷","ALLEY":" ","HOUSE_NO":"２９號","E_COORD97":178029.5,"N_COORD97":2574969.3599999999,"ADDRESS":"中山西路三段７０１巷２９號","OBJECTID":350880},"geometry":{"x":178029.5,"y":2574969.3600000013}},{"attributes":{"ID":350890,"DIS_CODE":0,"TOWNNAME":"柳營區","LI":"八翁里","LIN":"18鄰","STREET":"中山西路","SECT":"三段","MAREA":" ","LANE":"７０１巷","ALLEY":" ","HOUSE_NO":"２號","E_COORD97":178003.95000000001,"N_COORD97":2575056.9300000002,"ADDRESS":"中山西路三段７０１巷２號","OBJECTID":350881},"geometry":{"x":178003.95000000112,"y":2575056.9300000016}},{"attributes":{"ID":350891,"DIS_CODE":0,"TOWNNAME":"柳營區","LI":"八翁里","LIN":"18鄰","STREET":"中山西路","SECT":"三段","MAREA":" ","LANE":"７０１巷","ALLEY":" ","HOUSE_NO":"３０號","E_COORD97":178011.42000000001,"N_COORD97":2574974.6200000001,"ADDRESS":"中山西路三段７０１巷３０號","OBJECTID":350882},"geometry":{"x":178011.41999999993,"y":2574974.620000001}},{"attributes":{"ID":350892,"DIS_CODE":0,"TOWNNAME":"北區","LI":"國姓里","LIN":"6鄰","STREET":"西門路","SECT":"四段","MAREA":" ","LANE":"１２６巷","ALLEY":" ","HOUSE_NO":"１５號二樓之２","E_COORD97":168822.76999999999,"N_COORD97":2545452.9900000002,"ADDRESS":"西門路四段１２６巷１５號二樓之２","OBJECTID":350883},"geometry":{"x":168822.76999999955,"y":2545452.9900000021}},{"attributes":{"ID":350893,"DIS_CODE":0,"TOWNNAME":"北區","LI":"國姓里","LIN":"6鄰","STREET":"西門路","SECT":"四段","MAREA":" ","LANE":"１２６巷","ALLEY":" ","HOUSE_NO":"１５號二樓之３","E_COORD97":168822.76999999999,"N_COORD97":2545452.9900000002,"ADDRESS":"西門路四段１２６巷１５號二樓之３","OBJECTID":350884},"geometry":{"x":168822.76999999955,"y":2545452.9900000021}},{"attributes":{"ID":350894,"DIS_CODE":0,"TOWNNAME":"北區","LI":"國姓里","LIN":"6鄰","STREET":"西門路","SECT":"四段","MAREA":" ","LANE":"１２６巷","ALLEY":" ","HOUSE_NO":"１５號二樓之４","E_COORD97":168822.76999999999,"N_COORD97":2545452.9900000002,"ADDRESS":"西門路四段１２６巷１５號二樓之４","OBJECTID":350885},"geometry":{"x":168822.76999999955,"y":2545452.9900000021}},{"attributes":{"ID":350895,"DIS_CODE":0,"TOWNNAME":"北區","LI":"國姓里","LIN":"6鄰","STREET":"西門路","SECT":"四段","MAREA":" ","LANE":"１２６巷","ALLEY":" ","HOUSE_NO":"１５號二樓之５","E_COORD97":168822.76999999999,"N_COORD97":2545452.9900000002,"ADDRESS":"西門路四段１２６巷１５號二樓之５","OBJECTID":350886},"geometry":{"x":168822.76999999955,"y":2545452.9900000021}},{"attributes":{"ID":350896,"DIS_CODE":0,"TOWNNAME":"北區","LI":"國姓里","LIN":"6鄰","STREET":"西門路","SECT":"四段","MAREA":" ","LANE":"１２６巷","ALLEY":" ","HOUSE_NO":"１５號二樓之６","E_COORD97":168822.76999999999,"N_COORD97":2545452.9900000002,"ADDRESS":"西門路四段１２６巷１５號二樓之６","OBJECTID":350887},"geometry":{"x":168822.76999999955,"y":2545452.9900000021}},{"attributes":{"ID":350897,"DIS_CODE":0,"TOWNNAME":"北區","LI":"東興里","LIN":"8鄰","STREET":"小東路","SECT":" ","MAREA":" ","LANE":" ","ALLEY":" ","HOUSE_NO":"３３９號","E_COORD97":171190.82000000001,"N_COORD97":2544396.6699999999,"ADDRESS":"小東路３３９號","OBJECTID":350888},"geometry":{"x":171190.8200000003,"y":2544396.6700000018}},{"attributes":{"ID":350898,"DIS_CODE":0,"TOWNNAME":"北區","LI":"東興里","LIN":"8鄰","STREET":"小東路","SECT":" ","MAREA":" ","LANE":" ","ALLEY":" ","HOUSE_NO":"３４１號","E_COORD97":171195.20000000001,"N_COORD97":2544394.73,"ADDRESS":"小東路３４１號","OBJECTID":350889},"geometry":{"x":171195.20000000019,"y":2544394.7300000004}},{"attributes":{"ID":350899,"DIS_CODE":0,"TOWNNAME":"北區","LI":"東興里","LIN":"8鄰","STREET":"小東路","SECT":" ","MAREA":" ","LANE":" ","ALLEY":" ","HOUSE_NO":"３４３號","E_COORD97":171199.57000000001,"N_COORD97":2544392.2999999998,"ADDRESS":"小東路３４３號","OBJECTID":350890},"geometry":{"x":171199.5700000003,"y":2544392.2999999989}},{"attributes":{"ID":350900,"DIS_CODE":0,"TOWNNAME":"柳營區","LI":"重溪里","LIN":"18鄰","STREET":" ","SECT":" ","MAREA":"五軍營","LANE":" ","ALLEY":" ","HOUSE_NO":"１１號","E_COORD97":183624.89000000001,"N_COORD97":2577342.9700000002,"ADDRESS":"五軍營１１號","OBJECTID":350891},"geometry":{"x":183624.8900000006,"y":2577342.9700000025}},{"attributes":{"ID":350901,"DIS_CODE":0,"TOWNNAME":"北區","LI":"東興里","LIN":"8鄰","STREET":"小東路","SECT":" ","MAREA":" ","LANE":" ","ALLEY":" ","HOUSE_NO":"３４５號","E_COORD97":171205.60999999999,"N_COORD97":2544388.1200000001,"ADDRESS":"小東路３４５號","OBJECTID":350892},"geometry":{"x":171205.61000000127,"y":2544388.1200000029}},{"attributes":{"ID":350902,"DIS_CODE":0,"TOWNNAME":"北區","LI":"東興里","LIN":"8鄰","STREET":"小東路","SECT":" ","MAREA":" ","LANE":" ","ALLEY":" ","HOUSE_NO":"３６１號","E_COORD97":171227.09,"N_COORD97":2544419.0099999998,"ADDRESS":"小東路３６１號","OBJECTID":350893},"geometry":{"x":171227.09000000078,"y":2544419.0099999998}},{"attributes":{"ID":350903,"DIS_CODE":0,"TOWNNAME":"柳營區","LI":"太康里","LIN":"18鄰","STREET":" ","SECT":" ","MAREA":"太康","LANE":" ","ALLEY":" ","HOUSE_NO":"１６５號之８","E_COORD97":181627.76999999999,"N_COORD97":2576550.04,"ADDRESS":"太康１６５號之８","OBJECTID":350894},"geometry":{"x":181627.76999999955,"y":2576550.0399999991}},{"attributes":{"ID":350904,"DIS_CODE":0,"TOWNNAME":"柳營區","LI":"太康里","LIN":"18鄰","STREET":" ","SECT":" ","MAREA":"太康","LANE":" ","ALLEY":" ","HOUSE_NO":"１６５號之９","E_COORD97":181628.41,"N_COORD97":2576544.9500000002,"ADDRESS":"太康１６５號之９","OBJECTID":350895},"geometry":{"x":181628.41000000108,"y":2576544.9500000011}},{"attributes":{"ID":350905,"DIS_CODE":0,"TOWNNAME":"北區","LI":"國姓里","LIN":"6鄰","STREET":"西門路","SECT":"四段","MAREA":" ","LANE":"１２６巷","ALLEY":" ","HOUSE_NO":"１５號三樓之１","E_COORD97":168822.76999999999,"N_COORD97":2545452.9900000002,"ADDRESS":"西門路四段１２６巷１５號三樓之１","OBJECTID":350896},"geometry":{"x":168822.76999999955,"y":2545452.9900000021}},{"attributes":{"ID":350906,"DIS_CODE":0,"TOWNNAME":"北區","LI":"國姓里","LIN":"6鄰","STREET":"西門路","SECT":"四段","MAREA":" ","LANE":"１２６巷","ALLEY":" ","HOUSE_NO":"１５號三樓之２","E_COORD97":168822.76999999999,"N_COORD97":2545452.9900000002,"ADDRESS":"西門路四段１２６巷１５號三樓之２","OBJECTID":350897},"geometry":{"x":168822.76999999955,"y":2545452.9900000021}},{"attributes":{"ID":350907,"DIS_CODE":0,"TOWNNAME":"北區","LI":"國姓里","LIN":"6鄰","STREET":"西門路","SECT":"四段","MAREA":" ","LANE":"１２６巷","ALLEY":" ","HOUSE_NO":"１５號三樓之３","E_COORD97":168822.76999999999,"N_COORD97":2545452.9900000002,"ADDRESS":"西門路四段１２６巷１５號三樓之３","OBJECTID":350898},"geometry":{"x":168822.76999999955,"y":2545452.9900000021}},{"attributes":{"ID":350908,"DIS_CODE":0,"TOWNNAME":"北區","LI":"國姓里","LIN":"6鄰","STREET":"西門路","SECT":"四段","MAREA":" ","LANE":"１２６巷","ALLEY":" ","HOUSE_NO":"１５號三樓之４","E_COORD97":168822.76999999999,"N_COORD97":2545452.9900000002,"ADDRESS":"西門路四段１２６巷１５號三樓之４","OBJECTID":350899},"geometry":{"x":168822.76999999955,"y":2545452.9900000021}},{"attributes":{"ID":350909,"DIS_CODE":0,"TOWNNAME":"北區","LI":"國姓里","LIN":"6鄰","STREET":"西門路","SECT":"四段","MAREA":" ","LANE":"１２６巷","ALLEY":" ","HOUSE_NO":"１５號三樓之５","E_COORD97":168822.76999999999,"N_COORD97":2545452.9900000002,"ADDRESS":"西門路四段１２６巷１５號三樓之５","OBJECTID":350900},"geometry":{"x":168822.76999999955,"y":2545452.9900000021}},{"attributes":{"ID":350910,"DIS_CODE":0,"TOWNNAME":"北區","LI":"國姓里","LIN":"6鄰","STREET":"西門路","SECT":"四段","MAREA":" ","LANE":"１２６巷","ALLEY":" ","HOUSE_NO":"１５號三樓之６","E_COORD97":168822.76999999999,"N_COORD97":2545452.9900000002,"ADDRESS":"西門路四段１２６巷１５號三樓之６","OBJECTID":350901},"geometry":{"x":168822.76999999955,"y":2545452.9900000021}},{"attributes":{"ID":350911,"DIS_CODE":0,"TOWNNAME":"北區","LI":"國姓里","LIN":"6鄰","STREET":"西門路","SECT":"四段","MAREA":" ","LANE":"１２６巷","ALLEY":" ","HOUSE_NO":"１５號五樓之１","E_COORD97":168822.76999999999,"N_COORD97":2545452.9900000002,"ADDRESS":"西門路四段１２６巷１５號五樓之１","OBJECTID":350902},"geometry":{"x":168822.76999999955,"y":2545452.9900000021}},{"attributes":{"ID":350912,"DIS_CODE":0,"TOWNNAME":"北區","LI":"國姓里","LIN":"6鄰","STREET":"西門路","SECT":"四段","MAREA":" ","LANE":"１２６巷","ALLEY":" ","HOUSE_NO":"１５號五樓之２","E_COORD97":168822.76999999999,"N_COORD97":2545452.9900000002,"ADDRESS":"西門路四段１２６巷１５號五樓之２","OBJECTID":350903},"geometry":{"x":168822.76999999955,"y":2545452.9900000021}},{"attributes":{"ID":350913,"DIS_CODE":0,"TOWNNAME":"北區","LI":"國姓里","LIN":"6鄰","STREET":"西門路","SECT":"四段","MAREA":" ","LANE":"１２６巷","ALLEY":" ","HOUSE_NO":"１５號五樓之３","E_COORD97":168822.76999999999,"N_COORD97":2545452.9900000002,"ADDRESS":"西門路四段１２６巷１５號五樓之３","OBJECTID":350904},"geometry":{"x":168822.76999999955,"y":2545452.9900000021}},{"attributes":{"ID":350914,"DIS_CODE":0,"TOWNNAME":"北區","LI":"東興里","LIN":"8鄰","STREET":"小東路","SECT":" ","MAREA":" ","LANE":" ","ALLEY":" ","HOUSE_NO":"３６３號","E_COORD97":171227.89000000001,"N_COORD97":2544382.4900000002,"ADDRESS":"小東路３６３號","OBJECTID":350905},"geometry":{"x":171227.8900000006,"y":2544382.4900000002}},{"attributes":{"ID":350915,"DIS_CODE":0,"TOWNNAME":"北區","LI":"國姓里","LIN":"6鄰","STREET":"西門路","SECT":"四段","MAREA":" ","LANE":"１２６巷","ALLEY":" ","HOUSE_NO":"１５號五樓之４","E_COORD97":168822.76999999999,"N_COORD97":2545452.9900000002,"ADDRESS":"西門路四段１２６巷１５號五樓之４","OBJECTID":350906},"geometry":{"x":168822.76999999955,"y":2545452.9900000021}},{"attributes":{"ID":350916,"DIS_CODE":0,"TOWNNAME":"北區","LI":"國姓里","LIN":"6鄰","STREET":"西門路","SECT":"四段","MAREA":" ","LANE":"１２６巷","ALLEY":" ","HOUSE_NO":"１５號五樓之５","E_COORD97":168822.76999999999,"N_COORD97":2545452.9900000002,"ADDRESS":"西門路四段１２６巷１５號五樓之５","OBJECTID":350907},"geometry":{"x":168822.76999999955,"y":2545452.9900000021}},{"attributes":{"ID":350917,"DIS_CODE":0,"TOWNNAME":"北區","LI":"國姓里","LIN":"6鄰","STREET":"西門路","SECT":"四段","MAREA":" ","LANE":"１２６巷","ALLEY":" ","HOUSE_NO":"１５號五樓之６","E_COORD97":168822.76999999999,"N_COORD97":2545452.9900000002,"ADDRESS":"西門路四段１２６巷１５號五樓之６","OBJECTID":350908},"geometry":{"x":168822.76999999955,"y":2545452.9900000021}},{"attributes":{"ID":350918,"DIS_CODE":0,"TOWNNAME":"北區","LI":"國姓里","LIN":"6鄰","STREET":"西門路","SECT":"四段","MAREA":" ","LANE":"１２６巷","ALLEY":" ","HOUSE_NO":"１５號六樓之１","E_COORD97":168822.76999999999,"N_COORD97":2545452.9900000002,"ADDRESS":"西門路四段１２６巷１５號六樓之１","OBJECTID":350909},"geometry":{"x":168822.76999999955,"y":2545452.9900000021}},{"attributes":{"ID":350919,"DIS_CODE":0,"TOWNNAME":"北區","LI":"國姓里","LIN":"6鄰","STREET":"西門路","SECT":"四段","MAREA":" ","LANE":"１２６巷","ALLEY":" ","HOUSE_NO":"１５號六樓之２","E_COORD97":168822.76999999999,"N_COORD97":2545452.9900000002,"ADDRESS":"西門路四段１２６巷１５號六樓之２","OBJECTID":350910},"geometry":{"x":168822.76999999955,"y":2545452.9900000021}},{"attributes":{"ID":350920,"DIS_CODE":0,"TOWNNAME":"北區","LI":"國姓里","LIN":"6鄰","STREET":"西門路","SECT":"四段","MAREA":" ","LANE":"１２６巷","ALLEY":" ","HOUSE_NO":"１５號六樓之３","E_COORD97":168822.76999999999,"N_COORD97":2545452.9900000002,"ADDRESS":"西門路四段１２６巷１５號六樓之３","OBJECTID":350911},"geometry":{"x":168822.76999999955,"y":2545452.9900000021}},{"attributes":{"ID":350921,"DIS_CODE":0,"TOWNNAME":"北區","LI":"國姓里","LIN":"6鄰","STREET":"西門路","SECT":"四段","MAREA":" ","LANE":"１２６巷","ALLEY":" ","HOUSE_NO":"１５號四樓之１","E_COORD97":168822.76999999999,"N_COORD97":2545452.9900000002,"ADDRESS":"西門路四段１２６巷１５號四樓之１","OBJECTID":350912},"geometry":{"x":168822.76999999955,"y":2545452.9900000021}},{"attributes":{"ID":350922,"DIS_CODE":0,"TOWNNAME":"北區","LI":"國姓里","LIN":"6鄰","STREET":"西門路","SECT":"四段","MAREA":" ","LANE":"１２６巷","ALLEY":" ","HOUSE_NO":"１５號四樓之２","E_COORD97":168822.76999999999,"N_COORD97":2545452.9900000002,"ADDRESS":"西門路四段１２６巷１５號四樓之２","OBJECTID":350913},"geometry":{"x":168822.76999999955,"y":2545452.9900000021}},{"attributes":{"ID":350923,"DIS_CODE":0,"TOWNNAME":"北區","LI":"國姓里","LIN":"6鄰","STREET":"西門路","SECT":"四段","MAREA":" ","LANE":"１２６巷","ALLEY":" ","HOUSE_NO":"１５號四樓之３","E_COORD97":168822.76999999999,"N_COORD97":2545452.9900000002,"ADDRESS":"西門路四段１２６巷１５號四樓之３","OBJECTID":350914},"geometry":{"x":168822.76999999955,"y":2545452.9900000021}},{"attributes":{"ID":350924,"DIS_CODE":0,"TOWNNAME":"北區","LI":"國姓里","LIN":"6鄰","STREET":"西門路","SECT":"四段","MAREA":" ","LANE":"１２６巷","ALLEY":" ","HOUSE_NO":"１５號四樓之４","E_COORD97":168822.76999999999,"N_COORD97":2545452.9900000002,"ADDRESS":"西門路四段１２６巷１５號四樓之４","OBJECTID":350915},"geometry":{"x":168822.76999999955,"y":2545452.9900000021}},{"attributes":{"ID":350925,"DIS_CODE":0,"TOWNNAME":"北區","LI":"國姓里","LIN":"6鄰","STREET":"西門路","SECT":"四段","MAREA":" ","LANE":"１２６巷","ALLEY":" ","HOUSE_NO":"１５號四樓之５","E_COORD97":168822.76999999999,"N_COORD97":2545452.9900000002,"ADDRESS":"西門路四段１２６巷１５號四樓之５","OBJECTID":350916},"geometry":{"x":168822.76999999955,"y":2545452.9900000021}},{"attributes":{"ID":350926,"DIS_CODE":0,"TOWNNAME":"北區","LI":"國姓里","LIN":"6鄰","STREET":"西門路","SECT":"四段","MAREA":" ","LANE":"１２６巷","ALLEY":" ","HOUSE_NO":"１５號四樓之６","E_COORD97":168822.76999999999,"N_COORD97":2545452.9900000002,"ADDRESS":"西門路四段１２６巷１５號四樓之６","OBJECTID":350917},"geometry":{"x":168822.76999999955,"y":2545452.9900000021}},{"attributes":{"ID":350927,"DIS_CODE":0,"TOWNNAME":"北區","LI":"國姓里","LIN":"6鄰","STREET":"西門路","SECT":"四段","MAREA":" ","LANE":"１２６巷","ALLEY":" ","HOUSE_NO":"１７號二樓之１","E_COORD97":168840.01999999999,"N_COORD97":2545441.6099999999,"ADDRESS":"西門路四段１２６巷１７號二樓之１","OBJECTID":350918},"geometry":{"x":168840.02000000142,"y":2545441.6100000013}},{"attributes":{"ID":350928,"DIS_CODE":0,"TOWNNAME":"北區","LI":"國姓里","LIN":"6鄰","STREET":"西門路","SECT":"四段","MAREA":" ","LANE":"１２６巷","ALLEY":" ","HOUSE_NO":"１７號二樓之２","E_COORD97":168840.01999999999,"N_COORD97":2545441.6099999999,"ADDRESS":"西門路四段１２６巷１７號二樓之２","OBJECTID":350919},"geometry":{"x":168840.02000000142,"y":2545441.6100000013}},{"attributes":{"ID":350929,"DIS_CODE":0,"TOWNNAME":"北區","LI":"國姓里","LIN":"6鄰","STREET":"西門路","SECT":"四段","MAREA":" ","LANE":"１２６巷","ALLEY":" ","HOUSE_NO":"１７號二樓之３","E_COORD97":168840.01999999999,"N_COORD97":2545441.6099999999,"ADDRESS":"西門路四段１２６巷１７號二樓之３","OBJECTID":350920},"geometry":{"x":168840.02000000142,"y":2545441.6100000013}},{"attributes":{"ID":350930,"DIS_CODE":0,"TOWNNAME":"北區","LI":"國姓里","LIN":"6鄰","STREET":"西門路","SECT":"四段","MAREA":" ","LANE":"１２６巷","ALLEY":" ","HOUSE_NO":"１７號二樓之４","E_COORD97":168840.01999999999,"N_COORD97":2545441.6099999999,"ADDRESS":"西門路四段１２６巷１７號二樓之４","OBJECTID":350921},"geometry":{"x":168840.02000000142,"y":2545441.6100000013}},{"attributes":{"ID":350931,"DIS_CODE":0,"TOWNNAME":"北區","LI":"國姓里","LIN":"6鄰","STREET":"西門路","SECT":"四段","MAREA":" ","LANE":"１２６巷","ALLEY":" ","HOUSE_NO":"１７號二樓之５","E_COORD97":168840.01999999999,"N_COORD97":2545441.6099999999,"ADDRESS":"西門路四段１２６巷１７號二樓之５","OBJECTID":350922},"geometry":{"x":168840.02000000142,"y":2545441.6100000013}},{"attributes":{"ID":350932,"DIS_CODE":0,"TOWNNAME":"北區","LI":"國姓里","LIN":"6鄰","STREET":"西門路","SECT":"四段","MAREA":" ","LANE":"１２６巷","ALLEY":" ","HOUSE_NO":"１７號二樓之６","E_COORD97":168840.01999999999,"N_COORD97":2545441.6099999999,"ADDRESS":"西門路四段１２６巷１７號二樓之６","OBJECTID":350923},"geometry":{"x":168840.02000000142,"y":2545441.6100000013}},{"attributes":{"ID":350933,"DIS_CODE":0,"TOWNNAME":"北區","LI":"國姓里","LIN":"6鄰","STREET":"西門路","SECT":"四段","MAREA":" ","LANE":"１２６巷","ALLEY":" ","HOUSE_NO":"１７號三樓之１","E_COORD97":168840.01999999999,"N_COORD97":2545441.6099999999,"ADDRESS":"西門路四段１２６巷１７號三樓之１","OBJECTID":350924},"geometry":{"x":168840.02000000142,"y":2545441.6100000013}},{"attributes":{"ID":350934,"DIS_CODE":0,"TOWNNAME":"北區","LI":"國姓里","LIN":"6鄰","STREET":"西門路","SECT":"四段","MAREA":" ","LANE":"１２６巷","ALLEY":" ","HOUSE_NO":"１７號三樓之２","E_COORD97":168840.01999999999,"N_COORD97":2545441.6099999999,"ADDRESS":"西門路四段１２６巷１７號三樓之２","OBJECTID":350925},"geometry":{"x":168840.02000000142,"y":2545441.6100000013}},{"attributes":{"ID":350935,"DIS_CODE":0,"TOWNNAME":"北區","LI":"國姓里","LIN":"6鄰","STREET":"西門路","SECT":"四段","MAREA":" ","LANE":"１２６巷","ALLEY":" ","HOUSE_NO":"１７號三樓之３","E_COORD97":168840.01999999999,"N_COORD97":2545441.6099999999,"ADDRESS":"西門路四段１２６巷１７號三樓之３","OBJECTID":350926},"geometry":{"x":168840.02000000142,"y":2545441.6100000013}},{"attributes":{"ID":350936,"DIS_CODE":0,"TOWNNAME":"北區","LI":"國姓里","LIN":"6鄰","STREET":"西門路","SECT":"四段","MAREA":" ","LANE":"１２６巷","ALLEY":" ","HOUSE_NO":"１７號三樓之４","E_COORD97":168840.01999999999,"N_COORD97":2545441.6099999999,"ADDRESS":"西門路四段１２６巷１７號三樓之４","OBJECTID":350927},"geometry":{"x":168840.02000000142,"y":2545441.6100000013}},{"attributes":{"ID":350937,"DIS_CODE":0,"TOWNNAME":"北區","LI":"國姓里","LIN":"6鄰","STREET":"西門路","SECT":"四段","MAREA":" ","LANE":"１２６巷","ALLEY":" ","HOUSE_NO":"１７號三樓之５","E_COORD97":168840.01999999999,"N_COORD97":2545441.6099999999,"ADDRESS":"西門路四段１２６巷１７號三樓之５","OBJECTID":350928},"geometry":{"x":168840.02000000142,"y":2545441.6100000013}},{"attributes":{"ID":350938,"DIS_CODE":0,"TOWNNAME":"北區","LI":"正覺里","LIN":"18鄰","STREET":"公園路","SECT":" ","MAREA":" ","LANE":"６８１巷","ALLEY":" ","HOUSE_NO":"１４號","E_COORD97":169422.85000000001,"N_COORD97":2546352.8100000001,"ADDRESS":"公園路６８１巷１４號","OBJECTID":350929},"geometry":{"x":169422.85000000056,"y":2546352.8100000024}},{"attributes":{"ID":350939,"DIS_CODE":0,"TOWNNAME":"安平區","LI":"金城里","LIN":"8鄰","STREET":"世平四街","SECT":" ","MAREA":" ","LANE":" ","ALLEY":" ","HOUSE_NO":"６號","E_COORD97":162980.06,"N_COORD97":2544203.4900000002,"ADDRESS":"世平四街６號","OBJECTID":350930},"geometry":{"x":162980.06000000052,"y":2544203.4900000002}},{"attributes":{"ID":350940,"DIS_CODE":0,"TOWNNAME":"北區","LI":"正覺里","LIN":"18鄰","STREET":"公園路","SECT":" ","MAREA":" ","LANE":"６８１巷","ALLEY":" ","HOUSE_NO":"１６號","E_COORD97":169418.69,"N_COORD97":2546354.7200000002,"ADDRESS":"公園路６８１巷１６號","OBJECTID":350931},"geometry":{"x":169418.69000000041,"y":2546354.7200000007}},{"attributes":{"ID":350941,"DIS_CODE":0,"TOWNNAME":"北區","LI":"正覺里","LIN":"18鄰","STREET":"公園路","SECT":" ","MAREA":" ","LANE":"６８１巷","ALLEY":" ","HOUSE_NO":"１號","E_COORD97":169429.84,"N_COORD97":2546327.2200000002,"ADDRESS":"公園路６８１巷１號","OBJECTID":350932},"geometry":{"x":169429.84000000078,"y":2546327.2200000025}},{"attributes":{"ID":350942,"DIS_CODE":0,"TOWNNAME":"北區","LI":"正覺里","LIN":"18鄰","STREET":"公園路","SECT":" ","MAREA":" ","LANE":"６８１巷","ALLEY":" ","HOUSE_NO":"２０號","E_COORD97":169410.67000000001,"N_COORD97":2546360.9100000001,"ADDRESS":"公園路６８１巷２０號","OBJECTID":350933},"geometry":{"x":169410.67000000179,"y":2546360.9100000039}},{"attributes":{"ID":350943,"DIS_CODE":0,"TOWNNAME":"北區","LI":"國姓里","LIN":"6鄰","STREET":"西門路","SECT":"四段","MAREA":" ","LANE":"１２６巷","ALLEY":" ","HOUSE_NO":"１７號三樓之６","E_COORD97":168840.01999999999,"N_COORD97":2545441.6099999999,"ADDRESS":"西門路四段１２６巷１７號三樓之６","OBJECTID":350934},"geometry":{"x":168840.02000000142,"y":2545441.6100000013}},{"attributes":{"ID":350944,"DIS_CODE":0,"TOWNNAME":"北區","LI":"國姓里","LIN":"6鄰","STREET":"西門路","SECT":"四段","MAREA":" ","LANE":"１２６巷","ALLEY":" ","HOUSE_NO":"１７號五樓之１","E_COORD97":168840.01999999999,"N_COORD97":2545441.6099999999,"ADDRESS":"西門路四段１２６巷１７號五樓之１","OBJECTID":350935},"geometry":{"x":168840.02000000142,"y":2545441.6100000013}},{"attributes":{"ID":350945,"DIS_CODE":0,"TOWNNAME":"北區","LI":"國姓里","LIN":"6鄰","STREET":"西門路","SECT":"四段","MAREA":" ","LANE":"１２６巷","ALLEY":" ","HOUSE_NO":"１７號五樓之２","E_COORD97":168840.01999999999,"N_COORD97":2545441.6099999999,"ADDRESS":"西門路四段１２６巷１７號五樓之２","OBJECTID":350936},"geometry":{"x":168840.02000000142,"y":2545441.6100000013}},{"attributes":{"ID":350946,"DIS_CODE":0,"TOWNNAME":"北區","LI":"國姓里","LIN":"6鄰","STREET":"西門路","SECT":"四段","MAREA":" ","LANE":"１２６巷","ALLEY":" ","HOUSE_NO":"１７號五樓之３","E_COORD97":168840.01999999999,"N_COORD97":2545441.6099999999,"ADDRESS":"西門路四段１２６巷１７號五樓之３","OBJECTID":350937},"geometry":{"x":168840.02000000142,"y":2545441.6100000013}},{"attributes":{"ID":350947,"DIS_CODE":0,"TOWNNAME":"北區","LI":"國姓里","LIN":"6鄰","STREET":"西門路","SECT":"四段","MAREA":" ","LANE":"１２６巷","ALLEY":" ","HOUSE_NO":"１７號五樓之４","E_COORD97":168840.01999999999,"N_COORD97":2545441.6099999999,"ADDRESS":"西門路四段１２６巷１７號五樓之４","OBJECTID":350938},"geometry":{"x":168840.02000000142,"y":2545441.6100000013}},{"attributes":{"ID":350948,"DIS_CODE":0,"TOWNNAME":"北區","LI":"國姓里","LIN":"6鄰","STREET":"西門路","SECT":"四段","MAREA":" ","LANE":"１２６巷","ALLEY":" ","HOUSE_NO":"１７號五樓之５","E_COORD97":168840.01999999999,"N_COORD97":2545441.6099999999,"ADDRESS":"西門路四段１２６巷１７號五樓之５","OBJECTID":350939},"geometry":{"x":168840.02000000142,"y":2545441.6100000013}},{"attributes":{"ID":350949,"DIS_CODE":0,"TOWNNAME":"北區","LI":"國姓里","LIN":"6鄰","STREET":"西門路","SECT":"四段","MAREA":" ","LANE":"１２６巷","ALLEY":" ","HOUSE_NO":"１７號五樓之６","E_COORD97":168840.01999999999,"N_COORD97":2545441.6099999999,"ADDRESS":"西門路四段１２６巷１７號五樓之６","OBJECTID":350940},"geometry":{"x":168840.02000000142,"y":2545441.6100000013}},{"attributes":{"ID":350950,"DIS_CODE":0,"TOWNNAME":"北區","LI":"國姓里","LIN":"6鄰","STREET":"西門路","SECT":"四段","MAREA":" ","LANE":"１２６巷","ALLEY":" ","HOUSE_NO":"１７號六樓之１","E_COORD97":168840.01999999999,"N_COORD97":2545441.6099999999,"ADDRESS":"西門路四段１２６巷１７號六樓之１","OBJECTID":350941},"geometry":{"x":168840.02000000142,"y":2545441.6100000013}},{"attributes":{"ID":350951,"DIS_CODE":0,"TOWNNAME":"北區","LI":"國姓里","LIN":"6鄰","STREET":"西門路","SECT":"四段","MAREA":" ","LANE":"１２６巷","ALLEY":" ","HOUSE_NO":"１７號六樓之２","E_COORD97":168840.01999999999,"N_COORD97":2545441.6099999999,"ADDRESS":"西門路四段１２６巷１７號六樓之２","OBJECTID":350942},"geometry":{"x":168840.02000000142,"y":2545441.6100000013}},{"attributes":{"ID":350952,"DIS_CODE":0,"TOWNNAME":"北區","LI":"國姓里","LIN":"6鄰","STREET":"西門路","SECT":"四段","MAREA":" ","LANE":"１２６巷","ALLEY":" ","HOUSE_NO":"１７號六樓之３","E_COORD97":168840.01999999999,"N_COORD97":2545441.6099999999,"ADDRESS":"西門路四段１２６巷１７號六樓之３","OBJECTID":350943},"geometry":{"x":168840.02000000142,"y":2545441.6100000013}},{"attributes":{"ID":350953,"DIS_CODE":0,"TOWNNAME":"北區","LI":"國姓里","LIN":"6鄰","STREET":"西門路","SECT":"四段","MAREA":" ","LANE":"１２６巷","ALLEY":" ","HOUSE_NO":"１７號六樓之４","E_COORD97":168840.01999999999,"N_COORD97":2545441.6099999999,"ADDRESS":"西門路四段１２６巷１７號六樓之４","OBJECTID":350944},"geometry":{"x":168840.02000000142,"y":2545441.6100000013}},{"attributes":{"ID":350954,"DIS_CODE":0,"TOWNNAME":"北區","LI":"國姓里","LIN":"6鄰","STREET":"西門路","SECT":"四段","MAREA":" ","LANE":"１２６巷","ALLEY":" ","HOUSE_NO":"１７號四樓之１","E_COORD97":168840.01999999999,"N_COORD97":2545441.6099999999,"ADDRESS":"西門路四段１２６巷１７號四樓之１","OBJECTID":350945},"geometry":{"x":168840.02000000142,"y":2545441.6100000013}},{"attributes":{"ID":350955,"DIS_CODE":0,"TOWNNAME":"北區","LI":"國姓里","LIN":"6鄰","STREET":"西門路","SECT":"四段","MAREA":" ","LANE":"１２６巷","ALLEY":" ","HOUSE_NO":"１７號四樓之２","E_COORD97":168840.01999999999,"N_COORD97":2545441.6099999999,"ADDRESS":"西門路四段１２６巷１７號四樓之２","OBJECTID":350946},"geometry":{"x":168840.02000000142,"y":2545441.6100000013}},{"attributes":{"ID":350956,"DIS_CODE":0,"TOWNNAME":"北區","LI":"國姓里","LIN":"6鄰","STREET":"西門路","SECT":"四段","MAREA":" ","LANE":"１２６巷","ALLEY":" ","HOUSE_NO":"１７號四樓之３","E_COORD97":168840.01999999999,"N_COORD97":2545441.6099999999,"ADDRESS":"西門路四段１２６巷１７號四樓之３","OBJECTID":350947},"geometry":{"x":168840.02000000142,"y":2545441.6100000013}},{"attributes":{"ID":350957,"DIS_CODE":0,"TOWNNAME":"北區","LI":"國姓里","LIN":"6鄰","STREET":"西門路","SECT":"四段","MAREA":" ","LANE":"１２６巷","ALLEY":" ","HOUSE_NO":"１７號四樓之４","E_COORD97":168840.01999999999,"N_COORD97":2545441.6099999999,"ADDRESS":"西門路四段１２６巷１７號四樓之４","OBJECTID":350948},"geometry":{"x":168840.02000000142,"y":2545441.6100000013}},{"attributes":{"ID":350958,"DIS_CODE":0,"TOWNNAME":"北區","LI":"國姓里","LIN":"6鄰","STREET":"西門路","SECT":"四段","MAREA":" ","LANE":"１２６巷","ALLEY":" ","HOUSE_NO":"１７號四樓之５","E_COORD97":168840.01999999999,"N_COORD97":2545441.6099999999,"ADDRESS":"西門路四段１２６巷１７號四樓之５","OBJECTID":350949},"geometry":{"x":168840.02000000142,"y":2545441.6100000013}},{"attributes":{"ID":350959,"DIS_CODE":0,"TOWNNAME":"北區","LI":"國姓里","LIN":"6鄰","STREET":"西門路","SECT":"四段","MAREA":" ","LANE":"１２６巷","ALLEY":" ","HOUSE_NO":"１７號四樓之６","E_COORD97":168840.01999999999,"N_COORD97":2545441.6099999999,"ADDRESS":"西門路四段１２６巷１７號四樓之６","OBJECTID":350950},"geometry":{"x":168840.02000000142,"y":2545441.6100000013}},{"attributes":{"ID":350960,"DIS_CODE":0,"TOWNNAME":"南區","LI":"大成里","LIN":"6鄰","STREET":"健康路","SECT":"一段","MAREA":" ","LANE":"３９１巷","ALLEY":" ","HOUSE_NO":"１５號二樓","E_COORD97":167954.48000000001,"N_COORD97":2542393.9199999999,"ADDRESS":"健康路一段３９１巷１５號二樓","OBJECTID":350951},"geometry":{"x":167954.48000000231,"y":2542393.9200000037}},{"attributes":{"ID":350961,"DIS_CODE":0,"TOWNNAME":"北區","LI":"東興里","LIN":"8鄰","STREET":"小東路","SECT":" ","MAREA":" ","LANE":" ","ALLEY":" ","HOUSE_NO":"３６５號","E_COORD97":171231.70000000001,"N_COORD97":2544379.1600000001,"ADDRESS":"小東路３６５號","OBJECTID":350952},"geometry":{"x":171231.70000000112,"y":2544379.1599999983}},{"attributes":{"ID":350962,"DIS_CODE":0,"TOWNNAME":"北區","LI":"東興里","LIN":"8鄰","STREET":"小東路","SECT":" ","MAREA":" ","LANE":" ","ALLEY":" ","HOUSE_NO":"３６７號","E_COORD97":171235.92999999999,"N_COORD97":2544379.1099999999,"ADDRESS":"小東路３６７號","OBJECTID":350953},"geometry":{"x":171235.93000000156,"y":2544379.1100000031}},{"attributes":{"ID":350963,"DIS_CODE":0,"TOWNNAME":"北區","LI":"東興里","LIN":"8鄰","STREET":"小東路","SECT":" ","MAREA":" ","LANE":" ","ALLEY":" ","HOUSE_NO":"３６９號","E_COORD97":171239.14000000001,"N_COORD97":2544378.3300000001,"ADDRESS":"小東路３６９號","OBJECTID":350954},"geometry":{"x":171239.13999999966,"y":2544378.3300000038}},{"attributes":{"ID":350964,"DIS_CODE":0,"TOWNNAME":"北區","LI":"東興里","LIN":"8鄰","STREET":"小東路","SECT":" ","MAREA":" ","LANE":" ","ALLEY":" ","HOUSE_NO":"３７３號","E_COORD97":171255.48000000001,"N_COORD97":2544379.9900000002,"ADDRESS":"小東路３７３號","OBJECTID":350955},"geometry":{"x":171255.48000000138,"y":2544379.9900000002}},{"attributes":{"ID":350965,"DIS_CODE":0,"TOWNNAME":"六甲區","LI":"二甲里","LIN":"18鄰","STREET":"和平街","SECT":" ","MAREA":" ","LANE":"２８１巷","ALLEY":" ","HOUSE_NO":"１０１號","E_COORD97":182288,"N_COORD97":2569699.9500000002,"ADDRESS":"和平街２８１巷１０１號","OBJECTID":350956},"geometry":{"x":182288,"y":2569699.9500000011}},{"attributes":{"ID":350966,"DIS_CODE":0,"TOWNNAME":"南區","LI":"大成里","LIN":"6鄰","STREET":"健康路","SECT":"一段","MAREA":" ","LANE":"３９１巷","ALLEY":" ","HOUSE_NO":"１５號三樓","E_COORD97":167954.48000000001,"N_COORD97":2542393.9199999999,"ADDRESS":"健康路一段３９１巷１５號三樓","OBJECTID":350957},"geometry":{"x":167954.48000000231,"y":2542393.9200000037}},{"attributes":{"ID":350967,"DIS_CODE":0,"TOWNNAME":"南區","LI":"大成里","LIN":"6鄰","STREET":"健康路","SECT":"一段","MAREA":" ","LANE":"３９１巷","ALLEY":" ","HOUSE_NO":"１５號五樓","E_COORD97":167954.48000000001,"N_COORD97":2542393.9199999999,"ADDRESS":"健康路一段３９１巷１５號五樓","OBJECTID":350958},"geometry":{"x":167954.48000000231,"y":2542393.9200000037}},{"attributes":{"ID":350968,"DIS_CODE":0,"TOWNNAME":"南區","LI":"大成里","LIN":"6鄰","STREET":"健康路","SECT":"一段","MAREA":" ","LANE":"３９１巷","ALLEY":" ","HOUSE_NO":"１５號四樓","E_COORD97":167954.48000000001,"N_COORD97":2542393.9199999999,"ADDRESS":"健康路一段３９１巷１５號四樓","OBJECTID":350959},"geometry":{"x":167954.48000000231,"y":2542393.9200000037}},{"attributes":{"ID":350969,"DIS_CODE":0,"TOWNNAME":"歸仁區","LI":"南保里","LIN":"6鄰","STREET":"文化街","SECT":"三段","MAREA":" ","LANE":"１８巷","ALLEY":" ","HOUSE_NO":"２號三樓之４","E_COORD97":176961.20999999999,"N_COORD97":2541277.2599999998,"ADDRESS":"文化街三段１８巷２號三樓之４","OBJECTID":350960},"geometry":{"x":176961.21000000089,"y":2541277.2600000016}},{"attributes":{"ID":350970,"DIS_CODE":0,"TOWNNAME":"歸仁區","LI":"南保里","LIN":"6鄰","STREET":"文化街","SECT":"三段","MAREA":" ","LANE":"１８巷","ALLEY":" ","HOUSE_NO":"２號七樓之７","E_COORD97":176974.89999999999,"N_COORD97":2541278.3300000001,"ADDRESS":"文化街三段１８巷２號七樓之７","OBJECTID":350961},"geometry":{"x":176974.90000000037,"y":2541278.3300000001}},{"attributes":{"ID":350971,"DIS_CODE":0,"TOWNNAME":"中西區","LI":"元安里","LIN":"6鄰","STREET":"建安街","SECT":" ","MAREA":" ","LANE":"６１巷","ALLEY":" ","HOUSE_NO":"１５號","E_COORD97":167494.85000000001,"N_COORD97":2543198.0600000001,"ADDRESS":"建安街６１巷１５號","OBJECTID":350962},"geometry":{"x":167494.84999999963,"y":2543198.0600000024}},{"attributes":{"ID":350972,"DIS_CODE":0,"TOWNNAME":"中西區","LI":"元安里","LIN":"6鄰","STREET":"建安街","SECT":" ","MAREA":" ","LANE":"６１巷","ALLEY":" ","HOUSE_NO":"１７號","E_COORD97":167494.85000000001,"N_COORD97":2543194.25,"ADDRESS":"建安街６１巷１７號","OBJECTID":350963},"geometry":{"x":167494.84999999963,"y":2543194.25}},{"attributes":{"ID":350973,"DIS_CODE":0,"TOWNNAME":"中西區","LI":"元安里","LIN":"6鄰","STREET":"建安街","SECT":" ","MAREA":" ","LANE":"６１巷","ALLEY":" ","HOUSE_NO":"１９號","E_COORD97":167494.14999999999,"N_COORD97":2543186.2799999998,"ADDRESS":"建安街６１巷１９號","OBJECTID":350964},"geometry":{"x":167494.1500000013,"y":2543186.2799999993}},{"attributes":{"ID":350974,"DIS_CODE":0,"TOWNNAME":"中西區","LI":"元安里","LIN":"6鄰","STREET":"建安街","SECT":" ","MAREA":" ","LANE":"６１巷","ALLEY":" ","HOUSE_NO":"１號","E_COORD97":167497.39999999999,"N_COORD97":2543228.7200000002,"ADDRESS":"建安街６１巷１號","OBJECTID":350965},"geometry":{"x":167497.40000000224,"y":2543228.7200000007}},{"attributes":{"ID":350975,"DIS_CODE":0,"TOWNNAME":"中西區","LI":"元安里","LIN":"6鄰","STREET":"建安街","SECT":" ","MAREA":" ","LANE":"６１巷","ALLEY":" ","HOUSE_NO":"２１號","E_COORD97":167494.98999999999,"N_COORD97":2543181.5899999999,"ADDRESS":"建安街６１巷２１號","OBJECTID":350966},"geometry":{"x":167494.99000000115,"y":2543181.5899999999}},{"attributes":{"ID":350976,"DIS_CODE":0,"TOWNNAME":"中西區","LI":"元安里","LIN":"6鄰","STREET":"建安街","SECT":" ","MAREA":" ","LANE":"６１巷","ALLEY":" ","HOUSE_NO":"２３號","E_COORD97":167494.82000000001,"N_COORD97":2543176.7400000002,"ADDRESS":"建安街６１巷２３號","OBJECTID":350967},"geometry":{"x":167494.82000000123,"y":2543176.7400000021}},{"attributes":{"ID":350977,"DIS_CODE":0,"TOWNNAME":"中西區","LI":"元安里","LIN":"6鄰","STREET":"建安街","SECT":" ","MAREA":" ","LANE":"６１巷","ALLEY":" ","HOUSE_NO":"２５號","E_COORD97":167494.14999999999,"N_COORD97":2543172.7200000002,"ADDRESS":"建安街６１巷２５號","OBJECTID":350968},"geometry":{"x":167494.1500000013,"y":2543172.7200000044}},{"attributes":{"ID":350978,"DIS_CODE":0,"TOWNNAME":"中西區","LI":"元安里","LIN":"6鄰","STREET":"建安街","SECT":" ","MAREA":" ","LANE":"６１巷","ALLEY":" ","HOUSE_NO":"２７號","E_COORD97":167494.64999999999,"N_COORD97":2543167.7000000002,"ADDRESS":"建安街６１巷２７號","OBJECTID":350969},"geometry":{"x":167494.6500000013,"y":2543167.700000003}},{"attributes":{"ID":350979,"DIS_CODE":0,"TOWNNAME":"中西區","LI":"元安里","LIN":"6鄰","STREET":"建安街","SECT":" ","MAREA":" ","LANE":"６１巷","ALLEY":" ","HOUSE_NO":"２９號","E_COORD97":167494.64999999999,"N_COORD97":2543164.52,"ADDRESS":"建安街６１巷２９號","OBJECTID":350970},"geometry":{"x":167494.6500000013,"y":2543164.5199999996}},{"attributes":{"ID":350980,"DIS_CODE":0,"TOWNNAME":"歸仁區","LI":"南保里","LIN":"6鄰","STREET":"文化街","SECT":"三段","MAREA":" ","LANE":"１８巷","ALLEY":" ","HOUSE_NO":"２號四樓之７","E_COORD97":176974.89999999999,"N_COORD97":2541278.3300000001,"ADDRESS":"文化街三段１８巷２號四樓之７","OBJECTID":350971},"geometry":{"x":176974.90000000037,"y":2541278.3300000001}},{"attributes":{"ID":350981,"DIS_CODE":0,"TOWNNAME":"歸仁區","LI":"南保里","LIN":"6鄰","STREET":"文化街","SECT":"三段","MAREA":" ","LANE":"１８巷","ALLEY":" ","HOUSE_NO":"２號二樓之４","E_COORD97":176974.85000000001,"N_COORD97":2541278.3300000001,"ADDRESS":"文化街三段１８巷２號二樓之４","OBJECTID":350972},"geometry":{"x":176974.85000000056,"y":2541278.3300000001}},{"attributes":{"ID":350982,"DIS_CODE":0,"TOWNNAME":"歸仁區","LI":"南保里","LIN":"6鄰","STREET":"文化街","SECT":"三段","MAREA":" ","LANE":"１８巷","ALLEY":" ","HOUSE_NO":"２號八樓之１","E_COORD97":176974.82999999999,"N_COORD97":2541278.3300000001,"ADDRESS":"文化街三段１８巷２號八樓之１","OBJECTID":350973},"geometry":{"x":176974.83000000007,"y":2541278.3300000001}},{"attributes":{"ID":350983,"DIS_CODE":0,"TOWNNAME":"歸仁區","LI":"南保里","LIN":"6鄰","STREET":"文化街","SECT":"三段","MAREA":" ","LANE":"１８巷","ALLEY":" ","HOUSE_NO":"２號二樓之７","E_COORD97":176974.89999999999,"N_COORD97":2541278.3300000001,"ADDRESS":"文化街三段１８巷２號二樓之７","OBJECTID":350974},"geometry":{"x":176974.90000000037,"y":2541278.3300000001}},{"attributes":{"ID":350984,"DIS_CODE":0,"TOWNNAME":"歸仁區","LI":"南保里","LIN":"6鄰","STREET":"文化街","SECT":"三段","MAREA":" ","LANE":"１８巷","ALLEY":" ","HOUSE_NO":"２號八樓之５","E_COORD97":176974.98000000001,"N_COORD97":2541278.3300000001,"ADDRESS":"文化街三段１８巷２號八樓之５","OBJECTID":350975},"geometry":{"x":176974.98000000138,"y":2541278.3300000001}},{"attributes":{"ID":350985,"DIS_CODE":0,"TOWNNAME":"歸仁區","LI":"南保里","LIN":"6鄰","STREET":"文化街","SECT":"三段","MAREA":" ","LANE":"１８巷","ALLEY":" ","HOUSE_NO":"２號七樓之４","E_COORD97":176974.85000000001,"N_COORD97":2541278.3300000001,"ADDRESS":"文化街三段１８巷２號七樓之４","OBJECTID":350976},"geometry":{"x":176974.85000000056,"y":2541278.3300000001}},{"attributes":{"ID":350986,"DIS_CODE":0,"TOWNNAME":"北區","LI":"五福里","LIN":"8鄰","STREET":"自強街","SECT":" ","MAREA":" ","LANE":" ","ALLEY":" ","HOUSE_NO":"４６號","E_COORD97":168267.29999999999,"N_COORD97":2544545.4700000002,"ADDRESS":"自強街４６號","OBJECTID":350977},"geometry":{"x":168267.30000000075,"y":2544545.4700000025}},{"attributes":{"ID":350987,"DIS_CODE":0,"TOWNNAME":"六甲區","LI":"中社里","LIN":"18鄰","STREET":" ","SECT":" ","MAREA":"林鳳營","LANE":" ","ALLEY":" ","HOUSE_NO":"１４９號","E_COORD97":180441.73999999999,"N_COORD97":2571287.4300000002,"ADDRESS":"林鳳營１４９號","OBJECTID":350978},"geometry":{"x":180441.74000000115,"y":2571287.4300000016}},{"attributes":{"ID":350988,"DIS_CODE":0,"TOWNNAME":"六甲區","LI":"二甲里","LIN":"18鄰","STREET":"和平街","SECT":" ","MAREA":" ","LANE":"３３３巷","ALLEY":" ","HOUSE_NO":"４號","E_COORD97":182734.84,"N_COORD97":2569790.9500000002,"ADDRESS":"和平街３３３巷４號","OBJECTID":350979},"geometry":{"x":182734.83999999985,"y":2569790.950000003}},{"attributes":{"ID":350989,"DIS_CODE":0,"TOWNNAME":"六甲區","LI":"二甲里","LIN":"18鄰","STREET":"和平街","SECT":" ","MAREA":" ","LANE":"３３３巷","ALLEY":" ","HOUSE_NO":"６號","E_COORD97":182735.97,"N_COORD97":2569795.9300000002,"ADDRESS":"和平街３３３巷６號","OBJECTID":350980},"geometry":{"x":182735.9700000016,"y":2569795.9300000016}},{"attributes":{"ID":350990,"DIS_CODE":0,"TOWNNAME":"六甲區","LI":"二甲里","LIN":"18鄰","STREET":"和平街","SECT":" ","MAREA":" ","LANE":"３３３巷","ALLEY":" ","HOUSE_NO":"７號","E_COORD97":182736.63,"N_COORD97":2569801.7799999998,"ADDRESS":"和平街３３３巷７號","OBJECTID":350981},"geometry":{"x":182736.63000000175,"y":2569801.7799999993}},{"attributes":{"ID":350991,"DIS_CODE":0,"TOWNNAME":"六甲區","LI":"二甲里","LIN":"18鄰","STREET":"和平街","SECT":" ","MAREA":" ","LANE":"３３３巷","ALLEY":" ","HOUSE_NO":"８號","E_COORD97":182737.60000000001,"N_COORD97":2569805.1200000001,"ADDRESS":"和平街３３３巷８號","OBJECTID":350982},"geometry":{"x":182737.59999999963,"y":2569805.1200000048}},{"attributes":{"ID":350992,"DIS_CODE":0,"TOWNNAME":"六甲區","LI":"二甲里","LIN":"18鄰","STREET":"和平街","SECT":" ","MAREA":" ","LANE":"３４７巷","ALLEY":" ","HOUSE_NO":"１００號","E_COORD97":182506.94,"N_COORD97":2569826.9199999999,"ADDRESS":"和平街３４７巷１００號","OBJECTID":350983},"geometry":{"x":182506.94000000134,"y":2569826.9200000018}},{"attributes":{"ID":350993,"DIS_CODE":0,"TOWNNAME":"六甲區","LI":"二甲里","LIN":"18鄰","STREET":"和平街","SECT":" ","MAREA":" ","LANE":"３４７巷","ALLEY":" ","HOUSE_NO":"１５１號","E_COORD97":182378.70000000001,"N_COORD97":2569815.7200000002,"ADDRESS":"和平街３４７巷１５１號","OBJECTID":350984},"geometry":{"x":182378.70000000019,"y":2569815.7200000025}},{"attributes":{"ID":350994,"DIS_CODE":0,"TOWNNAME":"六甲區","LI":"二甲里","LIN":"18鄰","STREET":"和平街","SECT":" ","MAREA":" ","LANE":"３４７巷","ALLEY":" ","HOUSE_NO":"１７０號","E_COORD97":182305.82000000001,"N_COORD97":2569943.1699999999,"ADDRESS":"和平街３４７巷１７０號","OBJECTID":350985},"geometry":{"x":182305.82000000123,"y":2569943.1700000018}},{"attributes":{"ID":350995,"DIS_CODE":0,"TOWNNAME":"六甲區","LI":"二甲里","LIN":"18鄰","STREET":"和平街","SECT":" ","MAREA":" ","LANE":"３４７巷","ALLEY":" ","HOUSE_NO":"２００號","E_COORD97":182192.35000000001,"N_COORD97":2569970.8799999999,"ADDRESS":"和平街３４７巷２００號","OBJECTID":350986},"geometry":{"x":182192.3499999987,"y":2569970.8800000008}},{"attributes":{"ID":350996,"DIS_CODE":0,"TOWNNAME":"六甲區","LI":"二甲里","LIN":"18鄰","STREET":"和平街","SECT":" ","MAREA":" ","LANE":"３４７巷","ALLEY":" ","HOUSE_NO":"２０１號","E_COORD97":182186.39999999999,"N_COORD97":2569943.6699999999,"ADDRESS":"和平街３４７巷２０１號","OBJECTID":350987},"geometry":{"x":182186.4000000013,"y":2569943.6700000018}},{"attributes":{"ID":350997,"DIS_CODE":0,"TOWNNAME":"六甲區","LI":"二甲里","LIN":"18鄰","STREET":"和平街","SECT":" ","MAREA":" ","LANE":"３４７巷","ALLEY":" ","HOUSE_NO":"２０號","E_COORD97":182744.89000000001,"N_COORD97":2569848.5499999998,"ADDRESS":"和平街３４７巷２０號","OBJECTID":350988},"geometry":{"x":182744.89000000153,"y":2569848.5500000007}},{"attributes":{"ID":350998,"DIS_CODE":0,"TOWNNAME":"六甲區","LI":"二甲里","LIN":"18鄰","STREET":"和平街","SECT":" ","MAREA":" ","LANE":"３４７巷","ALLEY":" ","HOUSE_NO":"３０１號","E_COORD97":181844.04000000001,"N_COORD97":2570038.1899999999,"ADDRESS":"和平街３４７巷３０１號","OBJECTID":350989},"geometry":{"x":181844.0400000019,"y":2570038.1900000013}},{"attributes":{"ID":350999,"DIS_CODE":0,"TOWNNAME":"六甲區","LI":"二甲里","LIN":"18鄰","STREET":"和平街","SECT":" ","MAREA":" ","LANE":"３４７巷","ALLEY":" ","HOUSE_NO":"３１２號","E_COORD97":181811.76000000001,"N_COORD97":2570093.8999999999,"ADDRESS":"和平街３４７巷３１２號","OBJECTID":350990},"geometry":{"x":181811.76000000164,"y":2570093.9000000041}},{"attributes":{"ID":351000,"DIS_CODE":0,"TOWNNAME":"六甲區","LI":"二甲里","LIN":"18鄰","STREET":"和平街","SECT":" ","MAREA":" ","LANE":"３４７巷","ALLEY":" ","HOUSE_NO":"４１號","E_COORD97":182688.63,"N_COORD97":2569817.9199999999,"ADDRESS":"和平街３４７巷４１號","OBJECTID":350991},"geometry":{"x":182688.62999999989,"y":2569817.9199999999}},{"attributes":{"ID":351001,"DIS_CODE":0,"TOWNNAME":"歸仁區","LI":"南保里","LIN":"6鄰","STREET":"文化街","SECT":"三段","MAREA":" ","LANE":"１８巷","ALLEY":" ","HOUSE_NO":"２號八樓之３","E_COORD97":176974.92000000001,"N_COORD97":2541278.3300000001,"ADDRESS":"文化街三段１８巷２號八樓之３","OBJECTID":350992},"geometry":{"x":176974.92000000086,"y":2541278.3300000001}},{"attributes":{"ID":351002,"DIS_CODE":0,"TOWNNAME":"歸仁區","LI":"南保里","LIN":"6鄰","STREET":"文化街","SECT":"三段","MAREA":" ","LANE":"１８巷","ALLEY":" ","HOUSE_NO":"２號四樓之５","E_COORD97":176974.98000000001,"N_COORD97":2541278.3300000001,"ADDRESS":"文化街三段１８巷２號四樓之５","OBJECTID":350993},"geometry":{"x":176974.98000000138,"y":2541278.3300000001}},{"attributes":{"ID":351003,"DIS_CODE":0,"TOWNNAME":"歸仁區","LI":"南保里","LIN":"6鄰","STREET":"文化街","SECT":"三段","MAREA":" ","LANE":"１８巷","ALLEY":" ","HOUSE_NO":"２號八樓之４","E_COORD97":176974.85000000001,"N_COORD97":2541278.3300000001,"ADDRESS":"文化街三段１８巷２號八樓之４","OBJECTID":350994},"geometry":{"x":176974.85000000056,"y":2541278.3300000001}},{"attributes":{"ID":351004,"DIS_CODE":0,"TOWNNAME":"北區","LI":"玉皇里","LIN":"8鄰","STREET":"公園路","SECT":" ","MAREA":" ","LANE":" ","ALLEY":" ","HOUSE_NO":"２２３號","E_COORD97":168807.51000000001,"N_COORD97":2544506.8300000001,"ADDRESS":"公園路２２３號","OBJECTID":350995},"geometry":{"x":168807.50999999978,"y":2544506.8300000038}},{"attributes":{"ID":351005,"DIS_CODE":0,"TOWNNAME":"北區","LI":"玉皇里","LIN":"8鄰","STREET":"公園路","SECT":" ","MAREA":" ","LANE":" ","ALLEY":" ","HOUSE_NO":"２２５號","E_COORD97":168817.67000000001,"N_COORD97":2544523,"ADDRESS":"公園路２２５號","OBJECTID":350996},"geometry":{"x":168817.67000000086,"y":2544523.0000000019}},{"attributes":{"ID":351006,"DIS_CODE":0,"TOWNNAME":"北區","LI":"玉皇里","LIN":"8鄰","STREET":"公園路","SECT":" ","MAREA":" ","LANE":" ","ALLEY":" ","HOUSE_NO":"２２７號","E_COORD97":168819.35999999999,"N_COORD97":2544526.23,"ADDRESS":"公園路２２７號","OBJECTID":350997},"geometry":{"x":168819.36000000034,"y":2544526.2300000023}},{"attributes":{"ID":351007,"DIS_CODE":0,"TOWNNAME":"北區","LI":"玉皇里","LIN":"8鄰","STREET":"公園路","SECT":" ","MAREA":" ","LANE":" ","ALLEY":" ","HOUSE_NO":"２２９號","E_COORD97":168823.54000000001,"N_COORD97":2544528.1899999999,"ADDRESS":"公園路２２９號","OBJECTID":350998},"geometry":{"x":168823.54000000097,"y":2544528.1900000013}},{"attributes":{"ID":351008,"DIS_CODE":0,"TOWNNAME":"北區","LI":"玉皇里","LIN":"8鄰","STREET":"公園路","SECT":" ","MAREA":" ","LANE":" ","ALLEY":" ","HOUSE_NO":"２３３號","E_COORD97":168829.85000000001,"N_COORD97":2544539.2200000002,"ADDRESS":"公園路２３３號","OBJECTID":350999},"geometry":{"x":168829.85000000056,"y":2544539.2200000025}},{"attributes":{"ID":351009,"DIS_CODE":0,"TOWNNAME":"北區","LI":"玉皇里","LIN":"8鄰","STREET":"公園路","SECT":" ","MAREA":" ","LANE":" ","ALLEY":" ","HOUSE_NO":"２３５號","E_COORD97":168831.62,"N_COORD97":2544542.48,"ADDRESS":"公園路２３５號","OBJECTID":351000},"geometry":{"x":168831.62000000104,"y":2544542.4800000004}}]}