{"displayFieldName":"TOWNNAME","fieldAliases":{"ID":"ID","DIS_CODE":"DIS_CODE","TOWNNAME":"TOWNNAME","LI":"LI","LIN":"LIN","STREET":"STREET","SECT":"SECT","MAREA":"MAREA","LANE":"LANE","ALLEY":"ALLEY","HOUSE_NO":"HOUSE_NO","E_COORD97":"E_COORD97","N_COORD97":"N_COORD97","ADDRESS":"ADDRESS","OBJECTID":"OBJECTID"},"geometryType":"esriGeometryPoint","spatialReference":{"wkid":102443,"latestWkid":3826},"fields":[{"name":"ID","type":"esriFieldTypeDouble","alias":"ID"},{"name":"DIS_CODE","type":"esriFieldTypeInteger","alias":"DIS_CODE"},{"name":"TOWNNAME","type":"esriFieldTypeString","alias":"TOWNNAME","length":8},{"name":"LI","type":"esriFieldTypeString","alias":"LI","length":8},{"name":"LIN","type":"esriFieldTypeString","alias":"LIN","length":12},{"name":"STREET","type":"esriFieldTypeString","alias":"STREET","length":20},{"name":"SECT","type":"esriFieldTypeString","alias":"SECT","length":8},{"name":"MAREA","type":"esriFieldTypeString","alias":"MAREA","length":12},{"name":"LANE","type":"esriFieldTypeString","alias":"LANE","length":10},{"name":"ALLEY","type":"esriFieldTypeString","alias":"ALLEY","length":10},{"name":"HOUSE_NO","type":"esriFieldTypeString","alias":"HOUSE_NO","length":20},{"name":"E_COORD97","type":"esriFieldTypeDouble","alias":"E_COORD97"},{"name":"N_COORD97","type":"esriFieldTypeDouble","alias":"N_COORD97"},{"name":"ADDRESS","type":"esriFieldTypeString","alias":"ADDRESS","length":50},{"name":"OBJECTID","type":"esriFieldTypeOID","alias":"OBJECTID"}],"features":[{"attributes":{"ID":434626,"DIS_CODE":0,"TOWNNAME":"北區","LI":"國興里","LIN":"4鄰","STREET":"南園街","SECT":" ","MAREA":" ","LANE":"４９巷","ALLEY":" ","HOUSE_NO":"７０號","E_COORD97":170556.53,"N_COORD97":2545520.3100000001,"ADDRESS":"南園街４９巷７０號","OBJECTID":434601},"geometry":{"x":170556.53000000119,"y":2545520.3100000005}},{"attributes":{"ID":434627,"DIS_CODE":0,"TOWNNAME":"北區","LI":"國興里","LIN":"6鄰","STREET":"南園街","SECT":" ","MAREA":" ","LANE":"７５巷","ALLEY":" ","HOUSE_NO":"１０號","E_COORD97":170584.66,"N_COORD97":2545439.2200000002,"ADDRESS":"南園街７５巷１０號","OBJECTID":434602},"geometry":{"x":170584.66000000108,"y":2545439.2200000007}},{"attributes":{"ID":434628,"DIS_CODE":0,"TOWNNAME":"北區","LI":"國興里","LIN":"6鄰","STREET":"南園街","SECT":" ","MAREA":" ","LANE":"７５巷","ALLEY":" ","HOUSE_NO":"１２號","E_COORD97":170587.31,"N_COORD97":2545442.8900000001,"ADDRESS":"南園街７５巷１２號","OBJECTID":434603},"geometry":{"x":170587.30999999866,"y":2545442.8900000043}},{"attributes":{"ID":434629,"DIS_CODE":0,"TOWNNAME":"北區","LI":"國興里","LIN":"6鄰","STREET":"南園街","SECT":" ","MAREA":" ","LANE":"７５巷","ALLEY":" ","HOUSE_NO":"１４號","E_COORD97":170590.57999999999,"N_COORD97":2545446.7599999998,"ADDRESS":"南園街７５巷１４號","OBJECTID":434604},"geometry":{"x":170590.58000000007,"y":2545446.7600000016}},{"attributes":{"ID":434630,"DIS_CODE":0,"TOWNNAME":"北區","LI":"國興里","LIN":"6鄰","STREET":"南園街","SECT":" ","MAREA":" ","LANE":"７５巷","ALLEY":" ","HOUSE_NO":"１４號之１","E_COORD97":170596.48999999999,"N_COORD97":2545438.2000000002,"ADDRESS":"南園街７５巷１４號之１","OBJECTID":434605},"geometry":{"x":170596.49000000022,"y":2545438.1999999993}},{"attributes":{"ID":434631,"DIS_CODE":0,"TOWNNAME":"北區","LI":"國興里","LIN":"6鄰","STREET":"南園街","SECT":" ","MAREA":" ","LANE":"７５巷","ALLEY":" ","HOUSE_NO":"１６號","E_COORD97":170608.73000000001,"N_COORD97":2545447.8199999998,"ADDRESS":"南園街７５巷１６號","OBJECTID":434606},"geometry":{"x":170608.73000000045,"y":2545447.8200000022}},{"attributes":{"ID":434632,"DIS_CODE":0,"TOWNNAME":"北區","LI":"國興里","LIN":"6鄰","STREET":"南園街","SECT":" ","MAREA":" ","LANE":"７５巷","ALLEY":" ","HOUSE_NO":"２０號","E_COORD97":170594.66,"N_COORD97":2545451.29,"ADDRESS":"南園街７５巷２０號","OBJECTID":434607},"geometry":{"x":170594.66000000108,"y":2545451.2899999991}},{"attributes":{"ID":434633,"DIS_CODE":0,"TOWNNAME":"北區","LI":"國興里","LIN":"6鄰","STREET":"南園街","SECT":" ","MAREA":" ","LANE":"７５巷","ALLEY":" ","HOUSE_NO":"２２號","E_COORD97":170597.92000000001,"N_COORD97":2545453.73,"ADDRESS":"南園街７５巷２２號","OBJECTID":434608},"geometry":{"x":170597.92000000086,"y":2545453.7299999986}},{"attributes":{"ID":434634,"DIS_CODE":0,"TOWNNAME":"北區","LI":"國興里","LIN":"6鄰","STREET":"南園街","SECT":" ","MAREA":" ","LANE":"７５巷","ALLEY":" ","HOUSE_NO":"２４號","E_COORD97":170601.19,"N_COORD97":2545457,"ADDRESS":"南園街７５巷２４號","OBJECTID":434609},"geometry":{"x":170601.19000000134,"y":2545457}},{"attributes":{"ID":434635,"DIS_CODE":0,"TOWNNAME":"北區","LI":"國興里","LIN":"6鄰","STREET":"南園街","SECT":" ","MAREA":" ","LANE":"７５巷","ALLEY":" ","HOUSE_NO":"２６號","E_COORD97":170603.23000000001,"N_COORD97":2545459.6400000001,"ADDRESS":"南園街７５巷２６號","OBJECTID":434610},"geometry":{"x":170603.23000000138,"y":2545459.6400000025}},{"attributes":{"ID":434636,"DIS_CODE":0,"TOWNNAME":"北區","LI":"國興里","LIN":"6鄰","STREET":"南園街","SECT":" ","MAREA":" ","LANE":"７５巷","ALLEY":" ","HOUSE_NO":"２８號","E_COORD97":170606.29000000001,"N_COORD97":2545461.8900000001,"ADDRESS":"南園街７５巷２８號","OBJECTID":434611},"geometry":{"x":170606.29000000004,"y":2545461.8900000006}},{"attributes":{"ID":434637,"DIS_CODE":0,"TOWNNAME":"北區","LI":"國興里","LIN":"7鄰","STREET":"南園街","SECT":" ","MAREA":" ","LANE":"１０１巷","ALLEY":" ","HOUSE_NO":"２３號","E_COORD97":170692.42877299999,"N_COORD97":2545425.0534999999,"ADDRESS":"南園街１０１巷２３號","OBJECTID":434612},"geometry":{"x":170692.42877299991,"y":2545425.0535030011}},{"attributes":{"ID":434638,"DIS_CODE":0,"TOWNNAME":"北區","LI":"國興里","LIN":"7鄰","STREET":"南園街","SECT":" ","MAREA":" ","LANE":"１０１巷","ALLEY":" ","HOUSE_NO":"５５號","E_COORD97":170720.31,"N_COORD97":2545447.0499999998,"ADDRESS":"南園街１０１巷５５號","OBJECTID":434613},"geometry":{"x":170720.31000000052,"y":2545447.0500000007}},{"attributes":{"ID":434639,"DIS_CODE":0,"TOWNNAME":"北區","LI":"國興里","LIN":"7鄰","STREET":"南園街","SECT":" ","MAREA":" ","LANE":"１０１巷","ALLEY":" ","HOUSE_NO":"５７號","E_COORD97":170723.78,"N_COORD97":2545449.9100000001,"ADDRESS":"南園街１０１巷５７號","OBJECTID":434614},"geometry":{"x":170723.78000000026,"y":2545449.910000002}},{"attributes":{"ID":434640,"DIS_CODE":0,"TOWNNAME":"北區","LI":"國興里","LIN":"7鄰","STREET":"南園街","SECT":" ","MAREA":" ","LANE":"１０１巷","ALLEY":" ","HOUSE_NO":"５９號","E_COORD97":170727.45000000001,"N_COORD97":2545451.54,"ADDRESS":"南園街１０１巷５９號","OBJECTID":434615},"geometry":{"x":170727.45000000019,"y":2545451.540000001}},{"attributes":{"ID":434641,"DIS_CODE":0,"TOWNNAME":"北區","LI":"國興里","LIN":"7鄰","STREET":"南園街","SECT":" ","MAREA":" ","LANE":"１０１巷","ALLEY":" ","HOUSE_NO":"６１號","E_COORD97":170730.10999999999,"N_COORD97":2545454.7999999998,"ADDRESS":"南園街１０１巷６１號","OBJECTID":434616},"geometry":{"x":170730.11000000034,"y":2545454.8000000026}},{"attributes":{"ID":434642,"DIS_CODE":0,"TOWNNAME":"北區","LI":"國興里","LIN":"7鄰","STREET":"南園街","SECT":" ","MAREA":" ","LANE":"１０１巷","ALLEY":" ","HOUSE_NO":"６３號","E_COORD97":170733.98000000001,"N_COORD97":2545456.8399999999,"ADDRESS":"南園街１０１巷６３號","OBJECTID":434617},"geometry":{"x":170733.98000000045,"y":2545456.8400000017}},{"attributes":{"ID":434643,"DIS_CODE":0,"TOWNNAME":"北區","LI":"國興里","LIN":"7鄰","STREET":"南園街","SECT":" ","MAREA":" ","LANE":"１０１巷","ALLEY":" ","HOUSE_NO":"６５號","E_COORD97":170737.25,"N_COORD97":2545459.8999999999,"ADDRESS":"南園街１０１巷６５號","OBJECTID":434618},"geometry":{"x":170737.25,"y":2545459.9000000022}},{"attributes":{"ID":434644,"DIS_CODE":0,"TOWNNAME":"北區","LI":"國興里","LIN":"7鄰","STREET":"南園街","SECT":" ","MAREA":" ","LANE":"１０１巷","ALLEY":" ","HOUSE_NO":"６７號","E_COORD97":170742.35000000001,"N_COORD97":2545463.3599999999,"ADDRESS":"南園街１０１巷６７號","OBJECTID":434619},"geometry":{"x":170742.34999999963,"y":2545463.3600000013}},{"attributes":{"ID":434645,"DIS_CODE":0,"TOWNNAME":"北區","LI":"國興里","LIN":"7鄰","STREET":"南園街","SECT":" ","MAREA":" ","LANE":"１０１巷","ALLEY":" ","HOUSE_NO":"６９號","E_COORD97":170745.60999999999,"N_COORD97":2545467.0299999998,"ADDRESS":"南園街１０１巷６９號","OBJECTID":434620},"geometry":{"x":170745.6100000022,"y":2545467.0299999993}},{"attributes":{"ID":434646,"DIS_CODE":0,"TOWNNAME":"北區","LI":"國興里","LIN":"7鄰","STREET":"南園街","SECT":" ","MAREA":" ","LANE":"１０１巷","ALLEY":" ","HOUSE_NO":"７３號","E_COORD97":170753.16,"N_COORD97":2545474.3700000001,"ADDRESS":"南園街１０１巷７３號","OBJECTID":434621},"geometry":{"x":170753.16000000015,"y":2545474.3700000029}},{"attributes":{"ID":434647,"DIS_CODE":0,"TOWNNAME":"北區","LI":"國興里","LIN":"7鄰","STREET":"南園街","SECT":" ","MAREA":" ","LANE":"１０１巷","ALLEY":" ","HOUSE_NO":"７５號","E_COORD97":170756.82999999999,"N_COORD97":2545475.7999999998,"ADDRESS":"南園街１０１巷７５號","OBJECTID":434622},"geometry":{"x":170756.83000000007,"y":2545475.8000000007}},{"attributes":{"ID":434648,"DIS_CODE":0,"TOWNNAME":"北區","LI":"國興里","LIN":"7鄰","STREET":"南園街","SECT":" ","MAREA":" ","LANE":"１０１巷","ALLEY":" ","HOUSE_NO":"７７號","E_COORD97":170760.09,"N_COORD97":2545478.04,"ADDRESS":"南園街１０１巷７７號","OBJECTID":434623},"geometry":{"x":170760.08999999985,"y":2545478.040000001}},{"attributes":{"ID":434649,"DIS_CODE":0,"TOWNNAME":"北區","LI":"國興里","LIN":"7鄰","STREET":"南園街","SECT":" ","MAREA":" ","LANE":"１０１巷","ALLEY":" ","HOUSE_NO":"７９號","E_COORD97":170764.17000000001,"N_COORD97":2545480.48,"ADDRESS":"南園街１０１巷７９號","OBJECTID":434624},"geometry":{"x":170764.17000000086,"y":2545480.4800000023}},{"attributes":{"ID":434650,"DIS_CODE":0,"TOWNNAME":"北區","LI":"國興里","LIN":"6鄰","STREET":"開元路","SECT":" ","MAREA":" ","LANE":"３９４巷","ALLEY":" ","HOUSE_NO":"５０號","E_COORD97":170644.97,"N_COORD97":2545520.73,"ADDRESS":"開元路３９４巷５０號","OBJECTID":434625},"geometry":{"x":170644.97000000067,"y":2545520.7300000004}},{"attributes":{"ID":434651,"DIS_CODE":0,"TOWNNAME":"北區","LI":"國興里","LIN":"6鄰","STREET":"開元路","SECT":" ","MAREA":" ","LANE":"３９４巷","ALLEY":" ","HOUSE_NO":"５２號","E_COORD97":170648.04000000001,"N_COORD97":2545518.6200000001,"ADDRESS":"開元路３９４巷５２號","OBJECTID":434626},"geometry":{"x":170648.04000000097,"y":2545518.620000001}},{"attributes":{"ID":434652,"DIS_CODE":0,"TOWNNAME":"北區","LI":"國興里","LIN":"6鄰","STREET":"開元路","SECT":" ","MAREA":" ","LANE":"３９４巷","ALLEY":" ","HOUSE_NO":"５４號","E_COORD97":170651.39999999999,"N_COORD97":2545515.5499999998,"ADDRESS":"開元路３９４巷５４號","OBJECTID":434627},"geometry":{"x":170651.40000000037,"y":2545515.5500000007}},{"attributes":{"ID":434653,"DIS_CODE":0,"TOWNNAME":"北區","LI":"國興里","LIN":"6鄰","STREET":"開元路","SECT":" ","MAREA":" ","LANE":"３９４巷","ALLEY":" ","HOUSE_NO":"５６號","E_COORD97":170654.57000000001,"N_COORD97":2545513.3399999999,"ADDRESS":"開元路３９４巷５６號","OBJECTID":434628},"geometry":{"x":170654.57000000123,"y":2545513.339999998}},{"attributes":{"ID":434654,"DIS_CODE":0,"TOWNNAME":"北區","LI":"國興里","LIN":"6鄰","STREET":"開元路","SECT":" ","MAREA":" ","LANE":"３９４巷","ALLEY":" ","HOUSE_NO":"５８號","E_COORD97":170658.98000000001,"N_COORD97":2545511.8999999999,"ADDRESS":"開元路３９４巷５８號","OBJECTID":434629},"geometry":{"x":170658.98000000138,"y":2545511.9000000022}},{"attributes":{"ID":434655,"DIS_CODE":0,"TOWNNAME":"北區","LI":"國興里","LIN":"6鄰","STREET":"開元路","SECT":" ","MAREA":" ","LANE":"３９４巷","ALLEY":" ","HOUSE_NO":"６０號","E_COORD97":170661.38,"N_COORD97":2545508.6400000001,"ADDRESS":"開元路３９４巷６０號","OBJECTID":434630},"geometry":{"x":170661.37999999989,"y":2545508.6400000006}},{"attributes":{"ID":434656,"DIS_CODE":0,"TOWNNAME":"北區","LI":"勝安里","LIN":"4鄰","STREET":"開元路","SECT":" ","MAREA":" ","LANE":"１１７巷","ALLEY":" ","HOUSE_NO":"１號","E_COORD97":169804.32000000001,"N_COORD97":2545257.6499999999,"ADDRESS":"開元路１１７巷１號","OBJECTID":434631},"geometry":{"x":169804.3200000003,"y":2545257.6500000041}},{"attributes":{"ID":434657,"DIS_CODE":0,"TOWNNAME":"北區","LI":"勝安里","LIN":"4鄰","STREET":"開元路","SECT":" ","MAREA":" ","LANE":"１１７巷","ALLEY":" ","HOUSE_NO":"３號","E_COORD97":169810.16,"N_COORD97":2545266.7999999998,"ADDRESS":"開元路１１７巷３號","OBJECTID":434632},"geometry":{"x":169810.16000000015,"y":2545266.8000000007}},{"attributes":{"ID":434658,"DIS_CODE":0,"TOWNNAME":"北區","LI":"勝安里","LIN":"4鄰","STREET":"開元路","SECT":" ","MAREA":" ","LANE":"１１７巷","ALLEY":" ","HOUSE_NO":"５號","E_COORD97":169809.20999999999,"N_COORD97":2545269.3199999998,"ADDRESS":"開元路１１７巷５號","OBJECTID":434633},"geometry":{"x":169809.21000000089,"y":2545269.3200000003}},{"attributes":{"ID":434659,"DIS_CODE":0,"TOWNNAME":"北區","LI":"勝安里","LIN":"4鄰","STREET":"開元路","SECT":" ","MAREA":" ","LANE":"１１７巷","ALLEY":" ","HOUSE_NO":"７號","E_COORD97":169807.95000000001,"N_COORD97":2545272.3100000001,"ADDRESS":"開元路１１７巷７號","OBJECTID":434634},"geometry":{"x":169807.95000000112,"y":2545272.3100000005}},{"attributes":{"ID":434660,"DIS_CODE":0,"TOWNNAME":"北區","LI":"勝安里","LIN":"4鄰","STREET":"開元路","SECT":" ","MAREA":" ","LANE":"７３巷","ALLEY":" ","HOUSE_NO":"１０號","E_COORD97":169759.76000000001,"N_COORD97":2545215.2400000002,"ADDRESS":"開元路７３巷１０號","OBJECTID":434635},"geometry":{"x":169759.76000000071,"y":2545215.2400000002}},{"attributes":{"ID":434661,"DIS_CODE":0,"TOWNNAME":"北區","LI":"勝安里","LIN":"4鄰","STREET":"開元路","SECT":" ","MAREA":" ","LANE":"７３巷","ALLEY":" ","HOUSE_NO":"１２號","E_COORD97":169762.45000000001,"N_COORD97":2545217.9199999999,"ADDRESS":"開元路７３巷１２號","OBJECTID":434636},"geometry":{"x":169762.45000000019,"y":2545217.9199999981}},{"attributes":{"ID":434662,"DIS_CODE":0,"TOWNNAME":"北區","LI":"勝安里","LIN":"4鄰","STREET":"開元路","SECT":" ","MAREA":" ","LANE":"７３巷","ALLEY":" ","HOUSE_NO":"１４號","E_COORD97":169762.92000000001,"N_COORD97":2545224.8500000001,"ADDRESS":"開元路７３巷１４號","OBJECTID":434637},"geometry":{"x":169762.91999999993,"y":2545224.8499999978}},{"attributes":{"ID":434663,"DIS_CODE":0,"TOWNNAME":"北區","LI":"勝安里","LIN":"4鄰","STREET":"開元路","SECT":" ","MAREA":" ","LANE":"７３巷","ALLEY":" ","HOUSE_NO":"１６號","E_COORD97":169766.85999999999,"N_COORD97":2545226.7400000002,"ADDRESS":"開元路７３巷１６號","OBJECTID":434638},"geometry":{"x":169766.86000000034,"y":2545226.7400000021}},{"attributes":{"ID":434664,"DIS_CODE":0,"TOWNNAME":"北區","LI":"勝安里","LIN":"4鄰","STREET":"開元路","SECT":" ","MAREA":" ","LANE":"７３巷","ALLEY":" ","HOUSE_NO":"１８號","E_COORD97":169769.98999999999,"N_COORD97":2545231.5499999998,"ADDRESS":"開元路７３巷１８號","OBJECTID":434639},"geometry":{"x":169769.99000000115,"y":2545231.5500000045}},{"attributes":{"ID":434665,"DIS_CODE":0,"TOWNNAME":"北區","LI":"勝安里","LIN":"4鄰","STREET":"開元路","SECT":" ","MAREA":" ","LANE":"７３巷","ALLEY":" ","HOUSE_NO":"２０號","E_COORD97":169771.91,"N_COORD97":2545235.3999999999,"ADDRESS":"開元路７３巷２０號","OBJECTID":434640},"geometry":{"x":169771.91000000201,"y":2545235.4000000004}},{"attributes":{"ID":434666,"DIS_CODE":0,"TOWNNAME":"北區","LI":"勝安里","LIN":"4鄰","STREET":"開元路","SECT":" ","MAREA":" ","LANE":"７３巷","ALLEY":" ","HOUSE_NO":"２２號","E_COORD97":169776.17000000001,"N_COORD97":2545240.9300000002,"ADDRESS":"開元路７３巷２２號","OBJECTID":434641},"geometry":{"x":169776.16999999993,"y":2545240.9299999997}},{"attributes":{"ID":434667,"DIS_CODE":0,"TOWNNAME":"北區","LI":"勝安里","LIN":"4鄰","STREET":"開元路","SECT":" ","MAREA":" ","LANE":"７３巷","ALLEY":" ","HOUSE_NO":"２４號","E_COORD97":169778.54000000001,"N_COORD97":2545243.6099999999,"ADDRESS":"開元路７３巷２４號","OBJECTID":434642},"geometry":{"x":169778.54000000097,"y":2545243.6100000031}},{"attributes":{"ID":434668,"DIS_CODE":0,"TOWNNAME":"北區","LI":"勝安里","LIN":"4鄰","STREET":"開元路","SECT":" ","MAREA":" ","LANE":"７３巷","ALLEY":" ","HOUSE_NO":"２６號","E_COORD97":169780.42999999999,"N_COORD97":2545246.4399999999,"ADDRESS":"開元路７３巷２６號","OBJECTID":434643},"geometry":{"x":169780.43000000063,"y":2545246.4399999995}},{"attributes":{"ID":434669,"DIS_CODE":0,"TOWNNAME":"北區","LI":"華興里","LIN":"4鄰","STREET":"南園街","SECT":" ","MAREA":" ","LANE":"５４巷","ALLEY":" ","HOUSE_NO":"２４號","E_COORD97":170463.62,"N_COORD97":2545386.6800000002,"ADDRESS":"南園街５４巷２４號","OBJECTID":434644},"geometry":{"x":170463.62000000011,"y":2545386.6800000016}},{"attributes":{"ID":434670,"DIS_CODE":0,"TOWNNAME":"北區","LI":"華興里","LIN":"4鄰","STREET":"南園街","SECT":" ","MAREA":" ","LANE":"５４巷","ALLEY":" ","HOUSE_NO":"２６號","E_COORD97":170461.42999999999,"N_COORD97":2545382.8599999999,"ADDRESS":"南園街５４巷２６號","OBJECTID":434645},"geometry":{"x":170461.43000000063,"y":2545382.8599999994}},{"attributes":{"ID":434671,"DIS_CODE":0,"TOWNNAME":"北區","LI":"華興里","LIN":"4鄰","STREET":"南園街","SECT":" ","MAREA":" ","LANE":"５４巷","ALLEY":" ","HOUSE_NO":"２８號","E_COORD97":170459.41,"N_COORD97":2545378.9900000002,"ADDRESS":"南園街５４巷２８號","OBJECTID":434646},"geometry":{"x":170459.41000000015,"y":2545378.9900000021}},{"attributes":{"ID":434672,"DIS_CODE":0,"TOWNNAME":"北區","LI":"華興里","LIN":"4鄰","STREET":"南園街","SECT":" ","MAREA":" ","LANE":"５４巷","ALLEY":" ","HOUSE_NO":"２號","E_COORD97":170486.91,"N_COORD97":2545427.25,"ADDRESS":"南園街５４巷２號","OBJECTID":434647},"geometry":{"x":170486.91000000015,"y":2545427.2500000019}},{"attributes":{"ID":434673,"DIS_CODE":0,"TOWNNAME":"北區","LI":"華興里","LIN":"6鄰","STREET":"林森路","SECT":"三段","MAREA":" ","LANE":"２７８巷","ALLEY":" ","HOUSE_NO":"１０號","E_COORD97":170511.26000000001,"N_COORD97":2545341.2200000002,"ADDRESS":"林森路三段２７８巷１０號","OBJECTID":434648},"geometry":{"x":170511.25999999978,"y":2545341.2200000007}},{"attributes":{"ID":434674,"DIS_CODE":0,"TOWNNAME":"北區","LI":"華興里","LIN":"6鄰","STREET":"林森路","SECT":"三段","MAREA":" ","LANE":"２７８巷","ALLEY":" ","HOUSE_NO":"１１號","E_COORD97":170513.98999999999,"N_COORD97":2545351.8199999998,"ADDRESS":"林森路三段２７８巷１１號","OBJECTID":434649},"geometry":{"x":170513.99000000209,"y":2545351.8200000022}},{"attributes":{"ID":434675,"DIS_CODE":0,"TOWNNAME":"北區","LI":"華興里","LIN":"6鄰","STREET":"林森路","SECT":"三段","MAREA":" ","LANE":"２７８巷","ALLEY":" ","HOUSE_NO":"１２號","E_COORD97":170518.60999999999,"N_COORD97":2545341.6200000001,"ADDRESS":"林森路三段２７８巷１２號","OBJECTID":434650},"geometry":{"x":170518.61000000127,"y":2545341.6200000029}},{"attributes":{"ID":434676,"DIS_CODE":0,"TOWNNAME":"北區","LI":"華興里","LIN":"6鄰","STREET":"林森路","SECT":"三段","MAREA":" ","LANE":"２７８巷","ALLEY":" ","HOUSE_NO":"１３號","E_COORD97":170521.26000000001,"N_COORD97":2545352.5499999998,"ADDRESS":"林森路三段２７８巷１３號","OBJECTID":434651},"geometry":{"x":170521.25999999978,"y":2545352.5500000007}},{"attributes":{"ID":434677,"DIS_CODE":0,"TOWNNAME":"北區","LI":"華興里","LIN":"17鄰","STREET":"南園街","SECT":" ","MAREA":" ","LANE":"１２７巷","ALLEY":" ","HOUSE_NO":"１９號","E_COORD97":170684,"N_COORD97":2545291.5699999998,"ADDRESS":"南園街１２７巷１９號","OBJECTID":434652},"geometry":{"x":170684.00000000093,"y":2545291.5700000003}},{"attributes":{"ID":434678,"DIS_CODE":0,"TOWNNAME":"北區","LI":"華興里","LIN":"17鄰","STREET":"南園街","SECT":" ","MAREA":" ","LANE":"１２７巷","ALLEY":" ","HOUSE_NO":"２１號","E_COORD97":170687.70999999999,"N_COORD97":2545290,"ADDRESS":"南園街１２７巷２１號","OBJECTID":434653},"geometry":{"x":170687.70999999996,"y":2545290.0000000019}},{"attributes":{"ID":434679,"DIS_CODE":0,"TOWNNAME":"北區","LI":"華興里","LIN":"17鄰","STREET":"南園街","SECT":" ","MAREA":" ","LANE":"１２７巷","ALLEY":" ","HOUSE_NO":"２３號","E_COORD97":170692.06,"N_COORD97":2545291.1800000002,"ADDRESS":"南園街１２７巷２３號","OBJECTID":434654},"geometry":{"x":170692.05999999959,"y":2545291.1800000016}},{"attributes":{"ID":434680,"DIS_CODE":0,"TOWNNAME":"北區","LI":"華興里","LIN":"17鄰","STREET":"南園街","SECT":" ","MAREA":" ","LANE":"１２７巷","ALLEY":" ","HOUSE_NO":"２５號","E_COORD97":170695.76999999999,"N_COORD97":2545289.6800000002,"ADDRESS":"南園街１２７巷２５號","OBJECTID":434655},"geometry":{"x":170695.76999999955,"y":2545289.6799999997}},{"attributes":{"ID":434681,"DIS_CODE":0,"TOWNNAME":"北區","LI":"華興里","LIN":"17鄰","STREET":"南園街","SECT":" ","MAREA":" ","LANE":"１２７巷","ALLEY":" ","HOUSE_NO":"２７號","E_COORD97":170699.95999999999,"N_COORD97":2545290.7799999998,"ADDRESS":"南園街１２７巷２７號","OBJECTID":434656},"geometry":{"x":170699.95999999996,"y":2545290.7800000012}},{"attributes":{"ID":434682,"DIS_CODE":0,"TOWNNAME":"北區","LI":"華興里","LIN":"17鄰","STREET":"南園街","SECT":" ","MAREA":" ","LANE":"１２７巷","ALLEY":" ","HOUSE_NO":"２９號","E_COORD97":170703.98000000001,"N_COORD97":2545288.73,"ADDRESS":"南園街１２７巷２９號","OBJECTID":434657},"geometry":{"x":170703.98000000045,"y":2545288.7300000023}},{"attributes":{"ID":434683,"DIS_CODE":0,"TOWNNAME":"北區","LI":"華興里","LIN":"17鄰","STREET":"南園街","SECT":" ","MAREA":" ","LANE":"１２７巷","ALLEY":" ","HOUSE_NO":"３１號","E_COORD97":170707.76999999999,"N_COORD97":2545290.3100000001,"ADDRESS":"南園街１２７巷３１號","OBJECTID":434658},"geometry":{"x":170707.76999999955,"y":2545290.3100000005}},{"attributes":{"ID":434684,"DIS_CODE":0,"TOWNNAME":"北區","LI":"華興里","LIN":"17鄰","STREET":"南園街","SECT":" ","MAREA":" ","LANE":"１２７巷","ALLEY":" ","HOUSE_NO":"３３號","E_COORD97":170711.64999999999,"N_COORD97":2545287.4700000002,"ADDRESS":"南園街１２７巷３３號","OBJECTID":434659},"geometry":{"x":170711.6500000013,"y":2545287.4700000025}},{"attributes":{"ID":434685,"DIS_CODE":0,"TOWNNAME":"北區","LI":"華興里","LIN":"19鄰","STREET":"開南街","SECT":" ","MAREA":" ","LANE":"１４３巷","ALLEY":" ","HOUSE_NO":"５號之１","E_COORD97":170645.57000000001,"N_COORD97":2545147.96,"ADDRESS":"開南街１４３巷５號之１","OBJECTID":434660},"geometry":{"x":170645.5700000003,"y":2545147.9600000028}},{"attributes":{"ID":434686,"DIS_CODE":0,"TOWNNAME":"北區","LI":"華興里","LIN":"19鄰","STREET":"開南街","SECT":" ","MAREA":" ","LANE":"１４３巷","ALLEY":" ","HOUSE_NO":"５號之２","E_COORD97":170647.85999999999,"N_COORD97":2545151.1899999999,"ADDRESS":"開南街１４３巷５號之２","OBJECTID":434661},"geometry":{"x":170647.86000000127,"y":2545151.1899999976}},{"attributes":{"ID":434687,"DIS_CODE":0,"TOWNNAME":"北區","LI":"華興里","LIN":"19鄰","STREET":"開南街","SECT":" ","MAREA":" ","LANE":"１４３巷","ALLEY":" ","HOUSE_NO":"７號","E_COORD97":170652.20000000001,"N_COORD97":2545154.1899999999,"ADDRESS":"開南街１４３巷７號","OBJECTID":434662},"geometry":{"x":170652.20000000112,"y":2545154.1899999995}},{"attributes":{"ID":434688,"DIS_CODE":0,"TOWNNAME":"北區","LI":"華興里","LIN":"19鄰","STREET":"開南街","SECT":" ","MAREA":" ","LANE":"１４３巷","ALLEY":" ","HOUSE_NO":"９號","E_COORD97":170652.67999999999,"N_COORD97":2545158.5499999998,"ADDRESS":"開南街１４３巷９號","OBJECTID":434663},"geometry":{"x":170652.6799999997,"y":2545158.5500000026}},{"attributes":{"ID":434689,"DIS_CODE":0,"TOWNNAME":"六甲區","LI":"甲東里","LIN":"15鄰","STREET":"裕農街","SECT":" ","MAREA":" ","LANE":"４１巷","ALLEY":" ","HOUSE_NO":"５號","E_COORD97":184042.95999999999,"N_COORD97":2569787.02,"ADDRESS":"裕農街４１巷５號","OBJECTID":434664},"geometry":{"x":184042.95999999996,"y":2569787.0200000033}},{"attributes":{"ID":434690,"DIS_CODE":0,"TOWNNAME":"六甲區","LI":"甲東里","LIN":"19鄰","STREET":"裕農街","SECT":" ","MAREA":" ","LANE":"４１巷","ALLEY":" ","HOUSE_NO":"２之２號","E_COORD97":184093.06,"N_COORD97":2569729.6499999999,"ADDRESS":"裕農街４１巷２之２號","OBJECTID":434665},"geometry":{"x":184093.06000000145,"y":2569729.6500000041}},{"attributes":{"ID":434691,"DIS_CODE":0,"TOWNNAME":"六甲區","LI":"甲東里","LIN":"19鄰","STREET":"裕農街","SECT":" ","MAREA":" ","LANE":"４１巷","ALLEY":" ","HOUSE_NO":"２之５號","E_COORD97":184089.10000000001,"N_COORD97":2569744.1200000001,"ADDRESS":"裕農街４１巷２之５號","OBJECTID":434666},"geometry":{"x":184089.09999999963,"y":2569744.1200000048}},{"attributes":{"ID":434692,"DIS_CODE":0,"TOWNNAME":"六甲區","LI":"甲東里","LIN":"19鄰","STREET":"裕農街","SECT":" ","MAREA":" ","LANE":"４１巷","ALLEY":" ","HOUSE_NO":"２之６號","E_COORD97":184087.51999999999,"N_COORD97":2569749.46,"ADDRESS":"裕農街４１巷２之６號","OBJECTID":434667},"geometry":{"x":184087.51999999955,"y":2569749.4600000028}},{"attributes":{"ID":434693,"DIS_CODE":0,"TOWNNAME":"六甲區","LI":"甲東里","LIN":"19鄰","STREET":"裕農街","SECT":" ","MAREA":" ","LANE":"４９巷","ALLEY":" ","HOUSE_NO":"１１號","E_COORD97":184098.13,"N_COORD97":2569796.0499999998,"ADDRESS":"裕農街４９巷１１號","OBJECTID":434668},"geometry":{"x":184098.13000000082,"y":2569796.0500000026}},{"attributes":{"ID":434694,"DIS_CODE":0,"TOWNNAME":"六甲區","LI":"甲東里","LIN":"19鄰","STREET":"裕農街","SECT":" ","MAREA":" ","LANE":"４９巷","ALLEY":" ","HOUSE_NO":"１３號","E_COORD97":184091.20000000001,"N_COORD97":2569794.1499999999,"ADDRESS":"裕農街４９巷１３號","OBJECTID":434669},"geometry":{"x":184091.20000000112,"y":2569794.1500000041}},{"attributes":{"ID":434695,"DIS_CODE":0,"TOWNNAME":"六甲區","LI":"甲東里","LIN":"19鄰","STREET":"裕農街","SECT":" ","MAREA":" ","LANE":"４９巷","ALLEY":" ","HOUSE_NO":"１７號","E_COORD97":184095.94,"N_COORD97":2569810.1699999999,"ADDRESS":"裕農街４９巷１７號","OBJECTID":434670},"geometry":{"x":184095.94000000041,"y":2569810.1700000037}},{"attributes":{"ID":434696,"DIS_CODE":0,"TOWNNAME":"六甲區","LI":"甲東里","LIN":"19鄰","STREET":"裕農街","SECT":" ","MAREA":" ","LANE":"４９巷","ALLEY":" ","HOUSE_NO":"３號","E_COORD97":184114.31,"N_COORD97":2569748.5499999998,"ADDRESS":"裕農街４９巷３號","OBJECTID":434671},"geometry":{"x":184114.30999999959,"y":2569748.5500000026}},{"attributes":{"ID":434697,"DIS_CODE":0,"TOWNNAME":"六甲區","LI":"甲東里","LIN":"22鄰","STREET":"裕農街","SECT":" ","MAREA":" ","LANE":"４９巷","ALLEY":" ","HOUSE_NO":"１０號","E_COORD97":184155.26999999999,"N_COORD97":2569747.2599999998,"ADDRESS":"裕農街４９巷１０號","OBJECTID":434672},"geometry":{"x":184155.26999999955,"y":2569747.2599999998}},{"attributes":{"ID":434698,"DIS_CODE":0,"TOWNNAME":"六甲區","LI":"甲東里","LIN":"22鄰","STREET":"裕農街","SECT":" ","MAREA":" ","LANE":"４９巷","ALLEY":" ","HOUSE_NO":"２號","E_COORD97":184139.32999999999,"N_COORD97":2569736.1200000001,"ADDRESS":"裕農街４９巷２號","OBJECTID":434673},"geometry":{"x":184139.33000000101,"y":2569736.120000001}},{"attributes":{"ID":434699,"DIS_CODE":0,"TOWNNAME":"六甲區","LI":"甲東里","LIN":"21鄰","STREET":"裕農街","SECT":" ","MAREA":" ","LANE":"８０巷","ALLEY":" ","HOUSE_NO":"３２號","E_COORD97":184304.92000000001,"N_COORD97":2569582.96,"ADDRESS":"裕農街８０巷３２號","OBJECTID":434674},"geometry":{"x":184304.92000000086,"y":2569582.9600000028}},{"attributes":{"ID":434700,"DIS_CODE":0,"TOWNNAME":"六甲區","LI":"甲東里","LIN":"21鄰","STREET":"裕農街","SECT":" ","MAREA":" ","LANE":"８０巷","ALLEY":" ","HOUSE_NO":"４０號","E_COORD97":184401.47,"N_COORD97":2569512.3500000001,"ADDRESS":"裕農街８０巷４０號","OBJECTID":434675},"geometry":{"x":184401.46999999974,"y":2569512.3499999996}},{"attributes":{"ID":434701,"DIS_CODE":0,"TOWNNAME":"六甲區","LI":"甲東里","LIN":"21鄰","STREET":"裕農街","SECT":" ","MAREA":" ","LANE":"８０巷","ALLEY":" ","HOUSE_NO":"４１號","E_COORD97":184473.82999999999,"N_COORD97":2569501.8199999998,"ADDRESS":"裕農街８０巷４１號","OBJECTID":434676},"geometry":{"x":184473.83000000101,"y":2569501.8200000022}},{"attributes":{"ID":434702,"DIS_CODE":0,"TOWNNAME":"關廟區","LI":"松腳里","LIN":"4鄰","STREET":"旺萊路","SECT":" ","MAREA":" ","LANE":"３４３巷","ALLEY":" ","HOUSE_NO":"２號","E_COORD97":182104.44,"N_COORD97":2539760.25,"ADDRESS":"旺萊路３４３巷２號","OBJECTID":434677},"geometry":{"x":182104.43999999948,"y":2539760.25}},{"attributes":{"ID":434703,"DIS_CODE":0,"TOWNNAME":"關廟區","LI":"北花里","LIN":"20鄰","STREET":"中正路","SECT":" ","MAREA":" ","LANE":"１１３巷","ALLEY":" ","HOUSE_NO":"４６號","E_COORD97":183594.56,"N_COORD97":2540803.6200000001,"ADDRESS":"中正路１１３巷４６號","OBJECTID":434678},"geometry":{"x":183594.56000000145,"y":2540803.6200000048}},{"attributes":{"ID":434704,"DIS_CODE":0,"TOWNNAME":"關廟區","LI":"香洋里","LIN":"18鄰","STREET":"中央路","SECT":" ","MAREA":" ","LANE":"２２巷","ALLEY":" ","HOUSE_NO":"１２號","E_COORD97":181615.76000000001,"N_COORD97":2540007.3199999998,"ADDRESS":"中央路２２巷１２號","OBJECTID":434679},"geometry":{"x":181615.76000000071,"y":2540007.3200000003}},{"attributes":{"ID":434705,"DIS_CODE":0,"TOWNNAME":"關廟區","LI":"關廟里","LIN":"13鄰","STREET":"大仁街","SECT":" ","MAREA":" ","LANE":"１３０巷","ALLEY":" ","HOUSE_NO":"２０號","E_COORD97":181026.72,"N_COORD97":2539463.25,"ADDRESS":"大仁街１３０巷２０號","OBJECTID":434680},"geometry":{"x":181026.71999999974,"y":2539463.2500000019}},{"attributes":{"ID":434706,"DIS_CODE":0,"TOWNNAME":"關廟區","LI":"田中里","LIN":"4鄰","STREET":"田大路","SECT":" ","MAREA":" ","LANE":"８０巷","ALLEY":" ","HOUSE_NO":"６號","E_COORD97":184221.19,"N_COORD97":2533771.2999999998,"ADDRESS":"田大路８０巷６號","OBJECTID":434681},"geometry":{"x":184221.19000000041,"y":2533771.3000000026}},{"attributes":{"ID":434707,"DIS_CODE":0,"TOWNNAME":"關廟區","LI":"關廟里","LIN":"13鄰","STREET":"大仁街","SECT":" ","MAREA":" ","LANE":"１３０巷","ALLEY":" ","HOUSE_NO":"２８號","E_COORD97":181027.51999999999,"N_COORD97":2539481.25,"ADDRESS":"大仁街１３０巷２８號","OBJECTID":434682},"geometry":{"x":181027.51999999955,"y":2539481.25}},{"attributes":{"ID":434708,"DIS_CODE":0,"TOWNNAME":"關廟區","LI":"南花里","LIN":"4鄰","STREET":"園東街","SECT":" ","MAREA":" ","LANE":"５１巷","ALLEY":" ","HOUSE_NO":"１０號","E_COORD97":182036.51000000001,"N_COORD97":2540034.25,"ADDRESS":"園東街５１巷１０號","OBJECTID":434683},"geometry":{"x":182036.50999999978,"y":2540034.25}},{"attributes":{"ID":434709,"DIS_CODE":0,"TOWNNAME":"關廟區","LI":"南花里","LIN":"13鄰","STREET":"花園一街","SECT":" ","MAREA":" ","LANE":"１８０巷","ALLEY":" ","HOUSE_NO":"１號","E_COORD97":181676.98999999999,"N_COORD97":2540179.25,"ADDRESS":"花園一街１８０巷１號","OBJECTID":434684},"geometry":{"x":181676.99000000115,"y":2540179.2500000019}},{"attributes":{"ID":434710,"DIS_CODE":0,"TOWNNAME":"關廟區","LI":"五甲里","LIN":"13鄰","STREET":"光復街","SECT":" ","MAREA":" ","LANE":"９１巷","ALLEY":" ","HOUSE_NO":"３６號","E_COORD97":181450.44,"N_COORD97":2539372.2799999998,"ADDRESS":"光復街９１巷３６號","OBJECTID":434685},"geometry":{"x":181450.44000000134,"y":2539372.2799999993}},{"attributes":{"ID":434711,"DIS_CODE":0,"TOWNNAME":"關廟區","LI":"南花里","LIN":"4鄰","STREET":"園東街","SECT":" ","MAREA":" ","LANE":"６５巷","ALLEY":" ","HOUSE_NO":"１號","E_COORD97":181999.95999999999,"N_COORD97":2540065.25,"ADDRESS":"園東街６５巷１號","OBJECTID":434686},"geometry":{"x":181999.95999999996,"y":2540065.25}},{"attributes":{"ID":434712,"DIS_CODE":0,"TOWNNAME":"關廟區","LI":"南花里","LIN":"4鄰","STREET":"園東街","SECT":" ","MAREA":" ","LANE":"１巷","ALLEY":" ","HOUSE_NO":"１５號","E_COORD97":182105.85999999999,"N_COORD97":2540040.25,"ADDRESS":"園東街１巷１５號","OBJECTID":434687},"geometry":{"x":182105.86000000034,"y":2540040.2500000019}},{"attributes":{"ID":434713,"DIS_CODE":0,"TOWNNAME":"關廟區","LI":"東勢里","LIN":"4鄰","STREET":"東興路","SECT":" ","MAREA":" ","LANE":"２５０巷","ALLEY":" ","HOUSE_NO":"６號","E_COORD97":181756.37,"N_COORD97":2539534.25,"ADDRESS":"東興路２５０巷６號","OBJECTID":434688},"geometry":{"x":181756.37000000011,"y":2539534.2500000019}},{"attributes":{"ID":434714,"DIS_CODE":0,"TOWNNAME":"關廟區","LI":"南花里","LIN":"4鄰","STREET":"園東街","SECT":" ","MAREA":" ","LANE":"１巷","ALLEY":" ","HOUSE_NO":"８號","E_COORD97":182072.81,"N_COORD97":2540038.25,"ADDRESS":"園東街１巷８號","OBJECTID":434689},"geometry":{"x":182072.81000000052,"y":2540038.25}},{"attributes":{"ID":434715,"DIS_CODE":0,"TOWNNAME":"關廟區","LI":"香洋里","LIN":"18鄰","STREET":"和平路","SECT":" ","MAREA":" ","LANE":"２５５巷","ALLEY":" ","HOUSE_NO":"２號","E_COORD97":181630.04000000001,"N_COORD97":2540048.25,"ADDRESS":"和平路２５５巷２號","OBJECTID":434690},"geometry":{"x":181630.04000000004,"y":2540048.25}},{"attributes":{"ID":434716,"DIS_CODE":0,"TOWNNAME":"關廟區","LI":"關廟里","LIN":"14鄰","STREET":"民生街","SECT":" ","MAREA":" ","LANE":"１１５巷","ALLEY":" ","HOUSE_NO":"７５號","E_COORD97":180431.34,"N_COORD97":2539291.29,"ADDRESS":"民生街１１５巷７５號","OBJECTID":434691},"geometry":{"x":180431.33999999892,"y":2539291.2899999991}},{"attributes":{"ID":434717,"DIS_CODE":0,"TOWNNAME":"關廟區","LI":"南花里","LIN":"4鄰","STREET":"園東街","SECT":" ","MAREA":" ","LANE":"６５巷","ALLEY":" ","HOUSE_NO":"１７號","E_COORD97":181995.01000000001,"N_COORD97":2540034.25,"ADDRESS":"園東街６５巷１７號","OBJECTID":434692},"geometry":{"x":181995.01000000164,"y":2540034.25}},{"attributes":{"ID":434718,"DIS_CODE":0,"TOWNNAME":"關廟區","LI":"五甲里","LIN":"13鄰","STREET":"光復街","SECT":" ","MAREA":" ","LANE":"９１巷","ALLEY":" ","HOUSE_NO":"４０號","E_COORD97":181442.34,"N_COORD97":2539375.2799999998,"ADDRESS":"光復街９１巷４０號","OBJECTID":434693},"geometry":{"x":181442.34000000078,"y":2539375.2799999993}},{"attributes":{"ID":434719,"DIS_CODE":0,"TOWNNAME":"關廟區","LI":"五甲里","LIN":"13鄰","STREET":"光復街","SECT":" ","MAREA":" ","LANE":"９１巷","ALLEY":" ","HOUSE_NO":"４８號","E_COORD97":181430.84,"N_COORD97":2539380.2799999998,"ADDRESS":"光復街９１巷４８號","OBJECTID":434694},"geometry":{"x":181430.83999999985,"y":2539380.2800000031}},{"attributes":{"ID":434720,"DIS_CODE":0,"TOWNNAME":"關廟區","LI":"北花里","LIN":"4鄰","STREET":"花園二街","SECT":" ","MAREA":" ","LANE":"８１巷","ALLEY":" ","HOUSE_NO":"１０號","E_COORD97":181977.19,"N_COORD97":2540278.25,"ADDRESS":"花園二街８１巷１０號","OBJECTID":434695},"geometry":{"x":181977.19000000041,"y":2540278.25}},{"attributes":{"ID":434721,"DIS_CODE":0,"TOWNNAME":"關廟區","LI":"五甲里","LIN":"13鄰","STREET":"光復街","SECT":" ","MAREA":" ","LANE":"９１巷","ALLEY":" ","HOUSE_NO":"６８號","E_COORD97":181390.94,"N_COORD97":2539357.2799999998,"ADDRESS":"光復街９１巷６８號","OBJECTID":434696},"geometry":{"x":181390.94000000227,"y":2539357.2800000012}},{"attributes":{"ID":434722,"DIS_CODE":0,"TOWNNAME":"關廟區","LI":"南花里","LIN":"4鄰","STREET":"園東街","SECT":" ","MAREA":" ","LANE":"６５巷","ALLEY":" ","HOUSE_NO":"７號","E_COORD97":181997.66,"N_COORD97":2540054.25,"ADDRESS":"園東街６５巷７號","OBJECTID":434697},"geometry":{"x":181997.66000000201,"y":2540054.25}},{"attributes":{"ID":434723,"DIS_CODE":0,"TOWNNAME":"關廟區","LI":"北勢里","LIN":"13鄰","STREET":"北安三街","SECT":" ","MAREA":" ","LANE":"１４５巷","ALLEY":" ","HOUSE_NO":"２號","E_COORD97":181429.84,"N_COORD97":2540582.3199999998,"ADDRESS":"北安三街１４５巷２號","OBJECTID":434698},"geometry":{"x":181429.83999999892,"y":2540582.3200000022}},{"attributes":{"ID":434724,"DIS_CODE":0,"TOWNNAME":"關廟區","LI":"香洋里","LIN":"4鄰","STREET":"成功路","SECT":" ","MAREA":" ","LANE":"３７５巷","ALLEY":" ","HOUSE_NO":"２號","E_COORD97":181208.26999999999,"N_COORD97":2540504.27,"ADDRESS":"成功路３７５巷２號","OBJECTID":434699},"geometry":{"x":181208.27000000048,"y":2540504.2700000014}},{"attributes":{"ID":434725,"DIS_CODE":0,"TOWNNAME":"關廟區","LI":"南花里","LIN":"4鄰","STREET":"花園一街","SECT":" ","MAREA":" ","LANE":"７１巷","ALLEY":" ","HOUSE_NO":"１５號","E_COORD97":181981.39000000001,"N_COORD97":2540131.25,"ADDRESS":"花園一街７１巷１５號","OBJECTID":434700},"geometry":{"x":181981.38999999966,"y":2540131.2500000019}},{"attributes":{"ID":434726,"DIS_CODE":0,"TOWNNAME":"關廟區","LI":"五甲里","LIN":"5鄰","STREET":"五甲路","SECT":" ","MAREA":" ","LANE":"２１巷","ALLEY":" ","HOUSE_NO":"１７號","E_COORD97":181281.57000000001,"N_COORD97":2539029.25,"ADDRESS":"五甲路２１巷１７號","OBJECTID":434701},"geometry":{"x":181281.57000000123,"y":2539029.2500000019}},{"attributes":{"ID":434727,"DIS_CODE":0,"TOWNNAME":"關廟區","LI":"五甲里","LIN":"20鄰","STREET":"五智街","SECT":" ","MAREA":" ","LANE":"５０巷","ALLEY":" ","HOUSE_NO":"５號","E_COORD97":181156.72,"N_COORD97":2539183.25,"ADDRESS":"五智街５０巷５號","OBJECTID":434702},"geometry":{"x":181156.72000000067,"y":2539183.25}},{"attributes":{"ID":434728,"DIS_CODE":0,"TOWNNAME":"關廟區","LI":"關廟里","LIN":"14鄰","STREET":"民生街","SECT":" ","MAREA":" ","LANE":"１１５巷","ALLEY":" ","HOUSE_NO":"２０號","E_COORD97":180729.64000000001,"N_COORD97":2539726.29,"ADDRESS":"民生街１１５巷２０號","OBJECTID":434703},"geometry":{"x":180729.6400000006,"y":2539726.290000001}},{"attributes":{"ID":434729,"DIS_CODE":0,"TOWNNAME":"關廟區","LI":"五甲里","LIN":"20鄰","STREET":"五智街","SECT":" ","MAREA":" ","LANE":"５０巷","ALLEY":" ","HOUSE_NO":"１０號","E_COORD97":181176.37,"N_COORD97":2539179.25,"ADDRESS":"五智街５０巷１０號","OBJECTID":434704},"geometry":{"x":181176.37000000104,"y":2539179.2500000019}},{"attributes":{"ID":434730,"DIS_CODE":0,"TOWNNAME":"關廟區","LI":"香洋里","LIN":"26鄰","STREET":"民權街","SECT":" ","MAREA":" ","LANE":"２２８巷","ALLEY":" ","HOUSE_NO":"３６號","E_COORD97":181137.23999999999,"N_COORD97":2539841.29,"ADDRESS":"民權街２２８巷３６號","OBJECTID":434705},"geometry":{"x":181137.24000000022,"y":2539841.290000001}},{"attributes":{"ID":434731,"DIS_CODE":0,"TOWNNAME":"關廟區","LI":"東勢里","LIN":"8鄰","STREET":"松安街","SECT":" ","MAREA":" ","LANE":"６３巷","ALLEY":" ","HOUSE_NO":"８號","E_COORD97":181991.92000000001,"N_COORD97":2539591.3199999998,"ADDRESS":"松安街６３巷８號","OBJECTID":434706},"geometry":{"x":181991.91999999993,"y":2539591.320000004}},{"attributes":{"ID":434732,"DIS_CODE":0,"TOWNNAME":"關廟區","LI":"松腳里","LIN":"18鄰","STREET":"中山路","SECT":"一段","MAREA":" ","LANE":"８９巷","ALLEY":" ","HOUSE_NO":"７號","E_COORD97":181928.31,"N_COORD97":2539920.2799999998,"ADDRESS":"中山路一段８９巷７號","OBJECTID":434707},"geometry":{"x":181928.31000000145,"y":2539920.2800000012}},{"attributes":{"ID":434733,"DIS_CODE":0,"TOWNNAME":"關廟區","LI":"五甲里","LIN":"14鄰","STREET":"光復街","SECT":" ","MAREA":" ","LANE":"６３巷","ALLEY":" ","HOUSE_NO":"２９號","E_COORD97":181403.14000000001,"N_COORD97":2539318.2799999998,"ADDRESS":"光復街６３巷２９號","OBJECTID":434708},"geometry":{"x":181403.13999999966,"y":2539318.2799999993}},{"attributes":{"ID":434734,"DIS_CODE":0,"TOWNNAME":"關廟區","LI":"埤頭里","LIN":"4鄰","STREET":"保東路","SECT":" ","MAREA":" ","LANE":"１１５巷","ALLEY":" ","HOUSE_NO":"８８號","E_COORD97":178757.22,"N_COORD97":2543955.2999999998,"ADDRESS":"保東路１１５巷８８號","OBJECTID":434709},"geometry":{"x":178757.21999999881,"y":2543955.3000000045}},{"attributes":{"ID":434735,"DIS_CODE":0,"TOWNNAME":"關廟區","LI":"五甲里","LIN":"4鄰","STREET":"南雄路","SECT":"一段","MAREA":" ","LANE":"８１８巷","ALLEY":" ","HOUSE_NO":"１０號","E_COORD97":181423.73999999999,"N_COORD97":2539135.2799999998,"ADDRESS":"南雄路一段８１８巷１０號","OBJECTID":434710},"geometry":{"x":181423.74000000022,"y":2539135.2799999993}},{"attributes":{"ID":434736,"DIS_CODE":0,"TOWNNAME":"關廟區","LI":"東勢里","LIN":"13鄰","STREET":"東榮街","SECT":" ","MAREA":" ","LANE":"１０５巷","ALLEY":" ","HOUSE_NO":"１２號","E_COORD97":182166.67999999999,"N_COORD97":2539416.1099999999,"ADDRESS":"東榮街１０５巷１２號","OBJECTID":434711},"geometry":{"x":182166.68000000156,"y":2539416.1100000013}},{"attributes":{"ID":434737,"DIS_CODE":0,"TOWNNAME":"關廟區","LI":"關廟里","LIN":"13鄰","STREET":"大仁街","SECT":" ","MAREA":" ","LANE":"１２５巷","ALLEY":" ","HOUSE_NO":"７號","E_COORD97":181028.97,"N_COORD97":2539353.25,"ADDRESS":"大仁街１２５巷７號","OBJECTID":434712},"geometry":{"x":181028.9700000016,"y":2539353.25}},{"attributes":{"ID":434738,"DIS_CODE":0,"TOWNNAME":"關廟區","LI":"五甲里","LIN":"13鄰","STREET":"光復街","SECT":" ","MAREA":" ","LANE":"６３巷","ALLEY":" ","HOUSE_NO":"４０號","E_COORD97":181421.23999999999,"N_COORD97":2539323.2799999998,"ADDRESS":"光復街６３巷４０號","OBJECTID":434713},"geometry":{"x":181421.24000000115,"y":2539323.2800000012}},{"attributes":{"ID":434739,"DIS_CODE":0,"TOWNNAME":"關廟區","LI":"深坑里","LIN":"4鄰","STREET":"深坑三街","SECT":" ","MAREA":" ","LANE":"８３巷","ALLEY":" ","HOUSE_NO":"１號","E_COORD97":181886.26999999999,"N_COORD97":2537635.2999999998,"ADDRESS":"深坑三街８３巷１號","OBJECTID":434714},"geometry":{"x":181886.27000000048,"y":2537635.2999999989}},{"attributes":{"ID":434740,"DIS_CODE":0,"TOWNNAME":"關廟區","LI":"香洋里","LIN":"20鄰","STREET":"中央路","SECT":" ","MAREA":" ","LANE":"５１巷","ALLEY":" ","HOUSE_NO":"２１號","E_COORD97":181553.16,"N_COORD97":2539903.3199999998,"ADDRESS":"中央路５１巷２１號","OBJECTID":434715},"geometry":{"x":181553.16000000015,"y":2539903.320000004}},{"attributes":{"ID":434741,"DIS_CODE":0,"TOWNNAME":"關廟區","LI":"五甲里","LIN":"13鄰","STREET":"光復街","SECT":" ","MAREA":" ","LANE":"６３巷","ALLEY":" ","HOUSE_NO":"５０號","E_COORD97":181406.23999999999,"N_COORD97":2539331.2799999998,"ADDRESS":"光復街６３巷５０號","OBJECTID":434716},"geometry":{"x":181406.24000000115,"y":2539331.2799999993}},{"attributes":{"ID":434742,"DIS_CODE":0,"TOWNNAME":"關廟區","LI":"東勢里","LIN":"13鄰","STREET":"東榮街","SECT":" ","MAREA":" ","LANE":"５５巷","ALLEY":" ","HOUSE_NO":"１０號","E_COORD97":182066.87,"N_COORD97":2539376.25,"ADDRESS":"東榮街５５巷１０號","OBJECTID":434717},"geometry":{"x":182066.87000000011,"y":2539376.25}},{"attributes":{"ID":434743,"DIS_CODE":0,"TOWNNAME":"關廟區","LI":"香洋里","LIN":"24鄰","STREET":"民族街","SECT":" ","MAREA":" ","LANE":"１５７巷","ALLEY":" ","HOUSE_NO":"６號","E_COORD97":181230.39000000001,"N_COORD97":2539862.29,"ADDRESS":"民族街１５７巷６號","OBJECTID":434718},"geometry":{"x":181230.38999999966,"y":2539862.290000001}},{"attributes":{"ID":434744,"DIS_CODE":0,"TOWNNAME":"關廟區","LI":"松腳里","LIN":"17鄰","STREET":"民族街","SECT":" ","MAREA":" ","LANE":"５巷","ALLEY":" ","HOUSE_NO":"２號","E_COORD97":181623.29000000001,"N_COORD97":2539770.29,"ADDRESS":"民族街５巷２號","OBJECTID":434719},"geometry":{"x":181623.29000000004,"y":2539770.290000001}},{"attributes":{"ID":434745,"DIS_CODE":0,"TOWNNAME":"關廟區","LI":"埤頭里","LIN":"4鄰","STREET":"保東路","SECT":" ","MAREA":" ","LANE":"１１５巷","ALLEY":" ","HOUSE_NO":"１１０號","E_COORD97":178773.01999999999,"N_COORD97":2543944.2999999998,"ADDRESS":"保東路１１５巷１１０號","OBJECTID":434720},"geometry":{"x":178773.01999999955,"y":2543944.3000000007}},{"attributes":{"ID":434746,"DIS_CODE":0,"TOWNNAME":"關廟區","LI":"埤頭里","LIN":"4鄰","STREET":"保東路","SECT":" ","MAREA":" ","LANE":"１１５巷","ALLEY":" ","HOUSE_NO":"１２２號","E_COORD97":178751.12,"N_COORD97":2543942.2999999998,"ADDRESS":"保東路１１５巷１２２號","OBJECTID":434721},"geometry":{"x":178751.12000000011,"y":2543942.3000000026}},{"attributes":{"ID":434747,"DIS_CODE":0,"TOWNNAME":"關廟區","LI":"埤頭里","LIN":"4鄰","STREET":"保東路","SECT":" ","MAREA":" ","LANE":"１１５巷","ALLEY":" ","HOUSE_NO":"１００號","E_COORD97":178789.92000000001,"N_COORD97":2543944.2999999998,"ADDRESS":"保東路１１５巷１００號","OBJECTID":434722},"geometry":{"x":178789.91999999899,"y":2543944.3000000007}},{"attributes":{"ID":434748,"DIS_CODE":0,"TOWNNAME":"關廟區","LI":"五甲里","LIN":"4鄰","STREET":"南雄路","SECT":"一段","MAREA":" ","LANE":"８１８巷","ALLEY":" ","HOUSE_NO":"５號","E_COORD97":181411.39000000001,"N_COORD97":2539133.2799999998,"ADDRESS":"南雄路一段８１８巷５號","OBJECTID":434723},"geometry":{"x":181411.3900000006,"y":2539133.2800000012}},{"attributes":{"ID":434749,"DIS_CODE":0,"TOWNNAME":"關廟區","LI":"埤頭里","LIN":"4鄰","STREET":"保東路","SECT":" ","MAREA":" ","LANE":"１１５巷","ALLEY":" ","HOUSE_NO":"５２號","E_COORD97":178759.04000000001,"N_COORD97":2543975.23,"ADDRESS":"保東路１１５巷５２號","OBJECTID":434724},"geometry":{"x":178759.04000000097,"y":2543975.2300000004}},{"attributes":{"ID":434750,"DIS_CODE":0,"TOWNNAME":"關廟區","LI":"北花里","LIN":"4鄰","STREET":"中正路","SECT":" ","MAREA":" ","LANE":"６９７巷","ALLEY":" ","HOUSE_NO":"６號","E_COORD97":181929.35999999999,"N_COORD97":2540369.25,"ADDRESS":"中正路６９７巷６號","OBJECTID":434725},"geometry":{"x":181929.36000000127,"y":2540369.2500000019}},{"attributes":{"ID":434751,"DIS_CODE":0,"TOWNNAME":"關廟區","LI":"埤頭里","LIN":"4鄰","STREET":"保東路","SECT":" ","MAREA":" ","LANE":"１１５巷","ALLEY":" ","HOUSE_NO":"６６號","E_COORD97":178795.22,"N_COORD97":2543955.2999999998,"ADDRESS":"保東路１１５巷６６號","OBJECTID":434726},"geometry":{"x":178795.22000000067,"y":2543955.3000000045}},{"attributes":{"ID":434752,"DIS_CODE":0,"TOWNNAME":"關廟區","LI":"埤頭里","LIN":"4鄰","STREET":"保東路","SECT":" ","MAREA":" ","LANE":"１１５巷","ALLEY":" ","HOUSE_NO":"７６號","E_COORD97":178777.22,"N_COORD97":2543956.2999999998,"ADDRESS":"保東路１１５巷７６號","OBJECTID":434727},"geometry":{"x":178777.21999999974,"y":2543956.3000000026}},{"attributes":{"ID":434753,"DIS_CODE":0,"TOWNNAME":"關廟區","LI":"山西里","LIN":"20鄰","STREET":"崇平路","SECT":" ","MAREA":" ","LANE":"１０７巷","ALLEY":" ","HOUSE_NO":"５０號","E_COORD97":180709.62,"N_COORD97":2540301.46,"ADDRESS":"崇平路１０７巷５０號","OBJECTID":434728},"geometry":{"x":180709.62000000197,"y":2540301.4600000009}},{"attributes":{"ID":434754,"DIS_CODE":0,"TOWNNAME":"關廟區","LI":"松腳里","LIN":"14鄰","STREET":"東興路","SECT":" ","MAREA":" ","LANE":"２５１巷","ALLEY":" ","HOUSE_NO":"９號","E_COORD97":181840.47,"N_COORD97":2539593.25,"ADDRESS":"東興路２５１巷９號","OBJECTID":434729},"geometry":{"x":181840.46999999974,"y":2539593.25}},{"attributes":{"ID":434755,"DIS_CODE":0,"TOWNNAME":"關廟區","LI":"五甲里","LIN":"14鄰","STREET":"光復街","SECT":" ","MAREA":" ","LANE":"６３巷","ALLEY":" ","HOUSE_NO":"２３號","E_COORD97":181415.14000000001,"N_COORD97":2539313.2799999998,"ADDRESS":"光復街６３巷２３號","OBJECTID":434730},"geometry":{"x":181415.13999999966,"y":2539313.2800000012}},{"attributes":{"ID":434756,"DIS_CODE":0,"TOWNNAME":"關廟區","LI":"北勢里","LIN":"18鄰","STREET":"中正路","SECT":" ","MAREA":" ","LANE":"９０８巷","ALLEY":" ","HOUSE_NO":"３８號","E_COORD97":181243.51000000001,"N_COORD97":2540383.25,"ADDRESS":"中正路９０８巷３８號","OBJECTID":434731},"geometry":{"x":181243.50999999978,"y":2540383.25}},{"attributes":{"ID":434757,"DIS_CODE":0,"TOWNNAME":"關廟區","LI":"山西里","LIN":"18鄰","STREET":"崇明街","SECT":" ","MAREA":" ","LANE":"６９巷","ALLEY":" ","HOUSE_NO":"１０號","E_COORD97":180927.67000000001,"N_COORD97":2540815.25,"ADDRESS":"崇明街６９巷１０號","OBJECTID":434732},"geometry":{"x":180927.67000000179,"y":2540815.2500000037}},{"attributes":{"ID":434758,"DIS_CODE":0,"TOWNNAME":"關廟區","LI":"山西里","LIN":"17鄰","STREET":"崇明街","SECT":" ","MAREA":" ","LANE":"３巷","ALLEY":" ","HOUSE_NO":"９號","E_COORD97":181025.67000000001,"N_COORD97":2540618.25,"ADDRESS":"崇明街３巷９號","OBJECTID":434733},"geometry":{"x":181025.66999999993,"y":2540618.25}},{"attributes":{"ID":434759,"DIS_CODE":0,"TOWNNAME":"關廟區","LI":"五甲里","LIN":"17鄰","STREET":"五甲路","SECT":" ","MAREA":" ","LANE":"１５０巷","ALLEY":" ","HOUSE_NO":"５號","E_COORD97":181088.07000000001,"N_COORD97":2539014.25,"ADDRESS":"五甲路１５０巷５號","OBJECTID":434734},"geometry":{"x":181088.07000000216,"y":2539014.25}},{"attributes":{"ID":434760,"DIS_CODE":0,"TOWNNAME":"關廟區","LI":"松腳里","LIN":"4鄰","STREET":"松平街","SECT":" ","MAREA":" ","LANE":"５６巷","ALLEY":" ","HOUSE_NO":"５１號","E_COORD97":182007.76999999999,"N_COORD97":2539835.25,"ADDRESS":"松平街５６巷５１號","OBJECTID":434735},"geometry":{"x":182007.76999999955,"y":2539835.2499999981}},{"attributes":{"ID":434761,"DIS_CODE":0,"TOWNNAME":"關廟區","LI":"北花里","LIN":"20鄰","STREET":"中正路","SECT":" ","MAREA":" ","LANE":"１１３巷","ALLEY":" ","HOUSE_NO":"２５號","E_COORD97":183607.26000000001,"N_COORD97":2540843.6200000001,"ADDRESS":"中正路１１３巷２５號","OBJECTID":434736},"geometry":{"x":183607.26000000071,"y":2540843.620000001}},{"attributes":{"ID":434762,"DIS_CODE":0,"TOWNNAME":"關廟區","LI":"五甲里","LIN":"14鄰","STREET":"光復街","SECT":" ","MAREA":" ","LANE":"６３巷","ALLEY":" ","HOUSE_NO":"４３號","E_COORD97":181383.64000000001,"N_COORD97":2539298.2799999998,"ADDRESS":"光復街６３巷４３號","OBJECTID":434737},"geometry":{"x":181383.64000000153,"y":2539298.2799999993}},{"attributes":{"ID":434763,"DIS_CODE":0,"TOWNNAME":"關廟區","LI":"南花里","LIN":"4鄰","STREET":"花園一街","SECT":" ","MAREA":" ","LANE":"８９巷","ALLEY":" ","HOUSE_NO":"３號","E_COORD97":181926.73999999999,"N_COORD97":2540148.25,"ADDRESS":"花園一街８９巷３號","OBJECTID":434738},"geometry":{"x":181926.74000000115,"y":2540148.2500000019}},{"attributes":{"ID":434764,"DIS_CODE":0,"TOWNNAME":"關廟區","LI":"埤頭里","LIN":"4鄰","STREET":"保東路","SECT":" ","MAREA":" ","LANE":"１１５巷","ALLEY":" ","HOUSE_NO":"４０號","E_COORD97":178780.14000000001,"N_COORD97":2543978.23,"ADDRESS":"保東路１１５巷４０號","OBJECTID":434739},"geometry":{"x":178780.1400000006,"y":2543978.2300000004}},{"attributes":{"ID":434765,"DIS_CODE":0,"TOWNNAME":"關廟區","LI":"山西里","LIN":"20鄰","STREET":"崇平路","SECT":" ","MAREA":" ","LANE":"１０７巷","ALLEY":" ","HOUSE_NO":"３２號","E_COORD97":180687.67000000001,"N_COORD97":2540328.5099999998,"ADDRESS":"崇平路１０７巷３２號","OBJECTID":434740},"geometry":{"x":180687.67000000086,"y":2540328.5100000035}},{"attributes":{"ID":434766,"DIS_CODE":0,"TOWNNAME":"關廟區","LI":"山西里","LIN":"13鄰","STREET":"文衡路","SECT":" ","MAREA":" ","LANE":"１３３巷","ALLEY":" ","HOUSE_NO":"９號","E_COORD97":180869.38,"N_COORD97":2540543.0099999998,"ADDRESS":"文衡路１３３巷９號","OBJECTID":434741},"geometry":{"x":180869.38000000082,"y":2540543.0100000016}},{"attributes":{"ID":434767,"DIS_CODE":0,"TOWNNAME":"關廟區","LI":"南花里","LIN":"4鄰","STREET":"園東街","SECT":" ","MAREA":" ","LANE":"１巷","ALLEY":" ","HOUSE_NO":"６號","E_COORD97":182075.51000000001,"N_COORD97":2540047.25,"ADDRESS":"園東街１巷６號","OBJECTID":434742},"geometry":{"x":182075.50999999978,"y":2540047.2500000019}},{"attributes":{"ID":434768,"DIS_CODE":0,"TOWNNAME":"關廟區","LI":"香洋里","LIN":"25鄰","STREET":"南雄路","SECT":"一段","MAREA":" ","LANE":"１１５９巷","ALLEY":" ","HOUSE_NO":"１０號","E_COORD97":181042.28,"N_COORD97":2539949.9399999999,"ADDRESS":"南雄路一段１１５９巷１０號","OBJECTID":434743},"geometry":{"x":181042.28000000026,"y":2539949.9400000013}},{"attributes":{"ID":434769,"DIS_CODE":0,"TOWNNAME":"關廟區","LI":"南花里","LIN":"13鄰","STREET":"花園一街","SECT":" ","MAREA":" ","LANE":"１６２巷","ALLEY":" ","HOUSE_NO":"５號","E_COORD97":181719.19,"N_COORD97":2540189.25,"ADDRESS":"花園一街１６２巷５號","OBJECTID":434744},"geometry":{"x":181719.19000000041,"y":2540189.2500000019}},{"attributes":{"ID":434770,"DIS_CODE":0,"TOWNNAME":"關廟區","LI":"新光里","LIN":"13鄰","STREET":"南寮街","SECT":" ","MAREA":" ","LANE":"２９巷","ALLEY":" ","HOUSE_NO":"２６號","E_COORD97":184325.12,"N_COORD97":2541637.25,"ADDRESS":"南寮街２９巷２６號","OBJECTID":434745},"geometry":{"x":184325.12000000011,"y":2541637.2500000019}},{"attributes":{"ID":434771,"DIS_CODE":0,"TOWNNAME":"關廟區","LI":"深坑里","LIN":"4鄰","STREET":"深坑三街","SECT":" ","MAREA":" ","LANE":"８１巷","ALLEY":" ","HOUSE_NO":"５號","E_COORD97":181909.26999999999,"N_COORD97":2537652.2999999998,"ADDRESS":"深坑三街８１巷５號","OBJECTID":434746},"geometry":{"x":181909.26999999955,"y":2537652.2999999989}},{"attributes":{"ID":434772,"DIS_CODE":0,"TOWNNAME":"關廟區","LI":"北勢里","LIN":"4鄰","STREET":"北美街","SECT":" ","MAREA":" ","LANE":"３２巷","ALLEY":" ","HOUSE_NO":"２２號","E_COORD97":181519.59,"N_COORD97":2540362.2999999998,"ADDRESS":"北美街３２巷２２號","OBJECTID":434747},"geometry":{"x":181519.58999999985,"y":2540362.3000000026}},{"attributes":{"ID":434773,"DIS_CODE":0,"TOWNNAME":"關廟區","LI":"北花里","LIN":"4鄰","STREET":"花園二街","SECT":" ","MAREA":" ","LANE":"７１巷","ALLEY":" ","HOUSE_NO":"１號","E_COORD97":182016.54000000001,"N_COORD97":2540296.25,"ADDRESS":"花園二街７１巷１號","OBJECTID":434748},"geometry":{"x":182016.54000000004,"y":2540296.25}},{"attributes":{"ID":434774,"DIS_CODE":0,"TOWNNAME":"關廟區","LI":"田中里","LIN":"4鄰","STREET":"中大街","SECT":" ","MAREA":" ","LANE":"９６巷","ALLEY":" ","HOUSE_NO":"６號","E_COORD97":184095.34,"N_COORD97":2533619.25,"ADDRESS":"中大街９６巷６號","OBJECTID":434749},"geometry":{"x":184095.34000000078,"y":2533619.25}},{"attributes":{"ID":434775,"DIS_CODE":0,"TOWNNAME":"關廟區","LI":"東勢里","LIN":"24鄰","STREET":"東安街","SECT":" ","MAREA":" ","LANE":"２４１巷","ALLEY":" ","HOUSE_NO":"１１號","E_COORD97":181635.51999999999,"N_COORD97":2539387.3199999998,"ADDRESS":"東安街２４１巷１１號","OBJECTID":434750},"geometry":{"x":181635.52000000048,"y":2539387.3200000003}},{"attributes":{"ID":434776,"DIS_CODE":0,"TOWNNAME":"關廟區","LI":"東勢里","LIN":"4鄰","STREET":"和平路","SECT":" ","MAREA":" ","LANE":"１００巷","ALLEY":" ","HOUSE_NO":"８號","E_COORD97":181797.73999999999,"N_COORD97":2539472.25,"ADDRESS":"和平路１００巷８號","OBJECTID":434751},"geometry":{"x":181797.74000000115,"y":2539472.25}},{"attributes":{"ID":434777,"DIS_CODE":0,"TOWNNAME":"關廟區","LI":"東勢里","LIN":"25鄰","STREET":"東興路","SECT":" ","MAREA":" ","LANE":"１４８巷","ALLEY":" ","HOUSE_NO":"１１號","E_COORD97":181558.82000000001,"N_COORD97":2539514.25,"ADDRESS":"東興路１４８巷１１號","OBJECTID":434752},"geometry":{"x":181558.8200000003,"y":2539514.2500000019}},{"attributes":{"ID":434778,"DIS_CODE":0,"TOWNNAME":"關廟區","LI":"五甲里","LIN":"13鄰","STREET":"光復街","SECT":" ","MAREA":" ","LANE":"９１巷","ALLEY":" ","HOUSE_NO":"６０號","E_COORD97":181403.54000000001,"N_COORD97":2539365.2799999998,"ADDRESS":"光復街９１巷６０號","OBJECTID":434753},"geometry":{"x":181403.54000000097,"y":2539365.2799999993}},{"attributes":{"ID":434779,"DIS_CODE":0,"TOWNNAME":"關廟區","LI":"松腳里","LIN":"4鄰","STREET":"旺萊路","SECT":" ","MAREA":" ","LANE":"４６６巷","ALLEY":" ","HOUSE_NO":"２號","E_COORD97":182158.64000000001,"N_COORD97":2539709.25,"ADDRESS":"旺萊路４６６巷２號","OBJECTID":434754},"geometry":{"x":182158.6400000006,"y":2539709.25}},{"attributes":{"ID":434780,"DIS_CODE":0,"TOWNNAME":"關廟區","LI":"布袋里","LIN":"4鄰","STREET":"長和街","SECT":" ","MAREA":" ","LANE":"１２６巷","ALLEY":" ","HOUSE_NO":"１６號","E_COORD97":182790.73999999999,"N_COORD97":2535150.25,"ADDRESS":"長和街１２６巷１６號","OBJECTID":434755},"geometry":{"x":182790.74000000115,"y":2535150.2500000019}},{"attributes":{"ID":434781,"DIS_CODE":0,"TOWNNAME":"關廟區","LI":"田中里","LIN":"4鄰","STREET":"南雄南路","SECT":" ","MAREA":" ","LANE":"５１５巷","ALLEY":" ","HOUSE_NO":"９號","E_COORD97":184018.29000000001,"N_COORD97":2533884.25,"ADDRESS":"南雄南路５１５巷９號","OBJECTID":434756},"geometry":{"x":184018.29000000004,"y":2533884.25}},{"attributes":{"ID":434782,"DIS_CODE":0,"TOWNNAME":"關廟區","LI":"埤頭里","LIN":"4鄰","STREET":"保東路","SECT":" ","MAREA":" ","LANE":"１１５巷","ALLEY":" ","HOUSE_NO":"１３６號","E_COORD97":178781.01999999999,"N_COORD97":2543922.2999999998,"ADDRESS":"保東路１１５巷１３６號","OBJECTID":434757},"geometry":{"x":178781.02000000048,"y":2543922.3000000026}},{"attributes":{"ID":434783,"DIS_CODE":0,"TOWNNAME":"關廟區","LI":"松腳里","LIN":"13鄰","STREET":"和平路","SECT":" ","MAREA":" ","LANE":"１８６巷","ALLEY":" ","HOUSE_NO":"６號","E_COORD97":181722.54000000001,"N_COORD97":2539639.25,"ADDRESS":"和平路１８６巷６號","OBJECTID":434758},"geometry":{"x":181722.54000000097,"y":2539639.2500000019}},{"attributes":{"ID":434784,"DIS_CODE":0,"TOWNNAME":"關廟區","LI":"松腳里","LIN":"4鄰","STREET":"旺萊路","SECT":" ","MAREA":" ","LANE":"３４３巷","ALLEY":" ","HOUSE_NO":"６號","E_COORD97":182098.73999999999,"N_COORD97":2539761.25,"ADDRESS":"旺萊路３４３巷６號","OBJECTID":434759},"geometry":{"x":182098.74000000022,"y":2539761.2500000019}},{"attributes":{"ID":434785,"DIS_CODE":0,"TOWNNAME":"關廟區","LI":"東勢里","LIN":"26鄰","STREET":"東安街","SECT":" ","MAREA":" ","LANE":"１０９巷","ALLEY":" ","HOUSE_NO":"７號","E_COORD97":181472.26999999999,"N_COORD97":2539636.3199999998,"ADDRESS":"東安街１０９巷７號","OBJECTID":434760},"geometry":{"x":181472.26999999955,"y":2539636.3200000022}},{"attributes":{"ID":434786,"DIS_CODE":0,"TOWNNAME":"關廟區","LI":"北花里","LIN":"13鄰","STREET":"中正路","SECT":" ","MAREA":" ","LANE":"２２１巷","ALLEY":" ","HOUSE_NO":"３３號","E_COORD97":183371.92999999999,"N_COORD97":2540745.73,"ADDRESS":"中正路２２１巷３３號","OBJECTID":434761},"geometry":{"x":183371.93000000156,"y":2540745.7300000023}},{"attributes":{"ID":434787,"DIS_CODE":0,"TOWNNAME":"關廟區","LI":"松腳里","LIN":"4鄰","STREET":"旺萊路","SECT":" ","MAREA":" ","LANE":"３４３巷","ALLEY":" ","HOUSE_NO":"１８號","E_COORD97":182073.89000000001,"N_COORD97":2539761.25,"ADDRESS":"旺萊路３４３巷１８號","OBJECTID":434762},"geometry":{"x":182073.8900000006,"y":2539761.2500000019}},{"attributes":{"ID":434788,"DIS_CODE":0,"TOWNNAME":"關廟區","LI":"北花里","LIN":"18鄰","STREET":"中正路","SECT":" ","MAREA":" ","LANE":"５６７巷","ALLEY":" ","HOUSE_NO":"２７號","E_COORD97":182357.53,"N_COORD97":2540413.4700000002,"ADDRESS":"中正路５６７巷２７號","OBJECTID":434763},"geometry":{"x":182357.53000000026,"y":2540413.4700000007}},{"attributes":{"ID":434789,"DIS_CODE":0,"TOWNNAME":"關廟區","LI":"北花里","LIN":"18鄰","STREET":"中正路","SECT":" ","MAREA":" ","LANE":"５６７巷","ALLEY":" ","HOUSE_NO":"７號","E_COORD97":182319.07999999999,"N_COORD97":2540427.4700000002,"ADDRESS":"中正路５６７巷７號","OBJECTID":434764},"geometry":{"x":182319.08000000101,"y":2540427.4700000007}},{"attributes":{"ID":434790,"DIS_CODE":0,"TOWNNAME":"關廟區","LI":"五甲里","LIN":"18鄰","STREET":"大富街","SECT":" ","MAREA":" ","LANE":"３９巷","ALLEY":" ","HOUSE_NO":"３號","E_COORD97":181001.22,"N_COORD97":2539081.25,"ADDRESS":"大富街３９巷３號","OBJECTID":434765},"geometry":{"x":181001.21999999974,"y":2539081.25}},{"attributes":{"ID":434791,"DIS_CODE":0,"TOWNNAME":"關廟區","LI":"北花里","LIN":"20鄰","STREET":"中正路","SECT":" ","MAREA":" ","LANE":"２０巷","ALLEY":" ","HOUSE_NO":"１０號","E_COORD97":183979.45999999999,"N_COORD97":2541000.25,"ADDRESS":"中正路２０巷１０號","OBJECTID":434766},"geometry":{"x":183979.46000000089,"y":2541000.25}},{"attributes":{"ID":434792,"DIS_CODE":0,"TOWNNAME":"關廟區","LI":"香洋里","LIN":"25鄰","STREET":"民生街","SECT":" ","MAREA":" ","LANE":"２１８巷","ALLEY":" ","HOUSE_NO":"２３號","E_COORD97":180972.14000000001,"N_COORD97":2539958.29,"ADDRESS":"民生街２１８巷２３號","OBJECTID":434767},"geometry":{"x":180972.1400000006,"y":2539958.2899999991}},{"attributes":{"ID":434793,"DIS_CODE":0,"TOWNNAME":"關廟區","LI":"山西里","LIN":"13鄰","STREET":"文衡路","SECT":" ","MAREA":" ","LANE":"１３３巷","ALLEY":" ","HOUSE_NO":"２１號","E_COORD97":180841.82999999999,"N_COORD97":2540548.0099999998,"ADDRESS":"文衡路１３３巷２１號","OBJECTID":434768},"geometry":{"x":180841.83000000007,"y":2540548.0099999998}},{"attributes":{"ID":434794,"DIS_CODE":0,"TOWNNAME":"關廟區","LI":"山西里","LIN":"13鄰","STREET":"文衡路","SECT":" ","MAREA":" ","LANE":"１３３巷","ALLEY":" ","HOUSE_NO":"１１號","E_COORD97":180866.03,"N_COORD97":2540544.0099999998,"ADDRESS":"文衡路１３３巷１１號","OBJECTID":434769},"geometry":{"x":180866.03000000026,"y":2540544.0099999998}},{"attributes":{"ID":434795,"DIS_CODE":0,"TOWNNAME":"關廟區","LI":"北花里","LIN":"13鄰","STREET":"中正路","SECT":" ","MAREA":" ","LANE":"２４５巷","ALLEY":" ","HOUSE_NO":"２號","E_COORD97":183306.26000000001,"N_COORD97":2540855.25,"ADDRESS":"中正路２４５巷２號","OBJECTID":434770},"geometry":{"x":183306.25999999978,"y":2540855.25}},{"attributes":{"ID":434796,"DIS_CODE":0,"TOWNNAME":"關廟區","LI":"北花里","LIN":"18鄰","STREET":"中正路","SECT":" ","MAREA":" ","LANE":"５６７巷","ALLEY":" ","HOUSE_NO":"１２號","E_COORD97":182354.57000000001,"N_COORD97":2540404.0699999998,"ADDRESS":"中正路５６７巷１２號","OBJECTID":434771},"geometry":{"x":182354.57000000123,"y":2540404.0700000022}},{"attributes":{"ID":434797,"DIS_CODE":0,"TOWNNAME":"關廟區","LI":"山西里","LIN":"13鄰","STREET":"文衡路","SECT":" ","MAREA":" ","LANE":"１３３巷","ALLEY":" ","HOUSE_NO":"６號","E_COORD97":180874.78,"N_COORD97":2540556.0099999998,"ADDRESS":"文衡路１３３巷６號","OBJECTID":434772},"geometry":{"x":180874.78000000212,"y":2540556.0100000016}},{"attributes":{"ID":434798,"DIS_CODE":0,"TOWNNAME":"關廟區","LI":"山西里","LIN":"13鄰","STREET":"文衡路","SECT":" ","MAREA":" ","LANE":"１３３巷","ALLEY":" ","HOUSE_NO":"１７號","E_COORD97":180852.63,"N_COORD97":2540546.0099999998,"ADDRESS":"文衡路１３３巷１７號","OBJECTID":434773},"geometry":{"x":180852.62999999989,"y":2540546.0100000016}},{"attributes":{"ID":434799,"DIS_CODE":0,"TOWNNAME":"關廟區","LI":"山西里","LIN":"4鄰","STREET":"文衡路","SECT":" ","MAREA":" ","LANE":"８１巷","ALLEY":" ","HOUSE_NO":"２號","E_COORD97":180870.69,"N_COORD97":2540266.3300000001,"ADDRESS":"文衡路８１巷２號","OBJECTID":434774},"geometry":{"x":180870.69000000134,"y":2540266.3300000019}},{"attributes":{"ID":434800,"DIS_CODE":0,"TOWNNAME":"關廟區","LI":"布袋里","LIN":"5鄰","STREET":"長文街","SECT":" ","MAREA":" ","LANE":"１０５巷","ALLEY":" ","HOUSE_NO":"１號","E_COORD97":182923.89000000001,"N_COORD97":2535412.2999999998,"ADDRESS":"長文街１０５巷１號","OBJECTID":434775},"geometry":{"x":182923.88999999966,"y":2535412.3000000026}},{"attributes":{"ID":434801,"DIS_CODE":0,"TOWNNAME":"關廟區","LI":"松腳里","LIN":"18鄰","STREET":"中山路","SECT":"一段","MAREA":" ","LANE":"８９巷","ALLEY":" ","HOUSE_NO":"１５號","E_COORD97":181932.66,"N_COORD97":2539897.2799999998,"ADDRESS":"中山路一段８９巷１５號","OBJECTID":434776},"geometry":{"x":181932.66000000015,"y":2539897.2799999993}},{"attributes":{"ID":434802,"DIS_CODE":0,"TOWNNAME":"關廟區","LI":"山西里","LIN":"18鄰","STREET":"文衡路","SECT":" ","MAREA":" ","LANE":"３９０巷","ALLEY":" ","HOUSE_NO":"１號","E_COORD97":180921.44,"N_COORD97":2540919.3300000001,"ADDRESS":"文衡路３９０巷１號","OBJECTID":434777},"geometry":{"x":180921.44000000134,"y":2540919.3300000001}},{"attributes":{"ID":434803,"DIS_CODE":0,"TOWNNAME":"關廟區","LI":"山西里","LIN":"13鄰","STREET":"文衡路","SECT":" ","MAREA":" ","LANE":"１３３巷","ALLEY":" ","HOUSE_NO":"４１號","E_COORD97":180841.03,"N_COORD97":2540585.0099999998,"ADDRESS":"文衡路１３３巷４１號","OBJECTID":434778},"geometry":{"x":180841.03000000119,"y":2540585.0099999998}},{"attributes":{"ID":434804,"DIS_CODE":0,"TOWNNAME":"關廟區","LI":"山西里","LIN":"4鄰","STREET":"文衡路","SECT":" ","MAREA":" ","LANE":"８１巷","ALLEY":" ","HOUSE_NO":"３號","E_COORD97":180866.09,"N_COORD97":2540267.3300000001,"ADDRESS":"文衡路８１巷３號","OBJECTID":434779},"geometry":{"x":180866.09000000078,"y":2540267.3300000001}},{"attributes":{"ID":434805,"DIS_CODE":0,"TOWNNAME":"關廟區","LI":"山西里","LIN":"20鄰","STREET":"崇平路","SECT":" ","MAREA":" ","LANE":"１０７巷","ALLEY":" ","HOUSE_NO":"６０號","E_COORD97":180726.51999999999,"N_COORD97":2540299.46,"ADDRESS":"崇平路１０７巷６０號","OBJECTID":434780},"geometry":{"x":180726.52000000142,"y":2540299.4600000046}},{"attributes":{"ID":434806,"DIS_CODE":0,"TOWNNAME":"關廟區","LI":"山西里","LIN":"20鄰","STREET":"崇平路","SECT":" ","MAREA":" ","LANE":"１０７巷","ALLEY":" ","HOUSE_NO":"１１號","E_COORD97":180715.72,"N_COORD97":2540312.46,"ADDRESS":"崇平路１０７巷１１號","OBJECTID":434781},"geometry":{"x":180715.72000000067,"y":2540312.4600000009}},{"attributes":{"ID":434807,"DIS_CODE":0,"TOWNNAME":"關廟區","LI":"山西里","LIN":"20鄰","STREET":"崇平路","SECT":" ","MAREA":" ","LANE":"１０７巷","ALLEY":" ","HOUSE_NO":"４２號","E_COORD97":180686.17000000001,"N_COORD97":2540310.5099999998,"ADDRESS":"崇平路１０７巷４２號","OBJECTID":434782},"geometry":{"x":180686.16999999993,"y":2540310.5099999998}},{"attributes":{"ID":434808,"DIS_CODE":0,"TOWNNAME":"關廟區","LI":"山西里","LIN":"20鄰","STREET":"崇平路","SECT":" ","MAREA":" ","LANE":"１０７巷","ALLEY":" ","HOUSE_NO":"５號","E_COORD97":180701.47,"N_COORD97":2540315.46,"ADDRESS":"崇平路１０７巷５號","OBJECTID":434783},"geometry":{"x":180701.46999999974,"y":2540315.4600000009}},{"attributes":{"ID":434809,"DIS_CODE":0,"TOWNNAME":"關廟區","LI":"山西里","LIN":"20鄰","STREET":"崇平路","SECT":" ","MAREA":" ","LANE":"１０７巷","ALLEY":" ","HOUSE_NO":"４６號","E_COORD97":180697.32000000001,"N_COORD97":2540302.46,"ADDRESS":"崇平路１０７巷４６號","OBJECTID":434784},"geometry":{"x":180697.32000000123,"y":2540302.4600000009}},{"attributes":{"ID":434810,"DIS_CODE":0,"TOWNNAME":"關廟區","LI":"五甲里","LIN":"17鄰","STREET":"五甲路","SECT":" ","MAREA":" ","LANE":"１５０巷","ALLEY":" ","HOUSE_NO":"１號","E_COORD97":181099.17000000001,"N_COORD97":2539022.25,"ADDRESS":"五甲路１５０巷１號","OBJECTID":434785},"geometry":{"x":181099.17000000086,"y":2539022.2500000019}},{"attributes":{"ID":434811,"DIS_CODE":0,"TOWNNAME":"關廟區","LI":"山西里","LIN":"20鄰","STREET":"崇平路","SECT":" ","MAREA":" ","LANE":"１０７巷","ALLEY":" ","HOUSE_NO":"８號","E_COORD97":180694.26999999999,"N_COORD97":2540367.25,"ADDRESS":"崇平路１０７巷８號","OBJECTID":434786},"geometry":{"x":180694.26999999862,"y":2540367.25}},{"attributes":{"ID":434812,"DIS_CODE":0,"TOWNNAME":"關廟區","LI":"山西里","LIN":"20鄰","STREET":"崇平路","SECT":" ","MAREA":" ","LANE":"１０７巷","ALLEY":" ","HOUSE_NO":"５２號","E_COORD97":180713.82000000001,"N_COORD97":2540301.46,"ADDRESS":"崇平路１０７巷５２號","OBJECTID":434787},"geometry":{"x":180713.82000000123,"y":2540301.4600000009}},{"attributes":{"ID":434813,"DIS_CODE":0,"TOWNNAME":"關廟區","LI":"山西里","LIN":"20鄰","STREET":"崇平路","SECT":" ","MAREA":" ","LANE":"１０７巷","ALLEY":" ","HOUSE_NO":"２８號","E_COORD97":180688.47,"N_COORD97":2540336.5099999998,"ADDRESS":"崇平路１０７巷２８號","OBJECTID":434788},"geometry":{"x":180688.47000000067,"y":2540336.5100000016}},{"attributes":{"ID":434814,"DIS_CODE":0,"TOWNNAME":"關廟區","LI":"山西里","LIN":"13鄰","STREET":"文衡路","SECT":" ","MAREA":" ","LANE":"１３３巷","ALLEY":" ","HOUSE_NO":"１８號","E_COORD97":180852.63,"N_COORD97":2540558.0099999998,"ADDRESS":"文衡路１３３巷１８號","OBJECTID":434789},"geometry":{"x":180852.62999999989,"y":2540558.0099999998}},{"attributes":{"ID":434815,"DIS_CODE":0,"TOWNNAME":"關廟區","LI":"田中里","LIN":"4鄰","STREET":"田大路","SECT":" ","MAREA":" ","LANE":"８０巷","ALLEY":" ","HOUSE_NO":"１６號","E_COORD97":184210.98999999999,"N_COORD97":2533751.25,"ADDRESS":"田大路８０巷１６號","OBJECTID":434790},"geometry":{"x":184210.98999999929,"y":2533751.2500000019}},{"attributes":{"ID":434816,"DIS_CODE":0,"TOWNNAME":"關廟區","LI":"東勢里","LIN":"4鄰","STREET":"和平路","SECT":" ","MAREA":" ","LANE":"７８巷","ALLEY":" ","HOUSE_NO":"３號","E_COORD97":181739.39000000001,"N_COORD97":2539450.25,"ADDRESS":"和平路７８巷３號","OBJECTID":434791},"geometry":{"x":181739.38999999966,"y":2539450.2500000019}},{"attributes":{"ID":434817,"DIS_CODE":0,"TOWNNAME":"關廟區","LI":"北花里","LIN":"4鄰","STREET":"花園二街","SECT":" ","MAREA":" ","LANE":"８１巷","ALLEY":" ","HOUSE_NO":"１６號","E_COORD97":181974.09,"N_COORD97":2540262.25,"ADDRESS":"花園二街８１巷１６號","OBJECTID":434792},"geometry":{"x":181974.09000000171,"y":2540262.25}},{"attributes":{"ID":434818,"DIS_CODE":0,"TOWNNAME":"關廟區","LI":"山西里","LIN":"13鄰","STREET":"文衡路","SECT":" ","MAREA":" ","LANE":"１３３巷","ALLEY":" ","HOUSE_NO":"８號","E_COORD97":180870.17999999999,"N_COORD97":2540556.0099999998,"ADDRESS":"文衡路１３３巷８號","OBJECTID":434793},"geometry":{"x":180870.18000000063,"y":2540556.0100000016}},{"attributes":{"ID":434819,"DIS_CODE":0,"TOWNNAME":"關廟區","LI":"松腳里","LIN":"17鄰","STREET":"民族街","SECT":" ","MAREA":" ","LANE":"１９巷","ALLEY":" ","HOUSE_NO":"５號","E_COORD97":181577.34,"N_COORD97":2539767.29,"ADDRESS":"民族街１９巷５號","OBJECTID":434794},"geometry":{"x":181577.34000000171,"y":2539767.290000001}},{"attributes":{"ID":434820,"DIS_CODE":0,"TOWNNAME":"關廟區","LI":"山西里","LIN":"13鄰","STREET":"文衡路","SECT":" ","MAREA":" ","LANE":"１３３巷","ALLEY":" ","HOUSE_NO":"２９號","E_COORD97":180838.42999999999,"N_COORD97":2540559.0099999998,"ADDRESS":"文衡路１３３巷２９號","OBJECTID":434795},"geometry":{"x":180838.4299999997,"y":2540559.0100000035}},{"attributes":{"ID":434821,"DIS_CODE":0,"TOWNNAME":"關廟區","LI":"山西里","LIN":"13鄰","STREET":"文衡路","SECT":" ","MAREA":" ","LANE":"１３３巷","ALLEY":" ","HOUSE_NO":"２３號","E_COORD97":180833.03,"N_COORD97":2540549.0099999998,"ADDRESS":"文衡路１３３巷２３號","OBJECTID":434796},"geometry":{"x":180833.03000000119,"y":2540549.0100000035}},{"attributes":{"ID":434822,"DIS_CODE":0,"TOWNNAME":"關廟區","LI":"山西里","LIN":"17鄰","STREET":"崇明街","SECT":" ","MAREA":" ","LANE":"３巷","ALLEY":" ","HOUSE_NO":"６號","E_COORD97":181035.26999999999,"N_COORD97":2540627.25,"ADDRESS":"崇明街３巷６號","OBJECTID":434797},"geometry":{"x":181035.27000000048,"y":2540627.25}},{"attributes":{"ID":434823,"DIS_CODE":0,"TOWNNAME":"關廟區","LI":"山西里","LIN":"13鄰","STREET":"文衡路","SECT":" ","MAREA":" ","LANE":"１３３巷","ALLEY":" ","HOUSE_NO":"２５號","E_COORD97":180826.13,"N_COORD97":2540550.0099999998,"ADDRESS":"文衡路１３３巷２５號","OBJECTID":434798},"geometry":{"x":180826.12999999896,"y":2540550.0100000016}},{"attributes":{"ID":434824,"DIS_CODE":0,"TOWNNAME":"關廟區","LI":"山西里","LIN":"13鄰","STREET":"文衡路","SECT":" ","MAREA":" ","LANE":"１３３巷","ALLEY":" ","HOUSE_NO":"２０號","E_COORD97":180848.03,"N_COORD97":2540558.0099999998,"ADDRESS":"文衡路１３３巷２０號","OBJECTID":434799},"geometry":{"x":180848.03000000119,"y":2540558.0099999998}},{"attributes":{"ID":434825,"DIS_CODE":0,"TOWNNAME":"關廟區","LI":"山西里","LIN":"13鄰","STREET":"文衡路","SECT":" ","MAREA":" ","LANE":"１３３巷","ALLEY":" ","HOUSE_NO":"１２號","E_COORD97":180862.23000000001,"N_COORD97":2540557.0099999998,"ADDRESS":"文衡路１３３巷１２號","OBJECTID":434800},"geometry":{"x":180862.23000000138,"y":2540557.0100000016}}]}