{"displayFieldName":"TOWNNAME","fieldAliases":{"ID":"ID","DIS_CODE":"DIS_CODE","TOWNNAME":"TOWNNAME","LI":"LI","LIN":"LIN","STREET":"STREET","SECT":"SECT","MAREA":"MAREA","LANE":"LANE","ALLEY":"ALLEY","HOUSE_NO":"HOUSE_NO","E_COORD97":"E_COORD97","N_COORD97":"N_COORD97","ADDRESS":"ADDRESS","OBJECTID":"OBJECTID"},"geometryType":"esriGeometryPoint","spatialReference":{"wkid":102443,"latestWkid":3826},"fields":[{"name":"ID","type":"esriFieldTypeDouble","alias":"ID"},{"name":"DIS_CODE","type":"esriFieldTypeInteger","alias":"DIS_CODE"},{"name":"TOWNNAME","type":"esriFieldTypeString","alias":"TOWNNAME","length":8},{"name":"LI","type":"esriFieldTypeString","alias":"LI","length":8},{"name":"LIN","type":"esriFieldTypeString","alias":"LIN","length":12},{"name":"STREET","type":"esriFieldTypeString","alias":"STREET","length":20},{"name":"SECT","type":"esriFieldTypeString","alias":"SECT","length":8},{"name":"MAREA","type":"esriFieldTypeString","alias":"MAREA","length":12},{"name":"LANE","type":"esriFieldTypeString","alias":"LANE","length":10},{"name":"ALLEY","type":"esriFieldTypeString","alias":"ALLEY","length":10},{"name":"HOUSE_NO","type":"esriFieldTypeString","alias":"HOUSE_NO","length":20},{"name":"E_COORD97","type":"esriFieldTypeDouble","alias":"E_COORD97"},{"name":"N_COORD97","type":"esriFieldTypeDouble","alias":"N_COORD97"},{"name":"ADDRESS","type":"esriFieldTypeString","alias":"ADDRESS","length":50},{"name":"OBJECTID","type":"esriFieldTypeOID","alias":"OBJECTID"}],"features":[{"attributes":{"ID":177802,"DIS_CODE":0,"TOWNNAME":"永康區","LI":"埔園里","LIN":"38鄰","STREET":"龍國街","SECT":" ","MAREA":" ","LANE":"１２８巷","ALLEY":"１９弄","HOUSE_NO":"１８號","E_COORD97":174249.23999999999,"N_COORD97":2548009.5800000001,"ADDRESS":"龍國街１２８巷１９弄１８號","OBJECTID":177801},"geometry":{"x":174249.24000000115,"y":2548009.5800000001}},{"attributes":{"ID":177803,"DIS_CODE":0,"TOWNNAME":"永康區","LI":"神洲里","LIN":"18鄰","STREET":"忠孝路","SECT":" ","MAREA":" ","LANE":"１３８巷","ALLEY":"３弄","HOUSE_NO":"６號","E_COORD97":172142.95999999999,"N_COORD97":2545039.7400000002,"ADDRESS":"忠孝路１３８巷３弄６號","OBJECTID":177802},"geometry":{"x":172142.96000000183,"y":2545039.7399999984}},{"attributes":{"ID":177804,"DIS_CODE":0,"TOWNNAME":"永康區","LI":"南灣里","LIN":"41鄰","STREET":"南興路","SECT":" ","MAREA":" ","LANE":"１１２巷","ALLEY":"８２弄","HOUSE_NO":"１１號","E_COORD97":174653.10999999999,"N_COORD97":2544508.2799999998,"ADDRESS":"南興路１１２巷８２弄１１號","OBJECTID":177803},"geometry":{"x":174653.11000000127,"y":2544508.2799999993}},{"attributes":{"ID":177805,"DIS_CODE":0,"TOWNNAME":"永康區","LI":"埔園里","LIN":"38鄰","STREET":"龍國街","SECT":" ","MAREA":" ","LANE":"１２８巷","ALLEY":"２５弄","HOUSE_NO":"１０號","E_COORD97":174232.01000000001,"N_COORD97":2547988.73,"ADDRESS":"龍國街１２８巷２５弄１０號","OBJECTID":177804},"geometry":{"x":174232.00999999978,"y":2547988.7300000004}},{"attributes":{"ID":177806,"DIS_CODE":0,"TOWNNAME":"永康區","LI":"埔園里","LIN":"20鄰","STREET":"四維街","SECT":" ","MAREA":" ","LANE":"１０２巷","ALLEY":"２３弄","HOUSE_NO":"１０號","E_COORD97":173438.92000000001,"N_COORD97":2548275.75,"ADDRESS":"四維街１０２巷２３弄１０號","OBJECTID":177805},"geometry":{"x":173438.92000000086,"y":2548275.7500000019}},{"attributes":{"ID":177807,"DIS_CODE":0,"TOWNNAME":"永康區","LI":"烏竹里","LIN":"13鄰","STREET":"竹園二街","SECT":" ","MAREA":" ","LANE":"１６０巷","ALLEY":"２２弄","HOUSE_NO":"３號","E_COORD97":174592.39999999999,"N_COORD97":2549201.6200000001,"ADDRESS":"竹園二街１６０巷２２弄３號","OBJECTID":177806},"geometry":{"x":174592.4000000013,"y":2549201.6200000048}},{"attributes":{"ID":177808,"DIS_CODE":0,"TOWNNAME":"永康區","LI":"埔園里","LIN":"38鄰","STREET":"龍國街","SECT":" ","MAREA":" ","LANE":"１２８巷","ALLEY":"１９弄","HOUSE_NO":"６號","E_COORD97":174223.66,"N_COORD97":2548012.1600000001,"ADDRESS":"龍國街１２８巷１９弄６號","OBJECTID":177807},"geometry":{"x":174223.66000000108,"y":2548012.1600000001}},{"attributes":{"ID":177809,"DIS_CODE":0,"TOWNNAME":"永康區","LI":"南灣里","LIN":"42鄰","STREET":"南興路","SECT":" ","MAREA":" ","LANE":"１１２巷","ALLEY":"８２弄","HOUSE_NO":"１５號","E_COORD97":174660.14000000001,"N_COORD97":2544494.6600000001,"ADDRESS":"南興路１１２巷８２弄１５號","OBJECTID":177808},"geometry":{"x":174660.13999999966,"y":2544494.6600000039}},{"attributes":{"ID":177810,"DIS_CODE":0,"TOWNNAME":"永康區","LI":"埔園里","LIN":"20鄰","STREET":"四維街","SECT":" ","MAREA":" ","LANE":"１０２巷","ALLEY":"３０弄","HOUSE_NO":"１號","E_COORD97":173458.23999999999,"N_COORD97":2548217.9900000002,"ADDRESS":"四維街１０２巷３０弄１號","OBJECTID":177809},"geometry":{"x":173458.24000000022,"y":2548217.9900000002}},{"attributes":{"ID":177811,"DIS_CODE":0,"TOWNNAME":"善化區","LI":"六德里","LIN":"16鄰","STREET":" ","SECT":" ","MAREA":"六分寮","LANE":" ","ALLEY":" ","HOUSE_NO":"３３３之１５號","E_COORD97":178300.60000000001,"N_COORD97":2561399.77,"ADDRESS":"六分寮３３３之１５號","OBJECTID":177810},"geometry":{"x":178300.60000000056,"y":2561399.7699999996}},{"attributes":{"ID":177812,"DIS_CODE":0,"TOWNNAME":"永康區","LI":"埔園里","LIN":"20鄰","STREET":"四維街","SECT":" ","MAREA":" ","LANE":"１０２巷","ALLEY":"３０弄","HOUSE_NO":"３號","E_COORD97":173459.44,"N_COORD97":2548214,"ADDRESS":"四維街１０２巷３０弄３號","OBJECTID":177811},"geometry":{"x":173459.44000000134,"y":2548214}},{"attributes":{"ID":177813,"DIS_CODE":0,"TOWNNAME":"永康區","LI":"埔園里","LIN":"20鄰","STREET":"四維街","SECT":" ","MAREA":" ","LANE":"１０２巷","ALLEY":"２３弄","HOUSE_NO":"７號","E_COORD97":173431.66,"N_COORD97":2548264.5299999998,"ADDRESS":"四維街１０２巷２３弄７號","OBJECTID":177812},"geometry":{"x":173431.66000000015,"y":2548264.5299999975}},{"attributes":{"ID":177814,"DIS_CODE":0,"TOWNNAME":"永康區","LI":"埔園里","LIN":"20鄰","STREET":"四維街","SECT":" ","MAREA":" ","LANE":"１０２巷","ALLEY":"２３弄","HOUSE_NO":"４號","E_COORD97":173441.70999999999,"N_COORD97":2548262.7400000002,"ADDRESS":"四維街１０２巷２３弄４號","OBJECTID":177813},"geometry":{"x":173441.71000000089,"y":2548262.7400000002}},{"attributes":{"ID":177815,"DIS_CODE":0,"TOWNNAME":"永康區","LI":"南灣里","LIN":"41鄰","STREET":"南興路","SECT":" ","MAREA":" ","LANE":"１１２巷","ALLEY":"８２弄","HOUSE_NO":"１３號","E_COORD97":174657.53,"N_COORD97":2544510.0299999998,"ADDRESS":"南興路１１２巷８２弄１３號","OBJECTID":177814},"geometry":{"x":174657.53000000119,"y":2544510.0299999993}},{"attributes":{"ID":177816,"DIS_CODE":0,"TOWNNAME":"永康區","LI":"烏竹里","LIN":"13鄰","STREET":"竹園二街","SECT":" ","MAREA":" ","LANE":"１６０巷","ALLEY":"２２弄","HOUSE_NO":"３１號","E_COORD97":174557.69,"N_COORD97":2549191.6600000001,"ADDRESS":"竹園二街１６０巷２２弄３１號","OBJECTID":177815},"geometry":{"x":174557.69000000134,"y":2549191.660000002}},{"attributes":{"ID":177817,"DIS_CODE":0,"TOWNNAME":"永康區","LI":"埔園里","LIN":"18鄰","STREET":"龍埔街","SECT":" ","MAREA":" ","LANE":"４６７巷","ALLEY":"２４弄","HOUSE_NO":"１號","E_COORD97":173555.66,"N_COORD97":2548261.2400000002,"ADDRESS":"龍埔街４６７巷２４弄１號","OBJECTID":177816},"geometry":{"x":173555.66000000201,"y":2548261.2400000021}},{"attributes":{"ID":177818,"DIS_CODE":0,"TOWNNAME":"永康區","LI":"埔園里","LIN":"20鄰","STREET":"四維街","SECT":" ","MAREA":" ","LANE":"１０２巷","ALLEY":"３０弄","HOUSE_NO":"２號","E_COORD97":173448.88,"N_COORD97":2548215.6200000001,"ADDRESS":"四維街１０２巷３０弄２號","OBJECTID":177817},"geometry":{"x":173448.88000000082,"y":2548215.6200000029}},{"attributes":{"ID":177819,"DIS_CODE":0,"TOWNNAME":"佳里區","LI":"安西里","LIN":" ","STREET":"文化路","SECT":" ","MAREA":" ","LANE":"６１２巷","ALLEY":"１２弄","HOUSE_NO":"１３號","E_COORD97":164705.03,"N_COORD97":2562649.54,"ADDRESS":"文化路６１２巷１２弄１３號","OBJECTID":177818},"geometry":{"x":164705.03000000119,"y":2562649.5399999972}},{"attributes":{"ID":177820,"DIS_CODE":0,"TOWNNAME":"佳里區","LI":"建南里","LIN":"36鄰","STREET":"成功路","SECT":" ","MAREA":" ","LANE":"２０２巷","ALLEY":"４弄","HOUSE_NO":"２號之１","E_COORD97":165304.14000000001,"N_COORD97":2561198.2599999998,"ADDRESS":"成功路２０２巷４弄２號之１","OBJECTID":177819},"geometry":{"x":165304.13999999966,"y":2561198.2600000016}},{"attributes":{"ID":177821,"DIS_CODE":0,"TOWNNAME":"佳里區","LI":"建南里","LIN":"26鄰","STREET":"成功路","SECT":" ","MAREA":" ","LANE":"２０２巷","ALLEY":"８弄","HOUSE_NO":"６號","E_COORD97":165231.72,"N_COORD97":2561196.5499999998,"ADDRESS":"成功路２０２巷８弄６號","OBJECTID":177820},"geometry":{"x":165231.72000000067,"y":2561196.5500000007}},{"attributes":{"ID":177822,"DIS_CODE":0,"TOWNNAME":"佳里區","LI":"六安里","LIN":" ","STREET":"林園街","SECT":" ","MAREA":" ","LANE":"１７４巷","ALLEY":"１８弄","HOUSE_NO":"１５號","E_COORD97":165680.85000000001,"N_COORD97":2562942.3599999999,"ADDRESS":"林園街１７４巷１８弄１５號","OBJECTID":177821},"geometry":{"x":165680.84999999963,"y":2562942.3599999994}},{"attributes":{"ID":177823,"DIS_CODE":0,"TOWNNAME":"佳里區","LI":"六安里","LIN":" ","STREET":"林園街","SECT":" ","MAREA":" ","LANE":"１７４巷","ALLEY":"１８弄","HOUSE_NO":"２３號","E_COORD97":165660.32999999999,"N_COORD97":2562959.6699999999,"ADDRESS":"林園街１７４巷１８弄２３號","OBJECTID":177822},"geometry":{"x":165660.33000000101,"y":2562959.6700000018}},{"attributes":{"ID":177824,"DIS_CODE":0,"TOWNNAME":"佳里區","LI":"鎮山里","LIN":" ","STREET":"鎮山街","SECT":" ","MAREA":" ","LANE":"３４６巷","ALLEY":"１８弄","HOUSE_NO":"１號","E_COORD97":166141,"N_COORD97":2560894.3700000001,"ADDRESS":"鎮山街３４６巷１８弄１號","OBJECTID":177823},"geometry":{"x":166141,"y":2560894.3700000029}},{"attributes":{"ID":177825,"DIS_CODE":0,"TOWNNAME":"安南區","LI":"布袋里","LIN":"14鄰","STREET":"長和路","SECT":"四段","MAREA":" ","LANE":"２５６巷","ALLEY":"１２弄","HOUSE_NO":"３２號","E_COORD97":168814.16,"N_COORD97":2551869.1600000001,"ADDRESS":"長和路四段２５６巷１２弄３２號","OBJECTID":177824},"geometry":{"x":168814.16000000201,"y":2551869.160000002}},{"attributes":{"ID":177826,"DIS_CODE":0,"TOWNNAME":"安南區","LI":"溪心里","LIN":"4鄰","STREET":"安吉路","SECT":"二段","MAREA":" ","LANE":"９７巷","ALLEY":"１弄","HOUSE_NO":"８號","E_COORD97":167020.73000000001,"N_COORD97":2550816.4100000001,"ADDRESS":"安吉路二段９７巷１弄８號","OBJECTID":177825},"geometry":{"x":167020.73000000138,"y":2550816.410000002}},{"attributes":{"ID":177827,"DIS_CODE":0,"TOWNNAME":"安南區","LI":"溪心里","LIN":"4鄰","STREET":"安吉路","SECT":"二段","MAREA":" ","LANE":"９７巷","ALLEY":"１弄","HOUSE_NO":"９號","E_COORD97":167020.17000000001,"N_COORD97":2550808.2599999998,"ADDRESS":"安吉路二段９７巷１弄９號","OBJECTID":177826},"geometry":{"x":167020.16999999993,"y":2550808.2599999998}},{"attributes":{"ID":177828,"DIS_CODE":0,"TOWNNAME":"安南區","LI":"溪心里","LIN":"4鄰","STREET":"安吉路","SECT":"二段","MAREA":" ","LANE":"９７巷","ALLEY":"１弄","HOUSE_NO":"１０號","E_COORD97":167019.42999999999,"N_COORD97":2550801.96,"ADDRESS":"安吉路二段９７巷１弄１０號","OBJECTID":177827},"geometry":{"x":167019.4299999997,"y":2550801.9600000009}},{"attributes":{"ID":177829,"DIS_CODE":0,"TOWNNAME":"安南區","LI":"溪心里","LIN":"4鄰","STREET":"安吉路","SECT":"二段","MAREA":" ","LANE":"９７巷","ALLEY":"１弄","HOUSE_NO":"１１號","E_COORD97":167019.25,"N_COORD97":2550796.7799999998,"ADDRESS":"安吉路二段９７巷１弄１１號","OBJECTID":177828},"geometry":{"x":167019.25,"y":2550796.7800000012}},{"attributes":{"ID":177830,"DIS_CODE":0,"TOWNNAME":"安南區","LI":"梅花里","LIN":"1鄰","STREET":"安中路","SECT":"一段","MAREA":" ","LANE":"５５７巷","ALLEY":"１９弄","HOUSE_NO":"１６６號","E_COORD97":168165.98999999999,"N_COORD97":2548785.0499999998,"ADDRESS":"安中路一段５５７巷１９弄１６６號","OBJECTID":177829},"geometry":{"x":168165.99000000022,"y":2548785.0500000045}},{"attributes":{"ID":177831,"DIS_CODE":0,"TOWNNAME":"安南區","LI":"梅花里","LIN":"1鄰","STREET":"安中路","SECT":"一段","MAREA":" ","LANE":"５５７巷","ALLEY":"１９弄","HOUSE_NO":"１６２號","E_COORD97":168163.76999999999,"N_COORD97":2548787.2799999998,"ADDRESS":"安中路一段５５７巷１９弄１６２號","OBJECTID":177830},"geometry":{"x":168163.77000000048,"y":2548787.2799999993}},{"attributes":{"ID":177832,"DIS_CODE":0,"TOWNNAME":"安南區","LI":"梅花里","LIN":"1鄰","STREET":"安中路","SECT":"一段","MAREA":" ","LANE":"５５７巷","ALLEY":"１９弄","HOUSE_NO":"１６０號","E_COORD97":168161.85999999999,"N_COORD97":2548788.5499999998,"ADDRESS":"安中路一段５５７巷１９弄１６０號","OBJECTID":177831},"geometry":{"x":168161.86000000034,"y":2548788.5500000026}},{"attributes":{"ID":177833,"DIS_CODE":0,"TOWNNAME":"安南區","LI":"城南里","LIN":"13鄰","STREET":"城西街","SECT":"二段","MAREA":" ","LANE":"２６３巷","ALLEY":"７０弄","HOUSE_NO":"１８號","E_COORD97":159648.91,"N_COORD97":2550844.6699999999,"ADDRESS":"城西街二段２６３巷７０弄１８號","OBJECTID":177832},"geometry":{"x":159648.91000000108,"y":2550844.6700000037}},{"attributes":{"ID":177834,"DIS_CODE":0,"TOWNNAME":"安南區","LI":"城南里","LIN":"13鄰","STREET":"城西街","SECT":"二段","MAREA":" ","LANE":"２６３巷","ALLEY":"７０弄","HOUSE_NO":"１６號","E_COORD97":159649.23000000001,"N_COORD97":2550840.0699999998,"ADDRESS":"城西街二段２６３巷７０弄１６號","OBJECTID":177833},"geometry":{"x":159649.23000000045,"y":2550840.0700000022}},{"attributes":{"ID":177835,"DIS_CODE":0,"TOWNNAME":"安南區","LI":"溪心里","LIN":"4鄰","STREET":"安吉路","SECT":"二段","MAREA":" ","LANE":"９７巷","ALLEY":"１弄","HOUSE_NO":"１２號","E_COORD97":167018.09522300001,"N_COORD97":2550795.8754099999,"ADDRESS":"安吉路二段９７巷１弄１２號","OBJECTID":177834},"geometry":{"x":167018.09522299934,"y":2550795.875413999}},{"attributes":{"ID":177836,"DIS_CODE":0,"TOWNNAME":"安南區","LI":"城南里","LIN":"13鄰","STREET":"城西街","SECT":"二段","MAREA":" ","LANE":"２６３巷","ALLEY":"７０弄","HOUSE_NO":"１２號","E_COORD97":159649.70000000001,"N_COORD97":2550834.5099999998,"ADDRESS":"城西街二段２６３巷７０弄１２號","OBJECTID":177835},"geometry":{"x":159649.70000000205,"y":2550834.5099999998}},{"attributes":{"ID":177837,"DIS_CODE":0,"TOWNNAME":"安南區","LI":"城南里","LIN":"13鄰","STREET":"城西街","SECT":"二段","MAREA":" ","LANE":"２６３巷","ALLEY":"７０弄","HOUSE_NO":"１０號","E_COORD97":159649.54999999999,"N_COORD97":2550829.4300000002,"ADDRESS":"城西街二段２６３巷７０弄１０號","OBJECTID":177836},"geometry":{"x":159649.54999999981,"y":2550829.4300000016}},{"attributes":{"ID":177838,"DIS_CODE":0,"TOWNNAME":"安南區","LI":"城南里","LIN":"13鄰","STREET":"城西街","SECT":"二段","MAREA":" ","LANE":"２６３巷","ALLEY":"７０弄","HOUSE_NO":"８號","E_COORD97":159649.70000000001,"N_COORD97":2550824.6699999999,"ADDRESS":"城西街二段２６３巷７０弄８號","OBJECTID":177837},"geometry":{"x":159649.70000000205,"y":2550824.6700000018}},{"attributes":{"ID":177839,"DIS_CODE":0,"TOWNNAME":"安南區","LI":"城南里","LIN":"13鄰","STREET":"城西街","SECT":"二段","MAREA":" ","LANE":"２６３巷","ALLEY":"７０弄","HOUSE_NO":"６號","E_COORD97":159649.85999999999,"N_COORD97":2550819.4300000002,"ADDRESS":"城西街二段２６３巷７０弄６號","OBJECTID":177838},"geometry":{"x":159649.86000000034,"y":2550819.4300000016}},{"attributes":{"ID":177840,"DIS_CODE":0,"TOWNNAME":"安南區","LI":"城南里","LIN":"13鄰","STREET":"城西街","SECT":"二段","MAREA":" ","LANE":"２６３巷","ALLEY":"７０弄","HOUSE_NO":"２號","E_COORD97":159649.85999999999,"N_COORD97":2550814.5099999998,"ADDRESS":"城西街二段２６３巷７０弄２號","OBJECTID":177839},"geometry":{"x":159649.86000000034,"y":2550814.5099999998}},{"attributes":{"ID":177841,"DIS_CODE":0,"TOWNNAME":"安南區","LI":"城南里","LIN":"13鄰","STREET":"城西街","SECT":"二段","MAREA":" ","LANE":"２９１巷","ALLEY":"３５弄","HOUSE_NO":"４２號","E_COORD97":159649.54999999999,"N_COORD97":2550854.1899999999,"ADDRESS":"城西街二段２９１巷３５弄４２號","OBJECTID":177840},"geometry":{"x":159649.54999999981,"y":2550854.1900000032}},{"attributes":{"ID":177842,"DIS_CODE":0,"TOWNNAME":"安南區","LI":"總頭里","LIN":"1鄰","STREET":"長溪路","SECT":"二段","MAREA":" ","LANE":"４１０巷","ALLEY":"１６弄","HOUSE_NO":"１９９號","E_COORD97":168525.29000000001,"N_COORD97":2549994.21,"ADDRESS":"長溪路二段４１０巷１６弄１９９號","OBJECTID":177841},"geometry":{"x":168525.29000000097,"y":2549994.2100000046}},{"attributes":{"ID":177843,"DIS_CODE":0,"TOWNNAME":"安南區","LI":"淵東里","LIN":"2鄰","STREET":"海佃路","SECT":"四段","MAREA":" ","LANE":"５５巷","ALLEY":"６８弄","HOUSE_NO":"１號","E_COORD97":165483.48999999999,"N_COORD97":2550517.8700000001,"ADDRESS":"海佃路四段５５巷６８弄１號","OBJECTID":177842},"geometry":{"x":165483.49000000115,"y":2550517.870000001}},{"attributes":{"ID":177844,"DIS_CODE":0,"TOWNNAME":"安南區","LI":"淵東里","LIN":"2鄰","STREET":"海佃路","SECT":"四段","MAREA":" ","LANE":"５５巷","ALLEY":"６８弄","HOUSE_NO":"３號","E_COORD97":165483.32999999999,"N_COORD97":2550521.8399999999,"ADDRESS":"海佃路四段５５巷６８弄３號","OBJECTID":177843},"geometry":{"x":165483.33000000007,"y":2550521.8400000017}},{"attributes":{"ID":177845,"DIS_CODE":0,"TOWNNAME":"安南區","LI":"淵東里","LIN":"2鄰","STREET":"海佃路","SECT":"四段","MAREA":" ","LANE":"５５巷","ALLEY":"６８弄","HOUSE_NO":"５號","E_COORD97":165483.17000000001,"N_COORD97":2550525.6499999999,"ADDRESS":"海佃路四段５５巷６８弄５號","OBJECTID":177844},"geometry":{"x":165483.17000000086,"y":2550525.6500000004}},{"attributes":{"ID":177846,"DIS_CODE":0,"TOWNNAME":"安南區","LI":"淵東里","LIN":"2鄰","STREET":"海佃路","SECT":"四段","MAREA":" ","LANE":"５５巷","ALLEY":"６８弄","HOUSE_NO":"７號","E_COORD97":165482.85000000001,"N_COORD97":2550529.46,"ADDRESS":"海佃路四段５５巷６８弄７號","OBJECTID":177845},"geometry":{"x":165482.8499999987,"y":2550529.4600000028}},{"attributes":{"ID":177847,"DIS_CODE":0,"TOWNNAME":"安南區","LI":"淵中里","LIN":"18鄰","STREET":"安中路","SECT":"四段","MAREA":" ","LANE":"１９７巷","ALLEY":"１９弄","HOUSE_NO":"１號","E_COORD97":164784.07000000001,"N_COORD97":2550023.1899999999,"ADDRESS":"安中路四段１９７巷１９弄１號","OBJECTID":177846},"geometry":{"x":164784.07000000123,"y":2550023.1899999976}},{"attributes":{"ID":177848,"DIS_CODE":0,"TOWNNAME":"安南區","LI":"城東里","LIN":"4鄰","STREET":"城北路","SECT":" ","MAREA":" ","LANE":"１７２巷","ALLEY":"３５弄","HOUSE_NO":"２９號","E_COORD97":161082.98999999999,"N_COORD97":2551830.0499999998,"ADDRESS":"城北路１７２巷３５弄２９號","OBJECTID":177847},"geometry":{"x":161082.99000000022,"y":2551830.0500000026}},{"attributes":{"ID":177849,"DIS_CODE":0,"TOWNNAME":"安南區","LI":"淵中里","LIN":"18鄰","STREET":"安中路","SECT":"四段","MAREA":" ","LANE":"１９７巷","ALLEY":"１９弄","HOUSE_NO":"２３號","E_COORD97":164821.69,"N_COORD97":2550005.25,"ADDRESS":"安中路四段１９７巷１９弄２３號","OBJECTID":177848},"geometry":{"x":164821.69000000041,"y":2550005.25}},{"attributes":{"ID":177850,"DIS_CODE":0,"TOWNNAME":"安南區","LI":"淵中里","LIN":"18鄰","STREET":"安中路","SECT":"四段","MAREA":" ","LANE":"１９７巷","ALLEY":"１９弄","HOUSE_NO":"２５號","E_COORD97":164825.34,"N_COORD97":2550003.5099999998,"ADDRESS":"安中路四段１９７巷１９弄２５號","OBJECTID":177849},"geometry":{"x":164825.33999999985,"y":2550003.5099999998}},{"attributes":{"ID":177851,"DIS_CODE":0,"TOWNNAME":"安南區","LI":"布袋里","LIN":"6鄰","STREET":"長和路","SECT":"四段","MAREA":" ","LANE":"１２０巷","ALLEY":"３５弄","HOUSE_NO":"５０號","E_COORD97":169085.47,"N_COORD97":2551793.1699999999,"ADDRESS":"長和路四段１２０巷３５弄５０號","OBJECTID":177850},"geometry":{"x":169085.46999999974,"y":2551793.1699999999}},{"attributes":{"ID":177852,"DIS_CODE":0,"TOWNNAME":"安南區","LI":"布袋里","LIN":"6鄰","STREET":"長和路","SECT":"四段","MAREA":" ","LANE":"１２０巷","ALLEY":"３５弄","HOUSE_NO":"５２號","E_COORD97":169083.25,"N_COORD97":2551794.7599999998,"ADDRESS":"長和路四段１２０巷３５弄５２號","OBJECTID":177851},"geometry":{"x":169083.25000000093,"y":2551794.7599999998}},{"attributes":{"ID":177853,"DIS_CODE":0,"TOWNNAME":"安南區","LI":"布袋里","LIN":"6鄰","STREET":"長和路","SECT":"四段","MAREA":" ","LANE":"１２０巷","ALLEY":"３５弄","HOUSE_NO":"９２號","E_COORD97":169073.73000000001,"N_COORD97":2551800.48,"ADDRESS":"長和路四段１２０巷３５弄９２號","OBJECTID":177852},"geometry":{"x":169073.73000000138,"y":2551800.4800000023}},{"attributes":{"ID":177854,"DIS_CODE":0,"TOWNNAME":"佳里區","LI":"六安里","LIN":"24鄰","STREET":"林園街","SECT":" ","MAREA":" ","LANE":" ","ALLEY":" ","HOUSE_NO":"１２８號","E_COORD97":165742.76999999999,"N_COORD97":2562884.6200000001,"ADDRESS":"林園街１２８號","OBJECTID":177853},"geometry":{"x":165742.77000000142,"y":2562884.620000001}},{"attributes":{"ID":177855,"DIS_CODE":0,"TOWNNAME":"善化區","LI":"光文里","LIN":" ","STREET":"中正路","SECT":" ","MAREA":" ","LANE":" ","ALLEY":" ","HOUSE_NO":"５３２號","E_COORD97":177677.56,"N_COORD97":2559246,"ADDRESS":"中正路５３２號","OBJECTID":177854},"geometry":{"x":177677.55999999959,"y":2559246}},{"attributes":{"ID":177856,"DIS_CODE":0,"TOWNNAME":"善化區","LI":"坐駕里","LIN":"18鄰","STREET":"興華路","SECT":" ","MAREA":" ","LANE":" ","ALLEY":" ","HOUSE_NO":"２１２號","E_COORD97":178277.26999999999,"N_COORD97":2558599.25,"ADDRESS":"興華路２１２號","OBJECTID":177855},"geometry":{"x":178277.27000000048,"y":2558599.2500000019}},{"attributes":{"ID":177857,"DIS_CODE":0,"TOWNNAME":"善化區","LI":"光文里","LIN":"20鄰","STREET":"民生路","SECT":" ","MAREA":" ","LANE":" ","ALLEY":" ","HOUSE_NO":"３３５號","E_COORD97":178086.57000000001,"N_COORD97":2558893.7599999998,"ADDRESS":"民生路３３５號","OBJECTID":177856},"geometry":{"x":178086.57000000123,"y":2558893.7600000016}},{"attributes":{"ID":177858,"DIS_CODE":0,"TOWNNAME":"善化區","LI":"南關里","LIN":"13鄰","STREET":"自由路","SECT":" ","MAREA":" ","LANE":" ","ALLEY":" ","HOUSE_NO":"１９７號","E_COORD97":176889.01999999999,"N_COORD97":2558922.5,"ADDRESS":"自由路１９７號","OBJECTID":177857},"geometry":{"x":176889.02000000048,"y":2558922.5000000019}},{"attributes":{"ID":177859,"DIS_CODE":0,"TOWNNAME":"善化區","LI":"文正里","LIN":"13鄰","STREET":"陽明路","SECT":" ","MAREA":" ","LANE":" ","ALLEY":" ","HOUSE_NO":"８８號","E_COORD97":176481.10999999999,"N_COORD97":2559378.0099999998,"ADDRESS":"陽明路８８號","OBJECTID":177858},"geometry":{"x":176481.11000000127,"y":2559378.0099999998}},{"attributes":{"ID":177860,"DIS_CODE":0,"TOWNNAME":"安南區","LI":"東和里","LIN":"7鄰","STREET":"長和路","SECT":"一段","MAREA":" ","LANE":"２２２巷","ALLEY":"１００弄","HOUSE_NO":"６９號","E_COORD97":172112.03886500001,"N_COORD97":2550788.5808299999,"ADDRESS":"長和路一段２２２巷１００弄６９號","OBJECTID":177859},"geometry":{"x":172112.03886500001,"y":2550788.5808330011}},{"attributes":{"ID":177861,"DIS_CODE":0,"TOWNNAME":"安南區","LI":"溪心里","LIN":"4鄰","STREET":"安吉路","SECT":"二段","MAREA":" ","LANE":"９７巷","ALLEY":"１弄","HOUSE_NO":"１號","E_COORD97":167016.939766,"N_COORD97":2550842.77226,"ADDRESS":"安吉路二段９７巷１弄１號","OBJECTID":177860},"geometry":{"x":167016.93976599909,"y":2550842.7722560037}},{"attributes":{"ID":177862,"DIS_CODE":0,"TOWNNAME":"安南區","LI":"溪心里","LIN":"4鄰","STREET":"安吉路","SECT":"二段","MAREA":" ","LANE":"９７巷","ALLEY":"１弄","HOUSE_NO":"２號","E_COORD97":167017.05531200001,"N_COORD97":2550835.7261800002,"ADDRESS":"安吉路二段９７巷１弄２號","OBJECTID":177861},"geometry":{"x":167017.05531200022,"y":2550835.7261780035}},{"attributes":{"ID":177863,"DIS_CODE":0,"TOWNNAME":"安南區","LI":"溪心里","LIN":"4鄰","STREET":"安吉路","SECT":"二段","MAREA":" ","LANE":"９７巷","ALLEY":"１弄","HOUSE_NO":"３號","E_COORD97":167017.28640300001,"N_COORD97":2550828.6801,"ADDRESS":"安吉路二段９７巷１弄３號","OBJECTID":177862},"geometry":{"x":167017.28640300129,"y":2550828.6801010016}},{"attributes":{"ID":177864,"DIS_CODE":0,"TOWNNAME":"安南區","LI":"溪心里","LIN":"4鄰","STREET":"安吉路","SECT":"二段","MAREA":" ","LANE":"９７巷","ALLEY":"１弄","HOUSE_NO":"５號","E_COORD97":167017.86413199999,"N_COORD97":2550822.4425900001,"ADDRESS":"安吉路二段９７巷１弄５號","OBJECTID":177863},"geometry":{"x":167017.86413200013,"y":2550822.442590002}},{"attributes":{"ID":177865,"DIS_CODE":0,"TOWNNAME":"東區","LI":"崇德里","LIN":" ","STREET":"崇德五街","SECT":" ","MAREA":" ","LANE":"２巷","ALLEY":"１１弄","HOUSE_NO":"８號","E_COORD97":170720.79000000001,"N_COORD97":2541788.46,"ADDRESS":"崇德五街２巷１１弄８號","OBJECTID":177864},"geometry":{"x":170720.79000000097,"y":2541788.4600000028}},{"attributes":{"ID":177866,"DIS_CODE":0,"TOWNNAME":"安南區","LI":"溪心里","LIN":"4鄰","STREET":"安吉路","SECT":"二段","MAREA":" ","LANE":"９７巷","ALLEY":"１弄","HOUSE_NO":"７號","E_COORD97":167021.64999999999,"N_COORD97":2550822.7000000002,"ADDRESS":"安吉路二段９７巷１弄７號","OBJECTID":177865},"geometry":{"x":167021.6500000013,"y":2550822.6999999993}},{"attributes":{"ID":177867,"DIS_CODE":0,"TOWNNAME":"安南區","LI":"新順里","LIN":"8鄰","STREET":"總安街","SECT":"一段","MAREA":" ","LANE":"３６２巷","ALLEY":"４６弄","HOUSE_NO":"３號","E_COORD97":169238.38,"N_COORD97":2550532.7200000002,"ADDRESS":"總安街一段３６２巷４６弄３號","OBJECTID":177866},"geometry":{"x":169238.38000000082,"y":2550532.7199999988}},{"attributes":{"ID":177868,"DIS_CODE":0,"TOWNNAME":"安南區","LI":"布袋里","LIN":"6鄰","STREET":"長和路","SECT":"四段","MAREA":" ","LANE":"１２０巷","ALLEY":"３５弄","HOUSE_NO":"８０號","E_COORD97":169078.17000000001,"N_COORD97":2551798.0099999998,"ADDRESS":"長和路四段１２０巷３５弄８０號","OBJECTID":177867},"geometry":{"x":169078.16999999993,"y":2551798.0100000035}},{"attributes":{"ID":177869,"DIS_CODE":0,"TOWNNAME":"安南區","LI":"海東里","LIN":"23鄰","STREET":"同安路","SECT":" ","MAREA":" ","LANE":"１６７巷","ALLEY":"１１７弄","HOUSE_NO":"１號","E_COORD97":166823.82999999999,"N_COORD97":2549242.9399999999,"ADDRESS":"同安路１６７巷１１７弄１號","OBJECTID":177868},"geometry":{"x":166823.83000000007,"y":2549242.9400000013}},{"attributes":{"ID":177870,"DIS_CODE":0,"TOWNNAME":"安南區","LI":"\u25A0南里","LIN":"22鄰","STREET":"長和路","SECT":"二段","MAREA":" ","LANE":"１２巷","ALLEY":"２９８弄","HOUSE_NO":"１３號","E_COORD97":170417.37,"N_COORD97":2552291.0699999998,"ADDRESS":"長和路二段１２巷２９８弄１３號","OBJECTID":177869},"geometry":{"x":170417.37000000011,"y":2552291.0700000022}},{"attributes":{"ID":177871,"DIS_CODE":0,"TOWNNAME":"安南區","LI":"安順里","LIN":"22鄰","STREET":"北安路","SECT":"三段","MAREA":" ","LANE":"６８０巷","ALLEY":"８弄","HOUSE_NO":"２號","E_COORD97":169453.66,"N_COORD97":2550453.9500000002,"ADDRESS":"北安路三段６８０巷８弄２號","OBJECTID":177870},"geometry":{"x":169453.66000000108,"y":2550453.9499999993}},{"attributes":{"ID":177872,"DIS_CODE":0,"TOWNNAME":"安南區","LI":"安順里","LIN":"22鄰","STREET":"北安路","SECT":"三段","MAREA":" ","LANE":"６８０巷","ALLEY":"８弄","HOUSE_NO":"３６號","E_COORD97":169450.64000000001,"N_COORD97":2550386.96,"ADDRESS":"北安路三段６８０巷８弄３６號","OBJECTID":177871},"geometry":{"x":169450.63999999966,"y":2550386.9600000028}},{"attributes":{"ID":177873,"DIS_CODE":0,"TOWNNAME":"安南區","LI":"安順里","LIN":"22鄰","STREET":"北安路","SECT":"三段","MAREA":" ","LANE":"６８０巷","ALLEY":"８弄","HOUSE_NO":"３２號","E_COORD97":169451.26999999999,"N_COORD97":2550393.46,"ADDRESS":"北安路三段６８０巷８弄３２號","OBJECTID":177872},"geometry":{"x":169451.26999999955,"y":2550393.4600000028}},{"attributes":{"ID":177874,"DIS_CODE":0,"TOWNNAME":"安南區","LI":"安慶里","LIN":"31鄰","STREET":"安和路","SECT":"一段","MAREA":" ","LANE":"４５９巷","ALLEY":"３６弄","HOUSE_NO":"１１７之９號","E_COORD97":169172.29999999999,"N_COORD97":2548751.9500000002,"ADDRESS":"安和路一段４５９巷３６弄１１７之９號","OBJECTID":177873},"geometry":{"x":169172.30000000168,"y":2548751.9499999993}},{"attributes":{"ID":177875,"DIS_CODE":0,"TOWNNAME":"安南區","LI":"安順里","LIN":"22鄰","STREET":"北安路","SECT":"三段","MAREA":" ","LANE":"６８０巷","ALLEY":"１０弄","HOUSE_NO":"２號","E_COORD97":169472.54999999999,"N_COORD97":2550451.4100000001,"ADDRESS":"北安路三段６８０巷１０弄２號","OBJECTID":177874},"geometry":{"x":169472.55000000075,"y":2550451.410000002}},{"attributes":{"ID":177876,"DIS_CODE":0,"TOWNNAME":"安南區","LI":"安順里","LIN":"22鄰","STREET":"北安路","SECT":"三段","MAREA":" ","LANE":"６８０巷","ALLEY":"１０弄","HOUSE_NO":"４０號","E_COORD97":169465.88,"N_COORD97":2550363.6200000001,"ADDRESS":"北安路三段６８０巷１０弄４０號","OBJECTID":177875},"geometry":{"x":169465.88000000082,"y":2550363.620000001}},{"attributes":{"ID":177877,"DIS_CODE":0,"TOWNNAME":"安南區","LI":"溪東里","LIN":"11鄰","STREET":"府安路","SECT":"五段","MAREA":" ","LANE":"１１巷","ALLEY":"３５弄","HOUSE_NO":"８０號","E_COORD97":168222.76000000001,"N_COORD97":2547315.48,"ADDRESS":"府安路五段１１巷３５弄８０號","OBJECTID":177876},"geometry":{"x":168222.75999999978,"y":2547315.4800000004}},{"attributes":{"ID":177878,"DIS_CODE":0,"TOWNNAME":"安南區","LI":"溪東里","LIN":"11鄰","STREET":"府安路","SECT":"五段","MAREA":" ","LANE":"１１巷","ALLEY":"３５弄","HOUSE_NO":"８２號","E_COORD97":168221.48999999999,"N_COORD97":2547315.1699999999,"ADDRESS":"府安路五段１１巷３５弄８２號","OBJECTID":177877},"geometry":{"x":168221.49000000022,"y":2547315.1700000037}},{"attributes":{"ID":177879,"DIS_CODE":0,"TOWNNAME":"安南區","LI":"溪東里","LIN":"11鄰","STREET":"府安路","SECT":"五段","MAREA":" ","LANE":"１１巷","ALLEY":"３５弄","HOUSE_NO":"８６號","E_COORD97":168219.89999999999,"N_COORD97":2547314.8500000001,"ADDRESS":"府安路五段１１巷３５弄８６號","OBJECTID":177878},"geometry":{"x":168219.9000000013,"y":2547314.8500000015}},{"attributes":{"ID":177880,"DIS_CODE":0,"TOWNNAME":"安南區","LI":"溪東里","LIN":"11鄰","STREET":"府安路","SECT":"五段","MAREA":" ","LANE":"１１巷","ALLEY":"３５弄","HOUSE_NO":"８８號","E_COORD97":168218.32000000001,"N_COORD97":2547314.5299999998,"ADDRESS":"府安路五段１１巷３５弄８８號","OBJECTID":177879},"geometry":{"x":168218.32000000216,"y":2547314.5299999993}},{"attributes":{"ID":177881,"DIS_CODE":0,"TOWNNAME":"安南區","LI":"長安里","LIN":"7鄰","STREET":"長溪路","SECT":"三段","MAREA":" ","LANE":"４０５巷","ALLEY":"４０弄","HOUSE_NO":"２０之１號","E_COORD97":167534.44,"N_COORD97":2552064.5600000001,"ADDRESS":"長溪路三段４０５巷４０弄２０之１號","OBJECTID":177880},"geometry":{"x":167534.44000000227,"y":2552064.5600000024}},{"attributes":{"ID":177882,"DIS_CODE":0,"TOWNNAME":"安南區","LI":"佃東里","LIN":"1鄰","STREET":"海佃路","SECT":"四段","MAREA":" ","LANE":"３８８巷","ALLEY":"６弄","HOUSE_NO":"３２之３號","E_COORD97":165754.57999999999,"N_COORD97":2551537.7999999998,"ADDRESS":"海佃路四段３８８巷６弄３２之３號","OBJECTID":177881},"geometry":{"x":165754.58000000007,"y":2551537.8000000007}},{"attributes":{"ID":177883,"DIS_CODE":0,"TOWNNAME":"安南區","LI":"溪東里","LIN":"11鄰","STREET":"府安路","SECT":"五段","MAREA":" ","LANE":"１１巷","ALLEY":"３５弄","HOUSE_NO":"１４６之１號","E_COORD97":168176.88,"N_COORD97":2547305.96,"ADDRESS":"府安路五段１１巷３５弄１４６之１號","OBJECTID":177882},"geometry":{"x":168176.88000000082,"y":2547305.9600000009}},{"attributes":{"ID":177884,"DIS_CODE":0,"TOWNNAME":"安南區","LI":"佃東里","LIN":"16鄰","STREET":"海佃路","SECT":"四段","MAREA":" ","LANE":"３８８巷","ALLEY":"１３４弄","HOUSE_NO":"１６９號","E_COORD97":165952.98999999999,"N_COORD97":2551722.02,"ADDRESS":"海佃路四段３８８巷１３４弄１６９號","OBJECTID":177883},"geometry":{"x":165952.99000000115,"y":2551722.0199999996}},{"attributes":{"ID":177885,"DIS_CODE":0,"TOWNNAME":"善化區","LI":"光文里","LIN":"24鄰","STREET":"中山路","SECT":" ","MAREA":" ","LANE":" ","ALLEY":" ","HOUSE_NO":"２０４號","E_COORD97":178284.59,"N_COORD97":2559146.5,"ADDRESS":"中山路２０４號","OBJECTID":177884},"geometry":{"x":178284.58999999985,"y":2559146.5000000019}},{"attributes":{"ID":177886,"DIS_CODE":0,"TOWNNAME":"善化區","LI":"光文里","LIN":"25鄰","STREET":"公園路","SECT":" ","MAREA":" ","LANE":" ","ALLEY":" ","HOUSE_NO":"９２號","E_COORD97":178106.88,"N_COORD97":2559211,"ADDRESS":"公園路９２號","OBJECTID":177885},"geometry":{"x":178106.87999999989,"y":2559211.0000000019}},{"attributes":{"ID":177887,"DIS_CODE":0,"TOWNNAME":"南區","LI":"府南里","LIN":"4鄰","STREET":"金華路","SECT":"一段","MAREA":" ","LANE":"４８４巷","ALLEY":"９９弄","HOUSE_NO":"１９號","E_COORD97":167250.39000000001,"N_COORD97":2541443.5699999998,"ADDRESS":"金華路一段４８４巷９９弄１９號","OBJECTID":177886},"geometry":{"x":167250.38999999966,"y":2541443.5700000003}},{"attributes":{"ID":177888,"DIS_CODE":0,"TOWNNAME":"南區","LI":"府南里","LIN":"4鄰","STREET":"金華路","SECT":"一段","MAREA":" ","LANE":"４８４巷","ALLEY":"９９弄","HOUSE_NO":"２１號","E_COORD97":167253.67000000001,"N_COORD97":2541449.8700000001,"ADDRESS":"金華路一段４８４巷９９弄２１號","OBJECTID":177887},"geometry":{"x":167253.66999999993,"y":2541449.8700000029}},{"attributes":{"ID":177889,"DIS_CODE":0,"TOWNNAME":"南區","LI":"府南里","LIN":"4鄰","STREET":"金華路","SECT":"一段","MAREA":" ","LANE":"４８４巷","ALLEY":"９９弄","HOUSE_NO":"２３號","E_COORD97":167269.85000000001,"N_COORD97":2541443.0299999998,"ADDRESS":"金華路一段４８４巷９９弄２３號","OBJECTID":177888},"geometry":{"x":167269.85000000056,"y":2541443.0299999975}},{"attributes":{"ID":177890,"DIS_CODE":0,"TOWNNAME":"南區","LI":"府南里","LIN":"4鄰","STREET":"金華路","SECT":"一段","MAREA":" ","LANE":"４８４巷","ALLEY":"９９弄","HOUSE_NO":"２５號","E_COORD97":167271.57999999999,"N_COORD97":2541449.0499999998,"ADDRESS":"金華路一段４８４巷９９弄２５號","OBJECTID":177889},"geometry":{"x":167271.58000000007,"y":2541449.0500000026}},{"attributes":{"ID":177891,"DIS_CODE":0,"TOWNNAME":"善化區","LI":"田寮里","LIN":"16鄰","STREET":" ","SECT":" ","MAREA":"六分寮","LANE":" ","ALLEY":" ","HOUSE_NO":"１９１號","E_COORD97":178923.45999999999,"N_COORD97":2561439.25,"ADDRESS":"六分寮１９１號","OBJECTID":177890},"geometry":{"x":178923.45999999996,"y":2561439.2500000019}},{"attributes":{"ID":177892,"DIS_CODE":0,"TOWNNAME":"南區","LI":"府南里","LIN":"4鄰","STREET":"金華路","SECT":"一段","MAREA":" ","LANE":"４８４巷","ALLEY":"９９弄","HOUSE_NO":"２７號","E_COORD97":167256.23000000001,"N_COORD97":2541456.8999999999,"ADDRESS":"金華路一段４８４巷９９弄２７號","OBJECTID":177891},"geometry":{"x":167256.23000000231,"y":2541456.9000000022}},{"attributes":{"ID":177893,"DIS_CODE":0,"TOWNNAME":"南區","LI":"府南里","LIN":"4鄰","STREET":"金華路","SECT":"一段","MAREA":" ","LANE":"４８４巷","ALLEY":"９９弄","HOUSE_NO":"２９號","E_COORD97":167260.34,"N_COORD97":2541464.5699999998,"ADDRESS":"金華路一段４８４巷９９弄２９號","OBJECTID":177892},"geometry":{"x":167260.34000000078,"y":2541464.570000004}},{"attributes":{"ID":177894,"DIS_CODE":0,"TOWNNAME":"南區","LI":"府南里","LIN":"6鄰","STREET":"金華路","SECT":"一段","MAREA":" ","LANE":"４８４巷","ALLEY":"９９弄","HOUSE_NO":"２０號","E_COORD97":167331.54000000001,"N_COORD97":2541450.7400000002,"ADDRESS":"金華路一段４８４巷９９弄２０號","OBJECTID":177893},"geometry":{"x":167331.5400000019,"y":2541450.7400000021}},{"attributes":{"ID":177895,"DIS_CODE":0,"TOWNNAME":"南區","LI":"府南里","LIN":"6鄰","STREET":"金華路","SECT":"一段","MAREA":" ","LANE":"４８４巷","ALLEY":"９９弄","HOUSE_NO":"２２號","E_COORD97":167334.73000000001,"N_COORD97":2541456.6200000001,"ADDRESS":"金華路一段４８４巷９９弄２２號","OBJECTID":177894},"geometry":{"x":167334.73000000138,"y":2541456.620000001}},{"attributes":{"ID":177896,"DIS_CODE":0,"TOWNNAME":"南區","LI":"府南里","LIN":"6鄰","STREET":"金華路","SECT":"一段","MAREA":" ","LANE":"４８４巷","ALLEY":"９９弄","HOUSE_NO":"２４號","E_COORD97":167336.64999999999,"N_COORD97":2541462.2400000002,"ADDRESS":"金華路一段４８４巷９９弄２４號","OBJECTID":177895},"geometry":{"x":167336.6500000013,"y":2541462.2400000002}},{"attributes":{"ID":177897,"DIS_CODE":0,"TOWNNAME":"南區","LI":"府南里","LIN":"6鄰","STREET":"金華路","SECT":"一段","MAREA":" ","LANE":"４８４巷","ALLEY":"９９弄","HOUSE_NO":"２６號","E_COORD97":167339.72,"N_COORD97":2541467.0899999999,"ADDRESS":"金華路一段４８４巷９９弄２６號","OBJECTID":177896},"geometry":{"x":167339.71999999974,"y":2541467.0900000036}},{"attributes":{"ID":177898,"DIS_CODE":0,"TOWNNAME":"南區","LI":"府南里","LIN":"7鄰","STREET":"金華路","SECT":"一段","MAREA":" ","LANE":"４８４巷","ALLEY":"９９弄","HOUSE_NO":"６２號","E_COORD97":167341.39000000001,"N_COORD97":2541486.1699999999,"ADDRESS":"金華路一段４８４巷９９弄６２號","OBJECTID":177897},"geometry":{"x":167341.3900000006,"y":2541486.1699999999}},{"attributes":{"ID":177899,"DIS_CODE":0,"TOWNNAME":"南區","LI":"府南里","LIN":"7鄰","STREET":"金華路","SECT":"一段","MAREA":" ","LANE":"４８４巷","ALLEY":"９９弄","HOUSE_NO":"６４號","E_COORD97":167335,"N_COORD97":2541488.4700000002,"ADDRESS":"金華路一段４８４巷９９弄６４號","OBJECTID":177898},"geometry":{"x":167335,"y":2541488.4700000007}},{"attributes":{"ID":177900,"DIS_CODE":0,"TOWNNAME":"東區","LI":"東聖里","LIN":"10鄰","STREET":"富農街","SECT":"二段","MAREA":" ","LANE":" ","ALLEY":" ","HOUSE_NO":"５號二樓","E_COORD97":171630.23999999999,"N_COORD97":2542843.3100000001,"ADDRESS":"富農街二段５號二樓","OBJECTID":177899},"geometry":{"x":171630.24000000115,"y":2542843.3100000024}},{"attributes":{"ID":177901,"DIS_CODE":0,"TOWNNAME":"東區","LI":"東聖里","LIN":"10鄰","STREET":"富農街","SECT":"二段","MAREA":" ","LANE":" ","ALLEY":" ","HOUSE_NO":"５號三樓","E_COORD97":171630.23999999999,"N_COORD97":2542843.3100000001,"ADDRESS":"富農街二段５號三樓","OBJECTID":177900},"geometry":{"x":171630.24000000115,"y":2542843.3100000024}},{"attributes":{"ID":177902,"DIS_CODE":0,"TOWNNAME":"東區","LI":"東聖里","LIN":"10鄰","STREET":"富農街","SECT":"二段","MAREA":" ","LANE":" ","ALLEY":" ","HOUSE_NO":"５號五樓","E_COORD97":171630.23999999999,"N_COORD97":2542843.3100000001,"ADDRESS":"富農街二段５號五樓","OBJECTID":177901},"geometry":{"x":171630.24000000115,"y":2542843.3100000024}},{"attributes":{"ID":177903,"DIS_CODE":0,"TOWNNAME":"東區","LI":"東聖里","LIN":"10鄰","STREET":"富農街","SECT":"二段","MAREA":" ","LANE":" ","ALLEY":" ","HOUSE_NO":"５號四樓","E_COORD97":171630.23999999999,"N_COORD97":2542843.3100000001,"ADDRESS":"富農街二段５號四樓","OBJECTID":177902},"geometry":{"x":171630.24000000115,"y":2542843.3100000024}},{"attributes":{"ID":177904,"DIS_CODE":0,"TOWNNAME":"善化區","LI":"坐駕里","LIN":"13鄰","STREET":"自立路","SECT":" ","MAREA":" ","LANE":" ","ALLEY":" ","HOUSE_NO":"２６號","E_COORD97":178231.07999999999,"N_COORD97":2558674.5,"ADDRESS":"自立路２６號","OBJECTID":177903},"geometry":{"x":178231.08000000007,"y":2558674.5000000019}},{"attributes":{"ID":177905,"DIS_CODE":0,"TOWNNAME":"善化區","LI":"東關里","LIN":" ","STREET":"中興路","SECT":" ","MAREA":" ","LANE":" ","ALLEY":" ","HOUSE_NO":"１８４號","E_COORD97":177197.92999999999,"N_COORD97":2559072.75,"ADDRESS":"中興路１８４號","OBJECTID":177904},"geometry":{"x":177197.93000000156,"y":2559072.7500000019}},{"attributes":{"ID":177906,"DIS_CODE":0,"TOWNNAME":"善化區","LI":"東關里","LIN":" ","STREET":"中興路","SECT":" ","MAREA":" ","LANE":" ","ALLEY":" ","HOUSE_NO":"９７號","E_COORD97":177479.34,"N_COORD97":2559003,"ADDRESS":"中興路９７號","OBJECTID":177905},"geometry":{"x":177479.33999999985,"y":2559003.0000000037}},{"attributes":{"ID":177907,"DIS_CODE":0,"TOWNNAME":"善化區","LI":"東關里","LIN":"18鄰","STREET":"中興路","SECT":" ","MAREA":" ","LANE":" ","ALLEY":" ","HOUSE_NO":"５４號","E_COORD97":177617.62,"N_COORD97":2559020,"ADDRESS":"中興路５４號","OBJECTID":177906},"geometry":{"x":177617.62000000197,"y":2559020.0000000037}},{"attributes":{"ID":177908,"DIS_CODE":0,"TOWNNAME":"善化區","LI":"光文里","LIN":" ","STREET":"中山路","SECT":" ","MAREA":" ","LANE":" ","ALLEY":" ","HOUSE_NO":"６４號","E_COORD97":178740.32000000001,"N_COORD97":2559216.5,"ADDRESS":"中山路６４號","OBJECTID":177907},"geometry":{"x":178740.32000000216,"y":2559216.5000000037}},{"attributes":{"ID":177909,"DIS_CODE":0,"TOWNNAME":"善化區","LI":"東關里","LIN":" ","STREET":"中山路","SECT":" ","MAREA":" ","LANE":" ","ALLEY":" ","HOUSE_NO":"３７７之１２０號","E_COORD97":177464.67000000001,"N_COORD97":2559044.27,"ADDRESS":"中山路３７７之１２０號","OBJECTID":177908},"geometry":{"x":177464.67000000086,"y":2559044.2699999996}},{"attributes":{"ID":177910,"DIS_CODE":0,"TOWNNAME":"善化區","LI":"東關里","LIN":"5鄰","STREET":"進學路","SECT":" ","MAREA":" ","LANE":" ","ALLEY":" ","HOUSE_NO":"３號","E_COORD97":177393.29000000001,"N_COORD97":2559140.75,"ADDRESS":"進學路３號","OBJECTID":177909},"geometry":{"x":177393.29000000097,"y":2559140.7500000019}},{"attributes":{"ID":177911,"DIS_CODE":0,"TOWNNAME":"善化區","LI":"坐駕里","LIN":"14鄰","STREET":"自立路","SECT":" ","MAREA":" ","LANE":" ","ALLEY":" ","HOUSE_NO":"７１號","E_COORD97":178155.38,"N_COORD97":2558643,"ADDRESS":"自立路７１號","OBJECTID":177910},"geometry":{"x":178155.38000000082,"y":2558643}},{"attributes":{"ID":177912,"DIS_CODE":0,"TOWNNAME":"善化區","LI":"東關里","LIN":" ","STREET":"中山路","SECT":" ","MAREA":" ","LANE":" ","ALLEY":" ","HOUSE_NO":"５３５號","E_COORD97":177667.67000000001,"N_COORD97":2559151.75,"ADDRESS":"中山路５３５號","OBJECTID":177911},"geometry":{"x":177667.66999999993,"y":2559151.7500000019}},{"attributes":{"ID":177913,"DIS_CODE":0,"TOWNNAME":"善化區","LI":"文昌里","LIN":" ","STREET":"中和街","SECT":" ","MAREA":" ","LANE":" ","ALLEY":" ","HOUSE_NO":"３８之１號","E_COORD97":177435.92000000001,"N_COORD97":2558918.02,"ADDRESS":"中和街３８之１號","OBJECTID":177912},"geometry":{"x":177435.92000000086,"y":2558918.0200000014}},{"attributes":{"ID":177914,"DIS_CODE":0,"TOWNNAME":"善化區","LI":"光文里","LIN":"14鄰","STREET":"民生路","SECT":" ","MAREA":" ","LANE":" ","ALLEY":" ","HOUSE_NO":"１７３號","E_COORD97":178467.23000000001,"N_COORD97":2558952.7599999998,"ADDRESS":"民生路１７３號","OBJECTID":177913},"geometry":{"x":178467.23000000138,"y":2558952.7599999998}},{"attributes":{"ID":177915,"DIS_CODE":0,"TOWNNAME":"善化區","LI":"光文里","LIN":"17鄰","STREET":"民權路","SECT":" ","MAREA":" ","LANE":" ","ALLEY":" ","HOUSE_NO":"２０９號","E_COORD97":178163.14000000001,"N_COORD97":2558988.2599999998,"ADDRESS":"民權路２０９號","OBJECTID":177914},"geometry":{"x":178163.1400000006,"y":2558988.2600000016}},{"attributes":{"ID":177916,"DIS_CODE":0,"TOWNNAME":"善化區","LI":"坐駕里","LIN":"8鄰","STREET":"大成路","SECT":" ","MAREA":" ","LANE":" ","ALLEY":" ","HOUSE_NO":"３８１號","E_COORD97":177876.92999999999,"N_COORD97":2558768.75,"ADDRESS":"大成路３８１號","OBJECTID":177915},"geometry":{"x":177876.9299999997,"y":2558768.7500000019}},{"attributes":{"ID":177917,"DIS_CODE":0,"TOWNNAME":"善化區","LI":"小新里","LIN":"16鄰","STREET":" ","SECT":" ","MAREA":"小新營","LANE":" ","ALLEY":" ","HOUSE_NO":"１３３號之１","E_COORD97":179863.91,"N_COORD97":2558212.27,"ADDRESS":"小新營１３３號之１","OBJECTID":177916},"geometry":{"x":179863.91000000108,"y":2558212.2700000014}},{"attributes":{"ID":177918,"DIS_CODE":0,"TOWNNAME":"善化區","LI":"六德里","LIN":"16鄰","STREET":" ","SECT":" ","MAREA":"六分寮","LANE":" ","ALLEY":" ","HOUSE_NO":"３７５號","E_COORD97":178197.95999999999,"N_COORD97":2561358.75,"ADDRESS":"六分寮３７５號","OBJECTID":177917},"geometry":{"x":178197.95999999996,"y":2561358.7500000019}},{"attributes":{"ID":177919,"DIS_CODE":0,"TOWNNAME":"善化區","LI":"六德里","LIN":"16鄰","STREET":" ","SECT":" ","MAREA":"六分寮","LANE":" ","ALLEY":" ","HOUSE_NO":"３５３號","E_COORD97":178222.87,"N_COORD97":2561452,"ADDRESS":"六分寮３５３號","OBJECTID":177918},"geometry":{"x":178222.87000000104,"y":2561452.0000000019}},{"attributes":{"ID":177920,"DIS_CODE":0,"TOWNNAME":"南區","LI":"府南里","LIN":"7鄰","STREET":"金華路","SECT":"一段","MAREA":" ","LANE":"４８４巷","ALLEY":"９９弄","HOUSE_NO":"６６號","E_COORD97":167330.78,"N_COORD97":2541489.2400000002,"ADDRESS":"金華路一段４８４巷９９弄６６號","OBJECTID":177919},"geometry":{"x":167330.78000000119,"y":2541489.2400000002}},{"attributes":{"ID":177921,"DIS_CODE":0,"TOWNNAME":"南區","LI":"府南里","LIN":"7鄰","STREET":"金華路","SECT":"一段","MAREA":" ","LANE":"４８４巷","ALLEY":"９９弄","HOUSE_NO":"６８號","E_COORD97":167326.67999999999,"N_COORD97":2541491.1499999999,"ADDRESS":"金華路一段４８４巷９９弄６８號","OBJECTID":177920},"geometry":{"x":167326.6799999997,"y":2541491.1500000041}},{"attributes":{"ID":177922,"DIS_CODE":0,"TOWNNAME":"南區","LI":"府南里","LIN":"6鄰","STREET":"金華路","SECT":"一段","MAREA":" ","LANE":"４８４巷","ALLEY":"９９弄","HOUSE_NO":"４０號","E_COORD97":167317.16,"N_COORD97":2541455.1099999999,"ADDRESS":"金華路一段４８４巷９９弄４０號","OBJECTID":177921},"geometry":{"x":167317.16000000015,"y":2541455.1099999994}},{"attributes":{"ID":177923,"DIS_CODE":0,"TOWNNAME":"南區","LI":"府南里","LIN":"6鄰","STREET":"金華路","SECT":"一段","MAREA":" ","LANE":"４８４巷","ALLEY":"９９弄","HOUSE_NO":"４２號","E_COORD97":167315.04999999999,"N_COORD97":2541450.1299999999,"ADDRESS":"金華路一段４８４巷９９弄４２號","OBJECTID":177922},"geometry":{"x":167315.05000000075,"y":2541450.1300000008}},{"attributes":{"ID":177924,"DIS_CODE":0,"TOWNNAME":"安南區","LI":"海東里","LIN":"21鄰","STREET":"海東二街","SECT":" ","MAREA":" ","LANE":" ","ALLEY":" ","HOUSE_NO":"３７號","E_COORD97":166915.986802,"N_COORD97":2547897.0927499998,"ADDRESS":"海東二街３７號","OBJECTID":177923},"geometry":{"x":166915.98680199962,"y":2547897.0927459989}},{"attributes":{"ID":177925,"DIS_CODE":0,"TOWNNAME":"南區","LI":"府南里","LIN":" ","STREET":"大成路","SECT":"二段","MAREA":" ","LANE":"１７７巷","ALLEY":"５弄","HOUSE_NO":"３５號","E_COORD97":167398.98999999999,"N_COORD97":2541661.5699999998,"ADDRESS":"大成路二段１７７巷５弄３５號","OBJECTID":177924},"geometry":{"x":167398.99000000115,"y":2541661.5700000022}},{"attributes":{"ID":177926,"DIS_CODE":0,"TOWNNAME":"南區","LI":"府南里","LIN":"6鄰","STREET":"金華路","SECT":"一段","MAREA":" ","LANE":"４８４巷","ALLEY":"９９弄","HOUSE_NO":"４４號","E_COORD97":167295.20999999999,"N_COORD97":2541457.5,"ADDRESS":"金華路一段４８４巷９９弄４４號","OBJECTID":177925},"geometry":{"x":167295.21000000089,"y":2541457.4999999981}},{"attributes":{"ID":177927,"DIS_CODE":0,"TOWNNAME":"南區","LI":"府南里","LIN":"6鄰","STREET":"金華路","SECT":"一段","MAREA":" ","LANE":"４８４巷","ALLEY":"９９弄","HOUSE_NO":"４６號","E_COORD97":167296.07000000001,"N_COORD97":2541461.6200000001,"ADDRESS":"金華路一段４８４巷９９弄４６號","OBJECTID":177926},"geometry":{"x":167296.07000000216,"y":2541461.6200000048}},{"attributes":{"ID":177928,"DIS_CODE":0,"TOWNNAME":"南區","LI":"府南里","LIN":"6鄰","STREET":"金華路","SECT":"一段","MAREA":" ","LANE":"４８４巷","ALLEY":"９９弄","HOUSE_NO":"４８號","E_COORD97":167297.60000000001,"N_COORD97":2541465.6400000001,"ADDRESS":"金華路一段４８４巷９９弄４８號","OBJECTID":177927},"geometry":{"x":167297.60000000056,"y":2541465.6400000025}},{"attributes":{"ID":177929,"DIS_CODE":0,"TOWNNAME":"將軍區","LI":"平沙里","LIN":"11鄰","STREET":" ","SECT":" ","MAREA":"平沙","LANE":" ","ALLEY":" ","HOUSE_NO":"９７號","E_COORD97":157300.76999999999,"N_COORD97":2568474.6000000001,"ADDRESS":"平沙９７號","OBJECTID":177928},"geometry":{"x":157300.77000000142,"y":2568474.6000000034}},{"attributes":{"ID":177930,"DIS_CODE":0,"TOWNNAME":"南區","LI":"府南里","LIN":"6鄰","STREET":"金華路","SECT":"一段","MAREA":" ","LANE":"４８４巷","ALLEY":"９９弄","HOUSE_NO":"４號","E_COORD97":167290.48999999999,"N_COORD97":2541443.46,"ADDRESS":"金華路一段４８４巷９９弄４號","OBJECTID":177929},"geometry":{"x":167290.49000000115,"y":2541443.4600000028}},{"attributes":{"ID":177931,"DIS_CODE":0,"TOWNNAME":"南區","LI":"府南里","LIN":"6鄰","STREET":"金華路","SECT":"一段","MAREA":" ","LANE":"４８４巷","ALLEY":"９９弄","HOUSE_NO":"５０號","E_COORD97":167299.81,"N_COORD97":2541469.7599999998,"ADDRESS":"金華路一段４８４巷９９弄５０號","OBJECTID":177930},"geometry":{"x":167299.80999999959,"y":2541469.7600000016}},{"attributes":{"ID":177932,"DIS_CODE":0,"TOWNNAME":"南區","LI":"府南里","LIN":"6鄰","STREET":"金華路","SECT":"一段","MAREA":" ","LANE":"４８４巷","ALLEY":"９９弄","HOUSE_NO":"５２號","E_COORD97":167301.53,"N_COORD97":2541474.1699999999,"ADDRESS":"金華路一段４８４巷９９弄５２號","OBJECTID":177931},"geometry":{"x":167301.53000000119,"y":2541474.1700000018}},{"attributes":{"ID":177933,"DIS_CODE":0,"TOWNNAME":"善化區","LI":"六德里","LIN":"16鄰","STREET":" ","SECT":" ","MAREA":"六分寮","LANE":" ","ALLEY":" ","HOUSE_NO":"３５１號","E_COORD97":178199.67999999999,"N_COORD97":2561524.25,"ADDRESS":"六分寮３５１號","OBJECTID":177932},"geometry":{"x":178199.6799999997,"y":2561524.2500000019}},{"attributes":{"ID":177934,"DIS_CODE":0,"TOWNNAME":"善化區","LI":"六德里","LIN":"16鄰","STREET":" ","SECT":" ","MAREA":"六分寮","LANE":" ","ALLEY":" ","HOUSE_NO":"３５２號","E_COORD97":178208.04000000001,"N_COORD97":2561493,"ADDRESS":"六分寮３５２號","OBJECTID":177933},"geometry":{"x":178208.0400000019,"y":2561493.0000000019}},{"attributes":{"ID":177935,"DIS_CODE":0,"TOWNNAME":"善化區","LI":"六德里","LIN":"16鄰","STREET":" ","SECT":" ","MAREA":"六分寮","LANE":" ","ALLEY":" ","HOUSE_NO":"３３３之２２號","E_COORD97":178318.75,"N_COORD97":2561411.27,"ADDRESS":"六分寮３３３之２２號","OBJECTID":177934},"geometry":{"x":178318.75000000093,"y":2561411.2700000033}},{"attributes":{"ID":177936,"DIS_CODE":0,"TOWNNAME":"東山區","LI":"科里里","LIN":"22鄰","STREET":" ","SECT":" ","MAREA":"枋子林","LANE":" ","ALLEY":" ","HOUSE_NO":"７９號之２","E_COORD97":188895.04999999999,"N_COORD97":2576954.5600000001,"ADDRESS":"枋子林７９號之２","OBJECTID":177935},"geometry":{"x":188895.04999999981,"y":2576954.5600000005}},{"attributes":{"ID":177937,"DIS_CODE":0,"TOWNNAME":"善化區","LI":"六德里","LIN":"16鄰","STREET":" ","SECT":" ","MAREA":"六分寮","LANE":" ","ALLEY":" ","HOUSE_NO":"３３３之１９號","E_COORD97":178295.45999999999,"N_COORD97":2561417.02,"ADDRESS":"六分寮３３３之１９號","OBJECTID":177936},"geometry":{"x":178295.46000000089,"y":2561417.0200000014}},{"attributes":{"ID":177938,"DIS_CODE":0,"TOWNNAME":"善化區","LI":"六德里","LIN":"16鄰","STREET":" ","SECT":" ","MAREA":"六分寮","LANE":" ","ALLEY":" ","HOUSE_NO":"３４９號","E_COORD97":178230.84,"N_COORD97":2561482.75,"ADDRESS":"六分寮３４９號","OBJECTID":177937},"geometry":{"x":178230.83999999985,"y":2561482.7499999981}},{"attributes":{"ID":177939,"DIS_CODE":0,"TOWNNAME":"善化區","LI":"六德里","LIN":"16鄰","STREET":" ","SECT":" ","MAREA":"六分寮","LANE":" ","ALLEY":" ","HOUSE_NO":"３５０號","E_COORD97":178225.12,"N_COORD97":2561508.25,"ADDRESS":"六分寮３５０號","OBJECTID":177938},"geometry":{"x":178225.12000000104,"y":2561508.2500000019}},{"attributes":{"ID":177940,"DIS_CODE":0,"TOWNNAME":"善化區","LI":"小新里","LIN":"16鄰","STREET":" ","SECT":" ","MAREA":"小新營","LANE":" ","ALLEY":" ","HOUSE_NO":"１３３號","E_COORD97":179863.41,"N_COORD97":2558221.5,"ADDRESS":"小新營１３３號","OBJECTID":177939},"geometry":{"x":179863.41000000201,"y":2558221.5}},{"attributes":{"ID":177941,"DIS_CODE":0,"TOWNNAME":"善化區","LI":"小新里","LIN":"16鄰","STREET":" ","SECT":" ","MAREA":"小新營","LANE":" ","ALLEY":" ","HOUSE_NO":"１３４之１號","E_COORD97":179866.488384,"N_COORD97":2558187.7431299998,"ADDRESS":"小新營１３４之１號","OBJECTID":177940},"geometry":{"x":179866.48838400096,"y":2558187.7431330029}},{"attributes":{"ID":177942,"DIS_CODE":0,"TOWNNAME":"官田區","LI":"官田里","LIN":"16鄰","STREET":" ","SECT":" ","MAREA":"官田","LANE":" ","ALLEY":" ","HOUSE_NO":"１８３號之１８","E_COORD97":182416.67999999999,"N_COORD97":2564673.6299999999,"ADDRESS":"官田１８３號之１８","OBJECTID":177941},"geometry":{"x":182416.6799999997,"y":2564673.6300000008}},{"attributes":{"ID":177943,"DIS_CODE":0,"TOWNNAME":"官田區","LI":"官田里","LIN":"16鄰","STREET":" ","SECT":" ","MAREA":"官田","LANE":" ","ALLEY":" ","HOUSE_NO":"１８３號之１９","E_COORD97":182417.67000000001,"N_COORD97":2564669.1499999999,"ADDRESS":"官田１８３號之１９","OBJECTID":177942},"geometry":{"x":182417.66999999899,"y":2564669.1500000022}},{"attributes":{"ID":177944,"DIS_CODE":0,"TOWNNAME":"官田區","LI":"官田里","LIN":"16鄰","STREET":" ","SECT":" ","MAREA":"官田","LANE":" ","ALLEY":" ","HOUSE_NO":"１８３號之１","E_COORD97":182414.48999999999,"N_COORD97":2564716.9300000002,"ADDRESS":"官田１８３號之１","OBJECTID":177943},"geometry":{"x":182414.49000000115,"y":2564716.9300000016}},{"attributes":{"ID":177945,"DIS_CODE":0,"TOWNNAME":"官田區","LI":"官田里","LIN":"16鄰","STREET":" ","SECT":" ","MAREA":"官田","LANE":" ","ALLEY":" ","HOUSE_NO":"１８３號之２０","E_COORD97":182436.06,"N_COORD97":2564685.1600000001,"ADDRESS":"官田１８３號之２０","OBJECTID":177944},"geometry":{"x":182436.05999999959,"y":2564685.160000002}},{"attributes":{"ID":177946,"DIS_CODE":0,"TOWNNAME":"官田區","LI":"官田里","LIN":"16鄰","STREET":" ","SECT":" ","MAREA":"官田","LANE":" ","ALLEY":" ","HOUSE_NO":"１８３號之２１","E_COORD97":182441.06,"N_COORD97":2564687.1899999999,"ADDRESS":"官田１８３號之２１","OBJECTID":177945},"geometry":{"x":182441.05999999959,"y":2564687.1900000013}},{"attributes":{"ID":177947,"DIS_CODE":0,"TOWNNAME":"官田區","LI":"官田里","LIN":"16鄰","STREET":" ","SECT":" ","MAREA":"官田","LANE":" ","ALLEY":" ","HOUSE_NO":"１８３號之２２","E_COORD97":182446.28,"N_COORD97":2564689.0699999998,"ADDRESS":"官田１８３號之２２","OBJECTID":177946},"geometry":{"x":182446.28000000212,"y":2564689.0700000022}},{"attributes":{"ID":177948,"DIS_CODE":0,"TOWNNAME":"官田區","LI":"官田里","LIN":"16鄰","STREET":" ","SECT":" ","MAREA":"官田","LANE":" ","ALLEY":" ","HOUSE_NO":"１８３號之２３","E_COORD97":182451.31,"N_COORD97":2564690.9300000002,"ADDRESS":"官田１８３號之２３","OBJECTID":177947},"geometry":{"x":182451.30999999959,"y":2564690.9299999997}},{"attributes":{"ID":177949,"DIS_CODE":0,"TOWNNAME":"官田區","LI":"官田里","LIN":"16鄰","STREET":" ","SECT":" ","MAREA":"官田","LANE":" ","ALLEY":" ","HOUSE_NO":"１８３號之２４","E_COORD97":182456.26999999999,"N_COORD97":2564692.52,"ADDRESS":"官田１８３號之２４","OBJECTID":177948},"geometry":{"x":182456.27000000048,"y":2564692.5200000014}},{"attributes":{"ID":177950,"DIS_CODE":0,"TOWNNAME":"南區","LI":"府南里","LIN":"6鄰","STREET":"金華路","SECT":"一段","MAREA":" ","LANE":"４８４巷","ALLEY":"９９弄","HOUSE_NO":"５４號","E_COORD97":167303.07000000001,"N_COORD97":2541477.7999999998,"ADDRESS":"金華路一段４８４巷９９弄５４號","OBJECTID":177949},"geometry":{"x":167303.07000000123,"y":2541477.8000000026}},{"attributes":{"ID":177951,"DIS_CODE":0,"TOWNNAME":"仁德區","LI":"仁德里","LIN":"10鄰","STREET":"中正路","SECT":"二段","MAREA":" ","LANE":"１２０５巷","ALLEY":" ","HOUSE_NO":"５號三樓之２","E_COORD97":173225.26999999999,"N_COORD97":2541261.8100000001,"ADDRESS":"中正路二段１２０５巷５號三樓之２","OBJECTID":177950},"geometry":{"x":173225.26999999862,"y":2541261.8100000005}},{"attributes":{"ID":177952,"DIS_CODE":0,"TOWNNAME":"佳里區","LI":"六安里","LIN":"24鄰","STREET":"林園街","SECT":" ","MAREA":" ","LANE":" ","ALLEY":" ","HOUSE_NO":"１３０號","E_COORD97":165738.22,"N_COORD97":2562885.0299999998,"ADDRESS":"林園街１３０號","OBJECTID":177951},"geometry":{"x":165738.2200000016,"y":2562885.0300000012}},{"attributes":{"ID":177953,"DIS_CODE":0,"TOWNNAME":"南區","LI":"府南里","LIN":"6鄰","STREET":"金華路","SECT":"一段","MAREA":" ","LANE":"４８４巷","ALLEY":"９９弄","HOUSE_NO":"５６號","E_COORD97":167304.70000000001,"N_COORD97":2541481.73,"ADDRESS":"金華路一段４８４巷９９弄５６號","OBJECTID":177952},"geometry":{"x":167304.70000000019,"y":2541481.7300000023}},{"attributes":{"ID":177954,"DIS_CODE":0,"TOWNNAME":"南區","LI":"府南里","LIN":"7鄰","STREET":"金華路","SECT":"一段","MAREA":" ","LANE":"４８４巷","ALLEY":"９９弄","HOUSE_NO":"７０號","E_COORD97":167311.12,"N_COORD97":2541497.1000000001,"ADDRESS":"金華路一段４８４巷９９弄７０號","OBJECTID":177953},"geometry":{"x":167311.12000000104,"y":2541497.0999999978}},{"attributes":{"ID":177955,"DIS_CODE":0,"TOWNNAME":"官田區","LI":"官田里","LIN":"16鄰","STREET":" ","SECT":" ","MAREA":"官田","LANE":" ","ALLEY":" ","HOUSE_NO":"１８３號之２５","E_COORD97":182461.51999999999,"N_COORD97":2564694.0099999998,"ADDRESS":"官田１８３號之２５","OBJECTID":177954},"geometry":{"x":182461.52000000048,"y":2564694.0099999998}},{"attributes":{"ID":177956,"DIS_CODE":0,"TOWNNAME":"麻豆區","LI":"北勢里","LIN":"16鄰","STREET":" ","SECT":" ","MAREA":"北勢寮","LANE":" ","ALLEY":" ","HOUSE_NO":"６５號之２","E_COORD97":171766.82999999999,"N_COORD97":2568358.23,"ADDRESS":"北勢寮６５號之２","OBJECTID":177955},"geometry":{"x":171766.83000000007,"y":2568358.2300000004}},{"attributes":{"ID":177957,"DIS_CODE":0,"TOWNNAME":"官田區","LI":"官田里","LIN":"16鄰","STREET":" ","SECT":" ","MAREA":"官田","LANE":" ","ALLEY":" ","HOUSE_NO":"１８３號之２７","E_COORD97":182471.41,"N_COORD97":2564697.3399999999,"ADDRESS":"官田１８３號之２７","OBJECTID":177956},"geometry":{"x":182471.41000000108,"y":2564697.3400000017}},{"attributes":{"ID":177958,"DIS_CODE":0,"TOWNNAME":"南區","LI":"府南里","LIN":"7鄰","STREET":"金華路","SECT":"一段","MAREA":" ","LANE":"４８４巷","ALLEY":"９９弄","HOUSE_NO":"７２號","E_COORD97":167312.47,"N_COORD97":2541500.4500000002,"ADDRESS":"金華路一段４８４巷９９弄７２號","OBJECTID":177957},"geometry":{"x":167312.46999999974,"y":2541500.4499999993}},{"attributes":{"ID":177959,"DIS_CODE":0,"TOWNNAME":"官田區","LI":"官田里","LIN":"16鄰","STREET":" ","SECT":" ","MAREA":"官田","LANE":" ","ALLEY":" ","HOUSE_NO":"１８３號之２","E_COORD97":182415.54000000001,"N_COORD97":2564712.2799999998,"ADDRESS":"官田１８３號之２","OBJECTID":177958},"geometry":{"x":182415.54000000097,"y":2564712.2799999993}},{"attributes":{"ID":177960,"DIS_CODE":0,"TOWNNAME":"南區","LI":"府南里","LIN":"7鄰","STREET":"金華路","SECT":"一段","MAREA":" ","LANE":"４８４巷","ALLEY":"９９弄","HOUSE_NO":"７４號","E_COORD97":167313.32000000001,"N_COORD97":2541504.8900000001,"ADDRESS":"金華路一段４８４巷９９弄７４號","OBJECTID":177959},"geometry":{"x":167313.32000000123,"y":2541504.8900000006}},{"attributes":{"ID":177961,"DIS_CODE":0,"TOWNNAME":"南區","LI":"府南里","LIN":"7鄰","STREET":"金華路","SECT":"一段","MAREA":" ","LANE":"４８４巷","ALLEY":"９９弄","HOUSE_NO":"７６號","E_COORD97":167314.14999999999,"N_COORD97":2541508.54,"ADDRESS":"金華路一段４８４巷９９弄７６號","OBJECTID":177960},"geometry":{"x":167314.14999999944,"y":2541508.540000001}},{"attributes":{"ID":177962,"DIS_CODE":0,"TOWNNAME":"南區","LI":"府南里","LIN":"7鄰","STREET":"金華路","SECT":"一段","MAREA":" ","LANE":"４８４巷","ALLEY":"９９弄","HOUSE_NO":"７８號","E_COORD97":167314.39999999999,"N_COORD97":2541512.6000000001,"ADDRESS":"金華路一段４８４巷９９弄７８號","OBJECTID":177961},"geometry":{"x":167314.4000000013,"y":2541512.6000000015}},{"attributes":{"ID":177963,"DIS_CODE":0,"TOWNNAME":"南區","LI":"府南里","LIN":"7鄰","STREET":"金華路","SECT":"一段","MAREA":" ","LANE":"４８４巷","ALLEY":"９９弄","HOUSE_NO":"８０號","E_COORD97":167315.23000000001,"N_COORD97":2541517,"ADDRESS":"金華路一段４８４巷９９弄８０號","OBJECTID":177962},"geometry":{"x":167315.23000000045,"y":2541517.0000000019}},{"attributes":{"ID":177964,"DIS_CODE":0,"TOWNNAME":"南區","LI":"府南里","LIN":"7鄰","STREET":"金華路","SECT":"一段","MAREA":" ","LANE":"４８４巷","ALLEY":"９９弄","HOUSE_NO":"８２號","E_COORD97":167317.07000000001,"N_COORD97":2541524.5699999998,"ADDRESS":"金華路一段４８４巷９９弄８２號","OBJECTID":177963},"geometry":{"x":167317.07000000123,"y":2541524.5700000003}},{"attributes":{"ID":177965,"DIS_CODE":0,"TOWNNAME":"南區","LI":"府南里","LIN":"7鄰","STREET":"金華路","SECT":"一段","MAREA":" ","LANE":"４８４巷","ALLEY":"９９弄","HOUSE_NO":"８４號","E_COORD97":167319.39000000001,"N_COORD97":2541528.4700000002,"ADDRESS":"金華路一段４８４巷９９弄８４號","OBJECTID":177964},"geometry":{"x":167319.3900000006,"y":2541528.4700000007}},{"attributes":{"ID":177966,"DIS_CODE":0,"TOWNNAME":"南區","LI":"府南里","LIN":"7鄰","STREET":"金華路","SECT":"一段","MAREA":" ","LANE":"４８４巷","ALLEY":"９９弄","HOUSE_NO":"８６號","E_COORD97":167321.04999999999,"N_COORD97":2541532.0299999998,"ADDRESS":"金華路一段４８４巷９９弄８６號","OBJECTID":177965},"geometry":{"x":167321.05000000168,"y":2541532.0300000012}},{"attributes":{"ID":177967,"DIS_CODE":0,"TOWNNAME":"南區","LI":"府南里","LIN":"7鄰","STREET":"金華路","SECT":"一段","MAREA":" ","LANE":"４８４巷","ALLEY":"９９弄","HOUSE_NO":"８８號","E_COORD97":167330.67999999999,"N_COORD97":2541518.6000000001,"ADDRESS":"金華路一段４８４巷９９弄８８號","OBJECTID":177966},"geometry":{"x":167330.68000000063,"y":2541518.6000000015}},{"attributes":{"ID":177968,"DIS_CODE":0,"TOWNNAME":"南區","LI":"府南里","LIN":"7鄰","STREET":"金華路","SECT":"一段","MAREA":" ","LANE":"４８４巷","ALLEY":"９９弄","HOUSE_NO":"９０號","E_COORD97":167334.66,"N_COORD97":2541515.5299999998,"ADDRESS":"金華路一段４８４巷９９弄９０號","OBJECTID":177967},"geometry":{"x":167334.66000000108,"y":2541515.5300000012}},{"attributes":{"ID":177969,"DIS_CODE":0,"TOWNNAME":"南區","LI":"府南里","LIN":"7鄰","STREET":"金華路","SECT":"一段","MAREA":" ","LANE":"４８４巷","ALLEY":"９９弄","HOUSE_NO":"９２號","E_COORD97":167337.98000000001,"N_COORD97":2541512.3799999999,"ADDRESS":"金華路一段４８４巷９９弄９２號","OBJECTID":177968},"geometry":{"x":167337.98000000138,"y":2541512.3800000008}},{"attributes":{"ID":177970,"DIS_CODE":0,"TOWNNAME":"南區","LI":"府南里","LIN":"7鄰","STREET":"金華路","SECT":"一段","MAREA":" ","LANE":"４８４巷","ALLEY":"９９弄","HOUSE_NO":"９４號","E_COORD97":167342.22,"N_COORD97":2541508.23,"ADDRESS":"金華路一段４８４巷９９弄９４號","OBJECTID":177969},"geometry":{"x":167342.22000000067,"y":2541508.2300000023}},{"attributes":{"ID":177971,"DIS_CODE":0,"TOWNNAME":"南區","LI":"府南里","LIN":"7鄰","STREET":"金華路","SECT":"一段","MAREA":" ","LANE":"４８４巷","ALLEY":"９９弄","HOUSE_NO":"９６號","E_COORD97":167345.62,"N_COORD97":2541503.5899999999,"ADDRESS":"金華路一段４８４巷９９弄９６號","OBJECTID":177970},"geometry":{"x":167345.62000000011,"y":2541503.5899999999}},{"attributes":{"ID":177972,"DIS_CODE":0,"TOWNNAME":"南區","LI":"府南里","LIN":"7鄰","STREET":"金華路","SECT":"一段","MAREA":" ","LANE":"４８４巷","ALLEY":"９９弄","HOUSE_NO":"９８號","E_COORD97":167349.51999999999,"N_COORD97":2541499.52,"ADDRESS":"金華路一段４８４巷９９弄９８號","OBJECTID":177971},"geometry":{"x":167349.51999999955,"y":2541499.5199999996}},{"attributes":{"ID":177973,"DIS_CODE":0,"TOWNNAME":"南區","LI":"府南里","LIN":"4鄰","STREET":"金華路","SECT":"一段","MAREA":" ","LANE":"４８４巷","ALLEY":"９９弄","HOUSE_NO":"３１號之１","E_COORD97":167276.23999999999,"N_COORD97":2541456.7200000002,"ADDRESS":"金華路一段４８４巷９９弄３１號之１","OBJECTID":177972},"geometry":{"x":167276.24000000209,"y":2541456.7199999988}},{"attributes":{"ID":177974,"DIS_CODE":0,"TOWNNAME":"南區","LI":"府南里","LIN":" ","STREET":"金華路","SECT":"一段","MAREA":" ","LANE":"４８４巷","ALLEY":"７１弄","HOUSE_NO":"１２號","E_COORD97":167228.87,"N_COORD97":2541452.9900000002,"ADDRESS":"金華路一段４８４巷７１弄１２號","OBJECTID":177973},"geometry":{"x":167228.87000000011,"y":2541452.9900000002}},{"attributes":{"ID":177975,"DIS_CODE":0,"TOWNNAME":"南區","LI":"府南里","LIN":" ","STREET":"大成路","SECT":"二段","MAREA":" ","LANE":"１７７巷","ALLEY":"５弄","HOUSE_NO":"２３號","E_COORD97":167373.63,"N_COORD97":2541670.9100000001,"ADDRESS":"大成路二段１７７巷５弄２３號","OBJECTID":177974},"geometry":{"x":167373.63000000082,"y":2541670.9100000001}},{"attributes":{"ID":177976,"DIS_CODE":0,"TOWNNAME":"南區","LI":"府南里","LIN":" ","STREET":"大成路","SECT":"二段","MAREA":" ","LANE":"１７７巷","ALLEY":"５弄","HOUSE_NO":"２５號","E_COORD97":167377.57999999999,"N_COORD97":2541668.46,"ADDRESS":"大成路二段１７７巷５弄２５號","OBJECTID":177975},"geometry":{"x":167377.58000000101,"y":2541668.4600000009}},{"attributes":{"ID":177977,"DIS_CODE":0,"TOWNNAME":"南區","LI":"府南里","LIN":" ","STREET":"大成路","SECT":"二段","MAREA":" ","LANE":"１７７巷","ALLEY":"５弄","HOUSE_NO":"２７號","E_COORD97":167382.32000000001,"N_COORD97":2541667.2000000002,"ADDRESS":"大成路二段１７７巷５弄２７號","OBJECTID":177976},"geometry":{"x":167382.3200000003,"y":2541667.2000000011}},{"attributes":{"ID":177978,"DIS_CODE":0,"TOWNNAME":"南區","LI":"府南里","LIN":" ","STREET":"大成路","SECT":"二段","MAREA":" ","LANE":"１７７巷","ALLEY":"５弄","HOUSE_NO":"２９號","E_COORD97":167385.95000000001,"N_COORD97":2541665.7799999998,"ADDRESS":"大成路二段１７７巷５弄２９號","OBJECTID":177977},"geometry":{"x":167385.95000000019,"y":2541665.7800000012}},{"attributes":{"ID":177979,"DIS_CODE":0,"TOWNNAME":"南區","LI":"府南里","LIN":" ","STREET":"大成路","SECT":"二段","MAREA":" ","LANE":"１７７巷","ALLEY":"５弄","HOUSE_NO":"３１號","E_COORD97":167390.76000000001,"N_COORD97":2541664.1200000001,"ADDRESS":"大成路二段１７７巷５弄３１號","OBJECTID":177978},"geometry":{"x":167390.75999999885,"y":2541664.120000001}},{"attributes":{"ID":177980,"DIS_CODE":0,"TOWNNAME":"南區","LI":"府南里","LIN":" ","STREET":"大成路","SECT":"二段","MAREA":" ","LANE":"１７７巷","ALLEY":"５弄","HOUSE_NO":"３３號","E_COORD97":167394.16,"N_COORD97":2541663.02,"ADDRESS":"大成路二段１７７巷５弄３３號","OBJECTID":177979},"geometry":{"x":167394.16000000108,"y":2541663.0199999996}},{"attributes":{"ID":177981,"DIS_CODE":0,"TOWNNAME":"南區","LI":"府南里","LIN":" ","STREET":"大成路","SECT":"二段","MAREA":" ","LANE":"１７７巷","ALLEY":"５弄","HOUSE_NO":"３７號","E_COORD97":167403.10000000001,"N_COORD97":2541659.8300000001,"ADDRESS":"大成路二段１７７巷５弄３７號","OBJECTID":177980},"geometry":{"x":167403.09999999963,"y":2541659.8300000019}},{"attributes":{"ID":177982,"DIS_CODE":0,"TOWNNAME":"南區","LI":"府南里","LIN":"18鄰","STREET":"大成路","SECT":"二段","MAREA":" ","LANE":"１７７巷","ALLEY":"２８弄","HOUSE_NO":"９號","E_COORD97":167217.26000000001,"N_COORD97":2541657.5499999998,"ADDRESS":"大成路二段１７７巷２８弄９號","OBJECTID":177981},"geometry":{"x":167217.25999999978,"y":2541657.5500000007}},{"attributes":{"ID":177983,"DIS_CODE":0,"TOWNNAME":"南區","LI":"明亮里","LIN":"17鄰","STREET":"金華路","SECT":"一段","MAREA":" ","LANE":"３５２巷","ALLEY":"９７弄","HOUSE_NO":"２號","E_COORD97":167250.73999999999,"N_COORD97":2541101.2799999998,"ADDRESS":"金華路一段３５２巷９７弄２號","OBJECTID":177982},"geometry":{"x":167250.74000000209,"y":2541101.2799999993}},{"attributes":{"ID":177984,"DIS_CODE":0,"TOWNNAME":"南區","LI":"明亮里","LIN":"17鄰","STREET":"金華路","SECT":"一段","MAREA":" ","LANE":"３５２巷","ALLEY":"９７弄","HOUSE_NO":"３號","E_COORD97":167242,"N_COORD97":2541108.4300000002,"ADDRESS":"金華路一段３５２巷９７弄３號","OBJECTID":177983},"geometry":{"x":167242.00000000186,"y":2541108.4299999978}},{"attributes":{"ID":177985,"DIS_CODE":0,"TOWNNAME":"南區","LI":"明亮里","LIN":"17鄰","STREET":"金華路","SECT":"一段","MAREA":" ","LANE":"３５２巷","ALLEY":"９７弄","HOUSE_NO":"４號","E_COORD97":167257.17000000001,"N_COORD97":2541106.0899999999,"ADDRESS":"金華路一段３５２巷９７弄４號","OBJECTID":177984},"geometry":{"x":167257.16999999993,"y":2541106.0899999999}},{"attributes":{"ID":177986,"DIS_CODE":0,"TOWNNAME":"南區","LI":"明亮里","LIN":"17鄰","STREET":"金華路","SECT":"一段","MAREA":" ","LANE":"３５２巷","ALLEY":"９７弄","HOUSE_NO":"５號","E_COORD97":167243.84,"N_COORD97":2541113.0299999998,"ADDRESS":"金華路一段３５２巷９７弄５號","OBJECTID":177985},"geometry":{"x":167243.83999999985,"y":2541113.0299999993}},{"attributes":{"ID":177987,"DIS_CODE":0,"TOWNNAME":"南區","LI":"明亮里","LIN":"17鄰","STREET":"金華路","SECT":"一段","MAREA":" ","LANE":"３５２巷","ALLEY":"９７弄","HOUSE_NO":"７號","E_COORD97":167250.29000000001,"N_COORD97":2541120.7000000002,"ADDRESS":"金華路一段３５２巷９７弄７號","OBJECTID":177986},"geometry":{"x":167250.2900000019,"y":2541120.7000000011}},{"attributes":{"ID":177988,"DIS_CODE":0,"TOWNNAME":"南區","LI":"明亮里","LIN":"17鄰","STREET":"金華路","SECT":"一段","MAREA":" ","LANE":"３５２巷","ALLEY":"９７弄","HOUSE_NO":"９號","E_COORD97":167251.82999999999,"N_COORD97":2541125.3100000001,"ADDRESS":"金華路一段３５２巷９７弄９號","OBJECTID":177987},"geometry":{"x":167251.83000000101,"y":2541125.3100000024}},{"attributes":{"ID":177989,"DIS_CODE":0,"TOWNNAME":"南區","LI":"明亮里","LIN":"17鄰","STREET":"金華路","SECT":"一段","MAREA":" ","LANE":"３５２巷","ALLEY":"９７弄","HOUSE_NO":"１１號","E_COORD97":167255.82000000001,"N_COORD97":2541128.0699999998,"ADDRESS":"金華路一段３５２巷９７弄１１號","OBJECTID":177988},"geometry":{"x":167255.82000000123,"y":2541128.0700000003}},{"attributes":{"ID":177990,"DIS_CODE":0,"TOWNNAME":"南區","LI":"明亮里","LIN":"17鄰","STREET":"金華路","SECT":"一段","MAREA":" ","LANE":"３５２巷","ALLEY":"９７弄","HOUSE_NO":"１３號","E_COORD97":167258.28,"N_COORD97":2541130.8300000001,"ADDRESS":"金華路一段３５２巷９７弄１３號","OBJECTID":177989},"geometry":{"x":167258.28000000026,"y":2541130.8300000019}},{"attributes":{"ID":177991,"DIS_CODE":0,"TOWNNAME":"南區","LI":"明亮里","LIN":"17鄰","STREET":"金華路","SECT":"一段","MAREA":" ","LANE":"３５２巷","ALLEY":"９７弄","HOUSE_NO":"１５號","E_COORD97":167260.73999999999,"N_COORD97":2541135.1200000001,"ADDRESS":"金華路一段３５２巷９７弄１５號","OBJECTID":177990},"geometry":{"x":167260.74000000022,"y":2541135.120000001}},{"attributes":{"ID":177992,"DIS_CODE":0,"TOWNNAME":"南區","LI":"明亮里","LIN":"17鄰","STREET":"金華路","SECT":"一段","MAREA":" ","LANE":"３５２巷","ALLEY":"９７弄","HOUSE_NO":"１７號","E_COORD97":167263.19,"N_COORD97":2541138.1899999999,"ADDRESS":"金華路一段３５２巷９７弄１７號","OBJECTID":177991},"geometry":{"x":167263.19000000227,"y":2541138.1900000013}},{"attributes":{"ID":177993,"DIS_CODE":0,"TOWNNAME":"南區","LI":"明亮里","LIN":"17鄰","STREET":"金華路","SECT":"一段","MAREA":" ","LANE":"３５２巷","ALLEY":"９７弄","HOUSE_NO":"１９號","E_COORD97":167270.57000000001,"N_COORD97":2541146.4700000002,"ADDRESS":"金華路一段３５２巷９７弄１９號","OBJECTID":177992},"geometry":{"x":167270.57000000216,"y":2541146.4699999988}},{"attributes":{"ID":177994,"DIS_CODE":0,"TOWNNAME":"南區","LI":"明亮里","LIN":"18鄰","STREET":"金華路","SECT":"一段","MAREA":" ","LANE":"３５２巷","ALLEY":"７５弄","HOUSE_NO":"３０號","E_COORD97":167216.19,"N_COORD97":2541149.2400000002,"ADDRESS":"金華路一段３５２巷７５弄３０號","OBJECTID":177993},"geometry":{"x":167216.19000000134,"y":2541149.2400000021}},{"attributes":{"ID":177995,"DIS_CODE":0,"TOWNNAME":"南區","LI":"明亮里","LIN":"19鄰","STREET":"金華路","SECT":"一段","MAREA":" ","LANE":"３５２巷","ALLEY":"３４弄","HOUSE_NO":"２８號","E_COORD97":167086.09,"N_COORD97":2541115.48,"ADDRESS":"金華路一段３５２巷３４弄２８號","OBJECTID":177994},"geometry":{"x":167086.08999999985,"y":2541115.4800000004}},{"attributes":{"ID":177996,"DIS_CODE":0,"TOWNNAME":"南區","LI":"明亮里","LIN":"19鄰","STREET":"金華路","SECT":"一段","MAREA":" ","LANE":"３５２巷","ALLEY":"３４弄","HOUSE_NO":"３０號","E_COORD97":167088.85000000001,"N_COORD97":2541114.5600000001,"ADDRESS":"金華路一段３５２巷３４弄３０號","OBJECTID":177995},"geometry":{"x":167088.85000000056,"y":2541114.5600000005}},{"attributes":{"ID":177997,"DIS_CODE":0,"TOWNNAME":"南區","LI":"明亮里","LIN":"19鄰","STREET":"金華路","SECT":"一段","MAREA":" ","LANE":"３５２巷","ALLEY":"３４弄","HOUSE_NO":"３２號","E_COORD97":167080.25,"N_COORD97":2541094.0099999998,"ADDRESS":"金華路一段３５２巷３４弄３２號","OBJECTID":177996},"geometry":{"x":167080.25,"y":2541094.0099999998}},{"attributes":{"ID":177998,"DIS_CODE":0,"TOWNNAME":"南區","LI":"明亮里","LIN":"19鄰","STREET":"金華路","SECT":"一段","MAREA":" ","LANE":"３５２巷","ALLEY":"３４弄","HOUSE_NO":"３４號","E_COORD97":167078.60000000001,"N_COORD97":2541088.0299999998,"ADDRESS":"金華路一段３５２巷３４弄３４號","OBJECTID":177997},"geometry":{"x":167078.60000000056,"y":2541088.0300000012}},{"attributes":{"ID":177999,"DIS_CODE":0,"TOWNNAME":"南區","LI":"明亮里","LIN":"19鄰","STREET":"金華路","SECT":"一段","MAREA":" ","LANE":"３５２巷","ALLEY":"３４弄","HOUSE_NO":"３６號","E_COORD97":167075.51000000001,"N_COORD97":2541083.6499999999,"ADDRESS":"金華路一段３５２巷３４弄３６號","OBJECTID":177998},"geometry":{"x":167075.51000000164,"y":2541083.6500000004}},{"attributes":{"ID":178000,"DIS_CODE":0,"TOWNNAME":"南區","LI":"明亮里","LIN":"19鄰","STREET":"金華路","SECT":"一段","MAREA":" ","LANE":"３５２巷","ALLEY":"３４弄","HOUSE_NO":"３８號","E_COORD97":167074.22,"N_COORD97":2541078.5099999998,"ADDRESS":"金華路一段３５２巷３４弄３８號","OBJECTID":177999},"geometry":{"x":167074.22000000067,"y":2541078.5100000016}},{"attributes":{"ID":178001,"DIS_CODE":0,"TOWNNAME":"南區","LI":"明亮里","LIN":"19鄰","STREET":"金華路","SECT":"一段","MAREA":" ","LANE":"３５２巷","ALLEY":"３４弄","HOUSE_NO":"４０號","E_COORD97":167071.89999999999,"N_COORD97":2541075.4199999999,"ADDRESS":"金華路一段３５２巷３４弄４０號","OBJECTID":178000},"geometry":{"x":167071.90000000224,"y":2541075.4200000018}}]}