{"displayFieldName":"TOWNNAME","fieldAliases":{"ID":"ID","DIS_CODE":"DIS_CODE","TOWNNAME":"TOWNNAME","LI":"LI","LIN":"LIN","STREET":"STREET","SECT":"SECT","MAREA":"MAREA","LANE":"LANE","ALLEY":"ALLEY","HOUSE_NO":"HOUSE_NO","E_COORD97":"E_COORD97","N_COORD97":"N_COORD97","ADDRESS":"ADDRESS","OBJECTID":"OBJECTID"},"geometryType":"esriGeometryPoint","spatialReference":{"wkid":102443,"latestWkid":3826},"fields":[{"name":"ID","type":"esriFieldTypeDouble","alias":"ID"},{"name":"DIS_CODE","type":"esriFieldTypeInteger","alias":"DIS_CODE"},{"name":"TOWNNAME","type":"esriFieldTypeString","alias":"TOWNNAME","length":8},{"name":"LI","type":"esriFieldTypeString","alias":"LI","length":8},{"name":"LIN","type":"esriFieldTypeString","alias":"LIN","length":12},{"name":"STREET","type":"esriFieldTypeString","alias":"STREET","length":20},{"name":"SECT","type":"esriFieldTypeString","alias":"SECT","length":8},{"name":"MAREA","type":"esriFieldTypeString","alias":"MAREA","length":12},{"name":"LANE","type":"esriFieldTypeString","alias":"LANE","length":10},{"name":"ALLEY","type":"esriFieldTypeString","alias":"ALLEY","length":10},{"name":"HOUSE_NO","type":"esriFieldTypeString","alias":"HOUSE_NO","length":20},{"name":"E_COORD97","type":"esriFieldTypeDouble","alias":"E_COORD97"},{"name":"N_COORD97","type":"esriFieldTypeDouble","alias":"N_COORD97"},{"name":"ADDRESS","type":"esriFieldTypeString","alias":"ADDRESS","length":50},{"name":"OBJECTID","type":"esriFieldTypeOID","alias":"OBJECTID"}],"features":[{"attributes":{"ID":524628,"DIS_CODE":0,"TOWNNAME":"安平區","LI":"金城里","LIN":"6鄰","STREET":"同平路","SECT":" ","MAREA":" ","LANE":" ","ALLEY":" ","HOUSE_NO":"９５號","E_COORD97":163195.22,"N_COORD97":2544199.1699999999,"ADDRESS":"同平路９５號","OBJECTID":524601},"geometry":{"x":163195.21999999974,"y":2544199.1699999981}},{"attributes":{"ID":524629,"DIS_CODE":0,"TOWNNAME":"安平區","LI":"金城里","LIN":"6鄰","STREET":"同平路","SECT":" ","MAREA":" ","LANE":" ","ALLEY":" ","HOUSE_NO":"９９號","E_COORD97":163188.51999999999,"N_COORD97":2544180.9500000002,"ADDRESS":"同平路９９號","OBJECTID":524602},"geometry":{"x":163188.52000000048,"y":2544180.9500000011}},{"attributes":{"ID":524630,"DIS_CODE":0,"TOWNNAME":"安平區","LI":"金城里","LIN":"6鄰","STREET":"安平路","SECT":" ","MAREA":" ","LANE":" ","ALLEY":" ","HOUSE_NO":"２２５號","E_COORD97":163424.57000000001,"N_COORD97":2544405.4500000002,"ADDRESS":"安平路２２５號","OBJECTID":524603},"geometry":{"x":163424.57000000123,"y":2544405.4499999993}},{"attributes":{"ID":524631,"DIS_CODE":0,"TOWNNAME":"北區","LI":"中樓里","LIN":"6鄰","STREET":"東豐路","SECT":" ","MAREA":" ","LANE":" ","ALLEY":" ","HOUSE_NO":"５７號","E_COORD97":169584.67000000001,"N_COORD97":2544950.2200000002,"ADDRESS":"東豐路５７號","OBJECTID":524604},"geometry":{"x":169584.66999999993,"y":2544950.2200000025}},{"attributes":{"ID":524632,"DIS_CODE":0,"TOWNNAME":"北區","LI":"中樓里","LIN":"6鄰","STREET":"東豐路","SECT":" ","MAREA":" ","LANE":" ","ALLEY":" ","HOUSE_NO":"６１號","E_COORD97":169592.82000000001,"N_COORD97":2544948.8100000001,"ADDRESS":"東豐路６１號","OBJECTID":524605},"geometry":{"x":169592.8200000003,"y":2544948.8100000024}},{"attributes":{"ID":524633,"DIS_CODE":0,"TOWNNAME":"北區","LI":"中樓里","LIN":"6鄰","STREET":"東豐路","SECT":" ","MAREA":" ","LANE":" ","ALLEY":" ","HOUSE_NO":"６５號","E_COORD97":169601.17000000001,"N_COORD97":2544947.3700000001,"ADDRESS":"東豐路６５號","OBJECTID":524606},"geometry":{"x":169601.17000000086,"y":2544947.370000001}},{"attributes":{"ID":524634,"DIS_CODE":0,"TOWNNAME":"北區","LI":"中樓里","LIN":"6鄰","STREET":"前鋒路","SECT":" ","MAREA":" ","LANE":" ","ALLEY":" ","HOUSE_NO":"２８８號","E_COORD97":169565.76000000001,"N_COORD97":2544976.04,"ADDRESS":"前鋒路２８８號","OBJECTID":524607},"geometry":{"x":169565.76000000164,"y":2544976.040000001}},{"attributes":{"ID":524635,"DIS_CODE":0,"TOWNNAME":"北區","LI":"中樓里","LIN":"6鄰","STREET":"前鋒路","SECT":" ","MAREA":" ","LANE":" ","ALLEY":" ","HOUSE_NO":"２９２號","E_COORD97":169569.47,"N_COORD97":2544983.8100000001,"ADDRESS":"前鋒路２９２號","OBJECTID":524608},"geometry":{"x":169569.4700000016,"y":2544983.8100000024}},{"attributes":{"ID":524636,"DIS_CODE":0,"TOWNNAME":"北區","LI":"中樓里","LIN":"6鄰","STREET":"前鋒路","SECT":" ","MAREA":" ","LANE":" ","ALLEY":" ","HOUSE_NO":"２９４號","E_COORD97":169570.84,"N_COORD97":2544987.8199999998,"ADDRESS":"前鋒路２９４號","OBJECTID":524609},"geometry":{"x":169570.84000000078,"y":2544987.8200000003}},{"attributes":{"ID":524637,"DIS_CODE":0,"TOWNNAME":"北區","LI":"中樓里","LIN":"6鄰","STREET":"前鋒路","SECT":" ","MAREA":" ","LANE":" ","ALLEY":" ","HOUSE_NO":"２９６號","E_COORD97":169573.17999999999,"N_COORD97":2544991.8999999999,"ADDRESS":"前鋒路２９６號","OBJECTID":524610},"geometry":{"x":169573.18000000063,"y":2544991.9000000022}},{"attributes":{"ID":524638,"DIS_CODE":0,"TOWNNAME":"北區","LI":"中樓里","LIN":"6鄰","STREET":"前鋒路","SECT":" ","MAREA":" ","LANE":" ","ALLEY":" ","HOUSE_NO":"２９８號","E_COORD97":169576.28,"N_COORD97":2544997.6400000001,"ADDRESS":"前鋒路２９８號","OBJECTID":524611},"geometry":{"x":169576.28000000212,"y":2544997.6400000025}},{"attributes":{"ID":524639,"DIS_CODE":0,"TOWNNAME":"北區","LI":"中樓里","LIN":"6鄰","STREET":"東豐路","SECT":" ","MAREA":" ","LANE":" ","ALLEY":" ","HOUSE_NO":"６９號","E_COORD97":169610.35000000001,"N_COORD97":2544946.3599999999,"ADDRESS":"東豐路６９號","OBJECTID":524612},"geometry":{"x":169610.34999999963,"y":2544946.3599999994}},{"attributes":{"ID":524640,"DIS_CODE":0,"TOWNNAME":"北區","LI":"中樓里","LIN":"6鄰","STREET":"東豐路","SECT":" ","MAREA":" ","LANE":" ","ALLEY":" ","HOUSE_NO":"７３號","E_COORD97":169621.72,"N_COORD97":2544944.25,"ADDRESS":"東豐路７３號","OBJECTID":524613},"geometry":{"x":169621.71999999974,"y":2544944.25}},{"attributes":{"ID":524641,"DIS_CODE":0,"TOWNNAME":"北區","LI":"中樓里","LIN":"6鄰","STREET":"東豐路","SECT":" ","MAREA":" ","LANE":" ","ALLEY":" ","HOUSE_NO":"７５號","E_COORD97":169626.44,"N_COORD97":2544943.25,"ADDRESS":"東豐路７５號","OBJECTID":524614},"geometry":{"x":169626.44000000134,"y":2544943.25}},{"attributes":{"ID":524642,"DIS_CODE":0,"TOWNNAME":"北區","LI":"玉皇里","LIN":"6鄰","STREET":"公園路","SECT":" ","MAREA":" ","LANE":" ","ALLEY":" ","HOUSE_NO":"２４１號","E_COORD97":168833.45999999999,"N_COORD97":2544551.0299999998,"ADDRESS":"公園路２４１號","OBJECTID":524615},"geometry":{"x":168833.45999999996,"y":2544551.0299999993}},{"attributes":{"ID":524643,"DIS_CODE":0,"TOWNNAME":"北區","LI":"玉皇里","LIN":"6鄰","STREET":"公園路","SECT":" ","MAREA":" ","LANE":" ","ALLEY":" ","HOUSE_NO":"２４３號","E_COORD97":168834.64999999999,"N_COORD97":2544553.6200000001,"ADDRESS":"公園路２４３號","OBJECTID":524616},"geometry":{"x":168834.65000000037,"y":2544553.6200000048}},{"attributes":{"ID":524644,"DIS_CODE":0,"TOWNNAME":"北區","LI":"玉皇里","LIN":"6鄰","STREET":"公園路","SECT":" ","MAREA":" ","LANE":" ","ALLEY":" ","HOUSE_NO":"２４５號","E_COORD97":168836.5,"N_COORD97":2544556.9500000002,"ADDRESS":"公園路２４５號","OBJECTID":524617},"geometry":{"x":168836.5,"y":2544556.9500000011}},{"attributes":{"ID":524645,"DIS_CODE":0,"TOWNNAME":"北區","LI":"玉皇里","LIN":"6鄰","STREET":"公園路","SECT":" ","MAREA":" ","LANE":" ","ALLEY":" ","HOUSE_NO":"２４７號","E_COORD97":168838.79999999999,"N_COORD97":2544559.6200000001,"ADDRESS":"公園路２４７號","OBJECTID":524618},"geometry":{"x":168838.80000000075,"y":2544559.620000001}},{"attributes":{"ID":524646,"DIS_CODE":0,"TOWNNAME":"北區","LI":"玉皇里","LIN":"6鄰","STREET":"公園路","SECT":" ","MAREA":" ","LANE":" ","ALLEY":" ","HOUSE_NO":"２４９號","E_COORD97":168842.57999999999,"N_COORD97":2544562.6600000001,"ADDRESS":"公園路２４９號","OBJECTID":524619},"geometry":{"x":168842.58000000101,"y":2544562.6600000039}},{"attributes":{"ID":524647,"DIS_CODE":0,"TOWNNAME":"北區","LI":"玉皇里","LIN":"6鄰","STREET":"公園路","SECT":" ","MAREA":" ","LANE":" ","ALLEY":" ","HOUSE_NO":"２５１號","E_COORD97":168846.12,"N_COORD97":2544567.5299999998,"ADDRESS":"公園路２５１號","OBJECTID":524620},"geometry":{"x":168846.12000000011,"y":2544567.5299999993}},{"attributes":{"ID":524648,"DIS_CODE":0,"TOWNNAME":"北區","LI":"玉皇里","LIN":"6鄰","STREET":"公園路","SECT":" ","MAREA":" ","LANE":" ","ALLEY":" ","HOUSE_NO":"２５３號","E_COORD97":168847.95000000001,"N_COORD97":2544570.6499999999,"ADDRESS":"公園路２５３號","OBJECTID":524621},"geometry":{"x":168847.95000000205,"y":2544570.6500000022}},{"attributes":{"ID":524649,"DIS_CODE":0,"TOWNNAME":"北區","LI":"玉皇里","LIN":"6鄰","STREET":"公園路","SECT":" ","MAREA":" ","LANE":" ","ALLEY":" ","HOUSE_NO":"２５５號","E_COORD97":168850.64999999999,"N_COORD97":2544575.4199999999,"ADDRESS":"公園路２５５號","OBJECTID":524622},"geometry":{"x":168850.6500000013,"y":2544575.4200000018}},{"attributes":{"ID":524650,"DIS_CODE":0,"TOWNNAME":"北區","LI":"玉皇里","LIN":"6鄰","STREET":"公園路","SECT":" ","MAREA":" ","LANE":" ","ALLEY":" ","HOUSE_NO":"２５７號","E_COORD97":168851.51999999999,"N_COORD97":2544579.2999999998,"ADDRESS":"公園路２５７號","OBJECTID":524623},"geometry":{"x":168851.51999999955,"y":2544579.3000000026}},{"attributes":{"ID":524651,"DIS_CODE":0,"TOWNNAME":"北區","LI":"玉皇里","LIN":"6鄰","STREET":"崇安街","SECT":" ","MAREA":" ","LANE":" ","ALLEY":" ","HOUSE_NO":"９４號","E_COORD97":168787.35000000001,"N_COORD97":2544580.27,"ADDRESS":"崇安街９４號","OBJECTID":524624},"geometry":{"x":168787.35000000056,"y":2544580.2699999996}},{"attributes":{"ID":524652,"DIS_CODE":0,"TOWNNAME":"北區","LI":"玉皇里","LIN":"6鄰","STREET":"崇安街","SECT":" ","MAREA":" ","LANE":" ","ALLEY":" ","HOUSE_NO":"９６號","E_COORD97":168788.89000000001,"N_COORD97":2544584.3700000001,"ADDRESS":"崇安街９６號","OBJECTID":524625},"geometry":{"x":168788.8900000006,"y":2544584.370000001}},{"attributes":{"ID":524653,"DIS_CODE":0,"TOWNNAME":"北區","LI":"玉皇里","LIN":"6鄰","STREET":"崇安街","SECT":" ","MAREA":" ","LANE":" ","ALLEY":" ","HOUSE_NO":"９８號","E_COORD97":168791.97,"N_COORD97":2544587.6400000001,"ADDRESS":"崇安街９８號","OBJECTID":524626},"geometry":{"x":168791.97000000067,"y":2544587.6400000025}},{"attributes":{"ID":524654,"DIS_CODE":0,"TOWNNAME":"歸仁區","LI":"崙頂里","LIN":"6鄰","STREET":"崙頂一街","SECT":" ","MAREA":" ","LANE":" ","ALLEY":" ","HOUSE_NO":"４７號","E_COORD97":178022.07000000001,"N_COORD97":2539999.6800000002,"ADDRESS":"崙頂一街４７號","OBJECTID":524627},"geometry":{"x":178022.07000000123,"y":2539999.6800000016}},{"attributes":{"ID":524655,"DIS_CODE":0,"TOWNNAME":"歸仁區","LI":"大潭里","LIN":"6鄰","STREET":"中正南路","SECT":"三段","MAREA":" ","LANE":" ","ALLEY":" ","HOUSE_NO":"２５３號","E_COORD97":175164.60999999999,"N_COORD97":2534712.2799999998,"ADDRESS":"中正南路三段２５３號","OBJECTID":524628},"geometry":{"x":175164.61000000034,"y":2534712.2800000012}},{"attributes":{"ID":524656,"DIS_CODE":0,"TOWNNAME":"歸仁區","LI":"南興里","LIN":"6鄰","STREET":"民生二街","SECT":" ","MAREA":" ","LANE":" ","ALLEY":" ","HOUSE_NO":"１３０號","E_COORD97":176081.14000000001,"N_COORD97":2541381.29,"ADDRESS":"民生二街１３０號","OBJECTID":524629},"geometry":{"x":176081.14000000153,"y":2541381.290000001}},{"attributes":{"ID":524657,"DIS_CODE":0,"TOWNNAME":"歸仁區","LI":"大潭里","LIN":"6鄰","STREET":"中正南路","SECT":"三段","MAREA":" ","LANE":" ","ALLEY":" ","HOUSE_NO":"２７１號","E_COORD97":175147.01000000001,"N_COORD97":2534677.2799999998,"ADDRESS":"中正南路三段２７１號","OBJECTID":524630},"geometry":{"x":175147.01000000071,"y":2534677.2799999993}},{"attributes":{"ID":524658,"DIS_CODE":0,"TOWNNAME":"歸仁區","LI":"歸仁里","LIN":"6鄰","STREET":"和平五街","SECT":" ","MAREA":" ","LANE":" ","ALLEY":" ","HOUSE_NO":"１７號","E_COORD97":177786.03,"N_COORD97":2540817.1699999999,"ADDRESS":"和平五街１７號","OBJECTID":524631},"geometry":{"x":177786.02999999933,"y":2540817.1700000018}},{"attributes":{"ID":524659,"DIS_CODE":0,"TOWNNAME":"歸仁區","LI":"新厝里","LIN":"6鄰","STREET":"復興路","SECT":" ","MAREA":" ","LANE":" ","ALLEY":" ","HOUSE_NO":"１３５號","E_COORD97":177719.29999999999,"N_COORD97":2540623.9399999999,"ADDRESS":"復興路１３５號","OBJECTID":524632},"geometry":{"x":177719.29999999888,"y":2540623.9400000013}},{"attributes":{"ID":524660,"DIS_CODE":0,"TOWNNAME":"歸仁區","LI":"新厝里","LIN":"6鄰","STREET":"復興路","SECT":" ","MAREA":" ","LANE":" ","ALLEY":" ","HOUSE_NO":"７９號","E_COORD97":177798.97,"N_COORD97":2540611.25,"ADDRESS":"復興路７９號","OBJECTID":524633},"geometry":{"x":177798.96999999974,"y":2540611.25}},{"attributes":{"ID":524661,"DIS_CODE":0,"TOWNNAME":"歸仁區","LI":"南興里","LIN":"6鄰","STREET":"民生二街","SECT":" ","MAREA":" ","LANE":" ","ALLEY":" ","HOUSE_NO":"１０４號","E_COORD97":176140.64000000001,"N_COORD97":2541379.29,"ADDRESS":"民生二街１０４號","OBJECTID":524634},"geometry":{"x":176140.6400000006,"y":2541379.2899999991}},{"attributes":{"ID":524662,"DIS_CODE":0,"TOWNNAME":"歸仁區","LI":"西埔里","LIN":"6鄰","STREET":"西埔一街","SECT":" ","MAREA":" ","LANE":" ","ALLEY":" ","HOUSE_NO":"１１號","E_COORD97":177176.51999999999,"N_COORD97":2544166.25,"ADDRESS":"西埔一街１１號","OBJECTID":524635},"geometry":{"x":177176.51999999955,"y":2544166.2500000019}},{"attributes":{"ID":524663,"DIS_CODE":0,"TOWNNAME":"歸仁區","LI":"歸仁里","LIN":"6鄰","STREET":"大通路","SECT":" ","MAREA":" ","LANE":" ","ALLEY":" ","HOUSE_NO":"５７號","E_COORD97":177774.54999999999,"N_COORD97":2540872.1800000002,"ADDRESS":"大通路５７號","OBJECTID":524636},"geometry":{"x":177774.54999999981,"y":2540872.1799999997}},{"attributes":{"ID":524664,"DIS_CODE":0,"TOWNNAME":"歸仁區","LI":"歸仁里","LIN":"6鄰","STREET":"和平五街","SECT":" ","MAREA":" ","LANE":" ","ALLEY":" ","HOUSE_NO":"１５號","E_COORD97":177789.13,"N_COORD97":2540817.1699999999,"ADDRESS":"和平五街１５號","OBJECTID":524637},"geometry":{"x":177789.13000000082,"y":2540817.1700000018}},{"attributes":{"ID":524665,"DIS_CODE":0,"TOWNNAME":"歸仁區","LI":"文化里","LIN":"6鄰","STREET":"民權一街","SECT":" ","MAREA":" ","LANE":" ","ALLEY":" ","HOUSE_NO":"１０３號","E_COORD97":177325.89999999999,"N_COORD97":2541353.3300000001,"ADDRESS":"民權一街１０３號","OBJECTID":524638},"geometry":{"x":177325.89999999944,"y":2541353.3300000001}},{"attributes":{"ID":524666,"DIS_CODE":0,"TOWNNAME":"歸仁區","LI":"歸仁里","LIN":"6鄰","STREET":"和平五街","SECT":" ","MAREA":" ","LANE":" ","ALLEY":" ","HOUSE_NO":"２２號","E_COORD97":177786.89000000001,"N_COORD97":2540831.1699999999,"ADDRESS":"和平五街２２號","OBJECTID":524639},"geometry":{"x":177786.8900000006,"y":2540831.1699999999}},{"attributes":{"ID":524667,"DIS_CODE":0,"TOWNNAME":"歸仁區","LI":"看東里","LIN":"6鄰","STREET":"成功三街","SECT":" ","MAREA":" ","LANE":" ","ALLEY":" ","HOUSE_NO":"２５號","E_COORD97":178463.35000000001,"N_COORD97":2540041.4500000002,"ADDRESS":"成功三街２５號","OBJECTID":524640},"geometry":{"x":178463.35000000056,"y":2540041.4500000011}},{"attributes":{"ID":524668,"DIS_CODE":0,"TOWNNAME":"歸仁區","LI":"看東里","LIN":"6鄰","STREET":"成功路","SECT":"一段","MAREA":" ","LANE":" ","ALLEY":" ","HOUSE_NO":"１６７號","E_COORD97":178512.64999999999,"N_COORD97":2540158.4500000002,"ADDRESS":"成功路一段１６７號","OBJECTID":524641},"geometry":{"x":178512.65000000224,"y":2540158.4499999993}},{"attributes":{"ID":524669,"DIS_CODE":0,"TOWNNAME":"歸仁區","LI":"八甲里","LIN":"6鄰","STREET":"大光二街","SECT":" ","MAREA":" ","LANE":" ","ALLEY":" ","HOUSE_NO":"２１號","E_COORD97":177892.92000000001,"N_COORD97":2541729.6099999999,"ADDRESS":"大光二街２１號","OBJECTID":524642},"geometry":{"x":177892.91999999993,"y":2541729.6099999994}},{"attributes":{"ID":524670,"DIS_CODE":0,"TOWNNAME":"歸仁區","LI":"大廟里","LIN":"6鄰","STREET":"大廟一街","SECT":" ","MAREA":" ","LANE":" ","ALLEY":" ","HOUSE_NO":"１４９號","E_COORD97":175690.42000000001,"N_COORD97":2543833.25,"ADDRESS":"大廟一街１４９號","OBJECTID":524643},"geometry":{"x":175690.41999999993,"y":2543833.2500000019}},{"attributes":{"ID":524671,"DIS_CODE":0,"TOWNNAME":"歸仁區","LI":"大潭里","LIN":"6鄰","STREET":"中正南路","SECT":"三段","MAREA":" ","LANE":" ","ALLEY":" ","HOUSE_NO":"２５７號","E_COORD97":175160.41,"N_COORD97":2534702.2799999998,"ADDRESS":"中正南路三段２５７號","OBJECTID":524644},"geometry":{"x":175160.41000000015,"y":2534702.2800000012}},{"attributes":{"ID":524672,"DIS_CODE":0,"TOWNNAME":"歸仁區","LI":"大廟里","LIN":"6鄰","STREET":"大廟一街","SECT":" ","MAREA":" ","LANE":" ","ALLEY":" ","HOUSE_NO":"２３１號","E_COORD97":175600.12,"N_COORD97":2543615.25,"ADDRESS":"大廟一街２３１號","OBJECTID":524645},"geometry":{"x":175600.11999999918,"y":2543615.25}},{"attributes":{"ID":524673,"DIS_CODE":0,"TOWNNAME":"歸仁區","LI":"文化里","LIN":"6鄰","STREET":"民權一街","SECT":" ","MAREA":" ","LANE":" ","ALLEY":" ","HOUSE_NO":"１０５號","E_COORD97":177331,"N_COORD97":2541353.3300000001,"ADDRESS":"民權一街１０５號","OBJECTID":524646},"geometry":{"x":177331,"y":2541353.3300000001}},{"attributes":{"ID":524674,"DIS_CODE":0,"TOWNNAME":"歸仁區","LI":"後市里","LIN":"6鄰","STREET":"大吉一街","SECT":" ","MAREA":" ","LANE":" ","ALLEY":" ","HOUSE_NO":"１７號","E_COORD97":177160.31,"N_COORD97":2540733.25,"ADDRESS":"大吉一街１７號","OBJECTID":524647},"geometry":{"x":177160.31000000052,"y":2540733.25}},{"attributes":{"ID":524675,"DIS_CODE":0,"TOWNNAME":"歸仁區","LI":"看西里","LIN":"6鄰","STREET":"信義南路","SECT":" ","MAREA":" ","LANE":" ","ALLEY":" ","HOUSE_NO":"１３７號","E_COORD97":178140.70000000001,"N_COORD97":2540354.4900000002,"ADDRESS":"信義南路１３７號","OBJECTID":524648},"geometry":{"x":178140.70000000019,"y":2540354.4900000002}},{"attributes":{"ID":524676,"DIS_CODE":0,"TOWNNAME":"歸仁區","LI":"大廟里","LIN":"6鄰","STREET":"和順路","SECT":"二段","MAREA":" ","LANE":" ","ALLEY":" ","HOUSE_NO":"２２６號","E_COORD97":175878.14000000001,"N_COORD97":2543617.2799999998,"ADDRESS":"和順路二段２２６號","OBJECTID":524649},"geometry":{"x":175878.1400000006,"y":2543617.2799999993}},{"attributes":{"ID":524677,"DIS_CODE":0,"TOWNNAME":"歸仁區","LI":"文化里","LIN":"6鄰","STREET":"民權一街","SECT":" ","MAREA":" ","LANE":" ","ALLEY":" ","HOUSE_NO":"６７號","E_COORD97":177244.64999999999,"N_COORD97":2541356.3300000001,"ADDRESS":"民權一街６７號","OBJECTID":524650},"geometry":{"x":177244.65000000224,"y":2541356.3300000001}},{"attributes":{"ID":524678,"DIS_CODE":0,"TOWNNAME":"北區","LI":"東興里","LIN":"6鄰","STREET":"小東路","SECT":" ","MAREA":" ","LANE":" ","ALLEY":" ","HOUSE_NO":"２５９之２號","E_COORD97":170937.97,"N_COORD97":2544504.48,"ADDRESS":"小東路２５９之２號","OBJECTID":524651},"geometry":{"x":170937.97000000067,"y":2544504.4800000023}},{"attributes":{"ID":524679,"DIS_CODE":0,"TOWNNAME":"玉井區","LI":"玉田里","LIN":"6鄰","STREET":"民主街","SECT":" ","MAREA":" ","LANE":" ","ALLEY":" ","HOUSE_NO":"１０３號","E_COORD97":195066.59,"N_COORD97":2558125.29,"ADDRESS":"民主街１０３號","OBJECTID":524652},"geometry":{"x":195066.59000000078,"y":2558125.2900000028}},{"attributes":{"ID":524680,"DIS_CODE":0,"TOWNNAME":"玉井區","LI":"玉田里","LIN":"6鄰","STREET":"民族路","SECT":" ","MAREA":" ","LANE":" ","ALLEY":" ","HOUSE_NO":"４９號","E_COORD97":195087.34,"N_COORD97":2558101.2799999998,"ADDRESS":"民族路４９號","OBJECTID":524653},"geometry":{"x":195087.33999999985,"y":2558101.2799999993}},{"attributes":{"ID":524681,"DIS_CODE":0,"TOWNNAME":"玉井區","LI":"中正里","LIN":"6鄰","STREET":"福德街","SECT":" ","MAREA":" ","LANE":" ","ALLEY":" ","HOUSE_NO":"８０號","E_COORD97":195447.23999999999,"N_COORD97":2558757.27,"ADDRESS":"福德街８０號","OBJECTID":524654},"geometry":{"x":195447.24000000115,"y":2558757.2700000014}},{"attributes":{"ID":524682,"DIS_CODE":0,"TOWNNAME":"玉井區","LI":"玉田里","LIN":"6鄰","STREET":"民族路","SECT":" ","MAREA":" ","LANE":" ","ALLEY":" ","HOUSE_NO":"５５號","E_COORD97":195101.42999999999,"N_COORD97":2558101.2799999998,"ADDRESS":"民族路５５號","OBJECTID":524655},"geometry":{"x":195101.43000000063,"y":2558101.2799999993}},{"attributes":{"ID":524683,"DIS_CODE":0,"TOWNNAME":"玉井區","LI":"中正里","LIN":"6鄰","STREET":"健康街","SECT":" ","MAREA":" ","LANE":" ","ALLEY":" ","HOUSE_NO":"１８５號","E_COORD97":195389.98000000001,"N_COORD97":2558812.29,"ADDRESS":"健康街１８５號","OBJECTID":524656},"geometry":{"x":195389.98000000138,"y":2558812.2899999991}},{"attributes":{"ID":524684,"DIS_CODE":0,"TOWNNAME":"玉井區","LI":"玉田里","LIN":"6鄰","STREET":"民族路","SECT":" ","MAREA":" ","LANE":" ","ALLEY":" ","HOUSE_NO":"６３號","E_COORD97":195119.13,"N_COORD97":2558101.2799999998,"ADDRESS":"民族路６３號","OBJECTID":524657},"geometry":{"x":195119.13000000082,"y":2558101.2799999993}},{"attributes":{"ID":524685,"DIS_CODE":0,"TOWNNAME":"玉井區","LI":"竹圍里","LIN":"6鄰","STREET":"中正路","SECT":" ","MAREA":" ","LANE":" ","ALLEY":" ","HOUSE_NO":"４０２號","E_COORD97":195458.54000000001,"N_COORD97":2558564.52,"ADDRESS":"中正路４０２號","OBJECTID":524658},"geometry":{"x":195458.54000000097,"y":2558564.5199999996}},{"attributes":{"ID":524686,"DIS_CODE":0,"TOWNNAME":"玉井區","LI":"玉田里","LIN":"6鄰","STREET":"民主街","SECT":" ","MAREA":" ","LANE":" ","ALLEY":" ","HOUSE_NO":"１２１號","E_COORD97":195091.07999999999,"N_COORD97":2558167.2799999998,"ADDRESS":"民主街１２１號","OBJECTID":524659},"geometry":{"x":195091.08000000007,"y":2558167.2800000012}},{"attributes":{"ID":524687,"DIS_CODE":0,"TOWNNAME":"玉井區","LI":"中正里","LIN":"6鄰","STREET":"大埕街","SECT":" ","MAREA":" ","LANE":" ","ALLEY":" ","HOUSE_NO":"８５號","E_COORD97":195423.5,"N_COORD97":2558810.2400000002,"ADDRESS":"大埕街８５號","OBJECTID":524660},"geometry":{"x":195423.50000000093,"y":2558810.2400000002}},{"attributes":{"ID":524688,"DIS_CODE":0,"TOWNNAME":"玉井區","LI":"竹圍里","LIN":"6鄰","STREET":"中正路","SECT":" ","MAREA":" ","LANE":" ","ALLEY":" ","HOUSE_NO":"４１０號","E_COORD97":195472.51000000001,"N_COORD97":2558577.5299999998,"ADDRESS":"中正路４１０號","OBJECTID":524661},"geometry":{"x":195472.50999999978,"y":2558577.5299999993}},{"attributes":{"ID":524689,"DIS_CODE":0,"TOWNNAME":"玉井區","LI":"竹圍里","LIN":"6鄰","STREET":"中正路","SECT":" ","MAREA":" ","LANE":" ","ALLEY":" ","HOUSE_NO":"３７８號","E_COORD97":195425.20999999999,"N_COORD97":2558525.3300000001,"ADDRESS":"中正路３７８號","OBJECTID":524662},"geometry":{"x":195425.21000000089,"y":2558525.3300000001}},{"attributes":{"ID":524690,"DIS_CODE":0,"TOWNNAME":"玉井區","LI":"竹圍里","LIN":"6鄰","STREET":"中正路","SECT":" ","MAREA":" ","LANE":" ","ALLEY":" ","HOUSE_NO":"４１２號","E_COORD97":195475.60000000001,"N_COORD97":2558580.8399999999,"ADDRESS":"中正路４１２號","OBJECTID":524663},"geometry":{"x":195475.59999999963,"y":2558580.8400000017}},{"attributes":{"ID":524691,"DIS_CODE":0,"TOWNNAME":"玉井區","LI":"竹圍里","LIN":"6鄰","STREET":"中正路","SECT":" ","MAREA":" ","LANE":" ","ALLEY":" ","HOUSE_NO":"４０８號","E_COORD97":195468.51000000001,"N_COORD97":2558574.4399999999,"ADDRESS":"中正路４０８號","OBJECTID":524664},"geometry":{"x":195468.51000000071,"y":2558574.4399999995}},{"attributes":{"ID":524692,"DIS_CODE":0,"TOWNNAME":"玉井區","LI":"竹圍里","LIN":"6鄰","STREET":"仁愛街","SECT":" ","MAREA":" ","LANE":" ","ALLEY":" ","HOUSE_NO":"３３３號","E_COORD97":195444.78,"N_COORD97":2558492.2799999998,"ADDRESS":"仁愛街３３３號","OBJECTID":524665},"geometry":{"x":195444.77999999933,"y":2558492.2800000012}},{"attributes":{"ID":524693,"DIS_CODE":0,"TOWNNAME":"玉井區","LI":"竹圍里","LIN":"6鄰","STREET":"仁愛街","SECT":" ","MAREA":" ","LANE":" ","ALLEY":" ","HOUSE_NO":"３５１號","E_COORD97":195479.79999999999,"N_COORD97":2558489.3900000001,"ADDRESS":"仁愛街３５１號","OBJECTID":524666},"geometry":{"x":195479.79999999888,"y":2558489.3900000025}},{"attributes":{"ID":524694,"DIS_CODE":0,"TOWNNAME":"玉井區","LI":"竹圍里","LIN":"6鄰","STREET":"仁愛街","SECT":" ","MAREA":" ","LANE":" ","ALLEY":" ","HOUSE_NO":"３４９號","E_COORD97":195475.39999999999,"N_COORD97":2558490.0699999998,"ADDRESS":"仁愛街３４９號","OBJECTID":524667},"geometry":{"x":195475.4000000013,"y":2558490.0700000003}},{"attributes":{"ID":524695,"DIS_CODE":0,"TOWNNAME":"玉井區","LI":"竹圍里","LIN":"6鄰","STREET":"忠孝街","SECT":" ","MAREA":" ","LANE":" ","ALLEY":" ","HOUSE_NO":"４５６號","E_COORD97":195523.07000000001,"N_COORD97":2558486.6499999999,"ADDRESS":"忠孝街４５６號","OBJECTID":524668},"geometry":{"x":195523.07000000123,"y":2558486.6500000004}},{"attributes":{"ID":524696,"DIS_CODE":0,"TOWNNAME":"玉井區","LI":"竹圍里","LIN":"6鄰","STREET":"中正路","SECT":" ","MAREA":" ","LANE":" ","ALLEY":" ","HOUSE_NO":"４０４號","E_COORD97":195461.42000000001,"N_COORD97":2558568.27,"ADDRESS":"中正路４０４號","OBJECTID":524669},"geometry":{"x":195461.41999999993,"y":2558568.2700000014}},{"attributes":{"ID":524697,"DIS_CODE":0,"TOWNNAME":"玉井區","LI":"竹圍里","LIN":"6鄰","STREET":"中正路","SECT":" ","MAREA":" ","LANE":" ","ALLEY":" ","HOUSE_NO":"４０６號","E_COORD97":195465.12,"N_COORD97":2558571.4700000002,"ADDRESS":"中正路４０６號","OBJECTID":524670},"geometry":{"x":195465.12000000104,"y":2558571.4700000025}},{"attributes":{"ID":524698,"DIS_CODE":0,"TOWNNAME":"玉井區","LI":"竹圍里","LIN":"6鄰","STREET":"中正路","SECT":" ","MAREA":" ","LANE":" ","ALLEY":" ","HOUSE_NO":"４００號","E_COORD97":195454.32999999999,"N_COORD97":2558562.54,"ADDRESS":"中正路４００號","OBJECTID":524671},"geometry":{"x":195454.33000000007,"y":2558562.540000001}},{"attributes":{"ID":524699,"DIS_CODE":0,"TOWNNAME":"玉井區","LI":"竹圍里","LIN":"6鄰","STREET":"中正路","SECT":" ","MAREA":" ","LANE":" ","ALLEY":" ","HOUSE_NO":"３９８號","E_COORD97":195451.45999999999,"N_COORD97":2558559.5600000001,"ADDRESS":"中正路３９８號","OBJECTID":524672},"geometry":{"x":195451.45999999996,"y":2558559.5600000024}},{"attributes":{"ID":524700,"DIS_CODE":0,"TOWNNAME":"玉井區","LI":"竹圍里","LIN":"6鄰","STREET":"中正路","SECT":" ","MAREA":" ","LANE":" ","ALLEY":" ","HOUSE_NO":"４１８號","E_COORD97":195486.48999999999,"N_COORD97":2558591.3199999998,"ADDRESS":"中正路４１８號","OBJECTID":524673},"geometry":{"x":195486.49000000115,"y":2558591.3200000022}},{"attributes":{"ID":524701,"DIS_CODE":0,"TOWNNAME":"玉井區","LI":"竹圍里","LIN":"6鄰","STREET":"中正路","SECT":" ","MAREA":" ","LANE":" ","ALLEY":" ","HOUSE_NO":"４１４號","E_COORD97":195479.70999999999,"N_COORD97":2558584.2599999998,"ADDRESS":"中正路４１４號","OBJECTID":524674},"geometry":{"x":195479.71000000089,"y":2558584.2600000016}},{"attributes":{"ID":524702,"DIS_CODE":0,"TOWNNAME":"玉井區","LI":"竹圍里","LIN":"6鄰","STREET":"中正路","SECT":" ","MAREA":" ","LANE":" ","ALLEY":" ","HOUSE_NO":"４２０號","E_COORD97":195491.73999999999,"N_COORD97":2558596.1800000002,"ADDRESS":"中正路４２０號","OBJECTID":524675},"geometry":{"x":195491.74000000115,"y":2558596.1800000016}},{"attributes":{"ID":524703,"DIS_CODE":0,"TOWNNAME":"玉井區","LI":"竹圍里","LIN":"6鄰","STREET":"中正路","SECT":" ","MAREA":" ","LANE":" ","ALLEY":" ","HOUSE_NO":"４１６號","E_COORD97":195483,"N_COORD97":2558587.6800000002,"ADDRESS":"中正路４１６號","OBJECTID":524676},"geometry":{"x":195483,"y":2558587.6800000034}},{"attributes":{"ID":524704,"DIS_CODE":0,"TOWNNAME":"玉井區","LI":"竹圍里","LIN":"6鄰","STREET":"中正路","SECT":" ","MAREA":" ","LANE":" ","ALLEY":" ","HOUSE_NO":"３９６號","E_COORD97":195448.88,"N_COORD97":2558557.02,"ADDRESS":"中正路３９６號","OBJECTID":524677},"geometry":{"x":195448.88000000175,"y":2558557.0199999996}},{"attributes":{"ID":524705,"DIS_CODE":0,"TOWNNAME":"玉井區","LI":"玉田里","LIN":"6鄰","STREET":"民生路","SECT":" ","MAREA":" ","LANE":" ","ALLEY":" ","HOUSE_NO":"３７０號","E_COORD97":195137.89000000001,"N_COORD97":2558133.29,"ADDRESS":"民生路３７０號","OBJECTID":524678},"geometry":{"x":195137.88999999966,"y":2558133.290000001}},{"attributes":{"ID":524706,"DIS_CODE":0,"TOWNNAME":"玉井區","LI":"玉田里","LIN":"6鄰","STREET":"民生路","SECT":" ","MAREA":" ","LANE":" ","ALLEY":" ","HOUSE_NO":"３５８號","E_COORD97":195140.98999999999,"N_COORD97":2558154.29,"ADDRESS":"民生路３５８號","OBJECTID":524679},"geometry":{"x":195140.99000000022,"y":2558154.2899999991}},{"attributes":{"ID":524707,"DIS_CODE":0,"TOWNNAME":"玉井區","LI":"玉田里","LIN":"6鄰","STREET":"民主街","SECT":" ","MAREA":" ","LANE":" ","ALLEY":" ","HOUSE_NO":"９９號","E_COORD97":195060.82999999999,"N_COORD97":2558113.29,"ADDRESS":"民主街９９號","OBJECTID":524680},"geometry":{"x":195060.83000000007,"y":2558113.290000001}},{"attributes":{"ID":524708,"DIS_CODE":0,"TOWNNAME":"玉井區","LI":"玉田里","LIN":"6鄰","STREET":"民族路","SECT":" ","MAREA":" ","LANE":" ","ALLEY":" ","HOUSE_NO":"６７號","E_COORD97":195127.54000000001,"N_COORD97":2558102.2799999998,"ADDRESS":"民族路６７號","OBJECTID":524681},"geometry":{"x":195127.5400000019,"y":2558102.2800000012}},{"attributes":{"ID":524709,"DIS_CODE":0,"TOWNNAME":"玉井區","LI":"玉田里","LIN":"6鄰","STREET":"民主街","SECT":" ","MAREA":" ","LANE":" ","ALLEY":" ","HOUSE_NO":"１０１號","E_COORD97":195064.48999999999,"N_COORD97":2558119.29,"ADDRESS":"民主街１０１號","OBJECTID":524682},"geometry":{"x":195064.49000000115,"y":2558119.290000001}},{"attributes":{"ID":524710,"DIS_CODE":0,"TOWNNAME":"玉井區","LI":"玉田里","LIN":"6鄰","STREET":"民主街","SECT":" ","MAREA":" ","LANE":" ","ALLEY":" ","HOUSE_NO":"１１７號","E_COORD97":195080.79000000001,"N_COORD97":2558148.29,"ADDRESS":"民主街１１７號","OBJECTID":524683},"geometry":{"x":195080.79000000097,"y":2558148.2899999991}},{"attributes":{"ID":524711,"DIS_CODE":0,"TOWNNAME":"玉井區","LI":"玉田里","LIN":"6鄰","STREET":"民生路","SECT":" ","MAREA":" ","LANE":" ","ALLEY":" ","HOUSE_NO":"３７６號","E_COORD97":195136.17999999999,"N_COORD97":2558120.29,"ADDRESS":"民生路３７６號","OBJECTID":524684},"geometry":{"x":195136.1799999997,"y":2558120.2899999991}},{"attributes":{"ID":524712,"DIS_CODE":0,"TOWNNAME":"玉井區","LI":"玉田里","LIN":"6鄰","STREET":"民主街","SECT":" ","MAREA":" ","LANE":" ","ALLEY":" ","HOUSE_NO":"９０號","E_COORD97":195084.73999999999,"N_COORD97":2558123.29,"ADDRESS":"民主街９０號","OBJECTID":524685},"geometry":{"x":195084.74000000115,"y":2558123.290000001}},{"attributes":{"ID":524713,"DIS_CODE":0,"TOWNNAME":"玉井區","LI":"中正里","LIN":"6鄰","STREET":"大埕街","SECT":" ","MAREA":" ","LANE":" ","ALLEY":" ","HOUSE_NO":"８７號","E_COORD97":195419.70000000001,"N_COORD97":2558810.2400000002,"ADDRESS":"大埕街８７號","OBJECTID":524686},"geometry":{"x":195419.70000000019,"y":2558810.2400000002}},{"attributes":{"ID":524714,"DIS_CODE":0,"TOWNNAME":"玉井區","LI":"玉田里","LIN":"6鄰","STREET":"民族路","SECT":" ","MAREA":" ","LANE":" ","ALLEY":" ","HOUSE_NO":"６１號","E_COORD97":195115.34,"N_COORD97":2558101.2799999998,"ADDRESS":"民族路６１號","OBJECTID":524687},"geometry":{"x":195115.34000000078,"y":2558101.2799999993}},{"attributes":{"ID":524715,"DIS_CODE":0,"TOWNNAME":"玉井區","LI":"玉田里","LIN":"6鄰","STREET":"民族路","SECT":" ","MAREA":" ","LANE":" ","ALLEY":" ","HOUSE_NO":"６９號","E_COORD97":195131.42999999999,"N_COORD97":2558102.2799999998,"ADDRESS":"民族路６９號","OBJECTID":524688},"geometry":{"x":195131.43000000156,"y":2558102.2800000012}},{"attributes":{"ID":524716,"DIS_CODE":0,"TOWNNAME":"學甲區","LI":"明宜里","LIN":"6鄰","STREET":"民權路","SECT":" ","MAREA":" ","LANE":" ","ALLEY":" ","HOUSE_NO":"１５６號","E_COORD97":165772.22,"N_COORD97":2570275.4100000001,"ADDRESS":"民權路１５６號","OBJECTID":524689},"geometry":{"x":165772.2200000016,"y":2570275.4100000001}},{"attributes":{"ID":524717,"DIS_CODE":0,"TOWNNAME":"學甲區","LI":"明宜里","LIN":"6鄰","STREET":"民權路","SECT":" ","MAREA":" ","LANE":" ","ALLEY":" ","HOUSE_NO":"１５８號","E_COORD97":165769.97,"N_COORD97":2570278.54,"ADDRESS":"民權路１５８號","OBJECTID":524690},"geometry":{"x":165769.96999999974,"y":2570278.540000001}},{"attributes":{"ID":524718,"DIS_CODE":0,"TOWNNAME":"學甲區","LI":"明宜里","LIN":"6鄰","STREET":"民權路","SECT":" ","MAREA":" ","LANE":" ","ALLEY":" ","HOUSE_NO":"１６０號","E_COORD97":165768.17000000001,"N_COORD97":2570281.9700000002,"ADDRESS":"民權路１６０號","OBJECTID":524691},"geometry":{"x":165768.17000000086,"y":2570281.9700000007}},{"attributes":{"ID":524719,"DIS_CODE":0,"TOWNNAME":"學甲區","LI":"明宜里","LIN":"6鄰","STREET":"民權路","SECT":" ","MAREA":" ","LANE":" ","ALLEY":" ","HOUSE_NO":"１６２號","E_COORD97":165765.69,"N_COORD97":2570285.4100000001,"ADDRESS":"民權路１６２號","OBJECTID":524692},"geometry":{"x":165765.69000000041,"y":2570285.4100000001}},{"attributes":{"ID":524720,"DIS_CODE":0,"TOWNNAME":"學甲區","LI":"明宜里","LIN":"6鄰","STREET":"民權路","SECT":" ","MAREA":" ","LANE":" ","ALLEY":" ","HOUSE_NO":"１６４號","E_COORD97":165763.34,"N_COORD97":2570288.8500000001,"ADDRESS":"民權路１６４號","OBJECTID":524693},"geometry":{"x":165763.34000000078,"y":2570288.8499999996}},{"attributes":{"ID":524721,"DIS_CODE":0,"TOWNNAME":"學甲區","LI":"明宜里","LIN":"6鄰","STREET":"民權路","SECT":" ","MAREA":" ","LANE":" ","ALLEY":" ","HOUSE_NO":"１７８號","E_COORD97":165742.79999999999,"N_COORD97":2570323.0600000001,"ADDRESS":"民權路１７８號","OBJECTID":524694},"geometry":{"x":165742.79999999888,"y":2570323.0600000005}},{"attributes":{"ID":524722,"DIS_CODE":0,"TOWNNAME":"學甲區","LI":"明宜里","LIN":"6鄰","STREET":"民權路","SECT":" ","MAREA":" ","LANE":" ","ALLEY":" ","HOUSE_NO":"１８０號","E_COORD97":165741.16,"N_COORD97":2570326.71,"ADDRESS":"民權路１８０號","OBJECTID":524695},"geometry":{"x":165741.16000000108,"y":2570326.7100000028}},{"attributes":{"ID":524723,"DIS_CODE":0,"TOWNNAME":"學甲區","LI":"明宜里","LIN":"6鄰","STREET":"民權路","SECT":" ","MAREA":" ","LANE":" ","ALLEY":" ","HOUSE_NO":"１８２號","E_COORD97":165739.51999999999,"N_COORD97":2570330.3599999999,"ADDRESS":"民權路１８２號","OBJECTID":524696},"geometry":{"x":165739.52000000142,"y":2570330.3599999975}},{"attributes":{"ID":524724,"DIS_CODE":0,"TOWNNAME":"學甲區","LI":"明宜里","LIN":"6鄰","STREET":"民權路","SECT":" ","MAREA":" ","LANE":" ","ALLEY":" ","HOUSE_NO":"１８４號","E_COORD97":165737.88,"N_COORD97":2570334.0099999998,"ADDRESS":"民權路１８４號","OBJECTID":524697},"geometry":{"x":165737.88000000082,"y":2570334.0100000016}},{"attributes":{"ID":524725,"DIS_CODE":0,"TOWNNAME":"學甲區","LI":"明宜里","LIN":"6鄰","STREET":"民權路","SECT":" ","MAREA":" ","LANE":" ","ALLEY":" ","HOUSE_NO":"１８６號","E_COORD97":165736.23000000001,"N_COORD97":2570337.6600000001,"ADDRESS":"民權路１８６號","OBJECTID":524698},"geometry":{"x":165736.23000000138,"y":2570337.660000002}},{"attributes":{"ID":524726,"DIS_CODE":0,"TOWNNAME":"學甲區","LI":"明宜里","LIN":"6鄰","STREET":"民權路","SECT":" ","MAREA":" ","LANE":" ","ALLEY":" ","HOUSE_NO":"１８８號","E_COORD97":165734.59,"N_COORD97":2570341.3100000001,"ADDRESS":"民權路１８８號","OBJECTID":524699},"geometry":{"x":165734.59000000078,"y":2570341.3100000005}},{"attributes":{"ID":524727,"DIS_CODE":0,"TOWNNAME":"學甲區","LI":"明宜里","LIN":"6鄰","STREET":"民權路","SECT":" ","MAREA":" ","LANE":" ","ALLEY":" ","HOUSE_NO":"１９０號","E_COORD97":165732.95000000001,"N_COORD97":2570344.96,"ADDRESS":"民權路１９０號","OBJECTID":524700},"geometry":{"x":165732.95000000019,"y":2570344.9600000046}},{"attributes":{"ID":524728,"DIS_CODE":0,"TOWNNAME":"學甲區","LI":"明宜里","LIN":"6鄰","STREET":"民權路","SECT":" ","MAREA":" ","LANE":" ","ALLEY":" ","HOUSE_NO":"１９２號","E_COORD97":165731.31,"N_COORD97":2570348.6099999999,"ADDRESS":"民權路１９２號","OBJECTID":524701},"geometry":{"x":165731.31000000052,"y":2570348.6099999994}},{"attributes":{"ID":524729,"DIS_CODE":0,"TOWNNAME":"學甲區","LI":"明宜里","LIN":"6鄰","STREET":"民權路","SECT":" ","MAREA":" ","LANE":" ","ALLEY":" ","HOUSE_NO":"１９４號","E_COORD97":165729.67000000001,"N_COORD97":2570352.2599999998,"ADDRESS":"民權路１９４號","OBJECTID":524702},"geometry":{"x":165729.66999999993,"y":2570352.2600000016}},{"attributes":{"ID":524730,"DIS_CODE":0,"TOWNNAME":"學甲區","LI":"明宜里","LIN":"6鄰","STREET":"民權路","SECT":" ","MAREA":" ","LANE":" ","ALLEY":" ","HOUSE_NO":"１９６號","E_COORD97":165728.01999999999,"N_COORD97":2570355.9100000001,"ADDRESS":"民權路１９６號","OBJECTID":524703},"geometry":{"x":165728.02000000048,"y":2570355.910000002}},{"attributes":{"ID":524731,"DIS_CODE":0,"TOWNNAME":"學甲區","LI":"明宜里","LIN":"6鄰","STREET":"民權路","SECT":" ","MAREA":" ","LANE":" ","ALLEY":" ","HOUSE_NO":"１９８號","E_COORD97":165726.38,"N_COORD97":2570359.5600000001,"ADDRESS":"民權路１９８號","OBJECTID":524704},"geometry":{"x":165726.37999999989,"y":2570359.5600000005}},{"attributes":{"ID":524732,"DIS_CODE":0,"TOWNNAME":"學甲區","LI":"明宜里","LIN":"6鄰","STREET":"民權路","SECT":" ","MAREA":" ","LANE":" ","ALLEY":" ","HOUSE_NO":"１４２號","E_COORD97":165803.88,"N_COORD97":2570233,"ADDRESS":"民權路１４２號","OBJECTID":524705},"geometry":{"x":165803.88000000082,"y":2570233.0000000019}},{"attributes":{"ID":524733,"DIS_CODE":0,"TOWNNAME":"學甲區","LI":"明宜里","LIN":"6鄰","STREET":"民權路","SECT":" ","MAREA":" ","LANE":" ","ALLEY":" ","HOUSE_NO":"１４４號之１","E_COORD97":165792.29000000001,"N_COORD97":2570248.8199999998,"ADDRESS":"民權路１４４號之１","OBJECTID":524706},"geometry":{"x":165792.2900000019,"y":2570248.8200000003}},{"attributes":{"ID":524734,"DIS_CODE":0,"TOWNNAME":"學甲區","LI":"明宜里","LIN":"6鄰","STREET":"民權路","SECT":" ","MAREA":" ","LANE":" ","ALLEY":" ","HOUSE_NO":"１４４號","E_COORD97":165795.57999999999,"N_COORD97":2570245.8199999998,"ADDRESS":"民權路１４４號","OBJECTID":524707},"geometry":{"x":165795.58000000194,"y":2570245.8200000003}},{"attributes":{"ID":524735,"DIS_CODE":0,"TOWNNAME":"學甲區","LI":"明宜里","LIN":"6鄰","STREET":"民權路","SECT":" ","MAREA":" ","LANE":" ","ALLEY":" ","HOUSE_NO":"１４６號","E_COORD97":165784.72,"N_COORD97":2570256.9100000001,"ADDRESS":"民權路１４６號","OBJECTID":524708},"geometry":{"x":165784.72000000067,"y":2570256.910000002}},{"attributes":{"ID":524736,"DIS_CODE":0,"TOWNNAME":"學甲區","LI":"明宜里","LIN":"6鄰","STREET":"民權路","SECT":" ","MAREA":" ","LANE":" ","ALLEY":" ","HOUSE_NO":"１４８號","E_COORD97":165782.01999999999,"N_COORD97":2570260.4500000002,"ADDRESS":"民權路１４８號","OBJECTID":524709},"geometry":{"x":165782.02000000048,"y":2570260.4499999993}},{"attributes":{"ID":524737,"DIS_CODE":0,"TOWNNAME":"學甲區","LI":"明宜里","LIN":"6鄰","STREET":"民權路","SECT":" ","MAREA":" ","LANE":" ","ALLEY":" ","HOUSE_NO":"１５０號","E_COORD97":165779.57999999999,"N_COORD97":2570263.6899999999,"ADDRESS":"民權路１５０號","OBJECTID":524710},"geometry":{"x":165779.58000000007,"y":2570263.6899999976}},{"attributes":{"ID":524738,"DIS_CODE":0,"TOWNNAME":"學甲區","LI":"明宜里","LIN":"6鄰","STREET":"民權路","SECT":" ","MAREA":" ","LANE":" ","ALLEY":" ","HOUSE_NO":"１５２號","E_COORD97":165777.17999999999,"N_COORD97":2570267.0299999998,"ADDRESS":"民權路１５２號","OBJECTID":524711},"geometry":{"x":165777.1799999997,"y":2570267.0299999993}},{"attributes":{"ID":524739,"DIS_CODE":0,"TOWNNAME":"學甲區","LI":"明宜里","LIN":"6鄰","STREET":"民權路","SECT":" ","MAREA":" ","LANE":" ","ALLEY":" ","HOUSE_NO":"２００號","E_COORD97":165724.73999999999,"N_COORD97":2570363.21,"ADDRESS":"民權路２００號","OBJECTID":524712},"geometry":{"x":165724.74000000022,"y":2570363.2100000009}},{"attributes":{"ID":524740,"DIS_CODE":0,"TOWNNAME":"學甲區","LI":"明宜里","LIN":"6鄰","STREET":"民權路","SECT":" ","MAREA":" ","LANE":" ","ALLEY":" ","HOUSE_NO":"２０２號","E_COORD97":165723.10000000001,"N_COORD97":2570366.8599999999,"ADDRESS":"民權路２０２號","OBJECTID":524713},"geometry":{"x":165723.09999999963,"y":2570366.8599999994}},{"attributes":{"ID":524741,"DIS_CODE":0,"TOWNNAME":"學甲區","LI":"明宜里","LIN":"6鄰","STREET":"民權路","SECT":" ","MAREA":" ","LANE":" ","ALLEY":" ","HOUSE_NO":"２０４號","E_COORD97":165721.45000000001,"N_COORD97":2570370.5099999998,"ADDRESS":"民權路２０４號","OBJECTID":524714},"geometry":{"x":165721.45000000019,"y":2570370.5100000035}},{"attributes":{"ID":524742,"DIS_CODE":0,"TOWNNAME":"學甲區","LI":"明宜里","LIN":"6鄰","STREET":"民權路","SECT":" ","MAREA":" ","LANE":" ","ALLEY":" ","HOUSE_NO":"２０６號","E_COORD97":165719.81,"N_COORD97":2570374.1600000001,"ADDRESS":"民權路２０６號","OBJECTID":524715},"geometry":{"x":165719.80999999959,"y":2570374.160000002}},{"attributes":{"ID":524743,"DIS_CODE":0,"TOWNNAME":"學甲區","LI":"明宜里","LIN":"6鄰","STREET":"民權路","SECT":" ","MAREA":" ","LANE":" ","ALLEY":" ","HOUSE_NO":"２０８號","E_COORD97":165718.17000000001,"N_COORD97":2570377.8100000001,"ADDRESS":"民權路２０８號","OBJECTID":524716},"geometry":{"x":165718.16999999993,"y":2570377.8100000005}},{"attributes":{"ID":524744,"DIS_CODE":0,"TOWNNAME":"學甲區","LI":"明宜里","LIN":"6鄰","STREET":"民權路","SECT":" ","MAREA":" ","LANE":" ","ALLEY":" ","HOUSE_NO":"２１０號","E_COORD97":165716.53,"N_COORD97":2570381.46,"ADDRESS":"民權路２１０號","OBJECTID":524717},"geometry":{"x":165716.53000000119,"y":2570381.4600000009}},{"attributes":{"ID":524745,"DIS_CODE":0,"TOWNNAME":"學甲區","LI":"明宜里","LIN":"6鄰","STREET":"民權路","SECT":" ","MAREA":" ","LANE":" ","ALLEY":" ","HOUSE_NO":"２１２號","E_COORD97":165711.45999999999,"N_COORD97":2570389.5800000001,"ADDRESS":"民權路２１２號","OBJECTID":524718},"geometry":{"x":165711.46000000183,"y":2570389.5800000001}},{"attributes":{"ID":524746,"DIS_CODE":0,"TOWNNAME":"學甲區","LI":"仁得里","LIN":"6鄰","STREET":"成功路","SECT":" ","MAREA":" ","LANE":" ","ALLEY":" ","HOUSE_NO":"２８號","E_COORD97":166179.95000000001,"N_COORD97":2570276.9900000002,"ADDRESS":"成功路２８號","OBJECTID":524719},"geometry":{"x":166179.95000000112,"y":2570276.9900000021}},{"attributes":{"ID":524747,"DIS_CODE":0,"TOWNNAME":"學甲區","LI":"明宜里","LIN":"6鄰","STREET":"信義路","SECT":" ","MAREA":" ","LANE":" ","ALLEY":" ","HOUSE_NO":"５１號","E_COORD97":165851.31,"N_COORD97":2570406.6099999999,"ADDRESS":"信義路５１號","OBJECTID":524720},"geometry":{"x":165851.31000000052,"y":2570406.6099999975}},{"attributes":{"ID":524748,"DIS_CODE":0,"TOWNNAME":"學甲區","LI":"新達里","LIN":"6鄰","STREET":"法源路","SECT":" ","MAREA":" ","LANE":" ","ALLEY":" ","HOUSE_NO":"５號之１","E_COORD97":166431.82000000001,"N_COORD97":2570501.4900000002,"ADDRESS":"法源路５號之１","OBJECTID":524721},"geometry":{"x":166431.82000000123,"y":2570501.4900000021}},{"attributes":{"ID":524749,"DIS_CODE":0,"TOWNNAME":"學甲區","LI":"新達里","LIN":"6鄰","STREET":"法源路","SECT":" ","MAREA":" ","LANE":" ","ALLEY":" ","HOUSE_NO":"５號之２","E_COORD97":166438.70999999999,"N_COORD97":2570497.8599999999,"ADDRESS":"法源路５號之２","OBJECTID":524722},"geometry":{"x":166438.71000000183,"y":2570497.8600000013}},{"attributes":{"ID":524750,"DIS_CODE":0,"TOWNNAME":"學甲區","LI":"新達里","LIN":"6鄰","STREET":"法源路","SECT":" ","MAREA":" ","LANE":" ","ALLEY":" ","HOUSE_NO":"５號之３","E_COORD97":166447.98999999999,"N_COORD97":2570502.54,"ADDRESS":"法源路５號之３","OBJECTID":524723},"geometry":{"x":166447.99000000115,"y":2570502.540000001}},{"attributes":{"ID":524751,"DIS_CODE":0,"TOWNNAME":"學甲區","LI":"新達里","LIN":"6鄰","STREET":"法源路","SECT":" ","MAREA":" ","LANE":" ","ALLEY":" ","HOUSE_NO":"５號之４","E_COORD97":166449.04999999999,"N_COORD97":2570507.46,"ADDRESS":"法源路５號之４","OBJECTID":524724},"geometry":{"x":166449.04999999981,"y":2570507.459999999}},{"attributes":{"ID":524752,"DIS_CODE":0,"TOWNNAME":"學甲區","LI":"新達里","LIN":"6鄰","STREET":"法源路","SECT":" ","MAREA":" ","LANE":" ","ALLEY":" ","HOUSE_NO":"５號","E_COORD97":166416.16,"N_COORD97":2570502.6099999999,"ADDRESS":"法源路５號","OBJECTID":524725},"geometry":{"x":166416.16000000108,"y":2570502.6100000013}},{"attributes":{"ID":524753,"DIS_CODE":0,"TOWNNAME":"學甲區","LI":"新達里","LIN":"6鄰","STREET":"法源路","SECT":" ","MAREA":" ","LANE":" ","ALLEY":" ","HOUSE_NO":"９號之２","E_COORD97":166459.06,"N_COORD97":2570534.29,"ADDRESS":"法源路９號之２","OBJECTID":524726},"geometry":{"x":166459.05999999959,"y":2570534.2900000028}},{"attributes":{"ID":524754,"DIS_CODE":0,"TOWNNAME":"學甲區","LI":"新達里","LIN":"6鄰","STREET":"法源路","SECT":" ","MAREA":" ","LANE":" ","ALLEY":" ","HOUSE_NO":"９號","E_COORD97":166458.20000000001,"N_COORD97":2570527.0899999999,"ADDRESS":"法源路９號","OBJECTID":524727},"geometry":{"x":166458.20000000112,"y":2570527.0900000017}},{"attributes":{"ID":524755,"DIS_CODE":0,"TOWNNAME":"學甲區","LI":"明宜里","LIN":"6鄰","STREET":"信義路","SECT":" ","MAREA":" ","LANE":" ","ALLEY":" ","HOUSE_NO":"３７號之１","E_COORD97":165809.17999999999,"N_COORD97":2570247.9199999999,"ADDRESS":"信義路３７號之１","OBJECTID":524728},"geometry":{"x":165809.1799999997,"y":2570247.9199999999}},{"attributes":{"ID":524756,"DIS_CODE":0,"TOWNNAME":"學甲區","LI":"明宜里","LIN":"6鄰","STREET":"信義路","SECT":" ","MAREA":" ","LANE":" ","ALLEY":" ","HOUSE_NO":"３７號之２","E_COORD97":165809.79999999999,"N_COORD97":2570252.6600000001,"ADDRESS":"信義路３７號之２","OBJECTID":524729},"geometry":{"x":165809.80000000075,"y":2570252.660000002}},{"attributes":{"ID":524757,"DIS_CODE":0,"TOWNNAME":"學甲區","LI":"明宜里","LIN":"6鄰","STREET":"信義路","SECT":" ","MAREA":" ","LANE":" ","ALLEY":" ","HOUSE_NO":"３７號之３","E_COORD97":165811.66,"N_COORD97":2570256.7799999998,"ADDRESS":"信義路３７號之３","OBJECTID":524730},"geometry":{"x":165811.66000000015,"y":2570256.7800000012}},{"attributes":{"ID":524758,"DIS_CODE":0,"TOWNNAME":"學甲區","LI":"明宜里","LIN":"6鄰","STREET":"信義路","SECT":" ","MAREA":" ","LANE":" ","ALLEY":" ","HOUSE_NO":"３７號","E_COORD97":165807.67000000001,"N_COORD97":2570243.6400000001,"ADDRESS":"信義路３７號","OBJECTID":524731},"geometry":{"x":165807.66999999993,"y":2570243.6400000006}},{"attributes":{"ID":524759,"DIS_CODE":0,"TOWNNAME":"學甲區","LI":"明宜里","LIN":"6鄰","STREET":"信義路","SECT":" ","MAREA":" ","LANE":" ","ALLEY":" ","HOUSE_NO":"３９號之１０","E_COORD97":165807.19,"N_COORD97":2570291.2200000002,"ADDRESS":"信義路３９號之１０","OBJECTID":524732},"geometry":{"x":165807.19000000134,"y":2570291.2200000007}},{"attributes":{"ID":524760,"DIS_CODE":0,"TOWNNAME":"學甲區","LI":"明宜里","LIN":"6鄰","STREET":"信義路","SECT":" ","MAREA":" ","LANE":" ","ALLEY":" ","HOUSE_NO":"３９號之１１","E_COORD97":165802.76000000001,"N_COORD97":2570293.27,"ADDRESS":"信義路３９號之１１","OBJECTID":524733},"geometry":{"x":165802.76000000071,"y":2570293.2699999996}},{"attributes":{"ID":524761,"DIS_CODE":0,"TOWNNAME":"學甲區","LI":"明宜里","LIN":"6鄰","STREET":"信義路","SECT":" ","MAREA":" ","LANE":" ","ALLEY":" ","HOUSE_NO":"３９號之１２","E_COORD97":165799.25,"N_COORD97":2570294.7000000002,"ADDRESS":"信義路３９號之１２","OBJECTID":524734},"geometry":{"x":165799.24999999907,"y":2570294.7000000011}},{"attributes":{"ID":524762,"DIS_CODE":0,"TOWNNAME":"學甲區","LI":"明宜里","LIN":"6鄰","STREET":"信義路","SECT":" ","MAREA":" ","LANE":" ","ALLEY":" ","HOUSE_NO":"３９號之１３","E_COORD97":165795.64999999999,"N_COORD97":2570296.3199999998,"ADDRESS":"信義路３９號之１３","OBJECTID":524735},"geometry":{"x":165795.6500000013,"y":2570296.3200000003}},{"attributes":{"ID":524763,"DIS_CODE":0,"TOWNNAME":"學甲區","LI":"明宜里","LIN":"6鄰","STREET":"信義路","SECT":" ","MAREA":" ","LANE":" ","ALLEY":" ","HOUSE_NO":"３９號之１４","E_COORD97":165791.69,"N_COORD97":2570298.46,"ADDRESS":"信義路３９號之１４","OBJECTID":524736},"geometry":{"x":165791.69000000227,"y":2570298.4600000028}},{"attributes":{"ID":524764,"DIS_CODE":0,"TOWNNAME":"學甲區","LI":"明宜里","LIN":"6鄰","STREET":"信義路","SECT":" ","MAREA":" ","LANE":" ","ALLEY":" ","HOUSE_NO":"３９號之１５","E_COORD97":165787.41,"N_COORD97":2570300.6299999999,"ADDRESS":"信義路３９號之１５","OBJECTID":524737},"geometry":{"x":165787.41000000015,"y":2570300.629999999}},{"attributes":{"ID":524765,"DIS_CODE":0,"TOWNNAME":"學甲區","LI":"明宜里","LIN":"6鄰","STREET":"信義路","SECT":" ","MAREA":" ","LANE":" ","ALLEY":" ","HOUSE_NO":"３９號之１６","E_COORD97":165830.25,"N_COORD97":2570298.1899999999,"ADDRESS":"信義路３９號之１６","OBJECTID":524738},"geometry":{"x":165830.25000000093,"y":2570298.1900000013}},{"attributes":{"ID":524766,"DIS_CODE":0,"TOWNNAME":"學甲區","LI":"明宜里","LIN":"6鄰","STREET":"信義路","SECT":" ","MAREA":" ","LANE":" ","ALLEY":" ","HOUSE_NO":"３９號之１７","E_COORD97":165831.35999999999,"N_COORD97":2570302.1699999999,"ADDRESS":"信義路３９號之１７","OBJECTID":524739},"geometry":{"x":165831.36000000127,"y":2570302.1700000018}},{"attributes":{"ID":524767,"DIS_CODE":0,"TOWNNAME":"學甲區","LI":"明宜里","LIN":"6鄰","STREET":"信義路","SECT":" ","MAREA":" ","LANE":" ","ALLEY":" ","HOUSE_NO":"３９號之１８","E_COORD97":165832.73000000001,"N_COORD97":2570305.8900000001,"ADDRESS":"信義路３９號之１８","OBJECTID":524740},"geometry":{"x":165832.73000000138,"y":2570305.8900000025}},{"attributes":{"ID":524768,"DIS_CODE":0,"TOWNNAME":"學甲區","LI":"明宜里","LIN":"6鄰","STREET":"信義路","SECT":" ","MAREA":" ","LANE":" ","ALLEY":" ","HOUSE_NO":"３９號之１９","E_COORD97":165834.14000000001,"N_COORD97":2570309.5899999999,"ADDRESS":"信義路３９號之１９","OBJECTID":524741},"geometry":{"x":165834.1400000006,"y":2570309.5900000017}},{"attributes":{"ID":524769,"DIS_CODE":0,"TOWNNAME":"學甲區","LI":"明宜里","LIN":"6鄰","STREET":"信義路","SECT":" ","MAREA":" ","LANE":" ","ALLEY":" ","HOUSE_NO":"３９號之１","E_COORD97":165815.59,"N_COORD97":2570264.73,"ADDRESS":"信義路３９號之１","OBJECTID":524742},"geometry":{"x":165815.59000000171,"y":2570264.7300000042}},{"attributes":{"ID":524770,"DIS_CODE":0,"TOWNNAME":"學甲區","LI":"明宜里","LIN":"6鄰","STREET":"信義路","SECT":" ","MAREA":" ","LANE":" ","ALLEY":" ","HOUSE_NO":"３９號之２０","E_COORD97":165821.91,"N_COORD97":2570303.0099999998,"ADDRESS":"信義路３９號之２０","OBJECTID":524743},"geometry":{"x":165821.91000000015,"y":2570303.0100000035}},{"attributes":{"ID":524771,"DIS_CODE":0,"TOWNNAME":"學甲區","LI":"明宜里","LIN":"6鄰","STREET":"信義路","SECT":" ","MAREA":" ","LANE":" ","ALLEY":" ","HOUSE_NO":"３９號之２１","E_COORD97":165817.84,"N_COORD97":2570304.4700000002,"ADDRESS":"信義路３９號之２１","OBJECTID":524744},"geometry":{"x":165817.84000000078,"y":2570304.4700000025}},{"attributes":{"ID":524772,"DIS_CODE":0,"TOWNNAME":"學甲區","LI":"明宜里","LIN":"6鄰","STREET":"信義路","SECT":" ","MAREA":" ","LANE":" ","ALLEY":" ","HOUSE_NO":"３９號之２２","E_COORD97":165813.85000000001,"N_COORD97":2570306.6099999999,"ADDRESS":"信義路３９號之２２","OBJECTID":524745},"geometry":{"x":165813.85000000056,"y":2570306.6100000013}},{"attributes":{"ID":524773,"DIS_CODE":0,"TOWNNAME":"學甲區","LI":"明宜里","LIN":"6鄰","STREET":"信義路","SECT":" ","MAREA":" ","LANE":" ","ALLEY":" ","HOUSE_NO":"３９號之２３","E_COORD97":165810.31,"N_COORD97":2570308.48,"ADDRESS":"信義路３９號之２３","OBJECTID":524746},"geometry":{"x":165810.30999999866,"y":2570308.4800000023}},{"attributes":{"ID":524774,"DIS_CODE":0,"TOWNNAME":"學甲區","LI":"明宜里","LIN":"6鄰","STREET":"信義路","SECT":" ","MAREA":" ","LANE":" ","ALLEY":" ","HOUSE_NO":"３９號之２４","E_COORD97":165805.54000000001,"N_COORD97":2570309.7400000002,"ADDRESS":"信義路３９號之２４","OBJECTID":524747},"geometry":{"x":165805.54000000004,"y":2570309.7400000021}},{"attributes":{"ID":524775,"DIS_CODE":0,"TOWNNAME":"學甲區","LI":"明宜里","LIN":"6鄰","STREET":"信義路","SECT":" ","MAREA":" ","LANE":" ","ALLEY":" ","HOUSE_NO":"３９號之２","E_COORD97":165818.09,"N_COORD97":2570269.0600000001,"ADDRESS":"信義路３９號之２","OBJECTID":524748},"geometry":{"x":165818.08999999985,"y":2570269.0599999987}},{"attributes":{"ID":524776,"DIS_CODE":0,"TOWNNAME":"學甲區","LI":"明宜里","LIN":"6鄰","STREET":"信義路","SECT":" ","MAREA":" ","LANE":" ","ALLEY":" ","HOUSE_NO":"３９號之３","E_COORD97":165819.45000000001,"N_COORD97":2570272.6800000002,"ADDRESS":"信義路３９號之３","OBJECTID":524749},"geometry":{"x":165819.45000000019,"y":2570272.6800000016}},{"attributes":{"ID":524777,"DIS_CODE":0,"TOWNNAME":"學甲區","LI":"明宜里","LIN":"6鄰","STREET":"信義路","SECT":" ","MAREA":" ","LANE":" ","ALLEY":" ","HOUSE_NO":"３９號之４","E_COORD97":165821.20000000001,"N_COORD97":2570276.7999999998,"ADDRESS":"信義路３９號之４","OBJECTID":524750},"geometry":{"x":165821.20000000019,"y":2570276.8000000007}},{"attributes":{"ID":524778,"DIS_CODE":0,"TOWNNAME":"學甲區","LI":"明宜里","LIN":"6鄰","STREET":"信義路","SECT":" ","MAREA":" ","LANE":" ","ALLEY":" ","HOUSE_NO":"３９號之５","E_COORD97":165821.98999999999,"N_COORD97":2570281.5299999998,"ADDRESS":"信義路３９號之５","OBJECTID":524751},"geometry":{"x":165821.99000000115,"y":2570281.5299999993}},{"attributes":{"ID":524779,"DIS_CODE":0,"TOWNNAME":"學甲區","LI":"明宜里","LIN":"6鄰","STREET":"信義路","SECT":" ","MAREA":" ","LANE":" ","ALLEY":" ","HOUSE_NO":"３９號之６","E_COORD97":165823.64999999999,"N_COORD97":2570285.0099999998,"ADDRESS":"信義路３９號之６","OBJECTID":524752},"geometry":{"x":165823.65000000037,"y":2570285.0099999998}},{"attributes":{"ID":524780,"DIS_CODE":0,"TOWNNAME":"學甲區","LI":"明宜里","LIN":"6鄰","STREET":"信義路","SECT":" ","MAREA":" ","LANE":" ","ALLEY":" ","HOUSE_NO":"３９號之７","E_COORD97":165825.85999999999,"N_COORD97":2570288.6899999999,"ADDRESS":"信義路３９號之７","OBJECTID":524753},"geometry":{"x":165825.86000000034,"y":2570288.6900000013}},{"attributes":{"ID":524781,"DIS_CODE":0,"TOWNNAME":"學甲區","LI":"明宜里","LIN":"6鄰","STREET":"信義路","SECT":" ","MAREA":" ","LANE":" ","ALLEY":" ","HOUSE_NO":"３９號之８","E_COORD97":165814.82000000001,"N_COORD97":2570287.6699999999,"ADDRESS":"信義路３９號之８","OBJECTID":524754},"geometry":{"x":165814.82000000123,"y":2570287.6699999999}},{"attributes":{"ID":524782,"DIS_CODE":0,"TOWNNAME":"學甲區","LI":"明宜里","LIN":"6鄰","STREET":"信義路","SECT":" ","MAREA":" ","LANE":" ","ALLEY":" ","HOUSE_NO":"３９號之９","E_COORD97":165810.70000000001,"N_COORD97":2570289.52,"ADDRESS":"信義路３９號之９","OBJECTID":524755},"geometry":{"x":165810.70000000112,"y":2570289.5200000014}},{"attributes":{"ID":524783,"DIS_CODE":0,"TOWNNAME":"學甲區","LI":"明宜里","LIN":"6鄰","STREET":"信義路","SECT":" ","MAREA":" ","LANE":" ","ALLEY":" ","HOUSE_NO":"３９號","E_COORD97":165813.5,"N_COORD97":2570260.73,"ADDRESS":"信義路３９號","OBJECTID":524756},"geometry":{"x":165813.50000000093,"y":2570260.7300000004}},{"attributes":{"ID":524784,"DIS_CODE":0,"TOWNNAME":"學甲區","LI":"明宜里","LIN":"6鄰","STREET":"信義路","SECT":" ","MAREA":" ","LANE":" ","ALLEY":" ","HOUSE_NO":"４３號之１０","E_COORD97":165805.41,"N_COORD97":2570345.1299999999,"ADDRESS":"信義路４３號之１０","OBJECTID":524757},"geometry":{"x":165805.41000000108,"y":2570345.1300000027}},{"attributes":{"ID":524785,"DIS_CODE":0,"TOWNNAME":"學甲區","LI":"明宜里","LIN":"6鄰","STREET":"信義路","SECT":" ","MAREA":" ","LANE":" ","ALLEY":" ","HOUSE_NO":"４３號之１１","E_COORD97":165802.35000000001,"N_COORD97":2570347.4900000002,"ADDRESS":"信義路４３號之１１","OBJECTID":524758},"geometry":{"x":165802.35000000056,"y":2570347.4900000039}},{"attributes":{"ID":524786,"DIS_CODE":0,"TOWNNAME":"學甲區","LI":"明宜里","LIN":"6鄰","STREET":"信義路","SECT":" ","MAREA":" ","LANE":" ","ALLEY":" ","HOUSE_NO":"４３號之１２","E_COORD97":165798.95000000001,"N_COORD97":2570349.1800000002,"ADDRESS":"信義路４３號之１２","OBJECTID":524759},"geometry":{"x":165798.95000000112,"y":2570349.1800000034}},{"attributes":{"ID":524787,"DIS_CODE":0,"TOWNNAME":"學甲區","LI":"明宜里","LIN":"6鄰","STREET":"信義路","SECT":" ","MAREA":" ","LANE":" ","ALLEY":" ","HOUSE_NO":"４３號之１３","E_COORD97":165795.5,"N_COORD97":2570350.8900000001,"ADDRESS":"信義路４３號之１３","OBJECTID":524760},"geometry":{"x":165795.5,"y":2570350.8900000006}},{"attributes":{"ID":524788,"DIS_CODE":0,"TOWNNAME":"學甲區","LI":"明宜里","LIN":"6鄰","STREET":"信義路","SECT":" ","MAREA":" ","LANE":" ","ALLEY":" ","HOUSE_NO":"４３號之１","E_COORD97":165815.85000000001,"N_COORD97":2570322.2799999998,"ADDRESS":"信義路４３號之１","OBJECTID":524761},"geometry":{"x":165815.85000000056,"y":2570322.2800000012}},{"attributes":{"ID":524789,"DIS_CODE":0,"TOWNNAME":"學甲區","LI":"明宜里","LIN":"6鄰","STREET":"信義路","SECT":" ","MAREA":" ","LANE":" ","ALLEY":" ","HOUSE_NO":"４３號之２","E_COORD97":165808.39000000001,"N_COORD97":2570325.3500000001,"ADDRESS":"信義路４３號之２","OBJECTID":524762},"geometry":{"x":165808.3900000006,"y":2570325.3500000015}},{"attributes":{"ID":524790,"DIS_CODE":0,"TOWNNAME":"學甲區","LI":"明宜里","LIN":"6鄰","STREET":"信義路","SECT":" ","MAREA":" ","LANE":" ","ALLEY":" ","HOUSE_NO":"４３號之３","E_COORD97":165829.59,"N_COORD97":2570333.3799999999,"ADDRESS":"信義路４３號之３","OBJECTID":524763},"geometry":{"x":165829.59000000078,"y":2570333.3800000027}},{"attributes":{"ID":524791,"DIS_CODE":0,"TOWNNAME":"學甲區","LI":"明宜里","LIN":"6鄰","STREET":"信義路","SECT":" ","MAREA":" ","LANE":" ","ALLEY":" ","HOUSE_NO":"４３號之４","E_COORD97":165827.32000000001,"N_COORD97":2570335.5499999998,"ADDRESS":"信義路４３號之４","OBJECTID":524764},"geometry":{"x":165827.3200000003,"y":2570335.5500000026}},{"attributes":{"ID":524792,"DIS_CODE":0,"TOWNNAME":"學甲區","LI":"明宜里","LIN":"6鄰","STREET":"信義路","SECT":" ","MAREA":" ","LANE":" ","ALLEY":" ","HOUSE_NO":"４３號之５","E_COORD97":165822.97,"N_COORD97":2570337.1600000001,"ADDRESS":"信義路４３號之５","OBJECTID":524765},"geometry":{"x":165822.9700000016,"y":2570337.160000002}},{"attributes":{"ID":524793,"DIS_CODE":0,"TOWNNAME":"學甲區","LI":"明宜里","LIN":"6鄰","STREET":"信義路","SECT":" ","MAREA":" ","LANE":" ","ALLEY":" ","HOUSE_NO":"４３號之６","E_COORD97":165820.07000000001,"N_COORD97":2570339.4100000001,"ADDRESS":"信義路４３號之６","OBJECTID":524766},"geometry":{"x":165820.07000000123,"y":2570339.410000002}},{"attributes":{"ID":524794,"DIS_CODE":0,"TOWNNAME":"學甲區","LI":"明宜里","LIN":"6鄰","STREET":"信義路","SECT":" ","MAREA":" ","LANE":" ","ALLEY":" ","HOUSE_NO":"４３號之７","E_COORD97":165817.07999999999,"N_COORD97":2570341.1800000002,"ADDRESS":"信義路４３號之７","OBJECTID":524767},"geometry":{"x":165817.08000000007,"y":2570341.1799999997}},{"attributes":{"ID":524795,"DIS_CODE":0,"TOWNNAME":"學甲區","LI":"明宜里","LIN":"6鄰","STREET":"信義路","SECT":" ","MAREA":" ","LANE":" ","ALLEY":" ","HOUSE_NO":"４３號之８","E_COORD97":165813.34,"N_COORD97":2570342.9199999999,"ADDRESS":"信義路４３號之８","OBJECTID":524768},"geometry":{"x":165813.33999999985,"y":2570342.9199999999}},{"attributes":{"ID":524796,"DIS_CODE":0,"TOWNNAME":"學甲區","LI":"明宜里","LIN":"6鄰","STREET":"信義路","SECT":" ","MAREA":" ","LANE":" ","ALLEY":" ","HOUSE_NO":"４３號之９","E_COORD97":165809.48999999999,"N_COORD97":2570344.0699999998,"ADDRESS":"信義路４３號之９","OBJECTID":524769},"geometry":{"x":165809.49000000022,"y":2570344.0700000022}},{"attributes":{"ID":524797,"DIS_CODE":0,"TOWNNAME":"學甲區","LI":"明宜里","LIN":"6鄰","STREET":"信義路","SECT":" ","MAREA":" ","LANE":" ","ALLEY":" ","HOUSE_NO":"４３號","E_COORD97":165836.51999999999,"N_COORD97":2570322.2400000002,"ADDRESS":"信義路４３號","OBJECTID":524770},"geometry":{"x":165836.52000000048,"y":2570322.2400000039}},{"attributes":{"ID":524798,"DIS_CODE":0,"TOWNNAME":"學甲區","LI":"明宜里","LIN":"6鄰","STREET":"信義路","SECT":" ","MAREA":" ","LANE":" ","ALLEY":" ","HOUSE_NO":"４５號之１","E_COORD97":165842.14000000001,"N_COORD97":2570335.04,"ADDRESS":"信義路４５號之１","OBJECTID":524771},"geometry":{"x":165842.14000000153,"y":2570335.0399999991}},{"attributes":{"ID":524799,"DIS_CODE":0,"TOWNNAME":"學甲區","LI":"明宜里","LIN":"6鄰","STREET":"信義路","SECT":" ","MAREA":" ","LANE":" ","ALLEY":" ","HOUSE_NO":"４５號之２","E_COORD97":165843.32999999999,"N_COORD97":2570338.6699999999,"ADDRESS":"信義路４５號之２","OBJECTID":524772},"geometry":{"x":165843.33000000101,"y":2570338.6699999999}},{"attributes":{"ID":524800,"DIS_CODE":0,"TOWNNAME":"學甲區","LI":"明宜里","LIN":"6鄰","STREET":"信義路","SECT":" ","MAREA":" ","LANE":" ","ALLEY":" ","HOUSE_NO":"４５號之３","E_COORD97":165844.42999999999,"N_COORD97":2570342.54,"ADDRESS":"信義路４５號之３","OBJECTID":524773},"geometry":{"x":165844.43000000063,"y":2570342.5400000028}},{"attributes":{"ID":524801,"DIS_CODE":0,"TOWNNAME":"學甲區","LI":"明宜里","LIN":"6鄰","STREET":"信義路","SECT":" ","MAREA":" ","LANE":" ","ALLEY":" ","HOUSE_NO":"４５號","E_COORD97":165841.23999999999,"N_COORD97":2570331.0499999998,"ADDRESS":"信義路４５號","OBJECTID":524774},"geometry":{"x":165841.24000000022,"y":2570331.0500000026}},{"attributes":{"ID":524802,"DIS_CODE":0,"TOWNNAME":"學甲區","LI":"明宜里","LIN":"6鄰","STREET":"信義路","SECT":" ","MAREA":" ","LANE":" ","ALLEY":" ","HOUSE_NO":"４７號之１","E_COORD97":165860.01999999999,"N_COORD97":2570391.0499999998,"ADDRESS":"信義路４７號之１","OBJECTID":524775},"geometry":{"x":165860.02000000048,"y":2570391.0500000007}},{"attributes":{"ID":524803,"DIS_CODE":0,"TOWNNAME":"學甲區","LI":"明宜里","LIN":"6鄰","STREET":"信義路","SECT":" ","MAREA":" ","LANE":" ","ALLEY":" ","HOUSE_NO":"４７號","E_COORD97":165861.07999999999,"N_COORD97":2570395.8599999999,"ADDRESS":"信義路４７號","OBJECTID":524776},"geometry":{"x":165861.08000000007,"y":2570395.8600000013}},{"attributes":{"ID":524804,"DIS_CODE":0,"TOWNNAME":"學甲區","LI":"明宜里","LIN":"6鄰","STREET":"信義路","SECT":" ","MAREA":" ","LANE":" ","ALLEY":" ","HOUSE_NO":"４９號","E_COORD97":165864.20000000001,"N_COORD97":2570403.1499999999,"ADDRESS":"信義路４９號","OBJECTID":524777},"geometry":{"x":165864.19999999925,"y":2570403.1500000004}},{"attributes":{"ID":524805,"DIS_CODE":0,"TOWNNAME":"學甲區","LI":"明宜里","LIN":"6鄰","STREET":"信義路","SECT":" ","MAREA":" ","LANE":" ","ALLEY":" ","HOUSE_NO":"５３號之３","E_COORD97":165866.73000000001,"N_COORD97":2570425.29,"ADDRESS":"信義路５３號之３","OBJECTID":524778},"geometry":{"x":165866.73000000138,"y":2570425.2899999991}},{"attributes":{"ID":524806,"DIS_CODE":0,"TOWNNAME":"學甲區","LI":"明宜里","LIN":"6鄰","STREET":"信義路","SECT":" ","MAREA":" ","LANE":" ","ALLEY":" ","HOUSE_NO":"５３號之４","E_COORD97":165867.45000000001,"N_COORD97":2570429.1000000001,"ADDRESS":"信義路５３號之４","OBJECTID":524779},"geometry":{"x":165867.45000000019,"y":2570429.1000000015}},{"attributes":{"ID":524807,"DIS_CODE":0,"TOWNNAME":"學甲區","LI":"明宜里","LIN":"6鄰","STREET":"信義路","SECT":" ","MAREA":" ","LANE":" ","ALLEY":" ","HOUSE_NO":"５３號之５","E_COORD97":165868.31,"N_COORD97":2570432.9399999999,"ADDRESS":"信義路５３號之５","OBJECTID":524780},"geometry":{"x":165868.31000000052,"y":2570432.9400000013}},{"attributes":{"ID":524808,"DIS_CODE":0,"TOWNNAME":"學甲區","LI":"明宜里","LIN":"6鄰","STREET":"信義路","SECT":" ","MAREA":" ","LANE":" ","ALLEY":" ","HOUSE_NO":"５３號之６","E_COORD97":165869.26999999999,"N_COORD97":2570436.6099999999,"ADDRESS":"信義路５３號之６","OBJECTID":524781},"geometry":{"x":165869.26999999955,"y":2570436.6099999994}},{"attributes":{"ID":524809,"DIS_CODE":0,"TOWNNAME":"學甲區","LI":"明宜里","LIN":"6鄰","STREET":"信義路","SECT":" ","MAREA":" ","LANE":" ","ALLEY":" ","HOUSE_NO":"５３號之７","E_COORD97":165869.85999999999,"N_COORD97":2570441.8799999999,"ADDRESS":"信義路５３號之７","OBJECTID":524782},"geometry":{"x":165869.86000000034,"y":2570441.8800000027}},{"attributes":{"ID":524810,"DIS_CODE":0,"TOWNNAME":"北區","LI":"東興里","LIN":"6鄰","STREET":"小東路","SECT":" ","MAREA":" ","LANE":" ","ALLEY":" ","HOUSE_NO":"２７３號","E_COORD97":170951.89999999999,"N_COORD97":2544472.3500000001,"ADDRESS":"小東路２７３號","OBJECTID":524783},"geometry":{"x":170951.90000000037,"y":2544472.3500000034}},{"attributes":{"ID":524811,"DIS_CODE":0,"TOWNNAME":"北區","LI":"東興里","LIN":"6鄰","STREET":"小東路","SECT":" ","MAREA":" ","LANE":" ","ALLEY":" ","HOUSE_NO":"２７５號","E_COORD97":170955.59,"N_COORD97":2544470.9900000002,"ADDRESS":"小東路２７５號","OBJECTID":524784},"geometry":{"x":170955.59000000078,"y":2544470.9900000002}},{"attributes":{"ID":524812,"DIS_CODE":0,"TOWNNAME":"北區","LI":"東興里","LIN":"6鄰","STREET":"小東路","SECT":" ","MAREA":" ","LANE":" ","ALLEY":" ","HOUSE_NO":"２７７號","E_COORD97":170959.78,"N_COORD97":2544468.6499999999,"ADDRESS":"小東路２７７號","OBJECTID":524785},"geometry":{"x":170959.78000000119,"y":2544468.6500000022}},{"attributes":{"ID":524813,"DIS_CODE":0,"TOWNNAME":"北區","LI":"東興里","LIN":"6鄰","STREET":"小東路","SECT":" ","MAREA":" ","LANE":" ","ALLEY":" ","HOUSE_NO":"２７９號","E_COORD97":170964.06,"N_COORD97":2544467.29,"ADDRESS":"小東路２７９號","OBJECTID":524786},"geometry":{"x":170964.06000000052,"y":2544467.2899999991}},{"attributes":{"ID":524814,"DIS_CODE":0,"TOWNNAME":"北區","LI":"東興里","LIN":"6鄰","STREET":"小東路","SECT":" ","MAREA":" ","LANE":" ","ALLEY":" ","HOUSE_NO":"２８１號","E_COORD97":170968.14000000001,"N_COORD97":2544466.0299999998,"ADDRESS":"小東路２８１號","OBJECTID":524787},"geometry":{"x":170968.13999999966,"y":2544466.0299999993}},{"attributes":{"ID":524815,"DIS_CODE":0,"TOWNNAME":"北區","LI":"東興里","LIN":"6鄰","STREET":"小東路","SECT":" ","MAREA":" ","LANE":" ","ALLEY":" ","HOUSE_NO":"２５９號之１","E_COORD97":170947.62,"N_COORD97":2544503.46,"ADDRESS":"小東路２５９號之１","OBJECTID":524788},"geometry":{"x":170947.62000000104,"y":2544503.4600000046}},{"attributes":{"ID":524816,"DIS_CODE":0,"TOWNNAME":"學甲區","LI":"明宜里","LIN":"6鄰","STREET":"宮西路","SECT":" ","MAREA":" ","LANE":" ","ALLEY":" ","HOUSE_NO":"４５號","E_COORD97":165841.72,"N_COORD97":2570434.7000000002,"ADDRESS":"宮西路４５號","OBJECTID":524789},"geometry":{"x":165841.7200000016,"y":2570434.7000000011}},{"attributes":{"ID":524817,"DIS_CODE":0,"TOWNNAME":"學甲區","LI":"明宜里","LIN":"6鄰","STREET":"宮西路","SECT":" ","MAREA":" ","LANE":" ","ALLEY":" ","HOUSE_NO":"５５號","E_COORD97":165770.45999999999,"N_COORD97":2570413.5600000001,"ADDRESS":"宮西路５５號","OBJECTID":524790},"geometry":{"x":165770.45999999996,"y":2570413.5600000005}},{"attributes":{"ID":524818,"DIS_CODE":0,"TOWNNAME":"學甲區","LI":"明宜里","LIN":"6鄰","STREET":"宮西路","SECT":" ","MAREA":" ","LANE":" ","ALLEY":" ","HOUSE_NO":"５７號","E_COORD97":165767.39999999999,"N_COORD97":2570409.96,"ADDRESS":"宮西路５７號","OBJECTID":524791},"geometry":{"x":165767.40000000037,"y":2570409.9600000028}},{"attributes":{"ID":524819,"DIS_CODE":0,"TOWNNAME":"學甲區","LI":"明宜里","LIN":"6鄰","STREET":"宮西路","SECT":" ","MAREA":" ","LANE":" ","ALLEY":" ","HOUSE_NO":"５９號","E_COORD97":165762.76000000001,"N_COORD97":2570408.0499999998,"ADDRESS":"宮西路５９號","OBJECTID":524792},"geometry":{"x":165762.75999999978,"y":2570408.0500000007}},{"attributes":{"ID":524820,"DIS_CODE":0,"TOWNNAME":"學甲區","LI":"明宜里","LIN":"6鄰","STREET":"宮西路","SECT":" ","MAREA":" ","LANE":" ","ALLEY":" ","HOUSE_NO":"６１號","E_COORD97":165758.14999999999,"N_COORD97":2570407.0800000001,"ADDRESS":"宮西路６１號","OBJECTID":524793},"geometry":{"x":165758.15000000224,"y":2570407.0800000001}},{"attributes":{"ID":524821,"DIS_CODE":0,"TOWNNAME":"學甲區","LI":"明宜里","LIN":"6鄰","STREET":"宮西路","SECT":" ","MAREA":" ","LANE":" ","ALLEY":" ","HOUSE_NO":"６３號","E_COORD97":165753.5,"N_COORD97":2570405.77,"ADDRESS":"宮西路６３號","OBJECTID":524794},"geometry":{"x":165753.49999999907,"y":2570405.7700000033}},{"attributes":{"ID":524822,"DIS_CODE":0,"TOWNNAME":"北區","LI":"和順里","LIN":"6鄰","STREET":"育德路","SECT":" ","MAREA":" ","LANE":" ","ALLEY":" ","HOUSE_NO":"３７號","E_COORD97":168333.41,"N_COORD97":2545234.8799999999,"ADDRESS":"育德路３７號","OBJECTID":524795},"geometry":{"x":168333.41000000108,"y":2545234.8800000008}},{"attributes":{"ID":524823,"DIS_CODE":0,"TOWNNAME":"學甲區","LI":"明宜里","LIN":"6鄰","STREET":"宮西路","SECT":" ","MAREA":" ","LANE":" ","ALLEY":" ","HOUSE_NO":"７５號","E_COORD97":165722.57999999999,"N_COORD97":2570397.8999999999,"ADDRESS":"宮西路７５號","OBJECTID":524796},"geometry":{"x":165722.58000000194,"y":2570397.9000000004}},{"attributes":{"ID":524824,"DIS_CODE":0,"TOWNNAME":"學甲區","LI":"明宜里","LIN":"6鄰","STREET":"宮西路","SECT":" ","MAREA":" ","LANE":" ","ALLEY":" ","HOUSE_NO":"７７號","E_COORD97":165718.39000000001,"N_COORD97":2570396.9399999999,"ADDRESS":"宮西路７７號","OBJECTID":524797},"geometry":{"x":165718.39000000153,"y":2570396.9399999995}},{"attributes":{"ID":524825,"DIS_CODE":0,"TOWNNAME":"北區","LI":"和順里","LIN":"6鄰","STREET":"育德路","SECT":" ","MAREA":" ","LANE":" ","ALLEY":" ","HOUSE_NO":"５３號","E_COORD97":168356.79000000001,"N_COORD97":2545268.4700000002,"ADDRESS":"育德路５３號","OBJECTID":524798},"geometry":{"x":168356.79000000004,"y":2545268.4700000007}},{"attributes":{"ID":524826,"DIS_CODE":0,"TOWNNAME":"北區","LI":"和順里","LIN":"6鄰","STREET":"育德路","SECT":" ","MAREA":" ","LANE":" ","ALLEY":" ","HOUSE_NO":"５５號","E_COORD97":168359.14999999999,"N_COORD97":2545272.6699999999,"ADDRESS":"育德路５５號","OBJECTID":524799},"geometry":{"x":168359.1500000013,"y":2545272.6699999999}},{"attributes":{"ID":524827,"DIS_CODE":0,"TOWNNAME":"北區","LI":"和順里","LIN":"6鄰","STREET":"育德路","SECT":" ","MAREA":" ","LANE":" ","ALLEY":" ","HOUSE_NO":"３９號","E_COORD97":168336.56,"N_COORD97":2545238.8100000001,"ADDRESS":"育德路３９號","OBJECTID":524800},"geometry":{"x":168336.56000000052,"y":2545238.8100000005}}]}