{"displayFieldName":"TOWNNAME","fieldAliases":{"ID":"ID","DIS_CODE":"DIS_CODE","TOWNNAME":"TOWNNAME","LI":"LI","LIN":"LIN","STREET":"STREET","SECT":"SECT","MAREA":"MAREA","LANE":"LANE","ALLEY":"ALLEY","HOUSE_NO":"HOUSE_NO","E_COORD97":"E_COORD97","N_COORD97":"N_COORD97","ADDRESS":"ADDRESS","OBJECTID":"OBJECTID"},"geometryType":"esriGeometryPoint","spatialReference":{"wkid":102443,"latestWkid":3826},"fields":[{"name":"ID","type":"esriFieldTypeDouble","alias":"ID"},{"name":"DIS_CODE","type":"esriFieldTypeInteger","alias":"DIS_CODE"},{"name":"TOWNNAME","type":"esriFieldTypeString","alias":"TOWNNAME","length":8},{"name":"LI","type":"esriFieldTypeString","alias":"LI","length":8},{"name":"LIN","type":"esriFieldTypeString","alias":"LIN","length":12},{"name":"STREET","type":"esriFieldTypeString","alias":"STREET","length":20},{"name":"SECT","type":"esriFieldTypeString","alias":"SECT","length":8},{"name":"MAREA","type":"esriFieldTypeString","alias":"MAREA","length":12},{"name":"LANE","type":"esriFieldTypeString","alias":"LANE","length":10},{"name":"ALLEY","type":"esriFieldTypeString","alias":"ALLEY","length":10},{"name":"HOUSE_NO","type":"esriFieldTypeString","alias":"HOUSE_NO","length":20},{"name":"E_COORD97","type":"esriFieldTypeDouble","alias":"E_COORD97"},{"name":"N_COORD97","type":"esriFieldTypeDouble","alias":"N_COORD97"},{"name":"ADDRESS","type":"esriFieldTypeString","alias":"ADDRESS","length":50},{"name":"OBJECTID","type":"esriFieldTypeOID","alias":"OBJECTID"}],"features":[{"attributes":{"ID":534228,"DIS_CODE":0,"TOWNNAME":"白河區","LI":"白河里","LIN":"19鄰","STREET":"中山路","SECT":" ","MAREA":" ","LANE":" ","ALLEY":" ","HOUSE_NO":"２２８號","E_COORD97":190510.45000000001,"N_COORD97":2583546.27,"ADDRESS":"中山路２２８號","OBJECTID":534201},"geometry":{"x":190510.45000000019,"y":2583546.2699999996}},{"attributes":{"ID":534229,"DIS_CODE":0,"TOWNNAME":"白河區","LI":"白河里","LIN":"19鄰","STREET":"中山路","SECT":" ","MAREA":" ","LANE":" ","ALLEY":" ","HOUSE_NO":"２３０號","E_COORD97":190512.98999999999,"N_COORD97":2583550.21,"ADDRESS":"中山路２３０號","OBJECTID":534202},"geometry":{"x":190512.99000000022,"y":2583550.2100000028}},{"attributes":{"ID":534230,"DIS_CODE":0,"TOWNNAME":"白河區","LI":"白河里","LIN":"19鄰","STREET":"中山路","SECT":" ","MAREA":" ","LANE":" ","ALLEY":" ","HOUSE_NO":"２３２號","E_COORD97":190516.19,"N_COORD97":2583554.6299999999,"ADDRESS":"中山路２３２號","OBJECTID":534203},"geometry":{"x":190516.19000000227,"y":2583554.6300000008}},{"attributes":{"ID":534231,"DIS_CODE":0,"TOWNNAME":"白河區","LI":"白河里","LIN":"19鄰","STREET":"中山路","SECT":" ","MAREA":" ","LANE":" ","ALLEY":" ","HOUSE_NO":"２３４號","E_COORD97":190518.75,"N_COORD97":2583559.3700000001,"ADDRESS":"中山路２３４號","OBJECTID":534204},"geometry":{"x":190518.75000000093,"y":2583559.3700000029}},{"attributes":{"ID":534232,"DIS_CODE":0,"TOWNNAME":"白河區","LI":"白河里","LIN":"19鄰","STREET":"中山路","SECT":" ","MAREA":" ","LANE":" ","ALLEY":" ","HOUSE_NO":"２３６號","E_COORD97":190522.42000000001,"N_COORD97":2583564.9199999999,"ADDRESS":"中山路２３６號","OBJECTID":534205},"geometry":{"x":190522.42000000179,"y":2583564.9200000018}},{"attributes":{"ID":534233,"DIS_CODE":0,"TOWNNAME":"白河區","LI":"白河里","LIN":"19鄰","STREET":"中山路","SECT":" ","MAREA":" ","LANE":" ","ALLEY":" ","HOUSE_NO":"２３８號","E_COORD97":190527.29000000001,"N_COORD97":2583570.6400000001,"ADDRESS":"中山路２３８號","OBJECTID":534206},"geometry":{"x":190527.29000000097,"y":2583570.6400000025}},{"attributes":{"ID":534234,"DIS_CODE":0,"TOWNNAME":"白河區","LI":"白河里","LIN":"19鄰","STREET":"中山路","SECT":" ","MAREA":" ","LANE":" ","ALLEY":" ","HOUSE_NO":"２４８號","E_COORD97":190547.29000000001,"N_COORD97":2583596.5699999998,"ADDRESS":"中山路２４８號","OBJECTID":534207},"geometry":{"x":190547.2900000019,"y":2583596.570000004}},{"attributes":{"ID":534235,"DIS_CODE":0,"TOWNNAME":"白河區","LI":"白河里","LIN":"19鄰","STREET":"中山路","SECT":" ","MAREA":" ","LANE":" ","ALLEY":" ","HOUSE_NO":"２５０號","E_COORD97":190550.26000000001,"N_COORD97":2583600.4500000002,"ADDRESS":"中山路２５０號","OBJECTID":534208},"geometry":{"x":190550.25999999978,"y":2583600.4500000011}},{"attributes":{"ID":534236,"DIS_CODE":0,"TOWNNAME":"白河區","LI":"白河里","LIN":"19鄰","STREET":"中山路","SECT":" ","MAREA":" ","LANE":" ","ALLEY":" ","HOUSE_NO":"２５２號","E_COORD97":190553.16,"N_COORD97":2583604.5699999998,"ADDRESS":"中山路２５２號","OBJECTID":534209},"geometry":{"x":190553.15999999922,"y":2583604.5700000022}},{"attributes":{"ID":534237,"DIS_CODE":0,"TOWNNAME":"白河區","LI":"白河里","LIN":"19鄰","STREET":"中山路","SECT":" ","MAREA":" ","LANE":" ","ALLEY":" ","HOUSE_NO":"２５８號","E_COORD97":190561.04000000001,"N_COORD97":2583615.7200000002,"ADDRESS":"中山路２５８號","OBJECTID":534210},"geometry":{"x":190561.04000000097,"y":2583615.7200000007}},{"attributes":{"ID":534238,"DIS_CODE":0,"TOWNNAME":"白河區","LI":"白河里","LIN":"19鄰","STREET":"中山路","SECT":" ","MAREA":" ","LANE":" ","ALLEY":" ","HOUSE_NO":"２６２號","E_COORD97":190566.17999999999,"N_COORD97":2583622.7799999998,"ADDRESS":"中山路２６２號","OBJECTID":534211},"geometry":{"x":190566.18000000156,"y":2583622.7800000012}},{"attributes":{"ID":534239,"DIS_CODE":0,"TOWNNAME":"白河區","LI":"白河里","LIN":"19鄰","STREET":"中山路","SECT":" ","MAREA":" ","LANE":" ","ALLEY":" ","HOUSE_NO":"２７８號","E_COORD97":190587.72,"N_COORD97":2583647.0899999999,"ADDRESS":"中山路２７８號","OBJECTID":534212},"geometry":{"x":190587.71999999974,"y":2583647.0900000036}},{"attributes":{"ID":534240,"DIS_CODE":0,"TOWNNAME":"白河區","LI":"白河里","LIN":"19鄰","STREET":"中山路","SECT":" ","MAREA":" ","LANE":" ","ALLEY":" ","HOUSE_NO":"２８０號","E_COORD97":190590.64000000001,"N_COORD97":2583653.1099999999,"ADDRESS":"中山路２８０號","OBJECTID":534213},"geometry":{"x":190590.6400000006,"y":2583653.1100000031}},{"attributes":{"ID":534241,"DIS_CODE":0,"TOWNNAME":"白河區","LI":"白河里","LIN":"19鄰","STREET":"中山路","SECT":" ","MAREA":" ","LANE":" ","ALLEY":" ","HOUSE_NO":"２８２號","E_COORD97":190594.87,"N_COORD97":2583658.9500000002,"ADDRESS":"中山路２８２號","OBJECTID":534214},"geometry":{"x":190594.87000000104,"y":2583658.9500000011}},{"attributes":{"ID":534242,"DIS_CODE":0,"TOWNNAME":"白河區","LI":"白河里","LIN":"19鄰","STREET":"中山路","SECT":" ","MAREA":" ","LANE":" ","ALLEY":" ","HOUSE_NO":"２８６號","E_COORD97":190600.47,"N_COORD97":2583666.1600000001,"ADDRESS":"中山路２８６號","OBJECTID":534215},"geometry":{"x":190600.47000000067,"y":2583666.1600000001}},{"attributes":{"ID":534243,"DIS_CODE":0,"TOWNNAME":"白河區","LI":"白河里","LIN":"19鄰","STREET":"中山路","SECT":" ","MAREA":" ","LANE":" ","ALLEY":" ","HOUSE_NO":"２９０之１號","E_COORD97":190603.70999999999,"N_COORD97":2583673.2799999998,"ADDRESS":"中山路２９０之１號","OBJECTID":534216},"geometry":{"x":190603.71000000183,"y":2583673.2800000012}},{"attributes":{"ID":534244,"DIS_CODE":0,"TOWNNAME":"白河區","LI":"白河里","LIN":"19鄰","STREET":"中山路","SECT":" ","MAREA":" ","LANE":" ","ALLEY":" ","HOUSE_NO":"３００號","E_COORD97":190622.26999999999,"N_COORD97":2583697.1800000002,"ADDRESS":"中山路３００號","OBJECTID":534217},"geometry":{"x":190622.26999999955,"y":2583697.1800000034}},{"attributes":{"ID":534245,"DIS_CODE":0,"TOWNNAME":"白河區","LI":"白河里","LIN":"19鄰","STREET":"中山路","SECT":" ","MAREA":" ","LANE":" ","ALLEY":" ","HOUSE_NO":"３０４號","E_COORD97":190629.25,"N_COORD97":2583705.54,"ADDRESS":"中山路３０４號","OBJECTID":534218},"geometry":{"x":190629.25000000093,"y":2583705.540000001}},{"attributes":{"ID":534246,"DIS_CODE":0,"TOWNNAME":"白河區","LI":"白河里","LIN":"19鄰","STREET":"中山路","SECT":" ","MAREA":" ","LANE":" ","ALLEY":" ","HOUSE_NO":"３０６號","E_COORD97":190626.82000000001,"N_COORD97":2583711.1000000001,"ADDRESS":"中山路３０６號","OBJECTID":534219},"geometry":{"x":190626.81999999937,"y":2583711.1000000034}},{"attributes":{"ID":534247,"DIS_CODE":0,"TOWNNAME":"仁德區","LI":"仁德里","LIN":"19鄰","STREET":"文華一街","SECT":" ","MAREA":" ","LANE":" ","ALLEY":" ","HOUSE_NO":"６９號","E_COORD97":172411.75,"N_COORD97":2540294.5800000001,"ADDRESS":"文華一街６９號","OBJECTID":534220},"geometry":{"x":172411.75,"y":2540294.5800000038}},{"attributes":{"ID":534248,"DIS_CODE":0,"TOWNNAME":"仁德區","LI":"保安里","LIN":"19鄰","STREET":"文賢路","SECT":"二段","MAREA":" ","LANE":" ","ALLEY":" ","HOUSE_NO":"４７號","E_COORD97":171856.244332,"N_COORD97":2535737.39249,"ADDRESS":"文賢路二段４７號","OBJECTID":534221},"geometry":{"x":171856.24433200061,"y":2535737.3924899995}},{"attributes":{"ID":534249,"DIS_CODE":0,"TOWNNAME":"仁德區","LI":"仁德里","LIN":"19鄰","STREET":"文華路","SECT":"三段","MAREA":" ","LANE":" ","ALLEY":" ","HOUSE_NO":"２９６號","E_COORD97":172309.95999999999,"N_COORD97":2540740.5800000001,"ADDRESS":"文華路三段２９６號","OBJECTID":534222},"geometry":{"x":172309.95999999996,"y":2540740.5800000001}},{"attributes":{"ID":534250,"DIS_CODE":0,"TOWNNAME":"仁德區","LI":"仁德里","LIN":"19鄰","STREET":"文華一街","SECT":" ","MAREA":" ","LANE":" ","ALLEY":" ","HOUSE_NO":"２８號","E_COORD97":172291.25,"N_COORD97":2540299.8300000001,"ADDRESS":"文華一街２８號","OBJECTID":534223},"geometry":{"x":172291.25,"y":2540299.8300000019}},{"attributes":{"ID":534251,"DIS_CODE":0,"TOWNNAME":"仁德區","LI":"仁德里","LIN":"19鄰","STREET":"文華路","SECT":"三段","MAREA":" ","LANE":" ","ALLEY":" ","HOUSE_NO":"２０８號","E_COORD97":172235.06,"N_COORD97":2540457.0699999998,"ADDRESS":"文華路三段２０８號","OBJECTID":534224},"geometry":{"x":172235.05999999866,"y":2540457.0700000003}},{"attributes":{"ID":534252,"DIS_CODE":0,"TOWNNAME":"仁德區","LI":"保安里","LIN":"19鄰","STREET":"文賢路","SECT":"二段","MAREA":" ","LANE":" ","ALLEY":" ","HOUSE_NO":"９６號","E_COORD97":172019.44,"N_COORD97":2535578.5800000001,"ADDRESS":"文賢路二段９６號","OBJECTID":534225},"geometry":{"x":172019.44000000041,"y":2535578.5800000038}},{"attributes":{"ID":534253,"DIS_CODE":0,"TOWNNAME":"東區","LI":"東聖里","LIN":"19鄰","STREET":"中華東路","SECT":"二段","MAREA":" ","LANE":" ","ALLEY":" ","HOUSE_NO":"１２１號","E_COORD97":171400.04999999999,"N_COORD97":2542889.4100000001,"ADDRESS":"中華東路二段１２１號","OBJECTID":534226},"geometry":{"x":171400.05000000075,"y":2542889.4100000039}},{"attributes":{"ID":534254,"DIS_CODE":0,"TOWNNAME":"東區","LI":"崇善里","LIN":"19鄰","STREET":"崇善十一街","SECT":" ","MAREA":" ","LANE":" ","ALLEY":" ","HOUSE_NO":"８號","E_COORD97":171156.64000000001,"N_COORD97":2541174.2999999998,"ADDRESS":"崇善十一街８號","OBJECTID":534227},"geometry":{"x":171156.64000000153,"y":2541174.3000000007}},{"attributes":{"ID":534255,"DIS_CODE":0,"TOWNNAME":"東區","LI":"崇善里","LIN":"19鄰","STREET":"崇善十一街","SECT":" ","MAREA":" ","LANE":" ","ALLEY":" ","HOUSE_NO":"１０號之２","E_COORD97":171170.88,"N_COORD97":2541177.6800000002,"ADDRESS":"崇善十一街１０號之２","OBJECTID":534228},"geometry":{"x":171170.88000000082,"y":2541177.6799999997}},{"attributes":{"ID":534256,"DIS_CODE":0,"TOWNNAME":"東區","LI":"崇善里","LIN":"19鄰","STREET":"崇善路","SECT":" ","MAREA":" ","LANE":" ","ALLEY":" ","HOUSE_NO":"６９１號","E_COORD97":171138.04999999999,"N_COORD97":2541147.77,"ADDRESS":"崇善路６９１號","OBJECTID":534229},"geometry":{"x":171138.04999999981,"y":2541147.7700000014}},{"attributes":{"ID":534257,"DIS_CODE":0,"TOWNNAME":"東區","LI":"崇善里","LIN":"19鄰","STREET":"崇善路","SECT":" ","MAREA":" ","LANE":" ","ALLEY":" ","HOUSE_NO":"６９３號","E_COORD97":171139.5,"N_COORD97":2541144.1499999999,"ADDRESS":"崇善路６９３號","OBJECTID":534230},"geometry":{"x":171139.50000000093,"y":2541144.1500000004}},{"attributes":{"ID":534258,"DIS_CODE":0,"TOWNNAME":"東區","LI":"崇善里","LIN":"19鄰","STREET":"崇善路","SECT":" ","MAREA":" ","LANE":" ","ALLEY":" ","HOUSE_NO":"６９５號","E_COORD97":171140.45999999999,"N_COORD97":2541139.3300000001,"ADDRESS":"崇善路６９５號","OBJECTID":534231},"geometry":{"x":171140.45999999996,"y":2541139.3300000001}},{"attributes":{"ID":534259,"DIS_CODE":0,"TOWNNAME":"東區","LI":"大智里","LIN":"19鄰","STREET":"崇善十五街","SECT":" ","MAREA":" ","LANE":" ","ALLEY":" ","HOUSE_NO":"４４號","E_COORD97":171326.26000000001,"N_COORD97":2540562.5499999998,"ADDRESS":"崇善十五街４４號","OBJECTID":534232},"geometry":{"x":171326.25999999978,"y":2540562.5500000007}},{"attributes":{"ID":534260,"DIS_CODE":0,"TOWNNAME":"東區","LI":"大智里","LIN":"19鄰","STREET":"崇善十五街","SECT":" ","MAREA":" ","LANE":" ","ALLEY":" ","HOUSE_NO":"４６號","E_COORD97":171318.39999999999,"N_COORD97":2540561.4500000002,"ADDRESS":"崇善十五街４６號","OBJECTID":534233},"geometry":{"x":171318.40000000224,"y":2540561.4499999993}},{"attributes":{"ID":534261,"DIS_CODE":0,"TOWNNAME":"東區","LI":"大智里","LIN":"19鄰","STREET":"崇善十五街","SECT":" ","MAREA":" ","LANE":" ","ALLEY":" ","HOUSE_NO":"４８號","E_COORD97":171307.04999999999,"N_COORD97":2540562.3599999999,"ADDRESS":"崇善十五街４８號","OBJECTID":534234},"geometry":{"x":171307.05000000075,"y":2540562.3599999994}},{"attributes":{"ID":534262,"DIS_CODE":0,"TOWNNAME":"東區","LI":"大智里","LIN":"19鄰","STREET":"崇善十四街","SECT":" ","MAREA":" ","LANE":" ","ALLEY":" ","HOUSE_NO":"２５號","E_COORD97":171318.79999999999,"N_COORD97":2540619.4300000002,"ADDRESS":"崇善十四街２５號","OBJECTID":534235},"geometry":{"x":171318.80000000075,"y":2540619.4299999997}},{"attributes":{"ID":534263,"DIS_CODE":0,"TOWNNAME":"東區","LI":"大智里","LIN":"19鄰","STREET":"崇善十四街","SECT":" ","MAREA":" ","LANE":" ","ALLEY":" ","HOUSE_NO":"２７號","E_COORD97":171315.38,"N_COORD97":2540617.2000000002,"ADDRESS":"崇善十四街２７號","OBJECTID":534236},"geometry":{"x":171315.37999999989,"y":2540617.1999999993}},{"attributes":{"ID":534264,"DIS_CODE":0,"TOWNNAME":"東區","LI":"大智里","LIN":"19鄰","STREET":"崇善十四街","SECT":" ","MAREA":" ","LANE":" ","ALLEY":" ","HOUSE_NO":"２９號","E_COORD97":171310.89999999999,"N_COORD97":2540613.6400000001,"ADDRESS":"崇善十四街２９號","OBJECTID":534237},"geometry":{"x":171310.90000000037,"y":2540613.6400000025}},{"attributes":{"ID":534265,"DIS_CODE":0,"TOWNNAME":"東區","LI":"大智里","LIN":"19鄰","STREET":"崇善十四街","SECT":" ","MAREA":" ","LANE":" ","ALLEY":" ","HOUSE_NO":"３０號","E_COORD97":171320.91,"N_COORD97":2540637.8500000001,"ADDRESS":"崇善十四街３０號","OBJECTID":534238},"geometry":{"x":171320.91000000015,"y":2540637.8500000034}},{"attributes":{"ID":534266,"DIS_CODE":0,"TOWNNAME":"東區","LI":"大智里","LIN":"19鄰","STREET":"崇善十四街","SECT":" ","MAREA":" ","LANE":" ","ALLEY":" ","HOUSE_NO":"３１號","E_COORD97":171304.85000000001,"N_COORD97":2540611.2799999998,"ADDRESS":"崇善十四街３１號","OBJECTID":534239},"geometry":{"x":171304.85000000056,"y":2540611.2800000012}},{"attributes":{"ID":534267,"DIS_CODE":0,"TOWNNAME":"東區","LI":"大智里","LIN":"19鄰","STREET":"崇善十四街","SECT":" ","MAREA":" ","LANE":" ","ALLEY":" ","HOUSE_NO":"３２號","E_COORD97":171316.04000000001,"N_COORD97":2540638.6299999999,"ADDRESS":"崇善十四街３２號","OBJECTID":534240},"geometry":{"x":171316.04000000097,"y":2540638.6300000027}},{"attributes":{"ID":534268,"DIS_CODE":0,"TOWNNAME":"東區","LI":"大智里","LIN":"19鄰","STREET":"崇善十四街","SECT":" ","MAREA":" ","LANE":" ","ALLEY":" ","HOUSE_NO":"３３號","E_COORD97":171299.32000000001,"N_COORD97":2540609.1699999999,"ADDRESS":"崇善十四街３３號","OBJECTID":534241},"geometry":{"x":171299.3200000003,"y":2540609.1700000037}},{"attributes":{"ID":534269,"DIS_CODE":0,"TOWNNAME":"東區","LI":"大智里","LIN":"19鄰","STREET":"崇善十四街","SECT":" ","MAREA":" ","LANE":" ","ALLEY":" ","HOUSE_NO":"３５號","E_COORD97":171293.26000000001,"N_COORD97":2540605.75,"ADDRESS":"崇善十四街３５號","OBJECTID":534242},"geometry":{"x":171293.26000000164,"y":2540605.7500000019}},{"attributes":{"ID":534270,"DIS_CODE":0,"TOWNNAME":"東區","LI":"大智里","LIN":"19鄰","STREET":"崇善十四街","SECT":" ","MAREA":" ","LANE":" ","ALLEY":" ","HOUSE_NO":"３９號","E_COORD97":171272.07000000001,"N_COORD97":2540602.0699999998,"ADDRESS":"崇善十四街３９號","OBJECTID":534243},"geometry":{"x":171272.07000000123,"y":2540602.0700000003}},{"attributes":{"ID":534271,"DIS_CODE":0,"TOWNNAME":"東區","LI":"大智里","LIN":"19鄰","STREET":"崇善十四街","SECT":" ","MAREA":" ","LANE":" ","ALLEY":" ","HOUSE_NO":"４２號","E_COORD97":171297.73999999999,"N_COORD97":2540628.3799999999,"ADDRESS":"崇善十四街４２號","OBJECTID":534244},"geometry":{"x":171297.74000000115,"y":2540628.3800000008}},{"attributes":{"ID":534272,"DIS_CODE":0,"TOWNNAME":"東區","LI":"大智里","LIN":"19鄰","STREET":"崇善十四街","SECT":" ","MAREA":" ","LANE":" ","ALLEY":" ","HOUSE_NO":"４６號","E_COORD97":171289.84,"N_COORD97":2540623.77,"ADDRESS":"崇善十四街４６號","OBJECTID":534245},"geometry":{"x":171289.84000000078,"y":2540623.7699999996}},{"attributes":{"ID":534273,"DIS_CODE":0,"TOWNNAME":"東區","LI":"大智里","LIN":"19鄰","STREET":"崇善十四街","SECT":" ","MAREA":" ","LANE":" ","ALLEY":" ","HOUSE_NO":"４８號","E_COORD97":171284.44,"N_COORD97":2540624.2999999998,"ADDRESS":"崇善十四街４８號","OBJECTID":534246},"geometry":{"x":171284.44000000134,"y":2540624.3000000007}},{"attributes":{"ID":534274,"DIS_CODE":0,"TOWNNAME":"東區","LI":"大智里","LIN":"19鄰","STREET":"崇善十四街","SECT":" ","MAREA":" ","LANE":" ","ALLEY":" ","HOUSE_NO":"５２號","E_COORD97":171277.32999999999,"N_COORD97":2540619.8300000001,"ADDRESS":"崇善十四街５２號","OBJECTID":534247},"geometry":{"x":171277.33000000007,"y":2540619.8300000019}},{"attributes":{"ID":534275,"DIS_CODE":0,"TOWNNAME":"東區","LI":"大智里","LIN":"19鄰","STREET":"崇善十四街","SECT":" ","MAREA":" ","LANE":" ","ALLEY":" ","HOUSE_NO":"５４號","E_COORD97":171274.44,"N_COORD97":2540618.1200000001,"ADDRESS":"崇善十四街５４號","OBJECTID":534248},"geometry":{"x":171274.44000000134,"y":2540618.1200000029}},{"attributes":{"ID":534276,"DIS_CODE":0,"TOWNNAME":"東區","LI":"大智里","LIN":"19鄰","STREET":"崇善十四街","SECT":" ","MAREA":" ","LANE":" ","ALLEY":" ","HOUSE_NO":"５６號","E_COORD97":171269.04000000001,"N_COORD97":2540616.54,"ADDRESS":"崇善十四街５６號","OBJECTID":534249},"geometry":{"x":171269.04000000004,"y":2540616.540000001}},{"attributes":{"ID":534277,"DIS_CODE":0,"TOWNNAME":"東區","LI":"大智里","LIN":"19鄰","STREET":"崇善十四街","SECT":" ","MAREA":" ","LANE":" ","ALLEY":" ","HOUSE_NO":"５８號","E_COORD97":171265.62,"N_COORD97":2540614.1699999999,"ADDRESS":"崇善十四街５８號","OBJECTID":534250},"geometry":{"x":171265.62000000197,"y":2540614.1699999999}},{"attributes":{"ID":534278,"DIS_CODE":0,"TOWNNAME":"東區","LI":"大智里","LIN":"19鄰","STREET":"崇善十四街","SECT":" ","MAREA":" ","LANE":" ","ALLEY":" ","HOUSE_NO":"６０號","E_COORD97":171262.06,"N_COORD97":2540611.9300000002,"ADDRESS":"崇善十四街６０號","OBJECTID":534251},"geometry":{"x":171262.06000000145,"y":2540611.9300000016}},{"attributes":{"ID":534279,"DIS_CODE":0,"TOWNNAME":"東區","LI":"大智里","LIN":"19鄰","STREET":"崇善十四街","SECT":" ","MAREA":" ","LANE":" ","ALLEY":" ","HOUSE_NO":"６２號","E_COORD97":171257.06,"N_COORD97":2540612.5899999999,"ADDRESS":"崇善十四街６２號","OBJECTID":534252},"geometry":{"x":171257.06000000145,"y":2540612.589999998}},{"attributes":{"ID":534280,"DIS_CODE":0,"TOWNNAME":"東區","LI":"大智里","LIN":"19鄰","STREET":"崇善十四街","SECT":" ","MAREA":" ","LANE":" ","ALLEY":" ","HOUSE_NO":"６４號","E_COORD97":171253.38,"N_COORD97":2540610.4900000002,"ADDRESS":"崇善十四街６４號","OBJECTID":534253},"geometry":{"x":171253.37999999896,"y":2540610.4900000039}},{"attributes":{"ID":534281,"DIS_CODE":0,"TOWNNAME":"東區","LI":"大智里","LIN":"19鄰","STREET":"崇善十四街","SECT":" ","MAREA":" ","LANE":" ","ALLEY":" ","HOUSE_NO":"６６號","E_COORD97":171249.69,"N_COORD97":2540608.6800000002,"ADDRESS":"崇善十四街６６號","OBJECTID":534254},"geometry":{"x":171249.69000000041,"y":2540608.6800000034}},{"attributes":{"ID":534282,"DIS_CODE":0,"TOWNNAME":"東區","LI":"大智里","LIN":"19鄰","STREET":"崇善十四街","SECT":" ","MAREA":" ","LANE":" ","ALLEY":" ","HOUSE_NO":"７０號","E_COORD97":171242.28,"N_COORD97":2540604.7599999998,"ADDRESS":"崇善十四街７０號","OBJECTID":534255},"geometry":{"x":171242.28000000026,"y":2540604.7600000035}},{"attributes":{"ID":534283,"DIS_CODE":0,"TOWNNAME":"東區","LI":"大智里","LIN":"19鄰","STREET":"崇善十四街","SECT":" ","MAREA":" ","LANE":" ","ALLEY":" ","HOUSE_NO":"７２號","E_COORD97":171238.16,"N_COORD97":2540602.71,"ADDRESS":"崇善十四街７２號","OBJECTID":534256},"geometry":{"x":171238.15999999922,"y":2540602.709999999}},{"attributes":{"ID":534284,"DIS_CODE":0,"TOWNNAME":"東區","LI":"大智里","LIN":"19鄰","STREET":"崇善十四街","SECT":" ","MAREA":" ","LANE":" ","ALLEY":" ","HOUSE_NO":"７４號","E_COORD97":171233.42000000001,"N_COORD97":2540601.0600000001,"ADDRESS":"崇善十四街７４號","OBJECTID":534257},"geometry":{"x":171233.42000000086,"y":2540601.0600000024}},{"attributes":{"ID":534285,"DIS_CODE":0,"TOWNNAME":"東區","LI":"大智里","LIN":"19鄰","STREET":"崇善十四街","SECT":" ","MAREA":" ","LANE":" ","ALLEY":" ","HOUSE_NO":"７６號","E_COORD97":171230.13,"N_COORD97":2540598.3900000001,"ADDRESS":"崇善十四街７６號","OBJECTID":534258},"geometry":{"x":171230.13000000082,"y":2540598.3900000025}},{"attributes":{"ID":534286,"DIS_CODE":0,"TOWNNAME":"仁德區","LI":"仁德里","LIN":"19鄰","STREET":"文華一街","SECT":" ","MAREA":" ","LANE":" ","ALLEY":" ","HOUSE_NO":"４５號","E_COORD97":172331.23000000001,"N_COORD97":2540305.5800000001,"ADDRESS":"文華一街４５號","OBJECTID":534259},"geometry":{"x":172331.23000000045,"y":2540305.5800000019}},{"attributes":{"ID":534287,"DIS_CODE":0,"TOWNNAME":"仁德區","LI":"成功里","LIN":"19鄰","STREET":"成功一街","SECT":" ","MAREA":" ","LANE":" ","ALLEY":" ","HOUSE_NO":"１７５號","E_COORD97":170548.85999999999,"N_COORD97":2539794.27,"ADDRESS":"成功一街１７５號","OBJECTID":534260},"geometry":{"x":170548.8600000022,"y":2539794.2700000033}},{"attributes":{"ID":534288,"DIS_CODE":0,"TOWNNAME":"仁德區","LI":"太子里","LIN":"19鄰","STREET":"長興四街","SECT":" ","MAREA":" ","LANE":" ","ALLEY":" ","HOUSE_NO":"６７號之１","E_COORD97":173909.79999999999,"N_COORD97":2543556.29,"ADDRESS":"長興四街６７號之１","OBJECTID":534261},"geometry":{"x":173909.79999999981,"y":2543556.2899999991}},{"attributes":{"ID":534289,"DIS_CODE":0,"TOWNNAME":"仁德區","LI":"保安里","LIN":"19鄰","STREET":"中正路","SECT":"一段","MAREA":" ","LANE":" ","ALLEY":" ","HOUSE_NO":"３３２號之１","E_COORD97":171885.48999999999,"N_COORD97":2536004.79,"ADDRESS":"中正路一段３３２號之１","OBJECTID":534262},"geometry":{"x":171885.49000000209,"y":2536004.7899999991}},{"attributes":{"ID":534290,"DIS_CODE":0,"TOWNNAME":"仁德區","LI":"保安里","LIN":"19鄰","STREET":"中正路","SECT":"一段","MAREA":" ","LANE":" ","ALLEY":" ","HOUSE_NO":"２４６號","E_COORD97":171690.51999999999,"N_COORD97":2535872.3700000001,"ADDRESS":"中正路一段２４６號","OBJECTID":534263},"geometry":{"x":171690.51999999955,"y":2535872.3700000048}},{"attributes":{"ID":534291,"DIS_CODE":0,"TOWNNAME":"仁德區","LI":"成功里","LIN":"19鄰","STREET":"成功一街","SECT":" ","MAREA":" ","LANE":" ","ALLEY":" ","HOUSE_NO":"１９３號","E_COORD97":170552.06,"N_COORD97":2539753.2599999998,"ADDRESS":"成功一街１９３號","OBJECTID":534264},"geometry":{"x":170552.06000000052,"y":2539753.2599999998}},{"attributes":{"ID":534292,"DIS_CODE":0,"TOWNNAME":"仁德區","LI":"保安里","LIN":"19鄰","STREET":"中正路","SECT":"一段","MAREA":" ","LANE":" ","ALLEY":" ","HOUSE_NO":"２６２之１號","E_COORD97":171756.37,"N_COORD97":2535916.04,"ADDRESS":"中正路一段２６２之１號","OBJECTID":534265},"geometry":{"x":171756.37000000104,"y":2535916.0399999991}},{"attributes":{"ID":534293,"DIS_CODE":0,"TOWNNAME":"仁德區","LI":"保安里","LIN":"19鄰","STREET":"中正路","SECT":"一段","MAREA":" ","LANE":" ","ALLEY":" ","HOUSE_NO":"２６２之３號","E_COORD97":171763.38,"N_COORD97":2535919.04,"ADDRESS":"中正路一段２６２之３號","OBJECTID":534266},"geometry":{"x":171763.37999999989,"y":2535919.0399999991}},{"attributes":{"ID":534294,"DIS_CODE":0,"TOWNNAME":"仁德區","LI":"保安里","LIN":"19鄰","STREET":"中正路","SECT":"一段","MAREA":" ","LANE":" ","ALLEY":" ","HOUSE_NO":"２４８號","E_COORD97":171705.12,"N_COORD97":2535882.7799999998,"ADDRESS":"中正路一段２４８號","OBJECTID":534267},"geometry":{"x":171705.12000000104,"y":2535882.7800000012}},{"attributes":{"ID":534295,"DIS_CODE":0,"TOWNNAME":"仁德區","LI":"保安里","LIN":"19鄰","STREET":"中正路","SECT":"一段","MAREA":" ","LANE":" ","ALLEY":" ","HOUSE_NO":"２５８號","E_COORD97":171730.07999999999,"N_COORD97":2535899.02,"ADDRESS":"中正路一段２５８號","OBJECTID":534268},"geometry":{"x":171730.08000000007,"y":2535899.0199999996}},{"attributes":{"ID":534296,"DIS_CODE":0,"TOWNNAME":"仁德區","LI":"成功里","LIN":"19鄰","STREET":"成功一街","SECT":" ","MAREA":" ","LANE":" ","ALLEY":" ","HOUSE_NO":"１９９號","E_COORD97":170552.70000000001,"N_COORD97":2539739.7599999998,"ADDRESS":"成功一街１９９號","OBJECTID":534269},"geometry":{"x":170552.70000000019,"y":2539739.7599999998}},{"attributes":{"ID":534297,"DIS_CODE":0,"TOWNNAME":"仁德區","LI":"成功里","LIN":"19鄰","STREET":"保生路","SECT":" ","MAREA":" ","LANE":" ","ALLEY":" ","HOUSE_NO":"２７號","E_COORD97":170838.81,"N_COORD97":2539770.2400000002,"ADDRESS":"保生路２７號","OBJECTID":534270},"geometry":{"x":170838.81000000052,"y":2539770.2400000002}},{"attributes":{"ID":534298,"DIS_CODE":0,"TOWNNAME":"仁德區","LI":"成功里","LIN":"19鄰","STREET":"保生路","SECT":" ","MAREA":" ","LANE":" ","ALLEY":" ","HOUSE_NO":"３１號","E_COORD97":170822.67999999999,"N_COORD97":2539754.2400000002,"ADDRESS":"保生路３１號","OBJECTID":534271},"geometry":{"x":170822.68000000063,"y":2539754.2400000039}},{"attributes":{"ID":534299,"DIS_CODE":0,"TOWNNAME":"安南區","LI":"安富里","LIN":"19鄰","STREET":"安富街","SECT":" ","MAREA":" ","LANE":" ","ALLEY":" ","HOUSE_NO":"１９５號","E_COORD97":167706.73999999999,"N_COORD97":2547466.3900000001,"ADDRESS":"安富街１９５號","OBJECTID":534272},"geometry":{"x":167706.74000000209,"y":2547466.3900000006}},{"attributes":{"ID":534300,"DIS_CODE":0,"TOWNNAME":"安南區","LI":"安富里","LIN":"19鄰","STREET":"安富街","SECT":" ","MAREA":" ","LANE":" ","ALLEY":" ","HOUSE_NO":"１９７號","E_COORD97":167701.92999999999,"N_COORD97":2547465.4700000002,"ADDRESS":"安富街１９７號","OBJECTID":534273},"geometry":{"x":167701.93000000063,"y":2547465.4700000007}},{"attributes":{"ID":534301,"DIS_CODE":0,"TOWNNAME":"中西區","LI":"藥王里","LIN":"19鄰","STREET":"永和街","SECT":" ","MAREA":" ","LANE":" ","ALLEY":" ","HOUSE_NO":"４１號","E_COORD97":166990.64999999999,"N_COORD97":2544586.9300000002,"ADDRESS":"永和街４１號","OBJECTID":534274},"geometry":{"x":166990.6500000013,"y":2544586.9299999997}},{"attributes":{"ID":534302,"DIS_CODE":0,"TOWNNAME":"安南區","LI":"安富里","LIN":"19鄰","STREET":"安富街","SECT":" ","MAREA":" ","LANE":" ","ALLEY":" ","HOUSE_NO":"２０１號","E_COORD97":167687.70999999999,"N_COORD97":2547464.1099999999,"ADDRESS":"安富街２０１號","OBJECTID":534275},"geometry":{"x":167687.70999999996,"y":2547464.1100000031}},{"attributes":{"ID":534303,"DIS_CODE":0,"TOWNNAME":"安南區","LI":"安富里","LIN":"19鄰","STREET":"安富街","SECT":" ","MAREA":" ","LANE":" ","ALLEY":" ","HOUSE_NO":"２０５號","E_COORD97":167680.60000000001,"N_COORD97":2547463.8799999999,"ADDRESS":"安富街２０５號","OBJECTID":534276},"geometry":{"x":167680.60000000056,"y":2547463.879999999}},{"attributes":{"ID":534304,"DIS_CODE":0,"TOWNNAME":"安南區","LI":"安富里","LIN":"19鄰","STREET":"安富街","SECT":" ","MAREA":" ","LANE":" ","ALLEY":" ","HOUSE_NO":"２０６號","E_COORD97":167669.35999999999,"N_COORD97":2547487.8599999999,"ADDRESS":"安富街２０６號","OBJECTID":534277},"geometry":{"x":167669.36000000127,"y":2547487.8599999994}},{"attributes":{"ID":534305,"DIS_CODE":0,"TOWNNAME":"安南區","LI":"安富里","LIN":"19鄰","STREET":"安富街","SECT":" ","MAREA":" ","LANE":" ","ALLEY":" ","HOUSE_NO":"２１３號","E_COORD97":167664.32000000001,"N_COORD97":2547458.8399999999,"ADDRESS":"安富街２１３號","OBJECTID":534278},"geometry":{"x":167664.32000000123,"y":2547458.8399999999}},{"attributes":{"ID":534306,"DIS_CODE":0,"TOWNNAME":"安南區","LI":"安富里","LIN":"19鄰","STREET":"安富街","SECT":" ","MAREA":" ","LANE":" ","ALLEY":" ","HOUSE_NO":"２１５號","E_COORD97":167660.88,"N_COORD97":2547455.6299999999,"ADDRESS":"安富街２１５號","OBJECTID":534279},"geometry":{"x":167660.87999999989,"y":2547455.629999999}},{"attributes":{"ID":534307,"DIS_CODE":0,"TOWNNAME":"永康區","LI":"崑山里","LIN":"19鄰","STREET":"大灣路","SECT":" ","MAREA":" ","LANE":" ","ALLEY":" ","HOUSE_NO":"８２６號","E_COORD97":173948.22,"N_COORD97":2544493.6000000001,"ADDRESS":"大灣路８２６號","OBJECTID":534280},"geometry":{"x":173948.22000000067,"y":2544493.5999999996}},{"attributes":{"ID":534308,"DIS_CODE":0,"TOWNNAME":"永康區","LI":"崑山里","LIN":"19鄰","STREET":"大灣路","SECT":" ","MAREA":" ","LANE":" ","ALLEY":" ","HOUSE_NO":"８０８號","E_COORD97":173992.48000000001,"N_COORD97":2544502.6200000001,"ADDRESS":"大灣路８０８號","OBJECTID":534281},"geometry":{"x":173992.48000000045,"y":2544502.6200000048}},{"attributes":{"ID":534309,"DIS_CODE":0,"TOWNNAME":"永康區","LI":"崑山里","LIN":"19鄰","STREET":"大灣路","SECT":" ","MAREA":" ","LANE":" ","ALLEY":" ","HOUSE_NO":"８４８號","E_COORD97":173869.60000000001,"N_COORD97":2544477.5899999999,"ADDRESS":"大灣路８４８號","OBJECTID":534282},"geometry":{"x":173869.60000000056,"y":2544477.589999998}},{"attributes":{"ID":534310,"DIS_CODE":0,"TOWNNAME":"永康區","LI":"崑山里","LIN":"19鄰","STREET":"崑山街","SECT":" ","MAREA":" ","LANE":" ","ALLEY":" ","HOUSE_NO":"２４號","E_COORD97":173935.28,"N_COORD97":2544590.1400000001,"ADDRESS":"崑山街２４號","OBJECTID":534283},"geometry":{"x":173935.28000000119,"y":2544590.1400000043}},{"attributes":{"ID":534311,"DIS_CODE":0,"TOWNNAME":"永康區","LI":"崑山里","LIN":"19鄰","STREET":"大灣路","SECT":" ","MAREA":" ","LANE":" ","ALLEY":" ","HOUSE_NO":"８３０號","E_COORD97":173916.51000000001,"N_COORD97":2544487.5800000001,"ADDRESS":"大灣路８３０號","OBJECTID":534284},"geometry":{"x":173916.50999999978,"y":2544487.5800000001}},{"attributes":{"ID":534312,"DIS_CODE":0,"TOWNNAME":"永康區","LI":"崑山里","LIN":"19鄰","STREET":"崑山街","SECT":" ","MAREA":" ","LANE":" ","ALLEY":" ","HOUSE_NO":"６號","E_COORD97":173934.53,"N_COORD97":2544543.3799999999,"ADDRESS":"崑山街６號","OBJECTID":534285},"geometry":{"x":173934.52999999933,"y":2544543.3800000008}},{"attributes":{"ID":534313,"DIS_CODE":0,"TOWNNAME":"永康區","LI":"崑山里","LIN":"19鄰","STREET":"大灣路","SECT":" ","MAREA":" ","LANE":" ","ALLEY":" ","HOUSE_NO":"８５６號","E_COORD97":173846.87,"N_COORD97":2544482.75,"ADDRESS":"大灣路８５６號","OBJECTID":534286},"geometry":{"x":173846.87000000011,"y":2544482.75}},{"attributes":{"ID":534314,"DIS_CODE":0,"TOWNNAME":"永康區","LI":"南灣里","LIN":"19鄰","STREET":"大灣一街","SECT":" ","MAREA":" ","LANE":" ","ALLEY":" ","HOUSE_NO":"２２之１號","E_COORD97":174266.25,"N_COORD97":2544781.98,"ADDRESS":"大灣一街２２之１號","OBJECTID":534287},"geometry":{"x":174266.25,"y":2544781.9800000023}},{"attributes":{"ID":534315,"DIS_CODE":0,"TOWNNAME":"永康區","LI":"崑山里","LIN":"19鄰","STREET":"大灣路","SECT":" ","MAREA":" ","LANE":" ","ALLEY":" ","HOUSE_NO":"８３８之１號","E_COORD97":173894.45999999999,"N_COORD97":2544482.7599999998,"ADDRESS":"大灣路８３８之１號","OBJECTID":534288},"geometry":{"x":173894.46000000089,"y":2544482.7599999998}},{"attributes":{"ID":534316,"DIS_CODE":0,"TOWNNAME":"永康區","LI":"網寮里","LIN":"19鄰","STREET":"文化路","SECT":" ","MAREA":" ","LANE":" ","ALLEY":" ","HOUSE_NO":"３４０號","E_COORD97":173403.79999999999,"N_COORD97":2546189.1899999999,"ADDRESS":"文化路３４０號","OBJECTID":534289},"geometry":{"x":173403.80000000075,"y":2546189.1900000013}},{"attributes":{"ID":534317,"DIS_CODE":0,"TOWNNAME":"永康區","LI":"網寮里","LIN":"19鄰","STREET":"文化路","SECT":" ","MAREA":" ","LANE":" ","ALLEY":" ","HOUSE_NO":"３４２號","E_COORD97":173400.16,"N_COORD97":2546191.5,"ADDRESS":"文化路３４２號","OBJECTID":534290},"geometry":{"x":173400.16000000108,"y":2546191.5000000019}},{"attributes":{"ID":534318,"DIS_CODE":0,"TOWNNAME":"永康區","LI":"網寮里","LIN":"19鄰","STREET":"文化路","SECT":" ","MAREA":" ","LANE":" ","ALLEY":" ","HOUSE_NO":"３４６號","E_COORD97":173396.84,"N_COORD97":2546194.3100000001,"ADDRESS":"文化路３４６號","OBJECTID":534291},"geometry":{"x":173396.84000000078,"y":2546194.3100000005}},{"attributes":{"ID":534319,"DIS_CODE":0,"TOWNNAME":"永康區","LI":"網寮里","LIN":"19鄰","STREET":"文化路","SECT":" ","MAREA":" ","LANE":" ","ALLEY":" ","HOUSE_NO":"３４８之１號","E_COORD97":173391.92000000001,"N_COORD97":2546199.5899999999,"ADDRESS":"文化路３４８之１號","OBJECTID":534292},"geometry":{"x":173391.91999999993,"y":2546199.5899999999}},{"attributes":{"ID":534320,"DIS_CODE":0,"TOWNNAME":"永康區","LI":"網寮里","LIN":"19鄰","STREET":"文化路","SECT":" ","MAREA":" ","LANE":" ","ALLEY":" ","HOUSE_NO":"３４８之２號","E_COORD97":173388.32999999999,"N_COORD97":2546202.5699999998,"ADDRESS":"文化路３４８之２號","OBJECTID":534293},"geometry":{"x":173388.33000000194,"y":2546202.5700000003}},{"attributes":{"ID":534321,"DIS_CODE":0,"TOWNNAME":"永康區","LI":"網寮里","LIN":"19鄰","STREET":"文化路","SECT":" ","MAREA":" ","LANE":" ","ALLEY":" ","HOUSE_NO":"３４８之３號","E_COORD97":173384.89000000001,"N_COORD97":2546204.8599999999,"ADDRESS":"文化路３４８之３號","OBJECTID":534294},"geometry":{"x":173384.88999999966,"y":2546204.8600000013}},{"attributes":{"ID":534322,"DIS_CODE":0,"TOWNNAME":"永康區","LI":"網寮里","LIN":"19鄰","STREET":"文化路","SECT":" ","MAREA":" ","LANE":" ","ALLEY":" ","HOUSE_NO":"３４８之５號","E_COORD97":173381.31,"N_COORD97":2546207.2999999998,"ADDRESS":"文化路３４８之５號","OBJECTID":534295},"geometry":{"x":173381.31000000052,"y":2546207.3000000026}},{"attributes":{"ID":534323,"DIS_CODE":0,"TOWNNAME":"永康區","LI":"網寮里","LIN":"19鄰","STREET":"文化路","SECT":" ","MAREA":" ","LANE":" ","ALLEY":" ","HOUSE_NO":"３４８號","E_COORD97":173393.09,"N_COORD97":2546196.9500000002,"ADDRESS":"文化路３４８號","OBJECTID":534296},"geometry":{"x":173393.09000000171,"y":2546196.950000003}},{"attributes":{"ID":534324,"DIS_CODE":0,"TOWNNAME":"中西區","LI":"藥王里","LIN":"19鄰","STREET":"中和街","SECT":" ","MAREA":" ","LANE":" ","ALLEY":" ","HOUSE_NO":"４３號","E_COORD97":167008.29999999999,"N_COORD97":2544551.8100000001,"ADDRESS":"中和街４３號","OBJECTID":534297},"geometry":{"x":167008.30000000075,"y":2544551.8100000042}},{"attributes":{"ID":534325,"DIS_CODE":0,"TOWNNAME":"中西區","LI":"藥王里","LIN":"19鄰","STREET":"中和街","SECT":" ","MAREA":" ","LANE":" ","ALLEY":" ","HOUSE_NO":"４５號","E_COORD97":167012.57000000001,"N_COORD97":2544553.2999999998,"ADDRESS":"中和街４５號","OBJECTID":534298},"geometry":{"x":167012.5700000003,"y":2544553.3000000026}},{"attributes":{"ID":534326,"DIS_CODE":0,"TOWNNAME":"中西區","LI":"藥王里","LIN":"19鄰","STREET":"中和街","SECT":" ","MAREA":" ","LANE":" ","ALLEY":" ","HOUSE_NO":"４７號","E_COORD97":167016.63,"N_COORD97":2544557.1499999999,"ADDRESS":"中和街４７號","OBJECTID":534299},"geometry":{"x":167016.62999999989,"y":2544557.1500000022}},{"attributes":{"ID":534327,"DIS_CODE":0,"TOWNNAME":"中西區","LI":"藥王里","LIN":"19鄰","STREET":"中和街","SECT":" ","MAREA":" ","LANE":" ","ALLEY":" ","HOUSE_NO":"４９號","E_COORD97":167019.19,"N_COORD97":2544559.9199999999,"ADDRESS":"中和街４９號","OBJECTID":534300},"geometry":{"x":167019.19000000134,"y":2544559.9199999999}},{"attributes":{"ID":534328,"DIS_CODE":0,"TOWNNAME":"中西區","LI":"藥王里","LIN":"19鄰","STREET":"中和街","SECT":" ","MAREA":" ","LANE":" ","ALLEY":" ","HOUSE_NO":"５３號","E_COORD97":167023.25,"N_COORD97":2544566.75,"ADDRESS":"中和街５３號","OBJECTID":534301},"geometry":{"x":167023.25000000186,"y":2544566.75}},{"attributes":{"ID":534329,"DIS_CODE":0,"TOWNNAME":"中西區","LI":"藥王里","LIN":"19鄰","STREET":"永和街","SECT":" ","MAREA":" ","LANE":" ","ALLEY":" ","HOUSE_NO":"２５號","E_COORD97":166959.06,"N_COORD97":2544558.8799999999,"ADDRESS":"永和街２５號","OBJECTID":534302},"geometry":{"x":166959.05999999959,"y":2544558.879999999}},{"attributes":{"ID":534330,"DIS_CODE":0,"TOWNNAME":"中西區","LI":"藥王里","LIN":"19鄰","STREET":"永和街","SECT":" ","MAREA":" ","LANE":" ","ALLEY":" ","HOUSE_NO":"２７號","E_COORD97":166961.95000000001,"N_COORD97":2544562.2999999998,"ADDRESS":"永和街２７號","OBJECTID":534303},"geometry":{"x":166961.95000000019,"y":2544562.3000000045}},{"attributes":{"ID":534331,"DIS_CODE":0,"TOWNNAME":"中西區","LI":"藥王里","LIN":"19鄰","STREET":"永和街","SECT":" ","MAREA":" ","LANE":" ","ALLEY":" ","HOUSE_NO":"２９號","E_COORD97":166965.10999999999,"N_COORD97":2544565.1899999999,"ADDRESS":"永和街２９號","OBJECTID":534304},"geometry":{"x":166965.11000000034,"y":2544565.1900000013}},{"attributes":{"ID":534332,"DIS_CODE":0,"TOWNNAME":"中西區","LI":"藥王里","LIN":"19鄰","STREET":"永和街","SECT":" ","MAREA":" ","LANE":" ","ALLEY":" ","HOUSE_NO":"３１號","E_COORD97":166968.79999999999,"N_COORD97":2544568.6099999999,"ADDRESS":"永和街３１號","OBJECTID":534305},"geometry":{"x":166968.80000000075,"y":2544568.6100000031}},{"attributes":{"ID":534333,"DIS_CODE":0,"TOWNNAME":"中西區","LI":"藥王里","LIN":"19鄰","STREET":"永和街","SECT":" ","MAREA":" ","LANE":" ","ALLEY":" ","HOUSE_NO":"３３號","E_COORD97":166974.85000000001,"N_COORD97":2544572.8199999998,"ADDRESS":"永和街３３號","OBJECTID":534306},"geometry":{"x":166974.85000000149,"y":2544572.8200000022}},{"attributes":{"ID":534334,"DIS_CODE":0,"TOWNNAME":"中西區","LI":"藥王里","LIN":"19鄰","STREET":"永和街","SECT":" ","MAREA":" ","LANE":" ","ALLEY":" ","HOUSE_NO":"３７號","E_COORD97":166980.64999999999,"N_COORD97":2544578.6099999999,"ADDRESS":"永和街３７號","OBJECTID":534307},"geometry":{"x":166980.6500000013,"y":2544578.6099999994}},{"attributes":{"ID":534335,"DIS_CODE":0,"TOWNNAME":"中西區","LI":"藥王里","LIN":"19鄰","STREET":"永和街","SECT":" ","MAREA":" ","LANE":" ","ALLEY":" ","HOUSE_NO":"３９號","E_COORD97":166987.23000000001,"N_COORD97":2544583.77,"ADDRESS":"永和街３９號","OBJECTID":534308},"geometry":{"x":166987.23000000138,"y":2544583.7699999996}},{"attributes":{"ID":534336,"DIS_CODE":0,"TOWNNAME":"中西區","LI":"藥王里","LIN":"19鄰","STREET":"永和街","SECT":" ","MAREA":" ","LANE":" ","ALLEY":" ","HOUSE_NO":"４０號","E_COORD97":166971.34,"N_COORD97":2544544.5499999998,"ADDRESS":"永和街４０號","OBJECTID":534309},"geometry":{"x":166971.33999999985,"y":2544544.5500000026}},{"attributes":{"ID":534337,"DIS_CODE":0,"TOWNNAME":"中西區","LI":"藥王里","LIN":"19鄰","STREET":"永和街","SECT":" ","MAREA":" ","LANE":" ","ALLEY":" ","HOUSE_NO":"４３號","E_COORD97":166993.35000000001,"N_COORD97":2544590.6400000001,"ADDRESS":"永和街４３號","OBJECTID":534310},"geometry":{"x":166993.35000000149,"y":2544590.6400000025}},{"attributes":{"ID":534338,"DIS_CODE":0,"TOWNNAME":"中西區","LI":"藥王里","LIN":"19鄰","STREET":"永和街","SECT":" ","MAREA":" ","LANE":" ","ALLEY":" ","HOUSE_NO":"４４號","E_COORD97":166979.25,"N_COORD97":2544551.8100000001,"ADDRESS":"永和街４４號","OBJECTID":534311},"geometry":{"x":166979.25000000186,"y":2544551.8100000042}},{"attributes":{"ID":534339,"DIS_CODE":0,"TOWNNAME":"中西區","LI":"藥王里","LIN":"19鄰","STREET":"永和街","SECT":" ","MAREA":" ","LANE":" ","ALLEY":" ","HOUSE_NO":"４６號","E_COORD97":166982.03,"N_COORD97":2544554.7999999998,"ADDRESS":"永和街４６號","OBJECTID":534312},"geometry":{"x":166982.03000000026,"y":2544554.8000000007}},{"attributes":{"ID":534340,"DIS_CODE":0,"TOWNNAME":"中西區","LI":"藥王里","LIN":"19鄰","STREET":"永和街","SECT":" ","MAREA":" ","LANE":" ","ALLEY":" ","HOUSE_NO":"４７號","E_COORD97":166999.12,"N_COORD97":2544596.9300000002,"ADDRESS":"永和街４７號","OBJECTID":534313},"geometry":{"x":166999.12000000104,"y":2544596.9299999997}},{"attributes":{"ID":534341,"DIS_CODE":0,"TOWNNAME":"中西區","LI":"藥王里","LIN":"19鄰","STREET":"永和街","SECT":" ","MAREA":" ","LANE":" ","ALLEY":" ","HOUSE_NO":"４８號","E_COORD97":166984.59,"N_COORD97":2544557.5699999998,"ADDRESS":"永和街４８號","OBJECTID":534314},"geometry":{"x":166984.58999999985,"y":2544557.5700000022}},{"attributes":{"ID":534342,"DIS_CODE":0,"TOWNNAME":"中西區","LI":"藥王里","LIN":"19鄰","STREET":"永和街","SECT":" ","MAREA":" ","LANE":" ","ALLEY":" ","HOUSE_NO":"５０號","E_COORD97":166989.29000000001,"N_COORD97":2544560.5600000001,"ADDRESS":"永和街５０號","OBJECTID":534315},"geometry":{"x":166989.29000000097,"y":2544560.5600000024}},{"attributes":{"ID":534343,"DIS_CODE":0,"TOWNNAME":"中西區","LI":"藥王里","LIN":"19鄰","STREET":"永和街","SECT":" ","MAREA":" ","LANE":" ","ALLEY":" ","HOUSE_NO":"５２號","E_COORD97":166992.48999999999,"N_COORD97":2544563.98,"ADDRESS":"永和街５２號","OBJECTID":534316},"geometry":{"x":166992.49000000022,"y":2544563.9800000042}},{"attributes":{"ID":534344,"DIS_CODE":0,"TOWNNAME":"中西區","LI":"藥王里","LIN":"19鄰","STREET":"永和街","SECT":" ","MAREA":" ","LANE":" ","ALLEY":" ","HOUSE_NO":"５４號","E_COORD97":166996.34,"N_COORD97":2544565.6800000002,"ADDRESS":"永和街５４號","OBJECTID":534317},"geometry":{"x":166996.33999999985,"y":2544565.6800000016}},{"attributes":{"ID":534345,"DIS_CODE":0,"TOWNNAME":"中西區","LI":"藥王里","LIN":"19鄰","STREET":"永和街","SECT":" ","MAREA":" ","LANE":" ","ALLEY":" ","HOUSE_NO":"５４號之１","E_COORD97":166999.76000000001,"N_COORD97":2544568.6699999999,"ADDRESS":"永和街５４號之１","OBJECTID":534318},"geometry":{"x":166999.76000000071,"y":2544568.6699999981}},{"attributes":{"ID":534346,"DIS_CODE":0,"TOWNNAME":"中西區","LI":"藥王里","LIN":"19鄰","STREET":"永和街","SECT":" ","MAREA":" ","LANE":" ","ALLEY":" ","HOUSE_NO":"５６號","E_COORD97":167002.53,"N_COORD97":2544572.52,"ADDRESS":"永和街５６號","OBJECTID":534319},"geometry":{"x":167002.53000000026,"y":2544572.5199999996}},{"attributes":{"ID":534347,"DIS_CODE":0,"TOWNNAME":"中西區","LI":"藥王里","LIN":"19鄰","STREET":"永和街","SECT":" ","MAREA":" ","LANE":" ","ALLEY":" ","HOUSE_NO":"５８號","E_COORD97":167005.95000000001,"N_COORD97":2544575.0800000001,"ADDRESS":"永和街５８號","OBJECTID":534320},"geometry":{"x":167005.95000000112,"y":2544575.0800000001}},{"attributes":{"ID":534348,"DIS_CODE":0,"TOWNNAME":"中西區","LI":"藥王里","LIN":"19鄰","STREET":"永和街","SECT":" ","MAREA":" ","LANE":" ","ALLEY":" ","HOUSE_NO":"６０號","E_COORD97":167009.37,"N_COORD97":2544578.0699999998,"ADDRESS":"永和街６０號","OBJECTID":534321},"geometry":{"x":167009.37000000104,"y":2544578.0700000022}},{"attributes":{"ID":534349,"DIS_CODE":0,"TOWNNAME":"中西區","LI":"藥王里","LIN":"19鄰","STREET":"永和街","SECT":" ","MAREA":" ","LANE":" ","ALLEY":" ","HOUSE_NO":"６２號","E_COORD97":167012.14999999999,"N_COORD97":2544581.9100000001,"ADDRESS":"永和街６２號","OBJECTID":534322},"geometry":{"x":167012.15000000037,"y":2544581.910000002}},{"attributes":{"ID":534350,"DIS_CODE":0,"TOWNNAME":"東區","LI":"德高里","LIN":"19鄰","STREET":"城東街","SECT":" ","MAREA":" ","LANE":" ","ALLEY":" ","HOUSE_NO":"１１９號","E_COORD97":171733.92000000001,"N_COORD97":2540898.46,"ADDRESS":"城東街１１９號","OBJECTID":534323},"geometry":{"x":171733.91999999993,"y":2540898.4600000009}},{"attributes":{"ID":534351,"DIS_CODE":0,"TOWNNAME":"東區","LI":"德高里","LIN":"19鄰","STREET":"城東街","SECT":" ","MAREA":" ","LANE":" ","ALLEY":" ","HOUSE_NO":"１２１號","E_COORD97":171732.10999999999,"N_COORD97":2540901.7999999998,"ADDRESS":"城東街１２１號","OBJECTID":534324},"geometry":{"x":171732.1100000022,"y":2540901.8000000026}},{"attributes":{"ID":534352,"DIS_CODE":0,"TOWNNAME":"東區","LI":"德高里","LIN":"19鄰","STREET":"城東街","SECT":" ","MAREA":" ","LANE":" ","ALLEY":" ","HOUSE_NO":"１２３號","E_COORD97":171729.73999999999,"N_COORD97":2540905.7000000002,"ADDRESS":"城東街１２３號","OBJECTID":534325},"geometry":{"x":171729.74000000115,"y":2540905.6999999993}},{"attributes":{"ID":534353,"DIS_CODE":0,"TOWNNAME":"東區","LI":"德高里","LIN":"19鄰","STREET":"城東街","SECT":" ","MAREA":" ","LANE":" ","ALLEY":" ","HOUSE_NO":"１２７號","E_COORD97":171732.39000000001,"N_COORD97":2540916.8500000001,"ADDRESS":"城東街１２７號","OBJECTID":534326},"geometry":{"x":171732.38999999966,"y":2540916.8500000015}},{"attributes":{"ID":534354,"DIS_CODE":0,"TOWNNAME":"東區","LI":"德高里","LIN":"19鄰","STREET":"城東街","SECT":" ","MAREA":" ","LANE":" ","ALLEY":" ","HOUSE_NO":"１２９號","E_COORD97":171730.57999999999,"N_COORD97":2540921.02,"ADDRESS":"城東街１２９號","OBJECTID":534327},"geometry":{"x":171730.58000000101,"y":2540921.0199999996}},{"attributes":{"ID":534355,"DIS_CODE":0,"TOWNNAME":"東區","LI":"德高里","LIN":"19鄰","STREET":"城東街","SECT":" ","MAREA":" ","LANE":" ","ALLEY":" ","HOUSE_NO":"１３１號","E_COORD97":171729.04000000001,"N_COORD97":2540924.6499999999,"ADDRESS":"城東街１３１號","OBJECTID":534328},"geometry":{"x":171729.04000000097,"y":2540924.6499999985}},{"attributes":{"ID":534356,"DIS_CODE":0,"TOWNNAME":"東區","LI":"德高里","LIN":"19鄰","STREET":"城東街","SECT":" ","MAREA":" ","LANE":" ","ALLEY":" ","HOUSE_NO":"１３３號","E_COORD97":171727.92999999999,"N_COORD97":2540928.4100000001,"ADDRESS":"城東街１３３號","OBJECTID":534329},"geometry":{"x":171727.93000000063,"y":2540928.4100000001}},{"attributes":{"ID":534357,"DIS_CODE":0,"TOWNNAME":"東區","LI":"小東里","LIN":"19鄰","STREET":"東興路","SECT":" ","MAREA":" ","LANE":" ","ALLEY":" ","HOUSE_NO":"３１６號","E_COORD97":171071.60000000001,"N_COORD97":2544106.4900000002,"ADDRESS":"東興路３１６號","OBJECTID":534330},"geometry":{"x":171071.59999999963,"y":2544106.4900000021}},{"attributes":{"ID":534358,"DIS_CODE":0,"TOWNNAME":"東區","LI":"小東里","LIN":"19鄰","STREET":"東興路","SECT":" ","MAREA":" ","LANE":" ","ALLEY":" ","HOUSE_NO":"３３８號","E_COORD97":171068.45999999999,"N_COORD97":2544150.2999999998,"ADDRESS":"東興路３３８號","OBJECTID":534331},"geometry":{"x":171068.46000000089,"y":2544150.3000000007}},{"attributes":{"ID":534359,"DIS_CODE":0,"TOWNNAME":"東區","LI":"小東里","LIN":"19鄰","STREET":"東興路","SECT":" ","MAREA":" ","LANE":" ","ALLEY":" ","HOUSE_NO":"３４０號","E_COORD97":171067.82999999999,"N_COORD97":2544158.4399999999,"ADDRESS":"東興路３４０號","OBJECTID":534332},"geometry":{"x":171067.83000000101,"y":2544158.4399999995}},{"attributes":{"ID":534360,"DIS_CODE":0,"TOWNNAME":"安南區","LI":"溪東里","LIN":"19鄰","STREET":"郡安路","SECT":"五段","MAREA":" ","LANE":" ","ALLEY":" ","HOUSE_NO":"９號","E_COORD97":168387.5,"N_COORD97":2547650.02,"ADDRESS":"郡安路五段９號","OBJECTID":534333},"geometry":{"x":168387.5,"y":2547650.0199999996}},{"attributes":{"ID":534361,"DIS_CODE":0,"TOWNNAME":"中西區","LI":"建國里","LIN":"19鄰","STREET":"民權路","SECT":"二段","MAREA":" ","LANE":" ","ALLEY":" ","HOUSE_NO":"２３５號","E_COORD97":168133.5,"N_COORD97":2543998.1899999999,"ADDRESS":"民權路二段２３５號","OBJECTID":534334},"geometry":{"x":168133.49999999907,"y":2543998.1899999995}},{"attributes":{"ID":534362,"DIS_CODE":0,"TOWNNAME":"中西區","LI":"建國里","LIN":"19鄰","STREET":"民權路","SECT":"二段","MAREA":" ","LANE":" ","ALLEY":" ","HOUSE_NO":"２３７號","E_COORD97":168129.79999999999,"N_COORD97":2543999.5800000001,"ADDRESS":"民權路二段２３７號","OBJECTID":534335},"geometry":{"x":168129.80000000168,"y":2543999.5800000001}},{"attributes":{"ID":534363,"DIS_CODE":0,"TOWNNAME":"中西區","LI":"建國里","LIN":"19鄰","STREET":"民權路","SECT":"二段","MAREA":" ","LANE":" ","ALLEY":" ","HOUSE_NO":"２４１號","E_COORD97":168121.85000000001,"N_COORD97":2544002.3500000001,"ADDRESS":"民權路二段２４１號","OBJECTID":534336},"geometry":{"x":168121.84999999963,"y":2544002.3500000015}},{"attributes":{"ID":534364,"DIS_CODE":0,"TOWNNAME":"中西區","LI":"建國里","LIN":"19鄰","STREET":"民權路","SECT":"二段","MAREA":" ","LANE":" ","ALLEY":" ","HOUSE_NO":"２４３號","E_COORD97":168117.69,"N_COORD97":2544004.1000000001,"ADDRESS":"民權路二段２４３號","OBJECTID":534337},"geometry":{"x":168117.69000000134,"y":2544004.1000000015}},{"attributes":{"ID":534365,"DIS_CODE":0,"TOWNNAME":"中西區","LI":"建國里","LIN":"19鄰","STREET":"民權路","SECT":"二段","MAREA":" ","LANE":" ","ALLEY":" ","HOUSE_NO":"２４５號","E_COORD97":168113.70999999999,"N_COORD97":2544004.9300000002,"ADDRESS":"民權路二段２４５號","OBJECTID":534338},"geometry":{"x":168113.71000000089,"y":2544004.9300000016}},{"attributes":{"ID":534366,"DIS_CODE":0,"TOWNNAME":"中西區","LI":"建國里","LIN":"19鄰","STREET":"民權路","SECT":"二段","MAREA":" ","LANE":" ","ALLEY":" ","HOUSE_NO":"２４７號","E_COORD97":168109.19,"N_COORD97":2544006.3199999998,"ADDRESS":"民權路二段２４７號","OBJECTID":534339},"geometry":{"x":168109.19000000134,"y":2544006.3200000022}},{"attributes":{"ID":534367,"DIS_CODE":0,"TOWNNAME":"中西區","LI":"建國里","LIN":"19鄰","STREET":"民權路","SECT":"二段","MAREA":" ","LANE":" ","ALLEY":" ","HOUSE_NO":"２４９號","E_COORD97":168105.57999999999,"N_COORD97":2544008.8100000001,"ADDRESS":"民權路二段２４９號","OBJECTID":534340},"geometry":{"x":168105.58000000007,"y":2544008.8100000005}},{"attributes":{"ID":534368,"DIS_CODE":0,"TOWNNAME":"中西區","LI":"建國里","LIN":"19鄰","STREET":"民權路","SECT":"二段","MAREA":" ","LANE":" ","ALLEY":" ","HOUSE_NO":"２５１號","E_COORD97":168100.95999999999,"N_COORD97":2544009.8199999998,"ADDRESS":"民權路二段２５１號","OBJECTID":534341},"geometry":{"x":168100.95999999996,"y":2544009.8200000022}},{"attributes":{"ID":534369,"DIS_CODE":0,"TOWNNAME":"中西區","LI":"建國里","LIN":"19鄰","STREET":"民權路","SECT":"二段","MAREA":" ","LANE":" ","ALLEY":" ","HOUSE_NO":"２５３號","E_COORD97":168097.35000000001,"N_COORD97":2544011.2999999998,"ADDRESS":"民權路二段２５３號","OBJECTID":534342},"geometry":{"x":168097.35000000056,"y":2544011.3000000007}},{"attributes":{"ID":534370,"DIS_CODE":0,"TOWNNAME":"中西區","LI":"建國里","LIN":"19鄰","STREET":"民權路","SECT":"二段","MAREA":" ","LANE":" ","ALLEY":" ","HOUSE_NO":"２５５號","E_COORD97":168093.75,"N_COORD97":2544013.6099999999,"ADDRESS":"民權路二段２５５號","OBJECTID":534343},"geometry":{"x":168093.75000000093,"y":2544013.6100000013}},{"attributes":{"ID":534371,"DIS_CODE":0,"TOWNNAME":"中西區","LI":"建國里","LIN":"19鄰","STREET":"民權路","SECT":"二段","MAREA":" ","LANE":" ","ALLEY":" ","HOUSE_NO":"２５７號","E_COORD97":168088.48999999999,"N_COORD97":2544015.4100000001,"ADDRESS":"民權路二段２５７號","OBJECTID":534344},"geometry":{"x":168088.49000000115,"y":2544015.410000002}},{"attributes":{"ID":534372,"DIS_CODE":0,"TOWNNAME":"中西區","LI":"建國里","LIN":"19鄰","STREET":"民權路","SECT":"二段","MAREA":" ","LANE":" ","ALLEY":" ","HOUSE_NO":"２５９號","E_COORD97":168084.42000000001,"N_COORD97":2544016.7999999998,"ADDRESS":"民權路二段２５９號","OBJECTID":534345},"geometry":{"x":168084.41999999993,"y":2544016.8000000026}},{"attributes":{"ID":534373,"DIS_CODE":0,"TOWNNAME":"中西區","LI":"建國里","LIN":"19鄰","STREET":"民權路","SECT":"二段","MAREA":" ","LANE":" ","ALLEY":" ","HOUSE_NO":"２６１號","E_COORD97":168080.54000000001,"N_COORD97":2544018.46,"ADDRESS":"民權路二段２６１號","OBJECTID":534346},"geometry":{"x":168080.54000000004,"y":2544018.459999999}},{"attributes":{"ID":534374,"DIS_CODE":0,"TOWNNAME":"中西區","LI":"建國里","LIN":"19鄰","STREET":"民權路","SECT":"二段","MAREA":" ","LANE":" ","ALLEY":" ","HOUSE_NO":"２６３號","E_COORD97":168076.84,"N_COORD97":2544019.8399999999,"ADDRESS":"民權路二段２６３號","OBJECTID":534347},"geometry":{"x":168076.83999999892,"y":2544019.8400000017}},{"attributes":{"ID":534375,"DIS_CODE":0,"TOWNNAME":"中西區","LI":"建國里","LIN":"19鄰","STREET":"民權路","SECT":"二段","MAREA":" ","LANE":" ","ALLEY":" ","HOUSE_NO":"２６５號","E_COORD97":168072.67999999999,"N_COORD97":2544021.3199999998,"ADDRESS":"民權路二段２６５號","OBJECTID":534348},"geometry":{"x":168072.67999999877,"y":2544021.3200000003}},{"attributes":{"ID":534376,"DIS_CODE":0,"TOWNNAME":"中西區","LI":"建國里","LIN":"19鄰","STREET":"民權路","SECT":"二段","MAREA":" ","LANE":" ","ALLEY":" ","HOUSE_NO":"２６７號","E_COORD97":168068.25,"N_COORD97":2544023.1699999999,"ADDRESS":"民權路二段２６７號","OBJECTID":534349},"geometry":{"x":168068.25000000093,"y":2544023.1700000037}},{"attributes":{"ID":534377,"DIS_CODE":0,"TOWNNAME":"中西區","LI":"建國里","LIN":"19鄰","STREET":"民權路","SECT":"二段","MAREA":" ","LANE":" ","ALLEY":" ","HOUSE_NO":"２６９號","E_COORD97":168064.09,"N_COORD97":2544024.1800000002,"ADDRESS":"民權路二段２６９號","OBJECTID":534350},"geometry":{"x":168064.09000000078,"y":2544024.1800000016}},{"attributes":{"ID":534378,"DIS_CODE":0,"TOWNNAME":"中西區","LI":"建國里","LIN":"19鄰","STREET":"民權路","SECT":"二段","MAREA":" ","LANE":" ","ALLEY":" ","HOUSE_NO":"２７１號","E_COORD97":168060.85000000001,"N_COORD97":2544025.48,"ADDRESS":"民權路二段２７１號","OBJECTID":534351},"geometry":{"x":168060.84999999963,"y":2544025.4800000023}},{"attributes":{"ID":534379,"DIS_CODE":0,"TOWNNAME":"中西區","LI":"建國里","LIN":"19鄰","STREET":"民權路","SECT":"二段","MAREA":" ","LANE":" ","ALLEY":" ","HOUSE_NO":"２７３號","E_COORD97":168056.97,"N_COORD97":2544026.9500000002,"ADDRESS":"民權路二段２７３號","OBJECTID":534352},"geometry":{"x":168056.96999999974,"y":2544026.9499999974}},{"attributes":{"ID":534380,"DIS_CODE":0,"TOWNNAME":"中西區","LI":"建國里","LIN":"19鄰","STREET":"民權路","SECT":"二段","MAREA":" ","LANE":" ","ALLEY":" ","HOUSE_NO":"２７５號","E_COORD97":168050.87,"N_COORD97":2544028.25,"ADDRESS":"民權路二段２７５號","OBJECTID":534353},"geometry":{"x":168050.87000000011,"y":2544028.25}},{"attributes":{"ID":534381,"DIS_CODE":0,"TOWNNAME":"中西區","LI":"建國里","LIN":"19鄰","STREET":"永福路","SECT":"二段","MAREA":" ","LANE":" ","ALLEY":" ","HOUSE_NO":"１６３號","E_COORD97":168123.35999999999,"N_COORD97":2543920.46,"ADDRESS":"永福路二段１６３號","OBJECTID":534354},"geometry":{"x":168123.36000000127,"y":2543920.4600000046}},{"attributes":{"ID":534382,"DIS_CODE":0,"TOWNNAME":"中西區","LI":"建國里","LIN":"19鄰","STREET":"永福路","SECT":"二段","MAREA":" ","LANE":" ","ALLEY":" ","HOUSE_NO":"１６５號","E_COORD97":168128.92000000001,"N_COORD97":2543923.5899999999,"ADDRESS":"永福路二段１６５號","OBJECTID":534355},"geometry":{"x":168128.91999999899,"y":2543923.5899999999}},{"attributes":{"ID":534383,"DIS_CODE":0,"TOWNNAME":"中西區","LI":"建國里","LIN":"19鄰","STREET":"永福路","SECT":"二段","MAREA":" ","LANE":" ","ALLEY":" ","HOUSE_NO":"１６７號","E_COORD97":168129.63,"N_COORD97":2543927.9300000002,"ADDRESS":"永福路二段１６７號","OBJECTID":534356},"geometry":{"x":168129.63000000082,"y":2543927.9299999997}},{"attributes":{"ID":534384,"DIS_CODE":0,"TOWNNAME":"中西區","LI":"建國里","LIN":"19鄰","STREET":"永福路","SECT":"二段","MAREA":" ","LANE":" ","ALLEY":" ","HOUSE_NO":"１７１號","E_COORD97":168130.75,"N_COORD97":2543934.54,"ADDRESS":"永福路二段１７１號","OBJECTID":534357},"geometry":{"x":168130.75000000093,"y":2543934.5399999991}},{"attributes":{"ID":534385,"DIS_CODE":0,"TOWNNAME":"中西區","LI":"建國里","LIN":"19鄰","STREET":"永福路","SECT":"二段","MAREA":" ","LANE":" ","ALLEY":" ","HOUSE_NO":"１７３號","E_COORD97":168133.17999999999,"N_COORD97":2543941.1600000001,"ADDRESS":"永福路二段１７３號","OBJECTID":534358},"geometry":{"x":168133.1799999997,"y":2543941.1600000001}},{"attributes":{"ID":534386,"DIS_CODE":0,"TOWNNAME":"中西區","LI":"建國里","LIN":"19鄰","STREET":"永福路","SECT":"二段","MAREA":" ","LANE":" ","ALLEY":" ","HOUSE_NO":"１７５號","E_COORD97":168134.29000000001,"N_COORD97":2543947.2000000002,"ADDRESS":"永福路二段１７５號","OBJECTID":534359},"geometry":{"x":168134.29000000004,"y":2543947.1999999993}},{"attributes":{"ID":534387,"DIS_CODE":0,"TOWNNAME":"中西區","LI":"建國里","LIN":"19鄰","STREET":"永福路","SECT":"二段","MAREA":" ","LANE":" ","ALLEY":" ","HOUSE_NO":"１７９號","E_COORD97":168136.57000000001,"N_COORD97":2543952.4900000002,"ADDRESS":"永福路二段１７９號","OBJECTID":534360},"geometry":{"x":168136.5700000003,"y":2543952.4900000002}},{"attributes":{"ID":534388,"DIS_CODE":0,"TOWNNAME":"中西區","LI":"建國里","LIN":"19鄰","STREET":"永福路","SECT":"二段","MAREA":" ","LANE":" ","ALLEY":" ","HOUSE_NO":"１８１號","E_COORD97":168138.34,"N_COORD97":2543955.9500000002,"ADDRESS":"永福路二段１８１號","OBJECTID":534361},"geometry":{"x":168138.34000000078,"y":2543955.950000003}},{"attributes":{"ID":534389,"DIS_CODE":0,"TOWNNAME":"中西區","LI":"建國里","LIN":"19鄰","STREET":"永福路","SECT":"二段","MAREA":" ","LANE":" ","ALLEY":" ","HOUSE_NO":"１８３號","E_COORD97":168139.37,"N_COORD97":2543960.1899999999,"ADDRESS":"永福路二段１８３號","OBJECTID":534362},"geometry":{"x":168139.37000000011,"y":2543960.1899999995}},{"attributes":{"ID":534390,"DIS_CODE":0,"TOWNNAME":"中西區","LI":"建國里","LIN":"19鄰","STREET":"永福路","SECT":"二段","MAREA":" ","LANE":" ","ALLEY":" ","HOUSE_NO":"１８５號","E_COORD97":168140.39999999999,"N_COORD97":2543964.3799999999,"ADDRESS":"永福路二段１８５號","OBJECTID":534363},"geometry":{"x":168140.4000000013,"y":2543964.3800000008}},{"attributes":{"ID":534391,"DIS_CODE":0,"TOWNNAME":"中西區","LI":"建國里","LIN":"19鄰","STREET":"永福路","SECT":"二段","MAREA":" ","LANE":" ","ALLEY":" ","HOUSE_NO":"１８７號","E_COORD97":168144.04999999999,"N_COORD97":2543974.4700000002,"ADDRESS":"永福路二段１８７號","OBJECTID":534364},"geometry":{"x":168144.05000000075,"y":2543974.4700000044}},{"attributes":{"ID":534392,"DIS_CODE":0,"TOWNNAME":"中西區","LI":"建國里","LIN":"19鄰","STREET":"永福路","SECT":"二段","MAREA":" ","LANE":" ","ALLEY":" ","HOUSE_NO":"１８９號","E_COORD97":168147.28,"N_COORD97":2543983.8300000001,"ADDRESS":"永福路二段１８９號","OBJECTID":534365},"geometry":{"x":168147.28000000212,"y":2543983.8300000001}},{"attributes":{"ID":534393,"DIS_CODE":0,"TOWNNAME":"中西區","LI":"建國里","LIN":"19鄰","STREET":"永福路","SECT":"二段","MAREA":" ","LANE":" ","ALLEY":" ","HOUSE_NO":"１９１號","E_COORD97":168152.66,"N_COORD97":2543985.7400000002,"ADDRESS":"永福路二段１９１號","OBJECTID":534366},"geometry":{"x":168152.66000000015,"y":2543985.7400000039}},{"attributes":{"ID":534394,"DIS_CODE":0,"TOWNNAME":"中西區","LI":"萬昌里","LIN":"19鄰","STREET":"青年路","SECT":" ","MAREA":" ","LANE":" ","ALLEY":" ","HOUSE_NO":"１６６號","E_COORD97":168998.14000000001,"N_COORD97":2543580.6200000001,"ADDRESS":"青年路１６６號","OBJECTID":534367},"geometry":{"x":168998.13999999966,"y":2543580.6200000048}},{"attributes":{"ID":534395,"DIS_CODE":0,"TOWNNAME":"中西區","LI":"萬昌里","LIN":"19鄰","STREET":"青年路","SECT":" ","MAREA":" ","LANE":" ","ALLEY":" ","HOUSE_NO":"１６８號","E_COORD97":169003.04999999999,"N_COORD97":2543580.8300000001,"ADDRESS":"青年路１６８號","OBJECTID":534368},"geometry":{"x":169003.05000000075,"y":2543580.8300000001}},{"attributes":{"ID":534396,"DIS_CODE":0,"TOWNNAME":"中西區","LI":"萬昌里","LIN":"19鄰","STREET":"青年路","SECT":" ","MAREA":" ","LANE":" ","ALLEY":" ","HOUSE_NO":"１７０號","E_COORD97":169011.84,"N_COORD97":2543578.2200000002,"ADDRESS":"青年路１７０號","OBJECTID":534369},"geometry":{"x":169011.83999999985,"y":2543578.2200000007}},{"attributes":{"ID":534397,"DIS_CODE":0,"TOWNNAME":"中西區","LI":"萬昌里","LIN":"19鄰","STREET":"青年路","SECT":" ","MAREA":" ","LANE":" ","ALLEY":" ","HOUSE_NO":"１７４號","E_COORD97":169019.89000000001,"N_COORD97":2543576.75,"ADDRESS":"青年路１７４號","OBJECTID":534370},"geometry":{"x":169019.88999999966,"y":2543576.75}},{"attributes":{"ID":534398,"DIS_CODE":0,"TOWNNAME":"中西區","LI":"萬昌里","LIN":"19鄰","STREET":"青年路","SECT":" ","MAREA":" ","LANE":" ","ALLEY":" ","HOUSE_NO":"１７６號","E_COORD97":169024.81,"N_COORD97":2543575.8100000001,"ADDRESS":"青年路１７６號","OBJECTID":534371},"geometry":{"x":169024.81000000052,"y":2543575.8100000024}},{"attributes":{"ID":534399,"DIS_CODE":0,"TOWNNAME":"中西區","LI":"萬昌里","LIN":"19鄰","STREET":"青年路","SECT":" ","MAREA":" ","LANE":" ","ALLEY":" ","HOUSE_NO":"１７８號","E_COORD97":169030.88,"N_COORD97":2543575.6000000001,"ADDRESS":"青年路１７８號","OBJECTID":534372},"geometry":{"x":169030.87999999989,"y":2543575.6000000034}},{"attributes":{"ID":534400,"DIS_CODE":0,"TOWNNAME":"中西區","LI":"萬昌里","LIN":"19鄰","STREET":"青年路","SECT":" ","MAREA":" ","LANE":" ","ALLEY":" ","HOUSE_NO":"１８０號","E_COORD97":169038.29999999999,"N_COORD97":2543573.5099999998,"ADDRESS":"青年路１８０號","OBJECTID":534373},"geometry":{"x":169038.30000000168,"y":2543573.5100000016}},{"attributes":{"ID":534401,"DIS_CODE":0,"TOWNNAME":"中西區","LI":"萬昌里","LIN":"19鄰","STREET":"青年路","SECT":" ","MAREA":" ","LANE":" ","ALLEY":" ","HOUSE_NO":"１８２號","E_COORD97":169043.32000000001,"N_COORD97":2543571.8399999999,"ADDRESS":"青年路１８２號","OBJECTID":534374},"geometry":{"x":169043.3200000003,"y":2543571.8400000017}},{"attributes":{"ID":534402,"DIS_CODE":0,"TOWNNAME":"中西區","LI":"萬昌里","LIN":"19鄰","STREET":"青年路","SECT":" ","MAREA":" ","LANE":" ","ALLEY":" ","HOUSE_NO":"１８４號","E_COORD97":169046.57000000001,"N_COORD97":2543571,"ADDRESS":"青年路１８４號","OBJECTID":534375},"geometry":{"x":169046.5700000003,"y":2543571.0000000019}},{"attributes":{"ID":534403,"DIS_CODE":0,"TOWNNAME":"中西區","LI":"萬昌里","LIN":"19鄰","STREET":"青年路","SECT":" ","MAREA":" ","LANE":" ","ALLEY":" ","HOUSE_NO":"１８６號","E_COORD97":169048.45000000001,"N_COORD97":2543570.0600000001,"ADDRESS":"青年路１８６號","OBJECTID":534376},"geometry":{"x":169048.45000000112,"y":2543570.0600000042}},{"attributes":{"ID":534404,"DIS_CODE":0,"TOWNNAME":"中西區","LI":"萬昌里","LIN":"19鄰","STREET":"青年路","SECT":" ","MAREA":" ","LANE":" ","ALLEY":" ","HOUSE_NO":"１９２號","E_COORD97":169050.95999999999,"N_COORD97":2543569.6400000001,"ADDRESS":"青年路１９２號","OBJECTID":534377},"geometry":{"x":169050.96000000183,"y":2543569.6400000043}},{"attributes":{"ID":534405,"DIS_CODE":0,"TOWNNAME":"中西區","LI":"萬昌里","LIN":"19鄰","STREET":"青年路","SECT":" ","MAREA":" ","LANE":" ","ALLEY":" ","HOUSE_NO":"１９４號","E_COORD97":169052.53,"N_COORD97":2543568.4900000002,"ADDRESS":"青年路１９４號","OBJECTID":534378},"geometry":{"x":169052.53000000212,"y":2543568.4900000021}},{"attributes":{"ID":534406,"DIS_CODE":0,"TOWNNAME":"中西區","LI":"萬昌里","LIN":"19鄰","STREET":"青年路","SECT":" ","MAREA":" ","LANE":" ","ALLEY":" ","HOUSE_NO":"１９６號","E_COORD97":169068.35999999999,"N_COORD97":2543567.7799999998,"ADDRESS":"青年路１９６號","OBJECTID":534379},"geometry":{"x":169068.36000000034,"y":2543567.7800000012}},{"attributes":{"ID":534407,"DIS_CODE":0,"TOWNNAME":"中西區","LI":"萬昌里","LIN":"19鄰","STREET":"青年路","SECT":" ","MAREA":" ","LANE":" ","ALLEY":" ","HOUSE_NO":"１９８號","E_COORD97":169072.92999999999,"N_COORD97":2543566.8100000001,"ADDRESS":"青年路１９８號","OBJECTID":534380},"geometry":{"x":169072.93000000156,"y":2543566.8100000005}},{"attributes":{"ID":534408,"DIS_CODE":0,"TOWNNAME":"中西區","LI":"萬昌里","LIN":"19鄰","STREET":"青年路","SECT":" ","MAREA":" ","LANE":" ","ALLEY":" ","HOUSE_NO":"２００號","E_COORD97":169077.34,"N_COORD97":2543565.6600000001,"ADDRESS":"青年路２００號","OBJECTID":534381},"geometry":{"x":169077.34000000078,"y":2543565.6600000039}},{"attributes":{"ID":534409,"DIS_CODE":0,"TOWNNAME":"中西區","LI":"萬昌里","LIN":"19鄰","STREET":"青年路","SECT":" ","MAREA":" ","LANE":" ","ALLEY":" ","HOUSE_NO":"２０２號","E_COORD97":169081.42999999999,"N_COORD97":2543564.8500000001,"ADDRESS":"青年路２０２號","OBJECTID":534382},"geometry":{"x":169081.43000000156,"y":2543564.8500000015}},{"attributes":{"ID":534410,"DIS_CODE":0,"TOWNNAME":"中西區","LI":"萬昌里","LIN":"19鄰","STREET":"青年路","SECT":" ","MAREA":" ","LANE":" ","ALLEY":" ","HOUSE_NO":"２０４號","E_COORD97":169086.16,"N_COORD97":2543564.0299999998,"ADDRESS":"青年路２０４號","OBJECTID":534383},"geometry":{"x":169086.16000000108,"y":2543564.0299999993}},{"attributes":{"ID":534411,"DIS_CODE":0,"TOWNNAME":"中西區","LI":"萬昌里","LIN":"19鄰","STREET":"青年路","SECT":" ","MAREA":" ","LANE":" ","ALLEY":" ","HOUSE_NO":"２０６號","E_COORD97":169090.41,"N_COORD97":2543562.73,"ADDRESS":"青年路２０６號","OBJECTID":534384},"geometry":{"x":169090.40999999922,"y":2543562.7300000023}},{"attributes":{"ID":534412,"DIS_CODE":0,"TOWNNAME":"中西區","LI":"萬昌里","LIN":"19鄰","STREET":"青年路","SECT":" ","MAREA":" ","LANE":" ","ALLEY":" ","HOUSE_NO":"２０８號","E_COORD97":169094.48999999999,"N_COORD97":2543562.73,"ADDRESS":"青年路２０８號","OBJECTID":534385},"geometry":{"x":169094.49000000022,"y":2543562.7300000023}},{"attributes":{"ID":534413,"DIS_CODE":0,"TOWNNAME":"中西區","LI":"萬昌里","LIN":"19鄰","STREET":"青年路","SECT":" ","MAREA":" ","LANE":" ","ALLEY":" ","HOUSE_NO":"２１０號","E_COORD97":169099.23000000001,"N_COORD97":2543561.5800000001,"ADDRESS":"青年路２１０號","OBJECTID":534386},"geometry":{"x":169099.23000000138,"y":2543561.5800000001}},{"attributes":{"ID":534414,"DIS_CODE":0,"TOWNNAME":"中西區","LI":"萬昌里","LIN":"19鄰","STREET":"青年路","SECT":" ","MAREA":" ","LANE":" ","ALLEY":" ","HOUSE_NO":"２１２號","E_COORD97":169102.66,"N_COORD97":2543559.9500000002,"ADDRESS":"青年路２１２號","OBJECTID":534387},"geometry":{"x":169102.66000000108,"y":2543559.9500000011}},{"attributes":{"ID":534415,"DIS_CODE":0,"TOWNNAME":"中西區","LI":"萬昌里","LIN":"19鄰","STREET":"青年路","SECT":" ","MAREA":" ","LANE":" ","ALLEY":" ","HOUSE_NO":"２１４號","E_COORD97":169110.82999999999,"N_COORD97":2543558.8100000001,"ADDRESS":"青年路２１４號","OBJECTID":534388},"geometry":{"x":169110.83000000007,"y":2543558.8100000024}},{"attributes":{"ID":534416,"DIS_CODE":0,"TOWNNAME":"中西區","LI":"萬昌里","LIN":"19鄰","STREET":"青年路","SECT":" ","MAREA":" ","LANE":" ","ALLEY":" ","HOUSE_NO":"２２０號","E_COORD97":169120.95000000001,"N_COORD97":2543558.6499999999,"ADDRESS":"青年路２２０號","OBJECTID":534389},"geometry":{"x":169120.95000000112,"y":2543558.6500000004}},{"attributes":{"ID":534417,"DIS_CODE":0,"TOWNNAME":"中西區","LI":"萬昌里","LIN":"19鄰","STREET":"青年路","SECT":" ","MAREA":" ","LANE":" ","ALLEY":" ","HOUSE_NO":"２２２號","E_COORD97":169126.67000000001,"N_COORD97":2543558.6499999999,"ADDRESS":"青年路２２２號","OBJECTID":534390},"geometry":{"x":169126.66999999993,"y":2543558.6500000004}},{"attributes":{"ID":534418,"DIS_CODE":0,"TOWNNAME":"中西區","LI":"萬昌里","LIN":"19鄰","STREET":"青年路","SECT":" ","MAREA":" ","LANE":" ","ALLEY":" ","HOUSE_NO":"２２４號","E_COORD97":169130.42999999999,"N_COORD97":2543557.1800000002,"ADDRESS":"青年路２２４號","OBJECTID":534391},"geometry":{"x":169130.42999999877,"y":2543557.1799999997}},{"attributes":{"ID":534419,"DIS_CODE":0,"TOWNNAME":"永康區","LI":"烏竹里","LIN":"19鄰","STREET":"自強路","SECT":" ","MAREA":" ","LANE":" ","ALLEY":" ","HOUSE_NO":"７２３號","E_COORD97":174389.82000000001,"N_COORD97":2548500.3100000001,"ADDRESS":"自強路７２３號","OBJECTID":534392},"geometry":{"x":174389.8200000003,"y":2548500.3100000005}},{"attributes":{"ID":534420,"DIS_CODE":0,"TOWNNAME":"安南區","LI":"溪心里","LIN":"19鄰","STREET":"安中路","SECT":"三段","MAREA":" ","LANE":" ","ALLEY":" ","HOUSE_NO":"１８８號","E_COORD97":165953.63,"N_COORD97":2549853.8300000001,"ADDRESS":"安中路三段１８８號","OBJECTID":534393},"geometry":{"x":165953.62999999989,"y":2549853.8300000019}},{"attributes":{"ID":534421,"DIS_CODE":0,"TOWNNAME":"安南區","LI":"溪心里","LIN":"19鄰","STREET":"安中路","SECT":"三段","MAREA":" ","LANE":" ","ALLEY":" ","HOUSE_NO":"２１２號","E_COORD97":165934.89000000001,"N_COORD97":2549857.2200000002,"ADDRESS":"安中路三段２１２號","OBJECTID":534394},"geometry":{"x":165934.88999999966,"y":2549857.2200000007}},{"attributes":{"ID":534422,"DIS_CODE":0,"TOWNNAME":"安南區","LI":"溪心里","LIN":"19鄰","STREET":"安中路","SECT":"三段","MAREA":" ","LANE":" ","ALLEY":" ","HOUSE_NO":"２１６號","E_COORD97":165926.60999999999,"N_COORD97":2549859.7200000002,"ADDRESS":"安中路三段２１６號","OBJECTID":534395},"geometry":{"x":165926.61000000127,"y":2549859.7200000025}},{"attributes":{"ID":534423,"DIS_CODE":0,"TOWNNAME":"安南區","LI":"溪心里","LIN":"19鄰","STREET":"安中路","SECT":"三段","MAREA":" ","LANE":" ","ALLEY":" ","HOUSE_NO":"２１８號","E_COORD97":165921.32999999999,"N_COORD97":2549860.3500000001,"ADDRESS":"安中路三段２１８號","OBJECTID":534396},"geometry":{"x":165921.33000000101,"y":2549860.3500000015}},{"attributes":{"ID":534424,"DIS_CODE":0,"TOWNNAME":"安南區","LI":"溪心里","LIN":"19鄰","STREET":"安中路","SECT":"三段","MAREA":" ","LANE":" ","ALLEY":" ","HOUSE_NO":"２２０號","E_COORD97":165917.19,"N_COORD97":2549861.98,"ADDRESS":"安中路三段２２０號","OBJECTID":534397},"geometry":{"x":165917.19000000227,"y":2549861.9800000004}},{"attributes":{"ID":534425,"DIS_CODE":0,"TOWNNAME":"安南區","LI":"溪頂里","LIN":"19鄰","STREET":"賢安街","SECT":" ","MAREA":" ","LANE":" ","ALLEY":" ","HOUSE_NO":"１０號","E_COORD97":168700.76999999999,"N_COORD97":2547441.98,"ADDRESS":"賢安街１０號","OBJECTID":534398},"geometry":{"x":168700.76999999955,"y":2547441.9800000004}},{"attributes":{"ID":534426,"DIS_CODE":0,"TOWNNAME":"安南區","LI":"溪頂里","LIN":"19鄰","STREET":"賢安街","SECT":" ","MAREA":" ","LANE":" ","ALLEY":" ","HOUSE_NO":"１６號","E_COORD97":168687.64000000001,"N_COORD97":2547441.1499999999,"ADDRESS":"賢安街１６號","OBJECTID":534399},"geometry":{"x":168687.63999999966,"y":2547441.1500000041}},{"attributes":{"ID":534427,"DIS_CODE":0,"TOWNNAME":"安南區","LI":"溪頂里","LIN":"19鄰","STREET":"賢安街","SECT":" ","MAREA":" ","LANE":" ","ALLEY":" ","HOUSE_NO":"１８號","E_COORD97":168678.23000000001,"N_COORD97":2547438.6699999999,"ADDRESS":"賢安街１８號","OBJECTID":534400},"geometry":{"x":168678.23000000045,"y":2547438.6700000018}}]}