{"displayFieldName":"TOWNNAME","fieldAliases":{"ID":"ID","DIS_CODE":"DIS_CODE","TOWNNAME":"TOWNNAME","LI":"LI","LIN":"LIN","STREET":"STREET","SECT":"SECT","MAREA":"MAREA","LANE":"LANE","ALLEY":"ALLEY","HOUSE_NO":"HOUSE_NO","E_COORD97":"E_COORD97","N_COORD97":"N_COORD97","ADDRESS":"ADDRESS","OBJECTID":"OBJECTID"},"geometryType":"esriGeometryPoint","spatialReference":{"wkid":102443,"latestWkid":3826},"fields":[{"name":"ID","type":"esriFieldTypeDouble","alias":"ID"},{"name":"DIS_CODE","type":"esriFieldTypeInteger","alias":"DIS_CODE"},{"name":"TOWNNAME","type":"esriFieldTypeString","alias":"TOWNNAME","length":8},{"name":"LI","type":"esriFieldTypeString","alias":"LI","length":8},{"name":"LIN","type":"esriFieldTypeString","alias":"LIN","length":12},{"name":"STREET","type":"esriFieldTypeString","alias":"STREET","length":20},{"name":"SECT","type":"esriFieldTypeString","alias":"SECT","length":8},{"name":"MAREA","type":"esriFieldTypeString","alias":"MAREA","length":12},{"name":"LANE","type":"esriFieldTypeString","alias":"LANE","length":10},{"name":"ALLEY","type":"esriFieldTypeString","alias":"ALLEY","length":10},{"name":"HOUSE_NO","type":"esriFieldTypeString","alias":"HOUSE_NO","length":20},{"name":"E_COORD97","type":"esriFieldTypeDouble","alias":"E_COORD97"},{"name":"N_COORD97","type":"esriFieldTypeDouble","alias":"N_COORD97"},{"name":"ADDRESS","type":"esriFieldTypeString","alias":"ADDRESS","length":50},{"name":"OBJECTID","type":"esriFieldTypeOID","alias":"OBJECTID"}],"features":[{"attributes":{"ID":638628,"DIS_CODE":0,"TOWNNAME":"永康區","LI":"龍潭里","LIN":"13鄰","STREET":"龍橋街","SECT":" ","MAREA":" ","LANE":" ","ALLEY":" ","HOUSE_NO":"８３號","E_COORD97":174737.92999999999,"N_COORD97":2548437.8100000001,"ADDRESS":"龍橋街８３號","OBJECTID":638601},"geometry":{"x":174737.9299999997,"y":2548437.8100000024}},{"attributes":{"ID":638629,"DIS_CODE":0,"TOWNNAME":"永康區","LI":"龍潭里","LIN":"18鄰","STREET":"龍橋街","SECT":" ","MAREA":" ","LANE":" ","ALLEY":" ","HOUSE_NO":"６０號","E_COORD97":174790.82999999999,"N_COORD97":2548422.0600000001,"ADDRESS":"龍橋街６０號","OBJECTID":638602},"geometry":{"x":174790.83000000101,"y":2548422.0600000024}},{"attributes":{"ID":638630,"DIS_CODE":0,"TOWNNAME":"永康區","LI":"大灣里","LIN":" ","STREET":"大灣路","SECT":" ","MAREA":" ","LANE":" ","ALLEY":" ","HOUSE_NO":"２３４之８號","E_COORD97":173390.25,"N_COORD97":2545206.7999999998,"ADDRESS":"大灣路２３４之８號","OBJECTID":638603},"geometry":{"x":173390.25,"y":2545206.8000000026}},{"attributes":{"ID":638631,"DIS_CODE":0,"TOWNNAME":"東區","LI":"崇學里","LIN":"7鄰","STREET":"崇德四街","SECT":" ","MAREA":" ","LANE":" ","ALLEY":" ","HOUSE_NO":"２５號","E_COORD97":170584.03,"N_COORD97":2542034.3399999999,"ADDRESS":"崇德四街２５號","OBJECTID":638604},"geometry":{"x":170584.03000000119,"y":2542034.3399999999}},{"attributes":{"ID":638632,"DIS_CODE":0,"TOWNNAME":"東區","LI":"崇學里","LIN":"7鄰","STREET":"崇德四街","SECT":" ","MAREA":" ","LANE":" ","ALLEY":" ","HOUSE_NO":"２７號","E_COORD97":170588.54999999999,"N_COORD97":2542039.5,"ADDRESS":"崇德四街２７號","OBJECTID":638605},"geometry":{"x":170588.55000000075,"y":2542039.5}},{"attributes":{"ID":638633,"DIS_CODE":0,"TOWNNAME":"東區","LI":"崇學里","LIN":"7鄰","STREET":"崇德四街","SECT":" ","MAREA":" ","LANE":" ","ALLEY":" ","HOUSE_NO":"２９號","E_COORD97":170591.95999999999,"N_COORD97":2542045.2599999998,"ADDRESS":"崇德四街２９號","OBJECTID":638606},"geometry":{"x":170591.96000000183,"y":2542045.2599999998}},{"attributes":{"ID":638634,"DIS_CODE":0,"TOWNNAME":"東區","LI":"崇學里","LIN":"7鄰","STREET":"崇德四街","SECT":" ","MAREA":" ","LANE":" ","ALLEY":" ","HOUSE_NO":"３１號","E_COORD97":170594.73999999999,"N_COORD97":2542048.2000000002,"ADDRESS":"崇德四街３１號","OBJECTID":638607},"geometry":{"x":170594.74000000022,"y":2542048.1999999993}},{"attributes":{"ID":638635,"DIS_CODE":0,"TOWNNAME":"東區","LI":"崇學里","LIN":"7鄰","STREET":"崇德四街","SECT":" ","MAREA":" ","LANE":" ","ALLEY":" ","HOUSE_NO":"３３號","E_COORD97":170598.31,"N_COORD97":2542051.4500000002,"ADDRESS":"崇德四街３３號","OBJECTID":638608},"geometry":{"x":170598.31000000052,"y":2542051.4500000011}},{"attributes":{"ID":638636,"DIS_CODE":0,"TOWNNAME":"東區","LI":"崇學里","LIN":"7鄰","STREET":"崇德四街","SECT":" ","MAREA":" ","LANE":" ","ALLEY":" ","HOUSE_NO":"３５號","E_COORD97":170600.54000000001,"N_COORD97":2542054.8599999999,"ADDRESS":"崇德四街３５號","OBJECTID":638609},"geometry":{"x":170600.54000000097,"y":2542054.8600000031}},{"attributes":{"ID":638637,"DIS_CODE":0,"TOWNNAME":"東區","LI":"崇學里","LIN":"7鄰","STREET":"崇德四街","SECT":" ","MAREA":" ","LANE":" ","ALLEY":" ","HOUSE_NO":"３７號","E_COORD97":170625.17000000001,"N_COORD97":2542075.0499999998,"ADDRESS":"崇德四街３７號","OBJECTID":638610},"geometry":{"x":170625.17000000086,"y":2542075.0499999989}},{"attributes":{"ID":638638,"DIS_CODE":0,"TOWNNAME":"東區","LI":"崇學里","LIN":"7鄰","STREET":"崇善路","SECT":" ","MAREA":" ","LANE":" ","ALLEY":" ","HOUSE_NO":"２０２號","E_COORD97":170607.98999999999,"N_COORD97":2542122.8399999999,"ADDRESS":"崇善路２０２號","OBJECTID":638611},"geometry":{"x":170607.99000000115,"y":2542122.8399999999}},{"attributes":{"ID":638639,"DIS_CODE":0,"TOWNNAME":"東區","LI":"崇學里","LIN":"16鄰","STREET":"崇學路","SECT":" ","MAREA":" ","LANE":" ","ALLEY":" ","HOUSE_NO":"１０號","E_COORD97":170092,"N_COORD97":2542020.2999999998,"ADDRESS":"崇學路１０號","OBJECTID":638612},"geometry":{"x":170092.00000000093,"y":2542020.3000000026}},{"attributes":{"ID":638640,"DIS_CODE":0,"TOWNNAME":"東區","LI":"崇信里","LIN":"14鄰","STREET":"崇學路","SECT":" ","MAREA":" ","LANE":" ","ALLEY":" ","HOUSE_NO":"１７４號之１","E_COORD97":170550.79999999999,"N_COORD97":2542451.3100000001,"ADDRESS":"崇學路１７４號之１","OBJECTID":638613},"geometry":{"x":170550.80000000075,"y":2542451.3100000005}},{"attributes":{"ID":638641,"DIS_CODE":0,"TOWNNAME":"東區","LI":"崇信里","LIN":"14鄰","STREET":"崇學路","SECT":" ","MAREA":" ","LANE":" ","ALLEY":" ","HOUSE_NO":"１７６號","E_COORD97":170557.94,"N_COORD97":2542459.3599999999,"ADDRESS":"崇學路１７６號","OBJECTID":638614},"geometry":{"x":170557.94000000041,"y":2542459.3600000013}},{"attributes":{"ID":638642,"DIS_CODE":0,"TOWNNAME":"東區","LI":"崇信里","LIN":"14鄰","STREET":"崇學路","SECT":" ","MAREA":" ","LANE":" ","ALLEY":" ","HOUSE_NO":"１７８號","E_COORD97":170562.07999999999,"N_COORD97":2542462.1200000001,"ADDRESS":"崇學路１７８號","OBJECTID":638615},"geometry":{"x":170562.08000000007,"y":2542462.1200000029}},{"attributes":{"ID":638643,"DIS_CODE":0,"TOWNNAME":"東區","LI":"成大里","LIN":"1鄰","STREET":"東寧路","SECT":"西段","MAREA":" ","LANE":" ","ALLEY":" ","HOUSE_NO":"４號","E_COORD97":169703.09,"N_COORD97":2543677.8399999999,"ADDRESS":"東寧路西段４號","OBJECTID":638616},"geometry":{"x":169703.09000000078,"y":2543677.8399999999}},{"attributes":{"ID":638644,"DIS_CODE":0,"TOWNNAME":"東區","LI":"成大里","LIN":"4鄰","STREET":"民族一街","SECT":" ","MAREA":" ","LANE":" ","ALLEY":" ","HOUSE_NO":"２７號","E_COORD97":169578.47,"N_COORD97":2543780.9100000001,"ADDRESS":"民族一街２７號","OBJECTID":638617},"geometry":{"x":169578.47000000067,"y":2543780.9100000039}},{"attributes":{"ID":638645,"DIS_CODE":0,"TOWNNAME":"東區","LI":"成大里","LIN":"4鄰","STREET":"民族一街","SECT":" ","MAREA":" ","LANE":" ","ALLEY":" ","HOUSE_NO":"３１號","E_COORD97":169577.07000000001,"N_COORD97":2543756.2000000002,"ADDRESS":"民族一街３１號","OBJECTID":638618},"geometry":{"x":169577.0700000003,"y":2543756.1999999993}},{"attributes":{"ID":638646,"DIS_CODE":0,"TOWNNAME":"東區","LI":"成大里","LIN":"4鄰","STREET":"民族一街","SECT":" ","MAREA":" ","LANE":" ","ALLEY":" ","HOUSE_NO":"３５號","E_COORD97":169576.07000000001,"N_COORD97":2543746.96,"ADDRESS":"民族一街３５號","OBJECTID":638619},"geometry":{"x":169576.07000000216,"y":2543746.9600000009}},{"attributes":{"ID":638647,"DIS_CODE":0,"TOWNNAME":"東區","LI":"成大里","LIN":"7鄰","STREET":"民族路","SECT":"一段","MAREA":" ","LANE":" ","ALLEY":" ","HOUSE_NO":"７１號","E_COORD97":169368.64000000001,"N_COORD97":2543874.0299999998,"ADDRESS":"民族路一段７１號","OBJECTID":638620},"geometry":{"x":169368.6400000006,"y":2543874.0300000031}},{"attributes":{"ID":638648,"DIS_CODE":0,"TOWNNAME":"東區","LI":"成大里","LIN":"7鄰","STREET":"民族路","SECT":"一段","MAREA":" ","LANE":" ","ALLEY":" ","HOUSE_NO":"７３號","E_COORD97":169363,"N_COORD97":2543873.8999999999,"ADDRESS":"民族路一段７３號","OBJECTID":638621},"geometry":{"x":169363.00000000093,"y":2543873.9000000022}},{"attributes":{"ID":638649,"DIS_CODE":0,"TOWNNAME":"東區","LI":"成大里","LIN":"7鄰","STREET":"民族路","SECT":"一段","MAREA":" ","LANE":" ","ALLEY":" ","HOUSE_NO":"７５號","E_COORD97":169357.10000000001,"N_COORD97":2543873.2599999998,"ADDRESS":"民族路一段７５號","OBJECTID":638622},"geometry":{"x":169357.10000000056,"y":2543873.2600000035}},{"attributes":{"ID":638650,"DIS_CODE":0,"TOWNNAME":"東區","LI":"成大里","LIN":"7鄰","STREET":"民族路","SECT":"一段","MAREA":" ","LANE":" ","ALLEY":" ","HOUSE_NO":"７７號","E_COORD97":169349.41,"N_COORD97":2543873.7799999998,"ADDRESS":"民族路一段７７號","OBJECTID":638623},"geometry":{"x":169349.41000000015,"y":2543873.7800000012}},{"attributes":{"ID":638651,"DIS_CODE":0,"TOWNNAME":"東區","LI":"成大里","LIN":"6鄰","STREET":"民族路","SECT":"一段","MAREA":" ","LANE":" ","ALLEY":" ","HOUSE_NO":"１１號","E_COORD97":169564.01000000001,"N_COORD97":2543854.1000000001,"ADDRESS":"民族路一段１１號","OBJECTID":638624},"geometry":{"x":169564.01000000164,"y":2543854.1000000015}},{"attributes":{"ID":638652,"DIS_CODE":0,"TOWNNAME":"東區","LI":"成大里","LIN":"4鄰","STREET":"民族一街","SECT":" ","MAREA":" ","LANE":" ","ALLEY":" ","HOUSE_NO":"３７號","E_COORD97":169575.87,"N_COORD97":2543738.7200000002,"ADDRESS":"民族一街３７號","OBJECTID":638625},"geometry":{"x":169575.87000000104,"y":2543738.7200000044}},{"attributes":{"ID":638653,"DIS_CODE":0,"TOWNNAME":"東區","LI":"成大里","LIN":"4鄰","STREET":"民族一街","SECT":" ","MAREA":" ","LANE":" ","ALLEY":" ","HOUSE_NO":"３９號","E_COORD97":169574.66,"N_COORD97":2543730.6899999999,"ADDRESS":"民族一街３９號","OBJECTID":638626},"geometry":{"x":169574.66000000015,"y":2543730.6899999976}},{"attributes":{"ID":638654,"DIS_CODE":0,"TOWNNAME":"東區","LI":"富裕里","LIN":"4鄰","STREET":"裕農路","SECT":" ","MAREA":" ","LANE":" ","ALLEY":" ","HOUSE_NO":"４８號","E_COORD97":170595.35999999999,"N_COORD97":2542857.3599999999,"ADDRESS":"裕農路４８號","OBJECTID":638627},"geometry":{"x":170595.36000000127,"y":2542857.3599999994}},{"attributes":{"ID":638655,"DIS_CODE":0,"TOWNNAME":"東區","LI":"富裕里","LIN":"4鄰","STREET":"裕農路","SECT":" ","MAREA":" ","LANE":" ","ALLEY":" ","HOUSE_NO":"５０號","E_COORD97":170601.64000000001,"N_COORD97":2542860.73,"ADDRESS":"裕農路５０號","OBJECTID":638628},"geometry":{"x":170601.63999999966,"y":2542860.7300000023}},{"attributes":{"ID":638656,"DIS_CODE":0,"TOWNNAME":"東區","LI":"富裕里","LIN":"4鄰","STREET":"裕農路","SECT":" ","MAREA":" ","LANE":" ","ALLEY":" ","HOUSE_NO":"５２號","E_COORD97":170605.20000000001,"N_COORD97":2542862.2400000002,"ADDRESS":"裕農路５２號","OBJECTID":638629},"geometry":{"x":170605.20000000019,"y":2542862.2400000002}},{"attributes":{"ID":638657,"DIS_CODE":0,"TOWNNAME":"東區","LI":"富裕里","LIN":"4鄰","STREET":"裕農路","SECT":" ","MAREA":" ","LANE":" ","ALLEY":" ","HOUSE_NO":"５４號","E_COORD97":170609.78,"N_COORD97":2542864.46,"ADDRESS":"裕農路５４號","OBJECTID":638630},"geometry":{"x":170609.78000000026,"y":2542864.4600000009}},{"attributes":{"ID":638658,"DIS_CODE":0,"TOWNNAME":"東區","LI":"新東里","LIN":"4鄰","STREET":"林森路","SECT":"二段","MAREA":" ","LANE":" ","ALLEY":" ","HOUSE_NO":"１４號","E_COORD97":170315.66,"N_COORD97":2542925.8500000001,"ADDRESS":"林森路二段１４號","OBJECTID":638631},"geometry":{"x":170315.66000000015,"y":2542925.8499999996}},{"attributes":{"ID":638659,"DIS_CODE":0,"TOWNNAME":"東區","LI":"新東里","LIN":"4鄰","STREET":"林森路","SECT":"二段","MAREA":" ","LANE":" ","ALLEY":" ","HOUSE_NO":"１６號","E_COORD97":170320.16,"N_COORD97":2542933.5,"ADDRESS":"林森路二段１６號","OBJECTID":638632},"geometry":{"x":170320.16000000108,"y":2542933.5000000019}},{"attributes":{"ID":638660,"DIS_CODE":0,"TOWNNAME":"東區","LI":"新東里","LIN":"4鄰","STREET":"林森路","SECT":"二段","MAREA":" ","LANE":" ","ALLEY":" ","HOUSE_NO":"１８號","E_COORD97":170324.35000000001,"N_COORD97":2542940.6400000001,"ADDRESS":"林森路二段１８號","OBJECTID":638633},"geometry":{"x":170324.3499999987,"y":2542940.6400000025}},{"attributes":{"ID":638661,"DIS_CODE":0,"TOWNNAME":"東區","LI":"新東里","LIN":"4鄰","STREET":"林森路","SECT":"二段","MAREA":" ","LANE":" ","ALLEY":" ","HOUSE_NO":"２４號","E_COORD97":170326.54000000001,"N_COORD97":2542948.29,"ADDRESS":"林森路二段２４號","OBJECTID":638634},"geometry":{"x":170326.54000000004,"y":2542948.2899999991}},{"attributes":{"ID":638662,"DIS_CODE":0,"TOWNNAME":"東區","LI":"新東里","LIN":"4鄰","STREET":"林森路","SECT":"二段","MAREA":" ","LANE":" ","ALLEY":" ","HOUSE_NO":"２６號","E_COORD97":170327.63,"N_COORD97":2542953.02,"ADDRESS":"林森路二段２６號","OBJECTID":638635},"geometry":{"x":170327.62999999989,"y":2542953.0200000014}},{"attributes":{"ID":638663,"DIS_CODE":0,"TOWNNAME":"東區","LI":"新東里","LIN":"4鄰","STREET":"林森路","SECT":"二段","MAREA":" ","LANE":" ","ALLEY":" ","HOUSE_NO":"３０號","E_COORD97":170331.03,"N_COORD97":2542965.2799999998,"ADDRESS":"林森路二段３０號","OBJECTID":638636},"geometry":{"x":170331.03000000119,"y":2542965.2800000012}},{"attributes":{"ID":638664,"DIS_CODE":0,"TOWNNAME":"東區","LI":"新東里","LIN":"4鄰","STREET":"林森路","SECT":"二段","MAREA":" ","LANE":" ","ALLEY":" ","HOUSE_NO":"３２號","E_COORD97":170332.85000000001,"N_COORD97":2542970.75,"ADDRESS":"林森路二段３２號","OBJECTID":638637},"geometry":{"x":170332.85000000149,"y":2542970.75}},{"attributes":{"ID":638665,"DIS_CODE":0,"TOWNNAME":"東區","LI":"新東里","LIN":"4鄰","STREET":"林森路","SECT":"二段","MAREA":" ","LANE":" ","ALLEY":" ","HOUSE_NO":"３４號","E_COORD97":170336.01000000001,"N_COORD97":2542982.3399999999,"ADDRESS":"林森路二段３４號","OBJECTID":638638},"geometry":{"x":170336.01000000071,"y":2542982.3400000017}},{"attributes":{"ID":638666,"DIS_CODE":0,"TOWNNAME":"東區","LI":"新東里","LIN":"4鄰","STREET":"林森路","SECT":"二段","MAREA":" ","LANE":" ","ALLEY":" ","HOUSE_NO":"４６號","E_COORD97":170351.17000000001,"N_COORD97":2543009.2200000002,"ADDRESS":"林森路二段４６號","OBJECTID":638639},"geometry":{"x":170351.16999999993,"y":2543009.2200000007}},{"attributes":{"ID":638667,"DIS_CODE":0,"TOWNNAME":"東區","LI":"新東里","LIN":"4鄰","STREET":"林森路","SECT":"二段","MAREA":" ","LANE":" ","ALLEY":" ","HOUSE_NO":"４８號","E_COORD97":170354.31,"N_COORD97":2543018.4100000001,"ADDRESS":"林森路二段４８號","OBJECTID":638640},"geometry":{"x":170354.31000000052,"y":2543018.410000002}},{"attributes":{"ID":638668,"DIS_CODE":0,"TOWNNAME":"東區","LI":"新東里","LIN":"4鄰","STREET":"林森路","SECT":"二段","MAREA":" ","LANE":" ","ALLEY":" ","HOUSE_NO":"５０號","E_COORD97":170357.03,"N_COORD97":2543026.1400000001,"ADDRESS":"林森路二段５０號","OBJECTID":638641},"geometry":{"x":170357.03000000026,"y":2543026.1400000006}},{"attributes":{"ID":638669,"DIS_CODE":0,"TOWNNAME":"東區","LI":"新東里","LIN":"4鄰","STREET":"林森路","SECT":"二段","MAREA":" ","LANE":" ","ALLEY":" ","HOUSE_NO":"７８號","E_COORD97":170359.95999999999,"N_COORD97":2543036.7999999998,"ADDRESS":"林森路二段７８號","OBJECTID":638642},"geometry":{"x":170359.96000000089,"y":2543036.8000000026}},{"attributes":{"ID":638670,"DIS_CODE":0,"TOWNNAME":"東區","LI":"新東里","LIN":"4鄰","STREET":"林森路","SECT":"二段","MAREA":" ","LANE":" ","ALLEY":" ","HOUSE_NO":"８０號","E_COORD97":170357.35999999999,"N_COORD97":2543041.8199999998,"ADDRESS":"林森路二段８０號","OBJECTID":638643},"geometry":{"x":170357.3600000022,"y":2543041.8200000003}},{"attributes":{"ID":638671,"DIS_CODE":0,"TOWNNAME":"東區","LI":"新東里","LIN":"4鄰","STREET":"林森路","SECT":"二段","MAREA":" ","LANE":" ","ALLEY":" ","HOUSE_NO":"８２號","E_COORD97":170358.45000000001,"N_COORD97":2543046.9199999999,"ADDRESS":"林森路二段８２號","OBJECTID":638644},"geometry":{"x":170358.45000000112,"y":2543046.9199999999}},{"attributes":{"ID":638672,"DIS_CODE":0,"TOWNNAME":"東區","LI":"新東里","LIN":"4鄰","STREET":"林森路","SECT":"二段","MAREA":" ","LANE":" ","ALLEY":" ","HOUSE_NO":"８４號","E_COORD97":170360.82000000001,"N_COORD97":2543057.52,"ADDRESS":"林森路二段８４號","OBJECTID":638645},"geometry":{"x":170360.81999999937,"y":2543057.5200000033}},{"attributes":{"ID":638673,"DIS_CODE":0,"TOWNNAME":"東區","LI":"新東里","LIN":"4鄰","STREET":"林森路","SECT":"二段","MAREA":" ","LANE":" ","ALLEY":" ","HOUSE_NO":"８６號","E_COORD97":170368.88,"N_COORD97":2543060.77,"ADDRESS":"林森路二段８６號","OBJECTID":638646},"geometry":{"x":170368.88000000082,"y":2543060.7700000014}},{"attributes":{"ID":638674,"DIS_CODE":0,"TOWNNAME":"東區","LI":"新東里","LIN":"4鄰","STREET":"林森路","SECT":"二段","MAREA":" ","LANE":" ","ALLEY":" ","HOUSE_NO":"８號","E_COORD97":170309.14000000001,"N_COORD97":2542911.1800000002,"ADDRESS":"林森路二段８號","OBJECTID":638647},"geometry":{"x":170309.1400000006,"y":2542911.1800000016}},{"attributes":{"ID":638675,"DIS_CODE":0,"TOWNNAME":"永康區","LI":"永康里","LIN":"32鄰","STREET":"永大路","SECT":"二段","MAREA":" ","LANE":" ","ALLEY":" ","HOUSE_NO":"１４５６號","E_COORD97":174275.75,"N_COORD97":2547125.6499999999,"ADDRESS":"永大路二段１４５６號","OBJECTID":638648},"geometry":{"x":174275.75000000093,"y":2547125.6499999985}},{"attributes":{"ID":638676,"DIS_CODE":0,"TOWNNAME":"永康區","LI":"永康里","LIN":"5鄰","STREET":"永中街","SECT":" ","MAREA":" ","LANE":" ","ALLEY":" ","HOUSE_NO":"９７號","E_COORD97":173955.69,"N_COORD97":2547291.4900000002,"ADDRESS":"永中街９７號","OBJECTID":638649},"geometry":{"x":173955.69000000227,"y":2547291.4900000002}},{"attributes":{"ID":638677,"DIS_CODE":0,"TOWNNAME":"永康區","LI":"永康里","LIN":"39鄰","STREET":"永大一路","SECT":" ","MAREA":" ","LANE":" ","ALLEY":" ","HOUSE_NO":"４１號","E_COORD97":174248.69,"N_COORD97":2546448.46,"ADDRESS":"永大一路４１號","OBJECTID":638650},"geometry":{"x":174248.69000000041,"y":2546448.4600000009}},{"attributes":{"ID":638678,"DIS_CODE":0,"TOWNNAME":"永康區","LI":"永康里","LIN":"42鄰","STREET":"永福街","SECT":" ","MAREA":" ","LANE":" ","ALLEY":" ","HOUSE_NO":"１２３號","E_COORD97":174247.87,"N_COORD97":2546713.7400000002,"ADDRESS":"永福街１２３號","OBJECTID":638651},"geometry":{"x":174247.87000000104,"y":2546713.7400000002}},{"attributes":{"ID":638679,"DIS_CODE":0,"TOWNNAME":"永康區","LI":"西灣里","LIN":"25鄰","STREET":"大勇路","SECT":" ","MAREA":" ","LANE":" ","ALLEY":" ","HOUSE_NO":"１１４號","E_COORD97":174277.47,"N_COORD97":2545612.6699999999,"ADDRESS":"大勇路１１４號","OBJECTID":638652},"geometry":{"x":174277.47000000067,"y":2545612.6699999999}},{"attributes":{"ID":638680,"DIS_CODE":0,"TOWNNAME":"永康區","LI":"永康里","LIN":"39鄰","STREET":"永大一路","SECT":" ","MAREA":" ","LANE":" ","ALLEY":" ","HOUSE_NO":"６２號之５","E_COORD97":174157.48999999999,"N_COORD97":2546450.4700000002,"ADDRESS":"永大一路６２號之５","OBJECTID":638653},"geometry":{"x":174157.49000000115,"y":2546450.4700000025}},{"attributes":{"ID":638681,"DIS_CODE":0,"TOWNNAME":"永康區","LI":"西灣里","LIN":"25鄰","STREET":"大勇路","SECT":" ","MAREA":" ","LANE":" ","ALLEY":" ","HOUSE_NO":"１０８號","E_COORD97":174273.17000000001,"N_COORD97":2545598.6400000001,"ADDRESS":"大勇路１０８號","OBJECTID":638654},"geometry":{"x":174273.17000000086,"y":2545598.6400000025}},{"attributes":{"ID":638682,"DIS_CODE":0,"TOWNNAME":"永康區","LI":"永康里","LIN":"42鄰","STREET":"永大一路","SECT":" ","MAREA":" ","LANE":" ","ALLEY":" ","HOUSE_NO":"７７號","E_COORD97":174178.51000000001,"N_COORD97":2546429.25,"ADDRESS":"永大一路７７號","OBJECTID":638655},"geometry":{"x":174178.51000000071,"y":2546429.25}},{"attributes":{"ID":638683,"DIS_CODE":0,"TOWNNAME":"永康區","LI":"永康里","LIN":"42鄰","STREET":"文化路","SECT":" ","MAREA":" ","LANE":" ","ALLEY":" ","HOUSE_NO":"８２號","E_COORD97":174181.17999999999,"N_COORD97":2546345.6600000001,"ADDRESS":"文化路８２號","OBJECTID":638656},"geometry":{"x":174181.18000000063,"y":2546345.6600000039}},{"attributes":{"ID":638684,"DIS_CODE":0,"TOWNNAME":"安南區","LI":"州南里","LIN":"13鄰","STREET":"安和路","SECT":"五段","MAREA":" ","LANE":" ","ALLEY":" ","HOUSE_NO":"２１號","E_COORD97":169923.63,"N_COORD97":2551557.0099999998,"ADDRESS":"安和路五段２１號","OBJECTID":638657},"geometry":{"x":169923.62999999989,"y":2551557.0099999998}},{"attributes":{"ID":638685,"DIS_CODE":0,"TOWNNAME":"安南區","LI":"州南里","LIN":"13鄰","STREET":"安和路","SECT":"五段","MAREA":" ","LANE":" ","ALLEY":" ","HOUSE_NO":"２２號","E_COORD97":169962.75,"N_COORD97":2551556.0800000001,"ADDRESS":"安和路五段２２號","OBJECTID":638658},"geometry":{"x":169962.75000000186,"y":2551556.0800000001}},{"attributes":{"ID":638686,"DIS_CODE":0,"TOWNNAME":"安南區","LI":"州南里","LIN":"13鄰","STREET":"安和路","SECT":"五段","MAREA":" ","LANE":" ","ALLEY":" ","HOUSE_NO":"２３號","E_COORD97":169923.92000000001,"N_COORD97":2551561.1899999999,"ADDRESS":"安和路五段２３號","OBJECTID":638659},"geometry":{"x":169923.91999999993,"y":2551561.1899999995}},{"attributes":{"ID":638687,"DIS_CODE":0,"TOWNNAME":"安南區","LI":"州南里","LIN":"13鄰","STREET":"安和路","SECT":"五段","MAREA":" ","LANE":" ","ALLEY":" ","HOUSE_NO":"２５號","E_COORD97":169922.32999999999,"N_COORD97":2551565.0800000001,"ADDRESS":"安和路五段２５號","OBJECTID":638660},"geometry":{"x":169922.33000000101,"y":2551565.0800000019}},{"attributes":{"ID":638688,"DIS_CODE":0,"TOWNNAME":"安南區","LI":"州北里","LIN":"8鄰","STREET":"長和街","SECT":"三段","MAREA":" ","LANE":" ","ALLEY":" ","HOUSE_NO":"１４４號","E_COORD97":169544.54000000001,"N_COORD97":2551520.0699999998,"ADDRESS":"長和街三段１４４號","OBJECTID":638661},"geometry":{"x":169544.54000000097,"y":2551520.0699999984}},{"attributes":{"ID":638689,"DIS_CODE":0,"TOWNNAME":"安南區","LI":"州北里","LIN":"13鄰","STREET":"安和路","SECT":"五段","MAREA":" ","LANE":" ","ALLEY":" ","HOUSE_NO":"１０２號","E_COORD97":169931.95999999999,"N_COORD97":2551712.1299999999,"ADDRESS":"安和路五段１０２號","OBJECTID":638662},"geometry":{"x":169931.95999999996,"y":2551712.1300000008}},{"attributes":{"ID":638690,"DIS_CODE":0,"TOWNNAME":"安南區","LI":"州北里","LIN":"13鄰","STREET":"安和路","SECT":"五段","MAREA":" ","LANE":" ","ALLEY":" ","HOUSE_NO":"１０４號","E_COORD97":169931.14000000001,"N_COORD97":2551715.4500000002,"ADDRESS":"安和路五段１０４號","OBJECTID":638663},"geometry":{"x":169931.1400000006,"y":2551715.4499999993}},{"attributes":{"ID":638691,"DIS_CODE":0,"TOWNNAME":"安南區","LI":"安西里","LIN":"4鄰","STREET":"安和路","SECT":"一段","MAREA":" ","LANE":" ","ALLEY":" ","HOUSE_NO":"２４９號","E_COORD97":169291.81185999999,"N_COORD97":2548007.62011,"ADDRESS":"安和路一段２４９號","OBJECTID":638664},"geometry":{"x":169291.81186000071,"y":2548007.6201080009}},{"attributes":{"ID":638692,"DIS_CODE":0,"TOWNNAME":"安南區","LI":"安西里","LIN":"4鄰","STREET":"安和路","SECT":"一段","MAREA":" ","LANE":" ","ALLEY":" ","HOUSE_NO":"２５９號","E_COORD97":169286.85000000001,"N_COORD97":2548024.3700000001,"ADDRESS":"安和路一段２５９號","OBJECTID":638665},"geometry":{"x":169286.8499999987,"y":2548024.3700000029}},{"attributes":{"ID":638693,"DIS_CODE":0,"TOWNNAME":"安南區","LI":"安西里","LIN":"4鄰","STREET":"安和路","SECT":"一段","MAREA":" ","LANE":" ","ALLEY":" ","HOUSE_NO":"２７３號","E_COORD97":169281.29999999999,"N_COORD97":2548052.48,"ADDRESS":"安和路一段２７３號","OBJECTID":638666},"geometry":{"x":169281.30000000075,"y":2548052.4799999986}},{"attributes":{"ID":638694,"DIS_CODE":0,"TOWNNAME":"安南區","LI":"安西里","LIN":"4鄰","STREET":"安和路","SECT":"一段","MAREA":" ","LANE":" ","ALLEY":" ","HOUSE_NO":"２７９號","E_COORD97":169277.20000000001,"N_COORD97":2548062.8399999999,"ADDRESS":"安和路一段２７９號","OBJECTID":638667},"geometry":{"x":169277.20000000112,"y":2548062.8399999999}},{"attributes":{"ID":638695,"DIS_CODE":0,"TOWNNAME":"安南區","LI":"安西里","LIN":"4鄰","STREET":"安和路","SECT":"一段","MAREA":" ","LANE":" ","ALLEY":" ","HOUSE_NO":"２８３號","E_COORD97":169275.98999999999,"N_COORD97":2548069.8199999998,"ADDRESS":"安和路一段２８３號","OBJECTID":638668},"geometry":{"x":169275.99000000022,"y":2548069.8200000003}},{"attributes":{"ID":638696,"DIS_CODE":0,"TOWNNAME":"安南區","LI":"州南里","LIN":"4鄰","STREET":"安和路","SECT":"四段","MAREA":" ","LANE":" ","ALLEY":" ","HOUSE_NO":"５１１號","E_COORD97":169917.91,"N_COORD97":2551277.8999999999,"ADDRESS":"安和路四段５１１號","OBJECTID":638669},"geometry":{"x":169917.91000000108,"y":2551277.9000000022}},{"attributes":{"ID":638697,"DIS_CODE":0,"TOWNNAME":"安南區","LI":"州南里","LIN":"4鄰","STREET":"安和路","SECT":"四段","MAREA":" ","LANE":" ","ALLEY":" ","HOUSE_NO":"５２１號","E_COORD97":169917.95000000001,"N_COORD97":2551273.1200000001,"ADDRESS":"安和路四段５２１號","OBJECTID":638670},"geometry":{"x":169917.95000000112,"y":2551273.1200000048}},{"attributes":{"ID":638698,"DIS_CODE":0,"TOWNNAME":"安南區","LI":"州北里","LIN":"13鄰","STREET":"安和路","SECT":"五段","MAREA":" ","LANE":" ","ALLEY":" ","HOUSE_NO":"１０１號","E_COORD97":169899.51999999999,"N_COORD97":2551716.71,"ADDRESS":"安和路五段１０１號","OBJECTID":638671},"geometry":{"x":169899.52000000142,"y":2551716.7100000046}},{"attributes":{"ID":638699,"DIS_CODE":0,"TOWNNAME":"安南區","LI":"州北里","LIN":"13鄰","STREET":"安和路","SECT":"五段","MAREA":" ","LANE":" ","ALLEY":" ","HOUSE_NO":"９１號","E_COORD97":169904.82999999999,"N_COORD97":2551697.1400000001,"ADDRESS":"安和路五段９１號","OBJECTID":638672},"geometry":{"x":169904.83000000101,"y":2551697.1400000025}},{"attributes":{"ID":638700,"DIS_CODE":0,"TOWNNAME":"安南區","LI":"安順里","LIN":"4鄰","STREET":"總安街","SECT":"一段","MAREA":" ","LANE":" ","ALLEY":" ","HOUSE_NO":"１００號","E_COORD97":169711.01999999999,"N_COORD97":2550149.5299999998,"ADDRESS":"總安街一段１００號","OBJECTID":638673},"geometry":{"x":169711.01999999955,"y":2550149.5299999975}},{"attributes":{"ID":638701,"DIS_CODE":0,"TOWNNAME":"安南區","LI":"安順里","LIN":"4鄰","STREET":"總安街","SECT":"一段","MAREA":" ","LANE":" ","ALLEY":" ","HOUSE_NO":"１０２號","E_COORD97":169707.01000000001,"N_COORD97":2550150.7400000002,"ADDRESS":"總安街一段１０２號","OBJECTID":638674},"geometry":{"x":169707.01000000071,"y":2550150.7400000021}},{"attributes":{"ID":638702,"DIS_CODE":0,"TOWNNAME":"安南區","LI":"州南里","LIN":"12鄰","STREET":"長和路","SECT":"三段","MAREA":" ","LANE":" ","ALLEY":" ","HOUSE_NO":"１０號","E_COORD97":169911.37,"N_COORD97":2551525.3900000001,"ADDRESS":"長和路三段１０號","OBJECTID":638675},"geometry":{"x":169911.37000000104,"y":2551525.3900000043}},{"attributes":{"ID":638703,"DIS_CODE":0,"TOWNNAME":"安南區","LI":"安順里","LIN":"4鄰","STREET":"總安街","SECT":"一段","MAREA":" ","LANE":" ","ALLEY":" ","HOUSE_NO":"１０４號","E_COORD97":169703.13,"N_COORD97":2550152.5299999998,"ADDRESS":"總安街一段１０４號","OBJECTID":638676},"geometry":{"x":169703.13000000082,"y":2550152.5299999993}},{"attributes":{"ID":638704,"DIS_CODE":0,"TOWNNAME":"安南區","LI":"安順里","LIN":"4鄰","STREET":"總安街","SECT":"一段","MAREA":" ","LANE":" ","ALLEY":" ","HOUSE_NO":"１０６號","E_COORD97":169700.09,"N_COORD97":2550155.02,"ADDRESS":"總安街一段１０６號","OBJECTID":638677},"geometry":{"x":169700.08999999985,"y":2550155.0200000014}},{"attributes":{"ID":638705,"DIS_CODE":0,"TOWNNAME":"安南區","LI":"安順里","LIN":"4鄰","STREET":"總安街","SECT":"一段","MAREA":" ","LANE":" ","ALLEY":" ","HOUSE_NO":"１０８號","E_COORD97":169696.48999999999,"N_COORD97":2550156.3999999999,"ADDRESS":"總安街一段１０８號","OBJECTID":638678},"geometry":{"x":169696.49000000022,"y":2550156.4000000022}},{"attributes":{"ID":638706,"DIS_CODE":0,"TOWNNAME":"安南區","LI":"安順里","LIN":"4鄰","STREET":"總安街","SECT":"一段","MAREA":" ","LANE":" ","ALLEY":" ","HOUSE_NO":"１０８號之１","E_COORD97":169693.73000000001,"N_COORD97":2550158.75,"ADDRESS":"總安街一段１０８號之１","OBJECTID":638679},"geometry":{"x":169693.72999999952,"y":2550158.75}},{"attributes":{"ID":638707,"DIS_CODE":0,"TOWNNAME":"安南區","LI":"安順里","LIN":"4鄰","STREET":"總安街","SECT":"一段","MAREA":" ","LANE":" ","ALLEY":" ","HOUSE_NO":"１０８號之２","E_COORD97":169689.16,"N_COORD97":2550160.8199999998,"ADDRESS":"總安街一段１０８號之２","OBJECTID":638680},"geometry":{"x":169689.16000000108,"y":2550160.8200000003}},{"attributes":{"ID":638708,"DIS_CODE":0,"TOWNNAME":"安南區","LI":"州北里","LIN":"14鄰","STREET":"安和路","SECT":"五段","MAREA":" ","LANE":" ","ALLEY":" ","HOUSE_NO":"１７２號","E_COORD97":169878.14000000001,"N_COORD97":2551842.6699999999,"ADDRESS":"安和路五段１７２號","OBJECTID":638681},"geometry":{"x":169878.13999999966,"y":2551842.6700000018}},{"attributes":{"ID":638709,"DIS_CODE":0,"TOWNNAME":"安南區","LI":"安順里","LIN":"4鄰","STREET":"總安街","SECT":"一段","MAREA":" ","LANE":" ","ALLEY":" ","HOUSE_NO":"１０８號之３","E_COORD97":169683.76999999999,"N_COORD97":2550162.7599999998,"ADDRESS":"總安街一段１０８號之３","OBJECTID":638682},"geometry":{"x":169683.76999999955,"y":2550162.7600000016}},{"attributes":{"ID":638710,"DIS_CODE":0,"TOWNNAME":"安南區","LI":"安順里","LIN":"4鄰","STREET":"總安街","SECT":"一段","MAREA":" ","LANE":" ","ALLEY":" ","HOUSE_NO":"７２號","E_COORD97":169763.48999999999,"N_COORD97":2550124.23,"ADDRESS":"總安街一段７２號","OBJECTID":638683},"geometry":{"x":169763.49000000115,"y":2550124.2300000004}},{"attributes":{"ID":638711,"DIS_CODE":0,"TOWNNAME":"安南區","LI":"安順里","LIN":"4鄰","STREET":"總安街","SECT":"一段","MAREA":" ","LANE":" ","ALLEY":" ","HOUSE_NO":"７４號","E_COORD97":169760.25,"N_COORD97":2550126.8300000001,"ADDRESS":"總安街一段７４號","OBJECTID":638684},"geometry":{"x":169760.25,"y":2550126.8300000001}},{"attributes":{"ID":638712,"DIS_CODE":0,"TOWNNAME":"安南區","LI":"安順里","LIN":"4鄰","STREET":"總安街","SECT":"一段","MAREA":" ","LANE":" ","ALLEY":" ","HOUSE_NO":"７６號","E_COORD97":169756.20000000001,"N_COORD97":2550128.0299999998,"ADDRESS":"總安街一段７６號","OBJECTID":638685},"geometry":{"x":169756.20000000019,"y":2550128.0299999993}},{"attributes":{"ID":638713,"DIS_CODE":0,"TOWNNAME":"安南區","LI":"安順里","LIN":"4鄰","STREET":"總安街","SECT":"一段","MAREA":" ","LANE":" ","ALLEY":" ","HOUSE_NO":"８２號","E_COORD97":169745.87,"N_COORD97":2550133.1800000002,"ADDRESS":"總安街一段８２號","OBJECTID":638686},"geometry":{"x":169745.87000000104,"y":2550133.1800000016}},{"attributes":{"ID":638714,"DIS_CODE":0,"TOWNNAME":"安南區","LI":"安順里","LIN":"4鄰","STREET":"總安街","SECT":"一段","MAREA":" ","LANE":" ","ALLEY":" ","HOUSE_NO":"８４號","E_COORD97":169741.76999999999,"N_COORD97":2550135.46,"ADDRESS":"總安街一段８４號","OBJECTID":638687},"geometry":{"x":169741.77000000142,"y":2550135.4600000028}},{"attributes":{"ID":638715,"DIS_CODE":0,"TOWNNAME":"安南區","LI":"安順里","LIN":"4鄰","STREET":"總安街","SECT":"一段","MAREA":" ","LANE":" ","ALLEY":" ","HOUSE_NO":"８６號","E_COORD97":169738.57999999999,"N_COORD97":2550137.4300000002,"ADDRESS":"總安街一段８６號","OBJECTID":638688},"geometry":{"x":169738.58000000194,"y":2550137.4300000034}},{"attributes":{"ID":638716,"DIS_CODE":0,"TOWNNAME":"安南區","LI":"安順里","LIN":"4鄰","STREET":"總安街","SECT":"一段","MAREA":" ","LANE":" ","ALLEY":" ","HOUSE_NO":"８８號","E_COORD97":169734.79000000001,"N_COORD97":2550140.3100000001,"ADDRESS":"總安街一段８８號","OBJECTID":638689},"geometry":{"x":169734.79000000004,"y":2550140.3100000024}},{"attributes":{"ID":638717,"DIS_CODE":0,"TOWNNAME":"安南區","LI":"安順里","LIN":"4鄰","STREET":"總安街","SECT":"一段","MAREA":" ","LANE":" ","ALLEY":" ","HOUSE_NO":"９２號","E_COORD97":169725.26999999999,"N_COORD97":2550143,"ADDRESS":"總安街一段９２號","OBJECTID":638690},"geometry":{"x":169725.27000000048,"y":2550143}},{"attributes":{"ID":638718,"DIS_CODE":0,"TOWNNAME":"安南區","LI":"安順里","LIN":"4鄰","STREET":"總安街","SECT":"一段","MAREA":" ","LANE":" ","ALLEY":" ","HOUSE_NO":"９６號","E_COORD97":169718.20999999999,"N_COORD97":2550146.1800000002,"ADDRESS":"總安街一段９６號","OBJECTID":638691},"geometry":{"x":169718.20999999996,"y":2550146.1800000016}},{"attributes":{"ID":638719,"DIS_CODE":0,"TOWNNAME":"安南區","LI":"安順里","LIN":"4鄰","STREET":"總安街","SECT":"一段","MAREA":" ","LANE":" ","ALLEY":" ","HOUSE_NO":"９８號","E_COORD97":169713.79000000001,"N_COORD97":2550147.5600000001,"ADDRESS":"總安街一段９８號","OBJECTID":638692},"geometry":{"x":169713.79000000097,"y":2550147.5600000042}},{"attributes":{"ID":638720,"DIS_CODE":0,"TOWNNAME":"安南區","LI":"安順里","LIN":"4鄰","STREET":"總安街","SECT":"一段","MAREA":" ","LANE":" ","ALLEY":" ","HOUSE_NO":"７８號","E_COORD97":169752.56,"N_COORD97":2550129.8500000001,"ADDRESS":"總安街一段７８號","OBJECTID":638693},"geometry":{"x":169752.55999999959,"y":2550129.8499999996}},{"attributes":{"ID":638721,"DIS_CODE":0,"TOWNNAME":"安南區","LI":"安慶里","LIN":"14鄰","STREET":"安中路","SECT":"一段","MAREA":" ","LANE":" ","ALLEY":" ","HOUSE_NO":"７２號","E_COORD97":169074.59,"N_COORD97":2548322.8199999998,"ADDRESS":"安中路一段７２號","OBJECTID":638694},"geometry":{"x":169074.58999999985,"y":2548322.8200000022}},{"attributes":{"ID":638722,"DIS_CODE":0,"TOWNNAME":"安南區","LI":"安慶里","LIN":"14鄰","STREET":"安中路","SECT":"一段","MAREA":" ","LANE":" ","ALLEY":" ","HOUSE_NO":"１２６號","E_COORD97":168924.84,"N_COORD97":2548429.4199999999,"ADDRESS":"安中路一段１２６號","OBJECTID":638695},"geometry":{"x":168924.84000000078,"y":2548429.4200000018}},{"attributes":{"ID":638723,"DIS_CODE":0,"TOWNNAME":"安南區","LI":"安慶里","LIN":"14鄰","STREET":"安中路","SECT":"一段","MAREA":" ","LANE":" ","ALLEY":" ","HOUSE_NO":"８２號","E_COORD97":169042.63,"N_COORD97":2548343.3300000001,"ADDRESS":"安中路一段８２號","OBJECTID":638696},"geometry":{"x":169042.62999999989,"y":2548343.3300000001}},{"attributes":{"ID":638724,"DIS_CODE":0,"TOWNNAME":"安南區","LI":"安慶里","LIN":"14鄰","STREET":"安中路","SECT":"一段","MAREA":" ","LANE":" ","ALLEY":" ","HOUSE_NO":"１１７號","E_COORD97":168963.35000000001,"N_COORD97":2548348.0800000001,"ADDRESS":"安中路一段１１７號","OBJECTID":638697},"geometry":{"x":168963.35000000056,"y":2548348.0800000019}},{"attributes":{"ID":638725,"DIS_CODE":0,"TOWNNAME":"安南區","LI":"州南里","LIN":"4鄰","STREET":"安和路","SECT":"四段","MAREA":" ","LANE":" ","ALLEY":" ","HOUSE_NO":"４６９號","E_COORD97":169918.14000000001,"N_COORD97":2551185.27,"ADDRESS":"安和路四段４６９號","OBJECTID":638698},"geometry":{"x":169918.1400000006,"y":2551185.2699999996}},{"attributes":{"ID":638726,"DIS_CODE":0,"TOWNNAME":"安南區","LI":"州南里","LIN":"4鄰","STREET":"安和路","SECT":"四段","MAREA":" ","LANE":" ","ALLEY":" ","HOUSE_NO":"４７１號","E_COORD97":169918.14000000001,"N_COORD97":2551188.8300000001,"ADDRESS":"安和路四段４７１號","OBJECTID":638699},"geometry":{"x":169918.1400000006,"y":2551188.8300000001}},{"attributes":{"ID":638727,"DIS_CODE":0,"TOWNNAME":"安南區","LI":"州南里","LIN":"4鄰","STREET":"安和路","SECT":"四段","MAREA":" ","LANE":" ","ALLEY":" ","HOUSE_NO":"４７３號","E_COORD97":169917.54000000001,"N_COORD97":2551193.7799999998,"ADDRESS":"安和路四段４７３號","OBJECTID":638700},"geometry":{"x":169917.54000000097,"y":2551193.7800000012}},{"attributes":{"ID":638728,"DIS_CODE":0,"TOWNNAME":"安南區","LI":"州南里","LIN":"4鄰","STREET":"安和路","SECT":"四段","MAREA":" ","LANE":" ","ALLEY":" ","HOUSE_NO":"４７５號","E_COORD97":169916.95000000001,"N_COORD97":2551197.54,"ADDRESS":"安和路四段４７５號","OBJECTID":638701},"geometry":{"x":169916.95000000019,"y":2551197.540000001}},{"attributes":{"ID":638729,"DIS_CODE":0,"TOWNNAME":"安南區","LI":"州南里","LIN":"4鄰","STREET":"安和路","SECT":"四段","MAREA":" ","LANE":" ","ALLEY":" ","HOUSE_NO":"４７９號","E_COORD97":169910.20999999999,"N_COORD97":2551205.8500000001,"ADDRESS":"安和路四段４７９號","OBJECTID":638702},"geometry":{"x":169910.20999999996,"y":2551205.8500000034}},{"attributes":{"ID":638730,"DIS_CODE":0,"TOWNNAME":"安南區","LI":"州南里","LIN":"4鄰","STREET":"安和路","SECT":"四段","MAREA":" ","LANE":" ","ALLEY":" ","HOUSE_NO":"４９３號","E_COORD97":169917.35999999999,"N_COORD97":2551231.1000000001,"ADDRESS":"安和路四段４９３號","OBJECTID":638703},"geometry":{"x":169917.36000000127,"y":2551231.1000000034}},{"attributes":{"ID":638731,"DIS_CODE":0,"TOWNNAME":"安南區","LI":"州南里","LIN":"4鄰","STREET":"安和路","SECT":"四段","MAREA":" ","LANE":" ","ALLEY":" ","HOUSE_NO":"４９５號","E_COORD97":169917.16,"N_COORD97":2551236.4399999999,"ADDRESS":"安和路四段４９５號","OBJECTID":638704},"geometry":{"x":169917.16000000015,"y":2551236.4400000013}},{"attributes":{"ID":638732,"DIS_CODE":0,"TOWNNAME":"安南區","LI":"州南里","LIN":"17鄰","STREET":"安和路","SECT":"四段","MAREA":" ","LANE":" ","ALLEY":" ","HOUSE_NO":"３１３號","E_COORD97":169912.57000000001,"N_COORD97":2550846.8399999999,"ADDRESS":"安和路四段３１３號","OBJECTID":638705},"geometry":{"x":169912.57000000123,"y":2550846.8400000036}},{"attributes":{"ID":638733,"DIS_CODE":0,"TOWNNAME":"安南區","LI":"州南里","LIN":"17鄰","STREET":"安和路","SECT":"四段","MAREA":" ","LANE":" ","ALLEY":" ","HOUSE_NO":"３１５號","E_COORD97":169914.35000000001,"N_COORD97":2550851.6000000001,"ADDRESS":"安和路四段３１５號","OBJECTID":638706},"geometry":{"x":169914.35000000056,"y":2550851.6000000034}},{"attributes":{"ID":638734,"DIS_CODE":0,"TOWNNAME":"安南區","LI":"州南里","LIN":"17鄰","STREET":"安和路","SECT":"四段","MAREA":" ","LANE":" ","ALLEY":" ","HOUSE_NO":"３１９號","E_COORD97":169911.81,"N_COORD97":2550875.8900000001,"ADDRESS":"安和路四段３１９號","OBJECTID":638707},"geometry":{"x":169911.81000000052,"y":2550875.8900000006}},{"attributes":{"ID":638735,"DIS_CODE":0,"TOWNNAME":"安南區","LI":"州南里","LIN":"17鄰","STREET":"安和路","SECT":"四段","MAREA":" ","LANE":" ","ALLEY":" ","HOUSE_NO":"３３１號","E_COORD97":169911.23000000001,"N_COORD97":2550891.5299999998,"ADDRESS":"安和路四段３３１號","OBJECTID":638708},"geometry":{"x":169911.23000000138,"y":2550891.5299999993}},{"attributes":{"ID":638736,"DIS_CODE":0,"TOWNNAME":"安南區","LI":"州南里","LIN":"17鄰","STREET":"安和路","SECT":"四段","MAREA":" ","LANE":" ","ALLEY":" ","HOUSE_NO":"３３３號","E_COORD97":169910.23000000001,"N_COORD97":2550895.3700000001,"ADDRESS":"安和路四段３３３號","OBJECTID":638709},"geometry":{"x":169910.23000000045,"y":2550895.3700000048}},{"attributes":{"ID":638737,"DIS_CODE":0,"TOWNNAME":"安南區","LI":"州南里","LIN":"17鄰","STREET":"安和路","SECT":"四段","MAREA":" ","LANE":" ","ALLEY":" ","HOUSE_NO":"３５３號","E_COORD97":169911.73999999999,"N_COORD97":2550951.3799999999,"ADDRESS":"安和路四段３５３號","OBJECTID":638710},"geometry":{"x":169911.74000000022,"y":2550951.3800000008}},{"attributes":{"ID":638738,"DIS_CODE":0,"TOWNNAME":"安南區","LI":"州南里","LIN":"17鄰","STREET":"安和路","SECT":"四段","MAREA":" ","LANE":" ","ALLEY":" ","HOUSE_NO":"３８３號","E_COORD97":169914.69,"N_COORD97":2551003.5600000001,"ADDRESS":"安和路四段３８３號","OBJECTID":638711},"geometry":{"x":169914.69000000134,"y":2551003.5600000005}},{"attributes":{"ID":638739,"DIS_CODE":0,"TOWNNAME":"安南區","LI":"州南里","LIN":"17鄰","STREET":"安和路","SECT":"四段","MAREA":" ","LANE":" ","ALLEY":" ","HOUSE_NO":"３８７號","E_COORD97":169910.38,"N_COORD97":2551012.23,"ADDRESS":"安和路四段３８７號","OBJECTID":638712},"geometry":{"x":169910.37999999989,"y":2551012.2300000023}},{"attributes":{"ID":638740,"DIS_CODE":0,"TOWNNAME":"安南區","LI":"州南里","LIN":"17鄰","STREET":"安和路","SECT":"四段","MAREA":" ","LANE":" ","ALLEY":" ","HOUSE_NO":"３８９號","E_COORD97":169908.89000000001,"N_COORD97":2551015.21,"ADDRESS":"安和路四段３８９號","OBJECTID":638713},"geometry":{"x":169908.89000000153,"y":2551015.2100000028}},{"attributes":{"ID":638741,"DIS_CODE":0,"TOWNNAME":"安南區","LI":"州南里","LIN":"17鄰","STREET":"安和路","SECT":"四段","MAREA":" ","LANE":" ","ALLEY":" ","HOUSE_NO":"４０９號","E_COORD97":169913.35999999999,"N_COORD97":2551046.3900000001,"ADDRESS":"安和路四段４０９號","OBJECTID":638714},"geometry":{"x":169913.36000000127,"y":2551046.3900000006}},{"attributes":{"ID":638742,"DIS_CODE":0,"TOWNNAME":"安南區","LI":"州南里","LIN":"17鄰","STREET":"安和路","SECT":"四段","MAREA":" ","LANE":" ","ALLEY":" ","HOUSE_NO":"４１７號","E_COORD97":169912.92000000001,"N_COORD97":2551055.0299999998,"ADDRESS":"安和路四段４１７號","OBJECTID":638715},"geometry":{"x":169912.92000000086,"y":2551055.0300000031}},{"attributes":{"ID":638743,"DIS_CODE":0,"TOWNNAME":"安南區","LI":"州南里","LIN":"17鄰","STREET":"安和路","SECT":"四段","MAREA":" ","LANE":" ","ALLEY":" ","HOUSE_NO":"４２１號","E_COORD97":169920.07999999999,"N_COORD97":2551069.29,"ADDRESS":"安和路四段４２１號","OBJECTID":638716},"geometry":{"x":169920.08000000101,"y":2551069.2899999991}},{"attributes":{"ID":638744,"DIS_CODE":0,"TOWNNAME":"安南區","LI":"州南里","LIN":"17鄰","STREET":"安和路","SECT":"四段","MAREA":" ","LANE":" ","ALLEY":" ","HOUSE_NO":"４６７號","E_COORD97":169914.39000000001,"N_COORD97":2551145.8199999998,"ADDRESS":"安和路四段４６７號","OBJECTID":638717},"geometry":{"x":169914.3900000006,"y":2551145.820000004}},{"attributes":{"ID":638745,"DIS_CODE":0,"TOWNNAME":"安南區","LI":"州南里","LIN":"25鄰","STREET":"安和路","SECT":"四段","MAREA":" ","LANE":" ","ALLEY":" ","HOUSE_NO":"５１０號","E_COORD97":169964.41,"N_COORD97":2551272.02,"ADDRESS":"安和路四段５１０號","OBJECTID":638718},"geometry":{"x":169964.41000000015,"y":2551272.0199999977}},{"attributes":{"ID":638746,"DIS_CODE":0,"TOWNNAME":"安南區","LI":"安和里","LIN":"9鄰","STREET":"安和路","SECT":"一段","MAREA":" ","LANE":" ","ALLEY":" ","HOUSE_NO":"５６號","E_COORD97":169570.78,"N_COORD97":2547496.9100000001,"ADDRESS":"安和路一段５６號","OBJECTID":638719},"geometry":{"x":169570.78000000026,"y":2547496.9100000039}},{"attributes":{"ID":638747,"DIS_CODE":0,"TOWNNAME":"安南區","LI":"州北里","LIN":"17鄰","STREET":"安和路","SECT":"六段","MAREA":" ","LANE":" ","ALLEY":" ","HOUSE_NO":"１１６號","E_COORD97":169543.32000000001,"N_COORD97":2552553.3799999999,"ADDRESS":"安和路六段１１６號","OBJECTID":638720},"geometry":{"x":169543.3200000003,"y":2552553.379999999}},{"attributes":{"ID":638748,"DIS_CODE":0,"TOWNNAME":"安南區","LI":"州北里","LIN":"17鄰","STREET":"安和路","SECT":"六段","MAREA":" ","LANE":" ","ALLEY":" ","HOUSE_NO":"７號之１","E_COORD97":169626.09,"N_COORD97":2552352.0600000001,"ADDRESS":"安和路六段７號之１","OBJECTID":638721},"geometry":{"x":169626.08999999985,"y":2552352.0600000024}},{"attributes":{"ID":638749,"DIS_CODE":0,"TOWNNAME":"下營區","LI":"仁里里","LIN":"8鄰","STREET":"蚵寮街","SECT":" ","MAREA":" ","LANE":" ","ALLEY":" ","HOUSE_NO":"３３號","E_COORD97":174110.70000000001,"N_COORD97":2570310.46,"ADDRESS":"蚵寮街３３號","OBJECTID":638722},"geometry":{"x":174110.70000000019,"y":2570310.4600000009}},{"attributes":{"ID":638750,"DIS_CODE":0,"TOWNNAME":"安南區","LI":"溪墘里","LIN":"4鄰","STREET":"海佃路","SECT":"一段","MAREA":" ","LANE":" ","ALLEY":" ","HOUSE_NO":"１９０號","E_COORD97":167156.04999999999,"N_COORD97":2547258.3300000001,"ADDRESS":"海佃路一段１９０號","OBJECTID":638723},"geometry":{"x":167156.04999999981,"y":2547258.3300000001}},{"attributes":{"ID":638751,"DIS_CODE":0,"TOWNNAME":"安南區","LI":"溪墘里","LIN":"4鄰","STREET":"海佃路","SECT":"一段","MAREA":" ","LANE":" ","ALLEY":" ","HOUSE_NO":"１９２號","E_COORD97":167154.26000000001,"N_COORD97":2547264.0099999998,"ADDRESS":"海佃路一段１９２號","OBJECTID":638724},"geometry":{"x":167154.26000000071,"y":2547264.0099999998}},{"attributes":{"ID":638752,"DIS_CODE":0,"TOWNNAME":"安南區","LI":"溪墘里","LIN":"4鄰","STREET":"海佃路","SECT":"一段","MAREA":" ","LANE":" ","ALLEY":" ","HOUSE_NO":"１９４號","E_COORD97":167153.19,"N_COORD97":2547268.6499999999,"ADDRESS":"海佃路一段１９４號","OBJECTID":638725},"geometry":{"x":167153.19000000134,"y":2547268.6500000022}},{"attributes":{"ID":638753,"DIS_CODE":0,"TOWNNAME":"安南區","LI":"溪墘里","LIN":"4鄰","STREET":"海佃路","SECT":"一段","MAREA":" ","LANE":" ","ALLEY":" ","HOUSE_NO":"１９８號","E_COORD97":167150.20000000001,"N_COORD97":2547278.29,"ADDRESS":"海佃路一段１９８號","OBJECTID":638726},"geometry":{"x":167150.20000000019,"y":2547278.2899999991}},{"attributes":{"ID":638754,"DIS_CODE":0,"TOWNNAME":"安南區","LI":"溪墘里","LIN":"8鄰","STREET":"海佃路","SECT":"一段","MAREA":" ","LANE":" ","ALLEY":" ","HOUSE_NO":"２５８號","E_COORD97":167132.01999999999,"N_COORD97":2547369.54,"ADDRESS":"海佃路一段２５８號","OBJECTID":638727},"geometry":{"x":167132.01999999955,"y":2547369.5400000028}},{"attributes":{"ID":638755,"DIS_CODE":0,"TOWNNAME":"安南區","LI":"溪墘里","LIN":"8鄰","STREET":"海佃路","SECT":"一段","MAREA":" ","LANE":" ","ALLEY":" ","HOUSE_NO":"２６２號","E_COORD97":167130.5,"N_COORD97":2547377.48,"ADDRESS":"海佃路一段２６２號","OBJECTID":638728},"geometry":{"x":167130.50000000093,"y":2547377.4800000004}},{"attributes":{"ID":638756,"DIS_CODE":0,"TOWNNAME":"安南區","LI":"溪墘里","LIN":"19鄰","STREET":"海佃路","SECT":"一段","MAREA":" ","LANE":" ","ALLEY":" ","HOUSE_NO":"３９４號","E_COORD97":167074.66,"N_COORD97":2547655.0600000001,"ADDRESS":"海佃路一段３９４號","OBJECTID":638729},"geometry":{"x":167074.66000000015,"y":2547655.0600000005}},{"attributes":{"ID":638757,"DIS_CODE":0,"TOWNNAME":"安南區","LI":"海佃里","LIN":"17鄰","STREET":"海佃路","SECT":"一段","MAREA":" ","LANE":" ","ALLEY":" ","HOUSE_NO":"１６９號","E_COORD97":167124.42999999999,"N_COORD97":2547138.0600000001,"ADDRESS":"海佃路一段１６９號","OBJECTID":638730},"geometry":{"x":167124.4299999997,"y":2547138.0600000024}},{"attributes":{"ID":638758,"DIS_CODE":0,"TOWNNAME":"安南區","LI":"海佃里","LIN":"17鄰","STREET":"海佃路","SECT":"一段","MAREA":" ","LANE":" ","ALLEY":" ","HOUSE_NO":"１７１號","E_COORD97":167123.10000000001,"N_COORD97":2547142.04,"ADDRESS":"海佃路一段１７１號","OBJECTID":638731},"geometry":{"x":167123.09999999963,"y":2547142.0399999972}},{"attributes":{"ID":638759,"DIS_CODE":0,"TOWNNAME":"安南區","LI":"海佃里","LIN":"17鄰","STREET":"海佃路","SECT":"一段","MAREA":" ","LANE":" ","ALLEY":" ","HOUSE_NO":"１７３號","E_COORD97":167124.42999999999,"N_COORD97":2547146.6899999999,"ADDRESS":"海佃路一段１７３號","OBJECTID":638732},"geometry":{"x":167124.4299999997,"y":2547146.6899999995}},{"attributes":{"ID":638760,"DIS_CODE":0,"TOWNNAME":"安南區","LI":"海佃里","LIN":"17鄰","STREET":"海佃路","SECT":"一段","MAREA":" ","LANE":" ","ALLEY":" ","HOUSE_NO":"１７５號","E_COORD97":167124.42999999999,"N_COORD97":2547151.3399999999,"ADDRESS":"海佃路一段１７５號","OBJECTID":638733},"geometry":{"x":167124.4299999997,"y":2547151.3400000036}},{"attributes":{"ID":638761,"DIS_CODE":0,"TOWNNAME":"安南區","LI":"海佃里","LIN":"17鄰","STREET":"海佃路","SECT":"一段","MAREA":" ","LANE":" ","ALLEY":" ","HOUSE_NO":"１７７號","E_COORD97":167123.76000000001,"N_COORD97":2547155.9900000002,"ADDRESS":"海佃路一段１７７號","OBJECTID":638734},"geometry":{"x":167123.76000000071,"y":2547155.9900000002}},{"attributes":{"ID":638762,"DIS_CODE":0,"TOWNNAME":"下營區","LI":"仁里里","LIN":"8鄰","STREET":"蚵寮街","SECT":" ","MAREA":" ","LANE":" ","ALLEY":" ","HOUSE_NO":"４７號","E_COORD97":174040.91,"N_COORD97":2570310.2400000002,"ADDRESS":"蚵寮街４７號","OBJECTID":638735},"geometry":{"x":174040.91000000108,"y":2570310.2400000002}},{"attributes":{"ID":638763,"DIS_CODE":0,"TOWNNAME":"下營區","LI":"營前里","LIN":"24鄰","STREET":"健康路","SECT":" ","MAREA":" ","LANE":" ","ALLEY":" ","HOUSE_NO":"８號","E_COORD97":174544.44,"N_COORD97":2570125.0699999998,"ADDRESS":"健康路８號","OBJECTID":638736},"geometry":{"x":174544.44000000134,"y":2570125.0700000003}},{"attributes":{"ID":638764,"DIS_CODE":0,"TOWNNAME":"安南區","LI":"海佃里","LIN":"19鄰","STREET":"海佃路","SECT":"一段","MAREA":" ","LANE":" ","ALLEY":" ","HOUSE_NO":"２０１號","E_COORD97":167106.47,"N_COORD97":2547225.3100000001,"ADDRESS":"海佃路一段２０１號","OBJECTID":638737},"geometry":{"x":167106.47000000067,"y":2547225.3100000005}},{"attributes":{"ID":638765,"DIS_CODE":0,"TOWNNAME":"安南區","LI":"海佃里","LIN":"19鄰","STREET":"海佃路","SECT":"一段","MAREA":" ","LANE":" ","ALLEY":" ","HOUSE_NO":"２０３號","E_COORD97":167107.14000000001,"N_COORD97":2547229.96,"ADDRESS":"海佃路一段２０３號","OBJECTID":638738},"geometry":{"x":167107.1400000006,"y":2547229.9600000028}},{"attributes":{"ID":638766,"DIS_CODE":0,"TOWNNAME":"下營區","LI":"仁里里","LIN":"12鄰","STREET":"蚵寮街","SECT":" ","MAREA":" ","LANE":" ","ALLEY":" ","HOUSE_NO":"１００號","E_COORD97":173946.26999999999,"N_COORD97":2570355.0699999998,"ADDRESS":"蚵寮街１００號","OBJECTID":638739},"geometry":{"x":173946.27000000048,"y":2570355.0700000022}},{"attributes":{"ID":638767,"DIS_CODE":0,"TOWNNAME":"下營區","LI":"仁里里","LIN":"12鄰","STREET":"蚵寮街","SECT":" ","MAREA":" ","LANE":" ","ALLEY":" ","HOUSE_NO":"１０號","E_COORD97":174176.82000000001,"N_COORD97":2570322.79,"ADDRESS":"蚵寮街１０號","OBJECTID":638740},"geometry":{"x":174176.82000000216,"y":2570322.7899999991}},{"attributes":{"ID":638768,"DIS_CODE":0,"TOWNNAME":"下營區","LI":"營前里","LIN":"10鄰","STREET":"健康路","SECT":" ","MAREA":" ","LANE":" ","ALLEY":" ","HOUSE_NO":"８８號","E_COORD97":174755.70999999999,"N_COORD97":2570171.8500000001,"ADDRESS":"健康路８８號","OBJECTID":638741},"geometry":{"x":174755.71000000089,"y":2570171.8500000015}},{"attributes":{"ID":638769,"DIS_CODE":0,"TOWNNAME":"下營區","LI":"營前里","LIN":"10鄰","STREET":"健康路","SECT":" ","MAREA":" ","LANE":" ","ALLEY":" ","HOUSE_NO":"９０號","E_COORD97":174762.17000000001,"N_COORD97":2570173.25,"ADDRESS":"健康路９０號","OBJECTID":638742},"geometry":{"x":174762.16999999899,"y":2570173.2500000019}},{"attributes":{"ID":638770,"DIS_CODE":0,"TOWNNAME":"下營區","LI":"仁里里","LIN":"10鄰","STREET":"蚵寮街","SECT":" ","MAREA":" ","LANE":" ","ALLEY":" ","HOUSE_NO":"１５６號","E_COORD97":173813.03,"N_COORD97":2570391.6600000001,"ADDRESS":"蚵寮街１５６號","OBJECTID":638743},"geometry":{"x":173813.03000000119,"y":2570391.660000002}},{"attributes":{"ID":638771,"DIS_CODE":0,"TOWNNAME":"下營區","LI":"仁里里","LIN":"9鄰","STREET":"蚵寮街","SECT":" ","MAREA":" ","LANE":" ","ALLEY":" ","HOUSE_NO":"１１５號","E_COORD97":173825.60000000001,"N_COORD97":2570349,"ADDRESS":"蚵寮街１１５號","OBJECTID":638744},"geometry":{"x":173825.60000000056,"y":2570349}},{"attributes":{"ID":638772,"DIS_CODE":0,"TOWNNAME":"下營區","LI":"營前里","LIN":"11鄰","STREET":"健康路","SECT":" ","MAREA":" ","LANE":" ","ALLEY":" ","HOUSE_NO":"８９號","E_COORD97":174761.98000000001,"N_COORD97":2570206.1800000002,"ADDRESS":"健康路８９號","OBJECTID":638745},"geometry":{"x":174761.98000000045,"y":2570206.1799999997}},{"attributes":{"ID":638773,"DIS_CODE":0,"TOWNNAME":"下營區","LI":"營前里","LIN":"11鄰","STREET":"健康路","SECT":" ","MAREA":" ","LANE":" ","ALLEY":" ","HOUSE_NO":"９３號","E_COORD97":174768.03,"N_COORD97":2570207.73,"ADDRESS":"健康路９３號","OBJECTID":638746},"geometry":{"x":174768.03000000026,"y":2570207.7300000023}},{"attributes":{"ID":638774,"DIS_CODE":0,"TOWNNAME":"下營區","LI":"營前里","LIN":"15鄰","STREET":"復興街","SECT":" ","MAREA":" ","LANE":" ","ALLEY":" ","HOUSE_NO":"８號","E_COORD97":174741.42000000001,"N_COORD97":2570447.3500000001,"ADDRESS":"復興街８號","OBJECTID":638747},"geometry":{"x":174741.41999999993,"y":2570447.3500000015}},{"attributes":{"ID":638775,"DIS_CODE":0,"TOWNNAME":"下營區","LI":"新興里","LIN":"4鄰","STREET":"勝利街","SECT":" ","MAREA":" ","LANE":" ","ALLEY":" ","HOUSE_NO":"３號","E_COORD97":174996.87,"N_COORD97":2570768.2599999998,"ADDRESS":"勝利街３號","OBJECTID":638748},"geometry":{"x":174996.87000000197,"y":2570768.2599999998}},{"attributes":{"ID":638776,"DIS_CODE":0,"TOWNNAME":"下營區","LI":"新興里","LIN":"4鄰","STREET":"勝利街","SECT":" ","MAREA":" ","LANE":" ","ALLEY":" ","HOUSE_NO":"５號","E_COORD97":174994.41,"N_COORD97":2570773.2799999998,"ADDRESS":"勝利街５號","OBJECTID":638749},"geometry":{"x":174994.41000000015,"y":2570773.2800000012}},{"attributes":{"ID":638777,"DIS_CODE":0,"TOWNNAME":"下營區","LI":"新興里","LIN":"15鄰","STREET":"慈惠街","SECT":" ","MAREA":" ","LANE":" ","ALLEY":" ","HOUSE_NO":"１２號","E_COORD97":175233.03,"N_COORD97":2570625.3799999999,"ADDRESS":"慈惠街１２號","OBJECTID":638750},"geometry":{"x":175233.02999999933,"y":2570625.3800000008}},{"attributes":{"ID":638778,"DIS_CODE":0,"TOWNNAME":"下營區","LI":"新興里","LIN":"15鄰","STREET":"慈惠街","SECT":" ","MAREA":" ","LANE":" ","ALLEY":" ","HOUSE_NO":"１６號","E_COORD97":175217.17999999999,"N_COORD97":2570610.1000000001,"ADDRESS":"慈惠街１６號","OBJECTID":638751},"geometry":{"x":175217.1799999997,"y":2570610.0999999996}},{"attributes":{"ID":638779,"DIS_CODE":0,"TOWNNAME":"下營區","LI":"新興里","LIN":"6鄰","STREET":"慈惠街","SECT":" ","MAREA":" ","LANE":" ","ALLEY":" ","HOUSE_NO":"１８號","E_COORD97":175173.16,"N_COORD97":2570601.0800000001,"ADDRESS":"慈惠街１８號","OBJECTID":638752},"geometry":{"x":175173.16000000108,"y":2570601.0800000038}},{"attributes":{"ID":638780,"DIS_CODE":0,"TOWNNAME":"下營區","LI":"新興里","LIN":"6鄰","STREET":"慈惠街","SECT":" ","MAREA":" ","LANE":" ","ALLEY":" ","HOUSE_NO":"２０號","E_COORD97":175167.10999999999,"N_COORD97":2570600.48,"ADDRESS":"慈惠街２０號","OBJECTID":638753},"geometry":{"x":175167.11000000127,"y":2570600.4800000004}},{"attributes":{"ID":638781,"DIS_CODE":0,"TOWNNAME":"下營區","LI":"新興里","LIN":"6鄰","STREET":"慈惠街","SECT":" ","MAREA":" ","LANE":" ","ALLEY":" ","HOUSE_NO":"２２號","E_COORD97":175161.09,"N_COORD97":2570600.46,"ADDRESS":"慈惠街２２號","OBJECTID":638754},"geometry":{"x":175161.09000000171,"y":2570600.4600000028}},{"attributes":{"ID":638782,"DIS_CODE":0,"TOWNNAME":"新營區","LI":"好平里","LIN":" ","STREET":"長春街","SECT":" ","MAREA":" ","LANE":" ","ALLEY":" ","HOUSE_NO":"１４０號","E_COORD97":179547.5,"N_COORD97":2577830.6600000001,"ADDRESS":"長春街１４０號","OBJECTID":638755},"geometry":{"x":179547.50000000093,"y":2577830.6600000001}},{"attributes":{"ID":638783,"DIS_CODE":0,"TOWNNAME":"北區","LI":"振興里","LIN":"4鄰","STREET":"長榮路","SECT":"四段","MAREA":" ","LANE":" ","ALLEY":" ","HOUSE_NO":"２０１號","E_COORD97":170147.87,"N_COORD97":2545275.27,"ADDRESS":"長榮路四段２０１號","OBJECTID":638756},"geometry":{"x":170147.87000000011,"y":2545275.2699999996}},{"attributes":{"ID":638784,"DIS_CODE":0,"TOWNNAME":"北區","LI":"振興里","LIN":"4鄰","STREET":"長榮路","SECT":"四段","MAREA":" ","LANE":" ","ALLEY":" ","HOUSE_NO":"２０３號","E_COORD97":170144.47,"N_COORD97":2545278.5800000001,"ADDRESS":"長榮路四段２０３號","OBJECTID":638757},"geometry":{"x":170144.47000000067,"y":2545278.5800000019}},{"attributes":{"ID":638785,"DIS_CODE":0,"TOWNNAME":"北區","LI":"振興里","LIN":"4鄰","STREET":"長榮路","SECT":"四段","MAREA":" ","LANE":" ","ALLEY":" ","HOUSE_NO":"２０５號","E_COORD97":170144.95000000001,"N_COORD97":2545287.0800000001,"ADDRESS":"長榮路四段２０５號","OBJECTID":638758},"geometry":{"x":170144.95000000112,"y":2545287.0800000001}},{"attributes":{"ID":638786,"DIS_CODE":0,"TOWNNAME":"北區","LI":"振興里","LIN":"4鄰","STREET":"長榮路","SECT":"四段","MAREA":" ","LANE":" ","ALLEY":" ","HOUSE_NO":"２０５號之１","E_COORD97":170141.72,"N_COORD97":2545289.4700000002,"ADDRESS":"長榮路四段２０５號之１","OBJECTID":638759},"geometry":{"x":170141.71999999974,"y":2545289.4700000007}},{"attributes":{"ID":638787,"DIS_CODE":0,"TOWNNAME":"北區","LI":"振興里","LIN":"4鄰","STREET":"長榮路","SECT":"四段","MAREA":" ","LANE":" ","ALLEY":" ","HOUSE_NO":"２１３號","E_COORD97":170128.31,"N_COORD97":2545272.6800000002,"ADDRESS":"長榮路四段２１３號","OBJECTID":638760},"geometry":{"x":170128.31000000052,"y":2545272.6799999997}},{"attributes":{"ID":638788,"DIS_CODE":0,"TOWNNAME":"北區","LI":"振興里","LIN":"4鄰","STREET":"長榮路","SECT":"四段","MAREA":" ","LANE":" ","ALLEY":" ","HOUSE_NO":"２１５號","E_COORD97":170115.97,"N_COORD97":2545282.9700000002,"ADDRESS":"長榮路四段２１５號","OBJECTID":638761},"geometry":{"x":170115.97000000067,"y":2545282.9700000044}},{"attributes":{"ID":638789,"DIS_CODE":0,"TOWNNAME":"北區","LI":"振興里","LIN":"4鄰","STREET":"長榮路","SECT":"四段","MAREA":" ","LANE":" ","ALLEY":" ","HOUSE_NO":"２２１號","E_COORD97":170136.20999999999,"N_COORD97":2545296.6400000001,"ADDRESS":"長榮路四段２２１號","OBJECTID":638762},"geometry":{"x":170136.21000000089,"y":2545296.6400000025}},{"attributes":{"ID":638790,"DIS_CODE":0,"TOWNNAME":"北區","LI":"振興里","LIN":"4鄰","STREET":"長榮路","SECT":"四段","MAREA":" ","LANE":" ","ALLEY":" ","HOUSE_NO":"２２３號","E_COORD97":170133.22,"N_COORD97":2545299.8700000001,"ADDRESS":"長榮路四段２２３號","OBJECTID":638763},"geometry":{"x":170133.21999999974,"y":2545299.870000001}},{"attributes":{"ID":638791,"DIS_CODE":0,"TOWNNAME":"北區","LI":"振興里","LIN":"4鄰","STREET":"長榮路","SECT":"四段","MAREA":" ","LANE":" ","ALLEY":" ","HOUSE_NO":"２２９號","E_COORD97":170127.35000000001,"N_COORD97":2545310.6400000001,"ADDRESS":"長榮路四段２２９號","OBJECTID":638764},"geometry":{"x":170127.34999999963,"y":2545310.6400000006}},{"attributes":{"ID":638792,"DIS_CODE":0,"TOWNNAME":"北區","LI":"振興里","LIN":"4鄰","STREET":"長榮路","SECT":"四段","MAREA":" ","LANE":" ","ALLEY":" ","HOUSE_NO":"２３１號","E_COORD97":170125.07000000001,"N_COORD97":2545314.3500000001,"ADDRESS":"長榮路四段２３１號","OBJECTID":638765},"geometry":{"x":170125.0700000003,"y":2545314.3500000015}},{"attributes":{"ID":638793,"DIS_CODE":0,"TOWNNAME":"北區","LI":"振興里","LIN":"4鄰","STREET":"開元路","SECT":" ","MAREA":" ","LANE":" ","ALLEY":" ","HOUSE_NO":"１９０號","E_COORD97":170079.42999999999,"N_COORD97":2545297.1299999999,"ADDRESS":"開元路１９０號","OBJECTID":638766},"geometry":{"x":170079.4299999997,"y":2545297.1300000027}},{"attributes":{"ID":638794,"DIS_CODE":0,"TOWNNAME":"北區","LI":"振興里","LIN":"4鄰","STREET":"開元路","SECT":" ","MAREA":" ","LANE":" ","ALLEY":" ","HOUSE_NO":"１９２號","E_COORD97":170084.57999999999,"N_COORD97":2545300.96,"ADDRESS":"開元路１９２號","OBJECTID":638767},"geometry":{"x":170084.58000000101,"y":2545300.9600000028}},{"attributes":{"ID":638795,"DIS_CODE":0,"TOWNNAME":"北區","LI":"振興里","LIN":"4鄰","STREET":"開元路","SECT":" ","MAREA":" ","LANE":" ","ALLEY":" ","HOUSE_NO":"１９６號","E_COORD97":170094.06,"N_COORD97":2545307.0600000001,"ADDRESS":"開元路１９６號","OBJECTID":638768},"geometry":{"x":170094.06000000145,"y":2545307.0600000024}},{"attributes":{"ID":638796,"DIS_CODE":0,"TOWNNAME":"北區","LI":"振興里","LIN":"4鄰","STREET":"開元路","SECT":" ","MAREA":" ","LANE":" ","ALLEY":" ","HOUSE_NO":"２００號","E_COORD97":170102.32000000001,"N_COORD97":2545313.8799999999,"ADDRESS":"開元路２００號","OBJECTID":638769},"geometry":{"x":170102.32000000123,"y":2545313.8800000008}},{"attributes":{"ID":638797,"DIS_CODE":0,"TOWNNAME":"北區","LI":"振興里","LIN":"4鄰","STREET":"開元路","SECT":" ","MAREA":" ","LANE":" ","ALLEY":" ","HOUSE_NO":"２０２號","E_COORD97":170102.07999999999,"N_COORD97":2545296.4100000001,"ADDRESS":"開元路２０２號","OBJECTID":638770},"geometry":{"x":170102.08000000101,"y":2545296.4100000039}},{"attributes":{"ID":638798,"DIS_CODE":0,"TOWNNAME":"北區","LI":"振興里","LIN":"4鄰","STREET":"開元路","SECT":" ","MAREA":" ","LANE":" ","ALLEY":" ","HOUSE_NO":"２０２號之１","E_COORD97":170106.39000000001,"N_COORD97":2545297.4900000002,"ADDRESS":"開元路２０２號之１","OBJECTID":638771},"geometry":{"x":170106.38999999966,"y":2545297.4900000021}},{"attributes":{"ID":638799,"DIS_CODE":0,"TOWNNAME":"北區","LI":"振興里","LIN":"4鄰","STREET":"開元路","SECT":" ","MAREA":" ","LANE":" ","ALLEY":" ","HOUSE_NO":"２０４號","E_COORD97":170110.45999999999,"N_COORD97":2545312.9199999999,"ADDRESS":"開元路２０４號","OBJECTID":638772},"geometry":{"x":170110.46000000183,"y":2545312.9200000037}},{"attributes":{"ID":638800,"DIS_CODE":0,"TOWNNAME":"北區","LI":"振興里","LIN":"4鄰","STREET":"開元路","SECT":" ","MAREA":" ","LANE":" ","ALLEY":" ","HOUSE_NO":"２０６號","E_COORD97":170114.06,"N_COORD97":2545316.0299999998,"ADDRESS":"開元路２０６號","OBJECTID":638773},"geometry":{"x":170114.05999999959,"y":2545316.0300000012}},{"attributes":{"ID":638801,"DIS_CODE":0,"TOWNNAME":"北區","LI":"振興里","LIN":"4鄰","STREET":"開元路","SECT":" ","MAREA":" ","LANE":" ","ALLEY":" ","HOUSE_NO":"２０８號","E_COORD97":170116.92999999999,"N_COORD97":2545318.5499999998,"ADDRESS":"開元路２０８號","OBJECTID":638774},"geometry":{"x":170116.9299999997,"y":2545318.5500000007}},{"attributes":{"ID":638802,"DIS_CODE":0,"TOWNNAME":"北區","LI":"振興里","LIN":"4鄰","STREET":"長榮路","SECT":"四段","MAREA":" ","LANE":" ","ALLEY":" ","HOUSE_NO":"１８５號","E_COORD97":170170.23000000001,"N_COORD97":2545242.71,"ADDRESS":"長榮路四段１８５號","OBJECTID":638775},"geometry":{"x":170170.23000000231,"y":2545242.7100000009}},{"attributes":{"ID":638803,"DIS_CODE":0,"TOWNNAME":"北區","LI":"振興里","LIN":"4鄰","STREET":"長榮路","SECT":"四段","MAREA":" ","LANE":" ","ALLEY":" ","HOUSE_NO":"１８７號","E_COORD97":170168.16,"N_COORD97":2545247.48,"ADDRESS":"長榮路四段１８７號","OBJECTID":638776},"geometry":{"x":170168.16000000015,"y":2545247.4800000004}},{"attributes":{"ID":638804,"DIS_CODE":0,"TOWNNAME":"北區","LI":"振興里","LIN":"4鄰","STREET":"長榮路","SECT":"四段","MAREA":" ","LANE":" ","ALLEY":" ","HOUSE_NO":"１８９號","E_COORD97":170165.32000000001,"N_COORD97":2545250.75,"ADDRESS":"長榮路四段１８９號","OBJECTID":638777},"geometry":{"x":170165.3200000003,"y":2545250.7500000019}},{"attributes":{"ID":638805,"DIS_CODE":0,"TOWNNAME":"北區","LI":"振興里","LIN":"4鄰","STREET":"長榮路","SECT":"四段","MAREA":" ","LANE":" ","ALLEY":" ","HOUSE_NO":"１９１號","E_COORD97":170162.70000000001,"N_COORD97":2545253.9100000001,"ADDRESS":"長榮路四段１９１號","OBJECTID":638778},"geometry":{"x":170162.70000000019,"y":2545253.910000002}},{"attributes":{"ID":638806,"DIS_CODE":0,"TOWNNAME":"北區","LI":"振興里","LIN":"4鄰","STREET":"長榮路","SECT":"四段","MAREA":" ","LANE":" ","ALLEY":" ","HOUSE_NO":"１９３號","E_COORD97":170160.63,"N_COORD97":2545257.1800000002,"ADDRESS":"長榮路四段１９３號","OBJECTID":638779},"geometry":{"x":170160.63000000082,"y":2545257.1800000016}},{"attributes":{"ID":638807,"DIS_CODE":0,"TOWNNAME":"北區","LI":"振興里","LIN":"4鄰","STREET":"長榮路","SECT":"四段","MAREA":" ","LANE":" ","ALLEY":" ","HOUSE_NO":"１９５號","E_COORD97":170159.42999999999,"N_COORD97":2545261.4300000002,"ADDRESS":"長榮路四段１９５號","OBJECTID":638780},"geometry":{"x":170159.42999999877,"y":2545261.4299999997}},{"attributes":{"ID":638808,"DIS_CODE":0,"TOWNNAME":"北區","LI":"振興里","LIN":"4鄰","STREET":"長榮路","SECT":"四段","MAREA":" ","LANE":" ","ALLEY":" ","HOUSE_NO":"１９７號","E_COORD97":170158.23000000001,"N_COORD97":2545265.5699999998,"ADDRESS":"長榮路四段１９７號","OBJECTID":638781},"geometry":{"x":170158.23000000231,"y":2545265.5700000022}},{"attributes":{"ID":638809,"DIS_CODE":0,"TOWNNAME":"北區","LI":"振興里","LIN":"4鄰","STREET":"長榮路","SECT":"四段","MAREA":" ","LANE":" ","ALLEY":" ","HOUSE_NO":"１９９號","E_COORD97":170153,"N_COORD97":2545272.3300000001,"ADDRESS":"長榮路四段１９９號","OBJECTID":638782},"geometry":{"x":170153.00000000093,"y":2545272.3300000001}},{"attributes":{"ID":638810,"DIS_CODE":0,"TOWNNAME":"北區","LI":"國姓里","LIN":"4鄰","STREET":"公園路","SECT":" ","MAREA":" ","LANE":" ","ALLEY":" ","HOUSE_NO":"４３５號","E_COORD97":168982.01000000001,"N_COORD97":2545375.8500000001,"ADDRESS":"公園路４３５號","OBJECTID":638783},"geometry":{"x":168982.00999999978,"y":2545375.8500000015}},{"attributes":{"ID":638811,"DIS_CODE":0,"TOWNNAME":"北區","LI":"國姓里","LIN":"4鄰","STREET":"公園路","SECT":" ","MAREA":" ","LANE":" ","ALLEY":" ","HOUSE_NO":"４３５號之１","E_COORD97":168984.5,"N_COORD97":2545379.73,"ADDRESS":"公園路４３５號之１","OBJECTID":638784},"geometry":{"x":168984.49999999907,"y":2545379.7300000023}},{"attributes":{"ID":638812,"DIS_CODE":0,"TOWNNAME":"北區","LI":"國姓里","LIN":"4鄰","STREET":"公園路","SECT":" ","MAREA":" ","LANE":" ","ALLEY":" ","HOUSE_NO":"４３５號之２","E_COORD97":168985.60999999999,"N_COORD97":2545382.7799999998,"ADDRESS":"公園路４３５號之２","OBJECTID":638785},"geometry":{"x":168985.61000000034,"y":2545382.7800000012}},{"attributes":{"ID":638813,"DIS_CODE":0,"TOWNNAME":"北區","LI":"國姓里","LIN":"4鄰","STREET":"公園路","SECT":" ","MAREA":" ","LANE":" ","ALLEY":" ","HOUSE_NO":"４３５號之３","E_COORD97":168986.72,"N_COORD97":2545386.3799999999,"ADDRESS":"公園路４３５號之３","OBJECTID":638786},"geometry":{"x":168986.72000000067,"y":2545386.379999999}},{"attributes":{"ID":638814,"DIS_CODE":0,"TOWNNAME":"北區","LI":"國姓里","LIN":"4鄰","STREET":"公園路","SECT":" ","MAREA":" ","LANE":" ","ALLEY":" ","HOUSE_NO":"４３５號之４","E_COORD97":168988.94,"N_COORD97":2545390.54,"ADDRESS":"公園路４３５號之４","OBJECTID":638787},"geometry":{"x":168988.94000000227,"y":2545390.540000001}},{"attributes":{"ID":638815,"DIS_CODE":0,"TOWNNAME":"北區","LI":"國姓里","LIN":"4鄰","STREET":"公園路","SECT":" ","MAREA":" ","LANE":" ","ALLEY":" ","HOUSE_NO":"４３５號之５","E_COORD97":168989.5,"N_COORD97":2545394.1400000001,"ADDRESS":"公園路４３５號之５","OBJECTID":638788},"geometry":{"x":168989.5,"y":2545394.1400000025}},{"attributes":{"ID":638816,"DIS_CODE":0,"TOWNNAME":"北區","LI":"國姓里","LIN":"4鄰","STREET":"公園路","SECT":" ","MAREA":" ","LANE":" ","ALLEY":" ","HOUSE_NO":"４３９號","E_COORD97":168996.44,"N_COORD97":2545406.0499999998,"ADDRESS":"公園路４３９號","OBJECTID":638789},"geometry":{"x":168996.44000000134,"y":2545406.0500000026}},{"attributes":{"ID":638817,"DIS_CODE":0,"TOWNNAME":"北區","LI":"國姓里","LIN":"4鄰","STREET":"公園路","SECT":" ","MAREA":" ","LANE":" ","ALLEY":" ","HOUSE_NO":"４４１號","E_COORD97":168998.92999999999,"N_COORD97":2545411.04,"ADDRESS":"公園路４４１號","OBJECTID":638790},"geometry":{"x":168998.93000000063,"y":2545411.040000001}},{"attributes":{"ID":638818,"DIS_CODE":0,"TOWNNAME":"北區","LI":"國姓里","LIN":"4鄰","STREET":"公園路","SECT":" ","MAREA":" ","LANE":" ","ALLEY":" ","HOUSE_NO":"４４３號","E_COORD97":169000.60000000001,"N_COORD97":2545415.48,"ADDRESS":"公園路４４３號","OBJECTID":638791},"geometry":{"x":169000.60000000149,"y":2545415.4800000023}},{"attributes":{"ID":638819,"DIS_CODE":0,"TOWNNAME":"北區","LI":"國姓里","LIN":"4鄰","STREET":"公園路","SECT":" ","MAREA":" ","LANE":" ","ALLEY":" ","HOUSE_NO":"４４５號","E_COORD97":169003.37,"N_COORD97":2545419.0800000001,"ADDRESS":"公園路４４５號","OBJECTID":638792},"geometry":{"x":169003.37000000104,"y":2545419.0800000001}},{"attributes":{"ID":638820,"DIS_CODE":0,"TOWNNAME":"北區","LI":"國姓里","LIN":"4鄰","STREET":"公園路","SECT":" ","MAREA":" ","LANE":" ","ALLEY":" ","HOUSE_NO":"４４７號","E_COORD97":169006.42000000001,"N_COORD97":2545425.4500000002,"ADDRESS":"公園路４４７號","OBJECTID":638793},"geometry":{"x":169006.41999999993,"y":2545425.4500000011}},{"attributes":{"ID":638821,"DIS_CODE":0,"TOWNNAME":"北區","LI":"國姓里","LIN":"4鄰","STREET":"公園路","SECT":" ","MAREA":" ","LANE":" ","ALLEY":" ","HOUSE_NO":"４４９號","E_COORD97":169007.81,"N_COORD97":2545427.9399999999,"ADDRESS":"公園路４４９號","OBJECTID":638794},"geometry":{"x":169007.81000000052,"y":2545427.9400000032}},{"attributes":{"ID":638822,"DIS_CODE":0,"TOWNNAME":"北區","LI":"國姓里","LIN":"8鄰","STREET":"小北路","SECT":" ","MAREA":" ","LANE":" ","ALLEY":" ","HOUSE_NO":"９３號","E_COORD97":168952.59,"N_COORD97":2545341.3799999999,"ADDRESS":"小北路９３號","OBJECTID":638795},"geometry":{"x":168952.58999999985,"y":2545341.379999999}},{"attributes":{"ID":638823,"DIS_CODE":0,"TOWNNAME":"北區","LI":"國姓里","LIN":"8鄰","STREET":"小北路","SECT":" ","MAREA":" ","LANE":" ","ALLEY":" ","HOUSE_NO":"９５號","E_COORD97":168953.98000000001,"N_COORD97":2545344.4300000002,"ADDRESS":"小北路９５號","OBJECTID":638796},"geometry":{"x":168953.98000000045,"y":2545344.4300000016}},{"attributes":{"ID":638824,"DIS_CODE":0,"TOWNNAME":"北區","LI":"國姓里","LIN":"8鄰","STREET":"小北路","SECT":" ","MAREA":" ","LANE":" ","ALLEY":" ","HOUSE_NO":"９７號","E_COORD97":168957.59,"N_COORD97":2545348.3100000001,"ADDRESS":"小北路９７號","OBJECTID":638797},"geometry":{"x":168957.58999999985,"y":2545348.3100000042}},{"attributes":{"ID":638825,"DIS_CODE":0,"TOWNNAME":"北區","LI":"國姓里","LIN":"8鄰","STREET":"小北路","SECT":" ","MAREA":" ","LANE":" ","ALLEY":" ","HOUSE_NO":"９９號","E_COORD97":168964.25,"N_COORD97":2545354.1299999999,"ADDRESS":"小北路９９號","OBJECTID":638798},"geometry":{"x":168964.25000000186,"y":2545354.129999999}},{"attributes":{"ID":638826,"DIS_CODE":0,"TOWNNAME":"新營區","LI":"新北里","LIN":"26鄰","STREET":"民治路","SECT":" ","MAREA":" ","LANE":" ","ALLEY":" ","HOUSE_NO":"１５２號","E_COORD97":179165.10000000001,"N_COORD97":2578720.6499999999,"ADDRESS":"民治路１５２號","OBJECTID":638799},"geometry":{"x":179165.10000000056,"y":2578720.6500000041}},{"attributes":{"ID":638827,"DIS_CODE":0,"TOWNNAME":"新營區","LI":"新北里","LIN":"13鄰","STREET":"周武街","SECT":" ","MAREA":" ","LANE":" ","ALLEY":" ","HOUSE_NO":"１０７號","E_COORD97":179345.64999999999,"N_COORD97":2579045.3900000001,"ADDRESS":"周武街１０７號","OBJECTID":638800},"geometry":{"x":179345.6500000013,"y":2579045.3900000025}}]}