{"displayFieldName":"TOWNNAME","fieldAliases":{"ID":"ID","DIS_CODE":"DIS_CODE","TOWNNAME":"TOWNNAME","LI":"LI","LIN":"LIN","STREET":"STREET","SECT":"SECT","MAREA":"MAREA","LANE":"LANE","ALLEY":"ALLEY","HOUSE_NO":"HOUSE_NO","E_COORD97":"E_COORD97","N_COORD97":"N_COORD97","ADDRESS":"ADDRESS","OBJECTID":"OBJECTID"},"geometryType":"esriGeometryPoint","spatialReference":{"wkid":102443,"latestWkid":3826},"fields":[{"name":"ID","type":"esriFieldTypeDouble","alias":"ID"},{"name":"DIS_CODE","type":"esriFieldTypeInteger","alias":"DIS_CODE"},{"name":"TOWNNAME","type":"esriFieldTypeString","alias":"TOWNNAME","length":8},{"name":"LI","type":"esriFieldTypeString","alias":"LI","length":8},{"name":"LIN","type":"esriFieldTypeString","alias":"LIN","length":12},{"name":"STREET","type":"esriFieldTypeString","alias":"STREET","length":20},{"name":"SECT","type":"esriFieldTypeString","alias":"SECT","length":8},{"name":"MAREA","type":"esriFieldTypeString","alias":"MAREA","length":12},{"name":"LANE","type":"esriFieldTypeString","alias":"LANE","length":10},{"name":"ALLEY","type":"esriFieldTypeString","alias":"ALLEY","length":10},{"name":"HOUSE_NO","type":"esriFieldTypeString","alias":"HOUSE_NO","length":20},{"name":"E_COORD97","type":"esriFieldTypeDouble","alias":"E_COORD97"},{"name":"N_COORD97","type":"esriFieldTypeDouble","alias":"N_COORD97"},{"name":"ADDRESS","type":"esriFieldTypeString","alias":"ADDRESS","length":50},{"name":"OBJECTID","type":"esriFieldTypeOID","alias":"OBJECTID"}],"features":[{"attributes":{"ID":49801,"DIS_CODE":0,"TOWNNAME":"北區","LI":"華興里","LIN":"15鄰","STREET":"南園街","SECT":" ","MAREA":" ","LANE":"１２７巷","ALLEY":"１５１弄","HOUSE_NO":"２３號","E_COORD97":170871.26000000001,"N_COORD97":2545516.6200000001,"ADDRESS":"南園街１２７巷１５１弄２３號","OBJECTID":49801},"geometry":{"x":170871.26000000071,"y":2545516.6200000029}},{"attributes":{"ID":49802,"DIS_CODE":0,"TOWNNAME":"北區","LI":"華興里","LIN":"15鄰","STREET":"南園街","SECT":" ","MAREA":" ","LANE":"１２７巷","ALLEY":"１５１弄","HOUSE_NO":"２５號","E_COORD97":170867.95000000001,"N_COORD97":2545519.9300000002,"ADDRESS":"南園街１２７巷１５１弄２５號","OBJECTID":49802},"geometry":{"x":170867.95000000019,"y":2545519.9300000016}},{"attributes":{"ID":49803,"DIS_CODE":0,"TOWNNAME":"北區","LI":"華興里","LIN":"15鄰","STREET":"南園街","SECT":" ","MAREA":" ","LANE":"１２７巷","ALLEY":"１５１弄","HOUSE_NO":"２７號","E_COORD97":170865.35999999999,"N_COORD97":2545522.8199999998,"ADDRESS":"南園街１２７巷１５１弄２７號","OBJECTID":49803},"geometry":{"x":170865.36000000034,"y":2545522.8200000003}},{"attributes":{"ID":49804,"DIS_CODE":0,"TOWNNAME":"官田區","LI":"社子里","LIN":"12鄰","STREET":" ","SECT":" ","MAREA":"六\u25A0","LANE":" ","ALLEY":" ","HOUSE_NO":"１６號之６","E_COORD97":185104.10999999999,"N_COORD97":2562855.1000000001,"ADDRESS":"六\u25A0１６號之６","OBJECTID":49804},"geometry":{"x":185104.11000000127,"y":2562855.0999999996}},{"attributes":{"ID":49805,"DIS_CODE":0,"TOWNNAME":"大內區","LI":"大內里","LIN":"1鄰","STREET":" ","SECT":" ","MAREA":"內庄","LANE":" ","ALLEY":" ","HOUSE_NO":"１號之３３","E_COORD97":184238.06,"N_COORD97":2557633.2999999998,"ADDRESS":"內庄１號之３３","OBJECTID":49805},"geometry":{"x":184238.05999999959,"y":2557633.3000000026}},{"attributes":{"ID":49806,"DIS_CODE":0,"TOWNNAME":"大內區","LI":"大內里","LIN":"1鄰","STREET":" ","SECT":" ","MAREA":"內庄","LANE":" ","ALLEY":" ","HOUSE_NO":"２之１９號","E_COORD97":184362.03,"N_COORD97":2557618.2999999998,"ADDRESS":"內庄２之１９號","OBJECTID":49806},"geometry":{"x":184362.03000000119,"y":2557618.3000000045}},{"attributes":{"ID":49807,"DIS_CODE":0,"TOWNNAME":"大內區","LI":"大內里","LIN":"1鄰","STREET":" ","SECT":" ","MAREA":"內庄","LANE":" ","ALLEY":" ","HOUSE_NO":"１號之７０","E_COORD97":184265.72,"N_COORD97":2557599.2999999998,"ADDRESS":"內庄１號之７０","OBJECTID":49807},"geometry":{"x":184265.72000000067,"y":2557599.3000000026}},{"attributes":{"ID":49808,"DIS_CODE":0,"TOWNNAME":"大內區","LI":"二溪里","LIN":"1鄰","STREET":" ","SECT":" ","MAREA":"二重溪","LANE":" ","ALLEY":" ","HOUSE_NO":"１２６號","E_COORD97":187550.04000000001,"N_COORD97":2557819.3100000001,"ADDRESS":"二重溪１２６號","OBJECTID":49808},"geometry":{"x":187550.0400000019,"y":2557819.3100000024}},{"attributes":{"ID":49809,"DIS_CODE":0,"TOWNNAME":"大內區","LI":"大內里","LIN":"1鄰","STREET":" ","SECT":" ","MAREA":"內庄","LANE":" ","ALLEY":" ","HOUSE_NO":"２號之３","E_COORD97":184271.20999999999,"N_COORD97":2557729.2999999998,"ADDRESS":"內庄２號之３","OBJECTID":49809},"geometry":{"x":184271.21000000089,"y":2557729.3000000007}},{"attributes":{"ID":49810,"DIS_CODE":0,"TOWNNAME":"大內區","LI":"大內里","LIN":"1鄰","STREET":" ","SECT":" ","MAREA":"內庄","LANE":" ","ALLEY":" ","HOUSE_NO":"２號之２０","E_COORD97":184362.82000000001,"N_COORD97":2557610.2999999998,"ADDRESS":"內庄２號之２０","OBJECTID":49810},"geometry":{"x":184362.8200000003,"y":2557610.3000000007}},{"attributes":{"ID":49811,"DIS_CODE":0,"TOWNNAME":"北區","LI":"華興里","LIN":"15鄰","STREET":"南園街","SECT":" ","MAREA":" ","LANE":"１２７巷","ALLEY":"１５１弄","HOUSE_NO":"２９號","E_COORD97":170862.76000000001,"N_COORD97":2545526.1000000001,"ADDRESS":"南園街１２７巷１５１弄２９號","OBJECTID":49811},"geometry":{"x":170862.76000000071,"y":2545526.1000000015}},{"attributes":{"ID":49812,"DIS_CODE":0,"TOWNNAME":"北區","LI":"華興里","LIN":"15鄰","STREET":"南園街","SECT":" ","MAREA":" ","LANE":"１２７巷","ALLEY":"１５１弄","HOUSE_NO":"３１號","E_COORD97":170859.57000000001,"N_COORD97":2545529.1099999999,"ADDRESS":"南園街１２７巷１５１弄３１號","OBJECTID":49812},"geometry":{"x":170859.57000000123,"y":2545529.1100000013}},{"attributes":{"ID":49813,"DIS_CODE":0,"TOWNNAME":"北區","LI":"華興里","LIN":"15鄰","STREET":"南園街","SECT":" ","MAREA":" ","LANE":"１２７巷","ALLEY":"１５１弄","HOUSE_NO":"３３號","E_COORD97":170857.04000000001,"N_COORD97":2545532.7799999998,"ADDRESS":"南園街１２７巷１５１弄３３號","OBJECTID":49813},"geometry":{"x":170857.04000000004,"y":2545532.7799999993}},{"attributes":{"ID":49814,"DIS_CODE":0,"TOWNNAME":"北區","LI":"大港里","LIN":"17鄰","STREET":"中華北路","SECT":"一段","MAREA":" ","LANE":" ","ALLEY":" ","HOUSE_NO":"２７７號","E_COORD97":166492.48000000001,"N_COORD97":2545980.0499999998,"ADDRESS":"中華北路一段２７７號","OBJECTID":49814},"geometry":{"x":166492.48000000045,"y":2545980.0500000007}},{"attributes":{"ID":49815,"DIS_CODE":0,"TOWNNAME":"北區","LI":"大和里","LIN":"17鄰","STREET":"文賢路","SECT":" ","MAREA":" ","LANE":" ","ALLEY":" ","HOUSE_NO":"８６９號","E_COORD97":167286.26000000001,"N_COORD97":2546464.5299999998,"ADDRESS":"文賢路８６９號","OBJECTID":49815},"geometry":{"x":167286.26000000071,"y":2546464.5300000031}},{"attributes":{"ID":49816,"DIS_CODE":0,"TOWNNAME":"北區","LI":"大和里","LIN":"17鄰","STREET":"中華北路","SECT":"一段","MAREA":" ","LANE":" ","ALLEY":" ","HOUSE_NO":"５０８號","E_COORD97":167128.48999999999,"N_COORD97":2546404.9399999999,"ADDRESS":"中華北路一段５０８號","OBJECTID":49816},"geometry":{"x":167128.49000000022,"y":2546404.9400000013}},{"attributes":{"ID":49817,"DIS_CODE":0,"TOWNNAME":"大內區","LI":"大內里","LIN":"1鄰","STREET":" ","SECT":" ","MAREA":"內庄","LANE":" ","ALLEY":" ","HOUSE_NO":"１號之６９","E_COORD97":184261.35000000001,"N_COORD97":2557596.2999999998,"ADDRESS":"內庄１號之６９","OBJECTID":49817},"geometry":{"x":184261.35000000056,"y":2557596.3000000026}},{"attributes":{"ID":49818,"DIS_CODE":0,"TOWNNAME":"大內區","LI":"大內里","LIN":"1鄰","STREET":" ","SECT":" ","MAREA":"內庄","LANE":" ","ALLEY":" ","HOUSE_NO":"２號之４","E_COORD97":184282.54000000001,"N_COORD97":2557735.2999999998,"ADDRESS":"內庄２號之４","OBJECTID":49818},"geometry":{"x":184282.54000000097,"y":2557735.3000000026}},{"attributes":{"ID":49819,"DIS_CODE":0,"TOWNNAME":"大內區","LI":"二溪里","LIN":"1鄰","STREET":" ","SECT":" ","MAREA":"二重溪","LANE":" ","ALLEY":" ","HOUSE_NO":"１３２號","E_COORD97":187576.73999999999,"N_COORD97":2557839.3100000001,"ADDRESS":"二重溪１３２號","OBJECTID":49819},"geometry":{"x":187576.74000000115,"y":2557839.3100000024}},{"attributes":{"ID":49820,"DIS_CODE":0,"TOWNNAME":"大內區","LI":"石林里","LIN":"1鄰","STREET":" ","SECT":" ","MAREA":"石子瀨","LANE":" ","ALLEY":" ","HOUSE_NO":"１２６號之２","E_COORD97":183957.73999999999,"N_COORD97":2558077.2999999998,"ADDRESS":"石子瀨１２６號之２","OBJECTID":49820},"geometry":{"x":183957.74000000022,"y":2558077.3000000026}},{"attributes":{"ID":49821,"DIS_CODE":0,"TOWNNAME":"大內區","LI":"二溪里","LIN":"1鄰","STREET":" ","SECT":" ","MAREA":"二重溪","LANE":" ","ALLEY":" ","HOUSE_NO":"１２７號之６","E_COORD97":187553.28,"N_COORD97":2557766.3100000001,"ADDRESS":"二重溪１２７號之６","OBJECTID":49821},"geometry":{"x":187553.28000000026,"y":2557766.3100000005}},{"attributes":{"ID":49822,"DIS_CODE":0,"TOWNNAME":"大內區","LI":"內江里","LIN":"1鄰","STREET":" ","SECT":" ","MAREA":"內庄","LANE":" ","ALLEY":" ","HOUSE_NO":"２２１號","E_COORD97":184618.17999999999,"N_COORD97":2557288.25,"ADDRESS":"內庄２２１號","OBJECTID":49822},"geometry":{"x":184618.18000000063,"y":2557288.25}},{"attributes":{"ID":49823,"DIS_CODE":0,"TOWNNAME":"大內區","LI":"大內里","LIN":"1鄰","STREET":" ","SECT":" ","MAREA":"內庄","LANE":" ","ALLEY":" ","HOUSE_NO":"３號之３","E_COORD97":184368.10999999999,"N_COORD97":2557587.2999999998,"ADDRESS":"內庄３號之３","OBJECTID":49823},"geometry":{"x":184368.1100000022,"y":2557587.3000000007}},{"attributes":{"ID":49824,"DIS_CODE":0,"TOWNNAME":"大內區","LI":"二溪里","LIN":"1鄰","STREET":" ","SECT":" ","MAREA":"二重溪","LANE":" ","ALLEY":" ","HOUSE_NO":"１２５號之３","E_COORD97":187509.17000000001,"N_COORD97":2557811.3100000001,"ADDRESS":"二重溪１２５號之３","OBJECTID":49824},"geometry":{"x":187509.17000000086,"y":2557811.3100000042}},{"attributes":{"ID":49825,"DIS_CODE":0,"TOWNNAME":"大內區","LI":"二溪里","LIN":"1鄰","STREET":" ","SECT":" ","MAREA":"二重溪","LANE":" ","ALLEY":" ","HOUSE_NO":"１２７號之９","E_COORD97":187562.85999999999,"N_COORD97":2557754.3100000001,"ADDRESS":"二重溪１２７號之９","OBJECTID":49825},"geometry":{"x":187562.86000000034,"y":2557754.3100000024}},{"attributes":{"ID":49826,"DIS_CODE":0,"TOWNNAME":"大內區","LI":"內江里","LIN":"1鄰","STREET":" ","SECT":" ","MAREA":"內庄","LANE":" ","ALLEY":" ","HOUSE_NO":"２２１號之２","E_COORD97":184601.85000000001,"N_COORD97":2557275.2999999998,"ADDRESS":"內庄２２１號之２","OBJECTID":49826},"geometry":{"x":184601.85000000056,"y":2557275.3000000007}},{"attributes":{"ID":49827,"DIS_CODE":0,"TOWNNAME":"大內區","LI":"大內里","LIN":"1鄰","STREET":" ","SECT":" ","MAREA":"內庄","LANE":" ","ALLEY":" ","HOUSE_NO":"７號之１５","E_COORD97":184437.51999999999,"N_COORD97":2557586.2999999998,"ADDRESS":"內庄７號之１５","OBJECTID":49827},"geometry":{"x":184437.52000000048,"y":2557586.3000000007}},{"attributes":{"ID":49828,"DIS_CODE":0,"TOWNNAME":"大內區","LI":"大內里","LIN":"1鄰","STREET":" ","SECT":" ","MAREA":"內庄","LANE":" ","ALLEY":" ","HOUSE_NO":"１號之１６","E_COORD97":184222.07000000001,"N_COORD97":2557661.2999999998,"ADDRESS":"內庄１號之１６","OBJECTID":49828},"geometry":{"x":184222.0700000003,"y":2557661.3000000007}},{"attributes":{"ID":49829,"DIS_CODE":0,"TOWNNAME":"北區","LI":"華興里","LIN":"15鄰","STREET":"開元路","SECT":" ","MAREA":" ","LANE":"４４２巷","ALLEY":"５１弄","HOUSE_NO":"２號","E_COORD97":170855.04999999999,"N_COORD97":2545538.4399999999,"ADDRESS":"開元路４４２巷５１弄２號","OBJECTID":49829},"geometry":{"x":170855.04999999981,"y":2545538.4399999995}},{"attributes":{"ID":49830,"DIS_CODE":0,"TOWNNAME":"北區","LI":"華興里","LIN":"15鄰","STREET":"開元路","SECT":" ","MAREA":" ","LANE":"４４２巷","ALLEY":"５１弄","HOUSE_NO":"４號","E_COORD97":170850.76999999999,"N_COORD97":2545534.1699999999,"ADDRESS":"開元路４４２巷５１弄４號","OBJECTID":49830},"geometry":{"x":170850.77000000048,"y":2545534.1699999999}},{"attributes":{"ID":49831,"DIS_CODE":0,"TOWNNAME":"北區","LI":"開元里","LIN":"15鄰","STREET":"北園街","SECT":" ","MAREA":" ","LANE":"８７巷","ALLEY":"１７１弄","HOUSE_NO":"１０號","E_COORD97":170127.20999999999,"N_COORD97":2546003.9500000002,"ADDRESS":"北園街８７巷１７１弄１０號","OBJECTID":49831},"geometry":{"x":170127.20999999996,"y":2546003.950000003}},{"attributes":{"ID":49832,"DIS_CODE":0,"TOWNNAME":"北區","LI":"開元里","LIN":"15鄰","STREET":"北園街","SECT":" ","MAREA":" ","LANE":"８７巷","ALLEY":"１７１弄","HOUSE_NO":"１２號","E_COORD97":170123,"N_COORD97":2546003.5499999998,"ADDRESS":"北園街８７巷１７１弄１２號","OBJECTID":49832},"geometry":{"x":170123,"y":2546003.5500000007}},{"attributes":{"ID":49833,"DIS_CODE":0,"TOWNNAME":"北區","LI":"開元里","LIN":"15鄰","STREET":"北園街","SECT":" ","MAREA":" ","LANE":"８７巷","ALLEY":"１７１弄","HOUSE_NO":"１４號","E_COORD97":170118.79000000001,"N_COORD97":2546003.5499999998,"ADDRESS":"北園街８７巷１７１弄１４號","OBJECTID":49833},"geometry":{"x":170118.79000000097,"y":2546003.5500000007}},{"attributes":{"ID":49834,"DIS_CODE":0,"TOWNNAME":"北區","LI":"開元里","LIN":"15鄰","STREET":"北園街","SECT":" ","MAREA":" ","LANE":"８７巷","ALLEY":"１７１弄","HOUSE_NO":"１６號","E_COORD97":170115.14999999999,"N_COORD97":2546003.3100000001,"ADDRESS":"北園街８７巷１７１弄１６號","OBJECTID":49834},"geometry":{"x":170115.1500000013,"y":2546003.3100000024}},{"attributes":{"ID":49835,"DIS_CODE":0,"TOWNNAME":"北區","LI":"開元里","LIN":"15鄰","STREET":"北園街","SECT":" ","MAREA":" ","LANE":"８７巷","ALLEY":"１７１弄","HOUSE_NO":"１８號","E_COORD97":170111.19,"N_COORD97":2546003.23,"ADDRESS":"北園街８７巷１７１弄１８號","OBJECTID":49835},"geometry":{"x":170111.19000000227,"y":2546003.2300000042}},{"attributes":{"ID":49836,"DIS_CODE":0,"TOWNNAME":"北區","LI":"開元里","LIN":"15鄰","STREET":"北園街","SECT":" ","MAREA":" ","LANE":"８７巷","ALLEY":"１７１弄","HOUSE_NO":"２０號","E_COORD97":170107.22,"N_COORD97":2546002.98,"ADDRESS":"北園街８７巷１７１弄２０號","OBJECTID":49836},"geometry":{"x":170107.22000000067,"y":2546002.9800000023}},{"attributes":{"ID":49837,"DIS_CODE":0,"TOWNNAME":"北區","LI":"開元里","LIN":"15鄰","STREET":"北園街","SECT":" ","MAREA":" ","LANE":"８７巷","ALLEY":"１７１弄","HOUSE_NO":"２２號","E_COORD97":170102.76999999999,"N_COORD97":2546002.98,"ADDRESS":"北園街８７巷１７１弄２２號","OBJECTID":49837},"geometry":{"x":170102.77000000142,"y":2546002.9800000023}},{"attributes":{"ID":49838,"DIS_CODE":0,"TOWNNAME":"北區","LI":"開元里","LIN":"15鄰","STREET":"北園街","SECT":" ","MAREA":" ","LANE":"８７巷","ALLEY":"１７１弄","HOUSE_NO":"２４號","E_COORD97":170098.97,"N_COORD97":2546002.8999999999,"ADDRESS":"北園街８７巷１７１弄２４號","OBJECTID":49838},"geometry":{"x":170098.97000000067,"y":2546002.9000000022}},{"attributes":{"ID":49839,"DIS_CODE":0,"TOWNNAME":"北區","LI":"開元里","LIN":"15鄰","STREET":"北園街","SECT":" ","MAREA":" ","LANE":"８７巷","ALLEY":"１７１弄","HOUSE_NO":"２６號","E_COORD97":170094.92000000001,"N_COORD97":2546003.6299999999,"ADDRESS":"北園街８７巷１７１弄２６號","OBJECTID":49839},"geometry":{"x":170094.91999999993,"y":2546003.6300000008}},{"attributes":{"ID":49840,"DIS_CODE":0,"TOWNNAME":"北區","LI":"開元里","LIN":"15鄰","STREET":"北園街","SECT":" ","MAREA":" ","LANE":"８７巷","ALLEY":"１７１弄","HOUSE_NO":"２８號","E_COORD97":170092.13,"N_COORD97":2546001.04,"ADDRESS":"北園街８７巷１７１弄２８號","OBJECTID":49840},"geometry":{"x":170092.12999999989,"y":2546001.040000001}},{"attributes":{"ID":49841,"DIS_CODE":0,"TOWNNAME":"大內區","LI":"大內里","LIN":"1鄰","STREET":" ","SECT":" ","MAREA":"內庄","LANE":" ","ALLEY":" ","HOUSE_NO":"１號之４０","E_COORD97":184252.22,"N_COORD97":2557605.2999999998,"ADDRESS":"內庄１號之４０","OBJECTID":49841},"geometry":{"x":184252.22000000067,"y":2557605.3000000026}},{"attributes":{"ID":49842,"DIS_CODE":0,"TOWNNAME":"大內區","LI":"大內里","LIN":"1鄰","STREET":" ","SECT":" ","MAREA":"內庄","LANE":" ","ALLEY":" ","HOUSE_NO":"１號之４２","E_COORD97":184273.29999999999,"N_COORD97":2557617.2999999998,"ADDRESS":"內庄１號之４２","OBJECTID":49842},"geometry":{"x":184273.30000000075,"y":2557617.3000000007}},{"attributes":{"ID":49843,"DIS_CODE":0,"TOWNNAME":"北區","LI":"開元里","LIN":"15鄰","STREET":"北園街","SECT":" ","MAREA":" ","LANE":"８７巷","ALLEY":"１７１弄","HOUSE_NO":"２號","E_COORD97":170142.5,"N_COORD97":2546003.9500000002,"ADDRESS":"北園街８７巷１７１弄２號","OBJECTID":49843},"geometry":{"x":170142.50000000186,"y":2546003.950000003}},{"attributes":{"ID":49844,"DIS_CODE":0,"TOWNNAME":"大內區","LI":"大內里","LIN":"1鄰","STREET":" ","SECT":" ","MAREA":"內庄","LANE":" ","ALLEY":" ","HOUSE_NO":"１號之７３","E_COORD97":184276.85999999999,"N_COORD97":2557604.2999999998,"ADDRESS":"內庄１號之７３","OBJECTID":49844},"geometry":{"x":184276.86000000127,"y":2557604.3000000007}},{"attributes":{"ID":49845,"DIS_CODE":0,"TOWNNAME":"大內區","LI":"大內里","LIN":"1鄰","STREET":" ","SECT":" ","MAREA":"內庄","LANE":" ","ALLEY":" ","HOUSE_NO":"１號之７","E_COORD97":184208.59,"N_COORD97":2557688.2999999998,"ADDRESS":"內庄１號之７","OBJECTID":49845},"geometry":{"x":184208.59000000078,"y":2557688.3000000007}},{"attributes":{"ID":49846,"DIS_CODE":0,"TOWNNAME":"大內區","LI":"大內里","LIN":"1鄰","STREET":" ","SECT":" ","MAREA":"內庄","LANE":" ","ALLEY":" ","HOUSE_NO":"１號之５７","E_COORD97":184290.94,"N_COORD97":2557551.2999999998,"ADDRESS":"內庄１號之５７","OBJECTID":49846},"geometry":{"x":184290.94000000041,"y":2557551.3000000026}},{"attributes":{"ID":49847,"DIS_CODE":0,"TOWNNAME":"北區","LI":"開元里","LIN":"15鄰","STREET":"北園街","SECT":" ","MAREA":" ","LANE":"８７巷","ALLEY":"１７１弄","HOUSE_NO":"３０號","E_COORD97":170089.95000000001,"N_COORD97":2545997.3199999998,"ADDRESS":"北園街８７巷１７１弄３０號","OBJECTID":49847},"geometry":{"x":170089.95000000019,"y":2545997.3200000003}},{"attributes":{"ID":49848,"DIS_CODE":0,"TOWNNAME":"北區","LI":"公園里","LIN":"17鄰","STREET":"成功路","SECT":" ","MAREA":" ","LANE":"４０巷","ALLEY":" ","HOUSE_NO":"６號","E_COORD97":168834.03,"N_COORD97":2544320.7200000002,"ADDRESS":"成功路４０巷６號","OBJECTID":49848},"geometry":{"x":168834.03000000119,"y":2544320.7200000007}},{"attributes":{"ID":49849,"DIS_CODE":0,"TOWNNAME":"大內區","LI":"大內里","LIN":"1鄰","STREET":" ","SECT":" ","MAREA":"內庄","LANE":" ","ALLEY":" ","HOUSE_NO":"１號之２０","E_COORD97":184230.32000000001,"N_COORD97":2557646.2999999998,"ADDRESS":"內庄１號之２０","OBJECTID":49849},"geometry":{"x":184230.3200000003,"y":2557646.3000000026}},{"attributes":{"ID":49850,"DIS_CODE":0,"TOWNNAME":"關廟區","LI":"五甲里","LIN":"17鄰","STREET":"五權街","SECT":" ","MAREA":" ","LANE":" ","ALLEY":" ","HOUSE_NO":"３３號","E_COORD97":181087.42000000001,"N_COORD97":2539094.25,"ADDRESS":"五權街３３號","OBJECTID":49850},"geometry":{"x":181087.42000000086,"y":2539094.2500000019}},{"attributes":{"ID":49851,"DIS_CODE":0,"TOWNNAME":"大內區","LI":"二溪里","LIN":"1鄰","STREET":" ","SECT":" ","MAREA":"二重溪","LANE":" ","ALLEY":" ","HOUSE_NO":"１３４號","E_COORD97":187589.23999999999,"N_COORD97":2557850.3100000001,"ADDRESS":"二重溪１３４號","OBJECTID":49851},"geometry":{"x":187589.24000000022,"y":2557850.3100000024}},{"attributes":{"ID":49852,"DIS_CODE":0,"TOWNNAME":"大內區","LI":"石林里","LIN":"1鄰","STREET":" ","SECT":" ","MAREA":"石子瀨","LANE":" ","ALLEY":" ","HOUSE_NO":"１３４之１號","E_COORD97":183983.37,"N_COORD97":2558095.2999999998,"ADDRESS":"石子瀨１３４之１號","OBJECTID":49852},"geometry":{"x":183983.37000000104,"y":2558095.3000000007}},{"attributes":{"ID":49853,"DIS_CODE":0,"TOWNNAME":"北區","LI":"公園里","LIN":"17鄰","STREET":"成功路","SECT":" ","MAREA":" ","LANE":" ","ALLEY":" ","HOUSE_NO":"３８號","E_COORD97":168817.85999999999,"N_COORD97":2544283.3399999999,"ADDRESS":"成功路３８號","OBJECTID":49853},"geometry":{"x":168817.86000000034,"y":2544283.3400000017}},{"attributes":{"ID":49854,"DIS_CODE":0,"TOWNNAME":"北區","LI":"公園里","LIN":"17鄰","STREET":"成功路","SECT":" ","MAREA":" ","LANE":" ","ALLEY":" ","HOUSE_NO":"４６號","E_COORD97":168805,"N_COORD97":2544284.3399999999,"ADDRESS":"成功路４６號","OBJECTID":49854},"geometry":{"x":168805.00000000186,"y":2544284.3400000017}},{"attributes":{"ID":49855,"DIS_CODE":0,"TOWNNAME":"北區","LI":"公園里","LIN":"17鄰","STREET":"成功路","SECT":" ","MAREA":" ","LANE":" ","ALLEY":" ","HOUSE_NO":"４８號","E_COORD97":168792.14000000001,"N_COORD97":2544286.3500000001,"ADDRESS":"成功路４８號","OBJECTID":49855},"geometry":{"x":168792.1400000006,"y":2544286.3500000015}},{"attributes":{"ID":49856,"DIS_CODE":0,"TOWNNAME":"新營區","LI":"新北里","LIN":"17鄰","STREET":"南新街","SECT":" ","MAREA":" ","LANE":" ","ALLEY":" ","HOUSE_NO":"９１號","E_COORD97":179203.39999999999,"N_COORD97":2578869.98,"ADDRESS":"南新街９１號","OBJECTID":49856},"geometry":{"x":179203.4000000013,"y":2578869.9800000004}},{"attributes":{"ID":49857,"DIS_CODE":0,"TOWNNAME":"大內區","LI":"內江里","LIN":"1鄰","STREET":" ","SECT":" ","MAREA":"內庄","LANE":" ","ALLEY":" ","HOUSE_NO":"２２２號之１","E_COORD97":184597.51000000001,"N_COORD97":2557284.2999999998,"ADDRESS":"內庄２２２號之１","OBJECTID":49857},"geometry":{"x":184597.51000000071,"y":2557284.3000000026}},{"attributes":{"ID":49858,"DIS_CODE":0,"TOWNNAME":"新營區","LI":"三仙里","LIN":"17鄰","STREET":"三民路","SECT":" ","MAREA":" ","LANE":" ","ALLEY":" ","HOUSE_NO":"１０１之１３號","E_COORD97":179613.12,"N_COORD97":2578363.4100000001,"ADDRESS":"三民路１０１之１３號","OBJECTID":49858},"geometry":{"x":179613.12000000104,"y":2578363.410000002}},{"attributes":{"ID":49859,"DIS_CODE":0,"TOWNNAME":"新營區","LI":"三仙里","LIN":"17鄰","STREET":"三民路","SECT":" ","MAREA":" ","LANE":" ","ALLEY":" ","HOUSE_NO":"１１７號","E_COORD97":179483.56,"N_COORD97":2578365.8599999999,"ADDRESS":"三民路１１７號","OBJECTID":49859},"geometry":{"x":179483.55999999959,"y":2578365.8600000031}},{"attributes":{"ID":49860,"DIS_CODE":0,"TOWNNAME":"新營區","LI":"三仙里","LIN":"17鄰","STREET":"三民路","SECT":" ","MAREA":" ","LANE":" ","ALLEY":" ","HOUSE_NO":"１０１之１７號","E_COORD97":179602.04999999999,"N_COORD97":2578401.9100000001,"ADDRESS":"三民路１０１之１７號","OBJECTID":49860},"geometry":{"x":179602.04999999981,"y":2578401.9100000001}},{"attributes":{"ID":49861,"DIS_CODE":0,"TOWNNAME":"新營區","LI":"民榮里","LIN":"17鄰","STREET":"新進路","SECT":"二段","MAREA":" ","LANE":" ","ALLEY":" ","HOUSE_NO":"２１６號","E_COORD97":179116.53,"N_COORD97":2577747.4399999999,"ADDRESS":"新進路二段２１６號","OBJECTID":49861},"geometry":{"x":179116.53000000026,"y":2577747.4399999995}},{"attributes":{"ID":49862,"DIS_CODE":0,"TOWNNAME":"東山區","LI":"聖賢里","LIN":"1鄰","STREET":" ","SECT":" ","MAREA":"北勢寮","LANE":" ","ALLEY":" ","HOUSE_NO":"１號","E_COORD97":184925.29000000001,"N_COORD97":2579416.3100000001,"ADDRESS":"北勢寮１號","OBJECTID":49862},"geometry":{"x":184925.29000000004,"y":2579416.3100000024}},{"attributes":{"ID":49863,"DIS_CODE":0,"TOWNNAME":"大內區","LI":"內郭里","LIN":"1鄰","STREET":" ","SECT":" ","MAREA":"內庄","LANE":" ","ALLEY":" ","HOUSE_NO":"１５３號之１","E_COORD97":184888.51000000001,"N_COORD97":2557443.2999999998,"ADDRESS":"內庄１５３號之１","OBJECTID":49863},"geometry":{"x":184888.51000000164,"y":2557443.3000000026}},{"attributes":{"ID":49864,"DIS_CODE":0,"TOWNNAME":"北區","LI":"開元里","LIN":"15鄰","STREET":"北園街","SECT":" ","MAREA":" ","LANE":"８７巷","ALLEY":"１７１弄","HOUSE_NO":"３２號","E_COORD97":170087.60000000001,"N_COORD97":2545994.25,"ADDRESS":"北園街８７巷１７１弄３２號","OBJECTID":49864},"geometry":{"x":170087.60000000056,"y":2545994.25}},{"attributes":{"ID":49865,"DIS_CODE":0,"TOWNNAME":"北區","LI":"開元里","LIN":"15鄰","STREET":"北園街","SECT":" ","MAREA":" ","LANE":"８７巷","ALLEY":"１７１弄","HOUSE_NO":"３４號","E_COORD97":170085.25,"N_COORD97":2545991.25,"ADDRESS":"北園街８７巷１７１弄３４號","OBJECTID":49865},"geometry":{"x":170085.25000000093,"y":2545991.25}},{"attributes":{"ID":49866,"DIS_CODE":0,"TOWNNAME":"大內區","LI":"大內里","LIN":"1鄰","STREET":" ","SECT":" ","MAREA":"內庄","LANE":" ","ALLEY":" ","HOUSE_NO":"１號之３４","E_COORD97":184240.09,"N_COORD97":2557629.2999999998,"ADDRESS":"內庄１號之３４","OBJECTID":49866},"geometry":{"x":184240.08999999985,"y":2557629.3000000026}},{"attributes":{"ID":49867,"DIS_CODE":0,"TOWNNAME":"北區","LI":"開元里","LIN":"15鄰","STREET":"北園街","SECT":" ","MAREA":" ","LANE":"８７巷","ALLEY":"１７１弄","HOUSE_NO":"３６號","E_COORD97":170083.38,"N_COORD97":2545987.6000000001,"ADDRESS":"北園街８７巷１７１弄３６號","OBJECTID":49867},"geometry":{"x":170083.37999999989,"y":2545987.6000000015}},{"attributes":{"ID":49868,"DIS_CODE":0,"TOWNNAME":"大內區","LI":"二溪里","LIN":"1鄰","STREET":" ","SECT":" ","MAREA":"二重溪","LANE":" ","ALLEY":" ","HOUSE_NO":"１２６號之２","E_COORD97":187520.10999999999,"N_COORD97":2557764.3100000001,"ADDRESS":"二重溪１２６號之２","OBJECTID":49868},"geometry":{"x":187520.11000000127,"y":2557764.3100000024}},{"attributes":{"ID":49869,"DIS_CODE":0,"TOWNNAME":"大內區","LI":"內江里","LIN":"1鄰","STREET":" ","SECT":" ","MAREA":"內庄","LANE":" ","ALLEY":" ","HOUSE_NO":"２２１號之４","E_COORD97":184604.73999999999,"N_COORD97":2557268.2999999998,"ADDRESS":"內庄２２１號之４","OBJECTID":49869},"geometry":{"x":184604.74000000115,"y":2557268.3000000007}},{"attributes":{"ID":49870,"DIS_CODE":0,"TOWNNAME":"北區","LI":"開元里","LIN":"15鄰","STREET":"北園街","SECT":" ","MAREA":" ","LANE":"８７巷","ALLEY":"１７１弄","HOUSE_NO":"３８號","E_COORD97":170080.87,"N_COORD97":2545984.1000000001,"ADDRESS":"北園街８７巷１７１弄３８號","OBJECTID":49870},"geometry":{"x":170080.87000000104,"y":2545984.1000000015}},{"attributes":{"ID":49871,"DIS_CODE":0,"TOWNNAME":"北區","LI":"開元里","LIN":"15鄰","STREET":"北園街","SECT":" ","MAREA":" ","LANE":"８７巷","ALLEY":"１７１弄","HOUSE_NO":"４０號","E_COORD97":170078.53,"N_COORD97":2545980.8700000001,"ADDRESS":"北園街８７巷１７１弄４０號","OBJECTID":49871},"geometry":{"x":170078.53000000119,"y":2545980.870000001}},{"attributes":{"ID":49872,"DIS_CODE":0,"TOWNNAME":"北區","LI":"開元里","LIN":"15鄰","STREET":"北園街","SECT":" ","MAREA":" ","LANE":"８７巷","ALLEY":"１７１弄","HOUSE_NO":"４２號","E_COORD97":170076.73999999999,"N_COORD97":2545977.6899999999,"ADDRESS":"北園街８７巷１７１弄４２號","OBJECTID":49872},"geometry":{"x":170076.74000000209,"y":2545977.6899999995}},{"attributes":{"ID":49873,"DIS_CODE":0,"TOWNNAME":"北區","LI":"開元里","LIN":"15鄰","STREET":"北園街","SECT":" ","MAREA":" ","LANE":"８７巷","ALLEY":"１７１弄","HOUSE_NO":"４４號","E_COORD97":170074.73000000001,"N_COORD97":2545974.5499999998,"ADDRESS":"北園街８７巷１７１弄４４號","OBJECTID":49873},"geometry":{"x":170074.73000000045,"y":2545974.5500000026}},{"attributes":{"ID":49874,"DIS_CODE":0,"TOWNNAME":"北區","LI":"開元里","LIN":"15鄰","STREET":"北園街","SECT":" ","MAREA":" ","LANE":"８７巷","ALLEY":"１７１弄","HOUSE_NO":"４６號","E_COORD97":170071.07000000001,"N_COORD97":2545969.75,"ADDRESS":"北園街８７巷１７１弄４６號","OBJECTID":49874},"geometry":{"x":170071.07000000216,"y":2545969.7500000019}},{"attributes":{"ID":49875,"DIS_CODE":0,"TOWNNAME":"大內區","LI":"大內里","LIN":"1鄰","STREET":" ","SECT":" ","MAREA":"內庄","LANE":" ","ALLEY":" ","HOUSE_NO":"２號之１１","E_COORD97":184349.26000000001,"N_COORD97":2557659.2999999998,"ADDRESS":"內庄２號之１１","OBJECTID":49875},"geometry":{"x":184349.25999999978,"y":2557659.3000000045}},{"attributes":{"ID":49876,"DIS_CODE":0,"TOWNNAME":"北區","LI":"開元里","LIN":"15鄰","STREET":"北園街","SECT":" ","MAREA":" ","LANE":"８７巷","ALLEY":"１７１弄","HOUSE_NO":"４８號","E_COORD97":170068.64999999999,"N_COORD97":2545966.2000000002,"ADDRESS":"北園街８７巷１７１弄４８號","OBJECTID":49876},"geometry":{"x":170068.65000000037,"y":2545966.2000000011}},{"attributes":{"ID":49877,"DIS_CODE":0,"TOWNNAME":"北區","LI":"開元里","LIN":"15鄰","STREET":"北園街","SECT":" ","MAREA":" ","LANE":"８７巷","ALLEY":"１７１弄","HOUSE_NO":"４號","E_COORD97":170138.53,"N_COORD97":2546003.79,"ADDRESS":"北園街８７巷１７１弄４號","OBJECTID":49877},"geometry":{"x":170138.53000000026,"y":2546003.7899999991}},{"attributes":{"ID":49878,"DIS_CODE":0,"TOWNNAME":"大內區","LI":"大內里","LIN":"1鄰","STREET":" ","SECT":" ","MAREA":"內庄","LANE":" ","ALLEY":" ","HOUSE_NO":"１號之３９","E_COORD97":184250.25,"N_COORD97":2557609.2999999998,"ADDRESS":"內庄１號之３９","OBJECTID":49878},"geometry":{"x":184250.25000000093,"y":2557609.3000000026}},{"attributes":{"ID":49879,"DIS_CODE":0,"TOWNNAME":"大內區","LI":"大內里","LIN":"1鄰","STREET":" ","SECT":" ","MAREA":"內庄","LANE":" ","ALLEY":" ","HOUSE_NO":"１號之１８","E_COORD97":184226.20999999999,"N_COORD97":2557654.2999999998,"ADDRESS":"內庄１號之１８","OBJECTID":49879},"geometry":{"x":184226.20999999903,"y":2557654.3000000007}},{"attributes":{"ID":49880,"DIS_CODE":0,"TOWNNAME":"大內區","LI":"大內里","LIN":"1鄰","STREET":" ","SECT":" ","MAREA":"內庄","LANE":" ","ALLEY":" ","HOUSE_NO":"１號之２５","E_COORD97":184249.42000000001,"N_COORD97":2557650.2999999998,"ADDRESS":"內庄１號之２５","OBJECTID":49880},"geometry":{"x":184249.41999999993,"y":2557650.3000000026}},{"attributes":{"ID":49881,"DIS_CODE":0,"TOWNNAME":"大內區","LI":"二溪里","LIN":"1鄰","STREET":" ","SECT":" ","MAREA":"二重溪","LANE":" ","ALLEY":" ","HOUSE_NO":"１２９號","E_COORD97":187616.73999999999,"N_COORD97":2557793.3100000001,"ADDRESS":"二重溪１２９號","OBJECTID":49881},"geometry":{"x":187616.74000000209,"y":2557793.3100000005}},{"attributes":{"ID":49882,"DIS_CODE":0,"TOWNNAME":"大內區","LI":"二溪里","LIN":"1鄰","STREET":" ","SECT":" ","MAREA":"二重溪","LANE":" ","ALLEY":" ","HOUSE_NO":"１２８號之１","E_COORD97":187607.17999999999,"N_COORD97":2557782.3100000001,"ADDRESS":"二重溪１２８號之１","OBJECTID":49882},"geometry":{"x":187607.18000000063,"y":2557782.3100000024}},{"attributes":{"ID":49883,"DIS_CODE":0,"TOWNNAME":"北區","LI":"開元里","LIN":"15鄰","STREET":"北園街","SECT":" ","MAREA":" ","LANE":"８７巷","ALLEY":"１７１弄","HOUSE_NO":"６號","E_COORD97":170135.62,"N_COORD97":2546003.8700000001,"ADDRESS":"北園街８７巷１７１弄６號","OBJECTID":49883},"geometry":{"x":170135.62000000104,"y":2546003.8700000029}},{"attributes":{"ID":49884,"DIS_CODE":0,"TOWNNAME":"大內區","LI":"大內里","LIN":"1鄰","STREET":" ","SECT":" ","MAREA":"內庄","LANE":" ","ALLEY":" ","HOUSE_NO":"１號之６１","E_COORD97":184265.95999999999,"N_COORD97":2557557.2999999998,"ADDRESS":"內庄１號之６１","OBJECTID":49884},"geometry":{"x":184265.96000000089,"y":2557557.3000000045}},{"attributes":{"ID":49885,"DIS_CODE":0,"TOWNNAME":"大內區","LI":"大內里","LIN":"1鄰","STREET":" ","SECT":" ","MAREA":"內庄","LANE":" ","ALLEY":" ","HOUSE_NO":"１號之６３","E_COORD97":184257.45999999999,"N_COORD97":2557562.2999999998,"ADDRESS":"內庄１號之６３","OBJECTID":49885},"geometry":{"x":184257.46000000089,"y":2557562.3000000026}},{"attributes":{"ID":49886,"DIS_CODE":0,"TOWNNAME":"大內區","LI":"石林里","LIN":"1鄰","STREET":" ","SECT":" ","MAREA":"石子瀨","LANE":" ","ALLEY":" ","HOUSE_NO":"１２６號之１","E_COORD97":183944.60000000001,"N_COORD97":2558099.2999999998,"ADDRESS":"石子瀨１２６號之１","OBJECTID":49886},"geometry":{"x":183944.59999999963,"y":2558099.3000000007}},{"attributes":{"ID":49887,"DIS_CODE":0,"TOWNNAME":"大內區","LI":"二溪里","LIN":"1鄰","STREET":" ","SECT":" ","MAREA":"二重溪","LANE":" ","ALLEY":" ","HOUSE_NO":"１３１號","E_COORD97":187582.34,"N_COORD97":2557817.3100000001,"ADDRESS":"二重溪１３１號","OBJECTID":49887},"geometry":{"x":187582.34000000078,"y":2557817.3100000005}},{"attributes":{"ID":49888,"DIS_CODE":0,"TOWNNAME":"大內區","LI":"大內里","LIN":"1鄰","STREET":" ","SECT":" ","MAREA":"內庄","LANE":" ","ALLEY":" ","HOUSE_NO":"１號之５４","E_COORD97":184306.48999999999,"N_COORD97":2557546.2999999998,"ADDRESS":"內庄１號之５４","OBJECTID":49888},"geometry":{"x":184306.49000000115,"y":2557546.3000000007}},{"attributes":{"ID":49889,"DIS_CODE":0,"TOWNNAME":"北區","LI":"開元里","LIN":"15鄰","STREET":"北園街","SECT":" ","MAREA":" ","LANE":"８７巷","ALLEY":"１７１弄","HOUSE_NO":"８號","E_COORD97":170131.17000000001,"N_COORD97":2546003.79,"ADDRESS":"北園街８７巷１７１弄８號","OBJECTID":49889},"geometry":{"x":170131.17000000086,"y":2546003.7899999991}},{"attributes":{"ID":49890,"DIS_CODE":0,"TOWNNAME":"北區","LI":"重興里","LIN":"15鄰","STREET":"開南街","SECT":" ","MAREA":" ","LANE":"１４３巷","ALLEY":"５０弄","HOUSE_NO":"４４號","E_COORD97":170787.91,"N_COORD97":2545218.2599999998,"ADDRESS":"開南街１４３巷５０弄４４號","OBJECTID":49890},"geometry":{"x":170787.91000000108,"y":2545218.2599999998}},{"attributes":{"ID":49891,"DIS_CODE":0,"TOWNNAME":"大內區","LI":"大內里","LIN":"1鄰","STREET":" ","SECT":" ","MAREA":"內庄","LANE":" ","ALLEY":" ","HOUSE_NO":"１號之５","E_COORD97":184180.97,"N_COORD97":2557630.2999999998,"ADDRESS":"內庄１號之５","OBJECTID":49891},"geometry":{"x":184180.97000000067,"y":2557630.3000000007}},{"attributes":{"ID":49892,"DIS_CODE":0,"TOWNNAME":"大內區","LI":"內郭里","LIN":"1鄰","STREET":" ","SECT":" ","MAREA":"內庄","LANE":" ","ALLEY":" ","HOUSE_NO":"１５３號之２","E_COORD97":184904.64999999999,"N_COORD97":2557462.2999999998,"ADDRESS":"內庄１５３號之２","OBJECTID":49892},"geometry":{"x":184904.65000000037,"y":2557462.2999999989}},{"attributes":{"ID":49893,"DIS_CODE":0,"TOWNNAME":"大內區","LI":"內江里","LIN":"1鄰","STREET":" ","SECT":" ","MAREA":"內庄","LANE":" ","ALLEY":" ","HOUSE_NO":"２１９號","E_COORD97":184641.17999999999,"N_COORD97":2557289.25,"ADDRESS":"內庄２１９號","OBJECTID":49893},"geometry":{"x":184641.1799999997,"y":2557289.2500000037}},{"attributes":{"ID":49894,"DIS_CODE":0,"TOWNNAME":"北區","LI":"重興里","LIN":"15鄰","STREET":"開南街","SECT":" ","MAREA":" ","LANE":"１４３巷","ALLEY":"５０弄","HOUSE_NO":"２２號","E_COORD97":170737.57999999999,"N_COORD97":2545223.5,"ADDRESS":"開南街１４３巷５０弄２２號","OBJECTID":49894},"geometry":{"x":170737.58000000101,"y":2545223.5}},{"attributes":{"ID":49895,"DIS_CODE":0,"TOWNNAME":"大內區","LI":"大內里","LIN":"1鄰","STREET":" ","SECT":" ","MAREA":"內庄","LANE":" ","ALLEY":" ","HOUSE_NO":"１號之２９","E_COORD97":184254.64999999999,"N_COORD97":2557644.2999999998,"ADDRESS":"內庄１號之２９","OBJECTID":49895},"geometry":{"x":184254.6500000013,"y":2557644.3000000007}},{"attributes":{"ID":49896,"DIS_CODE":0,"TOWNNAME":"新營區","LI":"新南里","LIN":"17鄰","STREET":"隋唐街","SECT":" ","MAREA":" ","LANE":" ","ALLEY":" ","HOUSE_NO":"４１號","E_COORD97":178682.14999999999,"N_COORD97":2578503.6899999999,"ADDRESS":"隋唐街４１號","OBJECTID":49896},"geometry":{"x":178682.15000000224,"y":2578503.6900000013}},{"attributes":{"ID":49897,"DIS_CODE":0,"TOWNNAME":"大內區","LI":"大內里","LIN":"1鄰","STREET":" ","SECT":" ","MAREA":"內庄","LANE":" ","ALLEY":" ","HOUSE_NO":"８號之２","E_COORD97":184495.54999999999,"N_COORD97":2557556.4100000001,"ADDRESS":"內庄８號之２","OBJECTID":49897},"geometry":{"x":184495.55000000075,"y":2557556.410000002}},{"attributes":{"ID":49898,"DIS_CODE":0,"TOWNNAME":"新營區","LI":"嘉芳里","LIN":"15鄰","STREET":"復興路","SECT":" ","MAREA":" ","LANE":"１０７０巷","ALLEY":"４０弄","HOUSE_NO":"２４號","E_COORD97":176214.29999999999,"N_COORD97":2578982.0299999998,"ADDRESS":"復興路１０７０巷４０弄２４號","OBJECTID":49898},"geometry":{"x":176214.30000000075,"y":2578982.0300000012}},{"attributes":{"ID":49899,"DIS_CODE":0,"TOWNNAME":"仁德區","LI":"仁義里","LIN":" ","STREET":"中正路","SECT":"二段","MAREA":" ","LANE":" ","ALLEY":" ","HOUSE_NO":"７７２號","E_COORD97":173476.98999999999,"N_COORD97":2540136.2799999998,"ADDRESS":"中正路二段７７２號","OBJECTID":49899},"geometry":{"x":173476.99000000022,"y":2540136.2800000031}},{"attributes":{"ID":49900,"DIS_CODE":0,"TOWNNAME":"新營區","LI":"嘉芳里","LIN":"15鄰","STREET":"復興路","SECT":" ","MAREA":" ","LANE":"１０７０巷","ALLEY":"３８弄","HOUSE_NO":"２７號","E_COORD97":176224.42000000001,"N_COORD97":2578960.9399999999,"ADDRESS":"復興路１０７０巷３８弄２７號","OBJECTID":49900},"geometry":{"x":176224.41999999993,"y":2578960.9399999995}},{"attributes":{"ID":49901,"DIS_CODE":0,"TOWNNAME":"新營區","LI":"嘉芳里","LIN":"15鄰","STREET":"復興路","SECT":" ","MAREA":" ","LANE":"１０７０巷","ALLEY":"３８弄","HOUSE_NO":"３１號","E_COORD97":176234.67000000001,"N_COORD97":2578959.7799999998,"ADDRESS":"復興路１０７０巷３８弄３１號","OBJECTID":49901},"geometry":{"x":176234.66999999993,"y":2578959.7800000012}},{"attributes":{"ID":49902,"DIS_CODE":0,"TOWNNAME":"新營區","LI":"嘉芳里","LIN":"15鄰","STREET":"復興路","SECT":" ","MAREA":" ","LANE":"１０７０巷","ALLEY":"３８弄","HOUSE_NO":"１５號","E_COORD97":176193.69,"N_COORD97":2578965.52,"ADDRESS":"復興路１０７０巷３８弄１５號","OBJECTID":49902},"geometry":{"x":176193.69000000134,"y":2578965.5200000014}},{"attributes":{"ID":49903,"DIS_CODE":0,"TOWNNAME":"新營區","LI":"嘉芳里","LIN":"15鄰","STREET":"復興路","SECT":" ","MAREA":" ","LANE":"１０７０巷","ALLEY":"４０弄","HOUSE_NO":"１４號","E_COORD97":176194.81,"N_COORD97":2578985.4399999999,"ADDRESS":"復興路１０７０巷４０弄１４號","OBJECTID":49903},"geometry":{"x":176194.80999999959,"y":2578985.4399999976}},{"attributes":{"ID":49904,"DIS_CODE":0,"TOWNNAME":"新營區","LI":"新東里","LIN":"15鄰","STREET":"東泰一街","SECT":" ","MAREA":" ","LANE":"２巷","ALLEY":"１弄","HOUSE_NO":"１號","E_COORD97":181095.60999999999,"N_COORD97":2579565.3900000001,"ADDRESS":"東泰一街２巷１弄１號","OBJECTID":49904},"geometry":{"x":181095.61000000034,"y":2579565.3900000006}},{"attributes":{"ID":49905,"DIS_CODE":0,"TOWNNAME":"新營區","LI":"嘉芳里","LIN":"15鄰","STREET":"復興路","SECT":" ","MAREA":" ","LANE":"１０７０巷","ALLEY":"４０弄","HOUSE_NO":"１６號","E_COORD97":176198.89999999999,"N_COORD97":2578985.4199999999,"ADDRESS":"復興路１０７０巷４０弄１６號","OBJECTID":49905},"geometry":{"x":176198.9000000013,"y":2578985.4199999999}},{"attributes":{"ID":49906,"DIS_CODE":0,"TOWNNAME":"新營區","LI":"嘉芳里","LIN":"15鄰","STREET":"復興路","SECT":" ","MAREA":" ","LANE":"１０７０巷","ALLEY":"４０弄","HOUSE_NO":"２８號","E_COORD97":176222.47,"N_COORD97":2578980.8799999999,"ADDRESS":"復興路１０７０巷４０弄２８號","OBJECTID":49906},"geometry":{"x":176222.46999999974,"y":2578980.879999999}},{"attributes":{"ID":49907,"DIS_CODE":0,"TOWNNAME":"新營區","LI":"嘉芳里","LIN":"15鄰","STREET":"復興路","SECT":" ","MAREA":" ","LANE":"１０７０巷","ALLEY":"３８弄","HOUSE_NO":"３號","E_COORD97":176166.97,"N_COORD97":2578966.75,"ADDRESS":"復興路１０７０巷３８弄３號","OBJECTID":49907},"geometry":{"x":176166.96999999881,"y":2578966.75}},{"attributes":{"ID":49908,"DIS_CODE":0,"TOWNNAME":"新營區","LI":"嘉芳里","LIN":"15鄰","STREET":"復興路","SECT":" ","MAREA":" ","LANE":"１０７０巷","ALLEY":"３８弄","HOUSE_NO":"２３號","E_COORD97":176213.19,"N_COORD97":2578963.21,"ADDRESS":"復興路１０７０巷３８弄２３號","OBJECTID":49908},"geometry":{"x":176213.19000000041,"y":2578963.2100000028}},{"attributes":{"ID":49909,"DIS_CODE":0,"TOWNNAME":"新營區","LI":"嘉芳里","LIN":"15鄰","STREET":"復興路","SECT":" ","MAREA":" ","LANE":"１０７０巷","ALLEY":"３８弄","HOUSE_NO":"７號","E_COORD97":176176.12,"N_COORD97":2578966.71,"ADDRESS":"復興路１０７０巷３８弄７號","OBJECTID":49909},"geometry":{"x":176176.12000000011,"y":2578966.7100000009}},{"attributes":{"ID":49910,"DIS_CODE":0,"TOWNNAME":"新營區","LI":"新東里","LIN":"15鄰","STREET":"東泰一街","SECT":" ","MAREA":" ","LANE":"２巷","ALLEY":"１弄","HOUSE_NO":"６號","E_COORD97":181097.70999999999,"N_COORD97":2579574.2400000002,"ADDRESS":"東泰一街２巷１弄６號","OBJECTID":49910},"geometry":{"x":181097.71000000089,"y":2579574.2400000039}},{"attributes":{"ID":49911,"DIS_CODE":0,"TOWNNAME":"新營區","LI":"嘉芳里","LIN":"15鄰","STREET":"復興路","SECT":" ","MAREA":" ","LANE":"１０７０巷","ALLEY":"４０弄","HOUSE_NO":"２０號","E_COORD97":176207.14999999999,"N_COORD97":2578983.1699999999,"ADDRESS":"復興路１０７０巷４０弄２０號","OBJECTID":49911},"geometry":{"x":176207.15000000224,"y":2578983.1699999999}},{"attributes":{"ID":49912,"DIS_CODE":0,"TOWNNAME":"新營區","LI":"嘉芳里","LIN":"15鄰","STREET":"復興路","SECT":" ","MAREA":" ","LANE":"１０７０巷","ALLEY":"４０弄","HOUSE_NO":"１８號","E_COORD97":176201.95999999999,"N_COORD97":2578984.2999999998,"ADDRESS":"復興路１０７０巷４０弄１８號","OBJECTID":49912},"geometry":{"x":176201.96000000089,"y":2578984.3000000007}},{"attributes":{"ID":49913,"DIS_CODE":0,"TOWNNAME":"新營區","LI":"新東里","LIN":"15鄰","STREET":"東泰一街","SECT":" ","MAREA":" ","LANE":"２巷","ALLEY":"１弄","HOUSE_NO":"８號","E_COORD97":181092.66,"N_COORD97":2579574.2599999998,"ADDRESS":"東泰一街２巷１弄８號","OBJECTID":49913},"geometry":{"x":181092.66000000108,"y":2579574.2600000016}},{"attributes":{"ID":49914,"DIS_CODE":0,"TOWNNAME":"新營區","LI":"新東里","LIN":"15鄰","STREET":"東泰一街","SECT":" ","MAREA":" ","LANE":"２巷","ALLEY":"１弄","HOUSE_NO":"１０號","E_COORD97":181088.72,"N_COORD97":2579574.2799999998,"ADDRESS":"東泰一街２巷１弄１０號","OBJECTID":49914},"geometry":{"x":181088.72000000067,"y":2579574.2800000012}},{"attributes":{"ID":49915,"DIS_CODE":0,"TOWNNAME":"新營區","LI":"民榮里","LIN":"17鄰","STREET":"新進路","SECT":"二段","MAREA":" ","LANE":" ","ALLEY":" ","HOUSE_NO":"２２４號","E_COORD97":179099.14999999999,"N_COORD97":2577748.6299999999,"ADDRESS":"新進路二段２２４號","OBJECTID":49915},"geometry":{"x":179099.15000000224,"y":2577748.629999999}},{"attributes":{"ID":49916,"DIS_CODE":0,"TOWNNAME":"新營區","LI":"民榮里","LIN":"17鄰","STREET":"新進路","SECT":"二段","MAREA":" ","LANE":" ","ALLEY":" ","HOUSE_NO":"２１８號","E_COORD97":179112.44,"N_COORD97":2577747.46,"ADDRESS":"新進路二段２１８號","OBJECTID":49916},"geometry":{"x":179112.43999999948,"y":2577747.4600000028}},{"attributes":{"ID":49917,"DIS_CODE":0,"TOWNNAME":"新營區","LI":"民榮里","LIN":"17鄰","STREET":"新進路","SECT":"二段","MAREA":" ","LANE":" ","ALLEY":" ","HOUSE_NO":"２２０號","E_COORD97":179108.35000000001,"N_COORD97":2577748.5899999999,"ADDRESS":"新進路二段２２０號","OBJECTID":49917},"geometry":{"x":179108.34999999963,"y":2577748.5900000017}},{"attributes":{"ID":49918,"DIS_CODE":0,"TOWNNAME":"新營區","LI":"新南里","LIN":"17鄰","STREET":"隋唐街","SECT":" ","MAREA":" ","LANE":" ","ALLEY":" ","HOUSE_NO":"５３號","E_COORD97":178657.59,"N_COORD97":2578514.8900000001,"ADDRESS":"隋唐街５３號","OBJECTID":49918},"geometry":{"x":178657.58999999985,"y":2578514.8900000006}},{"attributes":{"ID":49919,"DIS_CODE":0,"TOWNNAME":"仁德區","LI":"一甲里","LIN":" ","STREET":"太乙路","SECT":" ","MAREA":" ","LANE":" ","ALLEY":" ","HOUSE_NO":"９號","E_COORD97":173709.44,"N_COORD97":2542456.75,"ADDRESS":"太乙路９號","OBJECTID":49919},"geometry":{"x":173709.44000000041,"y":2542456.7500000019}},{"attributes":{"ID":49920,"DIS_CODE":0,"TOWNNAME":"仁德區","LI":"仁義里","LIN":" ","STREET":"中正路","SECT":"二段","MAREA":" ","LANE":" ","ALLEY":" ","HOUSE_NO":"８６６號","E_COORD97":173461.04000000001,"N_COORD97":2540506.7799999998,"ADDRESS":"中正路二段８６６號","OBJECTID":49920},"geometry":{"x":173461.04000000004,"y":2540506.7800000012}},{"attributes":{"ID":49921,"DIS_CODE":0,"TOWNNAME":"仁德區","LI":"仁義里","LIN":" ","STREET":"中山路","SECT":" ","MAREA":" ","LANE":" ","ALLEY":" ","HOUSE_NO":"５９３號","E_COORD97":173346.39999999999,"N_COORD97":2541312.9900000002,"ADDRESS":"中山路５９３號","OBJECTID":49921},"geometry":{"x":173346.4000000013,"y":2541312.9900000021}},{"attributes":{"ID":49922,"DIS_CODE":0,"TOWNNAME":"仁德區","LI":"仁義里","LIN":" ","STREET":"中山路","SECT":" ","MAREA":" ","LANE":" ","ALLEY":" ","HOUSE_NO":"３００號","E_COORD97":174005.73999999999,"N_COORD97":2541255.75,"ADDRESS":"中山路３００號","OBJECTID":49922},"geometry":{"x":174005.74000000022,"y":2541255.7499999981}},{"attributes":{"ID":49923,"DIS_CODE":0,"TOWNNAME":"南區","LI":"彰南里","LIN":"17鄰","STREET":"新和路","SECT":" ","MAREA":" ","LANE":" ","ALLEY":" ","HOUSE_NO":"４０號","E_COORD97":165558.22,"N_COORD97":2540946.6000000001,"ADDRESS":"新和路４０號","OBJECTID":49923},"geometry":{"x":165558.21999999974,"y":2540946.5999999996}},{"attributes":{"ID":49924,"DIS_CODE":0,"TOWNNAME":"仁德區","LI":"仁義里","LIN":" ","STREET":"中山路","SECT":" ","MAREA":" ","LANE":" ","ALLEY":" ","HOUSE_NO":"４９３號","E_COORD97":173606.01000000001,"N_COORD97":2541278.4900000002,"ADDRESS":"中山路４９３號","OBJECTID":49924},"geometry":{"x":173606.01000000071,"y":2541278.4900000039}},{"attributes":{"ID":49925,"DIS_CODE":0,"TOWNNAME":"新化區","LI":"全興里","LIN":"17鄰","STREET":" ","SECT":" ","MAREA":"竹子\u25A0","LANE":" ","ALLEY":" ","HOUSE_NO":"２４７號之４８１","E_COORD97":178324.66,"N_COORD97":2546662.2599999998,"ADDRESS":"竹子\u25A0２４７號之４８１","OBJECTID":49925},"geometry":{"x":178324.66000000108,"y":2546662.2599999998}},{"attributes":{"ID":49926,"DIS_CODE":0,"TOWNNAME":"大內區","LI":"大內里","LIN":"1鄰","STREET":" ","SECT":" ","MAREA":"內庄","LANE":" ","ALLEY":" ","HOUSE_NO":"１號之７７","E_COORD97":184290.34,"N_COORD97":2557611.2999999998,"ADDRESS":"內庄１號之７７","OBJECTID":49926},"geometry":{"x":184290.34000000078,"y":2557611.3000000007}},{"attributes":{"ID":49927,"DIS_CODE":0,"TOWNNAME":"大內區","LI":"大內里","LIN":"1鄰","STREET":" ","SECT":" ","MAREA":"內庄","LANE":" ","ALLEY":" ","HOUSE_NO":"１號之２６","E_COORD97":184253.57000000001,"N_COORD97":2557653.2999999998,"ADDRESS":"內庄１號之２６","OBJECTID":49927},"geometry":{"x":184253.57000000123,"y":2557653.3000000026}},{"attributes":{"ID":49928,"DIS_CODE":0,"TOWNNAME":"大內區","LI":"大內里","LIN":"1鄰","STREET":" ","SECT":" ","MAREA":"內庄","LANE":" ","ALLEY":" ","HOUSE_NO":"１號之６０","E_COORD97":184272.72,"N_COORD97":2557555.2999999998,"ADDRESS":"內庄１號之６０","OBJECTID":49928},"geometry":{"x":184272.71999999974,"y":2557555.3000000026}},{"attributes":{"ID":49929,"DIS_CODE":0,"TOWNNAME":"大內區","LI":"大內里","LIN":"1鄰","STREET":" ","SECT":" ","MAREA":"內庄","LANE":" ","ALLEY":" ","HOUSE_NO":"１號之１４","E_COORD97":184218.53,"N_COORD97":2557668.2999999998,"ADDRESS":"內庄１之１４號","OBJECTID":49929},"geometry":{"x":184218.53000000026,"y":2557668.3000000007}},{"attributes":{"ID":49930,"DIS_CODE":0,"TOWNNAME":"大內區","LI":"大內里","LIN":"1鄰","STREET":" ","SECT":" ","MAREA":"內庄","LANE":" ","ALLEY":" ","HOUSE_NO":"１號之７９","E_COORD97":184297.85000000001,"N_COORD97":2557615.2999999998,"ADDRESS":"內庄１號之７９","OBJECTID":49930},"geometry":{"x":184297.85000000149,"y":2557615.3000000045}},{"attributes":{"ID":49931,"DIS_CODE":0,"TOWNNAME":"大內區","LI":"二溪里","LIN":"1鄰","STREET":" ","SECT":" ","MAREA":"二重溪","LANE":" ","ALLEY":" ","HOUSE_NO":"１２７號之７","E_COORD97":187556.14999999999,"N_COORD97":2557763.3100000001,"ADDRESS":"二重溪１２７號之７","OBJECTID":49931},"geometry":{"x":187556.15000000037,"y":2557763.3100000005}},{"attributes":{"ID":49932,"DIS_CODE":0,"TOWNNAME":"新營區","LI":"嘉芳里","LIN":"15鄰","STREET":"復興路","SECT":" ","MAREA":" ","LANE":"１０７０巷","ALLEY":"３８弄","HOUSE_NO":"１１號","E_COORD97":176185.51999999999,"N_COORD97":2578966.6699999999,"ADDRESS":"復興路１０７０巷３８弄１１號","OBJECTID":49932},"geometry":{"x":176185.52000000048,"y":2578966.6699999999}},{"attributes":{"ID":49933,"DIS_CODE":0,"TOWNNAME":"新營區","LI":"嘉芳里","LIN":"15鄰","STREET":"復興路","SECT":" ","MAREA":" ","LANE":"１０７０巷","ALLEY":"４０弄","HOUSE_NO":"１２號","E_COORD97":176190.73000000001,"N_COORD97":2578986.5699999998,"ADDRESS":"復興路１０７０巷４０弄１２號","OBJECTID":49933},"geometry":{"x":176190.73000000045,"y":2578986.5700000022}},{"attributes":{"ID":49934,"DIS_CODE":0,"TOWNNAME":"新營區","LI":"嘉芳里","LIN":"15鄰","STREET":"復興路","SECT":" ","MAREA":" ","LANE":"１０７０巷","ALLEY":"４０弄","HOUSE_NO":"３４號","E_COORD97":176234.76999999999,"N_COORD97":2578979.7000000002,"ADDRESS":"復興路１０７０巷４０弄３４號","OBJECTID":49934},"geometry":{"x":176234.77000000048,"y":2578979.6999999993}},{"attributes":{"ID":49935,"DIS_CODE":0,"TOWNNAME":"大內區","LI":"大內里","LIN":"1鄰","STREET":" ","SECT":" ","MAREA":"內庄","LANE":" ","ALLEY":" ","HOUSE_NO":"１號之５５","E_COORD97":184301.72,"N_COORD97":2557548.2999999998,"ADDRESS":"內庄１號之５５","OBJECTID":49935},"geometry":{"x":184301.71999999974,"y":2557548.3000000026}},{"attributes":{"ID":49936,"DIS_CODE":0,"TOWNNAME":"新營區","LI":"嘉芳里","LIN":"15鄰","STREET":"復興路","SECT":" ","MAREA":" ","LANE":"１０７０巷","ALLEY":"４０弄","HOUSE_NO":"３２號","E_COORD97":176230.67999999999,"N_COORD97":2578980.8399999999,"ADDRESS":"復興路１０７０巷４０弄３２號","OBJECTID":49936},"geometry":{"x":176230.68000000063,"y":2578980.8400000017}},{"attributes":{"ID":49937,"DIS_CODE":0,"TOWNNAME":"大內區","LI":"二溪里","LIN":"1鄰","STREET":" ","SECT":" ","MAREA":"二重溪","LANE":" ","ALLEY":" ","HOUSE_NO":"１２６號之１","E_COORD97":187536.07999999999,"N_COORD97":2557788.3100000001,"ADDRESS":"二重溪１２６號之１","OBJECTID":49937},"geometry":{"x":187536.08000000007,"y":2557788.3100000024}},{"attributes":{"ID":49938,"DIS_CODE":0,"TOWNNAME":"新營區","LI":"嘉芳里","LIN":"15鄰","STREET":"復興路","SECT":" ","MAREA":" ","LANE":"１０７０巷","ALLEY":"４０弄","HOUSE_NO":"２６號","E_COORD97":176218.39000000001,"N_COORD97":2578982.0099999998,"ADDRESS":"復興路１０７０巷４０弄２６號","OBJECTID":49938},"geometry":{"x":176218.39000000153,"y":2578982.0100000035}},{"attributes":{"ID":49939,"DIS_CODE":0,"TOWNNAME":"新營區","LI":"嘉芳里","LIN":"15鄰","STREET":"復興路","SECT":" ","MAREA":" ","LANE":"１０７０巷","ALLEY":"３８弄","HOUSE_NO":"９號","E_COORD97":176179.12,"N_COORD97":2578966.6899999999,"ADDRESS":"復興路１０７０巷３８弄９號","OBJECTID":49939},"geometry":{"x":176179.12000000104,"y":2578966.6899999995}},{"attributes":{"ID":49940,"DIS_CODE":0,"TOWNNAME":"新營區","LI":"嘉芳里","LIN":"15鄰","STREET":"復興路","SECT":" ","MAREA":" ","LANE":"１０７０巷","ALLEY":"４０弄","HOUSE_NO":"４號","E_COORD97":176173.20000000001,"N_COORD97":2578988.8700000001,"ADDRESS":"復興路１０７０巷４０弄４號","OBJECTID":49940},"geometry":{"x":176173.20000000112,"y":2578988.8700000029}},{"attributes":{"ID":49941,"DIS_CODE":0,"TOWNNAME":"大內區","LI":"內江里","LIN":"1鄰","STREET":" ","SECT":" ","MAREA":"內庄","LANE":" ","ALLEY":" ","HOUSE_NO":"２２１號之３","E_COORD97":184603.31,"N_COORD97":2557271.2999999998,"ADDRESS":"內庄２２１號之３","OBJECTID":49941},"geometry":{"x":184603.31000000145,"y":2557271.3000000007}},{"attributes":{"ID":49942,"DIS_CODE":0,"TOWNNAME":"大內區","LI":"大內里","LIN":"1鄰","STREET":" ","SECT":" ","MAREA":"內庄","LANE":" ","ALLEY":" ","HOUSE_NO":"１號之１２","E_COORD97":184232.20000000001,"N_COORD97":2557705.2999999998,"ADDRESS":"內庄１號之１２","OBJECTID":49942},"geometry":{"x":184232.20000000112,"y":2557705.3000000007}},{"attributes":{"ID":49943,"DIS_CODE":0,"TOWNNAME":"大內區","LI":"內江里","LIN":"1鄰","STREET":" ","SECT":" ","MAREA":"內庄","LANE":" ","ALLEY":" ","HOUSE_NO":"２２０號之６","E_COORD97":184656.62,"N_COORD97":2557265.2999999998,"ADDRESS":"內庄２２０號之６","OBJECTID":49943},"geometry":{"x":184656.62000000104,"y":2557265.3000000007}},{"attributes":{"ID":49944,"DIS_CODE":0,"TOWNNAME":"大內區","LI":"內郭里","LIN":"1鄰","STREET":" ","SECT":" ","MAREA":"內庄","LANE":" ","ALLEY":" ","HOUSE_NO":"１５８號","E_COORD97":184852.38,"N_COORD97":2557394.25,"ADDRESS":"內庄１５８號","OBJECTID":49944},"geometry":{"x":184852.38000000175,"y":2557394.2500000037}},{"attributes":{"ID":49945,"DIS_CODE":0,"TOWNNAME":"大內區","LI":"大內里","LIN":"1鄰","STREET":" ","SECT":" ","MAREA":"內庄","LANE":" ","ALLEY":" ","HOUSE_NO":"１號之７８","E_COORD97":184294.70999999999,"N_COORD97":2557613.2999999998,"ADDRESS":"內庄１號之７８","OBJECTID":49945},"geometry":{"x":184294.71000000089,"y":2557613.3000000026}},{"attributes":{"ID":49946,"DIS_CODE":0,"TOWNNAME":"大內區","LI":"內江里","LIN":"1鄰","STREET":" ","SECT":" ","MAREA":"內庄","LANE":" ","ALLEY":" ","HOUSE_NO":"２２１號之６","E_COORD97":184607.32000000001,"N_COORD97":2557262.2999999998,"ADDRESS":"內庄２２１號之６","OBJECTID":49946},"geometry":{"x":184607.32000000216,"y":2557262.3000000045}},{"attributes":{"ID":49947,"DIS_CODE":0,"TOWNNAME":"新營區","LI":"嘉芳里","LIN":"15鄰","STREET":"復興路","SECT":" ","MAREA":" ","LANE":"１０７０巷","ALLEY":"３８弄","HOUSE_NO":"２９號","E_COORD97":176229.53,"N_COORD97":2578959.7999999998,"ADDRESS":"復興路１０７０巷３８弄２９號","OBJECTID":49947},"geometry":{"x":176229.53000000026,"y":2578959.8000000007}},{"attributes":{"ID":49948,"DIS_CODE":0,"TOWNNAME":"大內區","LI":"大內里","LIN":"1鄰","STREET":" ","SECT":" ","MAREA":"內庄","LANE":" ","ALLEY":" ","HOUSE_NO":"７號之５","E_COORD97":184423.26999999999,"N_COORD97":2557587.2999999998,"ADDRESS":"內庄７號之５","OBJECTID":49948},"geometry":{"x":184423.26999999955,"y":2557587.3000000007}},{"attributes":{"ID":49949,"DIS_CODE":0,"TOWNNAME":"新營區","LI":"嘉芳里","LIN":"15鄰","STREET":"復興路","SECT":" ","MAREA":" ","LANE":"１０７０巷","ALLEY":"３８弄","HOUSE_NO":"１７號","E_COORD97":176197.76999999999,"N_COORD97":2578964.3900000001,"ADDRESS":"復興路１０７０巷３８弄１７號","OBJECTID":49949},"geometry":{"x":176197.77000000048,"y":2578964.3900000025}},{"attributes":{"ID":49950,"DIS_CODE":0,"TOWNNAME":"新營區","LI":"嘉芳里","LIN":"15鄰","STREET":"復興路","SECT":" ","MAREA":" ","LANE":"１０７０巷","ALLEY":"３８弄","HOUSE_NO":"２１號","E_COORD97":176209.10000000001,"N_COORD97":2578964.3300000001,"ADDRESS":"復興路１０７０巷３８弄２１號","OBJECTID":49950},"geometry":{"x":176209.10000000056,"y":2578964.3300000019}},{"attributes":{"ID":49951,"DIS_CODE":0,"TOWNNAME":"大內區","LI":"大內里","LIN":"1鄰","STREET":" ","SECT":" ","MAREA":"內庄","LANE":" ","ALLEY":" ","HOUSE_NO":"１號之１０","E_COORD97":184222.32000000001,"N_COORD97":2557698.2999999998,"ADDRESS":"內庄１號之１０","OBJECTID":49951},"geometry":{"x":184222.3200000003,"y":2557698.3000000007}},{"attributes":{"ID":49952,"DIS_CODE":0,"TOWNNAME":"大內區","LI":"二溪里","LIN":"1鄰","STREET":" ","SECT":" ","MAREA":"二重溪","LANE":" ","ALLEY":" ","HOUSE_NO":"１２７號之１","E_COORD97":187571.48000000001,"N_COORD97":2557764.3100000001,"ADDRESS":"二重溪１２７號之１","OBJECTID":49952},"geometry":{"x":187571.48000000138,"y":2557764.3100000024}},{"attributes":{"ID":49953,"DIS_CODE":0,"TOWNNAME":"大內區","LI":"大內里","LIN":"1鄰","STREET":" ","SECT":" ","MAREA":"內庄","LANE":" ","ALLEY":" ","HOUSE_NO":"１號之２４","E_COORD97":184245.69,"N_COORD97":2557683.2999999998,"ADDRESS":"內庄１號之２４","OBJECTID":49953},"geometry":{"x":184245.69000000134,"y":2557683.3000000026}},{"attributes":{"ID":49954,"DIS_CODE":0,"TOWNNAME":"鹽水區","LI":"橋南里","LIN":"15鄰","STREET":"月津路","SECT":" ","MAREA":" ","LANE":"１２巷","ALLEY":"１９弄","HOUSE_NO":"１號","E_COORD97":174816.94,"N_COORD97":2579560.8900000001,"ADDRESS":"月津路１２巷１９弄１號","OBJECTID":49954},"geometry":{"x":174816.94000000227,"y":2579560.8900000025}},{"attributes":{"ID":49955,"DIS_CODE":0,"TOWNNAME":"鹽水區","LI":"橋南里","LIN":"15鄰","STREET":"月津路","SECT":" ","MAREA":" ","LANE":"１２巷","ALLEY":"１９弄","HOUSE_NO":"２號","E_COORD97":174797.81,"N_COORD97":2579570.6699999999,"ADDRESS":"月津路１２巷１９弄２號","OBJECTID":49955},"geometry":{"x":174797.80999999959,"y":2579570.6699999999}},{"attributes":{"ID":49956,"DIS_CODE":0,"TOWNNAME":"歸仁區","LI":"文化里","LIN":"17鄰","STREET":"文化北街","SECT":" ","MAREA":" ","LANE":" ","ALLEY":" ","HOUSE_NO":"１５８號","E_COORD97":177092.76999999999,"N_COORD97":2541420.2599999998,"ADDRESS":"文化北街１５８號","OBJECTID":49956},"geometry":{"x":177092.77000000048,"y":2541420.2599999998}},{"attributes":{"ID":49957,"DIS_CODE":0,"TOWNNAME":"歸仁區","LI":"六甲里","LIN":"17鄰","STREET":"中正二十街","SECT":" ","MAREA":" ","LANE":" ","ALLEY":" ","HOUSE_NO":"１１０號","E_COORD97":175668.456428,"N_COORD97":2539120.9048799998,"ADDRESS":"中正二十街１１０號","OBJECTID":49957},"geometry":{"x":175668.45642799977,"y":2539120.9048840012}},{"attributes":{"ID":49958,"DIS_CODE":0,"TOWNNAME":"歸仁區","LI":"大廟里","LIN":"17鄰","STREET":"大廟五街","SECT":" ","MAREA":" ","LANE":" ","ALLEY":" ","HOUSE_NO":"１３３號","E_COORD97":176072.92000000001,"N_COORD97":2544481.25,"ADDRESS":"大廟五街１３３號","OBJECTID":49958},"geometry":{"x":176072.92000000086,"y":2544481.2500000019}},{"attributes":{"ID":49959,"DIS_CODE":0,"TOWNNAME":"歸仁區","LI":"文化里","LIN":"17鄰","STREET":"文化北街","SECT":" ","MAREA":" ","LANE":" ","ALLEY":" ","HOUSE_NO":"１５０號","E_COORD97":177110.17000000001,"N_COORD97":2541418.2599999998,"ADDRESS":"文化北街１５０號","OBJECTID":49959},"geometry":{"x":177110.17000000179,"y":2541418.2599999979}},{"attributes":{"ID":49960,"DIS_CODE":0,"TOWNNAME":"歸仁區","LI":"文化里","LIN":"17鄰","STREET":"文化北街","SECT":" ","MAREA":" ","LANE":" ","ALLEY":" ","HOUSE_NO":"１０８號","E_COORD97":177190.17000000001,"N_COORD97":2541414.2599999998,"ADDRESS":"文化北街１０８號","OBJECTID":49960},"geometry":{"x":177190.17000000086,"y":2541414.2599999998}},{"attributes":{"ID":49961,"DIS_CODE":0,"TOWNNAME":"歸仁區","LI":"六甲里","LIN":"17鄰","STREET":"中正二十街","SECT":" ","MAREA":" ","LANE":" ","ALLEY":" ","HOUSE_NO":"１１６號","E_COORD97":175645.36288,"N_COORD97":2539118.99988,"ADDRESS":"中正二十街１１６號","OBJECTID":49961},"geometry":{"x":175645.36288000084,"y":2539118.9998850022}},{"attributes":{"ID":49962,"DIS_CODE":0,"TOWNNAME":"大內區","LI":"大內里","LIN":"1鄰","STREET":" ","SECT":" ","MAREA":"內庄","LANE":" ","ALLEY":" ","HOUSE_NO":"７號之７","E_COORD97":184416.29000000001,"N_COORD97":2557582.2999999998,"ADDRESS":"內庄７號之７","OBJECTID":49962},"geometry":{"x":184416.29000000097,"y":2557582.3000000026}},{"attributes":{"ID":49963,"DIS_CODE":0,"TOWNNAME":"安定區","LI":"中沙里","LIN":"1鄰","STREET":" ","SECT":" ","MAREA":"中崙","LANE":" ","ALLEY":" ","HOUSE_NO":"５３號","E_COORD97":169172.35999999999,"N_COORD97":2553232.25,"ADDRESS":"中崙５３號","OBJECTID":49963},"geometry":{"x":169172.3600000022,"y":2553232.2500000019}},{"attributes":{"ID":49964,"DIS_CODE":0,"TOWNNAME":"大內區","LI":"內江里","LIN":"1鄰","STREET":" ","SECT":" ","MAREA":"內庄","LANE":" ","ALLEY":" ","HOUSE_NO":"２２０號之１","E_COORD97":184668.10999999999,"N_COORD97":2557272.2999999998,"ADDRESS":"內庄２２０號之１","OBJECTID":49964},"geometry":{"x":184668.1100000022,"y":2557272.3000000007}},{"attributes":{"ID":49965,"DIS_CODE":0,"TOWNNAME":"大內區","LI":"大內里","LIN":"1鄰","STREET":" ","SECT":" ","MAREA":"內庄","LANE":" ","ALLEY":" ","HOUSE_NO":"１號之２７","E_COORD97":184257.84,"N_COORD97":2557655.2999999998,"ADDRESS":"內庄１號之２７","OBJECTID":49965},"geometry":{"x":184257.84000000078,"y":2557655.3000000007}},{"attributes":{"ID":49966,"DIS_CODE":0,"TOWNNAME":"大內區","LI":"大內里","LIN":"1鄰","STREET":" ","SECT":" ","MAREA":"內庄","LANE":" ","ALLEY":" ","HOUSE_NO":"１號之１１","E_COORD97":184227.56,"N_COORD97":2557701.2999999998,"ADDRESS":"內庄１號之１１","OBJECTID":49966},"geometry":{"x":184227.56000000052,"y":2557701.3000000026}},{"attributes":{"ID":49967,"DIS_CODE":0,"TOWNNAME":"大內區","LI":"二溪里","LIN":"1鄰","STREET":" ","SECT":" ","MAREA":"二重溪","LANE":" ","ALLEY":" ","HOUSE_NO":"１２５號之１","E_COORD97":187516.78,"N_COORD97":2557815.3100000001,"ADDRESS":"二重溪１２５號之１","OBJECTID":49967},"geometry":{"x":187516.78000000119,"y":2557815.3100000024}},{"attributes":{"ID":49968,"DIS_CODE":0,"TOWNNAME":"大內區","LI":"大內里","LIN":"1鄰","STREET":" ","SECT":" ","MAREA":"內庄","LANE":" ","ALLEY":" ","HOUSE_NO":"１號之３８","E_COORD97":184248.41,"N_COORD97":2557613.2999999998,"ADDRESS":"內庄１號之３８","OBJECTID":49968},"geometry":{"x":184248.41000000015,"y":2557613.3000000026}},{"attributes":{"ID":49969,"DIS_CODE":0,"TOWNNAME":"大內區","LI":"大內里","LIN":"1鄰","STREET":" ","SECT":" ","MAREA":"內庄","LANE":" ","ALLEY":" ","HOUSE_NO":"７號之２８","E_COORD97":184438.81,"N_COORD97":2557540.2999999998,"ADDRESS":"內庄７號之２８","OBJECTID":49969},"geometry":{"x":184438.81000000145,"y":2557540.2999999989}},{"attributes":{"ID":49970,"DIS_CODE":0,"TOWNNAME":"大內區","LI":"內江里","LIN":"1鄰","STREET":" ","SECT":" ","MAREA":"內庄","LANE":" ","ALLEY":" ","HOUSE_NO":"２２１號之９","E_COORD97":184611.79999999999,"N_COORD97":2557253.2999999998,"ADDRESS":"內庄２２１號之９","OBJECTID":49970},"geometry":{"x":184611.79999999981,"y":2557253.3000000026}},{"attributes":{"ID":49971,"DIS_CODE":0,"TOWNNAME":"大內區","LI":"內江里","LIN":"1鄰","STREET":" ","SECT":" ","MAREA":"內庄","LANE":" ","ALLEY":" ","HOUSE_NO":"２２１號之５","E_COORD97":184606.17000000001,"N_COORD97":2557265.2999999998,"ADDRESS":"內庄２２１號之５","OBJECTID":49971},"geometry":{"x":184606.16999999899,"y":2557265.3000000007}},{"attributes":{"ID":49972,"DIS_CODE":0,"TOWNNAME":"大內區","LI":"大內里","LIN":"1鄰","STREET":" ","SECT":" ","MAREA":"內庄","LANE":" ","ALLEY":" ","HOUSE_NO":"１號之５１","E_COORD97":184320.26000000001,"N_COORD97":2557543.2999999998,"ADDRESS":"內庄１號之５１","OBJECTID":49972},"geometry":{"x":184320.25999999978,"y":2557543.3000000007}},{"attributes":{"ID":49973,"DIS_CODE":0,"TOWNNAME":"大內區","LI":"內江里","LIN":"1鄰","STREET":" ","SECT":" ","MAREA":"內庄","LANE":" ","ALLEY":" ","HOUSE_NO":"２２１號之７","E_COORD97":184608.69,"N_COORD97":2557259.2999999998,"ADDRESS":"內庄２２１號之７","OBJECTID":49973},"geometry":{"x":184608.69000000134,"y":2557259.3000000045}},{"attributes":{"ID":49974,"DIS_CODE":0,"TOWNNAME":"大內區","LI":"內江里","LIN":"1鄰","STREET":" ","SECT":" ","MAREA":"內庄","LANE":" ","ALLEY":" ","HOUSE_NO":"２２１號之１０","E_COORD97":184614.51999999999,"N_COORD97":2557250.2999999998,"ADDRESS":"內庄２２１號之１０","OBJECTID":49974},"geometry":{"x":184614.51999999955,"y":2557250.3000000026}},{"attributes":{"ID":49975,"DIS_CODE":0,"TOWNNAME":"大內區","LI":"內江里","LIN":"1鄰","STREET":" ","SECT":" ","MAREA":"內庄","LANE":" ","ALLEY":" ","HOUSE_NO":"２２０號之７","E_COORD97":184651.79000000001,"N_COORD97":2557263.2999999998,"ADDRESS":"內庄２２０號之７","OBJECTID":49975},"geometry":{"x":184651.79000000097,"y":2557263.3000000026}},{"attributes":{"ID":49976,"DIS_CODE":0,"TOWNNAME":"鹽水區","LI":"橋南里","LIN":"15鄰","STREET":"月津路","SECT":" ","MAREA":" ","LANE":"１２巷","ALLEY":"１９弄","HOUSE_NO":"３號","E_COORD97":174815.23000000001,"N_COORD97":2579556.3799999999,"ADDRESS":"月津路１２巷１９弄３號","OBJECTID":49976},"geometry":{"x":174815.23000000138,"y":2579556.3800000008}},{"attributes":{"ID":49977,"DIS_CODE":0,"TOWNNAME":"鹽水區","LI":"橋南里","LIN":"15鄰","STREET":"月津路","SECT":" ","MAREA":" ","LANE":"１２巷","ALLEY":"１９弄","HOUSE_NO":"５號","E_COORD97":174813.63,"N_COORD97":2579551.9100000001,"ADDRESS":"月津路１２巷１９弄５號","OBJECTID":49977},"geometry":{"x":174813.63000000082,"y":2579551.9100000001}},{"attributes":{"ID":49978,"DIS_CODE":0,"TOWNNAME":"鹽水區","LI":"橋南里","LIN":"15鄰","STREET":"月津路","SECT":" ","MAREA":" ","LANE":"１２巷","ALLEY":"１９弄","HOUSE_NO":"６號","E_COORD97":174795.92000000001,"N_COORD97":2579566.46,"ADDRESS":"月津路１２巷１９弄６號","OBJECTID":49978},"geometry":{"x":174795.91999999993,"y":2579566.4600000009}},{"attributes":{"ID":49979,"DIS_CODE":0,"TOWNNAME":"鹽水區","LI":"橋南里","LIN":"15鄰","STREET":"月津路","SECT":" ","MAREA":" ","LANE":"１２巷","ALLEY":"２９弄","HOUSE_NO":"１０號","E_COORD97":174748.01000000001,"N_COORD97":2579618.3399999999,"ADDRESS":"月津路１２巷２９弄１０號","OBJECTID":49979},"geometry":{"x":174748.01000000164,"y":2579618.3400000017}},{"attributes":{"ID":49980,"DIS_CODE":0,"TOWNNAME":"鹽水區","LI":"橋南里","LIN":"15鄰","STREET":"月津路","SECT":" ","MAREA":" ","LANE":"１２巷","ALLEY":"２９弄","HOUSE_NO":"１１號","E_COORD97":174768.29000000001,"N_COORD97":2579556.8599999999,"ADDRESS":"月津路１２巷２９弄１１號","OBJECTID":49980},"geometry":{"x":174768.28999999911,"y":2579556.8600000013}},{"attributes":{"ID":49981,"DIS_CODE":0,"TOWNNAME":"大內區","LI":"二溪里","LIN":"1鄰","STREET":" ","SECT":" ","MAREA":"二重溪","LANE":" ","ALLEY":" ","HOUSE_NO":"１３５號之２","E_COORD97":187521.31,"N_COORD97":2557879.3100000001,"ADDRESS":"二重溪１３５號之２","OBJECTID":49981},"geometry":{"x":187521.31000000052,"y":2557879.3100000042}},{"attributes":{"ID":49982,"DIS_CODE":0,"TOWNNAME":"大內區","LI":"內江里","LIN":"1鄰","STREET":" ","SECT":" ","MAREA":"內庄","LANE":" ","ALLEY":" ","HOUSE_NO":"２２１號之１","E_COORD97":184600.20999999999,"N_COORD97":2557278.2999999998,"ADDRESS":"內庄２２１號之１","OBJECTID":49982},"geometry":{"x":184600.20999999996,"y":2557278.3000000007}},{"attributes":{"ID":49983,"DIS_CODE":0,"TOWNNAME":"大內區","LI":"大內里","LIN":"1鄰","STREET":" ","SECT":" ","MAREA":"內庄","LANE":" ","ALLEY":" ","HOUSE_NO":"１號之６５","E_COORD97":184255.72,"N_COORD97":2557572.2999999998,"ADDRESS":"內庄１號之６５","OBJECTID":49983},"geometry":{"x":184255.71999999974,"y":2557572.3000000026}},{"attributes":{"ID":49984,"DIS_CODE":0,"TOWNNAME":"鹽水區","LI":"橋南里","LIN":"15鄰","STREET":"月津路","SECT":" ","MAREA":" ","LANE":"１２巷","ALLEY":"２９弄","HOUSE_NO":"１２號","E_COORD97":174746.47,"N_COORD97":2579625.1600000001,"ADDRESS":"月津路１２巷２９弄１２號","OBJECTID":49984},"geometry":{"x":174746.4700000016,"y":2579625.1600000001}},{"attributes":{"ID":49985,"DIS_CODE":0,"TOWNNAME":"鹽水區","LI":"橋南里","LIN":"15鄰","STREET":"月津路","SECT":" ","MAREA":" ","LANE":"１２巷","ALLEY":"２９弄","HOUSE_NO":"１３號","E_COORD97":174747.28,"N_COORD97":2579560.4900000002,"ADDRESS":"月津路１２巷２９弄１３號","OBJECTID":49985},"geometry":{"x":174747.28000000119,"y":2579560.4900000021}},{"attributes":{"ID":49986,"DIS_CODE":0,"TOWNNAME":"鹽水區","LI":"橋南里","LIN":"15鄰","STREET":"月津路","SECT":" ","MAREA":" ","LANE":"１２巷","ALLEY":"２９弄","HOUSE_NO":"１４號","E_COORD97":174727.82999999999,"N_COORD97":2579627.9500000002,"ADDRESS":"月津路１２巷２９弄１４號","OBJECTID":49986},"geometry":{"x":174727.83000000101,"y":2579627.9499999993}},{"attributes":{"ID":49987,"DIS_CODE":0,"TOWNNAME":"鹽水區","LI":"橋南里","LIN":"15鄰","STREET":"月津路","SECT":" ","MAREA":" ","LANE":"１２巷","ALLEY":"２９弄","HOUSE_NO":"１５號","E_COORD97":174744.89999999999,"N_COORD97":2579567.04,"ADDRESS":"月津路１２巷２９弄１５號","OBJECTID":49987},"geometry":{"x":174744.9000000013,"y":2579567.0399999991}},{"attributes":{"ID":49988,"DIS_CODE":0,"TOWNNAME":"鹽水區","LI":"橋南里","LIN":"15鄰","STREET":"月津路","SECT":" ","MAREA":" ","LANE":"１２巷","ALLEY":"２９弄","HOUSE_NO":"１６號","E_COORD97":174729.23999999999,"N_COORD97":2579621.48,"ADDRESS":"月津路１２巷２９弄１６號","OBJECTID":49988},"geometry":{"x":174729.24000000022,"y":2579621.4800000023}},{"attributes":{"ID":49989,"DIS_CODE":0,"TOWNNAME":"鹽水區","LI":"橋南里","LIN":"15鄰","STREET":"月津路","SECT":" ","MAREA":" ","LANE":"１２巷","ALLEY":"２９弄","HOUSE_NO":"１７號","E_COORD97":174742.51999999999,"N_COORD97":2579573.6000000001,"ADDRESS":"月津路１２巷２９弄１７號","OBJECTID":49989},"geometry":{"x":174742.52000000142,"y":2579573.5999999996}},{"attributes":{"ID":49990,"DIS_CODE":0,"TOWNNAME":"鹽水區","LI":"橋南里","LIN":"15鄰","STREET":"月津路","SECT":" ","MAREA":" ","LANE":"１２巷","ALLEY":"２９弄","HOUSE_NO":"１９號","E_COORD97":174740.13,"N_COORD97":2579580.1499999999,"ADDRESS":"月津路１２巷２９弄１９號","OBJECTID":49990},"geometry":{"x":174740.12999999989,"y":2579580.1500000022}},{"attributes":{"ID":49991,"DIS_CODE":0,"TOWNNAME":"南區","LI":"再興里","LIN":"17鄰","STREET":"金華路","SECT":"二段","MAREA":" ","LANE":" ","ALLEY":" ","HOUSE_NO":"１８８號","E_COORD97":167106.14000000001,"N_COORD97":2542305.5299999998,"ADDRESS":"金華路二段１８８號","OBJECTID":49991},"geometry":{"x":167106.13999999966,"y":2542305.5300000012}},{"attributes":{"ID":49992,"DIS_CODE":0,"TOWNNAME":"南區","LI":"再興里","LIN":"17鄰","STREET":"金華路","SECT":"二段","MAREA":" ","LANE":" ","ALLEY":" ","HOUSE_NO":"２４２號","E_COORD97":167115.10000000001,"N_COORD97":2542425.73,"ADDRESS":"金華路二段２４２號","OBJECTID":49992},"geometry":{"x":167115.09999999963,"y":2542425.7300000004}},{"attributes":{"ID":49993,"DIS_CODE":0,"TOWNNAME":"南區","LI":"廣州里","LIN":"17鄰","STREET":"福吉二街","SECT":" ","MAREA":" ","LANE":" ","ALLEY":" ","HOUSE_NO":"６３號","E_COORD97":167259.76999999999,"N_COORD97":2542763.1200000001,"ADDRESS":"福吉二街６３號","OBJECTID":49993},"geometry":{"x":167259.76999999955,"y":2542763.1199999992}},{"attributes":{"ID":49994,"DIS_CODE":0,"TOWNNAME":"南區","LI":"彰南里","LIN":"17鄰","STREET":"新和路","SECT":" ","MAREA":" ","LANE":" ","ALLEY":" ","HOUSE_NO":"１６號之１","E_COORD97":165913.59,"N_COORD97":2540969.0499999998,"ADDRESS":"新和路１６號之１","OBJECTID":49994},"geometry":{"x":165913.58999999985,"y":2540969.0500000007}},{"attributes":{"ID":49995,"DIS_CODE":0,"TOWNNAME":"南區","LI":"彰南里","LIN":"17鄰","STREET":"新和路","SECT":" ","MAREA":" ","LANE":" ","ALLEY":" ","HOUSE_NO":"２號之２","E_COORD97":166178.04000000001,"N_COORD97":2540989.9300000002,"ADDRESS":"新和路２號之２","OBJECTID":49995},"geometry":{"x":166178.04000000004,"y":2540989.9300000034}},{"attributes":{"ID":49996,"DIS_CODE":0,"TOWNNAME":"鹽水區","LI":"橋南里","LIN":"15鄰","STREET":"月津路","SECT":" ","MAREA":" ","LANE":"１２巷","ALLEY":"２９弄","HOUSE_NO":"１號","E_COORD97":174772.79000000001,"N_COORD97":2579582.6000000001,"ADDRESS":"月津路１２巷２９弄１號","OBJECTID":49996},"geometry":{"x":174772.79000000004,"y":2579582.6000000015}},{"attributes":{"ID":49997,"DIS_CODE":0,"TOWNNAME":"鹽水區","LI":"橋南里","LIN":"15鄰","STREET":"月津路","SECT":" ","MAREA":" ","LANE":"１２巷","ALLEY":"２９弄","HOUSE_NO":"２０號","E_COORD97":174731.98000000001,"N_COORD97":2579608.4199999999,"ADDRESS":"月津路１２巷２９弄２０號","OBJECTID":49997},"geometry":{"x":174731.98000000231,"y":2579608.4200000018}},{"attributes":{"ID":49998,"DIS_CODE":0,"TOWNNAME":"鹽水區","LI":"橋南里","LIN":"15鄰","STREET":"月津路","SECT":" ","MAREA":" ","LANE":"１２巷","ALLEY":"２９弄","HOUSE_NO":"２２號","E_COORD97":174733.28,"N_COORD97":2579601.6499999999,"ADDRESS":"月津路１２巷２９弄２２號","OBJECTID":49998},"geometry":{"x":174733.28000000119,"y":2579601.6500000004}},{"attributes":{"ID":49999,"DIS_CODE":0,"TOWNNAME":"鹽水區","LI":"橋南里","LIN":"15鄰","STREET":"月津路","SECT":" ","MAREA":" ","LANE":"１２巷","ALLEY":"２９弄","HOUSE_NO":"２４號","E_COORD97":174734.70999999999,"N_COORD97":2579595.6400000001,"ADDRESS":"月津路１２巷２９弄２４號","OBJECTID":49999},"geometry":{"x":174734.70999999996,"y":2579595.6399999987}},{"attributes":{"ID":50000,"DIS_CODE":0,"TOWNNAME":"鹽水區","LI":"橋南里","LIN":"15鄰","STREET":"月津路","SECT":" ","MAREA":" ","LANE":"１２巷","ALLEY":"２９弄","HOUSE_NO":"２６號","E_COORD97":174716.32000000001,"N_COORD97":2579589.8700000001,"ADDRESS":"月津路１２巷２９弄２６號","OBJECTID":50000},"geometry":{"x":174716.32000000123,"y":2579589.870000001}}]}