{"displayFieldName":"TOWNNAME","fieldAliases":{"ID":"ID","DIS_CODE":"DIS_CODE","TOWNNAME":"TOWNNAME","LI":"LI","LIN":"LIN","STREET":"STREET","SECT":"SECT","MAREA":"MAREA","LANE":"LANE","ALLEY":"ALLEY","HOUSE_NO":"HOUSE_NO","E_COORD97":"E_COORD97","N_COORD97":"N_COORD97","ADDRESS":"ADDRESS","OBJECTID":"OBJECTID"},"geometryType":"esriGeometryPoint","spatialReference":{"wkid":102443,"latestWkid":3826},"fields":[{"name":"ID","type":"esriFieldTypeDouble","alias":"ID"},{"name":"DIS_CODE","type":"esriFieldTypeInteger","alias":"DIS_CODE"},{"name":"TOWNNAME","type":"esriFieldTypeString","alias":"TOWNNAME","length":8},{"name":"LI","type":"esriFieldTypeString","alias":"LI","length":8},{"name":"LIN","type":"esriFieldTypeString","alias":"LIN","length":12},{"name":"STREET","type":"esriFieldTypeString","alias":"STREET","length":20},{"name":"SECT","type":"esriFieldTypeString","alias":"SECT","length":8},{"name":"MAREA","type":"esriFieldTypeString","alias":"MAREA","length":12},{"name":"LANE","type":"esriFieldTypeString","alias":"LANE","length":10},{"name":"ALLEY","type":"esriFieldTypeString","alias":"ALLEY","length":10},{"name":"HOUSE_NO","type":"esriFieldTypeString","alias":"HOUSE_NO","length":20},{"name":"E_COORD97","type":"esriFieldTypeDouble","alias":"E_COORD97"},{"name":"N_COORD97","type":"esriFieldTypeDouble","alias":"N_COORD97"},{"name":"ADDRESS","type":"esriFieldTypeString","alias":"ADDRESS","length":50},{"name":"OBJECTID","type":"esriFieldTypeOID","alias":"OBJECTID"}],"features":[{"attributes":{"ID":203802,"DIS_CODE":0,"TOWNNAME":"柳營區","LI":"八翁里","LIN":"2鄰","STREET":" ","SECT":" ","MAREA":"八老爺","LANE":" ","ALLEY":" ","HOUSE_NO":"１９號之５","E_COORD97":178302.44,"N_COORD97":2574910.2000000002,"ADDRESS":"八老爺１９號之５","OBJECTID":203801},"geometry":{"x":178302.44000000134,"y":2574910.1999999993}},{"attributes":{"ID":203803,"DIS_CODE":0,"TOWNNAME":"柳營區","LI":"八翁里","LIN":"2鄰","STREET":" ","SECT":" ","MAREA":"八老爺","LANE":" ","ALLEY":" ","HOUSE_NO":"１９號","E_COORD97":178294.12,"N_COORD97":2574932.2799999998,"ADDRESS":"八老爺１９號","OBJECTID":203802},"geometry":{"x":178294.12000000104,"y":2574932.2800000012}},{"attributes":{"ID":203804,"DIS_CODE":0,"TOWNNAME":"柳營區","LI":"八翁里","LIN":"2鄰","STREET":" ","SECT":" ","MAREA":"八老爺","LANE":" ","ALLEY":" ","HOUSE_NO":"２０號之１","E_COORD97":178246.03,"N_COORD97":2574904.3300000001,"ADDRESS":"八老爺２０號之１","OBJECTID":203803},"geometry":{"x":178246.03000000119,"y":2574904.3300000001}},{"attributes":{"ID":203805,"DIS_CODE":0,"TOWNNAME":"柳營區","LI":"八翁里","LIN":"2鄰","STREET":" ","SECT":" ","MAREA":"八老爺","LANE":" ","ALLEY":" ","HOUSE_NO":"２０號","E_COORD97":178269.09,"N_COORD97":2574890.9100000001,"ADDRESS":"八老爺２０號","OBJECTID":203804},"geometry":{"x":178269.09000000078,"y":2574890.9100000039}},{"attributes":{"ID":203806,"DIS_CODE":0,"TOWNNAME":"柳營區","LI":"八翁里","LIN":"2鄰","STREET":" ","SECT":" ","MAREA":"八老爺","LANE":" ","ALLEY":" ","HOUSE_NO":"２１之３號","E_COORD97":178266.28,"N_COORD97":2574872.0899999999,"ADDRESS":"八老爺２１之３號","OBJECTID":203805},"geometry":{"x":178266.28000000119,"y":2574872.0899999999}},{"attributes":{"ID":203807,"DIS_CODE":0,"TOWNNAME":"佳里區","LI":"建南里","LIN":"26鄰","STREET":"公園路","SECT":" ","MAREA":" ","LANE":"７５巷","ALLEY":"１３弄","HOUSE_NO":"６號","E_COORD97":165287.47,"N_COORD97":2561535.7000000002,"ADDRESS":"公園路７５巷１３弄６號","OBJECTID":203806},"geometry":{"x":165287.4700000016,"y":2561535.6999999993}},{"attributes":{"ID":203808,"DIS_CODE":0,"TOWNNAME":"佳里區","LI":"建南里","LIN":"26鄰","STREET":"公園路","SECT":" ","MAREA":" ","LANE":"７５巷","ALLEY":"１３弄","HOUSE_NO":"７號","E_COORD97":165310.19,"N_COORD97":2561535.4500000002,"ADDRESS":"公園路７５巷１３弄７號","OBJECTID":203807},"geometry":{"x":165310.18999999948,"y":2561535.4500000011}},{"attributes":{"ID":203809,"DIS_CODE":0,"TOWNNAME":"佳里區","LI":"建南里","LIN":"26鄰","STREET":"公園路","SECT":" ","MAREA":" ","LANE":"７５巷","ALLEY":"１３弄","HOUSE_NO":"８號","E_COORD97":165290.39999999999,"N_COORD97":2561531.77,"ADDRESS":"公園路７５巷１３弄８號","OBJECTID":203808},"geometry":{"x":165290.4000000013,"y":2561531.7699999996}},{"attributes":{"ID":203810,"DIS_CODE":0,"TOWNNAME":"佳里區","LI":"建南里","LIN":"26鄰","STREET":"公園路","SECT":" ","MAREA":" ","LANE":"７５巷","ALLEY":"１３弄","HOUSE_NO":"９號","E_COORD97":165312.12,"N_COORD97":2561532.3399999999,"ADDRESS":"公園路７５巷１３弄９號","OBJECTID":203809},"geometry":{"x":165312.12000000197,"y":2561532.3399999999}},{"attributes":{"ID":203811,"DIS_CODE":0,"TOWNNAME":"永康區","LI":"東橋里","LIN":"26鄰","STREET":"中正路","SECT":" ","MAREA":" ","LANE":"２７９巷","ALLEY":"２弄","HOUSE_NO":"３０號","E_COORD97":172588.60000000001,"N_COORD97":2547932.4900000002,"ADDRESS":"中正路２７９巷２弄３０號","OBJECTID":203810},"geometry":{"x":172588.59999999963,"y":2547932.4900000002}},{"attributes":{"ID":203812,"DIS_CODE":0,"TOWNNAME":"永康區","LI":"東橋里","LIN":"26鄰","STREET":"中正路","SECT":" ","MAREA":" ","LANE":"２７９巷","ALLEY":"２弄","HOUSE_NO":"２８號","E_COORD97":172594.89999999999,"N_COORD97":2547936.4900000002,"ADDRESS":"中正路２７９巷２弄２８號","OBJECTID":203811},"geometry":{"x":172594.9000000013,"y":2547936.4900000002}},{"attributes":{"ID":203813,"DIS_CODE":0,"TOWNNAME":"永康區","LI":"東橋里","LIN":"26鄰","STREET":"中正路","SECT":" ","MAREA":" ","LANE":"２７９巷","ALLEY":"２弄","HOUSE_NO":"２號","E_COORD97":172721.78,"N_COORD97":2548015.2400000002,"ADDRESS":"中正路２７９巷２弄２號","OBJECTID":203812},"geometry":{"x":172721.78000000026,"y":2548015.2400000002}},{"attributes":{"ID":203814,"DIS_CODE":0,"TOWNNAME":"永康區","LI":"東橋里","LIN":"26鄰","STREET":"中正路","SECT":" ","MAREA":" ","LANE":"２７９巷","ALLEY":"２弄","HOUSE_NO":"２９號","E_COORD97":172710.25,"N_COORD97":2547926.3599999999,"ADDRESS":"中正路２７９巷２弄２９號","OBJECTID":203813},"geometry":{"x":172710.25,"y":2547926.3599999994}},{"attributes":{"ID":203815,"DIS_CODE":0,"TOWNNAME":"永康區","LI":"東橋里","LIN":"26鄰","STREET":"中正路","SECT":" ","MAREA":" ","LANE":"２７９巷","ALLEY":"２弄","HOUSE_NO":"１７號","E_COORD97":172695.01999999999,"N_COORD97":2547945.2400000002,"ADDRESS":"中正路２７９巷２弄１７號","OBJECTID":203814},"geometry":{"x":172695.02000000048,"y":2547945.2400000002}},{"attributes":{"ID":203816,"DIS_CODE":0,"TOWNNAME":"永康區","LI":"東橋里","LIN":"26鄰","STREET":"中正路","SECT":" ","MAREA":" ","LANE":"２７９巷","ALLEY":"２弄","HOUSE_NO":"２１號","E_COORD97":172738.42999999999,"N_COORD97":2547946.4900000002,"ADDRESS":"中正路２７９巷２弄２１號","OBJECTID":203815},"geometry":{"x":172738.43000000063,"y":2547946.4900000002}},{"attributes":{"ID":203817,"DIS_CODE":0,"TOWNNAME":"學甲區","LI":"新達里","LIN":"9鄰","STREET":"中學路","SECT":" ","MAREA":" ","LANE":" ","ALLEY":" ","HOUSE_NO":"１８號","E_COORD97":166658.12,"N_COORD97":2570699.0099999998,"ADDRESS":"中學路１８號","OBJECTID":203816},"geometry":{"x":166658.12000000197,"y":2570699.0099999998}},{"attributes":{"ID":203818,"DIS_CODE":0,"TOWNNAME":"永康區","LI":"東橋里","LIN":"26鄰","STREET":"中正路","SECT":" ","MAREA":" ","LANE":"２７９巷","ALLEY":"２弄","HOUSE_NO":"３２號","E_COORD97":172581.29000000001,"N_COORD97":2547927.2400000002,"ADDRESS":"中正路２７９巷２弄３２號","OBJECTID":203817},"geometry":{"x":172581.29000000004,"y":2547927.2400000002}},{"attributes":{"ID":203819,"DIS_CODE":0,"TOWNNAME":"學甲區","LI":"新達里","LIN":"9鄰","STREET":"中學路","SECT":" ","MAREA":" ","LANE":"１７巷","ALLEY":" ","HOUSE_NO":"９號","E_COORD97":166630.73999999999,"N_COORD97":2570632.6800000002,"ADDRESS":"中學路１７巷９號","OBJECTID":203818},"geometry":{"x":166630.74000000115,"y":2570632.6799999997}},{"attributes":{"ID":203820,"DIS_CODE":0,"TOWNNAME":"柳營區","LI":"八翁里","LIN":"2鄰","STREET":" ","SECT":" ","MAREA":"八老爺","LANE":" ","ALLEY":" ","HOUSE_NO":"２１號之３","E_COORD97":178266.28,"N_COORD97":2574872.0899999999,"ADDRESS":"八老爺２１號之３","OBJECTID":203819},"geometry":{"x":178266.28000000119,"y":2574872.0899999999}},{"attributes":{"ID":203821,"DIS_CODE":0,"TOWNNAME":"歸仁區","LI":"後市里","LIN":"9鄰","STREET":"中山五街","SECT":" ","MAREA":" ","LANE":" ","ALLEY":" ","HOUSE_NO":"８０號","E_COORD97":177079.89000000001,"N_COORD97":2540660.25,"ADDRESS":"中山五街８０號","OBJECTID":203820},"geometry":{"x":177079.8900000006,"y":2540660.2500000019}},{"attributes":{"ID":203822,"DIS_CODE":0,"TOWNNAME":"歸仁區","LI":"後市里","LIN":"9鄰","STREET":"民權七街","SECT":" ","MAREA":" ","LANE":" ","ALLEY":" ","HOUSE_NO":"８號","E_COORD97":177058.44,"N_COORD97":2540715.25,"ADDRESS":"民權七街８號","OBJECTID":203821},"geometry":{"x":177058.44000000134,"y":2540715.25}},{"attributes":{"ID":203823,"DIS_CODE":0,"TOWNNAME":"柳營區","LI":"八翁里","LIN":"2鄰","STREET":" ","SECT":" ","MAREA":"八老爺","LANE":" ","ALLEY":" ","HOUSE_NO":"２１號","E_COORD97":178299.23999999999,"N_COORD97":2574880.7599999998,"ADDRESS":"八老爺２１號","OBJECTID":203822},"geometry":{"x":178299.24000000022,"y":2574880.7599999998}},{"attributes":{"ID":203824,"DIS_CODE":0,"TOWNNAME":"歸仁區","LI":"後市里","LIN":"9鄰","STREET":"大順六街","SECT":" ","MAREA":" ","LANE":" ","ALLEY":" ","HOUSE_NO":"３２號","E_COORD97":177046.20999999999,"N_COORD97":2540675.25,"ADDRESS":"大順六街３２號","OBJECTID":203823},"geometry":{"x":177046.21000000089,"y":2540675.25}},{"attributes":{"ID":203825,"DIS_CODE":0,"TOWNNAME":"學甲區","LI":"光華里","LIN":"2鄰","STREET":" ","SECT":" ","MAREA":"過港子","LANE":" ","ALLEY":" ","HOUSE_NO":"１５號之２１","E_COORD97":164467.59,"N_COORD97":2571596.7200000002,"ADDRESS":"過港子１５號之２１","OBJECTID":203824},"geometry":{"x":164467.58999999985,"y":2571596.7200000007}},{"attributes":{"ID":203826,"DIS_CODE":0,"TOWNNAME":"學甲區","LI":"光華里","LIN":"2鄰","STREET":" ","SECT":" ","MAREA":"過港子","LANE":" ","ALLEY":" ","HOUSE_NO":"１５號之２２","E_COORD97":164468.66,"N_COORD97":2571600.8900000001,"ADDRESS":"過港子１５號之２２","OBJECTID":203825},"geometry":{"x":164468.66000000015,"y":2571600.8900000025}},{"attributes":{"ID":203827,"DIS_CODE":0,"TOWNNAME":"永康區","LI":"東灣里","LIN":"26鄰","STREET":"民族路","SECT":" ","MAREA":" ","LANE":"１巷","ALLEY":"１８弄","HOUSE_NO":"１１２號","E_COORD97":175042.14000000001,"N_COORD97":2544156.04,"ADDRESS":"民族路１巷１８弄１１２號","OBJECTID":203826},"geometry":{"x":175042.1400000006,"y":2544156.040000001}},{"attributes":{"ID":203828,"DIS_CODE":0,"TOWNNAME":"下營區","LI":"營前里","LIN":"26鄰","STREET":"中正南路","SECT":" ","MAREA":" ","LANE":"２０５巷","ALLEY":"２６弄","HOUSE_NO":"１號","E_COORD97":174827.66,"N_COORD97":2569991.1099999999,"ADDRESS":"中正南路２０５巷２６弄１號","OBJECTID":203827},"geometry":{"x":174827.66000000108,"y":2569991.1100000013}},{"attributes":{"ID":203829,"DIS_CODE":0,"TOWNNAME":"學甲區","LI":"光華里","LIN":"2鄰","STREET":" ","SECT":" ","MAREA":"過港子","LANE":" ","ALLEY":" ","HOUSE_NO":"１５號之２３","E_COORD97":164469.69,"N_COORD97":2571605.0899999999,"ADDRESS":"過港子１５號之２３","OBJECTID":203828},"geometry":{"x":164469.69000000134,"y":2571605.0900000017}},{"attributes":{"ID":203830,"DIS_CODE":0,"TOWNNAME":"下營區","LI":"營前里","LIN":"26鄰","STREET":"中正南路","SECT":" ","MAREA":" ","LANE":"２０５巷","ALLEY":"２６弄","HOUSE_NO":"２號","E_COORD97":174817.29000000001,"N_COORD97":2570006.6400000001,"ADDRESS":"中正南路２０５巷２６弄２號","OBJECTID":203829},"geometry":{"x":174817.29000000004,"y":2570006.6400000006}},{"attributes":{"ID":203831,"DIS_CODE":0,"TOWNNAME":"下營區","LI":"營前里","LIN":"26鄰","STREET":"中正南路","SECT":" ","MAREA":" ","LANE":"２０５巷","ALLEY":"２６弄","HOUSE_NO":"３號","E_COORD97":174823.45999999999,"N_COORD97":2569989.5499999998,"ADDRESS":"中正南路２０５巷２６弄３號","OBJECTID":203830},"geometry":{"x":174823.46000000089,"y":2569989.5500000026}},{"attributes":{"ID":203832,"DIS_CODE":0,"TOWNNAME":"下營區","LI":"營前里","LIN":"26鄰","STREET":"中正南路","SECT":" ","MAREA":" ","LANE":"２０５巷","ALLEY":"２６弄","HOUSE_NO":"５號","E_COORD97":174820.16,"N_COORD97":2569986.5800000001,"ADDRESS":"中正南路２０５巷２６弄５號","OBJECTID":203831},"geometry":{"x":174820.16000000201,"y":2569986.5800000001}},{"attributes":{"ID":203833,"DIS_CODE":0,"TOWNNAME":"學甲區","LI":"光華里","LIN":"2鄰","STREET":" ","SECT":" ","MAREA":"過港子","LANE":" ","ALLEY":" ","HOUSE_NO":"１５號之２４","E_COORD97":164470.92000000001,"N_COORD97":2571609.79,"ADDRESS":"過港子１５號之２４","OBJECTID":203832},"geometry":{"x":164470.92000000179,"y":2571609.790000001}},{"attributes":{"ID":203834,"DIS_CODE":0,"TOWNNAME":"下營區","LI":"營前里","LIN":"26鄰","STREET":"中正南路","SECT":" ","MAREA":" ","LANE":"２０５巷","ALLEY":"２６弄","HOUSE_NO":"６號","E_COORD97":174811.51000000001,"N_COORD97":2570004.0499999998,"ADDRESS":"中正南路２０５巷２６弄６號","OBJECTID":203833},"geometry":{"x":174811.51000000071,"y":2570004.0500000007}},{"attributes":{"ID":203835,"DIS_CODE":0,"TOWNNAME":"下營區","LI":"營前里","LIN":"26鄰","STREET":"中正南路","SECT":" ","MAREA":" ","LANE":"２０５巷","ALLEY":"２６弄","HOUSE_NO":"７號","E_COORD97":174816.53,"N_COORD97":2569984.98,"ADDRESS":"中正南路２０５巷２６弄７號","OBJECTID":203834},"geometry":{"x":174816.53000000119,"y":2569984.9800000042}},{"attributes":{"ID":203836,"DIS_CODE":0,"TOWNNAME":"學甲區","LI":"光華里","LIN":"2鄰","STREET":" ","SECT":" ","MAREA":"過港子","LANE":" ","ALLEY":" ","HOUSE_NO":"１５號之２５","E_COORD97":164471.92999999999,"N_COORD97":2571613.9900000002,"ADDRESS":"過港子１５號之２５","OBJECTID":203835},"geometry":{"x":164471.9299999997,"y":2571613.9900000002}},{"attributes":{"ID":203837,"DIS_CODE":0,"TOWNNAME":"學甲區","LI":"光華里","LIN":"2鄰","STREET":" ","SECT":" ","MAREA":"過港子","LANE":" ","ALLEY":" ","HOUSE_NO":"１５號之２６","E_COORD97":164473.25,"N_COORD97":2571618.6000000001,"ADDRESS":"過港子１５號之２６","OBJECTID":203836},"geometry":{"x":164473.25,"y":2571618.6000000015}},{"attributes":{"ID":203838,"DIS_CODE":0,"TOWNNAME":"下營區","LI":"營前里","LIN":"26鄰","STREET":"中正南路","SECT":" ","MAREA":" ","LANE":"２０５巷","ALLEY":"２６弄","HOUSE_NO":"８號","E_COORD97":174806.39000000001,"N_COORD97":2570002.8399999999,"ADDRESS":"中正南路２０５巷２６弄８號","OBJECTID":203837},"geometry":{"x":174806.39000000153,"y":2570002.8400000017}},{"attributes":{"ID":203839,"DIS_CODE":0,"TOWNNAME":"下營區","LI":"營前里","LIN":"26鄰","STREET":"中正南路","SECT":" ","MAREA":" ","LANE":"２０５巷","ALLEY":"２６弄","HOUSE_NO":"９號","E_COORD97":174812,"N_COORD97":2569982.5099999998,"ADDRESS":"中正南路２０５巷２６弄９號","OBJECTID":203838},"geometry":{"x":174812,"y":2569982.5099999998}},{"attributes":{"ID":203840,"DIS_CODE":0,"TOWNNAME":"學甲區","LI":"光華里","LIN":"2鄰","STREET":" ","SECT":" ","MAREA":"過港子","LANE":" ","ALLEY":" ","HOUSE_NO":"１５號","E_COORD97":164446.92000000001,"N_COORD97":2571457.3500000001,"ADDRESS":"過港子１５號","OBJECTID":203839},"geometry":{"x":164446.91999999899,"y":2571457.3500000015}},{"attributes":{"ID":203841,"DIS_CODE":0,"TOWNNAME":"學甲區","LI":"光華里","LIN":"2鄰","STREET":" ","SECT":" ","MAREA":"過港子","LANE":" ","ALLEY":" ","HOUSE_NO":"１７號","E_COORD97":164477.04999999999,"N_COORD97":2571521.8199999998,"ADDRESS":"過港子１７號","OBJECTID":203840},"geometry":{"x":164477.05000000075,"y":2571521.820000004}},{"attributes":{"ID":203842,"DIS_CODE":0,"TOWNNAME":"學甲區","LI":"光華里","LIN":"2鄰","STREET":" ","SECT":" ","MAREA":"過港子","LANE":" ","ALLEY":" ","HOUSE_NO":"１８號之１０","E_COORD97":164478.78,"N_COORD97":2571563.6600000001,"ADDRESS":"過港子１８號之１０","OBJECTID":203841},"geometry":{"x":164478.77999999933,"y":2571563.660000002}},{"attributes":{"ID":203843,"DIS_CODE":0,"TOWNNAME":"學甲區","LI":"光華里","LIN":"2鄰","STREET":" ","SECT":" ","MAREA":"過港子","LANE":" ","ALLEY":" ","HOUSE_NO":"１８號之１１","E_COORD97":164502.34,"N_COORD97":2571560.9900000002,"ADDRESS":"過港子１８號之１１","OBJECTID":203842},"geometry":{"x":164502.34000000078,"y":2571560.9899999984}},{"attributes":{"ID":203844,"DIS_CODE":0,"TOWNNAME":"學甲區","LI":"光華里","LIN":"2鄰","STREET":" ","SECT":" ","MAREA":"過港子","LANE":" ","ALLEY":" ","HOUSE_NO":"１８號之１２","E_COORD97":164502.20999999999,"N_COORD97":2571565.98,"ADDRESS":"過港子１８號之１２","OBJECTID":203843},"geometry":{"x":164502.20999999996,"y":2571565.9800000023}},{"attributes":{"ID":203845,"DIS_CODE":0,"TOWNNAME":"學甲區","LI":"光華里","LIN":"2鄰","STREET":" ","SECT":" ","MAREA":"過港子","LANE":" ","ALLEY":" ","HOUSE_NO":"１８號之１３","E_COORD97":164501.87,"N_COORD97":2571570.0099999998,"ADDRESS":"過港子１８號之１３","OBJECTID":203844},"geometry":{"x":164501.87000000197,"y":2571570.0099999998}},{"attributes":{"ID":203846,"DIS_CODE":0,"TOWNNAME":"下營區","LI":"營前里","LIN":"26鄰","STREET":"中正南路","SECT":" ","MAREA":" ","LANE":"２０５巷","ALLEY":"２７弄","HOUSE_NO":"１號","E_COORD97":174882.01999999999,"N_COORD97":2570070.77,"ADDRESS":"中正南路２０５巷２７弄１號","OBJECTID":203845},"geometry":{"x":174882.02000000048,"y":2570070.7700000014}},{"attributes":{"ID":203847,"DIS_CODE":0,"TOWNNAME":"下營區","LI":"營前里","LIN":"26鄰","STREET":"中正南路","SECT":" ","MAREA":" ","LANE":"２０５巷","ALLEY":"２７弄","HOUSE_NO":"２號","E_COORD97":174861.31,"N_COORD97":2570081.6299999999,"ADDRESS":"中正南路２０５巷２７弄２號","OBJECTID":203846},"geometry":{"x":174861.31000000052,"y":2570081.6300000008}},{"attributes":{"ID":203848,"DIS_CODE":0,"TOWNNAME":"學甲區","LI":"光華里","LIN":"2鄰","STREET":" ","SECT":" ","MAREA":"過港子","LANE":" ","ALLEY":" ","HOUSE_NO":"１８號之１４","E_COORD97":164502.01000000001,"N_COORD97":2571574.4500000002,"ADDRESS":"過港子１８號之１４","OBJECTID":203847},"geometry":{"x":164502.00999999978,"y":2571574.4500000011}},{"attributes":{"ID":203849,"DIS_CODE":0,"TOWNNAME":"永康區","LI":"東灣里","LIN":"26鄰","STREET":"民族路","SECT":" ","MAREA":" ","LANE":"１巷","ALLEY":"１８弄","HOUSE_NO":"１０９號","E_COORD97":175076.51999999999,"N_COORD97":2544140.54,"ADDRESS":"民族路１巷１８弄１０９號","OBJECTID":203848},"geometry":{"x":175076.52000000142,"y":2544140.5399999991}},{"attributes":{"ID":203850,"DIS_CODE":0,"TOWNNAME":"歸仁區","LI":"後市里","LIN":"9鄰","STREET":"大順六街","SECT":" ","MAREA":" ","LANE":" ","ALLEY":" ","HOUSE_NO":"３６號","E_COORD97":177046.20999999999,"N_COORD97":2540684.25,"ADDRESS":"大順六街３６號","OBJECTID":203849},"geometry":{"x":177046.21000000089,"y":2540684.2500000019}},{"attributes":{"ID":203851,"DIS_CODE":0,"TOWNNAME":"學甲區","LI":"光華里","LIN":"2鄰","STREET":" ","SECT":" ","MAREA":"過港子","LANE":" ","ALLEY":" ","HOUSE_NO":"１８號之１５","E_COORD97":164501.76000000001,"N_COORD97":2571578.7999999998,"ADDRESS":"過港子１８號之１５","OBJECTID":203850},"geometry":{"x":164501.75999999978,"y":2571578.8000000007}},{"attributes":{"ID":203852,"DIS_CODE":0,"TOWNNAME":"學甲區","LI":"光華里","LIN":"2鄰","STREET":" ","SECT":" ","MAREA":"過港子","LANE":" ","ALLEY":" ","HOUSE_NO":"１８號之１６","E_COORD97":164501.64000000001,"N_COORD97":2571583.0899999999,"ADDRESS":"過港子１８號之１６","OBJECTID":203851},"geometry":{"x":164501.6400000006,"y":2571583.0899999999}},{"attributes":{"ID":203853,"DIS_CODE":0,"TOWNNAME":"學甲區","LI":"光華里","LIN":"2鄰","STREET":" ","SECT":" ","MAREA":"過港子","LANE":" ","ALLEY":" ","HOUSE_NO":"１８號之１７","E_COORD97":164501.54000000001,"N_COORD97":2571586.9199999999,"ADDRESS":"過港子１８號之１７","OBJECTID":203852},"geometry":{"x":164501.54000000004,"y":2571586.9199999999}},{"attributes":{"ID":203854,"DIS_CODE":0,"TOWNNAME":"學甲區","LI":"光華里","LIN":"2鄰","STREET":" ","SECT":" ","MAREA":"過港子","LANE":" ","ALLEY":" ","HOUSE_NO":"１８號之１８","E_COORD97":164501.29999999999,"N_COORD97":2571591.0299999998,"ADDRESS":"過港子１８號之１８","OBJECTID":203853},"geometry":{"x":164501.29999999981,"y":2571591.0300000012}},{"attributes":{"ID":203855,"DIS_CODE":0,"TOWNNAME":"學甲區","LI":"光華里","LIN":"2鄰","STREET":" ","SECT":" ","MAREA":"過港子","LANE":" ","ALLEY":" ","HOUSE_NO":"１８號之１９","E_COORD97":164501.14999999999,"N_COORD97":2571595.1899999999,"ADDRESS":"過港子１８號之１９","OBJECTID":203854},"geometry":{"x":164501.15000000037,"y":2571595.1899999995}},{"attributes":{"ID":203856,"DIS_CODE":0,"TOWNNAME":"學甲區","LI":"光華里","LIN":"2鄰","STREET":" ","SECT":" ","MAREA":"過港子","LANE":" ","ALLEY":" ","HOUSE_NO":"１８號之１","E_COORD97":164507.57000000001,"N_COORD97":2571532.2599999998,"ADDRESS":"過港子１８號之１","OBJECTID":203855},"geometry":{"x":164507.57000000216,"y":2571532.2600000016}},{"attributes":{"ID":203857,"DIS_CODE":0,"TOWNNAME":"北區","LI":"小康里","LIN":"9鄰","STREET":"大武街","SECT":" ","MAREA":" ","LANE":" ","ALLEY":" ","HOUSE_NO":"２０８號","E_COORD97":169672.85999999999,"N_COORD97":2546162.0800000001,"ADDRESS":"大武街２０８號","OBJECTID":203856},"geometry":{"x":169672.86000000127,"y":2546162.0800000001}},{"attributes":{"ID":203858,"DIS_CODE":0,"TOWNNAME":"北區","LI":"小康里","LIN":"9鄰","STREET":"大武街","SECT":" ","MAREA":" ","LANE":" ","ALLEY":" ","HOUSE_NO":"２１０號","E_COORD97":169672.85999999999,"N_COORD97":2546169.0800000001,"ADDRESS":"大武街２１０號","OBJECTID":203857},"geometry":{"x":169672.86000000127,"y":2546169.0800000001}},{"attributes":{"ID":203859,"DIS_CODE":0,"TOWNNAME":"北區","LI":"小康里","LIN":"9鄰","STREET":"大武街","SECT":" ","MAREA":" ","LANE":" ","ALLEY":" ","HOUSE_NO":"２１４號","E_COORD97":169675.10999999999,"N_COORD97":2546181.7599999998,"ADDRESS":"大武街２１４號","OBJECTID":203858},"geometry":{"x":169675.11000000034,"y":2546181.7599999979}},{"attributes":{"ID":203860,"DIS_CODE":0,"TOWNNAME":"北區","LI":"小康里","LIN":"9鄰","STREET":"大武街","SECT":" ","MAREA":" ","LANE":" ","ALLEY":" ","HOUSE_NO":"２１６號","E_COORD97":169688.20000000001,"N_COORD97":2546204.1200000001,"ADDRESS":"大武街２１６號","OBJECTID":203859},"geometry":{"x":169688.20000000019,"y":2546204.120000001}},{"attributes":{"ID":203861,"DIS_CODE":0,"TOWNNAME":"永康區","LI":"尚頂里","LIN":"26鄰","STREET":"南台街","SECT":" ","MAREA":" ","LANE":"５４巷","ALLEY":"１０弄","HOUSE_NO":"９號","E_COORD97":170364.48000000001,"N_COORD97":2547046,"ADDRESS":"南台街５４巷１０弄９號","OBJECTID":203860},"geometry":{"x":170364.48000000045,"y":2547046.0000000019}},{"attributes":{"ID":203862,"DIS_CODE":0,"TOWNNAME":"永康區","LI":"西灣里","LIN":"26鄰","STREET":"國光七街","SECT":" ","MAREA":" ","LANE":"６巷","ALLEY":"１１弄","HOUSE_NO":"１３號","E_COORD97":174353.48000000001,"N_COORD97":2545636.5,"ADDRESS":"國光七街６巷１１弄１３號","OBJECTID":203861},"geometry":{"x":174353.48000000045,"y":2545636.5}},{"attributes":{"ID":203863,"DIS_CODE":0,"TOWNNAME":"永康區","LI":"東灣里","LIN":"26鄰","STREET":"大灣東路","SECT":" ","MAREA":" ","LANE":"２１８巷","ALLEY":"４３弄","HOUSE_NO":"１９號","E_COORD97":174876.85000000001,"N_COORD97":2544330.4900000002,"ADDRESS":"大灣東路２１８巷４３弄１９號","OBJECTID":203862},"geometry":{"x":174876.85000000056,"y":2544330.4900000021}},{"attributes":{"ID":203864,"DIS_CODE":0,"TOWNNAME":"永康區","LI":"東橋里","LIN":"26鄰","STREET":"中正路","SECT":" ","MAREA":" ","LANE":"２７９巷","ALLEY":"２弄","HOUSE_NO":"２４號","E_COORD97":172632.48000000001,"N_COORD97":2547961.75,"ADDRESS":"中正路２７９巷２弄２４號","OBJECTID":203863},"geometry":{"x":172632.48000000045,"y":2547961.75}},{"attributes":{"ID":203865,"DIS_CODE":0,"TOWNNAME":"永康區","LI":"尚頂里","LIN":"26鄰","STREET":"南台街","SECT":" ","MAREA":" ","LANE":"５４巷","ALLEY":"１０弄","HOUSE_NO":"２號之１","E_COORD97":170377.48000000001,"N_COORD97":2547030.5499999998,"ADDRESS":"南台街５４巷１０弄２號之１","OBJECTID":203864},"geometry":{"x":170377.48000000138,"y":2547030.5500000007}},{"attributes":{"ID":203866,"DIS_CODE":0,"TOWNNAME":"永康區","LI":"尚頂里","LIN":"26鄰","STREET":"南台街","SECT":" ","MAREA":" ","LANE":"５４巷","ALLEY":"１０弄","HOUSE_NO":"１號","E_COORD97":170355.57000000001,"N_COORD97":2547025.75,"ADDRESS":"南台街５４巷１０弄１號","OBJECTID":203865},"geometry":{"x":170355.5700000003,"y":2547025.75}},{"attributes":{"ID":203867,"DIS_CODE":0,"TOWNNAME":"學甲區","LI":"光華里","LIN":"2鄰","STREET":" ","SECT":" ","MAREA":"過港子","LANE":" ","ALLEY":" ","HOUSE_NO":"１８號之２０","E_COORD97":164501.34,"N_COORD97":2571600.2000000002,"ADDRESS":"過港子１８號之２０","OBJECTID":203866},"geometry":{"x":164501.33999999985,"y":2571600.2000000011}},{"attributes":{"ID":203868,"DIS_CODE":0,"TOWNNAME":"永康區","LI":"西灣里","LIN":"26鄰","STREET":"國光七街","SECT":" ","MAREA":" ","LANE":"６巷","ALLEY":"１１弄","HOUSE_NO":"２０號","E_COORD97":174356.79999999999,"N_COORD97":2545668.8799999999,"ADDRESS":"國光七街６巷１１弄２０號","OBJECTID":203867},"geometry":{"x":174356.80000000075,"y":2545668.8800000008}},{"attributes":{"ID":203869,"DIS_CODE":0,"TOWNNAME":"永康區","LI":"北灣里","LIN":"26鄰","STREET":"文賢街","SECT":" ","MAREA":" ","LANE":"７８巷","ALLEY":"１９弄","HOUSE_NO":"８７號","E_COORD97":175435.98999999999,"N_COORD97":2545463.5699999998,"ADDRESS":"文賢街７８巷１９弄８７號","OBJECTID":203868},"geometry":{"x":175435.99000000022,"y":2545463.5700000003}},{"attributes":{"ID":203870,"DIS_CODE":0,"TOWNNAME":"永康區","LI":"正強里","LIN":"26鄰","STREET":"中正路","SECT":" ","MAREA":" ","LANE":"１５５巷","ALLEY":"１７弄","HOUSE_NO":"１２號","E_COORD97":173266.26000000001,"N_COORD97":2547826.02,"ADDRESS":"中正路１５５巷１７弄１２號","OBJECTID":203869},"geometry":{"x":173266.25999999885,"y":2547826.0199999996}},{"attributes":{"ID":203871,"DIS_CODE":0,"TOWNNAME":"永康區","LI":"正強里","LIN":"26鄰","STREET":"中正路","SECT":" ","MAREA":" ","LANE":"１５５巷","ALLEY":"１９弄","HOUSE_NO":"５號","E_COORD97":173248.16,"N_COORD97":2547799.8900000001,"ADDRESS":"中正路１５５巷１９弄５號","OBJECTID":203870},"geometry":{"x":173248.16000000015,"y":2547799.8900000025}},{"attributes":{"ID":203872,"DIS_CODE":0,"TOWNNAME":"學甲區","LI":"光華里","LIN":"2鄰","STREET":" ","SECT":" ","MAREA":"過港子","LANE":" ","ALLEY":" ","HOUSE_NO":"１８號之２１","E_COORD97":164496.41,"N_COORD97":2571602.6800000002,"ADDRESS":"過港子１８號之２１","OBJECTID":203871},"geometry":{"x":164496.40999999922,"y":2571602.6799999997}},{"attributes":{"ID":203873,"DIS_CODE":0,"TOWNNAME":"學甲區","LI":"光華里","LIN":"2鄰","STREET":" ","SECT":" ","MAREA":"過港子","LANE":" ","ALLEY":" ","HOUSE_NO":"１８號之２２","E_COORD97":164491.82000000001,"N_COORD97":2571605.1699999999,"ADDRESS":"過港子１８號之２２","OBJECTID":203872},"geometry":{"x":164491.8200000003,"y":2571605.1700000018}},{"attributes":{"ID":203874,"DIS_CODE":0,"TOWNNAME":"學甲區","LI":"光華里","LIN":"2鄰","STREET":" ","SECT":" ","MAREA":"過港子","LANE":" ","ALLEY":" ","HOUSE_NO":"１８號之２３","E_COORD97":164487.91,"N_COORD97":2571605.6000000001,"ADDRESS":"過港子１８號之２３","OBJECTID":203873},"geometry":{"x":164487.90999999922,"y":2571605.6000000015}},{"attributes":{"ID":203875,"DIS_CODE":0,"TOWNNAME":"永康區","LI":"北灣里","LIN":"26鄰","STREET":"文賢街","SECT":" ","MAREA":" ","LANE":"７８巷","ALLEY":"１９弄","HOUSE_NO":"７５號","E_COORD97":175444.42999999999,"N_COORD97":2545426.7599999998,"ADDRESS":"文賢街７８巷１９弄７５號","OBJECTID":203874},"geometry":{"x":175444.4299999997,"y":2545426.7600000016}},{"attributes":{"ID":203876,"DIS_CODE":0,"TOWNNAME":"學甲區","LI":"光華里","LIN":"2鄰","STREET":" ","SECT":" ","MAREA":"過港子","LANE":" ","ALLEY":" ","HOUSE_NO":"１８號之２","E_COORD97":164503.45000000001,"N_COORD97":2571547.6000000001,"ADDRESS":"過港子１８號之２","OBJECTID":203875},"geometry":{"x":164503.45000000112,"y":2571547.6000000015}},{"attributes":{"ID":203877,"DIS_CODE":0,"TOWNNAME":"學甲區","LI":"光華里","LIN":"2鄰","STREET":" ","SECT":" ","MAREA":"過港子","LANE":" ","ALLEY":" ","HOUSE_NO":"１８號之３","E_COORD97":164503.06,"N_COORD97":2571552.5,"ADDRESS":"過港子１８號之３","OBJECTID":203876},"geometry":{"x":164503.05999999959,"y":2571552.5}},{"attributes":{"ID":203878,"DIS_CODE":0,"TOWNNAME":"學甲區","LI":"光華里","LIN":"2鄰","STREET":" ","SECT":" ","MAREA":"過港子","LANE":" ","ALLEY":" ","HOUSE_NO":"１８號之４","E_COORD97":164492.84,"N_COORD97":2571550.4900000002,"ADDRESS":"過港子１８號之４","OBJECTID":203877},"geometry":{"x":164492.83999999985,"y":2571550.4900000002}},{"attributes":{"ID":203879,"DIS_CODE":0,"TOWNNAME":"學甲區","LI":"光華里","LIN":"2鄰","STREET":" ","SECT":" ","MAREA":"過港子","LANE":" ","ALLEY":" ","HOUSE_NO":"１８號之５","E_COORD97":164488.87,"N_COORD97":2571550.2000000002,"ADDRESS":"過港子１８號之５","OBJECTID":203878},"geometry":{"x":164488.87000000104,"y":2571550.2000000011}},{"attributes":{"ID":203880,"DIS_CODE":0,"TOWNNAME":"學甲區","LI":"光華里","LIN":"2鄰","STREET":" ","SECT":" ","MAREA":"過港子","LANE":" ","ALLEY":" ","HOUSE_NO":"１８號之６","E_COORD97":164484.26999999999,"N_COORD97":2571550.8100000001,"ADDRESS":"過港子１８號之６","OBJECTID":203879},"geometry":{"x":164484.26999999955,"y":2571550.8100000024}},{"attributes":{"ID":203881,"DIS_CODE":0,"TOWNNAME":"學甲區","LI":"光華里","LIN":"2鄰","STREET":" ","SECT":" ","MAREA":"過港子","LANE":" ","ALLEY":" ","HOUSE_NO":"１８號之７","E_COORD97":164492.28,"N_COORD97":2571563.6899999999,"ADDRESS":"過港子１８號之７","OBJECTID":203880},"geometry":{"x":164492.28000000026,"y":2571563.6900000013}},{"attributes":{"ID":203882,"DIS_CODE":0,"TOWNNAME":"學甲區","LI":"光華里","LIN":"2鄰","STREET":" ","SECT":" ","MAREA":"過港子","LANE":" ","ALLEY":" ","HOUSE_NO":"１８號之８","E_COORD97":164487.75,"N_COORD97":2571563.79,"ADDRESS":"過港子１８號之８","OBJECTID":203881},"geometry":{"x":164487.75000000093,"y":2571563.7899999991}},{"attributes":{"ID":203883,"DIS_CODE":0,"TOWNNAME":"學甲區","LI":"光華里","LIN":"2鄰","STREET":" ","SECT":" ","MAREA":"過港子","LANE":" ","ALLEY":" ","HOUSE_NO":"１８號之９","E_COORD97":164483.41,"N_COORD97":2571563.6299999999,"ADDRESS":"過港子１８號之９","OBJECTID":203882},"geometry":{"x":164483.41000000108,"y":2571563.6300000008}},{"attributes":{"ID":203884,"DIS_CODE":0,"TOWNNAME":"佳里區","LI":"興化里","LIN":"2鄰","STREET":" ","SECT":" ","MAREA":"佳里興","LANE":" ","ALLEY":" ","HOUSE_NO":"４００號","E_COORD97":165655.5,"N_COORD97":2565717.2000000002,"ADDRESS":"佳里興４００號","OBJECTID":203883},"geometry":{"x":165655.50000000093,"y":2565717.200000003}},{"attributes":{"ID":203885,"DIS_CODE":0,"TOWNNAME":"佳里區","LI":"佳化里","LIN":"2鄰","STREET":" ","SECT":" ","MAREA":"佳里興","LANE":" ","ALLEY":" ","HOUSE_NO":"１５號之１０","E_COORD97":167749.70999999999,"N_COORD97":2565183.46,"ADDRESS":"佳里興１５號之１０","OBJECTID":203884},"geometry":{"x":167749.71000000089,"y":2565183.4600000009}},{"attributes":{"ID":203886,"DIS_CODE":0,"TOWNNAME":"佳里區","LI":"佳化里","LIN":"2鄰","STREET":" ","SECT":" ","MAREA":"佳里興","LANE":" ","ALLEY":" ","HOUSE_NO":"１５號之１１","E_COORD97":167754.64000000001,"N_COORD97":2565206.3700000001,"ADDRESS":"佳里興１５號之１１","OBJECTID":203885},"geometry":{"x":167754.6400000006,"y":2565206.3700000029}},{"attributes":{"ID":203887,"DIS_CODE":0,"TOWNNAME":"佳里區","LI":"佳化里","LIN":"2鄰","STREET":" ","SECT":" ","MAREA":"佳里興","LANE":" ","ALLEY":" ","HOUSE_NO":"１５號之１２","E_COORD97":167758.84,"N_COORD97":2565205.21,"ADDRESS":"佳里興１５號之１２","OBJECTID":203886},"geometry":{"x":167758.84000000078,"y":2565205.2100000009}},{"attributes":{"ID":203888,"DIS_CODE":0,"TOWNNAME":"南區","LI":"興農里","LIN":"4鄰","STREET":"明興路","SECT":" ","MAREA":" ","LANE":" ","ALLEY":" ","HOUSE_NO":"１１８０號","E_COORD97":166470.89999999999,"N_COORD97":2536519.2999999998,"ADDRESS":"明興路１１８０號","OBJECTID":203887},"geometry":{"x":166470.90000000037,"y":2536519.3000000007}},{"attributes":{"ID":203889,"DIS_CODE":0,"TOWNNAME":"安南區","LI":"大安里","LIN":"5鄰","STREET":"理安街","SECT":" ","MAREA":" ","LANE":" ","ALLEY":" ","HOUSE_NO":"７１號","E_COORD97":167345.82999999999,"N_COORD97":2548025.5600000001,"ADDRESS":"理安街７１號","OBJECTID":203888},"geometry":{"x":167345.83000000007,"y":2548025.5600000024}},{"attributes":{"ID":203890,"DIS_CODE":0,"TOWNNAME":"南區","LI":"興農里","LIN":" ","STREET":"明興路","SECT":" ","MAREA":" ","LANE":" ","ALLEY":" ","HOUSE_NO":"１０９３號","E_COORD97":166524.67000000001,"N_COORD97":2536630.8700000001,"ADDRESS":"明興路１０９３號","OBJECTID":203889},"geometry":{"x":166524.66999999993,"y":2536630.870000001}},{"attributes":{"ID":203891,"DIS_CODE":0,"TOWNNAME":"南區","LI":"鯤鯓里","LIN":" ","STREET":"鯤鯓路","SECT":" ","MAREA":" ","LANE":" ","ALLEY":" ","HOUSE_NO":"７０號","E_COORD97":165166.26999999999,"N_COORD97":2540018.1499999999,"ADDRESS":"鯤鯓路７０號","OBJECTID":203890},"geometry":{"x":165166.26999999955,"y":2540018.1500000004}},{"attributes":{"ID":203892,"DIS_CODE":0,"TOWNNAME":"南區","LI":"鯤鯓里","LIN":" ","STREET":"鯤鯓路","SECT":" ","MAREA":" ","LANE":" ","ALLEY":" ","HOUSE_NO":"１３５號","E_COORD97":164909.67000000001,"N_COORD97":2540084.77,"ADDRESS":"鯤鯓路１３５號","OBJECTID":203891},"geometry":{"x":164909.66999999993,"y":2540084.7699999996}},{"attributes":{"ID":203893,"DIS_CODE":0,"TOWNNAME":"永康區","LI":"北灣里","LIN":"26鄰","STREET":"文賢街","SECT":" ","MAREA":" ","LANE":"７８巷","ALLEY":"１９弄","HOUSE_NO":"３３號","E_COORD97":175437.98999999999,"N_COORD97":2545380.3700000001,"ADDRESS":"文賢街７８巷１９弄３３號","OBJECTID":203892},"geometry":{"x":175437.99000000022,"y":2545380.3700000029}},{"attributes":{"ID":203894,"DIS_CODE":0,"TOWNNAME":"永康區","LI":"北灣里","LIN":"26鄰","STREET":"文賢街","SECT":" ","MAREA":" ","LANE":"７８巷","ALLEY":"１９弄","HOUSE_NO":"２３號","E_COORD97":175424.70999999999,"N_COORD97":2545359.8199999998,"ADDRESS":"文賢街７８巷１９弄２３號","OBJECTID":203893},"geometry":{"x":175424.70999999996,"y":2545359.8200000022}},{"attributes":{"ID":203895,"DIS_CODE":0,"TOWNNAME":"永康區","LI":"正強里","LIN":"26鄰","STREET":"中正路","SECT":" ","MAREA":" ","LANE":"１５５巷","ALLEY":"１７弄","HOUSE_NO":"３號","E_COORD97":173241.64000000001,"N_COORD97":2547834.9500000002,"ADDRESS":"中正路１５５巷１７弄３號","OBJECTID":203894},"geometry":{"x":173241.64000000153,"y":2547834.9500000011}},{"attributes":{"ID":203896,"DIS_CODE":0,"TOWNNAME":"永康區","LI":"正強里","LIN":"26鄰","STREET":"中正路","SECT":" ","MAREA":" ","LANE":"１５５巷","ALLEY":"１７弄","HOUSE_NO":"４號","E_COORD97":173243.29999999999,"N_COORD97":2547824.02,"ADDRESS":"中正路１５５巷１７弄４號","OBJECTID":203895},"geometry":{"x":173243.29999999981,"y":2547824.0199999977}},{"attributes":{"ID":203897,"DIS_CODE":0,"TOWNNAME":"永康區","LI":"北灣里","LIN":"26鄰","STREET":"文賢街","SECT":" ","MAREA":" ","LANE":"７８巷","ALLEY":"１９弄","HOUSE_NO":"１０５號","E_COORD97":175456.23000000001,"N_COORD97":2545497.27,"ADDRESS":"文賢街７８巷１９弄１０５號","OBJECTID":203896},"geometry":{"x":175456.23000000138,"y":2545497.2700000014}},{"attributes":{"ID":203898,"DIS_CODE":0,"TOWNNAME":"永康區","LI":"北灣里","LIN":"26鄰","STREET":"文賢街","SECT":" ","MAREA":" ","LANE":"７８巷","ALLEY":"１９弄","HOUSE_NO":"８９號","E_COORD97":175440.89999999999,"N_COORD97":2545463.5699999998,"ADDRESS":"文賢街７８巷１９弄８９號","OBJECTID":203897},"geometry":{"x":175440.90000000224,"y":2545463.5700000003}},{"attributes":{"ID":203899,"DIS_CODE":0,"TOWNNAME":"永康區","LI":"北灣里","LIN":"26鄰","STREET":"文賢街","SECT":" ","MAREA":" ","LANE":"７８巷","ALLEY":"１９弄","HOUSE_NO":"８３號","E_COORD97":175444.64000000001,"N_COORD97":2545443.5099999998,"ADDRESS":"文賢街７８巷１９弄８３號","OBJECTID":203898},"geometry":{"x":175444.63999999966,"y":2545443.5099999998}},{"attributes":{"ID":203900,"DIS_CODE":0,"TOWNNAME":"永康區","LI":"正強里","LIN":"26鄰","STREET":"中正路","SECT":" ","MAREA":" ","LANE":"１５５巷","ALLEY":"１９弄","HOUSE_NO":"１３號","E_COORD97":173265.79000000001,"N_COORD97":2547801.3900000001,"ADDRESS":"中正路１５５巷１９弄１３號","OBJECTID":203899},"geometry":{"x":173265.79000000004,"y":2547801.3900000006}},{"attributes":{"ID":203901,"DIS_CODE":0,"TOWNNAME":"永康區","LI":"北灣里","LIN":"26鄰","STREET":"文賢街","SECT":" ","MAREA":" ","LANE":"７８巷","ALLEY":"１９弄","HOUSE_NO":"８５號","E_COORD97":175444.94,"N_COORD97":2545449.0099999998,"ADDRESS":"文賢街７８巷１９弄８５號","OBJECTID":203900},"geometry":{"x":175444.94000000134,"y":2545449.0100000016}},{"attributes":{"ID":203902,"DIS_CODE":0,"TOWNNAME":"新營區","LI":"新南里","LIN":"26鄰","STREET":"復興路","SECT":" ","MAREA":" ","LANE":"６２０巷","ALLEY":"３９弄","HOUSE_NO":"５２號四樓之２","E_COORD97":177901.25,"N_COORD97":2578494.2599999998,"ADDRESS":"復興路６２０巷３９弄５２號四樓之２","OBJECTID":203901},"geometry":{"x":177901.25000000186,"y":2578494.2599999998}},{"attributes":{"ID":203903,"DIS_CODE":0,"TOWNNAME":"南區","LI":"興農里","LIN":"13鄰","STREET":"萬年一街","SECT":" ","MAREA":" ","LANE":" ","ALLEY":" ","HOUSE_NO":"１６０號","E_COORD97":166614.95000000001,"N_COORD97":2536775.3700000001,"ADDRESS":"萬年一街１６０號","OBJECTID":203902},"geometry":{"x":166614.95000000019,"y":2536775.3700000029}},{"attributes":{"ID":203904,"DIS_CODE":0,"TOWNNAME":"南區","LI":"興農里","LIN":"12鄰","STREET":"明興路","SECT":" ","MAREA":" ","LANE":" ","ALLEY":" ","HOUSE_NO":"１１２７號","E_COORD97":166565.01000000001,"N_COORD97":2536503.2000000002,"ADDRESS":"明興路１１２７號","OBJECTID":203903},"geometry":{"x":166565.00999999978,"y":2536503.2000000011}},{"attributes":{"ID":203905,"DIS_CODE":0,"TOWNNAME":"南區","LI":"鯤鯓里","LIN":" ","STREET":"鯤鯓路","SECT":" ","MAREA":" ","LANE":" ","ALLEY":" ","HOUSE_NO":"１７５號","E_COORD97":164817.81,"N_COORD97":2540353.1000000001,"ADDRESS":"鯤鯓路１７５號","OBJECTID":203904},"geometry":{"x":164817.81000000052,"y":2540353.0999999996}},{"attributes":{"ID":203906,"DIS_CODE":0,"TOWNNAME":"南區","LI":"郡南里","LIN":"20鄰","STREET":"中華南路","SECT":"二段","MAREA":" ","LANE":" ","ALLEY":" ","HOUSE_NO":"１０６之２號","E_COORD97":167251.94,"N_COORD97":2540308.8900000001,"ADDRESS":"中華南路二段１０６之２號","OBJECTID":203905},"geometry":{"x":167251.94000000134,"y":2540308.8900000006}},{"attributes":{"ID":203907,"DIS_CODE":0,"TOWNNAME":"新營區","LI":"新南里","LIN":"26鄰","STREET":"復興路","SECT":" ","MAREA":" ","LANE":"６２０巷","ALLEY":"３９弄","HOUSE_NO":"５２號六樓之４","E_COORD97":177901.14000000001,"N_COORD97":2578494.2599999998,"ADDRESS":"復興路６２０巷３９弄５２號六樓之４","OBJECTID":203906},"geometry":{"x":177901.13999999966,"y":2578494.2599999998}},{"attributes":{"ID":203908,"DIS_CODE":0,"TOWNNAME":"新營區","LI":"新南里","LIN":"26鄰","STREET":"復興路","SECT":" ","MAREA":" ","LANE":"６２０巷","ALLEY":"３９弄","HOUSE_NO":"５２號六樓之３","E_COORD97":177901.20999999999,"N_COORD97":2578494.2599999998,"ADDRESS":"復興路６２０巷３９弄５２號六樓之３","OBJECTID":203907},"geometry":{"x":177901.20999999996,"y":2578494.2599999998}},{"attributes":{"ID":203909,"DIS_CODE":0,"TOWNNAME":"新營區","LI":"新南里","LIN":"26鄰","STREET":"復興路","SECT":" ","MAREA":" ","LANE":"６２０巷","ALLEY":"３９弄","HOUSE_NO":"５２號一樓之４","E_COORD97":177901.14000000001,"N_COORD97":2578494.2599999998,"ADDRESS":"復興路６２０巷３９弄５２號一樓之４","OBJECTID":203908},"geometry":{"x":177901.13999999966,"y":2578494.2599999998}},{"attributes":{"ID":203910,"DIS_CODE":0,"TOWNNAME":"新營區","LI":"新南里","LIN":"26鄰","STREET":"復興路","SECT":" ","MAREA":" ","LANE":"６２０巷","ALLEY":"３９弄","HOUSE_NO":"５２號三樓之１","E_COORD97":177901.12,"N_COORD97":2578494.2599999998,"ADDRESS":"復興路６２０巷３９弄５２號三樓之１","OBJECTID":203909},"geometry":{"x":177901.12000000104,"y":2578494.2599999998}},{"attributes":{"ID":203911,"DIS_CODE":0,"TOWNNAME":"南區","LI":"郡南里","LIN":"20鄰","STREET":"中華南路","SECT":"二段","MAREA":" ","LANE":" ","ALLEY":" ","HOUSE_NO":"１０６之３號","E_COORD97":167246.85999999999,"N_COORD97":2540308.0899999999,"ADDRESS":"中華南路二段１０６之３號","OBJECTID":203910},"geometry":{"x":167246.86000000127,"y":2540308.0900000017}},{"attributes":{"ID":203912,"DIS_CODE":0,"TOWNNAME":"南區","LI":"郡南里","LIN":"20鄰","STREET":"中華南路","SECT":"二段","MAREA":" ","LANE":" ","ALLEY":" ","HOUSE_NO":"１０６之５號","E_COORD97":167241.78,"N_COORD97":2540307.2999999998,"ADDRESS":"中華南路二段１０６之５號","OBJECTID":203911},"geometry":{"x":167241.78000000026,"y":2540307.3000000045}},{"attributes":{"ID":203913,"DIS_CODE":0,"TOWNNAME":"南區","LI":"郡南里","LIN":"20鄰","STREET":"中華南路","SECT":"二段","MAREA":" ","LANE":" ","ALLEY":" ","HOUSE_NO":"１０６之６號","E_COORD97":167237.97,"N_COORD97":2540306.5099999998,"ADDRESS":"中華南路二段１０６之６號","OBJECTID":203912},"geometry":{"x":167237.96999999974,"y":2540306.5099999998}},{"attributes":{"ID":203914,"DIS_CODE":0,"TOWNNAME":"南區","LI":"郡南里","LIN":"20鄰","STREET":"中華南路","SECT":"二段","MAREA":" ","LANE":" ","ALLEY":" ","HOUSE_NO":"１０６之７號","E_COORD97":167233.04999999999,"N_COORD97":2540305.5499999998,"ADDRESS":"中華南路二段１０６之７號","OBJECTID":203913},"geometry":{"x":167233.05000000168,"y":2540305.5500000045}},{"attributes":{"ID":203915,"DIS_CODE":0,"TOWNNAME":"新營區","LI":"新南里","LIN":"26鄰","STREET":"復興路","SECT":" ","MAREA":" ","LANE":"６２０巷","ALLEY":"３９弄","HOUSE_NO":"５２號一樓之６","E_COORD97":177901.22,"N_COORD97":2578494.2599999998,"ADDRESS":"復興路６２０巷３９弄５２號一樓之６","OBJECTID":203914},"geometry":{"x":177901.2200000016,"y":2578494.2599999998}},{"attributes":{"ID":203916,"DIS_CODE":0,"TOWNNAME":"安南區","LI":"溪頂里","LIN":"26鄰","STREET":"郡安路","SECT":"四段","MAREA":" ","LANE":"２７８巷","ALLEY":"６弄","HOUSE_NO":"１０號七樓","E_COORD97":168538.45999999999,"N_COORD97":2547646.7599999998,"ADDRESS":"郡安路四段２７８巷６弄１０號七樓","OBJECTID":203915},"geometry":{"x":168538.45999999996,"y":2547646.7600000035}},{"attributes":{"ID":203917,"DIS_CODE":0,"TOWNNAME":"安南區","LI":"溪頂里","LIN":"26鄰","STREET":"郡安路","SECT":"四段","MAREA":" ","LANE":"２７８巷","ALLEY":"６弄","HOUSE_NO":"１０號九樓","E_COORD97":168538.45999999999,"N_COORD97":2547646.7599999998,"ADDRESS":"郡安路四段２７８巷６弄１０號九樓","OBJECTID":203916},"geometry":{"x":168538.45999999996,"y":2547646.7600000035}},{"attributes":{"ID":203918,"DIS_CODE":0,"TOWNNAME":"新營區","LI":"南紙里","LIN":"9鄰","STREET":"南紙街","SECT":" ","MAREA":" ","LANE":" ","ALLEY":" ","HOUSE_NO":"７９號","E_COORD97":177825.60999999999,"N_COORD97":2577591.98,"ADDRESS":"南紙街７９號","OBJECTID":203917},"geometry":{"x":177825.61000000034,"y":2577591.9800000004}},{"attributes":{"ID":203919,"DIS_CODE":0,"TOWNNAME":"北區","LI":"中樓里","LIN":"9鄰","STREET":"前鋒路","SECT":" ","MAREA":" ","LANE":" ","ALLEY":" ","HOUSE_NO":"３２２號","E_COORD97":169620.66,"N_COORD97":2545066,"ADDRESS":"前鋒路３２２號","OBJECTID":203918},"geometry":{"x":169620.66000000015,"y":2545066.0000000019}},{"attributes":{"ID":203920,"DIS_CODE":0,"TOWNNAME":"新營區","LI":"民榮里","LIN":"9鄰","STREET":"和平路","SECT":" ","MAREA":" ","LANE":" ","ALLEY":" ","HOUSE_NO":"４２號","E_COORD97":179406.82000000001,"N_COORD97":2577747.1600000001,"ADDRESS":"和平路４２號","OBJECTID":203919},"geometry":{"x":179406.82000000123,"y":2577747.1599999983}},{"attributes":{"ID":203921,"DIS_CODE":0,"TOWNNAME":"安平區","LI":"文平里","LIN":"9鄰","STREET":"建平七街","SECT":" ","MAREA":" ","LANE":" ","ALLEY":" ","HOUSE_NO":"２０２號","E_COORD97":166046.35999999999,"N_COORD97":2543276.3199999998,"ADDRESS":"建平七街２０２號","OBJECTID":203920},"geometry":{"x":166046.3599999994,"y":2543276.3199999984}},{"attributes":{"ID":203922,"DIS_CODE":0,"TOWNNAME":"安平區","LI":"港仔里","LIN":"9鄰","STREET":"安平路","SECT":" ","MAREA":" ","LANE":" ","ALLEY":" ","HOUSE_NO":"７３０號","E_COORD97":164238.51999999999,"N_COORD97":2544519.4900000002,"ADDRESS":"安平路７３０號","OBJECTID":203921},"geometry":{"x":164238.51999999955,"y":2544519.4900000039}},{"attributes":{"ID":203923,"DIS_CODE":0,"TOWNNAME":"新營區","LI":"大宏里","LIN":"9鄰","STREET":"民族路","SECT":" ","MAREA":" ","LANE":" ","ALLEY":" ","HOUSE_NO":"３３號","E_COORD97":180234.37,"N_COORD97":2578834.0800000001,"ADDRESS":"民族路３３號","OBJECTID":203922},"geometry":{"x":180234.37000000011,"y":2578834.0800000019}},{"attributes":{"ID":203924,"DIS_CODE":0,"TOWNNAME":"新營區","LI":"民榮里","LIN":"9鄰","STREET":"新進路","SECT":"二段","MAREA":" ","LANE":" ","ALLEY":" ","HOUSE_NO":"１３２號","E_COORD97":179386.47,"N_COORD97":2577739.5099999998,"ADDRESS":"新進路二段１３２號","OBJECTID":203923},"geometry":{"x":179386.47000000067,"y":2577739.5100000016}},{"attributes":{"ID":203925,"DIS_CODE":0,"TOWNNAME":"新營區","LI":"三仙里","LIN":"9鄰","STREET":"博愛街","SECT":" ","MAREA":" ","LANE":" ","ALLEY":" ","HOUSE_NO":"１０８號","E_COORD97":179592.89000000001,"N_COORD97":2578126.1400000001,"ADDRESS":"博愛街１０８號","OBJECTID":203924},"geometry":{"x":179592.88999999966,"y":2578126.1400000006}},{"attributes":{"ID":203926,"DIS_CODE":0,"TOWNNAME":"南區","LI":"郡南里","LIN":"20鄰","STREET":"中華南路","SECT":"二段","MAREA":" ","LANE":" ","ALLEY":" ","HOUSE_NO":"１０６之８號","E_COORD97":167227.64999999999,"N_COORD97":2540304.7599999998,"ADDRESS":"中華南路二段１０６之８號","OBJECTID":203925},"geometry":{"x":167227.64999999944,"y":2540304.7599999998}},{"attributes":{"ID":203927,"DIS_CODE":0,"TOWNNAME":"將軍區","LI":"北埔里","LIN":"2鄰","STREET":" ","SECT":" ","MAREA":"北埔","LANE":" ","ALLEY":" ","HOUSE_NO":"２８號","E_COORD97":163054.67000000001,"N_COORD97":2569121.48,"ADDRESS":"北埔２８號","OBJECTID":203926},"geometry":{"x":163054.66999999993,"y":2569121.4800000023}},{"attributes":{"ID":203928,"DIS_CODE":0,"TOWNNAME":"南區","LI":"喜北里","LIN":"13鄰","STREET":"喜明街","SECT":" ","MAREA":" ","LANE":" ","ALLEY":" ","HOUSE_NO":"４０號","E_COORD97":165705.29999999999,"N_COORD97":2538124.4900000002,"ADDRESS":"喜明街４０號","OBJECTID":203927},"geometry":{"x":165705.29999999981,"y":2538124.4900000002}},{"attributes":{"ID":203929,"DIS_CODE":0,"TOWNNAME":"南區","LI":"喜北里","LIN":"13鄰","STREET":"喜明街","SECT":" ","MAREA":" ","LANE":" ","ALLEY":" ","HOUSE_NO":"３８號","E_COORD97":165706.89000000001,"N_COORD97":2538121,"ADDRESS":"喜明街３８號","OBJECTID":203928},"geometry":{"x":165706.8900000006,"y":2538121}},{"attributes":{"ID":203930,"DIS_CODE":0,"TOWNNAME":"南區","LI":"喜北里","LIN":"13鄰","STREET":"喜明街","SECT":" ","MAREA":" ","LANE":" ","ALLEY":" ","HOUSE_NO":"３６號","E_COORD97":165708.48000000001,"N_COORD97":2538117.5,"ADDRESS":"喜明街３６號","OBJECTID":203929},"geometry":{"x":165708.48000000231,"y":2538117.5}},{"attributes":{"ID":203931,"DIS_CODE":0,"TOWNNAME":"安南區","LI":"溪頂里","LIN":"26鄰","STREET":"郡安路","SECT":"四段","MAREA":" ","LANE":"２７８巷","ALLEY":"６弄","HOUSE_NO":"１０號八樓","E_COORD97":168538.45999999999,"N_COORD97":2547646.7599999998,"ADDRESS":"郡安路四段２７８巷６弄１０號八樓","OBJECTID":203930},"geometry":{"x":168538.45999999996,"y":2547646.7600000035}},{"attributes":{"ID":203932,"DIS_CODE":0,"TOWNNAME":"安南區","LI":"溪頂里","LIN":"26鄰","STREET":"郡安路","SECT":"四段","MAREA":" ","LANE":"２７８巷","ALLEY":"６弄","HOUSE_NO":"１０號十一樓","E_COORD97":168538.45999999999,"N_COORD97":2547646.7599999998,"ADDRESS":"郡安路四段２７８巷６弄１０號十一樓","OBJECTID":203931},"geometry":{"x":168538.45999999996,"y":2547646.7600000035}},{"attributes":{"ID":203933,"DIS_CODE":0,"TOWNNAME":"安南區","LI":"溪頂里","LIN":"26鄰","STREET":"郡安路","SECT":"四段","MAREA":" ","LANE":"２７８巷","ALLEY":"６弄","HOUSE_NO":"１０號十二樓","E_COORD97":168538.45999999999,"N_COORD97":2547646.7599999998,"ADDRESS":"郡安路四段２７８巷６弄１０號十二樓","OBJECTID":203932},"geometry":{"x":168538.45999999996,"y":2547646.7600000035}},{"attributes":{"ID":203934,"DIS_CODE":0,"TOWNNAME":"安南區","LI":"溪頂里","LIN":"26鄰","STREET":"郡安路","SECT":"四段","MAREA":" ","LANE":"２７８巷","ALLEY":"６弄","HOUSE_NO":"１０號十三樓","E_COORD97":168538.45999999999,"N_COORD97":2547646.7599999998,"ADDRESS":"郡安路四段２７８巷６弄１０號十三樓","OBJECTID":203933},"geometry":{"x":168538.45999999996,"y":2547646.7600000035}},{"attributes":{"ID":203935,"DIS_CODE":0,"TOWNNAME":"安南區","LI":"溪頂里","LIN":"26鄰","STREET":"郡安路","SECT":"四段","MAREA":" ","LANE":"２７８巷","ALLEY":"６弄","HOUSE_NO":"１０號十樓","E_COORD97":168538.45999999999,"N_COORD97":2547646.7599999998,"ADDRESS":"郡安路四段２７８巷６弄１０號十樓","OBJECTID":203934},"geometry":{"x":168538.45999999996,"y":2547646.7600000035}},{"attributes":{"ID":203936,"DIS_CODE":0,"TOWNNAME":"安南區","LI":"溪頂里","LIN":"26鄰","STREET":"郡安路","SECT":"四段","MAREA":" ","LANE":"２７８巷","ALLEY":"６弄","HOUSE_NO":"１０號三樓","E_COORD97":168538.45999999999,"N_COORD97":2547646.7599999998,"ADDRESS":"郡安路四段２７８巷６弄１０號三樓","OBJECTID":203935},"geometry":{"x":168538.45999999996,"y":2547646.7600000035}},{"attributes":{"ID":203937,"DIS_CODE":0,"TOWNNAME":"安南區","LI":"溪頂里","LIN":"26鄰","STREET":"郡安路","SECT":"四段","MAREA":" ","LANE":"２７８巷","ALLEY":"６弄","HOUSE_NO":"１０號五樓","E_COORD97":168538.45999999999,"N_COORD97":2547646.7599999998,"ADDRESS":"郡安路四段２７８巷６弄１０號五樓","OBJECTID":203936},"geometry":{"x":168538.45999999996,"y":2547646.7600000035}},{"attributes":{"ID":203938,"DIS_CODE":0,"TOWNNAME":"安南區","LI":"溪頂里","LIN":"26鄰","STREET":"郡安路","SECT":"四段","MAREA":" ","LANE":"２７８巷","ALLEY":"６弄","HOUSE_NO":"１０號六樓","E_COORD97":168538.45999999999,"N_COORD97":2547646.7599999998,"ADDRESS":"郡安路四段２７８巷６弄１０號六樓","OBJECTID":203937},"geometry":{"x":168538.45999999996,"y":2547646.7600000035}},{"attributes":{"ID":203939,"DIS_CODE":0,"TOWNNAME":"安南區","LI":"溪頂里","LIN":"26鄰","STREET":"郡安路","SECT":"四段","MAREA":" ","LANE":"２７８巷","ALLEY":"６弄","HOUSE_NO":"１０號四樓","E_COORD97":168538.45999999999,"N_COORD97":2547646.7599999998,"ADDRESS":"郡安路四段２７８巷６弄１０號四樓","OBJECTID":203938},"geometry":{"x":168538.45999999996,"y":2547646.7600000035}},{"attributes":{"ID":203940,"DIS_CODE":0,"TOWNNAME":"安南區","LI":"溪頂里","LIN":"26鄰","STREET":"郡安路","SECT":"四段","MAREA":" ","LANE":"２７８巷","ALLEY":"６弄","HOUSE_NO":"２號七樓","E_COORD97":168561.07999999999,"N_COORD97":2547631.3799999999,"ADDRESS":"郡安路四段２７８巷６弄２號七樓","OBJECTID":203939},"geometry":{"x":168561.08000000101,"y":2547631.3800000027}},{"attributes":{"ID":203941,"DIS_CODE":0,"TOWNNAME":"安南區","LI":"溪頂里","LIN":"26鄰","STREET":"郡安路","SECT":"四段","MAREA":" ","LANE":"２７８巷","ALLEY":"６弄","HOUSE_NO":"２號九樓","E_COORD97":168561.07999999999,"N_COORD97":2547631.3799999999,"ADDRESS":"郡安路四段２７８巷６弄２號九樓","OBJECTID":203940},"geometry":{"x":168561.08000000101,"y":2547631.3800000027}},{"attributes":{"ID":203942,"DIS_CODE":0,"TOWNNAME":"南區","LI":"喜北里","LIN":"13鄰","STREET":"喜明街","SECT":" ","MAREA":" ","LANE":" ","ALLEY":" ","HOUSE_NO":"３２號","E_COORD97":165710.22,"N_COORD97":2538114.1699999999,"ADDRESS":"喜明街３２號","OBJECTID":203941},"geometry":{"x":165710.22000000067,"y":2538114.1700000018}},{"attributes":{"ID":203943,"DIS_CODE":0,"TOWNNAME":"南區","LI":"喜北里","LIN":"13鄰","STREET":"喜明街","SECT":" ","MAREA":" ","LANE":" ","ALLEY":" ","HOUSE_NO":"３０號","E_COORD97":165712.29000000001,"N_COORD97":2538110.52,"ADDRESS":"喜明街３０號","OBJECTID":203942},"geometry":{"x":165712.29000000004,"y":2538110.5199999996}},{"attributes":{"ID":203944,"DIS_CODE":0,"TOWNNAME":"佳里區","LI":"佳化里","LIN":"2鄰","STREET":" ","SECT":" ","MAREA":"佳里興","LANE":" ","ALLEY":" ","HOUSE_NO":"１５號之１３","E_COORD97":167763.29000000001,"N_COORD97":2565204.0499999998,"ADDRESS":"佳里興１５號之１３","OBJECTID":203943},"geometry":{"x":167763.29000000004,"y":2565204.0500000007}},{"attributes":{"ID":203945,"DIS_CODE":0,"TOWNNAME":"佳里區","LI":"佳化里","LIN":"2鄰","STREET":" ","SECT":" ","MAREA":"佳里興","LANE":" ","ALLEY":" ","HOUSE_NO":"１５號之１４","E_COORD97":167767.70999999999,"N_COORD97":2565203.1800000002,"ADDRESS":"佳里興１５號之１４","OBJECTID":203944},"geometry":{"x":167767.71000000183,"y":2565203.1800000016}},{"attributes":{"ID":203946,"DIS_CODE":0,"TOWNNAME":"佳里區","LI":"佳化里","LIN":"2鄰","STREET":" ","SECT":" ","MAREA":"佳里興","LANE":" ","ALLEY":" ","HOUSE_NO":"１５號之１５","E_COORD97":167772.29000000001,"N_COORD97":2565202.1499999999,"ADDRESS":"佳里興１５號之１５","OBJECTID":203945},"geometry":{"x":167772.2900000019,"y":2565202.1500000004}},{"attributes":{"ID":203947,"DIS_CODE":0,"TOWNNAME":"佳里區","LI":"佳化里","LIN":"2鄰","STREET":" ","SECT":" ","MAREA":"佳里興","LANE":" ","ALLEY":" ","HOUSE_NO":"１５號之１６","E_COORD97":167776.91,"N_COORD97":2565200.8599999999,"ADDRESS":"佳里興１５號之１６","OBJECTID":203946},"geometry":{"x":167776.91000000108,"y":2565200.8600000031}},{"attributes":{"ID":203948,"DIS_CODE":0,"TOWNNAME":"佳里區","LI":"佳化里","LIN":"2鄰","STREET":" ","SECT":" ","MAREA":"佳里興","LANE":" ","ALLEY":" ","HOUSE_NO":"１５號之１７","E_COORD97":167782.10999999999,"N_COORD97":2565201.5099999998,"ADDRESS":"佳里興１５號之１７","OBJECTID":203947},"geometry":{"x":167782.11000000034,"y":2565201.5100000016}},{"attributes":{"ID":203949,"DIS_CODE":0,"TOWNNAME":"佳里區","LI":"佳化里","LIN":"2鄰","STREET":" ","SECT":" ","MAREA":"佳里興","LANE":" ","ALLEY":" ","HOUSE_NO":"１５號之１９","E_COORD97":167790.73999999999,"N_COORD97":2565216.4500000002,"ADDRESS":"佳里興１５號之１９","OBJECTID":203948},"geometry":{"x":167790.74000000022,"y":2565216.4499999993}},{"attributes":{"ID":203950,"DIS_CODE":0,"TOWNNAME":"新營區","LI":"民權里","LIN":"9鄰","STREET":"仁愛街","SECT":" ","MAREA":" ","LANE":" ","ALLEY":" ","HOUSE_NO":"２２號","E_COORD97":179824.23000000001,"N_COORD97":2578194.79,"ADDRESS":"仁愛街２２號","OBJECTID":203949},"geometry":{"x":179824.23000000231,"y":2578194.7899999991}},{"attributes":{"ID":203951,"DIS_CODE":0,"TOWNNAME":"新營區","LI":"民權里","LIN":"9鄰","STREET":"仁愛街","SECT":" ","MAREA":" ","LANE":" ","ALLEY":" ","HOUSE_NO":"１０之１號","E_COORD97":179863.44,"N_COORD97":2578184.7000000002,"ADDRESS":"仁愛街１０之１號","OBJECTID":203950},"geometry":{"x":179863.44000000227,"y":2578184.7000000011}},{"attributes":{"ID":203952,"DIS_CODE":0,"TOWNNAME":"新營區","LI":"三仙里","LIN":"9鄰","STREET":"正義街","SECT":" ","MAREA":" ","LANE":" ","ALLEY":" ","HOUSE_NO":"４７號","E_COORD97":179645.10999999999,"N_COORD97":2578167.96,"ADDRESS":"正義街４７號","OBJECTID":203951},"geometry":{"x":179645.11000000034,"y":2578167.9600000028}},{"attributes":{"ID":203953,"DIS_CODE":0,"TOWNNAME":"新營區","LI":"民權里","LIN":"9鄰","STREET":"仁愛街","SECT":" ","MAREA":" ","LANE":" ","ALLEY":" ","HOUSE_NO":"２４號","E_COORD97":179823.23000000001,"N_COORD97":2578198.1200000001,"ADDRESS":"仁愛街２４號","OBJECTID":203952},"geometry":{"x":179823.23000000138,"y":2578198.120000001}},{"attributes":{"ID":203954,"DIS_CODE":0,"TOWNNAME":"安南區","LI":"溪頂里","LIN":"26鄰","STREET":"郡安路","SECT":"四段","MAREA":" ","LANE":"２７８巷","ALLEY":"６弄","HOUSE_NO":"２號八樓","E_COORD97":168561.07999999999,"N_COORD97":2547631.3799999999,"ADDRESS":"郡安路四段２７８巷６弄２號八樓","OBJECTID":203953},"geometry":{"x":168561.08000000101,"y":2547631.3800000027}},{"attributes":{"ID":203955,"DIS_CODE":0,"TOWNNAME":"安南區","LI":"溪頂里","LIN":"26鄰","STREET":"郡安路","SECT":"四段","MAREA":" ","LANE":"２７８巷","ALLEY":"６弄","HOUSE_NO":"２號十一樓","E_COORD97":168561.07999999999,"N_COORD97":2547631.3799999999,"ADDRESS":"郡安路四段２７８巷６弄２號十一樓","OBJECTID":203954},"geometry":{"x":168561.08000000101,"y":2547631.3800000027}},{"attributes":{"ID":203956,"DIS_CODE":0,"TOWNNAME":"新營區","LI":"嘉芳里","LIN":"9鄰","STREET":"復興路","SECT":" ","MAREA":" ","LANE":" ","ALLEY":" ","HOUSE_NO":"８９０號","E_COORD97":176662.64000000001,"N_COORD97":2578798.1800000002,"ADDRESS":"復興路８９０號","OBJECTID":203955},"geometry":{"x":176662.64000000153,"y":2578798.1800000016}},{"attributes":{"ID":203957,"DIS_CODE":0,"TOWNNAME":"安南區","LI":"溪頂里","LIN":"26鄰","STREET":"郡安路","SECT":"四段","MAREA":" ","LANE":"２７８巷","ALLEY":"６弄","HOUSE_NO":"２號十二樓","E_COORD97":168561.07999999999,"N_COORD97":2547631.3799999999,"ADDRESS":"郡安路四段２７８巷６弄２號十二樓","OBJECTID":203956},"geometry":{"x":168561.08000000101,"y":2547631.3800000027}},{"attributes":{"ID":203958,"DIS_CODE":0,"TOWNNAME":"新營區","LI":"民權里","LIN":"9鄰","STREET":"博愛街","SECT":" ","MAREA":" ","LANE":" ","ALLEY":" ","HOUSE_NO":"２０號之１","E_COORD97":179941.76999999999,"N_COORD97":2578156.6499999999,"ADDRESS":"博愛街２０號之１","OBJECTID":203957},"geometry":{"x":179941.77000000142,"y":2578156.6500000004}},{"attributes":{"ID":203959,"DIS_CODE":0,"TOWNNAME":"安平區","LI":"華平里","LIN":"9鄰","STREET":"育平九街","SECT":" ","MAREA":" ","LANE":" ","ALLEY":" ","HOUSE_NO":"５７號","E_COORD97":165308.48999999999,"N_COORD97":2543950.6099999999,"ADDRESS":"育平九街５７號","OBJECTID":203958},"geometry":{"x":165308.49000000115,"y":2543950.6099999994}},{"attributes":{"ID":203960,"DIS_CODE":0,"TOWNNAME":"安南區","LI":"溪頂里","LIN":"26鄰","STREET":"郡安路","SECT":"四段","MAREA":" ","LANE":"２７８巷","ALLEY":"６弄","HOUSE_NO":"２號十三樓","E_COORD97":168561.07999999999,"N_COORD97":2547631.3799999999,"ADDRESS":"郡安路四段２７８巷６弄２號十三樓","OBJECTID":203959},"geometry":{"x":168561.08000000101,"y":2547631.3800000027}},{"attributes":{"ID":203961,"DIS_CODE":0,"TOWNNAME":"安南區","LI":"溪頂里","LIN":"26鄰","STREET":"郡安路","SECT":"四段","MAREA":" ","LANE":"２７８巷","ALLEY":"６弄","HOUSE_NO":"２號十樓","E_COORD97":168561.07999999999,"N_COORD97":2547631.3799999999,"ADDRESS":"郡安路四段２７８巷６弄２號十樓","OBJECTID":203960},"geometry":{"x":168561.08000000101,"y":2547631.3800000027}},{"attributes":{"ID":203962,"DIS_CODE":0,"TOWNNAME":"安南區","LI":"溪頂里","LIN":"26鄰","STREET":"郡安路","SECT":"四段","MAREA":" ","LANE":"２７８巷","ALLEY":"６弄","HOUSE_NO":"２號三樓","E_COORD97":168561.07999999999,"N_COORD97":2547631.3799999999,"ADDRESS":"郡安路四段２７８巷６弄２號三樓","OBJECTID":203961},"geometry":{"x":168561.08000000101,"y":2547631.3800000027}},{"attributes":{"ID":203963,"DIS_CODE":0,"TOWNNAME":"安南區","LI":"溪頂里","LIN":"26鄰","STREET":"郡安路","SECT":"四段","MAREA":" ","LANE":"２７８巷","ALLEY":"６弄","HOUSE_NO":"２號五樓","E_COORD97":168561.07999999999,"N_COORD97":2547631.3799999999,"ADDRESS":"郡安路四段２７８巷６弄２號五樓","OBJECTID":203962},"geometry":{"x":168561.08000000101,"y":2547631.3800000027}},{"attributes":{"ID":203964,"DIS_CODE":0,"TOWNNAME":"安南區","LI":"溪頂里","LIN":"26鄰","STREET":"郡安路","SECT":"四段","MAREA":" ","LANE":"２７８巷","ALLEY":"６弄","HOUSE_NO":"２號六樓","E_COORD97":168561.07999999999,"N_COORD97":2547631.3799999999,"ADDRESS":"郡安路四段２７８巷６弄２號六樓","OBJECTID":203963},"geometry":{"x":168561.08000000101,"y":2547631.3800000027}},{"attributes":{"ID":203965,"DIS_CODE":0,"TOWNNAME":"安南區","LI":"溪頂里","LIN":"26鄰","STREET":"郡安路","SECT":"四段","MAREA":" ","LANE":"２７８巷","ALLEY":"６弄","HOUSE_NO":"２號四樓","E_COORD97":168561.07999999999,"N_COORD97":2547631.3799999999,"ADDRESS":"郡安路四段２７８巷６弄２號四樓","OBJECTID":203964},"geometry":{"x":168561.08000000101,"y":2547631.3800000027}},{"attributes":{"ID":203966,"DIS_CODE":0,"TOWNNAME":"安南區","LI":"溪頂里","LIN":"26鄰","STREET":"郡安路","SECT":"四段","MAREA":" ","LANE":"２７８巷","ALLEY":"６弄","HOUSE_NO":"６號七樓","E_COORD97":168560.37,"N_COORD97":2547637.29,"ADDRESS":"郡安路四段２７８巷６弄６號七樓","OBJECTID":203965},"geometry":{"x":168560.37000000104,"y":2547637.2899999991}},{"attributes":{"ID":203967,"DIS_CODE":0,"TOWNNAME":"安南區","LI":"溪頂里","LIN":"26鄰","STREET":"郡安路","SECT":"四段","MAREA":" ","LANE":"２７８巷","ALLEY":"６弄","HOUSE_NO":"６號九樓","E_COORD97":168560.37,"N_COORD97":2547637.29,"ADDRESS":"郡安路四段２７８巷６弄６號九樓","OBJECTID":203966},"geometry":{"x":168560.37000000104,"y":2547637.2899999991}},{"attributes":{"ID":203968,"DIS_CODE":0,"TOWNNAME":"安南區","LI":"溪頂里","LIN":"26鄰","STREET":"郡安路","SECT":"四段","MAREA":" ","LANE":"２７８巷","ALLEY":"６弄","HOUSE_NO":"６號八樓","E_COORD97":168560.37,"N_COORD97":2547637.29,"ADDRESS":"郡安路四段２７８巷６弄６號八樓","OBJECTID":203967},"geometry":{"x":168560.37000000104,"y":2547637.2899999991}},{"attributes":{"ID":203969,"DIS_CODE":0,"TOWNNAME":"安南區","LI":"溪頂里","LIN":"26鄰","STREET":"郡安路","SECT":"四段","MAREA":" ","LANE":"２７８巷","ALLEY":"６弄","HOUSE_NO":"６號十一樓","E_COORD97":168560.37,"N_COORD97":2547637.29,"ADDRESS":"郡安路四段２７８巷６弄６號十一樓","OBJECTID":203968},"geometry":{"x":168560.37000000104,"y":2547637.2899999991}},{"attributes":{"ID":203970,"DIS_CODE":0,"TOWNNAME":"安南區","LI":"溪頂里","LIN":"26鄰","STREET":"郡安路","SECT":"四段","MAREA":" ","LANE":"２７８巷","ALLEY":"６弄","HOUSE_NO":"６號十二樓","E_COORD97":168560.37,"N_COORD97":2547637.29,"ADDRESS":"郡安路四段２７８巷６弄６號十二樓","OBJECTID":203969},"geometry":{"x":168560.37000000104,"y":2547637.2899999991}},{"attributes":{"ID":203971,"DIS_CODE":0,"TOWNNAME":"安南區","LI":"溪頂里","LIN":"26鄰","STREET":"郡安路","SECT":"四段","MAREA":" ","LANE":"２７８巷","ALLEY":"６弄","HOUSE_NO":"６號十三樓","E_COORD97":168560.37,"N_COORD97":2547637.29,"ADDRESS":"郡安路四段２７８巷６弄６號十三樓","OBJECTID":203970},"geometry":{"x":168560.37000000104,"y":2547637.2899999991}},{"attributes":{"ID":203972,"DIS_CODE":0,"TOWNNAME":"安南區","LI":"溪頂里","LIN":"26鄰","STREET":"郡安路","SECT":"四段","MAREA":" ","LANE":"２７８巷","ALLEY":"６弄","HOUSE_NO":"６號十樓","E_COORD97":168560.37,"N_COORD97":2547637.29,"ADDRESS":"郡安路四段２７８巷６弄６號十樓","OBJECTID":203971},"geometry":{"x":168560.37000000104,"y":2547637.2899999991}},{"attributes":{"ID":203973,"DIS_CODE":0,"TOWNNAME":"南區","LI":"喜北里","LIN":"13鄰","STREET":"喜明街","SECT":" ","MAREA":" ","LANE":" ","ALLEY":" ","HOUSE_NO":"２８號","E_COORD97":165714.35000000001,"N_COORD97":2538107.3399999999,"ADDRESS":"喜明街２８號","OBJECTID":203972},"geometry":{"x":165714.35000000056,"y":2538107.3399999999}},{"attributes":{"ID":203974,"DIS_CODE":0,"TOWNNAME":"新營區","LI":"五興里","LIN":"9鄰","STREET":" ","SECT":" ","MAREA":"五間厝","LANE":" ","ALLEY":" ","HOUSE_NO":"９６之２號","E_COORD97":175660.60999999999,"N_COORD97":2574968.1000000001,"ADDRESS":"五間厝９６之２號","OBJECTID":203973},"geometry":{"x":175660.61000000127,"y":2574968.1000000015}},{"attributes":{"ID":203975,"DIS_CODE":0,"TOWNNAME":"新營區","LI":"護鎮里","LIN":"9鄰","STREET":" ","SECT":" ","MAREA":"後鎮","LANE":" ","ALLEY":" ","HOUSE_NO":"９４號","E_COORD97":179092.67000000001,"N_COORD97":2580950.3100000001,"ADDRESS":"後鎮９４號","OBJECTID":203974},"geometry":{"x":179092.66999999993,"y":2580950.3100000005}},{"attributes":{"ID":203976,"DIS_CODE":0,"TOWNNAME":"佳里區","LI":"佳化里","LIN":"2鄰","STREET":" ","SECT":" ","MAREA":"佳里興","LANE":" ","ALLEY":" ","HOUSE_NO":"１５號之１","E_COORD97":167787.51000000001,"N_COORD97":2565174.3599999999,"ADDRESS":"佳里興１５號之１","OBJECTID":203975},"geometry":{"x":167787.51000000164,"y":2565174.3600000013}},{"attributes":{"ID":203977,"DIS_CODE":0,"TOWNNAME":"佳里區","LI":"佳化里","LIN":"2鄰","STREET":" ","SECT":" ","MAREA":"佳里興","LANE":" ","ALLEY":" ","HOUSE_NO":"１５號之２０","E_COORD97":167794.89000000001,"N_COORD97":2565216.6899999999,"ADDRESS":"佳里興１５號之２０","OBJECTID":203976},"geometry":{"x":167794.88999999873,"y":2565216.6900000013}},{"attributes":{"ID":203978,"DIS_CODE":0,"TOWNNAME":"佳里區","LI":"佳化里","LIN":"2鄰","STREET":" ","SECT":" ","MAREA":"佳里興","LANE":" ","ALLEY":" ","HOUSE_NO":"１５號之２１","E_COORD97":167799.10999999999,"N_COORD97":2565216.8399999999,"ADDRESS":"佳里興１５號之２１","OBJECTID":203977},"geometry":{"x":167799.11000000034,"y":2565216.8399999999}},{"attributes":{"ID":203979,"DIS_CODE":0,"TOWNNAME":"佳里區","LI":"佳化里","LIN":"2鄰","STREET":" ","SECT":" ","MAREA":"佳里興","LANE":" ","ALLEY":" ","HOUSE_NO":"１５號之２２","E_COORD97":167803.79000000001,"N_COORD97":2565217.0699999998,"ADDRESS":"佳里興１５號之２２","OBJECTID":203978},"geometry":{"x":167803.79000000004,"y":2565217.0700000003}},{"attributes":{"ID":203980,"DIS_CODE":0,"TOWNNAME":"安南區","LI":"溪頂里","LIN":"26鄰","STREET":"郡安路","SECT":"四段","MAREA":" ","LANE":"２７８巷","ALLEY":"６弄","HOUSE_NO":"６號三樓","E_COORD97":168560.37,"N_COORD97":2547637.29,"ADDRESS":"郡安路四段２７８巷６弄６號三樓","OBJECTID":203979},"geometry":{"x":168560.37000000104,"y":2547637.2899999991}},{"attributes":{"ID":203981,"DIS_CODE":0,"TOWNNAME":"安南區","LI":"溪頂里","LIN":"26鄰","STREET":"郡安路","SECT":"四段","MAREA":" ","LANE":"２７８巷","ALLEY":"６弄","HOUSE_NO":"６號五樓","E_COORD97":168560.37,"N_COORD97":2547637.29,"ADDRESS":"郡安路四段２７８巷６弄６號五樓","OBJECTID":203980},"geometry":{"x":168560.37000000104,"y":2547637.2899999991}},{"attributes":{"ID":203982,"DIS_CODE":0,"TOWNNAME":"安南區","LI":"溪頂里","LIN":"26鄰","STREET":"郡安路","SECT":"四段","MAREA":" ","LANE":"２７８巷","ALLEY":"６弄","HOUSE_NO":"６號六樓","E_COORD97":168560.37,"N_COORD97":2547637.29,"ADDRESS":"郡安路四段２７８巷６弄６號六樓","OBJECTID":203981},"geometry":{"x":168560.37000000104,"y":2547637.2899999991}},{"attributes":{"ID":203983,"DIS_CODE":0,"TOWNNAME":"永康區","LI":"龍潭里","LIN":"39鄰","STREET":"永明街","SECT":" ","MAREA":" ","LANE":" ","ALLEY":" ","HOUSE_NO":"１８９號","E_COORD97":174463.39999999999,"N_COORD97":2547212.3999999999,"ADDRESS":"永明街１８９號","OBJECTID":203982},"geometry":{"x":174463.4000000013,"y":2547212.4000000041}},{"attributes":{"ID":203984,"DIS_CODE":0,"TOWNNAME":"南區","LI":"喜北里","LIN":"13鄰","STREET":"喜明街","SECT":" ","MAREA":" ","LANE":" ","ALLEY":" ","HOUSE_NO":"２６號","E_COORD97":165716.41,"N_COORD97":2538103.8500000001,"ADDRESS":"喜明街２６號","OBJECTID":203983},"geometry":{"x":165716.41000000015,"y":2538103.8499999996}},{"attributes":{"ID":203985,"DIS_CODE":0,"TOWNNAME":"南區","LI":"彰南里","LIN":"18鄰","STREET":"中華西路","SECT":"一段","MAREA":" ","LANE":" ","ALLEY":" ","HOUSE_NO":"２３之１號","E_COORD97":166233.54000000001,"N_COORD97":2540718.5800000001,"ADDRESS":"中華西路一段２３之１號","OBJECTID":203984},"geometry":{"x":166233.54000000097,"y":2540718.5800000019}},{"attributes":{"ID":203986,"DIS_CODE":0,"TOWNNAME":"安南區","LI":"溪頂里","LIN":"26鄰","STREET":"郡安路","SECT":"四段","MAREA":" ","LANE":"２７８巷","ALLEY":"６弄","HOUSE_NO":"６號四樓","E_COORD97":168560.37,"N_COORD97":2547637.29,"ADDRESS":"郡安路四段２７８巷６弄６號四樓","OBJECTID":203985},"geometry":{"x":168560.37000000104,"y":2547637.2899999991}},{"attributes":{"ID":203987,"DIS_CODE":0,"TOWNNAME":"南區","LI":"大林里","LIN":"20鄰","STREET":"大林路","SECT":" ","MAREA":" ","LANE":" ","ALLEY":" ","HOUSE_NO":"１３３號","E_COORD97":169078.92000000001,"N_COORD97":2541761.5699999998,"ADDRESS":"大林路１３３號","OBJECTID":203986},"geometry":{"x":169078.92000000086,"y":2541761.5700000003}},{"attributes":{"ID":203988,"DIS_CODE":0,"TOWNNAME":"安南區","LI":"溪頂里","LIN":"26鄰","STREET":"郡安路","SECT":"四段","MAREA":" ","LANE":"２７８巷","ALLEY":"６弄","HOUSE_NO":"８號七樓","E_COORD97":168557.78,"N_COORD97":2547645,"ADDRESS":"郡安路四段２７８巷６弄８號七樓","OBJECTID":203987},"geometry":{"x":168557.78000000119,"y":2547644.9999999981}},{"attributes":{"ID":203989,"DIS_CODE":0,"TOWNNAME":"南區","LI":"大林里","LIN":"20鄰","STREET":"大林路","SECT":" ","MAREA":" ","LANE":" ","ALLEY":" ","HOUSE_NO":"１３１號","E_COORD97":169082.10000000001,"N_COORD97":2541763,"ADDRESS":"大林路１３１號","OBJECTID":203988},"geometry":{"x":169082.10000000056,"y":2541763.0000000037}},{"attributes":{"ID":203990,"DIS_CODE":0,"TOWNNAME":"安南區","LI":"溪頂里","LIN":"26鄰","STREET":"郡安路","SECT":"四段","MAREA":" ","LANE":"２７８巷","ALLEY":"６弄","HOUSE_NO":"８號九樓","E_COORD97":168557.78,"N_COORD97":2547645,"ADDRESS":"郡安路四段２７８巷６弄８號九樓","OBJECTID":203989},"geometry":{"x":168557.78000000119,"y":2547644.9999999981}},{"attributes":{"ID":203991,"DIS_CODE":0,"TOWNNAME":"安南區","LI":"溪頂里","LIN":"26鄰","STREET":"郡安路","SECT":"四段","MAREA":" ","LANE":"２７８巷","ALLEY":"６弄","HOUSE_NO":"８號八樓","E_COORD97":168557.78,"N_COORD97":2547645,"ADDRESS":"郡安路四段２７８巷６弄８號八樓","OBJECTID":203990},"geometry":{"x":168557.78000000119,"y":2547644.9999999981}},{"attributes":{"ID":203992,"DIS_CODE":0,"TOWNNAME":"安南區","LI":"溪頂里","LIN":"26鄰","STREET":"郡安路","SECT":"四段","MAREA":" ","LANE":"２７８巷","ALLEY":"６弄","HOUSE_NO":"８號十一樓","E_COORD97":168557.78,"N_COORD97":2547645,"ADDRESS":"郡安路四段２７８巷６弄８號十一樓","OBJECTID":203991},"geometry":{"x":168557.78000000119,"y":2547644.9999999981}},{"attributes":{"ID":203993,"DIS_CODE":0,"TOWNNAME":"安南區","LI":"溪頂里","LIN":"26鄰","STREET":"郡安路","SECT":"四段","MAREA":" ","LANE":"２７８巷","ALLEY":"６弄","HOUSE_NO":"８號十二樓","E_COORD97":168557.78,"N_COORD97":2547645,"ADDRESS":"郡安路四段２７８巷６弄８號十二樓","OBJECTID":203992},"geometry":{"x":168557.78000000119,"y":2547644.9999999981}},{"attributes":{"ID":203994,"DIS_CODE":0,"TOWNNAME":"安南區","LI":"溪頂里","LIN":"26鄰","STREET":"郡安路","SECT":"四段","MAREA":" ","LANE":"２７８巷","ALLEY":"６弄","HOUSE_NO":"８號十三樓","E_COORD97":168557.78,"N_COORD97":2547645,"ADDRESS":"郡安路四段２７８巷６弄８號十三樓","OBJECTID":203993},"geometry":{"x":168557.78000000119,"y":2547644.9999999981}},{"attributes":{"ID":203995,"DIS_CODE":0,"TOWNNAME":"安南區","LI":"溪頂里","LIN":"26鄰","STREET":"郡安路","SECT":"四段","MAREA":" ","LANE":"２７８巷","ALLEY":"６弄","HOUSE_NO":"８號十樓","E_COORD97":168557.78,"N_COORD97":2547645,"ADDRESS":"郡安路四段２７８巷６弄８號十樓","OBJECTID":203994},"geometry":{"x":168557.78000000119,"y":2547644.9999999981}},{"attributes":{"ID":203996,"DIS_CODE":0,"TOWNNAME":"安南區","LI":"溪頂里","LIN":"26鄰","STREET":"郡安路","SECT":"四段","MAREA":" ","LANE":"２７８巷","ALLEY":"６弄","HOUSE_NO":"８號三樓","E_COORD97":168557.78,"N_COORD97":2547645,"ADDRESS":"郡安路四段２７８巷６弄８號三樓","OBJECTID":203995},"geometry":{"x":168557.78000000119,"y":2547644.9999999981}},{"attributes":{"ID":203997,"DIS_CODE":0,"TOWNNAME":"安南區","LI":"溪頂里","LIN":"26鄰","STREET":"郡安路","SECT":"四段","MAREA":" ","LANE":"２７８巷","ALLEY":"６弄","HOUSE_NO":"８號五樓","E_COORD97":168557.78,"N_COORD97":2547645,"ADDRESS":"郡安路四段２７８巷６弄８號五樓","OBJECTID":203996},"geometry":{"x":168557.78000000119,"y":2547644.9999999981}},{"attributes":{"ID":203998,"DIS_CODE":0,"TOWNNAME":"安南區","LI":"溪頂里","LIN":"26鄰","STREET":"郡安路","SECT":"四段","MAREA":" ","LANE":"２７８巷","ALLEY":"６弄","HOUSE_NO":"８號六樓","E_COORD97":168557.78,"N_COORD97":2547645,"ADDRESS":"郡安路四段２７８巷６弄８號六樓","OBJECTID":203997},"geometry":{"x":168557.78000000119,"y":2547644.9999999981}},{"attributes":{"ID":203999,"DIS_CODE":0,"TOWNNAME":"南區","LI":"田寮里","LIN":"1鄰","STREET":"大成路","SECT":"二段","MAREA":" ","LANE":" ","ALLEY":" ","HOUSE_NO":"２３８之１號","E_COORD97":167101.5,"N_COORD97":2541746.0099999998,"ADDRESS":"大成路二段２３８之１號","OBJECTID":203998},"geometry":{"x":167101.50000000093,"y":2541746.0100000016}},{"attributes":{"ID":204000,"DIS_CODE":0,"TOWNNAME":"南區","LI":"田寮里","LIN":"1鄰","STREET":"大成路","SECT":"二段","MAREA":" ","LANE":" ","ALLEY":" ","HOUSE_NO":"２３８之２號","E_COORD97":167097.69,"N_COORD97":2541745.2200000002,"ADDRESS":"大成路二段２３８之２號","OBJECTID":203999},"geometry":{"x":167097.69000000134,"y":2541745.2200000044}},{"attributes":{"ID":204001,"DIS_CODE":0,"TOWNNAME":"南區","LI":"田寮里","LIN":"1鄰","STREET":"大成路","SECT":"二段","MAREA":" ","LANE":" ","ALLEY":" ","HOUSE_NO":"２３８之３號","E_COORD97":167092.13,"N_COORD97":2541745.54,"ADDRESS":"大成路二段２３８之３號","OBJECTID":204000},"geometry":{"x":167092.13000000082,"y":2541745.540000001}}]}