{"displayFieldName":"TOWNNAME","fieldAliases":{"ID":"ID","DIS_CODE":"DIS_CODE","TOWNNAME":"TOWNNAME","LI":"LI","LIN":"LIN","STREET":"STREET","SECT":"SECT","MAREA":"MAREA","LANE":"LANE","ALLEY":"ALLEY","HOUSE_NO":"HOUSE_NO","E_COORD97":"E_COORD97","N_COORD97":"N_COORD97","ADDRESS":"ADDRESS","OBJECTID":"OBJECTID"},"geometryType":"esriGeometryPoint","spatialReference":{"wkid":102443,"latestWkid":3826},"fields":[{"name":"ID","type":"esriFieldTypeDouble","alias":"ID"},{"name":"DIS_CODE","type":"esriFieldTypeInteger","alias":"DIS_CODE"},{"name":"TOWNNAME","type":"esriFieldTypeString","alias":"TOWNNAME","length":8},{"name":"LI","type":"esriFieldTypeString","alias":"LI","length":8},{"name":"LIN","type":"esriFieldTypeString","alias":"LIN","length":12},{"name":"STREET","type":"esriFieldTypeString","alias":"STREET","length":20},{"name":"SECT","type":"esriFieldTypeString","alias":"SECT","length":8},{"name":"MAREA","type":"esriFieldTypeString","alias":"MAREA","length":12},{"name":"LANE","type":"esriFieldTypeString","alias":"LANE","length":10},{"name":"ALLEY","type":"esriFieldTypeString","alias":"ALLEY","length":10},{"name":"HOUSE_NO","type":"esriFieldTypeString","alias":"HOUSE_NO","length":20},{"name":"E_COORD97","type":"esriFieldTypeDouble","alias":"E_COORD97"},{"name":"N_COORD97","type":"esriFieldTypeDouble","alias":"N_COORD97"},{"name":"ADDRESS","type":"esriFieldTypeString","alias":"ADDRESS","length":50},{"name":"OBJECTID","type":"esriFieldTypeOID","alias":"OBJECTID"}],"features":[{"attributes":{"ID":235205,"DIS_CODE":0,"TOWNNAME":"永康區","LI":"東橋里","LIN":"16鄰","STREET":"東橋二街","SECT":" ","MAREA":" ","LANE":"９７巷","ALLEY":" ","HOUSE_NO":"２５號","E_COORD97":171710.98000000001,"N_COORD97":2546623.1000000001,"ADDRESS":"東橋二街９７巷２５號","OBJECTID":235201},"geometry":{"x":171710.97999999952,"y":2546623.0999999996}},{"attributes":{"ID":235206,"DIS_CODE":0,"TOWNNAME":"永康區","LI":"東橋里","LIN":"16鄰","STREET":"東橋二街","SECT":" ","MAREA":" ","LANE":"９７巷","ALLEY":" ","HOUSE_NO":"６６號","E_COORD97":171718.31,"N_COORD97":2546663.9700000002,"ADDRESS":"東橋二街９７巷６６號","OBJECTID":235202},"geometry":{"x":171718.31000000052,"y":2546663.9700000025}},{"attributes":{"ID":235207,"DIS_CODE":0,"TOWNNAME":"永康區","LI":"東橋里","LIN":"16鄰","STREET":"東橋二街","SECT":" ","MAREA":" ","LANE":"９７巷","ALLEY":" ","HOUSE_NO":"５１號","E_COORD97":171679.85000000001,"N_COORD97":2546676.4900000002,"ADDRESS":"東橋二街９７巷５１號","OBJECTID":235203},"geometry":{"x":171679.84999999963,"y":2546676.4900000021}},{"attributes":{"ID":235208,"DIS_CODE":0,"TOWNNAME":"永康區","LI":"東橋里","LIN":"16鄰","STREET":"東橋二街","SECT":" ","MAREA":" ","LANE":"９７巷","ALLEY":" ","HOUSE_NO":"３６號","E_COORD97":171747.23000000001,"N_COORD97":2546614.3799999999,"ADDRESS":"東橋二街９７巷３６號","OBJECTID":235204},"geometry":{"x":171747.23000000138,"y":2546614.3800000027}},{"attributes":{"ID":235209,"DIS_CODE":0,"TOWNNAME":"北區","LI":"中樓里","LIN":"13鄰","STREET":"開元路","SECT":" ","MAREA":" ","LANE":"９０巷","ALLEY":" ","HOUSE_NO":"１６號","E_COORD97":169775.42999999999,"N_COORD97":2545147.0600000001,"ADDRESS":"開元路９０巷１６號","OBJECTID":235205},"geometry":{"x":169775.43000000063,"y":2545147.0600000024}},{"attributes":{"ID":235210,"DIS_CODE":0,"TOWNNAME":"北區","LI":"中樓里","LIN":"13鄰","STREET":"開元路","SECT":" ","MAREA":" ","LANE":"９０巷","ALLEY":" ","HOUSE_NO":"１８號","E_COORD97":169778.73999999999,"N_COORD97":2545148.4500000002,"ADDRESS":"開元路９０巷１８號","OBJECTID":235206},"geometry":{"x":169778.74000000115,"y":2545148.4499999993}},{"attributes":{"ID":235211,"DIS_CODE":0,"TOWNNAME":"北區","LI":"中樓里","LIN":"13鄰","STREET":"開元路","SECT":" ","MAREA":" ","LANE":"９０巷","ALLEY":" ","HOUSE_NO":"２０號","E_COORD97":169792.09,"N_COORD97":2545152.6699999999,"ADDRESS":"開元路９０巷２０號","OBJECTID":235207},"geometry":{"x":169792.08999999985,"y":2545152.6700000018}},{"attributes":{"ID":235212,"DIS_CODE":0,"TOWNNAME":"北區","LI":"中樓里","LIN":"13鄰","STREET":"開元路","SECT":" ","MAREA":" ","LANE":"９０巷","ALLEY":" ","HOUSE_NO":"２２號","E_COORD97":169793.85999999999,"N_COORD97":2545147.8199999998,"ADDRESS":"開元路９０巷２２號","OBJECTID":235208},"geometry":{"x":169793.86000000034,"y":2545147.8199999984}},{"attributes":{"ID":235213,"DIS_CODE":0,"TOWNNAME":"北區","LI":"中樓里","LIN":"13鄰","STREET":"開元路","SECT":" ","MAREA":" ","LANE":"９０巷","ALLEY":" ","HOUSE_NO":"２６號","E_COORD97":169793.01000000001,"N_COORD97":2545135.9500000002,"ADDRESS":"開元路９０巷２６號","OBJECTID":235209},"geometry":{"x":169793.01000000164,"y":2545135.950000003}},{"attributes":{"ID":235214,"DIS_CODE":0,"TOWNNAME":"北區","LI":"中樓里","LIN":"13鄰","STREET":"開元路","SECT":" ","MAREA":" ","LANE":"９０巷","ALLEY":" ","HOUSE_NO":"２８號","E_COORD97":169794.56,"N_COORD97":2545131.9500000002,"ADDRESS":"開元路９０巷２８號","OBJECTID":235210},"geometry":{"x":169794.56000000052,"y":2545131.9499999993}},{"attributes":{"ID":235215,"DIS_CODE":0,"TOWNNAME":"北區","LI":"公園里","LIN":"14鄰","STREET":"西華街","SECT":" ","MAREA":" ","LANE":" ","ALLEY":" ","HOUSE_NO":"１０５號三樓之１","E_COORD97":169069.39999999999,"N_COORD97":2544530.7599999998,"ADDRESS":"西華街１０５號三樓之１","OBJECTID":235211},"geometry":{"x":169069.4000000013,"y":2544530.7600000035}},{"attributes":{"ID":235216,"DIS_CODE":0,"TOWNNAME":"北區","LI":"公園里","LIN":"14鄰","STREET":"西華街","SECT":" ","MAREA":" ","LANE":" ","ALLEY":" ","HOUSE_NO":"１０５號三樓之１０","E_COORD97":169069.39999999999,"N_COORD97":2544530.7599999998,"ADDRESS":"西華街１０５號三樓之１０","OBJECTID":235212},"geometry":{"x":169069.4000000013,"y":2544530.7600000035}},{"attributes":{"ID":235217,"DIS_CODE":0,"TOWNNAME":"北區","LI":"公園里","LIN":"14鄰","STREET":"西華街","SECT":" ","MAREA":" ","LANE":" ","ALLEY":" ","HOUSE_NO":"１０５號三樓之１１","E_COORD97":169069.39999999999,"N_COORD97":2544530.7599999998,"ADDRESS":"西華街１０５號三樓之１１","OBJECTID":235213},"geometry":{"x":169069.4000000013,"y":2544530.7600000035}},{"attributes":{"ID":235218,"DIS_CODE":0,"TOWNNAME":"北區","LI":"公園里","LIN":"14鄰","STREET":"西華街","SECT":" ","MAREA":" ","LANE":" ","ALLEY":" ","HOUSE_NO":"１０５號三樓之１２","E_COORD97":169069.39999999999,"N_COORD97":2544530.7599999998,"ADDRESS":"西華街１０５號三樓之１２","OBJECTID":235214},"geometry":{"x":169069.4000000013,"y":2544530.7600000035}},{"attributes":{"ID":235219,"DIS_CODE":0,"TOWNNAME":"北區","LI":"公園里","LIN":"14鄰","STREET":"西華街","SECT":" ","MAREA":" ","LANE":" ","ALLEY":" ","HOUSE_NO":"１０５號三樓之２","E_COORD97":169069.39999999999,"N_COORD97":2544530.7599999998,"ADDRESS":"西華街１０５號三樓之２","OBJECTID":235215},"geometry":{"x":169069.4000000013,"y":2544530.7600000035}},{"attributes":{"ID":235220,"DIS_CODE":0,"TOWNNAME":"北區","LI":"公園里","LIN":"14鄰","STREET":"西華街","SECT":" ","MAREA":" ","LANE":" ","ALLEY":" ","HOUSE_NO":"１０５號三樓之３","E_COORD97":169069.39999999999,"N_COORD97":2544530.7599999998,"ADDRESS":"西華街１０５號三樓之３","OBJECTID":235216},"geometry":{"x":169069.4000000013,"y":2544530.7600000035}},{"attributes":{"ID":235221,"DIS_CODE":0,"TOWNNAME":"北區","LI":"公園里","LIN":"14鄰","STREET":"西華街","SECT":" ","MAREA":" ","LANE":" ","ALLEY":" ","HOUSE_NO":"１０５號三樓之４","E_COORD97":169069.39999999999,"N_COORD97":2544530.7599999998,"ADDRESS":"西華街１０５號三樓之４","OBJECTID":235217},"geometry":{"x":169069.4000000013,"y":2544530.7600000035}},{"attributes":{"ID":235222,"DIS_CODE":0,"TOWNNAME":"北區","LI":"公園里","LIN":"14鄰","STREET":"西華街","SECT":" ","MAREA":" ","LANE":" ","ALLEY":" ","HOUSE_NO":"１０５號三樓之５","E_COORD97":169069.39999999999,"N_COORD97":2544530.7599999998,"ADDRESS":"西華街１０５號三樓之５","OBJECTID":235218},"geometry":{"x":169069.4000000013,"y":2544530.7600000035}},{"attributes":{"ID":235223,"DIS_CODE":0,"TOWNNAME":"北區","LI":"公園里","LIN":"14鄰","STREET":"西華街","SECT":" ","MAREA":" ","LANE":" ","ALLEY":" ","HOUSE_NO":"１０５號三樓之６","E_COORD97":169069.39999999999,"N_COORD97":2544530.7599999998,"ADDRESS":"西華街１０５號三樓之６","OBJECTID":235219},"geometry":{"x":169069.4000000013,"y":2544530.7600000035}},{"attributes":{"ID":235224,"DIS_CODE":0,"TOWNNAME":"北區","LI":"公園里","LIN":"14鄰","STREET":"西華街","SECT":" ","MAREA":" ","LANE":" ","ALLEY":" ","HOUSE_NO":"１０５號三樓之７","E_COORD97":169069.39999999999,"N_COORD97":2544530.7599999998,"ADDRESS":"西華街１０５號三樓之７","OBJECTID":235220},"geometry":{"x":169069.4000000013,"y":2544530.7600000035}},{"attributes":{"ID":235225,"DIS_CODE":0,"TOWNNAME":"永康區","LI":"東橋里","LIN":"16鄰","STREET":"東橋二街","SECT":" ","MAREA":" ","LANE":"７１巷","ALLEY":" ","HOUSE_NO":"５２號","E_COORD97":171703.95999999999,"N_COORD97":2546600.7000000002,"ADDRESS":"東橋二街７１巷５２號","OBJECTID":235221},"geometry":{"x":171703.96000000183,"y":2546600.6999999993}},{"attributes":{"ID":235226,"DIS_CODE":0,"TOWNNAME":"永康區","LI":"東橋里","LIN":"16鄰","STREET":"東橋二街","SECT":" ","MAREA":" ","LANE":"９７巷","ALLEY":" ","HOUSE_NO":"３０號","E_COORD97":171752.42000000001,"N_COORD97":2546605.48,"ADDRESS":"東橋二街９７巷３０號","OBJECTID":235222},"geometry":{"x":171752.42000000086,"y":2546605.4800000023}},{"attributes":{"ID":235227,"DIS_CODE":0,"TOWNNAME":"永康區","LI":"東橋里","LIN":"16鄰","STREET":"東橋二街","SECT":" ","MAREA":" ","LANE":"９７巷","ALLEY":" ","HOUSE_NO":"１０號","E_COORD97":171772.88,"N_COORD97":2546570.3799999999,"ADDRESS":"東橋二街９７巷１０號","OBJECTID":235223},"geometry":{"x":171772.88000000082,"y":2546570.3800000027}},{"attributes":{"ID":235228,"DIS_CODE":0,"TOWNNAME":"永康區","LI":"東橋里","LIN":"16鄰","STREET":"東橋二街","SECT":" ","MAREA":" ","LANE":"９７巷","ALLEY":" ","HOUSE_NO":"４６號","E_COORD97":171736.82999999999,"N_COORD97":2546632.21,"ADDRESS":"東橋二街９７巷４６號","OBJECTID":235224},"geometry":{"x":171736.83000000007,"y":2546632.2100000028}},{"attributes":{"ID":235229,"DIS_CODE":0,"TOWNNAME":"永康區","LI":"東橋里","LIN":"16鄰","STREET":"東橋二街","SECT":" ","MAREA":" ","LANE":"９７巷","ALLEY":" ","HOUSE_NO":"７８號","E_COORD97":171705.35000000001,"N_COORD97":2546686.2000000002,"ADDRESS":"東橋二街９７巷７８號","OBJECTID":235225},"geometry":{"x":171705.34999999963,"y":2546686.1999999993}},{"attributes":{"ID":235230,"DIS_CODE":0,"TOWNNAME":"永康區","LI":"東橋里","LIN":"16鄰","STREET":"東橋二街","SECT":" ","MAREA":" ","LANE":"９７巷","ALLEY":" ","HOUSE_NO":"４０號","E_COORD97":171742.04000000001,"N_COORD97":2546623.2799999998,"ADDRESS":"東橋二街９７巷４０號","OBJECTID":235226},"geometry":{"x":171742.04000000004,"y":2546623.2800000012}},{"attributes":{"ID":235231,"DIS_CODE":0,"TOWNNAME":"永康區","LI":"東橋里","LIN":"16鄰","STREET":"東橋二街","SECT":" ","MAREA":" ","LANE":"７１巷","ALLEY":" ","HOUSE_NO":"５６號","E_COORD97":171702.98000000001,"N_COORD97":2546604.2400000002,"ADDRESS":"東橋二街７１巷５６號","OBJECTID":235227},"geometry":{"x":171702.98000000138,"y":2546604.2400000021}},{"attributes":{"ID":235232,"DIS_CODE":0,"TOWNNAME":"永康區","LI":"東橋里","LIN":"16鄰","STREET":"東橋二街","SECT":" ","MAREA":" ","LANE":"９７巷","ALLEY":" ","HOUSE_NO":"２２號","E_COORD97":171758.17000000001,"N_COORD97":2546592.0299999998,"ADDRESS":"東橋二街９７巷２２號","OBJECTID":235228},"geometry":{"x":171758.16999999993,"y":2546592.0299999993}},{"attributes":{"ID":235233,"DIS_CODE":0,"TOWNNAME":"永康區","LI":"東橋里","LIN":"16鄰","STREET":"東橋二街","SECT":" ","MAREA":" ","LANE":"７１巷","ALLEY":" ","HOUSE_NO":"９０號","E_COORD97":171660.92000000001,"N_COORD97":2546678.6899999999,"ADDRESS":"東橋二街７１巷９０號","OBJECTID":235229},"geometry":{"x":171660.92000000086,"y":2546678.6900000013}},{"attributes":{"ID":235234,"DIS_CODE":0,"TOWNNAME":"北區","LI":"中樓里","LIN":"13鄰","STREET":"開元路","SECT":" ","MAREA":" ","LANE":"９０巷","ALLEY":" ","HOUSE_NO":"４號","E_COORD97":169790.07999999999,"N_COORD97":2545167.6600000001,"ADDRESS":"開元路９０巷４號","OBJECTID":235230},"geometry":{"x":169790.08000000101,"y":2545167.6600000001}},{"attributes":{"ID":235235,"DIS_CODE":0,"TOWNNAME":"北區","LI":"中樓里","LIN":"13鄰","STREET":"開元路","SECT":" ","MAREA":" ","LANE":"９０巷","ALLEY":" ","HOUSE_NO":"６號","E_COORD97":169790.92999999999,"N_COORD97":2545162.7999999998,"ADDRESS":"開元路９０巷６號","OBJECTID":235231},"geometry":{"x":169790.9299999997,"y":2545162.8000000026}},{"attributes":{"ID":235236,"DIS_CODE":0,"TOWNNAME":"北區","LI":"中樓里","LIN":"13鄰","STREET":"開元路","SECT":" ","MAREA":" ","LANE":"９０巷","ALLEY":" ","HOUSE_NO":"８號","E_COORD97":169777.82000000001,"N_COORD97":2545158.2400000002,"ADDRESS":"開元路９０巷８號","OBJECTID":235232},"geometry":{"x":169777.82000000216,"y":2545158.2400000002}},{"attributes":{"ID":235237,"DIS_CODE":0,"TOWNNAME":"安平區","LI":"金城里","LIN":"13鄰","STREET":"世平三街","SECT":" ","MAREA":" ","LANE":"１２巷","ALLEY":" ","HOUSE_NO":"２４號","E_COORD97":162792.67999999999,"N_COORD97":2544087.2200000002,"ADDRESS":"世平三街１２巷２４號","OBJECTID":235233},"geometry":{"x":162792.68000000063,"y":2544087.2200000007}},{"attributes":{"ID":235238,"DIS_CODE":0,"TOWNNAME":"北區","LI":"文成里","LIN":"13鄰","STREET":"文賢一路","SECT":" ","MAREA":" ","LANE":"９０巷","ALLEY":" ","HOUSE_NO":"１５號","E_COORD97":167620.35000000001,"N_COORD97":2545459.5699999998,"ADDRESS":"文賢一路９０巷１５號","OBJECTID":235234},"geometry":{"x":167620.34999999963,"y":2545459.5700000022}},{"attributes":{"ID":235239,"DIS_CODE":0,"TOWNNAME":"北區","LI":"文成里","LIN":"13鄰","STREET":"文賢一路","SECT":" ","MAREA":" ","LANE":"９０巷","ALLEY":" ","HOUSE_NO":"１７號","E_COORD97":167635.45999999999,"N_COORD97":2545459.9500000002,"ADDRESS":"文賢一路９０巷１７號","OBJECTID":235235},"geometry":{"x":167635.46000000183,"y":2545459.9499999993}},{"attributes":{"ID":235240,"DIS_CODE":0,"TOWNNAME":"北區","LI":"文成里","LIN":"13鄰","STREET":"文賢一路","SECT":" ","MAREA":" ","LANE":"９０巷","ALLEY":" ","HOUSE_NO":"１９號","E_COORD97":167634.95000000001,"N_COORD97":2545452.2000000002,"ADDRESS":"文賢一路９０巷１９號","OBJECTID":235236},"geometry":{"x":167634.95000000019,"y":2545452.1999999993}},{"attributes":{"ID":235241,"DIS_CODE":0,"TOWNNAME":"北區","LI":"文成里","LIN":"13鄰","STREET":"文賢一路","SECT":" ","MAREA":" ","LANE":"９０巷","ALLEY":" ","HOUSE_NO":"２１號","E_COORD97":167634.82000000001,"N_COORD97":2545444.4500000002,"ADDRESS":"文賢一路９０巷２１號","OBJECTID":235237},"geometry":{"x":167634.8200000003,"y":2545444.450000003}},{"attributes":{"ID":235242,"DIS_CODE":0,"TOWNNAME":"北區","LI":"公園里","LIN":"14鄰","STREET":"西華街","SECT":" ","MAREA":" ","LANE":" ","ALLEY":" ","HOUSE_NO":"１０５號三樓之８","E_COORD97":169069.39999999999,"N_COORD97":2544530.7599999998,"ADDRESS":"西華街１０５號三樓之８","OBJECTID":235238},"geometry":{"x":169069.4000000013,"y":2544530.7600000035}},{"attributes":{"ID":235243,"DIS_CODE":0,"TOWNNAME":"北區","LI":"公園里","LIN":"14鄰","STREET":"西華街","SECT":" ","MAREA":" ","LANE":" ","ALLEY":" ","HOUSE_NO":"１０５號三樓之９","E_COORD97":169069.39999999999,"N_COORD97":2544530.7599999998,"ADDRESS":"西華街１０５號三樓之９","OBJECTID":235239},"geometry":{"x":169069.4000000013,"y":2544530.7600000035}},{"attributes":{"ID":235244,"DIS_CODE":0,"TOWNNAME":"北區","LI":"公園里","LIN":"14鄰","STREET":"西華街","SECT":" ","MAREA":" ","LANE":" ","ALLEY":" ","HOUSE_NO":"１０５號四樓之１","E_COORD97":169069.39999999999,"N_COORD97":2544530.7599999998,"ADDRESS":"西華街１０５號四樓之１","OBJECTID":235240},"geometry":{"x":169069.4000000013,"y":2544530.7600000035}},{"attributes":{"ID":235245,"DIS_CODE":0,"TOWNNAME":"北區","LI":"公園里","LIN":"14鄰","STREET":"西華街","SECT":" ","MAREA":" ","LANE":" ","ALLEY":" ","HOUSE_NO":"１０５號四樓之１０","E_COORD97":169069.39999999999,"N_COORD97":2544530.7599999998,"ADDRESS":"西華街１０５號四樓之１０","OBJECTID":235241},"geometry":{"x":169069.4000000013,"y":2544530.7600000035}},{"attributes":{"ID":235246,"DIS_CODE":0,"TOWNNAME":"北區","LI":"公園里","LIN":"14鄰","STREET":"西華街","SECT":" ","MAREA":" ","LANE":" ","ALLEY":" ","HOUSE_NO":"１０５號四樓之１１","E_COORD97":169069.39999999999,"N_COORD97":2544530.7599999998,"ADDRESS":"西華街１０５號四樓之１１","OBJECTID":235242},"geometry":{"x":169069.4000000013,"y":2544530.7600000035}},{"attributes":{"ID":235247,"DIS_CODE":0,"TOWNNAME":"北區","LI":"公園里","LIN":"14鄰","STREET":"西華街","SECT":" ","MAREA":" ","LANE":" ","ALLEY":" ","HOUSE_NO":"１０５號四樓之１２","E_COORD97":169069.39999999999,"N_COORD97":2544530.7599999998,"ADDRESS":"西華街１０５號四樓之１２","OBJECTID":235243},"geometry":{"x":169069.4000000013,"y":2544530.7600000035}},{"attributes":{"ID":235248,"DIS_CODE":0,"TOWNNAME":"北區","LI":"公園里","LIN":"14鄰","STREET":"西華街","SECT":" ","MAREA":" ","LANE":" ","ALLEY":" ","HOUSE_NO":"１０５號四樓之２","E_COORD97":169069.39999999999,"N_COORD97":2544530.7599999998,"ADDRESS":"西華街１０５號四樓之２","OBJECTID":235244},"geometry":{"x":169069.4000000013,"y":2544530.7600000035}},{"attributes":{"ID":235249,"DIS_CODE":0,"TOWNNAME":"北區","LI":"公園里","LIN":"14鄰","STREET":"西華街","SECT":" ","MAREA":" ","LANE":" ","ALLEY":" ","HOUSE_NO":"１０５號四樓之３","E_COORD97":169069.39999999999,"N_COORD97":2544530.7599999998,"ADDRESS":"西華街１０５號四樓之３","OBJECTID":235245},"geometry":{"x":169069.4000000013,"y":2544530.7600000035}},{"attributes":{"ID":235250,"DIS_CODE":0,"TOWNNAME":"佳里區","LI":"興化里","LIN":"16鄰","STREET":" ","SECT":" ","MAREA":"佳里興","LANE":" ","ALLEY":" ","HOUSE_NO":"５８０號","E_COORD97":166359.04999999999,"N_COORD97":2565197.3100000001,"ADDRESS":"佳里興５８０號","OBJECTID":235246},"geometry":{"x":166359.05000000075,"y":2565197.3100000005}},{"attributes":{"ID":235251,"DIS_CODE":0,"TOWNNAME":"永康區","LI":"東橋里","LIN":"16鄰","STREET":"東橋二街","SECT":" ","MAREA":" ","LANE":"７１巷","ALLEY":" ","HOUSE_NO":"９６號","E_COORD97":171655.97,"N_COORD97":2546691.3399999999,"ADDRESS":"東橋二街７１巷９６號","OBJECTID":235247},"geometry":{"x":171655.96999999974,"y":2546691.3400000017}},{"attributes":{"ID":235252,"DIS_CODE":0,"TOWNNAME":"柳營區","LI":"果毅里","LIN":"16鄰","STREET":" ","SECT":" ","MAREA":"果毅後","LANE":" ","ALLEY":" ","HOUSE_NO":"１８９號","E_COORD97":185556.98999999999,"N_COORD97":2572794.48,"ADDRESS":"果毅後１８９號","OBJECTID":235248},"geometry":{"x":185556.98999999929,"y":2572794.4800000004}},{"attributes":{"ID":235253,"DIS_CODE":0,"TOWNNAME":"永康區","LI":"東橋里","LIN":"16鄰","STREET":"東橋二街","SECT":" ","MAREA":" ","LANE":"９７巷","ALLEY":" ","HOUSE_NO":"２９號","E_COORD97":171706.10999999999,"N_COORD97":2546632.8100000001,"ADDRESS":"東橋二街９７巷２９號","OBJECTID":235249},"geometry":{"x":171706.11000000034,"y":2546632.8100000005}},{"attributes":{"ID":235254,"DIS_CODE":0,"TOWNNAME":"新市區","LI":"大營里","LIN":"16鄰","STREET":" ","SECT":" ","MAREA":"大營","LANE":" ","ALLEY":" ","HOUSE_NO":"３０１之１號","E_COORD97":179203.67999999999,"N_COORD97":2555410.2999999998,"ADDRESS":"大營３０１之１號","OBJECTID":235250},"geometry":{"x":179203.68000000063,"y":2555410.3000000007}},{"attributes":{"ID":235255,"DIS_CODE":0,"TOWNNAME":"新市區","LI":"大營里","LIN":"16鄰","STREET":" ","SECT":" ","MAREA":"大營","LANE":" ","ALLEY":" ","HOUSE_NO":"３０２之２號","E_COORD97":179203.31,"N_COORD97":2555424.0499999998,"ADDRESS":"大營３０２之２號","OBJECTID":235251},"geometry":{"x":179203.30999999959,"y":2555424.0500000026}},{"attributes":{"ID":235256,"DIS_CODE":0,"TOWNNAME":"永康區","LI":"東橋里","LIN":"16鄰","STREET":"東橋二街","SECT":" ","MAREA":" ","LANE":"９７巷","ALLEY":" ","HOUSE_NO":"７６號","E_COORD97":171707.79999999999,"N_COORD97":2546682,"ADDRESS":"東橋二街９７巷７６號","OBJECTID":235252},"geometry":{"x":171707.79999999981,"y":2546682}},{"attributes":{"ID":235257,"DIS_CODE":0,"TOWNNAME":"永康區","LI":"東橋里","LIN":"16鄰","STREET":"東橋二街","SECT":" ","MAREA":" ","LANE":"９７巷","ALLEY":" ","HOUSE_NO":"７號","E_COORD97":171738.60999999999,"N_COORD97":2546584.9100000001,"ADDRESS":"東橋二街９７巷７號","OBJECTID":235253},"geometry":{"x":171738.61000000034,"y":2546584.9100000039}},{"attributes":{"ID":235258,"DIS_CODE":0,"TOWNNAME":"永康區","LI":"東橋里","LIN":"16鄰","STREET":"東橋二街","SECT":" ","MAREA":" ","LANE":"９７巷","ALLEY":" ","HOUSE_NO":"１號","E_COORD97":171763.84,"N_COORD97":2546550.3300000001,"ADDRESS":"東橋二街９７巷１號","OBJECTID":235254},"geometry":{"x":171763.83999999892,"y":2546550.3300000001}},{"attributes":{"ID":235259,"DIS_CODE":0,"TOWNNAME":"北區","LI":"文成里","LIN":"13鄰","STREET":"文賢一路","SECT":" ","MAREA":" ","LANE":"９０巷","ALLEY":" ","HOUSE_NO":"２３號","E_COORD97":167634.70000000001,"N_COORD97":2545436.3900000001,"ADDRESS":"文賢一路９０巷２３號","OBJECTID":235255},"geometry":{"x":167634.70000000112,"y":2545436.3900000025}},{"attributes":{"ID":235260,"DIS_CODE":0,"TOWNNAME":"北區","LI":"文成里","LIN":"13鄰","STREET":"文賢一路","SECT":" ","MAREA":" ","LANE":"９０巷","ALLEY":" ","HOUSE_NO":"２５號","E_COORD97":167634.06,"N_COORD97":2545427.1200000001,"ADDRESS":"文賢一路９０巷２５號","OBJECTID":235256},"geometry":{"x":167634.05999999959,"y":2545427.120000001}},{"attributes":{"ID":235261,"DIS_CODE":0,"TOWNNAME":"北區","LI":"文成里","LIN":"13鄰","STREET":"文賢一路","SECT":" ","MAREA":" ","LANE":"９０巷","ALLEY":" ","HOUSE_NO":"２７號","E_COORD97":167633.94,"N_COORD97":2545418.3500000001,"ADDRESS":"文賢一路９０巷２７號","OBJECTID":235257},"geometry":{"x":167633.94000000041,"y":2545418.3500000034}},{"attributes":{"ID":235262,"DIS_CODE":0,"TOWNNAME":"北區","LI":"文成里","LIN":"13鄰","STREET":"文賢一路","SECT":" ","MAREA":" ","LANE":"９０巷","ALLEY":" ","HOUSE_NO":"２９號","E_COORD97":167633.29999999999,"N_COORD97":2545409.7200000002,"ADDRESS":"文賢一路９０巷２９號","OBJECTID":235258},"geometry":{"x":167633.30000000075,"y":2545409.7200000007}},{"attributes":{"ID":235263,"DIS_CODE":0,"TOWNNAME":"北區","LI":"文成里","LIN":"13鄰","STREET":"文賢一路","SECT":" ","MAREA":" ","LANE":"９０巷","ALLEY":" ","HOUSE_NO":"３１號","E_COORD97":167633.17000000001,"N_COORD97":2545401.9700000002,"ADDRESS":"文賢一路９０巷３１號","OBJECTID":235259},"geometry":{"x":167633.16999999993,"y":2545401.9700000025}},{"attributes":{"ID":235264,"DIS_CODE":0,"TOWNNAME":"北區","LI":"公園里","LIN":"14鄰","STREET":"西華街","SECT":" ","MAREA":" ","LANE":" ","ALLEY":" ","HOUSE_NO":"１０５號四樓之４","E_COORD97":169069.39999999999,"N_COORD97":2544530.7599999998,"ADDRESS":"西華街１０５號四樓之４","OBJECTID":235260},"geometry":{"x":169069.4000000013,"y":2544530.7600000035}},{"attributes":{"ID":235265,"DIS_CODE":0,"TOWNNAME":"北區","LI":"公園里","LIN":"14鄰","STREET":"西華街","SECT":" ","MAREA":" ","LANE":" ","ALLEY":" ","HOUSE_NO":"１０５號四樓之５","E_COORD97":169069.39999999999,"N_COORD97":2544530.7599999998,"ADDRESS":"西華街１０５號四樓之５","OBJECTID":235261},"geometry":{"x":169069.4000000013,"y":2544530.7600000035}},{"attributes":{"ID":235266,"DIS_CODE":0,"TOWNNAME":"北區","LI":"公園里","LIN":"14鄰","STREET":"西華街","SECT":" ","MAREA":" ","LANE":" ","ALLEY":" ","HOUSE_NO":"１０５號四樓之６","E_COORD97":169069.39999999999,"N_COORD97":2544530.7599999998,"ADDRESS":"西華街１０５號四樓之６","OBJECTID":235262},"geometry":{"x":169069.4000000013,"y":2544530.7600000035}},{"attributes":{"ID":235267,"DIS_CODE":0,"TOWNNAME":"北區","LI":"公園里","LIN":"14鄰","STREET":"西華街","SECT":" ","MAREA":" ","LANE":" ","ALLEY":" ","HOUSE_NO":"１０５號四樓之７","E_COORD97":169069.39999999999,"N_COORD97":2544530.7599999998,"ADDRESS":"西華街１０５號四樓之７","OBJECTID":235263},"geometry":{"x":169069.4000000013,"y":2544530.7600000035}},{"attributes":{"ID":235268,"DIS_CODE":0,"TOWNNAME":"柳營區","LI":"人和里","LIN":"14鄰","STREET":"柳營路","SECT":"三段","MAREA":" ","LANE":" ","ALLEY":" ","HOUSE_NO":"１９３號","E_COORD97":179649.39000000001,"N_COORD97":2576689.02,"ADDRESS":"柳營路三段１９３號","OBJECTID":235264},"geometry":{"x":179649.39000000153,"y":2576689.0199999996}},{"attributes":{"ID":235269,"DIS_CODE":0,"TOWNNAME":"北區","LI":"文成里","LIN":"13鄰","STREET":"文賢一路","SECT":" ","MAREA":" ","LANE":"９０巷","ALLEY":" ","HOUSE_NO":"２號","E_COORD97":167619.07999999999,"N_COORD97":2545387.3700000001,"ADDRESS":"文賢一路９０巷２號","OBJECTID":235265},"geometry":{"x":167619.08000000007,"y":2545387.3700000029}},{"attributes":{"ID":235270,"DIS_CODE":0,"TOWNNAME":"北區","LI":"文成里","LIN":"13鄰","STREET":"文賢一路","SECT":" ","MAREA":" ","LANE":"９０巷","ALLEY":" ","HOUSE_NO":"６號","E_COORD97":167618.82000000001,"N_COORD97":2545380.7599999998,"ADDRESS":"文賢一路９０巷６號","OBJECTID":235266},"geometry":{"x":167618.82000000123,"y":2545380.7599999998}},{"attributes":{"ID":235271,"DIS_CODE":0,"TOWNNAME":"北區","LI":"大仁里","LIN":"13鄰","STREET":"北門路","SECT":"二段","MAREA":" ","LANE":"２４７巷","ALLEY":" ","HOUSE_NO":"８５之１號","E_COORD97":169350.23999999999,"N_COORD97":2545381.3199999998,"ADDRESS":"北門路二段２４７巷８５之１號","OBJECTID":235267},"geometry":{"x":169350.24000000022,"y":2545381.3200000003}},{"attributes":{"ID":235272,"DIS_CODE":0,"TOWNNAME":"南區","LI":"郡南里","LIN":"13鄰","STREET":"永成路","SECT":"三段","MAREA":" ","LANE":"７１巷","ALLEY":" ","HOUSE_NO":"１１號","E_COORD97":167449.51999999999,"N_COORD97":2540552.75,"ADDRESS":"永成路三段７１巷１１號","OBJECTID":235268},"geometry":{"x":167449.51999999955,"y":2540552.75}},{"attributes":{"ID":235273,"DIS_CODE":0,"TOWNNAME":"南區","LI":"郡南里","LIN":"13鄰","STREET":"永成路","SECT":"三段","MAREA":" ","LANE":"７１巷","ALLEY":" ","HOUSE_NO":"１３號","E_COORD97":167444.22,"N_COORD97":2540552.6800000002,"ADDRESS":"永成路三段７１巷１３號","OBJECTID":235269},"geometry":{"x":167444.22000000067,"y":2540552.6799999997}},{"attributes":{"ID":235274,"DIS_CODE":0,"TOWNNAME":"南區","LI":"大林里","LIN":"13鄰","STREET":"國民路","SECT":" ","MAREA":" ","LANE":"５１１巷","ALLEY":" ","HOUSE_NO":"２８號之１","E_COORD97":168614.22,"N_COORD97":2541422.46,"ADDRESS":"國民路５１１巷２８號之１","OBJECTID":235270},"geometry":{"x":168614.21999999974,"y":2541422.4600000028}},{"attributes":{"ID":235275,"DIS_CODE":0,"TOWNNAME":"南區","LI":"明興里","LIN":"13鄰","STREET":"金華路","SECT":"一段","MAREA":" ","LANE":"６０巷","ALLEY":" ","HOUSE_NO":"３３號","E_COORD97":166995.32000000001,"N_COORD97":2540383.79,"ADDRESS":"金華路一段６０巷３３號","OBJECTID":235271},"geometry":{"x":166995.3200000003,"y":2540383.790000001}},{"attributes":{"ID":235276,"DIS_CODE":0,"TOWNNAME":"南區","LI":"明興里","LIN":"13鄰","STREET":"金華路","SECT":"一段","MAREA":" ","LANE":"６０巷","ALLEY":" ","HOUSE_NO":"３６號","E_COORD97":166987.70000000001,"N_COORD97":2540373.1600000001,"ADDRESS":"金華路一段６０巷３６號","OBJECTID":235272},"geometry":{"x":166987.70000000019,"y":2540373.160000002}},{"attributes":{"ID":235277,"DIS_CODE":0,"TOWNNAME":"北區","LI":"三德里","LIN":"13鄰","STREET":"成功路","SECT":" ","MAREA":" ","LANE":"２２０巷","ALLEY":" ","HOUSE_NO":"１８號","E_COORD97":168391.23000000001,"N_COORD97":2544437.1000000001,"ADDRESS":"成功路２２０巷１８號","OBJECTID":235273},"geometry":{"x":168391.23000000045,"y":2544437.1000000015}},{"attributes":{"ID":235278,"DIS_CODE":0,"TOWNNAME":"北區","LI":"三德里","LIN":"13鄰","STREET":"成功路","SECT":" ","MAREA":" ","LANE":"２２０巷","ALLEY":" ","HOUSE_NO":"２０號","E_COORD97":168416.97,"N_COORD97":2544442,"ADDRESS":"成功路２２０巷２０號","OBJECTID":235274},"geometry":{"x":168416.97000000067,"y":2544442.0000000019}},{"attributes":{"ID":235279,"DIS_CODE":0,"TOWNNAME":"北區","LI":"三德里","LIN":"13鄰","STREET":"成功路","SECT":" ","MAREA":" ","LANE":"２２０巷","ALLEY":" ","HOUSE_NO":"２２號","E_COORD97":168415.13,"N_COORD97":2544438.3199999998,"ADDRESS":"成功路２２０巷２２號","OBJECTID":235275},"geometry":{"x":168415.12999999989,"y":2544438.3200000003}},{"attributes":{"ID":235280,"DIS_CODE":0,"TOWNNAME":"北區","LI":"三德里","LIN":"13鄰","STREET":"成功路","SECT":" ","MAREA":" ","LANE":"２２０巷","ALLEY":" ","HOUSE_NO":"２４號","E_COORD97":168413.09,"N_COORD97":2544434.8599999999,"ADDRESS":"成功路２２０巷２４號","OBJECTID":235276},"geometry":{"x":168413.09000000078,"y":2544434.8600000031}},{"attributes":{"ID":235281,"DIS_CODE":0,"TOWNNAME":"南區","LI":"文華里","LIN":"16鄰","STREET":"金華路","SECT":"二段","MAREA":" ","LANE":"３８５巷","ALLEY":" ","HOUSE_NO":"２４號","E_COORD97":167048.47,"N_COORD97":2543039.9700000002,"ADDRESS":"金華路二段３８５巷２４號","OBJECTID":235277},"geometry":{"x":167048.46999999974,"y":2543039.9700000025}},{"attributes":{"ID":235282,"DIS_CODE":0,"TOWNNAME":"南區","LI":"文華里","LIN":"16鄰","STREET":"金華路","SECT":"二段","MAREA":" ","LANE":"３８５巷","ALLEY":" ","HOUSE_NO":"２６號","E_COORD97":167043.79999999999,"N_COORD97":2543040.3300000001,"ADDRESS":"金華路二段３８５巷２６號","OBJECTID":235278},"geometry":{"x":167043.80000000075,"y":2543040.3300000019}},{"attributes":{"ID":235283,"DIS_CODE":0,"TOWNNAME":"南區","LI":"文華里","LIN":"16鄰","STREET":"金華路","SECT":"二段","MAREA":" ","LANE":"３８５巷","ALLEY":" ","HOUSE_NO":"２８號","E_COORD97":167039.76000000001,"N_COORD97":2543040.7799999998,"ADDRESS":"金華路二段３８５巷２８號","OBJECTID":235279},"geometry":{"x":167039.75999999978,"y":2543040.7799999993}},{"attributes":{"ID":235284,"DIS_CODE":0,"TOWNNAME":"南區","LI":"文華里","LIN":"16鄰","STREET":"金華路","SECT":"二段","MAREA":" ","LANE":"３８５巷","ALLEY":" ","HOUSE_NO":"３０號","E_COORD97":167035.45000000001,"N_COORD97":2543040.7799999998,"ADDRESS":"金華路二段３８５巷３０號","OBJECTID":235280},"geometry":{"x":167035.45000000019,"y":2543040.7799999993}},{"attributes":{"ID":235285,"DIS_CODE":0,"TOWNNAME":"南區","LI":"文華里","LIN":"16鄰","STREET":"金華路","SECT":"二段","MAREA":" ","LANE":"３８５巷","ALLEY":" ","HOUSE_NO":"３２號","E_COORD97":167030.78,"N_COORD97":2543041.6800000002,"ADDRESS":"金華路二段３８５巷３２號","OBJECTID":235281},"geometry":{"x":167030.78000000119,"y":2543041.6799999997}},{"attributes":{"ID":235286,"DIS_CODE":0,"TOWNNAME":"北區","LI":"三德里","LIN":"13鄰","STREET":"成功路","SECT":" ","MAREA":" ","LANE":"２２０巷","ALLEY":" ","HOUSE_NO":"２６號","E_COORD97":168411.85999999999,"N_COORD97":2544431.1899999999,"ADDRESS":"成功路２２０巷２６號","OBJECTID":235282},"geometry":{"x":168411.86000000127,"y":2544431.1899999995}},{"attributes":{"ID":235287,"DIS_CODE":0,"TOWNNAME":"北區","LI":"三德里","LIN":"13鄰","STREET":"成功路","SECT":" ","MAREA":" ","LANE":"２２０巷","ALLEY":" ","HOUSE_NO":"２８號","E_COORD97":168416.97,"N_COORD97":2544428.1299999999,"ADDRESS":"成功路２２０巷２８號","OBJECTID":235283},"geometry":{"x":168416.97000000067,"y":2544428.129999999}},{"attributes":{"ID":235288,"DIS_CODE":0,"TOWNNAME":"北區","LI":"三德里","LIN":"13鄰","STREET":"成功路","SECT":" ","MAREA":" ","LANE":"２２０巷","ALLEY":" ","HOUSE_NO":"３０號","E_COORD97":168419.01000000001,"N_COORD97":2544433.23,"ADDRESS":"成功路２２０巷３０號","OBJECTID":235284},"geometry":{"x":168419.00999999978,"y":2544433.2299999986}},{"attributes":{"ID":235289,"DIS_CODE":0,"TOWNNAME":"北區","LI":"三德里","LIN":"13鄰","STREET":"成功路","SECT":" ","MAREA":" ","LANE":"２２０巷","ALLEY":" ","HOUSE_NO":"５１號","E_COORD97":168405.32999999999,"N_COORD97":2544454.8399999999,"ADDRESS":"成功路２２０巷５１號","OBJECTID":235285},"geometry":{"x":168405.33000000007,"y":2544454.8399999999}},{"attributes":{"ID":235290,"DIS_CODE":0,"TOWNNAME":"北區","LI":"三德里","LIN":"13鄰","STREET":"成功路","SECT":" ","MAREA":" ","LANE":"２２０巷","ALLEY":" ","HOUSE_NO":"５３號","E_COORD97":168410.84,"N_COORD97":2544451.7799999998,"ADDRESS":"成功路２２０巷５３號","OBJECTID":235286},"geometry":{"x":168410.84000000171,"y":2544451.7799999993}},{"attributes":{"ID":235291,"DIS_CODE":0,"TOWNNAME":"北區","LI":"三德里","LIN":"13鄰","STREET":"成功路","SECT":" ","MAREA":" ","LANE":"２２０巷","ALLEY":" ","HOUSE_NO":"５５號","E_COORD97":168420.23000000001,"N_COORD97":2544447.9100000001,"ADDRESS":"成功路２２０巷５５號","OBJECTID":235287},"geometry":{"x":168420.23000000045,"y":2544447.9100000001}},{"attributes":{"ID":235292,"DIS_CODE":0,"TOWNNAME":"北區","LI":"公園里","LIN":"14鄰","STREET":"西華街","SECT":" ","MAREA":" ","LANE":" ","ALLEY":" ","HOUSE_NO":"１０５號四樓之８","E_COORD97":169069.39999999999,"N_COORD97":2544530.7599999998,"ADDRESS":"西華街１０５號四樓之８","OBJECTID":235288},"geometry":{"x":169069.4000000013,"y":2544530.7600000035}},{"attributes":{"ID":235293,"DIS_CODE":0,"TOWNNAME":"北區","LI":"公園里","LIN":"14鄰","STREET":"西華街","SECT":" ","MAREA":" ","LANE":" ","ALLEY":" ","HOUSE_NO":"１０５號四樓之９","E_COORD97":169069.39999999999,"N_COORD97":2544530.7599999998,"ADDRESS":"西華街１０５號四樓之９","OBJECTID":235289},"geometry":{"x":169069.4000000013,"y":2544530.7600000035}},{"attributes":{"ID":235294,"DIS_CODE":0,"TOWNNAME":"北區","LI":"公園里","LIN":"14鄰","STREET":"西華街","SECT":" ","MAREA":" ","LANE":" ","ALLEY":" ","HOUSE_NO":"１０５號五樓之１２","E_COORD97":169069.39999999999,"N_COORD97":2544530.7599999998,"ADDRESS":"西華街１０５號五樓之１２","OBJECTID":235290},"geometry":{"x":169069.4000000013,"y":2544530.7600000035}},{"attributes":{"ID":235295,"DIS_CODE":0,"TOWNNAME":"北區","LI":"公園里","LIN":"14鄰","STREET":"西華街","SECT":" ","MAREA":" ","LANE":" ","ALLEY":" ","HOUSE_NO":"１０５號五樓之２","E_COORD97":169069.39999999999,"N_COORD97":2544530.7599999998,"ADDRESS":"西華街１０５號五樓之２","OBJECTID":235291},"geometry":{"x":169069.4000000013,"y":2544530.7600000035}},{"attributes":{"ID":235296,"DIS_CODE":0,"TOWNNAME":"北區","LI":"公園里","LIN":"14鄰","STREET":"西華街","SECT":" ","MAREA":" ","LANE":" ","ALLEY":" ","HOUSE_NO":"１０５號五樓之３","E_COORD97":169069.39999999999,"N_COORD97":2544530.7599999998,"ADDRESS":"西華街１０５號五樓之３","OBJECTID":235292},"geometry":{"x":169069.4000000013,"y":2544530.7600000035}},{"attributes":{"ID":235297,"DIS_CODE":0,"TOWNNAME":"北區","LI":"三德里","LIN":"13鄰","STREET":"成功路","SECT":" ","MAREA":" ","LANE":"２２０巷","ALLEY":" ","HOUSE_NO":"５７號","E_COORD97":168431.72,"N_COORD97":2544449.04,"ADDRESS":"成功路２２０巷５７號","OBJECTID":235293},"geometry":{"x":168431.71999999974,"y":2544449.0399999991}},{"attributes":{"ID":235298,"DIS_CODE":0,"TOWNNAME":"北區","LI":"三德里","LIN":"13鄰","STREET":"成功路","SECT":" ","MAREA":" ","LANE":"２２０巷","ALLEY":" ","HOUSE_NO":"５９號","E_COORD97":168436.79000000001,"N_COORD97":2544454.3900000001,"ADDRESS":"成功路２２０巷５９號","OBJECTID":235294},"geometry":{"x":168436.7900000019,"y":2544454.3900000025}},{"attributes":{"ID":235299,"DIS_CODE":0,"TOWNNAME":"北區","LI":"三德里","LIN":"13鄰","STREET":"成功路","SECT":" ","MAREA":" ","LANE":"２２０巷","ALLEY":" ","HOUSE_NO":"６１號","E_COORD97":168432.45000000001,"N_COORD97":2544456.1299999999,"ADDRESS":"成功路２２０巷６１號","OBJECTID":235295},"geometry":{"x":168432.45000000205,"y":2544456.1300000027}},{"attributes":{"ID":235300,"DIS_CODE":0,"TOWNNAME":"北區","LI":"三德里","LIN":"13鄰","STREET":"成功路","SECT":" ","MAREA":" ","LANE":"２２０巷","ALLEY":" ","HOUSE_NO":"６３號","E_COORD97":168420.06,"N_COORD97":2544480.7400000002,"ADDRESS":"成功路２２０巷６３號","OBJECTID":235296},"geometry":{"x":168420.06000000052,"y":2544480.7400000039}},{"attributes":{"ID":235301,"DIS_CODE":0,"TOWNNAME":"北區","LI":"重興里","LIN":"13鄰","STREET":"開南街","SECT":" ","MAREA":" ","LANE":"１６５巷","ALLEY":" ","HOUSE_NO":"７號","E_COORD97":170676.64000000001,"N_COORD97":2545128.77,"ADDRESS":"開南街１６５巷７號","OBJECTID":235297},"geometry":{"x":170676.63999999966,"y":2545128.7700000014}},{"attributes":{"ID":235302,"DIS_CODE":0,"TOWNNAME":"北區","LI":"文元里","LIN":"13鄰","STREET":"中華北路","SECT":"二段","MAREA":" ","LANE":"２５巷","ALLEY":" ","HOUSE_NO":"１４號","E_COORD97":167418.48999999999,"N_COORD97":2546508.6899999999,"ADDRESS":"中華北路二段２５巷１４號","OBJECTID":235298},"geometry":{"x":167418.48999999929,"y":2546508.6900000013}},{"attributes":{"ID":235303,"DIS_CODE":0,"TOWNNAME":"北區","LI":"文元里","LIN":"13鄰","STREET":"中華北路","SECT":"二段","MAREA":" ","LANE":"２５巷","ALLEY":" ","HOUSE_NO":"２號","E_COORD97":167440.63,"N_COORD97":2546517.4900000002,"ADDRESS":"中華北路二段２５巷２號","OBJECTID":235299},"geometry":{"x":167440.62999999989,"y":2546517.4900000021}},{"attributes":{"ID":235304,"DIS_CODE":0,"TOWNNAME":"北區","LI":"文元里","LIN":"13鄰","STREET":"中華北路","SECT":"二段","MAREA":" ","LANE":"２５巷","ALLEY":" ","HOUSE_NO":"４號","E_COORD97":167436.53,"N_COORD97":2546516.0600000001,"ADDRESS":"中華北路二段２５巷４號","OBJECTID":235300},"geometry":{"x":167436.53000000026,"y":2546516.0599999987}},{"attributes":{"ID":235305,"DIS_CODE":0,"TOWNNAME":"北區","LI":"文元里","LIN":"13鄰","STREET":"中華北路","SECT":"二段","MAREA":" ","LANE":"２５巷","ALLEY":" ","HOUSE_NO":"８號","E_COORD97":167429.35999999999,"N_COORD97":2546513.1899999999,"ADDRESS":"中華北路二段２５巷８號","OBJECTID":235301},"geometry":{"x":167429.36000000034,"y":2546513.1899999995}},{"attributes":{"ID":235306,"DIS_CODE":0,"TOWNNAME":"北區","LI":"大豐里","LIN":"13鄰","STREET":"和緯路","SECT":"四段","MAREA":" ","LANE":"１３９巷","ALLEY":" ","HOUSE_NO":"１０號","E_COORD97":167020.26000000001,"N_COORD97":2545413.96,"ADDRESS":"和緯路四段１３９巷１０號","OBJECTID":235302},"geometry":{"x":167020.26000000071,"y":2545413.9600000009}},{"attributes":{"ID":235307,"DIS_CODE":0,"TOWNNAME":"北區","LI":"大豐里","LIN":"13鄰","STREET":"和緯路","SECT":"四段","MAREA":" ","LANE":"１３９巷","ALLEY":" ","HOUSE_NO":"１１號","E_COORD97":167042.01000000001,"N_COORD97":2545419.1699999999,"ADDRESS":"和緯路四段１３９巷１１號","OBJECTID":235303},"geometry":{"x":167042.01000000071,"y":2545419.1699999999}},{"attributes":{"ID":235308,"DIS_CODE":0,"TOWNNAME":"麻豆區","LI":"安正里","LIN":"5鄰","STREET":" ","SECT":" ","MAREA":"方厝寮","LANE":" ","ALLEY":" ","HOUSE_NO":"１１號","E_COORD97":171483.45999999999,"N_COORD97":2561775.3100000001,"ADDRESS":"方厝寮１１號","OBJECTID":235304},"geometry":{"x":171483.45999999903,"y":2561775.3100000024}},{"attributes":{"ID":235309,"DIS_CODE":0,"TOWNNAME":"麻豆區","LI":"安正里","LIN":"5鄰","STREET":" ","SECT":" ","MAREA":"方厝寮","LANE":" ","ALLEY":" ","HOUSE_NO":"１２號","E_COORD97":171422.62,"N_COORD97":2561775.3799999999,"ADDRESS":"方厝寮１２號","OBJECTID":235305},"geometry":{"x":171422.62000000011,"y":2561775.379999999}},{"attributes":{"ID":235310,"DIS_CODE":0,"TOWNNAME":"麻豆區","LI":"安正里","LIN":"5鄰","STREET":" ","SECT":" ","MAREA":"方厝寮","LANE":" ","ALLEY":" ","HOUSE_NO":"１３號之１","E_COORD97":171368.42999999999,"N_COORD97":2561786.02,"ADDRESS":"方厝寮１３號之１","OBJECTID":235306},"geometry":{"x":171368.43000000063,"y":2561786.0200000033}},{"attributes":{"ID":235311,"DIS_CODE":0,"TOWNNAME":"麻豆區","LI":"安正里","LIN":"5鄰","STREET":" ","SECT":" ","MAREA":"方厝寮","LANE":" ","ALLEY":" ","HOUSE_NO":"１３號之３","E_COORD97":171327.89999999999,"N_COORD97":2561823.2200000002,"ADDRESS":"方厝寮１３號之３","OBJECTID":235307},"geometry":{"x":171327.90000000037,"y":2561823.2200000044}},{"attributes":{"ID":235312,"DIS_CODE":0,"TOWNNAME":"麻豆區","LI":"安正里","LIN":"5鄰","STREET":" ","SECT":" ","MAREA":"方厝寮","LANE":" ","ALLEY":" ","HOUSE_NO":"１３號之６","E_COORD97":171308.39999999999,"N_COORD97":2561867.2999999998,"ADDRESS":"方厝寮１３號之６","OBJECTID":235308},"geometry":{"x":171308.4000000013,"y":2561867.3000000026}},{"attributes":{"ID":235313,"DIS_CODE":0,"TOWNNAME":"麻豆區","LI":"安正里","LIN":"5鄰","STREET":" ","SECT":" ","MAREA":"方厝寮","LANE":" ","ALLEY":" ","HOUSE_NO":"１３號","E_COORD97":171365.98000000001,"N_COORD97":2561770.1000000001,"ADDRESS":"方厝寮１３號","OBJECTID":235309},"geometry":{"x":171365.98000000138,"y":2561770.1000000015}},{"attributes":{"ID":235314,"DIS_CODE":0,"TOWNNAME":"麻豆區","LI":"安正里","LIN":"5鄰","STREET":" ","SECT":" ","MAREA":"方厝寮","LANE":" ","ALLEY":" ","HOUSE_NO":"１４號","E_COORD97":171360.70999999999,"N_COORD97":2561755.8300000001,"ADDRESS":"方厝寮１４號","OBJECTID":235310},"geometry":{"x":171360.70999999996,"y":2561755.8300000001}},{"attributes":{"ID":235315,"DIS_CODE":0,"TOWNNAME":"麻豆區","LI":"安正里","LIN":"5鄰","STREET":" ","SECT":" ","MAREA":"方厝寮","LANE":" ","ALLEY":" ","HOUSE_NO":"１５號","E_COORD97":171364.09,"N_COORD97":2561744.9100000001,"ADDRESS":"方厝寮１５號","OBJECTID":235311},"geometry":{"x":171364.09000000078,"y":2561744.9100000001}},{"attributes":{"ID":235316,"DIS_CODE":0,"TOWNNAME":"麻豆區","LI":"安正里","LIN":"5鄰","STREET":" ","SECT":" ","MAREA":"方厝寮","LANE":" ","ALLEY":" ","HOUSE_NO":"１６號","E_COORD97":171425.42000000001,"N_COORD97":2561755.52,"ADDRESS":"方厝寮１６號","OBJECTID":235312},"geometry":{"x":171425.41999999993,"y":2561755.5200000033}},{"attributes":{"ID":235317,"DIS_CODE":0,"TOWNNAME":"北區","LI":"大豐里","LIN":"13鄰","STREET":"和緯路","SECT":"四段","MAREA":" ","LANE":"１３９巷","ALLEY":" ","HOUSE_NO":"１２號","E_COORD97":167019.98000000001,"N_COORD97":2545410.5499999998,"ADDRESS":"和緯路四段１３９巷１２號","OBJECTID":235313},"geometry":{"x":167019.98000000045,"y":2545410.5500000007}},{"attributes":{"ID":235318,"DIS_CODE":0,"TOWNNAME":"北區","LI":"大豐里","LIN":"13鄰","STREET":"和緯路","SECT":"四段","MAREA":" ","LANE":"１３９巷","ALLEY":" ","HOUSE_NO":"１３號","E_COORD97":167041.85999999999,"N_COORD97":2545415.7000000002,"ADDRESS":"和緯路四段１３９巷１３號","OBJECTID":235314},"geometry":{"x":167041.86000000127,"y":2545415.700000003}},{"attributes":{"ID":235319,"DIS_CODE":0,"TOWNNAME":"北區","LI":"大豐里","LIN":"13鄰","STREET":"和緯路","SECT":"四段","MAREA":" ","LANE":"１３９巷","ALLEY":" ","HOUSE_NO":"１４號","E_COORD97":167019.19,"N_COORD97":2545406.3599999999,"ADDRESS":"和緯路四段１３９巷１４號","OBJECTID":235315},"geometry":{"x":167019.19000000134,"y":2545406.3599999994}},{"attributes":{"ID":235320,"DIS_CODE":0,"TOWNNAME":"北區","LI":"大豐里","LIN":"13鄰","STREET":"和緯路","SECT":"四段","MAREA":" ","LANE":"１３９巷","ALLEY":" ","HOUSE_NO":"１５號","E_COORD97":167040.78,"N_COORD97":2545411.6899999999,"ADDRESS":"和緯路四段１３９巷１５號","OBJECTID":235316},"geometry":{"x":167040.78000000119,"y":2545411.6899999995}},{"attributes":{"ID":235321,"DIS_CODE":0,"TOWNNAME":"北區","LI":"大豐里","LIN":"13鄰","STREET":"和緯路","SECT":"四段","MAREA":" ","LANE":"１３９巷","ALLEY":" ","HOUSE_NO":"１６號","E_COORD97":167019.04999999999,"N_COORD97":2545402.02,"ADDRESS":"和緯路四段１３９巷１６號","OBJECTID":235317},"geometry":{"x":167019.04999999981,"y":2545402.0199999996}},{"attributes":{"ID":235322,"DIS_CODE":0,"TOWNNAME":"北區","LI":"大豐里","LIN":"13鄰","STREET":"和緯路","SECT":"四段","MAREA":" ","LANE":"１３９巷","ALLEY":" ","HOUSE_NO":"１７號","E_COORD97":167040.47,"N_COORD97":2545407.6000000001,"ADDRESS":"和緯路四段１３９巷１７號","OBJECTID":235318},"geometry":{"x":167040.47000000067,"y":2545407.6000000015}},{"attributes":{"ID":235323,"DIS_CODE":0,"TOWNNAME":"北區","LI":"大豐里","LIN":"13鄰","STREET":"和緯路","SECT":"四段","MAREA":" ","LANE":"１３９巷","ALLEY":" ","HOUSE_NO":"１８號","E_COORD97":167018.34,"N_COORD97":2545398.02,"ADDRESS":"和緯路四段１３９巷１８號","OBJECTID":235319},"geometry":{"x":167018.33999999985,"y":2545398.0200000014}},{"attributes":{"ID":235324,"DIS_CODE":0,"TOWNNAME":"北區","LI":"大豐里","LIN":"13鄰","STREET":"和緯路","SECT":"四段","MAREA":" ","LANE":"１３９巷","ALLEY":" ","HOUSE_NO":"１９號","E_COORD97":167039.62,"N_COORD97":2545403.3599999999,"ADDRESS":"和緯路四段１３９巷１９號","OBJECTID":235320},"geometry":{"x":167039.62000000197,"y":2545403.3599999994}},{"attributes":{"ID":235325,"DIS_CODE":0,"TOWNNAME":"北區","LI":"大豐里","LIN":"13鄰","STREET":"和緯路","SECT":"四段","MAREA":" ","LANE":"１３９巷","ALLEY":" ","HOUSE_NO":"１號","E_COORD97":167039.12,"N_COORD97":2545442.79,"ADDRESS":"和緯路四段１３９巷１號","OBJECTID":235321},"geometry":{"x":167039.12000000011,"y":2545442.790000001}},{"attributes":{"ID":235326,"DIS_CODE":0,"TOWNNAME":"北區","LI":"大豐里","LIN":"13鄰","STREET":"和緯路","SECT":"四段","MAREA":" ","LANE":"１３９巷","ALLEY":" ","HOUSE_NO":"２０號","E_COORD97":167017.63,"N_COORD97":2545394.54,"ADDRESS":"和緯路四段１３９巷２０號","OBJECTID":235322},"geometry":{"x":167017.63000000082,"y":2545394.5399999991}},{"attributes":{"ID":235327,"DIS_CODE":0,"TOWNNAME":"北區","LI":"大豐里","LIN":"13鄰","STREET":"和緯路","SECT":"四段","MAREA":" ","LANE":"１３９巷","ALLEY":" ","HOUSE_NO":"２１號","E_COORD97":167039,"N_COORD97":2545399.3999999999,"ADDRESS":"和緯路四段１３９巷２１號","OBJECTID":235323},"geometry":{"x":167039.00000000093,"y":2545399.4000000022}},{"attributes":{"ID":235328,"DIS_CODE":0,"TOWNNAME":"北區","LI":"大豐里","LIN":"13鄰","STREET":"和緯路","SECT":"四段","MAREA":" ","LANE":"１３９巷","ALLEY":" ","HOUSE_NO":"２２號","E_COORD97":167017.35000000001,"N_COORD97":2545390.7799999998,"ADDRESS":"和緯路四段１３９巷２２號","OBJECTID":235324},"geometry":{"x":167017.35000000056,"y":2545390.7799999993}},{"attributes":{"ID":235329,"DIS_CODE":0,"TOWNNAME":"北區","LI":"大豐里","LIN":"13鄰","STREET":"和緯路","SECT":"四段","MAREA":" ","LANE":"１３９巷","ALLEY":" ","HOUSE_NO":"２３號","E_COORD97":167038.62,"N_COORD97":2545395.46,"ADDRESS":"和緯路四段１３９巷２３號","OBJECTID":235325},"geometry":{"x":167038.62000000104,"y":2545395.4600000028}},{"attributes":{"ID":235330,"DIS_CODE":0,"TOWNNAME":"北區","LI":"大豐里","LIN":"13鄰","STREET":"和緯路","SECT":"四段","MAREA":" ","LANE":"１３９巷","ALLEY":" ","HOUSE_NO":"２４號","E_COORD97":167016.70999999999,"N_COORD97":2545386.5699999998,"ADDRESS":"和緯路四段１３９巷２４號","OBJECTID":235326},"geometry":{"x":167016.71000000183,"y":2545386.5700000003}},{"attributes":{"ID":235331,"DIS_CODE":0,"TOWNNAME":"北區","LI":"大豐里","LIN":"13鄰","STREET":"和緯路","SECT":"四段","MAREA":" ","LANE":"１３９巷","ALLEY":" ","HOUSE_NO":"２５號","E_COORD97":167038.07999999999,"N_COORD97":2545391.4500000002,"ADDRESS":"和緯路四段１３９巷２５號","OBJECTID":235327},"geometry":{"x":167038.08000000194,"y":2545391.4500000011}},{"attributes":{"ID":235332,"DIS_CODE":0,"TOWNNAME":"北區","LI":"大豐里","LIN":"13鄰","STREET":"和緯路","SECT":"四段","MAREA":" ","LANE":"１３９巷","ALLEY":" ","HOUSE_NO":"２６號","E_COORD97":167015.78,"N_COORD97":2545382.4500000002,"ADDRESS":"和緯路四段１３９巷２６號","OBJECTID":235328},"geometry":{"x":167015.78000000026,"y":2545382.4499999993}},{"attributes":{"ID":235333,"DIS_CODE":0,"TOWNNAME":"北區","LI":"大豐里","LIN":"13鄰","STREET":"和緯路","SECT":"四段","MAREA":" ","LANE":"１３９巷","ALLEY":" ","HOUSE_NO":"２７號","E_COORD97":167037.54000000001,"N_COORD97":2545387.6000000001,"ADDRESS":"和緯路四段１３９巷２７號","OBJECTID":235329},"geometry":{"x":167037.54000000004,"y":2545387.6000000015}},{"attributes":{"ID":235334,"DIS_CODE":0,"TOWNNAME":"北區","LI":"大豐里","LIN":"13鄰","STREET":"和緯路","SECT":"四段","MAREA":" ","LANE":"１３９巷","ALLEY":" ","HOUSE_NO":"２８號","E_COORD97":167015.20999999999,"N_COORD97":2545378.3999999999,"ADDRESS":"和緯路四段１３９巷２８號","OBJECTID":235330},"geometry":{"x":167015.21000000089,"y":2545378.4000000022}},{"attributes":{"ID":235335,"DIS_CODE":0,"TOWNNAME":"永康區","LI":"正強里","LIN":"16鄰","STREET":"自強路","SECT":" ","MAREA":" ","LANE":"１８８巷","ALLEY":" ","HOUSE_NO":"２４號","E_COORD97":173195.98000000001,"N_COORD97":2547454.75,"ADDRESS":"自強路１８８巷２４號","OBJECTID":235331},"geometry":{"x":173195.97999999952,"y":2547454.7500000019}},{"attributes":{"ID":235336,"DIS_CODE":0,"TOWNNAME":"永康區","LI":"正強里","LIN":"16鄰","STREET":"自強路","SECT":" ","MAREA":" ","LANE":"１８８巷","ALLEY":" ","HOUSE_NO":"１８號","E_COORD97":173192.84,"N_COORD97":2547476.98,"ADDRESS":"自強路１８８巷１８號","OBJECTID":235332},"geometry":{"x":173192.83999999985,"y":2547476.9800000023}},{"attributes":{"ID":235337,"DIS_CODE":0,"TOWNNAME":"永康區","LI":"正強里","LIN":"16鄰","STREET":"自強路","SECT":" ","MAREA":" ","LANE":"２１６巷","ALLEY":" ","HOUSE_NO":"１號","E_COORD97":173268.44,"N_COORD97":2547573.25,"ADDRESS":"自強路２１６巷１號","OBJECTID":235333},"geometry":{"x":173268.44000000041,"y":2547573.2500000019}},{"attributes":{"ID":235338,"DIS_CODE":0,"TOWNNAME":"永康區","LI":"西灣里","LIN":"16鄰","STREET":"大灣五街","SECT":" ","MAREA":" ","LANE":"１２０巷","ALLEY":" ","HOUSE_NO":"２號","E_COORD97":174644.98999999999,"N_COORD97":2545318.2000000002,"ADDRESS":"大灣五街１２０巷２號","OBJECTID":235334},"geometry":{"x":174644.99000000022,"y":2545318.2000000011}},{"attributes":{"ID":235339,"DIS_CODE":0,"TOWNNAME":"永康區","LI":"甲頂里","LIN":"16鄰","STREET":"中正南路","SECT":" ","MAREA":" ","LANE":"５２巷","ALLEY":" ","HOUSE_NO":"５１號","E_COORD97":169853.39000000001,"N_COORD97":2546783.6400000001,"ADDRESS":"中正南路５２巷５１號","OBJECTID":235335},"geometry":{"x":169853.3900000006,"y":2546783.6400000043}},{"attributes":{"ID":235340,"DIS_CODE":0,"TOWNNAME":"永康區","LI":"甲頂里","LIN":"16鄰","STREET":"中正南路","SECT":" ","MAREA":" ","LANE":"５２巷","ALLEY":" ","HOUSE_NO":"２５號","E_COORD97":169785.29999999999,"N_COORD97":2546784.7400000002,"ADDRESS":"中正南路５２巷２５號","OBJECTID":235336},"geometry":{"x":169785.29999999981,"y":2546784.7400000002}},{"attributes":{"ID":235341,"DIS_CODE":0,"TOWNNAME":"永康區","LI":"甲頂里","LIN":"16鄰","STREET":"中正南路","SECT":" ","MAREA":" ","LANE":"５２巷","ALLEY":" ","HOUSE_NO":"３９號","E_COORD97":169821.88,"N_COORD97":2546783.29,"ADDRESS":"中正南路５２巷３９號","OBJECTID":235337},"geometry":{"x":169821.88000000082,"y":2546783.2899999991}},{"attributes":{"ID":235342,"DIS_CODE":0,"TOWNNAME":"永康區","LI":"甲頂里","LIN":"16鄰","STREET":"中正南路","SECT":" ","MAREA":" ","LANE":"５２巷","ALLEY":" ","HOUSE_NO":"３１號","E_COORD97":169802.16,"N_COORD97":2546785.2400000002,"ADDRESS":"中正南路５２巷３１號","OBJECTID":235338},"geometry":{"x":169802.16000000015,"y":2546785.2400000002}},{"attributes":{"ID":235343,"DIS_CODE":0,"TOWNNAME":"永康區","LI":"甲頂里","LIN":"16鄰","STREET":"中正南路","SECT":" ","MAREA":" ","LANE":"５２巷","ALLEY":" ","HOUSE_NO":"３３號","E_COORD97":169808.98000000001,"N_COORD97":2546786.8300000001,"ADDRESS":"中正南路５２巷３３號","OBJECTID":235339},"geometry":{"x":169808.97999999952,"y":2546786.8300000019}},{"attributes":{"ID":235344,"DIS_CODE":0,"TOWNNAME":"永康區","LI":"甲頂里","LIN":"16鄰","STREET":"中正南路","SECT":" ","MAREA":" ","LANE":"５２巷","ALLEY":" ","HOUSE_NO":"２７號","E_COORD97":169790.56,"N_COORD97":2546783.4900000002,"ADDRESS":"中正南路５２巷２７號","OBJECTID":235340},"geometry":{"x":169790.55999999866,"y":2546783.4900000002}},{"attributes":{"ID":235345,"DIS_CODE":0,"TOWNNAME":"北區","LI":"公園里","LIN":"14鄰","STREET":"西華街","SECT":" ","MAREA":" ","LANE":" ","ALLEY":" ","HOUSE_NO":"１０５號五樓之４","E_COORD97":169069.39999999999,"N_COORD97":2544530.7599999998,"ADDRESS":"西華街１０５號五樓之４","OBJECTID":235341},"geometry":{"x":169069.4000000013,"y":2544530.7600000035}},{"attributes":{"ID":235346,"DIS_CODE":0,"TOWNNAME":"北區","LI":"公園里","LIN":"14鄰","STREET":"西華街","SECT":" ","MAREA":" ","LANE":" ","ALLEY":" ","HOUSE_NO":"１０５號五樓之８","E_COORD97":169069.39999999999,"N_COORD97":2544530.7599999998,"ADDRESS":"西華街１０５號五樓之８","OBJECTID":235342},"geometry":{"x":169069.4000000013,"y":2544530.7600000035}},{"attributes":{"ID":235347,"DIS_CODE":0,"TOWNNAME":"北區","LI":"公園里","LIN":"14鄰","STREET":"西華街","SECT":" ","MAREA":" ","LANE":" ","ALLEY":" ","HOUSE_NO":"１０５號五樓之９","E_COORD97":169069.39999999999,"N_COORD97":2544530.7599999998,"ADDRESS":"西華街１０５號五樓之９","OBJECTID":235343},"geometry":{"x":169069.4000000013,"y":2544530.7600000035}},{"attributes":{"ID":235348,"DIS_CODE":0,"TOWNNAME":"歸仁區","LI":"辜厝里","LIN":"14鄰","STREET":"中正南路","SECT":"一段","MAREA":" ","LANE":" ","ALLEY":" ","HOUSE_NO":"１１６號七樓","E_COORD97":177505.95000000001,"N_COORD97":2540501.6899999999,"ADDRESS":"中正南路一段１１６號七樓","OBJECTID":235344},"geometry":{"x":177505.95000000112,"y":2540501.6899999995}},{"attributes":{"ID":235349,"DIS_CODE":0,"TOWNNAME":"南區","LI":"再興里","LIN":"11鄰","STREET":"仁慈街","SECT":" ","MAREA":" ","LANE":" ","ALLEY":" ","HOUSE_NO":"２７號","E_COORD97":167252.16,"N_COORD97":2542133.4700000002,"ADDRESS":"仁慈街２７號","OBJECTID":235345},"geometry":{"x":167252.16000000015,"y":2542133.4700000044}},{"attributes":{"ID":235350,"DIS_CODE":0,"TOWNNAME":"南區","LI":"文南里","LIN":"20鄰","STREET":"健康路","SECT":"二段","MAREA":" ","LANE":" ","ALLEY":" ","HOUSE_NO":"４２０號","E_COORD97":166500.70999999999,"N_COORD97":2542578.4700000002,"ADDRESS":"健康路二段４２０號","OBJECTID":235346},"geometry":{"x":166500.70999999996,"y":2542578.4700000025}},{"attributes":{"ID":235351,"DIS_CODE":0,"TOWNNAME":"關廟區","LI":"松腳里","LIN":"14鄰","STREET":"松安街","SECT":" ","MAREA":" ","LANE":" ","ALLEY":" ","HOUSE_NO":"１０６號一樓","E_COORD97":181922.57000000001,"N_COORD97":2539629.3199999998,"ADDRESS":"松安街１０６號一樓","OBJECTID":235347},"geometry":{"x":181922.57000000123,"y":2539629.3200000022}},{"attributes":{"ID":235352,"DIS_CODE":0,"TOWNNAME":"東區","LI":"路東里","LIN":"14鄰","STREET":"林森路","SECT":"一段","MAREA":" ","LANE":" ","ALLEY":" ","HOUSE_NO":"１３２號四樓之６","E_COORD97":169417.22,"N_COORD97":2542428.8700000001,"ADDRESS":"林森路一段１３２號四樓之６","OBJECTID":235348},"geometry":{"x":169417.22000000067,"y":2542428.870000001}},{"attributes":{"ID":235353,"DIS_CODE":0,"TOWNNAME":"東區","LI":"路東里","LIN":"14鄰","STREET":"林森路","SECT":"一段","MAREA":" ","LANE":" ","ALLEY":" ","HOUSE_NO":"１３２號四樓之７","E_COORD97":169417.22,"N_COORD97":2542428.8700000001,"ADDRESS":"林森路一段１３２號四樓之７","OBJECTID":235349},"geometry":{"x":169417.22000000067,"y":2542428.870000001}},{"attributes":{"ID":235354,"DIS_CODE":0,"TOWNNAME":"東區","LI":"路東里","LIN":"14鄰","STREET":"林森路","SECT":"一段","MAREA":" ","LANE":" ","ALLEY":" ","HOUSE_NO":"１３２號四樓之８","E_COORD97":169417.22,"N_COORD97":2542428.8700000001,"ADDRESS":"林森路一段１３２號四樓之８","OBJECTID":235350},"geometry":{"x":169417.22000000067,"y":2542428.870000001}},{"attributes":{"ID":235355,"DIS_CODE":0,"TOWNNAME":"永康區","LI":"甲頂里","LIN":"16鄰","STREET":"中正南路","SECT":" ","MAREA":" ","LANE":"５２巷","ALLEY":" ","HOUSE_NO":"２９號","E_COORD97":169794.38,"N_COORD97":2546783.4900000002,"ADDRESS":"中正南路５２巷２９號","OBJECTID":235351},"geometry":{"x":169794.38000000082,"y":2546783.4900000002}},{"attributes":{"ID":235356,"DIS_CODE":0,"TOWNNAME":"永康區","LI":"西勢里","LIN":"16鄰","STREET":"西勢路","SECT":" ","MAREA":" ","LANE":"６６巷","ALLEY":" ","HOUSE_NO":"３６號","E_COORD97":176148.01999999999,"N_COORD97":2546832.79,"ADDRESS":"西勢路６６巷３６號","OBJECTID":235352},"geometry":{"x":176148.02000000048,"y":2546832.790000001}},{"attributes":{"ID":235357,"DIS_CODE":0,"TOWNNAME":"永康區","LI":"甲頂里","LIN":"16鄰","STREET":"中正南路","SECT":" ","MAREA":" ","LANE":"５２巷","ALLEY":" ","HOUSE_NO":"２３號之１","E_COORD97":169782.95000000001,"N_COORD97":2546785.29,"ADDRESS":"中正南路５２巷２３號之１","OBJECTID":235353},"geometry":{"x":169782.95000000019,"y":2546785.290000001}},{"attributes":{"ID":235358,"DIS_CODE":0,"TOWNNAME":"永康區","LI":"安康里","LIN":"16鄰","STREET":"中華路","SECT":" ","MAREA":" ","LANE":"６６１巷","ALLEY":" ","HOUSE_NO":"６９號","E_COORD97":170870.25,"N_COORD97":2546146.9900000002,"ADDRESS":"中華路６６１巷６９號","OBJECTID":235354},"geometry":{"x":170870.25000000093,"y":2546146.9900000039}},{"attributes":{"ID":235359,"DIS_CODE":0,"TOWNNAME":"永康區","LI":"安康里","LIN":"16鄰","STREET":"中華路","SECT":" ","MAREA":" ","LANE":"６６１巷","ALLEY":" ","HOUSE_NO":"１９號","E_COORD97":170911.35999999999,"N_COORD97":2546169.9900000002,"ADDRESS":"中華路６６１巷１９號","OBJECTID":235355},"geometry":{"x":170911.36000000034,"y":2546169.9900000002}},{"attributes":{"ID":235360,"DIS_CODE":0,"TOWNNAME":"永康區","LI":"安康里","LIN":"16鄰","STREET":"中華路","SECT":" ","MAREA":" ","LANE":"６６１巷","ALLEY":" ","HOUSE_NO":"８１號","E_COORD97":170856.38,"N_COORD97":2546138.75,"ADDRESS":"中華路６６１巷８１號","OBJECTID":235356},"geometry":{"x":170856.37999999989,"y":2546138.7500000019}},{"attributes":{"ID":235361,"DIS_CODE":0,"TOWNNAME":"永康區","LI":"正強里","LIN":"16鄰","STREET":"自強路","SECT":" ","MAREA":" ","LANE":"２１６巷","ALLEY":" ","HOUSE_NO":"２之１號","E_COORD97":173275.38,"N_COORD97":2547558.75,"ADDRESS":"自強路２１６巷２之１號","OBJECTID":235357},"geometry":{"x":173275.37999999989,"y":2547558.7500000037}},{"attributes":{"ID":235362,"DIS_CODE":0,"TOWNNAME":"北區","LI":"大豐里","LIN":"13鄰","STREET":"和緯路","SECT":"四段","MAREA":" ","LANE":"１３９巷","ALLEY":" ","HOUSE_NO":"２９號","E_COORD97":167036.60999999999,"N_COORD97":2545383.5099999998,"ADDRESS":"和緯路四段１３９巷２９號","OBJECTID":235358},"geometry":{"x":167036.61000000127,"y":2545383.5100000035}},{"attributes":{"ID":235363,"DIS_CODE":0,"TOWNNAME":"北區","LI":"大豐里","LIN":"13鄰","STREET":"和緯路","SECT":"四段","MAREA":" ","LANE":"１３９巷","ALLEY":" ","HOUSE_NO":"２號","E_COORD97":167025.01999999999,"N_COORD97":2545436.02,"ADDRESS":"和緯路四段１３９巷２號","OBJECTID":235359},"geometry":{"x":167025.02000000048,"y":2545436.0199999996}},{"attributes":{"ID":235364,"DIS_CODE":0,"TOWNNAME":"北區","LI":"大豐里","LIN":"13鄰","STREET":"和緯路","SECT":"四段","MAREA":" ","LANE":"１３９巷","ALLEY":" ","HOUSE_NO":"３０號","E_COORD97":167014.79000000001,"N_COORD97":2545374.8500000001,"ADDRESS":"和緯路四段１３９巷３０號","OBJECTID":235360},"geometry":{"x":167014.79000000097,"y":2545374.8500000015}},{"attributes":{"ID":235365,"DIS_CODE":0,"TOWNNAME":"北區","LI":"大豐里","LIN":"13鄰","STREET":"和緯路","SECT":"四段","MAREA":" ","LANE":"１３９巷","ALLEY":" ","HOUSE_NO":"３１號","E_COORD97":167036.29999999999,"N_COORD97":2545379.96,"ADDRESS":"和緯路四段１３９巷３１號","OBJECTID":235361},"geometry":{"x":167036.30000000168,"y":2545379.9600000009}},{"attributes":{"ID":235366,"DIS_CODE":0,"TOWNNAME":"北區","LI":"大豐里","LIN":"13鄰","STREET":"和緯路","SECT":"四段","MAREA":" ","LANE":"１３９巷","ALLEY":" ","HOUSE_NO":"３２號","E_COORD97":167014.42999999999,"N_COORD97":2545371.1600000001,"ADDRESS":"和緯路四段１３９巷３２號","OBJECTID":235362},"geometry":{"x":167014.4299999997,"y":2545371.1600000001}},{"attributes":{"ID":235367,"DIS_CODE":0,"TOWNNAME":"北區","LI":"大豐里","LIN":"13鄰","STREET":"和緯路","SECT":"四段","MAREA":" ","LANE":"１３９巷","ALLEY":" ","HOUSE_NO":"３３號","E_COORD97":167033.85999999999,"N_COORD97":2545367.5,"ADDRESS":"和緯路四段１３９巷３３號","OBJECTID":235363},"geometry":{"x":167033.86000000127,"y":2545367.5000000019}},{"attributes":{"ID":235368,"DIS_CODE":0,"TOWNNAME":"北區","LI":"大豐里","LIN":"13鄰","STREET":"和緯路","SECT":"四段","MAREA":" ","LANE":"１３９巷","ALLEY":" ","HOUSE_NO":"３４號","E_COORD97":167013.64999999999,"N_COORD97":2545366.8700000001,"ADDRESS":"和緯路四段１３９巷３４號","OBJECTID":235364},"geometry":{"x":167013.65000000037,"y":2545366.8700000029}},{"attributes":{"ID":235369,"DIS_CODE":0,"TOWNNAME":"北區","LI":"大豐里","LIN":"13鄰","STREET":"和緯路","SECT":"四段","MAREA":" ","LANE":"１３９巷","ALLEY":" ","HOUSE_NO":"３５號","E_COORD97":167033.72,"N_COORD97":2545363.9399999999,"ADDRESS":"和緯路四段１３９巷３５號","OBJECTID":235365},"geometry":{"x":167033.72000000067,"y":2545363.9400000013}},{"attributes":{"ID":235370,"DIS_CODE":0,"TOWNNAME":"北區","LI":"大豐里","LIN":"13鄰","STREET":"和緯路","SECT":"四段","MAREA":" ","LANE":"１３９巷","ALLEY":" ","HOUSE_NO":"３６號","E_COORD97":167013.37,"N_COORD97":2545362.8199999998,"ADDRESS":"和緯路四段１３９巷３６號","OBJECTID":235366},"geometry":{"x":167013.37000000011,"y":2545362.8200000022}},{"attributes":{"ID":235371,"DIS_CODE":0,"TOWNNAME":"北區","LI":"大豐里","LIN":"13鄰","STREET":"和緯路","SECT":"四段","MAREA":" ","LANE":"１３９巷","ALLEY":" ","HOUSE_NO":"３７號","E_COORD97":167032.79000000001,"N_COORD97":2545359.8999999999,"ADDRESS":"和緯路四段１３９巷３７號","OBJECTID":235367},"geometry":{"x":167032.79000000004,"y":2545359.9000000004}},{"attributes":{"ID":235372,"DIS_CODE":0,"TOWNNAME":"北區","LI":"大豐里","LIN":"13鄰","STREET":"和緯路","SECT":"四段","MAREA":" ","LANE":"１３９巷","ALLEY":" ","HOUSE_NO":"３８號","E_COORD97":167012.79999999999,"N_COORD97":2545358.4900000002,"ADDRESS":"和緯路四段１３９巷３８號","OBJECTID":235368},"geometry":{"x":167012.80000000075,"y":2545358.4900000021}},{"attributes":{"ID":235373,"DIS_CODE":0,"TOWNNAME":"北區","LI":"大豐里","LIN":"13鄰","STREET":"和緯路","SECT":"四段","MAREA":" ","LANE":"１３９巷","ALLEY":" ","HOUSE_NO":"３９號","E_COORD97":167032.64999999999,"N_COORD97":2545355.6299999999,"ADDRESS":"和緯路四段１３９巷３９號","OBJECTID":235369},"geometry":{"x":167032.65000000037,"y":2545355.6300000008}},{"attributes":{"ID":235374,"DIS_CODE":0,"TOWNNAME":"北區","LI":"大豐里","LIN":"13鄰","STREET":"和緯路","SECT":"四段","MAREA":" ","LANE":"１３９巷","ALLEY":" ","HOUSE_NO":"３號","E_COORD97":167044.70999999999,"N_COORD97":2545436.9500000002,"ADDRESS":"和緯路四段１３９巷３號","OBJECTID":235370},"geometry":{"x":167044.70999999996,"y":2545436.9499999993}},{"attributes":{"ID":235375,"DIS_CODE":0,"TOWNNAME":"北區","LI":"大豐里","LIN":"13鄰","STREET":"和緯路","SECT":"四段","MAREA":" ","LANE":"１３９巷","ALLEY":" ","HOUSE_NO":"４０號","E_COORD97":167011.79999999999,"N_COORD97":2545354.1899999999,"ADDRESS":"和緯路四段１３９巷４０號","OBJECTID":235371},"geometry":{"x":167011.79999999981,"y":2545354.1899999995}},{"attributes":{"ID":235376,"DIS_CODE":0,"TOWNNAME":"東區","LI":"路東里","LIN":"14鄰","STREET":"林森路","SECT":"一段","MAREA":" ","LANE":" ","ALLEY":" ","HOUSE_NO":"１３２號四樓之９","E_COORD97":169417.22,"N_COORD97":2542428.8700000001,"ADDRESS":"林森路一段１３２號四樓之９","OBJECTID":235372},"geometry":{"x":169417.22000000067,"y":2542428.870000001}},{"attributes":{"ID":235377,"DIS_CODE":0,"TOWNNAME":"中西區","LI":"仙草里","LIN":"14鄰","STREET":"西門路","SECT":"一段","MAREA":" ","LANE":" ","ALLEY":" ","HOUSE_NO":"４９６號七樓之１","E_COORD97":167749.60000000001,"N_COORD97":2542735.3100000001,"ADDRESS":"西門路一段４９６號七樓之１","OBJECTID":235373},"geometry":{"x":167749.60000000056,"y":2542735.3100000024}},{"attributes":{"ID":235378,"DIS_CODE":0,"TOWNNAME":"中西區","LI":"仙草里","LIN":"14鄰","STREET":"西門路","SECT":"一段","MAREA":" ","LANE":" ","ALLEY":" ","HOUSE_NO":"４９６號七樓之２","E_COORD97":167749.60000000001,"N_COORD97":2542735.3100000001,"ADDRESS":"西門路一段４９６號七樓之２","OBJECTID":235374},"geometry":{"x":167749.60000000056,"y":2542735.3100000024}},{"attributes":{"ID":235379,"DIS_CODE":0,"TOWNNAME":"中西區","LI":"仙草里","LIN":"14鄰","STREET":"西門路","SECT":"一段","MAREA":" ","LANE":" ","ALLEY":" ","HOUSE_NO":"４９６號九樓之１","E_COORD97":167749.60000000001,"N_COORD97":2542735.3100000001,"ADDRESS":"西門路一段４９６號九樓之１","OBJECTID":235375},"geometry":{"x":167749.60000000056,"y":2542735.3100000024}},{"attributes":{"ID":235380,"DIS_CODE":0,"TOWNNAME":"中西區","LI":"仙草里","LIN":"14鄰","STREET":"西門路","SECT":"一段","MAREA":" ","LANE":" ","ALLEY":" ","HOUSE_NO":"４９６號九樓之２","E_COORD97":167749.60000000001,"N_COORD97":2542735.3100000001,"ADDRESS":"西門路一段４９６號九樓之２","OBJECTID":235376},"geometry":{"x":167749.60000000056,"y":2542735.3100000024}},{"attributes":{"ID":235381,"DIS_CODE":0,"TOWNNAME":"中西區","LI":"仙草里","LIN":"14鄰","STREET":"西門路","SECT":"一段","MAREA":" ","LANE":" ","ALLEY":" ","HOUSE_NO":"４９６號二樓之１","E_COORD97":167749.60000000001,"N_COORD97":2542735.3100000001,"ADDRESS":"西門路一段４９６號二樓之１","OBJECTID":235377},"geometry":{"x":167749.60000000056,"y":2542735.3100000024}},{"attributes":{"ID":235382,"DIS_CODE":0,"TOWNNAME":"中西區","LI":"西湖里","LIN":"16鄰","STREET":"湖美一街","SECT":" ","MAREA":" ","LANE":"１１５巷","ALLEY":" ","HOUSE_NO":"２之１號","E_COORD97":166045.78,"N_COORD97":2544861.96,"ADDRESS":"湖美一街１１５巷２之１號","OBJECTID":235378},"geometry":{"x":166045.78000000119,"y":2544861.9600000009}},{"attributes":{"ID":235383,"DIS_CODE":0,"TOWNNAME":"中西區","LI":"協和里","LIN":"16鄰","STREET":"西和路","SECT":" ","MAREA":" ","LANE":" ","ALLEY":" ","HOUSE_NO":"２６４號","E_COORD97":167220.04000000001,"N_COORD97":2544808.73,"ADDRESS":"西和路２６４號","OBJECTID":235379},"geometry":{"x":167220.04000000097,"y":2544808.7300000004}},{"attributes":{"ID":235384,"DIS_CODE":0,"TOWNNAME":"安定區","LI":"新吉里","LIN":"16鄰","STREET":" ","SECT":" ","MAREA":"新吉","LANE":" ","ALLEY":" ","HOUSE_NO":"１８８號","E_COORD97":168991.72,"N_COORD97":2554107.25,"ADDRESS":"新吉１８８號","OBJECTID":235380},"geometry":{"x":168991.72000000067,"y":2554107.25}},{"attributes":{"ID":235385,"DIS_CODE":0,"TOWNNAME":"中西區","LI":"協和里","LIN":"16鄰","STREET":"西和路","SECT":" ","MAREA":" ","LANE":" ","ALLEY":" ","HOUSE_NO":"２６８號","E_COORD97":167226.78,"N_COORD97":2544815.0099999998,"ADDRESS":"西和路２６８號","OBJECTID":235381},"geometry":{"x":167226.78000000212,"y":2544815.0100000016}},{"attributes":{"ID":235386,"DIS_CODE":0,"TOWNNAME":"安定區","LI":"蘇林里","LIN":"16鄰","STREET":" ","SECT":" ","MAREA":"蘇厝","LANE":" ","ALLEY":" ","HOUSE_NO":"１８１號","E_COORD97":173368.726283,"N_COORD97":2558958.4925600002,"ADDRESS":"蘇厝１８１號","OBJECTID":235382},"geometry":{"x":173368.72628299985,"y":2558958.4925629999}},{"attributes":{"ID":235387,"DIS_CODE":0,"TOWNNAME":"安定區","LI":"新吉里","LIN":"16鄰","STREET":" ","SECT":" ","MAREA":"新吉","LANE":" ","ALLEY":" ","HOUSE_NO":"１９２號","E_COORD97":168980.82000000001,"N_COORD97":2554106.25,"ADDRESS":"新吉１９２號","OBJECTID":235383},"geometry":{"x":168980.8200000003,"y":2554106.2500000019}},{"attributes":{"ID":235388,"DIS_CODE":0,"TOWNNAME":"安定區","LI":"新吉里","LIN":"16鄰","STREET":" ","SECT":" ","MAREA":"新吉","LANE":" ","ALLEY":" ","HOUSE_NO":"１７４號","E_COORD97":169016.51999999999,"N_COORD97":2554110.25,"ADDRESS":"新吉１７４號","OBJECTID":235384},"geometry":{"x":169016.52000000048,"y":2554110.2500000019}},{"attributes":{"ID":235389,"DIS_CODE":0,"TOWNNAME":"安定區","LI":"蘇林里","LIN":"16鄰","STREET":" ","SECT":" ","MAREA":"蘇厝","LANE":" ","ALLEY":" ","HOUSE_NO":"１７４號","E_COORD97":173432.01999999999,"N_COORD97":2558989.25,"ADDRESS":"蘇厝１７４號","OBJECTID":235385},"geometry":{"x":173432.01999999955,"y":2558989.2500000019}},{"attributes":{"ID":235390,"DIS_CODE":0,"TOWNNAME":"安定區","LI":"港口里","LIN":"16鄰","STREET":" ","SECT":" ","MAREA":"港口","LANE":" ","ALLEY":" ","HOUSE_NO":"３５６之６號","E_COORD97":171282.292411,"N_COORD97":2554799.8381099999,"ADDRESS":"港口３５６之６號","OBJECTID":235386},"geometry":{"x":171282.29241099954,"y":2554799.8381140009}},{"attributes":{"ID":235391,"DIS_CODE":0,"TOWNNAME":"安定區","LI":"管寮里","LIN":"16鄰","STREET":" ","SECT":" ","MAREA":"管寮","LANE":" ","ALLEY":" ","HOUSE_NO":"１５０號","E_COORD97":169800.79000000001,"N_COORD97":2556170.25,"ADDRESS":"管寮１５０號","OBJECTID":235387},"geometry":{"x":169800.79000000004,"y":2556170.2500000037}},{"attributes":{"ID":235392,"DIS_CODE":0,"TOWNNAME":"中西區","LI":"協和里","LIN":"16鄰","STREET":"西和路","SECT":" ","MAREA":" ","LANE":" ","ALLEY":" ","HOUSE_NO":"２７４號","E_COORD97":167239.64999999999,"N_COORD97":2544821.4500000002,"ADDRESS":"西和路２７４號","OBJECTID":235388},"geometry":{"x":167239.65000000224,"y":2544821.4500000011}},{"attributes":{"ID":235393,"DIS_CODE":0,"TOWNNAME":"安定區","LI":"蘇林里","LIN":"16鄰","STREET":" ","SECT":" ","MAREA":"蘇厝","LANE":" ","ALLEY":" ","HOUSE_NO":"１７３之１號","E_COORD97":173432.12,"N_COORD97":2558965.2999999998,"ADDRESS":"蘇厝１７３之１號","OBJECTID":235389},"geometry":{"x":173432.12000000197,"y":2558965.3000000026}},{"attributes":{"ID":235394,"DIS_CODE":0,"TOWNNAME":"安定區","LI":"港南里","LIN":"16鄰","STREET":" ","SECT":" ","MAREA":"港口","LANE":" ","ALLEY":" ","HOUSE_NO":"１３４之８號","E_COORD97":171542.48999999999,"N_COORD97":2554311.2999999998,"ADDRESS":"港口１３４之８號","OBJECTID":235390},"geometry":{"x":171542.49000000022,"y":2554311.3000000007}},{"attributes":{"ID":235395,"DIS_CODE":0,"TOWNNAME":"北區","LI":"大豐里","LIN":"13鄰","STREET":"和緯路","SECT":"四段","MAREA":" ","LANE":"１３９巷","ALLEY":" ","HOUSE_NO":"４１號","E_COORD97":167032.51000000001,"N_COORD97":2545352.3700000001,"ADDRESS":"和緯路四段１３９巷４１號","OBJECTID":235391},"geometry":{"x":167032.50999999978,"y":2545352.3700000029}},{"attributes":{"ID":235396,"DIS_CODE":0,"TOWNNAME":"北區","LI":"大豐里","LIN":"13鄰","STREET":"和緯路","SECT":"四段","MAREA":" ","LANE":"１３９巷","ALLEY":" ","HOUSE_NO":"４２號","E_COORD97":167011.23000000001,"N_COORD97":2545350.4199999999,"ADDRESS":"和緯路四段１３９巷４２號","OBJECTID":235392},"geometry":{"x":167011.23000000045,"y":2545350.4200000037}},{"attributes":{"ID":235397,"DIS_CODE":0,"TOWNNAME":"北區","LI":"大豐里","LIN":"13鄰","STREET":"和緯路","SECT":"四段","MAREA":" ","LANE":"１３９巷","ALLEY":" ","HOUSE_NO":"４３號","E_COORD97":167032.23000000001,"N_COORD97":2545348.1000000001,"ADDRESS":"和緯路四段１３９巷４３號","OBJECTID":235393},"geometry":{"x":167032.22999999952,"y":2545348.0999999996}},{"attributes":{"ID":235398,"DIS_CODE":0,"TOWNNAME":"北區","LI":"大豐里","LIN":"13鄰","STREET":"和緯路","SECT":"四段","MAREA":" ","LANE":"１３９巷","ALLEY":" ","HOUSE_NO":"４４號","E_COORD97":167010.67000000001,"N_COORD97":2545346.73,"ADDRESS":"和緯路四段１３９巷４４號","OBJECTID":235394},"geometry":{"x":167010.67000000086,"y":2545346.7300000023}},{"attributes":{"ID":235399,"DIS_CODE":0,"TOWNNAME":"北區","LI":"大豐里","LIN":"13鄰","STREET":"和緯路","SECT":"四段","MAREA":" ","LANE":"１３９巷","ALLEY":" ","HOUSE_NO":"４５號","E_COORD97":167031.94,"N_COORD97":2545345.1899999999,"ADDRESS":"和緯路四段１３９巷４５號","OBJECTID":235395},"geometry":{"x":167031.94000000041,"y":2545345.1900000013}},{"attributes":{"ID":235400,"DIS_CODE":0,"TOWNNAME":"北區","LI":"大豐里","LIN":"13鄰","STREET":"和緯路","SECT":"四段","MAREA":" ","LANE":"１３９巷","ALLEY":" ","HOUSE_NO":"４６號","E_COORD97":167010.03,"N_COORD97":2545342.6800000002,"ADDRESS":"和緯路四段１３９巷４６號","OBJECTID":235396},"geometry":{"x":167010.03000000119,"y":2545342.6800000016}},{"attributes":{"ID":235401,"DIS_CODE":0,"TOWNNAME":"北區","LI":"大豐里","LIN":"13鄰","STREET":"和緯路","SECT":"四段","MAREA":" ","LANE":"１３９巷","ALLEY":" ","HOUSE_NO":"４７號","E_COORD97":167030.31,"N_COORD97":2545339.75,"ADDRESS":"和緯路四段１３９巷４７號","OBJECTID":235397},"geometry":{"x":167030.30999999959,"y":2545339.75}},{"attributes":{"ID":235402,"DIS_CODE":0,"TOWNNAME":"北區","LI":"大豐里","LIN":"13鄰","STREET":"和緯路","SECT":"四段","MAREA":" ","LANE":"１３９巷","ALLEY":" ","HOUSE_NO":"４８號","E_COORD97":167009.32000000001,"N_COORD97":2545339.02,"ADDRESS":"和緯路四段１３９巷４８號","OBJECTID":235398},"geometry":{"x":167009.3200000003,"y":2545339.0200000033}},{"attributes":{"ID":235403,"DIS_CODE":0,"TOWNNAME":"北區","LI":"大豐里","LIN":"13鄰","STREET":"和緯路","SECT":"四段","MAREA":" ","LANE":"１３９巷","ALLEY":" ","HOUSE_NO":"４９號","E_COORD97":167030.17000000001,"N_COORD97":2545335.8500000001,"ADDRESS":"和緯路四段１３９巷４９號","OBJECTID":235399},"geometry":{"x":167030.16999999993,"y":2545335.8499999996}},{"attributes":{"ID":235404,"DIS_CODE":0,"TOWNNAME":"北區","LI":"大豐里","LIN":"13鄰","STREET":"和緯路","SECT":"四段","MAREA":" ","LANE":"１３９巷","ALLEY":" ","HOUSE_NO":"５０號","E_COORD97":167008.04000000001,"N_COORD97":2545334.3399999999,"ADDRESS":"和緯路四段１３９巷５０號","OBJECTID":235400},"geometry":{"x":167008.04000000097,"y":2545334.3400000017}}]}