{"displayFieldName":"TOWNNAME","fieldAliases":{"ID":"ID","DIS_CODE":"DIS_CODE","TOWNNAME":"TOWNNAME","LI":"LI","LIN":"LIN","STREET":"STREET","SECT":"SECT","MAREA":"MAREA","LANE":"LANE","ALLEY":"ALLEY","HOUSE_NO":"HOUSE_NO","E_COORD97":"E_COORD97","N_COORD97":"N_COORD97","ADDRESS":"ADDRESS","OBJECTID":"OBJECTID"},"geometryType":"esriGeometryPoint","spatialReference":{"wkid":102443,"latestWkid":3826},"fields":[{"name":"ID","type":"esriFieldTypeDouble","alias":"ID"},{"name":"DIS_CODE","type":"esriFieldTypeInteger","alias":"DIS_CODE"},{"name":"TOWNNAME","type":"esriFieldTypeString","alias":"TOWNNAME","length":8},{"name":"LI","type":"esriFieldTypeString","alias":"LI","length":8},{"name":"LIN","type":"esriFieldTypeString","alias":"LIN","length":12},{"name":"STREET","type":"esriFieldTypeString","alias":"STREET","length":20},{"name":"SECT","type":"esriFieldTypeString","alias":"SECT","length":8},{"name":"MAREA","type":"esriFieldTypeString","alias":"MAREA","length":12},{"name":"LANE","type":"esriFieldTypeString","alias":"LANE","length":10},{"name":"ALLEY","type":"esriFieldTypeString","alias":"ALLEY","length":10},{"name":"HOUSE_NO","type":"esriFieldTypeString","alias":"HOUSE_NO","length":20},{"name":"E_COORD97","type":"esriFieldTypeDouble","alias":"E_COORD97"},{"name":"N_COORD97","type":"esriFieldTypeDouble","alias":"N_COORD97"},{"name":"ADDRESS","type":"esriFieldTypeString","alias":"ADDRESS","length":50},{"name":"OBJECTID","type":"esriFieldTypeOID","alias":"OBJECTID"}],"features":[{"attributes":{"ID":121801,"DIS_CODE":0,"TOWNNAME":"仁德區","LI":"成功里","LIN":"29鄰","STREET":"成功一街","SECT":" ","MAREA":" ","LANE":"１巷","ALLEY":"２６弄","HOUSE_NO":"９號","E_COORD97":170702.88,"N_COORD97":2540149.7599999998,"ADDRESS":"成功一街１巷２６弄９號","OBJECTID":121801},"geometry":{"x":170702.88000000082,"y":2540149.7599999998}},{"attributes":{"ID":121802,"DIS_CODE":0,"TOWNNAME":"安南區","LI":"海佃里","LIN":"16鄰","STREET":"國安街","SECT":" ","MAREA":" ","LANE":"５６巷","ALLEY":"２０１弄","HOUSE_NO":"２０號","E_COORD97":166807.64999999999,"N_COORD97":2547617.0299999998,"ADDRESS":"國安街５６巷２０１弄２０號","OBJECTID":121802},"geometry":{"x":166807.6500000013,"y":2547617.0300000031}},{"attributes":{"ID":121803,"DIS_CODE":0,"TOWNNAME":"永康區","LI":"網寮里","LIN":"16鄰","STREET":"永二街","SECT":" ","MAREA":" ","LANE":"２４４巷","ALLEY":"６２弄","HOUSE_NO":"５號","E_COORD97":173274.17000000001,"N_COORD97":2546718.2799999998,"ADDRESS":"永二街２４４巷６２弄５號","OBJECTID":121803},"geometry":{"x":173274.17000000086,"y":2546718.2800000012}},{"attributes":{"ID":121804,"DIS_CODE":0,"TOWNNAME":"永康區","LI":"網寮里","LIN":"16鄰","STREET":"永二街","SECT":" ","MAREA":" ","LANE":"２４４巷","ALLEY":"６４弄","HOUSE_NO":"３號","E_COORD97":173262.48999999999,"N_COORD97":2546746.3500000001,"ADDRESS":"永二街２４４巷６４弄３號","OBJECTID":121804},"geometry":{"x":173262.49000000115,"y":2546746.3499999996}},{"attributes":{"ID":121805,"DIS_CODE":0,"TOWNNAME":"永康區","LI":"網寮里","LIN":"16鄰","STREET":"永興路","SECT":" ","MAREA":" ","LANE":"４２７巷","ALLEY":"２３弄","HOUSE_NO":"６號","E_COORD97":173277.87,"N_COORD97":2546784.9500000002,"ADDRESS":"永興路４２７巷２３弄６號","OBJECTID":121805},"geometry":{"x":173277.87000000197,"y":2546784.9500000011}},{"attributes":{"ID":121806,"DIS_CODE":0,"TOWNNAME":"永康區","LI":"網寮里","LIN":"16鄰","STREET":"永興路","SECT":" ","MAREA":" ","LANE":"４２７巷","ALLEY":"２３弄","HOUSE_NO":"１０號","E_COORD97":173289.12,"N_COORD97":2546780.4500000002,"ADDRESS":"永興路４２７巷２３弄１０號","OBJECTID":121806},"geometry":{"x":173289.12000000011,"y":2546780.450000003}},{"attributes":{"ID":121807,"DIS_CODE":0,"TOWNNAME":"麻豆區","LI":"南勢里","LIN":"7鄰","STREET":" ","SECT":" ","MAREA":"\u25A0帝\u25A0","LANE":" ","ALLEY":" ","HOUSE_NO":"４７號之３","E_COORD97":174134.47,"N_COORD97":2565232.1600000001,"ADDRESS":"\u25A0帝\u25A0４７號之３","OBJECTID":121807},"geometry":{"x":174134.4700000016,"y":2565232.1600000001}},{"attributes":{"ID":121808,"DIS_CODE":0,"TOWNNAME":"麻豆區","LI":"南勢里","LIN":"7鄰","STREET":" ","SECT":" ","MAREA":"\u25A0帝\u25A0","LANE":" ","ALLEY":" ","HOUSE_NO":"４８號之１","E_COORD97":174050.38,"N_COORD97":2565360.3199999998,"ADDRESS":"\u25A0帝\u25A0４８號之１","OBJECTID":121808},"geometry":{"x":174050.37999999989,"y":2565360.3200000003}},{"attributes":{"ID":121809,"DIS_CODE":0,"TOWNNAME":"麻豆區","LI":"南勢里","LIN":"7鄰","STREET":" ","SECT":" ","MAREA":"\u25A0帝\u25A0","LANE":" ","ALLEY":" ","HOUSE_NO":"４８號之２","E_COORD97":174051.91,"N_COORD97":2565382.5299999998,"ADDRESS":"\u25A0帝\u25A0４８號之２","OBJECTID":121809},"geometry":{"x":174051.91000000015,"y":2565382.5299999975}},{"attributes":{"ID":121810,"DIS_CODE":0,"TOWNNAME":"麻豆區","LI":"南勢里","LIN":"7鄰","STREET":" ","SECT":" ","MAREA":"\u25A0帝\u25A0","LANE":" ","ALLEY":" ","HOUSE_NO":"４８號","E_COORD97":174054.06,"N_COORD97":2565383.1600000001,"ADDRESS":"\u25A0帝\u25A0４８號","OBJECTID":121810},"geometry":{"x":174054.06000000145,"y":2565383.160000002}},{"attributes":{"ID":121811,"DIS_CODE":0,"TOWNNAME":"麻豆區","LI":"南勢里","LIN":"7鄰","STREET":" ","SECT":" ","MAREA":"\u25A0帝\u25A0","LANE":" ","ALLEY":" ","HOUSE_NO":"４９號之１","E_COORD97":173973,"N_COORD97":2565324.0499999998,"ADDRESS":"\u25A0帝\u25A0４９號之１","OBJECTID":121811},"geometry":{"x":173973,"y":2565324.0500000026}},{"attributes":{"ID":121812,"DIS_CODE":0,"TOWNNAME":"麻豆區","LI":"南勢里","LIN":"7鄰","STREET":" ","SECT":" ","MAREA":"\u25A0帝\u25A0","LANE":" ","ALLEY":" ","HOUSE_NO":"４９號","E_COORD97":173993.13,"N_COORD97":2565304.04,"ADDRESS":"\u25A0帝\u25A0４９號","OBJECTID":121812},"geometry":{"x":173993.13000000082,"y":2565304.0399999991}},{"attributes":{"ID":121813,"DIS_CODE":0,"TOWNNAME":"麻豆區","LI":"南勢里","LIN":"7鄰","STREET":" ","SECT":" ","MAREA":"\u25A0帝\u25A0","LANE":" ","ALLEY":" ","HOUSE_NO":"５０號之１０","E_COORD97":173948.95999999999,"N_COORD97":2565401.4100000001,"ADDRESS":"\u25A0帝\u25A0５０號之１０","OBJECTID":121813},"geometry":{"x":173948.96000000089,"y":2565401.4100000039}},{"attributes":{"ID":121814,"DIS_CODE":0,"TOWNNAME":"麻豆區","LI":"南勢里","LIN":"7鄰","STREET":" ","SECT":" ","MAREA":"\u25A0帝\u25A0","LANE":" ","ALLEY":" ","HOUSE_NO":"５０號之１","E_COORD97":173943.98000000001,"N_COORD97":2565444.7599999998,"ADDRESS":"\u25A0帝\u25A0５０號之１","OBJECTID":121814},"geometry":{"x":173943.98000000138,"y":2565444.7599999998}},{"attributes":{"ID":121815,"DIS_CODE":0,"TOWNNAME":"麻豆區","LI":"南勢里","LIN":"7鄰","STREET":" ","SECT":" ","MAREA":"\u25A0帝\u25A0","LANE":" ","ALLEY":" ","HOUSE_NO":"５０號之３","E_COORD97":173946.92000000001,"N_COORD97":2565433.1699999999,"ADDRESS":"\u25A0帝\u25A0５０號之３","OBJECTID":121815},"geometry":{"x":173946.92000000179,"y":2565433.1700000037}},{"attributes":{"ID":121816,"DIS_CODE":0,"TOWNNAME":"麻豆區","LI":"南勢里","LIN":"7鄰","STREET":" ","SECT":" ","MAREA":"\u25A0帝\u25A0","LANE":" ","ALLEY":" ","HOUSE_NO":"５０號之６","E_COORD97":173944.56,"N_COORD97":2565442.6899999999,"ADDRESS":"\u25A0帝\u25A0５０號之６","OBJECTID":121816},"geometry":{"x":173944.56000000052,"y":2565442.6900000032}},{"attributes":{"ID":121817,"DIS_CODE":0,"TOWNNAME":"麻豆區","LI":"南勢里","LIN":"7鄰","STREET":" ","SECT":" ","MAREA":"\u25A0帝\u25A0","LANE":" ","ALLEY":" ","HOUSE_NO":"５０號之８","E_COORD97":173953.29000000001,"N_COORD97":2565421.7400000002,"ADDRESS":"\u25A0帝\u25A0５０號之８","OBJECTID":121817},"geometry":{"x":173953.29000000097,"y":2565421.7400000002}},{"attributes":{"ID":121818,"DIS_CODE":0,"TOWNNAME":"麻豆區","LI":"南勢里","LIN":"7鄰","STREET":" ","SECT":" ","MAREA":"\u25A0帝\u25A0","LANE":" ","ALLEY":" ","HOUSE_NO":"５０號","E_COORD97":173990.22,"N_COORD97":2565419.4700000002,"ADDRESS":"\u25A0帝\u25A0５０號","OBJECTID":121818},"geometry":{"x":173990.21999999974,"y":2565419.4700000025}},{"attributes":{"ID":121819,"DIS_CODE":0,"TOWNNAME":"麻豆區","LI":"南勢里","LIN":"4鄰","STREET":" ","SECT":" ","MAREA":"\u25A0帝\u25A0","LANE":" ","ALLEY":" ","HOUSE_NO":"２５號之１３","E_COORD97":173743.76000000001,"N_COORD97":2565547.6699999999,"ADDRESS":"\u25A0帝\u25A0２５號之１３","OBJECTID":121819},"geometry":{"x":173743.75999999978,"y":2565547.6699999999}},{"attributes":{"ID":121820,"DIS_CODE":0,"TOWNNAME":"麻豆區","LI":"南勢里","LIN":"4鄰","STREET":" ","SECT":" ","MAREA":"\u25A0帝\u25A0","LANE":" ","ALLEY":" ","HOUSE_NO":"２５號之１４","E_COORD97":173744,"N_COORD97":2565543.75,"ADDRESS":"\u25A0帝\u25A0２５號之１４","OBJECTID":121820},"geometry":{"x":173744,"y":2565543.75}},{"attributes":{"ID":121821,"DIS_CODE":0,"TOWNNAME":"麻豆區","LI":"南勢里","LIN":"4鄰","STREET":" ","SECT":" ","MAREA":"\u25A0帝\u25A0","LANE":" ","ALLEY":" ","HOUSE_NO":"２５號之１５","E_COORD97":173744.25,"N_COORD97":2565539.9700000002,"ADDRESS":"\u25A0帝\u25A0２５號之１５","OBJECTID":121821},"geometry":{"x":173744.25,"y":2565539.9700000007}},{"attributes":{"ID":121822,"DIS_CODE":0,"TOWNNAME":"麻豆區","LI":"南勢里","LIN":"4鄰","STREET":" ","SECT":" ","MAREA":"\u25A0帝\u25A0","LANE":" ","ALLEY":" ","HOUSE_NO":"２５號之１６","E_COORD97":173744.35999999999,"N_COORD97":2565536.79,"ADDRESS":"\u25A0帝\u25A0２５號之１６","OBJECTID":121822},"geometry":{"x":173744.3600000022,"y":2565536.7900000028}},{"attributes":{"ID":121823,"DIS_CODE":0,"TOWNNAME":"麻豆區","LI":"南勢里","LIN":"4鄰","STREET":" ","SECT":" ","MAREA":"\u25A0帝\u25A0","LANE":" ","ALLEY":" ","HOUSE_NO":"２５號之１７","E_COORD97":173751.84,"N_COORD97":2565518.4900000002,"ADDRESS":"\u25A0帝\u25A0２５號之１７","OBJECTID":121823},"geometry":{"x":173751.83999999985,"y":2565518.4900000002}},{"attributes":{"ID":121824,"DIS_CODE":0,"TOWNNAME":"麻豆區","LI":"南勢里","LIN":"4鄰","STREET":" ","SECT":" ","MAREA":"\u25A0帝\u25A0","LANE":" ","ALLEY":" ","HOUSE_NO":"２５號之１８","E_COORD97":173732.07999999999,"N_COORD97":2565536.96,"ADDRESS":"\u25A0帝\u25A0２５號之１８","OBJECTID":121824},"geometry":{"x":173732.08000000007,"y":2565536.9600000009}},{"attributes":{"ID":121825,"DIS_CODE":0,"TOWNNAME":"麻豆區","LI":"南勢里","LIN":"4鄰","STREET":" ","SECT":" ","MAREA":"\u25A0帝\u25A0","LANE":" ","ALLEY":" ","HOUSE_NO":"２５號之１９","E_COORD97":173731.76999999999,"N_COORD97":2565540.7999999998,"ADDRESS":"\u25A0帝\u25A0２５號之１９","OBJECTID":121825},"geometry":{"x":173731.76999999955,"y":2565540.8000000007}},{"attributes":{"ID":121826,"DIS_CODE":0,"TOWNNAME":"永康區","LI":"網寮里","LIN":"16鄰","STREET":"永勝街","SECT":" ","MAREA":" ","LANE":"２２５巷","ALLEY":"８弄","HOUSE_NO":"５號","E_COORD97":173369.92000000001,"N_COORD97":2546724.2799999998,"ADDRESS":"永勝街２２５巷８弄５號","OBJECTID":121826},"geometry":{"x":173369.91999999993,"y":2546724.2800000012}},{"attributes":{"ID":121827,"DIS_CODE":0,"TOWNNAME":"永康區","LI":"復興里","LIN":"16鄰","STREET":"復興路","SECT":" ","MAREA":" ","LANE":"３５６巷","ALLEY":"４１弄","HOUSE_NO":"５號","E_COORD97":172276.01999999999,"N_COORD97":2544452.2799999998,"ADDRESS":"復興路３５６巷４１弄５號","OBJECTID":121827},"geometry":{"x":172276.02000000142,"y":2544452.2800000031}},{"attributes":{"ID":121828,"DIS_CODE":0,"TOWNNAME":"永康區","LI":"網寮里","LIN":"16鄰","STREET":"永二街","SECT":" ","MAREA":" ","LANE":"２４４巷","ALLEY":"６４弄","HOUSE_NO":"１號","E_COORD97":173256.92999999999,"N_COORD97":2546745.3500000001,"ADDRESS":"永二街２４４巷６４弄１號","OBJECTID":121828},"geometry":{"x":173256.93000000063,"y":2546745.3500000015}},{"attributes":{"ID":121829,"DIS_CODE":0,"TOWNNAME":"永康區","LI":"復興里","LIN":"16鄰","STREET":"復興路","SECT":" ","MAREA":" ","LANE":"３５６巷","ALLEY":"４１弄","HOUSE_NO":"２號","E_COORD97":172278.26999999999,"N_COORD97":2544462.7799999998,"ADDRESS":"復興路３５６巷４１弄２號","OBJECTID":121829},"geometry":{"x":172278.27000000048,"y":2544462.7800000012}},{"attributes":{"ID":121830,"DIS_CODE":0,"TOWNNAME":"永康區","LI":"網寮里","LIN":"16鄰","STREET":"永二街","SECT":" ","MAREA":" ","LANE":"２４４巷","ALLEY":"６２弄","HOUSE_NO":"３號","E_COORD97":173269.12,"N_COORD97":2546717.2799999998,"ADDRESS":"永二街２４４巷６２弄３號","OBJECTID":121830},"geometry":{"x":173269.12000000011,"y":2546717.2800000012}},{"attributes":{"ID":121831,"DIS_CODE":0,"TOWNNAME":"永康區","LI":"網寮里","LIN":"16鄰","STREET":"永二街","SECT":" ","MAREA":" ","LANE":"２４４巷","ALLEY":"６２弄","HOUSE_NO":"１２號","E_COORD97":173287.57999999999,"N_COORD97":2546675.79,"ADDRESS":"永二街２４４巷６２弄１２號","OBJECTID":121831},"geometry":{"x":173287.58000000007,"y":2546675.7899999972}},{"attributes":{"ID":121832,"DIS_CODE":0,"TOWNNAME":"永康區","LI":"網寮里","LIN":"16鄰","STREET":"永二街","SECT":" ","MAREA":" ","LANE":"２４４巷","ALLEY":"６４弄","HOUSE_NO":"８號","E_COORD97":173274.98999999999,"N_COORD97":2546739.3199999998,"ADDRESS":"永二街２４４巷６４弄８號","OBJECTID":121832},"geometry":{"x":173274.99000000022,"y":2546739.3200000022}},{"attributes":{"ID":121833,"DIS_CODE":0,"TOWNNAME":"永康區","LI":"復興里","LIN":"16鄰","STREET":"復興路","SECT":" ","MAREA":" ","LANE":"３５６巷","ALLEY":"４１弄","HOUSE_NO":"１１號","E_COORD97":172263.73999999999,"N_COORD97":2544430.52,"ADDRESS":"復興路３５６巷４１弄１１號","OBJECTID":121833},"geometry":{"x":172263.74000000115,"y":2544430.5200000033}},{"attributes":{"ID":121834,"DIS_CODE":0,"TOWNNAME":"永康區","LI":"網寮里","LIN":"16鄰","STREET":"永二街","SECT":" ","MAREA":" ","LANE":"２４４巷","ALLEY":"６２弄","HOUSE_NO":"９號","E_COORD97":173284.26999999999,"N_COORD97":2546720.2799999998,"ADDRESS":"永二街２４４巷６２弄９號","OBJECTID":121834},"geometry":{"x":173284.26999999955,"y":2546720.2800000031}},{"attributes":{"ID":121835,"DIS_CODE":0,"TOWNNAME":"仁德區","LI":"仁德里","LIN":"29鄰","STREET":"淨修街","SECT":" ","MAREA":" ","LANE":"１７５巷","ALLEY":"５１弄","HOUSE_NO":"２號","E_COORD97":172030.13,"N_COORD97":2541156.9399999999,"ADDRESS":"淨修街１７５巷５１弄２號","OBJECTID":121835},"geometry":{"x":172030.13000000082,"y":2541156.9400000013}},{"attributes":{"ID":121836,"DIS_CODE":0,"TOWNNAME":"安南區","LI":"海佃里","LIN":"16鄰","STREET":"國安街","SECT":" ","MAREA":" ","LANE":"５６巷","ALLEY":"２０１弄","HOUSE_NO":"１０號","E_COORD97":166836.98000000001,"N_COORD97":2547623.9900000002,"ADDRESS":"國安街５６巷２０１弄１０號","OBJECTID":121836},"geometry":{"x":166836.98000000045,"y":2547623.9900000002}},{"attributes":{"ID":121837,"DIS_CODE":0,"TOWNNAME":"安南區","LI":"海佃里","LIN":"16鄰","STREET":"國安街","SECT":" ","MAREA":" ","LANE":"５６巷","ALLEY":"２０１弄","HOUSE_NO":"１１號","E_COORD97":166836.23999999999,"N_COORD97":2547597.9900000002,"ADDRESS":"國安街５６巷２０１弄１１號","OBJECTID":121837},"geometry":{"x":166836.24000000115,"y":2547597.9900000039}},{"attributes":{"ID":121838,"DIS_CODE":0,"TOWNNAME":"柳營區","LI":"士林里","LIN":" ","STREET":" ","SECT":" ","MAREA":"柳營","LANE":" ","ALLEY":" ","HOUSE_NO":"２７號","E_COORD97":179342.97,"N_COORD97":2575178.25,"ADDRESS":"柳營２７號","OBJECTID":121838},"geometry":{"x":179342.97000000067,"y":2575178.2500000019}},{"attributes":{"ID":121839,"DIS_CODE":0,"TOWNNAME":"安南區","LI":"海佃里","LIN":"16鄰","STREET":"國安街","SECT":" ","MAREA":" ","LANE":"５６巷","ALLEY":"２０１弄","HOUSE_NO":"１２號","E_COORD97":166831.10999999999,"N_COORD97":2547622.8900000001,"ADDRESS":"國安街５６巷２０１弄１２號","OBJECTID":121839},"geometry":{"x":166831.11000000034,"y":2547622.8900000043}},{"attributes":{"ID":121840,"DIS_CODE":0,"TOWNNAME":"安南區","LI":"海佃里","LIN":"16鄰","STREET":"國安街","SECT":" ","MAREA":" ","LANE":"５６巷","ALLEY":"２０１弄","HOUSE_NO":"１３號","E_COORD97":166829.64000000001,"N_COORD97":2547596.8900000001,"ADDRESS":"國安街５６巷２０１弄１３號","OBJECTID":121840},"geometry":{"x":166829.63999999966,"y":2547596.8900000025}},{"attributes":{"ID":121841,"DIS_CODE":0,"TOWNNAME":"安南區","LI":"海佃里","LIN":"16鄰","STREET":"國安街","SECT":" ","MAREA":" ","LANE":"５６巷","ALLEY":"２０１弄","HOUSE_NO":"１４號","E_COORD97":166824.14000000001,"N_COORD97":2547621.4300000002,"ADDRESS":"國安街５６巷２０１弄１４號","OBJECTID":121841},"geometry":{"x":166824.1400000006,"y":2547621.4299999978}},{"attributes":{"ID":121842,"DIS_CODE":0,"TOWNNAME":"安南區","LI":"海佃里","LIN":"16鄰","STREET":"國安街","SECT":" ","MAREA":" ","LANE":"５６巷","ALLEY":"２０１弄","HOUSE_NO":"１５號","E_COORD97":166824.14000000001,"N_COORD97":2547596.1600000001,"ADDRESS":"國安街５６巷２０１弄１５號","OBJECTID":121842},"geometry":{"x":166824.1400000006,"y":2547596.1600000001}},{"attributes":{"ID":121843,"DIS_CODE":0,"TOWNNAME":"安南區","LI":"海佃里","LIN":"16鄰","STREET":"國安街","SECT":" ","MAREA":" ","LANE":"５６巷","ALLEY":"２０１弄","HOUSE_NO":"１６號","E_COORD97":166818.64000000001,"N_COORD97":2547619.6000000001,"ADDRESS":"國安街５６巷２０１弄１６號","OBJECTID":121843},"geometry":{"x":166818.64000000153,"y":2547619.5999999996}},{"attributes":{"ID":121844,"DIS_CODE":0,"TOWNNAME":"安南區","LI":"海佃里","LIN":"16鄰","STREET":"國安街","SECT":" ","MAREA":" ","LANE":"５６巷","ALLEY":"２０１弄","HOUSE_NO":"１９號","E_COORD97":166812.78,"N_COORD97":2547594.6899999999,"ADDRESS":"國安街５６巷２０１弄１９號","OBJECTID":121844},"geometry":{"x":166812.78000000026,"y":2547594.6899999995}},{"attributes":{"ID":121845,"DIS_CODE":0,"TOWNNAME":"安南區","LI":"海佃里","LIN":"16鄰","STREET":"國安街","SECT":" ","MAREA":" ","LANE":"５６巷","ALLEY":"２０１弄","HOUSE_NO":"２１號","E_COORD97":166805.45000000001,"N_COORD97":2547593.5899999999,"ADDRESS":"國安街５６巷２０１弄２１號","OBJECTID":121845},"geometry":{"x":166805.45000000112,"y":2547593.5900000036}},{"attributes":{"ID":121846,"DIS_CODE":0,"TOWNNAME":"安南區","LI":"海佃里","LIN":"16鄰","STREET":"國安街","SECT":" ","MAREA":" ","LANE":"５６巷","ALLEY":"２０１弄","HOUSE_NO":"２２號","E_COORD97":166801.04999999999,"N_COORD97":2547614.8399999999,"ADDRESS":"國安街５６巷２０１弄２２號","OBJECTID":121846},"geometry":{"x":166801.05000000075,"y":2547614.8399999999}},{"attributes":{"ID":121847,"DIS_CODE":0,"TOWNNAME":"安南區","LI":"海佃里","LIN":"16鄰","STREET":"國安街","SECT":" ","MAREA":" ","LANE":"５６巷","ALLEY":"２０１弄","HOUSE_NO":"２３號","E_COORD97":166800.67999999999,"N_COORD97":2547592.1299999999,"ADDRESS":"國安街５６巷２０１弄２３號","OBJECTID":121847},"geometry":{"x":166800.6799999997,"y":2547592.1299999971}},{"attributes":{"ID":121848,"DIS_CODE":0,"TOWNNAME":"東區","LI":"仁和里","LIN":"24鄰","STREET":"利東街","SECT":" ","MAREA":" ","LANE":" ","ALLEY":" ","HOUSE_NO":"３０號六樓之２","E_COORD97":171633.89000000001,"N_COORD97":2541106.0499999998,"ADDRESS":"利東街３０號六樓之２","OBJECTID":121848},"geometry":{"x":171633.88999999966,"y":2541106.0500000026}},{"attributes":{"ID":121849,"DIS_CODE":0,"TOWNNAME":"安南區","LI":"海佃里","LIN":"16鄰","STREET":"國安街","SECT":" ","MAREA":" ","LANE":"５６巷","ALLEY":"２０１弄","HOUSE_NO":"２４號","E_COORD97":166795.54999999999,"N_COORD97":2547614.1000000001,"ADDRESS":"國安街５６巷２０１弄２４號","OBJECTID":121849},"geometry":{"x":166795.55000000168,"y":2547614.1000000015}},{"attributes":{"ID":121850,"DIS_CODE":0,"TOWNNAME":"安南區","LI":"海佃里","LIN":"16鄰","STREET":"國安街","SECT":" ","MAREA":" ","LANE":"５６巷","ALLEY":"２０１弄","HOUSE_NO":"２５號","E_COORD97":166792.98000000001,"N_COORD97":2547590.2999999998,"ADDRESS":"國安街５６巷２０１弄２５號","OBJECTID":121850},"geometry":{"x":166792.98000000045,"y":2547590.3000000026}},{"attributes":{"ID":121851,"DIS_CODE":0,"TOWNNAME":"安南區","LI":"海佃里","LIN":"16鄰","STREET":"國安街","SECT":" ","MAREA":" ","LANE":"５６巷","ALLEY":"２０１弄","HOUSE_NO":"２７號","E_COORD97":166788.95000000001,"N_COORD97":2547589.9300000002,"ADDRESS":"國安街５６巷２０１弄２７號","OBJECTID":121851},"geometry":{"x":166788.95000000112,"y":2547589.9299999997}},{"attributes":{"ID":121852,"DIS_CODE":0,"TOWNNAME":"安南區","LI":"海佃里","LIN":"16鄰","STREET":"國安街","SECT":" ","MAREA":" ","LANE":"５６巷","ALLEY":"２０１弄","HOUSE_NO":"２８號","E_COORD97":166777.57999999999,"N_COORD97":2547609.71,"ADDRESS":"國安街５６巷２０１弄２８號","OBJECTID":121852},"geometry":{"x":166777.58000000101,"y":2547609.7100000009}},{"attributes":{"ID":121853,"DIS_CODE":0,"TOWNNAME":"安南區","LI":"海佃里","LIN":"16鄰","STREET":"國安街","SECT":" ","MAREA":" ","LANE":"５６巷","ALLEY":"２０１弄","HOUSE_NO":"２９號","E_COORD97":166782.72,"N_COORD97":2547589.5699999998,"ADDRESS":"國安街５６巷２０１弄２９號","OBJECTID":121853},"geometry":{"x":166782.72000000067,"y":2547589.5700000003}},{"attributes":{"ID":121854,"DIS_CODE":0,"TOWNNAME":"安南區","LI":"海佃里","LIN":"16鄰","STREET":"國安街","SECT":" ","MAREA":" ","LANE":"５６巷","ALLEY":"２０１弄","HOUSE_NO":"２號","E_COORD97":166860.47,"N_COORD97":2547626.9300000002,"ADDRESS":"國安街５６巷２０１弄２號","OBJECTID":121854},"geometry":{"x":166860.4700000016,"y":2547626.9299999997}},{"attributes":{"ID":121855,"DIS_CODE":0,"TOWNNAME":"安南區","LI":"海佃里","LIN":"16鄰","STREET":"國安街","SECT":" ","MAREA":" ","LANE":"５６巷","ALLEY":"２０１弄","HOUSE_NO":"３０號","E_COORD97":166769.51999999999,"N_COORD97":2547608.2400000002,"ADDRESS":"國安街５６巷２０１弄３０號","OBJECTID":121855},"geometry":{"x":166769.51999999955,"y":2547608.2400000002}},{"attributes":{"ID":121856,"DIS_CODE":0,"TOWNNAME":"安南區","LI":"海佃里","LIN":"16鄰","STREET":"國安街","SECT":" ","MAREA":" ","LANE":"５６巷","ALLEY":"２０１弄","HOUSE_NO":"３１號","E_COORD97":166775.38,"N_COORD97":2547588.8300000001,"ADDRESS":"國安街５６巷２０１弄３１號","OBJECTID":121856},"geometry":{"x":166775.38000000082,"y":2547588.8300000038}},{"attributes":{"ID":121857,"DIS_CODE":0,"TOWNNAME":"麻豆區","LI":"南勢里","LIN":"4鄰","STREET":" ","SECT":" ","MAREA":"\u25A0帝\u25A0","LANE":" ","ALLEY":" ","HOUSE_NO":"２５號之２０","E_COORD97":173731.45000000001,"N_COORD97":2565544.9199999999,"ADDRESS":"\u25A0帝\u25A0２５號之２０","OBJECTID":121857},"geometry":{"x":173731.45000000019,"y":2565544.9200000018}},{"attributes":{"ID":121858,"DIS_CODE":0,"TOWNNAME":"麻豆區","LI":"南勢里","LIN":"4鄰","STREET":" ","SECT":" ","MAREA":"\u25A0帝\u25A0","LANE":" ","ALLEY":" ","HOUSE_NO":"２５號之２１","E_COORD97":173731.20000000001,"N_COORD97":2565548.8500000001,"ADDRESS":"\u25A0帝\u25A0２５號之２１","OBJECTID":121858},"geometry":{"x":173731.20000000019,"y":2565548.8499999996}},{"attributes":{"ID":121859,"DIS_CODE":0,"TOWNNAME":"麻豆區","LI":"南勢里","LIN":"4鄰","STREET":" ","SECT":" ","MAREA":"\u25A0帝\u25A0","LANE":" ","ALLEY":" ","HOUSE_NO":"２５號之２６","E_COORD97":173715.70000000001,"N_COORD97":2565520.1600000001,"ADDRESS":"\u25A0帝\u25A0２５號之２６","OBJECTID":121859},"geometry":{"x":173715.70000000019,"y":2565520.1600000001}},{"attributes":{"ID":121860,"DIS_CODE":0,"TOWNNAME":"麻豆區","LI":"南勢里","LIN":"4鄰","STREET":" ","SECT":" ","MAREA":"\u25A0帝\u25A0","LANE":" ","ALLEY":" ","HOUSE_NO":"２５號之３","E_COORD97":173707.45999999999,"N_COORD97":2565541.5800000001,"ADDRESS":"\u25A0帝\u25A0２５號之３","OBJECTID":121860},"geometry":{"x":173707.45999999996,"y":2565541.5800000001}},{"attributes":{"ID":121861,"DIS_CODE":0,"TOWNNAME":"麻豆區","LI":"南勢里","LIN":"4鄰","STREET":" ","SECT":" ","MAREA":"\u25A0帝\u25A0","LANE":" ","ALLEY":" ","HOUSE_NO":"２５號之５","E_COORD97":173714.34,"N_COORD97":2565542.25,"ADDRESS":"\u25A0帝\u25A0２５號之５","OBJECTID":121861},"geometry":{"x":173714.33999999985,"y":2565542.2500000019}},{"attributes":{"ID":121862,"DIS_CODE":0,"TOWNNAME":"麻豆區","LI":"南勢里","LIN":"4鄰","STREET":" ","SECT":" ","MAREA":"\u25A0帝\u25A0","LANE":" ","ALLEY":" ","HOUSE_NO":"２５號之６","E_COORD97":173726.85999999999,"N_COORD97":2565547.98,"ADDRESS":"\u25A0帝\u25A0２５號之６","OBJECTID":121862},"geometry":{"x":173726.86000000034,"y":2565547.9800000023}},{"attributes":{"ID":121863,"DIS_CODE":0,"TOWNNAME":"麻豆區","LI":"南勢里","LIN":"4鄰","STREET":" ","SECT":" ","MAREA":"\u25A0帝\u25A0","LANE":" ","ALLEY":" ","HOUSE_NO":"２５號之７","E_COORD97":173730.97,"N_COORD97":2565553.1299999999,"ADDRESS":"\u25A0帝\u25A0２５號之７","OBJECTID":121863},"geometry":{"x":173730.96999999881,"y":2565553.129999999}},{"attributes":{"ID":121864,"DIS_CODE":0,"TOWNNAME":"麻豆區","LI":"南勢里","LIN":"4鄰","STREET":" ","SECT":" ","MAREA":"\u25A0帝\u25A0","LANE":" ","ALLEY":" ","HOUSE_NO":"２５號之８","E_COORD97":173743.47,"N_COORD97":2565559.3399999999,"ADDRESS":"\u25A0帝\u25A0２５號之８","OBJECTID":121864},"geometry":{"x":173743.47000000067,"y":2565559.3399999999}},{"attributes":{"ID":121865,"DIS_CODE":0,"TOWNNAME":"麻豆區","LI":"南勢里","LIN":"4鄰","STREET":" ","SECT":" ","MAREA":"\u25A0帝\u25A0","LANE":" ","ALLEY":" ","HOUSE_NO":"２５號","E_COORD97":173681.73000000001,"N_COORD97":2565477.6400000001,"ADDRESS":"\u25A0帝\u25A0２５號","OBJECTID":121865},"geometry":{"x":173681.73000000138,"y":2565477.6400000006}},{"attributes":{"ID":121866,"DIS_CODE":0,"TOWNNAME":"麻豆區","LI":"南勢里","LIN":"4鄰","STREET":" ","SECT":" ","MAREA":"\u25A0帝\u25A0","LANE":" ","ALLEY":" ","HOUSE_NO":"２６號之１","E_COORD97":173635.62,"N_COORD97":2565457.0699999998,"ADDRESS":"\u25A0帝\u25A0２６號之１","OBJECTID":121866},"geometry":{"x":173635.62000000197,"y":2565457.0700000003}},{"attributes":{"ID":121867,"DIS_CODE":0,"TOWNNAME":"麻豆區","LI":"南勢里","LIN":"4鄰","STREET":" ","SECT":" ","MAREA":"\u25A0帝\u25A0","LANE":" ","ALLEY":" ","HOUSE_NO":"２６號之２","E_COORD97":173636.07999999999,"N_COORD97":2565441.1499999999,"ADDRESS":"\u25A0帝\u25A0２６號之２","OBJECTID":121867},"geometry":{"x":173636.08000000101,"y":2565441.1500000022}},{"attributes":{"ID":121868,"DIS_CODE":0,"TOWNNAME":"麻豆區","LI":"南勢里","LIN":"4鄰","STREET":" ","SECT":" ","MAREA":"\u25A0帝\u25A0","LANE":" ","ALLEY":" ","HOUSE_NO":"２６號之３","E_COORD97":173611.07999999999,"N_COORD97":2565485.7599999998,"ADDRESS":"\u25A0帝\u25A0２６號之３","OBJECTID":121868},"geometry":{"x":173611.08000000101,"y":2565485.7599999998}},{"attributes":{"ID":121869,"DIS_CODE":0,"TOWNNAME":"麻豆區","LI":"南勢里","LIN":"4鄰","STREET":" ","SECT":" ","MAREA":"\u25A0帝\u25A0","LANE":" ","ALLEY":" ","HOUSE_NO":"２６號","E_COORD97":173646.78,"N_COORD97":2565468.3799999999,"ADDRESS":"\u25A0帝\u25A0２６號","OBJECTID":121869},"geometry":{"x":173646.78000000119,"y":2565468.3800000008}},{"attributes":{"ID":121870,"DIS_CODE":0,"TOWNNAME":"麻豆區","LI":"南勢里","LIN":"6鄰","STREET":" ","SECT":" ","MAREA":"\u25A0帝\u25A0","LANE":" ","ALLEY":" ","HOUSE_NO":"３３號","E_COORD97":173847.07999999999,"N_COORD97":2565168.7999999998,"ADDRESS":"\u25A0帝\u25A0３３號","OBJECTID":121870},"geometry":{"x":173847.08000000007,"y":2565168.8000000045}},{"attributes":{"ID":121871,"DIS_CODE":0,"TOWNNAME":"麻豆區","LI":"南勢里","LIN":"6鄰","STREET":" ","SECT":" ","MAREA":"\u25A0帝\u25A0","LANE":" ","ALLEY":" ","HOUSE_NO":"３４號之１０","E_COORD97":173908.28,"N_COORD97":2565276.8700000001,"ADDRESS":"\u25A0帝\u25A0３４號之１０","OBJECTID":121871},"geometry":{"x":173908.28000000119,"y":2565276.8699999992}},{"attributes":{"ID":121872,"DIS_CODE":0,"TOWNNAME":"麻豆區","LI":"南勢里","LIN":"6鄰","STREET":" ","SECT":" ","MAREA":"\u25A0帝\u25A0","LANE":" ","ALLEY":" ","HOUSE_NO":"３４號之１","E_COORD97":173860.84,"N_COORD97":2565178.6899999999,"ADDRESS":"\u25A0帝\u25A0３４號之１","OBJECTID":121872},"geometry":{"x":173860.84000000171,"y":2565178.6900000013}},{"attributes":{"ID":121873,"DIS_CODE":0,"TOWNNAME":"麻豆區","LI":"南勢里","LIN":"6鄰","STREET":" ","SECT":" ","MAREA":"\u25A0帝\u25A0","LANE":" ","ALLEY":" ","HOUSE_NO":"３４號","E_COORD97":173851.07000000001,"N_COORD97":2565229.3399999999,"ADDRESS":"\u25A0帝\u25A0３４號","OBJECTID":121873},"geometry":{"x":173851.0700000003,"y":2565229.3400000017}},{"attributes":{"ID":121874,"DIS_CODE":0,"TOWNNAME":"麻豆區","LI":"南勢里","LIN":"6鄰","STREET":" ","SECT":" ","MAREA":"\u25A0帝\u25A0","LANE":" ","ALLEY":" ","HOUSE_NO":"３６號","E_COORD97":173934.72,"N_COORD97":2565232.48,"ADDRESS":"\u25A0帝\u25A0３６號","OBJECTID":121874},"geometry":{"x":173934.72000000067,"y":2565232.4800000023}},{"attributes":{"ID":121875,"DIS_CODE":0,"TOWNNAME":"麻豆區","LI":"南勢里","LIN":"6鄰","STREET":" ","SECT":" ","MAREA":"\u25A0帝\u25A0","LANE":" ","ALLEY":" ","HOUSE_NO":"３７號","E_COORD97":173937.29000000001,"N_COORD97":2565206.1699999999,"ADDRESS":"\u25A0帝\u25A0３７號","OBJECTID":121875},"geometry":{"x":173937.29000000004,"y":2565206.1700000037}},{"attributes":{"ID":121876,"DIS_CODE":0,"TOWNNAME":"麻豆區","LI":"南勢里","LIN":"6鄰","STREET":" ","SECT":" ","MAREA":"\u25A0帝\u25A0","LANE":" ","ALLEY":" ","HOUSE_NO":"３８號之５","E_COORD97":173909.28,"N_COORD97":2565105.1400000001,"ADDRESS":"\u25A0帝\u25A0３８號之５","OBJECTID":121876},"geometry":{"x":173909.28000000212,"y":2565105.1399999987}},{"attributes":{"ID":121877,"DIS_CODE":0,"TOWNNAME":"麻豆區","LI":"南勢里","LIN":"6鄰","STREET":" ","SECT":" ","MAREA":"\u25A0帝\u25A0","LANE":" ","ALLEY":" ","HOUSE_NO":"３８號","E_COORD97":173950.29000000001,"N_COORD97":2565133.8599999999,"ADDRESS":"\u25A0帝\u25A0３８號","OBJECTID":121877},"geometry":{"x":173950.29000000097,"y":2565133.8600000013}},{"attributes":{"ID":121878,"DIS_CODE":0,"TOWNNAME":"麻豆區","LI":"南勢里","LIN":"6鄰","STREET":" ","SECT":" ","MAREA":"\u25A0帝\u25A0","LANE":" ","ALLEY":" ","HOUSE_NO":"３９號之１０","E_COORD97":174031.355756,"N_COORD97":2565240.2281300002,"ADDRESS":"\u25A0帝\u25A0３９號之１０","OBJECTID":121878},"geometry":{"x":174031.35575599968,"y":2565240.2281280011}},{"attributes":{"ID":121879,"DIS_CODE":0,"TOWNNAME":"麻豆區","LI":"南勢里","LIN":"6鄰","STREET":" ","SECT":" ","MAREA":"\u25A0帝\u25A0","LANE":" ","ALLEY":" ","HOUSE_NO":"３９號之１１","E_COORD97":174034.322055,"N_COORD97":2565235.7831299999,"ADDRESS":"\u25A0帝\u25A0３９號之１１","OBJECTID":121879},"geometry":{"x":174034.32205499988,"y":2565235.7831310015}},{"attributes":{"ID":121880,"DIS_CODE":0,"TOWNNAME":"麻豆區","LI":"南勢里","LIN":"6鄰","STREET":" ","SECT":" ","MAREA":"\u25A0帝\u25A0","LANE":" ","ALLEY":" ","HOUSE_NO":"３９號之３","E_COORD97":174032.10999999999,"N_COORD97":2565106.0800000001,"ADDRESS":"\u25A0帝\u25A0３９號之３","OBJECTID":121880},"geometry":{"x":174032.11000000034,"y":2565106.0800000019}},{"attributes":{"ID":121881,"DIS_CODE":0,"TOWNNAME":"麻豆區","LI":"南勢里","LIN":"6鄰","STREET":" ","SECT":" ","MAREA":"\u25A0帝\u25A0","LANE":" ","ALLEY":" ","HOUSE_NO":"３９號之５","E_COORD97":174030.48999999999,"N_COORD97":2565256.8799999999,"ADDRESS":"\u25A0帝\u25A0３９號之５","OBJECTID":121881},"geometry":{"x":174030.49000000115,"y":2565256.879999999}},{"attributes":{"ID":121882,"DIS_CODE":0,"TOWNNAME":"麻豆區","LI":"南勢里","LIN":"6鄰","STREET":" ","SECT":" ","MAREA":"\u25A0帝\u25A0","LANE":" ","ALLEY":" ","HOUSE_NO":"３９號之６","E_COORD97":173996.82999999999,"N_COORD97":2565164.8599999999,"ADDRESS":"\u25A0帝\u25A0３９號之６","OBJECTID":121882},"geometry":{"x":173996.83000000194,"y":2565164.8600000013}},{"attributes":{"ID":121883,"DIS_CODE":0,"TOWNNAME":"麻豆區","LI":"南勢里","LIN":"6鄰","STREET":" ","SECT":" ","MAREA":"\u25A0帝\u25A0","LANE":" ","ALLEY":" ","HOUSE_NO":"３９號之７","E_COORD97":173994.14000000001,"N_COORD97":2565247.1400000001,"ADDRESS":"\u25A0帝\u25A0３９號之７","OBJECTID":121883},"geometry":{"x":173994.13999999966,"y":2565247.1400000006}},{"attributes":{"ID":121884,"DIS_CODE":0,"TOWNNAME":"麻豆區","LI":"南勢里","LIN":"6鄰","STREET":" ","SECT":" ","MAREA":"\u25A0帝\u25A0","LANE":" ","ALLEY":" ","HOUSE_NO":"３９號之８","E_COORD97":174040.14999999999,"N_COORD97":2565182.7200000002,"ADDRESS":"\u25A0帝\u25A0３９號之８","OBJECTID":121884},"geometry":{"x":174040.15000000037,"y":2565182.7200000044}},{"attributes":{"ID":121885,"DIS_CODE":0,"TOWNNAME":"麻豆區","LI":"南勢里","LIN":"6鄰","STREET":" ","SECT":" ","MAREA":"\u25A0帝\u25A0","LANE":" ","ALLEY":" ","HOUSE_NO":"３９號","E_COORD97":173998.5,"N_COORD97":2565180.23,"ADDRESS":"\u25A0帝\u25A0３９號","OBJECTID":121885},"geometry":{"x":173998.5,"y":2565180.2300000023}},{"attributes":{"ID":121886,"DIS_CODE":0,"TOWNNAME":"麻豆區","LI":"南勢里","LIN":"6鄰","STREET":" ","SECT":" ","MAREA":"\u25A0帝\u25A0","LANE":" ","ALLEY":" ","HOUSE_NO":"４０號","E_COORD97":173976.75,"N_COORD97":2565197.3599999999,"ADDRESS":"\u25A0帝\u25A0４０號","OBJECTID":121886},"geometry":{"x":173976.75,"y":2565197.3600000031}},{"attributes":{"ID":121887,"DIS_CODE":0,"TOWNNAME":"麻豆區","LI":"南勢里","LIN":"6鄰","STREET":" ","SECT":" ","MAREA":"\u25A0帝\u25A0","LANE":" ","ALLEY":" ","HOUSE_NO":"４２號之１","E_COORD97":173958.45000000001,"N_COORD97":2565221.3100000001,"ADDRESS":"\u25A0帝\u25A0４２號之１","OBJECTID":121887},"geometry":{"x":173958.45000000019,"y":2565221.3100000005}},{"attributes":{"ID":121888,"DIS_CODE":0,"TOWNNAME":"麻豆區","LI":"南勢里","LIN":"6鄰","STREET":" ","SECT":" ","MAREA":"\u25A0帝\u25A0","LANE":" ","ALLEY":" ","HOUSE_NO":"４２號之２","E_COORD97":173958.92999999999,"N_COORD97":2565216.2599999998,"ADDRESS":"\u25A0帝\u25A0４２號之２","OBJECTID":121888},"geometry":{"x":173958.93000000063,"y":2565216.2600000016}},{"attributes":{"ID":121889,"DIS_CODE":0,"TOWNNAME":"麻豆區","LI":"南勢里","LIN":"6鄰","STREET":" ","SECT":" ","MAREA":"\u25A0帝\u25A0","LANE":" ","ALLEY":" ","HOUSE_NO":"４２號之５","E_COORD97":173972.04000000001,"N_COORD97":2565281.6699999999,"ADDRESS":"\u25A0帝\u25A0４２號之５","OBJECTID":121889},"geometry":{"x":173972.04000000097,"y":2565281.6700000018}},{"attributes":{"ID":121890,"DIS_CODE":0,"TOWNNAME":"麻豆區","LI":"南勢里","LIN":"6鄰","STREET":" ","SECT":" ","MAREA":"\u25A0帝\u25A0","LANE":" ","ALLEY":" ","HOUSE_NO":"４２號","E_COORD97":173954.60000000001,"N_COORD97":2565245.54,"ADDRESS":"\u25A0帝\u25A0４２號","OBJECTID":121890},"geometry":{"x":173954.60000000056,"y":2565245.5399999991}},{"attributes":{"ID":121891,"DIS_CODE":0,"TOWNNAME":"麻豆區","LI":"南勢里","LIN":"3鄰","STREET":" ","SECT":" ","MAREA":"\u25A0帝\u25A0","LANE":" ","ALLEY":" ","HOUSE_NO":"２０號之１","E_COORD97":173931.94,"N_COORD97":2565518.6499999999,"ADDRESS":"\u25A0帝\u25A0２０號之１","OBJECTID":121891},"geometry":{"x":173931.93999999948,"y":2565518.6500000041}},{"attributes":{"ID":121892,"DIS_CODE":0,"TOWNNAME":"麻豆區","LI":"南勢里","LIN":"3鄰","STREET":" ","SECT":" ","MAREA":"\u25A0帝\u25A0","LANE":" ","ALLEY":" ","HOUSE_NO":"２０號之３","E_COORD97":173931.64000000001,"N_COORD97":2565498.0800000001,"ADDRESS":"\u25A0帝\u25A0２０號之３","OBJECTID":121892},"geometry":{"x":173931.64000000153,"y":2565498.0800000001}},{"attributes":{"ID":121893,"DIS_CODE":0,"TOWNNAME":"麻豆區","LI":"南勢里","LIN":"3鄰","STREET":" ","SECT":" ","MAREA":"\u25A0帝\u25A0","LANE":" ","ALLEY":" ","HOUSE_NO":"２０號","E_COORD97":173962.73000000001,"N_COORD97":2565512.8900000001,"ADDRESS":"\u25A0帝\u25A0２０號","OBJECTID":121893},"geometry":{"x":173962.73000000138,"y":2565512.8900000006}},{"attributes":{"ID":121894,"DIS_CODE":0,"TOWNNAME":"麻豆區","LI":"南勢里","LIN":"3鄰","STREET":" ","SECT":" ","MAREA":"\u25A0帝\u25A0","LANE":" ","ALLEY":" ","HOUSE_NO":"２１號之１","E_COORD97":173911.92000000001,"N_COORD97":2565408.27,"ADDRESS":"\u25A0帝\u25A0２１號之１","OBJECTID":121894},"geometry":{"x":173911.92000000086,"y":2565408.2699999977}},{"attributes":{"ID":121895,"DIS_CODE":0,"TOWNNAME":"麻豆區","LI":"南勢里","LIN":"3鄰","STREET":" ","SECT":" ","MAREA":"\u25A0帝\u25A0","LANE":" ","ALLEY":" ","HOUSE_NO":"２１號之２","E_COORD97":173910.57999999999,"N_COORD97":2565466.48,"ADDRESS":"\u25A0帝\u25A0２１號之２","OBJECTID":121895},"geometry":{"x":173910.58000000101,"y":2565466.4800000023}},{"attributes":{"ID":121896,"DIS_CODE":0,"TOWNNAME":"麻豆區","LI":"南勢里","LIN":"3鄰","STREET":" ","SECT":" ","MAREA":"\u25A0帝\u25A0","LANE":" ","ALLEY":" ","HOUSE_NO":"２１號之３","E_COORD97":173888.38,"N_COORD97":2565397.23,"ADDRESS":"\u25A0帝\u25A0２１號之３","OBJECTID":121896},"geometry":{"x":173888.38000000082,"y":2565397.2300000023}},{"attributes":{"ID":121897,"DIS_CODE":0,"TOWNNAME":"麻豆區","LI":"南勢里","LIN":"3鄰","STREET":" ","SECT":" ","MAREA":"\u25A0帝\u25A0","LANE":" ","ALLEY":" ","HOUSE_NO":"２１號之５","E_COORD97":173922.82000000001,"N_COORD97":2565423.6200000001,"ADDRESS":"\u25A0帝\u25A0２１號之５","OBJECTID":121897},"geometry":{"x":173922.82000000123,"y":2565423.620000001}},{"attributes":{"ID":121898,"DIS_CODE":0,"TOWNNAME":"麻豆區","LI":"南勢里","LIN":"3鄰","STREET":" ","SECT":" ","MAREA":"\u25A0帝\u25A0","LANE":" ","ALLEY":" ","HOUSE_NO":"２１號之６","E_COORD97":173904.14000000001,"N_COORD97":2565406.2200000002,"ADDRESS":"\u25A0帝\u25A0２１號之６","OBJECTID":121898},"geometry":{"x":173904.13999999966,"y":2565406.2200000007}},{"attributes":{"ID":121899,"DIS_CODE":0,"TOWNNAME":"麻豆區","LI":"南勢里","LIN":"3鄰","STREET":" ","SECT":" ","MAREA":"\u25A0帝\u25A0","LANE":" ","ALLEY":" ","HOUSE_NO":"２１號之８","E_COORD97":173863.54000000001,"N_COORD97":2565394.1099999999,"ADDRESS":"\u25A0帝\u25A0２１號之８","OBJECTID":121899},"geometry":{"x":173863.54000000097,"y":2565394.1100000013}},{"attributes":{"ID":121900,"DIS_CODE":0,"TOWNNAME":"麻豆區","LI":"南勢里","LIN":"3鄰","STREET":" ","SECT":" ","MAREA":"\u25A0帝\u25A0","LANE":" ","ALLEY":" ","HOUSE_NO":"２１號","E_COORD97":173894.79999999999,"N_COORD97":2565452.3300000001,"ADDRESS":"\u25A0帝\u25A0２１號","OBJECTID":121900},"geometry":{"x":173894.79999999981,"y":2565452.3300000001}},{"attributes":{"ID":121901,"DIS_CODE":0,"TOWNNAME":"麻豆區","LI":"南勢里","LIN":"3鄰","STREET":" ","SECT":" ","MAREA":"\u25A0帝\u25A0","LANE":" ","ALLEY":" ","HOUSE_NO":"２２號之１","E_COORD97":173828.29999999999,"N_COORD97":2565494.1800000002,"ADDRESS":"\u25A0帝\u25A0２２號之１","OBJECTID":121901},"geometry":{"x":173828.29999999981,"y":2565494.1800000034}},{"attributes":{"ID":121902,"DIS_CODE":0,"TOWNNAME":"麻豆區","LI":"南勢里","LIN":"3鄰","STREET":" ","SECT":" ","MAREA":"\u25A0帝\u25A0","LANE":" ","ALLEY":" ","HOUSE_NO":"２２號之２","E_COORD97":173854.04999999999,"N_COORD97":2565534.1299999999,"ADDRESS":"\u25A0帝\u25A0２２號之２","OBJECTID":121902},"geometry":{"x":173854.04999999981,"y":2565534.1300000027}},{"attributes":{"ID":121903,"DIS_CODE":0,"TOWNNAME":"麻豆區","LI":"南勢里","LIN":"3鄰","STREET":" ","SECT":" ","MAREA":"\u25A0帝\u25A0","LANE":" ","ALLEY":" ","HOUSE_NO":"２２號之３","E_COORD97":173890.84,"N_COORD97":2565535.2400000002,"ADDRESS":"\u25A0帝\u25A0２２號之３","OBJECTID":121903},"geometry":{"x":173890.83999999985,"y":2565535.2400000021}},{"attributes":{"ID":121904,"DIS_CODE":0,"TOWNNAME":"麻豆區","LI":"南勢里","LIN":"3鄰","STREET":" ","SECT":" ","MAREA":"\u25A0帝\u25A0","LANE":" ","ALLEY":" ","HOUSE_NO":"２２號之５","E_COORD97":173877,"N_COORD97":2565544.8799999999,"ADDRESS":"\u25A0帝\u25A0２２號之５","OBJECTID":121904},"geometry":{"x":173877.00000000186,"y":2565544.879999999}},{"attributes":{"ID":121905,"DIS_CODE":0,"TOWNNAME":"麻豆區","LI":"南勢里","LIN":"3鄰","STREET":" ","SECT":" ","MAREA":"\u25A0帝\u25A0","LANE":" ","ALLEY":" ","HOUSE_NO":"２２號之８","E_COORD97":173998.82000000001,"N_COORD97":2565538.3500000001,"ADDRESS":"\u25A0帝\u25A0２２號之８","OBJECTID":121905},"geometry":{"x":173998.82000000216,"y":2565538.3500000015}},{"attributes":{"ID":121906,"DIS_CODE":0,"TOWNNAME":"麻豆區","LI":"南勢里","LIN":"3鄰","STREET":" ","SECT":" ","MAREA":"\u25A0帝\u25A0","LANE":" ","ALLEY":" ","HOUSE_NO":"２２號","E_COORD97":173864.78,"N_COORD97":2565517.2799999998,"ADDRESS":"\u25A0帝\u25A0２２號","OBJECTID":121906},"geometry":{"x":173864.78000000026,"y":2565517.2800000012}},{"attributes":{"ID":121907,"DIS_CODE":0,"TOWNNAME":"麻豆區","LI":"南勢里","LIN":"3鄰","STREET":" ","SECT":" ","MAREA":"\u25A0帝\u25A0","LANE":" ","ALLEY":" ","HOUSE_NO":"２３號之１０","E_COORD97":174121.60000000001,"N_COORD97":2565594.5699999998,"ADDRESS":"\u25A0帝\u25A0２３號之１０","OBJECTID":121907},"geometry":{"x":174121.60000000149,"y":2565594.5700000022}},{"attributes":{"ID":121908,"DIS_CODE":0,"TOWNNAME":"麻豆區","LI":"南勢里","LIN":"3鄰","STREET":" ","SECT":" ","MAREA":"\u25A0帝\u25A0","LANE":" ","ALLEY":" ","HOUSE_NO":"２３號之１３","E_COORD97":174183.14000000001,"N_COORD97":2565654.8300000001,"ADDRESS":"\u25A0帝\u25A0２３號之１３","OBJECTID":121908},"geometry":{"x":174183.1400000006,"y":2565654.8300000001}},{"attributes":{"ID":121909,"DIS_CODE":0,"TOWNNAME":"麻豆區","LI":"南勢里","LIN":"3鄰","STREET":" ","SECT":" ","MAREA":"\u25A0帝\u25A0","LANE":" ","ALLEY":" ","HOUSE_NO":"２３號之１５","E_COORD97":174110.53,"N_COORD97":2565661.0499999998,"ADDRESS":"\u25A0帝\u25A0２３號之１５","OBJECTID":121909},"geometry":{"x":174110.53000000026,"y":2565661.0500000007}},{"attributes":{"ID":121910,"DIS_CODE":0,"TOWNNAME":"麻豆區","LI":"南勢里","LIN":"3鄰","STREET":" ","SECT":" ","MAREA":"\u25A0帝\u25A0","LANE":" ","ALLEY":" ","HOUSE_NO":"２３號之２０","E_COORD97":174064.23000000001,"N_COORD97":2565599.02,"ADDRESS":"\u25A0帝\u25A0２３號之２０","OBJECTID":121910},"geometry":{"x":174064.23000000138,"y":2565599.0199999996}},{"attributes":{"ID":121911,"DIS_CODE":0,"TOWNNAME":"麻豆區","LI":"南勢里","LIN":"3鄰","STREET":" ","SECT":" ","MAREA":"\u25A0帝\u25A0","LANE":" ","ALLEY":" ","HOUSE_NO":"２３號之２１","E_COORD97":174011.38,"N_COORD97":2565645.3199999998,"ADDRESS":"\u25A0帝\u25A0２３號之２１","OBJECTID":121911},"geometry":{"x":174011.37999999989,"y":2565645.3200000003}},{"attributes":{"ID":121912,"DIS_CODE":0,"TOWNNAME":"麻豆區","LI":"南勢里","LIN":"3鄰","STREET":" ","SECT":" ","MAREA":"\u25A0帝\u25A0","LANE":" ","ALLEY":" ","HOUSE_NO":"２３號之２２","E_COORD97":174010.63,"N_COORD97":2565594.6299999999,"ADDRESS":"\u25A0帝\u25A0２３號之２２","OBJECTID":121912},"geometry":{"x":174010.63000000082,"y":2565594.629999999}},{"attributes":{"ID":121913,"DIS_CODE":0,"TOWNNAME":"麻豆區","LI":"南勢里","LIN":"3鄰","STREET":" ","SECT":" ","MAREA":"\u25A0帝\u25A0","LANE":" ","ALLEY":" ","HOUSE_NO":"２３號之２５","E_COORD97":174071.98999999999,"N_COORD97":2565712.1699999999,"ADDRESS":"\u25A0帝\u25A0２３號之２５","OBJECTID":121913},"geometry":{"x":174071.99000000022,"y":2565712.1700000018}},{"attributes":{"ID":121914,"DIS_CODE":0,"TOWNNAME":"麻豆區","LI":"南勢里","LIN":"3鄰","STREET":" ","SECT":" ","MAREA":"\u25A0帝\u25A0","LANE":" ","ALLEY":" ","HOUSE_NO":"２３號之２６","E_COORD97":173992,"N_COORD97":2565598.54,"ADDRESS":"\u25A0帝\u25A0２３號之２６","OBJECTID":121914},"geometry":{"x":173992,"y":2565598.5399999991}},{"attributes":{"ID":121915,"DIS_CODE":0,"TOWNNAME":"麻豆區","LI":"南勢里","LIN":"3鄰","STREET":" ","SECT":" ","MAREA":"\u25A0帝\u25A0","LANE":" ","ALLEY":" ","HOUSE_NO":"２３號之２７","E_COORD97":174146.29000000001,"N_COORD97":2565755.8599999999,"ADDRESS":"\u25A0帝\u25A0２３號之２７","OBJECTID":121915},"geometry":{"x":174146.2900000019,"y":2565755.8599999994}},{"attributes":{"ID":121916,"DIS_CODE":0,"TOWNNAME":"麻豆區","LI":"南勢里","LIN":"3鄰","STREET":" ","SECT":" ","MAREA":"\u25A0帝\u25A0","LANE":" ","ALLEY":" ","HOUSE_NO":"２３號之２８","E_COORD97":174154.51000000001,"N_COORD97":2565762.2599999998,"ADDRESS":"\u25A0帝\u25A0２３號之２８","OBJECTID":121916},"geometry":{"x":174154.50999999885,"y":2565762.2600000016}},{"attributes":{"ID":121917,"DIS_CODE":0,"TOWNNAME":"麻豆區","LI":"南勢里","LIN":"3鄰","STREET":" ","SECT":" ","MAREA":"\u25A0帝\u25A0","LANE":" ","ALLEY":" ","HOUSE_NO":"２３號之２９","E_COORD97":174251.76000000001,"N_COORD97":2565735.5,"ADDRESS":"\u25A0帝\u25A0２３號之２９","OBJECTID":121917},"geometry":{"x":174251.76000000071,"y":2565735.5}},{"attributes":{"ID":121918,"DIS_CODE":0,"TOWNNAME":"麻豆區","LI":"南勢里","LIN":"3鄰","STREET":" ","SECT":" ","MAREA":"\u25A0帝\u25A0","LANE":" ","ALLEY":" ","HOUSE_NO":"２３號之２","E_COORD97":173930.73000000001,"N_COORD97":2565605.29,"ADDRESS":"\u25A0帝\u25A0２３號之２","OBJECTID":121918},"geometry":{"x":173930.73000000138,"y":2565605.290000001}},{"attributes":{"ID":121919,"DIS_CODE":0,"TOWNNAME":"玉井區","LI":"望明里","LIN":"8鄰","STREET":" ","SECT":" ","MAREA":"公\u25A0","LANE":" ","ALLEY":" ","HOUSE_NO":"２９號","E_COORD97":193907.57000000001,"N_COORD97":2556581.25,"ADDRESS":"公\u25A0２９號","OBJECTID":121919},"geometry":{"x":193907.57000000123,"y":2556581.2500000019}},{"attributes":{"ID":121920,"DIS_CODE":0,"TOWNNAME":"麻豆區","LI":"南勢里","LIN":"3鄰","STREET":" ","SECT":" ","MAREA":"\u25A0帝\u25A0","LANE":" ","ALLEY":" ","HOUSE_NO":"２３號之３０","E_COORD97":174258.56,"N_COORD97":2565714.4300000002,"ADDRESS":"\u25A0帝\u25A0２３號之３０","OBJECTID":121920},"geometry":{"x":174258.55999999959,"y":2565714.4299999997}},{"attributes":{"ID":121921,"DIS_CODE":0,"TOWNNAME":"白河區","LI":"草店里","LIN":" ","STREET":" ","SECT":" ","MAREA":"草店","LANE":" ","ALLEY":" ","HOUSE_NO":"６８之１號","E_COORD97":192071.35999999999,"N_COORD97":2587580.9199999999,"ADDRESS":"草店６８之１號","OBJECTID":121921},"geometry":{"x":192071.36000000127,"y":2587580.9200000037}},{"attributes":{"ID":121922,"DIS_CODE":0,"TOWNNAME":"麻豆區","LI":"南勢里","LIN":"3鄰","STREET":" ","SECT":" ","MAREA":"\u25A0帝\u25A0","LANE":" ","ALLEY":" ","HOUSE_NO":"２３號之３","E_COORD97":173830.88,"N_COORD97":2565594.4500000002,"ADDRESS":"\u25A0帝\u25A0２３號之３","OBJECTID":121922},"geometry":{"x":173830.88000000082,"y":2565594.4500000011}},{"attributes":{"ID":121923,"DIS_CODE":0,"TOWNNAME":"麻豆區","LI":"南勢里","LIN":"3鄰","STREET":" ","SECT":" ","MAREA":"\u25A0帝\u25A0","LANE":" ","ALLEY":" ","HOUSE_NO":"２３號之４","E_COORD97":174047.32999999999,"N_COORD97":2565602.3799999999,"ADDRESS":"\u25A0帝\u25A0２３號之４","OBJECTID":121923},"geometry":{"x":174047.33000000007,"y":2565602.379999999}},{"attributes":{"ID":121924,"DIS_CODE":0,"TOWNNAME":"麻豆區","LI":"南勢里","LIN":"3鄰","STREET":" ","SECT":" ","MAREA":"\u25A0帝\u25A0","LANE":" ","ALLEY":" ","HOUSE_NO":"２３號之５","E_COORD97":174084.10000000001,"N_COORD97":2565590.6299999999,"ADDRESS":"\u25A0帝\u25A0２３號之５","OBJECTID":121924},"geometry":{"x":174084.09999999963,"y":2565590.629999999}},{"attributes":{"ID":121925,"DIS_CODE":0,"TOWNNAME":"麻豆區","LI":"南勢里","LIN":"3鄰","STREET":" ","SECT":" ","MAREA":"\u25A0帝\u25A0","LANE":" ","ALLEY":" ","HOUSE_NO":"２３號之９","E_COORD97":174130.10999999999,"N_COORD97":2565588.5099999998,"ADDRESS":"\u25A0帝\u25A0２３號之９","OBJECTID":121925},"geometry":{"x":174130.11000000034,"y":2565588.5099999998}},{"attributes":{"ID":121926,"DIS_CODE":0,"TOWNNAME":"麻豆區","LI":"南勢里","LIN":"3鄰","STREET":" ","SECT":" ","MAREA":"\u25A0帝\u25A0","LANE":" ","ALLEY":" ","HOUSE_NO":"２３號","E_COORD97":173796.01999999999,"N_COORD97":2565557.8599999999,"ADDRESS":"\u25A0帝\u25A0２３號","OBJECTID":121926},"geometry":{"x":173796.01999999955,"y":2565557.8600000013}},{"attributes":{"ID":121927,"DIS_CODE":0,"TOWNNAME":"麻豆區","LI":"南勢里","LIN":"1鄰","STREET":" ","SECT":" ","MAREA":"\u25A0帝\u25A0","LANE":" ","ALLEY":" ","HOUSE_NO":"１０號","E_COORD97":173656.42000000001,"N_COORD97":2565860.4300000002,"ADDRESS":"\u25A0帝\u25A0１０號","OBJECTID":121927},"geometry":{"x":173656.41999999993,"y":2565860.4299999997}},{"attributes":{"ID":121928,"DIS_CODE":0,"TOWNNAME":"麻豆區","LI":"南勢里","LIN":"1鄰","STREET":" ","SECT":" ","MAREA":"\u25A0帝\u25A0","LANE":" ","ALLEY":" ","HOUSE_NO":"１號之３","E_COORD97":173502.85999999999,"N_COORD97":2565816.0299999998,"ADDRESS":"\u25A0帝\u25A0１號之３","OBJECTID":121928},"geometry":{"x":173502.86000000034,"y":2565816.0299999993}},{"attributes":{"ID":121929,"DIS_CODE":0,"TOWNNAME":"麻豆區","LI":"南勢里","LIN":"1鄰","STREET":" ","SECT":" ","MAREA":"\u25A0帝\u25A0","LANE":" ","ALLEY":" ","HOUSE_NO":"１號之６","E_COORD97":173507.29999999999,"N_COORD97":2565827.9900000002,"ADDRESS":"\u25A0帝\u25A0１號之６","OBJECTID":121929},"geometry":{"x":173507.30000000075,"y":2565827.9900000039}},{"attributes":{"ID":121930,"DIS_CODE":0,"TOWNNAME":"麻豆區","LI":"南勢里","LIN":"1鄰","STREET":" ","SECT":" ","MAREA":"\u25A0帝\u25A0","LANE":" ","ALLEY":" ","HOUSE_NO":"１號之７","E_COORD97":173498.01000000001,"N_COORD97":2565806.8900000001,"ADDRESS":"\u25A0帝\u25A0１號之７","OBJECTID":121930},"geometry":{"x":173498.00999999978,"y":2565806.8900000025}},{"attributes":{"ID":121931,"DIS_CODE":0,"TOWNNAME":"麻豆區","LI":"南勢里","LIN":"1鄰","STREET":" ","SECT":" ","MAREA":"\u25A0帝\u25A0","LANE":" ","ALLEY":" ","HOUSE_NO":"２號之１","E_COORD97":173493.07000000001,"N_COORD97":2565906.0800000001,"ADDRESS":"\u25A0帝\u25A0２號之１","OBJECTID":121931},"geometry":{"x":173493.0700000003,"y":2565906.0800000019}},{"attributes":{"ID":121932,"DIS_CODE":0,"TOWNNAME":"麻豆區","LI":"南勢里","LIN":"1鄰","STREET":" ","SECT":" ","MAREA":"\u25A0帝\u25A0","LANE":" ","ALLEY":" ","HOUSE_NO":"２號之３","E_COORD97":173482.57000000001,"N_COORD97":2565888.1400000001,"ADDRESS":"\u25A0帝\u25A0２號之３","OBJECTID":121932},"geometry":{"x":173482.57000000123,"y":2565888.1400000006}},{"attributes":{"ID":121933,"DIS_CODE":0,"TOWNNAME":"麻豆區","LI":"南勢里","LIN":"1鄰","STREET":" ","SECT":" ","MAREA":"\u25A0帝\u25A0","LANE":" ","ALLEY":" ","HOUSE_NO":"２號","E_COORD97":173509.75,"N_COORD97":2565852.1400000001,"ADDRESS":"\u25A0帝\u25A0２號","OBJECTID":121933},"geometry":{"x":173509.75000000093,"y":2565852.1400000025}},{"attributes":{"ID":121934,"DIS_CODE":0,"TOWNNAME":"麻豆區","LI":"南勢里","LIN":"1鄰","STREET":" ","SECT":" ","MAREA":"\u25A0帝\u25A0","LANE":" ","ALLEY":" ","HOUSE_NO":"６號","E_COORD97":173538.98999999999,"N_COORD97":2565820.1499999999,"ADDRESS":"\u25A0帝\u25A0６號","OBJECTID":121934},"geometry":{"x":173538.99000000115,"y":2565820.1499999985}},{"attributes":{"ID":121935,"DIS_CODE":0,"TOWNNAME":"麻豆區","LI":"南勢里","LIN":"1鄰","STREET":" ","SECT":" ","MAREA":"\u25A0帝\u25A0","LANE":" ","ALLEY":" ","HOUSE_NO":"３號之１","E_COORD97":173535.17999999999,"N_COORD97":2565849.3799999999,"ADDRESS":"\u25A0帝\u25A0３號之１","OBJECTID":121935},"geometry":{"x":173535.18000000063,"y":2565849.3800000008}},{"attributes":{"ID":121936,"DIS_CODE":0,"TOWNNAME":"麻豆區","LI":"南勢里","LIN":"1鄰","STREET":" ","SECT":" ","MAREA":"\u25A0帝\u25A0","LANE":" ","ALLEY":" ","HOUSE_NO":"３號之２","E_COORD97":173532.44,"N_COORD97":2565858.3399999999,"ADDRESS":"\u25A0帝\u25A0３號之２","OBJECTID":121936},"geometry":{"x":173532.44000000134,"y":2565858.3399999999}},{"attributes":{"ID":121937,"DIS_CODE":0,"TOWNNAME":"麻豆區","LI":"南勢里","LIN":"1鄰","STREET":" ","SECT":" ","MAREA":"\u25A0帝\u25A0","LANE":" ","ALLEY":" ","HOUSE_NO":"３號","E_COORD97":173530.57999999999,"N_COORD97":2565865.3100000001,"ADDRESS":"\u25A0帝\u25A0３號","OBJECTID":121937},"geometry":{"x":173530.58000000194,"y":2565865.3100000005}},{"attributes":{"ID":121938,"DIS_CODE":0,"TOWNNAME":"麻豆區","LI":"南勢里","LIN":"1鄰","STREET":" ","SECT":" ","MAREA":"\u25A0帝\u25A0","LANE":" ","ALLEY":" ","HOUSE_NO":"５號","E_COORD97":173536.32000000001,"N_COORD97":2565838.9100000001,"ADDRESS":"\u25A0帝\u25A0５號","OBJECTID":121938},"geometry":{"x":173536.32000000123,"y":2565838.9100000039}},{"attributes":{"ID":121939,"DIS_CODE":0,"TOWNNAME":"麻豆區","LI":"南勢里","LIN":"1鄰","STREET":" ","SECT":" ","MAREA":"\u25A0帝\u25A0","LANE":" ","ALLEY":" ","HOUSE_NO":"７號之１","E_COORD97":173547.31,"N_COORD97":2565768.2200000002,"ADDRESS":"\u25A0帝\u25A0７號之１","OBJECTID":121939},"geometry":{"x":173547.31000000145,"y":2565768.2200000007}},{"attributes":{"ID":121940,"DIS_CODE":0,"TOWNNAME":"麻豆區","LI":"南勢里","LIN":"1鄰","STREET":" ","SECT":" ","MAREA":"\u25A0帝\u25A0","LANE":" ","ALLEY":" ","HOUSE_NO":"７號之２","E_COORD97":173549.29000000001,"N_COORD97":2565746.6200000001,"ADDRESS":"\u25A0帝\u25A0７號之２","OBJECTID":121940},"geometry":{"x":173549.29000000004,"y":2565746.6200000048}},{"attributes":{"ID":121941,"DIS_CODE":0,"TOWNNAME":"麻豆區","LI":"南勢里","LIN":"1鄰","STREET":" ","SECT":" ","MAREA":"\u25A0帝\u25A0","LANE":" ","ALLEY":" ","HOUSE_NO":"８號","E_COORD97":173584.10999999999,"N_COORD97":2565800.0699999998,"ADDRESS":"\u25A0帝\u25A0８號","OBJECTID":121941},"geometry":{"x":173584.11000000127,"y":2565800.0700000003}},{"attributes":{"ID":121942,"DIS_CODE":0,"TOWNNAME":"麻豆區","LI":"南勢里","LIN":"1鄰","STREET":" ","SECT":" ","MAREA":"\u25A0帝\u25A0","LANE":" ","ALLEY":" ","HOUSE_NO":"９號","E_COORD97":173576.23999999999,"N_COORD97":2565829.1600000001,"ADDRESS":"\u25A0帝\u25A0９號","OBJECTID":121942},"geometry":{"x":173576.24000000115,"y":2565829.1600000001}},{"attributes":{"ID":121943,"DIS_CODE":0,"TOWNNAME":"麻豆區","LI":"南勢里","LIN":"5鄰","STREET":" ","SECT":" ","MAREA":"\u25A0帝\u25A0","LANE":" ","ALLEY":" ","HOUSE_NO":"３０號之１","E_COORD97":173804.45000000001,"N_COORD97":2565217.71,"ADDRESS":"\u25A0帝\u25A0３０號之１","OBJECTID":121943},"geometry":{"x":173804.44999999925,"y":2565217.7100000028}},{"attributes":{"ID":121944,"DIS_CODE":0,"TOWNNAME":"麻豆區","LI":"南勢里","LIN":"5鄰","STREET":" ","SECT":" ","MAREA":"\u25A0帝\u25A0","LANE":" ","ALLEY":" ","HOUSE_NO":"３０號之２","E_COORD97":173793.31,"N_COORD97":2565202.8100000001,"ADDRESS":"\u25A0帝\u25A0３０號之２","OBJECTID":121944},"geometry":{"x":173793.31000000052,"y":2565202.8100000024}},{"attributes":{"ID":121945,"DIS_CODE":0,"TOWNNAME":"麻豆區","LI":"南勢里","LIN":"5鄰","STREET":" ","SECT":" ","MAREA":"\u25A0帝\u25A0","LANE":" ","ALLEY":" ","HOUSE_NO":"３０號","E_COORD97":173789.41,"N_COORD97":2565252.02,"ADDRESS":"\u25A0帝\u25A0３０號","OBJECTID":121945},"geometry":{"x":173789.41000000015,"y":2565252.0200000014}},{"attributes":{"ID":121946,"DIS_CODE":0,"TOWNNAME":"麻豆區","LI":"南勢里","LIN":"5鄰","STREET":" ","SECT":" ","MAREA":"\u25A0帝\u25A0","LANE":" ","ALLEY":" ","HOUSE_NO":"３１號之５","E_COORD97":173834.91,"N_COORD97":2565256.0699999998,"ADDRESS":"\u25A0帝\u25A0３１號之５","OBJECTID":121946},"geometry":{"x":173834.91000000015,"y":2565256.0700000022}},{"attributes":{"ID":121947,"DIS_CODE":0,"TOWNNAME":"麻豆區","LI":"南勢里","LIN":"5鄰","STREET":" ","SECT":" ","MAREA":"\u25A0帝\u25A0","LANE":" ","ALLEY":" ","HOUSE_NO":"３１號","E_COORD97":173826.97,"N_COORD97":2565245.3500000001,"ADDRESS":"\u25A0帝\u25A0３１號","OBJECTID":121947},"geometry":{"x":173826.96999999974,"y":2565245.3500000034}},{"attributes":{"ID":121948,"DIS_CODE":0,"TOWNNAME":"麻豆區","LI":"南勢里","LIN":"5鄰","STREET":" ","SECT":" ","MAREA":"\u25A0帝\u25A0","LANE":" ","ALLEY":" ","HOUSE_NO":"３２號之２４","E_COORD97":173930.92000000001,"N_COORD97":2565343.5499999998,"ADDRESS":"\u25A0帝\u25A0３２號之２４","OBJECTID":121948},"geometry":{"x":173930.91999999993,"y":2565343.5500000045}},{"attributes":{"ID":121949,"DIS_CODE":0,"TOWNNAME":"麻豆區","LI":"南勢里","LIN":"5鄰","STREET":" ","SECT":" ","MAREA":"\u25A0帝\u25A0","LANE":" ","ALLEY":" ","HOUSE_NO":"３２號之２６","E_COORD97":173937.39000000001,"N_COORD97":2565364.7000000002,"ADDRESS":"\u25A0帝\u25A0３２號之２６","OBJECTID":121949},"geometry":{"x":173937.3900000006,"y":2565364.700000003}},{"attributes":{"ID":121950,"DIS_CODE":0,"TOWNNAME":"麻豆區","LI":"南勢里","LIN":"5鄰","STREET":" ","SECT":" ","MAREA":"\u25A0帝\u25A0","LANE":" ","ALLEY":" ","HOUSE_NO":"３２號之５","E_COORD97":173861.85000000001,"N_COORD97":2565271.6200000001,"ADDRESS":"\u25A0帝\u25A0３２號之５","OBJECTID":121950},"geometry":{"x":173861.84999999963,"y":2565271.620000001}},{"attributes":{"ID":121951,"DIS_CODE":0,"TOWNNAME":"麻豆區","LI":"南勢里","LIN":"5鄰","STREET":" ","SECT":" ","MAREA":"\u25A0帝\u25A0","LANE":" ","ALLEY":" ","HOUSE_NO":"３２號之６","E_COORD97":173865.16,"N_COORD97":2565274.5899999999,"ADDRESS":"\u25A0帝\u25A0３２號之６","OBJECTID":121951},"geometry":{"x":173865.16000000015,"y":2565274.5900000036}},{"attributes":{"ID":121952,"DIS_CODE":0,"TOWNNAME":"麻豆區","LI":"南勢里","LIN":"5鄰","STREET":" ","SECT":" ","MAREA":"\u25A0帝\u25A0","LANE":" ","ALLEY":" ","HOUSE_NO":"３２號之７","E_COORD97":173869.17000000001,"N_COORD97":2565277.0899999999,"ADDRESS":"\u25A0帝\u25A0３２號之７","OBJECTID":121952},"geometry":{"x":173869.17000000086,"y":2565277.0899999999}},{"attributes":{"ID":121953,"DIS_CODE":0,"TOWNNAME":"麻豆區","LI":"南勢里","LIN":"5鄰","STREET":" ","SECT":" ","MAREA":"\u25A0帝\u25A0","LANE":" ","ALLEY":" ","HOUSE_NO":"３２號","E_COORD97":173849.22,"N_COORD97":2565256.96,"ADDRESS":"\u25A0帝\u25A0３２號","OBJECTID":121953},"geometry":{"x":173849.21999999974,"y":2565256.9600000028}},{"attributes":{"ID":121954,"DIS_CODE":0,"TOWNNAME":"麻豆區","LI":"南勢里","LIN":"8鄰","STREET":" ","SECT":" ","MAREA":"\u25A0帝\u25A0","LANE":" ","ALLEY":" ","HOUSE_NO":"５１號之１０","E_COORD97":174021.23999999999,"N_COORD97":2565424.46,"ADDRESS":"\u25A0帝\u25A0５１號之１０","OBJECTID":121954},"geometry":{"x":174021.23999999929,"y":2565424.4600000009}},{"attributes":{"ID":121955,"DIS_CODE":0,"TOWNNAME":"麻豆區","LI":"南勢里","LIN":"8鄰","STREET":" ","SECT":" ","MAREA":"\u25A0帝\u25A0","LANE":" ","ALLEY":" ","HOUSE_NO":"５１號之１１","E_COORD97":174133.51000000001,"N_COORD97":2565482.7200000002,"ADDRESS":"\u25A0帝\u25A0５１號之１１","OBJECTID":121955},"geometry":{"x":174133.50999999978,"y":2565482.7200000025}},{"attributes":{"ID":121956,"DIS_CODE":0,"TOWNNAME":"麻豆區","LI":"南勢里","LIN":"8鄰","STREET":" ","SECT":" ","MAREA":"\u25A0帝\u25A0","LANE":" ","ALLEY":" ","HOUSE_NO":"５１號之２","E_COORD97":174141.88,"N_COORD97":2565470.2599999998,"ADDRESS":"\u25A0帝\u25A0５１號之２","OBJECTID":121956},"geometry":{"x":174141.87999999989,"y":2565470.2600000016}},{"attributes":{"ID":121957,"DIS_CODE":0,"TOWNNAME":"麻豆區","LI":"南勢里","LIN":"8鄰","STREET":" ","SECT":" ","MAREA":"\u25A0帝\u25A0","LANE":" ","ALLEY":" ","HOUSE_NO":"５１號之３","E_COORD97":174146.60999999999,"N_COORD97":2565471.3199999998,"ADDRESS":"\u25A0帝\u25A0５１號之３","OBJECTID":121957},"geometry":{"x":174146.61000000127,"y":2565471.3200000022}},{"attributes":{"ID":121958,"DIS_CODE":0,"TOWNNAME":"麻豆區","LI":"南勢里","LIN":"8鄰","STREET":" ","SECT":" ","MAREA":"\u25A0帝\u25A0","LANE":" ","ALLEY":" ","HOUSE_NO":"５１號之５","E_COORD97":174010.95000000001,"N_COORD97":2565421.8700000001,"ADDRESS":"\u25A0帝\u25A0５１號之５","OBJECTID":121958},"geometry":{"x":174010.95000000019,"y":2565421.870000001}},{"attributes":{"ID":121959,"DIS_CODE":0,"TOWNNAME":"麻豆區","LI":"南勢里","LIN":"8鄰","STREET":" ","SECT":" ","MAREA":"\u25A0帝\u25A0","LANE":" ","ALLEY":" ","HOUSE_NO":"５１號之６","E_COORD97":174117.67999999999,"N_COORD97":2565480.8500000001,"ADDRESS":"\u25A0帝\u25A0５１號之６","OBJECTID":121959},"geometry":{"x":174117.67999999877,"y":2565480.8500000015}},{"attributes":{"ID":121960,"DIS_CODE":0,"TOWNNAME":"麻豆區","LI":"南勢里","LIN":"8鄰","STREET":" ","SECT":" ","MAREA":"\u25A0帝\u25A0","LANE":" ","ALLEY":" ","HOUSE_NO":"５１號之８","E_COORD97":174128.97,"N_COORD97":2565461.1800000002,"ADDRESS":"\u25A0帝\u25A0５１號之８","OBJECTID":121960},"geometry":{"x":174128.96999999974,"y":2565461.1800000016}},{"attributes":{"ID":121961,"DIS_CODE":0,"TOWNNAME":"麻豆區","LI":"南勢里","LIN":"8鄰","STREET":" ","SECT":" ","MAREA":"\u25A0帝\u25A0","LANE":" ","ALLEY":" ","HOUSE_NO":"５１號之９","E_COORD97":174016.85000000001,"N_COORD97":2565423.3700000001,"ADDRESS":"\u25A0帝\u25A0５１號之９","OBJECTID":121961},"geometry":{"x":174016.85000000056,"y":2565423.3700000029}},{"attributes":{"ID":121962,"DIS_CODE":0,"TOWNNAME":"麻豆區","LI":"南勢里","LIN":"8鄰","STREET":" ","SECT":" ","MAREA":"\u25A0帝\u25A0","LANE":" ","ALLEY":" ","HOUSE_NO":"５１號","E_COORD97":174029.31,"N_COORD97":2565427.3500000001,"ADDRESS":"\u25A0帝\u25A0５１號","OBJECTID":121962},"geometry":{"x":174029.31000000052,"y":2565427.3499999996}},{"attributes":{"ID":121963,"DIS_CODE":0,"TOWNNAME":"麻豆區","LI":"南勢里","LIN":"8鄰","STREET":" ","SECT":" ","MAREA":"\u25A0帝\u25A0","LANE":" ","ALLEY":" ","HOUSE_NO":"５２號","E_COORD97":174037.70000000001,"N_COORD97":2565460.1800000002,"ADDRESS":"\u25A0帝\u25A0５２號","OBJECTID":121963},"geometry":{"x":174037.70000000019,"y":2565460.1800000034}},{"attributes":{"ID":121964,"DIS_CODE":0,"TOWNNAME":"麻豆區","LI":"南勢里","LIN":"8鄰","STREET":" ","SECT":" ","MAREA":"\u25A0帝\u25A0","LANE":" ","ALLEY":" ","HOUSE_NO":"５４號","E_COORD97":174052.17999999999,"N_COORD97":2565550.9199999999,"ADDRESS":"\u25A0帝\u25A0５４號","OBJECTID":121964},"geometry":{"x":174052.18000000063,"y":2565550.9200000018}},{"attributes":{"ID":121965,"DIS_CODE":0,"TOWNNAME":"麻豆區","LI":"南勢里","LIN":"8鄰","STREET":" ","SECT":" ","MAREA":"\u25A0帝\u25A0","LANE":" ","ALLEY":" ","HOUSE_NO":"５５號之２","E_COORD97":174144.45000000001,"N_COORD97":2565564.2400000002,"ADDRESS":"\u25A0帝\u25A0５５號之２","OBJECTID":121965},"geometry":{"x":174144.45000000112,"y":2565564.2400000002}},{"attributes":{"ID":121966,"DIS_CODE":0,"TOWNNAME":"麻豆區","LI":"南勢里","LIN":"8鄰","STREET":" ","SECT":" ","MAREA":"\u25A0帝\u25A0","LANE":" ","ALLEY":" ","HOUSE_NO":"５５號之３","E_COORD97":174130.54000000001,"N_COORD97":2565565.6899999999,"ADDRESS":"\u25A0帝\u25A0５５號之３","OBJECTID":121966},"geometry":{"x":174130.54000000004,"y":2565565.6900000013}},{"attributes":{"ID":121967,"DIS_CODE":0,"TOWNNAME":"麻豆區","LI":"南勢里","LIN":"8鄰","STREET":" ","SECT":" ","MAREA":"\u25A0帝\u25A0","LANE":" ","ALLEY":" ","HOUSE_NO":"５７號之１","E_COORD97":174077.82000000001,"N_COORD97":2565384.2000000002,"ADDRESS":"\u25A0帝\u25A0５７號之１","OBJECTID":121967},"geometry":{"x":174077.8200000003,"y":2565384.1999999993}},{"attributes":{"ID":121968,"DIS_CODE":0,"TOWNNAME":"麻豆區","LI":"南勢里","LIN":"8鄰","STREET":" ","SECT":" ","MAREA":"\u25A0帝\u25A0","LANE":" ","ALLEY":" ","HOUSE_NO":"５７號","E_COORD97":174115.95999999999,"N_COORD97":2565423.3900000001,"ADDRESS":"\u25A0帝\u25A0５７號","OBJECTID":121968},"geometry":{"x":174115.95999999996,"y":2565423.3900000025}},{"attributes":{"ID":121969,"DIS_CODE":0,"TOWNNAME":"麻豆區","LI":"南勢里","LIN":"8鄰","STREET":" ","SECT":" ","MAREA":"\u25A0帝\u25A0","LANE":" ","ALLEY":" ","HOUSE_NO":"５８號之１１","E_COORD97":174198.22668200001,"N_COORD97":2565472.6379999998,"ADDRESS":"\u25A0帝\u25A0５８號之１１","OBJECTID":121969},"geometry":{"x":174198.22668199986,"y":2565472.6380030029}},{"attributes":{"ID":121970,"DIS_CODE":0,"TOWNNAME":"新市區","LI":"大營里","LIN":"5鄰","STREET":" ","SECT":" ","MAREA":"大營","LANE":" ","ALLEY":" ","HOUSE_NO":"８２之６號","E_COORD97":179555.29000000001,"N_COORD97":2555440.2999999998,"ADDRESS":"大營８２之６號","OBJECTID":121970},"geometry":{"x":179555.29000000004,"y":2555440.3000000007}},{"attributes":{"ID":121971,"DIS_CODE":0,"TOWNNAME":"新市區","LI":"大社里","LIN":"25鄰","STREET":" ","SECT":" ","MAREA":"大社","LANE":" ","ALLEY":" ","HOUSE_NO":"９１６號","E_COORD97":179967.76000000001,"N_COORD97":2554088,"ADDRESS":"大社９１６號","OBJECTID":121971},"geometry":{"x":179967.76000000071,"y":2554088.0000000019}},{"attributes":{"ID":121972,"DIS_CODE":0,"TOWNNAME":"麻豆區","LI":"南勢里","LIN":"8鄰","STREET":" ","SECT":" ","MAREA":"\u25A0帝\u25A0","LANE":" ","ALLEY":" ","HOUSE_NO":"５８號之４","E_COORD97":174218.89000000001,"N_COORD97":2565461.1899999999,"ADDRESS":"\u25A0帝\u25A0５８號之４","OBJECTID":121972},"geometry":{"x":174218.8900000006,"y":2565461.1900000013}},{"attributes":{"ID":121973,"DIS_CODE":0,"TOWNNAME":"麻豆區","LI":"南勢里","LIN":"8鄰","STREET":" ","SECT":" ","MAREA":"\u25A0帝\u25A0","LANE":" ","ALLEY":" ","HOUSE_NO":"５８號之５","E_COORD97":174215.87,"N_COORD97":2565463,"ADDRESS":"\u25A0帝\u25A0５８號之５","OBJECTID":121973},"geometry":{"x":174215.87000000104,"y":2565463.0000000019}},{"attributes":{"ID":121974,"DIS_CODE":0,"TOWNNAME":"麻豆區","LI":"南勢里","LIN":"8鄰","STREET":" ","SECT":" ","MAREA":"\u25A0帝\u25A0","LANE":" ","ALLEY":" ","HOUSE_NO":"５８號之７","E_COORD97":174210.09187800001,"N_COORD97":2565469.6746700001,"ADDRESS":"\u25A0帝\u25A0５８號之７","OBJECTID":121974},"geometry":{"x":174210.09187799972,"y":2565469.6746709999}},{"attributes":{"ID":121975,"DIS_CODE":0,"TOWNNAME":"麻豆區","LI":"南勢里","LIN":"8鄰","STREET":" ","SECT":" ","MAREA":"\u25A0帝\u25A0","LANE":" ","ALLEY":" ","HOUSE_NO":"５８號之８","E_COORD97":174205.64243000001,"N_COORD97":2565473.4846700002,"ADDRESS":"\u25A0帝\u25A0５８號之８","OBJECTID":121975},"geometry":{"x":174205.64243000094,"y":2565473.4846689999}},{"attributes":{"ID":121976,"DIS_CODE":0,"TOWNNAME":"麻豆區","LI":"南勢里","LIN":"8鄰","STREET":" ","SECT":" ","MAREA":"\u25A0帝\u25A0","LANE":" ","ALLEY":" ","HOUSE_NO":"５８號","E_COORD97":174213.64999999999,"N_COORD97":2565424.8199999998,"ADDRESS":"\u25A0帝\u25A0５８號","OBJECTID":121976},"geometry":{"x":174213.65000000224,"y":2565424.8200000003}},{"attributes":{"ID":121977,"DIS_CODE":0,"TOWNNAME":"麻豆區","LI":"南勢里","LIN":"8鄰","STREET":" ","SECT":" ","MAREA":"\u25A0帝\u25A0","LANE":" ","ALLEY":" ","HOUSE_NO":"５９號之６","E_COORD97":174215.63,"N_COORD97":2565410.5800000001,"ADDRESS":"\u25A0帝\u25A0５９號之６","OBJECTID":121977},"geometry":{"x":174215.63000000082,"y":2565410.5800000019}},{"attributes":{"ID":121978,"DIS_CODE":0,"TOWNNAME":"麻豆區","LI":"南勢里","LIN":"8鄰","STREET":" ","SECT":" ","MAREA":"\u25A0帝\u25A0","LANE":" ","ALLEY":" ","HOUSE_NO":"５９號","E_COORD97":174220,"N_COORD97":2565386.3100000001,"ADDRESS":"\u25A0帝\u25A0５９號","OBJECTID":121978},"geometry":{"x":174220.00000000093,"y":2565386.3100000024}},{"attributes":{"ID":121979,"DIS_CODE":0,"TOWNNAME":"麻豆區","LI":"南勢里","LIN":"9鄰","STREET":" ","SECT":" ","MAREA":"\u25A0帝\u25A0","LANE":" ","ALLEY":" ","HOUSE_NO":"６１號","E_COORD97":174081.73999999999,"N_COORD97":2565197.8500000001,"ADDRESS":"\u25A0帝\u25A0６１號","OBJECTID":121979},"geometry":{"x":174081.74000000022,"y":2565197.8500000034}},{"attributes":{"ID":121980,"DIS_CODE":0,"TOWNNAME":"麻豆區","LI":"南勢里","LIN":"9鄰","STREET":" ","SECT":" ","MAREA":"\u25A0帝\u25A0","LANE":" ","ALLEY":" ","HOUSE_NO":"６２號之１０","E_COORD97":174446.20000000001,"N_COORD97":2565842,"ADDRESS":"\u25A0帝\u25A0６２號之１０","OBJECTID":121980},"geometry":{"x":174446.20000000112,"y":2565842.0000000019}},{"attributes":{"ID":121981,"DIS_CODE":0,"TOWNNAME":"麻豆區","LI":"南勢里","LIN":"9鄰","STREET":" ","SECT":" ","MAREA":"\u25A0帝\u25A0","LANE":" ","ALLEY":" ","HOUSE_NO":"６２號之１１","E_COORD97":174446.64999999999,"N_COORD97":2565846.3799999999,"ADDRESS":"\u25A0帝\u25A0６２號之１１","OBJECTID":121981},"geometry":{"x":174446.6500000013,"y":2565846.379999999}},{"attributes":{"ID":121982,"DIS_CODE":0,"TOWNNAME":"麻豆區","LI":"南勢里","LIN":"9鄰","STREET":" ","SECT":" ","MAREA":"\u25A0帝\u25A0","LANE":" ","ALLEY":" ","HOUSE_NO":"６２號之１２","E_COORD97":174447.60999999999,"N_COORD97":2565850.98,"ADDRESS":"\u25A0帝\u25A0６２號之１２","OBJECTID":121982},"geometry":{"x":174447.61000000034,"y":2565850.9800000004}},{"attributes":{"ID":121983,"DIS_CODE":0,"TOWNNAME":"麻豆區","LI":"南勢里","LIN":"9鄰","STREET":" ","SECT":" ","MAREA":"\u25A0帝\u25A0","LANE":" ","ALLEY":" ","HOUSE_NO":"６２號之１３","E_COORD97":174448.98000000001,"N_COORD97":2565855.77,"ADDRESS":"\u25A0帝\u25A0６２號之１３","OBJECTID":121983},"geometry":{"x":174448.98000000138,"y":2565855.7699999977}},{"attributes":{"ID":121984,"DIS_CODE":0,"TOWNNAME":"麻豆區","LI":"南勢里","LIN":"9鄰","STREET":" ","SECT":" ","MAREA":"\u25A0帝\u25A0","LANE":" ","ALLEY":" ","HOUSE_NO":"６２號之１４","E_COORD97":174449.78,"N_COORD97":2565860.77,"ADDRESS":"\u25A0帝\u25A0６２號之１４","OBJECTID":121984},"geometry":{"x":174449.78000000026,"y":2565860.7700000014}},{"attributes":{"ID":121985,"DIS_CODE":0,"TOWNNAME":"麻豆區","LI":"南勢里","LIN":"9鄰","STREET":" ","SECT":" ","MAREA":"\u25A0帝\u25A0","LANE":" ","ALLEY":" ","HOUSE_NO":"６２號之１５","E_COORD97":174450.39999999999,"N_COORD97":2565867.7599999998,"ADDRESS":"\u25A0帝\u25A0６２號之１５","OBJECTID":121985},"geometry":{"x":174450.40000000037,"y":2565867.7600000016}},{"attributes":{"ID":121986,"DIS_CODE":0,"TOWNNAME":"麻豆區","LI":"南勢里","LIN":"9鄰","STREET":" ","SECT":" ","MAREA":"\u25A0帝\u25A0","LANE":" ","ALLEY":" ","HOUSE_NO":"６２號之２５","E_COORD97":174451.16,"N_COORD97":2565923,"ADDRESS":"\u25A0帝\u25A0６２號之２５","OBJECTID":121986},"geometry":{"x":174451.16000000108,"y":2565923.0000000019}},{"attributes":{"ID":121987,"DIS_CODE":0,"TOWNNAME":"麻豆區","LI":"南勢里","LIN":"9鄰","STREET":" ","SECT":" ","MAREA":"\u25A0帝\u25A0","LANE":" ","ALLEY":" ","HOUSE_NO":"６２號之２８","E_COORD97":174462.23000000001,"N_COORD97":2565937.77,"ADDRESS":"\u25A0帝\u25A0６２號之２８","OBJECTID":121987},"geometry":{"x":174462.23000000045,"y":2565937.7700000014}},{"attributes":{"ID":121988,"DIS_CODE":0,"TOWNNAME":"麻豆區","LI":"南勢里","LIN":"9鄰","STREET":" ","SECT":" ","MAREA":"\u25A0帝\u25A0","LANE":" ","ALLEY":" ","HOUSE_NO":"６２號之３","E_COORD97":174406.59,"N_COORD97":2565670.5600000001,"ADDRESS":"\u25A0帝\u25A0６２號之３","OBJECTID":121988},"geometry":{"x":174406.58999999985,"y":2565670.5600000005}},{"attributes":{"ID":121989,"DIS_CODE":0,"TOWNNAME":"麻豆區","LI":"南勢里","LIN":"9鄰","STREET":" ","SECT":" ","MAREA":"\u25A0帝\u25A0","LANE":" ","ALLEY":" ","HOUSE_NO":"６２號之４","E_COORD97":174430.28,"N_COORD97":2565731.4199999999,"ADDRESS":"\u25A0帝\u25A0６２號之４","OBJECTID":121989},"geometry":{"x":174430.28000000119,"y":2565731.4200000018}},{"attributes":{"ID":121990,"DIS_CODE":0,"TOWNNAME":"麻豆區","LI":"南勢里","LIN":"9鄰","STREET":" ","SECT":" ","MAREA":"\u25A0帝\u25A0","LANE":" ","ALLEY":" ","HOUSE_NO":"６２號之５","E_COORD97":174433.47,"N_COORD97":2565740.3900000001,"ADDRESS":"\u25A0帝\u25A0６２號之５","OBJECTID":121990},"geometry":{"x":174433.47000000067,"y":2565740.3900000006}},{"attributes":{"ID":121991,"DIS_CODE":0,"TOWNNAME":"麻豆區","LI":"南勢里","LIN":"9鄰","STREET":" ","SECT":" ","MAREA":"\u25A0帝\u25A0","LANE":" ","ALLEY":" ","HOUSE_NO":"６２號之７","E_COORD97":174437.04000000001,"N_COORD97":2565765.1600000001,"ADDRESS":"\u25A0帝\u25A0６２號之７","OBJECTID":121991},"geometry":{"x":174437.04000000004,"y":2565765.1600000001}},{"attributes":{"ID":121992,"DIS_CODE":0,"TOWNNAME":"麻豆區","LI":"南勢里","LIN":"9鄰","STREET":" ","SECT":" ","MAREA":"\u25A0帝\u25A0","LANE":" ","ALLEY":" ","HOUSE_NO":"６２號之９","E_COORD97":174425.17000000001,"N_COORD97":2565796.2999999998,"ADDRESS":"\u25A0帝\u25A0６２號之９","OBJECTID":121992},"geometry":{"x":174425.17000000086,"y":2565796.3000000026}},{"attributes":{"ID":121993,"DIS_CODE":0,"TOWNNAME":"麻豆區","LI":"南勢里","LIN":"9鄰","STREET":" ","SECT":" ","MAREA":"\u25A0帝\u25A0","LANE":" ","ALLEY":" ","HOUSE_NO":"６３號","E_COORD97":174323.03,"N_COORD97":2565594.2400000002,"ADDRESS":"\u25A0帝\u25A0６３號","OBJECTID":121993},"geometry":{"x":174323.03000000119,"y":2565594.2400000002}},{"attributes":{"ID":121994,"DIS_CODE":0,"TOWNNAME":"麻豆區","LI":"南勢里","LIN":"9鄰","STREET":" ","SECT":" ","MAREA":"\u25A0帝\u25A0","LANE":" ","ALLEY":" ","HOUSE_NO":"７０號","E_COORD97":174292.41,"N_COORD97":2565593.1099999999,"ADDRESS":"\u25A0帝\u25A0７０號","OBJECTID":121994},"geometry":{"x":174292.41000000015,"y":2565593.1100000013}},{"attributes":{"ID":121995,"DIS_CODE":0,"TOWNNAME":"麻豆區","LI":"南勢里","LIN":"9鄰","STREET":" ","SECT":" ","MAREA":"\u25A0帝\u25A0","LANE":" ","ALLEY":" ","HOUSE_NO":"７１號","E_COORD97":174288.25,"N_COORD97":2565593.1600000001,"ADDRESS":"\u25A0帝\u25A0７１號","OBJECTID":121995},"geometry":{"x":174288.25,"y":2565593.1600000039}},{"attributes":{"ID":121996,"DIS_CODE":0,"TOWNNAME":"麻豆區","LI":"南勢里","LIN":"9鄰","STREET":" ","SECT":" ","MAREA":"\u25A0帝\u25A0","LANE":" ","ALLEY":" ","HOUSE_NO":"７２號","E_COORD97":174293.78,"N_COORD97":2565622.3500000001,"ADDRESS":"\u25A0帝\u25A0７２號","OBJECTID":121996},"geometry":{"x":174293.78000000026,"y":2565622.3500000015}},{"attributes":{"ID":121997,"DIS_CODE":0,"TOWNNAME":"麻豆區","LI":"南勢里","LIN":"9鄰","STREET":" ","SECT":" ","MAREA":"\u25A0帝\u25A0","LANE":" ","ALLEY":" ","HOUSE_NO":"７３號","E_COORD97":174357.32000000001,"N_COORD97":2565602.5600000001,"ADDRESS":"\u25A0帝\u25A0７３號","OBJECTID":121997},"geometry":{"x":174357.32000000123,"y":2565602.5600000005}},{"attributes":{"ID":121998,"DIS_CODE":0,"TOWNNAME":"麻豆區","LI":"南勢里","LIN":"9鄰","STREET":" ","SECT":" ","MAREA":"\u25A0帝\u25A0","LANE":" ","ALLEY":" ","HOUSE_NO":"７４號","E_COORD97":174361.81,"N_COORD97":2565602.48,"ADDRESS":"\u25A0帝\u25A0７４號","OBJECTID":121998},"geometry":{"x":174361.80999999959,"y":2565602.4800000023}},{"attributes":{"ID":121999,"DIS_CODE":0,"TOWNNAME":"麻豆區","LI":"南勢里","LIN":"9鄰","STREET":" ","SECT":" ","MAREA":"\u25A0帝\u25A0","LANE":" ","ALLEY":" ","HOUSE_NO":"７５號","E_COORD97":174366.5,"N_COORD97":2565602.3599999999,"ADDRESS":"\u25A0帝\u25A0７５號","OBJECTID":121999},"geometry":{"x":174366.5,"y":2565602.3600000013}},{"attributes":{"ID":122000,"DIS_CODE":0,"TOWNNAME":"麻豆區","LI":"南勢里","LIN":"9鄰","STREET":" ","SECT":" ","MAREA":"\u25A0帝\u25A0","LANE":" ","ALLEY":" ","HOUSE_NO":"７６號","E_COORD97":174371.10999999999,"N_COORD97":2565602.1000000001,"ADDRESS":"\u25A0帝\u25A0７６號","OBJECTID":122000},"geometry":{"x":174371.11000000034,"y":2565602.0999999996}}]}