{"displayFieldName":"TOWNNAME","fieldAliases":{"ID":"ID","DIS_CODE":"DIS_CODE","TOWNNAME":"TOWNNAME","LI":"LI","LIN":"LIN","STREET":"STREET","SECT":"SECT","MAREA":"MAREA","LANE":"LANE","ALLEY":"ALLEY","HOUSE_NO":"HOUSE_NO","E_COORD97":"E_COORD97","N_COORD97":"N_COORD97","ADDRESS":"ADDRESS","OBJECTID":"OBJECTID"},"geometryType":"esriGeometryPoint","spatialReference":{"wkid":102443,"latestWkid":3826},"fields":[{"name":"ID","type":"esriFieldTypeDouble","alias":"ID"},{"name":"DIS_CODE","type":"esriFieldTypeInteger","alias":"DIS_CODE"},{"name":"TOWNNAME","type":"esriFieldTypeString","alias":"TOWNNAME","length":8},{"name":"LI","type":"esriFieldTypeString","alias":"LI","length":8},{"name":"LIN","type":"esriFieldTypeString","alias":"LIN","length":12},{"name":"STREET","type":"esriFieldTypeString","alias":"STREET","length":20},{"name":"SECT","type":"esriFieldTypeString","alias":"SECT","length":8},{"name":"MAREA","type":"esriFieldTypeString","alias":"MAREA","length":12},{"name":"LANE","type":"esriFieldTypeString","alias":"LANE","length":10},{"name":"ALLEY","type":"esriFieldTypeString","alias":"ALLEY","length":10},{"name":"HOUSE_NO","type":"esriFieldTypeString","alias":"HOUSE_NO","length":20},{"name":"E_COORD97","type":"esriFieldTypeDouble","alias":"E_COORD97"},{"name":"N_COORD97","type":"esriFieldTypeDouble","alias":"N_COORD97"},{"name":"ADDRESS","type":"esriFieldTypeString","alias":"ADDRESS","length":50},{"name":"OBJECTID","type":"esriFieldTypeOID","alias":"OBJECTID"}],"features":[{"attributes":{"ID":214602,"DIS_CODE":0,"TOWNNAME":"仁德區","LI":"土庫里","LIN":"9鄰","STREET":"太子二街","SECT":" ","MAREA":" ","LANE":" ","ALLEY":" ","HOUSE_NO":"４６號","E_COORD97":174302.89000000001,"N_COORD97":2543318.5099999998,"ADDRESS":"太子二街４６號","OBJECTID":214601},"geometry":{"x":174302.89000000153,"y":2543318.5099999979}},{"attributes":{"ID":214603,"DIS_CODE":0,"TOWNNAME":"仁德區","LI":"上崙里","LIN":"9鄰","STREET":"德善路","SECT":" ","MAREA":" ","LANE":" ","ALLEY":" ","HOUSE_NO":"２９１號","E_COORD97":173956.69,"N_COORD97":2538598.0099999998,"ADDRESS":"德善路２９１號","OBJECTID":214602},"geometry":{"x":173956.69000000041,"y":2538598.0099999998}},{"attributes":{"ID":214604,"DIS_CODE":0,"TOWNNAME":"仁德區","LI":"上崙里","LIN":"9鄰","STREET":"德善路","SECT":" ","MAREA":" ","LANE":" ","ALLEY":" ","HOUSE_NO":"３０３號","E_COORD97":173951.35000000001,"N_COORD97":2538563.02,"ADDRESS":"德善路３０３號","OBJECTID":214603},"geometry":{"x":173951.34999999963,"y":2538563.0200000014}},{"attributes":{"ID":214605,"DIS_CODE":0,"TOWNNAME":"歸仁區","LI":"歸仁里","LIN":"28鄰","STREET":"中山路","SECT":"一段","MAREA":" ","LANE":"２巷","ALLEY":"３弄","HOUSE_NO":"８號","E_COORD97":179630.67999999999,"N_COORD97":2540383.5600000001,"ADDRESS":"中山路一段２巷３弄８號","OBJECTID":214604},"geometry":{"x":179630.68000000156,"y":2540383.5600000024}},{"attributes":{"ID":214606,"DIS_CODE":0,"TOWNNAME":"仁德區","LI":"上崙里","LIN":"9鄰","STREET":"德善路","SECT":" ","MAREA":" ","LANE":" ","ALLEY":" ","HOUSE_NO":"３１７號","E_COORD97":173970.44,"N_COORD97":2538503.5099999998,"ADDRESS":"德善路３１７號","OBJECTID":214605},"geometry":{"x":173970.44000000041,"y":2538503.5099999998}},{"attributes":{"ID":214607,"DIS_CODE":0,"TOWNNAME":"歸仁區","LI":"崙頂里","LIN":"28鄰","STREET":"崙頂街","SECT":" ","MAREA":" ","LANE":"１５０巷","ALLEY":"１５弄","HOUSE_NO":"１９號","E_COORD97":177831.34,"N_COORD97":2539772.54,"ADDRESS":"崙頂街１５０巷１５弄１９號","OBJECTID":214606},"geometry":{"x":177831.34000000078,"y":2539772.540000001}},{"attributes":{"ID":214608,"DIS_CODE":0,"TOWNNAME":"歸仁區","LI":"歸仁里","LIN":"28鄰","STREET":"中山路","SECT":"一段","MAREA":" ","LANE":"２巷","ALLEY":"１弄","HOUSE_NO":"６號","E_COORD97":179631.57999999999,"N_COORD97":2540356.5699999998,"ADDRESS":"中山路一段２巷１弄６號","OBJECTID":214607},"geometry":{"x":179631.58000000194,"y":2540356.5700000022}},{"attributes":{"ID":214609,"DIS_CODE":0,"TOWNNAME":"歸仁區","LI":"歸仁里","LIN":"28鄰","STREET":"中山路","SECT":"一段","MAREA":" ","LANE":"２巷","ALLEY":"３弄","HOUSE_NO":"１４號","E_COORD97":179609.42999999999,"N_COORD97":2540388.5699999998,"ADDRESS":"中山路一段２巷３弄１４號","OBJECTID":214608},"geometry":{"x":179609.4299999997,"y":2540388.5700000003}},{"attributes":{"ID":214610,"DIS_CODE":0,"TOWNNAME":"歸仁區","LI":"媽廟里","LIN":"28鄰","STREET":"保大路","SECT":"一段","MAREA":" ","LANE":"１５２巷","ALLEY":"８弄","HOUSE_NO":"２號","E_COORD97":177727.63,"N_COORD97":2544056.7200000002,"ADDRESS":"保大路一段１５２巷８弄２號","OBJECTID":214609},"geometry":{"x":177727.63000000082,"y":2544056.7200000007}},{"attributes":{"ID":214611,"DIS_CODE":0,"TOWNNAME":"仁德區","LI":"土庫里","LIN":"9鄰","STREET":"太子二街","SECT":" ","MAREA":" ","LANE":" ","ALLEY":" ","HOUSE_NO":"３２號","E_COORD97":174289.53,"N_COORD97":2543380.25,"ADDRESS":"太子二街３２號","OBJECTID":214610},"geometry":{"x":174289.53000000119,"y":2543380.25}},{"attributes":{"ID":214612,"DIS_CODE":0,"TOWNNAME":"仁德區","LI":"仁義里","LIN":"9鄰","STREET":"仁義三街","SECT":" ","MAREA":" ","LANE":" ","ALLEY":" ","HOUSE_NO":"１１７號","E_COORD97":173644.20000000001,"N_COORD97":2541134.27,"ADDRESS":"仁義三街１１７號","OBJECTID":214611},"geometry":{"x":173644.20000000112,"y":2541134.2700000014}},{"attributes":{"ID":214613,"DIS_CODE":0,"TOWNNAME":"仁德區","LI":"土庫里","LIN":"9鄰","STREET":"太子二街","SECT":" ","MAREA":" ","LANE":" ","ALLEY":" ","HOUSE_NO":"３６號","E_COORD97":174296.92000000001,"N_COORD97":2543357.25,"ADDRESS":"太子二街３６號","OBJECTID":214612},"geometry":{"x":174296.92000000086,"y":2543357.25}},{"attributes":{"ID":214614,"DIS_CODE":0,"TOWNNAME":"仁德區","LI":"仁愛里","LIN":"9鄰","STREET":" ","SECT":" ","MAREA":"仁愛","LANE":" ","ALLEY":" ","HOUSE_NO":"１７１號","E_COORD97":170286.92221600001,"N_COORD97":2539837.855,"ADDRESS":"仁愛１７１號","OBJECTID":214613},"geometry":{"x":170286.9222159991,"y":2539837.8550000023}},{"attributes":{"ID":214615,"DIS_CODE":0,"TOWNNAME":"善化區","LI":"什乃里","LIN":"2鄰","STREET":" ","SECT":" ","MAREA":"什乃","LANE":" ","ALLEY":" ","HOUSE_NO":"１８號之２８（該建物","E_COORD97":176336.23999999999,"N_COORD97":2560849.98,"ADDRESS":"什乃１８號之２８（該建物係農業設施不得設施）","OBJECTID":214614},"geometry":{"x":176336.24000000022,"y":2560849.9800000004}},{"attributes":{"ID":214616,"DIS_CODE":0,"TOWNNAME":"善化區","LI":"什乃里","LIN":"2鄰","STREET":" ","SECT":" ","MAREA":"什乃","LANE":" ","ALLEY":" ","HOUSE_NO":"２１號之３７","E_COORD97":176121.34,"N_COORD97":2560817.8900000001,"ADDRESS":"什乃２１號之３７","OBJECTID":214615},"geometry":{"x":176121.34000000078,"y":2560817.8900000006}},{"attributes":{"ID":214617,"DIS_CODE":0,"TOWNNAME":"善化區","LI":"牛庄里","LIN":"2鄰","STREET":" ","SECT":" ","MAREA":"牛庄","LANE":" ","ALLEY":" ","HOUSE_NO":"２７號之１３","E_COORD97":180486.60000000001,"N_COORD97":2559829.21,"ADDRESS":"牛庄２７號之１３","OBJECTID":214616},"geometry":{"x":180486.59999999963,"y":2559829.2100000009}},{"attributes":{"ID":214618,"DIS_CODE":0,"TOWNNAME":"善化區","LI":"光文里","LIN":"2鄰","STREET":" ","SECT":" ","MAREA":"北子店","LANE":" ","ALLEY":" ","HOUSE_NO":"７９號","E_COORD97":179555.64999999999,"N_COORD97":2559675.7000000002,"ADDRESS":"北子店７９號","OBJECTID":214617},"geometry":{"x":179555.6500000013,"y":2559675.700000003}},{"attributes":{"ID":214619,"DIS_CODE":0,"TOWNNAME":"善化區","LI":"什乃里","LIN":"2鄰","STREET":" ","SECT":" ","MAREA":"什乃","LANE":" ","ALLEY":" ","HOUSE_NO":"２１號之１７","E_COORD97":176118.64000000001,"N_COORD97":2560656.6800000002,"ADDRESS":"什乃２１號之１７","OBJECTID":214618},"geometry":{"x":176118.6400000006,"y":2560656.6800000016}},{"attributes":{"ID":214620,"DIS_CODE":0,"TOWNNAME":"善化區","LI":"什乃里","LIN":"2鄰","STREET":" ","SECT":" ","MAREA":"什乃","LANE":" ","ALLEY":" ","HOUSE_NO":"２１號之２４","E_COORD97":176094.41,"N_COORD97":2560656.8399999999,"ADDRESS":"什乃２１號之２４","OBJECTID":214619},"geometry":{"x":176094.41000000015,"y":2560656.8399999999}},{"attributes":{"ID":214621,"DIS_CODE":0,"TOWNNAME":"善化區","LI":"什乃里","LIN":"2鄰","STREET":" ","SECT":" ","MAREA":"什乃","LANE":" ","ALLEY":" ","HOUSE_NO":"２１號之２８","E_COORD97":176094.19,"N_COORD97":2560638.1699999999,"ADDRESS":"什乃２１號之２８","OBJECTID":214620},"geometry":{"x":176094.19000000134,"y":2560638.1699999999}},{"attributes":{"ID":214622,"DIS_CODE":0,"TOWNNAME":"善化區","LI":"嘉北里","LIN":"2鄰","STREET":" ","SECT":" ","MAREA":"茄拔","LANE":" ","ALLEY":" ","HOUSE_NO":"１１之１８號","E_COORD97":181481.39999999999,"N_COORD97":2559914.9500000002,"ADDRESS":"茄拔１１之１８號","OBJECTID":214621},"geometry":{"x":181481.4000000013,"y":2559914.9500000011}},{"attributes":{"ID":214623,"DIS_CODE":0,"TOWNNAME":"善化區","LI":"東昌里","LIN":"2鄰","STREET":" ","SECT":" ","MAREA":"東勢寮","LANE":" ","ALLEY":" ","HOUSE_NO":"１７號","E_COORD97":180807.09,"N_COORD97":2561772.79,"ADDRESS":"東勢寮１７號","OBJECTID":214622},"geometry":{"x":180807.08999999985,"y":2561772.7899999991}},{"attributes":{"ID":214624,"DIS_CODE":0,"TOWNNAME":"善化區","LI":"胡厝里","LIN":"2鄰","STREET":" ","SECT":" ","MAREA":"胡厝寮","LANE":" ","ALLEY":" ","HOUSE_NO":"１７７之５號","E_COORD97":175128.64999999999,"N_COORD97":2560492.5699999998,"ADDRESS":"胡厝寮１７７之５號","OBJECTID":214623},"geometry":{"x":175128.65000000037,"y":2560492.5700000022}},{"attributes":{"ID":214625,"DIS_CODE":0,"TOWNNAME":"後壁區","LI":"仕安里","LIN":"2鄰","STREET":" ","SECT":" ","MAREA":"下長","LANE":" ","ALLEY":" ","HOUSE_NO":"１２號之１","E_COORD97":180650.14000000001,"N_COORD97":2583944.9700000002,"ADDRESS":"下長１２號之１","OBJECTID":214624},"geometry":{"x":180650.1400000006,"y":2583944.9700000025}},{"attributes":{"ID":214626,"DIS_CODE":0,"TOWNNAME":"後壁區","LI":"仕安里","LIN":"2鄰","STREET":" ","SECT":" ","MAREA":"下長","LANE":" ","ALLEY":" ","HOUSE_NO":"１２號之２","E_COORD97":180659.56,"N_COORD97":2583959.0499999998,"ADDRESS":"下長１２號之２","OBJECTID":214625},"geometry":{"x":180659.55999999959,"y":2583959.0500000007}},{"attributes":{"ID":214627,"DIS_CODE":0,"TOWNNAME":"後壁區","LI":"仕安里","LIN":"2鄰","STREET":" ","SECT":" ","MAREA":"下長","LANE":" ","ALLEY":" ","HOUSE_NO":"１４號之１","E_COORD97":180688.10000000001,"N_COORD97":2583929.2599999998,"ADDRESS":"下長１４號之１","OBJECTID":214626},"geometry":{"x":180688.09999999963,"y":2583929.2599999998}},{"attributes":{"ID":214628,"DIS_CODE":0,"TOWNNAME":"後壁區","LI":"仕安里","LIN":"2鄰","STREET":" ","SECT":" ","MAREA":"下長","LANE":" ","ALLEY":" ","HOUSE_NO":"１４號","E_COORD97":180685.45999999999,"N_COORD97":2583954.5600000001,"ADDRESS":"下長１４號","OBJECTID":214627},"geometry":{"x":180685.46000000089,"y":2583954.5600000024}},{"attributes":{"ID":214629,"DIS_CODE":0,"TOWNNAME":"關廟區","LI":"東勢里","LIN":"28鄰","STREET":"東榮街","SECT":" ","MAREA":" ","LANE":"１２７巷","ALLEY":"７弄","HOUSE_NO":"１１號","E_COORD97":182229.38,"N_COORD97":2539429.1099999999,"ADDRESS":"東榮街１２７巷７弄１１號","OBJECTID":214628},"geometry":{"x":182229.37999999989,"y":2539429.1100000031}},{"attributes":{"ID":214630,"DIS_CODE":0,"TOWNNAME":"歸仁區","LI":"媽廟里","LIN":"28鄰","STREET":"保大路","SECT":"一段","MAREA":" ","LANE":"１５２巷","ALLEY":"８弄","HOUSE_NO":"５２號","E_COORD97":177846.88,"N_COORD97":2544070.7200000002,"ADDRESS":"保大路一段１５２巷８弄５２號","OBJECTID":214629},"geometry":{"x":177846.88000000082,"y":2544070.7199999988}},{"attributes":{"ID":214631,"DIS_CODE":0,"TOWNNAME":"善化區","LI":"小新里","LIN":"2鄰","STREET":" ","SECT":" ","MAREA":"小新營","LANE":" ","ALLEY":" ","HOUSE_NO":"１１之５號","E_COORD97":179886.743246,"N_COORD97":2558413.4621700002,"ADDRESS":"小新營１１之５號","OBJECTID":214630},"geometry":{"x":179886.74324600026,"y":2558413.4621710014}},{"attributes":{"ID":214632,"DIS_CODE":0,"TOWNNAME":"歸仁區","LI":"歸仁里","LIN":"28鄰","STREET":"中山路","SECT":"一段","MAREA":" ","LANE":"２巷","ALLEY":"３弄","HOUSE_NO":"１８號","E_COORD97":179596.13,"N_COORD97":2540394.5699999998,"ADDRESS":"中山路一段２巷３弄１８號","OBJECTID":214631},"geometry":{"x":179596.13000000082,"y":2540394.5700000022}},{"attributes":{"ID":214633,"DIS_CODE":0,"TOWNNAME":"歸仁區","LI":"歸仁里","LIN":"28鄰","STREET":"中山路","SECT":"一段","MAREA":" ","LANE":"２巷","ALLEY":"３弄","HOUSE_NO":"１６號","E_COORD97":179602.32999999999,"N_COORD97":2540392.5699999998,"ADDRESS":"中山路一段２巷３弄１６號","OBJECTID":214632},"geometry":{"x":179602.33000000007,"y":2540392.5700000003}},{"attributes":{"ID":214634,"DIS_CODE":0,"TOWNNAME":"仁德區","LI":"仁愛里","LIN":"9鄰","STREET":" ","SECT":" ","MAREA":"仁愛","LANE":" ","ALLEY":" ","HOUSE_NO":"１６９號","E_COORD97":170277.81246099999,"N_COORD97":2539837.855,"ADDRESS":"仁愛１６９號","OBJECTID":214633},"geometry":{"x":170277.81246100087,"y":2539837.8550000023}},{"attributes":{"ID":214635,"DIS_CODE":0,"TOWNNAME":"歸仁區","LI":"歸仁里","LIN":"28鄰","STREET":"中山路","SECT":"一段","MAREA":" ","LANE":"２巷","ALLEY":"３弄","HOUSE_NO":"７號","E_COORD97":179622.48000000001,"N_COORD97":2540377.5699999998,"ADDRESS":"中山路一段２巷３弄７號","OBJECTID":214634},"geometry":{"x":179622.48000000231,"y":2540377.5700000022}},{"attributes":{"ID":214636,"DIS_CODE":0,"TOWNNAME":"仁德區","LI":"中生里","LIN":"9鄰","STREET":" ","SECT":" ","MAREA":"中洲","LANE":" ","ALLEY":" ","HOUSE_NO":"１６７號","E_COORD97":173199.60999999999,"N_COORD97":2534041.2400000002,"ADDRESS":"中洲１６７號","OBJECTID":214635},"geometry":{"x":173199.61000000034,"y":2534041.2400000002}},{"attributes":{"ID":214637,"DIS_CODE":0,"TOWNNAME":"仁德區","LI":"一甲里","LIN":"9鄰","STREET":"中正路","SECT":"三段","MAREA":" ","LANE":" ","ALLEY":" ","HOUSE_NO":"２４０號","E_COORD97":173571.69,"N_COORD97":2541990.2799999998,"ADDRESS":"中正路三段２４０號","OBJECTID":214636},"geometry":{"x":173571.69000000134,"y":2541990.2799999993}},{"attributes":{"ID":214638,"DIS_CODE":0,"TOWNNAME":"仁德區","LI":"中生里","LIN":"9鄰","STREET":" ","SECT":" ","MAREA":"中洲","LANE":" ","ALLEY":" ","HOUSE_NO":"１６５號","E_COORD97":173179.67999999999,"N_COORD97":2534071.7400000002,"ADDRESS":"中洲１６５號","OBJECTID":214637},"geometry":{"x":173179.6799999997,"y":2534071.7400000002}},{"attributes":{"ID":214639,"DIS_CODE":0,"TOWNNAME":"仁德區","LI":"上崙里","LIN":"9鄰","STREET":"德善路","SECT":" ","MAREA":" ","LANE":" ","ALLEY":" ","HOUSE_NO":"３４５號","E_COORD97":173987.54000000001,"N_COORD97":2538443.02,"ADDRESS":"德善路３４５號","OBJECTID":214638},"geometry":{"x":173987.54000000097,"y":2538443.0200000033}},{"attributes":{"ID":214640,"DIS_CODE":0,"TOWNNAME":"仁德區","LI":"中生里","LIN":"9鄰","STREET":" ","SECT":" ","MAREA":"中洲","LANE":" ","ALLEY":" ","HOUSE_NO":"１６０號之２","E_COORD97":173129.41,"N_COORD97":2534162.79,"ADDRESS":"中洲１６０號之２","OBJECTID":214639},"geometry":{"x":173129.41000000015,"y":2534162.790000001}},{"attributes":{"ID":214641,"DIS_CODE":0,"TOWNNAME":"仁德區","LI":"中生里","LIN":"9鄰","STREET":" ","SECT":" ","MAREA":"中洲","LANE":" ","ALLEY":" ","HOUSE_NO":"１６７號之１","E_COORD97":173208.63,"N_COORD97":2534042.54,"ADDRESS":"中洲１６７號之１","OBJECTID":214640},"geometry":{"x":173208.63000000082,"y":2534042.540000001}},{"attributes":{"ID":214642,"DIS_CODE":0,"TOWNNAME":"歸仁區","LI":"歸仁里","LIN":"28鄰","STREET":"中山路","SECT":"一段","MAREA":" ","LANE":"２巷","ALLEY":"１弄","HOUSE_NO":"１號","E_COORD97":179635.67999999999,"N_COORD97":2540344.5600000001,"ADDRESS":"中山路一段２巷１弄１號","OBJECTID":214641},"geometry":{"x":179635.68000000156,"y":2540344.5600000005}},{"attributes":{"ID":214643,"DIS_CODE":0,"TOWNNAME":"仁德區","LI":"中洲里","LIN":"9鄰","STREET":" ","SECT":" ","MAREA":"中洲","LANE":" ","ALLEY":" ","HOUSE_NO":"２９３號","E_COORD97":173337.20999999999,"N_COORD97":2533974.2400000002,"ADDRESS":"中洲２９３號","OBJECTID":214642},"geometry":{"x":173337.21000000089,"y":2533974.2400000021}},{"attributes":{"ID":214644,"DIS_CODE":0,"TOWNNAME":"歸仁區","LI":"後市里","LIN":"28鄰","STREET":"民族北街","SECT":" ","MAREA":" ","LANE":"１７巷","ALLEY":"３８弄","HOUSE_NO":"２號","E_COORD97":177329.78,"N_COORD97":2540912.75,"ADDRESS":"民族北街１７巷３８弄２號","OBJECTID":214643},"geometry":{"x":177329.78000000026,"y":2540912.75}},{"attributes":{"ID":214645,"DIS_CODE":0,"TOWNNAME":"後壁區","LI":"仕安里","LIN":"2鄰","STREET":" ","SECT":" ","MAREA":"下長","LANE":" ","ALLEY":" ","HOUSE_NO":"１５號之２","E_COORD97":180710.64000000001,"N_COORD97":2584102.3300000001,"ADDRESS":"下長１５號之２","OBJECTID":214644},"geometry":{"x":180710.64000000153,"y":2584102.3300000001}},{"attributes":{"ID":214646,"DIS_CODE":0,"TOWNNAME":"新營區","LI":"王公里","LIN":"28鄰","STREET":"大公街","SECT":" ","MAREA":" ","LANE":"４６巷","ALLEY":"１弄","HOUSE_NO":"３之１號","E_COORD97":180256.28,"N_COORD97":2579626.8999999999,"ADDRESS":"大公街４６巷１弄３之１號","OBJECTID":214645},"geometry":{"x":180256.28000000119,"y":2579626.9000000004}},{"attributes":{"ID":214647,"DIS_CODE":0,"TOWNNAME":"後壁區","LI":"仕安里","LIN":"2鄰","STREET":" ","SECT":" ","MAREA":"下長","LANE":" ","ALLEY":" ","HOUSE_NO":"１５號","E_COORD97":180717.39999999999,"N_COORD97":2583969.2799999998,"ADDRESS":"下長１５號","OBJECTID":214646},"geometry":{"x":180717.40000000037,"y":2583969.2799999993}},{"attributes":{"ID":214648,"DIS_CODE":0,"TOWNNAME":"新營區","LI":"王公里","LIN":"28鄰","STREET":"大公街","SECT":" ","MAREA":" ","LANE":"４６巷","ALLEY":"２弄","HOUSE_NO":"４號","E_COORD97":180209.23000000001,"N_COORD97":2579626.0099999998,"ADDRESS":"大公街４６巷２弄４號","OBJECTID":214647},"geometry":{"x":180209.23000000138,"y":2579626.0099999998}},{"attributes":{"ID":214649,"DIS_CODE":0,"TOWNNAME":"後壁區","LI":"仕安里","LIN":"2鄰","STREET":" ","SECT":" ","MAREA":"下長","LANE":" ","ALLEY":" ","HOUSE_NO":"１６號","E_COORD97":180687.06,"N_COORD97":2583988.1899999999,"ADDRESS":"下長１６號","OBJECTID":214648},"geometry":{"x":180687.05999999959,"y":2583988.1900000032}},{"attributes":{"ID":214650,"DIS_CODE":0,"TOWNNAME":"新市區","LI":"三舍里","LIN":"2鄰","STREET":" ","SECT":" ","MAREA":"三舍","LANE":" ","ALLEY":" ","HOUSE_NO":"５１之１號","E_COORD97":178079.89999999999,"N_COORD97":2554312.0499999998,"ADDRESS":"三舍５１之１號","OBJECTID":214649},"geometry":{"x":178079.90000000037,"y":2554312.0500000026}},{"attributes":{"ID":214651,"DIS_CODE":0,"TOWNNAME":"新營區","LI":"王公里","LIN":"28鄰","STREET":"大公街","SECT":" ","MAREA":" ","LANE":"４６巷","ALLEY":"４弄","HOUSE_NO":"３號","E_COORD97":180223.39000000001,"N_COORD97":2579589.4100000001,"ADDRESS":"大公街４６巷４弄３號","OBJECTID":214650},"geometry":{"x":180223.38999999966,"y":2579589.4100000001}},{"attributes":{"ID":214652,"DIS_CODE":0,"TOWNNAME":"仁德區","LI":"一甲里","LIN":"9鄰","STREET":"中正路","SECT":"三段","MAREA":" ","LANE":" ","ALLEY":" ","HOUSE_NO":"３１２號","E_COORD97":173807.73999999999,"N_COORD97":2542319.02,"ADDRESS":"中正路三段３１２號","OBJECTID":214651},"geometry":{"x":173807.74000000209,"y":2542319.0200000014}},{"attributes":{"ID":214653,"DIS_CODE":0,"TOWNNAME":"新營區","LI":"王公里","LIN":"28鄰","STREET":"大公街","SECT":" ","MAREA":" ","LANE":"４６巷","ALLEY":"２弄","HOUSE_NO":"３號","E_COORD97":180215.38,"N_COORD97":2579625.9900000002,"ADDRESS":"大公街４６巷２弄３號","OBJECTID":214652},"geometry":{"x":180215.37999999989,"y":2579625.9900000002}},{"attributes":{"ID":214654,"DIS_CODE":0,"TOWNNAME":"關廟區","LI":"新埔里","LIN":"8鄰","STREET":"新埔三街","SECT":" ","MAREA":" ","LANE":"１０１巷","ALLEY":" ","HOUSE_NO":"２６號","E_COORD97":181162.61038999999,"N_COORD97":2541169.03522,"ADDRESS":"新埔三街１０１巷２６號","OBJECTID":214653},"geometry":{"x":181162.61039000191,"y":2541169.0352159999}},{"attributes":{"ID":214655,"DIS_CODE":0,"TOWNNAME":"新市區","LI":"社內里","LIN":"2鄰","STREET":" ","SECT":" ","MAREA":"社內","LANE":" ","ALLEY":" ","HOUSE_NO":"２０之２號","E_COORD97":176897.45000000001,"N_COORD97":2552899.2999999998,"ADDRESS":"社內２０之２號","OBJECTID":214654},"geometry":{"x":176897.45000000019,"y":2552899.3000000026}},{"attributes":{"ID":214656,"DIS_CODE":0,"TOWNNAME":"新市區","LI":"永就里","LIN":"2鄰","STREET":" ","SECT":" ","MAREA":"永就","LANE":" ","ALLEY":" ","HOUSE_NO":"２６之５號","E_COORD97":178493.92000000001,"N_COORD97":2551364.5499999998,"ADDRESS":"永就２６之５號","OBJECTID":214655},"geometry":{"x":178493.92000000086,"y":2551364.5500000007}},{"attributes":{"ID":214657,"DIS_CODE":0,"TOWNNAME":"新市區","LI":"社內里","LIN":"2鄰","STREET":" ","SECT":" ","MAREA":"社內","LANE":" ","ALLEY":" ","HOUSE_NO":"２０之９號","E_COORD97":176920.39999999999,"N_COORD97":2552870.5499999998,"ADDRESS":"社內２０之９號","OBJECTID":214656},"geometry":{"x":176920.40000000037,"y":2552870.5500000026}},{"attributes":{"ID":214658,"DIS_CODE":0,"TOWNNAME":"新市區","LI":"永就里","LIN":"2鄰","STREET":" ","SECT":" ","MAREA":"永就","LANE":" ","ALLEY":" ","HOUSE_NO":"１９號","E_COORD97":178418.37,"N_COORD97":2551364.25,"ADDRESS":"永就１９號","OBJECTID":214657},"geometry":{"x":178418.37000000104,"y":2551364.2500000019}},{"attributes":{"ID":214659,"DIS_CODE":0,"TOWNNAME":"新市區","LI":"社內里","LIN":"2鄰","STREET":" ","SECT":" ","MAREA":"社內","LANE":" ","ALLEY":" ","HOUSE_NO":"１５之３號","E_COORD97":177004.12,"N_COORD97":2552933.5499999998,"ADDRESS":"社內１５之３號","OBJECTID":214658},"geometry":{"x":177004.12000000104,"y":2552933.5500000007}},{"attributes":{"ID":214660,"DIS_CODE":0,"TOWNNAME":"新營區","LI":"王公里","LIN":"28鄰","STREET":"大公街","SECT":" ","MAREA":" ","LANE":"４６巷","ALLEY":"１弄","HOUSE_NO":"２號","E_COORD97":180257.25,"N_COORD97":2579618.04,"ADDRESS":"大公街４６巷１弄２號","OBJECTID":214659},"geometry":{"x":180257.25,"y":2579618.0399999991}},{"attributes":{"ID":214661,"DIS_CODE":0,"TOWNNAME":"仁德區","LI":"上崙里","LIN":"9鄰","STREET":"德善路","SECT":" ","MAREA":" ","LANE":" ","ALLEY":" ","HOUSE_NO":"３１５號","E_COORD97":173969.04000000001,"N_COORD97":2538507.5099999998,"ADDRESS":"德善路３１５號","OBJECTID":214660},"geometry":{"x":173969.04000000097,"y":2538507.5099999998}},{"attributes":{"ID":214662,"DIS_CODE":0,"TOWNNAME":"新營區","LI":"王公里","LIN":"28鄰","STREET":"大公街","SECT":" ","MAREA":" ","LANE":"４６巷","ALLEY":"４弄","HOUSE_NO":"１９號","E_COORD97":180184.67000000001,"N_COORD97":2579594.02,"ADDRESS":"大公街４６巷４弄１９號","OBJECTID":214661},"geometry":{"x":180184.66999999993,"y":2579594.0199999996}},{"attributes":{"ID":214663,"DIS_CODE":0,"TOWNNAME":"仁德區","LI":"中洲里","LIN":"9鄰","STREET":" ","SECT":" ","MAREA":"中洲","LANE":" ","ALLEY":" ","HOUSE_NO":"２９１號","E_COORD97":173310.59,"N_COORD97":2534029.4900000002,"ADDRESS":"中洲２９１號","OBJECTID":214662},"geometry":{"x":173310.59000000078,"y":2534029.4899999984}},{"attributes":{"ID":214664,"DIS_CODE":0,"TOWNNAME":"新營區","LI":"王公里","LIN":"28鄰","STREET":"大公街","SECT":" ","MAREA":" ","LANE":"４６巷","ALLEY":"２弄","HOUSE_NO":"２號","E_COORD97":180221.48999999999,"N_COORD97":2579624.8500000001,"ADDRESS":"大公街４６巷２弄２號","OBJECTID":214663},"geometry":{"x":180221.49000000022,"y":2579624.8500000015}},{"attributes":{"ID":214665,"DIS_CODE":0,"TOWNNAME":"新營區","LI":"王公里","LIN":"28鄰","STREET":"大公街","SECT":" ","MAREA":" ","LANE":"４６巷","ALLEY":"１弄","HOUSE_NO":"６號","E_COORD97":180265.35000000001,"N_COORD97":2579613.5699999998,"ADDRESS":"大公街４６巷１弄６號","OBJECTID":214664},"geometry":{"x":180265.35000000056,"y":2579613.5700000022}},{"attributes":{"ID":214666,"DIS_CODE":0,"TOWNNAME":"新營區","LI":"王公里","LIN":"28鄰","STREET":"大公街","SECT":" ","MAREA":" ","LANE":"４６巷","ALLEY":"４弄","HOUSE_NO":"１０號","E_COORD97":180208.23999999999,"N_COORD97":2579602.77,"ADDRESS":"大公街４６巷４弄１０號","OBJECTID":214665},"geometry":{"x":180208.24000000022,"y":2579602.7699999996}},{"attributes":{"ID":214667,"DIS_CODE":0,"TOWNNAME":"新營區","LI":"王公里","LIN":"28鄰","STREET":"大公街","SECT":" ","MAREA":" ","LANE":"４６巷","ALLEY":"１弄","HOUSE_NO":"５號","E_COORD97":180267.45999999999,"N_COORD97":2579625.7400000002,"ADDRESS":"大公街４６巷１弄５號","OBJECTID":214666},"geometry":{"x":180267.45999999996,"y":2579625.7400000021}},{"attributes":{"ID":214668,"DIS_CODE":0,"TOWNNAME":"新營區","LI":"王公里","LIN":"28鄰","STREET":"大公街","SECT":" ","MAREA":" ","LANE":"４６巷","ALLEY":"３弄","HOUSE_NO":"３號","E_COORD97":180247.95999999999,"N_COORD97":2579595.9300000002,"ADDRESS":"大公街４６巷３弄３號","OBJECTID":214667},"geometry":{"x":180247.96000000089,"y":2579595.9299999997}},{"attributes":{"ID":214669,"DIS_CODE":0,"TOWNNAME":"新營區","LI":"王公里","LIN":"28鄰","STREET":"大公街","SECT":" ","MAREA":" ","LANE":"４６巷","ALLEY":"２弄","HOUSE_NO":"８號","E_COORD97":180184.69,"N_COORD97":2579629.4500000002,"ADDRESS":"大公街４６巷２弄８號","OBJECTID":214668},"geometry":{"x":180184.69000000134,"y":2579629.450000003}},{"attributes":{"ID":214670,"DIS_CODE":0,"TOWNNAME":"新營區","LI":"王公里","LIN":"28鄰","STREET":"大公街","SECT":" ","MAREA":" ","LANE":"４６巷","ALLEY":"３弄","HOUSE_NO":"５號","E_COORD97":180251.98000000001,"N_COORD97":2579595.9100000001,"ADDRESS":"大公街４６巷３弄５號","OBJECTID":214669},"geometry":{"x":180251.98000000138,"y":2579595.9100000001}},{"attributes":{"ID":214671,"DIS_CODE":0,"TOWNNAME":"新市區","LI":"永就里","LIN":"2鄰","STREET":" ","SECT":" ","MAREA":"永就","LANE":" ","ALLEY":" ","HOUSE_NO":"２５之６號","E_COORD97":179332.48000000001,"N_COORD97":2551537.0499999998,"ADDRESS":"永就２５之６號","OBJECTID":214670},"geometry":{"x":179332.48000000045,"y":2551537.0500000007}},{"attributes":{"ID":214672,"DIS_CODE":0,"TOWNNAME":"新營區","LI":"王公里","LIN":"28鄰","STREET":"大公街","SECT":" ","MAREA":" ","LANE":"４６巷","ALLEY":"４弄","HOUSE_NO":"５號","E_COORD97":180219.23000000001,"N_COORD97":2579589.4199999999,"ADDRESS":"大公街４６巷４弄５號","OBJECTID":214671},"geometry":{"x":180219.23000000231,"y":2579589.4199999999}},{"attributes":{"ID":214673,"DIS_CODE":0,"TOWNNAME":"新營區","LI":"王公里","LIN":"28鄰","STREET":"大公街","SECT":" ","MAREA":" ","LANE":"４６巷","ALLEY":"４弄","HOUSE_NO":"１６號","E_COORD97":180193.94,"N_COORD97":2579605.0499999998,"ADDRESS":"大公街４６巷４弄１６號","OBJECTID":214672},"geometry":{"x":180193.93999999948,"y":2579605.0500000007}},{"attributes":{"ID":214674,"DIS_CODE":0,"TOWNNAME":"新營區","LI":"王公里","LIN":"28鄰","STREET":"大公街","SECT":" ","MAREA":" ","LANE":"４６巷","ALLEY":"４弄","HOUSE_NO":"１號","E_COORD97":180227.38,"N_COORD97":2579588.2799999998,"ADDRESS":"大公街４６巷４弄１號","OBJECTID":214673},"geometry":{"x":180227.37999999989,"y":2579588.2800000012}},{"attributes":{"ID":214675,"DIS_CODE":0,"TOWNNAME":"新營區","LI":"王公里","LIN":"28鄰","STREET":"大公街","SECT":" ","MAREA":" ","LANE":"４６巷","ALLEY":"４弄","HOUSE_NO":"２２號","E_COORD97":180180.70999999999,"N_COORD97":2579606.2200000002,"ADDRESS":"大公街４６巷４弄２２號","OBJECTID":214674},"geometry":{"x":180180.71000000089,"y":2579606.2200000025}},{"attributes":{"ID":214676,"DIS_CODE":0,"TOWNNAME":"新營區","LI":"王公里","LIN":"28鄰","STREET":"大公街","SECT":" ","MAREA":" ","LANE":"４６巷","ALLEY":"４弄","HOUSE_NO":"６號","E_COORD97":180220.29000000001,"N_COORD97":2579600.4900000002,"ADDRESS":"大公街４６巷４弄６號","OBJECTID":214675},"geometry":{"x":180220.29000000097,"y":2579600.4900000021}},{"attributes":{"ID":214677,"DIS_CODE":0,"TOWNNAME":"新營區","LI":"王公里","LIN":"28鄰","STREET":"大公街","SECT":" ","MAREA":" ","LANE":"４６巷","ALLEY":"３弄","HOUSE_NO":"１３號","E_COORD97":180271.60999999999,"N_COORD97":2579593.6099999999,"ADDRESS":"大公街４６巷３弄１３號","OBJECTID":214676},"geometry":{"x":180271.61000000127,"y":2579593.6099999994}},{"attributes":{"ID":214678,"DIS_CODE":0,"TOWNNAME":"新營區","LI":"王公里","LIN":"28鄰","STREET":"大公街","SECT":" ","MAREA":" ","LANE":"４６巷","ALLEY":"３弄","HOUSE_NO":"１１號","E_COORD97":180266.51000000001,"N_COORD97":2579594.7400000002,"ADDRESS":"大公街４６巷３弄１１號","OBJECTID":214677},"geometry":{"x":180266.51000000071,"y":2579594.7400000039}},{"attributes":{"ID":214679,"DIS_CODE":0,"TOWNNAME":"關廟區","LI":"東勢里","LIN":"28鄰","STREET":"東榮街","SECT":" ","MAREA":" ","LANE":"１２７巷","ALLEY":"７弄","HOUSE_NO":"１３號","E_COORD97":182228.98000000001,"N_COORD97":2539434.1099999999,"ADDRESS":"東榮街１２７巷７弄１３號","OBJECTID":214678},"geometry":{"x":182228.98000000045,"y":2539434.1099999994}},{"attributes":{"ID":214680,"DIS_CODE":0,"TOWNNAME":"關廟區","LI":"東勢里","LIN":"28鄰","STREET":"東榮街","SECT":" ","MAREA":" ","LANE":"１２７巷","ALLEY":"５弄","HOUSE_NO":"１８號","E_COORD97":182202.17999999999,"N_COORD97":2539439.1099999999,"ADDRESS":"東榮街１２７巷５弄１８號","OBJECTID":214679},"geometry":{"x":182202.18000000156,"y":2539439.1100000031}},{"attributes":{"ID":214681,"DIS_CODE":0,"TOWNNAME":"關廟區","LI":"東勢里","LIN":"28鄰","STREET":"東榮街","SECT":" ","MAREA":" ","LANE":"１２７巷","ALLEY":"５弄","HOUSE_NO":"９號","E_COORD97":182181.73000000001,"N_COORD97":2539444.1099999999,"ADDRESS":"東榮街１２７巷５弄９號","OBJECTID":214680},"geometry":{"x":182181.73000000045,"y":2539444.1100000013}},{"attributes":{"ID":214682,"DIS_CODE":0,"TOWNNAME":"關廟區","LI":"東勢里","LIN":"28鄰","STREET":"東榮街","SECT":" ","MAREA":" ","LANE":"１２７巷","ALLEY":"５弄","HOUSE_NO":"１５號","E_COORD97":182183.38,"N_COORD97":2539459.1099999999,"ADDRESS":"東榮街１２７巷５弄１５號","OBJECTID":214681},"geometry":{"x":182183.37999999989,"y":2539459.1099999994}},{"attributes":{"ID":214683,"DIS_CODE":0,"TOWNNAME":"關廟區","LI":"東勢里","LIN":"28鄰","STREET":"東榮街","SECT":" ","MAREA":" ","LANE":"１２７巷","ALLEY":"５弄","HOUSE_NO":"２號","E_COORD97":182200.92999999999,"N_COORD97":2539408.1099999999,"ADDRESS":"東榮街１２７巷５弄２號","OBJECTID":214682},"geometry":{"x":182200.93000000063,"y":2539408.1099999994}},{"attributes":{"ID":214684,"DIS_CODE":0,"TOWNNAME":"關廟區","LI":"東勢里","LIN":"28鄰","STREET":"東榮街","SECT":" ","MAREA":" ","LANE":"１２７巷","ALLEY":"５弄","HOUSE_NO":"７號","E_COORD97":182181.32999999999,"N_COORD97":2539439.1099999999,"ADDRESS":"東榮街１２７巷５弄７號","OBJECTID":214683},"geometry":{"x":182181.33000000194,"y":2539439.1100000031}},{"attributes":{"ID":214685,"DIS_CODE":0,"TOWNNAME":"關廟區","LI":"東勢里","LIN":"28鄰","STREET":"東榮街","SECT":" ","MAREA":" ","LANE":"１２７巷","ALLEY":"７弄","HOUSE_NO":"１號","E_COORD97":182227.73000000001,"N_COORD97":2539404.1099999999,"ADDRESS":"東榮街１２７巷７弄１號","OBJECTID":214684},"geometry":{"x":182227.73000000045,"y":2539404.1099999994}},{"attributes":{"ID":214686,"DIS_CODE":0,"TOWNNAME":"關廟區","LI":"東勢里","LIN":"28鄰","STREET":"東榮街","SECT":" ","MAREA":" ","LANE":"１４３巷","ALLEY":"６６弄","HOUSE_NO":"２１號","E_COORD97":182510.67000000001,"N_COORD97":2539307.25,"ADDRESS":"東榮街１４３巷６６弄２１號","OBJECTID":214685},"geometry":{"x":182510.66999999993,"y":2539307.2500000019}},{"attributes":{"ID":214687,"DIS_CODE":0,"TOWNNAME":"關廟區","LI":"東勢里","LIN":"28鄰","STREET":"東榮街","SECT":" ","MAREA":" ","LANE":"１２７巷","ALLEY":"５弄","HOUSE_NO":"１２號","E_COORD97":182202.57999999999,"N_COORD97":2539428.1099999999,"ADDRESS":"東榮街１２７巷５弄１２號","OBJECTID":214686},"geometry":{"x":182202.58000000007,"y":2539428.1099999994}},{"attributes":{"ID":214688,"DIS_CODE":0,"TOWNNAME":"關廟區","LI":"東勢里","LIN":"28鄰","STREET":"東榮街","SECT":" ","MAREA":" ","LANE":"１２７巷","ALLEY":"５弄","HOUSE_NO":"２０號","E_COORD97":182202.17999999999,"N_COORD97":2539444.1099999999,"ADDRESS":"東榮街１２７巷５弄２０號","OBJECTID":214687},"geometry":{"x":182202.18000000156,"y":2539444.1100000013}},{"attributes":{"ID":214689,"DIS_CODE":0,"TOWNNAME":"新市區","LI":"社內里","LIN":"2鄰","STREET":" ","SECT":" ","MAREA":"社內","LANE":" ","ALLEY":" ","HOUSE_NO":"２２之２０號","E_COORD97":176851.89000000001,"N_COORD97":2552915.0499999998,"ADDRESS":"社內２２之２０號","OBJECTID":214688},"geometry":{"x":176851.88999999966,"y":2552915.0500000026}},{"attributes":{"ID":214690,"DIS_CODE":0,"TOWNNAME":"新市區","LI":"社內里","LIN":"2鄰","STREET":" ","SECT":" ","MAREA":"社內","LANE":" ","ALLEY":" ","HOUSE_NO":"２２之１６號","E_COORD97":176831.14999999999,"N_COORD97":2552910.0499999998,"ADDRESS":"社內２２之１６號","OBJECTID":214689},"geometry":{"x":176831.15000000224,"y":2552910.0500000007}},{"attributes":{"ID":214691,"DIS_CODE":0,"TOWNNAME":"新市區","LI":"社內里","LIN":"2鄰","STREET":" ","SECT":" ","MAREA":"社內","LANE":" ","ALLEY":" ","HOUSE_NO":"２２之１３號","E_COORD97":176834.89000000001,"N_COORD97":2552880.2999999998,"ADDRESS":"社內２２之１３號","OBJECTID":214690},"geometry":{"x":176834.88999999966,"y":2552880.3000000026}},{"attributes":{"ID":214692,"DIS_CODE":0,"TOWNNAME":"新市區","LI":"社內里","LIN":"2鄰","STREET":" ","SECT":" ","MAREA":"社內","LANE":" ","ALLEY":" ","HOUSE_NO":"２２之２６號","E_COORD97":176879.62,"N_COORD97":2552908.2999999998,"ADDRESS":"社內２２之２６號","OBJECTID":214691},"geometry":{"x":176879.62000000011,"y":2552908.3000000007}},{"attributes":{"ID":214693,"DIS_CODE":0,"TOWNNAME":"關廟區","LI":"東勢里","LIN":"28鄰","STREET":"東榮街","SECT":" ","MAREA":" ","LANE":"１２７巷","ALLEY":"７弄","HOUSE_NO":"１０號","E_COORD97":182239.78,"N_COORD97":2539420.1099999999,"ADDRESS":"東榮街１２７巷７弄１０號","OBJECTID":214692},"geometry":{"x":182239.78000000119,"y":2539420.1100000013}},{"attributes":{"ID":214694,"DIS_CODE":0,"TOWNNAME":"關廟區","LI":"東勢里","LIN":"28鄰","STREET":"東榮街","SECT":" ","MAREA":" ","LANE":"１２７巷","ALLEY":"７弄","HOUSE_NO":"８號","E_COORD97":182238.53,"N_COORD97":2539412.1099999999,"ADDRESS":"東榮街１２７巷７弄８號","OBJECTID":214693},"geometry":{"x":182238.53000000026,"y":2539412.1100000031}},{"attributes":{"ID":214695,"DIS_CODE":0,"TOWNNAME":"新市區","LI":"社內里","LIN":"2鄰","STREET":" ","SECT":" ","MAREA":"社內","LANE":" ","ALLEY":" ","HOUSE_NO":"２５之１號","E_COORD97":176876.89999999999,"N_COORD97":2552742.5499999998,"ADDRESS":"社內２５之１號","OBJECTID":214694},"geometry":{"x":176876.90000000224,"y":2552742.5500000026}},{"attributes":{"ID":214696,"DIS_CODE":0,"TOWNNAME":"新市區","LI":"社內里","LIN":"2鄰","STREET":" ","SECT":" ","MAREA":"社內","LANE":" ","ALLEY":" ","HOUSE_NO":"２８之１７號","E_COORD97":176769.89999999999,"N_COORD97":2552864.0499999998,"ADDRESS":"社內２８之１７號","OBJECTID":214695},"geometry":{"x":176769.89999999944,"y":2552864.0500000026}},{"attributes":{"ID":214697,"DIS_CODE":0,"TOWNNAME":"新市區","LI":"社內里","LIN":"2鄰","STREET":" ","SECT":" ","MAREA":"社內","LANE":" ","ALLEY":" ","HOUSE_NO":"２２之２８號","E_COORD97":176880.20000000001,"N_COORD97":2552900.0499999998,"ADDRESS":"社內２２之２８號","OBJECTID":214696},"geometry":{"x":176880.20000000112,"y":2552900.0500000007}},{"attributes":{"ID":214698,"DIS_CODE":0,"TOWNNAME":"新市區","LI":"大洲里","LIN":"2鄰","STREET":" ","SECT":" ","MAREA":"大洲","LANE":" ","ALLEY":" ","HOUSE_NO":"７之２０號","E_COORD97":174510.01999999999,"N_COORD97":2552263.2999999998,"ADDRESS":"大洲７之２０號","OBJECTID":214697},"geometry":{"x":174510.01999999955,"y":2552263.3000000026}},{"attributes":{"ID":214699,"DIS_CODE":0,"TOWNNAME":"新市區","LI":"三舍里","LIN":"2鄰","STREET":" ","SECT":" ","MAREA":"三舍","LANE":" ","ALLEY":" ","HOUSE_NO":"４１之２１號","E_COORD97":177958.14999999999,"N_COORD97":2554361.7999999998,"ADDRESS":"三舍４１之２１號","OBJECTID":214698},"geometry":{"x":177958.15000000037,"y":2554361.8000000026}},{"attributes":{"ID":214700,"DIS_CODE":0,"TOWNNAME":"新市區","LI":"三舍里","LIN":"2鄰","STREET":" ","SECT":" ","MAREA":"三舍","LANE":" ","ALLEY":" ","HOUSE_NO":"４７號","E_COORD97":178014.95000000001,"N_COORD97":2554249.75,"ADDRESS":"三舍４７號","OBJECTID":214699},"geometry":{"x":178014.95000000019,"y":2554249.75}},{"attributes":{"ID":214701,"DIS_CODE":0,"TOWNNAME":"白河區","LI":"玉豐里","LIN":"2鄰","STREET":" ","SECT":" ","MAREA":"頂崁頭","LANE":" ","ALLEY":" ","HOUSE_NO":"３０號","E_COORD97":191156.07999999999,"N_COORD97":2586556.5299999998,"ADDRESS":"頂崁頭３０號","OBJECTID":214700},"geometry":{"x":191156.08000000101,"y":2586556.5300000012}},{"attributes":{"ID":214702,"DIS_CODE":0,"TOWNNAME":"白河區","LI":"詔安里","LIN":"2鄰","STREET":" ","SECT":" ","MAREA":"詔安厝","LANE":" ","ALLEY":" ","HOUSE_NO":"１４之２號","E_COORD97":189945,"N_COORD97":2588008.2000000002,"ADDRESS":"詔安厝１４之２號","OBJECTID":214701},"geometry":{"x":189945,"y":2588008.1999999993}},{"attributes":{"ID":214703,"DIS_CODE":0,"TOWNNAME":"白河區","LI":"詔安里","LIN":"2鄰","STREET":" ","SECT":" ","MAREA":"詔安厝","LANE":" ","ALLEY":" ","HOUSE_NO":"２０之１號","E_COORD97":189886.51000000001,"N_COORD97":2588020.8300000001,"ADDRESS":"詔安厝２０之１號","OBJECTID":214702},"geometry":{"x":189886.51000000071,"y":2588020.8300000001}},{"attributes":{"ID":214704,"DIS_CODE":0,"TOWNNAME":"關廟區","LI":"東勢里","LIN":"28鄰","STREET":"東榮街","SECT":" ","MAREA":" ","LANE":"１４３巷","ALLEY":"６６弄","HOUSE_NO":"１１號","E_COORD97":182488.76999999999,"N_COORD97":2539290.25,"ADDRESS":"東榮街１４３巷６６弄１１號","OBJECTID":214703},"geometry":{"x":182488.76999999955,"y":2539290.2500000019}},{"attributes":{"ID":214705,"DIS_CODE":0,"TOWNNAME":"關廟區","LI":"東勢里","LIN":"28鄰","STREET":"東榮街","SECT":" ","MAREA":" ","LANE":"１２７巷","ALLEY":"７弄","HOUSE_NO":"９號","E_COORD97":182228.13,"N_COORD97":2539424.1099999999,"ADDRESS":"東榮街１２７巷７弄９號","OBJECTID":214704},"geometry":{"x":182228.13000000175,"y":2539424.1099999994}},{"attributes":{"ID":214706,"DIS_CODE":0,"TOWNNAME":"關廟區","LI":"東勢里","LIN":"28鄰","STREET":"東榮街","SECT":" ","MAREA":" ","LANE":"１２７巷","ALLEY":"５弄","HOUSE_NO":"２１號","E_COORD97":182183.38,"N_COORD97":2539474.1099999999,"ADDRESS":"東榮街１２７巷５弄２１號","OBJECTID":214705},"geometry":{"x":182183.37999999989,"y":2539474.1100000013}},{"attributes":{"ID":214707,"DIS_CODE":0,"TOWNNAME":"關廟區","LI":"東勢里","LIN":"28鄰","STREET":"東榮街","SECT":" ","MAREA":" ","LANE":"１２７巷","ALLEY":"７弄","HOUSE_NO":"１５號","E_COORD97":182229.38,"N_COORD97":2539439.1099999999,"ADDRESS":"東榮街１２７巷７弄１５號","OBJECTID":214706},"geometry":{"x":182229.37999999989,"y":2539439.1100000031}},{"attributes":{"ID":214708,"DIS_CODE":0,"TOWNNAME":"白河區","LI":"關嶺里","LIN":"2鄰","STREET":" ","SECT":" ","MAREA":"關子嶺","LANE":" ","ALLEY":" ","HOUSE_NO":"２５之１號","E_COORD97":199491.29999999999,"N_COORD97":2581401.6299999999,"ADDRESS":"關子嶺２５之１號","OBJECTID":214707},"geometry":{"x":199491.30000000075,"y":2581401.6300000008}},{"attributes":{"ID":214709,"DIS_CODE":0,"TOWNNAME":"白河區","LI":"關嶺里","LIN":"2鄰","STREET":" ","SECT":" ","MAREA":"關子嶺","LANE":" ","ALLEY":" ","HOUSE_NO":"２８之２號","E_COORD97":199262.63,"N_COORD97":2581729.6699999999,"ADDRESS":"關子嶺２８之２號","OBJECTID":214708},"geometry":{"x":199262.62999999989,"y":2581729.6699999999}},{"attributes":{"ID":214710,"DIS_CODE":0,"TOWNNAME":"白河區","LI":"大林里","LIN":"2鄰","STREET":" ","SECT":" ","MAREA":"檨子林","LANE":" ","ALLEY":" ","HOUSE_NO":"２２之１號","E_COORD97":192997.22,"N_COORD97":2581624.0899999999,"ADDRESS":"檨子林２２之１號","OBJECTID":214709},"geometry":{"x":192997.22000000067,"y":2581624.0900000017}},{"attributes":{"ID":214711,"DIS_CODE":0,"TOWNNAME":"北門區","LI":"仁里里","LIN":"2鄰","STREET":" ","SECT":" ","MAREA":"二重港","LANE":" ","ALLEY":" ","HOUSE_NO":"２７號","E_COORD97":161881.38,"N_COORD97":2571290.3500000001,"ADDRESS":"二重港２７號","OBJECTID":214710},"geometry":{"x":161881.38000000082,"y":2571290.3500000034}},{"attributes":{"ID":214712,"DIS_CODE":0,"TOWNNAME":"北門區","LI":"仁里里","LIN":"2鄰","STREET":" ","SECT":" ","MAREA":"二重港","LANE":" ","ALLEY":" ","HOUSE_NO":"２８號","E_COORD97":161867.88,"N_COORD97":2571258.1200000001,"ADDRESS":"二重港２８號","OBJECTID":214711},"geometry":{"x":161867.88000000082,"y":2571258.120000001}},{"attributes":{"ID":214713,"DIS_CODE":0,"TOWNNAME":"北門區","LI":"仁里里","LIN":"2鄰","STREET":" ","SECT":" ","MAREA":"二重港","LANE":" ","ALLEY":" ","HOUSE_NO":"２９號","E_COORD97":161902.57999999999,"N_COORD97":2571233.9500000002,"ADDRESS":"二重港２９號","OBJECTID":214712},"geometry":{"x":161902.58000000007,"y":2571233.9499999993}},{"attributes":{"ID":214714,"DIS_CODE":0,"TOWNNAME":"北門區","LI":"仁里里","LIN":"2鄰","STREET":" ","SECT":" ","MAREA":"二重港","LANE":" ","ALLEY":" ","HOUSE_NO":"３０號","E_COORD97":161916.32999999999,"N_COORD97":2571234.5,"ADDRESS":"二重港３０號","OBJECTID":214713},"geometry":{"x":161916.33000000007,"y":2571234.5}},{"attributes":{"ID":214715,"DIS_CODE":0,"TOWNNAME":"北門區","LI":"仁里里","LIN":"2鄰","STREET":" ","SECT":" ","MAREA":"二重港","LANE":" ","ALLEY":" ","HOUSE_NO":"３１號","E_COORD97":161928.01000000001,"N_COORD97":2571233.2000000002,"ADDRESS":"二重港３１號","OBJECTID":214714},"geometry":{"x":161928.01000000071,"y":2571233.200000003}},{"attributes":{"ID":214716,"DIS_CODE":0,"TOWNNAME":"北門區","LI":"仁里里","LIN":"2鄰","STREET":" ","SECT":" ","MAREA":"二重港","LANE":" ","ALLEY":" ","HOUSE_NO":"３２號","E_COORD97":161909.53,"N_COORD97":2571217.7999999998,"ADDRESS":"二重港３２號","OBJECTID":214715},"geometry":{"x":161909.53000000119,"y":2571217.8000000026}},{"attributes":{"ID":214717,"DIS_CODE":0,"TOWNNAME":"北門區","LI":"仁里里","LIN":"2鄰","STREET":" ","SECT":" ","MAREA":"二重港","LANE":" ","ALLEY":" ","HOUSE_NO":"３３號","E_COORD97":161882.88,"N_COORD97":2571204.6000000001,"ADDRESS":"二重港３３號","OBJECTID":214716},"geometry":{"x":161882.88000000082,"y":2571204.6000000015}},{"attributes":{"ID":214718,"DIS_CODE":0,"TOWNNAME":"關廟區","LI":"東勢里","LIN":"28鄰","STREET":"東榮街","SECT":" ","MAREA":" ","LANE":"１２７巷","ALLEY":"７弄","HOUSE_NO":"５號","E_COORD97":182227.73000000001,"N_COORD97":2539414.1099999999,"ADDRESS":"東榮街１２７巷７弄５號","OBJECTID":214717},"geometry":{"x":182227.73000000045,"y":2539414.1099999994}},{"attributes":{"ID":214719,"DIS_CODE":0,"TOWNNAME":"關廟區","LI":"東勢里","LIN":"28鄰","STREET":"東榮街","SECT":" ","MAREA":" ","LANE":"１２７巷","ALLEY":"７弄","HOUSE_NO":"２號","E_COORD97":182238.53,"N_COORD97":2539403.1099999999,"ADDRESS":"東榮街１２７巷７弄２號","OBJECTID":214718},"geometry":{"x":182238.53000000026,"y":2539403.1100000013}},{"attributes":{"ID":214720,"DIS_CODE":0,"TOWNNAME":"關廟區","LI":"香洋里","LIN":"28鄰","STREET":"大富街","SECT":" ","MAREA":" ","LANE":"３４３巷","ALLEY":"６弄","HOUSE_NO":"９號","E_COORD97":180969.26999999999,"N_COORD97":2539901.25,"ADDRESS":"大富街３４３巷６弄９號","OBJECTID":214719},"geometry":{"x":180969.27000000048,"y":2539901.2500000019}},{"attributes":{"ID":214721,"DIS_CODE":0,"TOWNNAME":"關廟區","LI":"香洋里","LIN":"28鄰","STREET":"大富街","SECT":" ","MAREA":" ","LANE":"３４３巷","ALLEY":"６弄","HOUSE_NO":"７號","E_COORD97":180969.26999999999,"N_COORD97":2539895.25,"ADDRESS":"大富街３４３巷６弄７號","OBJECTID":214720},"geometry":{"x":180969.27000000048,"y":2539895.25}},{"attributes":{"ID":214722,"DIS_CODE":0,"TOWNNAME":"關廟區","LI":"香洋里","LIN":"28鄰","STREET":"大富街","SECT":" ","MAREA":" ","LANE":"３４３巷","ALLEY":"６弄","HOUSE_NO":"５號","E_COORD97":180969.26999999999,"N_COORD97":2539890.25,"ADDRESS":"大富街３４３巷６弄５號","OBJECTID":214721},"geometry":{"x":180969.27000000048,"y":2539890.2500000019}},{"attributes":{"ID":214723,"DIS_CODE":0,"TOWNNAME":"關廟區","LI":"香洋里","LIN":"28鄰","STREET":"大富街","SECT":" ","MAREA":" ","LANE":"３４３巷","ALLEY":"６弄","HOUSE_NO":"３號","E_COORD97":180969.26999999999,"N_COORD97":2539884.25,"ADDRESS":"大富街３４３巷６弄３號","OBJECTID":214722},"geometry":{"x":180969.27000000048,"y":2539884.2500000019}},{"attributes":{"ID":214724,"DIS_CODE":0,"TOWNNAME":"南區","LI":"大忠里","LIN":"28鄰","STREET":"大同路","SECT":"二段","MAREA":" ","LANE":"４８２巷","ALLEY":"１３３弄","HOUSE_NO":"５４號","E_COORD97":169161.70999999999,"N_COORD97":2541443.8100000001,"ADDRESS":"大同路二段４８２巷１３３弄５４號","OBJECTID":214723},"geometry":{"x":169161.71000000089,"y":2541443.8100000024}},{"attributes":{"ID":214725,"DIS_CODE":0,"TOWNNAME":"南區","LI":"大忠里","LIN":"28鄰","STREET":"大同路","SECT":"二段","MAREA":" ","LANE":"４８２巷","ALLEY":"１３３弄","HOUSE_NO":"５６號","E_COORD97":169164.14000000001,"N_COORD97":2541440.4500000002,"ADDRESS":"大同路二段４８２巷１３３弄５６號","OBJECTID":214724},"geometry":{"x":169164.13999999966,"y":2541440.450000003}},{"attributes":{"ID":214726,"DIS_CODE":0,"TOWNNAME":"東區","LI":"崇善里","LIN":"9鄰","STREET":"仁和路","SECT":" ","MAREA":" ","LANE":" ","ALLEY":" ","HOUSE_NO":"７６號","E_COORD97":171105.82000000001,"N_COORD97":2541790.8399999999,"ADDRESS":"仁和路７６號","OBJECTID":214725},"geometry":{"x":171105.82000000123,"y":2541790.8400000036}},{"attributes":{"ID":214727,"DIS_CODE":0,"TOWNNAME":"東區","LI":"崇善里","LIN":"9鄰","STREET":"仁和路","SECT":" ","MAREA":" ","LANE":" ","ALLEY":" ","HOUSE_NO":"７６之１號","E_COORD97":171109.42999999999,"N_COORD97":2541785.4399999999,"ADDRESS":"仁和路７６之１號","OBJECTID":214726},"geometry":{"x":171109.43000000063,"y":2541785.4399999995}},{"attributes":{"ID":214728,"DIS_CODE":0,"TOWNNAME":"東區","LI":"德光里","LIN":"9鄰","STREET":"崇學路","SECT":" ","MAREA":" ","LANE":" ","ALLEY":" ","HOUSE_NO":"９號","E_COORD97":170060.32999999999,"N_COORD97":2542045.71,"ADDRESS":"崇學路９號","OBJECTID":214727},"geometry":{"x":170060.33000000007,"y":2542045.7100000009}},{"attributes":{"ID":214729,"DIS_CODE":0,"TOWNNAME":"東區","LI":"東智里","LIN":"9鄰","STREET":"崇德三十街","SECT":" ","MAREA":" ","LANE":" ","ALLEY":" ","HOUSE_NO":"１７號","E_COORD97":170849.14000000001,"N_COORD97":2540182.4700000002,"ADDRESS":"崇德三十街１７號","OBJECTID":214728},"geometry":{"x":170849.13999999966,"y":2540182.4700000007}},{"attributes":{"ID":214730,"DIS_CODE":0,"TOWNNAME":"東區","LI":"忠孝里","LIN":"9鄰","STREET":"榮譽街","SECT":" ","MAREA":" ","LANE":" ","ALLEY":" ","HOUSE_NO":"８６之１號","E_COORD97":169754.23000000001,"N_COORD97":2541686.4900000002,"ADDRESS":"榮譽街８６之１號","OBJECTID":214729},"geometry":{"x":169754.23000000045,"y":2541686.4900000021}},{"attributes":{"ID":214731,"DIS_CODE":0,"TOWNNAME":"麻豆區","LI":"保安里","LIN":"9鄰","STREET":"文昌路","SECT":" ","MAREA":" ","LANE":" ","ALLEY":" ","HOUSE_NO":"５號之１","E_COORD97":173408.85000000001,"N_COORD97":2564849.8199999998,"ADDRESS":"文昌路５號之１","OBJECTID":214730},"geometry":{"x":173408.84999999963,"y":2564849.8200000022}},{"attributes":{"ID":214732,"DIS_CODE":0,"TOWNNAME":"南區","LI":"大忠里","LIN":"28鄰","STREET":"大同路","SECT":"二段","MAREA":" ","LANE":"４８２巷","ALLEY":"１３３弄","HOUSE_NO":"５８號","E_COORD97":169167.13,"N_COORD97":2541437.1000000001,"ADDRESS":"大同路二段４８２巷１３３弄５８號","OBJECTID":214731},"geometry":{"x":169167.13000000082,"y":2541437.1000000015}},{"attributes":{"ID":214733,"DIS_CODE":0,"TOWNNAME":"南區","LI":"大忠里","LIN":"28鄰","STREET":"大同路","SECT":"二段","MAREA":" ","LANE":"４８２巷","ALLEY":"１３３弄","HOUSE_NO":"６０號","E_COORD97":169169.92999999999,"N_COORD97":2541433.5600000001,"ADDRESS":"大同路二段４８２巷１３３弄６０號","OBJECTID":214732},"geometry":{"x":169169.93000000063,"y":2541433.5600000005}},{"attributes":{"ID":214734,"DIS_CODE":0,"TOWNNAME":"南區","LI":"大忠里","LIN":"28鄰","STREET":"大同路","SECT":"二段","MAREA":" ","LANE":"４８２巷","ALLEY":"１３３弄","HOUSE_NO":"６２號","E_COORD97":169172.73999999999,"N_COORD97":2541430.21,"ADDRESS":"大同路二段４８２巷１３３弄６２號","OBJECTID":214733},"geometry":{"x":169172.74000000022,"y":2541430.2100000046}},{"attributes":{"ID":214735,"DIS_CODE":0,"TOWNNAME":"官田區","LI":"官田里","LIN":"9鄰","STREET":" ","SECT":" ","MAREA":"官田","LANE":" ","ALLEY":" ","HOUSE_NO":"８１號","E_COORD97":182390.10999999999,"N_COORD97":2565190.27,"ADDRESS":"官田８１號","OBJECTID":214734},"geometry":{"x":182390.11000000127,"y":2565190.2699999996}},{"attributes":{"ID":214736,"DIS_CODE":0,"TOWNNAME":"安平區","LI":"華平里","LIN":"28鄰","STREET":"健康二街","SECT":" ","MAREA":" ","LANE":"４１９巷","ALLEY":"４０弄","HOUSE_NO":"２號","E_COORD97":165220.98000000001,"N_COORD97":2543753,"ADDRESS":"健康二街４１９巷４０弄２號","OBJECTID":214735},"geometry":{"x":165220.98000000138,"y":2543753.0000000037}},{"attributes":{"ID":214737,"DIS_CODE":0,"TOWNNAME":"安平區","LI":"華平里","LIN":"28鄰","STREET":"健康二街","SECT":" ","MAREA":" ","LANE":"４１９巷","ALLEY":"４０弄","HOUSE_NO":"６號","E_COORD97":165220.19,"N_COORD97":2543749.9900000002,"ADDRESS":"健康二街４１９巷４０弄６號","OBJECTID":214736},"geometry":{"x":165220.19000000041,"y":2543749.9900000039}},{"attributes":{"ID":214738,"DIS_CODE":0,"TOWNNAME":"北區","LI":"文元里","LIN":"28鄰","STREET":"文賢一路","SECT":" ","MAREA":" ","LANE":"３００巷","ALLEY":"６弄","HOUSE_NO":"３號","E_COORD97":167554.10000000001,"N_COORD97":2545785.3799999999,"ADDRESS":"文賢一路３００巷６弄３號","OBJECTID":214737},"geometry":{"x":167554.09999999963,"y":2545785.379999999}},{"attributes":{"ID":214739,"DIS_CODE":0,"TOWNNAME":"北門區","LI":"仁里里","LIN":"2鄰","STREET":" ","SECT":" ","MAREA":"二重港","LANE":" ","ALLEY":" ","HOUSE_NO":"３４號","E_COORD97":161912.81,"N_COORD97":2571205.7200000002,"ADDRESS":"二重港３４號","OBJECTID":214738},"geometry":{"x":161912.80999999959,"y":2571205.7200000025}},{"attributes":{"ID":214740,"DIS_CODE":0,"TOWNNAME":"北門區","LI":"仁里里","LIN":"2鄰","STREET":" ","SECT":" ","MAREA":"二重港","LANE":" ","ALLEY":" ","HOUSE_NO":"３５號","E_COORD97":161903.56,"N_COORD97":2571180.9700000002,"ADDRESS":"二重港３５號","OBJECTID":214739},"geometry":{"x":161903.56000000052,"y":2571180.9700000007}},{"attributes":{"ID":214741,"DIS_CODE":0,"TOWNNAME":"南區","LI":"明亮里","LIN":"28鄰","STREET":"金華路","SECT":"一段","MAREA":" ","LANE":"４８４巷","ALLEY":"２２０弄","HOUSE_NO":"１０號","E_COORD97":167407.51000000001,"N_COORD97":2541094.29,"ADDRESS":"金華路一段４８４巷２２０弄１０號","OBJECTID":214740},"geometry":{"x":167407.50999999978,"y":2541094.2899999991}},{"attributes":{"ID":214742,"DIS_CODE":0,"TOWNNAME":"南區","LI":"明亮里","LIN":"28鄰","STREET":"金華路","SECT":"一段","MAREA":" ","LANE":"４８４巷","ALLEY":"２２０弄","HOUSE_NO":"１７號","E_COORD97":167396.66,"N_COORD97":2541076.6400000001,"ADDRESS":"金華路一段４８４巷２２０弄１７號","OBJECTID":214741},"geometry":{"x":167396.66000000015,"y":2541076.6400000006}},{"attributes":{"ID":214743,"DIS_CODE":0,"TOWNNAME":"南區","LI":"明亮里","LIN":"28鄰","STREET":"金華路","SECT":"一段","MAREA":" ","LANE":"４８４巷","ALLEY":"２２０弄","HOUSE_NO":"１１號","E_COORD97":167408.32000000001,"N_COORD97":2541084.2599999998,"ADDRESS":"金華路一段４８４巷２２０弄１１號","OBJECTID":214742},"geometry":{"x":167408.32000000123,"y":2541084.2600000016}},{"attributes":{"ID":214744,"DIS_CODE":0,"TOWNNAME":"南區","LI":"明亮里","LIN":"28鄰","STREET":"金華路","SECT":"一段","MAREA":" ","LANE":"４８４巷","ALLEY":"２２０弄","HOUSE_NO":"１２號","E_COORD97":167403.89999999999,"N_COORD97":2541091.8900000001,"ADDRESS":"金華路一段４８４巷２２０弄１２號","OBJECTID":214743},"geometry":{"x":167403.90000000037,"y":2541091.8900000006}},{"attributes":{"ID":214745,"DIS_CODE":0,"TOWNNAME":"南區","LI":"明亮里","LIN":"28鄰","STREET":"金華路","SECT":"一段","MAREA":" ","LANE":"４８４巷","ALLEY":"２２０弄","HOUSE_NO":"１３號","E_COORD97":167404.29999999999,"N_COORD97":2541081.4500000002,"ADDRESS":"金華路一段４８４巷２２０弄１３號","OBJECTID":214744},"geometry":{"x":167404.30000000075,"y":2541081.4500000011}},{"attributes":{"ID":214746,"DIS_CODE":0,"TOWNNAME":"北門區","LI":"仁里里","LIN":"2鄰","STREET":" ","SECT":" ","MAREA":"二重港","LANE":" ","ALLEY":" ","HOUSE_NO":"３６號","E_COORD97":161904.89999999999,"N_COORD97":2571165.1099999999,"ADDRESS":"二重港３６號","OBJECTID":214745},"geometry":{"x":161904.90000000224,"y":2571165.1099999994}},{"attributes":{"ID":214747,"DIS_CODE":0,"TOWNNAME":"北門區","LI":"仁里里","LIN":"2鄰","STREET":" ","SECT":" ","MAREA":"二重港","LANE":" ","ALLEY":" ","HOUSE_NO":"３７號之１","E_COORD97":161922.54999999999,"N_COORD97":2571174.0800000001,"ADDRESS":"二重港３７號之１","OBJECTID":214746},"geometry":{"x":161922.55000000075,"y":2571174.0800000038}},{"attributes":{"ID":214748,"DIS_CODE":0,"TOWNNAME":"南區","LI":"明亮里","LIN":"28鄰","STREET":"金華路","SECT":"一段","MAREA":" ","LANE":"４８４巷","ALLEY":"２２０弄","HOUSE_NO":"１４號","E_COORD97":167400.28,"N_COORD97":2541090.6800000002,"ADDRESS":"金華路一段４８４巷２２０弄１４號","OBJECTID":214747},"geometry":{"x":167400.28000000119,"y":2541090.6800000016}},{"attributes":{"ID":214749,"DIS_CODE":0,"TOWNNAME":"南區","LI":"明亮里","LIN":"28鄰","STREET":"金華路","SECT":"一段","MAREA":" ","LANE":"４８４巷","ALLEY":"２２０弄","HOUSE_NO":"１５號","E_COORD97":167400.28,"N_COORD97":2541079.4500000002,"ADDRESS":"金華路一段４８４巷２２０弄１５號","OBJECTID":214748},"geometry":{"x":167400.28000000119,"y":2541079.4499999993}},{"attributes":{"ID":214750,"DIS_CODE":0,"TOWNNAME":"關廟區","LI":"新埔里","LIN":"9鄰","STREET":"新埔三街","SECT":" ","MAREA":" ","LANE":"１３７巷","ALLEY":" ","HOUSE_NO":"８８號","E_COORD97":181545.88730500001,"N_COORD97":2541957.5989600001,"ADDRESS":"新埔三街１３７巷８８號","OBJECTID":214749},"geometry":{"x":181545.8873050008,"y":2541957.598957004}},{"attributes":{"ID":214751,"DIS_CODE":0,"TOWNNAME":"北門區","LI":"仁里里","LIN":"2鄰","STREET":" ","SECT":" ","MAREA":"二重港","LANE":" ","ALLEY":" ","HOUSE_NO":"３７號","E_COORD97":161943.78,"N_COORD97":2571144.77,"ADDRESS":"二重港３７號","OBJECTID":214750},"geometry":{"x":161943.78000000026,"y":2571144.7699999977}},{"attributes":{"ID":214752,"DIS_CODE":0,"TOWNNAME":"北門區","LI":"仁里里","LIN":"2鄰","STREET":" ","SECT":" ","MAREA":"二重港","LANE":" ","ALLEY":" ","HOUSE_NO":"３８號","E_COORD97":161983.47,"N_COORD97":2571159.9100000001,"ADDRESS":"二重港３８號","OBJECTID":214751},"geometry":{"x":161983.4700000016,"y":2571159.910000002}},{"attributes":{"ID":214753,"DIS_CODE":0,"TOWNNAME":"北門區","LI":"仁里里","LIN":"2鄰","STREET":" ","SECT":" ","MAREA":"二重港","LANE":" ","ALLEY":" ","HOUSE_NO":"３９號","E_COORD97":162005.60000000001,"N_COORD97":2571166.5,"ADDRESS":"二重港３９號","OBJECTID":214752},"geometry":{"x":162005.59999999963,"y":2571166.5}},{"attributes":{"ID":214754,"DIS_CODE":0,"TOWNNAME":"北門區","LI":"仁里里","LIN":"2鄰","STREET":" ","SECT":" ","MAREA":"二重港","LANE":" ","ALLEY":" ","HOUSE_NO":"４０號","E_COORD97":162003.44,"N_COORD97":2571152.5299999998,"ADDRESS":"二重港４０號","OBJECTID":214753},"geometry":{"x":162003.44000000134,"y":2571152.5299999993}},{"attributes":{"ID":214755,"DIS_CODE":0,"TOWNNAME":"北門區","LI":"仁里里","LIN":"2鄰","STREET":" ","SECT":" ","MAREA":"二重港","LANE":" ","ALLEY":" ","HOUSE_NO":"４１號","E_COORD97":161933.09,"N_COORD97":2571118.3799999999,"ADDRESS":"二重港４１號","OBJECTID":214754},"geometry":{"x":161933.08999999985,"y":2571118.379999999}},{"attributes":{"ID":214756,"DIS_CODE":0,"TOWNNAME":"北門區","LI":"仁里里","LIN":"2鄰","STREET":" ","SECT":" ","MAREA":"二重港","LANE":" ","ALLEY":" ","HOUSE_NO":"４２號","E_COORD97":161901.70999999999,"N_COORD97":2571098.3300000001,"ADDRESS":"二重港４２號","OBJECTID":214755},"geometry":{"x":161901.70999999996,"y":2571098.3300000019}},{"attributes":{"ID":214757,"DIS_CODE":0,"TOWNNAME":"北門區","LI":"三光里","LIN":"2鄰","STREET":" ","SECT":" ","MAREA":"三寮灣","LANE":" ","ALLEY":" ","HOUSE_NO":"４１號","E_COORD97":159330.26000000001,"N_COORD97":2570987.5699999998,"ADDRESS":"三寮灣４１號","OBJECTID":214756},"geometry":{"x":159330.26000000164,"y":2570987.5699999984}},{"attributes":{"ID":214758,"DIS_CODE":0,"TOWNNAME":"北門區","LI":"慈安里","LIN":"2鄰","STREET":" ","SECT":" ","MAREA":"三寮灣","LANE":" ","ALLEY":" ","HOUSE_NO":"３８９號","E_COORD97":158856.69,"N_COORD97":2571287.6699999999,"ADDRESS":"三寮灣３８９號","OBJECTID":214757},"geometry":{"x":158856.69000000227,"y":2571287.6699999999}},{"attributes":{"ID":214759,"DIS_CODE":0,"TOWNNAME":"北門區","LI":"慈安里","LIN":"2鄰","STREET":" ","SECT":" ","MAREA":"三寮灣","LANE":" ","ALLEY":" ","HOUSE_NO":"３９０號","E_COORD97":158861.09,"N_COORD97":2571284.8100000001,"ADDRESS":"三寮灣３９０號","OBJECTID":214758},"geometry":{"x":158861.08999999985,"y":2571284.8100000042}},{"attributes":{"ID":214760,"DIS_CODE":0,"TOWNNAME":"東區","LI":"裕農里","LIN":"9鄰","STREET":"裕農路","SECT":" ","MAREA":" ","LANE":" ","ALLEY":" ","HOUSE_NO":"４２９號","E_COORD97":171213.20999999999,"N_COORD97":2543165.6699999999,"ADDRESS":"裕農路４２９號","OBJECTID":214759},"geometry":{"x":171213.20999999996,"y":2543165.6700000018}},{"attributes":{"ID":214761,"DIS_CODE":0,"TOWNNAME":"南區","LI":"明亮里","LIN":"28鄰","STREET":"金華路","SECT":"一段","MAREA":" ","LANE":"４８４巷","ALLEY":"２２０弄","HOUSE_NO":"１６號","E_COORD97":167395.85999999999,"N_COORD97":2541089.0800000001,"ADDRESS":"金華路一段４８４巷２２０弄１６號","OBJECTID":214760},"geometry":{"x":167395.8600000022,"y":2541089.0800000019}},{"attributes":{"ID":214762,"DIS_CODE":0,"TOWNNAME":"東區","LI":"裕農里","LIN":"9鄰","STREET":"裕農路","SECT":" ","MAREA":" ","LANE":" ","ALLEY":" ","HOUSE_NO":"４３１號","E_COORD97":171217.09,"N_COORD97":2543166.75,"ADDRESS":"裕農路４３１號","OBJECTID":214761},"geometry":{"x":171217.09000000078,"y":2543166.75}},{"attributes":{"ID":214763,"DIS_CODE":0,"TOWNNAME":"東區","LI":"裕農里","LIN":"9鄰","STREET":"裕農路","SECT":" ","MAREA":" ","LANE":" ","ALLEY":" ","HOUSE_NO":"４３３號","E_COORD97":171220.31,"N_COORD97":2543169.54,"ADDRESS":"裕農路４３３號","OBJECTID":214762},"geometry":{"x":171220.31000000052,"y":2543169.540000001}},{"attributes":{"ID":214764,"DIS_CODE":0,"TOWNNAME":"東區","LI":"裕農里","LIN":"9鄰","STREET":"裕農路","SECT":" ","MAREA":" ","LANE":" ","ALLEY":" ","HOUSE_NO":"４３９號","E_COORD97":171232.37,"N_COORD97":2543171.8999999999,"ADDRESS":"裕農路４３９號","OBJECTID":214763},"geometry":{"x":171232.37000000104,"y":2543171.9000000022}},{"attributes":{"ID":214765,"DIS_CODE":0,"TOWNNAME":"東區","LI":"關聖里","LIN":"21鄰","STREET":"裕善街","SECT":" ","MAREA":" ","LANE":" ","ALLEY":" ","HOUSE_NO":"３８號","E_COORD97":172742.56,"N_COORD97":2543058.71,"ADDRESS":"裕善街３８號","OBJECTID":214764},"geometry":{"x":172742.56000000052,"y":2543058.7100000028}},{"attributes":{"ID":214766,"DIS_CODE":0,"TOWNNAME":"東區","LI":"關聖里","LIN":"14鄰","STREET":"裕智街","SECT":" ","MAREA":" ","LANE":" ","ALLEY":" ","HOUSE_NO":"１３號","E_COORD97":172082.31,"N_COORD97":2542976.5099999998,"ADDRESS":"裕智街１３號","OBJECTID":214765},"geometry":{"x":172082.30999999959,"y":2542976.5100000035}},{"attributes":{"ID":214767,"DIS_CODE":0,"TOWNNAME":"東區","LI":"裕聖里","LIN":"6鄰","STREET":"裕信路","SECT":" ","MAREA":" ","LANE":" ","ALLEY":" ","HOUSE_NO":"３７０號","E_COORD97":172583.64000000001,"N_COORD97":2542167.6499999999,"ADDRESS":"裕信路３７０號","OBJECTID":214766},"geometry":{"x":172583.63999999966,"y":2542167.6500000004}},{"attributes":{"ID":214768,"DIS_CODE":0,"TOWNNAME":"東區","LI":"裕聖里","LIN":"6鄰","STREET":"裕信路","SECT":" ","MAREA":" ","LANE":" ","ALLEY":" ","HOUSE_NO":"３７２號","E_COORD97":172583.5,"N_COORD97":2542163.2400000002,"ADDRESS":"裕信路３７２號","OBJECTID":214767},"geometry":{"x":172583.50000000186,"y":2542163.2400000002}},{"attributes":{"ID":214769,"DIS_CODE":0,"TOWNNAME":"東區","LI":"裕聖里","LIN":"6鄰","STREET":"裕信路","SECT":" ","MAREA":" ","LANE":" ","ALLEY":" ","HOUSE_NO":"３７６號","E_COORD97":172583.35999999999,"N_COORD97":2542158.4100000001,"ADDRESS":"裕信路３７６號","OBJECTID":214768},"geometry":{"x":172583.36000000127,"y":2542158.410000002}},{"attributes":{"ID":214770,"DIS_CODE":0,"TOWNNAME":"東區","LI":"裕聖里","LIN":"6鄰","STREET":"裕信路","SECT":" ","MAREA":" ","LANE":" ","ALLEY":" ","HOUSE_NO":"３７８號","E_COORD97":172583.22,"N_COORD97":2542153.8500000001,"ADDRESS":"裕信路３７８號","OBJECTID":214769},"geometry":{"x":172583.21999999974,"y":2542153.8500000015}},{"attributes":{"ID":214771,"DIS_CODE":0,"TOWNNAME":"東區","LI":"裕聖里","LIN":"10鄰","STREET":"裕信路","SECT":" ","MAREA":" ","LANE":" ","ALLEY":" ","HOUSE_NO":"５００號","E_COORD97":172548.01999999999,"N_COORD97":2541935.8799999999,"ADDRESS":"裕信路５００號","OBJECTID":214770},"geometry":{"x":172548.02000000048,"y":2541935.8800000008}},{"attributes":{"ID":214772,"DIS_CODE":0,"TOWNNAME":"東區","LI":"關聖里","LIN":"21鄰","STREET":"裕英街","SECT":" ","MAREA":" ","LANE":" ","ALLEY":" ","HOUSE_NO":"２０３號","E_COORD97":172725.26000000001,"N_COORD97":2543025.21,"ADDRESS":"裕英街２０３號","OBJECTID":214771},"geometry":{"x":172725.25999999978,"y":2543025.2100000028}},{"attributes":{"ID":214773,"DIS_CODE":0,"TOWNNAME":"東區","LI":"關聖里","LIN":"21鄰","STREET":"裕英街","SECT":" ","MAREA":" ","LANE":" ","ALLEY":" ","HOUSE_NO":"２０５號","E_COORD97":172725.10999999999,"N_COORD97":2543030.8100000001,"ADDRESS":"裕英街２０５號","OBJECTID":214772},"geometry":{"x":172725.11000000034,"y":2543030.8100000024}},{"attributes":{"ID":214774,"DIS_CODE":0,"TOWNNAME":"南區","LI":"明亮里","LIN":"28鄰","STREET":"金華路","SECT":"一段","MAREA":" ","LANE":"４８４巷","ALLEY":"２２０弄","HOUSE_NO":"１８號","E_COORD97":167391.84,"N_COORD97":2541085.4700000002,"ADDRESS":"金華路一段４８４巷２２０弄１８號","OBJECTID":214773},"geometry":{"x":167391.83999999985,"y":2541085.4699999988}},{"attributes":{"ID":214775,"DIS_CODE":0,"TOWNNAME":"南區","LI":"明亮里","LIN":"28鄰","STREET":"金華路","SECT":"一段","MAREA":" ","LANE":"４８４巷","ALLEY":"２２０弄","HOUSE_NO":"１９號","E_COORD97":167393.85000000001,"N_COORD97":2541074.6299999999,"ADDRESS":"金華路一段４８４巷２２０弄１９號","OBJECTID":214774},"geometry":{"x":167393.85000000056,"y":2541074.629999999}},{"attributes":{"ID":214776,"DIS_CODE":0,"TOWNNAME":"南區","LI":"明亮里","LIN":"28鄰","STREET":"金華路","SECT":"一段","MAREA":" ","LANE":"４８４巷","ALLEY":"２２０弄","HOUSE_NO":"１號","E_COORD97":167427.60000000001,"N_COORD97":2541094.29,"ADDRESS":"金華路一段４８４巷２２０弄１號","OBJECTID":214775},"geometry":{"x":167427.60000000056,"y":2541094.2899999991}},{"attributes":{"ID":214777,"DIS_CODE":0,"TOWNNAME":"南區","LI":"明亮里","LIN":"28鄰","STREET":"金華路","SECT":"一段","MAREA":" ","LANE":"４８４巷","ALLEY":"２２０弄","HOUSE_NO":"２０號","E_COORD97":167388.63,"N_COORD97":2541083.8599999999,"ADDRESS":"金華路一段４８４巷２２０弄２０號","OBJECTID":214776},"geometry":{"x":167388.63000000082,"y":2541083.8599999994}},{"attributes":{"ID":214778,"DIS_CODE":0,"TOWNNAME":"南區","LI":"明亮里","LIN":"28鄰","STREET":"金華路","SECT":"一段","MAREA":" ","LANE":"４８４巷","ALLEY":"２２０弄","HOUSE_NO":"２１號","E_COORD97":167390.23000000001,"N_COORD97":2541072.2200000002,"ADDRESS":"金華路一段４８４巷２２０弄２１號","OBJECTID":214777},"geometry":{"x":167390.23000000138,"y":2541072.2200000007}},{"attributes":{"ID":214779,"DIS_CODE":0,"TOWNNAME":"南區","LI":"明亮里","LIN":"28鄰","STREET":"金華路","SECT":"一段","MAREA":" ","LANE":"４８４巷","ALLEY":"２２０弄","HOUSE_NO":"２２號","E_COORD97":167383.81,"N_COORD97":2541082.6600000001,"ADDRESS":"金華路一段４８４巷２２０弄２２號","OBJECTID":214778},"geometry":{"x":167383.81000000052,"y":2541082.6600000001}},{"attributes":{"ID":214780,"DIS_CODE":0,"TOWNNAME":"南區","LI":"明亮里","LIN":"28鄰","STREET":"金華路","SECT":"一段","MAREA":" ","LANE":"４８４巷","ALLEY":"２２０弄","HOUSE_NO":"２３號","E_COORD97":167386.62,"N_COORD97":2541069.8100000001,"ADDRESS":"金華路一段４８４巷２２０弄２３號","OBJECTID":214779},"geometry":{"x":167386.62000000011,"y":2541069.8100000042}},{"attributes":{"ID":214781,"DIS_CODE":0,"TOWNNAME":"南區","LI":"明亮里","LIN":"28鄰","STREET":"金華路","SECT":"一段","MAREA":" ","LANE":"４８４巷","ALLEY":"２２０弄","HOUSE_NO":"２４號","E_COORD97":167380.19,"N_COORD97":2541080.6499999999,"ADDRESS":"金華路一段４８４巷２２０弄２４號","OBJECTID":214780},"geometry":{"x":167380.19000000227,"y":2541080.6500000041}},{"attributes":{"ID":214782,"DIS_CODE":0,"TOWNNAME":"南區","LI":"明亮里","LIN":"28鄰","STREET":"金華路","SECT":"一段","MAREA":" ","LANE":"４８４巷","ALLEY":"２２０弄","HOUSE_NO":"２號","E_COORD97":167419.16,"N_COORD97":2541101.1200000001,"ADDRESS":"金華路一段４８４巷２２０弄２號","OBJECTID":214781},"geometry":{"x":167419.16000000201,"y":2541101.120000001}},{"attributes":{"ID":214783,"DIS_CODE":0,"TOWNNAME":"南區","LI":"明亮里","LIN":"28鄰","STREET":"金華路","SECT":"一段","MAREA":" ","LANE":"４８４巷","ALLEY":"２２０弄","HOUSE_NO":"３號","E_COORD97":167423.57999999999,"N_COORD97":2541091.4900000002,"ADDRESS":"金華路一段４８４巷２２０弄３號","OBJECTID":214782},"geometry":{"x":167423.58000000101,"y":2541091.4900000002}},{"attributes":{"ID":214784,"DIS_CODE":0,"TOWNNAME":"南區","LI":"明亮里","LIN":"28鄰","STREET":"金華路","SECT":"一段","MAREA":" ","LANE":"４８４巷","ALLEY":"２２０弄","HOUSE_NO":"５號","E_COORD97":167419.57000000001,"N_COORD97":2541089.8799999999,"ADDRESS":"金華路一段４８４巷２２０弄５號","OBJECTID":214783},"geometry":{"x":167419.5700000003,"y":2541089.879999999}},{"attributes":{"ID":214785,"DIS_CODE":0,"TOWNNAME":"南區","LI":"明亮里","LIN":"28鄰","STREET":"金華路","SECT":"一段","MAREA":" ","LANE":"４８４巷","ALLEY":"２２０弄","HOUSE_NO":"６號","E_COORD97":167415.54999999999,"N_COORD97":2541098.3100000001,"ADDRESS":"金華路一段４８４巷２２０弄６號","OBJECTID":214784},"geometry":{"x":167415.54999999981,"y":2541098.3100000024}},{"attributes":{"ID":214786,"DIS_CODE":0,"TOWNNAME":"關廟區","LI":"新埔里","LIN":"9鄰","STREET":"新埔二街","SECT":" ","MAREA":" ","LANE":"７２巷","ALLEY":" ","HOUSE_NO":"１０６號","E_COORD97":181829.79613199999,"N_COORD97":2541540.6158500002,"ADDRESS":"新埔二街７２巷１０６號","OBJECTID":214785},"geometry":{"x":181829.79613200109,"y":2541540.6158489995}},{"attributes":{"ID":214787,"DIS_CODE":0,"TOWNNAME":"東區","LI":"關聖里","LIN":"21鄰","STREET":"裕英街","SECT":" ","MAREA":" ","LANE":" ","ALLEY":" ","HOUSE_NO":"２０７號","E_COORD97":172725.26000000001,"N_COORD97":2543035.9399999999,"ADDRESS":"裕英街２０７號","OBJECTID":214786},"geometry":{"x":172725.25999999978,"y":2543035.9399999995}},{"attributes":{"ID":214788,"DIS_CODE":0,"TOWNNAME":"北門區","LI":"慈安里","LIN":"2鄰","STREET":" ","SECT":" ","MAREA":"三寮灣","LANE":" ","ALLEY":" ","HOUSE_NO":"３９１之５號","E_COORD97":158887.98000000001,"N_COORD97":2571315.3399999999,"ADDRESS":"三寮灣３９１之５號","OBJECTID":214787},"geometry":{"x":158887.98000000045,"y":2571315.3400000017}},{"attributes":{"ID":214789,"DIS_CODE":0,"TOWNNAME":"北門區","LI":"慈安里","LIN":"2鄰","STREET":" ","SECT":" ","MAREA":"三寮灣","LANE":" ","ALLEY":" ","HOUSE_NO":"３９１之６號","E_COORD97":158883.98999999999,"N_COORD97":2571317.6499999999,"ADDRESS":"三寮灣３９１之６號","OBJECTID":214788},"geometry":{"x":158883.99000000115,"y":2571317.6500000022}},{"attributes":{"ID":214790,"DIS_CODE":0,"TOWNNAME":"北門區","LI":"慈安里","LIN":"2鄰","STREET":" ","SECT":" ","MAREA":"三寮灣","LANE":" ","ALLEY":" ","HOUSE_NO":"３９１號","E_COORD97":158866.06,"N_COORD97":2571281.1699999999,"ADDRESS":"三寮灣３９１號","OBJECTID":214789},"geometry":{"x":158866.05999999959,"y":2571281.1699999999}},{"attributes":{"ID":214791,"DIS_CODE":0,"TOWNNAME":"北門區","LI":"慈安里","LIN":"2鄰","STREET":" ","SECT":" ","MAREA":"三寮灣","LANE":" ","ALLEY":" ","HOUSE_NO":"３９２號","E_COORD97":158874.28,"N_COORD97":2571271.75,"ADDRESS":"三寮灣３９２號","OBJECTID":214790},"geometry":{"x":158874.28000000026,"y":2571271.7500000019}},{"attributes":{"ID":214792,"DIS_CODE":0,"TOWNNAME":"南區","LI":"明亮里","LIN":"28鄰","STREET":"金華路","SECT":"一段","MAREA":" ","LANE":"４８４巷","ALLEY":"２２０弄","HOUSE_NO":"７號","E_COORD97":167416.35000000001,"N_COORD97":2541088.2799999998,"ADDRESS":"金華路一段４８４巷２２０弄７號","OBJECTID":214791},"geometry":{"x":167416.34999999963,"y":2541088.2799999993}},{"attributes":{"ID":214793,"DIS_CODE":0,"TOWNNAME":"南區","LI":"明亮里","LIN":"28鄰","STREET":"金華路","SECT":"一段","MAREA":" ","LANE":"４８４巷","ALLEY":"２２０弄","HOUSE_NO":"８號","E_COORD97":167411.53,"N_COORD97":2541096.7000000002,"ADDRESS":"金華路一段４８４巷２２０弄８號","OBJECTID":214792},"geometry":{"x":167411.53000000212,"y":2541096.7000000011}},{"attributes":{"ID":214794,"DIS_CODE":0,"TOWNNAME":"南區","LI":"明亮里","LIN":"28鄰","STREET":"金華路","SECT":"一段","MAREA":" ","LANE":"４８４巷","ALLEY":"２２０弄","HOUSE_NO":"９號","E_COORD97":167412.73000000001,"N_COORD97":2541086.27,"ADDRESS":"金華路一段４８４巷２２０弄９號","OBJECTID":214793},"geometry":{"x":167412.73000000138,"y":2541086.2700000014}},{"attributes":{"ID":214795,"DIS_CODE":0,"TOWNNAME":"北區","LI":"大豐里","LIN":"28鄰","STREET":"文賢路","SECT":" ","MAREA":" ","LANE":"３１３巷","ALLEY":"３４弄","HOUSE_NO":"１３號","E_COORD97":167216.76000000001,"N_COORD97":2545314.5899999999,"ADDRESS":"文賢路３１３巷３４弄１３號","OBJECTID":214794},"geometry":{"x":167216.76000000071,"y":2545314.5899999999}},{"attributes":{"ID":214796,"DIS_CODE":0,"TOWNNAME":"北區","LI":"大豐里","LIN":"28鄰","STREET":"文賢路","SECT":" ","MAREA":" ","LANE":"３１３巷","ALLEY":"３４弄","HOUSE_NO":"１５號","E_COORD97":167216.98000000001,"N_COORD97":2545318.5800000001,"ADDRESS":"文賢路３１３巷３４弄１５號","OBJECTID":214795},"geometry":{"x":167216.98000000045,"y":2545318.5800000001}},{"attributes":{"ID":214797,"DIS_CODE":0,"TOWNNAME":"北區","LI":"大豐里","LIN":"28鄰","STREET":"文賢路","SECT":" ","MAREA":" ","LANE":"３１３巷","ALLEY":"３４弄","HOUSE_NO":"１７號","E_COORD97":167216.76000000001,"N_COORD97":2545323.3799999999,"ADDRESS":"文賢路３１３巷３４弄１７號","OBJECTID":214796},"geometry":{"x":167216.76000000071,"y":2545323.3800000008}},{"attributes":{"ID":214798,"DIS_CODE":0,"TOWNNAME":"北區","LI":"大豐里","LIN":"28鄰","STREET":"文賢路","SECT":" ","MAREA":" ","LANE":"３１３巷","ALLEY":"３４弄","HOUSE_NO":"２３號","E_COORD97":167218.004736,"N_COORD97":2545340.64335,"ADDRESS":"文賢路３１３巷３４弄２３號","OBJECTID":214797},"geometry":{"x":167218.00473599881,"y":2545340.6433480028}},{"attributes":{"ID":214799,"DIS_CODE":0,"TOWNNAME":"北區","LI":"大豐里","LIN":"28鄰","STREET":"文賢路","SECT":" ","MAREA":" ","LANE":"３１３巷","ALLEY":"３４弄","HOUSE_NO":"２７號","E_COORD97":167218.64000000001,"N_COORD97":2545346.3199999998,"ADDRESS":"文賢路３１３巷３４弄２７號","OBJECTID":214798},"geometry":{"x":167218.64000000153,"y":2545346.3200000022}},{"attributes":{"ID":214800,"DIS_CODE":0,"TOWNNAME":"北區","LI":"大豐里","LIN":"28鄰","STREET":"文賢路","SECT":" ","MAREA":" ","LANE":"３１３巷","ALLEY":"３４弄","HOUSE_NO":"２９號","E_COORD97":167218.75,"N_COORD97":2545351.1200000001,"ADDRESS":"文賢路３１３巷３４弄２９號","OBJECTID":214799},"geometry":{"x":167218.75000000093,"y":2545351.1200000029}},{"attributes":{"ID":214801,"DIS_CODE":0,"TOWNNAME":"北區","LI":"大豐里","LIN":"28鄰","STREET":"文賢路","SECT":" ","MAREA":" ","LANE":"３１３巷","ALLEY":"３４弄","HOUSE_NO":"３１號","E_COORD97":167218.14000000001,"N_COORD97":2545355.9700000002,"ADDRESS":"文賢路３１３巷３４弄３１號","OBJECTID":214800},"geometry":{"x":167218.13999999966,"y":2545355.9700000007}}]}