{"displayFieldName":"TOWNNAME","fieldAliases":{"ID":"ID","DIS_CODE":"DIS_CODE","TOWNNAME":"TOWNNAME","LI":"LI","LIN":"LIN","STREET":"STREET","SECT":"SECT","MAREA":"MAREA","LANE":"LANE","ALLEY":"ALLEY","HOUSE_NO":"HOUSE_NO","E_COORD97":"E_COORD97","N_COORD97":"N_COORD97","ADDRESS":"ADDRESS","OBJECTID":"OBJECTID"},"geometryType":"esriGeometryPoint","spatialReference":{"wkid":102443,"latestWkid":3826},"fields":[{"name":"ID","type":"esriFieldTypeDouble","alias":"ID"},{"name":"DIS_CODE","type":"esriFieldTypeInteger","alias":"DIS_CODE"},{"name":"TOWNNAME","type":"esriFieldTypeString","alias":"TOWNNAME","length":8},{"name":"LI","type":"esriFieldTypeString","alias":"LI","length":8},{"name":"LIN","type":"esriFieldTypeString","alias":"LIN","length":12},{"name":"STREET","type":"esriFieldTypeString","alias":"STREET","length":20},{"name":"SECT","type":"esriFieldTypeString","alias":"SECT","length":8},{"name":"MAREA","type":"esriFieldTypeString","alias":"MAREA","length":12},{"name":"LANE","type":"esriFieldTypeString","alias":"LANE","length":10},{"name":"ALLEY","type":"esriFieldTypeString","alias":"ALLEY","length":10},{"name":"HOUSE_NO","type":"esriFieldTypeString","alias":"HOUSE_NO","length":20},{"name":"E_COORD97","type":"esriFieldTypeDouble","alias":"E_COORD97"},{"name":"N_COORD97","type":"esriFieldTypeDouble","alias":"N_COORD97"},{"name":"ADDRESS","type":"esriFieldTypeString","alias":"ADDRESS","length":50},{"name":"OBJECTID","type":"esriFieldTypeOID","alias":"OBJECTID"}],"features":[{"attributes":{"ID":390025,"DIS_CODE":0,"TOWNNAME":"安南區","LI":"溪頂里","LIN":"29鄰","STREET":"北安路","SECT":"二段","MAREA":" ","LANE":"６０巷","ALLEY":" ","HOUSE_NO":"３０號","E_COORD97":168607.38,"N_COORD97":2547508.04,"ADDRESS":"北安路二段６０巷３０號","OBJECTID":390001},"geometry":{"x":168607.38000000175,"y":2547508.0399999991}},{"attributes":{"ID":390026,"DIS_CODE":0,"TOWNNAME":"安南區","LI":"溪頂里","LIN":"29鄰","STREET":"郡安路","SECT":"四段","MAREA":" ","LANE":"２５３巷","ALLEY":" ","HOUSE_NO":"６３號","E_COORD97":168706.94,"N_COORD97":2547545.21,"ADDRESS":"郡安路四段２５３巷６３號","OBJECTID":390002},"geometry":{"x":168706.94000000041,"y":2547545.2100000009}},{"attributes":{"ID":390027,"DIS_CODE":0,"TOWNNAME":"安南區","LI":"溪頂里","LIN":"29鄰","STREET":"郡安路","SECT":"四段","MAREA":" ","LANE":"２５３巷","ALLEY":" ","HOUSE_NO":"６５號","E_COORD97":168708.13,"N_COORD97":2547532.7799999998,"ADDRESS":"郡安路四段２５３巷６５號","OBJECTID":390003},"geometry":{"x":168708.13000000082,"y":2547532.7799999993}},{"attributes":{"ID":390028,"DIS_CODE":0,"TOWNNAME":"安南區","LI":"溪頂里","LIN":"29鄰","STREET":"郡安路","SECT":"四段","MAREA":" ","LANE":"２５３巷","ALLEY":" ","HOUSE_NO":"６７號","E_COORD97":168708.87,"N_COORD97":2547519.7599999998,"ADDRESS":"郡安路四段２５３巷６７號","OBJECTID":390004},"geometry":{"x":168708.87000000011,"y":2547519.7599999998}},{"attributes":{"ID":390029,"DIS_CODE":0,"TOWNNAME":"永康區","LI":"西勢里","LIN":"29鄰","STREET":"西勢路","SECT":" ","MAREA":" ","LANE":"１５８巷","ALLEY":" ","HOUSE_NO":"１１號","E_COORD97":175914.84,"N_COORD97":2546809.9500000002,"ADDRESS":"西勢路１５８巷１１號","OBJECTID":390005},"geometry":{"x":175914.83999999985,"y":2546809.9499999993}},{"attributes":{"ID":390030,"DIS_CODE":0,"TOWNNAME":"永康區","LI":"西勢里","LIN":"29鄰","STREET":"西勢路","SECT":" ","MAREA":" ","LANE":"１５８巷","ALLEY":" ","HOUSE_NO":"１３號","E_COORD97":175931.23999999999,"N_COORD97":2546804.4100000001,"ADDRESS":"西勢路１５８巷１３號","OBJECTID":390006},"geometry":{"x":175931.24000000022,"y":2546804.4100000001}},{"attributes":{"ID":390031,"DIS_CODE":0,"TOWNNAME":"永康區","LI":"尚頂里","LIN":"29鄰","STREET":"南台街","SECT":" ","MAREA":" ","LANE":"８９巷","ALLEY":" ","HOUSE_NO":"３號","E_COORD97":170201.35000000001,"N_COORD97":2546982.8500000001,"ADDRESS":"南台街８９巷３號","OBJECTID":390007},"geometry":{"x":170201.35000000056,"y":2546982.8500000015}},{"attributes":{"ID":390032,"DIS_CODE":0,"TOWNNAME":"永康區","LI":"尚頂里","LIN":"29鄰","STREET":"南台街","SECT":" ","MAREA":" ","LANE":"７５巷","ALLEY":" ","HOUSE_NO":"１之２號","E_COORD97":170240.10999999999,"N_COORD97":2546996.0800000001,"ADDRESS":"南台街７５巷１之２號","OBJECTID":390008},"geometry":{"x":170240.11000000034,"y":2546996.0800000001}},{"attributes":{"ID":390033,"DIS_CODE":0,"TOWNNAME":"永康區","LI":"西灣里","LIN":"29鄰","STREET":"公園路","SECT":" ","MAREA":" ","LANE":"６３巷","ALLEY":" ","HOUSE_NO":"６０號","E_COORD97":174356.67999999999,"N_COORD97":2545830,"ADDRESS":"公園路６３巷６０號","OBJECTID":390009},"geometry":{"x":174356.6799999997,"y":2545830}},{"attributes":{"ID":390034,"DIS_CODE":0,"TOWNNAME":"仁德區","LI":"太子里","LIN":"29鄰","STREET":"太子四街","SECT":" ","MAREA":" ","LANE":"４１巷","ALLEY":" ","HOUSE_NO":"１６號","E_COORD97":173104.44,"N_COORD97":2542925.2599999998,"ADDRESS":"太子四街４１巷１６號","OBJECTID":390010},"geometry":{"x":173104.44000000041,"y":2542925.2600000016}},{"attributes":{"ID":390035,"DIS_CODE":0,"TOWNNAME":"安南區","LI":"安富里","LIN":"29鄰","STREET":"府安路","SECT":"五段","MAREA":" ","LANE":"２２３巷","ALLEY":" ","HOUSE_NO":"５９號","E_COORD97":167455.54999999999,"N_COORD97":2547144.1099999999,"ADDRESS":"府安路五段２２３巷５９號","OBJECTID":390011},"geometry":{"x":167455.55000000075,"y":2547144.1099999994}},{"attributes":{"ID":390036,"DIS_CODE":0,"TOWNNAME":"安南區","LI":"安富里","LIN":"29鄰","STREET":"府安路","SECT":"五段","MAREA":" ","LANE":"２２３巷","ALLEY":" ","HOUSE_NO":"５７號之１","E_COORD97":167461.29999999999,"N_COORD97":2547116.8399999999,"ADDRESS":"府安路五段２２３巷５７號之１","OBJECTID":390012},"geometry":{"x":167461.29999999981,"y":2547116.8399999999}},{"attributes":{"ID":390037,"DIS_CODE":0,"TOWNNAME":"東區","LI":"東明里","LIN":"29鄰","STREET":"東寧路","SECT":" ","MAREA":" ","LANE":"２０１巷","ALLEY":" ","HOUSE_NO":"５號","E_COORD97":170596.67000000001,"N_COORD97":2543519.3900000001,"ADDRESS":"東寧路２０１巷５號","OBJECTID":390013},"geometry":{"x":170596.66999999993,"y":2543519.3900000006}},{"attributes":{"ID":390038,"DIS_CODE":0,"TOWNNAME":"東區","LI":"東明里","LIN":"29鄰","STREET":"東寧路","SECT":" ","MAREA":" ","LANE":"２０１巷","ALLEY":" ","HOUSE_NO":"８號","E_COORD97":170616.29000000001,"N_COORD97":2543517.9700000002,"ADDRESS":"東寧路２０１巷８號","OBJECTID":390014},"geometry":{"x":170616.29000000004,"y":2543517.9700000025}},{"attributes":{"ID":390039,"DIS_CODE":0,"TOWNNAME":"安南區","LI":"安慶里","LIN":"29鄰","STREET":"安和路","SECT":"一段","MAREA":" ","LANE":"４５９巷","ALLEY":" ","HOUSE_NO":"６８號","E_COORD97":169211.95000000001,"N_COORD97":2548552.3799999999,"ADDRESS":"安和路一段４５９巷６８號","OBJECTID":390015},"geometry":{"x":169211.95000000019,"y":2548552.379999999}},{"attributes":{"ID":390040,"DIS_CODE":0,"TOWNNAME":"安南區","LI":"安慶里","LIN":"29鄰","STREET":"安和路","SECT":"一段","MAREA":" ","LANE":"４５９巷","ALLEY":" ","HOUSE_NO":"７０號","E_COORD97":169213.38,"N_COORD97":2548548.3900000001,"ADDRESS":"安和路一段４５９巷７０號","OBJECTID":390016},"geometry":{"x":169213.37999999989,"y":2548548.3900000043}},{"attributes":{"ID":390041,"DIS_CODE":0,"TOWNNAME":"安南區","LI":"安慶里","LIN":"29鄰","STREET":"安和路","SECT":"一段","MAREA":" ","LANE":"４５９巷","ALLEY":" ","HOUSE_NO":"７２號","E_COORD97":169214.14000000001,"N_COORD97":2548544.9199999999,"ADDRESS":"安和路一段４５９巷７２號","OBJECTID":390017},"geometry":{"x":169214.1400000006,"y":2548544.9200000018}},{"attributes":{"ID":390042,"DIS_CODE":0,"TOWNNAME":"安南區","LI":"安慶里","LIN":"29鄰","STREET":"安和路","SECT":"一段","MAREA":" ","LANE":"４５９巷","ALLEY":" ","HOUSE_NO":"７４號","E_COORD97":169215.19,"N_COORD97":2548540.7799999998,"ADDRESS":"安和路一段４５９巷７４號","OBJECTID":390018},"geometry":{"x":169215.19000000041,"y":2548540.7799999975}},{"attributes":{"ID":390043,"DIS_CODE":0,"TOWNNAME":"安南區","LI":"安慶里","LIN":"29鄰","STREET":"安和路","SECT":"一段","MAREA":" ","LANE":"４５９巷","ALLEY":" ","HOUSE_NO":"７６號","E_COORD97":169216.17000000001,"N_COORD97":2548537.2400000002,"ADDRESS":"安和路一段４５９巷７６號","OBJECTID":390019},"geometry":{"x":169216.17000000086,"y":2548537.2400000002}},{"attributes":{"ID":390044,"DIS_CODE":0,"TOWNNAME":"安南區","LI":"安慶里","LIN":"29鄰","STREET":"安和路","SECT":"一段","MAREA":" ","LANE":"４５９巷","ALLEY":" ","HOUSE_NO":"７８號","E_COORD97":169217.76000000001,"N_COORD97":2548531.6600000001,"ADDRESS":"安和路一段４５９巷７８號","OBJECTID":390020},"geometry":{"x":169217.75999999978,"y":2548531.6600000001}},{"attributes":{"ID":390045,"DIS_CODE":0,"TOWNNAME":"安南區","LI":"安慶里","LIN":"29鄰","STREET":"安和路","SECT":"一段","MAREA":" ","LANE":"４５９巷","ALLEY":" ","HOUSE_NO":"８０號","E_COORD97":169217.45999999999,"N_COORD97":2548527.6299999999,"ADDRESS":"安和路一段４５９巷８０號","OBJECTID":390021},"geometry":{"x":169217.46000000089,"y":2548527.629999999}},{"attributes":{"ID":390046,"DIS_CODE":0,"TOWNNAME":"善化區","LI":"坐駕里","LIN":"13鄰","STREET":"自強路","SECT":" ","MAREA":" ","LANE":" ","ALLEY":" ","HOUSE_NO":"４５號","E_COORD97":178221.69,"N_COORD97":2558734.75,"ADDRESS":"自強路４５號","OBJECTID":390022},"geometry":{"x":178221.69000000134,"y":2558734.7500000019}},{"attributes":{"ID":390047,"DIS_CODE":0,"TOWNNAME":"東區","LI":"東明里","LIN":"29鄰","STREET":"東寧路","SECT":" ","MAREA":" ","LANE":"２０１巷","ALLEY":" ","HOUSE_NO":"６號","E_COORD97":170615.28,"N_COORD97":2543513.3300000001,"ADDRESS":"東寧路２０１巷６號","OBJECTID":390023},"geometry":{"x":170615.28000000026,"y":2543513.3299999982}},{"attributes":{"ID":390048,"DIS_CODE":0,"TOWNNAME":"安南區","LI":"安慶里","LIN":"29鄰","STREET":"長溪路","SECT":"一段","MAREA":" ","LANE":"１４６巷","ALLEY":" ","HOUSE_NO":"６７號","E_COORD97":169177.73999999999,"N_COORD97":2548550.73,"ADDRESS":"長溪路一段１４６巷６７號","OBJECTID":390024},"geometry":{"x":169177.74000000022,"y":2548550.7300000023}},{"attributes":{"ID":390049,"DIS_CODE":0,"TOWNNAME":"安南區","LI":"安慶里","LIN":"29鄰","STREET":"長溪路","SECT":"一段","MAREA":" ","LANE":"１４６巷","ALLEY":" ","HOUSE_NO":"６９號","E_COORD97":169181.97,"N_COORD97":2548550.6000000001,"ADDRESS":"長溪路一段１４６巷６９號","OBJECTID":390025},"geometry":{"x":169181.97000000067,"y":2548550.6000000015}},{"attributes":{"ID":390050,"DIS_CODE":0,"TOWNNAME":"安南區","LI":"安慶里","LIN":"29鄰","STREET":"長溪路","SECT":"一段","MAREA":" ","LANE":"１４６巷","ALLEY":" ","HOUSE_NO":"７１號","E_COORD97":169186.79999999999,"N_COORD97":2548550.27,"ADDRESS":"長溪路一段１４６巷７１號","OBJECTID":390026},"geometry":{"x":169186.79999999981,"y":2548550.2699999996}},{"attributes":{"ID":390051,"DIS_CODE":0,"TOWNNAME":"安南區","LI":"安慶里","LIN":"29鄰","STREET":"長溪路","SECT":"一段","MAREA":" ","LANE":"１４６巷","ALLEY":" ","HOUSE_NO":"７３號","E_COORD97":169190.82999999999,"N_COORD97":2548549.6699999999,"ADDRESS":"長溪路一段１４６巷７３號","OBJECTID":390027},"geometry":{"x":169190.82999999914,"y":2548549.6700000018}},{"attributes":{"ID":390052,"DIS_CODE":0,"TOWNNAME":"安南區","LI":"安慶里","LIN":"29鄰","STREET":"長溪路","SECT":"一段","MAREA":" ","LANE":"１４６巷","ALLEY":" ","HOUSE_NO":"７５號","E_COORD97":169195.26000000001,"N_COORD97":2548549.7999999998,"ADDRESS":"長溪路一段１４６巷７５號","OBJECTID":390028},"geometry":{"x":169195.26000000071,"y":2548549.8000000026}},{"attributes":{"ID":390053,"DIS_CODE":0,"TOWNNAME":"東區","LI":"虎尾里","LIN":"29鄰","STREET":"自由路","SECT":"三段","MAREA":" ","LANE":" ","ALLEY":" ","HOUSE_NO":"２２２號","E_COORD97":171850.97,"N_COORD97":2542252.1699999999,"ADDRESS":"自由路三段２２２號","OBJECTID":390029},"geometry":{"x":171850.96999999974,"y":2542252.1699999999}},{"attributes":{"ID":390054,"DIS_CODE":0,"TOWNNAME":"東區","LI":"虎尾里","LIN":"29鄰","STREET":"自由路","SECT":"三段","MAREA":" ","LANE":" ","ALLEY":" ","HOUSE_NO":"２２０號","E_COORD97":171851.10000000001,"N_COORD97":2542248.23,"ADDRESS":"自由路三段２２０號","OBJECTID":390030},"geometry":{"x":171851.09999999963,"y":2542248.2300000023}},{"attributes":{"ID":390055,"DIS_CODE":0,"TOWNNAME":"東區","LI":"虎尾里","LIN":"29鄰","STREET":"自由路","SECT":"三段","MAREA":" ","LANE":" ","ALLEY":" ","HOUSE_NO":"２１８號","E_COORD97":171851.23000000001,"N_COORD97":2542244.1699999999,"ADDRESS":"自由路三段２１８號","OBJECTID":390031},"geometry":{"x":171851.23000000045,"y":2542244.1700000018}},{"attributes":{"ID":390056,"DIS_CODE":0,"TOWNNAME":"東區","LI":"虎尾里","LIN":"29鄰","STREET":"自由路","SECT":"三段","MAREA":" ","LANE":" ","ALLEY":" ","HOUSE_NO":"２１６號","E_COORD97":171851.63,"N_COORD97":2542240.1000000001,"ADDRESS":"自由路三段２１６號","OBJECTID":390032},"geometry":{"x":171851.62999999989,"y":2542240.1000000034}},{"attributes":{"ID":390057,"DIS_CODE":0,"TOWNNAME":"東區","LI":"虎尾里","LIN":"29鄰","STREET":"自由路","SECT":"三段","MAREA":" ","LANE":" ","ALLEY":" ","HOUSE_NO":"２１２號","E_COORD97":171852.14999999999,"N_COORD97":2542235.8999999999,"ADDRESS":"自由路三段２１２號","OBJECTID":390033},"geometry":{"x":171852.14999999944,"y":2542235.9000000022}},{"attributes":{"ID":390058,"DIS_CODE":0,"TOWNNAME":"東區","LI":"虎尾里","LIN":"29鄰","STREET":"自由路","SECT":"三段","MAREA":" ","LANE":" ","ALLEY":" ","HOUSE_NO":"２１０號","E_COORD97":171852.81,"N_COORD97":2542231.8300000001,"ADDRESS":"自由路三段２１０號","OBJECTID":390034},"geometry":{"x":171852.81000000052,"y":2542231.8299999982}},{"attributes":{"ID":390059,"DIS_CODE":0,"TOWNNAME":"東區","LI":"虎尾里","LIN":"29鄰","STREET":"自由路","SECT":"三段","MAREA":" ","LANE":" ","ALLEY":" ","HOUSE_NO":"２５０號","E_COORD97":171846.07000000001,"N_COORD97":2542296.8700000001,"ADDRESS":"自由路三段２５０號","OBJECTID":390035},"geometry":{"x":171846.07000000216,"y":2542296.8699999992}},{"attributes":{"ID":390060,"DIS_CODE":0,"TOWNNAME":"東區","LI":"虎尾里","LIN":"29鄰","STREET":"自由路","SECT":"三段","MAREA":" ","LANE":" ","ALLEY":" ","HOUSE_NO":"２４８號","E_COORD97":171847.29000000001,"N_COORD97":2542292.52,"ADDRESS":"自由路三段２４８號","OBJECTID":390036},"geometry":{"x":171847.29000000004,"y":2542292.5200000014}},{"attributes":{"ID":390061,"DIS_CODE":0,"TOWNNAME":"東區","LI":"虎尾里","LIN":"29鄰","STREET":"自由路","SECT":"三段","MAREA":" ","LANE":" ","ALLEY":" ","HOUSE_NO":"２４２號","E_COORD97":171847.42000000001,"N_COORD97":2542284.3199999998,"ADDRESS":"自由路三段２４２號","OBJECTID":390037},"geometry":{"x":171847.41999999993,"y":2542284.3200000022}},{"attributes":{"ID":390062,"DIS_CODE":0,"TOWNNAME":"東區","LI":"虎尾里","LIN":"29鄰","STREET":"東成街","SECT":" ","MAREA":" ","LANE":"２００巷","ALLEY":" ","HOUSE_NO":"１０號","E_COORD97":171866.85999999999,"N_COORD97":2542284.3199999998,"ADDRESS":"東成街２００巷１０號","OBJECTID":390038},"geometry":{"x":171866.86000000127,"y":2542284.3200000022}},{"attributes":{"ID":390063,"DIS_CODE":0,"TOWNNAME":"東區","LI":"虎尾里","LIN":"29鄰","STREET":"東成街","SECT":" ","MAREA":" ","LANE":"２００巷","ALLEY":" ","HOUSE_NO":"１２號","E_COORD97":171867.51999999999,"N_COORD97":2542280.1200000001,"ADDRESS":"東成街２００巷１２號","OBJECTID":390039},"geometry":{"x":171867.52000000142,"y":2542280.1200000029}},{"attributes":{"ID":390064,"DIS_CODE":0,"TOWNNAME":"東區","LI":"虎尾里","LIN":"29鄰","STREET":"東成街","SECT":" ","MAREA":" ","LANE":"２００巷","ALLEY":" ","HOUSE_NO":"１４號","E_COORD97":171867.91,"N_COORD97":2542276.1800000002,"ADDRESS":"東成街２００巷１４號","OBJECTID":390040},"geometry":{"x":171867.91000000108,"y":2542276.1799999997}},{"attributes":{"ID":390065,"DIS_CODE":0,"TOWNNAME":"東區","LI":"虎尾里","LIN":"29鄰","STREET":"東成街","SECT":" ","MAREA":" ","LANE":"２００巷","ALLEY":" ","HOUSE_NO":"１６號","E_COORD97":171868.57000000001,"N_COORD97":2542272.6400000001,"ADDRESS":"東成街２００巷１６號","OBJECTID":390041},"geometry":{"x":171868.57000000123,"y":2542272.6400000025}},{"attributes":{"ID":390066,"DIS_CODE":0,"TOWNNAME":"東區","LI":"虎尾里","LIN":"29鄰","STREET":"東成街","SECT":" ","MAREA":" ","LANE":"２００巷","ALLEY":" ","HOUSE_NO":"１８號","E_COORD97":171869.09,"N_COORD97":2542268.1800000002,"ADDRESS":"東成街２００巷１８號","OBJECTID":390042},"geometry":{"x":171869.09000000171,"y":2542268.1800000016}},{"attributes":{"ID":390067,"DIS_CODE":0,"TOWNNAME":"東區","LI":"虎尾里","LIN":"29鄰","STREET":"東成街","SECT":" ","MAREA":" ","LANE":"２００巷","ALLEY":" ","HOUSE_NO":"２０號","E_COORD97":171869.35999999999,"N_COORD97":2542264.1099999999,"ADDRESS":"東成街２００巷２０號","OBJECTID":390043},"geometry":{"x":171869.3599999994,"y":2542264.1100000013}},{"attributes":{"ID":390068,"DIS_CODE":0,"TOWNNAME":"東區","LI":"虎尾里","LIN":"29鄰","STREET":"東成街","SECT":" ","MAREA":" ","LANE":"２００巷","ALLEY":" ","HOUSE_NO":"２２號","E_COORD97":171869.62,"N_COORD97":2542260.4399999999,"ADDRESS":"東成街２００巷２２號","OBJECTID":390044},"geometry":{"x":171869.62000000104,"y":2542260.4399999995}},{"attributes":{"ID":390069,"DIS_CODE":0,"TOWNNAME":"東區","LI":"虎尾里","LIN":"29鄰","STREET":"東成街","SECT":" ","MAREA":" ","LANE":"２００巷","ALLEY":" ","HOUSE_NO":"２４號","E_COORD97":171870.01000000001,"N_COORD97":2542256.3700000001,"ADDRESS":"東成街２００巷２４號","OBJECTID":390045},"geometry":{"x":171870.01000000071,"y":2542256.3700000048}},{"attributes":{"ID":390070,"DIS_CODE":0,"TOWNNAME":"東區","LI":"虎尾里","LIN":"29鄰","STREET":"東成街","SECT":" ","MAREA":" ","LANE":"２００巷","ALLEY":" ","HOUSE_NO":"２６號","E_COORD97":171869.75,"N_COORD97":2542252.4300000002,"ADDRESS":"東成街２００巷２６號","OBJECTID":390046},"geometry":{"x":171869.74999999907,"y":2542252.4300000016}},{"attributes":{"ID":390071,"DIS_CODE":0,"TOWNNAME":"東區","LI":"虎尾里","LIN":"29鄰","STREET":"東成街","SECT":" ","MAREA":" ","LANE":"２００巷","ALLEY":" ","HOUSE_NO":"２８號","E_COORD97":171869.88,"N_COORD97":2542248.3700000001,"ADDRESS":"東成街２００巷２８號","OBJECTID":390047},"geometry":{"x":171869.87999999989,"y":2542248.370000001}},{"attributes":{"ID":390072,"DIS_CODE":0,"TOWNNAME":"東區","LI":"虎尾里","LIN":"29鄰","STREET":"東成街","SECT":" ","MAREA":" ","LANE":"２００巷","ALLEY":" ","HOUSE_NO":"２號","E_COORD97":171866.35000000001,"N_COORD97":2542300.8900000001,"ADDRESS":"東成街２００巷２號","OBJECTID":390048},"geometry":{"x":171866.34999999963,"y":2542300.8900000025}},{"attributes":{"ID":390073,"DIS_CODE":0,"TOWNNAME":"東區","LI":"虎尾里","LIN":"29鄰","STREET":"東成街","SECT":" ","MAREA":" ","LANE":"２００巷","ALLEY":" ","HOUSE_NO":"３０號","E_COORD97":171870.28,"N_COORD97":2542244.8199999998,"ADDRESS":"東成街２００巷３０號","OBJECTID":390049},"geometry":{"x":171870.28000000119,"y":2542244.8200000003}},{"attributes":{"ID":390074,"DIS_CODE":0,"TOWNNAME":"東區","LI":"虎尾里","LIN":"29鄰","STREET":"東成街","SECT":" ","MAREA":" ","LANE":"２００巷","ALLEY":" ","HOUSE_NO":"３２號","E_COORD97":171870.28,"N_COORD97":2542240.6200000001,"ADDRESS":"東成街２００巷３２號","OBJECTID":390050},"geometry":{"x":171870.28000000119,"y":2542240.620000001}},{"attributes":{"ID":390075,"DIS_CODE":0,"TOWNNAME":"東區","LI":"東明里","LIN":"29鄰","STREET":"東寧路","SECT":" ","MAREA":" ","LANE":"２０１巷","ALLEY":" ","HOUSE_NO":"１０號","E_COORD97":170617.31,"N_COORD97":2543521.8100000001,"ADDRESS":"東寧路２０１巷１０號","OBJECTID":390051},"geometry":{"x":170617.30999999959,"y":2543521.8100000024}},{"attributes":{"ID":390076,"DIS_CODE":0,"TOWNNAME":"東區","LI":"東明里","LIN":"29鄰","STREET":"東寧路","SECT":" ","MAREA":" ","LANE":"２０１巷","ALLEY":" ","HOUSE_NO":"１１號","E_COORD97":170599.70999999999,"N_COORD97":2543531.9199999999,"ADDRESS":"東寧路２０１巷１１號","OBJECTID":390052},"geometry":{"x":170599.70999999996,"y":2543531.9199999999}},{"attributes":{"ID":390077,"DIS_CODE":0,"TOWNNAME":"東區","LI":"東明里","LIN":"29鄰","STREET":"東寧路","SECT":" ","MAREA":" ","LANE":"２０１巷","ALLEY":" ","HOUSE_NO":"１２號","E_COORD97":170617.70999999999,"N_COORD97":2543527.0699999998,"ADDRESS":"東寧路２０１巷１２號","OBJECTID":390053},"geometry":{"x":170617.71000000089,"y":2543527.0700000022}},{"attributes":{"ID":390078,"DIS_CODE":0,"TOWNNAME":"東區","LI":"東明里","LIN":"29鄰","STREET":"東寧路","SECT":" ","MAREA":" ","LANE":"２０１巷","ALLEY":" ","HOUSE_NO":"１３號","E_COORD97":170600.72,"N_COORD97":2543536.5699999998,"ADDRESS":"東寧路２０１巷１３號","OBJECTID":390054},"geometry":{"x":170600.72000000067,"y":2543536.5700000022}},{"attributes":{"ID":390079,"DIS_CODE":0,"TOWNNAME":"東區","LI":"東明里","LIN":"29鄰","STREET":"東寧路","SECT":" ","MAREA":" ","LANE":"２０１巷","ALLEY":" ","HOUSE_NO":"１４號","E_COORD97":170619.32999999999,"N_COORD97":2543530.9100000001,"ADDRESS":"東寧路２０１巷１４號","OBJECTID":390055},"geometry":{"x":170619.33000000007,"y":2543530.910000002}},{"attributes":{"ID":390080,"DIS_CODE":0,"TOWNNAME":"東區","LI":"東明里","LIN":"29鄰","STREET":"東寧路","SECT":" ","MAREA":" ","LANE":"２０１巷","ALLEY":" ","HOUSE_NO":"１５號","E_COORD97":170600.64999999999,"N_COORD97":2543540.7400000002,"ADDRESS":"東寧路２０１巷１５號","OBJECTID":390056},"geometry":{"x":170600.65000000037,"y":2543540.7400000002}},{"attributes":{"ID":390081,"DIS_CODE":0,"TOWNNAME":"東區","LI":"東明里","LIN":"29鄰","STREET":"東寧路","SECT":" ","MAREA":" ","LANE":"２０１巷","ALLEY":" ","HOUSE_NO":"１６號","E_COORD97":170620.34,"N_COORD97":2543534.9500000002,"ADDRESS":"東寧路２０１巷１６號","OBJECTID":390057},"geometry":{"x":170620.34000000078,"y":2543534.9499999993}},{"attributes":{"ID":390082,"DIS_CODE":0,"TOWNNAME":"東區","LI":"東明里","LIN":"29鄰","STREET":"東寧路","SECT":" ","MAREA":" ","LANE":"２０１巷","ALLEY":" ","HOUSE_NO":"１７號","E_COORD97":170602.26999999999,"N_COORD97":2543544.0499999998,"ADDRESS":"東寧路２０１巷１７號","OBJECTID":390058},"geometry":{"x":170602.26999999955,"y":2543544.0500000026}},{"attributes":{"ID":390083,"DIS_CODE":0,"TOWNNAME":"東區","LI":"東明里","LIN":"29鄰","STREET":"東寧路","SECT":" ","MAREA":" ","LANE":"２０１巷","ALLEY":" ","HOUSE_NO":"１８號","E_COORD97":170621.35000000001,"N_COORD97":2543540.21,"ADDRESS":"東寧路２０１巷１８號","OBJECTID":390059},"geometry":{"x":170621.35000000056,"y":2543540.2100000028}},{"attributes":{"ID":390084,"DIS_CODE":0,"TOWNNAME":"東區","LI":"東明里","LIN":"29鄰","STREET":"東寧路","SECT":" ","MAREA":" ","LANE":"２０１巷","ALLEY":" ","HOUSE_NO":"１９號","E_COORD97":170602.94,"N_COORD97":2543548.7000000002,"ADDRESS":"東寧路２０１巷１９號","OBJECTID":390060},"geometry":{"x":170602.94000000134,"y":2543548.7000000011}},{"attributes":{"ID":390085,"DIS_CODE":0,"TOWNNAME":"東區","LI":"東明里","LIN":"29鄰","STREET":"東寧路","SECT":" ","MAREA":" ","LANE":"２０１巷","ALLEY":" ","HOUSE_NO":"２０號","E_COORD97":170622.97,"N_COORD97":2543543.6400000001,"ADDRESS":"東寧路２０１巷２０號","OBJECTID":390061},"geometry":{"x":170622.96999999974,"y":2543543.6400000025}},{"attributes":{"ID":390086,"DIS_CODE":0,"TOWNNAME":"東區","LI":"東明里","LIN":"29鄰","STREET":"東寧路","SECT":" ","MAREA":" ","LANE":"２０１巷","ALLEY":" ","HOUSE_NO":"２１號","E_COORD97":170603.95000000001,"N_COORD97":2543552.7400000002,"ADDRESS":"東寧路２０１巷２１號","OBJECTID":390062},"geometry":{"x":170603.94999999925,"y":2543552.7400000021}},{"attributes":{"ID":390087,"DIS_CODE":0,"TOWNNAME":"東區","LI":"東明里","LIN":"29鄰","STREET":"東寧路","SECT":" ","MAREA":" ","LANE":"２０１巷","ALLEY":" ","HOUSE_NO":"２２號","E_COORD97":170623.57999999999,"N_COORD97":2543548.7000000002,"ADDRESS":"東寧路２０１巷２２號","OBJECTID":390063},"geometry":{"x":170623.58000000101,"y":2543548.7000000011}},{"attributes":{"ID":390088,"DIS_CODE":0,"TOWNNAME":"東區","LI":"東明里","LIN":"29鄰","STREET":"東寧路","SECT":" ","MAREA":" ","LANE":"２０１巷","ALLEY":" ","HOUSE_NO":"２３號","E_COORD97":170604.97,"N_COORD97":2543557.3900000001,"ADDRESS":"東寧路２０１巷２３號","OBJECTID":390064},"geometry":{"x":170604.96999999974,"y":2543557.3900000006}},{"attributes":{"ID":390089,"DIS_CODE":0,"TOWNNAME":"東區","LI":"東明里","LIN":"29鄰","STREET":"東寧路","SECT":" ","MAREA":" ","LANE":"２０１巷","ALLEY":" ","HOUSE_NO":"２４號","E_COORD97":170624.59,"N_COORD97":2543552.3300000001,"ADDRESS":"東寧路２０１巷２４號","OBJECTID":390065},"geometry":{"x":170624.58999999985,"y":2543552.3300000019}},{"attributes":{"ID":390090,"DIS_CODE":0,"TOWNNAME":"東區","LI":"東明里","LIN":"29鄰","STREET":"東寧路","SECT":" ","MAREA":" ","LANE":"２０１巷","ALLEY":" ","HOUSE_NO":"２５號","E_COORD97":170605.98000000001,"N_COORD97":2543562.04,"ADDRESS":"東寧路２０１巷２５號","OBJECTID":390066},"geometry":{"x":170605.98000000138,"y":2543562.0400000028}},{"attributes":{"ID":390091,"DIS_CODE":0,"TOWNNAME":"仁德區","LI":"仁義里","LIN":"46鄰","STREET":"仁義路","SECT":" ","MAREA":" ","LANE":"１２６巷","ALLEY":" ","HOUSE_NO":"４６號","E_COORD97":173676.64999999999,"N_COORD97":2540839.6499999999,"ADDRESS":"仁義路１２６巷４６號","OBJECTID":390067},"geometry":{"x":173676.6500000013,"y":2540839.6500000004}},{"attributes":{"ID":390092,"DIS_CODE":0,"TOWNNAME":"東區","LI":"東明里","LIN":"29鄰","STREET":"東寧路","SECT":" ","MAREA":" ","LANE":"２０１巷","ALLEY":" ","HOUSE_NO":"２６號","E_COORD97":170625.20000000001,"N_COORD97":2543557.79,"ADDRESS":"東寧路２０１巷２６號","OBJECTID":390068},"geometry":{"x":170625.20000000112,"y":2543557.790000001}},{"attributes":{"ID":390093,"DIS_CODE":0,"TOWNNAME":"東區","LI":"東明里","LIN":"29鄰","STREET":"東寧路","SECT":" ","MAREA":" ","LANE":"２０１巷","ALLEY":" ","HOUSE_NO":"２７號","E_COORD97":170606.98999999999,"N_COORD97":2543565.8799999999,"ADDRESS":"東寧路２０１巷２７號","OBJECTID":390069},"geometry":{"x":170606.99000000022,"y":2543565.879999999}},{"attributes":{"ID":390094,"DIS_CODE":0,"TOWNNAME":"東區","LI":"東明里","LIN":"29鄰","STREET":"東寧路","SECT":" ","MAREA":" ","LANE":"２０１巷","ALLEY":" ","HOUSE_NO":"２８號","E_COORD97":170626.20999999999,"N_COORD97":2543562.8399999999,"ADDRESS":"東寧路２０１巷２８號","OBJECTID":390070},"geometry":{"x":170626.21000000089,"y":2543562.8399999999}},{"attributes":{"ID":390095,"DIS_CODE":0,"TOWNNAME":"東區","LI":"東明里","LIN":"29鄰","STREET":"東寧路","SECT":" ","MAREA":" ","LANE":"２０１巷","ALLEY":" ","HOUSE_NO":"２８號之１","E_COORD97":170628.23000000001,"N_COORD97":2543568.0899999999,"ADDRESS":"東寧路２０１巷２８號之１","OBJECTID":390071},"geometry":{"x":170628.23000000138,"y":2543568.0899999999}},{"attributes":{"ID":390096,"DIS_CODE":0,"TOWNNAME":"東區","LI":"東明里","LIN":"29鄰","STREET":"東寧路","SECT":" ","MAREA":" ","LANE":"２０１巷","ALLEY":" ","HOUSE_NO":"２８號之２","E_COORD97":170629.85000000001,"N_COORD97":2543573.1400000001,"ADDRESS":"東寧路２０１巷２８號之２","OBJECTID":390072},"geometry":{"x":170629.85000000056,"y":2543573.1400000043}},{"attributes":{"ID":390097,"DIS_CODE":0,"TOWNNAME":"東區","LI":"東明里","LIN":"29鄰","STREET":"東寧路","SECT":" ","MAREA":" ","LANE":"２０１巷","ALLEY":" ","HOUSE_NO":"２８號之３","E_COORD97":170630.25,"N_COORD97":2543577.1800000002,"ADDRESS":"東寧路２０１巷２８號之３","OBJECTID":390073},"geometry":{"x":170630.25,"y":2543577.1799999997}},{"attributes":{"ID":390098,"DIS_CODE":0,"TOWNNAME":"東區","LI":"東明里","LIN":"29鄰","STREET":"東寧路","SECT":" ","MAREA":" ","LANE":"２０１巷","ALLEY":" ","HOUSE_NO":"２９號","E_COORD97":170606.98999999999,"N_COORD97":2543571.54,"ADDRESS":"東寧路２０１巷２９號","OBJECTID":390074},"geometry":{"x":170606.99000000022,"y":2543571.5399999991}},{"attributes":{"ID":390099,"DIS_CODE":0,"TOWNNAME":"東區","LI":"東明里","LIN":"29鄰","STREET":"東寧路","SECT":" ","MAREA":" ","LANE":"２０１巷","ALLEY":" ","HOUSE_NO":"２號","E_COORD97":170612.85000000001,"N_COORD97":2543503.6200000001,"ADDRESS":"東寧路２０１巷２號","OBJECTID":390075},"geometry":{"x":170612.85000000056,"y":2543503.6200000029}},{"attributes":{"ID":390100,"DIS_CODE":0,"TOWNNAME":"東區","LI":"東明里","LIN":"29鄰","STREET":"東寧路","SECT":" ","MAREA":" ","LANE":"２０１巷","ALLEY":" ","HOUSE_NO":"３０號","E_COORD97":170629.85000000001,"N_COORD97":2543583.25,"ADDRESS":"東寧路２０１巷３０號","OBJECTID":390076},"geometry":{"x":170629.85000000056,"y":2543583.2500000019}},{"attributes":{"ID":390101,"DIS_CODE":0,"TOWNNAME":"東區","LI":"東明里","LIN":"29鄰","STREET":"東寧路","SECT":" ","MAREA":" ","LANE":"２０１巷","ALLEY":" ","HOUSE_NO":"３０號之１","E_COORD97":170631.26000000001,"N_COORD97":2543586.6800000002,"ADDRESS":"東寧路２０１巷３０號之１","OBJECTID":390077},"geometry":{"x":170631.25999999978,"y":2543586.6800000016}},{"attributes":{"ID":390102,"DIS_CODE":0,"TOWNNAME":"東區","LI":"東明里","LIN":"29鄰","STREET":"東寧路","SECT":" ","MAREA":" ","LANE":"２０１巷","ALLEY":" ","HOUSE_NO":"３０號之２","E_COORD97":170631.67000000001,"N_COORD97":2543591.1299999999,"ADDRESS":"東寧路２０１巷３０號之２","OBJECTID":390078},"geometry":{"x":170631.67000000086,"y":2543591.129999999}},{"attributes":{"ID":390103,"DIS_CODE":0,"TOWNNAME":"東區","LI":"東明里","LIN":"29鄰","STREET":"東寧路","SECT":" ","MAREA":" ","LANE":"２０１巷","ALLEY":" ","HOUSE_NO":"３０號之３","E_COORD97":170632.67999999999,"N_COORD97":2543595.3799999999,"ADDRESS":"東寧路２０１巷３０號之３","OBJECTID":390079},"geometry":{"x":170632.68000000063,"y":2543595.379999999}},{"attributes":{"ID":390104,"DIS_CODE":0,"TOWNNAME":"東區","LI":"東明里","LIN":"29鄰","STREET":"東寧路","SECT":" ","MAREA":" ","LANE":"２０１巷","ALLEY":" ","HOUSE_NO":"３０號之４","E_COORD97":170634.10000000001,"N_COORD97":2543599.8199999998,"ADDRESS":"東寧路２０１巷３０號之４","OBJECTID":390080},"geometry":{"x":170634.09999999963,"y":2543599.8200000022}},{"attributes":{"ID":390105,"DIS_CODE":0,"TOWNNAME":"東區","LI":"東明里","LIN":"29鄰","STREET":"東寧路","SECT":" ","MAREA":" ","LANE":"２０１巷","ALLEY":" ","HOUSE_NO":"３０號之６","E_COORD97":170635.31,"N_COORD97":2543607.2999999998,"ADDRESS":"東寧路２０１巷３０號之６","OBJECTID":390081},"geometry":{"x":170635.31000000052,"y":2543607.3000000026}},{"attributes":{"ID":390106,"DIS_CODE":0,"TOWNNAME":"東區","LI":"東明里","LIN":"29鄰","STREET":"東寧路","SECT":" ","MAREA":" ","LANE":"２０１巷","ALLEY":" ","HOUSE_NO":"３１號","E_COORD97":170608,"N_COORD97":2543575.1699999999,"ADDRESS":"東寧路２０１巷３１號","OBJECTID":390082},"geometry":{"x":170608,"y":2543575.1699999999}},{"attributes":{"ID":390107,"DIS_CODE":0,"TOWNNAME":"東區","LI":"東明里","LIN":"29鄰","STREET":"東寧路","SECT":" ","MAREA":" ","LANE":"２０１巷","ALLEY":" ","HOUSE_NO":"３３號","E_COORD97":170609.01000000001,"N_COORD97":2543580.6299999999,"ADDRESS":"東寧路２０１巷３３號","OBJECTID":390083},"geometry":{"x":170609.01000000071,"y":2543580.629999999}},{"attributes":{"ID":390108,"DIS_CODE":0,"TOWNNAME":"東區","LI":"東明里","LIN":"29鄰","STREET":"東寧路","SECT":" ","MAREA":" ","LANE":"２０１巷","ALLEY":" ","HOUSE_NO":"３５號","E_COORD97":170610.42999999999,"N_COORD97":2543585.2799999998,"ADDRESS":"東寧路２０１巷３５號","OBJECTID":390084},"geometry":{"x":170610.43000000156,"y":2543585.2800000012}},{"attributes":{"ID":390109,"DIS_CODE":0,"TOWNNAME":"東區","LI":"東明里","LIN":"29鄰","STREET":"東寧路","SECT":" ","MAREA":" ","LANE":"２０１巷","ALLEY":" ","HOUSE_NO":"３７號","E_COORD97":170611.44,"N_COORD97":2543589.3199999998,"ADDRESS":"東寧路２０１巷３７號","OBJECTID":390085},"geometry":{"x":170611.44000000134,"y":2543589.3200000022}},{"attributes":{"ID":390110,"DIS_CODE":0,"TOWNNAME":"東區","LI":"東明里","LIN":"29鄰","STREET":"東寧路","SECT":" ","MAREA":" ","LANE":"２０１巷","ALLEY":" ","HOUSE_NO":"３９號","E_COORD97":170612.64999999999,"N_COORD97":2543593.96,"ADDRESS":"東寧路２０１巷３９號","OBJECTID":390086},"geometry":{"x":170612.65000000037,"y":2543593.9600000009}},{"attributes":{"ID":390111,"DIS_CODE":0,"TOWNNAME":"東區","LI":"東明里","LIN":"29鄰","STREET":"東寧路","SECT":" ","MAREA":" ","LANE":"２０１巷","ALLEY":" ","HOUSE_NO":"３號","E_COORD97":170596.06,"N_COORD97":2543515.3500000001,"ADDRESS":"東寧路２０１巷３號","OBJECTID":390087},"geometry":{"x":170596.06000000052,"y":2543515.3499999996}},{"attributes":{"ID":390112,"DIS_CODE":0,"TOWNNAME":"東區","LI":"東明里","LIN":"29鄰","STREET":"東寧路","SECT":" ","MAREA":" ","LANE":"２０１巷","ALLEY":" ","HOUSE_NO":"４１號","E_COORD97":170613.26000000001,"N_COORD97":2543597.7999999998,"ADDRESS":"東寧路２０１巷４１號","OBJECTID":390088},"geometry":{"x":170613.25999999885,"y":2543597.8000000007}},{"attributes":{"ID":390113,"DIS_CODE":0,"TOWNNAME":"東區","LI":"東明里","LIN":"29鄰","STREET":"東寧路","SECT":" ","MAREA":" ","LANE":"２０１巷","ALLEY":" ","HOUSE_NO":"４３號","E_COORD97":170614.26999999999,"N_COORD97":2543601.4399999999,"ADDRESS":"東寧路２０１巷４３號","OBJECTID":390089},"geometry":{"x":170614.26999999955,"y":2543601.4400000013}},{"attributes":{"ID":390114,"DIS_CODE":0,"TOWNNAME":"東區","LI":"東明里","LIN":"29鄰","STREET":"東寧路","SECT":" ","MAREA":" ","LANE":"２０１巷","ALLEY":" ","HOUSE_NO":"４５號","E_COORD97":170613.87,"N_COORD97":2543606.4900000002,"ADDRESS":"東寧路２０１巷４５號","OBJECTID":390090},"geometry":{"x":170613.87000000011,"y":2543606.4900000002}},{"attributes":{"ID":390115,"DIS_CODE":0,"TOWNNAME":"東區","LI":"東明里","LIN":"29鄰","STREET":"東寧路","SECT":" ","MAREA":" ","LANE":"２０１巷","ALLEY":" ","HOUSE_NO":"４７號","E_COORD97":170615.69,"N_COORD97":2543611.1400000001,"ADDRESS":"東寧路２０１巷４７號","OBJECTID":390091},"geometry":{"x":170615.69000000041,"y":2543611.1400000025}},{"attributes":{"ID":390116,"DIS_CODE":0,"TOWNNAME":"東區","LI":"東明里","LIN":"29鄰","STREET":"東寧路","SECT":" ","MAREA":" ","LANE":"２０１巷","ALLEY":" ","HOUSE_NO":"４號","E_COORD97":170614.67999999999,"N_COORD97":2543508.6800000002,"ADDRESS":"東寧路２０１巷４號","OBJECTID":390092},"geometry":{"x":170614.68000000063,"y":2543508.6800000016}},{"attributes":{"ID":390117,"DIS_CODE":0,"TOWNNAME":"永康區","LI":"復國里","LIN":"29鄰","STREET":"復華二街","SECT":" ","MAREA":" ","LANE":"１３巷","ALLEY":" ","HOUSE_NO":"２號","E_COORD97":172617.59,"N_COORD97":2545331.02,"ADDRESS":"復華二街１３巷２號","OBJECTID":390093},"geometry":{"x":172617.58999999985,"y":2545331.0199999996}},{"attributes":{"ID":390118,"DIS_CODE":0,"TOWNNAME":"永康區","LI":"復國里","LIN":"29鄰","STREET":"復華二街","SECT":" ","MAREA":" ","LANE":"１３巷","ALLEY":" ","HOUSE_NO":"３號","E_COORD97":172629.79999999999,"N_COORD97":2545326.77,"ADDRESS":"復華二街１３巷３號","OBJECTID":390094},"geometry":{"x":172629.79999999981,"y":2545326.7699999996}},{"attributes":{"ID":390119,"DIS_CODE":0,"TOWNNAME":"永康區","LI":"復國里","LIN":"29鄰","STREET":"復華二街","SECT":" ","MAREA":" ","LANE":"１３巷","ALLEY":" ","HOUSE_NO":"１４號","E_COORD97":172617.20000000001,"N_COORD97":2545307.7799999998,"ADDRESS":"復華二街１３巷１４號","OBJECTID":390095},"geometry":{"x":172617.20000000019,"y":2545307.7800000012}},{"attributes":{"ID":390120,"DIS_CODE":0,"TOWNNAME":"永康區","LI":"勝利里","LIN":"29鄰","STREET":"勝利街","SECT":" ","MAREA":" ","LANE":"３２巷","ALLEY":" ","HOUSE_NO":"９號","E_COORD97":171366.28,"N_COORD97":2544603.2599999998,"ADDRESS":"勝利街３２巷９號","OBJECTID":390096},"geometry":{"x":171366.28000000026,"y":2544603.2600000016}},{"attributes":{"ID":390121,"DIS_CODE":0,"TOWNNAME":"永康區","LI":"復國里","LIN":"29鄰","STREET":"復華二街","SECT":" ","MAREA":" ","LANE":"１３巷","ALLEY":" ","HOUSE_NO":"７號","E_COORD97":172629.14999999999,"N_COORD97":2545317.27,"ADDRESS":"復華二街１３巷７號","OBJECTID":390097},"geometry":{"x":172629.1500000013,"y":2545317.2700000033}},{"attributes":{"ID":390122,"DIS_CODE":0,"TOWNNAME":"永康區","LI":"復國里","LIN":"29鄰","STREET":"復華二街","SECT":" ","MAREA":" ","LANE":"１巷","ALLEY":" ","HOUSE_NO":"２４號","E_COORD97":172672.98999999999,"N_COORD97":2545285.4900000002,"ADDRESS":"復華二街１巷２４號","OBJECTID":390098},"geometry":{"x":172672.99000000022,"y":2545285.4900000002}},{"attributes":{"ID":390123,"DIS_CODE":0,"TOWNNAME":"永康區","LI":"復國里","LIN":"29鄰","STREET":"復華二街","SECT":" ","MAREA":" ","LANE":"２３巷","ALLEY":" ","HOUSE_NO":"７號","E_COORD97":172590.89999999999,"N_COORD97":2545318.27,"ADDRESS":"復華二街２３巷７號","OBJECTID":390099},"geometry":{"x":172590.90000000037,"y":2545318.2700000014}},{"attributes":{"ID":390124,"DIS_CODE":0,"TOWNNAME":"永康區","LI":"復國里","LIN":"29鄰","STREET":"復華二街","SECT":" ","MAREA":" ","LANE":"１巷","ALLEY":" ","HOUSE_NO":"１號","E_COORD97":172686.17999999999,"N_COORD97":2545327.27,"ADDRESS":"復華二街１巷１號","OBJECTID":390100},"geometry":{"x":172686.18000000063,"y":2545327.2700000033}},{"attributes":{"ID":390125,"DIS_CODE":0,"TOWNNAME":"永康區","LI":"復國里","LIN":"29鄰","STREET":"復華二街","SECT":" ","MAREA":" ","LANE":"２３巷","ALLEY":" ","HOUSE_NO":"１０號","E_COORD97":172580.23999999999,"N_COORD97":2545312.7799999998,"ADDRESS":"復華二街２３巷１０號","OBJECTID":390101},"geometry":{"x":172580.24000000022,"y":2545312.7799999993}},{"attributes":{"ID":390126,"DIS_CODE":0,"TOWNNAME":"永康區","LI":"復國里","LIN":"29鄰","STREET":"復華二街","SECT":" ","MAREA":" ","LANE":"３巷","ALLEY":" ","HOUSE_NO":"２號","E_COORD97":172652.32999999999,"N_COORD97":2545326.27,"ADDRESS":"復華二街３巷２號","OBJECTID":390102},"geometry":{"x":172652.33000000007,"y":2545326.2699999996}},{"attributes":{"ID":390127,"DIS_CODE":0,"TOWNNAME":"永康區","LI":"復興里","LIN":"29鄰","STREET":"忠孝路","SECT":" ","MAREA":" ","LANE":"７６巷","ALLEY":" ","HOUSE_NO":"１０號","E_COORD97":172281.23000000001,"N_COORD97":2544919.9900000002,"ADDRESS":"忠孝路７６巷１０號","OBJECTID":390103},"geometry":{"x":172281.23000000138,"y":2544919.9900000021}},{"attributes":{"ID":390128,"DIS_CODE":0,"TOWNNAME":"永康區","LI":"復國里","LIN":"29鄰","STREET":"復華二街","SECT":" ","MAREA":" ","LANE":"２３巷","ALLEY":" ","HOUSE_NO":"１１號","E_COORD97":172591.56,"N_COORD97":2545308.7799999998,"ADDRESS":"復華二街２３巷１１號","OBJECTID":390104},"geometry":{"x":172591.56000000052,"y":2545308.7799999993}},{"attributes":{"ID":390129,"DIS_CODE":0,"TOWNNAME":"永康區","LI":"復國里","LIN":"29鄰","STREET":"復華二街","SECT":" ","MAREA":" ","LANE":"２３巷","ALLEY":" ","HOUSE_NO":"２號","E_COORD97":172579.5,"N_COORD97":2545330.27,"ADDRESS":"復華二街２３巷２號","OBJECTID":390105},"geometry":{"x":172579.5,"y":2545330.2699999996}},{"attributes":{"ID":390130,"DIS_CODE":0,"TOWNNAME":"永康區","LI":"復興里","LIN":"29鄰","STREET":"忠孝路","SECT":" ","MAREA":" ","LANE":"７６巷","ALLEY":" ","HOUSE_NO":"１６號","E_COORD97":172283.07000000001,"N_COORD97":2544939.7400000002,"ADDRESS":"忠孝路７６巷１６號","OBJECTID":390106},"geometry":{"x":172283.0700000003,"y":2544939.7400000021}},{"attributes":{"ID":390131,"DIS_CODE":0,"TOWNNAME":"永康區","LI":"復國里","LIN":"29鄰","STREET":"復華二街","SECT":" ","MAREA":" ","LANE":"１巷","ALLEY":" ","HOUSE_NO":"１０號","E_COORD97":172674.88,"N_COORD97":2545318.48,"ADDRESS":"復華二街１巷１０號","OBJECTID":390107},"geometry":{"x":172674.88000000082,"y":2545318.4800000004}},{"attributes":{"ID":390132,"DIS_CODE":0,"TOWNNAME":"永康區","LI":"復國里","LIN":"29鄰","STREET":"復華二街","SECT":" ","MAREA":" ","LANE":"１巷","ALLEY":" ","HOUSE_NO":"１７號","E_COORD97":172684.67999999999,"N_COORD97":2545290.2799999998,"ADDRESS":"復華二街１巷１７號","OBJECTID":390108},"geometry":{"x":172684.6799999997,"y":2545290.2800000012}},{"attributes":{"ID":390133,"DIS_CODE":0,"TOWNNAME":"永康區","LI":"復國里","LIN":"29鄰","STREET":"復華二街","SECT":" ","MAREA":" ","LANE":"１巷","ALLEY":" ","HOUSE_NO":"１５號","E_COORD97":172685.29000000001,"N_COORD97":2545295.5299999998,"ADDRESS":"復華二街１巷１５號","OBJECTID":390109},"geometry":{"x":172685.29000000097,"y":2545295.5300000012}},{"attributes":{"ID":390134,"DIS_CODE":0,"TOWNNAME":"永康區","LI":"二王里","LIN":"29鄰","STREET":"中山南路","SECT":" ","MAREA":" ","LANE":"５４４巷","ALLEY":" ","HOUSE_NO":"２６號","E_COORD97":172257.17999999999,"N_COORD97":2546526.3799999999,"ADDRESS":"中山南路５４４巷２６號","OBJECTID":390110},"geometry":{"x":172257.18000000063,"y":2546526.3800000008}},{"attributes":{"ID":390135,"DIS_CODE":0,"TOWNNAME":"永康區","LI":"二王里","LIN":"29鄰","STREET":"中山南路","SECT":" ","MAREA":" ","LANE":"５４４巷","ALLEY":" ","HOUSE_NO":"１８號","E_COORD97":172232.25,"N_COORD97":2546523.52,"ADDRESS":"中山南路５４４巷１８號","OBJECTID":390111},"geometry":{"x":172232.25,"y":2546523.5200000014}},{"attributes":{"ID":390136,"DIS_CODE":0,"TOWNNAME":"永康區","LI":"二王里","LIN":"29鄰","STREET":"中山南路","SECT":" ","MAREA":" ","LANE":"５４４巷","ALLEY":" ","HOUSE_NO":"９號","E_COORD97":172217.35999999999,"N_COORD97":2546532.4399999999,"ADDRESS":"中山南路５４４巷９號","OBJECTID":390112},"geometry":{"x":172217.36000000127,"y":2546532.4399999995}},{"attributes":{"ID":390137,"DIS_CODE":0,"TOWNNAME":"永康區","LI":"二王里","LIN":"29鄰","STREET":"中山南路","SECT":" ","MAREA":" ","LANE":"５４４巷","ALLEY":" ","HOUSE_NO":"２８號","E_COORD97":172260.07000000001,"N_COORD97":2546522.1299999999,"ADDRESS":"中山南路５４４巷２８號","OBJECTID":390113},"geometry":{"x":172260.07000000123,"y":2546522.1300000008}},{"attributes":{"ID":390138,"DIS_CODE":0,"TOWNNAME":"永康區","LI":"二王里","LIN":"29鄰","STREET":"中山南路","SECT":" ","MAREA":" ","LANE":"５４４巷","ALLEY":" ","HOUSE_NO":"１３號","E_COORD97":172227.20999999999,"N_COORD97":2546538.6899999999,"ADDRESS":"中山南路５４４巷１３號","OBJECTID":390114},"geometry":{"x":172227.20999999996,"y":2546538.6900000013}},{"attributes":{"ID":390139,"DIS_CODE":0,"TOWNNAME":"永康區","LI":"二王里","LIN":"29鄰","STREET":"中山南路","SECT":" ","MAREA":" ","LANE":"５４４巷","ALLEY":" ","HOUSE_NO":"４１之１號","E_COORD97":172277.73000000001,"N_COORD97":2546526.77,"ADDRESS":"中山南路５４４巷４１之１號","OBJECTID":390115},"geometry":{"x":172277.73000000138,"y":2546526.7699999996}},{"attributes":{"ID":390140,"DIS_CODE":0,"TOWNNAME":"永康區","LI":"二王里","LIN":"29鄰","STREET":"中山南路","SECT":" ","MAREA":" ","LANE":"５４４巷","ALLEY":" ","HOUSE_NO":"１１號","E_COORD97":172223.01000000001,"N_COORD97":2546535.4399999999,"ADDRESS":"中山南路５４４巷１１號","OBJECTID":390116},"geometry":{"x":172223.00999999978,"y":2546535.4399999995}},{"attributes":{"ID":390141,"DIS_CODE":0,"TOWNNAME":"永康區","LI":"西灣里","LIN":"29鄰","STREET":"公園路","SECT":" ","MAREA":" ","LANE":"６３巷","ALLEY":" ","HOUSE_NO":"５８號","E_COORD97":174356.88,"N_COORD97":2545834.2400000002,"ADDRESS":"公園路６３巷５８號","OBJECTID":390117},"geometry":{"x":174356.87999999989,"y":2545834.2400000021}},{"attributes":{"ID":390142,"DIS_CODE":0,"TOWNNAME":"永康區","LI":"復國里","LIN":"29鄰","STREET":"復華二街","SECT":" ","MAREA":" ","LANE":"３３巷","ALLEY":" ","HOUSE_NO":"５號","E_COORD97":172553.95999999999,"N_COORD97":2545318.02,"ADDRESS":"復華二街３３巷５號","OBJECTID":390118},"geometry":{"x":172553.96000000089,"y":2545318.0199999996}},{"attributes":{"ID":390143,"DIS_CODE":0,"TOWNNAME":"永康區","LI":"二王里","LIN":"29鄰","STREET":"中山南路","SECT":" ","MAREA":" ","LANE":"５４４巷","ALLEY":" ","HOUSE_NO":"７號","E_COORD97":172213.10000000001,"N_COORD97":2546529.6899999999,"ADDRESS":"中山南路５４４巷７號","OBJECTID":390119},"geometry":{"x":172213.10000000056,"y":2546529.6899999995}},{"attributes":{"ID":390144,"DIS_CODE":0,"TOWNNAME":"永康區","LI":"二王里","LIN":"29鄰","STREET":"中山南路","SECT":" ","MAREA":" ","LANE":"５４４巷","ALLEY":" ","HOUSE_NO":"５號","E_COORD97":172208.60999999999,"N_COORD97":2546526.6899999999,"ADDRESS":"中山南路５４４巷５號","OBJECTID":390120},"geometry":{"x":172208.61000000127,"y":2546526.6899999995}},{"attributes":{"ID":390145,"DIS_CODE":0,"TOWNNAME":"永康區","LI":"二王里","LIN":"29鄰","STREET":"中山南路","SECT":" ","MAREA":" ","LANE":"５４４巷","ALLEY":" ","HOUSE_NO":"３０號","E_COORD97":172262.97,"N_COORD97":2546517.3799999999,"ADDRESS":"中山南路５４４巷３０號","OBJECTID":390121},"geometry":{"x":172262.9700000016,"y":2546517.3800000008}},{"attributes":{"ID":390146,"DIS_CODE":0,"TOWNNAME":"永康區","LI":"二王里","LIN":"29鄰","STREET":"中山南路","SECT":" ","MAREA":" ","LANE":"５４４巷","ALLEY":" ","HOUSE_NO":"３２號","E_COORD97":172266.41,"N_COORD97":2546512.1299999999,"ADDRESS":"中山南路５４４巷３２號","OBJECTID":390122},"geometry":{"x":172266.41000000108,"y":2546512.1300000008}},{"attributes":{"ID":390147,"DIS_CODE":0,"TOWNNAME":"永康區","LI":"二王里","LIN":"29鄰","STREET":"中山南路","SECT":" ","MAREA":" ","LANE":"５４４巷","ALLEY":" ","HOUSE_NO":"１６號","E_COORD97":172226.70000000001,"N_COORD97":2546518.02,"ADDRESS":"中山南路５４４巷１６號","OBJECTID":390123},"geometry":{"x":172226.70000000112,"y":2546518.0199999996}},{"attributes":{"ID":390148,"DIS_CODE":0,"TOWNNAME":"永康區","LI":"二王里","LIN":"29鄰","STREET":"中山南路","SECT":" ","MAREA":" ","LANE":"５４４巷","ALLEY":" ","HOUSE_NO":"４３之１號","E_COORD97":172279.67999999999,"N_COORD97":2546523.77,"ADDRESS":"中山南路５４４巷４３之１號","OBJECTID":390124},"geometry":{"x":172279.6799999997,"y":2546523.7699999996}},{"attributes":{"ID":390149,"DIS_CODE":0,"TOWNNAME":"永康區","LI":"二王里","LIN":"29鄰","STREET":"中山南路","SECT":" ","MAREA":" ","LANE":"５４４巷","ALLEY":" ","HOUSE_NO":"１號","E_COORD97":172197.54999999999,"N_COORD97":2546521.1899999999,"ADDRESS":"中山南路５４４巷１號","OBJECTID":390125},"geometry":{"x":172197.54999999981,"y":2546521.1900000032}},{"attributes":{"ID":390150,"DIS_CODE":0,"TOWNNAME":"東區","LI":"虎尾里","LIN":"29鄰","STREET":"自由路","SECT":"三段","MAREA":" ","LANE":" ","ALLEY":" ","HOUSE_NO":"２５２號","E_COORD97":171845.34,"N_COORD97":2542300.8900000001,"ADDRESS":"自由路三段２５２號","OBJECTID":390126},"geometry":{"x":171845.34000000171,"y":2542300.8900000025}},{"attributes":{"ID":390151,"DIS_CODE":0,"TOWNNAME":"東區","LI":"東明里","LIN":"29鄰","STREET":"東寧路","SECT":" ","MAREA":" ","LANE":"２０１巷","ALLEY":" ","HOUSE_NO":"１號","E_COORD97":170595.25,"N_COORD97":2543510.5,"ADDRESS":"東寧路２０１巷１號","OBJECTID":390127},"geometry":{"x":170595.25000000093,"y":2543510.5000000019}},{"attributes":{"ID":390152,"DIS_CODE":0,"TOWNNAME":"仁德區","LI":"成功里","LIN":"36鄰","STREET":"保華路","SECT":" ","MAREA":" ","LANE":"４６巷","ALLEY":" ","HOUSE_NO":"２３號","E_COORD97":170654.35999999999,"N_COORD97":2540053.7400000002,"ADDRESS":"保華路４６巷２３號","OBJECTID":390128},"geometry":{"x":170654.36000000127,"y":2540053.7400000021}},{"attributes":{"ID":390153,"DIS_CODE":0,"TOWNNAME":"仁德區","LI":"太子里","LIN":"29鄰","STREET":"大發路","SECT":" ","MAREA":" ","LANE":"１５９巷","ALLEY":" ","HOUSE_NO":"１１號","E_COORD97":173210.57000000001,"N_COORD97":2543007.77,"ADDRESS":"大發路１５９巷１１號","OBJECTID":390129},"geometry":{"x":173210.57000000216,"y":2543007.7699999996}},{"attributes":{"ID":390154,"DIS_CODE":0,"TOWNNAME":"仁德區","LI":"太子里","LIN":"29鄰","STREET":"大發路","SECT":" ","MAREA":" ","LANE":"１５９巷","ALLEY":" ","HOUSE_NO":"１６號","E_COORD97":173200.10999999999,"N_COORD97":2543023.52,"ADDRESS":"大發路１５９巷１６號","OBJECTID":390130},"geometry":{"x":173200.1100000022,"y":2543023.5200000033}},{"attributes":{"ID":390155,"DIS_CODE":0,"TOWNNAME":"仁德區","LI":"太子里","LIN":"29鄰","STREET":"太子四街","SECT":" ","MAREA":" ","LANE":"４１巷","ALLEY":" ","HOUSE_NO":"１２號","E_COORD97":173088.45999999999,"N_COORD97":2542931.2599999998,"ADDRESS":"太子四街４１巷１２號","OBJECTID":390131},"geometry":{"x":173088.45999999996,"y":2542931.2600000016}},{"attributes":{"ID":390156,"DIS_CODE":0,"TOWNNAME":"仁德區","LI":"後壁里","LIN":"29鄰","STREET":"德洋一街","SECT":" ","MAREA":" ","LANE":"３０巷","ALLEY":" ","HOUSE_NO":"２０號","E_COORD97":173154.57999999999,"N_COORD97":2539129.7599999998,"ADDRESS":"德洋一街３０巷２０號","OBJECTID":390132},"geometry":{"x":173154.58000000101,"y":2539129.7599999979}},{"attributes":{"ID":390157,"DIS_CODE":0,"TOWNNAME":"仁德區","LI":"田厝里","LIN":"6鄰","STREET":"田厝三街","SECT":" ","MAREA":" ","LANE":"８２巷","ALLEY":" ","HOUSE_NO":"１１號","E_COORD97":172608.10999999999,"N_COORD97":2537377.7400000002,"ADDRESS":"田厝三街８２巷１１號","OBJECTID":390133},"geometry":{"x":172608.11000000034,"y":2537377.7400000039}},{"attributes":{"ID":390158,"DIS_CODE":0,"TOWNNAME":"仁德區","LI":"後壁里","LIN":"29鄰","STREET":"德洋一街","SECT":" ","MAREA":" ","LANE":"２４巷","ALLEY":" ","HOUSE_NO":"１２號","E_COORD97":173137.70000000001,"N_COORD97":2539119.0099999998,"ADDRESS":"德洋一街２４巷１２號","OBJECTID":390134},"geometry":{"x":173137.70000000019,"y":2539119.0100000016}},{"attributes":{"ID":390159,"DIS_CODE":0,"TOWNNAME":"仁德區","LI":"後壁里","LIN":"29鄰","STREET":"德洋一街","SECT":" ","MAREA":" ","LANE":"３０巷","ALLEY":" ","HOUSE_NO":"１３號","E_COORD97":173159.45999999999,"N_COORD97":2539142.2599999998,"ADDRESS":"德洋一街３０巷１３號","OBJECTID":390135},"geometry":{"x":173159.45999999996,"y":2539142.2599999998}},{"attributes":{"ID":390160,"DIS_CODE":0,"TOWNNAME":"仁德區","LI":"後壁里","LIN":"29鄰","STREET":"德洋一街","SECT":" ","MAREA":" ","LANE":"３０巷","ALLEY":" ","HOUSE_NO":"７號","E_COORD97":173147.17999999999,"N_COORD97":2539150.2599999998,"ADDRESS":"德洋一街３０巷７號","OBJECTID":390136},"geometry":{"x":173147.18000000063,"y":2539150.2600000035}},{"attributes":{"ID":390161,"DIS_CODE":0,"TOWNNAME":"仁德區","LI":"後壁里","LIN":"29鄰","STREET":"德洋一街","SECT":" ","MAREA":" ","LANE":"２４巷","ALLEY":" ","HOUSE_NO":"１３號","E_COORD97":173145.23000000001,"N_COORD97":2539123.0099999998,"ADDRESS":"德洋一街２４巷１３號","OBJECTID":390137},"geometry":{"x":173145.23000000231,"y":2539123.0100000016}},{"attributes":{"ID":390162,"DIS_CODE":0,"TOWNNAME":"新市區","LI":"新和里","LIN":"29鄰","STREET":"光華街","SECT":" ","MAREA":" ","LANE":"８９巷","ALLEY":" ","HOUSE_NO":"２號","E_COORD97":177826.73000000001,"N_COORD97":2552862.75,"ADDRESS":"光華街８９巷２號","OBJECTID":390138},"geometry":{"x":177826.73000000045,"y":2552862.7500000019}},{"attributes":{"ID":390163,"DIS_CODE":0,"TOWNNAME":"新市區","LI":"新和里","LIN":"29鄰","STREET":"光華街","SECT":" ","MAREA":" ","LANE":"１８８巷","ALLEY":" ","HOUSE_NO":"４號","E_COORD97":177883.70000000001,"N_COORD97":2552951.75,"ADDRESS":"光華街１８８巷４號","OBJECTID":390139},"geometry":{"x":177883.70000000112,"y":2552951.75}},{"attributes":{"ID":390164,"DIS_CODE":0,"TOWNNAME":"中西區","LI":"西賢里","LIN":"29鄰","STREET":"西賢五街","SECT":" ","MAREA":" ","LANE":"６５巷","ALLEY":" ","HOUSE_NO":"１６號","E_COORD97":165185.39999999999,"N_COORD97":2544721.1699999999,"ADDRESS":"西賢五街６５巷１６號","OBJECTID":390140},"geometry":{"x":165185.4000000013,"y":2544721.1699999981}},{"attributes":{"ID":390165,"DIS_CODE":0,"TOWNNAME":"中西區","LI":"西賢里","LIN":"29鄰","STREET":"西賢五街","SECT":" ","MAREA":" ","LANE":"６５巷","ALLEY":" ","HOUSE_NO":"１７號","E_COORD97":165160.07999999999,"N_COORD97":2544701.8999999999,"ADDRESS":"西賢五街６５巷１７號","OBJECTID":390141},"geometry":{"x":165160.08000000101,"y":2544701.9000000004}},{"attributes":{"ID":390166,"DIS_CODE":0,"TOWNNAME":"中西區","LI":"西賢里","LIN":"29鄰","STREET":"西賢五街","SECT":" ","MAREA":" ","LANE":"６５巷","ALLEY":" ","HOUSE_NO":"１８號","E_COORD97":165181.16,"N_COORD97":2544722.1699999999,"ADDRESS":"西賢五街６５巷１８號","OBJECTID":390142},"geometry":{"x":165181.16000000015,"y":2544722.1700000018}},{"attributes":{"ID":390167,"DIS_CODE":0,"TOWNNAME":"中西區","LI":"西賢里","LIN":"29鄰","STREET":"西賢五街","SECT":" ","MAREA":" ","LANE":"６５巷","ALLEY":" ","HOUSE_NO":"１９號","E_COORD97":165155.84,"N_COORD97":2544703.3999999999,"ADDRESS":"西賢五街６５巷１９號","OBJECTID":390143},"geometry":{"x":165155.83999999985,"y":2544703.4000000041}},{"attributes":{"ID":390168,"DIS_CODE":0,"TOWNNAME":"中西區","LI":"西賢里","LIN":"29鄰","STREET":"西賢五街","SECT":" ","MAREA":" ","LANE":"６５巷","ALLEY":" ","HOUSE_NO":"１號","E_COORD97":165192.26000000001,"N_COORD97":2544695.7999999998,"ADDRESS":"西賢五街６５巷１號","OBJECTID":390144},"geometry":{"x":165192.26000000164,"y":2544695.8000000026}},{"attributes":{"ID":390169,"DIS_CODE":0,"TOWNNAME":"中西區","LI":"西賢里","LIN":"29鄰","STREET":"西賢五街","SECT":" ","MAREA":" ","LANE":"６５巷","ALLEY":" ","HOUSE_NO":"２０號","E_COORD97":165176.67000000001,"N_COORD97":2544723.4100000001,"ADDRESS":"西賢五街６５巷２０號","OBJECTID":390145},"geometry":{"x":165176.67000000086,"y":2544723.4100000039}},{"attributes":{"ID":390170,"DIS_CODE":0,"TOWNNAME":"中西區","LI":"西賢里","LIN":"29鄰","STREET":"西賢五街","SECT":" ","MAREA":" ","LANE":"６５巷","ALLEY":" ","HOUSE_NO":"２１號","E_COORD97":165142.41,"N_COORD97":2544704.79,"ADDRESS":"西賢五街６５巷２１號","OBJECTID":390146},"geometry":{"x":165142.41000000201,"y":2544704.7899999991}},{"attributes":{"ID":390171,"DIS_CODE":0,"TOWNNAME":"中西區","LI":"西賢里","LIN":"29鄰","STREET":"西賢五街","SECT":" ","MAREA":" ","LANE":"６５巷","ALLEY":" ","HOUSE_NO":"２２號","E_COORD97":165172.42999999999,"N_COORD97":2544724.0299999998,"ADDRESS":"西賢五街６５巷２２號","OBJECTID":390147},"geometry":{"x":165172.43000000063,"y":2544724.0299999993}},{"attributes":{"ID":390172,"DIS_CODE":0,"TOWNNAME":"中西區","LI":"西賢里","LIN":"29鄰","STREET":"西賢五街","SECT":" ","MAREA":" ","LANE":"６５巷","ALLEY":" ","HOUSE_NO":"２３號","E_COORD97":165139.17000000001,"N_COORD97":2544708.77,"ADDRESS":"西賢五街６５巷２３號","OBJECTID":390148},"geometry":{"x":165139.17000000086,"y":2544708.7699999996}},{"attributes":{"ID":390173,"DIS_CODE":0,"TOWNNAME":"中西區","LI":"西賢里","LIN":"29鄰","STREET":"西賢五街","SECT":" ","MAREA":" ","LANE":"６５巷","ALLEY":" ","HOUSE_NO":"２５號","E_COORD97":165134.42999999999,"N_COORD97":2544709.1499999999,"ADDRESS":"西賢五街６５巷２５號","OBJECTID":390149},"geometry":{"x":165134.4299999997,"y":2544709.1500000022}},{"attributes":{"ID":390174,"DIS_CODE":0,"TOWNNAME":"中西區","LI":"西賢里","LIN":"29鄰","STREET":"西賢五街","SECT":" ","MAREA":" ","LANE":"６５巷","ALLEY":" ","HOUSE_NO":"２６號","E_COORD97":165168.69,"N_COORD97":2544724.9100000001,"ADDRESS":"西賢五街６５巷２６號","OBJECTID":390150},"geometry":{"x":165168.69000000134,"y":2544724.910000002}},{"attributes":{"ID":390175,"DIS_CODE":0,"TOWNNAME":"中西區","LI":"西賢里","LIN":"29鄰","STREET":"西賢五街","SECT":" ","MAREA":" ","LANE":"６５巷","ALLEY":" ","HOUSE_NO":"２７號","E_COORD97":165130.44,"N_COORD97":2544709.6400000001,"ADDRESS":"西賢五街６５巷２７號","OBJECTID":390151},"geometry":{"x":165130.44000000041,"y":2544709.6400000025}},{"attributes":{"ID":390176,"DIS_CODE":0,"TOWNNAME":"中西區","LI":"西賢里","LIN":"29鄰","STREET":"西賢五街","SECT":" ","MAREA":" ","LANE":"６５巷","ALLEY":" ","HOUSE_NO":"２８號","E_COORD97":165164.57000000001,"N_COORD97":2544725.5299999998,"ADDRESS":"西賢五街６５巷２８號","OBJECTID":390152},"geometry":{"x":165164.5700000003,"y":2544725.5300000012}},{"attributes":{"ID":390177,"DIS_CODE":0,"TOWNNAME":"中西區","LI":"西賢里","LIN":"29鄰","STREET":"西賢五街","SECT":" ","MAREA":" ","LANE":"６５巷","ALLEY":" ","HOUSE_NO":"２９號","E_COORD97":165127.07000000001,"N_COORD97":2544709.8900000001,"ADDRESS":"西賢五街６５巷２９號","OBJECTID":390153},"geometry":{"x":165127.0700000003,"y":2544709.8900000006}},{"attributes":{"ID":390178,"DIS_CODE":0,"TOWNNAME":"中西區","LI":"西賢里","LIN":"29鄰","STREET":"西賢五街","SECT":" ","MAREA":" ","LANE":"６５巷","ALLEY":" ","HOUSE_NO":"３０號","E_COORD97":165160.07999999999,"N_COORD97":2544726.1499999999,"ADDRESS":"西賢五街６５巷３０號","OBJECTID":390154},"geometry":{"x":165160.08000000101,"y":2544726.1500000022}},{"attributes":{"ID":390179,"DIS_CODE":0,"TOWNNAME":"中西區","LI":"西賢里","LIN":"29鄰","STREET":"西賢五街","SECT":" ","MAREA":" ","LANE":"６５巷","ALLEY":" ","HOUSE_NO":"３１號","E_COORD97":165122.70000000001,"N_COORD97":2544711.3900000001,"ADDRESS":"西賢五街６５巷３１號","OBJECTID":390155},"geometry":{"x":165122.70000000019,"y":2544711.3900000025}},{"attributes":{"ID":390180,"DIS_CODE":0,"TOWNNAME":"中西區","LI":"西賢里","LIN":"29鄰","STREET":"西賢五街","SECT":" ","MAREA":" ","LANE":"６５巷","ALLEY":" ","HOUSE_NO":"３２號","E_COORD97":165156.13,"N_COORD97":2544727.1899999999,"ADDRESS":"西賢五街６５巷３２號","OBJECTID":390156},"geometry":{"x":165156.13000000082,"y":2544727.1899999995}},{"attributes":{"ID":390181,"DIS_CODE":0,"TOWNNAME":"中西區","LI":"西賢里","LIN":"29鄰","STREET":"西賢五街","SECT":" ","MAREA":" ","LANE":"６５巷","ALLEY":" ","HOUSE_NO":"３３號","E_COORD97":165118.34,"N_COORD97":2544713.2599999998,"ADDRESS":"西賢五街６５巷３３號","OBJECTID":390157},"geometry":{"x":165118.33999999985,"y":2544713.2599999998}},{"attributes":{"ID":390182,"DIS_CODE":0,"TOWNNAME":"中西區","LI":"西賢里","LIN":"29鄰","STREET":"西賢五街","SECT":" ","MAREA":" ","LANE":"６５巷","ALLEY":" ","HOUSE_NO":"３５號","E_COORD97":165113.72,"N_COORD97":2544713.5099999998,"ADDRESS":"西賢五街６５巷３５號","OBJECTID":390158},"geometry":{"x":165113.71999999974,"y":2544713.5100000016}},{"attributes":{"ID":390183,"DIS_CODE":0,"TOWNNAME":"中西區","LI":"西賢里","LIN":"29鄰","STREET":"西賢五街","SECT":" ","MAREA":" ","LANE":"６５巷","ALLEY":" ","HOUSE_NO":"３６號","E_COORD97":165151.64000000001,"N_COORD97":2544727.9300000002,"ADDRESS":"西賢五街６５巷３６號","OBJECTID":390159},"geometry":{"x":165151.63999999966,"y":2544727.9299999997}},{"attributes":{"ID":390184,"DIS_CODE":0,"TOWNNAME":"中西區","LI":"西賢里","LIN":"29鄰","STREET":"西賢五街","SECT":" ","MAREA":" ","LANE":"６５巷","ALLEY":" ","HOUSE_NO":"３７號","E_COORD97":165110.35999999999,"N_COORD97":2544714.3799999999,"ADDRESS":"西賢五街６５巷３７號","OBJECTID":390160},"geometry":{"x":165110.36000000034,"y":2544714.379999999}},{"attributes":{"ID":390185,"DIS_CODE":0,"TOWNNAME":"中西區","LI":"西賢里","LIN":"29鄰","STREET":"西賢五街","SECT":" ","MAREA":" ","LANE":"６５巷","ALLEY":" ","HOUSE_NO":"３８號","E_COORD97":165147.76999999999,"N_COORD97":2544729.1800000002,"ADDRESS":"西賢五街６５巷３８號","OBJECTID":390161},"geometry":{"x":165147.77000000142,"y":2544729.1800000016}},{"attributes":{"ID":390186,"DIS_CODE":0,"TOWNNAME":"中西區","LI":"西賢里","LIN":"29鄰","STREET":"西賢五街","SECT":" ","MAREA":" ","LANE":"６５巷","ALLEY":" ","HOUSE_NO":"３９號","E_COORD97":165106.48999999999,"N_COORD97":2544715,"ADDRESS":"西賢五街６５巷３９號","OBJECTID":390162},"geometry":{"x":165106.49000000115,"y":2544715}},{"attributes":{"ID":390187,"DIS_CODE":0,"TOWNNAME":"中西區","LI":"西賢里","LIN":"29鄰","STREET":"西賢五街","SECT":" ","MAREA":" ","LANE":"６５巷","ALLEY":" ","HOUSE_NO":"３號","E_COORD97":165187.64000000001,"N_COORD97":2544697.6699999999,"ADDRESS":"西賢五街６５巷３號","OBJECTID":390163},"geometry":{"x":165187.63999999966,"y":2544697.6700000037}},{"attributes":{"ID":390188,"DIS_CODE":0,"TOWNNAME":"中西區","LI":"西賢里","LIN":"29鄰","STREET":"西賢五街","SECT":" ","MAREA":" ","LANE":"６５巷","ALLEY":" ","HOUSE_NO":"４０號","E_COORD97":165143.91,"N_COORD97":2544730.2999999998,"ADDRESS":"西賢五街６５巷４０號","OBJECTID":390164},"geometry":{"x":165143.91000000015,"y":2544730.3000000007}},{"attributes":{"ID":390189,"DIS_CODE":0,"TOWNNAME":"中西區","LI":"西賢里","LIN":"29鄰","STREET":"西賢五街","SECT":" ","MAREA":" ","LANE":"６５巷","ALLEY":" ","HOUSE_NO":"４２號","E_COORD97":165139.42000000001,"N_COORD97":2544731.2999999998,"ADDRESS":"西賢五街６５巷４２號","OBJECTID":390165},"geometry":{"x":165139.42000000086,"y":2544731.3000000007}},{"attributes":{"ID":390190,"DIS_CODE":0,"TOWNNAME":"中西區","LI":"西賢里","LIN":"29鄰","STREET":"西賢五街","SECT":" ","MAREA":" ","LANE":"６５巷","ALLEY":" ","HOUSE_NO":"４６號","E_COORD97":165135.04999999999,"N_COORD97":2544732.54,"ADDRESS":"西賢五街６５巷４６號","OBJECTID":390166},"geometry":{"x":165135.05000000075,"y":2544732.540000001}},{"attributes":{"ID":390191,"DIS_CODE":0,"TOWNNAME":"中西區","LI":"西賢里","LIN":"29鄰","STREET":"西賢五街","SECT":" ","MAREA":" ","LANE":"６５巷","ALLEY":" ","HOUSE_NO":"４８號","E_COORD97":165131.67999999999,"N_COORD97":2544732.79,"ADDRESS":"西賢五街６５巷４８號","OBJECTID":390167},"geometry":{"x":165131.68000000156,"y":2544732.7899999991}},{"attributes":{"ID":390192,"DIS_CODE":0,"TOWNNAME":"東區","LI":"大同里","LIN":"29鄰","STREET":"大同路","SECT":"一段","MAREA":" ","LANE":"１７５巷","ALLEY":" ","HOUSE_NO":"１４７號","E_COORD97":169385.60000000001,"N_COORD97":2542553.5099999998,"ADDRESS":"大同路一段１７５巷１４７號","OBJECTID":390168},"geometry":{"x":169385.60000000056,"y":2542553.5100000016}},{"attributes":{"ID":390193,"DIS_CODE":0,"TOWNNAME":"東區","LI":"大同里","LIN":"29鄰","STREET":"大同路","SECT":"一段","MAREA":" ","LANE":"１７５巷","ALLEY":" ","HOUSE_NO":"１４９號","E_COORD97":169381.85999999999,"N_COORD97":2542551.0600000001,"ADDRESS":"大同路一段１７５巷１４９號","OBJECTID":390169},"geometry":{"x":169381.86000000034,"y":2542551.0600000024}},{"attributes":{"ID":390194,"DIS_CODE":0,"TOWNNAME":"東區","LI":"大同里","LIN":"29鄰","STREET":"大同路","SECT":"一段","MAREA":" ","LANE":"１７５巷","ALLEY":" ","HOUSE_NO":"１５１號","E_COORD97":169373.95000000001,"N_COORD97":2542551.0600000001,"ADDRESS":"大同路一段１７５巷１５１號","OBJECTID":390170},"geometry":{"x":169373.95000000112,"y":2542551.0600000024}},{"attributes":{"ID":390195,"DIS_CODE":0,"TOWNNAME":"仁德區","LI":"後壁里","LIN":"29鄰","STREET":"德洋一街","SECT":" ","MAREA":" ","LANE":"３０巷","ALLEY":" ","HOUSE_NO":"１號","E_COORD97":173137.32000000001,"N_COORD97":2539158.02,"ADDRESS":"德洋一街３０巷１號","OBJECTID":390171},"geometry":{"x":173137.3200000003,"y":2539158.0199999996}},{"attributes":{"ID":390196,"DIS_CODE":0,"TOWNNAME":"仁德區","LI":"後壁里","LIN":"29鄰","STREET":"德洋一街","SECT":" ","MAREA":" ","LANE":"２４巷","ALLEY":" ","HOUSE_NO":"７號","E_COORD97":173134.60000000001,"N_COORD97":2539130.5099999998,"ADDRESS":"德洋一街２４巷７號","OBJECTID":390172},"geometry":{"x":173134.59999999963,"y":2539130.5099999998}},{"attributes":{"ID":390197,"DIS_CODE":0,"TOWNNAME":"仁德區","LI":"後壁里","LIN":"29鄰","STREET":"德洋一街","SECT":" ","MAREA":" ","LANE":"２４巷","ALLEY":" ","HOUSE_NO":"２號","E_COORD97":173121.37,"N_COORD97":2539131.7599999998,"ADDRESS":"德洋一街２４巷２號","OBJECTID":390173},"geometry":{"x":173121.37000000011,"y":2539131.7599999998}},{"attributes":{"ID":390198,"DIS_CODE":0,"TOWNNAME":"仁德區","LI":"後壁里","LIN":"29鄰","STREET":"德洋一街","SECT":" ","MAREA":" ","LANE":"２４巷","ALLEY":" ","HOUSE_NO":"１４號","E_COORD97":173140.67000000001,"N_COORD97":2539116.5099999998,"ADDRESS":"德洋一街２４巷１４號","OBJECTID":390174},"geometry":{"x":173140.67000000086,"y":2539116.5099999998}},{"attributes":{"ID":390199,"DIS_CODE":0,"TOWNNAME":"仁德區","LI":"後壁里","LIN":"29鄰","STREET":"德洋一街","SECT":" ","MAREA":" ","LANE":"２４巷","ALLEY":" ","HOUSE_NO":"３號","E_COORD97":173128.67999999999,"N_COORD97":2539136.2599999998,"ADDRESS":"德洋一街２４巷３號","OBJECTID":390175},"geometry":{"x":173128.6799999997,"y":2539136.2599999998}},{"attributes":{"ID":390200,"DIS_CODE":0,"TOWNNAME":"仁德區","LI":"後壁里","LIN":"29鄰","STREET":"德洋一街","SECT":" ","MAREA":" ","LANE":"３０巷","ALLEY":" ","HOUSE_NO":"５號","E_COORD97":173143.62,"N_COORD97":2539153.0099999998,"ADDRESS":"德洋一街３０巷５號","OBJECTID":390176},"geometry":{"x":173143.62000000011,"y":2539153.0100000016}},{"attributes":{"ID":390201,"DIS_CODE":0,"TOWNNAME":"仁德區","LI":"後壁里","LIN":"29鄰","STREET":"德洋一街","SECT":" ","MAREA":" ","LANE":"２４巷","ALLEY":" ","HOUSE_NO":"１號","E_COORD97":173125.45999999999,"N_COORD97":2539138.5099999998,"ADDRESS":"德洋一街２４巷１號","OBJECTID":390177},"geometry":{"x":173125.45999999996,"y":2539138.5100000035}},{"attributes":{"ID":390202,"DIS_CODE":0,"TOWNNAME":"仁德區","LI":"後壁里","LIN":"29鄰","STREET":"德洋一街","SECT":" ","MAREA":" ","LANE":"２４巷","ALLEY":" ","HOUSE_NO":"６號","E_COORD97":173127.70999999999,"N_COORD97":2539126.7599999998,"ADDRESS":"德洋一街２４巷６號","OBJECTID":390178},"geometry":{"x":173127.70999999996,"y":2539126.7600000035}},{"attributes":{"ID":390203,"DIS_CODE":0,"TOWNNAME":"仁德區","LI":"太子里","LIN":"29鄰","STREET":"大發路","SECT":" ","MAREA":" ","LANE":"１７７巷","ALLEY":" ","HOUSE_NO":"２５號","E_COORD97":173170.5,"N_COORD97":2543064.52,"ADDRESS":"大發路１７７巷２５號","OBJECTID":390179},"geometry":{"x":173170.50000000093,"y":2543064.5200000014}},{"attributes":{"ID":390204,"DIS_CODE":0,"TOWNNAME":"仁德區","LI":"太子里","LIN":"29鄰","STREET":"大發路","SECT":" ","MAREA":" ","LANE":"１７７巷","ALLEY":" ","HOUSE_NO":"２７號","E_COORD97":173163.32999999999,"N_COORD97":2543067.8799999999,"ADDRESS":"大發路１７７巷２７號","OBJECTID":390180},"geometry":{"x":173163.33000000101,"y":2543067.8800000027}},{"attributes":{"ID":390205,"DIS_CODE":0,"TOWNNAME":"仁德區","LI":"太子里","LIN":"29鄰","STREET":"大發路","SECT":" ","MAREA":" ","LANE":"１７７巷","ALLEY":" ","HOUSE_NO":"２９號","E_COORD97":173153.14999999999,"N_COORD97":2543072.2000000002,"ADDRESS":"大發路１７７巷２９號","OBJECTID":390181},"geometry":{"x":173153.1500000013,"y":2543072.1999999993}},{"attributes":{"ID":390206,"DIS_CODE":0,"TOWNNAME":"仁德區","LI":"太子里","LIN":"29鄰","STREET":"大發路","SECT":" ","MAREA":" ","LANE":"１７７巷","ALLEY":" ","HOUSE_NO":"３１號","E_COORD97":173143.53,"N_COORD97":2543075.8399999999,"ADDRESS":"大發路１７７巷３１號","OBJECTID":390182},"geometry":{"x":173143.53000000119,"y":2543075.8400000036}},{"attributes":{"ID":390207,"DIS_CODE":0,"TOWNNAME":"仁德區","LI":"太子里","LIN":"29鄰","STREET":"大發路","SECT":" ","MAREA":" ","LANE":"１７７巷","ALLEY":" ","HOUSE_NO":"３３號","E_COORD97":173134.60000000001,"N_COORD97":2543079.4300000002,"ADDRESS":"大發路１７７巷３３號","OBJECTID":390183},"geometry":{"x":173134.59999999963,"y":2543079.4300000016}},{"attributes":{"ID":390208,"DIS_CODE":0,"TOWNNAME":"仁德區","LI":"太子里","LIN":"29鄰","STREET":"大發路","SECT":" ","MAREA":" ","LANE":"１７７巷","ALLEY":" ","HOUSE_NO":"３５號","E_COORD97":173125.69,"N_COORD97":2543082.8799999999,"ADDRESS":"大發路１７７巷３５號","OBJECTID":390184},"geometry":{"x":173125.69000000134,"y":2543082.8800000008}},{"attributes":{"ID":390209,"DIS_CODE":0,"TOWNNAME":"仁德區","LI":"太子里","LIN":"29鄰","STREET":"大發路","SECT":" ","MAREA":" ","LANE":"１７７巷","ALLEY":" ","HOUSE_NO":"３７號","E_COORD97":173116.42000000001,"N_COORD97":2543086.1899999999,"ADDRESS":"大發路１７７巷３７號","OBJECTID":390185},"geometry":{"x":173116.42000000086,"y":2543086.1899999995}},{"attributes":{"ID":390210,"DIS_CODE":0,"TOWNNAME":"仁德區","LI":"太子里","LIN":"29鄰","STREET":"大發路","SECT":" ","MAREA":" ","LANE":"１７７巷","ALLEY":" ","HOUSE_NO":"３９號","E_COORD97":173107.82999999999,"N_COORD97":2543089.48,"ADDRESS":"大發路１７７巷３９號","OBJECTID":390186},"geometry":{"x":173107.83000000007,"y":2543089.4800000023}},{"attributes":{"ID":390211,"DIS_CODE":0,"TOWNNAME":"仁德區","LI":"太子里","LIN":"29鄰","STREET":"大發路","SECT":" ","MAREA":" ","LANE":"１７７巷","ALLEY":" ","HOUSE_NO":"４１號","E_COORD97":173099.35000000001,"N_COORD97":2543093.1000000001,"ADDRESS":"大發路１７７巷４１號","OBJECTID":390187},"geometry":{"x":173099.3499999987,"y":2543093.0999999996}},{"attributes":{"ID":390212,"DIS_CODE":0,"TOWNNAME":"仁德區","LI":"太子里","LIN":"29鄰","STREET":"大發路","SECT":" ","MAREA":" ","LANE":"１７７巷","ALLEY":" ","HOUSE_NO":"４３號","E_COORD97":173090.20999999999,"N_COORD97":2543096.3300000001,"ADDRESS":"大發路１７７巷４３號","OBJECTID":390188},"geometry":{"x":173090.20999999996,"y":2543096.3299999982}},{"attributes":{"ID":390213,"DIS_CODE":0,"TOWNNAME":"仁德區","LI":"太子里","LIN":"29鄰","STREET":"大發路","SECT":" ","MAREA":" ","LANE":"１７７巷","ALLEY":" ","HOUSE_NO":"４５號","E_COORD97":173080.73000000001,"N_COORD97":2543099.6899999999,"ADDRESS":"大發路１７７巷４５號","OBJECTID":390189},"geometry":{"x":173080.72999999952,"y":2543099.6899999995}},{"attributes":{"ID":390214,"DIS_CODE":0,"TOWNNAME":"仁德區","LI":"太子里","LIN":"29鄰","STREET":"太子四街","SECT":" ","MAREA":" ","LANE":"２１巷","ALLEY":" ","HOUSE_NO":"１０號","E_COORD97":173123.20778500001,"N_COORD97":2543143.7330999998,"ADDRESS":"太子四街２１巷１０號","OBJECTID":390190},"geometry":{"x":173123.20778500009,"y":2543143.7331019994}},{"attributes":{"ID":390215,"DIS_CODE":0,"TOWNNAME":"仁德區","LI":"太子里","LIN":"29鄰","STREET":"太子四街","SECT":" ","MAREA":" ","LANE":"２１巷","ALLEY":" ","HOUSE_NO":"１２號","E_COORD97":173131.25512099999,"N_COORD97":2543138.7589400001,"ADDRESS":"太子四街２１巷１２號","OBJECTID":390191},"geometry":{"x":173131.25512100011,"y":2543138.7589389998}},{"attributes":{"ID":390216,"DIS_CODE":0,"TOWNNAME":"仁德區","LI":"太子里","LIN":"29鄰","STREET":"太子四街","SECT":" ","MAREA":" ","LANE":"２１巷","ALLEY":" ","HOUSE_NO":"１６號","E_COORD97":173140.78486099999,"N_COORD97":2543134.6314400001,"ADDRESS":"太子四街２１巷１６號","OBJECTID":390192},"geometry":{"x":173140.78486100025,"y":2543134.6314410027}},{"attributes":{"ID":390217,"DIS_CODE":0,"TOWNNAME":"仁德區","LI":"太子里","LIN":"29鄰","STREET":"太子四街","SECT":" ","MAREA":" ","LANE":"２１巷","ALLEY":" ","HOUSE_NO":"１８號","E_COORD97":173150.526373,"N_COORD97":2543131.8797800001,"ADDRESS":"太子四街２１巷１８號","OBJECTID":390193},"geometry":{"x":173150.52637300082,"y":2543131.879776001}},{"attributes":{"ID":390218,"DIS_CODE":0,"TOWNNAME":"仁德區","LI":"太子里","LIN":"29鄰","STREET":"太子四街","SECT":" ","MAREA":" ","LANE":"２１巷","ALLEY":" ","HOUSE_NO":"２０號","E_COORD97":173158.57370899999,"N_COORD97":2543128.81061,"ADDRESS":"太子四街２１巷２０號","OBJECTID":390194},"geometry":{"x":173158.5737089999,"y":2543128.8106110021}},{"attributes":{"ID":390219,"DIS_CODE":0,"TOWNNAME":"仁德區","LI":"太子里","LIN":"29鄰","STREET":"太子四街","SECT":" ","MAREA":" ","LANE":"７３巷","ALLEY":" ","HOUSE_NO":"３號","E_COORD97":173053,"N_COORD97":2542851.8999999999,"ADDRESS":"太子四街７３巷３號","OBJECTID":390195},"geometry":{"x":173052.99999999907,"y":2542851.9000000004}},{"attributes":{"ID":390220,"DIS_CODE":0,"TOWNNAME":"仁德區","LI":"太子里","LIN":"29鄰","STREET":"太子四街","SECT":" ","MAREA":" ","LANE":"７３巷","ALLEY":" ","HOUSE_NO":"５號","E_COORD97":173064.60999999999,"N_COORD97":2542856.8700000001,"ADDRESS":"太子四街７３巷５號","OBJECTID":390196},"geometry":{"x":173064.6100000022,"y":2542856.8700000029}},{"attributes":{"ID":390221,"DIS_CODE":0,"TOWNNAME":"仁德區","LI":"太子里","LIN":"29鄰","STREET":"太子四街","SECT":" ","MAREA":" ","LANE":"７３巷","ALLEY":" ","HOUSE_NO":"６號","E_COORD97":173056.51000000001,"N_COORD97":2542844.0899999999,"ADDRESS":"太子四街７３巷６號","OBJECTID":390197},"geometry":{"x":173056.51000000071,"y":2542844.0900000017}},{"attributes":{"ID":390222,"DIS_CODE":0,"TOWNNAME":"仁德區","LI":"太子里","LIN":"29鄰","STREET":"太子四街","SECT":" ","MAREA":" ","LANE":"７３巷","ALLEY":" ","HOUSE_NO":"７號","E_COORD97":173076.63,"N_COORD97":2542861.8399999999,"ADDRESS":"太子四街７３巷７號","OBJECTID":390198},"geometry":{"x":173076.63000000082,"y":2542861.8399999999}},{"attributes":{"ID":390223,"DIS_CODE":0,"TOWNNAME":"仁德區","LI":"太子里","LIN":"29鄰","STREET":"太子四街","SECT":" ","MAREA":" ","LANE":"７３巷","ALLEY":" ","HOUSE_NO":"８號","E_COORD97":173068.35000000001,"N_COORD97":2542848.7799999998,"ADDRESS":"太子四街７３巷８號","OBJECTID":390199},"geometry":{"x":173068.34999999963,"y":2542848.7800000031}},{"attributes":{"ID":390224,"DIS_CODE":0,"TOWNNAME":"仁德區","LI":"後壁里","LIN":"29鄰","STREET":"德洋一街","SECT":" ","MAREA":" ","LANE":"２４巷","ALLEY":" ","HOUSE_NO":"２之１號","E_COORD97":173127.35000000001,"N_COORD97":2539129.29,"ADDRESS":"德洋一街２４巷２之１號","OBJECTID":390200},"geometry":{"x":173127.35000000056,"y":2539129.2900000028}}]}