{"displayFieldName":"TOWNNAME","fieldAliases":{"ID":"ID","DIS_CODE":"DIS_CODE","TOWNNAME":"TOWNNAME","LI":"LI","LIN":"LIN","STREET":"STREET","SECT":"SECT","MAREA":"MAREA","LANE":"LANE","ALLEY":"ALLEY","HOUSE_NO":"HOUSE_NO","E_COORD97":"E_COORD97","N_COORD97":"N_COORD97","ADDRESS":"ADDRESS","OBJECTID":"OBJECTID"},"geometryType":"esriGeometryPoint","spatialReference":{"wkid":102443,"latestWkid":3826},"fields":[{"name":"ID","type":"esriFieldTypeDouble","alias":"ID"},{"name":"DIS_CODE","type":"esriFieldTypeInteger","alias":"DIS_CODE"},{"name":"TOWNNAME","type":"esriFieldTypeString","alias":"TOWNNAME","length":8},{"name":"LI","type":"esriFieldTypeString","alias":"LI","length":8},{"name":"LIN","type":"esriFieldTypeString","alias":"LIN","length":12},{"name":"STREET","type":"esriFieldTypeString","alias":"STREET","length":20},{"name":"SECT","type":"esriFieldTypeString","alias":"SECT","length":8},{"name":"MAREA","type":"esriFieldTypeString","alias":"MAREA","length":12},{"name":"LANE","type":"esriFieldTypeString","alias":"LANE","length":10},{"name":"ALLEY","type":"esriFieldTypeString","alias":"ALLEY","length":10},{"name":"HOUSE_NO","type":"esriFieldTypeString","alias":"HOUSE_NO","length":20},{"name":"E_COORD97","type":"esriFieldTypeDouble","alias":"E_COORD97"},{"name":"N_COORD97","type":"esriFieldTypeDouble","alias":"N_COORD97"},{"name":"ADDRESS","type":"esriFieldTypeString","alias":"ADDRESS","length":50},{"name":"OBJECTID","type":"esriFieldTypeOID","alias":"OBJECTID"}],"features":[{"attributes":{"ID":577628,"DIS_CODE":0,"TOWNNAME":"永康區","LI":"永康里","LIN":"23鄰","STREET":"正強街","SECT":" ","MAREA":" ","LANE":" ","ALLEY":" ","HOUSE_NO":"６２號","E_COORD97":173359.54999999999,"N_COORD97":2547294.21,"ADDRESS":"正強街６２號","OBJECTID":577601},"geometry":{"x":173359.55000000075,"y":2547294.2100000009}},{"attributes":{"ID":577629,"DIS_CODE":0,"TOWNNAME":"永康區","LI":"永康里","LIN":"23鄰","STREET":"中山南路","SECT":" ","MAREA":" ","LANE":" ","ALLEY":" ","HOUSE_NO":"６０１號","E_COORD97":173535.76000000001,"N_COORD97":2547208.9900000002,"ADDRESS":"中山南路６０１號","OBJECTID":577602},"geometry":{"x":173535.75999999885,"y":2547208.9900000021}},{"attributes":{"ID":577630,"DIS_CODE":0,"TOWNNAME":"永康區","LI":"永康里","LIN":"23鄰","STREET":"中山南路","SECT":" ","MAREA":" ","LANE":" ","ALLEY":" ","HOUSE_NO":"５８３號","E_COORD97":173500.25,"N_COORD97":2547186.4900000002,"ADDRESS":"中山南路５８３號","OBJECTID":577603},"geometry":{"x":173500.25,"y":2547186.4900000002}},{"attributes":{"ID":577631,"DIS_CODE":0,"TOWNNAME":"永康區","LI":"永康里","LIN":"23鄰","STREET":"正強街","SECT":" ","MAREA":" ","LANE":" ","ALLEY":" ","HOUSE_NO":"６６號","E_COORD97":173359.92999999999,"N_COORD97":2547301.46,"ADDRESS":"正強街６６號","OBJECTID":577604},"geometry":{"x":173359.92999999877,"y":2547301.4600000028}},{"attributes":{"ID":577632,"DIS_CODE":0,"TOWNNAME":"安平區","LI":"文平里","LIN":"23鄰","STREET":"健康一街","SECT":" ","MAREA":" ","LANE":" ","ALLEY":" ","HOUSE_NO":"５０號","E_COORD97":165946.72,"N_COORD97":2542768.5099999998,"ADDRESS":"健康一街５０號","OBJECTID":577605},"geometry":{"x":165946.7200000016,"y":2542768.5099999998}},{"attributes":{"ID":577633,"DIS_CODE":0,"TOWNNAME":"六甲區","LI":"六甲里","LIN":"23鄰","STREET":"中山路","SECT":" ","MAREA":" ","LANE":" ","ALLEY":" ","HOUSE_NO":"３７號","E_COORD97":183556.85000000001,"N_COORD97":2569980.7599999998,"ADDRESS":"中山路３７號","OBJECTID":577606},"geometry":{"x":183556.84999999963,"y":2569980.7599999998}},{"attributes":{"ID":577634,"DIS_CODE":0,"TOWNNAME":"新營區","LI":"民生里","LIN":"23鄰","STREET":"民生路","SECT":" ","MAREA":" ","LANE":" ","ALLEY":" ","HOUSE_NO":"６７號","E_COORD97":179173.89000000001,"N_COORD97":2578463.6800000002,"ADDRESS":"民生路６７號","OBJECTID":577607},"geometry":{"x":179173.8900000006,"y":2578463.6800000016}},{"attributes":{"ID":577635,"DIS_CODE":0,"TOWNNAME":"新營區","LI":"大宏里","LIN":"23鄰","STREET":"民治路","SECT":" ","MAREA":" ","LANE":" ","ALLEY":" ","HOUSE_NO":"１號之２０","E_COORD97":180646.41,"N_COORD97":2578787.8999999999,"ADDRESS":"民治路１號之２０","OBJECTID":577608},"geometry":{"x":180646.41000000015,"y":2578787.9000000022}},{"attributes":{"ID":577636,"DIS_CODE":0,"TOWNNAME":"新營區","LI":"新東里","LIN":"23鄰","STREET":"民治東路","SECT":" ","MAREA":" ","LANE":" ","ALLEY":" ","HOUSE_NO":"２０號","E_COORD97":180755.35000000001,"N_COORD97":2578913.5800000001,"ADDRESS":"民治東路２０號","OBJECTID":577609},"geometry":{"x":180755.35000000056,"y":2578913.5800000001}},{"attributes":{"ID":577637,"DIS_CODE":0,"TOWNNAME":"六甲區","LI":"六甲里","LIN":"23鄰","STREET":"中山路","SECT":" ","MAREA":" ","LANE":" ","ALLEY":" ","HOUSE_NO":"７號","E_COORD97":183617.51000000001,"N_COORD97":2569966.2799999998,"ADDRESS":"中山路７號","OBJECTID":577610},"geometry":{"x":183617.51000000071,"y":2569966.2800000012}},{"attributes":{"ID":577638,"DIS_CODE":0,"TOWNNAME":"新營區","LI":"三仙里","LIN":"23鄰","STREET":"民治路","SECT":" ","MAREA":" ","LANE":" ","ALLEY":" ","HOUSE_NO":"７６號之４","E_COORD97":179580.88,"N_COORD97":2578842.77,"ADDRESS":"民治路７６號之４","OBJECTID":577611},"geometry":{"x":179580.88000000082,"y":2578842.7700000014}},{"attributes":{"ID":577639,"DIS_CODE":0,"TOWNNAME":"新營區","LI":"新南里","LIN":"23鄰","STREET":"復興路","SECT":" ","MAREA":" ","LANE":" ","ALLEY":" ","HOUSE_NO":"６７２號","E_COORD97":177901.26000000001,"N_COORD97":2578380.1200000001,"ADDRESS":"復興路６７２號","OBJECTID":577612},"geometry":{"x":177901.26000000071,"y":2578380.1200000029}},{"attributes":{"ID":577640,"DIS_CODE":0,"TOWNNAME":"新營區","LI":"民生里","LIN":"23鄰","STREET":"公園路","SECT":"一段","MAREA":" ","LANE":" ","ALLEY":" ","HOUSE_NO":"２號","E_COORD97":179263.76000000001,"N_COORD97":2578469.8900000001,"ADDRESS":"公園路一段２號","OBJECTID":577613},"geometry":{"x":179263.75999999978,"y":2578469.8900000025}},{"attributes":{"ID":577641,"DIS_CODE":0,"TOWNNAME":"安平區","LI":"文平里","LIN":"23鄰","STREET":"健康一街","SECT":" ","MAREA":" ","LANE":" ","ALLEY":" ","HOUSE_NO":"４６號","E_COORD97":165946.01999999999,"N_COORD97":2542758.2200000002,"ADDRESS":"健康一街４６號","OBJECTID":577614},"geometry":{"x":165946.01999999955,"y":2542758.2200000007}},{"attributes":{"ID":577642,"DIS_CODE":0,"TOWNNAME":"安平區","LI":"文平里","LIN":"23鄰","STREET":"健康一街","SECT":" ","MAREA":" ","LANE":" ","ALLEY":" ","HOUSE_NO":"４８號","E_COORD97":165946.22,"N_COORD97":2542763.1099999999,"ADDRESS":"健康一街４８號","OBJECTID":577615},"geometry":{"x":165946.21999999974,"y":2542763.1100000013}},{"attributes":{"ID":577643,"DIS_CODE":0,"TOWNNAME":"安平區","LI":"文平里","LIN":"23鄰","STREET":"健康一街","SECT":" ","MAREA":" ","LANE":" ","ALLEY":" ","HOUSE_NO":"５２號","E_COORD97":165947.32000000001,"N_COORD97":2542774.1000000001,"ADDRESS":"健康一街５２號","OBJECTID":577616},"geometry":{"x":165947.32000000123,"y":2542774.0999999996}},{"attributes":{"ID":577644,"DIS_CODE":0,"TOWNNAME":"安平區","LI":"文平里","LIN":"23鄰","STREET":"健康一街","SECT":" ","MAREA":" ","LANE":" ","ALLEY":" ","HOUSE_NO":"５４號","E_COORD97":165948.03,"N_COORD97":2542781.6899999999,"ADDRESS":"健康一街５４號","OBJECTID":577617},"geometry":{"x":165948.03000000026,"y":2542781.6900000032}},{"attributes":{"ID":577645,"DIS_CODE":0,"TOWNNAME":"安平區","LI":"文平里","LIN":"23鄰","STREET":"健康一街","SECT":" ","MAREA":" ","LANE":" ","ALLEY":" ","HOUSE_NO":"５６號","E_COORD97":165949.42000000001,"N_COORD97":2542784.5800000001,"ADDRESS":"健康一街５６號","OBJECTID":577618},"geometry":{"x":165949.42000000086,"y":2542784.5800000019}},{"attributes":{"ID":577646,"DIS_CODE":0,"TOWNNAME":"安平區","LI":"華平里","LIN":"23鄰","STREET":"建平八街","SECT":" ","MAREA":" ","LANE":" ","ALLEY":" ","HOUSE_NO":"４３６號","E_COORD97":165186.19,"N_COORD97":2543598.9300000002,"ADDRESS":"建平八街４３６號","OBJECTID":577619},"geometry":{"x":165186.19000000041,"y":2543598.9299999997}},{"attributes":{"ID":577647,"DIS_CODE":0,"TOWNNAME":"新營區","LI":"南興里","LIN":"23鄰","STREET":"南昌街","SECT":" ","MAREA":" ","LANE":" ","ALLEY":" ","HOUSE_NO":"７７號","E_COORD97":179404.20999999999,"N_COORD97":2577640.8500000001,"ADDRESS":"南昌街７７號","OBJECTID":577620},"geometry":{"x":179404.21000000089,"y":2577640.8500000015}},{"attributes":{"ID":577648,"DIS_CODE":0,"TOWNNAME":"新營區","LI":"南興里","LIN":"23鄰","STREET":"南昌街","SECT":" ","MAREA":" ","LANE":" ","ALLEY":" ","HOUSE_NO":"８７號","E_COORD97":179373.59,"N_COORD97":2577645.4300000002,"ADDRESS":"南昌街８７號","OBJECTID":577621},"geometry":{"x":179373.58999999892,"y":2577645.4299999997}},{"attributes":{"ID":577649,"DIS_CODE":0,"TOWNNAME":"新營區","LI":"新南里","LIN":"23鄰","STREET":"復興路","SECT":" ","MAREA":" ","LANE":" ","ALLEY":" ","HOUSE_NO":"６９０號之１","E_COORD97":177825.73999999999,"N_COORD97":2578398.27,"ADDRESS":"復興路６９０號之１","OBJECTID":577622},"geometry":{"x":177825.74000000115,"y":2578398.2700000014}},{"attributes":{"ID":577650,"DIS_CODE":0,"TOWNNAME":"新營區","LI":"南興里","LIN":"23鄰","STREET":"南昌街","SECT":" ","MAREA":" ","LANE":" ","ALLEY":" ","HOUSE_NO":"８５號","E_COORD97":179377.67999999999,"N_COORD97":2577645.4100000001,"ADDRESS":"南昌街８５號","OBJECTID":577623},"geometry":{"x":179377.6799999997,"y":2577645.410000002}},{"attributes":{"ID":577651,"DIS_CODE":0,"TOWNNAME":"新營區","LI":"南興里","LIN":"23鄰","STREET":"南昌街","SECT":" ","MAREA":" ","LANE":" ","ALLEY":" ","HOUSE_NO":"９３號","E_COORD97":179361.20999999999,"N_COORD97":2577645.4900000002,"ADDRESS":"南昌街９３號","OBJECTID":577624},"geometry":{"x":179361.21000000183,"y":2577645.4900000002}},{"attributes":{"ID":577652,"DIS_CODE":0,"TOWNNAME":"六甲區","LI":"六甲里","LIN":"23鄰","STREET":"中山路","SECT":" ","MAREA":" ","LANE":" ","ALLEY":" ","HOUSE_NO":"１５號","E_COORD97":183601.73999999999,"N_COORD97":2569970.3199999998,"ADDRESS":"中山路１５號","OBJECTID":577625},"geometry":{"x":183601.74000000022,"y":2569970.3200000022}},{"attributes":{"ID":577653,"DIS_CODE":0,"TOWNNAME":"六甲區","LI":"六甲里","LIN":"23鄰","STREET":"中山路","SECT":" ","MAREA":" ","LANE":" ","ALLEY":" ","HOUSE_NO":"２１號","E_COORD97":183590.42999999999,"N_COORD97":2569974.7000000002,"ADDRESS":"中山路２１號","OBJECTID":577626},"geometry":{"x":183590.42999999877,"y":2569974.6999999993}},{"attributes":{"ID":577654,"DIS_CODE":0,"TOWNNAME":"六甲區","LI":"六甲里","LIN":"23鄰","STREET":"中山路","SECT":" ","MAREA":" ","LANE":" ","ALLEY":" ","HOUSE_NO":"２３號","E_COORD97":183587.07000000001,"N_COORD97":2569975.46,"ADDRESS":"中山路２３號","OBJECTID":577627},"geometry":{"x":183587.07000000123,"y":2569975.4600000046}},{"attributes":{"ID":577655,"DIS_CODE":0,"TOWNNAME":"六甲區","LI":"六甲里","LIN":"23鄰","STREET":"中山路","SECT":" ","MAREA":" ","LANE":" ","ALLEY":" ","HOUSE_NO":"２５號","E_COORD97":183583.39000000001,"N_COORD97":2569976.3399999999,"ADDRESS":"中山路２５號","OBJECTID":577628},"geometry":{"x":183583.38999999966,"y":2569976.3400000017}},{"attributes":{"ID":577656,"DIS_CODE":0,"TOWNNAME":"六甲區","LI":"六甲里","LIN":"23鄰","STREET":"中山路","SECT":" ","MAREA":" ","LANE":" ","ALLEY":" ","HOUSE_NO":"２９號","E_COORD97":183575.07000000001,"N_COORD97":2569977.9900000002,"ADDRESS":"中山路２９號","OBJECTID":577629},"geometry":{"x":183575.07000000216,"y":2569977.9900000039}},{"attributes":{"ID":577657,"DIS_CODE":0,"TOWNNAME":"六甲區","LI":"六甲里","LIN":"23鄰","STREET":"中山路","SECT":" ","MAREA":" ","LANE":" ","ALLEY":" ","HOUSE_NO":"３１號","E_COORD97":183569.64999999999,"N_COORD97":2569979.4300000002,"ADDRESS":"中山路３１號","OBJECTID":577630},"geometry":{"x":183569.6500000013,"y":2569979.4300000016}},{"attributes":{"ID":577658,"DIS_CODE":0,"TOWNNAME":"六甲區","LI":"六甲里","LIN":"23鄰","STREET":"中山路","SECT":" ","MAREA":" ","LANE":" ","ALLEY":" ","HOUSE_NO":"３５號","E_COORD97":183560.92000000001,"N_COORD97":2569979.5499999998,"ADDRESS":"中山路３５號","OBJECTID":577631},"geometry":{"x":183560.92000000086,"y":2569979.5500000026}},{"attributes":{"ID":577659,"DIS_CODE":0,"TOWNNAME":"六甲區","LI":"六甲里","LIN":"23鄰","STREET":"中山路","SECT":" ","MAREA":" ","LANE":" ","ALLEY":" ","HOUSE_NO":"３９號","E_COORD97":183552.25,"N_COORD97":2569982.46,"ADDRESS":"中山路３９號","OBJECTID":577632},"geometry":{"x":183552.25,"y":2569982.4600000046}},{"attributes":{"ID":577660,"DIS_CODE":0,"TOWNNAME":"六甲區","LI":"甲南里","LIN":"23鄰","STREET":"中正路","SECT":" ","MAREA":" ","LANE":" ","ALLEY":" ","HOUSE_NO":"２４４號","E_COORD97":183537.20000000001,"N_COORD97":2569260.4700000002,"ADDRESS":"中正路２４４號","OBJECTID":577633},"geometry":{"x":183537.20000000112,"y":2569260.4700000025}},{"attributes":{"ID":577661,"DIS_CODE":0,"TOWNNAME":"六甲區","LI":"甲南里","LIN":"23鄰","STREET":"中正路","SECT":" ","MAREA":" ","LANE":" ","ALLEY":" ","HOUSE_NO":"２４６號","E_COORD97":183538.72,"N_COORD97":2569264.9199999999,"ADDRESS":"中正路２４６號","OBJECTID":577634},"geometry":{"x":183538.71999999974,"y":2569264.9199999999}},{"attributes":{"ID":577662,"DIS_CODE":0,"TOWNNAME":"六甲區","LI":"甲南里","LIN":"23鄰","STREET":"中正路","SECT":" ","MAREA":" ","LANE":" ","ALLEY":" ","HOUSE_NO":"２４８號","E_COORD97":183540.70999999999,"N_COORD97":2569269.5800000001,"ADDRESS":"中正路２４８號","OBJECTID":577635},"geometry":{"x":183540.70999999996,"y":2569269.5800000019}},{"attributes":{"ID":577663,"DIS_CODE":0,"TOWNNAME":"六甲區","LI":"甲南里","LIN":"23鄰","STREET":"中正路","SECT":" ","MAREA":" ","LANE":" ","ALLEY":" ","HOUSE_NO":"２５８號","E_COORD97":183543.06,"N_COORD97":2569295.7400000002,"ADDRESS":"中正路２５８號","OBJECTID":577636},"geometry":{"x":183543.05999999959,"y":2569295.7400000021}},{"attributes":{"ID":577664,"DIS_CODE":0,"TOWNNAME":"六甲區","LI":"甲南里","LIN":"23鄰","STREET":"中正路","SECT":" ","MAREA":" ","LANE":" ","ALLEY":" ","HOUSE_NO":"２６０號","E_COORD97":183544.57000000001,"N_COORD97":2569299.2400000002,"ADDRESS":"中正路２６０號","OBJECTID":577637},"geometry":{"x":183544.57000000216,"y":2569299.2400000021}},{"attributes":{"ID":577665,"DIS_CODE":0,"TOWNNAME":"六甲區","LI":"甲南里","LIN":"23鄰","STREET":"中正路","SECT":" ","MAREA":" ","LANE":" ","ALLEY":" ","HOUSE_NO":"２６２號","E_COORD97":183545.82999999999,"N_COORD97":2569302.7000000002,"ADDRESS":"中正路２６２號","OBJECTID":577638},"geometry":{"x":183545.83000000194,"y":2569302.6999999993}},{"attributes":{"ID":577666,"DIS_CODE":0,"TOWNNAME":"六甲區","LI":"甲南里","LIN":"23鄰","STREET":"中正路","SECT":" ","MAREA":" ","LANE":" ","ALLEY":" ","HOUSE_NO":"２６６號","E_COORD97":183550.66,"N_COORD97":2569309.2400000002,"ADDRESS":"中正路２６６號","OBJECTID":577639},"geometry":{"x":183550.66000000108,"y":2569309.2400000021}},{"attributes":{"ID":577667,"DIS_CODE":0,"TOWNNAME":"六甲區","LI":"甲南里","LIN":"23鄰","STREET":"中正路","SECT":" ","MAREA":" ","LANE":" ","ALLEY":" ","HOUSE_NO":"２６８號","E_COORD97":183552.45999999999,"N_COORD97":2569312.9500000002,"ADDRESS":"中正路２６８號","OBJECTID":577640},"geometry":{"x":183552.45999999996,"y":2569312.9500000011}},{"attributes":{"ID":577668,"DIS_CODE":0,"TOWNNAME":"六甲區","LI":"甲南里","LIN":"23鄰","STREET":"中正路","SECT":" ","MAREA":" ","LANE":" ","ALLEY":" ","HOUSE_NO":"２８６號","E_COORD97":183562.14000000001,"N_COORD97":2569347.96,"ADDRESS":"中正路２８６號","OBJECTID":577641},"geometry":{"x":183562.1400000006,"y":2569347.959999999}},{"attributes":{"ID":577669,"DIS_CODE":0,"TOWNNAME":"六甲區","LI":"甲南里","LIN":"23鄰","STREET":"中正路","SECT":" ","MAREA":" ","LANE":" ","ALLEY":" ","HOUSE_NO":"２８８號","E_COORD97":183563.57999999999,"N_COORD97":2569352.7400000002,"ADDRESS":"中正路２８８號","OBJECTID":577642},"geometry":{"x":183563.58000000101,"y":2569352.7400000021}},{"attributes":{"ID":577670,"DIS_CODE":0,"TOWNNAME":"六甲區","LI":"甲南里","LIN":"23鄰","STREET":"中正路","SECT":" ","MAREA":" ","LANE":" ","ALLEY":" ","HOUSE_NO":"２９０號","E_COORD97":183564.53,"N_COORD97":2569358.0299999998,"ADDRESS":"中正路２９０號","OBJECTID":577643},"geometry":{"x":183564.53000000026,"y":2569358.0299999993}},{"attributes":{"ID":577671,"DIS_CODE":0,"TOWNNAME":"六甲區","LI":"甲南里","LIN":"23鄰","STREET":"中正路","SECT":" ","MAREA":" ","LANE":" ","ALLEY":" ","HOUSE_NO":"２９２號","E_COORD97":183573.84,"N_COORD97":2569361.0299999998,"ADDRESS":"中正路２９２號","OBJECTID":577644},"geometry":{"x":183573.83999999985,"y":2569361.0300000012}},{"attributes":{"ID":577672,"DIS_CODE":0,"TOWNNAME":"六甲區","LI":"甲南里","LIN":"23鄰","STREET":"中正路","SECT":" ","MAREA":" ","LANE":" ","ALLEY":" ","HOUSE_NO":"２９４號","E_COORD97":183577.01999999999,"N_COORD97":2569363.4900000002,"ADDRESS":"中正路２９４號","OBJECTID":577645},"geometry":{"x":183577.02000000048,"y":2569363.4900000002}},{"attributes":{"ID":577673,"DIS_CODE":0,"TOWNNAME":"六甲區","LI":"甲南里","LIN":"23鄰","STREET":"中正路","SECT":" ","MAREA":" ","LANE":" ","ALLEY":" ","HOUSE_NO":"２９６號","E_COORD97":183580.85000000001,"N_COORD97":2569365.8100000001,"ADDRESS":"中正路２９６號","OBJECTID":577646},"geometry":{"x":183580.85000000149,"y":2569365.8100000042}},{"attributes":{"ID":577674,"DIS_CODE":0,"TOWNNAME":"六甲區","LI":"甲南里","LIN":"23鄰","STREET":"中正路","SECT":" ","MAREA":" ","LANE":" ","ALLEY":" ","HOUSE_NO":"２９８號","E_COORD97":183584.34,"N_COORD97":2569367.8199999998,"ADDRESS":"中正路２９８號","OBJECTID":577647},"geometry":{"x":183584.33999999985,"y":2569367.8200000003}},{"attributes":{"ID":577675,"DIS_CODE":0,"TOWNNAME":"六甲區","LI":"甲南里","LIN":"23鄰","STREET":"中正路","SECT":" ","MAREA":" ","LANE":" ","ALLEY":" ","HOUSE_NO":"３００號","E_COORD97":183587.42999999999,"N_COORD97":2569370.98,"ADDRESS":"中正路３００號","OBJECTID":577648},"geometry":{"x":183587.43000000063,"y":2569370.9800000004}},{"attributes":{"ID":577676,"DIS_CODE":0,"TOWNNAME":"六甲區","LI":"甲南里","LIN":"23鄰","STREET":"中正路","SECT":" ","MAREA":" ","LANE":" ","ALLEY":" ","HOUSE_NO":"３０２號","E_COORD97":183591.85999999999,"N_COORD97":2569372.4300000002,"ADDRESS":"中正路３０２號","OBJECTID":577649},"geometry":{"x":183591.86000000127,"y":2569372.4300000016}},{"attributes":{"ID":577677,"DIS_CODE":0,"TOWNNAME":"六甲區","LI":"甲南里","LIN":"23鄰","STREET":"中正路","SECT":" ","MAREA":" ","LANE":" ","ALLEY":" ","HOUSE_NO":"３０４號","E_COORD97":183578.67000000001,"N_COORD97":2569392.9900000002,"ADDRESS":"中正路３０４號","OBJECTID":577650},"geometry":{"x":183578.66999999993,"y":2569392.9900000021}},{"attributes":{"ID":577678,"DIS_CODE":0,"TOWNNAME":"六甲區","LI":"甲南里","LIN":"23鄰","STREET":"中正路","SECT":" ","MAREA":" ","LANE":" ","ALLEY":" ","HOUSE_NO":"３０８號","E_COORD97":183581.67999999999,"N_COORD97":2569396.7400000002,"ADDRESS":"中正路３０８號","OBJECTID":577651},"geometry":{"x":183581.6799999997,"y":2569396.7400000021}},{"attributes":{"ID":577679,"DIS_CODE":0,"TOWNNAME":"六甲區","LI":"甲南里","LIN":"23鄰","STREET":"中正路","SECT":" ","MAREA":" ","LANE":" ","ALLEY":" ","HOUSE_NO":"３１２號","E_COORD97":183583.57000000001,"N_COORD97":2569401.77,"ADDRESS":"中正路３１２號","OBJECTID":577652},"geometry":{"x":183583.57000000123,"y":2569401.7699999996}},{"attributes":{"ID":577680,"DIS_CODE":0,"TOWNNAME":"六甲區","LI":"甲南里","LIN":"23鄰","STREET":"中正路","SECT":" ","MAREA":" ","LANE":" ","ALLEY":" ","HOUSE_NO":"３１６號","E_COORD97":183586.26999999999,"N_COORD97":2569408.2200000002,"ADDRESS":"中正路３１６號","OBJECTID":577653},"geometry":{"x":183586.26999999862,"y":2569408.2200000025}},{"attributes":{"ID":577681,"DIS_CODE":0,"TOWNNAME":"六甲區","LI":"甲南里","LIN":"23鄰","STREET":"中正路","SECT":" ","MAREA":" ","LANE":" ","ALLEY":" ","HOUSE_NO":"３１８號","E_COORD97":183587.66,"N_COORD97":2569411.7599999998,"ADDRESS":"中正路３１８號","OBJECTID":577654},"geometry":{"x":183587.65999999922,"y":2569411.7599999998}},{"attributes":{"ID":577682,"DIS_CODE":0,"TOWNNAME":"六甲區","LI":"甲南里","LIN":"23鄰","STREET":"中正路","SECT":" ","MAREA":" ","LANE":" ","ALLEY":" ","HOUSE_NO":"３２０號","E_COORD97":183588.92000000001,"N_COORD97":2569415.8500000001,"ADDRESS":"中正路３２０號","OBJECTID":577655},"geometry":{"x":183588.91999999993,"y":2569415.8500000015}},{"attributes":{"ID":577683,"DIS_CODE":0,"TOWNNAME":"六甲區","LI":"甲南里","LIN":"23鄰","STREET":"中正路","SECT":" ","MAREA":" ","LANE":" ","ALLEY":" ","HOUSE_NO":"３２２號","E_COORD97":183590.5,"N_COORD97":2569419.77,"ADDRESS":"中正路３２２號","OBJECTID":577656},"geometry":{"x":183590.50000000186,"y":2569419.7700000014}},{"attributes":{"ID":577684,"DIS_CODE":0,"TOWNNAME":"六甲區","LI":"甲南里","LIN":"23鄰","STREET":"中正路","SECT":" ","MAREA":" ","LANE":" ","ALLEY":" ","HOUSE_NO":"３２４號","E_COORD97":183592.01999999999,"N_COORD97":2569423.7599999998,"ADDRESS":"中正路３２４號","OBJECTID":577657},"geometry":{"x":183592.02000000048,"y":2569423.7600000016}},{"attributes":{"ID":577685,"DIS_CODE":0,"TOWNNAME":"六甲區","LI":"六甲里","LIN":"23鄰","STREET":"中正路","SECT":" ","MAREA":" ","LANE":" ","ALLEY":" ","HOUSE_NO":"４６１號","E_COORD97":183584.70000000001,"N_COORD97":2569807.0099999998,"ADDRESS":"中正路４６１之１號","OBJECTID":577658},"geometry":{"x":183584.70000000112,"y":2569807.0099999998}},{"attributes":{"ID":577686,"DIS_CODE":0,"TOWNNAME":"六甲區","LI":"六甲里","LIN":"23鄰","STREET":"中正路","SECT":" ","MAREA":" ","LANE":" ","ALLEY":" ","HOUSE_NO":"４６１之２號","E_COORD97":183585.92999999999,"N_COORD97":2569813.2599999998,"ADDRESS":"中正路４６１之２號","OBJECTID":577659},"geometry":{"x":183585.93000000063,"y":2569813.2600000016}},{"attributes":{"ID":577687,"DIS_CODE":0,"TOWNNAME":"六甲區","LI":"六甲里","LIN":"23鄰","STREET":"中正路","SECT":" ","MAREA":" ","LANE":" ","ALLEY":" ","HOUSE_NO":"４６３號","E_COORD97":183586.91,"N_COORD97":2569818.2400000002,"ADDRESS":"中正路４６３號","OBJECTID":577660},"geometry":{"x":183586.91000000015,"y":2569818.2400000021}},{"attributes":{"ID":577688,"DIS_CODE":0,"TOWNNAME":"六甲區","LI":"六甲里","LIN":"23鄰","STREET":"中正路","SECT":" ","MAREA":" ","LANE":" ","ALLEY":" ","HOUSE_NO":"４６５號","E_COORD97":183587.84,"N_COORD97":2569822.77,"ADDRESS":"中正路４６５號","OBJECTID":577661},"geometry":{"x":183587.84000000171,"y":2569822.7700000033}},{"attributes":{"ID":577689,"DIS_CODE":0,"TOWNNAME":"六甲區","LI":"六甲里","LIN":"23鄰","STREET":"中正路","SECT":" ","MAREA":" ","LANE":" ","ALLEY":" ","HOUSE_NO":"４７１號","E_COORD97":183588.73000000001,"N_COORD97":2569838.48,"ADDRESS":"中正路４７１號","OBJECTID":577662},"geometry":{"x":183588.73000000045,"y":2569838.4800000004}},{"attributes":{"ID":577690,"DIS_CODE":0,"TOWNNAME":"六甲區","LI":"六甲里","LIN":"23鄰","STREET":"中正路","SECT":" ","MAREA":" ","LANE":" ","ALLEY":" ","HOUSE_NO":"４７５號","E_COORD97":183590.07999999999,"N_COORD97":2569845.5800000001,"ADDRESS":"中正路４７５號","OBJECTID":577663},"geometry":{"x":183590.08000000101,"y":2569845.5800000019}},{"attributes":{"ID":577691,"DIS_CODE":0,"TOWNNAME":"六甲區","LI":"六甲里","LIN":"23鄰","STREET":"中正路","SECT":" ","MAREA":" ","LANE":" ","ALLEY":" ","HOUSE_NO":"４８７號","E_COORD97":183600.47,"N_COORD97":2569885.6200000001,"ADDRESS":"中正路４８７號","OBJECTID":577664},"geometry":{"x":183600.4700000016,"y":2569885.620000001}},{"attributes":{"ID":577692,"DIS_CODE":0,"TOWNNAME":"六甲區","LI":"六甲里","LIN":"23鄰","STREET":"中正路","SECT":" ","MAREA":" ","LANE":" ","ALLEY":" ","HOUSE_NO":"４９１號","E_COORD97":183596.13,"N_COORD97":2569908.9500000002,"ADDRESS":"中正路４９１號","OBJECTID":577665},"geometry":{"x":183596.13000000175,"y":2569908.9499999993}},{"attributes":{"ID":577693,"DIS_CODE":0,"TOWNNAME":"六甲區","LI":"六甲里","LIN":"23鄰","STREET":"中正路","SECT":" ","MAREA":" ","LANE":" ","ALLEY":" ","HOUSE_NO":"４９３號","E_COORD97":183596.47,"N_COORD97":2569919.5800000001,"ADDRESS":"中正路４９３號","OBJECTID":577666},"geometry":{"x":183596.46999999974,"y":2569919.5800000038}},{"attributes":{"ID":577694,"DIS_CODE":0,"TOWNNAME":"六甲區","LI":"六甲里","LIN":"23鄰","STREET":"中正路","SECT":" ","MAREA":" ","LANE":" ","ALLEY":" ","HOUSE_NO":"４９９號","E_COORD97":183601.45999999999,"N_COORD97":2569935.25,"ADDRESS":"中正路４９７之１號","OBJECTID":577667},"geometry":{"x":183601.46000000089,"y":2569935.2500000037}},{"attributes":{"ID":577695,"DIS_CODE":0,"TOWNNAME":"六甲區","LI":"六甲里","LIN":"23鄰","STREET":"中正路","SECT":" ","MAREA":" ","LANE":" ","ALLEY":" ","HOUSE_NO":"４９７號","E_COORD97":183599.79000000001,"N_COORD97":2569930.71,"ADDRESS":"中正路４９５號","OBJECTID":577668},"geometry":{"x":183599.79000000004,"y":2569930.7100000028}},{"attributes":{"ID":577696,"DIS_CODE":0,"TOWNNAME":"六甲區","LI":"六甲里","LIN":"23鄰","STREET":"中正路","SECT":" ","MAREA":" ","LANE":" ","ALLEY":" ","HOUSE_NO":"５０１號","E_COORD97":183602.20999999999,"N_COORD97":2569939.54,"ADDRESS":"中正路５０１號","OBJECTID":577669},"geometry":{"x":183602.20999999996,"y":2569939.540000001}},{"attributes":{"ID":577697,"DIS_CODE":0,"TOWNNAME":"六甲區","LI":"六甲里","LIN":"23鄰","STREET":"中正路","SECT":" ","MAREA":" ","LANE":" ","ALLEY":" ","HOUSE_NO":"５０３號","E_COORD97":183607.45000000001,"N_COORD97":2569948.54,"ADDRESS":"中正路５０３號","OBJECTID":577670},"geometry":{"x":183607.45000000019,"y":2569948.5399999991}},{"attributes":{"ID":577698,"DIS_CODE":0,"TOWNNAME":"六甲區","LI":"甲南里","LIN":"23鄰","STREET":"中華路","SECT":" ","MAREA":" ","LANE":" ","ALLEY":" ","HOUSE_NO":"２９號","E_COORD97":183659.54999999999,"N_COORD97":2569366.3599999999,"ADDRESS":"中華路２９號","OBJECTID":577671},"geometry":{"x":183659.55000000075,"y":2569366.3599999994}},{"attributes":{"ID":577699,"DIS_CODE":0,"TOWNNAME":"六甲區","LI":"甲南里","LIN":"23鄰","STREET":"中華路","SECT":" ","MAREA":" ","LANE":" ","ALLEY":" ","HOUSE_NO":"３３號","E_COORD97":183646.51999999999,"N_COORD97":2569369.1000000001,"ADDRESS":"中華路３３號","OBJECTID":577672},"geometry":{"x":183646.52000000048,"y":2569369.0999999996}},{"attributes":{"ID":577700,"DIS_CODE":0,"TOWNNAME":"六甲區","LI":"甲南里","LIN":"23鄰","STREET":"中華路","SECT":" ","MAREA":" ","LANE":" ","ALLEY":" ","HOUSE_NO":"３５號","E_COORD97":183629.39000000001,"N_COORD97":2569367.5099999998,"ADDRESS":"中華路３５號","OBJECTID":577673},"geometry":{"x":183629.38999999966,"y":2569367.5100000016}},{"attributes":{"ID":577701,"DIS_CODE":0,"TOWNNAME":"新營區","LI":"南興里","LIN":"23鄰","STREET":"南昌街","SECT":" ","MAREA":" ","LANE":" ","ALLEY":" ","HOUSE_NO":"９５號","E_COORD97":179357.13,"N_COORD97":2577646.6099999999,"ADDRESS":"南昌街９５號","OBJECTID":577674},"geometry":{"x":179357.13000000082,"y":2577646.6100000013}},{"attributes":{"ID":577702,"DIS_CODE":0,"TOWNNAME":"新營區","LI":"南興里","LIN":"23鄰","STREET":"南昌街","SECT":" ","MAREA":" ","LANE":" ","ALLEY":" ","HOUSE_NO":"９１號","E_COORD97":179365.31,"N_COORD97":2577645.4700000002,"ADDRESS":"南昌街９１號","OBJECTID":577675},"geometry":{"x":179365.31000000052,"y":2577645.4700000025}},{"attributes":{"ID":577703,"DIS_CODE":0,"TOWNNAME":"新營區","LI":"民生里","LIN":"23鄰","STREET":"民生路","SECT":" ","MAREA":" ","LANE":" ","ALLEY":" ","HOUSE_NO":"６９之５號","E_COORD97":179200.03,"N_COORD97":2578489.0899999999,"ADDRESS":"民生路６９之５號","OBJECTID":577676},"geometry":{"x":179200.03000000212,"y":2578489.0899999999}},{"attributes":{"ID":577704,"DIS_CODE":0,"TOWNNAME":"新營區","LI":"大宏里","LIN":"23鄰","STREET":"民治路","SECT":" ","MAREA":" ","LANE":" ","ALLEY":" ","HOUSE_NO":"１號之２","E_COORD97":180628.29000000001,"N_COORD97":2578882.1099999999,"ADDRESS":"民治路１號之２","OBJECTID":577677},"geometry":{"x":180628.29000000004,"y":2578882.1099999994}},{"attributes":{"ID":577705,"DIS_CODE":0,"TOWNNAME":"新營區","LI":"民權里","LIN":"23鄰","STREET":"民權路","SECT":" ","MAREA":" ","LANE":" ","ALLEY":" ","HOUSE_NO":"１２０之１號","E_COORD97":179625.10999999999,"N_COORD97":2578783.8700000001,"ADDRESS":"民權路１２０之１號","OBJECTID":577678},"geometry":{"x":179625.11000000127,"y":2578783.870000001}},{"attributes":{"ID":577706,"DIS_CODE":0,"TOWNNAME":"新營區","LI":"民權里","LIN":"23鄰","STREET":"民治路","SECT":" ","MAREA":" ","LANE":" ","ALLEY":" ","HOUSE_NO":"６１號","E_COORD97":179626.69,"N_COORD97":2578828.1000000001,"ADDRESS":"民治路６１號","OBJECTID":577679},"geometry":{"x":179626.69000000134,"y":2578828.0999999996}},{"attributes":{"ID":577707,"DIS_CODE":0,"TOWNNAME":"新營區","LI":"王公里","LIN":"23鄰","STREET":"樂仁街","SECT":" ","MAREA":" ","LANE":" ","ALLEY":" ","HOUSE_NO":"３９號","E_COORD97":180515.20000000001,"N_COORD97":2579173.8500000001,"ADDRESS":"樂仁街３９號","OBJECTID":577680},"geometry":{"x":180515.20000000019,"y":2579173.8500000015}},{"attributes":{"ID":577708,"DIS_CODE":0,"TOWNNAME":"新營區","LI":"民權里","LIN":"23鄰","STREET":"民權路","SECT":" ","MAREA":" ","LANE":" ","ALLEY":" ","HOUSE_NO":"１２８號","E_COORD97":179616.60999999999,"N_COORD97":2578811.5299999998,"ADDRESS":"民權路１２８號","OBJECTID":577681},"geometry":{"x":179616.61000000127,"y":2578811.5299999993}},{"attributes":{"ID":577709,"DIS_CODE":0,"TOWNNAME":"新營區","LI":"民權里","LIN":"23鄰","STREET":"民權路","SECT":" ","MAREA":" ","LANE":" ","ALLEY":" ","HOUSE_NO":"１１０號","E_COORD97":179635.57000000001,"N_COORD97":2578712.8799999999,"ADDRESS":"民權路１１０號","OBJECTID":577682},"geometry":{"x":179635.57000000123,"y":2578712.879999999}},{"attributes":{"ID":577710,"DIS_CODE":0,"TOWNNAME":"新營區","LI":"新東里","LIN":"23鄰","STREET":"民治東路","SECT":" ","MAREA":" ","LANE":" ","ALLEY":" ","HOUSE_NO":"１０號","E_COORD97":180729.70000000001,"N_COORD97":2578912.5899999999,"ADDRESS":"民治東路１０號","OBJECTID":577683},"geometry":{"x":180729.70000000112,"y":2578912.5899999999}},{"attributes":{"ID":577711,"DIS_CODE":0,"TOWNNAME":"柳營區","LI":"東昇里","LIN":"23鄰","STREET":"中山西路","SECT":"一段","MAREA":" ","LANE":" ","ALLEY":" ","HOUSE_NO":"２８６號","E_COORD97":180351.13,"N_COORD97":2575349.5899999999,"ADDRESS":"中山西路一段２８６號","OBJECTID":577684},"geometry":{"x":180351.12999999989,"y":2575349.5899999999}},{"attributes":{"ID":577712,"DIS_CODE":0,"TOWNNAME":"柳營區","LI":"東昇里","LIN":"23鄰","STREET":"中山西路","SECT":"一段","MAREA":" ","LANE":" ","ALLEY":" ","HOUSE_NO":"３０２號","E_COORD97":180307.63,"N_COORD97":2575364.8199999998,"ADDRESS":"中山西路一段３０２號","OBJECTID":577685},"geometry":{"x":180307.63000000082,"y":2575364.8200000003}},{"attributes":{"ID":577713,"DIS_CODE":0,"TOWNNAME":"柳營區","LI":"東昇里","LIN":"23鄰","STREET":"中山西路","SECT":"一段","MAREA":" ","LANE":" ","ALLEY":" ","HOUSE_NO":"３２０號","E_COORD97":180275.92000000001,"N_COORD97":2575349.5699999998,"ADDRESS":"中山西路一段３２０號","OBJECTID":577686},"geometry":{"x":180275.91999999993,"y":2575349.5700000003}},{"attributes":{"ID":577714,"DIS_CODE":0,"TOWNNAME":"柳營區","LI":"光福里","LIN":"16鄰","STREET":"成功街","SECT":" ","MAREA":" ","LANE":" ","ALLEY":" ","HOUSE_NO":"１７０號","E_COORD97":179830.39000000001,"N_COORD97":2575326.8399999999,"ADDRESS":"成功街１７０號","OBJECTID":577687},"geometry":{"x":179830.38999999966,"y":2575326.8400000017}},{"attributes":{"ID":577715,"DIS_CODE":0,"TOWNNAME":"柳營區","LI":"光福里","LIN":"16鄰","STREET":"成功街","SECT":" ","MAREA":" ","LANE":" ","ALLEY":" ","HOUSE_NO":"１７２號","E_COORD97":179826.09,"N_COORD97":2575325.8999999999,"ADDRESS":"成功街１７２號","OBJECTID":577688},"geometry":{"x":179826.08999999985,"y":2575325.9000000022}},{"attributes":{"ID":577716,"DIS_CODE":0,"TOWNNAME":"柳營區","LI":"光福里","LIN":"16鄰","STREET":"成功街","SECT":" ","MAREA":" ","LANE":" ","ALLEY":" ","HOUSE_NO":"１７６號","E_COORD97":179822.25,"N_COORD97":2575324.8300000001,"ADDRESS":"成功街１７６號","OBJECTID":577689},"geometry":{"x":179822.25000000093,"y":2575324.8300000001}},{"attributes":{"ID":577717,"DIS_CODE":0,"TOWNNAME":"柳營區","LI":"東昇里","LIN":"16鄰","STREET":"東昇一街","SECT":" ","MAREA":" ","LANE":" ","ALLEY":" ","HOUSE_NO":"３８號","E_COORD97":180501.20999999999,"N_COORD97":2575423.6099999999,"ADDRESS":"東昇一街３８號","OBJECTID":577690},"geometry":{"x":180501.20999999996,"y":2575423.6099999994}},{"attributes":{"ID":577718,"DIS_CODE":0,"TOWNNAME":"柳營區","LI":"東昇里","LIN":"16鄰","STREET":"東昇一街","SECT":" ","MAREA":" ","LANE":" ","ALLEY":" ","HOUSE_NO":"４６號","E_COORD97":180502.17999999999,"N_COORD97":2575438.3799999999,"ADDRESS":"東昇一街４６號","OBJECTID":577691},"geometry":{"x":180502.18000000063,"y":2575438.379999999}},{"attributes":{"ID":577719,"DIS_CODE":0,"TOWNNAME":"柳營區","LI":"東昇里","LIN":"16鄰","STREET":"東昇一街","SECT":" ","MAREA":" ","LANE":" ","ALLEY":" ","HOUSE_NO":"７０號","E_COORD97":180501.88,"N_COORD97":2575496.7799999998,"ADDRESS":"東昇一街７０號","OBJECTID":577692},"geometry":{"x":180501.87999999989,"y":2575496.7799999993}},{"attributes":{"ID":577720,"DIS_CODE":0,"TOWNNAME":"柳營區","LI":"東昇里","LIN":"16鄰","STREET":"東昇一街","SECT":" ","MAREA":" ","LANE":" ","ALLEY":" ","HOUSE_NO":"７２號","E_COORD97":180501.94,"N_COORD97":2575501.25,"ADDRESS":"東昇一街７２號","OBJECTID":577693},"geometry":{"x":180501.94000000041,"y":2575501.25}},{"attributes":{"ID":577721,"DIS_CODE":0,"TOWNNAME":"柳營區","LI":"東昇里","LIN":"16鄰","STREET":"東昇一街","SECT":" ","MAREA":" ","LANE":" ","ALLEY":" ","HOUSE_NO":"７６號","E_COORD97":180502,"N_COORD97":2575505.7200000002,"ADDRESS":"東昇一街７６號","OBJECTID":577694},"geometry":{"x":180502.00000000093,"y":2575505.7200000007}},{"attributes":{"ID":577722,"DIS_CODE":0,"TOWNNAME":"柳營區","LI":"東昇里","LIN":"16鄰","STREET":"東昇一街","SECT":" ","MAREA":" ","LANE":" ","ALLEY":" ","HOUSE_NO":"７８號","E_COORD97":180497.95999999999,"N_COORD97":2575515.6400000001,"ADDRESS":"東昇一街７８號","OBJECTID":577695},"geometry":{"x":180497.95999999996,"y":2575515.6400000006}},{"attributes":{"ID":577723,"DIS_CODE":0,"TOWNNAME":"南區","LI":"彰南里","LIN":"16鄰","STREET":"新義南路","SECT":" ","MAREA":" ","LANE":" ","ALLEY":" ","HOUSE_NO":"１０號","E_COORD97":166008.23999999999,"N_COORD97":2541111.7400000002,"ADDRESS":"新義南路１０號","OBJECTID":577696},"geometry":{"x":166008.24000000209,"y":2541111.7400000021}},{"attributes":{"ID":577724,"DIS_CODE":0,"TOWNNAME":"南區","LI":"彰南里","LIN":"16鄰","STREET":"新義南路","SECT":" ","MAREA":" ","LANE":" ","ALLEY":" ","HOUSE_NO":"１４號","E_COORD97":165959.39999999999,"N_COORD97":2541113.6299999999,"ADDRESS":"新義南路１４號","OBJECTID":577697},"geometry":{"x":165959.40000000037,"y":2541113.6300000008}},{"attributes":{"ID":577725,"DIS_CODE":0,"TOWNNAME":"南區","LI":"彰南里","LIN":"16鄰","STREET":"新義南路","SECT":" ","MAREA":" ","LANE":" ","ALLEY":" ","HOUSE_NO":"１６號","E_COORD97":165935.69,"N_COORD97":2541112.6800000002,"ADDRESS":"新義南路１６號","OBJECTID":577698},"geometry":{"x":165935.68999999948,"y":2541112.6799999997}},{"attributes":{"ID":577726,"DIS_CODE":0,"TOWNNAME":"南區","LI":"彰南里","LIN":"16鄰","STREET":"新義南路","SECT":" ","MAREA":" ","LANE":" ","ALLEY":" ","HOUSE_NO":"１８號","E_COORD97":165911.51000000001,"N_COORD97":2541120.2599999998,"ADDRESS":"新義南路１８號","OBJECTID":577699},"geometry":{"x":165911.51000000071,"y":2541120.2600000035}},{"attributes":{"ID":577727,"DIS_CODE":0,"TOWNNAME":"南區","LI":"彰南里","LIN":"16鄰","STREET":"新義南路","SECT":" ","MAREA":" ","LANE":" ","ALLEY":" ","HOUSE_NO":"２０號","E_COORD97":165884.35999999999,"N_COORD97":2541115.6899999999,"ADDRESS":"新義南路２０號","OBJECTID":577700},"geometry":{"x":165884.36000000127,"y":2541115.6899999995}},{"attributes":{"ID":577728,"DIS_CODE":0,"TOWNNAME":"南區","LI":"彰南里","LIN":"16鄰","STREET":"新義南路","SECT":" ","MAREA":" ","LANE":" ","ALLEY":" ","HOUSE_NO":"２２號","E_COORD97":165859.12,"N_COORD97":2541115.2799999998,"ADDRESS":"新義南路２２號","OBJECTID":577701},"geometry":{"x":165859.12000000011,"y":2541115.2799999993}},{"attributes":{"ID":577729,"DIS_CODE":0,"TOWNNAME":"南區","LI":"彰南里","LIN":"16鄰","STREET":"新義南路","SECT":" ","MAREA":" ","LANE":" ","ALLEY":" ","HOUSE_NO":"２４號","E_COORD97":165834.69,"N_COORD97":2541115.6899999999,"ADDRESS":"新義南路２４號","OBJECTID":577702},"geometry":{"x":165834.69000000134,"y":2541115.6899999995}},{"attributes":{"ID":577730,"DIS_CODE":0,"TOWNNAME":"南區","LI":"彰南里","LIN":"16鄰","STREET":"新義南路","SECT":" ","MAREA":" ","LANE":" ","ALLEY":" ","HOUSE_NO":"２６號","E_COORD97":165808.22,"N_COORD97":2541115.6899999999,"ADDRESS":"新義南路２６號","OBJECTID":577703},"geometry":{"x":165808.22000000067,"y":2541115.6899999995}},{"attributes":{"ID":577731,"DIS_CODE":0,"TOWNNAME":"南區","LI":"彰南里","LIN":"16鄰","STREET":"新義南路","SECT":" ","MAREA":" ","LANE":" ","ALLEY":" ","HOUSE_NO":"２８號","E_COORD97":165783.39000000001,"N_COORD97":2541115.2799999998,"ADDRESS":"新義南路２８號","OBJECTID":577704},"geometry":{"x":165783.3900000006,"y":2541115.2799999993}},{"attributes":{"ID":577732,"DIS_CODE":0,"TOWNNAME":"南區","LI":"彰南里","LIN":"16鄰","STREET":"新義南路","SECT":" ","MAREA":" ","LANE":" ","ALLEY":" ","HOUSE_NO":"３０號","E_COORD97":165761.39999999999,"N_COORD97":2541115.2799999998,"ADDRESS":"新義南路３０號","OBJECTID":577705},"geometry":{"x":165761.40000000224,"y":2541115.2799999993}},{"attributes":{"ID":577733,"DIS_CODE":0,"TOWNNAME":"南區","LI":"彰南里","LIN":"16鄰","STREET":"新義南路","SECT":" ","MAREA":" ","LANE":" ","ALLEY":" ","HOUSE_NO":"３２號","E_COORD97":165732.09,"N_COORD97":2541113.6499999999,"ADDRESS":"新義南路３２號","OBJECTID":577706},"geometry":{"x":165732.08999999985,"y":2541113.6500000004}},{"attributes":{"ID":577734,"DIS_CODE":0,"TOWNNAME":"南區","LI":"彰南里","LIN":"16鄰","STREET":"新義南路","SECT":" ","MAREA":" ","LANE":" ","ALLEY":" ","HOUSE_NO":"３４號","E_COORD97":165708.88,"N_COORD97":2541111.21,"ADDRESS":"新義南路３４號","OBJECTID":577707},"geometry":{"x":165708.88000000082,"y":2541111.209999999}},{"attributes":{"ID":577735,"DIS_CODE":0,"TOWNNAME":"南區","LI":"彰南里","LIN":"16鄰","STREET":"新義南路","SECT":" ","MAREA":" ","LANE":" ","ALLEY":" ","HOUSE_NO":"３６號","E_COORD97":165684.85999999999,"N_COORD97":2541111.6200000001,"ADDRESS":"新義南路３６號","OBJECTID":577708},"geometry":{"x":165684.86000000034,"y":2541111.620000001}},{"attributes":{"ID":577736,"DIS_CODE":0,"TOWNNAME":"南區","LI":"彰南里","LIN":"16鄰","STREET":"新義南路","SECT":" ","MAREA":" ","LANE":" ","ALLEY":" ","HOUSE_NO":"３８號","E_COORD97":165659.60999999999,"N_COORD97":2541111.6200000001,"ADDRESS":"新義南路３８號","OBJECTID":577709},"geometry":{"x":165659.61000000034,"y":2541111.620000001}},{"attributes":{"ID":577737,"DIS_CODE":0,"TOWNNAME":"南區","LI":"彰南里","LIN":"16鄰","STREET":"新義南路","SECT":" ","MAREA":" ","LANE":" ","ALLEY":" ","HOUSE_NO":"４０號","E_COORD97":165636.81,"N_COORD97":2541113.25,"ADDRESS":"新義南路４０號","OBJECTID":577710},"geometry":{"x":165636.80999999959,"y":2541113.25}},{"attributes":{"ID":577738,"DIS_CODE":0,"TOWNNAME":"南區","LI":"彰南里","LIN":"16鄰","STREET":"新義南路","SECT":" ","MAREA":" ","LANE":" ","ALLEY":" ","HOUSE_NO":"４２號","E_COORD97":165610.04000000001,"N_COORD97":2541115.96,"ADDRESS":"新義南路４２號","OBJECTID":577711},"geometry":{"x":165610.04000000097,"y":2541115.9600000009}},{"attributes":{"ID":577739,"DIS_CODE":0,"TOWNNAME":"南區","LI":"彰南里","LIN":"16鄰","STREET":"新義南路","SECT":" ","MAREA":" ","LANE":" ","ALLEY":" ","HOUSE_NO":"４６號","E_COORD97":165542.66,"N_COORD97":2541080.29,"ADDRESS":"新義南路４６號","OBJECTID":577712},"geometry":{"x":165542.66000000108,"y":2541080.2899999991}},{"attributes":{"ID":577740,"DIS_CODE":0,"TOWNNAME":"南區","LI":"彰南里","LIN":"16鄰","STREET":"新義南路","SECT":" ","MAREA":" ","LANE":" ","ALLEY":" ","HOUSE_NO":"４８號","E_COORD97":165519.62,"N_COORD97":2541071.0800000001,"ADDRESS":"新義南路４８號","OBJECTID":577713},"geometry":{"x":165519.62000000104,"y":2541071.0800000019}},{"attributes":{"ID":577741,"DIS_CODE":0,"TOWNNAME":"南區","LI":"彰南里","LIN":"16鄰","STREET":"新義南路","SECT":" ","MAREA":" ","LANE":" ","ALLEY":" ","HOUSE_NO":"４號","E_COORD97":166091.39000000001,"N_COORD97":2541105.7799999998,"ADDRESS":"新義南路４號","OBJECTID":577714},"geometry":{"x":166091.39000000153,"y":2541105.7800000031}},{"attributes":{"ID":577742,"DIS_CODE":0,"TOWNNAME":"南區","LI":"彰南里","LIN":"16鄰","STREET":"新義南路","SECT":" ","MAREA":" ","LANE":" ","ALLEY":" ","HOUSE_NO":"５０號","E_COORD97":165496.57999999999,"N_COORD97":2541054.9700000002,"ADDRESS":"新義南路５０號","OBJECTID":577715},"geometry":{"x":165496.58000000007,"y":2541054.9699999988}},{"attributes":{"ID":577743,"DIS_CODE":0,"TOWNNAME":"南區","LI":"彰南里","LIN":"16鄰","STREET":"新義南路","SECT":" ","MAREA":" ","LANE":" ","ALLEY":" ","HOUSE_NO":"５２號","E_COORD97":165470.67000000001,"N_COORD97":2541032.5299999998,"ADDRESS":"新義南路５２號","OBJECTID":577716},"geometry":{"x":165470.66999999993,"y":2541032.5299999993}},{"attributes":{"ID":577744,"DIS_CODE":0,"TOWNNAME":"南區","LI":"彰南里","LIN":"16鄰","STREET":"新義南路","SECT":" ","MAREA":" ","LANE":" ","ALLEY":" ","HOUSE_NO":"５４號","E_COORD97":165449.92999999999,"N_COORD97":2541018.7200000002,"ADDRESS":"新義南路５４號","OBJECTID":577717},"geometry":{"x":165449.9299999997,"y":2541018.7200000007}},{"attributes":{"ID":577745,"DIS_CODE":0,"TOWNNAME":"南區","LI":"彰南里","LIN":"16鄰","STREET":"新義南路","SECT":" ","MAREA":" ","LANE":" ","ALLEY":" ","HOUSE_NO":"５６號","E_COORD97":165423,"N_COORD97":2541020.8199999998,"ADDRESS":"新義南路５６號","OBJECTID":577718},"geometry":{"x":165423.00000000186,"y":2541020.8200000003}},{"attributes":{"ID":577746,"DIS_CODE":0,"TOWNNAME":"南區","LI":"彰南里","LIN":"16鄰","STREET":"新義南路","SECT":" ","MAREA":" ","LANE":" ","ALLEY":" ","HOUSE_NO":"８號","E_COORD97":166031.94,"N_COORD97":2541113.1600000001,"ADDRESS":"新義南路８號","OBJECTID":577719},"geometry":{"x":166031.94000000041,"y":2541113.1600000001}},{"attributes":{"ID":577747,"DIS_CODE":0,"TOWNNAME":"南區","LI":"彰南里","LIN":"16鄰","STREET":"新義路","SECT":" ","MAREA":" ","LANE":" ","ALLEY":" ","HOUSE_NO":"１１號","E_COORD97":166043.79999999999,"N_COORD97":2541179.48,"ADDRESS":"新義路１１號","OBJECTID":577720},"geometry":{"x":166043.79999999981,"y":2541179.4800000004}},{"attributes":{"ID":577748,"DIS_CODE":0,"TOWNNAME":"南區","LI":"彰南里","LIN":"16鄰","STREET":"新義路","SECT":" ","MAREA":" ","LANE":" ","ALLEY":" ","HOUSE_NO":"１３號","E_COORD97":166005.37,"N_COORD97":2541183.27,"ADDRESS":"新義路１３號","OBJECTID":577721},"geometry":{"x":166005.36999999918,"y":2541183.2699999996}},{"attributes":{"ID":577749,"DIS_CODE":0,"TOWNNAME":"南區","LI":"彰南里","LIN":"16鄰","STREET":"新義路","SECT":" ","MAREA":" ","LANE":" ","ALLEY":" ","HOUSE_NO":"１５號","E_COORD97":165978.35999999999,"N_COORD97":2541169.0600000001,"ADDRESS":"新義路１５號","OBJECTID":577722},"geometry":{"x":165978.36000000034,"y":2541169.0600000005}},{"attributes":{"ID":577750,"DIS_CODE":0,"TOWNNAME":"南區","LI":"彰南里","LIN":"16鄰","STREET":"新義路","SECT":" ","MAREA":" ","LANE":" ","ALLEY":" ","HOUSE_NO":"１７號","E_COORD97":165946.60000000001,"N_COORD97":2541170.48,"ADDRESS":"新義路１７號","OBJECTID":577723},"geometry":{"x":165946.60000000056,"y":2541170.4800000023}},{"attributes":{"ID":577751,"DIS_CODE":0,"TOWNNAME":"南區","LI":"彰南里","LIN":"16鄰","STREET":"新義路","SECT":" ","MAREA":" ","LANE":" ","ALLEY":" ","HOUSE_NO":"１９號","E_COORD97":165921.94,"N_COORD97":2541170.9500000002,"ADDRESS":"新義路１９號","OBJECTID":577724},"geometry":{"x":165921.94000000041,"y":2541170.9499999993}},{"attributes":{"ID":577752,"DIS_CODE":0,"TOWNNAME":"南區","LI":"彰南里","LIN":"16鄰","STREET":"新義路","SECT":" ","MAREA":" ","LANE":" ","ALLEY":" ","HOUSE_NO":"２１號","E_COORD97":165875.41,"N_COORD97":2541181.1800000002,"ADDRESS":"新義路２１號","OBJECTID":577725},"geometry":{"x":165875.41000000108,"y":2541181.1799999997}},{"attributes":{"ID":577753,"DIS_CODE":0,"TOWNNAME":"南區","LI":"彰南里","LIN":"16鄰","STREET":"新義路","SECT":" ","MAREA":" ","LANE":" ","ALLEY":" ","HOUSE_NO":"２７號","E_COORD97":165797.06,"N_COORD97":2541173.8700000001,"ADDRESS":"新義路２７號","OBJECTID":577726},"geometry":{"x":165797.06000000052,"y":2541173.870000001}},{"attributes":{"ID":577754,"DIS_CODE":0,"TOWNNAME":"南區","LI":"彰南里","LIN":"16鄰","STREET":"新義路","SECT":" ","MAREA":" ","LANE":" ","ALLEY":" ","HOUSE_NO":"３３號","E_COORD97":165701.14000000001,"N_COORD97":2541173.0299999998,"ADDRESS":"新義路３３號","OBJECTID":577727},"geometry":{"x":165701.13999999966,"y":2541173.0300000012}},{"attributes":{"ID":577755,"DIS_CODE":0,"TOWNNAME":"南區","LI":"彰南里","LIN":"16鄰","STREET":"新義路","SECT":" ","MAREA":" ","LANE":" ","ALLEY":" ","HOUSE_NO":"３５號","E_COORD97":165669.79000000001,"N_COORD97":2541160.8399999999,"ADDRESS":"新義路３５號","OBJECTID":577728},"geometry":{"x":165669.79000000004,"y":2541160.8400000017}},{"attributes":{"ID":577756,"DIS_CODE":0,"TOWNNAME":"南區","LI":"彰南里","LIN":"16鄰","STREET":"新義路","SECT":" ","MAREA":" ","LANE":" ","ALLEY":" ","HOUSE_NO":"７號","E_COORD97":166107.81,"N_COORD97":2541183.7400000002,"ADDRESS":"新義路７號","OBJECTID":577729},"geometry":{"x":166107.81000000052,"y":2541183.7400000002}},{"attributes":{"ID":577757,"DIS_CODE":0,"TOWNNAME":"南區","LI":"彰南里","LIN":"16鄰","STREET":"新義路","SECT":" ","MAREA":" ","LANE":" ","ALLEY":" ","HOUSE_NO":"９號","E_COORD97":166069.88,"N_COORD97":2541181.8500000001,"ADDRESS":"新義路９號","OBJECTID":577730},"geometry":{"x":166069.88000000082,"y":2541181.8500000015}},{"attributes":{"ID":577758,"DIS_CODE":0,"TOWNNAME":"南區","LI":"彰南里","LIN":"16鄰","STREET":"新義路","SECT":" ","MAREA":" ","LANE":" ","ALLEY":" ","HOUSE_NO":"９號之１","E_COORD97":166086,"N_COORD97":2541181.3700000001,"ADDRESS":"新義路９號之１","OBJECTID":577731},"geometry":{"x":166086.00000000093,"y":2541181.370000001}},{"attributes":{"ID":577759,"DIS_CODE":0,"TOWNNAME":"南區","LI":"彰南里","LIN":"16鄰","STREET":"新樂路","SECT":" ","MAREA":" ","LANE":" ","ALLEY":" ","HOUSE_NO":"４９號","E_COORD97":165565.69,"N_COORD97":2541158.9100000001,"ADDRESS":"新樂路４９號","OBJECTID":577732},"geometry":{"x":165565.69000000041,"y":2541158.9100000001}},{"attributes":{"ID":577760,"DIS_CODE":0,"TOWNNAME":"南區","LI":"彰南里","LIN":"16鄰","STREET":"新樂路","SECT":" ","MAREA":" ","LANE":" ","ALLEY":" ","HOUSE_NO":"５１號","E_COORD97":165544.38,"N_COORD97":2541142.4300000002,"ADDRESS":"新樂路５１號","OBJECTID":577733},"geometry":{"x":165544.38000000082,"y":2541142.4299999978}},{"attributes":{"ID":577761,"DIS_CODE":0,"TOWNNAME":"南區","LI":"彰南里","LIN":"16鄰","STREET":"新樂路","SECT":" ","MAREA":" ","LANE":" ","ALLEY":" ","HOUSE_NO":"５５號","E_COORD97":165485.64000000001,"N_COORD97":2541123.4399999999,"ADDRESS":"新樂路５５號","OBJECTID":577734},"geometry":{"x":165485.63999999966,"y":2541123.4400000013}},{"attributes":{"ID":577762,"DIS_CODE":0,"TOWNNAME":"南區","LI":"彰南里","LIN":"16鄰","STREET":"新樂路","SECT":" ","MAREA":" ","LANE":" ","ALLEY":" ","HOUSE_NO":"６１號","E_COORD97":165372.92000000001,"N_COORD97":2541074.1899999999,"ADDRESS":"新樂路６１號","OBJECTID":577735},"geometry":{"x":165372.92000000086,"y":2541074.1900000013}},{"attributes":{"ID":577763,"DIS_CODE":0,"TOWNNAME":"南區","LI":"彰南里","LIN":"16鄰","STREET":"新樂路","SECT":" ","MAREA":" ","LANE":" ","ALLEY":" ","HOUSE_NO":"６３號","E_COORD97":165387.95000000001,"N_COORD97":2541038.3300000001,"ADDRESS":"新樂路６３號","OBJECTID":577736},"geometry":{"x":165387.95000000205,"y":2541038.3299999982}},{"attributes":{"ID":577764,"DIS_CODE":0,"TOWNNAME":"南區","LI":"府南里","LIN":"16鄰","STREET":"大成路","SECT":"二段","MAREA":" ","LANE":" ","ALLEY":" ","HOUSE_NO":"２３５號","E_COORD97":167096.10000000001,"N_COORD97":2541721.3599999999,"ADDRESS":"大成路二段２３５號","OBJECTID":577737},"geometry":{"x":167096.09999999963,"y":2541721.3599999994}},{"attributes":{"ID":577765,"DIS_CODE":0,"TOWNNAME":"南區","LI":"文南里","LIN":"16鄰","STREET":"永南一街","SECT":" ","MAREA":" ","LANE":" ","ALLEY":" ","HOUSE_NO":"１８號之１","E_COORD97":166773.70999999999,"N_COORD97":2542576.4900000002,"ADDRESS":"永南一街１８號之１","OBJECTID":577738},"geometry":{"x":166773.70999999996,"y":2542576.4900000002}},{"attributes":{"ID":577766,"DIS_CODE":0,"TOWNNAME":"南區","LI":"文南里","LIN":"16鄰","STREET":"永南一街","SECT":" ","MAREA":" ","LANE":" ","ALLEY":" ","HOUSE_NO":"２８號","E_COORD97":166751.23000000001,"N_COORD97":2542578.5299999998,"ADDRESS":"永南一街２８號","OBJECTID":577739},"geometry":{"x":166751.23000000138,"y":2542578.5299999993}},{"attributes":{"ID":577767,"DIS_CODE":0,"TOWNNAME":"南區","LI":"文南里","LIN":"16鄰","STREET":"永南一街","SECT":" ","MAREA":" ","LANE":" ","ALLEY":" ","HOUSE_NO":"３０號","E_COORD97":166746.78,"N_COORD97":2542578.8900000001,"ADDRESS":"永南一街３０號","OBJECTID":577740},"geometry":{"x":166746.78000000026,"y":2542578.8900000025}},{"attributes":{"ID":577768,"DIS_CODE":0,"TOWNNAME":"南區","LI":"文南里","LIN":"16鄰","STREET":"永南一街","SECT":" ","MAREA":" ","LANE":" ","ALLEY":" ","HOUSE_NO":"３４號","E_COORD97":166737.88,"N_COORD97":2542579.96,"ADDRESS":"永南一街３４號","OBJECTID":577741},"geometry":{"x":166737.88000000082,"y":2542579.9600000009}},{"attributes":{"ID":577769,"DIS_CODE":0,"TOWNNAME":"南區","LI":"文南里","LIN":"16鄰","STREET":"永南一街","SECT":" ","MAREA":" ","LANE":" ","ALLEY":" ","HOUSE_NO":"３６號","E_COORD97":166733.42999999999,"N_COORD97":2542580.5800000001,"ADDRESS":"永南一街３６號","OBJECTID":577742},"geometry":{"x":166733.42999999877,"y":2542580.5800000019}},{"attributes":{"ID":577770,"DIS_CODE":0,"TOWNNAME":"南區","LI":"文南里","LIN":"16鄰","STREET":"永南二街","SECT":" ","MAREA":" ","LANE":" ","ALLEY":" ","HOUSE_NO":"２１號","E_COORD97":166765.45999999999,"N_COORD97":2542611.77,"ADDRESS":"永南二街２１號","OBJECTID":577743},"geometry":{"x":166765.45999999996,"y":2542611.7700000033}},{"attributes":{"ID":577771,"DIS_CODE":0,"TOWNNAME":"南區","LI":"文南里","LIN":"16鄰","STREET":"永南二街","SECT":" ","MAREA":" ","LANE":" ","ALLEY":" ","HOUSE_NO":"２３號","E_COORD97":166760.23999999999,"N_COORD97":2542612.2000000002,"ADDRESS":"永南二街２３號","OBJECTID":577744},"geometry":{"x":166760.24000000022,"y":2542612.2000000011}},{"attributes":{"ID":577772,"DIS_CODE":0,"TOWNNAME":"南區","LI":"文南里","LIN":"16鄰","STREET":"永南二街","SECT":" ","MAREA":" ","LANE":" ","ALLEY":" ","HOUSE_NO":"２５號","E_COORD97":166753.73000000001,"N_COORD97":2542612.6299999999,"ADDRESS":"永南二街２５號","OBJECTID":577745},"geometry":{"x":166753.73000000045,"y":2542612.6300000008}},{"attributes":{"ID":577773,"DIS_CODE":0,"TOWNNAME":"南區","LI":"文南里","LIN":"16鄰","STREET":"永南二街","SECT":" ","MAREA":" ","LANE":" ","ALLEY":" ","HOUSE_NO":"２７號","E_COORD97":166747.22,"N_COORD97":2542613.29,"ADDRESS":"永南二街２７號","OBJECTID":577746},"geometry":{"x":166747.22000000067,"y":2542613.2899999991}},{"attributes":{"ID":577774,"DIS_CODE":0,"TOWNNAME":"南區","LI":"大恩里","LIN":"16鄰","STREET":"國民路","SECT":" ","MAREA":" ","LANE":" ","ALLEY":" ","HOUSE_NO":"１８１號","E_COORD97":169151.53,"N_COORD97":2540885.3399999999,"ADDRESS":"國民路１８１號","OBJECTID":577747},"geometry":{"x":169151.53000000119,"y":2540885.3399999999}},{"attributes":{"ID":577775,"DIS_CODE":0,"TOWNNAME":"南區","LI":"大恩里","LIN":"16鄰","STREET":"國民路","SECT":" ","MAREA":" ","LANE":" ","ALLEY":" ","HOUSE_NO":"１８３號","E_COORD97":169147.56,"N_COORD97":2540886.4199999999,"ADDRESS":"國民路１８３號","OBJECTID":577748},"geometry":{"x":169147.55999999959,"y":2540886.4200000018}},{"attributes":{"ID":577776,"DIS_CODE":0,"TOWNNAME":"南區","LI":"大恩里","LIN":"16鄰","STREET":"國民路","SECT":" ","MAREA":" ","LANE":" ","ALLEY":" ","HOUSE_NO":"１８５號","E_COORD97":169143.48000000001,"N_COORD97":2540887.6000000001,"ADDRESS":"國民路１８５號","OBJECTID":577749},"geometry":{"x":169143.48000000138,"y":2540887.6000000015}},{"attributes":{"ID":577777,"DIS_CODE":0,"TOWNNAME":"南區","LI":"大恩里","LIN":"16鄰","STREET":"國民路","SECT":" ","MAREA":" ","LANE":" ","ALLEY":" ","HOUSE_NO":"１８７號","E_COORD97":169139.72,"N_COORD97":2540889.8500000001,"ADDRESS":"國民路１８７號","OBJECTID":577750},"geometry":{"x":169139.71999999974,"y":2540889.8500000015}},{"attributes":{"ID":577778,"DIS_CODE":0,"TOWNNAME":"南區","LI":"大恩里","LIN":"16鄰","STREET":"國民路","SECT":" ","MAREA":" ","LANE":" ","ALLEY":" ","HOUSE_NO":"１８９號","E_COORD97":169135.53,"N_COORD97":2540891.5699999998,"ADDRESS":"國民路１８９號","OBJECTID":577751},"geometry":{"x":169135.53000000212,"y":2540891.570000004}},{"attributes":{"ID":577779,"DIS_CODE":0,"TOWNNAME":"南區","LI":"大恩里","LIN":"16鄰","STREET":"國民路","SECT":" ","MAREA":" ","LANE":" ","ALLEY":" ","HOUSE_NO":"１９１號","E_COORD97":169129.95000000001,"N_COORD97":2540893.8199999998,"ADDRESS":"國民路１９１號","OBJECTID":577752},"geometry":{"x":169129.95000000112,"y":2540893.8200000022}},{"attributes":{"ID":577780,"DIS_CODE":0,"TOWNNAME":"南區","LI":"大恩里","LIN":"16鄰","STREET":"國民路","SECT":" ","MAREA":" ","LANE":" ","ALLEY":" ","HOUSE_NO":"１９３號","E_COORD97":169126.51000000001,"N_COORD97":2540895.4300000002,"ADDRESS":"國民路１９３號","OBJECTID":577753},"geometry":{"x":169126.50999999978,"y":2540895.4300000016}},{"attributes":{"ID":577781,"DIS_CODE":0,"TOWNNAME":"南區","LI":"大恩里","LIN":"16鄰","STREET":"國民路","SECT":" ","MAREA":" ","LANE":" ","ALLEY":" ","HOUSE_NO":"１９５號","E_COORD97":169122.87,"N_COORD97":2540897.9900000002,"ADDRESS":"國民路１９５號","OBJECTID":577754},"geometry":{"x":169122.87000000197,"y":2540897.9900000002}},{"attributes":{"ID":577782,"DIS_CODE":0,"TOWNNAME":"南區","LI":"大恩里","LIN":"16鄰","STREET":"國民路","SECT":" ","MAREA":" ","LANE":" ","ALLEY":" ","HOUSE_NO":"１９７號","E_COORD97":169119.75,"N_COORD97":2540899.7000000002,"ADDRESS":"國民路１９７號","OBJECTID":577755},"geometry":{"x":169119.75,"y":2540899.700000003}},{"attributes":{"ID":577783,"DIS_CODE":0,"TOWNNAME":"南區","LI":"大恩里","LIN":"16鄰","STREET":"國民路","SECT":" ","MAREA":" ","LANE":" ","ALLEY":" ","HOUSE_NO":"１９９號","E_COORD97":169115.45999999999,"N_COORD97":2540901.3100000001,"ADDRESS":"國民路１９９號","OBJECTID":577756},"geometry":{"x":169115.46000000183,"y":2540901.3100000024}},{"attributes":{"ID":577784,"DIS_CODE":0,"TOWNNAME":"南區","LI":"大恩里","LIN":"16鄰","STREET":"國民路","SECT":" ","MAREA":" ","LANE":" ","ALLEY":" ","HOUSE_NO":"２０１號","E_COORD97":169111.81,"N_COORD97":2540903.46,"ADDRESS":"國民路２０１號","OBJECTID":577757},"geometry":{"x":169111.80999999959,"y":2540903.4600000028}},{"attributes":{"ID":577785,"DIS_CODE":0,"TOWNNAME":"南區","LI":"大恩里","LIN":"16鄰","STREET":"國民路","SECT":" ","MAREA":" ","LANE":" ","ALLEY":" ","HOUSE_NO":"２０３號","E_COORD97":169108.91,"N_COORD97":2540906.3500000001,"ADDRESS":"國民路２０３號","OBJECTID":577758},"geometry":{"x":169108.91000000015,"y":2540906.3500000015}},{"attributes":{"ID":577786,"DIS_CODE":0,"TOWNNAME":"南區","LI":"白雪里","LIN":"16鄰","STREET":"金華路","SECT":"一段","MAREA":" ","LANE":" ","ALLEY":" ","HOUSE_NO":"２４１號","E_COORD97":166935.37,"N_COORD97":2540901.8300000001,"ADDRESS":"金華路一段２４１號","OBJECTID":577759},"geometry":{"x":166935.37000000011,"y":2540901.8300000001}},{"attributes":{"ID":577787,"DIS_CODE":0,"TOWNNAME":"南區","LI":"白雪里","LIN":"16鄰","STREET":"金華路","SECT":"一段","MAREA":" ","LANE":" ","ALLEY":" ","HOUSE_NO":"２４５號","E_COORD97":166937.45000000001,"N_COORD97":2540914.3900000001,"ADDRESS":"金華路一段２４５號","OBJECTID":577760},"geometry":{"x":166937.45000000205,"y":2540914.3900000025}},{"attributes":{"ID":577788,"DIS_CODE":0,"TOWNNAME":"南區","LI":"白雪里","LIN":"16鄰","STREET":"金華路","SECT":"一段","MAREA":" ","LANE":" ","ALLEY":" ","HOUSE_NO":"２１９號","E_COORD97":166938.57000000001,"N_COORD97":2540835.4199999999,"ADDRESS":"金華路一段２１９號","OBJECTID":577761},"geometry":{"x":166938.57000000123,"y":2540835.4200000018}},{"attributes":{"ID":577789,"DIS_CODE":0,"TOWNNAME":"歸仁區","LI":"許厝里","LIN":"16鄰","STREET":"中山路","SECT":"一段","MAREA":" ","LANE":" ","ALLEY":" ","HOUSE_NO":"３４６號","E_COORD97":178365.10999999999,"N_COORD97":2540697.25,"ADDRESS":"中山路一段３４６號","OBJECTID":577762},"geometry":{"x":178365.11000000034,"y":2540697.2500000019}},{"attributes":{"ID":577790,"DIS_CODE":0,"TOWNNAME":"歸仁區","LI":"崙頂里","LIN":"16鄰","STREET":"崙頂一街","SECT":" ","MAREA":" ","LANE":" ","ALLEY":" ","HOUSE_NO":"２９號","E_COORD97":177975.87,"N_COORD97":2539991.6800000002,"ADDRESS":"崙頂一街２９號","OBJECTID":577763},"geometry":{"x":177975.87000000104,"y":2539991.6800000034}},{"attributes":{"ID":577791,"DIS_CODE":0,"TOWNNAME":"歸仁區","LI":"許厝里","LIN":"16鄰","STREET":"中山路","SECT":"一段","MAREA":" ","LANE":" ","ALLEY":" ","HOUSE_NO":"３１８號","E_COORD97":178431.81,"N_COORD97":2540687.25,"ADDRESS":"中山路一段３１８號","OBJECTID":577764},"geometry":{"x":178431.81000000052,"y":2540687.2500000019}},{"attributes":{"ID":577792,"DIS_CODE":0,"TOWNNAME":"歸仁區","LI":"崙頂里","LIN":"16鄰","STREET":"崙頂一街","SECT":" ","MAREA":" ","LANE":" ","ALLEY":" ","HOUSE_NO":"５號","E_COORD97":177904.26000000001,"N_COORD97":2539989.1099999999,"ADDRESS":"崙頂一街５號","OBJECTID":577765},"geometry":{"x":177904.25999999885,"y":2539989.1100000013}},{"attributes":{"ID":577793,"DIS_CODE":0,"TOWNNAME":"歸仁區","LI":"許厝里","LIN":"16鄰","STREET":"中山路","SECT":"一段","MAREA":" ","LANE":" ","ALLEY":" ","HOUSE_NO":"３２２號","E_COORD97":178422.51000000001,"N_COORD97":2540689.25,"ADDRESS":"中山路一段３２２號","OBJECTID":577766},"geometry":{"x":178422.50999999978,"y":2540689.25}},{"attributes":{"ID":577794,"DIS_CODE":0,"TOWNNAME":"歸仁區","LI":"看西里","LIN":"16鄰","STREET":"成功路","SECT":"一段","MAREA":" ","LANE":" ","ALLEY":" ","HOUSE_NO":"２９６號","E_COORD97":178302.01000000001,"N_COORD97":2540004.1200000001,"ADDRESS":"成功路一段２９６號","OBJECTID":577767},"geometry":{"x":178302.00999999978,"y":2540004.1200000029}},{"attributes":{"ID":577795,"DIS_CODE":0,"TOWNNAME":"歸仁區","LI":"南興里","LIN":"16鄰","STREET":"南興一街","SECT":" ","MAREA":" ","LANE":" ","ALLEY":" ","HOUSE_NO":"６８號","E_COORD97":175777.51000000001,"N_COORD97":2541329.25,"ADDRESS":"南興一街６８號","OBJECTID":577768},"geometry":{"x":175777.51000000071,"y":2541329.25}},{"attributes":{"ID":577796,"DIS_CODE":0,"TOWNNAME":"歸仁區","LI":"南興里","LIN":"16鄰","STREET":"南興一街","SECT":" ","MAREA":" ","LANE":" ","ALLEY":" ","HOUSE_NO":"５９號","E_COORD97":175779.29000000001,"N_COORD97":2541342.25,"ADDRESS":"南興一街５９號","OBJECTID":577769},"geometry":{"x":175779.29000000097,"y":2541342.2500000019}},{"attributes":{"ID":577797,"DIS_CODE":0,"TOWNNAME":"歸仁區","LI":"後市里","LIN":"16鄰","STREET":"民族南街","SECT":" ","MAREA":" ","LANE":" ","ALLEY":" ","HOUSE_NO":"１６號","E_COORD97":177408.48999999999,"N_COORD97":2540742.5499999998,"ADDRESS":"民族南街１６號","OBJECTID":577770},"geometry":{"x":177408.49000000115,"y":2540742.5499999989}},{"attributes":{"ID":577798,"DIS_CODE":0,"TOWNNAME":"歸仁區","LI":"文化里","LIN":"16鄰","STREET":"大德路","SECT":" ","MAREA":" ","LANE":" ","ALLEY":" ","HOUSE_NO":"２０７號","E_COORD97":177235.07000000001,"N_COORD97":2541499.3300000001,"ADDRESS":"大德路２０７號","OBJECTID":577771},"geometry":{"x":177235.07000000216,"y":2541499.3300000001}},{"attributes":{"ID":577799,"DIS_CODE":0,"TOWNNAME":"歸仁區","LI":"南興里","LIN":"16鄰","STREET":"南興一街","SECT":" ","MAREA":" ","LANE":" ","ALLEY":" ","HOUSE_NO":"５２號","E_COORD97":175749.48999999999,"N_COORD97":2541332.25,"ADDRESS":"南興一街５２號","OBJECTID":577772},"geometry":{"x":175749.49000000115,"y":2541332.2500000019}},{"attributes":{"ID":577800,"DIS_CODE":0,"TOWNNAME":"歸仁區","LI":"看東里","LIN":"16鄰","STREET":"中山路","SECT":"一段","MAREA":" ","LANE":" ","ALLEY":" ","HOUSE_NO":"１３號","E_COORD97":179583.42999999999,"N_COORD97":2540300.5699999998,"ADDRESS":"中山路一段１３號","OBJECTID":577773},"geometry":{"x":179583.43000000063,"y":2540300.5700000003}},{"attributes":{"ID":577801,"DIS_CODE":0,"TOWNNAME":"歸仁區","LI":"六甲里","LIN":"16鄰","STREET":"六甲路","SECT":" ","MAREA":" ","LANE":" ","ALLEY":" ","HOUSE_NO":"３１９號","E_COORD97":175735.83026799999,"N_COORD97":2539218.37733,"ADDRESS":"六甲路３１９號","OBJECTID":577774},"geometry":{"x":175735.83026800118,"y":2539218.3773320001}},{"attributes":{"ID":577802,"DIS_CODE":0,"TOWNNAME":"歸仁區","LI":"文化里","LIN":"16鄰","STREET":"大德路","SECT":" ","MAREA":" ","LANE":" ","ALLEY":" ","HOUSE_NO":"１９７號","E_COORD97":177235.07000000001,"N_COORD97":2541499.3300000001,"ADDRESS":"大德路１９７號","OBJECTID":577775},"geometry":{"x":177235.07000000216,"y":2541499.3300000001}},{"attributes":{"ID":577803,"DIS_CODE":0,"TOWNNAME":"歸仁區","LI":"六甲里","LIN":"16鄰","STREET":"六甲路","SECT":" ","MAREA":" ","LANE":" ","ALLEY":" ","HOUSE_NO":"２８７號","E_COORD97":175812.76999999999,"N_COORD97":2539174.25,"ADDRESS":"六甲路２８７號","OBJECTID":577776},"geometry":{"x":175812.77000000048,"y":2539174.2500000037}},{"attributes":{"ID":577804,"DIS_CODE":0,"TOWNNAME":"歸仁區","LI":"後市里","LIN":"16鄰","STREET":"中山路","SECT":"二段","MAREA":" ","LANE":" ","ALLEY":" ","HOUSE_NO":"１２５號","E_COORD97":177339.48999999999,"N_COORD97":2540797.5499999998,"ADDRESS":"中山路二段１２５號","OBJECTID":577777},"geometry":{"x":177339.49000000115,"y":2540797.5500000026}},{"attributes":{"ID":577805,"DIS_CODE":0,"TOWNNAME":"歸仁區","LI":"看東里","LIN":"16鄰","STREET":"中山路","SECT":"一段","MAREA":" ","LANE":" ","ALLEY":" ","HOUSE_NO":"８５號","E_COORD97":179260.82999999999,"N_COORD97":2540390.5699999998,"ADDRESS":"中山路一段８５號","OBJECTID":577778},"geometry":{"x":179260.83000000101,"y":2540390.5700000022}},{"attributes":{"ID":577806,"DIS_CODE":0,"TOWNNAME":"歸仁區","LI":"六甲里","LIN":"16鄰","STREET":"六甲路","SECT":" ","MAREA":" ","LANE":" ","ALLEY":" ","HOUSE_NO":"２７９號","E_COORD97":175831.37,"N_COORD97":2539209.25,"ADDRESS":"六甲路２７９號","OBJECTID":577779},"geometry":{"x":175831.37000000104,"y":2539209.2500000019}},{"attributes":{"ID":577807,"DIS_CODE":0,"TOWNNAME":"歸仁區","LI":"看東里","LIN":"16鄰","STREET":"中山路","SECT":"一段","MAREA":" ","LANE":" ","ALLEY":" ","HOUSE_NO":"７號","E_COORD97":179599.57999999999,"N_COORD97":2540292.5699999998,"ADDRESS":"中山路一段７號","OBJECTID":577780},"geometry":{"x":179599.58000000101,"y":2540292.5700000022}},{"attributes":{"ID":577808,"DIS_CODE":0,"TOWNNAME":"歸仁區","LI":"六甲里","LIN":"16鄰","STREET":"六甲路","SECT":" ","MAREA":" ","LANE":" ","ALLEY":" ","HOUSE_NO":"２９１號","E_COORD97":175804.47,"N_COORD97":2539159.25,"ADDRESS":"六甲路２９１號","OBJECTID":577781},"geometry":{"x":175804.47000000067,"y":2539159.25}},{"attributes":{"ID":577809,"DIS_CODE":0,"TOWNNAME":"歸仁區","LI":"武東里","LIN":"16鄰","STREET":"光明街","SECT":" ","MAREA":" ","LANE":" ","ALLEY":" ","HOUSE_NO":"２６號","E_COORD97":175779.89000000001,"N_COORD97":2536722.25,"ADDRESS":"光明街２６號","OBJECTID":577782},"geometry":{"x":175779.8900000006,"y":2536722.25}},{"attributes":{"ID":577810,"DIS_CODE":0,"TOWNNAME":"歸仁區","LI":"六甲里","LIN":"16鄰","STREET":"六甲路","SECT":" ","MAREA":" ","LANE":" ","ALLEY":" ","HOUSE_NO":"２７５號","E_COORD97":175839.57000000001,"N_COORD97":2539209.25,"ADDRESS":"六甲路２７５號","OBJECTID":577783},"geometry":{"x":175839.5700000003,"y":2539209.2500000019}},{"attributes":{"ID":577811,"DIS_CODE":0,"TOWNNAME":"歸仁區","LI":"文化里","LIN":"16鄰","STREET":"大德路","SECT":" ","MAREA":" ","LANE":" ","ALLEY":" ","HOUSE_NO":"２０１號","E_COORD97":177246.47,"N_COORD97":2541512.3300000001,"ADDRESS":"大德路２０１號","OBJECTID":577784},"geometry":{"x":177246.46999999974,"y":2541512.3300000001}},{"attributes":{"ID":577812,"DIS_CODE":0,"TOWNNAME":"歸仁區","LI":"後市里","LIN":"16鄰","STREET":"中山路","SECT":"二段","MAREA":" ","LANE":" ","ALLEY":" ","HOUSE_NO":"９９號","E_COORD97":177393.54000000001,"N_COORD97":2540790.5499999998,"ADDRESS":"中山路二段９９號","OBJECTID":577785},"geometry":{"x":177393.54000000004,"y":2540790.5500000026}},{"attributes":{"ID":577813,"DIS_CODE":0,"TOWNNAME":"歸仁區","LI":"六甲里","LIN":"16鄰","STREET":"六甲路","SECT":" ","MAREA":" ","LANE":" ","ALLEY":" ","HOUSE_NO":"２９３號","E_COORD97":175794.17000000001,"N_COORD97":2539156.25,"ADDRESS":"六甲路２９３號","OBJECTID":577786},"geometry":{"x":175794.16999999993,"y":2539156.25}},{"attributes":{"ID":577814,"DIS_CODE":0,"TOWNNAME":"歸仁區","LI":"六甲里","LIN":"16鄰","STREET":"六甲路","SECT":" ","MAREA":" ","LANE":" ","ALLEY":" ","HOUSE_NO":"３１１號","E_COORD97":175761.67000000001,"N_COORD97":2539216.25,"ADDRESS":"六甲路３１１號","OBJECTID":577787},"geometry":{"x":175761.66999999993,"y":2539216.2500000019}},{"attributes":{"ID":577815,"DIS_CODE":0,"TOWNNAME":"玉井區","LI":"中正里","LIN":"16鄰","STREET":"玉安街","SECT":" ","MAREA":" ","LANE":" ","ALLEY":" ","HOUSE_NO":"１８６號","E_COORD97":195161.26000000001,"N_COORD97":2558633.3199999998,"ADDRESS":"玉安街１８６號","OBJECTID":577788},"geometry":{"x":195161.25999999978,"y":2558633.3200000003}},{"attributes":{"ID":577816,"DIS_CODE":0,"TOWNNAME":"玉井區","LI":"中正里","LIN":"16鄰","STREET":"玉安街","SECT":" ","MAREA":" ","LANE":" ","ALLEY":" ","HOUSE_NO":"１９０號","E_COORD97":195167.26000000001,"N_COORD97":2558640.3199999998,"ADDRESS":"玉安街１９０號","OBJECTID":577789},"geometry":{"x":195167.26000000071,"y":2558640.3200000003}},{"attributes":{"ID":577817,"DIS_CODE":0,"TOWNNAME":"玉井區","LI":"中正里","LIN":"16鄰","STREET":"玉安街","SECT":" ","MAREA":" ","LANE":" ","ALLEY":" ","HOUSE_NO":"１５６號","E_COORD97":195131.75,"N_COORD97":2558580.3100000001,"ADDRESS":"玉安街１５６號","OBJECTID":577790},"geometry":{"x":195131.75000000093,"y":2558580.3100000005}},{"attributes":{"ID":577818,"DIS_CODE":0,"TOWNNAME":"玉井區","LI":"中正里","LIN":"16鄰","STREET":"玉安街","SECT":" ","MAREA":" ","LANE":" ","ALLEY":" ","HOUSE_NO":"１６６號","E_COORD97":195138.76000000001,"N_COORD97":2558596.3100000001,"ADDRESS":"玉安街１６６號","OBJECTID":577791},"geometry":{"x":195138.75999999978,"y":2558596.3100000005}},{"attributes":{"ID":577819,"DIS_CODE":0,"TOWNNAME":"玉井區","LI":"中正里","LIN":"16鄰","STREET":"玉安街","SECT":" ","MAREA":" ","LANE":" ","ALLEY":" ","HOUSE_NO":"１６０號","E_COORD97":195135.66,"N_COORD97":2558588.3100000001,"ADDRESS":"玉安街１６０號","OBJECTID":577792},"geometry":{"x":195135.66000000108,"y":2558588.3100000024}},{"attributes":{"ID":577820,"DIS_CODE":0,"TOWNNAME":"玉井區","LI":"中正里","LIN":"16鄰","STREET":"玉安街","SECT":" ","MAREA":" ","LANE":" ","ALLEY":" ","HOUSE_NO":"１５２號","E_COORD97":195129.57000000001,"N_COORD97":2558577.3100000001,"ADDRESS":"玉安街１５２號","OBJECTID":577793},"geometry":{"x":195129.57000000123,"y":2558577.3100000005}},{"attributes":{"ID":577821,"DIS_CODE":0,"TOWNNAME":"玉井區","LI":"中正里","LIN":"16鄰","STREET":"玉安街","SECT":" ","MAREA":" ","LANE":" ","ALLEY":" ","HOUSE_NO":"１９２號","E_COORD97":195170.57000000001,"N_COORD97":2558643.3199999998,"ADDRESS":"玉安街１９２號","OBJECTID":577794},"geometry":{"x":195170.57000000123,"y":2558643.3200000022}},{"attributes":{"ID":577822,"DIS_CODE":0,"TOWNNAME":"玉井區","LI":"中正里","LIN":"16鄰","STREET":"玉安街","SECT":" ","MAREA":" ","LANE":" ","ALLEY":" ","HOUSE_NO":"１６８號","E_COORD97":195140.76000000001,"N_COORD97":2558599.3100000001,"ADDRESS":"玉安街１６８號","OBJECTID":577795},"geometry":{"x":195140.75999999978,"y":2558599.3100000024}},{"attributes":{"ID":577823,"DIS_CODE":0,"TOWNNAME":"玉井區","LI":"玉井里","LIN":"16鄰","STREET":"中華路","SECT":" ","MAREA":" ","LANE":" ","ALLEY":" ","HOUSE_NO":"３６號","E_COORD97":194915.20999999999,"N_COORD97":2558118.25,"ADDRESS":"中華路３６號","OBJECTID":577796},"geometry":{"x":194915.21000000089,"y":2558118.25}},{"attributes":{"ID":577824,"DIS_CODE":0,"TOWNNAME":"玉井區","LI":"玉井里","LIN":"16鄰","STREET":"中華路","SECT":" ","MAREA":" ","LANE":" ","ALLEY":" ","HOUSE_NO":"４０號","E_COORD97":194917.89999999999,"N_COORD97":2558101.2400000002,"ADDRESS":"中華路４０號","OBJECTID":577797},"geometry":{"x":194917.90000000037,"y":2558101.2400000021}},{"attributes":{"ID":577825,"DIS_CODE":0,"TOWNNAME":"玉井區","LI":"玉井里","LIN":"16鄰","STREET":"中華路","SECT":" ","MAREA":" ","LANE":" ","ALLEY":" ","HOUSE_NO":"４２號","E_COORD97":194918.70999999999,"N_COORD97":2558097.2400000002,"ADDRESS":"中華路４２號","OBJECTID":577798},"geometry":{"x":194918.70999999996,"y":2558097.2400000021}},{"attributes":{"ID":577826,"DIS_CODE":0,"TOWNNAME":"玉井區","LI":"中正里","LIN":"16鄰","STREET":"玉安街","SECT":" ","MAREA":" ","LANE":" ","ALLEY":" ","HOUSE_NO":"２０２號","E_COORD97":195183.45999999999,"N_COORD97":2558656.3199999998,"ADDRESS":"玉安街２０２號","OBJECTID":577799},"geometry":{"x":195183.45999999996,"y":2558656.3200000022}},{"attributes":{"ID":577827,"DIS_CODE":0,"TOWNNAME":"玉井區","LI":"中正里","LIN":"16鄰","STREET":"前園街","SECT":" ","MAREA":" ","LANE":" ","ALLEY":" ","HOUSE_NO":"４１號","E_COORD97":195204.64999999999,"N_COORD97":2558609.2400000002,"ADDRESS":"前園街４１號","OBJECTID":577800},"geometry":{"x":195204.65000000037,"y":2558609.2400000021}}]}