{"displayFieldName":"TOWNNAME","fieldAliases":{"ID":"ID","DIS_CODE":"DIS_CODE","TOWNNAME":"TOWNNAME","LI":"LI","LIN":"LIN","STREET":"STREET","SECT":"SECT","MAREA":"MAREA","LANE":"LANE","ALLEY":"ALLEY","HOUSE_NO":"HOUSE_NO","E_COORD97":"E_COORD97","N_COORD97":"N_COORD97","ADDRESS":"ADDRESS","OBJECTID":"OBJECTID"},"geometryType":"esriGeometryPoint","spatialReference":{"wkid":102443,"latestWkid":3826},"fields":[{"name":"ID","type":"esriFieldTypeDouble","alias":"ID"},{"name":"DIS_CODE","type":"esriFieldTypeInteger","alias":"DIS_CODE"},{"name":"TOWNNAME","type":"esriFieldTypeString","alias":"TOWNNAME","length":8},{"name":"LI","type":"esriFieldTypeString","alias":"LI","length":8},{"name":"LIN","type":"esriFieldTypeString","alias":"LIN","length":12},{"name":"STREET","type":"esriFieldTypeString","alias":"STREET","length":20},{"name":"SECT","type":"esriFieldTypeString","alias":"SECT","length":8},{"name":"MAREA","type":"esriFieldTypeString","alias":"MAREA","length":12},{"name":"LANE","type":"esriFieldTypeString","alias":"LANE","length":10},{"name":"ALLEY","type":"esriFieldTypeString","alias":"ALLEY","length":10},{"name":"HOUSE_NO","type":"esriFieldTypeString","alias":"HOUSE_NO","length":20},{"name":"E_COORD97","type":"esriFieldTypeDouble","alias":"E_COORD97"},{"name":"N_COORD97","type":"esriFieldTypeDouble","alias":"N_COORD97"},{"name":"ADDRESS","type":"esriFieldTypeString","alias":"ADDRESS","length":50},{"name":"OBJECTID","type":"esriFieldTypeOID","alias":"OBJECTID"}],"features":[{"attributes":{"ID":340810,"DIS_CODE":0,"TOWNNAME":"北區","LI":"東興里","LIN":"1鄰","STREET":"小東路","SECT":" ","MAREA":" ","LANE":"１４７巷","ALLEY":" ","HOUSE_NO":"３６號","E_COORD97":170746.76999999999,"N_COORD97":2544592.1499999999,"ADDRESS":"小東路１４７巷３６號","OBJECTID":340801},"geometry":{"x":170746.76999999955,"y":2544592.1500000004}},{"attributes":{"ID":340811,"DIS_CODE":0,"TOWNNAME":"北區","LI":"東興里","LIN":"1鄰","STREET":"小東路","SECT":" ","MAREA":" ","LANE":"１４７巷","ALLEY":" ","HOUSE_NO":"３８號","E_COORD97":170758.70999999999,"N_COORD97":2544593.4199999999,"ADDRESS":"小東路１４７巷３８號","OBJECTID":340802},"geometry":{"x":170758.71000000089,"y":2544593.4199999999}},{"attributes":{"ID":340812,"DIS_CODE":0,"TOWNNAME":"北區","LI":"東興里","LIN":"1鄰","STREET":"小東路","SECT":" ","MAREA":" ","LANE":"１４７巷","ALLEY":" ","HOUSE_NO":"４０號","E_COORD97":170747.78,"N_COORD97":2544596.6000000001,"ADDRESS":"小東路１４７巷４０號","OBJECTID":340803},"geometry":{"x":170747.78000000212,"y":2544596.6000000015}},{"attributes":{"ID":340813,"DIS_CODE":0,"TOWNNAME":"北區","LI":"東興里","LIN":"1鄰","STREET":"小東路","SECT":" ","MAREA":" ","LANE":"１４７巷","ALLEY":" ","HOUSE_NO":"４２號","E_COORD97":170748.67000000001,"N_COORD97":2544599.77,"ADDRESS":"小東路１４７巷４２號","OBJECTID":340804},"geometry":{"x":170748.67000000086,"y":2544599.7700000014}},{"attributes":{"ID":340814,"DIS_CODE":0,"TOWNNAME":"北區","LI":"東興里","LIN":"1鄰","STREET":"小東路","SECT":" ","MAREA":" ","LANE":"１４７巷","ALLEY":" ","HOUSE_NO":"４６號","E_COORD97":170749.42999999999,"N_COORD97":2544602.9500000002,"ADDRESS":"小東路１４７巷４６號","OBJECTID":340805},"geometry":{"x":170749.43000000156,"y":2544602.9499999993}},{"attributes":{"ID":340815,"DIS_CODE":0,"TOWNNAME":"北區","LI":"東興里","LIN":"1鄰","STREET":"小東路","SECT":" ","MAREA":" ","LANE":"１４７巷","ALLEY":" ","HOUSE_NO":"４８號","E_COORD97":170750.20000000001,"N_COORD97":2544606.1200000001,"ADDRESS":"小東路１４７巷４８號","OBJECTID":340806},"geometry":{"x":170750.20000000112,"y":2544606.120000001}},{"attributes":{"ID":340816,"DIS_CODE":0,"TOWNNAME":"北區","LI":"賢北里","LIN":"1鄰","STREET":"中華北路","SECT":"一段","MAREA":" ","LANE":"５３巷","ALLEY":" ","HOUSE_NO":"３５號","E_COORD97":166442.23999999999,"N_COORD97":2545338.46,"ADDRESS":"中華北路一段５３巷３５號","OBJECTID":340807},"geometry":{"x":166442.24000000209,"y":2545338.4600000028}},{"attributes":{"ID":340817,"DIS_CODE":0,"TOWNNAME":"楠西區","LI":"楠西里","LIN":"1鄰","STREET":"民族路","SECT":" ","MAREA":" ","LANE":"９０巷","ALLEY":" ","HOUSE_NO":"１５號","E_COORD97":196988.79000000001,"N_COORD97":2564112.29,"ADDRESS":"民族路９０巷１５號","OBJECTID":340808},"geometry":{"x":196988.78999999911,"y":2564112.2899999991}},{"attributes":{"ID":340818,"DIS_CODE":0,"TOWNNAME":"楠西區","LI":"楠西里","LIN":"1鄰","STREET":"民族路","SECT":" ","MAREA":" ","LANE":"９０巷","ALLEY":" ","HOUSE_NO":"９號","E_COORD97":196996.54000000001,"N_COORD97":2564081.29,"ADDRESS":"民族路９０巷９號","OBJECTID":340809},"geometry":{"x":196996.54000000004,"y":2564081.2899999991}},{"attributes":{"ID":340819,"DIS_CODE":0,"TOWNNAME":"楠西區","LI":"東勢里","LIN":"5鄰","STREET":"東勢路","SECT":" ","MAREA":" ","LANE":"１２５巷","ALLEY":" ","HOUSE_NO":"４７號","E_COORD97":197332.5,"N_COORD97":2563957.6899999999,"ADDRESS":"東勢路１２５巷４７號","OBJECTID":340810},"geometry":{"x":197332.5,"y":2563957.6899999976}},{"attributes":{"ID":340820,"DIS_CODE":0,"TOWNNAME":"東山區","LI":"東中里","LIN":"1鄰","STREET":"新東路","SECT":"一段","MAREA":" ","LANE":"７７巷","ALLEY":" ","HOUSE_NO":"１０號","E_COORD97":188691.76999999999,"N_COORD97":2580026.29,"ADDRESS":"新東路一段７７巷１０號","OBJECTID":340811},"geometry":{"x":188691.76999999955,"y":2580026.2899999991}},{"attributes":{"ID":340821,"DIS_CODE":0,"TOWNNAME":"東山區","LI":"東中里","LIN":"1鄰","STREET":"新東路","SECT":"一段","MAREA":" ","LANE":"７７巷","ALLEY":" ","HOUSE_NO":"１２號","E_COORD97":188695.79999999999,"N_COORD97":2580024.8500000001,"ADDRESS":"新東路一段７７巷１２號","OBJECTID":340812},"geometry":{"x":188695.80000000168,"y":2580024.8500000015}},{"attributes":{"ID":340822,"DIS_CODE":0,"TOWNNAME":"東山區","LI":"東中里","LIN":"1鄰","STREET":"新東路","SECT":"一段","MAREA":" ","LANE":"７７巷","ALLEY":" ","HOUSE_NO":"１６號","E_COORD97":188699.31,"N_COORD97":2580023.7000000002,"ADDRESS":"新東路一段７７巷１６號","OBJECTID":340813},"geometry":{"x":188699.31000000052,"y":2580023.6999999993}},{"attributes":{"ID":340823,"DIS_CODE":0,"TOWNNAME":"東山區","LI":"東中里","LIN":"1鄰","STREET":"新東路","SECT":"一段","MAREA":" ","LANE":"７７巷","ALLEY":" ","HOUSE_NO":"１８號","E_COORD97":188703.01999999999,"N_COORD97":2580022.0699999998,"ADDRESS":"新東路一段７７巷１８號","OBJECTID":340814},"geometry":{"x":188703.02000000048,"y":2580022.0700000003}},{"attributes":{"ID":340824,"DIS_CODE":0,"TOWNNAME":"東山區","LI":"東中里","LIN":"1鄰","STREET":"新東路","SECT":"一段","MAREA":" ","LANE":"７７巷","ALLEY":" ","HOUSE_NO":"２０號","E_COORD97":188706.76999999999,"N_COORD97":2580021.02,"ADDRESS":"新東路一段７７巷２０號","OBJECTID":340815},"geometry":{"x":188706.76999999955,"y":2580021.0199999996}},{"attributes":{"ID":340825,"DIS_CODE":0,"TOWNNAME":"東山區","LI":"東中里","LIN":"1鄰","STREET":"新東路","SECT":"一段","MAREA":" ","LANE":"７７巷","ALLEY":" ","HOUSE_NO":"２２號","E_COORD97":188710.42000000001,"N_COORD97":2580019.5099999998,"ADDRESS":"新東路一段７７巷２２號","OBJECTID":340816},"geometry":{"x":188710.42000000179,"y":2580019.5100000035}},{"attributes":{"ID":340826,"DIS_CODE":0,"TOWNNAME":"東山區","LI":"東中里","LIN":"1鄰","STREET":"新東路","SECT":"一段","MAREA":" ","LANE":"７７巷","ALLEY":" ","HOUSE_NO":"２６號","E_COORD97":188714.26000000001,"N_COORD97":2580018.3300000001,"ADDRESS":"新東路一段７７巷２６號","OBJECTID":340817},"geometry":{"x":188714.25999999978,"y":2580018.3300000019}},{"attributes":{"ID":340827,"DIS_CODE":0,"TOWNNAME":"東山區","LI":"東中里","LIN":"1鄰","STREET":"新東路","SECT":"一段","MAREA":" ","LANE":"７７巷","ALLEY":" ","HOUSE_NO":"２８號","E_COORD97":188717.82000000001,"N_COORD97":2580017.04,"ADDRESS":"新東路一段７７巷２８號","OBJECTID":340818},"geometry":{"x":188717.8200000003,"y":2580017.0399999991}},{"attributes":{"ID":340828,"DIS_CODE":0,"TOWNNAME":"東山區","LI":"東中里","LIN":"1鄰","STREET":"新東路","SECT":"一段","MAREA":" ","LANE":"７７巷","ALLEY":" ","HOUSE_NO":"２號","E_COORD97":188680.63,"N_COORD97":2580030.2400000002,"ADDRESS":"新東路一段７７巷２號","OBJECTID":340819},"geometry":{"x":188680.63000000082,"y":2580030.2400000021}},{"attributes":{"ID":340829,"DIS_CODE":0,"TOWNNAME":"北區","LI":"文成里","LIN":"5鄰","STREET":"文賢路","SECT":" ","MAREA":" ","LANE":"６１８巷","ALLEY":" ","HOUSE_NO":"２６號","E_COORD97":167444.23000000001,"N_COORD97":2545515.71,"ADDRESS":"文賢路６１８巷２６號","OBJECTID":340820},"geometry":{"x":167444.23000000231,"y":2545515.7100000046}},{"attributes":{"ID":340830,"DIS_CODE":0,"TOWNNAME":"北區","LI":"文成里","LIN":"5鄰","STREET":"文賢路","SECT":" ","MAREA":" ","LANE":"６１８巷","ALLEY":" ","HOUSE_NO":"２８號","E_COORD97":167452.04999999999,"N_COORD97":2545516.29,"ADDRESS":"文賢路６１８巷２８號","OBJECTID":340821},"geometry":{"x":167452.05000000075,"y":2545516.2899999972}},{"attributes":{"ID":340831,"DIS_CODE":0,"TOWNNAME":"北區","LI":"文成里","LIN":"5鄰","STREET":"文賢路","SECT":" ","MAREA":" ","LANE":"６１８巷","ALLEY":" ","HOUSE_NO":"３０號","E_COORD97":167456.25,"N_COORD97":2545515.3300000001,"ADDRESS":"文賢路６１８巷３０號","OBJECTID":340822},"geometry":{"x":167456.25000000093,"y":2545515.3300000019}},{"attributes":{"ID":340832,"DIS_CODE":0,"TOWNNAME":"北區","LI":"文成里","LIN":"5鄰","STREET":"文賢路","SECT":" ","MAREA":" ","LANE":"６１８巷","ALLEY":" ","HOUSE_NO":"３２號","E_COORD97":167461.59,"N_COORD97":2545515.52,"ADDRESS":"文賢路６１８巷３２號","OBJECTID":340823},"geometry":{"x":167461.59000000171,"y":2545515.5200000033}},{"attributes":{"ID":340833,"DIS_CODE":0,"TOWNNAME":"北區","LI":"文成里","LIN":"5鄰","STREET":"文賢路","SECT":" ","MAREA":" ","LANE":"６１８巷","ALLEY":" ","HOUSE_NO":"３６號","E_COORD97":167468.98000000001,"N_COORD97":2545514.5699999998,"ADDRESS":"文賢路６１８巷３６號","OBJECTID":340824},"geometry":{"x":167468.98000000045,"y":2545514.5700000003}},{"attributes":{"ID":340834,"DIS_CODE":0,"TOWNNAME":"北區","LI":"文成里","LIN":"5鄰","STREET":"文賢路","SECT":" ","MAREA":" ","LANE":"６１８巷","ALLEY":" ","HOUSE_NO":"５０號","E_COORD97":167476.47,"N_COORD97":2545514.3799999999,"ADDRESS":"文賢路６１８巷５０號","OBJECTID":340825},"geometry":{"x":167476.47000000067,"y":2545514.379999999}},{"attributes":{"ID":340835,"DIS_CODE":0,"TOWNNAME":"北區","LI":"文成里","LIN":"5鄰","STREET":"文賢路","SECT":" ","MAREA":" ","LANE":"６１８巷","ALLEY":" ","HOUSE_NO":"５２號","E_COORD97":167480.67999999999,"N_COORD97":2545514.7999999998,"ADDRESS":"文賢路６１８巷５２號","OBJECTID":340826},"geometry":{"x":167480.6799999997,"y":2545514.8000000045}},{"attributes":{"ID":340836,"DIS_CODE":0,"TOWNNAME":"北區","LI":"文成里","LIN":"5鄰","STREET":"文賢路","SECT":" ","MAREA":" ","LANE":"６１８巷","ALLEY":" ","HOUSE_NO":"５６號","E_COORD97":167486.39999999999,"N_COORD97":2545514.4199999999,"ADDRESS":"文賢路６１８巷５６號","OBJECTID":340827},"geometry":{"x":167486.40000000037,"y":2545514.4200000018}},{"attributes":{"ID":340837,"DIS_CODE":0,"TOWNNAME":"北區","LI":"文成里","LIN":"5鄰","STREET":"文賢路","SECT":" ","MAREA":" ","LANE":"６１８巷","ALLEY":" ","HOUSE_NO":"５８號","E_COORD97":167490.98000000001,"N_COORD97":2545515.75,"ADDRESS":"文賢路６１８巷５８號","OBJECTID":340828},"geometry":{"x":167490.98000000045,"y":2545515.7500000019}},{"attributes":{"ID":340838,"DIS_CODE":0,"TOWNNAME":"北區","LI":"文成里","LIN":"5鄰","STREET":"文賢路","SECT":" ","MAREA":" ","LANE":"６１８巷","ALLEY":" ","HOUSE_NO":"６０號","E_COORD97":167495.94,"N_COORD97":2545515.5600000001,"ADDRESS":"文賢路６１８巷６０號","OBJECTID":340829},"geometry":{"x":167495.94000000134,"y":2545515.5600000005}},{"attributes":{"ID":340839,"DIS_CODE":0,"TOWNNAME":"北區","LI":"文成里","LIN":"5鄰","STREET":"文賢路","SECT":" ","MAREA":" ","LANE":"６１８巷","ALLEY":" ","HOUSE_NO":"６２號","E_COORD97":167502.04000000001,"N_COORD97":2545514.04,"ADDRESS":"文賢路６１８巷６２號","OBJECTID":340830},"geometry":{"x":167502.04000000004,"y":2545514.0399999991}},{"attributes":{"ID":340840,"DIS_CODE":0,"TOWNNAME":"北區","LI":"文成里","LIN":"5鄰","STREET":"文賢路","SECT":" ","MAREA":" ","LANE":"６１８巷","ALLEY":" ","HOUSE_NO":"６６號","E_COORD97":167506.04999999999,"N_COORD97":2545514.6099999999,"ADDRESS":"文賢路６１８巷６６號","OBJECTID":340831},"geometry":{"x":167506.05000000075,"y":2545514.6100000031}},{"attributes":{"ID":340841,"DIS_CODE":0,"TOWNNAME":"北區","LI":"文成里","LIN":"5鄰","STREET":"文賢路","SECT":" ","MAREA":" ","LANE":"６１８巷","ALLEY":" ","HOUSE_NO":"６８號","E_COORD97":167510.23999999999,"N_COORD97":2545514.04,"ADDRESS":"文賢路６１８巷６８號","OBJECTID":340832},"geometry":{"x":167510.24000000209,"y":2545514.0399999991}},{"attributes":{"ID":340842,"DIS_CODE":0,"TOWNNAME":"北區","LI":"文成里","LIN":"5鄰","STREET":"文賢路","SECT":" ","MAREA":" ","LANE":"６１８巷","ALLEY":" ","HOUSE_NO":"６號","E_COORD97":167400.17999999999,"N_COORD97":2545515.9100000001,"ADDRESS":"文賢路６１８巷６號","OBJECTID":340833},"geometry":{"x":167400.18000000063,"y":2545515.9100000001}},{"attributes":{"ID":340843,"DIS_CODE":0,"TOWNNAME":"東山區","LI":"東中里","LIN":"1鄰","STREET":"新東路","SECT":"一段","MAREA":" ","LANE":"７７巷","ALLEY":" ","HOUSE_NO":"３０號","E_COORD97":188721.69,"N_COORD97":2580015.4900000002,"ADDRESS":"新東路一段７７巷３０號","OBJECTID":340834},"geometry":{"x":188721.69000000134,"y":2580015.4900000002}},{"attributes":{"ID":340844,"DIS_CODE":0,"TOWNNAME":"東山區","LI":"東中里","LIN":"1鄰","STREET":"新東路","SECT":"一段","MAREA":" ","LANE":"７７巷","ALLEY":" ","HOUSE_NO":"３２號","E_COORD97":188725.87,"N_COORD97":2580013.9700000002,"ADDRESS":"新東路一段７７巷３２號","OBJECTID":340835},"geometry":{"x":188725.87000000011,"y":2580013.9700000044}},{"attributes":{"ID":340845,"DIS_CODE":0,"TOWNNAME":"安南區","LI":"城北里","LIN":"8鄰","STREET":"安明路","SECT":"四段","MAREA":" ","LANE":" ","ALLEY":" ","HOUSE_NO":"２５６號","E_COORD97":161322.45000000001,"N_COORD97":2551004.04,"ADDRESS":"安明路四段２５６號","OBJECTID":340836},"geometry":{"x":161322.45000000019,"y":2551004.0400000028}},{"attributes":{"ID":340846,"DIS_CODE":0,"TOWNNAME":"安南區","LI":"城北里","LIN":"8鄰","STREET":"安清路","SECT":"一段","MAREA":" ","LANE":" ","ALLEY":" ","HOUSE_NO":"３０之２２號","E_COORD97":161020.5,"N_COORD97":2550893.7799999998,"ADDRESS":"安清路一段３０之２２號","OBJECTID":340837},"geometry":{"x":161020.49999999907,"y":2550893.7799999975}},{"attributes":{"ID":340847,"DIS_CODE":0,"TOWNNAME":"安南區","LI":"城北里","LIN":"8鄰","STREET":"安明路","SECT":"四段","MAREA":" ","LANE":" ","ALLEY":" ","HOUSE_NO":"３０３之６號","E_COORD97":161194.32999999999,"N_COORD97":2551119.1600000001,"ADDRESS":"安明路四段３０３之６號","OBJECTID":340838},"geometry":{"x":161194.33000000007,"y":2551119.1599999983}},{"attributes":{"ID":340848,"DIS_CODE":0,"TOWNNAME":"安南區","LI":"城北里","LIN":"8鄰","STREET":"安明路","SECT":"四段","MAREA":" ","LANE":" ","ALLEY":" ","HOUSE_NO":"３０３之５號","E_COORD97":161193.22,"N_COORD97":2551115.6600000001,"ADDRESS":"安明路四段３０３之５號","OBJECTID":340839},"geometry":{"x":161193.21999999974,"y":2551115.6600000001}},{"attributes":{"ID":340849,"DIS_CODE":0,"TOWNNAME":"安南區","LI":"城北里","LIN":"8鄰","STREET":"安明路","SECT":"四段","MAREA":" ","LANE":" ","ALLEY":" ","HOUSE_NO":"９２號","E_COORD97":161641.53,"N_COORD97":2550735.9300000002,"ADDRESS":"安明路四段９２號","OBJECTID":340840},"geometry":{"x":161641.53000000119,"y":2550735.9299999997}},{"attributes":{"ID":340850,"DIS_CODE":0,"TOWNNAME":"安南區","LI":"砂崙里","LIN":"8鄰","STREET":"青砂街","SECT":"一段","MAREA":" ","LANE":" ","ALLEY":" ","HOUSE_NO":"６８１號","E_COORD97":159946.29000000001,"N_COORD97":2552807.3300000001,"ADDRESS":"青砂街一段６８１號","OBJECTID":340841},"geometry":{"x":159946.29000000097,"y":2552807.3300000019}},{"attributes":{"ID":340851,"DIS_CODE":0,"TOWNNAME":"安南區","LI":"城中里","LIN":"8鄰","STREET":"青砂街","SECT":"一段","MAREA":" ","LANE":" ","ALLEY":" ","HOUSE_NO":"１１０號","E_COORD97":160597.26999999999,"N_COORD97":2551693.2200000002,"ADDRESS":"青砂街一段１１０號","OBJECTID":340842},"geometry":{"x":160597.26999999955,"y":2551693.2200000025}},{"attributes":{"ID":340852,"DIS_CODE":0,"TOWNNAME":"安南區","LI":"城中里","LIN":"8鄰","STREET":"青砂街","SECT":"一段","MAREA":" ","LANE":" ","ALLEY":" ","HOUSE_NO":"１８０號","E_COORD97":160534.79000000001,"N_COORD97":2551798.21,"ADDRESS":"青砂街一段１８０號","OBJECTID":340843},"geometry":{"x":160534.79000000004,"y":2551798.2100000028}},{"attributes":{"ID":340853,"DIS_CODE":0,"TOWNNAME":"安南區","LI":"城中里","LIN":"8鄰","STREET":"城安西街","SECT":" ","MAREA":" ","LANE":" ","ALLEY":" ","HOUSE_NO":"１２５號","E_COORD97":160603.19,"N_COORD97":2551734.8700000001,"ADDRESS":"城安西街１２５號","OBJECTID":340844},"geometry":{"x":160603.19000000134,"y":2551734.870000001}},{"attributes":{"ID":340854,"DIS_CODE":0,"TOWNNAME":"東區","LI":"裕聖里","LIN":"8鄰","STREET":"裕敬二街","SECT":" ","MAREA":" ","LANE":" ","ALLEY":" ","HOUSE_NO":"１０７號","E_COORD97":172691.31,"N_COORD97":2541979.1699999999,"ADDRESS":"裕敬二街１０７號","OBJECTID":340845},"geometry":{"x":172691.31000000052,"y":2541979.1700000018}},{"attributes":{"ID":340855,"DIS_CODE":0,"TOWNNAME":"東區","LI":"裕聖里","LIN":"8鄰","STREET":"裕敬二街","SECT":" ","MAREA":" ","LANE":" ","ALLEY":" ","HOUSE_NO":"１０９號","E_COORD97":172698.82999999999,"N_COORD97":2541979.1699999999,"ADDRESS":"裕敬二街１０９號","OBJECTID":340846},"geometry":{"x":172698.83000000101,"y":2541979.1700000018}},{"attributes":{"ID":340856,"DIS_CODE":0,"TOWNNAME":"東區","LI":"裕聖里","LIN":"8鄰","STREET":"裕敬二街","SECT":" ","MAREA":" ","LANE":" ","ALLEY":" ","HOUSE_NO":"１１１號","E_COORD97":172705.78,"N_COORD97":2541979.6200000001,"ADDRESS":"裕敬二街１１１號","OBJECTID":340847},"geometry":{"x":172705.78000000119,"y":2541979.620000001}},{"attributes":{"ID":340857,"DIS_CODE":0,"TOWNNAME":"東區","LI":"裕聖里","LIN":"8鄰","STREET":"裕敬二街","SECT":" ","MAREA":" ","LANE":" ","ALLEY":" ","HOUSE_NO":"１１３號","E_COORD97":172713.53,"N_COORD97":2541979.3399999999,"ADDRESS":"裕敬二街１１３號","OBJECTID":340848},"geometry":{"x":172713.53000000026,"y":2541979.3399999999}},{"attributes":{"ID":340858,"DIS_CODE":0,"TOWNNAME":"東區","LI":"裕聖里","LIN":"8鄰","STREET":"裕敬二街","SECT":" ","MAREA":" ","LANE":" ","ALLEY":" ","HOUSE_NO":"１１５號","E_COORD97":172719.32000000001,"N_COORD97":2541979.1800000002,"ADDRESS":"裕敬二街１１５號","OBJECTID":340849},"geometry":{"x":172719.32000000123,"y":2541979.1800000016}},{"attributes":{"ID":340859,"DIS_CODE":0,"TOWNNAME":"東區","LI":"崇信里","LIN":"21鄰","STREET":"中華東路","SECT":"三段","MAREA":" ","LANE":"４４巷","ALLEY":" ","HOUSE_NO":"１１號","E_COORD97":170858.42999999999,"N_COORD97":2542333.2000000002,"ADDRESS":"中華東路三段４４巷１１號","OBJECTID":340850},"geometry":{"x":170858.43000000063,"y":2542333.1999999993}},{"attributes":{"ID":340860,"DIS_CODE":0,"TOWNNAME":"東區","LI":"崇信里","LIN":"21鄰","STREET":"中華東路","SECT":"三段","MAREA":" ","LANE":"４４巷","ALLEY":" ","HOUSE_NO":"１３號","E_COORD97":170856.56,"N_COORD97":2542337,"ADDRESS":"中華東路三段４４巷１３號","OBJECTID":340851},"geometry":{"x":170856.55999999959,"y":2542337.0000000019}},{"attributes":{"ID":340861,"DIS_CODE":0,"TOWNNAME":"東區","LI":"崇信里","LIN":"21鄰","STREET":"中華東路","SECT":"三段","MAREA":" ","LANE":"４４巷","ALLEY":" ","HOUSE_NO":"１５號","E_COORD97":170852.35999999999,"N_COORD97":2542344.04,"ADDRESS":"中華東路三段４４巷１５號","OBJECTID":340852},"geometry":{"x":170852.3600000022,"y":2542344.0399999991}},{"attributes":{"ID":340862,"DIS_CODE":0,"TOWNNAME":"東區","LI":"崇信里","LIN":"21鄰","STREET":"中華東路","SECT":"三段","MAREA":" ","LANE":"４４巷","ALLEY":" ","HOUSE_NO":"１７號","E_COORD97":170849.44,"N_COORD97":2542352.23,"ADDRESS":"中華東路三段４４巷１７號","OBJECTID":340853},"geometry":{"x":170849.44000000041,"y":2542352.2300000023}},{"attributes":{"ID":340863,"DIS_CODE":0,"TOWNNAME":"南區","LI":"竹溪里","LIN":"5鄰","STREET":"健康路","SECT":"一段","MAREA":" ","LANE":"１３３巷","ALLEY":" ","HOUSE_NO":"４０號","E_COORD97":168877.25,"N_COORD97":2542259.21,"ADDRESS":"健康路一段１３３巷４０號","OBJECTID":340854},"geometry":{"x":168877.25,"y":2542259.2100000009}},{"attributes":{"ID":340864,"DIS_CODE":0,"TOWNNAME":"南區","LI":"新昌里","LIN":"5鄰","STREET":"大德街","SECT":" ","MAREA":" ","LANE":"１４１巷","ALLEY":" ","HOUSE_NO":"１００號","E_COORD97":167529.82000000001,"N_COORD97":2542748.04,"ADDRESS":"大德街１４１巷１００號","OBJECTID":340855},"geometry":{"x":167529.8200000003,"y":2542748.0399999972}},{"attributes":{"ID":340865,"DIS_CODE":0,"TOWNNAME":"南區","LI":"新昌里","LIN":"5鄰","STREET":"大德街","SECT":" ","MAREA":" ","LANE":"１４１巷","ALLEY":" ","HOUSE_NO":"１００號之１","E_COORD97":167528.67999999999,"N_COORD97":2542742.04,"ADDRESS":"大德街１４１巷１００號之１","OBJECTID":340856},"geometry":{"x":167528.68000000156,"y":2542742.040000001}},{"attributes":{"ID":340866,"DIS_CODE":0,"TOWNNAME":"北區","LI":"三德里","LIN":"5鄰","STREET":"忠義路","SECT":"三段","MAREA":" ","LANE":"３９巷","ALLEY":" ","HOUSE_NO":"１０號","E_COORD97":168504.87,"N_COORD97":2544450.79,"ADDRESS":"忠義路三段３９巷１０號","OBJECTID":340857},"geometry":{"x":168504.87000000104,"y":2544450.7899999991}},{"attributes":{"ID":340867,"DIS_CODE":0,"TOWNNAME":"北區","LI":"三德里","LIN":"5鄰","STREET":"忠義路","SECT":"三段","MAREA":" ","LANE":"３９巷","ALLEY":" ","HOUSE_NO":"１２號","E_COORD97":168491.64000000001,"N_COORD97":2544454.3300000001,"ADDRESS":"忠義路三段３９巷１２號","OBJECTID":340858},"geometry":{"x":168491.64000000153,"y":2544454.3300000019}},{"attributes":{"ID":340868,"DIS_CODE":0,"TOWNNAME":"東區","LI":"崇信里","LIN":"21鄰","STREET":"中華東路","SECT":"三段","MAREA":" ","LANE":"４４巷","ALLEY":" ","HOUSE_NO":"１９號","E_COORD97":170844.95000000001,"N_COORD97":2542364.1299999999,"ADDRESS":"中華東路三段４４巷１９號","OBJECTID":340859},"geometry":{"x":170844.95000000112,"y":2542364.1299999971}},{"attributes":{"ID":340869,"DIS_CODE":0,"TOWNNAME":"東區","LI":"崇信里","LIN":"21鄰","STREET":"中華東路","SECT":"三段","MAREA":" ","LANE":"４４巷","ALLEY":" ","HOUSE_NO":"３３號","E_COORD97":170838.32999999999,"N_COORD97":2542378.6600000001,"ADDRESS":"中華東路三段４４巷３３號","OBJECTID":340860},"geometry":{"x":170838.33000000007,"y":2542378.6600000001}},{"attributes":{"ID":340870,"DIS_CODE":0,"TOWNNAME":"東區","LI":"崇信里","LIN":"21鄰","STREET":"中華東路","SECT":"三段","MAREA":" ","LANE":"４４巷","ALLEY":" ","HOUSE_NO":"３５號","E_COORD97":170836.73999999999,"N_COORD97":2542383.4199999999,"ADDRESS":"中華東路三段４４巷３５號","OBJECTID":340861},"geometry":{"x":170836.74000000115,"y":2542383.4199999999}},{"attributes":{"ID":340871,"DIS_CODE":0,"TOWNNAME":"東山區","LI":"東中里","LIN":"1鄰","STREET":"新東路","SECT":"一段","MAREA":" ","LANE":"７７巷","ALLEY":" ","HOUSE_NO":"３６號","E_COORD97":188729.82999999999,"N_COORD97":2580012.6200000001,"ADDRESS":"新東路一段７７巷３６號","OBJECTID":340862},"geometry":{"x":188729.83000000194,"y":2580012.620000001}},{"attributes":{"ID":340872,"DIS_CODE":0,"TOWNNAME":"東山區","LI":"東中里","LIN":"1鄰","STREET":"新東路","SECT":"一段","MAREA":" ","LANE":"７７巷","ALLEY":" ","HOUSE_NO":"３８號","E_COORD97":188743.66,"N_COORD97":2580002.1400000001,"ADDRESS":"新東路一段７７巷３８號","OBJECTID":340863},"geometry":{"x":188743.66000000108,"y":2580002.1400000006}},{"attributes":{"ID":340873,"DIS_CODE":0,"TOWNNAME":"東山區","LI":"東中里","LIN":"1鄰","STREET":"新東路","SECT":"一段","MAREA":" ","LANE":"７７巷","ALLEY":" ","HOUSE_NO":"４０號","E_COORD97":188784.07000000001,"N_COORD97":2579997.3500000001,"ADDRESS":"新東路一段７７巷４０號","OBJECTID":340864},"geometry":{"x":188784.0700000003,"y":2579997.3500000015}},{"attributes":{"ID":340874,"DIS_CODE":0,"TOWNNAME":"東山區","LI":"東中里","LIN":"1鄰","STREET":"新東路","SECT":"一段","MAREA":" ","LANE":"７７巷","ALLEY":" ","HOUSE_NO":"４２號","E_COORD97":188789.28,"N_COORD97":2579996.4399999999,"ADDRESS":"新東路一段７７巷４２號","OBJECTID":340865},"geometry":{"x":188789.28000000026,"y":2579996.4400000013}},{"attributes":{"ID":340875,"DIS_CODE":0,"TOWNNAME":"東山區","LI":"東中里","LIN":"1鄰","STREET":"新東路","SECT":"一段","MAREA":" ","LANE":"７７巷","ALLEY":" ","HOUSE_NO":"４６號","E_COORD97":188799.44,"N_COORD97":2579994.7599999998,"ADDRESS":"新東路一段７７巷４６號","OBJECTID":340866},"geometry":{"x":188799.44000000134,"y":2579994.7600000016}},{"attributes":{"ID":340876,"DIS_CODE":0,"TOWNNAME":"東山區","LI":"東中里","LIN":"1鄰","STREET":"新東路","SECT":"一段","MAREA":" ","LANE":"７７巷","ALLEY":" ","HOUSE_NO":"４８號","E_COORD97":188807.09,"N_COORD97":2579992.77,"ADDRESS":"新東路一段７７巷４８號","OBJECTID":340867},"geometry":{"x":188807.08999999985,"y":2579992.7699999996}},{"attributes":{"ID":340877,"DIS_CODE":0,"TOWNNAME":"東區","LI":"裕聖里","LIN":"8鄰","STREET":"裕敬二街","SECT":" ","MAREA":" ","LANE":" ","ALLEY":" ","HOUSE_NO":"１１７號","E_COORD97":172726.67999999999,"N_COORD97":2541979.1299999999,"ADDRESS":"裕敬二街１１７號","OBJECTID":340868},"geometry":{"x":172726.68000000063,"y":2541979.1300000008}},{"attributes":{"ID":340878,"DIS_CODE":0,"TOWNNAME":"東區","LI":"裕聖里","LIN":"8鄰","STREET":"裕敬二街","SECT":" ","MAREA":" ","LANE":" ","ALLEY":" ","HOUSE_NO":"１１９號","E_COORD97":172734.09,"N_COORD97":2541978.6899999999,"ADDRESS":"裕敬二街１１９號","OBJECTID":340869},"geometry":{"x":172734.09000000078,"y":2541978.6900000013}},{"attributes":{"ID":340879,"DIS_CODE":0,"TOWNNAME":"東區","LI":"裕聖里","LIN":"8鄰","STREET":"裕敬二街","SECT":" ","MAREA":" ","LANE":" ","ALLEY":" ","HOUSE_NO":"１２１號","E_COORD97":172737.98999999999,"N_COORD97":2541979,"ADDRESS":"裕敬二街１２１號","OBJECTID":340870},"geometry":{"x":172737.98999999929,"y":2541979}},{"attributes":{"ID":340880,"DIS_CODE":0,"TOWNNAME":"東區","LI":"裕聖里","LIN":"8鄰","STREET":"裕敬二街","SECT":" ","MAREA":" ","LANE":" ","ALLEY":" ","HOUSE_NO":"１２３號","E_COORD97":172741.44,"N_COORD97":2541978.8900000001,"ADDRESS":"裕敬二街１２３號","OBJECTID":340871},"geometry":{"x":172741.44000000041,"y":2541978.8900000025}},{"attributes":{"ID":340881,"DIS_CODE":0,"TOWNNAME":"東區","LI":"成大里","LIN":"8鄰","STREET":"民族路","SECT":"一段","MAREA":" ","LANE":" ","ALLEY":" ","HOUSE_NO":"８號","E_COORD97":169559.17999999999,"N_COORD97":2543872.8700000001,"ADDRESS":"民族路一段８號","OBJECTID":340872},"geometry":{"x":169559.1799999997,"y":2543872.870000001}},{"attributes":{"ID":340882,"DIS_CODE":0,"TOWNNAME":"東區","LI":"泉南里","LIN":"8鄰","STREET":"樹林街","SECT":"一段","MAREA":" ","LANE":" ","ALLEY":" ","HOUSE_NO":"５６號","E_COORD97":169550.73999999999,"N_COORD97":2542960.5099999998,"ADDRESS":"樹林街一段５６號","OBJECTID":340873},"geometry":{"x":169550.74000000022,"y":2542960.5100000016}},{"attributes":{"ID":340883,"DIS_CODE":0,"TOWNNAME":"將軍區","LI":"西和里","LIN":"25鄰","STREET":" ","SECT":" ","MAREA":"西湖","LANE":" ","ALLEY":" ","HOUSE_NO":"９４號","E_COORD97":162114.32999999999,"N_COORD97":2566243.6699999999,"ADDRESS":"西湖９４號","OBJECTID":340874},"geometry":{"x":162114.33000000101,"y":2566243.6700000037}},{"attributes":{"ID":340884,"DIS_CODE":0,"TOWNNAME":"東區","LI":"泉南里","LIN":"8鄰","STREET":"樹林街","SECT":"一段","MAREA":" ","LANE":" ","ALLEY":" ","HOUSE_NO":"５８號","E_COORD97":169543.89000000001,"N_COORD97":2542962.2200000002,"ADDRESS":"樹林街一段５８號","OBJECTID":340875},"geometry":{"x":169543.88999999966,"y":2542962.2200000044}},{"attributes":{"ID":340885,"DIS_CODE":0,"TOWNNAME":"東區","LI":"泉南里","LIN":"8鄰","STREET":"樹林街","SECT":"一段","MAREA":" ","LANE":" ","ALLEY":" ","HOUSE_NO":"６０號","E_COORD97":169538.53,"N_COORD97":2542964.1000000001,"ADDRESS":"樹林街一段６０號","OBJECTID":340876},"geometry":{"x":169538.53000000026,"y":2542964.0999999996}},{"attributes":{"ID":340886,"DIS_CODE":0,"TOWNNAME":"東區","LI":"泉南里","LIN":"8鄰","STREET":"樹林街","SECT":"一段","MAREA":" ","LANE":" ","ALLEY":" ","HOUSE_NO":"６２號","E_COORD97":169533.84,"N_COORD97":2542967.46,"ADDRESS":"樹林街一段６２號","OBJECTID":340877},"geometry":{"x":169533.84000000078,"y":2542967.459999999}},{"attributes":{"ID":340887,"DIS_CODE":0,"TOWNNAME":"東區","LI":"泉南里","LIN":"8鄰","STREET":"樹林街","SECT":"一段","MAREA":" ","LANE":" ","ALLEY":" ","HOUSE_NO":"６４號","E_COORD97":169529.60000000001,"N_COORD97":2542969.4900000002,"ADDRESS":"樹林街一段６４號","OBJECTID":340878},"geometry":{"x":169529.60000000056,"y":2542969.4900000002}},{"attributes":{"ID":340888,"DIS_CODE":0,"TOWNNAME":"東區","LI":"泉南里","LIN":"8鄰","STREET":"樹林街","SECT":"一段","MAREA":" ","LANE":" ","ALLEY":" ","HOUSE_NO":"６６號","E_COORD97":169526.04000000001,"N_COORD97":2542970,"ADDRESS":"樹林街一段６６號","OBJECTID":340879},"geometry":{"x":169526.04000000004,"y":2542970.0000000037}},{"attributes":{"ID":340889,"DIS_CODE":0,"TOWNNAME":"中西區","LI":"三合里","LIN":"8鄰","STREET":"成功路","SECT":" ","MAREA":" ","LANE":" ","ALLEY":" ","HOUSE_NO":"４５１號","E_COORD97":167637.07999999999,"N_COORD97":2544602.02,"ADDRESS":"成功路４５１號","OBJECTID":340880},"geometry":{"x":167637.08000000101,"y":2544602.0199999996}},{"attributes":{"ID":340890,"DIS_CODE":0,"TOWNNAME":"中西區","LI":"萬昌里","LIN":"8鄰","STREET":"城隍街","SECT":" ","MAREA":" ","LANE":" ","ALLEY":" ","HOUSE_NO":"６０號","E_COORD97":168850.47,"N_COORD97":2543406.2200000002,"ADDRESS":"城隍街６０號","OBJECTID":340881},"geometry":{"x":168850.46999999974,"y":2543406.2199999988}},{"attributes":{"ID":340891,"DIS_CODE":0,"TOWNNAME":"安南區","LI":"長安里","LIN":"8鄰","STREET":"長溪路","SECT":"三段","MAREA":" ","LANE":" ","ALLEY":" ","HOUSE_NO":"４６５號","E_COORD97":167547.39000000001,"N_COORD97":2552131.7799999998,"ADDRESS":"長溪路三段４６５號","OBJECTID":340882},"geometry":{"x":167547.38999999873,"y":2552131.7800000012}},{"attributes":{"ID":340892,"DIS_CODE":0,"TOWNNAME":"南區","LI":"郡南里","LIN":"5鄰","STREET":"永興一街","SECT":" ","MAREA":" ","LANE":" ","ALLEY":" ","HOUSE_NO":"２２號","E_COORD97":167246.04000000001,"N_COORD97":2540732.0600000001,"ADDRESS":"永興一街２２號","OBJECTID":340883},"geometry":{"x":167246.04000000004,"y":2540732.0600000005}},{"attributes":{"ID":340893,"DIS_CODE":0,"TOWNNAME":"東區","LI":"崇信里","LIN":"21鄰","STREET":"中華東路","SECT":"三段","MAREA":" ","LANE":"４４巷","ALLEY":" ","HOUSE_NO":"４１號","E_COORD97":170831.20000000001,"N_COORD97":2542398.5899999999,"ADDRESS":"中華東路三段４４巷４１號","OBJECTID":340884},"geometry":{"x":170831.20000000205,"y":2542398.5899999999}},{"attributes":{"ID":340894,"DIS_CODE":0,"TOWNNAME":"北區","LI":"振興里","LIN":"5鄰","STREET":"開元路","SECT":" ","MAREA":" ","LANE":"１４８巷","ALLEY":" ","HOUSE_NO":"２７號","E_COORD97":170033.44,"N_COORD97":2545129.6099999999,"ADDRESS":"開元路１４８巷２７號","OBJECTID":340885},"geometry":{"x":170033.44000000134,"y":2545129.6100000013}},{"attributes":{"ID":340895,"DIS_CODE":0,"TOWNNAME":"東山區","LI":"東中里","LIN":"1鄰","STREET":"新東路","SECT":"一段","MAREA":" ","LANE":"７７巷","ALLEY":" ","HOUSE_NO":"５０號","E_COORD97":188816.67000000001,"N_COORD97":2579991.1099999999,"ADDRESS":"新東路一段７７巷５０號","OBJECTID":340886},"geometry":{"x":188816.66999999993,"y":2579991.1099999994}},{"attributes":{"ID":340896,"DIS_CODE":0,"TOWNNAME":"東山區","LI":"東中里","LIN":"1鄰","STREET":"新東路","SECT":"一段","MAREA":" ","LANE":"７７巷","ALLEY":" ","HOUSE_NO":"５２號","E_COORD97":188823.94,"N_COORD97":2579989.8300000001,"ADDRESS":"新東路一段７７巷５２號","OBJECTID":340887},"geometry":{"x":188823.94000000041,"y":2579989.8300000001}},{"attributes":{"ID":340897,"DIS_CODE":0,"TOWNNAME":"東山區","LI":"東中里","LIN":"1鄰","STREET":"新東路","SECT":"一段","MAREA":" ","LANE":"７７巷","ALLEY":" ","HOUSE_NO":"５６號","E_COORD97":188847.88,"N_COORD97":2579985.23,"ADDRESS":"新東路一段７７巷５６號","OBJECTID":340888},"geometry":{"x":188847.88000000175,"y":2579985.2300000023}},{"attributes":{"ID":340898,"DIS_CODE":0,"TOWNNAME":"東山區","LI":"東中里","LIN":"1鄰","STREET":"新東路","SECT":"一段","MAREA":" ","LANE":"７７巷","ALLEY":" ","HOUSE_NO":"５８號","E_COORD97":188857.01999999999,"N_COORD97":2579984.0099999998,"ADDRESS":"新東路一段７７巷５８號","OBJECTID":340889},"geometry":{"x":188857.02000000048,"y":2579984.0099999998}},{"attributes":{"ID":340899,"DIS_CODE":0,"TOWNNAME":"東山區","LI":"東中里","LIN":"1鄰","STREET":"新東路","SECT":"一段","MAREA":" ","LANE":"７７巷","ALLEY":" ","HOUSE_NO":"６０號","E_COORD97":188865.32000000001,"N_COORD97":2579982.8300000001,"ADDRESS":"新東路一段７７巷６０號","OBJECTID":340890},"geometry":{"x":188865.3200000003,"y":2579982.8300000001}},{"attributes":{"ID":340900,"DIS_CODE":0,"TOWNNAME":"東山區","LI":"東中里","LIN":"1鄰","STREET":"新東路","SECT":"一段","MAREA":" ","LANE":"７７巷","ALLEY":" ","HOUSE_NO":"６２號","E_COORD97":188872.57000000001,"N_COORD97":2579981.8599999999,"ADDRESS":"新東路一段７７巷６２號","OBJECTID":340891},"geometry":{"x":188872.57000000123,"y":2579981.8599999994}},{"attributes":{"ID":340901,"DIS_CODE":0,"TOWNNAME":"東山區","LI":"東中里","LIN":"1鄰","STREET":"新東路","SECT":"一段","MAREA":" ","LANE":"７７巷","ALLEY":" ","HOUSE_NO":"６號","E_COORD97":188684.82000000001,"N_COORD97":2580028.8900000001,"ADDRESS":"新東路一段７７巷６號","OBJECTID":340892},"geometry":{"x":188684.82000000123,"y":2580028.8900000025}},{"attributes":{"ID":340902,"DIS_CODE":0,"TOWNNAME":"東山區","LI":"東中里","LIN":"1鄰","STREET":"新東路","SECT":"一段","MAREA":" ","LANE":"７７巷","ALLEY":" ","HOUSE_NO":"８號","E_COORD97":188688.66,"N_COORD97":2580027.5800000001,"ADDRESS":"新東路一段７７巷８號","OBJECTID":340893},"geometry":{"x":188688.66000000201,"y":2580027.5800000019}},{"attributes":{"ID":340903,"DIS_CODE":0,"TOWNNAME":"新營區","LI":"嘉芳里","LIN":"15鄰","STREET":"復興路","SECT":" ","MAREA":" ","LANE":"１０７４巷","ALLEY":" ","HOUSE_NO":"１８號","E_COORD97":176136.95000000001,"N_COORD97":2578918.23,"ADDRESS":"復興路１０７４巷１８號","OBJECTID":340894},"geometry":{"x":176136.95000000019,"y":2578918.2300000023}},{"attributes":{"ID":340904,"DIS_CODE":0,"TOWNNAME":"新化區","LI":"武安里","LIN":"1鄰","STREET":"公園路","SECT":" ","MAREA":" ","LANE":"１６巷","ALLEY":" ","HOUSE_NO":"１０號","E_COORD97":179084.42999999999,"N_COORD97":2547775.25,"ADDRESS":"公園路１６巷１０號","OBJECTID":340895},"geometry":{"x":179084.4299999997,"y":2547775.25}},{"attributes":{"ID":340905,"DIS_CODE":0,"TOWNNAME":"楠西區","LI":"楠西里","LIN":"26鄰","STREET":"博愛路","SECT":" ","MAREA":" ","LANE":"２０３巷","ALLEY":" ","HOUSE_NO":"２５號","E_COORD97":197056.22,"N_COORD97":2563577.2799999998,"ADDRESS":"博愛路２０３巷２５號","OBJECTID":340896},"geometry":{"x":197056.21999999974,"y":2563577.2800000031}},{"attributes":{"ID":340906,"DIS_CODE":0,"TOWNNAME":"新化區","LI":"東榮里","LIN":"1鄰","STREET":"中興路","SECT":" ","MAREA":" ","LANE":"１０４巷","ALLEY":" ","HOUSE_NO":"１３號","E_COORD97":181857.06,"N_COORD97":2547361.25,"ADDRESS":"中興路１０４巷１３號","OBJECTID":340897},"geometry":{"x":181857.06000000145,"y":2547361.25}},{"attributes":{"ID":340907,"DIS_CODE":0,"TOWNNAME":"新化區","LI":"豐榮里","LIN":"1鄰","STREET":"中山路","SECT":" ","MAREA":" ","LANE":"６２７巷","ALLEY":" ","HOUSE_NO":"１３號","E_COORD97":178214.16,"N_COORD97":2548442.25,"ADDRESS":"中山路６２７巷１３號","OBJECTID":340898},"geometry":{"x":178214.16000000108,"y":2548442.25}},{"attributes":{"ID":340908,"DIS_CODE":0,"TOWNNAME":"新化區","LI":"觀音里","LIN":"1鄰","STREET":"中山路","SECT":" ","MAREA":" ","LANE":"２５８巷","ALLEY":" ","HOUSE_NO":"２號","E_COORD97":179038.10999999999,"N_COORD97":2548456.25,"ADDRESS":"中山路２５８巷２號","OBJECTID":340899},"geometry":{"x":179038.11000000034,"y":2548456.25}},{"attributes":{"ID":340909,"DIS_CODE":0,"TOWNNAME":"新化區","LI":"豐榮里","LIN":"1鄰","STREET":"中山路","SECT":" ","MAREA":" ","LANE":"６２７巷","ALLEY":" ","HOUSE_NO":"３號","E_COORD97":178215.01000000001,"N_COORD97":2548464.25,"ADDRESS":"中山路６２７巷３號","OBJECTID":340900},"geometry":{"x":178215.01000000071,"y":2548464.2500000019}},{"attributes":{"ID":340910,"DIS_CODE":0,"TOWNNAME":"新化區","LI":"護國里","LIN":"1鄰","STREET":"中山路","SECT":" ","MAREA":" ","LANE":"２２４巷","ALLEY":" ","HOUSE_NO":"５號之２","E_COORD97":179107.85999999999,"N_COORD97":2548479.2599999998,"ADDRESS":"中山路２２４巷５號之２","OBJECTID":340901},"geometry":{"x":179107.8600000022,"y":2548479.2599999998}},{"attributes":{"ID":340911,"DIS_CODE":0,"TOWNNAME":"新化區","LI":"協興里","LIN":"1鄰","STREET":"忠孝路","SECT":" ","MAREA":" ","LANE":"１６１巷","ALLEY":" ","HOUSE_NO":"１０號","E_COORD97":178613.87,"N_COORD97":2548592.25,"ADDRESS":"忠孝路１６１巷１０號","OBJECTID":340902},"geometry":{"x":178613.87000000011,"y":2548592.25}},{"attributes":{"ID":340912,"DIS_CODE":0,"TOWNNAME":"新化區","LI":"豐榮里","LIN":"1鄰","STREET":"大智路","SECT":" ","MAREA":" ","LANE":"２８巷","ALLEY":" ","HOUSE_NO":"２０號","E_COORD97":178249.23000000001,"N_COORD97":2548433.25,"ADDRESS":"大智路２８巷２０號","OBJECTID":340903},"geometry":{"x":178249.23000000045,"y":2548433.2499999981}},{"attributes":{"ID":340913,"DIS_CODE":0,"TOWNNAME":"新化區","LI":"豐榮里","LIN":"1鄰","STREET":"中山路","SECT":" ","MAREA":" ","LANE":"６２７巷","ALLEY":" ","HOUSE_NO":"１１號","E_COORD97":178214.26000000001,"N_COORD97":2548447.25,"ADDRESS":"中山路６２７巷１１號","OBJECTID":340904},"geometry":{"x":178214.25999999978,"y":2548447.2500000037}},{"attributes":{"ID":340914,"DIS_CODE":0,"TOWNNAME":"新化區","LI":"豐榮里","LIN":"1鄰","STREET":"大智路","SECT":" ","MAREA":" ","LANE":"２８巷","ALLEY":" ","HOUSE_NO":"１７號","E_COORD97":178241.53,"N_COORD97":2548427.25,"ADDRESS":"大智路２８巷１７號","OBJECTID":340905},"geometry":{"x":178241.53000000026,"y":2548427.2500000019}},{"attributes":{"ID":340915,"DIS_CODE":0,"TOWNNAME":"新化區","LI":"武安里","LIN":"1鄰","STREET":"公園路","SECT":" ","MAREA":" ","LANE":"１６巷","ALLEY":" ","HOUSE_NO":"６號","E_COORD97":179081.88,"N_COORD97":2547762.25,"ADDRESS":"公園路１６巷６號","OBJECTID":340906},"geometry":{"x":179081.88000000175,"y":2547762.2500000037}},{"attributes":{"ID":340916,"DIS_CODE":0,"TOWNNAME":"新化區","LI":"觀音里","LIN":"1鄰","STREET":"中山路","SECT":" ","MAREA":" ","LANE":"２５８巷","ALLEY":" ","HOUSE_NO":"１８號","E_COORD97":179018.66,"N_COORD97":2548503.25,"ADDRESS":"中山路２５８巷１８號","OBJECTID":340907},"geometry":{"x":179018.66000000015,"y":2548503.25}},{"attributes":{"ID":340917,"DIS_CODE":0,"TOWNNAME":"新化區","LI":"觀音里","LIN":"1鄰","STREET":"中山路","SECT":" ","MAREA":" ","LANE":"２５８巷","ALLEY":" ","HOUSE_NO":"２２號","E_COORD97":179034.76000000001,"N_COORD97":2548533.25,"ADDRESS":"中山路２５８巷２２號","OBJECTID":340908},"geometry":{"x":179034.75999999978,"y":2548533.2500000019}},{"attributes":{"ID":340918,"DIS_CODE":0,"TOWNNAME":"新化區","LI":"觀音里","LIN":"1鄰","STREET":"中山路","SECT":" ","MAREA":" ","LANE":"２５８巷","ALLEY":" ","HOUSE_NO":"６號","E_COORD97":179045.31,"N_COORD97":2548455.25,"ADDRESS":"中山路２５８巷６號","OBJECTID":340909},"geometry":{"x":179045.31000000052,"y":2548455.2500000019}},{"attributes":{"ID":340919,"DIS_CODE":0,"TOWNNAME":"新化區","LI":"豐榮里","LIN":"1鄰","STREET":"大智路","SECT":" ","MAREA":" ","LANE":"２８巷","ALLEY":" ","HOUSE_NO":"３號","E_COORD97":178264.67999999999,"N_COORD97":2548406.25,"ADDRESS":"大智路２８巷３號","OBJECTID":340910},"geometry":{"x":178264.68000000063,"y":2548406.2500000037}},{"attributes":{"ID":340920,"DIS_CODE":0,"TOWNNAME":"安南區","LI":"城北里","LIN":"8鄰","STREET":"安中路","SECT":"六段","MAREA":" ","LANE":" ","ALLEY":" ","HOUSE_NO":"１８１號","E_COORD97":161637.86887899999,"N_COORD97":2551262.6030000001,"ADDRESS":"安中路六段１８１號","OBJECTID":340911},"geometry":{"x":161637.86887900066,"y":2551262.6030010022}},{"attributes":{"ID":340921,"DIS_CODE":0,"TOWNNAME":"安南區","LI":"城北里","LIN":"8鄰","STREET":"安中路","SECT":"六段","MAREA":" ","LANE":" ","ALLEY":" ","HOUSE_NO":"３１５號","E_COORD97":161345.57999999999,"N_COORD97":2551283.02,"ADDRESS":"安中路六段３１５號","OBJECTID":340912},"geometry":{"x":161345.58000000194,"y":2551283.0200000014}},{"attributes":{"ID":340922,"DIS_CODE":0,"TOWNNAME":"北區","LI":"振興里","LIN":"5鄰","STREET":"開元路","SECT":" ","MAREA":" ","LANE":"１４８巷","ALLEY":" ","HOUSE_NO":"２５號","E_COORD97":170026.04999999999,"N_COORD97":2545133.9100000001,"ADDRESS":"開元路１４８巷２５號","OBJECTID":340913},"geometry":{"x":170026.04999999981,"y":2545133.9100000039}},{"attributes":{"ID":340923,"DIS_CODE":0,"TOWNNAME":"北區","LI":"振興里","LIN":"5鄰","STREET":"開元路","SECT":" ","MAREA":" ","LANE":"１４８巷","ALLEY":" ","HOUSE_NO":"２９號","E_COORD97":170039.76999999999,"N_COORD97":2545125.4700000002,"ADDRESS":"開元路１４８巷２９號","OBJECTID":340914},"geometry":{"x":170039.76999999955,"y":2545125.4700000007}},{"attributes":{"ID":340924,"DIS_CODE":0,"TOWNNAME":"北區","LI":"國姓里","LIN":"5鄰","STREET":"小北路","SECT":" ","MAREA":" ","LANE":"２７巷","ALLEY":" ","HOUSE_NO":"６５號","E_COORD97":168911.14999999999,"N_COORD97":2545463.4500000002,"ADDRESS":"小北路２７巷６５號","OBJECTID":340915},"geometry":{"x":168911.15000000224,"y":2545463.4499999993}},{"attributes":{"ID":340925,"DIS_CODE":0,"TOWNNAME":"北區","LI":"國姓里","LIN":"5鄰","STREET":"小北路","SECT":" ","MAREA":" ","LANE":"２７巷","ALLEY":" ","HOUSE_NO":"６７號","E_COORD97":168915.31,"N_COORD97":2545463.7200000002,"ADDRESS":"小北路２７巷６７號","OBJECTID":340916},"geometry":{"x":168915.30999999959,"y":2545463.7200000007}},{"attributes":{"ID":340926,"DIS_CODE":0,"TOWNNAME":"北區","LI":"國姓里","LIN":"5鄰","STREET":"小北路","SECT":" ","MAREA":" ","LANE":"２７巷","ALLEY":" ","HOUSE_NO":"６９號","E_COORD97":168919.47,"N_COORD97":2545464.2799999998,"ADDRESS":"小北路２７巷６９號","OBJECTID":340917},"geometry":{"x":168919.46999999974,"y":2545464.2799999993}},{"attributes":{"ID":340927,"DIS_CODE":0,"TOWNNAME":"北區","LI":"國姓里","LIN":"5鄰","STREET":"小北路","SECT":" ","MAREA":" ","LANE":"２７巷","ALLEY":" ","HOUSE_NO":"７１號","E_COORD97":168924.47,"N_COORD97":2545465.1099999999,"ADDRESS":"小北路２７巷７１號","OBJECTID":340918},"geometry":{"x":168924.46999999974,"y":2545465.1100000013}},{"attributes":{"ID":340928,"DIS_CODE":0,"TOWNNAME":"北區","LI":"國姓里","LIN":"5鄰","STREET":"小北路","SECT":" ","MAREA":" ","LANE":"２７巷","ALLEY":" ","HOUSE_NO":"７３號","E_COORD97":168929.17999999999,"N_COORD97":2545465.9399999999,"ADDRESS":"小北路２７巷７３號","OBJECTID":340919},"geometry":{"x":168929.18000000063,"y":2545465.9400000013}},{"attributes":{"ID":340929,"DIS_CODE":0,"TOWNNAME":"北區","LI":"國姓里","LIN":"5鄰","STREET":"小北路","SECT":" ","MAREA":" ","LANE":"２７巷","ALLEY":" ","HOUSE_NO":"７５號","E_COORD97":168933.35000000001,"N_COORD97":2545468.1600000001,"ADDRESS":"小北路２７巷７５號","OBJECTID":340920},"geometry":{"x":168933.35000000056,"y":2545468.160000002}},{"attributes":{"ID":340930,"DIS_CODE":0,"TOWNNAME":"北區","LI":"安民里","LIN":"5鄰","STREET":"康樂街","SECT":" ","MAREA":" ","LANE":"４０６巷","ALLEY":" ","HOUSE_NO":"１５號","E_COORD97":167812.01000000001,"N_COORD97":2544748.98,"ADDRESS":"康樂街４０６巷１５號","OBJECTID":340921},"geometry":{"x":167812.01000000071,"y":2544748.9800000004}},{"attributes":{"ID":340931,"DIS_CODE":0,"TOWNNAME":"北區","LI":"安民里","LIN":"5鄰","STREET":"康樂街","SECT":" ","MAREA":" ","LANE":"４０６巷","ALLEY":" ","HOUSE_NO":"１７號","E_COORD97":167814.51000000001,"N_COORD97":2544752.3199999998,"ADDRESS":"康樂街４０６巷１７號","OBJECTID":340922},"geometry":{"x":167814.50999999885,"y":2544752.3200000022}},{"attributes":{"ID":340932,"DIS_CODE":0,"TOWNNAME":"永康區","LI":"東灣里","LIN":" ","STREET":"大灣一街","SECT":" ","MAREA":" ","LANE":" ","ALLEY":" ","HOUSE_NO":"２００號","E_COORD97":174842.14999999999,"N_COORD97":2544570.25,"ADDRESS":"大灣一街２００號","OBJECTID":340923},"geometry":{"x":174842.15000000037,"y":2544570.25}},{"attributes":{"ID":340933,"DIS_CODE":0,"TOWNNAME":"永康區","LI":"三合里","LIN":" ","STREET":"中華二路","SECT":" ","MAREA":" ","LANE":" ","ALLEY":" ","HOUSE_NO":"２號","E_COORD97":172134.41,"N_COORD97":2545454.7400000002,"ADDRESS":"中華二路２號","OBJECTID":340924},"geometry":{"x":172134.41000000015,"y":2545454.7400000021}},{"attributes":{"ID":340934,"DIS_CODE":0,"TOWNNAME":"永康區","LI":"正強里","LIN":" ","STREET":"正強街","SECT":" ","MAREA":" ","LANE":" ","ALLEY":" ","HOUSE_NO":"８７號","E_COORD97":173331.07000000001,"N_COORD97":2547356.75,"ADDRESS":"正強街８７號","OBJECTID":340925},"geometry":{"x":173331.07000000123,"y":2547356.7500000019}},{"attributes":{"ID":340935,"DIS_CODE":0,"TOWNNAME":"永康區","LI":"大灣里","LIN":" ","STREET":"大灣路","SECT":" ","MAREA":" ","LANE":" ","ALLEY":" ","HOUSE_NO":"２３４之６號","E_COORD97":173383.09,"N_COORD97":2545187.21,"ADDRESS":"大灣路２３４之６號","OBJECTID":340926},"geometry":{"x":173383.09000000078,"y":2545187.2100000028}},{"attributes":{"ID":340936,"DIS_CODE":0,"TOWNNAME":"永康區","LI":"安康里","LIN":" ","STREET":"中華路","SECT":" ","MAREA":" ","LANE":" ","ALLEY":" ","HOUSE_NO":"６５５號","E_COORD97":171011.84,"N_COORD97":2546184.7400000002,"ADDRESS":"中華路６５５號","OBJECTID":340927},"geometry":{"x":171011.84000000078,"y":2546184.7400000002}},{"attributes":{"ID":340937,"DIS_CODE":0,"TOWNNAME":"永康區","LI":"正強里","LIN":" ","STREET":"正強街","SECT":" ","MAREA":" ","LANE":" ","ALLEY":" ","HOUSE_NO":"１６８之４號","E_COORD97":173340.85000000001,"N_COORD97":2547491.3199999998,"ADDRESS":"正強街１６８之４號","OBJECTID":340928},"geometry":{"x":173340.85000000056,"y":2547491.3200000022}},{"attributes":{"ID":340938,"DIS_CODE":0,"TOWNNAME":"永康區","LI":"大灣里","LIN":" ","STREET":"大灣路","SECT":" ","MAREA":" ","LANE":" ","ALLEY":" ","HOUSE_NO":"２３０之１１號","E_COORD97":173408.22,"N_COORD97":2545204.4100000001,"ADDRESS":"大灣路２３０之１１號","OBJECTID":340929},"geometry":{"x":173408.21999999974,"y":2545204.4100000001}},{"attributes":{"ID":340939,"DIS_CODE":0,"TOWNNAME":"永康區","LI":"安康里","LIN":" ","STREET":"中華西街","SECT":" ","MAREA":" ","LANE":" ","ALLEY":" ","HOUSE_NO":"１４４號","E_COORD97":170691.78,"N_COORD97":2546210.3900000001,"ADDRESS":"中華西街１４４號","OBJECTID":340930},"geometry":{"x":170691.78000000212,"y":2546210.3900000025}},{"attributes":{"ID":340940,"DIS_CODE":0,"TOWNNAME":"永康區","LI":"\u25A0洲里","LIN":"40鄰","STREET":"洲尾街","SECT":" ","MAREA":" ","LANE":" ","ALLEY":" ","HOUSE_NO":"１２７號","E_COORD97":170963.17000000001,"N_COORD97":2548797.3100000001,"ADDRESS":"洲尾街１２７號","OBJECTID":340931},"geometry":{"x":170963.16999999993,"y":2548797.3100000024}},{"attributes":{"ID":340941,"DIS_CODE":0,"TOWNNAME":"永康區","LI":"\u25A0洲里","LIN":"24鄰","STREET":"正南二街","SECT":" ","MAREA":" ","LANE":" ","ALLEY":" ","HOUSE_NO":"３９號","E_COORD97":170824.39000000001,"N_COORD97":2548282.5,"ADDRESS":"正南二街３９號","OBJECTID":340932},"geometry":{"x":170824.39000000153,"y":2548282.5000000037}},{"attributes":{"ID":340942,"DIS_CODE":0,"TOWNNAME":"永康區","LI":"中華里","LIN":"24鄰","STREET":"華興街","SECT":" ","MAREA":" ","LANE":" ","ALLEY":" ","HOUSE_NO":"１４８號","E_COORD97":171727.26999999999,"N_COORD97":2544581.71,"ADDRESS":"華興街１４８號","OBJECTID":340933},"geometry":{"x":171727.27000000048,"y":2544581.7100000009}},{"attributes":{"ID":340943,"DIS_CODE":0,"TOWNNAME":"永康區","LI":"甲頂里","LIN":" ","STREET":"小北路","SECT":" ","MAREA":" ","LANE":" ","ALLEY":" ","HOUSE_NO":"１０７號","E_COORD97":169640.57000000001,"N_COORD97":2546943.75,"ADDRESS":"小北路１０７號","OBJECTID":340934},"geometry":{"x":169640.57000000216,"y":2546943.75}},{"attributes":{"ID":340944,"DIS_CODE":0,"TOWNNAME":"永康區","LI":"甲頂里","LIN":" ","STREET":"中正南路","SECT":" ","MAREA":" ","LANE":" ","ALLEY":" ","HOUSE_NO":"１６３號","E_COORD97":169818.14999999999,"N_COORD97":2547125.7400000002,"ADDRESS":"中正南路１６３號","OBJECTID":340935},"geometry":{"x":169818.15000000224,"y":2547125.7400000021}},{"attributes":{"ID":340945,"DIS_CODE":0,"TOWNNAME":"新化區","LI":"豐榮里","LIN":"1鄰","STREET":"中山路","SECT":" ","MAREA":" ","LANE":"６２７巷","ALLEY":" ","HOUSE_NO":"１７號","E_COORD97":178238.66,"N_COORD97":2548442.25,"ADDRESS":"中山路６２７巷１７號","OBJECTID":340936},"geometry":{"x":178238.66000000015,"y":2548442.25}},{"attributes":{"ID":340946,"DIS_CODE":0,"TOWNNAME":"新化區","LI":"觀音里","LIN":"1鄰","STREET":"中山路","SECT":" ","MAREA":" ","LANE":"２５８巷","ALLEY":" ","HOUSE_NO":"８號","E_COORD97":179049.81,"N_COORD97":2548457.25,"ADDRESS":"中山路２５８巷８號","OBJECTID":340937},"geometry":{"x":179049.81000000145,"y":2548457.2500000037}},{"attributes":{"ID":340947,"DIS_CODE":0,"TOWNNAME":"新化區","LI":"東榮里","LIN":"1鄰","STREET":"中興路","SECT":" ","MAREA":" ","LANE":"１０４巷","ALLEY":" ","HOUSE_NO":"７號","E_COORD97":181856.60999999999,"N_COORD97":2547338.25,"ADDRESS":"中興路１０４巷７號","OBJECTID":340938},"geometry":{"x":181856.61000000127,"y":2547338.2500000037}},{"attributes":{"ID":340948,"DIS_CODE":0,"TOWNNAME":"新化區","LI":"豐榮里","LIN":"1鄰","STREET":"中山路","SECT":" ","MAREA":" ","LANE":"６２７巷","ALLEY":" ","HOUSE_NO":"１９號","E_COORD97":178226.56,"N_COORD97":2548432.25,"ADDRESS":"中山路６２７巷１９號","OBJECTID":340939},"geometry":{"x":178226.56000000052,"y":2548432.25}},{"attributes":{"ID":340949,"DIS_CODE":0,"TOWNNAME":"新化區","LI":"護國里","LIN":"1鄰","STREET":"中山路","SECT":" ","MAREA":" ","LANE":"２２４巷","ALLEY":" ","HOUSE_NO":"７號之５","E_COORD97":179110.67000000001,"N_COORD97":2548502.2599999998,"ADDRESS":"中山路２２４巷７號之５","OBJECTID":340940},"geometry":{"x":179110.67000000086,"y":2548502.2600000016}},{"attributes":{"ID":340950,"DIS_CODE":0,"TOWNNAME":"新化區","LI":"東榮里","LIN":"1鄰","STREET":"中興路","SECT":" ","MAREA":" ","LANE":"１０４巷","ALLEY":" ","HOUSE_NO":"１９號","E_COORD97":181855.56,"N_COORD97":2547373.25,"ADDRESS":"中興路１０４巷１９號","OBJECTID":340941},"geometry":{"x":181855.56000000052,"y":2547373.2500000019}},{"attributes":{"ID":340951,"DIS_CODE":0,"TOWNNAME":"新化區","LI":"觀音里","LIN":"1鄰","STREET":"中山路","SECT":" ","MAREA":" ","LANE":"２５８巷","ALLEY":" ","HOUSE_NO":"１０號","E_COORD97":179055.56,"N_COORD97":2548458.25,"ADDRESS":"中山路２５８巷１０號","OBJECTID":340942},"geometry":{"x":179055.56000000052,"y":2548458.2500000019}},{"attributes":{"ID":340952,"DIS_CODE":0,"TOWNNAME":"將軍區","LI":"西和里","LIN":"25鄰","STREET":" ","SECT":" ","MAREA":"西湖","LANE":" ","ALLEY":" ","HOUSE_NO":"９６號","E_COORD97":162105.62,"N_COORD97":2566203.2200000002,"ADDRESS":"西湖９６號","OBJECTID":340943},"geometry":{"x":162105.62000000104,"y":2566203.2200000044}},{"attributes":{"ID":340953,"DIS_CODE":0,"TOWNNAME":"新化區","LI":"護國里","LIN":"1鄰","STREET":"中山路","SECT":" ","MAREA":" ","LANE":"２２４巷","ALLEY":" ","HOUSE_NO":"９號","E_COORD97":179117.51000000001,"N_COORD97":2548514.25,"ADDRESS":"中山路２２４巷９號","OBJECTID":340944},"geometry":{"x":179117.50999999978,"y":2548514.25}},{"attributes":{"ID":340954,"DIS_CODE":0,"TOWNNAME":"新化區","LI":"護國里","LIN":"1鄰","STREET":"中山路","SECT":" ","MAREA":" ","LANE":"２２４巷","ALLEY":" ","HOUSE_NO":"７號","E_COORD97":179117.91,"N_COORD97":2548485.25,"ADDRESS":"中山路２２４巷７號","OBJECTID":340945},"geometry":{"x":179117.91000000108,"y":2548485.2500000019}},{"attributes":{"ID":340955,"DIS_CODE":0,"TOWNNAME":"新化區","LI":"豐榮里","LIN":"1鄰","STREET":"大智路","SECT":" ","MAREA":" ","LANE":"２８巷","ALLEY":" ","HOUSE_NO":"１５號","E_COORD97":178244.63,"N_COORD97":2548424.25,"ADDRESS":"大智路２８巷１５號","OBJECTID":340946},"geometry":{"x":178244.63000000082,"y":2548424.2500000019}},{"attributes":{"ID":340956,"DIS_CODE":0,"TOWNNAME":"新化區","LI":"豐榮里","LIN":"1鄰","STREET":"中山路","SECT":" ","MAREA":" ","LANE":"６２７巷","ALLEY":" ","HOUSE_NO":"１５號","E_COORD97":178233.35999999999,"N_COORD97":2548441.25,"ADDRESS":"中山路６２７巷１５號","OBJECTID":340947},"geometry":{"x":178233.36000000127,"y":2548441.2500000019}},{"attributes":{"ID":340957,"DIS_CODE":0,"TOWNNAME":"新化區","LI":"豐榮里","LIN":"1鄰","STREET":"大智路","SECT":" ","MAREA":" ","LANE":"２８巷","ALLEY":" ","HOUSE_NO":"１號","E_COORD97":178267.88,"N_COORD97":2548403.25,"ADDRESS":"大智路２８巷１號","OBJECTID":340948},"geometry":{"x":178267.87999999989,"y":2548403.2500000019}},{"attributes":{"ID":340958,"DIS_CODE":0,"TOWNNAME":"新化區","LI":"豐榮里","LIN":"1鄰","STREET":"大智路","SECT":" ","MAREA":" ","LANE":"２８巷","ALLEY":" ","HOUSE_NO":"１８號","E_COORD97":178253.13,"N_COORD97":2548430.25,"ADDRESS":"大智路２８巷１８號","OBJECTID":340949},"geometry":{"x":178253.13000000082,"y":2548430.2500000037}},{"attributes":{"ID":340959,"DIS_CODE":0,"TOWNNAME":"新化區","LI":"豐榮里","LIN":"1鄰","STREET":"大智路","SECT":" ","MAREA":" ","LANE":"２８巷","ALLEY":" ","HOUSE_NO":"４號","E_COORD97":178280.28,"N_COORD97":2548410.25,"ADDRESS":"大智路２８巷４號","OBJECTID":340950},"geometry":{"x":178280.28000000026,"y":2548410.2500000019}},{"attributes":{"ID":340960,"DIS_CODE":0,"TOWNNAME":"新化區","LI":"豐榮里","LIN":"1鄰","STREET":"大智路","SECT":" ","MAREA":" ","LANE":"２８巷","ALLEY":" ","HOUSE_NO":"６號","E_COORD97":178275.48000000001,"N_COORD97":2548412.25,"ADDRESS":"大智路２８巷６號","OBJECTID":340951},"geometry":{"x":178275.48000000138,"y":2548412.25}},{"attributes":{"ID":340961,"DIS_CODE":0,"TOWNNAME":"新化區","LI":"協興里","LIN":"1鄰","STREET":"忠孝路","SECT":" ","MAREA":" ","LANE":"１６６巷","ALLEY":" ","HOUSE_NO":"２號","E_COORD97":178505.72,"N_COORD97":2548640.25,"ADDRESS":"忠孝路１６６巷２號","OBJECTID":340952},"geometry":{"x":178505.71999999974,"y":2548640.2500000037}},{"attributes":{"ID":340962,"DIS_CODE":0,"TOWNNAME":"新化區","LI":"豐榮里","LIN":"1鄰","STREET":"中山路","SECT":" ","MAREA":" ","LANE":"６２７巷","ALLEY":" ","HOUSE_NO":"１６號","E_COORD97":178204.06,"N_COORD97":2548447.25,"ADDRESS":"中山路６２７巷１６號","OBJECTID":340953},"geometry":{"x":178204.06000000052,"y":2548447.2500000037}},{"attributes":{"ID":340963,"DIS_CODE":0,"TOWNNAME":"新化區","LI":"竹林里","LIN":"1鄰","STREET":"竹林路","SECT":" ","MAREA":" ","LANE":"９５巷","ALLEY":" ","HOUSE_NO":"３號","E_COORD97":178791.88,"N_COORD97":2548596.25,"ADDRESS":"竹林路９５巷３號","OBJECTID":340954},"geometry":{"x":178791.87999999896,"y":2548596.2500000037}},{"attributes":{"ID":340964,"DIS_CODE":0,"TOWNNAME":"新化區","LI":"竹林里","LIN":"1鄰","STREET":"竹林路","SECT":" ","MAREA":" ","LANE":"６３巷","ALLEY":" ","HOUSE_NO":"８號","E_COORD97":178780.78,"N_COORD97":2548584.25,"ADDRESS":"竹林路６３巷８號","OBJECTID":340955},"geometry":{"x":178780.78000000026,"y":2548584.2500000019}},{"attributes":{"ID":340965,"DIS_CODE":0,"TOWNNAME":"新化區","LI":"竹林里","LIN":"1鄰","STREET":"竹林路","SECT":" ","MAREA":" ","LANE":"９５巷","ALLEY":" ","HOUSE_NO":"５號","E_COORD97":178784.07999999999,"N_COORD97":2548595.25,"ADDRESS":"竹林路９５巷５號","OBJECTID":340956},"geometry":{"x":178784.08000000194,"y":2548595.25}},{"attributes":{"ID":340966,"DIS_CODE":0,"TOWNNAME":"新化區","LI":"觀音里","LIN":"1鄰","STREET":"中山路","SECT":" ","MAREA":" ","LANE":"２５８巷","ALLEY":" ","HOUSE_NO":"１４號","E_COORD97":179021.85999999999,"N_COORD97":2548477.25,"ADDRESS":"中山路２５８巷１４號","OBJECTID":340957},"geometry":{"x":179021.86000000127,"y":2548477.2499999981}},{"attributes":{"ID":340967,"DIS_CODE":0,"TOWNNAME":"新化區","LI":"唪口里","LIN":"1鄰","STREET":"大德路","SECT":" ","MAREA":" ","LANE":"７８巷","ALLEY":" ","HOUSE_NO":"２１號","E_COORD97":178338.42999999999,"N_COORD97":2549656.25,"ADDRESS":"大德路７８巷２１號","OBJECTID":340958},"geometry":{"x":178338.4299999997,"y":2549656.25}},{"attributes":{"ID":340968,"DIS_CODE":0,"TOWNNAME":"新化區","LI":"東榮里","LIN":"1鄰","STREET":"中興路","SECT":" ","MAREA":" ","LANE":"３０２巷","ALLEY":" ","HOUSE_NO":"９７號","E_COORD97":180998.26000000001,"N_COORD97":2547486.25,"ADDRESS":"中興路３０２巷９７號","OBJECTID":340959},"geometry":{"x":180998.26000000071,"y":2547486.25}},{"attributes":{"ID":340969,"DIS_CODE":0,"TOWNNAME":"新化區","LI":"協興里","LIN":"1鄰","STREET":"忠孝路","SECT":" ","MAREA":" ","LANE":"１６１巷","ALLEY":" ","HOUSE_NO":"３０號","E_COORD97":178603.17000000001,"N_COORD97":2548516.25,"ADDRESS":"忠孝路１６１巷３０號","OBJECTID":340960},"geometry":{"x":178603.16999999993,"y":2548516.2500000019}},{"attributes":{"ID":340970,"DIS_CODE":0,"TOWNNAME":"新化區","LI":"武安里","LIN":"1鄰","STREET":"公園路","SECT":" ","MAREA":" ","LANE":"１６巷","ALLEY":" ","HOUSE_NO":"１３號","E_COORD97":179078.42999999999,"N_COORD97":2547785.25,"ADDRESS":"公園路１６巷１３號","OBJECTID":340961},"geometry":{"x":179078.43000000063,"y":2547785.25}},{"attributes":{"ID":340971,"DIS_CODE":0,"TOWNNAME":"新化區","LI":"竹林里","LIN":"1鄰","STREET":"竹林路","SECT":" ","MAREA":" ","LANE":"９５巷","ALLEY":" ","HOUSE_NO":"１５號","E_COORD97":178772.73000000001,"N_COORD97":2548594.25,"ADDRESS":"竹林路９５巷１５號","OBJECTID":340962},"geometry":{"x":178772.73000000045,"y":2548594.2500000019}},{"attributes":{"ID":340972,"DIS_CODE":0,"TOWNNAME":"北區","LI":"新勝里","LIN":"1鄰","STREET":"開元路","SECT":" ","MAREA":" ","LANE":"３３３巷","ALLEY":" ","HOUSE_NO":"２之１號","E_COORD97":170221.41,"N_COORD97":2545448.0699999998,"ADDRESS":"開元路３３３巷２之１號","OBJECTID":340963},"geometry":{"x":170221.41000000108,"y":2545448.070000004}},{"attributes":{"ID":340973,"DIS_CODE":0,"TOWNNAME":"北區","LI":"六甲里","LIN":"1鄰","STREET":"公園路","SECT":" ","MAREA":" ","LANE":"４５１巷","ALLEY":" ","HOUSE_NO":"２８號","E_COORD97":168980.88,"N_COORD97":2545497.0600000001,"ADDRESS":"公園路４５１巷２８號","OBJECTID":340964},"geometry":{"x":168980.88000000082,"y":2545497.0600000024}},{"attributes":{"ID":340974,"DIS_CODE":0,"TOWNNAME":"北區","LI":"和順里","LIN":"1鄰","STREET":"民德路","SECT":" ","MAREA":" ","LANE":"９０巷","ALLEY":" ","HOUSE_NO":"３９號","E_COORD97":168049.32000000001,"N_COORD97":2545350.23,"ADDRESS":"民德路９０巷３９號","OBJECTID":340965},"geometry":{"x":168049.32000000123,"y":2545350.2300000023}},{"attributes":{"ID":340975,"DIS_CODE":0,"TOWNNAME":"永康區","LI":"新樹里","LIN":"1鄰","STREET":"富強路","SECT":"二段","MAREA":" ","LANE":"２７８巷","ALLEY":" ","HOUSE_NO":"５５號","E_COORD97":175857.84,"N_COORD97":2547499.8500000001,"ADDRESS":"富強路二段２７８巷５５號","OBJECTID":340966},"geometry":{"x":175857.84000000171,"y":2547499.8499999978}},{"attributes":{"ID":340976,"DIS_CODE":0,"TOWNNAME":"北區","LI":"安民里","LIN":"5鄰","STREET":"海安路","SECT":"三段","MAREA":" ","LANE":"５３巷","ALLEY":" ","HOUSE_NO":"２３號","E_COORD97":167827.44,"N_COORD97":2544758.77,"ADDRESS":"海安路三段５３巷２３號","OBJECTID":340967},"geometry":{"x":167827.44000000041,"y":2544758.7700000014}},{"attributes":{"ID":340977,"DIS_CODE":0,"TOWNNAME":"北區","LI":"安民里","LIN":"5鄰","STREET":"海安路","SECT":"三段","MAREA":" ","LANE":"５３巷","ALLEY":" ","HOUSE_NO":"２５號","E_COORD97":167824.10000000001,"N_COORD97":2544758.98,"ADDRESS":"海安路三段５３巷２５號","OBJECTID":340968},"geometry":{"x":167824.10000000149,"y":2544758.9800000004}},{"attributes":{"ID":340978,"DIS_CODE":0,"TOWNNAME":"北區","LI":"安民里","LIN":"5鄰","STREET":"海安路","SECT":"三段","MAREA":" ","LANE":"５３巷","ALLEY":" ","HOUSE_NO":"２７號","E_COORD97":167820.14000000001,"N_COORD97":2544761.0600000001,"ADDRESS":"海安路三段５３巷２７號","OBJECTID":340969},"geometry":{"x":167820.13999999966,"y":2544761.0600000024}},{"attributes":{"ID":340979,"DIS_CODE":0,"TOWNNAME":"北區","LI":"安民里","LIN":"5鄰","STREET":"海安路","SECT":"三段","MAREA":" ","LANE":"５３巷","ALLEY":" ","HOUSE_NO":"２９號","E_COORD97":167816.79999999999,"N_COORD97":2544762.1000000001,"ADDRESS":"海安路三段５３巷２９號","OBJECTID":340970},"geometry":{"x":167816.80000000075,"y":2544762.0999999978}},{"attributes":{"ID":340980,"DIS_CODE":0,"TOWNNAME":"北區","LI":"安民里","LIN":"5鄰","STREET":"海安路","SECT":"三段","MAREA":" ","LANE":"５３巷","ALLEY":" ","HOUSE_NO":"３１號","E_COORD97":167812.22,"N_COORD97":2544764.1800000002,"ADDRESS":"海安路三段５３巷３１號","OBJECTID":340971},"geometry":{"x":167812.22000000067,"y":2544764.1799999997}},{"attributes":{"ID":340981,"DIS_CODE":0,"TOWNNAME":"永康區","LI":"\u25A0洲里","LIN":"1鄰","STREET":"仁愛街","SECT":" ","MAREA":" ","LANE":"５３巷","ALLEY":" ","HOUSE_NO":"１號","E_COORD97":171954.66,"N_COORD97":2549300.4700000002,"ADDRESS":"仁愛街５３巷１號","OBJECTID":340972},"geometry":{"x":171954.66000000015,"y":2549300.4700000044}},{"attributes":{"ID":340982,"DIS_CODE":0,"TOWNNAME":"永康區","LI":"\u25A0洲里","LIN":"1鄰","STREET":"仁愛街","SECT":" ","MAREA":" ","LANE":"５３巷","ALLEY":" ","HOUSE_NO":"１５號","E_COORD97":171915.37,"N_COORD97":2549318.0499999998,"ADDRESS":"仁愛街５３巷１５號","OBJECTID":340973},"geometry":{"x":171915.37000000104,"y":2549318.0500000026}},{"attributes":{"ID":340983,"DIS_CODE":0,"TOWNNAME":"永康區","LI":"\u25A0洲里","LIN":"1鄰","STREET":"仁愛街","SECT":" ","MAREA":" ","LANE":"５３巷","ALLEY":" ","HOUSE_NO":"１３號","E_COORD97":171922.60000000001,"N_COORD97":2549313.1899999999,"ADDRESS":"仁愛街５３巷１３號","OBJECTID":340974},"geometry":{"x":171922.59999999963,"y":2549313.1899999995}},{"attributes":{"ID":340984,"DIS_CODE":0,"TOWNNAME":"永康區","LI":"\u25A0洲里","LIN":"1鄰","STREET":"仁愛街","SECT":" ","MAREA":" ","LANE":"５３巷","ALLEY":" ","HOUSE_NO":"５號","E_COORD97":171943.09,"N_COORD97":2549308.1400000001,"ADDRESS":"仁愛街５３巷５號","OBJECTID":340975},"geometry":{"x":171943.08999999985,"y":2549308.1400000006}},{"attributes":{"ID":340985,"DIS_CODE":0,"TOWNNAME":"永康區","LI":"\u25A0洲里","LIN":"1鄰","STREET":"仁愛街","SECT":" ","MAREA":" ","LANE":"５３巷","ALLEY":" ","HOUSE_NO":"１１號","E_COORD97":171926.76000000001,"N_COORD97":2549311.5,"ADDRESS":"仁愛街５３巷１１號","OBJECTID":340976},"geometry":{"x":171926.75999999978,"y":2549311.5000000019}},{"attributes":{"ID":340986,"DIS_CODE":0,"TOWNNAME":"永康區","LI":"三合里","LIN":"1鄰","STREET":"中華二路","SECT":" ","MAREA":" ","LANE":"６２巷","ALLEY":" ","HOUSE_NO":"１號","E_COORD97":172122.64999999999,"N_COORD97":2545456.9700000002,"ADDRESS":"中華二路６２巷１號","OBJECTID":340977},"geometry":{"x":172122.65000000037,"y":2545456.9700000025}},{"attributes":{"ID":340987,"DIS_CODE":0,"TOWNNAME":"永康區","LI":"\u25A0洲里","LIN":"1鄰","STREET":"仁愛街","SECT":" ","MAREA":" ","LANE":"５３巷","ALLEY":" ","HOUSE_NO":"７號","E_COORD97":171938.31,"N_COORD97":2549306.8100000001,"ADDRESS":"仁愛街５３巷７號","OBJECTID":340978},"geometry":{"x":171938.30999999959,"y":2549306.8100000005}},{"attributes":{"ID":340988,"DIS_CODE":0,"TOWNNAME":"永康區","LI":"\u25A0洲里","LIN":"1鄰","STREET":"仁愛街","SECT":" ","MAREA":" ","LANE":"５３巷","ALLEY":" ","HOUSE_NO":"１７號","E_COORD97":171907.44,"N_COORD97":2549322.8999999999,"ADDRESS":"仁愛街５３巷１７號","OBJECTID":340979},"geometry":{"x":171907.44000000041,"y":2549322.9000000004}},{"attributes":{"ID":340989,"DIS_CODE":0,"TOWNNAME":"永康區","LI":"\u25A0洲里","LIN":"1鄰","STREET":"仁愛街","SECT":" ","MAREA":" ","LANE":"５３巷","ALLEY":" ","HOUSE_NO":"９號","E_COORD97":171930.95000000001,"N_COORD97":2549311.75,"ADDRESS":"仁愛街５３巷９號","OBJECTID":340980},"geometry":{"x":171930.95000000019,"y":2549311.7500000037}},{"attributes":{"ID":340990,"DIS_CODE":0,"TOWNNAME":"永康區","LI":"\u25A0洲里","LIN":"1鄰","STREET":"仁愛街","SECT":" ","MAREA":" ","LANE":"５３巷","ALLEY":" ","HOUSE_NO":"３號","E_COORD97":171945.70999999999,"N_COORD97":2549303.8100000001,"ADDRESS":"仁愛街５３巷３號","OBJECTID":340981},"geometry":{"x":171945.70999999996,"y":2549303.8100000005}},{"attributes":{"ID":340991,"DIS_CODE":0,"TOWNNAME":"仁德區","LI":"一甲里","LIN":"1鄰","STREET":"中正路","SECT":"三段","MAREA":" ","LANE":"１４７巷","ALLEY":" ","HOUSE_NO":"２９號","E_COORD97":173322.17999999999,"N_COORD97":2541773.1600000001,"ADDRESS":"中正路三段１４７巷２９號","OBJECTID":340982},"geometry":{"x":173322.1799999997,"y":2541773.160000002}},{"attributes":{"ID":340992,"DIS_CODE":0,"TOWNNAME":"仁德區","LI":"一甲里","LIN":"1鄰","STREET":"中正路","SECT":"三段","MAREA":" ","LANE":"１４７巷","ALLEY":" ","HOUSE_NO":"２５號","E_COORD97":173341.47,"N_COORD97":2541773.1600000001,"ADDRESS":"中正路三段１４７巷２５號","OBJECTID":340983},"geometry":{"x":173341.47000000067,"y":2541773.160000002}},{"attributes":{"ID":340993,"DIS_CODE":0,"TOWNNAME":"仁德區","LI":"一甲里","LIN":"1鄰","STREET":"中正路","SECT":"三段","MAREA":" ","LANE":"１４７巷","ALLEY":" ","HOUSE_NO":"２７號","E_COORD97":173341.89000000001,"N_COORD97":2541758.1299999999,"ADDRESS":"中正路三段１４７巷２７號","OBJECTID":340984},"geometry":{"x":173341.8900000006,"y":2541758.1300000008}},{"attributes":{"ID":340994,"DIS_CODE":0,"TOWNNAME":"東區","LI":"德高里","LIN":"1鄰","STREET":"自由路","SECT":"一段","MAREA":" ","LANE":"１５２巷","ALLEY":" ","HOUSE_NO":"１５號","E_COORD97":171770.12,"N_COORD97":2540968.6299999999,"ADDRESS":"自由路一段１５２巷１５號","OBJECTID":340985},"geometry":{"x":171770.12000000011,"y":2540968.6300000008}},{"attributes":{"ID":340995,"DIS_CODE":0,"TOWNNAME":"東區","LI":"德高里","LIN":"1鄰","STREET":"自由路","SECT":"一段","MAREA":" ","LANE":"１９６巷","ALLEY":" ","HOUSE_NO":"１號","E_COORD97":171797.44,"N_COORD97":2541009.48,"ADDRESS":"自由路一段１９６巷１號","OBJECTID":340986},"geometry":{"x":171797.44000000041,"y":2541009.4800000004}},{"attributes":{"ID":340996,"DIS_CODE":0,"TOWNNAME":"東區","LI":"德高里","LIN":"1鄰","STREET":"自由路","SECT":"一段","MAREA":" ","LANE":"１９６巷","ALLEY":" ","HOUSE_NO":"５號","E_COORD97":171796.84,"N_COORD97":2540995.7599999998,"ADDRESS":"自由路一段１９６巷５號","OBJECTID":340987},"geometry":{"x":171796.84000000078,"y":2540995.7600000016}},{"attributes":{"ID":340997,"DIS_CODE":0,"TOWNNAME":"東區","LI":"德高里","LIN":"1鄰","STREET":"自由路","SECT":"一段","MAREA":" ","LANE":"１９６巷","ALLEY":" ","HOUSE_NO":"７號","E_COORD97":171796.63,"N_COORD97":2540990.4700000002,"ADDRESS":"自由路一段１９６巷７號","OBJECTID":340988},"geometry":{"x":171796.63000000082,"y":2540990.4700000007}},{"attributes":{"ID":340998,"DIS_CODE":0,"TOWNNAME":"東區","LI":"德高里","LIN":"1鄰","STREET":"自由路","SECT":"一段","MAREA":" ","LANE":"１９６巷","ALLEY":" ","HOUSE_NO":"１２號","E_COORD97":171784.56,"N_COORD97":2540988.5600000001,"ADDRESS":"自由路一段１９６巷１２號","OBJECTID":340989},"geometry":{"x":171784.56000000052,"y":2540988.5600000005}},{"attributes":{"ID":340999,"DIS_CODE":0,"TOWNNAME":"東區","LI":"德高里","LIN":"1鄰","STREET":"自由路","SECT":"一段","MAREA":" ","LANE":"１９６巷","ALLEY":" ","HOUSE_NO":"１６號","E_COORD97":171782.64999999999,"N_COORD97":2540981.3599999999,"ADDRESS":"自由路一段１９６巷１６號","OBJECTID":340990},"geometry":{"x":171782.64999999944,"y":2540981.3600000013}},{"attributes":{"ID":341000,"DIS_CODE":0,"TOWNNAME":"永康區","LI":"復華里","LIN":"1鄰","STREET":"復國二路","SECT":" ","MAREA":" ","LANE":"３３８巷","ALLEY":" ","HOUSE_NO":"２４號","E_COORD97":173076.81,"N_COORD97":2546110.1899999999,"ADDRESS":"復國二路３３８巷２４號","OBJECTID":340991},"geometry":{"x":173076.80999999959,"y":2546110.1899999995}},{"attributes":{"ID":341001,"DIS_CODE":0,"TOWNNAME":"玉井區","LI":"玉井里","LIN":"1鄰","STREET":"憲政街","SECT":" ","MAREA":" ","LANE":"３５巷","ALLEY":" ","HOUSE_NO":"１７號","E_COORD97":194436.26000000001,"N_COORD97":2557909.27,"ADDRESS":"憲政街３５巷１７號","OBJECTID":340992},"geometry":{"x":194436.26000000071,"y":2557909.2700000014}},{"attributes":{"ID":341002,"DIS_CODE":0,"TOWNNAME":"南區","LI":"文華里","LIN":"1鄰","STREET":"永華路","SECT":"一段","MAREA":" ","LANE":"２３３巷","ALLEY":" ","HOUSE_NO":"３號","E_COORD97":167081.37,"N_COORD97":2543188.48,"ADDRESS":"永華路一段２３３巷３號","OBJECTID":340993},"geometry":{"x":167081.37000000011,"y":2543188.4800000023}},{"attributes":{"ID":341003,"DIS_CODE":0,"TOWNNAME":"南區","LI":"文華里","LIN":"1鄰","STREET":"永華路","SECT":"一段","MAREA":" ","LANE":"２３３巷","ALLEY":" ","HOUSE_NO":"３號之１","E_COORD97":167083.26000000001,"N_COORD97":2543185.0699999998,"ADDRESS":"永華路一段２３３巷３號之１","OBJECTID":340994},"geometry":{"x":167083.25999999978,"y":2543185.0700000003}},{"attributes":{"ID":341004,"DIS_CODE":0,"TOWNNAME":"安南區","LI":"城北里","LIN":"8鄰","STREET":"安明路","SECT":"四段","MAREA":" ","LANE":" ","ALLEY":" ","HOUSE_NO":"３０３之１０號","E_COORD97":161234.04999999999,"N_COORD97":2551094.7200000002,"ADDRESS":"安明路四段３０３之１０號","OBJECTID":340995},"geometry":{"x":161234.05000000075,"y":2551094.7200000007}},{"attributes":{"ID":341005,"DIS_CODE":0,"TOWNNAME":"安南區","LI":"城北里","LIN":"8鄰","STREET":"安明路","SECT":"四段","MAREA":" ","LANE":" ","ALLEY":" ","HOUSE_NO":"１００號","E_COORD97":161634.54999999999,"N_COORD97":2550743.23,"ADDRESS":"安明路四段１００號","OBJECTID":340996},"geometry":{"x":161634.55000000075,"y":2550743.2300000023}},{"attributes":{"ID":341006,"DIS_CODE":0,"TOWNNAME":"安南區","LI":"安順里","LIN":"8鄰","STREET":"安和路","SECT":"四段","MAREA":" ","LANE":" ","ALLEY":" ","HOUSE_NO":"８５號","E_COORD97":169922.07999999999,"N_COORD97":2550309.5499999998,"ADDRESS":"安和路四段８５號","OBJECTID":340997},"geometry":{"x":169922.08000000101,"y":2550309.5500000007}},{"attributes":{"ID":341007,"DIS_CODE":0,"TOWNNAME":"安南區","LI":"安順里","LIN":"8鄰","STREET":"安和路","SECT":"四段","MAREA":" ","LANE":" ","ALLEY":" ","HOUSE_NO":"８９號","E_COORD97":169921.17000000001,"N_COORD97":2550318.21,"ADDRESS":"安和路四段８９號","OBJECTID":340998},"geometry":{"x":169921.17000000086,"y":2550318.2100000009}},{"attributes":{"ID":341008,"DIS_CODE":0,"TOWNNAME":"白河區","LI":"外角里","LIN":"8鄰","STREET":"光明街","SECT":" ","MAREA":" ","LANE":" ","ALLEY":" ","HOUSE_NO":"７４號","E_COORD97":190566.19,"N_COORD97":2583419.7599999998,"ADDRESS":"光明街７４號","OBJECTID":340999},"geometry":{"x":190566.19000000041,"y":2583419.7600000016}},{"attributes":{"ID":341009,"DIS_CODE":0,"TOWNNAME":"永康區","LI":"復華里","LIN":"5鄰","STREET":"國華街","SECT":" ","MAREA":" ","LANE":"１０２巷","ALLEY":" ","HOUSE_NO":"８８號十樓之２","E_COORD97":172989.14999999999,"N_COORD97":2546133.2799999998,"ADDRESS":"國華街１０２巷８８號十樓之２","OBJECTID":341000},"geometry":{"x":172989.15000000037,"y":2546133.2799999993}}]}