{"displayFieldName":"TOWNNAME","fieldAliases":{"ID":"ID","DIS_CODE":"DIS_CODE","TOWNNAME":"TOWNNAME","LI":"LI","LIN":"LIN","STREET":"STREET","SECT":"SECT","MAREA":"MAREA","LANE":"LANE","ALLEY":"ALLEY","HOUSE_NO":"HOUSE_NO","E_COORD97":"E_COORD97","N_COORD97":"N_COORD97","ADDRESS":"ADDRESS","OBJECTID":"OBJECTID"},"geometryType":"esriGeometryPoint","spatialReference":{"wkid":102443,"latestWkid":3826},"fields":[{"name":"ID","type":"esriFieldTypeDouble","alias":"ID"},{"name":"DIS_CODE","type":"esriFieldTypeInteger","alias":"DIS_CODE"},{"name":"TOWNNAME","type":"esriFieldTypeString","alias":"TOWNNAME","length":8},{"name":"LI","type":"esriFieldTypeString","alias":"LI","length":8},{"name":"LIN","type":"esriFieldTypeString","alias":"LIN","length":12},{"name":"STREET","type":"esriFieldTypeString","alias":"STREET","length":20},{"name":"SECT","type":"esriFieldTypeString","alias":"SECT","length":8},{"name":"MAREA","type":"esriFieldTypeString","alias":"MAREA","length":12},{"name":"LANE","type":"esriFieldTypeString","alias":"LANE","length":10},{"name":"ALLEY","type":"esriFieldTypeString","alias":"ALLEY","length":10},{"name":"HOUSE_NO","type":"esriFieldTypeString","alias":"HOUSE_NO","length":20},{"name":"E_COORD97","type":"esriFieldTypeDouble","alias":"E_COORD97"},{"name":"N_COORD97","type":"esriFieldTypeDouble","alias":"N_COORD97"},{"name":"ADDRESS","type":"esriFieldTypeString","alias":"ADDRESS","length":50},{"name":"OBJECTID","type":"esriFieldTypeOID","alias":"OBJECTID"}],"features":[{"attributes":{"ID":119201,"DIS_CODE":0,"TOWNNAME":"北區","LI":"華興里","LIN":"16鄰","STREET":"南園街","SECT":" ","MAREA":" ","LANE":"１２７巷","ALLEY":"１７弄","HOUSE_NO":"７３號","E_COORD97":170764.54999999999,"N_COORD97":2545320.2599999998,"ADDRESS":"南園街１２７巷１７弄７３號","OBJECTID":119201},"geometry":{"x":170764.55000000075,"y":2545320.2599999998}},{"attributes":{"ID":119202,"DIS_CODE":0,"TOWNNAME":"北區","LI":"華興里","LIN":"16鄰","STREET":"南園街","SECT":" ","MAREA":" ","LANE":"１２７巷","ALLEY":"１７弄","HOUSE_NO":"７５號","E_COORD97":170768.59,"N_COORD97":2545321.5499999998,"ADDRESS":"南園街１２７巷１７弄７５號","OBJECTID":119202},"geometry":{"x":170768.58999999985,"y":2545321.5500000007}},{"attributes":{"ID":119203,"DIS_CODE":0,"TOWNNAME":"北區","LI":"華興里","LIN":"16鄰","STREET":"南園街","SECT":" ","MAREA":" ","LANE":"１２７巷","ALLEY":"１７弄","HOUSE_NO":"７７號","E_COORD97":170773.03,"N_COORD97":2545319.6899999999,"ADDRESS":"南園街１２７巷１７弄７７號","OBJECTID":119203},"geometry":{"x":170773.02999999933,"y":2545319.6899999995}},{"attributes":{"ID":119204,"DIS_CODE":0,"TOWNNAME":"北區","LI":"華興里","LIN":"16鄰","STREET":"南園街","SECT":" ","MAREA":" ","LANE":"１２７巷","ALLEY":"１７弄","HOUSE_NO":"１１號","E_COORD97":170651.95999999999,"N_COORD97":2545321.0699999998,"ADDRESS":"南園街１２７巷１７弄１１號","OBJECTID":119204},"geometry":{"x":170651.96000000089,"y":2545321.0700000003}},{"attributes":{"ID":119205,"DIS_CODE":0,"TOWNNAME":"北區","LI":"華興里","LIN":"16鄰","STREET":"南園街","SECT":" ","MAREA":" ","LANE":"１２７巷","ALLEY":"１７弄","HOUSE_NO":"１號","E_COORD97":170674.98000000001,"N_COORD97":2545308.29,"ADDRESS":"南園街１２７巷１７弄１號","OBJECTID":119205},"geometry":{"x":170674.98000000045,"y":2545308.2899999991}},{"attributes":{"ID":119206,"DIS_CODE":0,"TOWNNAME":"北區","LI":"華興里","LIN":"16鄰","STREET":"南園街","SECT":" ","MAREA":" ","LANE":"１２７巷","ALLEY":"１７弄","HOUSE_NO":"３號","E_COORD97":170669.88,"N_COORD97":2545307.9700000002,"ADDRESS":"南園街１２７巷１７弄３號","OBJECTID":119206},"geometry":{"x":170669.87999999989,"y":2545307.9700000025}},{"attributes":{"ID":119207,"DIS_CODE":0,"TOWNNAME":"北區","LI":"華興里","LIN":"16鄰","STREET":"南園街","SECT":" ","MAREA":" ","LANE":"１２７巷","ALLEY":"１７弄","HOUSE_NO":"５號","E_COORD97":170664.95000000001,"N_COORD97":2545309.1800000002,"ADDRESS":"南園街１２７巷１７弄５號","OBJECTID":119207},"geometry":{"x":170664.94999999925,"y":2545309.1800000016}},{"attributes":{"ID":119208,"DIS_CODE":0,"TOWNNAME":"北區","LI":"華興里","LIN":"16鄰","STREET":"南園街","SECT":" ","MAREA":" ","LANE":"１２７巷","ALLEY":"１７弄","HOUSE_NO":"７號","E_COORD97":170659.78,"N_COORD97":2545308.8599999999,"ADDRESS":"南園街１２７巷１７弄７號","OBJECTID":119208},"geometry":{"x":170659.78000000119,"y":2545308.8599999994}},{"attributes":{"ID":119209,"DIS_CODE":0,"TOWNNAME":"北區","LI":"華興里","LIN":"16鄰","STREET":"南園街","SECT":" ","MAREA":" ","LANE":"１２７巷","ALLEY":"１７弄","HOUSE_NO":"９號","E_COORD97":170653.39999999999,"N_COORD97":2545310.6400000001,"ADDRESS":"南園街１２７巷１７弄９號","OBJECTID":119209},"geometry":{"x":170653.40000000037,"y":2545310.6400000006}},{"attributes":{"ID":119210,"DIS_CODE":0,"TOWNNAME":"關廟區","LI":"香洋里","LIN":"16鄰","STREET":"中央路","SECT":" ","MAREA":" ","LANE":"２２巷","ALLEY":"７弄","HOUSE_NO":"９號","E_COORD97":181550.94,"N_COORD97":2540092.96,"ADDRESS":"中央路２２巷７弄９號","OBJECTID":119210},"geometry":{"x":181550.94000000134,"y":2540092.9600000028}},{"attributes":{"ID":119211,"DIS_CODE":0,"TOWNNAME":"東區","LI":"東光里","LIN":"25鄰","STREET":"東安路","SECT":" ","MAREA":" ","LANE":"１７６巷","ALLEY":"１弄","HOUSE_NO":"９號","E_COORD97":170821.04000000001,"N_COORD97":2543970.1800000002,"ADDRESS":"東安路１７６巷１弄９號","OBJECTID":119211},"geometry":{"x":170821.04000000097,"y":2543970.1799999997}},{"attributes":{"ID":119212,"DIS_CODE":0,"TOWNNAME":"東區","LI":"東光里","LIN":"25鄰","STREET":"東安路","SECT":" ","MAREA":" ","LANE":"１７６巷","ALLEY":"１弄","HOUSE_NO":"１０號","E_COORD97":170819.48999999999,"N_COORD97":2543948.77,"ADDRESS":"東安路１７６巷１弄１０號","OBJECTID":119212},"geometry":{"x":170819.49000000115,"y":2543948.7700000014}},{"attributes":{"ID":119213,"DIS_CODE":0,"TOWNNAME":"北區","LI":"開元里","LIN":"16鄰","STREET":"北園街","SECT":" ","MAREA":" ","LANE":"８７巷","ALLEY":"１５１弄","HOUSE_NO":"１０號","E_COORD97":170144.51999999999,"N_COORD97":2545927.8399999999,"ADDRESS":"北園街８７巷１５１弄１０號","OBJECTID":119213},"geometry":{"x":170144.51999999955,"y":2545927.8400000017}},{"attributes":{"ID":119214,"DIS_CODE":0,"TOWNNAME":"北區","LI":"開元里","LIN":"16鄰","STREET":"北園街","SECT":" ","MAREA":" ","LANE":"８７巷","ALLEY":"１５１弄","HOUSE_NO":"１２號","E_COORD97":170140.54999999999,"N_COORD97":2545927.8399999999,"ADDRESS":"北園街８７巷１５１弄１２號","OBJECTID":119214},"geometry":{"x":170140.55000000075,"y":2545927.8400000017}},{"attributes":{"ID":119215,"DIS_CODE":0,"TOWNNAME":"北區","LI":"開元里","LIN":"16鄰","STREET":"北園街","SECT":" ","MAREA":" ","LANE":"８７巷","ALLEY":"１５１弄","HOUSE_NO":"１４號","E_COORD97":170136.66,"N_COORD97":2545928.3300000001,"ADDRESS":"北園街８７巷１５１弄１４號","OBJECTID":119215},"geometry":{"x":170136.66000000108,"y":2545928.3300000019}},{"attributes":{"ID":119216,"DIS_CODE":0,"TOWNNAME":"北區","LI":"開元里","LIN":"16鄰","STREET":"北園街","SECT":" ","MAREA":" ","LANE":"８７巷","ALLEY":"１５１弄","HOUSE_NO":"１６號","E_COORD97":170132.92999999999,"N_COORD97":2545928.6499999999,"ADDRESS":"北園街８７巷１５１弄１６號","OBJECTID":119216},"geometry":{"x":170132.93000000063,"y":2545928.6500000004}},{"attributes":{"ID":119217,"DIS_CODE":0,"TOWNNAME":"北區","LI":"開元里","LIN":"16鄰","STREET":"北園街","SECT":" ","MAREA":" ","LANE":"８７巷","ALLEY":"１５１弄","HOUSE_NO":"１８號","E_COORD97":170128.79999999999,"N_COORD97":2545928.6499999999,"ADDRESS":"北園街８７巷１５１弄１８號","OBJECTID":119217},"geometry":{"x":170128.80000000075,"y":2545928.6500000004}},{"attributes":{"ID":119218,"DIS_CODE":0,"TOWNNAME":"北區","LI":"開元里","LIN":"16鄰","STREET":"北園街","SECT":" ","MAREA":" ","LANE":"８７巷","ALLEY":"１５１弄","HOUSE_NO":"２０號","E_COORD97":170124.67000000001,"N_COORD97":2545929.1400000001,"ADDRESS":"北園街８７巷１５１弄２０號","OBJECTID":119218},"geometry":{"x":170124.67000000086,"y":2545929.1399999987}},{"attributes":{"ID":119219,"DIS_CODE":0,"TOWNNAME":"北區","LI":"開元里","LIN":"16鄰","STREET":"北園街","SECT":" ","MAREA":" ","LANE":"８７巷","ALLEY":"１５１弄","HOUSE_NO":"２２號","E_COORD97":170120.87,"N_COORD97":2545929.3799999999,"ADDRESS":"北園街８７巷１５１弄２２號","OBJECTID":119219},"geometry":{"x":170120.87000000011,"y":2545929.3800000027}},{"attributes":{"ID":119220,"DIS_CODE":0,"TOWNNAME":"北區","LI":"開元里","LIN":"16鄰","STREET":"北園街","SECT":" ","MAREA":" ","LANE":"８７巷","ALLEY":"１５１弄","HOUSE_NO":"２４號","E_COORD97":170116.57000000001,"N_COORD97":2545929.7000000002,"ADDRESS":"北園街８７巷１５１弄２４號","OBJECTID":119220},"geometry":{"x":170116.5700000003,"y":2545929.6999999993}},{"attributes":{"ID":119221,"DIS_CODE":0,"TOWNNAME":"學甲區","LI":"新榮里","LIN":"4鄰","STREET":" ","SECT":" ","MAREA":"東寮","LANE":" ","ALLEY":" ","HOUSE_NO":"３８號之４","E_COORD97":166749.04000000001,"N_COORD97":2569335.9500000002,"ADDRESS":"東寮３８號之４","OBJECTID":119221},"geometry":{"x":166749.04000000097,"y":2569335.9499999993}},{"attributes":{"ID":119222,"DIS_CODE":0,"TOWNNAME":"歸仁區","LI":"南保里","LIN":"35鄰","STREET":"民權八街","SECT":" ","MAREA":" ","LANE":" ","ALLEY":" ","HOUSE_NO":"６９號","E_COORD97":176714.10999999999,"N_COORD97":2541001.25,"ADDRESS":"民權八街６９號","OBJECTID":119222},"geometry":{"x":176714.11000000034,"y":2541001.25}},{"attributes":{"ID":119223,"DIS_CODE":0,"TOWNNAME":"歸仁區","LI":"南保里","LIN":"35鄰","STREET":"民權八街","SECT":" ","MAREA":" ","LANE":" ","ALLEY":" ","HOUSE_NO":"７３號","E_COORD97":176715.20999999999,"N_COORD97":2541009.25,"ADDRESS":"民權八街７３號","OBJECTID":119223},"geometry":{"x":176715.21000000089,"y":2541009.2500000019}},{"attributes":{"ID":119224,"DIS_CODE":0,"TOWNNAME":"北區","LI":"開元里","LIN":"16鄰","STREET":"北園街","SECT":" ","MAREA":" ","LANE":"８７巷","ALLEY":"１５１弄","HOUSE_NO":"２６號","E_COORD97":170112.35999999999,"N_COORD97":2545929.7799999998,"ADDRESS":"北園街８７巷１５１弄２６號","OBJECTID":119224},"geometry":{"x":170112.36000000127,"y":2545929.7799999993}},{"attributes":{"ID":119225,"DIS_CODE":0,"TOWNNAME":"將軍區","LI":"鯤溟里","LIN":"4鄰","STREET":" ","SECT":" ","MAREA":"鯤溟","LANE":" ","ALLEY":" ","HOUSE_NO":"２５號","E_COORD97":156622.03,"N_COORD97":2565481.0899999999,"ADDRESS":"鯤溟２５號","OBJECTID":119225},"geometry":{"x":156622.03000000119,"y":2565481.0900000036}},{"attributes":{"ID":119226,"DIS_CODE":0,"TOWNNAME":"北區","LI":"開元里","LIN":"16鄰","STREET":"北園街","SECT":" ","MAREA":" ","LANE":"８７巷","ALLEY":"１５１弄","HOUSE_NO":"２８號","E_COORD97":170108.23999999999,"N_COORD97":2545930.3500000001,"ADDRESS":"北園街８７巷１５１弄２８號","OBJECTID":119226},"geometry":{"x":170108.24000000022,"y":2545930.3500000034}},{"attributes":{"ID":119227,"DIS_CODE":0,"TOWNNAME":"北區","LI":"開元里","LIN":"16鄰","STREET":"北園街","SECT":" ","MAREA":" ","LANE":"８７巷","ALLEY":"１５１弄","HOUSE_NO":"２之１號","E_COORD97":170159.66,"N_COORD97":2545942.25,"ADDRESS":"北園街８７巷１５１弄２之１號","OBJECTID":119227},"geometry":{"x":170159.66000000015,"y":2545942.2500000019}},{"attributes":{"ID":119228,"DIS_CODE":0,"TOWNNAME":"北區","LI":"開元里","LIN":"16鄰","STREET":"北園街","SECT":" ","MAREA":" ","LANE":"８７巷","ALLEY":"１５１弄","HOUSE_NO":"２號","E_COORD97":170160.70999999999,"N_COORD97":2545926.3799999999,"ADDRESS":"北園街８７巷１５１弄２號","OBJECTID":119228},"geometry":{"x":170160.70999999996,"y":2545926.3800000008}},{"attributes":{"ID":119229,"DIS_CODE":0,"TOWNNAME":"北區","LI":"開元里","LIN":"16鄰","STREET":"北園街","SECT":" ","MAREA":" ","LANE":"８７巷","ALLEY":"１５１弄","HOUSE_NO":"２號之２","E_COORD97":170159.73999999999,"N_COORD97":2545946.6099999999,"ADDRESS":"北園街８７巷１５１弄２號之２","OBJECTID":119229},"geometry":{"x":170159.74000000209,"y":2545946.6100000013}},{"attributes":{"ID":119230,"DIS_CODE":0,"TOWNNAME":"北區","LI":"開元里","LIN":"16鄰","STREET":"北園街","SECT":" ","MAREA":" ","LANE":"８７巷","ALLEY":"１５１弄","HOUSE_NO":"２號之３","E_COORD97":170159.5,"N_COORD97":2545950.4900000002,"ADDRESS":"北園街８７巷１５１弄２號之３","OBJECTID":119230},"geometry":{"x":170159.50000000186,"y":2545950.4900000039}},{"attributes":{"ID":119231,"DIS_CODE":0,"TOWNNAME":"北區","LI":"開元里","LIN":"16鄰","STREET":"北園街","SECT":" ","MAREA":" ","LANE":"８７巷","ALLEY":"１５１弄","HOUSE_NO":"２號之４","E_COORD97":170159.66,"N_COORD97":2545954.29,"ADDRESS":"北園街８７巷１５１弄２號之４","OBJECTID":119231},"geometry":{"x":170159.66000000015,"y":2545954.290000001}},{"attributes":{"ID":119232,"DIS_CODE":0,"TOWNNAME":"北區","LI":"開元里","LIN":"16鄰","STREET":"北園街","SECT":" ","MAREA":" ","LANE":"８７巷","ALLEY":"１５１弄","HOUSE_NO":"２號之６","E_COORD97":170156.98999999999,"N_COORD97":2545926.71,"ADDRESS":"北園街８７巷１５１弄２號之６","OBJECTID":119232},"geometry":{"x":170156.99000000115,"y":2545926.7100000028}},{"attributes":{"ID":119233,"DIS_CODE":0,"TOWNNAME":"北區","LI":"開元里","LIN":"16鄰","STREET":"北園街","SECT":" ","MAREA":" ","LANE":"８７巷","ALLEY":"１５１弄","HOUSE_NO":"３０號","E_COORD97":170104.76000000001,"N_COORD97":2545930.75,"ADDRESS":"北園街８７巷１５１弄３０號","OBJECTID":119233},"geometry":{"x":170104.75999999885,"y":2545930.75}},{"attributes":{"ID":119234,"DIS_CODE":0,"TOWNNAME":"北區","LI":"開元里","LIN":"16鄰","STREET":"北園街","SECT":" ","MAREA":" ","LANE":"８７巷","ALLEY":"１５１弄","HOUSE_NO":"３２號","E_COORD97":170100.54999999999,"N_COORD97":2545930.6699999999,"ADDRESS":"北園街８７巷１５１弄３２號","OBJECTID":119234},"geometry":{"x":170100.54999999981,"y":2545930.6699999999}},{"attributes":{"ID":119235,"DIS_CODE":0,"TOWNNAME":"北區","LI":"開元里","LIN":"16鄰","STREET":"北園街","SECT":" ","MAREA":" ","LANE":"８７巷","ALLEY":"１５１弄","HOUSE_NO":"３４號","E_COORD97":170096.98999999999,"N_COORD97":2545931.1499999999,"ADDRESS":"北園街８７巷１５１弄３４號","OBJECTID":119235},"geometry":{"x":170096.99000000209,"y":2545931.1500000004}},{"attributes":{"ID":119236,"DIS_CODE":0,"TOWNNAME":"北區","LI":"開元里","LIN":"16鄰","STREET":"北園街","SECT":" ","MAREA":" ","LANE":"８７巷","ALLEY":"１５１弄","HOUSE_NO":"３６號","E_COORD97":170092.78,"N_COORD97":2545931.2400000002,"ADDRESS":"北園街８７巷１５１弄３６號","OBJECTID":119236},"geometry":{"x":170092.78000000026,"y":2545931.2400000002}},{"attributes":{"ID":119237,"DIS_CODE":0,"TOWNNAME":"北區","LI":"開元里","LIN":"16鄰","STREET":"北園街","SECT":" ","MAREA":" ","LANE":"８７巷","ALLEY":"１５１弄","HOUSE_NO":"３８號","E_COORD97":170088.57999999999,"N_COORD97":2545931.3199999998,"ADDRESS":"北園街８７巷１５１弄３８號","OBJECTID":119237},"geometry":{"x":170088.58000000007,"y":2545931.320000004}},{"attributes":{"ID":119238,"DIS_CODE":0,"TOWNNAME":"北區","LI":"開元里","LIN":"16鄰","STREET":"北園街","SECT":" ","MAREA":" ","LANE":"８７巷","ALLEY":"１５１弄","HOUSE_NO":"４０號","E_COORD97":170083.56,"N_COORD97":2545931.96,"ADDRESS":"北園街８７巷１５１弄４０號","OBJECTID":119238},"geometry":{"x":170083.55999999959,"y":2545931.9600000028}},{"attributes":{"ID":119239,"DIS_CODE":0,"TOWNNAME":"北區","LI":"開元里","LIN":"16鄰","STREET":"北園街","SECT":" ","MAREA":" ","LANE":"８７巷","ALLEY":"１５１弄","HOUSE_NO":"６號","E_COORD97":170152.60999999999,"N_COORD97":2545927.0299999998,"ADDRESS":"北園街８７巷１５１弄６號","OBJECTID":119239},"geometry":{"x":170152.61000000127,"y":2545927.0300000012}},{"attributes":{"ID":119240,"DIS_CODE":0,"TOWNNAME":"北區","LI":"開元里","LIN":"16鄰","STREET":"北園街","SECT":" ","MAREA":" ","LANE":"８７巷","ALLEY":"１５１弄","HOUSE_NO":"８號","E_COORD97":170148.23999999999,"N_COORD97":2545927.27,"ADDRESS":"北園街８７巷１５１弄８號","OBJECTID":119240},"geometry":{"x":170148.24000000115,"y":2545927.2700000033}},{"attributes":{"ID":119241,"DIS_CODE":0,"TOWNNAME":"北區","LI":"開元里","LIN":"16鄰","STREET":"北園街","SECT":" ","MAREA":" ","LANE":"８７巷","ALLEY":"１５３弄","HOUSE_NO":"１１號","E_COORD97":170123.57000000001,"N_COORD97":2545958.7400000002,"ADDRESS":"北園街８７巷１５３弄１１號","OBJECTID":119241},"geometry":{"x":170123.57000000216,"y":2545958.7400000039}},{"attributes":{"ID":119242,"DIS_CODE":0,"TOWNNAME":"北區","LI":"開元里","LIN":"16鄰","STREET":"北園街","SECT":" ","MAREA":" ","LANE":"８７巷","ALLEY":"１５３弄","HOUSE_NO":"１３號","E_COORD97":170119.85000000001,"N_COORD97":2545958.8999999999,"ADDRESS":"北園街８７巷１５３弄１３號","OBJECTID":119242},"geometry":{"x":170119.85000000056,"y":2545958.9000000022}},{"attributes":{"ID":119243,"DIS_CODE":0,"TOWNNAME":"北區","LI":"開元里","LIN":"16鄰","STREET":"北園街","SECT":" ","MAREA":" ","LANE":"８７巷","ALLEY":"１５３弄","HOUSE_NO":"１５號","E_COORD97":170115.39999999999,"N_COORD97":2545958.8999999999,"ADDRESS":"北園街８７巷１５３弄１５號","OBJECTID":119243},"geometry":{"x":170115.4000000013,"y":2545958.9000000022}},{"attributes":{"ID":119244,"DIS_CODE":0,"TOWNNAME":"北區","LI":"開元里","LIN":"16鄰","STREET":"北園街","SECT":" ","MAREA":" ","LANE":"８７巷","ALLEY":"１５３弄","HOUSE_NO":"１７號","E_COORD97":170111.26999999999,"N_COORD97":2545959.3100000001,"ADDRESS":"北園街８７巷１５３弄１７號","OBJECTID":119244},"geometry":{"x":170111.27000000142,"y":2545959.3100000024}},{"attributes":{"ID":119245,"DIS_CODE":0,"TOWNNAME":"北區","LI":"開元里","LIN":"16鄰","STREET":"北園街","SECT":" ","MAREA":" ","LANE":"８７巷","ALLEY":"１５３弄","HOUSE_NO":"１９號","E_COORD97":170106.48999999999,"N_COORD97":2545959.6299999999,"ADDRESS":"北園街８７巷１５３弄１９號","OBJECTID":119245},"geometry":{"x":170106.49000000022,"y":2545959.6300000008}},{"attributes":{"ID":119246,"DIS_CODE":0,"TOWNNAME":"北區","LI":"開元里","LIN":"16鄰","STREET":"北園街","SECT":" ","MAREA":" ","LANE":"８７巷","ALLEY":"１５３弄","HOUSE_NO":"１號","E_COORD97":170145.01999999999,"N_COORD97":2545955.9100000001,"ADDRESS":"北園街８７巷１５３弄１號","OBJECTID":119246},"geometry":{"x":170145.01999999955,"y":2545955.9100000001}},{"attributes":{"ID":119247,"DIS_CODE":0,"TOWNNAME":"北區","LI":"開元里","LIN":"16鄰","STREET":"北園街","SECT":" ","MAREA":" ","LANE":"８７巷","ALLEY":"１５３弄","HOUSE_NO":"２１號","E_COORD97":170102.37,"N_COORD97":2545959.71,"ADDRESS":"北園街８７巷１５３弄２１號","OBJECTID":119247},"geometry":{"x":170102.37000000011,"y":2545959.7100000046}},{"attributes":{"ID":119248,"DIS_CODE":0,"TOWNNAME":"北區","LI":"開元里","LIN":"16鄰","STREET":"北園街","SECT":" ","MAREA":" ","LANE":"８７巷","ALLEY":"１５３弄","HOUSE_NO":"２３號","E_COORD97":170098.48000000001,"N_COORD97":2545960.2799999998,"ADDRESS":"北園街８７巷１５３弄２３號","OBJECTID":119248},"geometry":{"x":170098.48000000045,"y":2545960.2799999993}},{"attributes":{"ID":119249,"DIS_CODE":0,"TOWNNAME":"北區","LI":"開元里","LIN":"16鄰","STREET":"北園街","SECT":" ","MAREA":" ","LANE":"８７巷","ALLEY":"１５３弄","HOUSE_NO":"３號","E_COORD97":170141.70000000001,"N_COORD97":2545956.96,"ADDRESS":"北園街８７巷１５３弄３號","OBJECTID":119249},"geometry":{"x":170141.70000000112,"y":2545956.9600000009}},{"attributes":{"ID":119250,"DIS_CODE":0,"TOWNNAME":"北區","LI":"開元里","LIN":"16鄰","STREET":"北園街","SECT":" ","MAREA":" ","LANE":"８７巷","ALLEY":"１５３弄","HOUSE_NO":"５號","E_COORD97":170136.84,"N_COORD97":2545957.5299999998,"ADDRESS":"北園街８７巷１５３弄５號","OBJECTID":119250},"geometry":{"x":170136.84000000078,"y":2545957.5300000012}},{"attributes":{"ID":119251,"DIS_CODE":0,"TOWNNAME":"歸仁區","LI":"南保里","LIN":"35鄰","STREET":"民權八街","SECT":" ","MAREA":" ","LANE":" ","ALLEY":" ","HOUSE_NO":"８１號","E_COORD97":176716.31,"N_COORD97":2541027.25,"ADDRESS":"民權八街８１號","OBJECTID":119251},"geometry":{"x":176716.31000000052,"y":2541027.25}},{"attributes":{"ID":119252,"DIS_CODE":0,"TOWNNAME":"學甲區","LI":"新榮里","LIN":"4鄰","STREET":" ","SECT":" ","MAREA":"東寮","LANE":" ","ALLEY":" ","HOUSE_NO":"３８號之５０","E_COORD97":166735.01000000001,"N_COORD97":2569275.5600000001,"ADDRESS":"東寮３８號之５０","OBJECTID":119252},"geometry":{"x":166735.01000000071,"y":2569275.5600000005}},{"attributes":{"ID":119253,"DIS_CODE":0,"TOWNNAME":"學甲區","LI":"新榮里","LIN":"4鄰","STREET":" ","SECT":" ","MAREA":"東寮","LANE":" ","ALLEY":" ","HOUSE_NO":"３８號之５","E_COORD97":166739.73999999999,"N_COORD97":2569330.1299999999,"ADDRESS":"東寮３８號之５","OBJECTID":119253},"geometry":{"x":166739.74000000022,"y":2569330.129999999}},{"attributes":{"ID":119254,"DIS_CODE":0,"TOWNNAME":"歸仁區","LI":"後市里","LIN":"35鄰","STREET":"中山八街","SECT":" ","MAREA":" ","LANE":" ","ALLEY":" ","HOUSE_NO":"３０號","E_COORD97":177232.42999999999,"N_COORD97":2540978.7400000002,"ADDRESS":"中山八街３０號","OBJECTID":119254},"geometry":{"x":177232.43000000063,"y":2540978.7400000021}},{"attributes":{"ID":119255,"DIS_CODE":0,"TOWNNAME":"歸仁區","LI":"南保里","LIN":"35鄰","STREET":"民權八街","SECT":" ","MAREA":" ","LANE":" ","ALLEY":" ","HOUSE_NO":"５９號","E_COORD97":176731.51000000001,"N_COORD97":2540989.25,"ADDRESS":"民權八街５９號","OBJECTID":119255},"geometry":{"x":176731.51000000071,"y":2540989.2500000019}},{"attributes":{"ID":119256,"DIS_CODE":0,"TOWNNAME":"歸仁區","LI":"後市里","LIN":"35鄰","STREET":"中山八街","SECT":" ","MAREA":" ","LANE":" ","ALLEY":" ","HOUSE_NO":"３４號","E_COORD97":177232.42999999999,"N_COORD97":2540985.7400000002,"ADDRESS":"中山八街３４號","OBJECTID":119256},"geometry":{"x":177232.43000000063,"y":2540985.7400000021}},{"attributes":{"ID":119257,"DIS_CODE":0,"TOWNNAME":"歸仁區","LI":"南保里","LIN":"35鄰","STREET":"民權八街","SECT":" ","MAREA":" ","LANE":" ","ALLEY":" ","HOUSE_NO":"８３號","E_COORD97":176716.31,"N_COORD97":2541031.25,"ADDRESS":"民權八街８３號","OBJECTID":119257},"geometry":{"x":176716.31000000052,"y":2541031.25}},{"attributes":{"ID":119258,"DIS_CODE":0,"TOWNNAME":"歸仁區","LI":"南保里","LIN":"35鄰","STREET":"民權八街","SECT":" ","MAREA":" ","LANE":" ","ALLEY":" ","HOUSE_NO":"６７號","E_COORD97":176714.10999999999,"N_COORD97":2540997.25,"ADDRESS":"民權八街６７號","OBJECTID":119258},"geometry":{"x":176714.11000000034,"y":2540997.25}},{"attributes":{"ID":119259,"DIS_CODE":0,"TOWNNAME":"歸仁區","LI":"後市里","LIN":"35鄰","STREET":"中山八街","SECT":" ","MAREA":" ","LANE":" ","ALLEY":" ","HOUSE_NO":"４２號","E_COORD97":177234.63,"N_COORD97":2541002.7400000002,"ADDRESS":"中山八街４２號","OBJECTID":119259},"geometry":{"x":177234.63000000082,"y":2541002.7400000021}},{"attributes":{"ID":119260,"DIS_CODE":0,"TOWNNAME":"歸仁區","LI":"南興里","LIN":"35鄰","STREET":"民生一街","SECT":" ","MAREA":" ","LANE":" ","ALLEY":" ","HOUSE_NO":"４２號","E_COORD97":176385.01000000001,"N_COORD97":2541020.25,"ADDRESS":"民生一街４２號","OBJECTID":119260},"geometry":{"x":176385.00999999978,"y":2541020.2500000019}},{"attributes":{"ID":119261,"DIS_CODE":0,"TOWNNAME":"歸仁區","LI":"南保里","LIN":"35鄰","STREET":"民權八街","SECT":" ","MAREA":" ","LANE":" ","ALLEY":" ","HOUSE_NO":"５５號","E_COORD97":176746.91,"N_COORD97":2540989.25,"ADDRESS":"民權八街５５號","OBJECTID":119261},"geometry":{"x":176746.91000000015,"y":2540989.2500000019}},{"attributes":{"ID":119262,"DIS_CODE":0,"TOWNNAME":"北區","LI":"開元里","LIN":"16鄰","STREET":"北園街","SECT":" ","MAREA":" ","LANE":"８７巷","ALLEY":"１５３弄","HOUSE_NO":"７號","E_COORD97":170132.31,"N_COORD97":2545958.25,"ADDRESS":"北園街８７巷１５３弄７號","OBJECTID":119262},"geometry":{"x":170132.30999999959,"y":2545958.2499999981}},{"attributes":{"ID":119263,"DIS_CODE":0,"TOWNNAME":"北區","LI":"開元里","LIN":"16鄰","STREET":"北園街","SECT":" ","MAREA":" ","LANE":"８７巷","ALLEY":"１５３弄","HOUSE_NO":"９號","E_COORD97":170128.10999999999,"N_COORD97":2545958.4100000001,"ADDRESS":"北園街８７巷１５３弄９號","OBJECTID":119263},"geometry":{"x":170128.11000000034,"y":2545958.410000002}},{"attributes":{"ID":119264,"DIS_CODE":0,"TOWNNAME":"北區","LI":"開元里","LIN":"16鄰","STREET":"北園街","SECT":" ","MAREA":" ","LANE":"８７巷","ALLEY":"１７１弄","HOUSE_NO":"２５號","E_COORD97":170082.66,"N_COORD97":2545968.6099999999,"ADDRESS":"北園街８７巷１７１弄２５號","OBJECTID":119264},"geometry":{"x":170082.66000000108,"y":2545968.6099999994}},{"attributes":{"ID":119265,"DIS_CODE":0,"TOWNNAME":"北區","LI":"開元里","LIN":"16鄰","STREET":"北園街","SECT":" ","MAREA":" ","LANE":"８７巷","ALLEY":"１７１弄","HOUSE_NO":"２７號","E_COORD97":170080.31,"N_COORD97":2545965.6200000001,"ADDRESS":"北園街８７巷１７１弄２７號","OBJECTID":119265},"geometry":{"x":170080.30999999959,"y":2545965.620000001}},{"attributes":{"ID":119266,"DIS_CODE":0,"TOWNNAME":"北區","LI":"開元里","LIN":"16鄰","STREET":"北園街","SECT":" ","MAREA":" ","LANE":"８７巷","ALLEY":"１７１弄","HOUSE_NO":"２９號","E_COORD97":170078.76999999999,"N_COORD97":2545962.23,"ADDRESS":"北園街８７巷１７１弄２９號","OBJECTID":119266},"geometry":{"x":170078.76999999955,"y":2545962.2299999986}},{"attributes":{"ID":119267,"DIS_CODE":0,"TOWNNAME":"北區","LI":"開元里","LIN":"16鄰","STREET":"北園街","SECT":" ","MAREA":" ","LANE":"８７巷","ALLEY":"１７１弄","HOUSE_NO":"３１號","E_COORD97":170076.42999999999,"N_COORD97":2545959.1499999999,"ADDRESS":"北園街８７巷１７１弄３１號","OBJECTID":119267},"geometry":{"x":170076.43000000156,"y":2545959.1500000004}},{"attributes":{"ID":119268,"DIS_CODE":0,"TOWNNAME":"東區","LI":"裕農里","LIN":"26鄰","STREET":"東寧路","SECT":" ","MAREA":" ","LANE":"５１０巷","ALLEY":"２６弄","HOUSE_NO":"９號","E_COORD97":170982.41,"N_COORD97":2543308.79,"ADDRESS":"東寧路５１０巷２６弄９號","OBJECTID":119268},"geometry":{"x":170982.41000000201,"y":2543308.7899999991}},{"attributes":{"ID":119269,"DIS_CODE":0,"TOWNNAME":"學甲區","LI":"新榮里","LIN":"4鄰","STREET":" ","SECT":" ","MAREA":"東寮","LANE":" ","ALLEY":" ","HOUSE_NO":"３８號之６０","E_COORD97":166667.67000000001,"N_COORD97":2569273.8999999999,"ADDRESS":"東寮３８號之６０","OBJECTID":119269},"geometry":{"x":166667.66999999899,"y":2569273.9000000022}},{"attributes":{"ID":119270,"DIS_CODE":0,"TOWNNAME":"東區","LI":"裕農里","LIN":"24鄰","STREET":"裕農路","SECT":" ","MAREA":" ","LANE":"３８９巷","ALLEY":"１弄","HOUSE_NO":"２號","E_COORD97":171135.35999999999,"N_COORD97":2543169.3900000001,"ADDRESS":"裕農路３８９巷１弄２號","OBJECTID":119270},"geometry":{"x":171135.3600000022,"y":2543169.3900000025}},{"attributes":{"ID":119271,"DIS_CODE":0,"TOWNNAME":"東區","LI":"裕農里","LIN":"24鄰","STREET":"裕農路","SECT":" ","MAREA":" ","LANE":"３８９巷","ALLEY":"１弄","HOUSE_NO":"４號","E_COORD97":171128.48999999999,"N_COORD97":2543169.3900000001,"ADDRESS":"裕農路３８９巷１弄４號","OBJECTID":119271},"geometry":{"x":171128.49000000022,"y":2543169.3900000025}},{"attributes":{"ID":119272,"DIS_CODE":0,"TOWNNAME":"東區","LI":"裕農里","LIN":"24鄰","STREET":"裕農路","SECT":" ","MAREA":" ","LANE":"３８９巷","ALLEY":"１弄","HOUSE_NO":"６號","E_COORD97":171117.38,"N_COORD97":2543166.8999999999,"ADDRESS":"裕農路３８９巷１弄６號","OBJECTID":119272},"geometry":{"x":171117.37999999989,"y":2543166.9000000004}},{"attributes":{"ID":119273,"DIS_CODE":0,"TOWNNAME":"學甲區","LI":"新榮里","LIN":"4鄰","STREET":" ","SECT":" ","MAREA":"東寮","LANE":" ","ALLEY":" ","HOUSE_NO":"３８號之６１","E_COORD97":166663.84,"N_COORD97":2569273.7599999998,"ADDRESS":"東寮３８號之６１","OBJECTID":119273},"geometry":{"x":166663.84000000078,"y":2569273.7600000035}},{"attributes":{"ID":119274,"DIS_CODE":0,"TOWNNAME":"學甲區","LI":"新榮里","LIN":"4鄰","STREET":" ","SECT":" ","MAREA":"東寮","LANE":" ","ALLEY":" ","HOUSE_NO":"３８號之６２","E_COORD97":166659.12,"N_COORD97":2569273.6099999999,"ADDRESS":"東寮３８號之６２","OBJECTID":119274},"geometry":{"x":166659.12000000011,"y":2569273.6099999994}},{"attributes":{"ID":119275,"DIS_CODE":0,"TOWNNAME":"東區","LI":"裕農里","LIN":"24鄰","STREET":"裕農路","SECT":" ","MAREA":" ","LANE":"３８９巷","ALLEY":"１弄","HOUSE_NO":"８號","E_COORD97":171111.34,"N_COORD97":2543166.48,"ADDRESS":"裕農路３８９巷１弄８號","OBJECTID":119275},"geometry":{"x":171111.34000000171,"y":2543166.4800000004}},{"attributes":{"ID":119276,"DIS_CODE":0,"TOWNNAME":"學甲區","LI":"新榮里","LIN":"4鄰","STREET":" ","SECT":" ","MAREA":"東寮","LANE":" ","ALLEY":" ","HOUSE_NO":"３８號之６３","E_COORD97":166654.39999999999,"N_COORD97":2569273.4700000002,"ADDRESS":"東寮３８號之６３","OBJECTID":119276},"geometry":{"x":166654.40000000037,"y":2569273.4700000044}},{"attributes":{"ID":119277,"DIS_CODE":0,"TOWNNAME":"永康區","LI":"中興里","LIN":"14鄰","STREET":"中山東路","SECT":" ","MAREA":" ","LANE":" ","ALLEY":" ","HOUSE_NO":"３６１號","E_COORD97":171931.73000000001,"N_COORD97":2545229.3799999999,"ADDRESS":"中山東路３６１號","OBJECTID":119277},"geometry":{"x":171931.73000000138,"y":2545229.379999999}},{"attributes":{"ID":119278,"DIS_CODE":0,"TOWNNAME":"學甲區","LI":"新榮里","LIN":"4鄰","STREET":" ","SECT":" ","MAREA":"東寮","LANE":" ","ALLEY":" ","HOUSE_NO":"３８號之６４","E_COORD97":166649.67999999999,"N_COORD97":2569273.3300000001,"ADDRESS":"東寮３８號之６４","OBJECTID":119278},"geometry":{"x":166649.6799999997,"y":2569273.3300000001}},{"attributes":{"ID":119279,"DIS_CODE":0,"TOWNNAME":"學甲區","LI":"新榮里","LIN":"4鄰","STREET":" ","SECT":" ","MAREA":"東寮","LANE":" ","ALLEY":" ","HOUSE_NO":"３８號之６５","E_COORD97":166644.95000000001,"N_COORD97":2569273.1800000002,"ADDRESS":"東寮３８號之６５","OBJECTID":119279},"geometry":{"x":166644.95000000019,"y":2569273.1799999997}},{"attributes":{"ID":119280,"DIS_CODE":0,"TOWNNAME":"學甲區","LI":"新榮里","LIN":"4鄰","STREET":" ","SECT":" ","MAREA":"東寮","LANE":" ","ALLEY":" ","HOUSE_NO":"３８號之６６","E_COORD97":166640.23000000001,"N_COORD97":2569273.04,"ADDRESS":"東寮３８號之６６","OBJECTID":119280},"geometry":{"x":166640.23000000045,"y":2569273.0399999991}},{"attributes":{"ID":119281,"DIS_CODE":0,"TOWNNAME":"學甲區","LI":"新榮里","LIN":"4鄰","STREET":" ","SECT":" ","MAREA":"東寮","LANE":" ","ALLEY":" ","HOUSE_NO":"３８號之６７","E_COORD97":166635.51000000001,"N_COORD97":2569272.8900000001,"ADDRESS":"東寮３８號之６７","OBJECTID":119281},"geometry":{"x":166635.51000000071,"y":2569272.8900000006}},{"attributes":{"ID":119282,"DIS_CODE":0,"TOWNNAME":"學甲區","LI":"新榮里","LIN":"4鄰","STREET":" ","SECT":" ","MAREA":"東寮","LANE":" ","ALLEY":" ","HOUSE_NO":"３８號之６８","E_COORD97":166630.89000000001,"N_COORD97":2569272.8500000001,"ADDRESS":"東寮３８號之６８","OBJECTID":119282},"geometry":{"x":166630.8900000006,"y":2569272.8499999978}},{"attributes":{"ID":119283,"DIS_CODE":0,"TOWNNAME":"學甲區","LI":"新榮里","LIN":"4鄰","STREET":" ","SECT":" ","MAREA":"東寮","LANE":" ","ALLEY":" ","HOUSE_NO":"３８號之６９","E_COORD97":166626.16,"N_COORD97":2569272.7000000002,"ADDRESS":"東寮３８號之６９","OBJECTID":119283},"geometry":{"x":166626.16000000108,"y":2569272.6999999993}},{"attributes":{"ID":119284,"DIS_CODE":0,"TOWNNAME":"學甲區","LI":"新榮里","LIN":"4鄰","STREET":" ","SECT":" ","MAREA":"東寮","LANE":" ","ALLEY":" ","HOUSE_NO":"３８號之６","E_COORD97":166735.85000000001,"N_COORD97":2569329.71,"ADDRESS":"東寮３８號之６","OBJECTID":119284},"geometry":{"x":166735.85000000149,"y":2569329.7100000046}},{"attributes":{"ID":119285,"DIS_CODE":0,"TOWNNAME":"學甲區","LI":"新榮里","LIN":"4鄰","STREET":" ","SECT":" ","MAREA":"東寮","LANE":" ","ALLEY":" ","HOUSE_NO":"３８號之７０","E_COORD97":166621.44,"N_COORD97":2569272.5600000001,"ADDRESS":"東寮３８號之７０","OBJECTID":119285},"geometry":{"x":166621.44000000134,"y":2569272.5600000042}},{"attributes":{"ID":119286,"DIS_CODE":0,"TOWNNAME":"學甲區","LI":"新榮里","LIN":"4鄰","STREET":" ","SECT":" ","MAREA":"東寮","LANE":" ","ALLEY":" ","HOUSE_NO":"３８號之７１","E_COORD97":166616.72,"N_COORD97":2569272.4100000001,"ADDRESS":"東寮３８號之７１","OBJECTID":119286},"geometry":{"x":166616.72000000067,"y":2569272.4100000001}},{"attributes":{"ID":119287,"DIS_CODE":0,"TOWNNAME":"學甲區","LI":"新榮里","LIN":"4鄰","STREET":" ","SECT":" ","MAREA":"東寮","LANE":" ","ALLEY":" ","HOUSE_NO":"３８號之７２","E_COORD97":166612,"N_COORD97":2569272.27,"ADDRESS":"東寮３８號之７２","OBJECTID":119287},"geometry":{"x":166612.00000000093,"y":2569272.2699999996}},{"attributes":{"ID":119288,"DIS_CODE":0,"TOWNNAME":"學甲區","LI":"新榮里","LIN":"4鄰","STREET":" ","SECT":" ","MAREA":"東寮","LANE":" ","ALLEY":" ","HOUSE_NO":"３８號之７３","E_COORD97":166607.28,"N_COORD97":2569272.1200000001,"ADDRESS":"東寮３８號之７３","OBJECTID":119288},"geometry":{"x":166607.28000000026,"y":2569272.120000001}},{"attributes":{"ID":119289,"DIS_CODE":0,"TOWNNAME":"東區","LI":"裕農里","LIN":"24鄰","STREET":"裕農路","SECT":" ","MAREA":" ","LANE":"３８９巷","ALLEY":"１弄","HOUSE_NO":"１０號","E_COORD97":171102.60000000001,"N_COORD97":2543165.8599999999,"ADDRESS":"裕農路３８９巷１弄１０號","OBJECTID":119289},"geometry":{"x":171102.60000000149,"y":2543165.8599999994}},{"attributes":{"ID":119290,"DIS_CODE":0,"TOWNNAME":"東區","LI":"裕農里","LIN":"24鄰","STREET":"裕農路","SECT":" ","MAREA":" ","LANE":"３８９巷","ALLEY":"１弄","HOUSE_NO":"１２號","E_COORD97":171094.48000000001,"N_COORD97":2543165.4399999999,"ADDRESS":"裕農路３８９巷１弄１２號","OBJECTID":119290},"geometry":{"x":171094.48000000138,"y":2543165.4399999995}},{"attributes":{"ID":119291,"DIS_CODE":0,"TOWNNAME":"東區","LI":"裕農里","LIN":"24鄰","STREET":"裕農路","SECT":" ","MAREA":" ","LANE":"３８９巷","ALLEY":"１弄","HOUSE_NO":"１號","E_COORD97":171138.07000000001,"N_COORD97":2543146.3799999999,"ADDRESS":"裕農路３８９巷１弄１號","OBJECTID":119291},"geometry":{"x":171138.07000000123,"y":2543146.3800000008}},{"attributes":{"ID":119292,"DIS_CODE":0,"TOWNNAME":"東區","LI":"裕農里","LIN":"25鄰","STREET":"裕農路","SECT":" ","MAREA":" ","LANE":"３８９巷","ALLEY":"３弄","HOUSE_NO":"１號","E_COORD97":171132.16,"N_COORD97":2543185.6099999999,"ADDRESS":"裕農路３８９巷３弄１號","OBJECTID":119292},"geometry":{"x":171132.16000000108,"y":2543185.6100000031}},{"attributes":{"ID":119293,"DIS_CODE":0,"TOWNNAME":"東區","LI":"裕農里","LIN":"25鄰","STREET":"裕農路","SECT":" ","MAREA":" ","LANE":"３８９巷","ALLEY":"３弄","HOUSE_NO":"３號","E_COORD97":171125.09,"N_COORD97":2543185.8199999998,"ADDRESS":"裕農路３８９巷３弄３號","OBJECTID":119293},"geometry":{"x":171125.09000000078,"y":2543185.8200000022}},{"attributes":{"ID":119294,"DIS_CODE":0,"TOWNNAME":"東區","LI":"裕農里","LIN":"25鄰","STREET":"裕農路","SECT":" ","MAREA":" ","LANE":"３８９巷","ALLEY":"３弄","HOUSE_NO":"５號","E_COORD97":171118.01000000001,"N_COORD97":2543186.0299999998,"ADDRESS":"裕農路３８９巷３弄５號","OBJECTID":119294},"geometry":{"x":171118.00999999978,"y":2543186.0300000031}},{"attributes":{"ID":119295,"DIS_CODE":0,"TOWNNAME":"東區","LI":"裕農里","LIN":"25鄰","STREET":"裕農路","SECT":" ","MAREA":" ","LANE":"３８９巷","ALLEY":"３弄","HOUSE_NO":"７號","E_COORD97":171110.29999999999,"N_COORD97":2543184.5699999998,"ADDRESS":"裕農路３８９巷３弄７號","OBJECTID":119295},"geometry":{"x":171110.30000000075,"y":2543184.5700000022}},{"attributes":{"ID":119296,"DIS_CODE":0,"TOWNNAME":"東區","LI":"裕農里","LIN":"24鄰","STREET":"裕農路","SECT":" ","MAREA":" ","LANE":"３８９巷","ALLEY":"１弄","HOUSE_NO":"３號","E_COORD97":171129.12,"N_COORD97":2543145.7599999998,"ADDRESS":"裕農路３８９巷１弄３號","OBJECTID":119296},"geometry":{"x":171129.12000000104,"y":2543145.7600000016}},{"attributes":{"ID":119297,"DIS_CODE":0,"TOWNNAME":"東區","LI":"裕農里","LIN":"24鄰","STREET":"裕農路","SECT":" ","MAREA":" ","LANE":"３８９巷","ALLEY":"１弄","HOUSE_NO":"５號","E_COORD97":171119.54000000001,"N_COORD97":2543141.8100000001,"ADDRESS":"裕農路３８９巷１弄５號","OBJECTID":119297},"geometry":{"x":171119.54000000004,"y":2543141.8100000024}},{"attributes":{"ID":119298,"DIS_CODE":0,"TOWNNAME":"新營區","LI":"民榮里","LIN":"35鄰","STREET":"新進路","SECT":"二段","MAREA":" ","LANE":" ","ALLEY":" ","HOUSE_NO":"４０７之２號","E_COORD97":178668.95000000001,"N_COORD97":2577957.8500000001,"ADDRESS":"新進路二段４０７之２號","OBJECTID":119298},"geometry":{"x":178668.95000000019,"y":2577957.8499999996}},{"attributes":{"ID":119299,"DIS_CODE":0,"TOWNNAME":"學甲區","LI":"新榮里","LIN":"4鄰","STREET":" ","SECT":" ","MAREA":"東寮","LANE":" ","ALLEY":" ","HOUSE_NO":"３８號之７５","E_COORD97":166597.84,"N_COORD97":2569271.8300000001,"ADDRESS":"東寮３８號之７５","OBJECTID":119299},"geometry":{"x":166597.84000000078,"y":2569271.8300000019}},{"attributes":{"ID":119300,"DIS_CODE":0,"TOWNNAME":"永康區","LI":"埔園里","LIN":"35鄰","STREET":"龍埔街","SECT":" ","MAREA":" ","LANE":" ","ALLEY":" ","HOUSE_NO":"３１２號","E_COORD97":174346.57000000001,"N_COORD97":2548289.6299999999,"ADDRESS":"龍埔街３１２號","OBJECTID":119300},"geometry":{"x":174346.57000000123,"y":2548289.629999999}},{"attributes":{"ID":119301,"DIS_CODE":0,"TOWNNAME":"永康區","LI":"埔園里","LIN":"35鄰","STREET":"自強路","SECT":" ","MAREA":" ","LANE":" ","ALLEY":" ","HOUSE_NO":"６７１號","E_COORD97":174313.64000000001,"N_COORD97":2548439.6499999999,"ADDRESS":"自強路６７１號","OBJECTID":119301},"geometry":{"x":174313.6400000006,"y":2548439.6500000004}},{"attributes":{"ID":119302,"DIS_CODE":0,"TOWNNAME":"學甲區","LI":"新榮里","LIN":"4鄰","STREET":" ","SECT":" ","MAREA":"東寮","LANE":" ","ALLEY":" ","HOUSE_NO":"３８號之７","E_COORD97":166731.47,"N_COORD97":2569329.3900000001,"ADDRESS":"東寮３８號之７","OBJECTID":119302},"geometry":{"x":166731.46999999974,"y":2569329.3900000025}},{"attributes":{"ID":119303,"DIS_CODE":0,"TOWNNAME":"柳營區","LI":"八翁里","LIN":"4鄰","STREET":" ","SECT":" ","MAREA":"八老爺","LANE":" ","ALLEY":" ","HOUSE_NO":"３９號之３","E_COORD97":178121.28,"N_COORD97":2574953.1400000001,"ADDRESS":"八老爺３９號之３","OBJECTID":119303},"geometry":{"x":178121.28000000026,"y":2574953.1400000006}},{"attributes":{"ID":119304,"DIS_CODE":0,"TOWNNAME":"永康區","LI":"埔園里","LIN":"35鄰","STREET":"龍埔街","SECT":" ","MAREA":" ","LANE":" ","ALLEY":" ","HOUSE_NO":"３０２號","E_COORD97":174364.29000000001,"N_COORD97":2548295.1800000002,"ADDRESS":"龍埔街３０２號","OBJECTID":119304},"geometry":{"x":174364.29000000004,"y":2548295.1800000016}},{"attributes":{"ID":119305,"DIS_CODE":0,"TOWNNAME":"柳營區","LI":"八翁里","LIN":"4鄰","STREET":" ","SECT":" ","MAREA":"八老爺","LANE":" ","ALLEY":" ","HOUSE_NO":"３９號","E_COORD97":178086.63,"N_COORD97":2574959.3399999999,"ADDRESS":"八老爺３９號","OBJECTID":119305},"geometry":{"x":178086.62999999989,"y":2574959.3400000017}},{"attributes":{"ID":119306,"DIS_CODE":0,"TOWNNAME":"學甲區","LI":"光華里","LIN":"4鄰","STREET":" ","SECT":" ","MAREA":"過港子","LANE":" ","ALLEY":" ","HOUSE_NO":"３２號之１","E_COORD97":164519.20000000001,"N_COORD97":2571619.4199999999,"ADDRESS":"過港子３２號之１","OBJECTID":119306},"geometry":{"x":164519.20000000019,"y":2571619.4200000018}},{"attributes":{"ID":119307,"DIS_CODE":0,"TOWNNAME":"學甲區","LI":"光華里","LIN":"4鄰","STREET":" ","SECT":" ","MAREA":"過港子","LANE":" ","ALLEY":" ","HOUSE_NO":"３２號之２０","E_COORD97":164495.91,"N_COORD97":2571635.6899999999,"ADDRESS":"過港子３２號之２０","OBJECTID":119307},"geometry":{"x":164495.91000000015,"y":2571635.6899999995}},{"attributes":{"ID":119308,"DIS_CODE":0,"TOWNNAME":"學甲區","LI":"光華里","LIN":"4鄰","STREET":" ","SECT":" ","MAREA":"過港子","LANE":" ","ALLEY":" ","HOUSE_NO":"３２號之２","E_COORD97":164522.76000000001,"N_COORD97":2571619.6699999999,"ADDRESS":"過港子３２號之２","OBJECTID":119308},"geometry":{"x":164522.76000000071,"y":2571619.6699999999}},{"attributes":{"ID":119309,"DIS_CODE":0,"TOWNNAME":"學甲區","LI":"光華里","LIN":"4鄰","STREET":" ","SECT":" ","MAREA":"過港子","LANE":" ","ALLEY":" ","HOUSE_NO":"３２號之３","E_COORD97":164526.56,"N_COORD97":2571620.0099999998,"ADDRESS":"過港子３２號之３","OBJECTID":119309},"geometry":{"x":164526.55999999959,"y":2571620.0099999998}},{"attributes":{"ID":119310,"DIS_CODE":0,"TOWNNAME":"學甲區","LI":"光華里","LIN":"4鄰","STREET":" ","SECT":" ","MAREA":"過港子","LANE":" ","ALLEY":" ","HOUSE_NO":"３２號之４","E_COORD97":164530.41,"N_COORD97":2571620.75,"ADDRESS":"過港子３２號之４","OBJECTID":119310},"geometry":{"x":164530.41000000201,"y":2571620.7500000019}},{"attributes":{"ID":119311,"DIS_CODE":0,"TOWNNAME":"學甲區","LI":"光華里","LIN":"4鄰","STREET":" ","SECT":" ","MAREA":"過港子","LANE":" ","ALLEY":" ","HOUSE_NO":"３２號之５","E_COORD97":164534.07000000001,"N_COORD97":2571620.9100000001,"ADDRESS":"過港子３２號之５","OBJECTID":119311},"geometry":{"x":164534.0700000003,"y":2571620.910000002}},{"attributes":{"ID":119312,"DIS_CODE":0,"TOWNNAME":"佳里區","LI":"建南里","LIN":"35鄰","STREET":"公園路","SECT":" ","MAREA":" ","LANE":" ","ALLEY":" ","HOUSE_NO":"３０９號","E_COORD97":165244.66,"N_COORD97":2562130.6099999999,"ADDRESS":"公園路３０９號","OBJECTID":119312},"geometry":{"x":165244.66000000108,"y":2562130.6099999994}},{"attributes":{"ID":119313,"DIS_CODE":0,"TOWNNAME":"學甲區","LI":"光華里","LIN":"4鄰","STREET":" ","SECT":" ","MAREA":"過港子","LANE":" ","ALLEY":" ","HOUSE_NO":"３２號之７","E_COORD97":164528.29999999999,"N_COORD97":2571631.1899999999,"ADDRESS":"過港子３２號之７","OBJECTID":119313},"geometry":{"x":164528.29999999981,"y":2571631.1900000013}},{"attributes":{"ID":119314,"DIS_CODE":0,"TOWNNAME":"學甲區","LI":"光華里","LIN":"4鄰","STREET":" ","SECT":" ","MAREA":"過港子","LANE":" ","ALLEY":" ","HOUSE_NO":"３２號之８","E_COORD97":164527.57000000001,"N_COORD97":2571635.2999999998,"ADDRESS":"過港子３２號之８","OBJECTID":119314},"geometry":{"x":164527.5700000003,"y":2571635.3000000026}},{"attributes":{"ID":119315,"DIS_CODE":0,"TOWNNAME":"學甲區","LI":"光華里","LIN":"4鄰","STREET":" ","SECT":" ","MAREA":"過港子","LANE":" ","ALLEY":" ","HOUSE_NO":"３２號之９","E_COORD97":164527.19,"N_COORD97":2571639.5899999999,"ADDRESS":"過港子３２號之９","OBJECTID":119315},"geometry":{"x":164527.19000000227,"y":2571639.5900000017}},{"attributes":{"ID":119316,"DIS_CODE":0,"TOWNNAME":"麻豆區","LI":"謝安里","LIN":"4鄰","STREET":" ","SECT":" ","MAREA":"謝厝寮","LANE":" ","ALLEY":" ","HOUSE_NO":"４３號","E_COORD97":171905.32000000001,"N_COORD97":2561139.04,"ADDRESS":"謝厝寮４３號","OBJECTID":119316},"geometry":{"x":171905.32000000216,"y":2561139.040000001}},{"attributes":{"ID":119317,"DIS_CODE":0,"TOWNNAME":"下營區","LI":"西連里","LIN":"4鄰","STREET":" ","SECT":" ","MAREA":"連表","LANE":" ","ALLEY":" ","HOUSE_NO":"３５號之１９","E_COORD97":175041.03,"N_COORD97":2568407.7599999998,"ADDRESS":"連表３５號之１９","OBJECTID":119317},"geometry":{"x":175041.03000000026,"y":2568407.7599999998}},{"attributes":{"ID":119318,"DIS_CODE":0,"TOWNNAME":"下營區","LI":"西連里","LIN":"4鄰","STREET":" ","SECT":" ","MAREA":"連表","LANE":" ","ALLEY":" ","HOUSE_NO":"３５號之２０","E_COORD97":175019.60999999999,"N_COORD97":2568107.6000000001,"ADDRESS":"連表３５號之２０","OBJECTID":119318},"geometry":{"x":175019.61000000127,"y":2568107.5999999996}},{"attributes":{"ID":119319,"DIS_CODE":0,"TOWNNAME":"下營區","LI":"西連里","LIN":"4鄰","STREET":" ","SECT":" ","MAREA":"連表","LANE":" ","ALLEY":" ","HOUSE_NO":"３５號之２１","E_COORD97":174872.39000000001,"N_COORD97":2568601.2799999998,"ADDRESS":"連表３５號之２１","OBJECTID":119319},"geometry":{"x":174872.39000000153,"y":2568601.2799999993}},{"attributes":{"ID":119320,"DIS_CODE":0,"TOWNNAME":"下營區","LI":"西連里","LIN":"4鄰","STREET":" ","SECT":" ","MAREA":"連表","LANE":" ","ALLEY":" ","HOUSE_NO":"３５號之２５","E_COORD97":174796.04999999999,"N_COORD97":2568589.2000000002,"ADDRESS":"連表３５號之２５","OBJECTID":119320},"geometry":{"x":174796.04999999981,"y":2568589.2000000011}},{"attributes":{"ID":119321,"DIS_CODE":0,"TOWNNAME":"下營區","LI":"西連里","LIN":"4鄰","STREET":" ","SECT":" ","MAREA":"連表","LANE":" ","ALLEY":" ","HOUSE_NO":"３５號之２８","E_COORD97":174687.54999999999,"N_COORD97":2568571.3599999999,"ADDRESS":"連表３５號之２８","OBJECTID":119321},"geometry":{"x":174687.54999999981,"y":2568571.3600000013}},{"attributes":{"ID":119322,"DIS_CODE":0,"TOWNNAME":"下營區","LI":"西連里","LIN":"4鄰","STREET":" ","SECT":" ","MAREA":"連表","LANE":" ","ALLEY":" ","HOUSE_NO":"３５之４３號","E_COORD97":174611.97,"N_COORD97":2568750.6499999999,"ADDRESS":"連表３５之４３號","OBJECTID":119322},"geometry":{"x":174611.96999999974,"y":2568750.6500000022}},{"attributes":{"ID":119323,"DIS_CODE":0,"TOWNNAME":"下營區","LI":"西連里","LIN":"4鄰","STREET":" ","SECT":" ","MAREA":"連表","LANE":" ","ALLEY":" ","HOUSE_NO":"３５號","E_COORD97":174932.35000000001,"N_COORD97":2567901.6800000002,"ADDRESS":"連表３５號","OBJECTID":119323},"geometry":{"x":174932.35000000056,"y":2567901.6800000016}},{"attributes":{"ID":119324,"DIS_CODE":0,"TOWNNAME":"下營區","LI":"西連里","LIN":"4鄰","STREET":" ","SECT":" ","MAREA":"連表","LANE":" ","ALLEY":" ","HOUSE_NO":"３６號之１","E_COORD97":174927.56,"N_COORD97":2567934.4700000002,"ADDRESS":"連表３６號之１","OBJECTID":119324},"geometry":{"x":174927.56000000052,"y":2567934.4700000025}},{"attributes":{"ID":119325,"DIS_CODE":0,"TOWNNAME":"永康區","LI":"埔園里","LIN":"35鄰","STREET":"龍埔街","SECT":" ","MAREA":" ","LANE":" ","ALLEY":" ","HOUSE_NO":"３３８號","E_COORD97":174292.48000000001,"N_COORD97":2548293.2400000002,"ADDRESS":"龍埔街３３８號","OBJECTID":119325},"geometry":{"x":174292.48000000045,"y":2548293.2400000002}},{"attributes":{"ID":119326,"DIS_CODE":0,"TOWNNAME":"下營區","LI":"西連里","LIN":"4鄰","STREET":" ","SECT":" ","MAREA":"連表","LANE":" ","ALLEY":" ","HOUSE_NO":"３６號","E_COORD97":174900.53,"N_COORD97":2567896.3300000001,"ADDRESS":"連表３６號","OBJECTID":119326},"geometry":{"x":174900.53000000026,"y":2567896.3300000001}},{"attributes":{"ID":119327,"DIS_CODE":0,"TOWNNAME":"下營區","LI":"西連里","LIN":"4鄰","STREET":" ","SECT":" ","MAREA":"連表","LANE":" ","ALLEY":" ","HOUSE_NO":"３８號之２","E_COORD97":174877.48999999999,"N_COORD97":2567903.04,"ADDRESS":"連表３８號之２","OBJECTID":119327},"geometry":{"x":174877.49000000209,"y":2567903.040000001}},{"attributes":{"ID":119328,"DIS_CODE":0,"TOWNNAME":"下營區","LI":"西連里","LIN":"4鄰","STREET":" ","SECT":" ","MAREA":"連表","LANE":" ","ALLEY":" ","HOUSE_NO":"４１號之２０","E_COORD97":174829.32000000001,"N_COORD97":2568020.5499999998,"ADDRESS":"連表４１號之２０","OBJECTID":119328},"geometry":{"x":174829.3200000003,"y":2568020.5500000007}},{"attributes":{"ID":119329,"DIS_CODE":0,"TOWNNAME":"下營區","LI":"西連里","LIN":"4鄰","STREET":" ","SECT":" ","MAREA":"連表","LANE":" ","ALLEY":" ","HOUSE_NO":"４１號之２３","E_COORD97":174916.60000000001,"N_COORD97":2567989.8300000001,"ADDRESS":"連表４１號之２３","OBJECTID":119329},"geometry":{"x":174916.5999999987,"y":2567989.8300000019}},{"attributes":{"ID":119330,"DIS_CODE":0,"TOWNNAME":"下營區","LI":"賀建里","LIN":"4鄰","STREET":" ","SECT":" ","MAREA":"麻豆寮","LANE":" ","ALLEY":" ","HOUSE_NO":"４５號之１","E_COORD97":177906.42000000001,"N_COORD97":2572777.2400000002,"ADDRESS":"麻豆寮４５號之１","OBJECTID":119330},"geometry":{"x":177906.41999999993,"y":2572777.2400000021}},{"attributes":{"ID":119331,"DIS_CODE":0,"TOWNNAME":"下營區","LI":"賀建里","LIN":"4鄰","STREET":" ","SECT":" ","MAREA":"麻豆寮","LANE":" ","ALLEY":" ","HOUSE_NO":"４５號之２１","E_COORD97":177905.51000000001,"N_COORD97":2573196.79,"ADDRESS":"麻豆寮４５號之２１","OBJECTID":119331},"geometry":{"x":177905.50999999978,"y":2573196.790000001}},{"attributes":{"ID":119332,"DIS_CODE":0,"TOWNNAME":"東區","LI":"裕農里","LIN":"24鄰","STREET":"裕農路","SECT":" ","MAREA":" ","LANE":"３８９巷","ALLEY":"１弄","HOUSE_NO":"７號","E_COORD97":171110.59,"N_COORD97":2543140.77,"ADDRESS":"裕農路３８９巷１弄７號","OBJECTID":119332},"geometry":{"x":171110.58999999985,"y":2543140.7700000014}},{"attributes":{"ID":119333,"DIS_CODE":0,"TOWNNAME":"東區","LI":"裕農里","LIN":"26鄰","STREET":"東寧路","SECT":" ","MAREA":" ","LANE":"５１０巷","ALLEY":"２６弄","HOUSE_NO":"１號","E_COORD97":170986.70000000001,"N_COORD97":2543286.6899999999,"ADDRESS":"東寧路５１０巷２６弄１號","OBJECTID":119333},"geometry":{"x":170986.70000000019,"y":2543286.6900000032}},{"attributes":{"ID":119334,"DIS_CODE":0,"TOWNNAME":"東區","LI":"裕農里","LIN":"25鄰","STREET":"裕農路","SECT":" ","MAREA":" ","LANE":"３８９巷","ALLEY":"３弄","HOUSE_NO":"９號","E_COORD97":171100.31,"N_COORD97":2543185.3999999999,"ADDRESS":"裕農路３８９巷３弄９號","OBJECTID":119334},"geometry":{"x":171100.30999999959,"y":2543185.4000000022}},{"attributes":{"ID":119335,"DIS_CODE":0,"TOWNNAME":"東區","LI":"裕農里","LIN":"25鄰","STREET":"裕農路","SECT":" ","MAREA":" ","LANE":"３８９巷","ALLEY":"３弄","HOUSE_NO":"１１號","E_COORD97":171095.10000000001,"N_COORD97":2543183.9500000002,"ADDRESS":"裕農路３８９巷３弄１１號","OBJECTID":119335},"geometry":{"x":171095.09999999963,"y":2543183.9500000011}},{"attributes":{"ID":119336,"DIS_CODE":0,"TOWNNAME":"下營區","LI":"賀建里","LIN":"4鄰","STREET":" ","SECT":" ","MAREA":"麻豆寮","LANE":" ","ALLEY":" ","HOUSE_NO":"４５號之２","E_COORD97":177981.73000000001,"N_COORD97":2572770.0499999998,"ADDRESS":"麻豆寮４５號之２","OBJECTID":119336},"geometry":{"x":177981.73000000138,"y":2572770.0500000007}},{"attributes":{"ID":119337,"DIS_CODE":0,"TOWNNAME":"下營區","LI":"賀建里","LIN":"4鄰","STREET":" ","SECT":" ","MAREA":"麻豆寮","LANE":" ","ALLEY":" ","HOUSE_NO":"４５號之３","E_COORD97":178048.54999999999,"N_COORD97":2572752.1299999999,"ADDRESS":"麻豆寮４５號之３","OBJECTID":119337},"geometry":{"x":178048.55000000075,"y":2572752.1299999971}},{"attributes":{"ID":119338,"DIS_CODE":0,"TOWNNAME":"下營區","LI":"賀建里","LIN":"4鄰","STREET":" ","SECT":" ","MAREA":"麻豆寮","LANE":" ","ALLEY":" ","HOUSE_NO":"４５號之７","E_COORD97":177967.5,"N_COORD97":2573597.2799999998,"ADDRESS":"麻豆寮４５號之７","OBJECTID":119338},"geometry":{"x":177967.50000000186,"y":2573597.2800000012}},{"attributes":{"ID":119339,"DIS_CODE":0,"TOWNNAME":"下營區","LI":"賀建里","LIN":"4鄰","STREET":" ","SECT":" ","MAREA":"麻豆寮","LANE":" ","ALLEY":" ","HOUSE_NO":"４５號之８","E_COORD97":178160.78,"N_COORD97":2572744.6299999999,"ADDRESS":"麻豆寮４５號之８","OBJECTID":119339},"geometry":{"x":178160.78000000212,"y":2572744.629999999}},{"attributes":{"ID":119340,"DIS_CODE":0,"TOWNNAME":"東區","LI":"裕農里","LIN":"25鄰","STREET":"裕農路","SECT":" ","MAREA":" ","LANE":"３８９巷","ALLEY":"３弄","HOUSE_NO":"１３號","E_COORD97":171088.44,"N_COORD97":2543183.1200000001,"ADDRESS":"裕農路３８９巷３弄１３號","OBJECTID":119340},"geometry":{"x":171088.44000000041,"y":2543183.120000001}},{"attributes":{"ID":119341,"DIS_CODE":0,"TOWNNAME":"東區","LI":"裕農里","LIN":"25鄰","STREET":"裕農路","SECT":" ","MAREA":" ","LANE":"３８９巷","ALLEY":"３弄","HOUSE_NO":"１５號","E_COORD97":171080.53,"N_COORD97":2543183.5299999998,"ADDRESS":"裕農路３８９巷３弄１５號","OBJECTID":119341},"geometry":{"x":171080.53000000119,"y":2543183.5300000012}},{"attributes":{"ID":119342,"DIS_CODE":0,"TOWNNAME":"東區","LI":"裕農里","LIN":"25鄰","STREET":"裕農路","SECT":" ","MAREA":" ","LANE":"３８９巷","ALLEY":"３弄","HOUSE_NO":"１７號","E_COORD97":171070.95000000001,"N_COORD97":2543183.1200000001,"ADDRESS":"裕農路３８９巷３弄１７號","OBJECTID":119342},"geometry":{"x":171070.95000000112,"y":2543183.120000001}},{"attributes":{"ID":119343,"DIS_CODE":0,"TOWNNAME":"東區","LI":"裕農里","LIN":"25鄰","STREET":"裕農路","SECT":" ","MAREA":" ","LANE":"３８９巷","ALLEY":"３弄","HOUSE_NO":"１９號","E_COORD97":171059.91,"N_COORD97":2543181.4500000002,"ADDRESS":"裕農路３８９巷３弄１９號","OBJECTID":119343},"geometry":{"x":171059.91000000015,"y":2543181.4499999993}},{"attributes":{"ID":119344,"DIS_CODE":0,"TOWNNAME":"東區","LI":"裕農里","LIN":"26鄰","STREET":"東寧路","SECT":" ","MAREA":" ","LANE":"５１０巷","ALLEY":"２６弄","HOUSE_NO":"４號","E_COORD97":171005.53,"N_COORD97":2543293.6200000001,"ADDRESS":"東寧路５１０巷２６弄４號","OBJECTID":119344},"geometry":{"x":171005.53000000119,"y":2543293.6200000029}},{"attributes":{"ID":119345,"DIS_CODE":0,"TOWNNAME":"下營區","LI":"賀建里","LIN":"4鄰","STREET":" ","SECT":" ","MAREA":"麻豆寮","LANE":" ","ALLEY":" ","HOUSE_NO":"４５號之９","E_COORD97":177906.56,"N_COORD97":2572804.6699999999,"ADDRESS":"麻豆寮４５號之９","OBJECTID":119345},"geometry":{"x":177906.55999999959,"y":2572804.6700000018}},{"attributes":{"ID":119346,"DIS_CODE":0,"TOWNNAME":"東區","LI":"裕農里","LIN":"26鄰","STREET":"東寧路","SECT":" ","MAREA":" ","LANE":"５１０巷","ALLEY":"２６弄","HOUSE_NO":"５號","E_COORD97":170985.70999999999,"N_COORD97":2543297.5699999998,"ADDRESS":"東寧路５１０巷２６弄５號","OBJECTID":119346},"geometry":{"x":170985.71000000089,"y":2543297.5700000003}},{"attributes":{"ID":119347,"DIS_CODE":0,"TOWNNAME":"鹽水區","LI":"岸內里","LIN":"16鄰","STREET":"北門路","SECT":" ","MAREA":" ","LANE":"１巷","ALLEY":"３弄","HOUSE_NO":"１１號","E_COORD97":174975.01999999999,"N_COORD97":2580397.8900000001,"ADDRESS":"北門路１巷３弄１１號","OBJECTID":119347},"geometry":{"x":174975.02000000048,"y":2580397.8900000025}},{"attributes":{"ID":119348,"DIS_CODE":0,"TOWNNAME":"鹽水區","LI":"岸內里","LIN":"16鄰","STREET":"北門路","SECT":" ","MAREA":" ","LANE":"１巷","ALLEY":"３弄","HOUSE_NO":"１３號","E_COORD97":174975.26999999999,"N_COORD97":2580393.4399999999,"ADDRESS":"北門路１巷３弄１３號","OBJECTID":119348},"geometry":{"x":174975.27000000048,"y":2580393.4400000013}},{"attributes":{"ID":119349,"DIS_CODE":0,"TOWNNAME":"鹽水區","LI":"岸內里","LIN":"16鄰","STREET":"北門路","SECT":" ","MAREA":" ","LANE":"１巷","ALLEY":"３弄","HOUSE_NO":"１４號","E_COORD97":174997.12,"N_COORD97":2580394.9900000002,"ADDRESS":"北門路１巷３弄１４號","OBJECTID":119349},"geometry":{"x":174997.12000000104,"y":2580394.9900000002}},{"attributes":{"ID":119350,"DIS_CODE":0,"TOWNNAME":"鹽水區","LI":"岸內里","LIN":"16鄰","STREET":"北門路","SECT":" ","MAREA":" ","LANE":"１巷","ALLEY":"３弄","HOUSE_NO":"１５號","E_COORD97":174975.64999999999,"N_COORD97":2580389.4100000001,"ADDRESS":"北門路１巷３弄１５號","OBJECTID":119350},"geometry":{"x":174975.65000000037,"y":2580389.4100000001}},{"attributes":{"ID":119351,"DIS_CODE":0,"TOWNNAME":"下營區","LI":"賀建里","LIN":"4鄰","STREET":" ","SECT":" ","MAREA":"麻豆寮","LANE":" ","ALLEY":" ","HOUSE_NO":"４５號","E_COORD97":177847.73000000001,"N_COORD97":2572737.1299999999,"ADDRESS":"麻豆寮４５號","OBJECTID":119351},"geometry":{"x":177847.73000000231,"y":2572737.129999999}},{"attributes":{"ID":119352,"DIS_CODE":0,"TOWNNAME":"鹽水區","LI":"岸內里","LIN":"16鄰","STREET":"北門路","SECT":" ","MAREA":" ","LANE":"１巷","ALLEY":"３弄","HOUSE_NO":"１６號","E_COORD97":174997.51000000001,"N_COORD97":2580390.9700000002,"ADDRESS":"北門路１巷３弄１６號","OBJECTID":119352},"geometry":{"x":174997.51000000071,"y":2580390.9700000025}},{"attributes":{"ID":119353,"DIS_CODE":0,"TOWNNAME":"鹽水區","LI":"岸內里","LIN":"16鄰","STREET":"北門路","SECT":" ","MAREA":" ","LANE":"１巷","ALLEY":"３弄","HOUSE_NO":"１７號","E_COORD97":174975.73999999999,"N_COORD97":2580385.1899999999,"ADDRESS":"北門路１巷３弄１７號","OBJECTID":119353},"geometry":{"x":174975.74000000209,"y":2580385.1900000013}},{"attributes":{"ID":119354,"DIS_CODE":0,"TOWNNAME":"鹽水區","LI":"岸內里","LIN":"16鄰","STREET":"北門路","SECT":" ","MAREA":" ","LANE":"１巷","ALLEY":"３弄","HOUSE_NO":"１８號","E_COORD97":174997.73000000001,"N_COORD97":2580386.8300000001,"ADDRESS":"北門路１巷３弄１８號","OBJECTID":119354},"geometry":{"x":174997.73000000045,"y":2580386.8300000001}},{"attributes":{"ID":119355,"DIS_CODE":0,"TOWNNAME":"永康區","LI":"埔園里","LIN":"35鄰","STREET":"龍埔街","SECT":" ","MAREA":" ","LANE":" ","ALLEY":" ","HOUSE_NO":"３３２號","E_COORD97":174304.37,"N_COORD97":2548297.73,"ADDRESS":"龍埔街３３２號","OBJECTID":119355},"geometry":{"x":174304.37000000011,"y":2548297.7300000004}},{"attributes":{"ID":119356,"DIS_CODE":0,"TOWNNAME":"柳營區","LI":"神農里","LIN":"4鄰","STREET":" ","SECT":" ","MAREA":"果毅後","LANE":" ","ALLEY":" ","HOUSE_NO":"２６６號之３","E_COORD97":185100.54999999999,"N_COORD97":2572806.4900000002,"ADDRESS":"果毅後２６６號之３","OBJECTID":119356},"geometry":{"x":185100.55000000075,"y":2572806.4900000021}},{"attributes":{"ID":119357,"DIS_CODE":0,"TOWNNAME":"柳營區","LI":"神農里","LIN":"4鄰","STREET":" ","SECT":" ","MAREA":"果毅後","LANE":" ","ALLEY":" ","HOUSE_NO":"２６６號之４","E_COORD97":185093.48000000001,"N_COORD97":2572807.8199999998,"ADDRESS":"果毅後２６６號之４","OBJECTID":119357},"geometry":{"x":185093.48000000138,"y":2572807.8200000022}},{"attributes":{"ID":119358,"DIS_CODE":0,"TOWNNAME":"永康區","LI":"永康里","LIN":"35鄰","STREET":"大同街","SECT":" ","MAREA":" ","LANE":" ","ALLEY":" ","HOUSE_NO":"９１２號","E_COORD97":174454.37,"N_COORD97":2546968.6200000001,"ADDRESS":"大同街９１２號","OBJECTID":119358},"geometry":{"x":174454.37000000197,"y":2546968.6200000029}},{"attributes":{"ID":119359,"DIS_CODE":0,"TOWNNAME":"永康區","LI":"永康里","LIN":"35鄰","STREET":"大同街","SECT":" ","MAREA":" ","LANE":" ","ALLEY":" ","HOUSE_NO":"９５８號","E_COORD97":174414.35999999999,"N_COORD97":2547056.4399999999,"ADDRESS":"大同街９５８號","OBJECTID":119359},"geometry":{"x":174414.36000000127,"y":2547056.4400000013}},{"attributes":{"ID":119360,"DIS_CODE":0,"TOWNNAME":"永康區","LI":"永康里","LIN":"35鄰","STREET":"大同街","SECT":" ","MAREA":" ","LANE":" ","ALLEY":" ","HOUSE_NO":"９１８號","E_COORD97":174447.41,"N_COORD97":2546977.1099999999,"ADDRESS":"大同街９１８號","OBJECTID":119360},"geometry":{"x":174447.41000000201,"y":2546977.1100000013}},{"attributes":{"ID":119361,"DIS_CODE":0,"TOWNNAME":"東區","LI":"裕聖里","LIN":"12鄰","STREET":"裕文路","SECT":" ","MAREA":" ","LANE":" ","ALLEY":" ","HOUSE_NO":"１５６號","E_COORD97":172458.20999999999,"N_COORD97":2542510.4900000002,"ADDRESS":"裕文路１５６號","OBJECTID":119361},"geometry":{"x":172458.20999999903,"y":2542510.4900000021}},{"attributes":{"ID":119362,"DIS_CODE":0,"TOWNNAME":"鹽水區","LI":"岸內里","LIN":"16鄰","STREET":"北門路","SECT":" ","MAREA":" ","LANE":"１巷","ALLEY":"３弄","HOUSE_NO":"１９號","E_COORD97":174976.07000000001,"N_COORD97":2580381.4300000002,"ADDRESS":"北門路１巷３弄１９號","OBJECTID":119362},"geometry":{"x":174976.07000000123,"y":2580381.4299999997}},{"attributes":{"ID":119363,"DIS_CODE":0,"TOWNNAME":"鹽水區","LI":"岸內里","LIN":"16鄰","STREET":"北門路","SECT":" ","MAREA":" ","LANE":"１巷","ALLEY":"３弄","HOUSE_NO":"１號","E_COORD97":175035.78,"N_COORD97":2580418.5499999998,"ADDRESS":"北門路１巷３弄１號","OBJECTID":119363},"geometry":{"x":175035.78000000026,"y":2580418.5500000026}},{"attributes":{"ID":119364,"DIS_CODE":0,"TOWNNAME":"鹽水區","LI":"岸內里","LIN":"16鄰","STREET":"北門路","SECT":" ","MAREA":" ","LANE":"１巷","ALLEY":"３弄","HOUSE_NO":"２０號","E_COORD97":174997.91,"N_COORD97":2580382.75,"ADDRESS":"北門路１巷３弄２０號","OBJECTID":119364},"geometry":{"x":174997.91000000015,"y":2580382.75}},{"attributes":{"ID":119365,"DIS_CODE":0,"TOWNNAME":"鹽水區","LI":"岸內里","LIN":"16鄰","STREET":"北門路","SECT":" ","MAREA":" ","LANE":"１巷","ALLEY":"３弄","HOUSE_NO":"２１號","E_COORD97":174976.20999999999,"N_COORD97":2580377.5,"ADDRESS":"北門路１巷３弄２１號","OBJECTID":119365},"geometry":{"x":174976.21000000089,"y":2580377.5000000019}},{"attributes":{"ID":119366,"DIS_CODE":0,"TOWNNAME":"鹽水區","LI":"岸內里","LIN":"16鄰","STREET":"北門路","SECT":" ","MAREA":" ","LANE":"１巷","ALLEY":"３弄","HOUSE_NO":"２２號","E_COORD97":174998.10000000001,"N_COORD97":2580378.8900000001,"ADDRESS":"北門路１巷３弄２２號","OBJECTID":119366},"geometry":{"x":174998.10000000149,"y":2580378.8900000025}},{"attributes":{"ID":119367,"DIS_CODE":0,"TOWNNAME":"東區","LI":"大智里","LIN":"4鄰","STREET":"生產路","SECT":" ","MAREA":" ","LANE":" ","ALLEY":" ","HOUSE_NO":"５１６號","E_COORD97":171024.39999999999,"N_COORD97":2540617.6899999999,"ADDRESS":"生產路５１６號","OBJECTID":119367},"geometry":{"x":171024.40000000037,"y":2540617.6899999995}},{"attributes":{"ID":119368,"DIS_CODE":0,"TOWNNAME":"東區","LI":"大福里","LIN":"4鄰","STREET":"立德二路","SECT":" ","MAREA":" ","LANE":" ","ALLEY":" ","HOUSE_NO":"２４號","E_COORD97":169507.06,"N_COORD97":2541722.04,"ADDRESS":"立德二路２４號","OBJECTID":119368},"geometry":{"x":169507.05999999959,"y":2541722.040000001}},{"attributes":{"ID":119369,"DIS_CODE":0,"TOWNNAME":"鹽水區","LI":"岸內里","LIN":"16鄰","STREET":"北門路","SECT":" ","MAREA":" ","LANE":"１巷","ALLEY":"３弄","HOUSE_NO":"２３號","E_COORD97":174976.32999999999,"N_COORD97":2580373.4100000001,"ADDRESS":"北門路１巷３弄２３號","OBJECTID":119369},"geometry":{"x":174976.33000000007,"y":2580373.4100000039}},{"attributes":{"ID":119370,"DIS_CODE":0,"TOWNNAME":"鹽水區","LI":"岸內里","LIN":"16鄰","STREET":"北門路","SECT":" ","MAREA":" ","LANE":"１巷","ALLEY":"３弄","HOUSE_NO":"２４號","E_COORD97":174998.41,"N_COORD97":2580374.3900000001,"ADDRESS":"北門路１巷３弄２４號","OBJECTID":119370},"geometry":{"x":174998.41000000108,"y":2580374.3900000025}},{"attributes":{"ID":119371,"DIS_CODE":0,"TOWNNAME":"鹽水區","LI":"岸內里","LIN":"16鄰","STREET":"北門路","SECT":" ","MAREA":" ","LANE":"１巷","ALLEY":"３弄","HOUSE_NO":"２５號","E_COORD97":174976.42000000001,"N_COORD97":2580369.1299999999,"ADDRESS":"北門路１巷３弄２５號","OBJECTID":119371},"geometry":{"x":174976.42000000086,"y":2580369.129999999}},{"attributes":{"ID":119372,"DIS_CODE":0,"TOWNNAME":"鹽水區","LI":"岸內里","LIN":"16鄰","STREET":"北門路","SECT":" ","MAREA":" ","LANE":"１巷","ALLEY":"３弄","HOUSE_NO":"２６號","E_COORD97":174998.63,"N_COORD97":2580370.25,"ADDRESS":"北門路１巷３弄２６號","OBJECTID":119372},"geometry":{"x":174998.63000000082,"y":2580370.25}},{"attributes":{"ID":119373,"DIS_CODE":0,"TOWNNAME":"鹽水區","LI":"岸內里","LIN":"16鄰","STREET":"北門路","SECT":" ","MAREA":" ","LANE":"１巷","ALLEY":"３弄","HOUSE_NO":"２號","E_COORD97":175030.98999999999,"N_COORD97":2580418.27,"ADDRESS":"北門路１巷３弄２號","OBJECTID":119373},"geometry":{"x":175030.99000000022,"y":2580418.2700000014}},{"attributes":{"ID":119374,"DIS_CODE":0,"TOWNNAME":"鹽水區","LI":"岸內里","LIN":"16鄰","STREET":"北門路","SECT":" ","MAREA":" ","LANE":"１巷","ALLEY":"３弄","HOUSE_NO":"３號","E_COORD97":175026.70999999999,"N_COORD97":2580418.1499999999,"ADDRESS":"北門路１巷３弄３號","OBJECTID":119374},"geometry":{"x":175026.71000000089,"y":2580418.1500000004}},{"attributes":{"ID":119375,"DIS_CODE":0,"TOWNNAME":"鹽水區","LI":"岸內里","LIN":"16鄰","STREET":"北門路","SECT":" ","MAREA":" ","LANE":"１巷","ALLEY":"３弄","HOUSE_NO":"５號","E_COORD97":175021.75,"N_COORD97":2580417.98,"ADDRESS":"北門路１巷３弄５號","OBJECTID":119375},"geometry":{"x":175021.75000000093,"y":2580417.9800000023}},{"attributes":{"ID":119376,"DIS_CODE":0,"TOWNNAME":"鹽水區","LI":"岸內里","LIN":"16鄰","STREET":"北門路","SECT":" ","MAREA":" ","LANE":"１巷","ALLEY":"３弄","HOUSE_NO":"６號","E_COORD97":175016.92999999999,"N_COORD97":2580417.6400000001,"ADDRESS":"北門路１巷３弄６號","OBJECTID":119376},"geometry":{"x":175016.93000000063,"y":2580417.6400000025}},{"attributes":{"ID":119377,"DIS_CODE":0,"TOWNNAME":"鹽水區","LI":"岸內里","LIN":"16鄰","STREET":"北門路","SECT":" ","MAREA":" ","LANE":"１巷","ALLEY":"３弄","HOUSE_NO":"７號","E_COORD97":175012.79000000001,"N_COORD97":2580417.4500000002,"ADDRESS":"北門路１巷３弄７號","OBJECTID":119377},"geometry":{"x":175012.79000000097,"y":2580417.4500000011}},{"attributes":{"ID":119378,"DIS_CODE":0,"TOWNNAME":"鹽水區","LI":"岸內里","LIN":"16鄰","STREET":"北門路","SECT":" ","MAREA":" ","LANE":"１巷","ALLEY":"３弄","HOUSE_NO":"８號","E_COORD97":175007.98999999999,"N_COORD97":2580417.46,"ADDRESS":"北門路１巷３弄８號","OBJECTID":119378},"geometry":{"x":175007.99000000209,"y":2580417.4600000009}},{"attributes":{"ID":119379,"DIS_CODE":0,"TOWNNAME":"鹽水區","LI":"岸內里","LIN":"16鄰","STREET":"北門路","SECT":" ","MAREA":" ","LANE":"１巷","ALLEY":"３弄","HOUSE_NO":"９號","E_COORD97":175003.95000000001,"N_COORD97":2580416.6600000001,"ADDRESS":"北門路１巷３弄９號","OBJECTID":119379},"geometry":{"x":175003.95000000019,"y":2580416.660000002}},{"attributes":{"ID":119380,"DIS_CODE":0,"TOWNNAME":"關廟區","LI":"香洋里","LIN":"16鄰","STREET":"中央路","SECT":" ","MAREA":" ","LANE":"８２巷","ALLEY":"２１弄","HOUSE_NO":"７號","E_COORD97":181471.76000000001,"N_COORD97":2540114.46,"ADDRESS":"中央路８２巷２１弄７號","OBJECTID":119380},"geometry":{"x":181471.76000000071,"y":2540114.4600000028}},{"attributes":{"ID":119381,"DIS_CODE":0,"TOWNNAME":"關廟區","LI":"北勢里","LIN":"16鄰","STREET":"成功路","SECT":" ","MAREA":" ","LANE":"３４６巷","ALLEY":"１弄","HOUSE_NO":"５號","E_COORD97":181265.86796100001,"N_COORD97":2540550.0634099999,"ADDRESS":"成功路３４６巷１弄５號","OBJECTID":119381},"geometry":{"x":181265.86796100158,"y":2540550.0634059999}},{"attributes":{"ID":119382,"DIS_CODE":0,"TOWNNAME":"東區","LI":"忠孝里","LIN":"31鄰","STREET":"中華東路","SECT":"三段","MAREA":" ","LANE":"４５２巷","ALLEY":"８弄","HOUSE_NO":"１６號","E_COORD97":169960.87,"N_COORD97":2541612.5,"ADDRESS":"中華東路三段４５２巷８弄１６號","OBJECTID":119382},"geometry":{"x":169960.87000000104,"y":2541612.5}},{"attributes":{"ID":119383,"DIS_CODE":0,"TOWNNAME":"關廟區","LI":"香洋里","LIN":"16鄰","STREET":"中央路","SECT":" ","MAREA":" ","LANE":"８２巷","ALLEY":"２９弄","HOUSE_NO":"６號","E_COORD97":181506.92999999999,"N_COORD97":2540120.04,"ADDRESS":"中央路８２巷２９弄６號","OBJECTID":119383},"geometry":{"x":181506.9299999997,"y":2540120.0399999991}},{"attributes":{"ID":119384,"DIS_CODE":0,"TOWNNAME":"關廟區","LI":"香洋里","LIN":"16鄰","STREET":"中央路","SECT":" ","MAREA":" ","LANE":"８２巷","ALLEY":"１７弄","HOUSE_NO":"１２號","E_COORD97":181496.94,"N_COORD97":2540074.96,"ADDRESS":"中央路８２巷１７弄１２號","OBJECTID":119384},"geometry":{"x":181496.94000000041,"y":2540074.9600000009}},{"attributes":{"ID":119385,"DIS_CODE":0,"TOWNNAME":"關廟區","LI":"北勢里","LIN":"16鄰","STREET":"成功路","SECT":" ","MAREA":" ","LANE":"３４６巷","ALLEY":"１弄","HOUSE_NO":"７號","E_COORD97":181261.206771,"N_COORD97":2540554.4025699999,"ADDRESS":"成功路３４６巷１弄７號","OBJECTID":119385},"geometry":{"x":181261.20677100029,"y":2540554.402571002}},{"attributes":{"ID":119386,"DIS_CODE":0,"TOWNNAME":"關廟區","LI":"香洋里","LIN":"16鄰","STREET":"中央路","SECT":" ","MAREA":" ","LANE":"８２巷","ALLEY":"２１弄","HOUSE_NO":"３號","E_COORD97":181479.76000000001,"N_COORD97":2540111.46,"ADDRESS":"中央路８２巷２１弄３號","OBJECTID":119386},"geometry":{"x":181479.76000000071,"y":2540111.4600000009}},{"attributes":{"ID":119387,"DIS_CODE":0,"TOWNNAME":"東區","LI":"大福里","LIN":"4鄰","STREET":"立德二路","SECT":" ","MAREA":" ","LANE":" ","ALLEY":" ","HOUSE_NO":"２６號","E_COORD97":169513.34,"N_COORD97":2541722.04,"ADDRESS":"立德二路２６號","OBJECTID":119387},"geometry":{"x":169513.34000000078,"y":2541722.040000001}},{"attributes":{"ID":119388,"DIS_CODE":0,"TOWNNAME":"東區","LI":"大福里","LIN":"4鄰","STREET":"立德二路","SECT":" ","MAREA":" ","LANE":" ","ALLEY":" ","HOUSE_NO":"２８號","E_COORD97":169518.22,"N_COORD97":2541723.4300000002,"ADDRESS":"立德二路２８號","OBJECTID":119388},"geometry":{"x":169518.21999999974,"y":2541723.4300000016}},{"attributes":{"ID":119389,"DIS_CODE":0,"TOWNNAME":"柳營區","LI":"神農里","LIN":"4鄰","STREET":" ","SECT":" ","MAREA":"果毅後","LANE":" ","ALLEY":" ","HOUSE_NO":"２６６之５號","E_COORD97":185178.54999999999,"N_COORD97":2572804.3599999999,"ADDRESS":"果毅後２６６之５號","OBJECTID":119389},"geometry":{"x":185178.55000000075,"y":2572804.3599999994}},{"attributes":{"ID":119390,"DIS_CODE":0,"TOWNNAME":"柳營區","LI":"神農里","LIN":"4鄰","STREET":" ","SECT":" ","MAREA":"果毅後","LANE":" ","ALLEY":" ","HOUSE_NO":"２６７號之１０","E_COORD97":185099.17000000001,"N_COORD97":2572635.1299999999,"ADDRESS":"果毅後２６７號之１０","OBJECTID":119390},"geometry":{"x":185099.16999999993,"y":2572635.1300000008}},{"attributes":{"ID":119391,"DIS_CODE":0,"TOWNNAME":"關廟區","LI":"北勢里","LIN":"16鄰","STREET":"成功路","SECT":" ","MAREA":" ","LANE":"３４６巷","ALLEY":"１弄","HOUSE_NO":"３號","E_COORD97":181281.76999999999,"N_COORD97":2540561.27,"ADDRESS":"成功路３４６巷１弄３號","OBJECTID":119391},"geometry":{"x":181281.76999999955,"y":2540561.2700000014}},{"attributes":{"ID":119392,"DIS_CODE":0,"TOWNNAME":"東區","LI":"泉南里","LIN":"25鄰","STREET":"光華街","SECT":" ","MAREA":" ","LANE":"２２９巷","ALLEY":"２７弄","HOUSE_NO":"４５號","E_COORD97":169597.64999999999,"N_COORD97":2542889.02,"ADDRESS":"光華街２２９巷２７弄４５號","OBJECTID":119392},"geometry":{"x":169597.65000000224,"y":2542889.0200000014}},{"attributes":{"ID":119393,"DIS_CODE":0,"TOWNNAME":"東區","LI":"忠孝里","LIN":"31鄰","STREET":"中華東路","SECT":"三段","MAREA":" ","LANE":"４５２巷","ALLEY":"８弄","HOUSE_NO":"２號","E_COORD97":169909.81,"N_COORD97":2541602.7000000002,"ADDRESS":"中華東路三段４５２巷８弄２號","OBJECTID":119393},"geometry":{"x":169909.81000000052,"y":2541602.7000000011}},{"attributes":{"ID":119394,"DIS_CODE":0,"TOWNNAME":"將軍區","LI":"鯤溟里","LIN":"4鄰","STREET":" ","SECT":" ","MAREA":"鯤溟","LANE":" ","ALLEY":" ","HOUSE_NO":"２６號","E_COORD97":156622.69,"N_COORD97":2565467.2200000002,"ADDRESS":"鯤溟２６號","OBJECTID":119394},"geometry":{"x":156622.69000000134,"y":2565467.2200000007}},{"attributes":{"ID":119395,"DIS_CODE":0,"TOWNNAME":"關廟區","LI":"香洋里","LIN":"16鄰","STREET":"中央路","SECT":" ","MAREA":" ","LANE":"８２巷","ALLEY":"２９弄","HOUSE_NO":"２號","E_COORD97":181511.92999999999,"N_COORD97":2540120.04,"ADDRESS":"中央路８２巷２９弄２號","OBJECTID":119395},"geometry":{"x":181511.9299999997,"y":2540120.0399999991}},{"attributes":{"ID":119396,"DIS_CODE":0,"TOWNNAME":"關廟區","LI":"香洋里","LIN":"16鄰","STREET":"中央路","SECT":" ","MAREA":" ","LANE":"８２巷","ALLEY":"２１弄","HOUSE_NO":"５號","E_COORD97":181475.56,"N_COORD97":2540112.46,"ADDRESS":"中央路８２巷２１弄５號","OBJECTID":119396},"geometry":{"x":181475.56000000145,"y":2540112.4600000009}},{"attributes":{"ID":119397,"DIS_CODE":0,"TOWNNAME":"北區","LI":"力行里","LIN":"16鄰","STREET":"南園街","SECT":" ","MAREA":" ","LANE":"１２７巷","ALLEY":"１０６弄","HOUSE_NO":"１０號","E_COORD97":170969.88,"N_COORD97":2545498.2200000002,"ADDRESS":"南園街１２７巷１０６弄１０號","OBJECTID":119397},"geometry":{"x":170969.87999999989,"y":2545498.2200000044}},{"attributes":{"ID":119398,"DIS_CODE":0,"TOWNNAME":"北區","LI":"力行里","LIN":"16鄰","STREET":"南園街","SECT":" ","MAREA":" ","LANE":"１２７巷","ALLEY":"１０６弄","HOUSE_NO":"１１號","E_COORD97":170983.89000000001,"N_COORD97":2545507.4199999999,"ADDRESS":"南園街１２７巷１０６弄１１號","OBJECTID":119398},"geometry":{"x":170983.8900000006,"y":2545507.4200000018}},{"attributes":{"ID":119399,"DIS_CODE":0,"TOWNNAME":"新營區","LI":"忠政里","LIN":"16鄰","STREET":"府西路","SECT":" ","MAREA":" ","LANE":"２５７巷","ALLEY":"３１弄","HOUSE_NO":"３號","E_COORD97":179703.04999999999,"N_COORD97":2579645.02,"ADDRESS":"府西路２５７巷３１弄３號","OBJECTID":119399},"geometry":{"x":179703.05000000075,"y":2579645.0199999996}},{"attributes":{"ID":119400,"DIS_CODE":0,"TOWNNAME":"仁德區","LI":"仁德里","LIN":"35鄰","STREET":"文山路","SECT":" ","MAREA":" ","LANE":" ","ALLEY":" ","HOUSE_NO":"１５７號","E_COORD97":172759.82000000001,"N_COORD97":2541750.5800000001,"ADDRESS":"文山路１５７號","OBJECTID":119400},"geometry":{"x":172759.82000000123,"y":2541750.5800000001}}]}