{"displayFieldName":"TOWNNAME","fieldAliases":{"ID":"ID","DIS_CODE":"DIS_CODE","TOWNNAME":"TOWNNAME","LI":"LI","LIN":"LIN","STREET":"STREET","SECT":"SECT","MAREA":"MAREA","LANE":"LANE","ALLEY":"ALLEY","HOUSE_NO":"HOUSE_NO","E_COORD97":"E_COORD97","N_COORD97":"N_COORD97","ADDRESS":"ADDRESS","OBJECTID":"OBJECTID"},"geometryType":"esriGeometryPoint","spatialReference":{"wkid":102443,"latestWkid":3826},"fields":[{"name":"ID","type":"esriFieldTypeDouble","alias":"ID"},{"name":"DIS_CODE","type":"esriFieldTypeInteger","alias":"DIS_CODE"},{"name":"TOWNNAME","type":"esriFieldTypeString","alias":"TOWNNAME","length":8},{"name":"LI","type":"esriFieldTypeString","alias":"LI","length":8},{"name":"LIN","type":"esriFieldTypeString","alias":"LIN","length":12},{"name":"STREET","type":"esriFieldTypeString","alias":"STREET","length":20},{"name":"SECT","type":"esriFieldTypeString","alias":"SECT","length":8},{"name":"MAREA","type":"esriFieldTypeString","alias":"MAREA","length":12},{"name":"LANE","type":"esriFieldTypeString","alias":"LANE","length":10},{"name":"ALLEY","type":"esriFieldTypeString","alias":"ALLEY","length":10},{"name":"HOUSE_NO","type":"esriFieldTypeString","alias":"HOUSE_NO","length":20},{"name":"E_COORD97","type":"esriFieldTypeDouble","alias":"E_COORD97"},{"name":"N_COORD97","type":"esriFieldTypeDouble","alias":"N_COORD97"},{"name":"ADDRESS","type":"esriFieldTypeString","alias":"ADDRESS","length":50},{"name":"OBJECTID","type":"esriFieldTypeOID","alias":"OBJECTID"}],"features":[{"attributes":{"ID":499228,"DIS_CODE":0,"TOWNNAME":"東區","LI":"小東里","LIN":"7鄰","STREET":"光明街","SECT":" ","MAREA":" ","LANE":" ","ALLEY":" ","HOUSE_NO":"１９９號","E_COORD97":170939.19979799999,"N_COORD97":2544069.5661599999,"ADDRESS":"光明街１９９號","OBJECTID":499201},"geometry":{"x":170939.19979799911,"y":2544069.5661570001}},{"attributes":{"ID":499229,"DIS_CODE":0,"TOWNNAME":"善化區","LI":"光文里","LIN":"7鄰","STREET":"光文路","SECT":" ","MAREA":" ","LANE":" ","ALLEY":" ","HOUSE_NO":"２３號","E_COORD97":178913.73000000001,"N_COORD97":2559296.5299999998,"ADDRESS":"光文路２３號","OBJECTID":499202},"geometry":{"x":178913.73000000045,"y":2559296.5299999993}},{"attributes":{"ID":499230,"DIS_CODE":0,"TOWNNAME":"安南區","LI":"公親里","LIN":"7鄰","STREET":"公學路","SECT":"一段","MAREA":" ","LANE":" ","ALLEY":" ","HOUSE_NO":"９１號","E_COORD97":168399.39000000001,"N_COORD97":2553024.3599999999,"ADDRESS":"公學路一段９１號","OBJECTID":499203},"geometry":{"x":168399.38999999966,"y":2553024.3599999994}},{"attributes":{"ID":499231,"DIS_CODE":0,"TOWNNAME":"安南區","LI":"公親里","LIN":"7鄰","STREET":"公學路","SECT":"一段","MAREA":" ","LANE":" ","ALLEY":" ","HOUSE_NO":"９３號","E_COORD97":168394.85000000001,"N_COORD97":2553022.4100000001,"ADDRESS":"公學路一段９３號","OBJECTID":499204},"geometry":{"x":168394.84999999963,"y":2553022.4100000001}},{"attributes":{"ID":499232,"DIS_CODE":0,"TOWNNAME":"善化區","LI":"文昌里","LIN":"7鄰","STREET":"文昌路","SECT":" ","MAREA":" ","LANE":" ","ALLEY":" ","HOUSE_NO":"８７之１號","E_COORD97":177198.17000000001,"N_COORD97":2558685.5299999998,"ADDRESS":"文昌路８７之１號","OBJECTID":499205},"geometry":{"x":177198.16999999899,"y":2558685.5299999993}},{"attributes":{"ID":499233,"DIS_CODE":0,"TOWNNAME":"善化區","LI":"南關里","LIN":"7鄰","STREET":"三民路","SECT":" ","MAREA":" ","LANE":" ","ALLEY":" ","HOUSE_NO":"１號之１５","E_COORD97":176879.31,"N_COORD97":2558229.02,"ADDRESS":"三民路１號之１５","OBJECTID":499206},"geometry":{"x":176879.30999999959,"y":2558229.0199999996}},{"attributes":{"ID":499234,"DIS_CODE":0,"TOWNNAME":"善化區","LI":"光文里","LIN":"7鄰","STREET":"建業路","SECT":" ","MAREA":" ","LANE":" ","ALLEY":" ","HOUSE_NO":"２４號","E_COORD97":178987.56,"N_COORD97":2559609.7799999998,"ADDRESS":"建業路２４號","OBJECTID":499207},"geometry":{"x":178987.56000000052,"y":2559609.7799999993}},{"attributes":{"ID":499235,"DIS_CODE":0,"TOWNNAME":"善化區","LI":"坐駕里","LIN":"7鄰","STREET":"大成路","SECT":" ","MAREA":" ","LANE":" ","ALLEY":" ","HOUSE_NO":"４０４號","E_COORD97":177822.66,"N_COORD97":2558796.25,"ADDRESS":"大成路４０４號","OBJECTID":499208},"geometry":{"x":177822.66000000108,"y":2558796.25}},{"attributes":{"ID":499236,"DIS_CODE":0,"TOWNNAME":"善化區","LI":"小新里","LIN":"7鄰","STREET":"成功路","SECT":" ","MAREA":" ","LANE":" ","ALLEY":" ","HOUSE_NO":"３４３號","E_COORD97":179506.70999999999,"N_COORD97":2558728.5,"ADDRESS":"成功路３４３號","OBJECTID":499209},"geometry":{"x":179506.70999999996,"y":2558728.5000000037}},{"attributes":{"ID":499237,"DIS_CODE":0,"TOWNNAME":"關廟區","LI":"香洋里","LIN":"5鄰","STREET":"南雄路","SECT":"二段","MAREA":" ","LANE":" ","ALLEY":" ","HOUSE_NO":"９５號","E_COORD97":181124.34,"N_COORD97":2540258.2799999998,"ADDRESS":"南雄路二段９５號","OBJECTID":499210},"geometry":{"x":181124.33999999985,"y":2540258.2800000031}},{"attributes":{"ID":499238,"DIS_CODE":0,"TOWNNAME":"善化區","LI":"文昌里","LIN":"7鄰","STREET":"光復路","SECT":" ","MAREA":" ","LANE":" ","ALLEY":" ","HOUSE_NO":"１８８號","E_COORD97":177279.42999999999,"N_COORD97":2558616.7599999998,"ADDRESS":"光復路１８８號","OBJECTID":499211},"geometry":{"x":177279.43000000156,"y":2558616.7599999998}},{"attributes":{"ID":499239,"DIS_CODE":0,"TOWNNAME":"善化區","LI":"文昌里","LIN":"7鄰","STREET":"文昌路","SECT":" ","MAREA":" ","LANE":" ","ALLEY":" ","HOUSE_NO":"３８號之３","E_COORD97":177279.48000000001,"N_COORD97":2558735.0299999998,"ADDRESS":"文昌路３８號之３","OBJECTID":499212},"geometry":{"x":177279.48000000045,"y":2558735.0300000012}},{"attributes":{"ID":499240,"DIS_CODE":0,"TOWNNAME":"善化區","LI":"小新里","LIN":"7鄰","STREET":"成功路","SECT":" ","MAREA":" ","LANE":" ","ALLEY":" ","HOUSE_NO":"３７７號","E_COORD97":179394.76000000001,"N_COORD97":2558711.25,"ADDRESS":"成功路３７７號","OBJECTID":499213},"geometry":{"x":179394.76000000071,"y":2558711.2500000019}},{"attributes":{"ID":499241,"DIS_CODE":0,"TOWNNAME":"善化區","LI":"文昌里","LIN":"7鄰","STREET":"文昌路","SECT":" ","MAREA":" ","LANE":" ","ALLEY":" ","HOUSE_NO":"３８號之８","E_COORD97":177310.94,"N_COORD97":2558745.5299999998,"ADDRESS":"文昌路３８號之８","OBJECTID":499214},"geometry":{"x":177310.94000000134,"y":2558745.5300000012}},{"attributes":{"ID":499242,"DIS_CODE":0,"TOWNNAME":"善化區","LI":"文昌里","LIN":"7鄰","STREET":"文昌路","SECT":" ","MAREA":" ","LANE":" ","ALLEY":" ","HOUSE_NO":"８５號之６","E_COORD97":177231.22,"N_COORD97":2558629.2799999998,"ADDRESS":"文昌路８５號之６","OBJECTID":499215},"geometry":{"x":177231.21999999974,"y":2558629.2799999993}},{"attributes":{"ID":499243,"DIS_CODE":0,"TOWNNAME":"善化區","LI":"文昌里","LIN":"7鄰","STREET":"文昌路","SECT":" ","MAREA":" ","LANE":" ","ALLEY":" ","HOUSE_NO":"８９號之３","E_COORD97":177208.67999999999,"N_COORD97":2558638.2799999998,"ADDRESS":"文昌路８９號之３","OBJECTID":499216},"geometry":{"x":177208.68000000063,"y":2558638.2800000012}},{"attributes":{"ID":499244,"DIS_CODE":0,"TOWNNAME":"關廟區","LI":"新埔里","LIN":"10鄰","STREET":"新埔二街","SECT":" ","MAREA":" ","LANE":" ","ALLEY":" ","HOUSE_NO":"５１號","E_COORD97":181418.76999999999,"N_COORD97":2540976.25,"ADDRESS":"新埔二街５１號","OBJECTID":499217},"geometry":{"x":181418.77000000048,"y":2540976.2500000019}},{"attributes":{"ID":499245,"DIS_CODE":0,"TOWNNAME":"關廟區","LI":"新埔里","LIN":"8鄰","STREET":"新埔三街","SECT":" ","MAREA":" ","LANE":" ","ALLEY":" ","HOUSE_NO":"１２１號","E_COORD97":181213.12,"N_COORD97":2541107.25,"ADDRESS":"新埔三街１２１號","OBJECTID":499218},"geometry":{"x":181213.12000000197,"y":2541107.2500000019}},{"attributes":{"ID":499246,"DIS_CODE":0,"TOWNNAME":"善化區","LI":"文昌里","LIN":"7鄰","STREET":"文昌路","SECT":" ","MAREA":" ","LANE":" ","ALLEY":" ","HOUSE_NO":"８５號","E_COORD97":177210.70000000001,"N_COORD97":2558688.2799999998,"ADDRESS":"文昌路８５號","OBJECTID":499219},"geometry":{"x":177210.70000000112,"y":2558688.2799999975}},{"attributes":{"ID":499247,"DIS_CODE":0,"TOWNNAME":"善化區","LI":"文昌里","LIN":"7鄰","STREET":"中華路","SECT":" ","MAREA":" ","LANE":" ","ALLEY":" ","HOUSE_NO":"６８號","E_COORD97":177260.51999999999,"N_COORD97":2558799.75,"ADDRESS":"中華路６８號","OBJECTID":499220},"geometry":{"x":177260.52000000048,"y":2558799.75}},{"attributes":{"ID":499248,"DIS_CODE":0,"TOWNNAME":"善化區","LI":"文正里","LIN":"7鄰","STREET":"文正路","SECT":" ","MAREA":" ","LANE":" ","ALLEY":" ","HOUSE_NO":"５９號","E_COORD97":177043.56,"N_COORD97":2559293.7799999998,"ADDRESS":"文正路５９號","OBJECTID":499221},"geometry":{"x":177043.55999999959,"y":2559293.7799999993}},{"attributes":{"ID":499249,"DIS_CODE":0,"TOWNNAME":"善化區","LI":"文正里","LIN":"7鄰","STREET":"文正路","SECT":" ","MAREA":" ","LANE":" ","ALLEY":" ","HOUSE_NO":"４３號","E_COORD97":177021.37,"N_COORD97":2559308.0299999998,"ADDRESS":"文正路４３號","OBJECTID":499222},"geometry":{"x":177021.37000000104,"y":2559308.0300000012}},{"attributes":{"ID":499250,"DIS_CODE":0,"TOWNNAME":"善化區","LI":"文昌里","LIN":"7鄰","STREET":"文昌路","SECT":" ","MAREA":" ","LANE":" ","ALLEY":" ","HOUSE_NO":"７９號","E_COORD97":177223.31,"N_COORD97":2558691.2799999998,"ADDRESS":"文昌路７９號","OBJECTID":499223},"geometry":{"x":177223.30999999959,"y":2558691.2799999993}},{"attributes":{"ID":499251,"DIS_CODE":0,"TOWNNAME":"善化區","LI":"小新里","LIN":"7鄰","STREET":"成功路","SECT":" ","MAREA":" ","LANE":" ","ALLEY":" ","HOUSE_NO":"３５９號","E_COORD97":179445.04999999999,"N_COORD97":2558744.5,"ADDRESS":"成功路３５９號","OBJECTID":499224},"geometry":{"x":179445.05000000168,"y":2558744.5}},{"attributes":{"ID":499252,"DIS_CODE":0,"TOWNNAME":"善化區","LI":"文昌里","LIN":"7鄰","STREET":"中華路","SECT":" ","MAREA":" ","LANE":" ","ALLEY":" ","HOUSE_NO":"９４號","E_COORD97":177236.35999999999,"N_COORD97":2558851.75,"ADDRESS":"中華路９４號","OBJECTID":499225},"geometry":{"x":177236.3600000022,"y":2558851.75}},{"attributes":{"ID":499253,"DIS_CODE":0,"TOWNNAME":"善化區","LI":"文昌里","LIN":"7鄰","STREET":"文昌路","SECT":" ","MAREA":" ","LANE":" ","ALLEY":" ","HOUSE_NO":"３９號之１","E_COORD97":177332.06,"N_COORD97":2558731.5299999998,"ADDRESS":"文昌路３９號之１","OBJECTID":499226},"geometry":{"x":177332.05999999959,"y":2558731.5300000012}},{"attributes":{"ID":499254,"DIS_CODE":0,"TOWNNAME":"善化區","LI":"文昌里","LIN":"7鄰","STREET":"永福路","SECT":" ","MAREA":" ","LANE":" ","ALLEY":" ","HOUSE_NO":"１３０號","E_COORD97":177280.14000000001,"N_COORD97":2558800.25,"ADDRESS":"永福路１３０號","OBJECTID":499227},"geometry":{"x":177280.1400000006,"y":2558800.25}},{"attributes":{"ID":499255,"DIS_CODE":0,"TOWNNAME":"善化區","LI":"小新里","LIN":"7鄰","STREET":"成功路","SECT":" ","MAREA":" ","LANE":" ","ALLEY":" ","HOUSE_NO":"２２０號","E_COORD97":179369.95999999999,"N_COORD97":2558811.75,"ADDRESS":"成功路２２０號","OBJECTID":499228},"geometry":{"x":179369.96000000089,"y":2558811.7500000019}},{"attributes":{"ID":499256,"DIS_CODE":0,"TOWNNAME":"仁德區","LI":"土庫里","LIN":"7鄰","STREET":"土庫路","SECT":" ","MAREA":" ","LANE":" ","ALLEY":" ","HOUSE_NO":"７６號","E_COORD97":174286,"N_COORD97":2543161.9900000002,"ADDRESS":"土庫路７６號","OBJECTID":499229},"geometry":{"x":174286.00000000093,"y":2543161.9900000002}},{"attributes":{"ID":499257,"DIS_CODE":0,"TOWNNAME":"關廟區","LI":"新埔里","LIN":"5鄰","STREET":"新埔三街","SECT":" ","MAREA":" ","LANE":" ","ALLEY":" ","HOUSE_NO":"１１號","E_COORD97":181173.87,"N_COORD97":2540959.25,"ADDRESS":"新埔三街１１號","OBJECTID":499230},"geometry":{"x":181173.87000000011,"y":2540959.2500000019}},{"attributes":{"ID":499258,"DIS_CODE":0,"TOWNNAME":"仁德區","LI":"上崙里","LIN":"7鄰","STREET":"德善路","SECT":" ","MAREA":" ","LANE":" ","ALLEY":" ","HOUSE_NO":"３４６號","E_COORD97":174017.76999999999,"N_COORD97":2538269.02,"ADDRESS":"德善路３４６號","OBJECTID":499231},"geometry":{"x":174017.77000000048,"y":2538269.0199999996}},{"attributes":{"ID":499259,"DIS_CODE":0,"TOWNNAME":"仁德區","LI":"上崙里","LIN":"7鄰","STREET":"德善路","SECT":" ","MAREA":" ","LANE":" ","ALLEY":" ","HOUSE_NO":"３４２號","E_COORD97":174009.76999999999,"N_COORD97":2538293.2599999998,"ADDRESS":"德善路３４２號","OBJECTID":499232},"geometry":{"x":174009.76999999955,"y":2538293.2600000016}},{"attributes":{"ID":499260,"DIS_CODE":0,"TOWNNAME":"仁德區","LI":"仁義里","LIN":"7鄰","STREET":"中山路","SECT":" ","MAREA":" ","LANE":" ","ALLEY":" ","HOUSE_NO":"４３９號","E_COORD97":173754.14999999999,"N_COORD97":2541253.5,"ADDRESS":"中山路４３９號","OBJECTID":499233},"geometry":{"x":173754.14999999944,"y":2541253.5}},{"attributes":{"ID":499261,"DIS_CODE":0,"TOWNNAME":"仁德區","LI":"仁義里","LIN":"7鄰","STREET":"中山路","SECT":" ","MAREA":" ","LANE":" ","ALLEY":" ","HOUSE_NO":"４４５號","E_COORD97":173737.06,"N_COORD97":2541262.25,"ADDRESS":"中山路４４５號","OBJECTID":499234},"geometry":{"x":173737.06000000145,"y":2541262.25}},{"attributes":{"ID":499262,"DIS_CODE":0,"TOWNNAME":"仁德區","LI":"上崙里","LIN":"7鄰","STREET":"德善路","SECT":" ","MAREA":" ","LANE":" ","ALLEY":" ","HOUSE_NO":"３４０號","E_COORD97":174008.53,"N_COORD97":2538297.7599999998,"ADDRESS":"德善路３４０號","OBJECTID":499235},"geometry":{"x":174008.53000000026,"y":2538297.7599999998}},{"attributes":{"ID":499263,"DIS_CODE":0,"TOWNNAME":"仁德區","LI":"仁義里","LIN":"7鄰","STREET":"中山路","SECT":" ","MAREA":" ","LANE":" ","ALLEY":" ","HOUSE_NO":"４２７號","E_COORD97":173774.57000000001,"N_COORD97":2541257.5,"ADDRESS":"中山路４２７號","OBJECTID":499236},"geometry":{"x":173774.5700000003,"y":2541257.4999999981}},{"attributes":{"ID":499264,"DIS_CODE":0,"TOWNNAME":"仁德區","LI":"上崙里","LIN":"7鄰","STREET":"德善路","SECT":" ","MAREA":" ","LANE":" ","ALLEY":" ","HOUSE_NO":"３３６號","E_COORD97":174006.51999999999,"N_COORD97":2538305.7599999998,"ADDRESS":"德善路３３６號","OBJECTID":499237},"geometry":{"x":174006.51999999955,"y":2538305.7599999998}},{"attributes":{"ID":499265,"DIS_CODE":0,"TOWNNAME":"仁德區","LI":"上崙里","LIN":"7鄰","STREET":"德善路","SECT":" ","MAREA":" ","LANE":" ","ALLEY":" ","HOUSE_NO":"３２８號","E_COORD97":174000.20000000001,"N_COORD97":2538329.02,"ADDRESS":"德善路３２８號","OBJECTID":499238},"geometry":{"x":174000.20000000112,"y":2538329.0200000014}},{"attributes":{"ID":499266,"DIS_CODE":0,"TOWNNAME":"仁德區","LI":"仁義里","LIN":"7鄰","STREET":"中山路","SECT":" ","MAREA":" ","LANE":" ","ALLEY":" ","HOUSE_NO":"４１３號","E_COORD97":173801.29999999999,"N_COORD97":2541253.5,"ADDRESS":"中山路４１３號","OBJECTID":499239},"geometry":{"x":173801.29999999981,"y":2541253.5}},{"attributes":{"ID":499267,"DIS_CODE":0,"TOWNNAME":"仁德區","LI":"仁義里","LIN":"7鄰","STREET":"中山路","SECT":" ","MAREA":" ","LANE":" ","ALLEY":" ","HOUSE_NO":"４１７號","E_COORD97":173793.91,"N_COORD97":2541254.75,"ADDRESS":"中山路４１７號","OBJECTID":499240},"geometry":{"x":173793.91000000015,"y":2541254.75}},{"attributes":{"ID":499268,"DIS_CODE":0,"TOWNNAME":"仁德區","LI":"上崙里","LIN":"7鄰","STREET":"德善路","SECT":" ","MAREA":" ","LANE":" ","ALLEY":" ","HOUSE_NO":"３３０號","E_COORD97":174001.60999999999,"N_COORD97":2538325.27,"ADDRESS":"德善路３３０號","OBJECTID":499241},"geometry":{"x":174001.61000000034,"y":2538325.2699999996}},{"attributes":{"ID":499269,"DIS_CODE":0,"TOWNNAME":"仁德區","LI":"仁義里","LIN":"7鄰","STREET":"中山路","SECT":" ","MAREA":" ","LANE":" ","ALLEY":" ","HOUSE_NO":"３９５號","E_COORD97":173837.07999999999,"N_COORD97":2541249.75,"ADDRESS":"中山路３９５號","OBJECTID":499242},"geometry":{"x":173837.08000000007,"y":2541249.7500000019}},{"attributes":{"ID":499270,"DIS_CODE":0,"TOWNNAME":"仁德區","LI":"仁義里","LIN":"7鄰","STREET":"中山路","SECT":" ","MAREA":" ","LANE":" ","ALLEY":" ","HOUSE_NO":"４２５號","E_COORD97":173778.14999999999,"N_COORD97":2541257,"ADDRESS":"中山路４２５號","OBJECTID":499243},"geometry":{"x":173778.1500000013,"y":2541257}},{"attributes":{"ID":499271,"DIS_CODE":0,"TOWNNAME":"仁德區","LI":"大甲里","LIN":"7鄰","STREET":"行大一街","SECT":" ","MAREA":" ","LANE":" ","ALLEY":" ","HOUSE_NO":"２５８號","E_COORD97":169702.82999999999,"N_COORD97":2535051.75,"ADDRESS":"行大一街２５８號","OBJECTID":499244},"geometry":{"x":169702.82999999914,"y":2535051.7500000037}},{"attributes":{"ID":499272,"DIS_CODE":0,"TOWNNAME":"仁德區","LI":"上崙里","LIN":"7鄰","STREET":"德善路","SECT":" ","MAREA":" ","LANE":" ","ALLEY":" ","HOUSE_NO":"３６６號","E_COORD97":174029.44,"N_COORD97":2538227.77,"ADDRESS":"德善路３６６號","OBJECTID":499245},"geometry":{"x":174029.44000000134,"y":2538227.7700000033}},{"attributes":{"ID":499273,"DIS_CODE":0,"TOWNNAME":"仁德區","LI":"上崙里","LIN":"7鄰","STREET":"德善路","SECT":" ","MAREA":" ","LANE":" ","ALLEY":" ","HOUSE_NO":"３２０號","E_COORD97":173996.29000000001,"N_COORD97":2538344.52,"ADDRESS":"德善路３２０號","OBJECTID":499246},"geometry":{"x":173996.29000000004,"y":2538344.5199999977}},{"attributes":{"ID":499274,"DIS_CODE":0,"TOWNNAME":"仁德區","LI":"上崙里","LIN":"7鄰","STREET":"德善路","SECT":" ","MAREA":" ","LANE":" ","ALLEY":" ","HOUSE_NO":"３２４號","E_COORD97":173998.23999999999,"N_COORD97":2538336.77,"ADDRESS":"德善路３２４號","OBJECTID":499247},"geometry":{"x":173998.24000000115,"y":2538336.7700000014}},{"attributes":{"ID":499275,"DIS_CODE":0,"TOWNNAME":"仁德區","LI":"土庫里","LIN":"7鄰","STREET":"土庫路","SECT":" ","MAREA":" ","LANE":" ","ALLEY":" ","HOUSE_NO":"９６號","E_COORD97":174326.98000000001,"N_COORD97":2543104.25,"ADDRESS":"土庫路９６號","OBJECTID":499248},"geometry":{"x":174326.98000000138,"y":2543104.2500000019}},{"attributes":{"ID":499276,"DIS_CODE":0,"TOWNNAME":"關廟區","LI":"關廟里","LIN":"13鄰","STREET":"大富街","SECT":" ","MAREA":" ","LANE":" ","ALLEY":" ","HOUSE_NO":"２０１號","E_COORD97":181052.17000000001,"N_COORD97":2539474.25,"ADDRESS":"大富街２０１號","OBJECTID":499249},"geometry":{"x":181052.17000000086,"y":2539474.2500000019}},{"attributes":{"ID":499277,"DIS_CODE":0,"TOWNNAME":"仁德區","LI":"大甲里","LIN":"7鄰","STREET":"行大一街","SECT":" ","MAREA":" ","LANE":" ","ALLEY":" ","HOUSE_NO":"２６０號","E_COORD97":169698.51999999999,"N_COORD97":2535053.75,"ADDRESS":"行大一街２６０號","OBJECTID":499250},"geometry":{"x":169698.52000000048,"y":2535053.75}},{"attributes":{"ID":499278,"DIS_CODE":0,"TOWNNAME":"仁德區","LI":"上崙里","LIN":"7鄰","STREET":"德善路","SECT":" ","MAREA":" ","LANE":" ","ALLEY":" ","HOUSE_NO":"３５８號","E_COORD97":174024.62,"N_COORD97":2538243.27,"ADDRESS":"德善路３５８號","OBJECTID":499251},"geometry":{"x":174024.62000000011,"y":2538243.2699999996}},{"attributes":{"ID":499279,"DIS_CODE":0,"TOWNNAME":"東區","LI":"小東里","LIN":"7鄰","STREET":"光明街","SECT":" ","MAREA":" ","LANE":" ","ALLEY":" ","HOUSE_NO":"２１７號","E_COORD97":170934.78,"N_COORD97":2544007.75,"ADDRESS":"光明街２１７號","OBJECTID":499252},"geometry":{"x":170934.78000000119,"y":2544007.75}},{"attributes":{"ID":499280,"DIS_CODE":0,"TOWNNAME":"東區","LI":"小東里","LIN":"7鄰","STREET":"光明街","SECT":" ","MAREA":" ","LANE":" ","ALLEY":" ","HOUSE_NO":"２０５號","E_COORD97":170932.34,"N_COORD97":2544030.6400000001,"ADDRESS":"光明街２０５號","OBJECTID":499253},"geometry":{"x":170932.34000000078,"y":2544030.6400000043}},{"attributes":{"ID":499281,"DIS_CODE":0,"TOWNNAME":"東區","LI":"小東里","LIN":"7鄰","STREET":"光明街","SECT":" ","MAREA":" ","LANE":" ","ALLEY":" ","HOUSE_NO":"２０７號","E_COORD97":170933.38,"N_COORD97":2544026.8900000001,"ADDRESS":"光明街２０７號","OBJECTID":499254},"geometry":{"x":170933.38000000082,"y":2544026.8900000025}},{"attributes":{"ID":499282,"DIS_CODE":0,"TOWNNAME":"東區","LI":"小東里","LIN":"7鄰","STREET":"光明街","SECT":" ","MAREA":" ","LANE":" ","ALLEY":" ","HOUSE_NO":"２０９號","E_COORD97":170933.23999999999,"N_COORD97":2544022.5899999999,"ADDRESS":"光明街２０９號","OBJECTID":499255},"geometry":{"x":170933.24000000115,"y":2544022.5899999999}},{"attributes":{"ID":499283,"DIS_CODE":0,"TOWNNAME":"東區","LI":"小東里","LIN":"7鄰","STREET":"光明街","SECT":" ","MAREA":" ","LANE":" ","ALLEY":" ","HOUSE_NO":"２１１號","E_COORD97":170933.64999999999,"N_COORD97":2544018.6400000001,"ADDRESS":"光明街２１１號","OBJECTID":499256},"geometry":{"x":170933.6500000013,"y":2544018.6400000025}},{"attributes":{"ID":499284,"DIS_CODE":0,"TOWNNAME":"東區","LI":"小東里","LIN":"7鄰","STREET":"光明街","SECT":" ","MAREA":" ","LANE":" ","ALLEY":" ","HOUSE_NO":"２１３號","E_COORD97":170934.20000000001,"N_COORD97":2544015.3900000001,"ADDRESS":"光明街２１３號","OBJECTID":499257},"geometry":{"x":170934.20000000019,"y":2544015.3900000043}},{"attributes":{"ID":499285,"DIS_CODE":0,"TOWNNAME":"東區","LI":"中西里","LIN":"7鄰","STREET":"懷恩街","SECT":" ","MAREA":" ","LANE":" ","ALLEY":" ","HOUSE_NO":"１２號之１","E_COORD97":169928.81,"N_COORD97":2543327.9900000002,"ADDRESS":"懷恩街１２號之１","OBJECTID":499258},"geometry":{"x":169928.81000000052,"y":2543327.9900000002}},{"attributes":{"ID":499286,"DIS_CODE":0,"TOWNNAME":"東區","LI":"中西里","LIN":"7鄰","STREET":"懷恩街","SECT":" ","MAREA":" ","LANE":" ","ALLEY":" ","HOUSE_NO":"４６號底層","E_COORD97":169849.44585399999,"N_COORD97":2543334.4114799998,"ADDRESS":"懷恩街４６號底層","OBJECTID":499259},"geometry":{"x":169849.44585399982,"y":2543334.4114840012}},{"attributes":{"ID":499287,"DIS_CODE":0,"TOWNNAME":"東區","LI":"中西里","LIN":"7鄰","STREET":"懷恩街","SECT":" ","MAREA":" ","LANE":" ","ALLEY":" ","HOUSE_NO":"４８號底層","E_COORD97":169841.92000000001,"N_COORD97":2543334.9500000002,"ADDRESS":"懷恩街４８號底層","OBJECTID":499260},"geometry":{"x":169841.92000000086,"y":2543334.9499999993}},{"attributes":{"ID":499288,"DIS_CODE":0,"TOWNNAME":"中西區","LI":"萬昌里","LIN":"7鄰","STREET":"城隍街","SECT":" ","MAREA":" ","LANE":" ","ALLEY":" ","HOUSE_NO":"７８號","E_COORD97":168862.98999999999,"N_COORD97":2543418.1499999999,"ADDRESS":"城隍街７８號","OBJECTID":499261},"geometry":{"x":168862.99000000209,"y":2543418.1500000022}},{"attributes":{"ID":499289,"DIS_CODE":0,"TOWNNAME":"永康區","LI":"安康里","LIN":"7鄰","STREET":"中山南路","SECT":" ","MAREA":" ","LANE":" ","ALLEY":" ","HOUSE_NO":"１０５號之１","E_COORD97":170923.51000000001,"N_COORD97":2545922.2999999998,"ADDRESS":"中山南路１０５號之１","OBJECTID":499262},"geometry":{"x":170923.50999999885,"y":2545922.3000000026}},{"attributes":{"ID":499290,"DIS_CODE":0,"TOWNNAME":"永康區","LI":"\u25A0行里","LIN":"7鄰","STREET":"中正路","SECT":" ","MAREA":" ","LANE":" ","ALLEY":" ","HOUSE_NO":"８２０號","E_COORD97":172188.17000000001,"N_COORD97":2548715.4300000002,"ADDRESS":"中正路８２０號","OBJECTID":499263},"geometry":{"x":172188.16999999993,"y":2548715.4299999997}},{"attributes":{"ID":499291,"DIS_CODE":0,"TOWNNAME":"中西區","LI":"三民里","LIN":"7鄰","STREET":"民權路","SECT":"二段","MAREA":" ","LANE":" ","ALLEY":" ","HOUSE_NO":"８５號","E_COORD97":168476.76999999999,"N_COORD97":2543883.3500000001,"ADDRESS":"民權路二段８５號","OBJECTID":499264},"geometry":{"x":168476.76999999955,"y":2543883.3500000015}},{"attributes":{"ID":499292,"DIS_CODE":0,"TOWNNAME":"中西區","LI":"三民里","LIN":"7鄰","STREET":"民權路","SECT":"二段","MAREA":" ","LANE":" ","ALLEY":" ","HOUSE_NO":"８９號","E_COORD97":168463.45999999999,"N_COORD97":2543881.7999999998,"ADDRESS":"民權路二段８９號","OBJECTID":499265},"geometry":{"x":168463.46000000089,"y":2543881.8000000026}},{"attributes":{"ID":499293,"DIS_CODE":0,"TOWNNAME":"中西區","LI":"三民里","LIN":"7鄰","STREET":"民權路","SECT":"二段","MAREA":" ","LANE":" ","ALLEY":" ","HOUSE_NO":"９１號","E_COORD97":168456.25,"N_COORD97":2543889.1400000001,"ADDRESS":"民權路二段９１號","OBJECTID":499266},"geometry":{"x":168456.25000000093,"y":2543889.1400000025}},{"attributes":{"ID":499294,"DIS_CODE":0,"TOWNNAME":"中西區","LI":"萬昌里","LIN":"7鄰","STREET":"城隍街","SECT":" ","MAREA":" ","LANE":" ","ALLEY":" ","HOUSE_NO":"６８號","E_COORD97":168856.75,"N_COORD97":2543399.6400000001,"ADDRESS":"城隍街６８號","OBJECTID":499267},"geometry":{"x":168856.75,"y":2543399.6400000006}},{"attributes":{"ID":499295,"DIS_CODE":0,"TOWNNAME":"中西區","LI":"萬昌里","LIN":"7鄰","STREET":"城隍街","SECT":" ","MAREA":" ","LANE":" ","ALLEY":" ","HOUSE_NO":"７０號","E_COORD97":168856.07000000001,"N_COORD97":2543403.46,"ADDRESS":"城隍街７０號","OBJECTID":499268},"geometry":{"x":168856.07000000123,"y":2543403.4600000009}},{"attributes":{"ID":499296,"DIS_CODE":0,"TOWNNAME":"中西區","LI":"萬昌里","LIN":"7鄰","STREET":"城隍街","SECT":" ","MAREA":" ","LANE":" ","ALLEY":" ","HOUSE_NO":"７２號","E_COORD97":168856.62,"N_COORD97":2543408.23,"ADDRESS":"城隍街７２號","OBJECTID":499269},"geometry":{"x":168856.62000000011,"y":2543408.2300000004}},{"attributes":{"ID":499297,"DIS_CODE":0,"TOWNNAME":"中西區","LI":"萬昌里","LIN":"7鄰","STREET":"城隍街","SECT":" ","MAREA":" ","LANE":" ","ALLEY":" ","HOUSE_NO":"７６號","E_COORD97":168859.04000000001,"N_COORD97":2543412.2799999998,"ADDRESS":"城隍街７６號","OBJECTID":499270},"geometry":{"x":168859.0400000019,"y":2543412.2800000012}},{"attributes":{"ID":499298,"DIS_CODE":0,"TOWNNAME":"中西區","LI":"萬昌里","LIN":"7鄰","STREET":"民權路","SECT":"一段","MAREA":" ","LANE":" ","ALLEY":" ","HOUSE_NO":"１０１號","E_COORD97":168923.82000000001,"N_COORD97":2543432.7000000002,"ADDRESS":"民權路一段１０１號","OBJECTID":499271},"geometry":{"x":168923.82000000123,"y":2543432.7000000011}},{"attributes":{"ID":499299,"DIS_CODE":0,"TOWNNAME":"中西區","LI":"萬昌里","LIN":"7鄰","STREET":"民權路","SECT":"一段","MAREA":" ","LANE":" ","ALLEY":" ","HOUSE_NO":"１０３號","E_COORD97":168919.31,"N_COORD97":2543432.8599999999,"ADDRESS":"民權路一段１０３號","OBJECTID":499272},"geometry":{"x":168919.31000000145,"y":2543432.8600000013}},{"attributes":{"ID":499300,"DIS_CODE":0,"TOWNNAME":"關廟區","LI":"香洋里","LIN":"8鄰","STREET":"中央路","SECT":" ","MAREA":" ","LANE":" ","ALLEY":" ","HOUSE_NO":"２３３號","E_COORD97":181078.95999999999,"N_COORD97":2540112.3199999998,"ADDRESS":"中央路２３３號","OBJECTID":499273},"geometry":{"x":181078.96000000089,"y":2540112.3200000003}},{"attributes":{"ID":499301,"DIS_CODE":0,"TOWNNAME":"中西區","LI":"萬昌里","LIN":"7鄰","STREET":"民權路","SECT":"一段","MAREA":" ","LANE":" ","ALLEY":" ","HOUSE_NO":"１０５號","E_COORD97":168916.29999999999,"N_COORD97":2543435.1200000001,"ADDRESS":"民權路一段１０５號","OBJECTID":499274},"geometry":{"x":168916.30000000168,"y":2543435.1200000029}},{"attributes":{"ID":499302,"DIS_CODE":0,"TOWNNAME":"中西區","LI":"萬昌里","LIN":"7鄰","STREET":"民權路","SECT":"一段","MAREA":" ","LANE":" ","ALLEY":" ","HOUSE_NO":"１０７號","E_COORD97":168913.79000000001,"N_COORD97":2543438.8799999999,"ADDRESS":"民權路一段１０７號","OBJECTID":499275},"geometry":{"x":168913.79000000097,"y":2543438.8800000008}},{"attributes":{"ID":499303,"DIS_CODE":0,"TOWNNAME":"中西區","LI":"萬昌里","LIN":"7鄰","STREET":"民權路","SECT":"一段","MAREA":" ","LANE":" ","ALLEY":" ","HOUSE_NO":"１０９號","E_COORD97":168911.29000000001,"N_COORD97":2543440.3799999999,"ADDRESS":"民權路一段１０９號","OBJECTID":499276},"geometry":{"x":168911.29000000004,"y":2543440.379999999}},{"attributes":{"ID":499304,"DIS_CODE":0,"TOWNNAME":"中西區","LI":"萬昌里","LIN":"7鄰","STREET":"民權路","SECT":"一段","MAREA":" ","LANE":" ","ALLEY":" ","HOUSE_NO":"１１１號","E_COORD97":168906.44,"N_COORD97":2543441.4700000002,"ADDRESS":"民權路一段１１１號","OBJECTID":499277},"geometry":{"x":168906.44000000134,"y":2543441.4700000007}},{"attributes":{"ID":499305,"DIS_CODE":0,"TOWNNAME":"中西區","LI":"萬昌里","LIN":"7鄰","STREET":"民權路","SECT":"一段","MAREA":" ","LANE":" ","ALLEY":" ","HOUSE_NO":"１１３號","E_COORD97":168906.19,"N_COORD97":2543447.25,"ADDRESS":"民權路一段１１３號","OBJECTID":499278},"geometry":{"x":168906.19000000134,"y":2543447.2500000019}},{"attributes":{"ID":499306,"DIS_CODE":0,"TOWNNAME":"中西區","LI":"萬昌里","LIN":"7鄰","STREET":"民權路","SECT":"一段","MAREA":" ","LANE":" ","ALLEY":" ","HOUSE_NO":"１１５號","E_COORD97":168902.26000000001,"N_COORD97":2543449.3399999999,"ADDRESS":"民權路一段１１５號","OBJECTID":499279},"geometry":{"x":168902.25999999978,"y":2543449.3400000017}},{"attributes":{"ID":499307,"DIS_CODE":0,"TOWNNAME":"中西區","LI":"萬昌里","LIN":"7鄰","STREET":"民權路","SECT":"一段","MAREA":" ","LANE":" ","ALLEY":" ","HOUSE_NO":"９７號","E_COORD97":168940.98000000001,"N_COORD97":2543427.6400000001,"ADDRESS":"民權路一段９７號","OBJECTID":499280},"geometry":{"x":168940.98000000045,"y":2543427.6400000025}},{"attributes":{"ID":499308,"DIS_CODE":0,"TOWNNAME":"新化區","LI":"協興里","LIN":"7鄰","STREET":"大新路","SECT":" ","MAREA":" ","LANE":" ","ALLEY":" ","HOUSE_NO":"６號之１","E_COORD97":178235.73000000001,"N_COORD97":2548566.3900000001,"ADDRESS":"大新路６號之１","OBJECTID":499281},"geometry":{"x":178235.73000000045,"y":2548566.3900000025}},{"attributes":{"ID":499309,"DIS_CODE":0,"TOWNNAME":"新化區","LI":"協興里","LIN":"7鄰","STREET":"太平街","SECT":" ","MAREA":" ","LANE":" ","ALLEY":" ","HOUSE_NO":"１２７號","E_COORD97":178326.79000000001,"N_COORD97":2548669.73,"ADDRESS":"太平街１２７號","OBJECTID":499282},"geometry":{"x":178326.79000000097,"y":2548669.7300000004}},{"attributes":{"ID":499310,"DIS_CODE":0,"TOWNNAME":"善化區","LI":"光文里","LIN":"7鄰","STREET":"建業路","SECT":" ","MAREA":" ","LANE":" ","ALLEY":" ","HOUSE_NO":"２４３號","E_COORD97":178599.70999999999,"N_COORD97":2559925.2799999998,"ADDRESS":"建業路２４３號","OBJECTID":499283},"geometry":{"x":178599.70999999996,"y":2559925.2799999993}},{"attributes":{"ID":499311,"DIS_CODE":0,"TOWNNAME":"新化區","LI":"豐榮里","LIN":"7鄰","STREET":"大智路","SECT":" ","MAREA":" ","LANE":" ","ALLEY":" ","HOUSE_NO":"１８６號","E_COORD97":178007.69,"N_COORD97":2548078.73,"ADDRESS":"大智路１８６號","OBJECTID":499284},"geometry":{"x":178007.69000000134,"y":2548078.7300000023}},{"attributes":{"ID":499312,"DIS_CODE":0,"TOWNNAME":"新化區","LI":"北勢里","LIN":"7鄰","STREET":"中正路","SECT":" ","MAREA":" ","LANE":" ","ALLEY":" ","HOUSE_NO":"１０７５號","E_COORD97":178244.57999999999,"N_COORD97":2550327.5899999999,"ADDRESS":"中正路１０７５號","OBJECTID":499285},"geometry":{"x":178244.58000000007,"y":2550327.5900000017}},{"attributes":{"ID":499313,"DIS_CODE":0,"TOWNNAME":"新化區","LI":"北勢里","LIN":"7鄰","STREET":"中正路","SECT":" ","MAREA":" ","LANE":" ","ALLEY":" ","HOUSE_NO":"１０８３號","E_COORD97":178238.56,"N_COORD97":2550387.25,"ADDRESS":"中正路１０８３號","OBJECTID":499286},"geometry":{"x":178238.56000000052,"y":2550387.2500000019}},{"attributes":{"ID":499314,"DIS_CODE":0,"TOWNNAME":"新化區","LI":"北勢里","LIN":"7鄰","STREET":"中正路","SECT":" ","MAREA":" ","LANE":" ","ALLEY":" ","HOUSE_NO":"１０８７號","E_COORD97":177861.95999999999,"N_COORD97":2550379.25,"ADDRESS":"中正路１０８７號","OBJECTID":499287},"geometry":{"x":177861.95999999996,"y":2550379.2499999981}},{"attributes":{"ID":499315,"DIS_CODE":0,"TOWNNAME":"新化區","LI":"北勢里","LIN":"7鄰","STREET":"中正路","SECT":" ","MAREA":" ","LANE":" ","ALLEY":" ","HOUSE_NO":"１１００號","E_COORD97":178295.45999999999,"N_COORD97":2550359.25,"ADDRESS":"中正路１１００號","OBJECTID":499288},"geometry":{"x":178295.46000000089,"y":2550359.2500000037}},{"attributes":{"ID":499316,"DIS_CODE":0,"TOWNNAME":"新化區","LI":"北勢里","LIN":"7鄰","STREET":"中正路","SECT":" ","MAREA":" ","LANE":" ","ALLEY":" ","HOUSE_NO":"１１２３號之２０","E_COORD97":177994.54999999999,"N_COORD97":2550688.2599999998,"ADDRESS":"中正路１１２３號之２０","OBJECTID":499289},"geometry":{"x":177994.55000000075,"y":2550688.2600000016}},{"attributes":{"ID":499317,"DIS_CODE":0,"TOWNNAME":"新化區","LI":"北勢里","LIN":"7鄰","STREET":"中正路","SECT":" ","MAREA":" ","LANE":" ","ALLEY":" ","HOUSE_NO":"１１３０號","E_COORD97":178261.82000000001,"N_COORD97":2550412.4500000002,"ADDRESS":"中正路１１３０號","OBJECTID":499290},"geometry":{"x":178261.8200000003,"y":2550412.4500000011}},{"attributes":{"ID":499318,"DIS_CODE":0,"TOWNNAME":"新化區","LI":"北勢里","LIN":"7鄰","STREET":"中正路","SECT":" ","MAREA":" ","LANE":" ","ALLEY":" ","HOUSE_NO":"１１５８號","E_COORD97":178231.95999999999,"N_COORD97":2550494.25,"ADDRESS":"中正路１１５８號","OBJECTID":499291},"geometry":{"x":178231.95999999996,"y":2550494.25}},{"attributes":{"ID":499319,"DIS_CODE":0,"TOWNNAME":"新化區","LI":"北勢里","LIN":"7鄰","STREET":"中正路","SECT":" ","MAREA":" ","LANE":" ","ALLEY":" ","HOUSE_NO":"１１６０號","E_COORD97":178204.85999999999,"N_COORD97":2550581.25,"ADDRESS":"中正路１１６０號","OBJECTID":499292},"geometry":{"x":178204.86000000127,"y":2550581.25}},{"attributes":{"ID":499320,"DIS_CODE":0,"TOWNNAME":"新化區","LI":"北勢里","LIN":"7鄰","STREET":"金華街","SECT":"一段","MAREA":" ","LANE":" ","ALLEY":" ","HOUSE_NO":"２８號","E_COORD97":177887.35999999999,"N_COORD97":2550945.0800000001,"ADDRESS":"金華街一段２８號","OBJECTID":499293},"geometry":{"x":177887.3600000022,"y":2550945.0800000019}},{"attributes":{"ID":499321,"DIS_CODE":0,"TOWNNAME":"新化區","LI":"北勢里","LIN":"7鄰","STREET":"金華街","SECT":"一段","MAREA":" ","LANE":" ","ALLEY":" ","HOUSE_NO":"２號","E_COORD97":177946.64000000001,"N_COORD97":2550944.96,"ADDRESS":"金華街一段２號","OBJECTID":499294},"geometry":{"x":177946.63999999966,"y":2550944.959999999}},{"attributes":{"ID":499322,"DIS_CODE":0,"TOWNNAME":"新化區","LI":"北勢里","LIN":"7鄰","STREET":"金華街","SECT":"一段","MAREA":" ","LANE":" ","ALLEY":" ","HOUSE_NO":"６號","E_COORD97":177954.66,"N_COORD97":2550950.6299999999,"ADDRESS":"金華街一段６號","OBJECTID":499295},"geometry":{"x":177954.66000000201,"y":2550950.629999999}},{"attributes":{"ID":499323,"DIS_CODE":0,"TOWNNAME":"新化區","LI":"北勢里","LIN":"7鄰","STREET":"金華街","SECT":"一段","MAREA":" ","LANE":" ","ALLEY":" ","HOUSE_NO":"８號","E_COORD97":177950.85999999999,"N_COORD97":2550958.1600000001,"ADDRESS":"金華街一段８號","OBJECTID":499296},"geometry":{"x":177950.86000000127,"y":2550958.160000002}},{"attributes":{"ID":499324,"DIS_CODE":0,"TOWNNAME":"安南區","LI":"城北里","LIN":"7鄰","STREET":"安中路","SECT":"六段","MAREA":" ","LANE":" ","ALLEY":" ","HOUSE_NO":"４４８號","E_COORD97":161112.16,"N_COORD97":2551338.8799999999,"ADDRESS":"安中路六段４４８號","OBJECTID":499297},"geometry":{"x":161112.16000000015,"y":2551338.879999999}},{"attributes":{"ID":499325,"DIS_CODE":0,"TOWNNAME":"安南區","LI":"淵東里","LIN":"7鄰","STREET":"本原街","SECT":"三段","MAREA":" ","LANE":" ","ALLEY":" ","HOUSE_NO":"１５５號","E_COORD97":165525.91,"N_COORD97":2550336.5800000001,"ADDRESS":"本原街三段１５５號","OBJECTID":499298},"geometry":{"x":165525.91000000108,"y":2550336.5800000038}},{"attributes":{"ID":499326,"DIS_CODE":0,"TOWNNAME":"安南區","LI":"淵東里","LIN":"7鄰","STREET":"本原街","SECT":"三段","MAREA":" ","LANE":" ","ALLEY":" ","HOUSE_NO":"１５７號","E_COORD97":165521.60000000001,"N_COORD97":2550335.1400000001,"ADDRESS":"本原街三段１５７號","OBJECTID":499299},"geometry":{"x":165521.59999999963,"y":2550335.1400000006}},{"attributes":{"ID":499327,"DIS_CODE":0,"TOWNNAME":"安南區","LI":"淵東里","LIN":"7鄰","STREET":"本原街","SECT":"三段","MAREA":" ","LANE":" ","ALLEY":" ","HOUSE_NO":"１５９號","E_COORD97":165516.79999999999,"N_COORD97":2550334.3500000001,"ADDRESS":"本原街三段１５９號","OBJECTID":499300},"geometry":{"x":165516.79999999981,"y":2550334.3500000034}},{"attributes":{"ID":499328,"DIS_CODE":0,"TOWNNAME":"安南區","LI":"淵東里","LIN":"7鄰","STREET":"本原街","SECT":"三段","MAREA":" ","LANE":" ","ALLEY":" ","HOUSE_NO":"１６１號","E_COORD97":165512.48999999999,"N_COORD97":2550333.3900000001,"ADDRESS":"本原街三段１６１號","OBJECTID":499301},"geometry":{"x":165512.49000000022,"y":2550333.3900000025}},{"attributes":{"ID":499329,"DIS_CODE":0,"TOWNNAME":"安南區","LI":"淵東里","LIN":"7鄰","STREET":"本原街","SECT":"三段","MAREA":" ","LANE":" ","ALLEY":" ","HOUSE_NO":"１６３號","E_COORD97":165509.23000000001,"N_COORD97":2550331.9900000002,"ADDRESS":"本原街三段１６３號","OBJECTID":499302},"geometry":{"x":165509.23000000138,"y":2550331.9900000021}},{"attributes":{"ID":499330,"DIS_CODE":0,"TOWNNAME":"安南區","LI":"淵東里","LIN":"7鄰","STREET":"本原街","SECT":"三段","MAREA":" ","LANE":" ","ALLEY":" ","HOUSE_NO":"１６５號","E_COORD97":165504.62,"N_COORD97":2550330.8399999999,"ADDRESS":"本原街三段１６５號","OBJECTID":499303},"geometry":{"x":165504.62000000011,"y":2550330.8399999999}},{"attributes":{"ID":499331,"DIS_CODE":0,"TOWNNAME":"安南區","LI":"淵東里","LIN":"7鄰","STREET":"本原街","SECT":"三段","MAREA":" ","LANE":" ","ALLEY":" ","HOUSE_NO":"１６７號","E_COORD97":165500.01999999999,"N_COORD97":2550329.3100000001,"ADDRESS":"本原街三段１６７號","OBJECTID":499304},"geometry":{"x":165500.01999999955,"y":2550329.3100000024}},{"attributes":{"ID":499332,"DIS_CODE":0,"TOWNNAME":"安南區","LI":"淵東里","LIN":"7鄰","STREET":"本原街","SECT":"三段","MAREA":" ","LANE":" ","ALLEY":" ","HOUSE_NO":"１７１號","E_COORD97":165482.56,"N_COORD97":2550323.9500000002,"ADDRESS":"本原街三段１７１號","OBJECTID":499305},"geometry":{"x":165482.55999999959,"y":2550323.9500000011}},{"attributes":{"ID":499333,"DIS_CODE":0,"TOWNNAME":"安南區","LI":"淵東里","LIN":"7鄰","STREET":"本原街","SECT":"三段","MAREA":" ","LANE":" ","ALLEY":" ","HOUSE_NO":"１７３號","E_COORD97":165477.76000000001,"N_COORD97":2550322.2200000002,"ADDRESS":"本原街三段１７３號","OBJECTID":499306},"geometry":{"x":165477.76000000071,"y":2550322.2200000007}},{"attributes":{"ID":499334,"DIS_CODE":0,"TOWNNAME":"安南區","LI":"淵東里","LIN":"7鄰","STREET":"本原街","SECT":"三段","MAREA":" ","LANE":" ","ALLEY":" ","HOUSE_NO":"１４７號","E_COORD97":165541.73999999999,"N_COORD97":2550341.5299999998,"ADDRESS":"本原街三段１４７號","OBJECTID":499307},"geometry":{"x":165541.74000000022,"y":2550341.5299999993}},{"attributes":{"ID":499335,"DIS_CODE":0,"TOWNNAME":"安南區","LI":"頂安里","LIN":"7鄰","STREET":"怡安路","SECT":"一段","MAREA":" ","LANE":" ","ALLEY":" ","HOUSE_NO":"４１２號","E_COORD97":168662.53,"N_COORD97":2549199.6099999999,"ADDRESS":"怡安路一段４１２號","OBJECTID":499308},"geometry":{"x":168662.52999999933,"y":2549199.6099999994}},{"attributes":{"ID":499336,"DIS_CODE":0,"TOWNNAME":"安南區","LI":"頂安里","LIN":"7鄰","STREET":"怡安路","SECT":"一段","MAREA":" ","LANE":" ","ALLEY":" ","HOUSE_NO":"４２８號","E_COORD97":168646.10000000001,"N_COORD97":2549194.23,"ADDRESS":"怡安路一段４２８號","OBJECTID":499309},"geometry":{"x":168646.0999999987,"y":2549194.2300000023}},{"attributes":{"ID":499337,"DIS_CODE":0,"TOWNNAME":"安南區","LI":"頂安里","LIN":"7鄰","STREET":"頂安街","SECT":" ","MAREA":" ","LANE":" ","ALLEY":" ","HOUSE_NO":"５０１號","E_COORD97":168709.59,"N_COORD97":2549292.5699999998,"ADDRESS":"頂安街５０１號","OBJECTID":499310},"geometry":{"x":168709.59000000078,"y":2549292.5699999984}},{"attributes":{"ID":499338,"DIS_CODE":0,"TOWNNAME":"安南區","LI":"頂安里","LIN":"7鄰","STREET":"頂安街","SECT":" ","MAREA":" ","LANE":" ","ALLEY":" ","HOUSE_NO":"５０３號","E_COORD97":168694.32999999999,"N_COORD97":2549289.6699999999,"ADDRESS":"頂安街５０３號","OBJECTID":499311},"geometry":{"x":168694.33000000194,"y":2549289.6700000018}},{"attributes":{"ID":499339,"DIS_CODE":0,"TOWNNAME":"安南區","LI":"頂安里","LIN":"7鄰","STREET":"頂安街","SECT":" ","MAREA":" ","LANE":" ","ALLEY":" ","HOUSE_NO":"５１１號","E_COORD97":168695.12,"N_COORD97":2549267.9500000002,"ADDRESS":"頂安街５１１號","OBJECTID":499312},"geometry":{"x":168695.12000000011,"y":2549267.9499999993}},{"attributes":{"ID":499340,"DIS_CODE":0,"TOWNNAME":"安南區","LI":"頂安里","LIN":"7鄰","STREET":"頂安街","SECT":" ","MAREA":" ","LANE":" ","ALLEY":" ","HOUSE_NO":"５１４號","E_COORD97":168669.39999999999,"N_COORD97":2549302.9199999999,"ADDRESS":"頂安街５１４號","OBJECTID":499313},"geometry":{"x":168669.4000000013,"y":2549302.9199999999}},{"attributes":{"ID":499341,"DIS_CODE":0,"TOWNNAME":"安南區","LI":"頂安里","LIN":"7鄰","STREET":"頂安街","SECT":" ","MAREA":" ","LANE":" ","ALLEY":" ","HOUSE_NO":"５１５號","E_COORD97":168679.5,"N_COORD97":2549281.1299999999,"ADDRESS":"頂安街５１５號","OBJECTID":499314},"geometry":{"x":168679.50000000186,"y":2549281.1300000008}},{"attributes":{"ID":499342,"DIS_CODE":0,"TOWNNAME":"善化區","LI":"文昌里","LIN":"7鄰","STREET":"光復路","SECT":" ","MAREA":" ","LANE":" ","ALLEY":" ","HOUSE_NO":"１９２號","E_COORD97":177270.22,"N_COORD97":2558613.7599999998,"ADDRESS":"光復路１９２號","OBJECTID":499315},"geometry":{"x":177270.21999999974,"y":2558613.7599999998}},{"attributes":{"ID":499343,"DIS_CODE":0,"TOWNNAME":"善化區","LI":"坐駕里","LIN":"7鄰","STREET":"大成路","SECT":" ","MAREA":" ","LANE":" ","ALLEY":" ","HOUSE_NO":"３６２號","E_COORD97":177946.41,"N_COORD97":2558811,"ADDRESS":"大成路３６２號","OBJECTID":499316},"geometry":{"x":177946.41000000108,"y":2558811.0000000019}},{"attributes":{"ID":499344,"DIS_CODE":0,"TOWNNAME":"善化區","LI":"文昌里","LIN":"7鄰","STREET":"文昌路","SECT":" ","MAREA":" ","LANE":" ","ALLEY":" ","HOUSE_NO":"３８號之１","E_COORD97":177289.42999999999,"N_COORD97":2558738.0299999998,"ADDRESS":"文昌路３８號之１","OBJECTID":499317},"geometry":{"x":177289.42999999877,"y":2558738.0300000012}},{"attributes":{"ID":499345,"DIS_CODE":0,"TOWNNAME":"善化區","LI":"文昌里","LIN":"7鄰","STREET":"文昌路","SECT":" ","MAREA":" ","LANE":" ","ALLEY":" ","HOUSE_NO":"３８號","E_COORD97":177292.53,"N_COORD97":2558739.5299999998,"ADDRESS":"文昌路３８號","OBJECTID":499318},"geometry":{"x":177292.53000000026,"y":2558739.5299999993}},{"attributes":{"ID":499346,"DIS_CODE":0,"TOWNNAME":"善化區","LI":"坐駕里","LIN":"7鄰","STREET":"大成路","SECT":" ","MAREA":" ","LANE":" ","ALLEY":" ","HOUSE_NO":"３６６號","E_COORD97":177936.66,"N_COORD97":2558809.5,"ADDRESS":"大成路３６６號","OBJECTID":499319},"geometry":{"x":177936.66000000108,"y":2558809.4999999981}},{"attributes":{"ID":499347,"DIS_CODE":0,"TOWNNAME":"善化區","LI":"西關里","LIN":"7鄰","STREET":"中山路","SECT":" ","MAREA":" ","LANE":" ","ALLEY":" ","HOUSE_NO":"５１３號之１","E_COORD97":177080.70000000001,"N_COORD97":2559147.27,"ADDRESS":"中山路５１３號之１","OBJECTID":499320},"geometry":{"x":177080.70000000019,"y":2559147.2700000014}},{"attributes":{"ID":499348,"DIS_CODE":0,"TOWNNAME":"善化區","LI":"西關里","LIN":"7鄰","STREET":"三民路","SECT":" ","MAREA":" ","LANE":" ","ALLEY":" ","HOUSE_NO":"７７號","E_COORD97":177104.34,"N_COORD97":2559112.5099999998,"ADDRESS":"三民路７７號","OBJECTID":499321},"geometry":{"x":177104.34000000078,"y":2559112.5100000016}},{"attributes":{"ID":499349,"DIS_CODE":0,"TOWNNAME":"善化區","LI":"光文里","LIN":"7鄰","STREET":"建業路","SECT":" ","MAREA":" ","LANE":" ","ALLEY":" ","HOUSE_NO":"４９號","E_COORD97":178931.89999999999,"N_COORD97":2559618.2799999998,"ADDRESS":"建業路４９號","OBJECTID":499322},"geometry":{"x":178931.9000000013,"y":2559618.2800000012}},{"attributes":{"ID":499350,"DIS_CODE":0,"TOWNNAME":"善化區","LI":"光文里","LIN":"7鄰","STREET":"建業路","SECT":" ","MAREA":" ","LANE":" ","ALLEY":" ","HOUSE_NO":"９１號之１","E_COORD97":178846.69,"N_COORD97":2559663.7799999998,"ADDRESS":"建業路９１號之１","OBJECTID":499323},"geometry":{"x":178846.69000000134,"y":2559663.7799999993}},{"attributes":{"ID":499351,"DIS_CODE":0,"TOWNNAME":"善化區","LI":"坐駕里","LIN":"7鄰","STREET":"大成路","SECT":" ","MAREA":" ","LANE":" ","ALLEY":" ","HOUSE_NO":"４０８號","E_COORD97":177814.32000000001,"N_COORD97":2558796,"ADDRESS":"大成路４０８號","OBJECTID":499324},"geometry":{"x":177814.3200000003,"y":2558796.0000000037}},{"attributes":{"ID":499352,"DIS_CODE":0,"TOWNNAME":"善化區","LI":"坐駕里","LIN":"7鄰","STREET":"大成路","SECT":" ","MAREA":" ","LANE":" ","ALLEY":" ","HOUSE_NO":"３５２號","E_COORD97":177969.04999999999,"N_COORD97":2558815.25,"ADDRESS":"大成路３５２號","OBJECTID":499325},"geometry":{"x":177969.05000000075,"y":2558815.2500000019}},{"attributes":{"ID":499353,"DIS_CODE":0,"TOWNNAME":"善化區","LI":"光文里","LIN":"7鄰","STREET":"建業路","SECT":" ","MAREA":" ","LANE":" ","ALLEY":" ","HOUSE_NO":"５１號","E_COORD97":178926.26999999999,"N_COORD97":2559623.7799999998,"ADDRESS":"建業路５１號","OBJECTID":499326},"geometry":{"x":178926.27000000142,"y":2559623.7799999993}},{"attributes":{"ID":499354,"DIS_CODE":0,"TOWNNAME":"東區","LI":"富強里","LIN":"4鄰","STREET":"裕農路","SECT":" ","MAREA":" ","LANE":"４４６巷","ALLEY":"３２弄","HOUSE_NO":"７號","E_COORD97":171212.32000000001,"N_COORD97":2543018.3900000001,"ADDRESS":"裕農路４４６巷３２弄７號","OBJECTID":499327},"geometry":{"x":171212.32000000123,"y":2543018.3900000006}},{"attributes":{"ID":499355,"DIS_CODE":0,"TOWNNAME":"善化區","LI":"坐駕里","LIN":"7鄰","STREET":"大成路","SECT":" ","MAREA":" ","LANE":" ","ALLEY":" ","HOUSE_NO":"３５６號","E_COORD97":177960.20999999999,"N_COORD97":2558813.75,"ADDRESS":"大成路３５６號","OBJECTID":499328},"geometry":{"x":177960.20999999996,"y":2558813.75}},{"attributes":{"ID":499356,"DIS_CODE":0,"TOWNNAME":"善化區","LI":"光文里","LIN":"7鄰","STREET":"光文路","SECT":" ","MAREA":" ","LANE":" ","ALLEY":" ","HOUSE_NO":"１７號","E_COORD97":178887.34,"N_COORD97":2559247.0299999998,"ADDRESS":"光文路１７號","OBJECTID":499329},"geometry":{"x":178887.34000000078,"y":2559247.0300000012}},{"attributes":{"ID":499357,"DIS_CODE":0,"TOWNNAME":"善化區","LI":"文昌里","LIN":"7鄰","STREET":"文昌路","SECT":" ","MAREA":" ","LANE":" ","ALLEY":" ","HOUSE_NO":"３８號之７","E_COORD97":177306.59,"N_COORD97":2558744.0299999998,"ADDRESS":"文昌路３８號之７","OBJECTID":499330},"geometry":{"x":177306.58999999985,"y":2558744.0299999993}},{"attributes":{"ID":499358,"DIS_CODE":0,"TOWNNAME":"善化區","LI":"文昌里","LIN":"7鄰","STREET":"光復路","SECT":" ","MAREA":" ","LANE":" ","ALLEY":" ","HOUSE_NO":"２００號","E_COORD97":177256.87,"N_COORD97":2558609.2599999998,"ADDRESS":"光復路２００號","OBJECTID":499331},"geometry":{"x":177256.87000000104,"y":2558609.2600000016}},{"attributes":{"ID":499359,"DIS_CODE":0,"TOWNNAME":"善化區","LI":"光文里","LIN":"7鄰","STREET":"建業路","SECT":" ","MAREA":" ","LANE":" ","ALLEY":" ","HOUSE_NO":"４７號","E_COORD97":178939.48999999999,"N_COORD97":2559612.2799999998,"ADDRESS":"建業路４７號","OBJECTID":499332},"geometry":{"x":178939.49000000115,"y":2559612.2800000012}},{"attributes":{"ID":499360,"DIS_CODE":0,"TOWNNAME":"善化區","LI":"坐駕里","LIN":"7鄰","STREET":"大成路","SECT":" ","MAREA":" ","LANE":" ","ALLEY":" ","HOUSE_NO":"４０６號","E_COORD97":177818.35999999999,"N_COORD97":2558796.25,"ADDRESS":"大成路４０６號","OBJECTID":499333},"geometry":{"x":177818.36000000127,"y":2558796.25}},{"attributes":{"ID":499361,"DIS_CODE":0,"TOWNNAME":"善化區","LI":"文昌里","LIN":"7鄰","STREET":"文昌路","SECT":" ","MAREA":" ","LANE":" ","ALLEY":" ","HOUSE_NO":"３８號之９","E_COORD97":177315.64000000001,"N_COORD97":2558747.0299999998,"ADDRESS":"文昌路３８號之９","OBJECTID":499334},"geometry":{"x":177315.6400000006,"y":2558747.0299999993}},{"attributes":{"ID":499362,"DIS_CODE":0,"TOWNNAME":"善化區","LI":"光文里","LIN":"7鄰","STREET":"建業路","SECT":" ","MAREA":" ","LANE":" ","ALLEY":" ","HOUSE_NO":"２９６號","E_COORD97":178409.10000000001,"N_COORD97":2560410.7799999998,"ADDRESS":"建業路２９６號","OBJECTID":499335},"geometry":{"x":178409.10000000056,"y":2560410.7800000031}},{"attributes":{"ID":499363,"DIS_CODE":0,"TOWNNAME":"善化區","LI":"坐駕里","LIN":"7鄰","STREET":"大成路","SECT":" ","MAREA":" ","LANE":" ","ALLEY":" ","HOUSE_NO":"４００號","E_COORD97":177830.66,"N_COORD97":2558796,"ADDRESS":"大成路４００號","OBJECTID":499336},"geometry":{"x":177830.66000000015,"y":2558796.0000000037}},{"attributes":{"ID":499364,"DIS_CODE":0,"TOWNNAME":"善化區","LI":"西關里","LIN":"7鄰","STREET":"中山路","SECT":" ","MAREA":" ","LANE":" ","ALLEY":" ","HOUSE_NO":"５１７號","E_COORD97":177062.17000000001,"N_COORD97":2559150.5,"ADDRESS":"中山路５１７號","OBJECTID":499337},"geometry":{"x":177062.16999999993,"y":2559150.5}},{"attributes":{"ID":499365,"DIS_CODE":0,"TOWNNAME":"善化區","LI":"西關里","LIN":"7鄰","STREET":"中山路","SECT":" ","MAREA":" ","LANE":" ","ALLEY":" ","HOUSE_NO":"５１５號","E_COORD97":177066.48000000001,"N_COORD97":2559149.75,"ADDRESS":"中山路５１５號","OBJECTID":499338},"geometry":{"x":177066.48000000138,"y":2559149.75}},{"attributes":{"ID":499366,"DIS_CODE":0,"TOWNNAME":"善化區","LI":"小新里","LIN":"7鄰","STREET":"成功路","SECT":" ","MAREA":" ","LANE":" ","ALLEY":" ","HOUSE_NO":"３５１號","E_COORD97":179464.04999999999,"N_COORD97":2558735.5,"ADDRESS":"成功路３５１號","OBJECTID":499339},"geometry":{"x":179464.05000000075,"y":2558735.5000000019}},{"attributes":{"ID":499367,"DIS_CODE":0,"TOWNNAME":"善化區","LI":"光文里","LIN":"7鄰","STREET":"建業路","SECT":" ","MAREA":" ","LANE":" ","ALLEY":" ","HOUSE_NO":"５６號","E_COORD97":178893.14999999999,"N_COORD97":2559735.2799999998,"ADDRESS":"建業路５６號","OBJECTID":499340},"geometry":{"x":178893.1500000013,"y":2559735.2799999993}},{"attributes":{"ID":499368,"DIS_CODE":0,"TOWNNAME":"善化區","LI":"光文里","LIN":"7鄰","STREET":"建業路","SECT":" ","MAREA":" ","LANE":" ","ALLEY":" ","HOUSE_NO":"１８５號","E_COORD97":178725.76000000001,"N_COORD97":2559761.0299999998,"ADDRESS":"建業路１８５號","OBJECTID":499341},"geometry":{"x":178725.75999999978,"y":2559761.0299999993}},{"attributes":{"ID":499369,"DIS_CODE":0,"TOWNNAME":"善化區","LI":"坐駕里","LIN":"7鄰","STREET":"大成路","SECT":" ","MAREA":" ","LANE":" ","ALLEY":" ","HOUSE_NO":"３８２號","E_COORD97":177892.70999999999,"N_COORD97":2558808.5,"ADDRESS":"大成路３８２號","OBJECTID":499342},"geometry":{"x":177892.70999999996,"y":2558808.5}},{"attributes":{"ID":499370,"DIS_CODE":0,"TOWNNAME":"善化區","LI":"坐駕里","LIN":"7鄰","STREET":"大成路","SECT":" ","MAREA":" ","LANE":" ","ALLEY":" ","HOUSE_NO":"３６０號","E_COORD97":177951.16,"N_COORD97":2558812,"ADDRESS":"大成路３６０號","OBJECTID":499343},"geometry":{"x":177951.15999999922,"y":2558812}},{"attributes":{"ID":499371,"DIS_CODE":0,"TOWNNAME":"善化區","LI":"光文里","LIN":"7鄰","STREET":"建業路","SECT":" ","MAREA":" ","LANE":" ","ALLEY":" ","HOUSE_NO":"３００號","E_COORD97":178348.35000000001,"N_COORD97":2560545.5299999998,"ADDRESS":"建業路３００號","OBJECTID":499344},"geometry":{"x":178348.35000000056,"y":2560545.5300000012}},{"attributes":{"ID":499372,"DIS_CODE":0,"TOWNNAME":"善化區","LI":"文昌里","LIN":"7鄰","STREET":"文昌路","SECT":" ","MAREA":" ","LANE":" ","ALLEY":" ","HOUSE_NO":"８７之２號","E_COORD97":177193.39000000001,"N_COORD97":2558684.0299999998,"ADDRESS":"文昌路８７之２號","OBJECTID":499345},"geometry":{"x":177193.3900000006,"y":2558684.0300000012}},{"attributes":{"ID":499373,"DIS_CODE":0,"TOWNNAME":"善化區","LI":"文昌里","LIN":"7鄰","STREET":"文昌路","SECT":" ","MAREA":" ","LANE":" ","ALLEY":" ","HOUSE_NO":"９７號","E_COORD97":177166.07999999999,"N_COORD97":2558672.7799999998,"ADDRESS":"文昌路９７號","OBJECTID":499346},"geometry":{"x":177166.08000000007,"y":2558672.7800000012}},{"attributes":{"ID":499374,"DIS_CODE":0,"TOWNNAME":"善化區","LI":"文昌里","LIN":"7鄰","STREET":"文昌路","SECT":" ","MAREA":" ","LANE":" ","ALLEY":" ","HOUSE_NO":"８９號","E_COORD97":177202.64999999999,"N_COORD97":2558664.0299999998,"ADDRESS":"文昌路８９號","OBJECTID":499347},"geometry":{"x":177202.6500000013,"y":2558664.0300000012}},{"attributes":{"ID":499375,"DIS_CODE":0,"TOWNNAME":"善化區","LI":"文昌里","LIN":"7鄰","STREET":"文昌路","SECT":" ","MAREA":" ","LANE":" ","ALLEY":" ","HOUSE_NO":"７１號","E_COORD97":177266.28,"N_COORD97":2558708.2799999998,"ADDRESS":"文昌路７１號","OBJECTID":499348},"geometry":{"x":177266.28000000119,"y":2558708.2799999993}},{"attributes":{"ID":499376,"DIS_CODE":0,"TOWNNAME":"善化區","LI":"文昌里","LIN":"7鄰","STREET":"文昌路","SECT":" ","MAREA":" ","LANE":" ","ALLEY":" ","HOUSE_NO":"８７號","E_COORD97":177201.04000000001,"N_COORD97":2558686.2799999998,"ADDRESS":"文昌路８７號","OBJECTID":499349},"geometry":{"x":177201.0400000019,"y":2558686.2800000012}},{"attributes":{"ID":499377,"DIS_CODE":0,"TOWNNAME":"善化區","LI":"文昌里","LIN":"7鄰","STREET":"文昌路","SECT":" ","MAREA":" ","LANE":" ","ALLEY":" ","HOUSE_NO":"１０３號","E_COORD97":177155.20999999999,"N_COORD97":2558669.0299999998,"ADDRESS":"文昌路１０３號","OBJECTID":499350},"geometry":{"x":177155.20999999996,"y":2558669.0299999993}},{"attributes":{"ID":499378,"DIS_CODE":0,"TOWNNAME":"善化區","LI":"文昌里","LIN":"7鄰","STREET":"文昌路","SECT":" ","MAREA":" ","LANE":" ","ALLEY":" ","HOUSE_NO":"８９號之１１","E_COORD97":177217.54999999999,"N_COORD97":2558608.5299999998,"ADDRESS":"文昌路８９號之１１","OBJECTID":499351},"geometry":{"x":177217.55000000168,"y":2558608.5299999975}},{"attributes":{"ID":499379,"DIS_CODE":0,"TOWNNAME":"善化區","LI":"文昌里","LIN":"7鄰","STREET":"中華路","SECT":" ","MAREA":" ","LANE":" ","ALLEY":" ","HOUSE_NO":"８８號","E_COORD97":177242.29999999999,"N_COORD97":2558836,"ADDRESS":"中華路８８號","OBJECTID":499352},"geometry":{"x":177242.29999999981,"y":2558836}},{"attributes":{"ID":499380,"DIS_CODE":0,"TOWNNAME":"善化區","LI":"文昌里","LIN":"7鄰","STREET":"文昌路","SECT":" ","MAREA":" ","LANE":" ","ALLEY":" ","HOUSE_NO":"７１號之１","E_COORD97":177262.44,"N_COORD97":2558706.5299999998,"ADDRESS":"文昌路７１號之１","OBJECTID":499353},"geometry":{"x":177262.44000000041,"y":2558706.5299999993}},{"attributes":{"ID":499381,"DIS_CODE":0,"TOWNNAME":"善化區","LI":"文昌里","LIN":"7鄰","STREET":"文昌路","SECT":" ","MAREA":" ","LANE":" ","ALLEY":" ","HOUSE_NO":"６５號","E_COORD97":177292.07000000001,"N_COORD97":2558716.5299999998,"ADDRESS":"文昌路６５號","OBJECTID":499354},"geometry":{"x":177292.0700000003,"y":2558716.5299999993}},{"attributes":{"ID":499382,"DIS_CODE":0,"TOWNNAME":"善化區","LI":"文昌里","LIN":"7鄰","STREET":"文昌路","SECT":" ","MAREA":" ","LANE":" ","ALLEY":" ","HOUSE_NO":"７３號之２","E_COORD97":177245.98000000001,"N_COORD97":2558701.0299999998,"ADDRESS":"文昌路７３號之２","OBJECTID":499355},"geometry":{"x":177245.98000000231,"y":2558701.0300000012}},{"attributes":{"ID":499383,"DIS_CODE":0,"TOWNNAME":"善化區","LI":"文正里","LIN":"7鄰","STREET":"文正路","SECT":" ","MAREA":" ","LANE":" ","ALLEY":" ","HOUSE_NO":"６３號","E_COORD97":177073.95000000001,"N_COORD97":2559297.0299999998,"ADDRESS":"文正路６３號","OBJECTID":499356},"geometry":{"x":177073.95000000019,"y":2559297.0300000031}},{"attributes":{"ID":499384,"DIS_CODE":0,"TOWNNAME":"善化區","LI":"文昌里","LIN":"7鄰","STREET":"文昌路","SECT":" ","MAREA":" ","LANE":" ","ALLEY":" ","HOUSE_NO":"７５之２號","E_COORD97":177233.10999999999,"N_COORD97":2558696.2799999998,"ADDRESS":"文昌路７５之２號","OBJECTID":499357},"geometry":{"x":177233.1100000022,"y":2558696.2800000012}},{"attributes":{"ID":499385,"DIS_CODE":0,"TOWNNAME":"善化區","LI":"文昌里","LIN":"7鄰","STREET":"文昌路","SECT":" ","MAREA":" ","LANE":" ","ALLEY":" ","HOUSE_NO":"８９號之２","E_COORD97":177205.14999999999,"N_COORD97":2558648.0299999998,"ADDRESS":"文昌路８９號之２","OBJECTID":499358},"geometry":{"x":177205.15000000037,"y":2558648.0299999993}},{"attributes":{"ID":499386,"DIS_CODE":0,"TOWNNAME":"善化區","LI":"文昌里","LIN":"7鄰","STREET":"文昌路","SECT":" ","MAREA":" ","LANE":" ","ALLEY":" ","HOUSE_NO":"７７號","E_COORD97":177227.64000000001,"N_COORD97":2558694.2799999998,"ADDRESS":"文昌路７７號","OBJECTID":499359},"geometry":{"x":177227.6400000006,"y":2558694.2799999993}},{"attributes":{"ID":499387,"DIS_CODE":0,"TOWNNAME":"善化區","LI":"文正里","LIN":"7鄰","STREET":"文正路","SECT":" ","MAREA":" ","LANE":" ","ALLEY":" ","HOUSE_NO":"４７號","E_COORD97":177040.89999999999,"N_COORD97":2559315.7799999998,"ADDRESS":"文正路４７號","OBJECTID":499360},"geometry":{"x":177040.90000000037,"y":2559315.7800000031}},{"attributes":{"ID":499388,"DIS_CODE":0,"TOWNNAME":"善化區","LI":"文昌里","LIN":"7鄰","STREET":"中華路","SECT":" ","MAREA":" ","LANE":" ","ALLEY":" ","HOUSE_NO":"７６號","E_COORD97":177247.76000000001,"N_COORD97":2558816.75,"ADDRESS":"中華路７６號","OBJECTID":499361},"geometry":{"x":177247.75999999978,"y":2558816.75}},{"attributes":{"ID":499389,"DIS_CODE":0,"TOWNNAME":"新市區","LI":"港墘里","LIN":"13鄰","STREET":"中山路","SECT":" ","MAREA":" ","LANE":"７８巷","ALLEY":"５３弄","HOUSE_NO":"１號","E_COORD97":178222.98999999999,"N_COORD97":2552831.75,"ADDRESS":"中山路７８巷５３弄１號","OBJECTID":499362},"geometry":{"x":178222.99000000022,"y":2552831.7500000019}},{"attributes":{"ID":499390,"DIS_CODE":0,"TOWNNAME":"永康區","LI":"\u25A0洲里","LIN":"7鄰","STREET":"三村二街","SECT":" ","MAREA":" ","LANE":" ","ALLEY":" ","HOUSE_NO":"４８號","E_COORD97":171880.48999999999,"N_COORD97":2549464.2400000002,"ADDRESS":"三村二街４８號","OBJECTID":499363},"geometry":{"x":171880.49000000115,"y":2549464.2399999984}},{"attributes":{"ID":499391,"DIS_CODE":0,"TOWNNAME":"永康區","LI":"\u25A0行里","LIN":"7鄰","STREET":"中正五街","SECT":" ","MAREA":" ","LANE":" ","ALLEY":" ","HOUSE_NO":"２２號","E_COORD97":172537.12,"N_COORD97":2548534.9900000002,"ADDRESS":"中正五街２２號","OBJECTID":499364},"geometry":{"x":172537.12000000197,"y":2548534.9900000021}},{"attributes":{"ID":499392,"DIS_CODE":0,"TOWNNAME":"永康區","LI":"\u25A0洲里","LIN":"7鄰","STREET":"三村二街","SECT":" ","MAREA":" ","LANE":" ","ALLEY":" ","HOUSE_NO":"１１６號","E_COORD97":171738.01999999999,"N_COORD97":2549546,"ADDRESS":"三村二街１１６號","OBJECTID":499365},"geometry":{"x":171738.01999999955,"y":2549546}},{"attributes":{"ID":499393,"DIS_CODE":0,"TOWNNAME":"永康區","LI":"\u25A0行里","LIN":"7鄰","STREET":"中正路","SECT":" ","MAREA":" ","LANE":" ","ALLEY":" ","HOUSE_NO":"８０４號","E_COORD97":172210.45999999999,"N_COORD97":2548692.9399999999,"ADDRESS":"中正路８０４號","OBJECTID":499366},"geometry":{"x":172210.45999999996,"y":2548692.9400000013}},{"attributes":{"ID":499394,"DIS_CODE":0,"TOWNNAME":"永康區","LI":"\u25A0洲里","LIN":"7鄰","STREET":"三村二街","SECT":" ","MAREA":" ","LANE":" ","ALLEY":" ","HOUSE_NO":"８６號","E_COORD97":171789.73000000001,"N_COORD97":2549517.25,"ADDRESS":"三村二街８６號","OBJECTID":499367},"geometry":{"x":171789.73000000138,"y":2549517.25}},{"attributes":{"ID":499395,"DIS_CODE":0,"TOWNNAME":"永康區","LI":"\u25A0行里","LIN":"7鄰","STREET":"中正路","SECT":" ","MAREA":" ","LANE":" ","ALLEY":" ","HOUSE_NO":"７００號","E_COORD97":172496.79000000001,"N_COORD97":2548494.25,"ADDRESS":"中正路７００號","OBJECTID":499368},"geometry":{"x":172496.7900000019,"y":2548494.2499999981}},{"attributes":{"ID":499396,"DIS_CODE":0,"TOWNNAME":"永康區","LI":"\u25A0洲里","LIN":"7鄰","STREET":"三村二街","SECT":" ","MAREA":" ","LANE":" ","ALLEY":" ","HOUSE_NO":"１６號","E_COORD97":171968.10999999999,"N_COORD97":2549418.25,"ADDRESS":"三村二街１６號","OBJECTID":499369},"geometry":{"x":171968.11000000127,"y":2549418.2500000019}},{"attributes":{"ID":499397,"DIS_CODE":0,"TOWNNAME":"永康區","LI":"\u25A0洲里","LIN":"7鄰","STREET":"三村二街","SECT":" ","MAREA":" ","LANE":" ","ALLEY":" ","HOUSE_NO":"１１２號","E_COORD97":171742.53,"N_COORD97":2549543.75,"ADDRESS":"三村二街１１２號","OBJECTID":499370},"geometry":{"x":171742.53000000026,"y":2549543.7500000019}},{"attributes":{"ID":499398,"DIS_CODE":0,"TOWNNAME":"永康區","LI":"\u25A0洲里","LIN":"7鄰","STREET":"三村二街","SECT":" ","MAREA":" ","LANE":" ","ALLEY":" ","HOUSE_NO":"２２號","E_COORD97":171950.25,"N_COORD97":2549427.25,"ADDRESS":"三村二街２２號","OBJECTID":499371},"geometry":{"x":171950.25000000093,"y":2549427.2500000019}},{"attributes":{"ID":499399,"DIS_CODE":0,"TOWNNAME":"永康區","LI":"\u25A0洲里","LIN":"7鄰","STREET":"三村二街","SECT":" ","MAREA":" ","LANE":" ","ALLEY":" ","HOUSE_NO":"１８號","E_COORD97":171963.45000000001,"N_COORD97":2549420.75,"ADDRESS":"三村二街１８號","OBJECTID":499372},"geometry":{"x":171963.45000000019,"y":2549420.7500000019}},{"attributes":{"ID":499400,"DIS_CODE":0,"TOWNNAME":"永康區","LI":"\u25A0洲里","LIN":"7鄰","STREET":"三村二街","SECT":" ","MAREA":" ","LANE":" ","ALLEY":" ","HOUSE_NO":"７３號","E_COORD97":171769.98000000001,"N_COORD97":2549501.4900000002,"ADDRESS":"三村二街７３號","OBJECTID":499373},"geometry":{"x":171769.98000000045,"y":2549501.4900000021}},{"attributes":{"ID":499401,"DIS_CODE":0,"TOWNNAME":"永康區","LI":"\u25A0洲里","LIN":"7鄰","STREET":"三村二街","SECT":" ","MAREA":" ","LANE":" ","ALLEY":" ","HOUSE_NO":"８３號","E_COORD97":171747.42999999999,"N_COORD97":2549511.75,"ADDRESS":"三村二街８３號","OBJECTID":499374},"geometry":{"x":171747.4299999997,"y":2549511.7500000037}},{"attributes":{"ID":499402,"DIS_CODE":0,"TOWNNAME":"永康區","LI":"\u25A0行里","LIN":"7鄰","STREET":"中正路","SECT":" ","MAREA":" ","LANE":" ","ALLEY":" ","HOUSE_NO":"５６８號","E_COORD97":172514.85999999999,"N_COORD97":2548383,"ADDRESS":"中正路５６８號","OBJECTID":499375},"geometry":{"x":172514.86000000034,"y":2548383}},{"attributes":{"ID":499403,"DIS_CODE":0,"TOWNNAME":"永康區","LI":"\u25A0行里","LIN":"7鄰","STREET":"中正路","SECT":" ","MAREA":" ","LANE":" ","ALLEY":" ","HOUSE_NO":"６９０號","E_COORD97":172486.66,"N_COORD97":2548416,"ADDRESS":"中正路６９０號","OBJECTID":499376},"geometry":{"x":172486.66000000108,"y":2548416.0000000019}},{"attributes":{"ID":499404,"DIS_CODE":0,"TOWNNAME":"永康區","LI":"\u25A0洲里","LIN":"7鄰","STREET":"三村二街","SECT":" ","MAREA":" ","LANE":" ","ALLEY":" ","HOUSE_NO":"１０２號","E_COORD97":171759.76000000001,"N_COORD97":2549534.25,"ADDRESS":"三村二街１０２號","OBJECTID":499377},"geometry":{"x":171759.76000000071,"y":2549534.25}},{"attributes":{"ID":499405,"DIS_CODE":0,"TOWNNAME":"永康區","LI":"\u25A0洲里","LIN":"7鄰","STREET":"三村二街","SECT":" ","MAREA":" ","LANE":" ","ALLEY":" ","HOUSE_NO":"４２號","E_COORD97":171891.54999999999,"N_COORD97":2549455.25,"ADDRESS":"三村二街４２號","OBJECTID":499378},"geometry":{"x":171891.55000000075,"y":2549455.2500000019}},{"attributes":{"ID":499406,"DIS_CODE":0,"TOWNNAME":"永康區","LI":"\u25A0行里","LIN":"7鄰","STREET":"中正五街","SECT":" ","MAREA":" ","LANE":" ","ALLEY":" ","HOUSE_NO":"２１號","E_COORD97":172570.29000000001,"N_COORD97":2548549.7400000002,"ADDRESS":"中正五街２１號","OBJECTID":499379},"geometry":{"x":172570.29000000097,"y":2548549.7400000021}},{"attributes":{"ID":499407,"DIS_CODE":0,"TOWNNAME":"永康區","LI":"\u25A0洲里","LIN":"7鄰","STREET":"三村二街","SECT":" ","MAREA":" ","LANE":" ","ALLEY":" ","HOUSE_NO":"８２號","E_COORD97":171794.03,"N_COORD97":2549515,"ADDRESS":"三村二街８２號","OBJECTID":499380},"geometry":{"x":171794.03000000119,"y":2549515}},{"attributes":{"ID":499408,"DIS_CODE":0,"TOWNNAME":"麻豆區","LI":"東角里","LIN":"7鄰","STREET":"忠孝路","SECT":" ","MAREA":" ","LANE":" ","ALLEY":" ","HOUSE_NO":"４９號","E_COORD97":173903.22,"N_COORD97":2564983.2799999998,"ADDRESS":"忠孝路４９號","OBJECTID":499381},"geometry":{"x":173903.21999999974,"y":2564983.2799999993}},{"attributes":{"ID":499409,"DIS_CODE":0,"TOWNNAME":"麻豆區","LI":"東角里","LIN":"7鄰","STREET":"忠孝路","SECT":" ","MAREA":" ","LANE":" ","ALLEY":" ","HOUSE_NO":"４７號","E_COORD97":173900.60999999999,"N_COORD97":2565004.4199999999,"ADDRESS":"忠孝路４７號","OBJECTID":499382},"geometry":{"x":173900.61000000127,"y":2565004.4200000037}},{"attributes":{"ID":499410,"DIS_CODE":0,"TOWNNAME":"麻豆區","LI":"東角里","LIN":"7鄰","STREET":"忠孝路","SECT":" ","MAREA":" ","LANE":" ","ALLEY":" ","HOUSE_NO":"５１號之１","E_COORD97":173967.64999999999,"N_COORD97":2564988.4500000002,"ADDRESS":"忠孝路５１號之１","OBJECTID":499383},"geometry":{"x":173967.65000000037,"y":2564988.4499999993}},{"attributes":{"ID":499411,"DIS_CODE":0,"TOWNNAME":"麻豆區","LI":"東角里","LIN":"7鄰","STREET":"忠孝路","SECT":" ","MAREA":" ","LANE":" ","ALLEY":" ","HOUSE_NO":"５１號之２","E_COORD97":173971.73000000001,"N_COORD97":2564993.2400000002,"ADDRESS":"忠孝路５１號之２","OBJECTID":499384},"geometry":{"x":173971.73000000045,"y":2564993.2400000021}},{"attributes":{"ID":499412,"DIS_CODE":0,"TOWNNAME":"麻豆區","LI":"東角里","LIN":"7鄰","STREET":"忠孝路","SECT":" ","MAREA":" ","LANE":" ","ALLEY":" ","HOUSE_NO":"５１號之３","E_COORD97":173950.04999999999,"N_COORD97":2564963.8500000001,"ADDRESS":"忠孝路５１號之３","OBJECTID":499385},"geometry":{"x":173950.05000000075,"y":2564963.8500000034}},{"attributes":{"ID":499413,"DIS_CODE":0,"TOWNNAME":"麻豆區","LI":"東角里","LIN":"7鄰","STREET":"忠孝路","SECT":" ","MAREA":" ","LANE":" ","ALLEY":" ","HOUSE_NO":"５１號之４","E_COORD97":173935.13,"N_COORD97":2564955.9700000002,"ADDRESS":"忠孝路５１號之４","OBJECTID":499386},"geometry":{"x":173935.12999999896,"y":2564955.9700000007}},{"attributes":{"ID":499414,"DIS_CODE":0,"TOWNNAME":"麻豆區","LI":"東角里","LIN":"7鄰","STREET":"忠孝路","SECT":" ","MAREA":" ","LANE":" ","ALLEY":" ","HOUSE_NO":"５１號之５","E_COORD97":173929.59,"N_COORD97":2564955.9500000002,"ADDRESS":"忠孝路５１號之５","OBJECTID":499387},"geometry":{"x":173929.58999999985,"y":2564955.950000003}},{"attributes":{"ID":499415,"DIS_CODE":0,"TOWNNAME":"麻豆區","LI":"東角里","LIN":"7鄰","STREET":"忠孝路","SECT":" ","MAREA":" ","LANE":" ","ALLEY":" ","HOUSE_NO":"５１號","E_COORD97":173926.76999999999,"N_COORD97":2564967.1600000001,"ADDRESS":"忠孝路５１號","OBJECTID":499388},"geometry":{"x":173926.76999999955,"y":2564967.160000002}},{"attributes":{"ID":499416,"DIS_CODE":0,"TOWNNAME":"麻豆區","LI":"東角里","LIN":"7鄰","STREET":"忠孝路","SECT":" ","MAREA":" ","LANE":" ","ALLEY":" ","HOUSE_NO":"５２號","E_COORD97":173961.22,"N_COORD97":2565057.9300000002,"ADDRESS":"忠孝路５２號","OBJECTID":499389},"geometry":{"x":173961.21999999974,"y":2565057.9299999997}},{"attributes":{"ID":499417,"DIS_CODE":0,"TOWNNAME":"麻豆區","LI":"東角里","LIN":"7鄰","STREET":"忠孝路","SECT":" ","MAREA":" ","LANE":" ","ALLEY":" ","HOUSE_NO":"５３號","E_COORD97":174008.89999999999,"N_COORD97":2565003.48,"ADDRESS":"忠孝路５３號","OBJECTID":499390},"geometry":{"x":174008.9000000013,"y":2565003.4800000004}},{"attributes":{"ID":499418,"DIS_CODE":0,"TOWNNAME":"麻豆區","LI":"東角里","LIN":"7鄰","STREET":"忠孝路","SECT":" ","MAREA":" ","LANE":" ","ALLEY":" ","HOUSE_NO":"５５號之１","E_COORD97":174081.79000000001,"N_COORD97":2565086.2200000002,"ADDRESS":"忠孝路５５號之１","OBJECTID":499391},"geometry":{"x":174081.7900000019,"y":2565086.2200000007}},{"attributes":{"ID":499419,"DIS_CODE":0,"TOWNNAME":"麻豆區","LI":"東角里","LIN":"7鄰","STREET":"忠孝路","SECT":" ","MAREA":" ","LANE":" ","ALLEY":" ","HOUSE_NO":"５５號之２","E_COORD97":174054.39000000001,"N_COORD97":2565054.4500000002,"ADDRESS":"忠孝路５５號之２","OBJECTID":499392},"geometry":{"x":174054.3900000006,"y":2565054.450000003}},{"attributes":{"ID":499420,"DIS_CODE":0,"TOWNNAME":"麻豆區","LI":"東角里","LIN":"7鄰","STREET":"忠孝路","SECT":" ","MAREA":" ","LANE":" ","ALLEY":" ","HOUSE_NO":"５５號","E_COORD97":174030.79000000001,"N_COORD97":2565036.02,"ADDRESS":"忠孝路５５號","OBJECTID":499393},"geometry":{"x":174030.79000000004,"y":2565036.0199999996}},{"attributes":{"ID":499421,"DIS_CODE":0,"TOWNNAME":"麻豆區","LI":"東角里","LIN":"7鄰","STREET":"忠孝路","SECT":" ","MAREA":" ","LANE":" ","ALLEY":" ","HOUSE_NO":"６１號之２","E_COORD97":174083.29000000001,"N_COORD97":2565008.52,"ADDRESS":"忠孝路６１號之２","OBJECTID":499394},"geometry":{"x":174083.29000000004,"y":2565008.5199999996}},{"attributes":{"ID":499422,"DIS_CODE":0,"TOWNNAME":"麻豆區","LI":"東角里","LIN":"7鄰","STREET":"忠孝路","SECT":" ","MAREA":" ","LANE":" ","ALLEY":" ","HOUSE_NO":"６１號之３","E_COORD97":174076.60999999999,"N_COORD97":2565008.1200000001,"ADDRESS":"忠孝路６１號之３","OBJECTID":499395},"geometry":{"x":174076.6100000022,"y":2565008.1200000029}},{"attributes":{"ID":499423,"DIS_CODE":0,"TOWNNAME":"麻豆區","LI":"東角里","LIN":"7鄰","STREET":"忠孝路","SECT":" ","MAREA":" ","LANE":" ","ALLEY":" ","HOUSE_NO":"６１號","E_COORD97":174092.53,"N_COORD97":2565025.4199999999,"ADDRESS":"忠孝路６１號","OBJECTID":499396},"geometry":{"x":174092.53000000119,"y":2565025.4200000018}},{"attributes":{"ID":499424,"DIS_CODE":0,"TOWNNAME":"麻豆區","LI":"東角里","LIN":"7鄰","STREET":"忠孝路","SECT":" ","MAREA":" ","LANE":" ","ALLEY":" ","HOUSE_NO":"６３號","E_COORD97":174115.25,"N_COORD97":2565105.1200000001,"ADDRESS":"忠孝路６３號","OBJECTID":499397},"geometry":{"x":174115.25,"y":2565105.120000001}},{"attributes":{"ID":499425,"DIS_CODE":0,"TOWNNAME":"永康區","LI":"蔦松里","LIN":"7鄰","STREET":"蔦松一街","SECT":" ","MAREA":" ","LANE":" ","ALLEY":" ","HOUSE_NO":"１６號","E_COORD97":174037.64000000001,"N_COORD97":2549361.0299999998,"ADDRESS":"蔦松一街１６號","OBJECTID":499398},"geometry":{"x":174037.63999999966,"y":2549361.0300000012}},{"attributes":{"ID":499426,"DIS_CODE":0,"TOWNNAME":"永康區","LI":"蔦松里","LIN":"7鄰","STREET":"蔦松一街","SECT":" ","MAREA":" ","LANE":" ","ALLEY":" ","HOUSE_NO":"２０號","E_COORD97":174029.48999999999,"N_COORD97":2549367.0299999998,"ADDRESS":"蔦松一街２０號","OBJECTID":499399},"geometry":{"x":174029.49000000022,"y":2549367.0300000012}},{"attributes":{"ID":499427,"DIS_CODE":0,"TOWNNAME":"永康區","LI":"新樹里","LIN":"7鄰","STREET":"富強路","SECT":"二段","MAREA":" ","LANE":" ","ALLEY":" ","HOUSE_NO":"３８號","E_COORD97":175705.64000000001,"N_COORD97":2546885.8300000001,"ADDRESS":"富強路二段３８號","OBJECTID":499400},"geometry":{"x":175705.63999999966,"y":2546885.8300000001}}]}