{"displayFieldName":"TOWNNAME","fieldAliases":{"ID":"ID","DIS_CODE":"DIS_CODE","TOWNNAME":"TOWNNAME","LI":"LI","LIN":"LIN","STREET":"STREET","SECT":"SECT","MAREA":"MAREA","LANE":"LANE","ALLEY":"ALLEY","HOUSE_NO":"HOUSE_NO","E_COORD97":"E_COORD97","N_COORD97":"N_COORD97","ADDRESS":"ADDRESS","OBJECTID":"OBJECTID"},"geometryType":"esriGeometryPoint","spatialReference":{"wkid":102443,"latestWkid":3826},"fields":[{"name":"ID","type":"esriFieldTypeDouble","alias":"ID"},{"name":"DIS_CODE","type":"esriFieldTypeInteger","alias":"DIS_CODE"},{"name":"TOWNNAME","type":"esriFieldTypeString","alias":"TOWNNAME","length":8},{"name":"LI","type":"esriFieldTypeString","alias":"LI","length":8},{"name":"LIN","type":"esriFieldTypeString","alias":"LIN","length":12},{"name":"STREET","type":"esriFieldTypeString","alias":"STREET","length":20},{"name":"SECT","type":"esriFieldTypeString","alias":"SECT","length":8},{"name":"MAREA","type":"esriFieldTypeString","alias":"MAREA","length":12},{"name":"LANE","type":"esriFieldTypeString","alias":"LANE","length":10},{"name":"ALLEY","type":"esriFieldTypeString","alias":"ALLEY","length":10},{"name":"HOUSE_NO","type":"esriFieldTypeString","alias":"HOUSE_NO","length":20},{"name":"E_COORD97","type":"esriFieldTypeDouble","alias":"E_COORD97"},{"name":"N_COORD97","type":"esriFieldTypeDouble","alias":"N_COORD97"},{"name":"ADDRESS","type":"esriFieldTypeString","alias":"ADDRESS","length":50},{"name":"OBJECTID","type":"esriFieldTypeOID","alias":"OBJECTID"}],"features":[{"attributes":{"ID":441026,"DIS_CODE":0,"TOWNNAME":"安南區","LI":"公\u25A0里","LIN":"3鄰","STREET":"公學路","SECT":"五段","MAREA":" ","LANE":"３６３巷","ALLEY":" ","HOUSE_NO":"６２號","E_COORD97":164236.70999999999,"N_COORD97":2552277.9300000002,"ADDRESS":"公學路五段３６３巷６２號","OBJECTID":441001},"geometry":{"x":164236.71000000183,"y":2552277.9300000016}},{"attributes":{"ID":441027,"DIS_CODE":0,"TOWNNAME":"安南區","LI":"公\u25A0里","LIN":"2鄰","STREET":"公學路","SECT":"五段","MAREA":" ","LANE":"３６３巷","ALLEY":" ","HOUSE_NO":"５６號","E_COORD97":164264.47,"N_COORD97":2552275.6200000001,"ADDRESS":"公學路五段３６３巷５６號","OBJECTID":441002},"geometry":{"x":164264.46999999974,"y":2552275.620000001}},{"attributes":{"ID":441028,"DIS_CODE":0,"TOWNNAME":"安南區","LI":"\u25A0南里","LIN":"11鄰","STREET":"環福街","SECT":" ","MAREA":" ","LANE":"１２５巷","ALLEY":" ","HOUSE_NO":"２４之１號","E_COORD97":170307.69,"N_COORD97":2552558.71,"ADDRESS":"環福街１２５巷２４之１號","OBJECTID":441003},"geometry":{"x":170307.69000000227,"y":2552558.7100000028}},{"attributes":{"ID":441029,"DIS_CODE":0,"TOWNNAME":"安南區","LI":"\u25A0南里","LIN":"11鄰","STREET":"環福街","SECT":" ","MAREA":" ","LANE":"１２５巷","ALLEY":" ","HOUSE_NO":"２７號","E_COORD97":170300.60999999999,"N_COORD97":2552525.27,"ADDRESS":"環福街１２５巷２７號","OBJECTID":441004},"geometry":{"x":170300.61000000034,"y":2552525.2700000033}},{"attributes":{"ID":441030,"DIS_CODE":0,"TOWNNAME":"安南區","LI":"\u25A0南里","LIN":"27鄰","STREET":"環福街","SECT":" ","MAREA":" ","LANE":"２３８巷","ALLEY":" ","HOUSE_NO":"２１號","E_COORD97":170247.20999999999,"N_COORD97":2552726.0499999998,"ADDRESS":"環福街２３８巷２１號","OBJECTID":441005},"geometry":{"x":170247.20999999996,"y":2552726.0500000026}},{"attributes":{"ID":441031,"DIS_CODE":0,"TOWNNAME":"安南區","LI":"\u25A0南里","LIN":"27鄰","STREET":"環福街","SECT":" ","MAREA":" ","LANE":"２３８巷","ALLEY":" ","HOUSE_NO":"２７號","E_COORD97":170234.67000000001,"N_COORD97":2552730.6200000001,"ADDRESS":"環福街２３８巷２７號","OBJECTID":441006},"geometry":{"x":170234.67000000086,"y":2552730.620000001}},{"attributes":{"ID":441032,"DIS_CODE":0,"TOWNNAME":"安南區","LI":"安西里","LIN":"4鄰","STREET":"安和路","SECT":"一段","MAREA":" ","LANE":"２６３巷","ALLEY":" ","HOUSE_NO":"５號","E_COORD97":169233.94261,"N_COORD97":2548010.7951099998,"ADDRESS":"安和路一段２６３巷５號","OBJECTID":441007},"geometry":{"x":169233.94261000026,"y":2548010.7951070014}},{"attributes":{"ID":441033,"DIS_CODE":0,"TOWNNAME":"安南區","LI":"安西里","LIN":" ","STREET":"安中路","SECT":"一段","MAREA":" ","LANE":"２９巷","ALLEY":" ","HOUSE_NO":"３５號","E_COORD97":169120.111886,"N_COORD97":2548154.7003000001,"ADDRESS":"安中路一段２９巷３５號","OBJECTID":441008},"geometry":{"x":169120.11188600026,"y":2548154.7002959978}},{"attributes":{"ID":441034,"DIS_CODE":0,"TOWNNAME":"安南區","LI":"安西里","LIN":" ","STREET":"安中路","SECT":"一段","MAREA":" ","LANE":"２９巷","ALLEY":" ","HOUSE_NO":"５９號","E_COORD97":169002.54999999999,"N_COORD97":2548147.52,"ADDRESS":"安中路一段２９巷５９號","OBJECTID":441009},"geometry":{"x":169002.54999999981,"y":2548147.5200000014}},{"attributes":{"ID":441035,"DIS_CODE":0,"TOWNNAME":"安南區","LI":"安西里","LIN":" ","STREET":"安中路","SECT":"一段","MAREA":" ","LANE":"２９巷","ALLEY":" ","HOUSE_NO":"７１號","E_COORD97":168967.07999999999,"N_COORD97":2548137.3500000001,"ADDRESS":"安中路一段２９巷７１號","OBJECTID":441010},"geometry":{"x":168967.07999999914,"y":2548137.3500000034}},{"attributes":{"ID":441036,"DIS_CODE":0,"TOWNNAME":"善化區","LI":"南關里","LIN":"13鄰","STREET":"復興街","SECT":" ","MAREA":" ","LANE":"５５巷","ALLEY":" ","HOUSE_NO":"７號","E_COORD97":176974.98000000001,"N_COORD97":2558987.0099999998,"ADDRESS":"復興街５５巷７號","OBJECTID":441011},"geometry":{"x":176974.98000000138,"y":2558987.0100000016}},{"attributes":{"ID":441037,"DIS_CODE":0,"TOWNNAME":"安南區","LI":"安和里","LIN":"17鄰","STREET":"安和路","SECT":"一段","MAREA":" ","LANE":"１５０巷","ALLEY":" ","HOUSE_NO":"１號","E_COORD97":169495.41,"N_COORD97":2547718.1400000001,"ADDRESS":"安和路一段１５０巷１號","OBJECTID":441012},"geometry":{"x":169495.41000000015,"y":2547718.1400000006}},{"attributes":{"ID":441038,"DIS_CODE":0,"TOWNNAME":"安南區","LI":"安東里","LIN":"4鄰","STREET":"安和路","SECT":"一段","MAREA":" ","LANE":"２８８巷","ALLEY":" ","HOUSE_NO":"１５９號","E_COORD97":169746.73000000001,"N_COORD97":2548232.71,"ADDRESS":"安和路一段２８８巷１５９號","OBJECTID":441013},"geometry":{"x":169746.73000000138,"y":2548232.7100000028}},{"attributes":{"ID":441039,"DIS_CODE":0,"TOWNNAME":"安南區","LI":"安東里","LIN":" ","STREET":"安和路","SECT":"一段","MAREA":" ","LANE":"２８８巷","ALLEY":" ","HOUSE_NO":"１４７號之１","E_COORD97":169681.92000000001,"N_COORD97":2548239.7400000002,"ADDRESS":"安和路一段２８８巷１４７號之１","OBJECTID":441014},"geometry":{"x":169681.92000000179,"y":2548239.7400000002}},{"attributes":{"ID":441040,"DIS_CODE":0,"TOWNNAME":"安南區","LI":"安東里","LIN":" ","STREET":"安和路","SECT":"二段","MAREA":" ","LANE":"１５０巷","ALLEY":" ","HOUSE_NO":"１９號","E_COORD97":169635.14000000001,"N_COORD97":2548909.27,"ADDRESS":"安和路二段１５０巷１９號","OBJECTID":441015},"geometry":{"x":169635.13999999966,"y":2548909.2699999996}},{"attributes":{"ID":441041,"DIS_CODE":0,"TOWNNAME":"安南區","LI":"安富里","LIN":" ","STREET":"海佃路","SECT":"一段","MAREA":" ","LANE":"１５８巷","ALLEY":" ","HOUSE_NO":"１４７號","E_COORD97":167574.07999999999,"N_COORD97":2547287.9199999999,"ADDRESS":"海佃路一段１５８巷１４７號","OBJECTID":441016},"geometry":{"x":167574.08000000101,"y":2547287.9200000018}},{"attributes":{"ID":441042,"DIS_CODE":0,"TOWNNAME":"安南區","LI":"安富里","LIN":" ","STREET":"安富街","SECT":" ","MAREA":" ","LANE":"２５１巷","ALLEY":" ","HOUSE_NO":"５２號","E_COORD97":167547.01999999999,"N_COORD97":2547310.4900000002,"ADDRESS":"安富街２５１巷５２號","OBJECTID":441017},"geometry":{"x":167547.02000000048,"y":2547310.4900000021}},{"attributes":{"ID":441043,"DIS_CODE":0,"TOWNNAME":"安南區","LI":"安富里","LIN":" ","STREET":"安富街","SECT":" ","MAREA":" ","LANE":"２５１巷","ALLEY":" ","HOUSE_NO":"５０號","E_COORD97":167545.81,"N_COORD97":2547314.1000000001,"ADDRESS":"安富街２５１巷５０號","OBJECTID":441018},"geometry":{"x":167545.80999999959,"y":2547314.0999999996}},{"attributes":{"ID":441044,"DIS_CODE":0,"TOWNNAME":"安南區","LI":"安富里","LIN":" ","STREET":"安富街","SECT":" ","MAREA":" ","LANE":"２５１巷","ALLEY":" ","HOUSE_NO":"４６號","E_COORD97":167543.41,"N_COORD97":2547324,"ADDRESS":"安富街２５１巷４６號","OBJECTID":441019},"geometry":{"x":167543.41000000108,"y":2547324.0000000019}},{"attributes":{"ID":441045,"DIS_CODE":0,"TOWNNAME":"善化區","LI":"坐駕里","LIN":"18鄰","STREET":"興華路","SECT":" ","MAREA":" ","LANE":"２２３巷","ALLEY":" ","HOUSE_NO":"８號","E_COORD97":178219.82000000001,"N_COORD97":2558517.75,"ADDRESS":"興華路２２３巷８號","OBJECTID":441020},"geometry":{"x":178219.82000000216,"y":2558517.7500000019}},{"attributes":{"ID":441046,"DIS_CODE":0,"TOWNNAME":"善化區","LI":"南關里","LIN":"13鄰","STREET":"自由路","SECT":" ","MAREA":" ","LANE":"１８９巷","ALLEY":" ","HOUSE_NO":"１８號","E_COORD97":176861.14999999999,"N_COORD97":2558864.5,"ADDRESS":"自由路１８９巷１８號","OBJECTID":441021},"geometry":{"x":176861.15000000037,"y":2558864.5000000019}},{"attributes":{"ID":441047,"DIS_CODE":0,"TOWNNAME":"善化區","LI":"西關里","LIN":"13鄰","STREET":"興農路","SECT":" ","MAREA":" ","LANE":"１７５巷","ALLEY":" ","HOUSE_NO":"８８號","E_COORD97":176042.57000000001,"N_COORD97":2558823.7599999998,"ADDRESS":"興農路１７５巷８８號","OBJECTID":441022},"geometry":{"x":176042.5700000003,"y":2558823.7599999998}},{"attributes":{"ID":441048,"DIS_CODE":0,"TOWNNAME":"善化區","LI":"光文里","LIN":"26鄰","STREET":"中山路","SECT":" ","MAREA":" ","LANE":"２４０巷","ALLEY":" ","HOUSE_NO":"１號之６３","E_COORD97":178172.76000000001,"N_COORD97":2559264.02,"ADDRESS":"中山路２４０巷１號之６３","OBJECTID":441023},"geometry":{"x":178172.76000000071,"y":2559264.0200000014}},{"attributes":{"ID":441049,"DIS_CODE":0,"TOWNNAME":"善化區","LI":"南關里","LIN":"13鄰","STREET":"復興街","SECT":" ","MAREA":" ","LANE":"１２１巷","ALLEY":" ","HOUSE_NO":"６號","E_COORD97":176812.92999999999,"N_COORD97":2558986.0099999998,"ADDRESS":"復興街１２１巷６號","OBJECTID":441024},"geometry":{"x":176812.9299999997,"y":2558986.0100000016}},{"attributes":{"ID":441050,"DIS_CODE":0,"TOWNNAME":"善化區","LI":"南關里","LIN":"13鄰","STREET":"自由路","SECT":" ","MAREA":" ","LANE":"１８９巷","ALLEY":" ","HOUSE_NO":"７號","E_COORD97":176853.88,"N_COORD97":2558914.5,"ADDRESS":"自由路１８９巷７號","OBJECTID":441025},"geometry":{"x":176853.87999999989,"y":2558914.5}},{"attributes":{"ID":441051,"DIS_CODE":0,"TOWNNAME":"善化區","LI":"坐駕里","LIN":"13鄰","STREET":"大成路","SECT":" ","MAREA":" ","LANE":"３６７巷","ALLEY":" ","HOUSE_NO":"２５號","E_COORD97":178106.07000000001,"N_COORD97":2558667.7400000002,"ADDRESS":"大成路３６７巷２５號","OBJECTID":441026},"geometry":{"x":178106.0700000003,"y":2558667.7400000002}},{"attributes":{"ID":441052,"DIS_CODE":0,"TOWNNAME":"善化區","LI":"坐駕里","LIN":"4鄰","STREET":"中興路","SECT":" ","MAREA":" ","LANE":"１９巷","ALLEY":" ","HOUSE_NO":"１號","E_COORD97":177745.28,"N_COORD97":2558973,"ADDRESS":"中興路１９巷１號","OBJECTID":441027},"geometry":{"x":177745.28000000026,"y":2558973.0000000019}},{"attributes":{"ID":441053,"DIS_CODE":0,"TOWNNAME":"善化區","LI":"坐駕里","LIN":" ","STREET":"中正路","SECT":" ","MAREA":" ","LANE":"１８８巷","ALLEY":" ","HOUSE_NO":"３號","E_COORD97":177770.76000000001,"N_COORD97":2558230.5,"ADDRESS":"中正路１８８巷３號","OBJECTID":441028},"geometry":{"x":177770.76000000071,"y":2558230.5000000019}},{"attributes":{"ID":441054,"DIS_CODE":0,"TOWNNAME":"善化區","LI":"北關里","LIN":" ","STREET":"中山路","SECT":" ","MAREA":" ","LANE":"５２４巷","ALLEY":" ","HOUSE_NO":"２之１號","E_COORD97":177092.45000000001,"N_COORD97":2559185.52,"ADDRESS":"中山路５２４巷２之１號","OBJECTID":441029},"geometry":{"x":177092.45000000019,"y":2559185.5200000033}},{"attributes":{"ID":441055,"DIS_CODE":0,"TOWNNAME":"善化區","LI":"南關里","LIN":"13鄰","STREET":"自由路","SECT":" ","MAREA":" ","LANE":"１８９巷","ALLEY":" ","HOUSE_NO":"９號","E_COORD97":176880.53,"N_COORD97":2558887.75,"ADDRESS":"自由路１８９巷９號","OBJECTID":441030},"geometry":{"x":176880.53000000026,"y":2558887.75}},{"attributes":{"ID":441056,"DIS_CODE":0,"TOWNNAME":"善化區","LI":"坐駕里","LIN":"4鄰","STREET":"中興路","SECT":" ","MAREA":" ","LANE":"１９巷","ALLEY":" ","HOUSE_NO":"６號","E_COORD97":177730.5,"N_COORD97":2558962.25,"ADDRESS":"中興路１９巷６號","OBJECTID":441031},"geometry":{"x":177730.50000000093,"y":2558962.2500000019}},{"attributes":{"ID":441057,"DIS_CODE":0,"TOWNNAME":"善化區","LI":"光文里","LIN":"14鄰","STREET":"民生路","SECT":" ","MAREA":" ","LANE":"１６９巷","ALLEY":" ","HOUSE_NO":"１號","E_COORD97":178472.37,"N_COORD97":2558937.7599999998,"ADDRESS":"民生路１６９巷１號","OBJECTID":441032},"geometry":{"x":178472.37000000104,"y":2558937.7600000016}},{"attributes":{"ID":441058,"DIS_CODE":0,"TOWNNAME":"善化區","LI":"光文里","LIN":"14鄰","STREET":"民生路","SECT":" ","MAREA":" ","LANE":"１７０巷","ALLEY":" ","HOUSE_NO":"１號","E_COORD97":178467.89999999999,"N_COORD97":2558985.7599999998,"ADDRESS":"民生路１７０巷１號","OBJECTID":441033},"geometry":{"x":178467.90000000037,"y":2558985.7599999998}},{"attributes":{"ID":441059,"DIS_CODE":0,"TOWNNAME":"善化區","LI":"坐駕里","LIN":"14鄰","STREET":"大成路","SECT":" ","MAREA":" ","LANE":"３６７巷","ALLEY":" ","HOUSE_NO":"４５號","E_COORD97":178255.13,"N_COORD97":2558622.25,"ADDRESS":"大成路３６７巷４５號","OBJECTID":441034},"geometry":{"x":178255.13000000082,"y":2558622.2500000019}},{"attributes":{"ID":441060,"DIS_CODE":0,"TOWNNAME":"善化區","LI":"南關里","LIN":"13鄰","STREET":"自由路","SECT":" ","MAREA":" ","LANE":"１８９巷","ALLEY":" ","HOUSE_NO":"１９號","E_COORD97":176857.79000000001,"N_COORD97":2558866,"ADDRESS":"自由路１８９巷１９號","OBJECTID":441035},"geometry":{"x":176857.79000000004,"y":2558866}},{"attributes":{"ID":441061,"DIS_CODE":0,"TOWNNAME":"善化區","LI":"南關里","LIN":"13鄰","STREET":"自由路","SECT":" ","MAREA":" ","LANE":"１８９巷","ALLEY":" ","HOUSE_NO":"２號","E_COORD97":176871.17999999999,"N_COORD97":2558909,"ADDRESS":"自由路１８９巷２號","OBJECTID":441036},"geometry":{"x":176871.18000000063,"y":2558909.0000000019}},{"attributes":{"ID":441062,"DIS_CODE":0,"TOWNNAME":"善化區","LI":"南關里","LIN":"13鄰","STREET":"自由路","SECT":" ","MAREA":" ","LANE":"１８９巷","ALLEY":" ","HOUSE_NO":"５號","E_COORD97":176863.14999999999,"N_COORD97":2558912.25,"ADDRESS":"自由路１８９巷５號","OBJECTID":441037},"geometry":{"x":176863.14999999944,"y":2558912.25}},{"attributes":{"ID":441063,"DIS_CODE":0,"TOWNNAME":"善化區","LI":"南關里","LIN":"13鄰","STREET":"復興街","SECT":" ","MAREA":" ","LANE":"１２１巷","ALLEY":" ","HOUSE_NO":"２號","E_COORD97":176811.28,"N_COORD97":2558994.2599999998,"ADDRESS":"復興街１２１巷２號","OBJECTID":441038},"geometry":{"x":176811.27999999933,"y":2558994.2600000035}},{"attributes":{"ID":441064,"DIS_CODE":0,"TOWNNAME":"善化區","LI":"南關里","LIN":"13鄰","STREET":"自由路","SECT":" ","MAREA":" ","LANE":"１８９巷","ALLEY":" ","HOUSE_NO":"２０號","E_COORD97":176854.51000000001,"N_COORD97":2558868.25,"ADDRESS":"自由路１８９巷２０號","OBJECTID":441039},"geometry":{"x":176854.50999999978,"y":2558868.25}},{"attributes":{"ID":441065,"DIS_CODE":0,"TOWNNAME":"善化區","LI":"南關里","LIN":"13鄰","STREET":"自由路","SECT":" ","MAREA":" ","LANE":"１８９巷","ALLEY":" ","HOUSE_NO":"１７號","E_COORD97":176864.92000000001,"N_COORD97":2558863,"ADDRESS":"自由路１８９巷１７號","OBJECTID":441040},"geometry":{"x":176864.92000000086,"y":2558863}},{"attributes":{"ID":441066,"DIS_CODE":0,"TOWNNAME":"善化區","LI":"坐駕里","LIN":"14鄰","STREET":"和平路","SECT":" ","MAREA":" ","LANE":"１６巷","ALLEY":" ","HOUSE_NO":"５號","E_COORD97":178199.56,"N_COORD97":2558612,"ADDRESS":"和平路１６巷５號","OBJECTID":441041},"geometry":{"x":178199.56000000052,"y":2558612}},{"attributes":{"ID":441067,"DIS_CODE":0,"TOWNNAME":"善化區","LI":"坐駕里","LIN":"14鄰","STREET":"和平路","SECT":" ","MAREA":" ","LANE":"１６巷","ALLEY":" ","HOUSE_NO":"６號","E_COORD97":178205.64999999999,"N_COORD97":2558613,"ADDRESS":"和平路１６巷６號","OBJECTID":441042},"geometry":{"x":178205.65000000037,"y":2558613.0000000037}},{"attributes":{"ID":441068,"DIS_CODE":0,"TOWNNAME":"善化區","LI":"坐駕里","LIN":"18鄰","STREET":"興華路","SECT":" ","MAREA":" ","LANE":"２２３巷","ALLEY":" ","HOUSE_NO":"１號","E_COORD97":178193.37,"N_COORD97":2558530,"ADDRESS":"興華路２２３巷１號","OBJECTID":441043},"geometry":{"x":178193.37000000011,"y":2558530}},{"attributes":{"ID":441069,"DIS_CODE":0,"TOWNNAME":"善化區","LI":"坐駕里","LIN":"14鄰","STREET":"大成路","SECT":" ","MAREA":" ","LANE":"３６７巷","ALLEY":" ","HOUSE_NO":"５２號","E_COORD97":178280.64999999999,"N_COORD97":2558624.75,"ADDRESS":"大成路３６７巷５２號","OBJECTID":441044},"geometry":{"x":178280.6500000013,"y":2558624.7499999981}},{"attributes":{"ID":441070,"DIS_CODE":0,"TOWNNAME":"善化區","LI":"光文里","LIN":"14鄰","STREET":"民生路","SECT":" ","MAREA":" ","LANE":"１７０巷","ALLEY":" ","HOUSE_NO":"３號","E_COORD97":178467.37,"N_COORD97":2558990.0099999998,"ADDRESS":"民生路１７０巷３號","OBJECTID":441045},"geometry":{"x":178467.37000000104,"y":2558990.0100000016}},{"attributes":{"ID":441071,"DIS_CODE":0,"TOWNNAME":"善化區","LI":"坐駕里","LIN":"18鄰","STREET":"興華路","SECT":" ","MAREA":" ","LANE":"２２３巷","ALLEY":" ","HOUSE_NO":"２號","E_COORD97":178195.76000000001,"N_COORD97":2558514,"ADDRESS":"興華路２２３巷２號","OBJECTID":441046},"geometry":{"x":178195.75999999978,"y":2558514}},{"attributes":{"ID":441072,"DIS_CODE":0,"TOWNNAME":"善化區","LI":"南關里","LIN":"13鄰","STREET":"自由路","SECT":" ","MAREA":" ","LANE":"１８９巷","ALLEY":" ","HOUSE_NO":"１０號","E_COORD97":176876.75,"N_COORD97":2558889,"ADDRESS":"自由路１８９巷１０號","OBJECTID":441047},"geometry":{"x":176876.75,"y":2558889.0000000019}},{"attributes":{"ID":441073,"DIS_CODE":0,"TOWNNAME":"善化區","LI":"南關里","LIN":"13鄰","STREET":"自由路","SECT":" ","MAREA":" ","LANE":"１８９巷","ALLEY":" ","HOUSE_NO":"１２號","E_COORD97":176868.57000000001,"N_COORD97":2558892.5,"ADDRESS":"自由路１８９巷１２號","OBJECTID":441048},"geometry":{"x":176868.5700000003,"y":2558892.5000000019}},{"attributes":{"ID":441074,"DIS_CODE":0,"TOWNNAME":"善化區","LI":"東關里","LIN":" ","STREET":"中正路","SECT":" ","MAREA":" ","LANE":"５３７巷","ALLEY":" ","HOUSE_NO":"２３號","E_COORD97":177623.57999999999,"N_COORD97":2559173.25,"ADDRESS":"中正路５３７巷２３號","OBJECTID":441049},"geometry":{"x":177623.58000000101,"y":2559173.25}},{"attributes":{"ID":441075,"DIS_CODE":0,"TOWNNAME":"善化區","LI":"東關里","LIN":" ","STREET":"永福路","SECT":" ","MAREA":" ","LANE":"１６２巷","ALLEY":" ","HOUSE_NO":"８號","E_COORD97":177218.14999999999,"N_COORD97":2558816.5,"ADDRESS":"永福路１６２巷８號","OBJECTID":441050},"geometry":{"x":177218.1500000013,"y":2558816.5000000037}},{"attributes":{"ID":441076,"DIS_CODE":0,"TOWNNAME":"善化區","LI":"南關里","LIN":" ","STREET":"文昌路","SECT":" ","MAREA":" ","LANE":"１０７巷","ALLEY":" ","HOUSE_NO":"８０號","E_COORD97":177116.45000000001,"N_COORD97":2558406.0299999998,"ADDRESS":"文昌路１０７巷８０號","OBJECTID":441051},"geometry":{"x":177116.45000000019,"y":2558406.0300000012}},{"attributes":{"ID":441077,"DIS_CODE":0,"TOWNNAME":"善化區","LI":"南關里","LIN":"13鄰","STREET":"復興街","SECT":" ","MAREA":" ","LANE":"５５巷","ALLEY":" ","HOUSE_NO":"８之３號","E_COORD97":176962.82999999999,"N_COORD97":2559000.27,"ADDRESS":"復興街５５巷８之３號","OBJECTID":441052},"geometry":{"x":176962.83000000007,"y":2559000.2699999996}},{"attributes":{"ID":441078,"DIS_CODE":0,"TOWNNAME":"善化區","LI":"南關里","LIN":"13鄰","STREET":"復興街","SECT":" ","MAREA":" ","LANE":"５５巷","ALLEY":" ","HOUSE_NO":"７之１號","E_COORD97":176977.28,"N_COORD97":2558982.77,"ADDRESS":"復興街５５巷７之１號","OBJECTID":441053},"geometry":{"x":176977.28000000026,"y":2558982.7699999996}},{"attributes":{"ID":441079,"DIS_CODE":0,"TOWNNAME":"善化區","LI":"東關里","LIN":" ","STREET":"永福路","SECT":" ","MAREA":" ","LANE":"１６２巷","ALLEY":" ","HOUSE_NO":"１０之２號","E_COORD97":177194.48999999999,"N_COORD97":2558800.77,"ADDRESS":"永福路１６２巷１０之２號","OBJECTID":441054},"geometry":{"x":177194.49000000022,"y":2558800.7700000033}},{"attributes":{"ID":441080,"DIS_CODE":0,"TOWNNAME":"善化區","LI":"坐駕里","LIN":"18鄰","STREET":"興華路","SECT":" ","MAREA":" ","LANE":"２２３巷","ALLEY":" ","HOUSE_NO":"５號","E_COORD97":178204.98000000001,"N_COORD97":2558515.5,"ADDRESS":"興華路２２３巷５號","OBJECTID":441055},"geometry":{"x":178204.98000000045,"y":2558515.5000000019}},{"attributes":{"ID":441081,"DIS_CODE":0,"TOWNNAME":"善化區","LI":"南關里","LIN":"13鄰","STREET":"復興街","SECT":" ","MAREA":" ","LANE":"５５巷","ALLEY":" ","HOUSE_NO":"６之１號","E_COORD97":176987.54999999999,"N_COORD97":2558975.02,"ADDRESS":"復興街５５巷６之１號","OBJECTID":441056},"geometry":{"x":176987.55000000075,"y":2558975.0199999977}},{"attributes":{"ID":441082,"DIS_CODE":0,"TOWNNAME":"善化區","LI":"坐駕里","LIN":"13鄰","STREET":"信義路","SECT":" ","MAREA":" ","LANE":"７１巷","ALLEY":" ","HOUSE_NO":"２號","E_COORD97":178278.76000000001,"N_COORD97":2558722,"ADDRESS":"信義路７１巷２號","OBJECTID":441057},"geometry":{"x":178278.75999999978,"y":2558722.0000000019}},{"attributes":{"ID":441083,"DIS_CODE":0,"TOWNNAME":"善化區","LI":"南關里","LIN":"13鄰","STREET":"自由路","SECT":" ","MAREA":" ","LANE":"１８９巷","ALLEY":" ","HOUSE_NO":"２５號","E_COORD97":176875.95999999999,"N_COORD97":2558834,"ADDRESS":"自由路１８９巷２５號","OBJECTID":441058},"geometry":{"x":176875.96000000183,"y":2558834.0000000019}},{"attributes":{"ID":441084,"DIS_CODE":0,"TOWNNAME":"善化區","LI":"東關里","LIN":" ","STREET":"自由路","SECT":" ","MAREA":" ","LANE":"１０５巷","ALLEY":" ","HOUSE_NO":"９號","E_COORD97":177091.85999999999,"N_COORD97":2558831.75,"ADDRESS":"自由路１０５巷９號","OBJECTID":441059},"geometry":{"x":177091.86000000034,"y":2558831.7500000037}},{"attributes":{"ID":441085,"DIS_CODE":0,"TOWNNAME":"善化區","LI":"南關里","LIN":"13鄰","STREET":"復興街","SECT":" ","MAREA":" ","LANE":"１２１巷","ALLEY":" ","HOUSE_NO":"１０號","E_COORD97":176816,"N_COORD97":2558977.7599999998,"ADDRESS":"復興街１２１巷１０號","OBJECTID":441060},"geometry":{"x":176816,"y":2558977.7600000016}},{"attributes":{"ID":441086,"DIS_CODE":0,"TOWNNAME":"善化區","LI":"坐駕里","LIN":"13鄰","STREET":"信義路","SECT":" ","MAREA":" ","LANE":"７１巷","ALLEY":" ","HOUSE_NO":"２８號","E_COORD97":178212.25,"N_COORD97":2558712,"ADDRESS":"信義路７１巷２８號","OBJECTID":441061},"geometry":{"x":178212.25000000093,"y":2558712.0000000019}},{"attributes":{"ID":441087,"DIS_CODE":0,"TOWNNAME":"善化區","LI":"西關里","LIN":"4鄰","STREET":"中華路","SECT":" ","MAREA":" ","LANE":"１５７巷","ALLEY":" ","HOUSE_NO":"２４號","E_COORD97":177143.67000000001,"N_COORD97":2559077,"ADDRESS":"中華路１５７巷２４號","OBJECTID":441062},"geometry":{"x":177143.66999999993,"y":2559077}},{"attributes":{"ID":441088,"DIS_CODE":0,"TOWNNAME":"善化區","LI":"光文里","LIN":" ","STREET":"中山路","SECT":" ","MAREA":" ","LANE":"１８２巷","ALLEY":" ","HOUSE_NO":"１８２之７號","E_COORD97":178273,"N_COORD97":2559284.77,"ADDRESS":"中山路１８２巷１８２之７號","OBJECTID":441063},"geometry":{"x":178273.00000000093,"y":2559284.7699999996}},{"attributes":{"ID":441089,"DIS_CODE":0,"TOWNNAME":"善化區","LI":"光文里","LIN":"26鄰","STREET":"中山路","SECT":" ","MAREA":" ","LANE":"２４０巷","ALLEY":" ","HOUSE_NO":"１號之２３","E_COORD97":178095,"N_COORD97":2559226.52,"ADDRESS":"中山路２４０巷１號之２３","OBJECTID":441064},"geometry":{"x":178095.00000000093,"y":2559226.5200000014}},{"attributes":{"ID":441090,"DIS_CODE":0,"TOWNNAME":"善化區","LI":"光文里","LIN":"20鄰","STREET":"民權路","SECT":" ","MAREA":" ","LANE":"２４５巷","ALLEY":" ","HOUSE_NO":"１０號","E_COORD97":178091.51000000001,"N_COORD97":2558937.7599999998,"ADDRESS":"民權路２４５巷１０號","OBJECTID":441065},"geometry":{"x":178091.51000000071,"y":2558937.7600000016}},{"attributes":{"ID":441091,"DIS_CODE":0,"TOWNNAME":"善化區","LI":"光文里","LIN":"26鄰","STREET":"中山路","SECT":" ","MAREA":" ","LANE":"２４０巷","ALLEY":" ","HOUSE_NO":"１號之３６","E_COORD97":178148.12,"N_COORD97":2559246.27,"ADDRESS":"中山路２４０巷１號之３６","OBJECTID":441066},"geometry":{"x":178148.12000000197,"y":2559246.2700000014}},{"attributes":{"ID":441092,"DIS_CODE":0,"TOWNNAME":"善化區","LI":"北關里","LIN":" ","STREET":"中山路","SECT":" ","MAREA":" ","LANE":"４６８巷","ALLEY":" ","HOUSE_NO":"６之２號","E_COORD97":177313.67000000001,"N_COORD97":2559150.52,"ADDRESS":"中山路４６８巷６之２號","OBJECTID":441067},"geometry":{"x":177313.67000000179,"y":2559150.5199999996}},{"attributes":{"ID":441093,"DIS_CODE":0,"TOWNNAME":"善化區","LI":"光文里","LIN":"14鄰","STREET":"民生路","SECT":" ","MAREA":" ","LANE":"１６９巷","ALLEY":" ","HOUSE_NO":"３號","E_COORD97":178472.92999999999,"N_COORD97":2558933.7599999998,"ADDRESS":"民生路１６９巷３號","OBJECTID":441068},"geometry":{"x":178472.93000000063,"y":2558933.7600000016}},{"attributes":{"ID":441094,"DIS_CODE":0,"TOWNNAME":"善化區","LI":"坐駕里","LIN":"17鄰","STREET":"文化路","SECT":" ","MAREA":" ","LANE":"８２巷","ALLEY":" ","HOUSE_NO":"６號","E_COORD97":177939.5,"N_COORD97":2558429.2799999998,"ADDRESS":"文化路８２巷６號","OBJECTID":441069},"geometry":{"x":177939.5,"y":2558429.2799999993}},{"attributes":{"ID":441095,"DIS_CODE":0,"TOWNNAME":"善化區","LI":"坐駕里","LIN":"17鄰","STREET":"文化路","SECT":" ","MAREA":" ","LANE":"８２巷","ALLEY":" ","HOUSE_NO":"１６號","E_COORD97":177960.5,"N_COORD97":2558432.0299999998,"ADDRESS":"文化路８２巷１６號","OBJECTID":441070},"geometry":{"x":177960.5,"y":2558432.0299999993}},{"attributes":{"ID":441096,"DIS_CODE":0,"TOWNNAME":"善化區","LI":"西關里","LIN":"4鄰","STREET":"中華路","SECT":" ","MAREA":" ","LANE":"１５７巷","ALLEY":" ","HOUSE_NO":"２０號","E_COORD97":177145.88,"N_COORD97":2559096.25,"ADDRESS":"中華路１５７巷２０號","OBJECTID":441071},"geometry":{"x":177145.87999999896,"y":2559096.2500000037}},{"attributes":{"ID":441097,"DIS_CODE":0,"TOWNNAME":"善化區","LI":"光文里","LIN":"18鄰","STREET":"和平路","SECT":" ","MAREA":" ","LANE":"１３６巷","ALLEY":" ","HOUSE_NO":"１號","E_COORD97":178143.57999999999,"N_COORD97":2558952.25,"ADDRESS":"和平路１３６巷１號","OBJECTID":441072},"geometry":{"x":178143.58000000101,"y":2558952.25}},{"attributes":{"ID":441098,"DIS_CODE":0,"TOWNNAME":"善化區","LI":"光文里","LIN":"20鄰","STREET":"民權路","SECT":" ","MAREA":" ","LANE":"２４５巷","ALLEY":" ","HOUSE_NO":"２之１號","E_COORD97":178062.23000000001,"N_COORD97":2558929.77,"ADDRESS":"民權路２４５巷２之１號","OBJECTID":441073},"geometry":{"x":178062.23000000045,"y":2558929.7700000014}},{"attributes":{"ID":441099,"DIS_CODE":0,"TOWNNAME":"善化區","LI":"光文里","LIN":"26鄰","STREET":"中山路","SECT":" ","MAREA":" ","LANE":"２４０巷","ALLEY":" ","HOUSE_NO":"１號之４１","E_COORD97":178170.10999999999,"N_COORD97":2559249.27,"ADDRESS":"中山路２４０巷１號之４１","OBJECTID":441074},"geometry":{"x":178170.11000000034,"y":2559249.2700000014}},{"attributes":{"ID":441100,"DIS_CODE":0,"TOWNNAME":"善化區","LI":"光文里","LIN":"20鄰","STREET":"民權路","SECT":" ","MAREA":" ","LANE":"２４５巷","ALLEY":" ","HOUSE_NO":"６號","E_COORD97":178081.31,"N_COORD97":2558936.5099999998,"ADDRESS":"民權路２４５巷６號","OBJECTID":441075},"geometry":{"x":178081.30999999959,"y":2558936.5100000016}},{"attributes":{"ID":441101,"DIS_CODE":0,"TOWNNAME":"善化區","LI":"光文里","LIN":"26鄰","STREET":"中山路","SECT":" ","MAREA":" ","LANE":"２４０巷","ALLEY":" ","HOUSE_NO":"１號之４７","E_COORD97":178089.35000000001,"N_COORD97":2559261.52,"ADDRESS":"中山路２４０巷１號之４７","OBJECTID":441076},"geometry":{"x":178089.34999999963,"y":2559261.5200000014}},{"attributes":{"ID":441102,"DIS_CODE":0,"TOWNNAME":"善化區","LI":"光文里","LIN":"26鄰","STREET":"中山路","SECT":" ","MAREA":" ","LANE":"２４０巷","ALLEY":" ","HOUSE_NO":"１號之５７","E_COORD97":178147.35999999999,"N_COORD97":2559259.52,"ADDRESS":"中山路２４０巷１號之５７","OBJECTID":441077},"geometry":{"x":178147.36000000127,"y":2559259.5199999996}},{"attributes":{"ID":441103,"DIS_CODE":0,"TOWNNAME":"善化區","LI":"北關里","LIN":"8鄰","STREET":"進學路","SECT":" ","MAREA":" ","LANE":"５８巷","ALLEY":" ","HOUSE_NO":"８號","E_COORD97":177277.41,"N_COORD97":2559325,"ADDRESS":"進學路５８巷８號","OBJECTID":441078},"geometry":{"x":177277.41000000015,"y":2559325.0000000037}},{"attributes":{"ID":441104,"DIS_CODE":0,"TOWNNAME":"善化區","LI":"光文里","LIN":"26鄰","STREET":"中山路","SECT":" ","MAREA":" ","LANE":"２４０巷","ALLEY":" ","HOUSE_NO":"１號之３３","E_COORD97":178135.17999999999,"N_COORD97":2559244.02,"ADDRESS":"中山路２４０巷１號之３３","OBJECTID":441079},"geometry":{"x":178135.1799999997,"y":2559244.0200000014}},{"attributes":{"ID":441105,"DIS_CODE":0,"TOWNNAME":"善化區","LI":"光文里","LIN":"18鄰","STREET":"和平路","SECT":" ","MAREA":" ","LANE":"１３６巷","ALLEY":" ","HOUSE_NO":"６號","E_COORD97":178161.14999999999,"N_COORD97":2558954.75,"ADDRESS":"和平路１３６巷６號","OBJECTID":441080},"geometry":{"x":178161.15000000037,"y":2558954.7500000019}},{"attributes":{"ID":441106,"DIS_CODE":0,"TOWNNAME":"善化區","LI":"西關里","LIN":"4鄰","STREET":"中華路","SECT":" ","MAREA":" ","LANE":"１５７巷","ALLEY":" ","HOUSE_NO":"１０號","E_COORD97":177180.17000000001,"N_COORD97":2559105.25,"ADDRESS":"中華路１５７巷１０號","OBJECTID":441081},"geometry":{"x":177180.17000000086,"y":2559105.25}},{"attributes":{"ID":441107,"DIS_CODE":0,"TOWNNAME":"善化區","LI":"西關里","LIN":"13鄰","STREET":"南科北路","SECT":" ","MAREA":" ","LANE":"１００巷","ALLEY":" ","HOUSE_NO":"２２號","E_COORD97":175691.14999999999,"N_COORD97":2558856.5,"ADDRESS":"南科北路１００巷２２號","OBJECTID":441082},"geometry":{"x":175691.15000000037,"y":2558856.5}},{"attributes":{"ID":441108,"DIS_CODE":0,"TOWNNAME":"善化區","LI":"光文里","LIN":"20鄰","STREET":"民權路","SECT":" ","MAREA":" ","LANE":"２４５巷","ALLEY":" ","HOUSE_NO":"２號","E_COORD97":178072.60999999999,"N_COORD97":2558935.2599999998,"ADDRESS":"民權路２４５巷２號","OBJECTID":441083},"geometry":{"x":178072.61000000127,"y":2558935.2599999998}},{"attributes":{"ID":441109,"DIS_CODE":0,"TOWNNAME":"善化區","LI":"坐駕里","LIN":"4鄰","STREET":"中興路","SECT":" ","MAREA":" ","LANE":"１９巷","ALLEY":" ","HOUSE_NO":"５號","E_COORD97":177750.34,"N_COORD97":2558963.25,"ADDRESS":"中興路１９巷５號","OBJECTID":441084},"geometry":{"x":177750.34000000078,"y":2558963.25}},{"attributes":{"ID":441110,"DIS_CODE":0,"TOWNNAME":"善化區","LI":"光文里","LIN":" ","STREET":"光華路","SECT":" ","MAREA":" ","LANE":"９２巷","ALLEY":" ","HOUSE_NO":"１３號","E_COORD97":178683.70000000001,"N_COORD97":2559410.25,"ADDRESS":"光華路９２巷１３號","OBJECTID":441085},"geometry":{"x":178683.70000000112,"y":2559410.25}},{"attributes":{"ID":441111,"DIS_CODE":0,"TOWNNAME":"善化區","LI":"光文里","LIN":"26鄰","STREET":"中山路","SECT":" ","MAREA":" ","LANE":"２４０巷","ALLEY":" ","HOUSE_NO":"１號之３９","E_COORD97":178161.31,"N_COORD97":2559248.02,"ADDRESS":"中山路２４０巷１號之３９","OBJECTID":441086},"geometry":{"x":178161.30999999959,"y":2559248.0200000014}},{"attributes":{"ID":441112,"DIS_CODE":0,"TOWNNAME":"善化區","LI":"西關里","LIN":"13鄰","STREET":"興農路","SECT":" ","MAREA":" ","LANE":"１５１巷","ALLEY":" ","HOUSE_NO":"４１號","E_COORD97":176099.37,"N_COORD97":2558944.5099999998,"ADDRESS":"興農路１５１巷４１號","OBJECTID":441087},"geometry":{"x":176099.37000000104,"y":2558944.5099999998}},{"attributes":{"ID":441113,"DIS_CODE":0,"TOWNNAME":"善化區","LI":"光文里","LIN":"18鄰","STREET":"和平路","SECT":" ","MAREA":" ","LANE":"１３６巷","ALLEY":" ","HOUSE_NO":"８號","E_COORD97":178168.54000000001,"N_COORD97":2558956,"ADDRESS":"和平路１３６巷８號","OBJECTID":441088},"geometry":{"x":178168.54000000004,"y":2558956.0000000019}},{"attributes":{"ID":441114,"DIS_CODE":0,"TOWNNAME":"善化區","LI":"南關里","LIN":"13鄰","STREET":"自由路","SECT":" ","MAREA":" ","LANE":"１８９巷","ALLEY":" ","HOUSE_NO":"８號","E_COORD97":176884.51000000001,"N_COORD97":2558885.2400000002,"ADDRESS":"自由路１８９巷８號","OBJECTID":441089},"geometry":{"x":176884.51000000071,"y":2558885.2400000002}},{"attributes":{"ID":441115,"DIS_CODE":0,"TOWNNAME":"善化區","LI":"光文里","LIN":"13鄰","STREET":"民權路","SECT":" ","MAREA":" ","LANE":"１１４巷","ALLEY":" ","HOUSE_NO":"３號","E_COORD97":178452.45000000001,"N_COORD97":2559076.2599999998,"ADDRESS":"民權路１１４巷３號","OBJECTID":441090},"geometry":{"x":178452.45000000019,"y":2559076.2600000016}},{"attributes":{"ID":441116,"DIS_CODE":0,"TOWNNAME":"善化區","LI":"西關里","LIN":"4鄰","STREET":"中華路","SECT":" ","MAREA":" ","LANE":"１５７巷","ALLEY":" ","HOUSE_NO":"６號","E_COORD97":177188.67000000001,"N_COORD97":2559113,"ADDRESS":"中華路１５７巷６號","OBJECTID":441091},"geometry":{"x":177188.67000000086,"y":2559113.0000000019}},{"attributes":{"ID":441117,"DIS_CODE":0,"TOWNNAME":"善化區","LI":"光文里","LIN":"20鄰","STREET":"大成路","SECT":" ","MAREA":" ","LANE":"３１６巷","ALLEY":" ","HOUSE_NO":"１１號","E_COORD97":178095.62,"N_COORD97":2558870.75,"ADDRESS":"大成路３１６巷１１號","OBJECTID":441092},"geometry":{"x":178095.62000000197,"y":2558870.75}},{"attributes":{"ID":441118,"DIS_CODE":0,"TOWNNAME":"善化區","LI":"坐駕里","LIN":"13鄰","STREET":"大成路","SECT":" ","MAREA":" ","LANE":"３６７巷","ALLEY":" ","HOUSE_NO":"２２號","E_COORD97":178097.54000000001,"N_COORD97":2558677.75,"ADDRESS":"大成路３６７巷２２號","OBJECTID":441093},"geometry":{"x":178097.54000000004,"y":2558677.75}},{"attributes":{"ID":441119,"DIS_CODE":0,"TOWNNAME":"善化區","LI":"光文里","LIN":"20鄰","STREET":"民權路","SECT":" ","MAREA":" ","LANE":"２４５巷","ALLEY":" ","HOUSE_NO":"３號","E_COORD97":178077.35000000001,"N_COORD97":2558945.7599999998,"ADDRESS":"民權路２４５巷３號","OBJECTID":441094},"geometry":{"x":178077.35000000056,"y":2558945.7599999998}},{"attributes":{"ID":441120,"DIS_CODE":0,"TOWNNAME":"善化區","LI":"光文里","LIN":"26鄰","STREET":"中山路","SECT":" ","MAREA":" ","LANE":"２４０巷","ALLEY":" ","HOUSE_NO":"１號之３５","E_COORD97":178143.67000000001,"N_COORD97":2559245.52,"ADDRESS":"中山路２４０巷１號之３５","OBJECTID":441095},"geometry":{"x":178143.66999999993,"y":2559245.5199999996}},{"attributes":{"ID":441121,"DIS_CODE":0,"TOWNNAME":"善化區","LI":"北關里","LIN":"8鄰","STREET":"進學路","SECT":" ","MAREA":" ","LANE":"５８巷","ALLEY":" ","HOUSE_NO":"１３號","E_COORD97":177297.32000000001,"N_COORD97":2559316,"ADDRESS":"進學路５８巷１３號","OBJECTID":441096},"geometry":{"x":177297.3200000003,"y":2559316.0000000019}},{"attributes":{"ID":441122,"DIS_CODE":0,"TOWNNAME":"善化區","LI":"北關里","LIN":"8鄰","STREET":"進學路","SECT":" ","MAREA":" ","LANE":"５８巷","ALLEY":" ","HOUSE_NO":"５號","E_COORD97":177283.41,"N_COORD97":2559306,"ADDRESS":"進學路５８巷５號","OBJECTID":441097},"geometry":{"x":177283.41000000201,"y":2559306.0000000019}},{"attributes":{"ID":441123,"DIS_CODE":0,"TOWNNAME":"善化區","LI":"光文里","LIN":"20鄰","STREET":"民權路","SECT":" ","MAREA":" ","LANE":"２４５巷","ALLEY":" ","HOUSE_NO":"４號","E_COORD97":178076.95999999999,"N_COORD97":2558935.7599999998,"ADDRESS":"民權路２４５巷４號","OBJECTID":441098},"geometry":{"x":178076.96000000089,"y":2558935.7599999998}},{"attributes":{"ID":441124,"DIS_CODE":0,"TOWNNAME":"善化區","LI":"光文里","LIN":"15鄰","STREET":"樹人路","SECT":" ","MAREA":" ","LANE":"３７巷","ALLEY":" ","HOUSE_NO":"２號","E_COORD97":178350.10000000001,"N_COORD97":2558978.25,"ADDRESS":"樹人路３７巷２號","OBJECTID":441099},"geometry":{"x":178350.10000000056,"y":2558978.2500000019}},{"attributes":{"ID":441125,"DIS_CODE":0,"TOWNNAME":"善化區","LI":"坐駕里","LIN":"13鄰","STREET":"大成路","SECT":" ","MAREA":" ","LANE":"３６７巷","ALLEY":" ","HOUSE_NO":"２８號","E_COORD97":178112.17000000001,"N_COORD97":2558684.5,"ADDRESS":"大成路３６７巷２８號","OBJECTID":441100},"geometry":{"x":178112.17000000086,"y":2558684.5000000037}},{"attributes":{"ID":441126,"DIS_CODE":0,"TOWNNAME":"善化區","LI":"光文里","LIN":"18鄰","STREET":"和平路","SECT":" ","MAREA":" ","LANE":"１３６巷","ALLEY":" ","HOUSE_NO":"２號","E_COORD97":178147.07000000001,"N_COORD97":2558952.75,"ADDRESS":"和平路１３６巷２號","OBJECTID":441101},"geometry":{"x":178147.07000000216,"y":2558952.75}},{"attributes":{"ID":441127,"DIS_CODE":0,"TOWNNAME":"善化區","LI":"光文里","LIN":"22鄰","STREET":"光華路","SECT":" ","MAREA":" ","LANE":"１１０巷","ALLEY":" ","HOUSE_NO":"１０號","E_COORD97":178665.16,"N_COORD97":2559448,"ADDRESS":"光華路１１０巷１０號","OBJECTID":441102},"geometry":{"x":178665.16000000108,"y":2559448.0000000019}},{"attributes":{"ID":441128,"DIS_CODE":0,"TOWNNAME":"中西區","LI":"三民里","LIN":"19鄰","STREET":"忠義路","SECT":"二段","MAREA":" ","LANE":"１５８巷","ALLEY":" ","HOUSE_NO":"３０號","E_COORD97":168450.89000000001,"N_COORD97":2544022.6699999999,"ADDRESS":"忠義路二段１５８巷３０號","OBJECTID":441103},"geometry":{"x":168450.88999999873,"y":2544022.6699999999}},{"attributes":{"ID":441129,"DIS_CODE":0,"TOWNNAME":"中西區","LI":"永福里","LIN":"19鄰","STREET":"忠義路","SECT":"二段","MAREA":" ","LANE":"１４７巷","ALLEY":" ","HOUSE_NO":"１５號","E_COORD97":168310.01000000001,"N_COORD97":2544045.3199999998,"ADDRESS":"忠義路二段１４７巷１５號","OBJECTID":441104},"geometry":{"x":168310.01000000071,"y":2544045.3200000003}},{"attributes":{"ID":441130,"DIS_CODE":0,"TOWNNAME":"中西區","LI":"永福里","LIN":"19鄰","STREET":"忠義路","SECT":"二段","MAREA":" ","LANE":"１４７巷","ALLEY":" ","HOUSE_NO":"１７號","E_COORD97":168308.76999999999,"N_COORD97":2544061.5800000001,"ADDRESS":"忠義路二段１４７巷１７號","OBJECTID":441105},"geometry":{"x":168308.76999999955,"y":2544061.5800000019}},{"attributes":{"ID":441131,"DIS_CODE":0,"TOWNNAME":"中西區","LI":"永福里","LIN":"19鄰","STREET":"忠義路","SECT":"二段","MAREA":" ","LANE":"１４７巷","ALLEY":" ","HOUSE_NO":"１８號","E_COORD97":168326.20999999999,"N_COORD97":2544061.4500000002,"ADDRESS":"忠義路二段１４７巷１８號","OBJECTID":441106},"geometry":{"x":168326.21000000089,"y":2544061.4500000011}},{"attributes":{"ID":441132,"DIS_CODE":0,"TOWNNAME":"中西區","LI":"永福里","LIN":"19鄰","STREET":"忠義路","SECT":"二段","MAREA":" ","LANE":"１４７巷","ALLEY":" ","HOUSE_NO":"１９號","E_COORD97":168303.94,"N_COORD97":2544046.1400000001,"ADDRESS":"忠義路二段１４７巷１９號","OBJECTID":441107},"geometry":{"x":168303.94000000227,"y":2544046.1400000006}},{"attributes":{"ID":441133,"DIS_CODE":0,"TOWNNAME":"永康區","LI":"網寮里","LIN":"24鄰","STREET":"永春街","SECT":" ","MAREA":" ","LANE":"３８巷","ALLEY":" ","HOUSE_NO":"８號","E_COORD97":173760.26999999999,"N_COORD97":2546421.6499999999,"ADDRESS":"永春街３８巷８號","OBJECTID":441108},"geometry":{"x":173760.26999999955,"y":2546421.6500000022}},{"attributes":{"ID":441134,"DIS_CODE":0,"TOWNNAME":"中西區","LI":"永福里","LIN":"19鄰","STREET":"忠義路","SECT":"二段","MAREA":" ","LANE":"１４７巷","ALLEY":" ","HOUSE_NO":"３號","E_COORD97":168334.29999999999,"N_COORD97":2544053.7400000002,"ADDRESS":"忠義路二段１４７巷３號","OBJECTID":441109},"geometry":{"x":168334.29999999981,"y":2544053.7400000021}},{"attributes":{"ID":441135,"DIS_CODE":0,"TOWNNAME":"中西區","LI":"永福里","LIN":"19鄰","STREET":"忠義路","SECT":"二段","MAREA":" ","LANE":"１４７巷","ALLEY":" ","HOUSE_NO":"５號","E_COORD97":168324.95999999999,"N_COORD97":2544057.71,"ADDRESS":"忠義路二段１４７巷５號","OBJECTID":441110},"geometry":{"x":168324.95999999996,"y":2544057.7100000046}},{"attributes":{"ID":441136,"DIS_CODE":0,"TOWNNAME":"中西區","LI":"永福里","LIN":"19鄰","STREET":"忠義路","SECT":"二段","MAREA":" ","LANE":"１４７巷","ALLEY":" ","HOUSE_NO":"７號","E_COORD97":168322.01999999999,"N_COORD97":2544059.3199999998,"ADDRESS":"忠義路二段１４７巷７號","OBJECTID":441111},"geometry":{"x":168322.02000000048,"y":2544059.3200000003}},{"attributes":{"ID":441137,"DIS_CODE":0,"TOWNNAME":"中西區","LI":"永福里","LIN":"19鄰","STREET":"忠義路","SECT":"二段","MAREA":" ","LANE":"１４７巷","ALLEY":" ","HOUSE_NO":"９號","E_COORD97":168316.5,"N_COORD97":2544060.2400000002,"ADDRESS":"忠義路二段１４７巷９號","OBJECTID":441112},"geometry":{"x":168316.5,"y":2544060.2400000039}},{"attributes":{"ID":441138,"DIS_CODE":0,"TOWNNAME":"中西區","LI":"赤嵌里","LIN":"19鄰","STREET":"民族路","SECT":"二段","MAREA":" ","LANE":"２０８巷","ALLEY":" ","HOUSE_NO":"１１號","E_COORD97":168330.82999999999,"N_COORD97":2544215.0600000001,"ADDRESS":"民族路二段２０８巷１１號","OBJECTID":441113},"geometry":{"x":168330.83000000007,"y":2544215.0600000024}},{"attributes":{"ID":441139,"DIS_CODE":0,"TOWNNAME":"中西區","LI":"赤嵌里","LIN":"19鄰","STREET":"民族路","SECT":"二段","MAREA":" ","LANE":"２０８巷","ALLEY":" ","HOUSE_NO":"１０號","E_COORD97":168319.64000000001,"N_COORD97":2544204.1800000002,"ADDRESS":"民族路二段２０８巷１０號","OBJECTID":441114},"geometry":{"x":168319.6400000006,"y":2544204.1799999997}},{"attributes":{"ID":441140,"DIS_CODE":0,"TOWNNAME":"中西區","LI":"赤嵌里","LIN":"19鄰","STREET":"民族路","SECT":"二段","MAREA":" ","LANE":"２０８巷","ALLEY":" ","HOUSE_NO":"１０號之１","E_COORD97":168324.35000000001,"N_COORD97":2544214.1800000002,"ADDRESS":"民族路二段２０８巷１０號之１","OBJECTID":441115},"geometry":{"x":168324.35000000056,"y":2544214.1800000016}},{"attributes":{"ID":441141,"DIS_CODE":0,"TOWNNAME":"中西區","LI":"赤嵌里","LIN":"19鄰","STREET":"民族路","SECT":"二段","MAREA":" ","LANE":"２０８巷","ALLEY":" ","HOUSE_NO":"９號","E_COORD97":168317.87,"N_COORD97":2544193.29,"ADDRESS":"民族路二段２０８巷９號","OBJECTID":441116},"geometry":{"x":168317.87000000104,"y":2544193.2899999991}},{"attributes":{"ID":441142,"DIS_CODE":0,"TOWNNAME":"中西區","LI":"赤嵌里","LIN":"19鄰","STREET":"忠義路","SECT":"二段","MAREA":" ","LANE":"２３３巷","ALLEY":" ","HOUSE_NO":"３６號","E_COORD97":168367.95999999999,"N_COORD97":2544224.21,"ADDRESS":"忠義路二段２３３巷３６號","OBJECTID":441117},"geometry":{"x":168367.96000000089,"y":2544224.2100000028}},{"attributes":{"ID":441143,"DIS_CODE":0,"TOWNNAME":"中西區","LI":"赤嵌里","LIN":"19鄰","STREET":"忠義路","SECT":"二段","MAREA":" ","LANE":"２３３巷","ALLEY":" ","HOUSE_NO":"３８號","E_COORD97":168366.48000000001,"N_COORD97":2544213.9100000001,"ADDRESS":"忠義路二段２３３巷３８號","OBJECTID":441118},"geometry":{"x":168366.48000000231,"y":2544213.9100000001}},{"attributes":{"ID":441144,"DIS_CODE":0,"TOWNNAME":"永康區","LI":"龍潭里","LIN":"38鄰","STREET":"中山北路","SECT":" ","MAREA":" ","LANE":"１６４巷","ALLEY":" ","HOUSE_NO":"８０號之１４","E_COORD97":174455.12,"N_COORD97":2547365.7999999998,"ADDRESS":"中山北路１６４巷８０號之１４","OBJECTID":441119},"geometry":{"x":174455.12000000104,"y":2547365.8000000045}},{"attributes":{"ID":441145,"DIS_CODE":0,"TOWNNAME":"永康區","LI":"龍潭里","LIN":"38鄰","STREET":"中山北路","SECT":" ","MAREA":" ","LANE":"１６４巷","ALLEY":" ","HOUSE_NO":"８０號之１６","E_COORD97":174455.20000000001,"N_COORD97":2547365.7999999998,"ADDRESS":"中山北路１６４巷８０號之１６","OBJECTID":441120},"geometry":{"x":174455.20000000019,"y":2547365.8000000045}},{"attributes":{"ID":441146,"DIS_CODE":0,"TOWNNAME":"永康區","LI":"龍潭里","LIN":"38鄰","STREET":"中山北路","SECT":" ","MAREA":" ","LANE":"１６４巷","ALLEY":" ","HOUSE_NO":"８２號之１３","E_COORD97":174451.39000000001,"N_COORD97":2547386.9199999999,"ADDRESS":"中山北路１６４巷８２號之１３","OBJECTID":441121},"geometry":{"x":174451.38999999966,"y":2547386.9199999999}},{"attributes":{"ID":441147,"DIS_CODE":0,"TOWNNAME":"永康區","LI":"復興里","LIN":"24鄰","STREET":"復興路","SECT":" ","MAREA":" ","LANE":"３５６巷","ALLEY":" ","HOUSE_NO":"６０號","E_COORD97":172337.10999999999,"N_COORD97":2544498.1099999999,"ADDRESS":"復興路３５６巷６０號","OBJECTID":441122},"geometry":{"x":172337.11000000034,"y":2544498.1100000013}},{"attributes":{"ID":441148,"DIS_CODE":0,"TOWNNAME":"永康區","LI":"蔦松里","LIN":"5鄰","STREET":"蔦松一街","SECT":" ","MAREA":" ","LANE":"３０１巷","ALLEY":" ","HOUSE_NO":"５號","E_COORD97":173207.76999999999,"N_COORD97":2549951,"ADDRESS":"蔦松一街３０１巷５號","OBJECTID":441123},"geometry":{"x":173207.76999999955,"y":2549951.0000000019}},{"attributes":{"ID":441149,"DIS_CODE":0,"TOWNNAME":"永康區","LI":"龍潭里","LIN":"38鄰","STREET":"中山北路","SECT":" ","MAREA":" ","LANE":"１６４巷","ALLEY":" ","HOUSE_NO":"４６號","E_COORD97":174330.89000000001,"N_COORD97":2547393.0899999999,"ADDRESS":"中山北路１６４巷４６號","OBJECTID":441124},"geometry":{"x":174330.88999999966,"y":2547393.0899999999}},{"attributes":{"ID":441150,"DIS_CODE":0,"TOWNNAME":"永康區","LI":"網寮里","LIN":"20鄰","STREET":"永二街","SECT":" ","MAREA":" ","LANE":"２４５巷","ALLEY":" ","HOUSE_NO":"１６號","E_COORD97":173306.88,"N_COORD97":2546210,"ADDRESS":"永二街２４５巷１６號","OBJECTID":441125},"geometry":{"x":173306.88000000082,"y":2546210}},{"attributes":{"ID":441151,"DIS_CODE":0,"TOWNNAME":"永康區","LI":"復興里","LIN":"24鄰","STREET":"復興路","SECT":" ","MAREA":" ","LANE":"３５６巷","ALLEY":" ","HOUSE_NO":"７２號","E_COORD97":172356.70000000001,"N_COORD97":2544514.77,"ADDRESS":"復興路３５６巷７２號","OBJECTID":441126},"geometry":{"x":172356.70000000019,"y":2544514.7700000014}},{"attributes":{"ID":441152,"DIS_CODE":0,"TOWNNAME":"永康區","LI":"蔦松里","LIN":"5鄰","STREET":"蔦松一街","SECT":" ","MAREA":" ","LANE":"２０１巷","ALLEY":" ","HOUSE_NO":"１８８號","E_COORD97":173068.76999999999,"N_COORD97":2549741.75,"ADDRESS":"蔦松一街２０１巷１８８號","OBJECTID":441127},"geometry":{"x":173068.76999999955,"y":2549741.75}},{"attributes":{"ID":441153,"DIS_CODE":0,"TOWNNAME":"永康區","LI":"龍潭里","LIN":"38鄰","STREET":"中山北路","SECT":" ","MAREA":" ","LANE":"１６４巷","ALLEY":" ","HOUSE_NO":"８０號之１１","E_COORD97":174455.10000000001,"N_COORD97":2547365.7999999998,"ADDRESS":"中山北路１６４巷８０號之１１","OBJECTID":441128},"geometry":{"x":174455.09999999963,"y":2547365.8000000045}},{"attributes":{"ID":441154,"DIS_CODE":0,"TOWNNAME":"永康區","LI":"網寮里","LIN":"20鄰","STREET":"永二街","SECT":" ","MAREA":" ","LANE":"２４５巷","ALLEY":" ","HOUSE_NO":"１１號","E_COORD97":173321.42000000001,"N_COORD97":2546172.7400000002,"ADDRESS":"永二街２４５巷１１號","OBJECTID":441129},"geometry":{"x":173321.42000000179,"y":2546172.7400000021}},{"attributes":{"ID":441155,"DIS_CODE":0,"TOWNNAME":"永康區","LI":"復興里","LIN":"25鄰","STREET":"復興路","SECT":" ","MAREA":" ","LANE":"４２９巷","ALLEY":" ","HOUSE_NO":"８２號","E_COORD97":172263.04999999999,"N_COORD97":2543852.0899999999,"ADDRESS":"復興路４２９巷８２號","OBJECTID":441130},"geometry":{"x":172263.05000000075,"y":2543852.0900000017}},{"attributes":{"ID":441156,"DIS_CODE":0,"TOWNNAME":"永康區","LI":"網寮里","LIN":"24鄰","STREET":"永春街","SECT":" ","MAREA":" ","LANE":"３６巷","ALLEY":" ","HOUSE_NO":"１９號","E_COORD97":173791.19,"N_COORD97":2546408.1499999999,"ADDRESS":"永春街３６巷１９號","OBJECTID":441131},"geometry":{"x":173791.18999999948,"y":2546408.1500000022}},{"attributes":{"ID":441157,"DIS_CODE":0,"TOWNNAME":"永康區","LI":"網寮里","LIN":"24鄰","STREET":"永春街","SECT":" ","MAREA":" ","LANE":"３８巷","ALLEY":" ","HOUSE_NO":"１６號","E_COORD97":173777.22,"N_COORD97":2546425.6499999999,"ADDRESS":"永春街３８巷１６號","OBJECTID":441132},"geometry":{"x":173777.22000000067,"y":2546425.6500000022}},{"attributes":{"ID":441158,"DIS_CODE":0,"TOWNNAME":"永康區","LI":"蔦松里","LIN":"5鄰","STREET":"蔦松一街","SECT":" ","MAREA":" ","LANE":"２４１巷","ALLEY":" ","HOUSE_NO":"３４６號","E_COORD97":173010.60999999999,"N_COORD97":2549536,"ADDRESS":"蔦松一街２４１巷３４６號","OBJECTID":441133},"geometry":{"x":173010.61000000127,"y":2549536}},{"attributes":{"ID":441159,"DIS_CODE":0,"TOWNNAME":"永康區","LI":"龍潭里","LIN":"38鄰","STREET":"中山北路","SECT":" ","MAREA":" ","LANE":"１６４巷","ALLEY":" ","HOUSE_NO":"８０號之５","E_COORD97":174454,"N_COORD97":2547365.7999999998,"ADDRESS":"中山北路１６４巷８０號之５","OBJECTID":441134},"geometry":{"x":174454.00000000093,"y":2547365.8000000045}},{"attributes":{"ID":441160,"DIS_CODE":0,"TOWNNAME":"永康區","LI":"網寮里","LIN":"20鄰","STREET":"永二街","SECT":" ","MAREA":" ","LANE":"２４５巷","ALLEY":" ","HOUSE_NO":"２０號之２","E_COORD97":173297.92999999999,"N_COORD97":2546187.79,"ADDRESS":"永二街２４５巷２０號之２","OBJECTID":441135},"geometry":{"x":173297.93000000063,"y":2546187.7900000028}},{"attributes":{"ID":441161,"DIS_CODE":0,"TOWNNAME":"永康區","LI":"網寮里","LIN":"20鄰","STREET":"永二街","SECT":" ","MAREA":" ","LANE":"２４５巷","ALLEY":" ","HOUSE_NO":"２７號之６","E_COORD97":173346.88,"N_COORD97":2546117.2400000002,"ADDRESS":"永二街２４５巷２７號之６","OBJECTID":441136},"geometry":{"x":173346.87999999989,"y":2546117.2400000002}},{"attributes":{"ID":441162,"DIS_CODE":0,"TOWNNAME":"白河區","LI":"永安里","LIN":"18鄰","STREET":" ","SECT":" ","MAREA":"新厝子","LANE":" ","ALLEY":" ","HOUSE_NO":"７１之４６號","E_COORD97":188907.42379500001,"N_COORD97":2582448.93952,"ADDRESS":"新厝子７１之４６號","OBJECTID":441137},"geometry":{"x":188907.42379500065,"y":2582448.9395170007}},{"attributes":{"ID":441163,"DIS_CODE":0,"TOWNNAME":"永康區","LI":"\u25A0行里","LIN":"8鄰","STREET":"中正一街","SECT":" ","MAREA":" ","LANE":"３２巷","ALLEY":" ","HOUSE_NO":"２７號","E_COORD97":173013.76999999999,"N_COORD97":2548406.5,"ADDRESS":"中正一街３２巷２７號","OBJECTID":441138},"geometry":{"x":173013.77000000048,"y":2548406.5}},{"attributes":{"ID":441164,"DIS_CODE":0,"TOWNNAME":"永康區","LI":"蔦松里","LIN":"7鄰","STREET":"蔦松一街","SECT":" ","MAREA":" ","LANE":"２２巷","ALLEY":" ","HOUSE_NO":"１９號","E_COORD97":174073.84,"N_COORD97":2549452.6699999999,"ADDRESS":"蔦松一街２２巷１９號","OBJECTID":441139},"geometry":{"x":174073.83999999985,"y":2549452.6700000018}},{"attributes":{"ID":441165,"DIS_CODE":0,"TOWNNAME":"永康區","LI":"蔦松里","LIN":"7鄰","STREET":"蔦松一街","SECT":" ","MAREA":" ","LANE":"２２巷","ALLEY":" ","HOUSE_NO":"１２號","E_COORD97":174046.92000000001,"N_COORD97":2549409.48,"ADDRESS":"蔦松一街２２巷１２號","OBJECTID":441140},"geometry":{"x":174046.92000000179,"y":2549409.4800000023}},{"attributes":{"ID":441166,"DIS_CODE":0,"TOWNNAME":"永康區","LI":"新樹里","LIN":"4鄰","STREET":"富強路","SECT":"二段","MAREA":" ","LANE":"３９８巷","ALLEY":" ","HOUSE_NO":"１４６號","E_COORD97":176116.01999999999,"N_COORD97":2547637.6099999999,"ADDRESS":"富強路二段３９８巷１４６號","OBJECTID":441141},"geometry":{"x":176116.02000000048,"y":2547637.6100000013}},{"attributes":{"ID":441167,"DIS_CODE":0,"TOWNNAME":"永康區","LI":"龍潭里","LIN":"38鄰","STREET":"中山北路","SECT":" ","MAREA":" ","LANE":"１６４巷","ALLEY":" ","HOUSE_NO":"８０號之７","E_COORD97":174453.92999999999,"N_COORD97":2547365.7999999998,"ADDRESS":"中山北路１６４巷８０號之７","OBJECTID":441142},"geometry":{"x":174453.93000000063,"y":2547365.8000000045}},{"attributes":{"ID":441168,"DIS_CODE":0,"TOWNNAME":"永康區","LI":"龍潭里","LIN":"5鄰","STREET":"龍潭街","SECT":" ","MAREA":" ","LANE":"１２１巷","ALLEY":" ","HOUSE_NO":"９號","E_COORD97":174812.84,"N_COORD97":2548170.54,"ADDRESS":"龍潭街１２１巷９號","OBJECTID":441143},"geometry":{"x":174812.83999999985,"y":2548170.540000001}},{"attributes":{"ID":441169,"DIS_CODE":0,"TOWNNAME":"永康區","LI":"龍潭里","LIN":"5鄰","STREET":"龍潭街","SECT":" ","MAREA":" ","LANE":"１２１巷","ALLEY":" ","HOUSE_NO":"７號","E_COORD97":174821.01999999999,"N_COORD97":2548168.52,"ADDRESS":"龍潭街１２１巷７號","OBJECTID":441144},"geometry":{"x":174821.02000000048,"y":2548168.5199999996}},{"attributes":{"ID":441170,"DIS_CODE":0,"TOWNNAME":"永康區","LI":"網寮里","LIN":"20鄰","STREET":"永二街","SECT":" ","MAREA":" ","LANE":"２４５巷","ALLEY":" ","HOUSE_NO":"３２號","E_COORD97":173288.29000000001,"N_COORD97":2546134.5600000001,"ADDRESS":"永二街２４５巷３２號","OBJECTID":441145},"geometry":{"x":173288.29000000004,"y":2546134.5600000024}},{"attributes":{"ID":441171,"DIS_CODE":0,"TOWNNAME":"永康區","LI":"網寮里","LIN":"20鄰","STREET":"永二街","SECT":" ","MAREA":" ","LANE":"２４５巷","ALLEY":" ","HOUSE_NO":"９號","E_COORD97":173322.85000000001,"N_COORD97":2546176.9900000002,"ADDRESS":"永二街２４５巷９號","OBJECTID":441146},"geometry":{"x":173322.84999999963,"y":2546176.9900000002}},{"attributes":{"ID":441172,"DIS_CODE":0,"TOWNNAME":"永康區","LI":"龍潭里","LIN":"42鄰","STREET":"永平街","SECT":" ","MAREA":" ","LANE":"７５９巷","ALLEY":" ","HOUSE_NO":"２６號","E_COORD97":174596.19,"N_COORD97":2547079.9900000002,"ADDRESS":"永平街７５９巷２６號","OBJECTID":441147},"geometry":{"x":174596.19000000041,"y":2547079.9900000021}},{"attributes":{"ID":441173,"DIS_CODE":0,"TOWNNAME":"永康區","LI":"龍潭里","LIN":"42鄰","STREET":"永平街","SECT":" ","MAREA":" ","LANE":"７５９巷","ALLEY":" ","HOUSE_NO":"８號","E_COORD97":174611.63,"N_COORD97":2547069.9500000002,"ADDRESS":"永平街７５９巷８號","OBJECTID":441148},"geometry":{"x":174611.63000000175,"y":2547069.9500000011}},{"attributes":{"ID":441174,"DIS_CODE":0,"TOWNNAME":"永康區","LI":"網寮里","LIN":"5鄰","STREET":"永勝街","SECT":" ","MAREA":" ","LANE":"１０６巷","ALLEY":" ","HOUSE_NO":"５號","E_COORD97":173564.14000000001,"N_COORD97":2546347.6899999999,"ADDRESS":"永勝街１０６巷５號","OBJECTID":441149},"geometry":{"x":173564.1400000006,"y":2546347.6899999995}},{"attributes":{"ID":441175,"DIS_CODE":0,"TOWNNAME":"永康區","LI":"龍潭里","LIN":"42鄰","STREET":"永平街","SECT":" ","MAREA":" ","LANE":"７５９巷","ALLEY":" ","HOUSE_NO":"２０號","E_COORD97":174605.07999999999,"N_COORD97":2547081.2400000002,"ADDRESS":"永平街７５９巷２０號","OBJECTID":441150},"geometry":{"x":174605.08000000007,"y":2547081.2400000039}},{"attributes":{"ID":441176,"DIS_CODE":0,"TOWNNAME":"永康區","LI":"龍潭里","LIN":"42鄰","STREET":"永平街","SECT":" ","MAREA":" ","LANE":"７５９巷","ALLEY":" ","HOUSE_NO":"２２號","E_COORD97":174600.70999999999,"N_COORD97":2547080.9900000002,"ADDRESS":"永平街７５９巷２２號","OBJECTID":441151},"geometry":{"x":174600.70999999996,"y":2547080.9900000002}},{"attributes":{"ID":441177,"DIS_CODE":0,"TOWNNAME":"永康區","LI":"網寮里","LIN":"24鄰","STREET":"永春街","SECT":" ","MAREA":" ","LANE":"４５巷","ALLEY":" ","HOUSE_NO":"５號","E_COORD97":173733.79999999999,"N_COORD97":2546373.6899999999,"ADDRESS":"永春街４５巷５號","OBJECTID":441152},"geometry":{"x":173733.79999999981,"y":2546373.6899999995}},{"attributes":{"ID":441178,"DIS_CODE":0,"TOWNNAME":"永康區","LI":"\u25A0行里","LIN":"4鄰","STREET":"新行街","SECT":" ","MAREA":" ","LANE":"４巷","ALLEY":" ","HOUSE_NO":"４號","E_COORD97":172236.82999999999,"N_COORD97":2548723.75,"ADDRESS":"新行街４巷４號","OBJECTID":441153},"geometry":{"x":172236.83000000007,"y":2548723.75}},{"attributes":{"ID":441179,"DIS_CODE":0,"TOWNNAME":"永康區","LI":"龍潭里","LIN":"34鄰","STREET":"龍埔街","SECT":" ","MAREA":" ","LANE":"１８１巷","ALLEY":" ","HOUSE_NO":"２２號","E_COORD97":174448.26000000001,"N_COORD97":2548184.1899999999,"ADDRESS":"龍埔街１８１巷２２號","OBJECTID":441154},"geometry":{"x":174448.26000000071,"y":2548184.1899999995}},{"attributes":{"ID":441180,"DIS_CODE":0,"TOWNNAME":"永康區","LI":"龍潭里","LIN":"34鄰","STREET":"龍埔街","SECT":" ","MAREA":" ","LANE":"１８１巷","ALLEY":" ","HOUSE_NO":"２８號","E_COORD97":174446.14999999999,"N_COORD97":2548168.6899999999,"ADDRESS":"龍埔街１８１巷２８號","OBJECTID":441155},"geometry":{"x":174446.1500000013,"y":2548168.6899999976}},{"attributes":{"ID":441181,"DIS_CODE":0,"TOWNNAME":"永康區","LI":"蔦松里","LIN":"4鄰","STREET":"蔦松二街","SECT":" ","MAREA":" ","LANE":"１２４巷","ALLEY":" ","HOUSE_NO":"２７號","E_COORD97":173843.70999999999,"N_COORD97":2549354.5,"ADDRESS":"蔦松二街１２４巷２７號","OBJECTID":441156},"geometry":{"x":173843.71000000089,"y":2549354.5000000019}},{"attributes":{"ID":441182,"DIS_CODE":0,"TOWNNAME":"永康區","LI":"龍潭里","LIN":"26鄰","STREET":"龍昌街","SECT":" ","MAREA":" ","LANE":"６６巷","ALLEY":" ","HOUSE_NO":"２６號","E_COORD97":175087.85999999999,"N_COORD97":2547903.2000000002,"ADDRESS":"龍昌街６６巷２６號","OBJECTID":441157},"geometry":{"x":175087.86000000034,"y":2547903.1999999993}},{"attributes":{"ID":441183,"DIS_CODE":0,"TOWNNAME":"永康區","LI":"龍潭里","LIN":"26鄰","STREET":"龍昌街","SECT":" ","MAREA":" ","LANE":"６６巷","ALLEY":" ","HOUSE_NO":"１８號","E_COORD97":175070.31,"N_COORD97":2547897.8199999998,"ADDRESS":"龍昌街６６巷１８號","OBJECTID":441158},"geometry":{"x":175070.31000000052,"y":2547897.820000004}},{"attributes":{"ID":441184,"DIS_CODE":0,"TOWNNAME":"永康區","LI":"龍潭里","LIN":"39鄰","STREET":"永明街","SECT":" ","MAREA":" ","LANE":"２３１巷","ALLEY":" ","HOUSE_NO":"７８號","E_COORD97":174583.76000000001,"N_COORD97":2547385.8500000001,"ADDRESS":"永明街２３１巷７８號","OBJECTID":441159},"geometry":{"x":174583.76000000071,"y":2547385.8500000015}},{"attributes":{"ID":441185,"DIS_CODE":0,"TOWNNAME":"永康區","LI":"龍潭里","LIN":"39鄰","STREET":"永明街","SECT":" ","MAREA":" ","LANE":"２１５巷","ALLEY":" ","HOUSE_NO":"１８號","E_COORD97":174536.23999999999,"N_COORD97":2547256.0600000001,"ADDRESS":"永明街２１５巷１８號","OBJECTID":441160},"geometry":{"x":174536.24000000022,"y":2547256.0600000024}},{"attributes":{"ID":441186,"DIS_CODE":0,"TOWNNAME":"永康區","LI":"龍潭里","LIN":"24鄰","STREET":"中山北路","SECT":" ","MAREA":" ","LANE":"３４４巷","ALLEY":" ","HOUSE_NO":"１號之１","E_COORD97":175131.67999999999,"N_COORD97":2547677.27,"ADDRESS":"中山北路３４４巷１號之１","OBJECTID":441161},"geometry":{"x":175131.68000000063,"y":2547677.2700000014}},{"attributes":{"ID":441187,"DIS_CODE":0,"TOWNNAME":"永康區","LI":"蔦松里","LIN":"4鄰","STREET":"蔦松二街","SECT":" ","MAREA":" ","LANE":"１６２巷","ALLEY":" ","HOUSE_NO":"４號","E_COORD97":173879.26999999999,"N_COORD97":2549406.7400000002,"ADDRESS":"蔦松二街１６２巷４號","OBJECTID":441162},"geometry":{"x":173879.26999999955,"y":2549406.7400000039}},{"attributes":{"ID":441188,"DIS_CODE":0,"TOWNNAME":"永康區","LI":"龍潭里","LIN":"39鄰","STREET":"永明街","SECT":" ","MAREA":" ","LANE":"２１５巷","ALLEY":" ","HOUSE_NO":"２８號","E_COORD97":174526.63,"N_COORD97":2547277.7599999998,"ADDRESS":"永明街２１５巷２８號","OBJECTID":441163},"geometry":{"x":174526.62999999989,"y":2547277.7600000016}},{"attributes":{"ID":441189,"DIS_CODE":0,"TOWNNAME":"永康區","LI":"龍潭里","LIN":"39鄰","STREET":"永明街","SECT":" ","MAREA":" ","LANE":"２１５巷","ALLEY":" ","HOUSE_NO":"９號","E_COORD97":174511.35000000001,"N_COORD97":2547244.71,"ADDRESS":"永明街２１５巷９號","OBJECTID":441164},"geometry":{"x":174511.34999999963,"y":2547244.7100000046}},{"attributes":{"ID":441190,"DIS_CODE":0,"TOWNNAME":"永康區","LI":"\u25A0行里","LIN":"26鄰","STREET":"中正南路","SECT":" ","MAREA":" ","LANE":"４０４巷","ALLEY":" ","HOUSE_NO":"１３號","E_COORD97":171140.45000000001,"N_COORD97":2548267.2000000002,"ADDRESS":"中正南路４０４巷１３號","OBJECTID":441165},"geometry":{"x":171140.45000000112,"y":2548267.2000000011}},{"attributes":{"ID":441191,"DIS_CODE":0,"TOWNNAME":"永康區","LI":"龍潭里","LIN":"25鄰","STREET":"龍昌街","SECT":" ","MAREA":" ","LANE":"４５巷","ALLEY":" ","HOUSE_NO":"３號","E_COORD97":174984.14000000001,"N_COORD97":2547840.0899999999,"ADDRESS":"龍昌街４５巷３號","OBJECTID":441166},"geometry":{"x":174984.13999999966,"y":2547840.0899999999}},{"attributes":{"ID":441192,"DIS_CODE":0,"TOWNNAME":"永康區","LI":"蔦松里","LIN":"4鄰","STREET":"蔦松二街","SECT":" ","MAREA":" ","LANE":"１６２巷","ALLEY":" ","HOUSE_NO":"１９號","E_COORD97":173934.51999999999,"N_COORD97":2549384.9900000002,"ADDRESS":"蔦松二街１６２巷１９號","OBJECTID":441167},"geometry":{"x":173934.52000000048,"y":2549384.9900000039}},{"attributes":{"ID":441193,"DIS_CODE":0,"TOWNNAME":"永康區","LI":"龍潭里","LIN":"26鄰","STREET":"龍昌街","SECT":" ","MAREA":" ","LANE":"６６巷","ALLEY":" ","HOUSE_NO":"２４號","E_COORD97":175083.89999999999,"N_COORD97":2547902.7000000002,"ADDRESS":"龍昌街６６巷２４號","OBJECTID":441168},"geometry":{"x":175083.9000000013,"y":2547902.6999999993}},{"attributes":{"ID":441194,"DIS_CODE":0,"TOWNNAME":"永康區","LI":"龍潭里","LIN":"25鄰","STREET":"龍昌街","SECT":" ","MAREA":" ","LANE":"５１巷","ALLEY":" ","HOUSE_NO":"１號","E_COORD97":174993.14000000001,"N_COORD97":2547894.2400000002,"ADDRESS":"龍昌街５１巷１號","OBJECTID":441169},"geometry":{"x":174993.1400000006,"y":2547894.2400000002}},{"attributes":{"ID":441195,"DIS_CODE":0,"TOWNNAME":"永康區","LI":"新樹里","LIN":"4鄰","STREET":"富強路","SECT":"二段","MAREA":" ","LANE":"３９８巷","ALLEY":" ","HOUSE_NO":"３６號","E_COORD97":175647.10000000001,"N_COORD97":2547632.8900000001,"ADDRESS":"富強路二段３９８巷３６號","OBJECTID":441170},"geometry":{"x":175647.09999999963,"y":2547632.8900000043}},{"attributes":{"ID":441196,"DIS_CODE":0,"TOWNNAME":"永康區","LI":"龍潭里","LIN":"39鄰","STREET":"永明街","SECT":" ","MAREA":" ","LANE":"２７３巷","ALLEY":" ","HOUSE_NO":"１號","E_COORD97":174656.38,"N_COORD97":2547227.1499999999,"ADDRESS":"永明街２７３巷１號","OBJECTID":441171},"geometry":{"x":174656.38000000082,"y":2547227.1500000004}},{"attributes":{"ID":441197,"DIS_CODE":0,"TOWNNAME":"永康區","LI":"龍潭里","LIN":"39鄰","STREET":"永明街","SECT":" ","MAREA":" ","LANE":"２１５巷","ALLEY":" ","HOUSE_NO":"５６號","E_COORD97":174547.51999999999,"N_COORD97":2547288.71,"ADDRESS":"永明街２１５巷５６號","OBJECTID":441172},"geometry":{"x":174547.51999999862,"y":2547288.7100000046}},{"attributes":{"ID":441198,"DIS_CODE":0,"TOWNNAME":"永康區","LI":"龍潭里","LIN":"39鄰","STREET":"永明街","SECT":" ","MAREA":" ","LANE":"１７９巷","ALLEY":" ","HOUSE_NO":"８號","E_COORD97":174447.73999999999,"N_COORD97":2547241.5800000001,"ADDRESS":"永明街１７９巷８號","OBJECTID":441173},"geometry":{"x":174447.74000000022,"y":2547241.5800000019}},{"attributes":{"ID":441199,"DIS_CODE":0,"TOWNNAME":"永康區","LI":"蔦松里","LIN":"4鄰","STREET":"蔦松二街","SECT":" ","MAREA":" ","LANE":"１６２巷","ALLEY":" ","HOUSE_NO":"１５號之１","E_COORD97":173916.16,"N_COORD97":2549381.04,"ADDRESS":"蔦松二街１６２巷１５號之１","OBJECTID":441174},"geometry":{"x":173916.16000000015,"y":2549381.040000001}},{"attributes":{"ID":441200,"DIS_CODE":0,"TOWNNAME":"永康區","LI":"新樹里","LIN":"4鄰","STREET":"富強路","SECT":"二段","MAREA":" ","LANE":"３９８巷","ALLEY":" ","HOUSE_NO":"５０號","E_COORD97":175675.39999999999,"N_COORD97":2547633.1400000001,"ADDRESS":"富強路二段３９８巷５０號","OBJECTID":441175},"geometry":{"x":175675.4000000013,"y":2547633.1400000006}},{"attributes":{"ID":441201,"DIS_CODE":0,"TOWNNAME":"永康區","LI":"\u25A0行里","LIN":"20鄰","STREET":"正南五街","SECT":" ","MAREA":" ","LANE":"２８９巷","ALLEY":" ","HOUSE_NO":"７１號","E_COORD97":171791.37,"N_COORD97":2548353.6000000001,"ADDRESS":"正南五街２８９巷７１號","OBJECTID":441176},"geometry":{"x":171791.37000000104,"y":2548353.6000000015}},{"attributes":{"ID":441202,"DIS_CODE":0,"TOWNNAME":"永康區","LI":"\u25A0行里","LIN":"26鄰","STREET":"中正南路","SECT":" ","MAREA":" ","LANE":"４０４巷","ALLEY":" ","HOUSE_NO":"１０號","E_COORD97":171091.45999999999,"N_COORD97":2548264.6800000002,"ADDRESS":"中正南路４０４巷１０號","OBJECTID":441177},"geometry":{"x":171091.45999999996,"y":2548264.6800000016}},{"attributes":{"ID":441203,"DIS_CODE":0,"TOWNNAME":"永康區","LI":"\u25A0行里","LIN":"26鄰","STREET":"中正南路","SECT":" ","MAREA":" ","LANE":"４０４巷","ALLEY":" ","HOUSE_NO":"７號","E_COORD97":171120.10999999999,"N_COORD97":2548272.46,"ADDRESS":"中正南路４０４巷７號","OBJECTID":441178},"geometry":{"x":171120.1100000022,"y":2548272.4600000009}},{"attributes":{"ID":441204,"DIS_CODE":0,"TOWNNAME":"永康區","LI":"龍潭里","LIN":"39鄰","STREET":"永明街","SECT":" ","MAREA":" ","LANE":"１７９巷","ALLEY":" ","HOUSE_NO":"７號","E_COORD97":174430.78,"N_COORD97":2547273.4700000002,"ADDRESS":"永明街１７９巷７號","OBJECTID":441179},"geometry":{"x":174430.78000000026,"y":2547273.4700000025}},{"attributes":{"ID":441205,"DIS_CODE":0,"TOWNNAME":"永康區","LI":"龍潭里","LIN":"39鄰","STREET":"永明街","SECT":" ","MAREA":" ","LANE":"２３１巷","ALLEY":" ","HOUSE_NO":"２３號","E_COORD97":174563.53,"N_COORD97":2547261.1899999999,"ADDRESS":"永明街２３１巷２３號","OBJECTID":441180},"geometry":{"x":174563.53000000212,"y":2547261.1900000013}},{"attributes":{"ID":441206,"DIS_CODE":0,"TOWNNAME":"永康區","LI":"龍潭里","LIN":"20鄰","STREET":"龍潭街","SECT":" ","MAREA":" ","LANE":"２１５巷","ALLEY":" ","HOUSE_NO":"６號","E_COORD97":174936.57999999999,"N_COORD97":2548438.9900000002,"ADDRESS":"龍潭街２１５巷６號","OBJECTID":441181},"geometry":{"x":174936.58000000101,"y":2548438.9900000039}},{"attributes":{"ID":441207,"DIS_CODE":0,"TOWNNAME":"永康區","LI":"龍潭里","LIN":"39鄰","STREET":"永明街","SECT":" ","MAREA":" ","LANE":"２７３巷","ALLEY":" ","HOUSE_NO":"３６號","E_COORD97":174670.45000000001,"N_COORD97":2547300.3300000001,"ADDRESS":"永明街２７３巷３６號","OBJECTID":441182},"geometry":{"x":174670.45000000019,"y":2547300.3299999982}},{"attributes":{"ID":441208,"DIS_CODE":0,"TOWNNAME":"永康區","LI":"龍潭里","LIN":"39鄰","STREET":"國民路","SECT":" ","MAREA":" ","LANE":"９３巷","ALLEY":" ","HOUSE_NO":"８號","E_COORD97":174397.14000000001,"N_COORD97":2547289.8300000001,"ADDRESS":"國民路９３巷８號","OBJECTID":441183},"geometry":{"x":174397.13999999966,"y":2547289.8300000001}},{"attributes":{"ID":441209,"DIS_CODE":0,"TOWNNAME":"永康區","LI":"\u25A0行里","LIN":"42鄰","STREET":"永安二街","SECT":" ","MAREA":" ","LANE":"２５巷","ALLEY":" ","HOUSE_NO":"５３號","E_COORD97":172453.60000000001,"N_COORD97":2549534.3199999998,"ADDRESS":"永安二街２５巷５３號","OBJECTID":441184},"geometry":{"x":172453.60000000149,"y":2549534.3200000003}},{"attributes":{"ID":441210,"DIS_CODE":0,"TOWNNAME":"永康區","LI":"龍潭里","LIN":"25鄰","STREET":"龍昌街","SECT":" ","MAREA":" ","LANE":"４５巷","ALLEY":" ","HOUSE_NO":"１０號","E_COORD97":174979.59,"N_COORD97":2547864.1400000001,"ADDRESS":"龍昌街４５巷１０號","OBJECTID":441185},"geometry":{"x":174979.58999999985,"y":2547864.1400000006}},{"attributes":{"ID":441211,"DIS_CODE":0,"TOWNNAME":"永康區","LI":"龍潭里","LIN":"39鄰","STREET":"永明街","SECT":" ","MAREA":" ","LANE":"２７３巷","ALLEY":" ","HOUSE_NO":"１５號","E_COORD97":174649.04000000001,"N_COORD97":2547267.71,"ADDRESS":"永明街２７３巷１５號","OBJECTID":441186},"geometry":{"x":174649.04000000004,"y":2547267.7100000009}},{"attributes":{"ID":441212,"DIS_CODE":0,"TOWNNAME":"永康區","LI":"蔦松里","LIN":"4鄰","STREET":"蔦松二街","SECT":" ","MAREA":" ","LANE":"１６２巷","ALLEY":" ","HOUSE_NO":"１３號之２","E_COORD97":173904.82000000001,"N_COORD97":2549388.54,"ADDRESS":"蔦松二街１６２巷１３號之２","OBJECTID":441187},"geometry":{"x":173904.8200000003,"y":2549388.5399999991}},{"attributes":{"ID":441213,"DIS_CODE":0,"TOWNNAME":"永康區","LI":"蔦松里","LIN":"4鄰","STREET":"蔦松二街","SECT":" ","MAREA":" ","LANE":"１５４巷","ALLEY":" ","HOUSE_NO":"４號","E_COORD97":173860.29999999999,"N_COORD97":2549401.7400000002,"ADDRESS":"蔦松二街１５４巷４號","OBJECTID":441188},"geometry":{"x":173860.29999999981,"y":2549401.7400000002}},{"attributes":{"ID":441214,"DIS_CODE":0,"TOWNNAME":"永康區","LI":"\u25A0行里","LIN":"5鄰","STREET":"新行街","SECT":" ","MAREA":" ","LANE":"２１巷","ALLEY":" ","HOUSE_NO":"１７號","E_COORD97":172165.67999999999,"N_COORD97":2548789.75,"ADDRESS":"新行街２１巷１７號","OBJECTID":441189},"geometry":{"x":172165.68000000063,"y":2548789.7500000019}},{"attributes":{"ID":441215,"DIS_CODE":0,"TOWNNAME":"永康區","LI":"龍潭里","LIN":"25鄰","STREET":"龍昌街","SECT":" ","MAREA":" ","LANE":"５１巷","ALLEY":" ","HOUSE_NO":"９號","E_COORD97":174975.45000000001,"N_COORD97":2547891.6299999999,"ADDRESS":"龍昌街５１巷９號","OBJECTID":441190},"geometry":{"x":174975.45000000019,"y":2547891.6300000008}},{"attributes":{"ID":441216,"DIS_CODE":0,"TOWNNAME":"永康區","LI":"龍潭里","LIN":"38鄰","STREET":"中山北路","SECT":" ","MAREA":" ","LANE":"１６４巷","ALLEY":" ","HOUSE_NO":"８８號","E_COORD97":174467.41,"N_COORD97":2547392.6400000001,"ADDRESS":"中山北路１６４巷８８號","OBJECTID":441191},"geometry":{"x":174467.41000000015,"y":2547392.6400000006}},{"attributes":{"ID":441217,"DIS_CODE":0,"TOWNNAME":"東區","LI":"莊敬里","LIN":"20鄰","STREET":"東光路","SECT":"二段","MAREA":" ","LANE":"３６巷","ALLEY":" ","HOUSE_NO":"６號","E_COORD97":171250.92999999999,"N_COORD97":2544045.5899999999,"ADDRESS":"東光路二段３６巷６號","OBJECTID":441192},"geometry":{"x":171250.9299999997,"y":2544045.5899999999}},{"attributes":{"ID":441218,"DIS_CODE":0,"TOWNNAME":"東區","LI":"莊敬里","LIN":"25鄰","STREET":"東光路","SECT":"二段","MAREA":" ","LANE":"１４巷","ALLEY":" ","HOUSE_NO":"４號","E_COORD97":171240.32000000001,"N_COORD97":2543994.0499999998,"ADDRESS":"東光路二段１４巷４號","OBJECTID":441193},"geometry":{"x":171240.3200000003,"y":2543994.0500000045}},{"attributes":{"ID":441219,"DIS_CODE":0,"TOWNNAME":"東區","LI":"莊敬里","LIN":"25鄰","STREET":"東光路","SECT":"二段","MAREA":" ","LANE":"１４巷","ALLEY":" ","HOUSE_NO":"８號","E_COORD97":171252.47,"N_COORD97":2543992.7999999998,"ADDRESS":"東光路二段１４巷８號","OBJECTID":441194},"geometry":{"x":171252.46999999974,"y":2543992.8000000026}},{"attributes":{"ID":441220,"DIS_CODE":0,"TOWNNAME":"東區","LI":"東安里","LIN":"14鄰","STREET":"長榮路","SECT":"二段","MAREA":" ","LANE":"３２巷","ALLEY":" ","HOUSE_NO":"２２９號之１","E_COORD97":170233.73999999999,"N_COORD97":2543098.79,"ADDRESS":"長榮路二段３２巷２２９號之１","OBJECTID":441195},"geometry":{"x":170233.74000000022,"y":2543098.7899999991}},{"attributes":{"ID":441221,"DIS_CODE":0,"TOWNNAME":"東區","LI":"富裕里","LIN":"1鄰","STREET":"東門路","SECT":"二段","MAREA":" ","LANE":"２６９巷","ALLEY":" ","HOUSE_NO":"１０號","E_COORD97":170657.22,"N_COORD97":2542722.7400000002,"ADDRESS":"東門路二段２６９巷１０號","OBJECTID":441196},"geometry":{"x":170657.21999999974,"y":2542722.7400000002}},{"attributes":{"ID":441222,"DIS_CODE":0,"TOWNNAME":"東區","LI":"富裕里","LIN":"1鄰","STREET":"東門路","SECT":"二段","MAREA":" ","LANE":"２６９巷","ALLEY":" ","HOUSE_NO":"１１號","E_COORD97":170643.45999999999,"N_COORD97":2542754.27,"ADDRESS":"東門路二段２６９巷１１號","OBJECTID":441197},"geometry":{"x":170643.46000000089,"y":2542754.2700000014}},{"attributes":{"ID":441223,"DIS_CODE":0,"TOWNNAME":"東區","LI":"富裕里","LIN":"1鄰","STREET":"東門路","SECT":"二段","MAREA":" ","LANE":"２６９巷","ALLEY":" ","HOUSE_NO":"１２號","E_COORD97":170657.48000000001,"N_COORD97":2542726.3100000001,"ADDRESS":"東門路二段２６９巷１２號","OBJECTID":441198},"geometry":{"x":170657.48000000138,"y":2542726.3100000005}},{"attributes":{"ID":441224,"DIS_CODE":0,"TOWNNAME":"東區","LI":"富裕里","LIN":"1鄰","STREET":"東門路","SECT":"二段","MAREA":" ","LANE":"２６９巷","ALLEY":" ","HOUSE_NO":"１３號","E_COORD97":170643.39000000001,"N_COORD97":2542759.8900000001,"ADDRESS":"東門路二段２６９巷１３號","OBJECTID":441199},"geometry":{"x":170643.3900000006,"y":2542759.8900000006}},{"attributes":{"ID":441225,"DIS_CODE":0,"TOWNNAME":"東區","LI":"後甲里","LIN":"33鄰","STREET":"小東路","SECT":" ","MAREA":" ","LANE":"６１２巷","ALLEY":" ","HOUSE_NO":"１號","E_COORD97":172069.53,"N_COORD97":2544259.0600000001,"ADDRESS":"小東路６１２巷１號","OBJECTID":441200},"geometry":{"x":172069.53000000026,"y":2544259.0600000024}}]}