{"displayFieldName":"TOWNNAME","fieldAliases":{"ID":"ID","DIS_CODE":"DIS_CODE","TOWNNAME":"TOWNNAME","LI":"LI","LIN":"LIN","STREET":"STREET","SECT":"SECT","MAREA":"MAREA","LANE":"LANE","ALLEY":"ALLEY","HOUSE_NO":"HOUSE_NO","E_COORD97":"E_COORD97","N_COORD97":"N_COORD97","ADDRESS":"ADDRESS","OBJECTID":"OBJECTID"},"geometryType":"esriGeometryPoint","spatialReference":{"wkid":102443,"latestWkid":3826},"fields":[{"name":"ID","type":"esriFieldTypeDouble","alias":"ID"},{"name":"DIS_CODE","type":"esriFieldTypeInteger","alias":"DIS_CODE"},{"name":"TOWNNAME","type":"esriFieldTypeString","alias":"TOWNNAME","length":8},{"name":"LI","type":"esriFieldTypeString","alias":"LI","length":8},{"name":"LIN","type":"esriFieldTypeString","alias":"LIN","length":12},{"name":"STREET","type":"esriFieldTypeString","alias":"STREET","length":20},{"name":"SECT","type":"esriFieldTypeString","alias":"SECT","length":8},{"name":"MAREA","type":"esriFieldTypeString","alias":"MAREA","length":12},{"name":"LANE","type":"esriFieldTypeString","alias":"LANE","length":10},{"name":"ALLEY","type":"esriFieldTypeString","alias":"ALLEY","length":10},{"name":"HOUSE_NO","type":"esriFieldTypeString","alias":"HOUSE_NO","length":20},{"name":"E_COORD97","type":"esriFieldTypeDouble","alias":"E_COORD97"},{"name":"N_COORD97","type":"esriFieldTypeDouble","alias":"N_COORD97"},{"name":"ADDRESS","type":"esriFieldTypeString","alias":"ADDRESS","length":50},{"name":"OBJECTID","type":"esriFieldTypeOID","alias":"OBJECTID"}],"features":[{"attributes":{"ID":321010,"DIS_CODE":0,"TOWNNAME":"東區","LI":"德光里","LIN":"15鄰","STREET":"崇德二街","SECT":" ","MAREA":" ","LANE":"６巷","ALLEY":" ","HOUSE_NO":"４３號二樓","E_COORD97":170137.29000000001,"N_COORD97":2542305.5099999998,"ADDRESS":"崇德二街６巷４３號二樓","OBJECTID":321001},"geometry":{"x":170137.29000000097,"y":2542305.5100000016}},{"attributes":{"ID":321011,"DIS_CODE":0,"TOWNNAME":"柳營區","LI":"太康里","LIN":" ","STREET":" ","SECT":" ","MAREA":"太康","LANE":" ","ALLEY":" ","HOUSE_NO":"１６３之７號","E_COORD97":181842.56,"N_COORD97":2576512.4700000002,"ADDRESS":"太康１６３之７號","OBJECTID":321002},"geometry":{"x":181842.56000000052,"y":2576512.4700000025}},{"attributes":{"ID":321012,"DIS_CODE":0,"TOWNNAME":"柳營區","LI":"人和里","LIN":" ","STREET":" ","SECT":" ","MAREA":"柳營","LANE":" ","ALLEY":" ","HOUSE_NO":"２１之１３０號","E_COORD97":179009.89000000001,"N_COORD97":2576111,"ADDRESS":"柳營２１之１３０號","OBJECTID":321003},"geometry":{"x":179009.88999999966,"y":2576111.0000000037}},{"attributes":{"ID":321013,"DIS_CODE":0,"TOWNNAME":"柳營區","LI":"光福里","LIN":" ","STREET":" ","SECT":" ","MAREA":"柳營","LANE":" ","ALLEY":" ","HOUSE_NO":"２３３號","E_COORD97":179717.53,"N_COORD97":2575249.6299999999,"ADDRESS":"柳營２３３號","OBJECTID":321004},"geometry":{"x":179717.53000000119,"y":2575249.629999999}},{"attributes":{"ID":321014,"DIS_CODE":0,"TOWNNAME":"柳營區","LI":"光福里","LIN":" ","STREET":" ","SECT":" ","MAREA":"柳營","LANE":" ","ALLEY":" ","HOUSE_NO":"２３７號","E_COORD97":179752.03,"N_COORD97":2575210.1800000002,"ADDRESS":"柳營２３７號","OBJECTID":321005},"geometry":{"x":179752.03000000026,"y":2575210.1799999997}},{"attributes":{"ID":321015,"DIS_CODE":0,"TOWNNAME":"中西區","LI":"安海里","LIN":"11鄰","STREET":"中正路","SECT":" ","MAREA":" ","LANE":" ","ALLEY":" ","HOUSE_NO":"４０８號","E_COORD97":167227.240685,"N_COORD97":2543882.22187,"ADDRESS":"中正路４０８號","OBJECTID":321006},"geometry":{"x":167227.24068500008,"y":2543882.2218690012}},{"attributes":{"ID":321016,"DIS_CODE":0,"TOWNNAME":"柳營區","LI":"光福里","LIN":" ","STREET":" ","SECT":" ","MAREA":"柳營","LANE":" ","ALLEY":" ","HOUSE_NO":"２４７之１號","E_COORD97":179702.79000000001,"N_COORD97":2575254.7000000002,"ADDRESS":"柳營２４７之１號","OBJECTID":321007},"geometry":{"x":179702.79000000004,"y":2575254.7000000011}},{"attributes":{"ID":321017,"DIS_CODE":0,"TOWNNAME":"柳營區","LI":"士林里","LIN":" ","STREET":"博愛街","SECT":" ","MAREA":" ","LANE":" ","ALLEY":" ","HOUSE_NO":"５５號","E_COORD97":179473.89999999999,"N_COORD97":2575195.1699999999,"ADDRESS":"博愛街５５號","OBJECTID":321008},"geometry":{"x":179473.90000000224,"y":2575195.1700000018}},{"attributes":{"ID":321018,"DIS_CODE":0,"TOWNNAME":"關廟區","LI":"布袋里","LIN":"5鄰","STREET":" ","SECT":" ","MAREA":"布袋","LANE":" ","ALLEY":" ","HOUSE_NO":"１９８號","E_COORD97":183168.79000000001,"N_COORD97":2535453.2999999998,"ADDRESS":"布袋１９８號","OBJECTID":321009},"geometry":{"x":183168.79000000097,"y":2535453.3000000026}},{"attributes":{"ID":321019,"DIS_CODE":0,"TOWNNAME":"柳營區","LI":"人和里","LIN":" ","STREET":" ","SECT":" ","MAREA":"橋南","LANE":" ","ALLEY":" ","HOUSE_NO":"１１６號","E_COORD97":179715.56,"N_COORD97":2577061.27,"ADDRESS":"橋南１１６號","OBJECTID":321010},"geometry":{"x":179715.55999999959,"y":2577061.2700000033}},{"attributes":{"ID":321020,"DIS_CODE":0,"TOWNNAME":"柳營區","LI":"人和里","LIN":" ","STREET":" ","SECT":" ","MAREA":"橋南","LANE":" ","ALLEY":" ","HOUSE_NO":"２３８之２０號","E_COORD97":179010.07999999999,"N_COORD97":2576244.52,"ADDRESS":"橋南２３８之２０號","OBJECTID":321011},"geometry":{"x":179010.08000000101,"y":2576244.5199999996}},{"attributes":{"ID":321021,"DIS_CODE":0,"TOWNNAME":"關廟區","LI":"下湖里","LIN":"4鄰","STREET":"關新路","SECT":"一段","MAREA":" ","LANE":" ","ALLEY":" ","HOUSE_NO":"４６０號","E_COORD97":179280.34,"N_COORD97":2543049.2999999998,"ADDRESS":"關新路一段４６０號","OBJECTID":321012},"geometry":{"x":179280.33999999892,"y":2543049.3000000007}},{"attributes":{"ID":321022,"DIS_CODE":0,"TOWNNAME":"關廟區","LI":"下湖里","LIN":"4鄰","STREET":"關新路","SECT":"一段","MAREA":" ","LANE":" ","ALLEY":" ","HOUSE_NO":"４６６號","E_COORD97":179279.14000000001,"N_COORD97":2543056.2999999998,"ADDRESS":"關新路一段４６６號","OBJECTID":321013},"geometry":{"x":179279.13999999966,"y":2543056.3000000007}},{"attributes":{"ID":321023,"DIS_CODE":0,"TOWNNAME":"關廟區","LI":"下湖里","LIN":"4鄰","STREET":"關新路","SECT":"一段","MAREA":" ","LANE":" ","ALLEY":" ","HOUSE_NO":"４７２號","E_COORD97":179270.34,"N_COORD97":2543081.2999999998,"ADDRESS":"關新路一段４７２號","OBJECTID":321014},"geometry":{"x":179270.34000000171,"y":2543081.3000000026}},{"attributes":{"ID":321024,"DIS_CODE":0,"TOWNNAME":"關廟區","LI":"下湖里","LIN":"4鄰","STREET":"關新路","SECT":"一段","MAREA":" ","LANE":" ","ALLEY":" ","HOUSE_NO":"４７６號","E_COORD97":179269.94,"N_COORD97":2543085.2999999998,"ADDRESS":"關新路一段４７６號","OBJECTID":321015},"geometry":{"x":179269.94000000041,"y":2543085.3000000026}},{"attributes":{"ID":321025,"DIS_CODE":0,"TOWNNAME":"東區","LI":"德光里","LIN":"15鄰","STREET":"崇德二街","SECT":" ","MAREA":" ","LANE":"６巷","ALLEY":" ","HOUSE_NO":"４３號三樓","E_COORD97":170137.29000000001,"N_COORD97":2542305.5099999998,"ADDRESS":"崇德二街６巷４３號三樓","OBJECTID":321016},"geometry":{"x":170137.29000000097,"y":2542305.5100000016}},{"attributes":{"ID":321026,"DIS_CODE":0,"TOWNNAME":"東區","LI":"德光里","LIN":"15鄰","STREET":"崇德二街","SECT":" ","MAREA":" ","LANE":"６巷","ALLEY":" ","HOUSE_NO":"４３號五樓","E_COORD97":170137.29000000001,"N_COORD97":2542305.5099999998,"ADDRESS":"崇德二街６巷４３號五樓","OBJECTID":321017},"geometry":{"x":170137.29000000097,"y":2542305.5100000016}},{"attributes":{"ID":321027,"DIS_CODE":0,"TOWNNAME":"東區","LI":"德光里","LIN":"15鄰","STREET":"崇德二街","SECT":" ","MAREA":" ","LANE":"６巷","ALLEY":" ","HOUSE_NO":"４３號四樓","E_COORD97":170137.29000000001,"N_COORD97":2542305.5099999998,"ADDRESS":"崇德二街６巷４３號四樓","OBJECTID":321018},"geometry":{"x":170137.29000000097,"y":2542305.5100000016}},{"attributes":{"ID":321028,"DIS_CODE":0,"TOWNNAME":"東區","LI":"德光里","LIN":"15鄰","STREET":"崇德二街","SECT":" ","MAREA":" ","LANE":"６巷","ALLEY":" ","HOUSE_NO":"７號二樓","E_COORD97":170077.54000000001,"N_COORD97":2542284.46,"ADDRESS":"崇德二街６巷７號二樓","OBJECTID":321019},"geometry":{"x":170077.54000000004,"y":2542284.4600000028}},{"attributes":{"ID":321029,"DIS_CODE":0,"TOWNNAME":"東區","LI":"德光里","LIN":"15鄰","STREET":"崇德二街","SECT":" ","MAREA":" ","LANE":"６巷","ALLEY":" ","HOUSE_NO":"７號三樓","E_COORD97":170077.54000000001,"N_COORD97":2542284.46,"ADDRESS":"崇德二街６巷７號三樓","OBJECTID":321020},"geometry":{"x":170077.54000000004,"y":2542284.4600000028}},{"attributes":{"ID":321030,"DIS_CODE":0,"TOWNNAME":"東區","LI":"德光里","LIN":"15鄰","STREET":"崇德二街","SECT":" ","MAREA":" ","LANE":"６巷","ALLEY":" ","HOUSE_NO":"７號五樓","E_COORD97":170077.54000000001,"N_COORD97":2542284.46,"ADDRESS":"崇德二街６巷７號五樓","OBJECTID":321021},"geometry":{"x":170077.54000000004,"y":2542284.4600000028}},{"attributes":{"ID":321031,"DIS_CODE":0,"TOWNNAME":"東區","LI":"德光里","LIN":"15鄰","STREET":"崇德二街","SECT":" ","MAREA":" ","LANE":"６巷","ALLEY":" ","HOUSE_NO":"７號六樓","E_COORD97":170077.54000000001,"N_COORD97":2542284.46,"ADDRESS":"崇德二街６巷７號六樓","OBJECTID":321022},"geometry":{"x":170077.54000000004,"y":2542284.4600000028}},{"attributes":{"ID":321032,"DIS_CODE":0,"TOWNNAME":"東區","LI":"德光里","LIN":"15鄰","STREET":"崇德二街","SECT":" ","MAREA":" ","LANE":"６巷","ALLEY":" ","HOUSE_NO":"７號四樓","E_COORD97":170077.54000000001,"N_COORD97":2542284.46,"ADDRESS":"崇德二街６巷７號四樓","OBJECTID":321023},"geometry":{"x":170077.54000000004,"y":2542284.4600000028}},{"attributes":{"ID":321033,"DIS_CODE":0,"TOWNNAME":"東區","LI":"德光里","LIN":"15鄰","STREET":"崇德二街","SECT":" ","MAREA":" ","LANE":"６巷","ALLEY":" ","HOUSE_NO":"９號二樓","E_COORD97":170086.07000000001,"N_COORD97":2542293.5299999998,"ADDRESS":"崇德二街６巷９號二樓","OBJECTID":321024},"geometry":{"x":170086.0700000003,"y":2542293.5299999993}},{"attributes":{"ID":321034,"DIS_CODE":0,"TOWNNAME":"東山區","LI":"南溪里","LIN":" ","STREET":" ","SECT":" ","MAREA":" ","LANE":"土窯巷","ALLEY":" ","HOUSE_NO":"２號","E_COORD97":188974.85000000001,"N_COORD97":2574568.8300000001,"ADDRESS":"土窯巷２號","OBJECTID":321025},"geometry":{"x":188974.85000000149,"y":2574568.8300000001}},{"attributes":{"ID":321035,"DIS_CODE":0,"TOWNNAME":"東區","LI":"德光里","LIN":"15鄰","STREET":"崇德二街","SECT":" ","MAREA":" ","LANE":"６巷","ALLEY":" ","HOUSE_NO":"９號三樓","E_COORD97":170086.07000000001,"N_COORD97":2542293.5299999998,"ADDRESS":"崇德二街６巷９號三樓","OBJECTID":321026},"geometry":{"x":170086.0700000003,"y":2542293.5299999993}},{"attributes":{"ID":321036,"DIS_CODE":0,"TOWNNAME":"東區","LI":"德光里","LIN":"15鄰","STREET":"崇德二街","SECT":" ","MAREA":" ","LANE":"６巷","ALLEY":" ","HOUSE_NO":"９號五樓","E_COORD97":170086.07000000001,"N_COORD97":2542293.5299999998,"ADDRESS":"崇德二街６巷９號五樓","OBJECTID":321027},"geometry":{"x":170086.0700000003,"y":2542293.5299999993}},{"attributes":{"ID":321037,"DIS_CODE":0,"TOWNNAME":"東區","LI":"德光里","LIN":"15鄰","STREET":"崇德二街","SECT":" ","MAREA":" ","LANE":"６巷","ALLEY":" ","HOUSE_NO":"９號六樓","E_COORD97":170086.07000000001,"N_COORD97":2542293.5299999998,"ADDRESS":"崇德二街６巷９號六樓","OBJECTID":321028},"geometry":{"x":170086.0700000003,"y":2542293.5299999993}},{"attributes":{"ID":321038,"DIS_CODE":0,"TOWNNAME":"關廟區","LI":"深坑里","LIN":"4鄰","STREET":"深坑三街","SECT":" ","MAREA":" ","LANE":"８３巷","ALLEY":" ","HOUSE_NO":"１３號","E_COORD97":181899.67000000001,"N_COORD97":2537613.2999999998,"ADDRESS":"深坑三街８３巷１３號","OBJECTID":321029},"geometry":{"x":181899.67000000086,"y":2537613.3000000026}},{"attributes":{"ID":321039,"DIS_CODE":0,"TOWNNAME":"關廟區","LI":"深坑里","LIN":"12鄰","STREET":"南雄路","SECT":"一段","MAREA":" ","LANE":"４９５巷","ALLEY":" ","HOUSE_NO":"５２號","E_COORD97":181509.42000000001,"N_COORD97":2537800.2999999998,"ADDRESS":"南雄路一段４９５巷５２號","OBJECTID":321030},"geometry":{"x":181509.42000000086,"y":2537800.3000000007}},{"attributes":{"ID":321040,"DIS_CODE":0,"TOWNNAME":"關廟區","LI":"布袋里","LIN":"4鄰","STREET":"長文街","SECT":" ","MAREA":" ","LANE":"２０５巷","ALLEY":" ","HOUSE_NO":"５號","E_COORD97":182680.04000000001,"N_COORD97":2535277.2999999998,"ADDRESS":"長文街２０５巷５號","OBJECTID":321031},"geometry":{"x":182680.04000000097,"y":2535277.3000000026}},{"attributes":{"ID":321041,"DIS_CODE":0,"TOWNNAME":"關廟區","LI":"龜洞里","LIN":"4鄰","STREET":"南雄南路","SECT":" ","MAREA":" ","LANE":"８３０巷","ALLEY":" ","HOUSE_NO":"１５號","E_COORD97":182816.34,"N_COORD97":2533382.2999999998,"ADDRESS":"南雄南路８３０巷１５號","OBJECTID":321032},"geometry":{"x":182816.33999999985,"y":2533382.3000000007}},{"attributes":{"ID":321042,"DIS_CODE":0,"TOWNNAME":"關廟區","LI":"龜洞里","LIN":"5鄰","STREET":"南橋街","SECT":" ","MAREA":" ","LANE":" ","ALLEY":" ","HOUSE_NO":"１２號","E_COORD97":182277.44,"N_COORD97":2532700.2999999998,"ADDRESS":"南橋街１２號","OBJECTID":321033},"geometry":{"x":182277.44000000227,"y":2532700.3000000026}},{"attributes":{"ID":321043,"DIS_CODE":0,"TOWNNAME":"關廟區","LI":"布袋里","LIN":"4鄰","STREET":"長文街","SECT":" ","MAREA":" ","LANE":" ","ALLEY":" ","HOUSE_NO":"１９５號","E_COORD97":182689.64000000001,"N_COORD97":2535299.2999999998,"ADDRESS":"長文街１９５號","OBJECTID":321034},"geometry":{"x":182689.6400000006,"y":2535299.2999999989}},{"attributes":{"ID":321044,"DIS_CODE":0,"TOWNNAME":"關廟區","LI":"布袋里","LIN":"7鄰","STREET":"南雄南路","SECT":" ","MAREA":" ","LANE":" ","ALLEY":" ","HOUSE_NO":"４０１號","E_COORD97":183768.61574199999,"N_COORD97":2534675.6923799999,"ADDRESS":"南雄南路４０１號","OBJECTID":321035},"geometry":{"x":183768.61574199982,"y":2534675.6923840009}},{"attributes":{"ID":321045,"DIS_CODE":0,"TOWNNAME":"關廟區","LI":"布袋里","LIN":"7鄰","STREET":"南雄南路","SECT":" ","MAREA":" ","LANE":" ","ALLEY":" ","HOUSE_NO":"４０５號","E_COORD97":183771.98999999999,"N_COORD97":2534661.2999999998,"ADDRESS":"南雄南路４０５號","OBJECTID":321036},"geometry":{"x":183771.99000000209,"y":2534661.3000000007}},{"attributes":{"ID":321046,"DIS_CODE":0,"TOWNNAME":"東區","LI":"德光里","LIN":"15鄰","STREET":"崇德二街","SECT":" ","MAREA":" ","LANE":"６巷","ALLEY":" ","HOUSE_NO":"９號四樓","E_COORD97":170086.07000000001,"N_COORD97":2542293.5299999998,"ADDRESS":"崇德二街６巷９號四樓","OBJECTID":321037},"geometry":{"x":170086.0700000003,"y":2542293.5299999993}},{"attributes":{"ID":321047,"DIS_CODE":0,"TOWNNAME":"永康區","LI":"安康里","LIN":"15鄰","STREET":"中華路","SECT":" ","MAREA":" ","LANE":"６１９巷","ALLEY":" ","HOUSE_NO":"３０號二樓","E_COORD97":170962.03,"N_COORD97":2546079.75,"ADDRESS":"中華路６１９巷３０號二樓","OBJECTID":321038},"geometry":{"x":170962.03000000119,"y":2546079.75}},{"attributes":{"ID":321048,"DIS_CODE":0,"TOWNNAME":"永康區","LI":"安康里","LIN":"15鄰","STREET":"中華路","SECT":" ","MAREA":" ","LANE":"６１９巷","ALLEY":" ","HOUSE_NO":"５６號四樓","E_COORD97":170938.81,"N_COORD97":2546045.25,"ADDRESS":"中華路６１９巷５６號四樓","OBJECTID":321039},"geometry":{"x":170938.81000000052,"y":2546045.25}},{"attributes":{"ID":321049,"DIS_CODE":0,"TOWNNAME":"永康區","LI":"安康里","LIN":"15鄰","STREET":"中華路","SECT":" ","MAREA":" ","LANE":"６１９巷","ALLEY":" ","HOUSE_NO":"３０號三樓","E_COORD97":170962.03,"N_COORD97":2546079.75,"ADDRESS":"中華路６１９巷３０號三樓","OBJECTID":321040},"geometry":{"x":170962.03000000119,"y":2546079.75}},{"attributes":{"ID":321050,"DIS_CODE":0,"TOWNNAME":"永康區","LI":"安康里","LIN":"15鄰","STREET":"中華路","SECT":" ","MAREA":" ","LANE":"６１９巷","ALLEY":" ","HOUSE_NO":"５４號四樓","E_COORD97":170928.54999999999,"N_COORD97":2546064.5,"ADDRESS":"中華路６１９巷５４號四樓","OBJECTID":321041},"geometry":{"x":170928.55000000168,"y":2546064.5}},{"attributes":{"ID":321051,"DIS_CODE":0,"TOWNNAME":"永康區","LI":"安康里","LIN":"15鄰","STREET":"中華路","SECT":" ","MAREA":" ","LANE":"６１９巷","ALLEY":" ","HOUSE_NO":"５４號六樓","E_COORD97":170928.54999999999,"N_COORD97":2546064.5,"ADDRESS":"中華路６１９巷５４號六樓","OBJECTID":321042},"geometry":{"x":170928.55000000168,"y":2546064.5}},{"attributes":{"ID":321052,"DIS_CODE":0,"TOWNNAME":"永康區","LI":"安康里","LIN":"15鄰","STREET":"中華路","SECT":" ","MAREA":" ","LANE":"６１９巷","ALLEY":" ","HOUSE_NO":"３２號二樓","E_COORD97":170970.85000000001,"N_COORD97":2546062.75,"ADDRESS":"中華路６１９巷３２號二樓","OBJECTID":321043},"geometry":{"x":170970.85000000056,"y":2546062.75}},{"attributes":{"ID":321053,"DIS_CODE":0,"TOWNNAME":"新化區","LI":"協興里","LIN":"15鄰","STREET":"大新路","SECT":" ","MAREA":" ","LANE":"１１１巷","ALLEY":" ","HOUSE_NO":"４８號三樓之２","E_COORD97":177987.92999999999,"N_COORD97":2548642.2599999998,"ADDRESS":"大新路１１１巷４８號三樓之２","OBJECTID":321044},"geometry":{"x":177987.93000000156,"y":2548642.2599999998}},{"attributes":{"ID":321054,"DIS_CODE":0,"TOWNNAME":"新化區","LI":"協興里","LIN":"15鄰","STREET":"大新路","SECT":" ","MAREA":" ","LANE":"１１１巷","ALLEY":" ","HOUSE_NO":"４８號五樓之１","E_COORD97":177987.91,"N_COORD97":2548642.2599999998,"ADDRESS":"大新路１１１巷４８號五樓之１","OBJECTID":321045},"geometry":{"x":177987.91000000015,"y":2548642.2599999998}},{"attributes":{"ID":321055,"DIS_CODE":0,"TOWNNAME":"南區","LI":"南華里","LIN":"5鄰","STREET":"中華南路","SECT":"二段","MAREA":" ","LANE":" ","ALLEY":" ","HOUSE_NO":"３９２號","E_COORD97":166430.70000000001,"N_COORD97":2540298.5099999998,"ADDRESS":"中華南路二段３９２號","OBJECTID":321046},"geometry":{"x":166430.70000000112,"y":2540298.5100000016}},{"attributes":{"ID":321056,"DIS_CODE":0,"TOWNNAME":"歸仁區","LI":"沙崙里","LIN":" ","STREET":" ","SECT":" ","MAREA":"沙崙","LANE":" ","ALLEY":" ","HOUSE_NO":"１８４號","E_COORD97":179136.17999999999,"N_COORD97":2537332.25,"ADDRESS":"沙崙１８４號","OBJECTID":321047},"geometry":{"x":179136.18000000063,"y":2537332.25}},{"attributes":{"ID":321057,"DIS_CODE":0,"TOWNNAME":"歸仁區","LI":"西埔里","LIN":"15鄰","STREET":"大埔路","SECT":"二段","MAREA":" ","LANE":"８巷","ALLEY":" ","HOUSE_NO":"６６號","E_COORD97":176408.63,"N_COORD97":2545521.25,"ADDRESS":"大埔路二段８巷６６號","OBJECTID":321048},"geometry":{"x":176408.63000000175,"y":2545521.2500000037}},{"attributes":{"ID":321058,"DIS_CODE":0,"TOWNNAME":"歸仁區","LI":"西埔里","LIN":"6鄰","STREET":"保大路","SECT":"二段","MAREA":" ","LANE":"１１８巷","ALLEY":" ","HOUSE_NO":"２１號","E_COORD97":177089.66585600001,"N_COORD97":2544182.4557699999,"ADDRESS":"保大路二段１１８巷２１號","OBJECTID":321049},"geometry":{"x":177089.66585600004,"y":2544182.4557709992}},{"attributes":{"ID":321059,"DIS_CODE":0,"TOWNNAME":"歸仁區","LI":"西埔里","LIN":"15鄰","STREET":"大埔路","SECT":"二段","MAREA":" ","LANE":" ","ALLEY":" ","HOUSE_NO":"１００號","E_COORD97":176066.53,"N_COORD97":2545364.25,"ADDRESS":"大埔路二段１００號","OBJECTID":321050},"geometry":{"x":176066.53000000026,"y":2545364.25}},{"attributes":{"ID":321060,"DIS_CODE":0,"TOWNNAME":"歸仁區","LI":"媽廟里","LIN":" ","STREET":"保大路","SECT":"一段","MAREA":" ","LANE":"１９２巷","ALLEY":" ","HOUSE_NO":"５號","E_COORD97":177571.32999999999,"N_COORD97":2544078.7200000002,"ADDRESS":"保大路一段１９２巷５號","OBJECTID":321051},"geometry":{"x":177571.33000000007,"y":2544078.7200000025}},{"attributes":{"ID":321061,"DIS_CODE":0,"TOWNNAME":"歸仁區","LI":"媽廟里","LIN":" ","STREET":"媽廟二街","SECT":" ","MAREA":" ","LANE":"１５巷","ALLEY":" ","HOUSE_NO":"４９號","E_COORD97":177704.28,"N_COORD97":2543833.7200000002,"ADDRESS":"媽廟二街１５巷４９號","OBJECTID":321052},"geometry":{"x":177704.28000000026,"y":2543833.7200000044}},{"attributes":{"ID":321062,"DIS_CODE":0,"TOWNNAME":"關廟區","LI":"布袋里","LIN":"8鄰","STREET":"長文街","SECT":" ","MAREA":" ","LANE":"３２６巷","ALLEY":" ","HOUSE_NO":"７號","E_COORD97":182041.09,"N_COORD97":2535014.2999999998,"ADDRESS":"長文街３２６巷７號","OBJECTID":321053},"geometry":{"x":182041.08999999985,"y":2535014.3000000007}},{"attributes":{"ID":321063,"DIS_CODE":0,"TOWNNAME":"歸仁區","LI":"後市里","LIN":" ","STREET":"大順六街","SECT":" ","MAREA":" ","LANE":"１６巷","ALLEY":" ","HOUSE_NO":"２號","E_COORD97":177045.41,"N_COORD97":2540634.25,"ADDRESS":"大順六街１６巷２號","OBJECTID":321054},"geometry":{"x":177045.41000000015,"y":2540634.25}},{"attributes":{"ID":321064,"DIS_CODE":0,"TOWNNAME":"新化區","LI":"協興里","LIN":"15鄰","STREET":"大新路","SECT":" ","MAREA":" ","LANE":"１１１巷","ALLEY":" ","HOUSE_NO":"５０號七樓之３","E_COORD97":177987.92999999999,"N_COORD97":2548642.2599999998,"ADDRESS":"大新路１１１巷５０號七樓之３","OBJECTID":321055},"geometry":{"x":177987.93000000156,"y":2548642.2599999998}},{"attributes":{"ID":321065,"DIS_CODE":0,"TOWNNAME":"新化區","LI":"協興里","LIN":"15鄰","STREET":"大新路","SECT":" ","MAREA":" ","LANE":"１１１巷","ALLEY":" ","HOUSE_NO":"５０號四樓之３","E_COORD97":177987.92999999999,"N_COORD97":2548642.2599999998,"ADDRESS":"大新路１１１巷５０號四樓之３","OBJECTID":321056},"geometry":{"x":177987.93000000156,"y":2548642.2599999998}},{"attributes":{"ID":321066,"DIS_CODE":0,"TOWNNAME":"新化區","LI":"協興里","LIN":"15鄰","STREET":"大新路","SECT":" ","MAREA":" ","LANE":"１１１巷","ALLEY":" ","HOUSE_NO":"５２號七樓之１","E_COORD97":177987.91,"N_COORD97":2548642.2599999998,"ADDRESS":"大新路１１１巷５２號七樓之１","OBJECTID":321057},"geometry":{"x":177987.91000000015,"y":2548642.2599999998}},{"attributes":{"ID":321067,"DIS_CODE":0,"TOWNNAME":"新化區","LI":"協興里","LIN":"15鄰","STREET":"大新路","SECT":" ","MAREA":" ","LANE":"１１１巷","ALLEY":" ","HOUSE_NO":"４８號五樓之３","E_COORD97":177987.92999999999,"N_COORD97":2548642.2599999998,"ADDRESS":"大新路１１１巷４８號五樓之３","OBJECTID":321058},"geometry":{"x":177987.93000000156,"y":2548642.2599999998}},{"attributes":{"ID":321068,"DIS_CODE":0,"TOWNNAME":"新化區","LI":"協興里","LIN":"15鄰","STREET":"大新路","SECT":" ","MAREA":" ","LANE":"１１１巷","ALLEY":" ","HOUSE_NO":"５０號三樓之１","E_COORD97":177987.91,"N_COORD97":2548642.2599999998,"ADDRESS":"大新路１１１巷５０號三樓之１","OBJECTID":321059},"geometry":{"x":177987.91000000015,"y":2548642.2599999998}},{"attributes":{"ID":321069,"DIS_CODE":0,"TOWNNAME":"新化區","LI":"協興里","LIN":"15鄰","STREET":"大新路","SECT":" ","MAREA":" ","LANE":"１１１巷","ALLEY":" ","HOUSE_NO":"５０號七樓之２","E_COORD97":177987.92999999999,"N_COORD97":2548642.2599999998,"ADDRESS":"大新路１１１巷５０號七樓之２","OBJECTID":321060},"geometry":{"x":177987.93000000156,"y":2548642.2599999998}},{"attributes":{"ID":321070,"DIS_CODE":0,"TOWNNAME":"新化區","LI":"協興里","LIN":"15鄰","STREET":"大新路","SECT":" ","MAREA":" ","LANE":"１１１巷","ALLEY":" ","HOUSE_NO":"４８號四樓之３","E_COORD97":177987.92999999999,"N_COORD97":2548642.2599999998,"ADDRESS":"大新路１１１巷４８號四樓之３","OBJECTID":321061},"geometry":{"x":177987.93000000156,"y":2548642.2599999998}},{"attributes":{"ID":321071,"DIS_CODE":0,"TOWNNAME":"中西區","LI":"仙草里","LIN":"15鄰","STREET":"五妃街","SECT":" ","MAREA":" ","LANE":"３０９巷","ALLEY":" ","HOUSE_NO":"１２號二樓","E_COORD97":167878.17000000001,"N_COORD97":2542527.27,"ADDRESS":"五妃街３０９巷１２號二樓","OBJECTID":321062},"geometry":{"x":167878.17000000179,"y":2542527.2700000014}},{"attributes":{"ID":321072,"DIS_CODE":0,"TOWNNAME":"安平區","LI":"育平里","LIN":"17鄰","STREET":"育平路","SECT":" ","MAREA":" ","LANE":" ","ALLEY":" ","HOUSE_NO":"２１２號十三樓之３７","E_COORD97":164690.60999999999,"N_COORD97":2543415.9199999999,"ADDRESS":"育平路２１２號十三樓之３７","OBJECTID":321063},"geometry":{"x":164690.61000000127,"y":2543415.9200000018}},{"attributes":{"ID":321073,"DIS_CODE":0,"TOWNNAME":"安平區","LI":"育平里","LIN":"17鄰","STREET":"育平路","SECT":" ","MAREA":" ","LANE":" ","ALLEY":" ","HOUSE_NO":"２１２號十五樓之２３","E_COORD97":164690.60999999999,"N_COORD97":2543415.9199999999,"ADDRESS":"育平路２１２號十五樓之２３","OBJECTID":321064},"geometry":{"x":164690.61000000127,"y":2543415.9200000018}},{"attributes":{"ID":321074,"DIS_CODE":0,"TOWNNAME":"安平區","LI":"育平里","LIN":"17鄰","STREET":"育平路","SECT":" ","MAREA":" ","LANE":" ","ALLEY":" ","HOUSE_NO":"２１２號十五樓之２５","E_COORD97":164690.60999999999,"N_COORD97":2543415.9199999999,"ADDRESS":"育平路２１２號十五樓之２５","OBJECTID":321065},"geometry":{"x":164690.61000000127,"y":2543415.9200000018}},{"attributes":{"ID":321075,"DIS_CODE":0,"TOWNNAME":"安平區","LI":"育平里","LIN":"17鄰","STREET":"育平路","SECT":" ","MAREA":" ","LANE":" ","ALLEY":" ","HOUSE_NO":"２１２號十五樓之２７","E_COORD97":164690.60999999999,"N_COORD97":2543415.9199999999,"ADDRESS":"育平路２１２號十五樓之２７","OBJECTID":321066},"geometry":{"x":164690.61000000127,"y":2543415.9200000018}},{"attributes":{"ID":321076,"DIS_CODE":0,"TOWNNAME":"安平區","LI":"育平里","LIN":"17鄰","STREET":"育平路","SECT":" ","MAREA":" ","LANE":" ","ALLEY":" ","HOUSE_NO":"２１２號十五樓之２９","E_COORD97":164690.60999999999,"N_COORD97":2543415.9199999999,"ADDRESS":"育平路２１２號十五樓之２９","OBJECTID":321067},"geometry":{"x":164690.61000000127,"y":2543415.9200000018}},{"attributes":{"ID":321077,"DIS_CODE":0,"TOWNNAME":"歸仁區","LI":"媽廟里","LIN":"27鄰","STREET":"保大路","SECT":"一段","MAREA":" ","LANE":"１５２巷","ALLEY":" ","HOUSE_NO":"１６０號","E_COORD97":177533.92999999999,"N_COORD97":2545674.25,"ADDRESS":"保大路一段１５２巷１６０號","OBJECTID":321068},"geometry":{"x":177533.93000000063,"y":2545674.2500000019}},{"attributes":{"ID":321078,"DIS_CODE":0,"TOWNNAME":"歸仁區","LI":"西埔里","LIN":"6鄰","STREET":"保大路","SECT":"二段","MAREA":" ","LANE":"１１８巷","ALLEY":" ","HOUSE_NO":"２９號","E_COORD97":177103.69965,"N_COORD97":2544195.7244000002,"ADDRESS":"保大路二段１１８巷２９號","OBJECTID":321069},"geometry":{"x":177103.69965000078,"y":2544195.7244000006}},{"attributes":{"ID":321079,"DIS_CODE":0,"TOWNNAME":"歸仁區","LI":"西埔里","LIN":"2鄰","STREET":"保大路","SECT":"二段","MAREA":" ","LANE":"１６５巷","ALLEY":" ","HOUSE_NO":"１５號","E_COORD97":176910.88,"N_COORD97":2544092.25,"ADDRESS":"保大路二段１６５巷１５號","OBJECTID":321070},"geometry":{"x":176910.88000000082,"y":2544092.25}},{"attributes":{"ID":321080,"DIS_CODE":0,"TOWNNAME":"歸仁區","LI":"媽廟里","LIN":"23鄰","STREET":"保大路","SECT":"一段","MAREA":" ","LANE":"１５１巷","ALLEY":" ","HOUSE_NO":"１４號","E_COORD97":177702.03,"N_COORD97":2543958.7200000002,"ADDRESS":"保大路一段１５１巷１４號","OBJECTID":321071},"geometry":{"x":177702.03000000119,"y":2543958.7200000007}},{"attributes":{"ID":321081,"DIS_CODE":0,"TOWNNAME":"歸仁區","LI":"媽廟里","LIN":"10鄰","STREET":"保大路","SECT":"一段","MAREA":" ","LANE":" ","ALLEY":" ","HOUSE_NO":"１７１號","E_COORD97":177604.42999999999,"N_COORD97":2544017.7200000002,"ADDRESS":"保大路一段１７１號","OBJECTID":321072},"geometry":{"x":177604.4299999997,"y":2544017.7200000025}},{"attributes":{"ID":321082,"DIS_CODE":0,"TOWNNAME":"歸仁區","LI":"媽廟里","LIN":"3鄰","STREET":"和順路","SECT":"一段","MAREA":" ","LANE":" ","ALLEY":" ","HOUSE_NO":"７１號","E_COORD97":177259.57000000001,"N_COORD97":2543685.7200000002,"ADDRESS":"和順路一段７１號","OBJECTID":321073},"geometry":{"x":177259.5700000003,"y":2543685.7200000025}},{"attributes":{"ID":321083,"DIS_CODE":0,"TOWNNAME":"歸仁區","LI":"媽廟里","LIN":"3鄰","STREET":"和順路","SECT":"一段","MAREA":" ","LANE":" ","ALLEY":" ","HOUSE_NO":"７３號","E_COORD97":177255.47,"N_COORD97":2543685.7200000002,"ADDRESS":"和順路一段７３號","OBJECTID":321074},"geometry":{"x":177255.4700000016,"y":2543685.7200000025}},{"attributes":{"ID":321084,"DIS_CODE":0,"TOWNNAME":"歸仁區","LI":"媽廟里","LIN":" ","STREET":"媽廟二街","SECT":" ","MAREA":" ","LANE":"１５巷","ALLEY":" ","HOUSE_NO":"１１號","E_COORD97":177644.38,"N_COORD97":2543749.7200000002,"ADDRESS":"媽廟二街１５巷１１號","OBJECTID":321075},"geometry":{"x":177644.38000000175,"y":2543749.7200000025}},{"attributes":{"ID":321085,"DIS_CODE":0,"TOWNNAME":"歸仁區","LI":"媽廟里","LIN":" ","STREET":"保大路","SECT":"一段","MAREA":" ","LANE":"１９２巷","ALLEY":" ","HOUSE_NO":"３號","E_COORD97":177575.42999999999,"N_COORD97":2544077.7200000002,"ADDRESS":"保大路一段１９２巷３號","OBJECTID":321076},"geometry":{"x":177575.4299999997,"y":2544077.7200000044}},{"attributes":{"ID":321086,"DIS_CODE":0,"TOWNNAME":"歸仁區","LI":"媽廟里","LIN":"9鄰","STREET":"和順路","SECT":"一段","MAREA":" ","LANE":"３０２巷","ALLEY":" ","HOUSE_NO":"１１號","E_COORD97":176724.47,"N_COORD97":2543711.25,"ADDRESS":"和順路一段３００巷１１號","OBJECTID":321077},"geometry":{"x":176724.46999999974,"y":2543711.2500000019}},{"attributes":{"ID":321087,"DIS_CODE":0,"TOWNNAME":"歸仁區","LI":"大廟里","LIN":" ","STREET":"保大路","SECT":"三段","MAREA":" ","LANE":" ","ALLEY":" ","HOUSE_NO":"２５３之７號","E_COORD97":175759.23000000001,"N_COORD97":2544289.2599999998,"ADDRESS":"保大路三段２５３之７號","OBJECTID":321078},"geometry":{"x":175759.23000000231,"y":2544289.2599999998}},{"attributes":{"ID":321088,"DIS_CODE":0,"TOWNNAME":"歸仁區","LI":"大廟里","LIN":" ","STREET":"保大路","SECT":"三段","MAREA":" ","LANE":" ","ALLEY":" ","HOUSE_NO":"２５３之３號","E_COORD97":175784.73000000001,"N_COORD97":2544259.2599999998,"ADDRESS":"保大路三段２５３之３號","OBJECTID":321079},"geometry":{"x":175784.73000000231,"y":2544259.2599999998}},{"attributes":{"ID":321089,"DIS_CODE":0,"TOWNNAME":"歸仁區","LI":"大廟里","LIN":" ","STREET":"大廟二街","SECT":" ","MAREA":" ","LANE":" ","ALLEY":" ","HOUSE_NO":"１號","E_COORD97":176008.88,"N_COORD97":2543815.25,"ADDRESS":"大廟二街１號","OBJECTID":321080},"geometry":{"x":176008.88000000082,"y":2543815.25}},{"attributes":{"ID":321090,"DIS_CODE":0,"TOWNNAME":"歸仁區","LI":"大廟里","LIN":" ","STREET":"和順路","SECT":"二段","MAREA":" ","LANE":" ","ALLEY":" ","HOUSE_NO":"２６５之１號","E_COORD97":175795.72,"N_COORD97":2543578.2599999998,"ADDRESS":"和順路二段２６５之１號","OBJECTID":321081},"geometry":{"x":175795.71999999881,"y":2543578.2600000035}},{"attributes":{"ID":321091,"DIS_CODE":0,"TOWNNAME":"歸仁區","LI":"大廟里","LIN":" ","STREET":"和順路","SECT":"二段","MAREA":" ","LANE":" ","ALLEY":" ","HOUSE_NO":"３１０號","E_COORD97":175643.51999999999,"N_COORD97":2543596.25,"ADDRESS":"和順路二段３１０號","OBJECTID":321082},"geometry":{"x":175643.52000000048,"y":2543596.2500000019}},{"attributes":{"ID":321092,"DIS_CODE":0,"TOWNNAME":"歸仁區","LI":"大潭里","LIN":"19鄰","STREET":"中正南路","SECT":"三段","MAREA":" ","LANE":" ","ALLEY":" ","HOUSE_NO":"３２號之１","E_COORD97":175296.01000000001,"N_COORD97":2535125.25,"ADDRESS":"中正南路三段３２號","OBJECTID":321083},"geometry":{"x":175296.01000000071,"y":2535125.25}},{"attributes":{"ID":321093,"DIS_CODE":0,"TOWNNAME":"歸仁區","LI":"七甲里","LIN":" ","STREET":"南丁路","SECT":" ","MAREA":" ","LANE":" ","ALLEY":" ","HOUSE_NO":"５５２號","E_COORD97":176041.51000000001,"N_COORD97":2543099.25,"ADDRESS":"南丁路５５２號","OBJECTID":321084},"geometry":{"x":176041.51000000164,"y":2543099.25}},{"attributes":{"ID":321094,"DIS_CODE":0,"TOWNNAME":"歸仁區","LI":"西埔里","LIN":" ","STREET":"西埔一街","SECT":" ","MAREA":" ","LANE":" ","ALLEY":" ","HOUSE_NO":"３號","E_COORD97":177238.48999999999,"N_COORD97":2544759.9500000002,"ADDRESS":"西埔一街３號","OBJECTID":321085},"geometry":{"x":177238.49000000022,"y":2544759.9500000011}},{"attributes":{"ID":321095,"DIS_CODE":0,"TOWNNAME":"仁德區","LI":"仁德里","LIN":"15鄰","STREET":"仁德一街","SECT":" ","MAREA":" ","LANE":" ","ALLEY":" ","HOUSE_NO":"３９號","E_COORD97":173188.38,"N_COORD97":2541269.52,"ADDRESS":"仁德一街３９號","OBJECTID":321086},"geometry":{"x":173188.38000000082,"y":2541269.5199999996}},{"attributes":{"ID":321096,"DIS_CODE":0,"TOWNNAME":"仁德區","LI":"仁義里","LIN":"38鄰","STREET":"中正路","SECT":"二段","MAREA":" ","LANE":" ","ALLEY":" ","HOUSE_NO":"８３２號","E_COORD97":173468.17999999999,"N_COORD97":2540423.0299999998,"ADDRESS":"中正路二段８３２號","OBJECTID":321087},"geometry":{"x":173468.1799999997,"y":2540423.0300000012}},{"attributes":{"ID":321097,"DIS_CODE":0,"TOWNNAME":"仁德區","LI":"仁德里","LIN":"39鄰","STREET":"文宏二街","SECT":" ","MAREA":" ","LANE":" ","ALLEY":" ","HOUSE_NO":"６０號","E_COORD97":172466.76000000001,"N_COORD97":2541737.8199999998,"ADDRESS":"文宏二街６０號","OBJECTID":321088},"geometry":{"x":172466.76000000071,"y":2541737.8200000022}},{"attributes":{"ID":321098,"DIS_CODE":0,"TOWNNAME":"仁德區","LI":"仁德里","LIN":"32鄰","STREET":"中山路","SECT":" ","MAREA":" ","LANE":" ","ALLEY":" ","HOUSE_NO":"６２０號","E_COORD97":173195.03,"N_COORD97":2541370.25,"ADDRESS":"中山路６２０號","OBJECTID":321089},"geometry":{"x":173195.03000000026,"y":2541370.25}},{"attributes":{"ID":321099,"DIS_CODE":0,"TOWNNAME":"新市區","LI":"大洲里","LIN":"3鄰","STREET":" ","SECT":" ","MAREA":"大洲","LANE":" ","ALLEY":" ","HOUSE_NO":"２３之１號","E_COORD97":174411.87505599999,"N_COORD97":2552412.1931599998,"ADDRESS":"大洲２３之１號","OBJECTID":321090},"geometry":{"x":174411.87505600043,"y":2552412.1931640003}},{"attributes":{"ID":321100,"DIS_CODE":0,"TOWNNAME":"南化區","LI":"北寮里","LIN":" ","STREET":" ","SECT":" ","MAREA":"北寮","LANE":" ","ALLEY":" ","HOUSE_NO":"６１之８號","E_COORD97":197991.69,"N_COORD97":2553757.7999999998,"ADDRESS":"北寮６１之８號","OBJECTID":321091},"geometry":{"x":197991.69000000041,"y":2553757.8000000026}},{"attributes":{"ID":321101,"DIS_CODE":0,"TOWNNAME":"歸仁區","LI":"武東里","LIN":" ","STREET":" ","SECT":" ","MAREA":"明德新村","LANE":" ","ALLEY":" ","HOUSE_NO":"２５號","E_COORD97":174911.89000000001,"N_COORD97":2536211.27,"ADDRESS":"明德新村２５號","OBJECTID":321092},"geometry":{"x":174911.8900000006,"y":2536211.2700000014}},{"attributes":{"ID":321102,"DIS_CODE":0,"TOWNNAME":"歸仁區","LI":"媽廟里","LIN":"23鄰","STREET":"保大路","SECT":"一段","MAREA":" ","LANE":"１５１巷","ALLEY":" ","HOUSE_NO":"１６號","E_COORD97":177710.23000000001,"N_COORD97":2543951.7200000002,"ADDRESS":"保大路一段１５１巷１６號","OBJECTID":321093},"geometry":{"x":177710.22999999952,"y":2543951.7200000007}},{"attributes":{"ID":321103,"DIS_CODE":0,"TOWNNAME":"歸仁區","LI":"媽廟里","LIN":"8鄰","STREET":"和順路","SECT":"一段","MAREA":" ","LANE":" ","ALLEY":" ","HOUSE_NO":"５８號","E_COORD97":177368.72,"N_COORD97":2543717.7200000002,"ADDRESS":"和順路一段５８號","OBJECTID":321094},"geometry":{"x":177368.71999999974,"y":2543717.7200000007}},{"attributes":{"ID":321104,"DIS_CODE":0,"TOWNNAME":"安南區","LI":"海東里","LIN":"21鄰","STREET":"海東二街","SECT":" ","MAREA":" ","LANE":" ","ALLEY":" ","HOUSE_NO":"３１號","E_COORD97":166929.116374,"N_COORD97":2547897.72774,"ADDRESS":"海東二街３１號","OBJECTID":321095},"geometry":{"x":166929.11637400091,"y":2547897.7277450003}},{"attributes":{"ID":321105,"DIS_CODE":0,"TOWNNAME":"關廟區","LI":"田中里","LIN":"4鄰","STREET":"中大街","SECT":" ","MAREA":" ","LANE":" ","ALLEY":" ","HOUSE_NO":"１０３號","E_COORD97":184218.84,"N_COORD97":2533646.2999999998,"ADDRESS":"中大街１０３號","OBJECTID":321096},"geometry":{"x":184218.84000000078,"y":2533646.3000000026}},{"attributes":{"ID":321106,"DIS_CODE":0,"TOWNNAME":"關廟區","LI":"布袋里","LIN":"5鄰","STREET":"長文街","SECT":" ","MAREA":" ","LANE":" ","ALLEY":" ","HOUSE_NO":"６７號","E_COORD97":182984.19,"N_COORD97":2535461.2999999998,"ADDRESS":"長文街６７號","OBJECTID":321097},"geometry":{"x":182984.19000000041,"y":2535461.3000000007}},{"attributes":{"ID":321107,"DIS_CODE":0,"TOWNNAME":"關廟區","LI":"田中里","LIN":"  1","STREET":"田大路","SECT":" ","MAREA":" ","LANE":" ","ALLEY":" ","HOUSE_NO":"１號","E_COORD97":184029.98999999999,"N_COORD97":2533994.25,"ADDRESS":"田大路１號","OBJECTID":321098},"geometry":{"x":184029.99000000115,"y":2533994.2500000019}},{"attributes":{"ID":321108,"DIS_CODE":0,"TOWNNAME":"關廟區","LI":"田中里","LIN":"4鄰","STREET":"中大街","SECT":" ","MAREA":" ","LANE":" ","ALLEY":" ","HOUSE_NO":"３９號","E_COORD97":183942.23999999999,"N_COORD97":2533784.25,"ADDRESS":"中大街３９號","OBJECTID":321099},"geometry":{"x":183942.24000000115,"y":2533784.2500000019}},{"attributes":{"ID":321109,"DIS_CODE":0,"TOWNNAME":"歸仁區","LI":"西埔里","LIN":"2鄰","STREET":"保大路","SECT":"二段","MAREA":" ","LANE":" ","ALLEY":" ","HOUSE_NO":"１６９號","E_COORD97":176865.47930800001,"N_COORD97":2544121.8527799998,"ADDRESS":"保大路二段１６９號","OBJECTID":321100},"geometry":{"x":176865.47930799983,"y":2544121.8527790029}},{"attributes":{"ID":321110,"DIS_CODE":0,"TOWNNAME":"關廟區","LI":"田中里","LIN":"4鄰","STREET":"田大路","SECT":" ","MAREA":" ","LANE":" ","ALLEY":" ","HOUSE_NO":"３０號","E_COORD97":184108.69,"N_COORD97":2533882.2999999998,"ADDRESS":"田大路３０號","OBJECTID":321101},"geometry":{"x":184108.69000000134,"y":2533882.3000000045}},{"attributes":{"ID":321111,"DIS_CODE":0,"TOWNNAME":"關廟區","LI":"新光里","LIN":"4鄰","STREET":"新湖街","SECT":" ","MAREA":" ","LANE":" ","ALLEY":" ","HOUSE_NO":"８０號","E_COORD97":183584.47,"N_COORD97":2541618.2999999998,"ADDRESS":"新湖街８０號","OBJECTID":321102},"geometry":{"x":183584.46999999974,"y":2541618.3000000007}},{"attributes":{"ID":321112,"DIS_CODE":0,"TOWNNAME":"關廟區","LI":"埤頭里","LIN":"13鄰","STREET":"關新路","SECT":"二段","MAREA":" ","LANE":" ","ALLEY":" ","HOUSE_NO":"５６６號","E_COORD97":179183.72,"N_COORD97":2545366.2999999998,"ADDRESS":"關新路二段５６６號","OBJECTID":321103},"geometry":{"x":179183.71999999974,"y":2545366.3000000026}},{"attributes":{"ID":321113,"DIS_CODE":0,"TOWNNAME":"關廟區","LI":"布袋里","LIN":"5鄰","STREET":"南雄南路","SECT":" ","MAREA":" ","LANE":" ","ALLEY":" ","HOUSE_NO":"１８８號","E_COORD97":183119.98999999999,"N_COORD97":2535479.2999999998,"ADDRESS":"南雄南路１８８號","OBJECTID":321104},"geometry":{"x":183119.99000000115,"y":2535479.3000000045}},{"attributes":{"ID":321114,"DIS_CODE":0,"TOWNNAME":"中西區","LI":"仙草里","LIN":"15鄰","STREET":"五妃街","SECT":" ","MAREA":" ","LANE":"３０９巷","ALLEY":" ","HOUSE_NO":"１２號三樓","E_COORD97":167878.17000000001,"N_COORD97":2542527.27,"ADDRESS":"五妃街３０９巷１２號三樓","OBJECTID":321105},"geometry":{"x":167878.17000000179,"y":2542527.2700000014}},{"attributes":{"ID":321115,"DIS_CODE":0,"TOWNNAME":"中西區","LI":"仙草里","LIN":"15鄰","STREET":"五妃街","SECT":" ","MAREA":" ","LANE":"３０９巷","ALLEY":" ","HOUSE_NO":"１２號五樓","E_COORD97":167878.17000000001,"N_COORD97":2542527.27,"ADDRESS":"五妃街３０９巷１２號五樓","OBJECTID":321106},"geometry":{"x":167878.17000000179,"y":2542527.2700000014}},{"attributes":{"ID":321116,"DIS_CODE":0,"TOWNNAME":"中西區","LI":"仙草里","LIN":"15鄰","STREET":"五妃街","SECT":" ","MAREA":" ","LANE":"３０９巷","ALLEY":" ","HOUSE_NO":"１２號四樓","E_COORD97":167878.17000000001,"N_COORD97":2542527.27,"ADDRESS":"五妃街３０９巷１２號四樓","OBJECTID":321107},"geometry":{"x":167878.17000000179,"y":2542527.2700000014}},{"attributes":{"ID":321117,"DIS_CODE":0,"TOWNNAME":"安平區","LI":"育平里","LIN":"17鄰","STREET":"育平路","SECT":" ","MAREA":" ","LANE":" ","ALLEY":" ","HOUSE_NO":"２１２號十五樓之３１","E_COORD97":164690.60999999999,"N_COORD97":2543415.9199999999,"ADDRESS":"育平路２１２號十五樓之３１","OBJECTID":321108},"geometry":{"x":164690.61000000127,"y":2543415.9200000018}},{"attributes":{"ID":321118,"DIS_CODE":0,"TOWNNAME":"安平區","LI":"育平里","LIN":"17鄰","STREET":"育平路","SECT":" ","MAREA":" ","LANE":" ","ALLEY":" ","HOUSE_NO":"２１２號十五樓之３３","E_COORD97":164690.60999999999,"N_COORD97":2543415.9199999999,"ADDRESS":"育平路２１２號十五樓之３３","OBJECTID":321109},"geometry":{"x":164690.61000000127,"y":2543415.9200000018}},{"attributes":{"ID":321119,"DIS_CODE":0,"TOWNNAME":"安平區","LI":"育平里","LIN":"17鄰","STREET":"育平路","SECT":" ","MAREA":" ","LANE":" ","ALLEY":" ","HOUSE_NO":"２１２號十五樓之３５","E_COORD97":164690.60999999999,"N_COORD97":2543415.9199999999,"ADDRESS":"育平路２１２號十五樓之３５","OBJECTID":321110},"geometry":{"x":164690.61000000127,"y":2543415.9200000018}},{"attributes":{"ID":321120,"DIS_CODE":0,"TOWNNAME":"安平區","LI":"育平里","LIN":"17鄰","STREET":"育平路","SECT":" ","MAREA":" ","LANE":" ","ALLEY":" ","HOUSE_NO":"２１２號十五樓之３７","E_COORD97":164690.60999999999,"N_COORD97":2543415.9199999999,"ADDRESS":"育平路２１２號十五樓之３７","OBJECTID":321111},"geometry":{"x":164690.61000000127,"y":2543415.9200000018}},{"attributes":{"ID":321121,"DIS_CODE":0,"TOWNNAME":"安平區","LI":"育平里","LIN":"17鄰","STREET":"育平路","SECT":" ","MAREA":" ","LANE":" ","ALLEY":" ","HOUSE_NO":"２１２號十六樓之２３","E_COORD97":164690.60999999999,"N_COORD97":2543415.9199999999,"ADDRESS":"育平路２１２號十六樓之２３","OBJECTID":321112},"geometry":{"x":164690.61000000127,"y":2543415.9200000018}},{"attributes":{"ID":321122,"DIS_CODE":0,"TOWNNAME":"安平區","LI":"育平里","LIN":"17鄰","STREET":"育平路","SECT":" ","MAREA":" ","LANE":" ","ALLEY":" ","HOUSE_NO":"２１２號十六樓之２５","E_COORD97":164690.60999999999,"N_COORD97":2543415.9199999999,"ADDRESS":"育平路２１２號十六樓之２５","OBJECTID":321113},"geometry":{"x":164690.61000000127,"y":2543415.9200000018}},{"attributes":{"ID":321123,"DIS_CODE":0,"TOWNNAME":"安平區","LI":"育平里","LIN":"17鄰","STREET":"育平路","SECT":" ","MAREA":" ","LANE":" ","ALLEY":" ","HOUSE_NO":"２１２號十六樓之２７","E_COORD97":164690.60999999999,"N_COORD97":2543415.9199999999,"ADDRESS":"育平路２１２號十六樓之２７","OBJECTID":321114},"geometry":{"x":164690.61000000127,"y":2543415.9200000018}},{"attributes":{"ID":321124,"DIS_CODE":0,"TOWNNAME":"安平區","LI":"育平里","LIN":"17鄰","STREET":"育平路","SECT":" ","MAREA":" ","LANE":" ","ALLEY":" ","HOUSE_NO":"２１２號十六樓之２９","E_COORD97":164690.60999999999,"N_COORD97":2543415.9199999999,"ADDRESS":"育平路２１２號十六樓之２９","OBJECTID":321115},"geometry":{"x":164690.61000000127,"y":2543415.9200000018}},{"attributes":{"ID":321125,"DIS_CODE":0,"TOWNNAME":"新市區","LI":"永就里","LIN":"8鄰","STREET":"中華路","SECT":" ","MAREA":" ","LANE":" ","ALLEY":" ","HOUSE_NO":"５０之１號","E_COORD97":177560.46227799999,"N_COORD97":2551699.5499499999,"ADDRESS":"中華路５０之１號","OBJECTID":321116},"geometry":{"x":177560.46227800194,"y":2551699.5499459971}},{"attributes":{"ID":321126,"DIS_CODE":0,"TOWNNAME":"東區","LI":"大同里","LIN":"1鄰","STREET":"東門路","SECT":"一段","MAREA":" ","LANE":" ","ALLEY":" ","HOUSE_NO":"２２號","E_COORD97":169242.81,"N_COORD97":2543223.1200000001,"ADDRESS":"東門路一段２２號","OBJECTID":321117},"geometry":{"x":169242.80999999959,"y":2543223.120000001}},{"attributes":{"ID":321127,"DIS_CODE":0,"TOWNNAME":"關廟區","LI":"新光里","LIN":"14鄰","STREET":"新光街","SECT":" ","MAREA":" ","LANE":" ","ALLEY":" ","HOUSE_NO":"１８２號","E_COORD97":184262.26999999999,"N_COORD97":2541616.2999999998,"ADDRESS":"新光街１８２號","OBJECTID":321118},"geometry":{"x":184262.26999999955,"y":2541616.3000000026}},{"attributes":{"ID":321128,"DIS_CODE":0,"TOWNNAME":"中西區","LI":"仙草里","LIN":"15鄰","STREET":"五妃街","SECT":" ","MAREA":" ","LANE":"３０９巷","ALLEY":" ","HOUSE_NO":"１號二樓","E_COORD97":167909.78,"N_COORD97":2542552.4500000002,"ADDRESS":"五妃街３０９巷１號二樓","OBJECTID":321119},"geometry":{"x":167909.78000000026,"y":2542552.450000003}},{"attributes":{"ID":321129,"DIS_CODE":0,"TOWNNAME":"中西區","LI":"仙草里","LIN":"15鄰","STREET":"五妃街","SECT":" ","MAREA":" ","LANE":"３０９巷","ALLEY":" ","HOUSE_NO":"１號三樓","E_COORD97":167909.78,"N_COORD97":2542552.4500000002,"ADDRESS":"五妃街３０９巷１號三樓","OBJECTID":321120},"geometry":{"x":167909.78000000026,"y":2542552.450000003}},{"attributes":{"ID":321130,"DIS_CODE":0,"TOWNNAME":"中西區","LI":"仙草里","LIN":"15鄰","STREET":"五妃街","SECT":" ","MAREA":" ","LANE":"３０９巷","ALLEY":" ","HOUSE_NO":"１號五樓之１","E_COORD97":167909.78,"N_COORD97":2542552.4500000002,"ADDRESS":"五妃街３０９巷１號五樓之１","OBJECTID":321121},"geometry":{"x":167909.78000000026,"y":2542552.450000003}},{"attributes":{"ID":321131,"DIS_CODE":0,"TOWNNAME":"中西區","LI":"仙草里","LIN":"15鄰","STREET":"五妃街","SECT":" ","MAREA":" ","LANE":"３０９巷","ALLEY":" ","HOUSE_NO":"１號五樓之２","E_COORD97":167909.78,"N_COORD97":2542552.4500000002,"ADDRESS":"五妃街３０９巷１號五樓之２","OBJECTID":321122},"geometry":{"x":167909.78000000026,"y":2542552.450000003}},{"attributes":{"ID":321132,"DIS_CODE":0,"TOWNNAME":"中西區","LI":"仙草里","LIN":"15鄰","STREET":"五妃街","SECT":" ","MAREA":" ","LANE":"３０９巷","ALLEY":" ","HOUSE_NO":"１號四樓之１","E_COORD97":167909.78,"N_COORD97":2542552.4500000002,"ADDRESS":"五妃街３０９巷１號四樓之１","OBJECTID":321123},"geometry":{"x":167909.78000000026,"y":2542552.450000003}},{"attributes":{"ID":321133,"DIS_CODE":0,"TOWNNAME":"中西區","LI":"仙草里","LIN":"15鄰","STREET":"五妃街","SECT":" ","MAREA":" ","LANE":"３０９巷","ALLEY":" ","HOUSE_NO":"１號四樓之２","E_COORD97":167909.78,"N_COORD97":2542552.4500000002,"ADDRESS":"五妃街３０９巷１號四樓之２","OBJECTID":321124},"geometry":{"x":167909.78000000026,"y":2542552.450000003}},{"attributes":{"ID":321134,"DIS_CODE":0,"TOWNNAME":"新化區","LI":"協興里","LIN":"15鄰","STREET":"大新路","SECT":" ","MAREA":" ","LANE":"１１１巷","ALLEY":" ","HOUSE_NO":"５２號五樓之３","E_COORD97":177987.92999999999,"N_COORD97":2548642.2599999998,"ADDRESS":"大新路１１１巷５２號五樓之３","OBJECTID":321125},"geometry":{"x":177987.93000000156,"y":2548642.2599999998}},{"attributes":{"ID":321135,"DIS_CODE":0,"TOWNNAME":"新化區","LI":"協興里","LIN":"15鄰","STREET":"大新路","SECT":" ","MAREA":" ","LANE":"１１１巷","ALLEY":" ","HOUSE_NO":"５２號四樓之３","E_COORD97":177987.92999999999,"N_COORD97":2548642.2599999998,"ADDRESS":"大新路１１１巷５２號四樓之３","OBJECTID":321126},"geometry":{"x":177987.93000000156,"y":2548642.2599999998}},{"attributes":{"ID":321136,"DIS_CODE":0,"TOWNNAME":"新化區","LI":"協興里","LIN":"15鄰","STREET":"大新路","SECT":" ","MAREA":" ","LANE":"１１１巷","ALLEY":" ","HOUSE_NO":"５２號三樓之１","E_COORD97":177987.91,"N_COORD97":2548642.2599999998,"ADDRESS":"大新路１１１巷５２號三樓之１","OBJECTID":321127},"geometry":{"x":177987.91000000015,"y":2548642.2599999998}},{"attributes":{"ID":321137,"DIS_CODE":0,"TOWNNAME":"關廟區","LI":"新光里","LIN":"4鄰","STREET":"新光街","SECT":" ","MAREA":" ","LANE":" ","ALLEY":" ","HOUSE_NO":"１１７號","E_COORD97":183766.62,"N_COORD97":2541377.2999999998,"ADDRESS":"新光街１１７號","OBJECTID":321128},"geometry":{"x":183766.62000000104,"y":2541377.3000000007}},{"attributes":{"ID":321138,"DIS_CODE":0,"TOWNNAME":"安平區","LI":"育平里","LIN":"38鄰","STREET":"育平一街","SECT":" ","MAREA":" ","LANE":"１４巷","ALLEY":" ","HOUSE_NO":"１０號","E_COORD97":164467.29999999999,"N_COORD97":2543021.8599999999,"ADDRESS":"育平一街１４巷１０號","OBJECTID":321129},"geometry":{"x":164467.29999999981,"y":2543021.8600000013}},{"attributes":{"ID":321139,"DIS_CODE":0,"TOWNNAME":"安平區","LI":"育平里","LIN":"38鄰","STREET":"育平一街","SECT":" ","MAREA":" ","LANE":"１４巷","ALLEY":" ","HOUSE_NO":"１２號","E_COORD97":164468.31,"N_COORD97":2543025.9900000002,"ADDRESS":"育平一街１４巷１２號","OBJECTID":321130},"geometry":{"x":164468.31000000052,"y":2543025.9900000021}},{"attributes":{"ID":321140,"DIS_CODE":0,"TOWNNAME":"南化區","LI":"玉山里","LIN":" ","STREET":" ","SECT":" ","MAREA":"玉山","LANE":" ","ALLEY":" ","HOUSE_NO":"２０之５號","E_COORD97":200322.07000000001,"N_COORD97":2552066.7999999998,"ADDRESS":"玉山２０之５號","OBJECTID":321131},"geometry":{"x":200322.07000000123,"y":2552066.8000000007}},{"attributes":{"ID":321141,"DIS_CODE":0,"TOWNNAME":"南化區","LI":"西埔里","LIN":" ","STREET":" ","SECT":" ","MAREA":"西埔","LANE":" ","ALLEY":" ","HOUSE_NO":"１３６之１號","E_COORD97":193238.79000000001,"N_COORD97":2549605.7999999998,"ADDRESS":"西埔１３６之１號","OBJECTID":321132},"geometry":{"x":193238.79000000004,"y":2549605.8000000007}},{"attributes":{"ID":321142,"DIS_CODE":0,"TOWNNAME":"南化區","LI":"西埔里","LIN":" ","STREET":" ","SECT":" ","MAREA":"西埔","LANE":" ","ALLEY":" ","HOUSE_NO":"１０１號","E_COORD97":193212.19,"N_COORD97":2549588.75,"ADDRESS":"西埔１０１號","OBJECTID":321133},"geometry":{"x":193212.19000000134,"y":2549588.75}},{"attributes":{"ID":321143,"DIS_CODE":0,"TOWNNAME":"歸仁區","LI":"媽廟里","LIN":"25鄰","STREET":"保大路","SECT":"一段","MAREA":" ","LANE":"１３３巷","ALLEY":" ","HOUSE_NO":"３號","E_COORD97":177781.26999999999,"N_COORD97":2544009.8300000001,"ADDRESS":"保大路一段１３３巷３號","OBJECTID":321134},"geometry":{"x":177781.26999999955,"y":2544009.8300000019}},{"attributes":{"ID":321144,"DIS_CODE":0,"TOWNNAME":"安平區","LI":"育平里","LIN":"38鄰","STREET":"育平一街","SECT":" ","MAREA":" ","LANE":"１４巷","ALLEY":" ","HOUSE_NO":"１４號","E_COORD97":164469.10999999999,"N_COORD97":2543030.3199999998,"ADDRESS":"育平一街１４巷１４號","OBJECTID":321135},"geometry":{"x":164469.11000000034,"y":2543030.3200000022}},{"attributes":{"ID":321145,"DIS_CODE":0,"TOWNNAME":"左鎮區","LI":"中正里","LIN":" ","STREET":" ","SECT":" ","MAREA":"中正","LANE":" ","ALLEY":" ","HOUSE_NO":"７７號","E_COORD97":189764.26000000001,"N_COORD97":2550977.25,"ADDRESS":"中正７７號","OBJECTID":321136},"geometry":{"x":189764.26000000071,"y":2550977.2500000019}},{"attributes":{"ID":321146,"DIS_CODE":0,"TOWNNAME":"左鎮區","LI":"岡林里","LIN":" ","STREET":" ","SECT":" ","MAREA":"岡林","LANE":" ","ALLEY":" ","HOUSE_NO":"４４號","E_COORD97":190220.85999999999,"N_COORD97":2545448.25,"ADDRESS":"岡林４４號","OBJECTID":321137},"geometry":{"x":190220.86000000034,"y":2545448.25}},{"attributes":{"ID":321147,"DIS_CODE":0,"TOWNNAME":"左鎮區","LI":"澄山里","LIN":" ","STREET":" ","SECT":" ","MAREA":"澄山","LANE":" ","ALLEY":" ","HOUSE_NO":"９號","E_COORD97":188187.34,"N_COORD97":2548357.25,"ADDRESS":"澄山９號","OBJECTID":321138},"geometry":{"x":188187.34000000078,"y":2548357.25}},{"attributes":{"ID":321148,"DIS_CODE":0,"TOWNNAME":"中西區","LI":"安海里","LIN":"11鄰","STREET":"中正路","SECT":" ","MAREA":" ","LANE":" ","ALLEY":" ","HOUSE_NO":"４００號","E_COORD97":167238.26233600001,"N_COORD97":2543879.68187,"ADDRESS":"中正路４００號","OBJECTID":321139},"geometry":{"x":167238.2623360008,"y":2543879.6818700023}},{"attributes":{"ID":321149,"DIS_CODE":0,"TOWNNAME":"安平區","LI":"育平里","LIN":"38鄰","STREET":"育平一街","SECT":" ","MAREA":" ","LANE":"１４巷","ALLEY":" ","HOUSE_NO":"１５號","E_COORD97":164453.76999999999,"N_COORD97":2543031.2599999998,"ADDRESS":"育平一街１４巷１５號","OBJECTID":321140},"geometry":{"x":164453.76999999955,"y":2543031.2599999998}},{"attributes":{"ID":321150,"DIS_CODE":0,"TOWNNAME":"安平區","LI":"育平里","LIN":"38鄰","STREET":"育平一街","SECT":" ","MAREA":" ","LANE":"１４巷","ALLEY":" ","HOUSE_NO":"１６號","E_COORD97":164470.22,"N_COORD97":2543034.1400000001,"ADDRESS":"育平一街１４巷１６號","OBJECTID":321141},"geometry":{"x":164470.2200000016,"y":2543034.1400000043}},{"attributes":{"ID":321151,"DIS_CODE":0,"TOWNNAME":"左鎮區","LI":"中正里","LIN":" ","STREET":" ","SECT":" ","MAREA":"中正","LANE":" ","ALLEY":" ","HOUSE_NO":"１１８之１號","E_COORD97":189245.70999999999,"N_COORD97":2550837.2999999998,"ADDRESS":"中正１１８之１號","OBJECTID":321142},"geometry":{"x":189245.71000000183,"y":2550837.3000000007}},{"attributes":{"ID":321152,"DIS_CODE":0,"TOWNNAME":"左鎮區","LI":"中正里","LIN":" ","STREET":" ","SECT":" ","MAREA":"中正","LANE":" ","ALLEY":" ","HOUSE_NO":"９２號","E_COORD97":189350.16,"N_COORD97":2550902.25,"ADDRESS":"中正９２號","OBJECTID":321143},"geometry":{"x":189350.16000000108,"y":2550902.2500000019}},{"attributes":{"ID":321153,"DIS_CODE":0,"TOWNNAME":"左鎮區","LI":"中正里","LIN":" ","STREET":" ","SECT":" ","MAREA":"中正","LANE":" ","ALLEY":" ","HOUSE_NO":"１５之３號","E_COORD97":189154.95999999999,"N_COORD97":2550844.2999999998,"ADDRESS":"中正１５之３號","OBJECTID":321144},"geometry":{"x":189154.96000000089,"y":2550844.2999999989}},{"attributes":{"ID":321154,"DIS_CODE":0,"TOWNNAME":"安平區","LI":"育平里","LIN":"38鄰","STREET":"育平一街","SECT":" ","MAREA":" ","LANE":"１４巷","ALLEY":" ","HOUSE_NO":"１７號","E_COORD97":164455.16,"N_COORD97":2543037.1899999999,"ADDRESS":"育平一街１４巷１７號","OBJECTID":321145},"geometry":{"x":164455.16000000015,"y":2543037.1900000013}},{"attributes":{"ID":321155,"DIS_CODE":0,"TOWNNAME":"左鎮區","LI":"光和里","LIN":" ","STREET":" ","SECT":" ","MAREA":"光和","LANE":" ","ALLEY":" ","HOUSE_NO":"１５號","E_COORD97":186304.94,"N_COORD97":2552112.25,"ADDRESS":"光和１５號","OBJECTID":321146},"geometry":{"x":186304.94000000041,"y":2552112.2500000037}},{"attributes":{"ID":321156,"DIS_CODE":0,"TOWNNAME":"左鎮區","LI":"榮和里","LIN":" ","STREET":" ","SECT":" ","MAREA":"菜寮","LANE":" ","ALLEY":" ","HOUSE_NO":"８３之１號","E_COORD97":187660.84,"N_COORD97":2551325.2999999998,"ADDRESS":"菜寮８３之１號","OBJECTID":321147},"geometry":{"x":187660.83999999985,"y":2551325.3000000007}},{"attributes":{"ID":321157,"DIS_CODE":0,"TOWNNAME":"左鎮區","LI":"內庄里","LIN":" ","STREET":" ","SECT":" ","MAREA":"內庄","LANE":" ","ALLEY":" ","HOUSE_NO":"３２號","E_COORD97":190775.73000000001,"N_COORD97":2548776.25,"ADDRESS":"內庄３２號","OBJECTID":321148},"geometry":{"x":190775.73000000138,"y":2548776.2500000019}},{"attributes":{"ID":321158,"DIS_CODE":0,"TOWNNAME":"東山區","LI":"南溪里","LIN":" ","STREET":" ","SECT":" ","MAREA":"二重溪","LANE":" ","ALLEY":" ","HOUSE_NO":"１０之３號","E_COORD97":189050.04999999999,"N_COORD97":2575321.4500000002,"ADDRESS":"二重溪１０之３號","OBJECTID":321149},"geometry":{"x":189050.05000000168,"y":2575321.4500000011}},{"attributes":{"ID":321159,"DIS_CODE":0,"TOWNNAME":"東山區","LI":"南溪里","LIN":" ","STREET":" ","SECT":" ","MAREA":"二重溪","LANE":" ","ALLEY":" ","HOUSE_NO":"１０號","E_COORD97":189044.97,"N_COORD97":2575477.0600000001,"ADDRESS":"二重溪１０號","OBJECTID":321150},"geometry":{"x":189044.96999999974,"y":2575477.0600000042}},{"attributes":{"ID":321160,"DIS_CODE":0,"TOWNNAME":"永康區","LI":"中華里","LIN":"15鄰","STREET":"忠義街","SECT":" ","MAREA":" ","LANE":"６０巷","ALLEY":" ","HOUSE_NO":"１號七樓之１２","E_COORD97":171786.51000000001,"N_COORD97":2544541.1200000001,"ADDRESS":"忠義街６０巷１號七樓之１２","OBJECTID":321151},"geometry":{"x":171786.51000000164,"y":2544541.1200000029}},{"attributes":{"ID":321161,"DIS_CODE":0,"TOWNNAME":"永康區","LI":"中華里","LIN":"15鄰","STREET":"忠義街","SECT":" ","MAREA":" ","LANE":"６０巷","ALLEY":" ","HOUSE_NO":"１號七樓之６","E_COORD97":171785.23000000001,"N_COORD97":2544541.1200000001,"ADDRESS":"忠義街６０巷１號七樓之６","OBJECTID":321152},"geometry":{"x":171785.23000000045,"y":2544541.1200000029}},{"attributes":{"ID":321162,"DIS_CODE":0,"TOWNNAME":"東山區","LI":"南溪里","LIN":" ","STREET":" ","SECT":" ","MAREA":" ","LANE":"土窯巷","ALLEY":" ","HOUSE_NO":"１０號","E_COORD97":189033.5,"N_COORD97":2574426.6099999999,"ADDRESS":"土窯巷１０號","OBJECTID":321153},"geometry":{"x":189033.49999999907,"y":2574426.6099999994}},{"attributes":{"ID":321163,"DIS_CODE":0,"TOWNNAME":"東山區","LI":"南溪里","LIN":" ","STREET":" ","SECT":" ","MAREA":" ","LANE":"土窯巷","ALLEY":" ","HOUSE_NO":"１２號","E_COORD97":189013.62,"N_COORD97":2574302.0600000001,"ADDRESS":"土窯巷１２號","OBJECTID":321154},"geometry":{"x":189013.62000000011,"y":2574302.0600000024}},{"attributes":{"ID":321164,"DIS_CODE":0,"TOWNNAME":"東山區","LI":"南勢里","LIN":" ","STREET":" ","SECT":" ","MAREA":"大洋","LANE":" ","ALLEY":" ","HOUSE_NO":"６５之１號","E_COORD97":195590.73000000001,"N_COORD97":2572910.46,"ADDRESS":"大洋６５之１號","OBJECTID":321155},"geometry":{"x":195590.73000000045,"y":2572910.4600000009}},{"attributes":{"ID":321165,"DIS_CODE":0,"TOWNNAME":"東山區","LI":"南勢里","LIN":" ","STREET":" ","SECT":" ","MAREA":"大洋","LANE":" ","ALLEY":" ","HOUSE_NO":"７９號","E_COORD97":197624.92999999999,"N_COORD97":2574655.9900000002,"ADDRESS":"大洋７９號","OBJECTID":321156},"geometry":{"x":197624.93000000156,"y":2574655.9900000002}},{"attributes":{"ID":321166,"DIS_CODE":0,"TOWNNAME":"東山區","LI":"南勢里","LIN":" ","STREET":" ","SECT":" ","MAREA":"大洋","LANE":" ","ALLEY":" ","HOUSE_NO":"７之１號","E_COORD97":198076.03,"N_COORD97":2574436.8300000001,"ADDRESS":"大洋７之１號","OBJECTID":321157},"geometry":{"x":198076.03000000119,"y":2574436.8300000001}},{"attributes":{"ID":321167,"DIS_CODE":0,"TOWNNAME":"東山區","LI":"大客里","LIN":" ","STREET":" ","SECT":" ","MAREA":"大庄","LANE":" ","ALLEY":" ","HOUSE_NO":"１０號","E_COORD97":189648.85999999999,"N_COORD97":2578815.3999999999,"ADDRESS":"大庄１０號","OBJECTID":321158},"geometry":{"x":189648.86000000127,"y":2578815.4000000022}},{"attributes":{"ID":321168,"DIS_CODE":0,"TOWNNAME":"東山區","LI":"大客里","LIN":" ","STREET":" ","SECT":" ","MAREA":"凹子\u25A0","LANE":" ","ALLEY":" ","HOUSE_NO":"１４之１號","E_COORD97":191535.32000000001,"N_COORD97":2578519.9199999999,"ADDRESS":"凹子\u25A0１４之１號","OBJECTID":321159},"geometry":{"x":191535.3200000003,"y":2578519.9200000018}},{"attributes":{"ID":321169,"DIS_CODE":0,"TOWNNAME":"新市區","LI":"大洲里","LIN":"3鄰","STREET":" ","SECT":" ","MAREA":"大洲","LANE":" ","ALLEY":" ","HOUSE_NO":"２７之１號","E_COORD97":174369.28302900001,"N_COORD97":2552399.4931700001,"ADDRESS":"大洲２７之１號","OBJECTID":321160},"geometry":{"x":174369.28302900027,"y":2552399.4931710009}},{"attributes":{"ID":321170,"DIS_CODE":0,"TOWNNAME":"東山區","LI":"東山里","LIN":" ","STREET":" ","SECT":" ","MAREA":"東山","LANE":" ","ALLEY":" ","HOUSE_NO":"１０５號","E_COORD97":189034.79000000001,"N_COORD97":2580256.1899999999,"ADDRESS":"東山１０５號","OBJECTID":321161},"geometry":{"x":189034.79000000004,"y":2580256.1900000013}},{"attributes":{"ID":321171,"DIS_CODE":0,"TOWNNAME":"東山區","LI":"東山里","LIN":" ","STREET":" ","SECT":" ","MAREA":"東山","LANE":" ","ALLEY":" ","HOUSE_NO":"１４６號","E_COORD97":188996.88,"N_COORD97":2580384.3799999999,"ADDRESS":"東山１４６號","OBJECTID":321162},"geometry":{"x":188996.87999999989,"y":2580384.379999999}},{"attributes":{"ID":321172,"DIS_CODE":0,"TOWNNAME":"東山區","LI":"東正里","LIN":" ","STREET":" ","SECT":" ","MAREA":"東勢","LANE":" ","ALLEY":" ","HOUSE_NO":"９號","E_COORD97":189297.66,"N_COORD97":2580092.3399999999,"ADDRESS":"東勢９號","OBJECTID":321163},"geometry":{"x":189297.66000000108,"y":2580092.3400000017}},{"attributes":{"ID":321173,"DIS_CODE":0,"TOWNNAME":"安平區","LI":"西門里","LIN":"8鄰","STREET":"安北路","SECT":" ","MAREA":" ","LANE":"１９６巷","ALLEY":" ","HOUSE_NO":"２號","E_COORD97":163715.35000000001,"N_COORD97":2544805.1299999999,"ADDRESS":"安北路１９６巷２號","OBJECTID":321164},"geometry":{"x":163715.35000000056,"y":2544805.129999999}},{"attributes":{"ID":321174,"DIS_CODE":0,"TOWNNAME":"東山區","LI":"林安里","LIN":" ","STREET":" ","SECT":" ","MAREA":"林安","LANE":" ","ALLEY":" ","HOUSE_NO":"６３之２號","E_COORD97":191514.59,"N_COORD97":2575383.7799999998,"ADDRESS":"林安６３之２號","OBJECTID":321165},"geometry":{"x":191514.59000000171,"y":2575383.7800000012}},{"attributes":{"ID":321175,"DIS_CODE":0,"TOWNNAME":"新市區","LI":"大洲里","LIN":"3鄰","STREET":" ","SECT":" ","MAREA":"大洲","LANE":" ","ALLEY":" ","HOUSE_NO":"２７之３號","E_COORD97":174379.242359,"N_COORD97":2552393.7781699998,"ADDRESS":"大洲２７之３號","OBJECTID":321166},"geometry":{"x":174379.24235900119,"y":2552393.7781740036}},{"attributes":{"ID":321176,"DIS_CODE":0,"TOWNNAME":"東山區","LI":"三榮里","LIN":" ","STREET":" ","SECT":" ","MAREA":"許秀才","LANE":" ","ALLEY":" ","HOUSE_NO":"３３號","E_COORD97":187244.88,"N_COORD97":2579192.02,"ADDRESS":"許秀才３３號","OBJECTID":321167},"geometry":{"x":187244.88000000082,"y":2579192.0200000033}},{"attributes":{"ID":321177,"DIS_CODE":0,"TOWNNAME":"東山區","LI":"三榮里","LIN":" ","STREET":" ","SECT":" ","MAREA":"許秀才","LANE":" ","ALLEY":" ","HOUSE_NO":"４之５號","E_COORD97":186964.42000000001,"N_COORD97":2579164.1600000001,"ADDRESS":"許秀才４之５號","OBJECTID":321168},"geometry":{"x":186964.42000000086,"y":2579164.1600000001}},{"attributes":{"ID":321178,"DIS_CODE":0,"TOWNNAME":"東山區","LI":"三榮里","LIN":" ","STREET":" ","SECT":" ","MAREA":"許秀才","LANE":" ","ALLEY":" ","HOUSE_NO":"５之１號","E_COORD97":187070.82000000001,"N_COORD97":2579263.4900000002,"ADDRESS":"許秀才５之１號","OBJECTID":321169},"geometry":{"x":187070.82000000123,"y":2579263.4900000002}},{"attributes":{"ID":321179,"DIS_CODE":0,"TOWNNAME":"東山區","LI":"三榮里","LIN":" ","STREET":" ","SECT":" ","MAREA":"許秀才","LANE":" ","ALLEY":" ","HOUSE_NO":"７號","E_COORD97":187101.89999999999,"N_COORD97":2579260.3100000001,"ADDRESS":"許秀才７號","OBJECTID":321170},"geometry":{"x":187101.90000000037,"y":2579260.3100000024}},{"attributes":{"ID":321180,"DIS_CODE":0,"TOWNNAME":"東山區","LI":"聖賢里","LIN":" ","STREET":" ","SECT":" ","MAREA":"頂窩","LANE":" ","ALLEY":" ","HOUSE_NO":"１２之２號","E_COORD97":183343.66,"N_COORD97":2578578.71,"ADDRESS":"頂窩１２之２號","OBJECTID":321171},"geometry":{"x":183343.66000000201,"y":2578578.7100000046}},{"attributes":{"ID":321181,"DIS_CODE":0,"TOWNNAME":"東山區","LI":"聖賢里","LIN":" ","STREET":" ","SECT":" ","MAREA":"頂窩","LANE":" ","ALLEY":" ","HOUSE_NO":"４６之１號","E_COORD97":183108.20999999999,"N_COORD97":2578619.23,"ADDRESS":"頂窩４６之１號","OBJECTID":321172},"geometry":{"x":183108.21000000089,"y":2578619.2300000023}},{"attributes":{"ID":321182,"DIS_CODE":0,"TOWNNAME":"東山區","LI":"聖賢里","LIN":" ","STREET":" ","SECT":" ","MAREA":"頂窩","LANE":" ","ALLEY":" ","HOUSE_NO":"４６之３號","E_COORD97":183100.70999999999,"N_COORD97":2578617.5299999998,"ADDRESS":"頂窩４６之３號","OBJECTID":321173},"geometry":{"x":183100.71000000183,"y":2578617.5299999993}},{"attributes":{"ID":321183,"DIS_CODE":0,"TOWNNAME":"東山區","LI":"聖賢里","LIN":" ","STREET":" ","SECT":" ","MAREA":"頂窩","LANE":" ","ALLEY":" ","HOUSE_NO":"５５號","E_COORD97":183189.67000000001,"N_COORD97":2578682.5099999998,"ADDRESS":"頂窩５５號","OBJECTID":321174},"geometry":{"x":183189.67000000086,"y":2578682.5099999998}},{"attributes":{"ID":321184,"DIS_CODE":0,"TOWNNAME":"安平區","LI":"西門里","LIN":"8鄰","STREET":"安北路","SECT":" ","MAREA":" ","LANE":"１９６巷","ALLEY":" ","HOUSE_NO":"３號","E_COORD97":163727.07000000001,"N_COORD97":2544813.8799999999,"ADDRESS":"安北路１９６巷３號","OBJECTID":321175},"geometry":{"x":163727.0700000003,"y":2544813.8800000027}},{"attributes":{"ID":321185,"DIS_CODE":0,"TOWNNAME":"安平區","LI":"西門里","LIN":"8鄰","STREET":"安北路","SECT":" ","MAREA":" ","LANE":"１９６巷","ALLEY":" ","HOUSE_NO":"４號","E_COORD97":163723.07999999999,"N_COORD97":2544820.3900000001,"ADDRESS":"安北路１９６巷４號","OBJECTID":321176},"geometry":{"x":163723.08000000101,"y":2544820.3900000025}},{"attributes":{"ID":321186,"DIS_CODE":0,"TOWNNAME":"東山區","LI":"聖賢里","LIN":"20鄰","STREET":" ","SECT":" ","MAREA":"頂窩","LANE":" ","ALLEY":" ","HOUSE_NO":"６１號之２","E_COORD97":183347.32999999999,"N_COORD97":2578605.1600000001,"ADDRESS":"頂窩６１之３號","OBJECTID":321177},"geometry":{"x":183347.33000000007,"y":2578605.1600000039}},{"attributes":{"ID":321187,"DIS_CODE":0,"TOWNNAME":"東山區","LI":"聖賢里","LIN":" ","STREET":" ","SECT":" ","MAREA":"頂窩","LANE":" ","ALLEY":" ","HOUSE_NO":"６之８號","E_COORD97":183387.32000000001,"N_COORD97":2578454.7999999998,"ADDRESS":"頂窩６之８號","OBJECTID":321178},"geometry":{"x":183387.32000000123,"y":2578454.8000000007}},{"attributes":{"ID":321188,"DIS_CODE":0,"TOWNNAME":"永康區","LI":"中華里","LIN":"15鄰","STREET":"忠義街","SECT":" ","MAREA":" ","LANE":"６０巷","ALLEY":" ","HOUSE_NO":"１號七樓之２","E_COORD97":171785.26000000001,"N_COORD97":2544541.1200000001,"ADDRESS":"忠義街６０巷１號七樓之２","OBJECTID":321179},"geometry":{"x":171785.26000000071,"y":2544541.1200000029}},{"attributes":{"ID":321189,"DIS_CODE":0,"TOWNNAME":"永康區","LI":"中華里","LIN":"15鄰","STREET":"忠義街","SECT":" ","MAREA":" ","LANE":"６０巷","ALLEY":" ","HOUSE_NO":"１號十三樓之１０","E_COORD97":171787.67999999999,"N_COORD97":2544541.1200000001,"ADDRESS":"忠義街６０巷１號十三樓之１０","OBJECTID":321180},"geometry":{"x":171787.68000000063,"y":2544541.1200000029}},{"attributes":{"ID":321190,"DIS_CODE":0,"TOWNNAME":"東山區","LI":"東中里","LIN":" ","STREET":" ","SECT":" ","MAREA":"鳳尾厝","LANE":" ","ALLEY":" ","HOUSE_NO":"１３之５號","E_COORD97":188572.23999999999,"N_COORD97":2579793.9900000002,"ADDRESS":"鳳尾厝１３之５號","OBJECTID":321181},"geometry":{"x":188572.24000000022,"y":2579793.9900000021}},{"attributes":{"ID":321191,"DIS_CODE":0,"TOWNNAME":"永康區","LI":"中華里","LIN":"15鄰","STREET":"忠義街","SECT":" ","MAREA":" ","LANE":"６０巷","ALLEY":" ","HOUSE_NO":"１號十三樓之１５","E_COORD97":171787.78,"N_COORD97":2544541.1200000001,"ADDRESS":"忠義街６０巷１號十三樓之１５","OBJECTID":321182},"geometry":{"x":171787.78000000026,"y":2544541.1200000029}},{"attributes":{"ID":321192,"DIS_CODE":0,"TOWNNAME":"仁德區","LI":"仁和里","LIN":"26鄰","STREET":" ","SECT":" ","MAREA":"仁和","LANE":" ","ALLEY":" ","HOUSE_NO":"５２１號","E_COORD97":170455.98611900001,"N_COORD97":2539781.25,"ADDRESS":"仁和５２１號","OBJECTID":321183},"geometry":{"x":170455.9861190021,"y":2539781.2500000037}},{"attributes":{"ID":321193,"DIS_CODE":0,"TOWNNAME":"中西區","LI":"安海里","LIN":"11鄰","STREET":"中正路","SECT":" ","MAREA":" ","LANE":" ","ALLEY":" ","HOUSE_NO":"３９２號","E_COORD97":167249.70789699999,"N_COORD97":2543877.35354,"ADDRESS":"中正路３９２號","OBJECTID":321184},"geometry":{"x":167249.70789700001,"y":2543877.3535379991}},{"attributes":{"ID":321194,"DIS_CODE":0,"TOWNNAME":"仁德區","LI":"保安里","LIN":" ","STREET":"文賢路","SECT":"一段","MAREA":" ","LANE":"８５３巷","ALLEY":" ","HOUSE_NO":"２號","E_COORD97":171661.04000000001,"N_COORD97":2535938.8199999998,"ADDRESS":"文賢路一段８５３巷２號","OBJECTID":321185},"geometry":{"x":171661.0400000019,"y":2535938.8200000003}},{"attributes":{"ID":321195,"DIS_CODE":0,"TOWNNAME":"永康區","LI":"中華里","LIN":"15鄰","STREET":"忠義街","SECT":" ","MAREA":" ","LANE":"６０巷","ALLEY":" ","HOUSE_NO":"３號十一樓之１２","E_COORD97":171787.76000000001,"N_COORD97":2544541.1200000001,"ADDRESS":"忠義街６０巷３號十一樓之１２","OBJECTID":321186},"geometry":{"x":171787.75999999978,"y":2544541.1200000029}},{"attributes":{"ID":321196,"DIS_CODE":0,"TOWNNAME":"安平區","LI":"西門里","LIN":"8鄰","STREET":"安北路","SECT":" ","MAREA":" ","LANE":"１９６巷","ALLEY":" ","HOUSE_NO":"７號","E_COORD97":163708.79999999999,"N_COORD97":2544822.1299999999,"ADDRESS":"安北路１９６巷７號","OBJECTID":321187},"geometry":{"x":163708.80000000075,"y":2544822.1299999971}},{"attributes":{"ID":321197,"DIS_CODE":0,"TOWNNAME":"安平區","LI":"西門里","LIN":"8鄰","STREET":"安北路","SECT":" ","MAREA":" ","LANE":"１９６巷","ALLEY":" ","HOUSE_NO":"７號之１","E_COORD97":163719.51000000001,"N_COORD97":2544829.6200000001,"ADDRESS":"安北路１９６巷７號之１","OBJECTID":321188},"geometry":{"x":163719.51000000071,"y":2544829.6200000029}},{"attributes":{"ID":321198,"DIS_CODE":0,"TOWNNAME":"永康區","LI":"中華里","LIN":"15鄰","STREET":"忠義街","SECT":" ","MAREA":" ","LANE":"６０巷","ALLEY":" ","HOUSE_NO":"３號十一樓之９","E_COORD97":171786.45999999999,"N_COORD97":2544541.1200000001,"ADDRESS":"忠義街６０巷３號十一樓之９","OBJECTID":321189},"geometry":{"x":171786.45999999996,"y":2544541.1200000029}},{"attributes":{"ID":321199,"DIS_CODE":0,"TOWNNAME":"永康區","LI":"中華里","LIN":"15鄰","STREET":"忠義街","SECT":" ","MAREA":" ","LANE":"６０巷","ALLEY":" ","HOUSE_NO":"１號十三樓之９","E_COORD97":171786.45999999999,"N_COORD97":2544541.1200000001,"ADDRESS":"忠義街６０巷１號十三樓之９","OBJECTID":321190},"geometry":{"x":171786.45999999996,"y":2544541.1200000029}},{"attributes":{"ID":321200,"DIS_CODE":0,"TOWNNAME":"永康區","LI":"中華里","LIN":"15鄰","STREET":"忠義街","SECT":" ","MAREA":" ","LANE":"６０巷","ALLEY":" ","HOUSE_NO":"３號十一樓之８","E_COORD97":171786.51999999999,"N_COORD97":2544541.1200000001,"ADDRESS":"忠義街６０巷３號十一樓之８","OBJECTID":321191},"geometry":{"x":171786.52000000048,"y":2544541.1200000029}},{"attributes":{"ID":321201,"DIS_CODE":0,"TOWNNAME":"永康區","LI":"中華里","LIN":"15鄰","STREET":"忠義街","SECT":" ","MAREA":" ","LANE":"６０巷","ALLEY":" ","HOUSE_NO":"３號十五樓之１１","E_COORD97":171787.63,"N_COORD97":2544541.1200000001,"ADDRESS":"忠義街６０巷３號十五樓之１１","OBJECTID":321192},"geometry":{"x":171787.63000000082,"y":2544541.1200000029}},{"attributes":{"ID":321202,"DIS_CODE":0,"TOWNNAME":"永康區","LI":"中華里","LIN":"15鄰","STREET":"忠義街","SECT":" ","MAREA":" ","LANE":"６０巷","ALLEY":" ","HOUSE_NO":"１號九樓之１６","E_COORD97":171786.48000000001,"N_COORD97":2544541.1200000001,"ADDRESS":"忠義街６０巷１號九樓之１６","OBJECTID":321193},"geometry":{"x":171786.48000000138,"y":2544541.1200000029}},{"attributes":{"ID":321203,"DIS_CODE":0,"TOWNNAME":"安平區","LI":"育平里","LIN":"17鄰","STREET":"育平路","SECT":" ","MAREA":" ","LANE":" ","ALLEY":" ","HOUSE_NO":"２１２號十六樓之３１","E_COORD97":164690.60999999999,"N_COORD97":2543415.9199999999,"ADDRESS":"育平路２１２號十六樓之３１","OBJECTID":321194},"geometry":{"x":164690.61000000127,"y":2543415.9200000018}},{"attributes":{"ID":321204,"DIS_CODE":0,"TOWNNAME":"安平區","LI":"育平里","LIN":"17鄰","STREET":"育平路","SECT":" ","MAREA":" ","LANE":" ","ALLEY":" ","HOUSE_NO":"２１２號十六樓之３３","E_COORD97":164690.60999999999,"N_COORD97":2543415.9199999999,"ADDRESS":"育平路２１２號十六樓之３３","OBJECTID":321195},"geometry":{"x":164690.61000000127,"y":2543415.9200000018}},{"attributes":{"ID":321205,"DIS_CODE":0,"TOWNNAME":"仁德區","LI":"土庫里","LIN":" ","STREET":"太子二街","SECT":" ","MAREA":" ","LANE":"８８巷","ALLEY":" ","HOUSE_NO":"１９號","E_COORD97":174420.07999999999,"N_COORD97":2543226.7599999998,"ADDRESS":"太子二街８８巷１９號","OBJECTID":321196},"geometry":{"x":174420.08000000007,"y":2543226.7600000016}},{"attributes":{"ID":321206,"DIS_CODE":0,"TOWNNAME":"仁德區","LI":"仁和里","LIN":"23鄰","STREET":" ","SECT":" ","MAREA":"仁和","LANE":" ","ALLEY":" ","HOUSE_NO":"４６６號","E_COORD97":170452.11940699999,"N_COORD97":2539808.5499999998,"ADDRESS":"仁和４６６號","OBJECTID":321197},"geometry":{"x":170452.11940700188,"y":2539808.5500000026}},{"attributes":{"ID":321207,"DIS_CODE":0,"TOWNNAME":"仁德區","LI":"中洲里","LIN":" ","STREET":" ","SECT":" ","MAREA":"中洲","LANE":" ","ALLEY":" ","HOUSE_NO":"３２之２號","E_COORD97":174311.70999999999,"N_COORD97":2534771.04,"ADDRESS":"中洲３２之２號","OBJECTID":321198},"geometry":{"x":174311.71000000089,"y":2534771.040000001}},{"attributes":{"ID":321208,"DIS_CODE":0,"TOWNNAME":"仁德區","LI":"太子里","LIN":" ","STREET":"長興四街","SECT":" ","MAREA":" ","LANE":"１８巷","ALLEY":" ","HOUSE_NO":"４號","E_COORD97":174074.17999999999,"N_COORD97":2543703,"ADDRESS":"長興四街１８巷４號","OBJECTID":321199},"geometry":{"x":174074.18000000063,"y":2543703.0000000019}},{"attributes":{"ID":321209,"DIS_CODE":0,"TOWNNAME":"永康區","LI":"中華里","LIN":"15鄰","STREET":"忠義街","SECT":" ","MAREA":" ","LANE":"６０巷","ALLEY":" ","HOUSE_NO":"１號十樓之１３","E_COORD97":171786.47,"N_COORD97":2544541.1200000001,"ADDRESS":"忠義街６０巷１號十樓之１３","OBJECTID":321200},"geometry":{"x":171786.46999999974,"y":2544541.1200000029}}]}