{"displayFieldName":"TOWNNAME","fieldAliases":{"ID":"ID","DIS_CODE":"DIS_CODE","TOWNNAME":"TOWNNAME","LI":"LI","LIN":"LIN","STREET":"STREET","SECT":"SECT","MAREA":"MAREA","LANE":"LANE","ALLEY":"ALLEY","HOUSE_NO":"HOUSE_NO","E_COORD97":"E_COORD97","N_COORD97":"N_COORD97","ADDRESS":"ADDRESS","OBJECTID":"OBJECTID"},"geometryType":"esriGeometryPoint","spatialReference":{"wkid":102443,"latestWkid":3826},"fields":[{"name":"ID","type":"esriFieldTypeDouble","alias":"ID"},{"name":"DIS_CODE","type":"esriFieldTypeInteger","alias":"DIS_CODE"},{"name":"TOWNNAME","type":"esriFieldTypeString","alias":"TOWNNAME","length":8},{"name":"LI","type":"esriFieldTypeString","alias":"LI","length":8},{"name":"LIN","type":"esriFieldTypeString","alias":"LIN","length":12},{"name":"STREET","type":"esriFieldTypeString","alias":"STREET","length":20},{"name":"SECT","type":"esriFieldTypeString","alias":"SECT","length":8},{"name":"MAREA","type":"esriFieldTypeString","alias":"MAREA","length":12},{"name":"LANE","type":"esriFieldTypeString","alias":"LANE","length":10},{"name":"ALLEY","type":"esriFieldTypeString","alias":"ALLEY","length":10},{"name":"HOUSE_NO","type":"esriFieldTypeString","alias":"HOUSE_NO","length":20},{"name":"E_COORD97","type":"esriFieldTypeDouble","alias":"E_COORD97"},{"name":"N_COORD97","type":"esriFieldTypeDouble","alias":"N_COORD97"},{"name":"ADDRESS","type":"esriFieldTypeString","alias":"ADDRESS","length":50},{"name":"OBJECTID","type":"esriFieldTypeOID","alias":"OBJECTID"}],"features":[{"attributes":{"ID":385225,"DIS_CODE":0,"TOWNNAME":"東區","LI":"仁和里","LIN":"9鄰","STREET":"仁和路","SECT":" ","MAREA":" ","LANE":"１１１巷","ALLEY":" ","HOUSE_NO":"１２３號","E_COORD97":171699.09,"N_COORD97":2541305.8799999999,"ADDRESS":"仁和路１１１巷１２３號","OBJECTID":385201},"geometry":{"x":171699.08999999985,"y":2541305.8800000008}},{"attributes":{"ID":385226,"DIS_CODE":0,"TOWNNAME":"東區","LI":"仁和里","LIN":"9鄰","STREET":"仁和路","SECT":" ","MAREA":" ","LANE":"１１１巷","ALLEY":" ","HOUSE_NO":"１２１號","E_COORD97":171694.45999999999,"N_COORD97":2541307.1400000001,"ADDRESS":"仁和路１１１巷１２１號","OBJECTID":385202},"geometry":{"x":171694.46000000089,"y":2541307.1400000006}},{"attributes":{"ID":385227,"DIS_CODE":0,"TOWNNAME":"東區","LI":"仁和里","LIN":"9鄰","STREET":"仁和路","SECT":" ","MAREA":" ","LANE":"１１１巷","ALLEY":" ","HOUSE_NO":"１１９號","E_COORD97":171690.66,"N_COORD97":2541305.2400000002,"ADDRESS":"仁和路１１１巷１１９號","OBJECTID":385203},"geometry":{"x":171690.66000000015,"y":2541305.2400000021}},{"attributes":{"ID":385228,"DIS_CODE":0,"TOWNNAME":"東區","LI":"仁和里","LIN":"9鄰","STREET":"仁和路","SECT":" ","MAREA":" ","LANE":"１１１巷","ALLEY":" ","HOUSE_NO":"１２６號","E_COORD97":171699.92999999999,"N_COORD97":2541282.73,"ADDRESS":"仁和路１１１巷１２６號","OBJECTID":385204},"geometry":{"x":171699.9299999997,"y":2541282.7300000004}},{"attributes":{"ID":385229,"DIS_CODE":0,"TOWNNAME":"東區","LI":"虎尾里","LIN":"9鄰","STREET":"東成街","SECT":" ","MAREA":" ","LANE":"１４２巷","ALLEY":" ","HOUSE_NO":"２１號","E_COORD97":171676.79999999999,"N_COORD97":2542226.2599999998,"ADDRESS":"東成街１４２巷２１號","OBJECTID":385205},"geometry":{"x":171676.80000000075,"y":2542226.2600000016}},{"attributes":{"ID":385230,"DIS_CODE":0,"TOWNNAME":"東區","LI":"虎尾里","LIN":"9鄰","STREET":"東成街","SECT":" ","MAREA":" ","LANE":"１４２巷","ALLEY":" ","HOUSE_NO":"２３號","E_COORD97":171677.91,"N_COORD97":2542222.3900000001,"ADDRESS":"東成街１４２巷２３號","OBJECTID":385206},"geometry":{"x":171677.91000000108,"y":2542222.3900000025}},{"attributes":{"ID":385231,"DIS_CODE":0,"TOWNNAME":"新市區","LI":"永就里","LIN":"9鄰","STREET":"中山路","SECT":" ","MAREA":" ","LANE":"１９５巷","ALLEY":" ","HOUSE_NO":"９號","E_COORD97":177656.29000000001,"N_COORD97":2552048.9900000002,"ADDRESS":"中山路１９５巷９號","OBJECTID":385207},"geometry":{"x":177656.29000000004,"y":2552048.9900000002}},{"attributes":{"ID":385232,"DIS_CODE":0,"TOWNNAME":"新市區","LI":"永就里","LIN":"9鄰","STREET":"中山路","SECT":" ","MAREA":" ","LANE":"工業巷","ALLEY":" ","HOUSE_NO":"１１號","E_COORD97":177575.76999999999,"N_COORD97":2551991.75,"ADDRESS":"中山路工業巷１１號","OBJECTID":385208},"geometry":{"x":177575.77000000048,"y":2551991.75}},{"attributes":{"ID":385233,"DIS_CODE":0,"TOWNNAME":"新市區","LI":"永就里","LIN":"9鄰","STREET":"中山路","SECT":" ","MAREA":" ","LANE":"１９５巷","ALLEY":" ","HOUSE_NO":"２號","E_COORD97":177665.87,"N_COORD97":2552085,"ADDRESS":"中山路１９５巷２號","OBJECTID":385209},"geometry":{"x":177665.87000000011,"y":2552085}},{"attributes":{"ID":385234,"DIS_CODE":0,"TOWNNAME":"新市區","LI":"永就里","LIN":"9鄰","STREET":"中山路","SECT":" ","MAREA":" ","LANE":"１９５巷","ALLEY":" ","HOUSE_NO":"１９號","E_COORD97":177664.16,"N_COORD97":2552006.75,"ADDRESS":"中山路１９５巷１９號","OBJECTID":385210},"geometry":{"x":177664.16000000015,"y":2552006.7499999981}},{"attributes":{"ID":385235,"DIS_CODE":0,"TOWNNAME":"新市區","LI":"永就里","LIN":"9鄰","STREET":"中山路","SECT":" ","MAREA":" ","LANE":"１９５巷","ALLEY":" ","HOUSE_NO":"１６號","E_COORD97":177679.51000000001,"N_COORD97":2552026.25,"ADDRESS":"中山路１９５巷１６號","OBJECTID":385211},"geometry":{"x":177679.51000000071,"y":2552026.25}},{"attributes":{"ID":385236,"DIS_CODE":0,"TOWNNAME":"新市區","LI":"永就里","LIN":"9鄰","STREET":"中山路","SECT":" ","MAREA":" ","LANE":"工業巷","ALLEY":" ","HOUSE_NO":"４號","E_COORD97":177547.67999999999,"N_COORD97":2552009.75,"ADDRESS":"中山路工業巷４號","OBJECTID":385212},"geometry":{"x":177547.68000000063,"y":2552009.75}},{"attributes":{"ID":385237,"DIS_CODE":0,"TOWNNAME":"新市區","LI":"永就里","LIN":"9鄰","STREET":"中山路","SECT":" ","MAREA":" ","LANE":"１９５巷","ALLEY":" ","HOUSE_NO":"４號","E_COORD97":177668.01000000001,"N_COORD97":2552075.5,"ADDRESS":"中山路１９５巷４號","OBJECTID":385213},"geometry":{"x":177668.00999999978,"y":2552075.5}},{"attributes":{"ID":385238,"DIS_CODE":0,"TOWNNAME":"新市區","LI":"永就里","LIN":"9鄰","STREET":"中山路","SECT":" ","MAREA":" ","LANE":"工業巷","ALLEY":" ","HOUSE_NO":"１０號","E_COORD97":177553.51999999999,"N_COORD97":2551991,"ADDRESS":"中山路工業巷１０號","OBJECTID":385214},"geometry":{"x":177553.52000000048,"y":2551991}},{"attributes":{"ID":385239,"DIS_CODE":0,"TOWNNAME":"新市區","LI":"永就里","LIN":"9鄰","STREET":"中山路","SECT":" ","MAREA":" ","LANE":"１９５巷","ALLEY":" ","HOUSE_NO":"１１號","E_COORD97":177659.42999999999,"N_COORD97":2552039.75,"ADDRESS":"中山路１９５巷１１號","OBJECTID":385215},"geometry":{"x":177659.43000000063,"y":2552039.75}},{"attributes":{"ID":385240,"DIS_CODE":0,"TOWNNAME":"新市區","LI":"永就里","LIN":"9鄰","STREET":"中山路","SECT":" ","MAREA":" ","LANE":"１９５巷","ALLEY":" ","HOUSE_NO":"１０號","E_COORD97":177677.70999999999,"N_COORD97":2552050.75,"ADDRESS":"中山路１９５巷１０號","OBJECTID":385216},"geometry":{"x":177677.71000000183,"y":2552050.7499999981}},{"attributes":{"ID":385241,"DIS_CODE":0,"TOWNNAME":"新市區","LI":"永就里","LIN":"9鄰","STREET":"中山路","SECT":" ","MAREA":" ","LANE":"工業巷","ALLEY":" ","HOUSE_NO":"１４號","E_COORD97":177562.76999999999,"N_COORD97":2551977.75,"ADDRESS":"中山路工業巷１４號","OBJECTID":385217},"geometry":{"x":177562.76999999955,"y":2551977.7500000019}},{"attributes":{"ID":385242,"DIS_CODE":0,"TOWNNAME":"新市區","LI":"永就里","LIN":"9鄰","STREET":"中山路","SECT":" ","MAREA":" ","LANE":"１９５巷","ALLEY":" ","HOUSE_NO":"８號","E_COORD97":177674.87,"N_COORD97":2552059.5,"ADDRESS":"中山路１９５巷８號","OBJECTID":385218},"geometry":{"x":177674.87000000011,"y":2552059.5000000037}},{"attributes":{"ID":385243,"DIS_CODE":0,"TOWNNAME":"新市區","LI":"永就里","LIN":"9鄰","STREET":"中山路","SECT":" ","MAREA":" ","LANE":"１９５巷","ALLEY":" ","HOUSE_NO":"１７號","E_COORD97":177662.38,"N_COORD97":2552014.75,"ADDRESS":"中山路１９５巷１７號","OBJECTID":385219},"geometry":{"x":177662.37999999989,"y":2552014.7500000019}},{"attributes":{"ID":385244,"DIS_CODE":0,"TOWNNAME":"新市區","LI":"永就里","LIN":"9鄰","STREET":"中山路","SECT":" ","MAREA":" ","LANE":"１９５巷","ALLEY":" ","HOUSE_NO":"１４號","E_COORD97":177677.95999999999,"N_COORD97":2552034.75,"ADDRESS":"中山路１９５巷１４號","OBJECTID":385220},"geometry":{"x":177677.96000000089,"y":2552034.7500000019}},{"attributes":{"ID":385245,"DIS_CODE":0,"TOWNNAME":"新市區","LI":"新市里","LIN":"9鄰","STREET":"中正路","SECT":" ","MAREA":" ","LANE":"３００巷","ALLEY":" ","HOUSE_NO":"１０號","E_COORD97":177498.73000000001,"N_COORD97":2553154.5,"ADDRESS":"中正路３００巷１０號","OBJECTID":385221},"geometry":{"x":177498.73000000138,"y":2553154.5000000037}},{"attributes":{"ID":385246,"DIS_CODE":0,"TOWNNAME":"新市區","LI":"新和里","LIN":"9鄰","STREET":"可口街","SECT":" ","MAREA":" ","LANE":"１９巷","ALLEY":" ","HOUSE_NO":"２號","E_COORD97":177563.28,"N_COORD97":2552419.25,"ADDRESS":"可口街１９巷２號","OBJECTID":385222},"geometry":{"x":177563.28000000026,"y":2552419.25}},{"attributes":{"ID":385247,"DIS_CODE":0,"TOWNNAME":"新市區","LI":"永就里","LIN":"9鄰","STREET":"中山路","SECT":" ","MAREA":" ","LANE":"１９５巷","ALLEY":" ","HOUSE_NO":"１３號","E_COORD97":177659.29000000001,"N_COORD97":2552029.25,"ADDRESS":"中山路１９５巷１３號","OBJECTID":385223},"geometry":{"x":177659.29000000097,"y":2552029.25}},{"attributes":{"ID":385248,"DIS_CODE":0,"TOWNNAME":"新市區","LI":"永就里","LIN":"9鄰","STREET":"中山路","SECT":" ","MAREA":" ","LANE":"１９５巷","ALLEY":" ","HOUSE_NO":"５號","E_COORD97":177653.54000000001,"N_COORD97":2552064.75,"ADDRESS":"中山路１９５巷５號","OBJECTID":385224},"geometry":{"x":177653.5400000019,"y":2552064.7500000037}},{"attributes":{"ID":385249,"DIS_CODE":0,"TOWNNAME":"安南區","LI":"海東里","LIN":"9鄰","STREET":"海佃路","SECT":"二段","MAREA":" ","LANE":"４６１巷","ALLEY":" ","HOUSE_NO":"１０號","E_COORD97":166669.88,"N_COORD97":2549105.02,"ADDRESS":"海佃路二段４６１巷１０號","OBJECTID":385225},"geometry":{"x":166669.88000000082,"y":2549105.0199999996}},{"attributes":{"ID":385250,"DIS_CODE":0,"TOWNNAME":"東區","LI":"崇善里","LIN":"9鄰","STREET":"仁和路","SECT":" ","MAREA":" ","LANE":"７０巷","ALLEY":" ","HOUSE_NO":"２號","E_COORD97":171088.47,"N_COORD97":2541802.79,"ADDRESS":"仁和路７０巷２號","OBJECTID":385226},"geometry":{"x":171088.47000000067,"y":2541802.7899999991}},{"attributes":{"ID":385251,"DIS_CODE":0,"TOWNNAME":"安南區","LI":"海東里","LIN":"9鄰","STREET":"海佃路","SECT":"二段","MAREA":" ","LANE":"４６１巷","ALLEY":" ","HOUSE_NO":"１２號","E_COORD97":166665.01999999999,"N_COORD97":2549100.54,"ADDRESS":"海佃路二段４６１巷１２號","OBJECTID":385227},"geometry":{"x":166665.02000000142,"y":2549100.5399999991}},{"attributes":{"ID":385252,"DIS_CODE":0,"TOWNNAME":"安南區","LI":"海東里","LIN":"9鄰","STREET":"海佃路","SECT":"二段","MAREA":" ","LANE":"４６１巷","ALLEY":" ","HOUSE_NO":"１８號","E_COORD97":166655.42999999999,"N_COORD97":2549089.2200000002,"ADDRESS":"海佃路二段４６１巷１８號","OBJECTID":385228},"geometry":{"x":166655.4299999997,"y":2549089.2200000025}},{"attributes":{"ID":385253,"DIS_CODE":0,"TOWNNAME":"安南區","LI":"海東里","LIN":"9鄰","STREET":"海佃路","SECT":"二段","MAREA":" ","LANE":"４６１巷","ALLEY":" ","HOUSE_NO":"２０號","E_COORD97":166651.38,"N_COORD97":2549083.04,"ADDRESS":"海佃路二段４６１巷２０號","OBJECTID":385229},"geometry":{"x":166651.38000000082,"y":2549083.040000001}},{"attributes":{"ID":385254,"DIS_CODE":0,"TOWNNAME":"安南區","LI":"海東里","LIN":"9鄰","STREET":"海佃路","SECT":"二段","MAREA":" ","LANE":"４６１巷","ALLEY":" ","HOUSE_NO":"２２號","E_COORD97":166644.32999999999,"N_COORD97":2549079.6200000001,"ADDRESS":"海佃路二段４６１巷２２號","OBJECTID":385230},"geometry":{"x":166644.33000000007,"y":2549079.6200000048}},{"attributes":{"ID":385255,"DIS_CODE":0,"TOWNNAME":"安南區","LI":"海東里","LIN":"9鄰","STREET":"海佃路","SECT":"二段","MAREA":" ","LANE":"４６１巷","ALLEY":" ","HOUSE_NO":"２６號","E_COORD97":166637.84,"N_COORD97":2549069.3300000001,"ADDRESS":"海佃路二段４６１巷２６號","OBJECTID":385231},"geometry":{"x":166637.84000000171,"y":2549069.3300000001}},{"attributes":{"ID":385256,"DIS_CODE":0,"TOWNNAME":"安南區","LI":"海東里","LIN":"9鄰","STREET":"海佃路","SECT":"二段","MAREA":" ","LANE":"４６１巷","ALLEY":" ","HOUSE_NO":"３２號","E_COORD97":166624.57999999999,"N_COORD97":2549056.1099999999,"ADDRESS":"海佃路二段４６１巷３２號","OBJECTID":385232},"geometry":{"x":166624.58000000194,"y":2549056.1099999994}},{"attributes":{"ID":385257,"DIS_CODE":0,"TOWNNAME":"安南區","LI":"海東里","LIN":"9鄰","STREET":"海佃路","SECT":"二段","MAREA":" ","LANE":"４６１巷","ALLEY":" ","HOUSE_NO":"３８號","E_COORD97":166616.06,"N_COORD97":2549045.98,"ADDRESS":"海佃路二段４６１巷３８號","OBJECTID":385233},"geometry":{"x":166616.06000000052,"y":2549045.9800000042}},{"attributes":{"ID":385258,"DIS_CODE":0,"TOWNNAME":"安南區","LI":"海東里","LIN":"9鄰","STREET":"海佃路","SECT":"二段","MAREA":" ","LANE":"４６１巷","ALLEY":" ","HOUSE_NO":"４０號","E_COORD97":166607.42999999999,"N_COORD97":2549045.27,"ADDRESS":"海佃路二段４６１巷４０號","OBJECTID":385234},"geometry":{"x":166607.4299999997,"y":2549045.2699999996}},{"attributes":{"ID":385259,"DIS_CODE":0,"TOWNNAME":"安南區","LI":"海東里","LIN":"9鄰","STREET":"海佃路","SECT":"二段","MAREA":" ","LANE":"４６１巷","ALLEY":" ","HOUSE_NO":"４號","E_COORD97":166666.25,"N_COORD97":2549127.1899999999,"ADDRESS":"海佃路二段４６１巷４號","OBJECTID":385235},"geometry":{"x":166666.25000000093,"y":2549127.1899999995}},{"attributes":{"ID":385260,"DIS_CODE":0,"TOWNNAME":"安南區","LI":"海東里","LIN":"9鄰","STREET":"海佃路","SECT":"二段","MAREA":" ","LANE":"４６１巷","ALLEY":" ","HOUSE_NO":"８號","E_COORD97":166674.45000000001,"N_COORD97":2549107.2599999998,"ADDRESS":"海佃路二段４６１巷８號","OBJECTID":385236},"geometry":{"x":166674.45000000019,"y":2549107.2599999998}},{"attributes":{"ID":385261,"DIS_CODE":0,"TOWNNAME":"安南區","LI":"海東里","LIN":"9鄰","STREET":"海佃路","SECT":"二段","MAREA":" ","LANE":"４８３巷","ALLEY":" ","HOUSE_NO":"１０號","E_COORD97":166648.44,"N_COORD97":2549181.8100000001,"ADDRESS":"海佃路二段４８３巷１０號","OBJECTID":385237},"geometry":{"x":166648.44000000134,"y":2549181.8100000005}},{"attributes":{"ID":385262,"DIS_CODE":0,"TOWNNAME":"安南區","LI":"海東里","LIN":"9鄰","STREET":"海佃路","SECT":"二段","MAREA":" ","LANE":"４８３巷","ALLEY":" ","HOUSE_NO":"１１號","E_COORD97":166640.39999999999,"N_COORD97":2549111.3199999998,"ADDRESS":"海佃路二段４８３巷１１號","OBJECTID":385238},"geometry":{"x":166640.40000000037,"y":2549111.320000004}},{"attributes":{"ID":385263,"DIS_CODE":0,"TOWNNAME":"安南區","LI":"海東里","LIN":"9鄰","STREET":"海佃路","SECT":"二段","MAREA":" ","LANE":"４８３巷","ALLEY":" ","HOUSE_NO":"１３號","E_COORD97":166636.89999999999,"N_COORD97":2549108.3900000001,"ADDRESS":"海佃路二段４８３巷１３號","OBJECTID":385239},"geometry":{"x":166636.9000000013,"y":2549108.3900000025}},{"attributes":{"ID":385264,"DIS_CODE":0,"TOWNNAME":"安南區","LI":"海東里","LIN":"9鄰","STREET":"海佃路","SECT":"二段","MAREA":" ","LANE":"４８３巷","ALLEY":" ","HOUSE_NO":"１５號","E_COORD97":166633.51000000001,"N_COORD97":2549105.7599999998,"ADDRESS":"海佃路二段４８３巷１５號","OBJECTID":385240},"geometry":{"x":166633.51000000071,"y":2549105.7600000016}},{"attributes":{"ID":385265,"DIS_CODE":0,"TOWNNAME":"安南區","LI":"海東里","LIN":"9鄰","STREET":"海佃路","SECT":"二段","MAREA":" ","LANE":"４８３巷","ALLEY":" ","HOUSE_NO":"１７號","E_COORD97":166631.32999999999,"N_COORD97":2549101.5,"ADDRESS":"海佃路二段４８３巷１７號","OBJECTID":385241},"geometry":{"x":166631.33000000194,"y":2549101.5}},{"attributes":{"ID":385266,"DIS_CODE":0,"TOWNNAME":"安南區","LI":"海東里","LIN":"9鄰","STREET":"海佃路","SECT":"二段","MAREA":" ","LANE":"４８３巷","ALLEY":" ","HOUSE_NO":"１９號","E_COORD97":166627.78,"N_COORD97":2549099.2200000002,"ADDRESS":"海佃路二段４８３巷１９號","OBJECTID":385242},"geometry":{"x":166627.78000000026,"y":2549099.2200000025}},{"attributes":{"ID":385267,"DIS_CODE":0,"TOWNNAME":"安南區","LI":"海東里","LIN":"9鄰","STREET":"海佃路","SECT":"二段","MAREA":" ","LANE":"４８３巷","ALLEY":" ","HOUSE_NO":"２１號","E_COORD97":166624.59,"N_COORD97":2549096.75,"ADDRESS":"海佃路二段４８３巷２１號","OBJECTID":385243},"geometry":{"x":166624.59000000078,"y":2549096.75}},{"attributes":{"ID":385268,"DIS_CODE":0,"TOWNNAME":"安南區","LI":"海東里","LIN":"9鄰","STREET":"海佃路","SECT":"二段","MAREA":" ","LANE":"４８３巷","ALLEY":" ","HOUSE_NO":"２３號","E_COORD97":166620.51000000001,"N_COORD97":2549095.5600000001,"ADDRESS":"海佃路二段４８３巷２３號","OBJECTID":385244},"geometry":{"x":166620.50999999978,"y":2549095.5600000005}},{"attributes":{"ID":385269,"DIS_CODE":0,"TOWNNAME":"安南區","LI":"海東里","LIN":"9鄰","STREET":"海佃路","SECT":"二段","MAREA":" ","LANE":"４８３巷","ALLEY":" ","HOUSE_NO":"３７號","E_COORD97":166591.87,"N_COORD97":2549081.5,"ADDRESS":"海佃路二段４８３巷３７號","OBJECTID":385245},"geometry":{"x":166591.86999999918,"y":2549081.5}},{"attributes":{"ID":385270,"DIS_CODE":0,"TOWNNAME":"安南區","LI":"海東里","LIN":"9鄰","STREET":"海佃路","SECT":"二段","MAREA":" ","LANE":"４８３巷","ALLEY":" ","HOUSE_NO":"３號","E_COORD97":166655.81,"N_COORD97":2549120.7999999998,"ADDRESS":"海佃路二段４８３巷３號","OBJECTID":385246},"geometry":{"x":166655.80999999959,"y":2549120.8000000007}},{"attributes":{"ID":385271,"DIS_CODE":0,"TOWNNAME":"安南區","LI":"海東里","LIN":"9鄰","STREET":"海佃路","SECT":"二段","MAREA":" ","LANE":"４８３巷","ALLEY":" ","HOUSE_NO":"４號","E_COORD97":166668.89999999999,"N_COORD97":2549155.1499999999,"ADDRESS":"海佃路二段４８３巷４號","OBJECTID":385247},"geometry":{"x":166668.9000000013,"y":2549155.1500000004}},{"attributes":{"ID":385272,"DIS_CODE":0,"TOWNNAME":"安南區","LI":"海東里","LIN":"9鄰","STREET":"海佃路","SECT":"二段","MAREA":" ","LANE":"４８３巷","ALLEY":" ","HOUSE_NO":"９號","E_COORD97":166643.98999999999,"N_COORD97":2549113.8500000001,"ADDRESS":"海佃路二段４８３巷９號","OBJECTID":385248},"geometry":{"x":166643.99000000209,"y":2549113.8500000034}},{"attributes":{"ID":385273,"DIS_CODE":0,"TOWNNAME":"中西區","LI":"保安里","LIN":"9鄰","STREET":"中正路","SECT":" ","MAREA":" ","LANE":"１９３巷","ALLEY":" ","HOUSE_NO":"１３號","E_COORD97":167763.88,"N_COORD97":2543678.27,"ADDRESS":"中正路１９３巷１３號","OBJECTID":385249},"geometry":{"x":167763.88000000082,"y":2543678.2699999996}},{"attributes":{"ID":385274,"DIS_CODE":0,"TOWNNAME":"中西區","LI":"銀同里","LIN":"9鄰","STREET":"開山路","SECT":" ","MAREA":" ","LANE":"３５巷","ALLEY":" ","HOUSE_NO":"１６號","E_COORD97":168669.35999999999,"N_COORD97":2543474.73,"ADDRESS":"開山路３５巷１６號","OBJECTID":385250},"geometry":{"x":168669.36000000127,"y":2543474.7300000023}},{"attributes":{"ID":385275,"DIS_CODE":0,"TOWNNAME":"中西區","LI":"銀同里","LIN":"9鄰","STREET":"開山路","SECT":" ","MAREA":" ","LANE":"３５巷","ALLEY":" ","HOUSE_NO":"１８號","E_COORD97":168675.22,"N_COORD97":2543463.04,"ADDRESS":"開山路３５巷１８號","OBJECTID":385251},"geometry":{"x":168675.21999999974,"y":2543463.0399999991}},{"attributes":{"ID":385276,"DIS_CODE":0,"TOWNNAME":"中西區","LI":"銀同里","LIN":"9鄰","STREET":"開山路","SECT":" ","MAREA":" ","LANE":"３５巷","ALLEY":" ","HOUSE_NO":"２０號","E_COORD97":168677.20999999999,"N_COORD97":2543459.0699999998,"ADDRESS":"開山路３５巷２０號","OBJECTID":385252},"geometry":{"x":168677.20999999996,"y":2543459.0700000022}},{"attributes":{"ID":385277,"DIS_CODE":0,"TOWNNAME":"中西區","LI":"銀同里","LIN":"9鄰","STREET":"開山路","SECT":" ","MAREA":" ","LANE":"３５巷","ALLEY":" ","HOUSE_NO":"２２號","E_COORD97":168684.29999999999,"N_COORD97":2543460,"ADDRESS":"開山路３５巷２２號","OBJECTID":385253},"geometry":{"x":168684.30000000075,"y":2543460}},{"attributes":{"ID":385278,"DIS_CODE":0,"TOWNNAME":"中西區","LI":"小西里","LIN":"9鄰","STREET":"西門路","SECT":"一段","MAREA":" ","LANE":"６７６巷","ALLEY":" ","HOUSE_NO":"２９號","E_COORD97":167799.76000000001,"N_COORD97":2543306.1600000001,"ADDRESS":"西門路一段６７６巷２９號","OBJECTID":385254},"geometry":{"x":167799.76000000071,"y":2543306.160000002}},{"attributes":{"ID":385279,"DIS_CODE":0,"TOWNNAME":"中西區","LI":"小西里","LIN":"9鄰","STREET":"西門路","SECT":"一段","MAREA":" ","LANE":"６７６巷","ALLEY":" ","HOUSE_NO":"３１號","E_COORD97":167803.69,"N_COORD97":2543305.4700000002,"ADDRESS":"西門路一段６７６巷３１號","OBJECTID":385255},"geometry":{"x":167803.69000000041,"y":2543305.4700000007}},{"attributes":{"ID":385280,"DIS_CODE":0,"TOWNNAME":"中西區","LI":"小西里","LIN":"9鄰","STREET":"西門路","SECT":"一段","MAREA":" ","LANE":"７０２巷","ALLEY":" ","HOUSE_NO":"１１號","E_COORD97":167794.54000000001,"N_COORD97":2543352.25,"ADDRESS":"西門路一段７０２巷１１號","OBJECTID":385256},"geometry":{"x":167794.54000000097,"y":2543352.2500000019}},{"attributes":{"ID":385281,"DIS_CODE":0,"TOWNNAME":"中西區","LI":"小西里","LIN":"9鄰","STREET":"西門路","SECT":"一段","MAREA":" ","LANE":"７０２巷","ALLEY":" ","HOUSE_NO":"１２號","E_COORD97":167791.01999999999,"N_COORD97":2543338.1099999999,"ADDRESS":"西門路一段７０２巷１２號","OBJECTID":385257},"geometry":{"x":167791.02000000048,"y":2543338.1100000031}},{"attributes":{"ID":385282,"DIS_CODE":0,"TOWNNAME":"中西區","LI":"小西里","LIN":"9鄰","STREET":"西門路","SECT":"一段","MAREA":" ","LANE":"７０２巷","ALLEY":" ","HOUSE_NO":"１３號","E_COORD97":167802.20999999999,"N_COORD97":2543356.25,"ADDRESS":"西門路一段７０２巷１３號","OBJECTID":385258},"geometry":{"x":167802.21000000089,"y":2543356.2500000019}},{"attributes":{"ID":385283,"DIS_CODE":0,"TOWNNAME":"中西區","LI":"小西里","LIN":"9鄰","STREET":"西門路","SECT":"一段","MAREA":" ","LANE":"７０２巷","ALLEY":" ","HOUSE_NO":"１４號","E_COORD97":167795.82999999999,"N_COORD97":2543336.7400000002,"ADDRESS":"西門路一段７０２巷１４號","OBJECTID":385259},"geometry":{"x":167795.83000000194,"y":2543336.7400000002}},{"attributes":{"ID":385284,"DIS_CODE":0,"TOWNNAME":"中西區","LI":"小西里","LIN":"9鄰","STREET":"西門路","SECT":"一段","MAREA":" ","LANE":"７０２巷","ALLEY":" ","HOUSE_NO":"１５號","E_COORD97":167807.23999999999,"N_COORD97":2543354.4399999999,"ADDRESS":"西門路一段７０２巷１５號","OBJECTID":385260},"geometry":{"x":167807.24000000115,"y":2543354.4400000013}},{"attributes":{"ID":385285,"DIS_CODE":0,"TOWNNAME":"中西區","LI":"小西里","LIN":"9鄰","STREET":"西門路","SECT":"一段","MAREA":" ","LANE":"７０２巷","ALLEY":" ","HOUSE_NO":"１６號","E_COORD97":167800.73999999999,"N_COORD97":2543335.3599999999,"ADDRESS":"西門路一段７０２巷１６號","OBJECTID":385261},"geometry":{"x":167800.74000000115,"y":2543335.3599999994}},{"attributes":{"ID":385286,"DIS_CODE":0,"TOWNNAME":"中西區","LI":"小西里","LIN":"9鄰","STREET":"西門路","SECT":"一段","MAREA":" ","LANE":"７０２巷","ALLEY":" ","HOUSE_NO":"１７號","E_COORD97":167809.75,"N_COORD97":2543346.77,"ADDRESS":"西門路一段７０２巷１７號","OBJECTID":385262},"geometry":{"x":167809.74999999907,"y":2543346.7699999996}},{"attributes":{"ID":385287,"DIS_CODE":0,"TOWNNAME":"中西區","LI":"小西里","LIN":"9鄰","STREET":"西門路","SECT":"一段","MAREA":" ","LANE":"７０２巷","ALLEY":" ","HOUSE_NO":"１８號","E_COORD97":167805.45999999999,"N_COORD97":2543332.8100000001,"ADDRESS":"西門路一段７０２巷１８號","OBJECTID":385263},"geometry":{"x":167805.46000000089,"y":2543332.8100000005}},{"attributes":{"ID":385288,"DIS_CODE":0,"TOWNNAME":"中西區","LI":"小西里","LIN":"9鄰","STREET":"西門路","SECT":"一段","MAREA":" ","LANE":"７０２巷","ALLEY":" ","HOUSE_NO":"２０號","E_COORD97":167809.19,"N_COORD97":2543331.8300000001,"ADDRESS":"西門路一段７０２巷２０號","OBJECTID":385264},"geometry":{"x":167809.19000000134,"y":2543331.8300000019}},{"attributes":{"ID":385289,"DIS_CODE":0,"TOWNNAME":"中西區","LI":"小西里","LIN":"9鄰","STREET":"西門路","SECT":"一段","MAREA":" ","LANE":"７０２巷","ALLEY":" ","HOUSE_NO":"２２號","E_COORD97":167807.20999999999,"N_COORD97":2543324.7599999998,"ADDRESS":"西門路一段７０２巷２２號","OBJECTID":385265},"geometry":{"x":167807.21000000089,"y":2543324.7600000016}},{"attributes":{"ID":385290,"DIS_CODE":0,"TOWNNAME":"中西區","LI":"小西里","LIN":"9鄰","STREET":"西門路","SECT":"一段","MAREA":" ","LANE":"７０２巷","ALLEY":" ","HOUSE_NO":"２４號","E_COORD97":167806.47,"N_COORD97":2543321.6600000001,"ADDRESS":"西門路一段７０２巷２４號","OBJECTID":385266},"geometry":{"x":167806.4700000016,"y":2543321.6600000039}},{"attributes":{"ID":385291,"DIS_CODE":0,"TOWNNAME":"中西區","LI":"小西里","LIN":"9鄰","STREET":"西門路","SECT":"一段","MAREA":" ","LANE":"７０２巷","ALLEY":" ","HOUSE_NO":"７號","E_COORD97":167782.64999999999,"N_COORD97":2543354.7999999998,"ADDRESS":"西門路一段７０２巷７號","OBJECTID":385267},"geometry":{"x":167782.6500000013,"y":2543354.8000000007}},{"attributes":{"ID":385292,"DIS_CODE":0,"TOWNNAME":"中西區","LI":"小西里","LIN":"9鄰","STREET":"西門路","SECT":"一段","MAREA":" ","LANE":"７０２巷","ALLEY":" ","HOUSE_NO":"９號","E_COORD97":167788.53,"N_COORD97":2543354.6699999999,"ADDRESS":"西門路一段７０２巷９號","OBJECTID":385268},"geometry":{"x":167788.53000000119,"y":2543354.6699999999}},{"attributes":{"ID":385293,"DIS_CODE":0,"TOWNNAME":"中西區","LI":"大南里","LIN":"9鄰","STREET":"南門路","SECT":" ","MAREA":" ","LANE":"４８巷","ALLEY":" ","HOUSE_NO":"１０號","E_COORD97":168343.17999999999,"N_COORD97":2542887.0699999998,"ADDRESS":"南門路４８巷１０號","OBJECTID":385269},"geometry":{"x":168343.1799999997,"y":2542887.0700000003}},{"attributes":{"ID":385294,"DIS_CODE":0,"TOWNNAME":"中西區","LI":"大南里","LIN":"9鄰","STREET":"南門路","SECT":" ","MAREA":" ","LANE":"４８巷","ALLEY":" ","HOUSE_NO":"１２號","E_COORD97":168325.54000000001,"N_COORD97":2542892.77,"ADDRESS":"南門路４８巷１２號","OBJECTID":385270},"geometry":{"x":168325.54000000097,"y":2542892.7699999977}},{"attributes":{"ID":385295,"DIS_CODE":0,"TOWNNAME":"中西區","LI":"大南里","LIN":"9鄰","STREET":"南門路","SECT":" ","MAREA":" ","LANE":"４８巷","ALLEY":" ","HOUSE_NO":"１４號","E_COORD97":168317.09,"N_COORD97":2542894.8799999999,"ADDRESS":"南門路４８巷１４號","OBJECTID":385271},"geometry":{"x":168317.08999999985,"y":2542894.8800000027}},{"attributes":{"ID":385296,"DIS_CODE":0,"TOWNNAME":"中西區","LI":"大南里","LIN":"9鄰","STREET":"南門路","SECT":" ","MAREA":" ","LANE":"４８巷","ALLEY":" ","HOUSE_NO":"１６號","E_COORD97":168308.98000000001,"N_COORD97":2542895.23,"ADDRESS":"南門路４８巷１６號","OBJECTID":385272},"geometry":{"x":168308.98000000138,"y":2542895.2300000023}},{"attributes":{"ID":385297,"DIS_CODE":0,"TOWNNAME":"中西區","LI":"大南里","LIN":"9鄰","STREET":"南門路","SECT":" ","MAREA":" ","LANE":"４８巷","ALLEY":" ","HOUSE_NO":"１８號","E_COORD97":168298.42000000001,"N_COORD97":2542898.04,"ADDRESS":"南門路４８巷１８號","OBJECTID":385273},"geometry":{"x":168298.41999999899,"y":2542898.040000001}},{"attributes":{"ID":385298,"DIS_CODE":0,"TOWNNAME":"中西區","LI":"大南里","LIN":"9鄰","STREET":"南門路","SECT":" ","MAREA":" ","LANE":"４８巷","ALLEY":" ","HOUSE_NO":"２２號","E_COORD97":168272.35000000001,"N_COORD97":2542902.9700000002,"ADDRESS":"南門路４８巷２２號","OBJECTID":385274},"geometry":{"x":168272.35000000056,"y":2542902.9700000044}},{"attributes":{"ID":385299,"DIS_CODE":0,"TOWNNAME":"中西區","LI":"大南里","LIN":"9鄰","STREET":"南門路","SECT":" ","MAREA":" ","LANE":"４８巷","ALLEY":" ","HOUSE_NO":"４號","E_COORD97":168371.35999999999,"N_COORD97":2542882.8500000001,"ADDRESS":"南門路４８巷４號","OBJECTID":385275},"geometry":{"x":168371.36000000127,"y":2542882.8500000015}},{"attributes":{"ID":385300,"DIS_CODE":0,"TOWNNAME":"中西區","LI":"大南里","LIN":"9鄰","STREET":"南門路","SECT":" ","MAREA":" ","LANE":"４８巷","ALLEY":" ","HOUSE_NO":"６號","E_COORD97":168365.01999999999,"N_COORD97":2542884.2599999998,"ADDRESS":"南門路４８巷６號","OBJECTID":385276},"geometry":{"x":168365.01999999955,"y":2542884.2600000016}},{"attributes":{"ID":385301,"DIS_CODE":0,"TOWNNAME":"中西區","LI":"大南里","LIN":"9鄰","STREET":"南門路","SECT":" ","MAREA":" ","LANE":"４８巷","ALLEY":" ","HOUSE_NO":"８號","E_COORD97":168353.75,"N_COORD97":2542885.6600000001,"ADDRESS":"南門路４８巷８號","OBJECTID":385277},"geometry":{"x":168353.75,"y":2542885.660000002}},{"attributes":{"ID":385302,"DIS_CODE":0,"TOWNNAME":"安南區","LI":"溪心里","LIN":"9鄰","STREET":"海環街","SECT":" ","MAREA":" ","LANE":"７１５巷","ALLEY":" ","HOUSE_NO":"１３號","E_COORD97":166491.51999999999,"N_COORD97":2549357.27,"ADDRESS":"海環街７１５巷１３號","OBJECTID":385278},"geometry":{"x":166491.51999999955,"y":2549357.2699999996}},{"attributes":{"ID":385303,"DIS_CODE":0,"TOWNNAME":"安南區","LI":"溪心里","LIN":"9鄰","STREET":"海環街","SECT":" ","MAREA":" ","LANE":"７１５巷","ALLEY":" ","HOUSE_NO":"２１號","E_COORD97":166486.35999999999,"N_COORD97":2549366.73,"ADDRESS":"海環街７１５巷２１號","OBJECTID":385279},"geometry":{"x":166486.36000000127,"y":2549366.7300000023}},{"attributes":{"ID":385304,"DIS_CODE":0,"TOWNNAME":"安南區","LI":"溪心里","LIN":"9鄰","STREET":"海環街","SECT":" ","MAREA":" ","LANE":"７１５巷","ALLEY":" ","HOUSE_NO":"２５號","E_COORD97":166479.04999999999,"N_COORD97":2549374.7799999998,"ADDRESS":"海環街７１５巷２５號","OBJECTID":385280},"geometry":{"x":166479.05000000075,"y":2549374.7799999975}},{"attributes":{"ID":385305,"DIS_CODE":0,"TOWNNAME":"南區","LI":"郡南里","LIN":"9鄰","STREET":"永成路","SECT":"三段","MAREA":" ","LANE":"１３７巷","ALLEY":" ","HOUSE_NO":"２號","E_COORD97":167467.79999999999,"N_COORD97":2540750.5499999998,"ADDRESS":"永成路三段１３７巷２號","OBJECTID":385281},"geometry":{"x":167467.79999999981,"y":2540750.5500000026}},{"attributes":{"ID":385306,"DIS_CODE":0,"TOWNNAME":"南區","LI":"郡南里","LIN":"9鄰","STREET":"永成路","SECT":"三段","MAREA":" ","LANE":"１３７巷","ALLEY":" ","HOUSE_NO":"５號","E_COORD97":167467.48999999999,"N_COORD97":2540724.2400000002,"ADDRESS":"永成路三段１３７巷５號","OBJECTID":385282},"geometry":{"x":167467.49000000022,"y":2540724.2400000039}},{"attributes":{"ID":385307,"DIS_CODE":0,"TOWNNAME":"南區","LI":"郡南里","LIN":"9鄰","STREET":"永成路","SECT":"三段","MAREA":" ","LANE":"１３７巷","ALLEY":" ","HOUSE_NO":"７號","E_COORD97":167463.66,"N_COORD97":2540724,"ADDRESS":"永成路三段１３７巷７號","OBJECTID":385283},"geometry":{"x":167463.66000000108,"y":2540724}},{"attributes":{"ID":385308,"DIS_CODE":0,"TOWNNAME":"南區","LI":"郡南里","LIN":"9鄰","STREET":"永成路","SECT":"三段","MAREA":" ","LANE":"１３７巷","ALLEY":" ","HOUSE_NO":"９號","E_COORD97":167459.60000000001,"N_COORD97":2540724.2400000002,"ADDRESS":"永成路三段１３７巷９號","OBJECTID":385284},"geometry":{"x":167459.60000000149,"y":2540724.2400000039}},{"attributes":{"ID":385309,"DIS_CODE":0,"TOWNNAME":"南區","LI":"郡南里","LIN":"9鄰","STREET":"永成路","SECT":"三段","MAREA":" ","LANE":"１３７巷","ALLEY":" ","HOUSE_NO":"１３號","E_COORD97":167441.45000000001,"N_COORD97":2540724.7200000002,"ADDRESS":"永成路三段１３７巷１３號","OBJECTID":385285},"geometry":{"x":167441.45000000112,"y":2540724.7200000044}},{"attributes":{"ID":385310,"DIS_CODE":0,"TOWNNAME":"南區","LI":"郡南里","LIN":"9鄰","STREET":"永成路","SECT":"三段","MAREA":" ","LANE":"１３７巷","ALLEY":" ","HOUSE_NO":"１７號","E_COORD97":167432.60999999999,"N_COORD97":2540724.48,"ADDRESS":"永成路三段１３７巷１７號","OBJECTID":385286},"geometry":{"x":167432.61000000034,"y":2540724.4800000004}},{"attributes":{"ID":385311,"DIS_CODE":0,"TOWNNAME":"安南區","LI":"\u25A0南里","LIN":"9鄰","STREET":"安昌街","SECT":" ","MAREA":" ","LANE":"２４２巷","ALLEY":" ","HOUSE_NO":"２５號","E_COORD97":170197.67999999999,"N_COORD97":2552606.5600000001,"ADDRESS":"安昌街２４２巷２５號","OBJECTID":385287},"geometry":{"x":170197.68000000063,"y":2552606.5600000024}},{"attributes":{"ID":385312,"DIS_CODE":0,"TOWNNAME":"東區","LI":"崇善里","LIN":"9鄰","STREET":"仁和路","SECT":" ","MAREA":" ","LANE":"７０巷","ALLEY":" ","HOUSE_NO":"６號","E_COORD97":171084.70000000001,"N_COORD97":2541801.3199999998,"ADDRESS":"仁和路７０巷６號","OBJECTID":385288},"geometry":{"x":171084.70000000019,"y":2541801.3200000003}},{"attributes":{"ID":385313,"DIS_CODE":0,"TOWNNAME":"安南區","LI":"\u25A0南里","LIN":"9鄰","STREET":"安昌街","SECT":" ","MAREA":" ","LANE":"２４２巷","ALLEY":" ","HOUSE_NO":"３３號","E_COORD97":170212.35000000001,"N_COORD97":2552606.5600000001,"ADDRESS":"安昌街２４２巷３３號","OBJECTID":385289},"geometry":{"x":170212.34999999963,"y":2552606.5600000024}},{"attributes":{"ID":385314,"DIS_CODE":0,"TOWNNAME":"安南區","LI":"\u25A0南里","LIN":"9鄰","STREET":"安昌街","SECT":" ","MAREA":" ","LANE":"２４３巷","ALLEY":" ","HOUSE_NO":"２０號","E_COORD97":170078.35000000001,"N_COORD97":2552624.54,"ADDRESS":"安昌街２４３巷２０號","OBJECTID":385290},"geometry":{"x":170078.34999999963,"y":2552624.5400000028}},{"attributes":{"ID":385315,"DIS_CODE":0,"TOWNNAME":"安南區","LI":"\u25A0南里","LIN":"9鄰","STREET":"安昌街","SECT":" ","MAREA":" ","LANE":"２４３巷","ALLEY":" ","HOUSE_NO":"３０號","E_COORD97":170048.82000000001,"N_COORD97":2552627.0600000001,"ADDRESS":"安昌街２４３巷３０號","OBJECTID":385291},"geometry":{"x":170048.8200000003,"y":2552627.0600000024}},{"attributes":{"ID":385316,"DIS_CODE":0,"TOWNNAME":"安南區","LI":"\u25A0南里","LIN":"9鄰","STREET":"安昌街","SECT":" ","MAREA":" ","LANE":"２４３巷","ALLEY":" ","HOUSE_NO":"３４號","E_COORD97":170039.10000000001,"N_COORD97":2552627.0600000001,"ADDRESS":"安昌街２４３巷３４號","OBJECTID":385292},"geometry":{"x":170039.09999999963,"y":2552627.0600000024}},{"attributes":{"ID":385317,"DIS_CODE":0,"TOWNNAME":"南區","LI":"郡南里","LIN":"9鄰","STREET":"永成路","SECT":"三段","MAREA":" ","LANE":"１３７巷","ALLEY":" ","HOUSE_NO":"２７號","E_COORD97":167405.98000000001,"N_COORD97":2540724.1800000002,"ADDRESS":"永成路三段１３７巷２７號","OBJECTID":385293},"geometry":{"x":167405.98000000138,"y":2540724.1800000016}},{"attributes":{"ID":385318,"DIS_CODE":0,"TOWNNAME":"南區","LI":"郡南里","LIN":"9鄰","STREET":"永成路","SECT":"三段","MAREA":" ","LANE":"１３７巷","ALLEY":" ","HOUSE_NO":"２９號","E_COORD97":167400.70000000001,"N_COORD97":2540726.1600000001,"ADDRESS":"永成路三段１３７巷２９號","OBJECTID":385294},"geometry":{"x":167400.70000000112,"y":2540726.160000002}},{"attributes":{"ID":385319,"DIS_CODE":0,"TOWNNAME":"南區","LI":"郡南里","LIN":"9鄰","STREET":"永成路","SECT":"三段","MAREA":" ","LANE":"１３７巷","ALLEY":" ","HOUSE_NO":"３１號","E_COORD97":167395.10000000001,"N_COORD97":2540721.5499999998,"ADDRESS":"永成路三段１３７巷３１號","OBJECTID":385295},"geometry":{"x":167395.10000000149,"y":2540721.5500000007}},{"attributes":{"ID":385320,"DIS_CODE":0,"TOWNNAME":"南區","LI":"郡南里","LIN":"9鄰","STREET":"永成路","SECT":"三段","MAREA":" ","LANE":"１３７巷","ALLEY":" ","HOUSE_NO":"３３號","E_COORD97":167392.79000000001,"N_COORD97":2540728.46,"ADDRESS":"永成路三段１３７巷３３號","OBJECTID":385296},"geometry":{"x":167392.79000000097,"y":2540728.4600000009}},{"attributes":{"ID":385321,"DIS_CODE":0,"TOWNNAME":"南區","LI":"郡南里","LIN":"9鄰","STREET":"永成路","SECT":"三段","MAREA":" ","LANE":"１３７巷","ALLEY":" ","HOUSE_NO":"３５號","E_COORD97":167392.13,"N_COORD97":2540733.73,"ADDRESS":"永成路三段１３７巷３５號","OBJECTID":385297},"geometry":{"x":167392.13000000082,"y":2540733.7300000004}},{"attributes":{"ID":385322,"DIS_CODE":0,"TOWNNAME":"南區","LI":"國宅里","LIN":"9鄰","STREET":"金華路","SECT":"二段","MAREA":" ","LANE":"１５巷","ALLEY":" ","HOUSE_NO":"２８號","E_COORD97":166928.57000000001,"N_COORD97":2541888.9399999999,"ADDRESS":"金華路二段１５巷２８號","OBJECTID":385298},"geometry":{"x":166928.57000000123,"y":2541888.9400000013}},{"attributes":{"ID":385323,"DIS_CODE":0,"TOWNNAME":"南區","LI":"國宅里","LIN":"9鄰","STREET":"金華路","SECT":"二段","MAREA":" ","LANE":"１５巷","ALLEY":" ","HOUSE_NO":"３２號","E_COORD97":166918.39999999999,"N_COORD97":2541890.02,"ADDRESS":"金華路二段１５巷３２號","OBJECTID":385299},"geometry":{"x":166918.4000000013,"y":2541890.0199999996}},{"attributes":{"ID":385324,"DIS_CODE":0,"TOWNNAME":"南區","LI":"國宅里","LIN":"9鄰","STREET":"金華路","SECT":"二段","MAREA":" ","LANE":"１５巷","ALLEY":" ","HOUSE_NO":"３４號","E_COORD97":166913.64000000001,"N_COORD97":2541890.8799999999,"ADDRESS":"金華路二段１５巷３４號","OBJECTID":385300},"geometry":{"x":166913.6400000006,"y":2541890.879999999}},{"attributes":{"ID":385325,"DIS_CODE":0,"TOWNNAME":"南區","LI":"國宅里","LIN":"9鄰","STREET":"金華路","SECT":"二段","MAREA":" ","LANE":"１５巷","ALLEY":" ","HOUSE_NO":"３６號","E_COORD97":166909.75,"N_COORD97":2541891.1000000001,"ADDRESS":"金華路二段１５巷３６號","OBJECTID":385301},"geometry":{"x":166909.75000000186,"y":2541891.1000000015}},{"attributes":{"ID":385326,"DIS_CODE":0,"TOWNNAME":"南區","LI":"國宅里","LIN":"9鄰","STREET":"金華路","SECT":"二段","MAREA":" ","LANE":"１５巷","ALLEY":" ","HOUSE_NO":"３８號","E_COORD97":166904.34,"N_COORD97":2541891.5299999998,"ADDRESS":"金華路二段１５巷３８號","OBJECTID":385302},"geometry":{"x":166904.34000000078,"y":2541891.5300000012}},{"attributes":{"ID":385327,"DIS_CODE":0,"TOWNNAME":"南區","LI":"國宅里","LIN":"9鄰","STREET":"金華路","SECT":"二段","MAREA":" ","LANE":"１５巷","ALLEY":" ","HOUSE_NO":"４０號","E_COORD97":166899.14000000001,"N_COORD97":2541891.5299999998,"ADDRESS":"金華路二段１５巷４０號","OBJECTID":385303},"geometry":{"x":166899.13999999966,"y":2541891.5300000012}},{"attributes":{"ID":385328,"DIS_CODE":0,"TOWNNAME":"南區","LI":"國宅里","LIN":"9鄰","STREET":"金華路","SECT":"二段","MAREA":" ","LANE":"１５巷","ALLEY":" ","HOUSE_NO":"４２號","E_COORD97":166895.03,"N_COORD97":2541891.96,"ADDRESS":"金華路二段１５巷４２號","OBJECTID":385304},"geometry":{"x":166895.03000000119,"y":2541891.9600000009}},{"attributes":{"ID":385329,"DIS_CODE":0,"TOWNNAME":"南區","LI":"喜北里","LIN":"9鄰","STREET":"喜樹路","SECT":" ","MAREA":" ","LANE":"１３４巷","ALLEY":" ","HOUSE_NO":"１號","E_COORD97":165859.10999999999,"N_COORD97":2538292.2000000002,"ADDRESS":"喜樹路１３４巷１號","OBJECTID":385305},"geometry":{"x":165859.11000000127,"y":2538292.1999999974}},{"attributes":{"ID":385330,"DIS_CODE":0,"TOWNNAME":"南區","LI":"國宅里","LIN":"9鄰","STREET":"金華路","SECT":"二段","MAREA":" ","LANE":"１５巷","ALLEY":" ","HOUSE_NO":"４６號","E_COORD97":166885.07999999999,"N_COORD97":2541892.3999999999,"ADDRESS":"金華路二段１５巷４６號","OBJECTID":385306},"geometry":{"x":166885.08000000007,"y":2541892.4000000004}},{"attributes":{"ID":385331,"DIS_CODE":0,"TOWNNAME":"南區","LI":"國宅里","LIN":"9鄰","STREET":"金華路","SECT":"二段","MAREA":" ","LANE":"２１巷","ALLEY":" ","HOUSE_NO":"２８號","E_COORD97":166931.26000000001,"N_COORD97":2541920.3900000001,"ADDRESS":"金華路二段２１巷２８號","OBJECTID":385307},"geometry":{"x":166931.25999999978,"y":2541920.3900000043}},{"attributes":{"ID":385332,"DIS_CODE":0,"TOWNNAME":"南區","LI":"國宅里","LIN":"9鄰","STREET":"金華路","SECT":"二段","MAREA":" ","LANE":"２１巷","ALLEY":" ","HOUSE_NO":"３０號","E_COORD97":166926.16,"N_COORD97":2541921.2799999998,"ADDRESS":"金華路二段２１巷３０號","OBJECTID":385308},"geometry":{"x":166926.16000000108,"y":2541921.2800000012}},{"attributes":{"ID":385333,"DIS_CODE":0,"TOWNNAME":"南區","LI":"國宅里","LIN":"9鄰","STREET":"金華路","SECT":"二段","MAREA":" ","LANE":"２１巷","ALLEY":" ","HOUSE_NO":"３１號","E_COORD97":166919.70000000001,"N_COORD97":2541907.9500000002,"ADDRESS":"金華路二段２１巷３１號","OBJECTID":385309},"geometry":{"x":166919.70000000019,"y":2541907.9499999974}},{"attributes":{"ID":385334,"DIS_CODE":0,"TOWNNAME":"南區","LI":"國宅里","LIN":"9鄰","STREET":"金華路","SECT":"二段","MAREA":" ","LANE":"２１巷","ALLEY":" ","HOUSE_NO":"３２號","E_COORD97":166920.17000000001,"N_COORD97":2541921.7200000002,"ADDRESS":"金華路二段２１巷３２號","OBJECTID":385310},"geometry":{"x":166920.16999999993,"y":2541921.7200000025}},{"attributes":{"ID":385335,"DIS_CODE":0,"TOWNNAME":"南區","LI":"國宅里","LIN":"9鄰","STREET":"金華路","SECT":"二段","MAREA":" ","LANE":"２１巷","ALLEY":" ","HOUSE_NO":"３３號","E_COORD97":166915.37,"N_COORD97":2541908.1699999999,"ADDRESS":"金華路二段２１巷３３號","OBJECTID":385311},"geometry":{"x":166915.37000000011,"y":2541908.1700000018}},{"attributes":{"ID":385336,"DIS_CODE":0,"TOWNNAME":"南區","LI":"國宅里","LIN":"9鄰","STREET":"金華路","SECT":"二段","MAREA":" ","LANE":"２１巷","ALLEY":" ","HOUSE_NO":"３４號","E_COORD97":166916.17000000001,"N_COORD97":2541922.3900000001,"ADDRESS":"金華路二段２１巷３４號","OBJECTID":385312},"geometry":{"x":166916.16999999993,"y":2541922.3900000006}},{"attributes":{"ID":385337,"DIS_CODE":0,"TOWNNAME":"南區","LI":"國宅里","LIN":"9鄰","STREET":"金華路","SECT":"二段","MAREA":" ","LANE":"２１巷","ALLEY":" ","HOUSE_NO":"３５號","E_COORD97":166910.82999999999,"N_COORD97":2541908.8199999998,"ADDRESS":"金華路二段２１巷３５號","OBJECTID":385313},"geometry":{"x":166910.82999999914,"y":2541908.8200000003}},{"attributes":{"ID":385338,"DIS_CODE":0,"TOWNNAME":"南區","LI":"國宅里","LIN":"9鄰","STREET":"金華路","SECT":"二段","MAREA":" ","LANE":"２１巷","ALLEY":" ","HOUSE_NO":"３６號","E_COORD97":166911.29000000001,"N_COORD97":2541922.8300000001,"ADDRESS":"金華路二段２１巷３６號","OBJECTID":385314},"geometry":{"x":166911.2900000019,"y":2541922.8300000001}},{"attributes":{"ID":385339,"DIS_CODE":0,"TOWNNAME":"南區","LI":"國宅里","LIN":"9鄰","STREET":"金華路","SECT":"二段","MAREA":" ","LANE":"２１巷","ALLEY":" ","HOUSE_NO":"３７號","E_COORD97":166905.63,"N_COORD97":2541909.25,"ADDRESS":"金華路二段２１巷３７號","OBJECTID":385315},"geometry":{"x":166905.63000000082,"y":2541909.25}},{"attributes":{"ID":385340,"DIS_CODE":0,"TOWNNAME":"南區","LI":"國宅里","LIN":"9鄰","STREET":"金華路","SECT":"二段","MAREA":" ","LANE":"２１巷","ALLEY":" ","HOUSE_NO":"３８號","E_COORD97":166906.19,"N_COORD97":2541923.27,"ADDRESS":"金華路二段２１巷３８號","OBJECTID":385316},"geometry":{"x":166906.19000000134,"y":2541923.2700000033}},{"attributes":{"ID":385341,"DIS_CODE":0,"TOWNNAME":"南區","LI":"國宅里","LIN":"9鄰","STREET":"金華路","SECT":"二段","MAREA":" ","LANE":"２１巷","ALLEY":" ","HOUSE_NO":"３９號","E_COORD97":166900.44,"N_COORD97":2541909.6800000002,"ADDRESS":"金華路二段２１巷３９號","OBJECTID":385317},"geometry":{"x":166900.44000000227,"y":2541909.6799999997}},{"attributes":{"ID":385342,"DIS_CODE":0,"TOWNNAME":"南區","LI":"國宅里","LIN":"9鄰","STREET":"金華路","SECT":"二段","MAREA":" ","LANE":"２１巷","ALLEY":" ","HOUSE_NO":"４０號","E_COORD97":166901.75,"N_COORD97":2541923.7200000002,"ADDRESS":"金華路二段２１巷４０號","OBJECTID":385318},"geometry":{"x":166901.75000000093,"y":2541923.7200000007}},{"attributes":{"ID":385343,"DIS_CODE":0,"TOWNNAME":"南區","LI":"國宅里","LIN":"9鄰","STREET":"金華路","SECT":"二段","MAREA":" ","LANE":"２１巷","ALLEY":" ","HOUSE_NO":"４１號","E_COORD97":166895.25,"N_COORD97":2541909.4700000002,"ADDRESS":"金華路二段２１巷４１號","OBJECTID":385319},"geometry":{"x":166895.25000000093,"y":2541909.4700000044}},{"attributes":{"ID":385344,"DIS_CODE":0,"TOWNNAME":"南區","LI":"國宅里","LIN":"9鄰","STREET":"金華路","SECT":"二段","MAREA":" ","LANE":"２１巷","ALLEY":" ","HOUSE_NO":"４２號","E_COORD97":166897.09,"N_COORD97":2541924.6000000001,"ADDRESS":"金華路二段２１巷４２號","OBJECTID":385320},"geometry":{"x":166897.09000000171,"y":2541924.6000000034}},{"attributes":{"ID":385345,"DIS_CODE":0,"TOWNNAME":"南區","LI":"國宅里","LIN":"9鄰","STREET":"金華路","SECT":"二段","MAREA":" ","LANE":"２１巷","ALLEY":" ","HOUSE_NO":"４３號","E_COORD97":166890.92000000001,"N_COORD97":2541910.1099999999,"ADDRESS":"金華路二段２１巷４３號","OBJECTID":385321},"geometry":{"x":166890.91999999993,"y":2541910.1099999994}},{"attributes":{"ID":385346,"DIS_CODE":0,"TOWNNAME":"南區","LI":"國宅里","LIN":"9鄰","STREET":"金華路","SECT":"二段","MAREA":" ","LANE":"２１巷","ALLEY":" ","HOUSE_NO":"４５號","E_COORD97":166887.03,"N_COORD97":2541910.5499999998,"ADDRESS":"金華路二段２１巷４５號","OBJECTID":385322},"geometry":{"x":166887.03000000026,"y":2541910.5500000026}},{"attributes":{"ID":385347,"DIS_CODE":0,"TOWNNAME":"南區","LI":"國宅里","LIN":"9鄰","STREET":"金華路","SECT":"二段","MAREA":" ","LANE":"２１巷","ALLEY":" ","HOUSE_NO":"４６號","E_COORD97":166887.10000000001,"N_COORD97":2541925.9300000002,"ADDRESS":"金華路二段２１巷４６號","OBJECTID":385323},"geometry":{"x":166887.10000000056,"y":2541925.9300000034}},{"attributes":{"ID":385348,"DIS_CODE":0,"TOWNNAME":"南區","LI":"國宅里","LIN":"9鄰","STREET":"金華路","SECT":"二段","MAREA":" ","LANE":"２７巷","ALLEY":" ","HOUSE_NO":"２７號","E_COORD97":166932.47,"N_COORD97":2541937.1400000001,"ADDRESS":"金華路二段２７巷２７號","OBJECTID":385324},"geometry":{"x":166932.47000000067,"y":2541937.1400000025}},{"attributes":{"ID":385349,"DIS_CODE":0,"TOWNNAME":"南區","LI":"國宅里","LIN":"9鄰","STREET":"金華路","SECT":"二段","MAREA":" ","LANE":"２７巷","ALLEY":" ","HOUSE_NO":"２８號","E_COORD97":166932.72,"N_COORD97":2541953.46,"ADDRESS":"金華路二段２７巷２８號","OBJECTID":385325},"geometry":{"x":166932.71999999974,"y":2541953.4600000009}},{"attributes":{"ID":385350,"DIS_CODE":0,"TOWNNAME":"南區","LI":"國宅里","LIN":"9鄰","STREET":"金華路","SECT":"二段","MAREA":" ","LANE":"２７巷","ALLEY":" ","HOUSE_NO":"２９號","E_COORD97":166927.26999999999,"N_COORD97":2541937.6800000002,"ADDRESS":"金華路二段２７巷２９號","OBJECTID":385326},"geometry":{"x":166927.26999999955,"y":2541937.6800000034}},{"attributes":{"ID":385351,"DIS_CODE":0,"TOWNNAME":"南區","LI":"國宅里","LIN":"9鄰","STREET":"金華路","SECT":"二段","MAREA":" ","LANE":"２７巷","ALLEY":" ","HOUSE_NO":"３０號","E_COORD97":166928.10999999999,"N_COORD97":2541953.7000000002,"ADDRESS":"金華路二段２７巷３０號","OBJECTID":385327},"geometry":{"x":166928.11000000127,"y":2541953.6999999974}},{"attributes":{"ID":385352,"DIS_CODE":0,"TOWNNAME":"南區","LI":"國宅里","LIN":"9鄰","STREET":"金華路","SECT":"二段","MAREA":" ","LANE":"２７巷","ALLEY":" ","HOUSE_NO":"３１號","E_COORD97":166922.39000000001,"N_COORD97":2541938.5600000001,"ADDRESS":"金華路二段２７巷３１號","OBJECTID":385328},"geometry":{"x":166922.3900000006,"y":2541938.5600000005}},{"attributes":{"ID":385353,"DIS_CODE":0,"TOWNNAME":"南區","LI":"國宅里","LIN":"9鄰","STREET":"金華路","SECT":"二段","MAREA":" ","LANE":"２７巷","ALLEY":" ","HOUSE_NO":"３２號","E_COORD97":166924.23000000001,"N_COORD97":2541954.1800000002,"ADDRESS":"金華路二段２７巷３２號","OBJECTID":385329},"geometry":{"x":166924.23000000138,"y":2541954.1799999997}},{"attributes":{"ID":385354,"DIS_CODE":0,"TOWNNAME":"南區","LI":"國宅里","LIN":"9鄰","STREET":"金華路","SECT":"二段","MAREA":" ","LANE":"２７巷","ALLEY":" ","HOUSE_NO":"３３號","E_COORD97":166917.95000000001,"N_COORD97":2541939.23,"ADDRESS":"金華路二段２７巷３３號","OBJECTID":385330},"geometry":{"x":166917.95000000019,"y":2541939.2300000023}},{"attributes":{"ID":385355,"DIS_CODE":0,"TOWNNAME":"南區","LI":"國宅里","LIN":"9鄰","STREET":"金華路","SECT":"二段","MAREA":" ","LANE":"２７巷","ALLEY":" ","HOUSE_NO":"３４號","E_COORD97":166918.64000000001,"N_COORD97":2541954.1800000002,"ADDRESS":"金華路二段２７巷３４號","OBJECTID":385331},"geometry":{"x":166918.64000000153,"y":2541954.1799999997}},{"attributes":{"ID":385356,"DIS_CODE":0,"TOWNNAME":"南區","LI":"國宅里","LIN":"9鄰","STREET":"金華路","SECT":"二段","MAREA":" ","LANE":"２７巷","ALLEY":" ","HOUSE_NO":"３５號","E_COORD97":166912.62,"N_COORD97":2541939.8900000001,"ADDRESS":"金華路二段２７巷３５號","OBJECTID":385332},"geometry":{"x":166912.62000000104,"y":2541939.8900000006}},{"attributes":{"ID":385357,"DIS_CODE":0,"TOWNNAME":"南區","LI":"國宅里","LIN":"9鄰","STREET":"金華路","SECT":"二段","MAREA":" ","LANE":"２７巷","ALLEY":" ","HOUSE_NO":"３６號","E_COORD97":166914.26999999999,"N_COORD97":2541954.6699999999,"ADDRESS":"金華路二段２７巷３６號","OBJECTID":385333},"geometry":{"x":166914.27000000142,"y":2541954.6699999981}},{"attributes":{"ID":385358,"DIS_CODE":0,"TOWNNAME":"南區","LI":"國宅里","LIN":"9鄰","STREET":"金華路","SECT":"二段","MAREA":" ","LANE":"２７巷","ALLEY":" ","HOUSE_NO":"３７號","E_COORD97":166908.17999999999,"N_COORD97":2541940.5600000001,"ADDRESS":"金華路二段２７巷３７號","OBJECTID":385334},"geometry":{"x":166908.18000000156,"y":2541940.5600000024}},{"attributes":{"ID":385359,"DIS_CODE":0,"TOWNNAME":"南區","LI":"國宅里","LIN":"9鄰","STREET":"金華路","SECT":"二段","MAREA":" ","LANE":"２７巷","ALLEY":" ","HOUSE_NO":"３８號","E_COORD97":166909.42000000001,"N_COORD97":2541955.1499999999,"ADDRESS":"金華路二段２７巷３８號","OBJECTID":385335},"geometry":{"x":166909.41999999993,"y":2541955.1500000004}},{"attributes":{"ID":385360,"DIS_CODE":0,"TOWNNAME":"南區","LI":"國宅里","LIN":"9鄰","STREET":"金華路","SECT":"二段","MAREA":" ","LANE":"２７巷","ALLEY":" ","HOUSE_NO":"３９號","E_COORD97":166902.64000000001,"N_COORD97":2541940.3399999999,"ADDRESS":"金華路二段２７巷３９號","OBJECTID":385336},"geometry":{"x":166902.63999999966,"y":2541940.3400000036}},{"attributes":{"ID":385361,"DIS_CODE":0,"TOWNNAME":"南區","LI":"國宅里","LIN":"9鄰","STREET":"金華路","SECT":"二段","MAREA":" ","LANE":"２７巷","ALLEY":" ","HOUSE_NO":"４０號","E_COORD97":166904.81,"N_COORD97":2541955.8799999999,"ADDRESS":"金華路二段２７巷４０號","OBJECTID":385337},"geometry":{"x":166904.80999999959,"y":2541955.8800000027}},{"attributes":{"ID":385362,"DIS_CODE":0,"TOWNNAME":"南區","LI":"國宅里","LIN":"9鄰","STREET":"金華路","SECT":"二段","MAREA":" ","LANE":"２７巷","ALLEY":" ","HOUSE_NO":"４１號","E_COORD97":166898.85999999999,"N_COORD97":2541940.7799999998,"ADDRESS":"金華路二段２７巷４１號","OBJECTID":385338},"geometry":{"x":166898.86000000034,"y":2541940.7800000012}},{"attributes":{"ID":385363,"DIS_CODE":0,"TOWNNAME":"南區","LI":"國宅里","LIN":"9鄰","STREET":"金華路","SECT":"二段","MAREA":" ","LANE":"２７巷","ALLEY":" ","HOUSE_NO":"４２號","E_COORD97":166899.95000000001,"N_COORD97":2541955.8799999999,"ADDRESS":"金華路二段２７巷４２號","OBJECTID":385339},"geometry":{"x":166899.94999999925,"y":2541955.8800000027}},{"attributes":{"ID":385364,"DIS_CODE":0,"TOWNNAME":"南區","LI":"國宅里","LIN":"9鄰","STREET":"金華路","SECT":"二段","MAREA":" ","LANE":"２７巷","ALLEY":" ","HOUSE_NO":"４３號","E_COORD97":166893.76000000001,"N_COORD97":2541941.2200000002,"ADDRESS":"金華路二段２７巷４３號","OBJECTID":385340},"geometry":{"x":166893.75999999978,"y":2541941.2200000007}},{"attributes":{"ID":385365,"DIS_CODE":0,"TOWNNAME":"南區","LI":"國宅里","LIN":"9鄰","STREET":"金華路","SECT":"二段","MAREA":" ","LANE":"２７巷","ALLEY":" ","HOUSE_NO":"４５號","E_COORD97":166889.32000000001,"N_COORD97":2541941.4399999999,"ADDRESS":"金華路二段２７巷４５號","OBJECTID":385341},"geometry":{"x":166889.32000000216,"y":2541941.4399999995}},{"attributes":{"ID":385366,"DIS_CODE":0,"TOWNNAME":"南區","LI":"國宅里","LIN":"9鄰","STREET":"金華路","SECT":"二段","MAREA":" ","LANE":"２７巷","ALLEY":" ","HOUSE_NO":"４６號","E_COORD97":166889.76000000001,"N_COORD97":2541956.1200000001,"ADDRESS":"金華路二段２７巷４６號","OBJECTID":385342},"geometry":{"x":166889.76000000071,"y":2541956.120000001}},{"attributes":{"ID":385367,"DIS_CODE":0,"TOWNNAME":"南區","LI":"喜北里","LIN":"9鄰","STREET":"喜樹路","SECT":" ","MAREA":" ","LANE":"１３４巷","ALLEY":" ","HOUSE_NO":"２號","E_COORD97":165824.14999999999,"N_COORD97":2538322.1099999999,"ADDRESS":"喜樹路１３４巷２號","OBJECTID":385343},"geometry":{"x":165824.15000000224,"y":2538322.1099999994}},{"attributes":{"ID":385368,"DIS_CODE":0,"TOWNNAME":"南區","LI":"喜北里","LIN":"9鄰","STREET":"喜樹路","SECT":" ","MAREA":" ","LANE":"１３４巷","ALLEY":" ","HOUSE_NO":"１５號","E_COORD97":165810.37,"N_COORD97":2538292.0600000001,"ADDRESS":"喜樹路１３４巷１５號","OBJECTID":385344},"geometry":{"x":165810.37000000011,"y":2538292.0600000024}},{"attributes":{"ID":385369,"DIS_CODE":0,"TOWNNAME":"南區","LI":"喜北里","LIN":"9鄰","STREET":"喜樹路","SECT":" ","MAREA":" ","LANE":"１３４巷","ALLEY":" ","HOUSE_NO":"１７號","E_COORD97":165803.56,"N_COORD97":2538292.2599999998,"ADDRESS":"喜樹路１３４巷１７號","OBJECTID":385345},"geometry":{"x":165803.56000000145,"y":2538292.2599999979}},{"attributes":{"ID":385370,"DIS_CODE":0,"TOWNNAME":"南區","LI":"喜北里","LIN":"9鄰","STREET":"喜樹路","SECT":" ","MAREA":" ","LANE":"１３４巷","ALLEY":" ","HOUSE_NO":"１９號","E_COORD97":165796.35000000001,"N_COORD97":2538292.1899999999,"ADDRESS":"喜樹路１３４巷１９號","OBJECTID":385346},"geometry":{"x":165796.34999999963,"y":2538292.1899999995}},{"attributes":{"ID":385371,"DIS_CODE":0,"TOWNNAME":"南區","LI":"喜北里","LIN":"9鄰","STREET":"喜樹路","SECT":" ","MAREA":" ","LANE":"１３４巷","ALLEY":" ","HOUSE_NO":"２１號","E_COORD97":165789.60999999999,"N_COORD97":2538292.1200000001,"ADDRESS":"喜樹路１３４巷２１號","OBJECTID":385347},"geometry":{"x":165789.61000000127,"y":2538292.1200000029}},{"attributes":{"ID":385372,"DIS_CODE":0,"TOWNNAME":"南區","LI":"喜北里","LIN":"9鄰","STREET":"喜樹路","SECT":" ","MAREA":" ","LANE":"１３４巷","ALLEY":" ","HOUSE_NO":"２３號","E_COORD97":165782.45999999999,"N_COORD97":2538292.5899999999,"ADDRESS":"喜樹路１３４巷２３號","OBJECTID":385348},"geometry":{"x":165782.45999999996,"y":2538292.5899999999}},{"attributes":{"ID":385373,"DIS_CODE":0,"TOWNNAME":"南區","LI":"喜北里","LIN":"9鄰","STREET":"喜樹路","SECT":" ","MAREA":" ","LANE":"１３４巷","ALLEY":" ","HOUSE_NO":"２５號","E_COORD97":165775.39000000001,"N_COORD97":2538292.2599999998,"ADDRESS":"喜樹路１３４巷２５號","OBJECTID":385349},"geometry":{"x":165775.38999999966,"y":2538292.2599999979}},{"attributes":{"ID":385374,"DIS_CODE":0,"TOWNNAME":"南區","LI":"喜北里","LIN":"9鄰","STREET":"喜樹路","SECT":" ","MAREA":" ","LANE":"１３４巷","ALLEY":" ","HOUSE_NO":"２７號","E_COORD97":165769.63,"N_COORD97":2538292.6499999999,"ADDRESS":"喜樹路１３４巷２７號","OBJECTID":385350},"geometry":{"x":165769.63000000175,"y":2538292.6500000004}},{"attributes":{"ID":385375,"DIS_CODE":0,"TOWNNAME":"南區","LI":"喜北里","LIN":"9鄰","STREET":"喜樹路","SECT":" ","MAREA":" ","LANE":"１４６巷","ALLEY":" ","HOUSE_NO":"２號","E_COORD97":165854.56,"N_COORD97":2538280.1600000001,"ADDRESS":"喜樹路１４６巷２號","OBJECTID":385351},"geometry":{"x":165854.56000000145,"y":2538280.1600000039}},{"attributes":{"ID":385376,"DIS_CODE":0,"TOWNNAME":"南區","LI":"喜北里","LIN":"9鄰","STREET":"喜樹路","SECT":" ","MAREA":" ","LANE":"１４６巷","ALLEY":" ","HOUSE_NO":"４號","E_COORD97":165854.42999999999,"N_COORD97":2538284.52,"ADDRESS":"喜樹路１４６巷４號","OBJECTID":385352},"geometry":{"x":165854.43000000063,"y":2538284.5200000014}},{"attributes":{"ID":385377,"DIS_CODE":0,"TOWNNAME":"南區","LI":"喜北里","LIN":"9鄰","STREET":"喜樹路","SECT":" ","MAREA":" ","LANE":"１４６巷","ALLEY":" ","HOUSE_NO":"６號","E_COORD97":165841.89999999999,"N_COORD97":2538282.4100000001,"ADDRESS":"喜樹路１４６巷６號","OBJECTID":385353},"geometry":{"x":165841.9000000013,"y":2538282.410000002}},{"attributes":{"ID":385378,"DIS_CODE":0,"TOWNNAME":"南區","LI":"喜北里","LIN":"9鄰","STREET":"喜樹路","SECT":" ","MAREA":" ","LANE":"１４６巷","ALLEY":" ","HOUSE_NO":"１０號","E_COORD97":165821.42000000001,"N_COORD97":2538282.0099999998,"ADDRESS":"喜樹路１４６巷１０號","OBJECTID":385354},"geometry":{"x":165821.41999999993,"y":2538282.0100000016}},{"attributes":{"ID":385379,"DIS_CODE":0,"TOWNNAME":"南區","LI":"喜北里","LIN":"9鄰","STREET":"喜樹路","SECT":" ","MAREA":" ","LANE":"１４６巷","ALLEY":" ","HOUSE_NO":"１２號","E_COORD97":165812.44,"N_COORD97":2538282.4100000001,"ADDRESS":"喜樹路１４６巷１２號","OBJECTID":385355},"geometry":{"x":165812.44000000134,"y":2538282.410000002}},{"attributes":{"ID":385380,"DIS_CODE":0,"TOWNNAME":"南區","LI":"喜北里","LIN":"9鄰","STREET":"喜樹路","SECT":" ","MAREA":" ","LANE":"１４６巷","ALLEY":" ","HOUSE_NO":"１４號","E_COORD97":165803.78,"N_COORD97":2538282.54,"ADDRESS":"喜樹路１４６巷１４號","OBJECTID":385356},"geometry":{"x":165803.78000000026,"y":2538282.5399999991}},{"attributes":{"ID":385381,"DIS_CODE":0,"TOWNNAME":"南區","LI":"喜北里","LIN":"9鄰","STREET":"喜樹路","SECT":" ","MAREA":" ","LANE":"１４６巷","ALLEY":" ","HOUSE_NO":"１６號","E_COORD97":165794.48999999999,"N_COORD97":2538282.6699999999,"ADDRESS":"喜樹路１４６巷１６號","OBJECTID":385357},"geometry":{"x":165794.48999999929,"y":2538282.6699999999}},{"attributes":{"ID":385382,"DIS_CODE":0,"TOWNNAME":"南區","LI":"喜北里","LIN":"9鄰","STREET":"喜樹路","SECT":" ","MAREA":" ","LANE":"１４６巷","ALLEY":" ","HOUSE_NO":"１８號","E_COORD97":165784.84,"N_COORD97":2538282.9300000002,"ADDRESS":"喜樹路１４６巷１８號","OBJECTID":385358},"geometry":{"x":165784.83999999985,"y":2538282.9299999997}},{"attributes":{"ID":385383,"DIS_CODE":0,"TOWNNAME":"南區","LI":"喜北里","LIN":"9鄰","STREET":"喜樹路","SECT":" ","MAREA":" ","LANE":"１４６巷","ALLEY":" ","HOUSE_NO":"２０號","E_COORD97":165774.72,"N_COORD97":2538283.2000000002,"ADDRESS":"喜樹路１４６巷２０號","OBJECTID":385359},"geometry":{"x":165774.71999999974,"y":2538283.2000000011}},{"attributes":{"ID":385384,"DIS_CODE":0,"TOWNNAME":"南區","LI":"喜東里","LIN":"9鄰","STREET":"喜樹路","SECT":" ","MAREA":" ","LANE":"１５１巷","ALLEY":" ","HOUSE_NO":"６１號","E_COORD97":165983.09,"N_COORD97":2537980.96,"ADDRESS":"喜樹路１５１巷６１號","OBJECTID":385360},"geometry":{"x":165983.08999999985,"y":2537980.9600000028}},{"attributes":{"ID":385385,"DIS_CODE":0,"TOWNNAME":"南區","LI":"喜東里","LIN":"9鄰","STREET":"喜樹路","SECT":" ","MAREA":" ","LANE":"１５１巷","ALLEY":" ","HOUSE_NO":"６１號之１","E_COORD97":165987.31,"N_COORD97":2537981.1699999999,"ADDRESS":"喜樹路１５１巷６１號之１","OBJECTID":385361},"geometry":{"x":165987.31000000052,"y":2537981.1699999981}},{"attributes":{"ID":385386,"DIS_CODE":0,"TOWNNAME":"南區","LI":"喜東里","LIN":"9鄰","STREET":"喜樹路","SECT":" ","MAREA":" ","LANE":"１５１巷","ALLEY":" ","HOUSE_NO":"６１號之２","E_COORD97":165991.94,"N_COORD97":2537981.0600000001,"ADDRESS":"喜樹路１５１巷６１號之２","OBJECTID":385362},"geometry":{"x":165991.94000000134,"y":2537981.0600000005}},{"attributes":{"ID":385387,"DIS_CODE":0,"TOWNNAME":"南區","LI":"喜東里","LIN":"9鄰","STREET":"喜樹路","SECT":" ","MAREA":" ","LANE":"１５１巷","ALLEY":" ","HOUSE_NO":"６１號之３","E_COORD97":165996.16,"N_COORD97":2537980.8599999999,"ADDRESS":"喜樹路１５１巷６１號之３","OBJECTID":385363},"geometry":{"x":165996.16000000015,"y":2537980.8600000013}},{"attributes":{"ID":385388,"DIS_CODE":0,"TOWNNAME":"南區","LI":"喜東里","LIN":"9鄰","STREET":"喜樹路","SECT":" ","MAREA":" ","LANE":"１５１巷","ALLEY":" ","HOUSE_NO":"６１號之４","E_COORD97":166000.57999999999,"N_COORD97":2537980.7599999998,"ADDRESS":"喜樹路１５１巷６１號之４","OBJECTID":385364},"geometry":{"x":166000.58000000194,"y":2537980.7600000035}},{"attributes":{"ID":385389,"DIS_CODE":0,"TOWNNAME":"南區","LI":"喜東里","LIN":"9鄰","STREET":"喜樹路","SECT":" ","MAREA":" ","LANE":"１５１巷","ALLEY":" ","HOUSE_NO":"６１號之５","E_COORD97":166005,"N_COORD97":2537980.6499999999,"ADDRESS":"喜樹路１５１巷６１號之５","OBJECTID":385365},"geometry":{"x":166005.00000000093,"y":2537980.6500000004}},{"attributes":{"ID":385390,"DIS_CODE":0,"TOWNNAME":"南區","LI":"喜東里","LIN":"9鄰","STREET":"喜樹路","SECT":" ","MAREA":" ","LANE":"１５１巷","ALLEY":" ","HOUSE_NO":"６１號之６","E_COORD97":166009.22,"N_COORD97":2537980.5499999998,"ADDRESS":"喜樹路１５１巷６１號之６","OBJECTID":385366},"geometry":{"x":166009.21999999974,"y":2537980.5500000026}},{"attributes":{"ID":385391,"DIS_CODE":0,"TOWNNAME":"南區","LI":"喜東里","LIN":"9鄰","STREET":"喜樹路","SECT":" ","MAREA":" ","LANE":"１５１巷","ALLEY":" ","HOUSE_NO":"６１號之７","E_COORD97":166013.73999999999,"N_COORD97":2537980.1400000001,"ADDRESS":"喜樹路１５１巷６１號之７","OBJECTID":385367},"geometry":{"x":166013.74000000115,"y":2537980.1400000025}},{"attributes":{"ID":385392,"DIS_CODE":0,"TOWNNAME":"安南區","LI":"大安里","LIN":"9鄰","STREET":"大安街","SECT":" ","MAREA":" ","LANE":"２０８巷","ALLEY":" ","HOUSE_NO":"７號","E_COORD97":167442.03,"N_COORD97":2548303.3900000001,"ADDRESS":"大安街２０８巷７號","OBJECTID":385368},"geometry":{"x":167442.03000000212,"y":2548303.3900000006}},{"attributes":{"ID":385393,"DIS_CODE":0,"TOWNNAME":"南區","LI":"喜東里","LIN":"9鄰","STREET":"喜樹路","SECT":" ","MAREA":" ","LANE":"１５１巷","ALLEY":" ","HOUSE_NO":"６１號之８","E_COORD97":166017.64999999999,"N_COORD97":2537979.8300000001,"ADDRESS":"喜樹路１５１巷６１號之８","OBJECTID":385369},"geometry":{"x":166017.6500000013,"y":2537979.8300000001}},{"attributes":{"ID":385394,"DIS_CODE":0,"TOWNNAME":"南區","LI":"喜東里","LIN":"9鄰","STREET":"喜樹路","SECT":" ","MAREA":" ","LANE":"１５１巷","ALLEY":" ","HOUSE_NO":"６１號之９","E_COORD97":166022.17000000001,"N_COORD97":2537978.3900000001,"ADDRESS":"喜樹路１５１巷６１號之９","OBJECTID":385370},"geometry":{"x":166022.17000000086,"y":2537978.3900000025}},{"attributes":{"ID":385395,"DIS_CODE":0,"TOWNNAME":"永康區","LI":"東橋里","LIN":"9鄰","STREET":"中山南路","SECT":" ","MAREA":" ","LANE":"２３１巷","ALLEY":" ","HOUSE_NO":"４６號","E_COORD97":171575.07000000001,"N_COORD97":2546281.2200000002,"ADDRESS":"中山南路２３１巷４６號","OBJECTID":385371},"geometry":{"x":171575.07000000123,"y":2546281.2199999988}},{"attributes":{"ID":385396,"DIS_CODE":0,"TOWNNAME":"永康區","LI":"東橋里","LIN":"9鄰","STREET":"中山南路","SECT":" ","MAREA":" ","LANE":"１９５巷","ALLEY":" ","HOUSE_NO":"２３號","E_COORD97":171504.70000000001,"N_COORD97":2546303.7200000002,"ADDRESS":"中山南路１９５巷２３號","OBJECTID":385372},"geometry":{"x":171504.70000000112,"y":2546303.7200000007}},{"attributes":{"ID":385397,"DIS_CODE":0,"TOWNNAME":"永康區","LI":"東灣里","LIN":"9鄰","STREET":"大灣路","SECT":" ","MAREA":" ","LANE":"４５０巷","ALLEY":" ","HOUSE_NO":"９號","E_COORD97":174714.32000000001,"N_COORD97":2544949.23,"ADDRESS":"大灣路４５０巷９號","OBJECTID":385373},"geometry":{"x":174714.32000000216,"y":2544949.2300000023}},{"attributes":{"ID":385398,"DIS_CODE":0,"TOWNNAME":"永康區","LI":"東灣里","LIN":"9鄰","STREET":"大灣路","SECT":" ","MAREA":" ","LANE":"４５０巷","ALLEY":" ","HOUSE_NO":"７號","E_COORD97":174724.01999999999,"N_COORD97":2544947.8199999998,"ADDRESS":"大灣路４５０巷７號","OBJECTID":385374},"geometry":{"x":174724.02000000142,"y":2544947.8199999984}},{"attributes":{"ID":385399,"DIS_CODE":0,"TOWNNAME":"永康區","LI":"埔園里","LIN":"9鄰","STREET":"中山路","SECT":" ","MAREA":" ","LANE":"１１３巷","ALLEY":" ","HOUSE_NO":"１３號","E_COORD97":173703.73999999999,"N_COORD97":2547837.9900000002,"ADDRESS":"中山路１１３巷１３號","OBJECTID":385375},"geometry":{"x":173703.74000000022,"y":2547837.9900000002}},{"attributes":{"ID":385400,"DIS_CODE":0,"TOWNNAME":"永康區","LI":"東灣里","LIN":"9鄰","STREET":"立興街","SECT":" ","MAREA":" ","LANE":"２８巷","ALLEY":" ","HOUSE_NO":"２８號","E_COORD97":174718.23999999999,"N_COORD97":2544922.2400000002,"ADDRESS":"立興街２８巷２８號","OBJECTID":385376},"geometry":{"x":174718.24000000115,"y":2544922.2400000021}},{"attributes":{"ID":385401,"DIS_CODE":0,"TOWNNAME":"永康區","LI":"埔園里","LIN":"9鄰","STREET":"中山路","SECT":" ","MAREA":" ","LANE":"１０１巷","ALLEY":" ","HOUSE_NO":"２號之１","E_COORD97":173733.23000000001,"N_COORD97":2547819.29,"ADDRESS":"中山路１０１巷２號之１","OBJECTID":385377},"geometry":{"x":173733.23000000045,"y":2547819.290000001}},{"attributes":{"ID":385402,"DIS_CODE":0,"TOWNNAME":"永康區","LI":"埔園里","LIN":"9鄰","STREET":"中山路","SECT":" ","MAREA":" ","LANE":"１０１巷","ALLEY":" ","HOUSE_NO":"６號","E_COORD97":173707.14000000001,"N_COORD97":2547812.9500000002,"ADDRESS":"中山路１０１巷６號","OBJECTID":385378},"geometry":{"x":173707.13999999966,"y":2547812.9499999993}},{"attributes":{"ID":385403,"DIS_CODE":0,"TOWNNAME":"永康區","LI":"東橋里","LIN":"9鄰","STREET":"中山南路","SECT":" ","MAREA":" ","LANE":"１９５巷","ALLEY":" ","HOUSE_NO":"２２號","E_COORD97":171507.39999999999,"N_COORD97":2546299.46,"ADDRESS":"中山南路１９５巷２２號","OBJECTID":385379},"geometry":{"x":171507.40000000037,"y":2546299.4600000009}},{"attributes":{"ID":385404,"DIS_CODE":0,"TOWNNAME":"安南區","LI":"淵東里","LIN":"9鄰","STREET":"本原街","SECT":"三段","MAREA":" ","LANE":"３２１巷","ALLEY":" ","HOUSE_NO":"２２號","E_COORD97":165383.44,"N_COORD97":2550140.2200000002,"ADDRESS":"本原街三段３２１巷２２號","OBJECTID":385380},"geometry":{"x":165383.44000000134,"y":2550140.2200000025}},{"attributes":{"ID":385405,"DIS_CODE":0,"TOWNNAME":"安南區","LI":"淵東里","LIN":"9鄰","STREET":"本原街","SECT":"三段","MAREA":" ","LANE":"３２１巷","ALLEY":" ","HOUSE_NO":"２６號","E_COORD97":165396.25,"N_COORD97":2550164.7200000002,"ADDRESS":"本原街三段３２１巷２６號","OBJECTID":385381},"geometry":{"x":165396.25000000093,"y":2550164.7200000025}},{"attributes":{"ID":385406,"DIS_CODE":0,"TOWNNAME":"安南區","LI":"淵東里","LIN":"9鄰","STREET":"本原街","SECT":"三段","MAREA":" ","LANE":"３２１巷","ALLEY":" ","HOUSE_NO":"２９號","E_COORD97":165375.37,"N_COORD97":2550175.23,"ADDRESS":"本原街三段３２１巷２９號","OBJECTID":385382},"geometry":{"x":165375.37000000104,"y":2550175.2300000004}},{"attributes":{"ID":385407,"DIS_CODE":0,"TOWNNAME":"安南區","LI":"淵東里","LIN":"9鄰","STREET":"本原街","SECT":"三段","MAREA":" ","LANE":"３２１巷","ALLEY":" ","HOUSE_NO":"３６號","E_COORD97":165380.79000000001,"N_COORD97":2550159.02,"ADDRESS":"本原街三段３２１巷３６號","OBJECTID":385383},"geometry":{"x":165380.79000000097,"y":2550159.0199999996}},{"attributes":{"ID":385408,"DIS_CODE":0,"TOWNNAME":"安南區","LI":"淵東里","LIN":"9鄰","STREET":"本原街","SECT":"三段","MAREA":" ","LANE":"３２１巷","ALLEY":" ","HOUSE_NO":"３９號","E_COORD97":165383.07000000001,"N_COORD97":2550201.8399999999,"ADDRESS":"本原街三段３２１巷３９號","OBJECTID":385384},"geometry":{"x":165383.0700000003,"y":2550201.8399999999}},{"attributes":{"ID":385409,"DIS_CODE":0,"TOWNNAME":"安南區","LI":"淵東里","LIN":"9鄰","STREET":"安中路","SECT":"三段","MAREA":" ","LANE":"４４２巷","ALLEY":" ","HOUSE_NO":"１號","E_COORD97":165356.57000000001,"N_COORD97":2550131.7200000002,"ADDRESS":"安中路三段４４２巷１號","OBJECTID":385385},"geometry":{"x":165356.5700000003,"y":2550131.7200000007}},{"attributes":{"ID":385410,"DIS_CODE":0,"TOWNNAME":"安南區","LI":"南興里","LIN":"9鄰","STREET":"安興街","SECT":" ","MAREA":" ","LANE":"６３２巷","ALLEY":" ","HOUSE_NO":"２７號","E_COORD97":163561.09,"N_COORD97":2552482.8199999998,"ADDRESS":"安興街６３２巷２７號","OBJECTID":385386},"geometry":{"x":163561.09000000078,"y":2552482.8200000022}},{"attributes":{"ID":385411,"DIS_CODE":0,"TOWNNAME":"安南區","LI":"南興里","LIN":"9鄰","STREET":"安興街","SECT":" ","MAREA":" ","LANE":"６３２巷","ALLEY":" ","HOUSE_NO":"３７號","E_COORD97":163592.73000000001,"N_COORD97":2552475.75,"ADDRESS":"安興街６３２巷３７號","OBJECTID":385387},"geometry":{"x":163592.72999999952,"y":2552475.7500000019}},{"attributes":{"ID":385412,"DIS_CODE":0,"TOWNNAME":"安南區","LI":"南興里","LIN":"9鄰","STREET":"安興街","SECT":" ","MAREA":" ","LANE":"６３２巷","ALLEY":" ","HOUSE_NO":"４５號","E_COORD97":163622.14000000001,"N_COORD97":2552476.8700000001,"ADDRESS":"安興街６３２巷４５號","OBJECTID":385388},"geometry":{"x":163622.1400000006,"y":2552476.870000001}},{"attributes":{"ID":385413,"DIS_CODE":0,"TOWNNAME":"安南區","LI":"南興里","LIN":"9鄰","STREET":"安興街","SECT":" ","MAREA":" ","LANE":"６４０巷","ALLEY":" ","HOUSE_NO":"３７號","E_COORD97":163603.51000000001,"N_COORD97":2552494.9700000002,"ADDRESS":"安興街６４０巷３７號","OBJECTID":385389},"geometry":{"x":163603.50999999978,"y":2552494.9700000025}},{"attributes":{"ID":385414,"DIS_CODE":0,"TOWNNAME":"安南區","LI":"南興里","LIN":"9鄰","STREET":"安興街","SECT":" ","MAREA":" ","LANE":"６４０巷","ALLEY":" ","HOUSE_NO":"４７號","E_COORD97":163631.73000000001,"N_COORD97":2552505.4700000002,"ADDRESS":"安興街６４０巷４７號","OBJECTID":385390},"geometry":{"x":163631.72999999952,"y":2552505.4700000025}},{"attributes":{"ID":385415,"DIS_CODE":0,"TOWNNAME":"安南區","LI":"南興里","LIN":"9鄰","STREET":"安興街","SECT":" ","MAREA":" ","LANE":"６４６巷","ALLEY":" ","HOUSE_NO":"２９號","E_COORD97":163565.06,"N_COORD97":2552546.3399999999,"ADDRESS":"安興街６４６巷２９號","OBJECTID":385391},"geometry":{"x":163565.06000000052,"y":2552546.3400000017}},{"attributes":{"ID":385416,"DIS_CODE":0,"TOWNNAME":"安南區","LI":"南興里","LIN":"9鄰","STREET":"安興街","SECT":" ","MAREA":" ","LANE":"６４６巷","ALLEY":" ","HOUSE_NO":"５１號","E_COORD97":163659.98000000001,"N_COORD97":2552535.1899999999,"ADDRESS":"安興街６４６巷５１號","OBJECTID":385392},"geometry":{"x":163659.98000000045,"y":2552535.1899999995}},{"attributes":{"ID":385417,"DIS_CODE":0,"TOWNNAME":"安南區","LI":"學東里","LIN":"9鄰","STREET":"公學路","SECT":"六段","MAREA":" ","LANE":"６４２巷","ALLEY":" ","HOUSE_NO":"３６號","E_COORD97":162294.54000000001,"N_COORD97":2553318.8900000001,"ADDRESS":"公學路六段６４２巷３６號","OBJECTID":385393},"geometry":{"x":162294.54000000004,"y":2553318.8900000043}},{"attributes":{"ID":385418,"DIS_CODE":0,"TOWNNAME":"安南區","LI":"學東里","LIN":"9鄰","STREET":"公學路","SECT":"六段","MAREA":" ","LANE":"６４２巷","ALLEY":" ","HOUSE_NO":"４８號","E_COORD97":162358.91,"N_COORD97":2553362.21,"ADDRESS":"公學路六段６４２巷４８號","OBJECTID":385394},"geometry":{"x":162358.91000000201,"y":2553362.2100000028}},{"attributes":{"ID":385419,"DIS_CODE":0,"TOWNNAME":"安南區","LI":"學東里","LIN":"9鄰","STREET":"公學路","SECT":"六段","MAREA":" ","LANE":"６４２巷","ALLEY":" ","HOUSE_NO":"５０號","E_COORD97":162328.13,"N_COORD97":2553375.4500000002,"ADDRESS":"公學路六段６４２巷５０號","OBJECTID":385395},"geometry":{"x":162328.12999999989,"y":2553375.4500000011}},{"attributes":{"ID":385420,"DIS_CODE":0,"TOWNNAME":"安南區","LI":"學東里","LIN":"9鄰","STREET":"公學路","SECT":"六段","MAREA":" ","LANE":"６４２巷","ALLEY":" ","HOUSE_NO":"５６號","E_COORD97":162307.31,"N_COORD97":2553367.54,"ADDRESS":"公學路六段６４２巷５６號","OBJECTID":385396},"geometry":{"x":162307.30999999959,"y":2553367.540000001}},{"attributes":{"ID":385421,"DIS_CODE":0,"TOWNNAME":"安南區","LI":"學東里","LIN":"9鄰","STREET":"公學路","SECT":"六段","MAREA":" ","LANE":"６４２巷","ALLEY":" ","HOUSE_NO":"６０號","E_COORD97":162316.47,"N_COORD97":2553380.23,"ADDRESS":"公學路六段６４２巷６０號","OBJECTID":385397},"geometry":{"x":162316.47000000067,"y":2553380.2300000004}},{"attributes":{"ID":385422,"DIS_CODE":0,"TOWNNAME":"安南區","LI":"學東里","LIN":"9鄰","STREET":"公學路","SECT":"六段","MAREA":" ","LANE":"６４２巷","ALLEY":" ","HOUSE_NO":"６２號","E_COORD97":162314.17999999999,"N_COORD97":2553402.27,"ADDRESS":"公學路六段６４２巷６２號","OBJECTID":385398},"geometry":{"x":162314.18000000156,"y":2553402.2699999996}},{"attributes":{"ID":385423,"DIS_CODE":0,"TOWNNAME":"安南區","LI":"學東里","LIN":"9鄰","STREET":"公學路","SECT":"六段","MAREA":" ","LANE":"６４２巷","ALLEY":" ","HOUSE_NO":"８號","E_COORD97":162287.22,"N_COORD97":2553284.4500000002,"ADDRESS":"公學路六段６４２巷８號","OBJECTID":385399},"geometry":{"x":162287.22000000067,"y":2553284.4500000011}},{"attributes":{"ID":385424,"DIS_CODE":0,"TOWNNAME":"安南區","LI":"城東里","LIN":"9鄰","STREET":"城北路","SECT":" ","MAREA":" ","LANE":"１１２巷","ALLEY":" ","HOUSE_NO":"１３號","E_COORD97":161054.48999999999,"N_COORD97":2551629.4900000002,"ADDRESS":"城北路１１２巷１３號","OBJECTID":385400},"geometry":{"x":161054.49000000022,"y":2551629.4900000021}}]}