{"displayFieldName":"TOWNNAME","fieldAliases":{"ID":"ID","DIS_CODE":"DIS_CODE","TOWNNAME":"TOWNNAME","LI":"LI","LIN":"LIN","STREET":"STREET","SECT":"SECT","MAREA":"MAREA","LANE":"LANE","ALLEY":"ALLEY","HOUSE_NO":"HOUSE_NO","E_COORD97":"E_COORD97","N_COORD97":"N_COORD97","ADDRESS":"ADDRESS","OBJECTID":"OBJECTID"},"geometryType":"esriGeometryPoint","spatialReference":{"wkid":102443,"latestWkid":3826},"fields":[{"name":"ID","type":"esriFieldTypeDouble","alias":"ID"},{"name":"DIS_CODE","type":"esriFieldTypeInteger","alias":"DIS_CODE"},{"name":"TOWNNAME","type":"esriFieldTypeString","alias":"TOWNNAME","length":8},{"name":"LI","type":"esriFieldTypeString","alias":"LI","length":8},{"name":"LIN","type":"esriFieldTypeString","alias":"LIN","length":12},{"name":"STREET","type":"esriFieldTypeString","alias":"STREET","length":20},{"name":"SECT","type":"esriFieldTypeString","alias":"SECT","length":8},{"name":"MAREA","type":"esriFieldTypeString","alias":"MAREA","length":12},{"name":"LANE","type":"esriFieldTypeString","alias":"LANE","length":10},{"name":"ALLEY","type":"esriFieldTypeString","alias":"ALLEY","length":10},{"name":"HOUSE_NO","type":"esriFieldTypeString","alias":"HOUSE_NO","length":20},{"name":"E_COORD97","type":"esriFieldTypeDouble","alias":"E_COORD97"},{"name":"N_COORD97","type":"esriFieldTypeDouble","alias":"N_COORD97"},{"name":"ADDRESS","type":"esriFieldTypeString","alias":"ADDRESS","length":50},{"name":"OBJECTID","type":"esriFieldTypeOID","alias":"OBJECTID"}],"features":[{"attributes":{"ID":553028,"DIS_CODE":0,"TOWNNAME":"安南區","LI":"新順里","LIN":"10鄰","STREET":"育安二街","SECT":" ","MAREA":" ","LANE":" ","ALLEY":" ","HOUSE_NO":"６０號","E_COORD97":169715.48000000001,"N_COORD97":2549781.46,"ADDRESS":"育安二街６０號","OBJECTID":553001},"geometry":{"x":169715.48000000045,"y":2549781.4600000009}},{"attributes":{"ID":553029,"DIS_CODE":0,"TOWNNAME":"白河區","LI":"外角里","LIN":"10鄰","STREET":"三民路","SECT":" ","MAREA":" ","LANE":" ","ALLEY":" ","HOUSE_NO":"４２之１號","E_COORD97":191229.54999999999,"N_COORD97":2583272.1800000002,"ADDRESS":"三民路４２之１號","OBJECTID":553002},"geometry":{"x":191229.54999999981,"y":2583272.1799999997}},{"attributes":{"ID":553030,"DIS_CODE":0,"TOWNNAME":"白河區","LI":"外角里","LIN":"10鄰","STREET":"三民路","SECT":" ","MAREA":" ","LANE":" ","ALLEY":" ","HOUSE_NO":"４２號","E_COORD97":191227.54999999999,"N_COORD97":2583275.9900000002,"ADDRESS":"三民路４２號","OBJECTID":553003},"geometry":{"x":191227.54999999981,"y":2583275.9900000021}},{"attributes":{"ID":553031,"DIS_CODE":0,"TOWNNAME":"白河區","LI":"外角里","LIN":"10鄰","STREET":"三民路","SECT":" ","MAREA":" ","LANE":" ","ALLEY":" ","HOUSE_NO":"４６號","E_COORD97":191231.94,"N_COORD97":2583268.9100000001,"ADDRESS":"三民路４６號","OBJECTID":553004},"geometry":{"x":191231.94000000134,"y":2583268.9100000039}},{"attributes":{"ID":553032,"DIS_CODE":0,"TOWNNAME":"白河區","LI":"外角里","LIN":"10鄰","STREET":"三民路","SECT":" ","MAREA":" ","LANE":" ","ALLEY":" ","HOUSE_NO":"４７號","E_COORD97":191276.48999999999,"N_COORD97":2583271.6099999999,"ADDRESS":"三民路４７號","OBJECTID":553005},"geometry":{"x":191276.49000000022,"y":2583271.6099999994}},{"attributes":{"ID":553033,"DIS_CODE":0,"TOWNNAME":"白河區","LI":"外角里","LIN":"10鄰","STREET":"三民路","SECT":" ","MAREA":" ","LANE":" ","ALLEY":" ","HOUSE_NO":"４８號","E_COORD97":191242.12,"N_COORD97":2583257.3199999998,"ADDRESS":"三民路４８號","OBJECTID":553006},"geometry":{"x":191242.12000000104,"y":2583257.3200000022}},{"attributes":{"ID":553034,"DIS_CODE":0,"TOWNNAME":"白河區","LI":"外角里","LIN":"10鄰","STREET":"三民路","SECT":" ","MAREA":" ","LANE":" ","ALLEY":" ","HOUSE_NO":"５０號","E_COORD97":191238.92999999999,"N_COORD97":2583255.0899999999,"ADDRESS":"三民路５０號","OBJECTID":553007},"geometry":{"x":191238.9299999997,"y":2583255.0900000017}},{"attributes":{"ID":553035,"DIS_CODE":0,"TOWNNAME":"白河區","LI":"外角里","LIN":"10鄰","STREET":"三民路","SECT":" ","MAREA":" ","LANE":" ","ALLEY":" ","HOUSE_NO":"５２號","E_COORD97":191235.26999999999,"N_COORD97":2583252.8599999999,"ADDRESS":"三民路５２號","OBJECTID":553008},"geometry":{"x":191235.27000000048,"y":2583252.8600000013}},{"attributes":{"ID":553036,"DIS_CODE":0,"TOWNNAME":"白河區","LI":"外角里","LIN":"10鄰","STREET":"三民路","SECT":" ","MAREA":" ","LANE":" ","ALLEY":" ","HOUSE_NO":"６０號","E_COORD97":191220.22,"N_COORD97":2583245.8599999999,"ADDRESS":"三民路６０號","OBJECTID":553009},"geometry":{"x":191220.21999999881,"y":2583245.8600000013}},{"attributes":{"ID":553037,"DIS_CODE":0,"TOWNNAME":"白河區","LI":"外角里","LIN":"10鄰","STREET":"三民路","SECT":" ","MAREA":" ","LANE":" ","ALLEY":" ","HOUSE_NO":"６２號","E_COORD97":191210.70999999999,"N_COORD97":2583244.27,"ADDRESS":"三民路６２號","OBJECTID":553010},"geometry":{"x":191210.71000000089,"y":2583244.2699999996}},{"attributes":{"ID":553038,"DIS_CODE":0,"TOWNNAME":"白河區","LI":"外角里","LIN":"10鄰","STREET":"三民路","SECT":" ","MAREA":" ","LANE":" ","ALLEY":" ","HOUSE_NO":"７３號","E_COORD97":191115.88,"N_COORD97":2583261.0800000001,"ADDRESS":"三民路７３號","OBJECTID":553011},"geometry":{"x":191115.87999999896,"y":2583261.0800000019}},{"attributes":{"ID":553039,"DIS_CODE":0,"TOWNNAME":"白河區","LI":"外角里","LIN":"10鄰","STREET":"三民路","SECT":" ","MAREA":" ","LANE":" ","ALLEY":" ","HOUSE_NO":"８２之１號","E_COORD97":191158.13,"N_COORD97":2583259.1600000001,"ADDRESS":"三民路８２之１號","OBJECTID":553012},"geometry":{"x":191158.12999999989,"y":2583259.1600000001}},{"attributes":{"ID":553040,"DIS_CODE":0,"TOWNNAME":"永康區","LI":"\u25A0行里","LIN":"10鄰","STREET":"中正路","SECT":" ","MAREA":" ","LANE":" ","ALLEY":" ","HOUSE_NO":"４８７號","E_COORD97":172248.42999999999,"N_COORD97":2548626.6899999999,"ADDRESS":"中正路４８７號","OBJECTID":553013},"geometry":{"x":172248.43000000063,"y":2548626.6900000032}},{"attributes":{"ID":553041,"DIS_CODE":0,"TOWNNAME":"永康區","LI":"王行里","LIN":"10鄰","STREET":"王行路","SECT":" ","MAREA":" ","LANE":" ","ALLEY":" ","HOUSE_NO":"１０６８號","E_COORD97":175718.20000000001,"N_COORD97":2550187.9900000002,"ADDRESS":"王行路１０６８號","OBJECTID":553014},"geometry":{"x":175718.20000000019,"y":2550187.9899999984}},{"attributes":{"ID":553042,"DIS_CODE":0,"TOWNNAME":"永康區","LI":"\u25A0洲里","LIN":"10鄰","STREET":"\u25A0行路","SECT":" ","MAREA":" ","LANE":" ","ALLEY":" ","HOUSE_NO":"１０２之１號","E_COORD97":171516.70999999999,"N_COORD97":2549270.79,"ADDRESS":"\u25A0行路１０２之１號","OBJECTID":553015},"geometry":{"x":171516.70999999996,"y":2549270.790000001}},{"attributes":{"ID":553043,"DIS_CODE":0,"TOWNNAME":"永康區","LI":"\u25A0洲里","LIN":"10鄰","STREET":"\u25A0行路","SECT":" ","MAREA":" ","LANE":" ","ALLEY":" ","HOUSE_NO":"１０１號","E_COORD97":171476.91,"N_COORD97":2549227.5,"ADDRESS":"\u25A0行路１０１號","OBJECTID":553016},"geometry":{"x":171476.91000000015,"y":2549227.5}},{"attributes":{"ID":553044,"DIS_CODE":0,"TOWNNAME":"永康區","LI":"\u25A0洲里","LIN":"10鄰","STREET":"\u25A0行路","SECT":" ","MAREA":" ","LANE":" ","ALLEY":" ","HOUSE_NO":"１０７號","E_COORD97":171465.79999999999,"N_COORD97":2549220.5,"ADDRESS":"\u25A0行路１０７號","OBJECTID":553017},"geometry":{"x":171465.80000000168,"y":2549220.5}},{"attributes":{"ID":553045,"DIS_CODE":0,"TOWNNAME":"永康區","LI":"\u25A0洲里","LIN":"10鄰","STREET":"\u25A0行路","SECT":" ","MAREA":" ","LANE":" ","ALLEY":" ","HOUSE_NO":"１２６號","E_COORD97":171479.10000000001,"N_COORD97":2549247,"ADDRESS":"\u25A0行路１２６號","OBJECTID":553018},"geometry":{"x":171479.10000000056,"y":2549247.0000000019}},{"attributes":{"ID":553046,"DIS_CODE":0,"TOWNNAME":"永康區","LI":"\u25A0洲里","LIN":"10鄰","STREET":"\u25A0行路","SECT":" ","MAREA":" ","LANE":" ","ALLEY":" ","HOUSE_NO":"１０９號","E_COORD97":171461.67000000001,"N_COORD97":2549218,"ADDRESS":"\u25A0行路１０９號","OBJECTID":553019},"geometry":{"x":171461.66999999899,"y":2549218}},{"attributes":{"ID":553047,"DIS_CODE":0,"TOWNNAME":"永康區","LI":"中華里","LIN":"10鄰","STREET":"小東路","SECT":" ","MAREA":" ","LANE":" ","ALLEY":" ","HOUSE_NO":"６０５號","E_COORD97":171835.54000000001,"N_COORD97":2544341.2000000002,"ADDRESS":"小東路６０５號","OBJECTID":553020},"geometry":{"x":171835.54000000004,"y":2544341.2000000011}},{"attributes":{"ID":553048,"DIS_CODE":0,"TOWNNAME":"安南區","LI":"大安里","LIN":"10鄰","STREET":"大安街","SECT":" ","MAREA":" ","LANE":" ","ALLEY":" ","HOUSE_NO":"２４６號","E_COORD97":167456.66,"N_COORD97":2548391.2599999998,"ADDRESS":"大安街２４６號","OBJECTID":553021},"geometry":{"x":167456.66000000108,"y":2548391.2599999998}},{"attributes":{"ID":553049,"DIS_CODE":0,"TOWNNAME":"安南區","LI":"大安里","LIN":"10鄰","STREET":"大安街","SECT":" ","MAREA":" ","LANE":" ","ALLEY":" ","HOUSE_NO":"２４８號","E_COORD97":167458.42999999999,"N_COORD97":2548395.2999999998,"ADDRESS":"大安街２４８號","OBJECTID":553022},"geometry":{"x":167458.4299999997,"y":2548395.3000000007}},{"attributes":{"ID":553050,"DIS_CODE":0,"TOWNNAME":"安南區","LI":"大安里","LIN":"10鄰","STREET":"大安街","SECT":" ","MAREA":" ","LANE":" ","ALLEY":" ","HOUSE_NO":"２６０號","E_COORD97":167482.59,"N_COORD97":2548430.48,"ADDRESS":"大安街２６０號","OBJECTID":553023},"geometry":{"x":167482.59000000078,"y":2548430.4800000023}},{"attributes":{"ID":553051,"DIS_CODE":0,"TOWNNAME":"安南區","LI":"大安里","LIN":"10鄰","STREET":"大安街","SECT":" ","MAREA":" ","LANE":" ","ALLEY":" ","HOUSE_NO":"２６２號","E_COORD97":167487.07999999999,"N_COORD97":2548433.75,"ADDRESS":"大安街２６２號","OBJECTID":553024},"geometry":{"x":167487.08000000007,"y":2548433.7500000019}},{"attributes":{"ID":553052,"DIS_CODE":0,"TOWNNAME":"安南區","LI":"大安里","LIN":"10鄰","STREET":"理安街","SECT":" ","MAREA":" ","LANE":" ","ALLEY":" ","HOUSE_NO":"２０３號","E_COORD97":167535.44,"N_COORD97":2548317.5499999998,"ADDRESS":"理安街２０３號","OBJECTID":553025},"geometry":{"x":167535.44000000041,"y":2548317.5500000026}},{"attributes":{"ID":553053,"DIS_CODE":0,"TOWNNAME":"安南區","LI":"大安里","LIN":"10鄰","STREET":"理安街","SECT":" ","MAREA":" ","LANE":" ","ALLEY":" ","HOUSE_NO":"２０５號","E_COORD97":167537.92000000001,"N_COORD97":2548321.27,"ADDRESS":"理安街２０５號","OBJECTID":553026},"geometry":{"x":167537.92000000086,"y":2548321.2700000014}},{"attributes":{"ID":553054,"DIS_CODE":0,"TOWNNAME":"安南區","LI":"大安里","LIN":"10鄰","STREET":"理安街","SECT":" ","MAREA":" ","LANE":" ","ALLEY":" ","HOUSE_NO":"２１３號","E_COORD97":167547.26999999999,"N_COORD97":2548337.1400000001,"ADDRESS":"理安街２１３號","OBJECTID":553027},"geometry":{"x":167547.27000000048,"y":2548337.1400000025}},{"attributes":{"ID":553055,"DIS_CODE":0,"TOWNNAME":"安南區","LI":"大安里","LIN":"10鄰","STREET":"理安街","SECT":" ","MAREA":" ","LANE":" ","ALLEY":" ","HOUSE_NO":"２２３號","E_COORD97":167568.89000000001,"N_COORD97":2548369.9300000002,"ADDRESS":"理安街２２３號","OBJECTID":553028},"geometry":{"x":167568.88999999966,"y":2548369.9299999997}},{"attributes":{"ID":553056,"DIS_CODE":0,"TOWNNAME":"安南區","LI":"大安里","LIN":"10鄰","STREET":"理安街","SECT":" ","MAREA":" ","LANE":" ","ALLEY":" ","HOUSE_NO":"２２５號","E_COORD97":167568.73999999999,"N_COORD97":2548375.3399999999,"ADDRESS":"理安街２２５號","OBJECTID":553029},"geometry":{"x":167568.74000000022,"y":2548375.3400000017}},{"attributes":{"ID":553057,"DIS_CODE":0,"TOWNNAME":"永康區","LI":"\u25A0行里","LIN":"10鄰","STREET":"中正路","SECT":" ","MAREA":" ","LANE":" ","ALLEY":" ","HOUSE_NO":"４６９號","E_COORD97":172282.09,"N_COORD97":2548592,"ADDRESS":"中正路４６９號","OBJECTID":553030},"geometry":{"x":172282.08999999985,"y":2548592.0000000019}},{"attributes":{"ID":553058,"DIS_CODE":0,"TOWNNAME":"安南區","LI":"安西里","LIN":"10鄰","STREET":"安和路","SECT":"一段","MAREA":" ","LANE":" ","ALLEY":" ","HOUSE_NO":"３８９號","E_COORD97":169316.70000000001,"N_COORD97":2548336.8999999999,"ADDRESS":"安和路一段３８９號","OBJECTID":553031},"geometry":{"x":169316.70000000019,"y":2548336.9000000004}},{"attributes":{"ID":553059,"DIS_CODE":0,"TOWNNAME":"安南區","LI":"安西里","LIN":"10鄰","STREET":"安和路","SECT":"一段","MAREA":" ","LANE":" ","ALLEY":" ","HOUSE_NO":"３９１號","E_COORD97":169317.73000000001,"N_COORD97":2548340.2000000002,"ADDRESS":"安和路一段３９１號","OBJECTID":553032},"geometry":{"x":169317.73000000138,"y":2548340.1999999993}},{"attributes":{"ID":553060,"DIS_CODE":0,"TOWNNAME":"安南區","LI":"安西里","LIN":"10鄰","STREET":"安和路","SECT":"一段","MAREA":" ","LANE":" ","ALLEY":" ","HOUSE_NO":"４０９號","E_COORD97":169337.146462,"N_COORD97":2548364.7015800001,"ADDRESS":"安和路一段４０９號","OBJECTID":553033},"geometry":{"x":169337.14646199998,"y":2548364.7015820015}},{"attributes":{"ID":553061,"DIS_CODE":0,"TOWNNAME":"安南區","LI":"安西里","LIN":"10鄰","STREET":"安和路","SECT":"一段","MAREA":" ","LANE":" ","ALLEY":" ","HOUSE_NO":"４３５號","E_COORD97":169359.98999999999,"N_COORD97":2548432.7200000002,"ADDRESS":"安和路一段４３５號","OBJECTID":553034},"geometry":{"x":169359.99000000115,"y":2548432.7200000007}},{"attributes":{"ID":553062,"DIS_CODE":0,"TOWNNAME":"安南區","LI":"安西里","LIN":"10鄰","STREET":"安和路","SECT":"一段","MAREA":" ","LANE":" ","ALLEY":" ","HOUSE_NO":"４５１號","E_COORD97":169371.35999999999,"N_COORD97":2548469.5800000001,"ADDRESS":"安和路一段４５１號","OBJECTID":553035},"geometry":{"x":169371.36000000127,"y":2548469.5800000019}},{"attributes":{"ID":553063,"DIS_CODE":0,"TOWNNAME":"安南區","LI":"安西里","LIN":"10鄰","STREET":"安和路","SECT":"一段","MAREA":" ","LANE":" ","ALLEY":" ","HOUSE_NO":"４６１號","E_COORD97":169389.95641300001,"N_COORD97":2548495.5115100001,"ADDRESS":"安和路一段４６１號","OBJECTID":553036},"geometry":{"x":169389.95641300082,"y":2548495.5115120001}},{"attributes":{"ID":553064,"DIS_CODE":0,"TOWNNAME":"安南區","LI":"安西里","LIN":"10鄰","STREET":"長溪路","SECT":"一段","MAREA":" ","LANE":" ","ALLEY":" ","HOUSE_NO":"３２號","E_COORD97":169242.66,"N_COORD97":2548275.2200000002,"ADDRESS":"長溪路一段３２號","OBJECTID":553037},"geometry":{"x":169242.66000000015,"y":2548275.2200000044}},{"attributes":{"ID":553065,"DIS_CODE":0,"TOWNNAME":"安南區","LI":"安西里","LIN":"10鄰","STREET":"長溪路","SECT":"一段","MAREA":" ","LANE":" ","ALLEY":" ","HOUSE_NO":"２２號","E_COORD97":169253.29000000001,"N_COORD97":2548250.0800000001,"ADDRESS":"長溪路一段２２號","OBJECTID":553038},"geometry":{"x":169253.29000000004,"y":2548250.0800000001}},{"attributes":{"ID":553066,"DIS_CODE":0,"TOWNNAME":"安南區","LI":"安西里","LIN":"10鄰","STREET":"長溪路","SECT":"一段","MAREA":" ","LANE":" ","ALLEY":" ","HOUSE_NO":"２４號","E_COORD97":169251.82000000001,"N_COORD97":2548253.8799999999,"ADDRESS":"長溪路一段２４號","OBJECTID":553039},"geometry":{"x":169251.8200000003,"y":2548253.879999999}},{"attributes":{"ID":553067,"DIS_CODE":0,"TOWNNAME":"安南區","LI":"安西里","LIN":"10鄰","STREET":"長溪路","SECT":"一段","MAREA":" ","LANE":" ","ALLEY":" ","HOUSE_NO":"２６號","E_COORD97":169250.64999999999,"N_COORD97":2548258.8500000001,"ADDRESS":"長溪路一段２６號","OBJECTID":553040},"geometry":{"x":169250.6500000013,"y":2548258.8499999996}},{"attributes":{"ID":553068,"DIS_CODE":0,"TOWNNAME":"安南區","LI":"安西里","LIN":"10鄰","STREET":"長溪路","SECT":"一段","MAREA":" ","LANE":" ","ALLEY":" ","HOUSE_NO":"２８號","E_COORD97":169249.19,"N_COORD97":2548263.8199999998,"ADDRESS":"長溪路一段２８號","OBJECTID":553041},"geometry":{"x":169249.19000000041,"y":2548263.820000004}},{"attributes":{"ID":553069,"DIS_CODE":0,"TOWNNAME":"安南區","LI":"安富里","LIN":"10鄰","STREET":"安富街","SECT":" ","MAREA":" ","LANE":" ","ALLEY":" ","HOUSE_NO":"２７３號","E_COORD97":167477.70000000001,"N_COORD97":2547418.8900000001,"ADDRESS":"安富街２７３號","OBJECTID":553042},"geometry":{"x":167477.70000000019,"y":2547418.8900000006}},{"attributes":{"ID":553070,"DIS_CODE":0,"TOWNNAME":"安南區","LI":"安富里","LIN":"10鄰","STREET":"安富街","SECT":" ","MAREA":" ","LANE":" ","ALLEY":" ","HOUSE_NO":"２７５號","E_COORD97":167472.70999999999,"N_COORD97":2547420.6200000001,"ADDRESS":"安富街２７５號","OBJECTID":553043},"geometry":{"x":167472.71000000183,"y":2547420.620000001}},{"attributes":{"ID":553071,"DIS_CODE":0,"TOWNNAME":"安南區","LI":"安富里","LIN":"10鄰","STREET":"安富街","SECT":" ","MAREA":" ","LANE":" ","ALLEY":" ","HOUSE_NO":"２７９號","E_COORD97":167465.78,"N_COORD97":2547416.0800000001,"ADDRESS":"安富街２７９號","OBJECTID":553044},"geometry":{"x":167465.78000000212,"y":2547416.0800000001}},{"attributes":{"ID":553072,"DIS_CODE":0,"TOWNNAME":"安南區","LI":"安富里","LIN":"10鄰","STREET":"安富街","SECT":" ","MAREA":" ","LANE":" ","ALLEY":" ","HOUSE_NO":"２８９號","E_COORD97":167446.06,"N_COORD97":2547414.5600000001,"ADDRESS":"安富街２８９號","OBJECTID":553045},"geometry":{"x":167446.05999999959,"y":2547414.5599999987}},{"attributes":{"ID":553073,"DIS_CODE":0,"TOWNNAME":"安南區","LI":"安富里","LIN":"10鄰","STREET":"安富街","SECT":" ","MAREA":" ","LANE":" ","ALLEY":" ","HOUSE_NO":"２９５號","E_COORD97":167433.92000000001,"N_COORD97":2547411.3199999998,"ADDRESS":"安富街２９５號","OBJECTID":553046},"geometry":{"x":167433.92000000179,"y":2547411.3200000003}},{"attributes":{"ID":553074,"DIS_CODE":0,"TOWNNAME":"安南區","LI":"安富里","LIN":"10鄰","STREET":"安富街","SECT":" ","MAREA":" ","LANE":" ","ALLEY":" ","HOUSE_NO":"２９７號","E_COORD97":167430.01999999999,"N_COORD97":2547413.0499999998,"ADDRESS":"安富街２９７號","OBJECTID":553047},"geometry":{"x":167430.02000000048,"y":2547413.0500000026}},{"attributes":{"ID":553075,"DIS_CODE":0,"TOWNNAME":"安南區","LI":"安富里","LIN":"10鄰","STREET":"安富街","SECT":" ","MAREA":" ","LANE":" ","ALLEY":" ","HOUSE_NO":"３０３號","E_COORD97":167411.10000000001,"N_COORD97":2547408.0699999998,"ADDRESS":"安富街３０３號","OBJECTID":553048},"geometry":{"x":167411.10000000056,"y":2547408.0700000022}},{"attributes":{"ID":553076,"DIS_CODE":0,"TOWNNAME":"安南區","LI":"安富里","LIN":"10鄰","STREET":"安富街","SECT":" ","MAREA":" ","LANE":" ","ALLEY":" ","HOUSE_NO":"３０７號","E_COORD97":167403.09,"N_COORD97":2547406.3399999999,"ADDRESS":"安富街３０７號","OBJECTID":553049},"geometry":{"x":167403.08999999985,"y":2547406.3400000017}},{"attributes":{"ID":553077,"DIS_CODE":0,"TOWNNAME":"安南區","LI":"安富里","LIN":"10鄰","STREET":"安富街","SECT":" ","MAREA":" ","LANE":" ","ALLEY":" ","HOUSE_NO":"３２１號","E_COORD97":167376,"N_COORD97":2547400.29,"ADDRESS":"安富街３２１號","OBJECTID":553050},"geometry":{"x":167376.00000000186,"y":2547400.2899999991}},{"attributes":{"ID":553078,"DIS_CODE":0,"TOWNNAME":"安南區","LI":"安富里","LIN":"10鄰","STREET":"安富街","SECT":" ","MAREA":" ","LANE":" ","ALLEY":" ","HOUSE_NO":"３２３號","E_COORD97":167372.10000000001,"N_COORD97":2547398.1200000001,"ADDRESS":"安富街３２３號","OBJECTID":553051},"geometry":{"x":167372.10000000056,"y":2547398.1200000048}},{"attributes":{"ID":553079,"DIS_CODE":0,"TOWNNAME":"安南區","LI":"安富里","LIN":"10鄰","STREET":"安富街","SECT":" ","MAREA":" ","LANE":" ","ALLEY":" ","HOUSE_NO":"３２９號","E_COORD97":167360.39999999999,"N_COORD97":2547395.7400000002,"ADDRESS":"安富街３２９號","OBJECTID":553052},"geometry":{"x":167360.4000000013,"y":2547395.7400000002}},{"attributes":{"ID":553080,"DIS_CODE":0,"TOWNNAME":"安南區","LI":"安富里","LIN":"10鄰","STREET":"安富街","SECT":" ","MAREA":" ","LANE":" ","ALLEY":" ","HOUSE_NO":"３３１號","E_COORD97":167355.85000000001,"N_COORD97":2547398.1200000001,"ADDRESS":"安富街３３１號","OBJECTID":553053},"geometry":{"x":167355.84999999963,"y":2547398.1200000048}},{"attributes":{"ID":553081,"DIS_CODE":0,"TOWNNAME":"安南區","LI":"安富里","LIN":"10鄰","STREET":"安富街","SECT":" ","MAREA":" ","LANE":" ","ALLEY":" ","HOUSE_NO":"３３５號","E_COORD97":167348.26000000001,"N_COORD97":2547394.4399999999,"ADDRESS":"安富街３３５號","OBJECTID":553054},"geometry":{"x":167348.25999999978,"y":2547394.4400000013}},{"attributes":{"ID":553082,"DIS_CODE":0,"TOWNNAME":"安南區","LI":"安富里","LIN":"10鄰","STREET":"安富街","SECT":" ","MAREA":" ","LANE":" ","ALLEY":" ","HOUSE_NO":"３３７號","E_COORD97":167343.70999999999,"N_COORD97":2547396.6099999999,"ADDRESS":"安富街３３７號","OBJECTID":553055},"geometry":{"x":167343.70999999996,"y":2547396.6100000013}},{"attributes":{"ID":553083,"DIS_CODE":0,"TOWNNAME":"善化區","LI":"南關里","LIN":"10鄰","STREET":"三民路","SECT":" ","MAREA":" ","LANE":" ","ALLEY":" ","HOUSE_NO":"５７號","E_COORD97":177085.64999999999,"N_COORD97":2559036.0099999998,"ADDRESS":"三民路５７號","OBJECTID":553056},"geometry":{"x":177085.6500000013,"y":2559036.0099999998}},{"attributes":{"ID":553084,"DIS_CODE":0,"TOWNNAME":"善化區","LI":"南關里","LIN":"10鄰","STREET":"三民路","SECT":" ","MAREA":" ","LANE":" ","ALLEY":" ","HOUSE_NO":"４７號之１","E_COORD97":177083.14999999999,"N_COORD97":2558989.27,"ADDRESS":"三民路４７號之１","OBJECTID":553057},"geometry":{"x":177083.15000000037,"y":2558989.2699999996}},{"attributes":{"ID":553085,"DIS_CODE":0,"TOWNNAME":"善化區","LI":"北關里","LIN":"10鄰","STREET":"三民路","SECT":" ","MAREA":" ","LANE":" ","ALLEY":" ","HOUSE_NO":"９９號","E_COORD97":177107.92000000001,"N_COORD97":2559245.5099999998,"ADDRESS":"三民路９９號","OBJECTID":553058},"geometry":{"x":177107.91999999993,"y":2559245.5099999998}},{"attributes":{"ID":553086,"DIS_CODE":0,"TOWNNAME":"善化區","LI":"南關里","LIN":"10鄰","STREET":"三民路","SECT":" ","MAREA":" ","LANE":" ","ALLEY":" ","HOUSE_NO":"４９之１號","E_COORD97":177085.06,"N_COORD97":2559006.27,"ADDRESS":"三民路４９之１號","OBJECTID":553059},"geometry":{"x":177085.06000000145,"y":2559006.2699999996}},{"attributes":{"ID":553087,"DIS_CODE":0,"TOWNNAME":"善化區","LI":"光文里","LIN":"10鄰","STREET":"民族路","SECT":" ","MAREA":" ","LANE":" ","ALLEY":" ","HOUSE_NO":"８０號","E_COORD97":178542.29000000001,"N_COORD97":2559119.7599999998,"ADDRESS":"民族路８０號","OBJECTID":553060},"geometry":{"x":178542.29000000097,"y":2559119.7600000035}},{"attributes":{"ID":553088,"DIS_CODE":0,"TOWNNAME":"善化區","LI":"光文里","LIN":"10鄰","STREET":"民族路","SECT":" ","MAREA":" ","LANE":" ","ALLEY":" ","HOUSE_NO":"１０２號","E_COORD97":178427.76000000001,"N_COORD97":2559105.7599999998,"ADDRESS":"民族路１０２號","OBJECTID":553061},"geometry":{"x":178427.75999999978,"y":2559105.7599999998}},{"attributes":{"ID":553089,"DIS_CODE":0,"TOWNNAME":"善化區","LI":"南關里","LIN":"10鄰","STREET":"三民路","SECT":" ","MAREA":" ","LANE":" ","ALLEY":" ","HOUSE_NO":"４７號","E_COORD97":177082.48000000001,"N_COORD97":2558983.0099999998,"ADDRESS":"三民路４７號","OBJECTID":553062},"geometry":{"x":177082.48000000045,"y":2558983.0100000016}},{"attributes":{"ID":553090,"DIS_CODE":0,"TOWNNAME":"善化區","LI":"南關里","LIN":"10鄰","STREET":"復興街","SECT":" ","MAREA":" ","LANE":" ","ALLEY":" ","HOUSE_NO":"３７號","E_COORD97":177081.07000000001,"N_COORD97":2559055.7599999998,"ADDRESS":"復興街３７號","OBJECTID":553063},"geometry":{"x":177081.07000000123,"y":2559055.7600000016}},{"attributes":{"ID":553091,"DIS_CODE":0,"TOWNNAME":"善化區","LI":"東關里","LIN":"10鄰","STREET":"中山路","SECT":" ","MAREA":" ","LANE":" ","ALLEY":" ","HOUSE_NO":"４１７號","E_COORD97":177346.51000000001,"N_COORD97":2559104.25,"ADDRESS":"中山路４１７號","OBJECTID":553064},"geometry":{"x":177346.50999999978,"y":2559104.2500000019}},{"attributes":{"ID":553092,"DIS_CODE":0,"TOWNNAME":"善化區","LI":"南關里","LIN":"10鄰","STREET":"三民路","SECT":" ","MAREA":" ","LANE":" ","ALLEY":" ","HOUSE_NO":"５９號","E_COORD97":177094.03,"N_COORD97":2559042.5099999998,"ADDRESS":"三民路５９號","OBJECTID":553065},"geometry":{"x":177094.03000000026,"y":2559042.5099999998}},{"attributes":{"ID":553093,"DIS_CODE":0,"TOWNNAME":"善化區","LI":"南關里","LIN":"10鄰","STREET":"三民路","SECT":" ","MAREA":" ","LANE":" ","ALLEY":" ","HOUSE_NO":"５５號","E_COORD97":177066.60000000001,"N_COORD97":2559022.2599999998,"ADDRESS":"三民路５５號","OBJECTID":553066},"geometry":{"x":177066.60000000056,"y":2559022.2600000016}},{"attributes":{"ID":553094,"DIS_CODE":0,"TOWNNAME":"善化區","LI":"南關里","LIN":"10鄰","STREET":"三民路","SECT":" ","MAREA":" ","LANE":" ","ALLEY":" ","HOUSE_NO":"４９號","E_COORD97":177088.23000000001,"N_COORD97":2559011.0099999998,"ADDRESS":"三民路４９號","OBJECTID":553067},"geometry":{"x":177088.23000000231,"y":2559011.0100000016}},{"attributes":{"ID":553095,"DIS_CODE":0,"TOWNNAME":"善化區","LI":"東關里","LIN":"10鄰","STREET":"中山路","SECT":" ","MAREA":" ","LANE":" ","ALLEY":" ","HOUSE_NO":"４１５號","E_COORD97":177350.51000000001,"N_COORD97":2559104,"ADDRESS":"中山路４１５號","OBJECTID":553068},"geometry":{"x":177350.51000000071,"y":2559104}},{"attributes":{"ID":553096,"DIS_CODE":0,"TOWNNAME":"善化區","LI":"南關里","LIN":"10鄰","STREET":"三民路","SECT":" ","MAREA":" ","LANE":" ","ALLEY":" ","HOUSE_NO":"５１號","E_COORD97":177064.09,"N_COORD97":2559005.2599999998,"ADDRESS":"三民路５１號","OBJECTID":553069},"geometry":{"x":177064.08999999985,"y":2559005.2600000016}},{"attributes":{"ID":553097,"DIS_CODE":0,"TOWNNAME":"善化區","LI":"坐駕里","LIN":"10鄰","STREET":"自立路","SECT":" ","MAREA":" ","LANE":" ","ALLEY":" ","HOUSE_NO":"１２５號","E_COORD97":177950.85000000001,"N_COORD97":2558607.25,"ADDRESS":"自立路１２５號","OBJECTID":553070},"geometry":{"x":177950.84999999963,"y":2558607.25}},{"attributes":{"ID":553098,"DIS_CODE":0,"TOWNNAME":"善化區","LI":"光文里","LIN":"10鄰","STREET":"中山路","SECT":" ","MAREA":" ","LANE":" ","ALLEY":" ","HOUSE_NO":"４７號","E_COORD97":178780.67999999999,"N_COORD97":2559200.5,"ADDRESS":"中山路４７號","OBJECTID":553071},"geometry":{"x":178780.6799999997,"y":2559200.5000000019}},{"attributes":{"ID":553099,"DIS_CODE":0,"TOWNNAME":"善化區","LI":"光文里","LIN":"10鄰","STREET":"中山路","SECT":" ","MAREA":" ","LANE":" ","ALLEY":" ","HOUSE_NO":"５３號之２","E_COORD97":178758.34,"N_COORD97":2559194.27,"ADDRESS":"中山路５３號之２","OBJECTID":553072},"geometry":{"x":178758.34000000171,"y":2559194.2700000014}},{"attributes":{"ID":553100,"DIS_CODE":0,"TOWNNAME":"善化區","LI":"光文里","LIN":"10鄰","STREET":"中山路","SECT":" ","MAREA":" ","LANE":" ","ALLEY":" ","HOUSE_NO":"１４３之１１號","E_COORD97":178408.34,"N_COORD97":2559139.77,"ADDRESS":"中山路１４３之１１號","OBJECTID":553073},"geometry":{"x":178408.33999999985,"y":2559139.7700000033}},{"attributes":{"ID":553101,"DIS_CODE":0,"TOWNNAME":"善化區","LI":"光文里","LIN":"10鄰","STREET":"中山路","SECT":" ","MAREA":" ","LANE":" ","ALLEY":" ","HOUSE_NO":"５７號","E_COORD97":178726.5,"N_COORD97":2559191,"ADDRESS":"中山路５７號","OBJECTID":553074},"geometry":{"x":178726.5,"y":2559191.0000000019}},{"attributes":{"ID":553102,"DIS_CODE":0,"TOWNNAME":"善化區","LI":"坐駕里","LIN":"10鄰","STREET":"自強路","SECT":" ","MAREA":" ","LANE":" ","ALLEY":" ","HOUSE_NO":"１１５號","E_COORD97":177977.57000000001,"N_COORD97":2558697,"ADDRESS":"自強路１１５號","OBJECTID":553075},"geometry":{"x":177977.57000000216,"y":2558697}},{"attributes":{"ID":553103,"DIS_CODE":0,"TOWNNAME":"善化區","LI":"光文里","LIN":"10鄰","STREET":"中山路","SECT":" ","MAREA":" ","LANE":" ","ALLEY":" ","HOUSE_NO":"４３號之２","E_COORD97":178818.16,"N_COORD97":2559207.02,"ADDRESS":"中山路４３號之２","OBJECTID":553076},"geometry":{"x":178818.16000000108,"y":2559207.0200000014}},{"attributes":{"ID":553104,"DIS_CODE":0,"TOWNNAME":"善化區","LI":"坐駕里","LIN":"10鄰","STREET":"自立路","SECT":" ","MAREA":" ","LANE":" ","ALLEY":" ","HOUSE_NO":"１１５號","E_COORD97":177985.63,"N_COORD97":2558616,"ADDRESS":"自立路１１５號","OBJECTID":553077},"geometry":{"x":177985.63000000082,"y":2558616}},{"attributes":{"ID":553105,"DIS_CODE":0,"TOWNNAME":"善化區","LI":"北關里","LIN":"10鄰","STREET":"三民路","SECT":" ","MAREA":" ","LANE":" ","ALLEY":" ","HOUSE_NO":"９４號之１","E_COORD97":177159.14999999999,"N_COORD97":2559259.52,"ADDRESS":"三民路９４號之１","OBJECTID":553078},"geometry":{"x":177159.15000000037,"y":2559259.5199999996}},{"attributes":{"ID":553106,"DIS_CODE":0,"TOWNNAME":"善化區","LI":"光文里","LIN":"10鄰","STREET":"中山路","SECT":" ","MAREA":" ","LANE":" ","ALLEY":" ","HOUSE_NO":"１４３之５號","E_COORD97":178453.79000000001,"N_COORD97":2559148.52,"ADDRESS":"中山路１４３之５號","OBJECTID":553079},"geometry":{"x":178453.7900000019,"y":2559148.5200000014}},{"attributes":{"ID":553107,"DIS_CODE":0,"TOWNNAME":"新市區","LI":"新和里","LIN":"10鄰","STREET":"忠孝街","SECT":" ","MAREA":" ","LANE":" ","ALLEY":" ","HOUSE_NO":"２３號","E_COORD97":177629.17000000001,"N_COORD97":2552495.5,"ADDRESS":"忠孝街２３號","OBJECTID":553080},"geometry":{"x":177629.17000000086,"y":2552495.5}},{"attributes":{"ID":553108,"DIS_CODE":0,"TOWNNAME":"善化區","LI":"坐駕里","LIN":"10鄰","STREET":"自立路","SECT":" ","MAREA":" ","LANE":" ","ALLEY":" ","HOUSE_NO":"１１２號","E_COORD97":177974.26999999999,"N_COORD97":2558644.75,"ADDRESS":"自立路１１２號","OBJECTID":553081},"geometry":{"x":177974.27000000048,"y":2558644.75}},{"attributes":{"ID":553109,"DIS_CODE":0,"TOWNNAME":"善化區","LI":"西關里","LIN":"10鄰","STREET":"復興街","SECT":" ","MAREA":" ","LANE":" ","ALLEY":" ","HOUSE_NO":"４４號","E_COORD97":176987.76999999999,"N_COORD97":2559072.5099999998,"ADDRESS":"復興街４４號","OBJECTID":553082},"geometry":{"x":176987.77000000048,"y":2559072.5099999998}},{"attributes":{"ID":553110,"DIS_CODE":0,"TOWNNAME":"善化區","LI":"光文里","LIN":"10鄰","STREET":"中山路","SECT":" ","MAREA":" ","LANE":" ","ALLEY":" ","HOUSE_NO":"１０５號","E_COORD97":178594.14000000001,"N_COORD97":2559172.25,"ADDRESS":"中山路１０５號","OBJECTID":553083},"geometry":{"x":178594.1400000006,"y":2559172.2500000019}},{"attributes":{"ID":553111,"DIS_CODE":0,"TOWNNAME":"善化區","LI":"光文里","LIN":"10鄰","STREET":"中山路","SECT":" ","MAREA":" ","LANE":" ","ALLEY":" ","HOUSE_NO":"１４３之７號","E_COORD97":178439.85999999999,"N_COORD97":2559146.27,"ADDRESS":"中山路１４３之７號","OBJECTID":553084},"geometry":{"x":178439.8599999994,"y":2559146.2699999977}},{"attributes":{"ID":553112,"DIS_CODE":0,"TOWNNAME":"永康區","LI":"網寮里","LIN":"10鄰","STREET":"永勝街","SECT":" ","MAREA":" ","LANE":" ","ALLEY":" ","HOUSE_NO":"１９２號","E_COORD97":173350.72,"N_COORD97":2546446.04,"ADDRESS":"永勝街１９２號","OBJECTID":553085},"geometry":{"x":173350.71999999974,"y":2546446.0399999991}},{"attributes":{"ID":553113,"DIS_CODE":0,"TOWNNAME":"永康區","LI":"網寮里","LIN":"10鄰","STREET":"永勝街","SECT":" ","MAREA":" ","LANE":" ","ALLEY":" ","HOUSE_NO":"２０８號","E_COORD97":173330.85999999999,"N_COORD97":2546471.0699999998,"ADDRESS":"永勝街２０８號","OBJECTID":553086},"geometry":{"x":173330.86000000127,"y":2546471.0700000003}},{"attributes":{"ID":553114,"DIS_CODE":0,"TOWNNAME":"永康區","LI":"\u25A0行里","LIN":"10鄰","STREET":"新中街","SECT":" ","MAREA":" ","LANE":" ","ALLEY":" ","HOUSE_NO":"１３３號","E_COORD97":172255.04999999999,"N_COORD97":2548574.6400000001,"ADDRESS":"新中街１３３號","OBJECTID":553087},"geometry":{"x":172255.04999999981,"y":2548574.6400000025}},{"attributes":{"ID":553115,"DIS_CODE":0,"TOWNNAME":"永康區","LI":"\u25A0行里","LIN":"10鄰","STREET":"正南五街","SECT":" ","MAREA":" ","LANE":" ","ALLEY":" ","HOUSE_NO":"２５０號","E_COORD97":172053.84,"N_COORD97":2548273,"ADDRESS":"正南五街２５０號","OBJECTID":553088},"geometry":{"x":172053.84000000171,"y":2548273.0000000019}},{"attributes":{"ID":553116,"DIS_CODE":0,"TOWNNAME":"永康區","LI":"\u25A0行里","LIN":"10鄰","STREET":"新中街","SECT":" ","MAREA":" ","LANE":" ","ALLEY":" ","HOUSE_NO":"１１１號","E_COORD97":172212.39999999999,"N_COORD97":2548549.6899999999,"ADDRESS":"新中街１１１號","OBJECTID":553089},"geometry":{"x":172212.4000000013,"y":2548549.6900000013}},{"attributes":{"ID":553117,"DIS_CODE":0,"TOWNNAME":"永康區","LI":"\u25A0行里","LIN":"10鄰","STREET":"新中街","SECT":" ","MAREA":" ","LANE":" ","ALLEY":" ","HOUSE_NO":"１１３號","E_COORD97":172216.10999999999,"N_COORD97":2548551.9399999999,"ADDRESS":"新中街１１３號","OBJECTID":553090},"geometry":{"x":172216.11000000034,"y":2548551.9400000013}},{"attributes":{"ID":553118,"DIS_CODE":0,"TOWNNAME":"永康區","LI":"\u25A0行里","LIN":"10鄰","STREET":"新中街","SECT":" ","MAREA":" ","LANE":" ","ALLEY":" ","HOUSE_NO":"１３５號","E_COORD97":172258.69,"N_COORD97":2548576.3900000001,"ADDRESS":"新中街１３５號","OBJECTID":553091},"geometry":{"x":172258.69000000041,"y":2548576.3900000025}},{"attributes":{"ID":553119,"DIS_CODE":0,"TOWNNAME":"永康區","LI":"\u25A0行里","LIN":"10鄰","STREET":"中正路","SECT":" ","MAREA":" ","LANE":" ","ALLEY":" ","HOUSE_NO":"４２３號","E_COORD97":172275.84,"N_COORD97":2548414.73,"ADDRESS":"中正路４２３號","OBJECTID":553092},"geometry":{"x":172275.84000000171,"y":2548414.7300000023}},{"attributes":{"ID":553120,"DIS_CODE":0,"TOWNNAME":"永康區","LI":"\u25A0行里","LIN":"10鄰","STREET":"中正路","SECT":" ","MAREA":" ","LANE":" ","ALLEY":" ","HOUSE_NO":"４０５號","E_COORD97":172388.72,"N_COORD97":2548482.6699999999,"ADDRESS":"中正路４０５號","OBJECTID":553093},"geometry":{"x":172388.72000000067,"y":2548482.6700000018}},{"attributes":{"ID":553121,"DIS_CODE":0,"TOWNNAME":"永康區","LI":"\u25A0行里","LIN":"10鄰","STREET":"中正路","SECT":" ","MAREA":" ","LANE":" ","ALLEY":" ","HOUSE_NO":"４１７號","E_COORD97":172370.29999999999,"N_COORD97":2548503.0699999998,"ADDRESS":"中正路４１７號","OBJECTID":553094},"geometry":{"x":172370.29999999981,"y":2548503.0700000022}},{"attributes":{"ID":553122,"DIS_CODE":0,"TOWNNAME":"永康區","LI":"\u25A0行里","LIN":"10鄰","STREET":"正南五街","SECT":" ","MAREA":" ","LANE":" ","ALLEY":" ","HOUSE_NO":"２２０號","E_COORD97":172157.92999999999,"N_COORD97":2548257.9900000002,"ADDRESS":"正南五街２２０號","OBJECTID":553095},"geometry":{"x":172157.9299999997,"y":2548257.9900000002}},{"attributes":{"ID":553123,"DIS_CODE":0,"TOWNNAME":"永康區","LI":"\u25A0行里","LIN":"10鄰","STREET":"新中街","SECT":" ","MAREA":" ","LANE":" ","ALLEY":" ","HOUSE_NO":"１２３號","E_COORD97":172235.03,"N_COORD97":2548563.7799999998,"ADDRESS":"新中街１２３號","OBJECTID":553096},"geometry":{"x":172235.03000000119,"y":2548563.7799999993}},{"attributes":{"ID":553124,"DIS_CODE":0,"TOWNNAME":"永康區","LI":"\u25A0行里","LIN":"10鄰","STREET":"正南五街","SECT":" ","MAREA":" ","LANE":" ","ALLEY":" ","HOUSE_NO":"２４６號","E_COORD97":172070.64999999999,"N_COORD97":2548254.4900000002,"ADDRESS":"正南五街２４６號","OBJECTID":553097},"geometry":{"x":172070.65000000037,"y":2548254.4900000002}},{"attributes":{"ID":553125,"DIS_CODE":0,"TOWNNAME":"永康區","LI":"\u25A0行里","LIN":"10鄰","STREET":"新中街","SECT":" ","MAREA":" ","LANE":" ","ALLEY":" ","HOUSE_NO":"１２１號","E_COORD97":172231.62,"N_COORD97":2548561.7799999998,"ADDRESS":"新中街１２１號","OBJECTID":553098},"geometry":{"x":172231.62000000011,"y":2548561.7800000012}},{"attributes":{"ID":553126,"DIS_CODE":0,"TOWNNAME":"東區","LI":"莊敬里","LIN":"10鄰","STREET":"東光路","SECT":"二段","MAREA":" ","LANE":" ","ALLEY":" ","HOUSE_NO":"１１８號","E_COORD97":171245.82000000001,"N_COORD97":2544247.1400000001,"ADDRESS":"東光路二段１１８號","OBJECTID":553099},"geometry":{"x":171245.82000000216,"y":2544247.1400000006}},{"attributes":{"ID":553127,"DIS_CODE":0,"TOWNNAME":"東區","LI":"莊敬里","LIN":"10鄰","STREET":"東光路","SECT":"二段","MAREA":" ","LANE":" ","ALLEY":" ","HOUSE_NO":"１２２號","E_COORD97":171246.57000000001,"N_COORD97":2544255.1299999999,"ADDRESS":"東光路二段１２２號","OBJECTID":553100},"geometry":{"x":171246.57000000123,"y":2544255.129999999}},{"attributes":{"ID":553128,"DIS_CODE":0,"TOWNNAME":"東區","LI":"忠孝里","LIN":"10鄰","STREET":"崇明路","SECT":" ","MAREA":" ","LANE":" ","ALLEY":" ","HOUSE_NO":"３４８號","E_COORD97":170086.60000000001,"N_COORD97":2541926.3300000001,"ADDRESS":"崇明路３４８號","OBJECTID":553101},"geometry":{"x":170086.59999999963,"y":2541926.3300000001}},{"attributes":{"ID":553129,"DIS_CODE":0,"TOWNNAME":"東區","LI":"忠孝里","LIN":"10鄰","STREET":"崇明路","SECT":" ","MAREA":" ","LANE":" ","ALLEY":" ","HOUSE_NO":"３５２號","E_COORD97":170091.60999999999,"N_COORD97":2541920.3999999999,"ADDRESS":"崇明路３５２號","OBJECTID":553102},"geometry":{"x":170091.61000000127,"y":2541920.4000000022}},{"attributes":{"ID":553130,"DIS_CODE":0,"TOWNNAME":"東區","LI":"忠孝里","LIN":"10鄰","STREET":"崇明路","SECT":" ","MAREA":" ","LANE":" ","ALLEY":" ","HOUSE_NO":"３５４號","E_COORD97":170093.84,"N_COORD97":2541916.6899999999,"ADDRESS":"崇明路３５４號","OBJECTID":553103},"geometry":{"x":170093.83999999985,"y":2541916.6899999995}},{"attributes":{"ID":553131,"DIS_CODE":0,"TOWNNAME":"東區","LI":"忠孝里","LIN":"10鄰","STREET":"榮譽街","SECT":" ","MAREA":" ","LANE":" ","ALLEY":" ","HOUSE_NO":"２０９號","E_COORD97":170075.72,"N_COORD97":2541907.71,"ADDRESS":"榮譽街２０９號","OBJECTID":553104},"geometry":{"x":170075.71999999974,"y":2541907.7100000009}},{"attributes":{"ID":553132,"DIS_CODE":0,"TOWNNAME":"東區","LI":"忠孝里","LIN":"10鄰","STREET":"榮譽街","SECT":" ","MAREA":" ","LANE":" ","ALLEY":" ","HOUSE_NO":"２１１號","E_COORD97":170079.60999999999,"N_COORD97":2541910.1099999999,"ADDRESS":"榮譽街２１１號","OBJECTID":553105},"geometry":{"x":170079.61000000127,"y":2541910.1099999994}},{"attributes":{"ID":553133,"DIS_CODE":0,"TOWNNAME":"東區","LI":"忠孝里","LIN":"10鄰","STREET":"崇明路","SECT":" ","MAREA":" ","LANE":" ","ALLEY":" ","HOUSE_NO":"３５０號","E_COORD97":170088.82999999999,"N_COORD97":2541923.3700000001,"ADDRESS":"崇明路３５０號","OBJECTID":553106},"geometry":{"x":170088.83000000007,"y":2541923.370000001}},{"attributes":{"ID":553134,"DIS_CODE":0,"TOWNNAME":"東區","LI":"龍山里","LIN":"10鄰","STREET":"東門路","SECT":"二段","MAREA":" ","LANE":" ","ALLEY":" ","HOUSE_NO":"１６號","E_COORD97":169951.94,"N_COORD97":2542986.77,"ADDRESS":"東門路二段１６號","OBJECTID":553107},"geometry":{"x":169951.94000000134,"y":2542986.7699999996}},{"attributes":{"ID":553135,"DIS_CODE":0,"TOWNNAME":"東區","LI":"龍山里","LIN":"10鄰","STREET":"東門路","SECT":"二段","MAREA":" ","LANE":" ","ALLEY":" ","HOUSE_NO":"８０號","E_COORD97":170008.14000000001,"N_COORD97":2542943.75,"ADDRESS":"東門路二段８０號","OBJECTID":553108},"geometry":{"x":170008.13999999966,"y":2542943.75}},{"attributes":{"ID":553136,"DIS_CODE":0,"TOWNNAME":"東區","LI":"龍山里","LIN":"10鄰","STREET":"東門路","SECT":"二段","MAREA":" ","LANE":" ","ALLEY":" ","HOUSE_NO":"８６號","E_COORD97":170008.14000000001,"N_COORD97":2542967.2000000002,"ADDRESS":"東門路二段８６號","OBJECTID":553109},"geometry":{"x":170008.13999999966,"y":2542967.1999999993}},{"attributes":{"ID":553137,"DIS_CODE":0,"TOWNNAME":"東區","LI":"富強里","LIN":"10鄰","STREET":"中華東路","SECT":"二段","MAREA":" ","LANE":" ","ALLEY":" ","HOUSE_NO":"２０６號","E_COORD97":171136.07000000001,"N_COORD97":2542609.3700000001,"ADDRESS":"中華東路二段２０６號","OBJECTID":553110},"geometry":{"x":171136.07000000123,"y":2542609.3700000029}},{"attributes":{"ID":553138,"DIS_CODE":0,"TOWNNAME":"東區","LI":"龍山里","LIN":"10鄰","STREET":"東門路","SECT":"二段","MAREA":" ","LANE":" ","ALLEY":" ","HOUSE_NO":"９０號","E_COORD97":170015.53,"N_COORD97":2542963.0699999998,"ADDRESS":"東門路二段９０號","OBJECTID":553111},"geometry":{"x":170015.53000000119,"y":2542963.070000004}},{"attributes":{"ID":553139,"DIS_CODE":0,"TOWNNAME":"東區","LI":"龍山里","LIN":"10鄰","STREET":"東門路","SECT":"二段","MAREA":" ","LANE":" ","ALLEY":" ","HOUSE_NO":"３４號","E_COORD97":169989.41,"N_COORD97":2542973.21,"ADDRESS":"東門路二段３４號","OBJECTID":553112},"geometry":{"x":169989.41000000108,"y":2542973.2100000028}},{"attributes":{"ID":553140,"DIS_CODE":0,"TOWNNAME":"東區","LI":"龍山里","LIN":"10鄰","STREET":"東門路","SECT":"二段","MAREA":" ","LANE":" ","ALLEY":" ","HOUSE_NO":"３６號","E_COORD97":169995.25,"N_COORD97":2542971.6600000001,"ADDRESS":"東門路二段３６號","OBJECTID":553113},"geometry":{"x":169995.25000000093,"y":2542971.6600000001}},{"attributes":{"ID":553141,"DIS_CODE":0,"TOWNNAME":"東區","LI":"龍山里","LIN":"10鄰","STREET":"東門路","SECT":"二段","MAREA":" ","LANE":" ","ALLEY":" ","HOUSE_NO":"３８號","E_COORD97":169997.31,"N_COORD97":2542964.2799999998,"ADDRESS":"東門路二段３８號","OBJECTID":553114},"geometry":{"x":169997.30999999959,"y":2542964.2800000012}},{"attributes":{"ID":553142,"DIS_CODE":0,"TOWNNAME":"東區","LI":"龍山里","LIN":"10鄰","STREET":"東門路","SECT":"二段","MAREA":" ","LANE":" ","ALLEY":" ","HOUSE_NO":"６６號","E_COORD97":169991.47,"N_COORD97":2542912.1499999999,"ADDRESS":"東門路二段６６號","OBJECTID":553115},"geometry":{"x":169991.4700000016,"y":2542912.1500000022}},{"attributes":{"ID":553143,"DIS_CODE":0,"TOWNNAME":"東區","LI":"龍山里","LIN":"10鄰","STREET":"東門路","SECT":"二段","MAREA":" ","LANE":" ","ALLEY":" ","HOUSE_NO":"７０號","E_COORD97":170001.95000000001,"N_COORD97":2542922.29,"ADDRESS":"東門路二段７０號","OBJECTID":553116},"geometry":{"x":170001.95000000019,"y":2542922.2899999991}},{"attributes":{"ID":553144,"DIS_CODE":0,"TOWNNAME":"東區","LI":"龍山里","LIN":"10鄰","STREET":"東門路","SECT":"二段","MAREA":" ","LANE":" ","ALLEY":" ","HOUSE_NO":"７２號","E_COORD97":170002.64000000001,"N_COORD97":2542927.0899999999,"ADDRESS":"東門路二段７２號","OBJECTID":553117},"geometry":{"x":170002.6400000006,"y":2542927.0899999999}},{"attributes":{"ID":553145,"DIS_CODE":0,"TOWNNAME":"東區","LI":"龍山里","LIN":"10鄰","STREET":"東門路","SECT":"二段","MAREA":" ","LANE":" ","ALLEY":" ","HOUSE_NO":"７４號","E_COORD97":170004.01000000001,"N_COORD97":2542930.3599999999,"ADDRESS":"東門路二段７４號","OBJECTID":553118},"geometry":{"x":170004.00999999978,"y":2542930.3600000013}},{"attributes":{"ID":553146,"DIS_CODE":0,"TOWNNAME":"東區","LI":"龍山里","LIN":"10鄰","STREET":"東門路","SECT":"二段","MAREA":" ","LANE":" ","ALLEY":" ","HOUSE_NO":"８８號","E_COORD97":170012.44,"N_COORD97":2542965.8199999998,"ADDRESS":"東門路二段８８號","OBJECTID":553119},"geometry":{"x":170012.44000000041,"y":2542965.8200000022}},{"attributes":{"ID":553147,"DIS_CODE":0,"TOWNNAME":"東區","LI":"崇文里","LIN":"10鄰","STREET":"崇德十八街","SECT":" ","MAREA":" ","LANE":" ","ALLEY":" ","HOUSE_NO":"３２號","E_COORD97":170893.45999999999,"N_COORD97":2541013.3799999999,"ADDRESS":"崇德十八街３２號","OBJECTID":553120},"geometry":{"x":170893.45999999996,"y":2541013.3800000027}},{"attributes":{"ID":553148,"DIS_CODE":0,"TOWNNAME":"東區","LI":"崇文里","LIN":"10鄰","STREET":"崇德十八街","SECT":" ","MAREA":" ","LANE":" ","ALLEY":" ","HOUSE_NO":"３４號","E_COORD97":170898.04000000001,"N_COORD97":2541013.2799999998,"ADDRESS":"崇德十八街３４號","OBJECTID":553121},"geometry":{"x":170898.04000000004,"y":2541013.2799999993}},{"attributes":{"ID":553149,"DIS_CODE":0,"TOWNNAME":"東區","LI":"崇文里","LIN":"10鄰","STREET":"崇德十八街","SECT":" ","MAREA":" ","LANE":" ","ALLEY":" ","HOUSE_NO":"３６號","E_COORD97":170902.92000000001,"N_COORD97":2541021.5299999998,"ADDRESS":"崇德十八街３６號","OBJECTID":553122},"geometry":{"x":170902.92000000086,"y":2541021.5299999993}},{"attributes":{"ID":553150,"DIS_CODE":0,"TOWNNAME":"東區","LI":"崇文里","LIN":"10鄰","STREET":"崇德十八街","SECT":" ","MAREA":" ","LANE":" ","ALLEY":" ","HOUSE_NO":"３８號","E_COORD97":170908,"N_COORD97":2541021.6299999999,"ADDRESS":"崇德十八街３８號","OBJECTID":553123},"geometry":{"x":170908,"y":2541021.6299999971}},{"attributes":{"ID":553151,"DIS_CODE":0,"TOWNNAME":"東區","LI":"崇文里","LIN":"10鄰","STREET":"崇德十八街","SECT":" ","MAREA":" ","LANE":" ","ALLEY":" ","HOUSE_NO":"４２號之１","E_COORD97":170917.04999999999,"N_COORD97":2541021.8300000001,"ADDRESS":"崇德十八街４２號之１","OBJECTID":553124},"geometry":{"x":170917.05000000075,"y":2541021.8300000038}},{"attributes":{"ID":553152,"DIS_CODE":0,"TOWNNAME":"東區","LI":"崇文里","LIN":"10鄰","STREET":"崇德十八街","SECT":" ","MAREA":" ","LANE":" ","ALLEY":" ","HOUSE_NO":"４６號","E_COORD97":170921.04000000001,"N_COORD97":2541021.8300000001,"ADDRESS":"崇德十八街４６號","OBJECTID":553125},"geometry":{"x":170921.04000000097,"y":2541021.8300000038}},{"attributes":{"ID":553153,"DIS_CODE":0,"TOWNNAME":"東區","LI":"崇文里","LIN":"10鄰","STREET":"崇德十八街","SECT":" ","MAREA":" ","LANE":" ","ALLEY":" ","HOUSE_NO":"６４號","E_COORD97":170957.66,"N_COORD97":2541012.1800000002,"ADDRESS":"崇德十八街６４號","OBJECTID":553126},"geometry":{"x":170957.66000000108,"y":2541012.1800000034}},{"attributes":{"ID":553154,"DIS_CODE":0,"TOWNNAME":"東區","LI":"崇文里","LIN":"10鄰","STREET":"崇德十八街","SECT":" ","MAREA":" ","LANE":" ","ALLEY":" ","HOUSE_NO":"６６號","E_COORD97":170964.92999999999,"N_COORD97":2541012.3799999999,"ADDRESS":"崇德十八街６６號","OBJECTID":553127},"geometry":{"x":170964.93000000063,"y":2541012.379999999}},{"attributes":{"ID":553155,"DIS_CODE":0,"TOWNNAME":"東區","LI":"崇文里","LIN":"10鄰","STREET":"崇德十八街","SECT":" ","MAREA":" ","LANE":" ","ALLEY":" ","HOUSE_NO":"６８號","E_COORD97":170980.85999999999,"N_COORD97":2541012.2799999998,"ADDRESS":"崇德十八街６８號","OBJECTID":553128},"geometry":{"x":170980.86000000034,"y":2541012.2800000012}},{"attributes":{"ID":553156,"DIS_CODE":0,"TOWNNAME":"東區","LI":"崇文里","LIN":"10鄰","STREET":"崇德十八街","SECT":" ","MAREA":" ","LANE":" ","ALLEY":" ","HOUSE_NO":"７０號","E_COORD97":170975.98000000001,"N_COORD97":2541012.0800000001,"ADDRESS":"崇德十八街７０號","OBJECTID":553129},"geometry":{"x":170975.98000000138,"y":2541012.0800000001}},{"attributes":{"ID":553157,"DIS_CODE":0,"TOWNNAME":"東區","LI":"崇文里","LIN":"10鄰","STREET":"崇德十八街","SECT":" ","MAREA":" ","LANE":" ","ALLEY":" ","HOUSE_NO":"７２號","E_COORD97":170971.20000000001,"N_COORD97":2541012.1800000002,"ADDRESS":"崇德十八街７２號","OBJECTID":553130},"geometry":{"x":170971.20000000019,"y":2541012.1800000034}},{"attributes":{"ID":553158,"DIS_CODE":0,"TOWNNAME":"永康區","LI":"北灣里","LIN":"10鄰","STREET":"大灣路","SECT":" ","MAREA":" ","LANE":" ","ALLEY":" ","HOUSE_NO":"９０號","E_COORD97":175207.82000000001,"N_COORD97":2545733.46,"ADDRESS":"大灣路９０號","OBJECTID":553131},"geometry":{"x":175207.82000000123,"y":2545733.4600000009}},{"attributes":{"ID":553159,"DIS_CODE":0,"TOWNNAME":"永康區","LI":"\u25A0洲里","LIN":"10鄰","STREET":"\u25A0行路","SECT":" ","MAREA":" ","LANE":" ","ALLEY":" ","HOUSE_NO":"１０５號","E_COORD97":171469.10999999999,"N_COORD97":2549222.75,"ADDRESS":"\u25A0行路１０５號","OBJECTID":553132},"geometry":{"x":171469.11000000034,"y":2549222.75}},{"attributes":{"ID":553160,"DIS_CODE":0,"TOWNNAME":"永康區","LI":"\u25A0行里","LIN":"10鄰","STREET":"中正路","SECT":" ","MAREA":" ","LANE":" ","ALLEY":" ","HOUSE_NO":"４０７號","E_COORD97":172385.51000000001,"N_COORD97":2548485.6699999999,"ADDRESS":"中正路４０７號","OBJECTID":553133},"geometry":{"x":172385.51000000071,"y":2548485.6700000018}},{"attributes":{"ID":553161,"DIS_CODE":0,"TOWNNAME":"永康區","LI":"\u25A0洲里","LIN":"10鄰","STREET":"\u25A0行路","SECT":" ","MAREA":" ","LANE":" ","ALLEY":" ","HOUSE_NO":"９７號","E_COORD97":171482.63,"N_COORD97":2549232.75,"ADDRESS":"\u25A0行路９７號","OBJECTID":553134},"geometry":{"x":171482.63000000082,"y":2549232.75}},{"attributes":{"ID":553162,"DIS_CODE":0,"TOWNNAME":"永康區","LI":"\u25A0行里","LIN":"10鄰","STREET":"中正路","SECT":" ","MAREA":" ","LANE":" ","ALLEY":" ","HOUSE_NO":"４９３號","E_COORD97":172238.34,"N_COORD97":2548634.1400000001,"ADDRESS":"中正路４９３號","OBJECTID":553135},"geometry":{"x":172238.33999999985,"y":2548634.1400000006}},{"attributes":{"ID":553163,"DIS_CODE":0,"TOWNNAME":"永康區","LI":"中華里","LIN":"10鄰","STREET":"小東路","SECT":" ","MAREA":" ","LANE":" ","ALLEY":" ","HOUSE_NO":"６０１號","E_COORD97":171827.09,"N_COORD97":2544340.9900000002,"ADDRESS":"小東路６０１號","OBJECTID":553136},"geometry":{"x":171827.09000000078,"y":2544340.9900000021}},{"attributes":{"ID":553164,"DIS_CODE":0,"TOWNNAME":"東區","LI":"崇明里","LIN":"10鄰","STREET":"大同路","SECT":"二段","MAREA":" ","LANE":" ","ALLEY":" ","HOUSE_NO":"５９５號","E_COORD97":169603.59,"N_COORD97":2541000.2000000002,"ADDRESS":"大同路二段５９５號","OBJECTID":553137},"geometry":{"x":169603.58999999985,"y":2541000.1999999993}},{"attributes":{"ID":553165,"DIS_CODE":0,"TOWNNAME":"東區","LI":"崇明里","LIN":"10鄰","STREET":"大同路","SECT":"二段","MAREA":" ","LANE":" ","ALLEY":" ","HOUSE_NO":"５９７號","E_COORD97":169602.81,"N_COORD97":2540994.98,"ADDRESS":"大同路二段５９７號","OBJECTID":553138},"geometry":{"x":169602.81000000052,"y":2540994.9800000023}},{"attributes":{"ID":553166,"DIS_CODE":0,"TOWNNAME":"東區","LI":"崇明里","LIN":"10鄰","STREET":"大同路","SECT":"二段","MAREA":" ","LANE":" ","ALLEY":" ","HOUSE_NO":"５９９號","E_COORD97":169605.48000000001,"N_COORD97":2540991.4199999999,"ADDRESS":"大同路二段５９９號","OBJECTID":553139},"geometry":{"x":169605.48000000045,"y":2540991.4200000018}},{"attributes":{"ID":553167,"DIS_CODE":0,"TOWNNAME":"永康區","LI":"中華里","LIN":"10鄰","STREET":"小東路","SECT":" ","MAREA":" ","LANE":" ","ALLEY":" ","HOUSE_NO":"６１１號","E_COORD97":171848.54000000001,"N_COORD97":2544341.6400000001,"ADDRESS":"小東路６１１號","OBJECTID":553140},"geometry":{"x":171848.54000000004,"y":2544341.6400000006}},{"attributes":{"ID":553168,"DIS_CODE":0,"TOWNNAME":"永康區","LI":"\u25A0行里","LIN":"10鄰","STREET":"中正北路","SECT":" ","MAREA":" ","LANE":" ","ALLEY":" ","HOUSE_NO":"４１號","E_COORD97":171982.04000000001,"N_COORD97":2549095.7400000002,"ADDRESS":"中正北路４１號","OBJECTID":553141},"geometry":{"x":171982.04000000097,"y":2549095.7400000021}},{"attributes":{"ID":553169,"DIS_CODE":0,"TOWNNAME":"永康區","LI":"\u25A0行里","LIN":"10鄰","STREET":"中正路","SECT":" ","MAREA":" ","LANE":" ","ALLEY":" ","HOUSE_NO":"５０５號","E_COORD97":172219.92999999999,"N_COORD97":2548655.8300000001,"ADDRESS":"中正路５０５號","OBJECTID":553142},"geometry":{"x":172219.93000000063,"y":2548655.8300000001}},{"attributes":{"ID":553170,"DIS_CODE":0,"TOWNNAME":"永康區","LI":"\u25A0洲里","LIN":"10鄰","STREET":"\u25A0行路","SECT":" ","MAREA":" ","LANE":" ","ALLEY":" ","HOUSE_NO":"１１６號","E_COORD97":171503.20000000001,"N_COORD97":2549260.4900000002,"ADDRESS":"\u25A0行路１１６號","OBJECTID":553143},"geometry":{"x":171503.20000000112,"y":2549260.4900000021}},{"attributes":{"ID":553171,"DIS_CODE":0,"TOWNNAME":"東區","LI":"崇學里","LIN":"10鄰","STREET":"中華東路","SECT":"三段","MAREA":" ","LANE":" ","ALLEY":" ","HOUSE_NO":"２９０號","E_COORD97":170421.19,"N_COORD97":2541750.2999999998,"ADDRESS":"中華東路三段２９０號","OBJECTID":553144},"geometry":{"x":170421.18999999948,"y":2541750.3000000007}},{"attributes":{"ID":553172,"DIS_CODE":0,"TOWNNAME":"東區","LI":"崇學里","LIN":"10鄰","STREET":"中華東路","SECT":"三段","MAREA":" ","LANE":" ","ALLEY":" ","HOUSE_NO":"２９２號","E_COORD97":170417.88,"N_COORD97":2541747.3199999998,"ADDRESS":"中華東路三段２９２號","OBJECTID":553145},"geometry":{"x":170417.88000000175,"y":2541747.320000004}},{"attributes":{"ID":553173,"DIS_CODE":0,"TOWNNAME":"東區","LI":"崇學里","LIN":"10鄰","STREET":"中華東路","SECT":"三段","MAREA":" ","LANE":" ","ALLEY":" ","HOUSE_NO":"２９４號","E_COORD97":170413.23999999999,"N_COORD97":2541744.3399999999,"ADDRESS":"中華東路三段２９４號","OBJECTID":553146},"geometry":{"x":170413.24000000022,"y":2541744.3400000017}},{"attributes":{"ID":553174,"DIS_CODE":0,"TOWNNAME":"東區","LI":"崇學里","LIN":"10鄰","STREET":"中華東路","SECT":"三段","MAREA":" ","LANE":" ","ALLEY":" ","HOUSE_NO":"２９８號","E_COORD97":170407.12,"N_COORD97":2541736.73,"ADDRESS":"中華東路三段２９８號","OBJECTID":553147},"geometry":{"x":170407.12000000011,"y":2541736.7300000004}},{"attributes":{"ID":553175,"DIS_CODE":0,"TOWNNAME":"東區","LI":"崇學里","LIN":"10鄰","STREET":"中華東路","SECT":"三段","MAREA":" ","LANE":" ","ALLEY":" ","HOUSE_NO":"３００號","E_COORD97":170402.31,"N_COORD97":2541732.9300000002,"ADDRESS":"中華東路三段３００號","OBJECTID":553148},"geometry":{"x":170402.30999999959,"y":2541732.9300000016}},{"attributes":{"ID":553176,"DIS_CODE":0,"TOWNNAME":"東區","LI":"崇信里","LIN":"10鄰","STREET":"崇信街","SECT":" ","MAREA":" ","LANE":" ","ALLEY":" ","HOUSE_NO":"１００號","E_COORD97":170742.56,"N_COORD97":2542330.0600000001,"ADDRESS":"崇信街１００號","OBJECTID":553149},"geometry":{"x":170742.55999999959,"y":2542330.0600000024}},{"attributes":{"ID":553177,"DIS_CODE":0,"TOWNNAME":"東區","LI":"崇信里","LIN":"10鄰","STREET":"崇信街","SECT":" ","MAREA":" ","LANE":" ","ALLEY":" ","HOUSE_NO":"１０２號","E_COORD97":170744.41,"N_COORD97":2542324.8399999999,"ADDRESS":"崇信街１０２號","OBJECTID":553150},"geometry":{"x":170744.41000000015,"y":2542324.8400000017}},{"attributes":{"ID":553178,"DIS_CODE":0,"TOWNNAME":"東區","LI":"崇信里","LIN":"10鄰","STREET":"崇信街","SECT":" ","MAREA":" ","LANE":" ","ALLEY":" ","HOUSE_NO":"１０４號","E_COORD97":170746.78,"N_COORD97":2542319.6099999999,"ADDRESS":"崇信街１０４號","OBJECTID":553151},"geometry":{"x":170746.78000000119,"y":2542319.6099999994}},{"attributes":{"ID":553179,"DIS_CODE":0,"TOWNNAME":"東區","LI":"崇信里","LIN":"10鄰","STREET":"崇信街","SECT":" ","MAREA":" ","LANE":" ","ALLEY":" ","HOUSE_NO":"１０６號","E_COORD97":170748.29999999999,"N_COORD97":2542315.3900000001,"ADDRESS":"崇信街１０６號","OBJECTID":553152},"geometry":{"x":170748.29999999981,"y":2542315.3900000006}},{"attributes":{"ID":553180,"DIS_CODE":0,"TOWNNAME":"東區","LI":"崇信里","LIN":"10鄰","STREET":"崇信街","SECT":" ","MAREA":" ","LANE":" ","ALLEY":" ","HOUSE_NO":"１０８號","E_COORD97":170749.98000000001,"N_COORD97":2542310.3399999999,"ADDRESS":"崇信街１０８號","OBJECTID":553153},"geometry":{"x":170749.98000000231,"y":2542310.3400000017}},{"attributes":{"ID":553181,"DIS_CODE":0,"TOWNNAME":"東區","LI":"崇信里","LIN":"10鄰","STREET":"崇信街","SECT":" ","MAREA":" ","LANE":" ","ALLEY":" ","HOUSE_NO":"１１０號","E_COORD97":170751.5,"N_COORD97":2542305.7799999998,"ADDRESS":"崇信街１１０號","OBJECTID":553154},"geometry":{"x":170751.50000000093,"y":2542305.7799999993}},{"attributes":{"ID":553182,"DIS_CODE":0,"TOWNNAME":"東區","LI":"崇信里","LIN":"10鄰","STREET":"崇信街","SECT":" ","MAREA":" ","LANE":" ","ALLEY":" ","HOUSE_NO":"１１２號","E_COORD97":170753.19,"N_COORD97":2542301.3999999999,"ADDRESS":"崇信街１１２號","OBJECTID":553155},"geometry":{"x":170753.19000000041,"y":2542301.4000000004}},{"attributes":{"ID":553183,"DIS_CODE":0,"TOWNNAME":"東區","LI":"崇信里","LIN":"10鄰","STREET":"崇信街","SECT":" ","MAREA":" ","LANE":" ","ALLEY":" ","HOUSE_NO":"１１６號","E_COORD97":170755.56,"N_COORD97":2542292.9700000002,"ADDRESS":"崇信街１１６號","OBJECTID":553156},"geometry":{"x":170755.56000000052,"y":2542292.9700000025}},{"attributes":{"ID":553184,"DIS_CODE":0,"TOWNNAME":"東區","LI":"崇信里","LIN":"10鄰","STREET":"崇信街","SECT":" ","MAREA":" ","LANE":" ","ALLEY":" ","HOUSE_NO":"９８號","E_COORD97":170740.35999999999,"N_COORD97":2542336.6400000001,"ADDRESS":"崇信街９８號","OBJECTID":553157},"geometry":{"x":170740.3599999994,"y":2542336.6400000025}},{"attributes":{"ID":553185,"DIS_CODE":0,"TOWNNAME":"歸仁區","LI":"南保里","LIN":"61鄰","STREET":"中山七街","SECT":" ","MAREA":" ","LANE":" ","ALLEY":" ","HOUSE_NO":"３１號","E_COORD97":176605.06,"N_COORD97":2540784.25,"ADDRESS":"中山七街３１號","OBJECTID":553158},"geometry":{"x":176605.05999999959,"y":2540784.25}},{"attributes":{"ID":553186,"DIS_CODE":0,"TOWNNAME":"歸仁區","LI":"南保里","LIN":"61鄰","STREET":"中山七街","SECT":" ","MAREA":" ","LANE":" ","ALLEY":" ","HOUSE_NO":"３９號","E_COORD97":176604.95999999999,"N_COORD97":2540767.2599999998,"ADDRESS":"中山七街３９號","OBJECTID":553159},"geometry":{"x":176604.96000000089,"y":2540767.2599999979}},{"attributes":{"ID":553187,"DIS_CODE":0,"TOWNNAME":"歸仁區","LI":"南保里","LIN":"61鄰","STREET":"中山七街","SECT":" ","MAREA":" ","LANE":" ","ALLEY":" ","HOUSE_NO":"１９號","E_COORD97":176607.26000000001,"N_COORD97":2540809.2599999998,"ADDRESS":"中山七街１９號","OBJECTID":553160},"geometry":{"x":176607.25999999978,"y":2540809.2600000016}},{"attributes":{"ID":553188,"DIS_CODE":0,"TOWNNAME":"歸仁區","LI":"南保里","LIN":"61鄰","STREET":"中山七街","SECT":" ","MAREA":" ","LANE":" ","ALLEY":" ","HOUSE_NO":"３３號","E_COORD97":176605.06,"N_COORD97":2540779.2599999998,"ADDRESS":"中山七街３３號","OBJECTID":553161},"geometry":{"x":176605.05999999959,"y":2540779.2600000016}},{"attributes":{"ID":553189,"DIS_CODE":0,"TOWNNAME":"歸仁區","LI":"南保里","LIN":"61鄰","STREET":"中山七街","SECT":" ","MAREA":" ","LANE":" ","ALLEY":" ","HOUSE_NO":"２７號","E_COORD97":176605.06,"N_COORD97":2540792.2599999998,"ADDRESS":"中山七街２７號","OBJECTID":553162},"geometry":{"x":176605.05999999959,"y":2540792.2600000016}},{"attributes":{"ID":553190,"DIS_CODE":0,"TOWNNAME":"歸仁區","LI":"南保里","LIN":"61鄰","STREET":"中山七街","SECT":" ","MAREA":" ","LANE":" ","ALLEY":" ","HOUSE_NO":"４１號","E_COORD97":176603.95999999999,"N_COORD97":2540764.2599999998,"ADDRESS":"中山七街４１號","OBJECTID":553163},"geometry":{"x":176603.95999999996,"y":2540764.2600000035}},{"attributes":{"ID":553191,"DIS_CODE":0,"TOWNNAME":"歸仁區","LI":"南保里","LIN":"61鄰","STREET":"中山七街","SECT":" ","MAREA":" ","LANE":" ","ALLEY":" ","HOUSE_NO":"４５號","E_COORD97":176603.85999999999,"N_COORD97":2540755.2599999998,"ADDRESS":"中山七街４５號","OBJECTID":553164},"geometry":{"x":176603.86000000034,"y":2540755.2600000016}},{"attributes":{"ID":553192,"DIS_CODE":0,"TOWNNAME":"歸仁區","LI":"南保里","LIN":"61鄰","STREET":"中山七街","SECT":" ","MAREA":" ","LANE":" ","ALLEY":" ","HOUSE_NO":"２３號","E_COORD97":176606.16,"N_COORD97":2540801.2599999998,"ADDRESS":"中山七街２３號","OBJECTID":553165},"geometry":{"x":176606.16000000015,"y":2540801.2600000035}},{"attributes":{"ID":553193,"DIS_CODE":0,"TOWNNAME":"歸仁區","LI":"南保里","LIN":"61鄰","STREET":"中山七街","SECT":" ","MAREA":" ","LANE":" ","ALLEY":" ","HOUSE_NO":"２５號","E_COORD97":176606.16,"N_COORD97":2540797.2599999998,"ADDRESS":"中山七街２５號","OBJECTID":553166},"geometry":{"x":176606.16000000015,"y":2540797.2599999998}},{"attributes":{"ID":553194,"DIS_CODE":0,"TOWNNAME":"歸仁區","LI":"南保里","LIN":"61鄰","STREET":"中山七街","SECT":" ","MAREA":" ","LANE":" ","ALLEY":" ","HOUSE_NO":"３５號","E_COORD97":176605.06,"N_COORD97":2540776.2599999998,"ADDRESS":"中山七街３５號","OBJECTID":553167},"geometry":{"x":176605.05999999959,"y":2540776.2599999998}},{"attributes":{"ID":553195,"DIS_CODE":0,"TOWNNAME":"歸仁區","LI":"南保里","LIN":"61鄰","STREET":"中山七街","SECT":" ","MAREA":" ","LANE":" ","ALLEY":" ","HOUSE_NO":"１７號","E_COORD97":176607.26000000001,"N_COORD97":2540813.2599999998,"ADDRESS":"中山七街１７號","OBJECTID":553168},"geometry":{"x":176607.25999999978,"y":2540813.2599999998}},{"attributes":{"ID":553196,"DIS_CODE":0,"TOWNNAME":"歸仁區","LI":"南保里","LIN":"61鄰","STREET":"中山七街","SECT":" ","MAREA":" ","LANE":" ","ALLEY":" ","HOUSE_NO":"３７號","E_COORD97":176604.95999999999,"N_COORD97":2540771.2599999998,"ADDRESS":"中山七街３７號","OBJECTID":553169},"geometry":{"x":176604.96000000089,"y":2540771.2600000016}},{"attributes":{"ID":553197,"DIS_CODE":0,"TOWNNAME":"歸仁區","LI":"南保里","LIN":"61鄰","STREET":"中山七街","SECT":" ","MAREA":" ","LANE":" ","ALLEY":" ","HOUSE_NO":"９號","E_COORD97":176608.20999999999,"N_COORD97":2540840.2599999998,"ADDRESS":"中山七街９號","OBJECTID":553170},"geometry":{"x":176608.21000000183,"y":2540840.2600000016}},{"attributes":{"ID":553198,"DIS_CODE":0,"TOWNNAME":"歸仁區","LI":"南保里","LIN":"61鄰","STREET":"中山七街","SECT":" ","MAREA":" ","LANE":" ","ALLEY":" ","HOUSE_NO":"１３號","E_COORD97":176607.26000000001,"N_COORD97":2540821.2599999998,"ADDRESS":"中山七街１３號","OBJECTID":553171},"geometry":{"x":176607.25999999978,"y":2540821.2599999998}},{"attributes":{"ID":553199,"DIS_CODE":0,"TOWNNAME":"歸仁區","LI":"南保里","LIN":"61鄰","STREET":"中山七街","SECT":" ","MAREA":" ","LANE":" ","ALLEY":" ","HOUSE_NO":"１５號","E_COORD97":176607.26000000001,"N_COORD97":2540817.2599999998,"ADDRESS":"中山七街１５號","OBJECTID":553172},"geometry":{"x":176607.25999999978,"y":2540817.2599999998}},{"attributes":{"ID":553200,"DIS_CODE":0,"TOWNNAME":"歸仁區","LI":"看西里","LIN":"21鄰","STREET":"成功七街","SECT":" ","MAREA":" ","LANE":" ","ALLEY":" ","HOUSE_NO":"１３８號","E_COORD97":178139.01000000001,"N_COORD97":2539773.3599999999,"ADDRESS":"成功七街１３８號","OBJECTID":553173},"geometry":{"x":178139.01000000071,"y":2539773.3600000013}},{"attributes":{"ID":553201,"DIS_CODE":0,"TOWNNAME":"安平區","LI":"文平里","LIN":"21鄰","STREET":"建平路","SECT":" ","MAREA":" ","LANE":" ","ALLEY":" ","HOUSE_NO":"１４７號","E_COORD97":166109.59,"N_COORD97":2542986.98,"ADDRESS":"建平路１４７號","OBJECTID":553174},"geometry":{"x":166109.59000000078,"y":2542986.9800000004}},{"attributes":{"ID":553202,"DIS_CODE":0,"TOWNNAME":"安平區","LI":"文平里","LIN":"21鄰","STREET":"文平路","SECT":" ","MAREA":" ","LANE":" ","ALLEY":" ","HOUSE_NO":"８０號","E_COORD97":165714.47,"N_COORD97":2542856.25,"ADDRESS":"文平路８０號","OBJECTID":553175},"geometry":{"x":165714.4700000016,"y":2542856.2500000037}},{"attributes":{"ID":553203,"DIS_CODE":0,"TOWNNAME":"安平區","LI":"文平里","LIN":"21鄰","STREET":"文平路","SECT":" ","MAREA":" ","LANE":" ","ALLEY":" ","HOUSE_NO":"７８號","E_COORD97":165713.51000000001,"N_COORD97":2542849.5899999999,"ADDRESS":"文平路７８號","OBJECTID":553176},"geometry":{"x":165713.50999999978,"y":2542849.5899999999}},{"attributes":{"ID":553204,"DIS_CODE":0,"TOWNNAME":"安平區","LI":"平安里","LIN":"21鄰","STREET":"民權路","SECT":"四段","MAREA":" ","LANE":" ","ALLEY":" ","HOUSE_NO":"４４３號","E_COORD97":165298.87,"N_COORD97":2544473.5899999999,"ADDRESS":"民權路四段４４３號","OBJECTID":553177},"geometry":{"x":165298.87000000104,"y":2544473.5899999999}},{"attributes":{"ID":553205,"DIS_CODE":0,"TOWNNAME":"安平區","LI":"平安里","LIN":"21鄰","STREET":"民權路","SECT":"四段","MAREA":" ","LANE":" ","ALLEY":" ","HOUSE_NO":"４４５號","E_COORD97":165294.10999999999,"N_COORD97":2544475.1800000002,"ADDRESS":"民權路四段４４５號","OBJECTID":553178},"geometry":{"x":165294.11000000127,"y":2544475.1800000016}},{"attributes":{"ID":553206,"DIS_CODE":0,"TOWNNAME":"安平區","LI":"平安里","LIN":"21鄰","STREET":"民權路","SECT":"四段","MAREA":" ","LANE":" ","ALLEY":" ","HOUSE_NO":"４４７號","E_COORD97":165290.45999999999,"N_COORD97":2544476.77,"ADDRESS":"民權路四段４４７號","OBJECTID":553179},"geometry":{"x":165290.45999999996,"y":2544476.7700000014}},{"attributes":{"ID":553207,"DIS_CODE":0,"TOWNNAME":"新營區","LI":"永生里","LIN":"21鄰","STREET":"康樂街","SECT":" ","MAREA":" ","LANE":" ","ALLEY":" ","HOUSE_NO":"６６號","E_COORD97":179822.48000000001,"N_COORD97":2577837.1000000001,"ADDRESS":"康樂街６６號","OBJECTID":553180},"geometry":{"x":179822.47999999952,"y":2577837.1000000015}},{"attributes":{"ID":553208,"DIS_CODE":0,"TOWNNAME":"安平區","LI":"怡平里","LIN":"21鄰","STREET":"平通路","SECT":" ","MAREA":" ","LANE":" ","ALLEY":" ","HOUSE_NO":"３５８號","E_COORD97":165710.20000000001,"N_COORD97":2543726.9500000002,"ADDRESS":"平通路３５８號","OBJECTID":553181},"geometry":{"x":165710.20000000112,"y":2543726.9500000011}},{"attributes":{"ID":553209,"DIS_CODE":0,"TOWNNAME":"安平區","LI":"怡平里","LIN":"21鄰","STREET":"平通路","SECT":" ","MAREA":" ","LANE":" ","ALLEY":" ","HOUSE_NO":"３６６號","E_COORD97":165669.34,"N_COORD97":2543731.5699999998,"ADDRESS":"平通路３６６號","OBJECTID":553182},"geometry":{"x":165669.33999999985,"y":2543731.5700000003}},{"attributes":{"ID":553210,"DIS_CODE":0,"TOWNNAME":"安平區","LI":"文平里","LIN":"21鄰","STREET":"健康一街","SECT":" ","MAREA":" ","LANE":" ","ALLEY":" ","HOUSE_NO":"９號","E_COORD97":165912.29999999999,"N_COORD97":2542669.1600000001,"ADDRESS":"健康一街９號","OBJECTID":553183},"geometry":{"x":165912.29999999888,"y":2542669.1600000001}},{"attributes":{"ID":553211,"DIS_CODE":0,"TOWNNAME":"安平區","LI":"華平里","LIN":"21鄰","STREET":"建平八街","SECT":" ","MAREA":" ","LANE":" ","ALLEY":" ","HOUSE_NO":"４５７號","E_COORD97":165082.31,"N_COORD97":2543599.1099999999,"ADDRESS":"建平八街４５７號","OBJECTID":553184},"geometry":{"x":165082.30999999959,"y":2543599.1100000031}},{"attributes":{"ID":553212,"DIS_CODE":0,"TOWNNAME":"安平區","LI":"華平里","LIN":"21鄰","STREET":"建平八街","SECT":" ","MAREA":" ","LANE":" ","ALLEY":" ","HOUSE_NO":"４５９號","E_COORD97":165077.73999999999,"N_COORD97":2543599.6200000001,"ADDRESS":"建平八街４５９號","OBJECTID":553185},"geometry":{"x":165077.74000000115,"y":2543599.620000001}},{"attributes":{"ID":553213,"DIS_CODE":0,"TOWNNAME":"安平區","LI":"華平里","LIN":"21鄰","STREET":"建平八街","SECT":" ","MAREA":" ","LANE":" ","ALLEY":" ","HOUSE_NO":"４６１號","E_COORD97":165073.67000000001,"N_COORD97":2543600.3799999999,"ADDRESS":"建平八街４６１號","OBJECTID":553186},"geometry":{"x":165073.66999999993,"y":2543600.3800000027}},{"attributes":{"ID":553214,"DIS_CODE":0,"TOWNNAME":"安平區","LI":"華平里","LIN":"21鄰","STREET":"建平八街","SECT":" ","MAREA":" ","LANE":" ","ALLEY":" ","HOUSE_NO":"４６３號","E_COORD97":165070.23999999999,"N_COORD97":2543601.1400000001,"ADDRESS":"建平八街４６３號","OBJECTID":553187},"geometry":{"x":165070.24000000022,"y":2543601.1400000025}},{"attributes":{"ID":553215,"DIS_CODE":0,"TOWNNAME":"安平區","LI":"華平里","LIN":"21鄰","STREET":"建平八街","SECT":" ","MAREA":" ","LANE":" ","ALLEY":" ","HOUSE_NO":"４６５號","E_COORD97":165065.28,"N_COORD97":2543601.7799999998,"ADDRESS":"建平八街４６５號","OBJECTID":553188},"geometry":{"x":165065.27999999933,"y":2543601.7800000012}},{"attributes":{"ID":553216,"DIS_CODE":0,"TOWNNAME":"安平區","LI":"華平里","LIN":"21鄰","STREET":"建平八街","SECT":" ","MAREA":" ","LANE":" ","ALLEY":" ","HOUSE_NO":"４６７號","E_COORD97":165061.34,"N_COORD97":2543602.4100000001,"ADDRESS":"建平八街４６７號","OBJECTID":553189},"geometry":{"x":165061.34000000078,"y":2543602.410000002}},{"attributes":{"ID":553217,"DIS_CODE":0,"TOWNNAME":"安平區","LI":"怡平里","LIN":"21鄰","STREET":"怡平路","SECT":" ","MAREA":" ","LANE":" ","ALLEY":" ","HOUSE_NO":"３５３號","E_COORD97":165728.32000000001,"N_COORD97":2543767.7599999998,"ADDRESS":"怡平路３５３號","OBJECTID":553190},"geometry":{"x":165728.32000000123,"y":2543767.7599999979}},{"attributes":{"ID":553218,"DIS_CODE":0,"TOWNNAME":"安平區","LI":"怡平里","LIN":"21鄰","STREET":"怡平路","SECT":" ","MAREA":" ","LANE":" ","ALLEY":" ","HOUSE_NO":"３５５號","E_COORD97":165721.76999999999,"N_COORD97":2543767.7599999998,"ADDRESS":"怡平路３５５號","OBJECTID":553191},"geometry":{"x":165721.76999999955,"y":2543767.7599999979}},{"attributes":{"ID":553219,"DIS_CODE":0,"TOWNNAME":"安平區","LI":"建平里","LIN":"21鄰","STREET":"平通路","SECT":" ","MAREA":" ","LANE":" ","ALLEY":" ","HOUSE_NO":"２８號","E_COORD97":166169.39999999999,"N_COORD97":2543670.3300000001,"ADDRESS":"平通路２８號","OBJECTID":553192},"geometry":{"x":166169.40000000037,"y":2543670.3300000019}},{"attributes":{"ID":553220,"DIS_CODE":0,"TOWNNAME":"安平區","LI":"建平里","LIN":"21鄰","STREET":"怡平路","SECT":" ","MAREA":" ","LANE":" ","ALLEY":" ","HOUSE_NO":"７５號","E_COORD97":166021.73999999999,"N_COORD97":2543718.9100000001,"ADDRESS":"怡平路７５號","OBJECTID":553193},"geometry":{"x":166021.74000000209,"y":2543718.9100000001}},{"attributes":{"ID":553221,"DIS_CODE":0,"TOWNNAME":"歸仁區","LI":"大潭里","LIN":"21鄰","STREET":"長榮路","SECT":"三段","MAREA":" ","LANE":" ","ALLEY":" ","HOUSE_NO":"５０號","E_COORD97":178548.48000000001,"N_COORD97":2534197.25,"ADDRESS":"長榮路三段５０號","OBJECTID":553194},"geometry":{"x":178548.48000000138,"y":2534197.2500000037}},{"attributes":{"ID":553222,"DIS_CODE":0,"TOWNNAME":"北區","LI":"成德里","LIN":"21鄰","STREET":"文成五街","SECT":" ","MAREA":" ","LANE":" ","ALLEY":" ","HOUSE_NO":"２２號","E_COORD97":168592.76000000001,"N_COORD97":2546618.6299999999,"ADDRESS":"文成五街２２號","OBJECTID":553195},"geometry":{"x":168592.76000000164,"y":2546618.629999999}},{"attributes":{"ID":553223,"DIS_CODE":0,"TOWNNAME":"北區","LI":"成德里","LIN":"21鄰","STREET":"文成五街","SECT":" ","MAREA":" ","LANE":" ","ALLEY":" ","HOUSE_NO":"２０號","E_COORD97":168598.85000000001,"N_COORD97":2546620.2799999998,"ADDRESS":"文成五街２０號","OBJECTID":553196},"geometry":{"x":168598.85000000149,"y":2546620.2800000012}},{"attributes":{"ID":553224,"DIS_CODE":0,"TOWNNAME":"北區","LI":"和順里","LIN":"21鄰","STREET":"民德路","SECT":" ","MAREA":" ","LANE":" ","ALLEY":" ","HOUSE_NO":"７５號","E_COORD97":168276.88,"N_COORD97":2545088.5600000001,"ADDRESS":"民德路７５號","OBJECTID":553197},"geometry":{"x":168276.88000000082,"y":2545088.5600000005}},{"attributes":{"ID":553225,"DIS_CODE":0,"TOWNNAME":"歸仁區","LI":"八甲里","LIN":"21鄰","STREET":"大仁街","SECT":" ","MAREA":" ","LANE":" ","ALLEY":" ","HOUSE_NO":"３２２號","E_COORD97":178268.48999999999,"N_COORD97":2541363.25,"ADDRESS":"大仁街３２２號","OBJECTID":553198},"geometry":{"x":178268.49000000115,"y":2541363.25}},{"attributes":{"ID":553226,"DIS_CODE":0,"TOWNNAME":"楠西區","LI":"東勢里","LIN":"21鄰","STREET":"民生路","SECT":" ","MAREA":" ","LANE":" ","ALLEY":" ","HOUSE_NO":"９４號","E_COORD97":197427.44,"N_COORD97":2564197.29,"ADDRESS":"民生路９４號","OBJECTID":553199},"geometry":{"x":197427.44000000227,"y":2564197.2899999972}},{"attributes":{"ID":553227,"DIS_CODE":0,"TOWNNAME":"新營區","LI":"新東里","LIN":"21鄰","STREET":"東明街","SECT":" ","MAREA":" ","LANE":" ","ALLEY":" ","HOUSE_NO":"１４１號","E_COORD97":180787.19,"N_COORD97":2579783.8999999999,"ADDRESS":"東明街１４１號","OBJECTID":553200},"geometry":{"x":180787.19000000041,"y":2579783.9000000041}}]}