{"displayFieldName":"TOWNNAME","fieldAliases":{"ID":"ID","DIS_CODE":"DIS_CODE","TOWNNAME":"TOWNNAME","LI":"LI","LIN":"LIN","STREET":"STREET","SECT":"SECT","MAREA":"MAREA","LANE":"LANE","ALLEY":"ALLEY","HOUSE_NO":"HOUSE_NO","E_COORD97":"E_COORD97","N_COORD97":"N_COORD97","ADDRESS":"ADDRESS","OBJECTID":"OBJECTID"},"geometryType":"esriGeometryPoint","spatialReference":{"wkid":102443,"latestWkid":3826},"fields":[{"name":"ID","type":"esriFieldTypeDouble","alias":"ID"},{"name":"DIS_CODE","type":"esriFieldTypeInteger","alias":"DIS_CODE"},{"name":"TOWNNAME","type":"esriFieldTypeString","alias":"TOWNNAME","length":8},{"name":"LI","type":"esriFieldTypeString","alias":"LI","length":8},{"name":"LIN","type":"esriFieldTypeString","alias":"LIN","length":12},{"name":"STREET","type":"esriFieldTypeString","alias":"STREET","length":20},{"name":"SECT","type":"esriFieldTypeString","alias":"SECT","length":8},{"name":"MAREA","type":"esriFieldTypeString","alias":"MAREA","length":12},{"name":"LANE","type":"esriFieldTypeString","alias":"LANE","length":10},{"name":"ALLEY","type":"esriFieldTypeString","alias":"ALLEY","length":10},{"name":"HOUSE_NO","type":"esriFieldTypeString","alias":"HOUSE_NO","length":20},{"name":"E_COORD97","type":"esriFieldTypeDouble","alias":"E_COORD97"},{"name":"N_COORD97","type":"esriFieldTypeDouble","alias":"N_COORD97"},{"name":"ADDRESS","type":"esriFieldTypeString","alias":"ADDRESS","length":50},{"name":"OBJECTID","type":"esriFieldTypeOID","alias":"OBJECTID"}],"features":[{"attributes":{"ID":215202,"DIS_CODE":0,"TOWNNAME":"北門區","LI":"鯤江里","LIN":"2鄰","STREET":" ","SECT":" ","MAREA":"蚵寮","LANE":" ","ALLEY":" ","HOUSE_NO":"７９９號","E_COORD97":161748.23000000001,"N_COORD97":2576202,"ADDRESS":"蚵寮７９９號","OBJECTID":215201},"geometry":{"x":161748.23000000045,"y":2576202}},{"attributes":{"ID":215203,"DIS_CODE":0,"TOWNNAME":"北門區","LI":"鯤江里","LIN":"2鄰","STREET":" ","SECT":" ","MAREA":"蚵寮","LANE":" ","ALLEY":" ","HOUSE_NO":"８０１號","E_COORD97":161737.87,"N_COORD97":2576198.4700000002,"ADDRESS":"蚵寮８０１號","OBJECTID":215202},"geometry":{"x":161737.87000000011,"y":2576198.4700000007}},{"attributes":{"ID":215204,"DIS_CODE":0,"TOWNNAME":"北門區","LI":"錦湖里","LIN":"2鄰","STREET":" ","SECT":" ","MAREA":"渡子頭","LANE":" ","ALLEY":" ","HOUSE_NO":"１２號","E_COORD97":165247.54999999999,"N_COORD97":2576164.3399999999,"ADDRESS":"渡子頭１２號","OBJECTID":215203},"geometry":{"x":165247.54999999981,"y":2576164.3399999999}},{"attributes":{"ID":215205,"DIS_CODE":0,"TOWNNAME":"北門區","LI":"錦湖里","LIN":"2鄰","STREET":" ","SECT":" ","MAREA":"渡子頭","LANE":" ","ALLEY":" ","HOUSE_NO":"１３號之１","E_COORD97":165296.84,"N_COORD97":2576188.8799999999,"ADDRESS":"渡子頭１３號之１","OBJECTID":215204},"geometry":{"x":165296.84000000171,"y":2576188.8800000008}},{"attributes":{"ID":215206,"DIS_CODE":0,"TOWNNAME":"北門區","LI":"錦湖里","LIN":"2鄰","STREET":" ","SECT":" ","MAREA":"渡子頭","LANE":" ","ALLEY":" ","HOUSE_NO":"１３號","E_COORD97":165282.10000000001,"N_COORD97":2576187.6499999999,"ADDRESS":"渡子頭１３號","OBJECTID":215205},"geometry":{"x":165282.09999999963,"y":2576187.6500000004}},{"attributes":{"ID":215207,"DIS_CODE":0,"TOWNNAME":"南區","LI":"日新里","LIN":"1鄰","STREET":"中華南路","SECT":"二段","MAREA":" ","LANE":"２４９巷","ALLEY":"３２弄","HOUSE_NO":"２０號","E_COORD97":166580.67000000001,"N_COORD97":2540158.23,"ADDRESS":"中華南路二段２４９巷３２弄２０號","OBJECTID":215206},"geometry":{"x":166580.66999999993,"y":2540158.2300000042}},{"attributes":{"ID":215208,"DIS_CODE":0,"TOWNNAME":"南區","LI":"喜東里","LIN":"1鄰","STREET":"中華南路","SECT":"二段","MAREA":" ","LANE":"２４９巷","ALLEY":"３２弄","HOUSE_NO":"３６號","E_COORD97":166593.85000000001,"N_COORD97":2540120.2799999998,"ADDRESS":"中華南路二段２４９巷３２弄３６號","OBJECTID":215207},"geometry":{"x":166593.85000000056,"y":2540120.2800000012}},{"attributes":{"ID":215209,"DIS_CODE":0,"TOWNNAME":"南區","LI":"光明里","LIN":"1鄰","STREET":"鹽埕路","SECT":" ","MAREA":" ","LANE":"２９１巷","ALLEY":"１４弄","HOUSE_NO":"５０號","E_COORD97":166786.14000000001,"N_COORD97":2541389.8900000001,"ADDRESS":"鹽埕路２９１巷１４弄５０號","OBJECTID":215208},"geometry":{"x":166786.13999999966,"y":2541389.8900000006}},{"attributes":{"ID":215210,"DIS_CODE":0,"TOWNNAME":"仁德區","LI":"仁愛里","LIN":"9鄰","STREET":" ","SECT":" ","MAREA":"仁愛","LANE":" ","ALLEY":" ","HOUSE_NO":"１６８號","E_COORD97":170272.939801,"N_COORD97":2539837.855,"ADDRESS":"仁愛１６８號","OBJECTID":215209},"geometry":{"x":170272.93980100006,"y":2539837.8550000023}},{"attributes":{"ID":215211,"DIS_CODE":0,"TOWNNAME":"南區","LI":"光明里","LIN":"1鄰","STREET":"鹽埕路","SECT":" ","MAREA":" ","LANE":"２９１巷","ALLEY":"１４弄","HOUSE_NO":"５２號","E_COORD97":166786.91,"N_COORD97":2541394.5499999998,"ADDRESS":"鹽埕路２９１巷１４弄５２號","OBJECTID":215210},"geometry":{"x":166786.91000000108,"y":2541394.5500000026}},{"attributes":{"ID":215212,"DIS_CODE":0,"TOWNNAME":"南區","LI":"光明里","LIN":"1鄰","STREET":"鹽埕路","SECT":" ","MAREA":" ","LANE":"２９１巷","ALLEY":"１４弄","HOUSE_NO":"５４號","E_COORD97":166789.39000000001,"N_COORD97":2541397.6899999999,"ADDRESS":"鹽埕路２９１巷１４弄５４號","OBJECTID":215211},"geometry":{"x":166789.38999999966,"y":2541397.6899999995}},{"attributes":{"ID":215213,"DIS_CODE":0,"TOWNNAME":"南區","LI":"白雪里","LIN":"1鄰","STREET":"鹽埕路","SECT":" ","MAREA":" ","LANE":"２９１巷","ALLEY":"９４弄","HOUSE_NO":"２１號","E_COORD97":166619.57999999999,"N_COORD97":2541219.3300000001,"ADDRESS":"鹽埕路２９１巷９４弄２１號","OBJECTID":215212},"geometry":{"x":166619.58000000101,"y":2541219.3300000019}},{"attributes":{"ID":215214,"DIS_CODE":0,"TOWNNAME":"仁德區","LI":"仁愛里","LIN":"9鄰","STREET":" ","SECT":" ","MAREA":"仁愛","LANE":" ","ALLEY":" ","HOUSE_NO":"１８７號","E_COORD97":170319.01000000001,"N_COORD97":2539925.2799999998,"ADDRESS":"仁愛１８７號","OBJECTID":215213},"geometry":{"x":170319.01000000071,"y":2539925.2799999993}},{"attributes":{"ID":215215,"DIS_CODE":0,"TOWNNAME":"關廟區","LI":"新埔里","LIN":"9鄰","STREET":"新埔二街","SECT":" ","MAREA":" ","LANE":"７２巷","ALLEY":" ","HOUSE_NO":"１０２號","E_COORD97":181808.18516200001,"N_COORD97":2541512.7817000002,"ADDRESS":"新埔二街７２巷１０２號","OBJECTID":215214},"geometry":{"x":181808.18516200129,"y":2541512.7816970013}},{"attributes":{"ID":215216,"DIS_CODE":0,"TOWNNAME":"北門區","LI":"錦湖里","LIN":"2鄰","STREET":" ","SECT":" ","MAREA":"渡子頭","LANE":" ","ALLEY":" ","HOUSE_NO":"１４號","E_COORD97":165273.04999999999,"N_COORD97":2576142.25,"ADDRESS":"渡子頭１４號","OBJECTID":215215},"geometry":{"x":165273.04999999981,"y":2576142.25}},{"attributes":{"ID":215217,"DIS_CODE":0,"TOWNNAME":"北門區","LI":"錦湖里","LIN":"2鄰","STREET":" ","SECT":" ","MAREA":"渡子頭","LANE":" ","ALLEY":" ","HOUSE_NO":"１５之１號","E_COORD97":165310.98999999999,"N_COORD97":2576151.96,"ADDRESS":"渡子頭１５之１號","OBJECTID":215216},"geometry":{"x":165310.99000000022,"y":2576151.9600000009}},{"attributes":{"ID":215218,"DIS_CODE":0,"TOWNNAME":"北門區","LI":"錦湖里","LIN":"2鄰","STREET":" ","SECT":" ","MAREA":"渡子頭","LANE":" ","ALLEY":" ","HOUSE_NO":"１５號","E_COORD97":165310.57000000001,"N_COORD97":2576131.25,"ADDRESS":"渡子頭１５號","OBJECTID":215217},"geometry":{"x":165310.5700000003,"y":2576131.25}},{"attributes":{"ID":215219,"DIS_CODE":0,"TOWNNAME":"北門區","LI":"錦湖里","LIN":"2鄰","STREET":" ","SECT":" ","MAREA":"渡子頭","LANE":" ","ALLEY":" ","HOUSE_NO":"１６號之１","E_COORD97":165306.85000000001,"N_COORD97":2576213.7200000002,"ADDRESS":"渡子頭１６號之１","OBJECTID":215218},"geometry":{"x":165306.85000000056,"y":2576213.7200000007}},{"attributes":{"ID":215220,"DIS_CODE":0,"TOWNNAME":"北門區","LI":"錦湖里","LIN":"2鄰","STREET":" ","SECT":" ","MAREA":"渡子頭","LANE":" ","ALLEY":" ","HOUSE_NO":"１６號之２","E_COORD97":165281.72,"N_COORD97":2576210.25,"ADDRESS":"渡子頭１６號之２","OBJECTID":215219},"geometry":{"x":165281.71999999974,"y":2576210.25}},{"attributes":{"ID":215221,"DIS_CODE":0,"TOWNNAME":"北門區","LI":"錦湖里","LIN":"2鄰","STREET":" ","SECT":" ","MAREA":"渡子頭","LANE":" ","ALLEY":" ","HOUSE_NO":"１６號之４","E_COORD97":165400.76999999999,"N_COORD97":2576129.2000000002,"ADDRESS":"渡子頭１６號之４","OBJECTID":215220},"geometry":{"x":165400.77000000048,"y":2576129.200000003}},{"attributes":{"ID":215222,"DIS_CODE":0,"TOWNNAME":"安南區","LI":"安和里","LIN":"1鄰","STREET":"府安路","SECT":"三段","MAREA":" ","LANE":"３３９巷","ALLEY":" ","HOUSE_NO":"３號","E_COORD97":169736.62,"N_COORD97":2547543.1299999999,"ADDRESS":"府安路三段３３９巷３號","OBJECTID":215221},"geometry":{"x":169736.62000000197,"y":2547543.1300000008}},{"attributes":{"ID":215223,"DIS_CODE":0,"TOWNNAME":"永康區","LI":"\u25A0行里","LIN":" ","STREET":"中正路","SECT":" ","MAREA":" ","LANE":"６２５巷","ALLEY":"１弄","HOUSE_NO":"４號","E_COORD97":171835.51000000001,"N_COORD97":2548980.4900000002,"ADDRESS":"中正路６２５巷１弄４號","OBJECTID":215222},"geometry":{"x":171835.50999999885,"y":2548980.4900000002}},{"attributes":{"ID":215224,"DIS_CODE":0,"TOWNNAME":"仁德區","LI":"上崙里","LIN":"9鄰","STREET":"德善路","SECT":" ","MAREA":" ","LANE":" ","ALLEY":" ","HOUSE_NO":"３０３之３號","E_COORD97":173957.51000000001,"N_COORD97":2538551.0499999998,"ADDRESS":"德善路３０３之３號","OBJECTID":215223},"geometry":{"x":173957.50999999978,"y":2538551.0500000007}},{"attributes":{"ID":215225,"DIS_CODE":0,"TOWNNAME":"北門區","LI":"錦湖里","LIN":"2鄰","STREET":" ","SECT":" ","MAREA":"渡子頭","LANE":" ","ALLEY":" ","HOUSE_NO":"１６之５號","E_COORD97":165273.23000000001,"N_COORD97":2576207.77,"ADDRESS":"渡子頭１６之５號","OBJECTID":215224},"geometry":{"x":165273.23000000138,"y":2576207.7700000014}},{"attributes":{"ID":215226,"DIS_CODE":0,"TOWNNAME":"北門區","LI":"錦湖里","LIN":"2鄰","STREET":" ","SECT":" ","MAREA":"渡子頭","LANE":" ","ALLEY":" ","HOUSE_NO":"１６號之６","E_COORD97":165265.85000000001,"N_COORD97":2576205.1099999999,"ADDRESS":"渡子頭１６號之６","OBJECTID":215225},"geometry":{"x":165265.84999999963,"y":2576205.1100000013}},{"attributes":{"ID":215227,"DIS_CODE":0,"TOWNNAME":"北門區","LI":"錦湖里","LIN":"2鄰","STREET":" ","SECT":" ","MAREA":"渡子頭","LANE":" ","ALLEY":" ","HOUSE_NO":"１６號","E_COORD97":165315.04000000001,"N_COORD97":2576172.52,"ADDRESS":"渡子頭１６號","OBJECTID":215226},"geometry":{"x":165315.04000000097,"y":2576172.5200000014}},{"attributes":{"ID":215228,"DIS_CODE":0,"TOWNNAME":"仁德區","LI":"上崙里","LIN":"9鄰","STREET":"德善路","SECT":" ","MAREA":" ","LANE":" ","ALLEY":" ","HOUSE_NO":"３０３之２號","E_COORD97":173955.94,"N_COORD97":2538555.0499999998,"ADDRESS":"德善路３０３之２號","OBJECTID":215227},"geometry":{"x":173955.94000000134,"y":2538555.0500000007}},{"attributes":{"ID":215229,"DIS_CODE":0,"TOWNNAME":"北門區","LI":"錦湖里","LIN":"2鄰","STREET":" ","SECT":" ","MAREA":"渡子頭","LANE":" ","ALLEY":" ","HOUSE_NO":"１７號","E_COORD97":165324.44,"N_COORD97":2576150.3799999999,"ADDRESS":"渡子頭１７號","OBJECTID":215228},"geometry":{"x":165324.44000000134,"y":2576150.379999999}},{"attributes":{"ID":215230,"DIS_CODE":0,"TOWNNAME":"新市區","LI":"潭頂里","LIN":"2鄰","STREET":" ","SECT":" ","MAREA":"潭頂","LANE":" ","ALLEY":" ","HOUSE_NO":"１５５之２號","E_COORD97":180971.34,"N_COORD97":2553034.7999999998,"ADDRESS":"潭頂１５５之２號","OBJECTID":215229},"geometry":{"x":180971.34000000078,"y":2553034.8000000045}},{"attributes":{"ID":215231,"DIS_CODE":0,"TOWNNAME":"新市區","LI":"潭頂里","LIN":"2鄰","STREET":" ","SECT":" ","MAREA":"潭頂","LANE":" ","ALLEY":" ","HOUSE_NO":"９０之７２號","E_COORD97":181691.75,"N_COORD97":2553508.2999999998,"ADDRESS":"潭頂９０之７２號","OBJECTID":215230},"geometry":{"x":181691.75000000186,"y":2553508.3000000007}},{"attributes":{"ID":215232,"DIS_CODE":0,"TOWNNAME":"新市區","LI":"大社里","LIN":"2鄰","STREET":" ","SECT":" ","MAREA":"大社","LANE":" ","ALLEY":" ","HOUSE_NO":"８７號","E_COORD97":180403.82000000001,"N_COORD97":2554368.5,"ADDRESS":"大社８７號","OBJECTID":215231},"geometry":{"x":180403.82000000123,"y":2554368.5000000037}},{"attributes":{"ID":215233,"DIS_CODE":0,"TOWNNAME":"新市區","LI":"大營里","LIN":"2鄰","STREET":" ","SECT":" ","MAREA":"大營","LANE":" ","ALLEY":" ","HOUSE_NO":"２８號","E_COORD97":179619.48000000001,"N_COORD97":2555643,"ADDRESS":"大營２８號","OBJECTID":215232},"geometry":{"x":179619.48000000138,"y":2555643.0000000037}},{"attributes":{"ID":215234,"DIS_CODE":0,"TOWNNAME":"新市區","LI":"大洲里","LIN":"2鄰","STREET":" ","SECT":" ","MAREA":"大洲","LANE":" ","ALLEY":" ","HOUSE_NO":"１１號","E_COORD97":174524.01000000001,"N_COORD97":2552562.5,"ADDRESS":"大洲１１號","OBJECTID":215233},"geometry":{"x":174524.00999999978,"y":2552562.5000000019}},{"attributes":{"ID":215235,"DIS_CODE":0,"TOWNNAME":"新市區","LI":"大洲里","LIN":"2鄰","STREET":" ","SECT":" ","MAREA":"大洲","LANE":" ","ALLEY":" ","HOUSE_NO":"７之８號","E_COORD97":174593.87,"N_COORD97":2552456.2999999998,"ADDRESS":"大洲７之８號","OBJECTID":215234},"geometry":{"x":174593.87000000104,"y":2552456.3000000026}},{"attributes":{"ID":215236,"DIS_CODE":0,"TOWNNAME":"新市區","LI":"大社里","LIN":"2鄰","STREET":" ","SECT":" ","MAREA":"大社","LANE":" ","ALLEY":" ","HOUSE_NO":"１１９號","E_COORD97":180372.31,"N_COORD97":2554307.5,"ADDRESS":"大社１１９號","OBJECTID":215235},"geometry":{"x":180372.31000000052,"y":2554307.5000000037}},{"attributes":{"ID":215237,"DIS_CODE":0,"TOWNNAME":"新市區","LI":"豐華里","LIN":"1鄰","STREET":" ","SECT":" ","MAREA":"豐華","LANE":" ","ALLEY":" ","HOUSE_NO":"７號","E_COORD97":173836.09,"N_COORD97":2554004.5,"ADDRESS":"豐華７號","OBJECTID":215236},"geometry":{"x":173836.09000000078,"y":2554004.5}},{"attributes":{"ID":215238,"DIS_CODE":0,"TOWNNAME":"新市區","LI":"大社里","LIN":"2鄰","STREET":" ","SECT":" ","MAREA":"大社","LANE":" ","ALLEY":" ","HOUSE_NO":"８６之７號","E_COORD97":180409.29000000001,"N_COORD97":2554345.7999999998,"ADDRESS":"大社８６之７號","OBJECTID":215237},"geometry":{"x":180409.29000000004,"y":2554345.8000000007}},{"attributes":{"ID":215239,"DIS_CODE":0,"TOWNNAME":"新市區","LI":"大社里","LIN":"2鄰","STREET":" ","SECT":" ","MAREA":"大社","LANE":" ","ALLEY":" ","HOUSE_NO":"８６之８號","E_COORD97":180403.29000000001,"N_COORD97":2554343.5499999998,"ADDRESS":"大社８６之８號","OBJECTID":215238},"geometry":{"x":180403.2900000019,"y":2554343.5500000007}},{"attributes":{"ID":215240,"DIS_CODE":0,"TOWNNAME":"新市區","LI":"三舍里","LIN":"2鄰","STREET":" ","SECT":" ","MAREA":"三舍","LANE":" ","ALLEY":" ","HOUSE_NO":"４１之１１號","E_COORD97":177951.70000000001,"N_COORD97":2554382.0499999998,"ADDRESS":"三舍４１之１１號","OBJECTID":215239},"geometry":{"x":177951.70000000112,"y":2554382.0499999989}},{"attributes":{"ID":215241,"DIS_CODE":0,"TOWNNAME":"仁德區","LI":"仁德里","LIN":"9鄰","STREET":"中正路","SECT":"二段","MAREA":" ","LANE":" ","ALLEY":" ","HOUSE_NO":"１１５１號","E_COORD97":173338.29441900001,"N_COORD97":2541032.3343799999,"ADDRESS":"中正路二段１１５１號","OBJECTID":215240},"geometry":{"x":173338.29441900086,"y":2541032.3343820013}},{"attributes":{"ID":215242,"DIS_CODE":0,"TOWNNAME":"仁德區","LI":"仁德里","LIN":"9鄰","STREET":"中正路","SECT":"二段","MAREA":" ","LANE":" ","ALLEY":" ","HOUSE_NO":"１１８１號","E_COORD97":173298.88,"N_COORD97":2541121.9100000001,"ADDRESS":"中正路二段１１８１號","OBJECTID":215241},"geometry":{"x":173298.87999999989,"y":2541121.9100000001}},{"attributes":{"ID":215243,"DIS_CODE":0,"TOWNNAME":"安南區","LI":"城北里","LIN":"9鄰","STREET":"尊安一街","SECT":" ","MAREA":" ","LANE":" ","ALLEY":" ","HOUSE_NO":"１１號","E_COORD97":160902.53,"N_COORD97":2551617.7200000002,"ADDRESS":"尊安一街１１號","OBJECTID":215242},"geometry":{"x":160902.53000000119,"y":2551617.7199999988}},{"attributes":{"ID":215244,"DIS_CODE":0,"TOWNNAME":"東區","LI":"裕聖里","LIN":"17鄰","STREET":"裕敬二街","SECT":" ","MAREA":" ","LANE":" ","ALLEY":" ","HOUSE_NO":"１０號","E_COORD97":172649.56,"N_COORD97":2542205.5299999998,"ADDRESS":"裕敬二街１０號","OBJECTID":215243},"geometry":{"x":172649.56000000052,"y":2542205.5299999993}},{"attributes":{"ID":215245,"DIS_CODE":0,"TOWNNAME":"東區","LI":"裕聖里","LIN":"17鄰","STREET":"裕敬二街","SECT":" ","MAREA":" ","LANE":" ","ALLEY":" ","HOUSE_NO":"３６號","E_COORD97":172649.44,"N_COORD97":2542169.0899999999,"ADDRESS":"裕敬二街３６號","OBJECTID":215244},"geometry":{"x":172649.44000000134,"y":2542169.0900000036}},{"attributes":{"ID":215246,"DIS_CODE":0,"TOWNNAME":"南區","LI":"白雪里","LIN":"1鄰","STREET":"鹽埕路","SECT":" ","MAREA":" ","LANE":"２９１巷","ALLEY":"９４弄","HOUSE_NO":"２３號","E_COORD97":166614.84,"N_COORD97":2541223.6299999999,"ADDRESS":"鹽埕路２９１巷９４弄２３號","OBJECTID":215245},"geometry":{"x":166614.83999999985,"y":2541223.629999999}},{"attributes":{"ID":215247,"DIS_CODE":0,"TOWNNAME":"南區","LI":"白雪里","LIN":"1鄰","STREET":"鹽埕路","SECT":" ","MAREA":" ","LANE":"２９１巷","ALLEY":"９４弄","HOUSE_NO":"２５號","E_COORD97":166610.54000000001,"N_COORD97":2541229.0099999998,"ADDRESS":"鹽埕路２９１巷９４弄２５號","OBJECTID":215246},"geometry":{"x":166610.54000000004,"y":2541229.0099999998}},{"attributes":{"ID":215248,"DIS_CODE":0,"TOWNNAME":"安平區","LI":"平安里","LIN":"1鄰","STREET":"安平路","SECT":" ","MAREA":" ","LANE":"４０巷","ALLEY":"５弄","HOUSE_NO":"１號","E_COORD97":166524.89000000001,"N_COORD97":2544353.8599999999,"ADDRESS":"安平路４０巷５弄１號","OBJECTID":215247},"geometry":{"x":166524.88999999966,"y":2544353.8600000013}},{"attributes":{"ID":215249,"DIS_CODE":0,"TOWNNAME":"安平區","LI":"平安里","LIN":"1鄰","STREET":"安平路","SECT":" ","MAREA":" ","LANE":"４０巷","ALLEY":"５弄","HOUSE_NO":"３號","E_COORD97":166518.54999999999,"N_COORD97":2544355.4500000002,"ADDRESS":"安平路４０巷５弄３號","OBJECTID":215248},"geometry":{"x":166518.54999999981,"y":2544355.4499999993}},{"attributes":{"ID":215250,"DIS_CODE":0,"TOWNNAME":"安南區","LI":"東和里","LIN":"1鄰","STREET":"長和路","SECT":"一段","MAREA":" ","LANE":"８４５巷","ALLEY":"２４弄","HOUSE_NO":"１４號","E_COORD97":170771.59,"N_COORD97":2551391.3100000001,"ADDRESS":"長和路一段８４５巷２４弄１４號","OBJECTID":215249},"geometry":{"x":170771.58999999985,"y":2551391.3100000024}},{"attributes":{"ID":215251,"DIS_CODE":0,"TOWNNAME":"永康區","LI":"中華里","LIN":"19鄰","STREET":"小東路","SECT":" ","MAREA":" ","LANE":"４７７巷","ALLEY":"４６弄","HOUSE_NO":"１號之３８","E_COORD97":171658.51000000001,"N_COORD97":2544537.0499999998,"ADDRESS":"小東路４７７巷４６弄１號之３８","OBJECTID":215250},"geometry":{"x":171658.50999999978,"y":2544537.0500000026}},{"attributes":{"ID":215252,"DIS_CODE":0,"TOWNNAME":"安南區","LI":"梅花里","LIN":"1鄰","STREET":"安中路","SECT":"一段","MAREA":" ","LANE":"５５７巷","ALLEY":"１９弄","HOUSE_NO":"７０號","E_COORD97":168105.72,"N_COORD97":2548825.1899999999,"ADDRESS":"安中路一段５５７巷１９弄７０號","OBJECTID":215251},"geometry":{"x":168105.71999999974,"y":2548825.1899999995}},{"attributes":{"ID":215253,"DIS_CODE":0,"TOWNNAME":"安南區","LI":"梅花里","LIN":"1鄰","STREET":"安中路","SECT":"一段","MAREA":" ","LANE":"５５７巷","ALLEY":"１９弄","HOUSE_NO":"７２號","E_COORD97":168108.42000000001,"N_COORD97":2548822.9700000002,"ADDRESS":"安中路一段５５７巷１９弄７２號","OBJECTID":215252},"geometry":{"x":168108.41999999993,"y":2548822.9700000025}},{"attributes":{"ID":215254,"DIS_CODE":0,"TOWNNAME":"安南區","LI":"梅花里","LIN":"1鄰","STREET":"安中路","SECT":"一段","MAREA":" ","LANE":"５５７巷","ALLEY":"１９弄","HOUSE_NO":"７６號","E_COORD97":168111.12,"N_COORD97":2548821.7000000002,"ADDRESS":"安中路一段５５７巷１９弄７６號","OBJECTID":215253},"geometry":{"x":168111.12000000104,"y":2548821.6999999993}},{"attributes":{"ID":215255,"DIS_CODE":0,"TOWNNAME":"安南區","LI":"梅花里","LIN":"1鄰","STREET":"安中路","SECT":"一段","MAREA":" ","LANE":"５５７巷","ALLEY":"１９弄","HOUSE_NO":"７８號","E_COORD97":168114.29000000001,"N_COORD97":2548819.3199999998,"ADDRESS":"安中路一段５５７巷１９弄７８號","OBJECTID":215254},"geometry":{"x":168114.29000000004,"y":2548819.3200000003}},{"attributes":{"ID":215256,"DIS_CODE":0,"TOWNNAME":"安南區","LI":"梅花里","LIN":"1鄰","STREET":"安中路","SECT":"一段","MAREA":" ","LANE":"６３９巷","ALLEY":"３２弄","HOUSE_NO":"１號","E_COORD97":167718.81631600001,"N_COORD97":2549076.1568200001,"ADDRESS":"安中路一段６３９巷３２弄１號","OBJECTID":215255},"geometry":{"x":167718.81631600019,"y":2549076.1568180006}},{"attributes":{"ID":215257,"DIS_CODE":0,"TOWNNAME":"安南區","LI":"梅花里","LIN":"1鄰","STREET":"安中路","SECT":"一段","MAREA":" ","LANE":"６３９巷","ALLEY":"３２弄","HOUSE_NO":"２號","E_COORD97":167726.65224699999,"N_COORD97":2549093.5134800002,"ADDRESS":"安中路一段６３９巷３２弄２號","OBJECTID":215256},"geometry":{"x":167726.65224700049,"y":2549093.5134759992}},{"attributes":{"ID":215258,"DIS_CODE":0,"TOWNNAME":"安南區","LI":"梅花里","LIN":"1鄰","STREET":"安中路","SECT":"一段","MAREA":" ","LANE":"６３９巷","ALLEY":"３２弄","HOUSE_NO":"３號","E_COORD97":167711.827513,"N_COORD97":2549078.4851500001,"ADDRESS":"安中路一段６３９巷３２弄３號","OBJECTID":215257},"geometry":{"x":167711.82751300093,"y":2549078.4851500001}},{"attributes":{"ID":215259,"DIS_CODE":0,"TOWNNAME":"安南區","LI":"梅花里","LIN":"1鄰","STREET":"安中路","SECT":"一段","MAREA":" ","LANE":"６３９巷","ALLEY":"３２弄","HOUSE_NO":"６號","E_COORD97":167721.99304500001,"N_COORD97":2549096.6884699999,"ADDRESS":"安中路一段６３９巷３２弄６號","OBJECTID":215258},"geometry":{"x":167721.99304500129,"y":2549096.6884739995}},{"attributes":{"ID":215260,"DIS_CODE":0,"TOWNNAME":"安南區","LI":"梅花里","LIN":"1鄰","STREET":"安中路","SECT":"一段","MAREA":" ","LANE":"６３９巷","ALLEY":"３２弄","HOUSE_NO":"５號","E_COORD97":167704.62692800001,"N_COORD97":2549081.4484799998,"ADDRESS":"安中路一段６３９巷３２弄５號","OBJECTID":215259},"geometry":{"x":167704.62692799978,"y":2549081.4484820012}},{"attributes":{"ID":215261,"DIS_CODE":0,"TOWNNAME":"安南區","LI":"梅花里","LIN":"1鄰","STREET":"安中路","SECT":"一段","MAREA":" ","LANE":"６３９巷","ALLEY":"３２弄","HOUSE_NO":"８號","E_COORD97":167717.545625,"N_COORD97":2549098.1701400001,"ADDRESS":"安中路一段６３９巷３２弄８號","OBJECTID":215260},"geometry":{"x":167717.54562499933,"y":2549098.1701400001}},{"attributes":{"ID":215262,"DIS_CODE":0,"TOWNNAME":"新市區","LI":"三舍里","LIN":"2鄰","STREET":" ","SECT":" ","MAREA":"三舍","LANE":" ","ALLEY":" ","HOUSE_NO":"４１之６號","E_COORD97":177934.79000000001,"N_COORD97":2554395.2999999998,"ADDRESS":"三舍４１之６號","OBJECTID":215261},"geometry":{"x":177934.79000000004,"y":2554395.3000000026}},{"attributes":{"ID":215263,"DIS_CODE":0,"TOWNNAME":"安南區","LI":"梅花里","LIN":"1鄰","STREET":"安中路","SECT":"一段","MAREA":" ","LANE":"６３９巷","ALLEY":"３２弄","HOUSE_NO":"１０號","E_COORD97":167713.09820499999,"N_COORD97":2549100.0751399999,"ADDRESS":"安中路一段６３９巷３２弄１０號","OBJECTID":215262},"geometry":{"x":167713.09820500016,"y":2549100.0751390047}},{"attributes":{"ID":215264,"DIS_CODE":0,"TOWNNAME":"安南區","LI":"梅花里","LIN":"1鄰","STREET":"安中路","SECT":"一段","MAREA":" ","LANE":"６３９巷","ALLEY":"３２弄","HOUSE_NO":"７號","E_COORD97":167697.426343,"N_COORD97":2549083.7768100002,"ADDRESS":"安中路一段６３９巷３２弄７號","OBJECTID":215263},"geometry":{"x":167697.42634300049,"y":2549083.7768140007}},{"attributes":{"ID":215265,"DIS_CODE":0,"TOWNNAME":"安南區","LI":"梅花里","LIN":"1鄰","STREET":"安中路","SECT":"一段","MAREA":" ","LANE":"６３９巷","ALLEY":"３２弄","HOUSE_NO":"９號","E_COORD97":167690.43754000001,"N_COORD97":2549086.74015,"ADDRESS":"安中路一段６３９巷３２弄９號","OBJECTID":215264},"geometry":{"x":167690.43754000124,"y":2549086.7401460018}},{"attributes":{"ID":215266,"DIS_CODE":0,"TOWNNAME":"安南區","LI":"梅花里","LIN":"1鄰","STREET":"安中路","SECT":"一段","MAREA":" ","LANE":"６３９巷","ALLEY":"３２弄","HOUSE_NO":"１１號","E_COORD97":167683.448737,"N_COORD97":2549088.8568099998,"ADDRESS":"安中路一段６３９巷３２弄１１號","OBJECTID":215265},"geometry":{"x":167683.44873700198,"y":2549088.8568120021}},{"attributes":{"ID":215267,"DIS_CODE":0,"TOWNNAME":"安南區","LI":"梅花里","LIN":"1鄰","STREET":"安中路","SECT":"一段","MAREA":" ","LANE":"６３９巷","ALLEY":"３２弄","HOUSE_NO":"１３號","E_COORD97":167675.61280599999,"N_COORD97":2549092.2434800002,"ADDRESS":"安中路一段６３９巷３２弄１３號","OBJECTID":215266},"geometry":{"x":167675.61280599982,"y":2549092.2434759997}},{"attributes":{"ID":215268,"DIS_CODE":0,"TOWNNAME":"安南區","LI":"梅花里","LIN":"1鄰","STREET":"安中路","SECT":"一段","MAREA":" ","LANE":"６３９巷","ALLEY":"３２弄","HOUSE_NO":"１５號","E_COORD97":167668.835785,"N_COORD97":2549094.9951399998,"ADDRESS":"安中路一段６３９巷３２弄１５號","OBJECTID":215267},"geometry":{"x":167668.83578499965,"y":2549094.9951419998}},{"attributes":{"ID":215269,"DIS_CODE":0,"TOWNNAME":"東區","LI":"裕聖里","LIN":"17鄰","STREET":"裕敬二街","SECT":" ","MAREA":" ","LANE":" ","ALLEY":" ","HOUSE_NO":"３２號","E_COORD97":172649.20999999999,"N_COORD97":2542174.3799999999,"ADDRESS":"裕敬二街３２號","OBJECTID":215268},"geometry":{"x":172649.20999999996,"y":2542174.3800000008}},{"attributes":{"ID":215270,"DIS_CODE":0,"TOWNNAME":"官田區","LI":"南\u25A0里","LIN":"2鄰","STREET":" ","SECT":" ","MAREA":"南\u25A0","LANE":" ","ALLEY":" ","HOUSE_NO":"３３號之９","E_COORD97":179042.26999999999,"N_COORD97":2568127.4399999999,"ADDRESS":"南\u25A0３３號之９","OBJECTID":215269},"geometry":{"x":179042.27000000048,"y":2568127.4400000013}},{"attributes":{"ID":215271,"DIS_CODE":0,"TOWNNAME":"新市區","LI":"大洲里","LIN":"2鄰","STREET":" ","SECT":" ","MAREA":"大洲","LANE":" ","ALLEY":" ","HOUSE_NO":"１７號","E_COORD97":174514.32000000001,"N_COORD97":2552465.25,"ADDRESS":"大洲１７號","OBJECTID":215270},"geometry":{"x":174514.32000000123,"y":2552465.2500000019}},{"attributes":{"ID":215272,"DIS_CODE":0,"TOWNNAME":"新市區","LI":"三舍里","LIN":"2鄰","STREET":" ","SECT":" ","MAREA":"三舍","LANE":" ","ALLEY":" ","HOUSE_NO":"４１之９號","E_COORD97":177949.09,"N_COORD97":2554386.0499999998,"ADDRESS":"三舍４１之９號","OBJECTID":215271},"geometry":{"x":177949.08999999985,"y":2554386.0500000026}},{"attributes":{"ID":215273,"DIS_CODE":0,"TOWNNAME":"安南區","LI":"梅花里","LIN":"1鄰","STREET":"安中路","SECT":"一段","MAREA":" ","LANE":"６３９巷","ALLEY":"３２弄","HOUSE_NO":"１２號","E_COORD97":167707.80365700001,"N_COORD97":2549101.55681,"ADDRESS":"安中路一段６３９巷３２弄１２號","OBJECTID":215272},"geometry":{"x":167707.80365700088,"y":2549101.5568050016}},{"attributes":{"ID":215274,"DIS_CODE":0,"TOWNNAME":"安南區","LI":"梅花里","LIN":"1鄰","STREET":"安中路","SECT":"一段","MAREA":" ","LANE":"６３９巷","ALLEY":"３２弄","HOUSE_NO":"１６號","E_COORD97":167702.720891,"N_COORD97":2549103.8851399999,"ADDRESS":"安中路一段６３９巷３２弄１６號","OBJECTID":215273},"geometry":{"x":167702.7208910007,"y":2549103.8851369992}},{"attributes":{"ID":215275,"DIS_CODE":0,"TOWNNAME":"安南區","LI":"梅花里","LIN":"1鄰","STREET":"安中路","SECT":"一段","MAREA":" ","LANE":"６３９巷","ALLEY":"３２弄","HOUSE_NO":"１８號","E_COORD97":167698.27347099999,"N_COORD97":2549106.0018000002,"ADDRESS":"安中路一段６３９巷３２弄１８號","OBJECTID":215274},"geometry":{"x":167698.2734710006,"y":2549106.0018020011}},{"attributes":{"ID":215276,"DIS_CODE":0,"TOWNNAME":"安南區","LI":"梅花里","LIN":"1鄰","STREET":"安中路","SECT":"一段","MAREA":" ","LANE":"６３９巷","ALLEY":"３２弄","HOUSE_NO":"２０號","E_COORD97":167694.03783300001,"N_COORD97":2549107.9068,"ADDRESS":"安中路一段６３９巷３２弄２０號","OBJECTID":215275},"geometry":{"x":167694.03783299867,"y":2549107.9068010002}},{"attributes":{"ID":215277,"DIS_CODE":0,"TOWNNAME":"安南區","LI":"梅花里","LIN":"1鄰","STREET":"安中路","SECT":"一段","MAREA":" ","LANE":"６３９巷","ALLEY":"３２弄","HOUSE_NO":"２２號","E_COORD97":167688.743285,"N_COORD97":2549109.3884700001,"ADDRESS":"安中路一段６３９巷３２弄２２號","OBJECTID":215276},"geometry":{"x":167688.74328500126,"y":2549109.3884670008}},{"attributes":{"ID":215278,"DIS_CODE":0,"TOWNNAME":"安南區","LI":"梅花里","LIN":"1鄰","STREET":"安中路","SECT":"一段","MAREA":" ","LANE":"６３９巷","ALLEY":"３２弄","HOUSE_NO":"２６號","E_COORD97":167684.08408299999,"N_COORD97":2549111.9284700002,"ADDRESS":"安中路一段６３９巷３２弄２６號","OBJECTID":215277},"geometry":{"x":167684.0840830002,"y":2549111.9284660015}},{"attributes":{"ID":215279,"DIS_CODE":0,"TOWNNAME":"安南區","LI":"梅花里","LIN":"1鄰","STREET":"安中路","SECT":"一段","MAREA":" ","LANE":"６３９巷","ALLEY":"３２弄","HOUSE_NO":"２８號","E_COORD97":167679.42488100001,"N_COORD97":2549113.4101300002,"ADDRESS":"安中路一段６３９巷３２弄２８號","OBJECTID":215278},"geometry":{"x":167679.42488100193,"y":2549113.4101320021}},{"attributes":{"ID":215280,"DIS_CODE":0,"TOWNNAME":"安南區","LI":"梅花里","LIN":"1鄰","STREET":"安中路","SECT":"一段","MAREA":" ","LANE":"６３９巷","ALLEY":"３２弄","HOUSE_NO":"３０號","E_COORD97":167674.34211500001,"N_COORD97":2549114.6801300002,"ADDRESS":"安中路一段６３９巷３２弄３０號","OBJECTID":215279},"geometry":{"x":167674.34211500082,"y":2549114.6801310014}},{"attributes":{"ID":215281,"DIS_CODE":0,"TOWNNAME":"新市區","LI":"潭頂里","LIN":"2鄰","STREET":" ","SECT":" ","MAREA":"潭頂","LANE":" ","ALLEY":" ","HOUSE_NO":"１４２號","E_COORD97":181034.10999999999,"N_COORD97":2553014.75,"ADDRESS":"潭頂１４２號","OBJECTID":215280},"geometry":{"x":181034.11000000127,"y":2553014.7500000019}},{"attributes":{"ID":215282,"DIS_CODE":0,"TOWNNAME":"安南區","LI":"東和里","LIN":"1鄰","STREET":"長和路","SECT":"一段","MAREA":" ","LANE":"８７１巷","ALLEY":"５２弄","HOUSE_NO":"４號","E_COORD97":170704.73999999999,"N_COORD97":2551423.3999999999,"ADDRESS":"長和路一段８７１巷５２弄４號","OBJECTID":215281},"geometry":{"x":170704.74000000022,"y":2551423.4000000022}},{"attributes":{"ID":215283,"DIS_CODE":0,"TOWNNAME":"安南區","LI":"東和里","LIN":"1鄰","STREET":"長和路","SECT":"一段","MAREA":" ","LANE":"８７１巷","ALLEY":"５２弄","HOUSE_NO":"８號","E_COORD97":170695.60000000001,"N_COORD97":2551432.29,"ADDRESS":"長和路一段８７１巷５２弄８號","OBJECTID":215282},"geometry":{"x":170695.5999999987,"y":2551432.2899999991}},{"attributes":{"ID":215284,"DIS_CODE":0,"TOWNNAME":"安南區","LI":"鹿耳里","LIN":"1鄰","STREET":"北汕尾二路","SECT":" ","MAREA":" ","LANE":"８００巷","ALLEY":"９弄","HOUSE_NO":"９３號","E_COORD97":160829.03,"N_COORD97":2548722.0499999998,"ADDRESS":"北汕尾二路８００巷９弄９３號","OBJECTID":215283},"geometry":{"x":160829.02999999933,"y":2548722.0500000026}},{"attributes":{"ID":215285,"DIS_CODE":0,"TOWNNAME":"永康區","LI":"\u25A0行里","LIN":" ","STREET":"中正南路","SECT":" ","MAREA":" ","LANE":"５９２巷","ALLEY":"３８弄","HOUSE_NO":"１４號","E_COORD97":171643.17000000001,"N_COORD97":2548580.21,"ADDRESS":"中正南路５９２巷３８弄１４號","OBJECTID":215284},"geometry":{"x":171643.17000000179,"y":2548580.209999999}},{"attributes":{"ID":215286,"DIS_CODE":0,"TOWNNAME":"新市區","LI":"大洲里","LIN":"2鄰","STREET":" ","SECT":" ","MAREA":"大洲","LANE":" ","ALLEY":" ","HOUSE_NO":"７號","E_COORD97":174559.37,"N_COORD97":2552499.75,"ADDRESS":"大洲７號","OBJECTID":215285},"geometry":{"x":174559.37000000197,"y":2552499.7500000019}},{"attributes":{"ID":215287,"DIS_CODE":0,"TOWNNAME":"新市區","LI":"大洲里","LIN":"2鄰","STREET":" ","SECT":" ","MAREA":"大洲","LANE":" ","ALLEY":" ","HOUSE_NO":"１０號","E_COORD97":174537.31,"N_COORD97":2552553.25,"ADDRESS":"大洲１０號","OBJECTID":215286},"geometry":{"x":174537.31000000145,"y":2552553.2500000019}},{"attributes":{"ID":215288,"DIS_CODE":0,"TOWNNAME":"新市區","LI":"大營里","LIN":"2鄰","STREET":" ","SECT":" ","MAREA":"大營","LANE":" ","ALLEY":" ","HOUSE_NO":"２５號之２","E_COORD97":179653.67000000001,"N_COORD97":2555619.5499999998,"ADDRESS":"大營２５號之２","OBJECTID":215287},"geometry":{"x":179653.67000000086,"y":2555619.5499999989}},{"attributes":{"ID":215289,"DIS_CODE":0,"TOWNNAME":"新市區","LI":"三舍里","LIN":"2鄰","STREET":" ","SECT":" ","MAREA":"三舍","LANE":" ","ALLEY":" ","HOUSE_NO":"５１之２號","E_COORD97":178068.73999999999,"N_COORD97":2554300.5499999998,"ADDRESS":"三舍５１之２號","OBJECTID":215288},"geometry":{"x":178068.74000000022,"y":2554300.5500000007}},{"attributes":{"ID":215290,"DIS_CODE":0,"TOWNNAME":"新市區","LI":"大營里","LIN":"2鄰","STREET":" ","SECT":" ","MAREA":"大營","LANE":" ","ALLEY":" ","HOUSE_NO":"２４號","E_COORD97":179655.60000000001,"N_COORD97":2555653.5,"ADDRESS":"大營２４號","OBJECTID":215289},"geometry":{"x":179655.60000000056,"y":2555653.5000000037}},{"attributes":{"ID":215291,"DIS_CODE":0,"TOWNNAME":"新市區","LI":"大營里","LIN":"2鄰","STREET":" ","SECT":" ","MAREA":"大營","LANE":" ","ALLEY":" ","HOUSE_NO":"２２號","E_COORD97":179675.38,"N_COORD97":2555648.5,"ADDRESS":"大營２２號","OBJECTID":215290},"geometry":{"x":179675.38000000082,"y":2555648.5}},{"attributes":{"ID":215292,"DIS_CODE":0,"TOWNNAME":"新市區","LI":"三舍里","LIN":"2鄰","STREET":" ","SECT":" ","MAREA":"三舍","LANE":" ","ALLEY":" ","HOUSE_NO":"５０號","E_COORD97":178036.28,"N_COORD97":2554295,"ADDRESS":"三舍５０號","OBJECTID":215291},"geometry":{"x":178036.28000000026,"y":2554295.0000000019}},{"attributes":{"ID":215293,"DIS_CODE":0,"TOWNNAME":"官田區","LI":"社子里","LIN":"2鄰","STREET":" ","SECT":" ","MAREA":"社子","LANE":" ","ALLEY":" ","HOUSE_NO":"８號之７","E_COORD97":184363.54999999999,"N_COORD97":2564635.3599999999,"ADDRESS":"社子８號之７","OBJECTID":215292},"geometry":{"x":184363.55000000075,"y":2564635.3600000013}},{"attributes":{"ID":215294,"DIS_CODE":0,"TOWNNAME":"新市區","LI":"大洲里","LIN":"2鄰","STREET":" ","SECT":" ","MAREA":"大洲","LANE":" ","ALLEY":" ","HOUSE_NO":"７之１２號","E_COORD97":174553.59,"N_COORD97":2552480.2999999998,"ADDRESS":"大洲７之１２號","OBJECTID":215293},"geometry":{"x":174553.58999999985,"y":2552480.3000000026}},{"attributes":{"ID":215295,"DIS_CODE":0,"TOWNNAME":"新市區","LI":"三舍里","LIN":"2鄰","STREET":" ","SECT":" ","MAREA":"三舍","LANE":" ","ALLEY":" ","HOUSE_NO":"４１之７號","E_COORD97":177947.70000000001,"N_COORD97":2554390.0499999998,"ADDRESS":"三舍４１之７號","OBJECTID":215294},"geometry":{"x":177947.70000000205,"y":2554390.0500000026}},{"attributes":{"ID":215296,"DIS_CODE":0,"TOWNNAME":"新市區","LI":"大洲里","LIN":"2鄰","STREET":" ","SECT":" ","MAREA":"大洲","LANE":" ","ALLEY":" ","HOUSE_NO":"８之１０號","E_COORD97":174643.10000000001,"N_COORD97":2552516.0499999998,"ADDRESS":"大洲８之１０號","OBJECTID":215295},"geometry":{"x":174643.09999999963,"y":2552516.0500000007}},{"attributes":{"ID":215297,"DIS_CODE":0,"TOWNNAME":"新市區","LI":"三舍里","LIN":"2鄰","STREET":" ","SECT":" ","MAREA":"三舍","LANE":" ","ALLEY":" ","HOUSE_NO":"４８號","E_COORD97":178013.42000000001,"N_COORD97":2554225.5,"ADDRESS":"三舍４８號","OBJECTID":215296},"geometry":{"x":178013.41999999993,"y":2554225.5}},{"attributes":{"ID":215298,"DIS_CODE":0,"TOWNNAME":"新市區","LI":"三舍里","LIN":"2鄰","STREET":" ","SECT":" ","MAREA":"三舍","LANE":" ","ALLEY":" ","HOUSE_NO":"４１之１３號","E_COORD97":177952.98999999999,"N_COORD97":2554378.0499999998,"ADDRESS":"三舍４１之１３號","OBJECTID":215297},"geometry":{"x":177952.99000000115,"y":2554378.0500000007}},{"attributes":{"ID":215299,"DIS_CODE":0,"TOWNNAME":"新市區","LI":"三舍里","LIN":"2鄰","STREET":" ","SECT":" ","MAREA":"三舍","LANE":" ","ALLEY":" ","HOUSE_NO":"５１之７號","E_COORD97":178079.28,"N_COORD97":2554238.2999999998,"ADDRESS":"三舍５１之７號","OBJECTID":215298},"geometry":{"x":178079.27999999933,"y":2554238.3000000045}},{"attributes":{"ID":215300,"DIS_CODE":0,"TOWNNAME":"新市區","LI":"潭頂里","LIN":"2鄰","STREET":" ","SECT":" ","MAREA":"潭頂","LANE":" ","ALLEY":" ","HOUSE_NO":"１３４之１１號","E_COORD97":181182.73000000001,"N_COORD97":2553227.2999999998,"ADDRESS":"潭頂１３４之１１號","OBJECTID":215299},"geometry":{"x":181182.73000000138,"y":2553227.3000000007}},{"attributes":{"ID":215301,"DIS_CODE":0,"TOWNNAME":"新市區","LI":"潭頂里","LIN":"2鄰","STREET":" ","SECT":" ","MAREA":"潭頂","LANE":" ","ALLEY":" ","HOUSE_NO":"１３４號","E_COORD97":181164.25,"N_COORD97":2553108.75,"ADDRESS":"潭頂１３４號","OBJECTID":215300},"geometry":{"x":181164.25,"y":2553108.7500000037}},{"attributes":{"ID":215302,"DIS_CODE":0,"TOWNNAME":"新市區","LI":"潭頂里","LIN":"2鄰","STREET":" ","SECT":" ","MAREA":"潭頂","LANE":" ","ALLEY":" ","HOUSE_NO":"９０之６５號","E_COORD97":181730.81,"N_COORD97":2553508.2999999998,"ADDRESS":"潭頂９０之６５號","OBJECTID":215301},"geometry":{"x":181730.80999999959,"y":2553508.3000000007}},{"attributes":{"ID":215303,"DIS_CODE":0,"TOWNNAME":"新市區","LI":"潭頂里","LIN":"2鄰","STREET":" ","SECT":" ","MAREA":"潭頂","LANE":" ","ALLEY":" ","HOUSE_NO":"９０之７５號","E_COORD97":181678.59,"N_COORD97":2553507.2999999998,"ADDRESS":"潭頂９０之７５號","OBJECTID":215302},"geometry":{"x":181678.58999999985,"y":2553507.3000000026}},{"attributes":{"ID":215304,"DIS_CODE":0,"TOWNNAME":"新市區","LI":"潭頂里","LIN":"3鄰","STREET":" ","SECT":" ","MAREA":"潭頂","LANE":" ","ALLEY":" ","HOUSE_NO":"１６６之１４號","E_COORD97":180932.60999999999,"N_COORD97":2552831.2999999998,"ADDRESS":"潭頂１６６之１４號","OBJECTID":215303},"geometry":{"x":180932.61000000127,"y":2552831.3000000045}},{"attributes":{"ID":215305,"DIS_CODE":0,"TOWNNAME":"新市區","LI":"豐華里","LIN":"2鄰","STREET":" ","SECT":" ","MAREA":"豐華","LANE":" ","ALLEY":" ","HOUSE_NO":"１３號","E_COORD97":173812.38,"N_COORD97":2554069.75,"ADDRESS":"豐華１３號","OBJECTID":215304},"geometry":{"x":173812.37999999989,"y":2554069.7500000019}},{"attributes":{"ID":215306,"DIS_CODE":0,"TOWNNAME":"新市區","LI":"豐華里","LIN":"2鄰","STREET":" ","SECT":" ","MAREA":"豐華","LANE":" ","ALLEY":" ","HOUSE_NO":"１５號","E_COORD97":173846.34,"N_COORD97":2554080.75,"ADDRESS":"豐華１５號","OBJECTID":215305},"geometry":{"x":173846.34000000078,"y":2554080.75}},{"attributes":{"ID":215307,"DIS_CODE":0,"TOWNNAME":"新市區","LI":"潭頂里","LIN":"2鄰","STREET":" ","SECT":" ","MAREA":"潭頂","LANE":" ","ALLEY":" ","HOUSE_NO":"９０之６１號","E_COORD97":181747.76000000001,"N_COORD97":2553511.2999999998,"ADDRESS":"潭頂９０之６１號","OBJECTID":215306},"geometry":{"x":181747.76000000071,"y":2553511.3000000007}},{"attributes":{"ID":215308,"DIS_CODE":0,"TOWNNAME":"新市區","LI":"潭頂里","LIN":"2鄰","STREET":" ","SECT":" ","MAREA":"潭頂","LANE":" ","ALLEY":" ","HOUSE_NO":"１３７號","E_COORD97":181034.10999999999,"N_COORD97":2553121,"ADDRESS":"潭頂１３７號","OBJECTID":215307},"geometry":{"x":181034.11000000127,"y":2553121.0000000019}},{"attributes":{"ID":215309,"DIS_CODE":0,"TOWNNAME":"新市區","LI":"潭頂里","LIN":"2鄰","STREET":" ","SECT":" ","MAREA":"潭頂","LANE":" ","ALLEY":" ","HOUSE_NO":"１４８之９號","E_COORD97":181081.12,"N_COORD97":2552928.5499999998,"ADDRESS":"潭頂１４８之９號","OBJECTID":215308},"geometry":{"x":181081.12000000104,"y":2552928.5500000026}},{"attributes":{"ID":215310,"DIS_CODE":0,"TOWNNAME":"安南區","LI":"鹿耳里","LIN":"1鄰","STREET":"北汕尾二路","SECT":" ","MAREA":" ","LANE":"８００巷","ALLEY":"９弄","HOUSE_NO":"１３號","E_COORD97":160693.23000000001,"N_COORD97":2548576.5600000001,"ADDRESS":"北汕尾二路８００巷９弄１３號","OBJECTID":215309},"geometry":{"x":160693.23000000045,"y":2548576.5600000005}},{"attributes":{"ID":215311,"DIS_CODE":0,"TOWNNAME":"安南區","LI":"鹿耳里","LIN":"1鄰","STREET":"北汕尾二路","SECT":" ","MAREA":" ","LANE":"８００巷","ALLEY":"９弄","HOUSE_NO":"１５號","E_COORD97":160689.82999999999,"N_COORD97":2548578.2599999998,"ADDRESS":"北汕尾二路８００巷９弄１５號","OBJECTID":215310},"geometry":{"x":160689.83000000101,"y":2548578.2599999998}},{"attributes":{"ID":215312,"DIS_CODE":0,"TOWNNAME":"安南區","LI":"鹿耳里","LIN":"1鄰","STREET":"北汕尾二路","SECT":" ","MAREA":" ","LANE":"８００巷","ALLEY":"９弄","HOUSE_NO":"１７號","E_COORD97":160684.73000000001,"N_COORD97":2548582.79,"ADDRESS":"北汕尾二路８００巷９弄１７號","OBJECTID":215311},"geometry":{"x":160684.73000000045,"y":2548582.790000001}},{"attributes":{"ID":215313,"DIS_CODE":0,"TOWNNAME":"安南區","LI":"鹿耳里","LIN":"1鄰","STREET":"北汕尾二路","SECT":" ","MAREA":" ","LANE":"８００巷","ALLEY":"９弄","HOUSE_NO":"１９號","E_COORD97":160680.76000000001,"N_COORD97":2548587.3199999998,"ADDRESS":"北汕尾二路８００巷９弄１９號","OBJECTID":215312},"geometry":{"x":160680.75999999978,"y":2548587.3200000022}},{"attributes":{"ID":215314,"DIS_CODE":0,"TOWNNAME":"安南區","LI":"鹿耳里","LIN":"1鄰","STREET":"北汕尾二路","SECT":" ","MAREA":" ","LANE":"８００巷","ALLEY":"９弄","HOUSE_NO":"１號","E_COORD97":160687.56,"N_COORD97":2548552.77,"ADDRESS":"北汕尾二路８００巷９弄１號","OBJECTID":215313},"geometry":{"x":160687.56000000145,"y":2548552.7700000014}},{"attributes":{"ID":215315,"DIS_CODE":0,"TOWNNAME":"安南區","LI":"鹿耳里","LIN":"1鄰","STREET":"北汕尾二路","SECT":" ","MAREA":" ","LANE":"８００巷","ALLEY":"９弄","HOUSE_NO":"２３號","E_COORD97":160708.67999999999,"N_COORD97":2548595.1899999999,"ADDRESS":"北汕尾二路８００巷９弄２３號","OBJECTID":215314},"geometry":{"x":160708.6799999997,"y":2548595.1899999995}},{"attributes":{"ID":215316,"DIS_CODE":0,"TOWNNAME":"永康區","LI":"\u25A0洲里","LIN":" ","STREET":"中正南路","SECT":" ","MAREA":" ","LANE":"７７９巷","ALLEY":"２弄","HOUSE_NO":"８２７號","E_COORD97":171742.67000000001,"N_COORD97":2549050.3199999998,"ADDRESS":"中正南路７７９巷２弄８２７號","OBJECTID":215315},"geometry":{"x":171742.66999999993,"y":2549050.320000004}},{"attributes":{"ID":215317,"DIS_CODE":0,"TOWNNAME":"永康區","LI":"\u25A0洲里","LIN":" ","STREET":"中正南路","SECT":" ","MAREA":" ","LANE":"５７巷","ALLEY":"６２弄","HOUSE_NO":"２０號","E_COORD97":169912.63,"N_COORD97":2546738.98,"ADDRESS":"中正南路５７巷６２弄２０號","OBJECTID":215316},"geometry":{"x":169912.63000000175,"y":2546738.9800000004}},{"attributes":{"ID":215318,"DIS_CODE":0,"TOWNNAME":"新市區","LI":"潭頂里","LIN":"2鄰","STREET":" ","SECT":" ","MAREA":"潭頂","LANE":" ","ALLEY":" ","HOUSE_NO":"９９之１２號","E_COORD97":182462.32999999999,"N_COORD97":2554136.2999999998,"ADDRESS":"潭頂９９之１２號","OBJECTID":215317},"geometry":{"x":182462.33000000007,"y":2554136.2999999989}},{"attributes":{"ID":215319,"DIS_CODE":0,"TOWNNAME":"新市區","LI":"潭頂里","LIN":"2鄰","STREET":" ","SECT":" ","MAREA":"潭頂","LANE":" ","ALLEY":" ","HOUSE_NO":"１１５之１號","E_COORD97":181497.67000000001,"N_COORD97":2553278.2999999998,"ADDRESS":"潭頂１１５之１號","OBJECTID":215318},"geometry":{"x":181497.67000000086,"y":2553278.3000000007}},{"attributes":{"ID":215320,"DIS_CODE":0,"TOWNNAME":"新市區","LI":"潭頂里","LIN":"2鄰","STREET":" ","SECT":" ","MAREA":"潭頂","LANE":" ","ALLEY":" ","HOUSE_NO":"９０之７１號","E_COORD97":181695.84,"N_COORD97":2553508.7999999998,"ADDRESS":"潭頂９０之７１號","OBJECTID":215319},"geometry":{"x":181695.83999999985,"y":2553508.8000000007}},{"attributes":{"ID":215321,"DIS_CODE":0,"TOWNNAME":"新市區","LI":"潭頂里","LIN":"2鄰","STREET":" ","SECT":" ","MAREA":"潭頂","LANE":" ","ALLEY":" ","HOUSE_NO":"１００號","E_COORD97":182265.54000000001,"N_COORD97":2553830,"ADDRESS":"潭頂１００號","OBJECTID":215320},"geometry":{"x":182265.54000000004,"y":2553830.0000000019}},{"attributes":{"ID":215322,"DIS_CODE":0,"TOWNNAME":"新市區","LI":"潭頂里","LIN":"2鄰","STREET":" ","SECT":" ","MAREA":"潭頂","LANE":" ","ALLEY":" ","HOUSE_NO":"１５５之１號","E_COORD97":180969.87,"N_COORD97":2553028.0499999998,"ADDRESS":"潭頂１５５之１號","OBJECTID":215321},"geometry":{"x":180969.87000000011,"y":2553028.0500000007}},{"attributes":{"ID":215323,"DIS_CODE":0,"TOWNNAME":"新市區","LI":"潭頂里","LIN":"2鄰","STREET":" ","SECT":" ","MAREA":"潭頂","LANE":" ","ALLEY":" ","HOUSE_NO":"９０之５７號","E_COORD97":181674.67000000001,"N_COORD97":2553496.0499999998,"ADDRESS":"潭頂９０之５７號","OBJECTID":215322},"geometry":{"x":181674.66999999993,"y":2553496.0500000007}},{"attributes":{"ID":215324,"DIS_CODE":0,"TOWNNAME":"新市區","LI":"潭頂里","LIN":"2鄰","STREET":" ","SECT":" ","MAREA":"潭頂","LANE":" ","ALLEY":" ","HOUSE_NO":"１４７號","E_COORD97":181044.84,"N_COORD97":2552964.5,"ADDRESS":"潭頂１４７號","OBJECTID":215323},"geometry":{"x":181044.83999999985,"y":2552964.4999999981}},{"attributes":{"ID":215325,"DIS_CODE":0,"TOWNNAME":"新市區","LI":"潭頂里","LIN":"2鄰","STREET":" ","SECT":" ","MAREA":"潭頂","LANE":" ","ALLEY":" ","HOUSE_NO":"１５７號","E_COORD97":180927.28,"N_COORD97":2553051.25,"ADDRESS":"潭頂１５７號","OBJECTID":215324},"geometry":{"x":180927.28000000212,"y":2553051.2500000037}},{"attributes":{"ID":215326,"DIS_CODE":0,"TOWNNAME":"麻豆區","LI":"寮\u25A0里","LIN":"8鄰","STREET":" ","SECT":" ","MAREA":"寮子\u25A0","LANE":" ","ALLEY":" ","HOUSE_NO":"６０號之１","E_COORD97":176918.62,"N_COORD97":2565217.9199999999,"ADDRESS":"寮子\u25A0６０號之１","OBJECTID":215325},"geometry":{"x":176918.62000000011,"y":2565217.9200000037}},{"attributes":{"ID":215327,"DIS_CODE":0,"TOWNNAME":"麻豆區","LI":"寮\u25A0里","LIN":"8鄰","STREET":" ","SECT":" ","MAREA":"寮子\u25A0","LANE":" ","ALLEY":" ","HOUSE_NO":"６０號之２","E_COORD97":176911.26000000001,"N_COORD97":2565174.71,"ADDRESS":"寮子\u25A0６０號之２","OBJECTID":215326},"geometry":{"x":176911.26000000071,"y":2565174.7100000009}},{"attributes":{"ID":215328,"DIS_CODE":0,"TOWNNAME":"麻豆區","LI":"寮\u25A0里","LIN":"8鄰","STREET":" ","SECT":" ","MAREA":"寮子\u25A0","LANE":" ","ALLEY":" ","HOUSE_NO":"６０號之４","E_COORD97":176931.29000000001,"N_COORD97":2565211.21,"ADDRESS":"寮子\u25A0６０號之４","OBJECTID":215327},"geometry":{"x":176931.29000000004,"y":2565211.2100000028}},{"attributes":{"ID":215329,"DIS_CODE":0,"TOWNNAME":"麻豆區","LI":"寮\u25A0里","LIN":"8鄰","STREET":" ","SECT":" ","MAREA":"寮子\u25A0","LANE":" ","ALLEY":" ","HOUSE_NO":"６０號之５","E_COORD97":176933.79999999999,"N_COORD97":2565160.1600000001,"ADDRESS":"寮子\u25A0６０號之５","OBJECTID":215328},"geometry":{"x":176933.79999999981,"y":2565160.160000002}},{"attributes":{"ID":215330,"DIS_CODE":0,"TOWNNAME":"麻豆區","LI":"寮\u25A0里","LIN":"8鄰","STREET":" ","SECT":" ","MAREA":"寮子\u25A0","LANE":" ","ALLEY":" ","HOUSE_NO":"６０號之６","E_COORD97":176930.37,"N_COORD97":2565161.98,"ADDRESS":"寮子\u25A0６０號之６","OBJECTID":215329},"geometry":{"x":176930.37000000011,"y":2565161.9800000023}},{"attributes":{"ID":215331,"DIS_CODE":0,"TOWNNAME":"麻豆區","LI":"寮\u25A0里","LIN":"8鄰","STREET":" ","SECT":" ","MAREA":"寮子\u25A0","LANE":" ","ALLEY":" ","HOUSE_NO":"６０號之７","E_COORD97":176926.57000000001,"N_COORD97":2565162.79,"ADDRESS":"寮子\u25A0６０號之７","OBJECTID":215330},"geometry":{"x":176926.57000000123,"y":2565162.7899999991}},{"attributes":{"ID":215332,"DIS_CODE":0,"TOWNNAME":"麻豆區","LI":"海埔里","LIN":"9鄰","STREET":" ","SECT":" ","MAREA":"海埔","LANE":" ","ALLEY":" ","HOUSE_NO":"４４號之３","E_COORD97":169793.95999999999,"N_COORD97":2567543.71,"ADDRESS":"海埔４４號之３","OBJECTID":215331},"geometry":{"x":169793.96000000089,"y":2567543.7100000028}},{"attributes":{"ID":215333,"DIS_CODE":0,"TOWNNAME":"麻豆區","LI":"海埔里","LIN":"9鄰","STREET":" ","SECT":" ","MAREA":"海埔","LANE":" ","ALLEY":" ","HOUSE_NO":"４４號之５","E_COORD97":169713.98999999999,"N_COORD97":2567638.5099999998,"ADDRESS":"海埔４４號之５","OBJECTID":215332},"geometry":{"x":169713.99000000115,"y":2567638.5100000016}},{"attributes":{"ID":215334,"DIS_CODE":0,"TOWNNAME":"麻豆區","LI":"海埔里","LIN":"9鄰","STREET":" ","SECT":" ","MAREA":"海埔","LANE":" ","ALLEY":" ","HOUSE_NO":"４５號之１","E_COORD97":169649.12,"N_COORD97":2566930.9900000002,"ADDRESS":"海埔４５號之１","OBJECTID":215333},"geometry":{"x":169649.12000000104,"y":2566930.9900000021}},{"attributes":{"ID":215335,"DIS_CODE":0,"TOWNNAME":"麻豆區","LI":"海埔里","LIN":"9鄰","STREET":" ","SECT":" ","MAREA":"海埔","LANE":" ","ALLEY":" ","HOUSE_NO":"４５號之５","E_COORD97":169685.25,"N_COORD97":2567090.54,"ADDRESS":"海埔４５號之５","OBJECTID":215334},"geometry":{"x":169685.25000000093,"y":2567090.5399999991}},{"attributes":{"ID":215336,"DIS_CODE":0,"TOWNNAME":"麻豆區","LI":"海埔里","LIN":"9鄰","STREET":" ","SECT":" ","MAREA":"海埔","LANE":" ","ALLEY":" ","HOUSE_NO":"４５號之７","E_COORD97":169742.56,"N_COORD97":2567331.7599999998,"ADDRESS":"海埔４５號之７","OBJECTID":215335},"geometry":{"x":169742.55999999959,"y":2567331.7600000016}},{"attributes":{"ID":215337,"DIS_CODE":0,"TOWNNAME":"麻豆區","LI":"海埔里","LIN":"9鄰","STREET":" ","SECT":" ","MAREA":"海埔","LANE":" ","ALLEY":" ","HOUSE_NO":"４５號","E_COORD97":169654.13,"N_COORD97":2566949.2200000002,"ADDRESS":"海埔４５號","OBJECTID":215336},"geometry":{"x":169654.12999999989,"y":2566949.2200000044}},{"attributes":{"ID":215338,"DIS_CODE":0,"TOWNNAME":"麻豆區","LI":"海埔里","LIN":"9鄰","STREET":" ","SECT":" ","MAREA":"海埔","LANE":" ","ALLEY":" ","HOUSE_NO":"４６號","E_COORD97":169628.56,"N_COORD97":2566940.6600000001,"ADDRESS":"海埔４６號","OBJECTID":215337},"geometry":{"x":169628.56000000052,"y":2566940.6600000001}},{"attributes":{"ID":215339,"DIS_CODE":0,"TOWNNAME":"麻豆區","LI":"海埔里","LIN":"9鄰","STREET":" ","SECT":" ","MAREA":"海埔","LANE":" ","ALLEY":" ","HOUSE_NO":"４８號","E_COORD97":169605.59,"N_COORD97":2566979.04,"ADDRESS":"海埔４８號","OBJECTID":215338},"geometry":{"x":169605.58999999985,"y":2566979.0399999972}},{"attributes":{"ID":215340,"DIS_CODE":0,"TOWNNAME":"白河區","LI":"外角里","LIN":"9鄰","STREET":"三民路","SECT":" ","MAREA":" ","LANE":" ","ALLEY":" ","HOUSE_NO":"１６０號","E_COORD97":190983.82000000001,"N_COORD97":2583335.4399999999,"ADDRESS":"三民路１６０號","OBJECTID":215339},"geometry":{"x":190983.8200000003,"y":2583335.4400000032}},{"attributes":{"ID":215341,"DIS_CODE":0,"TOWNNAME":"麻豆區","LI":"海埔里","LIN":"9鄰","STREET":" ","SECT":" ","MAREA":"海埔","LANE":" ","ALLEY":" ","HOUSE_NO":"５０號之１","E_COORD97":169556.06,"N_COORD97":2566969.1699999999,"ADDRESS":"海埔５０號之１","OBJECTID":215340},"geometry":{"x":169556.05999999959,"y":2566969.1700000037}},{"attributes":{"ID":215342,"DIS_CODE":0,"TOWNNAME":"麻豆區","LI":"海埔里","LIN":"9鄰","STREET":" ","SECT":" ","MAREA":"海埔","LANE":" ","ALLEY":" ","HOUSE_NO":"５０號之２","E_COORD97":169582.92000000001,"N_COORD97":2567004.27,"ADDRESS":"海埔５０號之２","OBJECTID":215341},"geometry":{"x":169582.91999999993,"y":2567004.2699999996}},{"attributes":{"ID":215343,"DIS_CODE":0,"TOWNNAME":"麻豆區","LI":"海埔里","LIN":"9鄰","STREET":" ","SECT":" ","MAREA":"海埔","LANE":" ","ALLEY":" ","HOUSE_NO":"５０號","E_COORD97":169580.85999999999,"N_COORD97":2566969.9900000002,"ADDRESS":"海埔５０號","OBJECTID":215342},"geometry":{"x":169580.8599999994,"y":2566969.9900000002}},{"attributes":{"ID":215344,"DIS_CODE":0,"TOWNNAME":"麻豆區","LI":"寮\u25A0里","LIN":"8鄰","STREET":" ","SECT":" ","MAREA":"寮子\u25A0","LANE":" ","ALLEY":" ","HOUSE_NO":"６０號之８","E_COORD97":176922.54999999999,"N_COORD97":2565163.6600000001,"ADDRESS":"寮子\u25A0６０號之８","OBJECTID":215343},"geometry":{"x":176922.54999999888,"y":2565163.660000002}},{"attributes":{"ID":215345,"DIS_CODE":0,"TOWNNAME":"麻豆區","LI":"寮\u25A0里","LIN":"8鄰","STREET":" ","SECT":" ","MAREA":"寮子\u25A0","LANE":" ","ALLEY":" ","HOUSE_NO":"６０號之９","E_COORD97":176894.63,"N_COORD97":2565179.7799999998,"ADDRESS":"寮子\u25A0６０號之９","OBJECTID":215344},"geometry":{"x":176894.62999999989,"y":2565179.7799999993}},{"attributes":{"ID":215346,"DIS_CODE":0,"TOWNNAME":"麻豆區","LI":"寮\u25A0里","LIN":"8鄰","STREET":" ","SECT":" ","MAREA":"寮子\u25A0","LANE":" ","ALLEY":" ","HOUSE_NO":"６０號","E_COORD97":176905.20999999999,"N_COORD97":2565224.73,"ADDRESS":"寮子\u25A0６０號","OBJECTID":215345},"geometry":{"x":176905.21000000089,"y":2565224.7300000023}},{"attributes":{"ID":215347,"DIS_CODE":0,"TOWNNAME":"新市區","LI":"潭頂里","LIN":"2鄰","STREET":" ","SECT":" ","MAREA":"潭頂","LANE":" ","ALLEY":" ","HOUSE_NO":"９０之３４號","E_COORD97":181697.72,"N_COORD97":2553478.7999999998,"ADDRESS":"潭頂９０之３４號","OBJECTID":215346},"geometry":{"x":181697.71999999974,"y":2553478.8000000045}},{"attributes":{"ID":215348,"DIS_CODE":0,"TOWNNAME":"安南區","LI":"鹿耳里","LIN":"1鄰","STREET":"北汕尾二路","SECT":" ","MAREA":" ","LANE":"８００巷","ALLEY":"９弄","HOUSE_NO":"２７號","E_COORD97":160715.91,"N_COORD97":2548587.8900000001,"ADDRESS":"北汕尾二路８００巷９弄２７號","OBJECTID":215347},"geometry":{"x":160715.91000000015,"y":2548587.8900000006}},{"attributes":{"ID":215349,"DIS_CODE":0,"TOWNNAME":"安南區","LI":"鹿耳里","LIN":"1鄰","STREET":"北汕尾二路","SECT":" ","MAREA":" ","LANE":"８００巷","ALLEY":"９弄","HOUSE_NO":"２９號","E_COORD97":160719.87,"N_COORD97":2548591.8500000001,"ADDRESS":"北汕尾二路８００巷９弄２９號","OBJECTID":215348},"geometry":{"x":160719.87000000197,"y":2548591.8500000034}},{"attributes":{"ID":215350,"DIS_CODE":0,"TOWNNAME":"安南區","LI":"鹿耳里","LIN":"1鄰","STREET":"北汕尾二路","SECT":" ","MAREA":" ","LANE":"８００巷","ALLEY":"９弄","HOUSE_NO":"３１號","E_COORD97":160723.14000000001,"N_COORD97":2548596.7400000002,"ADDRESS":"北汕尾二路８００巷９弄３１號","OBJECTID":215349},"geometry":{"x":160723.1400000006,"y":2548596.7400000039}},{"attributes":{"ID":215351,"DIS_CODE":0,"TOWNNAME":"安南區","LI":"鹿耳里","LIN":"1鄰","STREET":"北汕尾二路","SECT":" ","MAREA":" ","LANE":"８００巷","ALLEY":"９弄","HOUSE_NO":"３３號","E_COORD97":160727.26999999999,"N_COORD97":2548600.3500000001,"ADDRESS":"北汕尾二路８００巷９弄３３號","OBJECTID":215350},"geometry":{"x":160727.27000000048,"y":2548600.3499999996}},{"attributes":{"ID":215352,"DIS_CODE":0,"TOWNNAME":"官田區","LI":"社子里","LIN":"2鄰","STREET":" ","SECT":" ","MAREA":"社子","LANE":" ","ALLEY":" ","HOUSE_NO":"６號之２","E_COORD97":184346.01000000001,"N_COORD97":2564580.5299999998,"ADDRESS":"社子６號之２","OBJECTID":215351},"geometry":{"x":184346.00999999885,"y":2564580.5300000012}},{"attributes":{"ID":215353,"DIS_CODE":0,"TOWNNAME":"官田區","LI":"社子里","LIN":"2鄰","STREET":" ","SECT":" ","MAREA":"社子","LANE":" ","ALLEY":" ","HOUSE_NO":"６號之３","E_COORD97":184351.04000000001,"N_COORD97":2564580.23,"ADDRESS":"社子６號之３","OBJECTID":215352},"geometry":{"x":184351.04000000004,"y":2564580.2300000023}},{"attributes":{"ID":215354,"DIS_CODE":0,"TOWNNAME":"官田區","LI":"社子里","LIN":"2鄰","STREET":" ","SECT":" ","MAREA":"社子","LANE":" ","ALLEY":" ","HOUSE_NO":"６號之４","E_COORD97":184355.54999999999,"N_COORD97":2564580.1200000001,"ADDRESS":"社子６號之４","OBJECTID":215353},"geometry":{"x":184355.54999999981,"y":2564580.120000001}},{"attributes":{"ID":215355,"DIS_CODE":0,"TOWNNAME":"官田區","LI":"社子里","LIN":"2鄰","STREET":" ","SECT":" ","MAREA":"社子","LANE":" ","ALLEY":" ","HOUSE_NO":"７號之１","E_COORD97":184363.28,"N_COORD97":2564579.3199999998,"ADDRESS":"社子７號之１","OBJECTID":215354},"geometry":{"x":184363.28000000026,"y":2564579.3200000022}},{"attributes":{"ID":215356,"DIS_CODE":0,"TOWNNAME":"官田區","LI":"社子里","LIN":"2鄰","STREET":" ","SECT":" ","MAREA":"社子","LANE":" ","ALLEY":" ","HOUSE_NO":"８號之１０","E_COORD97":184379.82000000001,"N_COORD97":2564638.3100000001,"ADDRESS":"社子８號之１０","OBJECTID":215355},"geometry":{"x":184379.8200000003,"y":2564638.3100000005}},{"attributes":{"ID":215357,"DIS_CODE":0,"TOWNNAME":"官田區","LI":"社子里","LIN":"2鄰","STREET":" ","SECT":" ","MAREA":"社子","LANE":" ","ALLEY":" ","HOUSE_NO":"８號之１１","E_COORD97":184385.48000000001,"N_COORD97":2564639.5899999999,"ADDRESS":"社子８號之１１","OBJECTID":215356},"geometry":{"x":184385.48000000045,"y":2564639.5899999999}},{"attributes":{"ID":215358,"DIS_CODE":0,"TOWNNAME":"官田區","LI":"社子里","LIN":"2鄰","STREET":" ","SECT":" ","MAREA":"社子","LANE":" ","ALLEY":" ","HOUSE_NO":"８號之１２","E_COORD97":184390.67999999999,"N_COORD97":2564634.02,"ADDRESS":"社子８號之１２","OBJECTID":215357},"geometry":{"x":184390.68000000156,"y":2564634.0200000033}},{"attributes":{"ID":215359,"DIS_CODE":0,"TOWNNAME":"官田區","LI":"社子里","LIN":"2鄰","STREET":" ","SECT":" ","MAREA":"社子","LANE":" ","ALLEY":" ","HOUSE_NO":"８號之１３","E_COORD97":184395.78,"N_COORD97":2564633.9700000002,"ADDRESS":"社子８號之１３","OBJECTID":215358},"geometry":{"x":184395.78000000212,"y":2564633.9700000007}},{"attributes":{"ID":215360,"DIS_CODE":0,"TOWNNAME":"官田區","LI":"社子里","LIN":"2鄰","STREET":" ","SECT":" ","MAREA":"社子","LANE":" ","ALLEY":" ","HOUSE_NO":"８號之１４","E_COORD97":184400.89000000001,"N_COORD97":2564633.9300000002,"ADDRESS":"社子８號之１４","OBJECTID":215359},"geometry":{"x":184400.88999999966,"y":2564633.9299999997}},{"attributes":{"ID":215361,"DIS_CODE":0,"TOWNNAME":"官田區","LI":"社子里","LIN":"2鄰","STREET":" ","SECT":" ","MAREA":"社子","LANE":" ","ALLEY":" ","HOUSE_NO":"８號之１５","E_COORD97":184405.98999999999,"N_COORD97":2564633.8799999999,"ADDRESS":"社子８號之１５","OBJECTID":215360},"geometry":{"x":184405.99000000209,"y":2564633.8799999971}},{"attributes":{"ID":215362,"DIS_CODE":0,"TOWNNAME":"官田區","LI":"社子里","LIN":"2鄰","STREET":" ","SECT":" ","MAREA":"社子","LANE":" ","ALLEY":" ","HOUSE_NO":"８號之１６","E_COORD97":184411.10000000001,"N_COORD97":2564633.8300000001,"ADDRESS":"社子８號之１６","OBJECTID":215361},"geometry":{"x":184411.09999999963,"y":2564633.8300000019}},{"attributes":{"ID":215363,"DIS_CODE":0,"TOWNNAME":"官田區","LI":"社子里","LIN":"2鄰","STREET":" ","SECT":" ","MAREA":"社子","LANE":" ","ALLEY":" ","HOUSE_NO":"８號之１７","E_COORD97":184416.85999999999,"N_COORD97":2564633.4399999999,"ADDRESS":"社子８號之１７","OBJECTID":215362},"geometry":{"x":184416.86000000034,"y":2564633.4399999995}},{"attributes":{"ID":215364,"DIS_CODE":0,"TOWNNAME":"官田區","LI":"社子里","LIN":"2鄰","STREET":" ","SECT":" ","MAREA":"社子","LANE":" ","ALLEY":" ","HOUSE_NO":"８號之１８","E_COORD97":184390.56,"N_COORD97":2564616.6499999999,"ADDRESS":"社子８號之１８","OBJECTID":215363},"geometry":{"x":184390.55999999959,"y":2564616.6500000041}},{"attributes":{"ID":215365,"DIS_CODE":0,"TOWNNAME":"永康區","LI":"中華里","LIN":"9鄰","STREET":"忠勇街","SECT":" ","MAREA":" ","LANE":" ","ALLEY":" ","HOUSE_NO":"６８號","E_COORD97":171899.51000000001,"N_COORD97":2544511.6499999999,"ADDRESS":"忠勇街６８號","OBJECTID":215364},"geometry":{"x":171899.50999999978,"y":2544511.6499999985}},{"attributes":{"ID":215366,"DIS_CODE":0,"TOWNNAME":"官田區","LI":"社子里","LIN":"2鄰","STREET":" ","SECT":" ","MAREA":"社子","LANE":" ","ALLEY":" ","HOUSE_NO":"８號之１９","E_COORD97":184395.72,"N_COORD97":2564616.3300000001,"ADDRESS":"社子８號之１９","OBJECTID":215365},"geometry":{"x":184395.72000000067,"y":2564616.3300000019}},{"attributes":{"ID":215367,"DIS_CODE":0,"TOWNNAME":"官田區","LI":"社子里","LIN":"2鄰","STREET":" ","SECT":" ","MAREA":"社子","LANE":" ","ALLEY":" ","HOUSE_NO":"８號之１","E_COORD97":184379.57000000001,"N_COORD97":2564581.0800000001,"ADDRESS":"社子８號之１","OBJECTID":215366},"geometry":{"x":184379.5700000003,"y":2564581.0800000019}},{"attributes":{"ID":215368,"DIS_CODE":0,"TOWNNAME":"官田區","LI":"社子里","LIN":"2鄰","STREET":" ","SECT":" ","MAREA":"社子","LANE":" ","ALLEY":" ","HOUSE_NO":"８號之２０","E_COORD97":184400.87,"N_COORD97":2564616.0099999998,"ADDRESS":"社子８號之２０","OBJECTID":215367},"geometry":{"x":184400.87000000011,"y":2564616.0099999998}},{"attributes":{"ID":215369,"DIS_CODE":0,"TOWNNAME":"安南區","LI":"鹿耳里","LIN":"1鄰","STREET":"北汕尾二路","SECT":" ","MAREA":" ","LANE":"８００巷","ALLEY":"９弄","HOUSE_NO":"３７號","E_COORD97":160735.01999999999,"N_COORD97":2548607.5800000001,"ADDRESS":"北汕尾二路８００巷９弄３７號","OBJECTID":215368},"geometry":{"x":160735.01999999955,"y":2548607.5800000038}},{"attributes":{"ID":215370,"DIS_CODE":0,"TOWNNAME":"安南區","LI":"鹿耳里","LIN":"1鄰","STREET":"北汕尾二路","SECT":" ","MAREA":" ","LANE":"８００巷","ALLEY":"９弄","HOUSE_NO":"３９號","E_COORD97":160738.12,"N_COORD97":2548611.7000000002,"ADDRESS":"北汕尾二路８００巷９弄３９號","OBJECTID":215369},"geometry":{"x":160738.12000000011,"y":2548611.6999999993}},{"attributes":{"ID":215371,"DIS_CODE":0,"TOWNNAME":"安南區","LI":"鹿耳里","LIN":"1鄰","STREET":"北汕尾二路","SECT":" ","MAREA":" ","LANE":"８００巷","ALLEY":"９弄","HOUSE_NO":"３號","E_COORD97":160690.95999999999,"N_COORD97":2548557.8700000001,"ADDRESS":"北汕尾二路８００巷９弄３號","OBJECTID":215370},"geometry":{"x":160690.96000000089,"y":2548557.870000001}},{"attributes":{"ID":215372,"DIS_CODE":0,"TOWNNAME":"安南區","LI":"鹿耳里","LIN":"1鄰","STREET":"北汕尾二路","SECT":" ","MAREA":" ","LANE":"８００巷","ALLEY":"９弄","HOUSE_NO":"４１號","E_COORD97":160742.25,"N_COORD97":2548616.3500000001,"ADDRESS":"北汕尾二路８００巷９弄４１號","OBJECTID":215371},"geometry":{"x":160742.25,"y":2548616.3500000015}},{"attributes":{"ID":215373,"DIS_CODE":0,"TOWNNAME":"安南區","LI":"鹿耳里","LIN":"1鄰","STREET":"北汕尾二路","SECT":" ","MAREA":" ","LANE":"８００巷","ALLEY":"９弄","HOUSE_NO":"４３號","E_COORD97":160744.82999999999,"N_COORD97":2548621.5099999998,"ADDRESS":"北汕尾二路８００巷９弄４３號","OBJECTID":215372},"geometry":{"x":160744.83000000007,"y":2548621.5100000035}},{"attributes":{"ID":215374,"DIS_CODE":0,"TOWNNAME":"安南區","LI":"鹿耳里","LIN":"1鄰","STREET":"北汕尾二路","SECT":" ","MAREA":" ","LANE":"８００巷","ALLEY":"９弄","HOUSE_NO":"４５號","E_COORD97":160732.44,"N_COORD97":2548624.0899999999,"ADDRESS":"北汕尾二路８００巷９弄４５號","OBJECTID":215373},"geometry":{"x":160732.44000000041,"y":2548624.0900000036}},{"attributes":{"ID":215375,"DIS_CODE":0,"TOWNNAME":"安南區","LI":"鹿耳里","LIN":"1鄰","STREET":"北汕尾二路","SECT":" ","MAREA":" ","LANE":"８００巷","ALLEY":"９弄","HOUSE_NO":"４７號","E_COORD97":160727.79000000001,"N_COORD97":2548626.1499999999,"ADDRESS":"北汕尾二路８００巷９弄４７號","OBJECTID":215374},"geometry":{"x":160727.79000000097,"y":2548626.1500000004}},{"attributes":{"ID":215376,"DIS_CODE":0,"TOWNNAME":"安南區","LI":"鹿耳里","LIN":"1鄰","STREET":"北汕尾二路","SECT":" ","MAREA":" ","LANE":"８００巷","ALLEY":"９弄","HOUSE_NO":"４９號","E_COORD97":160743.28,"N_COORD97":2548645.7599999998,"ADDRESS":"北汕尾二路８００巷９弄４９號","OBJECTID":215375},"geometry":{"x":160743.28000000119,"y":2548645.7599999998}},{"attributes":{"ID":215377,"DIS_CODE":0,"TOWNNAME":"安南區","LI":"鹿耳里","LIN":"1鄰","STREET":"北汕尾二路","SECT":" ","MAREA":" ","LANE":"８００巷","ALLEY":"９弄","HOUSE_NO":"５１號","E_COORD97":160746.89999999999,"N_COORD97":2548642.6699999999,"ADDRESS":"北汕尾二路８００巷９弄５１號","OBJECTID":215376},"geometry":{"x":160746.90000000037,"y":2548642.6699999999}},{"attributes":{"ID":215378,"DIS_CODE":0,"TOWNNAME":"安南區","LI":"鹿耳里","LIN":"1鄰","STREET":"北汕尾二路","SECT":" ","MAREA":" ","LANE":"８００巷","ALLEY":"９弄","HOUSE_NO":"５３號","E_COORD97":160752.06,"N_COORD97":2548630.7999999998,"ADDRESS":"北汕尾二路８００巷９弄５３號","OBJECTID":215377},"geometry":{"x":160752.06000000145,"y":2548630.8000000026}},{"attributes":{"ID":215379,"DIS_CODE":0,"TOWNNAME":"安南區","LI":"鹿耳里","LIN":"1鄰","STREET":"北汕尾二路","SECT":" ","MAREA":" ","LANE":"８００巷","ALLEY":"９弄","HOUSE_NO":"５５號","E_COORD97":160756.70999999999,"N_COORD97":2548633.8900000001,"ADDRESS":"北汕尾二路８００巷９弄５５號","OBJECTID":215378},"geometry":{"x":160756.71000000089,"y":2548633.8900000025}},{"attributes":{"ID":215380,"DIS_CODE":0,"TOWNNAME":"安南區","LI":"鹿耳里","LIN":"1鄰","STREET":"北汕尾二路","SECT":" ","MAREA":" ","LANE":"８００巷","ALLEY":"９弄","HOUSE_NO":"５７號","E_COORD97":160759.29000000001,"N_COORD97":2548636.9900000002,"ADDRESS":"北汕尾二路８００巷９弄５７號","OBJECTID":215379},"geometry":{"x":160759.2900000019,"y":2548636.9900000021}},{"attributes":{"ID":215381,"DIS_CODE":0,"TOWNNAME":"安南區","LI":"鹿耳里","LIN":"1鄰","STREET":"北汕尾二路","SECT":" ","MAREA":" ","LANE":"８００巷","ALLEY":"９弄","HOUSE_NO":"５９號","E_COORD97":160763.42000000001,"N_COORD97":2548642.6699999999,"ADDRESS":"北汕尾二路８００巷９弄５９號","OBJECTID":215380},"geometry":{"x":160763.42000000179,"y":2548642.6699999999}},{"attributes":{"ID":215382,"DIS_CODE":0,"TOWNNAME":"安南區","LI":"鹿耳里","LIN":"1鄰","STREET":"北汕尾二路","SECT":" ","MAREA":" ","LANE":"８００巷","ALLEY":"９弄","HOUSE_NO":"５號","E_COORD97":160694.92999999999,"N_COORD97":2548560.7000000002,"ADDRESS":"北汕尾二路８００巷９弄５號","OBJECTID":215381},"geometry":{"x":160694.9299999997,"y":2548560.6999999993}},{"attributes":{"ID":215383,"DIS_CODE":0,"TOWNNAME":"安南區","LI":"鹿耳里","LIN":"1鄰","STREET":"北汕尾二路","SECT":" ","MAREA":" ","LANE":"８００巷","ALLEY":"９弄","HOUSE_NO":"６１號","E_COORD97":160767.04000000001,"N_COORD97":2548646.2799999998,"ADDRESS":"北汕尾二路８００巷９弄６１號","OBJECTID":215382},"geometry":{"x":160767.04000000004,"y":2548646.2800000031}},{"attributes":{"ID":215384,"DIS_CODE":0,"TOWNNAME":"官田區","LI":"社子里","LIN":"2鄰","STREET":" ","SECT":" ","MAREA":"社子","LANE":" ","ALLEY":" ","HOUSE_NO":"８號之２１","E_COORD97":184406.03,"N_COORD97":2564615.6899999999,"ADDRESS":"社子８號之２１","OBJECTID":215383},"geometry":{"x":184406.03000000119,"y":2564615.6900000032}},{"attributes":{"ID":215385,"DIS_CODE":0,"TOWNNAME":"官田區","LI":"社子里","LIN":"2鄰","STREET":" ","SECT":" ","MAREA":"社子","LANE":" ","ALLEY":" ","HOUSE_NO":"８號之２２","E_COORD97":184411.13,"N_COORD97":2564615.23,"ADDRESS":"社子８號之２２","OBJECTID":215384},"geometry":{"x":184411.12999999989,"y":2564615.2300000004}},{"attributes":{"ID":215386,"DIS_CODE":0,"TOWNNAME":"官田區","LI":"社子里","LIN":"2鄰","STREET":" ","SECT":" ","MAREA":"社子","LANE":" ","ALLEY":" ","HOUSE_NO":"８號之２３","E_COORD97":184416.34,"N_COORD97":2564615.0499999998,"ADDRESS":"社子８號之２３","OBJECTID":215385},"geometry":{"x":184416.33999999985,"y":2564615.0500000026}},{"attributes":{"ID":215387,"DIS_CODE":0,"TOWNNAME":"官田區","LI":"社子里","LIN":"2鄰","STREET":" ","SECT":" ","MAREA":"社子","LANE":" ","ALLEY":" ","HOUSE_NO":"８號之２","E_COORD97":184376.70999999999,"N_COORD97":2564596.1600000001,"ADDRESS":"社子８號之２","OBJECTID":215386},"geometry":{"x":184376.70999999996,"y":2564596.1600000039}},{"attributes":{"ID":215388,"DIS_CODE":0,"TOWNNAME":"官田區","LI":"社子里","LIN":"2鄰","STREET":" ","SECT":" ","MAREA":"社子","LANE":" ","ALLEY":" ","HOUSE_NO":"８號之３","E_COORD97":184375.92000000001,"N_COORD97":2564602.1099999999,"ADDRESS":"社子８號之３","OBJECTID":215387},"geometry":{"x":184375.92000000086,"y":2564602.1099999994}},{"attributes":{"ID":215389,"DIS_CODE":0,"TOWNNAME":"官田區","LI":"社子里","LIN":"2鄰","STREET":" ","SECT":" ","MAREA":"社子","LANE":" ","ALLEY":" ","HOUSE_NO":"８號之４","E_COORD97":184375.14000000001,"N_COORD97":2564608.0699999998,"ADDRESS":"社子８號之４","OBJECTID":215388},"geometry":{"x":184375.13999999966,"y":2564608.0700000022}},{"attributes":{"ID":215390,"DIS_CODE":0,"TOWNNAME":"官田區","LI":"社子里","LIN":"2鄰","STREET":" ","SECT":" ","MAREA":"社子","LANE":" ","ALLEY":" ","HOUSE_NO":"８號之５","E_COORD97":184374.35000000001,"N_COORD97":2564614.0299999998,"ADDRESS":"社子８號之５","OBJECTID":215389},"geometry":{"x":184374.35000000056,"y":2564614.0300000012}},{"attributes":{"ID":215391,"DIS_CODE":0,"TOWNNAME":"官田區","LI":"社子里","LIN":"2鄰","STREET":" ","SECT":" ","MAREA":"社子","LANE":" ","ALLEY":" ","HOUSE_NO":"８號之６","E_COORD97":184373.57000000001,"N_COORD97":2564619.9900000002,"ADDRESS":"社子８號之６","OBJECTID":215390},"geometry":{"x":184373.57000000123,"y":2564619.9900000002}},{"attributes":{"ID":215392,"DIS_CODE":0,"TOWNNAME":"善化區","LI":"嘉北里","LIN":"9鄰","STREET":" ","SECT":" ","MAREA":"茄拔","LANE":" ","ALLEY":" ","HOUSE_NO":"１９１號","E_COORD97":180961.37,"N_COORD97":2559992.0099999998,"ADDRESS":"茄拔１９１號","OBJECTID":215391},"geometry":{"x":180961.37000000011,"y":2559992.0099999998}},{"attributes":{"ID":215393,"DIS_CODE":0,"TOWNNAME":"善化區","LI":"東昌里","LIN":"9鄰","STREET":" ","SECT":" ","MAREA":"東勢寮","LANE":" ","ALLEY":" ","HOUSE_NO":"１２６號之２","E_COORD97":180343.32999999999,"N_COORD97":2561890.27,"ADDRESS":"東勢寮１２６號之２","OBJECTID":215392},"geometry":{"x":180343.33000000007,"y":2561890.2700000014}},{"attributes":{"ID":215394,"DIS_CODE":0,"TOWNNAME":"善化區","LI":"東昌里","LIN":"9鄰","STREET":" ","SECT":" ","MAREA":"東勢寮","LANE":" ","ALLEY":" ","HOUSE_NO":"１２６號之１","E_COORD97":180348.01000000001,"N_COORD97":2561899.52,"ADDRESS":"東勢寮１２６號之１","OBJECTID":215393},"geometry":{"x":180348.01000000071,"y":2561899.5199999996}},{"attributes":{"ID":215395,"DIS_CODE":0,"TOWNNAME":"善化區","LI":"牛庄里","LIN":"9鄰","STREET":" ","SECT":" ","MAREA":"牛庄","LANE":" ","ALLEY":" ","HOUSE_NO":"８２號之１","E_COORD97":180117.51999999999,"N_COORD97":2559948.52,"ADDRESS":"牛庄８２號之１","OBJECTID":215394},"geometry":{"x":180117.51999999955,"y":2559948.5200000033}},{"attributes":{"ID":215396,"DIS_CODE":0,"TOWNNAME":"善化區","LI":"東隆里","LIN":"9鄰","STREET":" ","SECT":" ","MAREA":"東勢寮","LANE":" ","ALLEY":" ","HOUSE_NO":"２１３之２號","E_COORD97":179955.48000000001,"N_COORD97":2561408.02,"ADDRESS":"東勢寮２１３之２號","OBJECTID":215395},"geometry":{"x":179955.48000000138,"y":2561408.0199999996}},{"attributes":{"ID":215397,"DIS_CODE":0,"TOWNNAME":"善化區","LI":"東隆里","LIN":"9鄰","STREET":" ","SECT":" ","MAREA":"東勢寮","LANE":" ","ALLEY":" ","HOUSE_NO":"２１５號","E_COORD97":179952.63,"N_COORD97":2561435.2599999998,"ADDRESS":"東勢寮２１５號","OBJECTID":215396},"geometry":{"x":179952.62999999989,"y":2561435.2600000035}},{"attributes":{"ID":215398,"DIS_CODE":0,"TOWNNAME":"官田區","LI":"社子里","LIN":"2鄰","STREET":" ","SECT":" ","MAREA":"社子","LANE":" ","ALLEY":" ","HOUSE_NO":"８號之９","E_COORD97":184374.26999999999,"N_COORD97":2564637.3900000001,"ADDRESS":"社子８號之９","OBJECTID":215397},"geometry":{"x":184374.26999999955,"y":2564637.3900000025}},{"attributes":{"ID":215399,"DIS_CODE":0,"TOWNNAME":"官田區","LI":"社子里","LIN":"2鄰","STREET":" ","SECT":" ","MAREA":"社子","LANE":" ","ALLEY":" ","HOUSE_NO":"８號","E_COORD97":184383.89999999999,"N_COORD97":2564581.1099999999,"ADDRESS":"社子８號","OBJECTID":215398},"geometry":{"x":184383.9000000013,"y":2564581.1099999994}},{"attributes":{"ID":215400,"DIS_CODE":0,"TOWNNAME":"官田區","LI":"社子里","LIN":"2鄰","STREET":" ","SECT":" ","MAREA":"社子","LANE":" ","ALLEY":" ","HOUSE_NO":"９號之１","E_COORD97":184392.06,"N_COORD97":2564576.3799999999,"ADDRESS":"社子９號之１","OBJECTID":215399},"geometry":{"x":184392.06000000052,"y":2564576.3800000027}},{"attributes":{"ID":215401,"DIS_CODE":0,"TOWNNAME":"官田區","LI":"南\u25A0里","LIN":"2鄰","STREET":" ","SECT":" ","MAREA":"南\u25A0","LANE":" ","ALLEY":" ","HOUSE_NO":"３３號之１２","E_COORD97":179030.82000000001,"N_COORD97":2568123.3500000001,"ADDRESS":"南\u25A0３３號之１２","OBJECTID":215400},"geometry":{"x":179030.82000000123,"y":2568123.3499999996}}]}