{"displayFieldName":"TOWNNAME","fieldAliases":{"ID":"ID","DIS_CODE":"DIS_CODE","TOWNNAME":"TOWNNAME","LI":"LI","LIN":"LIN","STREET":"STREET","SECT":"SECT","MAREA":"MAREA","LANE":"LANE","ALLEY":"ALLEY","HOUSE_NO":"HOUSE_NO","E_COORD97":"E_COORD97","N_COORD97":"N_COORD97","ADDRESS":"ADDRESS","OBJECTID":"OBJECTID"},"geometryType":"esriGeometryPoint","spatialReference":{"wkid":102443,"latestWkid":3826},"fields":[{"name":"ID","type":"esriFieldTypeDouble","alias":"ID"},{"name":"DIS_CODE","type":"esriFieldTypeInteger","alias":"DIS_CODE"},{"name":"TOWNNAME","type":"esriFieldTypeString","alias":"TOWNNAME","length":8},{"name":"LI","type":"esriFieldTypeString","alias":"LI","length":8},{"name":"LIN","type":"esriFieldTypeString","alias":"LIN","length":12},{"name":"STREET","type":"esriFieldTypeString","alias":"STREET","length":20},{"name":"SECT","type":"esriFieldTypeString","alias":"SECT","length":8},{"name":"MAREA","type":"esriFieldTypeString","alias":"MAREA","length":12},{"name":"LANE","type":"esriFieldTypeString","alias":"LANE","length":10},{"name":"ALLEY","type":"esriFieldTypeString","alias":"ALLEY","length":10},{"name":"HOUSE_NO","type":"esriFieldTypeString","alias":"HOUSE_NO","length":20},{"name":"E_COORD97","type":"esriFieldTypeDouble","alias":"E_COORD97"},{"name":"N_COORD97","type":"esriFieldTypeDouble","alias":"N_COORD97"},{"name":"ADDRESS","type":"esriFieldTypeString","alias":"ADDRESS","length":50},{"name":"OBJECTID","type":"esriFieldTypeOID","alias":"OBJECTID"}],"features":[{"attributes":{"ID":636228,"DIS_CODE":0,"TOWNNAME":"北區","LI":"五福里","LIN":"12鄰","STREET":"自強街","SECT":" ","MAREA":" ","LANE":" ","ALLEY":" ","HOUSE_NO":"８號五樓","E_COORD97":168234.39999999999,"N_COORD97":2544463.4300000002,"ADDRESS":"自強街８號五樓","OBJECTID":636201},"geometry":{"x":168234.40000000037,"y":2544463.4300000016}},{"attributes":{"ID":636229,"DIS_CODE":0,"TOWNNAME":"北區","LI":"成德里","LIN":"25鄰","STREET":"育德一街","SECT":" ","MAREA":" ","LANE":" ","ALLEY":" ","HOUSE_NO":"６號四樓","E_COORD97":168539.14999999999,"N_COORD97":2545779.0099999998,"ADDRESS":"育德一街６號四樓","OBJECTID":636202},"geometry":{"x":168539.15000000037,"y":2545779.0099999998}},{"attributes":{"ID":636230,"DIS_CODE":0,"TOWNNAME":"北區","LI":"文元里","LIN":"4鄰","STREET":"中華北路","SECT":"二段","MAREA":" ","LANE":" ","ALLEY":" ","HOUSE_NO":"１０號二樓之１０","E_COORD97":167375.70000000001,"N_COORD97":2546519.79,"ADDRESS":"中華北路二段１０號二樓之１０","OBJECTID":636203},"geometry":{"x":167375.70000000019,"y":2546519.7899999972}},{"attributes":{"ID":636231,"DIS_CODE":0,"TOWNNAME":"北區","LI":"文元里","LIN":"4鄰","STREET":"中華北路","SECT":"二段","MAREA":" ","LANE":" ","ALLEY":" ","HOUSE_NO":"１０號三樓之１０","E_COORD97":167375.70000000001,"N_COORD97":2546519.79,"ADDRESS":"中華北路二段１０號三樓之１０","OBJECTID":636204},"geometry":{"x":167375.70000000019,"y":2546519.7899999972}},{"attributes":{"ID":636232,"DIS_CODE":0,"TOWNNAME":"北區","LI":"文元里","LIN":"4鄰","STREET":"中華北路","SECT":"二段","MAREA":" ","LANE":" ","ALLEY":" ","HOUSE_NO":"１０號四樓之１０","E_COORD97":167375.70000000001,"N_COORD97":2546519.79,"ADDRESS":"中華北路二段１０號四樓之１０","OBJECTID":636205},"geometry":{"x":167375.70000000019,"y":2546519.7899999972}},{"attributes":{"ID":636233,"DIS_CODE":0,"TOWNNAME":"北區","LI":"公園里","LIN":"1鄰","STREET":"北忠街","SECT":" ","MAREA":" ","LANE":" ","ALLEY":" ","HOUSE_NO":"７號二樓","E_COORD97":169230.57999999999,"N_COORD97":2544338.5600000001,"ADDRESS":"北忠街７號二樓","OBJECTID":636206},"geometry":{"x":169230.58000000101,"y":2544338.5600000005}},{"attributes":{"ID":636234,"DIS_CODE":0,"TOWNNAME":"北區","LI":"文元里","LIN":"4鄰","STREET":"中華北路","SECT":"二段","MAREA":" ","LANE":" ","ALLEY":" ","HOUSE_NO":"１０號五樓之１０","E_COORD97":167375.70000000001,"N_COORD97":2546519.79,"ADDRESS":"中華北路二段１０號五樓之１０","OBJECTID":636207},"geometry":{"x":167375.70000000019,"y":2546519.7899999972}},{"attributes":{"ID":636235,"DIS_CODE":0,"TOWNNAME":"北區","LI":"文元里","LIN":"4鄰","STREET":"中華北路","SECT":"二段","MAREA":" ","LANE":" ","ALLEY":" ","HOUSE_NO":"１０號三樓之８","E_COORD97":167375.70000000001,"N_COORD97":2546519.79,"ADDRESS":"中華北路二段１０號三樓之８","OBJECTID":636208},"geometry":{"x":167375.70000000019,"y":2546519.7899999972}},{"attributes":{"ID":636236,"DIS_CODE":0,"TOWNNAME":"北區","LI":"文元里","LIN":"4鄰","STREET":"中華北路","SECT":"二段","MAREA":" ","LANE":" ","ALLEY":" ","HOUSE_NO":"１０號三樓之９","E_COORD97":167375.70000000001,"N_COORD97":2546519.79,"ADDRESS":"中華北路二段１０號三樓之９","OBJECTID":636209},"geometry":{"x":167375.70000000019,"y":2546519.7899999972}},{"attributes":{"ID":636237,"DIS_CODE":0,"TOWNNAME":"北區","LI":"文元里","LIN":"4鄰","STREET":"中華北路","SECT":"二段","MAREA":" ","LANE":" ","ALLEY":" ","HOUSE_NO":"１０號五樓之１","E_COORD97":167375.70000000001,"N_COORD97":2546519.79,"ADDRESS":"中華北路二段１０號五樓之１","OBJECTID":636210},"geometry":{"x":167375.70000000019,"y":2546519.7899999972}},{"attributes":{"ID":636238,"DIS_CODE":0,"TOWNNAME":"北區","LI":"文元里","LIN":"4鄰","STREET":"中華北路","SECT":"二段","MAREA":" ","LANE":" ","ALLEY":" ","HOUSE_NO":"１０號五樓之２","E_COORD97":167375.70000000001,"N_COORD97":2546519.79,"ADDRESS":"中華北路二段１０號五樓之２","OBJECTID":636211},"geometry":{"x":167375.70000000019,"y":2546519.7899999972}},{"attributes":{"ID":636239,"DIS_CODE":0,"TOWNNAME":"北區","LI":"文元里","LIN":"4鄰","STREET":"中華北路","SECT":"二段","MAREA":" ","LANE":" ","ALLEY":" ","HOUSE_NO":"１０號五樓之３","E_COORD97":167375.70000000001,"N_COORD97":2546519.79,"ADDRESS":"中華北路二段１０號五樓之３","OBJECTID":636212},"geometry":{"x":167375.70000000019,"y":2546519.7899999972}},{"attributes":{"ID":636240,"DIS_CODE":0,"TOWNNAME":"北區","LI":"文元里","LIN":"4鄰","STREET":"中華北路","SECT":"二段","MAREA":" ","LANE":" ","ALLEY":" ","HOUSE_NO":"１０號五樓之４","E_COORD97":167375.70000000001,"N_COORD97":2546519.79,"ADDRESS":"中華北路二段１０號五樓之４","OBJECTID":636213},"geometry":{"x":167375.70000000019,"y":2546519.7899999972}},{"attributes":{"ID":636241,"DIS_CODE":0,"TOWNNAME":"北區","LI":"六甲里","LIN":"19鄰","STREET":"公園路","SECT":" ","MAREA":" ","LANE":" ","ALLEY":" ","HOUSE_NO":"５８７號之３３五樓","E_COORD97":169099.57999999999,"N_COORD97":2545850.4300000002,"ADDRESS":"公園路５８７號之３３五樓","OBJECTID":636214},"geometry":{"x":169099.58000000101,"y":2545850.4299999997}},{"attributes":{"ID":636242,"DIS_CODE":0,"TOWNNAME":"北區","LI":"六甲里","LIN":"19鄰","STREET":"公園路","SECT":" ","MAREA":" ","LANE":" ","ALLEY":" ","HOUSE_NO":"５８７號之３３四樓之","E_COORD97":169099.57999999999,"N_COORD97":2545850.4300000002,"ADDRESS":"公園路５８７號之３３四樓之１","OBJECTID":636215},"geometry":{"x":169099.58000000101,"y":2545850.4299999997}},{"attributes":{"ID":636243,"DIS_CODE":0,"TOWNNAME":"北區","LI":"六甲里","LIN":"19鄰","STREET":"公園路","SECT":" ","MAREA":" ","LANE":" ","ALLEY":" ","HOUSE_NO":"５８７號之３３四樓之","E_COORD97":169099.57999999999,"N_COORD97":2545850.4300000002,"ADDRESS":"公園路５８７號之３３四樓之２","OBJECTID":636216},"geometry":{"x":169099.58000000101,"y":2545850.4299999997}},{"attributes":{"ID":636244,"DIS_CODE":0,"TOWNNAME":"北區","LI":"六甲里","LIN":"19鄰","STREET":"公園路","SECT":" ","MAREA":" ","LANE":" ","ALLEY":" ","HOUSE_NO":"５８７號之３４二樓","E_COORD97":169098.79000000001,"N_COORD97":2545845.7200000002,"ADDRESS":"公園路５８７號之３４二樓","OBJECTID":636217},"geometry":{"x":169098.79000000097,"y":2545845.7200000025}},{"attributes":{"ID":636245,"DIS_CODE":0,"TOWNNAME":"北區","LI":"六甲里","LIN":"19鄰","STREET":"公園路","SECT":" ","MAREA":" ","LANE":" ","ALLEY":" ","HOUSE_NO":"５８７號之３４三樓之","E_COORD97":169098.79000000001,"N_COORD97":2545845.7200000002,"ADDRESS":"公園路５８７號之３４三樓之１","OBJECTID":636218},"geometry":{"x":169098.79000000097,"y":2545845.7200000025}},{"attributes":{"ID":636246,"DIS_CODE":0,"TOWNNAME":"北區","LI":"六甲里","LIN":"19鄰","STREET":"公園路","SECT":" ","MAREA":" ","LANE":" ","ALLEY":" ","HOUSE_NO":"５８７號之３４三樓之","E_COORD97":169098.79000000001,"N_COORD97":2545845.7200000002,"ADDRESS":"公園路５８７號之３４三樓之２","OBJECTID":636219},"geometry":{"x":169098.79000000097,"y":2545845.7200000025}},{"attributes":{"ID":636247,"DIS_CODE":0,"TOWNNAME":"北區","LI":"六甲里","LIN":"19鄰","STREET":"公園路","SECT":" ","MAREA":" ","LANE":" ","ALLEY":" ","HOUSE_NO":"５８７號之３４五樓","E_COORD97":169098.79000000001,"N_COORD97":2545845.7200000002,"ADDRESS":"公園路５８７號之３４五樓","OBJECTID":636220},"geometry":{"x":169098.79000000097,"y":2545845.7200000025}},{"attributes":{"ID":636248,"DIS_CODE":0,"TOWNNAME":"北區","LI":"六甲里","LIN":"19鄰","STREET":"公園路","SECT":" ","MAREA":" ","LANE":" ","ALLEY":" ","HOUSE_NO":"５８７號之３４四樓之","E_COORD97":169098.79000000001,"N_COORD97":2545845.7200000002,"ADDRESS":"公園路５８７號之３４四樓之１","OBJECTID":636221},"geometry":{"x":169098.79000000097,"y":2545845.7200000025}},{"attributes":{"ID":636249,"DIS_CODE":0,"TOWNNAME":"北區","LI":"六甲里","LIN":"19鄰","STREET":"公園路","SECT":" ","MAREA":" ","LANE":" ","ALLEY":" ","HOUSE_NO":"５８７號之３４四樓之","E_COORD97":169098.79000000001,"N_COORD97":2545845.7200000002,"ADDRESS":"公園路５８７號之３４四樓之２","OBJECTID":636222},"geometry":{"x":169098.79000000097,"y":2545845.7200000025}},{"attributes":{"ID":636250,"DIS_CODE":0,"TOWNNAME":"北區","LI":"六甲里","LIN":"19鄰","STREET":"公園路","SECT":" ","MAREA":" ","LANE":" ","ALLEY":" ","HOUSE_NO":"５８７號之３５二樓","E_COORD97":169097.22,"N_COORD97":2545838.4700000002,"ADDRESS":"公園路５８７號之３５二樓","OBJECTID":636223},"geometry":{"x":169097.22000000067,"y":2545838.4700000007}},{"attributes":{"ID":636251,"DIS_CODE":0,"TOWNNAME":"北區","LI":"六甲里","LIN":"19鄰","STREET":"公園路","SECT":" ","MAREA":" ","LANE":" ","ALLEY":" ","HOUSE_NO":"５８７號之３５三樓","E_COORD97":169097.22,"N_COORD97":2545838.4700000002,"ADDRESS":"公園路５８７號之３５三樓","OBJECTID":636224},"geometry":{"x":169097.22000000067,"y":2545838.4700000007}},{"attributes":{"ID":636252,"DIS_CODE":0,"TOWNNAME":"北區","LI":"六甲里","LIN":"19鄰","STREET":"公園路","SECT":" ","MAREA":" ","LANE":" ","ALLEY":" ","HOUSE_NO":"５８７號之３５五樓","E_COORD97":169097.22,"N_COORD97":2545838.4700000002,"ADDRESS":"公園路５８７號之３５五樓","OBJECTID":636225},"geometry":{"x":169097.22000000067,"y":2545838.4700000007}},{"attributes":{"ID":636253,"DIS_CODE":0,"TOWNNAME":"北區","LI":"六甲里","LIN":"19鄰","STREET":"公園路","SECT":" ","MAREA":" ","LANE":" ","ALLEY":" ","HOUSE_NO":"５８７號之３５四樓","E_COORD97":169097.22,"N_COORD97":2545838.4700000002,"ADDRESS":"公園路５８７號之３５四樓","OBJECTID":636226},"geometry":{"x":169097.22000000067,"y":2545838.4700000007}},{"attributes":{"ID":636254,"DIS_CODE":0,"TOWNNAME":"北區","LI":"重興里","LIN":"10鄰","STREET":"東豐路","SECT":" ","MAREA":" ","LANE":" ","ALLEY":" ","HOUSE_NO":"４９１號五樓之４","E_COORD97":170843.85999999999,"N_COORD97":2544703.2000000002,"ADDRESS":"東豐路４９１號五樓之４","OBJECTID":636227},"geometry":{"x":170843.8600000022,"y":2544703.1999999993}},{"attributes":{"ID":636255,"DIS_CODE":0,"TOWNNAME":"北區","LI":"重興里","LIN":"10鄰","STREET":"東豐路","SECT":" ","MAREA":" ","LANE":" ","ALLEY":" ","HOUSE_NO":"４９１號三樓之３","E_COORD97":170843.85999999999,"N_COORD97":2544703.2000000002,"ADDRESS":"東豐路４９１號三樓之３","OBJECTID":636228},"geometry":{"x":170843.8600000022,"y":2544703.1999999993}},{"attributes":{"ID":636256,"DIS_CODE":0,"TOWNNAME":"新營區","LI":"民權里","LIN":" ","STREET":"武昌街","SECT":" ","MAREA":" ","LANE":" ","ALLEY":" ","HOUSE_NO":"１１號二樓之２","E_COORD97":179875.62,"N_COORD97":2578334.1699999999,"ADDRESS":"武昌街１１號二樓之２","OBJECTID":636229},"geometry":{"x":179875.62000000197,"y":2578334.1700000018}},{"attributes":{"ID":636257,"DIS_CODE":0,"TOWNNAME":"新營區","LI":"新南里","LIN":" ","STREET":"明清二街","SECT":" ","MAREA":" ","LANE":" ","ALLEY":" ","HOUSE_NO":"１６７號一樓","E_COORD97":178271.39999999999,"N_COORD97":2578682.8999999999,"ADDRESS":"明清二街１６７號一樓","OBJECTID":636230},"geometry":{"x":178271.40000000037,"y":2578682.9000000022}},{"attributes":{"ID":636258,"DIS_CODE":0,"TOWNNAME":"新營區","LI":"民榮里","LIN":"34鄰","STREET":"復興路","SECT":" ","MAREA":" ","LANE":" ","ALLEY":" ","HOUSE_NO":"３０１號四樓之１","E_COORD97":178608.54000000001,"N_COORD97":2578135.3500000001,"ADDRESS":"復興路３０１號四樓之１","OBJECTID":636231},"geometry":{"x":178608.54000000097,"y":2578135.3500000034}},{"attributes":{"ID":636259,"DIS_CODE":0,"TOWNNAME":"新營區","LI":"民榮里","LIN":"34鄰","STREET":"復興路","SECT":" ","MAREA":" ","LANE":" ","ALLEY":" ","HOUSE_NO":"３０１號十一樓之６","E_COORD97":178609.89000000001,"N_COORD97":2578135.3500000001,"ADDRESS":"復興路３０１號十一樓之６","OBJECTID":636232},"geometry":{"x":178609.88999999966,"y":2578135.3500000034}},{"attributes":{"ID":636260,"DIS_CODE":0,"TOWNNAME":"北區","LI":"成德里","LIN":"25鄰","STREET":"育德一街","SECT":" ","MAREA":" ","LANE":" ","ALLEY":" ","HOUSE_NO":"６號五樓","E_COORD97":168539.14999999999,"N_COORD97":2545779.0099999998,"ADDRESS":"育德一街６號五樓","OBJECTID":636233},"geometry":{"x":168539.15000000037,"y":2545779.0099999998}},{"attributes":{"ID":636261,"DIS_CODE":0,"TOWNNAME":"新營區","LI":"永生里","LIN":" ","STREET":"康樂街","SECT":" ","MAREA":" ","LANE":" ","ALLEY":" ","HOUSE_NO":"１６之２號三樓之３","E_COORD97":179970.17000000001,"N_COORD97":2577908.4399999999,"ADDRESS":"康樂街１６之２號三樓之３","OBJECTID":636234},"geometry":{"x":179970.17000000086,"y":2577908.4400000013}},{"attributes":{"ID":636262,"DIS_CODE":0,"TOWNNAME":"新營區","LI":"民榮里","LIN":"24鄰","STREET":"裕民路","SECT":" ","MAREA":" ","LANE":" ","ALLEY":" ","HOUSE_NO":"１４之２號五樓之５","E_COORD97":179132.62,"N_COORD97":2577936.8199999998,"ADDRESS":"裕民路１４之２號五樓之５","OBJECTID":636235},"geometry":{"x":179132.62000000011,"y":2577936.8200000022}},{"attributes":{"ID":636263,"DIS_CODE":0,"TOWNNAME":"新營區","LI":"王公里","LIN":"20鄰","STREET":"樂利街","SECT":" ","MAREA":" ","LANE":" ","ALLEY":" ","HOUSE_NO":"１３５號五樓之３","E_COORD97":180507.29999999999,"N_COORD97":2579285.8199999998,"ADDRESS":"樂利街１３５號五樓之３","OBJECTID":636236},"geometry":{"x":180507.29999999981,"y":2579285.820000004}},{"attributes":{"ID":636264,"DIS_CODE":0,"TOWNNAME":"新營區","LI":"新東里","LIN":"26鄰","STREET":"東興路","SECT":" ","MAREA":" ","LANE":" ","ALLEY":" ","HOUSE_NO":"２０３號四樓","E_COORD97":180749.70000000001,"N_COORD97":2579507.3399999999,"ADDRESS":"東興路２０３號四樓","OBJECTID":636237},"geometry":{"x":180749.70000000205,"y":2579507.3399999999}},{"attributes":{"ID":636265,"DIS_CODE":0,"TOWNNAME":"新營區","LI":"興業里","LIN":"20鄰","STREET":"中山路","SECT":" ","MAREA":" ","LANE":" ","ALLEY":" ","HOUSE_NO":"１１５號六樓之３","E_COORD97":180279.29000000001,"N_COORD97":2578215.9900000002,"ADDRESS":"中山路１１５號六樓之３","OBJECTID":636238},"geometry":{"x":180279.29000000004,"y":2578215.9900000002}},{"attributes":{"ID":636266,"DIS_CODE":0,"TOWNNAME":"新營區","LI":"三仙里","LIN":"24鄰","STREET":"三興街","SECT":" ","MAREA":" ","LANE":" ","ALLEY":" ","HOUSE_NO":"５２之２號六樓之１","E_COORD97":179451.88,"N_COORD97":2578890.6899999999,"ADDRESS":"三興街５２之２號六樓之１","OBJECTID":636239},"geometry":{"x":179451.88000000082,"y":2578890.6900000013}},{"attributes":{"ID":636267,"DIS_CODE":0,"TOWNNAME":"新營區","LI":"大宏里","LIN":"4鄰","STREET":"綠川北街","SECT":" ","MAREA":" ","LANE":" ","ALLEY":" ","HOUSE_NO":"１２７號七樓","E_COORD97":180236.20000000001,"N_COORD97":2578662.4399999999,"ADDRESS":"綠川北街１２７號七樓","OBJECTID":636240},"geometry":{"x":180236.20000000205,"y":2578662.4399999995}},{"attributes":{"ID":636268,"DIS_CODE":0,"TOWNNAME":"新營區","LI":"新南里","LIN":" ","STREET":"明清二街","SECT":" ","MAREA":" ","LANE":" ","ALLEY":" ","HOUSE_NO":"１６９號一樓","E_COORD97":178281.64000000001,"N_COORD97":2578682.8500000001,"ADDRESS":"明清二街１６９號一樓","OBJECTID":636241},"geometry":{"x":178281.6400000006,"y":2578682.8500000015}},{"attributes":{"ID":636269,"DIS_CODE":0,"TOWNNAME":"永康區","LI":"永康里","LIN":"4鄰","STREET":"中山北路","SECT":" ","MAREA":" ","LANE":" ","ALLEY":" ","HOUSE_NO":"２０號","E_COORD97":173923.89999999999,"N_COORD97":2547352.25,"ADDRESS":"中山北路２０號","OBJECTID":636242},"geometry":{"x":173923.90000000224,"y":2547352.2500000019}},{"attributes":{"ID":636270,"DIS_CODE":0,"TOWNNAME":"新營區","LI":"興業里","LIN":"20鄰","STREET":"中山路","SECT":" ","MAREA":" ","LANE":" ","ALLEY":" ","HOUSE_NO":"１１５號十一樓之４","E_COORD97":180280.47,"N_COORD97":2578215.9900000002,"ADDRESS":"中山路１１５號十一樓之４","OBJECTID":636243},"geometry":{"x":180280.46999999974,"y":2578215.9900000002}},{"attributes":{"ID":636271,"DIS_CODE":0,"TOWNNAME":"新營區","LI":"民榮里","LIN":"34鄰","STREET":"復興路","SECT":" ","MAREA":" ","LANE":" ","ALLEY":" ","HOUSE_NO":"３０１號十八樓之５","E_COORD97":178609.94,"N_COORD97":2578135.3500000001,"ADDRESS":"復興路３０１號十八樓之５","OBJECTID":636244},"geometry":{"x":178609.94000000041,"y":2578135.3500000034}},{"attributes":{"ID":636272,"DIS_CODE":0,"TOWNNAME":"新營區","LI":"延平里","LIN":" ","STREET":"延平路","SECT":" ","MAREA":" ","LANE":" ","ALLEY":" ","HOUSE_NO":"４０之１號四樓之１","E_COORD97":179768.34,"N_COORD97":2577845.1899999999,"ADDRESS":"延平路４０之１號四樓之１","OBJECTID":636245},"geometry":{"x":179768.33999999985,"y":2577845.1900000013}},{"attributes":{"ID":636273,"DIS_CODE":0,"TOWNNAME":"新營區","LI":"忠政里","LIN":"24鄰","STREET":"健康路","SECT":" ","MAREA":" ","LANE":" ","ALLEY":" ","HOUSE_NO":"２９０號二樓之９","E_COORD97":179676.35000000001,"N_COORD97":2579613.1200000001,"ADDRESS":"健康路２９０號二樓之９","OBJECTID":636246},"geometry":{"x":179676.34999999963,"y":2579613.1199999992}},{"attributes":{"ID":636274,"DIS_CODE":0,"TOWNNAME":"安平區","LI":"文平里","LIN":"8鄰","STREET":"建平六街","SECT":" ","MAREA":" ","LANE":" ","ALLEY":" ","HOUSE_NO":"１１４號四樓之５","E_COORD97":166198.32000000001,"N_COORD97":2543142.2000000002,"ADDRESS":"建平六街１１４號四樓之５","OBJECTID":636247},"geometry":{"x":166198.32000000123,"y":2543142.2000000011}},{"attributes":{"ID":636275,"DIS_CODE":0,"TOWNNAME":"麻豆區","LI":"巷口里","LIN":"4鄰","STREET":"和平路","SECT":" ","MAREA":" ","LANE":" ","ALLEY":" ","HOUSE_NO":"２號之９四樓","E_COORD97":173120.73000000001,"N_COORD97":2564412.4900000002,"ADDRESS":"和平路２號之９四樓","OBJECTID":636248},"geometry":{"x":173120.73000000045,"y":2564412.4900000021}},{"attributes":{"ID":636276,"DIS_CODE":0,"TOWNNAME":"安平區","LI":"文平里","LIN":"8鄰","STREET":"建平六街","SECT":" ","MAREA":" ","LANE":" ","ALLEY":" ","HOUSE_NO":"１１４號四樓之６","E_COORD97":166176.26999999999,"N_COORD97":2543144.21,"ADDRESS":"建平六街１１４號四樓之６","OBJECTID":636249},"geometry":{"x":166176.26999999955,"y":2543144.2100000009}},{"attributes":{"ID":636277,"DIS_CODE":0,"TOWNNAME":"安平區","LI":"文平里","LIN":"8鄰","STREET":"建平六街","SECT":" ","MAREA":" ","LANE":" ","ALLEY":" ","HOUSE_NO":"１１４號四樓之７","E_COORD97":166176.26999999999,"N_COORD97":2543144.21,"ADDRESS":"建平六街１１４號四樓之７","OBJECTID":636250},"geometry":{"x":166176.26999999955,"y":2543144.2100000009}},{"attributes":{"ID":636278,"DIS_CODE":0,"TOWNNAME":"安平區","LI":"文平里","LIN":"8鄰","STREET":"建平六街","SECT":" ","MAREA":" ","LANE":" ","ALLEY":" ","HOUSE_NO":"１１４號四樓之８","E_COORD97":166176.26999999999,"N_COORD97":2543144.21,"ADDRESS":"建平六街１１４號四樓之８","OBJECTID":636251},"geometry":{"x":166176.26999999955,"y":2543144.2100000009}},{"attributes":{"ID":636279,"DIS_CODE":0,"TOWNNAME":"安平區","LI":"文平里","LIN":"8鄰","STREET":"建平六街","SECT":" ","MAREA":" ","LANE":" ","ALLEY":" ","HOUSE_NO":"１１４號四樓之９","E_COORD97":166176.26999999999,"N_COORD97":2543144.21,"ADDRESS":"建平六街１１４號四樓之９","OBJECTID":636252},"geometry":{"x":166176.26999999955,"y":2543144.2100000009}},{"attributes":{"ID":636280,"DIS_CODE":0,"TOWNNAME":"安平區","LI":"文平里","LIN":"6鄰","STREET":"永華二街","SECT":" ","MAREA":" ","LANE":" ","ALLEY":" ","HOUSE_NO":"１８１號四樓","E_COORD97":166364.89000000001,"N_COORD97":2543200.3300000001,"ADDRESS":"永華二街１８１號四樓","OBJECTID":636253},"geometry":{"x":166364.8900000006,"y":2543200.3300000001}},{"attributes":{"ID":636281,"DIS_CODE":0,"TOWNNAME":"安平區","LI":"怡平里","LIN":"4鄰","STREET":"建平十七街","SECT":" ","MAREA":" ","LANE":" ","ALLEY":" ","HOUSE_NO":"２３１號十五樓之４","E_COORD97":165551.87,"N_COORD97":2544199.1600000001,"ADDRESS":"建平十七街２３１號十五樓之４","OBJECTID":636254},"geometry":{"x":165551.87000000104,"y":2544199.1600000001}},{"attributes":{"ID":636282,"DIS_CODE":0,"TOWNNAME":"安平區","LI":"文平里","LIN":"9鄰","STREET":"建平七街","SECT":" ","MAREA":" ","LANE":" ","ALLEY":" ","HOUSE_NO":"２３０號二樓之１","E_COORD97":165990.98000000001,"N_COORD97":2543285.3100000001,"ADDRESS":"建平七街２３０號二樓之１","OBJECTID":636255},"geometry":{"x":165990.98000000045,"y":2543285.3100000005}},{"attributes":{"ID":636283,"DIS_CODE":0,"TOWNNAME":"安平區","LI":"文平里","LIN":"9鄰","STREET":"建平七街","SECT":" ","MAREA":" ","LANE":" ","ALLEY":" ","HOUSE_NO":"２３０號二樓之２","E_COORD97":165990.98000000001,"N_COORD97":2543285.3100000001,"ADDRESS":"建平七街２３０號二樓之２","OBJECTID":636256},"geometry":{"x":165990.98000000045,"y":2543285.3100000005}},{"attributes":{"ID":636284,"DIS_CODE":0,"TOWNNAME":"安平區","LI":"文平里","LIN":"9鄰","STREET":"建平七街","SECT":" ","MAREA":" ","LANE":" ","ALLEY":" ","HOUSE_NO":"２３０號二樓之３","E_COORD97":165990.98000000001,"N_COORD97":2543285.3100000001,"ADDRESS":"建平七街２３０號二樓之３","OBJECTID":636257},"geometry":{"x":165990.98000000045,"y":2543285.3100000005}},{"attributes":{"ID":636285,"DIS_CODE":0,"TOWNNAME":"安平區","LI":"文平里","LIN":"9鄰","STREET":"建平七街","SECT":" ","MAREA":" ","LANE":" ","ALLEY":" ","HOUSE_NO":"２３０號二樓之４","E_COORD97":165990.98000000001,"N_COORD97":2543285.3100000001,"ADDRESS":"建平七街２３０號二樓之４","OBJECTID":636258},"geometry":{"x":165990.98000000045,"y":2543285.3100000005}},{"attributes":{"ID":636286,"DIS_CODE":0,"TOWNNAME":"安平區","LI":"文平里","LIN":"9鄰","STREET":"建平七街","SECT":" ","MAREA":" ","LANE":" ","ALLEY":" ","HOUSE_NO":"２３０號二樓之５","E_COORD97":165990.98000000001,"N_COORD97":2543285.3100000001,"ADDRESS":"建平七街２３０號二樓之５","OBJECTID":636259},"geometry":{"x":165990.98000000045,"y":2543285.3100000005}},{"attributes":{"ID":636287,"DIS_CODE":0,"TOWNNAME":"安平區","LI":"文平里","LIN":"9鄰","STREET":"建平七街","SECT":" ","MAREA":" ","LANE":" ","ALLEY":" ","HOUSE_NO":"２３０號二樓之６","E_COORD97":165990.98000000001,"N_COORD97":2543285.3100000001,"ADDRESS":"建平七街２３０號二樓之６","OBJECTID":636260},"geometry":{"x":165990.98000000045,"y":2543285.3100000005}},{"attributes":{"ID":636288,"DIS_CODE":0,"TOWNNAME":"安平區","LI":"文平里","LIN":"9鄰","STREET":"建平七街","SECT":" ","MAREA":" ","LANE":" ","ALLEY":" ","HOUSE_NO":"２３０號三樓之１","E_COORD97":165990.98000000001,"N_COORD97":2543285.3100000001,"ADDRESS":"建平七街２３０號三樓之１","OBJECTID":636261},"geometry":{"x":165990.98000000045,"y":2543285.3100000005}},{"attributes":{"ID":636289,"DIS_CODE":0,"TOWNNAME":"安平區","LI":"文平里","LIN":"9鄰","STREET":"建平七街","SECT":" ","MAREA":" ","LANE":" ","ALLEY":" ","HOUSE_NO":"２３０號三樓之１０","E_COORD97":165990.98000000001,"N_COORD97":2543285.3100000001,"ADDRESS":"建平七街２３０號三樓之１０","OBJECTID":636262},"geometry":{"x":165990.98000000045,"y":2543285.3100000005}},{"attributes":{"ID":636290,"DIS_CODE":0,"TOWNNAME":"安平區","LI":"文平里","LIN":"9鄰","STREET":"建平七街","SECT":" ","MAREA":" ","LANE":" ","ALLEY":" ","HOUSE_NO":"２３０號三樓之２","E_COORD97":165990.98000000001,"N_COORD97":2543285.3100000001,"ADDRESS":"建平七街２３０號三樓之２","OBJECTID":636263},"geometry":{"x":165990.98000000045,"y":2543285.3100000005}},{"attributes":{"ID":636291,"DIS_CODE":0,"TOWNNAME":"安平區","LI":"文平里","LIN":"9鄰","STREET":"建平七街","SECT":" ","MAREA":" ","LANE":" ","ALLEY":" ","HOUSE_NO":"２３０號三樓之３","E_COORD97":165990.98000000001,"N_COORD97":2543285.3100000001,"ADDRESS":"建平七街２３０號三樓之３","OBJECTID":636264},"geometry":{"x":165990.98000000045,"y":2543285.3100000005}},{"attributes":{"ID":636292,"DIS_CODE":0,"TOWNNAME":"安平區","LI":"文平里","LIN":"9鄰","STREET":"建平七街","SECT":" ","MAREA":" ","LANE":" ","ALLEY":" ","HOUSE_NO":"２３０號三樓之４","E_COORD97":165990.98000000001,"N_COORD97":2543285.3100000001,"ADDRESS":"建平七街２３０號三樓之４","OBJECTID":636265},"geometry":{"x":165990.98000000045,"y":2543285.3100000005}},{"attributes":{"ID":636293,"DIS_CODE":0,"TOWNNAME":"安平區","LI":"文平里","LIN":"9鄰","STREET":"建平七街","SECT":" ","MAREA":" ","LANE":" ","ALLEY":" ","HOUSE_NO":"２３０號三樓之５","E_COORD97":165990.98000000001,"N_COORD97":2543285.3100000001,"ADDRESS":"建平七街２３０號三樓之５","OBJECTID":636266},"geometry":{"x":165990.98000000045,"y":2543285.3100000005}},{"attributes":{"ID":636294,"DIS_CODE":0,"TOWNNAME":"安平區","LI":"文平里","LIN":"9鄰","STREET":"建平七街","SECT":" ","MAREA":" ","LANE":" ","ALLEY":" ","HOUSE_NO":"２３０號三樓之６","E_COORD97":165990.98000000001,"N_COORD97":2543285.3100000001,"ADDRESS":"建平七街２３０號三樓之６","OBJECTID":636267},"geometry":{"x":165990.98000000045,"y":2543285.3100000005}},{"attributes":{"ID":636295,"DIS_CODE":0,"TOWNNAME":"安平區","LI":"怡平里","LIN":"4鄰","STREET":"建平十七街","SECT":" ","MAREA":" ","LANE":" ","ALLEY":" ","HOUSE_NO":"２３１號十六樓之１","E_COORD97":165551.87,"N_COORD97":2544199.1600000001,"ADDRESS":"建平十七街２３１號十六樓之１","OBJECTID":636268},"geometry":{"x":165551.87000000104,"y":2544199.1600000001}},{"attributes":{"ID":636296,"DIS_CODE":0,"TOWNNAME":"安平區","LI":"國平里","LIN":"21鄰","STREET":"育平五街","SECT":" ","MAREA":" ","LANE":" ","ALLEY":" ","HOUSE_NO":"２９號二樓","E_COORD97":164826.91,"N_COORD97":2543462.04,"ADDRESS":"育平五街２９號二樓","OBJECTID":636269},"geometry":{"x":164826.91000000015,"y":2543462.0399999991}},{"attributes":{"ID":636297,"DIS_CODE":0,"TOWNNAME":"安平區","LI":"建平里","LIN":"8鄰","STREET":"中華西路","SECT":"二段","MAREA":" ","LANE":" ","ALLEY":" ","HOUSE_NO":"３１７號二樓","E_COORD97":166613.22,"N_COORD97":2543730.5299999998,"ADDRESS":"中華西路二段３１７號二樓","OBJECTID":636270},"geometry":{"x":166613.22000000067,"y":2543730.5299999993}},{"attributes":{"ID":636298,"DIS_CODE":0,"TOWNNAME":"安平區","LI":"建平里","LIN":"7鄰","STREET":"府前四街","SECT":" ","MAREA":" ","LANE":" ","ALLEY":" ","HOUSE_NO":"４１號二樓","E_COORD97":166429.10999999999,"N_COORD97":2543906.1899999999,"ADDRESS":"府前四街４１號二樓","OBJECTID":636271},"geometry":{"x":166429.11000000034,"y":2543906.1899999995}},{"attributes":{"ID":636299,"DIS_CODE":0,"TOWNNAME":"安平區","LI":"建平里","LIN":" ","STREET":"永華五街","SECT":" ","MAREA":" ","LANE":" ","ALLEY":" ","HOUSE_NO":"９１號二樓之４","E_COORD97":165874.98000000001,"N_COORD97":2543677.2200000002,"ADDRESS":"永華五街９１號二樓之４","OBJECTID":636272},"geometry":{"x":165874.98000000138,"y":2543677.2200000007}},{"attributes":{"ID":636300,"DIS_CODE":0,"TOWNNAME":"安平區","LI":"建平里","LIN":" ","STREET":"永華五街","SECT":" ","MAREA":" ","LANE":" ","ALLEY":" ","HOUSE_NO":"９１號四樓之８","E_COORD97":165874.98000000001,"N_COORD97":2543677.2200000002,"ADDRESS":"永華五街９１號四樓之８","OBJECTID":636273},"geometry":{"x":165874.98000000138,"y":2543677.2200000007}},{"attributes":{"ID":636301,"DIS_CODE":0,"TOWNNAME":"安平區","LI":"建平里","LIN":" ","STREET":"永華五街","SECT":" ","MAREA":" ","LANE":" ","ALLEY":" ","HOUSE_NO":"９１號四樓之１７","E_COORD97":165874.98000000001,"N_COORD97":2543677.2200000002,"ADDRESS":"永華五街９１號四樓之１７","OBJECTID":636274},"geometry":{"x":165874.98000000138,"y":2543677.2200000007}},{"attributes":{"ID":636302,"DIS_CODE":0,"TOWNNAME":"安平區","LI":"建平里","LIN":" ","STREET":"永華五街","SECT":" ","MAREA":" ","LANE":" ","ALLEY":" ","HOUSE_NO":"９１號六樓之６","E_COORD97":165874.98000000001,"N_COORD97":2543677.2200000002,"ADDRESS":"永華五街９１號六樓之６","OBJECTID":636275},"geometry":{"x":165874.98000000138,"y":2543677.2200000007}},{"attributes":{"ID":636303,"DIS_CODE":0,"TOWNNAME":"北區","LI":"成德里","LIN":"25鄰","STREET":"育德一街","SECT":" ","MAREA":" ","LANE":" ","ALLEY":" ","HOUSE_NO":"８號六樓","E_COORD97":168556.29999999999,"N_COORD97":2545776.79,"ADDRESS":"育德一街８號六樓","OBJECTID":636276},"geometry":{"x":168556.29999999981,"y":2545776.7899999991}},{"attributes":{"ID":636304,"DIS_CODE":0,"TOWNNAME":"安平區","LI":"建平里","LIN":"28鄰","STREET":"建平八街","SECT":" ","MAREA":" ","LANE":" ","ALLEY":" ","HOUSE_NO":"７２號二樓之１","E_COORD97":165940.76000000001,"N_COORD97":2543496.8300000001,"ADDRESS":"建平八街７２號二樓之１","OBJECTID":636277},"geometry":{"x":165940.75999999978,"y":2543496.8300000038}},{"attributes":{"ID":636305,"DIS_CODE":0,"TOWNNAME":"安平區","LI":"建平里","LIN":"28鄰","STREET":"建平八街","SECT":" ","MAREA":" ","LANE":" ","ALLEY":" ","HOUSE_NO":"７２號二樓之２","E_COORD97":165940.76000000001,"N_COORD97":2543496.8300000001,"ADDRESS":"建平八街７２號二樓之２","OBJECTID":636278},"geometry":{"x":165940.75999999978,"y":2543496.8300000038}},{"attributes":{"ID":636306,"DIS_CODE":0,"TOWNNAME":"安平區","LI":"建平里","LIN":"28鄰","STREET":"建平八街","SECT":" ","MAREA":" ","LANE":" ","ALLEY":" ","HOUSE_NO":"７２號二樓之３","E_COORD97":165940.76000000001,"N_COORD97":2543496.8300000001,"ADDRESS":"建平八街７２號二樓之３","OBJECTID":636279},"geometry":{"x":165940.75999999978,"y":2543496.8300000038}},{"attributes":{"ID":636307,"DIS_CODE":0,"TOWNNAME":"安平區","LI":"建平里","LIN":"28鄰","STREET":"建平八街","SECT":" ","MAREA":" ","LANE":" ","ALLEY":" ","HOUSE_NO":"７２號二樓之５","E_COORD97":165940.76000000001,"N_COORD97":2543496.8300000001,"ADDRESS":"建平八街７２號二樓之５","OBJECTID":636280},"geometry":{"x":165940.75999999978,"y":2543496.8300000038}},{"attributes":{"ID":636308,"DIS_CODE":0,"TOWNNAME":"安平區","LI":"建平里","LIN":"28鄰","STREET":"建平八街","SECT":" ","MAREA":" ","LANE":" ","ALLEY":" ","HOUSE_NO":"７２號二樓之６","E_COORD97":165940.76000000001,"N_COORD97":2543496.8300000001,"ADDRESS":"建平八街７２號二樓之６","OBJECTID":636281},"geometry":{"x":165940.75999999978,"y":2543496.8300000038}},{"attributes":{"ID":636309,"DIS_CODE":0,"TOWNNAME":"安平區","LI":"建平里","LIN":"28鄰","STREET":"建平八街","SECT":" ","MAREA":" ","LANE":" ","ALLEY":" ","HOUSE_NO":"７２號二樓之７","E_COORD97":165940.76000000001,"N_COORD97":2543496.8300000001,"ADDRESS":"建平八街７２號二樓之７","OBJECTID":636282},"geometry":{"x":165940.75999999978,"y":2543496.8300000038}},{"attributes":{"ID":636310,"DIS_CODE":0,"TOWNNAME":"安平區","LI":"建平里","LIN":"28鄰","STREET":"建平八街","SECT":" ","MAREA":" ","LANE":" ","ALLEY":" ","HOUSE_NO":"７２號二樓之８","E_COORD97":165940.76000000001,"N_COORD97":2543496.8300000001,"ADDRESS":"建平八街７２號二樓之８","OBJECTID":636283},"geometry":{"x":165940.75999999978,"y":2543496.8300000038}},{"attributes":{"ID":636311,"DIS_CODE":0,"TOWNNAME":"安平區","LI":"建平里","LIN":"28鄰","STREET":"建平八街","SECT":" ","MAREA":" ","LANE":" ","ALLEY":" ","HOUSE_NO":"７２號二樓之９","E_COORD97":165940.76000000001,"N_COORD97":2543496.8300000001,"ADDRESS":"建平八街７２號二樓之９","OBJECTID":636284},"geometry":{"x":165940.75999999978,"y":2543496.8300000038}},{"attributes":{"ID":636312,"DIS_CODE":0,"TOWNNAME":"安平區","LI":"建平里","LIN":"28鄰","STREET":"建平八街","SECT":" ","MAREA":" ","LANE":" ","ALLEY":" ","HOUSE_NO":"７２號二樓之１０","E_COORD97":165940.76000000001,"N_COORD97":2543496.8300000001,"ADDRESS":"建平八街７２號二樓之１０","OBJECTID":636285},"geometry":{"x":165940.75999999978,"y":2543496.8300000038}},{"attributes":{"ID":636313,"DIS_CODE":0,"TOWNNAME":"安平區","LI":"建平里","LIN":"28鄰","STREET":"建平八街","SECT":" ","MAREA":" ","LANE":" ","ALLEY":" ","HOUSE_NO":"７２號二樓之１１","E_COORD97":165940.76000000001,"N_COORD97":2543496.8300000001,"ADDRESS":"建平八街７２號二樓之１１","OBJECTID":636286},"geometry":{"x":165940.75999999978,"y":2543496.8300000038}},{"attributes":{"ID":636314,"DIS_CODE":0,"TOWNNAME":"安平區","LI":"建平里","LIN":"28鄰","STREET":"建平八街","SECT":" ","MAREA":" ","LANE":" ","ALLEY":" ","HOUSE_NO":"７２號二樓之１２","E_COORD97":165940.76000000001,"N_COORD97":2543496.8300000001,"ADDRESS":"建平八街７２號二樓之１２","OBJECTID":636287},"geometry":{"x":165940.75999999978,"y":2543496.8300000038}},{"attributes":{"ID":636315,"DIS_CODE":0,"TOWNNAME":"安平區","LI":"建平里","LIN":"28鄰","STREET":"建平八街","SECT":" ","MAREA":" ","LANE":" ","ALLEY":" ","HOUSE_NO":"７２號四樓之１","E_COORD97":165940.76000000001,"N_COORD97":2543496.8300000001,"ADDRESS":"建平八街７２號四樓之１","OBJECTID":636288},"geometry":{"x":165940.75999999978,"y":2543496.8300000038}},{"attributes":{"ID":636316,"DIS_CODE":0,"TOWNNAME":"安平區","LI":"建平里","LIN":"28鄰","STREET":"建平八街","SECT":" ","MAREA":" ","LANE":" ","ALLEY":" ","HOUSE_NO":"７２號四樓之２","E_COORD97":165940.76000000001,"N_COORD97":2543496.8300000001,"ADDRESS":"建平八街７２號四樓之２","OBJECTID":636289},"geometry":{"x":165940.75999999978,"y":2543496.8300000038}},{"attributes":{"ID":636317,"DIS_CODE":0,"TOWNNAME":"安平區","LI":"建平里","LIN":"28鄰","STREET":"建平八街","SECT":" ","MAREA":" ","LANE":" ","ALLEY":" ","HOUSE_NO":"７２號四樓之３","E_COORD97":165940.76000000001,"N_COORD97":2543496.8300000001,"ADDRESS":"建平八街７２號四樓之３","OBJECTID":636290},"geometry":{"x":165940.75999999978,"y":2543496.8300000038}},{"attributes":{"ID":636318,"DIS_CODE":0,"TOWNNAME":"安平區","LI":"建平里","LIN":"28鄰","STREET":"建平八街","SECT":" ","MAREA":" ","LANE":" ","ALLEY":" ","HOUSE_NO":"７２號四樓之５","E_COORD97":165940.76000000001,"N_COORD97":2543496.8300000001,"ADDRESS":"建平八街７２號四樓之５","OBJECTID":636291},"geometry":{"x":165940.75999999978,"y":2543496.8300000038}},{"attributes":{"ID":636319,"DIS_CODE":0,"TOWNNAME":"安平區","LI":"建平里","LIN":"28鄰","STREET":"建平八街","SECT":" ","MAREA":" ","LANE":" ","ALLEY":" ","HOUSE_NO":"７２號四樓之６","E_COORD97":165940.76000000001,"N_COORD97":2543496.8300000001,"ADDRESS":"建平八街７２號四樓之６","OBJECTID":636292},"geometry":{"x":165940.75999999978,"y":2543496.8300000038}},{"attributes":{"ID":636320,"DIS_CODE":0,"TOWNNAME":"北區","LI":"成德里","LIN":"25鄰","STREET":"育德一街","SECT":" ","MAREA":" ","LANE":" ","ALLEY":" ","HOUSE_NO":"８號八樓","E_COORD97":168556.29999999999,"N_COORD97":2545776.79,"ADDRESS":"育德一街８號八樓","OBJECTID":636293},"geometry":{"x":168556.29999999981,"y":2545776.7899999991}},{"attributes":{"ID":636321,"DIS_CODE":0,"TOWNNAME":"北區","LI":"成德里","LIN":"25鄰","STREET":"育德一街","SECT":" ","MAREA":" ","LANE":" ","ALLEY":" ","HOUSE_NO":"８號九樓","E_COORD97":168556.29999999999,"N_COORD97":2545776.79,"ADDRESS":"育德一街８號九樓","OBJECTID":636294},"geometry":{"x":168556.29999999981,"y":2545776.7899999991}},{"attributes":{"ID":636322,"DIS_CODE":0,"TOWNNAME":"北區","LI":"成德里","LIN":"25鄰","STREET":"育德一街","SECT":" ","MAREA":" ","LANE":" ","ALLEY":" ","HOUSE_NO":"８號十樓","E_COORD97":168556.29999999999,"N_COORD97":2545776.79,"ADDRESS":"育德一街８號十樓","OBJECTID":636295},"geometry":{"x":168556.29999999981,"y":2545776.7899999991}},{"attributes":{"ID":636323,"DIS_CODE":0,"TOWNNAME":"北區","LI":"成德里","LIN":"26鄰","STREET":"育德一街","SECT":" ","MAREA":" ","LANE":" ","ALLEY":" ","HOUSE_NO":"９號二樓","E_COORD97":168450.25,"N_COORD97":2545806.6299999999,"ADDRESS":"育德一街９號二樓","OBJECTID":636296},"geometry":{"x":168450.25,"y":2545806.6300000008}},{"attributes":{"ID":636324,"DIS_CODE":0,"TOWNNAME":"新營區","LI":"大宏里","LIN":"4鄰","STREET":"綠川北街","SECT":" ","MAREA":" ","LANE":" ","ALLEY":" ","HOUSE_NO":"１２５號七樓","E_COORD97":180236.20000000001,"N_COORD97":2578662.4399999999,"ADDRESS":"綠川北街１２５號七樓","OBJECTID":636297},"geometry":{"x":180236.20000000205,"y":2578662.4399999995}},{"attributes":{"ID":636325,"DIS_CODE":0,"TOWNNAME":"新營區","LI":"大宏里","LIN":"4鄰","STREET":"綠川北街","SECT":" ","MAREA":" ","LANE":" ","ALLEY":" ","HOUSE_NO":"１２５號五樓","E_COORD97":180236.20000000001,"N_COORD97":2578662.4399999999,"ADDRESS":"綠川北街１２５號五樓","OBJECTID":636298},"geometry":{"x":180236.20000000205,"y":2578662.4399999995}},{"attributes":{"ID":636326,"DIS_CODE":0,"TOWNNAME":"新營區","LI":"民生里","LIN":" ","STREET":"三民路","SECT":" ","MAREA":" ","LANE":" ","ALLEY":" ","HOUSE_NO":"１３１號四樓之３","E_COORD97":179295.57999999999,"N_COORD97":2578269.8100000001,"ADDRESS":"三民路１３１號四樓之３","OBJECTID":636299},"geometry":{"x":179295.58000000007,"y":2578269.8100000024}},{"attributes":{"ID":636327,"DIS_CODE":0,"TOWNNAME":"新營區","LI":"大宏里","LIN":"4鄰","STREET":"綠川北街","SECT":" ","MAREA":" ","LANE":" ","ALLEY":" ","HOUSE_NO":"１２６號六樓","E_COORD97":180236.20000000001,"N_COORD97":2578662.4399999999,"ADDRESS":"綠川北街１２６號六樓","OBJECTID":636300},"geometry":{"x":180236.20000000205,"y":2578662.4399999995}},{"attributes":{"ID":636328,"DIS_CODE":0,"TOWNNAME":"新營區","LI":"民生里","LIN":" ","STREET":"三民路","SECT":" ","MAREA":" ","LANE":" ","ALLEY":" ","HOUSE_NO":"１３１號八樓之１","E_COORD97":179295.48999999999,"N_COORD97":2578269.8100000001,"ADDRESS":"三民路１３１號八樓之１","OBJECTID":636301},"geometry":{"x":179295.49000000115,"y":2578269.8100000024}},{"attributes":{"ID":636329,"DIS_CODE":0,"TOWNNAME":"新營區","LI":"永生里","LIN":"18鄰","STREET":"康樂街","SECT":" ","MAREA":" ","LANE":" ","ALLEY":" ","HOUSE_NO":"４５號四樓之４","E_COORD97":179884.56,"N_COORD97":2577852.3799999999,"ADDRESS":"康樂街４５號四樓之４","OBJECTID":636302},"geometry":{"x":179884.56000000052,"y":2577852.379999999}},{"attributes":{"ID":636330,"DIS_CODE":0,"TOWNNAME":"新營區","LI":"興業里","LIN":"20鄰","STREET":"中山路","SECT":" ","MAREA":" ","LANE":" ","ALLEY":" ","HOUSE_NO":"１１５號十一樓之２","E_COORD97":180280.57999999999,"N_COORD97":2578215.9900000002,"ADDRESS":"中山路１１５號十一樓之２","OBJECTID":636303},"geometry":{"x":180280.58000000007,"y":2578215.9900000002}},{"attributes":{"ID":636331,"DIS_CODE":0,"TOWNNAME":"北區","LI":"成德里","LIN":"26鄰","STREET":"育德一街","SECT":" ","MAREA":" ","LANE":" ","ALLEY":" ","HOUSE_NO":"９號四樓","E_COORD97":168450.25,"N_COORD97":2545806.6299999999,"ADDRESS":"育德一街９號四樓","OBJECTID":636304},"geometry":{"x":168450.25,"y":2545806.6300000008}},{"attributes":{"ID":636332,"DIS_CODE":0,"TOWNNAME":"新營區","LI":"民榮里","LIN":"17鄰","STREET":"富強街","SECT":" ","MAREA":" ","LANE":" ","ALLEY":" ","HOUSE_NO":"２４號六樓","E_COORD97":178988.14000000001,"N_COORD97":2577803.4500000002,"ADDRESS":"富強街２４號六樓","OBJECTID":636305},"geometry":{"x":178988.13999999966,"y":2577803.4500000011}},{"attributes":{"ID":636333,"DIS_CODE":0,"TOWNNAME":"新營區","LI":"嘉芳里","LIN":" ","STREET":"復興路","SECT":" ","MAREA":" ","LANE":" ","ALLEY":" ","HOUSE_NO":"１０７２號十一樓","E_COORD97":176139.06,"N_COORD97":2578858.4100000001,"ADDRESS":"復興路１０７２號十一樓","OBJECTID":636306},"geometry":{"x":176139.05999999866,"y":2578858.410000002}},{"attributes":{"ID":636334,"DIS_CODE":0,"TOWNNAME":"新營區","LI":"新東里","LIN":"26鄰","STREET":"東興路","SECT":" ","MAREA":" ","LANE":" ","ALLEY":" ","HOUSE_NO":"２０１號六樓","E_COORD97":180749.70000000001,"N_COORD97":2579507.3399999999,"ADDRESS":"東興路２０１號六樓","OBJECTID":636307},"geometry":{"x":180749.70000000205,"y":2579507.3399999999}},{"attributes":{"ID":636335,"DIS_CODE":0,"TOWNNAME":"南區","LI":"文華里","LIN":"25鄰","STREET":"文南二街","SECT":" ","MAREA":" ","LANE":" ","ALLEY":" ","HOUSE_NO":"５７號六樓之５","E_COORD97":166842.17000000001,"N_COORD97":2542889.6499999999,"ADDRESS":"文南二街５７號六樓之５","OBJECTID":636308},"geometry":{"x":166842.16999999993,"y":2542889.6500000004}},{"attributes":{"ID":636336,"DIS_CODE":0,"TOWNNAME":"南區","LI":"文華里","LIN":"25鄰","STREET":"文南二街","SECT":" ","MAREA":" ","LANE":" ","ALLEY":" ","HOUSE_NO":"５７號六樓之６","E_COORD97":166842.17000000001,"N_COORD97":2542889.6499999999,"ADDRESS":"文南二街５７號六樓之６","OBJECTID":636309},"geometry":{"x":166842.16999999993,"y":2542889.6500000004}},{"attributes":{"ID":636337,"DIS_CODE":0,"TOWNNAME":"歸仁區","LI":"辜厝里","LIN":"18鄰","STREET":"大順一街","SECT":" ","MAREA":" ","LANE":" ","ALLEY":" ","HOUSE_NO":"１號九樓","E_COORD97":177457.67999999999,"N_COORD97":2540505.9500000002,"ADDRESS":"大順一街１號九樓","OBJECTID":636310},"geometry":{"x":177457.68000000063,"y":2540505.9500000011}},{"attributes":{"ID":636338,"DIS_CODE":0,"TOWNNAME":"歸仁區","LI":"許厝里","LIN":"20鄰","STREET":"仁愛北街","SECT":" ","MAREA":" ","LANE":" ","ALLEY":" ","HOUSE_NO":"７４號八樓","E_COORD97":178300.42999999999,"N_COORD97":2540875.25,"ADDRESS":"仁愛北街７４號八樓","OBJECTID":636311},"geometry":{"x":178300.43000000063,"y":2540875.25}},{"attributes":{"ID":636339,"DIS_CODE":0,"TOWNNAME":"歸仁區","LI":"許厝里","LIN":"26鄰","STREET":"信義北路","SECT":" ","MAREA":" ","LANE":" ","ALLEY":" ","HOUSE_NO":"４６號三樓之２","E_COORD97":178001.78,"N_COORD97":2540839.2400000002,"ADDRESS":"信義北路４６號三樓之２","OBJECTID":636312},"geometry":{"x":178001.78000000119,"y":2540839.2400000039}},{"attributes":{"ID":636340,"DIS_CODE":0,"TOWNNAME":"歸仁區","LI":"辜厝里","LIN":"26鄰","STREET":"大順三街","SECT":" ","MAREA":" ","LANE":" ","ALLEY":" ","HOUSE_NO":"５號四樓之２","E_COORD97":177371.13,"N_COORD97":2540575.1600000001,"ADDRESS":"大順三街５號四樓之２","OBJECTID":636313},"geometry":{"x":177371.12999999989,"y":2540575.1599999983}},{"attributes":{"ID":636341,"DIS_CODE":0,"TOWNNAME":"歸仁區","LI":"後市里","LIN":"42鄰","STREET":"國光街","SECT":" ","MAREA":" ","LANE":" ","ALLEY":" ","HOUSE_NO":"６號四樓","E_COORD97":177021.73000000001,"N_COORD97":2540944.75,"ADDRESS":"國光街６號四樓","OBJECTID":636314},"geometry":{"x":177021.73000000045,"y":2540944.7500000019}},{"attributes":{"ID":636342,"DIS_CODE":0,"TOWNNAME":"歸仁區","LI":"辜厝里","LIN":"24鄰","STREET":"大順街","SECT":" ","MAREA":" ","LANE":" ","ALLEY":" ","HOUSE_NO":"４９號五樓之３","E_COORD97":177399.92999999999,"N_COORD97":2540595.1600000001,"ADDRESS":"大順街４９號五樓之３","OBJECTID":636315},"geometry":{"x":177399.93000000063,"y":2540595.1600000001}},{"attributes":{"ID":636343,"DIS_CODE":0,"TOWNNAME":"歸仁區","LI":"辜厝里","LIN":"14鄰","STREET":"中正南路","SECT":"一段","MAREA":" ","LANE":" ","ALLEY":" ","HOUSE_NO":"１１６號八樓","E_COORD97":177505.95000000001,"N_COORD97":2540501.6899999999,"ADDRESS":"中正南路一段１１６號八樓","OBJECTID":636316},"geometry":{"x":177505.95000000112,"y":2540501.6899999995}},{"attributes":{"ID":636344,"DIS_CODE":0,"TOWNNAME":"歸仁區","LI":"許厝里","LIN":"18鄰","STREET":"仁愛北街","SECT":" ","MAREA":" ","LANE":" ","ALLEY":" ","HOUSE_NO":"５６號四樓","E_COORD97":178300.32999999999,"N_COORD97":2540855.25,"ADDRESS":"仁愛北街５６號四樓","OBJECTID":636317},"geometry":{"x":178300.33000000007,"y":2540855.25}},{"attributes":{"ID":636345,"DIS_CODE":0,"TOWNNAME":"歸仁區","LI":"許厝里","LIN":"20鄰","STREET":"仁愛北街","SECT":" ","MAREA":" ","LANE":" ","ALLEY":" ","HOUSE_NO":"７４號四樓","E_COORD97":178300.42999999999,"N_COORD97":2540875.25,"ADDRESS":"仁愛北街７４號四樓","OBJECTID":636318},"geometry":{"x":178300.43000000063,"y":2540875.25}},{"attributes":{"ID":636346,"DIS_CODE":0,"TOWNNAME":"歸仁區","LI":"許厝里","LIN":"26鄰","STREET":"信義北路","SECT":" ","MAREA":" ","LANE":" ","ALLEY":" ","HOUSE_NO":"４６號二樓","E_COORD97":178001.32999999999,"N_COORD97":2540839.23,"ADDRESS":"信義北路４６號二樓","OBJECTID":636319},"geometry":{"x":178001.33000000101,"y":2540839.2300000004}},{"attributes":{"ID":636347,"DIS_CODE":0,"TOWNNAME":"歸仁區","LI":"許厝里","LIN":"26鄰","STREET":"信義北路","SECT":" ","MAREA":" ","LANE":" ","ALLEY":" ","HOUSE_NO":"４６號四樓之２","E_COORD97":178001.78,"N_COORD97":2540839.2400000002,"ADDRESS":"信義北路４６號四樓之２","OBJECTID":636320},"geometry":{"x":178001.78000000119,"y":2540839.2400000039}},{"attributes":{"ID":636348,"DIS_CODE":0,"TOWNNAME":"歸仁區","LI":"辜厝里","LIN":"24鄰","STREET":"大順街","SECT":" ","MAREA":" ","LANE":" ","ALLEY":" ","HOUSE_NO":"４９號七樓之３","E_COORD97":177399.92999999999,"N_COORD97":2540595.1600000001,"ADDRESS":"大順街４９號七樓之３","OBJECTID":636321},"geometry":{"x":177399.93000000063,"y":2540595.1600000001}},{"attributes":{"ID":636349,"DIS_CODE":0,"TOWNNAME":"歸仁區","LI":"辜厝里","LIN":"24鄰","STREET":"大順街","SECT":" ","MAREA":" ","LANE":" ","ALLEY":" ","HOUSE_NO":"４９號四樓之１","E_COORD97":177399.91,"N_COORD97":2540595.1600000001,"ADDRESS":"大順街４９號四樓之１","OBJECTID":636322},"geometry":{"x":177399.91000000015,"y":2540595.1600000001}},{"attributes":{"ID":636350,"DIS_CODE":0,"TOWNNAME":"歸仁區","LI":"辜厝里","LIN":"24鄰","STREET":"大順街","SECT":" ","MAREA":" ","LANE":" ","ALLEY":" ","HOUSE_NO":"４９號六樓之２","E_COORD97":177399.92999999999,"N_COORD97":2540595.1600000001,"ADDRESS":"大順街４９號六樓之２","OBJECTID":636323},"geometry":{"x":177399.93000000063,"y":2540595.1600000001}},{"attributes":{"ID":636351,"DIS_CODE":0,"TOWNNAME":"歸仁區","LI":"辜厝里","LIN":"14鄰","STREET":"中正南路","SECT":"一段","MAREA":" ","LANE":" ","ALLEY":" ","HOUSE_NO":"１１６號五樓","E_COORD97":177505.95000000001,"N_COORD97":2540501.6899999999,"ADDRESS":"中正南路一段１１６號五樓","OBJECTID":636324},"geometry":{"x":177505.95000000112,"y":2540501.6899999995}},{"attributes":{"ID":636352,"DIS_CODE":0,"TOWNNAME":"歸仁區","LI":"辜厝里","LIN":"14鄰","STREET":"中正南路","SECT":"一段","MAREA":" ","LANE":" ","ALLEY":" ","HOUSE_NO":"１２０號九樓","E_COORD97":177505.95000000001,"N_COORD97":2540501.6899999999,"ADDRESS":"中正南路一段１２０號九樓","OBJECTID":636325},"geometry":{"x":177505.95000000112,"y":2540501.6899999995}},{"attributes":{"ID":636353,"DIS_CODE":0,"TOWNNAME":"歸仁區","LI":"後市里","LIN":"36鄰","STREET":"民族一街","SECT":" ","MAREA":" ","LANE":" ","ALLEY":" ","HOUSE_NO":"２１號三樓之２","E_COORD97":177300.19,"N_COORD97":2541005.75,"ADDRESS":"民族一街２１號三樓之２","OBJECTID":636326},"geometry":{"x":177300.19000000041,"y":2541005.7500000019}},{"attributes":{"ID":636354,"DIS_CODE":0,"TOWNNAME":"歸仁區","LI":"後市里","LIN":"42鄰","STREET":"國光街","SECT":" ","MAREA":" ","LANE":" ","ALLEY":" ","HOUSE_NO":"６號三樓","E_COORD97":177021.73000000001,"N_COORD97":2540944.75,"ADDRESS":"國光街６號三樓","OBJECTID":636327},"geometry":{"x":177021.73000000045,"y":2540944.7500000019}},{"attributes":{"ID":636355,"DIS_CODE":0,"TOWNNAME":"歸仁區","LI":"文化里","LIN":"24鄰","STREET":"大德路","SECT":" ","MAREA":" ","LANE":" ","ALLEY":" ","HOUSE_NO":"２５３號七樓之７","E_COORD97":177107.91,"N_COORD97":2541521.3399999999,"ADDRESS":"大德路２５３號七樓之７","OBJECTID":636328},"geometry":{"x":177107.91000000015,"y":2541521.3400000017}},{"attributes":{"ID":636356,"DIS_CODE":0,"TOWNNAME":"歸仁區","LI":"文化里","LIN":"24鄰","STREET":"大德路","SECT":" ","MAREA":" ","LANE":" ","ALLEY":" ","HOUSE_NO":"２５３號八樓之３","E_COORD97":177107.92000000001,"N_COORD97":2541521.3399999999,"ADDRESS":"大德路２５３號八樓之３","OBJECTID":636329},"geometry":{"x":177107.91999999993,"y":2541521.3400000017}},{"attributes":{"ID":636357,"DIS_CODE":0,"TOWNNAME":"歸仁區","LI":"辜厝里","LIN":"14鄰","STREET":"中正南路","SECT":"一段","MAREA":" ","LANE":" ","ALLEY":" ","HOUSE_NO":"１２０號七樓","E_COORD97":177505.95000000001,"N_COORD97":2540501.6899999999,"ADDRESS":"中正南路一段１２０號七樓","OBJECTID":636330},"geometry":{"x":177505.95000000112,"y":2540501.6899999995}},{"attributes":{"ID":636358,"DIS_CODE":0,"TOWNNAME":"歸仁區","LI":"辜厝里","LIN":"17鄰","STREET":"大順街","SECT":" ","MAREA":" ","LANE":" ","ALLEY":" ","HOUSE_NO":"７號三樓","E_COORD97":177457.42999999999,"N_COORD97":2540505.9500000002,"ADDRESS":"大順街７號三樓","OBJECTID":636331},"geometry":{"x":177457.43000000156,"y":2540505.9500000011}},{"attributes":{"ID":636359,"DIS_CODE":0,"TOWNNAME":"歸仁區","LI":"南興里","LIN":"32鄰","STREET":"文化九街","SECT":" ","MAREA":" ","LANE":" ","ALLEY":" ","HOUSE_NO":"４７號三樓","E_COORD97":176367.23999999999,"N_COORD97":2541119.3300000001,"ADDRESS":"文化九街４７號三樓","OBJECTID":636332},"geometry":{"x":176367.24000000022,"y":2541119.3300000001}},{"attributes":{"ID":636360,"DIS_CODE":0,"TOWNNAME":"歸仁區","LI":"文化里","LIN":"24鄰","STREET":"大德路","SECT":" ","MAREA":" ","LANE":" ","ALLEY":" ","HOUSE_NO":"２５３號十二樓之５","E_COORD97":177108.17999999999,"N_COORD97":2541521.3399999999,"ADDRESS":"大德路２５３號十二樓之５","OBJECTID":636333},"geometry":{"x":177108.18000000156,"y":2541521.3400000017}},{"attributes":{"ID":636361,"DIS_CODE":0,"TOWNNAME":"歸仁區","LI":"南興里","LIN":"32鄰","STREET":"文化九街","SECT":" ","MAREA":" ","LANE":" ","ALLEY":" ","HOUSE_NO":"４９號二樓","E_COORD97":176367.23999999999,"N_COORD97":2541119.3300000001,"ADDRESS":"文化九街４９號二樓","OBJECTID":636334},"geometry":{"x":176367.24000000022,"y":2541119.3300000001}},{"attributes":{"ID":636362,"DIS_CODE":0,"TOWNNAME":"歸仁區","LI":"南興里","LIN":"32鄰","STREET":"文化九街","SECT":" ","MAREA":" ","LANE":" ","ALLEY":" ","HOUSE_NO":"４９號五樓","E_COORD97":176367.23999999999,"N_COORD97":2541119.3300000001,"ADDRESS":"文化九街４９號五樓","OBJECTID":636335},"geometry":{"x":176367.24000000022,"y":2541119.3300000001}},{"attributes":{"ID":636363,"DIS_CODE":0,"TOWNNAME":"歸仁區","LI":"文化里","LIN":"24鄰","STREET":"大德路","SECT":" ","MAREA":" ","LANE":" ","ALLEY":" ","HOUSE_NO":"２５３號七樓之３","E_COORD97":177107.92000000001,"N_COORD97":2541521.3399999999,"ADDRESS":"大德路２５３號七樓之３","OBJECTID":636336},"geometry":{"x":177107.91999999993,"y":2541521.3400000017}},{"attributes":{"ID":636364,"DIS_CODE":0,"TOWNNAME":"歸仁區","LI":"文化里","LIN":"24鄰","STREET":"大德路","SECT":" ","MAREA":" ","LANE":" ","ALLEY":" ","HOUSE_NO":"２５３號九樓之８","E_COORD97":177107.92999999999,"N_COORD97":2541521.3399999999,"ADDRESS":"大德路２５３號九樓之８","OBJECTID":636337},"geometry":{"x":177107.9299999997,"y":2541521.3400000017}},{"attributes":{"ID":636365,"DIS_CODE":0,"TOWNNAME":"歸仁區","LI":"文化里","LIN":"24鄰","STREET":"大德路","SECT":" ","MAREA":" ","LANE":" ","ALLEY":" ","HOUSE_NO":"２５３號十一樓之６","E_COORD97":177108.17000000001,"N_COORD97":2541521.3399999999,"ADDRESS":"大德路２５３號十一樓之６","OBJECTID":636338},"geometry":{"x":177108.16999999993,"y":2541521.3400000017}},{"attributes":{"ID":636366,"DIS_CODE":0,"TOWNNAME":"北區","LI":"公園里","LIN":"6鄰","STREET":"富北街","SECT":" ","MAREA":" ","LANE":" ","ALLEY":" ","HOUSE_NO":"９號五樓","E_COORD97":169144.79999999999,"N_COORD97":2544352.6099999999,"ADDRESS":"富北街９號五樓","OBJECTID":636339},"geometry":{"x":169144.79999999981,"y":2544352.6100000013}},{"attributes":{"ID":636367,"DIS_CODE":0,"TOWNNAME":"歸仁區","LI":"後市里","LIN":"36鄰","STREET":"民族一街","SECT":" ","MAREA":" ","LANE":" ","ALLEY":" ","HOUSE_NO":"２１號五樓之１","E_COORD97":177300.16,"N_COORD97":2541005.75,"ADDRESS":"民族一街２１號五樓之１","OBJECTID":636340},"geometry":{"x":177300.15999999922,"y":2541005.7500000019}},{"attributes":{"ID":636368,"DIS_CODE":0,"TOWNNAME":"歸仁區","LI":"文化里","LIN":"24鄰","STREET":"大德路","SECT":" ","MAREA":" ","LANE":" ","ALLEY":" ","HOUSE_NO":"２５３號九樓之５","E_COORD97":177107.92999999999,"N_COORD97":2541521.3399999999,"ADDRESS":"大德路２５３號九樓之５","OBJECTID":636341},"geometry":{"x":177107.9299999997,"y":2541521.3400000017}},{"attributes":{"ID":636369,"DIS_CODE":0,"TOWNNAME":"歸仁區","LI":"後市里","LIN":"31鄰","STREET":"民族北街","SECT":" ","MAREA":" ","LANE":" ","ALLEY":" ","HOUSE_NO":"４７號二樓之３","E_COORD97":177417.78,"N_COORD97":2540947.75,"ADDRESS":"民族北街４７號二樓之３","OBJECTID":636342},"geometry":{"x":177417.78000000026,"y":2540947.7500000037}},{"attributes":{"ID":636370,"DIS_CODE":0,"TOWNNAME":"玉井區","LI":"玉井里","LIN":"10鄰","STREET":"民生路","SECT":" ","MAREA":" ","LANE":" ","ALLEY":" ","HOUSE_NO":"１號一樓之１６","E_COORD97":194738.78,"N_COORD97":2558184.29,"ADDRESS":"民生路１號一樓之１６","OBJECTID":636343},"geometry":{"x":194738.78000000119,"y":2558184.290000001}},{"attributes":{"ID":636371,"DIS_CODE":0,"TOWNNAME":"歸仁區","LI":"文化里","LIN":"25鄰","STREET":"民權北路","SECT":" ","MAREA":" ","LANE":" ","ALLEY":" ","HOUSE_NO":"１８６號四樓之９","E_COORD97":177048.25,"N_COORD97":2541430.3399999999,"ADDRESS":"民權北路１８６號四樓之９","OBJECTID":636344},"geometry":{"x":177048.25,"y":2541430.3399999999}},{"attributes":{"ID":636372,"DIS_CODE":0,"TOWNNAME":"歸仁區","LI":"辜厝里","LIN":"25鄰","STREET":"大順街","SECT":" ","MAREA":" ","LANE":" ","ALLEY":" ","HOUSE_NO":"５９號五樓之２","E_COORD97":177374.32999999999,"N_COORD97":2540596.1600000001,"ADDRESS":"大順街５９號五樓之２","OBJECTID":636345},"geometry":{"x":177374.33000000101,"y":2540596.160000002}},{"attributes":{"ID":636373,"DIS_CODE":0,"TOWNNAME":"歸仁區","LI":"歸仁里","LIN":"4鄰","STREET":"和平北街","SECT":" ","MAREA":" ","LANE":" ","ALLEY":" ","HOUSE_NO":"６９號三樓","E_COORD97":177843.69,"N_COORD97":2541017.04,"ADDRESS":"和平北街６９號三樓","OBJECTID":636346},"geometry":{"x":177843.69000000041,"y":2541017.040000001}},{"attributes":{"ID":636374,"DIS_CODE":0,"TOWNNAME":"北區","LI":"公園里","LIN":"7鄰","STREET":"北忠街","SECT":" ","MAREA":" ","LANE":" ","ALLEY":" ","HOUSE_NO":"６６號七樓之１","E_COORD97":169108.70999999999,"N_COORD97":2544392.4399999999,"ADDRESS":"北忠街６６號七樓之１","OBJECTID":636347},"geometry":{"x":169108.71000000183,"y":2544392.4399999995}},{"attributes":{"ID":636375,"DIS_CODE":0,"TOWNNAME":"北區","LI":"公園里","LIN":"7鄰","STREET":"北忠街","SECT":" ","MAREA":" ","LANE":" ","ALLEY":" ","HOUSE_NO":"６６號七樓之１０","E_COORD97":169108.70999999999,"N_COORD97":2544392.4399999999,"ADDRESS":"北忠街６６號七樓之１０","OBJECTID":636348},"geometry":{"x":169108.71000000183,"y":2544392.4399999995}},{"attributes":{"ID":636376,"DIS_CODE":0,"TOWNNAME":"北區","LI":"公園里","LIN":"7鄰","STREET":"北忠街","SECT":" ","MAREA":" ","LANE":" ","ALLEY":" ","HOUSE_NO":"６６號七樓之１１","E_COORD97":169108.70999999999,"N_COORD97":2544392.4399999999,"ADDRESS":"北忠街６６號七樓之１１","OBJECTID":636349},"geometry":{"x":169108.71000000183,"y":2544392.4399999995}},{"attributes":{"ID":636377,"DIS_CODE":0,"TOWNNAME":"北區","LI":"公園里","LIN":"7鄰","STREET":"北忠街","SECT":" ","MAREA":" ","LANE":" ","ALLEY":" ","HOUSE_NO":"６６號七樓之１２","E_COORD97":169108.70999999999,"N_COORD97":2544392.4399999999,"ADDRESS":"北忠街６６號七樓之１２","OBJECTID":636350},"geometry":{"x":169108.71000000183,"y":2544392.4399999995}},{"attributes":{"ID":636378,"DIS_CODE":0,"TOWNNAME":"北區","LI":"公園里","LIN":"7鄰","STREET":"北忠街","SECT":" ","MAREA":" ","LANE":" ","ALLEY":" ","HOUSE_NO":"６６號七樓之１３","E_COORD97":169108.70999999999,"N_COORD97":2544392.4399999999,"ADDRESS":"北忠街６６號七樓之１３","OBJECTID":636351},"geometry":{"x":169108.71000000183,"y":2544392.4399999995}},{"attributes":{"ID":636379,"DIS_CODE":0,"TOWNNAME":"北區","LI":"公園里","LIN":"7鄰","STREET":"北忠街","SECT":" ","MAREA":" ","LANE":" ","ALLEY":" ","HOUSE_NO":"６６號七樓之１４","E_COORD97":169108.70999999999,"N_COORD97":2544392.4399999999,"ADDRESS":"北忠街６６號七樓之１４","OBJECTID":636352},"geometry":{"x":169108.71000000183,"y":2544392.4399999995}},{"attributes":{"ID":636380,"DIS_CODE":0,"TOWNNAME":"北區","LI":"公園里","LIN":"7鄰","STREET":"北忠街","SECT":" ","MAREA":" ","LANE":" ","ALLEY":" ","HOUSE_NO":"６６號七樓之１５","E_COORD97":169108.70999999999,"N_COORD97":2544392.4399999999,"ADDRESS":"北忠街６６號七樓之１５","OBJECTID":636353},"geometry":{"x":169108.71000000183,"y":2544392.4399999995}},{"attributes":{"ID":636381,"DIS_CODE":0,"TOWNNAME":"北區","LI":"公園里","LIN":"7鄰","STREET":"北忠街","SECT":" ","MAREA":" ","LANE":" ","ALLEY":" ","HOUSE_NO":"６６號七樓之１６","E_COORD97":169108.70999999999,"N_COORD97":2544392.4399999999,"ADDRESS":"北忠街６６號七樓之１６","OBJECTID":636354},"geometry":{"x":169108.71000000183,"y":2544392.4399999995}},{"attributes":{"ID":636382,"DIS_CODE":0,"TOWNNAME":"北區","LI":"公園里","LIN":"7鄰","STREET":"北忠街","SECT":" ","MAREA":" ","LANE":" ","ALLEY":" ","HOUSE_NO":"６６號七樓之２","E_COORD97":169108.70999999999,"N_COORD97":2544392.4399999999,"ADDRESS":"北忠街６６號七樓之２","OBJECTID":636355},"geometry":{"x":169108.71000000183,"y":2544392.4399999995}},{"attributes":{"ID":636383,"DIS_CODE":0,"TOWNNAME":"北區","LI":"公園里","LIN":"7鄰","STREET":"北忠街","SECT":" ","MAREA":" ","LANE":" ","ALLEY":" ","HOUSE_NO":"６６號七樓之３","E_COORD97":169108.70999999999,"N_COORD97":2544392.4399999999,"ADDRESS":"北忠街６６號七樓之３","OBJECTID":636356},"geometry":{"x":169108.71000000183,"y":2544392.4399999995}},{"attributes":{"ID":636384,"DIS_CODE":0,"TOWNNAME":"北區","LI":"公園里","LIN":"7鄰","STREET":"北忠街","SECT":" ","MAREA":" ","LANE":" ","ALLEY":" ","HOUSE_NO":"６６號七樓之４","E_COORD97":169108.70999999999,"N_COORD97":2544392.4399999999,"ADDRESS":"北忠街６６號七樓之４","OBJECTID":636357},"geometry":{"x":169108.71000000183,"y":2544392.4399999995}},{"attributes":{"ID":636385,"DIS_CODE":0,"TOWNNAME":"北區","LI":"公園里","LIN":"7鄰","STREET":"北忠街","SECT":" ","MAREA":" ","LANE":" ","ALLEY":" ","HOUSE_NO":"６６號七樓之５","E_COORD97":169108.70999999999,"N_COORD97":2544392.4399999999,"ADDRESS":"北忠街６６號七樓之５","OBJECTID":636358},"geometry":{"x":169108.71000000183,"y":2544392.4399999995}},{"attributes":{"ID":636386,"DIS_CODE":0,"TOWNNAME":"北區","LI":"公園里","LIN":"7鄰","STREET":"北忠街","SECT":" ","MAREA":" ","LANE":" ","ALLEY":" ","HOUSE_NO":"６６號七樓之６","E_COORD97":169108.70999999999,"N_COORD97":2544392.4399999999,"ADDRESS":"北忠街６６號七樓之６","OBJECTID":636359},"geometry":{"x":169108.71000000183,"y":2544392.4399999995}},{"attributes":{"ID":636387,"DIS_CODE":0,"TOWNNAME":"北區","LI":"公園里","LIN":"7鄰","STREET":"北忠街","SECT":" ","MAREA":" ","LANE":" ","ALLEY":" ","HOUSE_NO":"６６號七樓之７","E_COORD97":169108.70999999999,"N_COORD97":2544392.4399999999,"ADDRESS":"北忠街６６號七樓之７","OBJECTID":636360},"geometry":{"x":169108.71000000183,"y":2544392.4399999995}},{"attributes":{"ID":636388,"DIS_CODE":0,"TOWNNAME":"北區","LI":"公園里","LIN":"7鄰","STREET":"北忠街","SECT":" ","MAREA":" ","LANE":" ","ALLEY":" ","HOUSE_NO":"６６號七樓之８","E_COORD97":169108.70999999999,"N_COORD97":2544392.4399999999,"ADDRESS":"北忠街６６號七樓之８","OBJECTID":636361},"geometry":{"x":169108.71000000183,"y":2544392.4399999995}},{"attributes":{"ID":636389,"DIS_CODE":0,"TOWNNAME":"安平區","LI":"港仔里","LIN":"16鄰","STREET":"運河路","SECT":" ","MAREA":" ","LANE":" ","ALLEY":" ","HOUSE_NO":"２２號七樓之１","E_COORD97":164103.41,"N_COORD97":2544422.5600000001,"ADDRESS":"運河路２２號七樓之１","OBJECTID":636362},"geometry":{"x":164103.41000000108,"y":2544422.5600000024}},{"attributes":{"ID":636390,"DIS_CODE":0,"TOWNNAME":"安平區","LI":"港仔里","LIN":"16鄰","STREET":"運河路","SECT":" ","MAREA":" ","LANE":" ","ALLEY":" ","HOUSE_NO":"２２號七樓之２","E_COORD97":164103.41,"N_COORD97":2544422.5600000001,"ADDRESS":"運河路２２號七樓之２","OBJECTID":636363},"geometry":{"x":164103.41000000108,"y":2544422.5600000024}},{"attributes":{"ID":636391,"DIS_CODE":0,"TOWNNAME":"安平區","LI":"港仔里","LIN":"16鄰","STREET":"運河路","SECT":" ","MAREA":" ","LANE":" ","ALLEY":" ","HOUSE_NO":"２２號三樓之１","E_COORD97":164103.41,"N_COORD97":2544422.5600000001,"ADDRESS":"運河路２２號三樓之１","OBJECTID":636364},"geometry":{"x":164103.41000000108,"y":2544422.5600000024}},{"attributes":{"ID":636392,"DIS_CODE":0,"TOWNNAME":"北區","LI":"正覺里","LIN":"27鄰","STREET":"公園路","SECT":" ","MAREA":" ","LANE":" ","ALLEY":" ","HOUSE_NO":"７５５號二樓","E_COORD97":169583.66,"N_COORD97":2546497.3199999998,"ADDRESS":"公園路７５５號二樓","OBJECTID":636365},"geometry":{"x":169583.65999999922,"y":2546497.320000004}},{"attributes":{"ID":636393,"DIS_CODE":0,"TOWNNAME":"北區","LI":"正覺里","LIN":"27鄰","STREET":"公園路","SECT":" ","MAREA":" ","LANE":" ","ALLEY":" ","HOUSE_NO":"７５５號三樓之１","E_COORD97":169583.66,"N_COORD97":2546497.3199999998,"ADDRESS":"公園路７５５號三樓之１","OBJECTID":636366},"geometry":{"x":169583.65999999922,"y":2546497.320000004}},{"attributes":{"ID":636394,"DIS_CODE":0,"TOWNNAME":"北區","LI":"正覺里","LIN":"27鄰","STREET":"公園路","SECT":" ","MAREA":" ","LANE":" ","ALLEY":" ","HOUSE_NO":"７５５號三樓之２","E_COORD97":169583.66,"N_COORD97":2546497.3199999998,"ADDRESS":"公園路７５５號三樓之２","OBJECTID":636367},"geometry":{"x":169583.65999999922,"y":2546497.320000004}},{"attributes":{"ID":636395,"DIS_CODE":0,"TOWNNAME":"北區","LI":"正覺里","LIN":"27鄰","STREET":"公園路","SECT":" ","MAREA":" ","LANE":" ","ALLEY":" ","HOUSE_NO":"７５５號三樓之３","E_COORD97":169583.66,"N_COORD97":2546497.3199999998,"ADDRESS":"公園路７５５號三樓之３","OBJECTID":636368},"geometry":{"x":169583.65999999922,"y":2546497.320000004}},{"attributes":{"ID":636396,"DIS_CODE":0,"TOWNNAME":"北區","LI":"正覺里","LIN":"27鄰","STREET":"公園路","SECT":" ","MAREA":" ","LANE":" ","ALLEY":" ","HOUSE_NO":"７５５號三樓之４","E_COORD97":169583.66,"N_COORD97":2546497.3199999998,"ADDRESS":"公園路７５５號三樓之４","OBJECTID":636369},"geometry":{"x":169583.65999999922,"y":2546497.320000004}},{"attributes":{"ID":636397,"DIS_CODE":0,"TOWNNAME":"北區","LI":"正覺里","LIN":"27鄰","STREET":"公園路","SECT":" ","MAREA":" ","LANE":" ","ALLEY":" ","HOUSE_NO":"７５５號三樓之５","E_COORD97":169583.66,"N_COORD97":2546497.3199999998,"ADDRESS":"公園路７５５號三樓之５","OBJECTID":636370},"geometry":{"x":169583.65999999922,"y":2546497.320000004}},{"attributes":{"ID":636398,"DIS_CODE":0,"TOWNNAME":"北區","LI":"正覺里","LIN":"27鄰","STREET":"公園路","SECT":" ","MAREA":" ","LANE":" ","ALLEY":" ","HOUSE_NO":"７５５號三樓之６","E_COORD97":169583.66,"N_COORD97":2546497.3199999998,"ADDRESS":"公園路７５５號三樓之６","OBJECTID":636371},"geometry":{"x":169583.65999999922,"y":2546497.320000004}},{"attributes":{"ID":636399,"DIS_CODE":0,"TOWNNAME":"安平區","LI":"育平里","LIN":"4鄰","STREET":"永華路","SECT":"二段","MAREA":" ","LANE":" ","ALLEY":" ","HOUSE_NO":"８１９號七樓之１３","E_COORD97":164756.10999999999,"N_COORD97":2543515.4199999999,"ADDRESS":"永華路二段８１９號七樓之１３","OBJECTID":636372},"geometry":{"x":164756.11000000034,"y":2543515.4199999999}},{"attributes":{"ID":636400,"DIS_CODE":0,"TOWNNAME":"中西區","LI":"保安里","LIN":"4鄰","STREET":"保安路","SECT":" ","MAREA":" ","LANE":" ","ALLEY":" ","HOUSE_NO":"３９號","E_COORD97":167636.10000000001,"N_COORD97":2543419.8399999999,"ADDRESS":"保安路３９號","OBJECTID":636373},"geometry":{"x":167636.10000000056,"y":2543419.8400000017}},{"attributes":{"ID":636401,"DIS_CODE":0,"TOWNNAME":"安平區","LI":"育平里","LIN":"4鄰","STREET":"永華路","SECT":"二段","MAREA":" ","LANE":" ","ALLEY":" ","HOUSE_NO":"８１９號七樓之１４","E_COORD97":164756.10999999999,"N_COORD97":2543515.4199999999,"ADDRESS":"永華路二段８１９號七樓之１４","OBJECTID":636374},"geometry":{"x":164756.11000000034,"y":2543515.4199999999}},{"attributes":{"ID":636402,"DIS_CODE":0,"TOWNNAME":"北區","LI":"成德里","LIN":"26鄰","STREET":"育德一街","SECT":" ","MAREA":" ","LANE":" ","ALLEY":" ","HOUSE_NO":"１號二樓","E_COORD97":168494.70000000001,"N_COORD97":2545784.4100000001,"ADDRESS":"育德一街１號二樓","OBJECTID":636375},"geometry":{"x":168494.70000000019,"y":2545784.4099999983}},{"attributes":{"ID":636403,"DIS_CODE":0,"TOWNNAME":"安平區","LI":"育平里","LIN":"4鄰","STREET":"永華路","SECT":"二段","MAREA":" ","LANE":" ","ALLEY":" ","HOUSE_NO":"８１９號七樓之１５","E_COORD97":164756.10999999999,"N_COORD97":2543515.4199999999,"ADDRESS":"永華路二段８１９號七樓之１５","OBJECTID":636376},"geometry":{"x":164756.11000000034,"y":2543515.4199999999}},{"attributes":{"ID":636404,"DIS_CODE":0,"TOWNNAME":"安平區","LI":"育平里","LIN":"4鄰","STREET":"永華路","SECT":"二段","MAREA":" ","LANE":" ","ALLEY":" ","HOUSE_NO":"８１９號七樓之１６","E_COORD97":164756.10999999999,"N_COORD97":2543515.4199999999,"ADDRESS":"永華路二段８１９號七樓之１６","OBJECTID":636377},"geometry":{"x":164756.11000000034,"y":2543515.4199999999}},{"attributes":{"ID":636405,"DIS_CODE":0,"TOWNNAME":"安平區","LI":"育平里","LIN":"4鄰","STREET":"永華路","SECT":"二段","MAREA":" ","LANE":" ","ALLEY":" ","HOUSE_NO":"８１９號九樓之１３","E_COORD97":164756.10999999999,"N_COORD97":2543515.4199999999,"ADDRESS":"永華路二段８１９號九樓之１３","OBJECTID":636378},"geometry":{"x":164756.11000000034,"y":2543515.4199999999}},{"attributes":{"ID":636406,"DIS_CODE":0,"TOWNNAME":"安平區","LI":"育平里","LIN":"4鄰","STREET":"永華路","SECT":"二段","MAREA":" ","LANE":" ","ALLEY":" ","HOUSE_NO":"８１９號九樓之１４","E_COORD97":164756.10999999999,"N_COORD97":2543515.4199999999,"ADDRESS":"永華路二段８１９號九樓之１４","OBJECTID":636379},"geometry":{"x":164756.11000000034,"y":2543515.4199999999}},{"attributes":{"ID":636407,"DIS_CODE":0,"TOWNNAME":"安平區","LI":"育平里","LIN":"4鄰","STREET":"永華路","SECT":"二段","MAREA":" ","LANE":" ","ALLEY":" ","HOUSE_NO":"８１９號九樓之１５","E_COORD97":164756.10999999999,"N_COORD97":2543515.4199999999,"ADDRESS":"永華路二段８１９號九樓之１５","OBJECTID":636380},"geometry":{"x":164756.11000000034,"y":2543515.4199999999}},{"attributes":{"ID":636408,"DIS_CODE":0,"TOWNNAME":"安平區","LI":"育平里","LIN":"4鄰","STREET":"永華路","SECT":"二段","MAREA":" ","LANE":" ","ALLEY":" ","HOUSE_NO":"８１９號九樓之１６","E_COORD97":164756.10999999999,"N_COORD97":2543515.4199999999,"ADDRESS":"永華路二段８１９號九樓之１６","OBJECTID":636381},"geometry":{"x":164756.11000000034,"y":2543515.4199999999}},{"attributes":{"ID":636409,"DIS_CODE":0,"TOWNNAME":"安平區","LI":"育平里","LIN":"4鄰","STREET":"永華路","SECT":"二段","MAREA":" ","LANE":" ","ALLEY":" ","HOUSE_NO":"８１９號二十一樓之１","E_COORD97":164756.10999999999,"N_COORD97":2543515.4199999999,"ADDRESS":"永華路二段８１９號二十一樓之１３","OBJECTID":636382},"geometry":{"x":164756.11000000034,"y":2543515.4199999999}},{"attributes":{"ID":636410,"DIS_CODE":0,"TOWNNAME":"安平區","LI":"育平里","LIN":"4鄰","STREET":"永華路","SECT":"二段","MAREA":" ","LANE":" ","ALLEY":" ","HOUSE_NO":"８１９號二十一樓之１","E_COORD97":164756.10999999999,"N_COORD97":2543515.4199999999,"ADDRESS":"永華路二段８１９號二十一樓之１４","OBJECTID":636383},"geometry":{"x":164756.11000000034,"y":2543515.4199999999}},{"attributes":{"ID":636411,"DIS_CODE":0,"TOWNNAME":"安平區","LI":"育平里","LIN":"4鄰","STREET":"永華路","SECT":"二段","MAREA":" ","LANE":" ","ALLEY":" ","HOUSE_NO":"８１９號二十一樓之１","E_COORD97":164756.10999999999,"N_COORD97":2543515.4199999999,"ADDRESS":"永華路二段８１９號二十一樓之１５","OBJECTID":636384},"geometry":{"x":164756.11000000034,"y":2543515.4199999999}},{"attributes":{"ID":636412,"DIS_CODE":0,"TOWNNAME":"安平區","LI":"育平里","LIN":"4鄰","STREET":"永華路","SECT":"二段","MAREA":" ","LANE":" ","ALLEY":" ","HOUSE_NO":"８１９號二十一樓之１","E_COORD97":164756.10999999999,"N_COORD97":2543515.4199999999,"ADDRESS":"永華路二段８１９號二十一樓之１６","OBJECTID":636385},"geometry":{"x":164756.11000000034,"y":2543515.4199999999}},{"attributes":{"ID":636413,"DIS_CODE":0,"TOWNNAME":"安平區","LI":"育平里","LIN":"4鄰","STREET":"永華路","SECT":"二段","MAREA":" ","LANE":" ","ALLEY":" ","HOUSE_NO":"８１９號二十二樓之１","E_COORD97":164756.10999999999,"N_COORD97":2543515.4199999999,"ADDRESS":"永華路二段８１９號二十二樓之１３","OBJECTID":636386},"geometry":{"x":164756.11000000034,"y":2543515.4199999999}},{"attributes":{"ID":636414,"DIS_CODE":0,"TOWNNAME":"安平區","LI":"育平里","LIN":"4鄰","STREET":"永華路","SECT":"二段","MAREA":" ","LANE":" ","ALLEY":" ","HOUSE_NO":"８１９號二十二樓之１","E_COORD97":164756.10999999999,"N_COORD97":2543515.4199999999,"ADDRESS":"永華路二段８１９號二十二樓之１４","OBJECTID":636387},"geometry":{"x":164756.11000000034,"y":2543515.4199999999}},{"attributes":{"ID":636415,"DIS_CODE":0,"TOWNNAME":"安平區","LI":"育平里","LIN":"4鄰","STREET":"永華路","SECT":"二段","MAREA":" ","LANE":" ","ALLEY":" ","HOUSE_NO":"８１９號二十二樓之１","E_COORD97":164756.10999999999,"N_COORD97":2543515.4199999999,"ADDRESS":"永華路二段８１９號二十二樓之１５","OBJECTID":636388},"geometry":{"x":164756.11000000034,"y":2543515.4199999999}},{"attributes":{"ID":636416,"DIS_CODE":0,"TOWNNAME":"安平區","LI":"育平里","LIN":"4鄰","STREET":"永華路","SECT":"二段","MAREA":" ","LANE":" ","ALLEY":" ","HOUSE_NO":"８１９號二十二樓之１","E_COORD97":164756.10999999999,"N_COORD97":2543515.4199999999,"ADDRESS":"永華路二段８１９號二十二樓之１６","OBJECTID":636389},"geometry":{"x":164756.11000000034,"y":2543515.4199999999}},{"attributes":{"ID":636417,"DIS_CODE":0,"TOWNNAME":"安平區","LI":"育平里","LIN":"4鄰","STREET":"永華路","SECT":"二段","MAREA":" ","LANE":" ","ALLEY":" ","HOUSE_NO":"８１９號二十三樓之１","E_COORD97":164756.10999999999,"N_COORD97":2543515.4199999999,"ADDRESS":"永華路二段８１９號二十三樓之１３","OBJECTID":636390},"geometry":{"x":164756.11000000034,"y":2543515.4199999999}},{"attributes":{"ID":636418,"DIS_CODE":0,"TOWNNAME":"安平區","LI":"育平里","LIN":"4鄰","STREET":"永華路","SECT":"二段","MAREA":" ","LANE":" ","ALLEY":" ","HOUSE_NO":"８１９號二十三樓之１","E_COORD97":164756.10999999999,"N_COORD97":2543515.4199999999,"ADDRESS":"永華路二段８１９號二十三樓之１４","OBJECTID":636391},"geometry":{"x":164756.11000000034,"y":2543515.4199999999}},{"attributes":{"ID":636419,"DIS_CODE":0,"TOWNNAME":"安平區","LI":"育平里","LIN":"4鄰","STREET":"永華路","SECT":"二段","MAREA":" ","LANE":" ","ALLEY":" ","HOUSE_NO":"８１９號二十三樓之１","E_COORD97":164756.10999999999,"N_COORD97":2543515.4199999999,"ADDRESS":"永華路二段８１９號二十三樓之１５","OBJECTID":636392},"geometry":{"x":164756.11000000034,"y":2543515.4199999999}},{"attributes":{"ID":636420,"DIS_CODE":0,"TOWNNAME":"安平區","LI":"育平里","LIN":"4鄰","STREET":"永華路","SECT":"二段","MAREA":" ","LANE":" ","ALLEY":" ","HOUSE_NO":"８１９號二十三樓之１","E_COORD97":164756.10999999999,"N_COORD97":2543515.4199999999,"ADDRESS":"永華路二段８１９號二十三樓之１６","OBJECTID":636393},"geometry":{"x":164756.11000000034,"y":2543515.4199999999}},{"attributes":{"ID":636421,"DIS_CODE":0,"TOWNNAME":"安平區","LI":"育平里","LIN":"4鄰","STREET":"永華路","SECT":"二段","MAREA":" ","LANE":" ","ALLEY":" ","HOUSE_NO":"８１９號二十樓之１３","E_COORD97":164756.10999999999,"N_COORD97":2543515.4199999999,"ADDRESS":"永華路二段８１９號二十樓之１３","OBJECTID":636394},"geometry":{"x":164756.11000000034,"y":2543515.4199999999}},{"attributes":{"ID":636422,"DIS_CODE":0,"TOWNNAME":"安平區","LI":"育平里","LIN":"4鄰","STREET":"永華路","SECT":"二段","MAREA":" ","LANE":" ","ALLEY":" ","HOUSE_NO":"８１９號二十樓之１４","E_COORD97":164756.10999999999,"N_COORD97":2543515.4199999999,"ADDRESS":"永華路二段８１９號二十樓之１４","OBJECTID":636395},"geometry":{"x":164756.11000000034,"y":2543515.4199999999}},{"attributes":{"ID":636423,"DIS_CODE":0,"TOWNNAME":"安平區","LI":"育平里","LIN":"4鄰","STREET":"永華路","SECT":"二段","MAREA":" ","LANE":" ","ALLEY":" ","HOUSE_NO":"８１９號二十樓之１５","E_COORD97":164756.10999999999,"N_COORD97":2543515.4199999999,"ADDRESS":"永華路二段８１９號二十樓之１５","OBJECTID":636396},"geometry":{"x":164756.11000000034,"y":2543515.4199999999}},{"attributes":{"ID":636424,"DIS_CODE":0,"TOWNNAME":"安平區","LI":"育平里","LIN":"4鄰","STREET":"永華路","SECT":"二段","MAREA":" ","LANE":" ","ALLEY":" ","HOUSE_NO":"８１９號二十樓之１６","E_COORD97":164756.10999999999,"N_COORD97":2543515.4199999999,"ADDRESS":"永華路二段８１９號二十樓之１６","OBJECTID":636397},"geometry":{"x":164756.11000000034,"y":2543515.4199999999}},{"attributes":{"ID":636425,"DIS_CODE":0,"TOWNNAME":"安平區","LI":"育平里","LIN":"4鄰","STREET":"永華路","SECT":"二段","MAREA":" ","LANE":" ","ALLEY":" ","HOUSE_NO":"８１９號八樓之１３","E_COORD97":164756.10999999999,"N_COORD97":2543515.4199999999,"ADDRESS":"永華路二段８１９號八樓之１３","OBJECTID":636398},"geometry":{"x":164756.11000000034,"y":2543515.4199999999}},{"attributes":{"ID":636426,"DIS_CODE":0,"TOWNNAME":"安平區","LI":"育平里","LIN":"4鄰","STREET":"永華路","SECT":"二段","MAREA":" ","LANE":" ","ALLEY":" ","HOUSE_NO":"８１９號八樓之１４","E_COORD97":164756.10999999999,"N_COORD97":2543515.4199999999,"ADDRESS":"永華路二段８１９號八樓之１４","OBJECTID":636399},"geometry":{"x":164756.11000000034,"y":2543515.4199999999}},{"attributes":{"ID":636427,"DIS_CODE":0,"TOWNNAME":"安平區","LI":"育平里","LIN":"4鄰","STREET":"永華路","SECT":"二段","MAREA":" ","LANE":" ","ALLEY":" ","HOUSE_NO":"８１９號八樓之１５","E_COORD97":164756.10999999999,"N_COORD97":2543515.4199999999,"ADDRESS":"永華路二段８１９號八樓之１５","OBJECTID":636400},"geometry":{"x":164756.11000000034,"y":2543515.4199999999}}]}