{"displayFieldName":"TOWNNAME","fieldAliases":{"ID":"ID","DIS_CODE":"DIS_CODE","TOWNNAME":"TOWNNAME","LI":"LI","LIN":"LIN","STREET":"STREET","SECT":"SECT","MAREA":"MAREA","LANE":"LANE","ALLEY":"ALLEY","HOUSE_NO":"HOUSE_NO","E_COORD97":"E_COORD97","N_COORD97":"N_COORD97","ADDRESS":"ADDRESS","OBJECTID":"OBJECTID"},"geometryType":"esriGeometryPoint","spatialReference":{"wkid":102443,"latestWkid":3826},"fields":[{"name":"ID","type":"esriFieldTypeDouble","alias":"ID"},{"name":"DIS_CODE","type":"esriFieldTypeInteger","alias":"DIS_CODE"},{"name":"TOWNNAME","type":"esriFieldTypeString","alias":"TOWNNAME","length":8},{"name":"LI","type":"esriFieldTypeString","alias":"LI","length":8},{"name":"LIN","type":"esriFieldTypeString","alias":"LIN","length":12},{"name":"STREET","type":"esriFieldTypeString","alias":"STREET","length":20},{"name":"SECT","type":"esriFieldTypeString","alias":"SECT","length":8},{"name":"MAREA","type":"esriFieldTypeString","alias":"MAREA","length":12},{"name":"LANE","type":"esriFieldTypeString","alias":"LANE","length":10},{"name":"ALLEY","type":"esriFieldTypeString","alias":"ALLEY","length":10},{"name":"HOUSE_NO","type":"esriFieldTypeString","alias":"HOUSE_NO","length":20},{"name":"E_COORD97","type":"esriFieldTypeDouble","alias":"E_COORD97"},{"name":"N_COORD97","type":"esriFieldTypeDouble","alias":"N_COORD97"},{"name":"ADDRESS","type":"esriFieldTypeString","alias":"ADDRESS","length":50},{"name":"OBJECTID","type":"esriFieldTypeOID","alias":"OBJECTID"}],"features":[{"attributes":{"ID":22401,"DIS_CODE":0,"TOWNNAME":"大內區","LI":"石湖里","LIN":"17鄰","STREET":" ","SECT":" ","MAREA":"新厝子","LANE":" ","ALLEY":" ","HOUSE_NO":"５９號","E_COORD97":183453.42000000001,"N_COORD97":2560927.25,"ADDRESS":"新厝子５９號","OBJECTID":22401},"geometry":{"x":183453.41999999899,"y":2560927.2500000037}},{"attributes":{"ID":22402,"DIS_CODE":0,"TOWNNAME":"大內區","LI":"石湖里","LIN":"17鄰","STREET":" ","SECT":" ","MAREA":"新厝子","LANE":" ","ALLEY":" ","HOUSE_NO":"４８號","E_COORD97":183477.92000000001,"N_COORD97":2560908.25,"ADDRESS":"新厝子４８號","OBJECTID":22402},"geometry":{"x":183477.92000000086,"y":2560908.2500000019}},{"attributes":{"ID":22403,"DIS_CODE":0,"TOWNNAME":"安平區","LI":"文平里","LIN":"14鄰","STREET":"建平五街","SECT":" ","MAREA":" ","LANE":"２２巷","ALLEY":"１５弄","HOUSE_NO":"１８號五樓之３","E_COORD97":166016.81,"N_COORD97":2543190.2000000002,"ADDRESS":"建平五街２２巷１５弄１８號五樓之３","OBJECTID":22403},"geometry":{"x":166016.80999999959,"y":2543190.1999999993}},{"attributes":{"ID":22404,"DIS_CODE":0,"TOWNNAME":"安平區","LI":"文平里","LIN":"14鄰","STREET":"建平五街","SECT":" ","MAREA":" ","LANE":"２２巷","ALLEY":"１５弄","HOUSE_NO":"１８號六樓之１","E_COORD97":166016.81,"N_COORD97":2543190.2000000002,"ADDRESS":"建平五街２２巷１５弄１８號六樓之１","OBJECTID":22404},"geometry":{"x":166016.80999999959,"y":2543190.1999999993}},{"attributes":{"ID":22405,"DIS_CODE":0,"TOWNNAME":"安平區","LI":"文平里","LIN":"14鄰","STREET":"建平五街","SECT":" ","MAREA":" ","LANE":"２２巷","ALLEY":"１５弄","HOUSE_NO":"１８號六樓之２","E_COORD97":166016.81,"N_COORD97":2543190.2000000002,"ADDRESS":"建平五街２２巷１５弄１８號六樓之２","OBJECTID":22405},"geometry":{"x":166016.80999999959,"y":2543190.1999999993}},{"attributes":{"ID":22406,"DIS_CODE":0,"TOWNNAME":"安平區","LI":"文平里","LIN":"14鄰","STREET":"建平五街","SECT":" ","MAREA":" ","LANE":"２２巷","ALLEY":"１５弄","HOUSE_NO":"１８號六樓之３","E_COORD97":166016.81,"N_COORD97":2543190.2000000002,"ADDRESS":"建平五街２２巷１５弄１８號六樓之３","OBJECTID":22406},"geometry":{"x":166016.80999999959,"y":2543190.1999999993}},{"attributes":{"ID":22407,"DIS_CODE":0,"TOWNNAME":"安平區","LI":"文平里","LIN":"14鄰","STREET":"建平五街","SECT":" ","MAREA":" ","LANE":"２２巷","ALLEY":"１５弄","HOUSE_NO":"１８號四樓之１","E_COORD97":166016.81,"N_COORD97":2543190.2000000002,"ADDRESS":"建平五街２２巷１５弄１８號四樓之１","OBJECTID":22407},"geometry":{"x":166016.80999999959,"y":2543190.1999999993}},{"attributes":{"ID":22408,"DIS_CODE":0,"TOWNNAME":"安平區","LI":"文平里","LIN":"14鄰","STREET":"建平五街","SECT":" ","MAREA":" ","LANE":"２２巷","ALLEY":"１５弄","HOUSE_NO":"１８號四樓之２","E_COORD97":166016.81,"N_COORD97":2543190.2000000002,"ADDRESS":"建平五街２２巷１５弄１８號四樓之２","OBJECTID":22408},"geometry":{"x":166016.80999999959,"y":2543190.1999999993}},{"attributes":{"ID":22409,"DIS_CODE":0,"TOWNNAME":"安平區","LI":"文平里","LIN":"14鄰","STREET":"建平五街","SECT":" ","MAREA":" ","LANE":"２２巷","ALLEY":"１５弄","HOUSE_NO":"１８號四樓之３","E_COORD97":166016.81,"N_COORD97":2543190.2000000002,"ADDRESS":"建平五街２２巷１５弄１８號四樓之３","OBJECTID":22409},"geometry":{"x":166016.80999999959,"y":2543190.1999999993}},{"attributes":{"ID":22410,"DIS_CODE":0,"TOWNNAME":"永康區","LI":"網寮里","LIN":"24鄰","STREET":"永春街","SECT":" ","MAREA":" ","LANE":"３８巷","ALLEY":" ","HOUSE_NO":"１０號","E_COORD97":173765.31,"N_COORD97":2546422.6499999999,"ADDRESS":"永春街３８巷１０號","OBJECTID":22410},"geometry":{"x":173765.30999999959,"y":2546422.6500000004}},{"attributes":{"ID":22411,"DIS_CODE":0,"TOWNNAME":"永康區","LI":"龍潭里","LIN":"24鄰","STREET":"中山北路","SECT":" ","MAREA":" ","LANE":" ","ALLEY":" ","HOUSE_NO":"２８８號","E_COORD97":174781.76999999999,"N_COORD97":2547655.4500000002,"ADDRESS":"中山北路２８８號","OBJECTID":22411},"geometry":{"x":174781.77000000048,"y":2547655.4500000011}},{"attributes":{"ID":22412,"DIS_CODE":0,"TOWNNAME":"永康區","LI":"網寮里","LIN":"24鄰","STREET":"永和街","SECT":" ","MAREA":" ","LANE":" ","ALLEY":" ","HOUSE_NO":"２３號","E_COORD97":173784.23000000001,"N_COORD97":2546478.5899999999,"ADDRESS":"永和街２３號","OBJECTID":22412},"geometry":{"x":173784.22999999952,"y":2546478.5900000017}},{"attributes":{"ID":22413,"DIS_CODE":0,"TOWNNAME":"永康區","LI":"網寮里","LIN":"24鄰","STREET":"永和街","SECT":" ","MAREA":" ","LANE":" ","ALLEY":" ","HOUSE_NO":"３１號","E_COORD97":173762.06,"N_COORD97":2546474.8900000001,"ADDRESS":"永和街３１號","OBJECTID":22413},"geometry":{"x":173762.05999999959,"y":2546474.8900000025}},{"attributes":{"ID":22414,"DIS_CODE":0,"TOWNNAME":"永康區","LI":"網寮里","LIN":"24鄰","STREET":"永和街","SECT":" ","MAREA":" ","LANE":" ","ALLEY":" ","HOUSE_NO":"２７號","E_COORD97":173771.64999999999,"N_COORD97":2546476.6400000001,"ADDRESS":"永和街２７號","OBJECTID":22414},"geometry":{"x":173771.6500000013,"y":2546476.6400000025}},{"attributes":{"ID":22415,"DIS_CODE":0,"TOWNNAME":"永康區","LI":"龍潭里","LIN":"24鄰","STREET":"中山北路","SECT":" ","MAREA":" ","LANE":" ","ALLEY":" ","HOUSE_NO":"２８４號","E_COORD97":174772.32000000001,"N_COORD97":2547654.4500000002,"ADDRESS":"中山北路２８４號","OBJECTID":22415},"geometry":{"x":174772.32000000123,"y":2547654.4499999993}},{"attributes":{"ID":22416,"DIS_CODE":0,"TOWNNAME":"永康區","LI":"龍潭里","LIN":"24鄰","STREET":"中山北路","SECT":" ","MAREA":" ","LANE":" ","ALLEY":" ","HOUSE_NO":"２７０之１號","E_COORD97":174727.76000000001,"N_COORD97":2547657.5,"ADDRESS":"中山北路２７０之１號","OBJECTID":22416},"geometry":{"x":174727.76000000071,"y":2547657.5}},{"attributes":{"ID":22417,"DIS_CODE":0,"TOWNNAME":"永康區","LI":"復華里","LIN":"24鄰","STREET":"復華八街","SECT":" ","MAREA":" ","LANE":" ","ALLEY":" ","HOUSE_NO":"５４號","E_COORD97":172735.20999999999,"N_COORD97":2546243.3700000001,"ADDRESS":"復華八街５４號","OBJECTID":22417},"geometry":{"x":172735.21000000089,"y":2546243.3699999992}},{"attributes":{"ID":22418,"DIS_CODE":0,"TOWNNAME":"永康區","LI":"龍潭里","LIN":"24鄰","STREET":"中山北路","SECT":" ","MAREA":" ","LANE":" ","ALLEY":" ","HOUSE_NO":"３２８號","E_COORD97":174950.32999999999,"N_COORD97":2547653.3399999999,"ADDRESS":"中山北路３２８號","OBJECTID":22418},"geometry":{"x":174950.33000000101,"y":2547653.3400000017}},{"attributes":{"ID":22419,"DIS_CODE":0,"TOWNNAME":"永康區","LI":"網寮里","LIN":"24鄰","STREET":"永和街","SECT":" ","MAREA":" ","LANE":" ","ALLEY":" ","HOUSE_NO":"３３號","E_COORD97":173756.88,"N_COORD97":2546470.3300000001,"ADDRESS":"永和街３３號","OBJECTID":22419},"geometry":{"x":173756.87999999989,"y":2546470.3300000019}},{"attributes":{"ID":22420,"DIS_CODE":0,"TOWNNAME":"安平區","LI":"文平里","LIN":"8鄰","STREET":"建平路","SECT":" ","MAREA":" ","LANE":" ","ALLEY":" ","HOUSE_NO":"２２４號","E_COORD97":166165.14000000001,"N_COORD97":2543147.5699999998,"ADDRESS":"建平路２２４號","OBJECTID":22420},"geometry":{"x":166165.13999999966,"y":2543147.5700000022}},{"attributes":{"ID":22421,"DIS_CODE":0,"TOWNNAME":"安平區","LI":"文平里","LIN":"8鄰","STREET":"建平路","SECT":" ","MAREA":" ","LANE":" ","ALLEY":" ","HOUSE_NO":"２２６號","E_COORD97":166165.42999999999,"N_COORD97":2543153.6000000001,"ADDRESS":"建平路２２６號","OBJECTID":22421},"geometry":{"x":166165.4299999997,"y":2543153.5999999996}},{"attributes":{"ID":22422,"DIS_CODE":0,"TOWNNAME":"安平區","LI":"文平里","LIN":"14鄰","STREET":"建平五街","SECT":" ","MAREA":" ","LANE":"２２巷","ALLEY":"１５弄","HOUSE_NO":"２０號二樓之１","E_COORD97":166005.89999999999,"N_COORD97":2543183.4900000002,"ADDRESS":"建平五街２２巷１５弄２０號二樓之１","OBJECTID":22422},"geometry":{"x":166005.9000000013,"y":2543183.4899999984}},{"attributes":{"ID":22423,"DIS_CODE":0,"TOWNNAME":"安平區","LI":"文平里","LIN":"14鄰","STREET":"建平五街","SECT":" ","MAREA":" ","LANE":"２２巷","ALLEY":"１５弄","HOUSE_NO":"２０號二樓之２","E_COORD97":166005.89999999999,"N_COORD97":2543183.4900000002,"ADDRESS":"建平五街２２巷１５弄２０號二樓之２","OBJECTID":22423},"geometry":{"x":166005.9000000013,"y":2543183.4899999984}},{"attributes":{"ID":22424,"DIS_CODE":0,"TOWNNAME":"北區","LI":"六甲里","LIN":"3鄰","STREET":"公園路","SECT":" ","MAREA":" ","LANE":" ","ALLEY":" ","HOUSE_NO":"４９５號","E_COORD97":169041.67999999999,"N_COORD97":2545520.8300000001,"ADDRESS":"公園路４９５號","OBJECTID":22424},"geometry":{"x":169041.6799999997,"y":2545520.8300000038}},{"attributes":{"ID":22425,"DIS_CODE":0,"TOWNNAME":"北區","LI":"六甲里","LIN":"3鄰","STREET":"公園路","SECT":" ","MAREA":" ","LANE":" ","ALLEY":" ","HOUSE_NO":"４９３號","E_COORD97":169040.59,"N_COORD97":2545516.77,"ADDRESS":"公園路４９３號","OBJECTID":22425},"geometry":{"x":169040.59000000078,"y":2545516.7699999996}},{"attributes":{"ID":22426,"DIS_CODE":0,"TOWNNAME":"白河區","LI":"永安里","LIN":" ","STREET":"昇平街","SECT":" ","MAREA":" ","LANE":" ","ALLEY":" ","HOUSE_NO":"５號","E_COORD97":190146.48999999999,"N_COORD97":2583167.6499999999,"ADDRESS":"昇平街５號","OBJECTID":22426},"geometry":{"x":190146.49000000115,"y":2583167.6500000004}},{"attributes":{"ID":22427,"DIS_CODE":0,"TOWNNAME":"安平區","LI":"文平里","LIN":"14鄰","STREET":"建平五街","SECT":" ","MAREA":" ","LANE":"２２巷","ALLEY":"１５弄","HOUSE_NO":"２０號三樓之１","E_COORD97":166005.89999999999,"N_COORD97":2543183.4900000002,"ADDRESS":"建平五街２２巷１５弄２０號三樓之１","OBJECTID":22427},"geometry":{"x":166005.9000000013,"y":2543183.4899999984}},{"attributes":{"ID":22428,"DIS_CODE":0,"TOWNNAME":"安平區","LI":"文平里","LIN":"14鄰","STREET":"建平五街","SECT":" ","MAREA":" ","LANE":"２２巷","ALLEY":"１５弄","HOUSE_NO":"２０號三樓之２","E_COORD97":166005.89999999999,"N_COORD97":2543183.4900000002,"ADDRESS":"建平五街２２巷１５弄２０號三樓之２","OBJECTID":22428},"geometry":{"x":166005.9000000013,"y":2543183.4899999984}},{"attributes":{"ID":22429,"DIS_CODE":0,"TOWNNAME":"安平區","LI":"文平里","LIN":"14鄰","STREET":"建平五街","SECT":" ","MAREA":" ","LANE":"２２巷","ALLEY":"１５弄","HOUSE_NO":"２０號三樓之３","E_COORD97":166005.89999999999,"N_COORD97":2543183.4900000002,"ADDRESS":"建平五街２２巷１５弄２０號三樓之３","OBJECTID":22429},"geometry":{"x":166005.9000000013,"y":2543183.4899999984}},{"attributes":{"ID":22430,"DIS_CODE":0,"TOWNNAME":"安平區","LI":"文平里","LIN":"14鄰","STREET":"建平五街","SECT":" ","MAREA":" ","LANE":"２２巷","ALLEY":"１５弄","HOUSE_NO":"２０號五樓之１","E_COORD97":166005.89999999999,"N_COORD97":2543183.4900000002,"ADDRESS":"建平五街２２巷１５弄２０號五樓之１","OBJECTID":22430},"geometry":{"x":166005.9000000013,"y":2543183.4899999984}},{"attributes":{"ID":22431,"DIS_CODE":0,"TOWNNAME":"安平區","LI":"文平里","LIN":"14鄰","STREET":"建平五街","SECT":" ","MAREA":" ","LANE":"２２巷","ALLEY":"１５弄","HOUSE_NO":"２０號五樓之２","E_COORD97":166005.89999999999,"N_COORD97":2543183.4900000002,"ADDRESS":"建平五街２２巷１５弄２０號五樓之２","OBJECTID":22431},"geometry":{"x":166005.9000000013,"y":2543183.4899999984}},{"attributes":{"ID":22432,"DIS_CODE":0,"TOWNNAME":"安平區","LI":"文平里","LIN":"14鄰","STREET":"建平五街","SECT":" ","MAREA":" ","LANE":"２２巷","ALLEY":"１５弄","HOUSE_NO":"２０號五樓之３","E_COORD97":166005.89999999999,"N_COORD97":2543183.4900000002,"ADDRESS":"建平五街２２巷１５弄２０號五樓之３","OBJECTID":22432},"geometry":{"x":166005.9000000013,"y":2543183.4899999984}},{"attributes":{"ID":22433,"DIS_CODE":0,"TOWNNAME":"佳里區","LI":"忠仁里","LIN":"14鄰","STREET":"信義一街","SECT":" ","MAREA":" ","LANE":"２７１巷","ALLEY":"３１弄","HOUSE_NO":"６號","E_COORD97":166103.29999999999,"N_COORD97":2562180.1899999999,"ADDRESS":"信義一街２７１巷３１弄６號","OBJECTID":22433},"geometry":{"x":166103.29999999981,"y":2562180.1899999995}},{"attributes":{"ID":22434,"DIS_CODE":0,"TOWNNAME":"安平區","LI":"文平里","LIN":"14鄰","STREET":"建平五街","SECT":" ","MAREA":" ","LANE":"２２巷","ALLEY":"１５弄","HOUSE_NO":"２０號六樓","E_COORD97":166005.89999999999,"N_COORD97":2543183.4900000002,"ADDRESS":"建平五街２２巷１５弄２０號六樓","OBJECTID":22434},"geometry":{"x":166005.9000000013,"y":2543183.4899999984}},{"attributes":{"ID":22435,"DIS_CODE":0,"TOWNNAME":"安平區","LI":"文平里","LIN":"14鄰","STREET":"建平五街","SECT":" ","MAREA":" ","LANE":"２２巷","ALLEY":"１５弄","HOUSE_NO":"２０號四樓之１","E_COORD97":166005.89999999999,"N_COORD97":2543183.4900000002,"ADDRESS":"建平五街２２巷１５弄２０號四樓之１","OBJECTID":22435},"geometry":{"x":166005.9000000013,"y":2543183.4899999984}},{"attributes":{"ID":22436,"DIS_CODE":0,"TOWNNAME":"安平區","LI":"文平里","LIN":"14鄰","STREET":"建平五街","SECT":" ","MAREA":" ","LANE":"２２巷","ALLEY":"１５弄","HOUSE_NO":"２０號四樓之２","E_COORD97":166005.89999999999,"N_COORD97":2543183.4900000002,"ADDRESS":"建平五街２２巷１５弄２０號四樓之２","OBJECTID":22436},"geometry":{"x":166005.9000000013,"y":2543183.4899999984}},{"attributes":{"ID":22437,"DIS_CODE":0,"TOWNNAME":"安平區","LI":"文平里","LIN":"14鄰","STREET":"建平五街","SECT":" ","MAREA":" ","LANE":"２２巷","ALLEY":"１５弄","HOUSE_NO":"２０號四樓之３","E_COORD97":166005.89999999999,"N_COORD97":2543183.4900000002,"ADDRESS":"建平五街２２巷１５弄２０號四樓之３","OBJECTID":22437},"geometry":{"x":166005.9000000013,"y":2543183.4899999984}},{"attributes":{"ID":22438,"DIS_CODE":0,"TOWNNAME":"安平區","LI":"國平里","LIN":"5鄰","STREET":"建平五街","SECT":" ","MAREA":" ","LANE":" ","ALLEY":" ","HOUSE_NO":"１８１號","E_COORD97":165602.48999999999,"N_COORD97":2543170.4100000001,"ADDRESS":"建平五街１８１號","OBJECTID":22438},"geometry":{"x":165602.49000000022,"y":2543170.4099999983}},{"attributes":{"ID":22439,"DIS_CODE":0,"TOWNNAME":"安平區","LI":"國平里","LIN":"5鄰","STREET":"建平五街","SECT":" ","MAREA":" ","LANE":" ","ALLEY":" ","HOUSE_NO":"１８３號","E_COORD97":165598.45999999999,"N_COORD97":2543170.8799999999,"ADDRESS":"建平五街１８３號","OBJECTID":22439},"geometry":{"x":165598.46000000089,"y":2543170.8800000008}},{"attributes":{"ID":22440,"DIS_CODE":0,"TOWNNAME":"北區","LI":"玉皇里","LIN":" ","STREET":"崇安街","SECT":" ","MAREA":" ","LANE":" ","ALLEY":" ","HOUSE_NO":"８５號","E_COORD97":168735.73000000001,"N_COORD97":2544596.3100000001,"ADDRESS":"崇安街８５號","OBJECTID":22440},"geometry":{"x":168735.73000000045,"y":2544596.3100000024}},{"attributes":{"ID":22441,"DIS_CODE":0,"TOWNNAME":"新營區","LI":"忠政里","LIN":"30鄰","STREET":"府西路","SECT":" ","MAREA":" ","LANE":" ","ALLEY":" ","HOUSE_NO":"６７號","E_COORD97":179757.98999999999,"N_COORD97":2579120.9399999999,"ADDRESS":"府西路６７號","OBJECTID":22441},"geometry":{"x":179757.99000000115,"y":2579120.9399999995}},{"attributes":{"ID":22442,"DIS_CODE":0,"TOWNNAME":"北區","LI":"公園里","LIN":" ","STREET":"富北街","SECT":" ","MAREA":" ","LANE":" ","ALLEY":" ","HOUSE_NO":"３４號","E_COORD97":169167.81,"N_COORD97":2544358.25,"ADDRESS":"富北街３４號","OBJECTID":22442},"geometry":{"x":169167.80999999959,"y":2544358.2500000037}},{"attributes":{"ID":22443,"DIS_CODE":0,"TOWNNAME":"北區","LI":"文元里","LIN":" ","STREET":"文賢路","SECT":" ","MAREA":" ","LANE":" ","ALLEY":" ","HOUSE_NO":"１１８８號","E_COORD97":167319.57999999999,"N_COORD97":2546476.5600000001,"ADDRESS":"文賢路１１８８號","OBJECTID":22443},"geometry":{"x":167319.58000000194,"y":2546476.5600000024}},{"attributes":{"ID":22444,"DIS_CODE":0,"TOWNNAME":"北區","LI":"文元里","LIN":"13鄰","STREET":"文賢路","SECT":" ","MAREA":" ","LANE":" ","ALLEY":" ","HOUSE_NO":"１１８２號","E_COORD97":167322.64000000001,"N_COORD97":2546463.5099999998,"ADDRESS":"文賢路１１８２號","OBJECTID":22444},"geometry":{"x":167322.6400000006,"y":2546463.5099999998}},{"attributes":{"ID":22445,"DIS_CODE":0,"TOWNNAME":"北區","LI":"文元里","LIN":"13鄰","STREET":"文賢路","SECT":" ","MAREA":" ","LANE":" ","ALLEY":" ","HOUSE_NO":"１１８６號","E_COORD97":167320.69,"N_COORD97":2546472.3900000001,"ADDRESS":"文賢路１１８６號","OBJECTID":22445},"geometry":{"x":167320.68999999948,"y":2546472.3900000006}},{"attributes":{"ID":22446,"DIS_CODE":0,"TOWNNAME":"北區","LI":"文元里","LIN":" ","STREET":"文賢路","SECT":" ","MAREA":" ","LANE":" ","ALLEY":" ","HOUSE_NO":"１１６８號","E_COORD97":167327.48999999999,"N_COORD97":2546428.8500000001,"ADDRESS":"文賢路１１６８號","OBJECTID":22446},"geometry":{"x":167327.49000000115,"y":2546428.8500000034}},{"attributes":{"ID":22447,"DIS_CODE":0,"TOWNNAME":"北區","LI":"文元里","LIN":" ","STREET":"中華北路","SECT":"二段","MAREA":" ","LANE":" ","ALLEY":" ","HOUSE_NO":"１０號","E_COORD97":167375.70000000001,"N_COORD97":2546519.79,"ADDRESS":"中華北路二段１０號","OBJECTID":22447},"geometry":{"x":167375.70000000019,"y":2546519.7899999972}},{"attributes":{"ID":22448,"DIS_CODE":0,"TOWNNAME":"北區","LI":"文元里","LIN":"14鄰","STREET":"文賢路","SECT":" ","MAREA":" ","LANE":" ","ALLEY":" ","HOUSE_NO":"１０７２號","E_COORD97":167362.98000000001,"N_COORD97":2546173.5800000001,"ADDRESS":"文賢路１０７２號","OBJECTID":22448},"geometry":{"x":167362.98000000231,"y":2546173.5800000019}},{"attributes":{"ID":22449,"DIS_CODE":0,"TOWNNAME":"北區","LI":"文元里","LIN":"6鄰","STREET":"文賢二街","SECT":" ","MAREA":" ","LANE":" ","ALLEY":" ","HOUSE_NO":"３９２號","E_COORD97":167697.14000000001,"N_COORD97":2546028.4300000002,"ADDRESS":"文賢二街３９２號","OBJECTID":22449},"geometry":{"x":167697.1400000006,"y":2546028.4300000016}},{"attributes":{"ID":22450,"DIS_CODE":0,"TOWNNAME":"北區","LI":"文元里","LIN":"6鄰","STREET":"文賢二街","SECT":" ","MAREA":" ","LANE":" ","ALLEY":" ","HOUSE_NO":"３８６號","E_COORD97":167699.14000000001,"N_COORD97":2546015.5899999999,"ADDRESS":"文賢二街３８６號","OBJECTID":22450},"geometry":{"x":167699.1400000006,"y":2546015.5899999999}},{"attributes":{"ID":22451,"DIS_CODE":0,"TOWNNAME":"大內區","LI":"石湖里","LIN":"17鄰","STREET":" ","SECT":" ","MAREA":"新厝子","LANE":" ","ALLEY":" ","HOUSE_NO":"４７號","E_COORD97":183478.32000000001,"N_COORD97":2560903.25,"ADDRESS":"新厝子４７號","OBJECTID":22451},"geometry":{"x":183478.32000000216,"y":2560903.2500000037}},{"attributes":{"ID":22452,"DIS_CODE":0,"TOWNNAME":"大內區","LI":"石湖里","LIN":"17鄰","STREET":" ","SECT":" ","MAREA":"新厝子","LANE":" ","ALLEY":" ","HOUSE_NO":"５５號","E_COORD97":183459.72,"N_COORD97":2560905.25,"ADDRESS":"新厝子５５號","OBJECTID":22452},"geometry":{"x":183459.7200000016,"y":2560905.25}},{"attributes":{"ID":22453,"DIS_CODE":0,"TOWNNAME":"北區","LI":"文元里","LIN":"6鄰","STREET":"文賢二街","SECT":" ","MAREA":" ","LANE":" ","ALLEY":" ","HOUSE_NO":"３８２號","E_COORD97":167699.35999999999,"N_COORD97":2546011.8300000001,"ADDRESS":"文賢二街３８２號","OBJECTID":22453},"geometry":{"x":167699.3600000022,"y":2546011.8300000001}},{"attributes":{"ID":22454,"DIS_CODE":0,"TOWNNAME":"北區","LI":"文元里","LIN":"6鄰","STREET":"文賢二街","SECT":" ","MAREA":" ","LANE":" ","ALLEY":" ","HOUSE_NO":"３８０號","E_COORD97":167700.01999999999,"N_COORD97":2546007.6200000001,"ADDRESS":"文賢二街３８０號","OBJECTID":22454},"geometry":{"x":167700.01999999955,"y":2546007.620000001}},{"attributes":{"ID":22455,"DIS_CODE":0,"TOWNNAME":"北區","LI":"文元里","LIN":"6鄰","STREET":"文賢二街","SECT":" ","MAREA":" ","LANE":" ","ALLEY":" ","HOUSE_NO":"３７８號","E_COORD97":167700.01999999999,"N_COORD97":2546004.0800000001,"ADDRESS":"文賢二街３７８號","OBJECTID":22455},"geometry":{"x":167700.01999999955,"y":2546004.0800000019}},{"attributes":{"ID":22456,"DIS_CODE":0,"TOWNNAME":"安平區","LI":"文平里","LIN":"14鄰","STREET":"建平五街","SECT":" ","MAREA":" ","LANE":"２２巷","ALLEY":"１５弄","HOUSE_NO":"２０號四樓之一","E_COORD97":166005.89999999999,"N_COORD97":2543183.4900000002,"ADDRESS":"建平五街２２巷１５弄２０號四樓之一","OBJECTID":22456},"geometry":{"x":166005.9000000013,"y":2543183.4899999984}},{"attributes":{"ID":22457,"DIS_CODE":0,"TOWNNAME":"南區","LI":"南華里","LIN":"14鄰","STREET":"中華南路","SECT":"二段","MAREA":" ","LANE":"３０２巷","ALLEY":"３弄","HOUSE_NO":"１１號二樓","E_COORD97":166597.14000000001,"N_COORD97":2540352.9500000002,"ADDRESS":"中華南路二段３０２巷３弄１１號二樓","OBJECTID":22457},"geometry":{"x":166597.1400000006,"y":2540352.9500000011}},{"attributes":{"ID":22458,"DIS_CODE":0,"TOWNNAME":"北區","LI":"文元里","LIN":"6鄰","STREET":"文賢二街","SECT":" ","MAREA":" ","LANE":" ","ALLEY":" ","HOUSE_NO":"３７６號","E_COORD97":167700.69,"N_COORD97":2545999.8700000001,"ADDRESS":"文賢二街３７６號","OBJECTID":22458},"geometry":{"x":167700.69000000134,"y":2545999.8700000029}},{"attributes":{"ID":22459,"DIS_CODE":0,"TOWNNAME":"北區","LI":"文元里","LIN":"6鄰","STREET":"文賢二街","SECT":" ","MAREA":" ","LANE":" ","ALLEY":" ","HOUSE_NO":"３７２號","E_COORD97":167701.79999999999,"N_COORD97":2545995,"ADDRESS":"文賢二街３７２號","OBJECTID":22459},"geometry":{"x":167701.79999999981,"y":2545995.0000000019}},{"attributes":{"ID":22460,"DIS_CODE":0,"TOWNNAME":"北區","LI":"文元里","LIN":"6鄰","STREET":"文賢二街","SECT":" ","MAREA":" ","LANE":" ","ALLEY":" ","HOUSE_NO":"３７０號","E_COORD97":167702.23999999999,"N_COORD97":2545990.1299999999,"ADDRESS":"文賢二街３７０號","OBJECTID":22460},"geometry":{"x":167702.24000000115,"y":2545990.1300000008}},{"attributes":{"ID":22461,"DIS_CODE":0,"TOWNNAME":"南區","LI":"南華里","LIN":"14鄰","STREET":"中華南路","SECT":"二段","MAREA":" ","LANE":"３０２巷","ALLEY":"３弄","HOUSE_NO":"１１號三樓","E_COORD97":166597.14000000001,"N_COORD97":2540352.9500000002,"ADDRESS":"中華南路二段３０２巷３弄１１號三樓","OBJECTID":22461},"geometry":{"x":166597.1400000006,"y":2540352.9500000011}},{"attributes":{"ID":22462,"DIS_CODE":0,"TOWNNAME":"北區","LI":"文元里","LIN":"1鄰","STREET":"北成路","SECT":" ","MAREA":" ","LANE":" ","ALLEY":" ","HOUSE_NO":"４２５號","E_COORD97":167940.70999999999,"N_COORD97":2546543.0800000001,"ADDRESS":"北城路４２５號","OBJECTID":22462},"geometry":{"x":167940.71000000183,"y":2546543.0800000038}},{"attributes":{"ID":22463,"DIS_CODE":0,"TOWNNAME":"南區","LI":"南華里","LIN":"14鄰","STREET":"中華南路","SECT":"二段","MAREA":" ","LANE":"３０２巷","ALLEY":"３弄","HOUSE_NO":"１１號五樓","E_COORD97":166597.14000000001,"N_COORD97":2540352.9500000002,"ADDRESS":"中華南路二段３０２巷３弄１１號五樓","OBJECTID":22463},"geometry":{"x":166597.1400000006,"y":2540352.9500000011}},{"attributes":{"ID":22464,"DIS_CODE":0,"TOWNNAME":"北區","LI":"文成里","LIN":" ","STREET":"文賢路","SECT":" ","MAREA":" ","LANE":" ","ALLEY":" ","HOUSE_NO":"４９０號","E_COORD97":167349.45999999999,"N_COORD97":2545214.29,"ADDRESS":"文賢路４９０號","OBJECTID":22464},"geometry":{"x":167349.46000000089,"y":2545214.2899999991}},{"attributes":{"ID":22465,"DIS_CODE":0,"TOWNNAME":"北區","LI":"文成里","LIN":" ","STREET":"文賢路","SECT":" ","MAREA":" ","LANE":" ","ALLEY":" ","HOUSE_NO":"６１０號","E_COORD97":167375.76999999999,"N_COORD97":2545507.9100000001,"ADDRESS":"文賢路６１０號","OBJECTID":22465},"geometry":{"x":167375.77000000048,"y":2545507.910000002}},{"attributes":{"ID":22466,"DIS_CODE":0,"TOWNNAME":"南區","LI":"南華里","LIN":"14鄰","STREET":"中華南路","SECT":"二段","MAREA":" ","LANE":"３０２巷","ALLEY":"３弄","HOUSE_NO":"１１號四樓","E_COORD97":166597.14000000001,"N_COORD97":2540352.9500000002,"ADDRESS":"中華南路二段３０２巷３弄１１號四樓","OBJECTID":22466},"geometry":{"x":166597.1400000006,"y":2540352.9500000011}},{"attributes":{"ID":22467,"DIS_CODE":0,"TOWNNAME":"南區","LI":"南華里","LIN":"14鄰","STREET":"中華南路","SECT":"二段","MAREA":" ","LANE":"３０２巷","ALLEY":"３弄","HOUSE_NO":"１號二樓","E_COORD97":166639.34,"N_COORD97":2540352.7200000002,"ADDRESS":"中華南路二段３０２巷３弄１號二樓","OBJECTID":22467},"geometry":{"x":166639.34000000171,"y":2540352.7200000025}},{"attributes":{"ID":22468,"DIS_CODE":0,"TOWNNAME":"南區","LI":"南華里","LIN":"14鄰","STREET":"中華南路","SECT":"二段","MAREA":" ","LANE":"３０２巷","ALLEY":"３弄","HOUSE_NO":"１號三樓","E_COORD97":166639.34,"N_COORD97":2540352.7200000002,"ADDRESS":"中華南路二段３０２巷３弄１號三樓","OBJECTID":22468},"geometry":{"x":166639.34000000171,"y":2540352.7200000025}},{"attributes":{"ID":22469,"DIS_CODE":0,"TOWNNAME":"南區","LI":"南華里","LIN":"14鄰","STREET":"中華南路","SECT":"二段","MAREA":" ","LANE":"３０２巷","ALLEY":"３弄","HOUSE_NO":"１號五樓","E_COORD97":166639.34,"N_COORD97":2540352.7200000002,"ADDRESS":"中華南路二段３０２巷３弄１號五樓","OBJECTID":22469},"geometry":{"x":166639.34000000171,"y":2540352.7200000025}},{"attributes":{"ID":22470,"DIS_CODE":0,"TOWNNAME":"南區","LI":"南華里","LIN":"14鄰","STREET":"中華南路","SECT":"二段","MAREA":" ","LANE":"３０２巷","ALLEY":"３弄","HOUSE_NO":"１號四樓","E_COORD97":166639.34,"N_COORD97":2540352.7200000002,"ADDRESS":"中華南路二段３０２巷３弄１號四樓","OBJECTID":22470},"geometry":{"x":166639.34000000171,"y":2540352.7200000025}},{"attributes":{"ID":22471,"DIS_CODE":0,"TOWNNAME":"南區","LI":"南華里","LIN":"14鄰","STREET":"中華南路","SECT":"二段","MAREA":" ","LANE":"３０２巷","ALLEY":"３弄","HOUSE_NO":"２號二樓","E_COORD97":166639.10999999999,"N_COORD97":2540378.0499999998,"ADDRESS":"中華南路二段３０２巷３弄２號二樓","OBJECTID":22471},"geometry":{"x":166639.11000000034,"y":2540378.0500000026}},{"attributes":{"ID":22472,"DIS_CODE":0,"TOWNNAME":"南區","LI":"南華里","LIN":"14鄰","STREET":"中華南路","SECT":"二段","MAREA":" ","LANE":"３０２巷","ALLEY":"３弄","HOUSE_NO":"２號三樓","E_COORD97":166639.10999999999,"N_COORD97":2540378.0499999998,"ADDRESS":"中華南路二段３０２巷３弄２號三樓","OBJECTID":22472},"geometry":{"x":166639.11000000034,"y":2540378.0500000026}},{"attributes":{"ID":22473,"DIS_CODE":0,"TOWNNAME":"南區","LI":"南華里","LIN":"14鄰","STREET":"中華南路","SECT":"二段","MAREA":" ","LANE":"３０２巷","ALLEY":"３弄","HOUSE_NO":"２號五樓","E_COORD97":166639.10999999999,"N_COORD97":2540378.0499999998,"ADDRESS":"中華南路二段３０２巷３弄２號五樓","OBJECTID":22473},"geometry":{"x":166639.11000000034,"y":2540378.0500000026}},{"attributes":{"ID":22474,"DIS_CODE":0,"TOWNNAME":"南區","LI":"南華里","LIN":"14鄰","STREET":"中華南路","SECT":"二段","MAREA":" ","LANE":"３０２巷","ALLEY":"３弄","HOUSE_NO":"２號四樓","E_COORD97":166639.10999999999,"N_COORD97":2540378.0499999998,"ADDRESS":"中華南路二段３０２巷３弄２號四樓","OBJECTID":22474},"geometry":{"x":166639.11000000034,"y":2540378.0500000026}},{"attributes":{"ID":22475,"DIS_CODE":0,"TOWNNAME":"北區","LI":"正風里","LIN":"4鄰","STREET":"公園路","SECT":" ","MAREA":" ","LANE":" ","ALLEY":" ","HOUSE_NO":"９２０號","E_COORD97":169395.10999999999,"N_COORD97":2546180.6699999999,"ADDRESS":"公園路９２０號","OBJECTID":22475},"geometry":{"x":169395.11000000127,"y":2546180.6700000018}},{"attributes":{"ID":22476,"DIS_CODE":0,"TOWNNAME":"安南區","LI":"安慶里","LIN":"24鄰","STREET":"安中路","SECT":"一段","MAREA":" ","LANE":" ","ALLEY":" ","HOUSE_NO":"２０９號之７","E_COORD97":168627.98000000001,"N_COORD97":2548568.9700000002,"ADDRESS":"安中路一段２０９號之７","OBJECTID":22476},"geometry":{"x":168627.98000000138,"y":2548568.9700000025}},{"attributes":{"ID":22477,"DIS_CODE":0,"TOWNNAME":"安南區","LI":"安東里","LIN":"24鄰","STREET":"安和路","SECT":"二段","MAREA":" ","LANE":" ","ALLEY":" ","HOUSE_NO":"２０號","E_COORD97":169453.31,"N_COORD97":2548569.3500000001,"ADDRESS":"安和路二段２０號","OBJECTID":22477},"geometry":{"x":169453.31000000145,"y":2548569.3500000015}},{"attributes":{"ID":22478,"DIS_CODE":0,"TOWNNAME":"北區","LI":"正風里","LIN":"4鄰","STREET":"公園路","SECT":" ","MAREA":" ","LANE":" ","ALLEY":" ","HOUSE_NO":"９２４號之１","E_COORD97":169401.14000000001,"N_COORD97":2546189.1699999999,"ADDRESS":"公園路９２４號之１","OBJECTID":22478},"geometry":{"x":169401.1400000006,"y":2546189.1699999999}},{"attributes":{"ID":22479,"DIS_CODE":0,"TOWNNAME":"北區","LI":"正風里","LIN":" ","STREET":"公園路","SECT":" ","MAREA":" ","LANE":" ","ALLEY":" ","HOUSE_NO":"９２４號","E_COORD97":169396.97,"N_COORD97":2546184.3900000001,"ADDRESS":"公園路９２４號","OBJECTID":22479},"geometry":{"x":169396.97000000067,"y":2546184.3900000006}},{"attributes":{"ID":22480,"DIS_CODE":0,"TOWNNAME":"北區","LI":"正風里","LIN":"4鄰","STREET":"公園路","SECT":" ","MAREA":" ","LANE":" ","ALLEY":" ","HOUSE_NO":"９２６號","E_COORD97":169405.73999999999,"N_COORD97":2546193.8599999999,"ADDRESS":"公園路９２６號","OBJECTID":22480},"geometry":{"x":169405.74000000115,"y":2546193.8599999994}},{"attributes":{"ID":22481,"DIS_CODE":0,"TOWNNAME":"北區","LI":"正風里","LIN":"4鄰","STREET":"公園路","SECT":" ","MAREA":" ","LANE":" ","ALLEY":" ","HOUSE_NO":"９２８號","E_COORD97":169408.23000000001,"N_COORD97":2546197.5600000001,"ADDRESS":"公園路９２８號","OBJECTID":22481},"geometry":{"x":169408.23000000045,"y":2546197.5600000042}},{"attributes":{"ID":22482,"DIS_CODE":0,"TOWNNAME":"大內區","LI":"石湖里","LIN":"17鄰","STREET":" ","SECT":" ","MAREA":"新厝子","LANE":" ","ALLEY":" ","HOUSE_NO":"５４號","E_COORD97":183460.62,"N_COORD97":2560900.25,"ADDRESS":"新厝子５４號","OBJECTID":22482},"geometry":{"x":183460.62000000011,"y":2560900.2500000019}},{"attributes":{"ID":22483,"DIS_CODE":0,"TOWNNAME":"大內區","LI":"石湖里","LIN":"17鄰","STREET":" ","SECT":" ","MAREA":"新厝子","LANE":" ","ALLEY":" ","HOUSE_NO":"６８號","E_COORD97":183453.82000000001,"N_COORD97":2560974.25,"ADDRESS":"新厝子６８號","OBJECTID":22483},"geometry":{"x":183453.8200000003,"y":2560974.2499999981}},{"attributes":{"ID":22484,"DIS_CODE":0,"TOWNNAME":"北區","LI":"正覺里","LIN":" ","STREET":"公園路","SECT":" ","MAREA":" ","LANE":" ","ALLEY":" ","HOUSE_NO":"７２５號","E_COORD97":169540.79999999999,"N_COORD97":2546415.2599999998,"ADDRESS":"公園路７２５號","OBJECTID":22484},"geometry":{"x":169540.80000000075,"y":2546415.2599999998}},{"attributes":{"ID":22485,"DIS_CODE":0,"TOWNNAME":"北區","LI":"正覺里","LIN":" ","STREET":"公園路","SECT":" ","MAREA":" ","LANE":" ","ALLEY":" ","HOUSE_NO":"７５９號之４","E_COORD97":169596.35000000001,"N_COORD97":2546518.46,"ADDRESS":"公園路７５９號之４","OBJECTID":22485},"geometry":{"x":169596.35000000056,"y":2546518.4600000028}},{"attributes":{"ID":22486,"DIS_CODE":0,"TOWNNAME":"北區","LI":"玉皇里","LIN":" ","STREET":"公園路","SECT":" ","MAREA":" ","LANE":" ","ALLEY":" ","HOUSE_NO":"１５５之１號","E_COORD97":168721.39999999999,"N_COORD97":2544342.1899999999,"ADDRESS":"公園路１５５之１號","OBJECTID":22486},"geometry":{"x":168721.4000000013,"y":2544342.1900000013}},{"attributes":{"ID":22487,"DIS_CODE":0,"TOWNNAME":"北區","LI":"玉皇里","LIN":" ","STREET":"公園路","SECT":" ","MAREA":" ","LANE":" ","ALLEY":" ","HOUSE_NO":"２１５號","E_COORD97":168785.89999999999,"N_COORD97":2544460.7599999998,"ADDRESS":"公園路２１５號","OBJECTID":22487},"geometry":{"x":168785.9000000013,"y":2544460.7600000016}},{"attributes":{"ID":22488,"DIS_CODE":0,"TOWNNAME":"北區","LI":"玉皇里","LIN":" ","STREET":"成功路","SECT":" ","MAREA":" ","LANE":" ","ALLEY":" ","HOUSE_NO":"１０８號","E_COORD97":168562.07999999999,"N_COORD97":2544330.3599999999,"ADDRESS":"成功路１０８號","OBJECTID":22488},"geometry":{"x":168562.08000000194,"y":2544330.3600000013}},{"attributes":{"ID":22489,"DIS_CODE":0,"TOWNNAME":"北區","LI":"玉皇里","LIN":" ","STREET":"忠義路","SECT":"三段","MAREA":" ","LANE":" ","ALLEY":" ","HOUSE_NO":"９６號","E_COORD97":168616.97,"N_COORD97":2544626.4100000001,"ADDRESS":"忠義路三段９６號","OBJECTID":22489},"geometry":{"x":168616.97000000067,"y":2544626.410000002}},{"attributes":{"ID":22490,"DIS_CODE":0,"TOWNNAME":"北區","LI":"光武里","LIN":" ","STREET":"長榮路","SECT":"五段","MAREA":" ","LANE":" ","ALLEY":" ","HOUSE_NO":"３９３之１號","E_COORD97":169388.92999999999,"N_COORD97":2545817.2000000002,"ADDRESS":"長榮路五段３９３之１號","OBJECTID":22490},"geometry":{"x":169388.93000000063,"y":2545817.2000000011}},{"attributes":{"ID":22491,"DIS_CODE":0,"TOWNNAME":"北區","LI":"光武里","LIN":"6鄰","STREET":"長榮路","SECT":"五段","MAREA":" ","LANE":" ","ALLEY":" ","HOUSE_NO":"３９３號","E_COORD97":169406.42999999999,"N_COORD97":2545936.8500000001,"ADDRESS":"長榮路五段３９３號","OBJECTID":22491},"geometry":{"x":169406.4299999997,"y":2545936.8499999978}},{"attributes":{"ID":22492,"DIS_CODE":0,"TOWNNAME":"北區","LI":"安民里","LIN":"10鄰","STREET":"成功路","SECT":" ","MAREA":" ","LANE":" ","ALLEY":" ","HOUSE_NO":"４１２號","E_COORD97":167840.82999999999,"N_COORD97":2544601.77,"ADDRESS":"成功路４１２號","OBJECTID":22492},"geometry":{"x":167840.83000000007,"y":2544601.7700000033}},{"attributes":{"ID":22493,"DIS_CODE":0,"TOWNNAME":"北區","LI":"安民里","LIN":"10鄰","STREET":"成功路","SECT":" ","MAREA":" ","LANE":" ","ALLEY":" ","HOUSE_NO":"４１４號","E_COORD97":167835.14999999999,"N_COORD97":2544600.9300000002,"ADDRESS":"成功路４１４號","OBJECTID":22493},"geometry":{"x":167835.1500000013,"y":2544600.9300000034}},{"attributes":{"ID":22494,"DIS_CODE":0,"TOWNNAME":"北區","LI":"安民里","LIN":"10鄰","STREET":"成功路","SECT":" ","MAREA":" ","LANE":" ","ALLEY":" ","HOUSE_NO":"４１８號","E_COORD97":167824.20999999999,"N_COORD97":2544601.1400000001,"ADDRESS":"成功路４１８號","OBJECTID":22494},"geometry":{"x":167824.21000000089,"y":2544601.1400000025}},{"attributes":{"ID":22495,"DIS_CODE":0,"TOWNNAME":"北區","LI":"安民里","LIN":"10鄰","STREET":"成功路","SECT":" ","MAREA":" ","LANE":" ","ALLEY":" ","HOUSE_NO":"４２０號","E_COORD97":167820,"N_COORD97":2544600.7200000002,"ADDRESS":"成功路４２０號","OBJECTID":22495},"geometry":{"x":167820.00000000186,"y":2544600.7200000025}},{"attributes":{"ID":22496,"DIS_CODE":0,"TOWNNAME":"北區","LI":"永祥里","LIN":"2鄰","STREET":"大武街","SECT":" ","MAREA":" ","LANE":" ","ALLEY":" ","HOUSE_NO":"４５２號","E_COORD97":170001.73000000001,"N_COORD97":2546433.8599999999,"ADDRESS":"大武街４５２號","OBJECTID":22496},"geometry":{"x":170001.73000000045,"y":2546433.8599999994}},{"attributes":{"ID":22497,"DIS_CODE":0,"TOWNNAME":"北區","LI":"成功里","LIN":" ","STREET":"北安路","SECT":"一段","MAREA":" ","LANE":" ","ALLEY":" ","HOUSE_NO":"２３６號","E_COORD97":168787.60999999999,"N_COORD97":2546566.0600000001,"ADDRESS":"北安路一段２３６號","OBJECTID":22497},"geometry":{"x":168787.6100000022,"y":2546566.0600000005}},{"attributes":{"ID":22498,"DIS_CODE":0,"TOWNNAME":"北區","LI":"成功里","LIN":" ","STREET":"中華北路","SECT":"二段","MAREA":" ","LANE":" ","ALLEY":" ","HOUSE_NO":"２８６號","E_COORD97":168922.76999999999,"N_COORD97":2546952.1600000001,"ADDRESS":"中華北路二段２８６號","OBJECTID":22498},"geometry":{"x":168922.76999999955,"y":2546952.1600000001}},{"attributes":{"ID":22499,"DIS_CODE":0,"TOWNNAME":"南區","LI":"南華里","LIN":"14鄰","STREET":"中華南路","SECT":"二段","MAREA":" ","LANE":"３０２巷","ALLEY":"３弄","HOUSE_NO":"３號二樓","E_COORD97":166629.95000000001,"N_COORD97":2540352.48,"ADDRESS":"中華南路二段３０２巷３弄３號二樓","OBJECTID":22499},"geometry":{"x":166629.95000000019,"y":2540352.4800000004}},{"attributes":{"ID":22500,"DIS_CODE":0,"TOWNNAME":"南區","LI":"南華里","LIN":"14鄰","STREET":"中華南路","SECT":"二段","MAREA":" ","LANE":"３０２巷","ALLEY":"３弄","HOUSE_NO":"３號三樓","E_COORD97":166629.95000000001,"N_COORD97":2540352.48,"ADDRESS":"中華南路二段３０２巷３弄３號三樓","OBJECTID":22500},"geometry":{"x":166629.95000000019,"y":2540352.4800000004}},{"attributes":{"ID":22501,"DIS_CODE":0,"TOWNNAME":"南區","LI":"南華里","LIN":"14鄰","STREET":"中華南路","SECT":"二段","MAREA":" ","LANE":"３０２巷","ALLEY":"３弄","HOUSE_NO":"３號五樓","E_COORD97":166629.95000000001,"N_COORD97":2540352.48,"ADDRESS":"中華南路二段３０２巷３弄３號五樓","OBJECTID":22501},"geometry":{"x":166629.95000000019,"y":2540352.4800000004}},{"attributes":{"ID":22502,"DIS_CODE":0,"TOWNNAME":"南區","LI":"南華里","LIN":"14鄰","STREET":"中華南路","SECT":"二段","MAREA":" ","LANE":"３０２巷","ALLEY":"３弄","HOUSE_NO":"３號四樓","E_COORD97":166629.95000000001,"N_COORD97":2540352.48,"ADDRESS":"中華南路二段３０２巷３弄３號四樓","OBJECTID":22502},"geometry":{"x":166629.95000000019,"y":2540352.4800000004}},{"attributes":{"ID":22503,"DIS_CODE":0,"TOWNNAME":"南區","LI":"南華里","LIN":"14鄰","STREET":"中華南路","SECT":"二段","MAREA":" ","LANE":"３０２巷","ALLEY":"３弄","HOUSE_NO":"４號二樓","E_COORD97":166626.26999999999,"N_COORD97":2540377.7000000002,"ADDRESS":"中華南路二段３０２巷３弄４號二樓","OBJECTID":22503},"geometry":{"x":166626.27000000048,"y":2540377.700000003}},{"attributes":{"ID":22504,"DIS_CODE":0,"TOWNNAME":"南區","LI":"南華里","LIN":"14鄰","STREET":"中華南路","SECT":"二段","MAREA":" ","LANE":"３０２巷","ALLEY":"３弄","HOUSE_NO":"４號三樓","E_COORD97":166626.26999999999,"N_COORD97":2540377.7000000002,"ADDRESS":"中華南路二段３０２巷３弄４號三樓","OBJECTID":22504},"geometry":{"x":166626.27000000048,"y":2540377.700000003}},{"attributes":{"ID":22505,"DIS_CODE":0,"TOWNNAME":"南區","LI":"南華里","LIN":"14鄰","STREET":"中華南路","SECT":"二段","MAREA":" ","LANE":"３０２巷","ALLEY":"３弄","HOUSE_NO":"４號五樓","E_COORD97":166626.26999999999,"N_COORD97":2540377.7000000002,"ADDRESS":"中華南路二段３０２巷３弄４號五樓","OBJECTID":22505},"geometry":{"x":166626.27000000048,"y":2540377.700000003}},{"attributes":{"ID":22506,"DIS_CODE":0,"TOWNNAME":"南區","LI":"南華里","LIN":"14鄰","STREET":"中華南路","SECT":"二段","MAREA":" ","LANE":"３０２巷","ALLEY":"３弄","HOUSE_NO":"４號四樓","E_COORD97":166626.26999999999,"N_COORD97":2540377.7000000002,"ADDRESS":"中華南路二段３０２巷３弄４號四樓","OBJECTID":22506},"geometry":{"x":166626.27000000048,"y":2540377.700000003}},{"attributes":{"ID":22507,"DIS_CODE":0,"TOWNNAME":"南化區","LI":"東和里","LIN":"8鄰","STREET":" ","SECT":" ","MAREA":"東和","LANE":" ","ALLEY":" ","HOUSE_NO":"７２號","E_COORD97":197243.07000000001,"N_COORD97":2546702.75,"ADDRESS":"東和７２號","OBJECTID":22507},"geometry":{"x":197243.0700000003,"y":2546702.75}},{"attributes":{"ID":22508,"DIS_CODE":0,"TOWNNAME":"仁德區","LI":"成功里","LIN":"24鄰","STREET":"成功一街","SECT":" ","MAREA":" ","LANE":" ","ALLEY":" ","HOUSE_NO":"１０７號","E_COORD97":170539.23000000001,"N_COORD97":2539947.7599999998,"ADDRESS":"成功一街１０７號","OBJECTID":22508},"geometry":{"x":170539.23000000045,"y":2539947.7600000016}},{"attributes":{"ID":22509,"DIS_CODE":0,"TOWNNAME":"南區","LI":"南華里","LIN":"14鄰","STREET":"中華南路","SECT":"二段","MAREA":" ","LANE":"３０２巷","ALLEY":"３弄","HOUSE_NO":"５號二樓","E_COORD97":166621.51000000001,"N_COORD97":2540352.6000000001,"ADDRESS":"中華南路二段３０２巷３弄５號二樓","OBJECTID":22509},"geometry":{"x":166621.51000000071,"y":2540352.6000000015}},{"attributes":{"ID":22510,"DIS_CODE":0,"TOWNNAME":"南區","LI":"南華里","LIN":"14鄰","STREET":"中華南路","SECT":"二段","MAREA":" ","LANE":"３０２巷","ALLEY":"３弄","HOUSE_NO":"５號三樓","E_COORD97":166621.51000000001,"N_COORD97":2540352.6000000001,"ADDRESS":"中華南路二段３０２巷３弄５號三樓","OBJECTID":22510},"geometry":{"x":166621.51000000071,"y":2540352.6000000015}},{"attributes":{"ID":22511,"DIS_CODE":0,"TOWNNAME":"南區","LI":"南華里","LIN":"14鄰","STREET":"中華南路","SECT":"二段","MAREA":" ","LANE":"３０２巷","ALLEY":"３弄","HOUSE_NO":"５號五樓","E_COORD97":166621.51000000001,"N_COORD97":2540352.6000000001,"ADDRESS":"中華南路二段３０２巷３弄５號五樓","OBJECTID":22511},"geometry":{"x":166621.51000000071,"y":2540352.6000000015}},{"attributes":{"ID":22512,"DIS_CODE":0,"TOWNNAME":"南區","LI":"南華里","LIN":"14鄰","STREET":"中華南路","SECT":"二段","MAREA":" ","LANE":"３０２巷","ALLEY":"３弄","HOUSE_NO":"５號四樓","E_COORD97":166621.51000000001,"N_COORD97":2540352.6000000001,"ADDRESS":"中華南路二段３０２巷３弄５號四樓","OBJECTID":22512},"geometry":{"x":166621.51000000071,"y":2540352.6000000015}},{"attributes":{"ID":22513,"DIS_CODE":0,"TOWNNAME":"南區","LI":"南華里","LIN":"14鄰","STREET":"中華南路","SECT":"二段","MAREA":" ","LANE":"３０２巷","ALLEY":"３弄","HOUSE_NO":"６號二樓","E_COORD97":166609.39000000001,"N_COORD97":2540378.5299999998,"ADDRESS":"中華南路二段３０２巷３弄６號二樓","OBJECTID":22513},"geometry":{"x":166609.38999999966,"y":2540378.5299999975}},{"attributes":{"ID":22514,"DIS_CODE":0,"TOWNNAME":"南區","LI":"南華里","LIN":"14鄰","STREET":"中華南路","SECT":"二段","MAREA":" ","LANE":"３０２巷","ALLEY":"３弄","HOUSE_NO":"６號三樓","E_COORD97":166609.39000000001,"N_COORD97":2540378.5299999998,"ADDRESS":"中華南路二段３０２巷３弄６號三樓","OBJECTID":22514},"geometry":{"x":166609.38999999966,"y":2540378.5299999975}},{"attributes":{"ID":22515,"DIS_CODE":0,"TOWNNAME":"南區","LI":"南華里","LIN":"14鄰","STREET":"中華南路","SECT":"二段","MAREA":" ","LANE":"３０２巷","ALLEY":"３弄","HOUSE_NO":"６號五樓","E_COORD97":166609.39000000001,"N_COORD97":2540378.5299999998,"ADDRESS":"中華南路二段３０２巷３弄６號五樓","OBJECTID":22515},"geometry":{"x":166609.38999999966,"y":2540378.5299999975}},{"attributes":{"ID":22516,"DIS_CODE":0,"TOWNNAME":"南區","LI":"南華里","LIN":"14鄰","STREET":"中華南路","SECT":"二段","MAREA":" ","LANE":"３０２巷","ALLEY":"３弄","HOUSE_NO":"６號四樓","E_COORD97":166609.39000000001,"N_COORD97":2540378.5299999998,"ADDRESS":"中華南路二段３０２巷３弄６號四樓","OBJECTID":22516},"geometry":{"x":166609.38999999966,"y":2540378.5299999975}},{"attributes":{"ID":22517,"DIS_CODE":0,"TOWNNAME":"南區","LI":"南華里","LIN":"14鄰","STREET":"中華南路","SECT":"二段","MAREA":" ","LANE":"３０２巷","ALLEY":"３弄","HOUSE_NO":"７號二樓","E_COORD97":166612.60000000001,"N_COORD97":2540352.48,"ADDRESS":"中華南路二段３０２巷３弄７號二樓","OBJECTID":22517},"geometry":{"x":166612.60000000056,"y":2540352.4800000004}},{"attributes":{"ID":22518,"DIS_CODE":0,"TOWNNAME":"南區","LI":"南華里","LIN":"14鄰","STREET":"中華南路","SECT":"二段","MAREA":" ","LANE":"３０２巷","ALLEY":"３弄","HOUSE_NO":"７號三樓","E_COORD97":166612.60000000001,"N_COORD97":2540352.48,"ADDRESS":"中華南路二段３０２巷３弄７號三樓","OBJECTID":22518},"geometry":{"x":166612.60000000056,"y":2540352.4800000004}},{"attributes":{"ID":22519,"DIS_CODE":0,"TOWNNAME":"南區","LI":"南華里","LIN":"14鄰","STREET":"中華南路","SECT":"二段","MAREA":" ","LANE":"３０２巷","ALLEY":"３弄","HOUSE_NO":"７號五樓","E_COORD97":166612.60000000001,"N_COORD97":2540352.48,"ADDRESS":"中華南路二段３０２巷３弄７號五樓","OBJECTID":22519},"geometry":{"x":166612.60000000056,"y":2540352.4800000004}},{"attributes":{"ID":22520,"DIS_CODE":0,"TOWNNAME":"南區","LI":"南華里","LIN":"14鄰","STREET":"中華南路","SECT":"二段","MAREA":" ","LANE":"３０２巷","ALLEY":"３弄","HOUSE_NO":"７號四樓","E_COORD97":166612.60000000001,"N_COORD97":2540352.48,"ADDRESS":"中華南路二段３０２巷３弄７號四樓","OBJECTID":22520},"geometry":{"x":166612.60000000056,"y":2540352.4800000004}},{"attributes":{"ID":22521,"DIS_CODE":0,"TOWNNAME":"南區","LI":"南華里","LIN":"14鄰","STREET":"中華南路","SECT":"二段","MAREA":" ","LANE":"３０２巷","ALLEY":"３弄","HOUSE_NO":"８號二樓","E_COORD97":166597.38,"N_COORD97":2540378.4100000001,"ADDRESS":"中華南路二段３０２巷３弄８號二樓","OBJECTID":22521},"geometry":{"x":166597.38000000082,"y":2540378.410000002}},{"attributes":{"ID":22522,"DIS_CODE":0,"TOWNNAME":"南區","LI":"南華里","LIN":"14鄰","STREET":"中華南路","SECT":"二段","MAREA":" ","LANE":"３０２巷","ALLEY":"３弄","HOUSE_NO":"８號三樓","E_COORD97":166597.38,"N_COORD97":2540378.4100000001,"ADDRESS":"中華南路二段３０２巷３弄８號三樓","OBJECTID":22522},"geometry":{"x":166597.38000000082,"y":2540378.410000002}},{"attributes":{"ID":22523,"DIS_CODE":0,"TOWNNAME":"南區","LI":"南華里","LIN":"14鄰","STREET":"中華南路","SECT":"二段","MAREA":" ","LANE":"３０２巷","ALLEY":"３弄","HOUSE_NO":"８號五樓","E_COORD97":166597.38,"N_COORD97":2540378.4100000001,"ADDRESS":"中華南路二段３０２巷３弄８號五樓","OBJECTID":22523},"geometry":{"x":166597.38000000082,"y":2540378.410000002}},{"attributes":{"ID":22524,"DIS_CODE":0,"TOWNNAME":"南區","LI":"田寮里","LIN":"23鄰","STREET":"西門路","SECT":"一段","MAREA":" ","LANE":"３３３巷","ALLEY":"３１弄","HOUSE_NO":"５號","E_COORD97":167603.91,"N_COORD97":2542011.8999999999,"ADDRESS":"西門路一段３３３巷３１弄５號","OBJECTID":22524},"geometry":{"x":167603.91000000201,"y":2542011.9000000022}},{"attributes":{"ID":22525,"DIS_CODE":0,"TOWNNAME":"南區","LI":"南華里","LIN":"14鄰","STREET":"中華南路","SECT":"二段","MAREA":" ","LANE":"３０２巷","ALLEY":"３弄","HOUSE_NO":"８號四樓","E_COORD97":166597.38,"N_COORD97":2540378.4100000001,"ADDRESS":"中華南路二段３０２巷３弄８號四樓","OBJECTID":22525},"geometry":{"x":166597.38000000082,"y":2540378.410000002}},{"attributes":{"ID":22526,"DIS_CODE":0,"TOWNNAME":"南區","LI":"南華里","LIN":"14鄰","STREET":"中華南路","SECT":"二段","MAREA":" ","LANE":"３０２巷","ALLEY":"３弄","HOUSE_NO":"９號二樓","E_COORD97":166604.39000000001,"N_COORD97":2540352.8300000001,"ADDRESS":"中華南路二段３０２巷３弄９號二樓","OBJECTID":22526},"geometry":{"x":166604.38999999966,"y":2540352.8300000001}},{"attributes":{"ID":22527,"DIS_CODE":0,"TOWNNAME":"南區","LI":"南華里","LIN":"14鄰","STREET":"中華南路","SECT":"二段","MAREA":" ","LANE":"３０２巷","ALLEY":"３弄","HOUSE_NO":"９號三樓","E_COORD97":166604.39000000001,"N_COORD97":2540352.8300000001,"ADDRESS":"中華南路二段３０２巷３弄９號三樓","OBJECTID":22527},"geometry":{"x":166604.38999999966,"y":2540352.8300000001}},{"attributes":{"ID":22528,"DIS_CODE":0,"TOWNNAME":"南區","LI":"南華里","LIN":"14鄰","STREET":"中華南路","SECT":"二段","MAREA":" ","LANE":"３０２巷","ALLEY":"３弄","HOUSE_NO":"９號五樓","E_COORD97":166604.39000000001,"N_COORD97":2540352.8300000001,"ADDRESS":"中華南路二段３０２巷３弄９號五樓","OBJECTID":22528},"geometry":{"x":166604.38999999966,"y":2540352.8300000001}},{"attributes":{"ID":22529,"DIS_CODE":0,"TOWNNAME":"南區","LI":"南華里","LIN":"14鄰","STREET":"中華南路","SECT":"二段","MAREA":" ","LANE":"３０２巷","ALLEY":"３弄","HOUSE_NO":"９號四樓","E_COORD97":166604.39000000001,"N_COORD97":2540352.8300000001,"ADDRESS":"中華南路二段３０２巷３弄９號四樓","OBJECTID":22529},"geometry":{"x":166604.38999999966,"y":2540352.8300000001}},{"attributes":{"ID":22530,"DIS_CODE":0,"TOWNNAME":"歸仁區","LI":"辜厝里","LIN":"4鄰","STREET":"民族南街","SECT":" ","MAREA":" ","LANE":"１８巷","ALLEY":"５５弄","HOUSE_NO":"２５號","E_COORD97":177296.98999999999,"N_COORD97":2540702.5499999998,"ADDRESS":"民族南街１８巷５５弄２５號","OBJECTID":22530},"geometry":{"x":177296.99000000115,"y":2540702.5500000026}},{"attributes":{"ID":22531,"DIS_CODE":0,"TOWNNAME":"永康區","LI":"正強里","LIN":"14鄰","STREET":"正強街","SECT":" ","MAREA":" ","LANE":"１１１巷","ALLEY":"１５弄","HOUSE_NO":"５號","E_COORD97":173271.57000000001,"N_COORD97":2547383.3799999999,"ADDRESS":"正強街１１１巷１５弄５號","OBJECTID":22531},"geometry":{"x":173271.57000000216,"y":2547383.379999999}},{"attributes":{"ID":22532,"DIS_CODE":0,"TOWNNAME":"永康區","LI":"北灣里","LIN":"14鄰","STREET":"大灣路","SECT":" ","MAREA":" ","LANE":"４０巷","ALLEY":"７５弄","HOUSE_NO":"６號","E_COORD97":175112.42000000001,"N_COORD97":2546043.73,"ADDRESS":"大灣路４０巷７５弄６號","OBJECTID":22532},"geometry":{"x":175112.41999999993,"y":2546043.7300000042}},{"attributes":{"ID":22533,"DIS_CODE":0,"TOWNNAME":"永康區","LI":"北灣里","LIN":"14鄰","STREET":"大灣路","SECT":" ","MAREA":" ","LANE":"４０巷","ALLEY":"７５弄","HOUSE_NO":"１６號","E_COORD97":175085.81,"N_COORD97":2546035.4900000002,"ADDRESS":"大灣路４０巷７５弄１６號","OBJECTID":22533},"geometry":{"x":175085.80999999959,"y":2546035.4900000021}},{"attributes":{"ID":22534,"DIS_CODE":0,"TOWNNAME":"永康區","LI":"北灣里","LIN":"14鄰","STREET":"大灣路","SECT":" ","MAREA":" ","LANE":"４０巷","ALLEY":"７５弄","HOUSE_NO":"３０號","E_COORD97":175062.12,"N_COORD97":2545998.7999999998,"ADDRESS":"大灣路４０巷７５弄３０號","OBJECTID":22534},"geometry":{"x":175062.12000000011,"y":2545998.8000000007}},{"attributes":{"ID":22535,"DIS_CODE":0,"TOWNNAME":"新營區","LI":"王公里","LIN":"4鄰","STREET":"民族路","SECT":" ","MAREA":" ","LANE":" ","ALLEY":" ","HOUSE_NO":"７２號之１","E_COORD97":180307.78,"N_COORD97":2578916.8500000001,"ADDRESS":"民族路７２號之１","OBJECTID":22535},"geometry":{"x":180307.78000000026,"y":2578916.8500000015}},{"attributes":{"ID":22536,"DIS_CODE":0,"TOWNNAME":"新市區","LI":"新市里","LIN":"24鄰","STREET":"復興路","SECT":" ","MAREA":" ","LANE":" ","ALLEY":" ","HOUSE_NO":"１５號","E_COORD97":177802.45999999999,"N_COORD97":2553357.7799999998,"ADDRESS":"復興路１５號","OBJECTID":22536},"geometry":{"x":177802.45999999996,"y":2553357.7799999993}},{"attributes":{"ID":22537,"DIS_CODE":0,"TOWNNAME":"新市區","LI":"大營里","LIN":"24鄰","STREET":" ","SECT":" ","MAREA":"大營","LANE":" ","ALLEY":" ","HOUSE_NO":"１３１之６２號","E_COORD97":179181.92000000001,"N_COORD97":2554716.7999999998,"ADDRESS":"大營１３１之６２號","OBJECTID":22537},"geometry":{"x":179181.92000000086,"y":2554716.8000000026}},{"attributes":{"ID":22538,"DIS_CODE":0,"TOWNNAME":"新市區","LI":"大營里","LIN":"24鄰","STREET":" ","SECT":" ","MAREA":"大營","LANE":" ","ALLEY":" ","HOUSE_NO":"１３１之４２號","E_COORD97":179187.39999999999,"N_COORD97":2554704.5499999998,"ADDRESS":"大營１３１之４２號","OBJECTID":22538},"geometry":{"x":179187.40000000224,"y":2554704.5500000045}},{"attributes":{"ID":22539,"DIS_CODE":0,"TOWNNAME":"安定區","LI":"蘇林里","LIN":"24鄰","STREET":" ","SECT":" ","MAREA":"蘇厝","LANE":" ","ALLEY":" ","HOUSE_NO":"２６９號之１","E_COORD97":173328.64999999999,"N_COORD97":2558609.2999999998,"ADDRESS":"蘇厝２６９號之１","OBJECTID":22539},"geometry":{"x":173328.64999999944,"y":2558609.3000000026}},{"attributes":{"ID":22540,"DIS_CODE":0,"TOWNNAME":"安定區","LI":"蘇林里","LIN":"24鄰","STREET":" ","SECT":" ","MAREA":"蘇厝","LANE":" ","ALLEY":" ","HOUSE_NO":"２７２號","E_COORD97":173400.12,"N_COORD97":2558607.25,"ADDRESS":"蘇厝２７２號","OBJECTID":22540},"geometry":{"x":173400.12000000104,"y":2558607.25}},{"attributes":{"ID":22541,"DIS_CODE":0,"TOWNNAME":"永康區","LI":"北灣里","LIN":"14鄰","STREET":"大灣路","SECT":" ","MAREA":" ","LANE":"４０巷","ALLEY":"７５弄","HOUSE_NO":"４號","E_COORD97":175115.56,"N_COORD97":2546046.98,"ADDRESS":"大灣路４０巷７５弄４號","OBJECTID":22541},"geometry":{"x":175115.56000000052,"y":2546046.9800000023}},{"attributes":{"ID":22542,"DIS_CODE":0,"TOWNNAME":"永康區","LI":"正強里","LIN":"14鄰","STREET":"正強街","SECT":" ","MAREA":" ","LANE":"１１１巷","ALLEY":"１５弄","HOUSE_NO":"２０號","E_COORD97":173264.01999999999,"N_COORD97":2547370.3799999999,"ADDRESS":"正強街１１１巷１５弄２０號","OBJECTID":22542},"geometry":{"x":173264.01999999955,"y":2547370.3800000027}},{"attributes":{"ID":22543,"DIS_CODE":0,"TOWNNAME":"永康區","LI":"正強里","LIN":"14鄰","STREET":"正強街","SECT":" ","MAREA":" ","LANE":"１１１巷","ALLEY":"１５弄","HOUSE_NO":"２２號","E_COORD97":173264.76999999999,"N_COORD97":2547366.6299999999,"ADDRESS":"正強街１１１巷１５弄２２號","OBJECTID":22543},"geometry":{"x":173264.77000000048,"y":2547366.6300000008}},{"attributes":{"ID":22544,"DIS_CODE":0,"TOWNNAME":"永康區","LI":"正強里","LIN":"14鄰","STREET":"正強街","SECT":" ","MAREA":" ","LANE":"１１１巷","ALLEY":"１５弄","HOUSE_NO":"１１號","E_COORD97":173276.07000000001,"N_COORD97":2547368.3799999999,"ADDRESS":"正強街１１１巷１５弄１１號","OBJECTID":22544},"geometry":{"x":173276.0700000003,"y":2547368.3800000008}},{"attributes":{"ID":22545,"DIS_CODE":0,"TOWNNAME":"安南區","LI":"長安里","LIN":"14鄰","STREET":"長溪路","SECT":"三段","MAREA":" ","LANE":"３８０巷","ALLEY":"１２５弄","HOUSE_NO":"１３號","E_COORD97":167965.03,"N_COORD97":2552205.3700000001,"ADDRESS":"長溪路三段３８０巷１２５弄１３號","OBJECTID":22545},"geometry":{"x":167965.03000000026,"y":2552205.3700000029}},{"attributes":{"ID":22546,"DIS_CODE":0,"TOWNNAME":"佳里區","LI":"忠仁里","LIN":"14鄰","STREET":"信義一街","SECT":" ","MAREA":" ","LANE":"２７１巷","ALLEY":"３１弄","HOUSE_NO":"７號","E_COORD97":166130,"N_COORD97":2562175.0699999998,"ADDRESS":"信義一街２７１巷３１弄７號","OBJECTID":22546},"geometry":{"x":166130.00000000186,"y":2562175.0700000003}},{"attributes":{"ID":22547,"DIS_CODE":0,"TOWNNAME":"大內區","LI":"石湖里","LIN":"17鄰","STREET":" ","SECT":" ","MAREA":"新厝子","LANE":" ","ALLEY":" ","HOUSE_NO":"７６號","E_COORD97":183444.22,"N_COORD97":2561059.25,"ADDRESS":"新厝子７６號","OBJECTID":22547},"geometry":{"x":183444.21999999974,"y":2561059.2500000037}},{"attributes":{"ID":22548,"DIS_CODE":0,"TOWNNAME":"大內區","LI":"石湖里","LIN":"17鄰","STREET":" ","SECT":" ","MAREA":"新厝子","LANE":" ","ALLEY":" ","HOUSE_NO":"６１號","E_COORD97":183453.42000000001,"N_COORD97":2560938.25,"ADDRESS":"新厝子６１號","OBJECTID":22548},"geometry":{"x":183453.41999999899,"y":2560938.2500000019}},{"attributes":{"ID":22549,"DIS_CODE":0,"TOWNNAME":"大內區","LI":"石湖里","LIN":"17鄰","STREET":" ","SECT":" ","MAREA":"新厝子","LANE":" ","ALLEY":" ","HOUSE_NO":"６２號","E_COORD97":183454.62,"N_COORD97":2560947.25,"ADDRESS":"新厝子６２號","OBJECTID":22549},"geometry":{"x":183454.62000000104,"y":2560947.2500000037}},{"attributes":{"ID":22550,"DIS_CODE":0,"TOWNNAME":"大內區","LI":"石湖里","LIN":"17鄰","STREET":" ","SECT":" ","MAREA":"新厝子","LANE":" ","ALLEY":" ","HOUSE_NO":"７９號之１","E_COORD97":183443.35000000001,"N_COORD97":2561088.2999999998,"ADDRESS":"新厝子７９號之１","OBJECTID":22550},"geometry":{"x":183443.34999999963,"y":2561088.3000000026}},{"attributes":{"ID":22551,"DIS_CODE":0,"TOWNNAME":"大內區","LI":"頭社里","LIN":"17鄰","STREET":" ","SECT":" ","MAREA":"頭社","LANE":" ","ALLEY":" ","HOUSE_NO":"２１７號","E_COORD97":187583.19,"N_COORD97":2559574.25,"ADDRESS":"頭社２１７號","OBJECTID":22551},"geometry":{"x":187583.19000000041,"y":2559574.2500000037}},{"attributes":{"ID":22552,"DIS_CODE":0,"TOWNNAME":"安南區","LI":"長安里","LIN":"14鄰","STREET":"長溪路","SECT":"三段","MAREA":" ","LANE":"３８０巷","ALLEY":"１２５弄","HOUSE_NO":"４２號之１","E_COORD97":167943.54999999999,"N_COORD97":2552284.6800000002,"ADDRESS":"長溪路三段３８０巷１２５弄４２號之１","OBJECTID":22552},"geometry":{"x":167943.55000000075,"y":2552284.6799999997}},{"attributes":{"ID":22553,"DIS_CODE":0,"TOWNNAME":"安南區","LI":"長安里","LIN":"14鄰","STREET":"長溪路","SECT":"三段","MAREA":" ","LANE":"３８０巷","ALLEY":"１２５弄","HOUSE_NO":"１０號","E_COORD97":167958.20000000001,"N_COORD97":2552252.6800000002,"ADDRESS":"長溪路三段３８０巷１２５弄１０號","OBJECTID":22553},"geometry":{"x":167958.20000000112,"y":2552252.6800000016}},{"attributes":{"ID":22554,"DIS_CODE":0,"TOWNNAME":"安南區","LI":"長安里","LIN":"14鄰","STREET":"長溪路","SECT":"三段","MAREA":" ","LANE":"３８０巷","ALLEY":"１２５弄","HOUSE_NO":"１２號","E_COORD97":167961.81,"N_COORD97":2552255.0899999999,"ADDRESS":"長溪路三段３８０巷１２５弄１２號","OBJECTID":22554},"geometry":{"x":167961.81000000052,"y":2552255.089999998}},{"attributes":{"ID":22555,"DIS_CODE":0,"TOWNNAME":"安南區","LI":"長安里","LIN":"14鄰","STREET":"長溪路","SECT":"三段","MAREA":" ","LANE":"３８０巷","ALLEY":"１２５弄","HOUSE_NO":"１４號","E_COORD97":167964.87,"N_COORD97":2552257.7799999998,"ADDRESS":"長溪路三段３８０巷１２５弄１４號","OBJECTID":22555},"geometry":{"x":167964.87000000011,"y":2552257.7800000012}},{"attributes":{"ID":22556,"DIS_CODE":0,"TOWNNAME":"安南區","LI":"長安里","LIN":"14鄰","STREET":"長溪路","SECT":"三段","MAREA":" ","LANE":"３８０巷","ALLEY":"１２５弄","HOUSE_NO":"１６號","E_COORD97":167968.57999999999,"N_COORD97":2552260.2799999998,"ADDRESS":"長溪路三段３８０巷１２５弄１６號","OBJECTID":22556},"geometry":{"x":167968.58000000007,"y":2552260.2800000031}},{"attributes":{"ID":22557,"DIS_CODE":0,"TOWNNAME":"安南區","LI":"長安里","LIN":"14鄰","STREET":"長溪路","SECT":"三段","MAREA":" ","LANE":"３８０巷","ALLEY":"１２５弄","HOUSE_NO":"１８號","E_COORD97":167972.10000000001,"N_COORD97":2552262.8700000001,"ADDRESS":"長溪路三段３８０巷１２５弄１８號","OBJECTID":22557},"geometry":{"x":167972.10000000056,"y":2552262.8700000029}},{"attributes":{"ID":22558,"DIS_CODE":0,"TOWNNAME":"安南區","LI":"長安里","LIN":"14鄰","STREET":"長溪路","SECT":"三段","MAREA":" ","LANE":"３８０巷","ALLEY":"１２５弄","HOUSE_NO":"２０號","E_COORD97":167975.81,"N_COORD97":2552265.3700000001,"ADDRESS":"長溪路三段３８０巷１２５弄２０號","OBJECTID":22558},"geometry":{"x":167975.81000000052,"y":2552265.3700000029}},{"attributes":{"ID":22559,"DIS_CODE":0,"TOWNNAME":"安南區","LI":"長安里","LIN":"14鄰","STREET":"長溪路","SECT":"三段","MAREA":" ","LANE":"３８０巷","ALLEY":"１２５弄","HOUSE_NO":"２４號","E_COORD97":167983.13,"N_COORD97":2552270.6499999999,"ADDRESS":"長溪路三段３８０巷１２５弄２４號","OBJECTID":22559},"geometry":{"x":167983.12999999989,"y":2552270.6500000022}},{"attributes":{"ID":22560,"DIS_CODE":0,"TOWNNAME":"安南區","LI":"長安里","LIN":"14鄰","STREET":"長溪路","SECT":"三段","MAREA":" ","LANE":"３８０巷","ALLEY":"１２５弄","HOUSE_NO":"２６號","E_COORD97":167973.26999999999,"N_COORD97":2552284.6800000002,"ADDRESS":"長溪路三段３８０巷１２５弄２６號","OBJECTID":22560},"geometry":{"x":167973.26999999955,"y":2552284.6799999997}},{"attributes":{"ID":22561,"DIS_CODE":0,"TOWNNAME":"安南區","LI":"長安里","LIN":"14鄰","STREET":"長溪路","SECT":"三段","MAREA":" ","LANE":"３８０巷","ALLEY":"１２５弄","HOUSE_NO":"２８號","E_COORD97":167969.20999999999,"N_COORD97":2552282.5499999998,"ADDRESS":"長溪路三段３８０巷１２５弄２８號","OBJECTID":22561},"geometry":{"x":167969.20999999996,"y":2552282.5500000007}},{"attributes":{"ID":22562,"DIS_CODE":0,"TOWNNAME":"安南區","LI":"長安里","LIN":"14鄰","STREET":"長溪路","SECT":"三段","MAREA":" ","LANE":"３８０巷","ALLEY":"１２５弄","HOUSE_NO":"２號","E_COORD97":167977.01999999999,"N_COORD97":2552247.2799999998,"ADDRESS":"長溪路三段３８０巷１２５弄２號","OBJECTID":22562},"geometry":{"x":167977.02000000142,"y":2552247.2800000012}},{"attributes":{"ID":22563,"DIS_CODE":0,"TOWNNAME":"仁德區","LI":"成功里","LIN":"24鄰","STREET":"成功一街","SECT":" ","MAREA":" ","LANE":" ","ALLEY":" ","HOUSE_NO":"９９號","E_COORD97":170554.85999999999,"N_COORD97":2539957.0099999998,"ADDRESS":"成功一街９９號","OBJECTID":22563},"geometry":{"x":170554.86000000034,"y":2539957.0100000016}},{"attributes":{"ID":22564,"DIS_CODE":0,"TOWNNAME":"仁德區","LI":"成功里","LIN":"24鄰","STREET":"成功一街","SECT":" ","MAREA":" ","LANE":" ","ALLEY":" ","HOUSE_NO":"１１７號","E_COORD97":170539.39999999999,"N_COORD97":2539926.02,"ADDRESS":"成功一街１１７號","OBJECTID":22564},"geometry":{"x":170539.40000000037,"y":2539926.0200000014}},{"attributes":{"ID":22565,"DIS_CODE":0,"TOWNNAME":"大內區","LI":"石湖里","LIN":"17鄰","STREET":" ","SECT":" ","MAREA":"新厝子","LANE":" ","ALLEY":" ","HOUSE_NO":"６６號","E_COORD97":183454.72,"N_COORD97":2560965.25,"ADDRESS":"新厝子６６號","OBJECTID":22565},"geometry":{"x":183454.7200000016,"y":2560965.2500000019}},{"attributes":{"ID":22566,"DIS_CODE":0,"TOWNNAME":"永康區","LI":"復華里","LIN":"31鄰","STREET":"復華八街","SECT":" ","MAREA":" ","LANE":"５１巷","ALLEY":"６１弄","HOUSE_NO":"７號","E_COORD97":172619.27700999999,"N_COORD97":2546418.4106100001,"ADDRESS":"復華八街５１巷６１弄７號","OBJECTID":22566},"geometry":{"x":172619.27701000031,"y":2546418.4106130023}},{"attributes":{"ID":22567,"DIS_CODE":0,"TOWNNAME":"仁德區","LI":"成功里","LIN":"24鄰","STREET":"成功一街","SECT":" ","MAREA":" ","LANE":" ","ALLEY":" ","HOUSE_NO":"１０９號","E_COORD97":170560.06,"N_COORD97":2539948.2599999998,"ADDRESS":"成功一街１０９號","OBJECTID":22567},"geometry":{"x":170560.05999999959,"y":2539948.2600000016}},{"attributes":{"ID":22568,"DIS_CODE":0,"TOWNNAME":"仁德區","LI":"成功里","LIN":"24鄰","STREET":"成功一街","SECT":" ","MAREA":" ","LANE":" ","ALLEY":" ","HOUSE_NO":"１０５號","E_COORD97":170539.23000000001,"N_COORD97":2539952.7599999998,"ADDRESS":"成功一街１０５號","OBJECTID":22568},"geometry":{"x":170539.23000000045,"y":2539952.7599999998}},{"attributes":{"ID":22569,"DIS_CODE":0,"TOWNNAME":"仁德區","LI":"太子里","LIN":"24鄰","STREET":"長興五街","SECT":" ","MAREA":" ","LANE":" ","ALLEY":" ","HOUSE_NO":"４０號","E_COORD97":173582.29999999999,"N_COORD97":2543670.5,"ADDRESS":"長興五街４０號","OBJECTID":22569},"geometry":{"x":173582.29999999981,"y":2543670.5}},{"attributes":{"ID":22570,"DIS_CODE":0,"TOWNNAME":"大內區","LI":"石湖里","LIN":"17鄰","STREET":" ","SECT":" ","MAREA":"新厝子","LANE":" ","ALLEY":" ","HOUSE_NO":"７８號","E_COORD97":183442.32000000001,"N_COORD97":2561078.25,"ADDRESS":"新厝子７８號","OBJECTID":22570},"geometry":{"x":183442.3200000003,"y":2561078.25}},{"attributes":{"ID":22571,"DIS_CODE":0,"TOWNNAME":"大內區","LI":"頭社里","LIN":"17鄰","STREET":" ","SECT":" ","MAREA":"頭社","LANE":" ","ALLEY":" ","HOUSE_NO":"２２１號之１","E_COORD97":187643.23000000001,"N_COORD97":2559539.2999999998,"ADDRESS":"頭社２２１號之１","OBJECTID":22571},"geometry":{"x":187643.23000000138,"y":2559539.3000000007}},{"attributes":{"ID":22572,"DIS_CODE":0,"TOWNNAME":"北區","LI":"成德里","LIN":" ","STREET":"西門路","SECT":"四段","MAREA":" ","LANE":" ","ALLEY":" ","HOUSE_NO":"１８３號","E_COORD97":168830.56,"N_COORD97":2545694.0499999998,"ADDRESS":"西門路四段１８３號","OBJECTID":22572},"geometry":{"x":168830.55999999959,"y":2545694.0500000026}},{"attributes":{"ID":22573,"DIS_CODE":0,"TOWNNAME":"北區","LI":"成德里","LIN":" ","STREET":"西門路","SECT":"四段","MAREA":" ","LANE":" ","ALLEY":" ","HOUSE_NO":"１９３號","E_COORD97":168837.79000000001,"N_COORD97":2545716.3500000001,"ADDRESS":"西門路四段１９３號","OBJECTID":22573},"geometry":{"x":168837.79000000004,"y":2545716.3499999996}},{"attributes":{"ID":22574,"DIS_CODE":0,"TOWNNAME":"安南區","LI":"長安里","LIN":"14鄰","STREET":"長溪路","SECT":"三段","MAREA":" ","LANE":"３８０巷","ALLEY":"１２５弄","HOUSE_NO":"３０號","E_COORD97":167965.5,"N_COORD97":2552280.7000000002,"ADDRESS":"長溪路三段３８０巷１２５弄３０號","OBJECTID":22574},"geometry":{"x":167965.5,"y":2552280.6999999993}},{"attributes":{"ID":22575,"DIS_CODE":0,"TOWNNAME":"安南區","LI":"長安里","LIN":"14鄰","STREET":"長溪路","SECT":"三段","MAREA":" ","LANE":"３８０巷","ALLEY":"１２５弄","HOUSE_NO":"３２號","E_COORD97":167962.07999999999,"N_COORD97":2552277.29,"ADDRESS":"長溪路三段３８０巷１２５弄３２號","OBJECTID":22575},"geometry":{"x":167962.08000000194,"y":2552277.290000001}},{"attributes":{"ID":22576,"DIS_CODE":0,"TOWNNAME":"官田區","LI":"渡頭里","LIN":"24鄰","STREET":" ","SECT":" ","MAREA":"渡子頭","LANE":" ","ALLEY":" ","HOUSE_NO":"２００號之１","E_COORD97":181707.45999999999,"N_COORD97":2563483.52,"ADDRESS":"渡子頭２００號之１","OBJECTID":22576},"geometry":{"x":181707.46000000089,"y":2563483.5199999996}},{"attributes":{"ID":22577,"DIS_CODE":0,"TOWNNAME":"官田區","LI":"渡頭里","LIN":"24鄰","STREET":" ","SECT":" ","MAREA":"渡子頭","LANE":" ","ALLEY":" ","HOUSE_NO":"２００號之２","E_COORD97":181711.66,"N_COORD97":2563461.9700000002,"ADDRESS":"渡子頭２００號之２","OBJECTID":22577},"geometry":{"x":181711.66000000108,"y":2563461.9699999988}},{"attributes":{"ID":22578,"DIS_CODE":0,"TOWNNAME":"官田區","LI":"渡頭里","LIN":"24鄰","STREET":" ","SECT":" ","MAREA":"渡子頭","LANE":" ","ALLEY":" ","HOUSE_NO":"２０１號之６","E_COORD97":181725.16,"N_COORD97":2563443.2599999998,"ADDRESS":"渡子頭２０１號之６","OBJECTID":22578},"geometry":{"x":181725.16000000108,"y":2563443.2600000016}},{"attributes":{"ID":22579,"DIS_CODE":0,"TOWNNAME":"官田區","LI":"渡頭里","LIN":"24鄰","STREET":" ","SECT":" ","MAREA":"渡子頭","LANE":" ","ALLEY":" ","HOUSE_NO":"２０２號之３","E_COORD97":181781.35999999999,"N_COORD97":2563531.8399999999,"ADDRESS":"渡子頭２０２號之３","OBJECTID":22579},"geometry":{"x":181781.36000000127,"y":2563531.8399999999}},{"attributes":{"ID":22580,"DIS_CODE":0,"TOWNNAME":"安南區","LI":"長安里","LIN":"14鄰","STREET":"長溪路","SECT":"三段","MAREA":" ","LANE":"３８０巷","ALLEY":"１２５弄","HOUSE_NO":"３４號","E_COORD97":167958.67000000001,"N_COORD97":2552275.1400000001,"ADDRESS":"長溪路三段３８０巷１２５弄３４號","OBJECTID":22580},"geometry":{"x":167958.66999999993,"y":2552275.1400000006}},{"attributes":{"ID":22581,"DIS_CODE":0,"TOWNNAME":"安南區","LI":"長安里","LIN":"14鄰","STREET":"長溪路","SECT":"三段","MAREA":" ","LANE":"３８０巷","ALLEY":"１２５弄","HOUSE_NO":"３６號","E_COORD97":167954.47,"N_COORD97":2552273,"ADDRESS":"長溪路三段３８０巷１２５弄３６號","OBJECTID":22581},"geometry":{"x":167954.47000000067,"y":2552273.0000000037}},{"attributes":{"ID":22582,"DIS_CODE":0,"TOWNNAME":"安南區","LI":"長安里","LIN":"14鄰","STREET":"長溪路","SECT":"三段","MAREA":" ","LANE":"３８０巷","ALLEY":"１２５弄","HOUSE_NO":"３８號","E_COORD97":167950.95999999999,"N_COORD97":2552271.0499999998,"ADDRESS":"長溪路三段３８０巷１２５弄３８號","OBJECTID":22582},"geometry":{"x":167950.96000000089,"y":2552271.0500000026}},{"attributes":{"ID":22583,"DIS_CODE":0,"TOWNNAME":"安南區","LI":"長安里","LIN":"14鄰","STREET":"長溪路","SECT":"三段","MAREA":" ","LANE":"３８０巷","ALLEY":"１２５弄","HOUSE_NO":"４０號","E_COORD97":167947.35999999999,"N_COORD97":2552268.3300000001,"ADDRESS":"長溪路三段３８０巷１２５弄４０號","OBJECTID":22583},"geometry":{"x":167947.36000000127,"y":2552268.3300000019}},{"attributes":{"ID":22584,"DIS_CODE":0,"TOWNNAME":"安南區","LI":"長安里","LIN":"14鄰","STREET":"長溪路","SECT":"三段","MAREA":" ","LANE":"３８０巷","ALLEY":"１２５弄","HOUSE_NO":"４２號","E_COORD97":167940.78,"N_COORD97":2552281.2000000002,"ADDRESS":"長溪路三段３８０巷１２５弄４２號","OBJECTID":22584},"geometry":{"x":167940.78000000119,"y":2552281.200000003}},{"attributes":{"ID":22585,"DIS_CODE":0,"TOWNNAME":"安南區","LI":"長安里","LIN":"14鄰","STREET":"長溪路","SECT":"三段","MAREA":" ","LANE":"３８０巷","ALLEY":"１２５弄","HOUSE_NO":"４６號","E_COORD97":167947.03,"N_COORD97":2552287.0299999998,"ADDRESS":"長溪路三段３８０巷１２５弄４６號","OBJECTID":22585},"geometry":{"x":167947.03000000026,"y":2552287.0300000012}},{"attributes":{"ID":22586,"DIS_CODE":0,"TOWNNAME":"安南區","LI":"長安里","LIN":"14鄰","STREET":"長溪路","SECT":"三段","MAREA":" ","LANE":"３８０巷","ALLEY":"１２５弄","HOUSE_NO":"４８號","E_COORD97":167949.89999999999,"N_COORD97":2552288.8799999999,"ADDRESS":"長溪路三段３８０巷１２５弄４８號","OBJECTID":22586},"geometry":{"x":167949.90000000224,"y":2552288.879999999}},{"attributes":{"ID":22587,"DIS_CODE":0,"TOWNNAME":"安南區","LI":"長安里","LIN":"14鄰","STREET":"長溪路","SECT":"三段","MAREA":" ","LANE":"３８０巷","ALLEY":"１２５弄","HOUSE_NO":"４號","E_COORD97":167973.41,"N_COORD97":2552244.96,"ADDRESS":"長溪路三段３８０巷１２５弄４號","OBJECTID":22587},"geometry":{"x":167973.41000000201,"y":2552244.9600000028}},{"attributes":{"ID":22588,"DIS_CODE":0,"TOWNNAME":"安平區","LI":"億載里","LIN":"5鄰","STREET":"永華十一街","SECT":" ","MAREA":" ","LANE":" ","ALLEY":" ","HOUSE_NO":"１１７號","E_COORD97":164074.35000000001,"N_COORD97":2543700.2799999998,"ADDRESS":"永華十一街１１７號","OBJECTID":22588},"geometry":{"x":164074.35000000149,"y":2543700.2800000012}},{"attributes":{"ID":22589,"DIS_CODE":0,"TOWNNAME":"安平區","LI":"億載里","LIN":"5鄰","STREET":"永華十一街","SECT":" ","MAREA":" ","LANE":" ","ALLEY":" ","HOUSE_NO":"１２１號","E_COORD97":164072.94,"N_COORD97":2543709.02,"ADDRESS":"永華十一街１２１號","OBJECTID":22589},"geometry":{"x":164072.94000000134,"y":2543709.0200000014}},{"attributes":{"ID":22590,"DIS_CODE":0,"TOWNNAME":"仁德區","LI":"後壁里","LIN":"24鄰","STREET":"中正路","SECT":"二段","MAREA":" ","LANE":" ","ALLEY":" ","HOUSE_NO":"２１１號","E_COORD97":173217.39999999999,"N_COORD97":2538856.0299999998,"ADDRESS":"中正路二段２１１號","OBJECTID":22590},"geometry":{"x":173217.4000000013,"y":2538856.0299999993}},{"attributes":{"ID":22591,"DIS_CODE":0,"TOWNNAME":"仁德區","LI":"後壁里","LIN":"24鄰","STREET":"德洋路","SECT":" ","MAREA":" ","LANE":" ","ALLEY":" ","HOUSE_NO":"１２號","E_COORD97":173182.70999999999,"N_COORD97":2539004.0099999998,"ADDRESS":"德洋路１２號","OBJECTID":22591},"geometry":{"x":173182.71000000089,"y":2539004.0100000016}},{"attributes":{"ID":22592,"DIS_CODE":0,"TOWNNAME":"仁德區","LI":"後壁里","LIN":"24鄰","STREET":"德洋路","SECT":" ","MAREA":" ","LANE":" ","ALLEY":" ","HOUSE_NO":"１５號","E_COORD97":173179.45000000001,"N_COORD97":2538985.7799999998,"ADDRESS":"德洋路１５號","OBJECTID":22592},"geometry":{"x":173179.45000000112,"y":2538985.7799999993}},{"attributes":{"ID":22593,"DIS_CODE":0,"TOWNNAME":"安平區","LI":"文平里","LIN":"8鄰","STREET":"建平路","SECT":" ","MAREA":" ","LANE":" ","ALLEY":" ","HOUSE_NO":"２２８號","E_COORD97":166176.35999999999,"N_COORD97":2543158.27,"ADDRESS":"建平路２２８號","OBJECTID":22593},"geometry":{"x":166176.36000000034,"y":2543158.2700000014}},{"attributes":{"ID":22594,"DIS_CODE":0,"TOWNNAME":"官田區","LI":"渡頭里","LIN":"24鄰","STREET":" ","SECT":" ","MAREA":"渡子頭","LANE":" ","ALLEY":" ","HOUSE_NO":"２４８號之３０","E_COORD97":182193.64999999999,"N_COORD97":2563790.1600000001,"ADDRESS":"渡子頭２４８號之３０","OBJECTID":22594},"geometry":{"x":182193.6500000013,"y":2563790.160000002}},{"attributes":{"ID":22595,"DIS_CODE":0,"TOWNNAME":"官田區","LI":"渡頭里","LIN":"24鄰","STREET":" ","SECT":" ","MAREA":"渡子頭","LANE":" ","ALLEY":" ","HOUSE_NO":"２４８號之８","E_COORD97":182213.07999999999,"N_COORD97":2563825.1000000001,"ADDRESS":"渡子頭２４８號之８","OBJECTID":22595},"geometry":{"x":182213.08000000007,"y":2563825.0999999996}},{"attributes":{"ID":22596,"DIS_CODE":0,"TOWNNAME":"官田區","LI":"渡頭里","LIN":"24鄰","STREET":" ","SECT":" ","MAREA":"渡子頭","LANE":" ","ALLEY":" ","HOUSE_NO":"２５０號","E_COORD97":182229.59,"N_COORD97":2564080.3100000001,"ADDRESS":"渡子頭２５０號","OBJECTID":22596},"geometry":{"x":182229.58999999985,"y":2564080.3100000042}},{"attributes":{"ID":22597,"DIS_CODE":0,"TOWNNAME":"官田區","LI":"渡頭里","LIN":"24鄰","STREET":" ","SECT":" ","MAREA":"渡子頭","LANE":" ","ALLEY":" ","HOUSE_NO":"２５３號","E_COORD97":182549.5,"N_COORD97":2563841.6499999999,"ADDRESS":"渡子頭２５３號","OBJECTID":22597},"geometry":{"x":182549.50000000186,"y":2563841.6500000022}},{"attributes":{"ID":22598,"DIS_CODE":0,"TOWNNAME":"鹽水區","LI":"舊營里","LIN":"8鄰","STREET":" ","SECT":" ","MAREA":"舊營","LANE":" ","ALLEY":" ","HOUSE_NO":"８２號","E_COORD97":174432.03,"N_COORD97":2577627.02,"ADDRESS":"舊營８２號","OBJECTID":22598},"geometry":{"x":174432.03000000119,"y":2577627.0200000014}},{"attributes":{"ID":22599,"DIS_CODE":0,"TOWNNAME":"大內區","LI":"頭社里","LIN":"17鄰","STREET":" ","SECT":" ","MAREA":"頭社","LANE":" ","ALLEY":" ","HOUSE_NO":"２１５號之１","E_COORD97":187547.92999999999,"N_COORD97":2559535.2999999998,"ADDRESS":"頭社２１５號之１","OBJECTID":22599},"geometry":{"x":187547.93000000063,"y":2559535.3000000026}},{"attributes":{"ID":22600,"DIS_CODE":0,"TOWNNAME":"大內區","LI":"石湖里","LIN":"17鄰","STREET":" ","SECT":" ","MAREA":"新厝子","LANE":" ","ALLEY":" ","HOUSE_NO":"７６號之１","E_COORD97":183445.85000000001,"N_COORD97":2561063.2999999998,"ADDRESS":"新厝子７６號之１","OBJECTID":22600},"geometry":{"x":183445.85000000056,"y":2561063.3000000045}}]}