{"displayFieldName":"TOWNNAME","fieldAliases":{"ID":"ID","DIS_CODE":"DIS_CODE","TOWNNAME":"TOWNNAME","LI":"LI","LIN":"LIN","STREET":"STREET","SECT":"SECT","MAREA":"MAREA","LANE":"LANE","ALLEY":"ALLEY","HOUSE_NO":"HOUSE_NO","E_COORD97":"E_COORD97","N_COORD97":"N_COORD97","ADDRESS":"ADDRESS","OBJECTID":"OBJECTID"},"geometryType":"esriGeometryPoint","spatialReference":{"wkid":102443,"latestWkid":3826},"fields":[{"name":"ID","type":"esriFieldTypeDouble","alias":"ID"},{"name":"DIS_CODE","type":"esriFieldTypeInteger","alias":"DIS_CODE"},{"name":"TOWNNAME","type":"esriFieldTypeString","alias":"TOWNNAME","length":8},{"name":"LI","type":"esriFieldTypeString","alias":"LI","length":8},{"name":"LIN","type":"esriFieldTypeString","alias":"LIN","length":12},{"name":"STREET","type":"esriFieldTypeString","alias":"STREET","length":20},{"name":"SECT","type":"esriFieldTypeString","alias":"SECT","length":8},{"name":"MAREA","type":"esriFieldTypeString","alias":"MAREA","length":12},{"name":"LANE","type":"esriFieldTypeString","alias":"LANE","length":10},{"name":"ALLEY","type":"esriFieldTypeString","alias":"ALLEY","length":10},{"name":"HOUSE_NO","type":"esriFieldTypeString","alias":"HOUSE_NO","length":20},{"name":"E_COORD97","type":"esriFieldTypeDouble","alias":"E_COORD97"},{"name":"N_COORD97","type":"esriFieldTypeDouble","alias":"N_COORD97"},{"name":"ADDRESS","type":"esriFieldTypeString","alias":"ADDRESS","length":50},{"name":"OBJECTID","type":"esriFieldTypeOID","alias":"OBJECTID"}],"features":[{"attributes":{"ID":295809,"DIS_CODE":0,"TOWNNAME":"七股區","LI":"竹港里","LIN":"8鄰","STREET":" ","SECT":" ","MAREA":"竹港","LANE":" ","ALLEY":" ","HOUSE_NO":"７４號之１","E_COORD97":164870.79000000001,"N_COORD97":2556664.3799999999,"ADDRESS":"竹港７４號之１","OBJECTID":295801},"geometry":{"x":164870.79000000097,"y":2556664.3800000008}},{"attributes":{"ID":295810,"DIS_CODE":0,"TOWNNAME":"關廟區","LI":"東勢里","LIN":"17鄰","STREET":"旺萊路","SECT":" ","MAREA":" ","LANE":"２６０巷","ALLEY":" ","HOUSE_NO":"１０號","E_COORD97":181921.09,"N_COORD97":2539342.25,"ADDRESS":"旺萊路２６０巷１０號","OBJECTID":295802},"geometry":{"x":181921.08999999985,"y":2539342.25}},{"attributes":{"ID":295811,"DIS_CODE":0,"TOWNNAME":"新營區","LI":"太北里","LIN":"6鄰","STREET":" ","SECT":" ","MAREA":"太子宮","LANE":" ","ALLEY":" ","HOUSE_NO":"４８號之３","E_COORD97":175839.51594000001,"N_COORD97":2577156.9580600001,"ADDRESS":"太子宮４８號之３","OBJECTID":295803},"geometry":{"x":175839.51594000123,"y":2577156.9580600001}},{"attributes":{"ID":295812,"DIS_CODE":0,"TOWNNAME":"七股區","LI":"竹橋里","LIN":"7鄰","STREET":" ","SECT":" ","MAREA":"竹橋","LANE":" ","ALLEY":" ","HOUSE_NO":"８６號","E_COORD97":164083.38,"N_COORD97":2555909.5499999998,"ADDRESS":"竹橋８６號","OBJECTID":295804},"geometry":{"x":164083.38000000082,"y":2555909.5500000026}},{"attributes":{"ID":295813,"DIS_CODE":0,"TOWNNAME":"七股區","LI":"竹橋里","LIN":"7鄰","STREET":" ","SECT":" ","MAREA":"竹橋","LANE":" ","ALLEY":" ","HOUSE_NO":"８７號","E_COORD97":164108.48999999999,"N_COORD97":2555911.27,"ADDRESS":"竹橋８７號","OBJECTID":295805},"geometry":{"x":164108.49000000115,"y":2555911.2699999996}},{"attributes":{"ID":295814,"DIS_CODE":0,"TOWNNAME":"七股區","LI":"竹橋里","LIN":"7鄰","STREET":" ","SECT":" ","MAREA":"竹橋","LANE":" ","ALLEY":" ","HOUSE_NO":"８８號之１","E_COORD97":164093.95999999999,"N_COORD97":2555931.1800000002,"ADDRESS":"竹橋８８號之１","OBJECTID":295806},"geometry":{"x":164093.95999999996,"y":2555931.1800000016}},{"attributes":{"ID":295815,"DIS_CODE":0,"TOWNNAME":"七股區","LI":"竹橋里","LIN":"7鄰","STREET":" ","SECT":" ","MAREA":"竹橋","LANE":" ","ALLEY":" ","HOUSE_NO":"８８號","E_COORD97":164092.67000000001,"N_COORD97":2555934.2799999998,"ADDRESS":"竹橋８８號","OBJECTID":295807},"geometry":{"x":164092.66999999899,"y":2555934.2799999993}},{"attributes":{"ID":295816,"DIS_CODE":0,"TOWNNAME":"東區","LI":"成大里","LIN":"9鄰","STREET":"育樂街","SECT":" ","MAREA":" ","LANE":"１４１巷","ALLEY":" ","HOUSE_NO":"１４號","E_COORD97":169560.03,"N_COORD97":2543933.4100000001,"ADDRESS":"育樂街１４１巷１４號","OBJECTID":295808},"geometry":{"x":169560.03000000119,"y":2543933.4100000039}},{"attributes":{"ID":295817,"DIS_CODE":0,"TOWNNAME":"東區","LI":"成大里","LIN":"9鄰","STREET":"育樂街","SECT":" ","MAREA":" ","LANE":"１４１巷","ALLEY":" ","HOUSE_NO":"１６號","E_COORD97":169565.79999999999,"N_COORD97":2543934.2599999998,"ADDRESS":"育樂街１４１巷１６號","OBJECTID":295809},"geometry":{"x":169565.80000000075,"y":2543934.2600000035}},{"attributes":{"ID":295818,"DIS_CODE":0,"TOWNNAME":"東區","LI":"成大里","LIN":"9鄰","STREET":"育樂街","SECT":" ","MAREA":" ","LANE":"１４１巷","ALLEY":" ","HOUSE_NO":"１６號之１","E_COORD97":169569.76999999999,"N_COORD97":2543934.6899999999,"ADDRESS":"育樂街１４１巷１６號之１","OBJECTID":295810},"geometry":{"x":169569.76999999955,"y":2543934.6900000013}},{"attributes":{"ID":295819,"DIS_CODE":0,"TOWNNAME":"關廟區","LI":"香洋里","LIN":"17鄰","STREET":"中央路","SECT":" ","MAREA":" ","LANE":"８２巷","ALLEY":" ","HOUSE_NO":"２６號","E_COORD97":181526.59,"N_COORD97":2540066.96,"ADDRESS":"中央路８２巷２６號","OBJECTID":295811},"geometry":{"x":181526.59000000171,"y":2540066.9600000028}},{"attributes":{"ID":295820,"DIS_CODE":0,"TOWNNAME":"新化區","LI":"太平里","LIN":"14鄰","STREET":"太平街","SECT":" ","MAREA":" ","LANE":" ","ALLEY":" ","HOUSE_NO":"６６號","E_COORD97":178717.57000000001,"N_COORD97":2548770.25,"ADDRESS":"太平街６６號","OBJECTID":295812},"geometry":{"x":178717.5700000003,"y":2548770.2500000019}},{"attributes":{"ID":295821,"DIS_CODE":0,"TOWNNAME":"新化區","LI":"知義里","LIN":"14鄰","STREET":"復興路","SECT":" ","MAREA":" ","LANE":" ","ALLEY":" ","HOUSE_NO":"２１號","E_COORD97":179590.76999999999,"N_COORD97":2547265.25,"ADDRESS":"復興路２１號","OBJECTID":295813},"geometry":{"x":179590.77000000142,"y":2547265.2500000019}},{"attributes":{"ID":295822,"DIS_CODE":0,"TOWNNAME":"新化區","LI":"知義里","LIN":"14鄰","STREET":"復興路","SECT":" ","MAREA":" ","LANE":" ","ALLEY":" ","HOUSE_NO":"８４號","E_COORD97":179531.47,"N_COORD97":2547596.25,"ADDRESS":"復興路８４號","OBJECTID":295814},"geometry":{"x":179531.46999999974,"y":2547596.2500000037}},{"attributes":{"ID":295823,"DIS_CODE":0,"TOWNNAME":"東區","LI":"東門里","LIN":"17鄰","STREET":"東門路","SECT":"一段","MAREA":" ","LANE":"１３１巷","ALLEY":" ","HOUSE_NO":"１號","E_COORD97":169448.95999999999,"N_COORD97":2543277.1000000001,"ADDRESS":"東門路一段１３１巷１號","OBJECTID":295815},"geometry":{"x":169448.95999999996,"y":2543277.0999999978}},{"attributes":{"ID":295824,"DIS_CODE":0,"TOWNNAME":"東區","LI":"東門里","LIN":"22鄰","STREET":"東榮街","SECT":" ","MAREA":" ","LANE":"１１５巷","ALLEY":" ","HOUSE_NO":"１號","E_COORD97":169562.57000000001,"N_COORD97":2543231.02,"ADDRESS":"東榮街１１５巷１號","OBJECTID":295816},"geometry":{"x":169562.57000000216,"y":2543231.0200000014}},{"attributes":{"ID":295825,"DIS_CODE":0,"TOWNNAME":"北區","LI":"力行里","LIN":"17鄰","STREET":"南園街","SECT":" ","MAREA":" ","LANE":"１２７巷","ALLEY":" ","HOUSE_NO":"７３號","E_COORD97":170800.85999999999,"N_COORD97":2545332.25,"ADDRESS":"南園街１２７巷７３號","OBJECTID":295817},"geometry":{"x":170800.86000000034,"y":2545332.2500000019}},{"attributes":{"ID":295826,"DIS_CODE":0,"TOWNNAME":"北區","LI":"力行里","LIN":"17鄰","STREET":"南園街","SECT":" ","MAREA":" ","LANE":"１２７巷","ALLEY":" ","HOUSE_NO":"７５號","E_COORD97":170800.20000000001,"N_COORD97":2545337.6600000001,"ADDRESS":"南園街１２７巷７５號","OBJECTID":295818},"geometry":{"x":170800.20000000019,"y":2545337.6600000001}},{"attributes":{"ID":295827,"DIS_CODE":0,"TOWNNAME":"北區","LI":"力行里","LIN":"17鄰","STREET":"南園街","SECT":" ","MAREA":" ","LANE":"１２７巷","ALLEY":" ","HOUSE_NO":"７７號","E_COORD97":170803.89999999999,"N_COORD97":2545340.04,"ADDRESS":"南園街１２７巷７７號","OBJECTID":295819},"geometry":{"x":170803.90000000037,"y":2545340.040000001}},{"attributes":{"ID":295828,"DIS_CODE":0,"TOWNNAME":"北區","LI":"力行里","LIN":"17鄰","STREET":"南園街","SECT":" ","MAREA":" ","LANE":"１２７巷","ALLEY":" ","HOUSE_NO":"８１號","E_COORD97":170807.47,"N_COORD97":2545345.8399999999,"ADDRESS":"南園街１２７巷８１號","OBJECTID":295820},"geometry":{"x":170807.47000000067,"y":2545345.8399999999}},{"attributes":{"ID":295829,"DIS_CODE":0,"TOWNNAME":"北區","LI":"力行里","LIN":"17鄰","STREET":"南園街","SECT":" ","MAREA":" ","LANE":"１２７巷","ALLEY":" ","HOUSE_NO":"８３號","E_COORD97":170810.23999999999,"N_COORD97":2545348.8799999999,"ADDRESS":"南園街１２７巷８３號","OBJECTID":295821},"geometry":{"x":170810.24000000022,"y":2545348.879999999}},{"attributes":{"ID":295830,"DIS_CODE":0,"TOWNNAME":"北區","LI":"力行里","LIN":"17鄰","STREET":"南園街","SECT":" ","MAREA":" ","LANE":"１２７巷","ALLEY":" ","HOUSE_NO":"８５號","E_COORD97":170812.62,"N_COORD97":2545351.6499999999,"ADDRESS":"南園街１２７巷８５號","OBJECTID":295822},"geometry":{"x":170812.62000000011,"y":2545351.6500000004}},{"attributes":{"ID":295831,"DIS_CODE":0,"TOWNNAME":"北區","LI":"力行里","LIN":"17鄰","STREET":"南園街","SECT":" ","MAREA":" ","LANE":"１２７巷","ALLEY":" ","HOUSE_NO":"８７號","E_COORD97":170815.04000000001,"N_COORD97":2545355.02,"ADDRESS":"南園街１２７巷８７號","OBJECTID":295823},"geometry":{"x":170815.04000000004,"y":2545355.0199999996}},{"attributes":{"ID":295832,"DIS_CODE":0,"TOWNNAME":"北區","LI":"文元里","LIN":"25鄰","STREET":"文賢二街","SECT":" ","MAREA":" ","LANE":"５００巷","ALLEY":" ","HOUSE_NO":"１２號","E_COORD97":167712.76000000001,"N_COORD97":2546197.04,"ADDRESS":"文賢二街５００巷１２號","OBJECTID":295824},"geometry":{"x":167712.75999999978,"y":2546197.040000001}},{"attributes":{"ID":295833,"DIS_CODE":0,"TOWNNAME":"北區","LI":"文元里","LIN":"25鄰","STREET":"文賢二街","SECT":" ","MAREA":" ","LANE":"５００巷","ALLEY":" ","HOUSE_NO":"１６號","E_COORD97":167716.54000000001,"N_COORD97":2546195.0299999998,"ADDRESS":"文賢二街５００巷１６號","OBJECTID":295825},"geometry":{"x":167716.54000000097,"y":2546195.0299999993}},{"attributes":{"ID":295834,"DIS_CODE":0,"TOWNNAME":"北區","LI":"文元里","LIN":"25鄰","STREET":"文賢二街","SECT":" ","MAREA":" ","LANE":"５００巷","ALLEY":" ","HOUSE_NO":"１８號","E_COORD97":167721.07999999999,"N_COORD97":2546197.04,"ADDRESS":"文賢二街５００巷１８號","OBJECTID":295826},"geometry":{"x":167721.08000000007,"y":2546197.040000001}},{"attributes":{"ID":295835,"DIS_CODE":0,"TOWNNAME":"安平區","LI":"平安里","LIN":"17鄰","STREET":"安平路","SECT":" ","MAREA":" ","LANE":"６０６巷","ALLEY":" ","HOUSE_NO":"１４號","E_COORD97":164853.85000000001,"N_COORD97":2544455.0600000001,"ADDRESS":"安平路６０６巷１４號","OBJECTID":295827},"geometry":{"x":164853.84999999963,"y":2544455.0600000042}},{"attributes":{"ID":295836,"DIS_CODE":0,"TOWNNAME":"新化區","LI":"知義里","LIN":"14鄰","STREET":"復興路","SECT":" ","MAREA":" ","LANE":" ","ALLEY":" ","HOUSE_NO":"９６號","E_COORD97":179525.76999999999,"N_COORD97":2547624.25,"ADDRESS":"復興路９６號","OBJECTID":295828},"geometry":{"x":179525.76999999955,"y":2547624.2500000019}},{"attributes":{"ID":295837,"DIS_CODE":0,"TOWNNAME":"新化區","LI":"太平里","LIN":"14鄰","STREET":"太平街","SECT":" ","MAREA":" ","LANE":" ","ALLEY":" ","HOUSE_NO":"７８號","E_COORD97":178661.07000000001,"N_COORD97":2548762.25,"ADDRESS":"太平街７８號","OBJECTID":295829},"geometry":{"x":178661.07000000123,"y":2548762.2500000037}},{"attributes":{"ID":295838,"DIS_CODE":0,"TOWNNAME":"新化區","LI":"知義里","LIN":"14鄰","STREET":"復興路","SECT":" ","MAREA":" ","LANE":" ","ALLEY":" ","HOUSE_NO":"５２號","E_COORD97":179566.17000000001,"N_COORD97":2547458.25,"ADDRESS":"復興路５２號","OBJECTID":295830},"geometry":{"x":179566.16999999993,"y":2547458.2500000019}},{"attributes":{"ID":295839,"DIS_CODE":0,"TOWNNAME":"七股區","LI":"西寮里","LIN":"4鄰","STREET":" ","SECT":" ","MAREA":"西寮","LANE":" ","ALLEY":" ","HOUSE_NO":"４０號之１","E_COORD97":157426.95999999999,"N_COORD97":2563620.5800000001,"ADDRESS":"西寮４０號之１","OBJECTID":295831},"geometry":{"x":157426.95999999903,"y":2563620.5800000019}},{"attributes":{"ID":295840,"DIS_CODE":0,"TOWNNAME":"七股區","LI":"西寮里","LIN":"4鄰","STREET":" ","SECT":" ","MAREA":"西寮","LANE":" ","ALLEY":" ","HOUSE_NO":"４０號之２","E_COORD97":157418.5,"N_COORD97":2563625.4100000001,"ADDRESS":"西寮４０號之２","OBJECTID":295832},"geometry":{"x":157418.50000000093,"y":2563625.410000002}},{"attributes":{"ID":295841,"DIS_CODE":0,"TOWNNAME":"七股區","LI":"西寮里","LIN":"4鄰","STREET":" ","SECT":" ","MAREA":"西寮","LANE":" ","ALLEY":" ","HOUSE_NO":"４０號之３","E_COORD97":157415.75,"N_COORD97":2563631.1099999999,"ADDRESS":"西寮４０號之３","OBJECTID":295833},"geometry":{"x":157415.75000000093,"y":2563631.1100000013}},{"attributes":{"ID":295842,"DIS_CODE":0,"TOWNNAME":"七股區","LI":"西寮里","LIN":"4鄰","STREET":" ","SECT":" ","MAREA":"西寮","LANE":" ","ALLEY":" ","HOUSE_NO":"４０號","E_COORD97":157431.48000000001,"N_COORD97":2563610.02,"ADDRESS":"西寮４０號","OBJECTID":295834},"geometry":{"x":157431.48000000138,"y":2563610.0200000033}},{"attributes":{"ID":295843,"DIS_CODE":0,"TOWNNAME":"七股區","LI":"西寮里","LIN":"4鄰","STREET":" ","SECT":" ","MAREA":"西寮","LANE":" ","ALLEY":" ","HOUSE_NO":"４１號","E_COORD97":157418.60000000001,"N_COORD97":2563588.2999999998,"ADDRESS":"西寮４１號","OBJECTID":295835},"geometry":{"x":157418.59999999963,"y":2563588.3000000007}},{"attributes":{"ID":295844,"DIS_CODE":0,"TOWNNAME":"七股區","LI":"西寮里","LIN":"4鄰","STREET":" ","SECT":" ","MAREA":"西寮","LANE":" ","ALLEY":" ","HOUSE_NO":"４２號","E_COORD97":157409.20000000001,"N_COORD97":2563598.2999999998,"ADDRESS":"西寮４２號","OBJECTID":295836},"geometry":{"x":157409.20000000112,"y":2563598.3000000007}},{"attributes":{"ID":295845,"DIS_CODE":0,"TOWNNAME":"七股區","LI":"西寮里","LIN":"7鄰","STREET":" ","SECT":" ","MAREA":"西寮","LANE":" ","ALLEY":" ","HOUSE_NO":"５９號","E_COORD97":157415.45999999999,"N_COORD97":2563530.6299999999,"ADDRESS":"西寮５９號","OBJECTID":295837},"geometry":{"x":157415.46000000089,"y":2563530.6300000027}},{"attributes":{"ID":295846,"DIS_CODE":0,"TOWNNAME":"七股區","LI":"西寮里","LIN":"7鄰","STREET":" ","SECT":" ","MAREA":"西寮","LANE":" ","ALLEY":" ","HOUSE_NO":"６０號之１","E_COORD97":157422.81,"N_COORD97":2563517.8900000001,"ADDRESS":"西寮６０號之１","OBJECTID":295838},"geometry":{"x":157422.81000000052,"y":2563517.8900000025}},{"attributes":{"ID":295847,"DIS_CODE":0,"TOWNNAME":"七股區","LI":"樹林里","LIN":"4鄰","STREET":" ","SECT":" ","MAREA":"樹林","LANE":" ","ALLEY":" ","HOUSE_NO":"２７號之１","E_COORD97":164030.60999999999,"N_COORD97":2557214.8599999999,"ADDRESS":"樹林２７號之１","OBJECTID":295839},"geometry":{"x":164030.61000000034,"y":2557214.8599999994}},{"attributes":{"ID":295848,"DIS_CODE":0,"TOWNNAME":"七股區","LI":"樹林里","LIN":"4鄰","STREET":" ","SECT":" ","MAREA":"樹林","LANE":" ","ALLEY":" ","HOUSE_NO":"２７號","E_COORD97":164036.81,"N_COORD97":2557215.6299999999,"ADDRESS":"樹林２７號","OBJECTID":295840},"geometry":{"x":164036.80999999959,"y":2557215.6300000008}},{"attributes":{"ID":295849,"DIS_CODE":0,"TOWNNAME":"將軍區","LI":"三吉里","LIN":"4鄰","STREET":" ","SECT":" ","MAREA":"三吉","LANE":" ","ALLEY":" ","HOUSE_NO":"２３之１６號","E_COORD97":160893.42000000001,"N_COORD97":2567232.4500000002,"ADDRESS":"三吉２３之１６號","OBJECTID":295841},"geometry":{"x":160893.41999999993,"y":2567232.4500000011}},{"attributes":{"ID":295850,"DIS_CODE":0,"TOWNNAME":"安平區","LI":"平安里","LIN":"17鄰","STREET":"安平路","SECT":" ","MAREA":" ","LANE":"６０６巷","ALLEY":" ","HOUSE_NO":"１６號","E_COORD97":164854.82000000001,"N_COORD97":2544458.9399999999,"ADDRESS":"安平路６０６巷１６號","OBJECTID":295842},"geometry":{"x":164854.8200000003,"y":2544458.9400000013}},{"attributes":{"ID":295851,"DIS_CODE":0,"TOWNNAME":"安平區","LI":"平安里","LIN":"17鄰","STREET":"安平路","SECT":" ","MAREA":" ","LANE":"６０６巷","ALLEY":" ","HOUSE_NO":"１８號","E_COORD97":164855.85000000001,"N_COORD97":2544462.4500000002,"ADDRESS":"安平路６０６巷１８號","OBJECTID":295843},"geometry":{"x":164855.85000000149,"y":2544462.4500000011}},{"attributes":{"ID":295852,"DIS_CODE":0,"TOWNNAME":"安平區","LI":"平安里","LIN":"17鄰","STREET":"安平路","SECT":" ","MAREA":" ","LANE":"６０６巷","ALLEY":" ","HOUSE_NO":"３號","E_COORD97":164826.01000000001,"N_COORD97":2544415.1600000001,"ADDRESS":"安平路６０６巷３號","OBJECTID":295844},"geometry":{"x":164826.01000000164,"y":2544415.1600000001}},{"attributes":{"ID":295853,"DIS_CODE":0,"TOWNNAME":"安平區","LI":"平安里","LIN":"17鄰","STREET":"安平路","SECT":" ","MAREA":" ","LANE":"６０６巷","ALLEY":" ","HOUSE_NO":"５號","E_COORD97":164827.64999999999,"N_COORD97":2544420.1499999999,"ADDRESS":"安平路６０６巷５號","OBJECTID":295845},"geometry":{"x":164827.6500000013,"y":2544420.1499999985}},{"attributes":{"ID":295854,"DIS_CODE":0,"TOWNNAME":"官田區","LI":"大崎里","LIN":"4鄰","STREET":" ","SECT":" ","MAREA":"大崎","LANE":" ","ALLEY":" ","HOUSE_NO":"３４號","E_COORD97":185645.54999999999,"N_COORD97":2565530.2400000002,"ADDRESS":"大崎３４號","OBJECTID":295846},"geometry":{"x":185645.54999999981,"y":2565530.2400000002}},{"attributes":{"ID":295855,"DIS_CODE":0,"TOWNNAME":"安平區","LI":"平安里","LIN":"17鄰","STREET":"安平路","SECT":" ","MAREA":" ","LANE":"６０６巷","ALLEY":" ","HOUSE_NO":"７號","E_COORD97":164829.10000000001,"N_COORD97":2544425,"ADDRESS":"安平路６０６巷７號","OBJECTID":295847},"geometry":{"x":164829.10000000056,"y":2544425.0000000019}},{"attributes":{"ID":295856,"DIS_CODE":0,"TOWNNAME":"安平區","LI":"平安里","LIN":"17鄰","STREET":"安平路","SECT":" ","MAREA":" ","LANE":"６０６巷","ALLEY":" ","HOUSE_NO":"９號","E_COORD97":164830.07000000001,"N_COORD97":2544431.0600000001,"ADDRESS":"安平路６０６巷９號","OBJECTID":295848},"geometry":{"x":164830.07000000123,"y":2544431.0599999987}},{"attributes":{"ID":295857,"DIS_CODE":0,"TOWNNAME":"麻豆區","LI":"油車里","LIN":"17鄰","STREET":"新生北路","SECT":" ","MAREA":" ","LANE":"１７２巷","ALLEY":" ","HOUSE_NO":"１０號","E_COORD97":172346.54000000001,"N_COORD97":2565373.6400000001,"ADDRESS":"新生北路１７２巷１０號","OBJECTID":295849},"geometry":{"x":172346.54000000097,"y":2565373.6400000025}},{"attributes":{"ID":295858,"DIS_CODE":0,"TOWNNAME":"麻豆區","LI":"油車里","LIN":"17鄰","STREET":"新生北路","SECT":" ","MAREA":" ","LANE":"１７２巷","ALLEY":" ","HOUSE_NO":"１１號","E_COORD97":172351.17000000001,"N_COORD97":2565391.8500000001,"ADDRESS":"新生北路１７２巷１１號","OBJECTID":295850},"geometry":{"x":172351.16999999993,"y":2565391.8500000015}},{"attributes":{"ID":295859,"DIS_CODE":0,"TOWNNAME":"麻豆區","LI":"油車里","LIN":"17鄰","STREET":"新生北路","SECT":" ","MAREA":" ","LANE":"１７２巷","ALLEY":" ","HOUSE_NO":"１２號","E_COORD97":172352.16,"N_COORD97":2565374.2400000002,"ADDRESS":"新生北路１７２巷１２號","OBJECTID":295851},"geometry":{"x":172352.16000000201,"y":2565374.2400000002}},{"attributes":{"ID":295860,"DIS_CODE":0,"TOWNNAME":"麻豆區","LI":"油車里","LIN":"17鄰","STREET":"新生北路","SECT":" ","MAREA":" ","LANE":"１７２巷","ALLEY":" ","HOUSE_NO":"１３號","E_COORD97":172355.25,"N_COORD97":2565392.1200000001,"ADDRESS":"新生北路１７２巷１３號","OBJECTID":295852},"geometry":{"x":172355.25000000093,"y":2565392.1200000029}},{"attributes":{"ID":295861,"DIS_CODE":0,"TOWNNAME":"麻豆區","LI":"油車里","LIN":"17鄰","STREET":"新生北路","SECT":" ","MAREA":" ","LANE":"１７２巷","ALLEY":" ","HOUSE_NO":"１４號","E_COORD97":172357.78,"N_COORD97":2565374.8399999999,"ADDRESS":"新生北路１７２巷１４號","OBJECTID":295853},"geometry":{"x":172357.78000000026,"y":2565374.8400000017}},{"attributes":{"ID":295862,"DIS_CODE":0,"TOWNNAME":"麻豆區","LI":"油車里","LIN":"17鄰","STREET":"新生北路","SECT":" ","MAREA":" ","LANE":"１７２巷","ALLEY":" ","HOUSE_NO":"１５號","E_COORD97":172359.34,"N_COORD97":2565392.3799999999,"ADDRESS":"新生北路１７２巷１５號","OBJECTID":295854},"geometry":{"x":172359.34000000078,"y":2565392.379999999}},{"attributes":{"ID":295863,"DIS_CODE":0,"TOWNNAME":"麻豆區","LI":"油車里","LIN":"17鄰","STREET":"新生北路","SECT":" ","MAREA":" ","LANE":"１７２巷","ALLEY":" ","HOUSE_NO":"１６號","E_COORD97":172363.39999999999,"N_COORD97":2565375.4300000002,"ADDRESS":"新生北路１７２巷１６號","OBJECTID":295855},"geometry":{"x":172363.40000000037,"y":2565375.4299999997}},{"attributes":{"ID":295864,"DIS_CODE":0,"TOWNNAME":"官田區","LI":"大崎里","LIN":"4鄰","STREET":" ","SECT":" ","MAREA":"大崎","LANE":" ","ALLEY":" ","HOUSE_NO":"３５號","E_COORD97":185638,"N_COORD97":2565522.5,"ADDRESS":"大崎３５號","OBJECTID":295856},"geometry":{"x":185638,"y":2565522.4999999981}},{"attributes":{"ID":295865,"DIS_CODE":0,"TOWNNAME":"官田區","LI":"大崎里","LIN":"4鄰","STREET":" ","SECT":" ","MAREA":"大崎","LANE":" ","ALLEY":" ","HOUSE_NO":"３６號","E_COORD97":185646.91,"N_COORD97":2565505.4900000002,"ADDRESS":"大崎３６號","OBJECTID":295857},"geometry":{"x":185646.91000000015,"y":2565505.4900000002}},{"attributes":{"ID":295866,"DIS_CODE":0,"TOWNNAME":"官田區","LI":"大崎里","LIN":"4鄰","STREET":" ","SECT":" ","MAREA":"大崎","LANE":" ","ALLEY":" ","HOUSE_NO":"３７號","E_COORD97":185664.06,"N_COORD97":2565535.0299999998,"ADDRESS":"大崎３７號","OBJECTID":295858},"geometry":{"x":185664.05999999959,"y":2565535.0299999975}},{"attributes":{"ID":295867,"DIS_CODE":0,"TOWNNAME":"官田區","LI":"大崎里","LIN":"1鄰","STREET":" ","SECT":" ","MAREA":"大崎","LANE":" ","ALLEY":" ","HOUSE_NO":"１號之５","E_COORD97":185516.88,"N_COORD97":2565772.3199999998,"ADDRESS":"大崎１號之５","OBJECTID":295859},"geometry":{"x":185516.88000000175,"y":2565772.3200000022}},{"attributes":{"ID":295868,"DIS_CODE":0,"TOWNNAME":"官田區","LI":"大崎里","LIN":"1鄰","STREET":" ","SECT":" ","MAREA":"大崎","LANE":" ","ALLEY":" ","HOUSE_NO":"１號之６","E_COORD97":185522.76000000001,"N_COORD97":2565754.2799999998,"ADDRESS":"大崎１號之６","OBJECTID":295860},"geometry":{"x":185522.76000000071,"y":2565754.2800000012}},{"attributes":{"ID":295869,"DIS_CODE":0,"TOWNNAME":"官田區","LI":"大崎里","LIN":"1鄰","STREET":" ","SECT":" ","MAREA":"大崎","LANE":" ","ALLEY":" ","HOUSE_NO":"２號之１","E_COORD97":185514.23999999999,"N_COORD97":2565706.48,"ADDRESS":"大崎２號之１","OBJECTID":295861},"geometry":{"x":185514.24000000022,"y":2565706.4800000042}},{"attributes":{"ID":295870,"DIS_CODE":0,"TOWNNAME":"官田區","LI":"大崎里","LIN":"1鄰","STREET":" ","SECT":" ","MAREA":"大崎","LANE":" ","ALLEY":" ","HOUSE_NO":"２號之２","E_COORD97":185494.48999999999,"N_COORD97":2565695.1699999999,"ADDRESS":"大崎２號之２","OBJECTID":295862},"geometry":{"x":185494.49000000209,"y":2565695.1700000018}},{"attributes":{"ID":295871,"DIS_CODE":0,"TOWNNAME":"官田區","LI":"大崎里","LIN":"1鄰","STREET":" ","SECT":" ","MAREA":"大崎","LANE":" ","ALLEY":" ","HOUSE_NO":"２號之３","E_COORD97":185516.70000000001,"N_COORD97":2565676.73,"ADDRESS":"大崎２號之３","OBJECTID":295863},"geometry":{"x":185516.70000000205,"y":2565676.7300000004}},{"attributes":{"ID":295872,"DIS_CODE":0,"TOWNNAME":"官田區","LI":"大崎里","LIN":"4鄰","STREET":" ","SECT":" ","MAREA":"大崎","LANE":" ","ALLEY":" ","HOUSE_NO":"３８號之１","E_COORD97":185706.54999999999,"N_COORD97":2565575.02,"ADDRESS":"大崎３８號之１","OBJECTID":295864},"geometry":{"x":185706.54999999981,"y":2565575.0199999996}},{"attributes":{"ID":295873,"DIS_CODE":0,"TOWNNAME":"白河區","LI":"草店里","LIN":"7鄰","STREET":" ","SECT":" ","MAREA":"草店","LANE":" ","ALLEY":" ","HOUSE_NO":"７３號","E_COORD97":192024.82999999999,"N_COORD97":2587550.52,"ADDRESS":"草店７３號","OBJECTID":295865},"geometry":{"x":192024.83000000007,"y":2587550.5200000014}},{"attributes":{"ID":295874,"DIS_CODE":0,"TOWNNAME":"仁德區","LI":"保安里","LIN":"22鄰","STREET":"文賢路","SECT":"一段","MAREA":" ","LANE":" ","ALLEY":" ","HOUSE_NO":"６９６號","E_COORD97":171240.39395600001,"N_COORD97":2536452.5750000002,"ADDRESS":"文賢路一段６９６號","OBJECTID":295866},"geometry":{"x":171240.39395599999,"y":2536452.5749999993}},{"attributes":{"ID":295875,"DIS_CODE":0,"TOWNNAME":"官田區","LI":"二鎮里","LIN":"1鄰","STREET":"工業西路","SECT":" ","MAREA":" ","LANE":" ","ALLEY":" ","HOUSE_NO":"１號","E_COORD97":180426.79999999999,"N_COORD97":2567034.98,"ADDRESS":"工業西路１號","OBJECTID":295867},"geometry":{"x":180426.80000000075,"y":2567034.9800000004}},{"attributes":{"ID":295876,"DIS_CODE":0,"TOWNNAME":"麻豆區","LI":"油車里","LIN":"17鄰","STREET":"新生北路","SECT":" ","MAREA":" ","LANE":"１７２巷","ALLEY":" ","HOUSE_NO":"１８號","E_COORD97":172369.01999999999,"N_COORD97":2565376.0299999998,"ADDRESS":"新生北路１７２巷１８號","OBJECTID":295868},"geometry":{"x":172369.01999999955,"y":2565376.0300000031}},{"attributes":{"ID":295877,"DIS_CODE":0,"TOWNNAME":"麻豆區","LI":"油車里","LIN":"17鄰","STREET":"新生北路","SECT":" ","MAREA":" ","LANE":"１７２巷","ALLEY":" ","HOUSE_NO":"１號","E_COORD97":172329.92000000001,"N_COORD97":2565390.04,"ADDRESS":"新生北路１７２巷１號","OBJECTID":295869},"geometry":{"x":172329.92000000086,"y":2565390.040000001}},{"attributes":{"ID":295878,"DIS_CODE":0,"TOWNNAME":"麻豆區","LI":"油車里","LIN":"17鄰","STREET":"新生北路","SECT":" ","MAREA":" ","LANE":"１７２巷","ALLEY":" ","HOUSE_NO":"２號","E_COORD97":172329.69,"N_COORD97":2565371.8599999999,"ADDRESS":"新生北路１７２巷２號","OBJECTID":295870},"geometry":{"x":172329.69000000041,"y":2565371.8600000013}},{"attributes":{"ID":295879,"DIS_CODE":0,"TOWNNAME":"麻豆區","LI":"油車里","LIN":"17鄰","STREET":"新生北路","SECT":" ","MAREA":" ","LANE":"１７２巷","ALLEY":" ","HOUSE_NO":"３號","E_COORD97":172334.01000000001,"N_COORD97":2565390.3100000001,"ADDRESS":"新生北路１７２巷３號","OBJECTID":295871},"geometry":{"x":172334.01000000164,"y":2565390.3100000024}},{"attributes":{"ID":295880,"DIS_CODE":0,"TOWNNAME":"麻豆區","LI":"油車里","LIN":"17鄰","STREET":"新生北路","SECT":" ","MAREA":" ","LANE":"１７２巷","ALLEY":" ","HOUSE_NO":"５號","E_COORD97":172338.10000000001,"N_COORD97":2565390.5699999998,"ADDRESS":"新生北路１７２巷５號","OBJECTID":295872},"geometry":{"x":172338.09999999963,"y":2565390.5700000022}},{"attributes":{"ID":295881,"DIS_CODE":0,"TOWNNAME":"麻豆區","LI":"油車里","LIN":"17鄰","STREET":"新生北路","SECT":" ","MAREA":" ","LANE":"１７２巷","ALLEY":" ","HOUSE_NO":"６號","E_COORD97":172335.31,"N_COORD97":2565372.4500000002,"ADDRESS":"新生北路１７２巷６號","OBJECTID":295873},"geometry":{"x":172335.31000000052,"y":2565372.4499999993}},{"attributes":{"ID":295882,"DIS_CODE":0,"TOWNNAME":"麻豆區","LI":"油車里","LIN":"17鄰","STREET":"新生北路","SECT":" ","MAREA":" ","LANE":"１７２巷","ALLEY":" ","HOUSE_NO":"７號","E_COORD97":172342.17999999999,"N_COORD97":2565390.8399999999,"ADDRESS":"新生北路１７２巷７號","OBJECTID":295874},"geometry":{"x":172342.1799999997,"y":2565390.8399999999}},{"attributes":{"ID":295883,"DIS_CODE":0,"TOWNNAME":"麻豆區","LI":"油車里","LIN":"17鄰","STREET":"新生北路","SECT":" ","MAREA":" ","LANE":"１７２巷","ALLEY":" ","HOUSE_NO":"８號","E_COORD97":172340.92999999999,"N_COORD97":2565373.0499999998,"ADDRESS":"新生北路１７２巷８號","OBJECTID":295875},"geometry":{"x":172340.9299999997,"y":2565373.0500000007}},{"attributes":{"ID":295884,"DIS_CODE":0,"TOWNNAME":"麻豆區","LI":"油車里","LIN":"17鄰","STREET":"新生北路","SECT":" ","MAREA":" ","LANE":"１７２巷","ALLEY":" ","HOUSE_NO":"９號","E_COORD97":172346.01999999999,"N_COORD97":2565391.3999999999,"ADDRESS":"新生北路１７２巷９號","OBJECTID":295876},"geometry":{"x":172346.02000000048,"y":2565391.4000000041}},{"attributes":{"ID":295885,"DIS_CODE":0,"TOWNNAME":"麻豆區","LI":"油車里","LIN":"17鄰","STREET":"新生北路","SECT":" ","MAREA":" ","LANE":"２８２巷","ALLEY":" ","HOUSE_NO":"１０號","E_COORD97":172379.32000000001,"N_COORD97":2565515.8399999999,"ADDRESS":"新生北路２８２巷１０號","OBJECTID":295877},"geometry":{"x":172379.3200000003,"y":2565515.8399999999}},{"attributes":{"ID":295886,"DIS_CODE":0,"TOWNNAME":"麻豆區","LI":"油車里","LIN":"17鄰","STREET":"新生北路","SECT":" ","MAREA":" ","LANE":"２８２巷","ALLEY":" ","HOUSE_NO":"１１號","E_COORD97":172399.73999999999,"N_COORD97":2565506.8999999999,"ADDRESS":"新生北路２８２巷１１號","OBJECTID":295878},"geometry":{"x":172399.74000000115,"y":2565506.9000000041}},{"attributes":{"ID":295887,"DIS_CODE":0,"TOWNNAME":"麻豆區","LI":"油車里","LIN":"17鄰","STREET":"新生北路","SECT":" ","MAREA":" ","LANE":"２８２巷","ALLEY":" ","HOUSE_NO":"１２號","E_COORD97":172379.23000000001,"N_COORD97":2565510.6800000002,"ADDRESS":"新生北路２８２巷１２號","OBJECTID":295879},"geometry":{"x":172379.23000000138,"y":2565510.6799999978}},{"attributes":{"ID":295888,"DIS_CODE":0,"TOWNNAME":"麻豆區","LI":"油車里","LIN":"17鄰","STREET":"新生北路","SECT":" ","MAREA":" ","LANE":"２８２巷","ALLEY":" ","HOUSE_NO":"１３號","E_COORD97":172399.70999999999,"N_COORD97":2565501.6800000002,"ADDRESS":"新生北路２８２巷１３號","OBJECTID":295880},"geometry":{"x":172399.71000000089,"y":2565501.6800000016}},{"attributes":{"ID":295889,"DIS_CODE":0,"TOWNNAME":"麻豆區","LI":"油車里","LIN":"17鄰","STREET":"新生北路","SECT":" ","MAREA":" ","LANE":"２８２巷","ALLEY":" ","HOUSE_NO":"１５號","E_COORD97":172399.67000000001,"N_COORD97":2565496.46,"ADDRESS":"新生北路２８２巷１５號","OBJECTID":295881},"geometry":{"x":172399.67000000086,"y":2565496.459999999}},{"attributes":{"ID":295890,"DIS_CODE":0,"TOWNNAME":"麻豆區","LI":"油車里","LIN":"17鄰","STREET":"新生北路","SECT":" ","MAREA":" ","LANE":"２８２巷","ALLEY":" ","HOUSE_NO":"１６號","E_COORD97":172379.14999999999,"N_COORD97":2565505.52,"ADDRESS":"新生北路２８２巷１６號","OBJECTID":295882},"geometry":{"x":172379.15000000037,"y":2565505.5200000014}},{"attributes":{"ID":295891,"DIS_CODE":0,"TOWNNAME":"麻豆區","LI":"油車里","LIN":"17鄰","STREET":"新生北路","SECT":" ","MAREA":" ","LANE":"２８２巷","ALLEY":" ","HOUSE_NO":"１７號","E_COORD97":172399.64000000001,"N_COORD97":2565491.2400000002,"ADDRESS":"新生北路２８２巷１７號","OBJECTID":295883},"geometry":{"x":172399.6400000006,"y":2565491.2400000021}},{"attributes":{"ID":295892,"DIS_CODE":0,"TOWNNAME":"中西區","LI":" ","LIN":" ","STREET":"健康路","SECT":"一段","MAREA":" ","LANE":"３１０巷","ALLEY":" ","HOUSE_NO":"２號","E_COORD97":168267.45999999999,"N_COORD97":2542460.5899999999,"ADDRESS":"健康路一段３１０巷２號","OBJECTID":295884},"geometry":{"x":168267.45999999996,"y":2542460.5900000036}},{"attributes":{"ID":295893,"DIS_CODE":0,"TOWNNAME":"中西區","LI":" ","LIN":" ","STREET":"健康路","SECT":"一段","MAREA":" ","LANE":"３１０巷","ALLEY":" ","HOUSE_NO":"８號","E_COORD97":168269.10999999999,"N_COORD97":2542481.9300000002,"ADDRESS":"健康路一段３１０巷８號","OBJECTID":295885},"geometry":{"x":168269.11000000127,"y":2542481.9300000034}},{"attributes":{"ID":295894,"DIS_CODE":0,"TOWNNAME":"麻豆區","LI":"油車里","LIN":"17鄰","STREET":"新生北路","SECT":" ","MAREA":" ","LANE":"２８２巷","ALLEY":" ","HOUSE_NO":"１８號","E_COORD97":172379.06,"N_COORD97":2565500.3700000001,"ADDRESS":"新生北路２８２巷１８號","OBJECTID":295886},"geometry":{"x":172379.05999999959,"y":2565500.370000001}},{"attributes":{"ID":295895,"DIS_CODE":0,"TOWNNAME":"麻豆區","LI":"油車里","LIN":"17鄰","STREET":"新生北路","SECT":" ","MAREA":" ","LANE":"２８２巷","ALLEY":" ","HOUSE_NO":"１９號","E_COORD97":172399.60999999999,"N_COORD97":2565486.0099999998,"ADDRESS":"新生北路２８２巷１９號","OBJECTID":295887},"geometry":{"x":172399.61000000034,"y":2565486.0100000016}},{"attributes":{"ID":295896,"DIS_CODE":0,"TOWNNAME":"麻豆區","LI":"油車里","LIN":"17鄰","STREET":"新生北路","SECT":" ","MAREA":" ","LANE":"２８２巷","ALLEY":" ","HOUSE_NO":"１號","E_COORD97":172399.48000000001,"N_COORD97":2565532.8199999998,"ADDRESS":"新生北路２８２巷１號","OBJECTID":295888},"geometry":{"x":172399.48000000138,"y":2565532.8200000003}},{"attributes":{"ID":295897,"DIS_CODE":0,"TOWNNAME":"麻豆區","LI":"油車里","LIN":"17鄰","STREET":"新生北路","SECT":" ","MAREA":" ","LANE":"２８２巷","ALLEY":" ","HOUSE_NO":"２０號","E_COORD97":172378.97,"N_COORD97":2565495.21,"ADDRESS":"新生北路２８２巷２０號","OBJECTID":295889},"geometry":{"x":172378.97000000067,"y":2565495.2100000046}},{"attributes":{"ID":295898,"DIS_CODE":0,"TOWNNAME":"麻豆區","LI":"油車里","LIN":"17鄰","STREET":"新生北路","SECT":" ","MAREA":" ","LANE":"２８２巷","ALLEY":" ","HOUSE_NO":"２２號","E_COORD97":172378.88,"N_COORD97":2565490.0499999998,"ADDRESS":"新生北路２８２巷２２號","OBJECTID":295890},"geometry":{"x":172378.87999999989,"y":2565490.0500000026}},{"attributes":{"ID":295899,"DIS_CODE":0,"TOWNNAME":"麻豆區","LI":"油車里","LIN":"17鄰","STREET":"新生北路","SECT":" ","MAREA":" ","LANE":"２８２巷","ALLEY":" ","HOUSE_NO":"２６號","E_COORD97":172378.79000000001,"N_COORD97":2565484.8999999999,"ADDRESS":"新生北路２８２巷２６號","OBJECTID":295891},"geometry":{"x":172378.79000000097,"y":2565484.9000000004}},{"attributes":{"ID":295900,"DIS_CODE":0,"TOWNNAME":"麻豆區","LI":"油車里","LIN":"17鄰","STREET":"新生北路","SECT":" ","MAREA":" ","LANE":"２８２巷","ALLEY":" ","HOUSE_NO":"２號","E_COORD97":172378.92000000001,"N_COORD97":2565532.1000000001,"ADDRESS":"新生北路２８２巷２號","OBJECTID":295892},"geometry":{"x":172378.92000000179,"y":2565532.1000000015}},{"attributes":{"ID":295901,"DIS_CODE":0,"TOWNNAME":"新化區","LI":"武安里","LIN":"14鄰","STREET":"健康路","SECT":" ","MAREA":" ","LANE":" ","ALLEY":" ","HOUSE_NO":"７８號","E_COORD97":178844.28,"N_COORD97":2548121.2599999998,"ADDRESS":"健康路７８號","OBJECTID":295893},"geometry":{"x":178844.28000000119,"y":2548121.2600000035}},{"attributes":{"ID":295902,"DIS_CODE":0,"TOWNNAME":"新化區","LI":"協興里","LIN":"14鄰","STREET":"太平街","SECT":" ","MAREA":" ","LANE":" ","ALLEY":" ","HOUSE_NO":"１７２號之２","E_COORD97":178202.48000000001,"N_COORD97":2548656.2599999998,"ADDRESS":"太平街１７２號之２","OBJECTID":295894},"geometry":{"x":178202.48000000138,"y":2548656.2599999998}},{"attributes":{"ID":295903,"DIS_CODE":0,"TOWNNAME":"中西區","LI":"西湖里","LIN":"36鄰","STREET":"頂美三街","SECT":" ","MAREA":" ","LANE":"１２１巷","ALLEY":" ","HOUSE_NO":"３５號","E_COORD97":166501.47,"N_COORD97":2544818.02,"ADDRESS":"頂美三街１２１巷３５號","OBJECTID":295895},"geometry":{"x":166501.47000000067,"y":2544818.0200000014}},{"attributes":{"ID":295904,"DIS_CODE":0,"TOWNNAME":"中西區","LI":"公正里","LIN":"9鄰","STREET":"民族路","SECT":"二段","MAREA":" ","LANE":"五七巷","ALLEY":" ","HOUSE_NO":"２號","E_COORD97":169010.14000000001,"N_COORD97":2543842.6899999999,"ADDRESS":"民族路二段五七巷２號","OBJECTID":295896},"geometry":{"x":169010.13999999966,"y":2543842.6900000032}},{"attributes":{"ID":295905,"DIS_CODE":0,"TOWNNAME":"麻豆區","LI":"油車里","LIN":"17鄰","STREET":"新生北路","SECT":" ","MAREA":" ","LANE":"２８２巷","ALLEY":" ","HOUSE_NO":"３號","E_COORD97":172399.57000000001,"N_COORD97":2565527.5600000001,"ADDRESS":"新生北路２８２巷３號","OBJECTID":295897},"geometry":{"x":172399.5700000003,"y":2565527.5600000024}},{"attributes":{"ID":295906,"DIS_CODE":0,"TOWNNAME":"麻豆區","LI":"油車里","LIN":"17鄰","STREET":"新生北路","SECT":" ","MAREA":" ","LANE":"２８２巷","ALLEY":" ","HOUSE_NO":"５號","E_COORD97":172399.67000000001,"N_COORD97":2565522.3100000001,"ADDRESS":"新生北路２８２巷５號","OBJECTID":295898},"geometry":{"x":172399.67000000086,"y":2565522.3100000024}},{"attributes":{"ID":295907,"DIS_CODE":0,"TOWNNAME":"麻豆區","LI":"油車里","LIN":"17鄰","STREET":"新生北路","SECT":" ","MAREA":" ","LANE":"２８２巷","ALLEY":" ","HOUSE_NO":"６號","E_COORD97":172378.98999999999,"N_COORD97":2565526.6800000002,"ADDRESS":"新生北路２８２巷６號","OBJECTID":295899},"geometry":{"x":172378.99000000115,"y":2565526.6799999997}},{"attributes":{"ID":295908,"DIS_CODE":0,"TOWNNAME":"麻豆區","LI":"油車里","LIN":"17鄰","STREET":"新生北路","SECT":" ","MAREA":" ","LANE":"２８２巷","ALLEY":" ","HOUSE_NO":"７號","E_COORD97":172399.76999999999,"N_COORD97":2565517.0499999998,"ADDRESS":"新生北路２８２巷７號","OBJECTID":295900},"geometry":{"x":172399.77000000142,"y":2565517.0500000026}},{"attributes":{"ID":295909,"DIS_CODE":0,"TOWNNAME":"新營區","LI":"角帶里","LIN":"1鄰","STREET":" ","SECT":" ","MAREA":"角帶圍","LANE":" ","ALLEY":" ","HOUSE_NO":"１之２０號","E_COORD97":174874.29131999999,"N_COORD97":2576283.90209,"ADDRESS":"角帶圍１之２０號","OBJECTID":295901},"geometry":{"x":174874.29132000078,"y":2576283.9020900037}},{"attributes":{"ID":295910,"DIS_CODE":0,"TOWNNAME":"麻豆區","LI":"油車里","LIN":"17鄰","STREET":"新生北路","SECT":" ","MAREA":" ","LANE":"２８２巷","ALLEY":" ","HOUSE_NO":"８號","E_COORD97":172379.06,"N_COORD97":2565521.2599999998,"ADDRESS":"新生北路２８２巷８號","OBJECTID":295902},"geometry":{"x":172379.05999999959,"y":2565521.2600000016}},{"attributes":{"ID":295911,"DIS_CODE":0,"TOWNNAME":"麻豆區","LI":"油車里","LIN":"17鄰","STREET":"新生北路","SECT":" ","MAREA":" ","LANE":"２８２巷","ALLEY":" ","HOUSE_NO":"９號","E_COORD97":172399.87,"N_COORD97":2565511.7999999998,"ADDRESS":"新生北路２８２巷９號","OBJECTID":295903},"geometry":{"x":172399.87000000104,"y":2565511.8000000026}},{"attributes":{"ID":295912,"DIS_CODE":0,"TOWNNAME":"麻豆區","LI":"油車里","LIN":"17鄰","STREET":"新生北路","SECT":" ","MAREA":" ","LANE":"３０８巷","ALLEY":" ","HOUSE_NO":"１００號","E_COORD97":172363.76000000001,"N_COORD97":2565435.7799999998,"ADDRESS":"新生北路３０８巷１００號","OBJECTID":295904},"geometry":{"x":172363.75999999978,"y":2565435.7800000012}},{"attributes":{"ID":295913,"DIS_CODE":0,"TOWNNAME":"麻豆區","LI":"油車里","LIN":"17鄰","STREET":"新生北路","SECT":" ","MAREA":" ","LANE":"３０８巷","ALLEY":" ","HOUSE_NO":"１０１號","E_COORD97":172369.66,"N_COORD97":2565435.8100000001,"ADDRESS":"新生北路３０８巷１０１號","OBJECTID":295905},"geometry":{"x":172369.66000000108,"y":2565435.8100000005}},{"attributes":{"ID":295914,"DIS_CODE":0,"TOWNNAME":"麻豆區","LI":"油車里","LIN":"17鄰","STREET":"新生北路","SECT":" ","MAREA":" ","LANE":"３０８巷","ALLEY":" ","HOUSE_NO":"１０２號","E_COORD97":172375.54999999999,"N_COORD97":2565435.8399999999,"ADDRESS":"新生北路３０８巷１０２號","OBJECTID":295906},"geometry":{"x":172375.54999999981,"y":2565435.8400000017}},{"attributes":{"ID":295915,"DIS_CODE":0,"TOWNNAME":"北區","LI":"光武里","LIN":"1鄰","STREET":"長榮路","SECT":"五段","MAREA":" ","LANE":"２５３巷","ALLEY":" ","HOUSE_NO":"１７號之１","E_COORD97":169882.37,"N_COORD97":2545802.3500000001,"ADDRESS":"長榮路五段２５３巷１７號之１","OBJECTID":295907},"geometry":{"x":169882.37000000197,"y":2545802.3500000015}},{"attributes":{"ID":295916,"DIS_CODE":0,"TOWNNAME":"麻豆區","LI":"油車里","LIN":"17鄰","STREET":"新生北路","SECT":" ","MAREA":" ","LANE":"３０８巷","ALLEY":" ","HOUSE_NO":"１０３號","E_COORD97":172381.10999999999,"N_COORD97":2565435.79,"ADDRESS":"新生北路３０８巷１０３號","OBJECTID":295908},"geometry":{"x":172381.11000000034,"y":2565435.790000001}},{"attributes":{"ID":295917,"DIS_CODE":0,"TOWNNAME":"麻豆區","LI":"油車里","LIN":"17鄰","STREET":"新生北路","SECT":" ","MAREA":" ","LANE":"３０８巷","ALLEY":" ","HOUSE_NO":"１０５號","E_COORD97":172368.28,"N_COORD97":2565419.4199999999,"ADDRESS":"新生北路３０８巷１０５號","OBJECTID":295909},"geometry":{"x":172368.28000000212,"y":2565419.4200000018}},{"attributes":{"ID":295918,"DIS_CODE":0,"TOWNNAME":"新化區","LI":"協興里","LIN":"14鄰","STREET":"太平街","SECT":" ","MAREA":" ","LANE":" ","ALLEY":" ","HOUSE_NO":"１５４號","E_COORD97":178334.12,"N_COORD97":2548686.25,"ADDRESS":"太平街１５４號","OBJECTID":295910},"geometry":{"x":178334.12000000011,"y":2548686.25}},{"attributes":{"ID":295919,"DIS_CODE":0,"TOWNNAME":"新化區","LI":"協興里","LIN":"14鄰","STREET":"太平街","SECT":" ","MAREA":" ","LANE":" ","ALLEY":" ","HOUSE_NO":"１６０號之２","E_COORD97":178255.48000000001,"N_COORD97":2548671.2599999998,"ADDRESS":"太平街１６０號之２","OBJECTID":295911},"geometry":{"x":178255.48000000045,"y":2548671.2600000016}},{"attributes":{"ID":295920,"DIS_CODE":0,"TOWNNAME":"中西區","LI":"西賢里","LIN":"20鄰","STREET":"西賢一街","SECT":" ","MAREA":" ","LANE":"１５９巷","ALLEY":" ","HOUSE_NO":"２９號","E_COORD97":165598.28,"N_COORD97":2544874.5299999998,"ADDRESS":"西賢一街１５９巷２９號","OBJECTID":295912},"geometry":{"x":165598.28000000119,"y":2544874.5300000031}},{"attributes":{"ID":295921,"DIS_CODE":0,"TOWNNAME":"麻豆區","LI":"油車里","LIN":"17鄰","STREET":"新生北路","SECT":" ","MAREA":" ","LANE":"３０８巷","ALLEY":" ","HOUSE_NO":"１０６號","E_COORD97":172368.31,"N_COORD97":2565414.77,"ADDRESS":"新生北路３０８巷１０６號","OBJECTID":295913},"geometry":{"x":172368.30999999959,"y":2565414.7699999996}},{"attributes":{"ID":295922,"DIS_CODE":0,"TOWNNAME":"麻豆區","LI":"油車里","LIN":"17鄰","STREET":"新生北路","SECT":" ","MAREA":" ","LANE":"３０８巷","ALLEY":" ","HOUSE_NO":"１０７號","E_COORD97":172368.34,"N_COORD97":2565410.1200000001,"ADDRESS":"新生北路３０８巷１０７號","OBJECTID":295914},"geometry":{"x":172368.33999999985,"y":2565410.120000001}},{"attributes":{"ID":295923,"DIS_CODE":0,"TOWNNAME":"麻豆區","LI":"油車里","LIN":"17鄰","STREET":"新生北路","SECT":" ","MAREA":" ","LANE":"３０８巷","ALLEY":" ","HOUSE_NO":"１０８號","E_COORD97":172368.37,"N_COORD97":2565405.4700000002,"ADDRESS":"新生北路３０８巷１０８號","OBJECTID":295915},"geometry":{"x":172368.37000000011,"y":2565405.4700000025}},{"attributes":{"ID":295924,"DIS_CODE":0,"TOWNNAME":"麻豆區","LI":"油車里","LIN":"17鄰","STREET":"新生北路","SECT":" ","MAREA":" ","LANE":"３０８巷","ALLEY":" ","HOUSE_NO":"５０號","E_COORD97":172480.29000000001,"N_COORD97":2565467.1699999999,"ADDRESS":"新生北路３０８巷５０號","OBJECTID":295916},"geometry":{"x":172480.29000000097,"y":2565467.1700000037}},{"attributes":{"ID":295925,"DIS_CODE":0,"TOWNNAME":"麻豆區","LI":"油車里","LIN":"17鄰","STREET":"新生北路","SECT":" ","MAREA":" ","LANE":"３０８巷","ALLEY":" ","HOUSE_NO":"５１號","E_COORD97":172472.98999999999,"N_COORD97":2565467.21,"ADDRESS":"新生北路３０８巷５１號","OBJECTID":295917},"geometry":{"x":172472.99000000022,"y":2565467.2100000009}},{"attributes":{"ID":295926,"DIS_CODE":0,"TOWNNAME":"麻豆區","LI":"油車里","LIN":"17鄰","STREET":"新生北路","SECT":" ","MAREA":" ","LANE":"３０８巷","ALLEY":" ","HOUSE_NO":"５２號","E_COORD97":172459.56,"N_COORD97":2565467.0600000001,"ADDRESS":"新生北路３０８巷５２號","OBJECTID":295918},"geometry":{"x":172459.56000000052,"y":2565467.0600000005}},{"attributes":{"ID":295927,"DIS_CODE":0,"TOWNNAME":"麻豆區","LI":"油車里","LIN":"17鄰","STREET":"新生北路","SECT":" ","MAREA":" ","LANE":"３０８巷","ALLEY":" ","HOUSE_NO":"５３號","E_COORD97":172452.26999999999,"N_COORD97":2565467.1099999999,"ADDRESS":"新生北路３０８巷５３號","OBJECTID":295919},"geometry":{"x":172452.26999999862,"y":2565467.1100000031}},{"attributes":{"ID":295928,"DIS_CODE":0,"TOWNNAME":"新化區","LI":"知義里","LIN":"14鄰","STREET":"中正路","SECT":" ","MAREA":" ","LANE":" ","ALLEY":" ","HOUSE_NO":"６５號","E_COORD97":179113.35999999999,"N_COORD97":2547352.25,"ADDRESS":"中正路６５號","OBJECTID":295920},"geometry":{"x":179113.36000000127,"y":2547352.2500000019}},{"attributes":{"ID":295929,"DIS_CODE":0,"TOWNNAME":"中西區","LI":"普濟里","LIN":"17鄰","STREET":"海安路","SECT":"二段","MAREA":" ","LANE":"３６６巷","ALLEY":" ","HOUSE_NO":"１７號","E_COORD97":167885.14000000001,"N_COORD97":2544495.6299999999,"ADDRESS":"海安路二段３６６巷１７號","OBJECTID":295921},"geometry":{"x":167885.1400000006,"y":2544495.629999999}},{"attributes":{"ID":295930,"DIS_CODE":0,"TOWNNAME":"安南區","LI":"州北里","LIN":"17鄰","STREET":"北安路","SECT":"四段","MAREA":" ","LANE":"７０５巷","ALLEY":" ","HOUSE_NO":"１８０號","E_COORD97":169314.45000000001,"N_COORD97":2551990.8500000001,"ADDRESS":"北安路四段７０５巷１８０號","OBJECTID":295922},"geometry":{"x":169314.45000000112,"y":2551990.8499999996}},{"attributes":{"ID":295931,"DIS_CODE":0,"TOWNNAME":"麻豆區","LI":"油車里","LIN":"17鄰","STREET":"新生北路","SECT":" ","MAREA":" ","LANE":"３０８巷","ALLEY":" ","HOUSE_NO":"５５號","E_COORD97":172444.98000000001,"N_COORD97":2565467.1499999999,"ADDRESS":"新生北路３０８巷５５號","OBJECTID":295923},"geometry":{"x":172444.97999999952,"y":2565467.1500000004}},{"attributes":{"ID":295932,"DIS_CODE":0,"TOWNNAME":"麻豆區","LI":"油車里","LIN":"17鄰","STREET":"新生北路","SECT":" ","MAREA":" ","LANE":"３０８巷","ALLEY":" ","HOUSE_NO":"５６號","E_COORD97":172437.67999999999,"N_COORD97":2565467.1899999999,"ADDRESS":"新生北路３０８巷５６號","OBJECTID":295924},"geometry":{"x":172437.6799999997,"y":2565467.1900000013}},{"attributes":{"ID":295933,"DIS_CODE":0,"TOWNNAME":"麻豆區","LI":"油車里","LIN":"17鄰","STREET":"新生北路","SECT":" ","MAREA":" ","LANE":"３０８巷","ALLEY":" ","HOUSE_NO":"５７號","E_COORD97":172425.92999999999,"N_COORD97":2565467.8500000001,"ADDRESS":"新生北路３０８巷５７號","OBJECTID":295925},"geometry":{"x":172425.92999999877,"y":2565467.8499999996}},{"attributes":{"ID":295934,"DIS_CODE":0,"TOWNNAME":"新化區","LI":"東榮里","LIN":"14鄰","STREET":"中興路","SECT":" ","MAREA":" ","LANE":" ","ALLEY":" ","HOUSE_NO":"６０５號","E_COORD97":179801.81,"N_COORD97":2547968.25,"ADDRESS":"中興路６０５號","OBJECTID":295926},"geometry":{"x":179801.80999999959,"y":2547968.25}},{"attributes":{"ID":295935,"DIS_CODE":0,"TOWNNAME":"新化區","LI":"東榮里","LIN":"14鄰","STREET":"中興路","SECT":" ","MAREA":" ","LANE":" ","ALLEY":" ","HOUSE_NO":"５８２號","E_COORD97":179845.81,"N_COORD97":2547974.25,"ADDRESS":"中興路５８２號","OBJECTID":295927},"geometry":{"x":179845.80999999959,"y":2547974.25}},{"attributes":{"ID":295936,"DIS_CODE":0,"TOWNNAME":"新化區","LI":"知義里","LIN":"14鄰","STREET":"復興路","SECT":" ","MAREA":" ","LANE":" ","ALLEY":" ","HOUSE_NO":"１１５號","E_COORD97":179474.92000000001,"N_COORD97":2547753.25,"ADDRESS":"復興路１１５號","OBJECTID":295928},"geometry":{"x":179474.92000000179,"y":2547753.2500000019}},{"attributes":{"ID":295937,"DIS_CODE":0,"TOWNNAME":"新化區","LI":"知義里","LIN":"14鄰","STREET":"復興路","SECT":" ","MAREA":" ","LANE":" ","ALLEY":" ","HOUSE_NO":"２３號","E_COORD97":179580.07000000001,"N_COORD97":2547272.25,"ADDRESS":"復興路２３號","OBJECTID":295929},"geometry":{"x":179580.07000000123,"y":2547272.25}},{"attributes":{"ID":295938,"DIS_CODE":0,"TOWNNAME":"新化區","LI":"太平里","LIN":"14鄰","STREET":"太平街","SECT":" ","MAREA":" ","LANE":" ","ALLEY":" ","HOUSE_NO":"６０號","E_COORD97":178768.67000000001,"N_COORD97":2548781.25,"ADDRESS":"太平街６０號","OBJECTID":295930},"geometry":{"x":178768.67000000086,"y":2548781.25}},{"attributes":{"ID":295939,"DIS_CODE":0,"TOWNNAME":"安南區","LI":"新順里","LIN":"20鄰","STREET":"慶安路","SECT":" ","MAREA":" ","LANE":"１１５巷","ALLEY":" ","HOUSE_NO":"６３號","E_COORD97":169280.97,"N_COORD97":2549255.3300000001,"ADDRESS":"慶安路１１５巷６３號","OBJECTID":295931},"geometry":{"x":169280.96999999974,"y":2549255.3300000001}},{"attributes":{"ID":295940,"DIS_CODE":0,"TOWNNAME":"仁德區","LI":"大甲里","LIN":"7鄰","STREET":"行大一街","SECT":" ","MAREA":" ","LANE":" ","ALLEY":" ","HOUSE_NO":"２６４號","E_COORD97":169676.486049,"N_COORD97":2535051.5808000001,"ADDRESS":"行大一街２６４號","OBJECTID":295932},"geometry":{"x":169676.48604900111,"y":2535051.580800999}},{"attributes":{"ID":295941,"DIS_CODE":0,"TOWNNAME":"安南區","LI":"新順里","LIN":"20鄰","STREET":"慶安路","SECT":" ","MAREA":" ","LANE":"１１５巷","ALLEY":" ","HOUSE_NO":"７３號","E_COORD97":169259.07000000001,"N_COORD97":2549257.23,"ADDRESS":"慶安路１１５巷７３號","OBJECTID":295933},"geometry":{"x":169259.07000000216,"y":2549257.2300000004}},{"attributes":{"ID":295942,"DIS_CODE":0,"TOWNNAME":"安南區","LI":"安慶里","LIN":"13鄰","STREET":"怡安路","SECT":"一段","MAREA":" ","LANE":"６１巷","ALLEY":" ","HOUSE_NO":"２號","E_COORD97":169401.23999999999,"N_COORD97":2548952.2999999998,"ADDRESS":"怡安路一段６１巷２號","OBJECTID":295934},"geometry":{"x":169401.24000000022,"y":2548952.3000000007}},{"attributes":{"ID":295943,"DIS_CODE":0,"TOWNNAME":"麻豆區","LI":"油車里","LIN":"17鄰","STREET":"新生北路","SECT":" ","MAREA":" ","LANE":"３０８巷","ALLEY":" ","HOUSE_NO":"５８號","E_COORD97":172417.39000000001,"N_COORD97":2565467.73,"ADDRESS":"新生北路３０８巷５８號","OBJECTID":295935},"geometry":{"x":172417.38999999966,"y":2565467.7300000023}},{"attributes":{"ID":295944,"DIS_CODE":0,"TOWNNAME":"麻豆區","LI":"油車里","LIN":"17鄰","STREET":"新生北路","SECT":" ","MAREA":" ","LANE":"３０８巷","ALLEY":" ","HOUSE_NO":"５９號","E_COORD97":172409.38,"N_COORD97":2565467.4500000002,"ADDRESS":"新生北路３０８巷５９號","OBJECTID":295936},"geometry":{"x":172409.37999999989,"y":2565467.4499999993}},{"attributes":{"ID":295945,"DIS_CODE":0,"TOWNNAME":"麻豆區","LI":"油車里","LIN":"17鄰","STREET":"新生北路","SECT":" ","MAREA":" ","LANE":"３０８巷","ALLEY":" ","HOUSE_NO":"６０號","E_COORD97":172402.07999999999,"N_COORD97":2565467.4900000002,"ADDRESS":"新生北路３０８巷６０號","OBJECTID":295937},"geometry":{"x":172402.08000000101,"y":2565467.4900000002}},{"attributes":{"ID":295946,"DIS_CODE":0,"TOWNNAME":"麻豆區","LI":"油車里","LIN":"17鄰","STREET":"新生北路","SECT":" ","MAREA":" ","LANE":"３０８巷","ALLEY":" ","HOUSE_NO":"６１號","E_COORD97":172394.79000000001,"N_COORD97":2565467.54,"ADDRESS":"新生北路３０８巷６１號","OBJECTID":295938},"geometry":{"x":172394.79000000004,"y":2565467.540000001}},{"attributes":{"ID":295947,"DIS_CODE":0,"TOWNNAME":"麻豆區","LI":"油車里","LIN":"17鄰","STREET":"新生北路","SECT":" ","MAREA":" ","LANE":"３０８巷","ALLEY":" ","HOUSE_NO":"６２號","E_COORD97":172394.70000000001,"N_COORD97":2565447.98,"ADDRESS":"新生北路３０８巷６２號","OBJECTID":295939},"geometry":{"x":172394.70000000112,"y":2565447.9800000004}},{"attributes":{"ID":295948,"DIS_CODE":0,"TOWNNAME":"永康區","LI":"東橋里","LIN":"14鄰","STREET":"東橋八街","SECT":" ","MAREA":" ","LANE":" ","ALLEY":" ","HOUSE_NO":"２６號","E_COORD97":171394.29999999999,"N_COORD97":2546748.02,"ADDRESS":"東橋八街２６號","OBJECTID":295940},"geometry":{"x":171394.29999999981,"y":2546748.0199999996}},{"attributes":{"ID":295949,"DIS_CODE":0,"TOWNNAME":"麻豆區","LI":"油車里","LIN":"17鄰","STREET":"新生北路","SECT":" ","MAREA":" ","LANE":"３０８巷","ALLEY":" ","HOUSE_NO":"６３號","E_COORD97":172400.04000000001,"N_COORD97":2565448.0600000001,"ADDRESS":"新生北路３０８巷６３號","OBJECTID":295941},"geometry":{"x":172400.04000000004,"y":2565448.0600000042}},{"attributes":{"ID":295950,"DIS_CODE":0,"TOWNNAME":"麻豆區","LI":"油車里","LIN":"17鄰","STREET":"新生北路","SECT":" ","MAREA":" ","LANE":"３０８巷","ALLEY":" ","HOUSE_NO":"６５號","E_COORD97":172405.37,"N_COORD97":2565448.1400000001,"ADDRESS":"新生北路３０８巷６５號","OBJECTID":295942},"geometry":{"x":172405.37000000104,"y":2565448.1400000025}},{"attributes":{"ID":295951,"DIS_CODE":0,"TOWNNAME":"麻豆區","LI":"油車里","LIN":"17鄰","STREET":"新生北路","SECT":" ","MAREA":" ","LANE":"３０８巷","ALLEY":" ","HOUSE_NO":"６６號","E_COORD97":172410.70000000001,"N_COORD97":2565448.2200000002,"ADDRESS":"新生北路３０８巷６６號","OBJECTID":295943},"geometry":{"x":172410.70000000019,"y":2565448.2200000025}},{"attributes":{"ID":295952,"DIS_CODE":0,"TOWNNAME":"新化區","LI":"知義里","LIN":"14鄰","STREET":"復興路","SECT":" ","MAREA":" ","LANE":" ","ALLEY":" ","HOUSE_NO":"９２號","E_COORD97":179527.87,"N_COORD97":2547615.25,"ADDRESS":"復興路９２號","OBJECTID":295944},"geometry":{"x":179527.86999999918,"y":2547615.25}},{"attributes":{"ID":295953,"DIS_CODE":0,"TOWNNAME":"新化區","LI":"太平里","LIN":"14鄰","STREET":"太平街","SECT":" ","MAREA":" ","LANE":" ","ALLEY":" ","HOUSE_NO":"６４號之２","E_COORD97":178752.63,"N_COORD97":2548777.2599999998,"ADDRESS":"太平街６４號之２","OBJECTID":295945},"geometry":{"x":178752.62999999989,"y":2548777.2599999998}},{"attributes":{"ID":295954,"DIS_CODE":0,"TOWNNAME":"新化區","LI":"知義里","LIN":"14鄰","STREET":"復興路","SECT":" ","MAREA":" ","LANE":" ","ALLEY":" ","HOUSE_NO":"１２９號","E_COORD97":179469.82000000001,"N_COORD97":2547775.25,"ADDRESS":"復興路１２９號","OBJECTID":295946},"geometry":{"x":179469.82000000123,"y":2547775.25}},{"attributes":{"ID":295955,"DIS_CODE":0,"TOWNNAME":"安南區","LI":"新順里","LIN":"7鄰","STREET":"北安路","SECT":"三段","MAREA":" ","LANE":"７４５巷","ALLEY":" ","HOUSE_NO":"７８之８號","E_COORD97":169214.53,"N_COORD97":2550309.54,"ADDRESS":"北安路三段７４５巷７８之８號","OBJECTID":295947},"geometry":{"x":169214.53000000026,"y":2550309.540000001}},{"attributes":{"ID":295956,"DIS_CODE":0,"TOWNNAME":"安南區","LI":"東和里","LIN":"7鄰","STREET":"長和路","SECT":"一段","MAREA":" ","LANE":"２巷","ALLEY":" ","HOUSE_NO":"４２之１號","E_COORD97":172033.23999999999,"N_COORD97":2550458.2999999998,"ADDRESS":"長和路一段２巷４２之１號","OBJECTID":295948},"geometry":{"x":172033.24000000115,"y":2550458.3000000026}},{"attributes":{"ID":295957,"DIS_CODE":0,"TOWNNAME":"麻豆區","LI":"油車里","LIN":"17鄰","STREET":"新生北路","SECT":" ","MAREA":" ","LANE":"３０８巷","ALLEY":" ","HOUSE_NO":"６７號","E_COORD97":172416.03,"N_COORD97":2565448.2999999998,"ADDRESS":"新生北路３０８巷６７號","OBJECTID":295949},"geometry":{"x":172416.03000000119,"y":2565448.3000000026}},{"attributes":{"ID":295958,"DIS_CODE":0,"TOWNNAME":"麻豆區","LI":"油車里","LIN":"17鄰","STREET":"新生北路","SECT":" ","MAREA":" ","LANE":"３０８巷","ALLEY":" ","HOUSE_NO":"６８號","E_COORD97":172421.37,"N_COORD97":2565448.3799999999,"ADDRESS":"新生北路３０８巷６８號","OBJECTID":295950},"geometry":{"x":172421.37000000011,"y":2565448.3800000008}},{"attributes":{"ID":295959,"DIS_CODE":0,"TOWNNAME":"麻豆區","LI":"油車里","LIN":"17鄰","STREET":"新生北路","SECT":" ","MAREA":" ","LANE":"３０８巷","ALLEY":" ","HOUSE_NO":"６９號","E_COORD97":172426.70000000001,"N_COORD97":2565448.46,"ADDRESS":"新生北路３０８巷６９號","OBJECTID":295951},"geometry":{"x":172426.70000000112,"y":2565448.4600000009}},{"attributes":{"ID":295960,"DIS_CODE":0,"TOWNNAME":"麻豆區","LI":"油車里","LIN":"17鄰","STREET":"新生北路","SECT":" ","MAREA":" ","LANE":"３０８巷","ALLEY":" ","HOUSE_NO":"７０號","E_COORD97":172432.03,"N_COORD97":2565448.54,"ADDRESS":"新生北路３０８巷７０號","OBJECTID":295952},"geometry":{"x":172432.03000000026,"y":2565448.5399999991}},{"attributes":{"ID":295961,"DIS_CODE":0,"TOWNNAME":"新化區","LI":"知義里","LIN":"14鄰","STREET":"中正路","SECT":" ","MAREA":" ","LANE":" ","ALLEY":" ","HOUSE_NO":"１３４號","E_COORD97":179134.91,"N_COORD97":2547498.25,"ADDRESS":"中正路１３４號","OBJECTID":295953},"geometry":{"x":179134.91000000108,"y":2547498.2500000019}},{"attributes":{"ID":295962,"DIS_CODE":0,"TOWNNAME":"新化區","LI":"太平里","LIN":"14鄰","STREET":"太平街","SECT":" ","MAREA":" ","LANE":" ","ALLEY":" ","HOUSE_NO":"６４號之３","E_COORD97":178749.01999999999,"N_COORD97":2548776.2599999998,"ADDRESS":"太平街６４號之３","OBJECTID":295954},"geometry":{"x":178749.02000000048,"y":2548776.2600000016}},{"attributes":{"ID":295963,"DIS_CODE":0,"TOWNNAME":"新化區","LI":"太平里","LIN":"14鄰","STREET":"太平街","SECT":" ","MAREA":" ","LANE":" ","ALLEY":" ","HOUSE_NO":"６４號之１","E_COORD97":178756.89999999999,"N_COORD97":2548778.2599999998,"ADDRESS":"太平街６４號之１","OBJECTID":295955},"geometry":{"x":178756.9000000013,"y":2548778.2599999998}},{"attributes":{"ID":295964,"DIS_CODE":0,"TOWNNAME":"麻豆區","LI":"油車里","LIN":"17鄰","STREET":"新生北路","SECT":" ","MAREA":" ","LANE":"３０８巷","ALLEY":" ","HOUSE_NO":"７１號","E_COORD97":172437.35999999999,"N_COORD97":2565448.6200000001,"ADDRESS":"新生北路３０８巷７１號","OBJECTID":295956},"geometry":{"x":172437.3600000022,"y":2565448.6200000029}},{"attributes":{"ID":295965,"DIS_CODE":0,"TOWNNAME":"麻豆區","LI":"油車里","LIN":"17鄰","STREET":"新生北路","SECT":" ","MAREA":" ","LANE":"３０８巷","ALLEY":" ","HOUSE_NO":"７２號","E_COORD97":172442.69,"N_COORD97":2565448.7000000002,"ADDRESS":"新生北路３０８巷７２號","OBJECTID":295957},"geometry":{"x":172442.69000000134,"y":2565448.6999999993}},{"attributes":{"ID":295966,"DIS_CODE":0,"TOWNNAME":"麻豆區","LI":"油車里","LIN":"17鄰","STREET":"新生北路","SECT":" ","MAREA":" ","LANE":"３０８巷","ALLEY":" ","HOUSE_NO":"７３號","E_COORD97":172442.62,"N_COORD97":2565432.8399999999,"ADDRESS":"新生北路３０８巷７３號","OBJECTID":295958},"geometry":{"x":172442.62000000104,"y":2565432.8400000017}},{"attributes":{"ID":295967,"DIS_CODE":0,"TOWNNAME":"麻豆區","LI":"油車里","LIN":"17鄰","STREET":"新生北路","SECT":" ","MAREA":" ","LANE":"３０８巷","ALLEY":" ","HOUSE_NO":"７５號","E_COORD97":172437.29000000001,"N_COORD97":2565432.6899999999,"ADDRESS":"新生北路３０８巷７５號","OBJECTID":295959},"geometry":{"x":172437.29000000004,"y":2565432.6900000032}},{"attributes":{"ID":295968,"DIS_CODE":0,"TOWNNAME":"麻豆區","LI":"油車里","LIN":"17鄰","STREET":"新生北路","SECT":" ","MAREA":" ","LANE":"３０８巷","ALLEY":" ","HOUSE_NO":"７６號","E_COORD97":172431.95999999999,"N_COORD97":2565432.54,"ADDRESS":"新生北路３０８巷７６號","OBJECTID":295960},"geometry":{"x":172431.96000000089,"y":2565432.5399999991}},{"attributes":{"ID":295969,"DIS_CODE":0,"TOWNNAME":"新化區","LI":"知義里","LIN":"14鄰","STREET":"復興路","SECT":" ","MAREA":" ","LANE":" ","ALLEY":" ","HOUSE_NO":"１３３號","E_COORD97":179468.01999999999,"N_COORD97":2547783.25,"ADDRESS":"復興路１３３號","OBJECTID":295961},"geometry":{"x":179468.01999999955,"y":2547783.2500000019}},{"attributes":{"ID":295970,"DIS_CODE":0,"TOWNNAME":"新化區","LI":"知義里","LIN":"14鄰","STREET":"復興路","SECT":" ","MAREA":" ","LANE":" ","ALLEY":" ","HOUSE_NO":"１７號","E_COORD97":179593.57000000001,"N_COORD97":2547253.25,"ADDRESS":"復興路１７號","OBJECTID":295962},"geometry":{"x":179593.57000000123,"y":2547253.25}},{"attributes":{"ID":295971,"DIS_CODE":0,"TOWNNAME":"新化區","LI":"知義里","LIN":"14鄰","STREET":"復興路","SECT":" ","MAREA":" ","LANE":" ","ALLEY":" ","HOUSE_NO":"８０號","E_COORD97":179536.07000000001,"N_COORD97":2547577.25,"ADDRESS":"復興路８０號","OBJECTID":295963},"geometry":{"x":179536.07000000123,"y":2547577.2500000019}},{"attributes":{"ID":295972,"DIS_CODE":0,"TOWNNAME":"新化區","LI":"知義里","LIN":"14鄰","STREET":"復興路","SECT":" ","MAREA":" ","LANE":" ","ALLEY":" ","HOUSE_NO":"１３號","E_COORD97":179597.87,"N_COORD97":2547236.25,"ADDRESS":"復興路１３號","OBJECTID":295964},"geometry":{"x":179597.87000000104,"y":2547236.25}},{"attributes":{"ID":295973,"DIS_CODE":0,"TOWNNAME":"安南區","LI":"安慶里","LIN":"25鄰","STREET":"北安二街","SECT":" ","MAREA":" ","LANE":"１巷","ALLEY":" ","HOUSE_NO":"１６號","E_COORD97":168642.45000000001,"N_COORD97":2548436.5600000001,"ADDRESS":"北安二街１巷１６號","OBJECTID":295965},"geometry":{"x":168642.45000000019,"y":2548436.5600000024}},{"attributes":{"ID":295974,"DIS_CODE":0,"TOWNNAME":"安南區","LI":"安慶里","LIN":"25鄰","STREET":"北安二街","SECT":" ","MAREA":" ","LANE":"１巷","ALLEY":" ","HOUSE_NO":"２０號","E_COORD97":168646.16,"N_COORD97":2548422.6699999999,"ADDRESS":"北安二街１巷２０號","OBJECTID":295966},"geometry":{"x":168646.16000000015,"y":2548422.6699999999}},{"attributes":{"ID":295975,"DIS_CODE":0,"TOWNNAME":"麻豆區","LI":"油車里","LIN":"17鄰","STREET":"新生北路","SECT":" ","MAREA":" ","LANE":"３０８巷","ALLEY":" ","HOUSE_NO":"７７號","E_COORD97":172426.62,"N_COORD97":2565432.3799999999,"ADDRESS":"新生北路３０８巷７７號","OBJECTID":295967},"geometry":{"x":172426.62000000011,"y":2565432.3800000008}},{"attributes":{"ID":295976,"DIS_CODE":0,"TOWNNAME":"麻豆區","LI":"油車里","LIN":"17鄰","STREET":"新生北路","SECT":" ","MAREA":" ","LANE":"３０８巷","ALLEY":" ","HOUSE_NO":"７８號","E_COORD97":172421.29000000001,"N_COORD97":2565432.23,"ADDRESS":"新生北路３０８巷７８號","OBJECTID":295968},"geometry":{"x":172421.29000000097,"y":2565432.2300000004}},{"attributes":{"ID":295977,"DIS_CODE":0,"TOWNNAME":"麻豆區","LI":"油車里","LIN":"17鄰","STREET":"新生北路","SECT":" ","MAREA":" ","LANE":"３０８巷","ALLEY":" ","HOUSE_NO":"７９號","E_COORD97":172415.95999999999,"N_COORD97":2565432.0699999998,"ADDRESS":"新生北路３０８巷７９號","OBJECTID":295969},"geometry":{"x":172415.96000000183,"y":2565432.0700000022}},{"attributes":{"ID":295978,"DIS_CODE":0,"TOWNNAME":"仁德區","LI":"仁德里","LIN":"3鄰","STREET":"仁中五街","SECT":" ","MAREA":" ","LANE":" ","ALLEY":" ","HOUSE_NO":"６９號","E_COORD97":173353.38999600001,"N_COORD97":2540283.8400300001,"ADDRESS":"仁中五街６９號","OBJECTID":295970},"geometry":{"x":173353.38999599963,"y":2540283.8400270008}},{"attributes":{"ID":295979,"DIS_CODE":0,"TOWNNAME":"麻豆區","LI":"油車里","LIN":"17鄰","STREET":"新生北路","SECT":" ","MAREA":" ","LANE":"３０８巷","ALLEY":" ","HOUSE_NO":"８０號","E_COORD97":172410.63,"N_COORD97":2565431.9199999999,"ADDRESS":"新生北路３０８巷８０號","OBJECTID":295971},"geometry":{"x":172410.62999999989,"y":2565431.9200000018}},{"attributes":{"ID":295980,"DIS_CODE":0,"TOWNNAME":"麻豆區","LI":"油車里","LIN":"17鄰","STREET":"新生北路","SECT":" ","MAREA":" ","LANE":"３０８巷","ALLEY":" ","HOUSE_NO":"８１號","E_COORD97":172405.29999999999,"N_COORD97":2565431.7599999998,"ADDRESS":"新生北路３０８巷８１號","OBJECTID":295972},"geometry":{"x":172405.30000000075,"y":2565431.7599999998}},{"attributes":{"ID":295981,"DIS_CODE":0,"TOWNNAME":"麻豆區","LI":"油車里","LIN":"17鄰","STREET":"新生北路","SECT":" ","MAREA":" ","LANE":"３０８巷","ALLEY":" ","HOUSE_NO":"８２號","E_COORD97":172399.95999999999,"N_COORD97":2565431.6099999999,"ADDRESS":"新生北路３０８巷８２號","OBJECTID":295973},"geometry":{"x":172399.95999999996,"y":2565431.6099999994}},{"attributes":{"ID":295982,"DIS_CODE":0,"TOWNNAME":"麻豆區","LI":"油車里","LIN":"17鄰","STREET":"新生北路","SECT":" ","MAREA":" ","LANE":"３０８巷","ALLEY":" ","HOUSE_NO":"８３號","E_COORD97":172394.63,"N_COORD97":2565431.46,"ADDRESS":"新生北路３０８巷８３號","OBJECTID":295974},"geometry":{"x":172394.63000000082,"y":2565431.4600000009}},{"attributes":{"ID":295983,"DIS_CODE":0,"TOWNNAME":"麻豆區","LI":"油車里","LIN":"17鄰","STREET":"新生北路","SECT":" ","MAREA":" ","LANE":"３０８巷","ALLEY":" ","HOUSE_NO":"８５號","E_COORD97":172395.42000000001,"N_COORD97":2565411.1200000001,"ADDRESS":"新生北路３０８巷８５號","OBJECTID":295975},"geometry":{"x":172395.41999999993,"y":2565411.1200000048}},{"attributes":{"ID":295984,"DIS_CODE":0,"TOWNNAME":"麻豆區","LI":"油車里","LIN":"17鄰","STREET":"新生北路","SECT":" ","MAREA":" ","LANE":"３０８巷","ALLEY":" ","HOUSE_NO":"８６號","E_COORD97":172400.73000000001,"N_COORD97":2565411.2999999998,"ADDRESS":"新生北路３０８巷８６號","OBJECTID":295976},"geometry":{"x":172400.73000000045,"y":2565411.3000000007}},{"attributes":{"ID":295985,"DIS_CODE":0,"TOWNNAME":"麻豆區","LI":"油車里","LIN":"17鄰","STREET":"新生北路","SECT":" ","MAREA":" ","LANE":"３０８巷","ALLEY":" ","HOUSE_NO":"８７號","E_COORD97":172406.03,"N_COORD97":2565411.46,"ADDRESS":"新生北路３０８巷８７號","OBJECTID":295977},"geometry":{"x":172406.03000000119,"y":2565411.4600000009}},{"attributes":{"ID":295986,"DIS_CODE":0,"TOWNNAME":"新化區","LI":"太平里","LIN":"14鄰","STREET":"太平街","SECT":" ","MAREA":" ","LANE":" ","ALLEY":" ","HOUSE_NO":"９０號","E_COORD97":178619.97,"N_COORD97":2548776.25,"ADDRESS":"太平街９０號","OBJECTID":295978},"geometry":{"x":178619.9700000016,"y":2548776.2500000019}},{"attributes":{"ID":295987,"DIS_CODE":0,"TOWNNAME":"新化區","LI":"太平里","LIN":"14鄰","STREET":"太平街","SECT":" ","MAREA":" ","LANE":" ","ALLEY":" ","HOUSE_NO":"８４號之５","E_COORD97":178635.92999999999,"N_COORD97":2548752.2599999998,"ADDRESS":"太平街８４號之５","OBJECTID":295979},"geometry":{"x":178635.93000000063,"y":2548752.2600000016}},{"attributes":{"ID":295988,"DIS_CODE":0,"TOWNNAME":"新化區","LI":"知義里","LIN":"14鄰","STREET":"中正路","SECT":" ","MAREA":" ","LANE":" ","ALLEY":" ","HOUSE_NO":"４６號","E_COORD97":179156.76000000001,"N_COORD97":2547205.25,"ADDRESS":"中正路４６號","OBJECTID":295980},"geometry":{"x":179156.75999999978,"y":2547205.25}},{"attributes":{"ID":295989,"DIS_CODE":0,"TOWNNAME":"麻豆區","LI":"油車里","LIN":"17鄰","STREET":"新生北路","SECT":" ","MAREA":" ","LANE":"３０８巷","ALLEY":" ","HOUSE_NO":"８８號","E_COORD97":172411.32999999999,"N_COORD97":2565411.6299999999,"ADDRESS":"新生北路３０８巷８８號","OBJECTID":295981},"geometry":{"x":172411.33000000007,"y":2565411.629999999}},{"attributes":{"ID":295990,"DIS_CODE":0,"TOWNNAME":"麻豆區","LI":"油車里","LIN":"17鄰","STREET":"新生北路","SECT":" ","MAREA":" ","LANE":"３０８巷","ALLEY":" ","HOUSE_NO":"８９號","E_COORD97":172416.64000000001,"N_COORD97":2565411.7999999998,"ADDRESS":"新生北路３０８巷８９號","OBJECTID":295982},"geometry":{"x":172416.6400000006,"y":2565411.8000000007}},{"attributes":{"ID":295991,"DIS_CODE":0,"TOWNNAME":"麻豆區","LI":"油車里","LIN":"17鄰","STREET":"新生北路","SECT":" ","MAREA":" ","LANE":"３０８巷","ALLEY":" ","HOUSE_NO":"９０號","E_COORD97":172421.94,"N_COORD97":2565411.96,"ADDRESS":"新生北路３０８巷９０號","OBJECTID":295983},"geometry":{"x":172421.94000000134,"y":2565411.9600000046}},{"attributes":{"ID":295992,"DIS_CODE":0,"TOWNNAME":"麻豆區","LI":"油車里","LIN":"17鄰","STREET":"新生北路","SECT":" ","MAREA":" ","LANE":"３０８巷","ALLEY":" ","HOUSE_NO":"９１號","E_COORD97":172427.25,"N_COORD97":2565412.1299999999,"ADDRESS":"新生北路３０８巷９１號","OBJECTID":295984},"geometry":{"x":172427.25,"y":2565412.1300000027}},{"attributes":{"ID":295993,"DIS_CODE":0,"TOWNNAME":"麻豆區","LI":"油車里","LIN":"17鄰","STREET":"新生北路","SECT":" ","MAREA":" ","LANE":"３０８巷","ALLEY":" ","HOUSE_NO":"９２號","E_COORD97":172432.54999999999,"N_COORD97":2565412.2999999998,"ADDRESS":"新生北路３０８巷９２號","OBJECTID":295985},"geometry":{"x":172432.55000000075,"y":2565412.3000000007}},{"attributes":{"ID":295994,"DIS_CODE":0,"TOWNNAME":"麻豆區","LI":"油車里","LIN":"17鄰","STREET":"新生北路","SECT":" ","MAREA":" ","LANE":"３０８巷","ALLEY":" ","HOUSE_NO":"９３號","E_COORD97":172437.85999999999,"N_COORD97":2565412.46,"ADDRESS":"新生北路３０８巷９３號","OBJECTID":295986},"geometry":{"x":172437.86000000127,"y":2565412.4600000028}},{"attributes":{"ID":295995,"DIS_CODE":0,"TOWNNAME":"麻豆區","LI":"油車里","LIN":"17鄰","STREET":"新生北路","SECT":" ","MAREA":" ","LANE":"３０８巷","ALLEY":" ","HOUSE_NO":"９５號","E_COORD97":172443.16,"N_COORD97":2565412.6299999999,"ADDRESS":"新生北路３０８巷９５號","OBJECTID":295987},"geometry":{"x":172443.16000000015,"y":2565412.6300000008}},{"attributes":{"ID":295996,"DIS_CODE":0,"TOWNNAME":"麻豆區","LI":"油車里","LIN":"17鄰","STREET":"新生北路","SECT":" ","MAREA":" ","LANE":"３０８巷","ALLEY":" ","HOUSE_NO":"９６號","E_COORD97":172380.23999999999,"N_COORD97":2565461.3799999999,"ADDRESS":"新生北路３０８巷９６號","OBJECTID":295988},"geometry":{"x":172380.24000000022,"y":2565461.3800000027}},{"attributes":{"ID":295997,"DIS_CODE":0,"TOWNNAME":"麻豆區","LI":"油車里","LIN":"17鄰","STREET":"新生北路","SECT":" ","MAREA":" ","LANE":"３０８巷","ALLEY":" ","HOUSE_NO":"９７號","E_COORD97":172374.45000000001,"N_COORD97":2565461.46,"ADDRESS":"新生北路３０８巷９７號","OBJECTID":295989},"geometry":{"x":172374.45000000112,"y":2565461.4600000009}},{"attributes":{"ID":295998,"DIS_CODE":0,"TOWNNAME":"麻豆區","LI":"油車里","LIN":"17鄰","STREET":"新生北路","SECT":" ","MAREA":" ","LANE":"３０８巷","ALLEY":" ","HOUSE_NO":"９８號","E_COORD97":172368.67000000001,"N_COORD97":2565461.5499999998,"ADDRESS":"新生北路３０８巷９８號","OBJECTID":295990},"geometry":{"x":172368.67000000179,"y":2565461.5500000007}},{"attributes":{"ID":295999,"DIS_CODE":0,"TOWNNAME":"麻豆區","LI":"油車里","LIN":"17鄰","STREET":"新生北路","SECT":" ","MAREA":" ","LANE":"３０８巷","ALLEY":" ","HOUSE_NO":"９９號","E_COORD97":172362.88,"N_COORD97":2565461.6299999999,"ADDRESS":"新生北路３０８巷９９號","OBJECTID":295991},"geometry":{"x":172362.88000000082,"y":2565461.629999999}},{"attributes":{"ID":296000,"DIS_CODE":0,"TOWNNAME":"歸仁區","LI":"媽廟里","LIN":"17鄰","STREET":"中正北路","SECT":"三段","MAREA":" ","LANE":"１４６巷","ALLEY":" ","HOUSE_NO":"２號","E_COORD97":177637.16,"N_COORD97":2543855.7200000002,"ADDRESS":"中正北路三段１４６巷２號","OBJECTID":295992},"geometry":{"x":177637.16000000015,"y":2543855.7200000007}},{"attributes":{"ID":296001,"DIS_CODE":0,"TOWNNAME":"歸仁區","LI":"新厝里","LIN":"17鄰","STREET":"中正南路","SECT":"一段","MAREA":" ","LANE":"１３１巷","ALLEY":" ","HOUSE_NO":"２６號","E_COORD97":177533.17000000001,"N_COORD97":2540392.3999999999,"ADDRESS":"中正南路一段１３１巷２６號","OBJECTID":295993},"geometry":{"x":177533.16999999993,"y":2540392.4000000022}},{"attributes":{"ID":296002,"DIS_CODE":0,"TOWNNAME":"歸仁區","LI":"媽廟里","LIN":"17鄰","STREET":"中正北路","SECT":"三段","MAREA":" ","LANE":"１４６巷","ALLEY":" ","HOUSE_NO":"５號","E_COORD97":177652.66,"N_COORD97":2543868.7200000002,"ADDRESS":"中正北路三段１４６巷５號","OBJECTID":295994},"geometry":{"x":177652.66000000015,"y":2543868.7200000025}},{"attributes":{"ID":296003,"DIS_CODE":0,"TOWNNAME":"白河區","LI":"甘宅里","LIN":"8鄰","STREET":" ","SECT":" ","MAREA":"甘宅","LANE":" ","ALLEY":" ","HOUSE_NO":"８２號","E_COORD97":192405.53,"N_COORD97":2587014.23,"ADDRESS":"甘宅８２號","OBJECTID":295995},"geometry":{"x":192405.53000000212,"y":2587014.2300000023}},{"attributes":{"ID":296004,"DIS_CODE":0,"TOWNNAME":"白河區","LI":"甘宅里","LIN":"8鄰","STREET":" ","SECT":" ","MAREA":"甘宅","LANE":" ","ALLEY":" ","HOUSE_NO":"８３號","E_COORD97":192387.53,"N_COORD97":2587004.27,"ADDRESS":"甘宅８３號","OBJECTID":295996},"geometry":{"x":192387.53000000119,"y":2587004.2699999996}},{"attributes":{"ID":296005,"DIS_CODE":0,"TOWNNAME":"白河區","LI":"甘宅里","LIN":"1鄰","STREET":" ","SECT":" ","MAREA":"甘宅","LANE":" ","ALLEY":" ","HOUSE_NO":"６號","E_COORD97":192585.35000000001,"N_COORD97":2586599.8999999999,"ADDRESS":"甘宅６號","OBJECTID":295997},"geometry":{"x":192585.34999999963,"y":2586599.9000000022}},{"attributes":{"ID":296006,"DIS_CODE":0,"TOWNNAME":"仁德區","LI":"大甲里","LIN":"7鄰","STREET":"行大一街","SECT":" ","MAREA":" ","LANE":" ","ALLEY":" ","HOUSE_NO":"２９３號","E_COORD97":169653.93754899999,"N_COORD97":2535028.1379300002,"ADDRESS":"行大一街２９３號","OBJECTID":295998},"geometry":{"x":169653.93754900061,"y":2535028.1379320007}},{"attributes":{"ID":296007,"DIS_CODE":0,"TOWNNAME":"白河區","LI":"仙草里","LIN":"13鄰","STREET":" ","SECT":" ","MAREA":"白水溪","LANE":" ","ALLEY":" ","HOUSE_NO":"３８號","E_COORD97":197113.72,"N_COORD97":2583541.98,"ADDRESS":"白水溪３８號","OBJECTID":295999},"geometry":{"x":197113.71999999974,"y":2583541.9800000004}},{"attributes":{"ID":296008,"DIS_CODE":0,"TOWNNAME":"白河區","LI":"甘宅里","LIN":"8鄰","STREET":" ","SECT":" ","MAREA":"甘宅","LANE":" ","ALLEY":" ","HOUSE_NO":"９３號","E_COORD97":192010.07000000001,"N_COORD97":2587229.79,"ADDRESS":"甘宅９３號","OBJECTID":296000},"geometry":{"x":192010.0700000003,"y":2587229.790000001}}]}