{"displayFieldName":"TOWNNAME","fieldAliases":{"ID":"ID","DIS_CODE":"DIS_CODE","TOWNNAME":"TOWNNAME","LI":"LI","LIN":"LIN","STREET":"STREET","SECT":"SECT","MAREA":"MAREA","LANE":"LANE","ALLEY":"ALLEY","HOUSE_NO":"HOUSE_NO","E_COORD97":"E_COORD97","N_COORD97":"N_COORD97","ADDRESS":"ADDRESS","OBJECTID":"OBJECTID"},"geometryType":"esriGeometryPoint","spatialReference":{"wkid":102443,"latestWkid":3826},"fields":[{"name":"ID","type":"esriFieldTypeDouble","alias":"ID"},{"name":"DIS_CODE","type":"esriFieldTypeInteger","alias":"DIS_CODE"},{"name":"TOWNNAME","type":"esriFieldTypeString","alias":"TOWNNAME","length":8},{"name":"LI","type":"esriFieldTypeString","alias":"LI","length":8},{"name":"LIN","type":"esriFieldTypeString","alias":"LIN","length":12},{"name":"STREET","type":"esriFieldTypeString","alias":"STREET","length":20},{"name":"SECT","type":"esriFieldTypeString","alias":"SECT","length":8},{"name":"MAREA","type":"esriFieldTypeString","alias":"MAREA","length":12},{"name":"LANE","type":"esriFieldTypeString","alias":"LANE","length":10},{"name":"ALLEY","type":"esriFieldTypeString","alias":"ALLEY","length":10},{"name":"HOUSE_NO","type":"esriFieldTypeString","alias":"HOUSE_NO","length":20},{"name":"E_COORD97","type":"esriFieldTypeDouble","alias":"E_COORD97"},{"name":"N_COORD97","type":"esriFieldTypeDouble","alias":"N_COORD97"},{"name":"ADDRESS","type":"esriFieldTypeString","alias":"ADDRESS","length":50},{"name":"OBJECTID","type":"esriFieldTypeOID","alias":"OBJECTID"}],"features":[{"attributes":{"ID":208602,"DIS_CODE":0,"TOWNNAME":"將軍區","LI":"忠興里","LIN":"9鄰","STREET":" ","SECT":" ","MAREA":"忠興","LANE":" ","ALLEY":" ","HOUSE_NO":"９７之２５號","E_COORD97":163416.85999999999,"N_COORD97":2567056.8100000001,"ADDRESS":"忠興９７之２５號","OBJECTID":208601},"geometry":{"x":163416.86000000034,"y":2567056.8100000042}},{"attributes":{"ID":208603,"DIS_CODE":0,"TOWNNAME":"將軍區","LI":"忠興里","LIN":"9鄰","STREET":" ","SECT":" ","MAREA":"忠興","LANE":" ","ALLEY":" ","HOUSE_NO":"９７號","E_COORD97":163506.69,"N_COORD97":2566930.1000000001,"ADDRESS":"忠興９７號","OBJECTID":208602},"geometry":{"x":163506.69000000227,"y":2566930.1000000015}},{"attributes":{"ID":208604,"DIS_CODE":0,"TOWNNAME":"將軍區","LI":"忠興里","LIN":"9鄰","STREET":" ","SECT":" ","MAREA":"忠興","LANE":" ","ALLEY":" ","HOUSE_NO":"９８之３號","E_COORD97":163522.48999999999,"N_COORD97":2566892.8199999998,"ADDRESS":"忠興９８之３號","OBJECTID":208603},"geometry":{"x":163522.49000000022,"y":2566892.8200000003}},{"attributes":{"ID":208605,"DIS_CODE":0,"TOWNNAME":"將軍區","LI":"忠興里","LIN":"9鄰","STREET":" ","SECT":" ","MAREA":"忠興","LANE":" ","ALLEY":" ","HOUSE_NO":"９８號","E_COORD97":163513.75,"N_COORD97":2566908.3500000001,"ADDRESS":"忠興９８號","OBJECTID":208604},"geometry":{"x":163513.75,"y":2566908.3499999996}},{"attributes":{"ID":208606,"DIS_CODE":0,"TOWNNAME":"東區","LI":"崇善里","LIN":"9鄰","STREET":"仁和路","SECT":" ","MAREA":" ","LANE":" ","ALLEY":" ","HOUSE_NO":"６４號","E_COORD97":171069.04000000001,"N_COORD97":2541878.9900000002,"ADDRESS":"仁和路６４號","OBJECTID":208605},"geometry":{"x":171069.04000000004,"y":2541878.9900000021}},{"attributes":{"ID":208607,"DIS_CODE":0,"TOWNNAME":"安南區","LI":"\u25A0南里","LIN":"32鄰","STREET":"安昌街","SECT":" ","MAREA":" ","LANE":"１７４巷","ALLEY":"７９弄","HOUSE_NO":"１１號","E_COORD97":170144.69,"N_COORD97":2552237.5800000001,"ADDRESS":"安昌街１７４巷７９弄１１號","OBJECTID":208606},"geometry":{"x":170144.69000000041,"y":2552237.5800000001}},{"attributes":{"ID":208608,"DIS_CODE":0,"TOWNNAME":"安南區","LI":"\u25A0南里","LIN":"32鄰","STREET":"安昌街","SECT":" ","MAREA":" ","LANE":"１７４巷","ALLEY":"７９弄","HOUSE_NO":"１號","E_COORD97":170119.79000000001,"N_COORD97":2552236.9700000002,"ADDRESS":"安昌街１７４巷７９弄１號","OBJECTID":208607},"geometry":{"x":170119.79000000004,"y":2552236.9700000025}},{"attributes":{"ID":208609,"DIS_CODE":0,"TOWNNAME":"安南區","LI":"\u25A0南里","LIN":"32鄰","STREET":"安昌街","SECT":" ","MAREA":" ","LANE":"１７４巷","ALLEY":"７９弄","HOUSE_NO":"３５號","E_COORD97":170181.89000000001,"N_COORD97":2552244.2999999998,"ADDRESS":"安昌街１７４巷７９弄３５號","OBJECTID":208608},"geometry":{"x":170181.89000000153,"y":2552244.3000000007}},{"attributes":{"ID":208610,"DIS_CODE":0,"TOWNNAME":"安南區","LI":"\u25A0南里","LIN":"32鄰","STREET":"安昌街","SECT":" ","MAREA":" ","LANE":"１７４巷","ALLEY":"７９弄","HOUSE_NO":"３７號","E_COORD97":170186.17000000001,"N_COORD97":2552244.71,"ADDRESS":"安昌街１７４巷７９弄３７號","OBJECTID":208609},"geometry":{"x":170186.16999999993,"y":2552244.7100000009}},{"attributes":{"ID":208611,"DIS_CODE":0,"TOWNNAME":"安南區","LI":"\u25A0南里","LIN":"32鄰","STREET":"安昌街","SECT":" ","MAREA":" ","LANE":"１７４巷","ALLEY":"７９弄","HOUSE_NO":"３９號","E_COORD97":170191.26999999999,"N_COORD97":2552244.5,"ADDRESS":"安昌街１７４巷７９弄３９號","OBJECTID":208610},"geometry":{"x":170191.27000000048,"y":2552244.5}},{"attributes":{"ID":208612,"DIS_CODE":0,"TOWNNAME":"安定區","LI":"港口里","LIN":"9鄰","STREET":" ","SECT":" ","MAREA":"港口","LANE":" ","ALLEY":" ","HOUSE_NO":"３５４號","E_COORD97":171313.29000000001,"N_COORD97":2554767.25,"ADDRESS":"港口３５４號","OBJECTID":208611},"geometry":{"x":171313.29000000004,"y":2554767.2500000019}},{"attributes":{"ID":208613,"DIS_CODE":0,"TOWNNAME":"安南區","LI":"\u25A0南里","LIN":"32鄰","STREET":"安昌街","SECT":" ","MAREA":" ","LANE":"１７４巷","ALLEY":"７９弄","HOUSE_NO":"３號","E_COORD97":170124.89000000001,"N_COORD97":2552236.9700000002,"ADDRESS":"安昌街１７４巷７９弄３號","OBJECTID":208612},"geometry":{"x":170124.8900000006,"y":2552236.9700000025}},{"attributes":{"ID":208614,"DIS_CODE":0,"TOWNNAME":"安南區","LI":"\u25A0南里","LIN":"32鄰","STREET":"安昌街","SECT":" ","MAREA":" ","LANE":"１７４巷","ALLEY":"７９弄","HOUSE_NO":"４１號","E_COORD97":170195.76000000001,"N_COORD97":2552244.5,"ADDRESS":"安昌街１７４巷７９弄４１號","OBJECTID":208613},"geometry":{"x":170195.75999999978,"y":2552244.5}},{"attributes":{"ID":208615,"DIS_CODE":0,"TOWNNAME":"安南區","LI":"\u25A0南里","LIN":"32鄰","STREET":"安昌街","SECT":" ","MAREA":" ","LANE":"１７４巷","ALLEY":"７９弄","HOUSE_NO":"４３號","E_COORD97":170200.04999999999,"N_COORD97":2552244.2999999998,"ADDRESS":"安昌街１７４巷７９弄４３號","OBJECTID":208614},"geometry":{"x":170200.05000000075,"y":2552244.3000000007}},{"attributes":{"ID":208616,"DIS_CODE":0,"TOWNNAME":"安南區","LI":"\u25A0南里","LIN":"32鄰","STREET":"安昌街","SECT":" ","MAREA":" ","LANE":"１７４巷","ALLEY":"７９弄","HOUSE_NO":"４５號","E_COORD97":170204.73999999999,"N_COORD97":2552244.5,"ADDRESS":"安昌街１７４巷７９弄４５號","OBJECTID":208615},"geometry":{"x":170204.74000000022,"y":2552244.5}},{"attributes":{"ID":208617,"DIS_CODE":0,"TOWNNAME":"安南區","LI":"\u25A0南里","LIN":"32鄰","STREET":"安昌街","SECT":" ","MAREA":" ","LANE":"１７４巷","ALLEY":"７９弄","HOUSE_NO":"４７號","E_COORD97":170234.60999999999,"N_COORD97":2552245.5,"ADDRESS":"安昌街１７４巷７９弄４７號","OBJECTID":208616},"geometry":{"x":170234.61000000034,"y":2552245.5}},{"attributes":{"ID":208618,"DIS_CODE":0,"TOWNNAME":"安南區","LI":"\u25A0南里","LIN":"32鄰","STREET":"安昌街","SECT":" ","MAREA":" ","LANE":"１７４巷","ALLEY":"７９弄","HOUSE_NO":"５號","E_COORD97":170130,"N_COORD97":2552237.1699999999,"ADDRESS":"安昌街１７４巷７９弄５號","OBJECTID":208617},"geometry":{"x":170130,"y":2552237.1699999999}},{"attributes":{"ID":208619,"DIS_CODE":0,"TOWNNAME":"歸仁區","LI":"武東里","LIN":"15鄰","STREET":"高鐵十二路","SECT":" ","MAREA":" ","LANE":" ","ALLEY":" ","HOUSE_NO":"９７號","E_COORD97":175899.16,"N_COORD97":2536309.21,"ADDRESS":"高鐵十二路９７號","OBJECTID":208618},"geometry":{"x":175899.16000000108,"y":2536309.2100000009}},{"attributes":{"ID":208620,"DIS_CODE":0,"TOWNNAME":"官田區","LI":"官田里","LIN":"2鄰","STREET":" ","SECT":" ","MAREA":"官田","LANE":" ","ALLEY":" ","HOUSE_NO":"１４號之１９","E_COORD97":182743.79999999999,"N_COORD97":2565136.73,"ADDRESS":"官田１４號之１９","OBJECTID":208619},"geometry":{"x":182743.79999999888,"y":2565136.7300000023}},{"attributes":{"ID":208621,"DIS_CODE":0,"TOWNNAME":"官田區","LI":"官田里","LIN":"2鄰","STREET":" ","SECT":" ","MAREA":"官田","LANE":" ","ALLEY":" ","HOUSE_NO":"１４號之１","E_COORD97":182721.48000000001,"N_COORD97":2565263.9900000002,"ADDRESS":"官田１４號之１","OBJECTID":208620},"geometry":{"x":182721.48000000138,"y":2565263.9900000002}},{"attributes":{"ID":208622,"DIS_CODE":0,"TOWNNAME":"官田區","LI":"官田里","LIN":"2鄰","STREET":" ","SECT":" ","MAREA":"官田","LANE":" ","ALLEY":" ","HOUSE_NO":"１４號之２０","E_COORD97":182745.64000000001,"N_COORD97":2565130.4300000002,"ADDRESS":"官田１４號之２０","OBJECTID":208621},"geometry":{"x":182745.6400000006,"y":2565130.4300000016}},{"attributes":{"ID":208623,"DIS_CODE":0,"TOWNNAME":"官田區","LI":"官田里","LIN":"2鄰","STREET":" ","SECT":" ","MAREA":"官田","LANE":" ","ALLEY":" ","HOUSE_NO":"１４號之２１","E_COORD97":182739.73999999999,"N_COORD97":2565095.5899999999,"ADDRESS":"官田１４號之２１","OBJECTID":208622},"geometry":{"x":182739.74000000209,"y":2565095.5900000017}},{"attributes":{"ID":208624,"DIS_CODE":0,"TOWNNAME":"官田區","LI":"官田里","LIN":"2鄰","STREET":" ","SECT":" ","MAREA":"官田","LANE":" ","ALLEY":" ","HOUSE_NO":"１４號之２２","E_COORD97":182731.26000000001,"N_COORD97":2565097.6800000002,"ADDRESS":"官田１４號之２２","OBJECTID":208623},"geometry":{"x":182731.26000000071,"y":2565097.6800000016}},{"attributes":{"ID":208625,"DIS_CODE":0,"TOWNNAME":"官田區","LI":"官田里","LIN":"2鄰","STREET":" ","SECT":" ","MAREA":"官田","LANE":" ","ALLEY":" ","HOUSE_NO":"１４號之２３","E_COORD97":182737.76000000001,"N_COORD97":2565101.8300000001,"ADDRESS":"官田１４號之２３","OBJECTID":208624},"geometry":{"x":182737.76000000071,"y":2565101.8300000001}},{"attributes":{"ID":208626,"DIS_CODE":0,"TOWNNAME":"官田區","LI":"官田里","LIN":"2鄰","STREET":" ","SECT":" ","MAREA":"官田","LANE":" ","ALLEY":" ","HOUSE_NO":"１４號之２４","E_COORD97":182732.35000000001,"N_COORD97":2565109.4900000002,"ADDRESS":"官田１４號之２４","OBJECTID":208625},"geometry":{"x":182732.35000000056,"y":2565109.4900000039}},{"attributes":{"ID":208627,"DIS_CODE":0,"TOWNNAME":"官田區","LI":"官田里","LIN":"2鄰","STREET":" ","SECT":" ","MAREA":"官田","LANE":" ","ALLEY":" ","HOUSE_NO":"１４號之２５","E_COORD97":182730.67999999999,"N_COORD97":2565115.5299999998,"ADDRESS":"官田１４號之２５","OBJECTID":208626},"geometry":{"x":182730.6799999997,"y":2565115.5300000012}},{"attributes":{"ID":208628,"DIS_CODE":0,"TOWNNAME":"官田區","LI":"官田里","LIN":"2鄰","STREET":" ","SECT":" ","MAREA":"官田","LANE":" ","ALLEY":" ","HOUSE_NO":"１４號之２６","E_COORD97":182729.01000000001,"N_COORD97":2565121.5800000001,"ADDRESS":"官田１４號之２６","OBJECTID":208627},"geometry":{"x":182729.01000000164,"y":2565121.5800000001}},{"attributes":{"ID":208629,"DIS_CODE":0,"TOWNNAME":"官田區","LI":"官田里","LIN":"2鄰","STREET":" ","SECT":" ","MAREA":"官田","LANE":" ","ALLEY":" ","HOUSE_NO":"１４號之２７","E_COORD97":182727.34,"N_COORD97":2565127.6200000001,"ADDRESS":"官田１４號之２７","OBJECTID":208628},"geometry":{"x":182727.34000000078,"y":2565127.6200000029}},{"attributes":{"ID":208630,"DIS_CODE":0,"TOWNNAME":"官田區","LI":"官田里","LIN":"2鄰","STREET":" ","SECT":" ","MAREA":"官田","LANE":" ","ALLEY":" ","HOUSE_NO":"１４號之２８","E_COORD97":182725.67000000001,"N_COORD97":2565133.6600000001,"ADDRESS":"官田１４號之２８","OBJECTID":208629},"geometry":{"x":182725.66999999993,"y":2565133.6600000001}},{"attributes":{"ID":208631,"DIS_CODE":0,"TOWNNAME":"官田區","LI":"官田里","LIN":"2鄰","STREET":" ","SECT":" ","MAREA":"官田","LANE":" ","ALLEY":" ","HOUSE_NO":"１４號之２９","E_COORD97":182724,"N_COORD97":2565139.71,"ADDRESS":"官田１４號之２９","OBJECTID":208630},"geometry":{"x":182723.99999999907,"y":2565139.7100000028}},{"attributes":{"ID":208632,"DIS_CODE":0,"TOWNNAME":"官田區","LI":"官田里","LIN":"2鄰","STREET":" ","SECT":" ","MAREA":"官田","LANE":" ","ALLEY":" ","HOUSE_NO":"１４號之２","E_COORD97":182699.54000000001,"N_COORD97":2565254.0099999998,"ADDRESS":"官田１４號之２","OBJECTID":208631},"geometry":{"x":182699.54000000004,"y":2565254.0099999998}},{"attributes":{"ID":208633,"DIS_CODE":0,"TOWNNAME":"官田區","LI":"官田里","LIN":"2鄰","STREET":" ","SECT":" ","MAREA":"官田","LANE":" ","ALLEY":" ","HOUSE_NO":"１４號之３０","E_COORD97":182722.34,"N_COORD97":2565145.75,"ADDRESS":"官田１４號之３０","OBJECTID":208632},"geometry":{"x":182722.34000000078,"y":2565145.7500000019}},{"attributes":{"ID":208634,"DIS_CODE":0,"TOWNNAME":"官田區","LI":"官田里","LIN":"2鄰","STREET":" ","SECT":" ","MAREA":"官田","LANE":" ","ALLEY":" ","HOUSE_NO":"１４號之３１","E_COORD97":182720.67000000001,"N_COORD97":2565151.79,"ADDRESS":"官田１４號之３１","OBJECTID":208633},"geometry":{"x":182720.66999999993,"y":2565151.790000001}},{"attributes":{"ID":208635,"DIS_CODE":0,"TOWNNAME":"官田區","LI":"官田里","LIN":"2鄰","STREET":" ","SECT":" ","MAREA":"官田","LANE":" ","ALLEY":" ","HOUSE_NO":"１４號之３２","E_COORD97":182719,"N_COORD97":2565157.8300000001,"ADDRESS":"官田１４號之３２","OBJECTID":208634},"geometry":{"x":182719.00000000186,"y":2565157.8300000038}},{"attributes":{"ID":208636,"DIS_CODE":0,"TOWNNAME":"官田區","LI":"官田里","LIN":"2鄰","STREET":" ","SECT":" ","MAREA":"官田","LANE":" ","ALLEY":" ","HOUSE_NO":"１４號之３３","E_COORD97":182717.32999999999,"N_COORD97":2565163.8799999999,"ADDRESS":"官田１４號之３３","OBJECTID":208635},"geometry":{"x":182717.33000000101,"y":2565163.8800000008}},{"attributes":{"ID":208637,"DIS_CODE":0,"TOWNNAME":"官田區","LI":"官田里","LIN":"2鄰","STREET":" ","SECT":" ","MAREA":"官田","LANE":" ","ALLEY":" ","HOUSE_NO":"１４號之３４","E_COORD97":182715.66,"N_COORD97":2565169.9199999999,"ADDRESS":"官田１４號之３４","OBJECTID":208636},"geometry":{"x":182715.66000000015,"y":2565169.9199999999}},{"attributes":{"ID":208638,"DIS_CODE":0,"TOWNNAME":"官田區","LI":"官田里","LIN":"2鄰","STREET":" ","SECT":" ","MAREA":"官田","LANE":" ","ALLEY":" ","HOUSE_NO":"１４號之３５","E_COORD97":182713.98999999999,"N_COORD97":2565175.96,"ADDRESS":"官田１４號之３５","OBJECTID":208637},"geometry":{"x":182713.99000000022,"y":2565175.9600000028}},{"attributes":{"ID":208639,"DIS_CODE":0,"TOWNNAME":"官田區","LI":"官田里","LIN":"2鄰","STREET":" ","SECT":" ","MAREA":"官田","LANE":" ","ALLEY":" ","HOUSE_NO":"１４號之３６","E_COORD97":182712.32999999999,"N_COORD97":2565182.0099999998,"ADDRESS":"官田１４號之３６","OBJECTID":208638},"geometry":{"x":182712.33000000101,"y":2565182.0099999998}},{"attributes":{"ID":208640,"DIS_CODE":0,"TOWNNAME":"官田區","LI":"官田里","LIN":"2鄰","STREET":" ","SECT":" ","MAREA":"官田","LANE":" ","ALLEY":" ","HOUSE_NO":"１４號之３７","E_COORD97":182710.66,"N_COORD97":2565188.0499999998,"ADDRESS":"官田１４號之３７","OBJECTID":208639},"geometry":{"x":182710.66000000015,"y":2565188.0500000026}},{"attributes":{"ID":208641,"DIS_CODE":0,"TOWNNAME":"官田區","LI":"官田里","LIN":"2鄰","STREET":" ","SECT":" ","MAREA":"官田","LANE":" ","ALLEY":" ","HOUSE_NO":"１４號之３","E_COORD97":182703.25,"N_COORD97":2565255.4700000002,"ADDRESS":"官田１４號之３","OBJECTID":208640},"geometry":{"x":182703.25,"y":2565255.4699999988}},{"attributes":{"ID":208642,"DIS_CODE":0,"TOWNNAME":"安南區","LI":"\u25A0南里","LIN":"32鄰","STREET":"安昌街","SECT":" ","MAREA":" ","LANE":"１７４巷","ALLEY":"３９弄","HOUSE_NO":"１１號","E_COORD97":170166.07999999999,"N_COORD97":2552356.6600000001,"ADDRESS":"安昌街１７４巷３９弄１１號","OBJECTID":208641},"geometry":{"x":170166.08000000101,"y":2552356.6599999983}},{"attributes":{"ID":208643,"DIS_CODE":0,"TOWNNAME":"永康區","LI":"\u25A0行里","LIN":"32鄰","STREET":"三村一街","SECT":" ","MAREA":" ","LANE":"１３８巷","ALLEY":"９２弄","HOUSE_NO":"１８號","E_COORD97":172126.51999999999,"N_COORD97":2549383.54,"ADDRESS":"三村一街１３８巷９２弄１８號","OBJECTID":208642},"geometry":{"x":172126.51999999955,"y":2549383.540000001}},{"attributes":{"ID":208644,"DIS_CODE":0,"TOWNNAME":"東區","LI":"虎尾里","LIN":"32鄰","STREET":"東成街","SECT":" ","MAREA":" ","LANE":"１８２巷","ALLEY":"３弄","HOUSE_NO":"２號","E_COORD97":171776.37,"N_COORD97":2542206.1699999999,"ADDRESS":"東成街１８２巷３弄２號","OBJECTID":208643},"geometry":{"x":171776.37000000104,"y":2542206.1700000018}},{"attributes":{"ID":208645,"DIS_CODE":0,"TOWNNAME":"東區","LI":"虎尾里","LIN":"32鄰","STREET":"東成街","SECT":" ","MAREA":" ","LANE":"１８２巷","ALLEY":"３弄","HOUSE_NO":"１０號","E_COORD97":171801.70999999999,"N_COORD97":2542208.5899999999,"ADDRESS":"東成街１８２巷３弄１０號","OBJECTID":208644},"geometry":{"x":171801.70999999996,"y":2542208.5899999999}},{"attributes":{"ID":208646,"DIS_CODE":0,"TOWNNAME":"東區","LI":"虎尾里","LIN":"32鄰","STREET":"東成街","SECT":" ","MAREA":" ","LANE":"１８２巷","ALLEY":"３弄","HOUSE_NO":"１４號","E_COORD97":171814.57000000001,"N_COORD97":2542209.3399999999,"ADDRESS":"東成街１８２巷３弄１４號","OBJECTID":208645},"geometry":{"x":171814.57000000123,"y":2542209.3400000017}},{"attributes":{"ID":208647,"DIS_CODE":0,"TOWNNAME":"東區","LI":"虎尾里","LIN":"32鄰","STREET":"東成街","SECT":" ","MAREA":" ","LANE":"１８２巷","ALLEY":"３弄","HOUSE_NO":"１６號","E_COORD97":171820.53,"N_COORD97":2542209.52,"ADDRESS":"東成街１８２巷３弄１６號","OBJECTID":208646},"geometry":{"x":171820.53000000026,"y":2542209.5199999977}},{"attributes":{"ID":208648,"DIS_CODE":0,"TOWNNAME":"東區","LI":"虎尾里","LIN":"32鄰","STREET":"東成街","SECT":" ","MAREA":" ","LANE":"１８２巷","ALLEY":"３弄","HOUSE_NO":"１８號","E_COORD97":171826.67999999999,"N_COORD97":2542209.71,"ADDRESS":"東成街１８２巷３弄１８號","OBJECTID":208647},"geometry":{"x":171826.68000000063,"y":2542209.709999999}},{"attributes":{"ID":208649,"DIS_CODE":0,"TOWNNAME":"東區","LI":"虎尾里","LIN":"32鄰","STREET":"東成街","SECT":" ","MAREA":" ","LANE":"１８２巷","ALLEY":"３弄","HOUSE_NO":"４號","E_COORD97":171782.51999999999,"N_COORD97":2542206.73,"ADDRESS":"東成街１８２巷３弄４號","OBJECTID":208648},"geometry":{"x":171782.51999999955,"y":2542206.7300000023}},{"attributes":{"ID":208650,"DIS_CODE":0,"TOWNNAME":"白河區","LI":"甘宅里","LIN":"2鄰","STREET":" ","SECT":" ","MAREA":"甘宅","LANE":" ","ALLEY":" ","HOUSE_NO":"１６號","E_COORD97":192670.28,"N_COORD97":2586604.54,"ADDRESS":"甘宅１６號","OBJECTID":208649},"geometry":{"x":192670.28000000119,"y":2586604.5399999991}},{"attributes":{"ID":208651,"DIS_CODE":0,"TOWNNAME":"東區","LI":"虎尾里","LIN":"32鄰","STREET":"東成街","SECT":" ","MAREA":" ","LANE":"１８２巷","ALLEY":"３弄","HOUSE_NO":"６號","E_COORD97":171788.67000000001,"N_COORD97":2542207.6600000001,"ADDRESS":"東成街１８２巷３弄６號","OBJECTID":208650},"geometry":{"x":171788.66999999993,"y":2542207.660000002}},{"attributes":{"ID":208652,"DIS_CODE":0,"TOWNNAME":"東區","LI":"虎尾里","LIN":"32鄰","STREET":"東成街","SECT":" ","MAREA":" ","LANE":"１８２巷","ALLEY":"３弄","HOUSE_NO":"８號","E_COORD97":171795.19,"N_COORD97":2542208.4100000001,"ADDRESS":"東成街１８２巷３弄８號","OBJECTID":208651},"geometry":{"x":171795.19000000134,"y":2542208.410000002}},{"attributes":{"ID":208653,"DIS_CODE":0,"TOWNNAME":"東區","LI":"虎尾里","LIN":"32鄰","STREET":"東成街","SECT":" ","MAREA":" ","LANE":"１８２巷","ALLEY":"４弄","HOUSE_NO":"１１號","E_COORD97":171729.51000000001,"N_COORD97":2542202.4500000002,"ADDRESS":"東成街１８２巷４弄１１號","OBJECTID":208652},"geometry":{"x":171729.51000000071,"y":2542202.4499999993}},{"attributes":{"ID":208654,"DIS_CODE":0,"TOWNNAME":"東區","LI":"虎尾里","LIN":"32鄰","STREET":"東成街","SECT":" ","MAREA":" ","LANE":"１８２巷","ALLEY":"４弄","HOUSE_NO":"１３號","E_COORD97":171722.79999999999,"N_COORD97":2542202.2599999998,"ADDRESS":"東成街１８２巷４弄１３號","OBJECTID":208653},"geometry":{"x":171722.79999999981,"y":2542202.2600000016}},{"attributes":{"ID":208655,"DIS_CODE":0,"TOWNNAME":"東區","LI":"虎尾里","LIN":"32鄰","STREET":"東成街","SECT":" ","MAREA":" ","LANE":"１８２巷","ALLEY":"４弄","HOUSE_NO":"１５號","E_COORD97":171716.64999999999,"N_COORD97":2542202.4500000002,"ADDRESS":"東成街１８２巷４弄１５號","OBJECTID":208654},"geometry":{"x":171716.65000000224,"y":2542202.4499999993}},{"attributes":{"ID":208656,"DIS_CODE":0,"TOWNNAME":"東區","LI":"虎尾里","LIN":"32鄰","STREET":"東成街","SECT":" ","MAREA":" ","LANE":"１８２巷","ALLEY":"４弄","HOUSE_NO":"１９號","E_COORD97":171703.98000000001,"N_COORD97":2542201.3300000001,"ADDRESS":"東成街１８２巷４弄１９號","OBJECTID":208655},"geometry":{"x":171703.98000000045,"y":2542201.3300000038}},{"attributes":{"ID":208657,"DIS_CODE":0,"TOWNNAME":"東區","LI":"崇學里","LIN":"9鄰","STREET":"崇明十一街","SECT":" ","MAREA":" ","LANE":" ","ALLEY":" ","HOUSE_NO":"１２號","E_COORD97":170298.26000000001,"N_COORD97":2541800.04,"ADDRESS":"崇明十一街１２號","OBJECTID":208656},"geometry":{"x":170298.26000000071,"y":2541800.040000001}},{"attributes":{"ID":208658,"DIS_CODE":0,"TOWNNAME":"東區","LI":"崇學里","LIN":"9鄰","STREET":"崇明十一街","SECT":" ","MAREA":" ","LANE":" ","ALLEY":" ","HOUSE_NO":"１４號","E_COORD97":170299.29999999999,"N_COORD97":2541804.3199999998,"ADDRESS":"崇明十一街１４號","OBJECTID":208657},"geometry":{"x":170299.29999999981,"y":2541804.3200000003}},{"attributes":{"ID":208659,"DIS_CODE":0,"TOWNNAME":"東區","LI":"崇學里","LIN":"9鄰","STREET":"崇明十一街","SECT":" ","MAREA":" ","LANE":" ","ALLEY":" ","HOUSE_NO":"１６號","E_COORD97":170303.14000000001,"N_COORD97":2541807.5600000001,"ADDRESS":"崇明十一街１６號","OBJECTID":208658},"geometry":{"x":170303.13999999966,"y":2541807.5600000024}},{"attributes":{"ID":208660,"DIS_CODE":0,"TOWNNAME":"東區","LI":"崇學里","LIN":"9鄰","STREET":"崇明十一街","SECT":" ","MAREA":" ","LANE":" ","ALLEY":" ","HOUSE_NO":"１８號","E_COORD97":170305.79999999999,"N_COORD97":2541810.2200000002,"ADDRESS":"崇明十一街１８號","OBJECTID":208659},"geometry":{"x":170305.79999999981,"y":2541810.2200000025}},{"attributes":{"ID":208661,"DIS_CODE":0,"TOWNNAME":"東區","LI":"虎尾里","LIN":"32鄰","STREET":"東成街","SECT":" ","MAREA":" ","LANE":"１８２巷","ALLEY":"４弄","HOUSE_NO":"１號","E_COORD97":171760.25,"N_COORD97":2542204.3100000001,"ADDRESS":"東成街１８２巷４弄１號","OBJECTID":208660},"geometry":{"x":171760.25000000093,"y":2542204.3100000005}},{"attributes":{"ID":208662,"DIS_CODE":0,"TOWNNAME":"東區","LI":"虎尾里","LIN":"32鄰","STREET":"東成街","SECT":" ","MAREA":" ","LANE":"１８２巷","ALLEY":"４弄","HOUSE_NO":"２１號","E_COORD97":171697.82999999999,"N_COORD97":2542200.5899999999,"ADDRESS":"東成街１８２巷４弄２１號","OBJECTID":208661},"geometry":{"x":171697.83000000007,"y":2542200.5900000017}},{"attributes":{"ID":208663,"DIS_CODE":0,"TOWNNAME":"東區","LI":"虎尾里","LIN":"32鄰","STREET":"東成街","SECT":" ","MAREA":" ","LANE":"１８２巷","ALLEY":"４弄","HOUSE_NO":"３號","E_COORD97":171754.10000000001,"N_COORD97":2542204.3100000001,"ADDRESS":"東成街１８２巷４弄３號","OBJECTID":208662},"geometry":{"x":171754.10000000056,"y":2542204.3100000005}},{"attributes":{"ID":208664,"DIS_CODE":0,"TOWNNAME":"東區","LI":"虎尾里","LIN":"32鄰","STREET":"東成街","SECT":" ","MAREA":" ","LANE":"１８２巷","ALLEY":"４弄","HOUSE_NO":"５號","E_COORD97":171747.76999999999,"N_COORD97":2542203.5699999998,"ADDRESS":"東成街１８２巷４弄５號","OBJECTID":208663},"geometry":{"x":171747.77000000048,"y":2542203.570000004}},{"attributes":{"ID":208665,"DIS_CODE":0,"TOWNNAME":"東區","LI":"虎尾里","LIN":"32鄰","STREET":"東成街","SECT":" ","MAREA":" ","LANE":"１８２巷","ALLEY":"４弄","HOUSE_NO":"７號","E_COORD97":171741.42999999999,"N_COORD97":2542203.0099999998,"ADDRESS":"東成街１８２巷４弄７號","OBJECTID":208664},"geometry":{"x":171741.43000000063,"y":2542203.0099999998}},{"attributes":{"ID":208666,"DIS_CODE":0,"TOWNNAME":"東區","LI":"崇學里","LIN":"9鄰","STREET":"崇明十一街","SECT":" ","MAREA":" ","LANE":" ","ALLEY":" ","HOUSE_NO":"２０號","E_COORD97":170308.01000000001,"N_COORD97":2541812.73,"ADDRESS":"崇明十一街２０號","OBJECTID":208665},"geometry":{"x":170308.00999999978,"y":2541812.7300000042}},{"attributes":{"ID":208667,"DIS_CODE":0,"TOWNNAME":"官田區","LI":"官田里","LIN":"2鄰","STREET":" ","SECT":" ","MAREA":"官田","LANE":" ","ALLEY":" ","HOUSE_NO":"１４號之４","E_COORD97":182720.34,"N_COORD97":2565210.9399999999,"ADDRESS":"官田１４號之４","OBJECTID":208666},"geometry":{"x":182720.34000000078,"y":2565210.9400000013}},{"attributes":{"ID":208668,"DIS_CODE":0,"TOWNNAME":"官田區","LI":"官田里","LIN":"2鄰","STREET":" ","SECT":" ","MAREA":"官田","LANE":" ","ALLEY":" ","HOUSE_NO":"１４號之５","E_COORD97":182747.47,"N_COORD97":2565124.1200000001,"ADDRESS":"官田１４號之５","OBJECTID":208667},"geometry":{"x":182747.46999999974,"y":2565124.1200000029}},{"attributes":{"ID":208669,"DIS_CODE":0,"TOWNNAME":"官田區","LI":"官田里","LIN":"2鄰","STREET":" ","SECT":" ","MAREA":"官田","LANE":" ","ALLEY":" ","HOUSE_NO":"１４號之６８","E_COORD97":182695.16,"N_COORD97":2565252.77,"ADDRESS":"官田１４號之６８","OBJECTID":208668},"geometry":{"x":182695.16000000108,"y":2565252.7700000014}},{"attributes":{"ID":208670,"DIS_CODE":0,"TOWNNAME":"官田區","LI":"官田里","LIN":"2鄰","STREET":" ","SECT":" ","MAREA":"官田","LANE":" ","ALLEY":" ","HOUSE_NO":"１４號之６９","E_COORD97":182691.29000000001,"N_COORD97":2565251.1800000002,"ADDRESS":"官田１４號之６９","OBJECTID":208669},"geometry":{"x":182691.29000000004,"y":2565251.1800000016}},{"attributes":{"ID":208671,"DIS_CODE":0,"TOWNNAME":"官田區","LI":"官田里","LIN":"2鄰","STREET":" ","SECT":" ","MAREA":"官田","LANE":" ","ALLEY":" ","HOUSE_NO":"１４號之６","E_COORD97":182749.31,"N_COORD97":2565117.8199999998,"ADDRESS":"官田１４號之６","OBJECTID":208670},"geometry":{"x":182749.31000000052,"y":2565117.8200000022}},{"attributes":{"ID":208672,"DIS_CODE":0,"TOWNNAME":"官田區","LI":"官田里","LIN":"2鄰","STREET":" ","SECT":" ","MAREA":"官田","LANE":" ","ALLEY":" ","HOUSE_NO":"１４號之７０","E_COORD97":182687.42000000001,"N_COORD97":2565249.6000000001,"ADDRESS":"官田１４號之７０","OBJECTID":208671},"geometry":{"x":182687.42000000179,"y":2565249.5999999996}},{"attributes":{"ID":208673,"DIS_CODE":0,"TOWNNAME":"官田區","LI":"官田里","LIN":"2鄰","STREET":" ","SECT":" ","MAREA":"官田","LANE":" ","ALLEY":" ","HOUSE_NO":"１４號之７１","E_COORD97":182683.54999999999,"N_COORD97":2565248.02,"ADDRESS":"官田１４號之７１","OBJECTID":208672},"geometry":{"x":182683.55000000075,"y":2565248.0200000014}},{"attributes":{"ID":208674,"DIS_CODE":0,"TOWNNAME":"官田區","LI":"官田里","LIN":"2鄰","STREET":" ","SECT":" ","MAREA":"官田","LANE":" ","ALLEY":" ","HOUSE_NO":"１４號之７２","E_COORD97":182679.67999999999,"N_COORD97":2565246.4399999999,"ADDRESS":"官田１４號之７２","OBJECTID":208673},"geometry":{"x":182679.6799999997,"y":2565246.4399999995}},{"attributes":{"ID":208675,"DIS_CODE":0,"TOWNNAME":"白河區","LI":"大林里","LIN":"9鄰","STREET":" ","SECT":" ","MAREA":"杭內","LANE":" ","ALLEY":" ","HOUSE_NO":"２６號","E_COORD97":195665.66,"N_COORD97":2581185.1899999999,"ADDRESS":"杭內２６號","OBJECTID":208674},"geometry":{"x":195665.66000000015,"y":2581185.1900000013}},{"attributes":{"ID":208676,"DIS_CODE":0,"TOWNNAME":"白河區","LI":"仙草里","LIN":"9鄰","STREET":" ","SECT":" ","MAREA":"岩前","LANE":" ","ALLEY":" ","HOUSE_NO":"１８之１號","E_COORD97":195815.03,"N_COORD97":2582129.6099999999,"ADDRESS":"岩前１８之１號","OBJECTID":208675},"geometry":{"x":195815.03000000119,"y":2582129.6099999994}},{"attributes":{"ID":208677,"DIS_CODE":0,"TOWNNAME":"白河區","LI":"仙草里","LIN":"9鄰","STREET":" ","SECT":" ","MAREA":"岩前","LANE":" ","ALLEY":" ","HOUSE_NO":"１８號","E_COORD97":195805.44,"N_COORD97":2582097.8900000001,"ADDRESS":"岩前１８號","OBJECTID":208676},"geometry":{"x":195805.44000000134,"y":2582097.8900000006}},{"attributes":{"ID":208678,"DIS_CODE":0,"TOWNNAME":"安南區","LI":"安慶里","LIN":"32鄰","STREET":"怡安路","SECT":"一段","MAREA":" ","LANE":"３１６巷","ALLEY":"７弄","HOUSE_NO":"１０號","E_COORD97":168891.32999999999,"N_COORD97":2549167.27,"ADDRESS":"怡安路一段３１６巷７弄１０號","OBJECTID":208677},"geometry":{"x":168891.33000000101,"y":2549167.2699999996}},{"attributes":{"ID":208679,"DIS_CODE":0,"TOWNNAME":"新化區","LI":"崙頂里","LIN":"2鄰","STREET":" ","SECT":" ","MAREA":"崙子頂","LANE":" ","ALLEY":" ","HOUSE_NO":"８３號","E_COORD97":176882.98000000001,"N_COORD97":2546734.25,"ADDRESS":"崙子頂８３號","OBJECTID":208678},"geometry":{"x":176882.97999999952,"y":2546734.25}},{"attributes":{"ID":208680,"DIS_CODE":0,"TOWNNAME":"安南區","LI":"安慶里","LIN":"32鄰","STREET":"怡安路","SECT":"一段","MAREA":" ","LANE":"３１６巷","ALLEY":"７弄","HOUSE_NO":"１１號","E_COORD97":168879.79999999999,"N_COORD97":2549179.1400000001,"ADDRESS":"怡安路一段３１６巷７弄１１號","OBJECTID":208679},"geometry":{"x":168879.80000000075,"y":2549179.1400000006}},{"attributes":{"ID":208681,"DIS_CODE":0,"TOWNNAME":"白河區","LI":"仙草里","LIN":"9鄰","STREET":" ","SECT":" ","MAREA":"岩前","LANE":" ","ALLEY":" ","HOUSE_NO":"１９之１號","E_COORD97":195734.70000000001,"N_COORD97":2582136.2400000002,"ADDRESS":"岩前１９之１號","OBJECTID":208680},"geometry":{"x":195734.70000000019,"y":2582136.2400000002}},{"attributes":{"ID":208682,"DIS_CODE":0,"TOWNNAME":"白河區","LI":"仙草里","LIN":"9鄰","STREET":" ","SECT":" ","MAREA":"岩前","LANE":" ","ALLEY":" ","HOUSE_NO":"１９之２號","E_COORD97":195718.48999999999,"N_COORD97":2582121.5499999998,"ADDRESS":"岩前１９之２號","OBJECTID":208681},"geometry":{"x":195718.49000000115,"y":2582121.5500000007}},{"attributes":{"ID":208683,"DIS_CODE":0,"TOWNNAME":"白河區","LI":"仙草里","LIN":"9鄰","STREET":" ","SECT":" ","MAREA":"岩前","LANE":" ","ALLEY":" ","HOUSE_NO":"１９之３號","E_COORD97":195695.51000000001,"N_COORD97":2582128.3700000001,"ADDRESS":"岩前１９之３號","OBJECTID":208682},"geometry":{"x":195695.51000000164,"y":2582128.3700000029}},{"attributes":{"ID":208684,"DIS_CODE":0,"TOWNNAME":"白河區","LI":"仙草里","LIN":"9鄰","STREET":" ","SECT":" ","MAREA":"岩前","LANE":" ","ALLEY":" ","HOUSE_NO":"１９之４號","E_COORD97":195695.89999999999,"N_COORD97":2582103.23,"ADDRESS":"岩前１９之４號","OBJECTID":208683},"geometry":{"x":195695.9000000013,"y":2582103.2300000004}},{"attributes":{"ID":208685,"DIS_CODE":0,"TOWNNAME":"白河區","LI":"仙草里","LIN":"9鄰","STREET":" ","SECT":" ","MAREA":"岩前","LANE":" ","ALLEY":" ","HOUSE_NO":"１９之５號","E_COORD97":195666.38,"N_COORD97":2582079.2400000002,"ADDRESS":"岩前１９之５號","OBJECTID":208684},"geometry":{"x":195666.38000000082,"y":2582079.2400000002}},{"attributes":{"ID":208686,"DIS_CODE":0,"TOWNNAME":"白河區","LI":"庄內里","LIN":"9鄰","STREET":" ","SECT":" ","MAREA":"客庄內","LANE":" ","ALLEY":" ","HOUSE_NO":"１１５之１號","E_COORD97":190927.85000000001,"N_COORD97":2583569.1200000001,"ADDRESS":"客庄內１１５之１號","OBJECTID":208685},"geometry":{"x":190927.85000000149,"y":2583569.120000001}},{"attributes":{"ID":208687,"DIS_CODE":0,"TOWNNAME":"佳里區","LI":"忠仁里","LIN":"9鄰","STREET":" ","SECT":" ","MAREA":"忠仁","LANE":" ","ALLEY":" ","HOUSE_NO":"５３號","E_COORD97":166011.39000000001,"N_COORD97":2562172.8500000001,"ADDRESS":"忠仁５３號","OBJECTID":208686},"geometry":{"x":166011.38999999966,"y":2562172.8499999996}},{"attributes":{"ID":208688,"DIS_CODE":0,"TOWNNAME":"東區","LI":"虎尾里","LIN":"32鄰","STREET":"東成街","SECT":" ","MAREA":" ","LANE":"１８２巷","ALLEY":"３弄","HOUSE_NO":"１２號","E_COORD97":171808.04000000001,"N_COORD97":2542208.96,"ADDRESS":"東成街１８２巷３弄１２號","OBJECTID":208687},"geometry":{"x":171808.04000000004,"y":2542208.9600000028}},{"attributes":{"ID":208689,"DIS_CODE":0,"TOWNNAME":"東區","LI":"虎尾里","LIN":"32鄰","STREET":"東成街","SECT":" ","MAREA":" ","LANE":"１８２巷","ALLEY":"４弄","HOUSE_NO":"１７號","E_COORD97":171710.13,"N_COORD97":2542201.71,"ADDRESS":"東成街１８２巷４弄１７號","OBJECTID":208688},"geometry":{"x":171710.13000000082,"y":2542201.7100000009}},{"attributes":{"ID":208690,"DIS_CODE":0,"TOWNNAME":"仁德區","LI":"仁德里","LIN":"32鄰","STREET":"中山路","SECT":" ","MAREA":" ","LANE":"６０６巷","ALLEY":"１弄","HOUSE_NO":"２１號","E_COORD97":173187.42000000001,"N_COORD97":2541427.4900000002,"ADDRESS":"中山路６０６巷１弄２１號","OBJECTID":208689},"geometry":{"x":173187.42000000179,"y":2541427.4900000039}},{"attributes":{"ID":208691,"DIS_CODE":0,"TOWNNAME":"仁德區","LI":"仁德里","LIN":"32鄰","STREET":"中山路","SECT":" ","MAREA":" ","LANE":"６０６巷","ALLEY":"１弄","HOUSE_NO":"１９號","E_COORD97":173186.79999999999,"N_COORD97":2541423.4900000002,"ADDRESS":"中山路６０６巷１弄１９號","OBJECTID":208690},"geometry":{"x":173186.80000000075,"y":2541423.4900000002}},{"attributes":{"ID":208692,"DIS_CODE":0,"TOWNNAME":"永康區","LI":"勝利里","LIN":"32鄰","STREET":"勝利街","SECT":" ","MAREA":" ","LANE":"３０巷","ALLEY":"７弄","HOUSE_NO":"７０號","E_COORD97":171497.26999999999,"N_COORD97":2544513.0899999999,"ADDRESS":"勝利街３０巷７弄７０號","OBJECTID":208691},"geometry":{"x":171497.26999999955,"y":2544513.0900000017}},{"attributes":{"ID":208693,"DIS_CODE":0,"TOWNNAME":"永康區","LI":"勝利里","LIN":"32鄰","STREET":"勝利街","SECT":" ","MAREA":" ","LANE":"３０巷","ALLEY":"７弄","HOUSE_NO":"９２號","E_COORD97":171474.14000000001,"N_COORD97":2544542.0099999998,"ADDRESS":"勝利街３０巷７弄９２號","OBJECTID":208692},"geometry":{"x":171474.1400000006,"y":2544542.0099999998}},{"attributes":{"ID":208694,"DIS_CODE":0,"TOWNNAME":"永康區","LI":"二王里","LIN":"32鄰","STREET":"中山南路","SECT":" ","MAREA":" ","LANE":"５１０巷","ALLEY":"３４弄","HOUSE_NO":"８號","E_COORD97":172154.10000000001,"N_COORD97":2546399.0099999998,"ADDRESS":"中山南路５１０巷３４弄８號","OBJECTID":208693},"geometry":{"x":172154.10000000056,"y":2546399.0099999998}},{"attributes":{"ID":208695,"DIS_CODE":0,"TOWNNAME":"永康區","LI":"二王里","LIN":"32鄰","STREET":"中山南路","SECT":" ","MAREA":" ","LANE":"５１０巷","ALLEY":"３４弄","HOUSE_NO":"９號","E_COORD97":172162.26000000001,"N_COORD97":2546385.71,"ADDRESS":"中山南路５１０巷３４弄９號","OBJECTID":208694},"geometry":{"x":172162.25999999978,"y":2546385.7100000009}},{"attributes":{"ID":208696,"DIS_CODE":0,"TOWNNAME":"永康區","LI":"二王里","LIN":"32鄰","STREET":"中山南路","SECT":" ","MAREA":" ","LANE":"５１０巷","ALLEY":"３４弄","HOUSE_NO":"１號","E_COORD97":172174.35000000001,"N_COORD97":2546405.4700000002,"ADDRESS":"中山南路５１０巷３４弄１號","OBJECTID":208695},"geometry":{"x":172174.35000000056,"y":2546405.4700000044}},{"attributes":{"ID":208697,"DIS_CODE":0,"TOWNNAME":"永康區","LI":"二王里","LIN":"32鄰","STREET":"中山南路","SECT":" ","MAREA":" ","LANE":"５１０巷","ALLEY":"３４弄","HOUSE_NO":"６號","E_COORD97":172157.39000000001,"N_COORD97":2546403.52,"ADDRESS":"中山南路５１０巷３４弄６號","OBJECTID":208696},"geometry":{"x":172157.3900000006,"y":2546403.5199999977}},{"attributes":{"ID":208698,"DIS_CODE":0,"TOWNNAME":"永康區","LI":"二王里","LIN":"32鄰","STREET":"中山南路","SECT":" ","MAREA":" ","LANE":"５１０巷","ALLEY":"４６弄","HOUSE_NO":"１０號","E_COORD97":172192.20999999999,"N_COORD97":2546388.4300000002,"ADDRESS":"中山南路５１０巷４６弄１０號","OBJECTID":208697},"geometry":{"x":172192.21000000183,"y":2546388.4300000016}},{"attributes":{"ID":208699,"DIS_CODE":0,"TOWNNAME":"永康區","LI":"二王里","LIN":"32鄰","STREET":"中山南路","SECT":" ","MAREA":" ","LANE":"５１０巷","ALLEY":"４６弄","HOUSE_NO":"４號","E_COORD97":172194.32000000001,"N_COORD97":2546401.1800000002,"ADDRESS":"中山南路５１０巷４６弄４號","OBJECTID":208698},"geometry":{"x":172194.3200000003,"y":2546401.1799999997}},{"attributes":{"ID":208700,"DIS_CODE":0,"TOWNNAME":"永康區","LI":"二王里","LIN":"32鄰","STREET":"中山南路","SECT":" ","MAREA":" ","LANE":"５１０巷","ALLEY":"４６弄","HOUSE_NO":"１２號","E_COORD97":172190.54999999999,"N_COORD97":2546384.4300000002,"ADDRESS":"中山南路５１０巷４６弄１２號","OBJECTID":208699},"geometry":{"x":172190.54999999981,"y":2546384.4300000016}},{"attributes":{"ID":208701,"DIS_CODE":0,"TOWNNAME":"永康區","LI":"二王里","LIN":"32鄰","STREET":"中山南路","SECT":" ","MAREA":" ","LANE":"５１０巷","ALLEY":"４６弄","HOUSE_NO":"２０號","E_COORD97":172185.12,"N_COORD97":2546368.1800000002,"ADDRESS":"中山南路５１０巷４６弄２０號","OBJECTID":208700},"geometry":{"x":172185.12000000104,"y":2546368.1799999997}},{"attributes":{"ID":208702,"DIS_CODE":0,"TOWNNAME":"永康區","LI":"二王里","LIN":"32鄰","STREET":"中山南路","SECT":" ","MAREA":" ","LANE":"５１０巷","ALLEY":"４６弄","HOUSE_NO":"８號","E_COORD97":172192.60000000001,"N_COORD97":2546392.1800000002,"ADDRESS":"中山南路５１０巷４６弄８號","OBJECTID":208701},"geometry":{"x":172192.60000000149,"y":2546392.1799999997}},{"attributes":{"ID":208703,"DIS_CODE":0,"TOWNNAME":"仁德區","LI":"成功里","LIN":"32鄰","STREET":"成功一街","SECT":" ","MAREA":" ","LANE":"３５巷","ALLEY":"１弄","HOUSE_NO":"６號","E_COORD97":170590.76999999999,"N_COORD97":2540140.2599999998,"ADDRESS":"成功一街３５巷１弄６號","OBJECTID":208702},"geometry":{"x":170590.76999999955,"y":2540140.2600000035}},{"attributes":{"ID":208704,"DIS_CODE":0,"TOWNNAME":"仁德區","LI":"後壁里","LIN":"32鄰","STREET":"德洋路","SECT":" ","MAREA":" ","LANE":"２２７巷","ALLEY":"２弄","HOUSE_NO":"１號","E_COORD97":172521.73999999999,"N_COORD97":2539562.5099999998,"ADDRESS":"德洋路２２７巷２弄１號","OBJECTID":208703},"geometry":{"x":172521.74000000115,"y":2539562.5100000016}},{"attributes":{"ID":208705,"DIS_CODE":0,"TOWNNAME":"仁德區","LI":"成功里","LIN":"32鄰","STREET":"成功一街","SECT":" ","MAREA":" ","LANE":"３５巷","ALLEY":"１弄","HOUSE_NO":"１號","E_COORD97":170567.64999999999,"N_COORD97":2540130.0499999998,"ADDRESS":"成功一街３５巷１弄１號","OBJECTID":208704},"geometry":{"x":170567.6500000013,"y":2540130.0500000026}},{"attributes":{"ID":208706,"DIS_CODE":0,"TOWNNAME":"仁德區","LI":"成功里","LIN":"32鄰","STREET":"成功一街","SECT":" ","MAREA":" ","LANE":"３５巷","ALLEY":"１弄","HOUSE_NO":"３號","E_COORD97":170568.89000000001,"N_COORD97":2540136.2999999998,"ADDRESS":"成功一街３５巷１弄３號","OBJECTID":208705},"geometry":{"x":170568.8900000006,"y":2540136.3000000007}},{"attributes":{"ID":208707,"DIS_CODE":0,"TOWNNAME":"仁德區","LI":"後壁里","LIN":"32鄰","STREET":"德洋路","SECT":" ","MAREA":" ","LANE":"２０５巷","ALLEY":"３０弄","HOUSE_NO":"３號","E_COORD97":172410.98999999999,"N_COORD97":2539533.7599999998,"ADDRESS":"德洋路２０５巷３０弄３號","OBJECTID":208706},"geometry":{"x":172410.99000000209,"y":2539533.7600000016}},{"attributes":{"ID":208708,"DIS_CODE":0,"TOWNNAME":"麻豆區","LI":"中興里","LIN":"9鄰","STREET":"興國路","SECT":" ","MAREA":" ","LANE":" ","ALLEY":" ","HOUSE_NO":"４０號之１０","E_COORD97":172987.12,"N_COORD97":2564473.96,"ADDRESS":"興國路４０號之１０","OBJECTID":208707},"geometry":{"x":172987.12000000011,"y":2564473.9600000028}},{"attributes":{"ID":208709,"DIS_CODE":0,"TOWNNAME":"麻豆區","LI":"中興里","LIN":"9鄰","STREET":"興國路","SECT":" ","MAREA":" ","LANE":" ","ALLEY":" ","HOUSE_NO":"４０號之１２","E_COORD97":172957.63,"N_COORD97":2564456.73,"ADDRESS":"興國路４０號之１２","OBJECTID":208708},"geometry":{"x":172957.63000000082,"y":2564456.7299999986}},{"attributes":{"ID":208710,"DIS_CODE":0,"TOWNNAME":"麻豆區","LI":"總榮里","LIN":"9鄰","STREET":" ","SECT":" ","MAREA":"總爺\u25A0","LANE":" ","ALLEY":" ","HOUSE_NO":"８１號","E_COORD97":175005.51999999999,"N_COORD97":2564517.29,"ADDRESS":"總爺\u25A0８１號","OBJECTID":208709},"geometry":{"x":175005.52000000048,"y":2564517.290000001}},{"attributes":{"ID":208711,"DIS_CODE":0,"TOWNNAME":"永康區","LI":"永康里","LIN":"32鄰","STREET":"永大路","SECT":"二段","MAREA":" ","LANE":"１５２６巷","ALLEY":"２弄","HOUSE_NO":"５號","E_COORD97":174318.51000000001,"N_COORD97":2547272.77,"ADDRESS":"永大路二段１５２６巷２弄５號","OBJECTID":208710},"geometry":{"x":174318.50999999978,"y":2547272.7699999996}},{"attributes":{"ID":208712,"DIS_CODE":0,"TOWNNAME":"東區","LI":"大同里","LIN":"32鄰","STREET":"大同路","SECT":"一段","MAREA":" ","LANE":"１７５巷","ALLEY":"１３２弄","HOUSE_NO":"１１號","E_COORD97":169357.79999999999,"N_COORD97":2542609.48,"ADDRESS":"大同路一段１７５巷１３２弄１１號","OBJECTID":208711},"geometry":{"x":169357.80000000075,"y":2542609.4800000004}},{"attributes":{"ID":208713,"DIS_CODE":0,"TOWNNAME":"東區","LI":"大同里","LIN":"32鄰","STREET":"大同路","SECT":"一段","MAREA":" ","LANE":"１７５巷","ALLEY":"１３２弄","HOUSE_NO":"１３號","E_COORD97":169351.70999999999,"N_COORD97":2542606.1400000001,"ADDRESS":"大同路一段１７５巷１３２弄１３號","OBJECTID":208712},"geometry":{"x":169351.71000000089,"y":2542606.1400000006}},{"attributes":{"ID":208714,"DIS_CODE":0,"TOWNNAME":"東區","LI":"大同里","LIN":"32鄰","STREET":"大同路","SECT":"一段","MAREA":" ","LANE":"１７５巷","ALLEY":"１３２弄","HOUSE_NO":"１５號","E_COORD97":169346.19,"N_COORD97":2542602.3799999999,"ADDRESS":"大同路一段１７５巷１３２弄１５號","OBJECTID":208713},"geometry":{"x":169346.19000000041,"y":2542602.379999999}},{"attributes":{"ID":208715,"DIS_CODE":0,"TOWNNAME":"東區","LI":"大同里","LIN":"32鄰","STREET":"大同路","SECT":"一段","MAREA":" ","LANE":"１７５巷","ALLEY":"１３２弄","HOUSE_NO":"１７號","E_COORD97":169341.26000000001,"N_COORD97":2542598.75,"ADDRESS":"大同路一段１７５巷１３２弄１７號","OBJECTID":208714},"geometry":{"x":169341.25999999978,"y":2542598.7500000037}},{"attributes":{"ID":208716,"DIS_CODE":0,"TOWNNAME":"東區","LI":"大同里","LIN":"32鄰","STREET":"大同路","SECT":"一段","MAREA":" ","LANE":"１７５巷","ALLEY":"１３２弄","HOUSE_NO":"１９號","E_COORD97":169336.19,"N_COORD97":2542597.0099999998,"ADDRESS":"大同路一段１７５巷１３２弄１９號","OBJECTID":208715},"geometry":{"x":169336.19000000041,"y":2542597.0100000016}},{"attributes":{"ID":208717,"DIS_CODE":0,"TOWNNAME":"東區","LI":"大同里","LIN":"32鄰","STREET":"大同路","SECT":"一段","MAREA":" ","LANE":"１７５巷","ALLEY":"１３２弄","HOUSE_NO":"１號","E_COORD97":169386.95000000001,"N_COORD97":2542629.04,"ADDRESS":"大同路一段１７５巷１３２弄１號","OBJECTID":208716},"geometry":{"x":169386.95000000205,"y":2542629.0399999991}},{"attributes":{"ID":208718,"DIS_CODE":0,"TOWNNAME":"麻豆區","LI":"總榮里","LIN":"9鄰","STREET":" ","SECT":" ","MAREA":"總爺\u25A0","LANE":" ","ALLEY":" ","HOUSE_NO":"８２號","E_COORD97":175053.72,"N_COORD97":2564524.6800000002,"ADDRESS":"總爺\u25A0８２號","OBJECTID":208717},"geometry":{"x":175053.72000000067,"y":2564524.6800000016}},{"attributes":{"ID":208719,"DIS_CODE":0,"TOWNNAME":"官田區","LI":"官田里","LIN":"2鄰","STREET":" ","SECT":" ","MAREA":"官田","LANE":" ","ALLEY":" ","HOUSE_NO":"１４號之７","E_COORD97":182751.14000000001,"N_COORD97":2565111.5099999998,"ADDRESS":"官田１４號之７","OBJECTID":208718},"geometry":{"x":182751.13999999966,"y":2565111.5099999998}},{"attributes":{"ID":208720,"DIS_CODE":0,"TOWNNAME":"官田區","LI":"官田里","LIN":"2鄰","STREET":" ","SECT":" ","MAREA":"官田","LANE":" ","ALLEY":" ","HOUSE_NO":"１４號之８","E_COORD97":182752.97,"N_COORD97":2565105.21,"ADDRESS":"官田１４號之８","OBJECTID":208719},"geometry":{"x":182752.9700000016,"y":2565105.2100000046}},{"attributes":{"ID":208721,"DIS_CODE":0,"TOWNNAME":"官田區","LI":"官田里","LIN":"2鄰","STREET":" ","SECT":" ","MAREA":"官田","LANE":" ","ALLEY":" ","HOUSE_NO":"１４號之９","E_COORD97":182754.81,"N_COORD97":2565098.8999999999,"ADDRESS":"官田１４號之９","OBJECTID":208720},"geometry":{"x":182754.80999999959,"y":2565098.9000000004}},{"attributes":{"ID":208722,"DIS_CODE":0,"TOWNNAME":"官田區","LI":"官田里","LIN":"2鄰","STREET":" ","SECT":" ","MAREA":"官田","LANE":" ","ALLEY":" ","HOUSE_NO":"１５號","E_COORD97":182649.57000000001,"N_COORD97":2565246.5099999998,"ADDRESS":"官田１５號","OBJECTID":208721},"geometry":{"x":182649.57000000123,"y":2565246.5099999998}},{"attributes":{"ID":208723,"DIS_CODE":0,"TOWNNAME":"官田區","LI":"官田里","LIN":"2鄰","STREET":" ","SECT":" ","MAREA":"官田","LANE":" ","ALLEY":" ","HOUSE_NO":"１６號之３５","E_COORD97":182651.64999999999,"N_COORD97":2565210.6800000002,"ADDRESS":"官田１６號之３５","OBJECTID":208722},"geometry":{"x":182651.65000000037,"y":2565210.6800000016}},{"attributes":{"ID":208724,"DIS_CODE":0,"TOWNNAME":"官田區","LI":"官田里","LIN":"2鄰","STREET":" ","SECT":" ","MAREA":"官田","LANE":" ","ALLEY":" ","HOUSE_NO":"１６號","E_COORD97":182621.26999999999,"N_COORD97":2565246.8399999999,"ADDRESS":"官田１６號","OBJECTID":208723},"geometry":{"x":182621.26999999955,"y":2565246.8400000017}},{"attributes":{"ID":208725,"DIS_CODE":0,"TOWNNAME":"官田區","LI":"官田里","LIN":"2鄰","STREET":" ","SECT":" ","MAREA":"官田","LANE":" ","ALLEY":" ","HOUSE_NO":"１７號","E_COORD97":182618.45999999999,"N_COORD97":2565265.52,"ADDRESS":"官田１７號","OBJECTID":208724},"geometry":{"x":182618.45999999996,"y":2565265.5200000014}},{"attributes":{"ID":208726,"DIS_CODE":0,"TOWNNAME":"官田區","LI":"官田里","LIN":"2鄰","STREET":" ","SECT":" ","MAREA":"官田","LANE":" ","ALLEY":" ","HOUSE_NO":"２０號","E_COORD97":182603.42000000001,"N_COORD97":2565246.4700000002,"ADDRESS":"官田２０號","OBJECTID":208725},"geometry":{"x":182603.41999999993,"y":2565246.4700000025}},{"attributes":{"ID":208727,"DIS_CODE":0,"TOWNNAME":"官田區","LI":"官田里","LIN":"2鄰","STREET":" ","SECT":" ","MAREA":"官田","LANE":" ","ALLEY":" ","HOUSE_NO":"１８號","E_COORD97":182624.57999999999,"N_COORD97":2565278.6299999999,"ADDRESS":"官田１８號","OBJECTID":208726},"geometry":{"x":182624.58000000007,"y":2565278.629999999}},{"attributes":{"ID":208728,"DIS_CODE":0,"TOWNNAME":"官田區","LI":"官田里","LIN":"2鄰","STREET":" ","SECT":" ","MAREA":"官田","LANE":" ","ALLEY":" ","HOUSE_NO":"１９號","E_COORD97":182606.28,"N_COORD97":2565273.6000000001,"ADDRESS":"官田１９號","OBJECTID":208727},"geometry":{"x":182606.28000000119,"y":2565273.5999999996}},{"attributes":{"ID":208729,"DIS_CODE":0,"TOWNNAME":"官田區","LI":"社子里","LIN":"2鄰","STREET":" ","SECT":" ","MAREA":"社子","LANE":" ","ALLEY":" ","HOUSE_NO":"１０號之８","E_COORD97":184426.66,"N_COORD97":2564534.3199999998,"ADDRESS":"社子１０號之８","OBJECTID":208728},"geometry":{"x":184426.66000000015,"y":2564534.320000004}},{"attributes":{"ID":208730,"DIS_CODE":0,"TOWNNAME":"官田區","LI":"社子里","LIN":"2鄰","STREET":" ","SECT":" ","MAREA":"社子","LANE":" ","ALLEY":" ","HOUSE_NO":"１１號之３","E_COORD97":184459.91,"N_COORD97":2564592.2400000002,"ADDRESS":"社子１１號之３","OBJECTID":208729},"geometry":{"x":184459.91000000108,"y":2564592.2400000039}},{"attributes":{"ID":208731,"DIS_CODE":0,"TOWNNAME":"官田區","LI":"社子里","LIN":"2鄰","STREET":" ","SECT":" ","MAREA":"社子","LANE":" ","ALLEY":" ","HOUSE_NO":"１１號","E_COORD97":184421.45000000001,"N_COORD97":2564597.3500000001,"ADDRESS":"社子１１號","OBJECTID":208730},"geometry":{"x":184421.44999999925,"y":2564597.3499999996}},{"attributes":{"ID":208732,"DIS_CODE":0,"TOWNNAME":"官田區","LI":"社子里","LIN":"2鄰","STREET":" ","SECT":" ","MAREA":"社子","LANE":" ","ALLEY":" ","HOUSE_NO":"１２號","E_COORD97":184394.76999999999,"N_COORD97":2564598.52,"ADDRESS":"社子１２號","OBJECTID":208731},"geometry":{"x":184394.76999999955,"y":2564598.5199999996}},{"attributes":{"ID":208733,"DIS_CODE":0,"TOWNNAME":"官田區","LI":"社子里","LIN":"2鄰","STREET":" ","SECT":" ","MAREA":"社子","LANE":" ","ALLEY":" ","HOUSE_NO":"１４號之１２","E_COORD97":184500.76999999999,"N_COORD97":2564548.1099999999,"ADDRESS":"社子１４號之１２","OBJECTID":208732},"geometry":{"x":184500.77000000048,"y":2564548.1100000031}},{"attributes":{"ID":208734,"DIS_CODE":0,"TOWNNAME":"官田區","LI":"社子里","LIN":"2鄰","STREET":" ","SECT":" ","MAREA":"社子","LANE":" ","ALLEY":" ","HOUSE_NO":"１４號之１３","E_COORD97":184505.67999999999,"N_COORD97":2564543.7000000002,"ADDRESS":"社子１４號之１３","OBJECTID":208733},"geometry":{"x":184505.6799999997,"y":2564543.6999999993}},{"attributes":{"ID":208735,"DIS_CODE":0,"TOWNNAME":"官田區","LI":"社子里","LIN":"2鄰","STREET":" ","SECT":" ","MAREA":"社子","LANE":" ","ALLEY":" ","HOUSE_NO":"１４號之１","E_COORD97":184475.09,"N_COORD97":2564541.9500000002,"ADDRESS":"社子１４號之１","OBJECTID":208734},"geometry":{"x":184475.09000000078,"y":2564541.9499999993}},{"attributes":{"ID":208736,"DIS_CODE":0,"TOWNNAME":"官田區","LI":"社子里","LIN":"2鄰","STREET":" ","SECT":" ","MAREA":"社子","LANE":" ","ALLEY":" ","HOUSE_NO":"１４號之２０","E_COORD97":184571.39999999999,"N_COORD97":2564532.3100000001,"ADDRESS":"社子１４號之２０","OBJECTID":208735},"geometry":{"x":184571.4000000013,"y":2564532.3100000024}},{"attributes":{"ID":208737,"DIS_CODE":0,"TOWNNAME":"官田區","LI":"社子里","LIN":"2鄰","STREET":" ","SECT":" ","MAREA":"社子","LANE":" ","ALLEY":" ","HOUSE_NO":"１４號之２","E_COORD97":184486.85999999999,"N_COORD97":2564546.0699999998,"ADDRESS":"社子１４號之２","OBJECTID":208736},"geometry":{"x":184486.8600000022,"y":2564546.070000004}},{"attributes":{"ID":208738,"DIS_CODE":0,"TOWNNAME":"官田區","LI":"社子里","LIN":"2鄰","STREET":" ","SECT":" ","MAREA":"社子","LANE":" ","ALLEY":" ","HOUSE_NO":"１４號之３","E_COORD97":184482.10000000001,"N_COORD97":2564568.9500000002,"ADDRESS":"社子１４號之３","OBJECTID":208737},"geometry":{"x":184482.09999999963,"y":2564568.9499999993}},{"attributes":{"ID":208739,"DIS_CODE":0,"TOWNNAME":"官田區","LI":"社子里","LIN":"2鄰","STREET":" ","SECT":" ","MAREA":"社子","LANE":" ","ALLEY":" ","HOUSE_NO":"１４號之５","E_COORD97":184577.32000000001,"N_COORD97":2564577.6000000001,"ADDRESS":"社子１４號之５","OBJECTID":208738},"geometry":{"x":184577.32000000123,"y":2564577.5999999996}},{"attributes":{"ID":208740,"DIS_CODE":0,"TOWNNAME":"官田區","LI":"社子里","LIN":"2鄰","STREET":" ","SECT":" ","MAREA":"社子","LANE":" ","ALLEY":" ","HOUSE_NO":"１４號之７","E_COORD97":184529.10999999999,"N_COORD97":2564577.77,"ADDRESS":"社子１４號之７","OBJECTID":208739},"geometry":{"x":184529.1100000022,"y":2564577.7700000033}},{"attributes":{"ID":208741,"DIS_CODE":0,"TOWNNAME":"官田區","LI":"社子里","LIN":"2鄰","STREET":" ","SECT":" ","MAREA":"社子","LANE":" ","ALLEY":" ","HOUSE_NO":"１４號之８","E_COORD97":184522.39000000001,"N_COORD97":2564572.0600000001,"ADDRESS":"社子１４號之８","OBJECTID":208740},"geometry":{"x":184522.38999999966,"y":2564572.0600000005}},{"attributes":{"ID":208742,"DIS_CODE":0,"TOWNNAME":"白河區","LI":"外角里","LIN":"5鄰","STREET":" ","SECT":" ","MAREA":" ","LANE":"三民西巷","ALLEY":" ","HOUSE_NO":"７號","E_COORD97":190493.32999999999,"N_COORD97":2583201.8900000001,"ADDRESS":"三民西巷７號","OBJECTID":208741},"geometry":{"x":190493.33000000101,"y":2583201.8900000025}},{"attributes":{"ID":208743,"DIS_CODE":0,"TOWNNAME":"安定區","LI":"新吉里","LIN":"9鄰","STREET":" ","SECT":" ","MAREA":"新吉","LANE":" ","ALLEY":" ","HOUSE_NO":"７３之１９號","E_COORD97":169225.01999999999,"N_COORD97":2554063.2999999998,"ADDRESS":"新吉７３之１９號","OBJECTID":208742},"geometry":{"x":169225.02000000048,"y":2554063.3000000026}},{"attributes":{"ID":208744,"DIS_CODE":0,"TOWNNAME":"安定區","LI":"新吉里","LIN":"9鄰","STREET":" ","SECT":" ","MAREA":"新吉","LANE":" ","ALLEY":" ","HOUSE_NO":"７３之２５號","E_COORD97":169196.32000000001,"N_COORD97":2554043.2999999998,"ADDRESS":"新吉７３之２５號","OBJECTID":208743},"geometry":{"x":169196.32000000216,"y":2554043.3000000007}},{"attributes":{"ID":208745,"DIS_CODE":0,"TOWNNAME":"安定區","LI":"港南里","LIN":"9鄰","STREET":" ","SECT":" ","MAREA":"港口","LANE":" ","ALLEY":" ","HOUSE_NO":"６５號","E_COORD97":171445.23999999999,"N_COORD97":2554359.25,"ADDRESS":"港口６５號","OBJECTID":208744},"geometry":{"x":171445.24000000115,"y":2554359.25}},{"attributes":{"ID":208746,"DIS_CODE":0,"TOWNNAME":"安定區","LI":"港南里","LIN":"9鄰","STREET":" ","SECT":" ","MAREA":"港口","LANE":" ","ALLEY":" ","HOUSE_NO":"６７之３號","E_COORD97":171409.94,"N_COORD97":2554350.2999999998,"ADDRESS":"港口６７之３號","OBJECTID":208745},"geometry":{"x":171409.94000000134,"y":2554350.3000000045}},{"attributes":{"ID":208747,"DIS_CODE":0,"TOWNNAME":"安定區","LI":"新吉里","LIN":"9鄰","STREET":" ","SECT":" ","MAREA":"新吉","LANE":" ","ALLEY":" ","HOUSE_NO":"７３之１２號","E_COORD97":169188.07000000001,"N_COORD97":2554063.6899999999,"ADDRESS":"新吉７３之１２號","OBJECTID":208746},"geometry":{"x":169188.07000000123,"y":2554063.6899999995}},{"attributes":{"ID":208748,"DIS_CODE":0,"TOWNNAME":"安定區","LI":"新吉里","LIN":"9鄰","STREET":" ","SECT":" ","MAREA":"新吉","LANE":" ","ALLEY":" ","HOUSE_NO":"７８號之５","E_COORD97":169247.85999999999,"N_COORD97":2554061.2999999998,"ADDRESS":"新吉７８號之５","OBJECTID":208747},"geometry":{"x":169247.86000000034,"y":2554061.3000000007}},{"attributes":{"ID":208749,"DIS_CODE":0,"TOWNNAME":"安定區","LI":"安加里","LIN":"9鄰","STREET":" ","SECT":" ","MAREA":"安定","LANE":" ","ALLEY":" ","HOUSE_NO":"２５４號","E_COORD97":171792.12,"N_COORD97":2557326.3199999998,"ADDRESS":"安定２５４號","OBJECTID":208748},"geometry":{"x":171792.12000000011,"y":2557326.320000004}},{"attributes":{"ID":208750,"DIS_CODE":0,"TOWNNAME":"安定區","LI":"安加里","LIN":"9鄰","STREET":" ","SECT":" ","MAREA":"安定","LANE":" ","ALLEY":" ","HOUSE_NO":"２５６號之５","E_COORD97":171747.01000000001,"N_COORD97":2557277.3199999998,"ADDRESS":"安定２５６號之５","OBJECTID":208749},"geometry":{"x":171747.00999999978,"y":2557277.3200000003}},{"attributes":{"ID":208751,"DIS_CODE":0,"TOWNNAME":"安定區","LI":"新吉里","LIN":"9鄰","STREET":" ","SECT":" ","MAREA":"新吉","LANE":" ","ALLEY":" ","HOUSE_NO":"７３之２３號","E_COORD97":169217.12,"N_COORD97":2554043.2999999998,"ADDRESS":"新吉７３之２３號","OBJECTID":208750},"geometry":{"x":169217.12000000011,"y":2554043.3000000007}},{"attributes":{"ID":208752,"DIS_CODE":0,"TOWNNAME":"安定區","LI":"安加里","LIN":"9鄰","STREET":" ","SECT":" ","MAREA":"安定","LANE":" ","ALLEY":" ","HOUSE_NO":"２５６之１３號","E_COORD97":171783.37,"N_COORD97":2557271.3199999998,"ADDRESS":"安定２５６之１３號","OBJECTID":208751},"geometry":{"x":171783.37000000104,"y":2557271.3200000003}},{"attributes":{"ID":208753,"DIS_CODE":0,"TOWNNAME":"安定區","LI":"港口里","LIN":"9鄰","STREET":" ","SECT":" ","MAREA":"港口","LANE":" ","ALLEY":" ","HOUSE_NO":"２９７號","E_COORD97":171388.39000000001,"N_COORD97":2554713.25,"ADDRESS":"港口２９７號","OBJECTID":208752},"geometry":{"x":171388.38999999966,"y":2554713.2500000019}},{"attributes":{"ID":208754,"DIS_CODE":0,"TOWNNAME":"安定區","LI":"蘇厝里","LIN":"9鄰","STREET":" ","SECT":" ","MAREA":"蘇厝","LANE":" ","ALLEY":" ","HOUSE_NO":"３５８號之３","E_COORD97":172939.72,"N_COORD97":2558831.2999999998,"ADDRESS":"蘇厝３５８之３號","OBJECTID":208753},"geometry":{"x":172939.72000000067,"y":2558831.3000000007}},{"attributes":{"ID":208755,"DIS_CODE":0,"TOWNNAME":"安定區","LI":"安定里","LIN":"9鄰","STREET":" ","SECT":" ","MAREA":"安定","LANE":" ","ALLEY":" ","HOUSE_NO":"８５號之５","E_COORD97":171936.84148100001,"N_COORD97":2557813.4173099999,"ADDRESS":"安定８５號之５","OBJECTID":208754},"geometry":{"x":171936.84148100019,"y":2557813.4173060041}},{"attributes":{"ID":208756,"DIS_CODE":0,"TOWNNAME":"佳里區","LI":"忠仁里","LIN":"9鄰","STREET":" ","SECT":" ","MAREA":"忠仁","LANE":" ","ALLEY":" ","HOUSE_NO":"６０號","E_COORD97":165925.13,"N_COORD97":2562180.6800000002,"ADDRESS":"忠仁６０號","OBJECTID":208755},"geometry":{"x":165925.12999999989,"y":2562180.6799999997}},{"attributes":{"ID":208757,"DIS_CODE":0,"TOWNNAME":"官田區","LI":"社子里","LIN":"2鄰","STREET":" ","SECT":" ","MAREA":"社子","LANE":" ","ALLEY":" ","HOUSE_NO":"１號之１０","E_COORD97":184017.23999999999,"N_COORD97":2564700,"ADDRESS":"社子１號之１０","OBJECTID":208756},"geometry":{"x":184017.24000000022,"y":2564700.0000000019}},{"attributes":{"ID":208758,"DIS_CODE":0,"TOWNNAME":"官田區","LI":"社子里","LIN":"2鄰","STREET":" ","SECT":" ","MAREA":"社子","LANE":" ","ALLEY":" ","HOUSE_NO":"１號之１１","E_COORD97":184161.22,"N_COORD97":2564624.52,"ADDRESS":"社子１號之１１","OBJECTID":208757},"geometry":{"x":184161.21999999974,"y":2564624.5200000014}},{"attributes":{"ID":208759,"DIS_CODE":0,"TOWNNAME":"官田區","LI":"社子里","LIN":"2鄰","STREET":" ","SECT":" ","MAREA":"社子","LANE":" ","ALLEY":" ","HOUSE_NO":"１號之１５","E_COORD97":184235.95999999999,"N_COORD97":2564559.7999999998,"ADDRESS":"社子１號之１５","OBJECTID":208758},"geometry":{"x":184235.95999999996,"y":2564559.8000000026}},{"attributes":{"ID":208760,"DIS_CODE":0,"TOWNNAME":"官田區","LI":"社子里","LIN":"2鄰","STREET":" ","SECT":" ","MAREA":"社子","LANE":" ","ALLEY":" ","HOUSE_NO":"１號之１７","E_COORD97":184216.25,"N_COORD97":2564557.5899999999,"ADDRESS":"社子１號之１７","OBJECTID":208759},"geometry":{"x":184216.25000000093,"y":2564557.5899999999}},{"attributes":{"ID":208761,"DIS_CODE":0,"TOWNNAME":"官田區","LI":"社子里","LIN":"2鄰","STREET":" ","SECT":" ","MAREA":"社子","LANE":" ","ALLEY":" ","HOUSE_NO":"１號之２３","E_COORD97":184187.01999999999,"N_COORD97":2564554.5600000001,"ADDRESS":"社子１號之２３","OBJECTID":208760},"geometry":{"x":184187.02000000048,"y":2564554.5600000024}},{"attributes":{"ID":208762,"DIS_CODE":0,"TOWNNAME":"官田區","LI":"社子里","LIN":"2鄰","STREET":" ","SECT":" ","MAREA":"社子","LANE":" ","ALLEY":" ","HOUSE_NO":"１號之２７","E_COORD97":183896.29000000001,"N_COORD97":2564532.9100000001,"ADDRESS":"社子１號之２７","OBJECTID":208761},"geometry":{"x":183896.29000000004,"y":2564532.9100000001}},{"attributes":{"ID":208763,"DIS_CODE":0,"TOWNNAME":"官田區","LI":"社子里","LIN":"2鄰","STREET":" ","SECT":" ","MAREA":"社子","LANE":" ","ALLEY":" ","HOUSE_NO":"１號之２","E_COORD97":183940.14999999999,"N_COORD97":2564759.2599999998,"ADDRESS":"社子１號之２","OBJECTID":208762},"geometry":{"x":183940.15000000037,"y":2564759.2600000016}},{"attributes":{"ID":208764,"DIS_CODE":0,"TOWNNAME":"官田區","LI":"社子里","LIN":"2鄰","STREET":" ","SECT":" ","MAREA":"社子","LANE":" ","ALLEY":" ","HOUSE_NO":"１號之３０","E_COORD97":184016.26000000001,"N_COORD97":2564558.5099999998,"ADDRESS":"社子１號之３０","OBJECTID":208763},"geometry":{"x":184016.26000000071,"y":2564558.5099999998}},{"attributes":{"ID":208765,"DIS_CODE":0,"TOWNNAME":"佳里區","LI":"忠仁里","LIN":"9鄰","STREET":" ","SECT":" ","MAREA":"忠仁","LANE":" ","ALLEY":" ","HOUSE_NO":"５５號之１１","E_COORD97":165991.47,"N_COORD97":2562152.7599999998,"ADDRESS":"忠仁５５號之１１","OBJECTID":208764},"geometry":{"x":165991.47000000067,"y":2562152.7599999998}},{"attributes":{"ID":208766,"DIS_CODE":0,"TOWNNAME":"佳里區","LI":"忠仁里","LIN":"9鄰","STREET":" ","SECT":" ","MAREA":"忠仁","LANE":" ","ALLEY":" ","HOUSE_NO":"５５號之１２","E_COORD97":165991.79999999999,"N_COORD97":2562147.4500000002,"ADDRESS":"忠仁５５號之１２","OBJECTID":208765},"geometry":{"x":165991.79999999981,"y":2562147.4499999993}},{"attributes":{"ID":208767,"DIS_CODE":0,"TOWNNAME":"佳里區","LI":"忠仁里","LIN":"9鄰","STREET":" ","SECT":" ","MAREA":"忠仁","LANE":" ","ALLEY":" ","HOUSE_NO":"５５號之８","E_COORD97":165989.07999999999,"N_COORD97":2562168.3199999998,"ADDRESS":"忠仁５５號之８","OBJECTID":208766},"geometry":{"x":165989.08000000101,"y":2562168.3200000022}},{"attributes":{"ID":208768,"DIS_CODE":0,"TOWNNAME":"佳里區","LI":"忠仁里","LIN":"9鄰","STREET":" ","SECT":" ","MAREA":"忠仁","LANE":" ","ALLEY":" ","HOUSE_NO":"５５號之９","E_COORD97":165989.64000000001,"N_COORD97":2562163.8300000001,"ADDRESS":"忠仁５５號之９","OBJECTID":208767},"geometry":{"x":165989.64000000153,"y":2562163.8299999982}},{"attributes":{"ID":208769,"DIS_CODE":0,"TOWNNAME":"佳里區","LI":"三協里","LIN":"9鄰","STREET":" ","SECT":" ","MAREA":"後庄","LANE":" ","ALLEY":" ","HOUSE_NO":"１０號之１０","E_COORD97":168350.59,"N_COORD97":2564669.3900000001,"ADDRESS":"後庄１０號之１０","OBJECTID":208768},"geometry":{"x":168350.59000000078,"y":2564669.3899999987}},{"attributes":{"ID":208770,"DIS_CODE":0,"TOWNNAME":"佳里區","LI":"三協里","LIN":"9鄰","STREET":" ","SECT":" ","MAREA":"後庄","LANE":" ","ALLEY":" ","HOUSE_NO":"１０號之１１","E_COORD97":168351.14000000001,"N_COORD97":2564673.1899999999,"ADDRESS":"後庄１０號之１１","OBJECTID":208769},"geometry":{"x":168351.14000000153,"y":2564673.1900000032}},{"attributes":{"ID":208771,"DIS_CODE":0,"TOWNNAME":"佳里區","LI":"三協里","LIN":"9鄰","STREET":" ","SECT":" ","MAREA":"後庄","LANE":" ","ALLEY":" ","HOUSE_NO":"１０號之１２","E_COORD97":168351.62,"N_COORD97":2564677.3599999999,"ADDRESS":"後庄１０號之１２","OBJECTID":208770},"geometry":{"x":168351.62000000197,"y":2564677.3599999994}},{"attributes":{"ID":208772,"DIS_CODE":0,"TOWNNAME":"佳里區","LI":"三協里","LIN":"9鄰","STREET":" ","SECT":" ","MAREA":"後庄","LANE":" ","ALLEY":" ","HOUSE_NO":"１０號之１３","E_COORD97":168352.73000000001,"N_COORD97":2564682.4300000002,"ADDRESS":"後庄１０號之１３","OBJECTID":208771},"geometry":{"x":168352.73000000045,"y":2564682.4300000016}},{"attributes":{"ID":208773,"DIS_CODE":0,"TOWNNAME":"佳里區","LI":"三協里","LIN":"9鄰","STREET":" ","SECT":" ","MAREA":"後庄","LANE":" ","ALLEY":" ","HOUSE_NO":"１０號之１４","E_COORD97":168324.66,"N_COORD97":2564638.0099999998,"ADDRESS":"後庄１０號之１４","OBJECTID":208772},"geometry":{"x":168324.66000000108,"y":2564638.0100000016}},{"attributes":{"ID":208774,"DIS_CODE":0,"TOWNNAME":"佳里區","LI":"三協里","LIN":"9鄰","STREET":" ","SECT":" ","MAREA":"後庄","LANE":" ","ALLEY":" ","HOUSE_NO":"１０號之１５","E_COORD97":168325.95999999999,"N_COORD97":2564644.9399999999,"ADDRESS":"後庄１０號之１５","OBJECTID":208773},"geometry":{"x":168325.96000000089,"y":2564644.9400000013}},{"attributes":{"ID":208775,"DIS_CODE":0,"TOWNNAME":"佳里區","LI":"三協里","LIN":"9鄰","STREET":" ","SECT":" ","MAREA":"後庄","LANE":" ","ALLEY":" ","HOUSE_NO":"１０號之１６","E_COORD97":168326.85999999999,"N_COORD97":2564651.3500000001,"ADDRESS":"後庄１０號之１６","OBJECTID":208774},"geometry":{"x":168326.86000000127,"y":2564651.3499999996}},{"attributes":{"ID":208776,"DIS_CODE":0,"TOWNNAME":"佳里區","LI":"三協里","LIN":"9鄰","STREET":" ","SECT":" ","MAREA":"後庄","LANE":" ","ALLEY":" ","HOUSE_NO":"１０號之１７","E_COORD97":168327.54000000001,"N_COORD97":2564657.9500000002,"ADDRESS":"後庄１０號之１７","OBJECTID":208775},"geometry":{"x":168327.54000000004,"y":2564657.9500000011}},{"attributes":{"ID":208777,"DIS_CODE":0,"TOWNNAME":"佳里區","LI":"三協里","LIN":"9鄰","STREET":" ","SECT":" ","MAREA":"後庄","LANE":" ","ALLEY":" ","HOUSE_NO":"１０號之１８","E_COORD97":168328.73999999999,"N_COORD97":2564664.2999999998,"ADDRESS":"後庄１０號之１８","OBJECTID":208776},"geometry":{"x":168328.74000000022,"y":2564664.3000000026}},{"attributes":{"ID":208778,"DIS_CODE":0,"TOWNNAME":"佳里區","LI":"三協里","LIN":"9鄰","STREET":" ","SECT":" ","MAREA":"後庄","LANE":" ","ALLEY":" ","HOUSE_NO":"１０號之１９","E_COORD97":168329.38,"N_COORD97":2564670.71,"ADDRESS":"後庄１０號之１９","OBJECTID":208777},"geometry":{"x":168329.38000000175,"y":2564670.7100000009}},{"attributes":{"ID":208779,"DIS_CODE":0,"TOWNNAME":"東區","LI":"大同里","LIN":"32鄰","STREET":"大同路","SECT":"一段","MAREA":" ","LANE":"１７５巷","ALLEY":"１３２弄","HOUSE_NO":"２１號","E_COORD97":169330.95999999999,"N_COORD97":2542594.98,"ADDRESS":"大同路一段１７５巷１３２弄２１號","OBJECTID":208778},"geometry":{"x":169330.96000000089,"y":2542594.9800000023}},{"attributes":{"ID":208780,"DIS_CODE":0,"TOWNNAME":"東區","LI":"大同里","LIN":"32鄰","STREET":"大同路","SECT":"一段","MAREA":" ","LANE":"１７５巷","ALLEY":"１３２弄","HOUSE_NO":"２３號","E_COORD97":169329.17999999999,"N_COORD97":2542590.8599999999,"ADDRESS":"大同路一段１７５巷１３２弄２３號","OBJECTID":208779},"geometry":{"x":169329.18000000063,"y":2542590.8600000013}},{"attributes":{"ID":208781,"DIS_CODE":0,"TOWNNAME":"東區","LI":"大同里","LIN":"32鄰","STREET":"大同路","SECT":"一段","MAREA":" ","LANE":"１７５巷","ALLEY":"１３２弄","HOUSE_NO":"２５號","E_COORD97":169325.35999999999,"N_COORD97":2542588.6200000001,"ADDRESS":"大同路一段１７５巷１３２弄２５號","OBJECTID":208780},"geometry":{"x":169325.36000000127,"y":2542588.6200000029}},{"attributes":{"ID":208782,"DIS_CODE":0,"TOWNNAME":"東區","LI":"大同里","LIN":"32鄰","STREET":"大同路","SECT":"一段","MAREA":" ","LANE":"１７５巷","ALLEY":"１３２弄","HOUSE_NO":"２７號","E_COORD97":169321.88,"N_COORD97":2542586.4900000002,"ADDRESS":"大同路一段１７５巷１３２弄２７號","OBJECTID":208781},"geometry":{"x":169321.87999999989,"y":2542586.4900000002}},{"attributes":{"ID":208783,"DIS_CODE":0,"TOWNNAME":"新市區","LI":"豐華里","LIN":"9鄰","STREET":"南科三路","SECT":" ","MAREA":" ","LANE":" ","ALLEY":" ","HOUSE_NO":"３號","E_COORD97":176730.60000000001,"N_COORD97":2555383.75,"ADDRESS":"南科三路３號","OBJECTID":208782},"geometry":{"x":176730.60000000149,"y":2555383.7500000037}},{"attributes":{"ID":208784,"DIS_CODE":0,"TOWNNAME":"新化區","LI":"太平里","LIN":"4鄰","STREET":"中正路","SECT":" ","MAREA":" ","LANE":" ","ALLEY":" ","HOUSE_NO":"５４６號之２","E_COORD97":178938.95999999999,"N_COORD97":2548915.2599999998,"ADDRESS":"中正路５４６號之２","OBJECTID":208783},"geometry":{"x":178938.96000000183,"y":2548915.2600000016}},{"attributes":{"ID":208785,"DIS_CODE":0,"TOWNNAME":"東區","LI":"大同里","LIN":"32鄰","STREET":"大同路","SECT":"一段","MAREA":" ","LANE":"１７５巷","ALLEY":"１３２弄","HOUSE_NO":"２９號","E_COORD97":169317.39000000001,"N_COORD97":2542584.3599999999,"ADDRESS":"大同路一段１７５巷１３２弄２９號","OBJECTID":208784},"geometry":{"x":169317.39000000153,"y":2542584.3600000013}},{"attributes":{"ID":208786,"DIS_CODE":0,"TOWNNAME":"東區","LI":"大同里","LIN":"32鄰","STREET":"大同路","SECT":"一段","MAREA":" ","LANE":"１７５巷","ALLEY":"１３２弄","HOUSE_NO":"３１號","E_COORD97":169314.81,"N_COORD97":2542582.3399999999,"ADDRESS":"大同路一段１７５巷１３２弄３１號","OBJECTID":208785},"geometry":{"x":169314.81000000052,"y":2542582.3400000017}},{"attributes":{"ID":208787,"DIS_CODE":0,"TOWNNAME":"東區","LI":"大同里","LIN":"32鄰","STREET":"大同路","SECT":"一段","MAREA":" ","LANE":"１７５巷","ALLEY":"１３２弄","HOUSE_NO":"３號","E_COORD97":169381.14999999999,"N_COORD97":2542625.71,"ADDRESS":"大同路一段１７５巷１３２弄３號","OBJECTID":208786},"geometry":{"x":169381.1500000013,"y":2542625.7100000009}},{"attributes":{"ID":208788,"DIS_CODE":0,"TOWNNAME":"東區","LI":"大同里","LIN":"32鄰","STREET":"大同路","SECT":"一段","MAREA":" ","LANE":"１７５巷","ALLEY":"１３２弄","HOUSE_NO":"５號","E_COORD97":169376.94,"N_COORD97":2542621.21,"ADDRESS":"大同路一段１７５巷１３２弄５號","OBJECTID":208787},"geometry":{"x":169376.93999999948,"y":2542621.2100000028}},{"attributes":{"ID":208789,"DIS_CODE":0,"TOWNNAME":"東區","LI":"大同里","LIN":"32鄰","STREET":"大同路","SECT":"一段","MAREA":" ","LANE":"１７５巷","ALLEY":"１３２弄","HOUSE_NO":"７號","E_COORD97":169371.14000000001,"N_COORD97":2542618.46,"ADDRESS":"大同路一段１７５巷１３２弄７號","OBJECTID":208788},"geometry":{"x":169371.13999999966,"y":2542618.4600000046}},{"attributes":{"ID":208790,"DIS_CODE":0,"TOWNNAME":"東區","LI":"大同里","LIN":"32鄰","STREET":"大同路","SECT":"一段","MAREA":" ","LANE":"１７５巷","ALLEY":"１３２弄","HOUSE_NO":"９號","E_COORD97":169365.76999999999,"N_COORD97":2542613.9700000002,"ADDRESS":"大同路一段１７５巷１３２弄９號","OBJECTID":208789},"geometry":{"x":169365.77000000048,"y":2542613.9700000007}},{"attributes":{"ID":208791,"DIS_CODE":0,"TOWNNAME":"東區","LI":"大同里","LIN":"32鄰","STREET":"大同路","SECT":"一段","MAREA":" ","LANE":"１７５巷","ALLEY":"１３４弄","HOUSE_NO":"１０號","E_COORD97":169342.98000000001,"N_COORD97":2542588.1699999999,"ADDRESS":"大同路一段１７５巷１３４弄１０號","OBJECTID":208790},"geometry":{"x":169342.98000000231,"y":2542588.1699999999}},{"attributes":{"ID":208792,"DIS_CODE":0,"TOWNNAME":"東區","LI":"大同里","LIN":"32鄰","STREET":"大同路","SECT":"一段","MAREA":" ","LANE":"１７５巷","ALLEY":"１３４弄","HOUSE_NO":"１１號","E_COORD97":169337.70999999999,"N_COORD97":2542585.3700000001,"ADDRESS":"大同路一段１７５巷１３４弄１１號","OBJECTID":208791},"geometry":{"x":169337.71000000089,"y":2542585.3700000048}},{"attributes":{"ID":208793,"DIS_CODE":0,"TOWNNAME":"東區","LI":"大同里","LIN":"32鄰","STREET":"大同路","SECT":"一段","MAREA":" ","LANE":"１７５巷","ALLEY":"１３４弄","HOUSE_NO":"１２號","E_COORD97":169334.34,"N_COORD97":2542582,"ADDRESS":"大同路一段１７５巷１３４弄１２號","OBJECTID":208792},"geometry":{"x":169334.33999999985,"y":2542582}},{"attributes":{"ID":208794,"DIS_CODE":0,"TOWNNAME":"東區","LI":"大同里","LIN":"32鄰","STREET":"大同路","SECT":"一段","MAREA":" ","LANE":"１７５巷","ALLEY":"１３４弄","HOUSE_NO":"１３號","E_COORD97":169330.85999999999,"N_COORD97":2542579.0899999999,"ADDRESS":"大同路一段１７５巷１３４弄１３號","OBJECTID":208793},"geometry":{"x":169330.86000000127,"y":2542579.0900000036}},{"attributes":{"ID":208795,"DIS_CODE":0,"TOWNNAME":"東區","LI":"大同里","LIN":"32鄰","STREET":"大同路","SECT":"一段","MAREA":" ","LANE":"１７５巷","ALLEY":"１３４弄","HOUSE_NO":"１４號","E_COORD97":169327.48999999999,"N_COORD97":2542576.8399999999,"ADDRESS":"大同路一段１７５巷１３４弄１４號","OBJECTID":208794},"geometry":{"x":169327.49000000115,"y":2542576.8399999999}},{"attributes":{"ID":208796,"DIS_CODE":0,"TOWNNAME":"東區","LI":"大同里","LIN":"32鄰","STREET":"大同路","SECT":"一段","MAREA":" ","LANE":"１７５巷","ALLEY":"１３４弄","HOUSE_NO":"１５號","E_COORD97":169323.34,"N_COORD97":2542574.71,"ADDRESS":"大同路一段１７５巷１３４弄１５號","OBJECTID":208795},"geometry":{"x":169323.34000000078,"y":2542574.7100000009}},{"attributes":{"ID":208797,"DIS_CODE":0,"TOWNNAME":"東區","LI":"大同里","LIN":"32鄰","STREET":"大同路","SECT":"一段","MAREA":" ","LANE":"１７５巷","ALLEY":"１３４弄","HOUSE_NO":"１６號","E_COORD97":169319.51999999999,"N_COORD97":2542572.25,"ADDRESS":"大同路一段１７５巷１３４弄１６號","OBJECTID":208796},"geometry":{"x":169319.51999999862,"y":2542572.2500000019}},{"attributes":{"ID":208798,"DIS_CODE":0,"TOWNNAME":"東區","LI":"大同里","LIN":"32鄰","STREET":"大同路","SECT":"一段","MAREA":" ","LANE":"１７５巷","ALLEY":"１３４弄","HOUSE_NO":"１９號","E_COORD97":169324.79999999999,"N_COORD97":2542563.0499999998,"ADDRESS":"大同路一段１７５巷１３４弄１９號","OBJECTID":208797},"geometry":{"x":169324.80000000168,"y":2542563.0500000007}},{"attributes":{"ID":208799,"DIS_CODE":0,"TOWNNAME":"東區","LI":"大同里","LIN":"32鄰","STREET":"大同路","SECT":"一段","MAREA":" ","LANE":"１７５巷","ALLEY":"１３４弄","HOUSE_NO":"１號","E_COORD97":169392.60999999999,"N_COORD97":2542619.6200000001,"ADDRESS":"大同路一段１７５巷１３４弄１號","OBJECTID":208798},"geometry":{"x":169392.61000000034,"y":2542619.620000001}},{"attributes":{"ID":208800,"DIS_CODE":0,"TOWNNAME":"東區","LI":"大同里","LIN":"32鄰","STREET":"大同路","SECT":"一段","MAREA":" ","LANE":"１７５巷","ALLEY":"１３４弄","HOUSE_NO":"２號","E_COORD97":169387.23999999999,"N_COORD97":2542615.8500000001,"ADDRESS":"大同路一段１７５巷１３４弄２號","OBJECTID":208799},"geometry":{"x":169387.24000000115,"y":2542615.8500000015}},{"attributes":{"ID":208801,"DIS_CODE":0,"TOWNNAME":"新化區","LI":"東榮里","LIN":"4鄰","STREET":"信義路","SECT":" ","MAREA":" ","LANE":" ","ALLEY":" ","HOUSE_NO":"５１號之３","E_COORD97":180340.73000000001,"N_COORD97":2548555.2599999998,"ADDRESS":"信義路５１號之３","OBJECTID":208800},"geometry":{"x":180340.73000000045,"y":2548555.2600000035}}]}