{"displayFieldName":"TOWNNAME","fieldAliases":{"ID":"ID","DIS_CODE":"DIS_CODE","TOWNNAME":"TOWNNAME","LI":"LI","LIN":"LIN","STREET":"STREET","SECT":"SECT","MAREA":"MAREA","LANE":"LANE","ALLEY":"ALLEY","HOUSE_NO":"HOUSE_NO","E_COORD97":"E_COORD97","N_COORD97":"N_COORD97","ADDRESS":"ADDRESS","OBJECTID":"OBJECTID"},"geometryType":"esriGeometryPoint","spatialReference":{"wkid":102443,"latestWkid":3826},"fields":[{"name":"ID","type":"esriFieldTypeDouble","alias":"ID"},{"name":"DIS_CODE","type":"esriFieldTypeInteger","alias":"DIS_CODE"},{"name":"TOWNNAME","type":"esriFieldTypeString","alias":"TOWNNAME","length":8},{"name":"LI","type":"esriFieldTypeString","alias":"LI","length":8},{"name":"LIN","type":"esriFieldTypeString","alias":"LIN","length":12},{"name":"STREET","type":"esriFieldTypeString","alias":"STREET","length":20},{"name":"SECT","type":"esriFieldTypeString","alias":"SECT","length":8},{"name":"MAREA","type":"esriFieldTypeString","alias":"MAREA","length":12},{"name":"LANE","type":"esriFieldTypeString","alias":"LANE","length":10},{"name":"ALLEY","type":"esriFieldTypeString","alias":"ALLEY","length":10},{"name":"HOUSE_NO","type":"esriFieldTypeString","alias":"HOUSE_NO","length":20},{"name":"E_COORD97","type":"esriFieldTypeDouble","alias":"E_COORD97"},{"name":"N_COORD97","type":"esriFieldTypeDouble","alias":"N_COORD97"},{"name":"ADDRESS","type":"esriFieldTypeString","alias":"ADDRESS","length":50},{"name":"OBJECTID","type":"esriFieldTypeOID","alias":"OBJECTID"}],"features":[{"attributes":{"ID":218002,"DIS_CODE":0,"TOWNNAME":"官田區","LI":"官田里","LIN":"27鄰","STREET":" ","SECT":" ","MAREA":"中\u25A0","LANE":" ","ALLEY":" ","HOUSE_NO":"７號","E_COORD97":183403.09,"N_COORD97":2566442.1400000001,"ADDRESS":"中\u25A0７號","OBJECTID":218001},"geometry":{"x":183403.09000000171,"y":2566442.1400000025}},{"attributes":{"ID":218003,"DIS_CODE":0,"TOWNNAME":"官田區","LI":"官田里","LIN":"27鄰","STREET":" ","SECT":" ","MAREA":"中\u25A0","LANE":" ","ALLEY":" ","HOUSE_NO":"８號之１","E_COORD97":183418.70999999999,"N_COORD97":2566435.3300000001,"ADDRESS":"中\u25A0８號之１","OBJECTID":218002},"geometry":{"x":183418.70999999996,"y":2566435.3300000001}},{"attributes":{"ID":218004,"DIS_CODE":0,"TOWNNAME":"官田區","LI":"官田里","LIN":"27鄰","STREET":" ","SECT":" ","MAREA":"中\u25A0","LANE":" ","ALLEY":" ","HOUSE_NO":"８號之２","E_COORD97":183415.07000000001,"N_COORD97":2566417.1800000002,"ADDRESS":"中\u25A0８號之２","OBJECTID":218003},"geometry":{"x":183415.0700000003,"y":2566417.1800000016}},{"attributes":{"ID":218005,"DIS_CODE":0,"TOWNNAME":"官田區","LI":"官田里","LIN":"27鄰","STREET":" ","SECT":" ","MAREA":"中\u25A0","LANE":" ","ALLEY":" ","HOUSE_NO":"８號","E_COORD97":183426.85000000001,"N_COORD97":2566436.1200000001,"ADDRESS":"中\u25A0８號","OBJECTID":218004},"geometry":{"x":183426.85000000056,"y":2566436.1200000029}},{"attributes":{"ID":218006,"DIS_CODE":0,"TOWNNAME":"官田區","LI":"官田里","LIN":"27鄰","STREET":" ","SECT":" ","MAREA":"中\u25A0","LANE":" ","ALLEY":" ","HOUSE_NO":"９號之１０","E_COORD97":183411.17999999999,"N_COORD97":2566396.4100000001,"ADDRESS":"中\u25A0９號之１０","OBJECTID":218005},"geometry":{"x":183411.18000000063,"y":2566396.410000002}},{"attributes":{"ID":218007,"DIS_CODE":0,"TOWNNAME":"永康區","LI":"永康里","LIN":"37鄰","STREET":"大同街","SECT":" ","MAREA":" ","LANE":" ","ALLEY":" ","HOUSE_NO":"７８０號","E_COORD97":174508.89999999999,"N_COORD97":2546776.4199999999,"ADDRESS":"大同街７８０號","OBJECTID":218006},"geometry":{"x":174508.9000000013,"y":2546776.4199999999}},{"attributes":{"ID":218008,"DIS_CODE":0,"TOWNNAME":"仁德區","LI":"後壁里","LIN":"37鄰","STREET":"德洋一街","SECT":" ","MAREA":" ","LANE":" ","ALLEY":" ","HOUSE_NO":"８７號","E_COORD97":173187.73000000001,"N_COORD97":2539277.52,"ADDRESS":"德洋一街８７號","OBJECTID":218007},"geometry":{"x":173187.73000000231,"y":2539277.5200000014}},{"attributes":{"ID":218009,"DIS_CODE":0,"TOWNNAME":"仁德區","LI":"後壁里","LIN":"37鄰","STREET":"民安路","SECT":"一段","MAREA":" ","LANE":" ","ALLEY":" ","HOUSE_NO":"３６６號","E_COORD97":173102.54999999999,"N_COORD97":2539389.5699999998,"ADDRESS":"民安路一段３６６號","OBJECTID":218008},"geometry":{"x":173102.54999999981,"y":2539389.570000004}},{"attributes":{"ID":218010,"DIS_CODE":0,"TOWNNAME":"永康區","LI":"埔園里","LIN":"29鄰","STREET":"埔園街","SECT":" ","MAREA":" ","LANE":"１４７巷","ALLEY":"６弄","HOUSE_NO":"９號","E_COORD97":173842.70999999999,"N_COORD97":2548178.3399999999,"ADDRESS":"埔園街１４７巷６弄９號","OBJECTID":218009},"geometry":{"x":173842.70999999996,"y":2548178.3400000036}},{"attributes":{"ID":218011,"DIS_CODE":0,"TOWNNAME":"仁德區","LI":"上崙里","LIN":"29鄰","STREET":"中正路","SECT":"一段","MAREA":" ","LANE":"６５６巷","ALLEY":"１９弄","HOUSE_NO":"２４號","E_COORD97":173047.75,"N_COORD97":2537438.5099999998,"ADDRESS":"中正路一段６５６巷１９弄２４號","OBJECTID":218010},"geometry":{"x":173047.75,"y":2537438.5099999998}},{"attributes":{"ID":218012,"DIS_CODE":0,"TOWNNAME":"官田區","LI":"官田里","LIN":"27鄰","STREET":" ","SECT":" ","MAREA":"中\u25A0","LANE":" ","ALLEY":" ","HOUSE_NO":"９號之１","E_COORD97":183414.07999999999,"N_COORD97":2566383.6600000001,"ADDRESS":"中\u25A0９號之１","OBJECTID":218011},"geometry":{"x":183414.08000000101,"y":2566383.660000002}},{"attributes":{"ID":218013,"DIS_CODE":0,"TOWNNAME":"仁德區","LI":"上崙里","LIN":"29鄰","STREET":"中正路","SECT":"一段","MAREA":" ","LANE":"６５６巷","ALLEY":"１９弄","HOUSE_NO":"１６號","E_COORD97":173031.10999999999,"N_COORD97":2537440.0099999998,"ADDRESS":"中正路一段６５６巷１９弄１６號","OBJECTID":218012},"geometry":{"x":173031.11000000127,"y":2537440.0100000035}},{"attributes":{"ID":218014,"DIS_CODE":0,"TOWNNAME":"仁德區","LI":"上崙里","LIN":"29鄰","STREET":"中正路","SECT":"一段","MAREA":" ","LANE":"６５６巷","ALLEY":"１９弄","HOUSE_NO":"４７號","E_COORD97":173018.32999999999,"N_COORD97":2537454.2599999998,"ADDRESS":"中正路一段６５６巷１９弄４７號","OBJECTID":218013},"geometry":{"x":173018.33000000007,"y":2537454.2599999998}},{"attributes":{"ID":218015,"DIS_CODE":0,"TOWNNAME":"仁德區","LI":"上崙里","LIN":"29鄰","STREET":"中正路","SECT":"一段","MAREA":" ","LANE":"６５６巷","ALLEY":"１９弄","HOUSE_NO":"３０號","E_COORD97":173002.41,"N_COORD97":2537427.02,"ADDRESS":"中正路一段６５６巷１９弄３０號","OBJECTID":218014},"geometry":{"x":173002.41000000015,"y":2537427.0200000014}},{"attributes":{"ID":218016,"DIS_CODE":0,"TOWNNAME":"永康區","LI":"西勢里","LIN":"29鄰","STREET":"西勢路","SECT":" ","MAREA":" ","LANE":"１５８巷","ALLEY":"１８弄","HOUSE_NO":"５號","E_COORD97":175960.92999999999,"N_COORD97":2546838.0699999998,"ADDRESS":"西勢路１５８巷１８弄５號","OBJECTID":218015},"geometry":{"x":175960.93000000063,"y":2546838.070000004}},{"attributes":{"ID":218017,"DIS_CODE":0,"TOWNNAME":"仁德區","LI":"仁德里","LIN":"29鄰","STREET":"淨修街","SECT":" ","MAREA":" ","LANE":"１７５巷","ALLEY":"５１弄","HOUSE_NO":"１２號","E_COORD97":172052.78,"N_COORD97":2541158.1899999999,"ADDRESS":"淨修街１７５巷５１弄１２號","OBJECTID":218016},"geometry":{"x":172052.78000000026,"y":2541158.1900000013}},{"attributes":{"ID":218018,"DIS_CODE":0,"TOWNNAME":"永康區","LI":"復興里","LIN":"29鄰","STREET":"興國街","SECT":" ","MAREA":" ","LANE":"２３７巷","ALLEY":"７弄","HOUSE_NO":"９號","E_COORD97":172310.85999999999,"N_COORD97":2544931.2400000002,"ADDRESS":"興國街２３７巷７弄９號","OBJECTID":218017},"geometry":{"x":172310.86000000127,"y":2544931.2399999984}},{"attributes":{"ID":218019,"DIS_CODE":0,"TOWNNAME":"永康區","LI":"二王里","LIN":"29鄰","STREET":"中山南路","SECT":" ","MAREA":" ","LANE":"５４４巷","ALLEY":"３６弄","HOUSE_NO":"２號","E_COORD97":172249.53,"N_COORD97":2546499.7400000002,"ADDRESS":"中山南路５４４巷３６弄２號","OBJECTID":218018},"geometry":{"x":172249.52999999933,"y":2546499.7400000002}},{"attributes":{"ID":218020,"DIS_CODE":0,"TOWNNAME":"官田區","LI":"官田里","LIN":"27鄰","STREET":" ","SECT":" ","MAREA":"中\u25A0","LANE":" ","ALLEY":" ","HOUSE_NO":"９號之２","E_COORD97":183420.67999999999,"N_COORD97":2566387.1899999999,"ADDRESS":"中\u25A0９號之２","OBJECTID":218019},"geometry":{"x":183420.6799999997,"y":2566387.1899999995}},{"attributes":{"ID":218021,"DIS_CODE":0,"TOWNNAME":"永康區","LI":"大灣里","LIN":"29鄰","STREET":"民族路","SECT":" ","MAREA":" ","LANE":"１２６巷","ALLEY":"９弄","HOUSE_NO":"８號","E_COORD97":175320.13,"N_COORD97":2544933.6200000001,"ADDRESS":"民族路１２６巷９弄８號","OBJECTID":218020},"geometry":{"x":175320.12999999896,"y":2544933.6200000029}},{"attributes":{"ID":218022,"DIS_CODE":0,"TOWNNAME":"官田區","LI":"官田里","LIN":"27鄰","STREET":" ","SECT":" ","MAREA":"中\u25A0","LANE":" ","ALLEY":" ","HOUSE_NO":"９號之３","E_COORD97":183423.54000000001,"N_COORD97":2566390.2400000002,"ADDRESS":"中\u25A0９號之３","OBJECTID":218021},"geometry":{"x":183423.54000000004,"y":2566390.2400000021}},{"attributes":{"ID":218023,"DIS_CODE":0,"TOWNNAME":"官田區","LI":"官田里","LIN":"27鄰","STREET":" ","SECT":" ","MAREA":"中\u25A0","LANE":" ","ALLEY":" ","HOUSE_NO":"９號之５","E_COORD97":183427.09,"N_COORD97":2566393.4100000001,"ADDRESS":"中\u25A0９號之５","OBJECTID":218022},"geometry":{"x":183427.09000000078,"y":2566393.4100000001}},{"attributes":{"ID":218024,"DIS_CODE":0,"TOWNNAME":"官田區","LI":"官田里","LIN":"27鄰","STREET":" ","SECT":" ","MAREA":"中\u25A0","LANE":" ","ALLEY":" ","HOUSE_NO":"９號之６","E_COORD97":183430.63,"N_COORD97":2566396.4900000002,"ADDRESS":"中\u25A0９號之６","OBJECTID":218023},"geometry":{"x":183430.63000000082,"y":2566396.4900000002}},{"attributes":{"ID":218025,"DIS_CODE":0,"TOWNNAME":"永康區","LI":"復興里","LIN":"29鄰","STREET":"興國街","SECT":" ","MAREA":" ","LANE":"２３７巷","ALLEY":"７弄","HOUSE_NO":"２號","E_COORD97":172304.62,"N_COORD97":2544958.5,"ADDRESS":"興國街２３７巷７弄２號","OBJECTID":218024},"geometry":{"x":172304.62000000011,"y":2544958.5}},{"attributes":{"ID":218026,"DIS_CODE":0,"TOWNNAME":"安南區","LI":"安慶里","LIN":"29鄰","STREET":"安和路","SECT":"一段","MAREA":" ","LANE":"４５９巷","ALLEY":"３６弄","HOUSE_NO":"１９號之２","E_COORD97":169234.03,"N_COORD97":2548569.52,"ADDRESS":"安和路一段４５９巷３６弄１９號之２","OBJECTID":218025},"geometry":{"x":169234.03000000119,"y":2548569.5199999996}},{"attributes":{"ID":218027,"DIS_CODE":0,"TOWNNAME":"官田區","LI":"官田里","LIN":"27鄰","STREET":" ","SECT":" ","MAREA":"中\u25A0","LANE":" ","ALLEY":" ","HOUSE_NO":"９號之７","E_COORD97":183406.17999999999,"N_COORD97":2566397.6499999999,"ADDRESS":"中\u25A0９號之７","OBJECTID":218026},"geometry":{"x":183406.18000000063,"y":2566397.6500000022}},{"attributes":{"ID":218028,"DIS_CODE":0,"TOWNNAME":"官田區","LI":"官田里","LIN":"27鄰","STREET":" ","SECT":" ","MAREA":"中\u25A0","LANE":" ","ALLEY":" ","HOUSE_NO":"９號之８","E_COORD97":183401.17999999999,"N_COORD97":2566398.8900000001,"ADDRESS":"中\u25A0９號之８","OBJECTID":218027},"geometry":{"x":183401.18000000063,"y":2566398.8900000043}},{"attributes":{"ID":218029,"DIS_CODE":0,"TOWNNAME":"官田區","LI":"官田里","LIN":"27鄰","STREET":" ","SECT":" ","MAREA":"中\u25A0","LANE":" ","ALLEY":" ","HOUSE_NO":"９號之９","E_COORD97":183396.19,"N_COORD97":2566400.1299999999,"ADDRESS":"中\u25A0９號之９","OBJECTID":218028},"geometry":{"x":183396.18999999948,"y":2566400.1300000008}},{"attributes":{"ID":218030,"DIS_CODE":0,"TOWNNAME":"佳里區","LI":"安西里","LIN":"51鄰","STREET":" ","SECT":" ","MAREA":"安西","LANE":" ","ALLEY":" ","HOUSE_NO":"１２７號之４","E_COORD97":164161.19,"N_COORD97":2562170.7000000002,"ADDRESS":"安西１２７號之４","OBJECTID":218029},"geometry":{"x":164161.19000000134,"y":2562170.700000003}},{"attributes":{"ID":218031,"DIS_CODE":0,"TOWNNAME":"佳里區","LI":"安西里","LIN":"50鄰","STREET":" ","SECT":" ","MAREA":"安西","LANE":" ","ALLEY":" ","HOUSE_NO":"１２８號之１７","E_COORD97":164298.47,"N_COORD97":2562119.9900000002,"ADDRESS":"安西１２８號之１７","OBJECTID":218030},"geometry":{"x":164298.46999999974,"y":2562119.9900000021}},{"attributes":{"ID":218032,"DIS_CODE":0,"TOWNNAME":"安南區","LI":"州南里","LIN":"29鄰","STREET":"安和路","SECT":"四段","MAREA":" ","LANE":"５３３巷","ALLEY":"８５弄","HOUSE_NO":"２８號","E_COORD97":169770.56,"N_COORD97":2551187.6499999999,"ADDRESS":"安和路四段５３３巷８５弄２８號","OBJECTID":218031},"geometry":{"x":169770.56000000052,"y":2551187.6500000041}},{"attributes":{"ID":218033,"DIS_CODE":0,"TOWNNAME":"佳里區","LI":"安西里","LIN":"51鄰","STREET":" ","SECT":" ","MAREA":"安西","LANE":" ","ALLEY":" ","HOUSE_NO":"１２７號之５","E_COORD97":164186.01999999999,"N_COORD97":2562159.75,"ADDRESS":"安西１２７號之５","OBJECTID":218032},"geometry":{"x":164186.01999999955,"y":2562159.75}},{"attributes":{"ID":218034,"DIS_CODE":0,"TOWNNAME":"佳里區","LI":"安西里","LIN":"51鄰","STREET":" ","SECT":" ","MAREA":"安西","LANE":" ","ALLEY":" ","HOUSE_NO":"１２７號之６","E_COORD97":164185.92999999999,"N_COORD97":2562162.54,"ADDRESS":"安西１２７號之６","OBJECTID":218033},"geometry":{"x":164185.93000000063,"y":2562162.540000001}},{"attributes":{"ID":218035,"DIS_CODE":0,"TOWNNAME":"佳里區","LI":"安西里","LIN":"51鄰","STREET":" ","SECT":" ","MAREA":"安西","LANE":" ","ALLEY":" ","HOUSE_NO":"１２７號之７","E_COORD97":164185.89999999999,"N_COORD97":2562165.3799999999,"ADDRESS":"安西１２７號之７","OBJECTID":218034},"geometry":{"x":164185.90000000037,"y":2562165.379999999}},{"attributes":{"ID":218036,"DIS_CODE":0,"TOWNNAME":"佳里區","LI":"安西里","LIN":"51鄰","STREET":" ","SECT":" ","MAREA":"安西","LANE":" ","ALLEY":" ","HOUSE_NO":"１２７號之８","E_COORD97":164185.84,"N_COORD97":2562168.48,"ADDRESS":"安西１２７號之８","OBJECTID":218035},"geometry":{"x":164185.83999999985,"y":2562168.4800000004}},{"attributes":{"ID":218037,"DIS_CODE":0,"TOWNNAME":"佳里區","LI":"安西里","LIN":"51鄰","STREET":" ","SECT":" ","MAREA":"安西","LANE":" ","ALLEY":" ","HOUSE_NO":"１２７號之９","E_COORD97":164185.89000000001,"N_COORD97":2562171.1600000001,"ADDRESS":"安西１２７號之９","OBJECTID":218036},"geometry":{"x":164185.89000000153,"y":2562171.1600000001}},{"attributes":{"ID":218038,"DIS_CODE":0,"TOWNNAME":"佳里區","LI":"安西里","LIN":"51鄰","STREET":" ","SECT":" ","MAREA":"安西","LANE":" ","ALLEY":" ","HOUSE_NO":"１２７號","E_COORD97":164161.25,"N_COORD97":2562159.1000000001,"ADDRESS":"安西１２７號","OBJECTID":218037},"geometry":{"x":164161.25,"y":2562159.1000000015}},{"attributes":{"ID":218039,"DIS_CODE":0,"TOWNNAME":"佳里區","LI":"安西里","LIN":"50鄰","STREET":" ","SECT":" ","MAREA":"安西","LANE":" ","ALLEY":" ","HOUSE_NO":"１２８號之１０","E_COORD97":164296.60999999999,"N_COORD97":2562080.6400000001,"ADDRESS":"安西１２８號之１０","OBJECTID":218038},"geometry":{"x":164296.61000000034,"y":2562080.6400000006}},{"attributes":{"ID":218040,"DIS_CODE":0,"TOWNNAME":"佳里區","LI":"安西里","LIN":"50鄰","STREET":" ","SECT":" ","MAREA":"安西","LANE":" ","ALLEY":" ","HOUSE_NO":"１２８號之１１","E_COORD97":164296.63,"N_COORD97":2562084.9700000002,"ADDRESS":"安西１２８號之１１","OBJECTID":218039},"geometry":{"x":164296.63000000082,"y":2562084.9700000007}},{"attributes":{"ID":218041,"DIS_CODE":0,"TOWNNAME":"佳里區","LI":"安西里","LIN":"50鄰","STREET":" ","SECT":" ","MAREA":"安西","LANE":" ","ALLEY":" ","HOUSE_NO":"１２８號之１２","E_COORD97":164296.89000000001,"N_COORD97":2562089.3599999999,"ADDRESS":"安西１２８號之１２","OBJECTID":218040},"geometry":{"x":164296.8900000006,"y":2562089.3600000013}},{"attributes":{"ID":218042,"DIS_CODE":0,"TOWNNAME":"永康區","LI":"永康里","LIN":"37鄰","STREET":"西勢路","SECT":" ","MAREA":" ","LANE":" ","ALLEY":" ","HOUSE_NO":"７８６號","E_COORD97":174457.01000000001,"N_COORD97":2546733.0699999998,"ADDRESS":"西勢路７８６號","OBJECTID":218041},"geometry":{"x":174457.01000000071,"y":2546733.070000004}},{"attributes":{"ID":218043,"DIS_CODE":0,"TOWNNAME":"安南區","LI":"州南里","LIN":"29鄰","STREET":"安和路","SECT":"四段","MAREA":" ","LANE":"５３３巷","ALLEY":"８５弄","HOUSE_NO":"４２號","E_COORD97":169778.39999999999,"N_COORD97":2551159.3700000001,"ADDRESS":"安和路四段５３３巷８５弄４２號","OBJECTID":218042},"geometry":{"x":169778.40000000037,"y":2551159.3699999992}},{"attributes":{"ID":218044,"DIS_CODE":0,"TOWNNAME":"永康區","LI":"永康里","LIN":"37鄰","STREET":"西勢路","SECT":" ","MAREA":" ","LANE":" ","ALLEY":" ","HOUSE_NO":"７８０號","E_COORD97":174464.79999999999,"N_COORD97":2546735.0699999998,"ADDRESS":"西勢路７８０號","OBJECTID":218043},"geometry":{"x":174464.80000000075,"y":2546735.0700000003}},{"attributes":{"ID":218045,"DIS_CODE":0,"TOWNNAME":"永康區","LI":"永康里","LIN":"37鄰","STREET":"大同街","SECT":" ","MAREA":" ","LANE":" ","ALLEY":" ","HOUSE_NO":"８４０號","E_COORD97":174478.92999999999,"N_COORD97":2546885.5899999999,"ADDRESS":"大同街８４０號","OBJECTID":218044},"geometry":{"x":174478.93000000156,"y":2546885.5900000017}},{"attributes":{"ID":218046,"DIS_CODE":0,"TOWNNAME":"永康區","LI":"二王里","LIN":"29鄰","STREET":"中山南路","SECT":" ","MAREA":" ","LANE":"５４４巷","ALLEY":"２弄","HOUSE_NO":"１２號","E_COORD97":172200.07000000001,"N_COORD97":2546490.9900000002,"ADDRESS":"中山南路５４４巷２弄１２號","OBJECTID":218045},"geometry":{"x":172200.0700000003,"y":2546490.9900000021}},{"attributes":{"ID":218047,"DIS_CODE":0,"TOWNNAME":"永康區","LI":"大灣里","LIN":"29鄰","STREET":"民族路","SECT":" ","MAREA":" ","LANE":"１２６巷","ALLEY":"９弄","HOUSE_NO":"１號","E_COORD97":175288.84,"N_COORD97":2544919.2799999998,"ADDRESS":"民族路１２６巷９弄１號","OBJECTID":218046},"geometry":{"x":175288.84000000078,"y":2544919.2799999993}},{"attributes":{"ID":218048,"DIS_CODE":0,"TOWNNAME":"永康區","LI":"龍潭里","LIN":"5鄰","STREET":"龍埔街","SECT":" ","MAREA":" ","LANE":" ","ALLEY":" ","HOUSE_NO":"４１號","E_COORD97":174770.95000000001,"N_COORD97":2548198.8300000001,"ADDRESS":"龍埔街４１號","OBJECTID":218047},"geometry":{"x":174770.95000000205,"y":2548198.8299999982}},{"attributes":{"ID":218049,"DIS_CODE":0,"TOWNNAME":"永康區","LI":"網寮里","LIN":"18鄰","STREET":"永二街","SECT":" ","MAREA":" ","LANE":" ","ALLEY":" ","HOUSE_NO":"１８９號","E_COORD97":173425.57999999999,"N_COORD97":2546338.1899999999,"ADDRESS":"永二街１８９號","OBJECTID":218048},"geometry":{"x":173425.58000000194,"y":2546338.1900000032}},{"attributes":{"ID":218050,"DIS_CODE":0,"TOWNNAME":"佳里區","LI":"安西里","LIN":"50鄰","STREET":" ","SECT":" ","MAREA":"安西","LANE":" ","ALLEY":" ","HOUSE_NO":"１２８號之１３","E_COORD97":164296.79999999999,"N_COORD97":2562094.9300000002,"ADDRESS":"安西１２８號之１３","OBJECTID":218049},"geometry":{"x":164296.79999999888,"y":2562094.9299999978}},{"attributes":{"ID":218051,"DIS_CODE":0,"TOWNNAME":"永康區","LI":"龍潭里","LIN":"39鄰","STREET":"永明街","SECT":" ","MAREA":" ","LANE":" ","ALLEY":" ","HOUSE_NO":"２６９號","E_COORD97":174648,"N_COORD97":2547216.8999999999,"ADDRESS":"永明街２６９號","OBJECTID":218050},"geometry":{"x":174648,"y":2547216.9000000022}},{"attributes":{"ID":218052,"DIS_CODE":0,"TOWNNAME":"永康區","LI":"蔦松里","LIN":"1鄰","STREET":"蔦松二街","SECT":" ","MAREA":" ","LANE":" ","ALLEY":" ","HOUSE_NO":"６５號","E_COORD97":173702.01999999999,"N_COORD97":2549292.2400000002,"ADDRESS":"蔦松二街６５號","OBJECTID":218051},"geometry":{"x":173702.02000000048,"y":2549292.2400000021}},{"attributes":{"ID":218053,"DIS_CODE":0,"TOWNNAME":"永康區","LI":"大灣里","LIN":"29鄰","STREET":"民族路","SECT":" ","MAREA":" ","LANE":"１２６巷","ALLEY":"９弄","HOUSE_NO":"２０號","E_COORD97":175307.76999999999,"N_COORD97":2544955.8799999999,"ADDRESS":"民族路１２６巷９弄２０號","OBJECTID":218052},"geometry":{"x":175307.77000000048,"y":2544955.879999999}},{"attributes":{"ID":218054,"DIS_CODE":0,"TOWNNAME":"永康區","LI":"大灣里","LIN":"29鄰","STREET":"民族路","SECT":" ","MAREA":" ","LANE":"１２６巷","ALLEY":"９弄","HOUSE_NO":"５號","E_COORD97":175298.60999999999,"N_COORD97":2544925.0299999998,"ADDRESS":"民族路１２６巷９弄５號","OBJECTID":218053},"geometry":{"x":175298.61000000034,"y":2544925.0299999975}},{"attributes":{"ID":218055,"DIS_CODE":0,"TOWNNAME":"永康區","LI":"大灣里","LIN":"29鄰","STREET":"民族路","SECT":" ","MAREA":" ","LANE":"１２６巷","ALLEY":"９弄","HOUSE_NO":"６號","E_COORD97":175322.28,"N_COORD97":2544930.3700000001,"ADDRESS":"民族路１２６巷９弄６號","OBJECTID":218054},"geometry":{"x":175322.28000000026,"y":2544930.370000001}},{"attributes":{"ID":218056,"DIS_CODE":0,"TOWNNAME":"佳里區","LI":"安西里","LIN":"50鄰","STREET":" ","SECT":" ","MAREA":"安西","LANE":" ","ALLEY":" ","HOUSE_NO":"１２８號之１４","E_COORD97":164297.13,"N_COORD97":2562100.8399999999,"ADDRESS":"安西１２８號之１４","OBJECTID":218055},"geometry":{"x":164297.13000000082,"y":2562100.8400000017}},{"attributes":{"ID":218057,"DIS_CODE":0,"TOWNNAME":"仁德區","LI":"成功里","LIN":"29鄰","STREET":"成功一街","SECT":" ","MAREA":" ","LANE":"１巷","ALLEY":"２４弄","HOUSE_NO":"２５號","E_COORD97":170667.17999999999,"N_COORD97":2540108.77,"ADDRESS":"成功一街１巷２４弄２５號","OBJECTID":218056},"geometry":{"x":170667.18000000063,"y":2540108.7699999996}},{"attributes":{"ID":218058,"DIS_CODE":0,"TOWNNAME":"仁德區","LI":"成功里","LIN":"29鄰","STREET":"成功一街","SECT":" ","MAREA":" ","LANE":"１巷","ALLEY":"２６弄","HOUSE_NO":"１３號","E_COORD97":170704.20999999999,"N_COORD97":2540141.0099999998,"ADDRESS":"成功一街１巷２６弄１３號","OBJECTID":218057},"geometry":{"x":170704.21000000089,"y":2540141.0099999998}},{"attributes":{"ID":218059,"DIS_CODE":0,"TOWNNAME":"佳里區","LI":"安西里","LIN":"50鄰","STREET":" ","SECT":" ","MAREA":"安西","LANE":" ","ALLEY":" ","HOUSE_NO":"１２８號之１５","E_COORD97":164297.54000000001,"N_COORD97":2562107.29,"ADDRESS":"安西１２８號之１５","OBJECTID":218058},"geometry":{"x":164297.54000000097,"y":2562107.290000001}},{"attributes":{"ID":218060,"DIS_CODE":0,"TOWNNAME":"仁德區","LI":"成功里","LIN":"29鄰","STREET":"成功一街","SECT":" ","MAREA":" ","LANE":"１巷","ALLEY":"２６弄","HOUSE_NO":"２６號","E_COORD97":170683.94,"N_COORD97":2540136.1800000002,"ADDRESS":"成功一街１巷２６弄２６號","OBJECTID":218059},"geometry":{"x":170683.93999999948,"y":2540136.1799999997}},{"attributes":{"ID":218061,"DIS_CODE":0,"TOWNNAME":"安南區","LI":"安慶里","LIN":"29鄰","STREET":"安和路","SECT":"一段","MAREA":" ","LANE":"４５９巷","ALLEY":"３６弄","HOUSE_NO":"１９號之１","E_COORD97":169238.13,"N_COORD97":2548569.3199999998,"ADDRESS":"安和路一段４５９巷３６弄１９號之１","OBJECTID":218060},"geometry":{"x":169238.13000000082,"y":2548569.3200000022}},{"attributes":{"ID":218062,"DIS_CODE":0,"TOWNNAME":"安南區","LI":"安慶里","LIN":"29鄰","STREET":"安和路","SECT":"一段","MAREA":" ","LANE":"４５９巷","ALLEY":"３６弄","HOUSE_NO":"１９號之１０","E_COORD97":169198.64999999999,"N_COORD97":2548570.0099999998,"ADDRESS":"安和路一段４５９巷３６弄１９號之１０","OBJECTID":218061},"geometry":{"x":169198.65000000037,"y":2548570.0099999998}},{"attributes":{"ID":218063,"DIS_CODE":0,"TOWNNAME":"永康區","LI":"龍潭里","LIN":"35鄰","STREET":"自強路","SECT":" ","MAREA":" ","LANE":" ","ALLEY":" ","HOUSE_NO":"８１０號","E_COORD97":174589.63,"N_COORD97":2548618.8700000001,"ADDRESS":"自強路８１０號","OBJECTID":218062},"geometry":{"x":174589.63000000175,"y":2548618.870000001}},{"attributes":{"ID":218064,"DIS_CODE":0,"TOWNNAME":"佳里區","LI":"安西里","LIN":"50鄰","STREET":" ","SECT":" ","MAREA":"安西","LANE":" ","ALLEY":" ","HOUSE_NO":"１２８號之１６","E_COORD97":164297.94,"N_COORD97":2562113.52,"ADDRESS":"安西１２８號之１６","OBJECTID":218063},"geometry":{"x":164297.94000000041,"y":2562113.5199999996}},{"attributes":{"ID":218065,"DIS_CODE":0,"TOWNNAME":"佳里區","LI":"安西里","LIN":"50鄰","STREET":" ","SECT":" ","MAREA":"安西","LANE":" ","ALLEY":" ","HOUSE_NO":"１２８號之１８","E_COORD97":164298.82000000001,"N_COORD97":2562126.3199999998,"ADDRESS":"安西１２８號之１８","OBJECTID":218064},"geometry":{"x":164298.81999999937,"y":2562126.3200000003}},{"attributes":{"ID":218066,"DIS_CODE":0,"TOWNNAME":"七股區","LI":"西寮里","LIN":"8鄰","STREET":" ","SECT":" ","MAREA":"西寮","LANE":" ","ALLEY":" ","HOUSE_NO":"６８號","E_COORD97":157464.45999999999,"N_COORD97":2563407.1299999999,"ADDRESS":"西寮６８號","OBJECTID":218065},"geometry":{"x":157464.46000000183,"y":2563407.129999999}},{"attributes":{"ID":218067,"DIS_CODE":0,"TOWNNAME":"七股區","LI":"西寮里","LIN":"1鄰","STREET":" ","SECT":" ","MAREA":"西寮","LANE":" ","ALLEY":" ","HOUSE_NO":"６號之１","E_COORD97":157508.63,"N_COORD97":2563451.8199999998,"ADDRESS":"西寮６號之１","OBJECTID":218066},"geometry":{"x":157508.62999999989,"y":2563451.8200000003}},{"attributes":{"ID":218068,"DIS_CODE":0,"TOWNNAME":"官田區","LI":"大崎里","LIN":"6鄰","STREET":" ","SECT":" ","MAREA":"大崎","LANE":" ","ALLEY":" ","HOUSE_NO":"５３號之１","E_COORD97":185764.20000000001,"N_COORD97":2565281.2200000002,"ADDRESS":"大崎５３號之１","OBJECTID":218067},"geometry":{"x":185764.20000000205,"y":2565281.2200000044}},{"attributes":{"ID":218069,"DIS_CODE":0,"TOWNNAME":"官田區","LI":"大崎里","LIN":"8鄰","STREET":" ","SECT":" ","MAREA":"大崎","LANE":" ","ALLEY":" ","HOUSE_NO":"６６號之２８","E_COORD97":185826.98000000001,"N_COORD97":2565325.96,"ADDRESS":"大崎６６號之２８","OBJECTID":218068},"geometry":{"x":185826.98000000231,"y":2565325.9600000009}},{"attributes":{"ID":218070,"DIS_CODE":0,"TOWNNAME":"官田區","LI":"大崎里","LIN":"8鄰","STREET":" ","SECT":" ","MAREA":"大崎","LANE":" ","ALLEY":" ","HOUSE_NO":"６６號之２９","E_COORD97":185817.79000000001,"N_COORD97":2565352.0800000001,"ADDRESS":"大崎６６號之２９","OBJECTID":218069},"geometry":{"x":185817.79000000097,"y":2565352.0800000001}},{"attributes":{"ID":218071,"DIS_CODE":0,"TOWNNAME":"官田區","LI":"大崎里","LIN":"8鄰","STREET":" ","SECT":" ","MAREA":"大崎","LANE":" ","ALLEY":" ","HOUSE_NO":"６６號之３０","E_COORD97":185815.03,"N_COORD97":2565357.4199999999,"ADDRESS":"大崎６６號之３０","OBJECTID":218070},"geometry":{"x":185815.03000000119,"y":2565357.4200000018}},{"attributes":{"ID":218072,"DIS_CODE":0,"TOWNNAME":"官田區","LI":"大崎里","LIN":"8鄰","STREET":" ","SECT":" ","MAREA":"大崎","LANE":" ","ALLEY":" ","HOUSE_NO":"６６號之７９","E_COORD97":185962.41,"N_COORD97":2565157.1800000002,"ADDRESS":"大崎６６號之７９","OBJECTID":218071},"geometry":{"x":185962.41000000015,"y":2565157.1799999997}},{"attributes":{"ID":218073,"DIS_CODE":0,"TOWNNAME":"官田區","LI":"大崎里","LIN":"8鄰","STREET":" ","SECT":" ","MAREA":"大崎","LANE":" ","ALLEY":" ","HOUSE_NO":"６６號之８０","E_COORD97":185964.95999999999,"N_COORD97":2565151.8500000001,"ADDRESS":"大崎６６號之８０","OBJECTID":218072},"geometry":{"x":185964.95999999996,"y":2565151.8500000015}},{"attributes":{"ID":218074,"DIS_CODE":0,"TOWNNAME":"官田區","LI":"大崎里","LIN":"8鄰","STREET":" ","SECT":" ","MAREA":"大崎","LANE":" ","ALLEY":" ","HOUSE_NO":"６６號之８１","E_COORD97":185968.42000000001,"N_COORD97":2565146.3700000001,"ADDRESS":"大崎６６號之８１","OBJECTID":218073},"geometry":{"x":185968.41999999993,"y":2565146.3700000029}},{"attributes":{"ID":218075,"DIS_CODE":0,"TOWNNAME":"永康區","LI":"北灣里","LIN":"37鄰","STREET":"大同街","SECT":" ","MAREA":" ","LANE":" ","ALLEY":" ","HOUSE_NO":"３３６號","E_COORD97":174772.76999999999,"N_COORD97":2546005.6200000001,"ADDRESS":"大同街３３６號","OBJECTID":218074},"geometry":{"x":174772.76999999955,"y":2546005.6200000029}},{"attributes":{"ID":218076,"DIS_CODE":0,"TOWNNAME":"永康區","LI":"永康里","LIN":"37鄰","STREET":"永大路","SECT":"二段","MAREA":" ","LANE":" ","ALLEY":" ","HOUSE_NO":"１２２０號","E_COORD97":174381.38,"N_COORD97":2546777.77,"ADDRESS":"永大路二段１２２０號","OBJECTID":218075},"geometry":{"x":174381.38000000082,"y":2546777.7699999996}},{"attributes":{"ID":218077,"DIS_CODE":0,"TOWNNAME":"永康區","LI":"永康里","LIN":"37鄰","STREET":"西勢路","SECT":" ","MAREA":" ","LANE":" ","ALLEY":" ","HOUSE_NO":"７５０號","E_COORD97":174531.14000000001,"N_COORD97":2546751.6699999999,"ADDRESS":"西勢路７５０號","OBJECTID":218076},"geometry":{"x":174531.13999999966,"y":2546751.6699999999}},{"attributes":{"ID":218078,"DIS_CODE":0,"TOWNNAME":"永康區","LI":"埔園里","LIN":"37鄰","STREET":"龍國街","SECT":" ","MAREA":" ","LANE":" ","ALLEY":" ","HOUSE_NO":"１３９號","E_COORD97":174327.26999999999,"N_COORD97":2548071.0800000001,"ADDRESS":"龍國街１３９號","OBJECTID":218077},"geometry":{"x":174327.27000000142,"y":2548071.0800000001}},{"attributes":{"ID":218079,"DIS_CODE":0,"TOWNNAME":"永康區","LI":"埔園里","LIN":"37鄰","STREET":"龍中街","SECT":" ","MAREA":" ","LANE":" ","ALLEY":" ","HOUSE_NO":"４４７號","E_COORD97":174393.10999999999,"N_COORD97":2548177.8700000001,"ADDRESS":"龍中街４４７號","OBJECTID":218078},"geometry":{"x":174393.11000000034,"y":2548177.870000001}},{"attributes":{"ID":218080,"DIS_CODE":0,"TOWNNAME":"永康區","LI":"埔園里","LIN":"37鄰","STREET":"龍國街","SECT":" ","MAREA":" ","LANE":" ","ALLEY":" ","HOUSE_NO":"９５號","E_COORD97":174201.54000000001,"N_COORD97":2548087.6800000002,"ADDRESS":"龍國街９５號","OBJECTID":218079},"geometry":{"x":174201.54000000004,"y":2548087.6800000034}},{"attributes":{"ID":218081,"DIS_CODE":0,"TOWNNAME":"安南區","LI":"安慶里","LIN":"29鄰","STREET":"安和路","SECT":"一段","MAREA":" ","LANE":"４５９巷","ALLEY":"３６弄","HOUSE_NO":"１９號之３","E_COORD97":169230.07000000001,"N_COORD97":2548569.1899999999,"ADDRESS":"安和路一段４５９巷３６弄１９號之３","OBJECTID":218080},"geometry":{"x":169230.0700000003,"y":2548569.1900000013}},{"attributes":{"ID":218082,"DIS_CODE":0,"TOWNNAME":"安南區","LI":"安慶里","LIN":"29鄰","STREET":"安和路","SECT":"一段","MAREA":" ","LANE":"４５９巷","ALLEY":"３６弄","HOUSE_NO":"１９號之４","E_COORD97":169226.28,"N_COORD97":2548568.7200000002,"ADDRESS":"安和路一段４５９巷３６弄１９號之４","OBJECTID":218081},"geometry":{"x":169226.28000000026,"y":2548568.7200000007}},{"attributes":{"ID":218083,"DIS_CODE":0,"TOWNNAME":"安南區","LI":"安慶里","LIN":"29鄰","STREET":"安和路","SECT":"一段","MAREA":" ","LANE":"４５９巷","ALLEY":"３６弄","HOUSE_NO":"１９號之５","E_COORD97":169220.60000000001,"N_COORD97":2548571.29,"ADDRESS":"安和路一段４５９巷３６弄１９號之５","OBJECTID":218082},"geometry":{"x":169220.59999999963,"y":2548571.2900000028}},{"attributes":{"ID":218084,"DIS_CODE":0,"TOWNNAME":"安南區","LI":"安慶里","LIN":"29鄰","STREET":"安和路","SECT":"一段","MAREA":" ","LANE":"４５９巷","ALLEY":"３６弄","HOUSE_NO":"１９號之６","E_COORD97":169215.84,"N_COORD97":2548571.0699999998,"ADDRESS":"安和路一段４５９巷３６弄１９號之６","OBJECTID":218083},"geometry":{"x":169215.83999999985,"y":2548571.0700000022}},{"attributes":{"ID":218085,"DIS_CODE":0,"TOWNNAME":"安南區","LI":"安慶里","LIN":"29鄰","STREET":"安和路","SECT":"一段","MAREA":" ","LANE":"４５９巷","ALLEY":"３６弄","HOUSE_NO":"１９號之７","E_COORD97":169211.07000000001,"N_COORD97":2548570.1600000001,"ADDRESS":"安和路一段４５９巷３６弄１９號之７","OBJECTID":218084},"geometry":{"x":169211.0700000003,"y":2548570.160000002}},{"attributes":{"ID":218086,"DIS_CODE":0,"TOWNNAME":"官田區","LI":"大崎里","LIN":"8鄰","STREET":" ","SECT":" ","MAREA":"大崎","LANE":" ","ALLEY":" ","HOUSE_NO":"６６號之８２","E_COORD97":185902.19,"N_COORD97":2565164.3799999999,"ADDRESS":"大崎６６號之８２","OBJECTID":218085},"geometry":{"x":185902.19000000134,"y":2565164.3800000008}},{"attributes":{"ID":218087,"DIS_CODE":0,"TOWNNAME":"官田區","LI":"大崎里","LIN":"8鄰","STREET":" ","SECT":" ","MAREA":"大崎","LANE":" ","ALLEY":" ","HOUSE_NO":"６６號之８３","E_COORD97":185905.23000000001,"N_COORD97":2565157.3900000001,"ADDRESS":"大崎６６號之８３","OBJECTID":218086},"geometry":{"x":185905.23000000138,"y":2565157.3900000006}},{"attributes":{"ID":218088,"DIS_CODE":0,"TOWNNAME":"官田區","LI":"大崎里","LIN":"8鄰","STREET":" ","SECT":" ","MAREA":"大崎","LANE":" ","ALLEY":" ","HOUSE_NO":"６６號之８","E_COORD97":185998.67999999999,"N_COORD97":2565128.3500000001,"ADDRESS":"大崎６６號之８","OBJECTID":218087},"geometry":{"x":185998.6799999997,"y":2565128.3499999996}},{"attributes":{"ID":218089,"DIS_CODE":0,"TOWNNAME":"安南區","LI":"安慶里","LIN":"29鄰","STREET":"安和路","SECT":"一段","MAREA":" ","LANE":"４５９巷","ALLEY":"３６弄","HOUSE_NO":"１９號之８","E_COORD97":169206.82999999999,"N_COORD97":2548569.48,"ADDRESS":"安和路一段４５９巷３６弄１９號之８","OBJECTID":218088},"geometry":{"x":169206.83000000101,"y":2548569.4800000023}},{"attributes":{"ID":218090,"DIS_CODE":0,"TOWNNAME":"官田區","LI":"大崎里","LIN":"8鄰","STREET":" ","SECT":" ","MAREA":"大崎","LANE":" ","ALLEY":" ","HOUSE_NO":"６６號","E_COORD97":185967.32999999999,"N_COORD97":2565017.0099999998,"ADDRESS":"大崎６６號","OBJECTID":218089},"geometry":{"x":185967.33000000101,"y":2565017.0099999979}},{"attributes":{"ID":218091,"DIS_CODE":0,"TOWNNAME":"仁德區","LI":"土庫里","LIN":"13鄰","STREET":"土庫路","SECT":" ","MAREA":" ","LANE":"１８５巷","ALLEY":"１４弄","HOUSE_NO":"６號","E_COORD97":174348.76000000001,"N_COORD97":2542918.9700000002,"ADDRESS":"土庫路１８５巷１４弄６號","OBJECTID":218090},"geometry":{"x":174348.75999999978,"y":2542918.9700000007}},{"attributes":{"ID":218092,"DIS_CODE":0,"TOWNNAME":"安南區","LI":"安慶里","LIN":"29鄰","STREET":"安和路","SECT":"一段","MAREA":" ","LANE":"４５９巷","ALLEY":"３６弄","HOUSE_NO":"１９號之９","E_COORD97":169202.67000000001,"N_COORD97":2548569.6299999999,"ADDRESS":"安和路一段４５９巷３６弄１９號之９","OBJECTID":218091},"geometry":{"x":169202.67000000086,"y":2548569.6300000008}},{"attributes":{"ID":218093,"DIS_CODE":0,"TOWNNAME":"安南區","LI":"安慶里","LIN":"29鄰","STREET":"長溪路","SECT":"一段","MAREA":" ","LANE":"１４６巷","ALLEY":"３１弄","HOUSE_NO":"１１號","E_COORD97":169107.64000000001,"N_COORD97":2548582.3300000001,"ADDRESS":"長溪路一段１４６巷３１弄１１號","OBJECTID":218092},"geometry":{"x":169107.6400000006,"y":2548582.3300000038}},{"attributes":{"ID":218094,"DIS_CODE":0,"TOWNNAME":"安南區","LI":"安慶里","LIN":"29鄰","STREET":"長溪路","SECT":"一段","MAREA":" ","LANE":"１４６巷","ALLEY":"３１弄","HOUSE_NO":"１２號","E_COORD97":169107.87,"N_COORD97":2548587.7799999998,"ADDRESS":"長溪路一段１４６巷３１弄１２號","OBJECTID":218093},"geometry":{"x":169107.87000000104,"y":2548587.7799999993}},{"attributes":{"ID":218095,"DIS_CODE":0,"TOWNNAME":"安南區","LI":"安慶里","LIN":"29鄰","STREET":"長溪路","SECT":"一段","MAREA":" ","LANE":"１４６巷","ALLEY":"３１弄","HOUSE_NO":"１３號","E_COORD97":169108.72,"N_COORD97":2548593.3900000001,"ADDRESS":"長溪路一段１４６巷３１弄１３號","OBJECTID":218094},"geometry":{"x":169108.72000000067,"y":2548593.3900000025}},{"attributes":{"ID":218096,"DIS_CODE":0,"TOWNNAME":"永康區","LI":"埔園里","LIN":"37鄰","STREET":"龍國街","SECT":" ","MAREA":" ","LANE":" ","ALLEY":" ","HOUSE_NO":"１２３號","E_COORD97":174289.14999999999,"N_COORD97":2548073.6499999999,"ADDRESS":"龍國街１２３號","OBJECTID":218095},"geometry":{"x":174289.15000000037,"y":2548073.6500000004}},{"attributes":{"ID":218097,"DIS_CODE":0,"TOWNNAME":"官田區","LI":"大崎里","LIN":"1鄰","STREET":" ","SECT":" ","MAREA":"大崎","LANE":" ","ALLEY":" ","HOUSE_NO":"６號之１","E_COORD97":185495.64999999999,"N_COORD97":2565619.9700000002,"ADDRESS":"大崎６號之１","OBJECTID":218096},"geometry":{"x":185495.6500000013,"y":2565619.9700000025}},{"attributes":{"ID":218098,"DIS_CODE":0,"TOWNNAME":"官田區","LI":"大崎里","LIN":"1鄰","STREET":" ","SECT":" ","MAREA":"大崎","LANE":" ","ALLEY":" ","HOUSE_NO":"６號之２","E_COORD97":185477.87,"N_COORD97":2565645.2400000002,"ADDRESS":"大崎６號之２","OBJECTID":218097},"geometry":{"x":185477.87000000011,"y":2565645.2400000002}},{"attributes":{"ID":218099,"DIS_CODE":0,"TOWNNAME":"官田區","LI":"大崎里","LIN":"1鄰","STREET":" ","SECT":" ","MAREA":"大崎","LANE":" ","ALLEY":" ","HOUSE_NO":"６號","E_COORD97":185523.70000000001,"N_COORD97":2565624.7200000002,"ADDRESS":"大崎６號","OBJECTID":218098},"geometry":{"x":185523.70000000112,"y":2565624.7200000025}},{"attributes":{"ID":218100,"DIS_CODE":0,"TOWNNAME":"大內區","LI":"內江里","LIN":"13鄰","STREET":" ","SECT":" ","MAREA":"蒙正","LANE":" ","ALLEY":" ","HOUSE_NO":"１０號","E_COORD97":185667.44,"N_COORD97":2556157.25,"ADDRESS":"蒙正１０號","OBJECTID":218099},"geometry":{"x":185667.44000000041,"y":2556157.2500000019}},{"attributes":{"ID":218101,"DIS_CODE":0,"TOWNNAME":"大內區","LI":"二溪里","LIN":"4鄰","STREET":" ","SECT":" ","MAREA":"二重溪","LANE":" ","ALLEY":" ","HOUSE_NO":"１６９號之２","E_COORD97":187662.01000000001,"N_COORD97":2558107.3100000001,"ADDRESS":"二重溪１６９號之２","OBJECTID":218100},"geometry":{"x":187662.01000000164,"y":2558107.3100000024}},{"attributes":{"ID":218102,"DIS_CODE":0,"TOWNNAME":"大內區","LI":"二溪里","LIN":"8鄰","STREET":" ","SECT":" ","MAREA":"二重溪","LANE":" ","ALLEY":" ","HOUSE_NO":"２２１號之２","E_COORD97":188685.41,"N_COORD97":2560074.3100000001,"ADDRESS":"二重溪２２１號之２","OBJECTID":218101},"geometry":{"x":188685.41000000108,"y":2560074.3100000024}},{"attributes":{"ID":218103,"DIS_CODE":0,"TOWNNAME":"大內區","LI":"內江里","LIN":"7鄰","STREET":" ","SECT":" ","MAREA":"內庄","LANE":" ","ALLEY":" ","HOUSE_NO":"２９０號之２","E_COORD97":184477.35000000001,"N_COORD97":2557419.2999999998,"ADDRESS":"內庄２９０號之２","OBJECTID":218102},"geometry":{"x":184477.34999999963,"y":2557419.3000000026}},{"attributes":{"ID":218104,"DIS_CODE":0,"TOWNNAME":"大內區","LI":"內郭里","LIN":"7鄰","STREET":" ","SECT":" ","MAREA":"後堀","LANE":" ","ALLEY":" ","HOUSE_NO":"１１號之３","E_COORD97":185473.29000000001,"N_COORD97":2557503.3199999998,"ADDRESS":"後堀１１號之３","OBJECTID":218103},"geometry":{"x":185473.29000000004,"y":2557503.3200000022}},{"attributes":{"ID":218105,"DIS_CODE":0,"TOWNNAME":"大內區","LI":"內江里","LIN":"4鄰","STREET":" ","SECT":" ","MAREA":"內庄","LANE":" ","ALLEY":" ","HOUSE_NO":"２４９號之３","E_COORD97":184616.20999999999,"N_COORD97":2557367.2999999998,"ADDRESS":"內庄２４９號之３","OBJECTID":218104},"geometry":{"x":184616.21000000183,"y":2557367.2999999989}},{"attributes":{"ID":218106,"DIS_CODE":0,"TOWNNAME":"大內區","LI":"內江里","LIN":"4鄰","STREET":" ","SECT":" ","MAREA":"內庄","LANE":" ","ALLEY":" ","HOUSE_NO":"２４９號之１３","E_COORD97":184553.66,"N_COORD97":2557346.2999999998,"ADDRESS":"內庄２４９號之１３","OBJECTID":218105},"geometry":{"x":184553.66000000015,"y":2557346.3000000007}},{"attributes":{"ID":218107,"DIS_CODE":0,"TOWNNAME":"永康區","LI":"埔園里","LIN":"37鄰","STREET":"龍國街","SECT":" ","MAREA":" ","LANE":" ","ALLEY":" ","HOUSE_NO":"８９號","E_COORD97":174186.57999999999,"N_COORD97":2548089.6800000002,"ADDRESS":"龍國街８９號","OBJECTID":218106},"geometry":{"x":174186.57999999914,"y":2548089.6799999997}},{"attributes":{"ID":218108,"DIS_CODE":0,"TOWNNAME":"安南區","LI":"安慶里","LIN":"29鄰","STREET":"長溪路","SECT":"一段","MAREA":" ","LANE":"１４６巷","ALLEY":"３１弄","HOUSE_NO":"１４號","E_COORD97":169109.81,"N_COORD97":2548597.6000000001,"ADDRESS":"長溪路一段１４６巷３１弄１４號","OBJECTID":218107},"geometry":{"x":169109.81000000052,"y":2548597.6000000015}},{"attributes":{"ID":218109,"DIS_CODE":0,"TOWNNAME":"安南區","LI":"安慶里","LIN":"29鄰","STREET":"長溪路","SECT":"一段","MAREA":" ","LANE":"１４６巷","ALLEY":"３１弄","HOUSE_NO":"１５號","E_COORD97":169111.29999999999,"N_COORD97":2548602.3999999999,"ADDRESS":"長溪路一段１４６巷３１弄１５號","OBJECTID":218108},"geometry":{"x":169111.30000000168,"y":2548602.4000000041}},{"attributes":{"ID":218110,"DIS_CODE":0,"TOWNNAME":"安南區","LI":"安慶里","LIN":"29鄰","STREET":"長溪路","SECT":"一段","MAREA":" ","LANE":"１４６巷","ALLEY":"３１弄","HOUSE_NO":"１６號","E_COORD97":169111.84,"N_COORD97":2548607.5600000001,"ADDRESS":"長溪路一段１４６巷３１弄１６號","OBJECTID":218109},"geometry":{"x":169111.83999999985,"y":2548607.5600000005}},{"attributes":{"ID":218111,"DIS_CODE":0,"TOWNNAME":"永康區","LI":"埔園里","LIN":"37鄰","STREET":"龍國街","SECT":" ","MAREA":" ","LANE":" ","ALLEY":" ","HOUSE_NO":"１８５號","E_COORD97":174381.67999999999,"N_COORD97":2548090.3300000001,"ADDRESS":"龍國街１８５號","OBJECTID":218110},"geometry":{"x":174381.6799999997,"y":2548090.3299999982}},{"attributes":{"ID":218112,"DIS_CODE":0,"TOWNNAME":"安南區","LI":"安慶里","LIN":"29鄰","STREET":"長溪路","SECT":"一段","MAREA":" ","LANE":"１４６巷","ALLEY":"３１弄","HOUSE_NO":"１７號","E_COORD97":169113.20000000001,"N_COORD97":2548612.04,"ADDRESS":"長溪路一段１４６巷３１弄１７號","OBJECTID":218111},"geometry":{"x":169113.20000000019,"y":2548612.0399999991}},{"attributes":{"ID":218113,"DIS_CODE":0,"TOWNNAME":"大內區","LI":"大內里","LIN":"4鄰","STREET":" ","SECT":" ","MAREA":"內庄","LANE":" ","ALLEY":" ","HOUSE_NO":"４９號","E_COORD97":184561.82999999999,"N_COORD97":2557517.25,"ADDRESS":"內庄４９號","OBJECTID":218112},"geometry":{"x":184561.83000000101,"y":2557517.2500000019}},{"attributes":{"ID":218114,"DIS_CODE":0,"TOWNNAME":"佳里區","LI":"建南里","LIN":"37鄰","STREET":"四維二街","SECT":" ","MAREA":" ","LANE":" ","ALLEY":" ","HOUSE_NO":"１３０號","E_COORD97":165663.22,"N_COORD97":2561305.6699999999,"ADDRESS":"四維二街１３０號","OBJECTID":218113},"geometry":{"x":165663.21999999974,"y":2561305.6699999999}},{"attributes":{"ID":218115,"DIS_CODE":0,"TOWNNAME":"大內區","LI":"大內里","LIN":"4鄰","STREET":" ","SECT":" ","MAREA":"內庄","LANE":" ","ALLEY":" ","HOUSE_NO":"５２號","E_COORD97":184551.73000000001,"N_COORD97":2557525.25,"ADDRESS":"內庄５２號","OBJECTID":218114},"geometry":{"x":184551.73000000045,"y":2557525.25}},{"attributes":{"ID":218116,"DIS_CODE":0,"TOWNNAME":"大內區","LI":"內郭里","LIN":"4鄰","STREET":" ","SECT":" ","MAREA":"內庄","LANE":" ","ALLEY":" ","HOUSE_NO":"１７９號之２","E_COORD97":184718.04999999999,"N_COORD97":2557328.2999999998,"ADDRESS":"內庄１７９號之２","OBJECTID":218115},"geometry":{"x":184718.04999999981,"y":2557328.3000000026}},{"attributes":{"ID":218117,"DIS_CODE":0,"TOWNNAME":"大內區","LI":"石湖里","LIN":"8鄰","STREET":" ","SECT":" ","MAREA":"石子瀨","LANE":" ","ALLEY":" ","HOUSE_NO":"３０５之１１號","E_COORD97":183760.92000000001,"N_COORD97":2558676.2999999998,"ADDRESS":"石子瀨３０５之１１號","OBJECTID":218116},"geometry":{"x":183760.92000000086,"y":2558676.3000000045}},{"attributes":{"ID":218118,"DIS_CODE":0,"TOWNNAME":"大內區","LI":"內江里","LIN":"4鄰","STREET":" ","SECT":" ","MAREA":"內庄","LANE":" ","ALLEY":" ","HOUSE_NO":"２５６號","E_COORD97":184631.57999999999,"N_COORD97":2557433.25,"ADDRESS":"內庄２５６號","OBJECTID":218117},"geometry":{"x":184631.58000000101,"y":2557433.25}},{"attributes":{"ID":218119,"DIS_CODE":0,"TOWNNAME":"大內區","LI":"大內里","LIN":"13鄰","STREET":" ","SECT":" ","MAREA":"內庄","LANE":" ","ALLEY":" ","HOUSE_NO":"１３５號","E_COORD97":184792.57999999999,"N_COORD97":2557497.25,"ADDRESS":"內庄１３５號","OBJECTID":218118},"geometry":{"x":184792.58000000101,"y":2557497.2500000019}},{"attributes":{"ID":218120,"DIS_CODE":0,"TOWNNAME":"大內區","LI":"內江里","LIN":"7鄰","STREET":" ","SECT":" ","MAREA":"內庄","LANE":" ","ALLEY":" ","HOUSE_NO":"２８５號之１５","E_COORD97":184332.62,"N_COORD97":2557505.2999999998,"ADDRESS":"內庄２８５號之１５","OBJECTID":218119},"geometry":{"x":184332.62000000104,"y":2557505.3000000007}},{"attributes":{"ID":218121,"DIS_CODE":0,"TOWNNAME":"大內區","LI":"大內里","LIN":"7鄰","STREET":" ","SECT":" ","MAREA":"內庄","LANE":" ","ALLEY":" ","HOUSE_NO":"８３號之１","E_COORD97":184741.95999999999,"N_COORD97":2557588.2999999998,"ADDRESS":"內庄８３號之１","OBJECTID":218120},"geometry":{"x":184741.96000000089,"y":2557588.3000000026}},{"attributes":{"ID":218122,"DIS_CODE":0,"TOWNNAME":"大內區","LI":"大內里","LIN":"1鄰","STREET":" ","SECT":" ","MAREA":"內庄","LANE":" ","ALLEY":" ","HOUSE_NO":"１號之７５","E_COORD97":184282.01999999999,"N_COORD97":2557606.2999999998,"ADDRESS":"內庄１號之７５","OBJECTID":218121},"geometry":{"x":184282.02000000048,"y":2557606.3000000026}},{"attributes":{"ID":218123,"DIS_CODE":0,"TOWNNAME":"大內區","LI":"內江里","LIN":"4鄰","STREET":" ","SECT":" ","MAREA":"內庄","LANE":" ","ALLEY":" ","HOUSE_NO":"２４９號之８","E_COORD97":184592.56,"N_COORD97":2557360.2999999998,"ADDRESS":"內庄２４９號之８","OBJECTID":218122},"geometry":{"x":184592.55999999959,"y":2557360.3000000007}},{"attributes":{"ID":218124,"DIS_CODE":0,"TOWNNAME":"大內區","LI":"內江里","LIN":"4鄰","STREET":" ","SECT":" ","MAREA":"內庄","LANE":" ","ALLEY":" ","HOUSE_NO":"２４９號之１","E_COORD97":184624.10999999999,"N_COORD97":2557370.2999999998,"ADDRESS":"內庄２４９號之１","OBJECTID":218123},"geometry":{"x":184624.1100000022,"y":2557370.3000000007}},{"attributes":{"ID":218125,"DIS_CODE":0,"TOWNNAME":"大內區","LI":"內郭里","LIN":"4鄰","STREET":" ","SECT":" ","MAREA":"內庄","LANE":" ","ALLEY":" ","HOUSE_NO":"１８１號","E_COORD97":184745.57999999999,"N_COORD97":2557349.25,"ADDRESS":"內庄１８１號","OBJECTID":218124},"geometry":{"x":184745.58000000007,"y":2557349.25}},{"attributes":{"ID":218126,"DIS_CODE":0,"TOWNNAME":"大內區","LI":"內郭里","LIN":"4鄰","STREET":" ","SECT":" ","MAREA":"內庄","LANE":" ","ALLEY":" ","HOUSE_NO":"１８５號","E_COORD97":184772.67999999999,"N_COORD97":2557332.25,"ADDRESS":"內庄１８５號","OBJECTID":218125},"geometry":{"x":184772.68000000063,"y":2557332.25}},{"attributes":{"ID":218127,"DIS_CODE":0,"TOWNNAME":"大內區","LI":"內江里","LIN":"4鄰","STREET":" ","SECT":" ","MAREA":"內庄","LANE":" ","ALLEY":" ","HOUSE_NO":"２４９號之１２","E_COORD97":184575.70000000001,"N_COORD97":2557356.2999999998,"ADDRESS":"內庄２４９號之１２","OBJECTID":218126},"geometry":{"x":184575.69999999925,"y":2557356.3000000007}},{"attributes":{"ID":218128,"DIS_CODE":0,"TOWNNAME":"大內區","LI":"二溪里","LIN":"13鄰","STREET":" ","SECT":" ","MAREA":"其子瓦","LANE":" ","ALLEY":" ","HOUSE_NO":"３２號","E_COORD97":190573.12,"N_COORD97":2557936.25,"ADDRESS":"其子瓦３２號","OBJECTID":218127},"geometry":{"x":190573.12000000011,"y":2557936.25}},{"attributes":{"ID":218129,"DIS_CODE":0,"TOWNNAME":"大內區","LI":"石湖里","LIN":"8鄰","STREET":" ","SECT":" ","MAREA":"石子瀨","LANE":" ","ALLEY":" ","HOUSE_NO":"３０６號之２","E_COORD97":183759.54000000001,"N_COORD97":2558411.2999999998,"ADDRESS":"石子瀨３０６號之２","OBJECTID":218128},"geometry":{"x":183759.53999999911,"y":2558411.3000000007}},{"attributes":{"ID":218130,"DIS_CODE":0,"TOWNNAME":"大內區","LI":"二溪里","LIN":"8鄰","STREET":" ","SECT":" ","MAREA":"二重溪","LANE":" ","ALLEY":" ","HOUSE_NO":"２２２號","E_COORD97":188773.23999999999,"N_COORD97":2559987.3100000001,"ADDRESS":"二重溪２２２號","OBJECTID":218129},"geometry":{"x":188773.24000000115,"y":2559987.3100000005}},{"attributes":{"ID":218131,"DIS_CODE":0,"TOWNNAME":"大內區","LI":"內郭里","LIN":"7鄰","STREET":" ","SECT":" ","MAREA":"後堀","LANE":" ","ALLEY":" ","HOUSE_NO":"９號","E_COORD97":185584.51000000001,"N_COORD97":2557423.3199999998,"ADDRESS":"後堀９號","OBJECTID":218130},"geometry":{"x":185584.50999999978,"y":2557423.3200000003}},{"attributes":{"ID":218132,"DIS_CODE":0,"TOWNNAME":"大內區","LI":"內江里","LIN":"4鄰","STREET":" ","SECT":" ","MAREA":"內庄","LANE":" ","ALLEY":" ","HOUSE_NO":"２４９號之１６","E_COORD97":184543.37,"N_COORD97":2557359.2999999998,"ADDRESS":"內庄２４９號之１６","OBJECTID":218131},"geometry":{"x":184543.37000000011,"y":2557359.3000000007}},{"attributes":{"ID":218133,"DIS_CODE":0,"TOWNNAME":"大內區","LI":"大內里","LIN":"4鄰","STREET":" ","SECT":" ","MAREA":"內庄","LANE":" ","ALLEY":" ","HOUSE_NO":"５５號","E_COORD97":184543.73000000001,"N_COORD97":2557532.25,"ADDRESS":"內庄５５號","OBJECTID":218132},"geometry":{"x":184543.73000000231,"y":2557532.25}},{"attributes":{"ID":218134,"DIS_CODE":0,"TOWNNAME":"大內區","LI":"大內里","LIN":"4鄰","STREET":" ","SECT":" ","MAREA":"內庄","LANE":" ","ALLEY":" ","HOUSE_NO":"５８號之１","E_COORD97":184609.85999999999,"N_COORD97":2557553.2999999998,"ADDRESS":"內庄５８號之１","OBJECTID":218133},"geometry":{"x":184609.86000000034,"y":2557553.3000000007}},{"attributes":{"ID":218135,"DIS_CODE":0,"TOWNNAME":"大內區","LI":"內江里","LIN":"4鄰","STREET":" ","SECT":" ","MAREA":"內庄","LANE":" ","ALLEY":" ","HOUSE_NO":"２４９號之９","E_COORD97":184587.39999999999,"N_COORD97":2557359.2999999998,"ADDRESS":"內庄２４９號之９","OBJECTID":218134},"geometry":{"x":184587.40000000037,"y":2557359.3000000007}},{"attributes":{"ID":218136,"DIS_CODE":0,"TOWNNAME":"大內區","LI":"內江里","LIN":"4鄰","STREET":" ","SECT":" ","MAREA":"內庄","LANE":" ","ALLEY":" ","HOUSE_NO":"２４９號之６","E_COORD97":184603.32000000001,"N_COORD97":2557364.2999999998,"ADDRESS":"內庄２４９號之６","OBJECTID":218135},"geometry":{"x":184603.3200000003,"y":2557364.3000000045}},{"attributes":{"ID":218137,"DIS_CODE":0,"TOWNNAME":"大內區","LI":"大內里","LIN":"13鄰","STREET":" ","SECT":" ","MAREA":"內庄","LANE":" ","ALLEY":" ","HOUSE_NO":"１４３號","E_COORD97":184769.07999999999,"N_COORD97":2557436.25,"ADDRESS":"內庄１４３號","OBJECTID":218136},"geometry":{"x":184769.08000000007,"y":2557436.2500000019}},{"attributes":{"ID":218138,"DIS_CODE":0,"TOWNNAME":"大內區","LI":"內郭里","LIN":"4鄰","STREET":" ","SECT":" ","MAREA":"內庄","LANE":" ","ALLEY":" ","HOUSE_NO":"１８６號","E_COORD97":184782.57999999999,"N_COORD97":2557333.25,"ADDRESS":"內庄１８６號","OBJECTID":218137},"geometry":{"x":184782.58000000007,"y":2557333.2500000037}},{"attributes":{"ID":218139,"DIS_CODE":0,"TOWNNAME":"大內區","LI":"二溪里","LIN":"14鄰","STREET":" ","SECT":" ","MAREA":"其子瓦","LANE":" ","ALLEY":" ","HOUSE_NO":"３６號之１","E_COORD97":190513.64999999999,"N_COORD97":2557996.2999999998,"ADDRESS":"其子瓦３６號之１","OBJECTID":218138},"geometry":{"x":190513.6500000013,"y":2557996.3000000026}},{"attributes":{"ID":218140,"DIS_CODE":0,"TOWNNAME":"大內區","LI":"二溪里","LIN":"14鄰","STREET":" ","SECT":" ","MAREA":"其子瓦","LANE":" ","ALLEY":" ","HOUSE_NO":"４０號","E_COORD97":190555.01999999999,"N_COORD97":2558010.25,"ADDRESS":"其子瓦４０號","OBJECTID":218139},"geometry":{"x":190555.01999999955,"y":2558010.25}},{"attributes":{"ID":218141,"DIS_CODE":0,"TOWNNAME":"大內區","LI":"內郭里","LIN":"7鄰","STREET":" ","SECT":" ","MAREA":"後堀","LANE":" ","ALLEY":" ","HOUSE_NO":"６號","E_COORD97":185550.41,"N_COORD97":2557414.3199999998,"ADDRESS":"後堀６號","OBJECTID":218140},"geometry":{"x":185550.41000000015,"y":2557414.320000004}},{"attributes":{"ID":218142,"DIS_CODE":0,"TOWNNAME":"安南區","LI":"安慶里","LIN":"29鄰","STREET":"長溪路","SECT":"一段","MAREA":" ","LANE":"１４６巷","ALLEY":"３１弄","HOUSE_NO":"１８號","E_COORD97":169113.88,"N_COORD97":2548617.0600000001,"ADDRESS":"長溪路一段１４６巷３１弄１８號","OBJECTID":218141},"geometry":{"x":169113.87999999989,"y":2548617.0600000005}},{"attributes":{"ID":218143,"DIS_CODE":0,"TOWNNAME":"大內區","LI":"內江里","LIN":"4鄰","STREET":" ","SECT":" ","MAREA":"內庄","LANE":" ","ALLEY":" ","HOUSE_NO":"２４９號之５","E_COORD97":184607.97,"N_COORD97":2557365.2999999998,"ADDRESS":"內庄２４９號之５","OBJECTID":218142},"geometry":{"x":184607.97000000067,"y":2557365.3000000026}},{"attributes":{"ID":218144,"DIS_CODE":0,"TOWNNAME":"大內區","LI":"內江里","LIN":"5鄰","STREET":" ","SECT":" ","MAREA":"內庄","LANE":" ","ALLEY":" ","HOUSE_NO":"２６３號之７","E_COORD97":184603.39000000001,"N_COORD97":2557418.2999999998,"ADDRESS":"內庄２６３號之７","OBJECTID":218143},"geometry":{"x":184603.3900000006,"y":2557418.3000000045}},{"attributes":{"ID":218145,"DIS_CODE":0,"TOWNNAME":"大內區","LI":"內江里","LIN":"7鄰","STREET":" ","SECT":" ","MAREA":"內庄","LANE":" ","ALLEY":" ","HOUSE_NO":"２８５號之９","E_COORD97":184336.39999999999,"N_COORD97":2557518.2999999998,"ADDRESS":"內庄２８５號之９","OBJECTID":218144},"geometry":{"x":184336.4000000013,"y":2557518.3000000026}},{"attributes":{"ID":218146,"DIS_CODE":0,"TOWNNAME":"大內區","LI":"二溪里","LIN":"15鄰","STREET":" ","SECT":" ","MAREA":"其子瓦","LANE":" ","ALLEY":" ","HOUSE_NO":"５２號之２","E_COORD97":190691.48999999999,"N_COORD97":2557916.2999999998,"ADDRESS":"其子瓦５２號之２","OBJECTID":218145},"geometry":{"x":190691.49000000022,"y":2557916.3000000007}},{"attributes":{"ID":218147,"DIS_CODE":0,"TOWNNAME":"大內區","LI":"二溪里","LIN":"1鄰","STREET":" ","SECT":" ","MAREA":"二重溪","LANE":" ","ALLEY":" ","HOUSE_NO":"１２７號之５","E_COORD97":187550.23000000001,"N_COORD97":2557770.3100000001,"ADDRESS":"二重溪１２７號之５","OBJECTID":218146},"geometry":{"x":187550.23000000045,"y":2557770.3100000005}},{"attributes":{"ID":218148,"DIS_CODE":0,"TOWNNAME":"大內區","LI":"二溪里","LIN":"4鄰","STREET":" ","SECT":" ","MAREA":"二重溪","LANE":" ","ALLEY":" ","HOUSE_NO":"１７２號之１","E_COORD97":187691.48000000001,"N_COORD97":2558148.3100000001,"ADDRESS":"二重溪１７２號之１","OBJECTID":218147},"geometry":{"x":187691.48000000045,"y":2558148.3100000024}},{"attributes":{"ID":218149,"DIS_CODE":0,"TOWNNAME":"大內區","LI":"內江里","LIN":"4鄰","STREET":" ","SECT":" ","MAREA":"內庄","LANE":" ","ALLEY":" ","HOUSE_NO":"２５１號","E_COORD97":184652.88,"N_COORD97":2557401.25,"ADDRESS":"內庄２５１號","OBJECTID":218148},"geometry":{"x":184652.88000000082,"y":2557401.2500000037}},{"attributes":{"ID":218150,"DIS_CODE":0,"TOWNNAME":"大內區","LI":"二溪里","LIN":"4鄰","STREET":" ","SECT":" ","MAREA":"二重溪","LANE":" ","ALLEY":" ","HOUSE_NO":"１７７號","E_COORD97":187736.14000000001,"N_COORD97":2558142.3100000001,"ADDRESS":"二重溪１７７號","OBJECTID":218149},"geometry":{"x":187736.1400000006,"y":2558142.3100000005}},{"attributes":{"ID":218151,"DIS_CODE":0,"TOWNNAME":"大內區","LI":"二溪里","LIN":"4鄰","STREET":" ","SECT":" ","MAREA":"二重溪","LANE":" ","ALLEY":" ","HOUSE_NO":"１７６號","E_COORD97":187749.64000000001,"N_COORD97":2558154.3100000001,"ADDRESS":"二重溪１７６號","OBJECTID":218150},"geometry":{"x":187749.6400000006,"y":2558154.3100000024}},{"attributes":{"ID":218152,"DIS_CODE":0,"TOWNNAME":"大內區","LI":"大內里","LIN":"13鄰","STREET":" ","SECT":" ","MAREA":"內庄","LANE":" ","ALLEY":" ","HOUSE_NO":"１４６號之１","E_COORD97":184924.01000000001,"N_COORD97":2557582.2999999998,"ADDRESS":"內庄１４６號之１","OBJECTID":218151},"geometry":{"x":184924.00999999978,"y":2557582.3000000026}},{"attributes":{"ID":218153,"DIS_CODE":0,"TOWNNAME":"大內區","LI":"大內里","LIN":"5鄰","STREET":" ","SECT":" ","MAREA":"內庄","LANE":" ","ALLEY":" ","HOUSE_NO":"６４號","E_COORD97":184457.82999999999,"N_COORD97":2557633.25,"ADDRESS":"內庄６４號","OBJECTID":218152},"geometry":{"x":184457.83000000194,"y":2557633.25}},{"attributes":{"ID":218154,"DIS_CODE":0,"TOWNNAME":"大內區","LI":"大內里","LIN":"13鄰","STREET":" ","SECT":" ","MAREA":"內庄","LANE":" ","ALLEY":" ","HOUSE_NO":"１４３號之２","E_COORD97":184757.75,"N_COORD97":2557428.2999999998,"ADDRESS":"內庄１４３號之２","OBJECTID":218153},"geometry":{"x":184757.75,"y":2557428.2999999989}},{"attributes":{"ID":218155,"DIS_CODE":0,"TOWNNAME":"大內區","LI":"大內里","LIN":"13鄰","STREET":" ","SECT":" ","MAREA":"內庄","LANE":" ","ALLEY":" ","HOUSE_NO":"１３６號","E_COORD97":184787.07999999999,"N_COORD97":2557485.25,"ADDRESS":"內庄１３６號","OBJECTID":218154},"geometry":{"x":184787.08000000101,"y":2557485.25}},{"attributes":{"ID":218156,"DIS_CODE":0,"TOWNNAME":"大內區","LI":"內江里","LIN":"7鄰","STREET":" ","SECT":" ","MAREA":"內庄","LANE":" ","ALLEY":" ","HOUSE_NO":"２８５號之１４","E_COORD97":184339.29000000001,"N_COORD97":2557508.2999999998,"ADDRESS":"內庄２８５號之１４","OBJECTID":218155},"geometry":{"x":184339.28999999911,"y":2557508.3000000007}},{"attributes":{"ID":218157,"DIS_CODE":0,"TOWNNAME":"大內區","LI":"大內里","LIN":"7鄰","STREET":" ","SECT":" ","MAREA":"內庄","LANE":" ","ALLEY":" ","HOUSE_NO":"８６號","E_COORD97":184733.92999999999,"N_COORD97":2557584.25,"ADDRESS":"內庄８６號","OBJECTID":218156},"geometry":{"x":184733.93000000063,"y":2557584.2500000037}},{"attributes":{"ID":218158,"DIS_CODE":0,"TOWNNAME":"大內區","LI":"大內里","LIN":"7鄰","STREET":" ","SECT":" ","MAREA":"內庄","LANE":" ","ALLEY":" ","HOUSE_NO":"８６號之３","E_COORD97":184724.45999999999,"N_COORD97":2557570.2999999998,"ADDRESS":"內庄８６號之３","OBJECTID":218157},"geometry":{"x":184724.45999999996,"y":2557570.3000000007}},{"attributes":{"ID":218159,"DIS_CODE":0,"TOWNNAME":"大內區","LI":"石林里","LIN":"1鄰","STREET":" ","SECT":" ","MAREA":"石子瀨","LANE":" ","ALLEY":" ","HOUSE_NO":"１３２號","E_COORD97":183944.76999999999,"N_COORD97":2558071.25,"ADDRESS":"石子瀨１３２號","OBJECTID":218158},"geometry":{"x":183944.77000000048,"y":2558071.25}},{"attributes":{"ID":218160,"DIS_CODE":0,"TOWNNAME":"大內區","LI":"二溪里","LIN":"13鄰","STREET":" ","SECT":" ","MAREA":"其子瓦","LANE":" ","ALLEY":" ","HOUSE_NO":"３３號","E_COORD97":190566.51999999999,"N_COORD97":2557952.25,"ADDRESS":"其子瓦３３號","OBJECTID":218159},"geometry":{"x":190566.51999999955,"y":2557952.25}},{"attributes":{"ID":218161,"DIS_CODE":0,"TOWNNAME":"大內區","LI":"二溪里","LIN":"13鄰","STREET":" ","SECT":" ","MAREA":"其子瓦","LANE":" ","ALLEY":" ","HOUSE_NO":"３４號","E_COORD97":190548.12,"N_COORD97":2557945.25,"ADDRESS":"其子瓦３４號","OBJECTID":218160},"geometry":{"x":190548.12000000011,"y":2557945.25}},{"attributes":{"ID":218162,"DIS_CODE":0,"TOWNNAME":"大內區","LI":"大內里","LIN":"13鄰","STREET":" ","SECT":" ","MAREA":"內庄","LANE":" ","ALLEY":" ","HOUSE_NO":"１３６號之１","E_COORD97":184823.91,"N_COORD97":2557493.2999999998,"ADDRESS":"內庄１３６號之１","OBJECTID":218161},"geometry":{"x":184823.91000000108,"y":2557493.3000000026}},{"attributes":{"ID":218163,"DIS_CODE":0,"TOWNNAME":"大內區","LI":"石城里","LIN":"14鄰","STREET":" ","SECT":" ","MAREA":"石子瀨","LANE":" ","ALLEY":" ","HOUSE_NO":"１１２號之３８","E_COORD97":184032.79999999999,"N_COORD97":2557936.2999999998,"ADDRESS":"石子瀨１１２號之３８","OBJECTID":218162},"geometry":{"x":184032.80000000075,"y":2557936.3000000007}},{"attributes":{"ID":218164,"DIS_CODE":0,"TOWNNAME":"佳里區","LI":"建南里","LIN":"37鄰","STREET":"祥和三街","SECT":" ","MAREA":" ","LANE":" ","ALLEY":" ","HOUSE_NO":"２５２號","E_COORD97":165560.26999999999,"N_COORD97":2561246.8399999999,"ADDRESS":"祥和三街２５２號","OBJECTID":218163},"geometry":{"x":165560.27000000048,"y":2561246.8399999999}},{"attributes":{"ID":218165,"DIS_CODE":0,"TOWNNAME":"佳里區","LI":"建南里","LIN":"37鄰","STREET":"祥和三街","SECT":" ","MAREA":" ","LANE":" ","ALLEY":" ","HOUSE_NO":"２５４號","E_COORD97":165555.79000000001,"N_COORD97":2561246.75,"ADDRESS":"祥和三街２５４號","OBJECTID":218164},"geometry":{"x":165555.79000000097,"y":2561246.7500000019}},{"attributes":{"ID":218166,"DIS_CODE":0,"TOWNNAME":"安南區","LI":"安慶里","LIN":"29鄰","STREET":"長溪路","SECT":"一段","MAREA":" ","LANE":"１４６巷","ALLEY":"３１弄","HOUSE_NO":"１９號","E_COORD97":169114.95999999999,"N_COORD97":2548622.3500000001,"ADDRESS":"長溪路一段１４６巷３１弄１９號","OBJECTID":218165},"geometry":{"x":169114.95999999996,"y":2548622.3500000034}},{"attributes":{"ID":218167,"DIS_CODE":0,"TOWNNAME":"大內區","LI":"二溪里","LIN":"14鄰","STREET":" ","SECT":" ","MAREA":"其子瓦","LANE":" ","ALLEY":" ","HOUSE_NO":"４１號之１","E_COORD97":190578.85000000001,"N_COORD97":2558019.2999999998,"ADDRESS":"其子瓦４１號之１","OBJECTID":218166},"geometry":{"x":190578.85000000056,"y":2558019.3000000026}},{"attributes":{"ID":218168,"DIS_CODE":0,"TOWNNAME":"安南區","LI":"安慶里","LIN":"29鄰","STREET":"長溪路","SECT":"一段","MAREA":" ","LANE":"１４６巷","ALLEY":"３１弄","HOUSE_NO":"２０號","E_COORD97":169115.35000000001,"N_COORD97":2548627.3700000001,"ADDRESS":"長溪路一段１４６巷３１弄２０號","OBJECTID":218167},"geometry":{"x":169115.34999999963,"y":2548627.3700000029}},{"attributes":{"ID":218169,"DIS_CODE":0,"TOWNNAME":"安南區","LI":"安慶里","LIN":"29鄰","STREET":"長溪路","SECT":"一段","MAREA":" ","LANE":"１４６巷","ALLEY":"３１弄","HOUSE_NO":"３７號","E_COORD97":169132.66,"N_COORD97":2548602.21,"ADDRESS":"長溪路一段１４６巷３１弄３７號","OBJECTID":218168},"geometry":{"x":169132.66000000015,"y":2548602.2100000028}},{"attributes":{"ID":218170,"DIS_CODE":0,"TOWNNAME":"佳里區","LI":"建南里","LIN":"37鄰","STREET":"祥和三街","SECT":" ","MAREA":" ","LANE":" ","ALLEY":" ","HOUSE_NO":"２５６號","E_COORD97":165551.35000000001,"N_COORD97":2561246.98,"ADDRESS":"祥和三街２５６號","OBJECTID":218169},"geometry":{"x":165551.35000000056,"y":2561246.9800000004}},{"attributes":{"ID":218171,"DIS_CODE":0,"TOWNNAME":"安南區","LI":"安慶里","LIN":"29鄰","STREET":"長溪路","SECT":"一段","MAREA":" ","LANE":"１４６巷","ALLEY":"３１弄","HOUSE_NO":"３９號","E_COORD97":169138.54999999999,"N_COORD97":2548598.8100000001,"ADDRESS":"長溪路一段１４６巷３１弄３９號","OBJECTID":218170},"geometry":{"x":169138.55000000075,"y":2548598.8100000005}},{"attributes":{"ID":218172,"DIS_CODE":0,"TOWNNAME":"大內區","LI":"內江里","LIN":"8鄰","STREET":" ","SECT":" ","MAREA":"內庄","LANE":" ","ALLEY":" ","HOUSE_NO":"２９５號","E_COORD97":184488.38,"N_COORD97":2557303.25,"ADDRESS":"內庄２９５號","OBJECTID":218171},"geometry":{"x":184488.38000000082,"y":2557303.2500000019}},{"attributes":{"ID":218173,"DIS_CODE":0,"TOWNNAME":"安南區","LI":"安慶里","LIN":"29鄰","STREET":"長溪路","SECT":"一段","MAREA":" ","LANE":"１４６巷","ALLEY":"６３弄","HOUSE_NO":"１號","E_COORD97":169153.06,"N_COORD97":2548564.2999999998,"ADDRESS":"長溪路一段１４６巷６３弄１號","OBJECTID":218172},"geometry":{"x":169153.05999999959,"y":2548564.3000000026}},{"attributes":{"ID":218174,"DIS_CODE":0,"TOWNNAME":"安南區","LI":"安慶里","LIN":"29鄰","STREET":"長溪路","SECT":"一段","MAREA":" ","LANE":"１４６巷","ALLEY":"６３弄","HOUSE_NO":"２號","E_COORD97":169183.75,"N_COORD97":2548561.6200000001,"ADDRESS":"長溪路一段１４６巷６３弄２號","OBJECTID":218173},"geometry":{"x":169183.75000000093,"y":2548561.6200000029}},{"attributes":{"ID":218175,"DIS_CODE":0,"TOWNNAME":"大內區","LI":"內江里","LIN":"4鄰","STREET":" ","SECT":" ","MAREA":"內庄","LANE":" ","ALLEY":" ","HOUSE_NO":"２４９號之１４","E_COORD97":184549.89000000001,"N_COORD97":2557351.2999999998,"ADDRESS":"內庄２４９號之１４","OBJECTID":218174},"geometry":{"x":184549.88999999966,"y":2557351.3000000026}},{"attributes":{"ID":218176,"DIS_CODE":0,"TOWNNAME":"安南區","LI":"安慶里","LIN":"29鄰","STREET":"長溪路","SECT":"一段","MAREA":" ","LANE":"１４６巷","ALLEY":"６３弄","HOUSE_NO":"２號之１","E_COORD97":169184.26000000001,"N_COORD97":2548566.4700000002,"ADDRESS":"長溪路一段１４６巷６３弄２號之１","OBJECTID":218175},"geometry":{"x":169184.25999999885,"y":2548566.4700000025}},{"attributes":{"ID":218177,"DIS_CODE":0,"TOWNNAME":"安南區","LI":"安慶里","LIN":"29鄰","STREET":"長溪路","SECT":"一段","MAREA":" ","LANE":"１４６巷","ALLEY":"６３弄","HOUSE_NO":"３號","E_COORD97":169153.10999999999,"N_COORD97":2548568.96,"ADDRESS":"長溪路一段１４６巷６３弄３號","OBJECTID":218176},"geometry":{"x":169153.11000000034,"y":2548568.9600000028}},{"attributes":{"ID":218178,"DIS_CODE":0,"TOWNNAME":"大內區","LI":"大內里","LIN":"13鄰","STREET":" ","SECT":" ","MAREA":"內庄","LANE":" ","ALLEY":" ","HOUSE_NO":"１４５號","E_COORD97":184811.57999999999,"N_COORD97":2557445.25,"ADDRESS":"內庄１４５號","OBJECTID":218177},"geometry":{"x":184811.58000000007,"y":2557445.2500000037}},{"attributes":{"ID":218179,"DIS_CODE":0,"TOWNNAME":"安南區","LI":"安慶里","LIN":"29鄰","STREET":"安和路","SECT":"一段","MAREA":" ","LANE":"４５９巷","ALLEY":"３６弄","HOUSE_NO":"１９號之１１","E_COORD97":169190.66,"N_COORD97":2548575.8100000001,"ADDRESS":"安和路一段４５９巷３６弄１９號之１１","OBJECTID":218178},"geometry":{"x":169190.66000000108,"y":2548575.8099999987}},{"attributes":{"ID":218180,"DIS_CODE":0,"TOWNNAME":"安南區","LI":"安慶里","LIN":"29鄰","STREET":"安和路","SECT":"一段","MAREA":" ","LANE":"４５９巷","ALLEY":"３６弄","HOUSE_NO":"１９號之１２","E_COORD97":169185.47,"N_COORD97":2548576.0699999998,"ADDRESS":"安和路一段４５９巷３６弄１９號之１２","OBJECTID":218179},"geometry":{"x":169185.46999999974,"y":2548576.0700000003}},{"attributes":{"ID":218181,"DIS_CODE":0,"TOWNNAME":"大內區","LI":"二溪里","LIN":"13鄰","STREET":" ","SECT":" ","MAREA":"其子瓦","LANE":" ","ALLEY":" ","HOUSE_NO":"３１號","E_COORD97":190556.82000000001,"N_COORD97":2557934.25,"ADDRESS":"其子瓦３１號","OBJECTID":218180},"geometry":{"x":190556.8200000003,"y":2557934.2500000019}},{"attributes":{"ID":218182,"DIS_CODE":0,"TOWNNAME":"安南區","LI":"安慶里","LIN":"29鄰","STREET":"安和路","SECT":"一段","MAREA":" ","LANE":"４５９巷","ALLEY":"３６弄","HOUSE_NO":"１９號之１３","E_COORD97":169181.14000000001,"N_COORD97":2548576.7999999998,"ADDRESS":"安和路一段４５９巷３６弄１９號之１３","OBJECTID":218181},"geometry":{"x":169181.13999999966,"y":2548576.8000000026}},{"attributes":{"ID":218183,"DIS_CODE":0,"TOWNNAME":"安南區","LI":"安慶里","LIN":"29鄰","STREET":"安和路","SECT":"一段","MAREA":" ","LANE":"４５９巷","ALLEY":"３６弄","HOUSE_NO":"１９號之１４","E_COORD97":169175.75,"N_COORD97":2548577.2000000002,"ADDRESS":"安和路一段４５９巷３６弄１９號之１４","OBJECTID":218182},"geometry":{"x":169175.75,"y":2548577.1999999993}},{"attributes":{"ID":218184,"DIS_CODE":0,"TOWNNAME":"大內區","LI":"二溪里","LIN":"14鄰","STREET":" ","SECT":" ","MAREA":"其子瓦","LANE":" ","ALLEY":" ","HOUSE_NO":"３８號","E_COORD97":190505.32000000001,"N_COORD97":2558014.25,"ADDRESS":"其子瓦３８號","OBJECTID":218183},"geometry":{"x":190505.32000000123,"y":2558014.25}},{"attributes":{"ID":218185,"DIS_CODE":0,"TOWNNAME":"大內區","LI":"內郭里","LIN":"8鄰","STREET":" ","SECT":" ","MAREA":"後堀","LANE":" ","ALLEY":" ","HOUSE_NO":"２０之２號","E_COORD97":185706.56,"N_COORD97":2557490.3199999998,"ADDRESS":"後堀２０之２號","OBJECTID":218184},"geometry":{"x":185706.55999999959,"y":2557490.3200000022}},{"attributes":{"ID":218186,"DIS_CODE":0,"TOWNNAME":"大內區","LI":"二溪里","LIN":"4鄰","STREET":" ","SECT":" ","MAREA":"二重溪","LANE":" ","ALLEY":" ","HOUSE_NO":"１７１號","E_COORD97":187719.73999999999,"N_COORD97":2558133.3100000001,"ADDRESS":"二重溪１７１號","OBJECTID":218185},"geometry":{"x":187719.74000000022,"y":2558133.3099999987}},{"attributes":{"ID":218187,"DIS_CODE":0,"TOWNNAME":"安南區","LI":"安慶里","LIN":"29鄰","STREET":"安和路","SECT":"一段","MAREA":" ","LANE":"４５９巷","ALLEY":"３６弄","HOUSE_NO":"１９號之１５","E_COORD97":169170.79999999999,"N_COORD97":2548577.4700000002,"ADDRESS":"安和路一段４５９巷３６弄１９號之１５","OBJECTID":218186},"geometry":{"x":169170.80000000075,"y":2548577.4700000007}},{"attributes":{"ID":218188,"DIS_CODE":0,"TOWNNAME":"大內區","LI":"內江里","LIN":"4鄰","STREET":" ","SECT":" ","MAREA":"內庄","LANE":" ","ALLEY":" ","HOUSE_NO":"２４９號之１０","E_COORD97":184584.32000000001,"N_COORD97":2557358.2999999998,"ADDRESS":"內庄２４９號之１０","OBJECTID":218187},"geometry":{"x":184584.32000000123,"y":2557358.3000000026}},{"attributes":{"ID":218189,"DIS_CODE":0,"TOWNNAME":"大內區","LI":"二溪里","LIN":"14鄰","STREET":" ","SECT":" ","MAREA":"其子瓦","LANE":" ","ALLEY":" ","HOUSE_NO":"４６號","E_COORD97":190568.32000000001,"N_COORD97":2557971.25,"ADDRESS":"其子瓦４６號","OBJECTID":218188},"geometry":{"x":190568.32000000123,"y":2557971.2500000019}},{"attributes":{"ID":218190,"DIS_CODE":0,"TOWNNAME":"大內區","LI":"二溪里","LIN":"14鄰","STREET":" ","SECT":" ","MAREA":"其子瓦","LANE":" ","ALLEY":" ","HOUSE_NO":"３８之４號","E_COORD97":190598.42000000001,"N_COORD97":2557378.2999999998,"ADDRESS":"其子瓦３８之４號","OBJECTID":218189},"geometry":{"x":190598.41999999993,"y":2557378.3000000026}},{"attributes":{"ID":218191,"DIS_CODE":0,"TOWNNAME":"大內區","LI":"二溪里","LIN":"14鄰","STREET":" ","SECT":" ","MAREA":"其子瓦","LANE":" ","ALLEY":" ","HOUSE_NO":"４７號之１","E_COORD97":190607.45000000001,"N_COORD97":2557966.2999999998,"ADDRESS":"其子瓦４７號之１","OBJECTID":218190},"geometry":{"x":190607.45000000112,"y":2557966.3000000007}},{"attributes":{"ID":218192,"DIS_CODE":0,"TOWNNAME":"大內區","LI":"內江里","LIN":"7鄰","STREET":" ","SECT":" ","MAREA":"內庄","LANE":" ","ALLEY":" ","HOUSE_NO":"２８８號之２","E_COORD97":184112.54999999999,"N_COORD97":2557545.2999999998,"ADDRESS":"內庄２８８號之２","OBJECTID":218191},"geometry":{"x":184112.55000000075,"y":2557545.3000000026}},{"attributes":{"ID":218193,"DIS_CODE":0,"TOWNNAME":"大內區","LI":"大內里","LIN":"1鄰","STREET":" ","SECT":" ","MAREA":"內庄","LANE":" ","ALLEY":" ","HOUSE_NO":"１號之５６","E_COORD97":184296.07000000001,"N_COORD97":2557549.2999999998,"ADDRESS":"內庄１號之５６","OBJECTID":218192},"geometry":{"x":184296.07000000123,"y":2557549.3000000007}},{"attributes":{"ID":218194,"DIS_CODE":0,"TOWNNAME":"大內區","LI":"大內里","LIN":"1鄰","STREET":" ","SECT":" ","MAREA":"內庄","LANE":" ","ALLEY":" ","HOUSE_NO":"２號之１２","E_COORD97":184351.29999999999,"N_COORD97":2557656.2999999998,"ADDRESS":"內庄２號之１２","OBJECTID":218193},"geometry":{"x":184351.30000000075,"y":2557656.3000000026}},{"attributes":{"ID":218195,"DIS_CODE":0,"TOWNNAME":"善化區","LI":"坐駕里","LIN":"24鄰","STREET":" ","SECT":" ","MAREA":"坐駕","LANE":" ","ALLEY":" ","HOUSE_NO":"２７號之１","E_COORD97":178676.10999999999,"N_COORD97":2558006.27,"ADDRESS":"坐駕２７號之１","OBJECTID":218194},"geometry":{"x":178676.11000000127,"y":2558006.2699999996}},{"attributes":{"ID":218196,"DIS_CODE":0,"TOWNNAME":"安南區","LI":"安慶里","LIN":"29鄰","STREET":"安和路","SECT":"一段","MAREA":" ","LANE":"４５９巷","ALLEY":"３６弄","HOUSE_NO":"１９號之１６","E_COORD97":169165.88,"N_COORD97":2548577.4700000002,"ADDRESS":"安和路一段４５９巷３６弄１９號之１６","OBJECTID":218195},"geometry":{"x":169165.87999999989,"y":2548577.4700000007}},{"attributes":{"ID":218197,"DIS_CODE":0,"TOWNNAME":"善化區","LI":"光文里","LIN":"4鄰","STREET":" ","SECT":" ","MAREA":"北子店","LANE":" ","ALLEY":" ","HOUSE_NO":"１５８號","E_COORD97":179425.29000000001,"N_COORD97":2559633.5,"ADDRESS":"北子店１５８號","OBJECTID":218196},"geometry":{"x":179425.29000000097,"y":2559633.5000000037}},{"attributes":{"ID":218198,"DIS_CODE":0,"TOWNNAME":"善化區","LI":"坐駕里","LIN":"20鄰","STREET":" ","SECT":" ","MAREA":"坐駕","LANE":" ","ALLEY":" ","HOUSE_NO":"７５號","E_COORD97":178275.48999999999,"N_COORD97":2558373.5,"ADDRESS":"坐駕７５號","OBJECTID":218197},"geometry":{"x":178275.49000000022,"y":2558373.5000000019}},{"attributes":{"ID":218199,"DIS_CODE":0,"TOWNNAME":"善化區","LI":"田寮里","LIN":"13鄰","STREET":" ","SECT":" ","MAREA":"六分寮","LANE":" ","ALLEY":" ","HOUSE_NO":"１４０號之３","E_COORD97":178659.14999999999,"N_COORD97":2561307.02,"ADDRESS":"六分寮１４０號之３","OBJECTID":218198},"geometry":{"x":178659.1500000013,"y":2561307.0199999996}},{"attributes":{"ID":218200,"DIS_CODE":0,"TOWNNAME":"安南區","LI":"安慶里","LIN":"29鄰","STREET":"安和路","SECT":"一段","MAREA":" ","LANE":"４５９巷","ALLEY":"３６弄","HOUSE_NO":"１９號之１７","E_COORD97":169161.09,"N_COORD97":2548577.6699999999,"ADDRESS":"安和路一段４５９巷３６弄１９號之１７","OBJECTID":218199},"geometry":{"x":169161.08999999985,"y":2548577.6700000018}},{"attributes":{"ID":218201,"DIS_CODE":0,"TOWNNAME":"安南區","LI":"安慶里","LIN":"29鄰","STREET":"安和路","SECT":"一段","MAREA":" ","LANE":"４５９巷","ALLEY":"３６弄","HOUSE_NO":"１９號之１８","E_COORD97":169155.89999999999,"N_COORD97":2548578,"ADDRESS":"安和路一段４５９巷３６弄１９號之１８","OBJECTID":218200},"geometry":{"x":169155.9000000013,"y":2548578.0000000019}}]}