{"displayFieldName":"TOWNNAME","fieldAliases":{"ID":"ID","DIS_CODE":"DIS_CODE","TOWNNAME":"TOWNNAME","LI":"LI","LIN":"LIN","STREET":"STREET","SECT":"SECT","MAREA":"MAREA","LANE":"LANE","ALLEY":"ALLEY","HOUSE_NO":"HOUSE_NO","E_COORD97":"E_COORD97","N_COORD97":"N_COORD97","ADDRESS":"ADDRESS","OBJECTID":"OBJECTID"},"geometryType":"esriGeometryPoint","spatialReference":{"wkid":102443,"latestWkid":3826},"fields":[{"name":"ID","type":"esriFieldTypeDouble","alias":"ID"},{"name":"DIS_CODE","type":"esriFieldTypeInteger","alias":"DIS_CODE"},{"name":"TOWNNAME","type":"esriFieldTypeString","alias":"TOWNNAME","length":8},{"name":"LI","type":"esriFieldTypeString","alias":"LI","length":8},{"name":"LIN","type":"esriFieldTypeString","alias":"LIN","length":12},{"name":"STREET","type":"esriFieldTypeString","alias":"STREET","length":20},{"name":"SECT","type":"esriFieldTypeString","alias":"SECT","length":8},{"name":"MAREA","type":"esriFieldTypeString","alias":"MAREA","length":12},{"name":"LANE","type":"esriFieldTypeString","alias":"LANE","length":10},{"name":"ALLEY","type":"esriFieldTypeString","alias":"ALLEY","length":10},{"name":"HOUSE_NO","type":"esriFieldTypeString","alias":"HOUSE_NO","length":20},{"name":"E_COORD97","type":"esriFieldTypeDouble","alias":"E_COORD97"},{"name":"N_COORD97","type":"esriFieldTypeDouble","alias":"N_COORD97"},{"name":"ADDRESS","type":"esriFieldTypeString","alias":"ADDRESS","length":50},{"name":"OBJECTID","type":"esriFieldTypeOID","alias":"OBJECTID"}],"features":[{"attributes":{"ID":151002,"DIS_CODE":0,"TOWNNAME":"永康區","LI":"六合里","LIN":"3鄰","STREET":"新興街","SECT":" ","MAREA":" ","LANE":"３５巷","ALLEY":"１５弄","HOUSE_NO":"４號二樓","E_COORD97":170999.42999999999,"N_COORD97":2545860,"ADDRESS":"新興街３５巷１５弄４號二樓","OBJECTID":151001},"geometry":{"x":170999.43000000063,"y":2545860.0000000019}},{"attributes":{"ID":151003,"DIS_CODE":0,"TOWNNAME":"東區","LI":"新東里","LIN":"3鄰","STREET":"裕農路","SECT":" ","MAREA":" ","LANE":"４３巷","ALLEY":"２９弄","HOUSE_NO":"３號二樓","E_COORD97":170596.89000000001,"N_COORD97":2542981.8399999999,"ADDRESS":"裕農路４３巷２９弄３號二樓","OBJECTID":151002},"geometry":{"x":170596.88999999966,"y":2542981.8400000017}},{"attributes":{"ID":151004,"DIS_CODE":0,"TOWNNAME":"永康區","LI":"六合里","LIN":"3鄰","STREET":"新興街","SECT":" ","MAREA":" ","LANE":"３５巷","ALLEY":"１５弄","HOUSE_NO":"２號四樓之３","E_COORD97":171005.89000000001,"N_COORD97":2545852.29,"ADDRESS":"新興街３５巷１５弄２號四樓之３","OBJECTID":151003},"geometry":{"x":171005.8900000006,"y":2545852.2900000028}},{"attributes":{"ID":151005,"DIS_CODE":0,"TOWNNAME":"安定區","LI":"六嘉里","LIN":"5鄰","STREET":" ","SECT":" ","MAREA":"六塊寮","LANE":" ","ALLEY":" ","HOUSE_NO":"４１號之１","E_COORD97":170312.95000000001,"N_COORD97":2553444.2999999998,"ADDRESS":"六塊寮４１號之１","OBJECTID":151004},"geometry":{"x":170312.95000000112,"y":2553444.3000000007}},{"attributes":{"ID":151006,"DIS_CODE":0,"TOWNNAME":"永康區","LI":"六合里","LIN":"3鄰","STREET":"新興街","SECT":" ","MAREA":" ","LANE":"３５巷","ALLEY":"１５弄","HOUSE_NO":"２號六樓之２","E_COORD97":171005.92999999999,"N_COORD97":2545852.29,"ADDRESS":"新興街３５巷１５弄２號六樓之２","OBJECTID":151005},"geometry":{"x":171005.93000000063,"y":2545852.2900000028}},{"attributes":{"ID":151007,"DIS_CODE":0,"TOWNNAME":"永康區","LI":"六合里","LIN":"3鄰","STREET":"新興街","SECT":" ","MAREA":" ","LANE":"３５巷","ALLEY":"１５弄","HOUSE_NO":"４號四樓","E_COORD97":170999.42999999999,"N_COORD97":2545860,"ADDRESS":"新興街３５巷１５弄４號四樓","OBJECTID":151006},"geometry":{"x":170999.43000000063,"y":2545860.0000000019}},{"attributes":{"ID":151008,"DIS_CODE":0,"TOWNNAME":"東區","LI":"虎尾里","LIN":" ","STREET":"富農街","SECT":"一段","MAREA":" ","LANE":" ","ALLEY":" ","HOUSE_NO":"３１之１號","E_COORD97":171505.64000000001,"N_COORD97":2542191.6899999999,"ADDRESS":"富農街一段３１之１號","OBJECTID":151007},"geometry":{"x":171505.63999999873,"y":2542191.6900000032}},{"attributes":{"ID":151009,"DIS_CODE":0,"TOWNNAME":"新營區","LI":"太南里","LIN":"19鄰","STREET":" ","SECT":" ","MAREA":"太子宮","LANE":" ","ALLEY":" ","HOUSE_NO":"３１２之１８號","E_COORD97":176025.14000000001,"N_COORD97":2576555.5,"ADDRESS":"太子宮３１２之１８號","OBJECTID":151008},"geometry":{"x":176025.14000000153,"y":2576555.5000000019}},{"attributes":{"ID":151010,"DIS_CODE":0,"TOWNNAME":"新營區","LI":"太北里","LIN":"19鄰","STREET":" ","SECT":" ","MAREA":"太子宮","LANE":" ","ALLEY":" ","HOUSE_NO":"４４號之３２","E_COORD97":175689.14000000001,"N_COORD97":2577578.2400000002,"ADDRESS":"太子宮４４號之３２","OBJECTID":151009},"geometry":{"x":175689.13999999966,"y":2577578.2400000021}},{"attributes":{"ID":151011,"DIS_CODE":0,"TOWNNAME":"新營區","LI":"太南里","LIN":"19鄰","STREET":" ","SECT":" ","MAREA":"太子宮","LANE":" ","ALLEY":" ","HOUSE_NO":"３１３之５號","E_COORD97":175922.42999999999,"N_COORD97":2576722.1200000001,"ADDRESS":"太子宮３１３之５號","OBJECTID":151010},"geometry":{"x":175922.4299999997,"y":2576722.1200000029}},{"attributes":{"ID":151012,"DIS_CODE":0,"TOWNNAME":"新營區","LI":"太南里","LIN":"19鄰","STREET":" ","SECT":" ","MAREA":"太子宮","LANE":" ","ALLEY":" ","HOUSE_NO":"３１３之１６號","E_COORD97":175903.09,"N_COORD97":2576492.98,"ADDRESS":"太子宮３１３之１６號","OBJECTID":151011},"geometry":{"x":175903.08999999985,"y":2576492.9800000004}},{"attributes":{"ID":151013,"DIS_CODE":0,"TOWNNAME":"安定區","LI":"南安里","LIN":"5鄰","STREET":" ","SECT":" ","MAREA":"油車","LANE":" ","ALLEY":" ","HOUSE_NO":"５２之１號","E_COORD97":170623.28,"N_COORD97":2555619.2999999998,"ADDRESS":"油車５２號之１","OBJECTID":151012},"geometry":{"x":170623.28000000026,"y":2555619.3000000026}},{"attributes":{"ID":151014,"DIS_CODE":0,"TOWNNAME":"安定區","LI":"蘇厝里","LIN":"5鄰","STREET":" ","SECT":" ","MAREA":"蘇厝","LANE":" ","ALLEY":" ","HOUSE_NO":"３２１號","E_COORD97":173123.12,"N_COORD97":2558608.25,"ADDRESS":"蘇厝３２１號","OBJECTID":151013},"geometry":{"x":173123.12000000011,"y":2558608.2500000019}},{"attributes":{"ID":151015,"DIS_CODE":0,"TOWNNAME":"永康區","LI":"六合里","LIN":"3鄰","STREET":"新興街","SECT":" ","MAREA":" ","LANE":"３５巷","ALLEY":"１５弄","HOUSE_NO":"２號四樓之１","E_COORD97":171005.79000000001,"N_COORD97":2545852.29,"ADDRESS":"新興街３５巷１５弄２號四樓之１","OBJECTID":151014},"geometry":{"x":171005.79000000097,"y":2545852.2900000028}},{"attributes":{"ID":151016,"DIS_CODE":0,"TOWNNAME":"新化區","LI":"豐榮里","LIN":"10鄰","STREET":"正新路","SECT":" ","MAREA":" ","LANE":"２１７巷","ALLEY":"３２弄","HOUSE_NO":"１號","E_COORD97":178482.57000000001,"N_COORD97":2548384.25,"ADDRESS":"正新路２１７巷３２弄１號","OBJECTID":151015},"geometry":{"x":178482.57000000216,"y":2548384.2500000019}},{"attributes":{"ID":151017,"DIS_CODE":0,"TOWNNAME":"東區","LI":"東安里","LIN":"3鄰","STREET":"長榮路","SECT":"二段","MAREA":" ","LANE":"２４巷","ALLEY":"４８弄","HOUSE_NO":"５號五樓","E_COORD97":170032.29999999999,"N_COORD97":2543039.4900000002,"ADDRESS":"長榮路二段２４巷４８弄５號五樓","OBJECTID":151016},"geometry":{"x":170032.30000000075,"y":2543039.4900000021}},{"attributes":{"ID":151018,"DIS_CODE":0,"TOWNNAME":"東區","LI":"東安里","LIN":"3鄰","STREET":"長榮路","SECT":"二段","MAREA":" ","LANE":"２４巷","ALLEY":"４８弄","HOUSE_NO":"５號四樓","E_COORD97":170032.29999999999,"N_COORD97":2543039.4900000002,"ADDRESS":"長榮路二段２４巷４８弄５號四樓","OBJECTID":151017},"geometry":{"x":170032.30000000075,"y":2543039.4900000021}},{"attributes":{"ID":151019,"DIS_CODE":0,"TOWNNAME":"東區","LI":"東安里","LIN":"3鄰","STREET":"長榮路","SECT":"二段","MAREA":" ","LANE":"２４巷","ALLEY":"４８弄","HOUSE_NO":"３號四樓","E_COORD97":170024.31,"N_COORD97":2543031.6200000001,"ADDRESS":"長榮路二段２４巷４８弄３號四樓","OBJECTID":151018},"geometry":{"x":170024.30999999959,"y":2543031.6200000029}},{"attributes":{"ID":151020,"DIS_CODE":0,"TOWNNAME":"東區","LI":"東安里","LIN":"3鄰","STREET":"長榮路","SECT":"二段","MAREA":" ","LANE":"２４巷","ALLEY":"４８弄","HOUSE_NO":"１號四樓","E_COORD97":170017.42999999999,"N_COORD97":2543040.1000000001,"ADDRESS":"長榮路二段２４巷４８弄１號四樓","OBJECTID":151019},"geometry":{"x":170017.43000000063,"y":2543040.1000000034}},{"attributes":{"ID":151021,"DIS_CODE":0,"TOWNNAME":"學甲區","LI":"三慶里","LIN":"19鄰","STREET":" ","SECT":" ","MAREA":"紅茄","LANE":" ","ALLEY":" ","HOUSE_NO":"４６號","E_COORD97":167458.67999999999,"N_COORD97":2575764.77,"ADDRESS":"紅茄４６號","OBJECTID":151020},"geometry":{"x":167458.6799999997,"y":2575764.7699999996}},{"attributes":{"ID":151022,"DIS_CODE":0,"TOWNNAME":"東區","LI":"東安里","LIN":"3鄰","STREET":"長榮路","SECT":"二段","MAREA":" ","LANE":"２４巷","ALLEY":"４８弄","HOUSE_NO":"１號五樓","E_COORD97":170017.42999999999,"N_COORD97":2543040.1000000001,"ADDRESS":"長榮路二段２４巷４８弄１號五樓","OBJECTID":151021},"geometry":{"x":170017.43000000063,"y":2543040.1000000034}},{"attributes":{"ID":151023,"DIS_CODE":0,"TOWNNAME":"東區","LI":"東安里","LIN":"3鄰","STREET":"長榮路","SECT":"二段","MAREA":" ","LANE":"２４巷","ALLEY":"４８弄","HOUSE_NO":"１號二樓","E_COORD97":170017.42999999999,"N_COORD97":2543040.1000000001,"ADDRESS":"長榮路二段２４巷４８弄１號二樓","OBJECTID":151022},"geometry":{"x":170017.43000000063,"y":2543040.1000000034}},{"attributes":{"ID":151024,"DIS_CODE":0,"TOWNNAME":"東區","LI":"東安里","LIN":"3鄰","STREET":"長榮路","SECT":"二段","MAREA":" ","LANE":"２４巷","ALLEY":"４８弄","HOUSE_NO":"１號三樓","E_COORD97":170017.42999999999,"N_COORD97":2543040.1000000001,"ADDRESS":"長榮路二段２４巷４８弄１號三樓","OBJECTID":151023},"geometry":{"x":170017.43000000063,"y":2543040.1000000034}},{"attributes":{"ID":151025,"DIS_CODE":0,"TOWNNAME":"東區","LI":"東安里","LIN":"3鄰","STREET":"長榮路","SECT":"二段","MAREA":" ","LANE":"２４巷","ALLEY":"４８弄","HOUSE_NO":"２號二樓","E_COORD97":170018,"N_COORD97":2543033.8799999999,"ADDRESS":"長榮路二段２４巷４８弄２號二樓","OBJECTID":151024},"geometry":{"x":170018,"y":2543033.8800000027}},{"attributes":{"ID":151026,"DIS_CODE":0,"TOWNNAME":"東區","LI":"東安里","LIN":"3鄰","STREET":"長榮路","SECT":"二段","MAREA":" ","LANE":"２４巷","ALLEY":"４８弄","HOUSE_NO":"２號三樓","E_COORD97":170018,"N_COORD97":2543033.8799999999,"ADDRESS":"長榮路二段２４巷４８弄２號三樓","OBJECTID":151025},"geometry":{"x":170018,"y":2543033.8800000027}},{"attributes":{"ID":151027,"DIS_CODE":0,"TOWNNAME":"安定區","LI":"港南里","LIN":"5鄰","STREET":" ","SECT":" ","MAREA":"港口","LANE":" ","ALLEY":" ","HOUSE_NO":"３８之２號","E_COORD97":171548.84,"N_COORD97":2554242.2999999998,"ADDRESS":"港口３８之２號","OBJECTID":151026},"geometry":{"x":171548.84000000078,"y":2554242.3000000026}},{"attributes":{"ID":151028,"DIS_CODE":0,"TOWNNAME":"東區","LI":"東安里","LIN":"3鄰","STREET":"長榮路","SECT":"二段","MAREA":" ","LANE":"２４巷","ALLEY":"４８弄","HOUSE_NO":"２號五樓","E_COORD97":170018,"N_COORD97":2543033.8799999999,"ADDRESS":"長榮路二段２４巷４８弄２號五樓","OBJECTID":151027},"geometry":{"x":170018,"y":2543033.8800000027}},{"attributes":{"ID":151029,"DIS_CODE":0,"TOWNNAME":"歸仁區","LI":"新厝里","LIN":"19鄰","STREET":"大成六街","SECT":" ","MAREA":" ","LANE":" ","ALLEY":" ","HOUSE_NO":"２８號","E_COORD97":177601.64000000001,"N_COORD97":2540303.1800000002,"ADDRESS":"大成六街２８號","OBJECTID":151028},"geometry":{"x":177601.64000000153,"y":2540303.1799999997}},{"attributes":{"ID":151030,"DIS_CODE":0,"TOWNNAME":"安定區","LI":"蘇林里","LIN":"5鄰","STREET":" ","SECT":" ","MAREA":"蘇厝","LANE":" ","ALLEY":" ","HOUSE_NO":"５８之５號","E_COORD97":173520.76999999999,"N_COORD97":2558774.2999999998,"ADDRESS":"蘇厝５８之５號","OBJECTID":151029},"geometry":{"x":173520.77000000048,"y":2558774.2999999989}},{"attributes":{"ID":151031,"DIS_CODE":0,"TOWNNAME":"安定區","LI":"蘇厝里","LIN":"5鄰","STREET":" ","SECT":" ","MAREA":"蘇厝","LANE":" ","ALLEY":" ","HOUSE_NO":"３１７號","E_COORD97":173173.92000000001,"N_COORD97":2558558.25,"ADDRESS":"蘇厝３１７號","OBJECTID":151030},"geometry":{"x":173173.92000000179,"y":2558558.2500000019}},{"attributes":{"ID":151032,"DIS_CODE":0,"TOWNNAME":"東區","LI":"東安里","LIN":"3鄰","STREET":"長榮路","SECT":"二段","MAREA":" ","LANE":"２４巷","ALLEY":"４８弄","HOUSE_NO":"２號四樓","E_COORD97":170018,"N_COORD97":2543033.8799999999,"ADDRESS":"長榮路二段２４巷４８弄２號四樓","OBJECTID":151031},"geometry":{"x":170018,"y":2543033.8800000027}},{"attributes":{"ID":151033,"DIS_CODE":0,"TOWNNAME":"安定區","LI":"南安里","LIN":"5鄰","STREET":" ","SECT":" ","MAREA":"油車","LANE":" ","ALLEY":" ","HOUSE_NO":"５９號","E_COORD97":170549.44,"N_COORD97":2555509.25,"ADDRESS":"油車５９號","OBJECTID":151032},"geometry":{"x":170549.44000000041,"y":2555509.2500000037}},{"attributes":{"ID":151034,"DIS_CODE":0,"TOWNNAME":"安定區","LI":"六嘉里","LIN":"5鄰","STREET":" ","SECT":" ","MAREA":"六塊寮","LANE":" ","ALLEY":" ","HOUSE_NO":"３３號之８","E_COORD97":170204,"N_COORD97":2553420.2999999998,"ADDRESS":"六塊寮３３號之８","OBJECTID":151033},"geometry":{"x":170204.00000000093,"y":2553420.3000000007}},{"attributes":{"ID":151035,"DIS_CODE":0,"TOWNNAME":"安定區","LI":"蘇林里","LIN":"5鄰","STREET":" ","SECT":" ","MAREA":"蘇厝","LANE":" ","ALLEY":" ","HOUSE_NO":"５７號","E_COORD97":173498.87,"N_COORD97":2558787.25,"ADDRESS":"蘇厝５７號","OBJECTID":151034},"geometry":{"x":173498.87000000104,"y":2558787.25}},{"attributes":{"ID":151036,"DIS_CODE":0,"TOWNNAME":"安定區","LI":"中沙里","LIN":"5鄰","STREET":" ","SECT":" ","MAREA":"沙崙","LANE":" ","ALLEY":" ","HOUSE_NO":"５４號","E_COORD97":168981.37,"N_COORD97":2552582.29,"ADDRESS":"沙崙５４號","OBJECTID":151035},"geometry":{"x":168981.37000000104,"y":2552582.2900000028}},{"attributes":{"ID":151037,"DIS_CODE":0,"TOWNNAME":"歸仁區","LI":"歸仁里","LIN":"19鄰","STREET":"大仁一街","SECT":" ","MAREA":" ","LANE":" ","ALLEY":" ","HOUSE_NO":"３０號","E_COORD97":178161.23999999999,"N_COORD97":2541093.1099999999,"ADDRESS":"大仁一街３０號","OBJECTID":151036},"geometry":{"x":178161.24000000115,"y":2541093.1099999994}},{"attributes":{"ID":151038,"DIS_CODE":0,"TOWNNAME":"歸仁區","LI":"南保里","LIN":"19鄰","STREET":"民權北路","SECT":" ","MAREA":" ","LANE":" ","ALLEY":" ","HOUSE_NO":"１０７號","E_COORD97":176999.73999999999,"N_COORD97":2541129.29,"ADDRESS":"民權北路１０７號","OBJECTID":151037},"geometry":{"x":176999.74000000209,"y":2541129.2900000028}},{"attributes":{"ID":151039,"DIS_CODE":0,"TOWNNAME":"歸仁區","LI":"崙頂里","LIN":"19鄰","STREET":"大成一街","SECT":" ","MAREA":" ","LANE":" ","ALLEY":" ","HOUSE_NO":"９號","E_COORD97":177800.82999999999,"N_COORD97":2540202.98,"ADDRESS":"大成一街９號","OBJECTID":151038},"geometry":{"x":177800.83000000194,"y":2540202.9800000004}},{"attributes":{"ID":151040,"DIS_CODE":0,"TOWNNAME":"安定區","LI":"蘇厝里","LIN":"5鄰","STREET":" ","SECT":" ","MAREA":"蘇厝","LANE":" ","ALLEY":" ","HOUSE_NO":"３１５號","E_COORD97":173151.22,"N_COORD97":2558587.25,"ADDRESS":"蘇厝３１５號","OBJECTID":151039},"geometry":{"x":173151.21999999881,"y":2558587.25}},{"attributes":{"ID":151041,"DIS_CODE":0,"TOWNNAME":"安定區","LI":"蘇厝里","LIN":"5鄰","STREET":" ","SECT":" ","MAREA":"蘇厝","LANE":" ","ALLEY":" ","HOUSE_NO":"３１９號","E_COORD97":173130.42000000001,"N_COORD97":2558586.25,"ADDRESS":"蘇厝３１９號","OBJECTID":151040},"geometry":{"x":173130.42000000086,"y":2558586.25}},{"attributes":{"ID":151042,"DIS_CODE":0,"TOWNNAME":"安定區","LI":"六嘉里","LIN":"5鄰","STREET":" ","SECT":" ","MAREA":"六塊寮","LANE":" ","ALLEY":" ","HOUSE_NO":"３３號之１","E_COORD97":170150.14999999999,"N_COORD97":2553445.2999999998,"ADDRESS":"六塊寮３３號之１","OBJECTID":151041},"geometry":{"x":170150.14999999944,"y":2553445.3000000026}},{"attributes":{"ID":151043,"DIS_CODE":0,"TOWNNAME":"安定區","LI":"中沙里","LIN":"5鄰","STREET":" ","SECT":" ","MAREA":"沙崙","LANE":" ","ALLEY":" ","HOUSE_NO":"３２之２號","E_COORD97":168907.97,"N_COORD97":2552452.2999999998,"ADDRESS":"沙崙３２之２號","OBJECTID":151042},"geometry":{"x":168907.96999999974,"y":2552452.3000000026}},{"attributes":{"ID":151044,"DIS_CODE":0,"TOWNNAME":"安定區","LI":"蘇林里","LIN":"5鄰","STREET":" ","SECT":" ","MAREA":"蘇厝","LANE":" ","ALLEY":" ","HOUSE_NO":"５８之２號","E_COORD97":173526.17000000001,"N_COORD97":2558754.2999999998,"ADDRESS":"蘇厝５８之２號","OBJECTID":151043},"geometry":{"x":173526.16999999993,"y":2558754.3000000045}},{"attributes":{"ID":151045,"DIS_CODE":0,"TOWNNAME":"安定區","LI":"中沙里","LIN":"5鄰","STREET":" ","SECT":" ","MAREA":"沙崙","LANE":" ","ALLEY":" ","HOUSE_NO":"４８之１號","E_COORD97":169220.26999999999,"N_COORD97":2552868.2999999998,"ADDRESS":"沙崙４８之１號","OBJECTID":151044},"geometry":{"x":169220.27000000048,"y":2552868.2999999989}},{"attributes":{"ID":151046,"DIS_CODE":0,"TOWNNAME":"安定區","LI":"蘇林里","LIN":"5鄰","STREET":" ","SECT":" ","MAREA":"蘇厝","LANE":" ","ALLEY":" ","HOUSE_NO":"５８號之１","E_COORD97":173521.70000000001,"N_COORD97":2558768.29,"ADDRESS":"蘇厝５８號之１","OBJECTID":151045},"geometry":{"x":173521.70000000112,"y":2558768.2899999991}},{"attributes":{"ID":151047,"DIS_CODE":0,"TOWNNAME":"東區","LI":"東安里","LIN":"3鄰","STREET":"長榮路","SECT":"二段","MAREA":" ","LANE":"２４巷","ALLEY":"４８弄","HOUSE_NO":"３號二樓","E_COORD97":170024.31,"N_COORD97":2543031.6200000001,"ADDRESS":"長榮路二段２４巷４８弄３號二樓","OBJECTID":151046},"geometry":{"x":170024.30999999959,"y":2543031.6200000029}},{"attributes":{"ID":151048,"DIS_CODE":0,"TOWNNAME":"永康區","LI":"勝利里","LIN":"3鄰","STREET":"勝利街","SECT":" ","MAREA":" ","LANE":"２巷","ALLEY":"４８弄","HOUSE_NO":"７２號","E_COORD97":171094.87,"N_COORD97":2544766.0099999998,"ADDRESS":"勝利街２巷４８弄７２號","OBJECTID":151047},"geometry":{"x":171094.87000000104,"y":2544766.0099999998}},{"attributes":{"ID":151049,"DIS_CODE":0,"TOWNNAME":"東區","LI":"東安里","LIN":"3鄰","STREET":"長榮路","SECT":"二段","MAREA":" ","LANE":"２４巷","ALLEY":"４８弄","HOUSE_NO":"３號三樓","E_COORD97":170024.31,"N_COORD97":2543031.6200000001,"ADDRESS":"長榮路二段２４巷４８弄３號三樓","OBJECTID":151048},"geometry":{"x":170024.30999999959,"y":2543031.6200000029}},{"attributes":{"ID":151050,"DIS_CODE":0,"TOWNNAME":"東區","LI":"東安里","LIN":"3鄰","STREET":"長榮路","SECT":"二段","MAREA":" ","LANE":"２４巷","ALLEY":"４８弄","HOUSE_NO":"３號五樓","E_COORD97":170024.31,"N_COORD97":2543031.6200000001,"ADDRESS":"長榮路二段２４巷４８弄３號五樓","OBJECTID":151049},"geometry":{"x":170024.30999999959,"y":2543031.6200000029}},{"attributes":{"ID":151051,"DIS_CODE":0,"TOWNNAME":"學甲區","LI":"三慶里","LIN":"19鄰","STREET":" ","SECT":" ","MAREA":"紅茄","LANE":" ","ALLEY":" ","HOUSE_NO":"４４號","E_COORD97":167485.34,"N_COORD97":2575720.23,"ADDRESS":"紅茄４４號","OBJECTID":151050},"geometry":{"x":167485.34000000171,"y":2575720.2300000023}},{"attributes":{"ID":151052,"DIS_CODE":0,"TOWNNAME":"東區","LI":"東安里","LIN":"3鄰","STREET":"長榮路","SECT":"二段","MAREA":" ","LANE":"２４巷","ALLEY":"４８弄","HOUSE_NO":"４號二樓","E_COORD97":170030.59,"N_COORD97":2543034.5499999998,"ADDRESS":"長榮路二段２４巷４８弄４號二樓","OBJECTID":151051},"geometry":{"x":170030.59000000078,"y":2543034.5499999989}},{"attributes":{"ID":151053,"DIS_CODE":0,"TOWNNAME":"東區","LI":"東安里","LIN":"3鄰","STREET":"長榮路","SECT":"二段","MAREA":" ","LANE":"２４巷","ALLEY":"４８弄","HOUSE_NO":"４號三樓","E_COORD97":170030.59,"N_COORD97":2543034.5499999998,"ADDRESS":"長榮路二段２４巷４８弄４號三樓","OBJECTID":151052},"geometry":{"x":170030.59000000078,"y":2543034.5499999989}},{"attributes":{"ID":151054,"DIS_CODE":0,"TOWNNAME":"東區","LI":"東安里","LIN":"3鄰","STREET":"長榮路","SECT":"二段","MAREA":" ","LANE":"２４巷","ALLEY":"４８弄","HOUSE_NO":"４號五樓","E_COORD97":170030.59,"N_COORD97":2543034.5499999998,"ADDRESS":"長榮路二段２４巷４８弄４號五樓","OBJECTID":151053},"geometry":{"x":170030.59000000078,"y":2543034.5499999989}},{"attributes":{"ID":151055,"DIS_CODE":0,"TOWNNAME":"東區","LI":"東安里","LIN":"3鄰","STREET":"長榮路","SECT":"二段","MAREA":" ","LANE":"２４巷","ALLEY":"４８弄","HOUSE_NO":"４號四樓","E_COORD97":170030.59,"N_COORD97":2543034.5499999998,"ADDRESS":"長榮路二段２４巷４８弄４號四樓","OBJECTID":151054},"geometry":{"x":170030.59000000078,"y":2543034.5499999989}},{"attributes":{"ID":151056,"DIS_CODE":0,"TOWNNAME":"學甲區","LI":"三慶里","LIN":"19鄰","STREET":" ","SECT":" ","MAREA":"紅茄","LANE":" ","ALLEY":" ","HOUSE_NO":"４９號","E_COORD97":167473.42000000001,"N_COORD97":2575689.2599999998,"ADDRESS":"紅茄４９號","OBJECTID":151055},"geometry":{"x":167473.42000000086,"y":2575689.2600000016}},{"attributes":{"ID":151057,"DIS_CODE":0,"TOWNNAME":"東區","LI":"東安里","LIN":"3鄰","STREET":"長榮路","SECT":"二段","MAREA":" ","LANE":"２４巷","ALLEY":"４８弄","HOUSE_NO":"５號二樓","E_COORD97":170032.29999999999,"N_COORD97":2543039.4900000002,"ADDRESS":"長榮路二段２４巷４８弄５號二樓","OBJECTID":151056},"geometry":{"x":170032.30000000075,"y":2543039.4900000021}},{"attributes":{"ID":151058,"DIS_CODE":0,"TOWNNAME":"東區","LI":"東安里","LIN":"3鄰","STREET":"長榮路","SECT":"二段","MAREA":" ","LANE":"２４巷","ALLEY":"４８弄","HOUSE_NO":"５號三樓","E_COORD97":170032.29999999999,"N_COORD97":2543039.4900000002,"ADDRESS":"長榮路二段２４巷４８弄５號三樓","OBJECTID":151057},"geometry":{"x":170032.30000000075,"y":2543039.4900000021}},{"attributes":{"ID":151059,"DIS_CODE":0,"TOWNNAME":"東區","LI":"虎尾里","LIN":"3鄰","STREET":"東門路","SECT":"三段","MAREA":" ","LANE":"１７９巷","ALLEY":"１４７弄","HOUSE_NO":"１１６號二樓","E_COORD97":171817.54999999999,"N_COORD97":2542172.6600000001,"ADDRESS":"東門路三段１７９巷１４７弄１１６號二樓","OBJECTID":151058},"geometry":{"x":171817.55000000075,"y":2542172.660000002}},{"attributes":{"ID":151060,"DIS_CODE":0,"TOWNNAME":"學甲區","LI":"三慶里","LIN":"19鄰","STREET":" ","SECT":" ","MAREA":"紅茄","LANE":" ","ALLEY":" ","HOUSE_NO":"５１號","E_COORD97":167440.57999999999,"N_COORD97":2575711.1299999999,"ADDRESS":"紅茄５１號","OBJECTID":151059},"geometry":{"x":167440.58000000101,"y":2575711.129999999}},{"attributes":{"ID":151061,"DIS_CODE":0,"TOWNNAME":"學甲區","LI":"三慶里","LIN":"19鄰","STREET":" ","SECT":" ","MAREA":"紅茄","LANE":" ","ALLEY":" ","HOUSE_NO":"５２號","E_COORD97":167433.79000000001,"N_COORD97":2575771.7999999998,"ADDRESS":"紅茄５２號","OBJECTID":151060},"geometry":{"x":167433.79000000097,"y":2575771.8000000026}},{"attributes":{"ID":151062,"DIS_CODE":0,"TOWNNAME":"學甲區","LI":"三慶里","LIN":"19鄰","STREET":" ","SECT":" ","MAREA":"紅茄","LANE":" ","ALLEY":" ","HOUSE_NO":"５３號之２","E_COORD97":167211.66,"N_COORD97":2575950.1400000001,"ADDRESS":"紅茄５３號之２","OBJECTID":151061},"geometry":{"x":167211.66000000015,"y":2575950.1400000006}},{"attributes":{"ID":151063,"DIS_CODE":0,"TOWNNAME":"學甲區","LI":"三慶里","LIN":"19鄰","STREET":" ","SECT":" ","MAREA":"紅茄","LANE":" ","ALLEY":" ","HOUSE_NO":"５３號","E_COORD97":167400.72,"N_COORD97":2575707.1800000002,"ADDRESS":"紅茄５３號","OBJECTID":151062},"geometry":{"x":167400.71999999974,"y":2575707.1800000016}},{"attributes":{"ID":151064,"DIS_CODE":0,"TOWNNAME":"學甲區","LI":"三慶里","LIN":"19鄰","STREET":" ","SECT":" ","MAREA":"紅茄","LANE":" ","ALLEY":" ","HOUSE_NO":"５４號","E_COORD97":167427.35000000001,"N_COORD97":2575705.9100000001,"ADDRESS":"紅茄５４號","OBJECTID":151063},"geometry":{"x":167427.35000000149,"y":2575705.910000002}},{"attributes":{"ID":151065,"DIS_CODE":0,"TOWNNAME":"學甲區","LI":"三慶里","LIN":"19鄰","STREET":" ","SECT":" ","MAREA":"紅茄","LANE":" ","ALLEY":" ","HOUSE_NO":"５６號之１","E_COORD97":167416.57999999999,"N_COORD97":2575770.1400000001,"ADDRESS":"紅茄５６號之１","OBJECTID":151064},"geometry":{"x":167416.58000000101,"y":2575770.1400000006}},{"attributes":{"ID":151066,"DIS_CODE":0,"TOWNNAME":"安定區","LI":"中沙里","LIN":"5鄰","STREET":" ","SECT":" ","MAREA":"沙崙","LANE":" ","ALLEY":" ","HOUSE_NO":"２８號之２","E_COORD97":169293.695312,"N_COORD97":2552675.9023199999,"ADDRESS":"沙崙２８號之２","OBJECTID":151065},"geometry":{"x":169293.69531199988,"y":2552675.9023180027}},{"attributes":{"ID":151067,"DIS_CODE":0,"TOWNNAME":"安定區","LI":"六嘉里","LIN":"5鄰","STREET":" ","SECT":" ","MAREA":"六塊寮","LANE":" ","ALLEY":" ","HOUSE_NO":"３３號之１３","E_COORD97":170212.10000000001,"N_COORD97":2553433.2999999998,"ADDRESS":"六塊寮３３號之１３","OBJECTID":151066},"geometry":{"x":170212.09999999963,"y":2553433.3000000007}},{"attributes":{"ID":151068,"DIS_CODE":0,"TOWNNAME":"安定區","LI":"中沙里","LIN":"5鄰","STREET":" ","SECT":" ","MAREA":"沙崙","LANE":" ","ALLEY":" ","HOUSE_NO":"４８號","E_COORD97":169228.17000000001,"N_COORD97":2552906.29,"ADDRESS":"沙崙４８號","OBJECTID":151067},"geometry":{"x":169228.17000000086,"y":2552906.2899999991}},{"attributes":{"ID":151069,"DIS_CODE":0,"TOWNNAME":"安定區","LI":"六嘉里","LIN":"5鄰","STREET":" ","SECT":" ","MAREA":"六塊寮","LANE":" ","ALLEY":" ","HOUSE_NO":"３２之１號","E_COORD97":170170.62,"N_COORD97":2553470.2999999998,"ADDRESS":"六塊寮３２之１號","OBJECTID":151068},"geometry":{"x":170170.62000000197,"y":2553470.3000000007}},{"attributes":{"ID":151070,"DIS_CODE":0,"TOWNNAME":"安定區","LI":"蘇厝里","LIN":"5鄰","STREET":" ","SECT":" ","MAREA":"蘇厝","LANE":" ","ALLEY":" ","HOUSE_NO":"３２４號","E_COORD97":173120.01999999999,"N_COORD97":2558636.25,"ADDRESS":"蘇厝３２４號","OBJECTID":151069},"geometry":{"x":173120.01999999955,"y":2558636.2500000019}},{"attributes":{"ID":151071,"DIS_CODE":0,"TOWNNAME":"東區","LI":"虎尾里","LIN":"3鄰","STREET":"東門路","SECT":"三段","MAREA":" ","LANE":"１７９巷","ALLEY":"１４７弄","HOUSE_NO":"１１６號三樓","E_COORD97":171817.54999999999,"N_COORD97":2542172.6600000001,"ADDRESS":"東門路三段１７９巷１４７弄１１６號三樓","OBJECTID":151070},"geometry":{"x":171817.55000000075,"y":2542172.660000002}},{"attributes":{"ID":151072,"DIS_CODE":0,"TOWNNAME":"東區","LI":"虎尾里","LIN":"3鄰","STREET":"東門路","SECT":"三段","MAREA":" ","LANE":"１７９巷","ALLEY":"１４７弄","HOUSE_NO":"１１６號四樓","E_COORD97":171817.54999999999,"N_COORD97":2542172.6600000001,"ADDRESS":"東門路三段１７９巷１４７弄１１６號四樓","OBJECTID":151071},"geometry":{"x":171817.55000000075,"y":2542172.660000002}},{"attributes":{"ID":151073,"DIS_CODE":0,"TOWNNAME":"安南區","LI":"四草里","LIN":"7鄰","STREET":"四草大道","SECT":" ","MAREA":" ","LANE":"８１巷","ALLEY":"６弄","HOUSE_NO":"１號","E_COORD97":161339.07809699999,"N_COORD97":2544845.29281,"ADDRESS":"四草大道８１巷６弄１號","OBJECTID":151072},"geometry":{"x":161339.07809700072,"y":2544845.2928090021}},{"attributes":{"ID":151074,"DIS_CODE":0,"TOWNNAME":"永康區","LI":"勝利里","LIN":"3鄰","STREET":"勝利街","SECT":" ","MAREA":" ","LANE":"２巷","ALLEY":"４８弄","HOUSE_NO":"６４號三樓之４","E_COORD97":171071.89999999999,"N_COORD97":2544767.2999999998,"ADDRESS":"勝利街２巷４８弄６４號三樓之４","OBJECTID":151073},"geometry":{"x":171071.90000000037,"y":2544767.3000000007}},{"attributes":{"ID":151075,"DIS_CODE":0,"TOWNNAME":"北區","LI":"和順里","LIN":"19鄰","STREET":"民德路","SECT":" ","MAREA":" ","LANE":" ","ALLEY":" ","HOUSE_NO":"９３號之４","E_COORD97":168225.70000000001,"N_COORD97":2545124.9100000001,"ADDRESS":"民德路９３號之４","OBJECTID":151074},"geometry":{"x":168225.70000000205,"y":2545124.910000002}},{"attributes":{"ID":151076,"DIS_CODE":0,"TOWNNAME":"北區","LI":"和順里","LIN":"19鄰","STREET":"民德路","SECT":" ","MAREA":" ","LANE":" ","ALLEY":" ","HOUSE_NO":"９１號之３","E_COORD97":168229.70000000001,"N_COORD97":2545118.9199999999,"ADDRESS":"民德路９１號之３","OBJECTID":151075},"geometry":{"x":168229.70000000112,"y":2545118.9199999999}},{"attributes":{"ID":151077,"DIS_CODE":0,"TOWNNAME":"歸仁區","LI":"南興里","LIN":"19鄰","STREET":"南興一街","SECT":" ","MAREA":" ","LANE":" ","ALLEY":" ","HOUSE_NO":"３２號","E_COORD97":175709.48999999999,"N_COORD97":2541332.25,"ADDRESS":"南興一街３２號","OBJECTID":151076},"geometry":{"x":175709.49000000022,"y":2541332.2500000019}},{"attributes":{"ID":151078,"DIS_CODE":0,"TOWNNAME":"永康區","LI":"勝利里","LIN":"3鄰","STREET":"勝利街","SECT":" ","MAREA":" ","LANE":"２巷","ALLEY":"４８弄","HOUSE_NO":"６４號三樓之１","E_COORD97":171071.87,"N_COORD97":2544767.2999999998,"ADDRESS":"勝利街２巷４８弄６４號三樓之１","OBJECTID":151077},"geometry":{"x":171071.87000000011,"y":2544767.3000000007}},{"attributes":{"ID":151079,"DIS_CODE":0,"TOWNNAME":"永康區","LI":"勝利里","LIN":"3鄰","STREET":"勝利街","SECT":" ","MAREA":" ","LANE":"２巷","ALLEY":"４８弄","HOUSE_NO":"６４號二樓之２","E_COORD97":171072.01000000001,"N_COORD97":2544767.2999999998,"ADDRESS":"勝利街２巷４８弄６４號二樓之２","OBJECTID":151078},"geometry":{"x":171072.00999999978,"y":2544767.3000000007}},{"attributes":{"ID":151080,"DIS_CODE":0,"TOWNNAME":"歸仁區","LI":"歸仁里","LIN":"19鄰","STREET":"忠孝北路","SECT":" ","MAREA":" ","LANE":" ","ALLEY":" ","HOUSE_NO":"１４３號","E_COORD97":178195.19,"N_COORD97":2541082.1099999999,"ADDRESS":"忠孝北路１４３號","OBJECTID":151079},"geometry":{"x":178195.19000000041,"y":2541082.1099999994}},{"attributes":{"ID":151081,"DIS_CODE":0,"TOWNNAME":"永康區","LI":"勝利里","LIN":"3鄰","STREET":"勝利街","SECT":" ","MAREA":" ","LANE":"２巷","ALLEY":"４８弄","HOUSE_NO":"６４號五樓之３","E_COORD97":171071.97,"N_COORD97":2544767.2999999998,"ADDRESS":"勝利街２巷４８弄６４號五樓之３","OBJECTID":151080},"geometry":{"x":171071.97000000067,"y":2544767.3000000007}},{"attributes":{"ID":151082,"DIS_CODE":0,"TOWNNAME":"歸仁區","LI":"大潭里","LIN":"19鄰","STREET":"中正南路","SECT":"三段","MAREA":" ","LANE":" ","ALLEY":" ","HOUSE_NO":"４６號","E_COORD97":175299.66,"N_COORD97":2535100.2799999998,"ADDRESS":"中正南路三段４６號","OBJECTID":151081},"geometry":{"x":175299.66000000015,"y":2535100.2799999993}},{"attributes":{"ID":151083,"DIS_CODE":0,"TOWNNAME":"歸仁區","LI":"文化里","LIN":"19鄰","STREET":"文化北二街","SECT":" ","MAREA":" ","LANE":" ","ALLEY":" ","HOUSE_NO":"７４號","E_COORD97":177110.10999999999,"N_COORD97":2541478.3399999999,"ADDRESS":"文化北二街７４號","OBJECTID":151082},"geometry":{"x":177110.11000000127,"y":2541478.3399999999}},{"attributes":{"ID":151084,"DIS_CODE":0,"TOWNNAME":"永康區","LI":"勝利里","LIN":"3鄰","STREET":"勝利街","SECT":" ","MAREA":" ","LANE":"２巷","ALLEY":"４８弄","HOUSE_NO":"６４號五樓之２","E_COORD97":171072.01000000001,"N_COORD97":2544767.2999999998,"ADDRESS":"勝利街２巷４８弄６４號五樓之２","OBJECTID":151083},"geometry":{"x":171072.00999999978,"y":2544767.3000000007}},{"attributes":{"ID":151085,"DIS_CODE":0,"TOWNNAME":"永康區","LI":"復興里","LIN":"3鄰","STREET":"復興路","SECT":" ","MAREA":" ","LANE":"２７７巷","ALLEY":"７８弄","HOUSE_NO":"３２號","E_COORD97":172331.69,"N_COORD97":2544153.5299999998,"ADDRESS":"復興路２７７巷７８弄３２號","OBJECTID":151084},"geometry":{"x":172331.69000000227,"y":2544153.5300000012}},{"attributes":{"ID":151086,"DIS_CODE":0,"TOWNNAME":"安定區","LI":"中沙里","LIN":"5鄰","STREET":" ","SECT":" ","MAREA":"沙崙","LANE":" ","ALLEY":" ","HOUSE_NO":"２６號","E_COORD97":168965.37,"N_COORD97":2552508.29,"ADDRESS":"沙崙２６號","OBJECTID":151085},"geometry":{"x":168965.37000000197,"y":2552508.290000001}},{"attributes":{"ID":151087,"DIS_CODE":0,"TOWNNAME":"永康區","LI":"復興里","LIN":"3鄰","STREET":"復興路","SECT":" ","MAREA":" ","LANE":"２７７巷","ALLEY":"９４弄","HOUSE_NO":"１６號","E_COORD97":172310.95000000001,"N_COORD97":2544088.3799999999,"ADDRESS":"復興路２７７巷９４弄１６號","OBJECTID":151086},"geometry":{"x":172310.95000000019,"y":2544088.3800000027}},{"attributes":{"ID":151088,"DIS_CODE":0,"TOWNNAME":"永康區","LI":"復興里","LIN":"3鄰","STREET":"復興路","SECT":" ","MAREA":" ","LANE":"２７７巷","ALLEY":"９４弄","HOUSE_NO":"１２號","E_COORD97":172319.04000000001,"N_COORD97":2544088.3799999999,"ADDRESS":"復興路２７７巷９４弄１２號","OBJECTID":151087},"geometry":{"x":172319.04000000097,"y":2544088.3800000027}},{"attributes":{"ID":151089,"DIS_CODE":0,"TOWNNAME":"永康區","LI":"復興里","LIN":"3鄰","STREET":"復興路","SECT":" ","MAREA":" ","LANE":"２７７巷","ALLEY":"７８弄","HOUSE_NO":"１７號","E_COORD97":172289.29000000001,"N_COORD97":2544114.4500000002,"ADDRESS":"復興路２７７巷７８弄１７號","OBJECTID":151088},"geometry":{"x":172289.29000000004,"y":2544114.4499999993}},{"attributes":{"ID":151090,"DIS_CODE":0,"TOWNNAME":"永康區","LI":"復興里","LIN":"3鄰","STREET":"復興路","SECT":" ","MAREA":" ","LANE":"２７７巷","ALLEY":"７８弄","HOUSE_NO":"４４號","E_COORD97":172302.09,"N_COORD97":2544152.2799999998,"ADDRESS":"復興路２７７巷７８弄４４號","OBJECTID":151089},"geometry":{"x":172302.09000000078,"y":2544152.2799999993}},{"attributes":{"ID":151091,"DIS_CODE":0,"TOWNNAME":"永康區","LI":"勝利里","LIN":"3鄰","STREET":"勝利街","SECT":" ","MAREA":" ","LANE":"２巷","ALLEY":"４８弄","HOUSE_NO":"１０號","E_COORD97":171062.64000000001,"N_COORD97":2544733.5,"ADDRESS":"勝利街２巷４８弄１０號","OBJECTID":151090},"geometry":{"x":171062.63999999966,"y":2544733.5000000019}},{"attributes":{"ID":151092,"DIS_CODE":0,"TOWNNAME":"永康區","LI":"勝利里","LIN":"3鄰","STREET":"勝利街","SECT":" ","MAREA":" ","LANE":"２巷","ALLEY":"４８弄","HOUSE_NO":"１５號","E_COORD97":171031.47,"N_COORD97":2544737.5,"ADDRESS":"勝利街２巷４８弄１５號","OBJECTID":151091},"geometry":{"x":171031.47000000067,"y":2544737.5000000019}},{"attributes":{"ID":151093,"DIS_CODE":0,"TOWNNAME":"永康區","LI":"勝利里","LIN":"3鄰","STREET":"勝利街","SECT":" ","MAREA":" ","LANE":"２巷","ALLEY":"４８弄","HOUSE_NO":"２３號","E_COORD97":171031.63,"N_COORD97":2544754.5099999998,"ADDRESS":"勝利街２巷４８弄２３號","OBJECTID":151092},"geometry":{"x":171031.63000000082,"y":2544754.5100000016}},{"attributes":{"ID":151094,"DIS_CODE":0,"TOWNNAME":"安定區","LI":"蘇厝里","LIN":"5鄰","STREET":" ","SECT":" ","MAREA":"蘇厝","LANE":" ","ALLEY":" ","HOUSE_NO":"３２０號","E_COORD97":173138.01999999999,"N_COORD97":2558613.25,"ADDRESS":"蘇厝３２０號","OBJECTID":151093},"geometry":{"x":173138.02000000048,"y":2558613.25}},{"attributes":{"ID":151095,"DIS_CODE":0,"TOWNNAME":"安定區","LI":"蘇厝里","LIN":"5鄰","STREET":" ","SECT":" ","MAREA":"蘇厝","LANE":" ","ALLEY":" ","HOUSE_NO":"３１６號之１","E_COORD97":173163.12,"N_COORD97":2558539.2999999998,"ADDRESS":"蘇厝３１６之１號","OBJECTID":151094},"geometry":{"x":173163.12000000104,"y":2558539.3000000007}},{"attributes":{"ID":151096,"DIS_CODE":0,"TOWNNAME":"安定區","LI":"蘇林里","LIN":"5鄰","STREET":" ","SECT":" ","MAREA":"蘇厝","LANE":" ","ALLEY":" ","HOUSE_NO":"５２號","E_COORD97":173486.07000000001,"N_COORD97":2558676.25,"ADDRESS":"蘇厝５２號","OBJECTID":151095},"geometry":{"x":173486.0700000003,"y":2558676.2500000019}},{"attributes":{"ID":151097,"DIS_CODE":0,"TOWNNAME":"歸仁區","LI":"文化里","LIN":"19鄰","STREET":"文化北二街","SECT":" ","MAREA":" ","LANE":" ","ALLEY":" ","HOUSE_NO":"８０號","E_COORD97":177096.81,"N_COORD97":2541478.3399999999,"ADDRESS":"文化北二街８０號","OBJECTID":151096},"geometry":{"x":177096.80999999959,"y":2541478.3399999999}},{"attributes":{"ID":151098,"DIS_CODE":0,"TOWNNAME":"安定區","LI":"蘇林里","LIN":"5鄰","STREET":" ","SECT":" ","MAREA":"蘇厝","LANE":" ","ALLEY":" ","HOUSE_NO":"５３號","E_COORD97":173470.47,"N_COORD97":2558697.25,"ADDRESS":"蘇厝５３號","OBJECTID":151097},"geometry":{"x":173470.47000000067,"y":2558697.2500000019}},{"attributes":{"ID":151099,"DIS_CODE":0,"TOWNNAME":"安定區","LI":"蘇林里","LIN":"5鄰","STREET":" ","SECT":" ","MAREA":"蘇厝","LANE":" ","ALLEY":" ","HOUSE_NO":"６１號","E_COORD97":173518.87,"N_COORD97":2558698.25,"ADDRESS":"蘇厝６１號","OBJECTID":151098},"geometry":{"x":173518.87000000104,"y":2558698.25}},{"attributes":{"ID":151100,"DIS_CODE":0,"TOWNNAME":"安定區","LI":"中沙里","LIN":"5鄰","STREET":" ","SECT":" ","MAREA":"沙崙","LANE":" ","ALLEY":" ","HOUSE_NO":"４３號","E_COORD97":169179.07000000001,"N_COORD97":2552768.29,"ADDRESS":"沙崙４３號","OBJECTID":151099},"geometry":{"x":169179.0700000003,"y":2552768.2899999972}},{"attributes":{"ID":151101,"DIS_CODE":0,"TOWNNAME":"安定區","LI":"蘇林里","LIN":"5鄰","STREET":" ","SECT":" ","MAREA":"蘇厝","LANE":" ","ALLEY":" ","HOUSE_NO":"６０號","E_COORD97":173532.72727,"N_COORD97":2558719.4726399998,"ADDRESS":"蘇厝６０號","OBJECTID":151100},"geometry":{"x":173532.72726999968,"y":2558719.472639}},{"attributes":{"ID":151102,"DIS_CODE":0,"TOWNNAME":"安定區","LI":"蘇林里","LIN":"5鄰","STREET":" ","SECT":" ","MAREA":"蘇厝","LANE":" ","ALLEY":" ","HOUSE_NO":"５１號","E_COORD97":173502.17000000001,"N_COORD97":2558658.25,"ADDRESS":"蘇厝５１號","OBJECTID":151101},"geometry":{"x":173502.16999999993,"y":2558658.25}},{"attributes":{"ID":151103,"DIS_CODE":0,"TOWNNAME":"安定區","LI":"蘇厝里","LIN":"5鄰","STREET":" ","SECT":" ","MAREA":"蘇厝","LANE":" ","ALLEY":" ","HOUSE_NO":"３２４之１號","E_COORD97":173124.92000000001,"N_COORD97":2558619.2999999998,"ADDRESS":"蘇厝３２４之１號","OBJECTID":151102},"geometry":{"x":173124.92000000086,"y":2558619.3000000026}},{"attributes":{"ID":151104,"DIS_CODE":0,"TOWNNAME":"安定區","LI":"中沙里","LIN":"5鄰","STREET":" ","SECT":" ","MAREA":"沙崙","LANE":" ","ALLEY":" ","HOUSE_NO":"２６之８號","E_COORD97":169009.26999999999,"N_COORD97":2552522.2999999998,"ADDRESS":"沙崙２６之８號","OBJECTID":151103},"geometry":{"x":169009.26999999955,"y":2552522.3000000007}},{"attributes":{"ID":151105,"DIS_CODE":0,"TOWNNAME":"永康區","LI":"勝利里","LIN":"3鄰","STREET":"勝利街","SECT":" ","MAREA":" ","LANE":"２巷","ALLEY":"４８弄","HOUSE_NO":"６號","E_COORD97":171046.87,"N_COORD97":2544731.5,"ADDRESS":"勝利街２巷４８弄６號","OBJECTID":151104},"geometry":{"x":171046.86999999918,"y":2544731.5}},{"attributes":{"ID":151106,"DIS_CODE":0,"TOWNNAME":"永康區","LI":"勝利里","LIN":"3鄰","STREET":"勝利街","SECT":" ","MAREA":" ","LANE":"２巷","ALLEY":"４８弄","HOUSE_NO":"４１號","E_COORD97":171031.76999999999,"N_COORD97":2544791.5099999998,"ADDRESS":"勝利街２巷４８弄４１號","OBJECTID":151105},"geometry":{"x":171031.77000000142,"y":2544791.5100000016}},{"attributes":{"ID":151107,"DIS_CODE":0,"TOWNNAME":"永康區","LI":"勝利里","LIN":"3鄰","STREET":"勝利街","SECT":" ","MAREA":" ","LANE":"２巷","ALLEY":"４８弄","HOUSE_NO":"１８號","E_COORD97":171080.04000000001,"N_COORD97":2544733.5,"ADDRESS":"勝利街２巷４８弄１８號","OBJECTID":151106},"geometry":{"x":171080.04000000097,"y":2544733.5000000019}},{"attributes":{"ID":151108,"DIS_CODE":0,"TOWNNAME":"永康區","LI":"勝利里","LIN":"3鄰","STREET":"勝利街","SECT":" ","MAREA":" ","LANE":"２巷","ALLEY":"４８弄","HOUSE_NO":"６２號","E_COORD97":171049.04000000001,"N_COORD97":2544774.5099999998,"ADDRESS":"勝利街２巷４８弄６２號","OBJECTID":151107},"geometry":{"x":171049.03999999911,"y":2544774.5100000016}},{"attributes":{"ID":151109,"DIS_CODE":0,"TOWNNAME":"永康區","LI":"勝利里","LIN":"3鄰","STREET":"勝利街","SECT":" ","MAREA":" ","LANE":"２巷","ALLEY":"４８弄","HOUSE_NO":"４２號","E_COORD97":171080.35000000001,"N_COORD97":2544748.0099999998,"ADDRESS":"勝利街２巷４８弄４２號","OBJECTID":151108},"geometry":{"x":171080.34999999963,"y":2544748.0099999998}},{"attributes":{"ID":151110,"DIS_CODE":0,"TOWNNAME":"永康區","LI":"勝利里","LIN":"3鄰","STREET":"勝利街","SECT":" ","MAREA":" ","LANE":"２巷","ALLEY":"４８弄","HOUSE_NO":"６８號","E_COORD97":171084.78,"N_COORD97":2544766.2599999998,"ADDRESS":"勝利街２巷４８弄６８號","OBJECTID":151109},"geometry":{"x":171084.78000000026,"y":2544766.2600000016}},{"attributes":{"ID":151111,"DIS_CODE":0,"TOWNNAME":"永康區","LI":"勝利里","LIN":"3鄰","STREET":"勝利街","SECT":" ","MAREA":" ","LANE":"２巷","ALLEY":"４８弄","HOUSE_NO":"１３號","E_COORD97":171032.23999999999,"N_COORD97":2544733,"ADDRESS":"勝利街２巷４８弄１３號","OBJECTID":151110},"geometry":{"x":171032.24000000022,"y":2544733.0000000037}},{"attributes":{"ID":151112,"DIS_CODE":0,"TOWNNAME":"永康區","LI":"勝利里","LIN":"3鄰","STREET":"勝利街","SECT":" ","MAREA":" ","LANE":"２巷","ALLEY":"４８弄","HOUSE_NO":"５２號","E_COORD97":171048.28,"N_COORD97":2544751.5099999998,"ADDRESS":"勝利街２巷４８弄５２號","OBJECTID":151111},"geometry":{"x":171048.28000000119,"y":2544751.5099999998}},{"attributes":{"ID":151113,"DIS_CODE":0,"TOWNNAME":"永康區","LI":"勝利里","LIN":"3鄰","STREET":"勝利街","SECT":" ","MAREA":" ","LANE":"２巷","ALLEY":"４８弄","HOUSE_NO":"３９號","E_COORD97":171031.92999999999,"N_COORD97":2544787.5099999998,"ADDRESS":"勝利街２巷４８弄３９號","OBJECTID":151112},"geometry":{"x":171031.9299999997,"y":2544787.5100000016}},{"attributes":{"ID":151114,"DIS_CODE":0,"TOWNNAME":"永康區","LI":"勝利里","LIN":"3鄰","STREET":"勝利街","SECT":" ","MAREA":" ","LANE":"２巷","ALLEY":"４８弄","HOUSE_NO":"３６號","E_COORD97":171093.34,"N_COORD97":2544747.5099999998,"ADDRESS":"勝利街２巷４８弄３６號","OBJECTID":151113},"geometry":{"x":171093.34000000078,"y":2544747.5100000016}},{"attributes":{"ID":151115,"DIS_CODE":0,"TOWNNAME":"永康區","LI":"勝利里","LIN":"3鄰","STREET":"勝利街","SECT":" ","MAREA":" ","LANE":"２巷","ALLEY":"４８弄","HOUSE_NO":"２１號","E_COORD97":171031.47,"N_COORD97":2544750.2599999998,"ADDRESS":"勝利街２巷４８弄２１號","OBJECTID":151114},"geometry":{"x":171031.47000000067,"y":2544750.2599999998}},{"attributes":{"ID":151116,"DIS_CODE":0,"TOWNNAME":"永康區","LI":"勝利里","LIN":"3鄰","STREET":"勝利街","SECT":" ","MAREA":" ","LANE":"２巷","ALLEY":"４８弄","HOUSE_NO":"６６號","E_COORD97":171076.39000000001,"N_COORD97":2544766.5099999998,"ADDRESS":"勝利街２巷４８弄６６號","OBJECTID":151115},"geometry":{"x":171076.38999999966,"y":2544766.5100000035}},{"attributes":{"ID":151117,"DIS_CODE":0,"TOWNNAME":"永康區","LI":"五王里","LIN":"3鄰","STREET":"成功路","SECT":" ","MAREA":" ","LANE":"１７２巷","ALLEY":"８弄","HOUSE_NO":"２７號","E_COORD97":171530.13,"N_COORD97":2545570.2599999998,"ADDRESS":"成功路１７２巷８弄２７號","OBJECTID":151116},"geometry":{"x":171530.13000000082,"y":2545570.2599999998}},{"attributes":{"ID":151118,"DIS_CODE":0,"TOWNNAME":"歸仁區","LI":"大潭里","LIN":"19鄰","STREET":"中正南路","SECT":"三段","MAREA":" ","LANE":" ","ALLEY":" ","HOUSE_NO":"２８號","E_COORD97":175312.06,"N_COORD97":2535132.2799999998,"ADDRESS":"中正南路三段２８號","OBJECTID":151117},"geometry":{"x":175312.06000000052,"y":2535132.2800000031}},{"attributes":{"ID":151119,"DIS_CODE":0,"TOWNNAME":"歸仁區","LI":"大潭里","LIN":"19鄰","STREET":"中正南路","SECT":"三段","MAREA":" ","LANE":" ","ALLEY":" ","HOUSE_NO":"１１８號","E_COORD97":175236.60999999999,"N_COORD97":2534960.2799999998,"ADDRESS":"中正南路三段１１８號","OBJECTID":151118},"geometry":{"x":175236.61000000127,"y":2534960.2800000012}},{"attributes":{"ID":151120,"DIS_CODE":0,"TOWNNAME":"歸仁區","LI":"大潭里","LIN":"19鄰","STREET":"中正南路","SECT":"三段","MAREA":" ","LANE":" ","ALLEY":" ","HOUSE_NO":"５０號","E_COORD97":175292.45999999999,"N_COORD97":2535094.2799999998,"ADDRESS":"中正南路三段５０號","OBJECTID":151119},"geometry":{"x":175292.45999999996,"y":2535094.2799999993}},{"attributes":{"ID":151121,"DIS_CODE":0,"TOWNNAME":"歸仁區","LI":"大潭里","LIN":"19鄰","STREET":"中正南路","SECT":"三段","MAREA":" ","LANE":" ","ALLEY":" ","HOUSE_NO":"８０號","E_COORD97":175271.66,"N_COORD97":2535037.2799999998,"ADDRESS":"中正南路三段８０號","OBJECTID":151120},"geometry":{"x":175271.66000000108,"y":2535037.2800000031}},{"attributes":{"ID":151122,"DIS_CODE":0,"TOWNNAME":"歸仁區","LI":"大潭里","LIN":"19鄰","STREET":"中正南路","SECT":"三段","MAREA":" ","LANE":" ","ALLEY":" ","HOUSE_NO":"１２６號","E_COORD97":175233.41,"N_COORD97":2534939.2799999998,"ADDRESS":"中正南路三段１２６號","OBJECTID":151121},"geometry":{"x":175233.41000000015,"y":2534939.2800000012}},{"attributes":{"ID":151123,"DIS_CODE":0,"TOWNNAME":"歸仁區","LI":"大潭里","LIN":"19鄰","STREET":"中正南路","SECT":"三段","MAREA":" ","LANE":" ","ALLEY":" ","HOUSE_NO":"１０２號","E_COORD97":175240.70999999999,"N_COORD97":2534970.2799999998,"ADDRESS":"中正南路三段１０２號","OBJECTID":151122},"geometry":{"x":175240.71000000089,"y":2534970.2800000012}},{"attributes":{"ID":151124,"DIS_CODE":0,"TOWNNAME":"歸仁區","LI":"文化里","LIN":"19鄰","STREET":"文化北二街","SECT":" ","MAREA":" ","LANE":" ","ALLEY":" ","HOUSE_NO":"８４號","E_COORD97":177089.60999999999,"N_COORD97":2541479.3399999999,"ADDRESS":"文化北二街８４號","OBJECTID":151123},"geometry":{"x":177089.61000000127,"y":2541479.3400000017}},{"attributes":{"ID":151125,"DIS_CODE":0,"TOWNNAME":"歸仁區","LI":"大廟里","LIN":"19鄰","STREET":"大廟一街","SECT":" ","MAREA":" ","LANE":" ","ALLEY":" ","HOUSE_NO":"３０號","E_COORD97":175830.76999999999,"N_COORD97":2544076.25,"ADDRESS":"大廟一街３０號","OBJECTID":151124},"geometry":{"x":175830.76999999862,"y":2544076.25}},{"attributes":{"ID":151126,"DIS_CODE":0,"TOWNNAME":"歸仁區","LI":"文化里","LIN":"19鄰","STREET":"文化北二街","SECT":" ","MAREA":" ","LANE":" ","ALLEY":" ","HOUSE_NO":"７２號","E_COORD97":177113.20999999999,"N_COORD97":2541477.3399999999,"ADDRESS":"文化北二街７２號","OBJECTID":151125},"geometry":{"x":177113.20999999903,"y":2541477.3399999999}},{"attributes":{"ID":151127,"DIS_CODE":0,"TOWNNAME":"歸仁區","LI":"八甲里","LIN":"19鄰","STREET":"大仁五街","SECT":" ","MAREA":" ","LANE":" ","ALLEY":" ","HOUSE_NO":"２６號","E_COORD97":178110.09,"N_COORD97":2541474.25,"ADDRESS":"大仁五街２６號","OBJECTID":151126},"geometry":{"x":178110.08999999985,"y":2541474.2500000019}},{"attributes":{"ID":151128,"DIS_CODE":0,"TOWNNAME":"歸仁區","LI":"七甲里","LIN":"19鄰","STREET":"南潭三街","SECT":" ","MAREA":" ","LANE":" ","ALLEY":" ","HOUSE_NO":"１５８號","E_COORD97":176426.42999999999,"N_COORD97":2543208.8100000001,"ADDRESS":"南潭三街１５８號","OBJECTID":151127},"geometry":{"x":176426.4299999997,"y":2543208.8099999987}},{"attributes":{"ID":151129,"DIS_CODE":0,"TOWNNAME":"安定區","LI":"蘇林里","LIN":"5鄰","STREET":" ","SECT":" ","MAREA":"蘇厝","LANE":" ","ALLEY":" ","HOUSE_NO":"５７號之２","E_COORD97":173530.94,"N_COORD97":2558781.2999999998,"ADDRESS":"蘇厝５７號之２","OBJECTID":151128},"geometry":{"x":173530.94000000134,"y":2558781.3000000045}},{"attributes":{"ID":151130,"DIS_CODE":0,"TOWNNAME":"安定區","LI":"中沙里","LIN":"5鄰","STREET":" ","SECT":" ","MAREA":"沙崙","LANE":" ","ALLEY":" ","HOUSE_NO":"２７之１號","E_COORD97":169141.79637600001,"N_COORD97":2552606.4614800001,"ADDRESS":"沙崙２７之１號","OBJECTID":151129},"geometry":{"x":169141.79637600109,"y":2552606.4614809994}},{"attributes":{"ID":151131,"DIS_CODE":0,"TOWNNAME":"安定區","LI":"中沙里","LIN":"5鄰","STREET":" ","SECT":" ","MAREA":"沙崙","LANE":" ","ALLEY":" ","HOUSE_NO":"５０號","E_COORD97":168998.67000000001,"N_COORD97":2552590.29,"ADDRESS":"沙崙５０號","OBJECTID":151130},"geometry":{"x":168998.67000000179,"y":2552590.290000001}},{"attributes":{"ID":151132,"DIS_CODE":0,"TOWNNAME":"安定區","LI":"六嘉里","LIN":"5鄰","STREET":" ","SECT":" ","MAREA":"六塊寮","LANE":" ","ALLEY":" ","HOUSE_NO":"３９號之３","E_COORD97":170201.75,"N_COORD97":2553496.2999999998,"ADDRESS":"六塊寮３９號之３","OBJECTID":151131},"geometry":{"x":170201.75000000186,"y":2553496.3000000026}},{"attributes":{"ID":151133,"DIS_CODE":0,"TOWNNAME":"安定區","LI":"中沙里","LIN":"5鄰","STREET":" ","SECT":" ","MAREA":"沙崙","LANE":" ","ALLEY":" ","HOUSE_NO":"４１號","E_COORD97":169170.26999999999,"N_COORD97":2552795.29,"ADDRESS":"沙崙４１號","OBJECTID":151132},"geometry":{"x":169170.26999999955,"y":2552795.2899999991}},{"attributes":{"ID":151134,"DIS_CODE":0,"TOWNNAME":"安定區","LI":"蘇厝里","LIN":"5鄰","STREET":" ","SECT":" ","MAREA":"蘇厝","LANE":" ","ALLEY":" ","HOUSE_NO":"３１６號","E_COORD97":173159.22,"N_COORD97":2558564.25,"ADDRESS":"蘇厝３１６號","OBJECTID":151133},"geometry":{"x":173159.21999999974,"y":2558564.2500000019}},{"attributes":{"ID":151135,"DIS_CODE":0,"TOWNNAME":"安定區","LI":"中沙里","LIN":"5鄰","STREET":" ","SECT":" ","MAREA":"沙崙","LANE":" ","ALLEY":" ","HOUSE_NO":"５１號","E_COORD97":168979.26999999999,"N_COORD97":2552623.29,"ADDRESS":"沙崙５１號","OBJECTID":151134},"geometry":{"x":168979.27000000048,"y":2552623.290000001}},{"attributes":{"ID":151136,"DIS_CODE":0,"TOWNNAME":"安定區","LI":"中沙里","LIN":"5鄰","STREET":" ","SECT":" ","MAREA":"沙崙","LANE":" ","ALLEY":" ","HOUSE_NO":"４２號","E_COORD97":169122.97,"N_COORD97":2552767.29,"ADDRESS":"沙崙４２號","OBJECTID":151135},"geometry":{"x":169122.96999999974,"y":2552767.2899999991}},{"attributes":{"ID":151137,"DIS_CODE":0,"TOWNNAME":"安定區","LI":"中沙里","LIN":"5鄰","STREET":" ","SECT":" ","MAREA":"沙崙","LANE":" ","ALLEY":" ","HOUSE_NO":"３１號","E_COORD97":169157.07804600001,"N_COORD97":2552611.97902,"ADDRESS":"沙崙３１號","OBJECTID":151136},"geometry":{"x":169157.07804600056,"y":2552611.9790190011}},{"attributes":{"ID":151138,"DIS_CODE":0,"TOWNNAME":"安定區","LI":"中沙里","LIN":"5鄰","STREET":" ","SECT":" ","MAREA":"沙崙","LANE":" ","ALLEY":" ","HOUSE_NO":"３７之１號","E_COORD97":169350.97824999999,"N_COORD97":2552670.8073200001,"ADDRESS":"沙崙３７之１號","OBJECTID":151137},"geometry":{"x":169350.97825000063,"y":2552670.8073200006}},{"attributes":{"ID":151139,"DIS_CODE":0,"TOWNNAME":"永康區","LI":"大橋里","LIN":"3鄰","STREET":"大橋三街","SECT":" ","MAREA":" ","LANE":"１２４巷","ALLEY":"１８弄","HOUSE_NO":"６號","E_COORD97":170769.95000000001,"N_COORD97":2546645,"ADDRESS":"大橋三街１２４巷１８弄６號","OBJECTID":151138},"geometry":{"x":170769.95000000019,"y":2546645.0000000037}},{"attributes":{"ID":151140,"DIS_CODE":0,"TOWNNAME":"永康區","LI":"勝利里","LIN":"3鄰","STREET":"勝利街","SECT":" ","MAREA":" ","LANE":"２巷","ALLEY":"４８弄","HOUSE_NO":"５２之１號","E_COORD97":171048.28,"N_COORD97":2544756.0099999998,"ADDRESS":"勝利街２巷４８弄５２之１號","OBJECTID":151139},"geometry":{"x":171048.28000000119,"y":2544756.0099999979}},{"attributes":{"ID":151141,"DIS_CODE":0,"TOWNNAME":"永康區","LI":"勝利里","LIN":"3鄰","STREET":"勝利街","SECT":" ","MAREA":" ","LANE":"２巷","ALLEY":"４８弄","HOUSE_NO":"４０號","E_COORD97":171084.03,"N_COORD97":2544748.0099999998,"ADDRESS":"勝利街２巷４８弄４０號","OBJECTID":151140},"geometry":{"x":171084.03000000119,"y":2544748.0099999998}},{"attributes":{"ID":151142,"DIS_CODE":0,"TOWNNAME":"永康區","LI":"勝利里","LIN":"3鄰","STREET":"勝利街","SECT":" ","MAREA":" ","LANE":"２巷","ALLEY":"４８弄","HOUSE_NO":"７４號","E_COORD97":171100.06,"N_COORD97":2544765.5099999998,"ADDRESS":"勝利街２巷４８弄７４號","OBJECTID":151141},"geometry":{"x":171100.06000000052,"y":2544765.5099999998}},{"attributes":{"ID":151143,"DIS_CODE":0,"TOWNNAME":"南區","LI":"彰南里","LIN":"19鄰","STREET":"新樂路","SECT":" ","MAREA":" ","LANE":" ","ALLEY":" ","HOUSE_NO":"２２號","E_COORD97":165662.56,"N_COORD97":2542037.2599999998,"ADDRESS":"新樂路２２號","OBJECTID":151142},"geometry":{"x":165662.55999999959,"y":2542037.2599999998}},{"attributes":{"ID":151144,"DIS_CODE":0,"TOWNNAME":"東區","LI":"虎尾里","LIN":" ","STREET":"富農街","SECT":"一段","MAREA":" ","LANE":" ","ALLEY":" ","HOUSE_NO":"３１之２號","E_COORD97":171506.82999999999,"N_COORD97":2542196.1600000001,"ADDRESS":"富農街一段３１之２號","OBJECTID":151143},"geometry":{"x":171506.83000000101,"y":2542196.1600000039}},{"attributes":{"ID":151145,"DIS_CODE":0,"TOWNNAME":"東區","LI":"虎尾里","LIN":" ","STREET":"富農街","SECT":"一段","MAREA":" ","LANE":" ","ALLEY":" ","HOUSE_NO":"９４號","E_COORD97":171510.62,"N_COORD97":2542272.4500000002,"ADDRESS":"富農街一段９４號","OBJECTID":151144},"geometry":{"x":171510.62000000011,"y":2542272.4500000011}},{"attributes":{"ID":151146,"DIS_CODE":0,"TOWNNAME":"東區","LI":"虎尾里","LIN":" ","STREET":"東成街","SECT":" ","MAREA":" ","LANE":" ","ALLEY":" ","HOUSE_NO":"９２號","E_COORD97":171530.72,"N_COORD97":2542282.5699999998,"ADDRESS":"東成街９２號","OBJECTID":151145},"geometry":{"x":171530.7200000016,"y":2542282.5700000022}},{"attributes":{"ID":151147,"DIS_CODE":0,"TOWNNAME":"東區","LI":"虎尾里","LIN":" ","STREET":"東成街","SECT":" ","MAREA":" ","LANE":" ","ALLEY":" ","HOUSE_NO":"１０５號","E_COORD97":171594.26999999999,"N_COORD97":2542310.4100000001,"ADDRESS":"東成街１０５號","OBJECTID":151146},"geometry":{"x":171594.26999999955,"y":2542310.410000002}},{"attributes":{"ID":151148,"DIS_CODE":0,"TOWNNAME":"仁德區","LI":"太子里","LIN":"3鄰","STREET":"太子路","SECT":" ","MAREA":" ","LANE":"１９０巷","ALLEY":"２３弄","HOUSE_NO":"２２號","E_COORD97":174257.57000000001,"N_COORD97":2543592.1000000001,"ADDRESS":"太子路１９０巷２３弄２２號","OBJECTID":151147},"geometry":{"x":174257.5700000003,"y":2543592.0999999996}},{"attributes":{"ID":151149,"DIS_CODE":0,"TOWNNAME":"仁德區","LI":"田厝里","LIN":"3鄰","STREET":"田厝三街","SECT":" ","MAREA":" ","LANE":"９３巷","ALLEY":"２４弄","HOUSE_NO":"２號","E_COORD97":172536.98999999999,"N_COORD97":2537481.7400000002,"ADDRESS":"田厝三街９３巷２４弄２號","OBJECTID":151148},"geometry":{"x":172536.99000000115,"y":2537481.7400000002}},{"attributes":{"ID":151150,"DIS_CODE":0,"TOWNNAME":"新市區","LI":"港墘里","LIN":"3鄰","STREET":"三民街","SECT":" ","MAREA":" ","LANE":"５０巷","ALLEY":"１０弄","HOUSE_NO":"１７號","E_COORD97":178568.98999999999,"N_COORD97":2553422.29,"ADDRESS":"三民街５０巷１０弄１７號","OBJECTID":151149},"geometry":{"x":178568.99000000022,"y":2553422.2899999991}},{"attributes":{"ID":151151,"DIS_CODE":0,"TOWNNAME":"東區","LI":"東聖里","LIN":"3鄰","STREET":"中華東路","SECT":"二段","MAREA":" ","LANE":"７巷","ALLEY":"１３弄","HOUSE_NO":"１０號","E_COORD97":171492.20000000001,"N_COORD97":2543132.5299999998,"ADDRESS":"中華東路二段７巷１３弄１０號","OBJECTID":151150},"geometry":{"x":171492.19999999925,"y":2543132.5300000012}},{"attributes":{"ID":151152,"DIS_CODE":0,"TOWNNAME":"東區","LI":"東聖里","LIN":"3鄰","STREET":"中華東路","SECT":"二段","MAREA":" ","LANE":"７巷","ALLEY":"１３弄","HOUSE_NO":"１２號","E_COORD97":171497.10000000001,"N_COORD97":2543134.2999999998,"ADDRESS":"中華東路二段７巷１３弄１２號","OBJECTID":151151},"geometry":{"x":171497.09999999963,"y":2543134.3000000007}},{"attributes":{"ID":151153,"DIS_CODE":0,"TOWNNAME":"東區","LI":"東聖里","LIN":"3鄰","STREET":"中華東路","SECT":"二段","MAREA":" ","LANE":"７巷","ALLEY":"１３弄","HOUSE_NO":"１６號","E_COORD97":171504.85000000001,"N_COORD97":2543133.48,"ADDRESS":"中華東路二段７巷１３弄１６號","OBJECTID":151152},"geometry":{"x":171504.85000000056,"y":2543133.4800000023}},{"attributes":{"ID":151154,"DIS_CODE":0,"TOWNNAME":"東區","LI":"東聖里","LIN":"3鄰","STREET":"中華東路","SECT":"二段","MAREA":" ","LANE":"７巷","ALLEY":"１３弄","HOUSE_NO":"１８號","E_COORD97":171511.38,"N_COORD97":2543133.6200000001,"ADDRESS":"中華東路二段７巷１３弄１８號","OBJECTID":151153},"geometry":{"x":171511.38000000082,"y":2543133.6200000029}},{"attributes":{"ID":151155,"DIS_CODE":0,"TOWNNAME":"東區","LI":"後甲里","LIN":"16鄰","STREET":"裕農路","SECT":" ","MAREA":" ","LANE":" ","ALLEY":" ","HOUSE_NO":"６０３號之２","E_COORD97":171568.87,"N_COORD97":2543239,"ADDRESS":"裕農路６０３號之２","OBJECTID":151154},"geometry":{"x":171568.87000000011,"y":2543239.0000000019}},{"attributes":{"ID":151156,"DIS_CODE":0,"TOWNNAME":"東區","LI":"東聖里","LIN":"3鄰","STREET":"中華東路","SECT":"二段","MAREA":" ","LANE":"７巷","ALLEY":"１３弄","HOUSE_NO":"２０號","E_COORD97":171515.60999999999,"N_COORD97":2543135.9300000002,"ADDRESS":"中華東路二段７巷１３弄２０號","OBJECTID":151155},"geometry":{"x":171515.61000000127,"y":2543135.9299999978}},{"attributes":{"ID":151157,"DIS_CODE":0,"TOWNNAME":"東區","LI":"東聖里","LIN":"3鄰","STREET":"中華東路","SECT":"二段","MAREA":" ","LANE":"７巷","ALLEY":"１３弄","HOUSE_NO":"２２號","E_COORD97":171524.31,"N_COORD97":2543138.6400000001,"ADDRESS":"中華東路二段７巷１３弄２２號","OBJECTID":151156},"geometry":{"x":171524.30999999959,"y":2543138.6400000006}},{"attributes":{"ID":151158,"DIS_CODE":0,"TOWNNAME":"東區","LI":"東聖里","LIN":"3鄰","STREET":"中華東路","SECT":"二段","MAREA":" ","LANE":"７巷","ALLEY":"１３弄","HOUSE_NO":"２號","E_COORD97":171472.89000000001,"N_COORD97":2543136.0600000001,"ADDRESS":"中華東路二段７巷１３弄２號","OBJECTID":151157},"geometry":{"x":171472.88999999966,"y":2543136.0600000042}},{"attributes":{"ID":151159,"DIS_CODE":0,"TOWNNAME":"東區","LI":"東聖里","LIN":"3鄰","STREET":"中華東路","SECT":"二段","MAREA":" ","LANE":"７巷","ALLEY":"１３弄","HOUSE_NO":"４號","E_COORD97":171479.01000000001,"N_COORD97":2543136.3300000001,"ADDRESS":"中華東路二段７巷１３弄４號","OBJECTID":151158},"geometry":{"x":171479.00999999978,"y":2543136.3300000001}},{"attributes":{"ID":151160,"DIS_CODE":0,"TOWNNAME":"東區","LI":"東聖里","LIN":"3鄰","STREET":"中華東路","SECT":"二段","MAREA":" ","LANE":"７巷","ALLEY":"１３弄","HOUSE_NO":"８號","E_COORD97":171488.12,"N_COORD97":2543133.8900000001,"ADDRESS":"中華東路二段７巷１３弄８號","OBJECTID":151159},"geometry":{"x":171488.12000000104,"y":2543133.8900000043}},{"attributes":{"ID":151161,"DIS_CODE":0,"TOWNNAME":"永康區","LI":"中興里","LIN":"3鄰","STREET":"中山東路","SECT":" ","MAREA":" ","LANE":"４７２巷","ALLEY":"１弄","HOUSE_NO":"３號","E_COORD97":171944.60000000001,"N_COORD97":2545003,"ADDRESS":"中山東路４７２巷１弄３號","OBJECTID":151160},"geometry":{"x":171944.59999999963,"y":2545003}},{"attributes":{"ID":151162,"DIS_CODE":0,"TOWNNAME":"安南區","LI":"學東里","LIN":"5鄰","STREET":"公學路","SECT":"六段","MAREA":" ","LANE":"４６９巷","ALLEY":"５２弄","HOUSE_NO":"６號","E_COORD97":162604.70999999999,"N_COORD97":2553108.6200000001,"ADDRESS":"公學路六段４６９巷５２弄６號","OBJECTID":151161},"geometry":{"x":162604.71000000089,"y":2553108.6200000029}},{"attributes":{"ID":151163,"DIS_CODE":0,"TOWNNAME":"永康區","LI":"大橋里","LIN":"3鄰","STREET":"大橋三街","SECT":" ","MAREA":" ","LANE":"１２４巷","ALLEY":"１８弄","HOUSE_NO":"８號","E_COORD97":170758.23999999999,"N_COORD97":2546651,"ADDRESS":"大橋三街１２４巷１８弄８號","OBJECTID":151162},"geometry":{"x":170758.24000000115,"y":2546651}},{"attributes":{"ID":151164,"DIS_CODE":0,"TOWNNAME":"永康區","LI":"大橋里","LIN":"3鄰","STREET":"大橋三街","SECT":" ","MAREA":" ","LANE":"１２４巷","ALLEY":"１８弄","HOUSE_NO":"２５號","E_COORD97":170753.95000000001,"N_COORD97":2546637.25,"ADDRESS":"大橋三街１２４巷１８弄２５號","OBJECTID":151163},"geometry":{"x":170753.95000000112,"y":2546637.2500000019}},{"attributes":{"ID":151165,"DIS_CODE":0,"TOWNNAME":"永康區","LI":"中興里","LIN":"3鄰","STREET":"中華一路","SECT":" ","MAREA":" ","LANE":"５８巷","ALLEY":"２弄","HOUSE_NO":"２８號","E_COORD97":171911.85000000001,"N_COORD97":2544991.75,"ADDRESS":"中華一路５８巷２弄２８號","OBJECTID":151164},"geometry":{"x":171911.85000000056,"y":2544991.75}},{"attributes":{"ID":151166,"DIS_CODE":0,"TOWNNAME":"永康區","LI":"中興里","LIN":"3鄰","STREET":"中華一路","SECT":" ","MAREA":" ","LANE":"５８巷","ALLEY":"２弄","HOUSE_NO":"２０號","E_COORD97":171900.73000000001,"N_COORD97":2544991,"ADDRESS":"中華一路５８巷２弄２０號","OBJECTID":151165},"geometry":{"x":171900.73000000045,"y":2544991.0000000019}},{"attributes":{"ID":151167,"DIS_CODE":0,"TOWNNAME":"東區","LI":"後甲里","LIN":" ","STREET":"中華東路","SECT":"一段","MAREA":" ","LANE":" ","ALLEY":" ","HOUSE_NO":"２５３號","E_COORD97":171450.50230399999,"N_COORD97":2543289.0487600002,"ADDRESS":"中華東路一段２５３號","OBJECTID":151166},"geometry":{"x":171450.50230399985,"y":2543289.0487569999}},{"attributes":{"ID":151168,"DIS_CODE":0,"TOWNNAME":"東區","LI":"後甲里","LIN":"25鄰","STREET":"中華東路","SECT":"一段","MAREA":" ","LANE":" ","ALLEY":" ","HOUSE_NO":"１６５號","E_COORD97":171471.60999999999,"N_COORD97":2543482.1899999999,"ADDRESS":"中華東路一段１６５號","OBJECTID":151167},"geometry":{"x":171471.61000000127,"y":2543482.1899999995}},{"attributes":{"ID":151169,"DIS_CODE":0,"TOWNNAME":"安定區","LI":"中沙里","LIN":"5鄰","STREET":" ","SECT":" ","MAREA":"沙崙","LANE":" ","ALLEY":" ","HOUSE_NO":"３５號","E_COORD97":169352.26999999999,"N_COORD97":2552855.29,"ADDRESS":"沙崙３５號","OBJECTID":151168},"geometry":{"x":169352.27000000048,"y":2552855.2899999991}},{"attributes":{"ID":151170,"DIS_CODE":0,"TOWNNAME":"白河區","LI":"外角里","LIN":"5鄰","STREET":" ","SECT":" ","MAREA":"外角","LANE":" ","ALLEY":" ","HOUSE_NO":"５５號","E_COORD97":190468.09,"N_COORD97":2583238.6800000002,"ADDRESS":"外角５５號","OBJECTID":151169},"geometry":{"x":190468.08999999985,"y":2583238.6799999997}},{"attributes":{"ID":151171,"DIS_CODE":0,"TOWNNAME":"永康區","LI":"五王里","LIN":"3鄰","STREET":"中華二路","SECT":" ","MAREA":" ","LANE":"２０６巷","ALLEY":"６９弄","HOUSE_NO":"３號","E_COORD97":171562.48000000001,"N_COORD97":2545634.1800000002,"ADDRESS":"中華二路２０６巷６９弄３號","OBJECTID":151170},"geometry":{"x":171562.48000000138,"y":2545634.1800000016}},{"attributes":{"ID":151172,"DIS_CODE":0,"TOWNNAME":"永康區","LI":"五王里","LIN":"3鄰","STREET":"成功路","SECT":" ","MAREA":" ","LANE":"１７２巷","ALLEY":"１８弄","HOUSE_NO":"２號","E_COORD97":171514.91,"N_COORD97":2545637.27,"ADDRESS":"成功路１７２巷１８弄２號","OBJECTID":151171},"geometry":{"x":171514.91000000108,"y":2545637.2700000014}},{"attributes":{"ID":151173,"DIS_CODE":0,"TOWNNAME":"永康區","LI":"五王里","LIN":"3鄰","STREET":"成功路","SECT":" ","MAREA":" ","LANE":"１７２巷","ALLEY":"１８弄","HOUSE_NO":"１號","E_COORD97":171528.85000000001,"N_COORD97":2545647.5099999998,"ADDRESS":"成功路１７２巷１８弄１號","OBJECTID":151172},"geometry":{"x":171528.85000000056,"y":2545647.5099999998}},{"attributes":{"ID":151174,"DIS_CODE":0,"TOWNNAME":"西港區","LI":"慶安里","LIN":"36鄰","STREET":"中山路","SECT":" ","MAREA":" ","LANE":" ","ALLEY":" ","HOUSE_NO":"３９號","E_COORD97":168475.04000000001,"N_COORD97":2557176.0899999999,"ADDRESS":"中山路３９號","OBJECTID":151173},"geometry":{"x":168475.04000000004,"y":2557176.0900000017}},{"attributes":{"ID":151175,"DIS_CODE":0,"TOWNNAME":"楠西區","LI":"東勢里","LIN":"19鄰","STREET":"水庫路","SECT":" ","MAREA":" ","LANE":" ","ALLEY":" ","HOUSE_NO":"２７７號","E_COORD97":197672.67000000001,"N_COORD97":2563084.25,"ADDRESS":"水庫路２７７號","OBJECTID":151174},"geometry":{"x":197672.66999999899,"y":2563084.2500000019}},{"attributes":{"ID":151176,"DIS_CODE":0,"TOWNNAME":"楠西區","LI":"東勢里","LIN":"19鄰","STREET":"水庫路","SECT":" ","MAREA":" ","LANE":" ","ALLEY":" ","HOUSE_NO":"２７５號","E_COORD97":197669.17000000001,"N_COORD97":2563096.25,"ADDRESS":"水庫路２７５號","OBJECTID":151175},"geometry":{"x":197669.16999999993,"y":2563096.25}},{"attributes":{"ID":151177,"DIS_CODE":0,"TOWNNAME":"楠西區","LI":"照興里","LIN":"18鄰","STREET":" ","SECT":" ","MAREA":"興南","LANE":" ","ALLEY":" ","HOUSE_NO":"４號之１","E_COORD97":196523.64999999999,"N_COORD97":2565188.2999999998,"ADDRESS":"興南４號之１","OBJECTID":151176},"geometry":{"x":196523.65000000037,"y":2565188.3000000007}},{"attributes":{"ID":151178,"DIS_CODE":0,"TOWNNAME":"永康區","LI":"五王里","LIN":"3鄰","STREET":"成功路","SECT":" ","MAREA":" ","LANE":"１７２巷","ALLEY":"８弄","HOUSE_NO":"２３號","E_COORD97":171522.17999999999,"N_COORD97":2545578.6099999999,"ADDRESS":"成功路１７２巷８弄２３號","OBJECTID":151177},"geometry":{"x":171522.1799999997,"y":2545578.6099999994}},{"attributes":{"ID":151179,"DIS_CODE":0,"TOWNNAME":"楠西區","LI":"照興里","LIN":"18鄰","STREET":" ","SECT":" ","MAREA":"興南","LANE":" ","ALLEY":" ","HOUSE_NO":"４號之２","E_COORD97":196546.69,"N_COORD97":2565171.2999999998,"ADDRESS":"興南４號之２","OBJECTID":151178},"geometry":{"x":196546.69000000041,"y":2565171.3000000007}},{"attributes":{"ID":151180,"DIS_CODE":0,"TOWNNAME":"楠西區","LI":"照興里","LIN":"18鄰","STREET":" ","SECT":" ","MAREA":"興南","LANE":" ","ALLEY":" ","HOUSE_NO":"１４號之２","E_COORD97":196507.04000000001,"N_COORD97":2565198.2999999998,"ADDRESS":"興南１４號之２","OBJECTID":151179},"geometry":{"x":196507.04000000004,"y":2565198.3000000007}},{"attributes":{"ID":151181,"DIS_CODE":0,"TOWNNAME":"楠西區","LI":"照興里","LIN":"18鄰","STREET":" ","SECT":" ","MAREA":"興南","LANE":" ","ALLEY":" ","HOUSE_NO":"１４號","E_COORD97":196144.97,"N_COORD97":2565067.25,"ADDRESS":"興南１４號","OBJECTID":151180},"geometry":{"x":196144.9700000016,"y":2565067.2500000019}},{"attributes":{"ID":151182,"DIS_CODE":0,"TOWNNAME":"楠西區","LI":"照興里","LIN":"18鄰","STREET":" ","SECT":" ","MAREA":"興南","LANE":" ","ALLEY":" ","HOUSE_NO":"１５號","E_COORD97":196092.26999999999,"N_COORD97":2565076.25,"ADDRESS":"興南１５號","OBJECTID":151181},"geometry":{"x":196092.27000000048,"y":2565076.25}},{"attributes":{"ID":151183,"DIS_CODE":0,"TOWNNAME":"楠西區","LI":"照興里","LIN":"18鄰","STREET":" ","SECT":" ","MAREA":"興南","LANE":" ","ALLEY":" ","HOUSE_NO":"５號之６","E_COORD97":196494.66,"N_COORD97":2565287.2999999998,"ADDRESS":"興南５號之６","OBJECTID":151182},"geometry":{"x":196494.66000000015,"y":2565287.2999999989}},{"attributes":{"ID":151184,"DIS_CODE":0,"TOWNNAME":"楠西區","LI":"照興里","LIN":"18鄰","STREET":" ","SECT":" ","MAREA":"興南","LANE":" ","ALLEY":" ","HOUSE_NO":"１３號之３","E_COORD97":196327.60000000001,"N_COORD97":2565000.2999999998,"ADDRESS":"興南１３號之３","OBJECTID":151183},"geometry":{"x":196327.60000000056,"y":2565000.3000000026}},{"attributes":{"ID":151185,"DIS_CODE":0,"TOWNNAME":"楠西區","LI":"照興里","LIN":"18鄰","STREET":" ","SECT":" ","MAREA":"興南","LANE":" ","ALLEY":" ","HOUSE_NO":"１３號","E_COORD97":196459.97,"N_COORD97":2565195.25,"ADDRESS":"興南１３號","OBJECTID":151184},"geometry":{"x":196459.96999999974,"y":2565195.2499999981}},{"attributes":{"ID":151186,"DIS_CODE":0,"TOWNNAME":"楠西區","LI":"照興里","LIN":"18鄰","STREET":" ","SECT":" ","MAREA":"興南","LANE":" ","ALLEY":" ","HOUSE_NO":"４號之４","E_COORD97":198117.38,"N_COORD97":2562178.2999999998,"ADDRESS":"興南４號之４","OBJECTID":151185},"geometry":{"x":198117.38000000082,"y":2562178.2999999989}},{"attributes":{"ID":151187,"DIS_CODE":0,"TOWNNAME":"楠西區","LI":"照興里","LIN":"18鄰","STREET":" ","SECT":" ","MAREA":"興南","LANE":" ","ALLEY":" ","HOUSE_NO":"１３號之１","E_COORD97":196359.39999999999,"N_COORD97":2565040.2999999998,"ADDRESS":"興南１３號之１","OBJECTID":151186},"geometry":{"x":196359.40000000037,"y":2565040.3000000026}},{"attributes":{"ID":151188,"DIS_CODE":0,"TOWNNAME":"楠西區","LI":"照興里","LIN":"18鄰","STREET":" ","SECT":" ","MAREA":"興南","LANE":" ","ALLEY":" ","HOUSE_NO":"１６號","E_COORD97":196369.67000000001,"N_COORD97":2564878.25,"ADDRESS":"興南１６號","OBJECTID":151187},"geometry":{"x":196369.67000000086,"y":2564878.2500000019}},{"attributes":{"ID":151189,"DIS_CODE":0,"TOWNNAME":"楠西區","LI":"灣丘里","LIN":"19鄰","STREET":" ","SECT":" ","MAREA":"香蕉山","LANE":" ","ALLEY":" ","HOUSE_NO":"９號之１","E_COORD97":202741.57999999999,"N_COORD97":2564619.2999999998,"ADDRESS":"香蕉山９號之１","OBJECTID":151188},"geometry":{"x":202741.58000000007,"y":2564619.2999999989}},{"attributes":{"ID":151190,"DIS_CODE":0,"TOWNNAME":"安定區","LI":"蘇厝里","LIN":"5鄰","STREET":" ","SECT":" ","MAREA":"蘇厝","LANE":" ","ALLEY":" ","HOUSE_NO":"３２３號","E_COORD97":173136.42000000001,"N_COORD97":2558635.25,"ADDRESS":"蘇厝３２３號","OBJECTID":151189},"geometry":{"x":173136.41999999993,"y":2558635.2500000037}},{"attributes":{"ID":151191,"DIS_CODE":0,"TOWNNAME":"安定區","LI":"中沙里","LIN":"5鄰","STREET":" ","SECT":" ","MAREA":"沙崙","LANE":" ","ALLEY":" ","HOUSE_NO":"５３號","E_COORD97":168955.97,"N_COORD97":2552622.29,"ADDRESS":"沙崙５３號","OBJECTID":151190},"geometry":{"x":168955.97000000067,"y":2552622.2899999991}},{"attributes":{"ID":151192,"DIS_CODE":0,"TOWNNAME":"安定區","LI":"蘇厝里","LIN":"5鄰","STREET":" ","SECT":" ","MAREA":"蘇厝","LANE":" ","ALLEY":" ","HOUSE_NO":"３１６之２號","E_COORD97":173154.01999999999,"N_COORD97":2558557.2999999998,"ADDRESS":"蘇厝３１６之２號","OBJECTID":151191},"geometry":{"x":173154.01999999955,"y":2558557.2999999989}},{"attributes":{"ID":151193,"DIS_CODE":0,"TOWNNAME":"安定區","LI":"蘇林里","LIN":"5鄰","STREET":" ","SECT":" ","MAREA":"蘇厝","LANE":" ","ALLEY":" ","HOUSE_NO":"５５號","E_COORD97":173499.42019199999,"N_COORD97":2558751.4342899998,"ADDRESS":"蘇厝５５號","OBJECTID":151192},"geometry":{"x":173499.42019200046,"y":2558751.4342880007}},{"attributes":{"ID":151194,"DIS_CODE":0,"TOWNNAME":"安定區","LI":"中沙里","LIN":"5鄰","STREET":" ","SECT":" ","MAREA":"沙崙","LANE":" ","ALLEY":" ","HOUSE_NO":"３４號","E_COORD97":168880.17000000001,"N_COORD97":2552476.29,"ADDRESS":"沙崙３４號","OBJECTID":151193},"geometry":{"x":168880.17000000086,"y":2552476.2899999991}},{"attributes":{"ID":151195,"DIS_CODE":0,"TOWNNAME":"安定區","LI":"中沙里","LIN":"5鄰","STREET":" ","SECT":" ","MAREA":"沙崙","LANE":" ","ALLEY":" ","HOUSE_NO":"５５之１號","E_COORD97":169065.37,"N_COORD97":2552783.2999999998,"ADDRESS":"沙崙５５之１號","OBJECTID":151194},"geometry":{"x":169065.37000000197,"y":2552783.3000000007}},{"attributes":{"ID":151196,"DIS_CODE":0,"TOWNNAME":"安定區","LI":"蘇林里","LIN":"5鄰","STREET":" ","SECT":" ","MAREA":"蘇厝","LANE":" ","ALLEY":" ","HOUSE_NO":"６１之１號","E_COORD97":173532.26999999999,"N_COORD97":2558688.2999999998,"ADDRESS":"蘇厝６１之１號","OBJECTID":151195},"geometry":{"x":173532.27000000142,"y":2558688.3000000007}},{"attributes":{"ID":151197,"DIS_CODE":0,"TOWNNAME":"安定區","LI":"中沙里","LIN":"5鄰","STREET":" ","SECT":" ","MAREA":"沙崙","LANE":" ","ALLEY":" ","HOUSE_NO":"４６號","E_COORD97":169259.40793700001,"N_COORD97":2552801.4237099998,"ADDRESS":"沙崙４６號","OBJECTID":151196},"geometry":{"x":169259.40793700144,"y":2552801.4237080012}},{"attributes":{"ID":151198,"DIS_CODE":0,"TOWNNAME":"楠西區","LI":"灣丘里","LIN":"19鄰","STREET":" ","SECT":" ","MAREA":"香蕉山","LANE":" ","ALLEY":" ","HOUSE_NO":"１５號","E_COORD97":203056.59,"N_COORD97":2564805.25,"ADDRESS":"香蕉山１５號","OBJECTID":151197},"geometry":{"x":203056.58999999985,"y":2564805.25}},{"attributes":{"ID":151199,"DIS_CODE":0,"TOWNNAME":"楠西區","LI":"灣丘里","LIN":"19鄰","STREET":" ","SECT":" ","MAREA":"香蕉山","LANE":" ","ALLEY":" ","HOUSE_NO":"９號之６","E_COORD97":202797.57999999999,"N_COORD97":2564608.2999999998,"ADDRESS":"香蕉山９號之６","OBJECTID":151198},"geometry":{"x":202797.58000000007,"y":2564608.3000000007}},{"attributes":{"ID":151200,"DIS_CODE":0,"TOWNNAME":"楠西區","LI":"灣丘里","LIN":"19鄰","STREET":" ","SECT":" ","MAREA":"香蕉山","LANE":" ","ALLEY":" ","HOUSE_NO":"１６號之３","E_COORD97":203240.72,"N_COORD97":2564953.2999999998,"ADDRESS":"香蕉山１６號之３","OBJECTID":151199},"geometry":{"x":203240.71999999974,"y":2564953.3000000026}},{"attributes":{"ID":151201,"DIS_CODE":0,"TOWNNAME":"楠西區","LI":"灣丘里","LIN":"19鄰","STREET":" ","SECT":" ","MAREA":"香蕉山","LANE":" ","ALLEY":" ","HOUSE_NO":"１４號","E_COORD97":203030.89000000001,"N_COORD97":2564713.25,"ADDRESS":"香蕉山１４號","OBJECTID":151200},"geometry":{"x":203030.88999999966,"y":2564713.25}}]}