{"displayFieldName":"TOWNNAME","fieldAliases":{"ID":"ID","DIS_CODE":"DIS_CODE","TOWNNAME":"TOWNNAME","LI":"LI","LIN":"LIN","STREET":"STREET","SECT":"SECT","MAREA":"MAREA","LANE":"LANE","ALLEY":"ALLEY","HOUSE_NO":"HOUSE_NO","E_COORD97":"E_COORD97","N_COORD97":"N_COORD97","ADDRESS":"ADDRESS","OBJECTID":"OBJECTID"},"geometryType":"esriGeometryPoint","spatialReference":{"wkid":102443,"latestWkid":3826},"fields":[{"name":"ID","type":"esriFieldTypeDouble","alias":"ID"},{"name":"DIS_CODE","type":"esriFieldTypeInteger","alias":"DIS_CODE"},{"name":"TOWNNAME","type":"esriFieldTypeString","alias":"TOWNNAME","length":8},{"name":"LI","type":"esriFieldTypeString","alias":"LI","length":8},{"name":"LIN","type":"esriFieldTypeString","alias":"LIN","length":12},{"name":"STREET","type":"esriFieldTypeString","alias":"STREET","length":20},{"name":"SECT","type":"esriFieldTypeString","alias":"SECT","length":8},{"name":"MAREA","type":"esriFieldTypeString","alias":"MAREA","length":12},{"name":"LANE","type":"esriFieldTypeString","alias":"LANE","length":10},{"name":"ALLEY","type":"esriFieldTypeString","alias":"ALLEY","length":10},{"name":"HOUSE_NO","type":"esriFieldTypeString","alias":"HOUSE_NO","length":20},{"name":"E_COORD97","type":"esriFieldTypeDouble","alias":"E_COORD97"},{"name":"N_COORD97","type":"esriFieldTypeDouble","alias":"N_COORD97"},{"name":"ADDRESS","type":"esriFieldTypeString","alias":"ADDRESS","length":50},{"name":"OBJECTID","type":"esriFieldTypeOID","alias":"OBJECTID"}],"features":[{"attributes":{"ID":406025,"DIS_CODE":0,"TOWNNAME":"東區","LI":"大同里","LIN":"27鄰","STREET":"林森路","SECT":"一段","MAREA":" ","LANE":"４３巷","ALLEY":" ","HOUSE_NO":"５號","E_COORD97":169322.14000000001,"N_COORD97":2542486.4700000002,"ADDRESS":"林森路一段４３巷５號","OBJECTID":406001},"geometry":{"x":169322.13999999966,"y":2542486.4700000025}},{"attributes":{"ID":406026,"DIS_CODE":0,"TOWNNAME":"東區","LI":"大同里","LIN":"27鄰","STREET":"林森路","SECT":"一段","MAREA":" ","LANE":"４３巷","ALLEY":" ","HOUSE_NO":"７號","E_COORD97":169327.70999999999,"N_COORD97":2542486.2000000002,"ADDRESS":"林森路一段４３巷７號","OBJECTID":406002},"geometry":{"x":169327.71000000089,"y":2542486.200000003}},{"attributes":{"ID":406027,"DIS_CODE":0,"TOWNNAME":"東區","LI":"大同里","LIN":"27鄰","STREET":"林森路","SECT":"一段","MAREA":" ","LANE":"４３巷","ALLEY":" ","HOUSE_NO":"９號","E_COORD97":169326.35000000001,"N_COORD97":2542495.8300000001,"ADDRESS":"林森路一段４３巷９號","OBJECTID":406003},"geometry":{"x":169326.35000000056,"y":2542495.8300000001}},{"attributes":{"ID":406028,"DIS_CODE":0,"TOWNNAME":"中西區","LI":"西賢里","LIN":"27鄰","STREET":"西賢五街","SECT":" ","MAREA":" ","LANE":"２３巷","ALLEY":" ","HOUSE_NO":"１１號","E_COORD97":165152.73999999999,"N_COORD97":2544610.6499999999,"ADDRESS":"西賢五街２３巷１１號","OBJECTID":406004},"geometry":{"x":165152.74000000115,"y":2544610.6500000022}},{"attributes":{"ID":406029,"DIS_CODE":0,"TOWNNAME":"中西區","LI":"西賢里","LIN":"27鄰","STREET":"西賢五街","SECT":" ","MAREA":" ","LANE":"２３巷","ALLEY":" ","HOUSE_NO":"１３號","E_COORD97":165148.69,"N_COORD97":2544611.52,"ADDRESS":"西賢五街２３巷１３號","OBJECTID":406005},"geometry":{"x":165148.69000000041,"y":2544611.5200000014}},{"attributes":{"ID":406030,"DIS_CODE":0,"TOWNNAME":"中西區","LI":"西賢里","LIN":"27鄰","STREET":"西賢五街","SECT":" ","MAREA":" ","LANE":"２３巷","ALLEY":" ","HOUSE_NO":"１５號","E_COORD97":165145.17999999999,"N_COORD97":2544611.96,"ADDRESS":"西賢五街２３巷１５號","OBJECTID":406006},"geometry":{"x":165145.18000000156,"y":2544611.9600000046}},{"attributes":{"ID":406031,"DIS_CODE":0,"TOWNNAME":"中西區","LI":"西賢里","LIN":"27鄰","STREET":"西賢五街","SECT":" ","MAREA":" ","LANE":"２３巷","ALLEY":" ","HOUSE_NO":"１７號","E_COORD97":165141.78,"N_COORD97":2544614.3199999998,"ADDRESS":"西賢五街２３巷１７號","OBJECTID":406007},"geometry":{"x":165141.78000000212,"y":2544614.3200000003}},{"attributes":{"ID":406032,"DIS_CODE":0,"TOWNNAME":"中西區","LI":"西賢里","LIN":"27鄰","STREET":"西賢五街","SECT":" ","MAREA":" ","LANE":"２３巷","ALLEY":" ","HOUSE_NO":"３７號","E_COORD97":165166.66,"N_COORD97":2544587.8199999998,"ADDRESS":"西賢五街２３巷３７號","OBJECTID":406008},"geometry":{"x":165166.66000000108,"y":2544587.8200000003}},{"attributes":{"ID":406033,"DIS_CODE":0,"TOWNNAME":"中西區","LI":"西賢里","LIN":"27鄰","STREET":"西賢五街","SECT":" ","MAREA":" ","LANE":"２３巷","ALLEY":" ","HOUSE_NO":"３號","E_COORD97":165168.85999999999,"N_COORD97":2544607.3599999999,"ADDRESS":"西賢五街２３巷３號","OBJECTID":406009},"geometry":{"x":165168.86000000127,"y":2544607.3599999994}},{"attributes":{"ID":406034,"DIS_CODE":0,"TOWNNAME":"中西區","LI":"西賢里","LIN":"27鄰","STREET":"西賢五街","SECT":" ","MAREA":" ","LANE":"２３巷","ALLEY":" ","HOUSE_NO":"５號","E_COORD97":165164.47,"N_COORD97":2544608.5699999998,"ADDRESS":"西賢五街２３巷５號","OBJECTID":406010},"geometry":{"x":165164.46999999974,"y":2544608.5700000022}},{"attributes":{"ID":406035,"DIS_CODE":0,"TOWNNAME":"中西區","LI":"西賢里","LIN":"27鄰","STREET":"西賢五街","SECT":" ","MAREA":" ","LANE":"２３巷","ALLEY":" ","HOUSE_NO":"７號","E_COORD97":165161.07000000001,"N_COORD97":2544609.3300000001,"ADDRESS":"西賢五街２３巷７號","OBJECTID":406011},"geometry":{"x":165161.0700000003,"y":2544609.3300000019}},{"attributes":{"ID":406036,"DIS_CODE":0,"TOWNNAME":"中西區","LI":"西賢里","LIN":"27鄰","STREET":"西賢五街","SECT":" ","MAREA":" ","LANE":"２３巷","ALLEY":" ","HOUSE_NO":"９號","E_COORD97":165157.01999999999,"N_COORD97":2544609.8799999999,"ADDRESS":"西賢五街２３巷９號","OBJECTID":406012},"geometry":{"x":165157.02000000048,"y":2544609.879999999}},{"attributes":{"ID":406037,"DIS_CODE":0,"TOWNNAME":"永康區","LI":"勝利里","LIN":"27鄰","STREET":"勝利街","SECT":" ","MAREA":" ","LANE":"５８巷","ALLEY":" ","HOUSE_NO":"２７號","E_COORD97":171445.60999999999,"N_COORD97":2544674.3500000001,"ADDRESS":"勝利街５８巷２７號","OBJECTID":406013},"geometry":{"x":171445.6100000022,"y":2544674.3499999996}},{"attributes":{"ID":406038,"DIS_CODE":0,"TOWNNAME":"永康區","LI":"勝利里","LIN":"27鄰","STREET":"勝利街","SECT":" ","MAREA":" ","LANE":"５８巷","ALLEY":" ","HOUSE_NO":"１２號","E_COORD97":171365.28,"N_COORD97":2544660.2599999998,"ADDRESS":"勝利街５８巷１２號","OBJECTID":406014},"geometry":{"x":171365.28000000119,"y":2544660.2600000016}},{"attributes":{"ID":406039,"DIS_CODE":0,"TOWNNAME":"永康區","LI":"\u25A0洲里","LIN":"27鄰","STREET":"洲尾街","SECT":" ","MAREA":" ","LANE":"１４６巷","ALLEY":" ","HOUSE_NO":"３９號","E_COORD97":171005.26999999999,"N_COORD97":2549034.8799999999,"ADDRESS":"洲尾街１４６巷３９號","OBJECTID":406015},"geometry":{"x":171005.27000000048,"y":2549034.8800000027}},{"attributes":{"ID":406040,"DIS_CODE":0,"TOWNNAME":"永康區","LI":"西灣里","LIN":"27鄰","STREET":"國光八街","SECT":" ","MAREA":" ","LANE":"１２巷","ALLEY":" ","HOUSE_NO":"７號","E_COORD97":174430.57999999999,"N_COORD97":2545821.6899999999,"ADDRESS":"國光八街１２巷７號","OBJECTID":406016},"geometry":{"x":174430.58000000007,"y":2545821.6899999995}},{"attributes":{"ID":406041,"DIS_CODE":0,"TOWNNAME":"永康區","LI":"東灣里","LIN":"27鄰","STREET":"民族路","SECT":" ","MAREA":" ","LANE":"１４５巷","ALLEY":" ","HOUSE_NO":"９２號","E_COORD97":175039.82999999999,"N_COORD97":2544667.6400000001,"ADDRESS":"民族路１４５巷９２號","OBJECTID":406017},"geometry":{"x":175039.83000000101,"y":2544667.6400000006}},{"attributes":{"ID":406042,"DIS_CODE":0,"TOWNNAME":"永康區","LI":"東灣里","LIN":"27鄰","STREET":"民族路","SECT":" ","MAREA":" ","LANE":"１４５巷","ALLEY":" ","HOUSE_NO":"８７號","E_COORD97":175128.82999999999,"N_COORD97":2544687.9199999999,"ADDRESS":"民族路１４５巷８７號","OBJECTID":406018},"geometry":{"x":175128.83000000007,"y":2544687.9199999999}},{"attributes":{"ID":406043,"DIS_CODE":0,"TOWNNAME":"永康區","LI":"西灣里","LIN":"27鄰","STREET":"公園路","SECT":" ","MAREA":" ","LANE":"６３巷","ALLEY":" ","HOUSE_NO":"４５號","E_COORD97":174371.37,"N_COORD97":2545835.9100000001,"ADDRESS":"公園路６３巷４５號","OBJECTID":406019},"geometry":{"x":174371.37000000104,"y":2545835.910000002}},{"attributes":{"ID":406044,"DIS_CODE":0,"TOWNNAME":"佳里區","LI":"建南里","LIN":"27鄰","STREET":"四維二街","SECT":" ","MAREA":" ","LANE":"１５１巷","ALLEY":" ","HOUSE_NO":"１０號","E_COORD97":165703.84,"N_COORD97":2561271.6000000001,"ADDRESS":"四維二街１５１巷１０號","OBJECTID":406020},"geometry":{"x":165703.84000000078,"y":2561271.6000000015}},{"attributes":{"ID":406045,"DIS_CODE":0,"TOWNNAME":"佳里區","LI":"建南里","LIN":"27鄰","STREET":"四維二街","SECT":" ","MAREA":" ","LANE":"１５１巷","ALLEY":" ","HOUSE_NO":"１１號","E_COORD97":165717.48000000001,"N_COORD97":2561285.4300000002,"ADDRESS":"四維二街１５１巷１１號","OBJECTID":406021},"geometry":{"x":165717.48000000138,"y":2561285.4300000016}},{"attributes":{"ID":406046,"DIS_CODE":0,"TOWNNAME":"佳里區","LI":"建南里","LIN":"27鄰","STREET":"四維二街","SECT":" ","MAREA":" ","LANE":"１５１巷","ALLEY":" ","HOUSE_NO":"１２號","E_COORD97":165709.60999999999,"N_COORD97":2561271.52,"ADDRESS":"四維二街１５１巷１２號","OBJECTID":406022},"geometry":{"x":165709.61000000127,"y":2561271.5200000014}},{"attributes":{"ID":406047,"DIS_CODE":0,"TOWNNAME":"佳里區","LI":"建南里","LIN":"27鄰","STREET":"四維二街","SECT":" ","MAREA":" ","LANE":"１５１巷","ALLEY":" ","HOUSE_NO":"１３號","E_COORD97":165723.37,"N_COORD97":2561285.54,"ADDRESS":"四維二街１５１巷１３號","OBJECTID":406023},"geometry":{"x":165723.37000000011,"y":2561285.5399999991}},{"attributes":{"ID":406048,"DIS_CODE":0,"TOWNNAME":"佳里區","LI":"建南里","LIN":"27鄰","STREET":"四維二街","SECT":" ","MAREA":" ","LANE":"１５１巷","ALLEY":" ","HOUSE_NO":"１５號","E_COORD97":165728.47,"N_COORD97":2561285.73,"ADDRESS":"四維二街１５１巷１５號","OBJECTID":406024},"geometry":{"x":165728.47000000067,"y":2561285.7300000004}},{"attributes":{"ID":406049,"DIS_CODE":0,"TOWNNAME":"佳里區","LI":"建南里","LIN":"27鄰","STREET":"四維二街","SECT":" ","MAREA":" ","LANE":"１５１巷","ALLEY":" ","HOUSE_NO":"１６號","E_COORD97":165715.39000000001,"N_COORD97":2561271.4300000002,"ADDRESS":"四維二街１５１巷１６號","OBJECTID":406025},"geometry":{"x":165715.3900000006,"y":2561271.4300000034}},{"attributes":{"ID":406050,"DIS_CODE":0,"TOWNNAME":"佳里區","LI":"建南里","LIN":"27鄰","STREET":"四維二街","SECT":" ","MAREA":" ","LANE":"１５１巷","ALLEY":" ","HOUSE_NO":"１７號","E_COORD97":165734.62,"N_COORD97":2561285.73,"ADDRESS":"四維二街１５１巷１７號","OBJECTID":406026},"geometry":{"x":165734.62000000104,"y":2561285.7300000004}},{"attributes":{"ID":406051,"DIS_CODE":0,"TOWNNAME":"永康區","LI":"復國里","LIN":"5鄰","STREET":"復國二路","SECT":" ","MAREA":" ","LANE":"４０巷","ALLEY":" ","HOUSE_NO":"３號","E_COORD97":172850.53,"N_COORD97":2544995.0299999998,"ADDRESS":"復國二路４０巷３號","OBJECTID":406027},"geometry":{"x":172850.53000000119,"y":2544995.0299999993}},{"attributes":{"ID":406052,"DIS_CODE":0,"TOWNNAME":"佳里區","LI":"建南里","LIN":"27鄰","STREET":"四維二街","SECT":" ","MAREA":" ","LANE":"１５１巷","ALLEY":" ","HOUSE_NO":"１９號","E_COORD97":165739.54999999999,"N_COORD97":2561285.9100000001,"ADDRESS":"四維二街１５１巷１９號","OBJECTID":406028},"geometry":{"x":165739.55000000168,"y":2561285.910000002}},{"attributes":{"ID":406053,"DIS_CODE":0,"TOWNNAME":"佳里區","LI":"建南里","LIN":"27鄰","STREET":"四維二街","SECT":" ","MAREA":" ","LANE":"１５１巷","ALLEY":" ","HOUSE_NO":"１號","E_COORD97":165683.67000000001,"N_COORD97":2561285.2999999998,"ADDRESS":"四維二街１５１巷１號","OBJECTID":406029},"geometry":{"x":165683.67000000086,"y":2561285.3000000007}},{"attributes":{"ID":406054,"DIS_CODE":0,"TOWNNAME":"佳里區","LI":"建南里","LIN":"27鄰","STREET":"四維二街","SECT":" ","MAREA":" ","LANE":"１５１巷","ALLEY":" ","HOUSE_NO":"２０號","E_COORD97":165726.94,"N_COORD97":2561271.2599999998,"ADDRESS":"四維二街１５１巷２０號","OBJECTID":406030},"geometry":{"x":165726.94000000041,"y":2561271.2599999998}},{"attributes":{"ID":406055,"DIS_CODE":0,"TOWNNAME":"佳里區","LI":"建南里","LIN":"27鄰","STREET":"四維二街","SECT":" ","MAREA":" ","LANE":"１５１巷","ALLEY":" ","HOUSE_NO":"２１號","E_COORD97":165745.17000000001,"N_COORD97":2561285.8199999998,"ADDRESS":"四維二街１５１巷２１號","OBJECTID":406031},"geometry":{"x":165745.16999999993,"y":2561285.8200000003}},{"attributes":{"ID":406056,"DIS_CODE":0,"TOWNNAME":"佳里區","LI":"建南里","LIN":"27鄰","STREET":"四維二街","SECT":" ","MAREA":" ","LANE":"１５１巷","ALLEY":" ","HOUSE_NO":"２２號","E_COORD97":165732.70999999999,"N_COORD97":2561271.1800000002,"ADDRESS":"四維二街１５１巷２２號","OBJECTID":406032},"geometry":{"x":165732.70999999996,"y":2561271.1800000016}},{"attributes":{"ID":406057,"DIS_CODE":0,"TOWNNAME":"永康區","LI":"西灣里","LIN":"27鄰","STREET":"國光八街","SECT":" ","MAREA":" ","LANE":"１２巷","ALLEY":" ","HOUSE_NO":"２６號","E_COORD97":174450.45000000001,"N_COORD97":2545840.4900000002,"ADDRESS":"國光八街１２巷２６號","OBJECTID":406033},"geometry":{"x":174450.45000000205,"y":2545840.4900000002}},{"attributes":{"ID":406058,"DIS_CODE":0,"TOWNNAME":"永康區","LI":"東灣里","LIN":"27鄰","STREET":"民族路","SECT":" ","MAREA":" ","LANE":"１４５巷","ALLEY":" ","HOUSE_NO":"１０３號","E_COORD97":175101.42000000001,"N_COORD97":2544669.3300000001,"ADDRESS":"民族路１４５巷１０３號","OBJECTID":406034},"geometry":{"x":175101.42000000179,"y":2544669.3300000001}},{"attributes":{"ID":406059,"DIS_CODE":0,"TOWNNAME":"永康區","LI":"東灣里","LIN":"27鄰","STREET":"大灣一街","SECT":" ","MAREA":" ","LANE":"３１２巷","ALLEY":" ","HOUSE_NO":"１號","E_COORD97":175057.53,"N_COORD97":2544705.46,"ADDRESS":"大灣一街３１２巷１號","OBJECTID":406035},"geometry":{"x":175057.53000000119,"y":2544705.4600000009}},{"attributes":{"ID":406060,"DIS_CODE":0,"TOWNNAME":"永康區","LI":"東灣里","LIN":"27鄰","STREET":"大灣一街","SECT":" ","MAREA":" ","LANE":"３１２巷","ALLEY":" ","HOUSE_NO":"１５號","E_COORD97":175073.28,"N_COORD97":2544682.7200000002,"ADDRESS":"大灣一街３１２巷１５號","OBJECTID":406036},"geometry":{"x":175073.28000000026,"y":2544682.7200000025}},{"attributes":{"ID":406061,"DIS_CODE":0,"TOWNNAME":"佳里區","LI":"安西里","LIN":"27鄰","STREET":"安西路","SECT":" ","MAREA":" ","LANE":"３４９巷","ALLEY":" ","HOUSE_NO":"８號","E_COORD97":165235.75,"N_COORD97":2563098.9100000001,"ADDRESS":"安西路３４９巷８號","OBJECTID":406037},"geometry":{"x":165235.75,"y":2563098.9100000001}},{"attributes":{"ID":406062,"DIS_CODE":0,"TOWNNAME":"中西區","LI":"西賢里","LIN":"13鄰","STREET":"西賢一街","SECT":" ","MAREA":" ","LANE":"２１２巷","ALLEY":" ","HOUSE_NO":"１３號","E_COORD97":165755.59,"N_COORD97":2544892.6200000001,"ADDRESS":"西賢一街２１２巷１３號","OBJECTID":406038},"geometry":{"x":165755.58999999985,"y":2544892.6200000048}},{"attributes":{"ID":406063,"DIS_CODE":0,"TOWNNAME":"中西區","LI":"西賢里","LIN":"13鄰","STREET":"西賢一街","SECT":" ","MAREA":" ","LANE":"２１２巷","ALLEY":" ","HOUSE_NO":"１５號","E_COORD97":165760.10000000001,"N_COORD97":2544893.4900000002,"ADDRESS":"西賢一街２１２巷１５號","OBJECTID":406039},"geometry":{"x":165760.10000000056,"y":2544893.4900000021}},{"attributes":{"ID":406064,"DIS_CODE":0,"TOWNNAME":"中西區","LI":"西賢里","LIN":"13鄰","STREET":"西賢一街","SECT":" ","MAREA":" ","LANE":"２１２巷","ALLEY":" ","HOUSE_NO":"１號","E_COORD97":165722.64000000001,"N_COORD97":2544893.4900000002,"ADDRESS":"西賢一街２１２巷１號","OBJECTID":406040},"geometry":{"x":165722.63999999966,"y":2544893.4900000021}},{"attributes":{"ID":406065,"DIS_CODE":0,"TOWNNAME":"中西區","LI":"西賢里","LIN":"13鄰","STREET":"西賢一街","SECT":" ","MAREA":" ","LANE":"２１２巷","ALLEY":" ","HOUSE_NO":"３１號","E_COORD97":165791.32999999999,"N_COORD97":2544890.6800000002,"ADDRESS":"西賢一街２１２巷３１號","OBJECTID":406041},"geometry":{"x":165791.33000000007,"y":2544890.6800000034}},{"attributes":{"ID":406066,"DIS_CODE":0,"TOWNNAME":"中西區","LI":"西賢里","LIN":"13鄰","STREET":"西賢一街","SECT":" ","MAREA":" ","LANE":"２１２巷","ALLEY":" ","HOUSE_NO":"３３號","E_COORD97":165796.73999999999,"N_COORD97":2544890.4700000002,"ADDRESS":"西賢一街２１２巷３３號","OBJECTID":406042},"geometry":{"x":165796.74000000115,"y":2544890.4700000025}},{"attributes":{"ID":406067,"DIS_CODE":0,"TOWNNAME":"中西區","LI":"西賢里","LIN":"13鄰","STREET":"西賢一街","SECT":" ","MAREA":" ","LANE":"２１２巷","ALLEY":" ","HOUSE_NO":"３５號","E_COORD97":165803.22,"N_COORD97":2544890.25,"ADDRESS":"西賢一街２１２巷３５號","OBJECTID":406043},"geometry":{"x":165803.22000000067,"y":2544890.2499999981}},{"attributes":{"ID":406068,"DIS_CODE":0,"TOWNNAME":"中西區","LI":"西賢里","LIN":"13鄰","STREET":"西賢一街","SECT":" ","MAREA":" ","LANE":"２１２巷","ALLEY":" ","HOUSE_NO":"３７號","E_COORD97":165808.84,"N_COORD97":2544890.6800000002,"ADDRESS":"西賢一街２１２巷３７號","OBJECTID":406044},"geometry":{"x":165808.84000000171,"y":2544890.6800000034}},{"attributes":{"ID":406069,"DIS_CODE":0,"TOWNNAME":"中西區","LI":"西賢里","LIN":"13鄰","STREET":"西賢一街","SECT":" ","MAREA":" ","LANE":"２１２巷","ALLEY":" ","HOUSE_NO":"３號","E_COORD97":165728.19,"N_COORD97":2544893.4900000002,"ADDRESS":"西賢一街２１２巷３號","OBJECTID":406045},"geometry":{"x":165728.19000000041,"y":2544893.4900000021}},{"attributes":{"ID":406070,"DIS_CODE":0,"TOWNNAME":"中西區","LI":"西賢里","LIN":"13鄰","STREET":"西賢一街","SECT":" ","MAREA":" ","LANE":"２１２巷","ALLEY":" ","HOUSE_NO":"５號","E_COORD97":165733.22,"N_COORD97":2544893.4900000002,"ADDRESS":"西賢一街２１２巷５號","OBJECTID":406046},"geometry":{"x":165733.2200000016,"y":2544893.4900000021}},{"attributes":{"ID":406071,"DIS_CODE":0,"TOWNNAME":"中西區","LI":"西賢里","LIN":"13鄰","STREET":"西賢一街","SECT":" ","MAREA":" ","LANE":"２１２巷","ALLEY":" ","HOUSE_NO":"７號","E_COORD97":165738.25,"N_COORD97":2544892.9700000002,"ADDRESS":"西賢一街２１２巷７號","OBJECTID":406047},"geometry":{"x":165738.24999999907,"y":2544892.9700000044}},{"attributes":{"ID":406072,"DIS_CODE":0,"TOWNNAME":"中西區","LI":"西賢里","LIN":"13鄰","STREET":"西賢一街","SECT":" ","MAREA":" ","LANE":"２１２巷","ALLEY":" ","HOUSE_NO":"９號","E_COORD97":165744.14999999999,"N_COORD97":2544892.9700000002,"ADDRESS":"西賢一街２１２巷９號","OBJECTID":406048},"geometry":{"x":165744.15000000037,"y":2544892.9700000044}},{"attributes":{"ID":406073,"DIS_CODE":0,"TOWNNAME":"中西區","LI":"西賢里","LIN":"13鄰","STREET":"西賢一街","SECT":" ","MAREA":" ","LANE":"２３０巷","ALLEY":" ","HOUSE_NO":"２０號","E_COORD97":165769.20999999999,"N_COORD97":2544933.1899999999,"ADDRESS":"西賢一街２３０巷２０號","OBJECTID":406049},"geometry":{"x":165769.21000000089,"y":2544933.1899999995}},{"attributes":{"ID":406074,"DIS_CODE":0,"TOWNNAME":"中西區","LI":"西賢里","LIN":"13鄰","STREET":"西賢一街","SECT":" ","MAREA":" ","LANE":"２３０巷","ALLEY":" ","HOUSE_NO":"２２號","E_COORD97":165768.35000000001,"N_COORD97":2544925.8599999999,"ADDRESS":"西賢一街２３０巷２２號","OBJECTID":406050},"geometry":{"x":165768.35000000056,"y":2544925.8599999994}},{"attributes":{"ID":406075,"DIS_CODE":0,"TOWNNAME":"中西區","LI":"西賢里","LIN":"13鄰","STREET":"西賢一街","SECT":" ","MAREA":" ","LANE":"２３０巷","ALLEY":" ","HOUSE_NO":"２６號","E_COORD97":165767.48999999999,"N_COORD97":2544918.9500000002,"ADDRESS":"西賢一街２３０巷２６號","OBJECTID":406051},"geometry":{"x":165767.49000000209,"y":2544918.950000003}},{"attributes":{"ID":406076,"DIS_CODE":0,"TOWNNAME":"中西區","LI":"西賢里","LIN":"13鄰","STREET":"西賢一街","SECT":" ","MAREA":" ","LANE":"２３０巷","ALLEY":" ","HOUSE_NO":"２８號","E_COORD97":165767.92000000001,"N_COORD97":2544912.9100000001,"ADDRESS":"西賢一街２３０巷２８號","OBJECTID":406052},"geometry":{"x":165767.92000000086,"y":2544912.9100000001}},{"attributes":{"ID":406077,"DIS_CODE":0,"TOWNNAME":"中西區","LI":"西賢里","LIN":"13鄰","STREET":"西賢一街","SECT":" ","MAREA":" ","LANE":"２３０巷","ALLEY":" ","HOUSE_NO":"３０號","E_COORD97":165767.92000000001,"N_COORD97":2544906.8700000001,"ADDRESS":"西賢一街２３０巷３０號","OBJECTID":406053},"geometry":{"x":165767.92000000086,"y":2544906.870000001}},{"attributes":{"ID":406078,"DIS_CODE":0,"TOWNNAME":"中西區","LI":"西賢里","LIN":"14鄰","STREET":"西賢一街","SECT":" ","MAREA":" ","LANE":"２３０巷","ALLEY":" ","HOUSE_NO":"１３號底層之２","E_COORD97":165739.92999999999,"N_COORD97":2544957.48,"ADDRESS":"西賢一街２３０巷１３號底層之２","OBJECTID":406054},"geometry":{"x":165739.9299999997,"y":2544957.4800000042}},{"attributes":{"ID":406079,"DIS_CODE":0,"TOWNNAME":"中西區","LI":"西賢里","LIN":"14鄰","STREET":"西賢一街","SECT":" ","MAREA":" ","LANE":"２３０巷","ALLEY":" ","HOUSE_NO":"１３號底層之３","E_COORD97":165739.92999999999,"N_COORD97":2544957.48,"ADDRESS":"西賢一街２３０巷１３號底層之３","OBJECTID":406055},"geometry":{"x":165739.9299999997,"y":2544957.4800000042}},{"attributes":{"ID":406080,"DIS_CODE":0,"TOWNNAME":"中西區","LI":"西賢里","LIN":"14鄰","STREET":"西賢一街","SECT":" ","MAREA":" ","LANE":"２３０巷","ALLEY":" ","HOUSE_NO":"１５號","E_COORD97":165744.87,"N_COORD97":2544964.9700000002,"ADDRESS":"西賢一街２３０巷１５號","OBJECTID":406056},"geometry":{"x":165744.87000000104,"y":2544964.9700000025}},{"attributes":{"ID":406081,"DIS_CODE":0,"TOWNNAME":"中西區","LI":"西賢里","LIN":"14鄰","STREET":"西賢一街","SECT":" ","MAREA":" ","LANE":"２３０巷","ALLEY":" ","HOUSE_NO":"１７號","E_COORD97":165761.04999999999,"N_COORD97":2544965.5600000001,"ADDRESS":"西賢一街２３０巷１７號","OBJECTID":406057},"geometry":{"x":165761.04999999981,"y":2544965.5600000005}},{"attributes":{"ID":406082,"DIS_CODE":0,"TOWNNAME":"中西區","LI":"西賢里","LIN":"14鄰","STREET":"西賢一街","SECT":" ","MAREA":" ","LANE":"２３０巷","ALLEY":" ","HOUSE_NO":"１９號","E_COORD97":165767.95999999999,"N_COORD97":2544956.1000000001,"ADDRESS":"西賢一街２３０巷１９號","OBJECTID":406058},"geometry":{"x":165767.96000000089,"y":2544956.1000000015}},{"attributes":{"ID":406083,"DIS_CODE":0,"TOWNNAME":"中西區","LI":"西賢里","LIN":"14鄰","STREET":"西賢一街","SECT":" ","MAREA":" ","LANE":"２３０巷","ALLEY":" ","HOUSE_NO":"１號","E_COORD97":165702.17999999999,"N_COORD97":2544957.8599999999,"ADDRESS":"西賢一街２３０巷１號","OBJECTID":406059},"geometry":{"x":165702.1799999997,"y":2544957.8600000013}},{"attributes":{"ID":406084,"DIS_CODE":0,"TOWNNAME":"中西區","LI":"西賢里","LIN":"14鄰","STREET":"西賢一街","SECT":" ","MAREA":" ","LANE":"２３０巷","ALLEY":" ","HOUSE_NO":"２１號","E_COORD97":165778.60999999999,"N_COORD97":2544954.9100000001,"ADDRESS":"西賢一街２３０巷２１號","OBJECTID":406060},"geometry":{"x":165778.6100000022,"y":2544954.910000002}},{"attributes":{"ID":406085,"DIS_CODE":0,"TOWNNAME":"中西區","LI":"西賢里","LIN":"14鄰","STREET":"西賢一街","SECT":" ","MAREA":" ","LANE":"２３０巷","ALLEY":" ","HOUSE_NO":"２３號","E_COORD97":165784.53,"N_COORD97":2544954.52,"ADDRESS":"西賢一街２３０巷２３號","OBJECTID":406061},"geometry":{"x":165784.53000000119,"y":2544954.5199999996}},{"attributes":{"ID":406086,"DIS_CODE":0,"TOWNNAME":"中西區","LI":"西賢里","LIN":"14鄰","STREET":"西賢一街","SECT":" ","MAREA":" ","LANE":"２３０巷","ALLEY":" ","HOUSE_NO":"２５號","E_COORD97":165789.47,"N_COORD97":2544954.3199999998,"ADDRESS":"西賢一街２３０巷２５號","OBJECTID":406062},"geometry":{"x":165789.47000000067,"y":2544954.3200000003}},{"attributes":{"ID":406087,"DIS_CODE":0,"TOWNNAME":"中西區","LI":"西賢里","LIN":"14鄰","STREET":"西賢一街","SECT":" ","MAREA":" ","LANE":"２３０巷","ALLEY":" ","HOUSE_NO":"２７號","E_COORD97":165794.01000000001,"N_COORD97":2544954.3199999998,"ADDRESS":"西賢一街２３０巷２７號","OBJECTID":406063},"geometry":{"x":165794.01000000164,"y":2544954.3200000003}},{"attributes":{"ID":406088,"DIS_CODE":0,"TOWNNAME":"中西區","LI":"西賢里","LIN":"14鄰","STREET":"西賢一街","SECT":" ","MAREA":" ","LANE":"２３０巷","ALLEY":" ","HOUSE_NO":"２９號","E_COORD97":165799.53,"N_COORD97":2544954.3199999998,"ADDRESS":"西賢一街２３０巷２９號","OBJECTID":406064},"geometry":{"x":165799.53000000212,"y":2544954.3200000003}},{"attributes":{"ID":406089,"DIS_CODE":0,"TOWNNAME":"永康區","LI":"東灣里","LIN":"27鄰","STREET":"大灣一街","SECT":" ","MAREA":" ","LANE":"３１２巷","ALLEY":" ","HOUSE_NO":"５號","E_COORD97":175062.89000000001,"N_COORD97":2544697.96,"ADDRESS":"大灣一街３１２巷５號","OBJECTID":406065},"geometry":{"x":175062.8900000006,"y":2544697.9600000028}},{"attributes":{"ID":406090,"DIS_CODE":0,"TOWNNAME":"永康區","LI":"東灣里","LIN":"27鄰","STREET":"大灣一街","SECT":" ","MAREA":" ","LANE":"３１２巷","ALLEY":" ","HOUSE_NO":"１１號","E_COORD97":175068.51000000001,"N_COORD97":2544689.9700000002,"ADDRESS":"大灣一街３１２巷１１號","OBJECTID":406066},"geometry":{"x":175068.51000000071,"y":2544689.9700000025}},{"attributes":{"ID":406091,"DIS_CODE":0,"TOWNNAME":"永康區","LI":"東灣里","LIN":"27鄰","STREET":"大灣一街","SECT":" ","MAREA":" ","LANE":"３１２巷","ALLEY":" ","HOUSE_NO":"１３號","E_COORD97":175070.73000000001,"N_COORD97":2544686.4700000002,"ADDRESS":"大灣一街３１２巷１３號","OBJECTID":406067},"geometry":{"x":175070.73000000045,"y":2544686.4700000044}},{"attributes":{"ID":406092,"DIS_CODE":0,"TOWNNAME":"佳里區","LI":"安西里","LIN":"27鄰","STREET":"安西路","SECT":" ","MAREA":" ","LANE":"３４９巷","ALLEY":" ","HOUSE_NO":"３號","E_COORD97":165244.92999999999,"N_COORD97":2563069.3999999999,"ADDRESS":"安西路３４９巷３號","OBJECTID":406068},"geometry":{"x":165244.9299999997,"y":2563069.4000000022}},{"attributes":{"ID":406093,"DIS_CODE":0,"TOWNNAME":"佳里區","LI":"安西里","LIN":"27鄰","STREET":"安西路","SECT":" ","MAREA":" ","LANE":"３４９巷","ALLEY":" ","HOUSE_NO":"５號","E_COORD97":165240.79999999999,"N_COORD97":2563071.8500000001,"ADDRESS":"安西路３４９巷５號","OBJECTID":406069},"geometry":{"x":165240.79999999981,"y":2563071.8499999978}},{"attributes":{"ID":406094,"DIS_CODE":0,"TOWNNAME":"佳里區","LI":"安西里","LIN":"27鄰","STREET":"安西路","SECT":" ","MAREA":" ","LANE":"３４９巷","ALLEY":" ","HOUSE_NO":"９號","E_COORD97":165234.12,"N_COORD97":2563077.6899999999,"ADDRESS":"安西路３４９巷９號","OBJECTID":406070},"geometry":{"x":165234.12000000197,"y":2563077.6900000013}},{"attributes":{"ID":406095,"DIS_CODE":0,"TOWNNAME":"官田區","LI":"隆田里","LIN":"27鄰","STREET":"中山路","SECT":"二段","MAREA":" ","LANE":"５３巷","ALLEY":" ","HOUSE_NO":"１２號之１","E_COORD97":178978.92999999999,"N_COORD97":2565922.3799999999,"ADDRESS":"中山路二段５３巷１２號之１","OBJECTID":406071},"geometry":{"x":178978.9299999997,"y":2565922.3800000027}},{"attributes":{"ID":406096,"DIS_CODE":0,"TOWNNAME":"官田區","LI":"隆田里","LIN":"27鄰","STREET":"中山路","SECT":"二段","MAREA":" ","LANE":"５３巷","ALLEY":" ","HOUSE_NO":"１６號","E_COORD97":178973.60000000001,"N_COORD97":2565924.6600000001,"ADDRESS":"中山路二段５３巷１６號","OBJECTID":406072},"geometry":{"x":178973.60000000056,"y":2565924.6600000001}},{"attributes":{"ID":406097,"DIS_CODE":0,"TOWNNAME":"中西區","LI":"大涼里","LIN":"13鄰","STREET":"金城街","SECT":" ","MAREA":" ","LANE":" ","ALLEY":" ","HOUSE_NO":"７７號","E_COORD97":166854.23999999999,"N_COORD97":2543698.3999999999,"ADDRESS":"金城街７７號","OBJECTID":406073},"geometry":{"x":166854.24000000115,"y":2543698.4000000004}},{"attributes":{"ID":406098,"DIS_CODE":0,"TOWNNAME":"官田區","LI":"隆田里","LIN":"27鄰","STREET":"中山路","SECT":"二段","MAREA":" ","LANE":"５３巷","ALLEY":" ","HOUSE_NO":"１８號","E_COORD97":178968.10999999999,"N_COORD97":2565926.9199999999,"ADDRESS":"中山路二段５３巷１８號","OBJECTID":406074},"geometry":{"x":178968.11000000034,"y":2565926.9200000018}},{"attributes":{"ID":406099,"DIS_CODE":0,"TOWNNAME":"官田區","LI":"隆田里","LIN":"27鄰","STREET":"中山路","SECT":"二段","MAREA":" ","LANE":"５３巷","ALLEY":" ","HOUSE_NO":"２０號","E_COORD97":178962.42999999999,"N_COORD97":2565929.2999999998,"ADDRESS":"中山路二段５３巷２０號","OBJECTID":406075},"geometry":{"x":178962.4299999997,"y":2565929.3000000026}},{"attributes":{"ID":406100,"DIS_CODE":0,"TOWNNAME":"官田區","LI":"隆田里","LIN":"27鄰","STREET":"中山路","SECT":"二段","MAREA":" ","LANE":"５３巷","ALLEY":" ","HOUSE_NO":"２２號","E_COORD97":178951.48000000001,"N_COORD97":2565930.3799999999,"ADDRESS":"中山路二段５３巷２２號","OBJECTID":406076},"geometry":{"x":178951.48000000138,"y":2565930.3800000008}},{"attributes":{"ID":406101,"DIS_CODE":0,"TOWNNAME":"官田區","LI":"隆田里","LIN":"27鄰","STREET":"中山路","SECT":"二段","MAREA":" ","LANE":"５３巷","ALLEY":" ","HOUSE_NO":"２４號","E_COORD97":178952.95999999999,"N_COORD97":2565934.3100000001,"ADDRESS":"中山路二段５３巷２４號","OBJECTID":406077},"geometry":{"x":178952.96000000089,"y":2565934.3100000005}},{"attributes":{"ID":406102,"DIS_CODE":0,"TOWNNAME":"官田區","LI":"隆田里","LIN":"27鄰","STREET":"中山路","SECT":"二段","MAREA":" ","LANE":"５３巷","ALLEY":" ","HOUSE_NO":"２５號之１","E_COORD97":178965.45000000001,"N_COORD97":2565909.2799999998,"ADDRESS":"中山路二段５３巷２５號之１","OBJECTID":406078},"geometry":{"x":178965.45000000112,"y":2565909.2799999993}},{"attributes":{"ID":406103,"DIS_CODE":0,"TOWNNAME":"官田區","LI":"隆田里","LIN":"27鄰","STREET":"中山路","SECT":"二段","MAREA":" ","LANE":"５３巷","ALLEY":" ","HOUSE_NO":"２５號","E_COORD97":178967.79000000001,"N_COORD97":2565915.04,"ADDRESS":"中山路二段５３巷２５號","OBJECTID":406079},"geometry":{"x":178967.79000000097,"y":2565915.040000001}},{"attributes":{"ID":406104,"DIS_CODE":0,"TOWNNAME":"官田區","LI":"隆田里","LIN":"27鄰","STREET":"中山路","SECT":"二段","MAREA":" ","LANE":"５３巷","ALLEY":" ","HOUSE_NO":"２６號","E_COORD97":178954.42999999999,"N_COORD97":2565937.96,"ADDRESS":"中山路二段５３巷２６號","OBJECTID":406080},"geometry":{"x":178954.43000000063,"y":2565937.9600000028}},{"attributes":{"ID":406105,"DIS_CODE":0,"TOWNNAME":"官田區","LI":"隆田里","LIN":"27鄰","STREET":"中山路","SECT":"二段","MAREA":" ","LANE":"５３巷","ALLEY":" ","HOUSE_NO":"２７號","E_COORD97":178956.41,"N_COORD97":2565914.4399999999,"ADDRESS":"中山路二段５３巷２７號","OBJECTID":406081},"geometry":{"x":178956.40999999922,"y":2565914.4399999995}},{"attributes":{"ID":406106,"DIS_CODE":0,"TOWNNAME":"官田區","LI":"隆田里","LIN":"27鄰","STREET":"中山路","SECT":"二段","MAREA":" ","LANE":"５３巷","ALLEY":" ","HOUSE_NO":"２８號","E_COORD97":178954.78,"N_COORD97":2565948.4500000002,"ADDRESS":"中山路二段５３巷２８號","OBJECTID":406082},"geometry":{"x":178954.78000000119,"y":2565948.4499999993}},{"attributes":{"ID":406107,"DIS_CODE":0,"TOWNNAME":"官田區","LI":"隆田里","LIN":"27鄰","STREET":"中山路","SECT":"二段","MAREA":" ","LANE":"５３巷","ALLEY":" ","HOUSE_NO":"２９號","E_COORD97":178949.91,"N_COORD97":2565916.4100000001,"ADDRESS":"中山路二段５３巷２９號","OBJECTID":406083},"geometry":{"x":178949.91000000108,"y":2565916.4100000001}},{"attributes":{"ID":406108,"DIS_CODE":0,"TOWNNAME":"官田區","LI":"隆田里","LIN":"27鄰","STREET":"中山路","SECT":"二段","MAREA":" ","LANE":"５３巷","ALLEY":" ","HOUSE_NO":"３０號","E_COORD97":178951.32000000001,"N_COORD97":2565950.2400000002,"ADDRESS":"中山路二段５３巷３０號","OBJECTID":406084},"geometry":{"x":178951.32000000123,"y":2565950.2400000002}},{"attributes":{"ID":406109,"DIS_CODE":0,"TOWNNAME":"官田區","LI":"隆田里","LIN":"27鄰","STREET":"中山路","SECT":"二段","MAREA":" ","LANE":"５３巷","ALLEY":" ","HOUSE_NO":"３１號","E_COORD97":178943.31,"N_COORD97":2565920.8700000001,"ADDRESS":"中山路二段５３巷３１號","OBJECTID":406085},"geometry":{"x":178943.31000000052,"y":2565920.870000001}},{"attributes":{"ID":406110,"DIS_CODE":0,"TOWNNAME":"新營區","LI":"大宏里","LIN":"27鄰","STREET":"開元路","SECT":" ","MAREA":" ","LANE":"５９巷","ALLEY":" ","HOUSE_NO":"４０之３號六樓","E_COORD97":180900.06,"N_COORD97":2578823.27,"ADDRESS":"開元路５９巷４０之３號六樓","OBJECTID":406086},"geometry":{"x":180900.06000000052,"y":2578823.2699999996}},{"attributes":{"ID":406111,"DIS_CODE":0,"TOWNNAME":"新營區","LI":"大宏里","LIN":"27鄰","STREET":"開元路","SECT":" ","MAREA":" ","LANE":"５９巷","ALLEY":" ","HOUSE_NO":"４０之３號三樓","E_COORD97":180900.06,"N_COORD97":2578823.27,"ADDRESS":"開元路５９巷４０之３號三樓","OBJECTID":406087},"geometry":{"x":180900.06000000052,"y":2578823.2699999996}},{"attributes":{"ID":406112,"DIS_CODE":0,"TOWNNAME":"中西區","LI":"藥王里","LIN":"8鄰","STREET":"大新街","SECT":" ","MAREA":" ","LANE":"７巷","ALLEY":" ","HOUSE_NO":"１９號","E_COORD97":167081.26000000001,"N_COORD97":2544336.9399999999,"ADDRESS":"大新街７巷１９號","OBJECTID":406088},"geometry":{"x":167081.26000000071,"y":2544336.9400000013}},{"attributes":{"ID":406113,"DIS_CODE":0,"TOWNNAME":"新營區","LI":"新南里","LIN":"27鄰","STREET":"復興路","SECT":" ","MAREA":" ","LANE":"６２０巷","ALLEY":" ","HOUSE_NO":"６３號三樓之７","E_COORD97":178045.66,"N_COORD97":2578545.6099999999,"ADDRESS":"復興路６２０巷６３號三樓之７","OBJECTID":406089},"geometry":{"x":178045.66000000015,"y":2578545.6099999994}},{"attributes":{"ID":406114,"DIS_CODE":0,"TOWNNAME":"新營區","LI":"新南里","LIN":"27鄰","STREET":"復興路","SECT":" ","MAREA":" ","LANE":"６２０巷","ALLEY":" ","HOUSE_NO":"６３號五樓之１","E_COORD97":178045.57999999999,"N_COORD97":2578545.6099999999,"ADDRESS":"復興路６２０巷６３號五樓之１","OBJECTID":406090},"geometry":{"x":178045.58000000101,"y":2578545.6099999994}},{"attributes":{"ID":406115,"DIS_CODE":0,"TOWNNAME":"新營區","LI":"新南里","LIN":"27鄰","STREET":"復興路","SECT":" ","MAREA":" ","LANE":"６２０巷","ALLEY":" ","HOUSE_NO":"６３號二樓之３","E_COORD97":178045.67999999999,"N_COORD97":2578545.6099999999,"ADDRESS":"復興路６２０巷６３號二樓之３","OBJECTID":406091},"geometry":{"x":178045.68000000156,"y":2578545.6099999994}},{"attributes":{"ID":406116,"DIS_CODE":0,"TOWNNAME":"新營區","LI":"大宏里","LIN":"27鄰","STREET":"開元路","SECT":" ","MAREA":" ","LANE":"５９巷","ALLEY":" ","HOUSE_NO":"４０之２號八樓","E_COORD97":180900.06,"N_COORD97":2578823.27,"ADDRESS":"開元路５９巷４０之２號八樓","OBJECTID":406092},"geometry":{"x":180900.06000000052,"y":2578823.2699999996}},{"attributes":{"ID":406117,"DIS_CODE":0,"TOWNNAME":"新營區","LI":"新南里","LIN":"27鄰","STREET":"復興路","SECT":" ","MAREA":" ","LANE":"６２０巷","ALLEY":" ","HOUSE_NO":"６３號三樓之２","E_COORD97":178045.70999999999,"N_COORD97":2578545.6099999999,"ADDRESS":"復興路６２０巷６３號三樓之２","OBJECTID":406093},"geometry":{"x":178045.71000000183,"y":2578545.6099999994}},{"attributes":{"ID":406118,"DIS_CODE":0,"TOWNNAME":"新營區","LI":"大宏里","LIN":"27鄰","STREET":"開元路","SECT":" ","MAREA":" ","LANE":"５９巷","ALLEY":" ","HOUSE_NO":"４０之３號十二樓","E_COORD97":180901.31,"N_COORD97":2578823.27,"ADDRESS":"開元路５９巷４０之３號十二樓","OBJECTID":406094},"geometry":{"x":180901.31000000052,"y":2578823.2699999996}},{"attributes":{"ID":406119,"DIS_CODE":0,"TOWNNAME":"中西區","LI":"藥王里","LIN":"9鄰","STREET":"民權路","SECT":"三段","MAREA":" ","LANE":"３２０巷","ALLEY":" ","HOUSE_NO":"１６號","E_COORD97":167110.09,"N_COORD97":2544312.4199999999,"ADDRESS":"民權路三段３２０巷１６號","OBJECTID":406095},"geometry":{"x":167110.08999999985,"y":2544312.4199999999}},{"attributes":{"ID":406120,"DIS_CODE":0,"TOWNNAME":"中西區","LI":"藥王里","LIN":"9鄰","STREET":"民權路","SECT":"三段","MAREA":" ","LANE":"３２０巷","ALLEY":" ","HOUSE_NO":"６號","E_COORD97":167067.81,"N_COORD97":2544328.8799999999,"ADDRESS":"民權路三段３２０巷６號","OBJECTID":406096},"geometry":{"x":167067.80999999959,"y":2544328.8799999971}},{"attributes":{"ID":406121,"DIS_CODE":0,"TOWNNAME":"中西區","LI":"藥王里","LIN":"9鄰","STREET":"民權路","SECT":"三段","MAREA":" ","LANE":"３２０巷","ALLEY":" ","HOUSE_NO":"８號","E_COORD97":167077.14999999999,"N_COORD97":2544324.77,"ADDRESS":"民權路三段３２０巷８號","OBJECTID":406097},"geometry":{"x":167077.1500000013,"y":2544324.7700000014}},{"attributes":{"ID":406122,"DIS_CODE":0,"TOWNNAME":"中西區","LI":"藥王里","LIN":"8鄰","STREET":"大新街","SECT":" ","MAREA":" ","LANE":"７巷","ALLEY":" ","HOUSE_NO":"３５號","E_COORD97":167040.91,"N_COORD97":2544350.9300000002,"ADDRESS":"大新街７巷３５號","OBJECTID":406098},"geometry":{"x":167040.90999999922,"y":2544350.9300000016}},{"attributes":{"ID":406123,"DIS_CODE":0,"TOWNNAME":"新營區","LI":"新南里","LIN":"27鄰","STREET":"復興路","SECT":" ","MAREA":" ","LANE":"６２０巷","ALLEY":" ","HOUSE_NO":"６３號二樓之１","E_COORD97":178045.57999999999,"N_COORD97":2578545.6099999999,"ADDRESS":"復興路６２０巷６３號二樓之１","OBJECTID":406099},"geometry":{"x":178045.58000000101,"y":2578545.6099999994}},{"attributes":{"ID":406124,"DIS_CODE":0,"TOWNNAME":"永康區","LI":"崑山里","LIN":"30鄰","STREET":"國光二街","SECT":" ","MAREA":" ","LANE":"７０巷","ALLEY":" ","HOUSE_NO":"９號","E_COORD97":173880.39000000001,"N_COORD97":2544778.04,"ADDRESS":"國光二街７０巷９號","OBJECTID":406100},"geometry":{"x":173880.38999999966,"y":2544778.0399999991}},{"attributes":{"ID":406125,"DIS_CODE":0,"TOWNNAME":"新營區","LI":"大宏里","LIN":"27鄰","STREET":"開元路","SECT":" ","MAREA":" ","LANE":"５９巷","ALLEY":" ","HOUSE_NO":"４０之３號七樓","E_COORD97":180900.06,"N_COORD97":2578823.27,"ADDRESS":"開元路５９巷４０之３號七樓","OBJECTID":406101},"geometry":{"x":180900.06000000052,"y":2578823.2699999996}},{"attributes":{"ID":406126,"DIS_CODE":0,"TOWNNAME":"新營區","LI":"大宏里","LIN":"27鄰","STREET":"開元路","SECT":" ","MAREA":" ","LANE":"５９巷","ALLEY":" ","HOUSE_NO":"４０號六樓","E_COORD97":180897.56,"N_COORD97":2578823.23,"ADDRESS":"開元路５９巷４０號六樓","OBJECTID":406102},"geometry":{"x":180897.56000000145,"y":2578823.2300000023}},{"attributes":{"ID":406127,"DIS_CODE":0,"TOWNNAME":"新營區","LI":"大宏里","LIN":"27鄰","STREET":"開元路","SECT":" ","MAREA":" ","LANE":"５９巷","ALLEY":" ","HOUSE_NO":"４０之１號三樓","E_COORD97":180900.06,"N_COORD97":2578823.27,"ADDRESS":"開元路５９巷４０之１號三樓","OBJECTID":406103},"geometry":{"x":180900.06000000052,"y":2578823.2699999996}},{"attributes":{"ID":406128,"DIS_CODE":0,"TOWNNAME":"新營區","LI":"新南里","LIN":"27鄰","STREET":"復興路","SECT":" ","MAREA":" ","LANE":"６２０巷","ALLEY":" ","HOUSE_NO":"６３號三樓之１","E_COORD97":178045.57999999999,"N_COORD97":2578545.6099999999,"ADDRESS":"復興路６２０巷６３號三樓之１","OBJECTID":406104},"geometry":{"x":178045.58000000101,"y":2578545.6099999994}},{"attributes":{"ID":406129,"DIS_CODE":0,"TOWNNAME":"中西區","LI":"大涼里","LIN":"13鄰","STREET":"金城街","SECT":" ","MAREA":" ","LANE":" ","ALLEY":" ","HOUSE_NO":"７９號","E_COORD97":166851.01000000001,"N_COORD97":2543699.0899999999,"ADDRESS":"金城街７９號","OBJECTID":406105},"geometry":{"x":166851.00999999978,"y":2543699.0900000017}},{"attributes":{"ID":406130,"DIS_CODE":0,"TOWNNAME":"新營區","LI":"新南里","LIN":"27鄰","STREET":"復興路","SECT":" ","MAREA":" ","LANE":"６２０巷","ALLEY":" ","HOUSE_NO":"６３號二樓之８","E_COORD97":178045.73000000001,"N_COORD97":2578545.6099999999,"ADDRESS":"復興路６２０巷６３號二樓之８","OBJECTID":406106},"geometry":{"x":178045.73000000045,"y":2578545.6099999994}},{"attributes":{"ID":406131,"DIS_CODE":0,"TOWNNAME":"新營區","LI":"大宏里","LIN":"27鄰","STREET":"開元路","SECT":" ","MAREA":" ","LANE":"５９巷","ALLEY":" ","HOUSE_NO":"４０之３號八樓","E_COORD97":180900.06,"N_COORD97":2578823.27,"ADDRESS":"開元路５９巷４０之３號八樓","OBJECTID":406107},"geometry":{"x":180900.06000000052,"y":2578823.2699999996}},{"attributes":{"ID":406132,"DIS_CODE":0,"TOWNNAME":"新營區","LI":"大宏里","LIN":"27鄰","STREET":"開元路","SECT":" ","MAREA":" ","LANE":"５９巷","ALLEY":" ","HOUSE_NO":"４０之２號十二樓","E_COORD97":180901.31,"N_COORD97":2578823.27,"ADDRESS":"開元路５９巷４０之２號十二樓","OBJECTID":406108},"geometry":{"x":180901.31000000052,"y":2578823.2699999996}},{"attributes":{"ID":406133,"DIS_CODE":0,"TOWNNAME":"新營區","LI":"新南里","LIN":"27鄰","STREET":"復興路","SECT":" ","MAREA":" ","LANE":"６２０巷","ALLEY":" ","HOUSE_NO":"６３號三樓之４","E_COORD97":178045.60999999999,"N_COORD97":2578545.6099999999,"ADDRESS":"復興路６２０巷６３號三樓之４","OBJECTID":406109},"geometry":{"x":178045.61000000127,"y":2578545.6099999994}},{"attributes":{"ID":406134,"DIS_CODE":0,"TOWNNAME":"新營區","LI":"大宏里","LIN":"27鄰","STREET":"開元路","SECT":" ","MAREA":" ","LANE":"５９巷","ALLEY":" ","HOUSE_NO":"４０之２號七樓","E_COORD97":180900.06,"N_COORD97":2578823.27,"ADDRESS":"開元路５９巷４０之２號七樓","OBJECTID":406110},"geometry":{"x":180900.06000000052,"y":2578823.2699999996}},{"attributes":{"ID":406135,"DIS_CODE":0,"TOWNNAME":"新營區","LI":"大宏里","LIN":"27鄰","STREET":"開元路","SECT":" ","MAREA":" ","LANE":"５９巷","ALLEY":" ","HOUSE_NO":"４０之３號九樓","E_COORD97":180900.06,"N_COORD97":2578823.27,"ADDRESS":"開元路５９巷４０之３號九樓","OBJECTID":406111},"geometry":{"x":180900.06000000052,"y":2578823.2699999996}},{"attributes":{"ID":406136,"DIS_CODE":0,"TOWNNAME":"新營區","LI":"大宏里","LIN":"27鄰","STREET":"開元路","SECT":" ","MAREA":" ","LANE":"５９巷","ALLEY":" ","HOUSE_NO":"４０之３號十樓","E_COORD97":180900.06,"N_COORD97":2578823.27,"ADDRESS":"開元路５９巷４０之３號十樓","OBJECTID":406112},"geometry":{"x":180900.06000000052,"y":2578823.2699999996}},{"attributes":{"ID":406137,"DIS_CODE":0,"TOWNNAME":"新營區","LI":"大宏里","LIN":"27鄰","STREET":"開元路","SECT":" ","MAREA":" ","LANE":"５９巷","ALLEY":" ","HOUSE_NO":"４０號四樓","E_COORD97":180897.56,"N_COORD97":2578823.23,"ADDRESS":"開元路５９巷４０號四樓","OBJECTID":406113},"geometry":{"x":180897.56000000145,"y":2578823.2300000023}},{"attributes":{"ID":406138,"DIS_CODE":0,"TOWNNAME":"新營區","LI":"大宏里","LIN":"27鄰","STREET":"開元路","SECT":" ","MAREA":" ","LANE":"５９巷","ALLEY":" ","HOUSE_NO":"４０之２號三樓","E_COORD97":180900.06,"N_COORD97":2578823.27,"ADDRESS":"開元路５９巷４０之２號三樓","OBJECTID":406114},"geometry":{"x":180900.06000000052,"y":2578823.2699999996}},{"attributes":{"ID":406139,"DIS_CODE":0,"TOWNNAME":"新營區","LI":"新南里","LIN":"27鄰","STREET":"復興路","SECT":" ","MAREA":" ","LANE":"６２０巷","ALLEY":" ","HOUSE_NO":"６３號二樓之６","E_COORD97":178045.69,"N_COORD97":2578545.6099999999,"ADDRESS":"復興路６２０巷６３號二樓之６","OBJECTID":406115},"geometry":{"x":178045.69000000041,"y":2578545.6099999994}},{"attributes":{"ID":406140,"DIS_CODE":0,"TOWNNAME":"新營區","LI":"新南里","LIN":"27鄰","STREET":"復興路","SECT":" ","MAREA":" ","LANE":"６２０巷","ALLEY":" ","HOUSE_NO":"６３號三樓之８","E_COORD97":178045.73000000001,"N_COORD97":2578545.6099999999,"ADDRESS":"復興路６２０巷６３號三樓之８","OBJECTID":406116},"geometry":{"x":178045.73000000045,"y":2578545.6099999994}},{"attributes":{"ID":406141,"DIS_CODE":0,"TOWNNAME":"中西區","LI":"藥王里","LIN":"8鄰","STREET":"大新街","SECT":" ","MAREA":" ","LANE":"７巷","ALLEY":" ","HOUSE_NO":"１１號","E_COORD97":167098.82999999999,"N_COORD97":2544328.71,"ADDRESS":"大新街７巷１１號","OBJECTID":406117},"geometry":{"x":167098.83000000007,"y":2544328.709999999}},{"attributes":{"ID":406142,"DIS_CODE":0,"TOWNNAME":"中西區","LI":"藥王里","LIN":"8鄰","STREET":"大新街","SECT":" ","MAREA":" ","LANE":"７巷","ALLEY":" ","HOUSE_NO":"１３號","E_COORD97":167094.17000000001,"N_COORD97":2544330.0800000001,"ADDRESS":"大新街７巷１３號","OBJECTID":406118},"geometry":{"x":167094.16999999993,"y":2544330.0800000019}},{"attributes":{"ID":406143,"DIS_CODE":0,"TOWNNAME":"中西區","LI":"藥王里","LIN":"8鄰","STREET":"大新街","SECT":" ","MAREA":" ","LANE":"７巷","ALLEY":" ","HOUSE_NO":"１５號","E_COORD97":167090.60000000001,"N_COORD97":2544332.5499999998,"ADDRESS":"大新街７巷１５號","OBJECTID":406119},"geometry":{"x":167090.60000000056,"y":2544332.5500000007}},{"attributes":{"ID":406144,"DIS_CODE":0,"TOWNNAME":"中西區","LI":"藥王里","LIN":"8鄰","STREET":"大新街","SECT":" ","MAREA":" ","LANE":"７巷","ALLEY":" ","HOUSE_NO":"１７號","E_COORD97":167086.20999999999,"N_COORD97":2544334.4700000002,"ADDRESS":"大新街７巷１７號","OBJECTID":406120},"geometry":{"x":167086.21000000183,"y":2544334.4700000025}},{"attributes":{"ID":406145,"DIS_CODE":0,"TOWNNAME":"新營區","LI":"大宏里","LIN":"27鄰","STREET":"開元路","SECT":" ","MAREA":" ","LANE":"５９巷","ALLEY":" ","HOUSE_NO":"４０號三樓","E_COORD97":180897.56,"N_COORD97":2578823.23,"ADDRESS":"開元路５９巷４０號三樓","OBJECTID":406121},"geometry":{"x":180897.56000000145,"y":2578823.2300000023}},{"attributes":{"ID":406146,"DIS_CODE":0,"TOWNNAME":"新營區","LI":"大宏里","LIN":"27鄰","STREET":"開元路","SECT":" ","MAREA":" ","LANE":"５９巷","ALLEY":" ","HOUSE_NO":"４０之２號五樓","E_COORD97":180900.06,"N_COORD97":2578823.27,"ADDRESS":"開元路５９巷４０之２號五樓","OBJECTID":406122},"geometry":{"x":180900.06000000052,"y":2578823.2699999996}},{"attributes":{"ID":406147,"DIS_CODE":0,"TOWNNAME":"新營區","LI":"大宏里","LIN":"27鄰","STREET":"開元路","SECT":" ","MAREA":" ","LANE":"５９巷","ALLEY":" ","HOUSE_NO":"４０之１號十樓","E_COORD97":180900.06,"N_COORD97":2578823.27,"ADDRESS":"開元路５９巷４０之１號十樓","OBJECTID":406123},"geometry":{"x":180900.06000000052,"y":2578823.2699999996}},{"attributes":{"ID":406148,"DIS_CODE":0,"TOWNNAME":"新營區","LI":"大宏里","LIN":"27鄰","STREET":"開元路","SECT":" ","MAREA":" ","LANE":"５９巷","ALLEY":" ","HOUSE_NO":"４０之１號五樓","E_COORD97":180900.06,"N_COORD97":2578823.27,"ADDRESS":"開元路５９巷４０之１號五樓","OBJECTID":406124},"geometry":{"x":180900.06000000052,"y":2578823.2699999996}},{"attributes":{"ID":406149,"DIS_CODE":0,"TOWNNAME":"新營區","LI":"大宏里","LIN":"27鄰","STREET":"開元路","SECT":" ","MAREA":" ","LANE":"５９巷","ALLEY":" ","HOUSE_NO":"４０號十一樓","E_COORD97":180898.81,"N_COORD97":2578823.23,"ADDRESS":"開元路５９巷４０號十一樓","OBJECTID":406125},"geometry":{"x":180898.80999999959,"y":2578823.2300000023}},{"attributes":{"ID":406150,"DIS_CODE":0,"TOWNNAME":"中西區","LI":"藥王里","LIN":"8鄰","STREET":"大新街","SECT":" ","MAREA":" ","LANE":"７巷","ALLEY":" ","HOUSE_NO":"３號","E_COORD97":167114.20000000001,"N_COORD97":2544322.9500000002,"ADDRESS":"大新街７巷３號","OBJECTID":406126},"geometry":{"x":167114.20000000112,"y":2544322.9500000011}},{"attributes":{"ID":406151,"DIS_CODE":0,"TOWNNAME":"中西區","LI":"藥王里","LIN":"8鄰","STREET":"大新街","SECT":" ","MAREA":" ","LANE":"７巷","ALLEY":" ","HOUSE_NO":"５號","E_COORD97":167109.81,"N_COORD97":2544323.23,"ADDRESS":"大新街７巷５號","OBJECTID":406127},"geometry":{"x":167109.80999999959,"y":2544323.2300000004}},{"attributes":{"ID":406152,"DIS_CODE":0,"TOWNNAME":"中西區","LI":"藥王里","LIN":"8鄰","STREET":"大新街","SECT":" ","MAREA":" ","LANE":"７巷","ALLEY":" ","HOUSE_NO":"７號","E_COORD97":167106.51999999999,"N_COORD97":2544325.4199999999,"ADDRESS":"大新街７巷７號","OBJECTID":406128},"geometry":{"x":167106.52000000048,"y":2544325.4199999999}},{"attributes":{"ID":406153,"DIS_CODE":0,"TOWNNAME":"新營區","LI":"新南里","LIN":"27鄰","STREET":"復興路","SECT":" ","MAREA":" ","LANE":"６２０巷","ALLEY":" ","HOUSE_NO":"６３號二樓之７","E_COORD97":178045.66,"N_COORD97":2578545.6099999999,"ADDRESS":"復興路６２０巷６３號二樓之７","OBJECTID":406129},"geometry":{"x":178045.66000000015,"y":2578545.6099999994}},{"attributes":{"ID":406154,"DIS_CODE":0,"TOWNNAME":"新營區","LI":"大宏里","LIN":"27鄰","STREET":"開元路","SECT":" ","MAREA":" ","LANE":"５９巷","ALLEY":" ","HOUSE_NO":"４０之２號九樓","E_COORD97":180900.06,"N_COORD97":2578823.27,"ADDRESS":"開元路５９巷４０之２號九樓","OBJECTID":406130},"geometry":{"x":180900.06000000052,"y":2578823.2699999996}},{"attributes":{"ID":406155,"DIS_CODE":0,"TOWNNAME":"新營區","LI":"新南里","LIN":"27鄰","STREET":"復興路","SECT":" ","MAREA":" ","LANE":"６２０巷","ALLEY":" ","HOUSE_NO":"６３號四樓之６","E_COORD97":178045.69,"N_COORD97":2578545.6099999999,"ADDRESS":"復興路６２０巷６３號四樓之６","OBJECTID":406131},"geometry":{"x":178045.69000000041,"y":2578545.6099999994}},{"attributes":{"ID":406156,"DIS_CODE":0,"TOWNNAME":"新營區","LI":"大宏里","LIN":"27鄰","STREET":"開元路","SECT":" ","MAREA":" ","LANE":"５９巷","ALLEY":" ","HOUSE_NO":"４０之２號十樓","E_COORD97":180900.06,"N_COORD97":2578823.27,"ADDRESS":"開元路５９巷４０之２號十樓","OBJECTID":406132},"geometry":{"x":180900.06000000052,"y":2578823.2699999996}},{"attributes":{"ID":406157,"DIS_CODE":0,"TOWNNAME":"新營區","LI":"新南里","LIN":"27鄰","STREET":"復興路","SECT":" ","MAREA":" ","LANE":"６２０巷","ALLEY":" ","HOUSE_NO":"６３號二樓之５","E_COORD97":178045.73999999999,"N_COORD97":2578545.6099999999,"ADDRESS":"復興路６２０巷６３號二樓之５","OBJECTID":406133},"geometry":{"x":178045.74000000209,"y":2578545.6099999994}},{"attributes":{"ID":406158,"DIS_CODE":0,"TOWNNAME":"永康區","LI":"神洲里","LIN":"6鄰","STREET":"忠孝路","SECT":" ","MAREA":" ","LANE":"４４巷","ALLEY":" ","HOUSE_NO":"１號","E_COORD97":172101.89999999999,"N_COORD97":2544735.6299999999,"ADDRESS":"忠孝路４４巷１號","OBJECTID":406134},"geometry":{"x":172101.9000000013,"y":2544735.6300000008}},{"attributes":{"ID":406159,"DIS_CODE":0,"TOWNNAME":"永康區","LI":"神洲里","LIN":"6鄰","STREET":"忠孝路","SECT":" ","MAREA":" ","LANE":"５４巷","ALLEY":" ","HOUSE_NO":"１４號","E_COORD97":172148.92999999999,"N_COORD97":2544754.5,"ADDRESS":"忠孝路５４巷１４號","OBJECTID":406135},"geometry":{"x":172148.9299999997,"y":2544754.5000000019}},{"attributes":{"ID":406160,"DIS_CODE":0,"TOWNNAME":"永康區","LI":"神洲里","LIN":"6鄰","STREET":"忠孝路","SECT":" ","MAREA":" ","LANE":"４４巷","ALLEY":" ","HOUSE_NO":"５號","E_COORD97":172113.57000000001,"N_COORD97":2544735.3799999999,"ADDRESS":"忠孝路４４巷５號","OBJECTID":406136},"geometry":{"x":172113.5700000003,"y":2544735.379999999}},{"attributes":{"ID":406161,"DIS_CODE":0,"TOWNNAME":"永康區","LI":"勝利里","LIN":"23鄰","STREET":"中華一路","SECT":" ","MAREA":" ","LANE":"２０３巷","ALLEY":" ","HOUSE_NO":"１６號之１","E_COORD97":171427.23999999999,"N_COORD97":2544886.0499999998,"ADDRESS":"中華一路２０３巷１６號之１","OBJECTID":406137},"geometry":{"x":171427.24000000022,"y":2544886.0500000045}},{"attributes":{"ID":406162,"DIS_CODE":0,"TOWNNAME":"永康區","LI":"崑山里","LIN":"21鄰","STREET":"大仁街","SECT":" ","MAREA":" ","LANE":"１１巷","ALLEY":" ","HOUSE_NO":"３０號","E_COORD97":173698.38,"N_COORD97":2544578.3399999999,"ADDRESS":"大仁街１１巷３０號","OBJECTID":406138},"geometry":{"x":173698.38000000082,"y":2544578.3400000017}},{"attributes":{"ID":406163,"DIS_CODE":0,"TOWNNAME":"永康區","LI":"崑山里","LIN":"21鄰","STREET":"大仁街","SECT":" ","MAREA":" ","LANE":"１１巷","ALLEY":" ","HOUSE_NO":"２４號","E_COORD97":173706.47,"N_COORD97":2544575.5899999999,"ADDRESS":"大仁街１１巷２４號","OBJECTID":406139},"geometry":{"x":173706.47000000067,"y":2544575.5899999999}},{"attributes":{"ID":406164,"DIS_CODE":0,"TOWNNAME":"永康區","LI":"崑山里","LIN":"11鄰","STREET":"大灣路","SECT":" ","MAREA":" ","LANE":"１０９０巷","ALLEY":" ","HOUSE_NO":"１４號","E_COORD97":173313.37,"N_COORD97":2544450.3300000001,"ADDRESS":"大灣路１０９０巷１４號","OBJECTID":406140},"geometry":{"x":173313.37000000197,"y":2544450.3300000019}},{"attributes":{"ID":406165,"DIS_CODE":0,"TOWNNAME":"永康區","LI":"復國里","LIN":"5鄰","STREET":"復國二路","SECT":" ","MAREA":" ","LANE":"３８巷","ALLEY":" ","HOUSE_NO":"１０號","E_COORD97":172865.5,"N_COORD97":2544929.27,"ADDRESS":"復國二路３８巷１０號","OBJECTID":406141},"geometry":{"x":172865.50000000093,"y":2544929.2699999996}},{"attributes":{"ID":406166,"DIS_CODE":0,"TOWNNAME":"永康區","LI":"復華里","LIN":"23鄰","STREET":"國華街","SECT":" ","MAREA":" ","LANE":"１３４巷","ALLEY":" ","HOUSE_NO":"２４號","E_COORD97":172747.09,"N_COORD97":2546181.2400000002,"ADDRESS":"國華街１３４巷２４號","OBJECTID":406142},"geometry":{"x":172747.08999999892,"y":2546181.2400000002}},{"attributes":{"ID":406167,"DIS_CODE":0,"TOWNNAME":"永康區","LI":"復國里","LIN":"8鄰","STREET":"復國二路","SECT":" ","MAREA":" ","LANE":"６５巷","ALLEY":" ","HOUSE_NO":"２４號","E_COORD97":172763.22,"N_COORD97":2545180.1299999999,"ADDRESS":"復國二路６５巷２４號","OBJECTID":406143},"geometry":{"x":172763.2200000016,"y":2545180.129999999}},{"attributes":{"ID":406168,"DIS_CODE":0,"TOWNNAME":"永康區","LI":"復國里","LIN":"4鄰","STREET":"復國一路","SECT":" ","MAREA":" ","LANE":"６８巷","ALLEY":" ","HOUSE_NO":"２２號","E_COORD97":172778.51999999999,"N_COORD97":2544859.4900000002,"ADDRESS":"復國一路６８巷２２號","OBJECTID":406144},"geometry":{"x":172778.52000000048,"y":2544859.4900000021}},{"attributes":{"ID":406169,"DIS_CODE":0,"TOWNNAME":"永康區","LI":"復國里","LIN":"1鄰","STREET":"復國二路","SECT":" ","MAREA":" ","LANE":"１６巷","ALLEY":" ","HOUSE_NO":"２號","E_COORD97":172843.31,"N_COORD97":2544807.21,"ADDRESS":"復國二路１６巷２號","OBJECTID":406145},"geometry":{"x":172843.30999999959,"y":2544807.2100000046}},{"attributes":{"ID":406170,"DIS_CODE":0,"TOWNNAME":"永康區","LI":"復國里","LIN":"12鄰","STREET":"復國二路","SECT":" ","MAREA":" ","LANE":"１１０巷","ALLEY":" ","HOUSE_NO":"９號","E_COORD97":172893.04000000001,"N_COORD97":2545416.0299999998,"ADDRESS":"復國二路１１０巷９號","OBJECTID":406146},"geometry":{"x":172893.04000000004,"y":2545416.0299999993}},{"attributes":{"ID":406171,"DIS_CODE":0,"TOWNNAME":"永康區","LI":"復國里","LIN":"10鄰","STREET":"復國二路","SECT":" ","MAREA":" ","LANE":"８７巷","ALLEY":" ","HOUSE_NO":"２６號","E_COORD97":172784.45999999999,"N_COORD97":2545386.1800000002,"ADDRESS":"復國二路８７巷２６號","OBJECTID":406147},"geometry":{"x":172784.46000000089,"y":2545386.1800000016}},{"attributes":{"ID":406172,"DIS_CODE":0,"TOWNNAME":"永康區","LI":"崑山里","LIN":"11鄰","STREET":"大灣路","SECT":" ","MAREA":" ","LANE":"１０９０巷","ALLEY":" ","HOUSE_NO":"１０號","E_COORD97":173312.76000000001,"N_COORD97":2544425.8199999998,"ADDRESS":"大灣路１０９０巷１０號","OBJECTID":406148},"geometry":{"x":173312.76000000071,"y":2544425.820000004}},{"attributes":{"ID":406173,"DIS_CODE":0,"TOWNNAME":"永康區","LI":"勝利里","LIN":"27鄰","STREET":"勝利街","SECT":" ","MAREA":" ","LANE":"５４巷","ALLEY":" ","HOUSE_NO":"６號","E_COORD97":171371.39999999999,"N_COORD97":2544655.3599999999,"ADDRESS":"勝利街５４巷６號","OBJECTID":406149},"geometry":{"x":171371.4000000013,"y":2544655.3600000031}},{"attributes":{"ID":406174,"DIS_CODE":0,"TOWNNAME":"永康區","LI":"復國里","LIN":"12鄰","STREET":"復國二路","SECT":" ","MAREA":" ","LANE":"１１０巷","ALLEY":" ","HOUSE_NO":"５號","E_COORD97":172882.25,"N_COORD97":2545417.7799999998,"ADDRESS":"復國二路１１０巷５號","OBJECTID":406150},"geometry":{"x":172882.25000000093,"y":2545417.7799999993}},{"attributes":{"ID":406175,"DIS_CODE":0,"TOWNNAME":"永康區","LI":"復國里","LIN":"12鄰","STREET":"復國二路","SECT":" ","MAREA":" ","LANE":"１０４巷","ALLEY":" ","HOUSE_NO":"８號","E_COORD97":172886.85000000001,"N_COORD97":2545304.7799999998,"ADDRESS":"復國二路１０４巷８號","OBJECTID":406151},"geometry":{"x":172886.84999999963,"y":2545304.7800000012}},{"attributes":{"ID":406176,"DIS_CODE":0,"TOWNNAME":"永康區","LI":"崑山里","LIN":"23鄰","STREET":"崑山街","SECT":" ","MAREA":" ","LANE":"６３巷","ALLEY":" ","HOUSE_NO":"１５號","E_COORD97":173892.34,"N_COORD97":2544665.75,"ADDRESS":"崑山街６３巷１５號","OBJECTID":406152},"geometry":{"x":173892.33999999985,"y":2544665.75}},{"attributes":{"ID":406177,"DIS_CODE":0,"TOWNNAME":"永康區","LI":"勝利里","LIN":"35鄰","STREET":"勝利街","SECT":" ","MAREA":" ","LANE":"２巷","ALLEY":" ","HOUSE_NO":"９號","E_COORD97":171102.14999999999,"N_COORD97":2544691.0099999998,"ADDRESS":"勝利街２巷９號","OBJECTID":406153},"geometry":{"x":171102.15000000037,"y":2544691.0099999998}},{"attributes":{"ID":406178,"DIS_CODE":0,"TOWNNAME":"永康區","LI":"崑山里","LIN":"4鄰","STREET":"永大路","SECT":"一段","MAREA":" ","LANE":"２８７巷","ALLEY":" ","HOUSE_NO":"９３號","E_COORD97":173760.35999999999,"N_COORD97":2544298.8100000001,"ADDRESS":"永大路一段２８７巷９３號","OBJECTID":406154},"geometry":{"x":173760.36000000127,"y":2544298.8100000024}},{"attributes":{"ID":406179,"DIS_CODE":0,"TOWNNAME":"永康區","LI":"崑山里","LIN":"2鄰","STREET":"大灣路","SECT":" ","MAREA":" ","LANE":"８７９巷","ALLEY":" ","HOUSE_NO":"１號","E_COORD97":173652.72,"N_COORD97":2544375.3599999999,"ADDRESS":"大灣路８７９巷１號","OBJECTID":406155},"geometry":{"x":173652.71999999974,"y":2544375.3600000013}},{"attributes":{"ID":406180,"DIS_CODE":0,"TOWNNAME":"永康區","LI":"復國里","LIN":"8鄰","STREET":"復國二路","SECT":" ","MAREA":" ","LANE":"６３巷","ALLEY":" ","HOUSE_NO":"１１號","E_COORD97":172800.23000000001,"N_COORD97":2545128.52,"ADDRESS":"復國二路６３巷１１號","OBJECTID":406156},"geometry":{"x":172800.23000000138,"y":2545128.5199999996}},{"attributes":{"ID":406181,"DIS_CODE":0,"TOWNNAME":"永康區","LI":"復國里","LIN":"8鄰","STREET":"復國二路","SECT":" ","MAREA":" ","LANE":"６５巷","ALLEY":" ","HOUSE_NO":"２３號","E_COORD97":172764.17999999999,"N_COORD97":2545166.7799999998,"ADDRESS":"復國二路６５巷２３號","OBJECTID":406157},"geometry":{"x":172764.18000000063,"y":2545166.7799999993}},{"attributes":{"ID":406182,"DIS_CODE":0,"TOWNNAME":"永康區","LI":"復華里","LIN":"29鄰","STREET":"國華街","SECT":" ","MAREA":" ","LANE":"１３６巷","ALLEY":" ","HOUSE_NO":"１５號","E_COORD97":172666.26999999999,"N_COORD97":2546229.5800000001,"ADDRESS":"國華街１３６巷１５號","OBJECTID":406158},"geometry":{"x":172666.27000000048,"y":2546229.5800000001}},{"attributes":{"ID":406183,"DIS_CODE":0,"TOWNNAME":"永康區","LI":"勝利里","LIN":"11鄰","STREET":"勝利街","SECT":" ","MAREA":" ","LANE":"７３巷","ALLEY":" ","HOUSE_NO":"２６號","E_COORD97":171256.5,"N_COORD97":2544739.5,"ADDRESS":"勝利街７３巷２６號","OBJECTID":406159},"geometry":{"x":171256.50000000093,"y":2544739.5000000037}},{"attributes":{"ID":406184,"DIS_CODE":0,"TOWNNAME":"永康區","LI":"崑山里","LIN":"39鄰","STREET":"國光三街","SECT":" ","MAREA":" ","LANE":"１０巷","ALLEY":" ","HOUSE_NO":"１２號","E_COORD97":174158.13,"N_COORD97":2544903.6600000001,"ADDRESS":"國光三街１０巷１２號","OBJECTID":406160},"geometry":{"x":174158.13000000082,"y":2544903.6600000001}},{"attributes":{"ID":406185,"DIS_CODE":0,"TOWNNAME":"永康區","LI":"崑山里","LIN":"34鄰","STREET":"大仁街","SECT":" ","MAREA":" ","LANE":"１４３巷","ALLEY":" ","HOUSE_NO":"１１號","E_COORD97":173829.76999999999,"N_COORD97":2544903.8799999999,"ADDRESS":"大仁街１４３巷１１號","OBJECTID":406161},"geometry":{"x":173829.76999999955,"y":2544903.879999999}},{"attributes":{"ID":406186,"DIS_CODE":0,"TOWNNAME":"永康區","LI":"勝利里","LIN":"35鄰","STREET":"勝利街","SECT":" ","MAREA":" ","LANE":"２巷","ALLEY":" ","HOUSE_NO":"１號之２１","E_COORD97":171135.25,"N_COORD97":2544690.5499999998,"ADDRESS":"勝利街２巷１號之２１","OBJECTID":406162},"geometry":{"x":171135.25,"y":2544690.5500000026}},{"attributes":{"ID":406187,"DIS_CODE":0,"TOWNNAME":"永康區","LI":"復國里","LIN":"6鄰","STREET":"復國一路","SECT":" ","MAREA":" ","LANE":"１２０巷","ALLEY":" ","HOUSE_NO":"２號","E_COORD97":172737.47,"N_COORD97":2544993.0299999998,"ADDRESS":"復國一路１２０巷２號","OBJECTID":406163},"geometry":{"x":172737.46999999974,"y":2544993.0300000031}},{"attributes":{"ID":406188,"DIS_CODE":0,"TOWNNAME":"永康區","LI":"復國里","LIN":"10鄰","STREET":"復國二路","SECT":" ","MAREA":" ","LANE":"７９巷","ALLEY":" ","HOUSE_NO":"１號","E_COORD97":172824.60000000001,"N_COORD97":2545260.77,"ADDRESS":"復國二路７９巷１號","OBJECTID":406164},"geometry":{"x":172824.59999999963,"y":2545260.7700000014}},{"attributes":{"ID":406189,"DIS_CODE":0,"TOWNNAME":"永康區","LI":"勝利里","LIN":"36鄰","STREET":"勝學路","SECT":" ","MAREA":" ","LANE":"１０８巷","ALLEY":" ","HOUSE_NO":"１０號","E_COORD97":171217.12,"N_COORD97":2544850.73,"ADDRESS":"勝學路１０８巷１０號","OBJECTID":406165},"geometry":{"x":171217.12000000104,"y":2544850.7300000023}},{"attributes":{"ID":406190,"DIS_CODE":0,"TOWNNAME":"永康區","LI":"崑山里","LIN":"30鄰","STREET":"國光二街","SECT":" ","MAREA":" ","LANE":"７０巷","ALLEY":" ","HOUSE_NO":"１３號","E_COORD97":173884.04000000001,"N_COORD97":2544785.54,"ADDRESS":"國光二街７０巷１３號","OBJECTID":406166},"geometry":{"x":173884.04000000097,"y":2544785.5399999991}},{"attributes":{"ID":406191,"DIS_CODE":0,"TOWNNAME":"永康區","LI":"復國里","LIN":"12鄰","STREET":"復國二路","SECT":" ","MAREA":" ","LANE":"１０６巷","ALLEY":" ","HOUSE_NO":"２號","E_COORD97":172867.04999999999,"N_COORD97":2545338.52,"ADDRESS":"復國二路１０６巷２號","OBJECTID":406167},"geometry":{"x":172867.04999999981,"y":2545338.5199999996}},{"attributes":{"ID":406192,"DIS_CODE":0,"TOWNNAME":"永康區","LI":"勝利里","LIN":"23鄰","STREET":"中華一路","SECT":" ","MAREA":" ","LANE":"２０３巷","ALLEY":" ","HOUSE_NO":"１號","E_COORD97":171455.92000000001,"N_COORD97":2544940.9900000002,"ADDRESS":"中華一路２０３巷１號","OBJECTID":406168},"geometry":{"x":171455.91999999993,"y":2544940.9900000021}},{"attributes":{"ID":406193,"DIS_CODE":0,"TOWNNAME":"永康區","LI":"勝利里","LIN":"23鄰","STREET":"中華一路","SECT":" ","MAREA":" ","LANE":"１８１巷","ALLEY":" ","HOUSE_NO":"２號","E_COORD97":171494.82000000001,"N_COORD97":2544934.7400000002,"ADDRESS":"中華一路１８１巷２號","OBJECTID":406169},"geometry":{"x":171494.8200000003,"y":2544934.7400000039}},{"attributes":{"ID":406194,"DIS_CODE":0,"TOWNNAME":"永康區","LI":"復國里","LIN":"11鄰","STREET":"復國一路","SECT":" ","MAREA":" ","LANE":"２７６巷","ALLEY":" ","HOUSE_NO":"１３號","E_COORD97":172791.04999999999,"N_COORD97":2545449.8599999999,"ADDRESS":"復國一路２７６巷１３號","OBJECTID":406170},"geometry":{"x":172791.04999999981,"y":2545449.8600000013}},{"attributes":{"ID":406195,"DIS_CODE":0,"TOWNNAME":"永康區","LI":"復國里","LIN":"1鄰","STREET":"復國二路","SECT":" ","MAREA":" ","LANE":"１６巷","ALLEY":" ","HOUSE_NO":"１２號","E_COORD97":172866,"N_COORD97":2544807.21,"ADDRESS":"復國二路１６巷１２號","OBJECTID":406171},"geometry":{"x":172866,"y":2544807.2100000046}},{"attributes":{"ID":406196,"DIS_CODE":0,"TOWNNAME":"永康區","LI":"復國里","LIN":"12鄰","STREET":"復國二路","SECT":" ","MAREA":" ","LANE":"１１０巷","ALLEY":" ","HOUSE_NO":"１２號","E_COORD97":172899.04000000001,"N_COORD97":2545402.5299999998,"ADDRESS":"復國二路１１０巷１２號","OBJECTID":406172},"geometry":{"x":172899.04000000097,"y":2545402.5299999993}},{"attributes":{"ID":406197,"DIS_CODE":0,"TOWNNAME":"永康區","LI":"復國里","LIN":"9鄰","STREET":"復國一路","SECT":" ","MAREA":" ","LANE":"２１０巷","ALLEY":" ","HOUSE_NO":"１３號","E_COORD97":172774.98999999999,"N_COORD97":2545233.77,"ADDRESS":"復國一路２１０巷１３號","OBJECTID":406173},"geometry":{"x":172774.99000000022,"y":2545233.7700000014}},{"attributes":{"ID":406198,"DIS_CODE":0,"TOWNNAME":"永康區","LI":"復國里","LIN":"4鄰","STREET":"復國一路","SECT":" ","MAREA":" ","LANE":"６８巷","ALLEY":" ","HOUSE_NO":"９號","E_COORD97":172752.04000000001,"N_COORD97":2544876.0299999998,"ADDRESS":"復國一路６８巷９號","OBJECTID":406174},"geometry":{"x":172752.04000000004,"y":2544876.0299999993}},{"attributes":{"ID":406199,"DIS_CODE":0,"TOWNNAME":"永康區","LI":"崑山里","LIN":"15鄰","STREET":"大灣路","SECT":" ","MAREA":" ","LANE":"９６０巷","ALLEY":" ","HOUSE_NO":"１３號","E_COORD97":173579.48000000001,"N_COORD97":2544465,"ADDRESS":"大灣路９６０巷１３號","OBJECTID":406175},"geometry":{"x":173579.48000000138,"y":2544465.0000000037}},{"attributes":{"ID":406200,"DIS_CODE":0,"TOWNNAME":"永康區","LI":"崑山里","LIN":"12鄰","STREET":"大灣路","SECT":" ","MAREA":" ","LANE":"１０２０巷","ALLEY":" ","HOUSE_NO":"１８號","E_COORD97":173365.73999999999,"N_COORD97":2544513.23,"ADDRESS":"大灣路１０２０巷１８號","OBJECTID":406176},"geometry":{"x":173365.74000000115,"y":2544513.2300000004}},{"attributes":{"ID":406201,"DIS_CODE":0,"TOWNNAME":"永康區","LI":"復華里","LIN":"4鄰","STREET":"國華街","SECT":" ","MAREA":" ","LANE":"１０２巷","ALLEY":" ","HOUSE_NO":"７０號","E_COORD97":172935.91,"N_COORD97":2546149.2799999998,"ADDRESS":"國華街１０２巷７０號","OBJECTID":406177},"geometry":{"x":172935.91000000108,"y":2546149.2799999993}},{"attributes":{"ID":406202,"DIS_CODE":0,"TOWNNAME":"永康區","LI":"復國里","LIN":"8鄰","STREET":"復國二路","SECT":" ","MAREA":" ","LANE":"６３巷","ALLEY":" ","HOUSE_NO":"９號","E_COORD97":172806.19,"N_COORD97":2545128.02,"ADDRESS":"復國二路６３巷９號","OBJECTID":406178},"geometry":{"x":172806.19000000041,"y":2545128.0199999996}},{"attributes":{"ID":406203,"DIS_CODE":0,"TOWNNAME":"永康區","LI":"復國里","LIN":"10鄰","STREET":"復國二路","SECT":" ","MAREA":" ","LANE":"８７巷","ALLEY":" ","HOUSE_NO":"２１號","E_COORD97":172794.32000000001,"N_COORD97":2545372.7799999998,"ADDRESS":"復國二路８７巷２１號","OBJECTID":406179},"geometry":{"x":172794.32000000123,"y":2545372.7799999993}},{"attributes":{"ID":406204,"DIS_CODE":0,"TOWNNAME":"永康區","LI":"勝利里","LIN":"28鄰","STREET":"勝利街","SECT":" ","MAREA":" ","LANE":"４２巷","ALLEY":" ","HOUSE_NO":"７號","E_COORD97":171373.54000000001,"N_COORD97":2544634,"ADDRESS":"勝利街４２巷７號","OBJECTID":406180},"geometry":{"x":171373.54000000097,"y":2544634}},{"attributes":{"ID":406205,"DIS_CODE":0,"TOWNNAME":"永康區","LI":"復國里","LIN":"8鄰","STREET":"復國二路","SECT":" ","MAREA":" ","LANE":"６３巷","ALLEY":" ","HOUSE_NO":"５號","E_COORD97":172817.23000000001,"N_COORD97":2545127.27,"ADDRESS":"復國二路６３巷５號","OBJECTID":406181},"geometry":{"x":172817.23000000045,"y":2545127.2700000033}},{"attributes":{"ID":406206,"DIS_CODE":0,"TOWNNAME":"永康區","LI":"崑山里","LIN":"30鄰","STREET":"國光二街","SECT":" ","MAREA":" ","LANE":"７０巷","ALLEY":" ","HOUSE_NO":"１１號","E_COORD97":173882.84,"N_COORD97":2544781.79,"ADDRESS":"國光二街７０巷１１號","OBJECTID":406182},"geometry":{"x":173882.83999999892,"y":2544781.790000001}},{"attributes":{"ID":406207,"DIS_CODE":0,"TOWNNAME":"永康區","LI":"勝利里","LIN":"19鄰","STREET":"勝利街","SECT":" ","MAREA":" ","LANE":"１９７巷","ALLEY":" ","HOUSE_NO":"４５號","E_COORD97":171227.37,"N_COORD97":2545127.75,"ADDRESS":"勝利街１９７巷４５號","OBJECTID":406183},"geometry":{"x":171227.37000000104,"y":2545127.7500000037}},{"attributes":{"ID":406208,"DIS_CODE":0,"TOWNNAME":"永康區","LI":"勝利里","LIN":"23鄰","STREET":"中華一路","SECT":" ","MAREA":" ","LANE":"２０３巷","ALLEY":" ","HOUSE_NO":"１１號","E_COORD97":171455.06,"N_COORD97":2544920.2400000002,"ADDRESS":"中華一路２０３巷１１號","OBJECTID":406184},"geometry":{"x":171455.05999999959,"y":2544920.2400000002}},{"attributes":{"ID":406209,"DIS_CODE":0,"TOWNNAME":"永康區","LI":"復華里","LIN":"23鄰","STREET":"國華街","SECT":" ","MAREA":" ","LANE":"１３４巷","ALLEY":" ","HOUSE_NO":"２號","E_COORD97":172719.28,"N_COORD97":2546137,"ADDRESS":"國華街１３４巷２號","OBJECTID":406185},"geometry":{"x":172719.28000000212,"y":2546137.0000000019}},{"attributes":{"ID":406210,"DIS_CODE":0,"TOWNNAME":"永康區","LI":"崑山里","LIN":"22鄰","STREET":"大灣路","SECT":" ","MAREA":" ","LANE":"７９８巷","ALLEY":" ","HOUSE_NO":"２５號","E_COORD97":174018.22,"N_COORD97":2544604.9199999999,"ADDRESS":"大灣路７９８巷２５號","OBJECTID":406186},"geometry":{"x":174018.22000000067,"y":2544604.9200000018}},{"attributes":{"ID":406211,"DIS_CODE":0,"TOWNNAME":"永康區","LI":"崑山里","LIN":"47鄰","STREET":"國光五街","SECT":" ","MAREA":" ","LANE":"２２巷","ALLEY":" ","HOUSE_NO":"１２之１號","E_COORD97":174239.03,"N_COORD97":2545134.5699999998,"ADDRESS":"國光五街２２巷１２之１號","OBJECTID":406187},"geometry":{"x":174239.03000000026,"y":2545134.5700000003}},{"attributes":{"ID":406212,"DIS_CODE":0,"TOWNNAME":"永康區","LI":"崑山里","LIN":"30鄰","STREET":"國光二街","SECT":" ","MAREA":" ","LANE":"７０巷","ALLEY":" ","HOUSE_NO":"１號","E_COORD97":173874.39999999999,"N_COORD97":2544761.04,"ADDRESS":"國光二街７０巷１號","OBJECTID":406188},"geometry":{"x":173874.40000000037,"y":2544761.0399999991}},{"attributes":{"ID":406213,"DIS_CODE":0,"TOWNNAME":"新營區","LI":"新南里","LIN":"27鄰","STREET":"復興路","SECT":" ","MAREA":" ","LANE":"６２０巷","ALLEY":" ","HOUSE_NO":"６３號五樓之２","E_COORD97":178045.70999999999,"N_COORD97":2578545.6099999999,"ADDRESS":"復興路６２０巷６３號五樓之２","OBJECTID":406189},"geometry":{"x":178045.71000000183,"y":2578545.6099999994}},{"attributes":{"ID":406214,"DIS_CODE":0,"TOWNNAME":"新營區","LI":"大宏里","LIN":"27鄰","STREET":"開元路","SECT":" ","MAREA":" ","LANE":"５９巷","ALLEY":" ","HOUSE_NO":"４０之１號四樓","E_COORD97":180900.06,"N_COORD97":2578823.27,"ADDRESS":"開元路５９巷４０之１號四樓","OBJECTID":406190},"geometry":{"x":180900.06000000052,"y":2578823.2699999996}},{"attributes":{"ID":406215,"DIS_CODE":0,"TOWNNAME":"新營區","LI":"新南里","LIN":"27鄰","STREET":"復興路","SECT":" ","MAREA":" ","LANE":"６２０巷","ALLEY":" ","HOUSE_NO":"６３號五樓之６","E_COORD97":178045.69,"N_COORD97":2578545.6099999999,"ADDRESS":"復興路６２０巷６３號五樓之６","OBJECTID":406191},"geometry":{"x":178045.69000000041,"y":2578545.6099999994}},{"attributes":{"ID":406216,"DIS_CODE":0,"TOWNNAME":"新營區","LI":"新南里","LIN":"27鄰","STREET":"復興路","SECT":" ","MAREA":" ","LANE":"６２０巷","ALLEY":" ","HOUSE_NO":"６３號五樓之７","E_COORD97":178045.66,"N_COORD97":2578545.6099999999,"ADDRESS":"復興路６２０巷６３號五樓之７","OBJECTID":406192},"geometry":{"x":178045.66000000015,"y":2578545.6099999994}},{"attributes":{"ID":406217,"DIS_CODE":0,"TOWNNAME":"新營區","LI":"新南里","LIN":"27鄰","STREET":"復興路","SECT":" ","MAREA":" ","LANE":"６２０巷","ALLEY":" ","HOUSE_NO":"６３號四樓之３","E_COORD97":178045.67999999999,"N_COORD97":2578545.6099999999,"ADDRESS":"復興路６２０巷６３號四樓之３","OBJECTID":406193},"geometry":{"x":178045.68000000156,"y":2578545.6099999994}},{"attributes":{"ID":406218,"DIS_CODE":0,"TOWNNAME":"永康區","LI":"崑山里","LIN":"18鄰","STREET":"大灣路","SECT":" ","MAREA":" ","LANE":"８９６巷","ALLEY":" ","HOUSE_NO":"１０號","E_COORD97":173745.73999999999,"N_COORD97":2544482.5899999999,"ADDRESS":"大灣路８９６巷１０號","OBJECTID":406194},"geometry":{"x":173745.74000000115,"y":2544482.5900000017}},{"attributes":{"ID":406219,"DIS_CODE":0,"TOWNNAME":"永康區","LI":"復國里","LIN":"8鄰","STREET":"復國二路","SECT":" ","MAREA":" ","LANE":"６３巷","ALLEY":" ","HOUSE_NO":"１０號","E_COORD97":172794.53,"N_COORD97":2545145.5499999998,"ADDRESS":"復國二路６３巷１０號","OBJECTID":406195},"geometry":{"x":172794.53000000119,"y":2545145.5500000007}},{"attributes":{"ID":406220,"DIS_CODE":0,"TOWNNAME":"永康區","LI":"勝利里","LIN":"11鄰","STREET":"勝利街","SECT":" ","MAREA":" ","LANE":"７３巷","ALLEY":" ","HOUSE_NO":"１４號","E_COORD97":171297.01000000001,"N_COORD97":2544729.25,"ADDRESS":"勝利街７３巷１４號","OBJECTID":406196},"geometry":{"x":171297.01000000071,"y":2544729.2500000019}},{"attributes":{"ID":406221,"DIS_CODE":0,"TOWNNAME":"永康區","LI":"復國里","LIN":"3鄰","STREET":"復國一路","SECT":" ","MAREA":" ","LANE":"４４巷","ALLEY":" ","HOUSE_NO":"２４號","E_COORD97":172785.67000000001,"N_COORD97":2544802.27,"ADDRESS":"復國一路４４巷２４號","OBJECTID":406197},"geometry":{"x":172785.67000000179,"y":2544802.2700000014}},{"attributes":{"ID":406222,"DIS_CODE":0,"TOWNNAME":"永康區","LI":"復華里","LIN":"23鄰","STREET":"國華街","SECT":" ","MAREA":" ","LANE":"１３４巷","ALLEY":" ","HOUSE_NO":"１７號","E_COORD97":172729.09,"N_COORD97":2546180.9900000002,"ADDRESS":"國華街１３４巷１７號","OBJECTID":406198},"geometry":{"x":172729.09000000078,"y":2546180.9900000039}},{"attributes":{"ID":406223,"DIS_CODE":0,"TOWNNAME":"新營區","LI":"新南里","LIN":"27鄰","STREET":"復興路","SECT":" ","MAREA":" ","LANE":"６２０巷","ALLEY":" ","HOUSE_NO":"６３號五樓之３","E_COORD97":178045.67999999999,"N_COORD97":2578545.6099999999,"ADDRESS":"復興路６２０巷６３號五樓之３","OBJECTID":406199},"geometry":{"x":178045.68000000156,"y":2578545.6099999994}},{"attributes":{"ID":406224,"DIS_CODE":0,"TOWNNAME":"新營區","LI":"新東里","LIN":"27鄰","STREET":"東光街","SECT":" ","MAREA":" ","LANE":"４０巷","ALLEY":" ","HOUSE_NO":"４５號五樓","E_COORD97":180704.92999999999,"N_COORD97":2579623.71,"ADDRESS":"東光街４０巷４５號五樓","OBJECTID":406200},"geometry":{"x":180704.9299999997,"y":2579623.7100000028}}]}