{"displayFieldName":"TOWNNAME","fieldAliases":{"ID":"ID","DIS_CODE":"DIS_CODE","TOWNNAME":"TOWNNAME","LI":"LI","LIN":"LIN","STREET":"STREET","SECT":"SECT","MAREA":"MAREA","LANE":"LANE","ALLEY":"ALLEY","HOUSE_NO":"HOUSE_NO","E_COORD97":"E_COORD97","N_COORD97":"N_COORD97","ADDRESS":"ADDRESS","OBJECTID":"OBJECTID"},"geometryType":"esriGeometryPoint","spatialReference":{"wkid":102443,"latestWkid":3826},"fields":[{"name":"ID","type":"esriFieldTypeDouble","alias":"ID"},{"name":"DIS_CODE","type":"esriFieldTypeInteger","alias":"DIS_CODE"},{"name":"TOWNNAME","type":"esriFieldTypeString","alias":"TOWNNAME","length":8},{"name":"LI","type":"esriFieldTypeString","alias":"LI","length":8},{"name":"LIN","type":"esriFieldTypeString","alias":"LIN","length":12},{"name":"STREET","type":"esriFieldTypeString","alias":"STREET","length":20},{"name":"SECT","type":"esriFieldTypeString","alias":"SECT","length":8},{"name":"MAREA","type":"esriFieldTypeString","alias":"MAREA","length":12},{"name":"LANE","type":"esriFieldTypeString","alias":"LANE","length":10},{"name":"ALLEY","type":"esriFieldTypeString","alias":"ALLEY","length":10},{"name":"HOUSE_NO","type":"esriFieldTypeString","alias":"HOUSE_NO","length":20},{"name":"E_COORD97","type":"esriFieldTypeDouble","alias":"E_COORD97"},{"name":"N_COORD97","type":"esriFieldTypeDouble","alias":"N_COORD97"},{"name":"ADDRESS","type":"esriFieldTypeString","alias":"ADDRESS","length":50},{"name":"OBJECTID","type":"esriFieldTypeOID","alias":"OBJECTID"}],"features":[{"attributes":{"ID":367811,"DIS_CODE":0,"TOWNNAME":"安平區","LI":"怡平里","LIN":"13鄰","STREET":"建平十二街","SECT":" ","MAREA":" ","LANE":"３９６巷","ALLEY":" ","HOUSE_NO":"１０號","E_COORD97":165569.66,"N_COORD97":2544071.6299999999,"ADDRESS":"建平十二街３９６巷１０號","OBJECTID":367801},"geometry":{"x":165569.66000000201,"y":2544071.629999999}},{"attributes":{"ID":367812,"DIS_CODE":0,"TOWNNAME":"歸仁區","LI":"七甲里","LIN":"13鄰","STREET":"南潭一街","SECT":" ","MAREA":" ","LANE":"４２巷","ALLEY":" ","HOUSE_NO":"１９號","E_COORD97":175861.14000000001,"N_COORD97":2543047.25,"ADDRESS":"南潭一街４２巷１９號","OBJECTID":367802},"geometry":{"x":175861.1400000006,"y":2543047.2500000019}},{"attributes":{"ID":367813,"DIS_CODE":0,"TOWNNAME":"歸仁區","LI":"七甲里","LIN":"13鄰","STREET":"南潭一街","SECT":" ","MAREA":" ","LANE":"４２巷","ALLEY":" ","HOUSE_NO":"２５號","E_COORD97":175865.34,"N_COORD97":2543067.25,"ADDRESS":"南潭一街４２巷２５號","OBJECTID":367803},"geometry":{"x":175865.34000000078,"y":2543067.2500000019}},{"attributes":{"ID":367814,"DIS_CODE":0,"TOWNNAME":"歸仁區","LI":"七甲里","LIN":"13鄰","STREET":"南潭一街","SECT":" ","MAREA":" ","LANE":"４２巷","ALLEY":" ","HOUSE_NO":"２２號","E_COORD97":175876.54000000001,"N_COORD97":2543056.25,"ADDRESS":"南潭一街４２巷２２號","OBJECTID":367804},"geometry":{"x":175876.54000000004,"y":2543056.2500000037}},{"attributes":{"ID":367815,"DIS_CODE":0,"TOWNNAME":"歸仁區","LI":"大廟里","LIN":"13鄰","STREET":"大廟六街","SECT":" ","MAREA":" ","LANE":"１１０巷","ALLEY":" ","HOUSE_NO":"８號","E_COORD97":176192.12,"N_COORD97":2544241.25,"ADDRESS":"大廟六街１１０巷８號","OBJECTID":367805},"geometry":{"x":176192.12000000104,"y":2544241.25}},{"attributes":{"ID":367816,"DIS_CODE":0,"TOWNNAME":"歸仁區","LI":"七甲里","LIN":"13鄰","STREET":"南丁路","SECT":" ","MAREA":" ","LANE":"５７１巷","ALLEY":" ","HOUSE_NO":"２７號","E_COORD97":175968.73999999999,"N_COORD97":2543028.25,"ADDRESS":"南丁路５７１巷２７號","OBJECTID":367806},"geometry":{"x":175968.74000000022,"y":2543028.25}},{"attributes":{"ID":367817,"DIS_CODE":0,"TOWNNAME":"南區","LI":"大林里","LIN":"13鄰","STREET":"國民路","SECT":" ","MAREA":" ","LANE":"４７５巷","ALLEY":" ","HOUSE_NO":"４８號","E_COORD97":168603.60999999999,"N_COORD97":2541269.8700000001,"ADDRESS":"國民路４７５巷４８號","OBJECTID":367807},"geometry":{"x":168603.61000000127,"y":2541269.8700000048}},{"attributes":{"ID":367818,"DIS_CODE":0,"TOWNNAME":"歸仁區","LI":"武東里","LIN":"13鄰","STREET":" ","SECT":" ","MAREA":"明德新村","LANE":" ","ALLEY":" ","HOUSE_NO":"２３７號","E_COORD97":175074.64000000001,"N_COORD97":2536093.27,"ADDRESS":"明德新村２３７號","OBJECTID":367808},"geometry":{"x":175074.6400000006,"y":2536093.2700000014}},{"attributes":{"ID":367819,"DIS_CODE":0,"TOWNNAME":"楠西區","LI":"鹿田里","LIN":"13鄰","STREET":" ","SECT":" ","MAREA":"油車","LANE":" ","ALLEY":" ","HOUSE_NO":"６８號之１","E_COORD97":197756.28,"N_COORD97":2562845.2999999998,"ADDRESS":"油車６８號之１","OBJECTID":367809},"geometry":{"x":197756.28000000119,"y":2562845.3000000007}},{"attributes":{"ID":367820,"DIS_CODE":0,"TOWNNAME":"楠西區","LI":"鹿田里","LIN":"13鄰","STREET":" ","SECT":" ","MAREA":"油車","LANE":" ","ALLEY":" ","HOUSE_NO":"６６號","E_COORD97":197733.84,"N_COORD97":2562864.25,"ADDRESS":"油車６６號","OBJECTID":367810},"geometry":{"x":197733.83999999985,"y":2562864.2500000019}},{"attributes":{"ID":367821,"DIS_CODE":0,"TOWNNAME":"南區","LI":"大林里","LIN":"13鄰","STREET":"國民路","SECT":" ","MAREA":" ","LANE":"４７５巷","ALLEY":" ","HOUSE_NO":"８０號","E_COORD97":168574.64000000001,"N_COORD97":2541225.1099999999,"ADDRESS":"國民路４７５巷８０號","OBJECTID":367811},"geometry":{"x":168574.63999999873,"y":2541225.1099999994}},{"attributes":{"ID":367822,"DIS_CODE":0,"TOWNNAME":"南區","LI":"大林里","LIN":"13鄰","STREET":"國民路","SECT":" ","MAREA":" ","LANE":"５１１巷","ALLEY":" ","HOUSE_NO":"２８號","E_COORD97":168622.14999999999,"N_COORD97":2541431.4199999999,"ADDRESS":"國民路５１１巷２８號","OBJECTID":367812},"geometry":{"x":168622.15000000037,"y":2541431.4200000018}},{"attributes":{"ID":367823,"DIS_CODE":0,"TOWNNAME":"中西區","LI":"銀同里","LIN":"12鄰","STREET":"開山路","SECT":" ","MAREA":" ","LANE":"３巷","ALLEY":" ","HOUSE_NO":"１８號","E_COORD97":168638.79000000001,"N_COORD97":2543592.6600000001,"ADDRESS":"開山路３巷１８號","OBJECTID":367813},"geometry":{"x":168638.79000000097,"y":2543592.6600000039}},{"attributes":{"ID":367824,"DIS_CODE":0,"TOWNNAME":"善化區","LI":"南關里","LIN":"13鄰","STREET":"自由路","SECT":" ","MAREA":" ","LANE":" ","ALLEY":" ","HOUSE_NO":"２３０號","E_COORD97":176875.20999999999,"N_COORD97":2559004.25,"ADDRESS":"自由路２３０號","OBJECTID":367814},"geometry":{"x":176875.20999999996,"y":2559004.25}},{"attributes":{"ID":367825,"DIS_CODE":0,"TOWNNAME":"東區","LI":"富裕里","LIN":"13鄰","STREET":"裕豐街","SECT":" ","MAREA":" ","LANE":" ","ALLEY":" ","HOUSE_NO":"４９號","E_COORD97":170705.62,"N_COORD97":2542803.8399999999,"ADDRESS":"裕豐街４９號","OBJECTID":367815},"geometry":{"x":170705.62000000011,"y":2542803.8399999999}},{"attributes":{"ID":367826,"DIS_CODE":0,"TOWNNAME":"東區","LI":"富裕里","LIN":"13鄰","STREET":"裕豐街","SECT":" ","MAREA":" ","LANE":" ","ALLEY":" ","HOUSE_NO":"５１號","E_COORD97":170705.94,"N_COORD97":2542807.46,"ADDRESS":"裕豐街５１號","OBJECTID":367816},"geometry":{"x":170705.93999999948,"y":2542807.4600000009}},{"attributes":{"ID":367827,"DIS_CODE":0,"TOWNNAME":"東區","LI":"崇誨里","LIN":"13鄰","STREET":"林森路","SECT":"二段","MAREA":" ","LANE":" ","ALLEY":" ","HOUSE_NO":"１９６號之１","E_COORD97":170464.95999999999,"N_COORD97":2543356.5299999998,"ADDRESS":"林森路二段１９６號之１","OBJECTID":367817},"geometry":{"x":170464.96000000089,"y":2543356.5300000012}},{"attributes":{"ID":367828,"DIS_CODE":0,"TOWNNAME":"東區","LI":"富裕里","LIN":"13鄰","STREET":"裕豐街","SECT":" ","MAREA":" ","LANE":" ","ALLEY":" ","HOUSE_NO":"２３號","E_COORD97":170698.44,"N_COORD97":2542747.5899999999,"ADDRESS":"裕豐街２３號","OBJECTID":367818},"geometry":{"x":170698.44000000134,"y":2542747.5899999999}},{"attributes":{"ID":367829,"DIS_CODE":0,"TOWNNAME":"東區","LI":"富裕里","LIN":"13鄰","STREET":"裕豐街","SECT":" ","MAREA":" ","LANE":" ","ALLEY":" ","HOUSE_NO":"３３號","E_COORD97":170699.44,"N_COORD97":2542770.8999999999,"ADDRESS":"裕豐街３３號","OBJECTID":367819},"geometry":{"x":170699.44000000134,"y":2542770.9000000041}},{"attributes":{"ID":367830,"DIS_CODE":0,"TOWNNAME":"東區","LI":"富裕里","LIN":"13鄰","STREET":"裕豐街","SECT":" ","MAREA":" ","LANE":" ","ALLEY":" ","HOUSE_NO":"３７號","E_COORD97":170699.16,"N_COORD97":2542779.48,"ADDRESS":"裕豐街３７號","OBJECTID":367820},"geometry":{"x":170699.16000000201,"y":2542779.4800000004}},{"attributes":{"ID":367831,"DIS_CODE":0,"TOWNNAME":"東區","LI":"富裕里","LIN":"13鄰","STREET":"裕豐街","SECT":" ","MAREA":" ","LANE":" ","ALLEY":" ","HOUSE_NO":"３９號","E_COORD97":170701.32999999999,"N_COORD97":2542783.3300000001,"ADDRESS":"裕豐街３９號","OBJECTID":367821},"geometry":{"x":170701.33000000194,"y":2542783.3300000001}},{"attributes":{"ID":367832,"DIS_CODE":0,"TOWNNAME":"東區","LI":"富裕里","LIN":"13鄰","STREET":"裕豐街","SECT":" ","MAREA":" ","LANE":" ","ALLEY":" ","HOUSE_NO":"４５號","E_COORD97":170704.91,"N_COORD97":2542796.0099999998,"ADDRESS":"裕豐街４５號","OBJECTID":367822},"geometry":{"x":170704.91000000108,"y":2542796.0099999998}},{"attributes":{"ID":367833,"DIS_CODE":0,"TOWNNAME":"東區","LI":"富裕里","LIN":"13鄰","STREET":"裕豐街","SECT":" ","MAREA":" ","LANE":" ","ALLEY":" ","HOUSE_NO":"５５號","E_COORD97":170708.54000000001,"N_COORD97":2542819.7200000002,"ADDRESS":"裕豐街５５號","OBJECTID":367823},"geometry":{"x":170708.54000000097,"y":2542819.7199999988}},{"attributes":{"ID":367834,"DIS_CODE":0,"TOWNNAME":"楠西區","LI":"密枝里","LIN":"13鄰","STREET":" ","SECT":" ","MAREA":"密枝","LANE":" ","ALLEY":" ","HOUSE_NO":"５７號之３１","E_COORD97":202778.64999999999,"N_COORD97":2566989.2999999998,"ADDRESS":"密枝５７號之３１","OBJECTID":367824},"geometry":{"x":202778.65000000037,"y":2566989.3000000045}},{"attributes":{"ID":367835,"DIS_CODE":0,"TOWNNAME":"安平區","LI":"怡平里","LIN":"18鄰","STREET":"文平路","SECT":" ","MAREA":" ","LANE":"４６１巷","ALLEY":" ","HOUSE_NO":"２７號","E_COORD97":165740.92000000001,"N_COORD97":2543867.9900000002,"ADDRESS":"文平路４６１巷２７號","OBJECTID":367825},"geometry":{"x":165740.92000000086,"y":2543867.9900000002}},{"attributes":{"ID":367836,"DIS_CODE":0,"TOWNNAME":"安平區","LI":"怡平里","LIN":"18鄰","STREET":"文平路","SECT":" ","MAREA":" ","LANE":"４６１巷","ALLEY":" ","HOUSE_NO":"２９號","E_COORD97":165736.32999999999,"N_COORD97":2543869.1899999999,"ADDRESS":"文平路４６１巷２９號","OBJECTID":367826},"geometry":{"x":165736.33000000101,"y":2543869.1899999995}},{"attributes":{"ID":367837,"DIS_CODE":0,"TOWNNAME":"安平區","LI":"怡平里","LIN":"18鄰","STREET":"文平路","SECT":" ","MAREA":" ","LANE":"４６１巷","ALLEY":" ","HOUSE_NO":"３１號","E_COORD97":165729.94,"N_COORD97":2543869.3900000001,"ADDRESS":"文平路４６１巷３１號","OBJECTID":367827},"geometry":{"x":165729.94000000041,"y":2543869.3900000006}},{"attributes":{"ID":367838,"DIS_CODE":0,"TOWNNAME":"安平區","LI":"怡平里","LIN":"18鄰","STREET":"文平路","SECT":" ","MAREA":" ","LANE":"４６１巷","ALLEY":" ","HOUSE_NO":"３２號","E_COORD97":165727,"N_COORD97":2543888.8700000001,"ADDRESS":"文平路４６１巷３２號","OBJECTID":367828},"geometry":{"x":165727.00000000093,"y":2543888.8700000029}},{"attributes":{"ID":367839,"DIS_CODE":0,"TOWNNAME":"安平區","LI":"怡平里","LIN":"18鄰","STREET":"文平路","SECT":" ","MAREA":" ","LANE":"４６１巷","ALLEY":" ","HOUSE_NO":"３３號","E_COORD97":165725.95000000001,"N_COORD97":2543869.98,"ADDRESS":"文平路４６１巷３３號","OBJECTID":367829},"geometry":{"x":165725.95000000112,"y":2543869.9800000023}},{"attributes":{"ID":367840,"DIS_CODE":0,"TOWNNAME":"楠西區","LI":"密枝里","LIN":"13鄰","STREET":" ","SECT":" ","MAREA":"密枝","LANE":" ","ALLEY":" ","HOUSE_NO":"５７號之２０","E_COORD97":202746.60000000001,"N_COORD97":2566976.2999999998,"ADDRESS":"密枝５７號之２０","OBJECTID":367830},"geometry":{"x":202746.60000000149,"y":2566976.3000000026}},{"attributes":{"ID":367841,"DIS_CODE":0,"TOWNNAME":"楠西區","LI":"密枝里","LIN":"13鄰","STREET":" ","SECT":" ","MAREA":"密枝","LANE":" ","ALLEY":" ","HOUSE_NO":"５７號之１９","E_COORD97":202806.34,"N_COORD97":2566968.2999999998,"ADDRESS":"密枝５７號之１９","OBJECTID":367831},"geometry":{"x":202806.34000000171,"y":2566968.3000000007}},{"attributes":{"ID":367842,"DIS_CODE":0,"TOWNNAME":"中西區","LI":"銀同里","LIN":"12鄰","STREET":"開山路","SECT":" ","MAREA":" ","LANE":"３巷","ALLEY":" ","HOUSE_NO":"２０號","E_COORD97":168642.54999999999,"N_COORD97":2543592.0699999998,"ADDRESS":"開山路３巷２０號","OBJECTID":367832},"geometry":{"x":168642.54999999981,"y":2543592.0700000003}},{"attributes":{"ID":367843,"DIS_CODE":0,"TOWNNAME":"中西區","LI":"銀同里","LIN":"12鄰","STREET":"開山路","SECT":" ","MAREA":" ","LANE":"３巷","ALLEY":" ","HOUSE_NO":"２２號","E_COORD97":168638.28,"N_COORD97":2543586.7000000002,"ADDRESS":"開山路３巷２２號","OBJECTID":367833},"geometry":{"x":168638.28000000026,"y":2543586.6999999993}},{"attributes":{"ID":367844,"DIS_CODE":0,"TOWNNAME":"楠西區","LI":"密枝里","LIN":"13鄰","STREET":" ","SECT":" ","MAREA":"密枝","LANE":" ","ALLEY":" ","HOUSE_NO":"５７號之１８","E_COORD97":202796.70000000001,"N_COORD97":2566956.2999999998,"ADDRESS":"密枝５７號之１８","OBJECTID":367834},"geometry":{"x":202796.70000000019,"y":2566956.3000000026}},{"attributes":{"ID":367845,"DIS_CODE":0,"TOWNNAME":"楠西區","LI":"密枝里","LIN":"13鄰","STREET":" ","SECT":" ","MAREA":"密枝","LANE":" ","ALLEY":" ","HOUSE_NO":"５８號之１１","E_COORD97":202865.04999999999,"N_COORD97":2566913.2999999998,"ADDRESS":"密枝５８號之１１","OBJECTID":367835},"geometry":{"x":202865.04999999981,"y":2566913.3000000007}},{"attributes":{"ID":367846,"DIS_CODE":0,"TOWNNAME":"楠西區","LI":"密枝里","LIN":"13鄰","STREET":" ","SECT":" ","MAREA":"密枝","LANE":" ","ALLEY":" ","HOUSE_NO":"５７號之１４","E_COORD97":202859.67999999999,"N_COORD97":2566935.2999999998,"ADDRESS":"密枝５７號之１４","OBJECTID":367836},"geometry":{"x":202859.68000000156,"y":2566935.3000000045}},{"attributes":{"ID":367847,"DIS_CODE":0,"TOWNNAME":"楠西區","LI":"灣丘里","LIN":"13鄰","STREET":" ","SECT":" ","MAREA":"鳳興","LANE":" ","ALLEY":" ","HOUSE_NO":"９號","E_COORD97":198672.01999999999,"N_COORD97":2562723.25,"ADDRESS":"鳳興９號","OBJECTID":367837},"geometry":{"x":198672.02000000048,"y":2562723.25}},{"attributes":{"ID":367848,"DIS_CODE":0,"TOWNNAME":"楠西區","LI":"灣丘里","LIN":"13鄰","STREET":" ","SECT":" ","MAREA":"鳳興","LANE":" ","ALLEY":" ","HOUSE_NO":"１號之５","E_COORD97":198556.41,"N_COORD97":2562768.2999999998,"ADDRESS":"鳳興１號之５","OBJECTID":367838},"geometry":{"x":198556.41000000108,"y":2562768.3000000045}},{"attributes":{"ID":367849,"DIS_CODE":0,"TOWNNAME":"中西區","LI":"銀同里","LIN":"12鄰","STREET":"開山路","SECT":" ","MAREA":" ","LANE":"３巷","ALLEY":" ","HOUSE_NO":"２４號","E_COORD97":168637.26000000001,"N_COORD97":2543579.21,"ADDRESS":"開山路３巷２４號","OBJECTID":367839},"geometry":{"x":168637.26000000071,"y":2543579.2100000009}},{"attributes":{"ID":367850,"DIS_CODE":0,"TOWNNAME":"中西區","LI":"銀同里","LIN":"12鄰","STREET":"開山路","SECT":" ","MAREA":" ","LANE":"３巷","ALLEY":" ","HOUSE_NO":"２６號","E_COORD97":168635.95000000001,"N_COORD97":2543574.1600000001,"ADDRESS":"開山路３巷２６號","OBJECTID":367840},"geometry":{"x":168635.95000000205,"y":2543574.1600000001}},{"attributes":{"ID":367851,"DIS_CODE":0,"TOWNNAME":"中西區","LI":"銀同里","LIN":"12鄰","STREET":"開山路","SECT":" ","MAREA":" ","LANE":"３巷","ALLEY":" ","HOUSE_NO":"３０號","E_COORD97":168649.60000000001,"N_COORD97":2543570.4399999999,"ADDRESS":"開山路３巷３０號","OBJECTID":367841},"geometry":{"x":168649.60000000149,"y":2543570.4400000013}},{"attributes":{"ID":367852,"DIS_CODE":0,"TOWNNAME":"東區","LI":"富裕里","LIN":"13鄰","STREET":"裕豐街","SECT":" ","MAREA":" ","LANE":" ","ALLEY":" ","HOUSE_NO":"６９號","E_COORD97":170721.95999999999,"N_COORD97":2542860.2000000002,"ADDRESS":"裕豐街６９號","OBJECTID":367842},"geometry":{"x":170721.95999999996,"y":2542860.2000000011}},{"attributes":{"ID":367853,"DIS_CODE":0,"TOWNNAME":"東區","LI":"富裕里","LIN":"13鄰","STREET":"裕豐街","SECT":" ","MAREA":" ","LANE":" ","ALLEY":" ","HOUSE_NO":"９號","E_COORD97":170685.73999999999,"N_COORD97":2542705.0899999999,"ADDRESS":"裕豐街９號","OBJECTID":367843},"geometry":{"x":170685.74000000115,"y":2542705.0900000017}},{"attributes":{"ID":367854,"DIS_CODE":0,"TOWNNAME":"東區","LI":"富裕里","LIN":"13鄰","STREET":"裕豐街","SECT":" ","MAREA":" ","LANE":" ","ALLEY":" ","HOUSE_NO":"５３號","E_COORD97":170706.59,"N_COORD97":2542811.6899999999,"ADDRESS":"裕豐街５３號","OBJECTID":367844},"geometry":{"x":170706.59000000078,"y":2542811.6899999995}},{"attributes":{"ID":367855,"DIS_CODE":0,"TOWNNAME":"東區","LI":"富裕里","LIN":"13鄰","STREET":"裕豐街","SECT":" ","MAREA":" ","LANE":" ","ALLEY":" ","HOUSE_NO":"５７號","E_COORD97":170709.51999999999,"N_COORD97":2542823.29,"ADDRESS":"裕豐街５７號","OBJECTID":367845},"geometry":{"x":170709.51999999955,"y":2542823.2899999991}},{"attributes":{"ID":367856,"DIS_CODE":0,"TOWNNAME":"東區","LI":"富裕里","LIN":"13鄰","STREET":"裕豐街","SECT":" ","MAREA":" ","LANE":" ","ALLEY":" ","HOUSE_NO":"５９號","E_COORD97":170709.84,"N_COORD97":2542827.6200000001,"ADDRESS":"裕豐街５９號","OBJECTID":367846},"geometry":{"x":170709.84000000078,"y":2542827.6200000048}},{"attributes":{"ID":367857,"DIS_CODE":0,"TOWNNAME":"東區","LI":"富裕里","LIN":"13鄰","STREET":"裕豐街","SECT":" ","MAREA":" ","LANE":" ","ALLEY":" ","HOUSE_NO":"６３號","E_COORD97":170713.82000000001,"N_COORD97":2542834.9900000002,"ADDRESS":"裕豐街６３號","OBJECTID":367847},"geometry":{"x":170713.82000000123,"y":2542834.9900000021}},{"attributes":{"ID":367858,"DIS_CODE":0,"TOWNNAME":"新營區","LI":"民權里","LIN":"13鄰","STREET":"信義街","SECT":" ","MAREA":" ","LANE":"５９巷","ALLEY":" ","HOUSE_NO":"６號","E_COORD97":179879.13,"N_COORD97":2578400.5099999998,"ADDRESS":"信義街５９巷６號","OBJECTID":367848},"geometry":{"x":179879.13000000082,"y":2578400.5100000016}},{"attributes":{"ID":367859,"DIS_CODE":0,"TOWNNAME":"新營區","LI":"忠政里","LIN":"13鄰","STREET":"中正路","SECT":" ","MAREA":" ","LANE":"７７巷","ALLEY":" ","HOUSE_NO":"１１號","E_COORD97":180037.62,"N_COORD97":2579642.3300000001,"ADDRESS":"中正路７７巷１１號","OBJECTID":367849},"geometry":{"x":180037.62000000011,"y":2579642.3300000019}},{"attributes":{"ID":367860,"DIS_CODE":0,"TOWNNAME":"新營區","LI":"鐵線里","LIN":"13鄰","STREET":" ","SECT":" ","MAREA":"秀才","LANE":" ","ALLEY":" ","HOUSE_NO":"１１號","E_COORD97":174834.92999999999,"N_COORD97":2573835.9399999999,"ADDRESS":"秀才１１號","OBJECTID":367850},"geometry":{"x":174834.93000000156,"y":2573835.9400000032}},{"attributes":{"ID":367861,"DIS_CODE":0,"TOWNNAME":"新營區","LI":"太南里","LIN":"13鄰","STREET":" ","SECT":" ","MAREA":"太子宮","LANE":" ","ALLEY":" ","HOUSE_NO":"２７６號","E_COORD97":176084.73999999999,"N_COORD97":2576750.0299999998,"ADDRESS":"太子宮２７６號","OBJECTID":367851},"geometry":{"x":176084.74000000115,"y":2576750.0299999993}},{"attributes":{"ID":367862,"DIS_CODE":0,"TOWNNAME":"新營區","LI":"王公里","LIN":"13鄰","STREET":"民族路","SECT":" ","MAREA":" ","LANE":"１０６巷","ALLEY":" ","HOUSE_NO":"６６號","E_COORD97":180453.45000000001,"N_COORD97":2579108.7999999998,"ADDRESS":"民族路１０６巷６６號","OBJECTID":367852},"geometry":{"x":180453.45000000112,"y":2579108.8000000007}},{"attributes":{"ID":367863,"DIS_CODE":0,"TOWNNAME":"中西區","LI":"銀同里","LIN":"12鄰","STREET":"開山路","SECT":" ","MAREA":" ","LANE":"３巷","ALLEY":" ","HOUSE_NO":"３０號之１","E_COORD97":168646.32999999999,"N_COORD97":2543571.5099999998,"ADDRESS":"開山路３巷３０號之１","OBJECTID":367853},"geometry":{"x":168646.33000000007,"y":2543571.5099999998}},{"attributes":{"ID":367864,"DIS_CODE":0,"TOWNNAME":"中西區","LI":"銀同里","LIN":"12鄰","STREET":"開山路","SECT":" ","MAREA":" ","LANE":"３巷","ALLEY":" ","HOUSE_NO":"３２號","E_COORD97":168656.98999999999,"N_COORD97":2543568.27,"ADDRESS":"開山路３巷３２號","OBJECTID":367854},"geometry":{"x":168656.99000000022,"y":2543568.2700000014}},{"attributes":{"ID":367865,"DIS_CODE":0,"TOWNNAME":"中西區","LI":"銀同里","LIN":"12鄰","STREET":"開山路","SECT":" ","MAREA":" ","LANE":"３巷","ALLEY":" ","HOUSE_NO":"４２號","E_COORD97":168646.48000000001,"N_COORD97":2543591.8700000001,"ADDRESS":"開山路３巷４２號","OBJECTID":367855},"geometry":{"x":168646.48000000138,"y":2543591.870000001}},{"attributes":{"ID":367866,"DIS_CODE":0,"TOWNNAME":"中西區","LI":"銀同里","LIN":"12鄰","STREET":"開山路","SECT":" ","MAREA":" ","LANE":"３巷","ALLEY":" ","HOUSE_NO":"５６號","E_COORD97":168667.22,"N_COORD97":2543591.7200000002,"ADDRESS":"開山路３巷５６號","OBJECTID":367856},"geometry":{"x":168667.21999999974,"y":2543591.7200000007}},{"attributes":{"ID":367867,"DIS_CODE":0,"TOWNNAME":"安南區","LI":"淵西里","LIN":"12鄰","STREET":"安中路","SECT":"四段","MAREA":" ","LANE":"２１０巷","ALLEY":" ","HOUSE_NO":"１３號","E_COORD97":164771.60999999999,"N_COORD97":2550122,"ADDRESS":"安中路四段２１０巷１３號","OBJECTID":367857},"geometry":{"x":164771.6100000022,"y":2550122}},{"attributes":{"ID":367868,"DIS_CODE":0,"TOWNNAME":"安南區","LI":"淵西里","LIN":"12鄰","STREET":"安中路","SECT":"四段","MAREA":" ","LANE":"２１０巷","ALLEY":" ","HOUSE_NO":"１７號","E_COORD97":164787.29000000001,"N_COORD97":2550127,"ADDRESS":"安中路四段２１０巷１７號","OBJECTID":367858},"geometry":{"x":164787.29000000097,"y":2550127.0000000037}},{"attributes":{"ID":367869,"DIS_CODE":0,"TOWNNAME":"安南區","LI":"淵西里","LIN":"12鄰","STREET":"安中路","SECT":"四段","MAREA":" ","LANE":"２１０巷","ALLEY":" ","HOUSE_NO":"１９號","E_COORD97":164792.06,"N_COORD97":2550127.8999999999,"ADDRESS":"安中路四段２１０巷１９號","OBJECTID":367859},"geometry":{"x":164792.06000000052,"y":2550127.9000000041}},{"attributes":{"ID":367870,"DIS_CODE":0,"TOWNNAME":"安南區","LI":"淵西里","LIN":"12鄰","STREET":"安中路","SECT":"四段","MAREA":" ","LANE":"２１０巷","ALLEY":" ","HOUSE_NO":"２１號","E_COORD97":164796.38,"N_COORD97":2550129.04,"ADDRESS":"安中路四段２１０巷２１號","OBJECTID":367860},"geometry":{"x":164796.37999999896,"y":2550129.0400000028}},{"attributes":{"ID":367871,"DIS_CODE":0,"TOWNNAME":"安南區","LI":"淵西里","LIN":"12鄰","STREET":"安中路","SECT":"四段","MAREA":" ","LANE":"２１０巷","ALLEY":" ","HOUSE_NO":"２５號","E_COORD97":164802.29000000001,"N_COORD97":2550138.5699999998,"ADDRESS":"安中路四段２１０巷２５號","OBJECTID":367861},"geometry":{"x":164802.2900000019,"y":2550138.5700000022}},{"attributes":{"ID":367872,"DIS_CODE":0,"TOWNNAME":"安南區","LI":"淵西里","LIN":"12鄰","STREET":"安中路","SECT":"四段","MAREA":" ","LANE":"２９０巷","ALLEY":" ","HOUSE_NO":"９０號","E_COORD97":164752.34,"N_COORD97":2550250.48,"ADDRESS":"安中路四段２９０巷９０號","OBJECTID":367862},"geometry":{"x":164752.33999999985,"y":2550250.4800000023}},{"attributes":{"ID":367873,"DIS_CODE":0,"TOWNNAME":"安南區","LI":"淵西里","LIN":"12鄰","STREET":"安中路","SECT":"四段","MAREA":" ","LANE":"２９０巷","ALLEY":" ","HOUSE_NO":"２４５號","E_COORD97":165019.81,"N_COORD97":2550267.1800000002,"ADDRESS":"安中路四段２９０巷２４５號","OBJECTID":367863},"geometry":{"x":165019.80999999959,"y":2550267.1799999997}},{"attributes":{"ID":367874,"DIS_CODE":0,"TOWNNAME":"安南區","LI":"淵東里","LIN":"12鄰","STREET":"海佃路","SECT":"四段","MAREA":" ","LANE":"５５巷","ALLEY":" ","HOUSE_NO":"２０號","E_COORD97":165614.39000000001,"N_COORD97":2550588.0099999998,"ADDRESS":"海佃路四段５５巷２０號","OBJECTID":367864},"geometry":{"x":165614.38999999966,"y":2550588.0100000016}},{"attributes":{"ID":367875,"DIS_CODE":0,"TOWNNAME":"安南區","LI":"淵東里","LIN":"12鄰","STREET":"海佃路","SECT":"四段","MAREA":" ","LANE":"１５５巷","ALLEY":" ","HOUSE_NO":"２１號","E_COORD97":165578.17000000001,"N_COORD97":2550777.1099999999,"ADDRESS":"海佃路四段１５５巷２１號","OBJECTID":367865},"geometry":{"x":165578.17000000086,"y":2550777.1100000013}},{"attributes":{"ID":367876,"DIS_CODE":0,"TOWNNAME":"安南區","LI":"新順里","LIN":"12鄰","STREET":"安生街","SECT":" ","MAREA":" ","LANE":"１０巷","ALLEY":" ","HOUSE_NO":"１４號","E_COORD97":169739.42000000001,"N_COORD97":2549507.71,"ADDRESS":"安生街１０巷１４號","OBJECTID":367866},"geometry":{"x":169739.42000000179,"y":2549507.7100000009}},{"attributes":{"ID":367877,"DIS_CODE":0,"TOWNNAME":"東區","LI":"富裕里","LIN":"13鄰","STREET":"裕豐街","SECT":" ","MAREA":" ","LANE":" ","ALLEY":" ","HOUSE_NO":"６５號","E_COORD97":170714.88,"N_COORD97":2542843.1699999999,"ADDRESS":"裕豐街６５號","OBJECTID":367867},"geometry":{"x":170714.88000000082,"y":2542843.1700000037}},{"attributes":{"ID":367878,"DIS_CODE":0,"TOWNNAME":"東區","LI":"富裕里","LIN":"13鄰","STREET":"裕豐街","SECT":" ","MAREA":" ","LANE":" ","ALLEY":" ","HOUSE_NO":"６７號","E_COORD97":170716.45000000001,"N_COORD97":2542846.7000000002,"ADDRESS":"裕豐街６７號","OBJECTID":367868},"geometry":{"x":170716.45000000112,"y":2542846.7000000011}},{"attributes":{"ID":367879,"DIS_CODE":0,"TOWNNAME":"東區","LI":"新東里","LIN":"13鄰","STREET":"裕農路","SECT":" ","MAREA":" ","LANE":" ","ALLEY":" ","HOUSE_NO":"３７號","E_COORD97":170627.69,"N_COORD97":2542894.8599999999,"ADDRESS":"裕農路３７號","OBJECTID":367869},"geometry":{"x":170627.69000000041,"y":2542894.8599999994}},{"attributes":{"ID":367880,"DIS_CODE":0,"TOWNNAME":"東區","LI":"新東里","LIN":"13鄰","STREET":"裕農路","SECT":" ","MAREA":" ","LANE":" ","ALLEY":" ","HOUSE_NO":"３９號","E_COORD97":170631.75,"N_COORD97":2542896.6000000001,"ADDRESS":"裕農路３９號","OBJECTID":367870},"geometry":{"x":170631.75,"y":2542896.5999999996}},{"attributes":{"ID":367881,"DIS_CODE":0,"TOWNNAME":"新營區","LI":"新北里","LIN":"13鄰","STREET":"周武街","SECT":" ","MAREA":" ","LANE":"７９巷","ALLEY":" ","HOUSE_NO":"６號","E_COORD97":179352.06,"N_COORD97":2578982.2200000002,"ADDRESS":"周武街７９巷６號","OBJECTID":367871},"geometry":{"x":179352.06000000052,"y":2578982.2200000025}},{"attributes":{"ID":367882,"DIS_CODE":0,"TOWNNAME":"新營區","LI":"王公里","LIN":"13鄰","STREET":"民族路","SECT":" ","MAREA":" ","LANE":"１１４巷","ALLEY":" ","HOUSE_NO":"４８號","E_COORD97":180476.47,"N_COORD97":2579206.1499999999,"ADDRESS":"民族路１１４巷４８號","OBJECTID":367872},"geometry":{"x":180476.47000000067,"y":2579206.1500000022}},{"attributes":{"ID":367883,"DIS_CODE":0,"TOWNNAME":"南區","LI":"大恩里","LIN":"13鄰","STREET":"國民路","SECT":" ","MAREA":" ","LANE":"１６５巷","ALLEY":" ","HOUSE_NO":"３０號","E_COORD97":169151.07000000001,"N_COORD97":2540803.8999999999,"ADDRESS":"國民路１６５巷３０號","OBJECTID":367873},"geometry":{"x":169151.07000000123,"y":2540803.9000000004}},{"attributes":{"ID":367884,"DIS_CODE":0,"TOWNNAME":"南區","LI":"大恩里","LIN":"13鄰","STREET":"國民路","SECT":" ","MAREA":" ","LANE":"１６５巷","ALLEY":" ","HOUSE_NO":"３２號","E_COORD97":169149.78,"N_COORD97":2540799.3900000001,"ADDRESS":"國民路１６５巷３２號","OBJECTID":367874},"geometry":{"x":169149.78000000119,"y":2540799.3900000025}},{"attributes":{"ID":367885,"DIS_CODE":0,"TOWNNAME":"南區","LI":"大恩里","LIN":"13鄰","STREET":"國民路","SECT":" ","MAREA":" ","LANE":"１６５巷","ALLEY":" ","HOUSE_NO":"３４號","E_COORD97":169148.70999999999,"N_COORD97":2540794.8900000001,"ADDRESS":"國民路１６５巷３４號","OBJECTID":367875},"geometry":{"x":169148.70999999996,"y":2540794.8900000025}},{"attributes":{"ID":367886,"DIS_CODE":0,"TOWNNAME":"安平區","LI":"華平里","LIN":"19鄰","STREET":"永華八街","SECT":" ","MAREA":" ","LANE":"１９３巷","ALLEY":" ","HOUSE_NO":"１號","E_COORD97":165126.42999999999,"N_COORD97":2543729.77,"ADDRESS":"永華八街１９３巷１號","OBJECTID":367876},"geometry":{"x":165126.42999999877,"y":2543729.7699999996}},{"attributes":{"ID":367887,"DIS_CODE":0,"TOWNNAME":"南區","LI":"省躬里","LIN":"13鄰","STREET":"明興路","SECT":" ","MAREA":" ","LANE":"８８３巷","ALLEY":" ","HOUSE_NO":"５號","E_COORD97":166131.26000000001,"N_COORD97":2537273.8900000001,"ADDRESS":"明興路８８３巷５號","OBJECTID":367877},"geometry":{"x":166131.26000000164,"y":2537273.8900000006}},{"attributes":{"ID":367888,"DIS_CODE":0,"TOWNNAME":"南區","LI":"大恩里","LIN":"13鄰","STREET":"國民路","SECT":" ","MAREA":" ","LANE":"１６５巷","ALLEY":" ","HOUSE_NO":"３８號","E_COORD97":169145.20000000001,"N_COORD97":2540784.5,"ADDRESS":"國民路１６５巷３８號","OBJECTID":367878},"geometry":{"x":169145.20000000112,"y":2540784.5000000019}},{"attributes":{"ID":367889,"DIS_CODE":0,"TOWNNAME":"南區","LI":"大恩里","LIN":"13鄰","STREET":"國民路","SECT":" ","MAREA":" ","LANE":"１６５巷","ALLEY":" ","HOUSE_NO":"４０號","E_COORD97":169144.34,"N_COORD97":2540780.1000000001,"ADDRESS":"國民路１６５巷４０號","OBJECTID":367879},"geometry":{"x":169144.33999999985,"y":2540780.1000000015}},{"attributes":{"ID":367890,"DIS_CODE":0,"TOWNNAME":"南區","LI":"大恩里","LIN":"13鄰","STREET":"國民路","SECT":" ","MAREA":" ","LANE":"１６５巷","ALLEY":" ","HOUSE_NO":"４２號","E_COORD97":169143.59,"N_COORD97":2540775.9199999999,"ADDRESS":"國民路１６５巷４２號","OBJECTID":367880},"geometry":{"x":169143.59000000078,"y":2540775.9199999999}},{"attributes":{"ID":367891,"DIS_CODE":0,"TOWNNAME":"安平區","LI":"怡平里","LIN":"13鄰","STREET":"建平十二街","SECT":" ","MAREA":" ","LANE":"３８６巷","ALLEY":" ","HOUSE_NO":"１號","E_COORD97":165590.48000000001,"N_COORD97":2544051.1099999999,"ADDRESS":"建平十二街３８６巷１號","OBJECTID":367881},"geometry":{"x":165590.48000000138,"y":2544051.1100000013}},{"attributes":{"ID":367892,"DIS_CODE":0,"TOWNNAME":"安平區","LI":"怡平里","LIN":"13鄰","STREET":"建平十二街","SECT":" ","MAREA":" ","LANE":"３８６巷","ALLEY":" ","HOUSE_NO":"３號","E_COORD97":165592,"N_COORD97":2544056.3799999999,"ADDRESS":"建平十二街３８６巷３號","OBJECTID":367882},"geometry":{"x":165592,"y":2544056.379999999}},{"attributes":{"ID":367893,"DIS_CODE":0,"TOWNNAME":"安南區","LI":"溪心里","LIN":"12鄰","STREET":"海佃路","SECT":"二段","MAREA":" ","LANE":"６３６巷","ALLEY":" ","HOUSE_NO":"５號","E_COORD97":166644.54000000001,"N_COORD97":2549378.0800000001,"ADDRESS":"海佃路二段６３６巷５號","OBJECTID":367883},"geometry":{"x":166644.54000000004,"y":2549378.0800000019}},{"attributes":{"ID":367894,"DIS_CODE":0,"TOWNNAME":"安南區","LI":"溪心里","LIN":"12鄰","STREET":"海佃路","SECT":"二段","MAREA":" ","LANE":"６３６巷","ALLEY":" ","HOUSE_NO":"１１號","E_COORD97":166655.29000000001,"N_COORD97":2549381.75,"ADDRESS":"海佃路二段６３６巷１１號","OBJECTID":367884},"geometry":{"x":166655.2900000019,"y":2549381.75}},{"attributes":{"ID":367895,"DIS_CODE":0,"TOWNNAME":"東區","LI":"新東里","LIN":"13鄰","STREET":"裕農路","SECT":" ","MAREA":" ","LANE":" ","ALLEY":" ","HOUSE_NO":"４１號","E_COORD97":170636.03,"N_COORD97":2542898.1000000001,"ADDRESS":"裕農路４１號","OBJECTID":367885},"geometry":{"x":170636.03000000119,"y":2542898.1000000015}},{"attributes":{"ID":367896,"DIS_CODE":0,"TOWNNAME":"東區","LI":"新東里","LIN":"13鄰","STREET":"裕農路","SECT":" ","MAREA":" ","LANE":" ","ALLEY":" ","HOUSE_NO":"４１號之２","E_COORD97":170644.25,"N_COORD97":2542901.6899999999,"ADDRESS":"裕農路４１號之２","OBJECTID":367886},"geometry":{"x":170644.25000000186,"y":2542901.6900000013}},{"attributes":{"ID":367897,"DIS_CODE":0,"TOWNNAME":"東區","LI":"新東里","LIN":"13鄰","STREET":"裕農路","SECT":" ","MAREA":" ","LANE":" ","ALLEY":" ","HOUSE_NO":"４１號之５","E_COORD97":170657.57000000001,"N_COORD97":2542906.6600000001,"ADDRESS":"裕農路４１號之５","OBJECTID":367887},"geometry":{"x":170657.57000000216,"y":2542906.6600000001}},{"attributes":{"ID":367898,"DIS_CODE":0,"TOWNNAME":"永康區","LI":"\u25A0行里","LIN":"13鄰","STREET":"中正南路","SECT":" ","MAREA":" ","LANE":" ","ALLEY":" ","HOUSE_NO":"７５４號","E_COORD97":171750.63,"N_COORD97":2548970.4900000002,"ADDRESS":"中正南路７５４號","OBJECTID":367888},"geometry":{"x":171750.63000000082,"y":2548970.4900000002}},{"attributes":{"ID":367899,"DIS_CODE":0,"TOWNNAME":"永康區","LI":"\u25A0行里","LIN":"13鄰","STREET":"中正南路","SECT":" ","MAREA":" ","LANE":" ","ALLEY":" ","HOUSE_NO":"７８６號","E_COORD97":171808.73999999999,"N_COORD97":2549016.5,"ADDRESS":"中正南路７８６號","OBJECTID":367889},"geometry":{"x":171808.74000000022,"y":2549016.5000000019}},{"attributes":{"ID":367900,"DIS_CODE":0,"TOWNNAME":"永康區","LI":"\u25A0行里","LIN":"13鄰","STREET":"中正南路","SECT":" ","MAREA":" ","LANE":" ","ALLEY":" ","HOUSE_NO":"７８８號","E_COORD97":171812.85000000001,"N_COORD97":2549018.5,"ADDRESS":"中正南路７８８號","OBJECTID":367890},"geometry":{"x":171812.85000000149,"y":2549018.5000000037}},{"attributes":{"ID":367901,"DIS_CODE":0,"TOWNNAME":"永康區","LI":"復國里","LIN":"13鄰","STREET":"復國二路","SECT":" ","MAREA":" ","LANE":" ","ALLEY":" ","HOUSE_NO":"１２０號","E_COORD97":172876.45999999999,"N_COORD97":2545484.7799999998,"ADDRESS":"復國二路１２０號","OBJECTID":367891},"geometry":{"x":172876.45999999996,"y":2545484.7799999993}},{"attributes":{"ID":367902,"DIS_CODE":0,"TOWNNAME":"永康區","LI":"\u25A0行里","LIN":"13鄰","STREET":"中正南路","SECT":" ","MAREA":" ","LANE":" ","ALLEY":" ","HOUSE_NO":"７６２號","E_COORD97":171761.57000000001,"N_COORD97":2548982.9900000002,"ADDRESS":"中正南路７６２號","OBJECTID":367892},"geometry":{"x":171761.57000000123,"y":2548982.9900000002}},{"attributes":{"ID":367903,"DIS_CODE":0,"TOWNNAME":"南區","LI":"新生里","LIN":"1鄰","STREET":"大林路","SECT":" ","MAREA":" ","LANE":" ","ALLEY":" ","HOUSE_NO":"６號","E_COORD97":169347.26999999999,"N_COORD97":2541881.71,"ADDRESS":"大林路６號","OBJECTID":367893},"geometry":{"x":169347.27000000048,"y":2541881.7100000028}},{"attributes":{"ID":367904,"DIS_CODE":0,"TOWNNAME":"安南區","LI":"安慶里","LIN":"13鄰","STREET":"安和路","SECT":"二段","MAREA":" ","LANE":" ","ALLEY":" ","HOUSE_NO":"１７５號","E_COORD97":169552.28,"N_COORD97":2548904.0800000001,"ADDRESS":"安和路二段１７５號","OBJECTID":367894},"geometry":{"x":169552.28000000026,"y":2548904.0800000019}},{"attributes":{"ID":367905,"DIS_CODE":0,"TOWNNAME":"安南區","LI":"安慶里","LIN":"13鄰","STREET":"安和路","SECT":"二段","MAREA":" ","LANE":" ","ALLEY":" ","HOUSE_NO":"１７７號","E_COORD97":169545.78,"N_COORD97":2548910.8700000001,"ADDRESS":"安和路二段１７７號","OBJECTID":367895},"geometry":{"x":169545.78000000212,"y":2548910.870000001}},{"attributes":{"ID":367906,"DIS_CODE":0,"TOWNNAME":"安南區","LI":"安慶里","LIN":"13鄰","STREET":"安和路","SECT":"二段","MAREA":" ","LANE":" ","ALLEY":" ","HOUSE_NO":"１７９號","E_COORD97":169544.70000000001,"N_COORD97":2548915.3199999998,"ADDRESS":"安和路二段１７９號","OBJECTID":367896},"geometry":{"x":169544.70000000112,"y":2548915.3200000022}},{"attributes":{"ID":367907,"DIS_CODE":0,"TOWNNAME":"新營區","LI":"永生里","LIN":"13鄰","STREET":"永安街","SECT":" ","MAREA":" ","LANE":" ","ALLEY":" ","HOUSE_NO":"１號","E_COORD97":179872.92999999999,"N_COORD97":2577957.5699999998,"ADDRESS":"永安街１號","OBJECTID":367897},"geometry":{"x":179872.93000000156,"y":2577957.5700000003}},{"attributes":{"ID":367908,"DIS_CODE":0,"TOWNNAME":"安平區","LI":"怡平里","LIN":"13鄰","STREET":"建平十二街","SECT":" ","MAREA":" ","LANE":"３８６巷","ALLEY":" ","HOUSE_NO":"５號","E_COORD97":165592.97,"N_COORD97":2544061.0899999999,"ADDRESS":"建平十二街３８６巷５號","OBJECTID":367898},"geometry":{"x":165592.97000000067,"y":2544061.0900000017}},{"attributes":{"ID":367909,"DIS_CODE":0,"TOWNNAME":"安南區","LI":"溪北里","LIN":"12鄰","STREET":"文安街","SECT":" ","MAREA":" ","LANE":"４５巷","ALLEY":" ","HOUSE_NO":"７號","E_COORD97":169405.57999999999,"N_COORD97":2547474.04,"ADDRESS":"文安街４５巷７號","OBJECTID":367899},"geometry":{"x":169405.58000000007,"y":2547474.0399999991}},{"attributes":{"ID":367910,"DIS_CODE":0,"TOWNNAME":"安南區","LI":"溪北里","LIN":"12鄰","STREET":"文安街","SECT":" ","MAREA":" ","LANE":"４５巷","ALLEY":" ","HOUSE_NO":"１１號","E_COORD97":169407.78,"N_COORD97":2547464.02,"ADDRESS":"文安街４５巷１１號","OBJECTID":367900},"geometry":{"x":169407.78000000026,"y":2547464.0199999996}},{"attributes":{"ID":367911,"DIS_CODE":0,"TOWNNAME":"安南區","LI":"溪頂里","LIN":"12鄰","STREET":"惠安街","SECT":" ","MAREA":" ","LANE":"１４５巷","ALLEY":" ","HOUSE_NO":"５６號","E_COORD97":168971.35000000001,"N_COORD97":2547387.3100000001,"ADDRESS":"惠安街１４５巷５６號","OBJECTID":367901},"geometry":{"x":168971.34999999963,"y":2547387.3100000024}},{"attributes":{"ID":367912,"DIS_CODE":0,"TOWNNAME":"安南區","LI":"安西里","LIN":"12鄰","STREET":"安通路","SECT":"四段","MAREA":" ","LANE":"４７巷","ALLEY":" ","HOUSE_NO":"７號","E_COORD97":169140.13710699999,"N_COORD97":2547756.7952399999,"ADDRESS":"安通路四段４７巷７號","OBJECTID":367902},"geometry":{"x":169140.13710700069,"y":2547756.7952440027}},{"attributes":{"ID":367913,"DIS_CODE":0,"TOWNNAME":"安南區","LI":"安西里","LIN":"12鄰","STREET":"安通路","SECT":"四段","MAREA":" ","LANE":"４７巷","ALLEY":" ","HOUSE_NO":"１１號","E_COORD97":169138.22933,"N_COORD97":2547768.4369000001,"ADDRESS":"安通路四段４７巷１１號","OBJECTID":367903},"geometry":{"x":169138.22932999954,"y":2547768.4369040038}},{"attributes":{"ID":367914,"DIS_CODE":0,"TOWNNAME":"安南區","LI":"安西里","LIN":"12鄰","STREET":"安通路","SECT":"四段","MAREA":" ","LANE":"４７巷","ALLEY":" ","HOUSE_NO":"１３號","E_COORD97":169137.805379,"N_COORD97":2547772.4585699998,"ADDRESS":"安通路四段４７巷１３號","OBJECTID":367904},"geometry":{"x":169137.80537900049,"y":2547772.4585689995}},{"attributes":{"ID":367915,"DIS_CODE":0,"TOWNNAME":"安南區","LI":"安西里","LIN":"12鄰","STREET":"安通路","SECT":"四段","MAREA":" ","LANE":"４７巷","ALLEY":" ","HOUSE_NO":"１５號","E_COORD97":169137.59340400001,"N_COORD97":2547777.5385699999,"ADDRESS":"安通路四段４７巷１５號","OBJECTID":367905},"geometry":{"x":169137.59340400063,"y":2547777.5385660026}},{"attributes":{"ID":367916,"DIS_CODE":0,"TOWNNAME":"安南區","LI":"安西里","LIN":"12鄰","STREET":"安通路","SECT":"四段","MAREA":" ","LANE":"４７巷","ALLEY":" ","HOUSE_NO":"１７號","E_COORD97":169137.16945300001,"N_COORD97":2547780.7135600001,"ADDRESS":"安通路四段４７巷１７號","OBJECTID":367906},"geometry":{"x":169137.16945299972,"y":2547780.7135640029}},{"attributes":{"ID":367917,"DIS_CODE":0,"TOWNNAME":"安南區","LI":"安西里","LIN":"12鄰","STREET":"安通路","SECT":"四段","MAREA":" ","LANE":"４７巷","ALLEY":" ","HOUSE_NO":"１９號","E_COORD97":169136.74550300001,"N_COORD97":2547786.4285599999,"ADDRESS":"安通路四段４７巷１９號","OBJECTID":367907},"geometry":{"x":169136.74550299998,"y":2547786.428561002}},{"attributes":{"ID":367918,"DIS_CODE":0,"TOWNNAME":"安南區","LI":"安西里","LIN":"12鄰","STREET":"安通路","SECT":"四段","MAREA":" ","LANE":"４７巷","ALLEY":" ","HOUSE_NO":"２１號","E_COORD97":169136.74550300001,"N_COORD97":2547790.6618900001,"ADDRESS":"安通路四段４７巷２１號","OBJECTID":367908},"geometry":{"x":169136.74550299998,"y":2547790.6618919987}},{"attributes":{"ID":367919,"DIS_CODE":0,"TOWNNAME":"仁德區","LI":"成功里","LIN":"12鄰","STREET":"成功二街","SECT":" ","MAREA":" ","LANE":"６巷","ALLEY":" ","HOUSE_NO":"４號","E_COORD97":170903.89999999999,"N_COORD97":2539993.27,"ADDRESS":"成功二街６巷４號","OBJECTID":367909},"geometry":{"x":170903.90000000037,"y":2539993.2699999996}},{"attributes":{"ID":367920,"DIS_CODE":0,"TOWNNAME":"仁德區","LI":"後壁里","LIN":"12鄰","STREET":"德善路","SECT":" ","MAREA":" ","LANE":"２４０巷","ALLEY":" ","HOUSE_NO":"１８號","E_COORD97":173832.73999999999,"N_COORD97":2538628.7599999998,"ADDRESS":"德善路２４０巷１８號","OBJECTID":367910},"geometry":{"x":173832.74000000022,"y":2538628.7600000016}},{"attributes":{"ID":367921,"DIS_CODE":0,"TOWNNAME":"仁德區","LI":"成功里","LIN":"12鄰","STREET":"成功二街","SECT":" ","MAREA":" ","LANE":"６巷","ALLEY":" ","HOUSE_NO":"２號","E_COORD97":170908.14000000001,"N_COORD97":2539993.27,"ADDRESS":"成功二街６巷２號","OBJECTID":367911},"geometry":{"x":170908.1400000006,"y":2539993.2699999996}},{"attributes":{"ID":367922,"DIS_CODE":0,"TOWNNAME":"仁德區","LI":"後壁里","LIN":"12鄰","STREET":"德善路","SECT":" ","MAREA":" ","LANE":"２１２巷","ALLEY":" ","HOUSE_NO":"１９號","E_COORD97":173752.81,"N_COORD97":2538646.77,"ADDRESS":"德善路２１２巷１９號","OBJECTID":367912},"geometry":{"x":173752.81000000052,"y":2538646.7699999996}},{"attributes":{"ID":367923,"DIS_CODE":0,"TOWNNAME":"仁德區","LI":"後壁里","LIN":"12鄰","STREET":"德善路","SECT":" ","MAREA":" ","LANE":"２１２巷","ALLEY":" ","HOUSE_NO":"２２號","E_COORD97":173772.89999999999,"N_COORD97":2538603.5099999998,"ADDRESS":"德善路２１２巷２２號","OBJECTID":367913},"geometry":{"x":173772.90000000224,"y":2538603.5100000016}},{"attributes":{"ID":367924,"DIS_CODE":0,"TOWNNAME":"仁德區","LI":"成功里","LIN":"12鄰","STREET":"成功二街","SECT":" ","MAREA":" ","LANE":"６巷","ALLEY":" ","HOUSE_NO":"２０號","E_COORD97":170874.35999999999,"N_COORD97":2539994.02,"ADDRESS":"成功二街６巷２０號","OBJECTID":367914},"geometry":{"x":170874.3600000022,"y":2539994.0200000014}},{"attributes":{"ID":367925,"DIS_CODE":0,"TOWNNAME":"仁德區","LI":"後壁里","LIN":"12鄰","STREET":"德善路","SECT":" ","MAREA":" ","LANE":"２１２巷","ALLEY":" ","HOUSE_NO":"４３號","E_COORD97":173825.42999999999,"N_COORD97":2538613.5099999998,"ADDRESS":"德善路２１２巷４３號","OBJECTID":367915},"geometry":{"x":173825.4299999997,"y":2538613.5100000016}},{"attributes":{"ID":367926,"DIS_CODE":0,"TOWNNAME":"仁德區","LI":"成功里","LIN":"12鄰","STREET":"成功二街","SECT":" ","MAREA":" ","LANE":"６巷","ALLEY":" ","HOUSE_NO":"１３號","E_COORD97":170864.94,"N_COORD97":2539978.0099999998,"ADDRESS":"成功二街６巷１３號","OBJECTID":367916},"geometry":{"x":170864.94000000041,"y":2539978.0099999998}},{"attributes":{"ID":367927,"DIS_CODE":0,"TOWNNAME":"仁德區","LI":"後壁里","LIN":"12鄰","STREET":"德善路","SECT":" ","MAREA":" ","LANE":"２４０巷","ALLEY":" ","HOUSE_NO":"１０號","E_COORD97":173838.57999999999,"N_COORD97":2538640.27,"ADDRESS":"德善路２４０巷１０號","OBJECTID":367917},"geometry":{"x":173838.58000000007,"y":2538640.2699999996}},{"attributes":{"ID":367928,"DIS_CODE":0,"TOWNNAME":"仁德區","LI":"後壁里","LIN":"12鄰","STREET":"德善路","SECT":" ","MAREA":" ","LANE":"２４０巷","ALLEY":" ","HOUSE_NO":"８號","E_COORD97":173839.48000000001,"N_COORD97":2538643.52,"ADDRESS":"德善路２４０巷８號","OBJECTID":367918},"geometry":{"x":173839.48000000045,"y":2538643.5200000014}},{"attributes":{"ID":367929,"DIS_CODE":0,"TOWNNAME":"永康區","LI":"復國里","LIN":"12鄰","STREET":"復國二路","SECT":" ","MAREA":" ","LANE":"１１４巷","ALLEY":" ","HOUSE_NO":"１３號","E_COORD97":172909.09,"N_COORD97":2545444.8399999999,"ADDRESS":"復國二路１１４巷１３號","OBJECTID":367919},"geometry":{"x":172909.08999999985,"y":2545444.8399999999}},{"attributes":{"ID":367930,"DIS_CODE":0,"TOWNNAME":"永康區","LI":"西勢里","LIN":"12鄰","STREET":"廣興街","SECT":" ","MAREA":" ","LANE":"１７０巷","ALLEY":" ","HOUSE_NO":"１６８號","E_COORD97":176405.81,"N_COORD97":2546401.4399999999,"ADDRESS":"廣興街１７０巷１６８號","OBJECTID":367920},"geometry":{"x":176405.81000000052,"y":2546401.4400000013}},{"attributes":{"ID":367931,"DIS_CODE":0,"TOWNNAME":"永康區","LI":"六合里","LIN":"12鄰","STREET":"六合路","SECT":" ","MAREA":" ","LANE":"５４巷","ALLEY":" ","HOUSE_NO":"１１號","E_COORD97":171200.89000000001,"N_COORD97":2545637.4900000002,"ADDRESS":"六合路５４巷１１號","OBJECTID":367921},"geometry":{"x":171200.8900000006,"y":2545637.4900000002}},{"attributes":{"ID":367932,"DIS_CODE":0,"TOWNNAME":"永康區","LI":"六合里","LIN":"12鄰","STREET":"六合路","SECT":" ","MAREA":" ","LANE":"５４巷","ALLEY":" ","HOUSE_NO":"１３號","E_COORD97":171204.79000000001,"N_COORD97":2545636.9900000002,"ADDRESS":"六合路５４巷１３號","OBJECTID":367922},"geometry":{"x":171204.79000000004,"y":2545636.9900000002}},{"attributes":{"ID":367933,"DIS_CODE":0,"TOWNNAME":"永康區","LI":"六合里","LIN":"12鄰","STREET":"六合路","SECT":" ","MAREA":" ","LANE":"５４巷","ALLEY":" ","HOUSE_NO":"１５號","E_COORD97":171227.87,"N_COORD97":2545631.4900000002,"ADDRESS":"六合路５４巷１５號","OBJECTID":367923},"geometry":{"x":171227.87000000011,"y":2545631.4900000039}},{"attributes":{"ID":367934,"DIS_CODE":0,"TOWNNAME":"永康區","LI":"六合里","LIN":"12鄰","STREET":"六合路","SECT":" ","MAREA":" ","LANE":"５４巷","ALLEY":" ","HOUSE_NO":"１７號","E_COORD97":171231.64999999999,"N_COORD97":2545630.4900000002,"ADDRESS":"六合路５４巷１７號","OBJECTID":367924},"geometry":{"x":171231.65000000037,"y":2545630.4900000002}},{"attributes":{"ID":367935,"DIS_CODE":0,"TOWNNAME":"永康區","LI":"六合里","LIN":"12鄰","STREET":"六合路","SECT":" ","MAREA":" ","LANE":"５４巷","ALLEY":" ","HOUSE_NO":"１９號","E_COORD97":171235.79000000001,"N_COORD97":2545629.2400000002,"ADDRESS":"六合路５４巷１９號","OBJECTID":367925},"geometry":{"x":171235.79000000097,"y":2545629.2400000002}},{"attributes":{"ID":367936,"DIS_CODE":0,"TOWNNAME":"永康區","LI":"六合里","LIN":"12鄰","STREET":"六合路","SECT":" ","MAREA":" ","LANE":"５４巷","ALLEY":" ","HOUSE_NO":"２１號","E_COORD97":171239.94,"N_COORD97":2545628.4900000002,"ADDRESS":"六合路５４巷２１號","OBJECTID":367926},"geometry":{"x":171239.93999999948,"y":2545628.4900000021}},{"attributes":{"ID":367937,"DIS_CODE":0,"TOWNNAME":"永康區","LI":"六合里","LIN":"12鄰","STREET":"六合路","SECT":" ","MAREA":" ","LANE":"５４巷","ALLEY":" ","HOUSE_NO":"２３號","E_COORD97":171249.01999999999,"N_COORD97":2545626.25,"ADDRESS":"六合路５４巷２３號","OBJECTID":367927},"geometry":{"x":171249.02000000048,"y":2545626.2500000037}},{"attributes":{"ID":367938,"DIS_CODE":0,"TOWNNAME":"永康區","LI":"六合里","LIN":"12鄰","STREET":"六合路","SECT":" ","MAREA":" ","LANE":"５４巷","ALLEY":" ","HOUSE_NO":"２５號","E_COORD97":171253.35000000001,"N_COORD97":2545625.5,"ADDRESS":"六合路５４巷２５號","OBJECTID":367928},"geometry":{"x":171253.35000000149,"y":2545625.5000000019}},{"attributes":{"ID":367939,"DIS_CODE":0,"TOWNNAME":"安南區","LI":"安慶里","LIN":"13鄰","STREET":"安和路","SECT":"二段","MAREA":" ","LANE":" ","ALLEY":" ","HOUSE_NO":"１８１號","E_COORD97":169548.56,"N_COORD97":2548918.79,"ADDRESS":"安和路二段１８１號","OBJECTID":367929},"geometry":{"x":169548.56000000052,"y":2548918.7899999991}},{"attributes":{"ID":367940,"DIS_CODE":0,"TOWNNAME":"永康區","LI":"六合里","LIN":"12鄰","STREET":"六合路","SECT":" ","MAREA":" ","LANE":"５４巷","ALLEY":" ","HOUSE_NO":"２７號","E_COORD97":171257.69,"N_COORD97":2545624.75,"ADDRESS":"六合路５４巷２７號","OBJECTID":367930},"geometry":{"x":171257.69000000134,"y":2545624.75}},{"attributes":{"ID":367941,"DIS_CODE":0,"TOWNNAME":"永康區","LI":"六合里","LIN":"12鄰","STREET":"六合路","SECT":" ","MAREA":" ","LANE":"５８巷","ALLEY":" ","HOUSE_NO":"１１號","E_COORD97":171216.53,"N_COORD97":2545659.2400000002,"ADDRESS":"六合路５８巷１１號","OBJECTID":367931},"geometry":{"x":171216.53000000026,"y":2545659.2400000002}},{"attributes":{"ID":367942,"DIS_CODE":0,"TOWNNAME":"永康區","LI":"六合里","LIN":"12鄰","STREET":"六合路","SECT":" ","MAREA":" ","LANE":"５８巷","ALLEY":" ","HOUSE_NO":"１３號","E_COORD97":171222.59,"N_COORD97":2545658.9900000002,"ADDRESS":"六合路５８巷１３號","OBJECTID":367932},"geometry":{"x":171222.58999999985,"y":2545658.9900000021}},{"attributes":{"ID":367943,"DIS_CODE":0,"TOWNNAME":"永康區","LI":"六合里","LIN":"12鄰","STREET":"六合路","SECT":" ","MAREA":" ","LANE":"５８巷","ALLEY":" ","HOUSE_NO":"１５號","E_COORD97":171228.45999999999,"N_COORD97":2545659.2400000002,"ADDRESS":"六合路５８巷１５號","OBJECTID":367933},"geometry":{"x":171228.45999999996,"y":2545659.2400000002}},{"attributes":{"ID":367944,"DIS_CODE":0,"TOWNNAME":"永康區","LI":"六合里","LIN":"12鄰","STREET":"六合路","SECT":" ","MAREA":" ","LANE":"５８巷","ALLEY":" ","HOUSE_NO":"１７號","E_COORD97":171233.29000000001,"N_COORD97":2545658.9900000002,"ADDRESS":"六合路５８巷１７號","OBJECTID":367934},"geometry":{"x":171233.29000000004,"y":2545658.9900000021}},{"attributes":{"ID":367945,"DIS_CODE":0,"TOWNNAME":"永康區","LI":"六合里","LIN":"12鄰","STREET":"六合路","SECT":" ","MAREA":" ","LANE":"５８巷","ALLEY":" ","HOUSE_NO":"１９號","E_COORD97":171238.32999999999,"N_COORD97":2545658.7400000002,"ADDRESS":"六合路５８巷１９號","OBJECTID":367935},"geometry":{"x":171238.33000000007,"y":2545658.7400000002}},{"attributes":{"ID":367946,"DIS_CODE":0,"TOWNNAME":"永康區","LI":"六合里","LIN":"12鄰","STREET":"六合路","SECT":" ","MAREA":" ","LANE":"５８巷","ALLEY":" ","HOUSE_NO":"１號","E_COORD97":171185.63,"N_COORD97":2545661.7400000002,"ADDRESS":"六合路５８巷１號","OBJECTID":367936},"geometry":{"x":171185.63000000175,"y":2545661.7400000021}},{"attributes":{"ID":367947,"DIS_CODE":0,"TOWNNAME":"永康區","LI":"六合里","LIN":"12鄰","STREET":"六合路","SECT":" ","MAREA":" ","LANE":"５８巷","ALLEY":" ","HOUSE_NO":"２１號","E_COORD97":171243.5,"N_COORD97":2545658.4900000002,"ADDRESS":"六合路５８巷２１號","OBJECTID":367937},"geometry":{"x":171243.5,"y":2545658.4899999984}},{"attributes":{"ID":367948,"DIS_CODE":0,"TOWNNAME":"永康區","LI":"六合里","LIN":"12鄰","STREET":"六合路","SECT":" ","MAREA":" ","LANE":"５８巷","ALLEY":" ","HOUSE_NO":"２３號","E_COORD97":171248.82999999999,"N_COORD97":2545657.9900000002,"ADDRESS":"六合路５８巷２３號","OBJECTID":367938},"geometry":{"x":171248.82999999914,"y":2545657.9900000002}},{"attributes":{"ID":367949,"DIS_CODE":0,"TOWNNAME":"永康區","LI":"六合里","LIN":"12鄰","STREET":"六合路","SECT":" ","MAREA":" ","LANE":"５８巷","ALLEY":" ","HOUSE_NO":"２５號","E_COORD97":171254.57999999999,"N_COORD97":2545657.4900000002,"ADDRESS":"六合路５８巷２５號","OBJECTID":367939},"geometry":{"x":171254.58000000101,"y":2545657.4900000002}},{"attributes":{"ID":367950,"DIS_CODE":0,"TOWNNAME":"永康區","LI":"六合里","LIN":"12鄰","STREET":"六合路","SECT":" ","MAREA":" ","LANE":"５８巷","ALLEY":" ","HOUSE_NO":"４號","E_COORD97":171242.07000000001,"N_COORD97":2545646.4900000002,"ADDRESS":"六合路５８巷４號","OBJECTID":367940},"geometry":{"x":171242.0700000003,"y":2545646.4900000021}},{"attributes":{"ID":367951,"DIS_CODE":0,"TOWNNAME":"永康區","LI":"六合里","LIN":"12鄰","STREET":"六合路","SECT":" ","MAREA":" ","LANE":"５８巷","ALLEY":" ","HOUSE_NO":"５號","E_COORD97":171197.63,"N_COORD97":2545660.4900000002,"ADDRESS":"六合路５８巷５號","OBJECTID":367941},"geometry":{"x":171197.63000000175,"y":2545660.4900000002}},{"attributes":{"ID":367952,"DIS_CODE":0,"TOWNNAME":"永康區","LI":"六合里","LIN":"12鄰","STREET":"六合路","SECT":" ","MAREA":" ","LANE":"５８巷","ALLEY":" ","HOUSE_NO":"６號","E_COORD97":171253.95000000001,"N_COORD97":2545644.8999999999,"ADDRESS":"六合路５８巷６號","OBJECTID":367942},"geometry":{"x":171253.95000000112,"y":2545644.9000000004}},{"attributes":{"ID":367953,"DIS_CODE":0,"TOWNNAME":"永康區","LI":"六合里","LIN":"12鄰","STREET":"六合路","SECT":" ","MAREA":" ","LANE":"５８巷","ALLEY":" ","HOUSE_NO":"７號","E_COORD97":171203.67999999999,"N_COORD97":2545660.2400000002,"ADDRESS":"六合路５８巷７號","OBJECTID":367943},"geometry":{"x":171203.67999999877,"y":2545660.2399999984}},{"attributes":{"ID":367954,"DIS_CODE":0,"TOWNNAME":"永康區","LI":"六合里","LIN":"12鄰","STREET":"六合路","SECT":" ","MAREA":" ","LANE":"５８巷","ALLEY":" ","HOUSE_NO":"９號","E_COORD97":171209.23000000001,"N_COORD97":2545659.7400000002,"ADDRESS":"六合路５８巷９號","OBJECTID":367944},"geometry":{"x":171209.22999999952,"y":2545659.7400000002}},{"attributes":{"ID":367955,"DIS_CODE":0,"TOWNNAME":"仁德區","LI":"後壁里","LIN":"12鄰","STREET":"德善路","SECT":" ","MAREA":" ","LANE":"２１２巷","ALLEY":" ","HOUSE_NO":"３７號","E_COORD97":173810.98000000001,"N_COORD97":2538618.0099999998,"ADDRESS":"德善路２１２巷３７號","OBJECTID":367945},"geometry":{"x":173810.98000000045,"y":2538618.0099999998}},{"attributes":{"ID":367956,"DIS_CODE":0,"TOWNNAME":"仁德區","LI":"成功里","LIN":"12鄰","STREET":"成功二街","SECT":" ","MAREA":" ","LANE":"２９巷","ALLEY":" ","HOUSE_NO":"１３號","E_COORD97":170960.31,"N_COORD97":2539895.02,"ADDRESS":"成功二街２９巷１３號","OBJECTID":367946},"geometry":{"x":170960.31000000145,"y":2539895.0200000014}},{"attributes":{"ID":367957,"DIS_CODE":0,"TOWNNAME":"仁德區","LI":"上崙里","LIN":"12鄰","STREET":"德崙路","SECT":" ","MAREA":" ","LANE":"９２５巷","ALLEY":" ","HOUSE_NO":"７６號","E_COORD97":174192.51999999999,"N_COORD97":2537063.4900000002,"ADDRESS":"德崙路９２５巷７６號","OBJECTID":367947},"geometry":{"x":174192.51999999955,"y":2537063.4900000002}},{"attributes":{"ID":367958,"DIS_CODE":0,"TOWNNAME":"南區","LI":"省躬里","LIN":"13鄰","STREET":"萬年路","SECT":" ","MAREA":" ","LANE":"８１巷","ALLEY":" ","HOUSE_NO":"２２號","E_COORD97":166311.01999999999,"N_COORD97":2537282.25,"ADDRESS":"萬年路８１巷２２號","OBJECTID":367948},"geometry":{"x":166311.02000000048,"y":2537282.2499999981}},{"attributes":{"ID":367959,"DIS_CODE":0,"TOWNNAME":"南區","LI":"省躬里","LIN":"13鄰","STREET":"萬年路","SECT":" ","MAREA":" ","LANE":"８１巷","ALLEY":" ","HOUSE_NO":"２０號","E_COORD97":166312.59,"N_COORD97":2537278.1699999999,"ADDRESS":"萬年路８１巷２０號","OBJECTID":367949},"geometry":{"x":166312.59000000078,"y":2537278.1699999999}},{"attributes":{"ID":367960,"DIS_CODE":0,"TOWNNAME":"南區","LI":"省躬里","LIN":"13鄰","STREET":"萬年路","SECT":" ","MAREA":" ","LANE":"８１巷","ALLEY":" ","HOUSE_NO":"１８號","E_COORD97":166316.04999999999,"N_COORD97":2537270.6400000001,"ADDRESS":"萬年路８１巷１８號","OBJECTID":367950},"geometry":{"x":166316.05000000075,"y":2537270.6400000025}},{"attributes":{"ID":367961,"DIS_CODE":0,"TOWNNAME":"北區","LI":"中樓里","LIN":"12鄰","STREET":"開元路","SECT":" ","MAREA":" ","LANE":"６８巷","ALLEY":" ","HOUSE_NO":"２號","E_COORD97":169743.78,"N_COORD97":2545140.7000000002,"ADDRESS":"開元路６８巷２號","OBJECTID":367951},"geometry":{"x":169743.78000000026,"y":2545140.6999999974}},{"attributes":{"ID":367962,"DIS_CODE":0,"TOWNNAME":"北區","LI":"賢北里","LIN":"12鄰","STREET":"賢北街","SECT":" ","MAREA":" ","LANE":"２３巷","ALLEY":" ","HOUSE_NO":"１０２號","E_COORD97":166106.66,"N_COORD97":2545293.7999999998,"ADDRESS":"賢北街２３巷１０２號","OBJECTID":367952},"geometry":{"x":166106.66000000015,"y":2545293.8000000007}},{"attributes":{"ID":367963,"DIS_CODE":0,"TOWNNAME":"北區","LI":"賢北里","LIN":"12鄰","STREET":"賢北街","SECT":" ","MAREA":" ","LANE":"２３巷","ALLEY":" ","HOUSE_NO":"１０４號","E_COORD97":166110.67000000001,"N_COORD97":2545290.3700000001,"ADDRESS":"賢北街２３巷１０４號","OBJECTID":367953},"geometry":{"x":166110.67000000086,"y":2545290.370000001}},{"attributes":{"ID":367964,"DIS_CODE":0,"TOWNNAME":"北區","LI":"賢北里","LIN":"12鄰","STREET":"賢北街","SECT":" ","MAREA":" ","LANE":"２３巷","ALLEY":" ","HOUSE_NO":"１０６號","E_COORD97":166112.95000000001,"N_COORD97":2545286.0899999999,"ADDRESS":"賢北街２３巷１０６號","OBJECTID":367954},"geometry":{"x":166112.95000000019,"y":2545286.0900000017}},{"attributes":{"ID":367965,"DIS_CODE":0,"TOWNNAME":"北區","LI":"賢北里","LIN":"12鄰","STREET":"賢北街","SECT":" ","MAREA":" ","LANE":"２３巷","ALLEY":" ","HOUSE_NO":"１０８號","E_COORD97":166114.38,"N_COORD97":2545282.3700000001,"ADDRESS":"賢北街２３巷１０８號","OBJECTID":367955},"geometry":{"x":166114.38000000082,"y":2545282.370000001}},{"attributes":{"ID":367966,"DIS_CODE":0,"TOWNNAME":"北區","LI":"賢北里","LIN":"12鄰","STREET":"賢北街","SECT":" ","MAREA":" ","LANE":"２３巷","ALLEY":" ","HOUSE_NO":"１１０號","E_COORD97":166116.67000000001,"N_COORD97":2545275.7999999998,"ADDRESS":"賢北街２３巷１１０號","OBJECTID":367956},"geometry":{"x":166116.66999999993,"y":2545275.8000000007}},{"attributes":{"ID":367967,"DIS_CODE":0,"TOWNNAME":"北區","LI":"賢北里","LIN":"12鄰","STREET":"賢北街","SECT":" ","MAREA":" ","LANE":"２３巷","ALLEY":" ","HOUSE_NO":"１１２號","E_COORD97":166110.09,"N_COORD97":2545272.9399999999,"ADDRESS":"賢北街２３巷１１２號","OBJECTID":367957},"geometry":{"x":166110.08999999985,"y":2545272.9400000013}},{"attributes":{"ID":367968,"DIS_CODE":0,"TOWNNAME":"北區","LI":"賢北里","LIN":"12鄰","STREET":"賢北街","SECT":" ","MAREA":" ","LANE":"２３巷","ALLEY":" ","HOUSE_NO":"１１４號","E_COORD97":166104.66,"N_COORD97":2545270.9500000002,"ADDRESS":"賢北街２３巷１１４號","OBJECTID":367958},"geometry":{"x":166104.66000000015,"y":2545270.9499999993}},{"attributes":{"ID":367969,"DIS_CODE":0,"TOWNNAME":"北區","LI":"賢北里","LIN":"12鄰","STREET":"賢北街","SECT":" ","MAREA":" ","LANE":"２３巷","ALLEY":" ","HOUSE_NO":"４６號","E_COORD97":166185.35999999999,"N_COORD97":2545315.0099999998,"ADDRESS":"賢北街２３巷４６號","OBJECTID":367959},"geometry":{"x":166185.3599999994,"y":2545315.0099999998}},{"attributes":{"ID":367970,"DIS_CODE":0,"TOWNNAME":"北區","LI":"賢北里","LIN":"12鄰","STREET":"賢北街","SECT":" ","MAREA":" ","LANE":"２３巷","ALLEY":" ","HOUSE_NO":"４８號","E_COORD97":166180.29999999999,"N_COORD97":2545313.54,"ADDRESS":"賢北街２３巷４８號","OBJECTID":367960},"geometry":{"x":166180.30000000168,"y":2545313.5399999991}},{"attributes":{"ID":367971,"DIS_CODE":0,"TOWNNAME":"北區","LI":"賢北里","LIN":"12鄰","STREET":"賢北街","SECT":" ","MAREA":" ","LANE":"２３巷","ALLEY":" ","HOUSE_NO":"５０號","E_COORD97":166175.89999999999,"N_COORD97":2545311.2599999998,"ADDRESS":"賢北街２３巷５０號","OBJECTID":367961},"geometry":{"x":166175.9000000013,"y":2545311.2600000016}},{"attributes":{"ID":367972,"DIS_CODE":0,"TOWNNAME":"北區","LI":"賢北里","LIN":"12鄰","STREET":"賢北街","SECT":" ","MAREA":" ","LANE":"２３巷","ALLEY":" ","HOUSE_NO":"５２號","E_COORD97":166170.03,"N_COORD97":2545309.6299999999,"ADDRESS":"賢北街２３巷５２號","OBJECTID":367962},"geometry":{"x":166170.03000000026,"y":2545309.629999999}},{"attributes":{"ID":367973,"DIS_CODE":0,"TOWNNAME":"北區","LI":"賢北里","LIN":"12鄰","STREET":"賢北街","SECT":" ","MAREA":" ","LANE":"２３巷","ALLEY":" ","HOUSE_NO":"５６號","E_COORD97":166146.42000000001,"N_COORD97":2545300.6600000001,"ADDRESS":"賢北街２３巷５６號","OBJECTID":367963},"geometry":{"x":166146.42000000086,"y":2545300.6600000001}},{"attributes":{"ID":367974,"DIS_CODE":0,"TOWNNAME":"北區","LI":"賢北里","LIN":"12鄰","STREET":"賢北街","SECT":" ","MAREA":" ","LANE":"２３巷","ALLEY":" ","HOUSE_NO":"５８號","E_COORD97":166143.56,"N_COORD97":2545304.9399999999,"ADDRESS":"賢北街２３巷５８號","OBJECTID":367964},"geometry":{"x":166143.55999999959,"y":2545304.9399999995}},{"attributes":{"ID":367975,"DIS_CODE":0,"TOWNNAME":"北區","LI":"賢北里","LIN":"12鄰","STREET":"賢北街","SECT":" ","MAREA":" ","LANE":"２３巷","ALLEY":" ","HOUSE_NO":"６０號","E_COORD97":166142.98999999999,"N_COORD97":2545309.5099999998,"ADDRESS":"賢北街２３巷６０號","OBJECTID":367965},"geometry":{"x":166142.99000000022,"y":2545309.5100000016}},{"attributes":{"ID":367976,"DIS_CODE":0,"TOWNNAME":"安南區","LI":"安慶里","LIN":"13鄰","STREET":"安和路","SECT":"二段","MAREA":" ","LANE":" ","ALLEY":" ","HOUSE_NO":"１８３號","E_COORD97":169551.56,"N_COORD97":2548922.23,"ADDRESS":"安和路二段１８３號","OBJECTID":367966},"geometry":{"x":169551.55999999866,"y":2548922.2300000042}},{"attributes":{"ID":367977,"DIS_CODE":0,"TOWNNAME":"安南區","LI":"安慶里","LIN":"13鄰","STREET":"安和路","SECT":"二段","MAREA":" ","LANE":" ","ALLEY":" ","HOUSE_NO":"１８５號","E_COORD97":169553.82999999999,"N_COORD97":2548932.1499999999,"ADDRESS":"安和路二段１８５號","OBJECTID":367967},"geometry":{"x":169553.83000000194,"y":2548932.1500000004}},{"attributes":{"ID":367978,"DIS_CODE":0,"TOWNNAME":"安南區","LI":"安慶里","LIN":"13鄰","STREET":"怡安路","SECT":"一段","MAREA":" ","LANE":" ","ALLEY":" ","HOUSE_NO":"１號","E_COORD97":169536.42999999999,"N_COORD97":2548929.0299999998,"ADDRESS":"怡安路一段１號","OBJECTID":367968},"geometry":{"x":169536.43000000063,"y":2548929.0299999975}},{"attributes":{"ID":367979,"DIS_CODE":0,"TOWNNAME":"南區","LI":"喜南里","LIN":"13鄰","STREET":"喜樹路","SECT":" ","MAREA":" ","LANE":"１７１巷","ALLEY":" ","HOUSE_NO":"１１號","E_COORD97":165778.41,"N_COORD97":2537981.4399999999,"ADDRESS":"喜樹路１７１巷１１號","OBJECTID":367969},"geometry":{"x":165778.41000000108,"y":2537981.4399999995}},{"attributes":{"ID":367980,"DIS_CODE":0,"TOWNNAME":"南區","LI":"喜南里","LIN":"13鄰","STREET":"喜樹路","SECT":" ","MAREA":" ","LANE":"１７１巷","ALLEY":" ","HOUSE_NO":"１號","E_COORD97":165735,"N_COORD97":2537960.7599999998,"ADDRESS":"喜樹路１７１巷１號","OBJECTID":367970},"geometry":{"x":165735.00000000186,"y":2537960.7600000016}},{"attributes":{"ID":367981,"DIS_CODE":0,"TOWNNAME":"南區","LI":"喜南里","LIN":"13鄰","STREET":"喜樹路","SECT":" ","MAREA":" ","LANE":"１７１巷","ALLEY":" ","HOUSE_NO":"３號","E_COORD97":165754.69,"N_COORD97":2537972.8100000001,"ADDRESS":"喜樹路１７１巷３號","OBJECTID":367971},"geometry":{"x":165754.69000000134,"y":2537972.8100000005}},{"attributes":{"ID":367982,"DIS_CODE":0,"TOWNNAME":"南區","LI":"喜南里","LIN":"13鄰","STREET":"喜樹路","SECT":" ","MAREA":" ","LANE":"１７１巷","ALLEY":" ","HOUSE_NO":"５號","E_COORD97":165757.70999999999,"N_COORD97":2537979.8399999999,"ADDRESS":"喜樹路１７１巷５號","OBJECTID":367972},"geometry":{"x":165757.71000000089,"y":2537979.8399999999}},{"attributes":{"ID":367983,"DIS_CODE":0,"TOWNNAME":"南區","LI":"喜南里","LIN":"13鄰","STREET":"喜樹路","SECT":" ","MAREA":" ","LANE":"１７１巷","ALLEY":" ","HOUSE_NO":"７號","E_COORD97":165770.76999999999,"N_COORD97":2537978.8300000001,"ADDRESS":"喜樹路１７１巷７號","OBJECTID":367973},"geometry":{"x":165770.77000000048,"y":2537978.8300000001}},{"attributes":{"ID":367984,"DIS_CODE":0,"TOWNNAME":"南區","LI":"喜南里","LIN":"13鄰","STREET":"喜樹路","SECT":" ","MAREA":" ","LANE":"１７１巷","ALLEY":" ","HOUSE_NO":"９號","E_COORD97":165774.19,"N_COORD97":2537980.4399999999,"ADDRESS":"喜樹路１７１巷９號","OBJECTID":367974},"geometry":{"x":165774.19000000041,"y":2537980.4400000013}},{"attributes":{"ID":367985,"DIS_CODE":0,"TOWNNAME":"南區","LI":"喜南里","LIN":"13鄰","STREET":"喜樹路","SECT":" ","MAREA":" ","LANE":"２２２巷","ALLEY":" ","HOUSE_NO":"１３號","E_COORD97":165680.41,"N_COORD97":2538000.6800000002,"ADDRESS":"喜樹路２２２巷１３號","OBJECTID":367975},"geometry":{"x":165680.41000000108,"y":2538000.6799999997}},{"attributes":{"ID":367986,"DIS_CODE":0,"TOWNNAME":"南區","LI":"喜南里","LIN":"13鄰","STREET":"喜樹路","SECT":" ","MAREA":" ","LANE":"２２２巷","ALLEY":" ","HOUSE_NO":"１５號","E_COORD97":165666.76000000001,"N_COORD97":2538002.1600000001,"ADDRESS":"喜樹路２２２巷１５號","OBJECTID":367976},"geometry":{"x":165666.76000000164,"y":2538002.1600000039}},{"attributes":{"ID":367987,"DIS_CODE":0,"TOWNNAME":"南區","LI":"喜南里","LIN":"13鄰","STREET":"喜樹路","SECT":" ","MAREA":" ","LANE":"２２２巷","ALLEY":" ","HOUSE_NO":"１號","E_COORD97":165720.76000000001,"N_COORD97":2537994.75,"ADDRESS":"喜樹路２２２巷１號","OBJECTID":367977},"geometry":{"x":165720.75999999978,"y":2537994.7500000019}},{"attributes":{"ID":367988,"DIS_CODE":0,"TOWNNAME":"北區","LI":"賢北里","LIN":"12鄰","STREET":"賢北街","SECT":" ","MAREA":" ","LANE":"２３巷","ALLEY":" ","HOUSE_NO":"６２號","E_COORD97":166153,"N_COORD97":2545314.3700000001,"ADDRESS":"賢北街２３巷６２號","OBJECTID":367978},"geometry":{"x":166153,"y":2545314.3699999992}},{"attributes":{"ID":367989,"DIS_CODE":0,"TOWNNAME":"北區","LI":"賢北里","LIN":"12鄰","STREET":"賢北街","SECT":" ","MAREA":" ","LANE":"２３巷","ALLEY":" ","HOUSE_NO":"６４號","E_COORD97":166156.72,"N_COORD97":2545310.6600000001,"ADDRESS":"賢北街２３巷６４號","OBJECTID":367979},"geometry":{"x":166156.71999999974,"y":2545310.6600000001}},{"attributes":{"ID":367990,"DIS_CODE":0,"TOWNNAME":"北區","LI":"賢北里","LIN":"12鄰","STREET":"賢北街","SECT":" ","MAREA":" ","LANE":"２３巷","ALLEY":" ","HOUSE_NO":"６６號","E_COORD97":166158.44,"N_COORD97":2545306.0800000001,"ADDRESS":"賢北街２３巷６６號","OBJECTID":367980},"geometry":{"x":166158.44000000134,"y":2545306.0800000019}},{"attributes":{"ID":367991,"DIS_CODE":0,"TOWNNAME":"北區","LI":"賢北里","LIN":"12鄰","STREET":"賢北街","SECT":" ","MAREA":" ","LANE":"２３巷","ALLEY":" ","HOUSE_NO":"６８號","E_COORD97":166162.44,"N_COORD97":2545301.7999999998,"ADDRESS":"賢北街２３巷６８號","OBJECTID":367981},"geometry":{"x":166162.44000000041,"y":2545301.8000000026}},{"attributes":{"ID":367992,"DIS_CODE":0,"TOWNNAME":"北區","LI":"賢北里","LIN":"12鄰","STREET":"賢北街","SECT":" ","MAREA":" ","LANE":"２３巷","ALLEY":" ","HOUSE_NO":"７０號","E_COORD97":166164.73000000001,"N_COORD97":2545296.3700000001,"ADDRESS":"賢北街２３巷７０號","OBJECTID":367982},"geometry":{"x":166164.73000000138,"y":2545296.370000001}},{"attributes":{"ID":367993,"DIS_CODE":0,"TOWNNAME":"北區","LI":"賢北里","LIN":"12鄰","STREET":"賢北街","SECT":" ","MAREA":" ","LANE":"２３巷","ALLEY":" ","HOUSE_NO":"７２號","E_COORD97":166156.44,"N_COORD97":2545292.9399999999,"ADDRESS":"賢北街２３巷７２號","OBJECTID":367983},"geometry":{"x":166156.44000000134,"y":2545292.9400000013}},{"attributes":{"ID":367994,"DIS_CODE":0,"TOWNNAME":"北區","LI":"賢北里","LIN":"12鄰","STREET":"賢北街","SECT":" ","MAREA":" ","LANE":"２３巷","ALLEY":" ","HOUSE_NO":"７４號","E_COORD97":166150.42999999999,"N_COORD97":2545290.6600000001,"ADDRESS":"賢北街２３巷７４號","OBJECTID":367984},"geometry":{"x":166150.43000000156,"y":2545290.6600000001}},{"attributes":{"ID":367995,"DIS_CODE":0,"TOWNNAME":"北區","LI":"賢北里","LIN":"12鄰","STREET":"賢北街","SECT":" ","MAREA":" ","LANE":"２３巷","ALLEY":" ","HOUSE_NO":"７６號","E_COORD97":166136.41,"N_COORD97":2545296.9399999999,"ADDRESS":"賢北街２３巷７６號","OBJECTID":367985},"geometry":{"x":166136.41000000108,"y":2545296.9400000013}},{"attributes":{"ID":367996,"DIS_CODE":0,"TOWNNAME":"北區","LI":"賢北里","LIN":"12鄰","STREET":"賢北街","SECT":" ","MAREA":" ","LANE":"２３巷","ALLEY":" ","HOUSE_NO":"７８號","E_COORD97":166133.54999999999,"N_COORD97":2545301.5099999998,"ADDRESS":"賢北街２３巷７８號","OBJECTID":367986},"geometry":{"x":166133.55000000075,"y":2545301.5099999998}},{"attributes":{"ID":367997,"DIS_CODE":0,"TOWNNAME":"北區","LI":"賢北里","LIN":"12鄰","STREET":"賢北街","SECT":" ","MAREA":" ","LANE":"２３巷","ALLEY":" ","HOUSE_NO":"８０號","E_COORD97":166130.98000000001,"N_COORD97":2545305.23,"ADDRESS":"賢北街２３巷８０號","OBJECTID":367987},"geometry":{"x":166130.98000000138,"y":2545305.2300000023}},{"attributes":{"ID":367998,"DIS_CODE":0,"TOWNNAME":"北區","LI":"賢北里","LIN":"12鄰","STREET":"賢北街","SECT":" ","MAREA":" ","LANE":"２３巷","ALLEY":" ","HOUSE_NO":"８２號","E_COORD97":166121.25,"N_COORD97":2545300.3700000001,"ADDRESS":"賢北街２３巷８２號","OBJECTID":367988},"geometry":{"x":166121.25,"y":2545300.370000001}},{"attributes":{"ID":367999,"DIS_CODE":0,"TOWNNAME":"安南區","LI":"安慶里","LIN":"13鄰","STREET":"怡安路","SECT":"一段","MAREA":" ","LANE":" ","ALLEY":" ","HOUSE_NO":"３號","E_COORD97":169532.45999999999,"N_COORD97":2548932.7799999998,"ADDRESS":"怡安路一段３號","OBJECTID":367989},"geometry":{"x":169532.46000000183,"y":2548932.7799999993}},{"attributes":{"ID":368000,"DIS_CODE":0,"TOWNNAME":"安南區","LI":"安慶里","LIN":"13鄰","STREET":"怡安路","SECT":"一段","MAREA":" ","LANE":" ","ALLEY":" ","HOUSE_NO":"５號","E_COORD97":169528.29000000001,"N_COORD97":2548934.0600000001,"ADDRESS":"怡安路一段５號","OBJECTID":367990},"geometry":{"x":169528.29000000004,"y":2548934.0600000024}},{"attributes":{"ID":368001,"DIS_CODE":0,"TOWNNAME":"安南區","LI":"安慶里","LIN":"13鄰","STREET":"怡安路","SECT":"一段","MAREA":" ","LANE":" ","ALLEY":" ","HOUSE_NO":"７號","E_COORD97":169524.12,"N_COORD97":2548935.3399999999,"ADDRESS":"怡安路一段７號","OBJECTID":367991},"geometry":{"x":169524.12000000011,"y":2548935.3400000017}},{"attributes":{"ID":368002,"DIS_CODE":0,"TOWNNAME":"東區","LI":"大智里","LIN":"13鄰","STREET":"長東街","SECT":" ","MAREA":" ","LANE":" ","ALLEY":" ","HOUSE_NO":"１３７號","E_COORD97":171036.85999999999,"N_COORD97":2540159.0800000001,"ADDRESS":"長東街１３７號","OBJECTID":367992},"geometry":{"x":171036.86000000034,"y":2540159.0800000019}},{"attributes":{"ID":368003,"DIS_CODE":0,"TOWNNAME":"東區","LI":"崇明里","LIN":"13鄰","STREET":"大同路","SECT":"二段","MAREA":" ","LANE":" ","ALLEY":" ","HOUSE_NO":"７０７號","E_COORD97":169649.79000000001,"N_COORD97":2540807.0800000001,"ADDRESS":"大同路二段７０７號","OBJECTID":367993},"geometry":{"x":169649.79000000004,"y":2540807.0800000019}},{"attributes":{"ID":368004,"DIS_CODE":0,"TOWNNAME":"東區","LI":"崇明里","LIN":"13鄰","STREET":"大同路","SECT":"二段","MAREA":" ","LANE":" ","ALLEY":" ","HOUSE_NO":"７０９號","E_COORD97":169656.04000000001,"N_COORD97":2540808.46,"ADDRESS":"大同路二段７０９號","OBJECTID":367994},"geometry":{"x":169656.04000000097,"y":2540808.4600000028}},{"attributes":{"ID":368005,"DIS_CODE":0,"TOWNNAME":"東區","LI":"崇明里","LIN":"13鄰","STREET":"大同路","SECT":"二段","MAREA":" ","LANE":" ","ALLEY":" ","HOUSE_NO":"７１３號","E_COORD97":169670.53,"N_COORD97":2540810.04,"ADDRESS":"大同路二段７１３號","OBJECTID":367995},"geometry":{"x":169670.53000000026,"y":2540810.040000001}},{"attributes":{"ID":368006,"DIS_CODE":0,"TOWNNAME":"東區","LI":"崇明里","LIN":"13鄰","STREET":"大同路","SECT":"二段","MAREA":" ","LANE":" ","ALLEY":" ","HOUSE_NO":"７１５號","E_COORD97":169676.29000000001,"N_COORD97":2540785.6600000001,"ADDRESS":"大同路二段７１５號","OBJECTID":367996},"geometry":{"x":169676.29000000097,"y":2540785.6600000039}},{"attributes":{"ID":368007,"DIS_CODE":0,"TOWNNAME":"東區","LI":"崇明里","LIN":"13鄰","STREET":"大同路","SECT":"二段","MAREA":" ","LANE":" ","ALLEY":" ","HOUSE_NO":"７１７號","E_COORD97":169670.10999999999,"N_COORD97":2540784.7599999998,"ADDRESS":"大同路二段７１７號","OBJECTID":367997},"geometry":{"x":169670.11000000034,"y":2540784.7600000016}},{"attributes":{"ID":368008,"DIS_CODE":0,"TOWNNAME":"南區","LI":"郡南里","LIN":"17鄰","STREET":"永成路","SECT":"三段","MAREA":" ","LANE":" ","ALLEY":" ","HOUSE_NO":"９號","E_COORD97":167482.662794,"N_COORD97":2540361.5565800001,"ADDRESS":"永成路三段９號","OBJECTID":367998},"geometry":{"x":167482.66279399954,"y":2540361.5565760024}},{"attributes":{"ID":368009,"DIS_CODE":0,"TOWNNAME":"新營區","LI":"新南里","LIN":"4鄰","STREET":"新北三街","SECT":" ","MAREA":" ","LANE":" ","ALLEY":" ","HOUSE_NO":"３０之８號","E_COORD97":178574.508459,"N_COORD97":2578857.81617,"ADDRESS":"新北三街３０之８號","OBJECTID":367999},"geometry":{"x":178574.50845900178,"y":2578857.816169003}},{"attributes":{"ID":368010,"DIS_CODE":0,"TOWNNAME":"北區","LI":"賢北里","LIN":"12鄰","STREET":"賢北街","SECT":" ","MAREA":" ","LANE":"２３巷","ALLEY":" ","HOUSE_NO":"８４號","E_COORD97":166120.95999999999,"N_COORD97":2545294.0899999999,"ADDRESS":"賢北街２３巷８４號","OBJECTID":368000},"geometry":{"x":166120.95999999996,"y":2545294.0899999999}}]}