{"displayFieldName":"TOWNNAME","fieldAliases":{"ID":"ID","DIS_CODE":"DIS_CODE","TOWNNAME":"TOWNNAME","LI":"LI","LIN":"LIN","STREET":"STREET","SECT":"SECT","MAREA":"MAREA","LANE":"LANE","ALLEY":"ALLEY","HOUSE_NO":"HOUSE_NO","E_COORD97":"E_COORD97","N_COORD97":"N_COORD97","ADDRESS":"ADDRESS","OBJECTID":"OBJECTID"},"geometryType":"esriGeometryPoint","spatialReference":{"wkid":102443,"latestWkid":3826},"fields":[{"name":"ID","type":"esriFieldTypeDouble","alias":"ID"},{"name":"DIS_CODE","type":"esriFieldTypeInteger","alias":"DIS_CODE"},{"name":"TOWNNAME","type":"esriFieldTypeString","alias":"TOWNNAME","length":8},{"name":"LI","type":"esriFieldTypeString","alias":"LI","length":8},{"name":"LIN","type":"esriFieldTypeString","alias":"LIN","length":12},{"name":"STREET","type":"esriFieldTypeString","alias":"STREET","length":20},{"name":"SECT","type":"esriFieldTypeString","alias":"SECT","length":8},{"name":"MAREA","type":"esriFieldTypeString","alias":"MAREA","length":12},{"name":"LANE","type":"esriFieldTypeString","alias":"LANE","length":10},{"name":"ALLEY","type":"esriFieldTypeString","alias":"ALLEY","length":10},{"name":"HOUSE_NO","type":"esriFieldTypeString","alias":"HOUSE_NO","length":20},{"name":"E_COORD97","type":"esriFieldTypeDouble","alias":"E_COORD97"},{"name":"N_COORD97","type":"esriFieldTypeDouble","alias":"N_COORD97"},{"name":"ADDRESS","type":"esriFieldTypeString","alias":"ADDRESS","length":50},{"name":"OBJECTID","type":"esriFieldTypeOID","alias":"OBJECTID"}],"features":[{"attributes":{"ID":60601,"DIS_CODE":0,"TOWNNAME":"永康區","LI":"北灣里","LIN":"35鄰","STREET":"大灣路","SECT":" ","MAREA":" ","LANE":"４０巷","ALLEY":"５８弄","HOUSE_NO":"２９號之２","E_COORD97":175105.79999999999,"N_COORD97":2546130.6699999999,"ADDRESS":"大灣路４０巷５８弄２９號之２","OBJECTID":60601},"geometry":{"x":175105.80000000075,"y":2546130.6699999999}},{"attributes":{"ID":60602,"DIS_CODE":0,"TOWNNAME":"安南區","LI":"頂安里","LIN":"8鄰","STREET":"頂安街","SECT":" ","MAREA":" ","LANE":" ","ALLEY":" ","HOUSE_NO":"５２４號之１","E_COORD97":168653.78,"N_COORD97":2549303.46,"ADDRESS":"頂安街５２４號之１","OBJECTID":60602},"geometry":{"x":168653.78000000026,"y":2549303.4600000009}},{"attributes":{"ID":60603,"DIS_CODE":0,"TOWNNAME":"安南區","LI":"安東里","LIN":"8鄰","STREET":"安和路","SECT":"一段","MAREA":" ","LANE":" ","ALLEY":" ","HOUSE_NO":"２５０號","E_COORD97":169323.98999999999,"N_COORD97":2547975.8799999999,"ADDRESS":"安和路一段２５０號","OBJECTID":60603},"geometry":{"x":169323.99000000209,"y":2547975.879999999}},{"attributes":{"ID":60604,"DIS_CODE":0,"TOWNNAME":"安南區","LI":"新順里","LIN":"8鄰","STREET":"總安街","SECT":"一段","MAREA":" ","LANE":" ","ALLEY":" ","HOUSE_NO":"３６８號","E_COORD97":169195.28,"N_COORD97":2550404.4900000002,"ADDRESS":"總安街一段３６８號","OBJECTID":60604},"geometry":{"x":169195.28000000119,"y":2550404.4900000002}},{"attributes":{"ID":60605,"DIS_CODE":0,"TOWNNAME":"東區","LI":"崇成里","LIN":"8鄰","STREET":"崇德十三街","SECT":" ","MAREA":" ","LANE":" ","ALLEY":" ","HOUSE_NO":"２１號","E_COORD97":170849.89999999999,"N_COORD97":2541303.3100000001,"ADDRESS":"崇德十三街２１號","OBJECTID":60605},"geometry":{"x":170849.90000000037,"y":2541303.3100000005}},{"attributes":{"ID":60606,"DIS_CODE":0,"TOWNNAME":"新化區","LI":"山\u25A0里","LIN":"1鄰","STREET":" ","SECT":" ","MAREA":"頂山\u25A0","LANE":" ","ALLEY":" ","HOUSE_NO":"８０號之３５","E_COORD97":179664.48999999999,"N_COORD97":2546228.2599999998,"ADDRESS":"頂山\u25A0８０號之３５","OBJECTID":60606},"geometry":{"x":179664.48999999929,"y":2546228.2599999998}},{"attributes":{"ID":60607,"DIS_CODE":0,"TOWNNAME":"新化區","LI":"知義里","LIN":"1鄰","STREET":" ","SECT":" ","MAREA":"知母義","LANE":" ","ALLEY":" ","HOUSE_NO":"３０號之１","E_COORD97":179647,"N_COORD97":2547028.2599999998,"ADDRESS":"知母義３０號之１","OBJECTID":60607},"geometry":{"x":179647,"y":2547028.2599999998}},{"attributes":{"ID":60608,"DIS_CODE":0,"TOWNNAME":"新化區","LI":"\u25A0拔里","LIN":"1鄰","STREET":" ","SECT":" ","MAREA":"\u25A0拔林","LANE":" ","ALLEY":" ","HOUSE_NO":"２１號之３","E_COORD97":183173.62,"N_COORD97":2551838.2599999998,"ADDRESS":"\u25A0拔林２１號之３","OBJECTID":60608},"geometry":{"x":183173.62000000011,"y":2551838.2600000016}},{"attributes":{"ID":60609,"DIS_CODE":0,"TOWNNAME":"永康區","LI":"北灣里","LIN":"35鄰","STREET":"大灣路","SECT":" ","MAREA":" ","LANE":"４０巷","ALLEY":"５８弄","HOUSE_NO":"４１號之１","E_COORD97":175116.12,"N_COORD97":2546140.3700000001,"ADDRESS":"大灣路４０巷５８弄４１號之１","OBJECTID":60609},"geometry":{"x":175116.12000000104,"y":2546140.370000001}},{"attributes":{"ID":60610,"DIS_CODE":0,"TOWNNAME":"永康區","LI":"北灣里","LIN":"35鄰","STREET":"大灣路","SECT":" ","MAREA":" ","LANE":"４０巷","ALLEY":"８６弄","HOUSE_NO":"１２號","E_COORD97":175019.29999999999,"N_COORD97":2546201.8399999999,"ADDRESS":"大灣路４０巷８６弄１２號","OBJECTID":60610},"geometry":{"x":175019.30000000075,"y":2546201.8400000036}},{"attributes":{"ID":60611,"DIS_CODE":0,"TOWNNAME":"新化區","LI":"知義里","LIN":"1鄰","STREET":" ","SECT":" ","MAREA":"知母義","LANE":" ","ALLEY":" ","HOUSE_NO":"３２號","E_COORD97":179651.26999999999,"N_COORD97":2547007.25,"ADDRESS":"知母義３２號","OBJECTID":60611},"geometry":{"x":179651.26999999955,"y":2547007.2500000019}},{"attributes":{"ID":60612,"DIS_CODE":0,"TOWNNAME":"新化區","LI":"知義里","LIN":"1鄰","STREET":" ","SECT":" ","MAREA":"知母義","LANE":" ","ALLEY":" ","HOUSE_NO":"１６６號","E_COORD97":179704.22,"N_COORD97":2547029.25,"ADDRESS":"知母義１６６號","OBJECTID":60612},"geometry":{"x":179704.21999999974,"y":2547029.25}},{"attributes":{"ID":60613,"DIS_CODE":0,"TOWNNAME":"新化區","LI":"\u25A0拔里","LIN":"1鄰","STREET":" ","SECT":" ","MAREA":"\u25A0拔林","LANE":" ","ALLEY":" ","HOUSE_NO":"１２號之３","E_COORD97":183051.01999999999,"N_COORD97":2551869.2599999998,"ADDRESS":"\u25A0拔林１２號之３","OBJECTID":60613},"geometry":{"x":183051.02000000048,"y":2551869.2600000016}},{"attributes":{"ID":60614,"DIS_CODE":0,"TOWNNAME":"新化區","LI":"\u25A0拔里","LIN":"1鄰","STREET":" ","SECT":" ","MAREA":"\u25A0拔林","LANE":" ","ALLEY":" ","HOUSE_NO":"４０號之２","E_COORD97":183142.42999999999,"N_COORD97":2552044.2599999998,"ADDRESS":"\u25A0拔林４０號之２","OBJECTID":60614},"geometry":{"x":183142.4299999997,"y":2552044.2600000016}},{"attributes":{"ID":60615,"DIS_CODE":0,"TOWNNAME":"新化區","LI":"\u25A0拔里","LIN":"1鄰","STREET":" ","SECT":" ","MAREA":"\u25A0拔林","LANE":" ","ALLEY":" ","HOUSE_NO":"６２號","E_COORD97":183430.07000000001,"N_COORD97":2551973.25,"ADDRESS":"\u25A0拔林６２號","OBJECTID":60615},"geometry":{"x":183430.0700000003,"y":2551973.2500000037}},{"attributes":{"ID":60616,"DIS_CODE":0,"TOWNNAME":"新化區","LI":"\u25A0拔里","LIN":"1鄰","STREET":" ","SECT":" ","MAREA":"\u25A0拔林","LANE":" ","ALLEY":" ","HOUSE_NO":"５３號之１","E_COORD97":183352.10000000001,"N_COORD97":2551953.2599999998,"ADDRESS":"\u25A0拔林５３號之１","OBJECTID":60616},"geometry":{"x":183352.10000000149,"y":2551953.2600000016}},{"attributes":{"ID":60617,"DIS_CODE":0,"TOWNNAME":"新化區","LI":"知義里","LIN":"1鄰","STREET":" ","SECT":" ","MAREA":"知母義","LANE":" ","ALLEY":" ","HOUSE_NO":"３８號","E_COORD97":179664.47,"N_COORD97":2546977.2400000002,"ADDRESS":"知母義３８號","OBJECTID":60617},"geometry":{"x":179664.47000000067,"y":2546977.2400000021}},{"attributes":{"ID":60618,"DIS_CODE":0,"TOWNNAME":"新化區","LI":"山\u25A0里","LIN":"1鄰","STREET":" ","SECT":" ","MAREA":"頂山\u25A0","LANE":" ","ALLEY":" ","HOUSE_NO":"８２號","E_COORD97":179672.28,"N_COORD97":2546468.25,"ADDRESS":"頂山\u25A0８２號","OBJECTID":60618},"geometry":{"x":179672.28000000026,"y":2546468.2500000019}},{"attributes":{"ID":60619,"DIS_CODE":0,"TOWNNAME":"新化區","LI":"\u25A0拔里","LIN":"1鄰","STREET":" ","SECT":" ","MAREA":"\u25A0拔林","LANE":" ","ALLEY":" ","HOUSE_NO":"１４號之１","E_COORD97":183034.5,"N_COORD97":2551705.2599999998,"ADDRESS":"\u25A0拔林１４號之１","OBJECTID":60619},"geometry":{"x":183034.50000000093,"y":2551705.2600000016}},{"attributes":{"ID":60620,"DIS_CODE":0,"TOWNNAME":"新化區","LI":"北勢里","LIN":"1鄰","STREET":" ","SECT":" ","MAREA":"北勢","LANE":" ","ALLEY":" ","HOUSE_NO":"１４１號","E_COORD97":177310.67999999999,"N_COORD97":2549538.2599999998,"ADDRESS":"北勢１４１號","OBJECTID":60620},"geometry":{"x":177310.68000000063,"y":2549538.2600000035}},{"attributes":{"ID":60621,"DIS_CODE":0,"TOWNNAME":"新化區","LI":"\u25A0拔里","LIN":"1鄰","STREET":" ","SECT":" ","MAREA":"\u25A0拔林","LANE":" ","ALLEY":" ","HOUSE_NO":"２１號","E_COORD97":183190.37,"N_COORD97":2551844.25,"ADDRESS":"\u25A0拔林２１號","OBJECTID":60621},"geometry":{"x":183190.37000000104,"y":2551844.2500000037}},{"attributes":{"ID":60622,"DIS_CODE":0,"TOWNNAME":"新化區","LI":"崙頂里","LIN":"1鄰","STREET":" ","SECT":" ","MAREA":"崙子頂","LANE":" ","ALLEY":" ","HOUSE_NO":"３０號之９５","E_COORD97":177779.29000000001,"N_COORD97":2546478.2599999998,"ADDRESS":"崙子頂３０號之９５","OBJECTID":60622},"geometry":{"x":177779.29000000097,"y":2546478.2600000016}},{"attributes":{"ID":60623,"DIS_CODE":0,"TOWNNAME":"新化區","LI":"知義里","LIN":"1鄰","STREET":" ","SECT":" ","MAREA":"知母義","LANE":" ","ALLEY":" ","HOUSE_NO":"９號之１２","E_COORD97":179297.53,"N_COORD97":2546909.2599999998,"ADDRESS":"知母義９號之１２","OBJECTID":60623},"geometry":{"x":179297.53000000026,"y":2546909.2599999998}},{"attributes":{"ID":60624,"DIS_CODE":0,"TOWNNAME":"新化區","LI":"崙頂里","LIN":"1鄰","STREET":" ","SECT":" ","MAREA":"崙子頂","LANE":" ","ALLEY":" ","HOUSE_NO":"１９號之１","E_COORD97":176983.70999999999,"N_COORD97":2546741.2599999998,"ADDRESS":"崙子頂１９號之１","OBJECTID":60624},"geometry":{"x":176983.70999999996,"y":2546741.2600000035}},{"attributes":{"ID":60625,"DIS_CODE":0,"TOWNNAME":"新化區","LI":"崙頂里","LIN":"1鄰","STREET":" ","SECT":" ","MAREA":"崙子頂","LANE":" ","ALLEY":" ","HOUSE_NO":"２５號","E_COORD97":176979.57999999999,"N_COORD97":2546672.25,"ADDRESS":"崙子頂２５號","OBJECTID":60625},"geometry":{"x":176979.58000000007,"y":2546672.25}},{"attributes":{"ID":60626,"DIS_CODE":0,"TOWNNAME":"新化區","LI":"\u25A0拔里","LIN":"1鄰","STREET":" ","SECT":" ","MAREA":"\u25A0拔林","LANE":" ","ALLEY":" ","HOUSE_NO":"５８號","E_COORD97":183213.97,"N_COORD97":2552183.25,"ADDRESS":"\u25A0拔林５８號","OBJECTID":60626},"geometry":{"x":183213.9700000016,"y":2552183.2500000037}},{"attributes":{"ID":60627,"DIS_CODE":0,"TOWNNAME":"新化區","LI":"\u25A0拔里","LIN":"1鄰","STREET":" ","SECT":" ","MAREA":"\u25A0拔林","LANE":" ","ALLEY":" ","HOUSE_NO":"５６號之５","E_COORD97":183397.23000000001,"N_COORD97":2551992.2599999998,"ADDRESS":"\u25A0拔林５６號之５","OBJECTID":60627},"geometry":{"x":183397.23000000045,"y":2551992.2599999998}},{"attributes":{"ID":60628,"DIS_CODE":0,"TOWNNAME":"永康區","LI":"北灣里","LIN":"35鄰","STREET":"大灣路","SECT":" ","MAREA":" ","LANE":"４０巷","ALLEY":"５８弄","HOUSE_NO":"５７號之２","E_COORD97":175113.92000000001,"N_COORD97":2546155.1099999999,"ADDRESS":"大灣路４０巷５８弄５７號之２","OBJECTID":60628},"geometry":{"x":175113.92000000086,"y":2546155.1099999994}},{"attributes":{"ID":60629,"DIS_CODE":0,"TOWNNAME":"新化區","LI":"崙頂里","LIN":"1鄰","STREET":" ","SECT":" ","MAREA":"崙子頂","LANE":" ","ALLEY":" ","HOUSE_NO":"３７號之１","E_COORD97":177032.51000000001,"N_COORD97":2546557.2599999998,"ADDRESS":"崙子頂３７號之１","OBJECTID":60629},"geometry":{"x":177032.50999999978,"y":2546557.2599999998}},{"attributes":{"ID":60630,"DIS_CODE":0,"TOWNNAME":"新化區","LI":"\u25A0拔里","LIN":"1鄰","STREET":" ","SECT":" ","MAREA":"\u25A0拔林","LANE":" ","ALLEY":" ","HOUSE_NO":"５６號之２","E_COORD97":183382.63,"N_COORD97":2551964.2599999998,"ADDRESS":"\u25A0拔林５６號之２","OBJECTID":60630},"geometry":{"x":183382.63000000175,"y":2551964.2599999998}},{"attributes":{"ID":60631,"DIS_CODE":0,"TOWNNAME":"新化區","LI":"知義里","LIN":"1鄰","STREET":" ","SECT":" ","MAREA":"知母義","LANE":" ","ALLEY":" ","HOUSE_NO":"２１號","E_COORD97":179615.37,"N_COORD97":2547106.25,"ADDRESS":"知母義２１號","OBJECTID":60631},"geometry":{"x":179615.37000000011,"y":2547106.25}},{"attributes":{"ID":60632,"DIS_CODE":0,"TOWNNAME":"新化區","LI":"知義里","LIN":"1鄰","STREET":" ","SECT":" ","MAREA":"知母義","LANE":" ","ALLEY":" ","HOUSE_NO":"１５號之１","E_COORD97":179239.79999999999,"N_COORD97":2547027.2599999998,"ADDRESS":"知母義１５號之１","OBJECTID":60632},"geometry":{"x":179239.79999999981,"y":2547027.2600000016}},{"attributes":{"ID":60633,"DIS_CODE":0,"TOWNNAME":"將軍區","LI":"將貴里","LIN":"6鄰","STREET":" ","SECT":" ","MAREA":"將貴","LANE":" ","ALLEY":" ","HOUSE_NO":"５２號","E_COORD97":161743.67999999999,"N_COORD97":2568366.0299999998,"ADDRESS":"將貴５２號","OBJECTID":60633},"geometry":{"x":161743.68000000063,"y":2568366.0299999975}},{"attributes":{"ID":60634,"DIS_CODE":0,"TOWNNAME":"新化區","LI":"知義里","LIN":"1鄰","STREET":" ","SECT":" ","MAREA":"知母義","LANE":" ","ALLEY":" ","HOUSE_NO":"１７４號之１","E_COORD97":179647.75,"N_COORD97":2547113.2599999998,"ADDRESS":"知母義１７４號之１","OBJECTID":60634},"geometry":{"x":179647.75000000093,"y":2547113.2599999998}},{"attributes":{"ID":60635,"DIS_CODE":0,"TOWNNAME":"新化區","LI":"崙頂里","LIN":"1鄰","STREET":" ","SECT":" ","MAREA":"崙子頂","LANE":" ","ALLEY":" ","HOUSE_NO":"３４號","E_COORD97":177006.28,"N_COORD97":2546576.25,"ADDRESS":"崙子頂３４號","OBJECTID":60635},"geometry":{"x":177006.28000000212,"y":2546576.2500000019}},{"attributes":{"ID":60636,"DIS_CODE":0,"TOWNNAME":"新化區","LI":"崙頂里","LIN":"1鄰","STREET":" ","SECT":" ","MAREA":"崙子頂","LANE":" ","ALLEY":" ","HOUSE_NO":"１號之６０","E_COORD97":177467.22,"N_COORD97":2546826.2599999998,"ADDRESS":"崙子頂１號之６０","OBJECTID":60636},"geometry":{"x":177467.2200000016,"y":2546826.2600000035}},{"attributes":{"ID":60637,"DIS_CODE":0,"TOWNNAME":"新化區","LI":"崙頂里","LIN":"1鄰","STREET":" ","SECT":" ","MAREA":"崙子頂","LANE":" ","ALLEY":" ","HOUSE_NO":"９號之８８","E_COORD97":177667.64000000001,"N_COORD97":2546184.2599999998,"ADDRESS":"崙子頂９號之８８","OBJECTID":60637},"geometry":{"x":177667.63999999873,"y":2546184.2599999998}},{"attributes":{"ID":60638,"DIS_CODE":0,"TOWNNAME":"永康區","LI":"北灣里","LIN":"35鄰","STREET":"大灣路","SECT":" ","MAREA":" ","LANE":"４０巷","ALLEY":"５８弄","HOUSE_NO":"１８號之１","E_COORD97":175143.20000000001,"N_COORD97":2546161.7599999998,"ADDRESS":"大灣路４０巷５８弄１８號之１","OBJECTID":60638},"geometry":{"x":175143.20000000019,"y":2546161.7600000035}},{"attributes":{"ID":60639,"DIS_CODE":0,"TOWNNAME":"永康區","LI":"北灣里","LIN":"35鄰","STREET":"大灣路","SECT":" ","MAREA":" ","LANE":"４０巷","ALLEY":"５８弄","HOUSE_NO":"９號之２","E_COORD97":175079.23000000001,"N_COORD97":2546121.1699999999,"ADDRESS":"大灣路４０巷５８弄９號之２","OBJECTID":60639},"geometry":{"x":175079.23000000045,"y":2546121.1699999999}},{"attributes":{"ID":60640,"DIS_CODE":0,"TOWNNAME":"永康區","LI":"北灣里","LIN":"35鄰","STREET":"大灣路","SECT":" ","MAREA":" ","LANE":"４０巷","ALLEY":"５８弄","HOUSE_NO":"３５號之１","E_COORD97":175096.09,"N_COORD97":2546146.4199999999,"ADDRESS":"大灣路４０巷５８弄３５號之１","OBJECTID":60640},"geometry":{"x":175096.08999999985,"y":2546146.4199999999}},{"attributes":{"ID":60641,"DIS_CODE":0,"TOWNNAME":"東山區","LI":"東中里","LIN":"20鄰","STREET":"中興路","SECT":" ","MAREA":" ","LANE":" ","ALLEY":" ","HOUSE_NO":"４３號","E_COORD97":188975.31,"N_COORD97":2580187.0699999998,"ADDRESS":"中興路４３號","OBJECTID":60641},"geometry":{"x":188975.31000000052,"y":2580187.0700000022}},{"attributes":{"ID":60642,"DIS_CODE":0,"TOWNNAME":"安南區","LI":"總頭里","LIN":"8鄰","STREET":"長溪路","SECT":"二段","MAREA":" ","LANE":" ","ALLEY":" ","HOUSE_NO":"６００號之１","E_COORD97":168248.35999999999,"N_COORD97":2550705.6699999999,"ADDRESS":"長溪路二段６００號之１","OBJECTID":60642},"geometry":{"x":168248.36000000034,"y":2550705.6700000037}},{"attributes":{"ID":60643,"DIS_CODE":0,"TOWNNAME":"永康區","LI":"北灣里","LIN":"35鄰","STREET":"大灣路","SECT":" ","MAREA":" ","LANE":"４０巷","ALLEY":"５８弄","HOUSE_NO":"５號之２","E_COORD97":175087.42000000001,"N_COORD97":2546113.1699999999,"ADDRESS":"大灣路４０巷５８弄５號之２","OBJECTID":60643},"geometry":{"x":175087.41999999993,"y":2546113.1700000018}},{"attributes":{"ID":60644,"DIS_CODE":0,"TOWNNAME":"永康區","LI":"北灣里","LIN":"35鄰","STREET":"大灣路","SECT":" ","MAREA":" ","LANE":"４０巷","ALLEY":"５８弄","HOUSE_NO":"２７號之２","E_COORD97":175109.76000000001,"N_COORD97":2546126.6699999999,"ADDRESS":"大灣路４０巷５８弄２７號之２","OBJECTID":60644},"geometry":{"x":175109.76000000071,"y":2546126.6700000018}},{"attributes":{"ID":60645,"DIS_CODE":0,"TOWNNAME":"永康區","LI":"北灣里","LIN":"35鄰","STREET":"大灣路","SECT":" ","MAREA":" ","LANE":"４０巷","ALLEY":"５８弄","HOUSE_NO":"５５號之２","E_COORD97":175118.07999999999,"N_COORD97":2546151.1099999999,"ADDRESS":"大灣路４０巷５８弄５５號之２","OBJECTID":60645},"geometry":{"x":175118.08000000101,"y":2546151.1099999994}},{"attributes":{"ID":60646,"DIS_CODE":0,"TOWNNAME":"永康區","LI":"北灣里","LIN":"35鄰","STREET":"大灣路","SECT":" ","MAREA":" ","LANE":"４０巷","ALLEY":"５８弄","HOUSE_NO":"５７號之１","E_COORD97":175117.07999999999,"N_COORD97":2546158.3599999999,"ADDRESS":"大灣路４０巷５８弄５７號之１","OBJECTID":60646},"geometry":{"x":175117.08000000007,"y":2546158.3600000013}},{"attributes":{"ID":60647,"DIS_CODE":0,"TOWNNAME":"安平區","LI":"平通里","LIN":"20鄰","STREET":"育平九街","SECT":" ","MAREA":" ","LANE":"３７２巷","ALLEY":"１８９弄","HOUSE_NO":"１１號","E_COORD97":164554.28,"N_COORD97":2544191.8399999999,"ADDRESS":"育平九街３７２巷１８９弄１１號","OBJECTID":60647},"geometry":{"x":164554.28000000119,"y":2544191.8400000017}},{"attributes":{"ID":60648,"DIS_CODE":0,"TOWNNAME":"永康區","LI":"復華里","LIN":"35鄰","STREET":"復華七街","SECT":" ","MAREA":" ","LANE":"３９巷","ALLEY":"２弄","HOUSE_NO":"１號","E_COORD97":172638.72,"N_COORD97":2546024.8199999998,"ADDRESS":"復華七街３９巷２弄１號","OBJECTID":60648},"geometry":{"x":172638.71999999974,"y":2546024.8200000003}},{"attributes":{"ID":60649,"DIS_CODE":0,"TOWNNAME":"新化區","LI":"崙頂里","LIN":"1鄰","STREET":" ","SECT":" ","MAREA":"崙子頂","LANE":" ","ALLEY":" ","HOUSE_NO":"２１號","E_COORD97":176992.28,"N_COORD97":2546716.25,"ADDRESS":"崙子頂２１號","OBJECTID":60649},"geometry":{"x":176992.28000000026,"y":2546716.25}},{"attributes":{"ID":60650,"DIS_CODE":0,"TOWNNAME":"新化區","LI":"崙頂里","LIN":"1鄰","STREET":" ","SECT":" ","MAREA":"崙子頂","LANE":" ","ALLEY":" ","HOUSE_NO":"１９號","E_COORD97":176996.48000000001,"N_COORD97":2546748.25,"ADDRESS":"崙子頂１９號","OBJECTID":60650},"geometry":{"x":176996.48000000045,"y":2546748.2499999981}},{"attributes":{"ID":60651,"DIS_CODE":0,"TOWNNAME":"新化區","LI":"羊林里","LIN":"1鄰","STREET":" ","SECT":" ","MAREA":"\u25A0拔林","LANE":" ","ALLEY":" ","HOUSE_NO":"３７１號之１","E_COORD97":183539.45000000001,"N_COORD97":2551806.2599999998,"ADDRESS":"\u25A0拔林３７１號之１","OBJECTID":60651},"geometry":{"x":183539.45000000019,"y":2551806.2599999998}},{"attributes":{"ID":60652,"DIS_CODE":0,"TOWNNAME":"新化區","LI":"\u25A0拔里","LIN":"1鄰","STREET":" ","SECT":" ","MAREA":"\u25A0拔林","LANE":" ","ALLEY":" ","HOUSE_NO":"３６號之２２","E_COORD97":183060.98000000001,"N_COORD97":2552013.2599999998,"ADDRESS":"\u25A0拔林３６號之２２","OBJECTID":60652},"geometry":{"x":183060.98000000138,"y":2552013.2600000035}},{"attributes":{"ID":60653,"DIS_CODE":0,"TOWNNAME":"新化區","LI":"\u25A0拔里","LIN":"1鄰","STREET":" ","SECT":" ","MAREA":"\u25A0拔林","LANE":" ","ALLEY":" ","HOUSE_NO":"３６號","E_COORD97":182130.67000000001,"N_COORD97":2552333.25,"ADDRESS":"\u25A0拔林３６號","OBJECTID":60653},"geometry":{"x":182130.66999999993,"y":2552333.2500000019}},{"attributes":{"ID":60654,"DIS_CODE":0,"TOWNNAME":"新化區","LI":"\u25A0拔里","LIN":"1鄰","STREET":" ","SECT":" ","MAREA":"\u25A0拔林","LANE":" ","ALLEY":" ","HOUSE_NO":"６０號","E_COORD97":183423.07000000001,"N_COORD97":2551973.25,"ADDRESS":"\u25A0拔林６０號","OBJECTID":60654},"geometry":{"x":183423.07000000123,"y":2551973.2500000037}},{"attributes":{"ID":60655,"DIS_CODE":0,"TOWNNAME":"新化區","LI":"知義里","LIN":"1鄰","STREET":" ","SECT":" ","MAREA":"知母義","LANE":" ","ALLEY":" ","HOUSE_NO":"２５號","E_COORD97":179607.76999999999,"N_COORD97":2547082.25,"ADDRESS":"知母義２５號","OBJECTID":60655},"geometry":{"x":179607.77000000142,"y":2547082.2500000019}},{"attributes":{"ID":60656,"DIS_CODE":0,"TOWNNAME":"永康區","LI":"復華里","LIN":"35鄰","STREET":"復華七街","SECT":" ","MAREA":" ","LANE":"３９巷","ALLEY":"２弄","HOUSE_NO":"１２號","E_COORD97":172663.79999999999,"N_COORD97":2546025.6800000002,"ADDRESS":"復華七街３９巷２弄１２號","OBJECTID":60656},"geometry":{"x":172663.79999999981,"y":2546025.6799999997}},{"attributes":{"ID":60657,"DIS_CODE":0,"TOWNNAME":"永康區","LI":"復華里","LIN":"35鄰","STREET":"復華七街","SECT":" ","MAREA":" ","LANE":"３９巷","ALLEY":"２弄","HOUSE_NO":"８號","E_COORD97":172654.70999999999,"N_COORD97":2546019.6800000002,"ADDRESS":"復華七街３９巷２弄８號","OBJECTID":60657},"geometry":{"x":172654.70999999996,"y":2546019.6800000034}},{"attributes":{"ID":60658,"DIS_CODE":0,"TOWNNAME":"永康區","LI":"復華里","LIN":"35鄰","STREET":"復華七街","SECT":" ","MAREA":" ","LANE":"３９巷","ALLEY":"２弄","HOUSE_NO":"３號","E_COORD97":172642.51999999999,"N_COORD97":2546028.5699999998,"ADDRESS":"復華七街３９巷２弄３號","OBJECTID":60658},"geometry":{"x":172642.52000000048,"y":2546028.5700000022}},{"attributes":{"ID":60659,"DIS_CODE":0,"TOWNNAME":"永康區","LI":"復華里","LIN":"35鄰","STREET":"復華七街","SECT":" ","MAREA":" ","LANE":"３９巷","ALLEY":"１４弄","HOUSE_NO":"１２號","E_COORD97":172630.48999999999,"N_COORD97":2546085.48,"ADDRESS":"復華七街３９巷１４弄１２號","OBJECTID":60659},"geometry":{"x":172630.49000000022,"y":2546085.4800000004}},{"attributes":{"ID":60660,"DIS_CODE":0,"TOWNNAME":"永康區","LI":"復華里","LIN":"35鄰","STREET":"復華七街","SECT":" ","MAREA":" ","LANE":"３９巷","ALLEY":"１４弄","HOUSE_NO":"９號","E_COORD97":172612.31,"N_COORD97":2546100.3399999999,"ADDRESS":"復華七街３９巷１４弄９號","OBJECTID":60660},"geometry":{"x":172612.31000000052,"y":2546100.3400000036}},{"attributes":{"ID":60661,"DIS_CODE":0,"TOWNNAME":"永康區","LI":"龍潭里","LIN":"35鄰","STREET":"自強路","SECT":" ","MAREA":" ","LANE":"７５０巷","ALLEY":"６９弄","HOUSE_NO":"５號","E_COORD97":174560.35999999999,"N_COORD97":2548499.1099999999,"ADDRESS":"自強路７５０巷６９弄５號","OBJECTID":60661},"geometry":{"x":174560.36000000127,"y":2548499.1100000013}},{"attributes":{"ID":60662,"DIS_CODE":0,"TOWNNAME":"永康區","LI":"埔園里","LIN":"35鄰","STREET":"永大路","SECT":"三段","MAREA":" ","LANE":"４５０巷","ALLEY":"２弄","HOUSE_NO":"３６號","E_COORD97":174150.85000000001,"N_COORD97":2548334.4900000002,"ADDRESS":"永大路三段４５０巷２弄３６號","OBJECTID":60662},"geometry":{"x":174150.85000000056,"y":2548334.4900000021}},{"attributes":{"ID":60663,"DIS_CODE":0,"TOWNNAME":"永康區","LI":"埔園里","LIN":"35鄰","STREET":"永大路","SECT":"三段","MAREA":" ","LANE":"４５０巷","ALLEY":"２弄","HOUSE_NO":"３０號","E_COORD97":174149.57000000001,"N_COORD97":2548343.2400000002,"ADDRESS":"永大路三段４５０巷２弄３０號","OBJECTID":60663},"geometry":{"x":174149.56999999937,"y":2548343.2400000021}},{"attributes":{"ID":60664,"DIS_CODE":0,"TOWNNAME":"仁德區","LI":"後壁里","LIN":"35鄰","STREET":"德洋路","SECT":" ","MAREA":" ","LANE":"１８３巷","ALLEY":"２弄","HOUSE_NO":"１５號","E_COORD97":172445.06,"N_COORD97":2539441.2599999998,"ADDRESS":"德洋路１８３巷２弄１５號","OBJECTID":60664},"geometry":{"x":172445.05999999959,"y":2539441.2599999998}},{"attributes":{"ID":60665,"DIS_CODE":0,"TOWNNAME":"仁德區","LI":"後壁里","LIN":"35鄰","STREET":"德洋路","SECT":" ","MAREA":" ","LANE":"１８３巷","ALLEY":"２弄","HOUSE_NO":"８號","E_COORD97":172464,"N_COORD97":2539432.2599999998,"ADDRESS":"德洋路１８３巷２弄８號","OBJECTID":60665},"geometry":{"x":172464,"y":2539432.2600000016}},{"attributes":{"ID":60666,"DIS_CODE":0,"TOWNNAME":"東區","LI":"崇明里","LIN":"8鄰","STREET":"大同路","SECT":"二段","MAREA":" ","LANE":" ","ALLEY":" ","HOUSE_NO":"４２７號","E_COORD97":169538.23999999999,"N_COORD97":2541349.1800000002,"ADDRESS":"大同路二段４２７號","OBJECTID":60666},"geometry":{"x":169538.24000000115,"y":2541349.1800000016}},{"attributes":{"ID":60667,"DIS_CODE":0,"TOWNNAME":"新化區","LI":"崙頂里","LIN":"1鄰","STREET":" ","SECT":" ","MAREA":"崙子頂","LANE":" ","ALLEY":" ","HOUSE_NO":"３０號之１２０","E_COORD97":177744.32000000001,"N_COORD97":2546117.2599999998,"ADDRESS":"崙子頂３０號之１２０","OBJECTID":60667},"geometry":{"x":177744.32000000123,"y":2546117.2599999979}},{"attributes":{"ID":60668,"DIS_CODE":0,"TOWNNAME":"新化區","LI":"知義里","LIN":"1鄰","STREET":" ","SECT":" ","MAREA":"知母義","LANE":" ","ALLEY":" ","HOUSE_NO":"１５號之８","E_COORD97":179240.23000000001,"N_COORD97":2547052.2599999998,"ADDRESS":"知母義１５號之８","OBJECTID":60668},"geometry":{"x":179240.23000000138,"y":2547052.2599999998}},{"attributes":{"ID":60669,"DIS_CODE":0,"TOWNNAME":"新化區","LI":"\u25A0拔里","LIN":"1鄰","STREET":" ","SECT":" ","MAREA":"\u25A0拔林","LANE":" ","ALLEY":" ","HOUSE_NO":"５６號之３","E_COORD97":183390.32000000001,"N_COORD97":2551981.2599999998,"ADDRESS":"\u25A0拔林５６號之３","OBJECTID":60669},"geometry":{"x":183390.32000000123,"y":2551981.2599999998}},{"attributes":{"ID":60670,"DIS_CODE":0,"TOWNNAME":"新化區","LI":"\u25A0拔里","LIN":"1鄰","STREET":" ","SECT":" ","MAREA":"\u25A0拔林","LANE":" ","ALLEY":" ","HOUSE_NO":"５１號之２","E_COORD97":183327.53,"N_COORD97":2551949.2599999998,"ADDRESS":"\u25A0拔林５１號之２","OBJECTID":60670},"geometry":{"x":183327.53000000026,"y":2551949.2600000016}},{"attributes":{"ID":60671,"DIS_CODE":0,"TOWNNAME":"新化區","LI":"\u25A0拔里","LIN":"1鄰","STREET":" ","SECT":" ","MAREA":"\u25A0拔林","LANE":" ","ALLEY":" ","HOUSE_NO":"３８號","E_COORD97":182363.26999999999,"N_COORD97":2552268.25,"ADDRESS":"\u25A0拔林３８號","OBJECTID":60671},"geometry":{"x":182363.27000000048,"y":2552268.2500000019}},{"attributes":{"ID":60672,"DIS_CODE":0,"TOWNNAME":"新化區","LI":"知義里","LIN":"1鄰","STREET":" ","SECT":" ","MAREA":"知母義","LANE":" ","ALLEY":" ","HOUSE_NO":"１６７號之２","E_COORD97":179692.67999999999,"N_COORD97":2547027.2599999998,"ADDRESS":"知母義１６７號之２","OBJECTID":60672},"geometry":{"x":179692.6799999997,"y":2547027.2600000016}},{"attributes":{"ID":60673,"DIS_CODE":0,"TOWNNAME":"新化區","LI":"\u25A0拔里","LIN":"1鄰","STREET":" ","SECT":" ","MAREA":"\u25A0拔林","LANE":" ","ALLEY":" ","HOUSE_NO":"５６號之６","E_COORD97":183401.51999999999,"N_COORD97":2551996.2599999998,"ADDRESS":"\u25A0拔林５６號之６","OBJECTID":60673},"geometry":{"x":183401.51999999862,"y":2551996.2599999979}},{"attributes":{"ID":60674,"DIS_CODE":0,"TOWNNAME":"新化區","LI":"知義里","LIN":"1鄰","STREET":" ","SECT":" ","MAREA":"知母義","LANE":" ","ALLEY":" ","HOUSE_NO":"２號","E_COORD97":179609.62,"N_COORD97":2547171.25,"ADDRESS":"知母義２號","OBJECTID":60674},"geometry":{"x":179609.62000000104,"y":2547171.25}},{"attributes":{"ID":60675,"DIS_CODE":0,"TOWNNAME":"新化區","LI":"崙頂里","LIN":"1鄰","STREET":" ","SECT":" ","MAREA":"崙子頂","LANE":" ","ALLEY":" ","HOUSE_NO":"３７號","E_COORD97":177044.38,"N_COORD97":2546555.25,"ADDRESS":"崙子頂３７號","OBJECTID":60675},"geometry":{"x":177044.38000000082,"y":2546555.2500000037}},{"attributes":{"ID":60676,"DIS_CODE":0,"TOWNNAME":"佳里區","LI":"禮化里","LIN":"8鄰","STREET":" ","SECT":" ","MAREA":"佳里興","LANE":" ","ALLEY":" ","HOUSE_NO":"２９８號","E_COORD97":166717.42000000001,"N_COORD97":2565713.46,"ADDRESS":"佳里興２９８號","OBJECTID":60676},"geometry":{"x":166717.42000000086,"y":2565713.459999999}},{"attributes":{"ID":60677,"DIS_CODE":0,"TOWNNAME":"佳里區","LI":"禮化里","LIN":"8鄰","STREET":" ","SECT":" ","MAREA":"佳里興","LANE":" ","ALLEY":" ","HOUSE_NO":"３００號之２","E_COORD97":166719.32999999999,"N_COORD97":2565764.5600000001,"ADDRESS":"佳里興３００號之２","OBJECTID":60677},"geometry":{"x":166719.33000000194,"y":2565764.5600000024}},{"attributes":{"ID":60678,"DIS_CODE":0,"TOWNNAME":"仁德區","LI":"後壁里","LIN":"35鄰","STREET":"德洋路","SECT":" ","MAREA":" ","LANE":"１８３巷","ALLEY":"２弄","HOUSE_NO":"１８號","E_COORD97":172460.67999999999,"N_COORD97":2539466.02,"ADDRESS":"德洋路１８３巷２弄１８號","OBJECTID":60678},"geometry":{"x":172460.68000000063,"y":2539466.0199999996}},{"attributes":{"ID":60679,"DIS_CODE":0,"TOWNNAME":"仁德區","LI":"後壁里","LIN":"35鄰","STREET":"德洋路","SECT":" ","MAREA":" ","LANE":"１８３巷","ALLEY":"２弄","HOUSE_NO":"６號","E_COORD97":172466.13,"N_COORD97":2539428.7599999998,"ADDRESS":"德洋路１８３巷２弄６號","OBJECTID":60679},"geometry":{"x":172466.13000000082,"y":2539428.7600000016}},{"attributes":{"ID":60680,"DIS_CODE":0,"TOWNNAME":"仁德區","LI":"後壁里","LIN":"35鄰","STREET":"德洋路","SECT":" ","MAREA":" ","LANE":"１８３巷","ALLEY":"２弄","HOUSE_NO":"５號","E_COORD97":172456.51999999999,"N_COORD97":2539422.7599999998,"ADDRESS":"德洋路１８３巷２弄５號","OBJECTID":60680},"geometry":{"x":172456.52000000048,"y":2539422.7600000016}},{"attributes":{"ID":60681,"DIS_CODE":0,"TOWNNAME":"仁德區","LI":"後壁里","LIN":"35鄰","STREET":"德洋路","SECT":" ","MAREA":" ","LANE":"１８３巷","ALLEY":"２弄","HOUSE_NO":"４號","E_COORD97":172468.25,"N_COORD97":2539425.2599999998,"ADDRESS":"德洋路１８３巷２弄４號","OBJECTID":60681},"geometry":{"x":172468.25000000186,"y":2539425.2600000016}},{"attributes":{"ID":60682,"DIS_CODE":0,"TOWNNAME":"仁德區","LI":"後壁里","LIN":"35鄰","STREET":"德洋路","SECT":" ","MAREA":" ","LANE":"１８３巷","ALLEY":"２弄","HOUSE_NO":"１２號","E_COORD97":172459.54000000001,"N_COORD97":2539439.7599999998,"ADDRESS":"德洋路１８３巷２弄１２號","OBJECTID":60682},"geometry":{"x":172459.5400000019,"y":2539439.7600000016}},{"attributes":{"ID":60683,"DIS_CODE":0,"TOWNNAME":"仁德區","LI":"後壁里","LIN":"35鄰","STREET":"德洋路","SECT":" ","MAREA":" ","LANE":"１８３巷","ALLEY":"２弄","HOUSE_NO":"２３號","E_COORD97":172436.09,"N_COORD97":2539457.0099999998,"ADDRESS":"德洋路１８３巷２弄２３號","OBJECTID":60683},"geometry":{"x":172436.09000000078,"y":2539457.0100000035}},{"attributes":{"ID":60684,"DIS_CODE":0,"TOWNNAME":"仁德區","LI":"後壁里","LIN":"35鄰","STREET":"德洋路","SECT":" ","MAREA":" ","LANE":"１８３巷","ALLEY":"２弄","HOUSE_NO":"１１號","E_COORD97":172450.35000000001,"N_COORD97":2539433.7599999998,"ADDRESS":"德洋路１８３巷２弄１１號","OBJECTID":60684},"geometry":{"x":172450.35000000056,"y":2539433.7599999998}},{"attributes":{"ID":60685,"DIS_CODE":0,"TOWNNAME":"佳里區","LI":"禮化里","LIN":"8鄰","STREET":" ","SECT":" ","MAREA":"佳里興","LANE":" ","ALLEY":" ","HOUSE_NO":"３００號之３","E_COORD97":166773.51999999999,"N_COORD97":2565806.0600000001,"ADDRESS":"佳里興３００號之３","OBJECTID":60685},"geometry":{"x":166773.52000000142,"y":2565806.0600000005}},{"attributes":{"ID":60686,"DIS_CODE":0,"TOWNNAME":"佳里區","LI":"禮化里","LIN":"8鄰","STREET":" ","SECT":" ","MAREA":"佳里興","LANE":" ","ALLEY":" ","HOUSE_NO":"３００號之４","E_COORD97":166740.82000000001,"N_COORD97":2565753.4300000002,"ADDRESS":"佳里興３００號之４","OBJECTID":60686},"geometry":{"x":166740.82000000123,"y":2565753.4300000034}},{"attributes":{"ID":60687,"DIS_CODE":0,"TOWNNAME":"佳里區","LI":"禮化里","LIN":"8鄰","STREET":" ","SECT":" ","MAREA":"佳里興","LANE":" ","ALLEY":" ","HOUSE_NO":"３００號之５","E_COORD97":166774.14999999999,"N_COORD97":2565834.4700000002,"ADDRESS":"佳里興３００號之５","OBJECTID":60687},"geometry":{"x":166774.1500000013,"y":2565834.4700000007}},{"attributes":{"ID":60688,"DIS_CODE":0,"TOWNNAME":"佳里區","LI":"禮化里","LIN":"8鄰","STREET":" ","SECT":" ","MAREA":"佳里興","LANE":" ","ALLEY":" ","HOUSE_NO":"３００號","E_COORD97":166774.73000000001,"N_COORD97":2565750.0800000001,"ADDRESS":"佳里興３００號","OBJECTID":60688},"geometry":{"x":166774.73000000231,"y":2565750.0800000019}},{"attributes":{"ID":60689,"DIS_CODE":0,"TOWNNAME":"佳里區","LI":"禮化里","LIN":"8鄰","STREET":" ","SECT":" ","MAREA":"佳里興","LANE":" ","ALLEY":" ","HOUSE_NO":"３０１號之１","E_COORD97":166793.48999999999,"N_COORD97":2565753.71,"ADDRESS":"佳里興３０１號之１","OBJECTID":60689},"geometry":{"x":166793.49000000115,"y":2565753.7100000028}},{"attributes":{"ID":60690,"DIS_CODE":0,"TOWNNAME":"佳里區","LI":"禮化里","LIN":"8鄰","STREET":" ","SECT":" ","MAREA":"佳里興","LANE":" ","ALLEY":" ","HOUSE_NO":"３０１號","E_COORD97":166801.85000000001,"N_COORD97":2565752.7999999998,"ADDRESS":"佳里興３０１號","OBJECTID":60690},"geometry":{"x":166801.85000000149,"y":2565752.8000000026}},{"attributes":{"ID":60691,"DIS_CODE":0,"TOWNNAME":"佳里區","LI":"禮化里","LIN":"8鄰","STREET":" ","SECT":" ","MAREA":"佳里興","LANE":" ","ALLEY":" ","HOUSE_NO":"３０２號之１","E_COORD97":166803.81,"N_COORD97":2565782.6899999999,"ADDRESS":"佳里興３０２號之１","OBJECTID":60691},"geometry":{"x":166803.81000000145,"y":2565782.6900000013}},{"attributes":{"ID":60692,"DIS_CODE":0,"TOWNNAME":"佳里區","LI":"禮化里","LIN":"8鄰","STREET":" ","SECT":" ","MAREA":"佳里興","LANE":" ","ALLEY":" ","HOUSE_NO":"３０２號之２","E_COORD97":166824.41,"N_COORD97":2565821.4900000002,"ADDRESS":"佳里興３０２號之２","OBJECTID":60692},"geometry":{"x":166824.41000000108,"y":2565821.4900000039}},{"attributes":{"ID":60693,"DIS_CODE":0,"TOWNNAME":"佳里區","LI":"禮化里","LIN":"8鄰","STREET":" ","SECT":" ","MAREA":"佳里興","LANE":" ","ALLEY":" ","HOUSE_NO":"３０２號之３","E_COORD97":166806.37,"N_COORD97":2565855.8799999999,"ADDRESS":"佳里興３０２號之３","OBJECTID":60693},"geometry":{"x":166806.37000000104,"y":2565855.8800000008}},{"attributes":{"ID":60694,"DIS_CODE":0,"TOWNNAME":"佳里區","LI":"禮化里","LIN":"8鄰","STREET":" ","SECT":" ","MAREA":"佳里興","LANE":" ","ALLEY":" ","HOUSE_NO":"３０２號之４","E_COORD97":166881.34,"N_COORD97":2565833.46,"ADDRESS":"佳里興３０２號之４","OBJECTID":60694},"geometry":{"x":166881.33999999985,"y":2565833.4600000028}},{"attributes":{"ID":60695,"DIS_CODE":0,"TOWNNAME":"佳里區","LI":"禮化里","LIN":"8鄰","STREET":" ","SECT":" ","MAREA":"佳里興","LANE":" ","ALLEY":" ","HOUSE_NO":"３０２號之５","E_COORD97":166881.64000000001,"N_COORD97":2565825.5699999998,"ADDRESS":"佳里興３０２號之５","OBJECTID":60695},"geometry":{"x":166881.6400000006,"y":2565825.5700000022}},{"attributes":{"ID":60696,"DIS_CODE":0,"TOWNNAME":"仁德區","LI":"後壁里","LIN":"35鄰","STREET":"德洋路","SECT":" ","MAREA":" ","LANE":"１８３巷","ALLEY":"２弄","HOUSE_NO":"１０號","E_COORD97":172462.59,"N_COORD97":2539436.2599999998,"ADDRESS":"德洋路１８３巷２弄１０號","OBJECTID":60696},"geometry":{"x":172462.59000000078,"y":2539436.2600000016}},{"attributes":{"ID":60697,"DIS_CODE":0,"TOWNNAME":"仁德區","LI":"後壁里","LIN":"35鄰","STREET":"德洋路","SECT":" ","MAREA":" ","LANE":"１８３巷","ALLEY":"２弄","HOUSE_NO":"１９號","E_COORD97":172440.53,"N_COORD97":2539449.2599999998,"ADDRESS":"德洋路１８３巷２弄１９號","OBJECTID":60697},"geometry":{"x":172440.53000000026,"y":2539449.2600000016}},{"attributes":{"ID":60698,"DIS_CODE":0,"TOWNNAME":"仁德區","LI":"後壁里","LIN":"35鄰","STREET":"德洋二街","SECT":" ","MAREA":" ","LANE":"８巷","ALLEY":"２４弄","HOUSE_NO":"１號","E_COORD97":172402.42000000001,"N_COORD97":2539446.5099999998,"ADDRESS":"德洋二街８巷２４弄１號","OBJECTID":60698},"geometry":{"x":172402.41999999993,"y":2539446.5099999998}},{"attributes":{"ID":60699,"DIS_CODE":0,"TOWNNAME":"新市區","LI":"永就里","LIN":"1鄰","STREET":" ","SECT":" ","MAREA":"永就","LANE":" ","ALLEY":" ","HOUSE_NO":"７之５號","E_COORD97":178492.17000000001,"N_COORD97":2551286.0499999998,"ADDRESS":"永就７之５號","OBJECTID":60699},"geometry":{"x":178492.17000000086,"y":2551286.0500000007}},{"attributes":{"ID":60700,"DIS_CODE":0,"TOWNNAME":"仁德區","LI":"後壁里","LIN":"35鄰","STREET":"德洋路","SECT":" ","MAREA":" ","LANE":"２０５巷","ALLEY":"１７弄","HOUSE_NO":"１號","E_COORD97":172443.45000000001,"N_COORD97":2539489.77,"ADDRESS":"德洋路２０５巷１７弄１號","OBJECTID":60700},"geometry":{"x":172443.45000000205,"y":2539489.7700000014}},{"attributes":{"ID":60701,"DIS_CODE":0,"TOWNNAME":"仁德區","LI":"後壁里","LIN":"35鄰","STREET":"德洋路","SECT":" ","MAREA":" ","LANE":"２０５巷","ALLEY":"１７弄","HOUSE_NO":"６號","E_COORD97":172431.45000000001,"N_COORD97":2539486.77,"ADDRESS":"德洋路２０５巷１７弄６號","OBJECTID":60701},"geometry":{"x":172431.45000000205,"y":2539486.7700000014}},{"attributes":{"ID":60702,"DIS_CODE":0,"TOWNNAME":"永康區","LI":"二王里","LIN":"35鄰","STREET":"中山南路","SECT":" ","MAREA":" ","LANE":"４９０巷","ALLEY":"２弄","HOUSE_NO":"９號","E_COORD97":172065.62,"N_COORD97":2546386.4700000002,"ADDRESS":"中山南路４９０巷２弄９號","OBJECTID":60702},"geometry":{"x":172065.62000000011,"y":2546386.4700000025}},{"attributes":{"ID":60703,"DIS_CODE":0,"TOWNNAME":"學甲區","LI":"明宜里","LIN":"15鄰","STREET":"中山路","SECT":" ","MAREA":" ","LANE":" ","ALLEY":" ","HOUSE_NO":"１２４號","E_COORD97":166103.73999999999,"N_COORD97":2570523.6400000001,"ADDRESS":"中山路１２４號","OBJECTID":60703},"geometry":{"x":166103.74000000115,"y":2570523.6400000025}},{"attributes":{"ID":60704,"DIS_CODE":0,"TOWNNAME":"永康區","LI":"二王里","LIN":"35鄰","STREET":"中山南路","SECT":" ","MAREA":" ","LANE":"４９０巷","ALLEY":"２弄","HOUSE_NO":"３９號","E_COORD97":172107.57000000001,"N_COORD97":2546337.23,"ADDRESS":"中山南路４９０巷２弄３９號","OBJECTID":60704},"geometry":{"x":172107.57000000123,"y":2546337.2300000004}},{"attributes":{"ID":60705,"DIS_CODE":0,"TOWNNAME":"永康區","LI":"二王里","LIN":"35鄰","STREET":"中山南路","SECT":" ","MAREA":" ","LANE":"４９０巷","ALLEY":"２弄","HOUSE_NO":"７２號","E_COORD97":172179.31,"N_COORD97":2546290.8300000001,"ADDRESS":"中山南路４９０巷２弄７２號","OBJECTID":60705},"geometry":{"x":172179.31000000145,"y":2546290.8300000019}},{"attributes":{"ID":60706,"DIS_CODE":0,"TOWNNAME":"永康區","LI":"埔園里","LIN":"35鄰","STREET":"永大路","SECT":"三段","MAREA":" ","LANE":"４５０巷","ALLEY":"２弄","HOUSE_NO":"１３號","E_COORD97":174176.31,"N_COORD97":2548356.5,"ADDRESS":"永大路三段４５０巷２弄１３號","OBJECTID":60706},"geometry":{"x":174176.31000000052,"y":2548356.5}},{"attributes":{"ID":60707,"DIS_CODE":0,"TOWNNAME":"永康區","LI":"埔園里","LIN":"35鄰","STREET":"永大路","SECT":"三段","MAREA":" ","LANE":"４５０巷","ALLEY":"２弄","HOUSE_NO":"２１號","E_COORD97":174177.51999999999,"N_COORD97":2548337.5,"ADDRESS":"永大路三段４５０巷２弄２１號","OBJECTID":60707},"geometry":{"x":174177.51999999955,"y":2548337.5000000019}},{"attributes":{"ID":60708,"DIS_CODE":0,"TOWNNAME":"永康區","LI":"崑山里","LIN":"35鄰","STREET":"大灣路","SECT":" ","MAREA":" ","LANE":"９４２巷","ALLEY":"２７１弄","HOUSE_NO":"２２號","E_COORD97":173690.39000000001,"N_COORD97":2545051.8500000001,"ADDRESS":"大灣路９４２巷２７１弄２２號","OBJECTID":60708},"geometry":{"x":173690.38999999966,"y":2545051.8499999996}},{"attributes":{"ID":60709,"DIS_CODE":0,"TOWNNAME":"永康區","LI":"崑山里","LIN":"35鄰","STREET":"大灣路","SECT":" ","MAREA":" ","LANE":"９４２巷","ALLEY":"２７１弄","HOUSE_NO":"２３４號","E_COORD97":173371.48999999999,"N_COORD97":2545146.2400000002,"ADDRESS":"大灣路９４２巷２７１弄２３４號","OBJECTID":60709},"geometry":{"x":173371.49000000022,"y":2545146.2400000021}},{"attributes":{"ID":60710,"DIS_CODE":0,"TOWNNAME":"六甲區","LI":"甲東里","LIN":" ","STREET":"曾文街","SECT":" ","MAREA":" ","LANE":" ","ALLEY":" ","HOUSE_NO":"１３１號","E_COORD97":184884.54999999999,"N_COORD97":2570489.4900000002,"ADDRESS":"曾文街１３１號","OBJECTID":60710},"geometry":{"x":184884.54999999981,"y":2570489.4900000002}},{"attributes":{"ID":60711,"DIS_CODE":0,"TOWNNAME":"佳里區","LI":"鎮山里","LIN":"8鄰","STREET":"佳東路","SECT":" ","MAREA":" ","LANE":" ","ALLEY":" ","HOUSE_NO":"１８５號","E_COORD97":166392.63,"N_COORD97":2561840.8300000001,"ADDRESS":"佳東路１８５號","OBJECTID":60711},"geometry":{"x":166392.62999999989,"y":2561840.8300000001}},{"attributes":{"ID":60712,"DIS_CODE":0,"TOWNNAME":"佳里區","LI":"佳化里","LIN":"8鄰","STREET":" ","SECT":" ","MAREA":"佳里興","LANE":" ","ALLEY":" ","HOUSE_NO":"８４號之５","E_COORD97":167572.60999999999,"N_COORD97":2565019.23,"ADDRESS":"佳里興８４號之５","OBJECTID":60712},"geometry":{"x":167572.61000000127,"y":2565019.2300000004}},{"attributes":{"ID":60713,"DIS_CODE":0,"TOWNNAME":"佳里區","LI":"佳化里","LIN":"8鄰","STREET":" ","SECT":" ","MAREA":"佳里興","LANE":" ","ALLEY":" ","HOUSE_NO":"８４號之６","E_COORD97":167579.78,"N_COORD97":2565018.1699999999,"ADDRESS":"佳里興８４號之６","OBJECTID":60713},"geometry":{"x":167579.78000000119,"y":2565018.1699999999}},{"attributes":{"ID":60714,"DIS_CODE":0,"TOWNNAME":"佳里區","LI":"佳化里","LIN":"8鄰","STREET":" ","SECT":" ","MAREA":"佳里興","LANE":" ","ALLEY":" ","HOUSE_NO":"８４號之７","E_COORD97":167580.10999999999,"N_COORD97":2565025.2799999998,"ADDRESS":"佳里興８４號之７","OBJECTID":60714},"geometry":{"x":167580.11000000034,"y":2565025.2800000031}},{"attributes":{"ID":60715,"DIS_CODE":0,"TOWNNAME":"佳里區","LI":"佳化里","LIN":"8鄰","STREET":" ","SECT":" ","MAREA":"佳里興","LANE":" ","ALLEY":" ","HOUSE_NO":"８４號之８","E_COORD97":167580.51999999999,"N_COORD97":2565031.5899999999,"ADDRESS":"佳里興８４號之８","OBJECTID":60715},"geometry":{"x":167580.52000000142,"y":2565031.5900000017}},{"attributes":{"ID":60716,"DIS_CODE":0,"TOWNNAME":"佳里區","LI":"佳化里","LIN":"8鄰","STREET":" ","SECT":" ","MAREA":"佳里興","LANE":" ","ALLEY":" ","HOUSE_NO":"８４號之９","E_COORD97":167580.64999999999,"N_COORD97":2565038.2000000002,"ADDRESS":"佳里興８４號之９","OBJECTID":60716},"geometry":{"x":167580.6500000013,"y":2565038.1999999993}},{"attributes":{"ID":60717,"DIS_CODE":0,"TOWNNAME":"佳里區","LI":"佳化里","LIN":"8鄰","STREET":" ","SECT":" ","MAREA":"佳里興","LANE":" ","ALLEY":" ","HOUSE_NO":"８４號","E_COORD97":167544.29000000001,"N_COORD97":2565022.1000000001,"ADDRESS":"佳里興８４號","OBJECTID":60717},"geometry":{"x":167544.29000000097,"y":2565022.0999999996}},{"attributes":{"ID":60718,"DIS_CODE":0,"TOWNNAME":"新化區","LI":"知義里","LIN":"1鄰","STREET":" ","SECT":" ","MAREA":"知母義","LANE":" ","ALLEY":" ","HOUSE_NO":"１７號","E_COORD97":179600.67000000001,"N_COORD97":2547097.25,"ADDRESS":"知母義１７號","OBJECTID":60718},"geometry":{"x":179600.67000000086,"y":2547097.25}},{"attributes":{"ID":60719,"DIS_CODE":0,"TOWNNAME":"新化區","LI":"知義里","LIN":"1鄰","STREET":" ","SECT":" ","MAREA":"知母義","LANE":" ","ALLEY":" ","HOUSE_NO":"１８７號","E_COORD97":179733.12,"N_COORD97":2547223.25,"ADDRESS":"知母義１８７號","OBJECTID":60719},"geometry":{"x":179733.12000000197,"y":2547223.2500000037}},{"attributes":{"ID":60720,"DIS_CODE":0,"TOWNNAME":"新化區","LI":"知義里","LIN":"1鄰","STREET":" ","SECT":" ","MAREA":"知母義","LANE":" ","ALLEY":" ","HOUSE_NO":"１號之１０","E_COORD97":179541.20999999999,"N_COORD97":2547144.2599999998,"ADDRESS":"知母義１號之１０","OBJECTID":60720},"geometry":{"x":179541.21000000089,"y":2547144.2599999998}},{"attributes":{"ID":60721,"DIS_CODE":0,"TOWNNAME":"新化區","LI":"\u25A0拔里","LIN":"1鄰","STREET":" ","SECT":" ","MAREA":"\u25A0拔林","LANE":" ","ALLEY":" ","HOUSE_NO":"４０號之６","E_COORD97":183105.92000000001,"N_COORD97":2551999.2599999998,"ADDRESS":"\u25A0拔林４０號之６","OBJECTID":60721},"geometry":{"x":183105.91999999899,"y":2551999.2599999998}},{"attributes":{"ID":60722,"DIS_CODE":0,"TOWNNAME":"新化區","LI":"崙頂里","LIN":"1鄰","STREET":" ","SECT":" ","MAREA":"崙子頂","LANE":" ","ALLEY":" ","HOUSE_NO":"３９號","E_COORD97":177037.67999999999,"N_COORD97":2546534.25,"ADDRESS":"崙子頂３９號","OBJECTID":60722},"geometry":{"x":177037.68000000063,"y":2546534.25}},{"attributes":{"ID":60723,"DIS_CODE":0,"TOWNNAME":"新化區","LI":"知義里","LIN":"1鄰","STREET":" ","SECT":" ","MAREA":"知母義","LANE":" ","ALLEY":" ","HOUSE_NO":"５１號","E_COORD97":179701.76999999999,"N_COORD97":2547015.25,"ADDRESS":"知母義５１號","OBJECTID":60723},"geometry":{"x":179701.77000000048,"y":2547015.25}},{"attributes":{"ID":60724,"DIS_CODE":0,"TOWNNAME":"新化區","LI":"知義里","LIN":"1鄰","STREET":" ","SECT":" ","MAREA":"知母義","LANE":" ","ALLEY":" ","HOUSE_NO":"１８４號","E_COORD97":179686.62,"N_COORD97":2547199.25,"ADDRESS":"知母義１８４號","OBJECTID":60724},"geometry":{"x":179686.62000000011,"y":2547199.2500000037}},{"attributes":{"ID":60725,"DIS_CODE":0,"TOWNNAME":"新化區","LI":"\u25A0拔里","LIN":"1鄰","STREET":" ","SECT":" ","MAREA":"\u25A0拔林","LANE":" ","ALLEY":" ","HOUSE_NO":"５６號之１","E_COORD97":183387.10000000001,"N_COORD97":2551962.2599999998,"ADDRESS":"\u25A0拔林５６號之１","OBJECTID":60725},"geometry":{"x":183387.09999999963,"y":2551962.2599999979}},{"attributes":{"ID":60726,"DIS_CODE":0,"TOWNNAME":"新化區","LI":"崙頂里","LIN":"1鄰","STREET":" ","SECT":" ","MAREA":"崙子頂","LANE":" ","ALLEY":" ","HOUSE_NO":"１８號之１","E_COORD97":176973.01000000001,"N_COORD97":2546765.2599999998,"ADDRESS":"崙子頂１８號之１","OBJECTID":60726},"geometry":{"x":176973.00999999978,"y":2546765.2600000035}},{"attributes":{"ID":60727,"DIS_CODE":0,"TOWNNAME":"新化區","LI":"知義里","LIN":"1鄰","STREET":" ","SECT":" ","MAREA":"知母義","LANE":" ","ALLEY":" ","HOUSE_NO":"１６號","E_COORD97":179558.76999999999,"N_COORD97":2547091.25,"ADDRESS":"知母義１６號","OBJECTID":60727},"geometry":{"x":179558.77000000048,"y":2547091.2500000019}},{"attributes":{"ID":60728,"DIS_CODE":0,"TOWNNAME":"新化區","LI":"知義里","LIN":"1鄰","STREET":" ","SECT":" ","MAREA":"知母義","LANE":" ","ALLEY":" ","HOUSE_NO":"１７９號之２","E_COORD97":179631.88,"N_COORD97":2547178.2599999998,"ADDRESS":"知母義１７９號之２","OBJECTID":60728},"geometry":{"x":179631.88000000082,"y":2547178.2599999998}},{"attributes":{"ID":60729,"DIS_CODE":0,"TOWNNAME":"新化區","LI":"\u25A0拔里","LIN":"1鄰","STREET":" ","SECT":" ","MAREA":"\u25A0拔林","LANE":" ","ALLEY":" ","HOUSE_NO":"５７號之２０","E_COORD97":183167.66,"N_COORD97":2552295.2599999998,"ADDRESS":"\u25A0拔林５７號之２０","OBJECTID":60729},"geometry":{"x":183167.66000000108,"y":2552295.2600000016}},{"attributes":{"ID":60730,"DIS_CODE":0,"TOWNNAME":"新化區","LI":"\u25A0拔里","LIN":"1鄰","STREET":" ","SECT":" ","MAREA":"\u25A0拔林","LANE":" ","ALLEY":" ","HOUSE_NO":"５７號之３","E_COORD97":183180.42000000001,"N_COORD97":2552217.2599999998,"ADDRESS":"\u25A0拔林５７號之３","OBJECTID":60730},"geometry":{"x":183180.41999999993,"y":2552217.2600000016}},{"attributes":{"ID":60731,"DIS_CODE":0,"TOWNNAME":"新化區","LI":"\u25A0拔里","LIN":"1鄰","STREET":" ","SECT":" ","MAREA":"\u25A0拔林","LANE":" ","ALLEY":" ","HOUSE_NO":"４７號","E_COORD97":183185.87,"N_COORD97":2551972.25,"ADDRESS":"\u25A0拔林４７號","OBJECTID":60731},"geometry":{"x":183185.87000000011,"y":2551972.25}},{"attributes":{"ID":60732,"DIS_CODE":0,"TOWNNAME":"新化區","LI":"\u25A0拔里","LIN":"1鄰","STREET":" ","SECT":" ","MAREA":"\u25A0拔林","LANE":" ","ALLEY":" ","HOUSE_NO":"４８號","E_COORD97":183198.57000000001,"N_COORD97":2551963.25,"ADDRESS":"\u25A0拔林４８號","OBJECTID":60732},"geometry":{"x":183198.57000000216,"y":2551963.2500000019}},{"attributes":{"ID":60733,"DIS_CODE":0,"TOWNNAME":"新化區","LI":"\u25A0拔里","LIN":"1鄰","STREET":" ","SECT":" ","MAREA":"\u25A0拔林","LANE":" ","ALLEY":" ","HOUSE_NO":"３５號之２１","E_COORD97":182299.25,"N_COORD97":2552356.2599999998,"ADDRESS":"\u25A0拔林３５號之２１","OBJECTID":60733},"geometry":{"x":182299.25000000093,"y":2552356.2600000016}},{"attributes":{"ID":60734,"DIS_CODE":0,"TOWNNAME":"新化區","LI":"\u25A0拔里","LIN":"1鄰","STREET":" ","SECT":" ","MAREA":"\u25A0拔林","LANE":" ","ALLEY":" ","HOUSE_NO":"３７號之１０","E_COORD97":182624.76000000001,"N_COORD97":2552253.2599999998,"ADDRESS":"\u25A0拔林３７號之１０","OBJECTID":60734},"geometry":{"x":182624.75999999978,"y":2552253.2599999998}},{"attributes":{"ID":60735,"DIS_CODE":0,"TOWNNAME":"新化區","LI":"知義里","LIN":"1鄰","STREET":" ","SECT":" ","MAREA":"知母義","LANE":" ","ALLEY":" ","HOUSE_NO":"１７３號之２","E_COORD97":179666.48000000001,"N_COORD97":2547092.2599999998,"ADDRESS":"知母義１７３號之２","OBJECTID":60735},"geometry":{"x":179666.47999999952,"y":2547092.2599999998}},{"attributes":{"ID":60736,"DIS_CODE":0,"TOWNNAME":"新化區","LI":"\u25A0拔里","LIN":"1鄰","STREET":" ","SECT":" ","MAREA":"\u25A0拔林","LANE":" ","ALLEY":" ","HOUSE_NO":"３９號之５","E_COORD97":183085.03,"N_COORD97":2552076.2599999998,"ADDRESS":"\u25A0拔林３９號之５","OBJECTID":60736},"geometry":{"x":183085.03000000026,"y":2552076.2599999998}},{"attributes":{"ID":60737,"DIS_CODE":0,"TOWNNAME":"新化區","LI":"\u25A0拔里","LIN":"1鄰","STREET":" ","SECT":" ","MAREA":"\u25A0拔林","LANE":" ","ALLEY":" ","HOUSE_NO":"３９號之２","E_COORD97":183079.53,"N_COORD97":2552006.2599999998,"ADDRESS":"\u25A0拔林３９號之２","OBJECTID":60737},"geometry":{"x":183079.53000000026,"y":2552006.2599999998}},{"attributes":{"ID":60738,"DIS_CODE":0,"TOWNNAME":"新化區","LI":"知義里","LIN":"1鄰","STREET":" ","SECT":" ","MAREA":"知母義","LANE":" ","ALLEY":" ","HOUSE_NO":"２７號之２","E_COORD97":179638.32999999999,"N_COORD97":2547060.2599999998,"ADDRESS":"知母義２７號之２","OBJECTID":60738},"geometry":{"x":179638.32999999914,"y":2547060.2600000035}},{"attributes":{"ID":60739,"DIS_CODE":0,"TOWNNAME":"新化區","LI":"知義里","LIN":"1鄰","STREET":" ","SECT":" ","MAREA":"知母義","LANE":" ","ALLEY":" ","HOUSE_NO":"１７３號之１","E_COORD97":179674.54999999999,"N_COORD97":2547094.2599999998,"ADDRESS":"知母義１７３號之１","OBJECTID":60739},"geometry":{"x":179674.55000000075,"y":2547094.2600000016}},{"attributes":{"ID":60740,"DIS_CODE":0,"TOWNNAME":"新化區","LI":"知義里","LIN":"1鄰","STREET":" ","SECT":" ","MAREA":"知母義","LANE":" ","ALLEY":" ","HOUSE_NO":"３９號之１","E_COORD97":179671.5,"N_COORD97":2546962.2599999998,"ADDRESS":"知母義３９號之１","OBJECTID":60740},"geometry":{"x":179671.50000000093,"y":2546962.2600000016}},{"attributes":{"ID":60741,"DIS_CODE":0,"TOWNNAME":"新化區","LI":"大坑里","LIN":"1鄰","STREET":" ","SECT":" ","MAREA":"大坑尾","LANE":" ","ALLEY":" ","HOUSE_NO":"８５號","E_COORD97":187465.17999999999,"N_COORD97":2545405.25,"ADDRESS":"大坑尾８５號","OBJECTID":60741},"geometry":{"x":187465.1799999997,"y":2545405.25}},{"attributes":{"ID":60742,"DIS_CODE":0,"TOWNNAME":"新化區","LI":"山\u25A0里","LIN":"1鄰","STREET":" ","SECT":" ","MAREA":"頂山\u25A0","LANE":" ","ALLEY":" ","HOUSE_NO":"７８號之５","E_COORD97":179548.73999999999,"N_COORD97":2546531.2599999998,"ADDRESS":"頂山\u25A0７８號之５","OBJECTID":60742},"geometry":{"x":179548.74000000022,"y":2546531.2600000035}},{"attributes":{"ID":60743,"DIS_CODE":0,"TOWNNAME":"新化區","LI":"\u25A0拔里","LIN":"1鄰","STREET":" ","SECT":" ","MAREA":"\u25A0拔林","LANE":" ","ALLEY":" ","HOUSE_NO":"１４號之２","E_COORD97":183083.53,"N_COORD97":2551840.2599999998,"ADDRESS":"\u25A0拔林１４號之２","OBJECTID":60743},"geometry":{"x":183083.53000000212,"y":2551840.2599999979}},{"attributes":{"ID":60744,"DIS_CODE":0,"TOWNNAME":"新化區","LI":"北勢里","LIN":"1鄰","STREET":" ","SECT":" ","MAREA":"北勢","LANE":" ","ALLEY":" ","HOUSE_NO":"１５５號","E_COORD97":177347.07999999999,"N_COORD97":2549489.2599999998,"ADDRESS":"北勢１５５號","OBJECTID":60744},"geometry":{"x":177347.08000000101,"y":2549489.2599999998}},{"attributes":{"ID":60745,"DIS_CODE":0,"TOWNNAME":"新化區","LI":"崙頂里","LIN":"1鄰","STREET":" ","SECT":" ","MAREA":"崙子頂","LANE":" ","ALLEY":" ","HOUSE_NO":"１號之７０","E_COORD97":177529.51999999999,"N_COORD97":2546790.2599999998,"ADDRESS":"崙子頂１號之７０","OBJECTID":60745},"geometry":{"x":177529.52000000142,"y":2546790.2600000016}},{"attributes":{"ID":60746,"DIS_CODE":0,"TOWNNAME":"新化區","LI":"北勢里","LIN":"1鄰","STREET":" ","SECT":" ","MAREA":"北勢","LANE":" ","ALLEY":" ","HOUSE_NO":"１５９號","E_COORD97":177397.07999999999,"N_COORD97":2549458.2599999998,"ADDRESS":"北勢１５９號","OBJECTID":60746},"geometry":{"x":177397.08000000007,"y":2549458.2600000016}},{"attributes":{"ID":60747,"DIS_CODE":0,"TOWNNAME":"新化區","LI":"\u25A0拔里","LIN":"1鄰","STREET":" ","SECT":" ","MAREA":"\u25A0拔林","LANE":" ","ALLEY":" ","HOUSE_NO":"２號之５","E_COORD97":182796.73975800001,"N_COORD97":2551898.1369400001,"ADDRESS":"\u25A0拔林２號之５","OBJECTID":60747},"geometry":{"x":182796.73975800071,"y":2551898.1369410008}},{"attributes":{"ID":60748,"DIS_CODE":0,"TOWNNAME":"新化區","LI":"山\u25A0里","LIN":"1鄰","STREET":" ","SECT":" ","MAREA":"頂山\u25A0","LANE":" ","ALLEY":" ","HOUSE_NO":"８０號之１０","E_COORD97":179657.87,"N_COORD97":2546459.2599999998,"ADDRESS":"頂山\u25A0８０號之１０","OBJECTID":60748},"geometry":{"x":179657.87000000011,"y":2546459.2599999998}},{"attributes":{"ID":60749,"DIS_CODE":0,"TOWNNAME":"新化區","LI":"山\u25A0里","LIN":"1鄰","STREET":" ","SECT":" ","MAREA":"頂山\u25A0","LANE":" ","ALLEY":" ","HOUSE_NO":"８０號之２","E_COORD97":179620.92999999999,"N_COORD97":2546472.2599999998,"ADDRESS":"頂山\u25A0８０號之２","OBJECTID":60749},"geometry":{"x":179620.93000000063,"y":2546472.2599999998}},{"attributes":{"ID":60750,"DIS_CODE":0,"TOWNNAME":"新化區","LI":"大坑里","LIN":"1鄰","STREET":" ","SECT":" ","MAREA":"大坑尾","LANE":" ","ALLEY":" ","HOUSE_NO":"８２號","E_COORD97":187469.78,"N_COORD97":2545511.25,"ADDRESS":"大坑尾８２號","OBJECTID":60750},"geometry":{"x":187469.78000000119,"y":2545511.2500000019}},{"attributes":{"ID":60751,"DIS_CODE":0,"TOWNNAME":"將軍區","LI":"西華里","LIN":"1鄰","STREET":" ","SECT":" ","MAREA":"西華","LANE":" ","ALLEY":" ","HOUSE_NO":"１之１１號","E_COORD97":163746.07999999999,"N_COORD97":2566595.2599999998,"ADDRESS":"西華１之１１號","OBJECTID":60751},"geometry":{"x":163746.08000000194,"y":2566595.2600000035}},{"attributes":{"ID":60752,"DIS_CODE":0,"TOWNNAME":"下營區","LI":"西連里","LIN":"8鄰","STREET":" ","SECT":" ","MAREA":"西寮","LANE":" ","ALLEY":" ","HOUSE_NO":"３４號","E_COORD97":174671.81,"N_COORD97":2567368.73,"ADDRESS":"西寮３４號","OBJECTID":60752},"geometry":{"x":174671.81000000052,"y":2567368.7300000004}},{"attributes":{"ID":60753,"DIS_CODE":0,"TOWNNAME":"將軍區","LI":"西華里","LIN":"1鄰","STREET":" ","SECT":" ","MAREA":"西華","LANE":" ","ALLEY":" ","HOUSE_NO":"１之１８號","E_COORD97":163686.64999999999,"N_COORD97":2566662.7799999998,"ADDRESS":"西華１之１８號","OBJECTID":60753},"geometry":{"x":163686.65000000224,"y":2566662.7800000031}},{"attributes":{"ID":60754,"DIS_CODE":0,"TOWNNAME":"大內區","LI":"大內里","LIN":"1鄰","STREET":" ","SECT":" ","MAREA":"內庄","LANE":" ","ALLEY":" ","HOUSE_NO":"１０號之１","E_COORD97":184466.22,"N_COORD97":2557506.3799999999,"ADDRESS":"內庄１０之１號","OBJECTID":60754},"geometry":{"x":184466.21999999974,"y":2557506.379999999}},{"attributes":{"ID":60755,"DIS_CODE":0,"TOWNNAME":"大內區","LI":"大內里","LIN":"1鄰","STREET":" ","SECT":" ","MAREA":"內庄","LANE":" ","ALLEY":" ","HOUSE_NO":"１０之２號","E_COORD97":184462.62,"N_COORD97":2557508.9199999999,"ADDRESS":"內庄１０之２號","OBJECTID":60755},"geometry":{"x":184462.61999999918,"y":2557508.9200000018}},{"attributes":{"ID":60756,"DIS_CODE":0,"TOWNNAME":"將軍區","LI":"三吉里","LIN":"1鄰","STREET":" ","SECT":" ","MAREA":"三吉","LANE":" ","ALLEY":" ","HOUSE_NO":"１之１號","E_COORD97":161428.42000000001,"N_COORD97":2568094.8300000001,"ADDRESS":"三吉１之１號","OBJECTID":60756},"geometry":{"x":161428.42000000086,"y":2568094.8300000019}},{"attributes":{"ID":60757,"DIS_CODE":0,"TOWNNAME":"將軍區","LI":"三吉里","LIN":"1鄰","STREET":" ","SECT":" ","MAREA":"三吉","LANE":" ","ALLEY":" ","HOUSE_NO":"１之１２號","E_COORD97":161448.62,"N_COORD97":2568129.4300000002,"ADDRESS":"三吉１之１２號","OBJECTID":60757},"geometry":{"x":161448.62000000011,"y":2568129.4299999997}},{"attributes":{"ID":60758,"DIS_CODE":0,"TOWNNAME":"安定區","LI":"海寮里","LIN":"1鄰","STREET":" ","SECT":" ","MAREA":"海寮","LANE":" ","ALLEY":" ","HOUSE_NO":"５之５９號","E_COORD97":168489.06,"N_COORD97":2554709.8999999999,"ADDRESS":"海寮５之５９號","OBJECTID":60758},"geometry":{"x":168489.06000000052,"y":2554709.9000000022}},{"attributes":{"ID":60759,"DIS_CODE":0,"TOWNNAME":"新市區","LI":"永就里","LIN":"1鄰","STREET":" ","SECT":" ","MAREA":"永就","LANE":" ","ALLEY":" ","HOUSE_NO":"７之１５號","E_COORD97":178444.42000000001,"N_COORD97":2551287.0499999998,"ADDRESS":"永就７之１５號","OBJECTID":60759},"geometry":{"x":178444.42000000086,"y":2551287.0500000045}},{"attributes":{"ID":60760,"DIS_CODE":0,"TOWNNAME":"新市區","LI":"大營里","LIN":"1鄰","STREET":" ","SECT":" ","MAREA":"大營","LANE":" ","ALLEY":" ","HOUSE_NO":"７之１號","E_COORD97":180433.87,"N_COORD97":2555274.5499999998,"ADDRESS":"大營７之１號","OBJECTID":60760},"geometry":{"x":180433.87000000104,"y":2555274.5500000026}},{"attributes":{"ID":60761,"DIS_CODE":0,"TOWNNAME":"新市區","LI":"永就里","LIN":"1鄰","STREET":" ","SECT":" ","MAREA":"永就","LANE":" ","ALLEY":" ","HOUSE_NO":"１３之４號","E_COORD97":178362.17999999999,"N_COORD97":2551254.0499999998,"ADDRESS":"永就１３之４號","OBJECTID":60761},"geometry":{"x":178362.1799999997,"y":2551254.0500000026}},{"attributes":{"ID":60762,"DIS_CODE":0,"TOWNNAME":"新市區","LI":"永就里","LIN":"1鄰","STREET":" ","SECT":" ","MAREA":"永就","LANE":" ","ALLEY":" ","HOUSE_NO":"７之１７號","E_COORD97":178455.45999999999,"N_COORD97":2551318.2999999998,"ADDRESS":"永就７之１７號","OBJECTID":60762},"geometry":{"x":178455.45999999996,"y":2551318.3000000007}},{"attributes":{"ID":60763,"DIS_CODE":0,"TOWNNAME":"永康區","LI":"埔園里","LIN":"35鄰","STREET":"永大路","SECT":"三段","MAREA":" ","LANE":"４５０巷","ALLEY":"２弄","HOUSE_NO":"２２號","E_COORD97":174147.63,"N_COORD97":2548356.2400000002,"ADDRESS":"永大路三段４５０巷２弄２２號","OBJECTID":60763},"geometry":{"x":174147.63000000082,"y":2548356.2400000021}},{"attributes":{"ID":60764,"DIS_CODE":0,"TOWNNAME":"永康區","LI":"\u25A0行里","LIN":"35鄰","STREET":"中正北路","SECT":" ","MAREA":" ","LANE":"１７７巷","ALLEY":"１８弄","HOUSE_NO":"３號","E_COORD97":172396.63,"N_COORD97":2549214.1299999999,"ADDRESS":"中正北路１７７巷１８弄３號","OBJECTID":60764},"geometry":{"x":172396.63000000082,"y":2549214.1300000008}},{"attributes":{"ID":60765,"DIS_CODE":0,"TOWNNAME":"永康區","LI":"網寮里","LIN":"14鄰","STREET":"永勝街","SECT":" ","MAREA":" ","LANE":"３０８巷","ALLEY":"２弄","HOUSE_NO":"３７號","E_COORD97":173454.78,"N_COORD97":2546672.0299999998,"ADDRESS":"永勝街３０８巷２弄３７號","OBJECTID":60765},"geometry":{"x":173454.77999999933,"y":2546672.0300000012}},{"attributes":{"ID":60766,"DIS_CODE":0,"TOWNNAME":"永康區","LI":"埔園里","LIN":"35鄰","STREET":"永大路","SECT":"三段","MAREA":" ","LANE":"４５０巷","ALLEY":"２弄","HOUSE_NO":"１７號","E_COORD97":174176.98999999999,"N_COORD97":2548347.75,"ADDRESS":"永大路三段４５０巷２弄１７號","OBJECTID":60766},"geometry":{"x":174176.99000000022,"y":2548347.75}},{"attributes":{"ID":60767,"DIS_CODE":0,"TOWNNAME":"永康區","LI":"龍潭里","LIN":"35鄰","STREET":"自強路","SECT":" ","MAREA":" ","LANE":"７５０巷","ALLEY":"４５弄","HOUSE_NO":"６號","E_COORD97":174525.13,"N_COORD97":2548507,"ADDRESS":"自強路７５０巷４５弄６號","OBJECTID":60767},"geometry":{"x":174525.13000000175,"y":2548507.0000000019}},{"attributes":{"ID":60768,"DIS_CODE":0,"TOWNNAME":"新市區","LI":"永就里","LIN":"1鄰","STREET":" ","SECT":" ","MAREA":"永就","LANE":" ","ALLEY":" ","HOUSE_NO":"７之１９號","E_COORD97":178447.37,"N_COORD97":2551319.0499999998,"ADDRESS":"永就７之１９號","OBJECTID":60768},"geometry":{"x":178447.37000000011,"y":2551319.0500000026}},{"attributes":{"ID":60769,"DIS_CODE":0,"TOWNNAME":"新市區","LI":"永就里","LIN":"1鄰","STREET":" ","SECT":" ","MAREA":"永就","LANE":" ","ALLEY":" ","HOUSE_NO":"７之１２號","E_COORD97":178456.31,"N_COORD97":2551286.0499999998,"ADDRESS":"永就７之１２號","OBJECTID":60769},"geometry":{"x":178456.30999999959,"y":2551286.0500000007}},{"attributes":{"ID":60770,"DIS_CODE":0,"TOWNNAME":"新市區","LI":"永就里","LIN":"1鄰","STREET":" ","SECT":" ","MAREA":"永就","LANE":" ","ALLEY":" ","HOUSE_NO":"７之７號","E_COORD97":178490.26000000001,"N_COORD97":2551278.0499999998,"ADDRESS":"永就７之７號","OBJECTID":60770},"geometry":{"x":178490.25999999978,"y":2551278.0500000026}},{"attributes":{"ID":60771,"DIS_CODE":0,"TOWNNAME":"關廟區","LI":"深坑里","LIN":"13鄰","STREET":"南雄路","SECT":"一段","MAREA":" ","LANE":" ","ALLEY":" ","HOUSE_NO":"２０２號","E_COORD97":181984.42000000001,"N_COORD97":2537254.2999999998,"ADDRESS":"南雄路一段２０２號","OBJECTID":60771},"geometry":{"x":181984.42000000086,"y":2537254.3000000007}},{"attributes":{"ID":60772,"DIS_CODE":0,"TOWNNAME":"關廟區","LI":"深坑里","LIN":"1鄰","STREET":"南雄路","SECT":"一段","MAREA":" ","LANE":" ","ALLEY":" ","HOUSE_NO":"２５２號","E_COORD97":181930.72,"N_COORD97":2537356.2999999998,"ADDRESS":"南雄路一段２５２號","OBJECTID":60772},"geometry":{"x":181930.7200000016,"y":2537356.3000000007}},{"attributes":{"ID":60773,"DIS_CODE":0,"TOWNNAME":"東山區","LI":"大客里","LIN":"5鄰","STREET":" ","SECT":" ","MAREA":"大庄","LANE":" ","ALLEY":" ","HOUSE_NO":"３５號","E_COORD97":189732.32999999999,"N_COORD97":2578933.75,"ADDRESS":"大庄３５號","OBJECTID":60773},"geometry":{"x":189732.33000000101,"y":2578933.7500000019}},{"attributes":{"ID":60774,"DIS_CODE":0,"TOWNNAME":"永康區","LI":"龍潭里","LIN":"35鄰","STREET":"自強路","SECT":" ","MAREA":" ","LANE":"８０２巷","ALLEY":"１弄","HOUSE_NO":"１９號","E_COORD97":174631.95999999999,"N_COORD97":2548619.29,"ADDRESS":"自強路８０２巷１弄１９號","OBJECTID":60774},"geometry":{"x":174631.96000000089,"y":2548619.290000001}},{"attributes":{"ID":60775,"DIS_CODE":0,"TOWNNAME":"東山區","LI":"大客里","LIN":"5鄰","STREET":" ","SECT":" ","MAREA":"大庄","LANE":" ","ALLEY":" ","HOUSE_NO":"３６號","E_COORD97":189713.5,"N_COORD97":2578927.3799999999,"ADDRESS":"大庄３６號","OBJECTID":60775},"geometry":{"x":189713.50000000186,"y":2578927.379999999}},{"attributes":{"ID":60776,"DIS_CODE":0,"TOWNNAME":"東山區","LI":"大客里","LIN":"5鄰","STREET":" ","SECT":" ","MAREA":"大庄","LANE":" ","ALLEY":" ","HOUSE_NO":"３７號","E_COORD97":189719.35000000001,"N_COORD97":2578950.79,"ADDRESS":"大庄３７號","OBJECTID":60776},"geometry":{"x":189719.35000000056,"y":2578950.7899999991}},{"attributes":{"ID":60777,"DIS_CODE":0,"TOWNNAME":"東山區","LI":"大客里","LIN":"1鄰","STREET":" ","SECT":" ","MAREA":"大庄","LANE":" ","ALLEY":" ","HOUSE_NO":"３號之１","E_COORD97":189614.54000000001,"N_COORD97":2578776.4900000002,"ADDRESS":"大庄３號之１","OBJECTID":60777},"geometry":{"x":189614.54000000004,"y":2578776.4900000021}},{"attributes":{"ID":60778,"DIS_CODE":0,"TOWNNAME":"東山區","LI":"大客里","LIN":"6鄰","STREET":" ","SECT":" ","MAREA":"大庄","LANE":" ","ALLEY":" ","HOUSE_NO":"３８號之１","E_COORD97":189678.92000000001,"N_COORD97":2578952.8700000001,"ADDRESS":"大庄３８號之１","OBJECTID":60778},"geometry":{"x":189678.92000000086,"y":2578952.870000001}},{"attributes":{"ID":60779,"DIS_CODE":0,"TOWNNAME":"永康區","LI":"北灣里","LIN":"35鄰","STREET":"大灣路","SECT":" ","MAREA":" ","LANE":"４０巷","ALLEY":"５８弄","HOUSE_NO":"３號之１","E_COORD97":175094.70000000001,"N_COORD97":2546112.4199999999,"ADDRESS":"大灣路４０巷５８弄３號之１","OBJECTID":60779},"geometry":{"x":175094.70000000205,"y":2546112.4199999999}},{"attributes":{"ID":60780,"DIS_CODE":0,"TOWNNAME":"東山區","LI":"大客里","LIN":"6鄰","STREET":" ","SECT":" ","MAREA":"大庄","LANE":" ","ALLEY":" ","HOUSE_NO":"３９號","E_COORD97":189698.47,"N_COORD97":2578980.79,"ADDRESS":"大庄３９號","OBJECTID":60780},"geometry":{"x":189698.47000000067,"y":2578980.790000001}},{"attributes":{"ID":60781,"DIS_CODE":0,"TOWNNAME":"關廟區","LI":"深坑里","LIN":"1鄰","STREET":"南雄路","SECT":"一段","MAREA":" ","LANE":"２６６巷","ALLEY":" ","HOUSE_NO":"３０號","E_COORD97":181916.57000000001,"N_COORD97":2537444.2999999998,"ADDRESS":"南雄路一段２６６巷３０號","OBJECTID":60781},"geometry":{"x":181916.5700000003,"y":2537444.3000000007}},{"attributes":{"ID":60782,"DIS_CODE":0,"TOWNNAME":"關廟區","LI":"深坑里","LIN":"1鄰","STREET":"南雄路","SECT":"一段","MAREA":" ","LANE":"２６６巷","ALLEY":" ","HOUSE_NO":"４０號","E_COORD97":181906.97,"N_COORD97":2537459.2999999998,"ADDRESS":"南雄路一段２６６巷４０號","OBJECTID":60782},"geometry":{"x":181906.9700000016,"y":2537459.3000000045}},{"attributes":{"ID":60783,"DIS_CODE":0,"TOWNNAME":"關廟區","LI":"深坑里","LIN":"1鄰","STREET":"南雄路","SECT":"一段","MAREA":" ","LANE":" ","ALLEY":" ","HOUSE_NO":"１７８號","E_COORD97":182007.12,"N_COORD97":2537216.2999999998,"ADDRESS":"南雄路一段１７８號","OBJECTID":60783},"geometry":{"x":182007.12000000104,"y":2537216.3000000026}},{"attributes":{"ID":60784,"DIS_CODE":0,"TOWNNAME":"關廟區","LI":"深坑里","LIN":"1鄰","STREET":"南雄路","SECT":"一段","MAREA":" ","LANE":" ","ALLEY":" ","HOUSE_NO":"１８２號","E_COORD97":182003.62,"N_COORD97":2537222.2999999998,"ADDRESS":"南雄路一段１８２號","OBJECTID":60784},"geometry":{"x":182003.62000000104,"y":2537222.3000000026}},{"attributes":{"ID":60785,"DIS_CODE":0,"TOWNNAME":"關廟區","LI":"深坑里","LIN":"1鄰","STREET":"南雄路","SECT":"一段","MAREA":" ","LANE":" ","ALLEY":" ","HOUSE_NO":"１９６號","E_COORD97":181991.72,"N_COORD97":2537242.2999999998,"ADDRESS":"南雄路一段１９６號","OBJECTID":60785},"geometry":{"x":181991.7200000016,"y":2537242.3000000045}},{"attributes":{"ID":60786,"DIS_CODE":0,"TOWNNAME":"永康區","LI":"龍潭里","LIN":"35鄰","STREET":"自強路","SECT":" ","MAREA":" ","LANE":"７５０巷","ALLEY":"６９弄","HOUSE_NO":"２１號","E_COORD97":174566.47,"N_COORD97":2548532.3500000001,"ADDRESS":"自強路７５０巷６９弄２１號","OBJECTID":60786},"geometry":{"x":174566.46999999974,"y":2548532.3500000015}},{"attributes":{"ID":60787,"DIS_CODE":0,"TOWNNAME":"永康區","LI":"北灣里","LIN":"35鄰","STREET":"大灣路","SECT":" ","MAREA":" ","LANE":"４０巷","ALLEY":"５８弄","HOUSE_NO":"９號之１","E_COORD97":175082.25,"N_COORD97":2546124.6699999999,"ADDRESS":"大灣路４０巷５８弄９號之１","OBJECTID":60787},"geometry":{"x":175082.25000000186,"y":2546124.6699999999}},{"attributes":{"ID":60788,"DIS_CODE":0,"TOWNNAME":"永康區","LI":"埔園里","LIN":"35鄰","STREET":"永大路","SECT":"三段","MAREA":" ","LANE":"４５０巷","ALLEY":"２弄","HOUSE_NO":"１５號","E_COORD97":174176.70000000001,"N_COORD97":2548352.25,"ADDRESS":"永大路三段４５０巷２弄１５號","OBJECTID":60788},"geometry":{"x":174176.70000000019,"y":2548352.2500000037}},{"attributes":{"ID":60789,"DIS_CODE":0,"TOWNNAME":"永康區","LI":"崑山里","LIN":"35鄰","STREET":"大灣路","SECT":" ","MAREA":" ","LANE":"９４２巷","ALLEY":"２７１弄","HOUSE_NO":"８號","E_COORD97":173771.60000000001,"N_COORD97":2545049.7400000002,"ADDRESS":"大灣路９４２巷２７１弄８號","OBJECTID":60789},"geometry":{"x":173771.60000000056,"y":2545049.7400000002}},{"attributes":{"ID":60790,"DIS_CODE":0,"TOWNNAME":"永康區","LI":"永康里","LIN":"36鄰","STREET":"永平街","SECT":" ","MAREA":" ","LANE":"５６巷","ALLEY":"１弄","HOUSE_NO":"１號","E_COORD97":174374.20999999999,"N_COORD97":2546836.1800000002,"ADDRESS":"永平街５６巷１弄１號","OBJECTID":60790},"geometry":{"x":174374.21000000089,"y":2546836.1799999997}},{"attributes":{"ID":60791,"DIS_CODE":0,"TOWNNAME":"永康區","LI":"埔園里","LIN":"35鄰","STREET":"永大路","SECT":"三段","MAREA":" ","LANE":"４５０巷","ALLEY":"２弄","HOUSE_NO":"９號","E_COORD97":174175.20000000001,"N_COORD97":2548365.75,"ADDRESS":"永大路三段４５０巷２弄９號","OBJECTID":60791},"geometry":{"x":174175.20000000019,"y":2548365.7500000037}},{"attributes":{"ID":60792,"DIS_CODE":0,"TOWNNAME":"永康區","LI":"埔園里","LIN":"35鄰","STREET":"永大路","SECT":"三段","MAREA":" ","LANE":"４５０巷","ALLEY":"２弄","HOUSE_NO":"３２號","E_COORD97":174150.17999999999,"N_COORD97":2548338.7400000002,"ADDRESS":"永大路三段４５０巷２弄３２號","OBJECTID":60792},"geometry":{"x":174150.18000000063,"y":2548338.7400000039}},{"attributes":{"ID":60793,"DIS_CODE":0,"TOWNNAME":"永康區","LI":"埔園里","LIN":"35鄰","STREET":"永大路","SECT":"三段","MAREA":" ","LANE":"４５０巷","ALLEY":"２弄","HOUSE_NO":"１０號","E_COORD97":174148.22,"N_COORD97":2548380.75,"ADDRESS":"永大路三段４５０巷２弄１０號","OBJECTID":60793},"geometry":{"x":174148.2200000016,"y":2548380.7500000019}},{"attributes":{"ID":60794,"DIS_CODE":0,"TOWNNAME":"仁德區","LI":"後壁里","LIN":"35鄰","STREET":"德洋路","SECT":" ","MAREA":" ","LANE":"１８３巷","ALLEY":"２弄","HOUSE_NO":"２１號","E_COORD97":172438.01000000001,"N_COORD97":2539453.0099999998,"ADDRESS":"德洋路１８３巷２弄２１號","OBJECTID":60794},"geometry":{"x":172438.01000000071,"y":2539453.0099999998}},{"attributes":{"ID":60795,"DIS_CODE":0,"TOWNNAME":"仁德區","LI":"後壁里","LIN":"35鄰","STREET":"德洋路","SECT":" ","MAREA":" ","LANE":"１８３巷","ALLEY":"２弄","HOUSE_NO":"１６號","E_COORD97":172455.57000000001,"N_COORD97":2539447.7599999998,"ADDRESS":"德洋路１８３巷２弄１６號","OBJECTID":60795},"geometry":{"x":172455.5700000003,"y":2539447.7599999998}},{"attributes":{"ID":60796,"DIS_CODE":0,"TOWNNAME":"仁德區","LI":"後壁里","LIN":"35鄰","STREET":"德洋路","SECT":" ","MAREA":" ","LANE":"１８３巷","ALLEY":"２弄","HOUSE_NO":"１號","E_COORD97":172461.73000000001,"N_COORD97":2539415.5099999998,"ADDRESS":"德洋路１８３巷２弄１號","OBJECTID":60796},"geometry":{"x":172461.73000000045,"y":2539415.5099999998}},{"attributes":{"ID":60797,"DIS_CODE":0,"TOWNNAME":"仁德區","LI":"後壁里","LIN":"35鄰","STREET":"德洋路","SECT":" ","MAREA":" ","LANE":"１８３巷","ALLEY":"２弄","HOUSE_NO":"１３號","E_COORD97":172447.35999999999,"N_COORD97":2539438.0099999998,"ADDRESS":"德洋路１８３巷２弄１３號","OBJECTID":60797},"geometry":{"x":172447.3599999994,"y":2539438.0100000016}},{"attributes":{"ID":60798,"DIS_CODE":0,"TOWNNAME":"仁德區","LI":"後壁里","LIN":"35鄰","STREET":"德洋路","SECT":" ","MAREA":" ","LANE":"１８３巷","ALLEY":"２弄","HOUSE_NO":"７號","E_COORD97":172454.14999999999,"N_COORD97":2539426.5099999998,"ADDRESS":"德洋路１８３巷２弄７號","OBJECTID":60798},"geometry":{"x":172454.15000000224,"y":2539426.5100000035}},{"attributes":{"ID":60799,"DIS_CODE":0,"TOWNNAME":"關廟區","LI":"埤頭里","LIN":"1鄰","STREET":"關新路","SECT":"一段","MAREA":" ","LANE":" ","ALLEY":" ","HOUSE_NO":"７３３號","E_COORD97":179126.07000000001,"N_COORD97":2543670.2999999998,"ADDRESS":"關新路一段７３３號","OBJECTID":60799},"geometry":{"x":179126.0700000003,"y":2543670.3000000045}},{"attributes":{"ID":60800,"DIS_CODE":0,"TOWNNAME":"關廟區","LI":"埤頭里","LIN":"1鄰","STREET":"關新路","SECT":"一段","MAREA":" ","LANE":" ","ALLEY":" ","HOUSE_NO":"６９２號","E_COORD97":179175.57000000001,"N_COORD97":2543555.2999999998,"ADDRESS":"關新路一段６９２號","OBJECTID":60800},"geometry":{"x":179175.5700000003,"y":2543555.3000000045}}]}