{"displayFieldName":"TOWNNAME","fieldAliases":{"ID":"ID","DIS_CODE":"DIS_CODE","TOWNNAME":"TOWNNAME","LI":"LI","LIN":"LIN","STREET":"STREET","SECT":"SECT","MAREA":"MAREA","LANE":"LANE","ALLEY":"ALLEY","HOUSE_NO":"HOUSE_NO","E_COORD97":"E_COORD97","N_COORD97":"N_COORD97","ADDRESS":"ADDRESS","OBJECTID":"OBJECTID"},"geometryType":"esriGeometryPoint","spatialReference":{"wkid":102443,"latestWkid":3826},"fields":[{"name":"ID","type":"esriFieldTypeDouble","alias":"ID"},{"name":"DIS_CODE","type":"esriFieldTypeInteger","alias":"DIS_CODE"},{"name":"TOWNNAME","type":"esriFieldTypeString","alias":"TOWNNAME","length":8},{"name":"LI","type":"esriFieldTypeString","alias":"LI","length":8},{"name":"LIN","type":"esriFieldTypeString","alias":"LIN","length":12},{"name":"STREET","type":"esriFieldTypeString","alias":"STREET","length":20},{"name":"SECT","type":"esriFieldTypeString","alias":"SECT","length":8},{"name":"MAREA","type":"esriFieldTypeString","alias":"MAREA","length":12},{"name":"LANE","type":"esriFieldTypeString","alias":"LANE","length":10},{"name":"ALLEY","type":"esriFieldTypeString","alias":"ALLEY","length":10},{"name":"HOUSE_NO","type":"esriFieldTypeString","alias":"HOUSE_NO","length":20},{"name":"E_COORD97","type":"esriFieldTypeDouble","alias":"E_COORD97"},{"name":"N_COORD97","type":"esriFieldTypeDouble","alias":"N_COORD97"},{"name":"ADDRESS","type":"esriFieldTypeString","alias":"ADDRESS","length":50},{"name":"OBJECTID","type":"esriFieldTypeOID","alias":"OBJECTID"}],"features":[{"attributes":{"ID":514428,"DIS_CODE":0,"TOWNNAME":"安南區","LI":"總頭里","LIN":"1鄰","STREET":"長溪路","SECT":"二段","MAREA":" ","LANE":" ","ALLEY":" ","HOUSE_NO":"５０４號","E_COORD97":168262.48000000001,"N_COORD97":2550450.3399999999,"ADDRESS":"長溪路二段５０４號","OBJECTID":514401},"geometry":{"x":168262.48000000045,"y":2550450.3400000017}},{"attributes":{"ID":514429,"DIS_CODE":0,"TOWNNAME":"安南區","LI":"總頭里","LIN":"1鄰","STREET":"長溪路","SECT":"二段","MAREA":" ","LANE":" ","ALLEY":" ","HOUSE_NO":"５１６號","E_COORD97":168265.64999999999,"N_COORD97":2550470.3199999998,"ADDRESS":"長溪路二段５１６號","OBJECTID":514402},"geometry":{"x":168265.6500000013,"y":2550470.3200000003}},{"attributes":{"ID":514430,"DIS_CODE":0,"TOWNNAME":"安南區","LI":"總頭里","LIN":"1鄰","STREET":"長溪路","SECT":"二段","MAREA":" ","LANE":" ","ALLEY":" ","HOUSE_NO":"５２２號","E_COORD97":168262.48000000001,"N_COORD97":2550483.4100000001,"ADDRESS":"長溪路二段５２２號","OBJECTID":514403},"geometry":{"x":168262.48000000045,"y":2550483.4100000001}},{"attributes":{"ID":514431,"DIS_CODE":0,"TOWNNAME":"安南區","LI":"理想里","LIN":"1鄰","STREET":"海佃路","SECT":"二段","MAREA":" ","LANE":" ","ALLEY":" ","HOUSE_NO":"３６２號之６","E_COORD97":166847.88,"N_COORD97":2548671.2400000002,"ADDRESS":"海佃路二段３６２號之６","OBJECTID":514404},"geometry":{"x":166847.88000000082,"y":2548671.2400000039}},{"attributes":{"ID":514432,"DIS_CODE":0,"TOWNNAME":"安南區","LI":"\u25A0南里","LIN":"1鄰","STREET":"環福街","SECT":" ","MAREA":" ","LANE":" ","ALLEY":" ","HOUSE_NO":"９０號之５","E_COORD97":170457.78,"N_COORD97":2552411.6000000001,"ADDRESS":"環福街９０號之５","OBJECTID":514405},"geometry":{"x":170457.78000000212,"y":2552411.6000000015}},{"attributes":{"ID":514433,"DIS_CODE":0,"TOWNNAME":"安南區","LI":"梅花里","LIN":"1鄰","STREET":"北安路","SECT":"二段","MAREA":" ","LANE":" ","ALLEY":" ","HOUSE_NO":"３２５號之３","E_COORD97":168378.09,"N_COORD97":2548316.3300000001,"ADDRESS":"北安路二段３２５號之３","OBJECTID":514406},"geometry":{"x":168378.08999999985,"y":2548316.3300000001}},{"attributes":{"ID":514434,"DIS_CODE":0,"TOWNNAME":"安南區","LI":"州南里","LIN":"1鄰","STREET":"安和路","SECT":"四段","MAREA":" ","LANE":" ","ALLEY":" ","HOUSE_NO":"４０４號","E_COORD97":169955.73000000001,"N_COORD97":2551042.9300000002,"ADDRESS":"安和路四段４０４號","OBJECTID":514407},"geometry":{"x":169955.73000000045,"y":2551042.9300000016}},{"attributes":{"ID":514435,"DIS_CODE":0,"TOWNNAME":"安南區","LI":"溪心里","LIN":"1鄰","STREET":"海佃路","SECT":"二段","MAREA":" ","LANE":" ","ALLEY":" ","HOUSE_NO":"６９７號","E_COORD97":166420.94,"N_COORD97":2549624.6600000001,"ADDRESS":"海佃路二段６９７號","OBJECTID":514408},"geometry":{"x":166420.94000000134,"y":2549624.660000002}},{"attributes":{"ID":514436,"DIS_CODE":0,"TOWNNAME":"安南區","LI":"溪心里","LIN":"1鄰","STREET":"海佃路","SECT":"二段","MAREA":" ","LANE":" ","ALLEY":" ","HOUSE_NO":"６９９號","E_COORD97":166420.57999999999,"N_COORD97":2549629.8399999999,"ADDRESS":"海佃路二段６９９號","OBJECTID":514409},"geometry":{"x":166420.58000000007,"y":2549629.8400000017}},{"attributes":{"ID":514437,"DIS_CODE":0,"TOWNNAME":"南區","LI":"大忠里","LIN":"16鄰","STREET":"公英七街","SECT":" ","MAREA":" ","LANE":" ","ALLEY":" ","HOUSE_NO":"８號","E_COORD97":169419.06,"N_COORD97":2541078.4500000002,"ADDRESS":"公英七街８號","OBJECTID":514410},"geometry":{"x":169419.05999999959,"y":2541078.4500000011}},{"attributes":{"ID":514438,"DIS_CODE":0,"TOWNNAME":"安南區","LI":"理想里","LIN":"1鄰","STREET":"同安路","SECT":" ","MAREA":" ","LANE":" ","ALLEY":" ","HOUSE_NO":"３８號","E_COORD97":166854.34,"N_COORD97":2548852.52,"ADDRESS":"同安路３８號","OBJECTID":514411},"geometry":{"x":166854.33999999985,"y":2548852.5200000014}},{"attributes":{"ID":514439,"DIS_CODE":0,"TOWNNAME":"安南區","LI":"理想里","LIN":"1鄰","STREET":"同安路","SECT":" ","MAREA":" ","LANE":" ","ALLEY":" ","HOUSE_NO":"４２號","E_COORD97":166862.42999999999,"N_COORD97":2548856.6699999999,"ADDRESS":"同安路４２號","OBJECTID":514412},"geometry":{"x":166862.43000000156,"y":2548856.6699999999}},{"attributes":{"ID":514440,"DIS_CODE":0,"TOWNNAME":"安南區","LI":"理想里","LIN":"1鄰","STREET":"同安路","SECT":" ","MAREA":" ","LANE":" ","ALLEY":" ","HOUSE_NO":"６６號","E_COORD97":166908.10999999999,"N_COORD97":2548882.6600000001,"ADDRESS":"同安路６６號","OBJECTID":514413},"geometry":{"x":166908.11000000127,"y":2548882.660000002}},{"attributes":{"ID":514441,"DIS_CODE":0,"TOWNNAME":"安南區","LI":"新順里","LIN":"1鄰","STREET":"安豐五街","SECT":" ","MAREA":" ","LANE":" ","ALLEY":" ","HOUSE_NO":"５號","E_COORD97":169443.97,"N_COORD97":2549730.4100000001,"ADDRESS":"安豐五街５號","OBJECTID":514414},"geometry":{"x":169443.9700000016,"y":2549730.4100000001}},{"attributes":{"ID":514442,"DIS_CODE":0,"TOWNNAME":"安南區","LI":"新順里","LIN":"1鄰","STREET":"安豐五街","SECT":" ","MAREA":" ","LANE":" ","ALLEY":" ","HOUSE_NO":"７號","E_COORD97":169460.48000000001,"N_COORD97":2549715.6000000001,"ADDRESS":"安豐五街７號","OBJECTID":514415},"geometry":{"x":169460.48000000138,"y":2549715.6000000034}},{"attributes":{"ID":514443,"DIS_CODE":0,"TOWNNAME":"安南區","LI":"梅花里","LIN":"1鄰","STREET":"北安路","SECT":"二段","MAREA":" ","LANE":" ","ALLEY":" ","HOUSE_NO":"３６３號之３","E_COORD97":168311.145621,"N_COORD97":2548513.8865999999,"ADDRESS":"北安路二段３６３號之３","OBJECTID":514416},"geometry":{"x":168311.14562100079,"y":2548513.8866039999}},{"attributes":{"ID":514444,"DIS_CODE":0,"TOWNNAME":"安南區","LI":"原佃里","LIN":"1鄰","STREET":"怡安路","SECT":"二段","MAREA":" ","LANE":" ","ALLEY":" ","HOUSE_NO":"４６２號","E_COORD97":167755.95999999999,"N_COORD97":2549430.7599999998,"ADDRESS":"怡安路二段４６２號","OBJECTID":514417},"geometry":{"x":167755.96000000183,"y":2549430.7600000016}},{"attributes":{"ID":514445,"DIS_CODE":0,"TOWNNAME":"安南區","LI":"溪頂里","LIN":"1鄰","STREET":"惠安街","SECT":" ","MAREA":" ","LANE":" ","ALLEY":" ","HOUSE_NO":"２５號","E_COORD97":169067.22,"N_COORD97":2547468.4399999999,"ADDRESS":"惠安街２５號","OBJECTID":514418},"geometry":{"x":169067.21999999974,"y":2547468.4399999995}},{"attributes":{"ID":514446,"DIS_CODE":0,"TOWNNAME":"安南區","LI":"梅花里","LIN":"1鄰","STREET":"北安路","SECT":"二段","MAREA":" ","LANE":" ","ALLEY":" ","HOUSE_NO":"３０５號之５","E_COORD97":168415.31,"N_COORD97":2548142.2999999998,"ADDRESS":"北安路二段３０５號之５","OBJECTID":514419},"geometry":{"x":168415.30999999959,"y":2548142.3000000045}},{"attributes":{"ID":514447,"DIS_CODE":0,"TOWNNAME":"安南區","LI":"城北里","LIN":"1鄰","STREET":"城北路","SECT":" ","MAREA":" ","LANE":" ","ALLEY":" ","HOUSE_NO":"３８號","E_COORD97":160918.04999999999,"N_COORD97":2551506.6099999999,"ADDRESS":"城北路３８號","OBJECTID":514420},"geometry":{"x":160918.04999999981,"y":2551506.6100000013}},{"attributes":{"ID":514448,"DIS_CODE":0,"TOWNNAME":"安南區","LI":"城北里","LIN":"1鄰","STREET":"城北路","SECT":" ","MAREA":" ","LANE":" ","ALLEY":" ","HOUSE_NO":"４０號","E_COORD97":160922.92000000001,"N_COORD97":2551509.25,"ADDRESS":"城北路４０號","OBJECTID":514421},"geometry":{"x":160922.92000000086,"y":2551509.2500000019}},{"attributes":{"ID":514449,"DIS_CODE":0,"TOWNNAME":"安南區","LI":"梅花里","LIN":"1鄰","STREET":"安中路","SECT":"一段","MAREA":" ","LANE":" ","ALLEY":" ","HOUSE_NO":"６１７號之３","E_COORD97":167695.39999999999,"N_COORD97":2549163.7000000002,"ADDRESS":"安中路一段６１７號之３","OBJECTID":514422},"geometry":{"x":167695.40000000037,"y":2549163.6999999993}},{"attributes":{"ID":514450,"DIS_CODE":0,"TOWNNAME":"安南區","LI":"溪心里","LIN":"1鄰","STREET":"安中路","SECT":"三段","MAREA":" ","LANE":" ","ALLEY":" ","HOUSE_NO":"１３號","E_COORD97":166325.54999999999,"N_COORD97":2549731.3500000001,"ADDRESS":"安中路三段１３號","OBJECTID":514423},"geometry":{"x":166325.54999999981,"y":2549731.3500000015}},{"attributes":{"ID":514451,"DIS_CODE":0,"TOWNNAME":"安南區","LI":"新順里","LIN":"1鄰","STREET":"培安二街","SECT":" ","MAREA":" ","LANE":" ","ALLEY":" ","HOUSE_NO":"４號","E_COORD97":169396.81,"N_COORD97":2549614.8999999999,"ADDRESS":"培安二街４號","OBJECTID":514424},"geometry":{"x":169396.80999999959,"y":2549614.9000000004}},{"attributes":{"ID":514452,"DIS_CODE":0,"TOWNNAME":"安南區","LI":"新順里","LIN":"1鄰","STREET":"培安二街","SECT":" ","MAREA":" ","LANE":" ","ALLEY":" ","HOUSE_NO":"６號","E_COORD97":169396.23999999999,"N_COORD97":2549620.0299999998,"ADDRESS":"培安二街６號","OBJECTID":514425},"geometry":{"x":169396.24000000022,"y":2549620.0299999993}},{"attributes":{"ID":514453,"DIS_CODE":0,"TOWNNAME":"安南區","LI":"新順里","LIN":"1鄰","STREET":"培安二街","SECT":" ","MAREA":" ","LANE":" ","ALLEY":" ","HOUSE_NO":"１０號","E_COORD97":169395.95000000001,"N_COORD97":2549630.02,"ADDRESS":"培安二街１０號","OBJECTID":514426},"geometry":{"x":169395.95000000112,"y":2549630.0199999996}},{"attributes":{"ID":514454,"DIS_CODE":0,"TOWNNAME":"安南區","LI":"安順里","LIN":"1鄰","STREET":"總安街","SECT":"一段","MAREA":" ","LANE":" ","ALLEY":" ","HOUSE_NO":"３９號","E_COORD97":169853.22,"N_COORD97":2550092.7400000002,"ADDRESS":"總安街一段３９號","OBJECTID":514427},"geometry":{"x":169853.22000000067,"y":2550092.7400000021}},{"attributes":{"ID":514455,"DIS_CODE":0,"TOWNNAME":"安南區","LI":"安順里","LIN":"1鄰","STREET":"總安街","SECT":"一段","MAREA":" ","LANE":" ","ALLEY":" ","HOUSE_NO":"４１號","E_COORD97":169848.66,"N_COORD97":2550092.7400000002,"ADDRESS":"總安街一段４１號","OBJECTID":514428},"geometry":{"x":169848.66000000108,"y":2550092.7400000021}},{"attributes":{"ID":514456,"DIS_CODE":0,"TOWNNAME":"安南區","LI":"安順里","LIN":"1鄰","STREET":"總安街","SECT":"一段","MAREA":" ","LANE":" ","ALLEY":" ","HOUSE_NO":"４３號","E_COORD97":169843.79999999999,"N_COORD97":2550092.5899999999,"ADDRESS":"總安街一段４３號","OBJECTID":514429},"geometry":{"x":169843.80000000075,"y":2550092.5900000017}},{"attributes":{"ID":514457,"DIS_CODE":0,"TOWNNAME":"東區","LI":"崇文里","LIN":"1鄰","STREET":"崇德十五街","SECT":" ","MAREA":" ","LANE":" ","ALLEY":" ","HOUSE_NO":"４８號","E_COORD97":170963.73999999999,"N_COORD97":2541175.1699999999,"ADDRESS":"崇德十五街４８號","OBJECTID":514430},"geometry":{"x":170963.74000000115,"y":2541175.1700000037}},{"attributes":{"ID":514458,"DIS_CODE":0,"TOWNNAME":"東區","LI":"崇文里","LIN":"1鄰","STREET":"崇德十五街","SECT":" ","MAREA":" ","LANE":" ","ALLEY":" ","HOUSE_NO":"４８號地下層","E_COORD97":170959.75,"N_COORD97":2541175.5699999998,"ADDRESS":"崇德十五街４８號地下層","OBJECTID":514431},"geometry":{"x":170959.75000000093,"y":2541175.5700000003}},{"attributes":{"ID":514459,"DIS_CODE":0,"TOWNNAME":"東區","LI":"崇文里","LIN":"1鄰","STREET":"崇德十五街","SECT":" ","MAREA":" ","LANE":" ","ALLEY":" ","HOUSE_NO":"７２號","E_COORD97":171010.39999999999,"N_COORD97":2541170.8900000001,"ADDRESS":"崇德十五街７２號","OBJECTID":514432},"geometry":{"x":171010.4000000013,"y":2541170.8900000043}},{"attributes":{"ID":514460,"DIS_CODE":0,"TOWNNAME":"東區","LI":"崇文里","LIN":"1鄰","STREET":"崇德十五街","SECT":" ","MAREA":" ","LANE":" ","ALLEY":" ","HOUSE_NO":"７４號","E_COORD97":171014.38,"N_COORD97":2541170.79,"ADDRESS":"崇德十五街７４號","OBJECTID":514433},"geometry":{"x":171014.37999999896,"y":2541170.790000001}},{"attributes":{"ID":514461,"DIS_CODE":0,"TOWNNAME":"東區","LI":"崇文里","LIN":"1鄰","STREET":"崇德十五街","SECT":" ","MAREA":" ","LANE":" ","ALLEY":" ","HOUSE_NO":"７８號地下層","E_COORD97":171024.73000000001,"N_COORD97":2541179.0499999998,"ADDRESS":"崇德十五街７８號地下層","OBJECTID":514434},"geometry":{"x":171024.73000000138,"y":2541179.0500000007}},{"attributes":{"ID":514462,"DIS_CODE":0,"TOWNNAME":"東區","LI":"崇文里","LIN":"1鄰","STREET":"崇德十五街","SECT":" ","MAREA":" ","LANE":" ","ALLEY":" ","HOUSE_NO":"８２號","E_COORD97":171032.31,"N_COORD97":2541182.4500000002,"ADDRESS":"崇德十五街８２號","OBJECTID":514435},"geometry":{"x":171032.31000000052,"y":2541182.4499999974}},{"attributes":{"ID":514463,"DIS_CODE":0,"TOWNNAME":"東區","LI":"崇文里","LIN":"1鄰","STREET":"崇德十五街","SECT":" ","MAREA":" ","LANE":" ","ALLEY":" ","HOUSE_NO":"８６號","E_COORD97":171040.32000000001,"N_COORD97":2541185.3999999999,"ADDRESS":"崇德十五街８６號","OBJECTID":514436},"geometry":{"x":171040.3200000003,"y":2541185.4000000022}},{"attributes":{"ID":514464,"DIS_CODE":0,"TOWNNAME":"東區","LI":"崇文里","LIN":"1鄰","STREET":"崇德十五街","SECT":" ","MAREA":" ","LANE":" ","ALLEY":" ","HOUSE_NO":"９０號","E_COORD97":171049.38,"N_COORD97":2541186.6600000001,"ADDRESS":"崇德十五街９０號","OBJECTID":514437},"geometry":{"x":171049.37999999989,"y":2541186.660000002}},{"attributes":{"ID":514465,"DIS_CODE":0,"TOWNNAME":"中西區","LI":"保安里","LIN":"1鄰","STREET":"友愛街","SECT":" ","MAREA":" ","LANE":" ","ALLEY":" ","HOUSE_NO":"１７３號","E_COORD97":167778.41,"N_COORD97":2543586.7200000002,"ADDRESS":"友愛街１７３號","OBJECTID":514438},"geometry":{"x":167778.41000000201,"y":2543586.7200000025}},{"attributes":{"ID":514466,"DIS_CODE":0,"TOWNNAME":"中西區","LI":"保安里","LIN":"1鄰","STREET":"友愛街","SECT":" ","MAREA":" ","LANE":" ","ALLEY":" ","HOUSE_NO":"１７５號","E_COORD97":167773.88,"N_COORD97":2543586.7200000002,"ADDRESS":"友愛街１７５號","OBJECTID":514439},"geometry":{"x":167773.88000000082,"y":2543586.7200000025}},{"attributes":{"ID":514467,"DIS_CODE":0,"TOWNNAME":"中西區","LI":"保安里","LIN":"1鄰","STREET":"友愛街","SECT":" ","MAREA":" ","LANE":" ","ALLEY":" ","HOUSE_NO":"１７７號","E_COORD97":167770.31,"N_COORD97":2543586.7200000002,"ADDRESS":"友愛街１７７號","OBJECTID":514440},"geometry":{"x":167770.31000000052,"y":2543586.7200000025}},{"attributes":{"ID":514468,"DIS_CODE":0,"TOWNNAME":"中西區","LI":"保安里","LIN":"1鄰","STREET":"友愛街","SECT":" ","MAREA":" ","LANE":" ","ALLEY":" ","HOUSE_NO":"１８１號","E_COORD97":167763.17000000001,"N_COORD97":2543588.8700000001,"ADDRESS":"友愛街１８１號","OBJECTID":514441},"geometry":{"x":167763.17000000086,"y":2543588.8700000048}},{"attributes":{"ID":514469,"DIS_CODE":0,"TOWNNAME":"中西區","LI":"保安里","LIN":"1鄰","STREET":"友愛街","SECT":" ","MAREA":" ","LANE":" ","ALLEY":" ","HOUSE_NO":"１８３號","E_COORD97":167759.35999999999,"N_COORD97":2543589.8199999998,"ADDRESS":"友愛街１８３號","OBJECTID":514442},"geometry":{"x":167759.36000000127,"y":2543589.8200000022}},{"attributes":{"ID":514470,"DIS_CODE":0,"TOWNNAME":"中西區","LI":"保安里","LIN":"1鄰","STREET":"友愛街","SECT":" ","MAREA":" ","LANE":" ","ALLEY":" ","HOUSE_NO":"１８５號","E_COORD97":167755.31,"N_COORD97":2543590.0600000001,"ADDRESS":"友愛街１８５號","OBJECTID":514443},"geometry":{"x":167755.31000000052,"y":2543590.0600000005}},{"attributes":{"ID":514471,"DIS_CODE":0,"TOWNNAME":"中西區","LI":"保安里","LIN":"1鄰","STREET":"友愛街","SECT":" ","MAREA":" ","LANE":" ","ALLEY":" ","HOUSE_NO":"１８７號","E_COORD97":167753.64000000001,"N_COORD97":2543594.8199999998,"ADDRESS":"友愛街１８７號","OBJECTID":514444},"geometry":{"x":167753.63999999966,"y":2543594.8200000003}},{"attributes":{"ID":514472,"DIS_CODE":0,"TOWNNAME":"中西區","LI":"保安里","LIN":"1鄰","STREET":"西門路","SECT":"二段","MAREA":" ","LANE":" ","ALLEY":" ","HOUSE_NO":"６１號","E_COORD97":167773.17000000001,"N_COORD97":2543562.6899999999,"ADDRESS":"西門路二段６１號","OBJECTID":514445},"geometry":{"x":167773.17000000086,"y":2543562.6900000013}},{"attributes":{"ID":514473,"DIS_CODE":0,"TOWNNAME":"中西區","LI":"保安里","LIN":"1鄰","STREET":"西門路","SECT":"二段","MAREA":" ","LANE":" ","ALLEY":" ","HOUSE_NO":"６３號","E_COORD97":167774.84,"N_COORD97":2543565.3100000001,"ADDRESS":"西門路二段６３號","OBJECTID":514446},"geometry":{"x":167774.83999999985,"y":2543565.3100000024}},{"attributes":{"ID":514474,"DIS_CODE":0,"TOWNNAME":"中西區","LI":"保安里","LIN":"1鄰","STREET":"西門路","SECT":"二段","MAREA":" ","LANE":" ","ALLEY":" ","HOUSE_NO":"６５號","E_COORD97":167775.07999999999,"N_COORD97":2543570.54,"ADDRESS":"西門路二段６５號","OBJECTID":514447},"geometry":{"x":167775.08000000007,"y":2543570.5399999991}},{"attributes":{"ID":514475,"DIS_CODE":0,"TOWNNAME":"中西區","LI":"保安里","LIN":"1鄰","STREET":"西門路","SECT":"二段","MAREA":" ","LANE":" ","ALLEY":" ","HOUSE_NO":"６７號","E_COORD97":167775.20999999999,"N_COORD97":2543573.3700000001,"ADDRESS":"西門路二段６７號","OBJECTID":514448},"geometry":{"x":167775.21000000089,"y":2543573.3700000029}},{"attributes":{"ID":514476,"DIS_CODE":0,"TOWNNAME":"中西區","LI":"保安里","LIN":"1鄰","STREET":"西門路","SECT":"二段","MAREA":" ","LANE":" ","ALLEY":" ","HOUSE_NO":"６９號","E_COORD97":167775.82999999999,"N_COORD97":2543577.0800000001,"ADDRESS":"西門路二段６９號","OBJECTID":514449},"geometry":{"x":167775.83000000101,"y":2543577.0800000019}},{"attributes":{"ID":514477,"DIS_CODE":0,"TOWNNAME":"中西區","LI":"保安里","LIN":"1鄰","STREET":"西門路","SECT":"二段","MAREA":" ","LANE":" ","ALLEY":" ","HOUSE_NO":"７１號","E_COORD97":167776.73999999999,"N_COORD97":2543580.2999999998,"ADDRESS":"西門路二段７１號","OBJECTID":514450},"geometry":{"x":167776.74000000115,"y":2543580.3000000026}},{"attributes":{"ID":514478,"DIS_CODE":0,"TOWNNAME":"中西區","LI":"保安里","LIN":"1鄰","STREET":"西門路","SECT":"二段","MAREA":" ","LANE":" ","ALLEY":" ","HOUSE_NO":"７３號","E_COORD97":167782.22,"N_COORD97":2543582.9199999999,"ADDRESS":"西門路二段７３號","OBJECTID":514451},"geometry":{"x":167782.21999999974,"y":2543582.9199999999}},{"attributes":{"ID":514479,"DIS_CODE":0,"TOWNNAME":"中西區","LI":"保安里","LIN":"1鄰","STREET":"西門路","SECT":"二段","MAREA":" ","LANE":" ","ALLEY":" ","HOUSE_NO":"７５號","E_COORD97":167782.45999999999,"N_COORD97":2543588.1499999999,"ADDRESS":"西門路二段７５號","OBJECTID":514452},"geometry":{"x":167782.45999999996,"y":2543588.1500000004}},{"attributes":{"ID":514480,"DIS_CODE":0,"TOWNNAME":"中西區","LI":"保安里","LIN":"1鄰","STREET":"西門路","SECT":"二段","MAREA":" ","LANE":" ","ALLEY":" ","HOUSE_NO":"７７號","E_COORD97":167784.13,"N_COORD97":2543592.9100000001,"ADDRESS":"西門路二段７７號","OBJECTID":514453},"geometry":{"x":167784.13000000082,"y":2543592.9100000001}},{"attributes":{"ID":514481,"DIS_CODE":0,"TOWNNAME":"中西區","LI":"保安里","LIN":"1鄰","STREET":"友愛街","SECT":" ","MAREA":" ","LANE":" ","ALLEY":" ","HOUSE_NO":"１８９號","E_COORD97":167747.20999999999,"N_COORD97":2543591.7200000002,"ADDRESS":"友愛街１８９號","OBJECTID":514454},"geometry":{"x":167747.20999999996,"y":2543591.7200000007}},{"attributes":{"ID":514482,"DIS_CODE":0,"TOWNNAME":"中西區","LI":"保安里","LIN":"1鄰","STREET":"友愛街","SECT":" ","MAREA":" ","LANE":" ","ALLEY":" ","HOUSE_NO":"１９１號","E_COORD97":167741.97,"N_COORD97":2543592.9100000001,"ADDRESS":"友愛街１９１號","OBJECTID":514455},"geometry":{"x":167741.9700000016,"y":2543592.9100000001}},{"attributes":{"ID":514483,"DIS_CODE":0,"TOWNNAME":"中西區","LI":"保安里","LIN":"1鄰","STREET":"友愛街","SECT":" ","MAREA":" ","LANE":" ","ALLEY":" ","HOUSE_NO":"１９３號","E_COORD97":167738.87,"N_COORD97":2543595.77,"ADDRESS":"友愛街１９３號","OBJECTID":514456},"geometry":{"x":167738.87000000011,"y":2543595.7700000014}},{"attributes":{"ID":514484,"DIS_CODE":0,"TOWNNAME":"中西區","LI":"保安里","LIN":"1鄰","STREET":"友愛街","SECT":" ","MAREA":" ","LANE":" ","ALLEY":" ","HOUSE_NO":"１９５號","E_COORD97":167734.82000000001,"N_COORD97":2543596.7200000002,"ADDRESS":"友愛街１９５號","OBJECTID":514457},"geometry":{"x":167734.8200000003,"y":2543596.7200000025}},{"attributes":{"ID":514485,"DIS_CODE":0,"TOWNNAME":"中西區","LI":"保安里","LIN":"1鄰","STREET":"友愛街","SECT":" ","MAREA":" ","LANE":" ","ALLEY":" ","HOUSE_NO":"１９７號","E_COORD97":167730.54000000001,"N_COORD97":2543596.0099999998,"ADDRESS":"友愛街１９７號","OBJECTID":514458},"geometry":{"x":167730.54000000097,"y":2543596.0099999998}},{"attributes":{"ID":514486,"DIS_CODE":0,"TOWNNAME":"中西區","LI":"保安里","LIN":"1鄰","STREET":"友愛街","SECT":" ","MAREA":" ","LANE":" ","ALLEY":" ","HOUSE_NO":"１９９號","E_COORD97":167726.48999999999,"N_COORD97":2543597.4300000002,"ADDRESS":"友愛街１９９號","OBJECTID":514459},"geometry":{"x":167726.49000000022,"y":2543597.4300000034}},{"attributes":{"ID":514487,"DIS_CODE":0,"TOWNNAME":"佳里區","LI":"鎮山里","LIN":"1鄰","STREET":"延平路","SECT":" ","MAREA":" ","LANE":" ","ALLEY":" ","HOUSE_NO":"１０１號","E_COORD97":165920.10999999999,"N_COORD97":2561820.7200000002,"ADDRESS":"延平路１０１號","OBJECTID":514460},"geometry":{"x":165920.11000000127,"y":2561820.7200000025}},{"attributes":{"ID":514488,"DIS_CODE":0,"TOWNNAME":"佳里區","LI":"鎮山里","LIN":"1鄰","STREET":"延平路","SECT":" ","MAREA":" ","LANE":" ","ALLEY":" ","HOUSE_NO":"１０５號","E_COORD97":165916.54999999999,"N_COORD97":2561828.8399999999,"ADDRESS":"延平路１０５號","OBJECTID":514461},"geometry":{"x":165916.55000000075,"y":2561828.8400000017}},{"attributes":{"ID":514489,"DIS_CODE":0,"TOWNNAME":"佳里區","LI":"鎮山里","LIN":"1鄰","STREET":"延平路","SECT":" ","MAREA":" ","LANE":" ","ALLEY":" ","HOUSE_NO":"１０９號","E_COORD97":165912.62,"N_COORD97":2561841.1200000001,"ADDRESS":"延平路１０９號","OBJECTID":514462},"geometry":{"x":165912.62000000104,"y":2561841.1200000048}},{"attributes":{"ID":514490,"DIS_CODE":0,"TOWNNAME":"南區","LI":"大忠里","LIN":"14鄰","STREET":"公英五街","SECT":" ","MAREA":" ","LANE":" ","ALLEY":" ","HOUSE_NO":"４號","E_COORD97":169390.47,"N_COORD97":2541132.0499999998,"ADDRESS":"公英五街４號","OBJECTID":514463},"geometry":{"x":169390.47000000067,"y":2541132.0500000007}},{"attributes":{"ID":514491,"DIS_CODE":0,"TOWNNAME":"佳里區","LI":"鎮山里","LIN":"1鄰","STREET":"延平路","SECT":" ","MAREA":" ","LANE":" ","ALLEY":" ","HOUSE_NO":"１１１號","E_COORD97":165911.59,"N_COORD97":2561845.9399999999,"ADDRESS":"延平路１１１號","OBJECTID":514464},"geometry":{"x":165911.58999999985,"y":2561845.9399999995}},{"attributes":{"ID":514492,"DIS_CODE":0,"TOWNNAME":"佳里區","LI":"鎮山里","LIN":"1鄰","STREET":"延平路","SECT":" ","MAREA":" ","LANE":" ","ALLEY":" ","HOUSE_NO":"１１５號","E_COORD97":165909.60000000001,"N_COORD97":2561857.1600000001,"ADDRESS":"延平路１１５號","OBJECTID":514465},"geometry":{"x":165909.59999999963,"y":2561857.160000002}},{"attributes":{"ID":514493,"DIS_CODE":0,"TOWNNAME":"佳里區","LI":"鎮山里","LIN":"1鄰","STREET":"延平路","SECT":" ","MAREA":" ","LANE":" ","ALLEY":" ","HOUSE_NO":"１２５號","E_COORD97":165908.23999999999,"N_COORD97":2561885.9399999999,"ADDRESS":"延平路１２５號","OBJECTID":514466},"geometry":{"x":165908.24000000209,"y":2561885.9400000013}},{"attributes":{"ID":514494,"DIS_CODE":0,"TOWNNAME":"中西區","LI":"水仙里","LIN":"1鄰","STREET":"民生路","SECT":"二段","MAREA":" ","LANE":" ","ALLEY":" ","HOUSE_NO":"１２號","E_COORD97":167864.76999999999,"N_COORD97":2543928.6000000001,"ADDRESS":"民生路二段１２號","OBJECTID":514467},"geometry":{"x":167864.76999999955,"y":2543928.6000000015}},{"attributes":{"ID":514495,"DIS_CODE":0,"TOWNNAME":"中西區","LI":"水仙里","LIN":"1鄰","STREET":"民生路","SECT":"二段","MAREA":" ","LANE":" ","ALLEY":" ","HOUSE_NO":"１４號","E_COORD97":167860.42999999999,"N_COORD97":2543930.1600000001,"ADDRESS":"民生路二段１４號","OBJECTID":514468},"geometry":{"x":167860.4299999997,"y":2543930.1600000001}},{"attributes":{"ID":514496,"DIS_CODE":0,"TOWNNAME":"中西區","LI":"水仙里","LIN":"1鄰","STREET":"民生路","SECT":"二段","MAREA":" ","LANE":" ","ALLEY":" ","HOUSE_NO":"１６號","E_COORD97":167855.39999999999,"N_COORD97":2543931.3700000001,"ADDRESS":"民生路二段１６號","OBJECTID":514469},"geometry":{"x":167855.4000000013,"y":2543931.3700000048}},{"attributes":{"ID":514497,"DIS_CODE":0,"TOWNNAME":"中西區","LI":"水仙里","LIN":"1鄰","STREET":"民生路","SECT":"二段","MAREA":" ","LANE":" ","ALLEY":" ","HOUSE_NO":"１８號","E_COORD97":167845.76999999999,"N_COORD97":2543935.0099999998,"ADDRESS":"民生路二段１８號","OBJECTID":514470},"geometry":{"x":167845.76999999955,"y":2543935.0099999998}},{"attributes":{"ID":514498,"DIS_CODE":0,"TOWNNAME":"中西區","LI":"水仙里","LIN":"1鄰","STREET":"民生路","SECT":"二段","MAREA":" ","LANE":" ","ALLEY":" ","HOUSE_NO":"２０號","E_COORD97":167835.97,"N_COORD97":2543937.7799999998,"ADDRESS":"民生路二段２０號","OBJECTID":514471},"geometry":{"x":167835.97000000067,"y":2543937.7800000012}},{"attributes":{"ID":514499,"DIS_CODE":0,"TOWNNAME":"中西區","LI":"水仙里","LIN":"1鄰","STREET":"民生路","SECT":"二段","MAREA":" ","LANE":" ","ALLEY":" ","HOUSE_NO":"２２號","E_COORD97":167831.81,"N_COORD97":2543938.7400000002,"ADDRESS":"民生路二段２２號","OBJECTID":514472},"geometry":{"x":167831.81000000052,"y":2543938.7400000021}},{"attributes":{"ID":514500,"DIS_CODE":0,"TOWNNAME":"中西區","LI":"水仙里","LIN":"1鄰","STREET":"民生路","SECT":"二段","MAREA":" ","LANE":" ","ALLEY":" ","HOUSE_NO":"２６號","E_COORD97":167823.29999999999,"N_COORD97":2543941.4300000002,"ADDRESS":"民生路二段２６號","OBJECTID":514473},"geometry":{"x":167823.30000000075,"y":2543941.4299999997}},{"attributes":{"ID":514501,"DIS_CODE":0,"TOWNNAME":"中西區","LI":"水仙里","LIN":"1鄰","STREET":"民生路","SECT":"二段","MAREA":" ","LANE":" ","ALLEY":" ","HOUSE_NO":"２８號","E_COORD97":167818.26999999999,"N_COORD97":2543943.3300000001,"ADDRESS":"民生路二段２８號","OBJECTID":514474},"geometry":{"x":167818.27000000048,"y":2543943.3300000001}},{"attributes":{"ID":514502,"DIS_CODE":0,"TOWNNAME":"中西區","LI":"水仙里","LIN":"1鄰","STREET":"民生路","SECT":"二段","MAREA":" ","LANE":" ","ALLEY":" ","HOUSE_NO":"２號","E_COORD97":167887.66,"N_COORD97":2543920.5899999999,"ADDRESS":"民生路二段２號","OBJECTID":514475},"geometry":{"x":167887.66000000108,"y":2543920.5899999999}},{"attributes":{"ID":514503,"DIS_CODE":0,"TOWNNAME":"中西區","LI":"水仙里","LIN":"1鄰","STREET":"民生路","SECT":"二段","MAREA":" ","LANE":" ","ALLEY":" ","HOUSE_NO":"４號","E_COORD97":167883.23000000001,"N_COORD97":2543922.3100000001,"ADDRESS":"民生路二段４號","OBJECTID":514476},"geometry":{"x":167883.22999999952,"y":2543922.3100000024}},{"attributes":{"ID":514504,"DIS_CODE":0,"TOWNNAME":"中西區","LI":"水仙里","LIN":"1鄰","STREET":"民生路","SECT":"二段","MAREA":" ","LANE":" ","ALLEY":" ","HOUSE_NO":"６號","E_COORD97":167878.94,"N_COORD97":2543924.0299999998,"ADDRESS":"民生路二段６號","OBJECTID":514477},"geometry":{"x":167878.94000000134,"y":2543924.0299999993}},{"attributes":{"ID":514505,"DIS_CODE":0,"TOWNNAME":"中西區","LI":"水仙里","LIN":"1鄰","STREET":"民生路","SECT":"二段","MAREA":" ","LANE":" ","ALLEY":" ","HOUSE_NO":"８號","E_COORD97":167873.78,"N_COORD97":2543925.46,"ADDRESS":"民生路二段８號","OBJECTID":514478},"geometry":{"x":167873.78000000026,"y":2543925.4600000009}},{"attributes":{"ID":514506,"DIS_CODE":0,"TOWNNAME":"中西區","LI":"水仙里","LIN":"1鄰","STREET":"西門路","SECT":"二段","MAREA":" ","LANE":" ","ALLEY":" ","HOUSE_NO":"２０１號","E_COORD97":167893.39000000001,"N_COORD97":2543919.1600000001,"ADDRESS":"西門路二段２０１號","OBJECTID":514479},"geometry":{"x":167893.39000000153,"y":2543919.160000002}},{"attributes":{"ID":514507,"DIS_CODE":0,"TOWNNAME":"中西區","LI":"水仙里","LIN":"1鄰","STREET":"西門路","SECT":"二段","MAREA":" ","LANE":" ","ALLEY":" ","HOUSE_NO":"２０３號","E_COORD97":167895.67000000001,"N_COORD97":2543928.7400000002,"ADDRESS":"西門路二段２０３號","OBJECTID":514480},"geometry":{"x":167895.67000000086,"y":2543928.7400000021}},{"attributes":{"ID":514508,"DIS_CODE":0,"TOWNNAME":"中西區","LI":"水仙里","LIN":"1鄰","STREET":"西門路","SECT":"二段","MAREA":" ","LANE":" ","ALLEY":" ","HOUSE_NO":"２０５號","E_COORD97":167897.12,"N_COORD97":2543932.1800000002,"ADDRESS":"西門路二段２０５號","OBJECTID":514481},"geometry":{"x":167897.12000000011,"y":2543932.1800000016}},{"attributes":{"ID":514509,"DIS_CODE":0,"TOWNNAME":"下營區","LI":"新興里","LIN":"1鄰","STREET":"自由街","SECT":" ","MAREA":" ","LANE":" ","ALLEY":" ","HOUSE_NO":"１０２號","E_COORD97":174803.51999999999,"N_COORD97":2570883.8399999999,"ADDRESS":"自由街１０２號","OBJECTID":514482},"geometry":{"x":174803.51999999862,"y":2570883.8400000036}},{"attributes":{"ID":514510,"DIS_CODE":0,"TOWNNAME":"中西區","LI":"郡西里","LIN":"1鄰","STREET":"建安街","SECT":" ","MAREA":" ","LANE":" ","ALLEY":" ","HOUSE_NO":"７１號","E_COORD97":167410.97,"N_COORD97":2543251.1000000001,"ADDRESS":"建安街７１號","OBJECTID":514483},"geometry":{"x":167410.96999999974,"y":2543251.1000000015}},{"attributes":{"ID":514511,"DIS_CODE":0,"TOWNNAME":"中西區","LI":"郡西里","LIN":"1鄰","STREET":"建安街","SECT":" ","MAREA":" ","LANE":" ","ALLEY":" ","HOUSE_NO":"７３號","E_COORD97":167406.57999999999,"N_COORD97":2543250.73,"ADDRESS":"建安街７３號","OBJECTID":514484},"geometry":{"x":167406.58000000101,"y":2543250.7300000023}},{"attributes":{"ID":514512,"DIS_CODE":0,"TOWNNAME":"中西區","LI":"水仙里","LIN":"1鄰","STREET":"西門路","SECT":"二段","MAREA":" ","LANE":" ","ALLEY":" ","HOUSE_NO":"２０７號","E_COORD97":167897.67999999999,"N_COORD97":2543936.1800000002,"ADDRESS":"西門路二段２０７號","OBJECTID":514485},"geometry":{"x":167897.6799999997,"y":2543936.1800000016}},{"attributes":{"ID":514513,"DIS_CODE":0,"TOWNNAME":"中西區","LI":"水仙里","LIN":"1鄰","STREET":"西門路","SECT":"二段","MAREA":" ","LANE":" ","ALLEY":" ","HOUSE_NO":"２０９號","E_COORD97":167898.97,"N_COORD97":2543939.75,"ADDRESS":"西門路二段２０９號","OBJECTID":514486},"geometry":{"x":167898.96999999974,"y":2543939.75}},{"attributes":{"ID":514514,"DIS_CODE":0,"TOWNNAME":"中西區","LI":"水仙里","LIN":"1鄰","STREET":"西門路","SECT":"二段","MAREA":" ","LANE":" ","ALLEY":" ","HOUSE_NO":"２１１號","E_COORD97":167899.67999999999,"N_COORD97":2543944.1800000002,"ADDRESS":"西門路二段２１１號","OBJECTID":514487},"geometry":{"x":167899.6799999997,"y":2543944.1799999997}},{"attributes":{"ID":514515,"DIS_CODE":0,"TOWNNAME":"中西區","LI":"水仙里","LIN":"1鄰","STREET":"西門路","SECT":"二段","MAREA":" ","LANE":" ","ALLEY":" ","HOUSE_NO":"２１３號","E_COORD97":167898.97,"N_COORD97":2543948.3300000001,"ADDRESS":"西門路二段２１３號","OBJECTID":514488},"geometry":{"x":167898.96999999974,"y":2543948.3300000019}},{"attributes":{"ID":514516,"DIS_CODE":0,"TOWNNAME":"中西區","LI":"水仙里","LIN":"1鄰","STREET":"西門路","SECT":"二段","MAREA":" ","LANE":" ","ALLEY":" ","HOUSE_NO":"２１５號","E_COORD97":167898.97,"N_COORD97":2543952.1899999999,"ADDRESS":"西門路二段２１５號","OBJECTID":514489},"geometry":{"x":167898.96999999974,"y":2543952.1900000013}},{"attributes":{"ID":514517,"DIS_CODE":0,"TOWNNAME":"中西區","LI":"水仙里","LIN":"1鄰","STREET":"西門路","SECT":"二段","MAREA":" ","LANE":" ","ALLEY":" ","HOUSE_NO":"２１７號","E_COORD97":167900.10999999999,"N_COORD97":2543956.1899999999,"ADDRESS":"西門路二段２１７號","OBJECTID":514490},"geometry":{"x":167900.11000000127,"y":2543956.1900000013}},{"attributes":{"ID":514518,"DIS_CODE":0,"TOWNNAME":"中西區","LI":"水仙里","LIN":"1鄰","STREET":"西門路","SECT":"二段","MAREA":" ","LANE":" ","ALLEY":" ","HOUSE_NO":"２１９號","E_COORD97":167900.54000000001,"N_COORD97":2543959.3399999999,"ADDRESS":"西門路二段２１９號","OBJECTID":514491},"geometry":{"x":167900.54000000004,"y":2543959.3399999999}},{"attributes":{"ID":514519,"DIS_CODE":0,"TOWNNAME":"中西區","LI":"水仙里","LIN":"1鄰","STREET":"西門路","SECT":"二段","MAREA":" ","LANE":" ","ALLEY":" ","HOUSE_NO":"２２１號","E_COORD97":167901.82999999999,"N_COORD97":2543964.0600000001,"ADDRESS":"西門路二段２２１號","OBJECTID":514492},"geometry":{"x":167901.83000000007,"y":2543964.0600000024}},{"attributes":{"ID":514520,"DIS_CODE":0,"TOWNNAME":"中西區","LI":"水仙里","LIN":"1鄰","STREET":"西門路","SECT":"二段","MAREA":" ","LANE":" ","ALLEY":" ","HOUSE_NO":"２２３號","E_COORD97":167902.82999999999,"N_COORD97":2543968.4900000002,"ADDRESS":"西門路二段２２３號","OBJECTID":514493},"geometry":{"x":167902.83000000101,"y":2543968.4900000021}},{"attributes":{"ID":514521,"DIS_CODE":0,"TOWNNAME":"下營區","LI":"仁里里","LIN":"1鄰","STREET":"仁義街","SECT":" ","MAREA":" ","LANE":" ","ALLEY":" ","HOUSE_NO":"１０號","E_COORD97":174608.94,"N_COORD97":2569735.5899999999,"ADDRESS":"仁義街１０號","OBJECTID":514494},"geometry":{"x":174608.94000000134,"y":2569735.5899999999}},{"attributes":{"ID":514522,"DIS_CODE":0,"TOWNNAME":"下營區","LI":"仁里里","LIN":"1鄰","STREET":"仁義街","SECT":" ","MAREA":" ","LANE":" ","ALLEY":" ","HOUSE_NO":"１１號","E_COORD97":174585.01999999999,"N_COORD97":2569723.6099999999,"ADDRESS":"仁義街１１號","OBJECTID":514495},"geometry":{"x":174585.02000000142,"y":2569723.6100000013}},{"attributes":{"ID":514523,"DIS_CODE":0,"TOWNNAME":"下營區","LI":"仁里里","LIN":"1鄰","STREET":"仁義街","SECT":" ","MAREA":" ","LANE":" ","ALLEY":" ","HOUSE_NO":"１２號","E_COORD97":174609.37,"N_COORD97":2569741.1400000001,"ADDRESS":"仁義街１２號","OBJECTID":514496},"geometry":{"x":174609.37000000104,"y":2569741.1400000025}},{"attributes":{"ID":514524,"DIS_CODE":0,"TOWNNAME":"下營區","LI":"仁里里","LIN":"1鄰","STREET":"仁義街","SECT":" ","MAREA":" ","LANE":" ","ALLEY":" ","HOUSE_NO":"１３號","E_COORD97":174585.42000000001,"N_COORD97":2569728.5699999998,"ADDRESS":"仁義街１３號","OBJECTID":514497},"geometry":{"x":174585.41999999993,"y":2569728.5700000003}},{"attributes":{"ID":514525,"DIS_CODE":0,"TOWNNAME":"下營區","LI":"仁里里","LIN":"1鄰","STREET":"仁義街","SECT":" ","MAREA":" ","LANE":" ","ALLEY":" ","HOUSE_NO":"１５號","E_COORD97":174585.32000000001,"N_COORD97":2569732.1099999999,"ADDRESS":"仁義街１５號","OBJECTID":514498},"geometry":{"x":174585.32000000216,"y":2569732.1100000031}},{"attributes":{"ID":514526,"DIS_CODE":0,"TOWNNAME":"下營區","LI":"仁里里","LIN":"1鄰","STREET":"仁義街","SECT":" ","MAREA":" ","LANE":" ","ALLEY":" ","HOUSE_NO":"１６號","E_COORD97":174609.48000000001,"N_COORD97":2569745.0299999998,"ADDRESS":"仁義街１６號","OBJECTID":514499},"geometry":{"x":174609.48000000045,"y":2569745.0299999993}},{"attributes":{"ID":514527,"DIS_CODE":0,"TOWNNAME":"下營區","LI":"仁里里","LIN":"1鄰","STREET":"仁義街","SECT":" ","MAREA":" ","LANE":" ","ALLEY":" ","HOUSE_NO":"１７號","E_COORD97":174585.17000000001,"N_COORD97":2569736.02,"ADDRESS":"仁義街１７號","OBJECTID":514500},"geometry":{"x":174585.16999999993,"y":2569736.0199999977}},{"attributes":{"ID":514528,"DIS_CODE":0,"TOWNNAME":"下營區","LI":"仁里里","LIN":"1鄰","STREET":"仁義街","SECT":" ","MAREA":" ","LANE":" ","ALLEY":" ","HOUSE_NO":"１８號","E_COORD97":174610.89000000001,"N_COORD97":2569750.8599999999,"ADDRESS":"仁義街１８號","OBJECTID":514501},"geometry":{"x":174610.88999999966,"y":2569750.8600000031}},{"attributes":{"ID":514529,"DIS_CODE":0,"TOWNNAME":"下營區","LI":"仁里里","LIN":"1鄰","STREET":"仁義街","SECT":" ","MAREA":" ","LANE":" ","ALLEY":" ","HOUSE_NO":"１９號","E_COORD97":174585.35000000001,"N_COORD97":2569740.1099999999,"ADDRESS":"仁義街１９號","OBJECTID":514502},"geometry":{"x":174585.34999999963,"y":2569740.1100000013}},{"attributes":{"ID":514530,"DIS_CODE":0,"TOWNNAME":"下營區","LI":"仁里里","LIN":"1鄰","STREET":"仁義街","SECT":" ","MAREA":" ","LANE":" ","ALLEY":" ","HOUSE_NO":"１號","E_COORD97":174584.10999999999,"N_COORD97":2569695.8199999998,"ADDRESS":"仁義街１號","OBJECTID":514503},"geometry":{"x":174584.11000000127,"y":2569695.8200000022}},{"attributes":{"ID":514531,"DIS_CODE":0,"TOWNNAME":"下營區","LI":"仁里里","LIN":"1鄰","STREET":"仁義街","SECT":" ","MAREA":" ","LANE":" ","ALLEY":" ","HOUSE_NO":"２０號","E_COORD97":174604.45000000001,"N_COORD97":2569770.6200000001,"ADDRESS":"仁義街２０號","OBJECTID":514504},"geometry":{"x":174604.45000000019,"y":2569770.620000001}},{"attributes":{"ID":514532,"DIS_CODE":0,"TOWNNAME":"下營區","LI":"仁里里","LIN":"1鄰","STREET":"仁義街","SECT":" ","MAREA":" ","LANE":" ","ALLEY":" ","HOUSE_NO":"２１號","E_COORD97":174584.88,"N_COORD97":2569744.6600000001,"ADDRESS":"仁義街２１號","OBJECTID":514505},"geometry":{"x":174584.88000000082,"y":2569744.6600000001}},{"attributes":{"ID":514533,"DIS_CODE":0,"TOWNNAME":"下營區","LI":"仁里里","LIN":"1鄰","STREET":"仁義街","SECT":" ","MAREA":" ","LANE":" ","ALLEY":" ","HOUSE_NO":"２２號","E_COORD97":174604.88,"N_COORD97":2569774.6499999999,"ADDRESS":"仁義街２２號","OBJECTID":514506},"geometry":{"x":174604.88000000175,"y":2569774.6500000022}},{"attributes":{"ID":514534,"DIS_CODE":0,"TOWNNAME":"下營區","LI":"仁里里","LIN":"1鄰","STREET":"仁義街","SECT":" ","MAREA":" ","LANE":" ","ALLEY":" ","HOUSE_NO":"２３號","E_COORD97":174590.76000000001,"N_COORD97":2569772.5600000001,"ADDRESS":"仁義街２３號","OBJECTID":514507},"geometry":{"x":174590.76000000071,"y":2569772.5600000024}},{"attributes":{"ID":514535,"DIS_CODE":0,"TOWNNAME":"下營區","LI":"仁里里","LIN":"1鄰","STREET":"仁義街","SECT":" ","MAREA":" ","LANE":" ","ALLEY":" ","HOUSE_NO":"２５號","E_COORD97":174591.06,"N_COORD97":2569776.2799999998,"ADDRESS":"仁義街２５號","OBJECTID":514508},"geometry":{"x":174591.05999999959,"y":2569776.2800000012}},{"attributes":{"ID":514536,"DIS_CODE":0,"TOWNNAME":"下營區","LI":"仁里里","LIN":"1鄰","STREET":"仁義街","SECT":" ","MAREA":" ","LANE":" ","ALLEY":" ","HOUSE_NO":"２６號","E_COORD97":174605.26999999999,"N_COORD97":2569778.6099999999,"ADDRESS":"仁義街２６號","OBJECTID":514509},"geometry":{"x":174605.27000000142,"y":2569778.6099999994}},{"attributes":{"ID":514537,"DIS_CODE":0,"TOWNNAME":"下營區","LI":"仁里里","LIN":"1鄰","STREET":"仁義街","SECT":" ","MAREA":" ","LANE":" ","ALLEY":" ","HOUSE_NO":"２７號","E_COORD97":174591.60999999999,"N_COORD97":2569780.8300000001,"ADDRESS":"仁義街２７號","OBJECTID":514510},"geometry":{"x":174591.61000000034,"y":2569780.8300000001}},{"attributes":{"ID":514538,"DIS_CODE":0,"TOWNNAME":"下營區","LI":"仁里里","LIN":"1鄰","STREET":"仁義街","SECT":" ","MAREA":" ","LANE":" ","ALLEY":" ","HOUSE_NO":"２８號","E_COORD97":174605.95999999999,"N_COORD97":2569782.4300000002,"ADDRESS":"仁義街２８號","OBJECTID":514511},"geometry":{"x":174605.95999999903,"y":2569782.4300000016}},{"attributes":{"ID":514539,"DIS_CODE":0,"TOWNNAME":"下營區","LI":"仁里里","LIN":"1鄰","STREET":"仁義街","SECT":" ","MAREA":" ","LANE":" ","ALLEY":" ","HOUSE_NO":"２９號","E_COORD97":174592.44,"N_COORD97":2569784.6099999999,"ADDRESS":"仁義街２９號","OBJECTID":514512},"geometry":{"x":174592.44000000041,"y":2569784.6100000013}},{"attributes":{"ID":514540,"DIS_CODE":0,"TOWNNAME":"下營區","LI":"新興里","LIN":"1鄰","STREET":"自由街","SECT":" ","MAREA":" ","LANE":" ","ALLEY":" ","HOUSE_NO":"５８號","E_COORD97":174799.10999999999,"N_COORD97":2570786.8599999999,"ADDRESS":"自由街５８號","OBJECTID":514513},"geometry":{"x":174799.11000000127,"y":2570786.8599999994}},{"attributes":{"ID":514541,"DIS_CODE":0,"TOWNNAME":"下營區","LI":"新興里","LIN":"1鄰","STREET":"自由街","SECT":" ","MAREA":" ","LANE":" ","ALLEY":" ","HOUSE_NO":"９６號","E_COORD97":174805.97,"N_COORD97":2570857.8199999998,"ADDRESS":"自由街９６號","OBJECTID":514514},"geometry":{"x":174805.97000000067,"y":2570857.8200000022}},{"attributes":{"ID":514542,"DIS_CODE":0,"TOWNNAME":"下營區","LI":"新興里","LIN":"1鄰","STREET":"東興一街","SECT":" ","MAREA":" ","LANE":" ","ALLEY":" ","HOUSE_NO":"１２２號","E_COORD97":174928.59,"N_COORD97":2570905.1600000001,"ADDRESS":"東興一街１２２號","OBJECTID":514515},"geometry":{"x":174928.58999999985,"y":2570905.1600000001}},{"attributes":{"ID":514543,"DIS_CODE":0,"TOWNNAME":"下營區","LI":"新興里","LIN":"1鄰","STREET":"東興一街","SECT":" ","MAREA":" ","LANE":" ","ALLEY":" ","HOUSE_NO":"１２６號","E_COORD97":174921.81,"N_COORD97":2570904.1800000002,"ADDRESS":"東興一街１２６號","OBJECTID":514516},"geometry":{"x":174921.80999999959,"y":2570904.1799999997}},{"attributes":{"ID":514544,"DIS_CODE":0,"TOWNNAME":"下營區","LI":"新興里","LIN":"1鄰","STREET":"東興一街","SECT":" ","MAREA":" ","LANE":" ","ALLEY":" ","HOUSE_NO":"１３０號","E_COORD97":174905.39000000001,"N_COORD97":2570904.6000000001,"ADDRESS":"東興一街１３０號","OBJECTID":514517},"geometry":{"x":174905.3900000006,"y":2570904.5999999996}},{"attributes":{"ID":514545,"DIS_CODE":0,"TOWNNAME":"下營區","LI":"新興里","LIN":"1鄰","STREET":"東興一街","SECT":" ","MAREA":" ","LANE":" ","ALLEY":" ","HOUSE_NO":"１４０號","E_COORD97":174892.81,"N_COORD97":2570898.3900000001,"ADDRESS":"東興一街１４０號","OBJECTID":514518},"geometry":{"x":174892.80999999959,"y":2570898.3900000025}},{"attributes":{"ID":514546,"DIS_CODE":0,"TOWNNAME":"下營區","LI":"新興里","LIN":"1鄰","STREET":"東興一街","SECT":" ","MAREA":" ","LANE":" ","ALLEY":" ","HOUSE_NO":"１４２號","E_COORD97":174888.72,"N_COORD97":2570898.1200000001,"ADDRESS":"東興一街１４２號","OBJECTID":514519},"geometry":{"x":174888.71999999974,"y":2570898.1200000029}},{"attributes":{"ID":514547,"DIS_CODE":0,"TOWNNAME":"下營區","LI":"新興里","LIN":"1鄰","STREET":"東興一街","SECT":" ","MAREA":" ","LANE":" ","ALLEY":" ","HOUSE_NO":"１４６號","E_COORD97":174885.26000000001,"N_COORD97":2570897.25,"ADDRESS":"東興一街１４６號","OBJECTID":514520},"geometry":{"x":174885.26000000164,"y":2570897.25}},{"attributes":{"ID":514548,"DIS_CODE":0,"TOWNNAME":"下營區","LI":"新興里","LIN":"1鄰","STREET":"東興一街","SECT":" ","MAREA":" ","LANE":" ","ALLEY":" ","HOUSE_NO":"１４８號","E_COORD97":174881.39000000001,"N_COORD97":2570896.9399999999,"ADDRESS":"東興一街１４８號","OBJECTID":514521},"geometry":{"x":174881.3900000006,"y":2570896.9400000013}},{"attributes":{"ID":514549,"DIS_CODE":0,"TOWNNAME":"下營區","LI":"新興里","LIN":"1鄰","STREET":"東興一街","SECT":" ","MAREA":" ","LANE":" ","ALLEY":" ","HOUSE_NO":"１５０號","E_COORD97":174877.39000000001,"N_COORD97":2570896.8500000001,"ADDRESS":"東興一街１５０號","OBJECTID":514522},"geometry":{"x":174877.38999999873,"y":2570896.8499999978}},{"attributes":{"ID":514550,"DIS_CODE":0,"TOWNNAME":"下營區","LI":"新興里","LIN":"1鄰","STREET":"東興一街","SECT":" ","MAREA":" ","LANE":" ","ALLEY":" ","HOUSE_NO":"１５２號","E_COORD97":174873.23999999999,"N_COORD97":2570896.1000000001,"ADDRESS":"東興一街１５２號","OBJECTID":514523},"geometry":{"x":174873.24000000022,"y":2570896.1000000015}},{"attributes":{"ID":514551,"DIS_CODE":0,"TOWNNAME":"下營區","LI":"新興里","LIN":"1鄰","STREET":"東興一街","SECT":" ","MAREA":" ","LANE":" ","ALLEY":" ","HOUSE_NO":"１５６號","E_COORD97":174869.17000000001,"N_COORD97":2570895.7799999998,"ADDRESS":"東興一街１５６號","OBJECTID":514524},"geometry":{"x":174869.17000000179,"y":2570895.7799999993}},{"attributes":{"ID":514552,"DIS_CODE":0,"TOWNNAME":"下營區","LI":"新興里","LIN":"1鄰","STREET":"東興一街","SECT":" ","MAREA":" ","LANE":" ","ALLEY":" ","HOUSE_NO":"１６０號","E_COORD97":174855.60999999999,"N_COORD97":2570894.9100000001,"ADDRESS":"東興一街１６０號","OBJECTID":514525},"geometry":{"x":174855.61000000034,"y":2570894.910000002}},{"attributes":{"ID":514553,"DIS_CODE":0,"TOWNNAME":"下營區","LI":"新興里","LIN":"1鄰","STREET":"東興一街","SECT":" ","MAREA":" ","LANE":" ","ALLEY":" ","HOUSE_NO":"１７０號","E_COORD97":174839.79000000001,"N_COORD97":2570892.6699999999,"ADDRESS":"東興一街１７０號","OBJECTID":514526},"geometry":{"x":174839.79000000097,"y":2570892.6700000018}},{"attributes":{"ID":514554,"DIS_CODE":0,"TOWNNAME":"下營區","LI":"新興里","LIN":"1鄰","STREET":"東興一街","SECT":" ","MAREA":" ","LANE":" ","ALLEY":" ","HOUSE_NO":"１７２號","E_COORD97":174834.95999999999,"N_COORD97":2570891.9700000002,"ADDRESS":"東興一街１７２號","OBJECTID":514527},"geometry":{"x":174834.96000000183,"y":2570891.9700000025}},{"attributes":{"ID":514555,"DIS_CODE":0,"TOWNNAME":"下營區","LI":"新興里","LIN":"1鄰","STREET":"東興一街","SECT":" ","MAREA":" ","LANE":" ","ALLEY":" ","HOUSE_NO":"１８２號","E_COORD97":174818.38,"N_COORD97":2570886.3100000001,"ADDRESS":"東興一街１８２號","OBJECTID":514528},"geometry":{"x":174818.37999999896,"y":2570886.3100000024}},{"attributes":{"ID":514556,"DIS_CODE":0,"TOWNNAME":"歸仁區","LI":"崙頂里","LIN":"17鄰","STREET":"大成路","SECT":" ","MAREA":" ","LANE":" ","ALLEY":" ","HOUSE_NO":"２５５號","E_COORD97":177877.10000000001,"N_COORD97":2540099.96,"ADDRESS":"大成路２５５號","OBJECTID":514529},"geometry":{"x":177877.10000000056,"y":2540099.9600000028}},{"attributes":{"ID":514557,"DIS_CODE":0,"TOWNNAME":"歸仁區","LI":"崙頂里","LIN":"1鄰","STREET":"成功路","SECT":"一段","MAREA":" ","LANE":" ","ALLEY":" ","HOUSE_NO":"３０６號","E_COORD97":178270.95000000001,"N_COORD97":2539978.6800000002,"ADDRESS":"成功路一段３０６號","OBJECTID":514530},"geometry":{"x":178270.95000000019,"y":2539978.6800000016}},{"attributes":{"ID":514558,"DIS_CODE":0,"TOWNNAME":"永康區","LI":"新樹里","LIN":"1鄰","STREET":"富強路","SECT":"二段","MAREA":" ","LANE":" ","ALLEY":" ","HOUSE_NO":"２２２號","E_COORD97":175648.5,"N_COORD97":2547312.7000000002,"ADDRESS":"富強路二段２２２號","OBJECTID":514531},"geometry":{"x":175648.50000000186,"y":2547312.6999999993}},{"attributes":{"ID":514559,"DIS_CODE":0,"TOWNNAME":"永康區","LI":"崑山里","LIN":"1鄰","STREET":"大灣路","SECT":" ","MAREA":" ","LANE":" ","ALLEY":" ","HOUSE_NO":"８０１號之２","E_COORD97":173770.98000000001,"N_COORD97":2544431.73,"ADDRESS":"大灣路８０１號之２","OBJECTID":514532},"geometry":{"x":173770.98000000138,"y":2544431.7300000004}},{"attributes":{"ID":514560,"DIS_CODE":0,"TOWNNAME":"永康區","LI":"復華里","LIN":"1鄰","STREET":"復國二路","SECT":" ","MAREA":" ","LANE":" ","ALLEY":" ","HOUSE_NO":"２３０號","E_COORD97":172983.23000000001,"N_COORD97":2545905.5299999998,"ADDRESS":"復國二路２３０號","OBJECTID":514533},"geometry":{"x":172983.23000000138,"y":2545905.5300000012}},{"attributes":{"ID":514561,"DIS_CODE":0,"TOWNNAME":"永康區","LI":"新樹里","LIN":"1鄰","STREET":"富強路","SECT":"二段","MAREA":" ","LANE":" ","ALLEY":" ","HOUSE_NO":"２６３號","E_COORD97":175615.48999999999,"N_COORD97":2547420.1299999999,"ADDRESS":"富強路二段２６３號","OBJECTID":514534},"geometry":{"x":175615.49000000115,"y":2547420.1300000008}},{"attributes":{"ID":514562,"DIS_CODE":0,"TOWNNAME":"永康區","LI":"龍潭里","LIN":"1鄰","STREET":"龍國街","SECT":" ","MAREA":" ","LANE":" ","ALLEY":" ","HOUSE_NO":"３８６之１號","E_COORD97":174770.28,"N_COORD97":2547992.7400000002,"ADDRESS":"龍國街３８６之１號","OBJECTID":514535},"geometry":{"x":174770.27999999933,"y":2547992.7399999984}},{"attributes":{"ID":514563,"DIS_CODE":0,"TOWNNAME":"永康區","LI":"復國里","LIN":"1鄰","STREET":"復國二路","SECT":" ","MAREA":" ","LANE":" ","ALLEY":" ","HOUSE_NO":"２２號","E_COORD97":172844.69,"N_COORD97":2544881.3999999999,"ADDRESS":"復國二路２２號","OBJECTID":514536},"geometry":{"x":172844.69000000041,"y":2544881.4000000004}},{"attributes":{"ID":514564,"DIS_CODE":0,"TOWNNAME":"永康區","LI":"龍潭里","LIN":"1鄰","STREET":"龍國街","SECT":" ","MAREA":" ","LANE":" ","ALLEY":" ","HOUSE_NO":"３４１號","E_COORD97":174743.70000000001,"N_COORD97":2548023.54,"ADDRESS":"龍國街３４１號","OBJECTID":514537},"geometry":{"x":174743.70000000205,"y":2548023.5399999972}},{"attributes":{"ID":514565,"DIS_CODE":0,"TOWNNAME":"永康區","LI":"崑山里","LIN":"1鄰","STREET":"大灣路","SECT":" ","MAREA":" ","LANE":" ","ALLEY":" ","HOUSE_NO":"８２１號","E_COORD97":173734.34,"N_COORD97":2544386.6800000002,"ADDRESS":"大灣路８２１號","OBJECTID":514538},"geometry":{"x":173734.34000000078,"y":2544386.6800000016}},{"attributes":{"ID":514566,"DIS_CODE":0,"TOWNNAME":"永康區","LI":"龍潭里","LIN":"1鄰","STREET":"龍國街","SECT":" ","MAREA":" ","LANE":" ","ALLEY":" ","HOUSE_NO":"３５８號","E_COORD97":174698.78,"N_COORD97":2548000.3500000001,"ADDRESS":"龍國街３５８號","OBJECTID":514539},"geometry":{"x":174698.78000000026,"y":2548000.3499999996}},{"attributes":{"ID":514567,"DIS_CODE":0,"TOWNNAME":"永康區","LI":"復國里","LIN":"1鄰","STREET":"復國二路","SECT":" ","MAREA":" ","LANE":" ","ALLEY":" ","HOUSE_NO":"３０號","E_COORD97":172845.54000000001,"N_COORD97":2544897.6499999999,"ADDRESS":"復國二路３０號","OBJECTID":514540},"geometry":{"x":172845.54000000004,"y":2544897.6500000004}},{"attributes":{"ID":514568,"DIS_CODE":0,"TOWNNAME":"永康區","LI":"\u25A0洲里","LIN":"1鄰","STREET":"仁愛街","SECT":" ","MAREA":" ","LANE":" ","ALLEY":" ","HOUSE_NO":"１３號","E_COORD97":171941.29999999999,"N_COORD97":2549232.71,"ADDRESS":"仁愛街１３號","OBJECTID":514541},"geometry":{"x":171941.30000000075,"y":2549232.7100000028}},{"attributes":{"ID":514569,"DIS_CODE":0,"TOWNNAME":"歸仁區","LI":"崙頂里","LIN":"24鄰","STREET":"成功十街","SECT":" ","MAREA":" ","LANE":" ","ALLEY":" ","HOUSE_NO":"２００號","E_COORD97":177743.88,"N_COORD97":2539915.25,"ADDRESS":"成功十街２００號","OBJECTID":514542},"geometry":{"x":177743.87999999989,"y":2539915.25}},{"attributes":{"ID":514570,"DIS_CODE":0,"TOWNNAME":"永康區","LI":"蔦松里","LIN":"1鄰","STREET":"中正北路","SECT":" ","MAREA":" ","LANE":" ","ALLEY":" ","HOUSE_NO":"４５９號","E_COORD97":173684.92999999999,"N_COORD97":2549153.7200000002,"ADDRESS":"中正北路４５９號","OBJECTID":514543},"geometry":{"x":173684.9299999997,"y":2549153.7200000025}},{"attributes":{"ID":514571,"DIS_CODE":0,"TOWNNAME":"東區","LI":"崇善里","LIN":"1鄰","STREET":"仁和路","SECT":" ","MAREA":" ","LANE":" ","ALLEY":" ","HOUSE_NO":"２４號","E_COORD97":171021.20999999999,"N_COORD97":2542189.7200000002,"ADDRESS":"仁和路２４號","OBJECTID":514544},"geometry":{"x":171021.21000000089,"y":2542189.7200000025}},{"attributes":{"ID":514572,"DIS_CODE":0,"TOWNNAME":"東區","LI":"崇善里","LIN":"1鄰","STREET":"仁和路","SECT":" ","MAREA":" ","LANE":" ","ALLEY":" ","HOUSE_NO":"１２號","E_COORD97":171008.51999999999,"N_COORD97":2542288.1000000001,"ADDRESS":"仁和路１２號","OBJECTID":514545},"geometry":{"x":171008.52000000048,"y":2542288.1000000015}},{"attributes":{"ID":514573,"DIS_CODE":0,"TOWNNAME":"東區","LI":"崇善里","LIN":"1鄰","STREET":"仁和路","SECT":" ","MAREA":" ","LANE":" ","ALLEY":" ","HOUSE_NO":"４６號","E_COORD97":171048.76999999999,"N_COORD97":2542032.27,"ADDRESS":"仁和路４６號","OBJECTID":514546},"geometry":{"x":171048.77000000142,"y":2542032.2700000014}},{"attributes":{"ID":514574,"DIS_CODE":0,"TOWNNAME":"東區","LI":"崇善里","LIN":"1鄰","STREET":"仁和路","SECT":" ","MAREA":" ","LANE":" ","ALLEY":" ","HOUSE_NO":"２２號","E_COORD97":171011.06,"N_COORD97":2542221.96,"ADDRESS":"仁和路２２號","OBJECTID":514547},"geometry":{"x":171011.05999999959,"y":2542221.9600000046}},{"attributes":{"ID":514575,"DIS_CODE":0,"TOWNNAME":"東區","LI":"崇信里","LIN":"1鄰","STREET":"東門路","SECT":"二段","MAREA":" ","LANE":" ","ALLEY":" ","HOUSE_NO":"３４６號","E_COORD97":170738.16,"N_COORD97":2542585.98,"ADDRESS":"東門路二段３４６號","OBJECTID":514548},"geometry":{"x":170738.16000000201,"y":2542585.9800000004}},{"attributes":{"ID":514576,"DIS_CODE":0,"TOWNNAME":"麻豆區","LI":"\u25A0江里","LIN":"1鄰","STREET":"興南路","SECT":" ","MAREA":" ","LANE":" ","ALLEY":" ","HOUSE_NO":"５２號之１","E_COORD97":173240.29000000001,"N_COORD97":2564738.9900000002,"ADDRESS":"興南路５２號之１","OBJECTID":514549},"geometry":{"x":173240.29000000004,"y":2564738.9900000002}},{"attributes":{"ID":514577,"DIS_CODE":0,"TOWNNAME":"東區","LI":"崇信里","LIN":"1鄰","STREET":"東門路","SECT":"二段","MAREA":" ","LANE":" ","ALLEY":" ","HOUSE_NO":"３４８號","E_COORD97":170742.98000000001,"N_COORD97":2542580.9399999999,"ADDRESS":"東門路二段３４８號","OBJECTID":514550},"geometry":{"x":170742.98000000045,"y":2542580.9400000013}},{"attributes":{"ID":514578,"DIS_CODE":0,"TOWNNAME":"東區","LI":"崇信里","LIN":"1鄰","STREET":"東門路","SECT":"二段","MAREA":" ","LANE":" ","ALLEY":" ","HOUSE_NO":"３５０號","E_COORD97":170746.32000000001,"N_COORD97":2542578.23,"ADDRESS":"東門路二段３５０號","OBJECTID":514551},"geometry":{"x":170746.32000000123,"y":2542578.2300000004}},{"attributes":{"ID":514579,"DIS_CODE":0,"TOWNNAME":"東區","LI":"崇信里","LIN":"1鄰","STREET":"東門路","SECT":"二段","MAREA":" ","LANE":" ","ALLEY":" ","HOUSE_NO":"３５２號","E_COORD97":170750.09,"N_COORD97":2542575.1000000001,"ADDRESS":"東門路二段３５２號","OBJECTID":514552},"geometry":{"x":170750.08999999985,"y":2542575.0999999996}},{"attributes":{"ID":514580,"DIS_CODE":0,"TOWNNAME":"東區","LI":"崇信里","LIN":"1鄰","STREET":"東門路","SECT":"二段","MAREA":" ","LANE":" ","ALLEY":" ","HOUSE_NO":"３５４號","E_COORD97":170753.64000000001,"N_COORD97":2542572.5899999999,"ADDRESS":"東門路二段３５４號","OBJECTID":514553},"geometry":{"x":170753.6400000006,"y":2542572.5900000036}},{"attributes":{"ID":514581,"DIS_CODE":0,"TOWNNAME":"東區","LI":"崇信里","LIN":"1鄰","STREET":"東門路","SECT":"二段","MAREA":" ","LANE":" ","ALLEY":" ","HOUSE_NO":"３５６號","E_COORD97":170758.03,"N_COORD97":2542568.8399999999,"ADDRESS":"東門路二段３５６號","OBJECTID":514554},"geometry":{"x":170758.03000000119,"y":2542568.8400000017}},{"attributes":{"ID":514582,"DIS_CODE":0,"TOWNNAME":"東區","LI":"崇信里","LIN":"1鄰","STREET":"東門路","SECT":"二段","MAREA":" ","LANE":" ","ALLEY":" ","HOUSE_NO":"３６０號","E_COORD97":170767.01000000001,"N_COORD97":2542561.9500000002,"ADDRESS":"東門路二段３６０號","OBJECTID":514555},"geometry":{"x":170767.00999999978,"y":2542561.9499999993}},{"attributes":{"ID":514583,"DIS_CODE":0,"TOWNNAME":"東區","LI":"崇信里","LIN":"1鄰","STREET":"東門路","SECT":"二段","MAREA":" ","LANE":" ","ALLEY":" ","HOUSE_NO":"３６２號","E_COORD97":170770.35000000001,"N_COORD97":2542558.6099999999,"ADDRESS":"東門路二段３６２號","OBJECTID":514556},"geometry":{"x":170770.35000000149,"y":2542558.6100000013}},{"attributes":{"ID":514584,"DIS_CODE":0,"TOWNNAME":"東區","LI":"崇信里","LIN":"1鄰","STREET":"東門路","SECT":"二段","MAREA":" ","LANE":" ","ALLEY":" ","HOUSE_NO":"３６４號","E_COORD97":170773.91,"N_COORD97":2542556.52,"ADDRESS":"東門路二段３６４號","OBJECTID":514557},"geometry":{"x":170773.91000000201,"y":2542556.5200000014}},{"attributes":{"ID":514585,"DIS_CODE":0,"TOWNNAME":"歸仁區","LI":"崙頂里","LIN":"18鄰","STREET":"大成一街","SECT":" ","MAREA":" ","LANE":" ","ALLEY":" ","HOUSE_NO":"１０３號","E_COORD97":177906.23000000001,"N_COORD97":2540197.9100000001,"ADDRESS":"大成一街１０３號","OBJECTID":514558},"geometry":{"x":177906.23000000045,"y":2540197.910000002}},{"attributes":{"ID":514586,"DIS_CODE":0,"TOWNNAME":"歸仁區","LI":"崙頂里","LIN":"8鄰","STREET":"崙頂五街","SECT":" ","MAREA":" ","LANE":" ","ALLEY":" ","HOUSE_NO":"７３號","E_COORD97":177992.42999999999,"N_COORD97":2539838.25,"ADDRESS":"崙頂五街７３號","OBJECTID":514559},"geometry":{"x":177992.4299999997,"y":2539838.25}},{"attributes":{"ID":514587,"DIS_CODE":0,"TOWNNAME":"東區","LI":"崇信里","LIN":"1鄰","STREET":"東門路","SECT":"二段","MAREA":" ","LANE":" ","ALLEY":" ","HOUSE_NO":"３６６號","E_COORD97":170776.82999999999,"N_COORD97":2542554.4399999999,"ADDRESS":"東門路二段３６６號","OBJECTID":514560},"geometry":{"x":170776.83000000007,"y":2542554.4399999995}},{"attributes":{"ID":514588,"DIS_CODE":0,"TOWNNAME":"東區","LI":"崇信里","LIN":"1鄰","STREET":"東門路","SECT":"二段","MAREA":" ","LANE":" ","ALLEY":" ","HOUSE_NO":"３６８號","E_COORD97":170781.22,"N_COORD97":2542550.4700000002,"ADDRESS":"東門路二段３６８號","OBJECTID":514561},"geometry":{"x":170781.21999999974,"y":2542550.4700000044}},{"attributes":{"ID":514589,"DIS_CODE":0,"TOWNNAME":"東區","LI":"崇信里","LIN":"1鄰","STREET":"東門路","SECT":"二段","MAREA":" ","LANE":" ","ALLEY":" ","HOUSE_NO":"３７０號","E_COORD97":170784.14999999999,"N_COORD97":2542547.3399999999,"ADDRESS":"東門路二段３７０號","OBJECTID":514562},"geometry":{"x":170784.14999999944,"y":2542547.3400000017}},{"attributes":{"ID":514590,"DIS_CODE":0,"TOWNNAME":"東區","LI":"崇信里","LIN":"1鄰","STREET":"東門路","SECT":"二段","MAREA":" ","LANE":" ","ALLEY":" ","HOUSE_NO":"３７２號","E_COORD97":170787.07000000001,"N_COORD97":2542544.8399999999,"ADDRESS":"東門路二段３７２號","OBJECTID":514563},"geometry":{"x":170787.07000000123,"y":2542544.8400000017}},{"attributes":{"ID":514591,"DIS_CODE":0,"TOWNNAME":"麻豆區","LI":"\u25A0江里","LIN":"1鄰","STREET":"興南路","SECT":" ","MAREA":" ","LANE":" ","ALLEY":" ","HOUSE_NO":"９４號","E_COORD97":173318.88,"N_COORD97":2564740.8399999999,"ADDRESS":"興南路９４號","OBJECTID":514564},"geometry":{"x":173318.88000000082,"y":2564740.8400000017}},{"attributes":{"ID":514592,"DIS_CODE":0,"TOWNNAME":"東區","LI":"崇信里","LIN":"1鄰","STREET":"東門路","SECT":"二段","MAREA":" ","LANE":" ","ALLEY":" ","HOUSE_NO":"３７４號","E_COORD97":170791.67000000001,"N_COORD97":2542541.5,"ADDRESS":"東門路二段３７４號","OBJECTID":514565},"geometry":{"x":170791.66999999993,"y":2542541.5}},{"attributes":{"ID":514593,"DIS_CODE":0,"TOWNNAME":"東區","LI":"崇信里","LIN":"1鄰","STREET":"東門路","SECT":"二段","MAREA":" ","LANE":" ","ALLEY":" ","HOUSE_NO":"３７８號","E_COORD97":170795.64000000001,"N_COORD97":2542538.5800000001,"ADDRESS":"東門路二段３７８號","OBJECTID":514566},"geometry":{"x":170795.6400000006,"y":2542538.5799999982}},{"attributes":{"ID":514594,"DIS_CODE":0,"TOWNNAME":"東區","LI":"崇信里","LIN":"1鄰","STREET":"東門路","SECT":"二段","MAREA":" ","LANE":" ","ALLEY":" ","HOUSE_NO":"３８０號","E_COORD97":170799.60999999999,"N_COORD97":2542535.8599999999,"ADDRESS":"東門路二段３８０號","OBJECTID":514567},"geometry":{"x":170799.61000000034,"y":2542535.8599999994}},{"attributes":{"ID":514595,"DIS_CODE":0,"TOWNNAME":"東區","LI":"崇信里","LIN":"1鄰","STREET":"東門路","SECT":"二段","MAREA":" ","LANE":" ","ALLEY":" ","HOUSE_NO":"３８２號","E_COORD97":170803.92000000001,"N_COORD97":2542533.6699999999,"ADDRESS":"東門路二段３８２號","OBJECTID":514568},"geometry":{"x":170803.91999999899,"y":2542533.6699999999}},{"attributes":{"ID":514596,"DIS_CODE":0,"TOWNNAME":"東區","LI":"崇信里","LIN":"1鄰","STREET":"東門路","SECT":"二段","MAREA":" ","LANE":" ","ALLEY":" ","HOUSE_NO":"３８４號","E_COORD97":170806.29999999999,"N_COORD97":2542531.96,"ADDRESS":"東門路二段３８４號","OBJECTID":514569},"geometry":{"x":170806.29999999888,"y":2542531.9600000028}},{"attributes":{"ID":514597,"DIS_CODE":0,"TOWNNAME":"東區","LI":"崇信里","LIN":"1鄰","STREET":"東門路","SECT":"二段","MAREA":" ","LANE":" ","ALLEY":" ","HOUSE_NO":"３８６號","E_COORD97":170808.85999999999,"N_COORD97":2542529.73,"ADDRESS":"東門路二段３８６號","OBJECTID":514570},"geometry":{"x":170808.86000000127,"y":2542529.7300000004}},{"attributes":{"ID":514598,"DIS_CODE":0,"TOWNNAME":"歸仁區","LI":"南保里","LIN":"34鄰","STREET":"民權八街","SECT":" ","MAREA":" ","LANE":" ","ALLEY":" ","HOUSE_NO":"１１６號","E_COORD97":176739.45999999999,"N_COORD97":2541092.25,"ADDRESS":"民權八街１１６號","OBJECTID":514571},"geometry":{"x":176739.46000000089,"y":2541092.25}},{"attributes":{"ID":514599,"DIS_CODE":0,"TOWNNAME":"歸仁區","LI":"後市里","LIN":"34鄰","STREET":"國光街","SECT":" ","MAREA":" ","LANE":" ","ALLEY":" ","HOUSE_NO":"１２８號","E_COORD97":177317.54000000001,"N_COORD97":2540977.7400000002,"ADDRESS":"國光街１２８號","OBJECTID":514572},"geometry":{"x":177317.54000000004,"y":2540977.7400000002}},{"attributes":{"ID":514600,"DIS_CODE":0,"TOWNNAME":"歸仁區","LI":"南保里","LIN":"56鄰","STREET":"民權南路","SECT":" ","MAREA":" ","LANE":" ","ALLEY":" ","HOUSE_NO":"１３２號","E_COORD97":176946.76000000001,"N_COORD97":2540497.25,"ADDRESS":"民權南路１３２號","OBJECTID":514573},"geometry":{"x":176946.76000000071,"y":2540497.2500000019}},{"attributes":{"ID":514601,"DIS_CODE":0,"TOWNNAME":"歸仁區","LI":"看西里","LIN":"18鄰","STREET":"成功五街","SECT":" ","MAREA":" ","LANE":" ","ALLEY":" ","HOUSE_NO":"６２號","E_COORD97":178365.95999999999,"N_COORD97":2539899.3599999999,"ADDRESS":"成功五街６２號","OBJECTID":514574},"geometry":{"x":178365.96000000183,"y":2539899.3600000013}},{"attributes":{"ID":514602,"DIS_CODE":0,"TOWNNAME":"歸仁區","LI":"許厝里","LIN":"24鄰","STREET":"大仁街","SECT":" ","MAREA":" ","LANE":" ","ALLEY":" ","HOUSE_NO":"１３８號","E_COORD97":178207.47,"N_COORD97":2541028.1099999999,"ADDRESS":"大仁街１３８號","OBJECTID":514575},"geometry":{"x":178207.46999999974,"y":2541028.1099999994}},{"attributes":{"ID":514603,"DIS_CODE":0,"TOWNNAME":"麻豆區","LI":"巷口里","LIN":"1鄰","STREET":"興南路","SECT":" ","MAREA":" ","LANE":" ","ALLEY":" ","HOUSE_NO":"４０號","E_COORD97":173169.57000000001,"N_COORD97":2564741.8300000001,"ADDRESS":"興南路４０號","OBJECTID":514576},"geometry":{"x":173169.5700000003,"y":2564741.8300000019}},{"attributes":{"ID":514604,"DIS_CODE":0,"TOWNNAME":"麻豆區","LI":"巷口里","LIN":"1鄰","STREET":"興南路","SECT":" ","MAREA":" ","LANE":" ","ALLEY":" ","HOUSE_NO":"４２號","E_COORD97":173175.06,"N_COORD97":2564741.98,"ADDRESS":"興南路４２號","OBJECTID":514577},"geometry":{"x":173175.06000000052,"y":2564741.9800000004}},{"attributes":{"ID":514605,"DIS_CODE":0,"TOWNNAME":"麻豆區","LI":"\u25A0江里","LIN":"1鄰","STREET":"興南路","SECT":" ","MAREA":" ","LANE":" ","ALLEY":" ","HOUSE_NO":"４４號","E_COORD97":173203.97,"N_COORD97":2564742.4100000001,"ADDRESS":"興南路４４號","OBJECTID":514578},"geometry":{"x":173203.9700000016,"y":2564742.4100000001}},{"attributes":{"ID":514606,"DIS_CODE":0,"TOWNNAME":"麻豆區","LI":"\u25A0江里","LIN":"1鄰","STREET":"興南路","SECT":" ","MAREA":" ","LANE":" ","ALLEY":" ","HOUSE_NO":"４６號","E_COORD97":173208.04999999999,"N_COORD97":2564742.5,"ADDRESS":"興南路４６號","OBJECTID":514579},"geometry":{"x":173208.04999999981,"y":2564742.5}},{"attributes":{"ID":514607,"DIS_CODE":0,"TOWNNAME":"麻豆區","LI":"\u25A0江里","LIN":"1鄰","STREET":"興南路","SECT":" ","MAREA":" ","LANE":" ","ALLEY":" ","HOUSE_NO":"４８號","E_COORD97":173211.57999999999,"N_COORD97":2564742.4399999999,"ADDRESS":"興南路４８號","OBJECTID":514580},"geometry":{"x":173211.58000000007,"y":2564742.4399999976}},{"attributes":{"ID":514608,"DIS_CODE":0,"TOWNNAME":"麻豆區","LI":"\u25A0江里","LIN":"1鄰","STREET":"興南路","SECT":" ","MAREA":" ","LANE":" ","ALLEY":" ","HOUSE_NO":"５０號之１","E_COORD97":173220.26000000001,"N_COORD97":2564738.6400000001,"ADDRESS":"興南路５０號之１","OBJECTID":514581},"geometry":{"x":173220.25999999978,"y":2564738.6400000006}},{"attributes":{"ID":514609,"DIS_CODE":0,"TOWNNAME":"麻豆區","LI":"\u25A0江里","LIN":"1鄰","STREET":"興南路","SECT":" ","MAREA":" ","LANE":" ","ALLEY":" ","HOUSE_NO":"５０號之２","E_COORD97":173224.26999999999,"N_COORD97":2564738.6200000001,"ADDRESS":"興南路５０號之２","OBJECTID":514582},"geometry":{"x":173224.27000000048,"y":2564738.620000001}},{"attributes":{"ID":514610,"DIS_CODE":0,"TOWNNAME":"麻豆區","LI":"\u25A0江里","LIN":"1鄰","STREET":"興南路","SECT":" ","MAREA":" ","LANE":" ","ALLEY":" ","HOUSE_NO":"５０號之３","E_COORD97":173228.20000000001,"N_COORD97":2564738.8700000001,"ADDRESS":"興南路５０號之３","OBJECTID":514583},"geometry":{"x":173228.20000000205,"y":2564738.8700000029}},{"attributes":{"ID":514611,"DIS_CODE":0,"TOWNNAME":"麻豆區","LI":"\u25A0江里","LIN":"1鄰","STREET":"興南路","SECT":" ","MAREA":" ","LANE":" ","ALLEY":" ","HOUSE_NO":"５０號","E_COORD97":173215.79000000001,"N_COORD97":2564742.6000000001,"ADDRESS":"興南路５０號","OBJECTID":514584},"geometry":{"x":173215.79000000097,"y":2564742.6000000015}},{"attributes":{"ID":514612,"DIS_CODE":0,"TOWNNAME":"麻豆區","LI":"\u25A0江里","LIN":"1鄰","STREET":"興南路","SECT":" ","MAREA":" ","LANE":" ","ALLEY":" ","HOUSE_NO":"５２號","E_COORD97":173235.38,"N_COORD97":2564738.73,"ADDRESS":"興南路５２號","OBJECTID":514585},"geometry":{"x":173235.38000000082,"y":2564738.7300000023}},{"attributes":{"ID":514613,"DIS_CODE":0,"TOWNNAME":"麻豆區","LI":"\u25A0江里","LIN":"1鄰","STREET":"興南路","SECT":" ","MAREA":" ","LANE":" ","ALLEY":" ","HOUSE_NO":"５６號","E_COORD97":173245,"N_COORD97":2564738.3500000001,"ADDRESS":"興南路５６號","OBJECTID":514586},"geometry":{"x":173245.00000000093,"y":2564738.3500000015}},{"attributes":{"ID":514614,"DIS_CODE":0,"TOWNNAME":"歸仁區","LI":"辜厝里","LIN":"20鄰","STREET":"中正南路","SECT":"一段","MAREA":" ","LANE":" ","ALLEY":" ","HOUSE_NO":"１６４號","E_COORD97":177421.35999999999,"N_COORD97":2540411.9500000002,"ADDRESS":"中正南路一段１６４號","OBJECTID":514587},"geometry":{"x":177421.36000000127,"y":2540411.9499999993}},{"attributes":{"ID":514615,"DIS_CODE":0,"TOWNNAME":"麻豆區","LI":"\u25A0江里","LIN":"1鄰","STREET":"興南路","SECT":" ","MAREA":" ","LANE":" ","ALLEY":" ","HOUSE_NO":"５８號","E_COORD97":173249.42000000001,"N_COORD97":2564738.3999999999,"ADDRESS":"興南路５８號","OBJECTID":514588},"geometry":{"x":173249.41999999993,"y":2564738.4000000022}},{"attributes":{"ID":514616,"DIS_CODE":0,"TOWNNAME":"麻豆區","LI":"\u25A0江里","LIN":"1鄰","STREET":"興南路","SECT":" ","MAREA":" ","LANE":" ","ALLEY":" ","HOUSE_NO":"６０號","E_COORD97":173254.01000000001,"N_COORD97":2564738.77,"ADDRESS":"興南路６０號","OBJECTID":514589},"geometry":{"x":173254.00999999978,"y":2564738.7700000014}},{"attributes":{"ID":514617,"DIS_CODE":0,"TOWNNAME":"麻豆區","LI":"\u25A0江里","LIN":"1鄰","STREET":"興南路","SECT":" ","MAREA":" ","LANE":" ","ALLEY":" ","HOUSE_NO":"６２號","E_COORD97":173258.82999999999,"N_COORD97":2564738.7999999998,"ADDRESS":"興南路６２號","OBJECTID":514590},"geometry":{"x":173258.83000000007,"y":2564738.8000000026}},{"attributes":{"ID":514618,"DIS_CODE":0,"TOWNNAME":"麻豆區","LI":"\u25A0江里","LIN":"1鄰","STREET":"興南路","SECT":" ","MAREA":" ","LANE":" ","ALLEY":" ","HOUSE_NO":"６８號","E_COORD97":173273.73000000001,"N_COORD97":2564741.0800000001,"ADDRESS":"興南路６８號","OBJECTID":514591},"geometry":{"x":173273.73000000045,"y":2564741.0800000001}},{"attributes":{"ID":514619,"DIS_CODE":0,"TOWNNAME":"麻豆區","LI":"\u25A0江里","LIN":"1鄰","STREET":"興南路","SECT":" ","MAREA":" ","LANE":" ","ALLEY":" ","HOUSE_NO":"７０號","E_COORD97":173278.69,"N_COORD97":2564740.6800000002,"ADDRESS":"興南路７０號","OBJECTID":514592},"geometry":{"x":173278.69000000041,"y":2564740.6799999997}},{"attributes":{"ID":514620,"DIS_CODE":0,"TOWNNAME":"麻豆區","LI":"\u25A0江里","LIN":"1鄰","STREET":"興南路","SECT":" ","MAREA":" ","LANE":" ","ALLEY":" ","HOUSE_NO":"７２號","E_COORD97":173283.32999999999,"N_COORD97":2564740.7400000002,"ADDRESS":"興南路７２號","OBJECTID":514593},"geometry":{"x":173283.33000000101,"y":2564740.7400000002}},{"attributes":{"ID":514621,"DIS_CODE":0,"TOWNNAME":"麻豆區","LI":"\u25A0江里","LIN":"1鄰","STREET":"興南路","SECT":" ","MAREA":" ","LANE":" ","ALLEY":" ","HOUSE_NO":"７４號","E_COORD97":173288.53,"N_COORD97":2564740.9900000002,"ADDRESS":"興南路７４號","OBJECTID":514594},"geometry":{"x":173288.53000000026,"y":2564740.9900000021}},{"attributes":{"ID":514622,"DIS_CODE":0,"TOWNNAME":"麻豆區","LI":"\u25A0江里","LIN":"1鄰","STREET":"興南路","SECT":" ","MAREA":" ","LANE":" ","ALLEY":" ","HOUSE_NO":"７６號","E_COORD97":173293.26999999999,"N_COORD97":2564740.9500000002,"ADDRESS":"興南路７６號","OBJECTID":514595},"geometry":{"x":173293.27000000142,"y":2564740.9499999993}},{"attributes":{"ID":514623,"DIS_CODE":0,"TOWNNAME":"麻豆區","LI":"\u25A0江里","LIN":"1鄰","STREET":"興南路","SECT":" ","MAREA":" ","LANE":" ","ALLEY":" ","HOUSE_NO":"７８號","E_COORD97":173298.37,"N_COORD97":2564740.7799999998,"ADDRESS":"興南路７８號","OBJECTID":514596},"geometry":{"x":173298.37000000104,"y":2564740.7800000012}},{"attributes":{"ID":514624,"DIS_CODE":0,"TOWNNAME":"麻豆區","LI":"\u25A0江里","LIN":"1鄰","STREET":"興南路","SECT":" ","MAREA":" ","LANE":" ","ALLEY":" ","HOUSE_NO":"８８號","E_COORD97":173303.26999999999,"N_COORD97":2564740.4900000002,"ADDRESS":"興南路８８號","OBJECTID":514597},"geometry":{"x":173303.26999999862,"y":2564740.4900000021}},{"attributes":{"ID":514625,"DIS_CODE":0,"TOWNNAME":"麻豆區","LI":"\u25A0江里","LIN":"1鄰","STREET":"興南路","SECT":" ","MAREA":" ","LANE":" ","ALLEY":" ","HOUSE_NO":"９０號","E_COORD97":173307.60000000001,"N_COORD97":2564740.8399999999,"ADDRESS":"興南路９０號","OBJECTID":514598},"geometry":{"x":173307.59999999963,"y":2564740.8400000017}},{"attributes":{"ID":514626,"DIS_CODE":0,"TOWNNAME":"麻豆區","LI":"\u25A0江里","LIN":"1鄰","STREET":"興南路","SECT":" ","MAREA":" ","LANE":" ","ALLEY":" ","HOUSE_NO":"９２號","E_COORD97":173311.59,"N_COORD97":2564740.6800000002,"ADDRESS":"興南路９２號","OBJECTID":514599},"geometry":{"x":173311.58999999892,"y":2564740.6799999997}},{"attributes":{"ID":514627,"DIS_CODE":0,"TOWNNAME":"麻豆區","LI":"中興里","LIN":"1鄰","STREET":"興國路","SECT":" ","MAREA":" ","LANE":" ","ALLEY":" ","HOUSE_NO":"１０號","E_COORD97":172983.73000000001,"N_COORD97":2564695.0800000001,"ADDRESS":"興國路１０號","OBJECTID":514600},"geometry":{"x":172983.73000000045,"y":2564695.0800000038}}]}