{"displayFieldName":"TOWNNAME","fieldAliases":{"ID":"ID","DIS_CODE":"DIS_CODE","TOWNNAME":"TOWNNAME","LI":"LI","LIN":"LIN","STREET":"STREET","SECT":"SECT","MAREA":"MAREA","LANE":"LANE","ALLEY":"ALLEY","HOUSE_NO":"HOUSE_NO","E_COORD97":"E_COORD97","N_COORD97":"N_COORD97","ADDRESS":"ADDRESS","OBJECTID":"OBJECTID"},"geometryType":"esriGeometryPoint","spatialReference":{"wkid":102443,"latestWkid":3826},"fields":[{"name":"ID","type":"esriFieldTypeDouble","alias":"ID"},{"name":"DIS_CODE","type":"esriFieldTypeInteger","alias":"DIS_CODE"},{"name":"TOWNNAME","type":"esriFieldTypeString","alias":"TOWNNAME","length":8},{"name":"LI","type":"esriFieldTypeString","alias":"LI","length":8},{"name":"LIN","type":"esriFieldTypeString","alias":"LIN","length":12},{"name":"STREET","type":"esriFieldTypeString","alias":"STREET","length":20},{"name":"SECT","type":"esriFieldTypeString","alias":"SECT","length":8},{"name":"MAREA","type":"esriFieldTypeString","alias":"MAREA","length":12},{"name":"LANE","type":"esriFieldTypeString","alias":"LANE","length":10},{"name":"ALLEY","type":"esriFieldTypeString","alias":"ALLEY","length":10},{"name":"HOUSE_NO","type":"esriFieldTypeString","alias":"HOUSE_NO","length":20},{"name":"E_COORD97","type":"esriFieldTypeDouble","alias":"E_COORD97"},{"name":"N_COORD97","type":"esriFieldTypeDouble","alias":"N_COORD97"},{"name":"ADDRESS","type":"esriFieldTypeString","alias":"ADDRESS","length":50},{"name":"OBJECTID","type":"esriFieldTypeOID","alias":"OBJECTID"}],"features":[{"attributes":{"ID":509228,"DIS_CODE":0,"TOWNNAME":"中西區","LI":"普濟里","LIN":"15鄰","STREET":"國華街","SECT":"三段","MAREA":" ","LANE":" ","ALLEY":" ","HOUSE_NO":"２７０號","E_COORD97":167983.34,"N_COORD97":2544482.4100000001,"ADDRESS":"國華街三段２７０號","OBJECTID":509201},"geometry":{"x":167983.33999999985,"y":2544482.4100000001}},{"attributes":{"ID":509229,"DIS_CODE":0,"TOWNNAME":"中西區","LI":"普濟里","LIN":"15鄰","STREET":"國華街","SECT":"三段","MAREA":" ","LANE":" ","ALLEY":" ","HOUSE_NO":"２７２號","E_COORD97":167985.26999999999,"N_COORD97":2544486.1000000001,"ADDRESS":"國華街三段２７２號","OBJECTID":509202},"geometry":{"x":167985.26999999955,"y":2544486.0999999996}},{"attributes":{"ID":509230,"DIS_CODE":0,"TOWNNAME":"中西區","LI":"安海里","LIN":"15鄰","STREET":"河中街","SECT":" ","MAREA":" ","LANE":" ","ALLEY":" ","HOUSE_NO":"５５號","E_COORD97":167296.39999999999,"N_COORD97":2544077.1099999999,"ADDRESS":"河中街５５號","OBJECTID":509203},"geometry":{"x":167296.4000000013,"y":2544077.1100000031}},{"attributes":{"ID":509231,"DIS_CODE":0,"TOWNNAME":"中西區","LI":"安海里","LIN":"15鄰","STREET":"河中街","SECT":" ","MAREA":" ","LANE":" ","ALLEY":" ","HOUSE_NO":"５７號","E_COORD97":167298.76999999999,"N_COORD97":2544080.46,"ADDRESS":"河中街５７號","OBJECTID":509204},"geometry":{"x":167298.76999999955,"y":2544080.4600000028}},{"attributes":{"ID":509232,"DIS_CODE":0,"TOWNNAME":"中西區","LI":"安海里","LIN":"15鄰","STREET":"河中街","SECT":" ","MAREA":" ","LANE":" ","ALLEY":" ","HOUSE_NO":"５９號","E_COORD97":167298.76999999999,"N_COORD97":2544084.3999999999,"ADDRESS":"河中街５９號","OBJECTID":509205},"geometry":{"x":167298.76999999955,"y":2544084.4000000022}},{"attributes":{"ID":509233,"DIS_CODE":0,"TOWNNAME":"永康區","LI":"復華里","LIN":"15鄰","STREET":"復國一路","SECT":" ","MAREA":" ","LANE":" ","ALLEY":" ","HOUSE_NO":"４２８號","E_COORD97":172734.95000000001,"N_COORD97":2546006.7799999998,"ADDRESS":"復國一路４２８號","OBJECTID":509206},"geometry":{"x":172734.95000000205,"y":2546006.7799999993}},{"attributes":{"ID":509234,"DIS_CODE":0,"TOWNNAME":"永康區","LI":"復國里","LIN":"15鄰","STREET":"復國二路","SECT":" ","MAREA":" ","LANE":" ","ALLEY":" ","HOUSE_NO":"１４７號","E_COORD97":172897.64999999999,"N_COORD97":2545663.52,"ADDRESS":"復國二路１４７號","OBJECTID":509207},"geometry":{"x":172897.65000000037,"y":2545663.5199999996}},{"attributes":{"ID":509235,"DIS_CODE":0,"TOWNNAME":"永康區","LI":"中華里","LIN":"15鄰","STREET":"華興街","SECT":" ","MAREA":" ","LANE":" ","ALLEY":" ","HOUSE_NO":"９１號","E_COORD97":171799.45000000001,"N_COORD97":2544562.9399999999,"ADDRESS":"華興街９１號","OBJECTID":509208},"geometry":{"x":171799.45000000112,"y":2544562.9399999976}},{"attributes":{"ID":509236,"DIS_CODE":0,"TOWNNAME":"東區","LI":"崇善里","LIN":"15鄰","STREET":"仁和路","SECT":" ","MAREA":" ","LANE":" ","ALLEY":" ","HOUSE_NO":"１１０號","E_COORD97":171309.67999999999,"N_COORD97":2541368.4100000001,"ADDRESS":"仁和路１１０號","OBJECTID":509209},"geometry":{"x":171309.68000000063,"y":2541368.410000002}},{"attributes":{"ID":509237,"DIS_CODE":0,"TOWNNAME":"永康區","LI":"中華里","LIN":"15鄰","STREET":"華興街","SECT":" ","MAREA":" ","LANE":" ","ALLEY":" ","HOUSE_NO":"９７號底二層之１７","E_COORD97":171792.92000000001,"N_COORD97":2544563.1299999999,"ADDRESS":"華興街９７號底二層之１７","OBJECTID":509210},"geometry":{"x":171792.92000000086,"y":2544563.129999999}},{"attributes":{"ID":509238,"DIS_CODE":0,"TOWNNAME":"新營區","LI":"新南里","LIN":"28鄰","STREET":"明清二街","SECT":" ","MAREA":" ","LANE":" ","ALLEY":" ","HOUSE_NO":"３號","E_COORD97":178229.54999999999,"N_COORD97":2578658.71,"ADDRESS":"明清二街３號","OBJECTID":509211},"geometry":{"x":178229.54999999888,"y":2578658.7100000009}},{"attributes":{"ID":509239,"DIS_CODE":0,"TOWNNAME":"新營區","LI":"新北里","LIN":"5鄰","STREET":"三興街","SECT":" ","MAREA":" ","LANE":" ","ALLEY":" ","HOUSE_NO":"９５號之１９","E_COORD97":179351.73000000001,"N_COORD97":2579219.29,"ADDRESS":"三興街９５號之１９","OBJECTID":509212},"geometry":{"x":179351.73000000138,"y":2579219.2899999991}},{"attributes":{"ID":509240,"DIS_CODE":0,"TOWNNAME":"新營區","LI":"三仙里","LIN":"17鄰","STREET":"三民路","SECT":" ","MAREA":" ","LANE":" ","ALLEY":" ","HOUSE_NO":"１０３號之２","E_COORD97":179564.70000000001,"N_COORD97":2578389.8999999999,"ADDRESS":"三民路１０３號之２","OBJECTID":509213},"geometry":{"x":179564.69999999925,"y":2578389.9000000004}},{"attributes":{"ID":509241,"DIS_CODE":0,"TOWNNAME":"新營區","LI":"南興里","LIN":"7鄰","STREET":"南昌街","SECT":" ","MAREA":" ","LANE":" ","ALLEY":" ","HOUSE_NO":"６３號","E_COORD97":179471.73000000001,"N_COORD97":2577644.96,"ADDRESS":"南昌街６３號","OBJECTID":509214},"geometry":{"x":179471.73000000231,"y":2577644.9600000028}},{"attributes":{"ID":509242,"DIS_CODE":0,"TOWNNAME":"新營區","LI":"三仙里","LIN":"15鄰","STREET":"民權路","SECT":" ","MAREA":" ","LANE":" ","ALLEY":" ","HOUSE_NO":"６３之５號","E_COORD97":179675.28,"N_COORD97":2578410.4199999999,"ADDRESS":"民權路６３之５號","OBJECTID":509215},"geometry":{"x":179675.28000000119,"y":2578410.4200000018}},{"attributes":{"ID":509243,"DIS_CODE":0,"TOWNNAME":"東區","LI":"崇善里","LIN":"15鄰","STREET":"仁和路","SECT":" ","MAREA":" ","LANE":" ","ALLEY":" ","HOUSE_NO":"１０６號","E_COORD97":171291.719281,"N_COORD97":2541413.9002,"ADDRESS":"仁和路１０６號","OBJECTID":509216},"geometry":{"x":171291.71928100195,"y":2541413.9002}},{"attributes":{"ID":509244,"DIS_CODE":0,"TOWNNAME":"北區","LI":"和順里","LIN":"32鄰","STREET":"公園南路","SECT":" ","MAREA":" ","LANE":" ","ALLEY":" ","HOUSE_NO":"３５８號","E_COORD97":168257.72,"N_COORD97":2544849.3300000001,"ADDRESS":"公園南路３５８號","OBJECTID":509217},"geometry":{"x":168257.72000000067,"y":2544849.3300000038}},{"attributes":{"ID":509245,"DIS_CODE":0,"TOWNNAME":"東區","LI":"關聖里","LIN":"27鄰","STREET":"裕文路","SECT":" ","MAREA":" ","LANE":" ","ALLEY":" ","HOUSE_NO":"１７９號","E_COORD97":172177.19,"N_COORD97":2542575.7000000002,"ADDRESS":"裕文路１７９號","OBJECTID":509218},"geometry":{"x":172177.19000000041,"y":2542575.7000000011}},{"attributes":{"ID":509246,"DIS_CODE":0,"TOWNNAME":"北區","LI":"和順里","LIN":"32鄰","STREET":"公園南路","SECT":" ","MAREA":" ","LANE":" ","ALLEY":" ","HOUSE_NO":"３５８號地下一層","E_COORD97":168257.72,"N_COORD97":2544849.3300000001,"ADDRESS":"公園南路３５８號地下一層","OBJECTID":509219},"geometry":{"x":168257.72000000067,"y":2544849.3300000038}},{"attributes":{"ID":509247,"DIS_CODE":0,"TOWNNAME":"北區","LI":"和順里","LIN":"32鄰","STREET":"公園南路","SECT":" ","MAREA":" ","LANE":" ","ALLEY":" ","HOUSE_NO":"３５８號地下二層","E_COORD97":168257.72,"N_COORD97":2544849.3300000001,"ADDRESS":"公園南路３５８號地下二層","OBJECTID":509220},"geometry":{"x":168257.72000000067,"y":2544849.3300000038}},{"attributes":{"ID":509248,"DIS_CODE":0,"TOWNNAME":"北區","LI":"和順里","LIN":"32鄰","STREET":"公園南路","SECT":" ","MAREA":" ","LANE":" ","ALLEY":" ","HOUSE_NO":"３６０號","E_COORD97":168236.92000000001,"N_COORD97":2544856.1499999999,"ADDRESS":"公園南路３６０號","OBJECTID":509221},"geometry":{"x":168236.91999999993,"y":2544856.1500000004}},{"attributes":{"ID":509249,"DIS_CODE":0,"TOWNNAME":"歸仁區","LI":"南保里","LIN":"56鄰","STREET":"民權南路","SECT":" ","MAREA":" ","LANE":" ","ALLEY":" ","HOUSE_NO":"１６４號七樓之３","E_COORD97":176921.81,"N_COORD97":2540440.2599999998,"ADDRESS":"民權南路１６４號七樓之３","OBJECTID":509222},"geometry":{"x":176921.80999999959,"y":2540440.2600000016}},{"attributes":{"ID":509250,"DIS_CODE":0,"TOWNNAME":"歸仁區","LI":"南保里","LIN":"56鄰","STREET":"民權南路","SECT":" ","MAREA":" ","LANE":" ","ALLEY":" ","HOUSE_NO":"１６４號二樓之３","E_COORD97":176921.81,"N_COORD97":2540440.2599999998,"ADDRESS":"民權南路１６４號二樓之３","OBJECTID":509223},"geometry":{"x":176921.80999999959,"y":2540440.2600000016}},{"attributes":{"ID":509251,"DIS_CODE":0,"TOWNNAME":"歸仁區","LI":"南保里","LIN":"56鄰","STREET":"民權南路","SECT":" ","MAREA":" ","LANE":" ","ALLEY":" ","HOUSE_NO":"１６４號三樓之３","E_COORD97":176921.81,"N_COORD97":2540440.2599999998,"ADDRESS":"民權南路１６４號三樓之３","OBJECTID":509224},"geometry":{"x":176921.80999999959,"y":2540440.2600000016}},{"attributes":{"ID":509252,"DIS_CODE":0,"TOWNNAME":"歸仁區","LI":"南保里","LIN":"56鄰","STREET":"民權南路","SECT":" ","MAREA":" ","LANE":" ","ALLEY":" ","HOUSE_NO":"１６４號六樓之５","E_COORD97":176921.82000000001,"N_COORD97":2540440.2599999998,"ADDRESS":"民權南路１６４號六樓之５","OBJECTID":509225},"geometry":{"x":176921.82000000123,"y":2540440.2600000016}},{"attributes":{"ID":509253,"DIS_CODE":0,"TOWNNAME":"歸仁區","LI":"南保里","LIN":"56鄰","STREET":"民權南路","SECT":" ","MAREA":" ","LANE":" ","ALLEY":" ","HOUSE_NO":"１４２號","E_COORD97":176946.66,"N_COORD97":2540477.25,"ADDRESS":"民權南路１４２號","OBJECTID":509226},"geometry":{"x":176946.66000000108,"y":2540477.2500000019}},{"attributes":{"ID":509254,"DIS_CODE":0,"TOWNNAME":"歸仁區","LI":"南保里","LIN":"56鄰","STREET":"民權十二街","SECT":" ","MAREA":" ","LANE":" ","ALLEY":" ","HOUSE_NO":"６號","E_COORD97":176912.31,"N_COORD97":2540418.25,"ADDRESS":"民權十二街６號","OBJECTID":509227},"geometry":{"x":176912.31000000145,"y":2540418.25}},{"attributes":{"ID":509255,"DIS_CODE":0,"TOWNNAME":"歸仁區","LI":"南保里","LIN":"56鄰","STREET":"民權南路","SECT":" ","MAREA":" ","LANE":" ","ALLEY":" ","HOUSE_NO":"１３４號","E_COORD97":176946.76000000001,"N_COORD97":2540494.25,"ADDRESS":"民權南路１３４號","OBJECTID":509228},"geometry":{"x":176946.76000000071,"y":2540494.2500000019}},{"attributes":{"ID":509256,"DIS_CODE":0,"TOWNNAME":"歸仁區","LI":"南保里","LIN":"56鄰","STREET":"民權南路","SECT":" ","MAREA":" ","LANE":" ","ALLEY":" ","HOUSE_NO":"１６４號一樓之２","E_COORD97":176933.51000000001,"N_COORD97":2540441.2999999998,"ADDRESS":"民權南路１６４號一樓之２","OBJECTID":509229},"geometry":{"x":176933.51000000071,"y":2540441.3000000007}},{"attributes":{"ID":509257,"DIS_CODE":0,"TOWNNAME":"歸仁區","LI":"南保里","LIN":"56鄰","STREET":"民權南路","SECT":" ","MAREA":" ","LANE":" ","ALLEY":" ","HOUSE_NO":"１６４號六樓之４","E_COORD97":176933.39999999999,"N_COORD97":2540441.2999999998,"ADDRESS":"民權南路１６４號六樓之４","OBJECTID":509230},"geometry":{"x":176933.4000000013,"y":2540441.3000000007}},{"attributes":{"ID":509258,"DIS_CODE":0,"TOWNNAME":"歸仁區","LI":"南保里","LIN":"56鄰","STREET":"民權南路","SECT":" ","MAREA":" ","LANE":" ","ALLEY":" ","HOUSE_NO":"１６４號七樓之５","E_COORD97":176933.53,"N_COORD97":2540441.2999999998,"ADDRESS":"民權南路１６４號七樓之５","OBJECTID":509231},"geometry":{"x":176933.53000000212,"y":2540441.3000000007}},{"attributes":{"ID":509259,"DIS_CODE":0,"TOWNNAME":"歸仁區","LI":"南保里","LIN":"56鄰","STREET":"民權南路","SECT":" ","MAREA":" ","LANE":" ","ALLEY":" ","HOUSE_NO":"１６４號五樓之３","E_COORD97":176933.47,"N_COORD97":2540441.2999999998,"ADDRESS":"民權南路１６４號五樓之３","OBJECTID":509232},"geometry":{"x":176933.47000000067,"y":2540441.3000000007}},{"attributes":{"ID":509260,"DIS_CODE":0,"TOWNNAME":"佳里區","LI":"安西里","LIN":"56鄰","STREET":"佳安中街","SECT":" ","MAREA":" ","LANE":" ","ALLEY":" ","HOUSE_NO":"２１號","E_COORD97":163911.29999999999,"N_COORD97":2562280.6000000001,"ADDRESS":"佳安中街２１號","OBJECTID":509233},"geometry":{"x":163911.29999999981,"y":2562280.6000000034}},{"attributes":{"ID":509261,"DIS_CODE":0,"TOWNNAME":"歸仁區","LI":"南保里","LIN":"56鄰","STREET":"民權南路","SECT":" ","MAREA":" ","LANE":" ","ALLEY":" ","HOUSE_NO":"１６４號三樓之４","E_COORD97":176933.39999999999,"N_COORD97":2540441.2999999998,"ADDRESS":"民權南路１６４號三樓之４","OBJECTID":509234},"geometry":{"x":176933.4000000013,"y":2540441.3000000007}},{"attributes":{"ID":509262,"DIS_CODE":0,"TOWNNAME":"歸仁區","LI":"南保里","LIN":"56鄰","STREET":"民權南路","SECT":" ","MAREA":" ","LANE":" ","ALLEY":" ","HOUSE_NO":"１６４號四樓之２","E_COORD97":176933.51000000001,"N_COORD97":2540441.2999999998,"ADDRESS":"民權南路１６４號四樓之２","OBJECTID":509235},"geometry":{"x":176933.51000000071,"y":2540441.3000000007}},{"attributes":{"ID":509263,"DIS_CODE":0,"TOWNNAME":"歸仁區","LI":"南保里","LIN":"56鄰","STREET":"民權南路","SECT":" ","MAREA":" ","LANE":" ","ALLEY":" ","HOUSE_NO":"１６４號五樓之２","E_COORD97":176933.51000000001,"N_COORD97":2540441.2999999998,"ADDRESS":"民權南路１６４號五樓之２","OBJECTID":509236},"geometry":{"x":176933.51000000071,"y":2540441.3000000007}},{"attributes":{"ID":509264,"DIS_CODE":0,"TOWNNAME":"歸仁區","LI":"南保里","LIN":"56鄰","STREET":"民權南路","SECT":" ","MAREA":" ","LANE":" ","ALLEY":" ","HOUSE_NO":"１６４號七樓之４","E_COORD97":176933.39999999999,"N_COORD97":2540441.2999999998,"ADDRESS":"民權南路１６４號七樓之４","OBJECTID":509237},"geometry":{"x":176933.4000000013,"y":2540441.3000000007}},{"attributes":{"ID":509265,"DIS_CODE":0,"TOWNNAME":"歸仁區","LI":"南保里","LIN":"56鄰","STREET":"民權南路","SECT":" ","MAREA":" ","LANE":" ","ALLEY":" ","HOUSE_NO":"１７０號四樓","E_COORD97":176953.64000000001,"N_COORD97":2540421.29,"ADDRESS":"民權南路１７０號四樓","OBJECTID":509238},"geometry":{"x":176953.63999999966,"y":2540421.290000001}},{"attributes":{"ID":509266,"DIS_CODE":0,"TOWNNAME":"歸仁區","LI":"南保里","LIN":"56鄰","STREET":"民權南路","SECT":" ","MAREA":" ","LANE":" ","ALLEY":" ","HOUSE_NO":"１６４號六樓之１","E_COORD97":176933.37,"N_COORD97":2540441.2999999998,"ADDRESS":"民權南路１６４號六樓之１","OBJECTID":509239},"geometry":{"x":176933.37000000104,"y":2540441.3000000007}},{"attributes":{"ID":509267,"DIS_CODE":0,"TOWNNAME":"歸仁區","LI":"南保里","LIN":"56鄰","STREET":"民權南路","SECT":" ","MAREA":" ","LANE":" ","ALLEY":" ","HOUSE_NO":"１６４號一樓之４","E_COORD97":176933.39999999999,"N_COORD97":2540441.2999999998,"ADDRESS":"民權南路１６４號一樓之４","OBJECTID":509240},"geometry":{"x":176933.4000000013,"y":2540441.3000000007}},{"attributes":{"ID":509268,"DIS_CODE":0,"TOWNNAME":"歸仁區","LI":"南保里","LIN":"56鄰","STREET":"民權南路","SECT":" ","MAREA":" ","LANE":" ","ALLEY":" ","HOUSE_NO":"１６４號一樓之３","E_COORD97":176933.47,"N_COORD97":2540441.2999999998,"ADDRESS":"民權南路１６４號一樓之３","OBJECTID":509241},"geometry":{"x":176933.47000000067,"y":2540441.3000000007}},{"attributes":{"ID":509269,"DIS_CODE":0,"TOWNNAME":"歸仁區","LI":"南保里","LIN":"56鄰","STREET":"民權南路","SECT":" ","MAREA":" ","LANE":" ","ALLEY":" ","HOUSE_NO":"１６４號六樓之６","E_COORD97":176933.48000000001,"N_COORD97":2540441.2999999998,"ADDRESS":"民權南路１６４號六樓之６","OBJECTID":509242},"geometry":{"x":176933.48000000045,"y":2540441.3000000007}},{"attributes":{"ID":509270,"DIS_CODE":0,"TOWNNAME":"歸仁區","LI":"南保里","LIN":"56鄰","STREET":"民權南路","SECT":" ","MAREA":" ","LANE":" ","ALLEY":" ","HOUSE_NO":"１６４號六樓之２","E_COORD97":176933.51000000001,"N_COORD97":2540441.2999999998,"ADDRESS":"民權南路１６４號六樓之２","OBJECTID":509243},"geometry":{"x":176933.51000000071,"y":2540441.3000000007}},{"attributes":{"ID":509271,"DIS_CODE":0,"TOWNNAME":"歸仁區","LI":"南保里","LIN":"56鄰","STREET":"民權南路","SECT":" ","MAREA":" ","LANE":" ","ALLEY":" ","HOUSE_NO":"１６４號五樓之４","E_COORD97":176921.79999999999,"N_COORD97":2540440.2599999998,"ADDRESS":"民權南路１６４號五樓之４","OBJECTID":509244},"geometry":{"x":176921.80000000075,"y":2540440.2600000016}},{"attributes":{"ID":509272,"DIS_CODE":0,"TOWNNAME":"歸仁區","LI":"南保里","LIN":"56鄰","STREET":"民權南路","SECT":" ","MAREA":" ","LANE":" ","ALLEY":" ","HOUSE_NO":"１６４號二樓之１","E_COORD97":176921.79000000001,"N_COORD97":2540440.2599999998,"ADDRESS":"民權南路１６４號二樓之１","OBJECTID":509245},"geometry":{"x":176921.79000000097,"y":2540440.2600000016}},{"attributes":{"ID":509273,"DIS_CODE":0,"TOWNNAME":"歸仁區","LI":"南保里","LIN":"56鄰","STREET":"民權南路","SECT":" ","MAREA":" ","LANE":" ","ALLEY":" ","HOUSE_NO":"１６４號五樓之５","E_COORD97":176933.53,"N_COORD97":2540441.2999999998,"ADDRESS":"民權南路１６４號五樓之５","OBJECTID":509246},"geometry":{"x":176933.53000000212,"y":2540441.3000000007}},{"attributes":{"ID":509274,"DIS_CODE":0,"TOWNNAME":"歸仁區","LI":"南保里","LIN":"56鄰","STREET":"民權南路","SECT":" ","MAREA":" ","LANE":" ","ALLEY":" ","HOUSE_NO":"１６４號四樓之４","E_COORD97":176933.39999999999,"N_COORD97":2540441.2999999998,"ADDRESS":"民權南路１６４號四樓之４","OBJECTID":509247},"geometry":{"x":176933.4000000013,"y":2540441.3000000007}},{"attributes":{"ID":509275,"DIS_CODE":0,"TOWNNAME":"歸仁區","LI":"南保里","LIN":"56鄰","STREET":"民權南路","SECT":" ","MAREA":" ","LANE":" ","ALLEY":" ","HOUSE_NO":"１６４號三樓之２","E_COORD97":176933.51000000001,"N_COORD97":2540441.2999999998,"ADDRESS":"民權南路１６４號三樓之２","OBJECTID":509248},"geometry":{"x":176933.51000000071,"y":2540441.3000000007}},{"attributes":{"ID":509276,"DIS_CODE":0,"TOWNNAME":"歸仁區","LI":"南保里","LIN":"56鄰","STREET":"民權南路","SECT":" ","MAREA":" ","LANE":" ","ALLEY":" ","HOUSE_NO":"１７０號六樓","E_COORD97":176953.64000000001,"N_COORD97":2540421.29,"ADDRESS":"民權南路１７０號六樓","OBJECTID":509249},"geometry":{"x":176953.63999999966,"y":2540421.290000001}},{"attributes":{"ID":509277,"DIS_CODE":0,"TOWNNAME":"佳里區","LI":"安西里","LIN":"56鄰","STREET":"佳安北街","SECT":" ","MAREA":" ","LANE":" ","ALLEY":" ","HOUSE_NO":"２７號","E_COORD97":163980.64999999999,"N_COORD97":2562434.3399999999,"ADDRESS":"佳安北街２７號","OBJECTID":509250},"geometry":{"x":163980.65000000037,"y":2562434.3399999999}},{"attributes":{"ID":509278,"DIS_CODE":0,"TOWNNAME":"歸仁區","LI":"南保里","LIN":"56鄰","STREET":"民權南路","SECT":" ","MAREA":" ","LANE":" ","ALLEY":" ","HOUSE_NO":"１６４號五樓之６","E_COORD97":176933.48000000001,"N_COORD97":2540441.2999999998,"ADDRESS":"民權南路１６４號五樓之６","OBJECTID":509251},"geometry":{"x":176933.48000000045,"y":2540441.3000000007}},{"attributes":{"ID":509279,"DIS_CODE":0,"TOWNNAME":"歸仁區","LI":"南保里","LIN":"56鄰","STREET":"民權南路","SECT":" ","MAREA":" ","LANE":" ","ALLEY":" ","HOUSE_NO":"１６４號三樓之１","E_COORD97":176933.37,"N_COORD97":2540441.2999999998,"ADDRESS":"民權南路１６４號三樓之１","OBJECTID":509252},"geometry":{"x":176933.37000000104,"y":2540441.3000000007}},{"attributes":{"ID":509280,"DIS_CODE":0,"TOWNNAME":"歸仁區","LI":"南保里","LIN":"56鄰","STREET":"民權南路","SECT":" ","MAREA":" ","LANE":" ","ALLEY":" ","HOUSE_NO":"１７０號二樓","E_COORD97":176953.64000000001,"N_COORD97":2540421.29,"ADDRESS":"民權南路１７０號二樓","OBJECTID":509253},"geometry":{"x":176953.63999999966,"y":2540421.290000001}},{"attributes":{"ID":509281,"DIS_CODE":0,"TOWNNAME":"歸仁區","LI":"南保里","LIN":"56鄰","STREET":"民權南路","SECT":" ","MAREA":" ","LANE":" ","ALLEY":" ","HOUSE_NO":"１７０號五樓","E_COORD97":176953.64000000001,"N_COORD97":2540421.29,"ADDRESS":"民權南路１７０號五樓","OBJECTID":509254},"geometry":{"x":176953.63999999966,"y":2540421.290000001}},{"attributes":{"ID":509282,"DIS_CODE":0,"TOWNNAME":"歸仁區","LI":"南保里","LIN":"56鄰","STREET":"民權南路","SECT":" ","MAREA":" ","LANE":" ","ALLEY":" ","HOUSE_NO":"１６４號七樓之１","E_COORD97":176933.37,"N_COORD97":2540441.2999999998,"ADDRESS":"民權南路１６４號七樓之１","OBJECTID":509255},"geometry":{"x":176933.37000000104,"y":2540441.3000000007}},{"attributes":{"ID":509283,"DIS_CODE":0,"TOWNNAME":"歸仁區","LI":"南保里","LIN":"56鄰","STREET":"民權南路","SECT":" ","MAREA":" ","LANE":" ","ALLEY":" ","HOUSE_NO":"１７０號七樓","E_COORD97":176953.64000000001,"N_COORD97":2540421.29,"ADDRESS":"民權南路１７０號七樓","OBJECTID":509256},"geometry":{"x":176953.63999999966,"y":2540421.290000001}},{"attributes":{"ID":509284,"DIS_CODE":0,"TOWNNAME":"歸仁區","LI":"南保里","LIN":"56鄰","STREET":"民權南路","SECT":" ","MAREA":" ","LANE":" ","ALLEY":" ","HOUSE_NO":"１７０號三樓","E_COORD97":176953.64000000001,"N_COORD97":2540421.29,"ADDRESS":"民權南路１７０號三樓","OBJECTID":509257},"geometry":{"x":176953.63999999966,"y":2540421.290000001}},{"attributes":{"ID":509285,"DIS_CODE":0,"TOWNNAME":"歸仁區","LI":"南保里","LIN":"56鄰","STREET":"民權南路","SECT":" ","MAREA":" ","LANE":" ","ALLEY":" ","HOUSE_NO":"１６４號七樓之２","E_COORD97":176933.51000000001,"N_COORD97":2540441.2999999998,"ADDRESS":"民權南路１６４號七樓之２","OBJECTID":509258},"geometry":{"x":176933.51000000071,"y":2540441.3000000007}},{"attributes":{"ID":509286,"DIS_CODE":0,"TOWNNAME":"佳里區","LI":"安西里","LIN":"56鄰","STREET":"佳安中街","SECT":" ","MAREA":" ","LANE":" ","ALLEY":" ","HOUSE_NO":"３８號","E_COORD97":163890.85000000001,"N_COORD97":2562296.04,"ADDRESS":"佳安中街３８號","OBJECTID":509259},"geometry":{"x":163890.84999999963,"y":2562296.0399999991}},{"attributes":{"ID":509287,"DIS_CODE":0,"TOWNNAME":"佳里區","LI":"安西里","LIN":"56鄰","STREET":"佳安中街","SECT":" ","MAREA":" ","LANE":" ","ALLEY":" ","HOUSE_NO":"３９號","E_COORD97":163871.79999999999,"N_COORD97":2562280.9300000002,"ADDRESS":"佳安中街３９號","OBJECTID":509260},"geometry":{"x":163871.80000000075,"y":2562280.9299999997}},{"attributes":{"ID":509288,"DIS_CODE":0,"TOWNNAME":"佳里區","LI":"安西里","LIN":"56鄰","STREET":"佳安中街","SECT":" ","MAREA":" ","LANE":" ","ALLEY":" ","HOUSE_NO":"１０號","E_COORD97":163947.23999999999,"N_COORD97":2562294.9399999999,"ADDRESS":"佳安中街１０號","OBJECTID":509261},"geometry":{"x":163947.24000000115,"y":2562294.9400000032}},{"attributes":{"ID":509289,"DIS_CODE":0,"TOWNNAME":"佳里區","LI":"安西里","LIN":"56鄰","STREET":"佳安中街","SECT":" ","MAREA":" ","LANE":" ","ALLEY":" ","HOUSE_NO":"１１號","E_COORD97":163937.31,"N_COORD97":2562279.27,"ADDRESS":"佳安中街１１號","OBJECTID":509262},"geometry":{"x":163937.31000000145,"y":2562279.2700000033}},{"attributes":{"ID":509290,"DIS_CODE":0,"TOWNNAME":"歸仁區","LI":"許厝里","LIN":"1鄰","STREET":"中山路","SECT":"一段","MAREA":" ","LANE":" ","ALLEY":" ","HOUSE_NO":"３３９號","E_COORD97":178416.23999999999,"N_COORD97":2540661.0099999998,"ADDRESS":"中山路一段３３９號","OBJECTID":509263},"geometry":{"x":178416.24000000022,"y":2540661.0100000016}},{"attributes":{"ID":509291,"DIS_CODE":0,"TOWNNAME":"歸仁區","LI":"新厝里","LIN":"1鄰","STREET":"中山路","SECT":"一段","MAREA":" ","LANE":" ","ALLEY":" ","HOUSE_NO":"６２９號","E_COORD97":177697.19,"N_COORD97":2540752.6800000002,"ADDRESS":"中山路一段６２９號","OBJECTID":509264},"geometry":{"x":177697.19000000134,"y":2540752.6800000016}},{"attributes":{"ID":509292,"DIS_CODE":0,"TOWNNAME":"新營區","LI":"新北里","LIN":"1鄰","STREET":"三興街","SECT":" ","MAREA":" ","LANE":" ","ALLEY":" ","HOUSE_NO":"５１號","E_COORD97":179433.67999999999,"N_COORD97":2578887.7000000002,"ADDRESS":"三興街５１號","OBJECTID":509265},"geometry":{"x":179433.6799999997,"y":2578887.6999999993}},{"attributes":{"ID":509293,"DIS_CODE":0,"TOWNNAME":"新營區","LI":"新東里","LIN":"1鄰","STREET":"開元路","SECT":" ","MAREA":" ","LANE":" ","ALLEY":" ","HOUSE_NO":"２０１號","E_COORD97":181609.42000000001,"N_COORD97":2579532,"ADDRESS":"開元路２０１號","OBJECTID":509266},"geometry":{"x":181609.42000000086,"y":2579532.0000000019}},{"attributes":{"ID":509294,"DIS_CODE":0,"TOWNNAME":"新營區","LI":"新北里","LIN":"1鄰","STREET":"周武街","SECT":" ","MAREA":" ","LANE":" ","ALLEY":" ","HOUSE_NO":"１號","E_COORD97":179403.41,"N_COORD97":2578813.6400000001,"ADDRESS":"周武街１號","OBJECTID":509267},"geometry":{"x":179403.41000000015,"y":2578813.6400000025}},{"attributes":{"ID":509295,"DIS_CODE":0,"TOWNNAME":"北區","LI":"仁愛里","LIN":"1鄰","STREET":"勝利路","SECT":" ","MAREA":" ","LANE":" ","ALLEY":" ","HOUSE_NO":"１８８號","E_COORD97":169931.163929,"N_COORD97":2544926.0307200002,"ADDRESS":"勝利路１８８號","OBJECTID":509268},"geometry":{"x":169931.1639290005,"y":2544926.0307200029}},{"attributes":{"ID":509296,"DIS_CODE":0,"TOWNNAME":"北區","LI":"五福里","LIN":"1鄰","STREET":"長北街","SECT":" ","MAREA":" ","LANE":" ","ALLEY":" ","HOUSE_NO":"９３號","E_COORD97":168432.47,"N_COORD97":2544711.1200000001,"ADDRESS":"長北街９３號","OBJECTID":509269},"geometry":{"x":168432.47000000067,"y":2544711.120000001}},{"attributes":{"ID":509297,"DIS_CODE":0,"TOWNNAME":"新化區","LI":"觀音里","LIN":"5鄰","STREET":"民族街","SECT":" ","MAREA":" ","LANE":" ","ALLEY":" ","HOUSE_NO":"３０號","E_COORD97":178906.63980400001,"N_COORD97":2548541.9498999999,"ADDRESS":"民族街３０號","OBJECTID":509270},"geometry":{"x":178906.63980400097,"y":2548541.9499019999}},{"attributes":{"ID":509298,"DIS_CODE":0,"TOWNNAME":"新化區","LI":"協興里","LIN":"7鄰","STREET":"太平街","SECT":" ","MAREA":" ","LANE":" ","ALLEY":" ","HOUSE_NO":"１５３號","E_COORD97":178254.82000000001,"N_COORD97":2548653.25,"ADDRESS":"太平街１５３號","OBJECTID":509271},"geometry":{"x":178254.8200000003,"y":2548653.25}},{"attributes":{"ID":509299,"DIS_CODE":0,"TOWNNAME":"安平區","LI":"國平里","LIN":"1鄰","STREET":"華平路","SECT":" ","MAREA":" ","LANE":" ","ALLEY":" ","HOUSE_NO":"１９６號","E_COORD97":165411.14000000001,"N_COORD97":2543355.1200000001,"ADDRESS":"華平路１９６號","OBJECTID":509272},"geometry":{"x":165411.13999999966,"y":2543355.120000001}},{"attributes":{"ID":509300,"DIS_CODE":0,"TOWNNAME":"安平區","LI":"國平里","LIN":"1鄰","STREET":"華平路","SECT":" ","MAREA":" ","LANE":" ","ALLEY":" ","HOUSE_NO":"１９８號","E_COORD97":165412.23000000001,"N_COORD97":2543359,"ADDRESS":"華平路１９８號","OBJECTID":509273},"geometry":{"x":165412.23000000138,"y":2543359}},{"attributes":{"ID":509301,"DIS_CODE":0,"TOWNNAME":"新化區","LI":"武安里","LIN":"4鄰","STREET":"大同街","SECT":" ","MAREA":" ","LANE":" ","ALLEY":" ","HOUSE_NO":"２８號","E_COORD97":179013.57999999999,"N_COORD97":2548175.25,"ADDRESS":"大同街２８號","OBJECTID":509274},"geometry":{"x":179013.58000000101,"y":2548175.25}},{"attributes":{"ID":509302,"DIS_CODE":0,"TOWNNAME":"新化區","LI":"武安里","LIN":"4鄰","STREET":"中正路","SECT":" ","MAREA":" ","LANE":" ","ALLEY":" ","HOUSE_NO":"３３１號","E_COORD97":179117.51000000001,"N_COORD97":2548184.25,"ADDRESS":"中正路３３１號","OBJECTID":509275},"geometry":{"x":179117.50999999978,"y":2548184.25}},{"attributes":{"ID":509303,"DIS_CODE":0,"TOWNNAME":"安平區","LI":"怡平里","LIN":"1鄰","STREET":"慶平路","SECT":" ","MAREA":" ","LANE":" ","ALLEY":" ","HOUSE_NO":"２０６號","E_COORD97":165785.06,"N_COORD97":2544196.4900000002,"ADDRESS":"慶平路２０６號","OBJECTID":509276},"geometry":{"x":165785.06000000145,"y":2544196.4900000002}},{"attributes":{"ID":509304,"DIS_CODE":0,"TOWNNAME":"安平區","LI":"怡平里","LIN":"1鄰","STREET":"慶平路","SECT":" ","MAREA":" ","LANE":" ","ALLEY":" ","HOUSE_NO":"２０８號","E_COORD97":165777.67999999999,"N_COORD97":2544197.3100000001,"ADDRESS":"慶平路２０８號","OBJECTID":509277},"geometry":{"x":165777.68000000063,"y":2544197.3100000005}},{"attributes":{"ID":509305,"DIS_CODE":0,"TOWNNAME":"安平區","LI":"怡平里","LIN":"1鄰","STREET":"慶平路","SECT":" ","MAREA":" ","LANE":" ","ALLEY":" ","HOUSE_NO":"２１０號","E_COORD97":165772.89000000001,"N_COORD97":2544196.8999999999,"ADDRESS":"慶平路２１０號","OBJECTID":509278},"geometry":{"x":165772.8900000006,"y":2544196.9000000004}},{"attributes":{"ID":509306,"DIS_CODE":0,"TOWNNAME":"安平區","LI":"金城里","LIN":"1鄰","STREET":"國勝路","SECT":" ","MAREA":" ","LANE":" ","ALLEY":" ","HOUSE_NO":"１７號","E_COORD97":164010.89000000001,"N_COORD97":2544508.7999999998,"ADDRESS":"國勝路１７號","OBJECTID":509279},"geometry":{"x":164010.88999999966,"y":2544508.8000000026}},{"attributes":{"ID":509307,"DIS_CODE":0,"TOWNNAME":"安平區","LI":"國平里","LIN":"1鄰","STREET":"永華路","SECT":"二段","MAREA":" ","LANE":" ","ALLEY":" ","HOUSE_NO":"４７３號","E_COORD97":165573.38,"N_COORD97":2543432.6000000001,"ADDRESS":"永華路二段４７３號","OBJECTID":509280},"geometry":{"x":165573.38000000082,"y":2543432.5999999996}},{"attributes":{"ID":509308,"DIS_CODE":0,"TOWNNAME":"安平區","LI":"育平里","LIN":"1鄰","STREET":"永華路","SECT":"二段","MAREA":" ","LANE":" ","ALLEY":" ","HOUSE_NO":"８１５號","E_COORD97":164785.89000000001,"N_COORD97":2543546.3399999999,"ADDRESS":"永華路二段８１５號","OBJECTID":509281},"geometry":{"x":164785.88999999873,"y":2543546.3399999999}},{"attributes":{"ID":509309,"DIS_CODE":0,"TOWNNAME":"安平區","LI":"育平里","LIN":"1鄰","STREET":"永華路","SECT":"二段","MAREA":" ","LANE":" ","ALLEY":" ","HOUSE_NO":"８１７號","E_COORD97":164769.82999999999,"N_COORD97":2543550,"ADDRESS":"永華路二段８１７號","OBJECTID":509282},"geometry":{"x":164769.82999999914,"y":2543550.0000000019}},{"attributes":{"ID":509310,"DIS_CODE":0,"TOWNNAME":"安平區","LI":"億載里","LIN":"1鄰","STREET":"平豐路","SECT":" ","MAREA":" ","LANE":" ","ALLEY":" ","HOUSE_NO":"４３５號","E_COORD97":164260.94,"N_COORD97":2543907.04,"ADDRESS":"平豐路４３５號","OBJECTID":509283},"geometry":{"x":164260.94000000227,"y":2543907.0399999991}},{"attributes":{"ID":509311,"DIS_CODE":0,"TOWNNAME":"北區","LI":"中樓里","LIN":"1鄰","STREET":"小東路","SECT":" ","MAREA":" ","LANE":" ","ALLEY":" ","HOUSE_NO":"１５號","E_COORD97":169580.48999999999,"N_COORD97":2544667.5099999998,"ADDRESS":"小東路１５號","OBJECTID":509284},"geometry":{"x":169580.49000000115,"y":2544667.5099999998}},{"attributes":{"ID":509312,"DIS_CODE":0,"TOWNNAME":"北區","LI":"中樓里","LIN":"1鄰","STREET":"前鋒路","SECT":" ","MAREA":" ","LANE":" ","ALLEY":" ","HOUSE_NO":"１７７號","E_COORD97":169473.72,"N_COORD97":2544731.9100000001,"ADDRESS":"前鋒路１７７號","OBJECTID":509285},"geometry":{"x":169473.71999999974,"y":2544731.9100000001}},{"attributes":{"ID":509313,"DIS_CODE":0,"TOWNNAME":"北區","LI":"中樓里","LIN":"1鄰","STREET":"前鋒路","SECT":" ","MAREA":" ","LANE":" ","ALLEY":" ","HOUSE_NO":"１７９號","E_COORD97":169478.04000000001,"N_COORD97":2544750.5800000001,"ADDRESS":"前鋒路１７９號","OBJECTID":509286},"geometry":{"x":169478.04000000097,"y":2544750.5800000019}},{"attributes":{"ID":509314,"DIS_CODE":0,"TOWNNAME":"北區","LI":"中樓里","LIN":"1鄰","STREET":"前鋒路","SECT":" ","MAREA":" ","LANE":" ","ALLEY":" ","HOUSE_NO":"１８１號","E_COORD97":169480.35999999999,"N_COORD97":2544769.4500000002,"ADDRESS":"前鋒路１８１號","OBJECTID":509287},"geometry":{"x":169480.36000000034,"y":2544769.4499999974}},{"attributes":{"ID":509315,"DIS_CODE":0,"TOWNNAME":"北區","LI":"中樓里","LIN":"1鄰","STREET":"前鋒路","SECT":" ","MAREA":" ","LANE":" ","ALLEY":" ","HOUSE_NO":"１８３號","E_COORD97":169483.17999999999,"N_COORD97":2544788.1699999999,"ADDRESS":"前鋒路１８３號","OBJECTID":509288},"geometry":{"x":169483.18000000156,"y":2544788.1699999999}},{"attributes":{"ID":509316,"DIS_CODE":0,"TOWNNAME":"北區","LI":"五福里","LIN":"1鄰","STREET":"長北街","SECT":" ","MAREA":" ","LANE":" ","ALLEY":" ","HOUSE_NO":"８７號","E_COORD97":168427.48999999999,"N_COORD97":2544695.0899999999,"ADDRESS":"長北街８７號","OBJECTID":509289},"geometry":{"x":168427.49000000115,"y":2544695.0900000017}},{"attributes":{"ID":509317,"DIS_CODE":0,"TOWNNAME":"北區","LI":"五福里","LIN":"1鄰","STREET":"長北街","SECT":" ","MAREA":" ","LANE":" ","ALLEY":" ","HOUSE_NO":"７７號","E_COORD97":168421.09,"N_COORD97":2544675.8399999999,"ADDRESS":"長北街７７號","OBJECTID":509290},"geometry":{"x":168421.09000000171,"y":2544675.8399999999}},{"attributes":{"ID":509318,"DIS_CODE":0,"TOWNNAME":"歸仁區","LI":"辜厝里","LIN":"1鄰","STREET":"中山路","SECT":"二段","MAREA":" ","LANE":" ","ALLEY":" ","HOUSE_NO":"１１號","E_COORD97":177567.31,"N_COORD97":2540768.1200000001,"ADDRESS":"中山路二段１１號","OBJECTID":509291},"geometry":{"x":177567.31000000052,"y":2540768.120000001}},{"attributes":{"ID":509319,"DIS_CODE":0,"TOWNNAME":"歸仁區","LI":"許厝里","LIN":"1鄰","STREET":"中山路","SECT":"一段","MAREA":" ","LANE":" ","ALLEY":" ","HOUSE_NO":"３７７號","E_COORD97":178317.84,"N_COORD97":2540674.0099999998,"ADDRESS":"中山路一段３７７號","OBJECTID":509292},"geometry":{"x":178317.84000000078,"y":2540674.0099999979}},{"attributes":{"ID":509320,"DIS_CODE":0,"TOWNNAME":"北區","LI":"國興里","LIN":"1鄰","STREET":"開元路","SECT":" ","MAREA":" ","LANE":" ","ALLEY":" ","HOUSE_NO":"３５２之２號","E_COORD97":170481.42000000001,"N_COORD97":2545563.8700000001,"ADDRESS":"開元路３５２之２號","OBJECTID":509293},"geometry":{"x":170481.41999999993,"y":2545563.870000001}},{"attributes":{"ID":509321,"DIS_CODE":0,"TOWNNAME":"北區","LI":"國興里","LIN":"1鄰","STREET":"開元路","SECT":" ","MAREA":" ","LANE":" ","ALLEY":" ","HOUSE_NO":"３５２之３號","E_COORD97":170477.73999999999,"N_COORD97":2545560.0600000001,"ADDRESS":"開元路３５２之３號","OBJECTID":509294},"geometry":{"x":170477.74000000022,"y":2545560.0599999987}},{"attributes":{"ID":509322,"DIS_CODE":0,"TOWNNAME":"玉井區","LI":"玉田里","LIN":"1鄰","STREET":"中正路","SECT":" ","MAREA":" ","LANE":" ","ALLEY":" ","HOUSE_NO":"１８５號","E_COORD97":195037.56,"N_COORD97":2558243.25,"ADDRESS":"中正路１８５號","OBJECTID":509295},"geometry":{"x":195037.56000000052,"y":2558243.2500000019}},{"attributes":{"ID":509323,"DIS_CODE":0,"TOWNNAME":"玉井區","LI":"玉田里","LIN":"1鄰","STREET":"中正路","SECT":" ","MAREA":" ","LANE":" ","ALLEY":" ","HOUSE_NO":"１８９號","E_COORD97":195044.06,"N_COORD97":2558246.25,"ADDRESS":"中正路１８９號","OBJECTID":509296},"geometry":{"x":195044.06000000052,"y":2558246.2500000019}},{"attributes":{"ID":509324,"DIS_CODE":0,"TOWNNAME":"北區","LI":"勝安里","LIN":"1鄰","STREET":"開元路","SECT":" ","MAREA":" ","LANE":" ","ALLEY":" ","HOUSE_NO":"９之１號","E_COORD97":169511.29000000001,"N_COORD97":2545113.6400000001,"ADDRESS":"開元路９之１號","OBJECTID":509297},"geometry":{"x":169511.29000000004,"y":2545113.6400000025}},{"attributes":{"ID":509325,"DIS_CODE":0,"TOWNNAME":"學甲區","LI":"仁得里","LIN":"1鄰","STREET":"自立街","SECT":" ","MAREA":" ","LANE":" ","ALLEY":" ","HOUSE_NO":"６號","E_COORD97":166164.44,"N_COORD97":2569933.9399999999,"ADDRESS":"自立街６號","OBJECTID":509298},"geometry":{"x":166164.44000000041,"y":2569933.9400000013}},{"attributes":{"ID":509326,"DIS_CODE":0,"TOWNNAME":"南區","LI":"大成里","LIN":"1鄰","STREET":"健康路","SECT":"一段","MAREA":" ","LANE":" ","ALLEY":" ","HOUSE_NO":"３４９號","E_COORD97":168013.64000000001,"N_COORD97":2542432.25,"ADDRESS":"健康路一段３４９號","OBJECTID":509299},"geometry":{"x":168013.64000000153,"y":2542432.2499999981}},{"attributes":{"ID":509327,"DIS_CODE":0,"TOWNNAME":"南區","LI":"大成里","LIN":"1鄰","STREET":"健康路","SECT":"一段","MAREA":" ","LANE":" ","ALLEY":" ","HOUSE_NO":"３５１號","E_COORD97":168007.23999999999,"N_COORD97":2542432.3999999999,"ADDRESS":"健康路一段３５１號","OBJECTID":509300},"geometry":{"x":168007.24000000115,"y":2542432.4000000022}},{"attributes":{"ID":509328,"DIS_CODE":0,"TOWNNAME":"南區","LI":"大成里","LIN":"1鄰","STREET":"健康路","SECT":"一段","MAREA":" ","LANE":" ","ALLEY":" ","HOUSE_NO":"３５３號","E_COORD97":168001.42000000001,"N_COORD97":2542432.3999999999,"ADDRESS":"健康路一段３５３號","OBJECTID":509301},"geometry":{"x":168001.41999999993,"y":2542432.4000000022}},{"attributes":{"ID":509329,"DIS_CODE":0,"TOWNNAME":"南區","LI":"大成里","LIN":"1鄰","STREET":"健康路","SECT":"一段","MAREA":" ","LANE":" ","ALLEY":" ","HOUSE_NO":"３９５號","E_COORD97":167899.70999999999,"N_COORD97":2542433.5699999998,"ADDRESS":"健康路一段３９５號","OBJECTID":509302},"geometry":{"x":167899.70999999996,"y":2542433.5700000003}},{"attributes":{"ID":509330,"DIS_CODE":0,"TOWNNAME":"南區","LI":"大成里","LIN":"1鄰","STREET":"健康路","SECT":"一段","MAREA":" ","LANE":" ","ALLEY":" ","HOUSE_NO":"３９７號","E_COORD97":167892.92999999999,"N_COORD97":2542428.2999999998,"ADDRESS":"健康路一段３９７號","OBJECTID":509303},"geometry":{"x":167892.9299999997,"y":2542428.3000000007}},{"attributes":{"ID":509331,"DIS_CODE":0,"TOWNNAME":"南區","LI":"大成里","LIN":"1鄰","STREET":"健康路","SECT":"一段","MAREA":" ","LANE":" ","ALLEY":" ","HOUSE_NO":"４０１號","E_COORD97":167882.75,"N_COORD97":2542428.4900000002,"ADDRESS":"健康路一段４０１號","OBJECTID":509304},"geometry":{"x":167882.75000000186,"y":2542428.4900000021}},{"attributes":{"ID":509332,"DIS_CODE":0,"TOWNNAME":"南區","LI":"大成里","LIN":"1鄰","STREET":"健康路","SECT":"一段","MAREA":" ","LANE":" ","ALLEY":" ","HOUSE_NO":"４１３號","E_COORD97":167856.56,"N_COORD97":2542432.6299999999,"ADDRESS":"健康路一段４１３號","OBJECTID":509305},"geometry":{"x":167856.56000000145,"y":2542432.6300000008}},{"attributes":{"ID":509333,"DIS_CODE":0,"TOWNNAME":"南區","LI":"大成里","LIN":"1鄰","STREET":"健康路","SECT":"一段","MAREA":" ","LANE":" ","ALLEY":" ","HOUSE_NO":"４１７號","E_COORD97":167846.95000000001,"N_COORD97":2542433.1899999999,"ADDRESS":"健康路一段４１７號","OBJECTID":509306},"geometry":{"x":167846.95000000019,"y":2542433.1900000013}},{"attributes":{"ID":509334,"DIS_CODE":0,"TOWNNAME":"南區","LI":"大成里","LIN":"1鄰","STREET":"健康路","SECT":"一段","MAREA":" ","LANE":" ","ALLEY":" ","HOUSE_NO":"４１９號","E_COORD97":167842.42999999999,"N_COORD97":2542433.5699999998,"ADDRESS":"健康路一段４１９號","OBJECTID":509307},"geometry":{"x":167842.43000000063,"y":2542433.5700000003}},{"attributes":{"ID":509335,"DIS_CODE":0,"TOWNNAME":"南區","LI":"大成里","LIN":"1鄰","STREET":"健康路","SECT":"一段","MAREA":" ","LANE":" ","ALLEY":" ","HOUSE_NO":"４２１號","E_COORD97":167837.91,"N_COORD97":2542433.5699999998,"ADDRESS":"健康路一段４２１號","OBJECTID":509308},"geometry":{"x":167837.91000000108,"y":2542433.5700000003}},{"attributes":{"ID":509336,"DIS_CODE":0,"TOWNNAME":"南區","LI":"大成里","LIN":"1鄰","STREET":"健康路","SECT":"一段","MAREA":" ","LANE":" ","ALLEY":" ","HOUSE_NO":"４２３號","E_COORD97":167833.20000000001,"N_COORD97":2542433.5699999998,"ADDRESS":"健康路一段４２３號","OBJECTID":509309},"geometry":{"x":167833.20000000112,"y":2542433.5700000003}},{"attributes":{"ID":509337,"DIS_CODE":0,"TOWNNAME":"楠西區","LI":"東勢里","LIN":"1鄰","STREET":"水庫路","SECT":" ","MAREA":" ","LANE":" ","ALLEY":" ","HOUSE_NO":"３７號","E_COORD97":197866.12,"N_COORD97":2564486.25,"ADDRESS":"水庫路３７號","OBJECTID":509310},"geometry":{"x":197866.12000000011,"y":2564486.25}},{"attributes":{"ID":509338,"DIS_CODE":0,"TOWNNAME":"楠西區","LI":"楠西里","LIN":"1鄰","STREET":"中華路","SECT":" ","MAREA":" ","LANE":" ","ALLEY":" ","HOUSE_NO":"３９號之１","E_COORD97":197282.35000000001,"N_COORD97":2564115.2999999998,"ADDRESS":"中華路３９號之１","OBJECTID":509311},"geometry":{"x":197282.34999999963,"y":2564115.3000000026}},{"attributes":{"ID":509339,"DIS_CODE":0,"TOWNNAME":"柳營區","LI":"士林里","LIN":"1鄰","STREET":"士賢街","SECT":" ","MAREA":" ","LANE":" ","ALLEY":" ","HOUSE_NO":"１１１號","E_COORD97":179231.07999999999,"N_COORD97":2575211.98,"ADDRESS":"士賢街１１１號","OBJECTID":509312},"geometry":{"x":179231.08000000007,"y":2575211.9800000004}},{"attributes":{"ID":509340,"DIS_CODE":0,"TOWNNAME":"新營區","LI":"埤寮里","LIN":"1鄰","STREET":"中正路","SECT":" ","MAREA":" ","LANE":" ","ALLEY":" ","HOUSE_NO":"５２４之７號","E_COORD97":180135.29999999999,"N_COORD97":2580902.23,"ADDRESS":"中正路５２４之７號","OBJECTID":509313},"geometry":{"x":180135.30000000075,"y":2580902.2300000004}},{"attributes":{"ID":509341,"DIS_CODE":0,"TOWNNAME":"新營區","LI":"延平里","LIN":"1鄰","STREET":"延平路","SECT":" ","MAREA":" ","LANE":" ","ALLEY":" ","HOUSE_NO":"１０６號","E_COORD97":179760.53,"N_COORD97":2577671.2799999998,"ADDRESS":"延平路１０６號","OBJECTID":509314},"geometry":{"x":179760.53000000026,"y":2577671.2800000031}},{"attributes":{"ID":509342,"DIS_CODE":0,"TOWNNAME":"新營區","LI":"護鎮里","LIN":"1鄰","STREET":"建國路","SECT":" ","MAREA":" ","LANE":" ","ALLEY":" ","HOUSE_NO":"１４０號","E_COORD97":179645.57999999999,"N_COORD97":2581032.9500000002,"ADDRESS":"建國路１４０號","OBJECTID":509315},"geometry":{"x":179645.58000000101,"y":2581032.9499999974}},{"attributes":{"ID":509343,"DIS_CODE":0,"TOWNNAME":"新營區","LI":"忠政里","LIN":"1鄰","STREET":"中正路","SECT":" ","MAREA":" ","LANE":" ","ALLEY":" ","HOUSE_NO":"２７號之９","E_COORD97":180106.72,"N_COORD97":2579001.96,"ADDRESS":"中正路２７號之９","OBJECTID":509316},"geometry":{"x":180106.7200000016,"y":2579001.9600000028}},{"attributes":{"ID":509344,"DIS_CODE":0,"TOWNNAME":"南區","LI":"鯤鯓里","LIN":"1鄰","STREET":"鯤鯓路","SECT":" ","MAREA":" ","LANE":" ","ALLEY":" ","HOUSE_NO":"８８號","E_COORD97":165110.66,"N_COORD97":2540016.1899999999,"ADDRESS":"鯤鯓路８８號","OBJECTID":509317},"geometry":{"x":165110.66000000108,"y":2540016.1900000013}},{"attributes":{"ID":509345,"DIS_CODE":0,"TOWNNAME":"新營區","LI":"護鎮里","LIN":"1鄰","STREET":"建國路","SECT":" ","MAREA":" ","LANE":" ","ALLEY":" ","HOUSE_NO":"１９１號","E_COORD97":179474.69,"N_COORD97":2581011.6200000001,"ADDRESS":"建國路１９１號","OBJECTID":509318},"geometry":{"x":179474.69000000041,"y":2581011.6200000029}},{"attributes":{"ID":509346,"DIS_CODE":0,"TOWNNAME":"南區","LI":"鯤鯓里","LIN":"1鄰","STREET":"鯤鯓路","SECT":" ","MAREA":" ","LANE":" ","ALLEY":" ","HOUSE_NO":"９０號","E_COORD97":165106.92000000001,"N_COORD97":2540015.9399999999,"ADDRESS":"鯤鯓路９０號","OBJECTID":509319},"geometry":{"x":165106.92000000086,"y":2540015.9399999995}},{"attributes":{"ID":509347,"DIS_CODE":0,"TOWNNAME":"南區","LI":"南都里","LIN":"1鄰","STREET":"中華南路","SECT":"二段","MAREA":" ","LANE":" ","ALLEY":" ","HOUSE_NO":"３３７號","E_COORD97":166407.62,"N_COORD97":2540257.8700000001,"ADDRESS":"中華南路二段３３７號","OBJECTID":509320},"geometry":{"x":166407.62000000104,"y":2540257.870000001}},{"attributes":{"ID":509348,"DIS_CODE":0,"TOWNNAME":"南區","LI":"南都里","LIN":"1鄰","STREET":"中華南路","SECT":"二段","MAREA":" ","LANE":" ","ALLEY":" ","HOUSE_NO":"３３９號","E_COORD97":166403.78,"N_COORD97":2540259.6299999999,"ADDRESS":"中華南路二段３３９號","OBJECTID":509321},"geometry":{"x":166403.78000000026,"y":2540259.6300000008}},{"attributes":{"ID":509349,"DIS_CODE":0,"TOWNNAME":"南區","LI":"南都里","LIN":"1鄰","STREET":"中華南路","SECT":"二段","MAREA":" ","LANE":" ","ALLEY":" ","HOUSE_NO":"３４１號","E_COORD97":166391.60000000001,"N_COORD97":2540259.3100000001,"ADDRESS":"中華南路二段３４１號","OBJECTID":509322},"geometry":{"x":166391.60000000149,"y":2540259.3100000042}},{"attributes":{"ID":509350,"DIS_CODE":0,"TOWNNAME":"南區","LI":"南都里","LIN":"1鄰","STREET":"中華南路","SECT":"二段","MAREA":" ","LANE":" ","ALLEY":" ","HOUSE_NO":"３４３號","E_COORD97":166387.59,"N_COORD97":2540257.0699999998,"ADDRESS":"中華南路二段３４３號","OBJECTID":509323},"geometry":{"x":166387.59000000078,"y":2540257.0700000003}},{"attributes":{"ID":509351,"DIS_CODE":0,"TOWNNAME":"南區","LI":"南都里","LIN":"1鄰","STREET":"中華南路","SECT":"二段","MAREA":" ","LANE":" ","ALLEY":" ","HOUSE_NO":"３４５號","E_COORD97":166383.59,"N_COORD97":2540259.1499999999,"ADDRESS":"中華南路二段３４５號","OBJECTID":509324},"geometry":{"x":166383.59000000078,"y":2540259.1500000004}},{"attributes":{"ID":509352,"DIS_CODE":0,"TOWNNAME":"南區","LI":"南都里","LIN":"1鄰","STREET":"中華南路","SECT":"二段","MAREA":" ","LANE":" ","ALLEY":" ","HOUSE_NO":"３４７號","E_COORD97":166379.59,"N_COORD97":2540256.9100000001,"ADDRESS":"中華南路二段３４７號","OBJECTID":509325},"geometry":{"x":166379.58999999985,"y":2540256.9100000001}},{"attributes":{"ID":509353,"DIS_CODE":0,"TOWNNAME":"南區","LI":"南都里","LIN":"1鄰","STREET":"中華南路","SECT":"二段","MAREA":" ","LANE":" ","ALLEY":" ","HOUSE_NO":"３４９號","E_COORD97":166373.82999999999,"N_COORD97":2540259.1499999999,"ADDRESS":"中華南路二段３４９號","OBJECTID":509326},"geometry":{"x":166373.83000000101,"y":2540259.1500000004}},{"attributes":{"ID":509354,"DIS_CODE":0,"TOWNNAME":"南區","LI":"南都里","LIN":"1鄰","STREET":"中華南路","SECT":"二段","MAREA":" ","LANE":" ","ALLEY":" ","HOUSE_NO":"３５１號","E_COORD97":166369.82999999999,"N_COORD97":2540257.0699999998,"ADDRESS":"中華南路二段３５１號","OBJECTID":509327},"geometry":{"x":166369.83000000007,"y":2540257.0700000003}},{"attributes":{"ID":509355,"DIS_CODE":0,"TOWNNAME":"南區","LI":"南都里","LIN":"1鄰","STREET":"中華南路","SECT":"二段","MAREA":" ","LANE":" ","ALLEY":" ","HOUSE_NO":"３５３號","E_COORD97":166365.82000000001,"N_COORD97":2540259.3100000001,"ADDRESS":"中華南路二段３５３號","OBJECTID":509328},"geometry":{"x":166365.82000000123,"y":2540259.3100000042}},{"attributes":{"ID":509356,"DIS_CODE":0,"TOWNNAME":"南區","LI":"南都里","LIN":"1鄰","STREET":"中華南路","SECT":"二段","MAREA":" ","LANE":" ","ALLEY":" ","HOUSE_NO":"３５５號","E_COORD97":166361.66,"N_COORD97":2540257.0699999998,"ADDRESS":"中華南路二段３５５號","OBJECTID":509329},"geometry":{"x":166361.66000000108,"y":2540257.0700000003}},{"attributes":{"ID":509357,"DIS_CODE":0,"TOWNNAME":"南區","LI":"南都里","LIN":"1鄰","STREET":"中華南路","SECT":"二段","MAREA":" ","LANE":" ","ALLEY":" ","HOUSE_NO":"３５７號","E_COORD97":166354.94,"N_COORD97":2540259.4700000002,"ADDRESS":"中華南路二段３５７號","OBJECTID":509330},"geometry":{"x":166354.94000000134,"y":2540259.4700000025}},{"attributes":{"ID":509358,"DIS_CODE":0,"TOWNNAME":"南區","LI":"南都里","LIN":"1鄰","STREET":"中華南路","SECT":"二段","MAREA":" ","LANE":" ","ALLEY":" ","HOUSE_NO":"３５９號","E_COORD97":166350.94,"N_COORD97":2540257.3900000001,"ADDRESS":"中華南路二段３５９號","OBJECTID":509331},"geometry":{"x":166350.94000000041,"y":2540257.3900000006}},{"attributes":{"ID":509359,"DIS_CODE":0,"TOWNNAME":"新營區","LI":"民生里","LIN":"1鄰","STREET":"復興路","SECT":" ","MAREA":" ","LANE":" ","ALLEY":" ","HOUSE_NO":"１１４號","E_COORD97":179472.89999999999,"N_COORD97":2578059.1499999999,"ADDRESS":"復興路１１４號","OBJECTID":509332},"geometry":{"x":179472.9000000013,"y":2578059.1500000004}},{"attributes":{"ID":509360,"DIS_CODE":0,"TOWNNAME":"善化區","LI":"東關里","LIN":"1鄰","STREET":"中山路","SECT":" ","MAREA":" ","LANE":" ","ALLEY":" ","HOUSE_NO":"３５８號","E_COORD97":177609.32999999999,"N_COORD97":2559104,"ADDRESS":"中山路３５８號","OBJECTID":509333},"geometry":{"x":177609.33000000194,"y":2559104}},{"attributes":{"ID":509361,"DIS_CODE":0,"TOWNNAME":"南區","LI":"南都里","LIN":"1鄰","STREET":"中華南路","SECT":"二段","MAREA":" ","LANE":" ","ALLEY":" ","HOUSE_NO":"３６１號","E_COORD97":166347.10000000001,"N_COORD97":2540259.6299999999,"ADDRESS":"中華南路二段３６１號","OBJECTID":509334},"geometry":{"x":166347.09999999963,"y":2540259.6300000008}},{"attributes":{"ID":509362,"DIS_CODE":0,"TOWNNAME":"南區","LI":"南都里","LIN":"1鄰","STREET":"中華南路","SECT":"二段","MAREA":" ","LANE":" ","ALLEY":" ","HOUSE_NO":"３６３號","E_COORD97":166343.10000000001,"N_COORD97":2540257.3900000001,"ADDRESS":"中華南路二段３６３號","OBJECTID":509335},"geometry":{"x":166343.10000000056,"y":2540257.3900000006}},{"attributes":{"ID":509363,"DIS_CODE":0,"TOWNNAME":"南區","LI":"南都里","LIN":"1鄰","STREET":"中華南路","SECT":"二段","MAREA":" ","LANE":" ","ALLEY":" ","HOUSE_NO":"３６５號","E_COORD97":166338.13,"N_COORD97":2540259.1499999999,"ADDRESS":"中華南路二段３６５號","OBJECTID":509336},"geometry":{"x":166338.13000000082,"y":2540259.1500000004}},{"attributes":{"ID":509364,"DIS_CODE":0,"TOWNNAME":"南區","LI":"南都里","LIN":"1鄰","STREET":"中華南路","SECT":"二段","MAREA":" ","LANE":" ","ALLEY":" ","HOUSE_NO":"３６７號","E_COORD97":166334.29000000001,"N_COORD97":2540257.3900000001,"ADDRESS":"中華南路二段３６７號","OBJECTID":509337},"geometry":{"x":166334.29000000004,"y":2540257.3900000006}},{"attributes":{"ID":509365,"DIS_CODE":0,"TOWNNAME":"南區","LI":"南都里","LIN":"1鄰","STREET":"中華南路","SECT":"二段","MAREA":" ","LANE":" ","ALLEY":" ","HOUSE_NO":"３６９號","E_COORD97":166329.97,"N_COORD97":2540258.8300000001,"ADDRESS":"中華南路二段３６９號","OBJECTID":509338},"geometry":{"x":166329.9700000016,"y":2540258.8300000038}},{"attributes":{"ID":509366,"DIS_CODE":0,"TOWNNAME":"南區","LI":"鯤鯓里","LIN":"1鄰","STREET":"鯤鯓路","SECT":" ","MAREA":" ","LANE":" ","ALLEY":" ","HOUSE_NO":"９２號","E_COORD97":165102.45000000001,"N_COORD97":2540016.1899999999,"ADDRESS":"鯤鯓路９２號","OBJECTID":509339},"geometry":{"x":165102.45000000019,"y":2540016.1900000013}},{"attributes":{"ID":509367,"DIS_CODE":0,"TOWNNAME":"南區","LI":"鯤鯓里","LIN":"1鄰","STREET":"鯤鯓路","SECT":" ","MAREA":" ","LANE":" ","ALLEY":" ","HOUSE_NO":"９３號","E_COORD97":165116.51000000001,"N_COORD97":2539985.0600000001,"ADDRESS":"鯤鯓路９３號","OBJECTID":509340},"geometry":{"x":165116.51000000071,"y":2539985.0600000005}},{"attributes":{"ID":509368,"DIS_CODE":0,"TOWNNAME":"南區","LI":"鯤鯓里","LIN":"1鄰","STREET":"鯤鯓路","SECT":" ","MAREA":" ","LANE":" ","ALLEY":" ","HOUSE_NO":"９５號","E_COORD97":165111.56,"N_COORD97":2539984.7000000002,"ADDRESS":"鯤鯓路９５號","OBJECTID":509341},"geometry":{"x":165111.55999999959,"y":2539984.7000000011}},{"attributes":{"ID":509369,"DIS_CODE":0,"TOWNNAME":"安平區","LI":"平通里","LIN":"1鄰","STREET":"國平路","SECT":" ","MAREA":" ","LANE":" ","ALLEY":" ","HOUSE_NO":"５９７號","E_COORD97":165068.92000000001,"N_COORD97":2544148.1000000001,"ADDRESS":"國平路５９７號","OBJECTID":509342},"geometry":{"x":165068.91999999993,"y":2544148.0999999996}},{"attributes":{"ID":509370,"DIS_CODE":0,"TOWNNAME":"安平區","LI":"金城里","LIN":"1鄰","STREET":"國勝路","SECT":" ","MAREA":" ","LANE":" ","ALLEY":" ","HOUSE_NO":"１７號之２","E_COORD97":164011.01999999999,"N_COORD97":2544517.3900000001,"ADDRESS":"國勝路１７號之２","OBJECTID":509343},"geometry":{"x":164011.02000000048,"y":2544517.3900000043}},{"attributes":{"ID":509371,"DIS_CODE":0,"TOWNNAME":"安平區","LI":"平通里","LIN":"1鄰","STREET":"國平路","SECT":" ","MAREA":" ","LANE":" ","ALLEY":" ","HOUSE_NO":"５９９號","E_COORD97":165057.29000000001,"N_COORD97":2544138.6800000002,"ADDRESS":"國平路５９９號","OBJECTID":509344},"geometry":{"x":165057.29000000097,"y":2544138.6800000016}},{"attributes":{"ID":509372,"DIS_CODE":0,"TOWNNAME":"安平區","LI":"平通里","LIN":"1鄰","STREET":"國平路","SECT":" ","MAREA":" ","LANE":" ","ALLEY":" ","HOUSE_NO":"５９３號","E_COORD97":165067.56,"N_COORD97":2544138.0899999999,"ADDRESS":"國平路５９３號","OBJECTID":509345},"geometry":{"x":165067.55999999959,"y":2544138.0899999999}},{"attributes":{"ID":509373,"DIS_CODE":0,"TOWNNAME":"安平區","LI":"平通里","LIN":"1鄰","STREET":"國平路","SECT":" ","MAREA":" ","LANE":" ","ALLEY":" ","HOUSE_NO":"５９５號","E_COORD97":165068.32999999999,"N_COORD97":2544143.2599999998,"ADDRESS":"國平路５９５號","OBJECTID":509346},"geometry":{"x":165068.33000000194,"y":2544143.2599999998}},{"attributes":{"ID":509374,"DIS_CODE":0,"TOWNNAME":"南區","LI":"鯤鯓里","LIN":"1鄰","STREET":"鯤鯓路","SECT":" ","MAREA":" ","LANE":" ","ALLEY":" ","HOUSE_NO":"９９號","E_COORD97":165103.35000000001,"N_COORD97":2539985.8999999999,"ADDRESS":"鯤鯓路９９號","OBJECTID":509347},"geometry":{"x":165103.35000000149,"y":2539985.9000000004}},{"attributes":{"ID":509375,"DIS_CODE":0,"TOWNNAME":"安平區","LI":"平通里","LIN":"1鄰","STREET":"國平路","SECT":" ","MAREA":" ","LANE":" ","ALLEY":" ","HOUSE_NO":"５９９號之１","E_COORD97":165040.62,"N_COORD97":2544160.9199999999,"ADDRESS":"國平路５９９號之１","OBJECTID":509348},"geometry":{"x":165040.62000000011,"y":2544160.9200000018}},{"attributes":{"ID":509376,"DIS_CODE":0,"TOWNNAME":"安平區","LI":"平通里","LIN":"1鄰","STREET":"國平路","SECT":" ","MAREA":" ","LANE":" ","ALLEY":" ","HOUSE_NO":"６０１號","E_COORD97":165070.01999999999,"N_COORD97":2544155.79,"ADDRESS":"國平路６０１號","OBJECTID":509349},"geometry":{"x":165070.02000000048,"y":2544155.7899999991}},{"attributes":{"ID":509377,"DIS_CODE":0,"TOWNNAME":"安平區","LI":"金城里","LIN":"1鄰","STREET":"運河路","SECT":" ","MAREA":" ","LANE":" ","ALLEY":" ","HOUSE_NO":"３２號","E_COORD97":163999.60999999999,"N_COORD97":2544424.8999999999,"ADDRESS":"運河路３２號","OBJECTID":509350},"geometry":{"x":163999.61000000034,"y":2544424.9000000004}},{"attributes":{"ID":509378,"DIS_CODE":0,"TOWNNAME":"學甲區","LI":"新榮里","LIN":"1鄰","STREET":"寶發路","SECT":" ","MAREA":" ","LANE":" ","ALLEY":" ","HOUSE_NO":"１０７號","E_COORD97":166718.98999999999,"N_COORD97":2569652.4300000002,"ADDRESS":"寶發路１０７號","OBJECTID":509351},"geometry":{"x":166718.99000000115,"y":2569652.4300000034}},{"attributes":{"ID":509379,"DIS_CODE":0,"TOWNNAME":"學甲區","LI":"新榮里","LIN":"1鄰","STREET":"寶發路","SECT":" ","MAREA":" ","LANE":" ","ALLEY":" ","HOUSE_NO":"１０８號","E_COORD97":166716.67000000001,"N_COORD97":2569689.52,"ADDRESS":"寶發路１０８號","OBJECTID":509352},"geometry":{"x":166716.66999999993,"y":2569689.5200000014}},{"attributes":{"ID":509380,"DIS_CODE":0,"TOWNNAME":"學甲區","LI":"新榮里","LIN":"1鄰","STREET":"寶發路","SECT":" ","MAREA":" ","LANE":" ","ALLEY":" ","HOUSE_NO":"１１０號","E_COORD97":166709.67999999999,"N_COORD97":2569684.0600000001,"ADDRESS":"寶發路１１０號","OBJECTID":509353},"geometry":{"x":166709.6799999997,"y":2569684.0600000024}},{"attributes":{"ID":509381,"DIS_CODE":0,"TOWNNAME":"學甲區","LI":"新榮里","LIN":"1鄰","STREET":"寶發路","SECT":" ","MAREA":" ","LANE":" ","ALLEY":" ","HOUSE_NO":"１１２號","E_COORD97":166704.95999999999,"N_COORD97":2569683.9500000002,"ADDRESS":"寶發路１１２號","OBJECTID":509354},"geometry":{"x":166704.96000000089,"y":2569683.9499999993}},{"attributes":{"ID":509382,"DIS_CODE":0,"TOWNNAME":"學甲區","LI":"仁得里","LIN":"1鄰","STREET":"寶發路","SECT":" ","MAREA":" ","LANE":" ","ALLEY":" ","HOUSE_NO":"１３４號","E_COORD97":166655.16,"N_COORD97":2569675.1299999999,"ADDRESS":"寶發路１３４號","OBJECTID":509355},"geometry":{"x":166655.16000000108,"y":2569675.1300000008}},{"attributes":{"ID":509383,"DIS_CODE":0,"TOWNNAME":"學甲區","LI":"新榮里","LIN":"1鄰","STREET":"寶發路","SECT":" ","MAREA":" ","LANE":" ","ALLEY":" ","HOUSE_NO":"１４２號","E_COORD97":166628.23999999999,"N_COORD97":2569677.04,"ADDRESS":"寶發路１４２號","OBJECTID":509356},"geometry":{"x":166628.24000000022,"y":2569677.0399999991}},{"attributes":{"ID":509384,"DIS_CODE":0,"TOWNNAME":"學甲區","LI":"新榮里","LIN":"1鄰","STREET":"寶發路","SECT":" ","MAREA":" ","LANE":" ","ALLEY":" ","HOUSE_NO":"１４８號","E_COORD97":166610.98999999999,"N_COORD97":2569672.9300000002,"ADDRESS":"寶發路１４８號","OBJECTID":509357},"geometry":{"x":166610.99000000022,"y":2569672.9300000016}},{"attributes":{"ID":509385,"DIS_CODE":0,"TOWNNAME":"學甲區","LI":"新榮里","LIN":"1鄰","STREET":"寶發路","SECT":" ","MAREA":" ","LANE":" ","ALLEY":" ","HOUSE_NO":"１５０號","E_COORD97":166606.66,"N_COORD97":2569672.3599999999,"ADDRESS":"寶發路１５０號","OBJECTID":509358},"geometry":{"x":166606.66000000015,"y":2569672.3599999994}},{"attributes":{"ID":509386,"DIS_CODE":0,"TOWNNAME":"學甲區","LI":"新榮里","LIN":"1鄰","STREET":"寶發路","SECT":" ","MAREA":" ","LANE":" ","ALLEY":" ","HOUSE_NO":"１５２號","E_COORD97":166602.23999999999,"N_COORD97":2569671.75,"ADDRESS":"寶發路１５２號","OBJECTID":509359},"geometry":{"x":166602.24000000115,"y":2569671.7500000019}},{"attributes":{"ID":509387,"DIS_CODE":0,"TOWNNAME":"學甲區","LI":"新榮里","LIN":"1鄰","STREET":"寶發路","SECT":" ","MAREA":" ","LANE":" ","ALLEY":" ","HOUSE_NO":"１５４號","E_COORD97":166597.79000000001,"N_COORD97":2569671.4199999999,"ADDRESS":"寶發路１５４號","OBJECTID":509360},"geometry":{"x":166597.79000000097,"y":2569671.4199999999}},{"attributes":{"ID":509388,"DIS_CODE":0,"TOWNNAME":"學甲區","LI":"新榮里","LIN":"1鄰","STREET":"寶發路","SECT":" ","MAREA":" ","LANE":" ","ALLEY":" ","HOUSE_NO":"１５６號之１０","E_COORD97":166575.84,"N_COORD97":2569705.7000000002,"ADDRESS":"寶發路１５６號之１０","OBJECTID":509361},"geometry":{"x":166575.83999999985,"y":2569705.7000000011}},{"attributes":{"ID":509389,"DIS_CODE":0,"TOWNNAME":"學甲區","LI":"新榮里","LIN":"1鄰","STREET":"寶發路","SECT":" ","MAREA":" ","LANE":" ","ALLEY":" ","HOUSE_NO":"１５６號之１","E_COORD97":166598.67000000001,"N_COORD97":2569686.6099999999,"ADDRESS":"寶發路１５６號之１","OBJECTID":509362},"geometry":{"x":166598.67000000086,"y":2569686.6099999994}},{"attributes":{"ID":509390,"DIS_CODE":0,"TOWNNAME":"學甲區","LI":"新榮里","LIN":"1鄰","STREET":"寶發路","SECT":" ","MAREA":" ","LANE":" ","ALLEY":" ","HOUSE_NO":"１５６號之２","E_COORD97":166576.48000000001,"N_COORD97":2569686.54,"ADDRESS":"寶發路１５６號之２","OBJECTID":509363},"geometry":{"x":166576.48000000231,"y":2569686.5399999991}},{"attributes":{"ID":509391,"DIS_CODE":0,"TOWNNAME":"學甲區","LI":"新榮里","LIN":"1鄰","STREET":"寶發路","SECT":" ","MAREA":" ","LANE":" ","ALLEY":" ","HOUSE_NO":"１５６號之３","E_COORD97":166598.70999999999,"N_COORD97":2569691.3100000001,"ADDRESS":"寶發路１５６號之３","OBJECTID":509364},"geometry":{"x":166598.71000000089,"y":2569691.3100000042}},{"attributes":{"ID":509392,"DIS_CODE":0,"TOWNNAME":"學甲區","LI":"新榮里","LIN":"1鄰","STREET":"寶發路","SECT":" ","MAREA":" ","LANE":" ","ALLEY":" ","HOUSE_NO":"１５６號之４","E_COORD97":166576.67000000001,"N_COORD97":2569691.2799999998,"ADDRESS":"寶發路１５６號之４","OBJECTID":509365},"geometry":{"x":166576.67000000086,"y":2569691.2800000012}},{"attributes":{"ID":509393,"DIS_CODE":0,"TOWNNAME":"南區","LI":"新生里","LIN":"1鄰","STREET":"大同路","SECT":"二段","MAREA":" ","LANE":" ","ALLEY":" ","HOUSE_NO":"２００號","E_COORD97":169368.37,"N_COORD97":2541905.9100000001,"ADDRESS":"大同路二段２００號","OBJECTID":509366},"geometry":{"x":169368.37000000011,"y":2541905.9100000039}},{"attributes":{"ID":509394,"DIS_CODE":0,"TOWNNAME":"南區","LI":"新生里","LIN":"1鄰","STREET":"大同路","SECT":"二段","MAREA":" ","LANE":" ","ALLEY":" ","HOUSE_NO":"２０２號","E_COORD97":169369.07999999999,"N_COORD97":2541901.3500000001,"ADDRESS":"大同路二段２０２號","OBJECTID":509367},"geometry":{"x":169369.08000000194,"y":2541901.3499999996}},{"attributes":{"ID":509395,"DIS_CODE":0,"TOWNNAME":"南區","LI":"新生里","LIN":"1鄰","STREET":"大同路","SECT":"二段","MAREA":" ","LANE":" ","ALLEY":" ","HOUSE_NO":"２０４號","E_COORD97":169369.79000000001,"N_COORD97":2541897.2200000002,"ADDRESS":"大同路二段２０４號","OBJECTID":509368},"geometry":{"x":169369.79000000097,"y":2541897.2200000007}},{"attributes":{"ID":509396,"DIS_CODE":0,"TOWNNAME":"南區","LI":"新生里","LIN":"1鄰","STREET":"大同路","SECT":"二段","MAREA":" ","LANE":" ","ALLEY":" ","HOUSE_NO":"２０６號","E_COORD97":169370.92999999999,"N_COORD97":2541893.23,"ADDRESS":"大同路二段２０６號","OBJECTID":509369},"geometry":{"x":169370.9299999997,"y":2541893.2300000004}},{"attributes":{"ID":509397,"DIS_CODE":0,"TOWNNAME":"南區","LI":"新生里","LIN":"1鄰","STREET":"大林路","SECT":" ","MAREA":" ","LANE":" ","ALLEY":" ","HOUSE_NO":"２號","E_COORD97":169356.95999999999,"N_COORD97":2541883.9900000002,"ADDRESS":"大林路２號","OBJECTID":509370},"geometry":{"x":169356.95999999996,"y":2541883.9900000002}},{"attributes":{"ID":509398,"DIS_CODE":0,"TOWNNAME":"南區","LI":"新生里","LIN":"1鄰","STREET":"大林路","SECT":" ","MAREA":" ","LANE":" ","ALLEY":" ","HOUSE_NO":"８號","E_COORD97":169327.59,"N_COORD97":2541882.98,"ADDRESS":"大林路８號","OBJECTID":509371},"geometry":{"x":169327.58999999985,"y":2541882.9800000023}},{"attributes":{"ID":509399,"DIS_CODE":0,"TOWNNAME":"北區","LI":"大道里","LIN":"1鄰","STREET":"北門路","SECT":"二段","MAREA":" ","LANE":" ","ALLEY":" ","HOUSE_NO":"５８０號","E_COORD97":169678.39999999999,"N_COORD97":2545688.9900000002,"ADDRESS":"北門路二段５８０號","OBJECTID":509372},"geometry":{"x":169678.40000000037,"y":2545688.9899999984}},{"attributes":{"ID":509400,"DIS_CODE":0,"TOWNNAME":"北區","LI":"大道里","LIN":"1鄰","STREET":"北門路","SECT":"二段","MAREA":" ","LANE":" ","ALLEY":" ","HOUSE_NO":"５８２號","E_COORD97":169679.67000000001,"N_COORD97":2545693.75,"ADDRESS":"北門路二段５８２號","OBJECTID":509373},"geometry":{"x":169679.66999999993,"y":2545693.7499999981}},{"attributes":{"ID":509401,"DIS_CODE":0,"TOWNNAME":"北區","LI":"大道里","LIN":"1鄰","STREET":"北門路","SECT":"二段","MAREA":" ","LANE":" ","ALLEY":" ","HOUSE_NO":"５８６號","E_COORD97":169680.94,"N_COORD97":2545698.5099999998,"ADDRESS":"北門路二段５８６號","OBJECTID":509374},"geometry":{"x":169680.94000000134,"y":2545698.5099999998}},{"attributes":{"ID":509402,"DIS_CODE":0,"TOWNNAME":"北區","LI":"大道里","LIN":"1鄰","STREET":"北門路","SECT":"二段","MAREA":" ","LANE":" ","ALLEY":" ","HOUSE_NO":"５８８號","E_COORD97":169682.20999999999,"N_COORD97":2545702.96,"ADDRESS":"北門路二段５８８號","OBJECTID":509375},"geometry":{"x":169682.21000000089,"y":2545702.9600000009}},{"attributes":{"ID":509403,"DIS_CODE":0,"TOWNNAME":"北區","LI":"大道里","LIN":"1鄰","STREET":"北門路","SECT":"二段","MAREA":" ","LANE":" ","ALLEY":" ","HOUSE_NO":"５９０號","E_COORD97":169683.79000000001,"N_COORD97":2545708.04,"ADDRESS":"北門路二段５９０號","OBJECTID":509376},"geometry":{"x":169683.79000000004,"y":2545708.0400000028}},{"attributes":{"ID":509404,"DIS_CODE":0,"TOWNNAME":"北區","LI":"大道里","LIN":"1鄰","STREET":"北門路","SECT":"二段","MAREA":" ","LANE":" ","ALLEY":" ","HOUSE_NO":"５９２號","E_COORD97":169685.70000000001,"N_COORD97":2545713.1200000001,"ADDRESS":"北門路二段５９２號","OBJECTID":509377},"geometry":{"x":169685.70000000112,"y":2545713.1200000048}},{"attributes":{"ID":509405,"DIS_CODE":0,"TOWNNAME":"北區","LI":"大道里","LIN":"1鄰","STREET":"北門路","SECT":"二段","MAREA":" ","LANE":" ","ALLEY":" ","HOUSE_NO":"５９６號","E_COORD97":169686.97,"N_COORD97":2545718.2000000002,"ADDRESS":"北門路二段５９６號","OBJECTID":509378},"geometry":{"x":169686.97000000067,"y":2545718.2000000011}},{"attributes":{"ID":509406,"DIS_CODE":0,"TOWNNAME":"北區","LI":"大道里","LIN":"1鄰","STREET":"北門路","SECT":"二段","MAREA":" ","LANE":" ","ALLEY":" ","HOUSE_NO":"５９８號","E_COORD97":169688.87,"N_COORD97":2545723.6000000001,"ADDRESS":"北門路二段５９８號","OBJECTID":509379},"geometry":{"x":169688.87000000011,"y":2545723.5999999996}},{"attributes":{"ID":509407,"DIS_CODE":0,"TOWNNAME":"北區","LI":"大道里","LIN":"1鄰","STREET":"北門路","SECT":"二段","MAREA":" ","LANE":" ","ALLEY":" ","HOUSE_NO":"６００號","E_COORD97":169690.78,"N_COORD97":2545728.9900000002,"ADDRESS":"北門路二段６００號","OBJECTID":509380},"geometry":{"x":169690.78000000026,"y":2545728.9900000002}},{"attributes":{"ID":509408,"DIS_CODE":0,"TOWNNAME":"北區","LI":"大道里","LIN":"1鄰","STREET":"北門路","SECT":"二段","MAREA":" ","LANE":" ","ALLEY":" ","HOUSE_NO":"６０２號","E_COORD97":169692.37,"N_COORD97":2545733.7599999998,"ADDRESS":"北門路二段６０２號","OBJECTID":509381},"geometry":{"x":169692.37000000011,"y":2545733.7599999998}},{"attributes":{"ID":509409,"DIS_CODE":0,"TOWNNAME":"北區","LI":"大道里","LIN":"1鄰","STREET":"北門路","SECT":"二段","MAREA":" ","LANE":" ","ALLEY":" ","HOUSE_NO":"６０６號","E_COORD97":169693.64000000001,"N_COORD97":2545738.2000000002,"ADDRESS":"北門路二段６０６號","OBJECTID":509382},"geometry":{"x":169693.64000000153,"y":2545738.2000000011}},{"attributes":{"ID":509410,"DIS_CODE":0,"TOWNNAME":"北區","LI":"大道里","LIN":"1鄰","STREET":"北門路","SECT":"二段","MAREA":" ","LANE":" ","ALLEY":" ","HOUSE_NO":"６２６號","E_COORD97":169707.29000000001,"N_COORD97":2545782.6499999999,"ADDRESS":"北門路二段６２６號","OBJECTID":509383},"geometry":{"x":169707.29000000097,"y":2545782.6500000004}},{"attributes":{"ID":509411,"DIS_CODE":0,"TOWNNAME":"北區","LI":"大道里","LIN":"1鄰","STREET":"北門路","SECT":"二段","MAREA":" ","LANE":" ","ALLEY":" ","HOUSE_NO":"５１２號","E_COORD97":169636.48999999999,"N_COORD97":2545549.5299999998,"ADDRESS":"北門路二段５１２號","OBJECTID":509384},"geometry":{"x":169636.49000000115,"y":2545549.5300000012}},{"attributes":{"ID":509412,"DIS_CODE":0,"TOWNNAME":"北區","LI":"大道里","LIN":"1鄰","STREET":"北門路","SECT":"二段","MAREA":" ","LANE":" ","ALLEY":" ","HOUSE_NO":"５１６號","E_COORD97":169637.76000000001,"N_COORD97":2545553.6499999999,"ADDRESS":"北門路二段５１６號","OBJECTID":509385},"geometry":{"x":169637.76000000071,"y":2545553.6500000022}},{"attributes":{"ID":509413,"DIS_CODE":0,"TOWNNAME":"北區","LI":"大道里","LIN":"1鄰","STREET":"北門路","SECT":"二段","MAREA":" ","LANE":" ","ALLEY":" ","HOUSE_NO":"５２０號","E_COORD97":169640.29999999999,"N_COORD97":2545561.9100000001,"ADDRESS":"北門路二段５２０號","OBJECTID":509386},"geometry":{"x":169640.30000000075,"y":2545561.910000002}},{"attributes":{"ID":509414,"DIS_CODE":0,"TOWNNAME":"北區","LI":"大道里","LIN":"1鄰","STREET":"北門路","SECT":"二段","MAREA":" ","LANE":" ","ALLEY":" ","HOUSE_NO":"５２２號","E_COORD97":169641.57000000001,"N_COORD97":2545566.04,"ADDRESS":"北門路二段５２２號","OBJECTID":509387},"geometry":{"x":169641.5700000003,"y":2545566.040000001}},{"attributes":{"ID":509415,"DIS_CODE":0,"TOWNNAME":"北區","LI":"大道里","LIN":"1鄰","STREET":"北門路","SECT":"二段","MAREA":" ","LANE":" ","ALLEY":" ","HOUSE_NO":"５２６號","E_COORD97":169643.14999999999,"N_COORD97":2545570.1699999999,"ADDRESS":"北門路二段５２６號","OBJECTID":509388},"geometry":{"x":169643.15000000037,"y":2545570.1700000018}},{"attributes":{"ID":509416,"DIS_CODE":0,"TOWNNAME":"北區","LI":"文元里","LIN":"1鄰","STREET":"北成路","SECT":" ","MAREA":" ","LANE":" ","ALLEY":" ","HOUSE_NO":"４７９號","E_COORD97":167845.26000000001,"N_COORD97":2546526.5899999999,"ADDRESS":"北成路４７９號","OBJECTID":509389},"geometry":{"x":167845.26000000164,"y":2546526.5900000017}},{"attributes":{"ID":509417,"DIS_CODE":0,"TOWNNAME":"北區","LI":"文元里","LIN":"1鄰","STREET":"北成路","SECT":" ","MAREA":" ","LANE":" ","ALLEY":" ","HOUSE_NO":"４７７號","E_COORD97":167851.10000000001,"N_COORD97":2546527.6099999999,"ADDRESS":"北成路４７７號","OBJECTID":509390},"geometry":{"x":167851.10000000149,"y":2546527.6099999994}},{"attributes":{"ID":509418,"DIS_CODE":0,"TOWNNAME":"北區","LI":"文元里","LIN":"1鄰","STREET":"北成路","SECT":" ","MAREA":" ","LANE":" ","ALLEY":" ","HOUSE_NO":"４７５號","E_COORD97":167856.94,"N_COORD97":2546528.8799999999,"ADDRESS":"北成路４７５號","OBJECTID":509391},"geometry":{"x":167856.94000000134,"y":2546528.879999999}},{"attributes":{"ID":509419,"DIS_CODE":0,"TOWNNAME":"北區","LI":"文元里","LIN":"1鄰","STREET":"北成路","SECT":" ","MAREA":" ","LANE":" ","ALLEY":" ","HOUSE_NO":"４７３號","E_COORD97":167862.26999999999,"N_COORD97":2546530.1499999999,"ADDRESS":"北成路４７３號","OBJECTID":509392},"geometry":{"x":167862.27000000048,"y":2546530.1500000022}},{"attributes":{"ID":509420,"DIS_CODE":0,"TOWNNAME":"北區","LI":"振興里","LIN":"1鄰","STREET":"勝利路","SECT":" ","MAREA":" ","LANE":" ","ALLEY":" ","HOUSE_NO":"２７８號","E_COORD97":169928.29000000001,"N_COORD97":2545152.8999999999,"ADDRESS":"勝利路２７８號","OBJECTID":509393},"geometry":{"x":169928.29000000004,"y":2545152.9000000004}},{"attributes":{"ID":509421,"DIS_CODE":0,"TOWNNAME":"北區","LI":"振興里","LIN":"1鄰","STREET":"勝利路","SECT":" ","MAREA":" ","LANE":" ","ALLEY":" ","HOUSE_NO":"２８０號","E_COORD97":169926.67000000001,"N_COORD97":2545158.7400000002,"ADDRESS":"勝利路２８０號","OBJECTID":509394},"geometry":{"x":169926.67000000086,"y":2545158.7400000039}},{"attributes":{"ID":509422,"DIS_CODE":0,"TOWNNAME":"北區","LI":"振興里","LIN":"1鄰","STREET":"勝利路","SECT":" ","MAREA":" ","LANE":" ","ALLEY":" ","HOUSE_NO":"２８２號","E_COORD97":169929.70000000001,"N_COORD97":2545170.5299999998,"ADDRESS":"勝利路２８２號","OBJECTID":509395},"geometry":{"x":169929.70000000112,"y":2545170.5300000012}},{"attributes":{"ID":509423,"DIS_CODE":0,"TOWNNAME":"新營區","LI":"新北里","LIN":"1鄰","STREET":"三興街","SECT":" ","MAREA":" ","LANE":" ","ALLEY":" ","HOUSE_NO":"５７號之８","E_COORD97":179408.53,"N_COORD97":2578928.8700000001,"ADDRESS":"三興街５７號之８","OBJECTID":509396},"geometry":{"x":179408.53000000212,"y":2578928.870000001}},{"attributes":{"ID":509424,"DIS_CODE":0,"TOWNNAME":"安平區","LI":"億載里","LIN":"1鄰","STREET":"平豐路","SECT":" ","MAREA":" ","LANE":" ","ALLEY":" ","HOUSE_NO":"４６１號","E_COORD97":164267.29000000001,"N_COORD97":2543829.5499999998,"ADDRESS":"平豐路４６１號","OBJECTID":509397},"geometry":{"x":164267.29000000097,"y":2543829.5500000026}},{"attributes":{"ID":509425,"DIS_CODE":0,"TOWNNAME":"安平區","LI":"華平里","LIN":"1鄰","STREET":"慶平路","SECT":" ","MAREA":" ","LANE":" ","ALLEY":" ","HOUSE_NO":"５３１號","E_COORD97":165105.64999999999,"N_COORD97":2544209.73,"ADDRESS":"慶平路５３１號","OBJECTID":509398},"geometry":{"x":165105.6500000013,"y":2544209.7300000042}},{"attributes":{"ID":509426,"DIS_CODE":0,"TOWNNAME":"安平區","LI":"文平里","LIN":"1鄰","STREET":"建平七街","SECT":" ","MAREA":" ","LANE":" ","ALLEY":" ","HOUSE_NO":"２４號","E_COORD97":166454.60000000001,"N_COORD97":2543223.1299999999,"ADDRESS":"建平七街２４號","OBJECTID":509399},"geometry":{"x":166454.60000000056,"y":2543223.1300000008}},{"attributes":{"ID":509427,"DIS_CODE":0,"TOWNNAME":"新營區","LI":"三仙里","LIN":"1鄰","STREET":"復興路","SECT":" ","MAREA":" ","LANE":" ","ALLEY":" ","HOUSE_NO":"４號","E_COORD97":179750.37,"N_COORD97":2577979.1899999999,"ADDRESS":"復興路４號","OBJECTID":509400},"geometry":{"x":179750.37000000104,"y":2577979.1899999995}}]}