{"displayFieldName":"TOWNNAME","fieldAliases":{"ID":"ID","DIS_CODE":"DIS_CODE","TOWNNAME":"TOWNNAME","LI":"LI","LIN":"LIN","STREET":"STREET","SECT":"SECT","MAREA":"MAREA","LANE":"LANE","ALLEY":"ALLEY","HOUSE_NO":"HOUSE_NO","E_COORD97":"E_COORD97","N_COORD97":"N_COORD97","ADDRESS":"ADDRESS","OBJECTID":"OBJECTID"},"geometryType":"esriGeometryPoint","spatialReference":{"wkid":102443,"latestWkid":3826},"fields":[{"name":"ID","type":"esriFieldTypeDouble","alias":"ID"},{"name":"DIS_CODE","type":"esriFieldTypeInteger","alias":"DIS_CODE"},{"name":"TOWNNAME","type":"esriFieldTypeString","alias":"TOWNNAME","length":8},{"name":"LI","type":"esriFieldTypeString","alias":"LI","length":8},{"name":"LIN","type":"esriFieldTypeString","alias":"LIN","length":12},{"name":"STREET","type":"esriFieldTypeString","alias":"STREET","length":20},{"name":"SECT","type":"esriFieldTypeString","alias":"SECT","length":8},{"name":"MAREA","type":"esriFieldTypeString","alias":"MAREA","length":12},{"name":"LANE","type":"esriFieldTypeString","alias":"LANE","length":10},{"name":"ALLEY","type":"esriFieldTypeString","alias":"ALLEY","length":10},{"name":"HOUSE_NO","type":"esriFieldTypeString","alias":"HOUSE_NO","length":20},{"name":"E_COORD97","type":"esriFieldTypeDouble","alias":"E_COORD97"},{"name":"N_COORD97","type":"esriFieldTypeDouble","alias":"N_COORD97"},{"name":"ADDRESS","type":"esriFieldTypeString","alias":"ADDRESS","length":50},{"name":"OBJECTID","type":"esriFieldTypeOID","alias":"OBJECTID"}],"features":[{"attributes":{"ID":200602,"DIS_CODE":0,"TOWNNAME":"七股區","LI":"後港里","LIN":"3鄰","STREET":" ","SECT":" ","MAREA":"港東","LANE":" ","ALLEY":" ","HOUSE_NO":"２２號","E_COORD97":163074.23000000001,"N_COORD97":2565263.6800000002,"ADDRESS":"港東２２號","OBJECTID":200601},"geometry":{"x":163074.23000000231,"y":2565263.6800000034}},{"attributes":{"ID":200603,"DIS_CODE":0,"TOWNNAME":"七股區","LI":"後港里","LIN":"3鄰","STREET":" ","SECT":" ","MAREA":"港東","LANE":" ","ALLEY":" ","HOUSE_NO":"２３號","E_COORD97":163064.14999999999,"N_COORD97":2565282.0299999998,"ADDRESS":"港東２３號","OBJECTID":200602},"geometry":{"x":163064.15000000037,"y":2565282.0300000012}},{"attributes":{"ID":200604,"DIS_CODE":0,"TOWNNAME":"七股區","LI":"後港里","LIN":"3鄰","STREET":" ","SECT":" ","MAREA":"港東","LANE":" ","ALLEY":" ","HOUSE_NO":"２４號之１","E_COORD97":163042.22,"N_COORD97":2565266.0899999999,"ADDRESS":"港東２４號之１","OBJECTID":200603},"geometry":{"x":163042.21999999974,"y":2565266.0899999999}},{"attributes":{"ID":200605,"DIS_CODE":0,"TOWNNAME":"七股區","LI":"後港里","LIN":"3鄰","STREET":" ","SECT":" ","MAREA":"港東","LANE":" ","ALLEY":" ","HOUSE_NO":"２４號","E_COORD97":163043.51000000001,"N_COORD97":2565287.5299999998,"ADDRESS":"港東２４號","OBJECTID":200604},"geometry":{"x":163043.51000000071,"y":2565287.5299999975}},{"attributes":{"ID":200606,"DIS_CODE":0,"TOWNNAME":"七股區","LI":"後港里","LIN":"3鄰","STREET":" ","SECT":" ","MAREA":"港東","LANE":" ","ALLEY":" ","HOUSE_NO":"２５號","E_COORD97":163027.57000000001,"N_COORD97":2565275.8999999999,"ADDRESS":"港東２５號","OBJECTID":200605},"geometry":{"x":163027.57000000216,"y":2565275.9000000004}},{"attributes":{"ID":200607,"DIS_CODE":0,"TOWNNAME":"七股區","LI":"後港里","LIN":"3鄰","STREET":" ","SECT":" ","MAREA":"港東","LANE":" ","ALLEY":" ","HOUSE_NO":"２６號","E_COORD97":163001.64000000001,"N_COORD97":2565294.7999999998,"ADDRESS":"港東２６號","OBJECTID":200606},"geometry":{"x":163001.6400000006,"y":2565294.8000000026}},{"attributes":{"ID":200608,"DIS_CODE":0,"TOWNNAME":"七股區","LI":"溪南里","LIN":"3鄰","STREET":" ","SECT":" ","MAREA":"溪南","LANE":" ","ALLEY":" ","HOUSE_NO":"２０號之１","E_COORD97":159971.45000000001,"N_COORD97":2558747.4199999999,"ADDRESS":"溪南２０號之１","OBJECTID":200607},"geometry":{"x":159971.45000000019,"y":2558747.4200000018}},{"attributes":{"ID":200609,"DIS_CODE":0,"TOWNNAME":"七股區","LI":"大寮里","LIN":"9鄰","STREET":" ","SECT":" ","MAREA":"大寮","LANE":" ","ALLEY":" ","HOUSE_NO":"８３號","E_COORD97":163367.66,"N_COORD97":2560908.3399999999,"ADDRESS":"大寮８３號","OBJECTID":200608},"geometry":{"x":163367.66000000201,"y":2560908.3399999999}},{"attributes":{"ID":200610,"DIS_CODE":0,"TOWNNAME":"七股區","LI":"大寮里","LIN":"9鄰","STREET":" ","SECT":" ","MAREA":"大寮","LANE":" ","ALLEY":" ","HOUSE_NO":"８４號之１","E_COORD97":163419.62,"N_COORD97":2560895.29,"ADDRESS":"大寮８４號之１","OBJECTID":200609},"geometry":{"x":163419.62000000011,"y":2560895.2900000028}},{"attributes":{"ID":200611,"DIS_CODE":0,"TOWNNAME":"七股區","LI":"大寮里","LIN":"9鄰","STREET":" ","SECT":" ","MAREA":"大寮","LANE":" ","ALLEY":" ","HOUSE_NO":"８４號之２","E_COORD97":163428.59,"N_COORD97":2560902.3799999999,"ADDRESS":"大寮８４號之２","OBJECTID":200610},"geometry":{"x":163428.58999999892,"y":2560902.3800000008}},{"attributes":{"ID":200612,"DIS_CODE":0,"TOWNNAME":"七股區","LI":"大寮里","LIN":"9鄰","STREET":" ","SECT":" ","MAREA":"大寮","LANE":" ","ALLEY":" ","HOUSE_NO":"８５號","E_COORD97":163419.25,"N_COORD97":2560859.6800000002,"ADDRESS":"大寮８５號","OBJECTID":200611},"geometry":{"x":163419.25000000186,"y":2560859.6800000016}},{"attributes":{"ID":200613,"DIS_CODE":0,"TOWNNAME":"七股區","LI":"大寮里","LIN":"9鄰","STREET":" ","SECT":" ","MAREA":"大寮","LANE":" ","ALLEY":" ","HOUSE_NO":"８７號","E_COORD97":163429.84,"N_COORD97":2560824.9399999999,"ADDRESS":"大寮８７號","OBJECTID":200612},"geometry":{"x":163429.83999999985,"y":2560824.9400000013}},{"attributes":{"ID":200614,"DIS_CODE":0,"TOWNNAME":"安南區","LI":"安富里","LIN":"20鄰","STREET":"郡安路","SECT":"五段","MAREA":" ","LANE":"１６４巷","ALLEY":"１４弄","HOUSE_NO":"８號","E_COORD97":167659.04000000001,"N_COORD97":2547523.2200000002,"ADDRESS":"郡安路五段１６４巷１４弄８號","OBJECTID":200613},"geometry":{"x":167659.04000000097,"y":2547523.2200000025}},{"attributes":{"ID":200615,"DIS_CODE":0,"TOWNNAME":"東區","LI":"大智里","LIN":"5鄰","STREET":"長東街","SECT":" ","MAREA":" ","LANE":" ","ALLEY":" ","HOUSE_NO":"２７號","E_COORD97":171015.51999999999,"N_COORD97":2540546.4700000002,"ADDRESS":"長東街２７號","OBJECTID":200614},"geometry":{"x":171015.52000000048,"y":2540546.4699999988}},{"attributes":{"ID":200616,"DIS_CODE":0,"TOWNNAME":"東區","LI":"裕聖里","LIN":"18鄰","STREET":"裕義路","SECT":" ","MAREA":" ","LANE":" ","ALLEY":" ","HOUSE_NO":"５９８號","E_COORD97":172871.56,"N_COORD97":2542149.3500000001,"ADDRESS":"裕義路５９８號","OBJECTID":200615},"geometry":{"x":172871.56000000052,"y":2542149.3499999996}},{"attributes":{"ID":200617,"DIS_CODE":0,"TOWNNAME":"安南區","LI":"安富里","LIN":"20鄰","STREET":"郡安路","SECT":"五段","MAREA":" ","LANE":"１６４巷","ALLEY":"１４弄","HOUSE_NO":"９號","E_COORD97":167655.37,"N_COORD97":2547500.4500000002,"ADDRESS":"郡安路五段１６４巷１４弄９號","OBJECTID":200616},"geometry":{"x":167655.37000000104,"y":2547500.4500000011}},{"attributes":{"ID":200618,"DIS_CODE":0,"TOWNNAME":"永康區","LI":"正強里","LIN":"39鄰","STREET":"中正路","SECT":" ","MAREA":" ","LANE":" ","ALLEY":" ","HOUSE_NO":"２３８號","E_COORD97":173237.01000000001,"N_COORD97":2547913.2400000002,"ADDRESS":"中正路２３８號","OBJECTID":200617},"geometry":{"x":173237.00999999978,"y":2547913.2400000021}},{"attributes":{"ID":200619,"DIS_CODE":0,"TOWNNAME":"永康區","LI":"勝利里","LIN":"20鄰","STREET":"勝學路","SECT":" ","MAREA":" ","LANE":"２６０巷","ALLEY":"１弄","HOUSE_NO":"１２號","E_COORD97":171226.13,"N_COORD97":2545316.0099999998,"ADDRESS":"勝學路２６０巷１弄１２號","OBJECTID":200618},"geometry":{"x":171226.12999999989,"y":2545316.0100000016}},{"attributes":{"ID":200620,"DIS_CODE":0,"TOWNNAME":"東區","LI":"小東里","LIN":"28鄰","STREET":"東和路","SECT":" ","MAREA":" ","LANE":" ","ALLEY":" ","HOUSE_NO":"１１９號","E_COORD97":170765.85000000001,"N_COORD97":2544273.73,"ADDRESS":"東和路１１９號","OBJECTID":200619},"geometry":{"x":170765.85000000056,"y":2544273.7300000004}},{"attributes":{"ID":200621,"DIS_CODE":0,"TOWNNAME":"七股區","LI":"大潭里","LIN":"9鄰","STREET":" ","SECT":" ","MAREA":"台潭","LANE":" ","ALLEY":" ","HOUSE_NO":"９２號","E_COORD97":161021.10999999999,"N_COORD97":2565494.2200000002,"ADDRESS":"台潭９２號","OBJECTID":200620},"geometry":{"x":161021.11000000034,"y":2565494.2200000007}},{"attributes":{"ID":200622,"DIS_CODE":0,"TOWNNAME":"七股區","LI":"大潭里","LIN":"9鄰","STREET":" ","SECT":" ","MAREA":"台潭","LANE":" ","ALLEY":" ","HOUSE_NO":"９３號","E_COORD97":161009.39000000001,"N_COORD97":2565484.1800000002,"ADDRESS":"台潭９３號","OBJECTID":200621},"geometry":{"x":161009.3900000006,"y":2565484.1800000016}},{"attributes":{"ID":200623,"DIS_CODE":0,"TOWNNAME":"七股區","LI":"大潭里","LIN":"9鄰","STREET":" ","SECT":" ","MAREA":"台潭","LANE":" ","ALLEY":" ","HOUSE_NO":"９５號","E_COORD97":160988.07999999999,"N_COORD97":2565481.1499999999,"ADDRESS":"台潭９５號","OBJECTID":200622},"geometry":{"x":160988.08000000101,"y":2565481.1499999985}},{"attributes":{"ID":200624,"DIS_CODE":0,"TOWNNAME":"七股區","LI":"大潭里","LIN":"9鄰","STREET":" ","SECT":" ","MAREA":"台潭","LANE":" ","ALLEY":" ","HOUSE_NO":"９７號","E_COORD97":160947.73999999999,"N_COORD97":2565528.3199999998,"ADDRESS":"台潭９７號","OBJECTID":200623},"geometry":{"x":160947.74000000022,"y":2565528.3200000022}},{"attributes":{"ID":200625,"DIS_CODE":0,"TOWNNAME":"永康區","LI":"勝利里","LIN":"20鄰","STREET":"勝學路","SECT":" ","MAREA":" ","LANE":"２６０巷","ALLEY":"３弄","HOUSE_NO":"５號","E_COORD97":171239.79000000001,"N_COORD97":2545306.0099999998,"ADDRESS":"勝學路２６０巷３弄５號","OBJECTID":200624},"geometry":{"x":171239.79000000097,"y":2545306.0100000016}},{"attributes":{"ID":200626,"DIS_CODE":0,"TOWNNAME":"永康區","LI":"五王里","LIN":"28鄰","STREET":"五福街","SECT":" ","MAREA":" ","LANE":" ","ALLEY":" ","HOUSE_NO":"１２８號","E_COORD97":171575.51999999999,"N_COORD97":2546001,"ADDRESS":"五福街１２８號","OBJECTID":200625},"geometry":{"x":171575.51999999955,"y":2546001.0000000037}},{"attributes":{"ID":200627,"DIS_CODE":0,"TOWNNAME":"七股區","LI":"永吉里","LIN":"9鄰","STREET":" ","SECT":" ","MAREA":"永吉","LANE":" ","ALLEY":" ","HOUSE_NO":"９８號之２","E_COORD97":160006.10000000001,"N_COORD97":2555213.7799999998,"ADDRESS":"永吉９８號之２","OBJECTID":200626},"geometry":{"x":160006.10000000056,"y":2555213.7800000012}},{"attributes":{"ID":200628,"DIS_CODE":0,"TOWNNAME":"永康區","LI":"西灣里","LIN":"5鄰","STREET":"大灣五街","SECT":" ","MAREA":" ","LANE":" ","ALLEY":" ","HOUSE_NO":"８５號","E_COORD97":174629.35000000001,"N_COORD97":2545269.5,"ADDRESS":"大灣五街８５號","OBJECTID":200627},"geometry":{"x":174629.35000000056,"y":2545269.5000000019}},{"attributes":{"ID":200629,"DIS_CODE":0,"TOWNNAME":"七股區","LI":"永吉里","LIN":"9鄰","STREET":" ","SECT":" ","MAREA":"永吉","LANE":" ","ALLEY":" ","HOUSE_NO":"９８號之３","E_COORD97":160011.35999999999,"N_COORD97":2555166.4700000002,"ADDRESS":"永吉９８號之３","OBJECTID":200628},"geometry":{"x":160011.36000000034,"y":2555166.4700000025}},{"attributes":{"ID":200630,"DIS_CODE":0,"TOWNNAME":"永康區","LI":"勝利里","LIN":"20鄰","STREET":"勝學路","SECT":" ","MAREA":" ","LANE":"２６０巷","ALLEY":"１弄","HOUSE_NO":"６號","E_COORD97":171223.78,"N_COORD97":2545300.5099999998,"ADDRESS":"勝學路２６０巷１弄６號","OBJECTID":200629},"geometry":{"x":171223.78000000026,"y":2545300.5099999998}},{"attributes":{"ID":200631,"DIS_CODE":0,"TOWNNAME":"七股區","LI":"永吉里","LIN":"9鄰","STREET":" ","SECT":" ","MAREA":"永吉","LANE":" ","ALLEY":" ","HOUSE_NO":"９８號","E_COORD97":160023.26000000001,"N_COORD97":2555234.75,"ADDRESS":"永吉９８號","OBJECTID":200630},"geometry":{"x":160023.25999999978,"y":2555234.7500000037}},{"attributes":{"ID":200632,"DIS_CODE":0,"TOWNNAME":"七股區","LI":"永吉里","LIN":"9鄰","STREET":" ","SECT":" ","MAREA":"永吉","LANE":" ","ALLEY":" ","HOUSE_NO":"９９號之１","E_COORD97":159983.06,"N_COORD97":2555228.6699999999,"ADDRESS":"永吉９９號之１","OBJECTID":200631},"geometry":{"x":159983.06000000052,"y":2555228.6700000018}},{"attributes":{"ID":200633,"DIS_CODE":0,"TOWNNAME":"七股區","LI":"永吉里","LIN":"9鄰","STREET":" ","SECT":" ","MAREA":"永吉","LANE":" ","ALLEY":" ","HOUSE_NO":"９９號之２","E_COORD97":159943.95000000001,"N_COORD97":2555242.1800000002,"ADDRESS":"永吉９９號之２","OBJECTID":200632},"geometry":{"x":159943.95000000019,"y":2555242.1800000016}},{"attributes":{"ID":200634,"DIS_CODE":0,"TOWNNAME":"永康區","LI":"勝利里","LIN":"20鄰","STREET":"勝學路","SECT":" ","MAREA":" ","LANE":"２６０巷","ALLEY":"３弄","HOUSE_NO":"１１號","E_COORD97":171241.94,"N_COORD97":2545320.5,"ADDRESS":"勝學路２６０巷３弄１１號","OBJECTID":200633},"geometry":{"x":171241.94000000134,"y":2545320.5000000019}},{"attributes":{"ID":200635,"DIS_CODE":0,"TOWNNAME":"七股區","LI":"玉成里","LIN":"9鄰","STREET":" ","SECT":" ","MAREA":"玉成","LANE":" ","ALLEY":" ","HOUSE_NO":"７８號","E_COORD97":161127.91,"N_COORD97":2559798.46,"ADDRESS":"玉成７８號","OBJECTID":200634},"geometry":{"x":161127.91000000015,"y":2559798.4600000028}},{"attributes":{"ID":200636,"DIS_CODE":0,"TOWNNAME":"七股區","LI":"玉成里","LIN":"9鄰","STREET":" ","SECT":" ","MAREA":"玉成","LANE":" ","ALLEY":" ","HOUSE_NO":"７９號之１","E_COORD97":161155.45000000001,"N_COORD97":2559802.77,"ADDRESS":"玉成７９號之１","OBJECTID":200635},"geometry":{"x":161155.45000000112,"y":2559802.7699999996}},{"attributes":{"ID":200637,"DIS_CODE":0,"TOWNNAME":"七股區","LI":"玉成里","LIN":"9鄰","STREET":" ","SECT":" ","MAREA":"玉成","LANE":" ","ALLEY":" ","HOUSE_NO":"７９號","E_COORD97":161164.66,"N_COORD97":2559771.6000000001,"ADDRESS":"玉成７９號","OBJECTID":200636},"geometry":{"x":161164.66000000015,"y":2559771.6000000034}},{"attributes":{"ID":200638,"DIS_CODE":0,"TOWNNAME":"永康區","LI":"勝利里","LIN":"20鄰","STREET":"勝學路","SECT":" ","MAREA":" ","LANE":"２６０巷","ALLEY":"３弄","HOUSE_NO":"２號","E_COORD97":171249.39000000001,"N_COORD97":2545295.0099999998,"ADDRESS":"勝學路２６０巷３弄２號","OBJECTID":200637},"geometry":{"x":171249.38999999966,"y":2545295.0099999998}},{"attributes":{"ID":200639,"DIS_CODE":0,"TOWNNAME":"永康區","LI":"神洲里","LIN":"20鄰","STREET":"忠孝路","SECT":" ","MAREA":" ","LANE":"７６巷","ALLEY":"６３弄","HOUSE_NO":"２４號","E_COORD97":172184.25,"N_COORD97":2545049.3399999999,"ADDRESS":"忠孝路７６巷６３弄２４號","OBJECTID":200638},"geometry":{"x":172184.25000000093,"y":2545049.3400000036}},{"attributes":{"ID":200640,"DIS_CODE":0,"TOWNNAME":"永康區","LI":"甲頂里","LIN":"20鄰","STREET":"中正南路","SECT":" ","MAREA":" ","LANE":"５２巷","ALLEY":"５８弄","HOUSE_NO":"７號","E_COORD97":169889.91,"N_COORD97":2546763.3999999999,"ADDRESS":"中正南路５２巷５８弄７號","OBJECTID":200639},"geometry":{"x":169889.91000000015,"y":2546763.4000000004}},{"attributes":{"ID":200641,"DIS_CODE":0,"TOWNNAME":"永康區","LI":"甲頂里","LIN":"20鄰","STREET":"中正南路","SECT":" ","MAREA":" ","LANE":"５２巷","ALLEY":"５８弄","HOUSE_NO":"９號","E_COORD97":169881.73999999999,"N_COORD97":2546747.73,"ADDRESS":"中正南路５２巷５８弄９號","OBJECTID":200640},"geometry":{"x":169881.74000000209,"y":2546747.7300000004}},{"attributes":{"ID":200642,"DIS_CODE":0,"TOWNNAME":"七股區","LI":"玉成里","LIN":"9鄰","STREET":" ","SECT":" ","MAREA":"玉成","LANE":" ","ALLEY":" ","HOUSE_NO":"８０號","E_COORD97":161182.20000000001,"N_COORD97":2559774.9900000002,"ADDRESS":"玉成８０號","OBJECTID":200641},"geometry":{"x":161182.20000000205,"y":2559774.9900000002}},{"attributes":{"ID":200643,"DIS_CODE":0,"TOWNNAME":"永康區","LI":"網寮里","LIN":"20鄰","STREET":"永二街","SECT":" ","MAREA":" ","LANE":"２４５巷","ALLEY":"２５弄","HOUSE_NO":"１３號","E_COORD97":173375.81,"N_COORD97":2546154.48,"ADDRESS":"永二街２４５巷２５弄１３號","OBJECTID":200642},"geometry":{"x":173375.80999999959,"y":2546154.4800000023}},{"attributes":{"ID":200644,"DIS_CODE":0,"TOWNNAME":"七股區","LI":"玉成里","LIN":"9鄰","STREET":" ","SECT":" ","MAREA":"玉成","LANE":" ","ALLEY":" ","HOUSE_NO":"８１號","E_COORD97":161207.14000000001,"N_COORD97":2559764.9199999999,"ADDRESS":"玉成８１號","OBJECTID":200643},"geometry":{"x":161207.13999999966,"y":2559764.9199999999}},{"attributes":{"ID":200645,"DIS_CODE":0,"TOWNNAME":"永康區","LI":"網寮里","LIN":"20鄰","STREET":"永二街","SECT":" ","MAREA":" ","LANE":"２４５巷","ALLEY":"２５弄","HOUSE_NO":"１５號","E_COORD97":173372.44,"N_COORD97":2546156.2200000002,"ADDRESS":"永二街２４５巷２５弄１５號","OBJECTID":200644},"geometry":{"x":173372.44000000041,"y":2546156.2200000044}},{"attributes":{"ID":200646,"DIS_CODE":0,"TOWNNAME":"永康區","LI":"大灣里","LIN":"24鄰","STREET":"民族路","SECT":" ","MAREA":" ","LANE":" ","ALLEY":" ","HOUSE_NO":"３０７號","E_COORD97":175048.81,"N_COORD97":2545127.8199999998,"ADDRESS":"民族路３０７號","OBJECTID":200645},"geometry":{"x":175048.80999999959,"y":2545127.820000004}},{"attributes":{"ID":200647,"DIS_CODE":0,"TOWNNAME":"七股區","LI":"玉成里","LIN":"9鄰","STREET":" ","SECT":" ","MAREA":"玉成","LANE":" ","ALLEY":" ","HOUSE_NO":"８２號","E_COORD97":161227.01000000001,"N_COORD97":2559770.6699999999,"ADDRESS":"玉成８２號","OBJECTID":200646},"geometry":{"x":161227.00999999885,"y":2559770.6699999999}},{"attributes":{"ID":200648,"DIS_CODE":0,"TOWNNAME":"七股區","LI":"玉成里","LIN":"9鄰","STREET":" ","SECT":" ","MAREA":"玉成","LANE":" ","ALLEY":" ","HOUSE_NO":"８４號","E_COORD97":161233.07000000001,"N_COORD97":2559749.9300000002,"ADDRESS":"玉成８４號","OBJECTID":200647},"geometry":{"x":161233.07000000123,"y":2559749.9300000016}},{"attributes":{"ID":200649,"DIS_CODE":0,"TOWNNAME":"七股區","LI":"玉成里","LIN":"9鄰","STREET":" ","SECT":" ","MAREA":"玉成","LANE":" ","ALLEY":" ","HOUSE_NO":"８５號","E_COORD97":161256.54000000001,"N_COORD97":2559745.96,"ADDRESS":"玉成８５號","OBJECTID":200648},"geometry":{"x":161256.54000000097,"y":2559745.9600000009}},{"attributes":{"ID":200650,"DIS_CODE":0,"TOWNNAME":"永康區","LI":"網寮里","LIN":"20鄰","STREET":"永二街","SECT":" ","MAREA":" ","LANE":"２４５巷","ALLEY":"２５弄","HOUSE_NO":"１７號","E_COORD97":173368.25,"N_COORD97":2546157.6400000001,"ADDRESS":"永二街２４５巷２５弄１７號","OBJECTID":200649},"geometry":{"x":173368.24999999907,"y":2546157.6400000025}},{"attributes":{"ID":200651,"DIS_CODE":0,"TOWNNAME":"永康區","LI":"網寮里","LIN":"20鄰","STREET":"永二街","SECT":" ","MAREA":" ","LANE":"２４５巷","ALLEY":"２５弄","HOUSE_NO":"１９號","E_COORD97":173364.51999999999,"N_COORD97":2546159.4900000002,"ADDRESS":"永二街２４５巷２５弄１９號","OBJECTID":200650},"geometry":{"x":173364.52000000048,"y":2546159.4900000002}},{"attributes":{"ID":200652,"DIS_CODE":0,"TOWNNAME":"永康區","LI":"網寮里","LIN":"20鄰","STREET":"永二街","SECT":" ","MAREA":" ","LANE":"２４５巷","ALLEY":"２５弄","HOUSE_NO":"２１號","E_COORD97":173361.22,"N_COORD97":2546161.6299999999,"ADDRESS":"永二街２４５巷２５弄２１號","OBJECTID":200651},"geometry":{"x":173361.21999999974,"y":2546161.6300000027}},{"attributes":{"ID":200653,"DIS_CODE":0,"TOWNNAME":"永康區","LI":"網寮里","LIN":"20鄰","STREET":"永二街","SECT":" ","MAREA":" ","LANE":"２４５巷","ALLEY":"２５弄","HOUSE_NO":"２３號","E_COORD97":173356.87,"N_COORD97":2546162.52,"ADDRESS":"永二街２４５巷２５弄２３號","OBJECTID":200652},"geometry":{"x":173356.87000000011,"y":2546162.5199999996}},{"attributes":{"ID":200654,"DIS_CODE":0,"TOWNNAME":"安南區","LI":"溪東里","LIN":"20鄰","STREET":"郡安路","SECT":"五段","MAREA":" ","LANE":"３１巷","ALLEY":"１０弄","HOUSE_NO":"１號","E_COORD97":168254.04999999999,"N_COORD97":2547567.77,"ADDRESS":"郡安路五段３１巷１０弄１號","OBJECTID":200653},"geometry":{"x":168254.05000000075,"y":2547567.7699999996}},{"attributes":{"ID":200655,"DIS_CODE":0,"TOWNNAME":"安南區","LI":"溪東里","LIN":"20鄰","STREET":"郡安路","SECT":"五段","MAREA":" ","LANE":"３１巷","ALLEY":"１０弄","HOUSE_NO":"２號","E_COORD97":168241.07000000001,"N_COORD97":2547566.6899999999,"ADDRESS":"郡安路五段３１巷１０弄２號","OBJECTID":200654},"geometry":{"x":168241.07000000123,"y":2547566.6900000013}},{"attributes":{"ID":200656,"DIS_CODE":0,"TOWNNAME":"新市區","LI":"永就里","LIN":"9鄰","STREET":" ","SECT":" ","MAREA":"永就","LANE":" ","ALLEY":" ","HOUSE_NO":"９２號","E_COORD97":177538.89999999999,"N_COORD97":2551447,"ADDRESS":"永就９２號","OBJECTID":200655},"geometry":{"x":177538.90000000037,"y":2551447.0000000019}},{"attributes":{"ID":200657,"DIS_CODE":0,"TOWNNAME":"新市區","LI":"大社里","LIN":"9鄰","STREET":" ","SECT":" ","MAREA":"大社","LANE":" ","ALLEY":" ","HOUSE_NO":"３２２號","E_COORD97":180185.81,"N_COORD97":2554511.75,"ADDRESS":"大社３２２號","OBJECTID":200656},"geometry":{"x":180185.81000000052,"y":2554511.75}},{"attributes":{"ID":200658,"DIS_CODE":0,"TOWNNAME":"新市區","LI":"大社里","LIN":"9鄰","STREET":" ","SECT":" ","MAREA":"大社","LANE":" ","ALLEY":" ","HOUSE_NO":"３２５號","E_COORD97":180149.82000000001,"N_COORD97":2554520.75,"ADDRESS":"大社３２５號","OBJECTID":200657},"geometry":{"x":180149.8200000003,"y":2554520.7500000019}},{"attributes":{"ID":200659,"DIS_CODE":0,"TOWNNAME":"新市區","LI":"社內里","LIN":"9鄰","STREET":" ","SECT":" ","MAREA":"社內","LANE":" ","ALLEY":" ","HOUSE_NO":"９９之３６號","E_COORD97":176313.28,"N_COORD97":2552972.2999999998,"ADDRESS":"社內９９之３６號","OBJECTID":200658},"geometry":{"x":176313.28000000119,"y":2552972.3000000007}},{"attributes":{"ID":200660,"DIS_CODE":0,"TOWNNAME":"新市區","LI":"港墘里","LIN":"9鄰","STREET":" ","SECT":" ","MAREA":"崙頂","LANE":" ","ALLEY":" ","HOUSE_NO":"７５之９號","E_COORD97":178764.10000000001,"N_COORD97":2552702.2999999998,"ADDRESS":"崙頂７５之９號","OBJECTID":200659},"geometry":{"x":178764.09999999963,"y":2552702.3000000045}},{"attributes":{"ID":200661,"DIS_CODE":0,"TOWNNAME":"新市區","LI":"大社里","LIN":"9鄰","STREET":" ","SECT":" ","MAREA":"大社","LANE":" ","ALLEY":" ","HOUSE_NO":"２９４之１號","E_COORD97":180323.35000000001,"N_COORD97":2554606.2999999998,"ADDRESS":"大社２９４之１號","OBJECTID":200660},"geometry":{"x":180323.35000000056,"y":2554606.3000000007}},{"attributes":{"ID":200662,"DIS_CODE":0,"TOWNNAME":"七股區","LI":"溪南里","LIN":"3鄰","STREET":" ","SECT":" ","MAREA":"溪南","LANE":" ","ALLEY":" ","HOUSE_NO":"２２號之２","E_COORD97":159927.94,"N_COORD97":2558713.9500000002,"ADDRESS":"溪南２２號之２","OBJECTID":200661},"geometry":{"x":159927.93999999948,"y":2558713.9499999993}},{"attributes":{"ID":200663,"DIS_CODE":0,"TOWNNAME":"安南區","LI":"溪東里","LIN":"20鄰","STREET":"郡安路","SECT":"五段","MAREA":" ","LANE":"３１巷","ALLEY":"１０弄","HOUSE_NO":"３號","E_COORD97":168254.26999999999,"N_COORD97":2547562.7000000002,"ADDRESS":"郡安路五段３１巷１０弄３號","OBJECTID":200662},"geometry":{"x":168254.26999999955,"y":2547562.7000000011}},{"attributes":{"ID":200664,"DIS_CODE":0,"TOWNNAME":"安南區","LI":"溪東里","LIN":"20鄰","STREET":"郡安路","SECT":"五段","MAREA":" ","LANE":"３１巷","ALLEY":"１０弄","HOUSE_NO":"４號","E_COORD97":168240.95999999999,"N_COORD97":2547562.0499999998,"ADDRESS":"郡安路五段３１巷１０弄４號","OBJECTID":200663},"geometry":{"x":168240.96000000089,"y":2547562.0500000026}},{"attributes":{"ID":200665,"DIS_CODE":0,"TOWNNAME":"安南區","LI":"溪東里","LIN":"20鄰","STREET":"郡安路","SECT":"五段","MAREA":" ","LANE":"３１巷","ALLEY":"１０弄","HOUSE_NO":"５號","E_COORD97":168252.32000000001,"N_COORD97":2547557.6200000001,"ADDRESS":"郡安路五段３１巷１０弄５號","OBJECTID":200664},"geometry":{"x":168252.32000000123,"y":2547557.6200000029}},{"attributes":{"ID":200666,"DIS_CODE":0,"TOWNNAME":"安南區","LI":"溪東里","LIN":"20鄰","STREET":"郡安路","SECT":"五段","MAREA":" ","LANE":"３１巷","ALLEY":"１０弄","HOUSE_NO":"６號","E_COORD97":168241.60999999999,"N_COORD97":2547556.8599999999,"ADDRESS":"郡安路五段３１巷１０弄６號","OBJECTID":200665},"geometry":{"x":168241.6099999994,"y":2547556.8599999994}},{"attributes":{"ID":200667,"DIS_CODE":0,"TOWNNAME":"安南區","LI":"溪東里","LIN":"20鄰","STREET":"郡安路","SECT":"五段","MAREA":" ","LANE":"３１巷","ALLEY":"１０弄","HOUSE_NO":"７號","E_COORD97":168255.03,"N_COORD97":2547553.6200000001,"ADDRESS":"郡安路五段３１巷１０弄７號","OBJECTID":200666},"geometry":{"x":168255.03000000026,"y":2547553.620000001}},{"attributes":{"ID":200668,"DIS_CODE":0,"TOWNNAME":"永康區","LI":"\u25A0行里","LIN":"40鄰","STREET":"永安路","SECT":" ","MAREA":" ","LANE":" ","ALLEY":" ","HOUSE_NO":"１３９號","E_COORD97":172617.89999999999,"N_COORD97":2549450.8300000001,"ADDRESS":"永安路１３９號","OBJECTID":200667},"geometry":{"x":172617.90000000037,"y":2549450.8300000019}},{"attributes":{"ID":200669,"DIS_CODE":0,"TOWNNAME":"永康區","LI":"\u25A0洲里","LIN":"40鄰","STREET":"國聖街","SECT":" ","MAREA":" ","LANE":" ","ALLEY":" ","HOUSE_NO":"３０３號","E_COORD97":171041.59,"N_COORD97":2548647.2400000002,"ADDRESS":"國聖街３０３號","OBJECTID":200668},"geometry":{"x":171041.58999999985,"y":2548647.2400000039}},{"attributes":{"ID":200670,"DIS_CODE":0,"TOWNNAME":"永康區","LI":"\u25A0洲里","LIN":"40鄰","STREET":"國聖街","SECT":" ","MAREA":" ","LANE":" ","ALLEY":" ","HOUSE_NO":"２９９號","E_COORD97":171032.73000000001,"N_COORD97":2548635.4900000002,"ADDRESS":"國聖街２９９號","OBJECTID":200669},"geometry":{"x":171032.73000000045,"y":2548635.4900000039}},{"attributes":{"ID":200671,"DIS_CODE":0,"TOWNNAME":"仁德區","LI":"仁義里","LIN":"40鄰","STREET":"仁義五街","SECT":" ","MAREA":" ","LANE":" ","ALLEY":" ","HOUSE_NO":"４９號","E_COORD97":173613.5,"N_COORD97":2540451.7599999998,"ADDRESS":"仁義五街４９號","OBJECTID":200670},"geometry":{"x":173613.5,"y":2540451.7599999998}},{"attributes":{"ID":200672,"DIS_CODE":0,"TOWNNAME":"仁德區","LI":"仁義里","LIN":"40鄰","STREET":"仁義五街","SECT":" ","MAREA":" ","LANE":" ","ALLEY":" ","HOUSE_NO":"５３號","E_COORD97":173623.70999999999,"N_COORD97":2540452.0099999998,"ADDRESS":"仁義五街５３號","OBJECTID":200671},"geometry":{"x":173623.71000000089,"y":2540452.0100000016}},{"attributes":{"ID":200673,"DIS_CODE":0,"TOWNNAME":"仁德區","LI":"仁義里","LIN":"40鄰","STREET":"中正路","SECT":"二段","MAREA":" ","LANE":" ","ALLEY":" ","HOUSE_NO":"８５０號","E_COORD97":173463.63,"N_COORD97":2540466.52,"ADDRESS":"中正路二段８５０號","OBJECTID":200672},"geometry":{"x":173463.62999999989,"y":2540466.5199999996}},{"attributes":{"ID":200674,"DIS_CODE":0,"TOWNNAME":"仁德區","LI":"仁義里","LIN":"40鄰","STREET":"中正路","SECT":"二段","MAREA":" ","LANE":" ","ALLEY":" ","HOUSE_NO":"８４８號","E_COORD97":173463.70000000001,"N_COORD97":2540462.27,"ADDRESS":"中正路二段８４８號","OBJECTID":200673},"geometry":{"x":173463.70000000019,"y":2540462.2700000033}},{"attributes":{"ID":200675,"DIS_CODE":0,"TOWNNAME":"仁德區","LI":"仁義里","LIN":"40鄰","STREET":"仁義五街","SECT":" ","MAREA":" ","LANE":" ","ALLEY":" ","HOUSE_NO":"１５號","E_COORD97":173521.35999999999,"N_COORD97":2540440.77,"ADDRESS":"仁義五街１５號","OBJECTID":200674},"geometry":{"x":173521.36000000127,"y":2540440.7699999996}},{"attributes":{"ID":200676,"DIS_CODE":0,"TOWNNAME":"仁德區","LI":"仁義里","LIN":"40鄰","STREET":"仁義五街","SECT":" ","MAREA":" ","LANE":" ","ALLEY":" ","HOUSE_NO":"１３號","E_COORD97":173516.31,"N_COORD97":2540440.02,"ADDRESS":"仁義五街１３號","OBJECTID":200675},"geometry":{"x":173516.30999999959,"y":2540440.0200000033}},{"attributes":{"ID":200677,"DIS_CODE":0,"TOWNNAME":"安南區","LI":"溪東里","LIN":"20鄰","STREET":"郡安路","SECT":"五段","MAREA":" ","LANE":"３１巷","ALLEY":"１０弄","HOUSE_NO":"８號","E_COORD97":168241.29000000001,"N_COORD97":2547552.3199999998,"ADDRESS":"郡安路五段３１巷１０弄８號","OBJECTID":200676},"geometry":{"x":168241.29000000004,"y":2547552.3200000022}},{"attributes":{"ID":200678,"DIS_CODE":0,"TOWNNAME":"安南區","LI":"溪東里","LIN":"20鄰","STREET":"郡安路","SECT":"五段","MAREA":" ","LANE":"３１巷","ALLEY":"１弄","HOUSE_NO":"１０號","E_COORD97":168242.45000000001,"N_COORD97":2547628.8599999999,"ADDRESS":"郡安路五段３１巷１弄１０號","OBJECTID":200677},"geometry":{"x":168242.45000000019,"y":2547628.8600000013}},{"attributes":{"ID":200679,"DIS_CODE":0,"TOWNNAME":"新市區","LI":"港墘里","LIN":"9鄰","STREET":" ","SECT":" ","MAREA":"崙頂","LANE":" ","ALLEY":" ","HOUSE_NO":"６４之１號","E_COORD97":178920.07000000001,"N_COORD97":2552692.5499999998,"ADDRESS":"崙頂６４之１號","OBJECTID":200678},"geometry":{"x":178920.07000000216,"y":2552692.5500000007}},{"attributes":{"ID":200680,"DIS_CODE":0,"TOWNNAME":"安南區","LI":"溪東里","LIN":"20鄰","STREET":"郡安路","SECT":"五段","MAREA":" ","LANE":"３１巷","ALLEY":"１弄","HOUSE_NO":"１２號","E_COORD97":168247.79000000001,"N_COORD97":2547629.5699999998,"ADDRESS":"郡安路五段３１巷１弄１２號","OBJECTID":200679},"geometry":{"x":168247.79000000097,"y":2547629.5700000022}},{"attributes":{"ID":200681,"DIS_CODE":0,"TOWNNAME":"新市區","LI":"大社里","LIN":"9鄰","STREET":" ","SECT":" ","MAREA":"大社","LANE":" ","ALLEY":" ","HOUSE_NO":"３１９號","E_COORD97":180151.09,"N_COORD97":2554547.5,"ADDRESS":"大社３１９號","OBJECTID":200680},"geometry":{"x":180151.08999999985,"y":2554547.5}},{"attributes":{"ID":200682,"DIS_CODE":0,"TOWNNAME":"新市區","LI":"大社里","LIN":"9鄰","STREET":" ","SECT":" ","MAREA":"大社","LANE":" ","ALLEY":" ","HOUSE_NO":"３２０號","E_COORD97":180167.89999999999,"N_COORD97":2554557.5,"ADDRESS":"大社３２０號","OBJECTID":200681},"geometry":{"x":180167.9000000013,"y":2554557.5}},{"attributes":{"ID":200683,"DIS_CODE":0,"TOWNNAME":"新市區","LI":"港墘里","LIN":"9鄰","STREET":" ","SECT":" ","MAREA":"崙頂","LANE":" ","ALLEY":" ","HOUSE_NO":"６７號","E_COORD97":178858.23999999999,"N_COORD97":2552719,"ADDRESS":"崙頂６７號","OBJECTID":200682},"geometry":{"x":178858.24000000115,"y":2552719}},{"attributes":{"ID":200684,"DIS_CODE":0,"TOWNNAME":"新市區","LI":"大社里","LIN":"9鄰","STREET":" ","SECT":" ","MAREA":"大社","LANE":" ","ALLEY":" ","HOUSE_NO":"２９７之８號","E_COORD97":180303.95000000001,"N_COORD97":2554571.7999999998,"ADDRESS":"大社２９７之８號","OBJECTID":200683},"geometry":{"x":180303.95000000205,"y":2554571.8000000026}},{"attributes":{"ID":200685,"DIS_CODE":0,"TOWNNAME":"新市區","LI":"社內里","LIN":"9鄰","STREET":" ","SECT":" ","MAREA":"社內","LANE":" ","ALLEY":" ","HOUSE_NO":"９９之２３號","E_COORD97":176366.73000000001,"N_COORD97":2553002.2999999998,"ADDRESS":"社內９９之２３號","OBJECTID":200684},"geometry":{"x":176366.73000000138,"y":2553002.3000000026}},{"attributes":{"ID":200686,"DIS_CODE":0,"TOWNNAME":"新市區","LI":"永就里","LIN":"9鄰","STREET":" ","SECT":" ","MAREA":"永就","LANE":" ","ALLEY":" ","HOUSE_NO":"９５號","E_COORD97":177516.42999999999,"N_COORD97":2551463,"ADDRESS":"永就９５號","OBJECTID":200685},"geometry":{"x":177516.4299999997,"y":2551463.0000000037}},{"attributes":{"ID":200687,"DIS_CODE":0,"TOWNNAME":"安南區","LI":"溪東里","LIN":"20鄰","STREET":"郡安路","SECT":"五段","MAREA":" ","LANE":"３１巷","ALLEY":"１弄","HOUSE_NO":"２號","E_COORD97":168220.39999999999,"N_COORD97":2547625.4900000002,"ADDRESS":"郡安路五段３１巷１弄２號","OBJECTID":200686},"geometry":{"x":168220.40000000037,"y":2547625.4900000021}},{"attributes":{"ID":200688,"DIS_CODE":0,"TOWNNAME":"安南區","LI":"溪東里","LIN":"20鄰","STREET":"郡安路","SECT":"五段","MAREA":" ","LANE":"３１巷","ALLEY":"１弄","HOUSE_NO":"４號","E_COORD97":168225.73999999999,"N_COORD97":2547626.5499999998,"ADDRESS":"郡安路五段３１巷１弄４號","OBJECTID":200687},"geometry":{"x":168225.74000000115,"y":2547626.5500000026}},{"attributes":{"ID":200689,"DIS_CODE":0,"TOWNNAME":"新市區","LI":"社內里","LIN":"9鄰","STREET":" ","SECT":" ","MAREA":"社內","LANE":" ","ALLEY":" ","HOUSE_NO":"９９之１８號","E_COORD97":176320.53,"N_COORD97":2552948.2999999998,"ADDRESS":"社內９９之１８號","OBJECTID":200688},"geometry":{"x":176320.53000000119,"y":2552948.3000000007}},{"attributes":{"ID":200690,"DIS_CODE":0,"TOWNNAME":"七股區","LI":"溪南里","LIN":"3鄰","STREET":" ","SECT":" ","MAREA":"溪南","LANE":" ","ALLEY":" ","HOUSE_NO":"２２號之３","E_COORD97":159947.19,"N_COORD97":2558726.0600000001,"ADDRESS":"溪南２２號之３","OBJECTID":200689},"geometry":{"x":159947.19000000134,"y":2558726.0600000024}},{"attributes":{"ID":200691,"DIS_CODE":0,"TOWNNAME":"七股區","LI":"溪南里","LIN":"3鄰","STREET":" ","SECT":" ","MAREA":"溪南","LANE":" ","ALLEY":" ","HOUSE_NO":"２３號之１","E_COORD97":159896.14999999999,"N_COORD97":2558723.7200000002,"ADDRESS":"溪南２３號之１","OBJECTID":200690},"geometry":{"x":159896.15000000224,"y":2558723.7200000007}},{"attributes":{"ID":200692,"DIS_CODE":0,"TOWNNAME":"七股區","LI":"溪南里","LIN":"3鄰","STREET":" ","SECT":" ","MAREA":"溪南","LANE":" ","ALLEY":" ","HOUSE_NO":"２３號之２","E_COORD97":159889.32999999999,"N_COORD97":2558687.4300000002,"ADDRESS":"溪南２３號之２","OBJECTID":200691},"geometry":{"x":159889.32999999914,"y":2558687.4299999997}},{"attributes":{"ID":200693,"DIS_CODE":0,"TOWNNAME":"安南區","LI":"溪東里","LIN":"20鄰","STREET":"郡安路","SECT":"五段","MAREA":" ","LANE":"３１巷","ALLEY":"１弄","HOUSE_NO":"６號","E_COORD97":168231.42999999999,"N_COORD97":2547626.9100000001,"ADDRESS":"郡安路五段３１巷１弄６號","OBJECTID":200692},"geometry":{"x":168231.4299999997,"y":2547626.910000002}},{"attributes":{"ID":200694,"DIS_CODE":0,"TOWNNAME":"七股區","LI":"溪南里","LIN":"3鄰","STREET":" ","SECT":" ","MAREA":"溪南","LANE":" ","ALLEY":" ","HOUSE_NO":"２３號","E_COORD97":159889.60000000001,"N_COORD97":2558742.3399999999,"ADDRESS":"溪南２３號","OBJECTID":200693},"geometry":{"x":159889.60000000056,"y":2558742.3399999999}},{"attributes":{"ID":200695,"DIS_CODE":0,"TOWNNAME":"七股區","LI":"溪南里","LIN":"3鄰","STREET":" ","SECT":" ","MAREA":"溪南","LANE":" ","ALLEY":" ","HOUSE_NO":"２４號","E_COORD97":159868.10999999999,"N_COORD97":2558740.7999999998,"ADDRESS":"溪南２４號","OBJECTID":200694},"geometry":{"x":159868.11000000127,"y":2558740.8000000045}},{"attributes":{"ID":200696,"DIS_CODE":0,"TOWNNAME":"七股區","LI":"溪南里","LIN":"3鄰","STREET":" ","SECT":" ","MAREA":"溪南","LANE":" ","ALLEY":" ","HOUSE_NO":"２５號","E_COORD97":159879.31,"N_COORD97":2558767.1000000001,"ADDRESS":"溪南２５號","OBJECTID":200695},"geometry":{"x":159879.31000000052,"y":2558767.0999999996}},{"attributes":{"ID":200697,"DIS_CODE":0,"TOWNNAME":"七股區","LI":"溪南里","LIN":"3鄰","STREET":" ","SECT":" ","MAREA":"溪南","LANE":" ","ALLEY":" ","HOUSE_NO":"２７號之１","E_COORD97":159866.82000000001,"N_COORD97":2558784.02,"ADDRESS":"溪南２７號之１","OBJECTID":200696},"geometry":{"x":159866.82000000123,"y":2558784.0199999996}},{"attributes":{"ID":200698,"DIS_CODE":0,"TOWNNAME":"永康區","LI":"尚頂里","LIN":"6鄰","STREET":"中正二街","SECT":" ","MAREA":" ","LANE":"１０５巷","ALLEY":" ","HOUSE_NO":"１７號","E_COORD97":170981.01999999999,"N_COORD97":2547569.0800000001,"ADDRESS":"中正二街１０５巷１７號","OBJECTID":200697},"geometry":{"x":170981.02000000142,"y":2547569.0800000001}},{"attributes":{"ID":200699,"DIS_CODE":0,"TOWNNAME":"仁德區","LI":"仁德里","LIN":"40鄰","STREET":"中山路","SECT":" ","MAREA":" ","LANE":" ","ALLEY":" ","HOUSE_NO":"８６４號","E_COORD97":172259.81,"N_COORD97":2541766.75,"ADDRESS":"中山路８６４號","OBJECTID":200698},"geometry":{"x":172259.80999999959,"y":2541766.75}},{"attributes":{"ID":200700,"DIS_CODE":0,"TOWNNAME":"仁德區","LI":"仁義里","LIN":"40鄰","STREET":"仁義五街","SECT":" ","MAREA":" ","LANE":" ","ALLEY":" ","HOUSE_NO":"３７號","E_COORD97":173583.06,"N_COORD97":2540451.2599999998,"ADDRESS":"仁義五街３７號","OBJECTID":200699},"geometry":{"x":173583.06000000052,"y":2540451.2599999998}},{"attributes":{"ID":200701,"DIS_CODE":0,"TOWNNAME":"永康區","LI":"復華里","LIN":"40鄰","STREET":"復華七街","SECT":" ","MAREA":" ","LANE":" ","ALLEY":" ","HOUSE_NO":"１８號","E_COORD97":172612.31,"N_COORD97":2545962.3900000001,"ADDRESS":"復華七街１８號","OBJECTID":200700},"geometry":{"x":172612.31000000052,"y":2545962.3900000025}},{"attributes":{"ID":200702,"DIS_CODE":0,"TOWNNAME":"永康區","LI":"復華里","LIN":"40鄰","STREET":"復華七街","SECT":" ","MAREA":" ","LANE":" ","ALLEY":" ","HOUSE_NO":"２４號","E_COORD97":172625.60999999999,"N_COORD97":2545964.0099999998,"ADDRESS":"復華七街２４號","OBJECTID":200701},"geometry":{"x":172625.6100000022,"y":2545964.0100000016}},{"attributes":{"ID":200703,"DIS_CODE":0,"TOWNNAME":"新市區","LI":"新和里","LIN":"40鄰","STREET":"勝利街","SECT":" ","MAREA":" ","LANE":" ","ALLEY":" ","HOUSE_NO":"６５號","E_COORD97":177178.60000000001,"N_COORD97":2552940.5099999998,"ADDRESS":"勝利街６５號","OBJECTID":200702},"geometry":{"x":177178.60000000056,"y":2552940.5100000035}},{"attributes":{"ID":200704,"DIS_CODE":0,"TOWNNAME":"新市區","LI":"新和里","LIN":"40鄰","STREET":"信義街","SECT":" ","MAREA":" ","LANE":" ","ALLEY":" ","HOUSE_NO":"８９號","E_COORD97":177208.64999999999,"N_COORD97":2552968.02,"ADDRESS":"信義街８９號","OBJECTID":200703},"geometry":{"x":177208.65000000037,"y":2552968.0200000014}},{"attributes":{"ID":200705,"DIS_CODE":0,"TOWNNAME":"新市區","LI":"豐華里","LIN":"9鄰","STREET":"南科三路","SECT":" ","MAREA":" ","LANE":" ","ALLEY":" ","HOUSE_NO":"１３號","E_COORD97":176568.23999999999,"N_COORD97":2555353.5,"ADDRESS":"南科三路１３號","OBJECTID":200704},"geometry":{"x":176568.24000000115,"y":2555353.5}},{"attributes":{"ID":200706,"DIS_CODE":0,"TOWNNAME":"永康區","LI":"西灣里","LIN":"18鄰","STREET":"民族路","SECT":" ","MAREA":" ","LANE":" ","ALLEY":" ","HOUSE_NO":"４４０號","E_COORD97":174666.73999999999,"N_COORD97":2545429.6000000001,"ADDRESS":"民族路４４０號","OBJECTID":200705},"geometry":{"x":174666.74000000022,"y":2545429.5999999996}},{"attributes":{"ID":200707,"DIS_CODE":0,"TOWNNAME":"中西區","LI":"中正里","LIN":"9鄰","STREET":"正德街","SECT":" ","MAREA":" ","LANE":" ","ALLEY":" ","HOUSE_NO":"１０號","E_COORD97":167517.26000000001,"N_COORD97":2543826.0899999999,"ADDRESS":"正德街１０號","OBJECTID":200706},"geometry":{"x":167517.25999999978,"y":2543826.0899999999}},{"attributes":{"ID":200708,"DIS_CODE":0,"TOWNNAME":"安南區","LI":"溪東里","LIN":"20鄰","STREET":"郡安路","SECT":"五段","MAREA":" ","LANE":"３１巷","ALLEY":"１弄","HOUSE_NO":"８號","E_COORD97":168237.82999999999,"N_COORD97":2547628.1499999999,"ADDRESS":"郡安路五段３１巷１弄８號","OBJECTID":200707},"geometry":{"x":168237.83000000007,"y":2547628.1500000022}},{"attributes":{"ID":200709,"DIS_CODE":0,"TOWNNAME":"安南區","LI":"溪東里","LIN":"20鄰","STREET":"郡安路","SECT":"五段","MAREA":" ","LANE":"３１巷","ALLEY":"２弄","HOUSE_NO":"１０號","E_COORD97":168163.45000000001,"N_COORD97":2547659.9100000001,"ADDRESS":"郡安路五段３１巷２弄１０號","OBJECTID":200708},"geometry":{"x":168163.45000000112,"y":2547659.910000002}},{"attributes":{"ID":200710,"DIS_CODE":0,"TOWNNAME":"新市區","LI":"潭頂里","LIN":"9鄰","STREET":" ","SECT":" ","MAREA":"潭頂","LANE":" ","ALLEY":" ","HOUSE_NO":"３３７號","E_COORD97":180663.09,"N_COORD97":2552923.5,"ADDRESS":"潭頂３３７號","OBJECTID":200709},"geometry":{"x":180663.08999999985,"y":2552923.5}},{"attributes":{"ID":200711,"DIS_CODE":0,"TOWNNAME":"新市區","LI":"潭頂里","LIN":"9鄰","STREET":" ","SECT":" ","MAREA":"潭頂","LANE":" ","ALLEY":" ","HOUSE_NO":"３３１號","E_COORD97":180660.45000000001,"N_COORD97":2552935.5,"ADDRESS":"潭頂３３１號","OBJECTID":200710},"geometry":{"x":180660.45000000112,"y":2552935.5000000019}},{"attributes":{"ID":200712,"DIS_CODE":0,"TOWNNAME":"麻豆區","LI":"寮\u25A0里","LIN":"9鄰","STREET":" ","SECT":" ","MAREA":"寮子\u25A0","LANE":" ","ALLEY":" ","HOUSE_NO":"６８號之１","E_COORD97":176827.64000000001,"N_COORD97":2565183.23,"ADDRESS":"寮子\u25A0６８號之１","OBJECTID":200711},"geometry":{"x":176827.6400000006,"y":2565183.2300000023}},{"attributes":{"ID":200713,"DIS_CODE":0,"TOWNNAME":"麻豆區","LI":"寮\u25A0里","LIN":"9鄰","STREET":" ","SECT":" ","MAREA":"寮子\u25A0","LANE":" ","ALLEY":" ","HOUSE_NO":"６８號","E_COORD97":176818.25,"N_COORD97":2565169.5899999999,"ADDRESS":"寮子\u25A0６８號","OBJECTID":200712},"geometry":{"x":176818.25000000093,"y":2565169.5900000017}},{"attributes":{"ID":200714,"DIS_CODE":0,"TOWNNAME":"麻豆區","LI":"寮\u25A0里","LIN":"9鄰","STREET":" ","SECT":" ","MAREA":"寮子\u25A0","LANE":" ","ALLEY":" ","HOUSE_NO":"６９號","E_COORD97":176794.23999999999,"N_COORD97":2565184.2999999998,"ADDRESS":"寮子\u25A0６９號","OBJECTID":200713},"geometry":{"x":176794.24000000022,"y":2565184.3000000007}},{"attributes":{"ID":200715,"DIS_CODE":0,"TOWNNAME":"麻豆區","LI":"寮\u25A0里","LIN":"9鄰","STREET":" ","SECT":" ","MAREA":"寮子\u25A0","LANE":" ","ALLEY":" ","HOUSE_NO":"７０號之１","E_COORD97":176778.32000000001,"N_COORD97":2565153.5,"ADDRESS":"寮子\u25A0７０號之１","OBJECTID":200714},"geometry":{"x":176778.3200000003,"y":2565153.5000000019}},{"attributes":{"ID":200716,"DIS_CODE":0,"TOWNNAME":"安南區","LI":"溪東里","LIN":"20鄰","STREET":"郡安路","SECT":"五段","MAREA":" ","LANE":"３１巷","ALLEY":"２弄","HOUSE_NO":"１２號","E_COORD97":168164.73000000001,"N_COORD97":2547653.52,"ADDRESS":"郡安路五段３１巷２弄１２號","OBJECTID":200715},"geometry":{"x":168164.73000000231,"y":2547653.5199999996}},{"attributes":{"ID":200717,"DIS_CODE":0,"TOWNNAME":"麻豆區","LI":"寮\u25A0里","LIN":"9鄰","STREET":" ","SECT":" ","MAREA":"寮子\u25A0","LANE":" ","ALLEY":" ","HOUSE_NO":"７０號","E_COORD97":176793.48000000001,"N_COORD97":2565164.6099999999,"ADDRESS":"寮子\u25A0７０號","OBJECTID":200716},"geometry":{"x":176793.48000000138,"y":2565164.6099999994}},{"attributes":{"ID":200718,"DIS_CODE":0,"TOWNNAME":"安南區","LI":"溪東里","LIN":"20鄰","STREET":"郡安路","SECT":"五段","MAREA":" ","LANE":"３１巷","ALLEY":"２弄","HOUSE_NO":"１４號","E_COORD97":168167.29000000001,"N_COORD97":2547646.7000000002,"ADDRESS":"郡安路五段３１巷２弄１４號","OBJECTID":200717},"geometry":{"x":168167.2900000019,"y":2547646.7000000011}},{"attributes":{"ID":200719,"DIS_CODE":0,"TOWNNAME":"七股區","LI":"龍山里","LIN":"3鄰","STREET":" ","SECT":" ","MAREA":"龍山","LANE":" ","ALLEY":" ","HOUSE_NO":"２５號","E_COORD97":159541.39000000001,"N_COORD97":2559888.8300000001,"ADDRESS":"龍山２５號","OBJECTID":200718},"geometry":{"x":159541.3900000006,"y":2559888.8299999982}},{"attributes":{"ID":200720,"DIS_CODE":0,"TOWNNAME":"安南區","LI":"溪東里","LIN":"20鄰","STREET":"郡安路","SECT":"五段","MAREA":" ","LANE":"３１巷","ALLEY":"２弄","HOUSE_NO":"１號","E_COORD97":168208.64000000001,"N_COORD97":2547625.8900000001,"ADDRESS":"郡安路五段３１巷２弄１號","OBJECTID":200719},"geometry":{"x":168208.64000000153,"y":2547625.8900000006}},{"attributes":{"ID":200721,"DIS_CODE":0,"TOWNNAME":"麻豆區","LI":"寮\u25A0里","LIN":"9鄰","STREET":" ","SECT":" ","MAREA":"寮子\u25A0","LANE":" ","ALLEY":" ","HOUSE_NO":"７１號","E_COORD97":176768.76000000001,"N_COORD97":2565159.5800000001,"ADDRESS":"寮子\u25A0７１號","OBJECTID":200720},"geometry":{"x":176768.76000000071,"y":2565159.5800000038}},{"attributes":{"ID":200722,"DIS_CODE":0,"TOWNNAME":"麻豆區","LI":"寮\u25A0里","LIN":"9鄰","STREET":" ","SECT":" ","MAREA":"寮子\u25A0","LANE":" ","ALLEY":" ","HOUSE_NO":"７２號","E_COORD97":176771.10999999999,"N_COORD97":2565174.7799999998,"ADDRESS":"寮子\u25A0７２號","OBJECTID":200721},"geometry":{"x":176771.11000000034,"y":2565174.7800000012}},{"attributes":{"ID":200723,"DIS_CODE":0,"TOWNNAME":"麻豆區","LI":"寮\u25A0里","LIN":"9鄰","STREET":" ","SECT":" ","MAREA":"寮子\u25A0","LANE":" ","ALLEY":" ","HOUSE_NO":"７３號","E_COORD97":176779.04999999999,"N_COORD97":2565193.8900000001,"ADDRESS":"寮子\u25A0７３號","OBJECTID":200722},"geometry":{"x":176779.05000000075,"y":2565193.8900000006}},{"attributes":{"ID":200724,"DIS_CODE":0,"TOWNNAME":"七股區","LI":"溪南里","LIN":"3鄰","STREET":" ","SECT":" ","MAREA":"溪南","LANE":" ","ALLEY":" ","HOUSE_NO":"２７號之２","E_COORD97":159856.60999999999,"N_COORD97":2558783,"ADDRESS":"溪南２７號之２","OBJECTID":200723},"geometry":{"x":159856.61000000034,"y":2558783.0000000019}},{"attributes":{"ID":200725,"DIS_CODE":0,"TOWNNAME":"七股區","LI":"溪南里","LIN":"3鄰","STREET":" ","SECT":" ","MAREA":"溪南","LANE":" ","ALLEY":" ","HOUSE_NO":"２７號","E_COORD97":159861.70999999999,"N_COORD97":2558758.8399999999,"ADDRESS":"溪南２７號","OBJECTID":200724},"geometry":{"x":159861.71000000089,"y":2558758.8399999999}},{"attributes":{"ID":200726,"DIS_CODE":0,"TOWNNAME":"七股區","LI":"溪南里","LIN":"3鄰","STREET":" ","SECT":" ","MAREA":"溪南","LANE":" ","ALLEY":" ","HOUSE_NO":"２８號","E_COORD97":159851.95000000001,"N_COORD97":2558713.0499999998,"ADDRESS":"溪南２８號","OBJECTID":200725},"geometry":{"x":159851.95000000112,"y":2558713.0500000026}},{"attributes":{"ID":200727,"DIS_CODE":0,"TOWNNAME":"七股區","LI":"溪南里","LIN":"3鄰","STREET":" ","SECT":" ","MAREA":"溪南","LANE":" ","ALLEY":" ","HOUSE_NO":"２９號","E_COORD97":159830.57999999999,"N_COORD97":2558726.9500000002,"ADDRESS":"溪南２９號","OBJECTID":200726},"geometry":{"x":159830.58000000101,"y":2558726.9499999993}},{"attributes":{"ID":200728,"DIS_CODE":0,"TOWNNAME":"七股區","LI":"義合里","LIN":"3鄰","STREET":" ","SECT":" ","MAREA":"義合","LANE":" ","ALLEY":" ","HOUSE_NO":"１６號","E_COORD97":163021.09,"N_COORD97":2556638.1400000001,"ADDRESS":"義合１６號","OBJECTID":200727},"geometry":{"x":163021.08999999985,"y":2556638.1400000006}},{"attributes":{"ID":200729,"DIS_CODE":0,"TOWNNAME":"七股區","LI":"義合里","LIN":"3鄰","STREET":" ","SECT":" ","MAREA":"義合","LANE":" ","ALLEY":" ","HOUSE_NO":"１７號之１","E_COORD97":162972.28,"N_COORD97":2556611.9399999999,"ADDRESS":"義合１７號之１","OBJECTID":200728},"geometry":{"x":162972.28000000119,"y":2556611.9399999995}},{"attributes":{"ID":200730,"DIS_CODE":0,"TOWNNAME":"七股區","LI":"義合里","LIN":"3鄰","STREET":" ","SECT":" ","MAREA":"義合","LANE":" ","ALLEY":" ","HOUSE_NO":"１７號之２０","E_COORD97":162924.75,"N_COORD97":2556643.1499999999,"ADDRESS":"義合１７號之２０","OBJECTID":200729},"geometry":{"x":162924.75000000093,"y":2556643.1500000022}},{"attributes":{"ID":200731,"DIS_CODE":0,"TOWNNAME":"安南區","LI":"溪東里","LIN":"20鄰","STREET":"郡安路","SECT":"五段","MAREA":" ","LANE":"３１巷","ALLEY":"２弄","HOUSE_NO":"２號","E_COORD97":168202.26999999999,"N_COORD97":2547651.3900000001,"ADDRESS":"郡安路五段３１巷２弄２號","OBJECTID":200730},"geometry":{"x":168202.26999999955,"y":2547651.3900000025}},{"attributes":{"ID":200732,"DIS_CODE":0,"TOWNNAME":"安南區","LI":"溪東里","LIN":"20鄰","STREET":"郡安路","SECT":"五段","MAREA":" ","LANE":"３１巷","ALLEY":"２弄","HOUSE_NO":"４號","E_COORD97":168196.29999999999,"N_COORD97":2547654.1600000001,"ADDRESS":"郡安路五段３１巷２弄４號","OBJECTID":200731},"geometry":{"x":168196.30000000075,"y":2547654.1599999983}},{"attributes":{"ID":200733,"DIS_CODE":0,"TOWNNAME":"安南區","LI":"溪東里","LIN":"20鄰","STREET":"郡安路","SECT":"五段","MAREA":" ","LANE":"３１巷","ALLEY":"２弄","HOUSE_NO":"６號","E_COORD97":168184.57000000001,"N_COORD97":2547648.8300000001,"ADDRESS":"郡安路五段３１巷２弄６號","OBJECTID":200732},"geometry":{"x":168184.57000000123,"y":2547648.8300000001}},{"attributes":{"ID":200734,"DIS_CODE":0,"TOWNNAME":"安南區","LI":"溪東里","LIN":"20鄰","STREET":"郡安路","SECT":"五段","MAREA":" ","LANE":"３１巷","ALLEY":"３弄","HOUSE_NO":"１０號","E_COORD97":168247.51999999999,"N_COORD97":2547601.3399999999,"ADDRESS":"郡安路五段３１巷３弄１０號","OBJECTID":200733},"geometry":{"x":168247.51999999955,"y":2547601.3399999999}},{"attributes":{"ID":200735,"DIS_CODE":0,"TOWNNAME":"安南區","LI":"溪東里","LIN":"20鄰","STREET":"郡安路","SECT":"五段","MAREA":" ","LANE":"３１巷","ALLEY":"３弄","HOUSE_NO":"１１號","E_COORD97":168249.42000000001,"N_COORD97":2547619.21,"ADDRESS":"郡安路五段３１巷３弄１１號","OBJECTID":200734},"geometry":{"x":168249.42000000179,"y":2547619.2100000028}},{"attributes":{"ID":200736,"DIS_CODE":0,"TOWNNAME":"安南區","LI":"溪東里","LIN":"20鄰","STREET":"郡安路","SECT":"五段","MAREA":" ","LANE":"３１巷","ALLEY":"３弄","HOUSE_NO":"１２號","E_COORD97":168252.42999999999,"N_COORD97":2547601.7400000002,"ADDRESS":"郡安路五段３１巷３弄１２號","OBJECTID":200735},"geometry":{"x":168252.43000000156,"y":2547601.7400000002}},{"attributes":{"ID":200737,"DIS_CODE":0,"TOWNNAME":"七股區","LI":"義合里","LIN":"3鄰","STREET":" ","SECT":" ","MAREA":"義合","LANE":" ","ALLEY":" ","HOUSE_NO":"１７號之２","E_COORD97":162972.23000000001,"N_COORD97":2556607.9100000001,"ADDRESS":"義合１７號之２","OBJECTID":200736},"geometry":{"x":162972.23000000045,"y":2556607.910000002}},{"attributes":{"ID":200738,"DIS_CODE":0,"TOWNNAME":"七股區","LI":"義合里","LIN":"3鄰","STREET":" ","SECT":" ","MAREA":"義合","LANE":" ","ALLEY":" ","HOUSE_NO":"１７號之３","E_COORD97":162972.17999999999,"N_COORD97":2556603.8799999999,"ADDRESS":"義合１７號之３","OBJECTID":200737},"geometry":{"x":162972.18000000063,"y":2556603.8800000008}},{"attributes":{"ID":200739,"DIS_CODE":0,"TOWNNAME":"七股區","LI":"義合里","LIN":"3鄰","STREET":" ","SECT":" ","MAREA":"義合","LANE":" ","ALLEY":" ","HOUSE_NO":"１７號之４","E_COORD97":162972.12,"N_COORD97":2556599.8500000001,"ADDRESS":"義合１７號之４","OBJECTID":200738},"geometry":{"x":162972.12000000011,"y":2556599.8500000034}},{"attributes":{"ID":200740,"DIS_CODE":0,"TOWNNAME":"七股區","LI":"義合里","LIN":"3鄰","STREET":" ","SECT":" ","MAREA":"義合","LANE":" ","ALLEY":" ","HOUSE_NO":"１７號之５","E_COORD97":162972.07000000001,"N_COORD97":2556595.8199999998,"ADDRESS":"義合１７號之５","OBJECTID":200739},"geometry":{"x":162972.07000000123,"y":2556595.8200000003}},{"attributes":{"ID":200741,"DIS_CODE":0,"TOWNNAME":"安南區","LI":"溪東里","LIN":"20鄰","STREET":"郡安路","SECT":"五段","MAREA":" ","LANE":"３１巷","ALLEY":"３弄","HOUSE_NO":"１號","E_COORD97":168222.45999999999,"N_COORD97":2547615.8199999998,"ADDRESS":"郡安路五段３１巷３弄１號","OBJECTID":200740},"geometry":{"x":168222.46000000089,"y":2547615.8200000003}},{"attributes":{"ID":200742,"DIS_CODE":0,"TOWNNAME":"安南區","LI":"溪東里","LIN":"20鄰","STREET":"郡安路","SECT":"五段","MAREA":" ","LANE":"３１巷","ALLEY":"３弄","HOUSE_NO":"２號","E_COORD97":168225.48000000001,"N_COORD97":2547597.54,"ADDRESS":"郡安路五段３１巷３弄２號","OBJECTID":200741},"geometry":{"x":168225.48000000045,"y":2547597.540000001}},{"attributes":{"ID":200743,"DIS_CODE":0,"TOWNNAME":"安南區","LI":"溪東里","LIN":"20鄰","STREET":"郡安路","SECT":"五段","MAREA":" ","LANE":"３１巷","ALLEY":"３弄","HOUSE_NO":"４號","E_COORD97":168231.19,"N_COORD97":2547598.2799999998,"ADDRESS":"郡安路五段３１巷３弄４號","OBJECTID":200742},"geometry":{"x":168231.19000000227,"y":2547598.2799999975}},{"attributes":{"ID":200744,"DIS_CODE":0,"TOWNNAME":"安南區","LI":"溪東里","LIN":"20鄰","STREET":"郡安路","SECT":"五段","MAREA":" ","LANE":"３１巷","ALLEY":"３弄","HOUSE_NO":"５號","E_COORD97":168234.42000000001,"N_COORD97":2547617.25,"ADDRESS":"郡安路五段３１巷３弄５號","OBJECTID":200743},"geometry":{"x":168234.42000000086,"y":2547617.2500000019}},{"attributes":{"ID":200745,"DIS_CODE":0,"TOWNNAME":"安南區","LI":"溪東里","LIN":"20鄰","STREET":"郡安路","SECT":"五段","MAREA":" ","LANE":"３１巷","ALLEY":"３弄","HOUSE_NO":"６號","E_COORD97":168236.73999999999,"N_COORD97":2547599.8900000001,"ADDRESS":"郡安路五段３１巷３弄６號","OBJECTID":200744},"geometry":{"x":168236.74000000022,"y":2547599.8900000025}},{"attributes":{"ID":200746,"DIS_CODE":0,"TOWNNAME":"安南區","LI":"溪東里","LIN":"20鄰","STREET":"郡安路","SECT":"五段","MAREA":" ","LANE":"３１巷","ALLEY":"３弄","HOUSE_NO":"７號","E_COORD97":168238.53,"N_COORD97":2547616.8900000001,"ADDRESS":"郡安路五段３１巷３弄７號","OBJECTID":200745},"geometry":{"x":168238.53000000026,"y":2547616.8900000025}},{"attributes":{"ID":200747,"DIS_CODE":0,"TOWNNAME":"安南區","LI":"溪東里","LIN":"20鄰","STREET":"郡安路","SECT":"五段","MAREA":" ","LANE":"３１巷","ALLEY":"３弄","HOUSE_NO":"８號","E_COORD97":168241.81,"N_COORD97":2547600.21,"ADDRESS":"郡安路五段３１巷３弄８號","OBJECTID":200746},"geometry":{"x":168241.81000000052,"y":2547600.2100000009}},{"attributes":{"ID":200748,"DIS_CODE":0,"TOWNNAME":"七股區","LI":"義合里","LIN":"3鄰","STREET":" ","SECT":" ","MAREA":"義合","LANE":" ","ALLEY":" ","HOUSE_NO":"１７號","E_COORD97":162972.32999999999,"N_COORD97":2556615.9700000002,"ADDRESS":"義合１７號","OBJECTID":200747},"geometry":{"x":162972.33000000007,"y":2556615.9700000007}},{"attributes":{"ID":200749,"DIS_CODE":0,"TOWNNAME":"七股區","LI":"義合里","LIN":"3鄰","STREET":" ","SECT":" ","MAREA":"義合","LANE":" ","ALLEY":" ","HOUSE_NO":"１９號之１","E_COORD97":162970.38,"N_COORD97":2556585.6699999999,"ADDRESS":"義合１９號之１","OBJECTID":200748},"geometry":{"x":162970.37999999989,"y":2556585.6700000018}},{"attributes":{"ID":200750,"DIS_CODE":0,"TOWNNAME":"七股區","LI":"義合里","LIN":"3鄰","STREET":" ","SECT":" ","MAREA":"義合","LANE":" ","ALLEY":" ","HOUSE_NO":"１９號之２","E_COORD97":162974.60000000001,"N_COORD97":2556585.7599999998,"ADDRESS":"義合１９號之２","OBJECTID":200749},"geometry":{"x":162974.60000000056,"y":2556585.7599999998}},{"attributes":{"ID":200751,"DIS_CODE":0,"TOWNNAME":"七股區","LI":"義合里","LIN":"3鄰","STREET":" ","SECT":" ","MAREA":"義合","LANE":" ","ALLEY":" ","HOUSE_NO":"１９號之３","E_COORD97":162979.04999999999,"N_COORD97":2556585.8900000001,"ADDRESS":"義合１９號之３","OBJECTID":200750},"geometry":{"x":162979.04999999981,"y":2556585.8900000006}},{"attributes":{"ID":200752,"DIS_CODE":0,"TOWNNAME":"安南區","LI":"溪東里","LIN":"20鄰","STREET":"郡安路","SECT":"五段","MAREA":" ","LANE":"３１巷","ALLEY":"３弄","HOUSE_NO":"９號","E_COORD97":168244.06,"N_COORD97":2547618.1400000001,"ADDRESS":"郡安路五段３１巷３弄９號","OBJECTID":200751},"geometry":{"x":168244.05999999959,"y":2547618.1400000025}},{"attributes":{"ID":200753,"DIS_CODE":0,"TOWNNAME":"安南區","LI":"溪東里","LIN":"20鄰","STREET":"郡安路","SECT":"五段","MAREA":" ","LANE":"３１巷","ALLEY":"４弄","HOUSE_NO":"１號","E_COORD97":168213.28,"N_COORD97":2547595.5,"ADDRESS":"郡安路五段３１巷４弄１號","OBJECTID":200752},"geometry":{"x":168213.27999999933,"y":2547595.5000000019}},{"attributes":{"ID":200754,"DIS_CODE":0,"TOWNNAME":"七股區","LI":"龍山里","LIN":"3鄰","STREET":" ","SECT":" ","MAREA":"龍山","LANE":" ","ALLEY":" ","HOUSE_NO":"２６號","E_COORD97":159530.25,"N_COORD97":2559880.2000000002,"ADDRESS":"龍山２６號","OBJECTID":200753},"geometry":{"x":159530.25,"y":2559880.2000000011}},{"attributes":{"ID":200755,"DIS_CODE":0,"TOWNNAME":"七股區","LI":"義合里","LIN":"3鄰","STREET":" ","SECT":" ","MAREA":"義合","LANE":" ","ALLEY":" ","HOUSE_NO":"１９號之４","E_COORD97":162983.35999999999,"N_COORD97":2556585.8900000001,"ADDRESS":"義合１９號之４","OBJECTID":200754},"geometry":{"x":162983.3600000022,"y":2556585.8900000006}},{"attributes":{"ID":200756,"DIS_CODE":0,"TOWNNAME":"七股區","LI":"義合里","LIN":"3鄰","STREET":" ","SECT":" ","MAREA":"義合","LANE":" ","ALLEY":" ","HOUSE_NO":"１９號","E_COORD97":162953.38,"N_COORD97":2556609.98,"ADDRESS":"義合１９號","OBJECTID":200755},"geometry":{"x":162953.37999999989,"y":2556609.9800000042}},{"attributes":{"ID":200757,"DIS_CODE":0,"TOWNNAME":"七股區","LI":"義合里","LIN":"3鄰","STREET":" ","SECT":" ","MAREA":"義合","LANE":" ","ALLEY":" ","HOUSE_NO":"２０號之３","E_COORD97":162928.10000000001,"N_COORD97":2556559.6499999999,"ADDRESS":"義合２０號之３","OBJECTID":200756},"geometry":{"x":162928.09999999963,"y":2556559.6500000004}},{"attributes":{"ID":200758,"DIS_CODE":0,"TOWNNAME":"七股區","LI":"義合里","LIN":"3鄰","STREET":" ","SECT":" ","MAREA":"義合","LANE":" ","ALLEY":" ","HOUSE_NO":"２０號之４","E_COORD97":162932.81,"N_COORD97":2556559.9399999999,"ADDRESS":"義合２０號之４","OBJECTID":200757},"geometry":{"x":162932.80999999959,"y":2556559.9400000013}},{"attributes":{"ID":200759,"DIS_CODE":0,"TOWNNAME":"七股區","LI":"義合里","LIN":"3鄰","STREET":" ","SECT":" ","MAREA":"義合","LANE":" ","ALLEY":" ","HOUSE_NO":"２０號之５","E_COORD97":162937.51000000001,"N_COORD97":2556560.23,"ADDRESS":"義合２０號之５","OBJECTID":200758},"geometry":{"x":162937.51000000164,"y":2556560.2300000004}},{"attributes":{"ID":200760,"DIS_CODE":0,"TOWNNAME":"七股區","LI":"義合里","LIN":"3鄰","STREET":" ","SECT":" ","MAREA":"義合","LANE":" ","ALLEY":" ","HOUSE_NO":"２０號之６","E_COORD97":162942.22,"N_COORD97":2556560.52,"ADDRESS":"義合２０號之６","OBJECTID":200759},"geometry":{"x":162942.21999999974,"y":2556560.5199999996}},{"attributes":{"ID":200761,"DIS_CODE":0,"TOWNNAME":"七股區","LI":"義合里","LIN":"3鄰","STREET":" ","SECT":" ","MAREA":"義合","LANE":" ","ALLEY":" ","HOUSE_NO":"２１號之１","E_COORD97":162881.67000000001,"N_COORD97":2556582.3399999999,"ADDRESS":"義合２１號之１","OBJECTID":200760},"geometry":{"x":162881.66999999993,"y":2556582.3399999999}},{"attributes":{"ID":200762,"DIS_CODE":0,"TOWNNAME":"安南區","LI":"溪東里","LIN":"20鄰","STREET":"郡安路","SECT":"五段","MAREA":" ","LANE":"３１巷","ALLEY":"４弄","HOUSE_NO":"３號","E_COORD97":168208.07000000001,"N_COORD97":2547594.7200000002,"ADDRESS":"郡安路五段３１巷４弄３號","OBJECTID":200761},"geometry":{"x":168208.07000000216,"y":2547594.7200000025}},{"attributes":{"ID":200763,"DIS_CODE":0,"TOWNNAME":"安南區","LI":"溪東里","LIN":"20鄰","STREET":"郡安路","SECT":"五段","MAREA":" ","LANE":"３１巷","ALLEY":"４弄","HOUSE_NO":"５號","E_COORD97":168198.98999999999,"N_COORD97":2547593.7599999998,"ADDRESS":"郡安路五段３１巷４弄５號","OBJECTID":200762},"geometry":{"x":168198.99000000115,"y":2547593.7600000016}},{"attributes":{"ID":200764,"DIS_CODE":0,"TOWNNAME":"安南區","LI":"溪東里","LIN":"20鄰","STREET":"郡安路","SECT":"五段","MAREA":" ","LANE":"３１巷","ALLEY":"４弄","HOUSE_NO":"６號","E_COORD97":168196.28,"N_COORD97":2547608.7200000002,"ADDRESS":"郡安路五段３１巷４弄６號","OBJECTID":200763},"geometry":{"x":168196.28000000026,"y":2547608.7200000025}},{"attributes":{"ID":200765,"DIS_CODE":0,"TOWNNAME":"安南區","LI":"溪東里","LIN":"20鄰","STREET":"郡安路","SECT":"五段","MAREA":" ","LANE":"３１巷","ALLEY":"６弄","HOUSE_NO":"２號","E_COORD97":168216.37,"N_COORD97":2547580.6400000001,"ADDRESS":"郡安路五段３１巷６弄２號","OBJECTID":200764},"geometry":{"x":168216.37000000104,"y":2547580.6400000043}},{"attributes":{"ID":200766,"DIS_CODE":0,"TOWNNAME":"安南區","LI":"溪東里","LIN":"20鄰","STREET":"郡安路","SECT":"五段","MAREA":" ","LANE":"３１巷","ALLEY":"６弄","HOUSE_NO":"４號","E_COORD97":168210.95999999999,"N_COORD97":2547580.0600000001,"ADDRESS":"郡安路五段３１巷６弄４號","OBJECTID":200765},"geometry":{"x":168210.96000000089,"y":2547580.0600000005}},{"attributes":{"ID":200767,"DIS_CODE":0,"TOWNNAME":"安南區","LI":"溪東里","LIN":"20鄰","STREET":"郡安路","SECT":"五段","MAREA":" ","LANE":"３１巷","ALLEY":"６弄","HOUSE_NO":"６號","E_COORD97":168202.26999999999,"N_COORD97":2547580.0600000001,"ADDRESS":"郡安路五段３１巷６弄６號","OBJECTID":200766},"geometry":{"x":168202.26999999955,"y":2547580.0600000005}},{"attributes":{"ID":200768,"DIS_CODE":0,"TOWNNAME":"安南區","LI":"溪東里","LIN":"20鄰","STREET":"郡安路","SECT":"五段","MAREA":" ","LANE":"３１巷","ALLEY":"８弄","HOUSE_NO":"２號","E_COORD97":168216.53,"N_COORD97":2547566.0299999998,"ADDRESS":"郡安路五段３１巷８弄２號","OBJECTID":200767},"geometry":{"x":168216.53000000026,"y":2547566.0299999975}},{"attributes":{"ID":200769,"DIS_CODE":0,"TOWNNAME":"安南區","LI":"溪東里","LIN":"20鄰","STREET":"郡安路","SECT":"五段","MAREA":" ","LANE":"３１巷","ALLEY":"８弄","HOUSE_NO":"３號","E_COORD97":168230.89999999999,"N_COORD97":2547561.29,"ADDRESS":"郡安路五段３１巷８弄３號","OBJECTID":200768},"geometry":{"x":168230.90000000037,"y":2547561.290000001}},{"attributes":{"ID":200770,"DIS_CODE":0,"TOWNNAME":"安南區","LI":"溪東里","LIN":"20鄰","STREET":"郡安路","SECT":"五段","MAREA":" ","LANE":"３１巷","ALLEY":"８弄","HOUSE_NO":"５號","E_COORD97":168230.47,"N_COORD97":2547556.1099999999,"ADDRESS":"郡安路五段３１巷８弄５號","OBJECTID":200769},"geometry":{"x":168230.47000000067,"y":2547556.1100000013}},{"attributes":{"ID":200771,"DIS_CODE":0,"TOWNNAME":"安南區","LI":"溪東里","LIN":"20鄰","STREET":"郡安路","SECT":"五段","MAREA":" ","LANE":"３１巷","ALLEY":"８弄","HOUSE_NO":"６號","E_COORD97":168218.03,"N_COORD97":2547555.8900000001,"ADDRESS":"郡安路五段３１巷８弄６號","OBJECTID":200770},"geometry":{"x":168218.03000000026,"y":2547555.8900000025}},{"attributes":{"ID":200772,"DIS_CODE":0,"TOWNNAME":"安南區","LI":"溪東里","LIN":"20鄰","STREET":"郡安路","SECT":"五段","MAREA":" ","LANE":"３１巷","ALLEY":"８弄","HOUSE_NO":"８號","E_COORD97":168217.92000000001,"N_COORD97":2547551.2400000002,"ADDRESS":"郡安路五段３１巷８弄８號","OBJECTID":200771},"geometry":{"x":168217.92000000086,"y":2547551.2400000002}},{"attributes":{"ID":200773,"DIS_CODE":0,"TOWNNAME":"七股區","LI":"義合里","LIN":"3鄰","STREET":" ","SECT":" ","MAREA":"義合","LANE":" ","ALLEY":" ","HOUSE_NO":"２１號","E_COORD97":162907.89000000001,"N_COORD97":2556591.3999999999,"ADDRESS":"義合２１號","OBJECTID":200772},"geometry":{"x":162907.8900000006,"y":2556591.4000000022}},{"attributes":{"ID":200774,"DIS_CODE":0,"TOWNNAME":"七股區","LI":"義合里","LIN":"3鄰","STREET":" ","SECT":" ","MAREA":"義合","LANE":" ","ALLEY":" ","HOUSE_NO":"２２號之１","E_COORD97":162880.26999999999,"N_COORD97":2556530.6499999999,"ADDRESS":"義合２２號之１","OBJECTID":200773},"geometry":{"x":162880.27000000048,"y":2556530.6500000041}},{"attributes":{"ID":200775,"DIS_CODE":0,"TOWNNAME":"七股區","LI":"義合里","LIN":"3鄰","STREET":" ","SECT":" ","MAREA":"義合","LANE":" ","ALLEY":" ","HOUSE_NO":"２２號之２","E_COORD97":162880.32000000001,"N_COORD97":2556526.1400000001,"ADDRESS":"義合２２號之２","OBJECTID":200774},"geometry":{"x":162880.32000000123,"y":2556526.1400000006}},{"attributes":{"ID":200776,"DIS_CODE":0,"TOWNNAME":"七股區","LI":"義合里","LIN":"3鄰","STREET":" ","SECT":" ","MAREA":"義合","LANE":" ","ALLEY":" ","HOUSE_NO":"２３號之１０","E_COORD97":162851.17999999999,"N_COORD97":2556528.3100000001,"ADDRESS":"義合２３號之１０","OBJECTID":200775},"geometry":{"x":162851.1799999997,"y":2556528.3100000005}},{"attributes":{"ID":200777,"DIS_CODE":0,"TOWNNAME":"七股區","LI":"義合里","LIN":"3鄰","STREET":" ","SECT":" ","MAREA":"義合","LANE":" ","ALLEY":" ","HOUSE_NO":"２３號之１１","E_COORD97":162865.19,"N_COORD97":2556528.3100000001,"ADDRESS":"義合２３號之１１","OBJECTID":200776},"geometry":{"x":162865.19000000041,"y":2556528.3100000005}},{"attributes":{"ID":200778,"DIS_CODE":0,"TOWNNAME":"仁德區","LI":"後壁里","LIN":"20鄰","STREET":"中正路","SECT":"二段","MAREA":" ","LANE":"１０６巷","ALLEY":"１弄","HOUSE_NO":"２號","E_COORD97":173220.88,"N_COORD97":2538512.3700000001,"ADDRESS":"中正路二段１０６巷１弄２號","OBJECTID":200777},"geometry":{"x":173220.87999999989,"y":2538512.370000001}},{"attributes":{"ID":200779,"DIS_CODE":0,"TOWNNAME":"七股區","LI":"義合里","LIN":"3鄰","STREET":" ","SECT":" ","MAREA":"義合","LANE":" ","ALLEY":" ","HOUSE_NO":"２３號之１２","E_COORD97":162850.98000000001,"N_COORD97":2556544.5499999998,"ADDRESS":"義合２３號之１２","OBJECTID":200778},"geometry":{"x":162850.98000000138,"y":2556544.5500000007}},{"attributes":{"ID":200780,"DIS_CODE":0,"TOWNNAME":"仁德區","LI":"後壁里","LIN":"20鄰","STREET":"中正路","SECT":"二段","MAREA":" ","LANE":"１０６巷","ALLEY":"１５弄","HOUSE_NO":"１號","E_COORD97":173236.98999999999,"N_COORD97":2538509.77,"ADDRESS":"中正路二段１０６巷１５弄１號","OBJECTID":200779},"geometry":{"x":173236.99000000115,"y":2538509.7700000014}},{"attributes":{"ID":200781,"DIS_CODE":0,"TOWNNAME":"七股區","LI":"義合里","LIN":"3鄰","STREET":" ","SECT":" ","MAREA":"義合","LANE":" ","ALLEY":" ","HOUSE_NO":"２３號之１３","E_COORD97":162865,"N_COORD97":2556543.8599999999,"ADDRESS":"義合２３號之１３","OBJECTID":200780},"geometry":{"x":162865.00000000186,"y":2556543.8599999994}},{"attributes":{"ID":200782,"DIS_CODE":0,"TOWNNAME":"七股區","LI":"義合里","LIN":"3鄰","STREET":" ","SECT":" ","MAREA":"義合","LANE":" ","ALLEY":" ","HOUSE_NO":"２３號之１４","E_COORD97":162851.17000000001,"N_COORD97":2556551.75,"ADDRESS":"義合２３號之１４","OBJECTID":200781},"geometry":{"x":162851.16999999993,"y":2556551.75}},{"attributes":{"ID":200783,"DIS_CODE":0,"TOWNNAME":"七股區","LI":"義合里","LIN":"3鄰","STREET":" ","SECT":" ","MAREA":"義合","LANE":" ","ALLEY":" ","HOUSE_NO":"２３號之１５","E_COORD97":162865.23999999999,"N_COORD97":2556551.21,"ADDRESS":"義合２３號之１５","OBJECTID":200782},"geometry":{"x":162865.24000000209,"y":2556551.2100000046}},{"attributes":{"ID":200784,"DIS_CODE":0,"TOWNNAME":"北門區","LI":"永隆里","LIN":"3鄰","STREET":" ","SECT":" ","MAREA":"北門","LANE":" ","ALLEY":" ","HOUSE_NO":"４４號","E_COORD97":160347.14000000001,"N_COORD97":2574422.9900000002,"ADDRESS":"北門４４號","OBJECTID":200783},"geometry":{"x":160347.1400000006,"y":2574422.9900000021}},{"attributes":{"ID":200785,"DIS_CODE":0,"TOWNNAME":"七股區","LI":"義合里","LIN":"3鄰","STREET":" ","SECT":" ","MAREA":"義合","LANE":" ","ALLEY":" ","HOUSE_NO":"２３號之１６","E_COORD97":162851.35999999999,"N_COORD97":2556558.9500000002,"ADDRESS":"義合２３號之１６","OBJECTID":200784},"geometry":{"x":162851.36000000127,"y":2556558.9500000011}},{"attributes":{"ID":200786,"DIS_CODE":0,"TOWNNAME":"七股區","LI":"義合里","LIN":"3鄰","STREET":" ","SECT":" ","MAREA":"義合","LANE":" ","ALLEY":" ","HOUSE_NO":"２３號之１７","E_COORD97":162865.48000000001,"N_COORD97":2556558.5499999998,"ADDRESS":"義合２３號之１７","OBJECTID":200785},"geometry":{"x":162865.47999999952,"y":2556558.5500000007}},{"attributes":{"ID":200787,"DIS_CODE":0,"TOWNNAME":"七股區","LI":"義合里","LIN":"3鄰","STREET":" ","SECT":" ","MAREA":"義合","LANE":" ","ALLEY":" ","HOUSE_NO":"２３號之１８","E_COORD97":162851.54999999999,"N_COORD97":2556566.1600000001,"ADDRESS":"義合２３號之１８","OBJECTID":200786},"geometry":{"x":162851.55000000075,"y":2556566.1600000001}},{"attributes":{"ID":200788,"DIS_CODE":0,"TOWNNAME":"七股區","LI":"義合里","LIN":"3鄰","STREET":" ","SECT":" ","MAREA":"義合","LANE":" ","ALLEY":" ","HOUSE_NO":"２３號之１９","E_COORD97":162865.70999999999,"N_COORD97":2556565.8999999999,"ADDRESS":"義合２３號之１９","OBJECTID":200787},"geometry":{"x":162865.71000000089,"y":2556565.9000000004}},{"attributes":{"ID":200789,"DIS_CODE":0,"TOWNNAME":"將軍區","LI":"三吉里","LIN":"3鄰","STREET":" ","SECT":" ","MAREA":"三吉","LANE":" ","ALLEY":" ","HOUSE_NO":"１９號","E_COORD97":161267.01000000001,"N_COORD97":2567496.3799999999,"ADDRESS":"三吉１９號","OBJECTID":200788},"geometry":{"x":161267.00999999978,"y":2567496.3800000008}},{"attributes":{"ID":200790,"DIS_CODE":0,"TOWNNAME":"七股區","LI":"義合里","LIN":"3鄰","STREET":" ","SECT":" ","MAREA":"義合","LANE":" ","ALLEY":" ","HOUSE_NO":"２３號之１","E_COORD97":162869.01999999999,"N_COORD97":2556498.23,"ADDRESS":"義合２３號之１","OBJECTID":200789},"geometry":{"x":162869.01999999955,"y":2556498.2300000004}},{"attributes":{"ID":200791,"DIS_CODE":0,"TOWNNAME":"七股區","LI":"義合里","LIN":"3鄰","STREET":" ","SECT":" ","MAREA":"義合","LANE":" ","ALLEY":" ","HOUSE_NO":"２３號之２０","E_COORD97":162851.73999999999,"N_COORD97":2556573.3599999999,"ADDRESS":"義合２３號之２０","OBJECTID":200790},"geometry":{"x":162851.74000000209,"y":2556573.3600000013}},{"attributes":{"ID":200792,"DIS_CODE":0,"TOWNNAME":"佳里區","LI":"鎮山里","LIN":"20鄰","STREET":"勝利路","SECT":" ","MAREA":" ","LANE":"２６５巷","ALLEY":"１２弄","HOUSE_NO":"２號之１","E_COORD97":166127.70999999999,"N_COORD97":2560779.9500000002,"ADDRESS":"勝利路２６５巷１２弄２號之１","OBJECTID":200791},"geometry":{"x":166127.70999999996,"y":2560779.9500000011}},{"attributes":{"ID":200793,"DIS_CODE":0,"TOWNNAME":"佳里區","LI":"鎮山里","LIN":"20鄰","STREET":"勝利路","SECT":" ","MAREA":" ","LANE":"２６５巷","ALLEY":"１２弄","HOUSE_NO":"２號","E_COORD97":166128.22,"N_COORD97":2560784.0899999999,"ADDRESS":"勝利路２６５巷１２弄２號","OBJECTID":200792},"geometry":{"x":166128.2200000016,"y":2560784.0899999999}},{"attributes":{"ID":200794,"DIS_CODE":0,"TOWNNAME":"佳里區","LI":"鎮山里","LIN":"20鄰","STREET":"勝利路","SECT":" ","MAREA":" ","LANE":"２６５巷","ALLEY":"１２弄","HOUSE_NO":"６號","E_COORD97":166129.48000000001,"N_COORD97":2560775.9399999999,"ADDRESS":"勝利路２６５巷１２弄６號","OBJECTID":200793},"geometry":{"x":166129.48000000138,"y":2560775.9400000032}},{"attributes":{"ID":200795,"DIS_CODE":0,"TOWNNAME":"七股區","LI":"義合里","LIN":"3鄰","STREET":" ","SECT":" ","MAREA":"義合","LANE":" ","ALLEY":" ","HOUSE_NO":"２３號之２１","E_COORD97":162865.95000000001,"N_COORD97":2556573.25,"ADDRESS":"義合２３號之２１","OBJECTID":200794},"geometry":{"x":162865.95000000112,"y":2556573.25}},{"attributes":{"ID":200796,"DIS_CODE":0,"TOWNNAME":"七股區","LI":"義合里","LIN":"3鄰","STREET":" ","SECT":" ","MAREA":"義合","LANE":" ","ALLEY":" ","HOUSE_NO":"２３號之２２","E_COORD97":162851.92999999999,"N_COORD97":2556580.5600000001,"ADDRESS":"義合２３號之２２","OBJECTID":200795},"geometry":{"x":162851.93000000063,"y":2556580.5600000024}},{"attributes":{"ID":200797,"DIS_CODE":0,"TOWNNAME":"七股區","LI":"義合里","LIN":"3鄰","STREET":" ","SECT":" ","MAREA":"義合","LANE":" ","ALLEY":" ","HOUSE_NO":"２３號之２３","E_COORD97":162866.19,"N_COORD97":2556580.5899999999,"ADDRESS":"義合２３號之２３","OBJECTID":200796},"geometry":{"x":162866.19000000134,"y":2556580.5899999999}},{"attributes":{"ID":200798,"DIS_CODE":0,"TOWNNAME":"七股區","LI":"義合里","LIN":"3鄰","STREET":" ","SECT":" ","MAREA":"義合","LANE":" ","ALLEY":" ","HOUSE_NO":"２３號之２４","E_COORD97":162852.12,"N_COORD97":2556587.77,"ADDRESS":"義合２３號之２４","OBJECTID":200797},"geometry":{"x":162852.12000000011,"y":2556587.7700000014}},{"attributes":{"ID":200799,"DIS_CODE":0,"TOWNNAME":"七股區","LI":"義合里","LIN":"3鄰","STREET":" ","SECT":" ","MAREA":"義合","LANE":" ","ALLEY":" ","HOUSE_NO":"２３號之２５","E_COORD97":162866.42999999999,"N_COORD97":2556587.9399999999,"ADDRESS":"義合２３號之２５","OBJECTID":200798},"geometry":{"x":162866.4299999997,"y":2556587.9399999995}},{"attributes":{"ID":200800,"DIS_CODE":0,"TOWNNAME":"七股區","LI":"義合里","LIN":"3鄰","STREET":" ","SECT":" ","MAREA":"義合","LANE":" ","ALLEY":" ","HOUSE_NO":"２３號之２６","E_COORD97":162852.31,"N_COORD97":2556594.9700000002,"ADDRESS":"義合２３號之２６","OBJECTID":200799},"geometry":{"x":162852.31000000145,"y":2556594.9700000025}},{"attributes":{"ID":200801,"DIS_CODE":0,"TOWNNAME":"七股區","LI":"義合里","LIN":"3鄰","STREET":" ","SECT":" ","MAREA":"義合","LANE":" ","ALLEY":" ","HOUSE_NO":"２３號之２７","E_COORD97":162866.67000000001,"N_COORD97":2556595.2799999998,"ADDRESS":"義合２３號之２７","OBJECTID":200800},"geometry":{"x":162866.66999999993,"y":2556595.2799999993}}]}