{"displayFieldName":"TOWNNAME","fieldAliases":{"ID":"ID","DIS_CODE":"DIS_CODE","TOWNNAME":"TOWNNAME","LI":"LI","LIN":"LIN","STREET":"STREET","SECT":"SECT","MAREA":"MAREA","LANE":"LANE","ALLEY":"ALLEY","HOUSE_NO":"HOUSE_NO","E_COORD97":"E_COORD97","N_COORD97":"N_COORD97","ADDRESS":"ADDRESS","OBJECTID":"OBJECTID"},"geometryType":"esriGeometryPoint","spatialReference":{"wkid":102443,"latestWkid":3826},"fields":[{"name":"ID","type":"esriFieldTypeDouble","alias":"ID"},{"name":"DIS_CODE","type":"esriFieldTypeInteger","alias":"DIS_CODE"},{"name":"TOWNNAME","type":"esriFieldTypeString","alias":"TOWNNAME","length":8},{"name":"LI","type":"esriFieldTypeString","alias":"LI","length":8},{"name":"LIN","type":"esriFieldTypeString","alias":"LIN","length":12},{"name":"STREET","type":"esriFieldTypeString","alias":"STREET","length":20},{"name":"SECT","type":"esriFieldTypeString","alias":"SECT","length":8},{"name":"MAREA","type":"esriFieldTypeString","alias":"MAREA","length":12},{"name":"LANE","type":"esriFieldTypeString","alias":"LANE","length":10},{"name":"ALLEY","type":"esriFieldTypeString","alias":"ALLEY","length":10},{"name":"HOUSE_NO","type":"esriFieldTypeString","alias":"HOUSE_NO","length":20},{"name":"E_COORD97","type":"esriFieldTypeDouble","alias":"E_COORD97"},{"name":"N_COORD97","type":"esriFieldTypeDouble","alias":"N_COORD97"},{"name":"ADDRESS","type":"esriFieldTypeString","alias":"ADDRESS","length":50},{"name":"OBJECTID","type":"esriFieldTypeOID","alias":"OBJECTID"}],"features":[{"attributes":{"ID":144401,"DIS_CODE":0,"TOWNNAME":"北區","LI":"振興里","LIN":"3鄰","STREET":"開元路","SECT":" ","MAREA":" ","LANE":"１４８巷","ALLEY":"１５弄","HOUSE_NO":"５號","E_COORD97":170030.69,"N_COORD97":2545230.21,"ADDRESS":"開元路１４８巷１５弄５號","OBJECTID":144401},"geometry":{"x":170030.69000000041,"y":2545230.2100000009}},{"attributes":{"ID":144402,"DIS_CODE":0,"TOWNNAME":"北區","LI":"振興里","LIN":"3鄰","STREET":"開元路","SECT":" ","MAREA":" ","LANE":"１４８巷","ALLEY":"１５弄","HOUSE_NO":"７號","E_COORD97":170038.59,"N_COORD97":2545233.3199999998,"ADDRESS":"開元路１４８巷１５弄７號","OBJECTID":144402},"geometry":{"x":170038.59000000078,"y":2545233.3200000022}},{"attributes":{"ID":144403,"DIS_CODE":0,"TOWNNAME":"北區","LI":"振興里","LIN":"3鄰","STREET":"開元路","SECT":" ","MAREA":" ","LANE":"１４８巷","ALLEY":"１７弄","HOUSE_NO":"１０號","E_COORD97":170027.69,"N_COORD97":2545199.8599999999,"ADDRESS":"開元路１４８巷１７弄１０號","OBJECTID":144403},"geometry":{"x":170027.69000000041,"y":2545199.8599999994}},{"attributes":{"ID":144404,"DIS_CODE":0,"TOWNNAME":"安定區","LI":"海寮里","LIN":"13鄰","STREET":" ","SECT":" ","MAREA":"海寮","LANE":" ","ALLEY":" ","HOUSE_NO":"１２６號之３４","E_COORD97":168978.85000000001,"N_COORD97":2555265.2999999998,"ADDRESS":"海寮１２６號之３４","OBJECTID":144404},"geometry":{"x":168978.85000000056,"y":2555265.2999999989}},{"attributes":{"ID":144405,"DIS_CODE":0,"TOWNNAME":"安定區","LI":"港口里","LIN":"14鄰","STREET":" ","SECT":" ","MAREA":"港口","LANE":" ","ALLEY":" ","HOUSE_NO":"３３６之３號","E_COORD97":171191.09,"N_COORD97":2554844.2999999998,"ADDRESS":"港口３３６之３號","OBJECTID":144405},"geometry":{"x":171191.09000000171,"y":2554844.3000000007}},{"attributes":{"ID":144406,"DIS_CODE":0,"TOWNNAME":"安定區","LI":"海寮里","LIN":"14鄰","STREET":" ","SECT":" ","MAREA":"海寮","LANE":" ","ALLEY":" ","HOUSE_NO":"１３２之２３號","E_COORD97":169041.19,"N_COORD97":2555479.2999999998,"ADDRESS":"海寮１３２之２３號","OBJECTID":144406},"geometry":{"x":169041.19000000041,"y":2555479.3000000045}},{"attributes":{"ID":144407,"DIS_CODE":0,"TOWNNAME":"安定區","LI":"安定里","LIN":"8鄰","STREET":" ","SECT":" ","MAREA":"安定","LANE":" ","ALLEY":" ","HOUSE_NO":"５８之５０號","E_COORD97":171899.51999999999,"N_COORD97":2558076.3199999998,"ADDRESS":"安定５８之５０號","OBJECTID":144407},"geometry":{"x":171899.51999999955,"y":2558076.3200000022}},{"attributes":{"ID":144408,"DIS_CODE":0,"TOWNNAME":"安定區","LI":"保西里","LIN":"4鄰","STREET":" ","SECT":" ","MAREA":"安定","LANE":" ","ALLEY":" ","HOUSE_NO":"３５４之６號","E_COORD97":171730.92000000001,"N_COORD97":2557708.3199999998,"ADDRESS":"安定３５４之６號","OBJECTID":144408},"geometry":{"x":171730.91999999993,"y":2557708.3200000003}},{"attributes":{"ID":144409,"DIS_CODE":0,"TOWNNAME":"安定區","LI":"安加里","LIN":"4鄰","STREET":" ","SECT":" ","MAREA":"安定","LANE":" ","ALLEY":" ","HOUSE_NO":"１９０號","E_COORD97":171850.92000000001,"N_COORD97":2557692.3199999998,"ADDRESS":"安定１９０號","OBJECTID":144409},"geometry":{"x":171850.91999999993,"y":2557692.320000004}},{"attributes":{"ID":144410,"DIS_CODE":0,"TOWNNAME":"安定區","LI":"中沙里","LIN":"4鄰","STREET":" ","SECT":" ","MAREA":"中崙","LANE":" ","ALLEY":" ","HOUSE_NO":"１２７號","E_COORD97":169083.48333300001,"N_COORD97":2553173.08372,"ADDRESS":"中崙１２７號","OBJECTID":144410},"geometry":{"x":169083.48333300091,"y":2553173.0837160014}},{"attributes":{"ID":144411,"DIS_CODE":0,"TOWNNAME":"安定區","LI":"海寮里","LIN":"18鄰","STREET":" ","SECT":" ","MAREA":"海寮","LANE":" ","ALLEY":" ","HOUSE_NO":"１７７之１號","E_COORD97":169392.54000000001,"N_COORD97":2555449.2999999998,"ADDRESS":"海寮１７７之１號","OBJECTID":144411},"geometry":{"x":169392.54000000004,"y":2555449.3000000026}},{"attributes":{"ID":144412,"DIS_CODE":0,"TOWNNAME":"北區","LI":"振興里","LIN":"3鄰","STREET":"開元路","SECT":" ","MAREA":" ","LANE":"１４８巷","ALLEY":"１７弄","HOUSE_NO":"１１號","E_COORD97":170029.85000000001,"N_COORD97":2545213.3900000001,"ADDRESS":"開元路１４８巷１７弄１１號","OBJECTID":144412},"geometry":{"x":170029.85000000056,"y":2545213.3900000025}},{"attributes":{"ID":144413,"DIS_CODE":0,"TOWNNAME":"安定區","LI":"港口里","LIN":"20鄰","STREET":" ","SECT":" ","MAREA":"港口","LANE":" ","ALLEY":" ","HOUSE_NO":"３９１號","E_COORD97":171496.69,"N_COORD97":2554991.25,"ADDRESS":"港口３９１號","OBJECTID":144413},"geometry":{"x":171496.69000000134,"y":2554991.2500000019}},{"attributes":{"ID":144414,"DIS_CODE":0,"TOWNNAME":"安定區","LI":"港口里","LIN":"13鄰","STREET":" ","SECT":" ","MAREA":"港口","LANE":" ","ALLEY":" ","HOUSE_NO":"３４５之２０號","E_COORD97":171160.34,"N_COORD97":2554675.2999999998,"ADDRESS":"港口３４５之２０號","OBJECTID":144414},"geometry":{"x":171160.33999999892,"y":2554675.2999999989}},{"attributes":{"ID":144415,"DIS_CODE":0,"TOWNNAME":"安定區","LI":"港口里","LIN":"4鄰","STREET":" ","SECT":" ","MAREA":"港口","LANE":" ","ALLEY":" ","HOUSE_NO":"２５８號","E_COORD97":171465.89000000001,"N_COORD97":2554731.25,"ADDRESS":"港口２５８號","OBJECTID":144415},"geometry":{"x":171465.8900000006,"y":2554731.25}},{"attributes":{"ID":144416,"DIS_CODE":0,"TOWNNAME":"安定區","LI":"中沙里","LIN":"4鄰","STREET":" ","SECT":" ","MAREA":"中崙","LANE":" ","ALLEY":" ","HOUSE_NO":"１３１之３號","E_COORD97":169116.91,"N_COORD97":2553194.2999999998,"ADDRESS":"中崙１３１之３號","OBJECTID":144416},"geometry":{"x":169116.91000000015,"y":2553194.3000000026}},{"attributes":{"ID":144417,"DIS_CODE":0,"TOWNNAME":"北區","LI":"振興里","LIN":"3鄰","STREET":"開元路","SECT":" ","MAREA":" ","LANE":"１４８巷","ALLEY":"１７弄","HOUSE_NO":"１２號","E_COORD97":170033.56,"N_COORD97":2545203.9300000002,"ADDRESS":"開元路１４８巷１７弄１２號","OBJECTID":144417},"geometry":{"x":170033.56000000052,"y":2545203.9299999997}},{"attributes":{"ID":144418,"DIS_CODE":0,"TOWNNAME":"永康區","LI":"崑山里","LIN":"30鄰","STREET":"國光二街","SECT":" ","MAREA":" ","LANE":" ","ALLEY":" ","HOUSE_NO":"７６號","E_COORD97":173861.94,"N_COORD97":2544745.5499999998,"ADDRESS":"國光二街７６號","OBJECTID":144418},"geometry":{"x":173861.94000000041,"y":2544745.5500000007}},{"attributes":{"ID":144419,"DIS_CODE":0,"TOWNNAME":"東區","LI":"忠孝里","LIN":"30鄰","STREET":"崇明十街","SECT":" ","MAREA":" ","LANE":" ","ALLEY":" ","HOUSE_NO":"２號","E_COORD97":170003.59,"N_COORD97":2541716.5600000001,"ADDRESS":"崇明十街２號","OBJECTID":144419},"geometry":{"x":170003.58999999985,"y":2541716.5600000024}},{"attributes":{"ID":144420,"DIS_CODE":0,"TOWNNAME":"東區","LI":"忠孝里","LIN":"30鄰","STREET":"崇明十街","SECT":" ","MAREA":" ","LANE":" ","ALLEY":" ","HOUSE_NO":"６號","E_COORD97":170009.29999999999,"N_COORD97":2541720.4199999999,"ADDRESS":"崇明十街６號","OBJECTID":144420},"geometry":{"x":170009.29999999981,"y":2541720.4200000018}},{"attributes":{"ID":144421,"DIS_CODE":0,"TOWNNAME":"東區","LI":"忠孝里","LIN":"30鄰","STREET":"崇明十街","SECT":" ","MAREA":" ","LANE":" ","ALLEY":" ","HOUSE_NO":"８號","E_COORD97":170015.57000000001,"N_COORD97":2541723.3700000001,"ADDRESS":"崇明十街８號","OBJECTID":144421},"geometry":{"x":170015.57000000123,"y":2541723.370000001}},{"attributes":{"ID":144422,"DIS_CODE":0,"TOWNNAME":"北區","LI":"振興里","LIN":"3鄰","STREET":"開元路","SECT":" ","MAREA":" ","LANE":"１４８巷","ALLEY":"１７弄","HOUSE_NO":"１３號","E_COORD97":170034.51999999999,"N_COORD97":2545215.54,"ADDRESS":"開元路１４８巷１７弄１３號","OBJECTID":144422},"geometry":{"x":170034.51999999955,"y":2545215.5399999991}},{"attributes":{"ID":144423,"DIS_CODE":0,"TOWNNAME":"北區","LI":"振興里","LIN":"3鄰","STREET":"開元路","SECT":" ","MAREA":" ","LANE":"１４８巷","ALLEY":"１７弄","HOUSE_NO":"１５號","E_COORD97":170039.31,"N_COORD97":2545217.4500000002,"ADDRESS":"開元路１４８巷１７弄１５號","OBJECTID":144423},"geometry":{"x":170039.30999999959,"y":2545217.450000003}},{"attributes":{"ID":144424,"DIS_CODE":0,"TOWNNAME":"北區","LI":"振興里","LIN":"3鄰","STREET":"開元路","SECT":" ","MAREA":" ","LANE":"１４８巷","ALLEY":"１７弄","HOUSE_NO":"１號","E_COORD97":170006.01999999999,"N_COORD97":2545204.5600000001,"ADDRESS":"開元路１４８巷１７弄１號","OBJECTID":144424},"geometry":{"x":170006.01999999955,"y":2545204.5600000024}},{"attributes":{"ID":144425,"DIS_CODE":0,"TOWNNAME":"北區","LI":"振興里","LIN":"3鄰","STREET":"開元路","SECT":" ","MAREA":" ","LANE":"１４８巷","ALLEY":"１７弄","HOUSE_NO":"２號","E_COORD97":170008.51999999999,"N_COORD97":2545192.1200000001,"ADDRESS":"開元路１４８巷１７弄２號","OBJECTID":144425},"geometry":{"x":170008.52000000048,"y":2545192.1200000029}},{"attributes":{"ID":144426,"DIS_CODE":0,"TOWNNAME":"北區","LI":"振興里","LIN":"3鄰","STREET":"開元路","SECT":" ","MAREA":" ","LANE":"１４８巷","ALLEY":"１７弄","HOUSE_NO":"３號","E_COORD97":170011.44,"N_COORD97":2545206.6200000001,"ADDRESS":"開元路１４８巷１７弄３號","OBJECTID":144426},"geometry":{"x":170011.44000000134,"y":2545206.620000001}},{"attributes":{"ID":144427,"DIS_CODE":0,"TOWNNAME":"北區","LI":"振興里","LIN":"3鄰","STREET":"開元路","SECT":" ","MAREA":" ","LANE":"１４８巷","ALLEY":"１７弄","HOUSE_NO":"４號","E_COORD97":170013.17000000001,"N_COORD97":2545194.0699999998,"ADDRESS":"開元路１４８巷１７弄４號","OBJECTID":144427},"geometry":{"x":170013.17000000086,"y":2545194.0700000022}},{"attributes":{"ID":144428,"DIS_CODE":0,"TOWNNAME":"北區","LI":"振興里","LIN":"3鄰","STREET":"開元路","SECT":" ","MAREA":" ","LANE":"１４８巷","ALLEY":"１７弄","HOUSE_NO":"５號","E_COORD97":170015.88,"N_COORD97":2545208.2400000002,"ADDRESS":"開元路１４８巷１７弄５號","OBJECTID":144428},"geometry":{"x":170015.87999999896,"y":2545208.2400000002}},{"attributes":{"ID":144429,"DIS_CODE":0,"TOWNNAME":"北區","LI":"振興里","LIN":"3鄰","STREET":"開元路","SECT":" ","MAREA":" ","LANE":"１４８巷","ALLEY":"１７弄","HOUSE_NO":"６號","E_COORD97":170018.04000000001,"N_COORD97":2545195.48,"ADDRESS":"開元路１４８巷１７弄６號","OBJECTID":144429},"geometry":{"x":170018.04000000004,"y":2545195.4800000023}},{"attributes":{"ID":144430,"DIS_CODE":0,"TOWNNAME":"北區","LI":"振興里","LIN":"3鄰","STREET":"開元路","SECT":" ","MAREA":" ","LANE":"１４８巷","ALLEY":"１７弄","HOUSE_NO":"７號","E_COORD97":170020.53,"N_COORD97":2545209.7599999998,"ADDRESS":"開元路１４８巷１７弄７號","OBJECTID":144430},"geometry":{"x":170020.53000000212,"y":2545209.7600000016}},{"attributes":{"ID":144431,"DIS_CODE":0,"TOWNNAME":"北區","LI":"振興里","LIN":"3鄰","STREET":"開元路","SECT":" ","MAREA":" ","LANE":"１４８巷","ALLEY":"１７弄","HOUSE_NO":"８號","E_COORD97":170022.81,"N_COORD97":2545197.5299999998,"ADDRESS":"開元路１４８巷１７弄８號","OBJECTID":144431},"geometry":{"x":170022.80999999866,"y":2545197.5300000012}},{"attributes":{"ID":144432,"DIS_CODE":0,"TOWNNAME":"安定區","LI":"安加里","LIN":"4鄰","STREET":" ","SECT":" ","MAREA":"安定","LANE":" ","ALLEY":" ","HOUSE_NO":"１９６之１號","E_COORD97":171776.12,"N_COORD97":2557693.3199999998,"ADDRESS":"安定１９６之１號","OBJECTID":144432},"geometry":{"x":171776.12000000104,"y":2557693.3200000022}},{"attributes":{"ID":144433,"DIS_CODE":0,"TOWNNAME":"安定區","LI":"保西里","LIN":"4鄰","STREET":" ","SECT":" ","MAREA":"安定","LANE":" ","ALLEY":" ","HOUSE_NO":"３５３號之１","E_COORD97":171730.75,"N_COORD97":2557696.3199999998,"ADDRESS":"安定３５３號之１","OBJECTID":144433},"geometry":{"x":171730.74999999907,"y":2557696.3200000022}},{"attributes":{"ID":144434,"DIS_CODE":0,"TOWNNAME":"安定區","LI":"港口里","LIN":"18鄰","STREET":" ","SECT":" ","MAREA":"港口","LANE":" ","ALLEY":" ","HOUSE_NO":"３８２號之３","E_COORD97":171418.12,"N_COORD97":2555038.2999999998,"ADDRESS":"港口３８２號之３","OBJECTID":144434},"geometry":{"x":171418.11999999918,"y":2555038.3000000045}},{"attributes":{"ID":144435,"DIS_CODE":0,"TOWNNAME":"安定區","LI":"港口里","LIN":"20鄰","STREET":" ","SECT":" ","MAREA":"港口","LANE":" ","ALLEY":" ","HOUSE_NO":"３９９之３號","E_COORD97":171642.39000000001,"N_COORD97":2554948.2999999998,"ADDRESS":"港口３９９之３號","OBJECTID":144435},"geometry":{"x":171642.38999999966,"y":2554948.3000000026}},{"attributes":{"ID":144436,"DIS_CODE":0,"TOWNNAME":"安定區","LI":"港口里","LIN":"13鄰","STREET":" ","SECT":" ","MAREA":"港口","LANE":" ","ALLEY":" ","HOUSE_NO":"３４５之１９號","E_COORD97":171164.54000000001,"N_COORD97":2554673.2999999998,"ADDRESS":"港口３４５之１９號","OBJECTID":144436},"geometry":{"x":171164.54000000097,"y":2554673.3000000026}},{"attributes":{"ID":144437,"DIS_CODE":0,"TOWNNAME":"安定區","LI":"安加里","LIN":"13鄰","STREET":" ","SECT":" ","MAREA":"安定","LANE":" ","ALLEY":" ","HOUSE_NO":"３１２號","E_COORD97":171662.01999999999,"N_COORD97":2557458.3199999998,"ADDRESS":"安定３１２號","OBJECTID":144437},"geometry":{"x":171662.01999999955,"y":2557458.3199999984}},{"attributes":{"ID":144438,"DIS_CODE":0,"TOWNNAME":"安定區","LI":"海寮里","LIN":"4鄰","STREET":" ","SECT":" ","MAREA":"海寮","LANE":" ","ALLEY":" ","HOUSE_NO":"４４之１５號","E_COORD97":169661.34,"N_COORD97":2555358.2999999998,"ADDRESS":"海寮４４之１５號","OBJECTID":144438},"geometry":{"x":169661.33999999985,"y":2555358.3000000026}},{"attributes":{"ID":144439,"DIS_CODE":0,"TOWNNAME":"安定區","LI":"港口里","LIN":"20鄰","STREET":" ","SECT":" ","MAREA":"港口","LANE":" ","ALLEY":" ","HOUSE_NO":"３９３號之１３","E_COORD97":171542.57000000001,"N_COORD97":2554976.2999999998,"ADDRESS":"港口３９３號之１３","OBJECTID":144439},"geometry":{"x":171542.57000000216,"y":2554976.3000000007}},{"attributes":{"ID":144440,"DIS_CODE":0,"TOWNNAME":"安定區","LI":"港口里","LIN":"13鄰","STREET":" ","SECT":" ","MAREA":"港口","LANE":" ","ALLEY":" ","HOUSE_NO":"３４７之３號","E_COORD97":171235.79000000001,"N_COORD97":2554707.2999999998,"ADDRESS":"港口３４７之３號","OBJECTID":144440},"geometry":{"x":171235.79000000097,"y":2554707.3000000026}},{"attributes":{"ID":144441,"DIS_CODE":0,"TOWNNAME":"安定區","LI":"港口里","LIN":"14鄰","STREET":" ","SECT":" ","MAREA":"港口","LANE":" ","ALLEY":" ","HOUSE_NO":"３４２號","E_COORD97":171218.09,"N_COORD97":2554762.25,"ADDRESS":"港口３４２號","OBJECTID":144441},"geometry":{"x":171218.09000000171,"y":2554762.25}},{"attributes":{"ID":144442,"DIS_CODE":0,"TOWNNAME":"北區","LI":"振興里","LIN":"3鄰","STREET":"開元路","SECT":" ","MAREA":" ","LANE":"１４８巷","ALLEY":"１７弄","HOUSE_NO":"９號","E_COORD97":170024.97,"N_COORD97":2545211.8100000001,"ADDRESS":"開元路１４８巷１７弄９號","OBJECTID":144442},"geometry":{"x":170024.96999999974,"y":2545211.8100000005}},{"attributes":{"ID":144443,"DIS_CODE":0,"TOWNNAME":"安定區","LI":"中榮里","LIN":"4鄰","STREET":" ","SECT":" ","MAREA":"許中營","LANE":" ","ALLEY":" ","HOUSE_NO":"４７號","E_COORD97":172350.14000000001,"N_COORD97":2555057.25,"ADDRESS":"許中營４７號","OBJECTID":144443},"geometry":{"x":172350.1400000006,"y":2555057.25}},{"attributes":{"ID":144444,"DIS_CODE":0,"TOWNNAME":"西港區","LI":"西港里","LIN":"20鄰","STREET":"中山路","SECT":" ","MAREA":" ","LANE":" ","ALLEY":" ","HOUSE_NO":"１０２號","E_COORD97":168477.28,"N_COORD97":2557513.0099999998,"ADDRESS":"中山路１０２號","OBJECTID":144444},"geometry":{"x":168477.28000000026,"y":2557513.0099999998}},{"attributes":{"ID":144445,"DIS_CODE":0,"TOWNNAME":"北區","LI":"振興里","LIN":"3鄰","STREET":"開元路","SECT":" ","MAREA":" ","LANE":"１４８巷","ALLEY":"２３弄","HOUSE_NO":"１５號之５","E_COORD97":170055.95000000001,"N_COORD97":2545218.5299999998,"ADDRESS":"開元路１４８巷２３弄１５號之５","OBJECTID":144445},"geometry":{"x":170055.95000000019,"y":2545218.5299999993}},{"attributes":{"ID":144446,"DIS_CODE":0,"TOWNNAME":"安定區","LI":"港南里","LIN":"4鄰","STREET":" ","SECT":" ","MAREA":"港口","LANE":" ","ALLEY":" ","HOUSE_NO":"２７之８號","E_COORD97":171517.14000000001,"N_COORD97":2554003.2999999998,"ADDRESS":"港口２７之８號","OBJECTID":144446},"geometry":{"x":171517.13999999966,"y":2554003.3000000007}},{"attributes":{"ID":144447,"DIS_CODE":0,"TOWNNAME":"安定區","LI":"港口里","LIN":"20鄰","STREET":" ","SECT":" ","MAREA":"港口","LANE":" ","ALLEY":" ","HOUSE_NO":"３９３號之６","E_COORD97":171540.32999999999,"N_COORD97":2555005.2999999998,"ADDRESS":"港口３９３號之６","OBJECTID":144447},"geometry":{"x":171540.33000000007,"y":2555005.3000000026}},{"attributes":{"ID":144448,"DIS_CODE":0,"TOWNNAME":"安定區","LI":"海寮里","LIN":"14鄰","STREET":" ","SECT":" ","MAREA":"海寮","LANE":" ","ALLEY":" ","HOUSE_NO":"１３２號之１９","E_COORD97":169022.60999999999,"N_COORD97":2555453.2999999998,"ADDRESS":"海寮１３２號之１９","OBJECTID":144448},"geometry":{"x":169022.61000000034,"y":2555453.3000000026}},{"attributes":{"ID":144449,"DIS_CODE":0,"TOWNNAME":"安定區","LI":"六嘉里","LIN":"8鄰","STREET":" ","SECT":" ","MAREA":"六塊寮","LANE":" ","ALLEY":" ","HOUSE_NO":"６７之１９號","E_COORD97":170094.26999999999,"N_COORD97":2553342.2999999998,"ADDRESS":"六塊寮６７之１９號","OBJECTID":144449},"geometry":{"x":170094.26999999862,"y":2553342.3000000007}},{"attributes":{"ID":144450,"DIS_CODE":0,"TOWNNAME":"安定區","LI":"安定里","LIN":"7鄰","STREET":" ","SECT":" ","MAREA":"安定","LANE":" ","ALLEY":" ","HOUSE_NO":"５６之３號","E_COORD97":171914.87,"N_COORD97":2557924.3199999998,"ADDRESS":"安定５６之３號","OBJECTID":144450},"geometry":{"x":171914.87000000197,"y":2557924.3200000022}},{"attributes":{"ID":144451,"DIS_CODE":0,"TOWNNAME":"安定區","LI":"安加里","LIN":"15鄰","STREET":" ","SECT":" ","MAREA":"安定","LANE":" ","ALLEY":" ","HOUSE_NO":"２７５號","E_COORD97":171578.01999999999,"N_COORD97":2557514.3199999998,"ADDRESS":"安定２７５號","OBJECTID":144451},"geometry":{"x":171578.02000000048,"y":2557514.3200000022}},{"attributes":{"ID":144452,"DIS_CODE":0,"TOWNNAME":"安定區","LI":"中沙里","LIN":"4鄰","STREET":" ","SECT":" ","MAREA":"中崙","LANE":" ","ALLEY":" ","HOUSE_NO":"１７１之５號","E_COORD97":168955.31,"N_COORD97":2552902.2999999998,"ADDRESS":"中崙１７１之５號","OBJECTID":144452},"geometry":{"x":168955.31000000052,"y":2552902.3000000045}},{"attributes":{"ID":144453,"DIS_CODE":0,"TOWNNAME":"永康區","LI":"\u25A0行里","LIN":"30鄰","STREET":"新行街","SECT":" ","MAREA":" ","LANE":" ","ALLEY":" ","HOUSE_NO":"１２８號","E_COORD97":172345.84,"N_COORD97":2549055.0899999999,"ADDRESS":"新行街１２８號","OBJECTID":144453},"geometry":{"x":172345.84000000078,"y":2549055.0900000017}},{"attributes":{"ID":144454,"DIS_CODE":0,"TOWNNAME":"北區","LI":"振興里","LIN":"3鄰","STREET":"開元路","SECT":" ","MAREA":" ","LANE":"１４８巷","ALLEY":"２３弄","HOUSE_NO":"７號","E_COORD97":170060.26000000001,"N_COORD97":2545194.1200000001,"ADDRESS":"開元路１４８巷２３弄７號","OBJECTID":144454},"geometry":{"x":170060.25999999978,"y":2545194.1200000048}},{"attributes":{"ID":144455,"DIS_CODE":0,"TOWNNAME":"永康區","LI":"龍潭里","LIN":"30鄰","STREET":"龍潭街","SECT":" ","MAREA":" ","LANE":" ","ALLEY":" ","HOUSE_NO":"１１２號","E_COORD97":174856.76000000001,"N_COORD97":2548029.2599999998,"ADDRESS":"龍潭街１１２號","OBJECTID":144455},"geometry":{"x":174856.76000000071,"y":2548029.2599999998}},{"attributes":{"ID":144456,"DIS_CODE":0,"TOWNNAME":"北區","LI":"振興里","LIN":"3鄰","STREET":"開元路","SECT":" ","MAREA":" ","LANE":"１４８巷","ALLEY":"２３弄","HOUSE_NO":"９號","E_COORD97":170056.91,"N_COORD97":2545196.8700000001,"ADDRESS":"開元路１４８巷２３弄９號","OBJECTID":144456},"geometry":{"x":170056.91000000108,"y":2545196.8700000029}},{"attributes":{"ID":144457,"DIS_CODE":0,"TOWNNAME":"永康區","LI":"埔園里","LIN":"30鄰","STREET":"龍埔街","SECT":" ","MAREA":" ","LANE":" ","ALLEY":" ","HOUSE_NO":"４８２號","E_COORD97":173813.70999999999,"N_COORD97":2548357.9900000002,"ADDRESS":"龍埔街４８２號","OBJECTID":144457},"geometry":{"x":173813.70999999996,"y":2548357.9900000021}},{"attributes":{"ID":144458,"DIS_CODE":0,"TOWNNAME":"北區","LI":"文元里","LIN":"3鄰","STREET":"文賢路","SECT":" ","MAREA":" ","LANE":"１１２２巷","ALLEY":"１０７弄","HOUSE_NO":"１１號","E_COORD97":167650,"N_COORD97":2546424.0899999999,"ADDRESS":"文賢路１１２２巷１０７弄１１號","OBJECTID":144458},"geometry":{"x":167650,"y":2546424.0900000036}},{"attributes":{"ID":144459,"DIS_CODE":0,"TOWNNAME":"永康區","LI":"\u25A0洲里","LIN":"30鄰","STREET":"洲尾街","SECT":" ","MAREA":" ","LANE":" ","ALLEY":" ","HOUSE_NO":"２７５號","E_COORD97":171025.63,"N_COORD97":2549137.4500000002,"ADDRESS":"洲尾街２７５號","OBJECTID":144459},"geometry":{"x":171025.62999999989,"y":2549137.4500000011}},{"attributes":{"ID":144460,"DIS_CODE":0,"TOWNNAME":"北區","LI":"文元里","LIN":"3鄰","STREET":"文賢路","SECT":" ","MAREA":" ","LANE":"１１２２巷","ALLEY":"１０７弄","HOUSE_NO":"１３號","E_COORD97":167654.64000000001,"N_COORD97":2546440.5699999998,"ADDRESS":"文賢路１１２２巷１０７弄１３號","OBJECTID":144460},"geometry":{"x":167654.6400000006,"y":2546440.5700000003}},{"attributes":{"ID":144461,"DIS_CODE":0,"TOWNNAME":"永康區","LI":"埔園里","LIN":"30鄰","STREET":"龍埔街","SECT":" ","MAREA":" ","LANE":" ","ALLEY":" ","HOUSE_NO":"４７２號","E_COORD97":173836.60999999999,"N_COORD97":2548354.7400000002,"ADDRESS":"龍埔街４７２號","OBJECTID":144461},"geometry":{"x":173836.61000000127,"y":2548354.7400000002}},{"attributes":{"ID":144462,"DIS_CODE":0,"TOWNNAME":"永康區","LI":"勝利里","LIN":"30鄰","STREET":"中華路","SECT":" ","MAREA":" ","LANE":" ","ALLEY":" ","HOUSE_NO":"９１號","E_COORD97":171558.23999999999,"N_COORD97":2544661.5299999998,"ADDRESS":"中華路９１號","OBJECTID":144462},"geometry":{"x":171558.24000000209,"y":2544661.5300000012}},{"attributes":{"ID":144463,"DIS_CODE":0,"TOWNNAME":"永康區","LI":"崑山里","LIN":"30鄰","STREET":"崑山街","SECT":" ","MAREA":" ","LANE":" ","ALLEY":" ","HOUSE_NO":"１２１號","E_COORD97":173986.31,"N_COORD97":2544791.8500000001,"ADDRESS":"崑山街１２１號","OBJECTID":144463},"geometry":{"x":173986.31000000145,"y":2544791.8500000015}},{"attributes":{"ID":144464,"DIS_CODE":0,"TOWNNAME":"仁德區","LI":"後壁里","LIN":"30鄰","STREET":"德洋一街","SECT":" ","MAREA":" ","LANE":" ","ALLEY":" ","HOUSE_NO":"４５號","E_COORD97":173128.94,"N_COORD97":2539184.27,"ADDRESS":"德洋一街４５號","OBJECTID":144464},"geometry":{"x":173128.94000000134,"y":2539184.2700000014}},{"attributes":{"ID":144465,"DIS_CODE":0,"TOWNNAME":"新化區","LI":"豐榮里","LIN":"4鄰","STREET":"中山路","SECT":" ","MAREA":" ","LANE":" ","ALLEY":" ","HOUSE_NO":"６７９號之５","E_COORD97":178027.26999999999,"N_COORD97":2548472.2599999998,"ADDRESS":"中山路６７９號之５","OBJECTID":144465},"geometry":{"x":178027.26999999955,"y":2548472.2599999998}},{"attributes":{"ID":144466,"DIS_CODE":0,"TOWNNAME":"北區","LI":"文元里","LIN":"3鄰","STREET":"文賢路","SECT":" ","MAREA":" ","LANE":"１１２２巷","ALLEY":"１０７弄","HOUSE_NO":"１５號","E_COORD97":167656.13,"N_COORD97":2546451.4700000002,"ADDRESS":"文賢路１１２２巷１０７弄１５號","OBJECTID":144466},"geometry":{"x":167656.12999999989,"y":2546451.4700000007}},{"attributes":{"ID":144467,"DIS_CODE":0,"TOWNNAME":"新化區","LI":"東榮里","LIN":"4鄰","STREET":"信義路","SECT":" ","MAREA":" ","LANE":" ","ALLEY":" ","HOUSE_NO":"８５號之１","E_COORD97":179845.81,"N_COORD97":2548691.2599999998,"ADDRESS":"信義路８５號之１","OBJECTID":144467},"geometry":{"x":179845.80999999959,"y":2548691.2600000016}},{"attributes":{"ID":144468,"DIS_CODE":0,"TOWNNAME":"北區","LI":"文元里","LIN":"3鄰","STREET":"文賢路","SECT":" ","MAREA":" ","LANE":"１１２２巷","ALLEY":"１０７弄","HOUSE_NO":"１７號","E_COORD97":167668.54000000001,"N_COORD97":2546466.5499999998,"ADDRESS":"文賢路１１２２巷１０７弄１７號","OBJECTID":144468},"geometry":{"x":167668.54000000004,"y":2546466.5500000026}},{"attributes":{"ID":144469,"DIS_CODE":0,"TOWNNAME":"北區","LI":"文元里","LIN":"3鄰","STREET":"文賢路","SECT":" ","MAREA":" ","LANE":"１１２２巷","ALLEY":"１０７弄","HOUSE_NO":"２號","E_COORD97":167668.82000000001,"N_COORD97":2546384.8100000001,"ADDRESS":"文賢路１１２２巷１０７弄２號","OBJECTID":144469},"geometry":{"x":167668.8200000003,"y":2546384.8100000005}},{"attributes":{"ID":144470,"DIS_CODE":0,"TOWNNAME":"新化區","LI":"武安里","LIN":"8鄰","STREET":"和平街","SECT":" ","MAREA":" ","LANE":" ","ALLEY":" ","HOUSE_NO":"１２８號","E_COORD97":178918.12,"N_COORD97":2548173.25,"ADDRESS":"和平街１２８號","OBJECTID":144470},"geometry":{"x":178918.12000000104,"y":2548173.2500000019}},{"attributes":{"ID":144471,"DIS_CODE":0,"TOWNNAME":"北區","LI":"文元里","LIN":"3鄰","STREET":"文賢路","SECT":" ","MAREA":" ","LANE":"１１２２巷","ALLEY":"１０７弄","HOUSE_NO":"３４號","E_COORD97":167678.26999999999,"N_COORD97":2546456.1899999999,"ADDRESS":"文賢路１１２２巷１０７弄３４號","OBJECTID":144471},"geometry":{"x":167678.26999999955,"y":2546456.1899999995}},{"attributes":{"ID":144472,"DIS_CODE":0,"TOWNNAME":"北區","LI":"文元里","LIN":"3鄰","STREET":"文賢路","SECT":" ","MAREA":" ","LANE":"１１２２巷","ALLEY":"１０７弄","HOUSE_NO":"９號","E_COORD97":167649.73000000001,"N_COORD97":2546416.54,"ADDRESS":"文賢路１１２２巷１０７弄９號","OBJECTID":144472},"geometry":{"x":167649.73000000138,"y":2546416.5400000028}},{"attributes":{"ID":144473,"DIS_CODE":0,"TOWNNAME":"新化區","LI":"中央里","LIN":"4鄰","STREET":"大同街","SECT":" ","MAREA":" ","LANE":" ","ALLEY":" ","HOUSE_NO":"１１６號","E_COORD97":178977.03,"N_COORD97":2548378.25,"ADDRESS":"大同街１１６號","OBJECTID":144473},"geometry":{"x":178977.03000000026,"y":2548378.25}},{"attributes":{"ID":144474,"DIS_CODE":0,"TOWNNAME":"新化區","LI":"太平里","LIN":"4鄰","STREET":"中正路","SECT":" ","MAREA":" ","LANE":" ","ALLEY":" ","HOUSE_NO":"５７６號","E_COORD97":178897.01000000001,"N_COORD97":2548996.25,"ADDRESS":"中正路５７６號","OBJECTID":144474},"geometry":{"x":178897.00999999978,"y":2548996.2500000037}},{"attributes":{"ID":144475,"DIS_CODE":0,"TOWNNAME":"北區","LI":"重興里","LIN":"3鄰","STREET":"東豐路","SECT":" ","MAREA":" ","LANE":"３０５巷","ALLEY":"８６弄","HOUSE_NO":"８號","E_COORD97":170478.32999999999,"N_COORD97":2545005.7400000002,"ADDRESS":"東豐路３０５巷８６弄８號","OBJECTID":144475},"geometry":{"x":170478.33000000101,"y":2545005.7400000002}},{"attributes":{"ID":144476,"DIS_CODE":0,"TOWNNAME":"仁德區","LI":"仁愛里","LIN":"28鄰","STREET":"大同路","SECT":"三段","MAREA":" ","LANE":"３５８巷","ALLEY":" ","HOUSE_NO":"７８號","E_COORD97":169717.70699999999,"N_COORD97":2539382.6299999999,"ADDRESS":"大同路三段３５８巷７８號","OBJECTID":144476},"geometry":{"x":169717.70700000133,"y":2539382.629999999}},{"attributes":{"ID":144477,"DIS_CODE":0,"TOWNNAME":"新化區","LI":"竹林里","LIN":"4鄰","STREET":"民族街","SECT":" ","MAREA":" ","LANE":" ","ALLEY":" ","HOUSE_NO":"１５號","E_COORD97":178890.76000000001,"N_COORD97":2548481.25,"ADDRESS":"民族街１５號","OBJECTID":144477},"geometry":{"x":178890.75999999978,"y":2548481.2500000019}},{"attributes":{"ID":144478,"DIS_CODE":0,"TOWNNAME":"西港區","LI":"慶安里","LIN":"34鄰","STREET":"中山路","SECT":" ","MAREA":" ","LANE":" ","ALLEY":" ","HOUSE_NO":"１０１號","E_COORD97":168454.82999999999,"N_COORD97":2557438.0099999998,"ADDRESS":"中山路１０１號","OBJECTID":144478},"geometry":{"x":168454.83000000007,"y":2557438.0099999998}},{"attributes":{"ID":144479,"DIS_CODE":0,"TOWNNAME":"安定區","LI":"保西里","LIN":"4鄰","STREET":" ","SECT":" ","MAREA":"安定","LANE":" ","ALLEY":" ","HOUSE_NO":"３６１號","E_COORD97":171675.32000000001,"N_COORD97":2557729.3199999998,"ADDRESS":"安定３６１號","OBJECTID":144479},"geometry":{"x":171675.32000000123,"y":2557729.3200000003}},{"attributes":{"ID":144480,"DIS_CODE":0,"TOWNNAME":"安定區","LI":"港口里","LIN":"20鄰","STREET":" ","SECT":" ","MAREA":"港口","LANE":" ","ALLEY":" ","HOUSE_NO":"３９１號之１","E_COORD97":171489.32999999999,"N_COORD97":2554983.2999999998,"ADDRESS":"港口３９１號之１","OBJECTID":144480},"geometry":{"x":171489.33000000007,"y":2554983.3000000007}},{"attributes":{"ID":144481,"DIS_CODE":0,"TOWNNAME":"安定區","LI":"海寮里","LIN":"20鄰","STREET":" ","SECT":" ","MAREA":"海寮","LANE":" ","ALLEY":" ","HOUSE_NO":"１９３號之１","E_COORD97":169461.98000000001,"N_COORD97":2555571.29,"ADDRESS":"海寮１９３號之１","OBJECTID":144481},"geometry":{"x":169461.98000000138,"y":2555571.2899999991}},{"attributes":{"ID":144482,"DIS_CODE":0,"TOWNNAME":"安定區","LI":"港口里","LIN":"20鄰","STREET":" ","SECT":" ","MAREA":"港口","LANE":" ","ALLEY":" ","HOUSE_NO":"３９３號之１７","E_COORD97":171532.95000000001,"N_COORD97":2555001.2999999998,"ADDRESS":"港口３９３號之１７","OBJECTID":144482},"geometry":{"x":171532.94999999925,"y":2555001.3000000045}},{"attributes":{"ID":144483,"DIS_CODE":0,"TOWNNAME":"新化區","LI":"全興里","LIN":"13鄰","STREET":" ","SECT":" ","MAREA":"竹子\u25A0","LANE":" ","ALLEY":" ","HOUSE_NO":"２４７號之１６８","E_COORD97":178190.79000000001,"N_COORD97":2546763.2599999998,"ADDRESS":"竹子\u25A0２４７號之１６８","OBJECTID":144483},"geometry":{"x":178190.79000000004,"y":2546763.2600000016}},{"attributes":{"ID":144484,"DIS_CODE":0,"TOWNNAME":"新化區","LI":"北勢里","LIN":"4鄰","STREET":" ","SECT":" ","MAREA":"北勢","LANE":" ","ALLEY":" ","HOUSE_NO":"８２號之１","E_COORD97":177321.85999999999,"N_COORD97":2549638.2599999998,"ADDRESS":"北勢８２號之１","OBJECTID":144484},"geometry":{"x":177321.86000000127,"y":2549638.2600000016}},{"attributes":{"ID":144485,"DIS_CODE":0,"TOWNNAME":"永康區","LI":"勝利里","LIN":"3鄰","STREET":"勝利街","SECT":" ","MAREA":" ","LANE":"２巷","ALLEY":"４８弄","HOUSE_NO":"６４號三樓之２","E_COORD97":171072.01000000001,"N_COORD97":2544767.2999999998,"ADDRESS":"勝利街２巷４８弄６４號三樓之２","OBJECTID":144485},"geometry":{"x":171072.00999999978,"y":2544767.3000000007}},{"attributes":{"ID":144486,"DIS_CODE":0,"TOWNNAME":"永康區","LI":"勝利里","LIN":"3鄰","STREET":"勝利街","SECT":" ","MAREA":" ","LANE":"２巷","ALLEY":"４８弄","HOUSE_NO":"６４號五樓之４","E_COORD97":171071.89999999999,"N_COORD97":2544767.2999999998,"ADDRESS":"勝利街２巷４８弄６４號五樓之４","OBJECTID":144486},"geometry":{"x":171071.90000000037,"y":2544767.3000000007}},{"attributes":{"ID":144487,"DIS_CODE":0,"TOWNNAME":"永康區","LI":"勝利里","LIN":"3鄰","STREET":"勝利街","SECT":" ","MAREA":" ","LANE":"２巷","ALLEY":"４８弄","HOUSE_NO":"６４號二樓之３","E_COORD97":171071.97,"N_COORD97":2544767.2999999998,"ADDRESS":"勝利街２巷４８弄６４號二樓之３","OBJECTID":144487},"geometry":{"x":171071.97000000067,"y":2544767.3000000007}},{"attributes":{"ID":144488,"DIS_CODE":0,"TOWNNAME":"東區","LI":"忠孝里","LIN":"28鄰","STREET":"中華東路","SECT":"三段","MAREA":" ","LANE":"３８０巷","ALLEY":"４５弄","HOUSE_NO":"１０號","E_COORD97":169982.29999999999,"N_COORD97":2541668.0499999998,"ADDRESS":"中華東路三段３８０巷４５弄１０號","OBJECTID":144488},"geometry":{"x":169982.29999999981,"y":2541668.0500000007}},{"attributes":{"ID":144489,"DIS_CODE":0,"TOWNNAME":"東區","LI":"忠孝里","LIN":"28鄰","STREET":"中華東路","SECT":"三段","MAREA":" ","LANE":"３８０巷","ALLEY":"４５弄","HOUSE_NO":"１２號","E_COORD97":169974.73000000001,"N_COORD97":2541662.7999999998,"ADDRESS":"中華東路三段３８０巷４５弄１２號","OBJECTID":144489},"geometry":{"x":169974.73000000045,"y":2541662.8000000007}},{"attributes":{"ID":144490,"DIS_CODE":0,"TOWNNAME":"西港區","LI":"慶安里","LIN":"34鄰","STREET":"中山路","SECT":" ","MAREA":" ","LANE":" ","ALLEY":" ","HOUSE_NO":"１０５號","E_COORD97":168453.35000000001,"N_COORD97":2557446.7000000002,"ADDRESS":"中山路１０５號","OBJECTID":144490},"geometry":{"x":168453.35000000056,"y":2557446.6999999993}},{"attributes":{"ID":144491,"DIS_CODE":0,"TOWNNAME":"東區","LI":"東聖里","LIN":"3鄰","STREET":"中華東路","SECT":"二段","MAREA":" ","LANE":"７巷","ALLEY":"１３弄","HOUSE_NO":"１６號三樓","E_COORD97":171504.85000000001,"N_COORD97":2543133.48,"ADDRESS":"中華東路二段７巷１３弄１６號三樓","OBJECTID":144491},"geometry":{"x":171504.85000000056,"y":2543133.4800000023}},{"attributes":{"ID":144492,"DIS_CODE":0,"TOWNNAME":"東區","LI":"東聖里","LIN":"3鄰","STREET":"中華東路","SECT":"二段","MAREA":" ","LANE":"７巷","ALLEY":"１３弄","HOUSE_NO":"１６號二樓","E_COORD97":171504.85000000001,"N_COORD97":2543133.48,"ADDRESS":"中華東路二段７巷１３弄１６號二樓","OBJECTID":144492},"geometry":{"x":171504.85000000056,"y":2543133.4800000023}},{"attributes":{"ID":144493,"DIS_CODE":0,"TOWNNAME":"東區","LI":"東聖里","LIN":"3鄰","STREET":"中華東路","SECT":"二段","MAREA":" ","LANE":"７巷","ALLEY":"１３弄","HOUSE_NO":"１６號五樓","E_COORD97":171504.85000000001,"N_COORD97":2543133.48,"ADDRESS":"中華東路二段７巷１３弄１６號五樓","OBJECTID":144493},"geometry":{"x":171504.85000000056,"y":2543133.4800000023}},{"attributes":{"ID":144494,"DIS_CODE":0,"TOWNNAME":"東區","LI":"東聖里","LIN":"3鄰","STREET":"中華東路","SECT":"二段","MAREA":" ","LANE":"７巷","ALLEY":"１３弄","HOUSE_NO":"１６號四樓","E_COORD97":171504.85000000001,"N_COORD97":2543133.48,"ADDRESS":"中華東路二段７巷１３弄１６號四樓","OBJECTID":144494},"geometry":{"x":171504.85000000056,"y":2543133.4800000023}},{"attributes":{"ID":144495,"DIS_CODE":0,"TOWNNAME":"西港區","LI":"慶安里","LIN":"34鄰","STREET":"中山路","SECT":" ","MAREA":" ","LANE":" ","ALLEY":" ","HOUSE_NO":"１０７號","E_COORD97":168452.87,"N_COORD97":2557451.2200000002,"ADDRESS":"中山路１０７號","OBJECTID":144495},"geometry":{"x":168452.87000000011,"y":2557451.2200000007}},{"attributes":{"ID":144496,"DIS_CODE":0,"TOWNNAME":"永康區","LI":"勝利里","LIN":"3鄰","STREET":"勝利街","SECT":" ","MAREA":" ","LANE":"２巷","ALLEY":"４８弄","HOUSE_NO":"６４號三樓之３","E_COORD97":171071.97,"N_COORD97":2544767.2999999998,"ADDRESS":"勝利街２巷４８弄６４號三樓之３","OBJECTID":144496},"geometry":{"x":171071.97000000067,"y":2544767.3000000007}},{"attributes":{"ID":144497,"DIS_CODE":0,"TOWNNAME":"東區","LI":"忠孝里","LIN":"28鄰","STREET":"中華東路","SECT":"三段","MAREA":" ","LANE":"３８０巷","ALLEY":"４５弄","HOUSE_NO":"１４號","E_COORD97":169970.04999999999,"N_COORD97":2541660.4700000002,"ADDRESS":"中華東路三段３８０巷４５弄１４號","OBJECTID":144497},"geometry":{"x":169970.04999999981,"y":2541660.4700000007}},{"attributes":{"ID":144498,"DIS_CODE":0,"TOWNNAME":"東區","LI":"忠孝里","LIN":"28鄰","STREET":"中華東路","SECT":"三段","MAREA":" ","LANE":"３８０巷","ALLEY":"４５弄","HOUSE_NO":"１６號","E_COORD97":169966.10000000001,"N_COORD97":2541658.6699999999,"ADDRESS":"中華東路三段３８０巷４５弄１６號","OBJECTID":144498},"geometry":{"x":169966.09999999963,"y":2541658.6699999999}},{"attributes":{"ID":144499,"DIS_CODE":0,"TOWNNAME":"東區","LI":"忠孝里","LIN":"28鄰","STREET":"中華東路","SECT":"三段","MAREA":" ","LANE":"３８０巷","ALLEY":"４５弄","HOUSE_NO":"１８號","E_COORD97":169961.79000000001,"N_COORD97":2541656.1600000001,"ADDRESS":"中華東路三段３８０巷４５弄１８號","OBJECTID":144499},"geometry":{"x":169961.79000000004,"y":2541656.1600000001}},{"attributes":{"ID":144500,"DIS_CODE":0,"TOWNNAME":"永康區","LI":"六合里","LIN":"3鄰","STREET":"新興街","SECT":" ","MAREA":" ","LANE":"３５巷","ALLEY":"１５弄","HOUSE_NO":"２號六樓之３","E_COORD97":171005.89000000001,"N_COORD97":2545852.29,"ADDRESS":"新興街３５巷１５弄２號六樓之３","OBJECTID":144500},"geometry":{"x":171005.8900000006,"y":2545852.2900000028}},{"attributes":{"ID":144501,"DIS_CODE":0,"TOWNNAME":"西港區","LI":"慶安里","LIN":"34鄰","STREET":"中山路","SECT":" ","MAREA":" ","LANE":" ","ALLEY":" ","HOUSE_NO":"１０９號","E_COORD97":168452.22,"N_COORD97":2557455.0299999998,"ADDRESS":"中山路１０９號","OBJECTID":144501},"geometry":{"x":168452.2200000016,"y":2557455.0299999993}},{"attributes":{"ID":144502,"DIS_CODE":0,"TOWNNAME":"西港區","LI":"慶安里","LIN":"34鄰","STREET":"中山路","SECT":" ","MAREA":" ","LANE":" ","ALLEY":" ","HOUSE_NO":"１１１號","E_COORD97":168451.67000000001,"N_COORD97":2557459.23,"ADDRESS":"中山路１１１號","OBJECTID":144502},"geometry":{"x":168451.67000000086,"y":2557459.2300000042}},{"attributes":{"ID":144503,"DIS_CODE":0,"TOWNNAME":"西港區","LI":"慶安里","LIN":"34鄰","STREET":"中山路","SECT":" ","MAREA":" ","LANE":" ","ALLEY":" ","HOUSE_NO":"１１５號","E_COORD97":168450.70000000001,"N_COORD97":2557467.6499999999,"ADDRESS":"中山路１１５號","OBJECTID":144503},"geometry":{"x":168450.70000000019,"y":2557467.6500000022}},{"attributes":{"ID":144504,"DIS_CODE":0,"TOWNNAME":"西港區","LI":"西港里","LIN":"20鄰","STREET":"中山路","SECT":" ","MAREA":" ","LANE":" ","ALLEY":" ","HOUSE_NO":"１１８號","E_COORD97":168473,"N_COORD97":2557561.3399999999,"ADDRESS":"中山路１１８號","OBJECTID":144504},"geometry":{"x":168473.00000000093,"y":2557561.3399999999}},{"attributes":{"ID":144505,"DIS_CODE":0,"TOWNNAME":"西港區","LI":"慶安里","LIN":"32鄰","STREET":"中山路","SECT":" ","MAREA":" ","LANE":" ","ALLEY":" ","HOUSE_NO":"１４５號","E_COORD97":168433.95999999999,"N_COORD97":2557582.8300000001,"ADDRESS":"中山路１４５號","OBJECTID":144505},"geometry":{"x":168433.96000000183,"y":2557582.8300000001}},{"attributes":{"ID":144506,"DIS_CODE":0,"TOWNNAME":"西港區","LI":"慶安里","LIN":"32鄰","STREET":"中山路","SECT":" ","MAREA":" ","LANE":" ","ALLEY":" ","HOUSE_NO":"１４７號","E_COORD97":168433.34,"N_COORD97":2557587.0600000001,"ADDRESS":"中山路１４７號","OBJECTID":144506},"geometry":{"x":168433.34000000078,"y":2557587.0600000024}},{"attributes":{"ID":144507,"DIS_CODE":0,"TOWNNAME":"西港區","LI":"慶安里","LIN":"32鄰","STREET":"中山路","SECT":" ","MAREA":" ","LANE":" ","ALLEY":" ","HOUSE_NO":"１４９號","E_COORD97":168432.31,"N_COORD97":2557591.3700000001,"ADDRESS":"中山路１４９號","OBJECTID":144507},"geometry":{"x":168432.30999999959,"y":2557591.3700000048}},{"attributes":{"ID":144508,"DIS_CODE":0,"TOWNNAME":"西港區","LI":"慶安里","LIN":"32鄰","STREET":"中山路","SECT":" ","MAREA":" ","LANE":" ","ALLEY":" ","HOUSE_NO":"１５１號","E_COORD97":168432.04000000001,"N_COORD97":2557595.3999999999,"ADDRESS":"中山路１５１號","OBJECTID":144508},"geometry":{"x":168432.04000000097,"y":2557595.4000000004}},{"attributes":{"ID":144509,"DIS_CODE":0,"TOWNNAME":"學甲區","LI":"三慶里","LIN":"30鄰","STREET":" ","SECT":" ","MAREA":"新芳","LANE":" ","ALLEY":" ","HOUSE_NO":"５８號","E_COORD97":167259.09,"N_COORD97":2575282.3199999998,"ADDRESS":"新芳５８號","OBJECTID":144509},"geometry":{"x":167259.08999999985,"y":2575282.3200000022}},{"attributes":{"ID":144510,"DIS_CODE":0,"TOWNNAME":"西港區","LI":"慶安里","LIN":"32鄰","STREET":"中山路","SECT":" ","MAREA":" ","LANE":" ","ALLEY":" ","HOUSE_NO":"１５５號","E_COORD97":168425.88,"N_COORD97":2557614.3399999999,"ADDRESS":"中山路１５５號","OBJECTID":144510},"geometry":{"x":168425.88000000175,"y":2557614.3400000017}},{"attributes":{"ID":144511,"DIS_CODE":0,"TOWNNAME":"西港區","LI":"慶安里","LIN":"32鄰","STREET":"中山路","SECT":" ","MAREA":" ","LANE":" ","ALLEY":" ","HOUSE_NO":"１５７號","E_COORD97":168425.82999999999,"N_COORD97":2557622.54,"ADDRESS":"中山路１５７號","OBJECTID":144511},"geometry":{"x":168425.83000000007,"y":2557622.540000001}},{"attributes":{"ID":144512,"DIS_CODE":0,"TOWNNAME":"西港區","LI":"慶安里","LIN":"32鄰","STREET":"中山路","SECT":" ","MAREA":" ","LANE":" ","ALLEY":" ","HOUSE_NO":"１５９號","E_COORD97":168425.57000000001,"N_COORD97":2557628.5899999999,"ADDRESS":"中山路１５９號","OBJECTID":144512},"geometry":{"x":168425.57000000123,"y":2557628.5899999999}},{"attributes":{"ID":144513,"DIS_CODE":0,"TOWNNAME":"西港區","LI":"慶安里","LIN":"32鄰","STREET":"中山路","SECT":" ","MAREA":" ","LANE":" ","ALLEY":" ","HOUSE_NO":"１６１號","E_COORD97":168425.39000000001,"N_COORD97":2557632.6099999999,"ADDRESS":"中山路１６１號","OBJECTID":144513},"geometry":{"x":168425.38999999966,"y":2557632.6100000013}},{"attributes":{"ID":144514,"DIS_CODE":0,"TOWNNAME":"西港區","LI":"慶安里","LIN":"32鄰","STREET":"中山路","SECT":" ","MAREA":" ","LANE":" ","ALLEY":" ","HOUSE_NO":"１６３號","E_COORD97":168425.12,"N_COORD97":2557636.2999999998,"ADDRESS":"中山路１６３號","OBJECTID":144514},"geometry":{"x":168425.12000000104,"y":2557636.3000000026}},{"attributes":{"ID":144515,"DIS_CODE":0,"TOWNNAME":"西港區","LI":"慶安里","LIN":"32鄰","STREET":"中山路","SECT":" ","MAREA":" ","LANE":" ","ALLEY":" ","HOUSE_NO":"１６５號","E_COORD97":168425.28,"N_COORD97":2557640.3599999999,"ADDRESS":"中山路１６５號","OBJECTID":144515},"geometry":{"x":168425.28000000212,"y":2557640.3600000031}},{"attributes":{"ID":144516,"DIS_CODE":0,"TOWNNAME":"西港區","LI":"慶安里","LIN":"32鄰","STREET":"中山路","SECT":" ","MAREA":" ","LANE":" ","ALLEY":" ","HOUSE_NO":"１６７號","E_COORD97":168425.42999999999,"N_COORD97":2557644.79,"ADDRESS":"中山路１６７號","OBJECTID":144516},"geometry":{"x":168425.43000000156,"y":2557644.790000001}},{"attributes":{"ID":144517,"DIS_CODE":0,"TOWNNAME":"永康區","LI":"六合里","LIN":"3鄰","STREET":"新興街","SECT":" ","MAREA":" ","LANE":"３５巷","ALLEY":"１５弄","HOUSE_NO":"２號五樓之２","E_COORD97":171005.92999999999,"N_COORD97":2545852.29,"ADDRESS":"新興街３５巷１５弄２號五樓之２","OBJECTID":144517},"geometry":{"x":171005.93000000063,"y":2545852.2900000028}},{"attributes":{"ID":144518,"DIS_CODE":0,"TOWNNAME":"永康區","LI":"六合里","LIN":"3鄰","STREET":"新興街","SECT":" ","MAREA":" ","LANE":"３５巷","ALLEY":"１５弄","HOUSE_NO":"２號三樓之２","E_COORD97":171005.92999999999,"N_COORD97":2545852.29,"ADDRESS":"新興街３５巷１５弄２號三樓之２","OBJECTID":144518},"geometry":{"x":171005.93000000063,"y":2545852.2900000028}},{"attributes":{"ID":144519,"DIS_CODE":0,"TOWNNAME":"東區","LI":"忠孝里","LIN":"3鄰","STREET":"中華東路","SECT":"三段","MAREA":" ","LANE":"３３６巷","ALLEY":"４３弄","HOUSE_NO":"１８號七樓","E_COORD97":170047.22,"N_COORD97":2541705.04,"ADDRESS":"中華東路三段３３６巷４３弄１８號七樓","OBJECTID":144519},"geometry":{"x":170047.21999999974,"y":2541705.040000001}},{"attributes":{"ID":144520,"DIS_CODE":0,"TOWNNAME":"新化區","LI":"全興里","LIN":"17鄰","STREET":" ","SECT":" ","MAREA":"竹子\u25A0","LANE":" ","ALLEY":" ","HOUSE_NO":"２４７號之６２３","E_COORD97":178342.78,"N_COORD97":2546606.2599999998,"ADDRESS":"竹子\u25A0２４７號之６２３","OBJECTID":144520},"geometry":{"x":178342.78000000119,"y":2546606.2600000016}},{"attributes":{"ID":144521,"DIS_CODE":0,"TOWNNAME":"新化區","LI":"羊林里","LIN":"4鄰","STREET":" ","SECT":" ","MAREA":"\u25A0拔林","LANE":" ","ALLEY":" ","HOUSE_NO":"４５３號","E_COORD97":183637.12,"N_COORD97":2551722.25,"ADDRESS":"\u25A0拔林４５３號","OBJECTID":144521},"geometry":{"x":183637.12000000197,"y":2551722.2500000037}},{"attributes":{"ID":144522,"DIS_CODE":0,"TOWNNAME":"新化區","LI":"全興里","LIN":"20鄰","STREET":" ","SECT":" ","MAREA":"竹子\u25A0","LANE":" ","ALLEY":" ","HOUSE_NO":"２４７號之４１９","E_COORD97":178507.57999999999,"N_COORD97":2546656.2599999998,"ADDRESS":"竹子\u25A0２４７號之４１９","OBJECTID":144522},"geometry":{"x":178507.58000000007,"y":2546656.2599999998}},{"attributes":{"ID":144523,"DIS_CODE":0,"TOWNNAME":"新化區","LI":"全興里","LIN":"13鄰","STREET":" ","SECT":" ","MAREA":"竹子\u25A0","LANE":" ","ALLEY":" ","HOUSE_NO":"２４７號之１６０","E_COORD97":178220.97,"N_COORD97":2546760.2599999998,"ADDRESS":"竹子\u25A0２４７號之１６０","OBJECTID":144523},"geometry":{"x":178220.96999999974,"y":2546760.2599999998}},{"attributes":{"ID":144524,"DIS_CODE":0,"TOWNNAME":"新化區","LI":"全興里","LIN":"8鄰","STREET":" ","SECT":" ","MAREA":"竹子\u25A0","LANE":" ","ALLEY":" ","HOUSE_NO":"１０７號","E_COORD97":177461.23000000001,"N_COORD97":2547718.25,"ADDRESS":"竹子\u25A0１０７號","OBJECTID":144524},"geometry":{"x":177461.23000000231,"y":2547718.2500000037}},{"attributes":{"ID":144525,"DIS_CODE":0,"TOWNNAME":"新化區","LI":"\u25A0拔里","LIN":"4鄰","STREET":" ","SECT":" ","MAREA":"\u25A0拔林","LANE":" ","ALLEY":" ","HOUSE_NO":"２１８號之９","E_COORD97":183798.67000000001,"N_COORD97":2552079.2599999998,"ADDRESS":"\u25A0拔林２１８號之９","OBJECTID":144525},"geometry":{"x":183798.66999999993,"y":2552079.2600000016}},{"attributes":{"ID":144526,"DIS_CODE":0,"TOWNNAME":"新化區","LI":"\u25A0拔里","LIN":"4鄰","STREET":" ","SECT":" ","MAREA":"\u25A0拔林","LANE":" ","ALLEY":" ","HOUSE_NO":"２００號之８","E_COORD97":183736.98000000001,"N_COORD97":2551921.2599999998,"ADDRESS":"\u25A0拔林２００號之８","OBJECTID":144526},"geometry":{"x":183736.98000000138,"y":2551921.2599999998}},{"attributes":{"ID":144527,"DIS_CODE":0,"TOWNNAME":"新化區","LI":"\u25A0拔里","LIN":"4鄰","STREET":" ","SECT":" ","MAREA":"\u25A0拔林","LANE":" ","ALLEY":" ","HOUSE_NO":"２０７號","E_COORD97":183780.72,"N_COORD97":2551970.25,"ADDRESS":"\u25A0拔林２０７號","OBJECTID":144527},"geometry":{"x":183780.72000000067,"y":2551970.2500000019}},{"attributes":{"ID":144528,"DIS_CODE":0,"TOWNNAME":"新化區","LI":"全興里","LIN":"20鄰","STREET":" ","SECT":" ","MAREA":"竹子\u25A0","LANE":" ","ALLEY":" ","HOUSE_NO":"２４７號之３１４","E_COORD97":178520.37,"N_COORD97":2546671.2599999998,"ADDRESS":"竹子\u25A0２４７號之３１４","OBJECTID":144528},"geometry":{"x":178520.37000000011,"y":2546671.2600000016}},{"attributes":{"ID":144529,"DIS_CODE":0,"TOWNNAME":"新化區","LI":"\u25A0拔里","LIN":"4鄰","STREET":" ","SECT":" ","MAREA":"\u25A0拔林","LANE":" ","ALLEY":" ","HOUSE_NO":"２０１號","E_COORD97":183753.62,"N_COORD97":2551950.25,"ADDRESS":"\u25A0拔林２０１號","OBJECTID":144529},"geometry":{"x":183753.62000000011,"y":2551950.2500000019}},{"attributes":{"ID":144530,"DIS_CODE":0,"TOWNNAME":"新化區","LI":"知義里","LIN":" ","STREET":" ","SECT":" ","MAREA":"新和庄","LANE":" ","ALLEY":" ","HOUSE_NO":"８１號之１","E_COORD97":181994.45999999999,"N_COORD97":2546517.2599999998,"ADDRESS":"新和庄８１號之１","OBJECTID":144530},"geometry":{"x":181994.46000000089,"y":2546517.2599999998}},{"attributes":{"ID":144531,"DIS_CODE":0,"TOWNNAME":"麻豆區","LI":"小埤里","LIN":"4鄰","STREET":" ","SECT":" ","MAREA":"小埤頭","LANE":" ","ALLEY":" ","HOUSE_NO":"１５號","E_COORD97":171342.98000000001,"N_COORD97":2566045.1099999999,"ADDRESS":"小埤頭１５號","OBJECTID":144531},"geometry":{"x":171342.98000000045,"y":2566045.1099999994}},{"attributes":{"ID":144532,"DIS_CODE":0,"TOWNNAME":"東區","LI":"忠孝里","LIN":"3鄰","STREET":"中華東路","SECT":"三段","MAREA":" ","LANE":"３３６巷","ALLEY":"４３弄","HOUSE_NO":"１８號七樓之１","E_COORD97":170047.22,"N_COORD97":2541705.04,"ADDRESS":"中華東路三段３３６巷４３弄１８號七樓之１","OBJECTID":144532},"geometry":{"x":170047.21999999974,"y":2541705.040000001}},{"attributes":{"ID":144533,"DIS_CODE":0,"TOWNNAME":"新化區","LI":"\u25A0拔里","LIN":"4鄰","STREET":" ","SECT":" ","MAREA":"\u25A0拔林","LANE":" ","ALLEY":" ","HOUSE_NO":"２１９號","E_COORD97":183785.22,"N_COORD97":2552011.25,"ADDRESS":"\u25A0拔林２１９號","OBJECTID":144533},"geometry":{"x":183785.2200000016,"y":2552011.2500000019}},{"attributes":{"ID":144534,"DIS_CODE":0,"TOWNNAME":"東區","LI":"忠孝里","LIN":"3鄰","STREET":"中華東路","SECT":"三段","MAREA":" ","LANE":"３３６巷","ALLEY":"４３弄","HOUSE_NO":"１８號七樓之２","E_COORD97":170047.22,"N_COORD97":2541705.04,"ADDRESS":"中華東路三段３３６巷４３弄１８號七樓之２","OBJECTID":144534},"geometry":{"x":170047.21999999974,"y":2541705.040000001}},{"attributes":{"ID":144535,"DIS_CODE":0,"TOWNNAME":"東區","LI":"忠孝里","LIN":"3鄰","STREET":"中華東路","SECT":"三段","MAREA":" ","LANE":"３３６巷","ALLEY":"４３弄","HOUSE_NO":"１８號七樓之３","E_COORD97":170047.22,"N_COORD97":2541705.04,"ADDRESS":"中華東路三段３３６巷４３弄１８號七樓之３","OBJECTID":144535},"geometry":{"x":170047.21999999974,"y":2541705.040000001}},{"attributes":{"ID":144536,"DIS_CODE":0,"TOWNNAME":"東區","LI":"忠孝里","LIN":"3鄰","STREET":"中華東路","SECT":"三段","MAREA":" ","LANE":"３３６巷","ALLEY":"４３弄","HOUSE_NO":"１８號七樓之５","E_COORD97":170047.22,"N_COORD97":2541705.04,"ADDRESS":"中華東路三段３３６巷４３弄１８號七樓之５","OBJECTID":144536},"geometry":{"x":170047.21999999974,"y":2541705.040000001}},{"attributes":{"ID":144537,"DIS_CODE":0,"TOWNNAME":"東區","LI":"忠孝里","LIN":"3鄰","STREET":"中華東路","SECT":"三段","MAREA":" ","LANE":"３３６巷","ALLEY":"４３弄","HOUSE_NO":"１８號七樓之６","E_COORD97":170047.22,"N_COORD97":2541705.04,"ADDRESS":"中華東路三段３３６巷４３弄１８號七樓之６","OBJECTID":144537},"geometry":{"x":170047.21999999974,"y":2541705.040000001}},{"attributes":{"ID":144538,"DIS_CODE":0,"TOWNNAME":"東區","LI":"忠孝里","LIN":"3鄰","STREET":"中華東路","SECT":"三段","MAREA":" ","LANE":"３３６巷","ALLEY":"４３弄","HOUSE_NO":"１８號九樓","E_COORD97":170047.22,"N_COORD97":2541705.04,"ADDRESS":"中華東路三段３３６巷４３弄１８號九樓","OBJECTID":144538},"geometry":{"x":170047.21999999974,"y":2541705.040000001}},{"attributes":{"ID":144539,"DIS_CODE":0,"TOWNNAME":"東區","LI":"忠孝里","LIN":"3鄰","STREET":"中華東路","SECT":"三段","MAREA":" ","LANE":"３３６巷","ALLEY":"４３弄","HOUSE_NO":"１８號四樓","E_COORD97":170047.22,"N_COORD97":2541705.04,"ADDRESS":"中華東路三段３３６巷４３弄１８號四樓","OBJECTID":144539},"geometry":{"x":170047.21999999974,"y":2541705.040000001}},{"attributes":{"ID":144540,"DIS_CODE":0,"TOWNNAME":"仁德區","LI":"太子里","LIN":"23鄰","STREET":"長興四街","SECT":" ","MAREA":" ","LANE":" ","ALLEY":" ","HOUSE_NO":"９２號","E_COORD97":173819.74920600001,"N_COORD97":2543559.56525,"ADDRESS":"長興四街９２號","OBJECTID":144540},"geometry":{"x":173819.74920600001,"y":2543559.5652550012}},{"attributes":{"ID":144541,"DIS_CODE":0,"TOWNNAME":"新化區","LI":"\u25A0拔里","LIN":"4鄰","STREET":" ","SECT":" ","MAREA":"\u25A0拔林","LANE":" ","ALLEY":" ","HOUSE_NO":"２２１號","E_COORD97":183732.51999999999,"N_COORD97":2552001.25,"ADDRESS":"\u25A0拔林２２１號","OBJECTID":144541},"geometry":{"x":183732.52000000048,"y":2552001.2500000019}},{"attributes":{"ID":144542,"DIS_CODE":0,"TOWNNAME":"新化區","LI":"全興里","LIN":"20鄰","STREET":" ","SECT":" ","MAREA":"竹子\u25A0","LANE":" ","ALLEY":" ","HOUSE_NO":"２４７號之４２７","E_COORD97":178489.28,"N_COORD97":2546657.2599999998,"ADDRESS":"竹子\u25A0２４７號之４２７","OBJECTID":144542},"geometry":{"x":178489.28000000026,"y":2546657.2600000016}},{"attributes":{"ID":144543,"DIS_CODE":0,"TOWNNAME":"新化區","LI":"知義里","LIN":"4鄰","STREET":" ","SECT":" ","MAREA":"知母義","LANE":" ","ALLEY":" ","HOUSE_NO":"１００號之２","E_COORD97":179867.88,"N_COORD97":2547234.2599999998,"ADDRESS":"知母義１００號之２","OBJECTID":144543},"geometry":{"x":179867.87999999989,"y":2547234.2600000016}},{"attributes":{"ID":144544,"DIS_CODE":0,"TOWNNAME":"新化區","LI":"\u25A0拔里","LIN":"4鄰","STREET":" ","SECT":" ","MAREA":"\u25A0拔林","LANE":" ","ALLEY":" ","HOUSE_NO":"２１６號","E_COORD97":183809.51999999999,"N_COORD97":2552010.25,"ADDRESS":"\u25A0拔林２１６號","OBJECTID":144544},"geometry":{"x":183809.51999999955,"y":2552010.2500000037}},{"attributes":{"ID":144545,"DIS_CODE":0,"TOWNNAME":"新化區","LI":"\u25A0拔里","LIN":"4鄰","STREET":" ","SECT":" ","MAREA":"\u25A0拔林","LANE":" ","ALLEY":" ","HOUSE_NO":"２１８號之２６","E_COORD97":183792.51999999999,"N_COORD97":2552032.2599999998,"ADDRESS":"\u25A0拔林２１８號之２６","OBJECTID":144545},"geometry":{"x":183792.51999999955,"y":2552032.2599999998}},{"attributes":{"ID":144546,"DIS_CODE":0,"TOWNNAME":"新化區","LI":"知義里","LIN":" ","STREET":" ","SECT":" ","MAREA":"新和庄","LANE":" ","ALLEY":" ","HOUSE_NO":"２１７號之３","E_COORD97":181496.82999999999,"N_COORD97":2546973.2599999998,"ADDRESS":"新和庄２１７號之３","OBJECTID":144546},"geometry":{"x":181496.83000000101,"y":2546973.2600000016}},{"attributes":{"ID":144547,"DIS_CODE":0,"TOWNNAME":"新化區","LI":"知義里","LIN":" ","STREET":" ","SECT":" ","MAREA":"新和庄","LANE":" ","ALLEY":" ","HOUSE_NO":"９３號","E_COORD97":182110.44,"N_COORD97":2546435.25,"ADDRESS":"新和庄９３號","OBJECTID":144547},"geometry":{"x":182110.44000000134,"y":2546435.25}},{"attributes":{"ID":144548,"DIS_CODE":0,"TOWNNAME":"佳里區","LI":"建南里","LIN":"30鄰","STREET":"祥和二街","SECT":" ","MAREA":" ","LANE":" ","ALLEY":" ","HOUSE_NO":"２０９號","E_COORD97":165611.76000000001,"N_COORD97":2561123.2000000002,"ADDRESS":"祥和二街２０９號","OBJECTID":144548},"geometry":{"x":165611.75999999978,"y":2561123.200000003}},{"attributes":{"ID":144549,"DIS_CODE":0,"TOWNNAME":"佳里區","LI":"建南里","LIN":"30鄰","STREET":"祥和二街","SECT":" ","MAREA":" ","LANE":" ","ALLEY":" ","HOUSE_NO":"２１１號","E_COORD97":165607.10999999999,"N_COORD97":2561124.54,"ADDRESS":"祥和二街２１１號","OBJECTID":144549},"geometry":{"x":165607.11000000034,"y":2561124.540000001}},{"attributes":{"ID":144550,"DIS_CODE":0,"TOWNNAME":"佳里區","LI":"建南里","LIN":"30鄰","STREET":"祥和一街","SECT":" ","MAREA":" ","LANE":" ","ALLEY":" ","HOUSE_NO":"３０２號之１","E_COORD97":165653.42999999999,"N_COORD97":2561045.4399999999,"ADDRESS":"祥和一街３０２號之１","OBJECTID":144550},"geometry":{"x":165653.4299999997,"y":2561045.4400000013}},{"attributes":{"ID":144551,"DIS_CODE":0,"TOWNNAME":"佳里區","LI":"建南里","LIN":"30鄰","STREET":"祥和一街","SECT":" ","MAREA":" ","LANE":" ","ALLEY":" ","HOUSE_NO":"３０２號","E_COORD97":165659.42999999999,"N_COORD97":2561046.0899999999,"ADDRESS":"祥和一街３０２號","OBJECTID":144551},"geometry":{"x":165659.43000000063,"y":2561046.0899999999}},{"attributes":{"ID":144552,"DIS_CODE":0,"TOWNNAME":"佳里區","LI":"建南里","LIN":"30鄰","STREET":"祥和一街","SECT":" ","MAREA":" ","LANE":" ","ALLEY":" ","HOUSE_NO":"３０６號","E_COORD97":165649.17999999999,"N_COORD97":2561045.7000000002,"ADDRESS":"祥和一街３０６號","OBJECTID":144552},"geometry":{"x":165649.18000000063,"y":2561045.7000000011}},{"attributes":{"ID":144553,"DIS_CODE":0,"TOWNNAME":"佳里區","LI":"建南里","LIN":"30鄰","STREET":"祥和一街","SECT":" ","MAREA":" ","LANE":" ","ALLEY":" ","HOUSE_NO":"３０８號","E_COORD97":165643.14000000001,"N_COORD97":2561046.0299999998,"ADDRESS":"祥和一街３０８號","OBJECTID":144553},"geometry":{"x":165643.13999999966,"y":2561046.0299999993}},{"attributes":{"ID":144554,"DIS_CODE":0,"TOWNNAME":"佳里區","LI":"建南里","LIN":"30鄰","STREET":"祥和二街","SECT":" ","MAREA":" ","LANE":" ","ALLEY":" ","HOUSE_NO":"１７２號","E_COORD97":165631.19,"N_COORD97":2561144.29,"ADDRESS":"祥和二街１７２號","OBJECTID":144554},"geometry":{"x":165631.19000000134,"y":2561144.290000001}},{"attributes":{"ID":144555,"DIS_CODE":0,"TOWNNAME":"西港區","LI":"慶安里","LIN":"32鄰","STREET":"中山路","SECT":" ","MAREA":" ","LANE":" ","ALLEY":" ","HOUSE_NO":"１６９號","E_COORD97":168425.22,"N_COORD97":2557648.7799999998,"ADDRESS":"中山路１６９號","OBJECTID":144555},"geometry":{"x":168425.2200000016,"y":2557648.7800000012}},{"attributes":{"ID":144556,"DIS_CODE":0,"TOWNNAME":"西港區","LI":"慶安里","LIN":"32鄰","STREET":"中山路","SECT":" ","MAREA":" ","LANE":" ","ALLEY":" ","HOUSE_NO":"１７１號","E_COORD97":168425.14000000001,"N_COORD97":2557652.8799999999,"ADDRESS":"中山路１７１號","OBJECTID":144556},"geometry":{"x":168425.13999999966,"y":2557652.879999999}},{"attributes":{"ID":144557,"DIS_CODE":0,"TOWNNAME":"東區","LI":"忠孝里","LIN":"3鄰","STREET":"中華東路","SECT":"三段","MAREA":" ","LANE":"３３６巷","ALLEY":"４３弄","HOUSE_NO":"１８號九樓之１","E_COORD97":170047.22,"N_COORD97":2541705.04,"ADDRESS":"中華東路三段３３６巷４３弄１８號九樓之１","OBJECTID":144557},"geometry":{"x":170047.21999999974,"y":2541705.040000001}},{"attributes":{"ID":144558,"DIS_CODE":0,"TOWNNAME":"東區","LI":"忠孝里","LIN":"3鄰","STREET":"中華東路","SECT":"三段","MAREA":" ","LANE":"３３６巷","ALLEY":"４３弄","HOUSE_NO":"１８號九樓之２","E_COORD97":170047.22,"N_COORD97":2541705.04,"ADDRESS":"中華東路三段３３６巷４３弄１８號九樓之２","OBJECTID":144558},"geometry":{"x":170047.21999999974,"y":2541705.040000001}},{"attributes":{"ID":144559,"DIS_CODE":0,"TOWNNAME":"東區","LI":"忠孝里","LIN":"3鄰","STREET":"中華東路","SECT":"三段","MAREA":" ","LANE":"３３６巷","ALLEY":"４３弄","HOUSE_NO":"１８號九樓之３","E_COORD97":170047.22,"N_COORD97":2541705.04,"ADDRESS":"中華東路三段３３６巷４３弄１８號九樓之３","OBJECTID":144559},"geometry":{"x":170047.21999999974,"y":2541705.040000001}},{"attributes":{"ID":144560,"DIS_CODE":0,"TOWNNAME":"東區","LI":"忠孝里","LIN":"3鄰","STREET":"中華東路","SECT":"三段","MAREA":" ","LANE":"３３６巷","ALLEY":"４３弄","HOUSE_NO":"１８號九樓之５","E_COORD97":170047.22,"N_COORD97":2541705.04,"ADDRESS":"中華東路三段３３６巷４３弄１８號九樓之５","OBJECTID":144560},"geometry":{"x":170047.21999999974,"y":2541705.040000001}},{"attributes":{"ID":144561,"DIS_CODE":0,"TOWNNAME":"東區","LI":"忠孝里","LIN":"3鄰","STREET":"中華東路","SECT":"三段","MAREA":" ","LANE":"３３６巷","ALLEY":"４３弄","HOUSE_NO":"１８號九樓之６","E_COORD97":170047.22,"N_COORD97":2541705.04,"ADDRESS":"中華東路三段３３６巷４３弄１８號九樓之６","OBJECTID":144561},"geometry":{"x":170047.21999999974,"y":2541705.040000001}},{"attributes":{"ID":144562,"DIS_CODE":0,"TOWNNAME":"東區","LI":"忠孝里","LIN":"3鄰","STREET":"中華東路","SECT":"三段","MAREA":" ","LANE":"３３６巷","ALLEY":"４３弄","HOUSE_NO":"１８號八樓","E_COORD97":170047.22,"N_COORD97":2541705.04,"ADDRESS":"中華東路三段３３６巷４３弄１８號八樓","OBJECTID":144562},"geometry":{"x":170047.21999999974,"y":2541705.040000001}},{"attributes":{"ID":144563,"DIS_CODE":0,"TOWNNAME":"東區","LI":"忠孝里","LIN":"3鄰","STREET":"中華東路","SECT":"三段","MAREA":" ","LANE":"３３６巷","ALLEY":"４３弄","HOUSE_NO":"１８號八樓之２","E_COORD97":170047.22,"N_COORD97":2541705.04,"ADDRESS":"中華東路三段３３６巷４３弄１８號八樓之２","OBJECTID":144563},"geometry":{"x":170047.21999999974,"y":2541705.040000001}},{"attributes":{"ID":144564,"DIS_CODE":0,"TOWNNAME":"東區","LI":"忠孝里","LIN":"3鄰","STREET":"中華東路","SECT":"三段","MAREA":" ","LANE":"３３６巷","ALLEY":"４３弄","HOUSE_NO":"１８號八樓之３","E_COORD97":170047.22,"N_COORD97":2541705.04,"ADDRESS":"中華東路三段３３６巷４３弄１８號八樓之３","OBJECTID":144564},"geometry":{"x":170047.21999999974,"y":2541705.040000001}},{"attributes":{"ID":144565,"DIS_CODE":0,"TOWNNAME":"東區","LI":"忠孝里","LIN":"3鄰","STREET":"中華東路","SECT":"三段","MAREA":" ","LANE":"３３６巷","ALLEY":"４３弄","HOUSE_NO":"１８號八樓之６","E_COORD97":170047.22,"N_COORD97":2541705.04,"ADDRESS":"中華東路三段３３６巷４３弄１８號八樓之６","OBJECTID":144565},"geometry":{"x":170047.21999999974,"y":2541705.040000001}},{"attributes":{"ID":144566,"DIS_CODE":0,"TOWNNAME":"東區","LI":"忠孝里","LIN":"3鄰","STREET":"中華東路","SECT":"三段","MAREA":" ","LANE":"３３６巷","ALLEY":"４３弄","HOUSE_NO":"１８號十樓","E_COORD97":170047.22,"N_COORD97":2541705.04,"ADDRESS":"中華東路三段３３６巷４３弄１８號十樓","OBJECTID":144566},"geometry":{"x":170047.21999999974,"y":2541705.040000001}},{"attributes":{"ID":144567,"DIS_CODE":0,"TOWNNAME":"佳里區","LI":"龍安里","LIN":"4鄰","STREET":" ","SECT":" ","MAREA":"塭子內","LANE":" ","ALLEY":" ","HOUSE_NO":"４１號之６","E_COORD97":164428.88,"N_COORD97":2558357.0699999998,"ADDRESS":"塭子內４１號之６","OBJECTID":144567},"geometry":{"x":164428.88000000082,"y":2558357.0700000003}},{"attributes":{"ID":144568,"DIS_CODE":0,"TOWNNAME":"東區","LI":"忠孝里","LIN":"3鄰","STREET":"中華東路","SECT":"三段","MAREA":" ","LANE":"３３６巷","ALLEY":"４３弄","HOUSE_NO":"１８號十樓之２","E_COORD97":170047.22,"N_COORD97":2541705.04,"ADDRESS":"中華東路三段３３６巷４３弄１８號十樓之２","OBJECTID":144568},"geometry":{"x":170047.21999999974,"y":2541705.040000001}},{"attributes":{"ID":144569,"DIS_CODE":0,"TOWNNAME":"東區","LI":"忠孝里","LIN":"3鄰","STREET":"中華東路","SECT":"三段","MAREA":" ","LANE":"３３６巷","ALLEY":"４３弄","HOUSE_NO":"１８號十樓之３","E_COORD97":170047.22,"N_COORD97":2541705.04,"ADDRESS":"中華東路三段３３６巷４３弄１８號十樓之３","OBJECTID":144569},"geometry":{"x":170047.21999999974,"y":2541705.040000001}},{"attributes":{"ID":144570,"DIS_CODE":0,"TOWNNAME":"東區","LI":"忠孝里","LIN":"3鄰","STREET":"中華東路","SECT":"三段","MAREA":" ","LANE":"３３６巷","ALLEY":"４３弄","HOUSE_NO":"１８號十樓之６","E_COORD97":170047.22,"N_COORD97":2541705.04,"ADDRESS":"中華東路三段３３６巷４３弄１８號十樓之６","OBJECTID":144570},"geometry":{"x":170047.21999999974,"y":2541705.040000001}},{"attributes":{"ID":144571,"DIS_CODE":0,"TOWNNAME":"西港區","LI":"慶安里","LIN":"33鄰","STREET":"中山路","SECT":" ","MAREA":" ","LANE":" ","ALLEY":" ","HOUSE_NO":"１３１號","E_COORD97":168438.04999999999,"N_COORD97":2557549.6299999999,"ADDRESS":"中山路１３１號","OBJECTID":144571},"geometry":{"x":168438.04999999981,"y":2557549.6299999971}},{"attributes":{"ID":144572,"DIS_CODE":0,"TOWNNAME":"歸仁區","LI":"七甲里","LIN":"11鄰","STREET":"大德路","SECT":" ","MAREA":" ","LANE":" ","ALLEY":" ","HOUSE_NO":"１１９２號","E_COORD97":175472.97038899999,"N_COORD97":2541535.54954,"ADDRESS":"大德路１１９２號","OBJECTID":144572},"geometry":{"x":175472.97038900107,"y":2541535.5495449994}},{"attributes":{"ID":144573,"DIS_CODE":0,"TOWNNAME":"新化區","LI":"山\u25A0里","LIN":"8鄰","STREET":" ","SECT":" ","MAREA":"頂山\u25A0","LANE":" ","ALLEY":" ","HOUSE_NO":"１５６號","E_COORD97":179793.82999999999,"N_COORD97":2546729.25,"ADDRESS":"頂山\u25A0１５６號","OBJECTID":144573},"geometry":{"x":179793.83000000007,"y":2546729.2500000019}},{"attributes":{"ID":144574,"DIS_CODE":0,"TOWNNAME":"新化區","LI":"豐榮里","LIN":"4鄰","STREET":" ","SECT":" ","MAREA":"洋子","LANE":" ","ALLEY":" ","HOUSE_NO":"６２號","E_COORD97":178006.53,"N_COORD97":2548313.25,"ADDRESS":"洋子６２號","OBJECTID":144574},"geometry":{"x":178006.53000000212,"y":2548313.25}},{"attributes":{"ID":144575,"DIS_CODE":0,"TOWNNAME":"新化區","LI":"全興里","LIN":"14鄰","STREET":" ","SECT":" ","MAREA":"竹子\u25A0","LANE":" ","ALLEY":" ","HOUSE_NO":"２４７號之２６４","E_COORD97":178219.57000000001,"N_COORD97":2546722.2599999998,"ADDRESS":"竹子\u25A0２４７號之２６４","OBJECTID":144575},"geometry":{"x":178219.5700000003,"y":2546722.2600000016}},{"attributes":{"ID":144576,"DIS_CODE":0,"TOWNNAME":"佳里區","LI":"龍安里","LIN":"4鄰","STREET":" ","SECT":" ","MAREA":"塭子內","LANE":" ","ALLEY":" ","HOUSE_NO":"４０號","E_COORD97":164476.04999999999,"N_COORD97":2558435.1200000001,"ADDRESS":"塭子內４０號","OBJECTID":144576},"geometry":{"x":164476.04999999981,"y":2558435.1200000029}},{"attributes":{"ID":144577,"DIS_CODE":0,"TOWNNAME":"佳里區","LI":"龍安里","LIN":"4鄰","STREET":" ","SECT":" ","MAREA":"塭子內","LANE":" ","ALLEY":" ","HOUSE_NO":"４１號之１","E_COORD97":164427.17999999999,"N_COORD97":2558379.3199999998,"ADDRESS":"塭子內４１號之１","OBJECTID":144577},"geometry":{"x":164427.18000000063,"y":2558379.3200000003}},{"attributes":{"ID":144578,"DIS_CODE":0,"TOWNNAME":"佳里區","LI":"龍安里","LIN":"4鄰","STREET":" ","SECT":" ","MAREA":"塭子內","LANE":" ","ALLEY":" ","HOUSE_NO":"４１號之３","E_COORD97":164429.04000000001,"N_COORD97":2558370.29,"ADDRESS":"塭子內４１號之３","OBJECTID":144578},"geometry":{"x":164429.04000000004,"y":2558370.290000001}},{"attributes":{"ID":144579,"DIS_CODE":0,"TOWNNAME":"學甲區","LI":"中洲里","LIN":"30鄰","STREET":" ","SECT":" ","MAREA":"中洲","LANE":" ","ALLEY":" ","HOUSE_NO":"４１２號","E_COORD97":163961.39000000001,"N_COORD97":2571890.25,"ADDRESS":"中洲４１２號","OBJECTID":144579},"geometry":{"x":163961.38999999966,"y":2571890.25}},{"attributes":{"ID":144580,"DIS_CODE":0,"TOWNNAME":"學甲區","LI":"中洲里","LIN":"30鄰","STREET":" ","SECT":" ","MAREA":"中洲","LANE":" ","ALLEY":" ","HOUSE_NO":"４１３號","E_COORD97":163988.22,"N_COORD97":2571886.4500000002,"ADDRESS":"中洲４１３號","OBJECTID":144580},"geometry":{"x":163988.21999999974,"y":2571886.4500000011}},{"attributes":{"ID":144581,"DIS_CODE":0,"TOWNNAME":"學甲區","LI":"中洲里","LIN":"30鄰","STREET":" ","SECT":" ","MAREA":"中洲","LANE":" ","ALLEY":" ","HOUSE_NO":"４１４號之１","E_COORD97":163977.35999999999,"N_COORD97":2571856.6499999999,"ADDRESS":"中洲４１４號之１","OBJECTID":144581},"geometry":{"x":163977.36000000127,"y":2571856.6500000022}},{"attributes":{"ID":144582,"DIS_CODE":0,"TOWNNAME":"學甲區","LI":"中洲里","LIN":"30鄰","STREET":" ","SECT":" ","MAREA":"中洲","LANE":" ","ALLEY":" ","HOUSE_NO":"４１４號之２","E_COORD97":163971.17000000001,"N_COORD97":2571856.6899999999,"ADDRESS":"中洲４１４號之２","OBJECTID":144582},"geometry":{"x":163971.17000000086,"y":2571856.6899999995}},{"attributes":{"ID":144583,"DIS_CODE":0,"TOWNNAME":"學甲區","LI":"中洲里","LIN":"30鄰","STREET":" ","SECT":" ","MAREA":"中洲","LANE":" ","ALLEY":" ","HOUSE_NO":"４１４號","E_COORD97":163982.32999999999,"N_COORD97":2571856.71,"ADDRESS":"中洲４１４號","OBJECTID":144583},"geometry":{"x":163982.33000000101,"y":2571856.7100000028}},{"attributes":{"ID":144584,"DIS_CODE":0,"TOWNNAME":"學甲區","LI":"中洲里","LIN":"30鄰","STREET":" ","SECT":" ","MAREA":"中洲","LANE":" ","ALLEY":" ","HOUSE_NO":"４１５號之１","E_COORD97":163991.85999999999,"N_COORD97":2571855.8399999999,"ADDRESS":"中洲４１５號之１","OBJECTID":144584},"geometry":{"x":163991.8600000022,"y":2571855.8399999999}},{"attributes":{"ID":144585,"DIS_CODE":0,"TOWNNAME":"佳里區","LI":"建南里","LIN":"30鄰","STREET":"祥和二街","SECT":" ","MAREA":" ","LANE":" ","ALLEY":" ","HOUSE_NO":"１７６號","E_COORD97":165623.73999999999,"N_COORD97":2561144.9900000002,"ADDRESS":"祥和二街１７６號","OBJECTID":144585},"geometry":{"x":165623.74000000115,"y":2561144.9900000002}},{"attributes":{"ID":144586,"DIS_CODE":0,"TOWNNAME":"學甲區","LI":"中洲里","LIN":"30鄰","STREET":" ","SECT":" ","MAREA":"中洲","LANE":" ","ALLEY":" ","HOUSE_NO":"４１５號","E_COORD97":163986.67999999999,"N_COORD97":2571856.5800000001,"ADDRESS":"中洲４１５號","OBJECTID":144586},"geometry":{"x":163986.6799999997,"y":2571856.5800000019}},{"attributes":{"ID":144587,"DIS_CODE":0,"TOWNNAME":"學甲區","LI":"中洲里","LIN":"30鄰","STREET":" ","SECT":" ","MAREA":"中洲","LANE":" ","ALLEY":" ","HOUSE_NO":"４１６號","E_COORD97":164005.35000000001,"N_COORD97":2571884.4100000001,"ADDRESS":"中洲４１６號","OBJECTID":144587},"geometry":{"x":164005.35000000056,"y":2571884.410000002}},{"attributes":{"ID":144588,"DIS_CODE":0,"TOWNNAME":"學甲區","LI":"中洲里","LIN":"30鄰","STREET":" ","SECT":" ","MAREA":"中洲","LANE":" ","ALLEY":" ","HOUSE_NO":"４１７號","E_COORD97":163986.48000000001,"N_COORD97":2571950.9700000002,"ADDRESS":"中洲４１７號","OBJECTID":144588},"geometry":{"x":163986.48000000138,"y":2571950.9700000007}},{"attributes":{"ID":144589,"DIS_CODE":0,"TOWNNAME":"學甲區","LI":"中洲里","LIN":"30鄰","STREET":" ","SECT":" ","MAREA":"中洲","LANE":" ","ALLEY":" ","HOUSE_NO":"４１８號之７２","E_COORD97":163906.16,"N_COORD97":2572409.21,"ADDRESS":"中洲４１８號之７２","OBJECTID":144589},"geometry":{"x":163906.16000000015,"y":2572409.2100000028}},{"attributes":{"ID":144590,"DIS_CODE":0,"TOWNNAME":"東區","LI":"忠孝里","LIN":"3鄰","STREET":"中華東路","SECT":"三段","MAREA":" ","LANE":"３３６巷","ALLEY":"４３弄","HOUSE_NO":"１８號三樓","E_COORD97":170047.22,"N_COORD97":2541705.04,"ADDRESS":"中華東路三段３３６巷４３弄１８號三樓","OBJECTID":144590},"geometry":{"x":170047.21999999974,"y":2541705.040000001}},{"attributes":{"ID":144591,"DIS_CODE":0,"TOWNNAME":"東區","LI":"忠孝里","LIN":"3鄰","STREET":"中華東路","SECT":"三段","MAREA":" ","LANE":"３３６巷","ALLEY":"４３弄","HOUSE_NO":"１８號三樓之１","E_COORD97":170047.22,"N_COORD97":2541705.04,"ADDRESS":"中華東路三段３３６巷４３弄１８號三樓之１","OBJECTID":144591},"geometry":{"x":170047.21999999974,"y":2541705.040000001}},{"attributes":{"ID":144592,"DIS_CODE":0,"TOWNNAME":"東區","LI":"忠孝里","LIN":"3鄰","STREET":"中華東路","SECT":"三段","MAREA":" ","LANE":"３３６巷","ALLEY":"４３弄","HOUSE_NO":"１８號三樓之２","E_COORD97":170047.22,"N_COORD97":2541705.04,"ADDRESS":"中華東路三段３３６巷４３弄１８號三樓之２","OBJECTID":144592},"geometry":{"x":170047.21999999974,"y":2541705.040000001}},{"attributes":{"ID":144593,"DIS_CODE":0,"TOWNNAME":"東區","LI":"忠孝里","LIN":"3鄰","STREET":"中華東路","SECT":"三段","MAREA":" ","LANE":"３３６巷","ALLEY":"４３弄","HOUSE_NO":"１８號三樓之３","E_COORD97":170047.22,"N_COORD97":2541705.04,"ADDRESS":"中華東路三段３３６巷４３弄１８號三樓之３","OBJECTID":144593},"geometry":{"x":170047.21999999974,"y":2541705.040000001}},{"attributes":{"ID":144594,"DIS_CODE":0,"TOWNNAME":"東區","LI":"忠孝里","LIN":"3鄰","STREET":"中華東路","SECT":"三段","MAREA":" ","LANE":"３３６巷","ALLEY":"４３弄","HOUSE_NO":"１８號三樓之５","E_COORD97":170047.22,"N_COORD97":2541705.04,"ADDRESS":"中華東路三段３３６巷４３弄１８號三樓之５","OBJECTID":144594},"geometry":{"x":170047.21999999974,"y":2541705.040000001}},{"attributes":{"ID":144595,"DIS_CODE":0,"TOWNNAME":"仁德區","LI":"仁愛里","LIN":"28鄰","STREET":"大同路","SECT":"三段","MAREA":" ","LANE":"３５８巷","ALLEY":" ","HOUSE_NO":"８０號","E_COORD97":169717.75700000001,"N_COORD97":2539377.9530000002,"ADDRESS":"大同路三段３５８巷８０號","OBJECTID":144595},"geometry":{"x":169717.75700000022,"y":2539377.9530000016}},{"attributes":{"ID":144596,"DIS_CODE":0,"TOWNNAME":"學甲區","LI":"中洲里","LIN":"30鄰","STREET":" ","SECT":" ","MAREA":"中洲","LANE":" ","ALLEY":" ","HOUSE_NO":"４１８號","E_COORD97":163949.60000000001,"N_COORD97":2571990.6299999999,"ADDRESS":"中洲４１８號","OBJECTID":144596},"geometry":{"x":163949.60000000056,"y":2571990.6300000008}},{"attributes":{"ID":144597,"DIS_CODE":0,"TOWNNAME":"學甲區","LI":"中洲里","LIN":"30鄰","STREET":" ","SECT":" ","MAREA":"中洲","LANE":" ","ALLEY":" ","HOUSE_NO":"４１９號","E_COORD97":164028.97,"N_COORD97":2571942.0099999998,"ADDRESS":"中洲４１９號","OBJECTID":144597},"geometry":{"x":164028.96999999974,"y":2571942.0100000016}},{"attributes":{"ID":144598,"DIS_CODE":0,"TOWNNAME":"佳里區","LI":"龍安里","LIN":"4鄰","STREET":" ","SECT":" ","MAREA":"塭子內","LANE":" ","ALLEY":" ","HOUSE_NO":"４１號之４","E_COORD97":164428.79999999999,"N_COORD97":2558366.9500000002,"ADDRESS":"塭子內４１號之４","OBJECTID":144598},"geometry":{"x":164428.79999999981,"y":2558366.9499999993}},{"attributes":{"ID":144599,"DIS_CODE":0,"TOWNNAME":"佳里區","LI":"龍安里","LIN":"4鄰","STREET":" ","SECT":" ","MAREA":"塭子內","LANE":" ","ALLEY":" ","HOUSE_NO":"４１號之５","E_COORD97":164428.91,"N_COORD97":2558361.9700000002,"ADDRESS":"塭子內４１號之５","OBJECTID":144599},"geometry":{"x":164428.91000000108,"y":2558361.9700000007}},{"attributes":{"ID":144600,"DIS_CODE":0,"TOWNNAME":"佳里區","LI":"龍安里","LIN":"4鄰","STREET":" ","SECT":" ","MAREA":"塭子內","LANE":" ","ALLEY":" ","HOUSE_NO":"４１號之７","E_COORD97":164429.10999999999,"N_COORD97":2558352.3100000001,"ADDRESS":"塭子內４１號之７","OBJECTID":144600},"geometry":{"x":164429.11000000034,"y":2558352.3100000005}}]}