{"displayFieldName":"TOWNNAME","fieldAliases":{"ID":"ID","DIS_CODE":"DIS_CODE","TOWNNAME":"TOWNNAME","LI":"LI","LIN":"LIN","STREET":"STREET","SECT":"SECT","MAREA":"MAREA","LANE":"LANE","ALLEY":"ALLEY","HOUSE_NO":"HOUSE_NO","E_COORD97":"E_COORD97","N_COORD97":"N_COORD97","ADDRESS":"ADDRESS","OBJECTID":"OBJECTID"},"geometryType":"esriGeometryPoint","spatialReference":{"wkid":102443,"latestWkid":3826},"fields":[{"name":"ID","type":"esriFieldTypeDouble","alias":"ID"},{"name":"DIS_CODE","type":"esriFieldTypeInteger","alias":"DIS_CODE"},{"name":"TOWNNAME","type":"esriFieldTypeString","alias":"TOWNNAME","length":8},{"name":"LI","type":"esriFieldTypeString","alias":"LI","length":8},{"name":"LIN","type":"esriFieldTypeString","alias":"LIN","length":12},{"name":"STREET","type":"esriFieldTypeString","alias":"STREET","length":20},{"name":"SECT","type":"esriFieldTypeString","alias":"SECT","length":8},{"name":"MAREA","type":"esriFieldTypeString","alias":"MAREA","length":12},{"name":"LANE","type":"esriFieldTypeString","alias":"LANE","length":10},{"name":"ALLEY","type":"esriFieldTypeString","alias":"ALLEY","length":10},{"name":"HOUSE_NO","type":"esriFieldTypeString","alias":"HOUSE_NO","length":20},{"name":"E_COORD97","type":"esriFieldTypeDouble","alias":"E_COORD97"},{"name":"N_COORD97","type":"esriFieldTypeDouble","alias":"N_COORD97"},{"name":"ADDRESS","type":"esriFieldTypeString","alias":"ADDRESS","length":50},{"name":"OBJECTID","type":"esriFieldTypeOID","alias":"OBJECTID"}],"features":[{"attributes":{"ID":337210,"DIS_CODE":0,"TOWNNAME":"麻豆區","LI":"小埤里","LIN":"5鄰","STREET":" ","SECT":" ","MAREA":"小埤頭","LANE":" ","ALLEY":" ","HOUSE_NO":"３０號之１０","E_COORD97":171556.73999999999,"N_COORD97":2566056.6600000001,"ADDRESS":"小埤頭３０號之１０","OBJECTID":337201},"geometry":{"x":171556.74000000115,"y":2566056.6600000001}},{"attributes":{"ID":337211,"DIS_CODE":0,"TOWNNAME":"麻豆區","LI":"小埤里","LIN":"5鄰","STREET":" ","SECT":" ","MAREA":"小埤頭","LANE":" ","ALLEY":" ","HOUSE_NO":"３０號之１１","E_COORD97":171546.95999999999,"N_COORD97":2566065.9700000002,"ADDRESS":"小埤頭３０號之１１","OBJECTID":337202},"geometry":{"x":171546.96000000089,"y":2566065.9700000044}},{"attributes":{"ID":337212,"DIS_CODE":0,"TOWNNAME":"麻豆區","LI":"小埤里","LIN":"5鄰","STREET":" ","SECT":" ","MAREA":"小埤頭","LANE":" ","ALLEY":" ","HOUSE_NO":"３０號之１２","E_COORD97":171546.76000000001,"N_COORD97":2566069.96,"ADDRESS":"小埤頭３０號之１２","OBJECTID":337203},"geometry":{"x":171546.75999999978,"y":2566069.9600000046}},{"attributes":{"ID":337213,"DIS_CODE":0,"TOWNNAME":"麻豆區","LI":"小埤里","LIN":"5鄰","STREET":" ","SECT":" ","MAREA":"小埤頭","LANE":" ","ALLEY":" ","HOUSE_NO":"３０號之１","E_COORD97":171504.51999999999,"N_COORD97":2566029.5499999998,"ADDRESS":"小埤頭３０號之１","OBJECTID":337204},"geometry":{"x":171504.51999999955,"y":2566029.5500000026}},{"attributes":{"ID":337214,"DIS_CODE":0,"TOWNNAME":"麻豆區","LI":"小埤里","LIN":"5鄰","STREET":" ","SECT":" ","MAREA":"小埤頭","LANE":" ","ALLEY":" ","HOUSE_NO":"３０號之２","E_COORD97":171527.01000000001,"N_COORD97":2566060.5499999998,"ADDRESS":"小埤頭３０號之２","OBJECTID":337205},"geometry":{"x":171527.00999999885,"y":2566060.5500000007}},{"attributes":{"ID":337215,"DIS_CODE":0,"TOWNNAME":"麻豆區","LI":"安正里","LIN":"5鄰","STREET":" ","SECT":" ","MAREA":"方厝寮","LANE":" ","ALLEY":" ","HOUSE_NO":"１８號之１","E_COORD97":171515.35000000001,"N_COORD97":2561737.6499999999,"ADDRESS":"方厝寮１８號之１","OBJECTID":337206},"geometry":{"x":171515.34999999963,"y":2561737.6500000004}},{"attributes":{"ID":337216,"DIS_CODE":0,"TOWNNAME":"麻豆區","LI":"安正里","LIN":"5鄰","STREET":" ","SECT":" ","MAREA":"方厝寮","LANE":" ","ALLEY":" ","HOUSE_NO":"１８號","E_COORD97":171490.06,"N_COORD97":2561754.6800000002,"ADDRESS":"方厝寮１８號","OBJECTID":337207},"geometry":{"x":171490.06000000052,"y":2561754.6800000016}},{"attributes":{"ID":337217,"DIS_CODE":0,"TOWNNAME":"麻豆區","LI":"安正里","LIN":"5鄰","STREET":" ","SECT":" ","MAREA":"方厝寮","LANE":" ","ALLEY":" ","HOUSE_NO":"８號之１","E_COORD97":171380.60000000001,"N_COORD97":2561790.6299999999,"ADDRESS":"方厝寮８號之１","OBJECTID":337208},"geometry":{"x":171380.60000000149,"y":2561790.629999999}},{"attributes":{"ID":337218,"DIS_CODE":0,"TOWNNAME":"麻豆區","LI":"安正里","LIN":"5鄰","STREET":" ","SECT":" ","MAREA":"方厝寮","LANE":" ","ALLEY":" ","HOUSE_NO":"８號之２","E_COORD97":171385.03,"N_COORD97":2561791.1499999999,"ADDRESS":"方厝寮８號之２","OBJECTID":337209},"geometry":{"x":171385.03000000212,"y":2561791.1500000004}},{"attributes":{"ID":337219,"DIS_CODE":0,"TOWNNAME":"麻豆區","LI":"安正里","LIN":"5鄰","STREET":" ","SECT":" ","MAREA":"方厝寮","LANE":" ","ALLEY":" ","HOUSE_NO":"８號之３","E_COORD97":171389.70000000001,"N_COORD97":2561791.75,"ADDRESS":"方厝寮８號之３","OBJECTID":337210},"geometry":{"x":171389.70000000112,"y":2561791.7500000037}},{"attributes":{"ID":337220,"DIS_CODE":0,"TOWNNAME":"麻豆區","LI":"安正里","LIN":"5鄰","STREET":" ","SECT":" ","MAREA":"方厝寮","LANE":" ","ALLEY":" ","HOUSE_NO":"８號之４","E_COORD97":171394.25,"N_COORD97":2561791.96,"ADDRESS":"方厝寮８號之４","OBJECTID":337211},"geometry":{"x":171394.25000000093,"y":2561791.9600000028}},{"attributes":{"ID":337221,"DIS_CODE":0,"TOWNNAME":"麻豆區","LI":"安正里","LIN":"5鄰","STREET":" ","SECT":" ","MAREA":"方厝寮","LANE":" ","ALLEY":" ","HOUSE_NO":"８號之５","E_COORD97":171398.79999999999,"N_COORD97":2561793.1800000002,"ADDRESS":"方厝寮８號之５","OBJECTID":337212},"geometry":{"x":171398.80000000075,"y":2561793.1800000016}},{"attributes":{"ID":337222,"DIS_CODE":0,"TOWNNAME":"麻豆區","LI":"安正里","LIN":"5鄰","STREET":" ","SECT":" ","MAREA":"方厝寮","LANE":" ","ALLEY":" ","HOUSE_NO":"８號之６","E_COORD97":171403.28,"N_COORD97":2561793.3900000001,"ADDRESS":"方厝寮８號之６","OBJECTID":337213},"geometry":{"x":171403.28000000026,"y":2561793.3900000006}},{"attributes":{"ID":337223,"DIS_CODE":0,"TOWNNAME":"麻豆區","LI":"安正里","LIN":"5鄰","STREET":" ","SECT":" ","MAREA":"方厝寮","LANE":" ","ALLEY":" ","HOUSE_NO":"８號之７","E_COORD97":171407.91,"N_COORD97":2561793.8399999999,"ADDRESS":"方厝寮８號之７","OBJECTID":337214},"geometry":{"x":171407.91000000201,"y":2561793.8399999999}},{"attributes":{"ID":337224,"DIS_CODE":0,"TOWNNAME":"麻豆區","LI":"安正里","LIN":"5鄰","STREET":" ","SECT":" ","MAREA":"方厝寮","LANE":" ","ALLEY":" ","HOUSE_NO":"８號之８","E_COORD97":171412.44,"N_COORD97":2561794.3100000001,"ADDRESS":"方厝寮８號之８","OBJECTID":337215},"geometry":{"x":171412.44000000041,"y":2561794.3100000005}},{"attributes":{"ID":337225,"DIS_CODE":0,"TOWNNAME":"麻豆區","LI":"北勢里","LIN":"5鄰","STREET":" ","SECT":" ","MAREA":"北勢寮","LANE":" ","ALLEY":" ","HOUSE_NO":"１號之２","E_COORD97":172660.73000000001,"N_COORD97":2567139.5299999998,"ADDRESS":"北勢寮１號之２","OBJECTID":337216},"geometry":{"x":172660.73000000138,"y":2567139.5300000012}},{"attributes":{"ID":337226,"DIS_CODE":0,"TOWNNAME":"麻豆區","LI":"北勢里","LIN":"5鄰","STREET":" ","SECT":" ","MAREA":"北勢寮","LANE":" ","ALLEY":" ","HOUSE_NO":"１號之３","E_COORD97":172665.32000000001,"N_COORD97":2567140.4300000002,"ADDRESS":"北勢寮１號之３","OBJECTID":337217},"geometry":{"x":172665.32000000123,"y":2567140.4300000016}},{"attributes":{"ID":337227,"DIS_CODE":0,"TOWNNAME":"麻豆區","LI":"北勢里","LIN":"5鄰","STREET":" ","SECT":" ","MAREA":"北勢寮","LANE":" ","ALLEY":" ","HOUSE_NO":"２號之２","E_COORD97":172487.42999999999,"N_COORD97":2567289.79,"ADDRESS":"北勢寮２號之２","OBJECTID":337218},"geometry":{"x":172487.43000000063,"y":2567289.790000001}},{"attributes":{"ID":337228,"DIS_CODE":0,"TOWNNAME":"麻豆區","LI":"北勢里","LIN":"5鄰","STREET":" ","SECT":" ","MAREA":"北勢寮","LANE":" ","ALLEY":" ","HOUSE_NO":"３號之１","E_COORD97":172656.89999999999,"N_COORD97":2567016.9199999999,"ADDRESS":"北勢寮３號之１","OBJECTID":337219},"geometry":{"x":172656.90000000037,"y":2567016.9199999999}},{"attributes":{"ID":337229,"DIS_CODE":0,"TOWNNAME":"新市區","LI":"大社里","LIN":"5鄰","STREET":" ","SECT":" ","MAREA":"大社","LANE":" ","ALLEY":" ","HOUSE_NO":"１４３號","E_COORD97":180162.62,"N_COORD97":2554208,"ADDRESS":"大社１４３號","OBJECTID":337220},"geometry":{"x":180162.62000000104,"y":2554208}},{"attributes":{"ID":337230,"DIS_CODE":0,"TOWNNAME":"新市區","LI":"豐華里","LIN":"5鄰","STREET":" ","SECT":" ","MAREA":"豐華","LANE":" ","ALLEY":" ","HOUSE_NO":"３５之１號","E_COORD97":173810.20000000001,"N_COORD97":2554337.5499999998,"ADDRESS":"豐華３５之１號","OBJECTID":337221},"geometry":{"x":173810.20000000112,"y":2554337.5500000007}},{"attributes":{"ID":337231,"DIS_CODE":0,"TOWNNAME":"中西區","LI":"建國里","LIN":"5鄰","STREET":"中正路","SECT":" ","MAREA":" ","LANE":"１３８巷","ALLEY":" ","HOUSE_NO":"７號","E_COORD97":167929.89000000001,"N_COORD97":2543746.25,"ADDRESS":"中正路１３８巷７號","OBJECTID":337222},"geometry":{"x":167929.88999999966,"y":2543746.25}},{"attributes":{"ID":337232,"DIS_CODE":0,"TOWNNAME":"永康區","LI":"勝利里","LIN":"1鄰","STREET":"勝利街","SECT":" ","MAREA":" ","LANE":"１巷","ALLEY":" ","HOUSE_NO":"６號","E_COORD97":171114.73999999999,"N_COORD97":2544576.5099999998,"ADDRESS":"勝利街１巷６號","OBJECTID":337223},"geometry":{"x":171114.74000000115,"y":2544576.5100000035}},{"attributes":{"ID":337233,"DIS_CODE":0,"TOWNNAME":"永康區","LI":"復國里","LIN":"1鄰","STREET":"復國二路","SECT":" ","MAREA":" ","LANE":"１０巷","ALLEY":" ","HOUSE_NO":"１３號","E_COORD97":172875,"N_COORD97":2544761.54,"ADDRESS":"復國二路１０巷１３號","OBJECTID":337224},"geometry":{"x":172874.99999999907,"y":2544761.5399999991}},{"attributes":{"ID":337234,"DIS_CODE":0,"TOWNNAME":"永康區","LI":"復國里","LIN":"1鄰","STREET":"復國二路","SECT":" ","MAREA":" ","LANE":"１４巷","ALLEY":" ","HOUSE_NO":"１１號","E_COORD97":172867.76000000001,"N_COORD97":2544783.2599999998,"ADDRESS":"復國二路１４巷１１號","OBJECTID":337225},"geometry":{"x":172867.75999999978,"y":2544783.2600000016}},{"attributes":{"ID":337235,"DIS_CODE":0,"TOWNNAME":"永康區","LI":"崑山里","LIN":"1鄰","STREET":"永大路","SECT":"一段","MAREA":" ","LANE":"２８７巷","ALLEY":" ","HOUSE_NO":"９８號","E_COORD97":173775.95000000001,"N_COORD97":2544375.4700000002,"ADDRESS":"永大路一段２８７巷９８號","OBJECTID":337226},"geometry":{"x":173775.95000000112,"y":2544375.4700000025}},{"attributes":{"ID":337236,"DIS_CODE":0,"TOWNNAME":"永康區","LI":"崑山里","LIN":"1鄰","STREET":"永大路","SECT":"一段","MAREA":" ","LANE":"２８７巷","ALLEY":" ","HOUSE_NO":"９２號","E_COORD97":173792.26000000001,"N_COORD97":2544387.4199999999,"ADDRESS":"永大路一段２８７巷９２號","OBJECTID":337227},"geometry":{"x":173792.26000000071,"y":2544387.4200000037}},{"attributes":{"ID":337237,"DIS_CODE":0,"TOWNNAME":"永康區","LI":"崑山里","LIN":"1鄰","STREET":"永大路","SECT":"一段","MAREA":" ","LANE":"２８７巷","ALLEY":" ","HOUSE_NO":"１００號","E_COORD97":173767.75,"N_COORD97":2544374.2200000002,"ADDRESS":"永大路一段２８７巷１００號","OBJECTID":337228},"geometry":{"x":173767.75,"y":2544374.2200000025}},{"attributes":{"ID":337238,"DIS_CODE":0,"TOWNNAME":"永康區","LI":"勝利里","LIN":"1鄰","STREET":"勝利街","SECT":" ","MAREA":" ","LANE":"１巷","ALLEY":" ","HOUSE_NO":"７號","E_COORD97":171110.76999999999,"N_COORD97":2544577.5099999998,"ADDRESS":"勝利街１巷７號","OBJECTID":337229},"geometry":{"x":171110.76999999955,"y":2544577.5100000016}},{"attributes":{"ID":337239,"DIS_CODE":0,"TOWNNAME":"永康區","LI":"神洲里","LIN":"1鄰","STREET":"忠孝路","SECT":" ","MAREA":" ","LANE":"６巷","ALLEY":" ","HOUSE_NO":"５號","E_COORD97":172116.14999999999,"N_COORD97":2544583.25,"ADDRESS":"忠孝路６巷５號","OBJECTID":337230},"geometry":{"x":172116.15000000037,"y":2544583.2500000019}},{"attributes":{"ID":337240,"DIS_CODE":0,"TOWNNAME":"永康區","LI":"復國里","LIN":"1鄰","STREET":"復國二路","SECT":" ","MAREA":" ","LANE":"１８巷","ALLEY":" ","HOUSE_NO":"１４號","E_COORD97":172870.89999999999,"N_COORD97":2544848.3799999999,"ADDRESS":"復國二路１８巷１４號","OBJECTID":337231},"geometry":{"x":172870.90000000037,"y":2544848.3800000008}},{"attributes":{"ID":337241,"DIS_CODE":0,"TOWNNAME":"永康區","LI":"復國里","LIN":"1鄰","STREET":"復國二路","SECT":" ","MAREA":" ","LANE":"２８巷","ALLEY":" ","HOUSE_NO":"３號","E_COORD97":172871.53,"N_COORD97":2544900.5299999998,"ADDRESS":"復國二路２８巷３號","OBJECTID":337232},"geometry":{"x":172871.53000000026,"y":2544900.5299999993}},{"attributes":{"ID":337242,"DIS_CODE":0,"TOWNNAME":"永康區","LI":"\u25A0行里","LIN":"1鄰","STREET":"中正北路","SECT":" ","MAREA":" ","LANE":"１０２巷","ALLEY":" ","HOUSE_NO":"４號","E_COORD97":172268.01999999999,"N_COORD97":2549035.5,"ADDRESS":"中正北路１０２巷４號","OBJECTID":337233},"geometry":{"x":172268.02000000048,"y":2549035.5000000037}},{"attributes":{"ID":337243,"DIS_CODE":0,"TOWNNAME":"永康區","LI":"復國里","LIN":"1鄰","STREET":"復國二路","SECT":" ","MAREA":" ","LANE":"１６巷","ALLEY":" ","HOUSE_NO":"１１號","E_COORD97":172866.35000000001,"N_COORD97":2544822.5699999998,"ADDRESS":"復國二路１６巷１１號","OBJECTID":337234},"geometry":{"x":172866.35000000056,"y":2544822.5700000003}},{"attributes":{"ID":337244,"DIS_CODE":0,"TOWNNAME":"永康區","LI":"復國里","LIN":"1鄰","STREET":"復國二路","SECT":" ","MAREA":" ","LANE":"１４巷","ALLEY":" ","HOUSE_NO":"５號","E_COORD97":172854.01999999999,"N_COORD97":2544783.2599999998,"ADDRESS":"復國二路１４巷５號","OBJECTID":337235},"geometry":{"x":172854.01999999862,"y":2544783.2600000016}},{"attributes":{"ID":337245,"DIS_CODE":0,"TOWNNAME":"永康區","LI":"復國里","LIN":"1鄰","STREET":"復國二路","SECT":" ","MAREA":" ","LANE":"１０巷","ALLEY":" ","HOUSE_NO":"１號","E_COORD97":172843.97,"N_COORD97":2544761.29,"ADDRESS":"復國二路１０巷１號","OBJECTID":337236},"geometry":{"x":172843.96999999974,"y":2544761.290000001}},{"attributes":{"ID":337246,"DIS_CODE":0,"TOWNNAME":"永康區","LI":"勝利里","LIN":"1鄰","STREET":"勝利街","SECT":" ","MAREA":" ","LANE":"１巷","ALLEY":" ","HOUSE_NO":"９號","E_COORD97":171102.67999999999,"N_COORD97":2544579.7599999998,"ADDRESS":"勝利街１巷９號","OBJECTID":337237},"geometry":{"x":171102.68000000063,"y":2544579.7600000016}},{"attributes":{"ID":337247,"DIS_CODE":0,"TOWNNAME":"永康區","LI":"勝利里","LIN":"1鄰","STREET":"勝利街","SECT":" ","MAREA":" ","LANE":"１巷","ALLEY":" ","HOUSE_NO":"１０號","E_COORD97":171099.67000000001,"N_COORD97":2544581.0099999998,"ADDRESS":"勝利街１巷１０號","OBJECTID":337238},"geometry":{"x":171099.67000000086,"y":2544581.0100000016}},{"attributes":{"ID":337248,"DIS_CODE":0,"TOWNNAME":"永康區","LI":"復國里","LIN":"1鄰","STREET":"復國二路","SECT":" ","MAREA":" ","LANE":"１０巷","ALLEY":" ","HOUSE_NO":"８號","E_COORD97":172854.51999999999,"N_COORD97":2544752.7000000002,"ADDRESS":"復國二路１０巷８號","OBJECTID":337239},"geometry":{"x":172854.52000000048,"y":2544752.7000000011}},{"attributes":{"ID":337249,"DIS_CODE":0,"TOWNNAME":"東區","LI":"裕聖里","LIN":"1鄰","STREET":"裕忠一街","SECT":" ","MAREA":" ","LANE":" ","ALLEY":" ","HOUSE_NO":"２１號","E_COORD97":172314.5,"N_COORD97":2542419.5,"ADDRESS":"裕忠一街２１號","OBJECTID":337240},"geometry":{"x":172314.50000000093,"y":2542419.5}},{"attributes":{"ID":337250,"DIS_CODE":0,"TOWNNAME":"仁德區","LI":"仁德里","LIN":"5鄰","STREET":"仁德四街","SECT":" ","MAREA":" ","LANE":"１２巷","ALLEY":" ","HOUSE_NO":"５號","E_COORD97":173247.91,"N_COORD97":2540867.54,"ADDRESS":"仁德四街１２巷５號","OBJECTID":337241},"geometry":{"x":173247.91000000108,"y":2540867.540000001}},{"attributes":{"ID":337251,"DIS_CODE":0,"TOWNNAME":"白河區","LI":"虎山里","LIN":"5鄰","STREET":" ","SECT":" ","MAREA":"木屐寮","LANE":" ","ALLEY":" ","HOUSE_NO":"７２之１號","E_COORD97":195638.94,"N_COORD97":2583406.5299999998,"ADDRESS":"木屐寮７２之１號","OBJECTID":337242},"geometry":{"x":195638.94000000227,"y":2583406.5300000012}},{"attributes":{"ID":337252,"DIS_CODE":0,"TOWNNAME":"白河區","LI":"虎山里","LIN":"5鄰","STREET":" ","SECT":" ","MAREA":"木屐寮","LANE":" ","ALLEY":" ","HOUSE_NO":"７２之２號","E_COORD97":195668.35999999999,"N_COORD97":2583470.6099999999,"ADDRESS":"木屐寮７２之２號","OBJECTID":337243},"geometry":{"x":195668.36000000127,"y":2583470.6100000013}},{"attributes":{"ID":337253,"DIS_CODE":0,"TOWNNAME":"仁德區","LI":"仁德里","LIN":"5鄰","STREET":"仁德四街","SECT":" ","MAREA":" ","LANE":"１２巷","ALLEY":" ","HOUSE_NO":"１３號","E_COORD97":173245.51999999999,"N_COORD97":2540883.04,"ADDRESS":"仁德四街１２巷１３號","OBJECTID":337244},"geometry":{"x":173245.51999999955,"y":2540883.0399999991}},{"attributes":{"ID":337254,"DIS_CODE":0,"TOWNNAME":"白河區","LI":"虎山里","LIN":"5鄰","STREET":" ","SECT":" ","MAREA":"木屐寮","LANE":" ","ALLEY":" ","HOUSE_NO":"７２之６號","E_COORD97":195853.26000000001,"N_COORD97":2583396.3199999998,"ADDRESS":"木屐寮７２之６號","OBJECTID":337245},"geometry":{"x":195853.26000000071,"y":2583396.3200000022}},{"attributes":{"ID":337255,"DIS_CODE":0,"TOWNNAME":"仁德區","LI":"仁德里","LIN":"5鄰","STREET":"仁德四街","SECT":" ","MAREA":" ","LANE":"１２巷","ALLEY":" ","HOUSE_NO":"１０號","E_COORD97":173261.98000000001,"N_COORD97":2540882.1299999999,"ADDRESS":"仁德四街１２巷１０號","OBJECTID":337246},"geometry":{"x":173261.98000000045,"y":2540882.129999999}},{"attributes":{"ID":337256,"DIS_CODE":0,"TOWNNAME":"白河區","LI":"虎山里","LIN":"5鄰","STREET":" ","SECT":" ","MAREA":"木屐寮","LANE":" ","ALLEY":" ","HOUSE_NO":"７２號","E_COORD97":195774.20000000001,"N_COORD97":2583470.2000000002,"ADDRESS":"木屐寮７２號","OBJECTID":337247},"geometry":{"x":195774.20000000205,"y":2583470.2000000011}},{"attributes":{"ID":337257,"DIS_CODE":0,"TOWNNAME":"白河區","LI":"虎山里","LIN":"5鄰","STREET":" ","SECT":" ","MAREA":"木屐寮","LANE":" ","ALLEY":" ","HOUSE_NO":"７３之１號","E_COORD97":195229.16,"N_COORD97":2583440.5800000001,"ADDRESS":"木屐寮７３之１號","OBJECTID":337248},"geometry":{"x":195229.16000000108,"y":2583440.5800000038}},{"attributes":{"ID":337258,"DIS_CODE":0,"TOWNNAME":"白河區","LI":"虎山里","LIN":"5鄰","STREET":" ","SECT":" ","MAREA":"木屐寮","LANE":" ","ALLEY":" ","HOUSE_NO":"７３之４號","E_COORD97":195366.38,"N_COORD97":2583461.1099999999,"ADDRESS":"木屐寮７３之４號","OBJECTID":337249},"geometry":{"x":195366.38000000082,"y":2583461.1100000013}},{"attributes":{"ID":337259,"DIS_CODE":0,"TOWNNAME":"仁德區","LI":"仁德里","LIN":"5鄰","STREET":"仁德四街","SECT":" ","MAREA":" ","LANE":"１２巷","ALLEY":" ","HOUSE_NO":"３號","E_COORD97":173248.04999999999,"N_COORD97":2540864.04,"ADDRESS":"仁德四街１２巷３號","OBJECTID":337250},"geometry":{"x":173248.05000000075,"y":2540864.040000001}},{"attributes":{"ID":337260,"DIS_CODE":0,"TOWNNAME":"仁德區","LI":"仁德里","LIN":"5鄰","STREET":"仁德四街","SECT":" ","MAREA":" ","LANE":"１２巷","ALLEY":" ","HOUSE_NO":"８號","E_COORD97":173261.53,"N_COORD97":2540878.1299999999,"ADDRESS":"仁德四街１２巷８號","OBJECTID":337251},"geometry":{"x":173261.52999999933,"y":2540878.129999999}},{"attributes":{"ID":337261,"DIS_CODE":0,"TOWNNAME":"仁德區","LI":"後壁里","LIN":"5鄰","STREET":"德善路","SECT":" ","MAREA":" ","LANE":"１３９巷","ALLEY":" ","HOUSE_NO":"１６號","E_COORD97":173469.54000000001,"N_COORD97":2538923.5099999998,"ADDRESS":"德善路１３９巷１６號","OBJECTID":337252},"geometry":{"x":173469.54000000004,"y":2538923.5099999998}},{"attributes":{"ID":337262,"DIS_CODE":0,"TOWNNAME":"仁德區","LI":"新田里","LIN":"5鄰","STREET":"勝利二街","SECT":" ","MAREA":" ","LANE":"３９巷","ALLEY":" ","HOUSE_NO":"７號","E_COORD97":174896.51999999999,"N_COORD97":2539281.2599999998,"ADDRESS":"勝利二街３９巷７號","OBJECTID":337253},"geometry":{"x":174896.51999999955,"y":2539281.2599999998}},{"attributes":{"ID":337263,"DIS_CODE":0,"TOWNNAME":"仁德區","LI":"新田里","LIN":"5鄰","STREET":"勝利二街","SECT":" ","MAREA":" ","LANE":"２９巷","ALLEY":" ","HOUSE_NO":"７號","E_COORD97":174909.29000000001,"N_COORD97":2539311.5,"ADDRESS":"勝利二街２９巷７號","OBJECTID":337254},"geometry":{"x":174909.29000000097,"y":2539311.5000000037}},{"attributes":{"ID":337264,"DIS_CODE":0,"TOWNNAME":"中西區","LI":"協和里","LIN":"8鄰","STREET":"臨安路","SECT":"一段","MAREA":" ","LANE":" ","ALLEY":" ","HOUSE_NO":"２１７號","E_COORD97":167274.70999999999,"N_COORD97":2544657.4100000001,"ADDRESS":"臨安路一段２１７號","OBJECTID":337255},"geometry":{"x":167274.71000000089,"y":2544657.4100000001}},{"attributes":{"ID":337265,"DIS_CODE":0,"TOWNNAME":"中西區","LI":"協和里","LIN":"8鄰","STREET":"臨安路","SECT":"一段","MAREA":" ","LANE":" ","ALLEY":" ","HOUSE_NO":"２１９號","E_COORD97":167277.75,"N_COORD97":2544660.6499999999,"ADDRESS":"臨安路一段２１９號","OBJECTID":337256},"geometry":{"x":167277.75000000093,"y":2544660.6500000004}},{"attributes":{"ID":337266,"DIS_CODE":0,"TOWNNAME":"中西區","LI":"協和里","LIN":"8鄰","STREET":"臨安路","SECT":"一段","MAREA":" ","LANE":" ","ALLEY":" ","HOUSE_NO":"２２１號","E_COORD97":167281.20000000001,"N_COORD97":2544663.6899999999,"ADDRESS":"臨安路一段２２１號","OBJECTID":337257},"geometry":{"x":167281.20000000019,"y":2544663.6900000013}},{"attributes":{"ID":337267,"DIS_CODE":0,"TOWNNAME":"中西區","LI":"協和里","LIN":"8鄰","STREET":"臨安路","SECT":"一段","MAREA":" ","LANE":" ","ALLEY":" ","HOUSE_NO":"２２３號","E_COORD97":167284.85000000001,"N_COORD97":2544666.9300000002,"ADDRESS":"臨安路一段２２３號","OBJECTID":337258},"geometry":{"x":167284.8499999987,"y":2544666.9299999997}},{"attributes":{"ID":337268,"DIS_CODE":0,"TOWNNAME":"中西區","LI":"協和里","LIN":"8鄰","STREET":"臨安路","SECT":"一段","MAREA":" ","LANE":" ","ALLEY":" ","HOUSE_NO":"２２５號","E_COORD97":167288.29000000001,"N_COORD97":2544669.7599999998,"ADDRESS":"臨安路一段２２５號","OBJECTID":337259},"geometry":{"x":167288.29000000097,"y":2544669.7600000035}},{"attributes":{"ID":337269,"DIS_CODE":0,"TOWNNAME":"中西區","LI":"協和里","LIN":"8鄰","STREET":"臨安路","SECT":"一段","MAREA":" ","LANE":" ","ALLEY":" ","HOUSE_NO":"２２７號","E_COORD97":167292.34,"N_COORD97":2544671.9900000002,"ADDRESS":"臨安路一段２２７號","OBJECTID":337260},"geometry":{"x":167292.34000000078,"y":2544671.9900000039}},{"attributes":{"ID":337270,"DIS_CODE":0,"TOWNNAME":"中西區","LI":"協和里","LIN":"8鄰","STREET":"臨安路","SECT":"一段","MAREA":" ","LANE":" ","ALLEY":" ","HOUSE_NO":"２２９號","E_COORD97":167295.59,"N_COORD97":2544675.23,"ADDRESS":"臨安路一段２２９號","OBJECTID":337261},"geometry":{"x":167295.59000000078,"y":2544675.2300000023}},{"attributes":{"ID":337271,"DIS_CODE":0,"TOWNNAME":"中西區","LI":"協和里","LIN":"8鄰","STREET":"臨安路","SECT":"一段","MAREA":" ","LANE":" ","ALLEY":" ","HOUSE_NO":"２３１號","E_COORD97":167298.82999999999,"N_COORD97":2544678.2599999998,"ADDRESS":"臨安路一段２３１號","OBJECTID":337262},"geometry":{"x":167298.83000000007,"y":2544678.2600000016}},{"attributes":{"ID":337272,"DIS_CODE":0,"TOWNNAME":"白河區","LI":"甘宅里","LIN":"5鄰","STREET":" ","SECT":" ","MAREA":"甘宅","LANE":" ","ALLEY":" ","HOUSE_NO":"５４之７號","E_COORD97":192410.63,"N_COORD97":2586816.9500000002,"ADDRESS":"甘宅５４之７號","OBJECTID":337263},"geometry":{"x":192410.62999999989,"y":2586816.9499999974}},{"attributes":{"ID":337273,"DIS_CODE":0,"TOWNNAME":"白河區","LI":"白河里","LIN":"1鄰","STREET":"中山路","SECT":" ","MAREA":" ","LANE":"１６巷","ALLEY":" ","HOUSE_NO":"３號","E_COORD97":190159.16,"N_COORD97":2582888.3100000001,"ADDRESS":"中山路１６巷３號","OBJECTID":337264},"geometry":{"x":190159.16000000015,"y":2582888.3100000005}},{"attributes":{"ID":337274,"DIS_CODE":0,"TOWNNAME":"白河區","LI":"甘宅里","LIN":"5鄰","STREET":" ","SECT":" ","MAREA":"甘宅","LANE":" ","ALLEY":" ","HOUSE_NO":"５４之８號","E_COORD97":192405.57000000001,"N_COORD97":2586817.3300000001,"ADDRESS":"甘宅５４之８號","OBJECTID":337265},"geometry":{"x":192405.57000000123,"y":2586817.3300000001}},{"attributes":{"ID":337275,"DIS_CODE":0,"TOWNNAME":"白河區","LI":"甘宅里","LIN":"5鄰","STREET":" ","SECT":" ","MAREA":"甘宅","LANE":" ","ALLEY":" ","HOUSE_NO":"５４號","E_COORD97":192476.28,"N_COORD97":2586807.2200000002,"ADDRESS":"甘宅５４號","OBJECTID":337266},"geometry":{"x":192476.28000000026,"y":2586807.2200000025}},{"attributes":{"ID":337276,"DIS_CODE":0,"TOWNNAME":"新市區","LI":"豐華里","LIN":"5鄰","STREET":" ","SECT":" ","MAREA":"豐華","LANE":" ","ALLEY":" ","HOUSE_NO":"３８之６１號","E_COORD97":173175.17999999999,"N_COORD97":2555128.5499999998,"ADDRESS":"豐華３８之６１號","OBJECTID":337267},"geometry":{"x":173175.17999999877,"y":2555128.5500000026}},{"attributes":{"ID":337277,"DIS_CODE":0,"TOWNNAME":"永康區","LI":"正強里","LIN":"5鄰","STREET":"中正路","SECT":" ","MAREA":" ","LANE":"５５巷","ALLEY":" ","HOUSE_NO":"２６號","E_COORD97":173538.12,"N_COORD97":2547753.75,"ADDRESS":"中正路５５巷２６號","OBJECTID":337268},"geometry":{"x":173538.12000000011,"y":2547753.75}},{"attributes":{"ID":337278,"DIS_CODE":0,"TOWNNAME":"永康區","LI":"正強里","LIN":"5鄰","STREET":"中正路","SECT":" ","MAREA":" ","LANE":"５５巷","ALLEY":" ","HOUSE_NO":"４２號","E_COORD97":173558.17999999999,"N_COORD97":2547689.75,"ADDRESS":"中正路５５巷４２號","OBJECTID":337269},"geometry":{"x":173558.1799999997,"y":2547689.75}},{"attributes":{"ID":337279,"DIS_CODE":0,"TOWNNAME":"永康區","LI":"正強里","LIN":"5鄰","STREET":"中正路","SECT":" ","MAREA":" ","LANE":"５５巷","ALLEY":" ","HOUSE_NO":"４４號","E_COORD97":173559.51999999999,"N_COORD97":2547685.25,"ADDRESS":"中正路５５巷４４號","OBJECTID":337270},"geometry":{"x":173559.52000000048,"y":2547685.2500000019}},{"attributes":{"ID":337280,"DIS_CODE":0,"TOWNNAME":"安南區","LI":"安富里","LIN":"1鄰","STREET":"郡安路","SECT":"五段","MAREA":" ","LANE":"１９２巷","ALLEY":" ","HOUSE_NO":"２２號","E_COORD97":167344.66,"N_COORD97":2547739.6099999999,"ADDRESS":"郡安路五段１９２巷２２號","OBJECTID":337271},"geometry":{"x":167344.66000000108,"y":2547739.6100000013}},{"attributes":{"ID":337281,"DIS_CODE":0,"TOWNNAME":"安南區","LI":"安富里","LIN":"1鄰","STREET":"郡安路","SECT":"五段","MAREA":" ","LANE":"１９２巷","ALLEY":" ","HOUSE_NO":"２５號","E_COORD97":167350.63,"N_COORD97":2547716.6800000002,"ADDRESS":"郡安路五段１９２巷２５號","OBJECTID":337272},"geometry":{"x":167350.62999999989,"y":2547716.6799999997}},{"attributes":{"ID":337282,"DIS_CODE":0,"TOWNNAME":"安南區","LI":"安富里","LIN":"1鄰","STREET":"郡安路","SECT":"五段","MAREA":" ","LANE":"１９２巷","ALLEY":" ","HOUSE_NO":"２７號","E_COORD97":167345.57999999999,"N_COORD97":2547717.5899999999,"ADDRESS":"郡安路五段１９２巷２７號","OBJECTID":337273},"geometry":{"x":167345.58000000101,"y":2547717.5899999999}},{"attributes":{"ID":337283,"DIS_CODE":0,"TOWNNAME":"安南區","LI":"安富里","LIN":"1鄰","STREET":"郡安路","SECT":"五段","MAREA":" ","LANE":"１９２巷","ALLEY":" ","HOUSE_NO":"２８號","E_COORD97":167320.35000000001,"N_COORD97":2547735.4900000002,"ADDRESS":"郡安路五段１９２巷２８號","OBJECTID":337274},"geometry":{"x":167320.34999999963,"y":2547735.4900000002}},{"attributes":{"ID":337284,"DIS_CODE":0,"TOWNNAME":"安南區","LI":"安富里","LIN":"1鄰","STREET":"郡安路","SECT":"五段","MAREA":" ","LANE":"１９２巷","ALLEY":" ","HOUSE_NO":"２９號","E_COORD97":167340.07999999999,"N_COORD97":2547717.3599999999,"ADDRESS":"郡安路五段１９２巷２９號","OBJECTID":337275},"geometry":{"x":167340.08000000101,"y":2547717.3600000013}},{"attributes":{"ID":337285,"DIS_CODE":0,"TOWNNAME":"安南區","LI":"安富里","LIN":"1鄰","STREET":"郡安路","SECT":"五段","MAREA":" ","LANE":"１９２巷","ALLEY":" ","HOUSE_NO":"３０號","E_COORD97":167309.10999999999,"N_COORD97":2547732.7400000002,"ADDRESS":"郡安路五段１９２巷３０號","OBJECTID":337276},"geometry":{"x":167309.11000000034,"y":2547732.7400000021}},{"attributes":{"ID":337286,"DIS_CODE":0,"TOWNNAME":"柳營區","LI":"太康里","LIN":"5鄰","STREET":" ","SECT":" ","MAREA":"太康","LANE":" ","ALLEY":" ","HOUSE_NO":"４５號","E_COORD97":181454.87,"N_COORD97":2576378.7000000002,"ADDRESS":"太康４５號","OBJECTID":337277},"geometry":{"x":181454.87000000011,"y":2576378.6999999993}},{"attributes":{"ID":337287,"DIS_CODE":0,"TOWNNAME":"新市區","LI":"豐華里","LIN":"5鄰","STREET":" ","SECT":" ","MAREA":"豐華","LANE":" ","ALLEY":" ","HOUSE_NO":"３５之２號","E_COORD97":173830.76999999999,"N_COORD97":2554331.5499999998,"ADDRESS":"豐華３５之２號","OBJECTID":337278},"geometry":{"x":173830.77000000048,"y":2554331.5500000045}},{"attributes":{"ID":337288,"DIS_CODE":0,"TOWNNAME":"永康區","LI":"復國里","LIN":"1鄰","STREET":"復國二路","SECT":" ","MAREA":" ","LANE":"１４巷","ALLEY":" ","HOUSE_NO":"９號","E_COORD97":172862.26999999999,"N_COORD97":2544783.2599999998,"ADDRESS":"復國二路１４巷９號","OBJECTID":337279},"geometry":{"x":172862.26999999955,"y":2544783.2600000016}},{"attributes":{"ID":337289,"DIS_CODE":0,"TOWNNAME":"安南區","LI":"安富里","LIN":"1鄰","STREET":"郡安路","SECT":"五段","MAREA":" ","LANE":"１９２巷","ALLEY":" ","HOUSE_NO":"３１號","E_COORD97":167335.48999999999,"N_COORD97":2547715.9900000002,"ADDRESS":"郡安路五段１９２巷３１號","OBJECTID":337280},"geometry":{"x":167335.49000000209,"y":2547715.9900000002}},{"attributes":{"ID":337290,"DIS_CODE":0,"TOWNNAME":"安南區","LI":"安富里","LIN":"1鄰","STREET":"郡安路","SECT":"五段","MAREA":" ","LANE":"１９２巷","ALLEY":" ","HOUSE_NO":"３３號","E_COORD97":167330.67000000001,"N_COORD97":2547713.4700000002,"ADDRESS":"郡安路五段１９２巷３３號","OBJECTID":337281},"geometry":{"x":167330.67000000179,"y":2547713.4700000007}},{"attributes":{"ID":337291,"DIS_CODE":0,"TOWNNAME":"安南區","LI":"安富里","LIN":"1鄰","STREET":"郡安路","SECT":"五段","MAREA":" ","LANE":"１９２巷","ALLEY":" ","HOUSE_NO":"３４號","E_COORD97":167291.22,"N_COORD97":2547730.9100000001,"ADDRESS":"郡安路五段１９２巷３４號","OBJECTID":337282},"geometry":{"x":167291.22000000067,"y":2547730.9100000039}},{"attributes":{"ID":337292,"DIS_CODE":0,"TOWNNAME":"安南區","LI":"安富里","LIN":"1鄰","STREET":"郡安路","SECT":"五段","MAREA":" ","LANE":"１９２巷","ALLEY":" ","HOUSE_NO":"３５號","E_COORD97":167325.39999999999,"N_COORD97":2547714.6099999999,"ADDRESS":"郡安路五段１９２巷３５號","OBJECTID":337283},"geometry":{"x":167325.40000000037,"y":2547714.6099999994}},{"attributes":{"ID":337293,"DIS_CODE":0,"TOWNNAME":"安南區","LI":"安富里","LIN":"1鄰","STREET":"郡安路","SECT":"五段","MAREA":" ","LANE":"１９２巷","ALLEY":" ","HOUSE_NO":"３６號","E_COORD97":167283.88,"N_COORD97":2547729.0800000001,"ADDRESS":"郡安路五段１９２巷３６號","OBJECTID":337284},"geometry":{"x":167283.88000000082,"y":2547729.0800000001}},{"attributes":{"ID":337294,"DIS_CODE":0,"TOWNNAME":"安南區","LI":"安富里","LIN":"1鄰","STREET":"郡安路","SECT":"五段","MAREA":" ","LANE":"１９２巷","ALLEY":" ","HOUSE_NO":"３７號","E_COORD97":167320.35000000001,"N_COORD97":2547713.0099999998,"ADDRESS":"郡安路五段１９２巷３７號","OBJECTID":337285},"geometry":{"x":167320.34999999963,"y":2547713.0100000016}},{"attributes":{"ID":337295,"DIS_CODE":0,"TOWNNAME":"中西區","LI":"協和里","LIN":"8鄰","STREET":"臨安路","SECT":"一段","MAREA":" ","LANE":" ","ALLEY":" ","HOUSE_NO":"２３３號","E_COORD97":167302.42000000001,"N_COORD97":2544682.1699999999,"ADDRESS":"臨安路一段２３３號","OBJECTID":337286},"geometry":{"x":167302.42000000086,"y":2544682.1700000018}},{"attributes":{"ID":337296,"DIS_CODE":0,"TOWNNAME":"新市區","LI":"豐華里","LIN":"5鄰","STREET":" ","SECT":" ","MAREA":"豐華","LANE":" ","ALLEY":" ","HOUSE_NO":"３８之６９號","E_COORD97":173272.84,"N_COORD97":2555144.5499999998,"ADDRESS":"豐華３８之６９號","OBJECTID":337287},"geometry":{"x":173272.84000000078,"y":2555144.5500000007}},{"attributes":{"ID":337297,"DIS_CODE":0,"TOWNNAME":"新市區","LI":"豐華里","LIN":"5鄰","STREET":" ","SECT":" ","MAREA":"豐華","LANE":" ","ALLEY":" ","HOUSE_NO":"４２之９號","E_COORD97":173858.82000000001,"N_COORD97":2554373.2999999998,"ADDRESS":"豐華４２之９號","OBJECTID":337288},"geometry":{"x":173858.82000000123,"y":2554373.3000000007}},{"attributes":{"ID":337298,"DIS_CODE":0,"TOWNNAME":"新市區","LI":"豐華里","LIN":"5鄰","STREET":" ","SECT":" ","MAREA":"豐華","LANE":" ","ALLEY":" ","HOUSE_NO":"４２之１２號","E_COORD97":173867.62,"N_COORD97":2554362.7999999998,"ADDRESS":"豐華４２之１２號","OBJECTID":337289},"geometry":{"x":173867.62000000011,"y":2554362.8000000007}},{"attributes":{"ID":337299,"DIS_CODE":0,"TOWNNAME":"新市區","LI":"大營里","LIN":"5鄰","STREET":" ","SECT":" ","MAREA":"大營","LANE":" ","ALLEY":" ","HOUSE_NO":"６９之２號","E_COORD97":179500.29000000001,"N_COORD97":2555591.2999999998,"ADDRESS":"大營６９之２號","OBJECTID":337290},"geometry":{"x":179500.29000000097,"y":2555591.3000000026}},{"attributes":{"ID":337300,"DIS_CODE":0,"TOWNNAME":"中西區","LI":"協和里","LIN":"8鄰","STREET":"臨安路","SECT":"一段","MAREA":" ","LANE":" ","ALLEY":" ","HOUSE_NO":"２３５號","E_COORD97":167305.51999999999,"N_COORD97":2544684.7400000002,"ADDRESS":"臨安路一段２３５號","OBJECTID":337291},"geometry":{"x":167305.51999999955,"y":2544684.7400000021}},{"attributes":{"ID":337301,"DIS_CODE":0,"TOWNNAME":"中西區","LI":"協和里","LIN":"8鄰","STREET":"協和街","SECT":" ","MAREA":" ","LANE":" ","ALLEY":" ","HOUSE_NO":"１８６號","E_COORD97":167293.95000000001,"N_COORD97":2544710.48,"ADDRESS":"協和街１８６號","OBJECTID":337292},"geometry":{"x":167293.95000000112,"y":2544710.4800000023}},{"attributes":{"ID":337302,"DIS_CODE":0,"TOWNNAME":"安南區","LI":"安富里","LIN":"1鄰","STREET":"郡安路","SECT":"五段","MAREA":" ","LANE":"１９２巷","ALLEY":" ","HOUSE_NO":"３８號","E_COORD97":167274.23999999999,"N_COORD97":2547726.3300000001,"ADDRESS":"郡安路五段１９２巷３８號","OBJECTID":337293},"geometry":{"x":167274.24000000022,"y":2547726.3300000001}},{"attributes":{"ID":337303,"DIS_CODE":0,"TOWNNAME":"安南區","LI":"安富里","LIN":"1鄰","STREET":"郡安路","SECT":"五段","MAREA":" ","LANE":"１９２巷","ALLEY":" ","HOUSE_NO":"３９號","E_COORD97":167314.39000000001,"N_COORD97":2547712.1000000001,"ADDRESS":"郡安路五段１９２巷３９號","OBJECTID":337294},"geometry":{"x":167314.3900000006,"y":2547712.1000000034}},{"attributes":{"ID":337304,"DIS_CODE":0,"TOWNNAME":"安南區","LI":"安富里","LIN":"1鄰","STREET":"郡安路","SECT":"五段","MAREA":" ","LANE":"１９２巷","ALLEY":" ","HOUSE_NO":"３號","E_COORD97":167422.07000000001,"N_COORD97":2547733.3999999999,"ADDRESS":"郡安路五段１９２巷３號","OBJECTID":337295},"geometry":{"x":167422.07000000123,"y":2547733.4000000004}},{"attributes":{"ID":337305,"DIS_CODE":0,"TOWNNAME":"安南區","LI":"安富里","LIN":"1鄰","STREET":"郡安路","SECT":"五段","MAREA":" ","LANE":"１９２巷","ALLEY":" ","HOUSE_NO":"４０號","E_COORD97":167266.45000000001,"N_COORD97":2547725.6400000001,"ADDRESS":"郡安路五段１９２巷４０號","OBJECTID":337296},"geometry":{"x":167266.45000000112,"y":2547725.6400000006}},{"attributes":{"ID":337306,"DIS_CODE":0,"TOWNNAME":"安南區","LI":"安富里","LIN":"1鄰","STREET":"郡安路","SECT":"五段","MAREA":" ","LANE":"１９２巷","ALLEY":" ","HOUSE_NO":"４１號","E_COORD97":167303.82999999999,"N_COORD97":2547709.8100000001,"ADDRESS":"郡安路五段１９２巷４１號","OBJECTID":337297},"geometry":{"x":167303.83000000007,"y":2547709.8100000005}},{"attributes":{"ID":337307,"DIS_CODE":0,"TOWNNAME":"安南區","LI":"安富里","LIN":"1鄰","STREET":"郡安路","SECT":"五段","MAREA":" ","LANE":"１９２巷","ALLEY":" ","HOUSE_NO":"４３號","E_COORD97":167298.32999999999,"N_COORD97":2547708.4300000002,"ADDRESS":"郡安路五段１９２巷４３號","OBJECTID":337298},"geometry":{"x":167298.33000000007,"y":2547708.4299999997}},{"attributes":{"ID":337308,"DIS_CODE":0,"TOWNNAME":"安南區","LI":"安富里","LIN":"1鄰","STREET":"郡安路","SECT":"五段","MAREA":" ","LANE":"１９２巷","ALLEY":" ","HOUSE_NO":"４７號","E_COORD97":167288.70000000001,"N_COORD97":2547707.0600000001,"ADDRESS":"郡安路五段１９２巷４７號","OBJECTID":337299},"geometry":{"x":167288.70000000112,"y":2547707.0600000024}},{"attributes":{"ID":337309,"DIS_CODE":0,"TOWNNAME":"安南區","LI":"安富里","LIN":"1鄰","STREET":"郡安路","SECT":"五段","MAREA":" ","LANE":"１９２巷","ALLEY":" ","HOUSE_NO":"４９號","E_COORD97":167283.64999999999,"N_COORD97":2547705.23,"ADDRESS":"郡安路五段１９２巷４９號","OBJECTID":337300},"geometry":{"x":167283.65000000224,"y":2547705.2300000042}},{"attributes":{"ID":337310,"DIS_CODE":0,"TOWNNAME":"安南區","LI":"梅花里","LIN":"1鄰","STREET":"安中路","SECT":"一段","MAREA":" ","LANE":"６１９巷","ALLEY":" ","HOUSE_NO":"４６號","E_COORD97":167780.79000000001,"N_COORD97":2549012.3100000001,"ADDRESS":"安中路一段６１９巷４６號","OBJECTID":337301},"geometry":{"x":167780.7900000019,"y":2549012.3100000005}},{"attributes":{"ID":337311,"DIS_CODE":0,"TOWNNAME":"安南區","LI":"梅花里","LIN":"1鄰","STREET":"安中路","SECT":"一段","MAREA":" ","LANE":"６３９巷","ALLEY":" ","HOUSE_NO":"４１號","E_COORD97":167747.48999999999,"N_COORD97":2549038.4300000002,"ADDRESS":"安中路一段６３９巷４１號","OBJECTID":337302},"geometry":{"x":167747.49000000209,"y":2549038.4299999997}},{"attributes":{"ID":337312,"DIS_CODE":0,"TOWNNAME":"安南區","LI":"梅花里","LIN":"1鄰","STREET":"安中路","SECT":"一段","MAREA":" ","LANE":"６３９巷","ALLEY":" ","HOUSE_NO":"４３號","E_COORD97":167745.34,"N_COORD97":2549034.71,"ADDRESS":"安中路一段６３９巷４３號","OBJECTID":337303},"geometry":{"x":167745.34000000078,"y":2549034.7100000046}},{"attributes":{"ID":337313,"DIS_CODE":0,"TOWNNAME":"安南區","LI":"梅花里","LIN":"1鄰","STREET":"安中路","SECT":"一段","MAREA":" ","LANE":"６３９巷","ALLEY":" ","HOUSE_NO":"４５號","E_COORD97":167743.17999999999,"N_COORD97":2549029.8199999998,"ADDRESS":"安中路一段６３９巷４５號","OBJECTID":337304},"geometry":{"x":167743.1799999997,"y":2549029.8199999984}},{"attributes":{"ID":337314,"DIS_CODE":0,"TOWNNAME":"安南區","LI":"梅花里","LIN":"1鄰","STREET":"安中路","SECT":"一段","MAREA":" ","LANE":"６３９巷","ALLEY":" ","HOUSE_NO":"４７號","E_COORD97":167742.20000000001,"N_COORD97":2549024.73,"ADDRESS":"安中路一段６３９巷４７號","OBJECTID":337305},"geometry":{"x":167742.20000000019,"y":2549024.7300000023}},{"attributes":{"ID":337315,"DIS_CODE":0,"TOWNNAME":"安南區","LI":"梅花里","LIN":"1鄰","STREET":"安中路","SECT":"一段","MAREA":" ","LANE":"６３９巷","ALLEY":" ","HOUSE_NO":"４９號","E_COORD97":167741.03,"N_COORD97":2549020.6200000001,"ADDRESS":"安中路一段６３９巷４９號","OBJECTID":337306},"geometry":{"x":167741.03000000119,"y":2549020.620000001}},{"attributes":{"ID":337316,"DIS_CODE":0,"TOWNNAME":"安南區","LI":"梅花里","LIN":"1鄰","STREET":"安中路","SECT":"一段","MAREA":" ","LANE":"６３９巷","ALLEY":" ","HOUSE_NO":"５１號","E_COORD97":167739.07000000001,"N_COORD97":2549015.5299999998,"ADDRESS":"安中路一段６３９巷５１號","OBJECTID":337307},"geometry":{"x":167739.07000000123,"y":2549015.5300000012}},{"attributes":{"ID":337317,"DIS_CODE":0,"TOWNNAME":"安南區","LI":"梅花里","LIN":"1鄰","STREET":"安中路","SECT":"一段","MAREA":" ","LANE":"６３９巷","ALLEY":" ","HOUSE_NO":"５３號","E_COORD97":167737.31,"N_COORD97":2549011.6200000001,"ADDRESS":"安中路一段６３９巷５３號","OBJECTID":337308},"geometry":{"x":167737.30999999959,"y":2549011.6199999992}},{"attributes":{"ID":337318,"DIS_CODE":0,"TOWNNAME":"安南區","LI":"梅花里","LIN":"1鄰","STREET":"安中路","SECT":"一段","MAREA":" ","LANE":"６３９巷","ALLEY":" ","HOUSE_NO":"５５號","E_COORD97":167735.54999999999,"N_COORD97":2549006.73,"ADDRESS":"安中路一段６３９巷５５號","OBJECTID":337309},"geometry":{"x":167735.55000000075,"y":2549006.7300000004}},{"attributes":{"ID":337319,"DIS_CODE":0,"TOWNNAME":"仁德區","LI":"田厝里","LIN":"1鄰","STREET":"保安路","SECT":"二段","MAREA":" ","LANE":"６３０巷","ALLEY":" ","HOUSE_NO":"１４號","E_COORD97":172771.22,"N_COORD97":2537535.3700000001,"ADDRESS":"保安路二段６３０巷１４號","OBJECTID":337310},"geometry":{"x":172771.21999999974,"y":2537535.370000001}},{"attributes":{"ID":337320,"DIS_CODE":0,"TOWNNAME":"仁德區","LI":"田厝里","LIN":"1鄰","STREET":"保安路","SECT":"二段","MAREA":" ","LANE":"６３０巷","ALLEY":" ","HOUSE_NO":"９號","E_COORD97":172792.07000000001,"N_COORD97":2537546.3199999998,"ADDRESS":"保安路二段６３０巷９號","OBJECTID":337311},"geometry":{"x":172792.07000000123,"y":2537546.3200000003}},{"attributes":{"ID":337321,"DIS_CODE":0,"TOWNNAME":"仁德區","LI":"保安里","LIN":"1鄰","STREET":"文賢路","SECT":"一段","MAREA":" ","LANE":"５２９巷","ALLEY":" ","HOUSE_NO":"１１號","E_COORD97":171178.70999999999,"N_COORD97":2537064.8199999998,"ADDRESS":"文賢路一段５２９巷１１號","OBJECTID":337312},"geometry":{"x":171178.71000000089,"y":2537064.8200000003}},{"attributes":{"ID":337322,"DIS_CODE":0,"TOWNNAME":"仁德區","LI":"田厝里","LIN":"1鄰","STREET":"保安路","SECT":"二段","MAREA":" ","LANE":"６３０巷","ALLEY":" ","HOUSE_NO":"４號","E_COORD97":172768.34,"N_COORD97":2537555.9100000001,"ADDRESS":"保安路二段６３０巷４號","OBJECTID":337313},"geometry":{"x":172768.34000000078,"y":2537555.9099999983}},{"attributes":{"ID":337323,"DIS_CODE":0,"TOWNNAME":"仁德區","LI":"田厝里","LIN":"1鄰","STREET":"保安路","SECT":"二段","MAREA":" ","LANE":"６３０巷","ALLEY":" ","HOUSE_NO":"３２號","E_COORD97":172775.45000000001,"N_COORD97":2537499.7599999998,"ADDRESS":"保安路二段６３０巷３２號","OBJECTID":337314},"geometry":{"x":172775.45000000019,"y":2537499.7600000016}},{"attributes":{"ID":337324,"DIS_CODE":0,"TOWNNAME":"仁德區","LI":"田厝里","LIN":"1鄰","STREET":"保安路","SECT":"二段","MAREA":" ","LANE":"６３０巷","ALLEY":" ","HOUSE_NO":"３號","E_COORD97":172788.01000000001,"N_COORD97":2537558.3100000001,"ADDRESS":"保安路二段６３０巷３號","OBJECTID":337315},"geometry":{"x":172788.00999999978,"y":2537558.3100000024}},{"attributes":{"ID":337325,"DIS_CODE":0,"TOWNNAME":"仁德區","LI":"田厝里","LIN":"1鄰","STREET":"保安路","SECT":"二段","MAREA":" ","LANE":"６３０巷","ALLEY":" ","HOUSE_NO":"２號","E_COORD97":172767.95999999999,"N_COORD97":2537561.6800000002,"ADDRESS":"保安路二段６３０巷２號","OBJECTID":337316},"geometry":{"x":172767.95999999996,"y":2537561.6800000016}},{"attributes":{"ID":337326,"DIS_CODE":0,"TOWNNAME":"仁德區","LI":"仁義里","LIN":"1鄰","STREET":"中山路","SECT":" ","MAREA":" ","LANE":"３０５巷","ALLEY":" ","HOUSE_NO":"３６５號","E_COORD97":174208.92999999999,"N_COORD97":2540614.75,"ADDRESS":"中山路３０５巷３６５號","OBJECTID":337317},"geometry":{"x":174208.9299999997,"y":2540614.75}},{"attributes":{"ID":337327,"DIS_CODE":0,"TOWNNAME":"仁德區","LI":"田厝里","LIN":"1鄰","STREET":"保安路","SECT":"二段","MAREA":" ","LANE":"６３０巷","ALLEY":" ","HOUSE_NO":"１２號","E_COORD97":172770.82999999999,"N_COORD97":2537539.6600000001,"ADDRESS":"保安路二段６３０巷１２號","OBJECTID":337318},"geometry":{"x":172770.83000000007,"y":2537539.6600000001}},{"attributes":{"ID":337328,"DIS_CODE":0,"TOWNNAME":"東區","LI":"崇善里","LIN":"1鄰","STREET":"中華東路","SECT":"三段","MAREA":" ","LANE":"７７巷","ALLEY":" ","HOUSE_NO":"４１號","E_COORD97":170959.91,"N_COORD97":2542126.71,"ADDRESS":"中華東路三段７７巷４１號","OBJECTID":337319},"geometry":{"x":170959.91000000015,"y":2542126.7100000028}},{"attributes":{"ID":337329,"DIS_CODE":0,"TOWNNAME":"新市區","LI":"大社里","LIN":"5鄰","STREET":" ","SECT":" ","MAREA":"大社","LANE":" ","ALLEY":" ","HOUSE_NO":"１９０之５號","E_COORD97":180236.70999999999,"N_COORD97":2554351.2799999998,"ADDRESS":"大社１９０之５號","OBJECTID":337320},"geometry":{"x":180236.70999999996,"y":2554351.2799999993}},{"attributes":{"ID":337330,"DIS_CODE":0,"TOWNNAME":"仁德區","LI":"田厝里","LIN":"1鄰","STREET":"保安路","SECT":"二段","MAREA":" ","LANE":"６３０巷","ALLEY":" ","HOUSE_NO":"４７號","E_COORD97":172803.69,"N_COORD97":2537470.5600000001,"ADDRESS":"保安路二段６３０巷４７號","OBJECTID":337321},"geometry":{"x":172803.69000000134,"y":2537470.5599999987}},{"attributes":{"ID":337331,"DIS_CODE":0,"TOWNNAME":"仁德區","LI":"田厝里","LIN":"1鄰","STREET":"保安路","SECT":"二段","MAREA":" ","LANE":"６３０巷","ALLEY":" ","HOUSE_NO":"３３號","E_COORD97":172799.88,"N_COORD97":2537498.5699999998,"ADDRESS":"保安路二段６３０巷３３號","OBJECTID":337322},"geometry":{"x":172799.88000000082,"y":2537498.5700000022}},{"attributes":{"ID":337332,"DIS_CODE":0,"TOWNNAME":"仁德區","LI":"成功里","LIN":"1鄰","STREET":"保生東路","SECT":" ","MAREA":" ","LANE":"１３８巷","ALLEY":" ","HOUSE_NO":"３６號","E_COORD97":171265.85999999999,"N_COORD97":2539570.5600000001,"ADDRESS":"保生東路１３８巷３６號","OBJECTID":337323},"geometry":{"x":171265.8599999994,"y":2539570.5600000024}},{"attributes":{"ID":337333,"DIS_CODE":0,"TOWNNAME":"仁德區","LI":"成功里","LIN":"1鄰","STREET":"保生東路","SECT":" ","MAREA":" ","LANE":"１３８巷","ALLEY":" ","HOUSE_NO":"４８號","E_COORD97":171285.29000000001,"N_COORD97":2539567.3100000001,"ADDRESS":"保生東路１３８巷４８號","OBJECTID":337324},"geometry":{"x":171285.29000000097,"y":2539567.3100000005}},{"attributes":{"ID":337334,"DIS_CODE":0,"TOWNNAME":"仁德區","LI":"成功里","LIN":"1鄰","STREET":"保生東路","SECT":" ","MAREA":" ","LANE":"１３８巷","ALLEY":" ","HOUSE_NO":"４６號","E_COORD97":171281.29000000001,"N_COORD97":2539567.8100000001,"ADDRESS":"保生東路１３８巷４６號","OBJECTID":337325},"geometry":{"x":171281.28999999911,"y":2539567.8100000042}},{"attributes":{"ID":337335,"DIS_CODE":0,"TOWNNAME":"仁德區","LI":"成功里","LIN":"1鄰","STREET":"保生東路","SECT":" ","MAREA":" ","LANE":"１３８巷","ALLEY":" ","HOUSE_NO":"５８號","E_COORD97":171302.81,"N_COORD97":2539564.2999999998,"ADDRESS":"保生東路１３８巷５８號","OBJECTID":337326},"geometry":{"x":171302.81000000145,"y":2539564.3000000007}},{"attributes":{"ID":337336,"DIS_CODE":0,"TOWNNAME":"後壁區","LI":"頂安里","LIN":"5鄰","STREET":" ","SECT":" ","MAREA":"頂寮","LANE":" ","ALLEY":" ","HOUSE_NO":"５５號","E_COORD97":183862.37,"N_COORD97":2581555.23,"ADDRESS":"頂寮５５號","OBJECTID":337327},"geometry":{"x":183862.37000000011,"y":2581555.2300000023}},{"attributes":{"ID":337337,"DIS_CODE":0,"TOWNNAME":"後壁區","LI":"頂安里","LIN":"5鄰","STREET":" ","SECT":" ","MAREA":"頂寮","LANE":" ","ALLEY":" ","HOUSE_NO":"５６號","E_COORD97":183849.81,"N_COORD97":2581541.1499999999,"ADDRESS":"頂寮５６號","OBJECTID":337328},"geometry":{"x":183849.80999999959,"y":2581541.1500000004}},{"attributes":{"ID":337338,"DIS_CODE":0,"TOWNNAME":"後壁區","LI":"頂安里","LIN":"5鄰","STREET":" ","SECT":" ","MAREA":"頂寮","LANE":" ","ALLEY":" ","HOUSE_NO":"５７號","E_COORD97":183900.23999999999,"N_COORD97":2581541.9900000002,"ADDRESS":"頂寮５７號","OBJECTID":337329},"geometry":{"x":183900.24000000022,"y":2581541.9900000002}},{"attributes":{"ID":337339,"DIS_CODE":0,"TOWNNAME":"後壁區","LI":"頂安里","LIN":"5鄰","STREET":" ","SECT":" ","MAREA":"頂寮","LANE":" ","ALLEY":" ","HOUSE_NO":"５８號","E_COORD97":183888.60999999999,"N_COORD97":2581517.3300000001,"ADDRESS":"頂寮５８號","OBJECTID":337330},"geometry":{"x":183888.61000000127,"y":2581517.3300000019}},{"attributes":{"ID":337340,"DIS_CODE":0,"TOWNNAME":"後壁區","LI":"頂安里","LIN":"5鄰","STREET":" ","SECT":" ","MAREA":"頂寮","LANE":" ","ALLEY":" ","HOUSE_NO":"５９號之１","E_COORD97":183914.62,"N_COORD97":2581494.73,"ADDRESS":"頂寮５９號之１","OBJECTID":337331},"geometry":{"x":183914.62000000011,"y":2581494.7300000023}},{"attributes":{"ID":337341,"DIS_CODE":0,"TOWNNAME":"後壁區","LI":"頂安里","LIN":"5鄰","STREET":" ","SECT":" ","MAREA":"頂寮","LANE":" ","ALLEY":" ","HOUSE_NO":"５９號之２","E_COORD97":183904.26000000001,"N_COORD97":2581502.7400000002,"ADDRESS":"頂寮５９號之２","OBJECTID":337332},"geometry":{"x":183904.26000000071,"y":2581502.7400000002}},{"attributes":{"ID":337342,"DIS_CODE":0,"TOWNNAME":"後壁區","LI":"頂安里","LIN":"5鄰","STREET":" ","SECT":" ","MAREA":"頂寮","LANE":" ","ALLEY":" ","HOUSE_NO":"５９號之１１","E_COORD97":183928.17000000001,"N_COORD97":2581502.0499999998,"ADDRESS":"頂寮５９號之１１","OBJECTID":337333},"geometry":{"x":183928.17000000179,"y":2581502.0500000045}},{"attributes":{"ID":337343,"DIS_CODE":0,"TOWNNAME":"後壁區","LI":"墨林里","LIN":"5鄰","STREET":" ","SECT":" ","MAREA":"菁寮","LANE":" ","ALLEY":" ","HOUSE_NO":"２０６號","E_COORD97":182131.16,"N_COORD97":2586386.5299999998,"ADDRESS":"菁寮２０６號","OBJECTID":337334},"geometry":{"x":182131.16000000015,"y":2586386.5300000012}},{"attributes":{"ID":337344,"DIS_CODE":0,"TOWNNAME":"後壁區","LI":"墨林里","LIN":"5鄰","STREET":" ","SECT":" ","MAREA":"菁寮","LANE":" ","ALLEY":" ","HOUSE_NO":"２０７號","E_COORD97":182134.98000000001,"N_COORD97":2586387.3900000001,"ADDRESS":"菁寮２０７號","OBJECTID":337335},"geometry":{"x":182134.98000000138,"y":2586387.3900000006}},{"attributes":{"ID":337345,"DIS_CODE":0,"TOWNNAME":"後壁區","LI":"墨林里","LIN":"5鄰","STREET":" ","SECT":" ","MAREA":"菁寮","LANE":" ","ALLEY":" ","HOUSE_NO":"２０８號","E_COORD97":182138.35999999999,"N_COORD97":2586388.6899999999,"ADDRESS":"菁寮２０８號","OBJECTID":337336},"geometry":{"x":182138.36000000034,"y":2586388.6900000032}},{"attributes":{"ID":337346,"DIS_CODE":0,"TOWNNAME":"後壁區","LI":"墨林里","LIN":"5鄰","STREET":" ","SECT":" ","MAREA":"菁寮","LANE":" ","ALLEY":" ","HOUSE_NO":"２１０號","E_COORD97":182145.85999999999,"N_COORD97":2586391.6800000002,"ADDRESS":"菁寮２１０號","OBJECTID":337337},"geometry":{"x":182145.86000000127,"y":2586391.6799999997}},{"attributes":{"ID":337347,"DIS_CODE":0,"TOWNNAME":"後壁區","LI":"墨林里","LIN":"5鄰","STREET":" ","SECT":" ","MAREA":"菁寮","LANE":" ","ALLEY":" ","HOUSE_NO":"２１１號","E_COORD97":182149.72,"N_COORD97":2586392.46,"ADDRESS":"菁寮２１１號","OBJECTID":337338},"geometry":{"x":182149.72000000067,"y":2586392.4600000028}},{"attributes":{"ID":337348,"DIS_CODE":0,"TOWNNAME":"後壁區","LI":"墨林里","LIN":"5鄰","STREET":" ","SECT":" ","MAREA":"菁寮","LANE":" ","ALLEY":" ","HOUSE_NO":"２１３號","E_COORD97":182156.81,"N_COORD97":2586394.0499999998,"ADDRESS":"菁寮２１３號","OBJECTID":337339},"geometry":{"x":182156.80999999959,"y":2586394.0499999989}},{"attributes":{"ID":337349,"DIS_CODE":0,"TOWNNAME":"後壁區","LI":"墨林里","LIN":"5鄰","STREET":" ","SECT":" ","MAREA":"菁寮","LANE":" ","ALLEY":" ","HOUSE_NO":"２１４號","E_COORD97":182160.67000000001,"N_COORD97":2586396.4199999999,"ADDRESS":"菁寮２１４號","OBJECTID":337340},"geometry":{"x":182160.67000000086,"y":2586396.4199999999}},{"attributes":{"ID":337350,"DIS_CODE":0,"TOWNNAME":"後壁區","LI":"墨林里","LIN":"5鄰","STREET":" ","SECT":" ","MAREA":"菁寮","LANE":" ","ALLEY":" ","HOUSE_NO":"２１６號","E_COORD97":182167.73000000001,"N_COORD97":2586398.0699999998,"ADDRESS":"菁寮２１６號","OBJECTID":337341},"geometry":{"x":182167.73000000138,"y":2586398.0700000022}},{"attributes":{"ID":337351,"DIS_CODE":0,"TOWNNAME":"安南區","LI":"理想里","LIN":"1鄰","STREET":"同安路","SECT":" ","MAREA":" ","LANE":"５２巷","ALLEY":" ","HOUSE_NO":"９號","E_COORD97":166914.72,"N_COORD97":2548827.7400000002,"ADDRESS":"同安路５２巷９號","OBJECTID":337342},"geometry":{"x":166914.7200000016,"y":2548827.7400000021}},{"attributes":{"ID":337352,"DIS_CODE":0,"TOWNNAME":"鹽水區","LI":"桐寮里","LIN":"5鄰","STREET":" ","SECT":" ","MAREA":"桐寮","LANE":" ","ALLEY":" ","HOUSE_NO":"６６號","E_COORD97":173945.89000000001,"N_COORD97":2576604.4700000002,"ADDRESS":"桐寮６６號","OBJECTID":337343},"geometry":{"x":173945.8900000006,"y":2576604.4700000025}},{"attributes":{"ID":337353,"DIS_CODE":0,"TOWNNAME":"後壁區","LI":"平安里","LIN":"5鄰","STREET":" ","SECT":" ","MAREA":"葯店口","LANE":" ","ALLEY":" ","HOUSE_NO":"５３號之１１","E_COORD97":181912.82999999999,"N_COORD97":2584567.8900000001,"ADDRESS":"葯店口５３號之１１","OBJECTID":337344},"geometry":{"x":181912.83000000007,"y":2584567.8900000043}},{"attributes":{"ID":337354,"DIS_CODE":0,"TOWNNAME":"後壁區","LI":"平安里","LIN":"5鄰","STREET":" ","SECT":" ","MAREA":"葯店口","LANE":" ","ALLEY":" ","HOUSE_NO":"５３號之１２","E_COORD97":181915.62,"N_COORD97":2584565.0699999998,"ADDRESS":"葯店口５３號之１２","OBJECTID":337345},"geometry":{"x":181915.62000000104,"y":2584565.0700000003}},{"attributes":{"ID":337355,"DIS_CODE":0,"TOWNNAME":"後壁區","LI":"平安里","LIN":"5鄰","STREET":" ","SECT":" ","MAREA":"葯店口","LANE":" ","ALLEY":" ","HOUSE_NO":"５３號之１３","E_COORD97":181918.56,"N_COORD97":2584562.0299999998,"ADDRESS":"葯店口５３號之１３","OBJECTID":337346},"geometry":{"x":181918.56000000052,"y":2584562.0300000031}},{"attributes":{"ID":337356,"DIS_CODE":0,"TOWNNAME":"安南區","LI":"理想里","LIN":"1鄰","STREET":"同安路","SECT":" ","MAREA":" ","LANE":"５２巷","ALLEY":" ","HOUSE_NO":"１２號","E_COORD97":166900.76999999999,"N_COORD97":2548812.7000000002,"ADDRESS":"同安路５２巷１２號","OBJECTID":337347},"geometry":{"x":166900.77000000048,"y":2548812.700000003}},{"attributes":{"ID":337357,"DIS_CODE":0,"TOWNNAME":"佳里區","LI":"子龍里","LIN":"5鄰","STREET":" ","SECT":" ","MAREA":"子良廟","LANE":" ","ALLEY":" ","HOUSE_NO":"５３號","E_COORD97":168791.14999999999,"N_COORD97":2563917.52,"ADDRESS":"子良廟５３號","OBJECTID":337348},"geometry":{"x":168791.1500000013,"y":2563917.5199999996}},{"attributes":{"ID":337358,"DIS_CODE":0,"TOWNNAME":"佳里區","LI":"子龍里","LIN":"5鄰","STREET":" ","SECT":" ","MAREA":"子良廟","LANE":" ","ALLEY":" ","HOUSE_NO":"５２號","E_COORD97":168795.20000000001,"N_COORD97":2563892.5600000001,"ADDRESS":"子良廟５２號","OBJECTID":337349},"geometry":{"x":168795.19999999925,"y":2563892.5600000024}},{"attributes":{"ID":337359,"DIS_CODE":0,"TOWNNAME":"新化區","LI":"山\u25A0里","LIN":"5鄰","STREET":" ","SECT":" ","MAREA":"頂山\u25A0","LANE":" ","ALLEY":" ","HOUSE_NO":"１４號之２","E_COORD97":179626.53,"N_COORD97":2546819.2599999998,"ADDRESS":"頂山\u25A0１４號之２","OBJECTID":337350},"geometry":{"x":179626.53000000026,"y":2546819.2600000035}},{"attributes":{"ID":337360,"DIS_CODE":0,"TOWNNAME":"新化區","LI":"崙頂里","LIN":"5鄰","STREET":" ","SECT":" ","MAREA":"崙子頂","LANE":" ","ALLEY":" ","HOUSE_NO":"２３９號之１","E_COORD97":176686.95999999999,"N_COORD97":2546986.2599999998,"ADDRESS":"崙子頂２３９號之１","OBJECTID":337351},"geometry":{"x":176686.95999999996,"y":2546986.2600000016}},{"attributes":{"ID":337361,"DIS_CODE":0,"TOWNNAME":"安南區","LI":"梅花里","LIN":"1鄰","STREET":"安中路","SECT":"一段","MAREA":" ","LANE":"６１９巷","ALLEY":" ","HOUSE_NO":"１０號","E_COORD97":167795.48000000001,"N_COORD97":2549086.7599999998,"ADDRESS":"安中路一段６１９巷１０號","OBJECTID":337352},"geometry":{"x":167795.48000000138,"y":2549086.7599999998}},{"attributes":{"ID":337362,"DIS_CODE":0,"TOWNNAME":"安南區","LI":"淵西里","LIN":"1鄰","STREET":"安中路","SECT":"四段","MAREA":" ","LANE":"２９０巷","ALLEY":" ","HOUSE_NO":"３２３號","E_COORD97":165171.92999999999,"N_COORD97":2550360.6699999999,"ADDRESS":"安中路四段２９０巷３２３號","OBJECTID":337353},"geometry":{"x":165171.9299999997,"y":2550360.6700000018}},{"attributes":{"ID":337363,"DIS_CODE":0,"TOWNNAME":"安南區","LI":"淵西里","LIN":"1鄰","STREET":"安中路","SECT":"四段","MAREA":" ","LANE":"２９０巷","ALLEY":" ","HOUSE_NO":"３２１號","E_COORD97":165167.22,"N_COORD97":2550359.1000000001,"ADDRESS":"安中路四段２９０巷３２１號","OBJECTID":337354},"geometry":{"x":165167.22000000067,"y":2550359.0999999996}},{"attributes":{"ID":337364,"DIS_CODE":0,"TOWNNAME":"永康區","LI":"五王里","LIN":"1鄰","STREET":"中華二路","SECT":" ","MAREA":" ","LANE":"２０６巷","ALLEY":" ","HOUSE_NO":"１８號","E_COORD97":171608.12,"N_COORD97":2545487,"ADDRESS":"中華二路２０６巷１８號","OBJECTID":337355},"geometry":{"x":171608.12000000197,"y":2545487.0000000019}},{"attributes":{"ID":337365,"DIS_CODE":0,"TOWNNAME":"永康區","LI":"三合里","LIN":" ","STREET":"中華二路","SECT":" ","MAREA":" ","LANE":" ","ALLEY":" ","HOUSE_NO":"８號","E_COORD97":172133.94,"N_COORD97":2545464.2400000002,"ADDRESS":"中華二路８號","OBJECTID":337356},"geometry":{"x":172133.94000000134,"y":2545464.2400000021}},{"attributes":{"ID":337366,"DIS_CODE":0,"TOWNNAME":"永康區","LI":"大灣里","LIN":"1鄰","STREET":"大同街","SECT":" ","MAREA":" ","LANE":"１７７巷","ALLEY":" ","HOUSE_NO":"６號","E_COORD97":174784.23000000001,"N_COORD97":2545666.8700000001,"ADDRESS":"大同街１７７巷６號","OBJECTID":337357},"geometry":{"x":174784.23000000045,"y":2545666.870000001}},{"attributes":{"ID":337367,"DIS_CODE":0,"TOWNNAME":"永康區","LI":"五王里","LIN":"1鄰","STREET":"中華二路","SECT":" ","MAREA":" ","LANE":"２０６巷","ALLEY":" ","HOUSE_NO":"９號","E_COORD97":171580.34,"N_COORD97":2545494.0600000001,"ADDRESS":"中華二路２０６巷９號","OBJECTID":337358},"geometry":{"x":171580.33999999985,"y":2545494.0600000024}},{"attributes":{"ID":337368,"DIS_CODE":0,"TOWNNAME":"新化區","LI":"崙頂里","LIN":"5鄰","STREET":" ","SECT":" ","MAREA":"崙子頂","LANE":" ","ALLEY":" ","HOUSE_NO":"２３９號","E_COORD97":176694.82999999999,"N_COORD97":2546993.25,"ADDRESS":"崙子頂２３９號","OBJECTID":337359},"geometry":{"x":176694.83000000007,"y":2546993.2500000019}},{"attributes":{"ID":337369,"DIS_CODE":0,"TOWNNAME":"新化區","LI":"崙頂里","LIN":"5鄰","STREET":" ","SECT":" ","MAREA":"崙子頂","LANE":" ","ALLEY":" ","HOUSE_NO":"２２５號","E_COORD97":176642.73000000001,"N_COORD97":2546938.25,"ADDRESS":"崙子頂２２５號","OBJECTID":337360},"geometry":{"x":176642.73000000138,"y":2546938.2500000037}},{"attributes":{"ID":337370,"DIS_CODE":0,"TOWNNAME":"新化區","LI":"\u25A0拔里","LIN":"5鄰","STREET":" ","SECT":" ","MAREA":"\u25A0拔林","LANE":" ","ALLEY":" ","HOUSE_NO":"２４９號之２","E_COORD97":183672.78,"N_COORD97":2551888.2599999998,"ADDRESS":"\u25A0拔林２４９號之２","OBJECTID":337361},"geometry":{"x":183672.78000000026,"y":2551888.2600000016}},{"attributes":{"ID":337371,"DIS_CODE":0,"TOWNNAME":"新化區","LI":"\u25A0拔里","LIN":"5鄰","STREET":" ","SECT":" ","MAREA":"\u25A0拔林","LANE":" ","ALLEY":" ","HOUSE_NO":"２５０號之３","E_COORD97":183652.76999999999,"N_COORD97":2551897.2599999998,"ADDRESS":"\u25A0拔林２５０號之３","OBJECTID":337362},"geometry":{"x":183652.77000000048,"y":2551897.2599999998}},{"attributes":{"ID":337372,"DIS_CODE":0,"TOWNNAME":"永康區","LI":"三民里","LIN":"1鄰","STREET":"三民街","SECT":" ","MAREA":" ","LANE":"７１巷","ALLEY":" ","HOUSE_NO":"１２號","E_COORD97":172849.06,"N_COORD97":2550225.5299999998,"ADDRESS":"三民街７１巷１２號","OBJECTID":337363},"geometry":{"x":172849.06000000052,"y":2550225.5300000012}},{"attributes":{"ID":337373,"DIS_CODE":0,"TOWNNAME":"新化區","LI":"唪口里","LIN":"5鄰","STREET":" ","SECT":" ","MAREA":"唪口","LANE":" ","ALLEY":" ","HOUSE_NO":"５６號之９","E_COORD97":178104.34,"N_COORD97":2549145.2599999998,"ADDRESS":"唪口５６號之９","OBJECTID":337364},"geometry":{"x":178104.34000000078,"y":2549145.2600000035}},{"attributes":{"ID":337374,"DIS_CODE":0,"TOWNNAME":"新化區","LI":"唪口里","LIN":"5鄰","STREET":" ","SECT":" ","MAREA":"唪口","LANE":" ","ALLEY":" ","HOUSE_NO":"５８號","E_COORD97":178055.5,"N_COORD97":2549118.25,"ADDRESS":"唪口５８號","OBJECTID":337365},"geometry":{"x":178055.49999999907,"y":2549118.2500000037}},{"attributes":{"ID":337375,"DIS_CODE":0,"TOWNNAME":"新化區","LI":"唪口里","LIN":"5鄰","STREET":" ","SECT":" ","MAREA":"唪口","LANE":" ","ALLEY":" ","HOUSE_NO":"４５號之６","E_COORD97":178202.54999999999,"N_COORD97":2548992.2599999998,"ADDRESS":"唪口４５號之６","OBJECTID":337366},"geometry":{"x":178202.55000000168,"y":2548992.2599999998}},{"attributes":{"ID":337376,"DIS_CODE":0,"TOWNNAME":"新化區","LI":"唪口里","LIN":"5鄰","STREET":" ","SECT":" ","MAREA":"唪口","LANE":" ","ALLEY":" ","HOUSE_NO":"５１號之１","E_COORD97":178221.42999999999,"N_COORD97":2549058.2599999998,"ADDRESS":"唪口５１號之１","OBJECTID":337367},"geometry":{"x":178221.4299999997,"y":2549058.2600000016}},{"attributes":{"ID":337377,"DIS_CODE":0,"TOWNNAME":"永康區","LI":"二王里","LIN":"1鄰","STREET":"中山南路","SECT":" ","MAREA":" ","LANE":"９０２巷","ALLEY":" ","HOUSE_NO":"１６號","E_COORD97":173023.82999999999,"N_COORD97":2546844.3399999999,"ADDRESS":"中山南路９０２巷１６號","OBJECTID":337368},"geometry":{"x":173023.83000000194,"y":2546844.3399999999}},{"attributes":{"ID":337378,"DIS_CODE":0,"TOWNNAME":"永康區","LI":"大橋里","LIN":"1鄰","STREET":"大橋一街","SECT":" ","MAREA":" ","LANE":"７３巷","ALLEY":" ","HOUSE_NO":"１６７號","E_COORD97":170598.13,"N_COORD97":2546660.75,"ADDRESS":"大橋一街７３巷１６７號","OBJECTID":337369},"geometry":{"x":170598.13000000082,"y":2546660.7500000019}},{"attributes":{"ID":337379,"DIS_CODE":0,"TOWNNAME":"新化區","LI":"北勢里","LIN":"5鄰","STREET":" ","SECT":" ","MAREA":"北勢","LANE":" ","ALLEY":" ","HOUSE_NO":"７７號","E_COORD97":177336.63,"N_COORD97":2549653.2599999998,"ADDRESS":"北勢７７號","OBJECTID":337370},"geometry":{"x":177336.63000000082,"y":2549653.2599999998}},{"attributes":{"ID":337380,"DIS_CODE":0,"TOWNNAME":"新化區","LI":"唪口里","LIN":"5鄰","STREET":" ","SECT":" ","MAREA":"唪口","LANE":" ","ALLEY":" ","HOUSE_NO":"５１號","E_COORD97":178227.89999999999,"N_COORD97":2548988.25,"ADDRESS":"唪口５１號","OBJECTID":337371},"geometry":{"x":178227.90000000224,"y":2548988.25}},{"attributes":{"ID":337381,"DIS_CODE":0,"TOWNNAME":"新化區","LI":"崙頂里","LIN":"5鄰","STREET":" ","SECT":" ","MAREA":"崙子頂","LANE":" ","ALLEY":" ","HOUSE_NO":"２３１號","E_COORD97":176643.53,"N_COORD97":2546967.25,"ADDRESS":"崙子頂２３１號","OBJECTID":337372},"geometry":{"x":176643.53000000212,"y":2546967.25}},{"attributes":{"ID":337382,"DIS_CODE":0,"TOWNNAME":"永康區","LI":"大灣里","LIN":"1鄰","STREET":"大同街","SECT":" ","MAREA":" ","LANE":"２１１巷","ALLEY":" ","HOUSE_NO":"６號","E_COORD97":174725.23000000001,"N_COORD97":2545761.4100000001,"ADDRESS":"大同街２１１巷６號","OBJECTID":337373},"geometry":{"x":174725.23000000231,"y":2545761.410000002}},{"attributes":{"ID":337383,"DIS_CODE":0,"TOWNNAME":"新化區","LI":"唪口里","LIN":"5鄰","STREET":" ","SECT":" ","MAREA":"唪口","LANE":" ","ALLEY":" ","HOUSE_NO":"５０號之２２","E_COORD97":178158.5,"N_COORD97":2549053.2599999998,"ADDRESS":"唪口５０號之２２","OBJECTID":337374},"geometry":{"x":178158.5,"y":2549053.2599999998}},{"attributes":{"ID":337384,"DIS_CODE":0,"TOWNNAME":"新化區","LI":"唪口里","LIN":"5鄰","STREET":" ","SECT":" ","MAREA":"唪口","LANE":" ","ALLEY":" ","HOUSE_NO":"５６號之３","E_COORD97":178103.44,"N_COORD97":2549124.2599999998,"ADDRESS":"唪口５６號之３","OBJECTID":337375},"geometry":{"x":178103.44000000041,"y":2549124.2599999998}},{"attributes":{"ID":337385,"DIS_CODE":0,"TOWNNAME":"永康區","LI":"二王里","LIN":"1鄰","STREET":"二王路","SECT":" ","MAREA":" ","LANE":"２７巷","ALLEY":" ","HOUSE_NO":"２３號","E_COORD97":173068.16,"N_COORD97":2546821.21,"ADDRESS":"二王路２７巷２３號","OBJECTID":337376},"geometry":{"x":173068.16000000108,"y":2546821.2100000028}},{"attributes":{"ID":337386,"DIS_CODE":0,"TOWNNAME":"永康區","LI":"大灣里","LIN":"1鄰","STREET":"大同街","SECT":" ","MAREA":" ","LANE":"１７７巷","ALLEY":" ","HOUSE_NO":"２號","E_COORD97":174791.17000000001,"N_COORD97":2545674.96,"ADDRESS":"大同街１７７巷２號","OBJECTID":337377},"geometry":{"x":174791.17000000179,"y":2545674.9600000009}},{"attributes":{"ID":337387,"DIS_CODE":0,"TOWNNAME":"新化區","LI":"唪口里","LIN":"5鄰","STREET":" ","SECT":" ","MAREA":"唪口","LANE":" ","ALLEY":" ","HOUSE_NO":"５６號之１","E_COORD97":178097.73000000001,"N_COORD97":2549109.2599999998,"ADDRESS":"唪口５６號之１","OBJECTID":337378},"geometry":{"x":178097.73000000045,"y":2549109.2600000016}},{"attributes":{"ID":337388,"DIS_CODE":0,"TOWNNAME":"永康區","LI":"二王里","LIN":"1鄰","STREET":"二王路","SECT":" ","MAREA":" ","LANE":"２７巷","ALLEY":" ","HOUSE_NO":"１３號","E_COORD97":173048.23999999999,"N_COORD97":2546819.21,"ADDRESS":"二王路２７巷１３號","OBJECTID":337379},"geometry":{"x":173048.24000000209,"y":2546819.2100000009}},{"attributes":{"ID":337389,"DIS_CODE":0,"TOWNNAME":"新化區","LI":"豐榮里","LIN":"5鄰","STREET":" ","SECT":" ","MAREA":"洋子","LANE":" ","ALLEY":" ","HOUSE_NO":"１２０號之１","E_COORD97":177887.41,"N_COORD97":2548230.2599999998,"ADDRESS":"洋子１２０號之１","OBJECTID":337380},"geometry":{"x":177887.41000000108,"y":2548230.2600000016}},{"attributes":{"ID":337390,"DIS_CODE":0,"TOWNNAME":"新化區","LI":"唪口里","LIN":"5鄰","STREET":" ","SECT":" ","MAREA":"唪口","LANE":" ","ALLEY":" ","HOUSE_NO":"５６號之５","E_COORD97":178103.76000000001,"N_COORD97":2549128.2599999998,"ADDRESS":"唪口５６號之５","OBJECTID":337381},"geometry":{"x":178103.75999999978,"y":2549128.2600000035}},{"attributes":{"ID":337391,"DIS_CODE":0,"TOWNNAME":"新化區","LI":"山\u25A0里","LIN":"5鄰","STREET":" ","SECT":" ","MAREA":"頂山\u25A0","LANE":" ","ALLEY":" ","HOUSE_NO":"１４號之１","E_COORD97":179626.51000000001,"N_COORD97":2546826.2599999998,"ADDRESS":"頂山\u25A0１４號之１","OBJECTID":337382},"geometry":{"x":179626.50999999978,"y":2546826.2600000035}},{"attributes":{"ID":337392,"DIS_CODE":0,"TOWNNAME":"新化區","LI":"全興里","LIN":"5鄰","STREET":" ","SECT":" ","MAREA":"竹子\u25A0","LANE":" ","ALLEY":" ","HOUSE_NO":"１９７號之９","E_COORD97":177864.17999999999,"N_COORD97":2547517.2599999998,"ADDRESS":"竹子\u25A0１９７號之９","OBJECTID":337383},"geometry":{"x":177864.18000000156,"y":2547517.2599999998}},{"attributes":{"ID":337393,"DIS_CODE":0,"TOWNNAME":"新化區","LI":"協興里","LIN":"5鄰","STREET":"中山路","SECT":" ","MAREA":" ","LANE":"５４８巷","ALLEY":" ","HOUSE_NO":"２１號","E_COORD97":178437.26000000001,"N_COORD97":2548566.25,"ADDRESS":"中山路５４８巷２１號","OBJECTID":337384},"geometry":{"x":178437.26000000071,"y":2548566.2500000019}},{"attributes":{"ID":337394,"DIS_CODE":0,"TOWNNAME":"新化區","LI":"武安里","LIN":"5鄰","STREET":"中正路","SECT":" ","MAREA":" ","LANE":"３６９巷","ALLEY":" ","HOUSE_NO":"３３號","E_COORD97":179050.06,"N_COORD97":2548263.25,"ADDRESS":"中正路３６９巷３３號","OBJECTID":337385},"geometry":{"x":179050.06000000052,"y":2548263.25}},{"attributes":{"ID":337395,"DIS_CODE":0,"TOWNNAME":"新化區","LI":"唪口里","LIN":"5鄰","STREET":"中正路","SECT":" ","MAREA":" ","LANE":"７０７巷","ALLEY":" ","HOUSE_NO":"７０號","E_COORD97":178430.45999999999,"N_COORD97":2549039.25,"ADDRESS":"中正路７０７巷７０號","OBJECTID":337386},"geometry":{"x":178430.46000000183,"y":2549039.25}},{"attributes":{"ID":337396,"DIS_CODE":0,"TOWNNAME":"新化區","LI":"武安里","LIN":"5鄰","STREET":"中正路","SECT":" ","MAREA":" ","LANE":"３６９巷","ALLEY":" ","HOUSE_NO":"２９號","E_COORD97":179055.85999999999,"N_COORD97":2548264.25,"ADDRESS":"中正路３６９巷２９號","OBJECTID":337387},"geometry":{"x":179055.86000000127,"y":2548264.2500000019}},{"attributes":{"ID":337397,"DIS_CODE":0,"TOWNNAME":"安南區","LI":"布袋里","LIN":"5鄰","STREET":"長溪路","SECT":"三段","MAREA":" ","LANE":"４０巷","ALLEY":" ","HOUSE_NO":"１３號","E_COORD97":168125.70999999999,"N_COORD97":2551134.7799999998,"ADDRESS":"長溪路三段４０巷１３號","OBJECTID":337388},"geometry":{"x":168125.71000000089,"y":2551134.7800000031}},{"attributes":{"ID":337398,"DIS_CODE":0,"TOWNNAME":"安南區","LI":"城西里","LIN":"5鄰","STREET":"城西街","SECT":"三段","MAREA":" ","LANE":"６１４巷","ALLEY":" ","HOUSE_NO":"１７號之５","E_COORD97":156923.28,"N_COORD97":2550867.2000000002,"ADDRESS":"城西街三段６１４巷１７號之５","OBJECTID":337389},"geometry":{"x":156923.27999999933,"y":2550867.200000003}},{"attributes":{"ID":337399,"DIS_CODE":0,"TOWNNAME":"安南區","LI":"海西里","LIN":"5鄰","STREET":"海中街","SECT":" ","MAREA":" ","LANE":"１２１巷","ALLEY":" ","HOUSE_NO":"９８號","E_COORD97":166216.35000000001,"N_COORD97":2548969.4500000002,"ADDRESS":"海中街１２１巷９８號","OBJECTID":337390},"geometry":{"x":166216.34999999963,"y":2548969.4499999993}},{"attributes":{"ID":337400,"DIS_CODE":0,"TOWNNAME":"安南區","LI":"海東里","LIN":"5鄰","STREET":"海佃路","SECT":"二段","MAREA":" ","LANE":"５０９巷","ALLEY":" ","HOUSE_NO":"１８號","E_COORD97":166614.26000000001,"N_COORD97":2549199.4399999999,"ADDRESS":"海佃路二段５０９巷１８號","OBJECTID":337391},"geometry":{"x":166614.25999999978,"y":2549199.4400000013}},{"attributes":{"ID":337401,"DIS_CODE":0,"TOWNNAME":"安南區","LI":"淵西里","LIN":"5鄰","STREET":"安中路","SECT":"四段","MAREA":" ","LANE":"３２０巷","ALLEY":" ","HOUSE_NO":"１７９號","E_COORD97":164841.10999999999,"N_COORD97":2550304.79,"ADDRESS":"安中路四段３２０巷１７９號","OBJECTID":337392},"geometry":{"x":164841.1099999994,"y":2550304.790000001}},{"attributes":{"ID":337402,"DIS_CODE":0,"TOWNNAME":"永康區","LI":"五王里","LIN":"1鄰","STREET":"成功路","SECT":" ","MAREA":" ","LANE":"１３０巷","ALLEY":" ","HOUSE_NO":"３０號","E_COORD97":171536.26000000001,"N_COORD97":2545541.0299999998,"ADDRESS":"成功路１３０巷３０號","OBJECTID":337393},"geometry":{"x":171536.26000000071,"y":2545541.0299999993}},{"attributes":{"ID":337403,"DIS_CODE":0,"TOWNNAME":"永康區","LI":"大橋里","LIN":"1鄰","STREET":"大橋一街","SECT":" ","MAREA":" ","LANE":"７３巷","ALLEY":" ","HOUSE_NO":"１７７號","E_COORD97":170593.54000000001,"N_COORD97":2546675.7400000002,"ADDRESS":"大橋一街７３巷１７７號","OBJECTID":337394},"geometry":{"x":170593.54000000097,"y":2546675.7400000021}},{"attributes":{"ID":337404,"DIS_CODE":0,"TOWNNAME":"中西區","LI":"協和里","LIN":"8鄰","STREET":"協和街","SECT":" ","MAREA":" ","LANE":" ","ALLEY":" ","HOUSE_NO":"１８８號","E_COORD97":167298.04999999999,"N_COORD97":2544712.7999999998,"ADDRESS":"協和街１８８號","OBJECTID":337395},"geometry":{"x":167298.05000000075,"y":2544712.8000000026}},{"attributes":{"ID":337405,"DIS_CODE":0,"TOWNNAME":"中西區","LI":"協和里","LIN":"8鄰","STREET":"協和街","SECT":" ","MAREA":" ","LANE":" ","ALLEY":" ","HOUSE_NO":"１９０號","E_COORD97":167301.88,"N_COORD97":2544714.8500000001,"ADDRESS":"協和街１９０號","OBJECTID":337396},"geometry":{"x":167301.87999999896,"y":2544714.8499999996}},{"attributes":{"ID":337406,"DIS_CODE":0,"TOWNNAME":"中西區","LI":"協和里","LIN":"8鄰","STREET":"協和街","SECT":" ","MAREA":" ","LANE":" ","ALLEY":" ","HOUSE_NO":"１９２號","E_COORD97":167305.85000000001,"N_COORD97":2544717.1699999999,"ADDRESS":"協和街１９２號","OBJECTID":337397},"geometry":{"x":167305.85000000056,"y":2544717.1699999999}},{"attributes":{"ID":337407,"DIS_CODE":0,"TOWNNAME":"中西區","LI":"協和里","LIN":"8鄰","STREET":"協和街","SECT":" ","MAREA":" ","LANE":" ","ALLEY":" ","HOUSE_NO":"１９４號","E_COORD97":167305.29999999999,"N_COORD97":2544725.6400000001,"ADDRESS":"協和街１９４號","OBJECTID":337398},"geometry":{"x":167305.29999999981,"y":2544725.6400000043}},{"attributes":{"ID":337408,"DIS_CODE":0,"TOWNNAME":"中西區","LI":"協和里","LIN":"8鄰","STREET":"協和街","SECT":" ","MAREA":" ","LANE":" ","ALLEY":" ","HOUSE_NO":"１９６號","E_COORD97":167308.72,"N_COORD97":2544728.2400000002,"ADDRESS":"協和街１９６號","OBJECTID":337399},"geometry":{"x":167308.72000000067,"y":2544728.2400000039}},{"attributes":{"ID":337409,"DIS_CODE":0,"TOWNNAME":"中西區","LI":"協和里","LIN":"8鄰","STREET":"協和街","SECT":" ","MAREA":" ","LANE":" ","ALLEY":" ","HOUSE_NO":"１９８號","E_COORD97":167312.01000000001,"N_COORD97":2544731.3799999999,"ADDRESS":"協和街１９８號","OBJECTID":337400},"geometry":{"x":167312.00999999978,"y":2544731.379999999}}]}