{"displayFieldName":"TOWNNAME","fieldAliases":{"ID":"ID","DIS_CODE":"DIS_CODE","TOWNNAME":"TOWNNAME","LI":"LI","LIN":"LIN","STREET":"STREET","SECT":"SECT","MAREA":"MAREA","LANE":"LANE","ALLEY":"ALLEY","HOUSE_NO":"HOUSE_NO","E_COORD97":"E_COORD97","N_COORD97":"N_COORD97","ADDRESS":"ADDRESS","OBJECTID":"OBJECTID"},"geometryType":"esriGeometryPoint","spatialReference":{"wkid":102443,"latestWkid":3826},"fields":[{"name":"ID","type":"esriFieldTypeDouble","alias":"ID"},{"name":"DIS_CODE","type":"esriFieldTypeInteger","alias":"DIS_CODE"},{"name":"TOWNNAME","type":"esriFieldTypeString","alias":"TOWNNAME","length":8},{"name":"LI","type":"esriFieldTypeString","alias":"LI","length":8},{"name":"LIN","type":"esriFieldTypeString","alias":"LIN","length":12},{"name":"STREET","type":"esriFieldTypeString","alias":"STREET","length":20},{"name":"SECT","type":"esriFieldTypeString","alias":"SECT","length":8},{"name":"MAREA","type":"esriFieldTypeString","alias":"MAREA","length":12},{"name":"LANE","type":"esriFieldTypeString","alias":"LANE","length":10},{"name":"ALLEY","type":"esriFieldTypeString","alias":"ALLEY","length":10},{"name":"HOUSE_NO","type":"esriFieldTypeString","alias":"HOUSE_NO","length":20},{"name":"E_COORD97","type":"esriFieldTypeDouble","alias":"E_COORD97"},{"name":"N_COORD97","type":"esriFieldTypeDouble","alias":"N_COORD97"},{"name":"ADDRESS","type":"esriFieldTypeString","alias":"ADDRESS","length":50},{"name":"OBJECTID","type":"esriFieldTypeOID","alias":"OBJECTID"}],"features":[{"attributes":{"ID":50601,"DIS_CODE":0,"TOWNNAME":"安定區","LI":"中榮里","LIN":"1鄰","STREET":" ","SECT":" ","MAREA":"許中營","LANE":" ","ALLEY":" ","HOUSE_NO":"１之１２號","E_COORD97":172209.04000000001,"N_COORD97":2554925.2999999998,"ADDRESS":"許中營１之１２號","OBJECTID":50601},"geometry":{"x":172209.04000000097,"y":2554925.3000000007}},{"attributes":{"ID":50602,"DIS_CODE":0,"TOWNNAME":"南區","LI":"佛壇里","LIN":"15鄰","STREET":"興南街","SECT":" ","MAREA":" ","LANE":"１０１巷","ALLEY":"８弄","HOUSE_NO":"１０號","E_COORD97":166163.07999999999,"N_COORD97":2535805.5600000001,"ADDRESS":"興南街１０１巷８弄１０號","OBJECTID":50602},"geometry":{"x":166163.08000000007,"y":2535805.5600000005}},{"attributes":{"ID":50603,"DIS_CODE":0,"TOWNNAME":"南區","LI":"佛壇里","LIN":"15鄰","STREET":"興南街","SECT":" ","MAREA":" ","LANE":"１０１巷","ALLEY":"８弄","HOUSE_NO":"１２號","E_COORD97":166159.04000000001,"N_COORD97":2535804.2799999998,"ADDRESS":"興南街１０１巷８弄１２號","OBJECTID":50603},"geometry":{"x":166159.04000000097,"y":2535804.2800000012}},{"attributes":{"ID":50604,"DIS_CODE":0,"TOWNNAME":"南區","LI":"佛壇里","LIN":"15鄰","STREET":"興南街","SECT":" ","MAREA":" ","LANE":"１０１巷","ALLEY":"８弄","HOUSE_NO":"１８號","E_COORD97":166146.70999999999,"N_COORD97":2535798.77,"ADDRESS":"興南街１０１巷８弄１８號","OBJECTID":50604},"geometry":{"x":166146.70999999996,"y":2535798.7699999996}},{"attributes":{"ID":50605,"DIS_CODE":0,"TOWNNAME":"南區","LI":"佛壇里","LIN":"15鄰","STREET":"興南街","SECT":" ","MAREA":" ","LANE":"１０１巷","ALLEY":"８弄","HOUSE_NO":"２０號","E_COORD97":166143.22,"N_COORD97":2535796.9300000002,"ADDRESS":"興南街１０１巷８弄２０號","OBJECTID":50605},"geometry":{"x":166143.21999999974,"y":2535796.9300000016}},{"attributes":{"ID":50606,"DIS_CODE":0,"TOWNNAME":"南區","LI":"佛壇里","LIN":"15鄰","STREET":"興南街","SECT":" ","MAREA":" ","LANE":"１０１巷","ALLEY":"８弄","HOUSE_NO":"２２號","E_COORD97":166139.54000000001,"N_COORD97":2535795.46,"ADDRESS":"興南街１０１巷８弄２２號","OBJECTID":50606},"geometry":{"x":166139.54000000004,"y":2535795.4600000009}},{"attributes":{"ID":50607,"DIS_CODE":0,"TOWNNAME":"中西區","LI":"民生里","LIN":"17鄰","STREET":"金華路","SECT":"三段","MAREA":" ","LANE":" ","ALLEY":" ","HOUSE_NO":"１１５號","E_COORD97":167214.23000000001,"N_COORD97":2543516.8900000001,"ADDRESS":"金華路三段１１５號","OBJECTID":50607},"geometry":{"x":167214.23000000138,"y":2543516.8899999987}},{"attributes":{"ID":50608,"DIS_CODE":0,"TOWNNAME":"中西區","LI":"民生里","LIN":"17鄰","STREET":"金華路","SECT":"三段","MAREA":" ","LANE":" ","ALLEY":" ","HOUSE_NO":"９９號","E_COORD97":167211.73000000001,"N_COORD97":2543479.5600000001,"ADDRESS":"金華路三段９９號","OBJECTID":50608},"geometry":{"x":167211.73000000045,"y":2543479.5600000024}},{"attributes":{"ID":50609,"DIS_CODE":0,"TOWNNAME":"中西區","LI":"民生里","LIN":"17鄰","STREET":"保安路","SECT":" ","MAREA":" ","LANE":" ","ALLEY":" ","HOUSE_NO":"１７５號","E_COORD97":167208.59,"N_COORD97":2543513.6600000001,"ADDRESS":"保安路１７５號","OBJECTID":50609},"geometry":{"x":167208.58999999985,"y":2543513.6600000001}},{"attributes":{"ID":50610,"DIS_CODE":0,"TOWNNAME":"中西區","LI":"民生里","LIN":"17鄰","STREET":"保安路","SECT":" ","MAREA":" ","LANE":" ","ALLEY":" ","HOUSE_NO":"１７７號","E_COORD97":167204.53,"N_COORD97":2543515.5800000001,"ADDRESS":"保安路１７７號","OBJECTID":50610},"geometry":{"x":167204.53000000026,"y":2543515.5800000019}},{"attributes":{"ID":50611,"DIS_CODE":0,"TOWNNAME":"中西區","LI":"民生里","LIN":"17鄰","STREET":"保安路","SECT":" ","MAREA":" ","LANE":" ","ALLEY":" ","HOUSE_NO":"１８１號","E_COORD97":167182.78,"N_COORD97":2543522.3500000001,"ADDRESS":"保安路１８１號","OBJECTID":50611},"geometry":{"x":167182.78000000212,"y":2543522.3499999996}},{"attributes":{"ID":50612,"DIS_CODE":0,"TOWNNAME":"中西區","LI":"民生里","LIN":"17鄰","STREET":"保安路","SECT":" ","MAREA":" ","LANE":" ","ALLEY":" ","HOUSE_NO":"１８３號","E_COORD97":167177.54000000001,"N_COORD97":2543524.1699999999,"ADDRESS":"保安路１８３號","OBJECTID":50612},"geometry":{"x":167177.54000000097,"y":2543524.1699999999}},{"attributes":{"ID":50613,"DIS_CODE":0,"TOWNNAME":"歸仁區","LI":"八甲里","LIN":"4鄰","STREET":"大明三街","SECT":" ","MAREA":" ","LANE":" ","ALLEY":" ","HOUSE_NO":"８號","E_COORD97":178065.26999999999,"N_COORD97":2541809.6099999999,"ADDRESS":"大明三街８號","OBJECTID":50613},"geometry":{"x":178065.27000000142,"y":2541809.6100000013}},{"attributes":{"ID":50614,"DIS_CODE":0,"TOWNNAME":"新市區","LI":"新和里","LIN":" ","STREET":"仁愛街","SECT":" ","MAREA":" ","LANE":" ","ALLEY":" ","HOUSE_NO":"４４之４號","E_COORD97":177516.32999999999,"N_COORD97":2552327.7999999998,"ADDRESS":"仁愛街４４之４號","OBJECTID":50614},"geometry":{"x":177516.33000000101,"y":2552327.8000000007}},{"attributes":{"ID":50615,"DIS_CODE":0,"TOWNNAME":"南區","LI":"佛壇里","LIN":"15鄰","STREET":"興南街","SECT":" ","MAREA":" ","LANE":"１０１巷","ALLEY":"８弄","HOUSE_NO":"６號","E_COORD97":166170.63,"N_COORD97":2535810.71,"ADDRESS":"興南街１０１巷８弄６號","OBJECTID":50615},"geometry":{"x":166170.62999999989,"y":2535810.7100000009}},{"attributes":{"ID":50616,"DIS_CODE":0,"TOWNNAME":"新市區","LI":"新和里","LIN":" ","STREET":"中正路","SECT":" ","MAREA":" ","LANE":" ","ALLEY":" ","HOUSE_NO":"９０號","E_COORD97":177445.45000000001,"N_COORD97":2552471.75,"ADDRESS":"中正路９０號","OBJECTID":50616},"geometry":{"x":177445.45000000019,"y":2552471.7500000019}},{"attributes":{"ID":50617,"DIS_CODE":0,"TOWNNAME":"安定區","LI":"蘇厝里","LIN":"17鄰","STREET":" ","SECT":" ","MAREA":"蘇厝","LANE":" ","ALLEY":" ","HOUSE_NO":"４４８號","E_COORD97":173244.62,"N_COORD97":2558742.25,"ADDRESS":"蘇厝４４８號","OBJECTID":50617},"geometry":{"x":173244.62000000104,"y":2558742.25}},{"attributes":{"ID":50618,"DIS_CODE":0,"TOWNNAME":"南區","LI":"佛壇里","LIN":"15鄰","STREET":"興南街","SECT":" ","MAREA":" ","LANE":"１０１巷","ALLEY":"８弄","HOUSE_NO":"８號","E_COORD97":166166.39999999999,"N_COORD97":2535808.3199999998,"ADDRESS":"興南街１０１巷８弄８號","OBJECTID":50618},"geometry":{"x":166166.40000000037,"y":2535808.3200000022}},{"attributes":{"ID":50619,"DIS_CODE":0,"TOWNNAME":"南區","LI":"府南里","LIN":"15鄰","STREET":"金華路","SECT":"一段","MAREA":" ","LANE":"５３０巷","ALLEY":"１０弄","HOUSE_NO":"１號","E_COORD97":167094.95000000001,"N_COORD97":2541629.0699999998,"ADDRESS":"金華路一段５３０巷１０弄１號","OBJECTID":50619},"geometry":{"x":167094.95000000205,"y":2541629.0700000003}},{"attributes":{"ID":50620,"DIS_CODE":0,"TOWNNAME":"安定區","LI":"蘇林里","LIN":"17鄰","STREET":" ","SECT":" ","MAREA":"蘇厝","LANE":" ","ALLEY":" ","HOUSE_NO":"１８５號","E_COORD97":173322.72,"N_COORD97":2559001.25,"ADDRESS":"蘇厝１８５號","OBJECTID":50620},"geometry":{"x":173322.72000000067,"y":2559001.2500000037}},{"attributes":{"ID":50621,"DIS_CODE":0,"TOWNNAME":"安定區","LI":"港口里","LIN":"17鄰","STREET":" ","SECT":" ","MAREA":"港口","LANE":" ","ALLEY":" ","HOUSE_NO":"３６４號之１３","E_COORD97":171498.87,"N_COORD97":2554875.2999999998,"ADDRESS":"港口３６４號之１３","OBJECTID":50621},"geometry":{"x":171498.87000000011,"y":2554875.3000000007}},{"attributes":{"ID":50622,"DIS_CODE":0,"TOWNNAME":"南區","LI":"府南里","LIN":"15鄰","STREET":"金華路","SECT":"一段","MAREA":" ","LANE":"５３０巷","ALLEY":"１０弄","HOUSE_NO":"２號","E_COORD97":167085.29999999999,"N_COORD97":2541631.9500000002,"ADDRESS":"金華路一段５３０巷１０弄２號","OBJECTID":50622},"geometry":{"x":167085.29999999981,"y":2541631.9499999993}},{"attributes":{"ID":50623,"DIS_CODE":0,"TOWNNAME":"南區","LI":"府南里","LIN":"15鄰","STREET":"金華路","SECT":"一段","MAREA":" ","LANE":"５３０巷","ALLEY":"１０弄","HOUSE_NO":"３號","E_COORD97":167094.75,"N_COORD97":2541626.2599999998,"ADDRESS":"金華路一段５３０巷１０弄３號","OBJECTID":50623},"geometry":{"x":167094.75000000093,"y":2541626.2600000016}},{"attributes":{"ID":50624,"DIS_CODE":0,"TOWNNAME":"南區","LI":"府南里","LIN":"15鄰","STREET":"金華路","SECT":"一段","MAREA":" ","LANE":"５３０巷","ALLEY":"１０弄","HOUSE_NO":"５號","E_COORD97":167093.54999999999,"N_COORD97":2541621.5,"ADDRESS":"金華路一段５３０巷１０弄５號","OBJECTID":50624},"geometry":{"x":167093.54999999981,"y":2541621.5000000019}},{"attributes":{"ID":50625,"DIS_CODE":0,"TOWNNAME":"南區","LI":"府南里","LIN":"15鄰","STREET":"金華路","SECT":"一段","MAREA":" ","LANE":"５３０巷","ALLEY":"１０弄","HOUSE_NO":"６號","E_COORD97":167083.42000000001,"N_COORD97":2541628.1000000001,"ADDRESS":"金華路一段５３０巷１０弄６號","OBJECTID":50625},"geometry":{"x":167083.42000000086,"y":2541628.0999999996}},{"attributes":{"ID":50626,"DIS_CODE":0,"TOWNNAME":"南區","LI":"府南里","LIN":"15鄰","STREET":"金華路","SECT":"一段","MAREA":" ","LANE":"５３０巷","ALLEY":"１０弄","HOUSE_NO":"７號","E_COORD97":167092.54000000001,"N_COORD97":2541616.4100000001,"ADDRESS":"金華路一段５３０巷１０弄７號","OBJECTID":50626},"geometry":{"x":167092.5400000019,"y":2541616.4100000001}},{"attributes":{"ID":50627,"DIS_CODE":0,"TOWNNAME":"歸仁區","LI":"南保里","LIN":"36鄰","STREET":"民權六街","SECT":" ","MAREA":" ","LANE":" ","ALLEY":" ","HOUSE_NO":"１２５號","E_COORD97":176696.84,"N_COORD97":2541052.29,"ADDRESS":"民權六街１２５號","OBJECTID":50627},"geometry":{"x":176696.83999999892,"y":2541052.290000001}},{"attributes":{"ID":50628,"DIS_CODE":0,"TOWNNAME":"歸仁區","LI":"後市里","LIN":"26鄰","STREET":"中山路","SECT":"二段","MAREA":" ","LANE":" ","ALLEY":" ","HOUSE_NO":"８６號","E_COORD97":177366.28,"N_COORD97":2540822.7400000002,"ADDRESS":"中山路二段８６號","OBJECTID":50628},"geometry":{"x":177366.28000000119,"y":2540822.7400000021}},{"attributes":{"ID":50629,"DIS_CODE":0,"TOWNNAME":"南區","LI":"府南里","LIN":"15鄰","STREET":"金華路","SECT":"一段","MAREA":" ","LANE":"５３０巷","ALLEY":"１０弄","HOUSE_NO":"８號","E_COORD97":167082.62,"N_COORD97":2541623.4100000001,"ADDRESS":"金華路一段５３０巷１０弄８號","OBJECTID":50629},"geometry":{"x":167082.62000000104,"y":2541623.4100000001}},{"attributes":{"ID":50630,"DIS_CODE":0,"TOWNNAME":"安定區","LI":"港口里","LIN":"17鄰","STREET":" ","SECT":" ","MAREA":"港口","LANE":" ","ALLEY":" ","HOUSE_NO":"３６４之２０號","E_COORD97":171529.54000000001,"N_COORD97":2554871.2999999998,"ADDRESS":"港口３６４之２０號","OBJECTID":50630},"geometry":{"x":171529.54000000097,"y":2554871.3000000007}},{"attributes":{"ID":50631,"DIS_CODE":0,"TOWNNAME":"安定區","LI":"港口里","LIN":"17鄰","STREET":" ","SECT":" ","MAREA":"港口","LANE":" ","ALLEY":" ","HOUSE_NO":"３６４之２３號","E_COORD97":171506.94,"N_COORD97":2554858.2999999998,"ADDRESS":"港口３６４之２３號","OBJECTID":50631},"geometry":{"x":171506.94000000134,"y":2554858.3000000007}},{"attributes":{"ID":50632,"DIS_CODE":0,"TOWNNAME":"南區","LI":"府南里","LIN":"15鄰","STREET":"金華路","SECT":"一段","MAREA":" ","LANE":"５３０巷","ALLEY":"１０弄","HOUSE_NO":"９號","E_COORD97":167092.60999999999,"N_COORD97":2541612.7599999998,"ADDRESS":"金華路一段５３０巷１０弄９號","OBJECTID":50632},"geometry":{"x":167092.61000000127,"y":2541612.7600000016}},{"attributes":{"ID":50633,"DIS_CODE":0,"TOWNNAME":"南區","LI":"府南里","LIN":"15鄰","STREET":"金華路","SECT":"一段","MAREA":" ","LANE":"５３０巷","ALLEY":"１０弄","HOUSE_NO":"１０號","E_COORD97":167082.28,"N_COORD97":2541619.3300000001,"ADDRESS":"金華路一段５３０巷１０弄１０號","OBJECTID":50633},"geometry":{"x":167082.28000000026,"y":2541619.3300000019}},{"attributes":{"ID":50634,"DIS_CODE":0,"TOWNNAME":"南區","LI":"府南里","LIN":"15鄰","STREET":"金華路","SECT":"一段","MAREA":" ","LANE":"５３０巷","ALLEY":"１０弄","HOUSE_NO":"１１號","E_COORD97":167091.26999999999,"N_COORD97":2541608.4100000001,"ADDRESS":"金華路一段５３０巷１０弄１１號","OBJECTID":50634},"geometry":{"x":167091.27000000048,"y":2541608.410000002}},{"attributes":{"ID":50635,"DIS_CODE":0,"TOWNNAME":"安定區","LI":"港口里","LIN":"17鄰","STREET":" ","SECT":" ","MAREA":"港口","LANE":" ","ALLEY":" ","HOUSE_NO":"３６７號之２","E_COORD97":171520.56,"N_COORD97":2554912.2999999998,"ADDRESS":"港口３６７號之２","OBJECTID":50635},"geometry":{"x":171520.56000000052,"y":2554912.3000000007}},{"attributes":{"ID":50636,"DIS_CODE":0,"TOWNNAME":"南區","LI":"府南里","LIN":"15鄰","STREET":"金華路","SECT":"一段","MAREA":" ","LANE":"５３０巷","ALLEY":"１０弄","HOUSE_NO":"１２號","E_COORD97":167080.54000000001,"N_COORD97":2541614.77,"ADDRESS":"金華路一段５３０巷１０弄１２號","OBJECTID":50636},"geometry":{"x":167080.54000000004,"y":2541614.7700000033}},{"attributes":{"ID":50637,"DIS_CODE":0,"TOWNNAME":"南區","LI":"府南里","LIN":"15鄰","STREET":"金華路","SECT":"一段","MAREA":" ","LANE":"５３０巷","ALLEY":"１０弄","HOUSE_NO":"１３號","E_COORD97":167091.26999999999,"N_COORD97":2541603.5899999999,"ADDRESS":"金華路一段５３０巷１０弄１３號","OBJECTID":50637},"geometry":{"x":167091.27000000048,"y":2541603.5900000017}},{"attributes":{"ID":50638,"DIS_CODE":0,"TOWNNAME":"新化區","LI":"太平里","LIN":"17鄰","STREET":"民權街","SECT":" ","MAREA":" ","LANE":" ","ALLEY":" ","HOUSE_NO":"１００號","E_COORD97":178741.81,"N_COORD97":2548718.25,"ADDRESS":"民權街１００號","OBJECTID":50638},"geometry":{"x":178741.81000000052,"y":2548718.2500000037}},{"attributes":{"ID":50639,"DIS_CODE":0,"TOWNNAME":"南區","LI":"府南里","LIN":"15鄰","STREET":"金華路","SECT":"一段","MAREA":" ","LANE":"５３０巷","ALLEY":"１０弄","HOUSE_NO":"１４號","E_COORD97":167080.20000000001,"N_COORD97":2541611.1600000001,"ADDRESS":"金華路一段５３０巷１０弄１４號","OBJECTID":50639},"geometry":{"x":167080.20000000112,"y":2541611.1600000001}},{"attributes":{"ID":50640,"DIS_CODE":0,"TOWNNAME":"南區","LI":"府南里","LIN":"15鄰","STREET":"金華路","SECT":"一段","MAREA":" ","LANE":"５３０巷","ALLEY":"１０弄","HOUSE_NO":"１５號","E_COORD97":167077.34,"N_COORD97":2541602.1000000001,"ADDRESS":"金華路一段５３０巷１０弄１５號","OBJECTID":50640},"geometry":{"x":167077.34000000078,"y":2541602.0999999996}},{"attributes":{"ID":50641,"DIS_CODE":0,"TOWNNAME":"南區","LI":"府南里","LIN":"15鄰","STREET":"金華路","SECT":"一段","MAREA":" ","LANE":"５３０巷","ALLEY":"１０弄","HOUSE_NO":"１６號","E_COORD97":167079.20000000001,"N_COORD97":2541606,"ADDRESS":"金華路一段５３０巷１０弄１６號","OBJECTID":50641},"geometry":{"x":167079.20000000019,"y":2541606}},{"attributes":{"ID":50642,"DIS_CODE":0,"TOWNNAME":"安定區","LI":"港口里","LIN":"1鄰","STREET":" ","SECT":" ","MAREA":"港口","LANE":" ","ALLEY":" ","HOUSE_NO":"２３３號之２","E_COORD97":171576.66,"N_COORD97":2554521.2999999998,"ADDRESS":"港口２３３號之２","OBJECTID":50642},"geometry":{"x":171576.66000000015,"y":2554521.3000000026}},{"attributes":{"ID":50643,"DIS_CODE":0,"TOWNNAME":"安定區","LI":"中沙里","LIN":"1鄰","STREET":" ","SECT":" ","MAREA":"中崙","LANE":" ","ALLEY":" ","HOUSE_NO":"６７號之３","E_COORD97":169101.62822799999,"N_COORD97":2553271.9115800001,"ADDRESS":"中崙６７號之３","OBJECTID":50643},"geometry":{"x":169101.62822800037,"y":2553271.9115780015}},{"attributes":{"ID":50644,"DIS_CODE":0,"TOWNNAME":"安定區","LI":"港南里","LIN":"1鄰","STREET":" ","SECT":" ","MAREA":"港口","LANE":" ","ALLEY":" ","HOUSE_NO":"１之５５號","E_COORD97":170955.34,"N_COORD97":2554338.2999999998,"ADDRESS":"港口１之５５號","OBJECTID":50644},"geometry":{"x":170955.34000000171,"y":2554338.3000000007}},{"attributes":{"ID":50645,"DIS_CODE":0,"TOWNNAME":"安定區","LI":"中沙里","LIN":"1鄰","STREET":" ","SECT":" ","MAREA":"中崙","LANE":" ","ALLEY":" ","HOUSE_NO":"６７號","E_COORD97":169101.57827900001,"N_COORD97":2553259.3423700002,"ADDRESS":"中崙６７號","OBJECTID":50645},"geometry":{"x":169101.57827899978,"y":2553259.3423670027}},{"attributes":{"ID":50646,"DIS_CODE":0,"TOWNNAME":"安定區","LI":"中榮里","LIN":"1鄰","STREET":" ","SECT":" ","MAREA":"許中營","LANE":" ","ALLEY":" ","HOUSE_NO":"１之２７號","E_COORD97":172225.23999999999,"N_COORD97":2554910.2999999998,"ADDRESS":"許中營１之２７號","OBJECTID":50646},"geometry":{"x":172225.24000000115,"y":2554910.3000000026}},{"attributes":{"ID":50647,"DIS_CODE":0,"TOWNNAME":"安定區","LI":"港南里","LIN":"1鄰","STREET":" ","SECT":" ","MAREA":"港口","LANE":" ","ALLEY":" ","HOUSE_NO":"１之４６號","E_COORD97":171159.94,"N_COORD97":2553954.2999999998,"ADDRESS":"港口１之４６號","OBJECTID":50647},"geometry":{"x":171159.94000000041,"y":2553954.3000000026}},{"attributes":{"ID":50648,"DIS_CODE":0,"TOWNNAME":"安定區","LI":"港口里","LIN":"1鄰","STREET":" ","SECT":" ","MAREA":"港口","LANE":" ","ALLEY":" ","HOUSE_NO":"２３４號之１","E_COORD97":171588.63,"N_COORD97":2554576.2999999998,"ADDRESS":"港口２３４號之１","OBJECTID":50648},"geometry":{"x":171588.62999999989,"y":2554576.3000000007}},{"attributes":{"ID":50649,"DIS_CODE":0,"TOWNNAME":"南區","LI":"府南里","LIN":"15鄰","STREET":"金華路","SECT":"一段","MAREA":" ","LANE":"５３０巷","ALLEY":"１０弄","HOUSE_NO":"１８號","E_COORD97":167070.12,"N_COORD97":2541626.98,"ADDRESS":"金華路一段５３０巷１０弄１８號","OBJECTID":50649},"geometry":{"x":167070.12000000197,"y":2541626.9800000004}},{"attributes":{"ID":50650,"DIS_CODE":0,"TOWNNAME":"歸仁區","LI":"武東里","LIN":"15鄰","STREET":"中正南路","SECT":"二段","MAREA":" ","LANE":"９３巷","ALLEY":"７弄","HOUSE_NO":"２７號","E_COORD97":175864.17999999999,"N_COORD97":2536304.27,"ADDRESS":"中正南路二段９３巷７弄２７號","OBJECTID":50650},"geometry":{"x":175864.18000000063,"y":2536304.2699999996}},{"attributes":{"ID":50651,"DIS_CODE":0,"TOWNNAME":"歸仁區","LI":"武東里","LIN":"15鄰","STREET":"中正南路","SECT":"二段","MAREA":" ","LANE":"９３巷","ALLEY":"７弄","HOUSE_NO":"２９號","E_COORD97":175862.97,"N_COORD97":2536300.02,"ADDRESS":"中正南路二段９３巷７弄２９號","OBJECTID":50651},"geometry":{"x":175862.96999999974,"y":2536300.0199999996}},{"attributes":{"ID":50652,"DIS_CODE":0,"TOWNNAME":"歸仁區","LI":"武東里","LIN":"15鄰","STREET":"中正南路","SECT":"二段","MAREA":" ","LANE":"９３巷","ALLEY":"７弄","HOUSE_NO":"３１號","E_COORD97":175860.88,"N_COORD97":2536295.7400000002,"ADDRESS":"中正南路二段９３巷７弄３１號","OBJECTID":50652},"geometry":{"x":175860.87999999896,"y":2536295.7400000002}},{"attributes":{"ID":50653,"DIS_CODE":0,"TOWNNAME":"歸仁區","LI":"武東里","LIN":"15鄰","STREET":"中正南路","SECT":"二段","MAREA":" ","LANE":"９３巷","ALLEY":"７弄","HOUSE_NO":"３３號","E_COORD97":175859.48000000001,"N_COORD97":2536291.25,"ADDRESS":"中正南路二段９３巷７弄３３號","OBJECTID":50653},"geometry":{"x":175859.48000000138,"y":2536291.25}},{"attributes":{"ID":50654,"DIS_CODE":0,"TOWNNAME":"南區","LI":"南都里","LIN":"15鄰","STREET":"中華南路","SECT":"二段","MAREA":" ","LANE":"３１５巷","ALLEY":"５弄","HOUSE_NO":"２１號","E_COORD97":166552,"N_COORD97":2540129.5899999999,"ADDRESS":"中華南路二段３１５巷５弄２１號","OBJECTID":50654},"geometry":{"x":166552.00000000186,"y":2540129.5900000017}},{"attributes":{"ID":50655,"DIS_CODE":0,"TOWNNAME":"安定區","LI":"中沙里","LIN":"1鄰","STREET":" ","SECT":" ","MAREA":"中崙","LANE":" ","ALLEY":" ","HOUSE_NO":"６２號","E_COORD97":169131.06,"N_COORD97":2553237.25,"ADDRESS":"中崙６２號","OBJECTID":50655},"geometry":{"x":169131.05999999959,"y":2553237.25}},{"attributes":{"ID":50656,"DIS_CODE":0,"TOWNNAME":"安定區","LI":"中沙里","LIN":"1鄰","STREET":" ","SECT":" ","MAREA":"中崙","LANE":" ","ALLEY":" ","HOUSE_NO":"２４號","E_COORD97":169234.66,"N_COORD97":2553309.25,"ADDRESS":"中崙２４號","OBJECTID":50656},"geometry":{"x":169234.66000000201,"y":2553309.2500000019}},{"attributes":{"ID":50657,"DIS_CODE":0,"TOWNNAME":"安定區","LI":"港口里","LIN":"1鄰","STREET":" ","SECT":" ","MAREA":"港口","LANE":" ","ALLEY":" ","HOUSE_NO":"２３４之２號","E_COORD97":171584.79000000001,"N_COORD97":2554573.2999999998,"ADDRESS":"港口２３４之２號","OBJECTID":50657},"geometry":{"x":171584.7900000019,"y":2554573.3000000007}},{"attributes":{"ID":50658,"DIS_CODE":0,"TOWNNAME":"安定區","LI":"安加里","LIN":"1鄰","STREET":" ","SECT":" ","MAREA":"安定","LANE":" ","ALLEY":" ","HOUSE_NO":"１０７號之３","E_COORD97":172041.97882399999,"N_COORD97":2557663.5097599998,"ADDRESS":"安定１０７號之３","OBJECTID":50658},"geometry":{"x":172041.97882399987,"y":2557663.5097630024}},{"attributes":{"ID":50659,"DIS_CODE":0,"TOWNNAME":"安定區","LI":"港南里","LIN":"1鄰","STREET":" ","SECT":" ","MAREA":"港口","LANE":" ","ALLEY":" ","HOUSE_NO":"１之６２號","E_COORD97":170711.344694,"N_COORD97":2553990.5401099999,"ADDRESS":"港口１之６２號","OBJECTID":50659},"geometry":{"x":170711.34469400067,"y":2553990.5401110016}},{"attributes":{"ID":50660,"DIS_CODE":0,"TOWNNAME":"安定區","LI":"港口里","LIN":"1鄰","STREET":" ","SECT":" ","MAREA":"港口","LANE":" ","ALLEY":" ","HOUSE_NO":"２３５之１３號","E_COORD97":171595.04000000001,"N_COORD97":2554579.2999999998,"ADDRESS":"港口２３５之１３號","OBJECTID":50660},"geometry":{"x":171595.0400000019,"y":2554579.3000000007}},{"attributes":{"ID":50661,"DIS_CODE":0,"TOWNNAME":"安定區","LI":"中榮里","LIN":"1鄰","STREET":" ","SECT":" ","MAREA":"許中營","LANE":" ","ALLEY":" ","HOUSE_NO":"１之１３號","E_COORD97":172088.84,"N_COORD97":2554951.2999999998,"ADDRESS":"許中營１之１３號","OBJECTID":50661},"geometry":{"x":172088.83999999985,"y":2554951.3000000026}},{"attributes":{"ID":50662,"DIS_CODE":0,"TOWNNAME":"安定區","LI":"港南里","LIN":"1鄰","STREET":" ","SECT":" ","MAREA":"港口","LANE":" ","ALLEY":" ","HOUSE_NO":"１之１８號","E_COORD97":170760.23999999999,"N_COORD97":2554038.2999999998,"ADDRESS":"港口１之１８號","OBJECTID":50662},"geometry":{"x":170760.24000000115,"y":2554038.3000000045}},{"attributes":{"ID":50663,"DIS_CODE":0,"TOWNNAME":"安定區","LI":"安加里","LIN":"1鄰","STREET":" ","SECT":" ","MAREA":"安定","LANE":" ","ALLEY":" ","HOUSE_NO":"１０６之１號","E_COORD97":172104.01999999999,"N_COORD97":2557668.3199999998,"ADDRESS":"安定１０６之１號","OBJECTID":50663},"geometry":{"x":172104.01999999955,"y":2557668.3200000003}},{"attributes":{"ID":50664,"DIS_CODE":0,"TOWNNAME":"安定區","LI":"安加里","LIN":"1鄰","STREET":" ","SECT":" ","MAREA":"安定","LANE":" ","ALLEY":" ","HOUSE_NO":"１０７號之５","E_COORD97":172034.30069999999,"N_COORD97":2557663.3510099999,"ADDRESS":"安定１０７號之５","OBJECTID":50664},"geometry":{"x":172034.30069999956,"y":2557663.3510130029}},{"attributes":{"ID":50665,"DIS_CODE":0,"TOWNNAME":"安定區","LI":"港口里","LIN":"1鄰","STREET":" ","SECT":" ","MAREA":"港口","LANE":" ","ALLEY":" ","HOUSE_NO":"２３６之８號","E_COORD97":171610.29000000001,"N_COORD97":2554541.2999999998,"ADDRESS":"港口２３６之８號","OBJECTID":50665},"geometry":{"x":171610.2900000019,"y":2554541.3000000026}},{"attributes":{"ID":50666,"DIS_CODE":0,"TOWNNAME":"安定區","LI":"中榮里","LIN":"1鄰","STREET":" ","SECT":" ","MAREA":"許中營","LANE":" ","ALLEY":" ","HOUSE_NO":"１之１６號","E_COORD97":172160.34,"N_COORD97":2554966.2999999998,"ADDRESS":"許中營１之１６號","OBJECTID":50666},"geometry":{"x":172160.33999999985,"y":2554966.3000000007}},{"attributes":{"ID":50667,"DIS_CODE":0,"TOWNNAME":"安定區","LI":"中榮里","LIN":"1鄰","STREET":" ","SECT":" ","MAREA":"許中營","LANE":" ","ALLEY":" ","HOUSE_NO":"１之５號","E_COORD97":172094.29000000001,"N_COORD97":2554982.2999999998,"ADDRESS":"許中營１之５號","OBJECTID":50667},"geometry":{"x":172094.29000000004,"y":2554982.3000000026}},{"attributes":{"ID":50668,"DIS_CODE":0,"TOWNNAME":"南區","LI":"南都里","LIN":"15鄰","STREET":"中華南路","SECT":"二段","MAREA":" ","LANE":"３１５巷","ALLEY":"５弄","HOUSE_NO":"２３號","E_COORD97":166553.10999999999,"N_COORD97":2540127.3700000001,"ADDRESS":"中華南路二段３１５巷５弄２３號","OBJECTID":50668},"geometry":{"x":166553.11000000034,"y":2540127.3700000048}},{"attributes":{"ID":50669,"DIS_CODE":0,"TOWNNAME":"安定區","LI":"安定里","LIN":"1鄰","STREET":" ","SECT":" ","MAREA":"領寄","LANE":" ","ALLEY":" ","HOUSE_NO":"１之３號","E_COORD97":173620.84,"N_COORD97":2557051.2999999998,"ADDRESS":"領寄１之３號","OBJECTID":50669},"geometry":{"x":173620.84000000078,"y":2557051.3000000007}},{"attributes":{"ID":50670,"DIS_CODE":0,"TOWNNAME":"南區","LI":"南都里","LIN":"15鄰","STREET":"中華南路","SECT":"二段","MAREA":" ","LANE":"３１５巷","ALLEY":"５弄","HOUSE_NO":"２５號","E_COORD97":166554.06,"N_COORD97":2540125.3100000001,"ADDRESS":"中華南路二段３１５巷５弄２５號","OBJECTID":50670},"geometry":{"x":166554.05999999959,"y":2540125.3100000024}},{"attributes":{"ID":50671,"DIS_CODE":0,"TOWNNAME":"南區","LI":"大恩里","LIN":"15鄰","STREET":"國民路","SECT":" ","MAREA":" ","LANE":"２１７巷","ALLEY":"１２弄","HOUSE_NO":"１６號","E_COORD97":169012.23999999999,"N_COORD97":2540907.0899999999,"ADDRESS":"國民路２１７巷１２弄１６號","OBJECTID":50671},"geometry":{"x":169012.24000000115,"y":2540907.0899999999}},{"attributes":{"ID":50672,"DIS_CODE":0,"TOWNNAME":"南區","LI":"郡南里","LIN":"15鄰","STREET":"德興路","SECT":" ","MAREA":" ","LANE":"１３９巷","ALLEY":"４４弄","HOUSE_NO":"６號","E_COORD97":167368.69,"N_COORD97":2540452.1000000001,"ADDRESS":"德興路１３９巷４４弄６號","OBJECTID":50672},"geometry":{"x":167368.69000000134,"y":2540452.0999999996}},{"attributes":{"ID":50673,"DIS_CODE":0,"TOWNNAME":"安定區","LI":"港南里","LIN":"1鄰","STREET":" ","SECT":" ","MAREA":"港口","LANE":" ","ALLEY":" ","HOUSE_NO":"１之２０號","E_COORD97":170995.64000000001,"N_COORD97":2554226.2999999998,"ADDRESS":"港口１之２０號","OBJECTID":50673},"geometry":{"x":170995.6400000006,"y":2554226.3000000026}},{"attributes":{"ID":50674,"DIS_CODE":0,"TOWNNAME":"安定區","LI":"港南里","LIN":"1鄰","STREET":" ","SECT":" ","MAREA":"港口","LANE":" ","ALLEY":" ","HOUSE_NO":"１之３５號","E_COORD97":170868.84,"N_COORD97":2554127.2999999998,"ADDRESS":"港口１之３５號","OBJECTID":50674},"geometry":{"x":170868.84000000171,"y":2554127.3000000026}},{"attributes":{"ID":50675,"DIS_CODE":0,"TOWNNAME":"安定區","LI":"港口里","LIN":"1鄰","STREET":" ","SECT":" ","MAREA":"港口","LANE":" ","ALLEY":" ","HOUSE_NO":"２３５號之５","E_COORD97":171641.17999999999,"N_COORD97":2554618.2999999998,"ADDRESS":"港口２３５號之５","OBJECTID":50675},"geometry":{"x":171641.18000000156,"y":2554618.3000000026}},{"attributes":{"ID":50676,"DIS_CODE":0,"TOWNNAME":"安定區","LI":"新吉里","LIN":"1鄰","STREET":" ","SECT":" ","MAREA":"新吉","LANE":" ","ALLEY":" ","HOUSE_NO":"２號之２１","E_COORD97":169172.10000000001,"N_COORD97":2554163.2999999998,"ADDRESS":"新吉２號之２１","OBJECTID":50676},"geometry":{"x":169172.10000000056,"y":2554163.3000000007}},{"attributes":{"ID":50677,"DIS_CODE":0,"TOWNNAME":"安平區","LI":"文平里","LIN":"15鄰","STREET":"建平五街","SECT":" ","MAREA":" ","LANE":"２２巷","ALLEY":"１５弄","HOUSE_NO":"２１號","E_COORD97":165978.94,"N_COORD97":2543167.6400000001,"ADDRESS":"建平五街２２巷１５弄２１號","OBJECTID":50677},"geometry":{"x":165978.94000000134,"y":2543167.6400000025}},{"attributes":{"ID":50678,"DIS_CODE":0,"TOWNNAME":"安定區","LI":"港南里","LIN":"1鄰","STREET":" ","SECT":" ","MAREA":"港口","LANE":" ","ALLEY":" ","HOUSE_NO":"１之８號","E_COORD97":170957.98999999999,"N_COORD97":2554192.2999999998,"ADDRESS":"港口１之８號","OBJECTID":50678},"geometry":{"x":170957.98999999929,"y":2554192.3000000026}},{"attributes":{"ID":50679,"DIS_CODE":0,"TOWNNAME":"安定區","LI":"港南里","LIN":"1鄰","STREET":" ","SECT":" ","MAREA":"港口","LANE":" ","ALLEY":" ","HOUSE_NO":"２之４號","E_COORD97":171173.69,"N_COORD97":2554257.2999999998,"ADDRESS":"港口２之４號","OBJECTID":50679},"geometry":{"x":171173.69000000041,"y":2554257.3000000007}},{"attributes":{"ID":50680,"DIS_CODE":0,"TOWNNAME":"安定區","LI":"新吉里","LIN":"1鄰","STREET":" ","SECT":" ","MAREA":"新吉","LANE":" ","ALLEY":" ","HOUSE_NO":"２之９號","E_COORD97":169155.01999999999,"N_COORD97":2554148.2999999998,"ADDRESS":"新吉２之９號","OBJECTID":50680},"geometry":{"x":169155.01999999955,"y":2554148.3000000026}},{"attributes":{"ID":50681,"DIS_CODE":0,"TOWNNAME":"安定區","LI":"港口里","LIN":"1鄰","STREET":" ","SECT":" ","MAREA":"港口","LANE":" ","ALLEY":" ","HOUSE_NO":"２３６之９號","E_COORD97":171612.09,"N_COORD97":2554545.2999999998,"ADDRESS":"港口２３６之９號","OBJECTID":50681},"geometry":{"x":171612.09000000078,"y":2554545.3000000007}},{"attributes":{"ID":50682,"DIS_CODE":0,"TOWNNAME":"安定區","LI":"港口里","LIN":"1鄰","STREET":" ","SECT":" ","MAREA":"港口","LANE":" ","ALLEY":" ","HOUSE_NO":"２３５號之１","E_COORD97":171628.13,"N_COORD97":2554605.2999999998,"ADDRESS":"港口２３５號之１","OBJECTID":50682},"geometry":{"x":171628.13000000175,"y":2554605.3000000026}},{"attributes":{"ID":50683,"DIS_CODE":0,"TOWNNAME":"安定區","LI":"港口里","LIN":"1鄰","STREET":" ","SECT":" ","MAREA":"港口","LANE":" ","ALLEY":" ","HOUSE_NO":"２３５號之６","E_COORD97":171601.32999999999,"N_COORD97":2554587.2999999998,"ADDRESS":"港口２３５號之６","OBJECTID":50683},"geometry":{"x":171601.33000000007,"y":2554587.3000000045}},{"attributes":{"ID":50684,"DIS_CODE":0,"TOWNNAME":"安定區","LI":"港南里","LIN":"1鄰","STREET":" ","SECT":" ","MAREA":"港口","LANE":" ","ALLEY":" ","HOUSE_NO":"１之１２號","E_COORD97":170867.54000000001,"N_COORD97":2554119.2999999998,"ADDRESS":"港口１之１２號","OBJECTID":50684},"geometry":{"x":170867.54000000004,"y":2554119.2999999989}},{"attributes":{"ID":50685,"DIS_CODE":0,"TOWNNAME":"安定區","LI":"港口里","LIN":"1鄰","STREET":" ","SECT":" ","MAREA":"港口","LANE":" ","ALLEY":" ","HOUSE_NO":"２３４號","E_COORD97":171576.59304899999,"N_COORD97":2554567.0466,"ADDRESS":"港口２３４號","OBJECTID":50685},"geometry":{"x":171576.59304900188,"y":2554567.0466009993}},{"attributes":{"ID":50686,"DIS_CODE":0,"TOWNNAME":"安定區","LI":"安加里","LIN":"1鄰","STREET":" ","SECT":" ","MAREA":"安定","LANE":" ","ALLEY":" ","HOUSE_NO":"１０５之３號","E_COORD97":172121.32000000001,"N_COORD97":2557676.3199999998,"ADDRESS":"安定１０５之３號","OBJECTID":50686},"geometry":{"x":172121.32000000123,"y":2557676.3200000022}},{"attributes":{"ID":50687,"DIS_CODE":0,"TOWNNAME":"安定區","LI":"六嘉里","LIN":"1鄰","STREET":" ","SECT":" ","MAREA":"六塊寮","LANE":" ","ALLEY":" ","HOUSE_NO":"２號之４","E_COORD97":170471.73000000001,"N_COORD97":2553652.2999999998,"ADDRESS":"六塊寮２號之４","OBJECTID":50687},"geometry":{"x":170471.73000000045,"y":2553652.3000000026}},{"attributes":{"ID":50688,"DIS_CODE":0,"TOWNNAME":"安定區","LI":"港口里","LIN":"1鄰","STREET":" ","SECT":" ","MAREA":"港口","LANE":" ","ALLEY":" ","HOUSE_NO":"２３３之９號","E_COORD97":171532.39000000001,"N_COORD97":2554536.2999999998,"ADDRESS":"港口２３３之９號","OBJECTID":50688},"geometry":{"x":171532.38999999966,"y":2554536.2999999989}},{"attributes":{"ID":50689,"DIS_CODE":0,"TOWNNAME":"安定區","LI":"港南里","LIN":"1鄰","STREET":" ","SECT":" ","MAREA":"港口","LANE":" ","ALLEY":" ","HOUSE_NO":"１之３６號","E_COORD97":170703.54000000001,"N_COORD97":2553858.2999999998,"ADDRESS":"港口１之３６號","OBJECTID":50689},"geometry":{"x":170703.54000000097,"y":2553858.2999999989}},{"attributes":{"ID":50690,"DIS_CODE":0,"TOWNNAME":"安定區","LI":"新吉里","LIN":"1鄰","STREET":" ","SECT":" ","MAREA":"新吉","LANE":" ","ALLEY":" ","HOUSE_NO":"２之１３號","E_COORD97":169180.07000000001,"N_COORD97":2554121.2999999998,"ADDRESS":"新吉２之１３號","OBJECTID":50690},"geometry":{"x":169180.07000000123,"y":2554121.3000000007}},{"attributes":{"ID":50691,"DIS_CODE":0,"TOWNNAME":"安定區","LI":"港口里","LIN":"1鄰","STREET":" ","SECT":" ","MAREA":"港口","LANE":" ","ALLEY":" ","HOUSE_NO":"２３６號","E_COORD97":171592.89000000001,"N_COORD97":2554509.25,"ADDRESS":"港口２３６號","OBJECTID":50691},"geometry":{"x":171592.8900000006,"y":2554509.2500000037}},{"attributes":{"ID":50692,"DIS_CODE":0,"TOWNNAME":"安定區","LI":"港南里","LIN":"1鄰","STREET":" ","SECT":" ","MAREA":"港口","LANE":" ","ALLEY":" ","HOUSE_NO":"２號","E_COORD97":171151.69,"N_COORD97":2554262.25,"ADDRESS":"港口２號","OBJECTID":50692},"geometry":{"x":171151.69000000041,"y":2554262.2500000019}},{"attributes":{"ID":50693,"DIS_CODE":0,"TOWNNAME":"安定區","LI":"管寮里","LIN":"1鄰","STREET":" ","SECT":" ","MAREA":"管寮","LANE":" ","ALLEY":" ","HOUSE_NO":"６號","E_COORD97":169881.19,"N_COORD97":2556108.25,"ADDRESS":"管寮６號","OBJECTID":50693},"geometry":{"x":169881.19000000134,"y":2556108.25}},{"attributes":{"ID":50694,"DIS_CODE":0,"TOWNNAME":"安定區","LI":"港口里","LIN":"1鄰","STREET":" ","SECT":" ","MAREA":"港口","LANE":" ","ALLEY":" ","HOUSE_NO":"２３６之３號","E_COORD97":171600.98999999999,"N_COORD97":2554522.2999999998,"ADDRESS":"港口２３６之３號","OBJECTID":50694},"geometry":{"x":171600.99000000115,"y":2554522.3000000007}},{"attributes":{"ID":50695,"DIS_CODE":0,"TOWNNAME":"安定區","LI":"港口里","LIN":"1鄰","STREET":" ","SECT":" ","MAREA":"港口","LANE":" ","ALLEY":" ","HOUSE_NO":"２３３之７號","E_COORD97":171543.89000000001,"N_COORD97":2554545.2999999998,"ADDRESS":"港口２３３之７號","OBJECTID":50695},"geometry":{"x":171543.8900000006,"y":2554545.3000000007}},{"attributes":{"ID":50696,"DIS_CODE":0,"TOWNNAME":"安定區","LI":"中榮里","LIN":"1鄰","STREET":" ","SECT":" ","MAREA":"許中營","LANE":" ","ALLEY":" ","HOUSE_NO":"１之６號","E_COORD97":172138.19,"N_COORD97":2554973.2999999998,"ADDRESS":"許中營１之６號","OBJECTID":50696},"geometry":{"x":172138.19000000041,"y":2554973.3000000007}},{"attributes":{"ID":50697,"DIS_CODE":0,"TOWNNAME":"安定區","LI":"港口里","LIN":"1鄰","STREET":" ","SECT":" ","MAREA":"港口","LANE":" ","ALLEY":" ","HOUSE_NO":"２３６號之４","E_COORD97":171601.75,"N_COORD97":2554526.2999999998,"ADDRESS":"港口２３６號之４","OBJECTID":50697},"geometry":{"x":171601.75,"y":2554526.3000000045}},{"attributes":{"ID":50698,"DIS_CODE":0,"TOWNNAME":"安定區","LI":"港南里","LIN":"1鄰","STREET":" ","SECT":" ","MAREA":"港口","LANE":" ","ALLEY":" ","HOUSE_NO":"１之５１號","E_COORD97":170020.44,"N_COORD97":2554409.2999999998,"ADDRESS":"港口１之５１號","OBJECTID":50698},"geometry":{"x":170020.44000000041,"y":2554409.3000000026}},{"attributes":{"ID":50699,"DIS_CODE":0,"TOWNNAME":"安定區","LI":"新吉里","LIN":"1鄰","STREET":" ","SECT":" ","MAREA":"新吉","LANE":" ","ALLEY":" ","HOUSE_NO":"１號之７","E_COORD97":169115.63,"N_COORD97":2554123.2999999998,"ADDRESS":"新吉１號之７","OBJECTID":50699},"geometry":{"x":169115.62999999989,"y":2554123.3000000026}},{"attributes":{"ID":50700,"DIS_CODE":0,"TOWNNAME":"安定區","LI":"新吉里","LIN":"1鄰","STREET":" ","SECT":" ","MAREA":"新吉","LANE":" ","ALLEY":" ","HOUSE_NO":"２之１５號","E_COORD97":169172.47,"N_COORD97":2554136.2999999998,"ADDRESS":"新吉２之１５號","OBJECTID":50700},"geometry":{"x":169172.46999999974,"y":2554136.2999999989}},{"attributes":{"ID":50701,"DIS_CODE":0,"TOWNNAME":"安定區","LI":"港口里","LIN":"1鄰","STREET":" ","SECT":" ","MAREA":"港口","LANE":" ","ALLEY":" ","HOUSE_NO":"２３５號之１０","E_COORD97":171627.03,"N_COORD97":2554580.2999999998,"ADDRESS":"港口２３５號之１０","OBJECTID":50701},"geometry":{"x":171627.03000000026,"y":2554580.3000000007}},{"attributes":{"ID":50702,"DIS_CODE":0,"TOWNNAME":"安定區","LI":"新吉里","LIN":"1鄰","STREET":" ","SECT":" ","MAREA":"新吉","LANE":" ","ALLEY":" ","HOUSE_NO":"２號之１７","E_COORD97":169172.28,"N_COORD97":2554146.2999999998,"ADDRESS":"新吉２號之１７","OBJECTID":50702},"geometry":{"x":169172.28000000026,"y":2554146.3000000007}},{"attributes":{"ID":50703,"DIS_CODE":0,"TOWNNAME":"安定區","LI":"蘇林里","LIN":"1鄰","STREET":" ","SECT":" ","MAREA":"蘇厝","LANE":" ","ALLEY":" ","HOUSE_NO":"７之１７號","E_COORD97":173622.04313899999,"N_COORD97":2558448.3217099998,"ADDRESS":"蘇厝７之１７號","OBJECTID":50703},"geometry":{"x":173622.04313900135,"y":2558448.3217130005}},{"attributes":{"ID":50704,"DIS_CODE":0,"TOWNNAME":"安定區","LI":"中榮里","LIN":"1鄰","STREET":" ","SECT":" ","MAREA":"許中營","LANE":" ","ALLEY":" ","HOUSE_NO":"１之３３號","E_COORD97":172232.94,"N_COORD97":2554883.2999999998,"ADDRESS":"許中營１之３３號","OBJECTID":50704},"geometry":{"x":172232.94000000041,"y":2554883.3000000026}},{"attributes":{"ID":50705,"DIS_CODE":0,"TOWNNAME":"安定區","LI":"新吉里","LIN":"1鄰","STREET":" ","SECT":" ","MAREA":"新吉","LANE":" ","ALLEY":" ","HOUSE_NO":"７之９號","E_COORD97":169417.51999999999,"N_COORD97":2554506.2999999998,"ADDRESS":"新吉７之９號","OBJECTID":50705},"geometry":{"x":169417.51999999955,"y":2554506.3000000045}},{"attributes":{"ID":50706,"DIS_CODE":0,"TOWNNAME":"安定區","LI":"管寮里","LIN":"1鄰","STREET":" ","SECT":" ","MAREA":"管寮","LANE":" ","ALLEY":" ","HOUSE_NO":"５號之２","E_COORD97":169861.45999999999,"N_COORD97":2556174.2999999998,"ADDRESS":"管寮５號之２","OBJECTID":50706},"geometry":{"x":169861.46000000089,"y":2556174.3000000045}},{"attributes":{"ID":50707,"DIS_CODE":0,"TOWNNAME":"安定區","LI":"港口里","LIN":"1鄰","STREET":" ","SECT":" ","MAREA":"港口","LANE":" ","ALLEY":" ","HOUSE_NO":"２３５號之９","E_COORD97":171623.70999999999,"N_COORD97":2554576.2999999998,"ADDRESS":"港口２３５號之９","OBJECTID":50707},"geometry":{"x":171623.70999999996,"y":2554576.3000000007}},{"attributes":{"ID":50708,"DIS_CODE":0,"TOWNNAME":"安定區","LI":"中沙里","LIN":"1鄰","STREET":" ","SECT":" ","MAREA":"中崙","LANE":" ","ALLEY":" ","HOUSE_NO":"１４號之２","E_COORD97":169316.42999999999,"N_COORD97":2553244.2999999998,"ADDRESS":"中崙１４號之２","OBJECTID":50708},"geometry":{"x":169316.4299999997,"y":2553244.3000000007}},{"attributes":{"ID":50709,"DIS_CODE":0,"TOWNNAME":"安定區","LI":"新吉里","LIN":"1鄰","STREET":" ","SECT":" ","MAREA":"新吉","LANE":" ","ALLEY":" ","HOUSE_NO":"７之６號","E_COORD97":169284.22,"N_COORD97":2554165.2999999998,"ADDRESS":"新吉７之６號","OBJECTID":50709},"geometry":{"x":169284.21999999974,"y":2554165.3000000026}},{"attributes":{"ID":50710,"DIS_CODE":0,"TOWNNAME":"安定區","LI":"中榮里","LIN":"1鄰","STREET":" ","SECT":" ","MAREA":"許中營","LANE":" ","ALLEY":" ","HOUSE_NO":"１之２３號","E_COORD97":172213.94,"N_COORD97":2554870.2999999998,"ADDRESS":"許中營１之２３號","OBJECTID":50710},"geometry":{"x":172213.94000000134,"y":2554870.3000000026}},{"attributes":{"ID":50711,"DIS_CODE":0,"TOWNNAME":"安定區","LI":"新吉里","LIN":"1鄰","STREET":" ","SECT":" ","MAREA":"新吉","LANE":" ","ALLEY":" ","HOUSE_NO":"２號之６","E_COORD97":169156.01999999999,"N_COORD97":2554136.2999999998,"ADDRESS":"新吉２之６號","OBJECTID":50711},"geometry":{"x":169156.02000000048,"y":2554136.2999999989}},{"attributes":{"ID":50712,"DIS_CODE":0,"TOWNNAME":"安定區","LI":"新吉里","LIN":"1鄰","STREET":" ","SECT":" ","MAREA":"新吉","LANE":" ","ALLEY":" ","HOUSE_NO":"２之４號","E_COORD97":169158.12,"N_COORD97":2554119.2999999998,"ADDRESS":"新吉２之４號","OBJECTID":50712},"geometry":{"x":169158.12000000011,"y":2554119.2999999989}},{"attributes":{"ID":50713,"DIS_CODE":0,"TOWNNAME":"安定區","LI":"港口里","LIN":"1鄰","STREET":" ","SECT":" ","MAREA":"港口","LANE":" ","ALLEY":" ","HOUSE_NO":"２３６號之７","E_COORD97":171608,"N_COORD97":2554538.2999999998,"ADDRESS":"港口２３６號之７","OBJECTID":50713},"geometry":{"x":171608,"y":2554538.3000000007}},{"attributes":{"ID":50714,"DIS_CODE":0,"TOWNNAME":"安定區","LI":"新吉里","LIN":"1鄰","STREET":" ","SECT":" ","MAREA":"新吉","LANE":" ","ALLEY":" ","HOUSE_NO":"４號之１","E_COORD97":169235.95000000001,"N_COORD97":2554150.2999999998,"ADDRESS":"新吉４號之１","OBJECTID":50714},"geometry":{"x":169235.94999999925,"y":2554150.3000000045}},{"attributes":{"ID":50715,"DIS_CODE":0,"TOWNNAME":"安定區","LI":"新吉里","LIN":"1鄰","STREET":" ","SECT":" ","MAREA":"新吉","LANE":" ","ALLEY":" ","HOUSE_NO":"２之１０號","E_COORD97":169156.17000000001,"N_COORD97":2554152.2999999998,"ADDRESS":"新吉２之１０號","OBJECTID":50715},"geometry":{"x":169156.16999999899,"y":2554152.3000000007}},{"attributes":{"ID":50716,"DIS_CODE":0,"TOWNNAME":"安定區","LI":"港口里","LIN":"1鄰","STREET":" ","SECT":" ","MAREA":"港口","LANE":" ","ALLEY":" ","HOUSE_NO":"２３３之８號","E_COORD97":171538.79000000001,"N_COORD97":2554543.2999999998,"ADDRESS":"港口２３３之８號","OBJECTID":50716},"geometry":{"x":171538.79000000004,"y":2554543.3000000045}},{"attributes":{"ID":50717,"DIS_CODE":0,"TOWNNAME":"安定區","LI":"新吉里","LIN":"1鄰","STREET":" ","SECT":" ","MAREA":"新吉","LANE":" ","ALLEY":" ","HOUSE_NO":"２之３號","E_COORD97":169152.92000000001,"N_COORD97":2554118.2999999998,"ADDRESS":"新吉２之３號","OBJECTID":50717},"geometry":{"x":169152.92000000179,"y":2554118.3000000007}},{"attributes":{"ID":50718,"DIS_CODE":0,"TOWNNAME":"安定區","LI":"港口里","LIN":"1鄰","STREET":" ","SECT":" ","MAREA":"港口","LANE":" ","ALLEY":" ","HOUSE_NO":"２３６之２號","E_COORD97":171599.09,"N_COORD97":2554518.2999999998,"ADDRESS":"港口２３６之２號","OBJECTID":50718},"geometry":{"x":171599.08999999985,"y":2554518.3000000007}},{"attributes":{"ID":50719,"DIS_CODE":0,"TOWNNAME":"安定區","LI":"港口里","LIN":"1鄰","STREET":" ","SECT":" ","MAREA":"港口","LANE":" ","ALLEY":" ","HOUSE_NO":"２３５之１４號","E_COORD97":171631.44,"N_COORD97":2554608.2999999998,"ADDRESS":"港口２３５之１４號","OBJECTID":50719},"geometry":{"x":171631.44000000041,"y":2554608.3000000026}},{"attributes":{"ID":50720,"DIS_CODE":0,"TOWNNAME":"安定區","LI":"新吉里","LIN":"1鄰","STREET":" ","SECT":" ","MAREA":"新吉","LANE":" ","ALLEY":" ","HOUSE_NO":"２之１２號","E_COORD97":169176.07000000001,"N_COORD97":2554121.2999999998,"ADDRESS":"新吉２之１２號","OBJECTID":50720},"geometry":{"x":169176.07000000216,"y":2554121.3000000007}},{"attributes":{"ID":50721,"DIS_CODE":0,"TOWNNAME":"安定區","LI":"新吉里","LIN":"1鄰","STREET":" ","SECT":" ","MAREA":"新吉","LANE":" ","ALLEY":" ","HOUSE_NO":"７號之５","E_COORD97":169284.41,"N_COORD97":2554162.2999999998,"ADDRESS":"新吉７號之５","OBJECTID":50721},"geometry":{"x":169284.41000000108,"y":2554162.3000000007}},{"attributes":{"ID":50722,"DIS_CODE":0,"TOWNNAME":"安定區","LI":"新吉里","LIN":"1鄰","STREET":" ","SECT":" ","MAREA":"新吉","LANE":" ","ALLEY":" ","HOUSE_NO":"２之２０號","E_COORD97":169172.57000000001,"N_COORD97":2554159.2999999998,"ADDRESS":"新吉２之２０號","OBJECTID":50722},"geometry":{"x":169172.57000000216,"y":2554159.3000000007}},{"attributes":{"ID":50723,"DIS_CODE":0,"TOWNNAME":"安定區","LI":"新吉里","LIN":"1鄰","STREET":" ","SECT":" ","MAREA":"新吉","LANE":" ","ALLEY":" ","HOUSE_NO":"２之２號","E_COORD97":169148.92000000001,"N_COORD97":2554118.2999999998,"ADDRESS":"新吉２之２號","OBJECTID":50723},"geometry":{"x":169148.91999999993,"y":2554118.3000000007}},{"attributes":{"ID":50724,"DIS_CODE":0,"TOWNNAME":"安定區","LI":"中榮里","LIN":"1鄰","STREET":" ","SECT":" ","MAREA":"許中營","LANE":" ","ALLEY":" ","HOUSE_NO":"１之３０號","E_COORD97":172229.34,"N_COORD97":2554897.2999999998,"ADDRESS":"許中營１之３０號","OBJECTID":50724},"geometry":{"x":172229.33999999985,"y":2554897.3000000026}},{"attributes":{"ID":50725,"DIS_CODE":0,"TOWNNAME":"安平區","LI":"文平里","LIN":"15鄰","STREET":"建平五街","SECT":" ","MAREA":" ","LANE":"２２巷","ALLEY":"１５弄","HOUSE_NO":"２３號","E_COORD97":165973.54000000001,"N_COORD97":2543168.4300000002,"ADDRESS":"建平五街２２巷１５弄２３號","OBJECTID":50725},"geometry":{"x":165973.54000000004,"y":2543168.4299999997}},{"attributes":{"ID":50726,"DIS_CODE":0,"TOWNNAME":"安定區","LI":"港口里","LIN":"1鄰","STREET":" ","SECT":" ","MAREA":"港口","LANE":" ","ALLEY":" ","HOUSE_NO":"２３６號之６","E_COORD97":171605.82999999999,"N_COORD97":2554534.2999999998,"ADDRESS":"港口２３６號之６","OBJECTID":50726},"geometry":{"x":171605.83000000007,"y":2554534.3000000026}},{"attributes":{"ID":50727,"DIS_CODE":0,"TOWNNAME":"安定區","LI":"安加里","LIN":"1鄰","STREET":" ","SECT":" ","MAREA":"安定","LANE":" ","ALLEY":" ","HOUSE_NO":"１０５號之１","E_COORD97":172123.45000000001,"N_COORD97":2557646.3199999998,"ADDRESS":"安定１０５號之１","OBJECTID":50727},"geometry":{"x":172123.45000000112,"y":2557646.3200000022}},{"attributes":{"ID":50728,"DIS_CODE":0,"TOWNNAME":"安平區","LI":"文平里","LIN":"15鄰","STREET":"建平五街","SECT":" ","MAREA":" ","LANE":"２２巷","ALLEY":"１５弄","HOUSE_NO":"２５號","E_COORD97":165968.62,"N_COORD97":2543169.3900000001,"ADDRESS":"建平五街２２巷１５弄２５號","OBJECTID":50728},"geometry":{"x":165968.62000000104,"y":2543169.3900000025}},{"attributes":{"ID":50729,"DIS_CODE":0,"TOWNNAME":"安平區","LI":"文平里","LIN":"15鄰","STREET":"建平五街","SECT":" ","MAREA":" ","LANE":"２２巷","ALLEY":"１５弄","HOUSE_NO":"２７號","E_COORD97":165962.89999999999,"N_COORD97":2543169.8599999999,"ADDRESS":"建平五街２２巷１５弄２７號","OBJECTID":50729},"geometry":{"x":165962.90000000037,"y":2543169.8599999994}},{"attributes":{"ID":50730,"DIS_CODE":0,"TOWNNAME":"安平區","LI":"文平里","LIN":"15鄰","STREET":"建平五街","SECT":" ","MAREA":" ","LANE":"２２巷","ALLEY":"１５弄","HOUSE_NO":"２９號","E_COORD97":165958.78,"N_COORD97":2543170.3399999999,"ADDRESS":"建平五街２２巷１５弄２９號","OBJECTID":50730},"geometry":{"x":165958.78000000212,"y":2543170.3399999999}},{"attributes":{"ID":50731,"DIS_CODE":0,"TOWNNAME":"安平區","LI":"文平里","LIN":"15鄰","STREET":"建平五街","SECT":" ","MAREA":" ","LANE":"２２巷","ALLEY":"１５弄","HOUSE_NO":"３１號","E_COORD97":165953.22,"N_COORD97":2543171.1299999999,"ADDRESS":"建平五街２２巷１５弄３１號","OBJECTID":50731},"geometry":{"x":165953.21999999974,"y":2543171.1299999971}},{"attributes":{"ID":50732,"DIS_CODE":0,"TOWNNAME":"安平區","LI":"文平里","LIN":"15鄰","STREET":"建平五街","SECT":" ","MAREA":" ","LANE":"２２巷","ALLEY":"１５弄","HOUSE_NO":"３３號","E_COORD97":165948.76999999999,"N_COORD97":2543172.2400000002,"ADDRESS":"建平五街２２巷１５弄３３號","OBJECTID":50732},"geometry":{"x":165948.76999999955,"y":2543172.2400000021}},{"attributes":{"ID":50733,"DIS_CODE":0,"TOWNNAME":"安平區","LI":"文平里","LIN":"15鄰","STREET":"建平五街","SECT":" ","MAREA":" ","LANE":"２２巷","ALLEY":"１５弄","HOUSE_NO":"３５號","E_COORD97":165944.17000000001,"N_COORD97":2543173.04,"ADDRESS":"建平五街２２巷１５弄３５號","OBJECTID":50733},"geometry":{"x":165944.17000000086,"y":2543173.040000001}},{"attributes":{"ID":50734,"DIS_CODE":0,"TOWNNAME":"七股區","LI":"後港里","LIN":"8鄰","STREET":" ","SECT":" ","MAREA":"港東","LANE":" ","ALLEY":" ","HOUSE_NO":"７９號","E_COORD97":162655.67999999999,"N_COORD97":2564896.0499999998,"ADDRESS":"港東７９號","OBJECTID":50734},"geometry":{"x":162655.68000000063,"y":2564896.0500000045}},{"attributes":{"ID":50735,"DIS_CODE":0,"TOWNNAME":"安平區","LI":"文平里","LIN":"15鄰","STREET":"建平五街","SECT":" ","MAREA":" ","LANE":"２２巷","ALLEY":"１５弄","HOUSE_NO":"３７號","E_COORD97":165938.14000000001,"N_COORD97":2543174.1499999999,"ADDRESS":"建平五街２２巷１５弄３７號","OBJECTID":50735},"geometry":{"x":165938.13999999966,"y":2543174.1500000022}},{"attributes":{"ID":50736,"DIS_CODE":0,"TOWNNAME":"安平區","LI":"文平里","LIN":"15鄰","STREET":"建平五街","SECT":" ","MAREA":" ","LANE":"２２巷","ALLEY":"１５弄","HOUSE_NO":"３９號","E_COORD97":165933.22,"N_COORD97":2543174.9399999999,"ADDRESS":"建平五街２２巷１５弄３９號","OBJECTID":50736},"geometry":{"x":165933.2200000016,"y":2543174.9399999995}},{"attributes":{"ID":50737,"DIS_CODE":0,"TOWNNAME":"仁德區","LI":"後壁里","LIN":"18鄰","STREET":"德南路","SECT":" ","MAREA":" ","LANE":"２２巷","ALLEY":"９弄","HOUSE_NO":"７號","E_COORD97":173310.95000000001,"N_COORD97":2538738.2599999998,"ADDRESS":"德南路２２巷９弄７號","OBJECTID":50737},"geometry":{"x":173310.95000000019,"y":2538738.2600000016}},{"attributes":{"ID":50738,"DIS_CODE":0,"TOWNNAME":"安平區","LI":"國平里","LIN":"15鄰","STREET":"華平路","SECT":" ","MAREA":" ","LANE":"２１巷","ALLEY":"１８弄","HOUSE_NO":"３６號","E_COORD97":165279.14000000001,"N_COORD97":2542867.5600000001,"ADDRESS":"華平路２１巷１８弄３６號","OBJECTID":50738},"geometry":{"x":165279.13999999966,"y":2542867.5600000005}},{"attributes":{"ID":50739,"DIS_CODE":0,"TOWNNAME":"安平區","LI":"國平里","LIN":"15鄰","STREET":"華平路","SECT":" ","MAREA":" ","LANE":"２１巷","ALLEY":"１８弄","HOUSE_NO":"３６號之１","E_COORD97":165284.38,"N_COORD97":2542867.5600000001,"ADDRESS":"華平路２１巷１８弄３６號之１","OBJECTID":50739},"geometry":{"x":165284.37999999989,"y":2542867.5600000005}},{"attributes":{"ID":50740,"DIS_CODE":0,"TOWNNAME":"安平區","LI":"國平里","LIN":"15鄰","STREET":"華平路","SECT":" ","MAREA":" ","LANE":"２１巷","ALLEY":"１８弄","HOUSE_NO":"３６號之２","E_COORD97":165288.98000000001,"N_COORD97":2542865.4900000002,"ADDRESS":"華平路２１巷１８弄３６號之２","OBJECTID":50740},"geometry":{"x":165288.98000000045,"y":2542865.4900000021}},{"attributes":{"ID":50741,"DIS_CODE":0,"TOWNNAME":"安平區","LI":"國平里","LIN":"15鄰","STREET":"華平路","SECT":" ","MAREA":" ","LANE":"２１巷","ALLEY":"１８弄","HOUSE_NO":"３６號之３","E_COORD97":165294.85999999999,"N_COORD97":2542864.54,"ADDRESS":"華平路２１巷１８弄３６號之３","OBJECTID":50741},"geometry":{"x":165294.86000000034,"y":2542864.540000001}},{"attributes":{"ID":50742,"DIS_CODE":0,"TOWNNAME":"新化區","LI":"全興里","LIN":"17鄰","STREET":" ","SECT":" ","MAREA":"竹子\u25A0","LANE":" ","ALLEY":" ","HOUSE_NO":"２４７號之４８３","E_COORD97":178319.88,"N_COORD97":2546662.2599999998,"ADDRESS":"竹子\u25A0２４７號之４８３","OBJECTID":50742},"geometry":{"x":178319.87999999989,"y":2546662.2599999998}},{"attributes":{"ID":50743,"DIS_CODE":0,"TOWNNAME":"新化區","LI":"全興里","LIN":"17鄰","STREET":" ","SECT":" ","MAREA":"竹子\u25A0","LANE":" ","ALLEY":" ","HOUSE_NO":"２４７號之３８４","E_COORD97":178320.07000000001,"N_COORD97":2546676.2599999998,"ADDRESS":"竹子\u25A0２４７號之３８４","OBJECTID":50743},"geometry":{"x":178320.07000000123,"y":2546676.2599999998}},{"attributes":{"ID":50744,"DIS_CODE":0,"TOWNNAME":"新化區","LI":"全興里","LIN":"17鄰","STREET":" ","SECT":" ","MAREA":"竹子\u25A0","LANE":" ","ALLEY":" ","HOUSE_NO":"２４７號之４９１","E_COORD97":178301.35999999999,"N_COORD97":2546663.2599999998,"ADDRESS":"竹子\u25A0２４７號之４９１","OBJECTID":50744},"geometry":{"x":178301.36000000127,"y":2546663.2600000035}},{"attributes":{"ID":50745,"DIS_CODE":0,"TOWNNAME":"新化區","LI":"全興里","LIN":"17鄰","STREET":" ","SECT":" ","MAREA":"竹子\u25A0","LANE":" ","ALLEY":" ","HOUSE_NO":"２４７號之４７３","E_COORD97":178342.88,"N_COORD97":2546662.2599999998,"ADDRESS":"竹子\u25A0２４７號之４７３","OBJECTID":50745},"geometry":{"x":178342.88000000175,"y":2546662.2599999998}},{"attributes":{"ID":50746,"DIS_CODE":0,"TOWNNAME":"新化區","LI":"全興里","LIN":"17鄰","STREET":" ","SECT":" ","MAREA":"竹子\u25A0","LANE":" ","ALLEY":" ","HOUSE_NO":"２４７號之４７５","E_COORD97":178338.19,"N_COORD97":2546662.2599999998,"ADDRESS":"竹子\u25A0２４７號之４７５","OBJECTID":50746},"geometry":{"x":178338.19000000134,"y":2546662.2599999998}},{"attributes":{"ID":50747,"DIS_CODE":0,"TOWNNAME":"新化區","LI":"全興里","LIN":"17鄰","STREET":" ","SECT":" ","MAREA":"竹子\u25A0","LANE":" ","ALLEY":" ","HOUSE_NO":"２４７號之３８８","E_COORD97":178310.89000000001,"N_COORD97":2546676.2599999998,"ADDRESS":"竹子\u25A0２４７號之３８８","OBJECTID":50747},"geometry":{"x":178310.8900000006,"y":2546676.2599999998}},{"attributes":{"ID":50748,"DIS_CODE":0,"TOWNNAME":"新化區","LI":"全興里","LIN":"17鄰","STREET":" ","SECT":" ","MAREA":"竹子\u25A0","LANE":" ","ALLEY":" ","HOUSE_NO":"２４７號之５１４","E_COORD97":178346.57000000001,"N_COORD97":2546633.2599999998,"ADDRESS":"竹子\u25A0２４７號之５１４","OBJECTID":50748},"geometry":{"x":178346.5700000003,"y":2546633.2600000016}},{"attributes":{"ID":50749,"DIS_CODE":0,"TOWNNAME":"新化區","LI":"全興里","LIN":"17鄰","STREET":" ","SECT":" ","MAREA":"竹子\u25A0","LANE":" ","ALLEY":" ","HOUSE_NO":"２４７號之５１８","E_COORD97":178337.29000000001,"N_COORD97":2546633.2599999998,"ADDRESS":"竹子\u25A0２４７號之５１８","OBJECTID":50749},"geometry":{"x":178337.29000000097,"y":2546633.2600000016}},{"attributes":{"ID":50750,"DIS_CODE":0,"TOWNNAME":"新化區","LI":"全興里","LIN":"17鄰","STREET":" ","SECT":" ","MAREA":"竹子\u25A0","LANE":" ","ALLEY":" ","HOUSE_NO":"２４７號之６４１","E_COORD97":178301.35999999999,"N_COORD97":2546607.2599999998,"ADDRESS":"竹子\u25A0２４７號之６４１","OBJECTID":50750},"geometry":{"x":178301.36000000127,"y":2546607.2600000016}},{"attributes":{"ID":50751,"DIS_CODE":0,"TOWNNAME":"新化區","LI":"全興里","LIN":"17鄰","STREET":" ","SECT":" ","MAREA":"竹子\u25A0","LANE":" ","ALLEY":" ","HOUSE_NO":"２４７號之５３４","E_COORD97":178300.26999999999,"N_COORD97":2546634.2599999998,"ADDRESS":"竹子\u25A0２４７號之５３４","OBJECTID":50751},"geometry":{"x":178300.26999999955,"y":2546634.2600000016}},{"attributes":{"ID":50752,"DIS_CODE":0,"TOWNNAME":"安平區","LI":"國平里","LIN":"15鄰","STREET":"華平路","SECT":" ","MAREA":" ","LANE":"２１巷","ALLEY":"１８弄","HOUSE_NO":"３８號","E_COORD97":165283.10999999999,"N_COORD97":2542884.23,"ADDRESS":"華平路２１巷１８弄３８號","OBJECTID":50752},"geometry":{"x":165283.11000000034,"y":2542884.2300000042}},{"attributes":{"ID":50753,"DIS_CODE":0,"TOWNNAME":"安平區","LI":"國平里","LIN":"15鄰","STREET":"華平路","SECT":" ","MAREA":" ","LANE":"２１巷","ALLEY":"１８弄","HOUSE_NO":"３８號之１","E_COORD97":165287.70999999999,"N_COORD97":2542882.48,"ADDRESS":"華平路２１巷１８弄３８號之１","OBJECTID":50753},"geometry":{"x":165287.71000000183,"y":2542882.4800000042}},{"attributes":{"ID":50754,"DIS_CODE":0,"TOWNNAME":"安定區","LI":"蘇林里","LIN":"1鄰","STREET":" ","SECT":" ","MAREA":"蘇厝","LANE":" ","ALLEY":" ","HOUSE_NO":"８之２２號","E_COORD97":173705.26999999999,"N_COORD97":2558546.2999999998,"ADDRESS":"蘇厝８之２２號","OBJECTID":50754},"geometry":{"x":173705.27000000048,"y":2558546.3000000007}},{"attributes":{"ID":50755,"DIS_CODE":0,"TOWNNAME":"安定區","LI":"港口里","LIN":"1鄰","STREET":" ","SECT":" ","MAREA":"港口","LANE":" ","ALLEY":" ","HOUSE_NO":"２３３號之１","E_COORD97":171560.92999999999,"N_COORD97":2554532.2999999998,"ADDRESS":"港口２３３號之１","OBJECTID":50755},"geometry":{"x":171560.9299999997,"y":2554532.3000000007}},{"attributes":{"ID":50756,"DIS_CODE":0,"TOWNNAME":"安定區","LI":"新吉里","LIN":"1鄰","STREET":" ","SECT":" ","MAREA":"新吉","LANE":" ","ALLEY":" ","HOUSE_NO":"２號之５","E_COORD97":169156.20999999999,"N_COORD97":2554131.2999999998,"ADDRESS":"新吉２號之５","OBJECTID":50756},"geometry":{"x":169156.21000000089,"y":2554131.3000000026}},{"attributes":{"ID":50757,"DIS_CODE":0,"TOWNNAME":"安定區","LI":"安加里","LIN":"1鄰","STREET":" ","SECT":" ","MAREA":"安定","LANE":" ","ALLEY":" ","HOUSE_NO":"１０７號之４","E_COORD97":172038.113285,"N_COORD97":2557663.56268,"ADDRESS":"安定１０７號之４","OBJECTID":50757},"geometry":{"x":172038.11328500137,"y":2557663.5626790002}},{"attributes":{"ID":50758,"DIS_CODE":0,"TOWNNAME":"安定區","LI":"新吉里","LIN":"1鄰","STREET":" ","SECT":" ","MAREA":"新吉","LANE":" ","ALLEY":" ","HOUSE_NO":"５號之１","E_COORD97":169265.54999999999,"N_COORD97":2554127.2999999998,"ADDRESS":"新吉５號之１","OBJECTID":50758},"geometry":{"x":169265.55000000168,"y":2554127.3000000026}},{"attributes":{"ID":50759,"DIS_CODE":0,"TOWNNAME":"安定區","LI":"港口里","LIN":"1鄰","STREET":" ","SECT":" ","MAREA":"港口","LANE":" ","ALLEY":" ","HOUSE_NO":"２３５號之１１","E_COORD97":171629.28,"N_COORD97":2554585.2999999998,"ADDRESS":"港口２３５號之１１","OBJECTID":50759},"geometry":{"x":171629.28000000212,"y":2554585.3000000026}},{"attributes":{"ID":50760,"DIS_CODE":0,"TOWNNAME":"安定區","LI":"蘇林里","LIN":"1鄰","STREET":" ","SECT":" ","MAREA":"蘇厝","LANE":" ","ALLEY":" ","HOUSE_NO":"８之１５號","E_COORD97":173655.76999999999,"N_COORD97":2558560.2999999998,"ADDRESS":"蘇厝８之１５號","OBJECTID":50760},"geometry":{"x":173655.76999999955,"y":2558560.3000000007}},{"attributes":{"ID":50761,"DIS_CODE":0,"TOWNNAME":"安定區","LI":"蘇林里","LIN":"1鄰","STREET":" ","SECT":" ","MAREA":"蘇厝","LANE":" ","ALLEY":" ","HOUSE_NO":"７之２１號","E_COORD97":173694.97,"N_COORD97":2558259.2999999998,"ADDRESS":"蘇厝７之２１號","OBJECTID":50761},"geometry":{"x":173694.96999999974,"y":2558259.3000000045}},{"attributes":{"ID":50762,"DIS_CODE":0,"TOWNNAME":"安定區","LI":"港口里","LIN":"1鄰","STREET":" ","SECT":" ","MAREA":"港口","LANE":" ","ALLEY":" ","HOUSE_NO":"２３６之１號","E_COORD97":171597.09,"N_COORD97":2554514.2999999998,"ADDRESS":"港口２３６之１號","OBJECTID":50762},"geometry":{"x":171597.08999999985,"y":2554514.3000000026}},{"attributes":{"ID":50763,"DIS_CODE":0,"TOWNNAME":"安定區","LI":"中榮里","LIN":"1鄰","STREET":" ","SECT":" ","MAREA":"許中營","LANE":" ","ALLEY":" ","HOUSE_NO":"１之２１號","E_COORD97":172222.84,"N_COORD97":2554870.2999999998,"ADDRESS":"許中營１之２１號","OBJECTID":50763},"geometry":{"x":172222.83999999985,"y":2554870.3000000026}},{"attributes":{"ID":50764,"DIS_CODE":0,"TOWNNAME":"安定區","LI":"港口里","LIN":"1鄰","STREET":" ","SECT":" ","MAREA":"港口","LANE":" ","ALLEY":" ","HOUSE_NO":"２３５之１５號","E_COORD97":171634.73999999999,"N_COORD97":2554613.2999999998,"ADDRESS":"港口２３５之１５號","OBJECTID":50764},"geometry":{"x":171634.74000000115,"y":2554613.3000000007}},{"attributes":{"ID":50765,"DIS_CODE":0,"TOWNNAME":"安定區","LI":"港南里","LIN":"1鄰","STREET":" ","SECT":" ","MAREA":"港口","LANE":" ","ALLEY":" ","HOUSE_NO":"１之５號","E_COORD97":170732.59,"N_COORD97":2554008.2999999998,"ADDRESS":"港口１之５號","OBJECTID":50765},"geometry":{"x":170732.58999999985,"y":2554008.3000000026}},{"attributes":{"ID":50766,"DIS_CODE":0,"TOWNNAME":"新化區","LI":"全興里","LIN":"17鄰","STREET":" ","SECT":" ","MAREA":"竹子\u25A0","LANE":" ","ALLEY":" ","HOUSE_NO":"２４７號之５２４","E_COORD97":178323.57000000001,"N_COORD97":2546634.2599999998,"ADDRESS":"竹子\u25A0２４７號之５２４","OBJECTID":50766},"geometry":{"x":178323.57000000123,"y":2546634.2600000016}},{"attributes":{"ID":50767,"DIS_CODE":0,"TOWNNAME":"新化區","LI":"全興里","LIN":"17鄰","STREET":" ","SECT":" ","MAREA":"竹子\u25A0","LANE":" ","ALLEY":" ","HOUSE_NO":"２４７號之６４３","E_COORD97":178296.88,"N_COORD97":2546607.2599999998,"ADDRESS":"竹子\u25A0２４７號之６４３","OBJECTID":50767},"geometry":{"x":178296.87999999896,"y":2546607.2600000016}},{"attributes":{"ID":50768,"DIS_CODE":0,"TOWNNAME":"安平區","LI":"國平里","LIN":"15鄰","STREET":"華平路","SECT":" ","MAREA":" ","LANE":"２１巷","ALLEY":"１８弄","HOUSE_NO":"３８號之２","E_COORD97":165292.63,"N_COORD97":2542881.8500000001,"ADDRESS":"華平路２１巷１８弄３８號之２","OBJECTID":50768},"geometry":{"x":165292.62999999989,"y":2542881.8499999996}},{"attributes":{"ID":50769,"DIS_CODE":0,"TOWNNAME":"安平區","LI":"國平里","LIN":"15鄰","STREET":"華平路","SECT":" ","MAREA":" ","LANE":"２１巷","ALLEY":"１８弄","HOUSE_NO":"３８號之３","E_COORD97":165297.07999999999,"N_COORD97":2542881.21,"ADDRESS":"華平路２１巷１８弄３８號之３","OBJECTID":50769},"geometry":{"x":165297.08000000194,"y":2542881.2100000046}},{"attributes":{"ID":50770,"DIS_CODE":0,"TOWNNAME":"安平區","LI":"國平里","LIN":"15鄰","STREET":"華平路","SECT":" ","MAREA":" ","LANE":"２１巷","ALLEY":"１８弄","HOUSE_NO":"４０號","E_COORD97":165284.06,"N_COORD97":2542890.4199999999,"ADDRESS":"華平路２１巷１８弄４０號","OBJECTID":50770},"geometry":{"x":165284.05999999959,"y":2542890.4200000018}},{"attributes":{"ID":50771,"DIS_CODE":0,"TOWNNAME":"安平區","LI":"國平里","LIN":"15鄰","STREET":"華平路","SECT":" ","MAREA":" ","LANE":"２１巷","ALLEY":"１８弄","HOUSE_NO":"３０號","E_COORD97":165276.76000000001,"N_COORD97":2542820.73,"ADDRESS":"華平路２１巷１８弄３０號","OBJECTID":50771},"geometry":{"x":165276.75999999978,"y":2542820.7300000023}},{"attributes":{"ID":50772,"DIS_CODE":0,"TOWNNAME":"安平區","LI":"國平里","LIN":"15鄰","STREET":"華平路","SECT":" ","MAREA":" ","LANE":"２１巷","ALLEY":"１８弄","HOUSE_NO":"２８號","E_COORD97":165282.47,"N_COORD97":2542838.0299999998,"ADDRESS":"華平路２１巷１８弄２８號","OBJECTID":50772},"geometry":{"x":165282.47000000067,"y":2542838.0300000012}},{"attributes":{"ID":50773,"DIS_CODE":0,"TOWNNAME":"鹽水區","LI":"橋南里","LIN":"15鄰","STREET":"月津路","SECT":" ","MAREA":" ","LANE":"１２巷","ALLEY":"１９弄","HOUSE_NO":"１０號","E_COORD97":174792.13,"N_COORD97":2579558.04,"ADDRESS":"月津路１２巷１９弄１０號","OBJECTID":50773},"geometry":{"x":174792.13000000082,"y":2579558.040000001}},{"attributes":{"ID":50774,"DIS_CODE":0,"TOWNNAME":"新化區","LI":"全興里","LIN":"17鄰","STREET":" ","SECT":" ","MAREA":"竹子\u25A0","LANE":" ","ALLEY":" ","HOUSE_NO":"２４７號之６１７","E_COORD97":178356.28,"N_COORD97":2546606.2599999998,"ADDRESS":"竹子\u25A0２４７號之６１７","OBJECTID":50774},"geometry":{"x":178356.28000000119,"y":2546606.2600000016}},{"attributes":{"ID":50775,"DIS_CODE":0,"TOWNNAME":"新化區","LI":"全興里","LIN":"17鄰","STREET":" ","SECT":" ","MAREA":"竹子\u25A0","LANE":" ","ALLEY":" ","HOUSE_NO":"２４７號之６１５","E_COORD97":178360.29000000001,"N_COORD97":2546606.2599999998,"ADDRESS":"竹子\u25A0２４７號之６１５","OBJECTID":50775},"geometry":{"x":178360.29000000004,"y":2546606.2600000016}},{"attributes":{"ID":50776,"DIS_CODE":0,"TOWNNAME":"南區","LI":"喜南里","LIN":"15鄰","STREET":"喜樹路","SECT":" ","MAREA":" ","LANE":"２２２巷","ALLEY":"２９弄","HOUSE_NO":"１６號","E_COORD97":165581.13,"N_COORD97":2537976.4399999999,"ADDRESS":"喜樹路２２２巷２９弄１６號","OBJECTID":50776},"geometry":{"x":165581.12999999989,"y":2537976.4400000013}},{"attributes":{"ID":50777,"DIS_CODE":0,"TOWNNAME":"南區","LI":"喜南里","LIN":"15鄰","STREET":"喜樹路","SECT":" ","MAREA":" ","LANE":"２２２巷","ALLEY":"２９弄","HOUSE_NO":"１號","E_COORD97":165592.23000000001,"N_COORD97":2537998.6200000001,"ADDRESS":"喜樹路２２２巷２９弄１號","OBJECTID":50777},"geometry":{"x":165592.23000000138,"y":2537998.620000001}},{"attributes":{"ID":50778,"DIS_CODE":0,"TOWNNAME":"南區","LI":"喜南里","LIN":"15鄰","STREET":"喜樹路","SECT":" ","MAREA":" ","LANE":"２２２巷","ALLEY":"２９弄","HOUSE_NO":"７號","E_COORD97":165592.19,"N_COORD97":2537970.1400000001,"ADDRESS":"喜樹路２２２巷２９弄７號","OBJECTID":50778},"geometry":{"x":165592.19000000134,"y":2537970.1400000025}},{"attributes":{"ID":50779,"DIS_CODE":0,"TOWNNAME":"南區","LI":"喜南里","LIN":"15鄰","STREET":"喜樹路","SECT":" ","MAREA":" ","LANE":"２２２巷","ALLEY":"２９弄","HOUSE_NO":"９號","E_COORD97":165584.17999999999,"N_COORD97":2537966.96,"ADDRESS":"喜樹路２２２巷２９弄９號","OBJECTID":50779},"geometry":{"x":165584.18000000156,"y":2537966.9600000046}},{"attributes":{"ID":50780,"DIS_CODE":0,"TOWNNAME":"南區","LI":"喜南里","LIN":"15鄰","STREET":"喜樹路","SECT":" ","MAREA":" ","LANE":"２５２巷","ALLEY":"２７弄","HOUSE_NO":"１２號","E_COORD97":165597.38,"N_COORD97":2537960.3199999998,"ADDRESS":"喜樹路２５２巷２７弄１２號","OBJECTID":50780},"geometry":{"x":165597.38000000082,"y":2537960.320000004}},{"attributes":{"ID":50781,"DIS_CODE":0,"TOWNNAME":"南區","LI":"喜南里","LIN":"15鄰","STREET":"喜樹路","SECT":" ","MAREA":" ","LANE":"２５２巷","ALLEY":"２７弄","HOUSE_NO":"２號","E_COORD97":165622.89000000001,"N_COORD97":2537971.23,"ADDRESS":"喜樹路２５２巷２７弄２號","OBJECTID":50781},"geometry":{"x":165622.88999999966,"y":2537971.2300000042}},{"attributes":{"ID":50782,"DIS_CODE":0,"TOWNNAME":"南區","LI":"喜南里","LIN":"15鄰","STREET":"喜樹路","SECT":" ","MAREA":" ","LANE":"２５２巷","ALLEY":"２７弄","HOUSE_NO":"２號之１","E_COORD97":165620.29999999999,"N_COORD97":2537978.73,"ADDRESS":"喜樹路２５２巷２７弄２號之１","OBJECTID":50782},"geometry":{"x":165620.29999999981,"y":2537978.7300000023}},{"attributes":{"ID":50783,"DIS_CODE":0,"TOWNNAME":"南區","LI":"喜南里","LIN":"15鄰","STREET":"喜樹路","SECT":" ","MAREA":" ","LANE":"２５２巷","ALLEY":"２７弄","HOUSE_NO":"４號","E_COORD97":165610.79999999999,"N_COORD97":2537976.5699999998,"ADDRESS":"喜樹路２５２巷２７弄４號","OBJECTID":50783},"geometry":{"x":165610.80000000075,"y":2537976.5700000022}},{"attributes":{"ID":50784,"DIS_CODE":0,"TOWNNAME":"南區","LI":"喜南里","LIN":"15鄰","STREET":"喜樹路","SECT":" ","MAREA":" ","LANE":"２５２巷","ALLEY":"２７弄","HOUSE_NO":"６號","E_COORD97":165610.13,"N_COORD97":2537965.7799999998,"ADDRESS":"喜樹路２５２巷２７弄６號","OBJECTID":50784},"geometry":{"x":165610.13000000175,"y":2537965.7799999993}},{"attributes":{"ID":50785,"DIS_CODE":0,"TOWNNAME":"新化區","LI":"全興里","LIN":"17鄰","STREET":" ","SECT":" ","MAREA":"竹子\u25A0","LANE":" ","ALLEY":" ","HOUSE_NO":"２４７號之３８６","E_COORD97":178315.48000000001,"N_COORD97":2546676.2599999998,"ADDRESS":"竹子\u25A0２４７號之３８６","OBJECTID":50785},"geometry":{"x":178315.48000000231,"y":2546676.2599999998}},{"attributes":{"ID":50786,"DIS_CODE":0,"TOWNNAME":"安定區","LI":"南安里","LIN":"1鄰","STREET":" ","SECT":" ","MAREA":"油車","LANE":" ","ALLEY":" ","HOUSE_NO":"４之５號","E_COORD97":170850.89000000001,"N_COORD97":2555888.2999999998,"ADDRESS":"油車４之５號","OBJECTID":50786},"geometry":{"x":170850.88999999966,"y":2555888.3000000007}},{"attributes":{"ID":50787,"DIS_CODE":0,"TOWNNAME":"安定區","LI":"南安里","LIN":"1鄰","STREET":" ","SECT":" ","MAREA":"油車","LANE":" ","ALLEY":" ","HOUSE_NO":"６號","E_COORD97":170821.48999999999,"N_COORD97":2555951.25,"ADDRESS":"油車６號","OBJECTID":50787},"geometry":{"x":170821.49000000115,"y":2555951.2500000019}},{"attributes":{"ID":50788,"DIS_CODE":0,"TOWNNAME":"安定區","LI":"管寮里","LIN":"1鄰","STREET":" ","SECT":" ","MAREA":"管寮","LANE":" ","ALLEY":" ","HOUSE_NO":"７之５號","E_COORD97":169918.98999999999,"N_COORD97":2556100.2999999998,"ADDRESS":"管寮７之５號","OBJECTID":50788},"geometry":{"x":169918.99000000209,"y":2556100.3000000026}},{"attributes":{"ID":50789,"DIS_CODE":0,"TOWNNAME":"安定區","LI":"中沙里","LIN":"1鄰","STREET":" ","SECT":" ","MAREA":"中崙","LANE":" ","ALLEY":" ","HOUSE_NO":"８６之３號","E_COORD97":168803.11037400001,"N_COORD97":2553211.0374699999,"ADDRESS":"中崙８６之３號","OBJECTID":50789},"geometry":{"x":168803.11037400179,"y":2553211.0374690015}},{"attributes":{"ID":50790,"DIS_CODE":0,"TOWNNAME":"安定區","LI":"六嘉里","LIN":"1鄰","STREET":" ","SECT":" ","MAREA":"六塊寮","LANE":" ","ALLEY":" ","HOUSE_NO":"１０之１１號","E_COORD97":170416.97,"N_COORD97":2553686.2999999998,"ADDRESS":"六塊寮１０之１１號","OBJECTID":50790},"geometry":{"x":170416.9700000016,"y":2553686.3000000026}},{"attributes":{"ID":50791,"DIS_CODE":0,"TOWNNAME":"安定區","LI":"南安里","LIN":"1鄰","STREET":" ","SECT":" ","MAREA":"油車","LANE":" ","ALLEY":" ","HOUSE_NO":"６之１４號","E_COORD97":170785.73999999999,"N_COORD97":2555948.2999999998,"ADDRESS":"油車６之１４號","OBJECTID":50791},"geometry":{"x":170785.74000000115,"y":2555948.3000000026}},{"attributes":{"ID":50792,"DIS_CODE":0,"TOWNNAME":"南區","LI":"喜南里","LIN":"15鄰","STREET":"喜樹路","SECT":" ","MAREA":" ","LANE":"２２２巷","ALLEY":"２９弄","HOUSE_NO":"１０號","E_COORD97":165565.38,"N_COORD97":2537984.7200000002,"ADDRESS":"喜樹路２２２巷２９弄１０號","OBJECTID":50792},"geometry":{"x":165565.37999999989,"y":2537984.7200000007}},{"attributes":{"ID":50793,"DIS_CODE":0,"TOWNNAME":"南區","LI":"喜南里","LIN":"15鄰","STREET":"喜樹路","SECT":" ","MAREA":" ","LANE":"２２２巷","ALLEY":"２９弄","HOUSE_NO":"１４號","E_COORD97":165576.88,"N_COORD97":2537983.7400000002,"ADDRESS":"喜樹路２２２巷２９弄１４號","OBJECTID":50793},"geometry":{"x":165576.88000000082,"y":2537983.7400000002}},{"attributes":{"ID":50794,"DIS_CODE":0,"TOWNNAME":"南區","LI":"喜南里","LIN":"15鄰","STREET":"喜樹路","SECT":" ","MAREA":" ","LANE":"２２２巷","ALLEY":"２９弄","HOUSE_NO":"２號","E_COORD97":165578.54999999999,"N_COORD97":2538014.8700000001,"ADDRESS":"喜樹路２２２巷２９弄２號","OBJECTID":50794},"geometry":{"x":165578.55000000168,"y":2538014.8699999992}},{"attributes":{"ID":50795,"DIS_CODE":0,"TOWNNAME":"南區","LI":"喜南里","LIN":"15鄰","STREET":"喜樹路","SECT":" ","MAREA":" ","LANE":"２２２巷","ALLEY":"２９弄","HOUSE_NO":"６號","E_COORD97":165579.92000000001,"N_COORD97":2537996.3399999999,"ADDRESS":"喜樹路２２２巷２９弄６號","OBJECTID":50795},"geometry":{"x":165579.92000000086,"y":2537996.3399999999}},{"attributes":{"ID":50796,"DIS_CODE":0,"TOWNNAME":"安定區","LI":"海寮里","LIN":"1鄰","STREET":" ","SECT":" ","MAREA":"海寮","LANE":" ","ALLEY":" ","HOUSE_NO":"１９號之１４","E_COORD97":169275.60000000001,"N_COORD97":2555183.2999999998,"ADDRESS":"海寮１９號之１４","OBJECTID":50796},"geometry":{"x":169275.60000000056,"y":2555183.3000000007}},{"attributes":{"ID":50797,"DIS_CODE":0,"TOWNNAME":"南區","LI":"喜南里","LIN":"15鄰","STREET":"喜樹路","SECT":" ","MAREA":" ","LANE":"２２２巷","ALLEY":"２９弄","HOUSE_NO":"８號","E_COORD97":165559.70999999999,"N_COORD97":2537996.3500000001,"ADDRESS":"喜樹路２２２巷２９弄８號","OBJECTID":50797},"geometry":{"x":165559.71000000089,"y":2537996.3499999996}},{"attributes":{"ID":50798,"DIS_CODE":0,"TOWNNAME":"南區","LI":"喜南里","LIN":"15鄰","STREET":"喜樹路","SECT":" ","MAREA":" ","LANE":"２２２巷","ALLEY":"３７弄","HOUSE_NO":"２號","E_COORD97":165554.64000000001,"N_COORD97":2538023.5699999998,"ADDRESS":"喜樹路２２２巷３７弄２號","OBJECTID":50798},"geometry":{"x":165554.6400000006,"y":2538023.5700000022}},{"attributes":{"ID":50799,"DIS_CODE":0,"TOWNNAME":"南區","LI":"喜南里","LIN":"15鄰","STREET":"喜樹路","SECT":" ","MAREA":" ","LANE":"２２２巷","ALLEY":"３７弄","HOUSE_NO":"３號","E_COORD97":165534.98999999999,"N_COORD97":2538006.8799999999,"ADDRESS":"喜樹路２２２巷３７弄３號","OBJECTID":50799},"geometry":{"x":165534.99000000022,"y":2538006.8800000008}},{"attributes":{"ID":50800,"DIS_CODE":0,"TOWNNAME":"南區","LI":"喜南里","LIN":"15鄰","STREET":"喜樹路","SECT":" ","MAREA":" ","LANE":"２２２巷","ALLEY":"３７弄","HOUSE_NO":"４號","E_COORD97":165542.03,"N_COORD97":2538021.9300000002,"ADDRESS":"喜樹路２２２巷３７弄４號","OBJECTID":50800},"geometry":{"x":165542.03000000119,"y":2538021.9299999997}}]}