{"displayFieldName":"TOWNNAME","fieldAliases":{"ID":"ID","DIS_CODE":"DIS_CODE","TOWNNAME":"TOWNNAME","LI":"LI","LIN":"LIN","STREET":"STREET","SECT":"SECT","MAREA":"MAREA","LANE":"LANE","ALLEY":"ALLEY","HOUSE_NO":"HOUSE_NO","E_COORD97":"E_COORD97","N_COORD97":"N_COORD97","ADDRESS":"ADDRESS","OBJECTID":"OBJECTID"},"geometryType":"esriGeometryPoint","spatialReference":{"wkid":102443,"latestWkid":3826},"fields":[{"name":"ID","type":"esriFieldTypeDouble","alias":"ID"},{"name":"DIS_CODE","type":"esriFieldTypeInteger","alias":"DIS_CODE"},{"name":"TOWNNAME","type":"esriFieldTypeString","alias":"TOWNNAME","length":8},{"name":"LI","type":"esriFieldTypeString","alias":"LI","length":8},{"name":"LIN","type":"esriFieldTypeString","alias":"LIN","length":12},{"name":"STREET","type":"esriFieldTypeString","alias":"STREET","length":20},{"name":"SECT","type":"esriFieldTypeString","alias":"SECT","length":8},{"name":"MAREA","type":"esriFieldTypeString","alias":"MAREA","length":12},{"name":"LANE","type":"esriFieldTypeString","alias":"LANE","length":10},{"name":"ALLEY","type":"esriFieldTypeString","alias":"ALLEY","length":10},{"name":"HOUSE_NO","type":"esriFieldTypeString","alias":"HOUSE_NO","length":20},{"name":"E_COORD97","type":"esriFieldTypeDouble","alias":"E_COORD97"},{"name":"N_COORD97","type":"esriFieldTypeDouble","alias":"N_COORD97"},{"name":"ADDRESS","type":"esriFieldTypeString","alias":"ADDRESS","length":50},{"name":"OBJECTID","type":"esriFieldTypeOID","alias":"OBJECTID"}],"features":[{"attributes":{"ID":520028,"DIS_CODE":0,"TOWNNAME":"東區","LI":"東光里","LIN":"35鄰","STREET":"凱旋路","SECT":" ","MAREA":" ","LANE":" ","ALLEY":" ","HOUSE_NO":"４２號十樓","E_COORD97":171281.87,"N_COORD97":2543718.0299999998,"ADDRESS":"凱旋路４２號十樓","OBJECTID":520001},"geometry":{"x":171281.87000000011,"y":2543718.0299999975}},{"attributes":{"ID":520029,"DIS_CODE":0,"TOWNNAME":"東區","LI":"東光里","LIN":"35鄰","STREET":"凱旋路","SECT":" ","MAREA":" ","LANE":" ","ALLEY":" ","HOUSE_NO":"４２號十樓之１","E_COORD97":171281.87,"N_COORD97":2543718.0299999998,"ADDRESS":"凱旋路４２號十樓之１","OBJECTID":520002},"geometry":{"x":171281.87000000011,"y":2543718.0299999975}},{"attributes":{"ID":520030,"DIS_CODE":0,"TOWNNAME":"東區","LI":"東光里","LIN":"35鄰","STREET":"凱旋路","SECT":" ","MAREA":" ","LANE":" ","ALLEY":" ","HOUSE_NO":"４２號十樓之２","E_COORD97":171281.87,"N_COORD97":2543718.0299999998,"ADDRESS":"凱旋路４２號十樓之２","OBJECTID":520003},"geometry":{"x":171281.87000000011,"y":2543718.0299999975}},{"attributes":{"ID":520031,"DIS_CODE":0,"TOWNNAME":"東區","LI":"東光里","LIN":"35鄰","STREET":"凱旋路","SECT":" ","MAREA":" ","LANE":" ","ALLEY":" ","HOUSE_NO":"４２號十樓之３","E_COORD97":171281.87,"N_COORD97":2543718.0299999998,"ADDRESS":"凱旋路４２號十樓之３","OBJECTID":520004},"geometry":{"x":171281.87000000011,"y":2543718.0299999975}},{"attributes":{"ID":520032,"DIS_CODE":0,"TOWNNAME":"東區","LI":"東光里","LIN":"35鄰","STREET":"凱旋路","SECT":" ","MAREA":" ","LANE":" ","ALLEY":" ","HOUSE_NO":"４２號三樓","E_COORD97":171281.87,"N_COORD97":2543718.0299999998,"ADDRESS":"凱旋路４２號三樓","OBJECTID":520005},"geometry":{"x":171281.87000000011,"y":2543718.0299999975}},{"attributes":{"ID":520033,"DIS_CODE":0,"TOWNNAME":"東區","LI":"東光里","LIN":"35鄰","STREET":"凱旋路","SECT":" ","MAREA":" ","LANE":" ","ALLEY":" ","HOUSE_NO":"４２號三樓之１","E_COORD97":171281.87,"N_COORD97":2543718.0299999998,"ADDRESS":"凱旋路４２號三樓之１","OBJECTID":520006},"geometry":{"x":171281.87000000011,"y":2543718.0299999975}},{"attributes":{"ID":520034,"DIS_CODE":0,"TOWNNAME":"北區","LI":"成德里","LIN":"35鄰","STREET":"文成二路","SECT":" ","MAREA":" ","LANE":" ","ALLEY":" ","HOUSE_NO":"７６號","E_COORD97":168594.64999999999,"N_COORD97":2546183.1600000001,"ADDRESS":"文成二路７６號","OBJECTID":520007},"geometry":{"x":168594.6500000013,"y":2546183.1600000039}},{"attributes":{"ID":520035,"DIS_CODE":0,"TOWNNAME":"東區","LI":"東光里","LIN":"35鄰","STREET":"凱旋路","SECT":" ","MAREA":" ","LANE":" ","ALLEY":" ","HOUSE_NO":"４２號三樓之２","E_COORD97":171281.87,"N_COORD97":2543718.0299999998,"ADDRESS":"凱旋路４２號三樓之２","OBJECTID":520008},"geometry":{"x":171281.87000000011,"y":2543718.0299999975}},{"attributes":{"ID":520036,"DIS_CODE":0,"TOWNNAME":"東區","LI":"東光里","LIN":"35鄰","STREET":"凱旋路","SECT":" ","MAREA":" ","LANE":" ","ALLEY":" ","HOUSE_NO":"４２號五樓","E_COORD97":171281.87,"N_COORD97":2543718.0299999998,"ADDRESS":"凱旋路４２號五樓","OBJECTID":520009},"geometry":{"x":171281.87000000011,"y":2543718.0299999975}},{"attributes":{"ID":520037,"DIS_CODE":0,"TOWNNAME":"東區","LI":"東光里","LIN":"35鄰","STREET":"凱旋路","SECT":" ","MAREA":" ","LANE":" ","ALLEY":" ","HOUSE_NO":"４２號五樓之１","E_COORD97":171281.87,"N_COORD97":2543718.0299999998,"ADDRESS":"凱旋路４２號五樓之１","OBJECTID":520010},"geometry":{"x":171281.87000000011,"y":2543718.0299999975}},{"attributes":{"ID":520038,"DIS_CODE":0,"TOWNNAME":"東區","LI":"東光里","LIN":"35鄰","STREET":"凱旋路","SECT":" ","MAREA":" ","LANE":" ","ALLEY":" ","HOUSE_NO":"４２號五樓之２","E_COORD97":171281.87,"N_COORD97":2543718.0299999998,"ADDRESS":"凱旋路４２號五樓之２","OBJECTID":520011},"geometry":{"x":171281.87000000011,"y":2543718.0299999975}},{"attributes":{"ID":520039,"DIS_CODE":0,"TOWNNAME":"東區","LI":"東光里","LIN":"35鄰","STREET":"凱旋路","SECT":" ","MAREA":" ","LANE":" ","ALLEY":" ","HOUSE_NO":"４２號六樓","E_COORD97":171281.87,"N_COORD97":2543718.0299999998,"ADDRESS":"凱旋路４２號六樓","OBJECTID":520012},"geometry":{"x":171281.87000000011,"y":2543718.0299999975}},{"attributes":{"ID":520040,"DIS_CODE":0,"TOWNNAME":"東區","LI":"東光里","LIN":"35鄰","STREET":"凱旋路","SECT":" ","MAREA":" ","LANE":" ","ALLEY":" ","HOUSE_NO":"４２號六樓之１","E_COORD97":171281.87,"N_COORD97":2543718.0299999998,"ADDRESS":"凱旋路４２號六樓之１","OBJECTID":520013},"geometry":{"x":171281.87000000011,"y":2543718.0299999975}},{"attributes":{"ID":520041,"DIS_CODE":0,"TOWNNAME":"東區","LI":"東光里","LIN":"35鄰","STREET":"凱旋路","SECT":" ","MAREA":" ","LANE":" ","ALLEY":" ","HOUSE_NO":"４２號六樓之２","E_COORD97":171281.87,"N_COORD97":2543718.0299999998,"ADDRESS":"凱旋路４２號六樓之２","OBJECTID":520014},"geometry":{"x":171281.87000000011,"y":2543718.0299999975}},{"attributes":{"ID":520042,"DIS_CODE":0,"TOWNNAME":"東區","LI":"東光里","LIN":"35鄰","STREET":"凱旋路","SECT":" ","MAREA":" ","LANE":" ","ALLEY":" ","HOUSE_NO":"４２號六樓之３","E_COORD97":171281.87,"N_COORD97":2543718.0299999998,"ADDRESS":"凱旋路４２號六樓之３","OBJECTID":520015},"geometry":{"x":171281.87000000011,"y":2543718.0299999975}},{"attributes":{"ID":520043,"DIS_CODE":0,"TOWNNAME":"東區","LI":"東光里","LIN":"35鄰","STREET":"凱旋路","SECT":" ","MAREA":" ","LANE":" ","ALLEY":" ","HOUSE_NO":"４２號四樓","E_COORD97":171281.87,"N_COORD97":2543718.0299999998,"ADDRESS":"凱旋路４２號四樓","OBJECTID":520016},"geometry":{"x":171281.87000000011,"y":2543718.0299999975}},{"attributes":{"ID":520044,"DIS_CODE":0,"TOWNNAME":"東區","LI":"東光里","LIN":"35鄰","STREET":"凱旋路","SECT":" ","MAREA":" ","LANE":" ","ALLEY":" ","HOUSE_NO":"４２號四樓之１","E_COORD97":171281.87,"N_COORD97":2543718.0299999998,"ADDRESS":"凱旋路４２號四樓之１","OBJECTID":520017},"geometry":{"x":171281.87000000011,"y":2543718.0299999975}},{"attributes":{"ID":520045,"DIS_CODE":0,"TOWNNAME":"東區","LI":"東光里","LIN":"35鄰","STREET":"凱旋路","SECT":" ","MAREA":" ","LANE":" ","ALLEY":" ","HOUSE_NO":"４２號四樓之２","E_COORD97":171281.87,"N_COORD97":2543718.0299999998,"ADDRESS":"凱旋路４２號四樓之２","OBJECTID":520018},"geometry":{"x":171281.87000000011,"y":2543718.0299999975}},{"attributes":{"ID":520046,"DIS_CODE":0,"TOWNNAME":"永康區","LI":"西灣里","LIN":"35鄰","STREET":"國光八街","SECT":" ","MAREA":" ","LANE":" ","ALLEY":" ","HOUSE_NO":"８１號四樓之１","E_COORD97":174246.37,"N_COORD97":2545755.8799999999,"ADDRESS":"國光八街８１號四樓之１","OBJECTID":520019},"geometry":{"x":174246.37000000104,"y":2545755.879999999}},{"attributes":{"ID":520047,"DIS_CODE":0,"TOWNNAME":"永康區","LI":"東灣里","LIN":"24鄰","STREET":"大灣二街","SECT":" ","MAREA":" ","LANE":" ","ALLEY":" ","HOUSE_NO":"８６號","E_COORD97":174825.70999999999,"N_COORD97":2544766.77,"ADDRESS":"大灣二街８６號","OBJECTID":520020},"geometry":{"x":174825.70999999996,"y":2544766.7699999996}},{"attributes":{"ID":520048,"DIS_CODE":0,"TOWNNAME":"永康區","LI":"西灣里","LIN":"35鄰","STREET":"國光八街","SECT":" ","MAREA":" ","LANE":" ","ALLEY":" ","HOUSE_NO":"８１號二樓之１","E_COORD97":174246.37,"N_COORD97":2545755.8799999999,"ADDRESS":"國光八街８１號二樓之１","OBJECTID":520021},"geometry":{"x":174246.37000000104,"y":2545755.879999999}},{"attributes":{"ID":520049,"DIS_CODE":0,"TOWNNAME":"永康區","LI":"西灣里","LIN":"35鄰","STREET":"國光八街","SECT":" ","MAREA":" ","LANE":" ","ALLEY":" ","HOUSE_NO":"８１號三樓之１","E_COORD97":174246.37,"N_COORD97":2545755.8799999999,"ADDRESS":"國光八街８１號三樓之１","OBJECTID":520022},"geometry":{"x":174246.37000000104,"y":2545755.879999999}},{"attributes":{"ID":520050,"DIS_CODE":0,"TOWNNAME":"永康區","LI":"西灣里","LIN":"35鄰","STREET":"國光八街","SECT":" ","MAREA":" ","LANE":" ","ALLEY":" ","HOUSE_NO":"８１號五樓之２","E_COORD97":174246.5,"N_COORD97":2545755.8799999999,"ADDRESS":"國光八街８１號五樓之２","OBJECTID":520023},"geometry":{"x":174246.50000000186,"y":2545755.879999999}},{"attributes":{"ID":520051,"DIS_CODE":0,"TOWNNAME":"永康區","LI":"西灣里","LIN":"35鄰","STREET":"國光八街","SECT":" ","MAREA":" ","LANE":" ","ALLEY":" ","HOUSE_NO":"８１號五樓之１","E_COORD97":174246.37,"N_COORD97":2545755.8799999999,"ADDRESS":"國光八街８１號五樓之１","OBJECTID":520024},"geometry":{"x":174246.37000000104,"y":2545755.879999999}},{"attributes":{"ID":520052,"DIS_CODE":0,"TOWNNAME":"永康區","LI":"西灣里","LIN":"35鄰","STREET":"國光八街","SECT":" ","MAREA":" ","LANE":" ","ALLEY":" ","HOUSE_NO":"８１號三樓之２","E_COORD97":174246.5,"N_COORD97":2545755.8799999999,"ADDRESS":"國光八街８１號三樓之２","OBJECTID":520025},"geometry":{"x":174246.50000000186,"y":2545755.879999999}},{"attributes":{"ID":520053,"DIS_CODE":0,"TOWNNAME":"永康區","LI":"西灣里","LIN":"35鄰","STREET":"國光八街","SECT":" ","MAREA":" ","LANE":" ","ALLEY":" ","HOUSE_NO":"８１號四樓之２","E_COORD97":174246.5,"N_COORD97":2545755.8799999999,"ADDRESS":"國光八街８１號四樓之２","OBJECTID":520026},"geometry":{"x":174246.50000000186,"y":2545755.879999999}},{"attributes":{"ID":520054,"DIS_CODE":0,"TOWNNAME":"永康區","LI":"復華里","LIN":"35鄰","STREET":"復華八街","SECT":" ","MAREA":" ","LANE":" ","ALLEY":" ","HOUSE_NO":"３５號四樓之６","E_COORD97":172707.62,"N_COORD97":2546219.7999999998,"ADDRESS":"復華八街３５號四樓之６","OBJECTID":520027},"geometry":{"x":172707.62000000011,"y":2546219.7999999989}},{"attributes":{"ID":520055,"DIS_CODE":0,"TOWNNAME":"永康區","LI":"西灣里","LIN":"35鄰","STREET":"國光八街","SECT":" ","MAREA":" ","LANE":" ","ALLEY":" ","HOUSE_NO":"８１號二樓之２","E_COORD97":174246.5,"N_COORD97":2545755.8799999999,"ADDRESS":"國光八街８１號二樓之２","OBJECTID":520028},"geometry":{"x":174246.50000000186,"y":2545755.879999999}},{"attributes":{"ID":520056,"DIS_CODE":0,"TOWNNAME":"永康區","LI":"東橋里","LIN":"17鄰","STREET":"東橋三路","SECT":" ","MAREA":" ","LANE":" ","ALLEY":" ","HOUSE_NO":"２０１號","E_COORD97":171435.84,"N_COORD97":2546884.1699999999,"ADDRESS":"東橋三路２０１號","OBJECTID":520029},"geometry":{"x":171435.84000000078,"y":2546884.1699999999}},{"attributes":{"ID":520057,"DIS_CODE":0,"TOWNNAME":"永康區","LI":"埔園里","LIN":"35鄰","STREET":"自強路","SECT":" ","MAREA":" ","LANE":" ","ALLEY":" ","HOUSE_NO":"６６７號","E_COORD97":174305.42999999999,"N_COORD97":2548434.5099999998,"ADDRESS":"自強路６６７號","OBJECTID":520030},"geometry":{"x":174305.4299999997,"y":2548434.5099999998}},{"attributes":{"ID":520058,"DIS_CODE":0,"TOWNNAME":"新市區","LI":"新和里","LIN":"35鄰","STREET":"仁愛街","SECT":" ","MAREA":" ","LANE":" ","ALLEY":" ","HOUSE_NO":"２１７號","E_COORD97":177597.82999999999,"N_COORD97":2552852.2799999998,"ADDRESS":"仁愛街２１７號","OBJECTID":520031},"geometry":{"x":177597.83000000101,"y":2552852.2799999993}},{"attributes":{"ID":520059,"DIS_CODE":0,"TOWNNAME":"北區","LI":"成德里","LIN":"35鄰","STREET":"文成二路","SECT":" ","MAREA":" ","LANE":" ","ALLEY":" ","HOUSE_NO":"９８號","E_COORD97":168558.95999999999,"N_COORD97":2546178.8399999999,"ADDRESS":"文成二路９８號","OBJECTID":520032},"geometry":{"x":168558.95999999996,"y":2546178.8400000017}},{"attributes":{"ID":520060,"DIS_CODE":0,"TOWNNAME":"永康區","LI":"永康里","LIN":"35鄰","STREET":"大同街","SECT":" ","MAREA":" ","LANE":" ","ALLEY":" ","HOUSE_NO":"９２６號","E_COORD97":174442.22,"N_COORD97":2546989.6099999999,"ADDRESS":"大同街９２６號","OBJECTID":520033},"geometry":{"x":174442.21999999974,"y":2546989.6100000031}},{"attributes":{"ID":520061,"DIS_CODE":0,"TOWNNAME":"歸仁區","LI":"後市里","LIN":"35鄰","STREET":"國光街","SECT":" ","MAREA":" ","LANE":" ","ALLEY":" ","HOUSE_NO":"９３號","E_COORD97":177265.98999999999,"N_COORD97":2540961.7400000002,"ADDRESS":"國光街９３號","OBJECTID":520034},"geometry":{"x":177265.99000000209,"y":2540961.7400000021}},{"attributes":{"ID":520062,"DIS_CODE":0,"TOWNNAME":"歸仁區","LI":"辜厝里","LIN":"35鄰","STREET":"大吉街","SECT":" ","MAREA":" ","LANE":" ","ALLEY":" ","HOUSE_NO":"１８５號","E_COORD97":177208.23999999999,"N_COORD97":2540378.6800000002,"ADDRESS":"大吉街１８５號","OBJECTID":520035},"geometry":{"x":177208.24000000209,"y":2540378.6800000016}},{"attributes":{"ID":520063,"DIS_CODE":0,"TOWNNAME":"永康區","LI":"東橋里","LIN":"17鄰","STREET":"東橋三路","SECT":" ","MAREA":" ","LANE":" ","ALLEY":" ","HOUSE_NO":"２２５號","E_COORD97":171421.82000000001,"N_COORD97":2546939.4100000001,"ADDRESS":"東橋三路２２５號","OBJECTID":520036},"geometry":{"x":171421.8200000003,"y":2546939.4100000001}},{"attributes":{"ID":520064,"DIS_CODE":0,"TOWNNAME":"歸仁區","LI":"南興里","LIN":"35鄰","STREET":"民生一街","SECT":" ","MAREA":" ","LANE":" ","ALLEY":" ","HOUSE_NO":"５１號","E_COORD97":176417.91,"N_COORD97":2541036.25,"ADDRESS":"民生一街５１號","OBJECTID":520037},"geometry":{"x":176417.91000000108,"y":2541036.2500000019}},{"attributes":{"ID":520065,"DIS_CODE":0,"TOWNNAME":"歸仁區","LI":"南興里","LIN":"35鄰","STREET":"民生北街","SECT":" ","MAREA":" ","LANE":" ","ALLEY":" ","HOUSE_NO":"３６號","E_COORD97":176276.41,"N_COORD97":2541030.25,"ADDRESS":"民生北街３６號","OBJECTID":520038},"geometry":{"x":176276.41000000201,"y":2541030.2500000019}},{"attributes":{"ID":520066,"DIS_CODE":0,"TOWNNAME":"歸仁區","LI":"南興里","LIN":"35鄰","STREET":"民生一街","SECT":" ","MAREA":" ","LANE":" ","ALLEY":" ","HOUSE_NO":"２１號","E_COORD97":176331.59,"N_COORD97":2541047.29,"ADDRESS":"民生一街２１號","OBJECTID":520039},"geometry":{"x":176331.59000000078,"y":2541047.2899999991}},{"attributes":{"ID":520067,"DIS_CODE":0,"TOWNNAME":"歸仁區","LI":"南興里","LIN":"35鄰","STREET":"中山路","SECT":"三段","MAREA":" ","LANE":" ","ALLEY":" ","HOUSE_NO":"２５８號","E_COORD97":176354.06,"N_COORD97":2540954.2799999998,"ADDRESS":"中山路三段２５８號","OBJECTID":520040},"geometry":{"x":176354.05999999959,"y":2540954.2800000012}},{"attributes":{"ID":520068,"DIS_CODE":0,"TOWNNAME":"歸仁區","LI":"南興里","LIN":"35鄰","STREET":"中山路","SECT":"三段","MAREA":" ","LANE":" ","ALLEY":" ","HOUSE_NO":"２５６號","E_COORD97":176357.16,"N_COORD97":2540953.2799999998,"ADDRESS":"中山路三段２５６號","OBJECTID":520041},"geometry":{"x":176357.16000000015,"y":2540953.2800000031}},{"attributes":{"ID":520069,"DIS_CODE":0,"TOWNNAME":"歸仁區","LI":"南興里","LIN":"35鄰","STREET":"中山路","SECT":"三段","MAREA":" ","LANE":" ","ALLEY":" ","HOUSE_NO":"２８０號","E_COORD97":176312.06,"N_COORD97":2540959.2799999998,"ADDRESS":"中山路三段２８０號","OBJECTID":520042},"geometry":{"x":176312.06000000145,"y":2540959.2799999993}},{"attributes":{"ID":520070,"DIS_CODE":0,"TOWNNAME":"歸仁區","LI":"南興里","LIN":"35鄰","STREET":"中山路","SECT":"三段","MAREA":" ","LANE":" ","ALLEY":" ","HOUSE_NO":"２９２號","E_COORD97":176284.35999999999,"N_COORD97":2540965.2799999998,"ADDRESS":"中山路三段２９２號","OBJECTID":520043},"geometry":{"x":176284.36000000127,"y":2540965.2799999993}},{"attributes":{"ID":520071,"DIS_CODE":0,"TOWNNAME":"歸仁區","LI":"南興里","LIN":"35鄰","STREET":"中山路","SECT":"三段","MAREA":" ","LANE":" ","ALLEY":" ","HOUSE_NO":"２６２號","E_COORD97":176345.85999999999,"N_COORD97":2540952.2799999998,"ADDRESS":"中山路三段２６２號","OBJECTID":520044},"geometry":{"x":176345.86000000034,"y":2540952.2799999993}},{"attributes":{"ID":520072,"DIS_CODE":0,"TOWNNAME":"歸仁區","LI":"南興里","LIN":"35鄰","STREET":"中山路","SECT":"三段","MAREA":" ","LANE":" ","ALLEY":" ","HOUSE_NO":"２８２號","E_COORD97":176307.95999999999,"N_COORD97":2540960.2799999998,"ADDRESS":"中山路三段２８２號","OBJECTID":520045},"geometry":{"x":176307.95999999903,"y":2540960.2800000031}},{"attributes":{"ID":520073,"DIS_CODE":0,"TOWNNAME":"歸仁區","LI":"南興里","LIN":"35鄰","STREET":"中山路","SECT":"三段","MAREA":" ","LANE":" ","ALLEY":" ","HOUSE_NO":"２６４號","E_COORD97":176340.85999999999,"N_COORD97":2540968.2799999998,"ADDRESS":"中山路三段２６４號","OBJECTID":520046},"geometry":{"x":176340.86000000034,"y":2540968.2800000012}},{"attributes":{"ID":520074,"DIS_CODE":0,"TOWNNAME":"歸仁區","LI":"南興里","LIN":"35鄰","STREET":"中山路","SECT":"三段","MAREA":" ","LANE":" ","ALLEY":" ","HOUSE_NO":"２７６號","E_COORD97":176324.35999999999,"N_COORD97":2540958.2799999998,"ADDRESS":"中山路三段２７６號","OBJECTID":520047},"geometry":{"x":176324.3600000022,"y":2540958.2800000012}},{"attributes":{"ID":520075,"DIS_CODE":0,"TOWNNAME":"玉井區","LI":"玉田里","LIN":"35鄰","STREET":"民族路","SECT":" ","MAREA":" ","LANE":" ","ALLEY":" ","HOUSE_NO":"２６３號","E_COORD97":195652.29000000001,"N_COORD97":2558093.2799999998,"ADDRESS":"民族路２６３號","OBJECTID":520048},"geometry":{"x":195652.29000000004,"y":2558093.2800000012}},{"attributes":{"ID":520076,"DIS_CODE":0,"TOWNNAME":"玉井區","LI":"玉田里","LIN":"35鄰","STREET":"大成路","SECT":" ","MAREA":" ","LANE":" ","ALLEY":" ","HOUSE_NO":"１５２號","E_COORD97":195739.75,"N_COORD97":2558046.27,"ADDRESS":"大成路１５２號","OBJECTID":520049},"geometry":{"x":195739.75000000186,"y":2558046.2699999996}},{"attributes":{"ID":520077,"DIS_CODE":0,"TOWNNAME":"玉井區","LI":"玉田里","LIN":"35鄰","STREET":"民族路","SECT":" ","MAREA":" ","LANE":" ","ALLEY":" ","HOUSE_NO":"２６５號","E_COORD97":195656.88,"N_COORD97":2558093.2799999998,"ADDRESS":"民族路２６５號","OBJECTID":520050},"geometry":{"x":195656.87999999989,"y":2558093.2800000012}},{"attributes":{"ID":520078,"DIS_CODE":0,"TOWNNAME":"玉井區","LI":"玉田里","LIN":"35鄰","STREET":"民族路","SECT":" ","MAREA":" ","LANE":" ","ALLEY":" ","HOUSE_NO":"２６９號","E_COORD97":195667.29000000001,"N_COORD97":2558093.2799999998,"ADDRESS":"民族路２６９號","OBJECTID":520051},"geometry":{"x":195667.29000000097,"y":2558093.2800000012}},{"attributes":{"ID":520079,"DIS_CODE":0,"TOWNNAME":"玉井區","LI":"玉田里","LIN":"35鄰","STREET":"大成路","SECT":" ","MAREA":" ","LANE":" ","ALLEY":" ","HOUSE_NO":"１７０號","E_COORD97":195697.95999999999,"N_COORD97":2558136.27,"ADDRESS":"大成路１７０號","OBJECTID":520052},"geometry":{"x":195697.96000000089,"y":2558136.2700000033}},{"attributes":{"ID":520080,"DIS_CODE":0,"TOWNNAME":"玉井區","LI":"玉田里","LIN":"35鄰","STREET":"民族路","SECT":" ","MAREA":" ","LANE":" ","ALLEY":" ","HOUSE_NO":"２６１號","E_COORD97":195647.48999999999,"N_COORD97":2558093.2799999998,"ADDRESS":"民族路２６１號","OBJECTID":520053},"geometry":{"x":195647.49000000115,"y":2558093.2800000012}},{"attributes":{"ID":520081,"DIS_CODE":0,"TOWNNAME":"新營區","LI":"民榮里","LIN":"35鄰","STREET":"新進路","SECT":"二段","MAREA":" ","LANE":" ","ALLEY":" ","HOUSE_NO":"４２７號","E_COORD97":178653.37,"N_COORD97":2578003.2799999998,"ADDRESS":"新進路二段４２７號","OBJECTID":520054},"geometry":{"x":178653.37000000197,"y":2578003.2800000031}},{"attributes":{"ID":520082,"DIS_CODE":0,"TOWNNAME":"北區","LI":"成德里","LIN":"35鄰","STREET":"育德一街","SECT":" ","MAREA":" ","LANE":" ","ALLEY":" ","HOUSE_NO":"２１８號","E_COORD97":168559.04000000001,"N_COORD97":2546241.71,"ADDRESS":"育德一街２１８號","OBJECTID":520055},"geometry":{"x":168559.04000000097,"y":2546241.7100000028}},{"attributes":{"ID":520083,"DIS_CODE":0,"TOWNNAME":"北區","LI":"成德里","LIN":"35鄰","STREET":"育德一街","SECT":" ","MAREA":" ","LANE":" ","ALLEY":" ","HOUSE_NO":"２２２號","E_COORD97":168561.89999999999,"N_COORD97":2546254.73,"ADDRESS":"育德一街２２２號","OBJECTID":520056},"geometry":{"x":168561.90000000224,"y":2546254.7300000023}},{"attributes":{"ID":520084,"DIS_CODE":0,"TOWNNAME":"北區","LI":"成德里","LIN":"35鄰","STREET":"育德一街","SECT":" ","MAREA":" ","LANE":" ","ALLEY":" ","HOUSE_NO":"２２６號","E_COORD97":168562.85000000001,"N_COORD97":2546260.7599999998,"ADDRESS":"育德一街２２６號","OBJECTID":520057},"geometry":{"x":168562.84999999963,"y":2546260.7600000016}},{"attributes":{"ID":520085,"DIS_CODE":0,"TOWNNAME":"北區","LI":"成德里","LIN":"35鄰","STREET":"育德一街","SECT":" ","MAREA":" ","LANE":" ","ALLEY":" ","HOUSE_NO":"２２８號","E_COORD97":168563.81,"N_COORD97":2546266.48,"ADDRESS":"育德一街２２８號","OBJECTID":520058},"geometry":{"x":168563.81000000052,"y":2546266.4800000023}},{"attributes":{"ID":520086,"DIS_CODE":0,"TOWNNAME":"北區","LI":"成德里","LIN":"35鄰","STREET":"育德一街","SECT":" ","MAREA":" ","LANE":" ","ALLEY":" ","HOUSE_NO":"２３０號","E_COORD97":168565.07999999999,"N_COORD97":2546272.5099999998,"ADDRESS":"育德一街２３０號","OBJECTID":520059},"geometry":{"x":168565.08000000007,"y":2546272.5100000016}},{"attributes":{"ID":520087,"DIS_CODE":0,"TOWNNAME":"北區","LI":"成德里","LIN":"35鄰","STREET":"育德一街","SECT":" ","MAREA":" ","LANE":" ","ALLEY":" ","HOUSE_NO":"２３２號","E_COORD97":168566.35000000001,"N_COORD97":2546278.54,"ADDRESS":"育德一街２３２號","OBJECTID":520060},"geometry":{"x":168566.34999999963,"y":2546278.540000001}},{"attributes":{"ID":520088,"DIS_CODE":0,"TOWNNAME":"北區","LI":"成德里","LIN":"35鄰","STREET":"育德一街","SECT":" ","MAREA":" ","LANE":" ","ALLEY":" ","HOUSE_NO":"２３６號","E_COORD97":168567.62,"N_COORD97":2546284.8900000001,"ADDRESS":"育德一街２３６號","OBJECTID":520061},"geometry":{"x":168567.62000000104,"y":2546284.8900000025}},{"attributes":{"ID":520089,"DIS_CODE":0,"TOWNNAME":"北區","LI":"成德里","LIN":"35鄰","STREET":"育德一街","SECT":" ","MAREA":" ","LANE":" ","ALLEY":" ","HOUSE_NO":"２３８號","E_COORD97":168569.20000000001,"N_COORD97":2546291.5600000001,"ADDRESS":"育德一街２３８號","OBJECTID":520062},"geometry":{"x":168569.20000000019,"y":2546291.5600000005}},{"attributes":{"ID":520090,"DIS_CODE":0,"TOWNNAME":"北區","LI":"成德里","LIN":"35鄰","STREET":"育德一街","SECT":" ","MAREA":" ","LANE":" ","ALLEY":" ","HOUSE_NO":"２４０號","E_COORD97":168570.47,"N_COORD97":2546297.9100000001,"ADDRESS":"育德一街２４０號","OBJECTID":520063},"geometry":{"x":168570.46999999974,"y":2546297.910000002}},{"attributes":{"ID":520091,"DIS_CODE":0,"TOWNNAME":"北區","LI":"成德里","LIN":"35鄰","STREET":"育德一街","SECT":" ","MAREA":" ","LANE":" ","ALLEY":" ","HOUSE_NO":"２４２號","E_COORD97":168571.73999999999,"N_COORD97":2546303.9399999999,"ADDRESS":"育德一街２４２號","OBJECTID":520064},"geometry":{"x":168571.74000000115,"y":2546303.9400000013}},{"attributes":{"ID":520092,"DIS_CODE":0,"TOWNNAME":"北區","LI":"成德里","LIN":"35鄰","STREET":"育德一街","SECT":" ","MAREA":" ","LANE":" ","ALLEY":" ","HOUSE_NO":"２４６號","E_COORD97":168573.32999999999,"N_COORD97":2546310.29,"ADDRESS":"育德一街２４６號","OBJECTID":520065},"geometry":{"x":168573.33000000007,"y":2546310.290000001}},{"attributes":{"ID":520093,"DIS_CODE":0,"TOWNNAME":"北區","LI":"成德里","LIN":"35鄰","STREET":"文成二路","SECT":" ","MAREA":" ","LANE":" ","ALLEY":" ","HOUSE_NO":"６６號","E_COORD97":168607.60000000001,"N_COORD97":2546177.5699999998,"ADDRESS":"文成二路６６號","OBJECTID":520066},"geometry":{"x":168607.60000000056,"y":2546177.5700000022}},{"attributes":{"ID":520094,"DIS_CODE":0,"TOWNNAME":"北區","LI":"成德里","LIN":"35鄰","STREET":"文成二路","SECT":" ","MAREA":" ","LANE":" ","ALLEY":" ","HOUSE_NO":"６８號","E_COORD97":168603.67000000001,"N_COORD97":2546177.5699999998,"ADDRESS":"文成二路６８號","OBJECTID":520067},"geometry":{"x":168603.67000000179,"y":2546177.5700000022}},{"attributes":{"ID":520095,"DIS_CODE":0,"TOWNNAME":"北區","LI":"成德里","LIN":"35鄰","STREET":"文成二路","SECT":" ","MAREA":" ","LANE":" ","ALLEY":" ","HOUSE_NO":"７０號","E_COORD97":168599.22,"N_COORD97":2546178.0800000001,"ADDRESS":"文成二路７０號","OBJECTID":520068},"geometry":{"x":168599.21999999974,"y":2546178.0800000019}},{"attributes":{"ID":520096,"DIS_CODE":0,"TOWNNAME":"北區","LI":"成德里","LIN":"35鄰","STREET":"文成二路","SECT":" ","MAREA":" ","LANE":" ","ALLEY":" ","HOUSE_NO":"７２號","E_COORD97":168594.78,"N_COORD97":2546178.0800000001,"ADDRESS":"文成二路７２號","OBJECTID":520069},"geometry":{"x":168594.78000000212,"y":2546178.0800000019}},{"attributes":{"ID":520097,"DIS_CODE":0,"TOWNNAME":"北區","LI":"成德里","LIN":"35鄰","STREET":"文成二路","SECT":" ","MAREA":" ","LANE":" ","ALLEY":" ","HOUSE_NO":"８６號","E_COORD97":168585.76000000001,"N_COORD97":2546178.3300000001,"ADDRESS":"文成二路８６號","OBJECTID":520070},"geometry":{"x":168585.75999999978,"y":2546178.3300000038}},{"attributes":{"ID":520098,"DIS_CODE":0,"TOWNNAME":"北區","LI":"成德里","LIN":"35鄰","STREET":"文成二路","SECT":" ","MAREA":" ","LANE":" ","ALLEY":" ","HOUSE_NO":"８８號","E_COORD97":168580.17000000001,"N_COORD97":2546178.3300000001,"ADDRESS":"文成二路８８號","OBJECTID":520071},"geometry":{"x":168580.17000000086,"y":2546178.3300000038}},{"attributes":{"ID":520099,"DIS_CODE":0,"TOWNNAME":"北區","LI":"成德里","LIN":"35鄰","STREET":"文成二路","SECT":" ","MAREA":" ","LANE":" ","ALLEY":" ","HOUSE_NO":"９０號","E_COORD97":168574.97,"N_COORD97":2546178.46,"ADDRESS":"文成二路９０號","OBJECTID":520072},"geometry":{"x":168574.97000000067,"y":2546178.4600000046}},{"attributes":{"ID":520100,"DIS_CODE":0,"TOWNNAME":"北區","LI":"成德里","LIN":"35鄰","STREET":"文成二路","SECT":" ","MAREA":" ","LANE":" ","ALLEY":" ","HOUSE_NO":"９２號","E_COORD97":168569.89000000001,"N_COORD97":2546178.71,"ADDRESS":"文成二路９２號","OBJECTID":520073},"geometry":{"x":168569.8900000006,"y":2546178.7100000009}},{"attributes":{"ID":520101,"DIS_CODE":0,"TOWNNAME":"北區","LI":"成德里","LIN":"35鄰","STREET":"文成二路","SECT":" ","MAREA":" ","LANE":" ","ALLEY":" ","HOUSE_NO":"１００號","E_COORD97":168553.12,"N_COORD97":2546179.0899999999,"ADDRESS":"文成二路１００號","OBJECTID":520074},"geometry":{"x":168553.12000000011,"y":2546179.0899999999}},{"attributes":{"ID":520102,"DIS_CODE":0,"TOWNNAME":"北區","LI":"成德里","LIN":"35鄰","STREET":"文成二路","SECT":" ","MAREA":" ","LANE":" ","ALLEY":" ","HOUSE_NO":"１０２號","E_COORD97":168546.64000000001,"N_COORD97":2546178.9700000002,"ADDRESS":"文成二路１０２號","OBJECTID":520075},"geometry":{"x":168546.6400000006,"y":2546178.9700000025}},{"attributes":{"ID":520103,"DIS_CODE":0,"TOWNNAME":"北區","LI":"成德里","LIN":"35鄰","STREET":"文成二路","SECT":" ","MAREA":" ","LANE":" ","ALLEY":" ","HOUSE_NO":"７８號","E_COORD97":168594.78,"N_COORD97":2546187.98,"ADDRESS":"文成二路７８號","OBJECTID":520076},"geometry":{"x":168594.78000000212,"y":2546187.9800000042}},{"attributes":{"ID":520104,"DIS_CODE":0,"TOWNNAME":"北區","LI":"成德里","LIN":"35鄰","STREET":"文成二路","SECT":" ","MAREA":" ","LANE":" ","ALLEY":" ","HOUSE_NO":"８０號","E_COORD97":168585.38,"N_COORD97":2546187.98,"ADDRESS":"文成二路８０號","OBJECTID":520077},"geometry":{"x":168585.38000000175,"y":2546187.9800000042}},{"attributes":{"ID":520105,"DIS_CODE":0,"TOWNNAME":"北區","LI":"成德里","LIN":"35鄰","STREET":"文成二路","SECT":" ","MAREA":" ","LANE":" ","ALLEY":" ","HOUSE_NO":"８２號","E_COORD97":168585.63,"N_COORD97":2546183.54,"ADDRESS":"文成二路８２號","OBJECTID":520078},"geometry":{"x":168585.63000000082,"y":2546183.540000001}},{"attributes":{"ID":520106,"DIS_CODE":0,"TOWNNAME":"北區","LI":"成德里","LIN":"35鄰","STREET":"育德一街","SECT":" ","MAREA":" ","LANE":" ","ALLEY":" ","HOUSE_NO":"２００號","E_COORD97":168547.03,"N_COORD97":2546189.25,"ADDRESS":"育德一街２００號","OBJECTID":520079},"geometry":{"x":168547.03000000026,"y":2546189.2500000037}},{"attributes":{"ID":520107,"DIS_CODE":0,"TOWNNAME":"北區","LI":"成德里","LIN":"35鄰","STREET":"育德一街","SECT":" ","MAREA":" ","LANE":" ","ALLEY":" ","HOUSE_NO":"２０２號","E_COORD97":168548.92999999999,"N_COORD97":2546196.1099999999,"ADDRESS":"育德一街２０２號","OBJECTID":520080},"geometry":{"x":168548.9299999997,"y":2546196.1100000031}},{"attributes":{"ID":520108,"DIS_CODE":0,"TOWNNAME":"新營區","LI":"民榮里","LIN":"35鄰","STREET":"新進路","SECT":"二段","MAREA":" ","LANE":" ","ALLEY":" ","HOUSE_NO":"４２５號","E_COORD97":178655.39999999999,"N_COORD97":2577998.8399999999,"ADDRESS":"新進路二段４２５號","OBJECTID":520081},"geometry":{"x":178655.4000000013,"y":2577998.8399999999}},{"attributes":{"ID":520109,"DIS_CODE":0,"TOWNNAME":"新營區","LI":"民榮里","LIN":"35鄰","STREET":"新進路","SECT":"二段","MAREA":" ","LANE":" ","ALLEY":" ","HOUSE_NO":"４３１號","E_COORD97":178645.26000000001,"N_COORD97":2578018.8199999998,"ADDRESS":"新進路二段４３１號","OBJECTID":520082},"geometry":{"x":178645.26000000164,"y":2578018.8200000022}},{"attributes":{"ID":520110,"DIS_CODE":0,"TOWNNAME":"歸仁區","LI":"南興里","LIN":"35鄰","STREET":"民生一街","SECT":" ","MAREA":" ","LANE":" ","ALLEY":" ","HOUSE_NO":"３７號","E_COORD97":176388.98999999999,"N_COORD97":2541040.29,"ADDRESS":"民生一街３７號","OBJECTID":520083},"geometry":{"x":176388.99000000022,"y":2541040.2899999991}},{"attributes":{"ID":520111,"DIS_CODE":0,"TOWNNAME":"歸仁區","LI":"南興里","LIN":"35鄰","STREET":"民生一街","SECT":" ","MAREA":" ","LANE":" ","ALLEY":" ","HOUSE_NO":"５２號","E_COORD97":176407.29000000001,"N_COORD97":2541019.29,"ADDRESS":"民生一街５２號","OBJECTID":520084},"geometry":{"x":176407.29000000004,"y":2541019.2899999991}},{"attributes":{"ID":520112,"DIS_CODE":0,"TOWNNAME":"歸仁區","LI":"南興里","LIN":"35鄰","STREET":"民生一街","SECT":" ","MAREA":" ","LANE":" ","ALLEY":" ","HOUSE_NO":"４３號","E_COORD97":176402.29000000001,"N_COORD97":2541039.29,"ADDRESS":"民生一街４３號","OBJECTID":520085},"geometry":{"x":176402.29000000004,"y":2541039.290000001}},{"attributes":{"ID":520113,"DIS_CODE":0,"TOWNNAME":"歸仁區","LI":"南興里","LIN":"35鄰","STREET":"民生一街","SECT":" ","MAREA":" ","LANE":" ","ALLEY":" ","HOUSE_NO":"４１號","E_COORD97":176398.19,"N_COORD97":2541039.29,"ADDRESS":"民生一街４１號","OBJECTID":520086},"geometry":{"x":176398.19000000041,"y":2541039.290000001}},{"attributes":{"ID":520114,"DIS_CODE":0,"TOWNNAME":"歸仁區","LI":"南興里","LIN":"35鄰","STREET":"民生北街","SECT":" ","MAREA":" ","LANE":" ","ALLEY":" ","HOUSE_NO":"３２號","E_COORD97":176282.19,"N_COORD97":2541020.29,"ADDRESS":"民生北街３２號","OBJECTID":520087},"geometry":{"x":176282.19000000134,"y":2541020.2899999991}},{"attributes":{"ID":520115,"DIS_CODE":0,"TOWNNAME":"歸仁區","LI":"南興里","LIN":"35鄰","STREET":"民生一街","SECT":" ","MAREA":" ","LANE":" ","ALLEY":" ","HOUSE_NO":"４６號","E_COORD97":176394.98999999999,"N_COORD97":2541019.29,"ADDRESS":"民生一街４６號","OBJECTID":520088},"geometry":{"x":176394.99000000115,"y":2541019.2899999991}},{"attributes":{"ID":520116,"DIS_CODE":0,"TOWNNAME":"歸仁區","LI":"南興里","LIN":"35鄰","STREET":"民生北街","SECT":" ","MAREA":" ","LANE":" ","ALLEY":" ","HOUSE_NO":"２４號","E_COORD97":176282.09,"N_COORD97":2541006.29,"ADDRESS":"民生北街２４號","OBJECTID":520089},"geometry":{"x":176282.09000000078,"y":2541006.2899999991}},{"attributes":{"ID":520117,"DIS_CODE":0,"TOWNNAME":"歸仁區","LI":"南興里","LIN":"35鄰","STREET":"民生一街","SECT":" ","MAREA":" ","LANE":" ","ALLEY":" ","HOUSE_NO":"３５號","E_COORD97":176384.89000000001,"N_COORD97":2541040.29,"ADDRESS":"民生一街３５號","OBJECTID":520090},"geometry":{"x":176384.8900000006,"y":2541040.2899999991}},{"attributes":{"ID":520118,"DIS_CODE":0,"TOWNNAME":"歸仁區","LI":"南興里","LIN":"35鄰","STREET":"民生一街","SECT":" ","MAREA":" ","LANE":" ","ALLEY":" ","HOUSE_NO":"４５號","E_COORD97":176406.39000000001,"N_COORD97":2541039.29,"ADDRESS":"民生一街４５號","OBJECTID":520091},"geometry":{"x":176406.38999999966,"y":2541039.290000001}},{"attributes":{"ID":520119,"DIS_CODE":0,"TOWNNAME":"歸仁區","LI":"後市里","LIN":"35鄰","STREET":"中山八街","SECT":" ","MAREA":" ","LANE":" ","ALLEY":" ","HOUSE_NO":"３８號","E_COORD97":177232.53,"N_COORD97":2540993.7400000002,"ADDRESS":"中山八街３８號","OBJECTID":520092},"geometry":{"x":177232.53000000119,"y":2540993.7400000002}},{"attributes":{"ID":520120,"DIS_CODE":0,"TOWNNAME":"歸仁區","LI":"南興里","LIN":"35鄰","STREET":"民生一街","SECT":" ","MAREA":" ","LANE":" ","ALLEY":" ","HOUSE_NO":"５６號","E_COORD97":176411.39000000001,"N_COORD97":2541019.29,"ADDRESS":"民生一街５６號","OBJECTID":520093},"geometry":{"x":176411.38999999966,"y":2541019.2899999991}},{"attributes":{"ID":520121,"DIS_CODE":0,"TOWNNAME":"歸仁區","LI":"南興里","LIN":"35鄰","STREET":"民生北街","SECT":" ","MAREA":" ","LANE":" ","ALLEY":" ","HOUSE_NO":"１８號","E_COORD97":176282.09,"N_COORD97":2540993.29,"ADDRESS":"民生北街１８號","OBJECTID":520094},"geometry":{"x":176282.09000000078,"y":2540993.2899999991}},{"attributes":{"ID":520122,"DIS_CODE":0,"TOWNNAME":"歸仁區","LI":"南興里","LIN":"35鄰","STREET":"中山路","SECT":"三段","MAREA":" ","LANE":" ","ALLEY":" ","HOUSE_NO":"２８４號","E_COORD97":176303.85999999999,"N_COORD97":2540960.2799999998,"ADDRESS":"中山路三段２８４號","OBJECTID":520095},"geometry":{"x":176303.86000000034,"y":2540960.2800000031}},{"attributes":{"ID":520123,"DIS_CODE":0,"TOWNNAME":"歸仁區","LI":"南保里","LIN":"35鄰","STREET":"民權八街","SECT":" ","MAREA":" ","LANE":" ","ALLEY":" ","HOUSE_NO":"５７號","E_COORD97":176744.59,"N_COORD97":2540990.29,"ADDRESS":"民權八街５７號","OBJECTID":520096},"geometry":{"x":176744.59000000078,"y":2540990.2900000028}},{"attributes":{"ID":520124,"DIS_CODE":0,"TOWNNAME":"歸仁區","LI":"南保里","LIN":"35鄰","STREET":"民權八街","SECT":" ","MAREA":" ","LANE":" ","ALLEY":" ","HOUSE_NO":"６３號","E_COORD97":176726.09,"N_COORD97":2540988.29,"ADDRESS":"民權八街６３號","OBJECTID":520097},"geometry":{"x":176726.09000000078,"y":2540988.290000001}},{"attributes":{"ID":520125,"DIS_CODE":0,"TOWNNAME":"歸仁區","LI":"後市里","LIN":"35鄰","STREET":"國光街","SECT":" ","MAREA":" ","LANE":" ","ALLEY":" ","HOUSE_NO":"９１號","E_COORD97":177261.79000000001,"N_COORD97":2540960.7400000002,"ADDRESS":"國光街９１號","OBJECTID":520098},"geometry":{"x":177261.79000000004,"y":2540960.7400000002}},{"attributes":{"ID":520126,"DIS_CODE":0,"TOWNNAME":"歸仁區","LI":"辜厝里","LIN":"35鄰","STREET":"大吉街","SECT":" ","MAREA":" ","LANE":" ","ALLEY":" ","HOUSE_NO":"１８１號","E_COORD97":177208.23999999999,"N_COORD97":2540392.6800000002,"ADDRESS":"大吉街１８１號","OBJECTID":520099},"geometry":{"x":177208.24000000209,"y":2540392.6800000016}},{"attributes":{"ID":520127,"DIS_CODE":0,"TOWNNAME":"歸仁區","LI":"辜厝里","LIN":"35鄰","STREET":"大吉街","SECT":" ","MAREA":" ","LANE":" ","ALLEY":" ","HOUSE_NO":"１８３號","E_COORD97":177207.23999999999,"N_COORD97":2540388.6800000002,"ADDRESS":"大吉街１８３號","OBJECTID":520100},"geometry":{"x":177207.24000000115,"y":2540388.6800000016}},{"attributes":{"ID":520128,"DIS_CODE":0,"TOWNNAME":"歸仁區","LI":"南興里","LIN":"35鄰","STREET":"民生一街","SECT":" ","MAREA":" ","LANE":" ","ALLEY":" ","HOUSE_NO":"３１之１號","E_COORD97":176378.09,"N_COORD97":2541042.2999999998,"ADDRESS":"民生一街３１之１號","OBJECTID":520101},"geometry":{"x":176378.08999999985,"y":2541042.3000000007}},{"attributes":{"ID":520129,"DIS_CODE":0,"TOWNNAME":"歸仁區","LI":"南興里","LIN":"35鄰","STREET":"民生一街","SECT":" ","MAREA":" ","LANE":" ","ALLEY":" ","HOUSE_NO":"５８號","E_COORD97":176414.48999999999,"N_COORD97":2541019.29,"ADDRESS":"民生一街５８號","OBJECTID":520102},"geometry":{"x":176414.49000000022,"y":2541019.2899999991}},{"attributes":{"ID":520130,"DIS_CODE":0,"TOWNNAME":"歸仁區","LI":"南興里","LIN":"35鄰","STREET":"民生一街","SECT":" ","MAREA":" ","LANE":" ","ALLEY":" ","HOUSE_NO":"１５號","E_COORD97":176319.29000000001,"N_COORD97":2541045.29,"ADDRESS":"民生一街１５號","OBJECTID":520103},"geometry":{"x":176319.29000000004,"y":2541045.290000001}},{"attributes":{"ID":520131,"DIS_CODE":0,"TOWNNAME":"歸仁區","LI":"南興里","LIN":"35鄰","STREET":"民生北街","SECT":" ","MAREA":" ","LANE":" ","ALLEY":" ","HOUSE_NO":"３４號","E_COORD97":176282.19,"N_COORD97":2541024.29,"ADDRESS":"民生北街３４號","OBJECTID":520104},"geometry":{"x":176282.19000000134,"y":2541024.2900000028}},{"attributes":{"ID":520132,"DIS_CODE":0,"TOWNNAME":"歸仁區","LI":"南興里","LIN":"35鄰","STREET":"民生一街","SECT":" ","MAREA":" ","LANE":" ","ALLEY":" ","HOUSE_NO":"３１號","E_COORD97":176371.48999999999,"N_COORD97":2541041.29,"ADDRESS":"民生一街３１號","OBJECTID":520105},"geometry":{"x":176371.49000000115,"y":2541041.2900000028}},{"attributes":{"ID":520133,"DIS_CODE":0,"TOWNNAME":"歸仁區","LI":"南興里","LIN":"35鄰","STREET":"民生一街","SECT":" ","MAREA":" ","LANE":" ","ALLEY":" ","HOUSE_NO":"４８號","E_COORD97":176399.09,"N_COORD97":2541019.29,"ADDRESS":"民生一街４８號","OBJECTID":520106},"geometry":{"x":176399.09000000078,"y":2541019.2899999991}},{"attributes":{"ID":520134,"DIS_CODE":0,"TOWNNAME":"歸仁區","LI":"南興里","LIN":"35鄰","STREET":"民生北街","SECT":" ","MAREA":" ","LANE":" ","ALLEY":" ","HOUSE_NO":"４８號","E_COORD97":176282.39000000001,"N_COORD97":2541068.29,"ADDRESS":"民生北街４８號","OBJECTID":520107},"geometry":{"x":176282.38999999966,"y":2541068.2900000028}},{"attributes":{"ID":520135,"DIS_CODE":0,"TOWNNAME":"歸仁區","LI":"南興里","LIN":"35鄰","STREET":"民生一街","SECT":" ","MAREA":" ","LANE":" ","ALLEY":" ","HOUSE_NO":"３２號","E_COORD97":176364.29000000001,"N_COORD97":2541024.29,"ADDRESS":"民生一街３２號","OBJECTID":520108},"geometry":{"x":176364.29000000097,"y":2541024.2900000028}},{"attributes":{"ID":520136,"DIS_CODE":0,"TOWNNAME":"歸仁區","LI":"南興里","LIN":"35鄰","STREET":"民生一街","SECT":" ","MAREA":" ","LANE":" ","ALLEY":" ","HOUSE_NO":"５０號","E_COORD97":176403.19,"N_COORD97":2541019.29,"ADDRESS":"民生一街５０號","OBJECTID":520109},"geometry":{"x":176403.19000000041,"y":2541019.2899999991}},{"attributes":{"ID":520137,"DIS_CODE":0,"TOWNNAME":"安平區","LI":"育平里","LIN":"35鄰","STREET":"建平七街","SECT":" ","MAREA":" ","LANE":" ","ALLEY":" ","HOUSE_NO":"８７３號","E_COORD97":164388.42000000001,"N_COORD97":2543478.0600000001,"ADDRESS":"建平七街８７３號","OBJECTID":520110},"geometry":{"x":164388.42000000086,"y":2543478.0600000005}},{"attributes":{"ID":520138,"DIS_CODE":0,"TOWNNAME":"永康區","LI":"\u25A0行里","LIN":"20鄰","STREET":"中正六街","SECT":" ","MAREA":" ","LANE":" ","ALLEY":" ","HOUSE_NO":"３號","E_COORD97":171829.04000000001,"N_COORD97":2548542.96,"ADDRESS":"中正六街３號","OBJECTID":520111},"geometry":{"x":171829.0400000019,"y":2548542.9600000028}},{"attributes":{"ID":520139,"DIS_CODE":0,"TOWNNAME":"北區","LI":"成德里","LIN":"35鄰","STREET":"育德路","SECT":" ","MAREA":" ","LANE":" ","ALLEY":" ","HOUSE_NO":"４９５號","E_COORD97":168675.79999999999,"N_COORD97":2546194.46,"ADDRESS":"育德路４９５號","OBJECTID":520112},"geometry":{"x":168675.80000000075,"y":2546194.4600000009}},{"attributes":{"ID":520140,"DIS_CODE":0,"TOWNNAME":"北區","LI":"成德里","LIN":"35鄰","STREET":"育德路","SECT":" ","MAREA":" ","LANE":" ","ALLEY":" ","HOUSE_NO":"４９７號","E_COORD97":168677.32999999999,"N_COORD97":2546200.0499999998,"ADDRESS":"育德路４９７號","OBJECTID":520113},"geometry":{"x":168677.33000000194,"y":2546200.0500000007}},{"attributes":{"ID":520141,"DIS_CODE":0,"TOWNNAME":"北區","LI":"成德里","LIN":"35鄰","STREET":"育德路","SECT":" ","MAREA":" ","LANE":" ","ALLEY":" ","HOUSE_NO":"４９９號","E_COORD97":168679.35999999999,"N_COORD97":2546207.1600000001,"ADDRESS":"育德路４９９號","OBJECTID":520114},"geometry":{"x":168679.36000000127,"y":2546207.160000002}},{"attributes":{"ID":520142,"DIS_CODE":0,"TOWNNAME":"北區","LI":"成德里","LIN":"35鄰","STREET":"育德路","SECT":" ","MAREA":" ","LANE":" ","ALLEY":" ","HOUSE_NO":"５０１號","E_COORD97":168682.14999999999,"N_COORD97":2546214.6499999999,"ADDRESS":"育德路５０１號","OBJECTID":520115},"geometry":{"x":168682.14999999944,"y":2546214.6500000022}},{"attributes":{"ID":520143,"DIS_CODE":0,"TOWNNAME":"北區","LI":"成德里","LIN":"35鄰","STREET":"育德路","SECT":" ","MAREA":" ","LANE":" ","ALLEY":" ","HOUSE_NO":"５０３號","E_COORD97":168683.92999999999,"N_COORD97":2546221.7599999998,"ADDRESS":"育德路５０３號","OBJECTID":520116},"geometry":{"x":168683.9299999997,"y":2546221.7599999998}},{"attributes":{"ID":520144,"DIS_CODE":0,"TOWNNAME":"永康區","LI":"東橋里","LIN":"14鄰","STREET":"東橋一路","SECT":" ","MAREA":" ","LANE":" ","ALLEY":" ","HOUSE_NO":"２８０號","E_COORD97":171394.23999999999,"N_COORD97":2546673.23,"ADDRESS":"東橋一路２８０號","OBJECTID":520117},"geometry":{"x":171394.24000000115,"y":2546673.2300000004}},{"attributes":{"ID":520145,"DIS_CODE":0,"TOWNNAME":"北區","LI":"大港里","LIN":"35鄰","STREET":"大興街","SECT":" ","MAREA":" ","LANE":" ","ALLEY":" ","HOUSE_NO":"６３２號","E_COORD97":165797.63,"N_COORD97":2545356.4100000001,"ADDRESS":"大興街６３２號","OBJECTID":520118},"geometry":{"x":165797.62999999989,"y":2545356.4100000001}},{"attributes":{"ID":520146,"DIS_CODE":0,"TOWNNAME":"北區","LI":"大港里","LIN":"35鄰","STREET":"大興街","SECT":" ","MAREA":" ","LANE":" ","ALLEY":" ","HOUSE_NO":"６３４號","E_COORD97":165794.14999999999,"N_COORD97":2545354.71,"ADDRESS":"大興街６３４號","OBJECTID":520119},"geometry":{"x":165794.1500000013,"y":2545354.7100000009}},{"attributes":{"ID":520147,"DIS_CODE":0,"TOWNNAME":"北區","LI":"大港里","LIN":"35鄰","STREET":"大興街","SECT":" ","MAREA":" ","LANE":" ","ALLEY":" ","HOUSE_NO":"６３６號","E_COORD97":165789.51999999999,"N_COORD97":2545353.1499999999,"ADDRESS":"大興街６３６號","OBJECTID":520120},"geometry":{"x":165789.51999999955,"y":2545353.1500000022}},{"attributes":{"ID":520148,"DIS_CODE":0,"TOWNNAME":"北區","LI":"大港里","LIN":"35鄰","STREET":"大興街","SECT":" ","MAREA":" ","LANE":" ","ALLEY":" ","HOUSE_NO":"６３８號","E_COORD97":165786.32000000001,"N_COORD97":2545351.02,"ADDRESS":"大興街６３８號","OBJECTID":520121},"geometry":{"x":165786.32000000123,"y":2545351.0199999996}},{"attributes":{"ID":520149,"DIS_CODE":0,"TOWNNAME":"北區","LI":"大港里","LIN":"35鄰","STREET":"大興街","SECT":" ","MAREA":" ","LANE":" ","ALLEY":" ","HOUSE_NO":"６４０號","E_COORD97":165781.82999999999,"N_COORD97":2545349.1800000002,"ADDRESS":"大興街６４０號","OBJECTID":520122},"geometry":{"x":165781.82999999914,"y":2545349.1800000016}},{"attributes":{"ID":520150,"DIS_CODE":0,"TOWNNAME":"北區","LI":"大港里","LIN":"35鄰","STREET":"大興街","SECT":" ","MAREA":" ","LANE":" ","ALLEY":" ","HOUSE_NO":"６４２號","E_COORD97":165778.06,"N_COORD97":2545347.1899999999,"ADDRESS":"大興街６４２號","OBJECTID":520123},"geometry":{"x":165778.05999999866,"y":2545347.1899999995}},{"attributes":{"ID":520151,"DIS_CODE":0,"TOWNNAME":"北區","LI":"大港里","LIN":"35鄰","STREET":"大興街","SECT":" ","MAREA":" ","LANE":" ","ALLEY":" ","HOUSE_NO":"６４４號","E_COORD97":165773.72,"N_COORD97":2545346.0600000001,"ADDRESS":"大興街６４４號","OBJECTID":520124},"geometry":{"x":165773.71999999881,"y":2545346.0600000005}},{"attributes":{"ID":520152,"DIS_CODE":0,"TOWNNAME":"北區","LI":"大港里","LIN":"35鄰","STREET":"大興街","SECT":" ","MAREA":" ","LANE":" ","ALLEY":" ","HOUSE_NO":"６４６號","E_COORD97":165769.07999999999,"N_COORD97":2545343.79,"ADDRESS":"大興街６４６號","OBJECTID":520125},"geometry":{"x":165769.08000000101,"y":2545343.7900000028}},{"attributes":{"ID":520153,"DIS_CODE":0,"TOWNNAME":"北區","LI":"大港里","LIN":"35鄰","STREET":"大興街","SECT":" ","MAREA":" ","LANE":" ","ALLEY":" ","HOUSE_NO":"６４８號","E_COORD97":165765.89000000001,"N_COORD97":2545342.3700000001,"ADDRESS":"大興街６４８號","OBJECTID":520126},"geometry":{"x":165765.89000000153,"y":2545342.3700000029}},{"attributes":{"ID":520154,"DIS_CODE":0,"TOWNNAME":"北區","LI":"大港里","LIN":"35鄰","STREET":"大興街","SECT":" ","MAREA":" ","LANE":" ","ALLEY":" ","HOUSE_NO":"６５０號","E_COORD97":165761.85000000001,"N_COORD97":2545341.9500000002,"ADDRESS":"大興街６５０號","OBJECTID":520127},"geometry":{"x":165761.84999999963,"y":2545341.9499999993}},{"attributes":{"ID":520155,"DIS_CODE":0,"TOWNNAME":"歸仁區","LI":"南興里","LIN":"35鄰","STREET":"民生一街","SECT":" ","MAREA":" ","LANE":" ","ALLEY":" ","HOUSE_NO":"４７之１號","E_COORD97":176417.09,"N_COORD97":2541038.2999999998,"ADDRESS":"民生一街４７之１號","OBJECTID":520128},"geometry":{"x":176417.08999999985,"y":2541038.3000000007}},{"attributes":{"ID":520156,"DIS_CODE":0,"TOWNNAME":"南區","LI":"光明里","LIN":"35鄰","STREET":"新興路","SECT":" ","MAREA":" ","LANE":" ","ALLEY":" ","HOUSE_NO":"５３９號","E_COORD97":166547.89000000001,"N_COORD97":2541640.4399999999,"ADDRESS":"新興路５３９號","OBJECTID":520129},"geometry":{"x":166547.8900000006,"y":2541640.4399999976}},{"attributes":{"ID":520157,"DIS_CODE":0,"TOWNNAME":"安平區","LI":"育平里","LIN":"35鄰","STREET":"郡平路","SECT":" ","MAREA":" ","LANE":" ","ALLEY":" ","HOUSE_NO":"２９８號","E_COORD97":164363.31,"N_COORD97":2543389.27,"ADDRESS":"郡平路２９８號","OBJECTID":520130},"geometry":{"x":164363.31000000052,"y":2543389.2700000014}},{"attributes":{"ID":520158,"DIS_CODE":0,"TOWNNAME":"歸仁區","LI":"後市里","LIN":"35鄰","STREET":"中山八街","SECT":" ","MAREA":" ","LANE":" ","ALLEY":" ","HOUSE_NO":"３２號","E_COORD97":177232.42999999999,"N_COORD97":2540982.7400000002,"ADDRESS":"中山八街３２號","OBJECTID":520131},"geometry":{"x":177232.43000000063,"y":2540982.7400000021}},{"attributes":{"ID":520159,"DIS_CODE":0,"TOWNNAME":"永康區","LI":"東橋里","LIN":"17鄰","STREET":"東橋三路","SECT":" ","MAREA":" ","LANE":" ","ALLEY":" ","HOUSE_NO":"２０５號","E_COORD97":171432.31,"N_COORD97":2546892.1200000001,"ADDRESS":"東橋三路２０５號","OBJECTID":520132},"geometry":{"x":171432.31000000052,"y":2546892.120000001}},{"attributes":{"ID":520160,"DIS_CODE":0,"TOWNNAME":"新營區","LI":"民榮里","LIN":"35鄰","STREET":"新進路","SECT":"二段","MAREA":" ","LANE":" ","ALLEY":" ","HOUSE_NO":"４２１號","E_COORD97":178658.42000000001,"N_COORD97":2577991.0600000001,"ADDRESS":"新進路二段４２１號","OBJECTID":520133},"geometry":{"x":178658.42000000086,"y":2577991.0600000005}},{"attributes":{"ID":520161,"DIS_CODE":0,"TOWNNAME":"新營區","LI":"民榮里","LIN":"35鄰","STREET":"新進路","SECT":"二段","MAREA":" ","LANE":" ","ALLEY":" ","HOUSE_NO":"４１５號","E_COORD97":178663.47,"N_COORD97":2577976.6400000001,"ADDRESS":"新進路二段４１５號","OBJECTID":520134},"geometry":{"x":178663.46999999974,"y":2577976.6400000025}},{"attributes":{"ID":520162,"DIS_CODE":0,"TOWNNAME":"新營區","LI":"民榮里","LIN":"35鄰","STREET":"新進路","SECT":"二段","MAREA":" ","LANE":" ","ALLEY":" ","HOUSE_NO":"４０７號","E_COORD97":178672.48999999999,"N_COORD97":2577937.8399999999,"ADDRESS":"新進路二段４０７號","OBJECTID":520135},"geometry":{"x":178672.49000000022,"y":2577937.8399999999}},{"attributes":{"ID":520163,"DIS_CODE":0,"TOWNNAME":"新營區","LI":"民榮里","LIN":"35鄰","STREET":"新進路","SECT":"二段","MAREA":" ","LANE":" ","ALLEY":" ","HOUSE_NO":"４１７號","E_COORD97":178662.47,"N_COORD97":2577981.0699999998,"ADDRESS":"新進路二段４１７號","OBJECTID":520136},"geometry":{"x":178662.4700000016,"y":2577981.0700000003}},{"attributes":{"ID":520164,"DIS_CODE":0,"TOWNNAME":"新營區","LI":"民榮里","LIN":"35鄰","STREET":"新進路","SECT":"二段","MAREA":" ","LANE":" ","ALLEY":" ","HOUSE_NO":"４０７之１號","E_COORD97":178671.97,"N_COORD97":2577947.8700000001,"ADDRESS":"新進路二段４０７之１號","OBJECTID":520137},"geometry":{"x":178671.96999999974,"y":2577947.8700000029}},{"attributes":{"ID":520165,"DIS_CODE":0,"TOWNNAME":"永康區","LI":"埔園里","LIN":"35鄰","STREET":"龍埔街","SECT":" ","MAREA":" ","LANE":" ","ALLEY":" ","HOUSE_NO":"３２２號","E_COORD97":174325.60000000001,"N_COORD97":2548292.8100000001,"ADDRESS":"龍埔街３２２號","OBJECTID":520138},"geometry":{"x":174325.60000000056,"y":2548292.8100000024}},{"attributes":{"ID":520166,"DIS_CODE":0,"TOWNNAME":"永康區","LI":"埔園里","LIN":"35鄰","STREET":"龍埔街","SECT":" ","MAREA":" ","LANE":" ","ALLEY":" ","HOUSE_NO":"３００號","E_COORD97":174369.06,"N_COORD97":2548288.4399999999,"ADDRESS":"龍埔街３００號","OBJECTID":520139},"geometry":{"x":174369.05999999959,"y":2548288.4399999995}},{"attributes":{"ID":520167,"DIS_CODE":0,"TOWNNAME":"永康區","LI":"東橋里","LIN":"17鄰","STREET":"東橋十街","SECT":" ","MAREA":" ","LANE":" ","ALLEY":" ","HOUSE_NO":"１１２號","E_COORD97":171406.31,"N_COORD97":2546961.5899999999,"ADDRESS":"東橋十街１１２號","OBJECTID":520140},"geometry":{"x":171406.31000000145,"y":2546961.5899999999}},{"attributes":{"ID":520168,"DIS_CODE":0,"TOWNNAME":"永康區","LI":"埔園里","LIN":"35鄰","STREET":"龍埔街","SECT":" ","MAREA":" ","LANE":" ","ALLEY":" ","HOUSE_NO":"３２０號","E_COORD97":174329.85999999999,"N_COORD97":2548292.8199999998,"ADDRESS":"龍埔街３２０號","OBJECTID":520141},"geometry":{"x":174329.86000000127,"y":2548292.8200000003}},{"attributes":{"ID":520169,"DIS_CODE":0,"TOWNNAME":"永康區","LI":"埔園里","LIN":"35鄰","STREET":"龍埔街","SECT":" ","MAREA":" ","LANE":" ","ALLEY":" ","HOUSE_NO":"３１０號","E_COORD97":174351.10000000001,"N_COORD97":2548295.5499999998,"ADDRESS":"龍埔街３１０號","OBJECTID":520142},"geometry":{"x":174351.10000000056,"y":2548295.5500000007}},{"attributes":{"ID":520170,"DIS_CODE":0,"TOWNNAME":"永康區","LI":"埔園里","LIN":"35鄰","STREET":"自強路","SECT":" ","MAREA":" ","LANE":" ","ALLEY":" ","HOUSE_NO":"６７３號","E_COORD97":174321.88,"N_COORD97":2548438.1499999999,"ADDRESS":"自強路６７３號","OBJECTID":520143},"geometry":{"x":174321.88000000175,"y":2548438.1500000041}},{"attributes":{"ID":520171,"DIS_CODE":0,"TOWNNAME":"永康區","LI":"埔園里","LIN":"35鄰","STREET":"自強路","SECT":" ","MAREA":" ","LANE":" ","ALLEY":" ","HOUSE_NO":"６６３號","E_COORD97":174298.51000000001,"N_COORD97":2548419.3799999999,"ADDRESS":"自強路６６３號","OBJECTID":520144},"geometry":{"x":174298.50999999978,"y":2548419.3800000008}},{"attributes":{"ID":520172,"DIS_CODE":0,"TOWNNAME":"永康區","LI":"埔園里","LIN":"35鄰","STREET":"龍埔街","SECT":" ","MAREA":" ","LANE":" ","ALLEY":" ","HOUSE_NO":"３３０號","E_COORD97":174309.29999999999,"N_COORD97":2548300.1400000001,"ADDRESS":"龍埔街３３０號","OBJECTID":520145},"geometry":{"x":174309.30000000075,"y":2548300.1400000025}},{"attributes":{"ID":520173,"DIS_CODE":0,"TOWNNAME":"永康區","LI":"埔園里","LIN":"35鄰","STREET":"龍埔街","SECT":" ","MAREA":" ","LANE":" ","ALLEY":" ","HOUSE_NO":"３０８號","E_COORD97":174353.34,"N_COORD97":2548295.48,"ADDRESS":"龍埔街３０８號","OBJECTID":520146},"geometry":{"x":174353.34000000078,"y":2548295.4800000004}},{"attributes":{"ID":520174,"DIS_CODE":0,"TOWNNAME":"永康區","LI":"埔園里","LIN":"35鄰","STREET":"自強路","SECT":" ","MAREA":" ","LANE":" ","ALLEY":" ","HOUSE_NO":"６６９號","E_COORD97":174313.97,"N_COORD97":2548432.3999999999,"ADDRESS":"自強路６６９號","OBJECTID":520147},"geometry":{"x":174313.96999999974,"y":2548432.4000000004}},{"attributes":{"ID":520175,"DIS_CODE":0,"TOWNNAME":"永康區","LI":"埔園里","LIN":"35鄰","STREET":"龍埔街","SECT":" ","MAREA":" ","LANE":" ","ALLEY":" ","HOUSE_NO":"３３６號","E_COORD97":174299.01999999999,"N_COORD97":2548297.6499999999,"ADDRESS":"龍埔街３３６號","OBJECTID":520148},"geometry":{"x":174299.02000000048,"y":2548297.6500000004}},{"attributes":{"ID":520176,"DIS_CODE":0,"TOWNNAME":"永康區","LI":"埔園里","LIN":"35鄰","STREET":"龍埔街","SECT":" ","MAREA":" ","LANE":" ","ALLEY":" ","HOUSE_NO":"２９２號","E_COORD97":174385.23000000001,"N_COORD97":2548284.1299999999,"ADDRESS":"龍埔街２９２號","OBJECTID":520149},"geometry":{"x":174385.23000000138,"y":2548284.1300000027}},{"attributes":{"ID":520177,"DIS_CODE":0,"TOWNNAME":"永康區","LI":"埔園里","LIN":"35鄰","STREET":"龍埔街","SECT":" ","MAREA":" ","LANE":" ","ALLEY":" ","HOUSE_NO":"３１６號","E_COORD97":174340.32999999999,"N_COORD97":2548294.8100000001,"ADDRESS":"龍埔街３１６號","OBJECTID":520150},"geometry":{"x":174340.33000000007,"y":2548294.8100000042}},{"attributes":{"ID":520178,"DIS_CODE":0,"TOWNNAME":"永康區","LI":"永康里","LIN":"35鄰","STREET":"大同街","SECT":" ","MAREA":" ","LANE":" ","ALLEY":" ","HOUSE_NO":"８２１號","E_COORD97":174383.60999999999,"N_COORD97":2547048.4100000001,"ADDRESS":"大同街８２１號","OBJECTID":520151},"geometry":{"x":174383.61000000127,"y":2547048.4100000001}},{"attributes":{"ID":520179,"DIS_CODE":0,"TOWNNAME":"永康區","LI":"埔園里","LIN":"35鄰","STREET":"龍埔街","SECT":" ","MAREA":" ","LANE":" ","ALLEY":" ","HOUSE_NO":"３０６號","E_COORD97":174358.84,"N_COORD97":2548293.8199999998,"ADDRESS":"龍埔街３０６號","OBJECTID":520152},"geometry":{"x":174358.83999999985,"y":2548293.8200000003}},{"attributes":{"ID":520180,"DIS_CODE":0,"TOWNNAME":"永康區","LI":"埔園里","LIN":"35鄰","STREET":"龍埔街","SECT":" ","MAREA":" ","LANE":" ","ALLEY":" ","HOUSE_NO":"３２６號","E_COORD97":174321.09,"N_COORD97":2548292.8500000001,"ADDRESS":"龍埔街３２６號","OBJECTID":520153},"geometry":{"x":174321.09000000078,"y":2548292.8499999996}},{"attributes":{"ID":520181,"DIS_CODE":0,"TOWNNAME":"永康區","LI":"埔園里","LIN":"35鄰","STREET":"龍埔街","SECT":" ","MAREA":" ","LANE":" ","ALLEY":" ","HOUSE_NO":"２９８號","E_COORD97":174373.63,"N_COORD97":2548288.48,"ADDRESS":"龍埔街２９８號","OBJECTID":520154},"geometry":{"x":174373.62999999989,"y":2548288.4800000004}},{"attributes":{"ID":520182,"DIS_CODE":0,"TOWNNAME":"永康區","LI":"埔園里","LIN":"35鄰","STREET":"龍埔街","SECT":" ","MAREA":" ","LANE":" ","ALLEY":" ","HOUSE_NO":"３１８號","E_COORD97":174336.32999999999,"N_COORD97":2548293.02,"ADDRESS":"龍埔街３１８號","OBJECTID":520155},"geometry":{"x":174336.33000000101,"y":2548293.0200000014}},{"attributes":{"ID":520183,"DIS_CODE":0,"TOWNNAME":"永康區","LI":"埔園里","LIN":"35鄰","STREET":"自強路","SECT":" ","MAREA":" ","LANE":" ","ALLEY":" ","HOUSE_NO":"６６５號","E_COORD97":174302.70999999999,"N_COORD97":2548432.0299999998,"ADDRESS":"自強路６６５號","OBJECTID":520156},"geometry":{"x":174302.71000000183,"y":2548432.0300000012}},{"attributes":{"ID":520184,"DIS_CODE":0,"TOWNNAME":"永康區","LI":"埔園里","LIN":"35鄰","STREET":"龍埔街","SECT":" ","MAREA":" ","LANE":" ","ALLEY":" ","HOUSE_NO":"２９６號","E_COORD97":174378.17999999999,"N_COORD97":2548288.52,"ADDRESS":"龍埔街２９６號","OBJECTID":520157},"geometry":{"x":174378.1799999997,"y":2548288.5199999977}},{"attributes":{"ID":520185,"DIS_CODE":0,"TOWNNAME":"東區","LI":"後甲里","LIN":"35鄰","STREET":"中華東路","SECT":"一段","MAREA":" ","LANE":" ","ALLEY":" ","HOUSE_NO":"６５號之１","E_COORD97":171504.13,"N_COORD97":2543798.0800000001,"ADDRESS":"中華東路一段６５號之１","OBJECTID":520158},"geometry":{"x":171504.12999999989,"y":2543798.0800000019}},{"attributes":{"ID":520186,"DIS_CODE":0,"TOWNNAME":"東區","LI":"後甲里","LIN":"35鄰","STREET":"中華東路","SECT":"一段","MAREA":" ","LANE":" ","ALLEY":" ","HOUSE_NO":"２１號","E_COORD97":171518.38,"N_COORD97":2543922.4399999999,"ADDRESS":"中華東路一段２１號","OBJECTID":520159},"geometry":{"x":171518.38000000082,"y":2543922.4400000032}},{"attributes":{"ID":520187,"DIS_CODE":0,"TOWNNAME":"東區","LI":"後甲里","LIN":"35鄰","STREET":"中華東路","SECT":"一段","MAREA":" ","LANE":" ","ALLEY":" ","HOUSE_NO":"３１號","E_COORD97":171516.26000000001,"N_COORD97":2543891.6600000001,"ADDRESS":"中華東路一段３１號","OBJECTID":520160},"geometry":{"x":171516.25999999978,"y":2543891.660000002}},{"attributes":{"ID":520188,"DIS_CODE":0,"TOWNNAME":"東區","LI":"後甲里","LIN":"35鄰","STREET":"中華東路","SECT":"一段","MAREA":" ","LANE":" ","ALLEY":" ","HOUSE_NO":"３３號","E_COORD97":171515.20000000001,"N_COORD97":2543887.2200000002,"ADDRESS":"中華東路一段３３號","OBJECTID":520161},"geometry":{"x":171515.20000000112,"y":2543887.2200000007}},{"attributes":{"ID":520189,"DIS_CODE":0,"TOWNNAME":"東區","LI":"後甲里","LIN":"35鄰","STREET":"中華東路","SECT":"一段","MAREA":" ","LANE":" ","ALLEY":" ","HOUSE_NO":"３５號","E_COORD97":171513.29999999999,"N_COORD97":2543882.9900000002,"ADDRESS":"中華東路一段３５號","OBJECTID":520162},"geometry":{"x":171513.30000000168,"y":2543882.9900000021}},{"attributes":{"ID":520190,"DIS_CODE":0,"TOWNNAME":"東區","LI":"後甲里","LIN":"35鄰","STREET":"中華東路","SECT":"一段","MAREA":" ","LANE":" ","ALLEY":" ","HOUSE_NO":"３９號","E_COORD97":171514.57000000001,"N_COORD97":2543874.73,"ADDRESS":"中華東路一段３９號","OBJECTID":520163},"geometry":{"x":171514.5700000003,"y":2543874.7300000023}},{"attributes":{"ID":520191,"DIS_CODE":0,"TOWNNAME":"永康區","LI":"西灣里","LIN":"35鄰","STREET":"大勇路","SECT":" ","MAREA":" ","LANE":" ","ALLEY":" ","HOUSE_NO":"１６３號","E_COORD97":174283.79999999999,"N_COORD97":2545708.3399999999,"ADDRESS":"大勇路１６３號","OBJECTID":520164},"geometry":{"x":174283.80000000075,"y":2545708.3400000017}},{"attributes":{"ID":520192,"DIS_CODE":0,"TOWNNAME":"永康區","LI":"西灣里","LIN":"35鄰","STREET":"大勇路","SECT":" ","MAREA":" ","LANE":" ","ALLEY":" ","HOUSE_NO":"１５５號","E_COORD97":174279.29999999999,"N_COORD97":2545691.5899999999,"ADDRESS":"大勇路１５５號","OBJECTID":520165},"geometry":{"x":174279.29999999981,"y":2545691.5900000036}},{"attributes":{"ID":520193,"DIS_CODE":0,"TOWNNAME":"永康區","LI":"西灣里","LIN":"35鄰","STREET":"大勇路","SECT":" ","MAREA":" ","LANE":" ","ALLEY":" ","HOUSE_NO":"１５７號","E_COORD97":174280.29999999999,"N_COORD97":2545695.8399999999,"ADDRESS":"大勇路１５７號","OBJECTID":520166},"geometry":{"x":174280.30000000075,"y":2545695.8399999999}},{"attributes":{"ID":520194,"DIS_CODE":0,"TOWNNAME":"永康區","LI":"西灣里","LIN":"35鄰","STREET":"大勇路","SECT":" ","MAREA":" ","LANE":" ","ALLEY":" ","HOUSE_NO":"１４９號","E_COORD97":174276.04999999999,"N_COORD97":2545679.3300000001,"ADDRESS":"大勇路１４９號","OBJECTID":520167},"geometry":{"x":174276.04999999981,"y":2545679.3300000001}},{"attributes":{"ID":520195,"DIS_CODE":0,"TOWNNAME":"永康區","LI":"西灣里","LIN":"35鄰","STREET":"大勇路","SECT":" ","MAREA":" ","LANE":" ","ALLEY":" ","HOUSE_NO":"１５３號","E_COORD97":174278.29999999999,"N_COORD97":2545687.3399999999,"ADDRESS":"大勇路１５３號","OBJECTID":520168},"geometry":{"x":174278.30000000075,"y":2545687.3400000017}},{"attributes":{"ID":520196,"DIS_CODE":0,"TOWNNAME":"永康區","LI":"永康里","LIN":"35鄰","STREET":"大同街","SECT":" ","MAREA":" ","LANE":" ","ALLEY":" ","HOUSE_NO":"９３６號","E_COORD97":174434.98000000001,"N_COORD97":2547007.1899999999,"ADDRESS":"大同街９３６號","OBJECTID":520169},"geometry":{"x":174434.98000000045,"y":2547007.1900000013}},{"attributes":{"ID":520197,"DIS_CODE":0,"TOWNNAME":"永康區","LI":"永康里","LIN":"35鄰","STREET":"大同街","SECT":" ","MAREA":" ","LANE":" ","ALLEY":" ","HOUSE_NO":"９５６號","E_COORD97":174428.20999999999,"N_COORD97":2547045.4500000002,"ADDRESS":"大同街９５６號","OBJECTID":520170},"geometry":{"x":174428.21000000183,"y":2547045.4500000011}},{"attributes":{"ID":520198,"DIS_CODE":0,"TOWNNAME":"永康區","LI":"永康里","LIN":"35鄰","STREET":"大同街","SECT":" ","MAREA":" ","LANE":" ","ALLEY":" ","HOUSE_NO":"９３８號","E_COORD97":174433.34,"N_COORD97":2547011.6899999999,"ADDRESS":"大同街９３８號","OBJECTID":520171},"geometry":{"x":174433.33999999985,"y":2547011.6899999995}},{"attributes":{"ID":520199,"DIS_CODE":0,"TOWNNAME":"仁德區","LI":"仁德里","LIN":"35鄰","STREET":"文山路","SECT":" ","MAREA":" ","LANE":" ","ALLEY":" ","HOUSE_NO":"１３３號","E_COORD97":172807.09,"N_COORD97":2541711.0699999998,"ADDRESS":"文山路１３３號","OBJECTID":520172},"geometry":{"x":172807.09000000078,"y":2541711.0700000003}},{"attributes":{"ID":520200,"DIS_CODE":0,"TOWNNAME":"仁德區","LI":"仁德里","LIN":"35鄰","STREET":"文山路","SECT":" ","MAREA":" ","LANE":" ","ALLEY":" ","HOUSE_NO":"１１５號","E_COORD97":172815.85999999999,"N_COORD97":2541719.8199999998,"ADDRESS":"文山路１１５號","OBJECTID":520173},"geometry":{"x":172815.86000000127,"y":2541719.8200000003}},{"attributes":{"ID":520201,"DIS_CODE":0,"TOWNNAME":"仁德區","LI":"後壁里","LIN":"35鄰","STREET":"德洋路","SECT":" ","MAREA":" ","LANE":" ","ALLEY":" ","HOUSE_NO":"２０３號","E_COORD97":172500.31,"N_COORD97":2539479.02,"ADDRESS":"德洋路２０３號","OBJECTID":520174},"geometry":{"x":172500.31000000052,"y":2539479.0199999996}},{"attributes":{"ID":520202,"DIS_CODE":0,"TOWNNAME":"仁德區","LI":"後壁里","LIN":"35鄰","STREET":"德洋路","SECT":" ","MAREA":" ","LANE":" ","ALLEY":" ","HOUSE_NO":"１９３號","E_COORD97":172491.98999999999,"N_COORD97":2539459.2599999998,"ADDRESS":"德洋路１９３號","OBJECTID":520175},"geometry":{"x":172491.99000000022,"y":2539459.2600000016}},{"attributes":{"ID":520203,"DIS_CODE":0,"TOWNNAME":"仁德區","LI":"仁德里","LIN":"35鄰","STREET":"文山路","SECT":" ","MAREA":" ","LANE":" ","ALLEY":" ","HOUSE_NO":"１７９號","E_COORD97":172712.53,"N_COORD97":2541765.3300000001,"ADDRESS":"文山路１７９號","OBJECTID":520176},"geometry":{"x":172712.53000000212,"y":2541765.3300000019}},{"attributes":{"ID":520204,"DIS_CODE":0,"TOWNNAME":"仁德區","LI":"仁德里","LIN":"35鄰","STREET":"文山路","SECT":" ","MAREA":" ","LANE":" ","ALLEY":" ","HOUSE_NO":"１８５號","E_COORD97":172700.67000000001,"N_COORD97":2541769.3300000001,"ADDRESS":"文山路１８５號","OBJECTID":520177},"geometry":{"x":172700.66999999993,"y":2541769.3300000001}},{"attributes":{"ID":520205,"DIS_CODE":0,"TOWNNAME":"仁德區","LI":"仁德里","LIN":"35鄰","STREET":"裕華三街","SECT":" ","MAREA":" ","LANE":" ","ALLEY":" ","HOUSE_NO":"３２２號","E_COORD97":172737.26000000001,"N_COORD97":2541723.2400000002,"ADDRESS":"裕華三街３２２號","OBJECTID":520178},"geometry":{"x":172737.25999999978,"y":2541723.2400000002}},{"attributes":{"ID":520206,"DIS_CODE":0,"TOWNNAME":"仁德區","LI":"仁德里","LIN":"35鄰","STREET":"文山路","SECT":" ","MAREA":" ","LANE":" ","ALLEY":" ","HOUSE_NO":"８２號","E_COORD97":172808.76999999999,"N_COORD97":2541770.5800000001,"ADDRESS":"文山路８２號","OBJECTID":520179},"geometry":{"x":172808.77000000048,"y":2541770.5800000019}},{"attributes":{"ID":520207,"DIS_CODE":0,"TOWNNAME":"仁德區","LI":"仁德里","LIN":"35鄰","STREET":"文山路","SECT":" ","MAREA":" ","LANE":" ","ALLEY":" ","HOUSE_NO":"９８號","E_COORD97":172779.70000000001,"N_COORD97":2541771.5800000001,"ADDRESS":"文山路９８號","OBJECTID":520180},"geometry":{"x":172779.70000000112,"y":2541771.5800000001}},{"attributes":{"ID":520208,"DIS_CODE":0,"TOWNNAME":"仁德區","LI":"仁德里","LIN":"35鄰","STREET":"文山路","SECT":" ","MAREA":" ","LANE":" ","ALLEY":" ","HOUSE_NO":"１２５號","E_COORD97":172815.79000000001,"N_COORD97":2541698.3199999998,"ADDRESS":"文山路１２５號","OBJECTID":520181},"geometry":{"x":172815.79000000097,"y":2541698.3200000003}},{"attributes":{"ID":520209,"DIS_CODE":0,"TOWNNAME":"仁德區","LI":"太子里","LIN":"35鄰","STREET":"太子路","SECT":" ","MAREA":" ","LANE":" ","ALLEY":" ","HOUSE_NO":"４４５號","E_COORD97":174252.70000000001,"N_COORD97":2543493,"ADDRESS":"太子路４４５號","OBJECTID":520182},"geometry":{"x":174252.70000000112,"y":2543493.0000000019}},{"attributes":{"ID":520210,"DIS_CODE":0,"TOWNNAME":"仁德區","LI":"仁德里","LIN":"35鄰","STREET":"文山路","SECT":" ","MAREA":" ","LANE":" ","ALLEY":" ","HOUSE_NO":"９２號","E_COORD97":172789.73000000001,"N_COORD97":2541771.0800000001,"ADDRESS":"文山路９２號","OBJECTID":520183},"geometry":{"x":172789.73000000138,"y":2541771.0800000001}},{"attributes":{"ID":520211,"DIS_CODE":0,"TOWNNAME":"仁德區","LI":"仁德里","LIN":"35鄰","STREET":"文山路","SECT":" ","MAREA":" ","LANE":" ","ALLEY":" ","HOUSE_NO":"５１號","E_COORD97":172853.12,"N_COORD97":2541748.3300000001,"ADDRESS":"文山路５１號","OBJECTID":520184},"geometry":{"x":172853.12000000104,"y":2541748.3300000019}},{"attributes":{"ID":520212,"DIS_CODE":0,"TOWNNAME":"仁德區","LI":"仁德里","LIN":"35鄰","STREET":"文山路","SECT":" ","MAREA":" ","LANE":" ","ALLEY":" ","HOUSE_NO":"１７７號","E_COORD97":172716.59,"N_COORD97":2541764.0800000001,"ADDRESS":"文山路１７７號","OBJECTID":520185},"geometry":{"x":172716.59000000171,"y":2541764.0800000019}},{"attributes":{"ID":520213,"DIS_CODE":0,"TOWNNAME":"仁德區","LI":"仁德里","LIN":"35鄰","STREET":"裕華三街","SECT":" ","MAREA":" ","LANE":" ","ALLEY":" ","HOUSE_NO":"２６０號","E_COORD97":172740.04000000001,"N_COORD97":2541732.9900000002,"ADDRESS":"裕華三街２６０號","OBJECTID":520186},"geometry":{"x":172740.04000000097,"y":2541732.9900000021}},{"attributes":{"ID":520214,"DIS_CODE":0,"TOWNNAME":"仁德區","LI":"仁德里","LIN":"35鄰","STREET":"裕華三街","SECT":" ","MAREA":" ","LANE":" ","ALLEY":" ","HOUSE_NO":"２７５號","E_COORD97":172797.06,"N_COORD97":2541790.25,"ADDRESS":"裕華三街２７５號","OBJECTID":520187},"geometry":{"x":172797.06000000052,"y":2541790.25}},{"attributes":{"ID":520215,"DIS_CODE":0,"TOWNNAME":"仁德區","LI":"仁德里","LIN":"35鄰","STREET":"裕華三街","SECT":" ","MAREA":" ","LANE":" ","ALLEY":" ","HOUSE_NO":"２７０號","E_COORD97":172722.73000000001,"N_COORD97":2541738.4900000002,"ADDRESS":"裕華三街２７０號","OBJECTID":520188},"geometry":{"x":172722.73000000045,"y":2541738.4900000002}},{"attributes":{"ID":520216,"DIS_CODE":0,"TOWNNAME":"仁德區","LI":"後壁里","LIN":"35鄰","STREET":"德洋二街","SECT":" ","MAREA":" ","LANE":" ","ALLEY":" ","HOUSE_NO":"１０號","E_COORD97":172405.29000000001,"N_COORD97":2539408.77,"ADDRESS":"德洋二街１０號","OBJECTID":520189},"geometry":{"x":172405.2900000019,"y":2539408.7700000014}},{"attributes":{"ID":520217,"DIS_CODE":0,"TOWNNAME":"仁德區","LI":"仁德里","LIN":"35鄰","STREET":"裕華三街","SECT":" ","MAREA":" ","LANE":" ","ALLEY":" ","HOUSE_NO":"３３１號","E_COORD97":172785.06,"N_COORD97":2541711.4900000002,"ADDRESS":"裕華三街３３１號","OBJECTID":520190},"geometry":{"x":172785.06000000052,"y":2541711.4900000002}},{"attributes":{"ID":520218,"DIS_CODE":0,"TOWNNAME":"仁德區","LI":"太子里","LIN":"35鄰","STREET":"太子路","SECT":" ","MAREA":" ","LANE":" ","ALLEY":" ","HOUSE_NO":"４５３號","E_COORD97":174235.39999999999,"N_COORD97":2543493,"ADDRESS":"太子路４５３號","OBJECTID":520191},"geometry":{"x":174235.40000000037,"y":2543493.0000000019}},{"attributes":{"ID":520219,"DIS_CODE":0,"TOWNNAME":"仁德區","LI":"仁德里","LIN":"35鄰","STREET":"文山路","SECT":" ","MAREA":" ","LANE":" ","ALLEY":" ","HOUSE_NO":"７６號","E_COORD97":172822.84,"N_COORD97":2541770.3300000001,"ADDRESS":"文山路７６號","OBJECTID":520192},"geometry":{"x":172822.83999999985,"y":2541770.3300000001}},{"attributes":{"ID":520220,"DIS_CODE":0,"TOWNNAME":"永康區","LI":"永康里","LIN":"35鄰","STREET":"大同街","SECT":" ","MAREA":" ","LANE":" ","ALLEY":" ","HOUSE_NO":"９２０號","E_COORD97":174445.81,"N_COORD97":2546981.3599999999,"ADDRESS":"大同街９２０號","OBJECTID":520193},"geometry":{"x":174445.81000000145,"y":2546981.3600000013}},{"attributes":{"ID":520221,"DIS_CODE":0,"TOWNNAME":"永康區","LI":"永康里","LIN":"35鄰","STREET":"大同街","SECT":" ","MAREA":" ","LANE":" ","ALLEY":" ","HOUSE_NO":"９３０號","E_COORD97":174438.42999999999,"N_COORD97":2546998.9399999999,"ADDRESS":"大同街９３０號","OBJECTID":520194},"geometry":{"x":174438.43000000063,"y":2546998.9400000013}},{"attributes":{"ID":520222,"DIS_CODE":0,"TOWNNAME":"永康區","LI":"永康里","LIN":"35鄰","STREET":"大同街","SECT":" ","MAREA":" ","LANE":" ","ALLEY":" ","HOUSE_NO":"９２２號","E_COORD97":174444.10999999999,"N_COORD97":2546985.3599999999,"ADDRESS":"大同街９２２號","OBJECTID":520195},"geometry":{"x":174444.11000000034,"y":2546985.3600000013}},{"attributes":{"ID":520223,"DIS_CODE":0,"TOWNNAME":"永康區","LI":"埔園里","LIN":"35鄰","STREET":"自強路","SECT":" ","MAREA":" ","LANE":" ","ALLEY":" ","HOUSE_NO":"６８３號","E_COORD97":174333.97,"N_COORD97":2548447.5699999998,"ADDRESS":"自強路６８３號","OBJECTID":520196},"geometry":{"x":174333.96999999974,"y":2548447.5700000003}},{"attributes":{"ID":520224,"DIS_CODE":0,"TOWNNAME":"永康區","LI":"埔園里","LIN":"35鄰","STREET":"永大路","SECT":"三段","MAREA":" ","LANE":" ","ALLEY":" ","HOUSE_NO":"４１８號","E_COORD97":174117.57000000001,"N_COORD97":2548360.52,"ADDRESS":"永大路三段４１８號","OBJECTID":520197},"geometry":{"x":174117.57000000216,"y":2548360.5200000014}},{"attributes":{"ID":520225,"DIS_CODE":0,"TOWNNAME":"永康區","LI":"埔園里","LIN":"35鄰","STREET":"永大路","SECT":"三段","MAREA":" ","LANE":" ","ALLEY":" ","HOUSE_NO":"４３８號","E_COORD97":174112.89000000001,"N_COORD97":2548394.7799999998,"ADDRESS":"永大路三段４３８號","OBJECTID":520198},"geometry":{"x":174112.89000000153,"y":2548394.7799999993}},{"attributes":{"ID":520226,"DIS_CODE":0,"TOWNNAME":"永康區","LI":"埔園里","LIN":"35鄰","STREET":"自強路","SECT":" ","MAREA":" ","LANE":" ","ALLEY":" ","HOUSE_NO":"６５３號","E_COORD97":174276.67999999999,"N_COORD97":2548406.7999999998,"ADDRESS":"自強路６５３號","OBJECTID":520199},"geometry":{"x":174276.6799999997,"y":2548406.8000000045}},{"attributes":{"ID":520227,"DIS_CODE":0,"TOWNNAME":"永康區","LI":"埔園里","LIN":"35鄰","STREET":"自強路","SECT":" ","MAREA":" ","LANE":" ","ALLEY":" ","HOUSE_NO":"６８５號","E_COORD97":174336.85999999999,"N_COORD97":2548450.0699999998,"ADDRESS":"自強路６８５號","OBJECTID":520200},"geometry":{"x":174336.86000000034,"y":2548450.0700000022}}]}