{"displayFieldName":"TOWNNAME","fieldAliases":{"ID":"ID","DIS_CODE":"DIS_CODE","TOWNNAME":"TOWNNAME","LI":"LI","LIN":"LIN","STREET":"STREET","SECT":"SECT","MAREA":"MAREA","LANE":"LANE","ALLEY":"ALLEY","HOUSE_NO":"HOUSE_NO","E_COORD97":"E_COORD97","N_COORD97":"N_COORD97","ADDRESS":"ADDRESS","OBJECTID":"OBJECTID"},"geometryType":"esriGeometryPoint","spatialReference":{"wkid":102443,"latestWkid":3826},"fields":[{"name":"ID","type":"esriFieldTypeDouble","alias":"ID"},{"name":"DIS_CODE","type":"esriFieldTypeInteger","alias":"DIS_CODE"},{"name":"TOWNNAME","type":"esriFieldTypeString","alias":"TOWNNAME","length":8},{"name":"LI","type":"esriFieldTypeString","alias":"LI","length":8},{"name":"LIN","type":"esriFieldTypeString","alias":"LIN","length":12},{"name":"STREET","type":"esriFieldTypeString","alias":"STREET","length":20},{"name":"SECT","type":"esriFieldTypeString","alias":"SECT","length":8},{"name":"MAREA","type":"esriFieldTypeString","alias":"MAREA","length":12},{"name":"LANE","type":"esriFieldTypeString","alias":"LANE","length":10},{"name":"ALLEY","type":"esriFieldTypeString","alias":"ALLEY","length":10},{"name":"HOUSE_NO","type":"esriFieldTypeString","alias":"HOUSE_NO","length":20},{"name":"E_COORD97","type":"esriFieldTypeDouble","alias":"E_COORD97"},{"name":"N_COORD97","type":"esriFieldTypeDouble","alias":"N_COORD97"},{"name":"ADDRESS","type":"esriFieldTypeString","alias":"ADDRESS","length":50},{"name":"OBJECTID","type":"esriFieldTypeOID","alias":"OBJECTID"}],"features":[{"attributes":{"ID":429426,"DIS_CODE":0,"TOWNNAME":"歸仁區","LI":"許厝里","LIN":"25鄰","STREET":"中山路","SECT":"一段","MAREA":" ","LANE":"４３４巷","ALLEY":" ","HOUSE_NO":"２０號","E_COORD97":178089.79999999999,"N_COORD97":2540793.9300000002,"ADDRESS":"中山路一段４３４巷２０號","OBJECTID":429401},"geometry":{"x":178089.79999999981,"y":2540793.9300000016}},{"attributes":{"ID":429427,"DIS_CODE":0,"TOWNNAME":"歸仁區","LI":"許厝里","LIN":"25鄰","STREET":"中山路","SECT":"一段","MAREA":" ","LANE":"４４６巷","ALLEY":" ","HOUSE_NO":"１４號","E_COORD97":178060,"N_COORD97":2540782.9300000002,"ADDRESS":"中山路一段４４６巷１４號","OBJECTID":429402},"geometry":{"x":178060,"y":2540782.9299999997}},{"attributes":{"ID":429428,"DIS_CODE":0,"TOWNNAME":"歸仁區","LI":"大潭里","LIN":"20鄰","STREET":"長榮路","SECT":"二段","MAREA":" ","LANE":"１４５巷","ALLEY":" ","HOUSE_NO":"３０號","E_COORD97":177156.98000000001,"N_COORD97":2534563.25,"ADDRESS":"長榮路二段１４５巷３０號","OBJECTID":429403},"geometry":{"x":177156.98000000045,"y":2534563.2499999981}},{"attributes":{"ID":429429,"DIS_CODE":0,"TOWNNAME":"歸仁區","LI":"武東里","LIN":"4鄰","STREET":"武東二街","SECT":" ","MAREA":" ","LANE":"４２巷","ALLEY":" ","HOUSE_NO":"３２號","E_COORD97":175556.89000000001,"N_COORD97":2535204.25,"ADDRESS":"武東二街４２巷３２號","OBJECTID":429404},"geometry":{"x":175556.88999999966,"y":2535204.2500000037}},{"attributes":{"ID":429430,"DIS_CODE":0,"TOWNNAME":"歸仁區","LI":"六甲里","LIN":"39鄰","STREET":"六甲八街","SECT":" ","MAREA":" ","LANE":"１４９巷","ALLEY":" ","HOUSE_NO":"１２２號","E_COORD97":175236.79999999999,"N_COORD97":2539870.73,"ADDRESS":"六甲八街１４９巷１２２號","OBJECTID":429405},"geometry":{"x":175236.79999999981,"y":2539870.7300000023}},{"attributes":{"ID":429431,"DIS_CODE":0,"TOWNNAME":"歸仁區","LI":"六甲里","LIN":"20鄰","STREET":"中正南路","SECT":"一段","MAREA":" ","LANE":"７３８巷","ALLEY":" ","HOUSE_NO":"１６號","E_COORD97":176415.23656799999,"N_COORD97":2539709.47034,"ADDRESS":"中正南路一段７３８巷１６號","OBJECTID":429406},"geometry":{"x":176415.23656800017,"y":2539709.4703419991}},{"attributes":{"ID":429432,"DIS_CODE":0,"TOWNNAME":"歸仁區","LI":"七甲里","LIN":"5鄰","STREET":"中正北路","SECT":"二段","MAREA":" ","LANE":"４５２巷","ALLEY":" ","HOUSE_NO":"１２號","E_COORD97":177529.07000000001,"N_COORD97":2543102.2599999998,"ADDRESS":"中正北路二段４５２巷１２號","OBJECTID":429407},"geometry":{"x":177529.0700000003,"y":2543102.2599999998}},{"attributes":{"ID":429433,"DIS_CODE":0,"TOWNNAME":"歸仁區","LI":"南保里","LIN":"32鄰","STREET":"民權八街","SECT":" ","MAREA":" ","LANE":"７０巷","ALLEY":" ","HOUSE_NO":"１３號","E_COORD97":176777.23999999999,"N_COORD97":2541043.29,"ADDRESS":"民權八街７０巷１３號","OBJECTID":429408},"geometry":{"x":176777.24000000022,"y":2541043.2899999991}},{"attributes":{"ID":429434,"DIS_CODE":0,"TOWNNAME":"歸仁區","LI":"看西里","LIN":"18鄰","STREET":"成功五街","SECT":" ","MAREA":" ","LANE":"８５巷","ALLEY":" ","HOUSE_NO":"２號","E_COORD97":178396.35999999999,"N_COORD97":2539928.3599999999,"ADDRESS":"成功五街８５巷２號","OBJECTID":429409},"geometry":{"x":178396.36000000127,"y":2539928.3599999994}},{"attributes":{"ID":429435,"DIS_CODE":0,"TOWNNAME":"歸仁區","LI":"看西里","LIN":"4鄰","STREET":"仁愛南街","SECT":" ","MAREA":" ","LANE":"１０２巷","ALLEY":" ","HOUSE_NO":"１２號","E_COORD97":178235.5,"N_COORD97":2540390.29,"ADDRESS":"仁愛南街１０２巷１２號","OBJECTID":429410},"geometry":{"x":178235.50000000093,"y":2540390.2900000028}},{"attributes":{"ID":429436,"DIS_CODE":0,"TOWNNAME":"歸仁區","LI":"歸南里","LIN":"4鄰","STREET":"民權十六街","SECT":" ","MAREA":" ","LANE":"３０巷","ALLEY":" ","HOUSE_NO":"７號","E_COORD97":176869.62,"N_COORD97":2540153.29,"ADDRESS":"民權十六街３０巷７號","OBJECTID":429411},"geometry":{"x":176869.62000000011,"y":2540153.290000001}},{"attributes":{"ID":429437,"DIS_CODE":0,"TOWNNAME":"歸仁區","LI":"七甲里","LIN":"4鄰","STREET":"中正北路","SECT":"二段","MAREA":" ","LANE":"４７０巷","ALLEY":" ","HOUSE_NO":"５１號","E_COORD97":177602.17000000001,"N_COORD97":2543161.2599999998,"ADDRESS":"中正北路二段４７０巷５１號","OBJECTID":429412},"geometry":{"x":177602.17000000086,"y":2543161.2600000035}},{"attributes":{"ID":429438,"DIS_CODE":0,"TOWNNAME":"歸仁區","LI":"南保里","LIN":"20鄰","STREET":"文化街","SECT":"三段","MAREA":" ","LANE":"６１巷","ALLEY":" ","HOUSE_NO":"１８號","E_COORD97":176894.04000000001,"N_COORD97":2541180.3300000001,"ADDRESS":"文化街三段６１巷１８號","OBJECTID":429413},"geometry":{"x":176894.03999999911,"y":2541180.3300000001}},{"attributes":{"ID":429439,"DIS_CODE":0,"TOWNNAME":"歸仁區","LI":"許厝里","LIN":"4鄰","STREET":"仁愛一街","SECT":" ","MAREA":" ","LANE":"３８巷","ALLEY":" ","HOUSE_NO":"８號","E_COORD97":178385.41,"N_COORD97":2540574.1499999999,"ADDRESS":"仁愛一街３８巷８號","OBJECTID":429414},"geometry":{"x":178385.41000000108,"y":2540574.1500000004}},{"attributes":{"ID":429440,"DIS_CODE":0,"TOWNNAME":"歸仁區","LI":"六甲里","LIN":"42鄰","STREET":"民生十二街","SECT":" ","MAREA":" ","LANE":"７１巷","ALLEY":" ","HOUSE_NO":"５號","E_COORD97":175870.04999999999,"N_COORD97":2539457.7999999998,"ADDRESS":"民生十二街７１巷５號","OBJECTID":429415},"geometry":{"x":175870.05000000168,"y":2539457.8000000026}},{"attributes":{"ID":429441,"DIS_CODE":0,"TOWNNAME":"歸仁區","LI":"許厝里","LIN":"5鄰","STREET":"中山路","SECT":"一段","MAREA":" ","LANE":"３１９巷","ALLEY":" ","HOUSE_NO":"１６號","E_COORD97":178437.26000000001,"N_COORD97":2540595.25,"ADDRESS":"中山路一段３１９巷１６號","OBJECTID":429416},"geometry":{"x":178437.26000000071,"y":2540595.2500000019}},{"attributes":{"ID":429442,"DIS_CODE":0,"TOWNNAME":"歸仁區","LI":"南保里","LIN":"32鄰","STREET":"民權八街","SECT":" ","MAREA":" ","LANE":"３０巷","ALLEY":" ","HOUSE_NO":"７號","E_COORD97":176887.59,"N_COORD97":2541006.29,"ADDRESS":"民權八街３０巷７號","OBJECTID":429417},"geometry":{"x":176887.59000000078,"y":2541006.2899999991}},{"attributes":{"ID":429443,"DIS_CODE":0,"TOWNNAME":"歸仁區","LI":"辜厝里","LIN":"46鄰","STREET":"中正八街","SECT":" ","MAREA":" ","LANE":"１１巷","ALLEY":" ","HOUSE_NO":"１３號","E_COORD97":177116.34,"N_COORD97":2540256.9500000002,"ADDRESS":"中正八街１１巷１３號","OBJECTID":429418},"geometry":{"x":177116.34000000078,"y":2540256.9499999974}},{"attributes":{"ID":429444,"DIS_CODE":0,"TOWNNAME":"北區","LI":"文元里","LIN":"25鄰","STREET":"文賢二街","SECT":" ","MAREA":" ","LANE":"５００巷","ALLEY":" ","HOUSE_NO":"３８之１號","E_COORD97":167767.45999999999,"N_COORD97":2546200.3199999998,"ADDRESS":"文賢二街５００巷３８之１號","OBJECTID":429419},"geometry":{"x":167767.45999999996,"y":2546200.3200000022}},{"attributes":{"ID":429445,"DIS_CODE":0,"TOWNNAME":"北區","LI":"大和里","LIN":"14鄰","STREET":"文賢路","SECT":" ","MAREA":" ","LANE":"７９９巷","ALLEY":" ","HOUSE_NO":"１０號","E_COORD97":167277.60999999999,"N_COORD97":2546300.8500000001,"ADDRESS":"文賢路７９９巷１０號","OBJECTID":429420},"geometry":{"x":167277.61000000127,"y":2546300.8500000015}},{"attributes":{"ID":429446,"DIS_CODE":0,"TOWNNAME":"北區","LI":"成德里","LIN":"41鄰","STREET":"育德二路","SECT":" ","MAREA":" ","LANE":"３４５巷","ALLEY":" ","HOUSE_NO":"９號","E_COORD97":168260.64000000001,"N_COORD97":2546207.1499999999,"ADDRESS":"育德二路３４５巷９號","OBJECTID":429421},"geometry":{"x":168260.63999999966,"y":2546207.1500000041}},{"attributes":{"ID":429447,"DIS_CODE":0,"TOWNNAME":"玉井區","LI":"玉田里","LIN":"43鄰","STREET":"大成路","SECT":" ","MAREA":" ","LANE":"１６１巷","ALLEY":" ","HOUSE_NO":"６號","E_COORD97":195643.66,"N_COORD97":2557900.2599999998,"ADDRESS":"大成路１６１巷６號","OBJECTID":429422},"geometry":{"x":195643.66000000015,"y":2557900.2600000016}},{"attributes":{"ID":429448,"DIS_CODE":0,"TOWNNAME":"玉井區","LI":"玉田里","LIN":"41鄰","STREET":"民族路","SECT":" ","MAREA":" ","LANE":"１７９巷","ALLEY":" ","HOUSE_NO":"３０號","E_COORD97":195453.54000000001,"N_COORD97":2558176.2799999998,"ADDRESS":"民族路１７９巷３０號","OBJECTID":429423},"geometry":{"x":195453.54000000097,"y":2558176.2799999975}},{"attributes":{"ID":429449,"DIS_CODE":0,"TOWNNAME":"玉井區","LI":"玉井里","LIN":"5鄰","STREET":"憲政街","SECT":" ","MAREA":" ","LANE":"３５巷","ALLEY":" ","HOUSE_NO":"１５號","E_COORD97":194437.45999999999,"N_COORD97":2557916.27,"ADDRESS":"憲政街３５巷１５號","OBJECTID":429424},"geometry":{"x":194437.45999999996,"y":2557916.2700000014}},{"attributes":{"ID":429450,"DIS_CODE":0,"TOWNNAME":"玉井區","LI":"玉井里","LIN":"20鄰","STREET":"中正路","SECT":" ","MAREA":" ","LANE":"２８巷","ALLEY":" ","HOUSE_NO":"２號","E_COORD97":194726.29999999999,"N_COORD97":2558021.25,"ADDRESS":"中正路２８巷２號","OBJECTID":429425},"geometry":{"x":194726.30000000075,"y":2558021.2499999981}},{"attributes":{"ID":429451,"DIS_CODE":0,"TOWNNAME":"玉井區","LI":"竹圍里","LIN":"8鄰","STREET":"中正路","SECT":" ","MAREA":" ","LANE":"６６０巷","ALLEY":" ","HOUSE_NO":"１１號","E_COORD97":195842.07000000001,"N_COORD97":2558905,"ADDRESS":"中正路６６０巷１１號","OBJECTID":429426},"geometry":{"x":195842.07000000123,"y":2558905.0000000019}},{"attributes":{"ID":429452,"DIS_CODE":0,"TOWNNAME":"玉井區","LI":"玉井里","LIN":"18鄰","STREET":"中正路","SECT":" ","MAREA":" ","LANE":"１００巷","ALLEY":" ","HOUSE_NO":"１４號","E_COORD97":194873.51000000001,"N_COORD97":2558115.25,"ADDRESS":"中正路１００巷１４號","OBJECTID":429427},"geometry":{"x":194873.51000000071,"y":2558115.25}},{"attributes":{"ID":429453,"DIS_CODE":0,"TOWNNAME":"玉井區","LI":"玉井里","LIN":"4鄰","STREET":"憲政街","SECT":" ","MAREA":" ","LANE":"６６巷","ALLEY":" ","HOUSE_NO":"１９號","E_COORD97":194489.01000000001,"N_COORD97":2558069.48,"ADDRESS":"憲政街６６巷１９號","OBJECTID":429428},"geometry":{"x":194489.01000000071,"y":2558069.4800000023}},{"attributes":{"ID":429454,"DIS_CODE":0,"TOWNNAME":"玉井區","LI":"玉田里","LIN":"25鄰","STREET":"信義街","SECT":" ","MAREA":" ","LANE":"２２巷","ALLEY":" ","HOUSE_NO":"１３號","E_COORD97":195174.66,"N_COORD97":2557603.27,"ADDRESS":"信義街２２巷１３號","OBJECTID":429429},"geometry":{"x":195174.66000000108,"y":2557603.2699999996}},{"attributes":{"ID":429455,"DIS_CODE":0,"TOWNNAME":"玉井區","LI":"玉田里","LIN":"41鄰","STREET":"民族路","SECT":" ","MAREA":" ","LANE":"１７９巷","ALLEY":" ","HOUSE_NO":"５０號","E_COORD97":195454.23999999999,"N_COORD97":2558235.29,"ADDRESS":"民族路１７９巷５０號","OBJECTID":429430},"geometry":{"x":195454.24000000115,"y":2558235.290000001}},{"attributes":{"ID":429456,"DIS_CODE":0,"TOWNNAME":"玉井區","LI":"玉田里","LIN":"13鄰","STREET":"民權路","SECT":" ","MAREA":" ","LANE":"９３巷","ALLEY":" ","HOUSE_NO":"３號","E_COORD97":194862.84,"N_COORD97":2557867.9399999999,"ADDRESS":"民權路９３巷３號","OBJECTID":429431},"geometry":{"x":194862.84000000078,"y":2557867.9400000013}},{"attributes":{"ID":429457,"DIS_CODE":0,"TOWNNAME":"玉井區","LI":"玉田里","LIN":"34鄰","STREET":"大勇街","SECT":" ","MAREA":" ","LANE":"６２巷","ALLEY":" ","HOUSE_NO":"２號","E_COORD97":195584.20999999999,"N_COORD97":2558221.2599999998,"ADDRESS":"大勇街６２巷２號","OBJECTID":429432},"geometry":{"x":195584.21000000089,"y":2558221.2600000035}},{"attributes":{"ID":429458,"DIS_CODE":0,"TOWNNAME":"玉井區","LI":"玉田里","LIN":"34鄰","STREET":"大勇街","SECT":" ","MAREA":" ","LANE":"６２巷","ALLEY":" ","HOUSE_NO":"９號","E_COORD97":195560.70999999999,"N_COORD97":2558239.2599999998,"ADDRESS":"大勇街６２巷９號","OBJECTID":429433},"geometry":{"x":195560.71000000089,"y":2558239.2600000016}},{"attributes":{"ID":429459,"DIS_CODE":0,"TOWNNAME":"玉井區","LI":"玉田里","LIN":"26鄰","STREET":"中山路","SECT":" ","MAREA":" ","LANE":"３巷","ALLEY":" ","HOUSE_NO":"１６號","E_COORD97":194897.79999999999,"N_COORD97":2557770.2400000002,"ADDRESS":"中山路３巷１６號","OBJECTID":429434},"geometry":{"x":194897.79999999981,"y":2557770.2400000002}},{"attributes":{"ID":429460,"DIS_CODE":0,"TOWNNAME":"玉井區","LI":"玉田里","LIN":"26鄰","STREET":"中山路","SECT":" ","MAREA":" ","LANE":"３巷","ALLEY":" ","HOUSE_NO":"２０號","E_COORD97":194896.51000000001,"N_COORD97":2557780.2400000002,"ADDRESS":"中山路３巷２０號","OBJECTID":429435},"geometry":{"x":194896.50999999978,"y":2557780.2400000002}},{"attributes":{"ID":429461,"DIS_CODE":0,"TOWNNAME":"玉井區","LI":"玉田里","LIN":"26鄰","STREET":"中山路","SECT":" ","MAREA":" ","LANE":"３巷","ALLEY":" ","HOUSE_NO":"１１號","E_COORD97":194883.39999999999,"N_COORD97":2557752.2400000002,"ADDRESS":"中山路３巷１１號","OBJECTID":429436},"geometry":{"x":194883.4000000013,"y":2557752.2400000002}},{"attributes":{"ID":429462,"DIS_CODE":0,"TOWNNAME":"玉井區","LI":"玉田里","LIN":"25鄰","STREET":"信義街","SECT":" ","MAREA":" ","LANE":"２２巷","ALLEY":" ","HOUSE_NO":"５號","E_COORD97":195155.82000000001,"N_COORD97":2557610.27,"ADDRESS":"信義街２２巷５號","OBJECTID":429437},"geometry":{"x":195155.8200000003,"y":2557610.2699999996}},{"attributes":{"ID":429463,"DIS_CODE":0,"TOWNNAME":"玉井區","LI":"中正里","LIN":"4鄰","STREET":"後旦街","SECT":" ","MAREA":" ","LANE":"５０巷","ALLEY":" ","HOUSE_NO":"２１號","E_COORD97":195400.45999999999,"N_COORD97":2558630.3199999998,"ADDRESS":"後旦街５０巷２１號","OBJECTID":429438},"geometry":{"x":195400.45999999996,"y":2558630.3200000003}},{"attributes":{"ID":429464,"DIS_CODE":0,"TOWNNAME":"玉井區","LI":"玉田里","LIN":"26鄰","STREET":"中山路","SECT":" ","MAREA":" ","LANE":"３巷","ALLEY":" ","HOUSE_NO":"１０號","E_COORD97":194899.39999999999,"N_COORD97":2557758.2400000002,"ADDRESS":"中山路３巷１０號","OBJECTID":429439},"geometry":{"x":194899.40000000037,"y":2557758.2400000021}},{"attributes":{"ID":429465,"DIS_CODE":0,"TOWNNAME":"玉井區","LI":"玉田里","LIN":"25鄰","STREET":"中山路","SECT":" ","MAREA":" ","LANE":"２０４巷","ALLEY":" ","HOUSE_NO":"８號","E_COORD97":195215.85000000001,"N_COORD97":2557683.2400000002,"ADDRESS":"中山路２０４巷８號","OBJECTID":429440},"geometry":{"x":195215.84999999963,"y":2557683.2400000021}},{"attributes":{"ID":429466,"DIS_CODE":0,"TOWNNAME":"玉井區","LI":"竹圍里","LIN":"4鄰","STREET":"大成路","SECT":" ","MAREA":" ","LANE":"３０９巷","ALLEY":" ","HOUSE_NO":"１號","E_COORD97":195619.13,"N_COORD97":2558295.9700000002,"ADDRESS":"大成路３０９巷１號","OBJECTID":429441},"geometry":{"x":195619.13000000082,"y":2558295.9700000025}},{"attributes":{"ID":429467,"DIS_CODE":0,"TOWNNAME":"玉井區","LI":"竹圍里","LIN":"4鄰","STREET":"大成路","SECT":" ","MAREA":" ","LANE":"２３０巷","ALLEY":" ","HOUSE_NO":"５６號","E_COORD97":195699.67000000001,"N_COORD97":2558385.1600000001,"ADDRESS":"大成路２３０巷５６號","OBJECTID":429442},"geometry":{"x":195699.67000000179,"y":2558385.1600000039}},{"attributes":{"ID":429468,"DIS_CODE":0,"TOWNNAME":"玉井區","LI":"竹圍里","LIN":"4鄰","STREET":"大成路","SECT":" ","MAREA":" ","LANE":"２３０巷","ALLEY":" ","HOUSE_NO":"６０號","E_COORD97":195694.81,"N_COORD97":2558402.6699999999,"ADDRESS":"大成路２３０巷６０號","OBJECTID":429443},"geometry":{"x":195694.81000000145,"y":2558402.6700000018}},{"attributes":{"ID":429469,"DIS_CODE":0,"TOWNNAME":"玉井區","LI":"竹圍里","LIN":"4鄰","STREET":"大成路","SECT":" ","MAREA":" ","LANE":"２３０巷","ALLEY":" ","HOUSE_NO":"１５８號","E_COORD97":195688.73000000001,"N_COORD97":2558526.6200000001,"ADDRESS":"大成路２３０巷１５８號","OBJECTID":429444},"geometry":{"x":195688.73000000045,"y":2558526.6200000029}},{"attributes":{"ID":429470,"DIS_CODE":0,"TOWNNAME":"玉井區","LI":"玉田里","LIN":"13鄰","STREET":"民權路","SECT":" ","MAREA":" ","LANE":"９７巷","ALLEY":" ","HOUSE_NO":"４號","E_COORD97":194843.84,"N_COORD97":2557888.2799999998,"ADDRESS":"民權路９７巷４號","OBJECTID":429445},"geometry":{"x":194843.83999999892,"y":2557888.2800000031}},{"attributes":{"ID":429471,"DIS_CODE":0,"TOWNNAME":"玉井區","LI":"玉田里","LIN":"5鄰","STREET":"中華路","SECT":" ","MAREA":" ","LANE":"２５巷","ALLEY":" ","HOUSE_NO":"１２號","E_COORD97":194973.56,"N_COORD97":2558139.25,"ADDRESS":"中華路２５巷１２號","OBJECTID":429446},"geometry":{"x":194973.56000000052,"y":2558139.25}},{"attributes":{"ID":429472,"DIS_CODE":0,"TOWNNAME":"玉井區","LI":"玉田里","LIN":"25鄰","STREET":"信義街","SECT":" ","MAREA":" ","LANE":"２２巷","ALLEY":" ","HOUSE_NO":"７號","E_COORD97":195159.92000000001,"N_COORD97":2557608.27,"ADDRESS":"信義街２２巷７號","OBJECTID":429447},"geometry":{"x":195159.91999999993,"y":2557608.2700000014}},{"attributes":{"ID":429473,"DIS_CODE":0,"TOWNNAME":"玉井區","LI":"竹圍里","LIN":"4鄰","STREET":"大成路","SECT":" ","MAREA":" ","LANE":"３３０巷","ALLEY":" ","HOUSE_NO":"１７號","E_COORD97":195633.47,"N_COORD97":2558457.1600000001,"ADDRESS":"大成路３３０巷１７號","OBJECTID":429448},"geometry":{"x":195633.47000000067,"y":2558457.160000002}},{"attributes":{"ID":429474,"DIS_CODE":0,"TOWNNAME":"玉井區","LI":"竹圍里","LIN":"4鄰","STREET":"大成路","SECT":" ","MAREA":" ","LANE":"３０９巷","ALLEY":" ","HOUSE_NO":"３號","E_COORD97":195612.78,"N_COORD97":2558296.1000000001,"ADDRESS":"大成路３０９巷３號","OBJECTID":429449},"geometry":{"x":195612.78000000212,"y":2558296.0999999996}},{"attributes":{"ID":429475,"DIS_CODE":0,"TOWNNAME":"玉井區","LI":"竹圍里","LIN":"4鄰","STREET":"大成路","SECT":" ","MAREA":" ","LANE":"３３０巷","ALLEY":" ","HOUSE_NO":"２１號","E_COORD97":195644.45000000001,"N_COORD97":2558471.21,"ADDRESS":"大成路３３０巷２１號","OBJECTID":429450},"geometry":{"x":195644.45000000112,"y":2558471.2100000028}},{"attributes":{"ID":429476,"DIS_CODE":0,"TOWNNAME":"玉井區","LI":"竹圍里","LIN":"4鄰","STREET":"大成路","SECT":" ","MAREA":" ","LANE":"３３０巷","ALLEY":" ","HOUSE_NO":"１３號","E_COORD97":195623.94,"N_COORD97":2558458.7400000002,"ADDRESS":"大成路３３０巷１３號","OBJECTID":429451},"geometry":{"x":195623.94000000134,"y":2558458.7400000002}},{"attributes":{"ID":429477,"DIS_CODE":0,"TOWNNAME":"玉井區","LI":"竹圍里","LIN":"4鄰","STREET":"大成路","SECT":" ","MAREA":" ","LANE":"３０９巷","ALLEY":" ","HOUSE_NO":"７號","E_COORD97":195597.51999999999,"N_COORD97":2558296.9300000002,"ADDRESS":"大成路３０９巷７號","OBJECTID":429452},"geometry":{"x":195597.52000000048,"y":2558296.9299999997}},{"attributes":{"ID":429478,"DIS_CODE":0,"TOWNNAME":"玉井區","LI":"玉田里","LIN":"34鄰","STREET":"大勇街","SECT":" ","MAREA":" ","LANE":"６２巷","ALLEY":" ","HOUSE_NO":"７號","E_COORD97":195560.82000000001,"N_COORD97":2558234.2599999998,"ADDRESS":"大勇街６２巷７號","OBJECTID":429453},"geometry":{"x":195560.8200000003,"y":2558234.2599999998}},{"attributes":{"ID":429479,"DIS_CODE":0,"TOWNNAME":"玉井區","LI":"玉田里","LIN":"5鄰","STREET":"中華路","SECT":" ","MAREA":" ","LANE":"２５巷","ALLEY":" ","HOUSE_NO":"１８號","E_COORD97":194987.04999999999,"N_COORD97":2558138.25,"ADDRESS":"中華路２５巷１８號","OBJECTID":429454},"geometry":{"x":194987.05000000075,"y":2558138.2500000019}},{"attributes":{"ID":429480,"DIS_CODE":0,"TOWNNAME":"玉井區","LI":"玉田里","LIN":"25鄰","STREET":"信義街","SECT":" ","MAREA":" ","LANE":"２２巷","ALLEY":" ","HOUSE_NO":"１５號","E_COORD97":195177.45999999999,"N_COORD97":2557602.27,"ADDRESS":"信義街２２巷１５號","OBJECTID":429455},"geometry":{"x":195177.46000000089,"y":2557602.2699999996}},{"attributes":{"ID":429481,"DIS_CODE":0,"TOWNNAME":"玉井區","LI":"玉田里","LIN":"43鄰","STREET":"忠孝街","SECT":" ","MAREA":" ","LANE":"９巷","ALLEY":" ","HOUSE_NO":"２３號","E_COORD97":195558.89000000001,"N_COORD97":2557685.2400000002,"ADDRESS":"忠孝街９巷２３號","OBJECTID":429456},"geometry":{"x":195558.89000000153,"y":2557685.2400000002}},{"attributes":{"ID":429482,"DIS_CODE":0,"TOWNNAME":"玉井區","LI":"玉田里","LIN":"4鄰","STREET":"民主街","SECT":" ","MAREA":" ","LANE":"１３９巷","ALLEY":" ","HOUSE_NO":"５號","E_COORD97":195063.79000000001,"N_COORD97":2558204.2799999998,"ADDRESS":"民主街１３９巷５號","OBJECTID":429457},"geometry":{"x":195063.79000000097,"y":2558204.2800000012}},{"attributes":{"ID":429483,"DIS_CODE":0,"TOWNNAME":"玉井區","LI":"玉田里","LIN":"25鄰","STREET":"信義街","SECT":" ","MAREA":" ","LANE":"６２巷","ALLEY":" ","HOUSE_NO":"７號","E_COORD97":195214.51000000001,"N_COORD97":2557615.27,"ADDRESS":"信義街６２巷７號","OBJECTID":429458},"geometry":{"x":195214.51000000071,"y":2557615.2700000014}},{"attributes":{"ID":429484,"DIS_CODE":0,"TOWNNAME":"鹽水區","LI":"橋南里","LIN":" ","STREET":"南門路","SECT":" ","MAREA":" ","LANE":"２０１巷","ALLEY":" ","HOUSE_NO":"３７號","E_COORD97":175503.76000000001,"N_COORD97":2578972.8199999998,"ADDRESS":"南門路２０１巷３７號","OBJECTID":429459},"geometry":{"x":175503.75999999978,"y":2578972.8200000003}},{"attributes":{"ID":429485,"DIS_CODE":0,"TOWNNAME":"鹽水區","LI":"橋南里","LIN":" ","STREET":"南門路","SECT":" ","MAREA":" ","LANE":"２０１巷","ALLEY":" ","HOUSE_NO":"５３號","E_COORD97":175543.54000000001,"N_COORD97":2578966.3999999999,"ADDRESS":"南門路２０１巷５３號","OBJECTID":429460},"geometry":{"x":175543.54000000097,"y":2578966.3999999985}},{"attributes":{"ID":429486,"DIS_CODE":0,"TOWNNAME":"鹽水區","LI":"橋南里","LIN":" ","STREET":"南門路","SECT":" ","MAREA":" ","LANE":"８０巷","ALLEY":" ","HOUSE_NO":"１０號","E_COORD97":175129.39000000001,"N_COORD97":2579304.9900000002,"ADDRESS":"南門路８０巷１０號","OBJECTID":429461},"geometry":{"x":175129.38999999966,"y":2579304.9900000039}},{"attributes":{"ID":429487,"DIS_CODE":0,"TOWNNAME":"鹽水區","LI":"橋南里","LIN":" ","STREET":"南門路","SECT":" ","MAREA":" ","LANE":"８０巷","ALLEY":" ","HOUSE_NO":"５５號","E_COORD97":175069.53,"N_COORD97":2579165.6800000002,"ADDRESS":"南門路８０巷５５號","OBJECTID":429462},"geometry":{"x":175069.53000000119,"y":2579165.6800000016}},{"attributes":{"ID":429488,"DIS_CODE":0,"TOWNNAME":"鹽水區","LI":"三生里","LIN":" ","STREET":"朝琴路","SECT":" ","MAREA":" ","LANE":"５５巷","ALLEY":" ","HOUSE_NO":"２之２號","E_COORD97":175209.89999999999,"N_COORD97":2580066.52,"ADDRESS":"朝琴路５５巷２之２號","OBJECTID":429463},"geometry":{"x":175209.90000000037,"y":2580066.5199999977}},{"attributes":{"ID":429489,"DIS_CODE":0,"TOWNNAME":"鹽水區","LI":"橋南里","LIN":" ","STREET":"新太路","SECT":" ","MAREA":" ","LANE":"１巷","ALLEY":" ","HOUSE_NO":"１０號","E_COORD97":175557.73999999999,"N_COORD97":2578679.29,"ADDRESS":"新太路１巷１０號","OBJECTID":429464},"geometry":{"x":175557.74000000115,"y":2578679.290000001}},{"attributes":{"ID":429490,"DIS_CODE":0,"TOWNNAME":"鹽水區","LI":"橋南里","LIN":" ","STREET":"新太路","SECT":" ","MAREA":" ","LANE":"１巷","ALLEY":" ","HOUSE_NO":"３７號","E_COORD97":175603.16,"N_COORD97":2578707.6200000001,"ADDRESS":"新太路１巷３７號","OBJECTID":429465},"geometry":{"x":175603.16000000015,"y":2578707.620000001}},{"attributes":{"ID":429491,"DIS_CODE":0,"TOWNNAME":"鹽水區","LI":"橋南里","LIN":" ","STREET":"橋南街","SECT":" ","MAREA":" ","LANE":"１１巷","ALLEY":" ","HOUSE_NO":"６號","E_COORD97":175184.51000000001,"N_COORD97":2579513.54,"ADDRESS":"橋南街１１巷６號","OBJECTID":429466},"geometry":{"x":175184.50999999978,"y":2579513.5400000028}},{"attributes":{"ID":429492,"DIS_CODE":0,"TOWNNAME":"學甲區","LI":"仁得里","LIN":"1鄰","STREET":"自強路","SECT":" ","MAREA":" ","LANE":"７巷","ALLEY":" ","HOUSE_NO":"２２號","E_COORD97":166332.89999999999,"N_COORD97":2569762.6000000001,"ADDRESS":"自強路７巷２２號","OBJECTID":429467},"geometry":{"x":166332.9000000013,"y":2569762.5999999996}},{"attributes":{"ID":429493,"DIS_CODE":0,"TOWNNAME":"學甲區","LI":"仁得里","LIN":"1鄰","STREET":"自強路","SECT":" ","MAREA":" ","LANE":"７巷","ALLEY":" ","HOUSE_NO":"２４號","E_COORD97":166333.51000000001,"N_COORD97":2569758.2200000002,"ADDRESS":"自強路７巷２４號","OBJECTID":429468},"geometry":{"x":166333.51000000071,"y":2569758.2200000007}},{"attributes":{"ID":429494,"DIS_CODE":0,"TOWNNAME":"學甲區","LI":"仁得里","LIN":"1鄰","STREET":"自強路","SECT":" ","MAREA":" ","LANE":"７巷","ALLEY":" ","HOUSE_NO":"２５號","E_COORD97":166357.47,"N_COORD97":2569722.2799999998,"ADDRESS":"自強路７巷２５號","OBJECTID":429469},"geometry":{"x":166357.47000000067,"y":2569722.2800000012}},{"attributes":{"ID":429495,"DIS_CODE":0,"TOWNNAME":"學甲區","LI":"仁得里","LIN":"1鄰","STREET":"自強路","SECT":" ","MAREA":" ","LANE":"７巷","ALLEY":" ","HOUSE_NO":"２號","E_COORD97":166326.73000000001,"N_COORD97":2569803.7799999998,"ADDRESS":"自強路７巷２號","OBJECTID":429470},"geometry":{"x":166326.73000000045,"y":2569803.7799999993}},{"attributes":{"ID":429496,"DIS_CODE":0,"TOWNNAME":"學甲區","LI":"仁得里","LIN":"1鄰","STREET":"自強路","SECT":" ","MAREA":" ","LANE":"７巷","ALLEY":" ","HOUSE_NO":"３０號","E_COORD97":166335.73000000001,"N_COORD97":2569743.0099999998,"ADDRESS":"自強路７巷３０號","OBJECTID":429471},"geometry":{"x":166335.73000000231,"y":2569743.0099999998}},{"attributes":{"ID":429497,"DIS_CODE":0,"TOWNNAME":"學甲區","LI":"仁得里","LIN":"1鄰","STREET":"自強路","SECT":" ","MAREA":" ","LANE":"７巷","ALLEY":" ","HOUSE_NO":"３２號","E_COORD97":166336.70000000001,"N_COORD97":2569739.0899999999,"ADDRESS":"自強路７巷３２號","OBJECTID":429472},"geometry":{"x":166336.70000000019,"y":2569739.0899999999}},{"attributes":{"ID":429498,"DIS_CODE":0,"TOWNNAME":"學甲區","LI":"仁得里","LIN":"1鄰","STREET":"自強路","SECT":" ","MAREA":" ","LANE":"７巷","ALLEY":" ","HOUSE_NO":"３４號","E_COORD97":166337.57000000001,"N_COORD97":2569735.2000000002,"ADDRESS":"自強路７巷３４號","OBJECTID":429473},"geometry":{"x":166337.5700000003,"y":2569735.2000000011}},{"attributes":{"ID":429499,"DIS_CODE":0,"TOWNNAME":"學甲區","LI":"仁得里","LIN":"1鄰","STREET":"自強路","SECT":" ","MAREA":" ","LANE":"７巷","ALLEY":" ","HOUSE_NO":"３６號","E_COORD97":166338.53,"N_COORD97":2569730.8999999999,"ADDRESS":"自強路７巷３６號","OBJECTID":429474},"geometry":{"x":166338.53000000212,"y":2569730.8999999985}},{"attributes":{"ID":429500,"DIS_CODE":0,"TOWNNAME":"學甲區","LI":"仁得里","LIN":"1鄰","STREET":"自強路","SECT":" ","MAREA":" ","LANE":"７巷","ALLEY":" ","HOUSE_NO":"３８號","E_COORD97":166339.17999999999,"N_COORD97":2569727.3900000001,"ADDRESS":"自強路７巷３８號","OBJECTID":429475},"geometry":{"x":166339.18000000063,"y":2569727.3900000006}},{"attributes":{"ID":429501,"DIS_CODE":0,"TOWNNAME":"學甲區","LI":"仁得里","LIN":"1鄰","STREET":"自強路","SECT":" ","MAREA":" ","LANE":"７巷","ALLEY":" ","HOUSE_NO":"３號","E_COORD97":166345.37,"N_COORD97":2569803.0800000001,"ADDRESS":"自強路７巷３號","OBJECTID":429476},"geometry":{"x":166345.37000000011,"y":2569803.0800000001}},{"attributes":{"ID":429502,"DIS_CODE":0,"TOWNNAME":"學甲區","LI":"明宜里","LIN":"14鄰","STREET":"和平路","SECT":" ","MAREA":" ","LANE":"２９８巷","ALLEY":" ","HOUSE_NO":"１號","E_COORD97":166024.67999999999,"N_COORD97":2570473.04,"ADDRESS":"和平路２９８巷１號","OBJECTID":429477},"geometry":{"x":166024.6799999997,"y":2570473.040000001}},{"attributes":{"ID":429503,"DIS_CODE":0,"TOWNNAME":"學甲區","LI":"明宜里","LIN":"14鄰","STREET":"和平路","SECT":" ","MAREA":" ","LANE":"２９８巷","ALLEY":" ","HOUSE_NO":"３號","E_COORD97":166031.51999999999,"N_COORD97":2570475.73,"ADDRESS":"和平路２９８巷３號","OBJECTID":429478},"geometry":{"x":166031.52000000048,"y":2570475.7300000023}},{"attributes":{"ID":429504,"DIS_CODE":0,"TOWNNAME":"學甲區","LI":"明宜里","LIN":"14鄰","STREET":"和平路","SECT":" ","MAREA":" ","LANE":"２９８巷","ALLEY":" ","HOUSE_NO":"５號","E_COORD97":166040.89000000001,"N_COORD97":2570472.6600000001,"ADDRESS":"和平路２９８巷５號","OBJECTID":429479},"geometry":{"x":166040.8900000006,"y":2570472.660000002}},{"attributes":{"ID":429505,"DIS_CODE":0,"TOWNNAME":"學甲區","LI":"明宜里","LIN":"14鄰","STREET":"和平路","SECT":" ","MAREA":" ","LANE":"２９８巷","ALLEY":" ","HOUSE_NO":"７號","E_COORD97":166048.31,"N_COORD97":2570471.3199999998,"ADDRESS":"和平路２９８巷７號","OBJECTID":429480},"geometry":{"x":166048.31000000052,"y":2570471.3200000022}},{"attributes":{"ID":429506,"DIS_CODE":0,"TOWNNAME":"學甲區","LI":"明宜里","LIN":"8鄰","STREET":"信義路","SECT":" ","MAREA":" ","LANE":"５９巷","ALLEY":" ","HOUSE_NO":"１０號","E_COORD97":165841,"N_COORD97":2570528.6400000001,"ADDRESS":"信義路５９巷１０號","OBJECTID":429481},"geometry":{"x":165841,"y":2570528.6400000006}},{"attributes":{"ID":429507,"DIS_CODE":0,"TOWNNAME":"學甲區","LI":"明宜里","LIN":"8鄰","STREET":"信義路","SECT":" ","MAREA":" ","LANE":"５９巷","ALLEY":" ","HOUSE_NO":"１２號","E_COORD97":165829.25,"N_COORD97":2570531.3999999999,"ADDRESS":"信義路５９巷１２號","OBJECTID":429482},"geometry":{"x":165829.25,"y":2570531.4000000041}},{"attributes":{"ID":429508,"DIS_CODE":0,"TOWNNAME":"學甲區","LI":"明宜里","LIN":"7鄰","STREET":"信義路","SECT":" ","MAREA":" ","LANE":"５９巷","ALLEY":" ","HOUSE_NO":"１１號","E_COORD97":165840.66,"N_COORD97":2570512.25,"ADDRESS":"信義路５９巷１１號","OBJECTID":429483},"geometry":{"x":165840.66000000015,"y":2570512.2500000019}},{"attributes":{"ID":429509,"DIS_CODE":0,"TOWNNAME":"學甲區","LI":"明宜里","LIN":"7鄰","STREET":"信義路","SECT":" ","MAREA":" ","LANE":"５９巷","ALLEY":" ","HOUSE_NO":"１３號之１","E_COORD97":165829.53,"N_COORD97":2570514.77,"ADDRESS":"信義路５９巷１３號之１","OBJECTID":429484},"geometry":{"x":165829.53000000026,"y":2570514.7700000014}},{"attributes":{"ID":429510,"DIS_CODE":0,"TOWNNAME":"學甲區","LI":"明宜里","LIN":"7鄰","STREET":"信義路","SECT":" ","MAREA":" ","LANE":"５９巷","ALLEY":" ","HOUSE_NO":"１３號","E_COORD97":165833.5,"N_COORD97":2570513.5099999998,"ADDRESS":"信義路５９巷１３號","OBJECTID":429485},"geometry":{"x":165833.50000000093,"y":2570513.5100000016}},{"attributes":{"ID":429511,"DIS_CODE":0,"TOWNNAME":"北區","LI":"和順里","LIN":"13鄰","STREET":"民德路","SECT":" ","MAREA":" ","LANE":"１０５巷","ALLEY":" ","HOUSE_NO":"１８號","E_COORD97":168120.88,"N_COORD97":2545157.9199999999,"ADDRESS":"民德路１０５巷１８號","OBJECTID":429486},"geometry":{"x":168120.88000000175,"y":2545157.9200000018}},{"attributes":{"ID":429512,"DIS_CODE":0,"TOWNNAME":"北區","LI":"和順里","LIN":"17鄰","STREET":"臨安路","SECT":"二段","MAREA":" ","LANE":"２４９巷","ALLEY":" ","HOUSE_NO":"１０號之１","E_COORD97":168080.84,"N_COORD97":2545044.9199999999,"ADDRESS":"臨安路二段２４９巷１０號之１","OBJECTID":429487},"geometry":{"x":168080.84000000078,"y":2545044.9199999999}},{"attributes":{"ID":429513,"DIS_CODE":0,"TOWNNAME":"七股區","LI":"樹林里","LIN":"9鄰","STREET":" ","SECT":" ","MAREA":"樹林","LANE":" ","ALLEY":" ","HOUSE_NO":"８５號","E_COORD97":163906.14525,"N_COORD97":2557011.4382199999,"ADDRESS":"樹林８５號","OBJECTID":429488},"geometry":{"x":163906.14525000006,"y":2557011.4382200018}},{"attributes":{"ID":429514,"DIS_CODE":0,"TOWNNAME":"北區","LI":"和順里","LIN":"20鄰","STREET":"民德路","SECT":" ","MAREA":" ","LANE":"８５巷","ALLEY":" ","HOUSE_NO":"１０號","E_COORD97":168220.75,"N_COORD97":2545097.8999999999,"ADDRESS":"民德路８５巷１０號","OBJECTID":429489},"geometry":{"x":168220.75000000093,"y":2545097.9000000022}},{"attributes":{"ID":429515,"DIS_CODE":0,"TOWNNAME":"北區","LI":"和順里","LIN":"20鄰","STREET":"民德路","SECT":" ","MAREA":" ","LANE":"８５巷","ALLEY":" ","HOUSE_NO":"１２號","E_COORD97":168216.57000000001,"N_COORD97":2545096.6099999999,"ADDRESS":"民德路８５巷１２號","OBJECTID":429490},"geometry":{"x":168216.57000000216,"y":2545096.6099999994}},{"attributes":{"ID":429516,"DIS_CODE":0,"TOWNNAME":"北區","LI":"和順里","LIN":"17鄰","STREET":"臨安路","SECT":"二段","MAREA":" ","LANE":"２４９巷","ALLEY":" ","HOUSE_NO":"１２號","E_COORD97":168077.82000000001,"N_COORD97":2545052.54,"ADDRESS":"臨安路二段２４９巷１２號","OBJECTID":429491},"geometry":{"x":168077.82000000123,"y":2545052.5399999991}},{"attributes":{"ID":429517,"DIS_CODE":0,"TOWNNAME":"楠西區","LI":"楠西里","LIN":"20鄰","STREET":"民族路","SECT":" ","MAREA":" ","LANE":"３５巷","ALLEY":" ","HOUSE_NO":"３號","E_COORD97":197060.44,"N_COORD97":2563910.29,"ADDRESS":"民族路３５巷３號","OBJECTID":429492},"geometry":{"x":197060.44000000041,"y":2563910.290000001}},{"attributes":{"ID":429518,"DIS_CODE":0,"TOWNNAME":"北區","LI":"和順里","LIN":"17鄰","STREET":"臨安路","SECT":"二段","MAREA":" ","LANE":"２４９巷","ALLEY":" ","HOUSE_NO":"１４號之１","E_COORD97":168075.23000000001,"N_COORD97":2545059.4399999999,"ADDRESS":"臨安路二段２４９巷１４號之１","OBJECTID":429493},"geometry":{"x":168075.23000000138,"y":2545059.4400000013}},{"attributes":{"ID":429519,"DIS_CODE":0,"TOWNNAME":"北區","LI":"和順里","LIN":"17鄰","STREET":"臨安路","SECT":"二段","MAREA":" ","LANE":"２４９巷","ALLEY":" ","HOUSE_NO":"１６號","E_COORD97":168072.48999999999,"N_COORD97":2545066.2000000002,"ADDRESS":"臨安路二段２４９巷１６號","OBJECTID":429494},"geometry":{"x":168072.49000000022,"y":2545066.1999999974}},{"attributes":{"ID":429520,"DIS_CODE":0,"TOWNNAME":"北區","LI":"和順里","LIN":"20鄰","STREET":"民德路","SECT":" ","MAREA":" ","LANE":"８５巷","ALLEY":" ","HOUSE_NO":"２號","E_COORD97":168236.73000000001,"N_COORD97":2545103.7999999998,"ADDRESS":"民德路８５巷２號","OBJECTID":429495},"geometry":{"x":168236.73000000138,"y":2545103.8000000007}},{"attributes":{"ID":429521,"DIS_CODE":0,"TOWNNAME":"北區","LI":"和順里","LIN":"21鄰","STREET":"民德路","SECT":" ","MAREA":" ","LANE":"８５巷","ALLEY":" ","HOUSE_NO":"１１號","E_COORD97":168237.88,"N_COORD97":2545077.48,"ADDRESS":"民德路８５巷１１號","OBJECTID":429496},"geometry":{"x":168237.88000000082,"y":2545077.4800000023}},{"attributes":{"ID":429522,"DIS_CODE":0,"TOWNNAME":"北區","LI":"和順里","LIN":"21鄰","STREET":"民德路","SECT":" ","MAREA":" ","LANE":"８５巷","ALLEY":" ","HOUSE_NO":"１３號","E_COORD97":168234.28,"N_COORD97":2545075.8999999999,"ADDRESS":"民德路８５巷１３號","OBJECTID":429497},"geometry":{"x":168234.28000000119,"y":2545075.9000000004}},{"attributes":{"ID":429523,"DIS_CODE":0,"TOWNNAME":"北區","LI":"和順里","LIN":"21鄰","STREET":"民德路","SECT":" ","MAREA":" ","LANE":"８５巷","ALLEY":" ","HOUSE_NO":"１５號","E_COORD97":168230.67999999999,"N_COORD97":2545073.6000000001,"ADDRESS":"民德路８５巷１５號","OBJECTID":429498},"geometry":{"x":168230.68000000063,"y":2545073.5999999996}},{"attributes":{"ID":429524,"DIS_CODE":0,"TOWNNAME":"北區","LI":"六甲里","LIN":"9鄰","STREET":"公園路","SECT":" ","MAREA":" ","LANE":"５９３巷","ALLEY":" ","HOUSE_NO":"７號","E_COORD97":169140.09,"N_COORD97":2546002.8999999999,"ADDRESS":"公園路５９３巷７號","OBJECTID":429499},"geometry":{"x":169140.09000000078,"y":2546002.9000000022}},{"attributes":{"ID":429525,"DIS_CODE":0,"TOWNNAME":"北區","LI":"裕民里","LIN":"4鄰","STREET":"成功路","SECT":" ","MAREA":" ","LANE":"５０４巷","ALLEY":" ","HOUSE_NO":"７０號","E_COORD97":167762.97,"N_COORD97":2544798.1400000001,"ADDRESS":"成功路５０４巷７０號","OBJECTID":429500},"geometry":{"x":167762.97000000067,"y":2544798.1400000025}},{"attributes":{"ID":429526,"DIS_CODE":0,"TOWNNAME":"北區","LI":"裕民里","LIN":"4鄰","STREET":"成功路","SECT":" ","MAREA":" ","LANE":"５０４巷","ALLEY":" ","HOUSE_NO":"７１號","E_COORD97":167772.48000000001,"N_COORD97":2544819.3100000001,"ADDRESS":"成功路５０４巷７１號","OBJECTID":429501},"geometry":{"x":167772.48000000045,"y":2544819.3100000042}},{"attributes":{"ID":429527,"DIS_CODE":0,"TOWNNAME":"北區","LI":"裕民里","LIN":"4鄰","STREET":"成功路","SECT":" ","MAREA":" ","LANE":"５０４巷","ALLEY":" ","HOUSE_NO":"７３號","E_COORD97":167777.06,"N_COORD97":2544817.8999999999,"ADDRESS":"成功路５０４巷７３號","OBJECTID":429502},"geometry":{"x":167777.06000000052,"y":2544817.9000000004}},{"attributes":{"ID":429528,"DIS_CODE":0,"TOWNNAME":"北區","LI":"裕民里","LIN":"4鄰","STREET":"成功路","SECT":" ","MAREA":" ","LANE":"５０４巷","ALLEY":" ","HOUSE_NO":"７５號","E_COORD97":167781.98999999999,"N_COORD97":2544815.79,"ADDRESS":"成功路５０４巷７５號","OBJECTID":429503},"geometry":{"x":167781.99000000115,"y":2544815.790000001}},{"attributes":{"ID":429529,"DIS_CODE":0,"TOWNNAME":"北區","LI":"裕民里","LIN":"4鄰","STREET":"臨安路","SECT":"二段","MAREA":" ","LANE":"５０巷","ALLEY":" ","HOUSE_NO":"３１號","E_COORD97":167737.97,"N_COORD97":2544746.0899999999,"ADDRESS":"臨安路二段５０巷３１號","OBJECTID":429504},"geometry":{"x":167737.96999999974,"y":2544746.0900000017}},{"attributes":{"ID":429530,"DIS_CODE":0,"TOWNNAME":"北區","LI":"裕民里","LIN":"4鄰","STREET":"臨安路","SECT":"二段","MAREA":" ","LANE":"５０巷","ALLEY":" ","HOUSE_NO":"３３號","E_COORD97":167741.14000000001,"N_COORD97":2544743.6200000001,"ADDRESS":"臨安路二段５０巷３３號","OBJECTID":429505},"geometry":{"x":167741.1400000006,"y":2544743.6200000029}},{"attributes":{"ID":429531,"DIS_CODE":0,"TOWNNAME":"北區","LI":"裕民里","LIN":"4鄰","STREET":"臨安路","SECT":"二段","MAREA":" ","LANE":"５０巷","ALLEY":" ","HOUSE_NO":"３５號","E_COORD97":167745.35999999999,"N_COORD97":2544741.5099999998,"ADDRESS":"臨安路二段５０巷３５號","OBJECTID":429506},"geometry":{"x":167745.36000000127,"y":2544741.5099999998}},{"attributes":{"ID":429532,"DIS_CODE":0,"TOWNNAME":"北區","LI":"裕民里","LIN":"4鄰","STREET":"臨安路","SECT":"二段","MAREA":" ","LANE":"５０巷","ALLEY":" ","HOUSE_NO":"３７號","E_COORD97":167748.53,"N_COORD97":2544739.7599999998,"ADDRESS":"臨安路二段５０巷３７號","OBJECTID":429507},"geometry":{"x":167748.53000000026,"y":2544739.7599999998}},{"attributes":{"ID":429533,"DIS_CODE":0,"TOWNNAME":"北區","LI":"裕民里","LIN":"4鄰","STREET":"臨安路","SECT":"二段","MAREA":" ","LANE":"５０巷","ALLEY":" ","HOUSE_NO":"３９號","E_COORD97":167754.87,"N_COORD97":2544736.9399999999,"ADDRESS":"臨安路二段５０巷３９號","OBJECTID":429508},"geometry":{"x":167754.87000000197,"y":2544736.9400000013}},{"attributes":{"ID":429534,"DIS_CODE":0,"TOWNNAME":"北區","LI":"裕民里","LIN":"4鄰","STREET":"臨安路","SECT":"二段","MAREA":" ","LANE":"５０巷","ALLEY":" ","HOUSE_NO":"４１號","E_COORD97":167759.10000000001,"N_COORD97":2544734.8300000001,"ADDRESS":"臨安路二段５０巷４１號","OBJECTID":429509},"geometry":{"x":167759.09999999963,"y":2544734.8300000019}},{"attributes":{"ID":429535,"DIS_CODE":0,"TOWNNAME":"北區","LI":"裕民里","LIN":"4鄰","STREET":"臨安路","SECT":"二段","MAREA":" ","LANE":"５０巷","ALLEY":" ","HOUSE_NO":"４３號","E_COORD97":167763.67999999999,"N_COORD97":2544734.1299999999,"ADDRESS":"臨安路二段５０巷４３號","OBJECTID":429510},"geometry":{"x":167763.6799999997,"y":2544734.1300000027}},{"attributes":{"ID":429536,"DIS_CODE":0,"TOWNNAME":"北區","LI":"裕民里","LIN":"3鄰","STREET":"臨安路","SECT":"二段","MAREA":" ","LANE":"５０巷","ALLEY":" ","HOUSE_NO":"２６號","E_COORD97":167728.92999999999,"N_COORD97":2544734.7599999998,"ADDRESS":"臨安路二段５０巷２６號","OBJECTID":429511},"geometry":{"x":167728.93000000063,"y":2544734.7600000016}},{"attributes":{"ID":429537,"DIS_CODE":0,"TOWNNAME":"北區","LI":"裕民里","LIN":"3鄰","STREET":"臨安路","SECT":"二段","MAREA":" ","LANE":"５０巷","ALLEY":" ","HOUSE_NO":"２８號","E_COORD97":167731.98999999999,"N_COORD97":2544732.6600000001,"ADDRESS":"臨安路二段５０巷２８號","OBJECTID":429512},"geometry":{"x":167731.99000000022,"y":2544732.660000002}},{"attributes":{"ID":429538,"DIS_CODE":0,"TOWNNAME":"北區","LI":"裕民里","LIN":"3鄰","STREET":"臨安路","SECT":"二段","MAREA":" ","LANE":"５０巷","ALLEY":" ","HOUSE_NO":"３０號","E_COORD97":167735.82000000001,"N_COORD97":2544730.9399999999,"ADDRESS":"臨安路二段５０巷３０號","OBJECTID":429513},"geometry":{"x":167735.82000000123,"y":2544730.9400000013}},{"attributes":{"ID":429539,"DIS_CODE":0,"TOWNNAME":"北區","LI":"裕民里","LIN":"3鄰","STREET":"臨安路","SECT":"二段","MAREA":" ","LANE":"５０巷","ALLEY":" ","HOUSE_NO":"３２號","E_COORD97":167739.82999999999,"N_COORD97":2544730.3700000001,"ADDRESS":"臨安路二段５０巷３２號","OBJECTID":429514},"geometry":{"x":167739.83000000194,"y":2544730.370000001}},{"attributes":{"ID":429540,"DIS_CODE":0,"TOWNNAME":"北區","LI":"裕民里","LIN":"3鄰","STREET":"臨安路","SECT":"二段","MAREA":" ","LANE":"５０巷","ALLEY":" ","HOUSE_NO":"３４號","E_COORD97":167743.28,"N_COORD97":2544728.0699999998,"ADDRESS":"臨安路二段５０巷３４號","OBJECTID":429515},"geometry":{"x":167743.28000000026,"y":2544728.0700000003}},{"attributes":{"ID":429541,"DIS_CODE":0,"TOWNNAME":"北區","LI":"裕民里","LIN":"6鄰","STREET":"臨安路","SECT":"二段","MAREA":" ","LANE":"５０巷","ALLEY":" ","HOUSE_NO":"１１號","E_COORD97":167682.19,"N_COORD97":2544767.8799999999,"ADDRESS":"臨安路二段５０巷１１號","OBJECTID":429516},"geometry":{"x":167682.19000000134,"y":2544767.8800000008}},{"attributes":{"ID":429542,"DIS_CODE":0,"TOWNNAME":"北區","LI":"裕民里","LIN":"6鄰","STREET":"臨安路","SECT":"二段","MAREA":" ","LANE":"５０巷","ALLEY":" ","HOUSE_NO":"１３號","E_COORD97":167687.12,"N_COORD97":2544767.1699999999,"ADDRESS":"臨安路二段５０巷１３號","OBJECTID":429517},"geometry":{"x":167687.12000000197,"y":2544767.1700000018}},{"attributes":{"ID":429543,"DIS_CODE":0,"TOWNNAME":"北區","LI":"裕民里","LIN":"6鄰","STREET":"臨安路","SECT":"二段","MAREA":" ","LANE":"５０巷","ALLEY":" ","HOUSE_NO":"１５號","E_COORD97":167691.70000000001,"N_COORD97":2544765.77,"ADDRESS":"臨安路二段５０巷１５號","OBJECTID":429518},"geometry":{"x":167691.70000000205,"y":2544765.7700000014}},{"attributes":{"ID":429544,"DIS_CODE":0,"TOWNNAME":"北區","LI":"裕民里","LIN":"6鄰","STREET":"臨安路","SECT":"二段","MAREA":" ","LANE":"５０巷","ALLEY":" ","HOUSE_NO":"１７號","E_COORD97":167695.92999999999,"N_COORD97":2544765.0600000001,"ADDRESS":"臨安路二段５０巷１７號","OBJECTID":429519},"geometry":{"x":167695.9299999997,"y":2544765.0600000024}},{"attributes":{"ID":429545,"DIS_CODE":0,"TOWNNAME":"北區","LI":"裕民里","LIN":"6鄰","STREET":"臨安路","SECT":"二段","MAREA":" ","LANE":"５０巷","ALLEY":" ","HOUSE_NO":"１號","E_COORD97":167657.73000000001,"N_COORD97":2544779.3500000001,"ADDRESS":"臨安路二段５０巷１號","OBJECTID":429520},"geometry":{"x":167657.73000000045,"y":2544779.3499999996}},{"attributes":{"ID":429546,"DIS_CODE":0,"TOWNNAME":"北區","LI":"裕民里","LIN":"6鄰","STREET":"臨安路","SECT":"二段","MAREA":" ","LANE":"５０巷","ALLEY":" ","HOUSE_NO":"３號","E_COORD97":167662.35000000001,"N_COORD97":2544777.0499999998,"ADDRESS":"臨安路二段５０巷３號","OBJECTID":429521},"geometry":{"x":167662.34999999963,"y":2544777.0500000007}},{"attributes":{"ID":429547,"DIS_CODE":0,"TOWNNAME":"北區","LI":"裕民里","LIN":"6鄰","STREET":"臨安路","SECT":"二段","MAREA":" ","LANE":"５０巷","ALLEY":" ","HOUSE_NO":"５號","E_COORD97":167665.98000000001,"N_COORD97":2544775.73,"ADDRESS":"臨安路二段５０巷５號","OBJECTID":429522},"geometry":{"x":167665.98000000045,"y":2544775.7300000042}},{"attributes":{"ID":429548,"DIS_CODE":0,"TOWNNAME":"北區","LI":"裕民里","LIN":"6鄰","STREET":"臨安路","SECT":"二段","MAREA":" ","LANE":"５０巷","ALLEY":" ","HOUSE_NO":"７號","E_COORD97":167669.28,"N_COORD97":2544773.4199999999,"ADDRESS":"臨安路二段５０巷７號","OBJECTID":429523},"geometry":{"x":167669.28000000212,"y":2544773.4199999999}},{"attributes":{"ID":429549,"DIS_CODE":0,"TOWNNAME":"北區","LI":"裕民里","LIN":"6鄰","STREET":"臨安路","SECT":"二段","MAREA":" ","LANE":"５０巷","ALLEY":" ","HOUSE_NO":"９號","E_COORD97":167673.23000000001,"N_COORD97":2544772.4399999999,"ADDRESS":"臨安路二段５０巷９號","OBJECTID":429524},"geometry":{"x":167673.23000000231,"y":2544772.4399999995}},{"attributes":{"ID":429550,"DIS_CODE":0,"TOWNNAME":"北區","LI":"裕民里","LIN":"4鄰","STREET":"成功路","SECT":" ","MAREA":" ","LANE":"５０４巷","ALLEY":" ","HOUSE_NO":"７２號","E_COORD97":167772.82999999999,"N_COORD97":2544798.1400000001,"ADDRESS":"成功路５０４巷７２號","OBJECTID":429525},"geometry":{"x":167772.83000000101,"y":2544798.1400000025}},{"attributes":{"ID":429551,"DIS_CODE":0,"TOWNNAME":"北區","LI":"和順里","LIN":"18鄰","STREET":"民德路","SECT":" ","MAREA":" ","LANE":"９５巷","ALLEY":" ","HOUSE_NO":"１７號","E_COORD97":168186.92999999999,"N_COORD97":2545104.75,"ADDRESS":"民德路９５巷１７號","OBJECTID":429526},"geometry":{"x":168186.93000000063,"y":2545104.7500000019}},{"attributes":{"ID":429552,"DIS_CODE":0,"TOWNNAME":"北區","LI":"和順里","LIN":"20鄰","STREET":"民德路","SECT":" ","MAREA":" ","LANE":"８５巷","ALLEY":" ","HOUSE_NO":"３２號","E_COORD97":168177.85000000001,"N_COORD97":2545080.29,"ADDRESS":"民德路８５巷３２號","OBJECTID":429527},"geometry":{"x":168177.84999999963,"y":2545080.290000001}},{"attributes":{"ID":429553,"DIS_CODE":0,"TOWNNAME":"北區","LI":"大豐里","LIN":"8鄰","STREET":"文賢路","SECT":" ","MAREA":" ","LANE":"３１３巷","ALLEY":" ","HOUSE_NO":"８號","E_COORD97":167286.89999999999,"N_COORD97":2545257.5499999998,"ADDRESS":"文賢路３１３巷８號","OBJECTID":429528},"geometry":{"x":167286.90000000037,"y":2545257.5500000007}},{"attributes":{"ID":429554,"DIS_CODE":0,"TOWNNAME":"北區","LI":"實踐里","LIN":"18鄰","STREET":"大武街","SECT":" ","MAREA":" ","LANE":"２０５巷","ALLEY":" ","HOUSE_NO":"５號","E_COORD97":169612.67999999999,"N_COORD97":2546089.5699999998,"ADDRESS":"大武街２０５巷５號","OBJECTID":429529},"geometry":{"x":169612.68000000063,"y":2546089.5700000022}},{"attributes":{"ID":429555,"DIS_CODE":0,"TOWNNAME":"北區","LI":"興北里","LIN":"3鄰","STREET":"公園北路","SECT":" ","MAREA":" ","LANE":"７０巷","ALLEY":" ","HOUSE_NO":"３７號","E_COORD97":169176.14000000001,"N_COORD97":2545141.8999999999,"ADDRESS":"公園北路７０巷３７號","OBJECTID":429530},"geometry":{"x":169176.13999999966,"y":2545141.9000000022}},{"attributes":{"ID":429556,"DIS_CODE":0,"TOWNNAME":"北區","LI":"興北里","LIN":"3鄰","STREET":"公園北路","SECT":" ","MAREA":" ","LANE":"７０巷","ALLEY":" ","HOUSE_NO":"２５號","E_COORD97":169171.42999999999,"N_COORD97":2545132.25,"ADDRESS":"公園北路７０巷２５號","OBJECTID":429531},"geometry":{"x":169171.43000000063,"y":2545132.2500000019}},{"attributes":{"ID":429557,"DIS_CODE":0,"TOWNNAME":"北區","LI":"興北里","LIN":"3鄰","STREET":"公園北路","SECT":" ","MAREA":" ","LANE":"７０巷","ALLEY":" ","HOUSE_NO":"１３號","E_COORD97":169191.28,"N_COORD97":2545112.2799999998,"ADDRESS":"公園北路７０巷１３號","OBJECTID":429532},"geometry":{"x":169191.28000000026,"y":2545112.2799999993}},{"attributes":{"ID":429558,"DIS_CODE":0,"TOWNNAME":"北區","LI":"興北里","LIN":"3鄰","STREET":"公園北路","SECT":" ","MAREA":" ","LANE":"７０巷","ALLEY":" ","HOUSE_NO":"１５號","E_COORD97":169188.14999999999,"N_COORD97":2545115.1299999999,"ADDRESS":"公園北路７０巷１５號","OBJECTID":429533},"geometry":{"x":169188.1500000013,"y":2545115.1300000008}},{"attributes":{"ID":429559,"DIS_CODE":0,"TOWNNAME":"北區","LI":"文元里","LIN":"10鄰","STREET":"文賢路","SECT":" ","MAREA":" ","LANE":"１１２２巷","ALLEY":" ","HOUSE_NO":"６２號","E_COORD97":167497.32000000001,"N_COORD97":2546351.0899999999,"ADDRESS":"文賢路１１２２巷６２號","OBJECTID":429534},"geometry":{"x":167497.3200000003,"y":2546351.0899999999}},{"attributes":{"ID":429560,"DIS_CODE":0,"TOWNNAME":"北區","LI":"和順里","LIN":"4鄰","STREET":"西門路","SECT":"三段","MAREA":" ","LANE":"１７７巷","ALLEY":" ","HOUSE_NO":"１號","E_COORD97":168440.73999999999,"N_COORD97":2544979.3500000001,"ADDRESS":"西門路三段１７７巷１號","OBJECTID":429535},"geometry":{"x":168440.74000000209,"y":2544979.3499999996}},{"attributes":{"ID":429561,"DIS_CODE":0,"TOWNNAME":"北區","LI":"和順里","LIN":"4鄰","STREET":"西門路","SECT":"三段","MAREA":" ","LANE":"１７７巷","ALLEY":" ","HOUSE_NO":"２號","E_COORD97":168451.76999999999,"N_COORD97":2544995.9199999999,"ADDRESS":"西門路三段１７７巷２號","OBJECTID":429536},"geometry":{"x":168451.77000000142,"y":2544995.9200000018}},{"attributes":{"ID":429562,"DIS_CODE":0,"TOWNNAME":"北區","LI":"和順里","LIN":"4鄰","STREET":"西門路","SECT":"三段","MAREA":" ","LANE":"１７７巷","ALLEY":" ","HOUSE_NO":"３號","E_COORD97":168436.59,"N_COORD97":2544983.1800000002,"ADDRESS":"西門路三段１７７巷３號","OBJECTID":429537},"geometry":{"x":168436.59000000078,"y":2544983.1800000016}},{"attributes":{"ID":429563,"DIS_CODE":0,"TOWNNAME":"北區","LI":"和順里","LIN":"4鄰","STREET":"西門路","SECT":"三段","MAREA":" ","LANE":"１７７巷","ALLEY":" ","HOUSE_NO":"４號","E_COORD97":168448.06,"N_COORD97":2544999.1899999999,"ADDRESS":"西門路三段１７７巷４號","OBJECTID":429538},"geometry":{"x":168448.06000000145,"y":2544999.1900000013}},{"attributes":{"ID":429564,"DIS_CODE":0,"TOWNNAME":"北區","LI":"和順里","LIN":"4鄰","STREET":"西門路","SECT":"三段","MAREA":" ","LANE":"１７７巷","ALLEY":" ","HOUSE_NO":"５號","E_COORD97":168433.37,"N_COORD97":2544986.25,"ADDRESS":"西門路三段１７７巷５號","OBJECTID":429539},"geometry":{"x":168433.37000000104,"y":2544986.2500000019}},{"attributes":{"ID":429565,"DIS_CODE":0,"TOWNNAME":"北區","LI":"和順里","LIN":"6鄰","STREET":"西門路","SECT":"四段","MAREA":" ","LANE":"１巷","ALLEY":" ","HOUSE_NO":"１９號","E_COORD97":168354.42000000001,"N_COORD97":2545289.1099999999,"ADDRESS":"西門路四段１巷１９號","OBJECTID":429540},"geometry":{"x":168354.42000000179,"y":2545289.1100000013}},{"attributes":{"ID":429566,"DIS_CODE":0,"TOWNNAME":"北區","LI":"和順里","LIN":"6鄰","STREET":"育德路","SECT":" ","MAREA":" ","LANE":"３５巷","ALLEY":" ","HOUSE_NO":"１號","E_COORD97":168313.75,"N_COORD97":2545230.1600000001,"ADDRESS":"育德路３５巷１號","OBJECTID":429541},"geometry":{"x":168313.75000000093,"y":2545230.1600000039}},{"attributes":{"ID":429567,"DIS_CODE":0,"TOWNNAME":"北區","LI":"和順里","LIN":"25鄰","STREET":"西門路","SECT":"三段","MAREA":" ","LANE":"４５巷","ALLEY":" ","HOUSE_NO":"１２號","E_COORD97":168215.67000000001,"N_COORD97":2544724.6699999999,"ADDRESS":"西門路三段４５巷１２號","OBJECTID":429542},"geometry":{"x":168215.67000000086,"y":2544724.6699999981}},{"attributes":{"ID":429568,"DIS_CODE":0,"TOWNNAME":"北區","LI":"和順里","LIN":"25鄰","STREET":"西門路","SECT":"三段","MAREA":" ","LANE":"４５巷","ALLEY":" ","HOUSE_NO":"１４號","E_COORD97":168209.25,"N_COORD97":2544726.4399999999,"ADDRESS":"西門路三段４５巷１４號","OBJECTID":429543},"geometry":{"x":168209.25,"y":2544726.4400000013}},{"attributes":{"ID":429569,"DIS_CODE":0,"TOWNNAME":"北區","LI":"和順里","LIN":"25鄰","STREET":"西門路","SECT":"三段","MAREA":" ","LANE":"４５巷","ALLEY":" ","HOUSE_NO":"１６號","E_COORD97":168204.60000000001,"N_COORD97":2544727.1000000001,"ADDRESS":"西門路三段４５巷１６號","OBJECTID":429544},"geometry":{"x":168204.60000000056,"y":2544727.0999999996}},{"attributes":{"ID":429570,"DIS_CODE":0,"TOWNNAME":"北區","LI":"和順里","LIN":"25鄰","STREET":"西門路","SECT":"三段","MAREA":" ","LANE":"４５巷","ALLEY":" ","HOUSE_NO":"１８號","E_COORD97":168196.85000000001,"N_COORD97":2544728.21,"ADDRESS":"西門路三段４５巷１８號","OBJECTID":429545},"geometry":{"x":168196.8499999987,"y":2544728.2100000009}},{"attributes":{"ID":429571,"DIS_CODE":0,"TOWNNAME":"北區","LI":"和順里","LIN":"25鄰","STREET":"西門路","SECT":"三段","MAREA":" ","LANE":"４５巷","ALLEY":" ","HOUSE_NO":"２號","E_COORD97":168233.98000000001,"N_COORD97":2544719.8999999999,"ADDRESS":"西門路三段４５巷２號","OBJECTID":429546},"geometry":{"x":168233.98000000045,"y":2544719.9000000004}},{"attributes":{"ID":429572,"DIS_CODE":0,"TOWNNAME":"北區","LI":"和順里","LIN":"25鄰","STREET":"西門路","SECT":"三段","MAREA":" ","LANE":"４５巷","ALLEY":" ","HOUSE_NO":"４號","E_COORD97":168228.51999999999,"N_COORD97":2544721.5699999998,"ADDRESS":"西門路三段４５巷４號","OBJECTID":429547},"geometry":{"x":168228.52000000048,"y":2544721.5700000003}},{"attributes":{"ID":429573,"DIS_CODE":0,"TOWNNAME":"北區","LI":"六甲里","LIN":"14鄰","STREET":"西門路","SECT":"四段","MAREA":" ","LANE":"２８０巷","ALLEY":" ","HOUSE_NO":"１０號","E_COORD97":169014.17999999999,"N_COORD97":2545867.7599999998,"ADDRESS":"西門路四段２８０巷１０號","OBJECTID":429548},"geometry":{"x":169014.18000000063,"y":2545867.7600000016}},{"attributes":{"ID":429574,"DIS_CODE":0,"TOWNNAME":"北區","LI":"和順里","LIN":"25鄰","STREET":"西門路","SECT":"三段","MAREA":" ","LANE":"４５巷","ALLEY":" ","HOUSE_NO":"２６號","E_COORD97":168175.64000000001,"N_COORD97":2544740.9500000002,"ADDRESS":"西門路三段４５巷２６號","OBJECTID":429549},"geometry":{"x":168175.63999999966,"y":2544740.9499999993}},{"attributes":{"ID":429575,"DIS_CODE":0,"TOWNNAME":"北區","LI":"和順里","LIN":"25鄰","STREET":"西門路","SECT":"三段","MAREA":" ","LANE":"４５巷","ALLEY":" ","HOUSE_NO":"２８號","E_COORD97":168171.38,"N_COORD97":2544741.0800000001,"ADDRESS":"西門路三段４５巷２８號","OBJECTID":429550},"geometry":{"x":168171.37999999989,"y":2544741.0800000001}},{"attributes":{"ID":429576,"DIS_CODE":0,"TOWNNAME":"北區","LI":"和順里","LIN":"25鄰","STREET":"西門路","SECT":"三段","MAREA":" ","LANE":"４５巷","ALLEY":" ","HOUSE_NO":"３０號","E_COORD97":168167.53,"N_COORD97":2544740.6899999999,"ADDRESS":"西門路三段４５巷３０號","OBJECTID":429551},"geometry":{"x":168167.52999999933,"y":2544740.6899999995}},{"attributes":{"ID":429577,"DIS_CODE":0,"TOWNNAME":"北區","LI":"和順里","LIN":"25鄰","STREET":"西門路","SECT":"三段","MAREA":" ","LANE":"４５巷","ALLEY":" ","HOUSE_NO":"３２號","E_COORD97":168163.26999999999,"N_COORD97":2544740.5499999998,"ADDRESS":"西門路三段４５巷３２號","OBJECTID":429552},"geometry":{"x":168163.26999999955,"y":2544740.5500000026}},{"attributes":{"ID":429578,"DIS_CODE":0,"TOWNNAME":"北區","LI":"和順里","LIN":"25鄰","STREET":"西門路","SECT":"三段","MAREA":" ","LANE":"４５巷","ALLEY":" ","HOUSE_NO":"３４號","E_COORD97":168159.29000000001,"N_COORD97":2544740.5499999998,"ADDRESS":"西門路三段４５巷３４號","OBJECTID":429553},"geometry":{"x":168159.29000000097,"y":2544740.5500000026}},{"attributes":{"ID":429579,"DIS_CODE":0,"TOWNNAME":"歸仁區","LI":"媽廟里","LIN":"20鄰","STREET":"中正北路","SECT":"三段","MAREA":" ","LANE":"１６０巷","ALLEY":" ","HOUSE_NO":"５號","E_COORD97":177668.06,"N_COORD97":2543887.7200000002,"ADDRESS":"中正北路三段１６０巷５號","OBJECTID":429554},"geometry":{"x":177668.05999999959,"y":2543887.7200000044}},{"attributes":{"ID":429580,"DIS_CODE":0,"TOWNNAME":"歸仁區","LI":"八甲里","LIN":"20鄰","STREET":"大仁三街","SECT":" ","MAREA":" ","LANE":"２３巷","ALLEY":" ","HOUSE_NO":"１２號","E_COORD97":178297.94,"N_COORD97":2541359.25,"ADDRESS":"大仁三街２３巷１２號","OBJECTID":429555},"geometry":{"x":178297.94000000134,"y":2541359.2500000019}},{"attributes":{"ID":429581,"DIS_CODE":0,"TOWNNAME":"歸仁區","LI":"南興里","LIN":"32鄰","STREET":"民生北街","SECT":" ","MAREA":" ","LANE":"５０巷","ALLEY":" ","HOUSE_NO":"５５號","E_COORD97":176415.44,"N_COORD97":2541075.29,"ADDRESS":"民生北街５０巷５５號","OBJECTID":429556},"geometry":{"x":176415.44000000227,"y":2541075.2900000028}},{"attributes":{"ID":429582,"DIS_CODE":0,"TOWNNAME":"歸仁區","LI":"七甲里","LIN":"4鄰","STREET":"中正北路","SECT":"二段","MAREA":" ","LANE":"４７０巷","ALLEY":" ","HOUSE_NO":"３號","E_COORD97":177498.42000000001,"N_COORD97":2543169.2599999998,"ADDRESS":"中正北路二段４７０巷３號","OBJECTID":429557},"geometry":{"x":177498.42000000179,"y":2543169.2600000016}},{"attributes":{"ID":429583,"DIS_CODE":0,"TOWNNAME":"歸仁區","LI":"六甲里","LIN":"42鄰","STREET":"六甲二街","SECT":" ","MAREA":" ","LANE":"６９巷","ALLEY":" ","HOUSE_NO":"１０號","E_COORD97":175960.92000000001,"N_COORD97":2539340.25,"ADDRESS":"六甲二街６９巷１０號","OBJECTID":429558},"geometry":{"x":175960.92000000086,"y":2539340.2499999981}},{"attributes":{"ID":429584,"DIS_CODE":0,"TOWNNAME":"歸仁區","LI":"南保里","LIN":"5鄰","STREET":"文化街","SECT":"三段","MAREA":" ","LANE":"１８巷","ALLEY":" ","HOUSE_NO":"１９號","E_COORD97":176913.04000000001,"N_COORD97":2541277.3300000001,"ADDRESS":"文化街三段１８巷１９號","OBJECTID":429559},"geometry":{"x":176913.04000000097,"y":2541277.3300000019}},{"attributes":{"ID":429585,"DIS_CODE":0,"TOWNNAME":"歸仁區","LI":"南興里","LIN":"4鄰","STREET":"文化十二街","SECT":" ","MAREA":" ","LANE":"３３巷","ALLEY":" ","HOUSE_NO":"９號","E_COORD97":176423.79000000001,"N_COORD97":2541313.3300000001,"ADDRESS":"文化十二街３３巷９號","OBJECTID":429560},"geometry":{"x":176423.79000000004,"y":2541313.3300000038}},{"attributes":{"ID":429586,"DIS_CODE":0,"TOWNNAME":"歸仁區","LI":"八甲里","LIN":"5鄰","STREET":"大光二街","SECT":" ","MAREA":" ","LANE":"２６巷","ALLEY":" ","HOUSE_NO":"８號","E_COORD97":177949.01999999999,"N_COORD97":2541772.6099999999,"ADDRESS":"大光二街２６巷８號","OBJECTID":429561},"geometry":{"x":177949.01999999955,"y":2541772.6100000013}},{"attributes":{"ID":429587,"DIS_CODE":0,"TOWNNAME":"歸仁區","LI":"八甲里","LIN":"24鄰","STREET":"大德路","SECT":" ","MAREA":" ","LANE":"１２０巷","ALLEY":" ","HOUSE_NO":"４０號","E_COORD97":178129.14000000001,"N_COORD97":2541441.25,"ADDRESS":"大德路１２０巷４０號","OBJECTID":429562},"geometry":{"x":178129.1400000006,"y":2541441.25}},{"attributes":{"ID":429588,"DIS_CODE":0,"TOWNNAME":"歸仁區","LI":"八甲里","LIN":"24鄰","STREET":"大德路","SECT":" ","MAREA":" ","LANE":"１２０巷","ALLEY":" ","HOUSE_NO":"３７號","E_COORD97":178100.34,"N_COORD97":2541422.25,"ADDRESS":"大德路１２０巷３７號","OBJECTID":429563},"geometry":{"x":178100.33999999985,"y":2541422.2500000037}},{"attributes":{"ID":429589,"DIS_CODE":0,"TOWNNAME":"歸仁區","LI":"七甲里","LIN":"13鄰","STREET":"南潭一街","SECT":" ","MAREA":" ","LANE":"４２巷","ALLEY":" ","HOUSE_NO":"１０號","E_COORD97":175886.73999999999,"N_COORD97":2543034.25,"ADDRESS":"南潭一街４２巷１０號","OBJECTID":429564},"geometry":{"x":175886.74000000115,"y":2543034.2500000019}},{"attributes":{"ID":429590,"DIS_CODE":0,"TOWNNAME":"歸仁區","LI":"七甲里","LIN":"20鄰","STREET":"南丁路","SECT":" ","MAREA":" ","LANE":"７０２巷","ALLEY":" ","HOUSE_NO":"４２６號","E_COORD97":176757.843757,"N_COORD97":2543382.1468799999,"ADDRESS":"南丁路７０２巷４２６號","OBJECTID":429565},"geometry":{"x":176757.84375700075,"y":2543382.1468810011}},{"attributes":{"ID":429591,"DIS_CODE":0,"TOWNNAME":"歸仁區","LI":"七甲里","LIN":"13鄰","STREET":"南潭一街","SECT":" ","MAREA":" ","LANE":"４２巷","ALLEY":" ","HOUSE_NO":"１７號","E_COORD97":175859.04000000001,"N_COORD97":2543039.25,"ADDRESS":"南潭一街４２巷１７號","OBJECTID":429566},"geometry":{"x":175859.04000000097,"y":2543039.2500000037}},{"attributes":{"ID":429592,"DIS_CODE":0,"TOWNNAME":"歸仁區","LI":"八甲里","LIN":"14鄰","STREET":"大明三街","SECT":" ","MAREA":" ","LANE":"２１巷","ALLEY":" ","HOUSE_NO":"２號","E_COORD97":178089.42000000001,"N_COORD97":2541772.6099999999,"ADDRESS":"大明三街２１巷２號","OBJECTID":429567},"geometry":{"x":178089.41999999993,"y":2541772.6100000013}},{"attributes":{"ID":429593,"DIS_CODE":0,"TOWNNAME":"歸仁區","LI":"八甲里","LIN":"25鄰","STREET":"大德路","SECT":" ","MAREA":" ","LANE":"１３８巷","ALLEY":" ","HOUSE_NO":"３號","E_COORD97":178038.48999999999,"N_COORD97":2541407.25,"ADDRESS":"大德路１３８巷３號","OBJECTID":429568},"geometry":{"x":178038.49000000022,"y":2541407.25}},{"attributes":{"ID":429594,"DIS_CODE":0,"TOWNNAME":"歸仁區","LI":"六甲里","LIN":"41鄰","STREET":"民生十二街","SECT":" ","MAREA":" ","LANE":"２７巷","ALLEY":" ","HOUSE_NO":"１９號","E_COORD97":176043.79999999999,"N_COORD97":2539373.29,"ADDRESS":"民生十二街２７巷１９號","OBJECTID":429569},"geometry":{"x":176043.79999999981,"y":2539373.2900000028}},{"attributes":{"ID":429595,"DIS_CODE":0,"TOWNNAME":"歸仁區","LI":"六甲里","LIN":"41鄰","STREET":"民生十二街","SECT":" ","MAREA":" ","LANE":"２７巷","ALLEY":" ","HOUSE_NO":"１５號","E_COORD97":176047.89999999999,"N_COORD97":2539383.29,"ADDRESS":"民生十二街２７巷１５號","OBJECTID":429570},"geometry":{"x":176047.90000000224,"y":2539383.2900000028}},{"attributes":{"ID":429596,"DIS_CODE":0,"TOWNNAME":"歸仁區","LI":"六甲里","LIN":"41鄰","STREET":"民生十二街","SECT":" ","MAREA":" ","LANE":"２７巷","ALLEY":" ","HOUSE_NO":"７號","E_COORD97":176051.85000000001,"N_COORD97":2539403.29,"ADDRESS":"民生十二街２７巷７號","OBJECTID":429571},"geometry":{"x":176051.84999999963,"y":2539403.2899999991}},{"attributes":{"ID":429597,"DIS_CODE":0,"TOWNNAME":"歸仁區","LI":"大廟里","LIN":"17鄰","STREET":"大廟五街","SECT":" ","MAREA":" ","LANE":"７３巷","ALLEY":" ","HOUSE_NO":"１０號","E_COORD97":175992.53,"N_COORD97":2544344.0899999999,"ADDRESS":"大廟五街７３巷１０號","OBJECTID":429572},"geometry":{"x":175992.52999999933,"y":2544344.0899999999}},{"attributes":{"ID":429598,"DIS_CODE":0,"TOWNNAME":"南區","LI":"鯤鯓里","LIN":"19鄰","STREET":"鯤鯓路","SECT":" ","MAREA":" ","LANE":"１０２巷","ALLEY":" ","HOUSE_NO":"３９號","E_COORD97":165064.01999999999,"N_COORD97":2540196.3500000001,"ADDRESS":"鯤鯓路１０２巷３９號","OBJECTID":429573},"geometry":{"x":165064.01999999955,"y":2540196.3499999996}},{"attributes":{"ID":429599,"DIS_CODE":0,"TOWNNAME":"南區","LI":"鯤鯓里","LIN":"21鄰","STREET":"鯤鯓路","SECT":" ","MAREA":" ","LANE":"１８４巷","ALLEY":" ","HOUSE_NO":"１０號","E_COORD97":164938.17999999999,"N_COORD97":2540269.7200000002,"ADDRESS":"鯤鯓路１８４巷１０號","OBJECTID":429574},"geometry":{"x":164938.1799999997,"y":2540269.7200000007}},{"attributes":{"ID":429600,"DIS_CODE":0,"TOWNNAME":"南區","LI":"鯤鯓里","LIN":"21鄰","STREET":"鯤鯓路","SECT":" ","MAREA":" ","LANE":"１８４巷","ALLEY":" ","HOUSE_NO":"１２號","E_COORD97":164941.20000000001,"N_COORD97":2540259.46,"ADDRESS":"鯤鯓路１８４巷１２號","OBJECTID":429575},"geometry":{"x":164941.20000000112,"y":2540259.4600000028}},{"attributes":{"ID":429601,"DIS_CODE":0,"TOWNNAME":"南區","LI":"鯤鯓里","LIN":"21鄰","STREET":"鯤鯓路","SECT":" ","MAREA":" ","LANE":"１８４巷","ALLEY":" ","HOUSE_NO":"１４號","E_COORD97":164951.91,"N_COORD97":2540260.1000000001,"ADDRESS":"鯤鯓路１８４巷１４號","OBJECTID":429576},"geometry":{"x":164951.91000000015,"y":2540260.1000000034}},{"attributes":{"ID":429602,"DIS_CODE":0,"TOWNNAME":"南區","LI":"鯤鯓里","LIN":"21鄰","STREET":"鯤鯓路","SECT":" ","MAREA":" ","LANE":"１８４巷","ALLEY":" ","HOUSE_NO":"１６號","E_COORD97":164950.01999999999,"N_COORD97":2540272.75,"ADDRESS":"鯤鯓路１８４巷１６號","OBJECTID":429577},"geometry":{"x":164950.02000000048,"y":2540272.7500000037}},{"attributes":{"ID":429603,"DIS_CODE":0,"TOWNNAME":"南區","LI":"鯤鯓里","LIN":"21鄰","STREET":"鯤鯓路","SECT":" ","MAREA":" ","LANE":"１８４巷","ALLEY":" ","HOUSE_NO":"１８號","E_COORD97":164965.72,"N_COORD97":2540275,"ADDRESS":"鯤鯓路１８４巷１８號","OBJECTID":429578},"geometry":{"x":164965.72000000067,"y":2540275.0000000019}},{"attributes":{"ID":429604,"DIS_CODE":0,"TOWNNAME":"南區","LI":"鯤鯓里","LIN":"21鄰","STREET":"鯤鯓路","SECT":" ","MAREA":" ","LANE":"１８４巷","ALLEY":" ","HOUSE_NO":"２０號","E_COORD97":164977.32000000001,"N_COORD97":2540270.3399999999,"ADDRESS":"鯤鯓路１８４巷２０號","OBJECTID":429579},"geometry":{"x":164977.32000000123,"y":2540270.3399999999}},{"attributes":{"ID":429605,"DIS_CODE":0,"TOWNNAME":"南區","LI":"鯤鯓里","LIN":"21鄰","STREET":"鯤鯓路","SECT":" ","MAREA":" ","LANE":"１８４巷","ALLEY":" ","HOUSE_NO":"２之１號","E_COORD97":164894.92999999999,"N_COORD97":2540247.2000000002,"ADDRESS":"鯤鯓路１８４巷２之１號","OBJECTID":429580},"geometry":{"x":164894.93000000063,"y":2540247.1999999993}},{"attributes":{"ID":429606,"DIS_CODE":0,"TOWNNAME":"南區","LI":"永寧里","LIN":"4鄰","STREET":"灣裡路","SECT":" ","MAREA":" ","LANE":"１６２巷","ALLEY":" ","HOUSE_NO":"１號","E_COORD97":166019.72,"N_COORD97":2536648.6899999999,"ADDRESS":"灣裡路１６２巷１號","OBJECTID":429581},"geometry":{"x":166019.7200000016,"y":2536648.6900000013}},{"attributes":{"ID":429607,"DIS_CODE":0,"TOWNNAME":"南區","LI":"永寧里","LIN":"4鄰","STREET":"灣裡路","SECT":" ","MAREA":" ","LANE":"１６２巷","ALLEY":" ","HOUSE_NO":"３號","E_COORD97":166015.54999999999,"N_COORD97":2536648.8599999999,"ADDRESS":"灣裡路１６２巷３號","OBJECTID":429582},"geometry":{"x":166015.54999999981,"y":2536648.8599999994}},{"attributes":{"ID":429608,"DIS_CODE":0,"TOWNNAME":"南區","LI":"永寧里","LIN":"4鄰","STREET":"灣裡路","SECT":" ","MAREA":" ","LANE":"１６２巷","ALLEY":" ","HOUSE_NO":"５之１號","E_COORD97":166007.39000000001,"N_COORD97":2536650.8999999999,"ADDRESS":"灣裡路１６２巷５之１號","OBJECTID":429583},"geometry":{"x":166007.3900000006,"y":2536650.9000000004}},{"attributes":{"ID":429609,"DIS_CODE":0,"TOWNNAME":"南區","LI":"永寧里","LIN":"4鄰","STREET":"灣裡路","SECT":" ","MAREA":" ","LANE":"１６２巷","ALLEY":" ","HOUSE_NO":"５之２號","E_COORD97":166003.47,"N_COORD97":2536651.5499999998,"ADDRESS":"灣裡路１６２巷５之２號","OBJECTID":429584},"geometry":{"x":166003.47000000067,"y":2536651.5500000026}},{"attributes":{"ID":429610,"DIS_CODE":0,"TOWNNAME":"南區","LI":"永寧里","LIN":"4鄰","STREET":"灣裡路","SECT":" ","MAREA":" ","LANE":"１６２巷","ALLEY":" ","HOUSE_NO":"５之３號","E_COORD97":165996.69,"N_COORD97":2536651.3900000001,"ADDRESS":"灣裡路１６２巷５之３號","OBJECTID":429585},"geometry":{"x":165996.69000000041,"y":2536651.3899999987}},{"attributes":{"ID":429611,"DIS_CODE":0,"TOWNNAME":"南區","LI":"永寧里","LIN":"4鄰","STREET":"灣裡路","SECT":" ","MAREA":" ","LANE":"１６２巷","ALLEY":" ","HOUSE_NO":"５之５號","E_COORD97":165996.85000000001,"N_COORD97":2536637.3999999999,"ADDRESS":"灣裡路１６２巷５之５號","OBJECTID":429586},"geometry":{"x":165996.85000000056,"y":2536637.4000000004}},{"attributes":{"ID":429612,"DIS_CODE":0,"TOWNNAME":"南區","LI":"永寧里","LIN":"4鄰","STREET":"灣裡路","SECT":" ","MAREA":" ","LANE":"１６２巷","ALLEY":" ","HOUSE_NO":"５之６號","E_COORD97":165998.23999999999,"N_COORD97":2536625,"ADDRESS":"灣裡路１６２巷５之６號","OBJECTID":429587},"geometry":{"x":165998.24000000115,"y":2536625}},{"attributes":{"ID":429613,"DIS_CODE":0,"TOWNNAME":"南區","LI":"永寧里","LIN":"4鄰","STREET":"灣裡路","SECT":" ","MAREA":" ","LANE":"１６２巷","ALLEY":" ","HOUSE_NO":"５號","E_COORD97":166011.47,"N_COORD97":2536649.5899999999,"ADDRESS":"灣裡路１６２巷５號","OBJECTID":429588},"geometry":{"x":166011.47000000067,"y":2536649.5900000036}},{"attributes":{"ID":429614,"DIS_CODE":0,"TOWNNAME":"南區","LI":"永寧里","LIN":"4鄰","STREET":"灣裡路","SECT":" ","MAREA":" ","LANE":"１８６巷","ALLEY":" ","HOUSE_NO":"２２號","E_COORD97":165990.48000000001,"N_COORD97":2536600.1099999999,"ADDRESS":"灣裡路１８６巷２２號","OBJECTID":429589},"geometry":{"x":165990.48000000138,"y":2536600.1099999994}},{"attributes":{"ID":429615,"DIS_CODE":0,"TOWNNAME":"南區","LI":"永寧里","LIN":"4鄰","STREET":"灣裡路","SECT":" ","MAREA":" ","LANE":"１８６巷","ALLEY":" ","HOUSE_NO":"２４號","E_COORD97":165986.39999999999,"N_COORD97":2536599.1400000001,"ADDRESS":"灣裡路１８６巷２４號","OBJECTID":429590},"geometry":{"x":165986.40000000037,"y":2536599.1400000043}},{"attributes":{"ID":429616,"DIS_CODE":0,"TOWNNAME":"南區","LI":"永寧里","LIN":"4鄰","STREET":"灣裡路","SECT":" ","MAREA":" ","LANE":"１８６巷","ALLEY":" ","HOUSE_NO":"２６號","E_COORD97":165982.14999999999,"N_COORD97":2536597.9900000002,"ADDRESS":"灣裡路１８６巷２６號","OBJECTID":429591},"geometry":{"x":165982.1500000013,"y":2536597.9900000002}},{"attributes":{"ID":429617,"DIS_CODE":0,"TOWNNAME":"南區","LI":"永寧里","LIN":"4鄰","STREET":"灣裡路","SECT":" ","MAREA":" ","LANE":"１８６巷","ALLEY":" ","HOUSE_NO":"２８號","E_COORD97":165973.03,"N_COORD97":2536600.8999999999,"ADDRESS":"灣裡路１８６巷２８號","OBJECTID":429592},"geometry":{"x":165973.03000000119,"y":2536600.9000000022}},{"attributes":{"ID":429618,"DIS_CODE":0,"TOWNNAME":"南區","LI":"永寧里","LIN":"4鄰","STREET":"灣裡路","SECT":" ","MAREA":" ","LANE":"１８６巷","ALLEY":" ","HOUSE_NO":"３６號","E_COORD97":165963.88,"N_COORD97":2536595.5,"ADDRESS":"灣裡路１８６巷３６號","OBJECTID":429593},"geometry":{"x":165963.87999999989,"y":2536595.5}},{"attributes":{"ID":429619,"DIS_CODE":0,"TOWNNAME":"南區","LI":"永寧里","LIN":"4鄰","STREET":"灣裡路","SECT":" ","MAREA":" ","LANE":"１８６巷","ALLEY":" ","HOUSE_NO":"３８號","E_COORD97":165957.95999999999,"N_COORD97":2536594.2000000002,"ADDRESS":"灣裡路１８６巷３８號","OBJECTID":429594},"geometry":{"x":165957.96000000089,"y":2536594.2000000011}},{"attributes":{"ID":429620,"DIS_CODE":0,"TOWNNAME":"南區","LI":"永寧里","LIN":"4鄰","STREET":"灣裡路","SECT":" ","MAREA":" ","LANE":"１８６巷","ALLEY":" ","HOUSE_NO":"４０號","E_COORD97":165952.98999999999,"N_COORD97":2536594.3700000001,"ADDRESS":"灣裡路１８６巷４０號","OBJECTID":429595},"geometry":{"x":165952.99000000115,"y":2536594.3699999992}},{"attributes":{"ID":429621,"DIS_CODE":0,"TOWNNAME":"南區","LI":"永寧里","LIN":"4鄰","STREET":"灣裡路","SECT":" ","MAREA":" ","LANE":"１４８巷","ALLEY":" ","HOUSE_NO":"１１號","E_COORD97":165980.69,"N_COORD97":2536701.0299999998,"ADDRESS":"灣裡路１４８巷１１號","OBJECTID":429596},"geometry":{"x":165980.69000000134,"y":2536701.0300000012}},{"attributes":{"ID":429622,"DIS_CODE":0,"TOWNNAME":"南區","LI":"永寧里","LIN":"4鄰","STREET":"灣裡路","SECT":" ","MAREA":" ","LANE":"１５２巷","ALLEY":" ","HOUSE_NO":"１１號","E_COORD97":165984,"N_COORD97":2536691.3199999998,"ADDRESS":"灣裡路１５２巷１１號","OBJECTID":429597},"geometry":{"x":165983.99999999907,"y":2536691.3200000003}},{"attributes":{"ID":429623,"DIS_CODE":0,"TOWNNAME":"南區","LI":"永寧里","LIN":"6鄰","STREET":"灣裡路","SECT":" ","MAREA":" ","LANE":"８８巷","ALLEY":" ","HOUSE_NO":"１１０號","E_COORD97":165861.20999999999,"N_COORD97":2536625.1600000001,"ADDRESS":"灣裡路８８巷１１０號","OBJECTID":429598},"geometry":{"x":165861.21000000089,"y":2536625.1600000001}},{"attributes":{"ID":429624,"DIS_CODE":0,"TOWNNAME":"南區","LI":"永寧里","LIN":"6鄰","STREET":"灣裡路","SECT":" ","MAREA":" ","LANE":"８８巷","ALLEY":" ","HOUSE_NO":"１１０號之１","E_COORD97":165863.48999999999,"N_COORD97":2536620.75,"ADDRESS":"灣裡路８８巷１１０號之１","OBJECTID":429599},"geometry":{"x":165863.49000000022,"y":2536620.75}},{"attributes":{"ID":429625,"DIS_CODE":0,"TOWNNAME":"南區","LI":"永寧里","LIN":"6鄰","STREET":"灣裡路","SECT":" ","MAREA":" ","LANE":"８８巷","ALLEY":" ","HOUSE_NO":"１１４號","E_COORD97":165866.26999999999,"N_COORD97":2536616.3500000001,"ADDRESS":"灣裡路８８巷１１４號","OBJECTID":429600},"geometry":{"x":165866.26999999955,"y":2536616.3499999996}}]}