{"displayFieldName":"TOWNNAME","fieldAliases":{"ID":"ID","DIS_CODE":"DIS_CODE","TOWNNAME":"TOWNNAME","LI":"LI","LIN":"LIN","STREET":"STREET","SECT":"SECT","MAREA":"MAREA","LANE":"LANE","ALLEY":"ALLEY","HOUSE_NO":"HOUSE_NO","E_COORD97":"E_COORD97","N_COORD97":"N_COORD97","ADDRESS":"ADDRESS","OBJECTID":"OBJECTID"},"geometryType":"esriGeometryPoint","spatialReference":{"wkid":102443,"latestWkid":3826},"fields":[{"name":"ID","type":"esriFieldTypeDouble","alias":"ID"},{"name":"DIS_CODE","type":"esriFieldTypeInteger","alias":"DIS_CODE"},{"name":"TOWNNAME","type":"esriFieldTypeString","alias":"TOWNNAME","length":8},{"name":"LI","type":"esriFieldTypeString","alias":"LI","length":8},{"name":"LIN","type":"esriFieldTypeString","alias":"LIN","length":12},{"name":"STREET","type":"esriFieldTypeString","alias":"STREET","length":20},{"name":"SECT","type":"esriFieldTypeString","alias":"SECT","length":8},{"name":"MAREA","type":"esriFieldTypeString","alias":"MAREA","length":12},{"name":"LANE","type":"esriFieldTypeString","alias":"LANE","length":10},{"name":"ALLEY","type":"esriFieldTypeString","alias":"ALLEY","length":10},{"name":"HOUSE_NO","type":"esriFieldTypeString","alias":"HOUSE_NO","length":20},{"name":"E_COORD97","type":"esriFieldTypeDouble","alias":"E_COORD97"},{"name":"N_COORD97","type":"esriFieldTypeDouble","alias":"N_COORD97"},{"name":"ADDRESS","type":"esriFieldTypeString","alias":"ADDRESS","length":50},{"name":"OBJECTID","type":"esriFieldTypeOID","alias":"OBJECTID"}],"features":[{"attributes":{"ID":149802,"DIS_CODE":0,"TOWNNAME":"永康區","LI":"五王里","LIN":"3鄰","STREET":"成功路","SECT":" ","MAREA":" ","LANE":"１７２巷","ALLEY":"１８弄","HOUSE_NO":"３號","E_COORD97":171533.20000000001,"N_COORD97":2545640.2599999998,"ADDRESS":"成功路１７２巷１８弄３號","OBJECTID":149801},"geometry":{"x":171533.20000000112,"y":2545640.2600000016}},{"attributes":{"ID":149803,"DIS_CODE":0,"TOWNNAME":"永康區","LI":"五王里","LIN":"3鄰","STREET":"成功路","SECT":" ","MAREA":" ","LANE":"１７２巷","ALLEY":"８弄","HOUSE_NO":"１１號","E_COORD97":171508.82000000001,"N_COORD97":2545606.02,"ADDRESS":"成功路１７２巷８弄１１號","OBJECTID":149802},"geometry":{"x":171508.82000000123,"y":2545606.0199999996}},{"attributes":{"ID":149804,"DIS_CODE":0,"TOWNNAME":"東區","LI":"虎尾里","LIN":"3鄰","STREET":"東門路","SECT":"三段","MAREA":" ","LANE":"１７９巷","ALLEY":"１４７弄","HOUSE_NO":"５１號之１","E_COORD97":171741.42999999999,"N_COORD97":2542185.7000000002,"ADDRESS":"東門路三段１７９巷１４７弄５１號之１","OBJECTID":149803},"geometry":{"x":171741.43000000063,"y":2542185.7000000011}},{"attributes":{"ID":149805,"DIS_CODE":0,"TOWNNAME":"東區","LI":"虎尾里","LIN":"3鄰","STREET":"東門路","SECT":"三段","MAREA":" ","LANE":"１７９巷","ALLEY":"１４７弄","HOUSE_NO":"５１號之２","E_COORD97":171736.39999999999,"N_COORD97":2542184.3900000001,"ADDRESS":"東門路三段１７９巷１４７弄５１號之２","OBJECTID":149804},"geometry":{"x":171736.40000000037,"y":2542184.3899999987}},{"attributes":{"ID":149806,"DIS_CODE":0,"TOWNNAME":"永康區","LI":"西橋里","LIN":"19鄰","STREET":"大橋三街","SECT":" ","MAREA":" ","LANE":" ","ALLEY":" ","HOUSE_NO":"２７號六樓之２","E_COORD97":170493.12,"N_COORD97":2546370.54,"ADDRESS":"大橋三街２７號六樓之２","OBJECTID":149805},"geometry":{"x":170493.12000000104,"y":2546370.540000001}},{"attributes":{"ID":149807,"DIS_CODE":0,"TOWNNAME":"善化區","LI":"胡家里","LIN":"4鄰","STREET":" ","SECT":" ","MAREA":"胡厝寮","LANE":" ","ALLEY":" ","HOUSE_NO":"３１２號之２","E_COORD97":175462.79999999999,"N_COORD97":2560315.52,"ADDRESS":"胡厝寮３１２號之２","OBJECTID":149806},"geometry":{"x":175462.79999999981,"y":2560315.5200000014}},{"attributes":{"ID":149808,"DIS_CODE":0,"TOWNNAME":"善化區","LI":"光文里","LIN":" ","STREET":" ","SECT":" ","MAREA":"北子店","LANE":" ","ALLEY":" ","HOUSE_NO":"２１５號","E_COORD97":179255.14000000001,"N_COORD97":2559644.5,"ADDRESS":"北子店２１５號","OBJECTID":149807},"geometry":{"x":179255.1400000006,"y":2559644.5000000019}},{"attributes":{"ID":149809,"DIS_CODE":0,"TOWNNAME":"善化區","LI":"胡厝里","LIN":"13鄰","STREET":" ","SECT":" ","MAREA":"胡厝寮","LANE":" ","ALLEY":" ","HOUSE_NO":"２２５號","E_COORD97":174991.75,"N_COORD97":2560299.5,"ADDRESS":"胡厝寮２２５號","OBJECTID":149808},"geometry":{"x":174991.75,"y":2560299.5000000019}},{"attributes":{"ID":149810,"DIS_CODE":0,"TOWNNAME":"善化區","LI":"胡家里","LIN":"4鄰","STREET":" ","SECT":" ","MAREA":"胡厝寮","LANE":" ","ALLEY":" ","HOUSE_NO":"３０５號之４","E_COORD97":175500.22,"N_COORD97":2560406.02,"ADDRESS":"胡厝寮３０５號之４","OBJECTID":149809},"geometry":{"x":175500.21999999974,"y":2560406.0200000033}},{"attributes":{"ID":149811,"DIS_CODE":0,"TOWNNAME":"東區","LI":"虎尾里","LIN":"3鄰","STREET":"東門路","SECT":"三段","MAREA":" ","LANE":"１７９巷","ALLEY":"１４７弄","HOUSE_NO":"５１號之３","E_COORD97":171731.37,"N_COORD97":2542184.21,"ADDRESS":"東門路三段１７９巷１４７弄５１號之３","OBJECTID":149810},"geometry":{"x":171731.37000000011,"y":2542184.2100000028}},{"attributes":{"ID":149812,"DIS_CODE":0,"TOWNNAME":"東區","LI":"虎尾里","LIN":"3鄰","STREET":"東門路","SECT":"三段","MAREA":" ","LANE":"１７９巷","ALLEY":"１４７弄","HOUSE_NO":"５１號之６","E_COORD97":171722.04999999999,"N_COORD97":2542184.21,"ADDRESS":"東門路三段１７９巷１４７弄５１號之６","OBJECTID":149811},"geometry":{"x":171722.05000000075,"y":2542184.2100000028}},{"attributes":{"ID":149813,"DIS_CODE":0,"TOWNNAME":"東區","LI":"虎尾里","LIN":"3鄰","STREET":"東門路","SECT":"三段","MAREA":" ","LANE":"１７９巷","ALLEY":"１４７弄","HOUSE_NO":"５１號之７","E_COORD97":171717.20999999999,"N_COORD97":2542184.02,"ADDRESS":"東門路三段１７９巷１４７弄５１號之７","OBJECTID":149812},"geometry":{"x":171717.20999999996,"y":2542184.0200000014}},{"attributes":{"ID":149814,"DIS_CODE":0,"TOWNNAME":"東區","LI":"虎尾里","LIN":"3鄰","STREET":"東門路","SECT":"三段","MAREA":" ","LANE":"１７９巷","ALLEY":"１４７弄","HOUSE_NO":"５１號之８","E_COORD97":171712.54999999999,"N_COORD97":2542183.8300000001,"ADDRESS":"東門路三段１７９巷１４７弄５１號之８","OBJECTID":149813},"geometry":{"x":171712.54999999981,"y":2542183.8300000001}},{"attributes":{"ID":149815,"DIS_CODE":0,"TOWNNAME":"東區","LI":"虎尾里","LIN":"3鄰","STREET":"東門路","SECT":"三段","MAREA":" ","LANE":"１７９巷","ALLEY":"１４７弄","HOUSE_NO":"４９號之１２","E_COORD97":171708.35000000001,"N_COORD97":2542167.1099999999,"ADDRESS":"東門路三段１７９巷１４７弄４９號之１２","OBJECTID":149814},"geometry":{"x":171708.35000000056,"y":2542167.1099999994}},{"attributes":{"ID":149816,"DIS_CODE":0,"TOWNNAME":"東區","LI":"虎尾里","LIN":"3鄰","STREET":"東門路","SECT":"三段","MAREA":" ","LANE":"１７９巷","ALLEY":"１４７弄","HOUSE_NO":"４９號之１３","E_COORD97":171709.10000000001,"N_COORD97":2542162.0800000001,"ADDRESS":"東門路三段１７９巷１４７弄４９號之１３","OBJECTID":149815},"geometry":{"x":171709.09999999963,"y":2542162.0800000001}},{"attributes":{"ID":149817,"DIS_CODE":0,"TOWNNAME":"東區","LI":"虎尾里","LIN":"3鄰","STREET":"東門路","SECT":"三段","MAREA":" ","LANE":"１７９巷","ALLEY":"１４７弄","HOUSE_NO":"４９號之１４","E_COORD97":171709.29000000001,"N_COORD97":2542154.4500000002,"ADDRESS":"東門路三段１７９巷１４７弄４９號之１４","OBJECTID":149816},"geometry":{"x":171709.29000000097,"y":2542154.4499999993}},{"attributes":{"ID":149818,"DIS_CODE":0,"TOWNNAME":"東區","LI":"虎尾里","LIN":"3鄰","STREET":"東門路","SECT":"三段","MAREA":" ","LANE":"１７９巷","ALLEY":"１４７弄","HOUSE_NO":"４９號之２","E_COORD97":171762.95000000001,"N_COORD97":2542157.7999999998,"ADDRESS":"東門路三段１７９巷１４７弄４９號之２","OBJECTID":149817},"geometry":{"x":171762.95000000019,"y":2542157.8000000007}},{"attributes":{"ID":149819,"DIS_CODE":0,"TOWNNAME":"東區","LI":"虎尾里","LIN":"3鄰","STREET":"東門路","SECT":"三段","MAREA":" ","LANE":"１７９巷","ALLEY":"１４７弄","HOUSE_NO":"４９號之３","E_COORD97":171742.26999999999,"N_COORD97":2542168.9700000002,"ADDRESS":"東門路三段１７９巷１４７弄４９號之３","OBJECTID":149818},"geometry":{"x":171742.27000000048,"y":2542168.9700000007}},{"attributes":{"ID":149820,"DIS_CODE":0,"TOWNNAME":"中西區","LI":"光賢里","LIN":"3鄰","STREET":"武聖路","SECT":" ","MAREA":" ","LANE":"２７巷","ALLEY":"２６弄","HOUSE_NO":"１６號","E_COORD97":167163.44,"N_COORD97":2544974.3500000001,"ADDRESS":"武聖路２７巷２６弄１６號","OBJECTID":149819},"geometry":{"x":167163.44000000134,"y":2544974.3500000034}},{"attributes":{"ID":149821,"DIS_CODE":0,"TOWNNAME":"東區","LI":"虎尾里","LIN":"3鄰","STREET":"東門路","SECT":"三段","MAREA":" ","LANE":"１７９巷","ALLEY":"１４７弄","HOUSE_NO":"４９號之５","E_COORD97":171743.01000000001,"N_COORD97":2542163.7599999998,"ADDRESS":"東門路三段１７９巷１４７弄４９號之５","OBJECTID":149820},"geometry":{"x":171743.01000000071,"y":2542163.7599999998}},{"attributes":{"ID":149822,"DIS_CODE":0,"TOWNNAME":"東區","LI":"虎尾里","LIN":"3鄰","STREET":"東門路","SECT":"三段","MAREA":" ","LANE":"１７９巷","ALLEY":"１４７弄","HOUSE_NO":"４９號之６","E_COORD97":171743.01000000001,"N_COORD97":2542158.73,"ADDRESS":"東門路三段１７９巷１４７弄４９號之６","OBJECTID":149821},"geometry":{"x":171743.01000000071,"y":2542158.7300000023}},{"attributes":{"ID":149823,"DIS_CODE":0,"TOWNNAME":"東區","LI":"虎尾里","LIN":"3鄰","STREET":"東門路","SECT":"三段","MAREA":" ","LANE":"１７９巷","ALLEY":"１４７弄","HOUSE_NO":"４９號之７","E_COORD97":171743.76000000001,"N_COORD97":2542153.71,"ADDRESS":"東門路三段１７９巷１４７弄４９號之７","OBJECTID":149822},"geometry":{"x":171743.75999999978,"y":2542153.7100000028}},{"attributes":{"ID":149824,"DIS_CODE":0,"TOWNNAME":"東區","LI":"虎尾里","LIN":"3鄰","STREET":"東門路","SECT":"三段","MAREA":" ","LANE":"１７９巷","ALLEY":"１４７弄","HOUSE_NO":"４９號之８","E_COORD97":171727.92000000001,"N_COORD97":2542168.4100000001,"ADDRESS":"東門路三段１７９巷１４７弄４９號之８","OBJECTID":149823},"geometry":{"x":171727.92000000179,"y":2542168.410000002}},{"attributes":{"ID":149825,"DIS_CODE":0,"TOWNNAME":"東區","LI":"虎尾里","LIN":"3鄰","STREET":"東門路","SECT":"三段","MAREA":" ","LANE":"１７９巷","ALLEY":"１４７弄","HOUSE_NO":"４９號之９","E_COORD97":171728.10999999999,"N_COORD97":2542163.0099999998,"ADDRESS":"東門路三段１７９巷１４７弄４９號之９","OBJECTID":149824},"geometry":{"x":171728.11000000034,"y":2542163.0100000016}},{"attributes":{"ID":149826,"DIS_CODE":0,"TOWNNAME":"永康區","LI":"北灣里","LIN":"3鄰","STREET":"文賢街","SECT":" ","MAREA":" ","LANE":"１３６巷","ALLEY":"１弄","HOUSE_NO":"１號","E_COORD97":175408.94,"N_COORD97":2545574.1000000001,"ADDRESS":"文賢街１３６巷１弄１號","OBJECTID":149825},"geometry":{"x":175408.94000000134,"y":2545574.1000000015}},{"attributes":{"ID":149827,"DIS_CODE":0,"TOWNNAME":"永康區","LI":"正強里","LIN":"3鄰","STREET":"中正路","SECT":" ","MAREA":" ","LANE":"１巷","ALLEY":"２０弄","HOUSE_NO":"６號","E_COORD97":173629.10000000001,"N_COORD97":2547651.75,"ADDRESS":"中正路１巷２０弄６號","OBJECTID":149826},"geometry":{"x":173629.10000000056,"y":2547651.7500000019}},{"attributes":{"ID":149828,"DIS_CODE":0,"TOWNNAME":"永康區","LI":"五王里","LIN":"3鄰","STREET":"成功路","SECT":" ","MAREA":" ","LANE":"１７２巷","ALLEY":"８弄","HOUSE_NO":"９號","E_COORD97":171504.79999999999,"N_COORD97":2545610.27,"ADDRESS":"成功路１７２巷８弄９號","OBJECTID":149827},"geometry":{"x":171504.80000000168,"y":2545610.2700000014}},{"attributes":{"ID":149829,"DIS_CODE":0,"TOWNNAME":"永康區","LI":"五王里","LIN":"3鄰","STREET":"成功路","SECT":" ","MAREA":" ","LANE":"１７２巷","ALLEY":"８弄","HOUSE_NO":"１３號","E_COORD97":171511.32000000001,"N_COORD97":2545601.77,"ADDRESS":"成功路１７２巷８弄１３號","OBJECTID":149828},"geometry":{"x":171511.3200000003,"y":2545601.7700000033}},{"attributes":{"ID":149830,"DIS_CODE":0,"TOWNNAME":"東區","LI":"和平里","LIN":"3鄰","STREET":"東門路","SECT":"三段","MAREA":" ","LANE":"２２６巷","ALLEY":"８弄","HOUSE_NO":"１號","E_COORD97":171495.88,"N_COORD97":2541930.98,"ADDRESS":"東門路三段２２６巷８弄１號","OBJECTID":149829},"geometry":{"x":171495.88000000175,"y":2541930.9800000023}},{"attributes":{"ID":149831,"DIS_CODE":0,"TOWNNAME":"東區","LI":"和平里","LIN":"3鄰","STREET":"東門路","SECT":"三段","MAREA":" ","LANE":"２２６巷","ALLEY":"８弄","HOUSE_NO":"６號","E_COORD97":171490.42000000001,"N_COORD97":2541943.29,"ADDRESS":"東門路三段２２６巷８弄６號","OBJECTID":149830},"geometry":{"x":171490.41999999993,"y":2541943.2900000028}},{"attributes":{"ID":149832,"DIS_CODE":0,"TOWNNAME":"東區","LI":"和平里","LIN":"3鄰","STREET":"東門路","SECT":"三段","MAREA":" ","LANE":"２２６巷","ALLEY":"５０弄","HOUSE_NO":"１６號","E_COORD97":171475.54000000001,"N_COORD97":2541911.6400000001,"ADDRESS":"東門路三段２２６巷５０弄１６號","OBJECTID":149831},"geometry":{"x":171475.54000000004,"y":2541911.6400000043}},{"attributes":{"ID":149833,"DIS_CODE":0,"TOWNNAME":"東區","LI":"虎尾里","LIN":"3鄰","STREET":"東門路","SECT":"三段","MAREA":" ","LANE":"１７９巷","ALLEY":"１４７弄","HOUSE_NO":"３９號","E_COORD97":171741.62,"N_COORD97":2542144.0299999998,"ADDRESS":"東門路三段１７９巷１４７弄３９號","OBJECTID":149832},"geometry":{"x":171741.62000000011,"y":2542144.0299999993}},{"attributes":{"ID":149834,"DIS_CODE":0,"TOWNNAME":"東區","LI":"自強里","LIN":"3鄰","STREET":"東門路","SECT":"三段","MAREA":" ","LANE":"３７巷","ALLEY":"６弄","HOUSE_NO":"５９號","E_COORD97":171363.23000000001,"N_COORD97":2542334.5699999998,"ADDRESS":"東門路三段３７巷６弄５９號","OBJECTID":149833},"geometry":{"x":171363.23000000045,"y":2542334.5700000003}},{"attributes":{"ID":149835,"DIS_CODE":0,"TOWNNAME":"永康區","LI":"龍潭里","LIN":"3鄰","STREET":"龍國街","SECT":" ","MAREA":" ","LANE":"３０９巷","ALLEY":"３弄","HOUSE_NO":"７號","E_COORD97":174668.47,"N_COORD97":2548062.1099999999,"ADDRESS":"龍國街３０９巷３弄７號","OBJECTID":149834},"geometry":{"x":174668.4700000016,"y":2548062.1100000013}},{"attributes":{"ID":149836,"DIS_CODE":0,"TOWNNAME":"永康區","LI":"復興里","LIN":"3鄰","STREET":"復興路","SECT":" ","MAREA":" ","LANE":"２７７巷","ALLEY":"７８弄","HOUSE_NO":"５０號","E_COORD97":172287.98999999999,"N_COORD97":2544161.0299999998,"ADDRESS":"復興路２７７巷７８弄５０號","OBJECTID":149835},"geometry":{"x":172287.99000000115,"y":2544161.0299999993}},{"attributes":{"ID":149837,"DIS_CODE":0,"TOWNNAME":"永康區","LI":"復興里","LIN":"3鄰","STREET":"復興路","SECT":" ","MAREA":" ","LANE":"２７７巷","ALLEY":"７８弄","HOUSE_NO":"１８號","E_COORD97":172326.78,"N_COORD97":2544134.2799999998,"ADDRESS":"復興路２７７巷７８弄１８號","OBJECTID":149836},"geometry":{"x":172326.78000000026,"y":2544134.2800000012}},{"attributes":{"ID":149838,"DIS_CODE":0,"TOWNNAME":"永康區","LI":"復興里","LIN":"3鄰","STREET":"復興路","SECT":" ","MAREA":" ","LANE":"２７７巷","ALLEY":"７８弄","HOUSE_NO":"４２號","E_COORD97":172307.57999999999,"N_COORD97":2544161.5299999998,"ADDRESS":"復興路２７７巷７８弄４２號","OBJECTID":149837},"geometry":{"x":172307.58000000007,"y":2544161.5299999993}},{"attributes":{"ID":149839,"DIS_CODE":0,"TOWNNAME":"永康區","LI":"復興里","LIN":"3鄰","STREET":"復興路","SECT":" ","MAREA":" ","LANE":"２７７巷","ALLEY":"７８弄","HOUSE_NO":"７號","E_COORD97":172311.79000000001,"N_COORD97":2544114.02,"ADDRESS":"復興路２７７巷７８弄７號","OBJECTID":149838},"geometry":{"x":172311.79000000004,"y":2544114.0199999996}},{"attributes":{"ID":149840,"DIS_CODE":0,"TOWNNAME":"永康區","LI":"復興里","LIN":"3鄰","STREET":"復興路","SECT":" ","MAREA":" ","LANE":"２７７巷","ALLEY":"７８弄","HOUSE_NO":"３０號","E_COORD97":172290.73999999999,"N_COORD97":2544136.8999999999,"ADDRESS":"復興路２７７巷７８弄３０號","OBJECTID":149839},"geometry":{"x":172290.74000000115,"y":2544136.9000000004}},{"attributes":{"ID":149841,"DIS_CODE":0,"TOWNNAME":"永康區","LI":"復興里","LIN":"3鄰","STREET":"復興路","SECT":" ","MAREA":" ","LANE":"２７７巷","ALLEY":"７８弄","HOUSE_NO":"２４號","E_COORD97":172313.20000000001,"N_COORD97":2544137.7799999998,"ADDRESS":"復興路２７７巷７８弄２４號","OBJECTID":149840},"geometry":{"x":172313.20000000112,"y":2544137.7800000012}},{"attributes":{"ID":149842,"DIS_CODE":0,"TOWNNAME":"中西區","LI":"天后里","LIN":"3鄰","STREET":"永福路","SECT":"二段","MAREA":" ","LANE":"１９７巷","ALLEY":"６弄","HOUSE_NO":"１１號","E_COORD97":168127.57999999999,"N_COORD97":2544103.5899999999,"ADDRESS":"永福路二段１９７巷６弄１１號","OBJECTID":149841},"geometry":{"x":168127.58000000007,"y":2544103.5899999999}},{"attributes":{"ID":149843,"DIS_CODE":0,"TOWNNAME":"中西區","LI":"天后里","LIN":"3鄰","STREET":"永福路","SECT":"二段","MAREA":" ","LANE":"１９７巷","ALLEY":"６弄","HOUSE_NO":"１２號","E_COORD97":168134.51000000001,"N_COORD97":2544098.8900000001,"ADDRESS":"永福路二段１９７巷６弄１２號","OBJECTID":149842},"geometry":{"x":168134.50999999978,"y":2544098.8900000006}},{"attributes":{"ID":149844,"DIS_CODE":0,"TOWNNAME":"中西區","LI":"天后里","LIN":"3鄰","STREET":"永福路","SECT":"二段","MAREA":" ","LANE":"１９７巷","ALLEY":"６弄","HOUSE_NO":"１號","E_COORD97":168129.76999999999,"N_COORD97":2544068.5099999998,"ADDRESS":"永福路二段１９７巷６弄１號","OBJECTID":149843},"geometry":{"x":168129.77000000048,"y":2544068.5100000016}},{"attributes":{"ID":149845,"DIS_CODE":0,"TOWNNAME":"中西區","LI":"天后里","LIN":"3鄰","STREET":"永福路","SECT":"二段","MAREA":" ","LANE":"１９７巷","ALLEY":"６弄","HOUSE_NO":"９號","E_COORD97":168132.51000000001,"N_COORD97":2544088.4300000002,"ADDRESS":"永福路二段１９７巷６弄９號","OBJECTID":149844},"geometry":{"x":168132.50999999978,"y":2544088.4299999997}},{"attributes":{"ID":149846,"DIS_CODE":0,"TOWNNAME":"安南區","LI":"安富里","LIN":"3鄰","STREET":"郡安路","SECT":"五段","MAREA":" ","LANE":"１８４巷","ALLEY":"２４弄","HOUSE_NO":"６號","E_COORD97":167443.16,"N_COORD97":2547688.3700000001,"ADDRESS":"郡安路五段１８４巷２４弄６號","OBJECTID":149845},"geometry":{"x":167443.16000000108,"y":2547688.3700000029}},{"attributes":{"ID":149847,"DIS_CODE":0,"TOWNNAME":"安南區","LI":"安富里","LIN":"3鄰","STREET":"郡安路","SECT":"五段","MAREA":" ","LANE":"１８４巷","ALLEY":"２４弄","HOUSE_NO":"２２號","E_COORD97":167391.14999999999,"N_COORD97":2547678.2000000002,"ADDRESS":"郡安路五段１８４巷２４弄２２號","OBJECTID":149846},"geometry":{"x":167391.1500000013,"y":2547678.2000000011}},{"attributes":{"ID":149848,"DIS_CODE":0,"TOWNNAME":"安南區","LI":"溪北里","LIN":"19鄰","STREET":"郡安路","SECT":"四段","MAREA":" ","LANE":" ","ALLEY":" ","HOUSE_NO":"７６號之４二樓","E_COORD97":169069.14999999999,"N_COORD97":2547575.2200000002,"ADDRESS":"郡安路四段７６號之４二樓","OBJECTID":149847},"geometry":{"x":169069.1500000013,"y":2547575.2200000007}},{"attributes":{"ID":149849,"DIS_CODE":0,"TOWNNAME":"安南區","LI":"安富里","LIN":"3鄰","STREET":"郡安路","SECT":"五段","MAREA":" ","LANE":"１８４巷","ALLEY":"２４弄","HOUSE_NO":"７號","E_COORD97":167444.67000000001,"N_COORD97":2547666.9399999999,"ADDRESS":"郡安路五段１８４巷２４弄７號","OBJECTID":149848},"geometry":{"x":167444.67000000086,"y":2547666.9400000013}},{"attributes":{"ID":149850,"DIS_CODE":0,"TOWNNAME":"安南區","LI":"安富里","LIN":"3鄰","STREET":"郡安路","SECT":"五段","MAREA":" ","LANE":"１８４巷","ALLEY":"２４弄","HOUSE_NO":"１９號","E_COORD97":167407.62,"N_COORD97":2547660.8799999999,"ADDRESS":"郡安路五段１８４巷２４弄１９號","OBJECTID":149849},"geometry":{"x":167407.62000000104,"y":2547660.879999999}},{"attributes":{"ID":149851,"DIS_CODE":0,"TOWNNAME":"安南區","LI":"城東里","LIN":"3鄰","STREET":"城北路","SECT":" ","MAREA":" ","LANE":"２３４巷","ALLEY":"２８弄","HOUSE_NO":"２號","E_COORD97":161042.04000000001,"N_COORD97":2551844.8799999999,"ADDRESS":"城北路２３４巷２８弄２號","OBJECTID":149850},"geometry":{"x":161042.04000000004,"y":2551844.879999999}},{"attributes":{"ID":149852,"DIS_CODE":0,"TOWNNAME":"安南區","LI":"城西里","LIN":"3鄰","STREET":"城西街","SECT":"三段","MAREA":" ","LANE":"５１０巷","ALLEY":"６１弄","HOUSE_NO":"２４號","E_COORD97":157134.94,"N_COORD97":2551023.4700000002,"ADDRESS":"城西街三段５１０巷６１弄２４號","OBJECTID":149851},"geometry":{"x":157134.94000000134,"y":2551023.4700000025}},{"attributes":{"ID":149853,"DIS_CODE":0,"TOWNNAME":"安南區","LI":"城東里","LIN":"3鄰","STREET":"城北路","SECT":" ","MAREA":" ","LANE":"２３４巷","ALLEY":"２８弄","HOUSE_NO":"４號","E_COORD97":161042.34,"N_COORD97":2551840.3500000001,"ADDRESS":"城北路２３４巷２８弄４號","OBJECTID":149852},"geometry":{"x":161042.34000000078,"y":2551840.3500000015}},{"attributes":{"ID":149854,"DIS_CODE":0,"TOWNNAME":"安南區","LI":"溪心里","LIN":"3鄰","STREET":"海佃路","SECT":"三段","MAREA":" ","LANE":"４８巷","ALLEY":"６０弄","HOUSE_NO":"７６號","E_COORD97":166454.48000000001,"N_COORD97":2549900.96,"ADDRESS":"海佃路三段４８巷６０弄７６號","OBJECTID":149853},"geometry":{"x":166454.48000000138,"y":2549900.9600000046}},{"attributes":{"ID":149855,"DIS_CODE":0,"TOWNNAME":"安南區","LI":"溪心里","LIN":"3鄰","STREET":"海佃路","SECT":"三段","MAREA":" ","LANE":"４８巷","ALLEY":"６０弄","HOUSE_NO":"７８號","E_COORD97":166458.59,"N_COORD97":2549895.8300000001,"ADDRESS":"海佃路三段４８巷６０弄７８號","OBJECTID":149854},"geometry":{"x":166458.59000000078,"y":2549895.8300000019}},{"attributes":{"ID":149856,"DIS_CODE":0,"TOWNNAME":"安南區","LI":"溪心里","LIN":"3鄰","STREET":"海佃路","SECT":"三段","MAREA":" ","LANE":"４８巷","ALLEY":"６０弄","HOUSE_NO":"８０號","E_COORD97":166463.38,"N_COORD97":2549892.5800000001,"ADDRESS":"海佃路三段４８巷６０弄８０號","OBJECTID":149855},"geometry":{"x":166463.38000000082,"y":2549892.5800000038}},{"attributes":{"ID":149857,"DIS_CODE":0,"TOWNNAME":"安南區","LI":"溪心里","LIN":"3鄰","STREET":"海佃路","SECT":"三段","MAREA":" ","LANE":"４８巷","ALLEY":"６０弄","HOUSE_NO":"８２號","E_COORD97":166465.09,"N_COORD97":2549887.6200000001,"ADDRESS":"海佃路三段４８巷６０弄８２號","OBJECTID":149856},"geometry":{"x":166465.09000000078,"y":2549887.6200000029}},{"attributes":{"ID":149858,"DIS_CODE":0,"TOWNNAME":"安南區","LI":"溪心里","LIN":"3鄰","STREET":"海佃路","SECT":"三段","MAREA":" ","LANE":"４８巷","ALLEY":"６０弄","HOUSE_NO":"８６號","E_COORD97":166469.20000000001,"N_COORD97":2549885.0600000001,"ADDRESS":"海佃路三段４８巷６０弄８６號","OBJECTID":149857},"geometry":{"x":166469.20000000019,"y":2549885.0600000005}},{"attributes":{"ID":149859,"DIS_CODE":0,"TOWNNAME":"善化區","LI":"胡厝里","LIN":"20鄰","STREET":" ","SECT":" ","MAREA":"西衛","LANE":" ","ALLEY":" ","HOUSE_NO":"３２號之７","E_COORD97":174175.20000000001,"N_COORD97":2559294.77,"ADDRESS":"西衛３２號之７","OBJECTID":149858},"geometry":{"x":174175.20000000019,"y":2559294.7699999996}},{"attributes":{"ID":149860,"DIS_CODE":0,"TOWNNAME":"善化區","LI":"胡家里","LIN":"14鄰","STREET":" ","SECT":" ","MAREA":"胡厝寮","LANE":" ","ALLEY":" ","HOUSE_NO":"１２４之３號","E_COORD97":175452.5,"N_COORD97":2560765.27,"ADDRESS":"胡厝寮１２４之３號","OBJECTID":149859},"geometry":{"x":175452.50000000093,"y":2560765.2700000014}},{"attributes":{"ID":149861,"DIS_CODE":0,"TOWNNAME":"善化區","LI":"溪美里","LIN":"14鄰","STREET":" ","SECT":" ","MAREA":"溪尾","LANE":" ","ALLEY":" ","HOUSE_NO":"１２３之１號","E_COORD97":176863.67999999999,"N_COORD97":2561355.27,"ADDRESS":"溪尾１２３之１號","OBJECTID":149860},"geometry":{"x":176863.6799999997,"y":2561355.2699999996}},{"attributes":{"ID":149862,"DIS_CODE":0,"TOWNNAME":"善化區","LI":"胡家里","LIN":"17鄰","STREET":" ","SECT":" ","MAREA":"胡厝寮","LANE":" ","ALLEY":" ","HOUSE_NO":"１６２號","E_COORD97":175187.29999999999,"N_COORD97":2560692.75,"ADDRESS":"胡厝寮１６２號","OBJECTID":149861},"geometry":{"x":175187.30000000075,"y":2560692.75}},{"attributes":{"ID":149863,"DIS_CODE":0,"TOWNNAME":"善化區","LI":"胡家里","LIN":"18鄰","STREET":" ","SECT":" ","MAREA":"胡厝寮","LANE":" ","ALLEY":" ","HOUSE_NO":"１１９號之４","E_COORD97":175212.41,"N_COORD97":2560650.52,"ADDRESS":"胡厝寮１１９號之４","OBJECTID":149862},"geometry":{"x":175212.41000000108,"y":2560650.5200000014}},{"attributes":{"ID":149864,"DIS_CODE":0,"TOWNNAME":"善化區","LI":"胡家里","LIN":"18鄰","STREET":" ","SECT":" ","MAREA":"胡厝寮","LANE":" ","ALLEY":" ","HOUSE_NO":"１２３號之４","E_COORD97":175257.76999999999,"N_COORD97":2560672.27,"ADDRESS":"胡厝寮１２３號之４","OBJECTID":149863},"geometry":{"x":175257.76999999862,"y":2560672.2700000033}},{"attributes":{"ID":149865,"DIS_CODE":0,"TOWNNAME":"善化區","LI":"胡厝里","LIN":"20鄰","STREET":" ","SECT":" ","MAREA":"西衛","LANE":" ","ALLEY":" ","HOUSE_NO":"３４號","E_COORD97":174140.38,"N_COORD97":2559242.75,"ADDRESS":"西衛３４號","OBJECTID":149864},"geometry":{"x":174140.38000000175,"y":2559242.7500000019}},{"attributes":{"ID":149866,"DIS_CODE":0,"TOWNNAME":"善化區","LI":"胡厝里","LIN":"13鄰","STREET":" ","SECT":" ","MAREA":"胡厝寮","LANE":" ","ALLEY":" ","HOUSE_NO":"２２７之７號","E_COORD97":175034.85999999999,"N_COORD97":2560197.02,"ADDRESS":"胡厝寮２２７之７號","OBJECTID":149865},"geometry":{"x":175034.86000000127,"y":2560197.0200000014}},{"attributes":{"ID":149867,"DIS_CODE":0,"TOWNNAME":"安南區","LI":"溪心里","LIN":"3鄰","STREET":"海佃路","SECT":"三段","MAREA":" ","LANE":"４８巷","ALLEY":"６０弄","HOUSE_NO":"８８號","E_COORD97":166472.38,"N_COORD97":2549880.4300000002,"ADDRESS":"海佃路三段４８巷６０弄８８號","OBJECTID":149866},"geometry":{"x":166472.37999999989,"y":2549880.4300000016}},{"attributes":{"ID":149868,"DIS_CODE":0,"TOWNNAME":"安南區","LI":"溪心里","LIN":"3鄰","STREET":"海佃路","SECT":"三段","MAREA":" ","LANE":"４８巷","ALLEY":"６０弄","HOUSE_NO":"９０號","E_COORD97":166474.70000000001,"N_COORD97":2549876.1499999999,"ADDRESS":"海佃路三段４８巷６０弄９０號","OBJECTID":149867},"geometry":{"x":166474.70000000205,"y":2549876.1500000022}},{"attributes":{"ID":149869,"DIS_CODE":0,"TOWNNAME":"安南區","LI":"溪心里","LIN":"3鄰","STREET":"海佃路","SECT":"三段","MAREA":" ","LANE":"４８巷","ALLEY":"６０弄","HOUSE_NO":"９２號","E_COORD97":166477.73999999999,"N_COORD97":2549872.04,"ADDRESS":"海佃路三段４８巷６０弄９２號","OBJECTID":149868},"geometry":{"x":166477.74000000209,"y":2549872.040000001}},{"attributes":{"ID":149870,"DIS_CODE":0,"TOWNNAME":"安南區","LI":"溪心里","LIN":"3鄰","STREET":"海佃路","SECT":"三段","MAREA":" ","LANE":"４８巷","ALLEY":"６０弄","HOUSE_NO":"９６號","E_COORD97":166482.38,"N_COORD97":2549867.9300000002,"ADDRESS":"海佃路三段４８巷６０弄９６號","OBJECTID":149869},"geometry":{"x":166482.37999999989,"y":2549867.9299999997}},{"attributes":{"ID":149871,"DIS_CODE":0,"TOWNNAME":"安南區","LI":"溪心里","LIN":"3鄰","STREET":"海佃路","SECT":"三段","MAREA":" ","LANE":"４８巷","ALLEY":"６０弄","HOUSE_NO":"９８號","E_COORD97":166486.67000000001,"N_COORD97":2549861.8599999999,"ADDRESS":"海佃路三段４８巷６０弄９８號","OBJECTID":149870},"geometry":{"x":166486.67000000086,"y":2549861.8599999994}},{"attributes":{"ID":149872,"DIS_CODE":0,"TOWNNAME":"中西區","LI":"光賢里","LIN":"3鄰","STREET":"武聖路","SECT":" ","MAREA":" ","LANE":"２７巷","ALLEY":"１２弄","HOUSE_NO":"１１號","E_COORD97":167194.76999999999,"N_COORD97":2545021.5499999998,"ADDRESS":"武聖路２７巷１２弄１１號","OBJECTID":149871},"geometry":{"x":167194.76999999955,"y":2545021.5500000045}},{"attributes":{"ID":149873,"DIS_CODE":0,"TOWNNAME":"中西區","LI":"光賢里","LIN":"3鄰","STREET":"武聖路","SECT":" ","MAREA":" ","LANE":"２７巷","ALLEY":"１２弄","HOUSE_NO":"１５號","E_COORD97":167186.29999999999,"N_COORD97":2545026.21,"ADDRESS":"武聖路２７巷１２弄１５號","OBJECTID":149872},"geometry":{"x":167186.30000000075,"y":2545026.2100000009}},{"attributes":{"ID":149874,"DIS_CODE":0,"TOWNNAME":"中西區","LI":"光賢里","LIN":"3鄰","STREET":"武聖路","SECT":" ","MAREA":" ","LANE":"２７巷","ALLEY":"１２弄","HOUSE_NO":"３號","E_COORD97":167210.64000000001,"N_COORD97":2545013.0800000001,"ADDRESS":"武聖路２７巷１２弄３號","OBJECTID":149873},"geometry":{"x":167210.6400000006,"y":2545013.0800000001}},{"attributes":{"ID":149875,"DIS_CODE":0,"TOWNNAME":"中西區","LI":"光賢里","LIN":"3鄰","STREET":"武聖路","SECT":" ","MAREA":" ","LANE":"２７巷","ALLEY":"１２弄","HOUSE_NO":"５號","E_COORD97":167206.62,"N_COORD97":2545015.2000000002,"ADDRESS":"武聖路２７巷１２弄５號","OBJECTID":149874},"geometry":{"x":167206.62000000011,"y":2545015.1999999993}},{"attributes":{"ID":149876,"DIS_CODE":0,"TOWNNAME":"中西區","LI":"光賢里","LIN":"3鄰","STREET":"武聖路","SECT":" ","MAREA":" ","LANE":"２７巷","ALLEY":"１２弄","HOUSE_NO":"７號","E_COORD97":167202.81,"N_COORD97":2545017.3199999998,"ADDRESS":"武聖路２７巷１２弄７號","OBJECTID":149875},"geometry":{"x":167202.81000000052,"y":2545017.3200000022}},{"attributes":{"ID":149877,"DIS_CODE":0,"TOWNNAME":"中西區","LI":"光賢里","LIN":"3鄰","STREET":"武聖路","SECT":" ","MAREA":" ","LANE":"２７巷","ALLEY":"２６弄","HOUSE_NO":"１０號","E_COORD97":167174.45000000001,"N_COORD97":2544968,"ADDRESS":"武聖路２７巷２６弄１０號","OBJECTID":149876},"geometry":{"x":167174.45000000019,"y":2544968.0000000019}},{"attributes":{"ID":149878,"DIS_CODE":0,"TOWNNAME":"中西區","LI":"光賢里","LIN":"3鄰","STREET":"武聖路","SECT":" ","MAREA":" ","LANE":"２７巷","ALLEY":"２６弄","HOUSE_NO":"１２號","E_COORD97":167171.26999999999,"N_COORD97":2544969.8999999999,"ADDRESS":"武聖路２７巷２６弄１２號","OBJECTID":149877},"geometry":{"x":167171.26999999955,"y":2544969.9000000004}},{"attributes":{"ID":149879,"DIS_CODE":0,"TOWNNAME":"中西區","LI":"光賢里","LIN":"3鄰","STREET":"武聖路","SECT":" ","MAREA":" ","LANE":"２７巷","ALLEY":"２６弄","HOUSE_NO":"１４號","E_COORD97":167166.82999999999,"N_COORD97":2544972.23,"ADDRESS":"武聖路２７巷２６弄１４號","OBJECTID":149878},"geometry":{"x":167166.82999999914,"y":2544972.2299999986}},{"attributes":{"ID":149880,"DIS_CODE":0,"TOWNNAME":"中西區","LI":"光賢里","LIN":"3鄰","STREET":"武聖路","SECT":" ","MAREA":" ","LANE":"２７巷","ALLEY":"２６弄","HOUSE_NO":"１８號","E_COORD97":167159.32999999999,"N_COORD97":2544976.0600000001,"ADDRESS":"武聖路２７巷２６弄１８號","OBJECTID":149879},"geometry":{"x":167159.33000000007,"y":2544976.0600000005}},{"attributes":{"ID":149881,"DIS_CODE":0,"TOWNNAME":"中西區","LI":"光賢里","LIN":"3鄰","STREET":"武聖路","SECT":" ","MAREA":" ","LANE":"２７巷","ALLEY":"２６弄","HOUSE_NO":"２０號","E_COORD97":167155.26999999999,"N_COORD97":2544978.1000000001,"ADDRESS":"武聖路２７巷２６弄２０號","OBJECTID":149880},"geometry":{"x":167155.27000000048,"y":2544978.0999999996}},{"attributes":{"ID":149882,"DIS_CODE":0,"TOWNNAME":"中西區","LI":"光賢里","LIN":"3鄰","STREET":"武聖路","SECT":" ","MAREA":" ","LANE":"２７巷","ALLEY":"２６弄","HOUSE_NO":"２２號","E_COORD97":167151.32999999999,"N_COORD97":2544980.3799999999,"ADDRESS":"武聖路２７巷２６弄２２號","OBJECTID":149881},"geometry":{"x":167151.33000000007,"y":2544980.3800000008}},{"attributes":{"ID":149883,"DIS_CODE":0,"TOWNNAME":"中西區","LI":"光賢里","LIN":"3鄰","STREET":"武聖路","SECT":" ","MAREA":" ","LANE":"２７巷","ALLEY":"２６弄","HOUSE_NO":"２號","E_COORD97":167187.98999999999,"N_COORD97":2544960.5899999999,"ADDRESS":"武聖路２７巷２６弄２號","OBJECTID":149882},"geometry":{"x":167187.99000000209,"y":2544960.5900000017}},{"attributes":{"ID":149884,"DIS_CODE":0,"TOWNNAME":"中西區","LI":"光賢里","LIN":"3鄰","STREET":"武聖路","SECT":" ","MAREA":" ","LANE":"２７巷","ALLEY":"２６弄","HOUSE_NO":"４號","E_COORD97":167184.39999999999,"N_COORD97":2544962.5,"ADDRESS":"武聖路２７巷２６弄４號","OBJECTID":149883},"geometry":{"x":167184.4000000013,"y":2544962.5}},{"attributes":{"ID":149885,"DIS_CODE":0,"TOWNNAME":"中西區","LI":"光賢里","LIN":"3鄰","STREET":"武聖路","SECT":" ","MAREA":" ","LANE":"２７巷","ALLEY":"２６弄","HOUSE_NO":"６號","E_COORD97":167180.79999999999,"N_COORD97":2544964.3999999999,"ADDRESS":"武聖路２７巷２６弄６號","OBJECTID":149884},"geometry":{"x":167180.80000000075,"y":2544964.4000000041}},{"attributes":{"ID":149886,"DIS_CODE":0,"TOWNNAME":"中西區","LI":"光賢里","LIN":"3鄰","STREET":"武聖路","SECT":" ","MAREA":" ","LANE":"２７巷","ALLEY":"２６弄","HOUSE_NO":"８號","E_COORD97":167177.41,"N_COORD97":2544966.73,"ADDRESS":"武聖路２７巷２６弄８號","OBJECTID":149885},"geometry":{"x":167177.41000000108,"y":2544966.7300000023}},{"attributes":{"ID":149887,"DIS_CODE":0,"TOWNNAME":"中西區","LI":"光賢里","LIN":"3鄰","STREET":"武聖路","SECT":" ","MAREA":" ","LANE":"２７巷","ALLEY":"５弄","HOUSE_NO":"２號","E_COORD97":167223.76999999999,"N_COORD97":2545009.0600000001,"ADDRESS":"武聖路２７巷５弄２號","OBJECTID":149886},"geometry":{"x":167223.76999999955,"y":2545009.0600000024}},{"attributes":{"ID":149888,"DIS_CODE":0,"TOWNNAME":"中西區","LI":"光賢里","LIN":"3鄰","STREET":"武聖路","SECT":" ","MAREA":" ","LANE":"２７巷","ALLEY":"５弄","HOUSE_NO":"４號","E_COORD97":167227.79000000001,"N_COORD97":2545006.52,"ADDRESS":"武聖路２７巷５弄４號","OBJECTID":149887},"geometry":{"x":167227.79000000004,"y":2545006.5199999996}},{"attributes":{"ID":149889,"DIS_CODE":0,"TOWNNAME":"中西區","LI":"光賢里","LIN":"3鄰","STREET":"武聖路","SECT":" ","MAREA":" ","LANE":"２７巷","ALLEY":"５弄","HOUSE_NO":"６號","E_COORD97":167231.60000000001,"N_COORD97":2545004.1899999999,"ADDRESS":"武聖路２７巷５弄６號","OBJECTID":149888},"geometry":{"x":167231.59999999963,"y":2545004.1899999995}},{"attributes":{"ID":149890,"DIS_CODE":0,"TOWNNAME":"中西區","LI":"光賢里","LIN":"3鄰","STREET":"武聖路","SECT":" ","MAREA":" ","LANE":"２７巷","ALLEY":"５弄","HOUSE_NO":"８號","E_COORD97":167236.47,"N_COORD97":2545001.8700000001,"ADDRESS":"武聖路２７巷５弄８號","OBJECTID":149889},"geometry":{"x":167236.46999999974,"y":2545001.870000001}},{"attributes":{"ID":149891,"DIS_CODE":0,"TOWNNAME":"善化區","LI":"胡厝里","LIN":"14鄰","STREET":" ","SECT":" ","MAREA":"胡厝寮","LANE":" ","ALLEY":" ","HOUSE_NO":"２３５號","E_COORD97":174971.70999999999,"N_COORD97":2560198.5,"ADDRESS":"胡厝寮２３５號","OBJECTID":149890},"geometry":{"x":174971.70999999996,"y":2560198.5}},{"attributes":{"ID":149892,"DIS_CODE":0,"TOWNNAME":"善化區","LI":"東昌里","LIN":"4鄰","STREET":" ","SECT":" ","MAREA":"東勢寮","LANE":" ","ALLEY":" ","HOUSE_NO":"３９號之２","E_COORD97":180700.39999999999,"N_COORD97":2561805.27,"ADDRESS":"東勢寮３９號之２","OBJECTID":149891},"geometry":{"x":180700.40000000037,"y":2561805.2700000014}},{"attributes":{"ID":149893,"DIS_CODE":0,"TOWNNAME":"善化區","LI":"溪美里","LIN":"4鄰","STREET":" ","SECT":" ","MAREA":"溪尾","LANE":" ","ALLEY":" ","HOUSE_NO":"２９號之２","E_COORD97":176713.10999999999,"N_COORD97":2561037.52,"ADDRESS":"溪尾２９號之２","OBJECTID":149892},"geometry":{"x":176713.11000000127,"y":2561037.5200000014}},{"attributes":{"ID":149894,"DIS_CODE":0,"TOWNNAME":"善化區","LI":"胡厝里","LIN":"13鄰","STREET":" ","SECT":" ","MAREA":"胡厝寮","LANE":" ","ALLEY":" ","HOUSE_NO":"２２４號","E_COORD97":175009.5,"N_COORD97":2560304.75,"ADDRESS":"胡厝寮２２４號","OBJECTID":149893},"geometry":{"x":175009.50000000093,"y":2560304.7500000019}},{"attributes":{"ID":149895,"DIS_CODE":0,"TOWNNAME":"善化區","LI":"胡厝里","LIN":"20鄰","STREET":" ","SECT":" ","MAREA":"西衛","LANE":" ","ALLEY":" ","HOUSE_NO":"３６號之１３","E_COORD97":174006.84,"N_COORD97":2559191.52,"ADDRESS":"西衛３６號之１３","OBJECTID":149894},"geometry":{"x":174006.84000000078,"y":2559191.5199999996}},{"attributes":{"ID":149896,"DIS_CODE":0,"TOWNNAME":"善化區","LI":"田寮里","LIN":" ","STREET":" ","SECT":" ","MAREA":"六分寮","LANE":" ","ALLEY":" ","HOUSE_NO":"１３１之４０號","E_COORD97":178610.76000000001,"N_COORD97":2561222.77,"ADDRESS":"六分寮１３１之４０號","OBJECTID":149895},"geometry":{"x":178610.75999999978,"y":2561222.7700000014}},{"attributes":{"ID":149897,"DIS_CODE":0,"TOWNNAME":"善化區","LI":"田寮里","LIN":"13鄰","STREET":" ","SECT":" ","MAREA":"六分寮","LANE":" ","ALLEY":" ","HOUSE_NO":"１３８號","E_COORD97":178640.04999999999,"N_COORD97":2561313.5,"ADDRESS":"六分寮１３８號","OBJECTID":149896},"geometry":{"x":178640.05000000075,"y":2561313.5}},{"attributes":{"ID":149898,"DIS_CODE":0,"TOWNNAME":"善化區","LI":"胡家里","LIN":" ","STREET":" ","SECT":" ","MAREA":"胡厝寮","LANE":" ","ALLEY":" ","HOUSE_NO":"４８之２號","E_COORD97":175469.32000000001,"N_COORD97":2560577.52,"ADDRESS":"胡厝寮４８之２號","OBJECTID":149897},"geometry":{"x":175469.32000000123,"y":2560577.5199999996}},{"attributes":{"ID":149899,"DIS_CODE":0,"TOWNNAME":"善化區","LI":"東昌里","LIN":"4鄰","STREET":" ","SECT":" ","MAREA":"東勢寮","LANE":" ","ALLEY":" ","HOUSE_NO":"４４號之１","E_COORD97":180706.64999999999,"N_COORD97":2561951.27,"ADDRESS":"東勢寮４４號之１","OBJECTID":149898},"geometry":{"x":180706.6500000013,"y":2561951.2700000014}},{"attributes":{"ID":149900,"DIS_CODE":0,"TOWNNAME":"善化區","LI":"胡家里","LIN":"4鄰","STREET":" ","SECT":" ","MAREA":"胡厝寮","LANE":" ","ALLEY":" ","HOUSE_NO":"３８號","E_COORD97":175434.5,"N_COORD97":2560506.25,"ADDRESS":"胡厝寮３８號","OBJECTID":149899},"geometry":{"x":175434.5,"y":2560506.25}},{"attributes":{"ID":149901,"DIS_CODE":0,"TOWNNAME":"安定區","LI":"中沙里","LIN":"5鄰","STREET":" ","SECT":" ","MAREA":"沙崙","LANE":" ","ALLEY":" ","HOUSE_NO":"３２號","E_COORD97":168929.950603,"N_COORD97":2552462.95609,"ADDRESS":"沙崙３２號","OBJECTID":149900},"geometry":{"x":168929.95060300082,"y":2552462.9560880028}},{"attributes":{"ID":149902,"DIS_CODE":0,"TOWNNAME":"安定區","LI":"中沙里","LIN":"5鄰","STREET":" ","SECT":" ","MAREA":"沙崙","LANE":" ","ALLEY":" ","HOUSE_NO":"３號","E_COORD97":168662.72,"N_COORD97":2552218.29,"ADDRESS":"沙崙３號","OBJECTID":149901},"geometry":{"x":168662.72000000067,"y":2552218.2899999991}},{"attributes":{"ID":149903,"DIS_CODE":0,"TOWNNAME":"善化區","LI":"嘉北里","LIN":"4鄰","STREET":" ","SECT":" ","MAREA":"茄拔","LANE":" ","ALLEY":" ","HOUSE_NO":"３８號之２０","E_COORD97":181148.89000000001,"N_COORD97":2559669.27,"ADDRESS":"茄拔３８號之２０","OBJECTID":149902},"geometry":{"x":181148.88999999966,"y":2559669.2700000014}},{"attributes":{"ID":149904,"DIS_CODE":0,"TOWNNAME":"善化區","LI":"坐駕里","LIN":"20鄰","STREET":" ","SECT":" ","MAREA":"坐駕","LANE":" ","ALLEY":" ","HOUSE_NO":"１０５號","E_COORD97":178294.67999999999,"N_COORD97":2558324,"ADDRESS":"坐駕１０５號","OBJECTID":149903},"geometry":{"x":178294.67999999877,"y":2558324}},{"attributes":{"ID":149905,"DIS_CODE":0,"TOWNNAME":"善化區","LI":"胡家里","LIN":"4鄰","STREET":" ","SECT":" ","MAREA":"胡厝寮","LANE":" ","ALLEY":" ","HOUSE_NO":"３０號之５","E_COORD97":175455.85000000001,"N_COORD97":2560437.52,"ADDRESS":"胡厝寮３０號之５","OBJECTID":149904},"geometry":{"x":175455.85000000149,"y":2560437.5200000014}},{"attributes":{"ID":149906,"DIS_CODE":0,"TOWNNAME":"善化區","LI":"田寮里","LIN":"4鄰","STREET":" ","SECT":" ","MAREA":"六分寮","LANE":" ","ALLEY":" ","HOUSE_NO":"５３號之３０","E_COORD97":178406.92999999999,"N_COORD97":2561143.27,"ADDRESS":"六分寮５３號之３０","OBJECTID":149905},"geometry":{"x":178406.93000000063,"y":2561143.2700000033}},{"attributes":{"ID":149907,"DIS_CODE":0,"TOWNNAME":"善化區","LI":"田寮里","LIN":"4鄰","STREET":" ","SECT":" ","MAREA":"六分寮","LANE":" ","ALLEY":" ","HOUSE_NO":"５４號之２","E_COORD97":178434.17999999999,"N_COORD97":2561108.52,"ADDRESS":"六分寮５４號之２","OBJECTID":149906},"geometry":{"x":178434.18000000063,"y":2561108.5200000014}},{"attributes":{"ID":149908,"DIS_CODE":0,"TOWNNAME":"善化區","LI":"坐駕里","LIN":"20鄰","STREET":" ","SECT":" ","MAREA":"坐駕","LANE":" ","ALLEY":" ","HOUSE_NO":"９４號","E_COORD97":178300.32999999999,"N_COORD97":2558350.25,"ADDRESS":"坐駕９４號","OBJECTID":149907},"geometry":{"x":178300.33000000007,"y":2558350.2500000037}},{"attributes":{"ID":149909,"DIS_CODE":0,"TOWNNAME":"善化區","LI":"坐駕里","LIN":"20鄰","STREET":" ","SECT":" ","MAREA":"坐駕","LANE":" ","ALLEY":" ","HOUSE_NO":"１０８號","E_COORD97":178306.17999999999,"N_COORD97":2558326,"ADDRESS":"坐駕１０８號","OBJECTID":149908},"geometry":{"x":178306.1799999997,"y":2558326.0000000019}},{"attributes":{"ID":149910,"DIS_CODE":0,"TOWNNAME":"善化區","LI":"田寮里","LIN":" ","STREET":" ","SECT":" ","MAREA":"六分寮","LANE":" ","ALLEY":" ","HOUSE_NO":"５７之１號","E_COORD97":178445.17000000001,"N_COORD97":2561247.27,"ADDRESS":"六分寮５７之１號","OBJECTID":149909},"geometry":{"x":178445.16999999993,"y":2561247.2699999996}},{"attributes":{"ID":149911,"DIS_CODE":0,"TOWNNAME":"善化區","LI":"小新里","LIN":"20鄰","STREET":" ","SECT":" ","MAREA":"小新營","LANE":" ","ALLEY":" ","HOUSE_NO":"３７２之１號","E_COORD97":180231.07000000001,"N_COORD97":2557112.77,"ADDRESS":"小新營３７２之１號","OBJECTID":149910},"geometry":{"x":180231.07000000123,"y":2557112.7700000014}},{"attributes":{"ID":149912,"DIS_CODE":0,"TOWNNAME":"善化區","LI":"胡家里","LIN":"4鄰","STREET":" ","SECT":" ","MAREA":"胡厝寮","LANE":" ","ALLEY":" ","HOUSE_NO":"３９號之２","E_COORD97":175485.47,"N_COORD97":2560499.77,"ADDRESS":"胡厝寮３９號之２","OBJECTID":149911},"geometry":{"x":175485.46999999881,"y":2560499.7700000014}},{"attributes":{"ID":149913,"DIS_CODE":0,"TOWNNAME":"善化區","LI":"胡家里","LIN":"4鄰","STREET":" ","SECT":" ","MAREA":"胡厝寮","LANE":" ","ALLEY":" ","HOUSE_NO":"３１號之６","E_COORD97":175416.63,"N_COORD97":2560428.77,"ADDRESS":"胡厝寮３１號之６","OBJECTID":149912},"geometry":{"x":175416.62999999989,"y":2560428.7700000014}},{"attributes":{"ID":149914,"DIS_CODE":0,"TOWNNAME":"善化區","LI":"坐駕里","LIN":"20鄰","STREET":" ","SECT":" ","MAREA":"坐駕","LANE":" ","ALLEY":" ","HOUSE_NO":"９１號","E_COORD97":178306.19,"N_COORD97":2558360.5,"ADDRESS":"坐駕９１號","OBJECTID":149913},"geometry":{"x":178306.19000000134,"y":2558360.5}},{"attributes":{"ID":149915,"DIS_CODE":0,"TOWNNAME":"善化區","LI":"坐駕里","LIN":"20鄰","STREET":" ","SECT":" ","MAREA":"坐駕","LANE":" ","ALLEY":" ","HOUSE_NO":"１００號","E_COORD97":178315.32000000001,"N_COORD97":2558351.5,"ADDRESS":"坐駕１００號","OBJECTID":149914},"geometry":{"x":178315.32000000123,"y":2558351.5}},{"attributes":{"ID":149916,"DIS_CODE":0,"TOWNNAME":"善化區","LI":"田寮里","LIN":"4鄰","STREET":" ","SECT":" ","MAREA":"六分寮","LANE":" ","ALLEY":" ","HOUSE_NO":"５４號之３","E_COORD97":178442.17999999999,"N_COORD97":2561133.52,"ADDRESS":"六分寮５４號之３","OBJECTID":149915},"geometry":{"x":178442.18000000156,"y":2561133.5199999996}},{"attributes":{"ID":149917,"DIS_CODE":0,"TOWNNAME":"善化區","LI":"東昌里","LIN":"4鄰","STREET":" ","SECT":" ","MAREA":"東勢寮","LANE":" ","ALLEY":" ","HOUSE_NO":"４４號之４","E_COORD97":180717.10000000001,"N_COORD97":2561949.77,"ADDRESS":"東勢寮４４號之４","OBJECTID":149916},"geometry":{"x":180717.09999999963,"y":2561949.7699999996}},{"attributes":{"ID":149918,"DIS_CODE":0,"TOWNNAME":"善化區","LI":"田寮里","LIN":"4鄰","STREET":" ","SECT":" ","MAREA":"六分寮","LANE":" ","ALLEY":" ","HOUSE_NO":"５１號","E_COORD97":178404.16,"N_COORD97":2561213.25,"ADDRESS":"六分寮５１號","OBJECTID":149917},"geometry":{"x":178404.16000000108,"y":2561213.2500000019}},{"attributes":{"ID":149919,"DIS_CODE":0,"TOWNNAME":"善化區","LI":"坐駕里","LIN":"20鄰","STREET":" ","SECT":" ","MAREA":"坐駕","LANE":" ","ALLEY":" ","HOUSE_NO":"９８號","E_COORD97":178290.20000000001,"N_COORD97":2558338.25,"ADDRESS":"坐駕９８號","OBJECTID":149918},"geometry":{"x":178290.20000000112,"y":2558338.2500000019}},{"attributes":{"ID":149920,"DIS_CODE":0,"TOWNNAME":"善化區","LI":"坐駕里","LIN":"20鄰","STREET":" ","SECT":" ","MAREA":"坐駕","LANE":" ","ALLEY":" ","HOUSE_NO":"６４號","E_COORD97":178285.41,"N_COORD97":2558364,"ADDRESS":"坐駕６４號","OBJECTID":149919},"geometry":{"x":178285.41000000108,"y":2558364}},{"attributes":{"ID":149921,"DIS_CODE":0,"TOWNNAME":"善化區","LI":"坐駕里","LIN":"20鄰","STREET":" ","SECT":" ","MAREA":"坐駕","LANE":" ","ALLEY":" ","HOUSE_NO":"１１４號","E_COORD97":178255.04000000001,"N_COORD97":2558316.75,"ADDRESS":"坐駕１１４號","OBJECTID":149920},"geometry":{"x":178255.04000000004,"y":2558316.7500000019}},{"attributes":{"ID":149922,"DIS_CODE":0,"TOWNNAME":"善化區","LI":"牛庄里","LIN":"13鄰","STREET":" ","SECT":" ","MAREA":"牛庄","LANE":" ","ALLEY":" ","HOUSE_NO":"１３８號","E_COORD97":180071.67999999999,"N_COORD97":2559814.5,"ADDRESS":"牛庄１３８號","OBJECTID":149921},"geometry":{"x":180071.68000000063,"y":2559814.5000000019}},{"attributes":{"ID":149923,"DIS_CODE":0,"TOWNNAME":"善化區","LI":"田寮里","LIN":"13鄰","STREET":" ","SECT":" ","MAREA":"六分寮","LANE":" ","ALLEY":" ","HOUSE_NO":"１４０號","E_COORD97":178654.07999999999,"N_COORD97":2561323.75,"ADDRESS":"六分寮１４０號","OBJECTID":149922},"geometry":{"x":178654.08000000101,"y":2561323.7500000037}},{"attributes":{"ID":149924,"DIS_CODE":0,"TOWNNAME":"善化區","LI":"牛庄里","LIN":"4鄰","STREET":" ","SECT":" ","MAREA":"牛庄","LANE":" ","ALLEY":" ","HOUSE_NO":"３９號之１","E_COORD97":180298.48000000001,"N_COORD97":2560011.27,"ADDRESS":"牛庄３９號之１","OBJECTID":149923},"geometry":{"x":180298.48000000045,"y":2560011.2700000014}},{"attributes":{"ID":149925,"DIS_CODE":0,"TOWNNAME":"善化區","LI":"坐駕里","LIN":"24鄰","STREET":" ","SECT":" ","MAREA":"坐駕","LANE":" ","ALLEY":" ","HOUSE_NO":"２７號之２","E_COORD97":178673.67999999999,"N_COORD97":2558009.77,"ADDRESS":"坐駕２７號之２","OBJECTID":149924},"geometry":{"x":178673.6799999997,"y":2558009.7699999996}},{"attributes":{"ID":149926,"DIS_CODE":0,"TOWNNAME":"善化區","LI":"小新里","LIN":"20鄰","STREET":" ","SECT":" ","MAREA":"小新營","LANE":" ","ALLEY":" ","HOUSE_NO":"３７０之１號","E_COORD97":180220.12,"N_COORD97":2557112.77,"ADDRESS":"小新營３７０之１號","OBJECTID":149925},"geometry":{"x":180220.12000000104,"y":2557112.7700000014}},{"attributes":{"ID":149927,"DIS_CODE":0,"TOWNNAME":"佳里區","LI":"佳化里","LIN":"20鄰","STREET":" ","SECT":" ","MAREA":"佳里興","LANE":" ","ALLEY":" ","HOUSE_NO":"２００號之１","E_COORD97":167205.62,"N_COORD97":2565280.5299999998,"ADDRESS":"佳里興２００號之１","OBJECTID":149926},"geometry":{"x":167205.62000000197,"y":2565280.5299999993}},{"attributes":{"ID":149928,"DIS_CODE":0,"TOWNNAME":"佳里區","LI":"佳化里","LIN":"20鄰","STREET":" ","SECT":" ","MAREA":"佳里興","LANE":" ","ALLEY":" ","HOUSE_NO":"２００號之２","E_COORD97":167204.14999999999,"N_COORD97":2565257.6699999999,"ADDRESS":"佳里興２００號之２","OBJECTID":149927},"geometry":{"x":167204.15000000224,"y":2565257.6700000018}},{"attributes":{"ID":149929,"DIS_CODE":0,"TOWNNAME":"佳里區","LI":"佳化里","LIN":"20鄰","STREET":" ","SECT":" ","MAREA":"佳里興","LANE":" ","ALLEY":" ","HOUSE_NO":"２００號之３","E_COORD97":167224.85000000001,"N_COORD97":2565247.8700000001,"ADDRESS":"佳里興２００號之３","OBJECTID":149928},"geometry":{"x":167224.84999999963,"y":2565247.8700000029}},{"attributes":{"ID":149930,"DIS_CODE":0,"TOWNNAME":"佳里區","LI":"佳化里","LIN":"20鄰","STREET":" ","SECT":" ","MAREA":"佳里興","LANE":" ","ALLEY":" ","HOUSE_NO":"２００號","E_COORD97":167208.60999999999,"N_COORD97":2565241.02,"ADDRESS":"佳里興２００號","OBJECTID":149929},"geometry":{"x":167208.61000000034,"y":2565241.0200000014}},{"attributes":{"ID":149931,"DIS_CODE":0,"TOWNNAME":"佳里區","LI":"佳化里","LIN":"20鄰","STREET":" ","SECT":" ","MAREA":"佳里興","LANE":" ","ALLEY":" ","HOUSE_NO":"２０１號","E_COORD97":167238.60000000001,"N_COORD97":2565261.8999999999,"ADDRESS":"佳里興２０１號","OBJECTID":149930},"geometry":{"x":167238.59999999963,"y":2565261.9000000004}},{"attributes":{"ID":149932,"DIS_CODE":0,"TOWNNAME":"將軍區","LI":"忠興里","LIN":"20鄰","STREET":" ","SECT":" ","MAREA":"忠興","LANE":" ","ALLEY":" ","HOUSE_NO":"２０３之１０號","E_COORD97":163978.57000000001,"N_COORD97":2566569.48,"ADDRESS":"忠興２０３之１０號","OBJECTID":149931},"geometry":{"x":163978.57000000216,"y":2566569.4800000004}},{"attributes":{"ID":149933,"DIS_CODE":0,"TOWNNAME":"將軍區","LI":"忠興里","LIN":"20鄰","STREET":" ","SECT":" ","MAREA":"忠興","LANE":" ","ALLEY":" ","HOUSE_NO":"２０３之１１號","E_COORD97":163982.69,"N_COORD97":2566569.6899999999,"ADDRESS":"忠興２０３之１１號","OBJECTID":149932},"geometry":{"x":163982.69000000041,"y":2566569.6900000013}},{"attributes":{"ID":149934,"DIS_CODE":0,"TOWNNAME":"將軍區","LI":"忠興里","LIN":"20鄰","STREET":" ","SECT":" ","MAREA":"忠興","LANE":" ","ALLEY":" ","HOUSE_NO":"２０３之１２號","E_COORD97":163987.23999999999,"N_COORD97":2566569.3999999999,"ADDRESS":"忠興２０３之１２號","OBJECTID":149933},"geometry":{"x":163987.24000000022,"y":2566569.4000000022}},{"attributes":{"ID":149935,"DIS_CODE":0,"TOWNNAME":"將軍區","LI":"忠興里","LIN":"20鄰","STREET":" ","SECT":" ","MAREA":"忠興","LANE":" ","ALLEY":" ","HOUSE_NO":"２０３之１３號","E_COORD97":163991.42999999999,"N_COORD97":2566569.0699999998,"ADDRESS":"忠興２０３之１３號","OBJECTID":149934},"geometry":{"x":163991.43000000063,"y":2566569.0700000003}},{"attributes":{"ID":149936,"DIS_CODE":0,"TOWNNAME":"將軍區","LI":"忠興里","LIN":"20鄰","STREET":" ","SECT":" ","MAREA":"忠興","LANE":" ","ALLEY":" ","HOUSE_NO":"２０３之１４號","E_COORD97":163995.57999999999,"N_COORD97":2566568.6499999999,"ADDRESS":"忠興２０３之１４號","OBJECTID":149935},"geometry":{"x":163995.58000000101,"y":2566568.6500000004}},{"attributes":{"ID":149937,"DIS_CODE":0,"TOWNNAME":"將軍區","LI":"忠興里","LIN":"20鄰","STREET":" ","SECT":" ","MAREA":"忠興","LANE":" ","ALLEY":" ","HOUSE_NO":"２０３之１５號","E_COORD97":164001.48000000001,"N_COORD97":2566568.2400000002,"ADDRESS":"忠興２０３之１５號","OBJECTID":149936},"geometry":{"x":164001.48000000231,"y":2566568.2400000002}},{"attributes":{"ID":149938,"DIS_CODE":0,"TOWNNAME":"將軍區","LI":"忠興里","LIN":"20鄰","STREET":" ","SECT":" ","MAREA":"忠興","LANE":" ","ALLEY":" ","HOUSE_NO":"２０３之６號","E_COORD97":163961.54000000001,"N_COORD97":2566570.48,"ADDRESS":"忠興２０３之６號","OBJECTID":149937},"geometry":{"x":163961.5400000019,"y":2566570.4800000004}},{"attributes":{"ID":149939,"DIS_CODE":0,"TOWNNAME":"將軍區","LI":"忠興里","LIN":"20鄰","STREET":" ","SECT":" ","MAREA":"忠興","LANE":" ","ALLEY":" ","HOUSE_NO":"２０３之７號","E_COORD97":163966.01000000001,"N_COORD97":2566570.0499999998,"ADDRESS":"忠興２０３之７號","OBJECTID":149938},"geometry":{"x":163966.00999999978,"y":2566570.0500000007}},{"attributes":{"ID":149940,"DIS_CODE":0,"TOWNNAME":"將軍區","LI":"忠興里","LIN":"20鄰","STREET":" ","SECT":" ","MAREA":"忠興","LANE":" ","ALLEY":" ","HOUSE_NO":"２０３之８號","E_COORD97":163970.07999999999,"N_COORD97":2566569.71,"ADDRESS":"忠興２０３之８號","OBJECTID":149939},"geometry":{"x":163970.08000000101,"y":2566569.7100000046}},{"attributes":{"ID":149941,"DIS_CODE":0,"TOWNNAME":"將軍區","LI":"忠興里","LIN":"20鄰","STREET":" ","SECT":" ","MAREA":"忠興","LANE":" ","ALLEY":" ","HOUSE_NO":"２０３之９號","E_COORD97":163974.51999999999,"N_COORD97":2566569.7200000002,"ADDRESS":"忠興２０３之９號","OBJECTID":149940},"geometry":{"x":163974.51999999955,"y":2566569.7200000044}},{"attributes":{"ID":149942,"DIS_CODE":0,"TOWNNAME":"將軍區","LI":"忠興里","LIN":"20鄰","STREET":" ","SECT":" ","MAREA":"忠興","LANE":" ","ALLEY":" ","HOUSE_NO":"２０７號","E_COORD97":163928.70000000001,"N_COORD97":2566717.27,"ADDRESS":"忠興２０７號","OBJECTID":149941},"geometry":{"x":163928.70000000112,"y":2566717.2700000033}},{"attributes":{"ID":149943,"DIS_CODE":0,"TOWNNAME":"將軍區","LI":"忠興里","LIN":"20鄰","STREET":" ","SECT":" ","MAREA":"忠興","LANE":" ","ALLEY":" ","HOUSE_NO":"２０８之６號","E_COORD97":163948.17999999999,"N_COORD97":2566720.6000000001,"ADDRESS":"忠興２０８之６號","OBJECTID":149942},"geometry":{"x":163948.1799999997,"y":2566720.5999999996}},{"attributes":{"ID":149944,"DIS_CODE":0,"TOWNNAME":"將軍區","LI":"忠興里","LIN":"20鄰","STREET":" ","SECT":" ","MAREA":"忠興","LANE":" ","ALLEY":" ","HOUSE_NO":"２０８號","E_COORD97":163955.64999999999,"N_COORD97":2566706.6000000001,"ADDRESS":"忠興２０８號","OBJECTID":149943},"geometry":{"x":163955.65000000037,"y":2566706.5999999996}},{"attributes":{"ID":149945,"DIS_CODE":0,"TOWNNAME":"將軍區","LI":"忠興里","LIN":"20鄰","STREET":" ","SECT":" ","MAREA":"忠興","LANE":" ","ALLEY":" ","HOUSE_NO":"２１２號","E_COORD97":163977.32000000001,"N_COORD97":2566658.5899999999,"ADDRESS":"忠興２１２號","OBJECTID":149944},"geometry":{"x":163977.32000000123,"y":2566658.5900000017}},{"attributes":{"ID":149946,"DIS_CODE":0,"TOWNNAME":"將軍區","LI":"忠興里","LIN":"20鄰","STREET":" ","SECT":" ","MAREA":"忠興","LANE":" ","ALLEY":" ","HOUSE_NO":"２１３之１０號","E_COORD97":163965.14000000001,"N_COORD97":2566605.4199999999,"ADDRESS":"忠興２１３之１０號","OBJECTID":149945},"geometry":{"x":163965.13999999966,"y":2566605.4200000018}},{"attributes":{"ID":149947,"DIS_CODE":0,"TOWNNAME":"將軍區","LI":"忠興里","LIN":"20鄰","STREET":" ","SECT":" ","MAREA":"忠興","LANE":" ","ALLEY":" ","HOUSE_NO":"２１３之１號","E_COORD97":163972.62,"N_COORD97":2566601.9900000002,"ADDRESS":"忠興２１３之１號","OBJECTID":149946},"geometry":{"x":163972.62000000011,"y":2566601.9900000021}},{"attributes":{"ID":149948,"DIS_CODE":0,"TOWNNAME":"將軍區","LI":"忠興里","LIN":"20鄰","STREET":" ","SECT":" ","MAREA":"忠興","LANE":" ","ALLEY":" ","HOUSE_NO":"２１３之２號","E_COORD97":163977.10000000001,"N_COORD97":2566601.6600000001,"ADDRESS":"忠興２１３之２號","OBJECTID":149947},"geometry":{"x":163977.09999999963,"y":2566601.6600000001}},{"attributes":{"ID":149949,"DIS_CODE":0,"TOWNNAME":"將軍區","LI":"忠興里","LIN":"20鄰","STREET":" ","SECT":" ","MAREA":"忠興","LANE":" ","ALLEY":" ","HOUSE_NO":"２１３之５號","E_COORD97":163990.60999999999,"N_COORD97":2566601.0899999999,"ADDRESS":"忠興２１３之５號","OBJECTID":149948},"geometry":{"x":163990.61000000127,"y":2566601.0900000017}},{"attributes":{"ID":149950,"DIS_CODE":0,"TOWNNAME":"將軍區","LI":"忠興里","LIN":"20鄰","STREET":" ","SECT":" ","MAREA":"忠興","LANE":" ","ALLEY":" ","HOUSE_NO":"２１３之６號","E_COORD97":163995.01000000001,"N_COORD97":2566600.77,"ADDRESS":"忠興２１３之６號","OBJECTID":149949},"geometry":{"x":163995.00999999978,"y":2566600.7699999996}},{"attributes":{"ID":149951,"DIS_CODE":0,"TOWNNAME":"善化區","LI":"光文里","LIN":"19鄰","STREET":"民生路","SECT":" ","MAREA":" ","LANE":" ","ALLEY":" ","HOUSE_NO":"２９３號地下一樓","E_COORD97":178190.70999999999,"N_COORD97":2558910.0099999998,"ADDRESS":"民生路２９３號地下一樓","OBJECTID":149950},"geometry":{"x":178190.70999999996,"y":2558910.0099999998}},{"attributes":{"ID":149952,"DIS_CODE":0,"TOWNNAME":"善化區","LI":"光文里","LIN":"19鄰","STREET":"民生路","SECT":" ","MAREA":" ","LANE":" ","ALLEY":" ","HOUSE_NO":"２７７號八樓","E_COORD97":178226.07000000001,"N_COORD97":2558885.25,"ADDRESS":"民生路２７７號八樓","OBJECTID":149951},"geometry":{"x":178226.0700000003,"y":2558885.25}},{"attributes":{"ID":149953,"DIS_CODE":0,"TOWNNAME":"善化區","LI":"光文里","LIN":"19鄰","STREET":"民生路","SECT":" ","MAREA":" ","LANE":" ","ALLEY":" ","HOUSE_NO":"２８７號四樓","E_COORD97":178204.41,"N_COORD97":2558912.2599999998,"ADDRESS":"民生路２８７號四樓","OBJECTID":149952},"geometry":{"x":178204.41000000108,"y":2558912.2599999998}},{"attributes":{"ID":149954,"DIS_CODE":0,"TOWNNAME":"善化區","LI":"光文里","LIN":"19鄰","STREET":"民生路","SECT":" ","MAREA":" ","LANE":" ","ALLEY":" ","HOUSE_NO":"２６７號九樓","E_COORD97":178223.57000000001,"N_COORD97":2558915.7599999998,"ADDRESS":"民生路２６７號九樓","OBJECTID":149953},"geometry":{"x":178223.57000000123,"y":2558915.7599999998}},{"attributes":{"ID":149955,"DIS_CODE":0,"TOWNNAME":"中西區","LI":"光賢里","LIN":"3鄰","STREET":"武聖路","SECT":" ","MAREA":" ","LANE":"２７巷","ALLEY":"１２弄","HOUSE_NO":"１號","E_COORD97":167214.88,"N_COORD97":2545010.7599999998,"ADDRESS":"武聖路２７巷１２弄１號","OBJECTID":149954},"geometry":{"x":167214.87999999989,"y":2545010.7599999998}},{"attributes":{"ID":149956,"DIS_CODE":0,"TOWNNAME":"善化區","LI":"光文里","LIN":"19鄰","STREET":"民生路","SECT":" ","MAREA":" ","LANE":" ","ALLEY":" ","HOUSE_NO":"２８３號三樓之１","E_COORD97":178199.42999999999,"N_COORD97":2558880.52,"ADDRESS":"民生路２８３號三樓之１","OBJECTID":149955},"geometry":{"x":178199.4299999997,"y":2558880.5200000033}},{"attributes":{"ID":149957,"DIS_CODE":0,"TOWNNAME":"永康區","LI":"中華里","LIN":"3鄰","STREET":"小東路","SECT":" ","MAREA":" ","LANE":"６４７巷","ALLEY":"１０弄","HOUSE_NO":"１０號","E_COORD97":171986,"N_COORD97":2544375.1699999999,"ADDRESS":"小東路６４７巷１０弄１０號","OBJECTID":149956},"geometry":{"x":171986,"y":2544375.1699999999}},{"attributes":{"ID":149958,"DIS_CODE":0,"TOWNNAME":"永康區","LI":"中華里","LIN":"3鄰","STREET":"小東路","SECT":" ","MAREA":" ","LANE":"６４７巷","ALLEY":"１０弄","HOUSE_NO":"１４號","E_COORD97":171994.47,"N_COORD97":2544374.8799999999,"ADDRESS":"小東路６４７巷１０弄１４號","OBJECTID":149957},"geometry":{"x":171994.46999999974,"y":2544374.879999999}},{"attributes":{"ID":149959,"DIS_CODE":0,"TOWNNAME":"永康區","LI":"中興里","LIN":"3鄰","STREET":"中山東路","SECT":" ","MAREA":" ","LANE":"４７２巷","ALLEY":"１弄","HOUSE_NO":"１號","E_COORD97":171944.44,"N_COORD97":2545013.2400000002,"ADDRESS":"中山東路４７２巷１弄１號","OBJECTID":149958},"geometry":{"x":171944.44000000041,"y":2545013.2400000021}},{"attributes":{"ID":149960,"DIS_CODE":0,"TOWNNAME":"中西區","LI":"西湖里","LIN":"3鄰","STREET":"頂美二街","SECT":" ","MAREA":" ","LANE":"７２巷","ALLEY":"２弄","HOUSE_NO":"１０號","E_COORD97":166480.45000000001,"N_COORD97":2544600.5699999998,"ADDRESS":"頂美二街７２巷２弄１０號","OBJECTID":149959},"geometry":{"x":166480.45000000112,"y":2544600.570000004}},{"attributes":{"ID":149961,"DIS_CODE":0,"TOWNNAME":"中西區","LI":"西湖里","LIN":"3鄰","STREET":"頂美二街","SECT":" ","MAREA":" ","LANE":"７２巷","ALLEY":"２弄","HOUSE_NO":"１２號","E_COORD97":166488.95999999999,"N_COORD97":2544600.6899999999,"ADDRESS":"頂美二街７２巷２弄１２號","OBJECTID":149960},"geometry":{"x":166488.95999999996,"y":2544600.6899999995}},{"attributes":{"ID":149962,"DIS_CODE":0,"TOWNNAME":"中西區","LI":"西湖里","LIN":"3鄰","STREET":"頂美二街","SECT":" ","MAREA":" ","LANE":"７２巷","ALLEY":"２弄","HOUSE_NO":"２號","E_COORD97":166446.16,"N_COORD97":2544599.6800000002,"ADDRESS":"頂美二街７２巷２弄２號","OBJECTID":149961},"geometry":{"x":166446.16000000108,"y":2544599.6800000016}},{"attributes":{"ID":149963,"DIS_CODE":0,"TOWNNAME":"中西區","LI":"西湖里","LIN":"3鄰","STREET":"頂美二街","SECT":" ","MAREA":" ","LANE":"７２巷","ALLEY":"２弄","HOUSE_NO":"４號","E_COORD97":166455.17999999999,"N_COORD97":2544599.8100000001,"ADDRESS":"頂美二街７２巷２弄４號","OBJECTID":149962},"geometry":{"x":166455.1799999997,"y":2544599.8100000024}},{"attributes":{"ID":149964,"DIS_CODE":0,"TOWNNAME":"中西區","LI":"西湖里","LIN":"3鄰","STREET":"頂美二街","SECT":" ","MAREA":" ","LANE":"７２巷","ALLEY":"２弄","HOUSE_NO":"６號","E_COORD97":166463.69,"N_COORD97":2544600.1899999999,"ADDRESS":"頂美二街７２巷２弄６號","OBJECTID":149963},"geometry":{"x":166463.69000000134,"y":2544600.1900000013}},{"attributes":{"ID":149965,"DIS_CODE":0,"TOWNNAME":"中西區","LI":"西湖里","LIN":"3鄰","STREET":"頂美二街","SECT":" ","MAREA":" ","LANE":"７２巷","ALLEY":"２弄","HOUSE_NO":"８號","E_COORD97":166472.07000000001,"N_COORD97":2544600.1899999999,"ADDRESS":"頂美二街７２巷２弄８號","OBJECTID":149964},"geometry":{"x":166472.06999999937,"y":2544600.1900000013}},{"attributes":{"ID":149966,"DIS_CODE":0,"TOWNNAME":"將軍區","LI":"忠興里","LIN":"20鄰","STREET":" ","SECT":" ","MAREA":"忠興","LANE":" ","ALLEY":" ","HOUSE_NO":"２１３之７號","E_COORD97":163998.79999999999,"N_COORD97":2566600.7999999998,"ADDRESS":"忠興２１３之７號","OBJECTID":149965},"geometry":{"x":163998.80000000075,"y":2566600.8000000026}},{"attributes":{"ID":149967,"DIS_CODE":0,"TOWNNAME":"將軍區","LI":"忠興里","LIN":"20鄰","STREET":" ","SECT":" ","MAREA":"忠興","LANE":" ","ALLEY":" ","HOUSE_NO":"２１３之８號","E_COORD97":164004.41,"N_COORD97":2566598.0099999998,"ADDRESS":"忠興２１３之８號","OBJECTID":149966},"geometry":{"x":164004.41000000015,"y":2566598.0100000016}},{"attributes":{"ID":149968,"DIS_CODE":0,"TOWNNAME":"將軍區","LI":"忠興里","LIN":"20鄰","STREET":" ","SECT":" ","MAREA":"忠興","LANE":" ","ALLEY":" ","HOUSE_NO":"２１３之９號","E_COORD97":163960.73999999999,"N_COORD97":2566605.4199999999,"ADDRESS":"忠興２１３之９號","OBJECTID":149967},"geometry":{"x":163960.74000000115,"y":2566605.4200000018}},{"attributes":{"ID":149969,"DIS_CODE":0,"TOWNNAME":"永康區","LI":"大灣里","LIN":"19鄰","STREET":"大灣路","SECT":" ","MAREA":" ","LANE":" ","ALLEY":" ","HOUSE_NO":"３７８號","E_COORD97":174818.82000000001,"N_COORD97":2545081.6800000002,"ADDRESS":"大灣路３７８號","OBJECTID":149968},"geometry":{"x":174818.8200000003,"y":2545081.6800000016}},{"attributes":{"ID":149970,"DIS_CODE":0,"TOWNNAME":"中西區","LI":"西湖里","LIN":"3鄰","STREET":"頂美二街","SECT":" ","MAREA":" ","LANE":"７２巷","ALLEY":"２弄","HOUSE_NO":"１４號","E_COORD97":166497.73000000001,"N_COORD97":2544600.9500000002,"ADDRESS":"頂美二街７２巷２弄１４號","OBJECTID":149969},"geometry":{"x":166497.73000000045,"y":2544600.9500000011}},{"attributes":{"ID":149971,"DIS_CODE":0,"TOWNNAME":"永康區","LI":"復國里","LIN":"19鄰","STREET":"國華街","SECT":" ","MAREA":" ","LANE":" ","ALLEY":" ","HOUSE_NO":"５１號十三樓之２","E_COORD97":172810.32999999999,"N_COORD97":2545722.6800000002,"ADDRESS":"國華街５１號十三樓之２","OBJECTID":149970},"geometry":{"x":172810.33000000101,"y":2545722.6800000016}},{"attributes":{"ID":149972,"DIS_CODE":0,"TOWNNAME":"中西區","LI":"西湖里","LIN":"3鄰","STREET":"頂美二街","SECT":" ","MAREA":" ","LANE":"７２巷","ALLEY":"２弄","HOUSE_NO":"１６號","E_COORD97":166506.23000000001,"N_COORD97":2544601.2000000002,"ADDRESS":"頂美二街７２巷２弄１６號","OBJECTID":149971},"geometry":{"x":166506.23000000045,"y":2544601.1999999993}},{"attributes":{"ID":149973,"DIS_CODE":0,"TOWNNAME":"仁德區","LI":"太子里","LIN":"3鄰","STREET":"太子路","SECT":" ","MAREA":" ","LANE":"１９０巷","ALLEY":"２３弄","HOUSE_NO":"１０號","E_COORD97":174283.5,"N_COORD97":2543594.6000000001,"ADDRESS":"太子路１９０巷２３弄１０號","OBJECTID":149972},"geometry":{"x":174283.5,"y":2543594.5999999996}},{"attributes":{"ID":149974,"DIS_CODE":0,"TOWNNAME":"仁德區","LI":"太子里","LIN":"3鄰","STREET":"太子路","SECT":" ","MAREA":" ","LANE":"１９０巷","ALLEY":"２３弄","HOUSE_NO":"１２號","E_COORD97":174279.32000000001,"N_COORD97":2543594.1000000001,"ADDRESS":"太子路１９０巷２３弄１２號","OBJECTID":149973},"geometry":{"x":174279.32000000123,"y":2543594.1000000015}},{"attributes":{"ID":149975,"DIS_CODE":0,"TOWNNAME":"仁德區","LI":"太子里","LIN":"3鄰","STREET":"太子路","SECT":" ","MAREA":" ","LANE":"１９０巷","ALLEY":"２３弄","HOUSE_NO":"１４號","E_COORD97":174275.54000000001,"N_COORD97":2543594.1000000001,"ADDRESS":"太子路１９０巷２３弄１４號","OBJECTID":149974},"geometry":{"x":174275.54000000097,"y":2543594.1000000015}},{"attributes":{"ID":149976,"DIS_CODE":0,"TOWNNAME":"仁德區","LI":"太子里","LIN":"3鄰","STREET":"太子路","SECT":" ","MAREA":" ","LANE":"１９０巷","ALLEY":"２３弄","HOUSE_NO":"２８號","E_COORD97":174243.64999999999,"N_COORD97":2543593.1000000001,"ADDRESS":"太子路１９０巷２３弄２８號","OBJECTID":149975},"geometry":{"x":174243.65000000037,"y":2543593.1000000015}},{"attributes":{"ID":149977,"DIS_CODE":0,"TOWNNAME":"仁德區","LI":"太子里","LIN":"3鄰","STREET":"太子路","SECT":" ","MAREA":" ","LANE":"１９０巷","ALLEY":"２３弄","HOUSE_NO":"１３號","E_COORD97":174274.23999999999,"N_COORD97":2543575.25,"ADDRESS":"太子路１９０巷２３弄１３號","OBJECTID":149976},"geometry":{"x":174274.24000000115,"y":2543575.2500000037}},{"attributes":{"ID":149978,"DIS_CODE":0,"TOWNNAME":"將軍區","LI":"忠興里","LIN":"20鄰","STREET":" ","SECT":" ","MAREA":"忠興","LANE":" ","ALLEY":" ","HOUSE_NO":"２１４之１號","E_COORD97":163967.54000000001,"N_COORD97":2566551.25,"ADDRESS":"忠興２１４之１號","OBJECTID":149977},"geometry":{"x":163967.54000000004,"y":2566551.25}},{"attributes":{"ID":149979,"DIS_CODE":0,"TOWNNAME":"將軍區","LI":"忠興里","LIN":"20鄰","STREET":" ","SECT":" ","MAREA":"忠興","LANE":" ","ALLEY":" ","HOUSE_NO":"２１４號","E_COORD97":163949.39000000001,"N_COORD97":2566546.3399999999,"ADDRESS":"忠興２１４號","OBJECTID":149978},"geometry":{"x":163949.3900000006,"y":2566546.3399999999}},{"attributes":{"ID":149980,"DIS_CODE":0,"TOWNNAME":"將軍區","LI":"忠興里","LIN":"20鄰","STREET":" ","SECT":" ","MAREA":"忠興","LANE":" ","ALLEY":" ","HOUSE_NO":"２１５之１號","E_COORD97":164025.62,"N_COORD97":2566572.02,"ADDRESS":"忠興２１５之１號","OBJECTID":149979},"geometry":{"x":164025.62000000197,"y":2566572.0199999996}},{"attributes":{"ID":149981,"DIS_CODE":0,"TOWNNAME":"仁德區","LI":"太子里","LIN":"3鄰","STREET":"太子路","SECT":" ","MAREA":" ","LANE":"１９０巷","ALLEY":"２３弄","HOUSE_NO":"５號","E_COORD97":174290.07999999999,"N_COORD97":2543581,"ADDRESS":"太子路１９０巷２３弄５號","OBJECTID":149980},"geometry":{"x":174290.08000000194,"y":2543581.0000000019}},{"attributes":{"ID":149982,"DIS_CODE":0,"TOWNNAME":"將軍區","LI":"忠興里","LIN":"20鄰","STREET":" ","SECT":" ","MAREA":"忠興","LANE":" ","ALLEY":" ","HOUSE_NO":"２１５號","E_COORD97":164020.13,"N_COORD97":2566569.5499999998,"ADDRESS":"忠興２１５號","OBJECTID":149981},"geometry":{"x":164020.13000000175,"y":2566569.5500000007}},{"attributes":{"ID":149983,"DIS_CODE":0,"TOWNNAME":"將軍區","LI":"忠興里","LIN":"20鄰","STREET":" ","SECT":" ","MAREA":"忠興","LANE":" ","ALLEY":" ","HOUSE_NO":"２１６之１號","E_COORD97":164045.23999999999,"N_COORD97":2566577.1499999999,"ADDRESS":"忠興２１６之１號","OBJECTID":149982},"geometry":{"x":164045.24000000209,"y":2566577.1500000022}},{"attributes":{"ID":149984,"DIS_CODE":0,"TOWNNAME":"仁德區","LI":"太子里","LIN":"3鄰","STREET":"太子路","SECT":" ","MAREA":" ","LANE":"１９０巷","ALLEY":"２３弄","HOUSE_NO":"１５號","E_COORD97":174270.19,"N_COORD97":2543575.25,"ADDRESS":"太子路１９０巷２３弄１５號","OBJECTID":149983},"geometry":{"x":174270.19000000134,"y":2543575.2500000037}},{"attributes":{"ID":149985,"DIS_CODE":0,"TOWNNAME":"永康區","LI":"復國里","LIN":"19鄰","STREET":"國華街","SECT":" ","MAREA":" ","LANE":" ","ALLEY":" ","HOUSE_NO":"５１號六樓之１","E_COORD97":172808.95000000001,"N_COORD97":2545722.6800000002,"ADDRESS":"國華街５１號六樓之１","OBJECTID":149984},"geometry":{"x":172808.95000000019,"y":2545722.6800000016}},{"attributes":{"ID":149986,"DIS_CODE":0,"TOWNNAME":"將軍區","LI":"忠興里","LIN":"20鄰","STREET":" ","SECT":" ","MAREA":"忠興","LANE":" ","ALLEY":" ","HOUSE_NO":"２１６號","E_COORD97":164055.85999999999,"N_COORD97":2566589.8399999999,"ADDRESS":"忠興２１６號","OBJECTID":149985},"geometry":{"x":164055.86000000034,"y":2566589.8400000017}},{"attributes":{"ID":149987,"DIS_CODE":0,"TOWNNAME":"將軍區","LI":"忠興里","LIN":"20鄰","STREET":" ","SECT":" ","MAREA":"忠興","LANE":" ","ALLEY":" ","HOUSE_NO":"２１７之１號","E_COORD97":164058.91,"N_COORD97":2566636.7000000002,"ADDRESS":"忠興２１７之１號","OBJECTID":149986},"geometry":{"x":164058.91000000015,"y":2566636.7000000011}},{"attributes":{"ID":149988,"DIS_CODE":0,"TOWNNAME":"將軍區","LI":"忠興里","LIN":"20鄰","STREET":" ","SECT":" ","MAREA":"忠興","LANE":" ","ALLEY":" ","HOUSE_NO":"２１７之２０號","E_COORD97":164072.20000000001,"N_COORD97":2566727.3799999999,"ADDRESS":"忠興２１７之２０號","OBJECTID":149987},"geometry":{"x":164072.20000000019,"y":2566727.3800000008}},{"attributes":{"ID":149989,"DIS_CODE":0,"TOWNNAME":"永康區","LI":"復國里","LIN":"19鄰","STREET":"國華街","SECT":" ","MAREA":" ","LANE":" ","ALLEY":" ","HOUSE_NO":"５３號十一樓之１","E_COORD97":172795.84,"N_COORD97":2545723.1800000002,"ADDRESS":"國華街５３號十一樓之１","OBJECTID":149988},"geometry":{"x":172795.83999999985,"y":2545723.1799999997}},{"attributes":{"ID":149990,"DIS_CODE":0,"TOWNNAME":"永康區","LI":"復國里","LIN":"19鄰","STREET":"國華街","SECT":" ","MAREA":" ","LANE":" ","ALLEY":" ","HOUSE_NO":"５３號四樓之２","E_COORD97":172794.72,"N_COORD97":2545723.1800000002,"ADDRESS":"國華街５３號四樓之２","OBJECTID":149989},"geometry":{"x":172794.71999999974,"y":2545723.1799999997}},{"attributes":{"ID":149991,"DIS_CODE":0,"TOWNNAME":"將軍區","LI":"忠興里","LIN":"20鄰","STREET":" ","SECT":" ","MAREA":"忠興","LANE":" ","ALLEY":" ","HOUSE_NO":"２１７之２號","E_COORD97":164078.88,"N_COORD97":2566655.0299999998,"ADDRESS":"忠興２１７之２號","OBJECTID":149990},"geometry":{"x":164078.87999999989,"y":2566655.0300000012}},{"attributes":{"ID":149992,"DIS_CODE":0,"TOWNNAME":"永康區","LI":"復國里","LIN":"19鄰","STREET":"國華街","SECT":" ","MAREA":" ","LANE":" ","ALLEY":" ","HOUSE_NO":"５３號十四樓之２","E_COORD97":172795.97,"N_COORD97":2545723.1800000002,"ADDRESS":"國華街５３號十四樓之２","OBJECTID":149991},"geometry":{"x":172795.97000000067,"y":2545723.1799999997}},{"attributes":{"ID":149993,"DIS_CODE":0,"TOWNNAME":"永康區","LI":"復國里","LIN":"19鄰","STREET":"國華街","SECT":" ","MAREA":" ","LANE":" ","ALLEY":" ","HOUSE_NO":"５３號八樓之１","E_COORD97":172794.59,"N_COORD97":2545723.1800000002,"ADDRESS":"國華街５３號八樓之１","OBJECTID":149992},"geometry":{"x":172794.59000000171,"y":2545723.1799999997}},{"attributes":{"ID":149994,"DIS_CODE":0,"TOWNNAME":"將軍區","LI":"忠興里","LIN":"20鄰","STREET":" ","SECT":" ","MAREA":"忠興","LANE":" ","ALLEY":" ","HOUSE_NO":"２１７之６號","E_COORD97":164094.06,"N_COORD97":2566605.4500000002,"ADDRESS":"忠興２１７之６號","OBJECTID":149993},"geometry":{"x":164094.05999999959,"y":2566605.4499999993}},{"attributes":{"ID":149995,"DIS_CODE":0,"TOWNNAME":"永康區","LI":"復國里","LIN":"19鄰","STREET":"國華街","SECT":" ","MAREA":" ","LANE":" ","ALLEY":" ","HOUSE_NO":"４９號八樓之２","E_COORD97":172823.51999999999,"N_COORD97":2545722.4300000002,"ADDRESS":"國華街４９號八樓之２","OBJECTID":149994},"geometry":{"x":172823.51999999862,"y":2545722.4299999997}},{"attributes":{"ID":149996,"DIS_CODE":0,"TOWNNAME":"永康區","LI":"復國里","LIN":"19鄰","STREET":"國華街","SECT":" ","MAREA":" ","LANE":" ","ALLEY":" ","HOUSE_NO":"５３號八樓之３","E_COORD97":172794.69,"N_COORD97":2545723.1800000002,"ADDRESS":"國華街５３號八樓之３","OBJECTID":149995},"geometry":{"x":172794.69000000134,"y":2545723.1799999997}},{"attributes":{"ID":149997,"DIS_CODE":0,"TOWNNAME":"將軍區","LI":"忠興里","LIN":"20鄰","STREET":" ","SECT":" ","MAREA":"忠興","LANE":" ","ALLEY":" ","HOUSE_NO":"２１７之７號","E_COORD97":164065.82999999999,"N_COORD97":2566709.8100000001,"ADDRESS":"忠興２１７之７號","OBJECTID":149996},"geometry":{"x":164065.83000000007,"y":2566709.8100000005}},{"attributes":{"ID":149998,"DIS_CODE":0,"TOWNNAME":"佳里區","LI":"東寧里","LIN":"20鄰","STREET":" ","SECT":" ","MAREA":"東寧","LANE":" ","ALLEY":" ","HOUSE_NO":"７４號","E_COORD97":166675.66,"N_COORD97":2562728.1899999999,"ADDRESS":"東寧７４號","OBJECTID":149997},"geometry":{"x":166675.66000000108,"y":2562728.1900000013}},{"attributes":{"ID":149999,"DIS_CODE":0,"TOWNNAME":"安定區","LI":"蘇厝里","LIN":"20鄰","STREET":" ","SECT":" ","MAREA":"蘇厝","LANE":" ","ALLEY":" ","HOUSE_NO":"４７５之２號","E_COORD97":173181.22,"N_COORD97":2558895.2999999998,"ADDRESS":"蘇厝４７５之２號","OBJECTID":149998},"geometry":{"x":173181.21999999974,"y":2558895.3000000007}},{"attributes":{"ID":150000,"DIS_CODE":0,"TOWNNAME":"安定區","LI":"蘇厝里","LIN":"20鄰","STREET":" ","SECT":" ","MAREA":"蘇厝","LANE":" ","ALLEY":" ","HOUSE_NO":"４７５之１號","E_COORD97":173181.01999999999,"N_COORD97":2558899.2999999998,"ADDRESS":"蘇厝４７５之１號","OBJECTID":149999},"geometry":{"x":173181.01999999955,"y":2558899.3000000007}},{"attributes":{"ID":150001,"DIS_CODE":0,"TOWNNAME":"安定區","LI":"蘇厝里","LIN":"20鄰","STREET":" ","SECT":" ","MAREA":"蘇厝","LANE":" ","ALLEY":" ","HOUSE_NO":"４７８之１號","E_COORD97":173189.12,"N_COORD97":2558952.2999999998,"ADDRESS":"蘇厝４７８之１號","OBJECTID":150000},"geometry":{"x":173189.12000000011,"y":2558952.3000000026}}]}