{"displayFieldName":"TOWNNAME","fieldAliases":{"ID":"ID","DIS_CODE":"DIS_CODE","TOWNNAME":"TOWNNAME","LI":"LI","LIN":"LIN","STREET":"STREET","SECT":"SECT","MAREA":"MAREA","LANE":"LANE","ALLEY":"ALLEY","HOUSE_NO":"HOUSE_NO","E_COORD97":"E_COORD97","N_COORD97":"N_COORD97","ADDRESS":"ADDRESS","OBJECTID":"OBJECTID"},"geometryType":"esriGeometryPoint","spatialReference":{"wkid":102443,"latestWkid":3826},"fields":[{"name":"ID","type":"esriFieldTypeDouble","alias":"ID"},{"name":"DIS_CODE","type":"esriFieldTypeInteger","alias":"DIS_CODE"},{"name":"TOWNNAME","type":"esriFieldTypeString","alias":"TOWNNAME","length":8},{"name":"LI","type":"esriFieldTypeString","alias":"LI","length":8},{"name":"LIN","type":"esriFieldTypeString","alias":"LIN","length":12},{"name":"STREET","type":"esriFieldTypeString","alias":"STREET","length":20},{"name":"SECT","type":"esriFieldTypeString","alias":"SECT","length":8},{"name":"MAREA","type":"esriFieldTypeString","alias":"MAREA","length":12},{"name":"LANE","type":"esriFieldTypeString","alias":"LANE","length":10},{"name":"ALLEY","type":"esriFieldTypeString","alias":"ALLEY","length":10},{"name":"HOUSE_NO","type":"esriFieldTypeString","alias":"HOUSE_NO","length":20},{"name":"E_COORD97","type":"esriFieldTypeDouble","alias":"E_COORD97"},{"name":"N_COORD97","type":"esriFieldTypeDouble","alias":"N_COORD97"},{"name":"ADDRESS","type":"esriFieldTypeString","alias":"ADDRESS","length":50},{"name":"OBJECTID","type":"esriFieldTypeOID","alias":"OBJECTID"}],"features":[{"attributes":{"ID":32601,"DIS_CODE":0,"TOWNNAME":"安南區","LI":"淵西里","LIN":"8鄰","STREET":"安中路","SECT":"四段","MAREA":" ","LANE":"２９０巷","ALLEY":"９５弄","HOUSE_NO":"１６號","E_COORD97":164741.41,"N_COORD97":2550318.4900000002,"ADDRESS":"安中路四段２９０巷９５弄１６號","OBJECTID":32601},"geometry":{"x":164741.41000000108,"y":2550318.4900000021}},{"attributes":{"ID":32602,"DIS_CODE":0,"TOWNNAME":"安南區","LI":"公\u25A0里","LIN":"8鄰","STREET":"安興街","SECT":" ","MAREA":" ","LANE":"１８１巷","ALLEY":"１０７弄","HOUSE_NO":"２６之１號","E_COORD97":163950.67000000001,"N_COORD97":2551854.8100000001,"ADDRESS":"安興街１８１巷１０７弄２６之１號","OBJECTID":32602},"geometry":{"x":163950.67000000086,"y":2551854.8100000024}},{"attributes":{"ID":32603,"DIS_CODE":0,"TOWNNAME":"安南區","LI":"\u25A0田里","LIN":"1鄰","STREET":"大眾路","SECT":" ","MAREA":" ","LANE":"１０１巷","ALLEY":"１２３弄","HOUSE_NO":"１２號","E_COORD97":161983.95538599999,"N_COORD97":2547464.67472,"ADDRESS":"大眾路１０１巷１２３弄１２號","OBJECTID":32603},"geometry":{"x":161983.95538599975,"y":2547464.6747209989}},{"attributes":{"ID":32604,"DIS_CODE":0,"TOWNNAME":"安南區","LI":"安慶里","LIN":"8鄰","STREET":"長溪路","SECT":"一段","MAREA":" ","LANE":"３４２巷","ALLEY":"３８弄","HOUSE_NO":"５０號","E_COORD97":168780.95999999999,"N_COORD97":2548923.0699999998,"ADDRESS":"長溪路一段３４２巷３８弄５０號","OBJECTID":32604},"geometry":{"x":168780.95999999996,"y":2548923.070000004}},{"attributes":{"ID":32605,"DIS_CODE":0,"TOWNNAME":"安南區","LI":"公\u25A0里","LIN":"8鄰","STREET":"安興街","SECT":" ","MAREA":" ","LANE":"１８１巷","ALLEY":"２７２弄","HOUSE_NO":"２０號","E_COORD97":163478.64999999999,"N_COORD97":2551700.6299999999,"ADDRESS":"安興街１８１巷２７２弄２０號","OBJECTID":32605},"geometry":{"x":163478.6500000013,"y":2551700.629999999}},{"attributes":{"ID":32606,"DIS_CODE":0,"TOWNNAME":"東區","LI":"泉南里","LIN":"8鄰","STREET":"光華街","SECT":" ","MAREA":" ","LANE":"２２９巷","ALLEY":"５弄","HOUSE_NO":"１０號","E_COORD97":169516.88,"N_COORD97":2542995.7599999998,"ADDRESS":"光華街２２９巷５弄１０號","OBJECTID":32606},"geometry":{"x":169516.87999999989,"y":2542995.7600000016}},{"attributes":{"ID":32607,"DIS_CODE":0,"TOWNNAME":"東區","LI":"泉南里","LIN":"8鄰","STREET":"光華街","SECT":" ","MAREA":" ","LANE":"２２９巷","ALLEY":"５弄","HOUSE_NO":"１２號","E_COORD97":169522.82000000001,"N_COORD97":2542994.0600000001,"ADDRESS":"光華街２２９巷５弄１２號","OBJECTID":32607},"geometry":{"x":169522.8200000003,"y":2542994.0600000024}},{"attributes":{"ID":32608,"DIS_CODE":0,"TOWNNAME":"東區","LI":"泉南里","LIN":"8鄰","STREET":"光華街","SECT":" ","MAREA":" ","LANE":"２２９巷","ALLEY":"５弄","HOUSE_NO":"１４號","E_COORD97":169527.73999999999,"N_COORD97":2542992.0299999998,"ADDRESS":"光華街２２９巷５弄１４號","OBJECTID":32608},"geometry":{"x":169527.74000000115,"y":2542992.0299999993}},{"attributes":{"ID":32609,"DIS_CODE":0,"TOWNNAME":"東區","LI":"泉南里","LIN":"8鄰","STREET":"光華街","SECT":" ","MAREA":" ","LANE":"２２９巷","ALLEY":"５弄","HOUSE_NO":"１６號","E_COORD97":169533.32999999999,"N_COORD97":2542990.6699999999,"ADDRESS":"光華街２２９巷５弄１６號","OBJECTID":32609},"geometry":{"x":169533.33000000194,"y":2542990.6699999999}},{"attributes":{"ID":32610,"DIS_CODE":0,"TOWNNAME":"東區","LI":"泉南里","LIN":"8鄰","STREET":"光華街","SECT":" ","MAREA":" ","LANE":"２２９巷","ALLEY":"５弄","HOUSE_NO":"１８號","E_COORD97":169538.42000000001,"N_COORD97":2542988.6400000001,"ADDRESS":"光華街２２９巷５弄１８號","OBJECTID":32610},"geometry":{"x":169538.42000000086,"y":2542988.6400000006}},{"attributes":{"ID":32611,"DIS_CODE":0,"TOWNNAME":"東區","LI":"泉南里","LIN":"8鄰","STREET":"光華街","SECT":" ","MAREA":" ","LANE":"２２９巷","ALLEY":"５弄","HOUSE_NO":"１號","E_COORD97":169507.73000000001,"N_COORD97":2543018.7000000002,"ADDRESS":"光華街２２９巷５弄１號","OBJECTID":32611},"geometry":{"x":169507.73000000138,"y":2543018.700000003}},{"attributes":{"ID":32612,"DIS_CODE":0,"TOWNNAME":"東區","LI":"泉南里","LIN":"8鄰","STREET":"光華街","SECT":" ","MAREA":" ","LANE":"２２９巷","ALLEY":"５弄","HOUSE_NO":"２號","E_COORD97":169501.45000000001,"N_COORD97":2543001.6899999999,"ADDRESS":"光華街２２９巷５弄２號","OBJECTID":32612},"geometry":{"x":169501.45000000019,"y":2543001.6899999976}},{"attributes":{"ID":32613,"DIS_CODE":0,"TOWNNAME":"東區","LI":"泉南里","LIN":"8鄰","STREET":"光華街","SECT":" ","MAREA":" ","LANE":"２２９巷","ALLEY":"５弄","HOUSE_NO":"３號","E_COORD97":169512.51000000001,"N_COORD97":2543017.02,"ADDRESS":"光華街２２９巷５弄３號","OBJECTID":32613},"geometry":{"x":169512.50999999978,"y":2543017.0200000014}},{"attributes":{"ID":32614,"DIS_CODE":0,"TOWNNAME":"東區","LI":"泉南里","LIN":"8鄰","STREET":"光華街","SECT":" ","MAREA":" ","LANE":"２２９巷","ALLEY":"５弄","HOUSE_NO":"５號","E_COORD97":169518.01999999999,"N_COORD97":2543013.4300000002,"ADDRESS":"光華街２２９巷５弄５號","OBJECTID":32614},"geometry":{"x":169518.02000000142,"y":2543013.4299999997}},{"attributes":{"ID":32615,"DIS_CODE":0,"TOWNNAME":"東區","LI":"泉南里","LIN":"8鄰","STREET":"光華街","SECT":" ","MAREA":" ","LANE":"２２９巷","ALLEY":"５弄","HOUSE_NO":"６號","E_COORD97":169507.04999999999,"N_COORD97":2542999.6600000001,"ADDRESS":"光華街２２９巷５弄６號","OBJECTID":32615},"geometry":{"x":169507.04999999981,"y":2542999.6600000039}},{"attributes":{"ID":32616,"DIS_CODE":0,"TOWNNAME":"東區","LI":"泉南里","LIN":"8鄰","STREET":"光華街","SECT":" ","MAREA":" ","LANE":"２２９巷","ALLEY":"５弄","HOUSE_NO":"７號","E_COORD97":169522.09,"N_COORD97":2543009.8399999999,"ADDRESS":"光華街２２９巷５弄７號","OBJECTID":32616},"geometry":{"x":169522.08999999985,"y":2543009.8399999999}},{"attributes":{"ID":32617,"DIS_CODE":0,"TOWNNAME":"東區","LI":"泉南里","LIN":"8鄰","STREET":"光華街","SECT":" ","MAREA":" ","LANE":"２２９巷","ALLEY":"５弄","HOUSE_NO":"８號","E_COORD97":169512.13,"N_COORD97":2542997.6200000001,"ADDRESS":"光華街２２９巷５弄８號","OBJECTID":32617},"geometry":{"x":169512.12999999989,"y":2542997.6200000029}},{"attributes":{"ID":32618,"DIS_CODE":0,"TOWNNAME":"東區","LI":"泉南里","LIN":"8鄰","STREET":"光華街","SECT":" ","MAREA":" ","LANE":"２２９巷","ALLEY":"５弄","HOUSE_NO":"９號","E_COORD97":169535.26000000001,"N_COORD97":2543001.9500000002,"ADDRESS":"光華街２２９巷５弄９號","OBJECTID":32618},"geometry":{"x":169535.26000000164,"y":2543001.9499999993}},{"attributes":{"ID":32619,"DIS_CODE":0,"TOWNNAME":"東山區","LI":"東中里","LIN":"26鄰","STREET":"東仁街","SECT":" ","MAREA":" ","LANE":" ","ALLEY":" ","HOUSE_NO":"４０號","E_COORD97":188839.10999999999,"N_COORD97":2579831.0699999998,"ADDRESS":"東仁街４０號","OBJECTID":32619},"geometry":{"x":188839.11000000127,"y":2579831.0700000022}},{"attributes":{"ID":32620,"DIS_CODE":0,"TOWNNAME":"東山區","LI":"東中里","LIN":"25鄰","STREET":"東仁街","SECT":" ","MAREA":" ","LANE":" ","ALLEY":" ","HOUSE_NO":"２２號","E_COORD97":188868.06,"N_COORD97":2579820.4399999999,"ADDRESS":"東仁街２２號","OBJECTID":32620},"geometry":{"x":188868.05999999959,"y":2579820.4400000013}},{"attributes":{"ID":32621,"DIS_CODE":0,"TOWNNAME":"東山區","LI":"東中里","LIN":"25鄰","STREET":"東仁街","SECT":" ","MAREA":" ","LANE":" ","ALLEY":" ","HOUSE_NO":"２６號","E_COORD97":188863.98999999999,"N_COORD97":2579821.8399999999,"ADDRESS":"東仁街２６號","OBJECTID":32621},"geometry":{"x":188863.99000000022,"y":2579821.8400000017}},{"attributes":{"ID":32622,"DIS_CODE":0,"TOWNNAME":"東山區","LI":"東中里","LIN":"25鄰","STREET":"東仁街","SECT":" ","MAREA":" ","LANE":" ","ALLEY":" ","HOUSE_NO":"２８號","E_COORD97":188860.12,"N_COORD97":2579823.3100000001,"ADDRESS":"東仁街２８號","OBJECTID":32622},"geometry":{"x":188860.12000000197,"y":2579823.3100000024}},{"attributes":{"ID":32623,"DIS_CODE":0,"TOWNNAME":"東山區","LI":"東中里","LIN":"25鄰","STREET":"東仁街","SECT":" ","MAREA":" ","LANE":" ","ALLEY":" ","HOUSE_NO":"３０號","E_COORD97":188855.84,"N_COORD97":2579824.8799999999,"ADDRESS":"東仁街３０號","OBJECTID":32623},"geometry":{"x":188855.83999999985,"y":2579824.879999999}},{"attributes":{"ID":32624,"DIS_CODE":0,"TOWNNAME":"東山區","LI":"東中里","LIN":"25鄰","STREET":"東仁街","SECT":" ","MAREA":" ","LANE":" ","ALLEY":" ","HOUSE_NO":"３２號","E_COORD97":188851.89999999999,"N_COORD97":2579826.3100000001,"ADDRESS":"東仁街３２號","OBJECTID":32624},"geometry":{"x":188851.9000000013,"y":2579826.3100000024}},{"attributes":{"ID":32625,"DIS_CODE":0,"TOWNNAME":"東山區","LI":"東中里","LIN":"25鄰","STREET":"東仁街","SECT":" ","MAREA":" ","LANE":" ","ALLEY":" ","HOUSE_NO":"３６號","E_COORD97":188848.01999999999,"N_COORD97":2579827.7000000002,"ADDRESS":"東仁街３６號","OBJECTID":32625},"geometry":{"x":188848.01999999955,"y":2579827.6999999974}},{"attributes":{"ID":32626,"DIS_CODE":0,"TOWNNAME":"東山區","LI":"東中里","LIN":"25鄰","STREET":"勝利街","SECT":" ","MAREA":" ","LANE":" ","ALLEY":" ","HOUSE_NO":"１號","E_COORD97":188885.34,"N_COORD97":2579834.6200000001,"ADDRESS":"勝利街１號","OBJECTID":32626},"geometry":{"x":188885.34000000171,"y":2579834.6200000029}},{"attributes":{"ID":32627,"DIS_CODE":0,"TOWNNAME":"安南區","LI":"青草里","LIN":"8鄰","STREET":"青砂街","SECT":"二段","MAREA":" ","LANE":"４５５巷","ALLEY":"３５１弄","HOUSE_NO":"１７５號","E_COORD97":159094.84,"N_COORD97":2552346.7999999998,"ADDRESS":"青砂街二段４５５巷３５１弄１７５號","OBJECTID":32627},"geometry":{"x":159094.84000000078,"y":2552346.8000000026}},{"attributes":{"ID":32628,"DIS_CODE":0,"TOWNNAME":"永康區","LI":"北灣里","LIN":"8鄰","STREET":"大同街","SECT":" ","MAREA":" ","LANE":"１２８巷","ALLEY":"１６弄","HOUSE_NO":"７號","E_COORD97":175043.59,"N_COORD97":2545584.75,"ADDRESS":"大同街１２８巷１６弄７號","OBJECTID":32628},"geometry":{"x":175043.58999999985,"y":2545584.75}},{"attributes":{"ID":32629,"DIS_CODE":0,"TOWNNAME":"南區","LI":"文華里","LIN":"8鄰","STREET":"金華路","SECT":"二段","MAREA":" ","LANE":"３４５巷","ALLEY":"２６弄","HOUSE_NO":"１６號二樓","E_COORD97":167060.39999999999,"N_COORD97":2543004.75,"ADDRESS":"金華路二段３４５巷２６弄１６號二樓","OBJECTID":32629},"geometry":{"x":167060.4000000013,"y":2543004.75}},{"attributes":{"ID":32630,"DIS_CODE":0,"TOWNNAME":"東山區","LI":"東中里","LIN":"25鄰","STREET":"勝利街","SECT":" ","MAREA":" ","LANE":" ","ALLEY":" ","HOUSE_NO":"３號","E_COORD97":188886.45000000001,"N_COORD97":2579839.21,"ADDRESS":"勝利街３號","OBJECTID":32630},"geometry":{"x":188886.45000000019,"y":2579839.2100000009}},{"attributes":{"ID":32631,"DIS_CODE":0,"TOWNNAME":"東山區","LI":"東中里","LIN":"2鄰","STREET":"新東路","SECT":"一段","MAREA":" ","LANE":" ","ALLEY":" ","HOUSE_NO":"１號","E_COORD97":188931.64000000001,"N_COORD97":2580131.5299999998,"ADDRESS":"新東路一段１號","OBJECTID":32631},"geometry":{"x":188931.63999999966,"y":2580131.5300000012}},{"attributes":{"ID":32632,"DIS_CODE":0,"TOWNNAME":"新營區","LI":"鐵線里","LIN":"14鄰","STREET":" ","SECT":" ","MAREA":"秀才","LANE":" ","ALLEY":" ","HOUSE_NO":"１６之２號","E_COORD97":174730.12,"N_COORD97":2573860.9100000001,"ADDRESS":"秀才１６之２號","OBJECTID":32632},"geometry":{"x":174730.12000000011,"y":2573860.910000002}},{"attributes":{"ID":32633,"DIS_CODE":0,"TOWNNAME":"麻豆區","LI":"油車里","LIN":"8鄰","STREET":" ","SECT":" ","MAREA":"油車","LANE":" ","ALLEY":" ","HOUSE_NO":"３７號之４３","E_COORD97":172665.09,"N_COORD97":2565453.9300000002,"ADDRESS":"油車３７號之４３","OBJECTID":32633},"geometry":{"x":172665.08999999985,"y":2565453.9299999997}},{"attributes":{"ID":32634,"DIS_CODE":0,"TOWNNAME":"麻豆區","LI":"油車里","LIN":"8鄰","STREET":" ","SECT":" ","MAREA":"油車","LANE":" ","ALLEY":" ","HOUSE_NO":"３７號之４５","E_COORD97":172660.34,"N_COORD97":2565453.8300000001,"ADDRESS":"油車３７號之４５","OBJECTID":32634},"geometry":{"x":172660.33999999985,"y":2565453.8300000019}},{"attributes":{"ID":32635,"DIS_CODE":0,"TOWNNAME":"南區","LI":"文華里","LIN":"8鄰","STREET":"金華路","SECT":"二段","MAREA":" ","LANE":"３４５巷","ALLEY":"２６弄","HOUSE_NO":"１６號三樓","E_COORD97":167060.39999999999,"N_COORD97":2543004.75,"ADDRESS":"金華路二段３４５巷２６弄１６號三樓","OBJECTID":32635},"geometry":{"x":167060.4000000013,"y":2543004.75}},{"attributes":{"ID":32636,"DIS_CODE":0,"TOWNNAME":"麻豆區","LI":"油車里","LIN":"8鄰","STREET":" ","SECT":" ","MAREA":"油車","LANE":" ","ALLEY":" ","HOUSE_NO":"３７號之４６","E_COORD97":172655.59,"N_COORD97":2565453.73,"ADDRESS":"油車３７號之４６","OBJECTID":32636},"geometry":{"x":172655.59000000171,"y":2565453.7300000042}},{"attributes":{"ID":32637,"DIS_CODE":0,"TOWNNAME":"麻豆區","LI":"油車里","LIN":"8鄰","STREET":" ","SECT":" ","MAREA":"油車","LANE":" ","ALLEY":" ","HOUSE_NO":"３７號之４７","E_COORD97":172650.84,"N_COORD97":2565453.6200000001,"ADDRESS":"油車３７號之４７","OBJECTID":32637},"geometry":{"x":172650.84000000078,"y":2565453.620000001}},{"attributes":{"ID":32638,"DIS_CODE":0,"TOWNNAME":"麻豆區","LI":"油車里","LIN":"8鄰","STREET":" ","SECT":" ","MAREA":"油車","LANE":" ","ALLEY":" ","HOUSE_NO":"３７號之４８","E_COORD97":172646.10000000001,"N_COORD97":2565453.52,"ADDRESS":"油車３７號之４８","OBJECTID":32638},"geometry":{"x":172646.09999999963,"y":2565453.5199999996}},{"attributes":{"ID":32639,"DIS_CODE":0,"TOWNNAME":"南區","LI":"文華里","LIN":"8鄰","STREET":"金華路","SECT":"二段","MAREA":" ","LANE":"３４５巷","ALLEY":"２６弄","HOUSE_NO":"１６號四樓","E_COORD97":167060.39999999999,"N_COORD97":2543004.75,"ADDRESS":"金華路二段３４５巷２６弄１６號四樓","OBJECTID":32639},"geometry":{"x":167060.4000000013,"y":2543004.75}},{"attributes":{"ID":32640,"DIS_CODE":0,"TOWNNAME":"永康區","LI":"新樹里","LIN":"8鄰","STREET":"富強路","SECT":"二段","MAREA":" ","LANE":"５６巷","ALLEY":"１９弄","HOUSE_NO":"３號","E_COORD97":175776.09,"N_COORD97":2546995.21,"ADDRESS":"富強路二段５６巷１９弄３號","OBJECTID":32640},"geometry":{"x":175776.08999999985,"y":2546995.2100000028}},{"attributes":{"ID":32641,"DIS_CODE":0,"TOWNNAME":"永康區","LI":"網寮里","LIN":"8鄰","STREET":"永二街","SECT":" ","MAREA":" ","LANE":"２４４巷","ALLEY":"４弄","HOUSE_NO":"２５號","E_COORD97":173322.88,"N_COORD97":2546330.6499999999,"ADDRESS":"永二街２４４巷４弄２５號","OBJECTID":32641},"geometry":{"x":173322.87999999989,"y":2546330.6500000022}},{"attributes":{"ID":32642,"DIS_CODE":0,"TOWNNAME":"永康區","LI":"網寮里","LIN":"8鄰","STREET":"永二街","SECT":" ","MAREA":" ","LANE":"２４４巷","ALLEY":"４弄","HOUSE_NO":"２９號","E_COORD97":173331.51999999999,"N_COORD97":2546325.1499999999,"ADDRESS":"永二街２４４巷４弄２９號","OBJECTID":32642},"geometry":{"x":173331.51999999955,"y":2546325.1500000004}},{"attributes":{"ID":32643,"DIS_CODE":0,"TOWNNAME":"永康區","LI":"新樹里","LIN":"8鄰","STREET":"富強路","SECT":"二段","MAREA":" ","LANE":"５６巷","ALLEY":"５８弄","HOUSE_NO":"６號之１","E_COORD97":175832.32000000001,"N_COORD97":2547004.79,"ADDRESS":"富強路二段５６巷５８弄６號之１","OBJECTID":32643},"geometry":{"x":175832.3200000003,"y":2547004.7900000028}},{"attributes":{"ID":32644,"DIS_CODE":0,"TOWNNAME":"永康區","LI":"新樹里","LIN":"8鄰","STREET":"富強路","SECT":"二段","MAREA":" ","LANE":"５６巷","ALLEY":"５８弄","HOUSE_NO":"２號","E_COORD97":175817.87,"N_COORD97":2547007.9399999999,"ADDRESS":"富強路二段５６巷５８弄２號","OBJECTID":32644},"geometry":{"x":175817.87000000104,"y":2547007.9400000013}},{"attributes":{"ID":32645,"DIS_CODE":0,"TOWNNAME":"永康區","LI":"網寮里","LIN":"8鄰","STREET":"永二街","SECT":" ","MAREA":" ","LANE":"２４４巷","ALLEY":"６弄","HOUSE_NO":"８號","E_COORD97":173285.72,"N_COORD97":2546373.0800000001,"ADDRESS":"永二街２４４巷６弄８號","OBJECTID":32645},"geometry":{"x":173285.72000000067,"y":2546373.0799999982}},{"attributes":{"ID":32646,"DIS_CODE":0,"TOWNNAME":"永康區","LI":"新樹里","LIN":"8鄰","STREET":"富強路","SECT":"二段","MAREA":" ","LANE":"５６巷","ALLEY":"５８弄","HOUSE_NO":"３４號","E_COORD97":175816.57000000001,"N_COORD97":2546929.0299999998,"ADDRESS":"富強路二段５６巷５８弄３４號","OBJECTID":32646},"geometry":{"x":175816.57000000123,"y":2546929.0300000031}},{"attributes":{"ID":32647,"DIS_CODE":0,"TOWNNAME":"麻豆區","LI":"油車里","LIN":"8鄰","STREET":" ","SECT":" ","MAREA":"油車","LANE":" ","ALLEY":" ","HOUSE_NO":"３７號之５","E_COORD97":172561.84,"N_COORD97":2565418.3500000001,"ADDRESS":"油車３７號之５","OBJECTID":32647},"geometry":{"x":172561.83999999985,"y":2565418.3500000034}},{"attributes":{"ID":32648,"DIS_CODE":0,"TOWNNAME":"麻豆區","LI":"油車里","LIN":"8鄰","STREET":" ","SECT":" ","MAREA":"油車","LANE":" ","ALLEY":" ","HOUSE_NO":"３７號之６","E_COORD97":172566.95999999999,"N_COORD97":2565419.6099999999,"ADDRESS":"油車３７號之６","OBJECTID":32648},"geometry":{"x":172566.96000000089,"y":2565419.6100000031}},{"attributes":{"ID":32649,"DIS_CODE":0,"TOWNNAME":"永康區","LI":"新樹里","LIN":"8鄰","STREET":"富強路","SECT":"二段","MAREA":" ","LANE":"５６巷","ALLEY":"５８弄","HOUSE_NO":"２７號","E_COORD97":175879.73999999999,"N_COORD97":2547031.98,"ADDRESS":"富強路二段５６巷５８弄２７號","OBJECTID":32649},"geometry":{"x":175879.74000000115,"y":2547031.9799999986}},{"attributes":{"ID":32650,"DIS_CODE":0,"TOWNNAME":"永康區","LI":"新樹里","LIN":"8鄰","STREET":"富強路","SECT":"二段","MAREA":" ","LANE":"５６巷","ALLEY":"５８弄","HOUSE_NO":"５２號","E_COORD97":175844.73999999999,"N_COORD97":2547008.23,"ADDRESS":"富強路二段５６巷５８弄５２號","OBJECTID":32650},"geometry":{"x":175844.74000000022,"y":2547008.2300000023}},{"attributes":{"ID":32651,"DIS_CODE":0,"TOWNNAME":"新營區","LI":"南紙里","LIN":"14鄰","STREET":"南紙街","SECT":" ","MAREA":" ","LANE":" ","ALLEY":" ","HOUSE_NO":"１２０號","E_COORD97":177794.35999999999,"N_COORD97":2577434.8799999999,"ADDRESS":"南紙街１２０號","OBJECTID":32651},"geometry":{"x":177794.36000000127,"y":2577434.879999999}},{"attributes":{"ID":32652,"DIS_CODE":0,"TOWNNAME":"麻豆區","LI":"油車里","LIN":"8鄰","STREET":" ","SECT":" ","MAREA":"油車","LANE":" ","ALLEY":" ","HOUSE_NO":"３７號之７","E_COORD97":172571.56,"N_COORD97":2565419.5,"ADDRESS":"油車３７號之７","OBJECTID":32652},"geometry":{"x":172571.56000000052,"y":2565419.5}},{"attributes":{"ID":32653,"DIS_CODE":0,"TOWNNAME":"麻豆區","LI":"油車里","LIN":"8鄰","STREET":" ","SECT":" ","MAREA":"油車","LANE":" ","ALLEY":" ","HOUSE_NO":"３７號之８","E_COORD97":172576.10000000001,"N_COORD97":2565420.5600000001,"ADDRESS":"油車３７號之８","OBJECTID":32653},"geometry":{"x":172576.10000000056,"y":2565420.5600000005}},{"attributes":{"ID":32654,"DIS_CODE":0,"TOWNNAME":"新營區","LI":"嘉芳里","LIN":"14鄰","STREET":"新芳街","SECT":" ","MAREA":" ","LANE":" ","ALLEY":" ","HOUSE_NO":"１４號","E_COORD97":176651.07999999999,"N_COORD97":2578588.9199999999,"ADDRESS":"新芳街１４號","OBJECTID":32654},"geometry":{"x":176651.08000000007,"y":2578588.9199999999}},{"attributes":{"ID":32655,"DIS_CODE":0,"TOWNNAME":"麻豆區","LI":"油車里","LIN":"8鄰","STREET":" ","SECT":" ","MAREA":"油車","LANE":" ","ALLEY":" ","HOUSE_NO":"３７號之９","E_COORD97":172580.92000000001,"N_COORD97":2565421.1200000001,"ADDRESS":"油車３７號之９","OBJECTID":32655},"geometry":{"x":172580.92000000086,"y":2565421.1200000048}},{"attributes":{"ID":32656,"DIS_CODE":0,"TOWNNAME":"麻豆區","LI":"油車里","LIN":"8鄰","STREET":" ","SECT":" ","MAREA":"油車","LANE":" ","ALLEY":" ","HOUSE_NO":"３７號","E_COORD97":172541.79000000001,"N_COORD97":2565419.6299999999,"ADDRESS":"油車３７號","OBJECTID":32656},"geometry":{"x":172541.79000000004,"y":2565419.6300000008}},{"attributes":{"ID":32657,"DIS_CODE":0,"TOWNNAME":"麻豆區","LI":"油車里","LIN":"8鄰","STREET":" ","SECT":" ","MAREA":"油車","LANE":" ","ALLEY":" ","HOUSE_NO":"３８號之１","E_COORD97":172551.35000000001,"N_COORD97":2565488.1400000001,"ADDRESS":"油車３８號之１","OBJECTID":32657},"geometry":{"x":172551.34999999963,"y":2565488.1400000006}},{"attributes":{"ID":32658,"DIS_CODE":0,"TOWNNAME":"麻豆區","LI":"油車里","LIN":"8鄰","STREET":" ","SECT":" ","MAREA":"油車","LANE":" ","ALLEY":" ","HOUSE_NO":"３８號之２","E_COORD97":172573.32999999999,"N_COORD97":2565486.8599999999,"ADDRESS":"油車３８號之２","OBJECTID":32658},"geometry":{"x":172573.33000000101,"y":2565486.8600000013}},{"attributes":{"ID":32659,"DIS_CODE":0,"TOWNNAME":"新營區","LI":"嘉芳里","LIN":"14鄰","STREET":"復興路","SECT":" ","MAREA":" ","LANE":" ","ALLEY":" ","HOUSE_NO":"１１０９號","E_COORD97":176373.22,"N_COORD97":2578775.2599999998,"ADDRESS":"復興路１１０９號","OBJECTID":32659},"geometry":{"x":176373.21999999974,"y":2578775.2600000016}},{"attributes":{"ID":32660,"DIS_CODE":0,"TOWNNAME":"新營區","LI":"嘉芳里","LIN":"14鄰","STREET":"嘉芳街","SECT":" ","MAREA":" ","LANE":" ","ALLEY":" ","HOUSE_NO":"１８６號","E_COORD97":176994.85999999999,"N_COORD97":2577939.3700000001,"ADDRESS":"嘉芳街１８６號","OBJECTID":32660},"geometry":{"x":176994.86000000034,"y":2577939.370000001}},{"attributes":{"ID":32661,"DIS_CODE":0,"TOWNNAME":"新營區","LI":"中營里","LIN":"14鄰","STREET":"東山中路","SECT":" ","MAREA":" ","LANE":" ","ALLEY":" ","HOUSE_NO":"５號","E_COORD97":181846.87,"N_COORD97":2578787.7999999998,"ADDRESS":"東山中路５號","OBJECTID":32661},"geometry":{"x":181846.87000000011,"y":2578787.7999999989}},{"attributes":{"ID":32662,"DIS_CODE":0,"TOWNNAME":"新營區","LI":"三仙里","LIN":"14鄰","STREET":"武昌街","SECT":" ","MAREA":" ","LANE":" ","ALLEY":" ","HOUSE_NO":"８７號","E_COORD97":179472.76000000001,"N_COORD97":2578277.3100000001,"ADDRESS":"武昌街８７號","OBJECTID":32662},"geometry":{"x":179472.76000000071,"y":2578277.3100000024}},{"attributes":{"ID":32663,"DIS_CODE":0,"TOWNNAME":"新營區","LI":"中營里","LIN":"14鄰","STREET":"東山路","SECT":" ","MAREA":" ","LANE":" ","ALLEY":" ","HOUSE_NO":"２１５號","E_COORD97":182169.56,"N_COORD97":2578786.3300000001,"ADDRESS":"東山路２１５號","OBJECTID":32663},"geometry":{"x":182169.56000000052,"y":2578786.3300000001}},{"attributes":{"ID":32664,"DIS_CODE":0,"TOWNNAME":"新營區","LI":"嘉芳里","LIN":"14鄰","STREET":"嘉芳街","SECT":" ","MAREA":" ","LANE":" ","ALLEY":" ","HOUSE_NO":"１６８號","E_COORD97":176982.70000000001,"N_COORD97":2578170.8799999999,"ADDRESS":"嘉芳街１６８號","OBJECTID":32664},"geometry":{"x":176982.70000000019,"y":2578170.879999999}},{"attributes":{"ID":32665,"DIS_CODE":0,"TOWNNAME":"學甲區","LI":"三慶里","LIN":"14鄰","STREET":" ","SECT":" ","MAREA":"頂洲","LANE":" ","ALLEY":" ","HOUSE_NO":"１８１號","E_COORD97":168170.01000000001,"N_COORD97":2576475.0699999998,"ADDRESS":"頂洲１８１號","OBJECTID":32665},"geometry":{"x":168170.00999999978,"y":2576475.0700000022}},{"attributes":{"ID":32666,"DIS_CODE":0,"TOWNNAME":"麻豆區","LI":"油車里","LIN":"8鄰","STREET":" ","SECT":" ","MAREA":"油車","LANE":" ","ALLEY":" ","HOUSE_NO":"３８號之３","E_COORD97":172545.82000000001,"N_COORD97":2565504.5499999998,"ADDRESS":"油車３８號之３","OBJECTID":32666},"geometry":{"x":172545.8200000003,"y":2565504.5500000007}},{"attributes":{"ID":32667,"DIS_CODE":0,"TOWNNAME":"麻豆區","LI":"安正里","LIN":"8鄰","STREET":" ","SECT":" ","MAREA":"社子","LANE":" ","ALLEY":" ","HOUSE_NO":"１２號","E_COORD97":171886.73000000001,"N_COORD97":2562281.2999999998,"ADDRESS":"社子１２號","OBJECTID":32667},"geometry":{"x":171886.73000000045,"y":2562281.3000000026}},{"attributes":{"ID":32668,"DIS_CODE":0,"TOWNNAME":"永康區","LI":"網寮里","LIN":"8鄰","STREET":"永二街","SECT":" ","MAREA":" ","LANE":"２４４巷","ALLEY":"４弄","HOUSE_NO":"２１號","E_COORD97":173313.37,"N_COORD97":2546336.3999999999,"ADDRESS":"永二街２４４巷４弄２１號","OBJECTID":32668},"geometry":{"x":173313.37000000197,"y":2546336.4000000004}},{"attributes":{"ID":32669,"DIS_CODE":0,"TOWNNAME":"永康區","LI":"\u25A0行里","LIN":"8鄰","STREET":"中正一街","SECT":" ","MAREA":" ","LANE":"３２巷","ALLEY":"６弄","HOUSE_NO":"８號","E_COORD97":172854.70999999999,"N_COORD97":2548287.75,"ADDRESS":"中正一街３２巷６弄８號","OBJECTID":32669},"geometry":{"x":172854.70999999996,"y":2548287.7500000037}},{"attributes":{"ID":32670,"DIS_CODE":0,"TOWNNAME":"麻豆區","LI":"安正里","LIN":"8鄰","STREET":" ","SECT":" ","MAREA":"社子","LANE":" ","ALLEY":" ","HOUSE_NO":"１３號之１","E_COORD97":171947.28,"N_COORD97":2562372.0099999998,"ADDRESS":"社子１３號之１","OBJECTID":32670},"geometry":{"x":171947.28000000026,"y":2562372.0099999998}},{"attributes":{"ID":32671,"DIS_CODE":0,"TOWNNAME":"永康區","LI":"大灣里","LIN":"8鄰","STREET":"民族路","SECT":" ","MAREA":" ","LANE":"３９６巷","ALLEY":"１６弄","HOUSE_NO":"１１號","E_COORD97":174823.45999999999,"N_COORD97":2545436.1000000001,"ADDRESS":"民族路３９６巷１６弄１１號","OBJECTID":32671},"geometry":{"x":174823.46000000089,"y":2545436.0999999996}},{"attributes":{"ID":32672,"DIS_CODE":0,"TOWNNAME":"麻豆區","LI":"安正里","LIN":"8鄰","STREET":" ","SECT":" ","MAREA":"社子","LANE":" ","ALLEY":" ","HOUSE_NO":"１３號","E_COORD97":171913.76999999999,"N_COORD97":2562362.6499999999,"ADDRESS":"社子１３號","OBJECTID":32672},"geometry":{"x":171913.77000000048,"y":2562362.6500000022}},{"attributes":{"ID":32673,"DIS_CODE":0,"TOWNNAME":"永康區","LI":"大灣里","LIN":"8鄰","STREET":"民族路","SECT":" ","MAREA":" ","LANE":"３９６巷","ALLEY":"６０弄","HOUSE_NO":"１號","E_COORD97":174788.51000000001,"N_COORD97":2545516.5499999998,"ADDRESS":"民族路３９６巷６０弄１號","OBJECTID":32673},"geometry":{"x":174788.50999999885,"y":2545516.5500000045}},{"attributes":{"ID":32674,"DIS_CODE":0,"TOWNNAME":"永康區","LI":"大灣里","LIN":"8鄰","STREET":"民族路","SECT":" ","MAREA":" ","LANE":"３９６巷","ALLEY":"６０弄","HOUSE_NO":"５號","E_COORD97":174801.17000000001,"N_COORD97":2545510.8799999999,"ADDRESS":"民族路３９６巷６０弄５號","OBJECTID":32674},"geometry":{"x":174801.16999999899,"y":2545510.879999999}},{"attributes":{"ID":32675,"DIS_CODE":0,"TOWNNAME":"麻豆區","LI":"安正里","LIN":"8鄰","STREET":" ","SECT":" ","MAREA":"社子","LANE":" ","ALLEY":" ","HOUSE_NO":"１４號","E_COORD97":171931.34,"N_COORD97":2562290.2599999998,"ADDRESS":"社子１４號","OBJECTID":32675},"geometry":{"x":171931.33999999985,"y":2562290.2600000016}},{"attributes":{"ID":32676,"DIS_CODE":0,"TOWNNAME":"麻豆區","LI":"安正里","LIN":"8鄰","STREET":" ","SECT":" ","MAREA":"社子","LANE":" ","ALLEY":" ","HOUSE_NO":"１５號之１","E_COORD97":171954.35999999999,"N_COORD97":2562254.77,"ADDRESS":"社子１５號之１","OBJECTID":32676},"geometry":{"x":171954.36000000127,"y":2562254.7699999996}},{"attributes":{"ID":32677,"DIS_CODE":0,"TOWNNAME":"永康區","LI":"大橋里","LIN":"8鄰","STREET":"大橋三街","SECT":" ","MAREA":" ","LANE":"１９９巷","ALLEY":"４２弄","HOUSE_NO":"６號","E_COORD97":170896.38,"N_COORD97":2546836.3999999999,"ADDRESS":"大橋三街１９９巷４２弄６號","OBJECTID":32677},"geometry":{"x":170896.38000000082,"y":2546836.4000000022}},{"attributes":{"ID":32678,"DIS_CODE":0,"TOWNNAME":"麻豆區","LI":"安正里","LIN":"8鄰","STREET":" ","SECT":" ","MAREA":"社子","LANE":" ","ALLEY":" ","HOUSE_NO":"１５號","E_COORD97":171949.98999999999,"N_COORD97":2562281.7400000002,"ADDRESS":"社子１５號","OBJECTID":32678},"geometry":{"x":171949.99000000115,"y":2562281.7400000021}},{"attributes":{"ID":32679,"DIS_CODE":0,"TOWNNAME":"麻豆區","LI":"安正里","LIN":"8鄰","STREET":" ","SECT":" ","MAREA":"社子","LANE":" ","ALLEY":" ","HOUSE_NO":"１６號","E_COORD97":171930.89999999999,"N_COORD97":2562328.6400000001,"ADDRESS":"社子１６號","OBJECTID":32679},"geometry":{"x":171930.9000000013,"y":2562328.6400000043}},{"attributes":{"ID":32680,"DIS_CODE":0,"TOWNNAME":"永康區","LI":"大橋里","LIN":"8鄰","STREET":"大橋三街","SECT":" ","MAREA":" ","LANE":"１９９巷","ALLEY":"４２弄","HOUSE_NO":"８號","E_COORD97":170899.29000000001,"N_COORD97":2546831.3599999999,"ADDRESS":"大橋三街１９９巷４２弄８號","OBJECTID":32680},"geometry":{"x":170899.29000000004,"y":2546831.3599999994}},{"attributes":{"ID":32681,"DIS_CODE":0,"TOWNNAME":"麻豆區","LI":"安正里","LIN":"8鄰","STREET":" ","SECT":" ","MAREA":"社子","LANE":" ","ALLEY":" ","HOUSE_NO":"１７號","E_COORD97":171948.23999999999,"N_COORD97":2562333.6600000001,"ADDRESS":"社子１７號","OBJECTID":32681},"geometry":{"x":171948.24000000209,"y":2562333.6600000001}},{"attributes":{"ID":32682,"DIS_CODE":0,"TOWNNAME":"麻豆區","LI":"安正里","LIN":"8鄰","STREET":" ","SECT":" ","MAREA":"社子","LANE":" ","ALLEY":" ","HOUSE_NO":"１９號之１","E_COORD97":171965.70000000001,"N_COORD97":2562334.6499999999,"ADDRESS":"社子１９號之１","OBJECTID":32682},"geometry":{"x":171965.70000000112,"y":2562334.6500000004}},{"attributes":{"ID":32683,"DIS_CODE":0,"TOWNNAME":"永康區","LI":"大橋里","LIN":"8鄰","STREET":"大橋三街","SECT":" ","MAREA":" ","LANE":"１９９巷","ALLEY":"４２弄","HOUSE_NO":"３號","E_COORD97":170902.60000000001,"N_COORD97":2546847.5,"ADDRESS":"大橋三街１９９巷４２弄３號","OBJECTID":32683},"geometry":{"x":170902.60000000149,"y":2546847.5}},{"attributes":{"ID":32684,"DIS_CODE":0,"TOWNNAME":"麻豆區","LI":"安正里","LIN":"8鄰","STREET":" ","SECT":" ","MAREA":"社子","LANE":" ","ALLEY":" ","HOUSE_NO":"１９號","E_COORD97":171980.85999999999,"N_COORD97":2562336.1299999999,"ADDRESS":"社子１９號","OBJECTID":32684},"geometry":{"x":171980.86000000034,"y":2562336.129999999}},{"attributes":{"ID":32685,"DIS_CODE":0,"TOWNNAME":"麻豆區","LI":"安正里","LIN":"8鄰","STREET":" ","SECT":" ","MAREA":"社子","LANE":" ","ALLEY":" ","HOUSE_NO":"２０號","E_COORD97":171991.51999999999,"N_COORD97":2562307.7799999998,"ADDRESS":"社子２０號","OBJECTID":32685},"geometry":{"x":171991.52000000048,"y":2562307.7799999993}},{"attributes":{"ID":32686,"DIS_CODE":0,"TOWNNAME":"永康區","LI":"大橋里","LIN":"8鄰","STREET":"大橋三街","SECT":" ","MAREA":" ","LANE":"１９９巷","ALLEY":"４２弄","HOUSE_NO":"５號","E_COORD97":170905.60999999999,"N_COORD97":2546842.75,"ADDRESS":"大橋三街１９９巷４２弄５號","OBJECTID":32686},"geometry":{"x":170905.61000000127,"y":2546842.75}},{"attributes":{"ID":32687,"DIS_CODE":0,"TOWNNAME":"東區","LI":"南聖里","LIN":"8鄰","STREET":"裕農路","SECT":" ","MAREA":" ","LANE":"７２６巷","ALLEY":"９弄","HOUSE_NO":"１號","E_COORD97":171876.70000000001,"N_COORD97":2543146.6499999999,"ADDRESS":"裕農路７２６巷９弄１號","OBJECTID":32687},"geometry":{"x":171876.70000000019,"y":2543146.6500000022}},{"attributes":{"ID":32688,"DIS_CODE":0,"TOWNNAME":"麻豆區","LI":"安正里","LIN":"8鄰","STREET":" ","SECT":" ","MAREA":"社子","LANE":" ","ALLEY":" ","HOUSE_NO":"２１號之１","E_COORD97":171988.54999999999,"N_COORD97":2562279.7200000002,"ADDRESS":"社子２１號之１","OBJECTID":32688},"geometry":{"x":171988.55000000075,"y":2562279.7200000007}},{"attributes":{"ID":32689,"DIS_CODE":0,"TOWNNAME":"東區","LI":"南聖里","LIN":"8鄰","STREET":"裕農路","SECT":" ","MAREA":" ","LANE":"７２６巷","ALLEY":"９弄","HOUSE_NO":"３號","E_COORD97":171875.25,"N_COORD97":2543150.5099999998,"ADDRESS":"裕農路７２６巷９弄３號","OBJECTID":32689},"geometry":{"x":171875.25000000093,"y":2543150.5100000016}},{"attributes":{"ID":32690,"DIS_CODE":0,"TOWNNAME":"麻豆區","LI":"安正里","LIN":"8鄰","STREET":" ","SECT":" ","MAREA":"社子","LANE":" ","ALLEY":" ","HOUSE_NO":"２１號","E_COORD97":172001.98000000001,"N_COORD97":2562287.8799999999,"ADDRESS":"社子２１號","OBJECTID":32690},"geometry":{"x":172001.98000000045,"y":2562287.8800000027}},{"attributes":{"ID":32691,"DIS_CODE":0,"TOWNNAME":"白河區","LI":"昇安里","LIN":"8鄰","STREET":" ","SECT":" ","MAREA":"三間厝","LANE":" ","ALLEY":" ","HOUSE_NO":"１０６號","E_COORD97":192087.01999999999,"N_COORD97":2584582.1400000001,"ADDRESS":"三間厝１０６號","OBJECTID":32691},"geometry":{"x":192087.01999999955,"y":2584582.1400000006}},{"attributes":{"ID":32692,"DIS_CODE":0,"TOWNNAME":"白河區","LI":"昇安里","LIN":"8鄰","STREET":" ","SECT":" ","MAREA":"三間厝","LANE":" ","ALLEY":" ","HOUSE_NO":"１０７號","E_COORD97":192103.09,"N_COORD97":2584601.8700000001,"ADDRESS":"三間厝１０７號","OBJECTID":32692},"geometry":{"x":192103.09000000078,"y":2584601.870000001}},{"attributes":{"ID":32693,"DIS_CODE":0,"TOWNNAME":"白河區","LI":"昇安里","LIN":"8鄰","STREET":" ","SECT":" ","MAREA":"三間厝","LANE":" ","ALLEY":" ","HOUSE_NO":"１０８號","E_COORD97":192104.67999999999,"N_COORD97":2584624.7999999998,"ADDRESS":"三間厝１０８號","OBJECTID":32693},"geometry":{"x":192104.6799999997,"y":2584624.8000000007}},{"attributes":{"ID":32694,"DIS_CODE":0,"TOWNNAME":"白河區","LI":"昇安里","LIN":"8鄰","STREET":" ","SECT":" ","MAREA":"三間厝","LANE":" ","ALLEY":" ","HOUSE_NO":"１０９號","E_COORD97":192297.48000000001,"N_COORD97":2584432.27,"ADDRESS":"三間厝１０９號","OBJECTID":32694},"geometry":{"x":192297.48000000231,"y":2584432.2700000014}},{"attributes":{"ID":32695,"DIS_CODE":0,"TOWNNAME":"東區","LI":"南聖里","LIN":"8鄰","STREET":"裕農路","SECT":" ","MAREA":" ","LANE":"７２６巷","ALLEY":"９弄","HOUSE_NO":"５號","E_COORD97":171887.79999999999,"N_COORD97":2543152.1499999999,"ADDRESS":"裕農路７２６巷９弄５號","OBJECTID":32695},"geometry":{"x":171887.79999999981,"y":2543152.1499999985}},{"attributes":{"ID":32696,"DIS_CODE":0,"TOWNNAME":"新營區","LI":"興安里","LIN":"14鄰","STREET":"延平路","SECT":" ","MAREA":" ","LANE":" ","ALLEY":" ","HOUSE_NO":"１０５號","E_COORD97":179777.70999999999,"N_COORD97":2577626.8999999999,"ADDRESS":"延平路１０５號","OBJECTID":32696},"geometry":{"x":179777.70999999996,"y":2577626.9000000004}},{"attributes":{"ID":32697,"DIS_CODE":0,"TOWNNAME":"新營區","LI":"民權里","LIN":"14鄰","STREET":"武昌街","SECT":" ","MAREA":" ","LANE":" ","ALLEY":" ","HOUSE_NO":"３０號之３","E_COORD97":179847.64000000001,"N_COORD97":2578343.1499999999,"ADDRESS":"武昌街３０號之３","OBJECTID":32697},"geometry":{"x":179847.63999999966,"y":2578343.1500000004}},{"attributes":{"ID":32698,"DIS_CODE":0,"TOWNNAME":"白河區","LI":"昇安里","LIN":"8鄰","STREET":" ","SECT":" ","MAREA":"三間厝","LANE":" ","ALLEY":" ","HOUSE_NO":"１１０號","E_COORD97":192447.57000000001,"N_COORD97":2584583.6899999999,"ADDRESS":"三間厝１１０號","OBJECTID":32698},"geometry":{"x":192447.57000000216,"y":2584583.6899999995}},{"attributes":{"ID":32699,"DIS_CODE":0,"TOWNNAME":"白河區","LI":"昇安里","LIN":"8鄰","STREET":" ","SECT":" ","MAREA":"三間厝","LANE":" ","ALLEY":" ","HOUSE_NO":"１２１之１號","E_COORD97":192606.10000000001,"N_COORD97":2584482.25,"ADDRESS":"三間厝１２１之１號","OBJECTID":32699},"geometry":{"x":192606.10000000149,"y":2584482.25}},{"attributes":{"ID":32700,"DIS_CODE":0,"TOWNNAME":"新營區","LI":"太南里","LIN":"14鄰","STREET":" ","SECT":" ","MAREA":"太子宮","LANE":" ","ALLEY":" ","HOUSE_NO":"２９４號","E_COORD97":176264.28,"N_COORD97":2576648.3599999999,"ADDRESS":"太子宮２９４號","OBJECTID":32700},"geometry":{"x":176264.28000000119,"y":2576648.3600000013}},{"attributes":{"ID":32701,"DIS_CODE":0,"TOWNNAME":"新營區","LI":"土庫里","LIN":"14鄰","STREET":" ","SECT":" ","MAREA":"土庫","LANE":" ","ALLEY":" ","HOUSE_NO":"１１７號","E_COORD97":183196.70000000001,"N_COORD97":2579757.3300000001,"ADDRESS":"土庫１１７號","OBJECTID":32701},"geometry":{"x":183196.70000000112,"y":2579757.3300000019}},{"attributes":{"ID":32702,"DIS_CODE":0,"TOWNNAME":"學甲區","LI":"三慶里","LIN":"14鄰","STREET":" ","SECT":" ","MAREA":"頂洲","LANE":" ","ALLEY":" ","HOUSE_NO":"１８４號","E_COORD97":168228.69,"N_COORD97":2576528.8300000001,"ADDRESS":"頂洲１８４號","OBJECTID":32702},"geometry":{"x":168228.69000000041,"y":2576528.8299999982}},{"attributes":{"ID":32703,"DIS_CODE":0,"TOWNNAME":"學甲區","LI":"三慶里","LIN":"14鄰","STREET":" ","SECT":" ","MAREA":"頂洲","LANE":" ","ALLEY":" ","HOUSE_NO":"１８７號","E_COORD97":168276.09,"N_COORD97":2576475.3700000001,"ADDRESS":"頂洲１８７號","OBJECTID":32703},"geometry":{"x":168276.09000000078,"y":2576475.3699999992}},{"attributes":{"ID":32704,"DIS_CODE":0,"TOWNNAME":"白河區","LI":"昇安里","LIN":"8鄰","STREET":" ","SECT":" ","MAREA":"三間厝","LANE":" ","ALLEY":" ","HOUSE_NO":"１２１之３６號","E_COORD97":192460.42999999999,"N_COORD97":2584300.9500000002,"ADDRESS":"三間厝１２１之３６號","OBJECTID":32704},"geometry":{"x":192460.43000000063,"y":2584300.9499999993}},{"attributes":{"ID":32705,"DIS_CODE":0,"TOWNNAME":"白河區","LI":"昇安里","LIN":"8鄰","STREET":" ","SECT":" ","MAREA":"三間厝","LANE":" ","ALLEY":" ","HOUSE_NO":"１２１號","E_COORD97":192693.45000000001,"N_COORD97":2584413.7000000002,"ADDRESS":"三間厝１２１號","OBJECTID":32705},"geometry":{"x":192693.45000000019,"y":2584413.6999999993}},{"attributes":{"ID":32706,"DIS_CODE":0,"TOWNNAME":"麻豆區","LI":"海埔里","LIN":"8鄰","STREET":" ","SECT":" ","MAREA":"海埔","LANE":" ","ALLEY":" ","HOUSE_NO":"４０號之１","E_COORD97":169592.45999999999,"N_COORD97":2566901.73,"ADDRESS":"海埔４０號之１","OBJECTID":32706},"geometry":{"x":169592.46000000089,"y":2566901.7300000023}},{"attributes":{"ID":32707,"DIS_CODE":0,"TOWNNAME":"麻豆區","LI":"海埔里","LIN":"8鄰","STREET":" ","SECT":" ","MAREA":"海埔","LANE":" ","ALLEY":" ","HOUSE_NO":"４０號","E_COORD97":169609.82000000001,"N_COORD97":2566887.0899999999,"ADDRESS":"海埔４０號","OBJECTID":32707},"geometry":{"x":169609.8200000003,"y":2566887.0899999999}},{"attributes":{"ID":32708,"DIS_CODE":0,"TOWNNAME":"麻豆區","LI":"海埔里","LIN":"8鄰","STREET":" ","SECT":" ","MAREA":"海埔","LANE":" ","ALLEY":" ","HOUSE_NO":"４１號","E_COORD97":169636.63,"N_COORD97":2566877.1299999999,"ADDRESS":"海埔４１號","OBJECTID":32708},"geometry":{"x":169636.63000000082,"y":2566877.1300000008}},{"attributes":{"ID":32709,"DIS_CODE":0,"TOWNNAME":"麻豆區","LI":"海埔里","LIN":"8鄰","STREET":" ","SECT":" ","MAREA":"海埔","LANE":" ","ALLEY":" ","HOUSE_NO":"４２號","E_COORD97":169661.70999999999,"N_COORD97":2566877.6299999999,"ADDRESS":"海埔４２號","OBJECTID":32709},"geometry":{"x":169661.71000000089,"y":2566877.6300000008}},{"attributes":{"ID":32710,"DIS_CODE":0,"TOWNNAME":"善化區","LI":"東隆里","LIN":"8鄰","STREET":" ","SECT":" ","MAREA":"東勢寮","LANE":" ","ALLEY":" ","HOUSE_NO":"２０１之１０號","E_COORD97":179822.12,"N_COORD97":2561721.27,"ADDRESS":"東勢寮２０１之１０號","OBJECTID":32710},"geometry":{"x":179822.12000000011,"y":2561721.2700000014}},{"attributes":{"ID":32711,"DIS_CODE":0,"TOWNNAME":"善化區","LI":"東隆里","LIN":"8鄰","STREET":" ","SECT":" ","MAREA":"東勢寮","LANE":" ","ALLEY":" ","HOUSE_NO":"２０３號之２","E_COORD97":179775.88,"N_COORD97":2561816.27,"ADDRESS":"東勢寮２０３號之２","OBJECTID":32711},"geometry":{"x":179775.88000000082,"y":2561816.2700000014}},{"attributes":{"ID":32712,"DIS_CODE":0,"TOWNNAME":"善化區","LI":"東隆里","LIN":"8鄰","STREET":" ","SECT":" ","MAREA":"東勢寮","LANE":" ","ALLEY":" ","HOUSE_NO":"２１１號","E_COORD97":179767.37,"N_COORD97":2561847.2599999998,"ADDRESS":"東勢寮２１１號","OBJECTID":32712},"geometry":{"x":179767.37000000104,"y":2561847.2599999998}},{"attributes":{"ID":32713,"DIS_CODE":0,"TOWNNAME":"善化區","LI":"東隆里","LIN":"8鄰","STREET":" ","SECT":" ","MAREA":"東勢寮","LANE":" ","ALLEY":" ","HOUSE_NO":"２０６號","E_COORD97":179709.85000000001,"N_COORD97":2561789.0099999998,"ADDRESS":"東勢寮２０６號","OBJECTID":32713},"geometry":{"x":179709.85000000056,"y":2561789.0099999998}},{"attributes":{"ID":32714,"DIS_CODE":0,"TOWNNAME":"善化區","LI":"東隆里","LIN":"8鄰","STREET":" ","SECT":" ","MAREA":"東勢寮","LANE":" ","ALLEY":" ","HOUSE_NO":"２１１之３號","E_COORD97":179763.39999999999,"N_COORD97":2561884.77,"ADDRESS":"東勢寮２１１之３號","OBJECTID":32714},"geometry":{"x":179763.40000000037,"y":2561884.7699999996}},{"attributes":{"ID":32715,"DIS_CODE":0,"TOWNNAME":"善化區","LI":"東隆里","LIN":"8鄰","STREET":" ","SECT":" ","MAREA":"東勢寮","LANE":" ","ALLEY":" ","HOUSE_NO":"２０１之８號","E_COORD97":179813.16,"N_COORD97":2561720.77,"ADDRESS":"東勢寮２０１之８號","OBJECTID":32715},"geometry":{"x":179813.16000000108,"y":2561720.7700000014}},{"attributes":{"ID":32716,"DIS_CODE":0,"TOWNNAME":"善化區","LI":"東隆里","LIN":"8鄰","STREET":" ","SECT":" ","MAREA":"東勢寮","LANE":" ","ALLEY":" ","HOUSE_NO":"２０４號之１","E_COORD97":179770.51000000001,"N_COORD97":2561742.02,"ADDRESS":"東勢寮２０４號之１","OBJECTID":32716},"geometry":{"x":179770.50999999978,"y":2561742.0200000033}},{"attributes":{"ID":32717,"DIS_CODE":0,"TOWNNAME":"善化區","LI":"嘉北里","LIN":"8鄰","STREET":" ","SECT":" ","MAREA":"茄拔","LANE":" ","ALLEY":" ","HOUSE_NO":"１８５號之５","E_COORD97":181094.59,"N_COORD97":2560167.02,"ADDRESS":"茄拔１８５號之５","OBJECTID":32717},"geometry":{"x":181094.59000000078,"y":2560167.0199999996}},{"attributes":{"ID":32718,"DIS_CODE":0,"TOWNNAME":"善化區","LI":"東昌里","LIN":"8鄰","STREET":" ","SECT":" ","MAREA":"東勢寮","LANE":" ","ALLEY":" ","HOUSE_NO":"１３０號之１","E_COORD97":180334.45000000001,"N_COORD97":2561936.27,"ADDRESS":"東勢寮１３０號之１","OBJECTID":32718},"geometry":{"x":180334.45000000205,"y":2561936.2699999996}},{"attributes":{"ID":32719,"DIS_CODE":0,"TOWNNAME":"善化區","LI":"東昌里","LIN":"8鄰","STREET":" ","SECT":" ","MAREA":"東勢寮","LANE":" ","ALLEY":" ","HOUSE_NO":"８１號之１","E_COORD97":180398.70000000001,"N_COORD97":2561938.52,"ADDRESS":"東勢寮８１號之１","OBJECTID":32719},"geometry":{"x":180398.70000000019,"y":2561938.5200000033}},{"attributes":{"ID":32720,"DIS_CODE":0,"TOWNNAME":"善化區","LI":"胡厝里","LIN":"8鄰","STREET":" ","SECT":" ","MAREA":"胡厝寮","LANE":" ","ALLEY":" ","HOUSE_NO":"２０８之７號","E_COORD97":175304.88,"N_COORD97":2560238.77,"ADDRESS":"胡厝寮２０８之７號","OBJECTID":32720},"geometry":{"x":175304.87999999896,"y":2560238.7700000014}},{"attributes":{"ID":32721,"DIS_CODE":0,"TOWNNAME":"善化區","LI":"東隆里","LIN":"8鄰","STREET":" ","SECT":" ","MAREA":"東勢寮","LANE":" ","ALLEY":" ","HOUSE_NO":"１９７號之１","E_COORD97":179823.87,"N_COORD97":2561767.52,"ADDRESS":"東勢寮１９７號之１","OBJECTID":32721},"geometry":{"x":179823.87000000011,"y":2561767.5199999996}},{"attributes":{"ID":32722,"DIS_CODE":0,"TOWNNAME":"善化區","LI":"東隆里","LIN":"8鄰","STREET":" ","SECT":" ","MAREA":"東勢寮","LANE":" ","ALLEY":" ","HOUSE_NO":"２１１號之２","E_COORD97":179763.23999999999,"N_COORD97":2561926.27,"ADDRESS":"東勢寮２１１號之２","OBJECTID":32722},"geometry":{"x":179763.24000000115,"y":2561926.2699999977}},{"attributes":{"ID":32723,"DIS_CODE":0,"TOWNNAME":"善化區","LI":"嘉北里","LIN":"8鄰","STREET":" ","SECT":" ","MAREA":"茄拔","LANE":" ","ALLEY":" ","HOUSE_NO":"１８０號之２０","E_COORD97":181117.26000000001,"N_COORD97":2560146.52,"ADDRESS":"茄拔１８０號之２０","OBJECTID":32723},"geometry":{"x":181117.26000000071,"y":2560146.5200000014}},{"attributes":{"ID":32724,"DIS_CODE":0,"TOWNNAME":"善化區","LI":"東隆里","LIN":"8鄰","STREET":" ","SECT":" ","MAREA":"東勢寮","LANE":" ","ALLEY":" ","HOUSE_NO":"２０１之１號","E_COORD97":179742.70999999999,"N_COORD97":2561701.77,"ADDRESS":"東勢寮２０１之１號","OBJECTID":32724},"geometry":{"x":179742.71000000089,"y":2561701.7699999996}},{"attributes":{"ID":32725,"DIS_CODE":0,"TOWNNAME":"善化區","LI":"東隆里","LIN":"8鄰","STREET":" ","SECT":" ","MAREA":"東勢寮","LANE":" ","ALLEY":" ","HOUSE_NO":"２０２號之１６","E_COORD97":179501.76000000001,"N_COORD97":2561698.77,"ADDRESS":"東勢寮２０２號之１６","OBJECTID":32725},"geometry":{"x":179501.76000000071,"y":2561698.7699999996}},{"attributes":{"ID":32726,"DIS_CODE":0,"TOWNNAME":"善化區","LI":"東昌里","LIN":"8鄰","STREET":" ","SECT":" ","MAREA":"東勢寮","LANE":" ","ALLEY":" ","HOUSE_NO":"８１號","E_COORD97":180394.63,"N_COORD97":2561906.2599999998,"ADDRESS":"東勢寮８１號","OBJECTID":32726},"geometry":{"x":180394.63000000082,"y":2561906.2599999979}},{"attributes":{"ID":32727,"DIS_CODE":0,"TOWNNAME":"善化區","LI":"東隆里","LIN":"8鄰","STREET":" ","SECT":" ","MAREA":"東勢寮","LANE":" ","ALLEY":" ","HOUSE_NO":"２０１之９號","E_COORD97":179817.45999999999,"N_COORD97":2561721.02,"ADDRESS":"東勢寮２０１之９號","OBJECTID":32727},"geometry":{"x":179817.46000000089,"y":2561721.0199999996}},{"attributes":{"ID":32728,"DIS_CODE":0,"TOWNNAME":"善化區","LI":"東隆里","LIN":"8鄰","STREET":" ","SECT":" ","MAREA":"東勢寮","LANE":" ","ALLEY":" ","HOUSE_NO":"２０１之７號","E_COORD97":179809.25,"N_COORD97":2561720.52,"ADDRESS":"東勢寮２０１之７號","OBJECTID":32728},"geometry":{"x":179809.25,"y":2561720.5199999996}},{"attributes":{"ID":32729,"DIS_CODE":0,"TOWNNAME":"東區","LI":"南聖里","LIN":"8鄰","STREET":"裕農路","SECT":" ","MAREA":" ","LANE":"７２６巷","ALLEY":"９弄","HOUSE_NO":"７號","E_COORD97":171887.32000000001,"N_COORD97":2543147.1299999999,"ADDRESS":"裕農路７２６巷９弄７號","OBJECTID":32729},"geometry":{"x":171887.32000000123,"y":2543147.129999999}},{"attributes":{"ID":32730,"DIS_CODE":0,"TOWNNAME":"玉井區","LI":"玉井里","LIN":"7鄰","STREET":" ","SECT":" ","MAREA":"玉井","LANE":" ","ALLEY":" ","HOUSE_NO":"１０５號","E_COORD97":194991.12,"N_COORD97":2558622.2400000002,"ADDRESS":"玉井１０５號","OBJECTID":32730},"geometry":{"x":194991.12000000011,"y":2558622.2400000021}},{"attributes":{"ID":32731,"DIS_CODE":0,"TOWNNAME":"東區","LI":"南聖里","LIN":"8鄰","STREET":"裕農路","SECT":" ","MAREA":" ","LANE":"７２６巷","ALLEY":"７弄","HOUSE_NO":"２號","E_COORD97":171872.84,"N_COORD97":2543161.1200000001,"ADDRESS":"裕農路７２６巷７弄２號","OBJECTID":32731},"geometry":{"x":171872.84000000078,"y":2543161.1200000029}},{"attributes":{"ID":32732,"DIS_CODE":0,"TOWNNAME":"善化區","LI":"東隆里","LIN":"8鄰","STREET":" ","SECT":" ","MAREA":"東勢寮","LANE":" ","ALLEY":" ","HOUSE_NO":"２０１之３號","E_COORD97":179793.26000000001,"N_COORD97":2561719.52,"ADDRESS":"東勢寮２０１之３號","OBJECTID":32732},"geometry":{"x":179793.26000000071,"y":2561719.5200000014}},{"attributes":{"ID":32733,"DIS_CODE":0,"TOWNNAME":"善化區","LI":"東昌里","LIN":"8鄰","STREET":" ","SECT":" ","MAREA":"東勢寮","LANE":" ","ALLEY":" ","HOUSE_NO":"８１號之６","E_COORD97":180395.73999999999,"N_COORD97":2561902.27,"ADDRESS":"東勢寮８１號之６","OBJECTID":32733},"geometry":{"x":180395.74000000115,"y":2561902.2699999996}},{"attributes":{"ID":32734,"DIS_CODE":0,"TOWNNAME":"東區","LI":"南聖里","LIN":"8鄰","STREET":"裕農路","SECT":" ","MAREA":" ","LANE":"７２６巷","ALLEY":"７弄","HOUSE_NO":"２號之１","E_COORD97":171872.54999999999,"N_COORD97":2543155.6200000001,"ADDRESS":"裕農路７２６巷７弄２號之１","OBJECTID":32734},"geometry":{"x":171872.54999999888,"y":2543155.620000001}},{"attributes":{"ID":32735,"DIS_CODE":0,"TOWNNAME":"善化區","LI":"東隆里","LIN":"8鄰","STREET":" ","SECT":" ","MAREA":"東勢寮","LANE":" ","ALLEY":" ","HOUSE_NO":"２０１之４號","E_COORD97":179797.42000000001,"N_COORD97":2561719.77,"ADDRESS":"東勢寮２０１之４號","OBJECTID":32735},"geometry":{"x":179797.42000000086,"y":2561719.7700000033}},{"attributes":{"ID":32736,"DIS_CODE":0,"TOWNNAME":"善化區","LI":"嘉北里","LIN":"8鄰","STREET":" ","SECT":" ","MAREA":"茄拔","LANE":" ","ALLEY":" ","HOUSE_NO":"１８０號之２２","E_COORD97":181111.23000000001,"N_COORD97":2560171.27,"ADDRESS":"茄拔１８０號之２２","OBJECTID":32736},"geometry":{"x":181111.23000000138,"y":2560171.2700000014}},{"attributes":{"ID":32737,"DIS_CODE":0,"TOWNNAME":"永康區","LI":"五王里","LIN":"8鄰","STREET":"中山東路","SECT":" ","MAREA":" ","LANE":"２１８巷","ALLEY":"２３弄","HOUSE_NO":"２９號","E_COORD97":171731.35999999999,"N_COORD97":2545657.0699999998,"ADDRESS":"中山東路２１８巷２３弄２９號","OBJECTID":32737},"geometry":{"x":171731.36000000034,"y":2545657.0700000003}},{"attributes":{"ID":32738,"DIS_CODE":0,"TOWNNAME":"永康區","LI":"五王里","LIN":"8鄰","STREET":"中山東路","SECT":" ","MAREA":" ","LANE":"２１８巷","ALLEY":"２３弄","HOUSE_NO":"２１號","E_COORD97":171725.60000000001,"N_COORD97":2545673.9900000002,"ADDRESS":"中山東路２１８巷２３弄２１號","OBJECTID":32738},"geometry":{"x":171725.59999999963,"y":2545673.9900000002}},{"attributes":{"ID":32739,"DIS_CODE":0,"TOWNNAME":"永康區","LI":"大灣里","LIN":"8鄰","STREET":"民族路","SECT":" ","MAREA":" ","LANE":"３９６巷","ALLEY":"１６弄","HOUSE_NO":"５號","E_COORD97":174811.64999999999,"N_COORD97":2545440.8500000001,"ADDRESS":"民族路３９６巷１６弄５號","OBJECTID":32739},"geometry":{"x":174811.65000000037,"y":2545440.8499999996}},{"attributes":{"ID":32740,"DIS_CODE":0,"TOWNNAME":"永康區","LI":"大灣里","LIN":"8鄰","STREET":"民族路","SECT":" ","MAREA":" ","LANE":"３９６巷","ALLEY":"１６弄","HOUSE_NO":"１３號","E_COORD97":174827.01000000001,"N_COORD97":2545434.6000000001,"ADDRESS":"民族路３９６巷１６弄１３號","OBJECTID":32740},"geometry":{"x":174827.00999999978,"y":2545434.6000000015}},{"attributes":{"ID":32741,"DIS_CODE":0,"TOWNNAME":"仁德區","LI":"太子里","LIN":"8鄰","STREET":"太子路","SECT":" ","MAREA":" ","LANE":"１７２巷","ALLEY":"１弄","HOUSE_NO":"４號","E_COORD97":174364.62,"N_COORD97":2543561,"ADDRESS":"太子路１７２巷１弄４號","OBJECTID":32741},"geometry":{"x":174364.62000000104,"y":2543561.0000000019}},{"attributes":{"ID":32742,"DIS_CODE":0,"TOWNNAME":"歸仁區","LI":"辜厝里","LIN":"4鄰","STREET":"民族南街","SECT":" ","MAREA":" ","LANE":"１８巷","ALLEY":"２７弄","HOUSE_NO":"１３號","E_COORD97":177390.960919,"N_COORD97":2540656.1743200002,"ADDRESS":"民族南街１８巷２７弄１３號","OBJECTID":32742},"geometry":{"x":177390.96091900114,"y":2540656.1743240021}},{"attributes":{"ID":32743,"DIS_CODE":0,"TOWNNAME":"仁德區","LI":"太子里","LIN":"8鄰","STREET":"太子路","SECT":" ","MAREA":" ","LANE":"１７２巷","ALLEY":"１弄","HOUSE_NO":"９號","E_COORD97":174351.34,"N_COORD97":2543547.2599999998,"ADDRESS":"太子路１７２巷１弄９號","OBJECTID":32743},"geometry":{"x":174351.34000000078,"y":2543547.2599999998}},{"attributes":{"ID":32744,"DIS_CODE":0,"TOWNNAME":"仁德區","LI":"太子里","LIN":"8鄰","STREET":"太子路","SECT":" ","MAREA":" ","LANE":"１７２巷","ALLEY":"３弄","HOUSE_NO":"６號","E_COORD97":174352.26999999999,"N_COORD97":2543576.25,"ADDRESS":"太子路１７２巷３弄６號","OBJECTID":32744},"geometry":{"x":174352.26999999955,"y":2543576.2500000019}},{"attributes":{"ID":32745,"DIS_CODE":0,"TOWNNAME":"善化區","LI":"南關里","LIN":"8鄰","STREET":"自由路","SECT":" ","MAREA":" ","LANE":"１７７巷","ALLEY":"１弄","HOUSE_NO":"２號","E_COORD97":176917.25,"N_COORD97":2558874.5,"ADDRESS":"自由路１７７巷１弄２號","OBJECTID":32745},"geometry":{"x":176917.25000000093,"y":2558874.5000000019}},{"attributes":{"ID":32746,"DIS_CODE":0,"TOWNNAME":"善化區","LI":"南關里","LIN":"8鄰","STREET":"自由路","SECT":" ","MAREA":" ","LANE":"１７７巷","ALLEY":"１弄","HOUSE_NO":"６號","E_COORD97":176927,"N_COORD97":2558872.4700000002,"ADDRESS":"自由路１７７巷１弄６號","OBJECTID":32746},"geometry":{"x":176927.00000000093,"y":2558872.4700000025}},{"attributes":{"ID":32747,"DIS_CODE":0,"TOWNNAME":"善化區","LI":"東昌里","LIN":"8鄰","STREET":" ","SECT":" ","MAREA":"東勢寮","LANE":" ","ALLEY":" ","HOUSE_NO":"１３０號","E_COORD97":180336.73999999999,"N_COORD97":2561919.2599999998,"ADDRESS":"東勢寮１３０號","OBJECTID":32747},"geometry":{"x":180336.74000000115,"y":2561919.2599999998}},{"attributes":{"ID":32748,"DIS_CODE":0,"TOWNNAME":"善化區","LI":"嘉北里","LIN":"8鄰","STREET":" ","SECT":" ","MAREA":"茄拔","LANE":" ","ALLEY":" ","HOUSE_NO":"１８１號之１８","E_COORD97":181158.07000000001,"N_COORD97":2560120.27,"ADDRESS":"茄拔１８１號之１８","OBJECTID":32748},"geometry":{"x":181158.07000000123,"y":2560120.2700000014}},{"attributes":{"ID":32749,"DIS_CODE":0,"TOWNNAME":"善化區","LI":"南關里","LIN":"8鄰","STREET":"自由路","SECT":" ","MAREA":" ","LANE":"１７７巷","ALLEY":"１弄","HOUSE_NO":"７號","E_COORD97":176971.09,"N_COORD97":2558839.1899999999,"ADDRESS":"自由路１７７巷１弄７號","OBJECTID":32749},"geometry":{"x":176971.08999999985,"y":2558839.1900000013}},{"attributes":{"ID":32750,"DIS_CODE":0,"TOWNNAME":"善化區","LI":"南關里","LIN":"8鄰","STREET":"自由路","SECT":" ","MAREA":" ","LANE":"１７７巷","ALLEY":"１弄","HOUSE_NO":"８號","E_COORD97":176936.17000000001,"N_COORD97":2558870.1899999999,"ADDRESS":"自由路１７７巷１弄８號","OBJECTID":32750},"geometry":{"x":176936.17000000086,"y":2558870.1900000013}},{"attributes":{"ID":32751,"DIS_CODE":0,"TOWNNAME":"善化區","LI":"南關里","LIN":"8鄰","STREET":"自由路","SECT":" ","MAREA":" ","LANE":"１７７巷","ALLEY":"１弄","HOUSE_NO":"１０號","E_COORD97":176945.84,"N_COORD97":2558868.0600000001,"ADDRESS":"自由路１７７巷１弄１０號","OBJECTID":32751},"geometry":{"x":176945.83999999985,"y":2558868.0600000024}},{"attributes":{"ID":32752,"DIS_CODE":0,"TOWNNAME":"善化區","LI":"南關里","LIN":"8鄰","STREET":"自由路","SECT":" ","MAREA":" ","LANE":"１７７巷","ALLEY":"１弄","HOUSE_NO":"１２號","E_COORD97":176954.82999999999,"N_COORD97":2558865.9399999999,"ADDRESS":"自由路１７７巷１弄１２號","OBJECTID":32752},"geometry":{"x":176954.82999999914,"y":2558865.9399999995}},{"attributes":{"ID":32753,"DIS_CODE":0,"TOWNNAME":"善化區","LI":"南關里","LIN":"8鄰","STREET":"自由路","SECT":" ","MAREA":" ","LANE":"１７７巷","ALLEY":"１弄","HOUSE_NO":"１６號","E_COORD97":176963.45999999999,"N_COORD97":2558863.7999999998,"ADDRESS":"自由路１７７巷１弄１６號","OBJECTID":32753},"geometry":{"x":176963.45999999996,"y":2558863.8000000026}},{"attributes":{"ID":32754,"DIS_CODE":0,"TOWNNAME":"歸仁區","LI":"後市里","LIN":"40鄰","STREET":"中山路","SECT":"二段","MAREA":" ","LANE":" ","ALLEY":" ","HOUSE_NO":"１６２號","E_COORD97":177181.03,"N_COORD97":2540846.7400000002,"ADDRESS":"中山路二段１６２號","OBJECTID":32754},"geometry":{"x":177181.03000000212,"y":2540846.7400000021}},{"attributes":{"ID":32755,"DIS_CODE":0,"TOWNNAME":"善化區","LI":"溪美里","LIN":"8鄰","STREET":" ","SECT":" ","MAREA":"溪尾","LANE":" ","ALLEY":" ","HOUSE_NO":"７２之１９號","E_COORD97":176199.57000000001,"N_COORD97":2561401.52,"ADDRESS":"溪尾７２之１９號","OBJECTID":32755},"geometry":{"x":176199.57000000123,"y":2561401.5199999996}},{"attributes":{"ID":32756,"DIS_CODE":0,"TOWNNAME":"善化區","LI":"東昌里","LIN":"8鄰","STREET":" ","SECT":" ","MAREA":"東勢寮","LANE":" ","ALLEY":" ","HOUSE_NO":"８１之３號","E_COORD97":180394.04999999999,"N_COORD97":2561925.02,"ADDRESS":"東勢寮８１之３號","OBJECTID":32756},"geometry":{"x":180394.04999999981,"y":2561925.0200000033}},{"attributes":{"ID":32757,"DIS_CODE":0,"TOWNNAME":"善化區","LI":"東隆里","LIN":"8鄰","STREET":" ","SECT":" ","MAREA":"東勢寮","LANE":" ","ALLEY":" ","HOUSE_NO":"２０２之９號","E_COORD97":179560.89999999999,"N_COORD97":2561633.52,"ADDRESS":"東勢寮２０２之９號","OBJECTID":32757},"geometry":{"x":179560.9000000013,"y":2561633.5200000033}},{"attributes":{"ID":32758,"DIS_CODE":0,"TOWNNAME":"南區","LI":"省躬里","LIN":"14鄰","STREET":"萬年路","SECT":" ","MAREA":" ","LANE":" ","ALLEY":" ","HOUSE_NO":"４３２號","E_COORD97":167073.09,"N_COORD97":2537553.1200000001,"ADDRESS":"萬年路４３２號","OBJECTID":32758},"geometry":{"x":167073.08999999985,"y":2537553.1200000029}},{"attributes":{"ID":32759,"DIS_CODE":0,"TOWNNAME":"南區","LI":"省躬里","LIN":"14鄰","STREET":"萬年路","SECT":" ","MAREA":" ","LANE":" ","ALLEY":" ","HOUSE_NO":"５３６號","E_COORD97":167302.47,"N_COORD97":2537651.25,"ADDRESS":"萬年路５３６號","OBJECTID":32759},"geometry":{"x":167302.46999999974,"y":2537651.25}},{"attributes":{"ID":32760,"DIS_CODE":0,"TOWNNAME":"歸仁區","LI":"看西里","LIN":"14鄰","STREET":"仁愛十六街","SECT":" ","MAREA":" ","LANE":" ","ALLEY":" ","HOUSE_NO":"２６號","E_COORD97":178197.29999999999,"N_COORD97":2540064.6899999999,"ADDRESS":"仁愛十六街２６號","OBJECTID":32760},"geometry":{"x":178197.29999999888,"y":2540064.6899999995}},{"attributes":{"ID":32761,"DIS_CODE":0,"TOWNNAME":"歸仁區","LI":"後市里","LIN":"17鄰","STREET":"中山路","SECT":"二段","MAREA":" ","LANE":" ","ALLEY":" ","HOUSE_NO":"１７５號","E_COORD97":177231.89000000001,"N_COORD97":2540812.5499999998,"ADDRESS":"中山路二段１７５號","OBJECTID":32761},"geometry":{"x":177231.88999999966,"y":2540812.5500000007}},{"attributes":{"ID":32762,"DIS_CODE":0,"TOWNNAME":"東山區","LI":"東中里","LIN":"2鄰","STREET":"新東路","SECT":"一段","MAREA":" ","LANE":" ","ALLEY":" ","HOUSE_NO":"２３號","E_COORD97":188863.07000000001,"N_COORD97":2580106.6499999999,"ADDRESS":"新東路一段２３號","OBJECTID":32762},"geometry":{"x":188863.07000000123,"y":2580106.6500000004}},{"attributes":{"ID":32763,"DIS_CODE":0,"TOWNNAME":"東山區","LI":"東中里","LIN":"2鄰","STREET":"新東路","SECT":"一段","MAREA":" ","LANE":" ","ALLEY":" ","HOUSE_NO":"２５號","E_COORD97":188858,"N_COORD97":2580105.5699999998,"ADDRESS":"新東路一段２５號","OBJECTID":32763},"geometry":{"x":188858.00000000093,"y":2580105.5700000022}},{"attributes":{"ID":32764,"DIS_CODE":0,"TOWNNAME":"東山區","LI":"東中里","LIN":"2鄰","STREET":"新東路","SECT":"一段","MAREA":" ","LANE":" ","ALLEY":" ","HOUSE_NO":"２７號","E_COORD97":188849.84,"N_COORD97":2580102.27,"ADDRESS":"新東路一段２７號","OBJECTID":32764},"geometry":{"x":188849.84000000171,"y":2580102.2700000033}},{"attributes":{"ID":32765,"DIS_CODE":0,"TOWNNAME":"永康區","LI":"大灣里","LIN":"8鄰","STREET":"民族路","SECT":" ","MAREA":" ","LANE":"３９６巷","ALLEY":"１６弄","HOUSE_NO":"２號","E_COORD97":174807.01000000001,"N_COORD97":2545429.4399999999,"ADDRESS":"民族路３９６巷１６弄２號","OBJECTID":32765},"geometry":{"x":174807.00999999978,"y":2545429.4399999995}},{"attributes":{"ID":32766,"DIS_CODE":0,"TOWNNAME":"白河區","LI":"草店里","LIN":"7鄰","STREET":" ","SECT":" ","MAREA":"草店","LANE":" ","ALLEY":" ","HOUSE_NO":"７８號","E_COORD97":191989.19,"N_COORD97":2587519.7599999998,"ADDRESS":"草店７８號","OBJECTID":32766},"geometry":{"x":191989.19000000227,"y":2587519.7599999998}},{"attributes":{"ID":32767,"DIS_CODE":0,"TOWNNAME":"永康區","LI":"大灣里","LIN":"8鄰","STREET":"民族路","SECT":" ","MAREA":" ","LANE":"３９６巷","ALLEY":"１６弄","HOUSE_NO":"７號","E_COORD97":174815.17999999999,"N_COORD97":2545439.1000000001,"ADDRESS":"民族路３９６巷１６弄７號","OBJECTID":32767},"geometry":{"x":174815.18000000063,"y":2545439.0999999996}},{"attributes":{"ID":32768,"DIS_CODE":0,"TOWNNAME":"永康區","LI":"大灣里","LIN":"8鄰","STREET":"民族路","SECT":" ","MAREA":" ","LANE":"３９６巷","ALLEY":"６０弄","HOUSE_NO":"８號","E_COORD97":174795.54000000001,"N_COORD97":2545504.9900000002,"ADDRESS":"民族路３９６巷６０弄８號","OBJECTID":32768},"geometry":{"x":174795.5400000019,"y":2545504.9900000002}},{"attributes":{"ID":32769,"DIS_CODE":0,"TOWNNAME":"永康區","LI":"大灣里","LIN":"8鄰","STREET":"民族路","SECT":" ","MAREA":" ","LANE":"３９６巷","ALLEY":"１６弄","HOUSE_NO":"６號","E_COORD97":174811.32999999999,"N_COORD97":2545427.9399999999,"ADDRESS":"民族路３９６巷１６弄６號","OBJECTID":32769},"geometry":{"x":174811.33000000101,"y":2545427.9400000032}},{"attributes":{"ID":32770,"DIS_CODE":0,"TOWNNAME":"永康區","LI":"大灣里","LIN":"8鄰","STREET":"民族路","SECT":" ","MAREA":" ","LANE":"３９６巷","ALLEY":"１６弄","HOUSE_NO":"１號","E_COORD97":174804.13,"N_COORD97":2545443.8500000001,"ADDRESS":"民族路３９６巷１６弄１號","OBJECTID":32770},"geometry":{"x":174804.12999999989,"y":2545443.8499999996}},{"attributes":{"ID":32771,"DIS_CODE":0,"TOWNNAME":"東山區","LI":"東中里","LIN":"2鄰","STREET":"新東路","SECT":"一段","MAREA":" ","LANE":" ","ALLEY":" ","HOUSE_NO":"３１號","E_COORD97":188842,"N_COORD97":2580100.0499999998,"ADDRESS":"新東路一段３１號","OBJECTID":32771},"geometry":{"x":188842.00000000186,"y":2580100.0500000007}},{"attributes":{"ID":32772,"DIS_CODE":0,"TOWNNAME":"東山區","LI":"東中里","LIN":"2鄰","STREET":"新東路","SECT":"一段","MAREA":" ","LANE":" ","ALLEY":" ","HOUSE_NO":"３３號","E_COORD97":188837.57999999999,"N_COORD97":2580099.4700000002,"ADDRESS":"新東路一段３３號","OBJECTID":32772},"geometry":{"x":188837.58000000007,"y":2580099.4700000025}},{"attributes":{"ID":32773,"DIS_CODE":0,"TOWNNAME":"東山區","LI":"東中里","LIN":"2鄰","STREET":"新東路","SECT":"一段","MAREA":" ","LANE":" ","ALLEY":" ","HOUSE_NO":"３５號","E_COORD97":188820.14999999999,"N_COORD97":2580079.3500000001,"ADDRESS":"新東路一段３５號","OBJECTID":32773},"geometry":{"x":188820.1500000013,"y":2580079.3500000015}},{"attributes":{"ID":32774,"DIS_CODE":0,"TOWNNAME":"永康區","LI":"大橋里","LIN":"8鄰","STREET":"大橋三街","SECT":" ","MAREA":" ","LANE":"１９９巷","ALLEY":"４２弄","HOUSE_NO":"４號","E_COORD97":170893.04000000001,"N_COORD97":2546841.6499999999,"ADDRESS":"大橋三街１９９巷４２弄４號","OBJECTID":32774},"geometry":{"x":170893.03999999911,"y":2546841.6500000022}},{"attributes":{"ID":32775,"DIS_CODE":0,"TOWNNAME":"永康區","LI":"大灣里","LIN":"8鄰","STREET":"民族路","SECT":" ","MAREA":" ","LANE":"３９６巷","ALLEY":"１６弄","HOUSE_NO":"１２號","E_COORD97":174823.88,"N_COORD97":2545423.1899999999,"ADDRESS":"民族路３９６巷１６弄１２號","OBJECTID":32775},"geometry":{"x":174823.88000000082,"y":2545423.1900000013}},{"attributes":{"ID":32776,"DIS_CODE":0,"TOWNNAME":"永康區","LI":"中興里","LIN":"8鄰","STREET":"忠孝路","SECT":" ","MAREA":" ","LANE":"２３９巷","ALLEY":"２０弄","HOUSE_NO":"３２號","E_COORD97":172000.60999999999,"N_COORD97":2545130.2400000002,"ADDRESS":"忠孝路２３９巷２０弄３２號","OBJECTID":32776},"geometry":{"x":172000.61000000127,"y":2545130.2400000002}},{"attributes":{"ID":32777,"DIS_CODE":0,"TOWNNAME":"永康區","LI":"中興里","LIN":"8鄰","STREET":"忠孝路","SECT":" ","MAREA":" ","LANE":"２３９巷","ALLEY":"２０弄","HOUSE_NO":"４４號","E_COORD97":171974.60000000001,"N_COORD97":2545125.7400000002,"ADDRESS":"忠孝路２３９巷２０弄４４號","OBJECTID":32777},"geometry":{"x":171974.60000000056,"y":2545125.7400000021}},{"attributes":{"ID":32778,"DIS_CODE":0,"TOWNNAME":"東山區","LI":"東中里","LIN":"2鄰","STREET":"新東路","SECT":"一段","MAREA":" ","LANE":" ","ALLEY":" ","HOUSE_NO":"３號","E_COORD97":188936.39000000001,"N_COORD97":2580133.4199999999,"ADDRESS":"新東路一段３號","OBJECTID":32778},"geometry":{"x":188936.3900000006,"y":2580133.4200000018}},{"attributes":{"ID":32779,"DIS_CODE":0,"TOWNNAME":"東山區","LI":"東中里","LIN":"2鄰","STREET":"新東路","SECT":"一段","MAREA":" ","LANE":" ","ALLEY":" ","HOUSE_NO":"５３號","E_COORD97":188771.69,"N_COORD97":2580077.3100000001,"ADDRESS":"新東路一段５３號","OBJECTID":32779},"geometry":{"x":188771.69000000227,"y":2580077.3100000024}},{"attributes":{"ID":32780,"DIS_CODE":0,"TOWNNAME":"永康區","LI":"中興里","LIN":"8鄰","STREET":"忠孝路","SECT":" ","MAREA":" ","LANE":"２３９巷","ALLEY":"２０弄","HOUSE_NO":"３８號","E_COORD97":171988.07000000001,"N_COORD97":2545128.2400000002,"ADDRESS":"忠孝路２３９巷２０弄３８號","OBJECTID":32780},"geometry":{"x":171988.0700000003,"y":2545128.2400000039}},{"attributes":{"ID":32781,"DIS_CODE":0,"TOWNNAME":"安南區","LI":"安富里","LIN":"8鄰","STREET":"郡安路","SECT":"五段","MAREA":" ","LANE":"１８４巷","ALLEY":"９４弄","HOUSE_NO":"１０號","E_COORD97":167468.98999999999,"N_COORD97":2547520.1000000001,"ADDRESS":"郡安路五段１８４巷９４弄１０號","OBJECTID":32781},"geometry":{"x":167468.99000000022,"y":2547520.1000000015}},{"attributes":{"ID":32782,"DIS_CODE":0,"TOWNNAME":"安南區","LI":"安富里","LIN":"8鄰","STREET":"郡安路","SECT":"五段","MAREA":" ","LANE":"１８４巷","ALLEY":"９４弄","HOUSE_NO":"１１號","E_COORD97":167463.14000000001,"N_COORD97":2547498.4300000002,"ADDRESS":"郡安路五段１８４巷９４弄１１號","OBJECTID":32782},"geometry":{"x":167463.1400000006,"y":2547498.4299999997}},{"attributes":{"ID":32783,"DIS_CODE":0,"TOWNNAME":"安南區","LI":"安富里","LIN":"8鄰","STREET":"郡安路","SECT":"五段","MAREA":" ","LANE":"１８４巷","ALLEY":"９４弄","HOUSE_NO":"１３號","E_COORD97":167457.29000000001,"N_COORD97":2547496.7000000002,"ADDRESS":"郡安路五段１８４巷９４弄１３號","OBJECTID":32783},"geometry":{"x":167457.29000000097,"y":2547496.6999999993}},{"attributes":{"ID":32784,"DIS_CODE":0,"TOWNNAME":"安南區","LI":"安富里","LIN":"8鄰","STREET":"郡安路","SECT":"五段","MAREA":" ","LANE":"１８４巷","ALLEY":"９４弄","HOUSE_NO":"１５號","E_COORD97":167446.89000000001,"N_COORD97":2547494.1000000001,"ADDRESS":"郡安路五段１８４巷９４弄１５號","OBJECTID":32784},"geometry":{"x":167446.88999999966,"y":2547494.0999999996}},{"attributes":{"ID":32785,"DIS_CODE":0,"TOWNNAME":"東山區","LI":"東中里","LIN":"2鄰","STREET":"新東路","SECT":"一段","MAREA":" ","LANE":" ","ALLEY":" ","HOUSE_NO":"５５號","E_COORD97":188767.48000000001,"N_COORD97":2580076.1099999999,"ADDRESS":"新東路一段５５號","OBJECTID":32785},"geometry":{"x":188767.48000000045,"y":2580076.1100000031}},{"attributes":{"ID":32786,"DIS_CODE":0,"TOWNNAME":"東山區","LI":"東中里","LIN":"2鄰","STREET":"新東路","SECT":"一段","MAREA":" ","LANE":" ","ALLEY":" ","HOUSE_NO":"５７號","E_COORD97":188763.26999999999,"N_COORD97":2580074.8300000001,"ADDRESS":"新東路一段５７號","OBJECTID":32786},"geometry":{"x":188763.26999999955,"y":2580074.8300000001}},{"attributes":{"ID":32787,"DIS_CODE":0,"TOWNNAME":"東山區","LI":"東中里","LIN":"2鄰","STREET":"新東路","SECT":"一段","MAREA":" ","LANE":" ","ALLEY":" ","HOUSE_NO":"５９號","E_COORD97":188758.70000000001,"N_COORD97":2580073.79,"ADDRESS":"新東路一段５９號","OBJECTID":32787},"geometry":{"x":188758.70000000019,"y":2580073.7899999991}},{"attributes":{"ID":32788,"DIS_CODE":0,"TOWNNAME":"東山區","LI":"東中里","LIN":"2鄰","STREET":"新東路","SECT":"一段","MAREA":" ","LANE":" ","ALLEY":" ","HOUSE_NO":"５號","E_COORD97":188940.84,"N_COORD97":2580135.02,"ADDRESS":"新東路一段５號","OBJECTID":32788},"geometry":{"x":188940.83999999985,"y":2580135.0200000014}},{"attributes":{"ID":32789,"DIS_CODE":0,"TOWNNAME":"東山區","LI":"東中里","LIN":"2鄰","STREET":"新東路","SECT":"一段","MAREA":" ","LANE":" ","ALLEY":" ","HOUSE_NO":"６１號","E_COORD97":188754.13,"N_COORD97":2580072.6200000001,"ADDRESS":"新東路一段６１號","OBJECTID":32789},"geometry":{"x":188754.12999999989,"y":2580072.6200000029}},{"attributes":{"ID":32790,"DIS_CODE":0,"TOWNNAME":"安南區","LI":"安富里","LIN":"8鄰","STREET":"郡安路","SECT":"五段","MAREA":" ","LANE":"１８４巷","ALLEY":"９４弄","HOUSE_NO":"１６號","E_COORD97":167453.17000000001,"N_COORD97":2547517.7200000002,"ADDRESS":"郡安路五段１８４巷９４弄１６號","OBJECTID":32790},"geometry":{"x":167453.17000000086,"y":2547517.7200000007}},{"attributes":{"ID":32791,"DIS_CODE":0,"TOWNNAME":"安南區","LI":"安富里","LIN":"8鄰","STREET":"郡安路","SECT":"五段","MAREA":" ","LANE":"１８４巷","ALLEY":"９４弄","HOUSE_NO":"１７號","E_COORD97":167441.26000000001,"N_COORD97":2547493.2400000002,"ADDRESS":"郡安路五段１８４巷９４弄１７號","OBJECTID":32791},"geometry":{"x":167441.25999999978,"y":2547493.2400000002}},{"attributes":{"ID":32792,"DIS_CODE":0,"TOWNNAME":"學甲區","LI":"慈福里","LIN":"14鄰","STREET":"綿和路","SECT":" ","MAREA":" ","LANE":" ","ALLEY":" ","HOUSE_NO":"１４號之１","E_COORD97":166486.82000000001,"N_COORD97":2570335.3599999999,"ADDRESS":"綿和路１４號之１","OBJECTID":32792},"geometry":{"x":166486.8200000003,"y":2570335.3600000013}},{"attributes":{"ID":32793,"DIS_CODE":0,"TOWNNAME":"學甲區","LI":"三慶里","LIN":"14鄰","STREET":" ","SECT":" ","MAREA":"頂洲","LANE":" ","ALLEY":" ","HOUSE_NO":"１８０號之７","E_COORD97":167982.51999999999,"N_COORD97":2576570.6099999999,"ADDRESS":"頂洲１８０號之７","OBJECTID":32793},"geometry":{"x":167982.52000000048,"y":2576570.6100000031}},{"attributes":{"ID":32794,"DIS_CODE":0,"TOWNNAME":"學甲區","LI":"平和里","LIN":"14鄰","STREET":" ","SECT":" ","MAREA":"學甲寮","LANE":" ","ALLEY":" ","HOUSE_NO":"１４０號","E_COORD97":169634.48999999999,"N_COORD97":2573265.48,"ADDRESS":"學甲寮１４０號","OBJECTID":32794},"geometry":{"x":169634.49000000115,"y":2573265.4800000004}},{"attributes":{"ID":32795,"DIS_CODE":0,"TOWNNAME":"學甲區","LI":"平和里","LIN":"14鄰","STREET":" ","SECT":" ","MAREA":"學甲寮","LANE":" ","ALLEY":" ","HOUSE_NO":"１４２號之２","E_COORD97":169660.57000000001,"N_COORD97":2573265.8599999999,"ADDRESS":"學甲寮１４２號之２","OBJECTID":32795},"geometry":{"x":169660.5700000003,"y":2573265.8599999994}},{"attributes":{"ID":32796,"DIS_CODE":0,"TOWNNAME":"學甲區","LI":"平和里","LIN":"14鄰","STREET":" ","SECT":" ","MAREA":"學甲寮","LANE":" ","ALLEY":" ","HOUSE_NO":"１４２號","E_COORD97":169653,"N_COORD97":2573270.7400000002,"ADDRESS":"學甲寮１４２號","OBJECTID":32796},"geometry":{"x":169653.00000000093,"y":2573270.7400000002}},{"attributes":{"ID":32797,"DIS_CODE":0,"TOWNNAME":"學甲區","LI":"平和里","LIN":"14鄰","STREET":" ","SECT":" ","MAREA":"學甲寮","LANE":" ","ALLEY":" ","HOUSE_NO":"１４３號","E_COORD97":169668.19,"N_COORD97":2573267.1299999999,"ADDRESS":"學甲寮１４３號","OBJECTID":32797},"geometry":{"x":169668.19000000041,"y":2573267.129999999}},{"attributes":{"ID":32798,"DIS_CODE":0,"TOWNNAME":"學甲區","LI":"平和里","LIN":"14鄰","STREET":" ","SECT":" ","MAREA":"學甲寮","LANE":" ","ALLEY":" ","HOUSE_NO":"１４４號","E_COORD97":169665.39999999999,"N_COORD97":2573293.3100000001,"ADDRESS":"學甲寮１４４號","OBJECTID":32798},"geometry":{"x":169665.40000000224,"y":2573293.3100000024}},{"attributes":{"ID":32799,"DIS_CODE":0,"TOWNNAME":"學甲區","LI":"平和里","LIN":"14鄰","STREET":" ","SECT":" ","MAREA":"學甲寮","LANE":" ","ALLEY":" ","HOUSE_NO":"１４５號","E_COORD97":169649.48999999999,"N_COORD97":2573316.9199999999,"ADDRESS":"學甲寮１４５號","OBJECTID":32799},"geometry":{"x":169649.49000000209,"y":2573316.9199999999}},{"attributes":{"ID":32800,"DIS_CODE":0,"TOWNNAME":"學甲區","LI":"平和里","LIN":"14鄰","STREET":" ","SECT":" ","MAREA":"學甲寮","LANE":" ","ALLEY":" ","HOUSE_NO":"１４６號","E_COORD97":169642.17999999999,"N_COORD97":2573331.6899999999,"ADDRESS":"學甲寮１４６號","OBJECTID":32800},"geometry":{"x":169642.1799999997,"y":2573331.6899999995}}]}