{"displayFieldName":"TOWNNAME","fieldAliases":{"ID":"ID","DIS_CODE":"DIS_CODE","TOWNNAME":"TOWNNAME","LI":"LI","LIN":"LIN","STREET":"STREET","SECT":"SECT","MAREA":"MAREA","LANE":"LANE","ALLEY":"ALLEY","HOUSE_NO":"HOUSE_NO","E_COORD97":"E_COORD97","N_COORD97":"N_COORD97","ADDRESS":"ADDRESS","OBJECTID":"OBJECTID"},"geometryType":"esriGeometryPoint","spatialReference":{"wkid":102443,"latestWkid":3826},"fields":[{"name":"ID","type":"esriFieldTypeDouble","alias":"ID"},{"name":"DIS_CODE","type":"esriFieldTypeInteger","alias":"DIS_CODE"},{"name":"TOWNNAME","type":"esriFieldTypeString","alias":"TOWNNAME","length":8},{"name":"LI","type":"esriFieldTypeString","alias":"LI","length":8},{"name":"LIN","type":"esriFieldTypeString","alias":"LIN","length":12},{"name":"STREET","type":"esriFieldTypeString","alias":"STREET","length":20},{"name":"SECT","type":"esriFieldTypeString","alias":"SECT","length":8},{"name":"MAREA","type":"esriFieldTypeString","alias":"MAREA","length":12},{"name":"LANE","type":"esriFieldTypeString","alias":"LANE","length":10},{"name":"ALLEY","type":"esriFieldTypeString","alias":"ALLEY","length":10},{"name":"HOUSE_NO","type":"esriFieldTypeString","alias":"HOUSE_NO","length":20},{"name":"E_COORD97","type":"esriFieldTypeDouble","alias":"E_COORD97"},{"name":"N_COORD97","type":"esriFieldTypeDouble","alias":"N_COORD97"},{"name":"ADDRESS","type":"esriFieldTypeString","alias":"ADDRESS","length":50},{"name":"OBJECTID","type":"esriFieldTypeOID","alias":"OBJECTID"}],"features":[{"attributes":{"ID":486426,"DIS_CODE":0,"TOWNNAME":"安平區","LI":"平通里","LIN":"32鄰","STREET":"永華路","SECT":"二段","MAREA":" ","LANE":" ","ALLEY":" ","HOUSE_NO":"９１０號十一樓之３","E_COORD97":164491.73000000001,"N_COORD97":2543639.0099999998,"ADDRESS":"永華路二段９１０號十一樓之３","OBJECTID":486401},"geometry":{"x":164491.73000000138,"y":2543639.0100000016}},{"attributes":{"ID":486427,"DIS_CODE":0,"TOWNNAME":"安平區","LI":"平通里","LIN":"32鄰","STREET":"永華路","SECT":"二段","MAREA":" ","LANE":" ","ALLEY":" ","HOUSE_NO":"９１０號十一樓之５","E_COORD97":164491.73000000001,"N_COORD97":2543639.0099999998,"ADDRESS":"永華路二段９１０號十一樓之５","OBJECTID":486402},"geometry":{"x":164491.73000000138,"y":2543639.0100000016}},{"attributes":{"ID":486428,"DIS_CODE":0,"TOWNNAME":"安平區","LI":"平通里","LIN":"32鄰","STREET":"永華路","SECT":"二段","MAREA":" ","LANE":" ","ALLEY":" ","HOUSE_NO":"９１０號十二樓之１","E_COORD97":164491.73000000001,"N_COORD97":2543639.0099999998,"ADDRESS":"永華路二段９１０號十二樓之１","OBJECTID":486403},"geometry":{"x":164491.73000000138,"y":2543639.0100000016}},{"attributes":{"ID":486429,"DIS_CODE":0,"TOWNNAME":"安平區","LI":"平通里","LIN":"32鄰","STREET":"永華路","SECT":"二段","MAREA":" ","LANE":" ","ALLEY":" ","HOUSE_NO":"９１０號十二樓之２","E_COORD97":164491.73000000001,"N_COORD97":2543639.0099999998,"ADDRESS":"永華路二段９１０號十二樓之２","OBJECTID":486404},"geometry":{"x":164491.73000000138,"y":2543639.0100000016}},{"attributes":{"ID":486430,"DIS_CODE":0,"TOWNNAME":"安平區","LI":"平通里","LIN":"32鄰","STREET":"永華路","SECT":"二段","MAREA":" ","LANE":" ","ALLEY":" ","HOUSE_NO":"９１０號十二樓之３","E_COORD97":164491.73000000001,"N_COORD97":2543639.0099999998,"ADDRESS":"永華路二段９１０號十二樓之３","OBJECTID":486405},"geometry":{"x":164491.73000000138,"y":2543639.0100000016}},{"attributes":{"ID":486431,"DIS_CODE":0,"TOWNNAME":"安平區","LI":"平通里","LIN":"32鄰","STREET":"永華路","SECT":"二段","MAREA":" ","LANE":" ","ALLEY":" ","HOUSE_NO":"９１０號十二樓之５","E_COORD97":164491.73000000001,"N_COORD97":2543639.0099999998,"ADDRESS":"永華路二段９１０號十二樓之５","OBJECTID":486406},"geometry":{"x":164491.73000000138,"y":2543639.0100000016}},{"attributes":{"ID":486432,"DIS_CODE":0,"TOWNNAME":"安平區","LI":"平通里","LIN":"32鄰","STREET":"永華路","SECT":"二段","MAREA":" ","LANE":" ","ALLEY":" ","HOUSE_NO":"９１０號十三樓之１","E_COORD97":164491.73000000001,"N_COORD97":2543639.0099999998,"ADDRESS":"永華路二段９１０號十三樓之１","OBJECTID":486407},"geometry":{"x":164491.73000000138,"y":2543639.0100000016}},{"attributes":{"ID":486433,"DIS_CODE":0,"TOWNNAME":"安平區","LI":"平通里","LIN":"32鄰","STREET":"永華路","SECT":"二段","MAREA":" ","LANE":" ","ALLEY":" ","HOUSE_NO":"９１０號十三樓之２","E_COORD97":164491.73000000001,"N_COORD97":2543639.0099999998,"ADDRESS":"永華路二段９１０號十三樓之２","OBJECTID":486408},"geometry":{"x":164491.73000000138,"y":2543639.0100000016}},{"attributes":{"ID":486434,"DIS_CODE":0,"TOWNNAME":"安平區","LI":"平通里","LIN":"32鄰","STREET":"永華路","SECT":"二段","MAREA":" ","LANE":" ","ALLEY":" ","HOUSE_NO":"９１０號十三樓之３","E_COORD97":164491.73000000001,"N_COORD97":2543639.0099999998,"ADDRESS":"永華路二段９１０號十三樓之３","OBJECTID":486409},"geometry":{"x":164491.73000000138,"y":2543639.0100000016}},{"attributes":{"ID":486435,"DIS_CODE":0,"TOWNNAME":"安平區","LI":"平通里","LIN":"32鄰","STREET":"永華路","SECT":"二段","MAREA":" ","LANE":" ","ALLEY":" ","HOUSE_NO":"９１０號十四樓之１","E_COORD97":164491.73000000001,"N_COORD97":2543639.0099999998,"ADDRESS":"永華路二段９１０號十四樓之１","OBJECTID":486410},"geometry":{"x":164491.73000000138,"y":2543639.0100000016}},{"attributes":{"ID":486436,"DIS_CODE":0,"TOWNNAME":"安平區","LI":"平通里","LIN":"32鄰","STREET":"永華路","SECT":"二段","MAREA":" ","LANE":" ","ALLEY":" ","HOUSE_NO":"９１０號十四樓之２","E_COORD97":164491.73000000001,"N_COORD97":2543639.0099999998,"ADDRESS":"永華路二段９１０號十四樓之２","OBJECTID":486411},"geometry":{"x":164491.73000000138,"y":2543639.0100000016}},{"attributes":{"ID":486437,"DIS_CODE":0,"TOWNNAME":"安平區","LI":"平通里","LIN":"32鄰","STREET":"永華路","SECT":"二段","MAREA":" ","LANE":" ","ALLEY":" ","HOUSE_NO":"９１０號十四樓之３","E_COORD97":164491.73000000001,"N_COORD97":2543639.0099999998,"ADDRESS":"永華路二段９１０號十四樓之３","OBJECTID":486412},"geometry":{"x":164491.73000000138,"y":2543639.0100000016}},{"attributes":{"ID":486438,"DIS_CODE":0,"TOWNNAME":"安平區","LI":"平通里","LIN":"32鄰","STREET":"永華路","SECT":"二段","MAREA":" ","LANE":" ","ALLEY":" ","HOUSE_NO":"９００號三樓之２","E_COORD97":164522.04000000001,"N_COORD97":2543637.5600000001,"ADDRESS":"永華路二段９００號三樓之２","OBJECTID":486413},"geometry":{"x":164522.04000000004,"y":2543637.5600000005}},{"attributes":{"ID":486439,"DIS_CODE":0,"TOWNNAME":"安平區","LI":"平通里","LIN":"32鄰","STREET":"永華路","SECT":"二段","MAREA":" ","LANE":" ","ALLEY":" ","HOUSE_NO":"９００號二樓之１","E_COORD97":164522.04000000001,"N_COORD97":2543637.5600000001,"ADDRESS":"永華路二段９００號二樓之１","OBJECTID":486414},"geometry":{"x":164522.04000000004,"y":2543637.5600000005}},{"attributes":{"ID":486440,"DIS_CODE":0,"TOWNNAME":"安平區","LI":"平通里","LIN":"32鄰","STREET":"永華路","SECT":"二段","MAREA":" ","LANE":" ","ALLEY":" ","HOUSE_NO":"９００號二樓之２","E_COORD97":164522.04000000001,"N_COORD97":2543637.5600000001,"ADDRESS":"永華路二段９００號二樓之２","OBJECTID":486415},"geometry":{"x":164522.04000000004,"y":2543637.5600000005}},{"attributes":{"ID":486441,"DIS_CODE":0,"TOWNNAME":"安平區","LI":"平通里","LIN":"32鄰","STREET":"永華路","SECT":"二段","MAREA":" ","LANE":" ","ALLEY":" ","HOUSE_NO":"９００號三樓之１","E_COORD97":164522.04000000001,"N_COORD97":2543637.5600000001,"ADDRESS":"永華路二段９００號三樓之１","OBJECTID":486416},"geometry":{"x":164522.04000000004,"y":2543637.5600000005}},{"attributes":{"ID":486442,"DIS_CODE":0,"TOWNNAME":"安平區","LI":"平通里","LIN":"32鄰","STREET":"永華路","SECT":"二段","MAREA":" ","LANE":" ","ALLEY":" ","HOUSE_NO":"９００號三樓之３","E_COORD97":164522.04000000001,"N_COORD97":2543637.5600000001,"ADDRESS":"永華路二段９００號三樓之３","OBJECTID":486417},"geometry":{"x":164522.04000000004,"y":2543637.5600000005}},{"attributes":{"ID":486443,"DIS_CODE":0,"TOWNNAME":"安平區","LI":"平通里","LIN":"32鄰","STREET":"永華路","SECT":"二段","MAREA":" ","LANE":" ","ALLEY":" ","HOUSE_NO":"９００號三樓之５","E_COORD97":164522.04000000001,"N_COORD97":2543637.5600000001,"ADDRESS":"永華路二段９００號三樓之５","OBJECTID":486418},"geometry":{"x":164522.04000000004,"y":2543637.5600000005}},{"attributes":{"ID":486444,"DIS_CODE":0,"TOWNNAME":"安平區","LI":"平通里","LIN":"32鄰","STREET":"永華路","SECT":"二段","MAREA":" ","LANE":" ","ALLEY":" ","HOUSE_NO":"９００號四樓之１","E_COORD97":164522.04000000001,"N_COORD97":2543637.5600000001,"ADDRESS":"永華路二段９００號四樓之１","OBJECTID":486419},"geometry":{"x":164522.04000000004,"y":2543637.5600000005}},{"attributes":{"ID":486445,"DIS_CODE":0,"TOWNNAME":"安平區","LI":"平通里","LIN":"32鄰","STREET":"永華路","SECT":"二段","MAREA":" ","LANE":" ","ALLEY":" ","HOUSE_NO":"９００號四樓之２","E_COORD97":164522.04000000001,"N_COORD97":2543637.5600000001,"ADDRESS":"永華路二段９００號四樓之２","OBJECTID":486420},"geometry":{"x":164522.04000000004,"y":2543637.5600000005}},{"attributes":{"ID":486446,"DIS_CODE":0,"TOWNNAME":"安平區","LI":"平通里","LIN":"32鄰","STREET":"永華路","SECT":"二段","MAREA":" ","LANE":" ","ALLEY":" ","HOUSE_NO":"９００號四樓之３","E_COORD97":164522.04000000001,"N_COORD97":2543637.5600000001,"ADDRESS":"永華路二段９００號四樓之３","OBJECTID":486421},"geometry":{"x":164522.04000000004,"y":2543637.5600000005}},{"attributes":{"ID":486447,"DIS_CODE":0,"TOWNNAME":"安平區","LI":"平通里","LIN":"32鄰","STREET":"永華路","SECT":"二段","MAREA":" ","LANE":" ","ALLEY":" ","HOUSE_NO":"９００號四樓之５","E_COORD97":164522.04000000001,"N_COORD97":2543637.5600000001,"ADDRESS":"永華路二段９００號四樓之５","OBJECTID":486422},"geometry":{"x":164522.04000000004,"y":2543637.5600000005}},{"attributes":{"ID":486448,"DIS_CODE":0,"TOWNNAME":"安平區","LI":"平通里","LIN":"32鄰","STREET":"永華路","SECT":"二段","MAREA":" ","LANE":" ","ALLEY":" ","HOUSE_NO":"９００號五樓之１","E_COORD97":164522.04000000001,"N_COORD97":2543637.5600000001,"ADDRESS":"永華路二段９００號五樓之１","OBJECTID":486423},"geometry":{"x":164522.04000000004,"y":2543637.5600000005}},{"attributes":{"ID":486449,"DIS_CODE":0,"TOWNNAME":"安平區","LI":"平通里","LIN":"32鄰","STREET":"永華路","SECT":"二段","MAREA":" ","LANE":" ","ALLEY":" ","HOUSE_NO":"９００號五樓之２","E_COORD97":164522.04000000001,"N_COORD97":2543637.5600000001,"ADDRESS":"永華路二段９００號五樓之２","OBJECTID":486424},"geometry":{"x":164522.04000000004,"y":2543637.5600000005}},{"attributes":{"ID":486450,"DIS_CODE":0,"TOWNNAME":"安平區","LI":"平通里","LIN":"32鄰","STREET":"永華路","SECT":"二段","MAREA":" ","LANE":" ","ALLEY":" ","HOUSE_NO":"９００號五樓之３","E_COORD97":164522.04000000001,"N_COORD97":2543637.5600000001,"ADDRESS":"永華路二段９００號五樓之３","OBJECTID":486425},"geometry":{"x":164522.04000000004,"y":2543637.5600000005}},{"attributes":{"ID":486451,"DIS_CODE":0,"TOWNNAME":"安平區","LI":"平通里","LIN":"32鄰","STREET":"永華路","SECT":"二段","MAREA":" ","LANE":" ","ALLEY":" ","HOUSE_NO":"９００號五樓之５","E_COORD97":164522.04000000001,"N_COORD97":2543637.5600000001,"ADDRESS":"永華路二段９００號五樓之５","OBJECTID":486426},"geometry":{"x":164522.04000000004,"y":2543637.5600000005}},{"attributes":{"ID":486452,"DIS_CODE":0,"TOWNNAME":"安平區","LI":"平通里","LIN":"32鄰","STREET":"永華路","SECT":"二段","MAREA":" ","LANE":" ","ALLEY":" ","HOUSE_NO":"９００號六樓之１","E_COORD97":164522.04000000001,"N_COORD97":2543637.5600000001,"ADDRESS":"永華路二段９００號六樓之１","OBJECTID":486427},"geometry":{"x":164522.04000000004,"y":2543637.5600000005}},{"attributes":{"ID":486453,"DIS_CODE":0,"TOWNNAME":"安平區","LI":"平通里","LIN":"32鄰","STREET":"永華路","SECT":"二段","MAREA":" ","LANE":" ","ALLEY":" ","HOUSE_NO":"９００號六樓之２","E_COORD97":164522.04000000001,"N_COORD97":2543637.5600000001,"ADDRESS":"永華路二段９００號六樓之２","OBJECTID":486428},"geometry":{"x":164522.04000000004,"y":2543637.5600000005}},{"attributes":{"ID":486454,"DIS_CODE":0,"TOWNNAME":"安平區","LI":"平通里","LIN":"32鄰","STREET":"永華路","SECT":"二段","MAREA":" ","LANE":" ","ALLEY":" ","HOUSE_NO":"９００號六樓之３","E_COORD97":164522.04000000001,"N_COORD97":2543637.5600000001,"ADDRESS":"永華路二段９００號六樓之３","OBJECTID":486429},"geometry":{"x":164522.04000000004,"y":2543637.5600000005}},{"attributes":{"ID":486455,"DIS_CODE":0,"TOWNNAME":"安平區","LI":"平通里","LIN":"32鄰","STREET":"永華路","SECT":"二段","MAREA":" ","LANE":" ","ALLEY":" ","HOUSE_NO":"９００號六樓之５","E_COORD97":164522.04000000001,"N_COORD97":2543637.5600000001,"ADDRESS":"永華路二段９００號六樓之５","OBJECTID":486430},"geometry":{"x":164522.04000000004,"y":2543637.5600000005}},{"attributes":{"ID":486456,"DIS_CODE":0,"TOWNNAME":"安平區","LI":"平通里","LIN":"32鄰","STREET":"永華路","SECT":"二段","MAREA":" ","LANE":" ","ALLEY":" ","HOUSE_NO":"９００號七樓之１","E_COORD97":164522.04000000001,"N_COORD97":2543637.5600000001,"ADDRESS":"永華路二段９００號七樓之１","OBJECTID":486431},"geometry":{"x":164522.04000000004,"y":2543637.5600000005}},{"attributes":{"ID":486457,"DIS_CODE":0,"TOWNNAME":"安平區","LI":"平通里","LIN":"32鄰","STREET":"永華路","SECT":"二段","MAREA":" ","LANE":" ","ALLEY":" ","HOUSE_NO":"９００號七樓之２","E_COORD97":164522.04000000001,"N_COORD97":2543637.5600000001,"ADDRESS":"永華路二段９００號七樓之２","OBJECTID":486432},"geometry":{"x":164522.04000000004,"y":2543637.5600000005}},{"attributes":{"ID":486458,"DIS_CODE":0,"TOWNNAME":"安平區","LI":"平通里","LIN":"32鄰","STREET":"永華路","SECT":"二段","MAREA":" ","LANE":" ","ALLEY":" ","HOUSE_NO":"９００號七樓之３","E_COORD97":164522.04000000001,"N_COORD97":2543637.5600000001,"ADDRESS":"永華路二段９００號七樓之３","OBJECTID":486433},"geometry":{"x":164522.04000000004,"y":2543637.5600000005}},{"attributes":{"ID":486459,"DIS_CODE":0,"TOWNNAME":"安平區","LI":"平通里","LIN":"32鄰","STREET":"永華路","SECT":"二段","MAREA":" ","LANE":" ","ALLEY":" ","HOUSE_NO":"９００號七樓之５","E_COORD97":164522.04000000001,"N_COORD97":2543637.5600000001,"ADDRESS":"永華路二段９００號七樓之５","OBJECTID":486434},"geometry":{"x":164522.04000000004,"y":2543637.5600000005}},{"attributes":{"ID":486460,"DIS_CODE":0,"TOWNNAME":"安平區","LI":"平通里","LIN":"32鄰","STREET":"永華路","SECT":"二段","MAREA":" ","LANE":" ","ALLEY":" ","HOUSE_NO":"９００號八樓之１","E_COORD97":164522.04000000001,"N_COORD97":2543637.5600000001,"ADDRESS":"永華路二段９００號八樓之１","OBJECTID":486435},"geometry":{"x":164522.04000000004,"y":2543637.5600000005}},{"attributes":{"ID":486461,"DIS_CODE":0,"TOWNNAME":"安平區","LI":"平通里","LIN":"32鄰","STREET":"永華路","SECT":"二段","MAREA":" ","LANE":" ","ALLEY":" ","HOUSE_NO":"９００號八樓之２","E_COORD97":164522.04000000001,"N_COORD97":2543637.5600000001,"ADDRESS":"永華路二段９００號八樓之２","OBJECTID":486436},"geometry":{"x":164522.04000000004,"y":2543637.5600000005}},{"attributes":{"ID":486462,"DIS_CODE":0,"TOWNNAME":"安平區","LI":"平通里","LIN":"32鄰","STREET":"永華路","SECT":"二段","MAREA":" ","LANE":" ","ALLEY":" ","HOUSE_NO":"９００號八樓之３","E_COORD97":164522.04000000001,"N_COORD97":2543637.5600000001,"ADDRESS":"永華路二段９００號八樓之３","OBJECTID":486437},"geometry":{"x":164522.04000000004,"y":2543637.5600000005}},{"attributes":{"ID":486463,"DIS_CODE":0,"TOWNNAME":"安平區","LI":"平通里","LIN":"32鄰","STREET":"永華路","SECT":"二段","MAREA":" ","LANE":" ","ALLEY":" ","HOUSE_NO":"９００號八樓之５","E_COORD97":164522.04000000001,"N_COORD97":2543637.5600000001,"ADDRESS":"永華路二段９００號八樓之５","OBJECTID":486438},"geometry":{"x":164522.04000000004,"y":2543637.5600000005}},{"attributes":{"ID":486464,"DIS_CODE":0,"TOWNNAME":"歸仁區","LI":"南興里","LIN":"32鄰","STREET":"文化九街","SECT":" ","MAREA":" ","LANE":" ","ALLEY":" ","HOUSE_NO":"４５號五樓","E_COORD97":176358.32000000001,"N_COORD97":2541118.2599999998,"ADDRESS":"文化九街４５號五樓","OBJECTID":486439},"geometry":{"x":176358.3200000003,"y":2541118.2600000016}},{"attributes":{"ID":486465,"DIS_CODE":0,"TOWNNAME":"歸仁區","LI":"南興里","LIN":"32鄰","STREET":"文化九街","SECT":" ","MAREA":" ","LANE":" ","ALLEY":" ","HOUSE_NO":"４７號五樓","E_COORD97":176358.32000000001,"N_COORD97":2541118.2599999998,"ADDRESS":"文化九街４７號五樓","OBJECTID":486440},"geometry":{"x":176358.3200000003,"y":2541118.2600000016}},{"attributes":{"ID":486466,"DIS_CODE":0,"TOWNNAME":"西港區","LI":"慶安里","LIN":"32鄰","STREET":"新興街","SECT":" ","MAREA":" ","LANE":" ","ALLEY":" ","HOUSE_NO":"８號之１８１一樓之１","E_COORD97":168348.32000000001,"N_COORD97":2557583.8100000001,"ADDRESS":"新興街８號之１８１一樓之１","OBJECTID":486441},"geometry":{"x":168348.3200000003,"y":2557583.8100000005}},{"attributes":{"ID":486467,"DIS_CODE":0,"TOWNNAME":"西港區","LI":"慶安里","LIN":"32鄰","STREET":"新興街","SECT":" ","MAREA":" ","LANE":" ","ALLEY":" ","HOUSE_NO":"８號之１８１一樓之２","E_COORD97":168348.32000000001,"N_COORD97":2557583.8100000001,"ADDRESS":"新興街８號之１８１一樓之２","OBJECTID":486442},"geometry":{"x":168348.3200000003,"y":2557583.8100000005}},{"attributes":{"ID":486468,"DIS_CODE":0,"TOWNNAME":"西港區","LI":"慶安里","LIN":"32鄰","STREET":"新興街","SECT":" ","MAREA":" ","LANE":" ","ALLEY":" ","HOUSE_NO":"８號之１８１一樓之３","E_COORD97":168348.32000000001,"N_COORD97":2557583.8100000001,"ADDRESS":"新興街８號之１８１一樓之３","OBJECTID":486443},"geometry":{"x":168348.3200000003,"y":2557583.8100000005}},{"attributes":{"ID":486469,"DIS_CODE":0,"TOWNNAME":"西港區","LI":"慶安里","LIN":"32鄰","STREET":"新興街","SECT":" ","MAREA":" ","LANE":" ","ALLEY":" ","HOUSE_NO":"８號之１８１一樓之５","E_COORD97":168348.32000000001,"N_COORD97":2557583.8100000001,"ADDRESS":"新興街８號之１８１一樓之５","OBJECTID":486444},"geometry":{"x":168348.3200000003,"y":2557583.8100000005}},{"attributes":{"ID":486470,"DIS_CODE":0,"TOWNNAME":"西港區","LI":"慶安里","LIN":"32鄰","STREET":"新興街","SECT":" ","MAREA":" ","LANE":" ","ALLEY":" ","HOUSE_NO":"８號之１８１七樓之１","E_COORD97":168348.32000000001,"N_COORD97":2557583.8100000001,"ADDRESS":"新興街８號之１８１七樓之１","OBJECTID":486445},"geometry":{"x":168348.3200000003,"y":2557583.8100000005}},{"attributes":{"ID":486471,"DIS_CODE":0,"TOWNNAME":"西港區","LI":"慶安里","LIN":"32鄰","STREET":"新興街","SECT":" ","MAREA":" ","LANE":" ","ALLEY":" ","HOUSE_NO":"８號之１８１七樓之２","E_COORD97":168348.32000000001,"N_COORD97":2557583.8100000001,"ADDRESS":"新興街８號之１８１七樓之２","OBJECTID":486446},"geometry":{"x":168348.3200000003,"y":2557583.8100000005}},{"attributes":{"ID":486472,"DIS_CODE":0,"TOWNNAME":"西港區","LI":"慶安里","LIN":"32鄰","STREET":"新興街","SECT":" ","MAREA":" ","LANE":" ","ALLEY":" ","HOUSE_NO":"８號之１８１七樓之３","E_COORD97":168348.32000000001,"N_COORD97":2557583.8100000001,"ADDRESS":"新興街８號之１８１七樓之３","OBJECTID":486447},"geometry":{"x":168348.3200000003,"y":2557583.8100000005}},{"attributes":{"ID":486473,"DIS_CODE":0,"TOWNNAME":"西港區","LI":"慶安里","LIN":"32鄰","STREET":"新興街","SECT":" ","MAREA":" ","LANE":" ","ALLEY":" ","HOUSE_NO":"８號之１８１七樓之５","E_COORD97":168348.32000000001,"N_COORD97":2557583.8100000001,"ADDRESS":"新興街８號之１８１七樓之５","OBJECTID":486448},"geometry":{"x":168348.3200000003,"y":2557583.8100000005}},{"attributes":{"ID":486474,"DIS_CODE":0,"TOWNNAME":"西港區","LI":"慶安里","LIN":"32鄰","STREET":"新興街","SECT":" ","MAREA":" ","LANE":" ","ALLEY":" ","HOUSE_NO":"８號之１８１七樓之６","E_COORD97":168348.32000000001,"N_COORD97":2557583.8100000001,"ADDRESS":"新興街８號之１８１七樓之６","OBJECTID":486449},"geometry":{"x":168348.3200000003,"y":2557583.8100000005}},{"attributes":{"ID":486475,"DIS_CODE":0,"TOWNNAME":"西港區","LI":"慶安里","LIN":"32鄰","STREET":"新興街","SECT":" ","MAREA":" ","LANE":" ","ALLEY":" ","HOUSE_NO":"８號之１８１七樓之７","E_COORD97":168348.32000000001,"N_COORD97":2557583.8100000001,"ADDRESS":"新興街８號之１８１七樓之７","OBJECTID":486450},"geometry":{"x":168348.3200000003,"y":2557583.8100000005}},{"attributes":{"ID":486476,"DIS_CODE":0,"TOWNNAME":"西港區","LI":"慶安里","LIN":"32鄰","STREET":"新興街","SECT":" ","MAREA":" ","LANE":" ","ALLEY":" ","HOUSE_NO":"８號之１８１二樓之１","E_COORD97":168348.32000000001,"N_COORD97":2557583.8100000001,"ADDRESS":"新興街８號之１８１二樓之１","OBJECTID":486451},"geometry":{"x":168348.3200000003,"y":2557583.8100000005}},{"attributes":{"ID":486477,"DIS_CODE":0,"TOWNNAME":"西港區","LI":"慶安里","LIN":"32鄰","STREET":"新興街","SECT":" ","MAREA":" ","LANE":" ","ALLEY":" ","HOUSE_NO":"８號之１８１二樓之２","E_COORD97":168348.32000000001,"N_COORD97":2557583.8100000001,"ADDRESS":"新興街８號之１８１二樓之２","OBJECTID":486452},"geometry":{"x":168348.3200000003,"y":2557583.8100000005}},{"attributes":{"ID":486478,"DIS_CODE":0,"TOWNNAME":"西港區","LI":"慶安里","LIN":"32鄰","STREET":"新興街","SECT":" ","MAREA":" ","LANE":" ","ALLEY":" ","HOUSE_NO":"８號之１８１二樓之３","E_COORD97":168348.32000000001,"N_COORD97":2557583.8100000001,"ADDRESS":"新興街８號之１８１二樓之３","OBJECTID":486453},"geometry":{"x":168348.3200000003,"y":2557583.8100000005}},{"attributes":{"ID":486479,"DIS_CODE":0,"TOWNNAME":"西港區","LI":"慶安里","LIN":"32鄰","STREET":"新興街","SECT":" ","MAREA":" ","LANE":" ","ALLEY":" ","HOUSE_NO":"８號之１８１二樓之５","E_COORD97":168348.32000000001,"N_COORD97":2557583.8100000001,"ADDRESS":"新興街８號之１８１二樓之５","OBJECTID":486454},"geometry":{"x":168348.3200000003,"y":2557583.8100000005}},{"attributes":{"ID":486480,"DIS_CODE":0,"TOWNNAME":"西港區","LI":"慶安里","LIN":"32鄰","STREET":"新興街","SECT":" ","MAREA":" ","LANE":" ","ALLEY":" ","HOUSE_NO":"８號之１８１二樓之６","E_COORD97":168348.32000000001,"N_COORD97":2557583.8100000001,"ADDRESS":"新興街８號之１８１二樓之６","OBJECTID":486455},"geometry":{"x":168348.3200000003,"y":2557583.8100000005}},{"attributes":{"ID":486481,"DIS_CODE":0,"TOWNNAME":"西港區","LI":"慶安里","LIN":"32鄰","STREET":"新興街","SECT":" ","MAREA":" ","LANE":" ","ALLEY":" ","HOUSE_NO":"８號之１８１二樓之７","E_COORD97":168348.32000000001,"N_COORD97":2557583.8100000001,"ADDRESS":"新興街８號之１８１二樓之７","OBJECTID":486456},"geometry":{"x":168348.3200000003,"y":2557583.8100000005}},{"attributes":{"ID":486482,"DIS_CODE":0,"TOWNNAME":"西港區","LI":"慶安里","LIN":"32鄰","STREET":"新興街","SECT":" ","MAREA":" ","LANE":" ","ALLEY":" ","HOUSE_NO":"８號之１８１八樓","E_COORD97":168348.32000000001,"N_COORD97":2557583.8100000001,"ADDRESS":"新興街８號之１８１八樓","OBJECTID":486457},"geometry":{"x":168348.3200000003,"y":2557583.8100000005}},{"attributes":{"ID":486483,"DIS_CODE":0,"TOWNNAME":"西港區","LI":"慶安里","LIN":"32鄰","STREET":"新興街","SECT":" ","MAREA":" ","LANE":" ","ALLEY":" ","HOUSE_NO":"８號之１８１三樓之１","E_COORD97":168348.32000000001,"N_COORD97":2557583.8100000001,"ADDRESS":"新興街８號之１８１三樓之１","OBJECTID":486458},"geometry":{"x":168348.3200000003,"y":2557583.8100000005}},{"attributes":{"ID":486484,"DIS_CODE":0,"TOWNNAME":"西港區","LI":"慶安里","LIN":"32鄰","STREET":"新興街","SECT":" ","MAREA":" ","LANE":" ","ALLEY":" ","HOUSE_NO":"８號之１８１三樓之２","E_COORD97":168348.32000000001,"N_COORD97":2557583.8100000001,"ADDRESS":"新興街８號之１８１三樓之２","OBJECTID":486459},"geometry":{"x":168348.3200000003,"y":2557583.8100000005}},{"attributes":{"ID":486485,"DIS_CODE":0,"TOWNNAME":"西港區","LI":"慶安里","LIN":"32鄰","STREET":"新興街","SECT":" ","MAREA":" ","LANE":" ","ALLEY":" ","HOUSE_NO":"８號之１８１三樓之３","E_COORD97":168348.32000000001,"N_COORD97":2557583.8100000001,"ADDRESS":"新興街８號之１８１三樓之３","OBJECTID":486460},"geometry":{"x":168348.3200000003,"y":2557583.8100000005}},{"attributes":{"ID":486486,"DIS_CODE":0,"TOWNNAME":"西港區","LI":"慶安里","LIN":"32鄰","STREET":"新興街","SECT":" ","MAREA":" ","LANE":" ","ALLEY":" ","HOUSE_NO":"８號之１８１三樓之５","E_COORD97":168348.32000000001,"N_COORD97":2557583.8100000001,"ADDRESS":"新興街８號之１８１三樓之５","OBJECTID":486461},"geometry":{"x":168348.3200000003,"y":2557583.8100000005}},{"attributes":{"ID":486487,"DIS_CODE":0,"TOWNNAME":"西港區","LI":"慶安里","LIN":"32鄰","STREET":"新興街","SECT":" ","MAREA":" ","LANE":" ","ALLEY":" ","HOUSE_NO":"８號之１８１三樓之６","E_COORD97":168348.32000000001,"N_COORD97":2557583.8100000001,"ADDRESS":"新興街８號之１８１三樓之６","OBJECTID":486462},"geometry":{"x":168348.3200000003,"y":2557583.8100000005}},{"attributes":{"ID":486488,"DIS_CODE":0,"TOWNNAME":"西港區","LI":"慶安里","LIN":"32鄰","STREET":"新興街","SECT":" ","MAREA":" ","LANE":" ","ALLEY":" ","HOUSE_NO":"８號之１８１三樓之７","E_COORD97":168348.32000000001,"N_COORD97":2557583.8100000001,"ADDRESS":"新興街８號之１８１三樓之７","OBJECTID":486463},"geometry":{"x":168348.3200000003,"y":2557583.8100000005}},{"attributes":{"ID":486489,"DIS_CODE":0,"TOWNNAME":"西港區","LI":"慶安里","LIN":"32鄰","STREET":"新興街","SECT":" ","MAREA":" ","LANE":" ","ALLEY":" ","HOUSE_NO":"８號之１８１五樓之１","E_COORD97":168348.32000000001,"N_COORD97":2557583.8100000001,"ADDRESS":"新興街８號之１８１五樓之１","OBJECTID":486464},"geometry":{"x":168348.3200000003,"y":2557583.8100000005}},{"attributes":{"ID":486490,"DIS_CODE":0,"TOWNNAME":"西港區","LI":"慶安里","LIN":"32鄰","STREET":"新興街","SECT":" ","MAREA":" ","LANE":" ","ALLEY":" ","HOUSE_NO":"８號之１８１五樓之２","E_COORD97":168348.32000000001,"N_COORD97":2557583.8100000001,"ADDRESS":"新興街８號之１８１五樓之２","OBJECTID":486465},"geometry":{"x":168348.3200000003,"y":2557583.8100000005}},{"attributes":{"ID":486491,"DIS_CODE":0,"TOWNNAME":"西港區","LI":"慶安里","LIN":"32鄰","STREET":"新興街","SECT":" ","MAREA":" ","LANE":" ","ALLEY":" ","HOUSE_NO":"８號之１８１五樓之３","E_COORD97":168348.32000000001,"N_COORD97":2557583.8100000001,"ADDRESS":"新興街８號之１８１五樓之３","OBJECTID":486466},"geometry":{"x":168348.3200000003,"y":2557583.8100000005}},{"attributes":{"ID":486492,"DIS_CODE":0,"TOWNNAME":"西港區","LI":"慶安里","LIN":"32鄰","STREET":"新興街","SECT":" ","MAREA":" ","LANE":" ","ALLEY":" ","HOUSE_NO":"８號之１８１五樓之５","E_COORD97":168348.32000000001,"N_COORD97":2557583.8100000001,"ADDRESS":"新興街８號之１８１五樓之５","OBJECTID":486467},"geometry":{"x":168348.3200000003,"y":2557583.8100000005}},{"attributes":{"ID":486493,"DIS_CODE":0,"TOWNNAME":"西港區","LI":"慶安里","LIN":"32鄰","STREET":"新興街","SECT":" ","MAREA":" ","LANE":" ","ALLEY":" ","HOUSE_NO":"８號之１８１五樓之６","E_COORD97":168348.32000000001,"N_COORD97":2557583.8100000001,"ADDRESS":"新興街８號之１８１五樓之６","OBJECTID":486468},"geometry":{"x":168348.3200000003,"y":2557583.8100000005}},{"attributes":{"ID":486494,"DIS_CODE":0,"TOWNNAME":"西港區","LI":"慶安里","LIN":"32鄰","STREET":"新興街","SECT":" ","MAREA":" ","LANE":" ","ALLEY":" ","HOUSE_NO":"８號之１８１五樓之７","E_COORD97":168348.32000000001,"N_COORD97":2557583.8100000001,"ADDRESS":"新興街８號之１８１五樓之７","OBJECTID":486469},"geometry":{"x":168348.3200000003,"y":2557583.8100000005}},{"attributes":{"ID":486495,"DIS_CODE":0,"TOWNNAME":"西港區","LI":"慶安里","LIN":"32鄰","STREET":"新興街","SECT":" ","MAREA":" ","LANE":" ","ALLEY":" ","HOUSE_NO":"８號之１８１六樓之１","E_COORD97":168348.32000000001,"N_COORD97":2557583.8100000001,"ADDRESS":"新興街８號之１８１六樓之１","OBJECTID":486470},"geometry":{"x":168348.3200000003,"y":2557583.8100000005}},{"attributes":{"ID":486496,"DIS_CODE":0,"TOWNNAME":"西港區","LI":"慶安里","LIN":"32鄰","STREET":"新興街","SECT":" ","MAREA":" ","LANE":" ","ALLEY":" ","HOUSE_NO":"８號之１８１六樓之２","E_COORD97":168348.32000000001,"N_COORD97":2557583.8100000001,"ADDRESS":"新興街８號之１８１六樓之２","OBJECTID":486471},"geometry":{"x":168348.3200000003,"y":2557583.8100000005}},{"attributes":{"ID":486497,"DIS_CODE":0,"TOWNNAME":"西港區","LI":"慶安里","LIN":"32鄰","STREET":"新興街","SECT":" ","MAREA":" ","LANE":" ","ALLEY":" ","HOUSE_NO":"８號之１８１六樓之３","E_COORD97":168348.32000000001,"N_COORD97":2557583.8100000001,"ADDRESS":"新興街８號之１８１六樓之３","OBJECTID":486472},"geometry":{"x":168348.3200000003,"y":2557583.8100000005}},{"attributes":{"ID":486498,"DIS_CODE":0,"TOWNNAME":"西港區","LI":"慶安里","LIN":"32鄰","STREET":"新興街","SECT":" ","MAREA":" ","LANE":" ","ALLEY":" ","HOUSE_NO":"８號之１８１六樓之５","E_COORD97":168348.32000000001,"N_COORD97":2557583.8100000001,"ADDRESS":"新興街８號之１８１六樓之５","OBJECTID":486473},"geometry":{"x":168348.3200000003,"y":2557583.8100000005}},{"attributes":{"ID":486499,"DIS_CODE":0,"TOWNNAME":"西港區","LI":"慶安里","LIN":"32鄰","STREET":"新興街","SECT":" ","MAREA":" ","LANE":" ","ALLEY":" ","HOUSE_NO":"８號之１８１六樓之６","E_COORD97":168348.32000000001,"N_COORD97":2557583.8100000001,"ADDRESS":"新興街８號之１８１六樓之６","OBJECTID":486474},"geometry":{"x":168348.3200000003,"y":2557583.8100000005}},{"attributes":{"ID":486500,"DIS_CODE":0,"TOWNNAME":"西港區","LI":"慶安里","LIN":"32鄰","STREET":"新興街","SECT":" ","MAREA":" ","LANE":" ","ALLEY":" ","HOUSE_NO":"８號之１８１四樓之１","E_COORD97":168348.32000000001,"N_COORD97":2557583.8100000001,"ADDRESS":"新興街８號之１８１四樓之１","OBJECTID":486475},"geometry":{"x":168348.3200000003,"y":2557583.8100000005}},{"attributes":{"ID":486501,"DIS_CODE":0,"TOWNNAME":"西港區","LI":"慶安里","LIN":"32鄰","STREET":"新興街","SECT":" ","MAREA":" ","LANE":" ","ALLEY":" ","HOUSE_NO":"８號之１８１四樓之２","E_COORD97":168348.32000000001,"N_COORD97":2557583.8100000001,"ADDRESS":"新興街８號之１８１四樓之２","OBJECTID":486476},"geometry":{"x":168348.3200000003,"y":2557583.8100000005}},{"attributes":{"ID":486502,"DIS_CODE":0,"TOWNNAME":"西港區","LI":"慶安里","LIN":"32鄰","STREET":"新興街","SECT":" ","MAREA":" ","LANE":" ","ALLEY":" ","HOUSE_NO":"８號之１８１四樓之３","E_COORD97":168348.32000000001,"N_COORD97":2557583.8100000001,"ADDRESS":"新興街８號之１８１四樓之３","OBJECTID":486477},"geometry":{"x":168348.3200000003,"y":2557583.8100000005}},{"attributes":{"ID":486503,"DIS_CODE":0,"TOWNNAME":"西港區","LI":"慶安里","LIN":"32鄰","STREET":"新興街","SECT":" ","MAREA":" ","LANE":" ","ALLEY":" ","HOUSE_NO":"８號之１８１四樓之５","E_COORD97":168348.32000000001,"N_COORD97":2557583.8100000001,"ADDRESS":"新興街８號之１８１四樓之５","OBJECTID":486478},"geometry":{"x":168348.3200000003,"y":2557583.8100000005}},{"attributes":{"ID":486504,"DIS_CODE":0,"TOWNNAME":"西港區","LI":"慶安里","LIN":"32鄰","STREET":"新興街","SECT":" ","MAREA":" ","LANE":" ","ALLEY":" ","HOUSE_NO":"８號之１８１四樓之６","E_COORD97":168348.32000000001,"N_COORD97":2557583.8100000001,"ADDRESS":"新興街８號之１８１四樓之６","OBJECTID":486479},"geometry":{"x":168348.3200000003,"y":2557583.8100000005}},{"attributes":{"ID":486505,"DIS_CODE":0,"TOWNNAME":"西港區","LI":"慶安里","LIN":"32鄰","STREET":"新興街","SECT":" ","MAREA":" ","LANE":" ","ALLEY":" ","HOUSE_NO":"８號之１８１四樓之７","E_COORD97":168348.32000000001,"N_COORD97":2557583.8100000001,"ADDRESS":"新興街８號之１８１四樓之７","OBJECTID":486480},"geometry":{"x":168348.3200000003,"y":2557583.8100000005}},{"attributes":{"ID":486506,"DIS_CODE":0,"TOWNNAME":"西港區","LI":"慶安里","LIN":"32鄰","STREET":"新興街","SECT":" ","MAREA":" ","LANE":" ","ALLEY":" ","HOUSE_NO":"８號之１８５一樓之１","E_COORD97":168334.64000000001,"N_COORD97":2557609.4300000002,"ADDRESS":"新興街８號之１８５一樓之１","OBJECTID":486481},"geometry":{"x":168334.6400000006,"y":2557609.4299999978}},{"attributes":{"ID":486507,"DIS_CODE":0,"TOWNNAME":"西港區","LI":"慶安里","LIN":"32鄰","STREET":"新興街","SECT":" ","MAREA":" ","LANE":" ","ALLEY":" ","HOUSE_NO":"８號之１８５一樓之２","E_COORD97":168334.64000000001,"N_COORD97":2557609.4300000002,"ADDRESS":"新興街８號之１８５一樓之２","OBJECTID":486482},"geometry":{"x":168334.6400000006,"y":2557609.4299999978}},{"attributes":{"ID":486508,"DIS_CODE":0,"TOWNNAME":"西港區","LI":"慶安里","LIN":"32鄰","STREET":"新興街","SECT":" ","MAREA":" ","LANE":" ","ALLEY":" ","HOUSE_NO":"８號之１８５七樓之１","E_COORD97":168334.64000000001,"N_COORD97":2557609.4300000002,"ADDRESS":"新興街８號之１８５七樓之１","OBJECTID":486483},"geometry":{"x":168334.6400000006,"y":2557609.4299999978}},{"attributes":{"ID":486509,"DIS_CODE":0,"TOWNNAME":"西港區","LI":"慶安里","LIN":"32鄰","STREET":"新興街","SECT":" ","MAREA":" ","LANE":" ","ALLEY":" ","HOUSE_NO":"８號之１８５七樓之２","E_COORD97":168334.64000000001,"N_COORD97":2557609.4300000002,"ADDRESS":"新興街８號之１８５七樓之２","OBJECTID":486484},"geometry":{"x":168334.6400000006,"y":2557609.4299999978}},{"attributes":{"ID":486510,"DIS_CODE":0,"TOWNNAME":"西港區","LI":"慶安里","LIN":"32鄰","STREET":"新興街","SECT":" ","MAREA":" ","LANE":" ","ALLEY":" ","HOUSE_NO":"８號之１８５七樓之３","E_COORD97":168334.64000000001,"N_COORD97":2557609.4300000002,"ADDRESS":"新興街８號之１８５七樓之３","OBJECTID":486485},"geometry":{"x":168334.6400000006,"y":2557609.4299999978}},{"attributes":{"ID":486511,"DIS_CODE":0,"TOWNNAME":"西港區","LI":"慶安里","LIN":"32鄰","STREET":"新興街","SECT":" ","MAREA":" ","LANE":" ","ALLEY":" ","HOUSE_NO":"８號之１８５七樓之５","E_COORD97":168334.64000000001,"N_COORD97":2557609.4300000002,"ADDRESS":"新興街８號之１８５七樓之５","OBJECTID":486486},"geometry":{"x":168334.6400000006,"y":2557609.4299999978}},{"attributes":{"ID":486512,"DIS_CODE":0,"TOWNNAME":"西港區","LI":"慶安里","LIN":"32鄰","STREET":"新興街","SECT":" ","MAREA":" ","LANE":" ","ALLEY":" ","HOUSE_NO":"８號之１８５七樓之６","E_COORD97":168334.64000000001,"N_COORD97":2557609.4300000002,"ADDRESS":"新興街８號之１８５七樓之６","OBJECTID":486487},"geometry":{"x":168334.6400000006,"y":2557609.4299999978}},{"attributes":{"ID":486513,"DIS_CODE":0,"TOWNNAME":"西港區","LI":"慶安里","LIN":"32鄰","STREET":"新興街","SECT":" ","MAREA":" ","LANE":" ","ALLEY":" ","HOUSE_NO":"８號之１８５二樓之１","E_COORD97":168334.64000000001,"N_COORD97":2557609.4300000002,"ADDRESS":"新興街８號之１８５二樓之１","OBJECTID":486488},"geometry":{"x":168334.6400000006,"y":2557609.4299999978}},{"attributes":{"ID":486514,"DIS_CODE":0,"TOWNNAME":"西港區","LI":"慶安里","LIN":"32鄰","STREET":"新興街","SECT":" ","MAREA":" ","LANE":" ","ALLEY":" ","HOUSE_NO":"８號之１８５二樓之２","E_COORD97":168334.64000000001,"N_COORD97":2557609.4300000002,"ADDRESS":"新興街８號之１８５二樓之２","OBJECTID":486489},"geometry":{"x":168334.6400000006,"y":2557609.4299999978}},{"attributes":{"ID":486515,"DIS_CODE":0,"TOWNNAME":"西港區","LI":"慶安里","LIN":"32鄰","STREET":"新興街","SECT":" ","MAREA":" ","LANE":" ","ALLEY":" ","HOUSE_NO":"８號之１８５二樓之３","E_COORD97":168334.64000000001,"N_COORD97":2557609.4300000002,"ADDRESS":"新興街８號之１８５二樓之３","OBJECTID":486490},"geometry":{"x":168334.6400000006,"y":2557609.4299999978}},{"attributes":{"ID":486516,"DIS_CODE":0,"TOWNNAME":"西港區","LI":"慶安里","LIN":"32鄰","STREET":"新興街","SECT":" ","MAREA":" ","LANE":" ","ALLEY":" ","HOUSE_NO":"８號之１８５二樓之５","E_COORD97":168334.64000000001,"N_COORD97":2557609.4300000002,"ADDRESS":"新興街８號之１８５二樓之５","OBJECTID":486491},"geometry":{"x":168334.6400000006,"y":2557609.4299999978}},{"attributes":{"ID":486517,"DIS_CODE":0,"TOWNNAME":"西港區","LI":"慶安里","LIN":"32鄰","STREET":"新興街","SECT":" ","MAREA":" ","LANE":" ","ALLEY":" ","HOUSE_NO":"８號之１８５八樓","E_COORD97":168334.64000000001,"N_COORD97":2557609.4300000002,"ADDRESS":"新興街８號之１８５八樓","OBJECTID":486492},"geometry":{"x":168334.6400000006,"y":2557609.4299999978}},{"attributes":{"ID":486518,"DIS_CODE":0,"TOWNNAME":"西港區","LI":"慶安里","LIN":"32鄰","STREET":"新興街","SECT":" ","MAREA":" ","LANE":" ","ALLEY":" ","HOUSE_NO":"８號之１８５三樓之１","E_COORD97":168334.64000000001,"N_COORD97":2557609.4300000002,"ADDRESS":"新興街８號之１８５三樓之１","OBJECTID":486493},"geometry":{"x":168334.6400000006,"y":2557609.4299999978}},{"attributes":{"ID":486519,"DIS_CODE":0,"TOWNNAME":"西港區","LI":"慶安里","LIN":"32鄰","STREET":"新興街","SECT":" ","MAREA":" ","LANE":" ","ALLEY":" ","HOUSE_NO":"８號之１８５三樓之２","E_COORD97":168334.64000000001,"N_COORD97":2557609.4300000002,"ADDRESS":"新興街８號之１８５三樓之２","OBJECTID":486494},"geometry":{"x":168334.6400000006,"y":2557609.4299999978}},{"attributes":{"ID":486520,"DIS_CODE":0,"TOWNNAME":"西港區","LI":"慶安里","LIN":"32鄰","STREET":"新興街","SECT":" ","MAREA":" ","LANE":" ","ALLEY":" ","HOUSE_NO":"８號之１８５三樓之３","E_COORD97":168334.64000000001,"N_COORD97":2557609.4300000002,"ADDRESS":"新興街８號之１８５三樓之３","OBJECTID":486495},"geometry":{"x":168334.6400000006,"y":2557609.4299999978}},{"attributes":{"ID":486521,"DIS_CODE":0,"TOWNNAME":"西港區","LI":"慶安里","LIN":"32鄰","STREET":"新興街","SECT":" ","MAREA":" ","LANE":" ","ALLEY":" ","HOUSE_NO":"８號之１８５三樓之５","E_COORD97":168334.64000000001,"N_COORD97":2557609.4300000002,"ADDRESS":"新興街８號之１８５三樓之５","OBJECTID":486496},"geometry":{"x":168334.6400000006,"y":2557609.4299999978}},{"attributes":{"ID":486522,"DIS_CODE":0,"TOWNNAME":"西港區","LI":"慶安里","LIN":"32鄰","STREET":"新興街","SECT":" ","MAREA":" ","LANE":" ","ALLEY":" ","HOUSE_NO":"８號之１８５三樓之６","E_COORD97":168334.64000000001,"N_COORD97":2557609.4300000002,"ADDRESS":"新興街８號之１８５三樓之６","OBJECTID":486497},"geometry":{"x":168334.6400000006,"y":2557609.4299999978}},{"attributes":{"ID":486523,"DIS_CODE":0,"TOWNNAME":"西港區","LI":"慶安里","LIN":"32鄰","STREET":"新興街","SECT":" ","MAREA":" ","LANE":" ","ALLEY":" ","HOUSE_NO":"８號之１８５五樓之１","E_COORD97":168334.64000000001,"N_COORD97":2557609.4300000002,"ADDRESS":"新興街８號之１８５五樓之１","OBJECTID":486498},"geometry":{"x":168334.6400000006,"y":2557609.4299999978}},{"attributes":{"ID":486524,"DIS_CODE":0,"TOWNNAME":"西港區","LI":"慶安里","LIN":"32鄰","STREET":"新興街","SECT":" ","MAREA":" ","LANE":" ","ALLEY":" ","HOUSE_NO":"８號之１８５五樓之２","E_COORD97":168334.64000000001,"N_COORD97":2557609.4300000002,"ADDRESS":"新興街８號之１８５五樓之２","OBJECTID":486499},"geometry":{"x":168334.6400000006,"y":2557609.4299999978}},{"attributes":{"ID":486525,"DIS_CODE":0,"TOWNNAME":"西港區","LI":"慶安里","LIN":"32鄰","STREET":"新興街","SECT":" ","MAREA":" ","LANE":" ","ALLEY":" ","HOUSE_NO":"８號之１８５五樓之３","E_COORD97":168334.64000000001,"N_COORD97":2557609.4300000002,"ADDRESS":"新興街８號之１８５五樓之３","OBJECTID":486500},"geometry":{"x":168334.6400000006,"y":2557609.4299999978}},{"attributes":{"ID":486526,"DIS_CODE":0,"TOWNNAME":"西港區","LI":"慶安里","LIN":"32鄰","STREET":"新興街","SECT":" ","MAREA":" ","LANE":" ","ALLEY":" ","HOUSE_NO":"８號之１８５五樓之５","E_COORD97":168334.64000000001,"N_COORD97":2557609.4300000002,"ADDRESS":"新興街８號之１８５五樓之５","OBJECTID":486501},"geometry":{"x":168334.6400000006,"y":2557609.4299999978}},{"attributes":{"ID":486527,"DIS_CODE":0,"TOWNNAME":"西港區","LI":"慶安里","LIN":"32鄰","STREET":"新興街","SECT":" ","MAREA":" ","LANE":" ","ALLEY":" ","HOUSE_NO":"８號之１８５五樓之６","E_COORD97":168334.64000000001,"N_COORD97":2557609.4300000002,"ADDRESS":"新興街８號之１８５五樓之６","OBJECTID":486502},"geometry":{"x":168334.6400000006,"y":2557609.4299999978}},{"attributes":{"ID":486528,"DIS_CODE":0,"TOWNNAME":"西港區","LI":"慶安里","LIN":"32鄰","STREET":"新興街","SECT":" ","MAREA":" ","LANE":" ","ALLEY":" ","HOUSE_NO":"８號之１８５六樓之１","E_COORD97":168334.64000000001,"N_COORD97":2557609.4300000002,"ADDRESS":"新興街８號之１８５六樓之１","OBJECTID":486503},"geometry":{"x":168334.6400000006,"y":2557609.4299999978}},{"attributes":{"ID":486529,"DIS_CODE":0,"TOWNNAME":"西港區","LI":"慶安里","LIN":"32鄰","STREET":"新興街","SECT":" ","MAREA":" ","LANE":" ","ALLEY":" ","HOUSE_NO":"８號之１８５六樓之２","E_COORD97":168334.64000000001,"N_COORD97":2557609.4300000002,"ADDRESS":"新興街８號之１８５六樓之２","OBJECTID":486504},"geometry":{"x":168334.6400000006,"y":2557609.4299999978}},{"attributes":{"ID":486530,"DIS_CODE":0,"TOWNNAME":"西港區","LI":"慶安里","LIN":"32鄰","STREET":"新興街","SECT":" ","MAREA":" ","LANE":" ","ALLEY":" ","HOUSE_NO":"８號之１８５六樓之３","E_COORD97":168334.64000000001,"N_COORD97":2557609.4300000002,"ADDRESS":"新興街８號之１８５六樓之３","OBJECTID":486505},"geometry":{"x":168334.6400000006,"y":2557609.4299999978}},{"attributes":{"ID":486531,"DIS_CODE":0,"TOWNNAME":"西港區","LI":"慶安里","LIN":"32鄰","STREET":"新興街","SECT":" ","MAREA":" ","LANE":" ","ALLEY":" ","HOUSE_NO":"８號之１８５六樓之５","E_COORD97":168334.64000000001,"N_COORD97":2557609.4300000002,"ADDRESS":"新興街８號之１８５六樓之５","OBJECTID":486506},"geometry":{"x":168334.6400000006,"y":2557609.4299999978}},{"attributes":{"ID":486532,"DIS_CODE":0,"TOWNNAME":"西港區","LI":"慶安里","LIN":"32鄰","STREET":"新興街","SECT":" ","MAREA":" ","LANE":" ","ALLEY":" ","HOUSE_NO":"８號之１８５六樓之６","E_COORD97":168334.64000000001,"N_COORD97":2557609.4300000002,"ADDRESS":"新興街８號之１８５六樓之６","OBJECTID":486507},"geometry":{"x":168334.6400000006,"y":2557609.4299999978}},{"attributes":{"ID":486533,"DIS_CODE":0,"TOWNNAME":"西港區","LI":"慶安里","LIN":"32鄰","STREET":"新興街","SECT":" ","MAREA":" ","LANE":" ","ALLEY":" ","HOUSE_NO":"８號之１８５四樓之１","E_COORD97":168334.64000000001,"N_COORD97":2557609.4300000002,"ADDRESS":"新興街８號之１８５四樓之１","OBJECTID":486508},"geometry":{"x":168334.6400000006,"y":2557609.4299999978}},{"attributes":{"ID":486534,"DIS_CODE":0,"TOWNNAME":"西港區","LI":"慶安里","LIN":"32鄰","STREET":"新興街","SECT":" ","MAREA":" ","LANE":" ","ALLEY":" ","HOUSE_NO":"８號之１８５四樓之２","E_COORD97":168334.64000000001,"N_COORD97":2557609.4300000002,"ADDRESS":"新興街８號之１８５四樓之２","OBJECTID":486509},"geometry":{"x":168334.6400000006,"y":2557609.4299999978}},{"attributes":{"ID":486535,"DIS_CODE":0,"TOWNNAME":"西港區","LI":"慶安里","LIN":"32鄰","STREET":"新興街","SECT":" ","MAREA":" ","LANE":" ","ALLEY":" ","HOUSE_NO":"８號之１８５四樓之３","E_COORD97":168334.64000000001,"N_COORD97":2557609.4300000002,"ADDRESS":"新興街８號之１８５四樓之３","OBJECTID":486510},"geometry":{"x":168334.6400000006,"y":2557609.4299999978}},{"attributes":{"ID":486536,"DIS_CODE":0,"TOWNNAME":"西港區","LI":"慶安里","LIN":"32鄰","STREET":"新興街","SECT":" ","MAREA":" ","LANE":" ","ALLEY":" ","HOUSE_NO":"８號之１８５四樓之５","E_COORD97":168334.64000000001,"N_COORD97":2557609.4300000002,"ADDRESS":"新興街８號之１８５四樓之５","OBJECTID":486511},"geometry":{"x":168334.6400000006,"y":2557609.4299999978}},{"attributes":{"ID":486537,"DIS_CODE":0,"TOWNNAME":"西港區","LI":"慶安里","LIN":"32鄰","STREET":"新興街","SECT":" ","MAREA":" ","LANE":" ","ALLEY":" ","HOUSE_NO":"８號之１８５四樓之６","E_COORD97":168334.64000000001,"N_COORD97":2557609.4300000002,"ADDRESS":"新興街８號之１８５四樓之６","OBJECTID":486512},"geometry":{"x":168334.6400000006,"y":2557609.4299999978}},{"attributes":{"ID":486538,"DIS_CODE":0,"TOWNNAME":"西港區","LI":"慶安里","LIN":"32鄰","STREET":"新興街","SECT":" ","MAREA":" ","LANE":" ","ALLEY":" ","HOUSE_NO":"８號之１８６一樓之１","E_COORD97":168324.14000000001,"N_COORD97":2557607.52,"ADDRESS":"新興街８號之１８６一樓之１","OBJECTID":486513},"geometry":{"x":168324.1400000006,"y":2557607.5199999996}},{"attributes":{"ID":486539,"DIS_CODE":0,"TOWNNAME":"西港區","LI":"慶安里","LIN":"32鄰","STREET":"新興街","SECT":" ","MAREA":" ","LANE":" ","ALLEY":" ","HOUSE_NO":"８號之１８６一樓之２","E_COORD97":168324.14000000001,"N_COORD97":2557607.52,"ADDRESS":"新興街８號之１８６一樓之２","OBJECTID":486514},"geometry":{"x":168324.1400000006,"y":2557607.5199999996}},{"attributes":{"ID":486540,"DIS_CODE":0,"TOWNNAME":"西港區","LI":"慶安里","LIN":"32鄰","STREET":"新興街","SECT":" ","MAREA":" ","LANE":" ","ALLEY":" ","HOUSE_NO":"８號之１８６一樓之３","E_COORD97":168324.14000000001,"N_COORD97":2557607.52,"ADDRESS":"新興街８號之１８６一樓之３","OBJECTID":486515},"geometry":{"x":168324.1400000006,"y":2557607.5199999996}},{"attributes":{"ID":486541,"DIS_CODE":0,"TOWNNAME":"西港區","LI":"慶安里","LIN":"32鄰","STREET":"新興街","SECT":" ","MAREA":" ","LANE":" ","ALLEY":" ","HOUSE_NO":"８號之１８６七樓之１","E_COORD97":168324.14000000001,"N_COORD97":2557607.52,"ADDRESS":"新興街８號之１８６七樓之１","OBJECTID":486516},"geometry":{"x":168324.1400000006,"y":2557607.5199999996}},{"attributes":{"ID":486542,"DIS_CODE":0,"TOWNNAME":"西港區","LI":"慶安里","LIN":"32鄰","STREET":"新興街","SECT":" ","MAREA":" ","LANE":" ","ALLEY":" ","HOUSE_NO":"８號之１８６七樓之２","E_COORD97":168324.14000000001,"N_COORD97":2557607.52,"ADDRESS":"新興街８號之１８６七樓之２","OBJECTID":486517},"geometry":{"x":168324.1400000006,"y":2557607.5199999996}},{"attributes":{"ID":486543,"DIS_CODE":0,"TOWNNAME":"西港區","LI":"慶安里","LIN":"32鄰","STREET":"新興街","SECT":" ","MAREA":" ","LANE":" ","ALLEY":" ","HOUSE_NO":"８號之１８６七樓之３","E_COORD97":168324.14000000001,"N_COORD97":2557607.52,"ADDRESS":"新興街８號之１８６七樓之３","OBJECTID":486518},"geometry":{"x":168324.1400000006,"y":2557607.5199999996}},{"attributes":{"ID":486544,"DIS_CODE":0,"TOWNNAME":"西港區","LI":"慶安里","LIN":"32鄰","STREET":"新興街","SECT":" ","MAREA":" ","LANE":" ","ALLEY":" ","HOUSE_NO":"８號之１８６二樓之１","E_COORD97":168324.14000000001,"N_COORD97":2557607.52,"ADDRESS":"新興街８號之１８６二樓之１","OBJECTID":486519},"geometry":{"x":168324.1400000006,"y":2557607.5199999996}},{"attributes":{"ID":486545,"DIS_CODE":0,"TOWNNAME":"西港區","LI":"慶安里","LIN":"32鄰","STREET":"新興街","SECT":" ","MAREA":" ","LANE":" ","ALLEY":" ","HOUSE_NO":"８號之１８６二樓之２","E_COORD97":168324.14000000001,"N_COORD97":2557607.52,"ADDRESS":"新興街８號之１８６二樓之２","OBJECTID":486520},"geometry":{"x":168324.1400000006,"y":2557607.5199999996}},{"attributes":{"ID":486546,"DIS_CODE":0,"TOWNNAME":"西港區","LI":"慶安里","LIN":"32鄰","STREET":"新興街","SECT":" ","MAREA":" ","LANE":" ","ALLEY":" ","HOUSE_NO":"８號之１８６二樓之３","E_COORD97":168324.14000000001,"N_COORD97":2557607.52,"ADDRESS":"新興街８號之１８６二樓之３","OBJECTID":486521},"geometry":{"x":168324.1400000006,"y":2557607.5199999996}},{"attributes":{"ID":486547,"DIS_CODE":0,"TOWNNAME":"西港區","LI":"慶安里","LIN":"32鄰","STREET":"新興街","SECT":" ","MAREA":" ","LANE":" ","ALLEY":" ","HOUSE_NO":"８號之１８６八樓之１","E_COORD97":168324.14000000001,"N_COORD97":2557607.52,"ADDRESS":"新興街８號之１８６八樓之１","OBJECTID":486522},"geometry":{"x":168324.1400000006,"y":2557607.5199999996}},{"attributes":{"ID":486548,"DIS_CODE":0,"TOWNNAME":"西港區","LI":"慶安里","LIN":"32鄰","STREET":"新興街","SECT":" ","MAREA":" ","LANE":" ","ALLEY":" ","HOUSE_NO":"８號之１８６八樓之２","E_COORD97":168324.14000000001,"N_COORD97":2557607.52,"ADDRESS":"新興街８號之１８６八樓之２","OBJECTID":486523},"geometry":{"x":168324.1400000006,"y":2557607.5199999996}},{"attributes":{"ID":486549,"DIS_CODE":0,"TOWNNAME":"西港區","LI":"慶安里","LIN":"32鄰","STREET":"新興街","SECT":" ","MAREA":" ","LANE":" ","ALLEY":" ","HOUSE_NO":"８號之１８６八樓之３","E_COORD97":168324.14000000001,"N_COORD97":2557607.52,"ADDRESS":"新興街８號之１８６八樓之３","OBJECTID":486524},"geometry":{"x":168324.1400000006,"y":2557607.5199999996}},{"attributes":{"ID":486550,"DIS_CODE":0,"TOWNNAME":"西港區","LI":"慶安里","LIN":"32鄰","STREET":"新興街","SECT":" ","MAREA":" ","LANE":" ","ALLEY":" ","HOUSE_NO":"８號之１８６三樓之１","E_COORD97":168324.14000000001,"N_COORD97":2557607.52,"ADDRESS":"新興街８號之１８６三樓之１","OBJECTID":486525},"geometry":{"x":168324.1400000006,"y":2557607.5199999996}},{"attributes":{"ID":486551,"DIS_CODE":0,"TOWNNAME":"西港區","LI":"慶安里","LIN":"32鄰","STREET":"新興街","SECT":" ","MAREA":" ","LANE":" ","ALLEY":" ","HOUSE_NO":"８號之１８６三樓之２","E_COORD97":168324.14000000001,"N_COORD97":2557607.52,"ADDRESS":"新興街８號之１８６三樓之２","OBJECTID":486526},"geometry":{"x":168324.1400000006,"y":2557607.5199999996}},{"attributes":{"ID":486552,"DIS_CODE":0,"TOWNNAME":"西港區","LI":"慶安里","LIN":"32鄰","STREET":"新興街","SECT":" ","MAREA":" ","LANE":" ","ALLEY":" ","HOUSE_NO":"８號之１８６三樓之３","E_COORD97":168324.14000000001,"N_COORD97":2557607.52,"ADDRESS":"新興街８號之１８６三樓之３","OBJECTID":486527},"geometry":{"x":168324.1400000006,"y":2557607.5199999996}},{"attributes":{"ID":486553,"DIS_CODE":0,"TOWNNAME":"西港區","LI":"慶安里","LIN":"32鄰","STREET":"新興街","SECT":" ","MAREA":" ","LANE":" ","ALLEY":" ","HOUSE_NO":"８號之１８６五樓之１","E_COORD97":168324.14000000001,"N_COORD97":2557607.52,"ADDRESS":"新興街８號之１８６五樓之１","OBJECTID":486528},"geometry":{"x":168324.1400000006,"y":2557607.5199999996}},{"attributes":{"ID":486554,"DIS_CODE":0,"TOWNNAME":"西港區","LI":"慶安里","LIN":"32鄰","STREET":"新興街","SECT":" ","MAREA":" ","LANE":" ","ALLEY":" ","HOUSE_NO":"８號之１８６五樓之２","E_COORD97":168324.14000000001,"N_COORD97":2557607.52,"ADDRESS":"新興街８號之１８６五樓之２","OBJECTID":486529},"geometry":{"x":168324.1400000006,"y":2557607.5199999996}},{"attributes":{"ID":486555,"DIS_CODE":0,"TOWNNAME":"西港區","LI":"慶安里","LIN":"32鄰","STREET":"新興街","SECT":" ","MAREA":" ","LANE":" ","ALLEY":" ","HOUSE_NO":"８號之１８６五樓之３","E_COORD97":168324.14000000001,"N_COORD97":2557607.52,"ADDRESS":"新興街８號之１８６五樓之３","OBJECTID":486530},"geometry":{"x":168324.1400000006,"y":2557607.5199999996}},{"attributes":{"ID":486556,"DIS_CODE":0,"TOWNNAME":"西港區","LI":"慶安里","LIN":"32鄰","STREET":"新興街","SECT":" ","MAREA":" ","LANE":" ","ALLEY":" ","HOUSE_NO":"８號之１８６六樓之１","E_COORD97":168324.14000000001,"N_COORD97":2557607.52,"ADDRESS":"新興街８號之１８６六樓之１","OBJECTID":486531},"geometry":{"x":168324.1400000006,"y":2557607.5199999996}},{"attributes":{"ID":486557,"DIS_CODE":0,"TOWNNAME":"西港區","LI":"慶安里","LIN":"32鄰","STREET":"新興街","SECT":" ","MAREA":" ","LANE":" ","ALLEY":" ","HOUSE_NO":"８號之１８６六樓之２","E_COORD97":168324.14000000001,"N_COORD97":2557607.52,"ADDRESS":"新興街８號之１８６六樓之２","OBJECTID":486532},"geometry":{"x":168324.1400000006,"y":2557607.5199999996}},{"attributes":{"ID":486558,"DIS_CODE":0,"TOWNNAME":"西港區","LI":"慶安里","LIN":"32鄰","STREET":"新興街","SECT":" ","MAREA":" ","LANE":" ","ALLEY":" ","HOUSE_NO":"８號之１８６六樓之３","E_COORD97":168324.14000000001,"N_COORD97":2557607.52,"ADDRESS":"新興街８號之１８６六樓之３","OBJECTID":486533},"geometry":{"x":168324.1400000006,"y":2557607.5199999996}},{"attributes":{"ID":486559,"DIS_CODE":0,"TOWNNAME":"西港區","LI":"慶安里","LIN":"32鄰","STREET":"新興街","SECT":" ","MAREA":" ","LANE":" ","ALLEY":" ","HOUSE_NO":"８號之１８６四樓之１","E_COORD97":168324.14000000001,"N_COORD97":2557607.52,"ADDRESS":"新興街８號之１８６四樓之１","OBJECTID":486534},"geometry":{"x":168324.1400000006,"y":2557607.5199999996}},{"attributes":{"ID":486560,"DIS_CODE":0,"TOWNNAME":"西港區","LI":"慶安里","LIN":"32鄰","STREET":"新興街","SECT":" ","MAREA":" ","LANE":" ","ALLEY":" ","HOUSE_NO":"８號之１８６四樓之２","E_COORD97":168324.14000000001,"N_COORD97":2557607.52,"ADDRESS":"新興街８號之１８６四樓之２","OBJECTID":486535},"geometry":{"x":168324.1400000006,"y":2557607.5199999996}},{"attributes":{"ID":486561,"DIS_CODE":0,"TOWNNAME":"西港區","LI":"慶安里","LIN":"32鄰","STREET":"新興街","SECT":" ","MAREA":" ","LANE":" ","ALLEY":" ","HOUSE_NO":"８號之１８６四樓之３","E_COORD97":168324.14000000001,"N_COORD97":2557607.52,"ADDRESS":"新興街８號之１８６四樓之３","OBJECTID":486536},"geometry":{"x":168324.1400000006,"y":2557607.5199999996}},{"attributes":{"ID":486562,"DIS_CODE":0,"TOWNNAME":"西港區","LI":"慶安里","LIN":"32鄰","STREET":"新興街","SECT":" ","MAREA":" ","LANE":" ","ALLEY":" ","HOUSE_NO":"８號之１８７一樓之１","E_COORD97":168312.42000000001,"N_COORD97":2557604.9900000002,"ADDRESS":"新興街８號之１８７一樓之１","OBJECTID":486537},"geometry":{"x":168312.42000000086,"y":2557604.9900000002}},{"attributes":{"ID":486563,"DIS_CODE":0,"TOWNNAME":"西港區","LI":"慶安里","LIN":"32鄰","STREET":"新興街","SECT":" ","MAREA":" ","LANE":" ","ALLEY":" ","HOUSE_NO":"８號之１８７一樓之２","E_COORD97":168312.42000000001,"N_COORD97":2557604.9900000002,"ADDRESS":"新興街８號之１８７一樓之２","OBJECTID":486538},"geometry":{"x":168312.42000000086,"y":2557604.9900000002}},{"attributes":{"ID":486564,"DIS_CODE":0,"TOWNNAME":"西港區","LI":"慶安里","LIN":"32鄰","STREET":"新興街","SECT":" ","MAREA":" ","LANE":" ","ALLEY":" ","HOUSE_NO":"８號之１８７一樓之３","E_COORD97":168312.42000000001,"N_COORD97":2557604.9900000002,"ADDRESS":"新興街８號之１８７一樓之３","OBJECTID":486539},"geometry":{"x":168312.42000000086,"y":2557604.9900000002}},{"attributes":{"ID":486565,"DIS_CODE":0,"TOWNNAME":"西港區","LI":"慶安里","LIN":"32鄰","STREET":"新興街","SECT":" ","MAREA":" ","LANE":" ","ALLEY":" ","HOUSE_NO":"８號之１８７七樓之１","E_COORD97":168312.42000000001,"N_COORD97":2557604.9900000002,"ADDRESS":"新興街８號之１８７七樓之１","OBJECTID":486540},"geometry":{"x":168312.42000000086,"y":2557604.9900000002}},{"attributes":{"ID":486566,"DIS_CODE":0,"TOWNNAME":"西港區","LI":"慶安里","LIN":"32鄰","STREET":"新興街","SECT":" ","MAREA":" ","LANE":" ","ALLEY":" ","HOUSE_NO":"８號之１８７七樓之２","E_COORD97":168312.42000000001,"N_COORD97":2557604.9900000002,"ADDRESS":"新興街８號之１８７七樓之２","OBJECTID":486541},"geometry":{"x":168312.42000000086,"y":2557604.9900000002}},{"attributes":{"ID":486567,"DIS_CODE":0,"TOWNNAME":"西港區","LI":"慶安里","LIN":"32鄰","STREET":"新興街","SECT":" ","MAREA":" ","LANE":" ","ALLEY":" ","HOUSE_NO":"８號之１８７七樓之３","E_COORD97":168312.42000000001,"N_COORD97":2557604.9900000002,"ADDRESS":"新興街８號之１８７七樓之３","OBJECTID":486542},"geometry":{"x":168312.42000000086,"y":2557604.9900000002}},{"attributes":{"ID":486568,"DIS_CODE":0,"TOWNNAME":"西港區","LI":"慶安里","LIN":"32鄰","STREET":"新興街","SECT":" ","MAREA":" ","LANE":" ","ALLEY":" ","HOUSE_NO":"８號之１８７二樓之１","E_COORD97":168312.42000000001,"N_COORD97":2557604.9900000002,"ADDRESS":"新興街８號之１８７二樓之１","OBJECTID":486543},"geometry":{"x":168312.42000000086,"y":2557604.9900000002}},{"attributes":{"ID":486569,"DIS_CODE":0,"TOWNNAME":"西港區","LI":"慶安里","LIN":"32鄰","STREET":"新興街","SECT":" ","MAREA":" ","LANE":" ","ALLEY":" ","HOUSE_NO":"８號之１８７二樓之２","E_COORD97":168312.42000000001,"N_COORD97":2557604.9900000002,"ADDRESS":"新興街８號之１８７二樓之２","OBJECTID":486544},"geometry":{"x":168312.42000000086,"y":2557604.9900000002}},{"attributes":{"ID":486570,"DIS_CODE":0,"TOWNNAME":"西港區","LI":"慶安里","LIN":"32鄰","STREET":"新興街","SECT":" ","MAREA":" ","LANE":" ","ALLEY":" ","HOUSE_NO":"８號之１８７二樓之３","E_COORD97":168312.42000000001,"N_COORD97":2557604.9900000002,"ADDRESS":"新興街８號之１８７二樓之３","OBJECTID":486545},"geometry":{"x":168312.42000000086,"y":2557604.9900000002}},{"attributes":{"ID":486571,"DIS_CODE":0,"TOWNNAME":"西港區","LI":"慶安里","LIN":"32鄰","STREET":"新興街","SECT":" ","MAREA":" ","LANE":" ","ALLEY":" ","HOUSE_NO":"８號之１８７八樓之１","E_COORD97":168312.42000000001,"N_COORD97":2557604.9900000002,"ADDRESS":"新興街８號之１８７八樓之１","OBJECTID":486546},"geometry":{"x":168312.42000000086,"y":2557604.9900000002}},{"attributes":{"ID":486572,"DIS_CODE":0,"TOWNNAME":"西港區","LI":"慶安里","LIN":"32鄰","STREET":"新興街","SECT":" ","MAREA":" ","LANE":" ","ALLEY":" ","HOUSE_NO":"８號之１８７八樓之２","E_COORD97":168312.42000000001,"N_COORD97":2557604.9900000002,"ADDRESS":"新興街８號之１８７八樓之２","OBJECTID":486547},"geometry":{"x":168312.42000000086,"y":2557604.9900000002}},{"attributes":{"ID":486573,"DIS_CODE":0,"TOWNNAME":"西港區","LI":"慶安里","LIN":"32鄰","STREET":"新興街","SECT":" ","MAREA":" ","LANE":" ","ALLEY":" ","HOUSE_NO":"８號之１８７八樓之３","E_COORD97":168312.42000000001,"N_COORD97":2557604.9900000002,"ADDRESS":"新興街８號之１８７八樓之３","OBJECTID":486548},"geometry":{"x":168312.42000000086,"y":2557604.9900000002}},{"attributes":{"ID":486574,"DIS_CODE":0,"TOWNNAME":"西港區","LI":"慶安里","LIN":"32鄰","STREET":"新興街","SECT":" ","MAREA":" ","LANE":" ","ALLEY":" ","HOUSE_NO":"８號之１８７三樓之１","E_COORD97":168312.42000000001,"N_COORD97":2557604.9900000002,"ADDRESS":"新興街８號之１８７三樓之１","OBJECTID":486549},"geometry":{"x":168312.42000000086,"y":2557604.9900000002}},{"attributes":{"ID":486575,"DIS_CODE":0,"TOWNNAME":"西港區","LI":"慶安里","LIN":"32鄰","STREET":"新興街","SECT":" ","MAREA":" ","LANE":" ","ALLEY":" ","HOUSE_NO":"８號之１８７三樓之２","E_COORD97":168312.42000000001,"N_COORD97":2557604.9900000002,"ADDRESS":"新興街８號之１８７三樓之２","OBJECTID":486550},"geometry":{"x":168312.42000000086,"y":2557604.9900000002}},{"attributes":{"ID":486576,"DIS_CODE":0,"TOWNNAME":"西港區","LI":"慶安里","LIN":"32鄰","STREET":"新興街","SECT":" ","MAREA":" ","LANE":" ","ALLEY":" ","HOUSE_NO":"８號之１８７三樓之３","E_COORD97":168312.42000000001,"N_COORD97":2557604.9900000002,"ADDRESS":"新興街８號之１８７三樓之３","OBJECTID":486551},"geometry":{"x":168312.42000000086,"y":2557604.9900000002}},{"attributes":{"ID":486577,"DIS_CODE":0,"TOWNNAME":"西港區","LI":"慶安里","LIN":"32鄰","STREET":"新興街","SECT":" ","MAREA":" ","LANE":" ","ALLEY":" ","HOUSE_NO":"８號之１８７五樓之１","E_COORD97":168312.42000000001,"N_COORD97":2557604.9900000002,"ADDRESS":"新興街８號之１８７五樓之１","OBJECTID":486552},"geometry":{"x":168312.42000000086,"y":2557604.9900000002}},{"attributes":{"ID":486578,"DIS_CODE":0,"TOWNNAME":"西港區","LI":"慶安里","LIN":"32鄰","STREET":"新興街","SECT":" ","MAREA":" ","LANE":" ","ALLEY":" ","HOUSE_NO":"８號之１８７五樓之２","E_COORD97":168312.42000000001,"N_COORD97":2557604.9900000002,"ADDRESS":"新興街８號之１８７五樓之２","OBJECTID":486553},"geometry":{"x":168312.42000000086,"y":2557604.9900000002}},{"attributes":{"ID":486579,"DIS_CODE":0,"TOWNNAME":"西港區","LI":"慶安里","LIN":"32鄰","STREET":"新興街","SECT":" ","MAREA":" ","LANE":" ","ALLEY":" ","HOUSE_NO":"８號之１８７五樓之３","E_COORD97":168312.42000000001,"N_COORD97":2557604.9900000002,"ADDRESS":"新興街８號之１８７五樓之３","OBJECTID":486554},"geometry":{"x":168312.42000000086,"y":2557604.9900000002}},{"attributes":{"ID":486580,"DIS_CODE":0,"TOWNNAME":"西港區","LI":"慶安里","LIN":"32鄰","STREET":"新興街","SECT":" ","MAREA":" ","LANE":" ","ALLEY":" ","HOUSE_NO":"８號之１８７六樓之１","E_COORD97":168312.42000000001,"N_COORD97":2557604.9900000002,"ADDRESS":"新興街８號之１８７六樓之１","OBJECTID":486555},"geometry":{"x":168312.42000000086,"y":2557604.9900000002}},{"attributes":{"ID":486581,"DIS_CODE":0,"TOWNNAME":"西港區","LI":"慶安里","LIN":"32鄰","STREET":"新興街","SECT":" ","MAREA":" ","LANE":" ","ALLEY":" ","HOUSE_NO":"８號之１８７六樓之２","E_COORD97":168312.42000000001,"N_COORD97":2557604.9900000002,"ADDRESS":"新興街８號之１８７六樓之２","OBJECTID":486556},"geometry":{"x":168312.42000000086,"y":2557604.9900000002}},{"attributes":{"ID":486582,"DIS_CODE":0,"TOWNNAME":"西港區","LI":"慶安里","LIN":"32鄰","STREET":"新興街","SECT":" ","MAREA":" ","LANE":" ","ALLEY":" ","HOUSE_NO":"８號之１８７六樓之３","E_COORD97":168312.42000000001,"N_COORD97":2557604.9900000002,"ADDRESS":"新興街８號之１８７六樓之３","OBJECTID":486557},"geometry":{"x":168312.42000000086,"y":2557604.9900000002}},{"attributes":{"ID":486583,"DIS_CODE":0,"TOWNNAME":"西港區","LI":"慶安里","LIN":"32鄰","STREET":"新興街","SECT":" ","MAREA":" ","LANE":" ","ALLEY":" ","HOUSE_NO":"８號之１８７四樓之１","E_COORD97":168312.42000000001,"N_COORD97":2557604.9900000002,"ADDRESS":"新興街８號之１８７四樓之１","OBJECTID":486558},"geometry":{"x":168312.42000000086,"y":2557604.9900000002}},{"attributes":{"ID":486584,"DIS_CODE":0,"TOWNNAME":"西港區","LI":"慶安里","LIN":"32鄰","STREET":"新興街","SECT":" ","MAREA":" ","LANE":" ","ALLEY":" ","HOUSE_NO":"８號之１８７四樓之２","E_COORD97":168312.42000000001,"N_COORD97":2557604.9900000002,"ADDRESS":"新興街８號之１８７四樓之２","OBJECTID":486559},"geometry":{"x":168312.42000000086,"y":2557604.9900000002}},{"attributes":{"ID":486585,"DIS_CODE":0,"TOWNNAME":"西港區","LI":"慶安里","LIN":"32鄰","STREET":"新興街","SECT":" ","MAREA":" ","LANE":" ","ALLEY":" ","HOUSE_NO":"８號之１８７四樓之３","E_COORD97":168312.42000000001,"N_COORD97":2557604.9900000002,"ADDRESS":"新興街８號之１８７四樓之３","OBJECTID":486560},"geometry":{"x":168312.42000000086,"y":2557604.9900000002}},{"attributes":{"ID":486586,"DIS_CODE":0,"TOWNNAME":"西港區","LI":"慶安里","LIN":"32鄰","STREET":"新興街","SECT":" ","MAREA":" ","LANE":" ","ALLEY":" ","HOUSE_NO":"８號之１８８一樓之１","E_COORD97":168292.51000000001,"N_COORD97":2557593.98,"ADDRESS":"新興街８號之１８８一樓之１","OBJECTID":486561},"geometry":{"x":168292.50999999978,"y":2557593.9800000023}},{"attributes":{"ID":486587,"DIS_CODE":0,"TOWNNAME":"西港區","LI":"慶安里","LIN":"32鄰","STREET":"新興街","SECT":" ","MAREA":" ","LANE":" ","ALLEY":" ","HOUSE_NO":"８號之１８８一樓之２","E_COORD97":168292.51000000001,"N_COORD97":2557593.98,"ADDRESS":"新興街８號之１８８一樓之２","OBJECTID":486562},"geometry":{"x":168292.50999999978,"y":2557593.9800000023}},{"attributes":{"ID":486588,"DIS_CODE":0,"TOWNNAME":"西港區","LI":"慶安里","LIN":"32鄰","STREET":"新興街","SECT":" ","MAREA":" ","LANE":" ","ALLEY":" ","HOUSE_NO":"８號之１８８一樓之３","E_COORD97":168292.51000000001,"N_COORD97":2557593.98,"ADDRESS":"新興街８號之１８８一樓之３","OBJECTID":486563},"geometry":{"x":168292.50999999978,"y":2557593.9800000023}},{"attributes":{"ID":486589,"DIS_CODE":0,"TOWNNAME":"西港區","LI":"慶安里","LIN":"32鄰","STREET":"新興街","SECT":" ","MAREA":" ","LANE":" ","ALLEY":" ","HOUSE_NO":"８號之１８８七樓之１","E_COORD97":168292.51000000001,"N_COORD97":2557593.98,"ADDRESS":"新興街８號之１８８七樓之１","OBJECTID":486564},"geometry":{"x":168292.50999999978,"y":2557593.9800000023}},{"attributes":{"ID":486590,"DIS_CODE":0,"TOWNNAME":"西港區","LI":"慶安里","LIN":"32鄰","STREET":"新興街","SECT":" ","MAREA":" ","LANE":" ","ALLEY":" ","HOUSE_NO":"８號之１８８七樓之２","E_COORD97":168292.51000000001,"N_COORD97":2557593.98,"ADDRESS":"新興街８號之１８８七樓之２","OBJECTID":486565},"geometry":{"x":168292.50999999978,"y":2557593.9800000023}},{"attributes":{"ID":486591,"DIS_CODE":0,"TOWNNAME":"西港區","LI":"慶安里","LIN":"32鄰","STREET":"新興街","SECT":" ","MAREA":" ","LANE":" ","ALLEY":" ","HOUSE_NO":"８號之１８８七樓之３","E_COORD97":168292.51000000001,"N_COORD97":2557593.98,"ADDRESS":"新興街８號之１８８七樓之３","OBJECTID":486566},"geometry":{"x":168292.50999999978,"y":2557593.9800000023}},{"attributes":{"ID":486592,"DIS_CODE":0,"TOWNNAME":"西港區","LI":"慶安里","LIN":"32鄰","STREET":"新興街","SECT":" ","MAREA":" ","LANE":" ","ALLEY":" ","HOUSE_NO":"８號之１８８二樓之１","E_COORD97":168292.51000000001,"N_COORD97":2557593.98,"ADDRESS":"新興街８號之１８８二樓之１","OBJECTID":486567},"geometry":{"x":168292.50999999978,"y":2557593.9800000023}},{"attributes":{"ID":486593,"DIS_CODE":0,"TOWNNAME":"西港區","LI":"慶安里","LIN":"32鄰","STREET":"新興街","SECT":" ","MAREA":" ","LANE":" ","ALLEY":" ","HOUSE_NO":"８號之１８８二樓之２","E_COORD97":168292.51000000001,"N_COORD97":2557593.98,"ADDRESS":"新興街８號之１８８二樓之２","OBJECTID":486568},"geometry":{"x":168292.50999999978,"y":2557593.9800000023}},{"attributes":{"ID":486594,"DIS_CODE":0,"TOWNNAME":"西港區","LI":"慶安里","LIN":"32鄰","STREET":"新興街","SECT":" ","MAREA":" ","LANE":" ","ALLEY":" ","HOUSE_NO":"８號之１８８二樓之３","E_COORD97":168292.51000000001,"N_COORD97":2557593.98,"ADDRESS":"新興街８號之１８８二樓之３","OBJECTID":486569},"geometry":{"x":168292.50999999978,"y":2557593.9800000023}},{"attributes":{"ID":486595,"DIS_CODE":0,"TOWNNAME":"西港區","LI":"慶安里","LIN":"32鄰","STREET":"新興街","SECT":" ","MAREA":" ","LANE":" ","ALLEY":" ","HOUSE_NO":"８號之１８８八樓之１","E_COORD97":168292.51000000001,"N_COORD97":2557593.98,"ADDRESS":"新興街８號之１８８八樓之１","OBJECTID":486570},"geometry":{"x":168292.50999999978,"y":2557593.9800000023}},{"attributes":{"ID":486596,"DIS_CODE":0,"TOWNNAME":"西港區","LI":"慶安里","LIN":"32鄰","STREET":"新興街","SECT":" ","MAREA":" ","LANE":" ","ALLEY":" ","HOUSE_NO":"８號之１８８八樓之２","E_COORD97":168292.51000000001,"N_COORD97":2557593.98,"ADDRESS":"新興街８號之１８８八樓之２","OBJECTID":486571},"geometry":{"x":168292.50999999978,"y":2557593.9800000023}},{"attributes":{"ID":486597,"DIS_CODE":0,"TOWNNAME":"西港區","LI":"慶安里","LIN":"32鄰","STREET":"新興街","SECT":" ","MAREA":" ","LANE":" ","ALLEY":" ","HOUSE_NO":"８號之１８８三樓之１","E_COORD97":168292.51000000001,"N_COORD97":2557593.98,"ADDRESS":"新興街８號之１８８三樓之１","OBJECTID":486572},"geometry":{"x":168292.50999999978,"y":2557593.9800000023}},{"attributes":{"ID":486598,"DIS_CODE":0,"TOWNNAME":"西港區","LI":"慶安里","LIN":"32鄰","STREET":"新興街","SECT":" ","MAREA":" ","LANE":" ","ALLEY":" ","HOUSE_NO":"８號之１８８三樓之２","E_COORD97":168292.51000000001,"N_COORD97":2557593.98,"ADDRESS":"新興街８號之１８８三樓之２","OBJECTID":486573},"geometry":{"x":168292.50999999978,"y":2557593.9800000023}},{"attributes":{"ID":486599,"DIS_CODE":0,"TOWNNAME":"西港區","LI":"慶安里","LIN":"32鄰","STREET":"新興街","SECT":" ","MAREA":" ","LANE":" ","ALLEY":" ","HOUSE_NO":"８號之１８８三樓之３","E_COORD97":168292.51000000001,"N_COORD97":2557593.98,"ADDRESS":"新興街８號之１８８三樓之３","OBJECTID":486574},"geometry":{"x":168292.50999999978,"y":2557593.9800000023}},{"attributes":{"ID":486600,"DIS_CODE":0,"TOWNNAME":"西港區","LI":"慶安里","LIN":"32鄰","STREET":"新興街","SECT":" ","MAREA":" ","LANE":" ","ALLEY":" ","HOUSE_NO":"８號之１８８五樓之１","E_COORD97":168292.51000000001,"N_COORD97":2557593.98,"ADDRESS":"新興街８號之１８８五樓之１","OBJECTID":486575},"geometry":{"x":168292.50999999978,"y":2557593.9800000023}},{"attributes":{"ID":486601,"DIS_CODE":0,"TOWNNAME":"西港區","LI":"慶安里","LIN":"32鄰","STREET":"新興街","SECT":" ","MAREA":" ","LANE":" ","ALLEY":" ","HOUSE_NO":"８號之１８８五樓之２","E_COORD97":168292.51000000001,"N_COORD97":2557593.98,"ADDRESS":"新興街８號之１８８五樓之２","OBJECTID":486576},"geometry":{"x":168292.50999999978,"y":2557593.9800000023}},{"attributes":{"ID":486602,"DIS_CODE":0,"TOWNNAME":"西港區","LI":"慶安里","LIN":"32鄰","STREET":"新興街","SECT":" ","MAREA":" ","LANE":" ","ALLEY":" ","HOUSE_NO":"８號之１８８五樓之３","E_COORD97":168292.51000000001,"N_COORD97":2557593.98,"ADDRESS":"新興街８號之１８８五樓之３","OBJECTID":486577},"geometry":{"x":168292.50999999978,"y":2557593.9800000023}},{"attributes":{"ID":486603,"DIS_CODE":0,"TOWNNAME":"西港區","LI":"慶安里","LIN":"32鄰","STREET":"新興街","SECT":" ","MAREA":" ","LANE":" ","ALLEY":" ","HOUSE_NO":"８號之１８８六樓之１","E_COORD97":168292.51000000001,"N_COORD97":2557593.98,"ADDRESS":"新興街８號之１８８六樓之１","OBJECTID":486578},"geometry":{"x":168292.50999999978,"y":2557593.9800000023}},{"attributes":{"ID":486604,"DIS_CODE":0,"TOWNNAME":"西港區","LI":"慶安里","LIN":"32鄰","STREET":"新興街","SECT":" ","MAREA":" ","LANE":" ","ALLEY":" ","HOUSE_NO":"８號之１８８六樓之２","E_COORD97":168292.51000000001,"N_COORD97":2557593.98,"ADDRESS":"新興街８號之１８８六樓之２","OBJECTID":486579},"geometry":{"x":168292.50999999978,"y":2557593.9800000023}},{"attributes":{"ID":486605,"DIS_CODE":0,"TOWNNAME":"西港區","LI":"慶安里","LIN":"32鄰","STREET":"新興街","SECT":" ","MAREA":" ","LANE":" ","ALLEY":" ","HOUSE_NO":"８號之１８８六樓之３","E_COORD97":168292.51000000001,"N_COORD97":2557593.98,"ADDRESS":"新興街８號之１８８六樓之３","OBJECTID":486580},"geometry":{"x":168292.50999999978,"y":2557593.9800000023}},{"attributes":{"ID":486606,"DIS_CODE":0,"TOWNNAME":"西港區","LI":"慶安里","LIN":"32鄰","STREET":"新興街","SECT":" ","MAREA":" ","LANE":" ","ALLEY":" ","HOUSE_NO":"８號之１８８四樓之１","E_COORD97":168292.51000000001,"N_COORD97":2557593.98,"ADDRESS":"新興街８號之１８８四樓之１","OBJECTID":486581},"geometry":{"x":168292.50999999978,"y":2557593.9800000023}},{"attributes":{"ID":486607,"DIS_CODE":0,"TOWNNAME":"西港區","LI":"慶安里","LIN":"32鄰","STREET":"新興街","SECT":" ","MAREA":" ","LANE":" ","ALLEY":" ","HOUSE_NO":"８號之１８８四樓之２","E_COORD97":168292.51000000001,"N_COORD97":2557593.98,"ADDRESS":"新興街８號之１８８四樓之２","OBJECTID":486582},"geometry":{"x":168292.50999999978,"y":2557593.9800000023}},{"attributes":{"ID":486608,"DIS_CODE":0,"TOWNNAME":"西港區","LI":"慶安里","LIN":"32鄰","STREET":"新興街","SECT":" ","MAREA":" ","LANE":" ","ALLEY":" ","HOUSE_NO":"８號之１８８四樓之３","E_COORD97":168292.51000000001,"N_COORD97":2557593.98,"ADDRESS":"新興街８號之１８８四樓之３","OBJECTID":486583},"geometry":{"x":168292.50999999978,"y":2557593.9800000023}},{"attributes":{"ID":486609,"DIS_CODE":0,"TOWNNAME":"西港區","LI":"慶安里","LIN":"32鄰","STREET":"新興街","SECT":" ","MAREA":" ","LANE":" ","ALLEY":" ","HOUSE_NO":"８號之１８９一樓之１","E_COORD97":168303.64000000001,"N_COORD97":2557583.7000000002,"ADDRESS":"新興街８號之１８９一樓之１","OBJECTID":486584},"geometry":{"x":168303.64000000153,"y":2557583.700000003}},{"attributes":{"ID":486610,"DIS_CODE":0,"TOWNNAME":"西港區","LI":"慶安里","LIN":"32鄰","STREET":"新興街","SECT":" ","MAREA":" ","LANE":" ","ALLEY":" ","HOUSE_NO":"８號之１８９一樓之２","E_COORD97":168303.64000000001,"N_COORD97":2557583.7000000002,"ADDRESS":"新興街８號之１８９一樓之２","OBJECTID":486585},"geometry":{"x":168303.64000000153,"y":2557583.700000003}},{"attributes":{"ID":486611,"DIS_CODE":0,"TOWNNAME":"西港區","LI":"慶安里","LIN":"32鄰","STREET":"新興街","SECT":" ","MAREA":" ","LANE":" ","ALLEY":" ","HOUSE_NO":"８號之１８９一樓之３","E_COORD97":168303.64000000001,"N_COORD97":2557583.7000000002,"ADDRESS":"新興街８號之１８９一樓之３","OBJECTID":486586},"geometry":{"x":168303.64000000153,"y":2557583.700000003}},{"attributes":{"ID":486612,"DIS_CODE":0,"TOWNNAME":"西港區","LI":"慶安里","LIN":"32鄰","STREET":"新興街","SECT":" ","MAREA":" ","LANE":" ","ALLEY":" ","HOUSE_NO":"８號之１８９七樓之１","E_COORD97":168303.64000000001,"N_COORD97":2557583.7000000002,"ADDRESS":"新興街８號之１８９七樓之１","OBJECTID":486587},"geometry":{"x":168303.64000000153,"y":2557583.700000003}},{"attributes":{"ID":486613,"DIS_CODE":0,"TOWNNAME":"西港區","LI":"慶安里","LIN":"32鄰","STREET":"新興街","SECT":" ","MAREA":" ","LANE":" ","ALLEY":" ","HOUSE_NO":"８號之１８９七樓之２","E_COORD97":168303.64000000001,"N_COORD97":2557583.7000000002,"ADDRESS":"新興街８號之１８９七樓之２","OBJECTID":486588},"geometry":{"x":168303.64000000153,"y":2557583.700000003}},{"attributes":{"ID":486614,"DIS_CODE":0,"TOWNNAME":"西港區","LI":"慶安里","LIN":"32鄰","STREET":"新興街","SECT":" ","MAREA":" ","LANE":" ","ALLEY":" ","HOUSE_NO":"８號之１８９七樓之３","E_COORD97":168303.64000000001,"N_COORD97":2557583.7000000002,"ADDRESS":"新興街８號之１８９七樓之３","OBJECTID":486589},"geometry":{"x":168303.64000000153,"y":2557583.700000003}},{"attributes":{"ID":486615,"DIS_CODE":0,"TOWNNAME":"西港區","LI":"慶安里","LIN":"32鄰","STREET":"新興街","SECT":" ","MAREA":" ","LANE":" ","ALLEY":" ","HOUSE_NO":"８號之１８９三樓之１","E_COORD97":168303.64000000001,"N_COORD97":2557583.7000000002,"ADDRESS":"新興街８號之１８９三樓之１","OBJECTID":486590},"geometry":{"x":168303.64000000153,"y":2557583.700000003}},{"attributes":{"ID":486616,"DIS_CODE":0,"TOWNNAME":"西港區","LI":"慶安里","LIN":"32鄰","STREET":"新興街","SECT":" ","MAREA":" ","LANE":" ","ALLEY":" ","HOUSE_NO":"８號之１８９三樓之２","E_COORD97":168303.64000000001,"N_COORD97":2557583.7000000002,"ADDRESS":"新興街８號之１８９三樓之２","OBJECTID":486591},"geometry":{"x":168303.64000000153,"y":2557583.700000003}},{"attributes":{"ID":486617,"DIS_CODE":0,"TOWNNAME":"西港區","LI":"慶安里","LIN":"32鄰","STREET":"新興街","SECT":" ","MAREA":" ","LANE":" ","ALLEY":" ","HOUSE_NO":"８號之１８９三樓之３","E_COORD97":168303.64000000001,"N_COORD97":2557583.7000000002,"ADDRESS":"新興街８號之１８９三樓之３","OBJECTID":486592},"geometry":{"x":168303.64000000153,"y":2557583.700000003}},{"attributes":{"ID":486618,"DIS_CODE":0,"TOWNNAME":"西港區","LI":"慶安里","LIN":"32鄰","STREET":"新興街","SECT":" ","MAREA":" ","LANE":" ","ALLEY":" ","HOUSE_NO":"８號之１８９五樓之１","E_COORD97":168303.64000000001,"N_COORD97":2557583.7000000002,"ADDRESS":"新興街８號之１８９五樓之１","OBJECTID":486593},"geometry":{"x":168303.64000000153,"y":2557583.700000003}},{"attributes":{"ID":486619,"DIS_CODE":0,"TOWNNAME":"西港區","LI":"慶安里","LIN":"32鄰","STREET":"新興街","SECT":" ","MAREA":" ","LANE":" ","ALLEY":" ","HOUSE_NO":"８號之１８９五樓之２","E_COORD97":168303.64000000001,"N_COORD97":2557583.7000000002,"ADDRESS":"新興街８號之１８９五樓之２","OBJECTID":486594},"geometry":{"x":168303.64000000153,"y":2557583.700000003}},{"attributes":{"ID":486620,"DIS_CODE":0,"TOWNNAME":"西港區","LI":"慶安里","LIN":"32鄰","STREET":"新興街","SECT":" ","MAREA":" ","LANE":" ","ALLEY":" ","HOUSE_NO":"８號之１８９五樓之３","E_COORD97":168303.64000000001,"N_COORD97":2557583.7000000002,"ADDRESS":"新興街８號之１８９五樓之３","OBJECTID":486595},"geometry":{"x":168303.64000000153,"y":2557583.700000003}},{"attributes":{"ID":486621,"DIS_CODE":0,"TOWNNAME":"西港區","LI":"慶安里","LIN":"32鄰","STREET":"新興街","SECT":" ","MAREA":" ","LANE":" ","ALLEY":" ","HOUSE_NO":"８號之１８９六樓之１","E_COORD97":168303.64000000001,"N_COORD97":2557583.7000000002,"ADDRESS":"新興街８號之１８９六樓之１","OBJECTID":486596},"geometry":{"x":168303.64000000153,"y":2557583.700000003}},{"attributes":{"ID":486622,"DIS_CODE":0,"TOWNNAME":"西港區","LI":"慶安里","LIN":"32鄰","STREET":"新興街","SECT":" ","MAREA":" ","LANE":" ","ALLEY":" ","HOUSE_NO":"８號之１８９六樓之２","E_COORD97":168303.64000000001,"N_COORD97":2557583.7000000002,"ADDRESS":"新興街８號之１８９六樓之２","OBJECTID":486597},"geometry":{"x":168303.64000000153,"y":2557583.700000003}},{"attributes":{"ID":486623,"DIS_CODE":0,"TOWNNAME":"西港區","LI":"慶安里","LIN":"32鄰","STREET":"新興街","SECT":" ","MAREA":" ","LANE":" ","ALLEY":" ","HOUSE_NO":"８號之１８９六樓之３","E_COORD97":168303.64000000001,"N_COORD97":2557583.7000000002,"ADDRESS":"新興街８號之１８９六樓之３","OBJECTID":486598},"geometry":{"x":168303.64000000153,"y":2557583.700000003}},{"attributes":{"ID":486624,"DIS_CODE":0,"TOWNNAME":"西港區","LI":"慶安里","LIN":"32鄰","STREET":"新興街","SECT":" ","MAREA":" ","LANE":" ","ALLEY":" ","HOUSE_NO":"８號之１８９四樓之１","E_COORD97":168303.64000000001,"N_COORD97":2557583.7000000002,"ADDRESS":"新興街８號之１８９四樓之１","OBJECTID":486599},"geometry":{"x":168303.64000000153,"y":2557583.700000003}},{"attributes":{"ID":486625,"DIS_CODE":0,"TOWNNAME":"西港區","LI":"慶安里","LIN":"32鄰","STREET":"新興街","SECT":" ","MAREA":" ","LANE":" ","ALLEY":" ","HOUSE_NO":"８號之１８９四樓之２","E_COORD97":168303.64000000001,"N_COORD97":2557583.7000000002,"ADDRESS":"新興街８號之１８９四樓之２","OBJECTID":486600},"geometry":{"x":168303.64000000153,"y":2557583.700000003}}]}