{"displayFieldName":"TOWNNAME","fieldAliases":{"ID":"ID","DIS_CODE":"DIS_CODE","TOWNNAME":"TOWNNAME","LI":"LI","LIN":"LIN","STREET":"STREET","SECT":"SECT","MAREA":"MAREA","LANE":"LANE","ALLEY":"ALLEY","HOUSE_NO":"HOUSE_NO","E_COORD97":"E_COORD97","N_COORD97":"N_COORD97","ADDRESS":"ADDRESS","OBJECTID":"OBJECTID"},"geometryType":"esriGeometryPoint","spatialReference":{"wkid":102443,"latestWkid":3826},"fields":[{"name":"ID","type":"esriFieldTypeDouble","alias":"ID"},{"name":"DIS_CODE","type":"esriFieldTypeInteger","alias":"DIS_CODE"},{"name":"TOWNNAME","type":"esriFieldTypeString","alias":"TOWNNAME","length":8},{"name":"LI","type":"esriFieldTypeString","alias":"LI","length":8},{"name":"LIN","type":"esriFieldTypeString","alias":"LIN","length":12},{"name":"STREET","type":"esriFieldTypeString","alias":"STREET","length":20},{"name":"SECT","type":"esriFieldTypeString","alias":"SECT","length":8},{"name":"MAREA","type":"esriFieldTypeString","alias":"MAREA","length":12},{"name":"LANE","type":"esriFieldTypeString","alias":"LANE","length":10},{"name":"ALLEY","type":"esriFieldTypeString","alias":"ALLEY","length":10},{"name":"HOUSE_NO","type":"esriFieldTypeString","alias":"HOUSE_NO","length":20},{"name":"E_COORD97","type":"esriFieldTypeDouble","alias":"E_COORD97"},{"name":"N_COORD97","type":"esriFieldTypeDouble","alias":"N_COORD97"},{"name":"ADDRESS","type":"esriFieldTypeString","alias":"ADDRESS","length":50},{"name":"OBJECTID","type":"esriFieldTypeOID","alias":"OBJECTID"}],"features":[{"attributes":{"ID":483226,"DIS_CODE":0,"TOWNNAME":"永康區","LI":"中華里","LIN":"25鄰","STREET":"忠義街","SECT":" ","MAREA":" ","LANE":" ","ALLEY":" ","HOUSE_NO":"９２號","E_COORD97":171732.48999999999,"N_COORD97":2544636.6299999999,"ADDRESS":"忠義街９２號","OBJECTID":483201},"geometry":{"x":171732.49000000022,"y":2544636.6300000008}},{"attributes":{"ID":483227,"DIS_CODE":0,"TOWNNAME":"東區","LI":"崇善里","LIN":"25鄰","STREET":"崇善東路","SECT":" ","MAREA":" ","LANE":" ","ALLEY":" ","HOUSE_NO":"１１５號","E_COORD97":171406.26000000001,"N_COORD97":2541187.7599999998,"ADDRESS":"崇善東路１１５號","OBJECTID":483202},"geometry":{"x":171406.25999999978,"y":2541187.7600000035}},{"attributes":{"ID":483228,"DIS_CODE":0,"TOWNNAME":"東區","LI":"崇善里","LIN":"25鄰","STREET":"崇善東路","SECT":" ","MAREA":" ","LANE":" ","ALLEY":" ","HOUSE_NO":"１１７號","E_COORD97":171405.98999999999,"N_COORD97":2541191.9900000002,"ADDRESS":"崇善東路１１７號","OBJECTID":483203},"geometry":{"x":171405.99000000115,"y":2541191.9900000002}},{"attributes":{"ID":483229,"DIS_CODE":0,"TOWNNAME":"東區","LI":"崇善里","LIN":"25鄰","STREET":"崇善東路","SECT":" ","MAREA":" ","LANE":" ","ALLEY":" ","HOUSE_NO":"１１９號","E_COORD97":171406.51999999999,"N_COORD97":2541196.2200000002,"ADDRESS":"崇善東路１１９號","OBJECTID":483204},"geometry":{"x":171406.52000000142,"y":2541196.2200000025}},{"attributes":{"ID":483230,"DIS_CODE":0,"TOWNNAME":"東區","LI":"崇善里","LIN":"25鄰","STREET":"崇善東路","SECT":" ","MAREA":" ","LANE":" ","ALLEY":" ","HOUSE_NO":"１２１號","E_COORD97":171408.37,"N_COORD97":2541202.3100000001,"ADDRESS":"崇善東路１２１號","OBJECTID":483205},"geometry":{"x":171408.37000000104,"y":2541202.3100000024}},{"attributes":{"ID":483231,"DIS_CODE":0,"TOWNNAME":"東區","LI":"崇善里","LIN":"25鄰","STREET":"崇善東路","SECT":" ","MAREA":" ","LANE":" ","ALLEY":" ","HOUSE_NO":"１２３號","E_COORD97":171408.89999999999,"N_COORD97":2541206.54,"ADDRESS":"崇善東路１２３號","OBJECTID":483206},"geometry":{"x":171408.9000000013,"y":2541206.540000001}},{"attributes":{"ID":483232,"DIS_CODE":0,"TOWNNAME":"東區","LI":"崇信里","LIN":"25鄰","STREET":"崇信街","SECT":" ","MAREA":" ","LANE":" ","ALLEY":" ","HOUSE_NO":"１１８號","E_COORD97":170759.10000000001,"N_COORD97":2542281.1699999999,"ADDRESS":"崇信街１１８號","OBJECTID":483207},"geometry":{"x":170759.10000000056,"y":2542281.1700000018}},{"attributes":{"ID":483233,"DIS_CODE":0,"TOWNNAME":"東區","LI":"崇信里","LIN":"25鄰","STREET":"崇信街","SECT":" ","MAREA":" ","LANE":" ","ALLEY":" ","HOUSE_NO":"１２０號","E_COORD97":170760.42999999999,"N_COORD97":2542276.5299999998,"ADDRESS":"崇信街１２０號","OBJECTID":483208},"geometry":{"x":170760.43000000063,"y":2542276.5299999993}},{"attributes":{"ID":483234,"DIS_CODE":0,"TOWNNAME":"東區","LI":"崇信里","LIN":"25鄰","STREET":"崇信街","SECT":" ","MAREA":" ","LANE":" ","ALLEY":" ","HOUSE_NO":"１２２號","E_COORD97":170761.76000000001,"N_COORD97":2542272.7799999998,"ADDRESS":"崇信街１２２號","OBJECTID":483209},"geometry":{"x":170761.75999999978,"y":2542272.7800000012}},{"attributes":{"ID":483235,"DIS_CODE":0,"TOWNNAME":"東區","LI":"崇信里","LIN":"25鄰","STREET":"崇信街","SECT":" ","MAREA":" ","LANE":" ","ALLEY":" ","HOUSE_NO":"１２４號","E_COORD97":170763.29999999999,"N_COORD97":2542268.3599999999,"ADDRESS":"崇信街１２４號","OBJECTID":483210},"geometry":{"x":170763.29999999981,"y":2542268.3600000031}},{"attributes":{"ID":483236,"DIS_CODE":0,"TOWNNAME":"東區","LI":"崇信里","LIN":"25鄰","STREET":"崇信街","SECT":" ","MAREA":" ","LANE":" ","ALLEY":" ","HOUSE_NO":"１２６號","E_COORD97":170764.63,"N_COORD97":2542263.7200000002,"ADDRESS":"崇信街１２６號","OBJECTID":483211},"geometry":{"x":170764.62999999989,"y":2542263.7199999988}},{"attributes":{"ID":483237,"DIS_CODE":0,"TOWNNAME":"東區","LI":"崇信里","LIN":"25鄰","STREET":"崇信街","SECT":" ","MAREA":" ","LANE":" ","ALLEY":" ","HOUSE_NO":"１２８號","E_COORD97":170766.39999999999,"N_COORD97":2542259.7400000002,"ADDRESS":"崇信街１２８號","OBJECTID":483212},"geometry":{"x":170766.4000000013,"y":2542259.7400000039}},{"attributes":{"ID":483238,"DIS_CODE":0,"TOWNNAME":"東區","LI":"崇信里","LIN":"25鄰","STREET":"崇信街","SECT":" ","MAREA":" ","LANE":" ","ALLEY":" ","HOUSE_NO":"１３０號","E_COORD97":170767.73000000001,"N_COORD97":2542256.4300000002,"ADDRESS":"崇信街１３０號","OBJECTID":483213},"geometry":{"x":170767.73000000045,"y":2542256.4299999997}},{"attributes":{"ID":483239,"DIS_CODE":0,"TOWNNAME":"東區","LI":"崇信里","LIN":"25鄰","STREET":"崇信街","SECT":" ","MAREA":" ","LANE":" ","ALLEY":" ","HOUSE_NO":"１３２號","E_COORD97":170768.39000000001,"N_COORD97":2542252.6699999999,"ADDRESS":"崇信街１３２號","OBJECTID":483214},"geometry":{"x":170768.39000000153,"y":2542252.6699999999}},{"attributes":{"ID":483240,"DIS_CODE":0,"TOWNNAME":"東區","LI":"崇信里","LIN":"25鄰","STREET":"崇信街","SECT":" ","MAREA":" ","LANE":" ","ALLEY":" ","HOUSE_NO":"１３４號","E_COORD97":170769.94,"N_COORD97":2542248.7000000002,"ADDRESS":"崇信街１３４號","OBJECTID":483215},"geometry":{"x":170769.94000000041,"y":2542248.6999999974}},{"attributes":{"ID":483241,"DIS_CODE":0,"TOWNNAME":"東區","LI":"崇信里","LIN":"25鄰","STREET":"崇信街","SECT":" ","MAREA":" ","LANE":" ","ALLEY":" ","HOUSE_NO":"１３６號","E_COORD97":170764.19,"N_COORD97":2542243.3999999999,"ADDRESS":"崇信街１３６號","OBJECTID":483216},"geometry":{"x":170764.19000000134,"y":2542243.4000000022}},{"attributes":{"ID":483242,"DIS_CODE":0,"TOWNNAME":"東區","LI":"新東里","LIN":"25鄰","STREET":"裕農路","SECT":" ","MAREA":" ","LANE":" ","ALLEY":" ","HOUSE_NO":"２７號之１１","E_COORD97":170544.57000000001,"N_COORD97":2542865.9900000002,"ADDRESS":"裕農路２７號之１１","OBJECTID":483217},"geometry":{"x":170544.57000000123,"y":2542865.9900000021}},{"attributes":{"ID":483243,"DIS_CODE":0,"TOWNNAME":"東區","LI":"新東里","LIN":"25鄰","STREET":"裕農路","SECT":" ","MAREA":" ","LANE":" ","ALLEY":" ","HOUSE_NO":"２７號之１３","E_COORD97":170553.64999999999,"N_COORD97":2542869.2799999998,"ADDRESS":"裕農路２７號之１３","OBJECTID":483218},"geometry":{"x":170553.64999999944,"y":2542869.2800000012}},{"attributes":{"ID":483244,"DIS_CODE":0,"TOWNNAME":"東區","LI":"新東里","LIN":"25鄰","STREET":"裕農路","SECT":" ","MAREA":" ","LANE":" ","ALLEY":" ","HOUSE_NO":"２７號之１４","E_COORD97":170536.67000000001,"N_COORD97":2542908.4300000002,"ADDRESS":"裕農路２７號之１４","OBJECTID":483219},"geometry":{"x":170536.67000000086,"y":2542908.4299999997}},{"attributes":{"ID":483245,"DIS_CODE":0,"TOWNNAME":"東區","LI":"新東里","LIN":"25鄰","STREET":"裕農路","SECT":" ","MAREA":" ","LANE":" ","ALLEY":" ","HOUSE_NO":"２７號之７","E_COORD97":170520.89000000001,"N_COORD97":2542918.7799999998,"ADDRESS":"裕農路２７號之７","OBJECTID":483220},"geometry":{"x":170520.89000000153,"y":2542918.7799999993}},{"attributes":{"ID":483246,"DIS_CODE":0,"TOWNNAME":"東區","LI":"新東里","LIN":"25鄰","STREET":"裕農路","SECT":" ","MAREA":" ","LANE":" ","ALLEY":" ","HOUSE_NO":"２７號之８","E_COORD97":170528.01999999999,"N_COORD97":2542906.3799999999,"ADDRESS":"裕農路２７號之８","OBJECTID":483221},"geometry":{"x":170528.01999999955,"y":2542906.3800000008}},{"attributes":{"ID":483247,"DIS_CODE":0,"TOWNNAME":"東區","LI":"新東里","LIN":"25鄰","STREET":"裕農路","SECT":" ","MAREA":" ","LANE":" ","ALLEY":" ","HOUSE_NO":"２７號之９","E_COORD97":170538.19,"N_COORD97":2542891.29,"ADDRESS":"裕農路２７號之９","OBJECTID":483222},"geometry":{"x":170538.19000000227,"y":2542891.2899999991}},{"attributes":{"ID":483248,"DIS_CODE":0,"TOWNNAME":"永康區","LI":"\u25A0行里","LIN":"25鄰","STREET":"\u25A0和街","SECT":" ","MAREA":" ","LANE":" ","ALLEY":" ","HOUSE_NO":"２６８號","E_COORD97":171576.07999999999,"N_COORD97":2548399.5,"ADDRESS":"\u25A0和街２６８號","OBJECTID":483223},"geometry":{"x":171576.08000000194,"y":2548399.5000000019}},{"attributes":{"ID":483249,"DIS_CODE":0,"TOWNNAME":"永康區","LI":"安康里","LIN":"25鄰","STREET":"中華路","SECT":" ","MAREA":" ","LANE":" ","ALLEY":" ","HOUSE_NO":"７１９號","E_COORD97":170874.98999999999,"N_COORD97":2546370.4900000002,"ADDRESS":"中華路７１９號","OBJECTID":483224},"geometry":{"x":170874.99000000209,"y":2546370.4899999984}},{"attributes":{"ID":483250,"DIS_CODE":0,"TOWNNAME":"安平區","LI":"怡平里","LIN":"25鄰","STREET":"永華路","SECT":"二段","MAREA":" ","LANE":" ","ALLEY":" ","HOUSE_NO":"４９８號","E_COORD97":165412.14000000001,"N_COORD97":2543510.8199999998,"ADDRESS":"永華路二段４９８號","OBJECTID":483225},"geometry":{"x":165412.1400000006,"y":2543510.8200000022}},{"attributes":{"ID":483251,"DIS_CODE":0,"TOWNNAME":"安平區","LI":"怡平里","LIN":"25鄰","STREET":"永華路","SECT":"二段","MAREA":" ","LANE":" ","ALLEY":" ","HOUSE_NO":"５００號","E_COORD97":165402.95000000001,"N_COORD97":2543513.23,"ADDRESS":"永華路二段５００號","OBJECTID":483226},"geometry":{"x":165402.95000000019,"y":2543513.2300000004}},{"attributes":{"ID":483252,"DIS_CODE":0,"TOWNNAME":"安平區","LI":"怡平里","LIN":"25鄰","STREET":"永華路","SECT":"二段","MAREA":" ","LANE":" ","ALLEY":" ","HOUSE_NO":"５０２號","E_COORD97":165394.89000000001,"N_COORD97":2543514.8500000001,"ADDRESS":"永華路二段５０２號","OBJECTID":483227},"geometry":{"x":165394.8900000006,"y":2543514.8499999996}},{"attributes":{"ID":483253,"DIS_CODE":0,"TOWNNAME":"新營區","LI":"王公里","LIN":"25鄰","STREET":"中正路","SECT":" ","MAREA":" ","LANE":" ","ALLEY":" ","HOUSE_NO":"１３４之７號","E_COORD97":180147.45000000001,"N_COORD97":2579582.0899999999,"ADDRESS":"中正路１３４之７號","OBJECTID":483228},"geometry":{"x":180147.45000000019,"y":2579582.0900000017}},{"attributes":{"ID":483254,"DIS_CODE":0,"TOWNNAME":"安平區","LI":"怡平里","LIN":"25鄰","STREET":"華平路","SECT":" ","MAREA":" ","LANE":" ","ALLEY":" ","HOUSE_NO":"４６２號","E_COORD97":165461.79000000001,"N_COORD97":2543662.1099999999,"ADDRESS":"華平路４６２號","OBJECTID":483229},"geometry":{"x":165461.7900000019,"y":2543662.1099999994}},{"attributes":{"ID":483255,"DIS_CODE":0,"TOWNNAME":"安平區","LI":"怡平里","LIN":"25鄰","STREET":"華平路","SECT":" ","MAREA":" ","LANE":" ","ALLEY":" ","HOUSE_NO":"４６８號","E_COORD97":165465.79999999999,"N_COORD97":2543671.6400000001,"ADDRESS":"華平路４６８號","OBJECTID":483230},"geometry":{"x":165465.79999999981,"y":2543671.6400000025}},{"attributes":{"ID":483256,"DIS_CODE":0,"TOWNNAME":"歸仁區","LI":"歸仁里","LIN":"25鄰","STREET":"忠孝北路","SECT":" ","MAREA":" ","LANE":" ","ALLEY":" ","HOUSE_NO":"１８８號","E_COORD97":178148.51999999999,"N_COORD97":2541182.1099999999,"ADDRESS":"忠孝北路１８８號","OBJECTID":483231},"geometry":{"x":178148.52000000048,"y":2541182.1100000013}},{"attributes":{"ID":483257,"DIS_CODE":0,"TOWNNAME":"歸仁區","LI":"文化里","LIN":"18鄰","STREET":"文化北二街","SECT":" ","MAREA":" ","LANE":" ","ALLEY":" ","HOUSE_NO":"４１號","E_COORD97":177142.81,"N_COORD97":2541462.3399999999,"ADDRESS":"文化北二街４１號","OBJECTID":483232},"geometry":{"x":177142.81000000145,"y":2541462.3400000017}},{"attributes":{"ID":483258,"DIS_CODE":0,"TOWNNAME":"安南區","LI":"溪墘里","LIN":"25鄰","STREET":"府安路","SECT":"五段","MAREA":" ","LANE":" ","ALLEY":" ","HOUSE_NO":"２５０號","E_COORD97":167384.37,"N_COORD97":2546853.5699999998,"ADDRESS":"府安路五段２５０號","OBJECTID":483233},"geometry":{"x":167384.37000000104,"y":2546853.5700000003}},{"attributes":{"ID":483259,"DIS_CODE":0,"TOWNNAME":"安南區","LI":"溪墘里","LIN":"25鄰","STREET":"府安路","SECT":"五段","MAREA":" ","LANE":" ","ALLEY":" ","HOUSE_NO":"２５２號","E_COORD97":167374.19,"N_COORD97":2546851.3199999998,"ADDRESS":"府安路五段２５２號","OBJECTID":483234},"geometry":{"x":167374.19000000041,"y":2546851.3200000022}},{"attributes":{"ID":483260,"DIS_CODE":0,"TOWNNAME":"永康區","LI":"\u25A0洲里","LIN":"25鄰","STREET":"國聖街","SECT":" ","MAREA":" ","LANE":" ","ALLEY":" ","HOUSE_NO":"２０８號","E_COORD97":170651.01000000001,"N_COORD97":2548225.1299999999,"ADDRESS":"國聖街２０８號","OBJECTID":483235},"geometry":{"x":170651.01000000071,"y":2548225.129999999}},{"attributes":{"ID":483261,"DIS_CODE":0,"TOWNNAME":"永康區","LI":"中華里","LIN":"25鄰","STREET":"忠義街","SECT":" ","MAREA":" ","LANE":" ","ALLEY":" ","HOUSE_NO":"８８號","E_COORD97":171732.76999999999,"N_COORD97":2544628.5,"ADDRESS":"忠義街８８號","OBJECTID":483236},"geometry":{"x":171732.76999999955,"y":2544628.5000000019}},{"attributes":{"ID":483262,"DIS_CODE":0,"TOWNNAME":"仁德區","LI":"仁義里","LIN":"25鄰","STREET":"中山路","SECT":" ","MAREA":" ","LANE":" ","ALLEY":" ","HOUSE_NO":"４９４號","E_COORD97":173514.47,"N_COORD97":2541319.7400000002,"ADDRESS":"中山路４９４號","OBJECTID":483237},"geometry":{"x":173514.47000000067,"y":2541319.7400000002}},{"attributes":{"ID":483263,"DIS_CODE":0,"TOWNNAME":"仁德區","LI":"仁義里","LIN":"25鄰","STREET":"正義一街","SECT":" ","MAREA":" ","LANE":" ","ALLEY":" ","HOUSE_NO":"６３號","E_COORD97":173534.79000000001,"N_COORD97":2541382.5099999998,"ADDRESS":"正義一街６３號","OBJECTID":483238},"geometry":{"x":173534.79000000097,"y":2541382.5099999998}},{"attributes":{"ID":483264,"DIS_CODE":0,"TOWNNAME":"仁德區","LI":"仁義里","LIN":"25鄰","STREET":"中清一街","SECT":" ","MAREA":" ","LANE":" ","ALLEY":" ","HOUSE_NO":"２３號","E_COORD97":173633.51000000001,"N_COORD97":2541345.5499999998,"ADDRESS":"中清一街２３號","OBJECTID":483239},"geometry":{"x":173633.50999999978,"y":2541345.5500000007}},{"attributes":{"ID":483265,"DIS_CODE":0,"TOWNNAME":"仁德區","LI":"仁愛里","LIN":"25鄰","STREET":"保仁路","SECT":" ","MAREA":" ","LANE":" ","ALLEY":" ","HOUSE_NO":"３０１號","E_COORD97":169805.56,"N_COORD97":2540068.52,"ADDRESS":"保仁路３０１號","OBJECTID":483240},"geometry":{"x":169805.55999999959,"y":2540068.5200000014}},{"attributes":{"ID":483266,"DIS_CODE":0,"TOWNNAME":"仁德區","LI":"仁義里","LIN":"25鄰","STREET":"中山路","SECT":" ","MAREA":" ","LANE":" ","ALLEY":" ","HOUSE_NO":"４６８號","E_COORD97":173595.63,"N_COORD97":2541309.4900000002,"ADDRESS":"中山路４６８號","OBJECTID":483241},"geometry":{"x":173595.62999999989,"y":2541309.4900000021}},{"attributes":{"ID":483267,"DIS_CODE":0,"TOWNNAME":"東區","LI":"莊敬里","LIN":"25鄰","STREET":"東平路","SECT":" ","MAREA":" ","LANE":" ","ALLEY":" ","HOUSE_NO":"６２號","E_COORD97":171250.32999999999,"N_COORD97":2543949.2400000002,"ADDRESS":"東平路６２號","OBJECTID":483242},"geometry":{"x":171250.33000000007,"y":2543949.2400000021}},{"attributes":{"ID":483268,"DIS_CODE":0,"TOWNNAME":"東區","LI":"忠孝里","LIN":"25鄰","STREET":"崇明三街","SECT":" ","MAREA":" ","LANE":" ","ALLEY":" ","HOUSE_NO":"４０號","E_COORD97":169632.48000000001,"N_COORD97":2542346.96,"ADDRESS":"崇明三街４０號","OBJECTID":483243},"geometry":{"x":169632.48000000045,"y":2542346.959999999}},{"attributes":{"ID":483269,"DIS_CODE":0,"TOWNNAME":"歸仁區","LI":"六甲里","LIN":"15鄰","STREET":"六甲一街","SECT":" ","MAREA":" ","LANE":" ","ALLEY":" ","HOUSE_NO":"３６號","E_COORD97":175838.17000000001,"N_COORD97":2539127.25,"ADDRESS":"六甲一街３６號","OBJECTID":483244},"geometry":{"x":175838.16999999993,"y":2539127.2500000019}},{"attributes":{"ID":483270,"DIS_CODE":0,"TOWNNAME":"永康區","LI":"龍潭里","LIN":"25鄰","STREET":"龍昌街","SECT":" ","MAREA":" ","LANE":" ","ALLEY":" ","HOUSE_NO":"３４號","E_COORD97":175018.94,"N_COORD97":2547834.7799999998,"ADDRESS":"龍昌街３４號","OBJECTID":483245},"geometry":{"x":175018.94000000134,"y":2547834.7799999993}},{"attributes":{"ID":483271,"DIS_CODE":0,"TOWNNAME":"永康區","LI":"龍潭里","LIN":"25鄰","STREET":"龍昌街","SECT":" ","MAREA":" ","LANE":" ","ALLEY":" ","HOUSE_NO":"４０號","E_COORD97":175019.14000000001,"N_COORD97":2547846.7799999998,"ADDRESS":"龍昌街４０號","OBJECTID":483246},"geometry":{"x":175019.13999999966,"y":2547846.7800000012}},{"attributes":{"ID":483272,"DIS_CODE":0,"TOWNNAME":"永康區","LI":"三合里","LIN":"25鄰","STREET":"中山東路","SECT":" ","MAREA":" ","LANE":" ","ALLEY":" ","HOUSE_NO":"１５５號","E_COORD97":171794.14000000001,"N_COORD97":2545764.6099999999,"ADDRESS":"中山東路１５５號","OBJECTID":483247},"geometry":{"x":171794.1400000006,"y":2545764.6099999994}},{"attributes":{"ID":483273,"DIS_CODE":0,"TOWNNAME":"永康區","LI":"三合里","LIN":"25鄰","STREET":"中山東路","SECT":" ","MAREA":" ","LANE":" ","ALLEY":" ","HOUSE_NO":"１１５號","E_COORD97":171763.66,"N_COORD97":2545885.4900000002,"ADDRESS":"中山東路１１５號","OBJECTID":483248},"geometry":{"x":171763.66000000015,"y":2545885.4900000002}},{"attributes":{"ID":483274,"DIS_CODE":0,"TOWNNAME":"永康區","LI":"三合里","LIN":"25鄰","STREET":"中山東路","SECT":" ","MAREA":" ","LANE":" ","ALLEY":" ","HOUSE_NO":"１１７號","E_COORD97":171764.57000000001,"N_COORD97":2545880.7400000002,"ADDRESS":"中山東路１１７號","OBJECTID":483249},"geometry":{"x":171764.57000000216,"y":2545880.7400000039}},{"attributes":{"ID":483275,"DIS_CODE":0,"TOWNNAME":"東區","LI":"崇德里","LIN":"25鄰","STREET":"崇道路","SECT":" ","MAREA":" ","LANE":" ","ALLEY":" ","HOUSE_NO":"６３號","E_COORD97":170758.87,"N_COORD97":2541421.1600000001,"ADDRESS":"崇道路６３號","OBJECTID":483250},"geometry":{"x":170758.87000000197,"y":2541421.160000002}},{"attributes":{"ID":483276,"DIS_CODE":0,"TOWNNAME":"中西區","LI":"法華里","LIN":"25鄰","STREET":"五妃街","SECT":" ","MAREA":" ","LANE":" ","ALLEY":" ","HOUSE_NO":"１８７號","E_COORD97":168577.75,"N_COORD97":2542567.2799999998,"ADDRESS":"五妃街１８７號","OBJECTID":483251},"geometry":{"x":168577.75000000186,"y":2542567.2800000031}},{"attributes":{"ID":483277,"DIS_CODE":0,"TOWNNAME":"仁德區","LI":"成功里","LIN":"25鄰","STREET":"成功一街","SECT":" ","MAREA":" ","LANE":" ","ALLEY":" ","HOUSE_NO":"５８號","E_COORD97":170522.66,"N_COORD97":2539904.52,"ADDRESS":"成功一街５８號","OBJECTID":483252},"geometry":{"x":170522.66000000015,"y":2539904.5200000033}},{"attributes":{"ID":483278,"DIS_CODE":0,"TOWNNAME":"仁德區","LI":"成功里","LIN":"25鄰","STREET":"保華路","SECT":" ","MAREA":" ","LANE":" ","ALLEY":" ","HOUSE_NO":"３０５號","E_COORD97":170513.66,"N_COORD97":2539968.2400000002,"ADDRESS":"保華路３０５號","OBJECTID":483253},"geometry":{"x":170513.66000000015,"y":2539968.2400000021}},{"attributes":{"ID":483279,"DIS_CODE":0,"TOWNNAME":"永康區","LI":"龍潭里","LIN":"25鄰","STREET":"中山北路","SECT":" ","MAREA":" ","LANE":" ","ALLEY":" ","HOUSE_NO":"４０３號","E_COORD97":174929.64000000001,"N_COORD97":2547723.4300000002,"ADDRESS":"中山北路４０３號","OBJECTID":483254},"geometry":{"x":174929.63999999966,"y":2547723.4300000034}},{"attributes":{"ID":483280,"DIS_CODE":0,"TOWNNAME":"永康區","LI":"龍潭里","LIN":"25鄰","STREET":"中山北路","SECT":" ","MAREA":" ","LANE":" ","ALLEY":" ","HOUSE_NO":"４０５號","E_COORD97":174933.98999999999,"N_COORD97":2547724.0600000001,"ADDRESS":"中山北路４０５號","OBJECTID":483255},"geometry":{"x":174933.99000000115,"y":2547724.0600000024}},{"attributes":{"ID":483281,"DIS_CODE":0,"TOWNNAME":"永康區","LI":"龍潭里","LIN":"25鄰","STREET":"中山北路","SECT":" ","MAREA":" ","LANE":" ","ALLEY":" ","HOUSE_NO":"４０７號","E_COORD97":174938.34,"N_COORD97":2547724.6800000002,"ADDRESS":"中山北路４０７號","OBJECTID":483256},"geometry":{"x":174938.33999999985,"y":2547724.6799999997}},{"attributes":{"ID":483282,"DIS_CODE":0,"TOWNNAME":"永康區","LI":"龍潭里","LIN":"25鄰","STREET":"中山北路","SECT":" ","MAREA":" ","LANE":" ","ALLEY":" ","HOUSE_NO":"４０９號","E_COORD97":174942.69,"N_COORD97":2547725.3100000001,"ADDRESS":"中山北路４０９號","OBJECTID":483257},"geometry":{"x":174942.69000000134,"y":2547725.3100000024}},{"attributes":{"ID":483283,"DIS_CODE":0,"TOWNNAME":"永康區","LI":"龍潭里","LIN":"25鄰","STREET":"中山北路","SECT":" ","MAREA":" ","LANE":" ","ALLEY":" ","HOUSE_NO":"４１１號","E_COORD97":174946.62,"N_COORD97":2547725.1699999999,"ADDRESS":"中山北路４１１號","OBJECTID":483258},"geometry":{"x":174946.62000000104,"y":2547725.1699999981}},{"attributes":{"ID":483284,"DIS_CODE":0,"TOWNNAME":"仁德區","LI":"後壁里","LIN":"25鄰","STREET":"德洋一街","SECT":" ","MAREA":" ","LANE":" ","ALLEY":" ","HOUSE_NO":"１１號","E_COORD97":173055.60999999999,"N_COORD97":2539124.7599999998,"ADDRESS":"德洋一街１１號","OBJECTID":483259},"geometry":{"x":173055.61000000034,"y":2539124.7600000016}},{"attributes":{"ID":483285,"DIS_CODE":0,"TOWNNAME":"仁德區","LI":"後壁里","LIN":"25鄰","STREET":"德洋路","SECT":" ","MAREA":" ","LANE":" ","ALLEY":" ","HOUSE_NO":"４６之１號","E_COORD97":173072.97,"N_COORD97":2539073.5499999998,"ADDRESS":"德洋路４６之１號","OBJECTID":483260},"geometry":{"x":173072.96999999974,"y":2539073.5500000007}},{"attributes":{"ID":483286,"DIS_CODE":0,"TOWNNAME":"永康區","LI":"北灣里","LIN":"25鄰","STREET":"大灣路","SECT":" ","MAREA":" ","LANE":" ","ALLEY":" ","HOUSE_NO":"１４１號","E_COORD97":175076.95000000001,"N_COORD97":2545471.8399999999,"ADDRESS":"大灣路１４１號","OBJECTID":483261},"geometry":{"x":175076.95000000019,"y":2545471.8399999999}},{"attributes":{"ID":483287,"DIS_CODE":0,"TOWNNAME":"永康區","LI":"北灣里","LIN":"25鄰","STREET":"大灣路","SECT":" ","MAREA":" ","LANE":" ","ALLEY":" ","HOUSE_NO":"２０１號","E_COORD97":174995.34,"N_COORD97":2545344.04,"ADDRESS":"大灣路２０１號","OBJECTID":483262},"geometry":{"x":174995.34000000078,"y":2545344.0399999991}},{"attributes":{"ID":483288,"DIS_CODE":0,"TOWNNAME":"永康區","LI":"北灣里","LIN":"25鄰","STREET":"大灣路","SECT":" ","MAREA":" ","LANE":" ","ALLEY":" ","HOUSE_NO":"１８５號","E_COORD97":175020.84,"N_COORD97":2545383.1699999999,"ADDRESS":"大灣路１８５號","OBJECTID":483263},"geometry":{"x":175020.84000000078,"y":2545383.1700000018}},{"attributes":{"ID":483289,"DIS_CODE":0,"TOWNNAME":"永康區","LI":"北灣里","LIN":"25鄰","STREET":"大灣路","SECT":" ","MAREA":" ","LANE":" ","ALLEY":" ","HOUSE_NO":"１６３號","E_COORD97":175043.54000000001,"N_COORD97":2545420.8399999999,"ADDRESS":"大灣路１６３號","OBJECTID":483264},"geometry":{"x":175043.54000000097,"y":2545420.8399999999}},{"attributes":{"ID":483290,"DIS_CODE":0,"TOWNNAME":"永康區","LI":"北灣里","LIN":"25鄰","STREET":"大灣路","SECT":" ","MAREA":" ","LANE":" ","ALLEY":" ","HOUSE_NO":"１６７號","E_COORD97":175038.79999999999,"N_COORD97":2545412.1200000001,"ADDRESS":"大灣路１６７號","OBJECTID":483265},"geometry":{"x":175038.79999999981,"y":2545412.1200000029}},{"attributes":{"ID":483291,"DIS_CODE":0,"TOWNNAME":"永康區","LI":"五王里","LIN":"25鄰","STREET":"五福街","SECT":" ","MAREA":" ","LANE":" ","ALLEY":" ","HOUSE_NO":"５６號","E_COORD97":171373.87,"N_COORD97":2545892.5600000001,"ADDRESS":"五福街５６號","OBJECTID":483266},"geometry":{"x":171373.87000000011,"y":2545892.5600000042}},{"attributes":{"ID":483292,"DIS_CODE":0,"TOWNNAME":"永康區","LI":"北灣里","LIN":"25鄰","STREET":"大灣六街","SECT":" ","MAREA":" ","LANE":" ","ALLEY":" ","HOUSE_NO":"９６號","E_COORD97":175080.16,"N_COORD97":2545331.4399999999,"ADDRESS":"大灣六街９６號","OBJECTID":483267},"geometry":{"x":175080.16000000108,"y":2545331.4399999995}},{"attributes":{"ID":483293,"DIS_CODE":0,"TOWNNAME":"永康區","LI":"北灣里","LIN":"25鄰","STREET":"大同街","SECT":" ","MAREA":" ","LANE":" ","ALLEY":" ","HOUSE_NO":"３９號","E_COORD97":175234.73000000001,"N_COORD97":2545411.75,"ADDRESS":"大同街３９號","OBJECTID":483268},"geometry":{"x":175234.73000000045,"y":2545411.75}},{"attributes":{"ID":483294,"DIS_CODE":0,"TOWNNAME":"永康區","LI":"五王里","LIN":"25鄰","STREET":"五福街","SECT":" ","MAREA":" ","LANE":" ","ALLEY":" ","HOUSE_NO":"６２號","E_COORD97":171386.57999999999,"N_COORD97":2545901.0600000001,"ADDRESS":"五福街６２號","OBJECTID":483269},"geometry":{"x":171386.58000000101,"y":2545901.0600000005}},{"attributes":{"ID":483295,"DIS_CODE":0,"TOWNNAME":"永康區","LI":"正強里","LIN":"25鄰","STREET":"中正路","SECT":" ","MAREA":" ","LANE":" ","ALLEY":" ","HOUSE_NO":"１４９號","E_COORD97":173305.73999999999,"N_COORD97":2547880,"ADDRESS":"中正路１４９號","OBJECTID":483270},"geometry":{"x":173305.74000000022,"y":2547880.0000000019}},{"attributes":{"ID":483296,"DIS_CODE":0,"TOWNNAME":"新市區","LI":"新和里","LIN":"25鄰","STREET":"仁愛街","SECT":" ","MAREA":" ","LANE":" ","ALLEY":" ","HOUSE_NO":"２４６號","E_COORD97":177623.81,"N_COORD97":2552857.5299999998,"ADDRESS":"仁愛街２４６號","OBJECTID":483271},"geometry":{"x":177623.80999999959,"y":2552857.5299999993}},{"attributes":{"ID":483297,"DIS_CODE":0,"TOWNNAME":"中西區","LI":"西賢里","LIN":"25鄰","STREET":"民權路","SECT":"四段","MAREA":" ","LANE":" ","ALLEY":" ","HOUSE_NO":"４７０號","E_COORD97":165284.64999999999,"N_COORD97":2544512.5899999999,"ADDRESS":"民權路四段４７０號","OBJECTID":483272},"geometry":{"x":165284.65000000037,"y":2544512.5900000017}},{"attributes":{"ID":483298,"DIS_CODE":0,"TOWNNAME":"中西區","LI":"西賢里","LIN":"25鄰","STREET":"民權路","SECT":"四段","MAREA":" ","LANE":" ","ALLEY":" ","HOUSE_NO":"４７２號","E_COORD97":165261.35000000001,"N_COORD97":2544521.0099999998,"ADDRESS":"民權路四段４７２號","OBJECTID":483273},"geometry":{"x":165261.35000000056,"y":2544521.0099999998}},{"attributes":{"ID":483299,"DIS_CODE":0,"TOWNNAME":"中西區","LI":"西賢里","LIN":"25鄰","STREET":"民權路","SECT":"四段","MAREA":" ","LANE":" ","ALLEY":" ","HOUSE_NO":"４７６號","E_COORD97":165243.41,"N_COORD97":2544522.9199999999,"ADDRESS":"民權路四段４７６號","OBJECTID":483274},"geometry":{"x":165243.41000000015,"y":2544522.9199999981}},{"attributes":{"ID":483300,"DIS_CODE":0,"TOWNNAME":"中西區","LI":"西賢里","LIN":"25鄰","STREET":"民權路","SECT":"四段","MAREA":" ","LANE":" ","ALLEY":" ","HOUSE_NO":"４７８號","E_COORD97":165239.17999999999,"N_COORD97":2544524.7200000002,"ADDRESS":"民權路四段４７８號","OBJECTID":483275},"geometry":{"x":165239.18000000063,"y":2544524.7200000007}},{"attributes":{"ID":483301,"DIS_CODE":0,"TOWNNAME":"中西區","LI":"西賢里","LIN":"25鄰","STREET":"民權路","SECT":"四段","MAREA":" ","LANE":" ","ALLEY":" ","HOUSE_NO":"４８０號","E_COORD97":165234.39999999999,"N_COORD97":2544525.7999999998,"ADDRESS":"民權路四段４８０號","OBJECTID":483276},"geometry":{"x":165234.4000000013,"y":2544525.8000000026}},{"attributes":{"ID":483302,"DIS_CODE":0,"TOWNNAME":"中西區","LI":"西賢里","LIN":"25鄰","STREET":"民權路","SECT":"四段","MAREA":" ","LANE":" ","ALLEY":" ","HOUSE_NO":"４８２號","E_COORD97":165229.45000000001,"N_COORD97":2544527.6000000001,"ADDRESS":"民權路四段４８２號","OBJECTID":483277},"geometry":{"x":165229.45000000112,"y":2544527.5999999996}},{"attributes":{"ID":483303,"DIS_CODE":0,"TOWNNAME":"中西區","LI":"天后里","LIN":"25鄰","STREET":"新美街","SECT":" ","MAREA":" ","LANE":" ","ALLEY":" ","HOUSE_NO":"２９４號","E_COORD97":168167.63,"N_COORD97":2544348.4900000002,"ADDRESS":"新美街２９４號","OBJECTID":483278},"geometry":{"x":168167.62999999989,"y":2544348.4900000002}},{"attributes":{"ID":483304,"DIS_CODE":0,"TOWNNAME":"中西區","LI":"西賢里","LIN":"25鄰","STREET":"民權路","SECT":"四段","MAREA":" ","LANE":" ","ALLEY":" ","HOUSE_NO":"４８２號之１","E_COORD97":165225.67000000001,"N_COORD97":2544529.3999999999,"ADDRESS":"民權路四段４８２號之１","OBJECTID":483279},"geometry":{"x":165225.67000000086,"y":2544529.4000000004}},{"attributes":{"ID":483305,"DIS_CODE":0,"TOWNNAME":"中西區","LI":"西賢里","LIN":"25鄰","STREET":"民權路","SECT":"四段","MAREA":" ","LANE":" ","ALLEY":" ","HOUSE_NO":"４８６號","E_COORD97":165221.17000000001,"N_COORD97":2544530.0299999998,"ADDRESS":"民權路四段４８６號","OBJECTID":483280},"geometry":{"x":165221.16999999993,"y":2544530.0300000012}},{"attributes":{"ID":483306,"DIS_CODE":0,"TOWNNAME":"中西區","LI":"西賢里","LIN":"25鄰","STREET":"民權路","SECT":"四段","MAREA":" ","LANE":" ","ALLEY":" ","HOUSE_NO":"４８８號","E_COORD97":165217.25,"N_COORD97":2544531.6899999999,"ADDRESS":"民權路四段４８８號","OBJECTID":483281},"geometry":{"x":165217.25,"y":2544531.6900000013}},{"attributes":{"ID":483307,"DIS_CODE":0,"TOWNNAME":"中西區","LI":"西賢里","LIN":"25鄰","STREET":"民權路","SECT":"四段","MAREA":" ","LANE":" ","ALLEY":" ","HOUSE_NO":"４９０號","E_COORD97":165213.64999999999,"N_COORD97":2544533.2200000002,"ADDRESS":"民權路四段４９０號","OBJECTID":483282},"geometry":{"x":165213.65000000037,"y":2544533.2200000025}},{"attributes":{"ID":483308,"DIS_CODE":0,"TOWNNAME":"中西區","LI":"西賢里","LIN":"25鄰","STREET":"民權路","SECT":"四段","MAREA":" ","LANE":" ","ALLEY":" ","HOUSE_NO":"４９２號","E_COORD97":165208.51999999999,"N_COORD97":2544535.29,"ADDRESS":"民權路四段４９２號","OBJECTID":483283},"geometry":{"x":165208.51999999955,"y":2544535.2899999991}},{"attributes":{"ID":483309,"DIS_CODE":0,"TOWNNAME":"中西區","LI":"西賢里","LIN":"25鄰","STREET":"民權路","SECT":"四段","MAREA":" ","LANE":" ","ALLEY":" ","HOUSE_NO":"４９４號","E_COORD97":165204.64999999999,"N_COORD97":2544537,"ADDRESS":"民權路四段４９４號","OBJECTID":483284},"geometry":{"x":165204.65000000037,"y":2544537.0000000019}},{"attributes":{"ID":483310,"DIS_CODE":0,"TOWNNAME":"中西區","LI":"西賢里","LIN":"25鄰","STREET":"民權路","SECT":"四段","MAREA":" ","LANE":" ","ALLEY":" ","HOUSE_NO":"４９６號","E_COORD97":165200.32999999999,"N_COORD97":2544539.4199999999,"ADDRESS":"民權路四段４９６號","OBJECTID":483285},"geometry":{"x":165200.33000000007,"y":2544539.4199999999}},{"attributes":{"ID":483311,"DIS_CODE":0,"TOWNNAME":"中西區","LI":"西賢里","LIN":"25鄰","STREET":"民權路","SECT":"四段","MAREA":" ","LANE":" ","ALLEY":" ","HOUSE_NO":"４９８號","E_COORD97":165195.54999999999,"N_COORD97":2544541.6699999999,"ADDRESS":"民權路四段４９８號","OBJECTID":483286},"geometry":{"x":165195.55000000075,"y":2544541.6700000037}},{"attributes":{"ID":483312,"DIS_CODE":0,"TOWNNAME":"中西區","LI":"西賢里","LIN":"25鄰","STREET":"西賢五街","SECT":" ","MAREA":" ","LANE":" ","ALLEY":" ","HOUSE_NO":"１０號","E_COORD97":165200.09,"N_COORD97":2544566.4500000002,"ADDRESS":"西賢五街１０號","OBJECTID":483287},"geometry":{"x":165200.08999999892,"y":2544566.450000003}},{"attributes":{"ID":483313,"DIS_CODE":0,"TOWNNAME":"中西區","LI":"西賢里","LIN":"25鄰","STREET":"西賢五街","SECT":" ","MAREA":" ","LANE":" ","ALLEY":" ","HOUSE_NO":"１２號","E_COORD97":165200.69,"N_COORD97":2544570.2999999998,"ADDRESS":"西賢五街１２號","OBJECTID":483288},"geometry":{"x":165200.69000000134,"y":2544570.3000000026}},{"attributes":{"ID":483314,"DIS_CODE":0,"TOWNNAME":"中西區","LI":"西賢里","LIN":"25鄰","STREET":"西賢五街","SECT":" ","MAREA":" ","LANE":" ","ALLEY":" ","HOUSE_NO":"１６號","E_COORD97":165201.29999999999,"N_COORD97":2544573.7400000002,"ADDRESS":"西賢五街１６號","OBJECTID":483289},"geometry":{"x":165201.29999999981,"y":2544573.7400000021}},{"attributes":{"ID":483315,"DIS_CODE":0,"TOWNNAME":"中西區","LI":"西賢里","LIN":"25鄰","STREET":"西賢五街","SECT":" ","MAREA":" ","LANE":" ","ALLEY":" ","HOUSE_NO":"１８號","E_COORD97":165201.91,"N_COORD97":2544581.6400000001,"ADDRESS":"西賢五街１８號","OBJECTID":483290},"geometry":{"x":165201.91000000108,"y":2544581.6400000025}},{"attributes":{"ID":483316,"DIS_CODE":0,"TOWNNAME":"中西區","LI":"西賢里","LIN":"25鄰","STREET":"西賢五街","SECT":" ","MAREA":" ","LANE":" ","ALLEY":" ","HOUSE_NO":"２０號","E_COORD97":165203.32999999999,"N_COORD97":2544586.2999999998,"ADDRESS":"西賢五街２０號","OBJECTID":483291},"geometry":{"x":165203.33000000007,"y":2544586.3000000026}},{"attributes":{"ID":483317,"DIS_CODE":0,"TOWNNAME":"中西區","LI":"西賢里","LIN":"25鄰","STREET":"西賢五街","SECT":" ","MAREA":" ","LANE":" ","ALLEY":" ","HOUSE_NO":"２２號","E_COORD97":165203.73999999999,"N_COORD97":2544589.9399999999,"ADDRESS":"西賢五街２２號","OBJECTID":483292},"geometry":{"x":165203.74000000115,"y":2544589.9399999995}},{"attributes":{"ID":483318,"DIS_CODE":0,"TOWNNAME":"中西區","LI":"西賢里","LIN":"25鄰","STREET":"西賢五街","SECT":" ","MAREA":" ","LANE":" ","ALLEY":" ","HOUSE_NO":"２６號","E_COORD97":165204.54999999999,"N_COORD97":2544592.7799999998,"ADDRESS":"西賢五街２６號","OBJECTID":483293},"geometry":{"x":165204.55000000075,"y":2544592.7800000012}},{"attributes":{"ID":483319,"DIS_CODE":0,"TOWNNAME":"中西區","LI":"西賢里","LIN":"25鄰","STREET":"西賢五街","SECT":" ","MAREA":" ","LANE":" ","ALLEY":" ","HOUSE_NO":"２８號","E_COORD97":165205.14999999999,"N_COORD97":2544597.6400000001,"ADDRESS":"西賢五街２８號","OBJECTID":483294},"geometry":{"x":165205.15000000037,"y":2544597.6400000025}},{"attributes":{"ID":483320,"DIS_CODE":0,"TOWNNAME":"中西區","LI":"西賢里","LIN":"25鄰","STREET":"西賢五街","SECT":" ","MAREA":" ","LANE":" ","ALLEY":" ","HOUSE_NO":"２號","E_COORD97":165196.64000000001,"N_COORD97":2544554.5,"ADDRESS":"西賢五街２號","OBJECTID":483295},"geometry":{"x":165196.6400000006,"y":2544554.5000000019}},{"attributes":{"ID":483321,"DIS_CODE":0,"TOWNNAME":"中西區","LI":"西賢里","LIN":"25鄰","STREET":"西賢五街","SECT":" ","MAREA":" ","LANE":" ","ALLEY":" ","HOUSE_NO":"３０號","E_COORD97":165205.64999999999,"N_COORD97":2544601.8900000001,"ADDRESS":"西賢五街３０號","OBJECTID":483296},"geometry":{"x":165205.6500000013,"y":2544601.8900000043}},{"attributes":{"ID":483322,"DIS_CODE":0,"TOWNNAME":"中西區","LI":"西賢里","LIN":"25鄰","STREET":"西賢五街","SECT":" ","MAREA":" ","LANE":" ","ALLEY":" ","HOUSE_NO":"３２號","E_COORD97":165208.70999999999,"N_COORD97":2544607.48,"ADDRESS":"西賢五街３２號","OBJECTID":483297},"geometry":{"x":165208.71000000089,"y":2544607.4800000004}},{"attributes":{"ID":483323,"DIS_CODE":0,"TOWNNAME":"永康區","LI":"西橋里","LIN":"25鄰","STREET":"中華路","SECT":" ","MAREA":" ","LANE":" ","ALLEY":" ","HOUSE_NO":"７７９號","E_COORD97":170662.42999999999,"N_COORD97":2546542.75,"ADDRESS":"中華路７７９號","OBJECTID":483298},"geometry":{"x":170662.4299999997,"y":2546542.7500000019}},{"attributes":{"ID":483324,"DIS_CODE":0,"TOWNNAME":"永康區","LI":"西橋里","LIN":"25鄰","STREET":"中華路","SECT":" ","MAREA":" ","LANE":" ","ALLEY":" ","HOUSE_NO":"７９９號","E_COORD97":170579.10000000001,"N_COORD97":2546597.7400000002,"ADDRESS":"中華路７９９號","OBJECTID":483299},"geometry":{"x":170579.10000000056,"y":2546597.7400000021}},{"attributes":{"ID":483325,"DIS_CODE":0,"TOWNNAME":"永康區","LI":"東橋里","LIN":"25鄰","STREET":"中正路","SECT":" ","MAREA":" ","LANE":" ","ALLEY":" ","HOUSE_NO":"２２９號之３","E_COORD97":172989.26999999999,"N_COORD97":2547995.1499999999,"ADDRESS":"中正路２２９號之３","OBJECTID":483300},"geometry":{"x":172989.26999999955,"y":2547995.1500000022}},{"attributes":{"ID":483326,"DIS_CODE":0,"TOWNNAME":"東區","LI":"仁和里","LIN":"25鄰","STREET":"利東街","SECT":" ","MAREA":" ","LANE":" ","ALLEY":" ","HOUSE_NO":"２９號","E_COORD97":171673.54000000001,"N_COORD97":2541124.0099999998,"ADDRESS":"利東街２９號","OBJECTID":483301},"geometry":{"x":171673.54000000097,"y":2541124.0099999998}},{"attributes":{"ID":483327,"DIS_CODE":0,"TOWNNAME":"永康區","LI":"北灣里","LIN":"25鄰","STREET":"大灣路","SECT":" ","MAREA":" ","LANE":" ","ALLEY":" ","HOUSE_NO":"１９７號","E_COORD97":175001.70000000001,"N_COORD97":2545353.9100000001,"ADDRESS":"大灣路１９７號","OBJECTID":483302},"geometry":{"x":175001.70000000112,"y":2545353.9100000039}},{"attributes":{"ID":483328,"DIS_CODE":0,"TOWNNAME":"中西區","LI":"天后里","LIN":"25鄰","STREET":"新美街","SECT":" ","MAREA":" ","LANE":" ","ALLEY":" ","HOUSE_NO":"２７２號","E_COORD97":168198.09,"N_COORD97":2544322.2799999998,"ADDRESS":"新美街２７２號","OBJECTID":483303},"geometry":{"x":168198.09000000078,"y":2544322.2799999993}},{"attributes":{"ID":483329,"DIS_CODE":0,"TOWNNAME":"中西區","LI":"天后里","LIN":"25鄰","STREET":"新美街","SECT":" ","MAREA":" ","LANE":" ","ALLEY":" ","HOUSE_NO":"２７４號","E_COORD97":168194.45000000001,"N_COORD97":2544324.23,"ADDRESS":"新美街２７４號","OBJECTID":483304},"geometry":{"x":168194.45000000019,"y":2544324.2300000004}},{"attributes":{"ID":483330,"DIS_CODE":0,"TOWNNAME":"中西區","LI":"天后里","LIN":"25鄰","STREET":"新美街","SECT":" ","MAREA":" ","LANE":" ","ALLEY":" ","HOUSE_NO":"２７６號","E_COORD97":168191.79999999999,"N_COORD97":2544325.6299999999,"ADDRESS":"新美街２７６號","OBJECTID":483305},"geometry":{"x":168191.79999999981,"y":2544325.6300000008}},{"attributes":{"ID":483331,"DIS_CODE":0,"TOWNNAME":"中西區","LI":"天后里","LIN":"25鄰","STREET":"新美街","SECT":" ","MAREA":" ","LANE":" ","ALLEY":" ","HOUSE_NO":"２７８號","E_COORD97":168187.73999999999,"N_COORD97":2544327.1699999999,"ADDRESS":"新美街２７８號","OBJECTID":483306},"geometry":{"x":168187.74000000022,"y":2544327.1699999999}},{"attributes":{"ID":483332,"DIS_CODE":0,"TOWNNAME":"中西區","LI":"天后里","LIN":"25鄰","STREET":"新美街","SECT":" ","MAREA":" ","LANE":" ","ALLEY":" ","HOUSE_NO":"２８０號","E_COORD97":168184.66,"N_COORD97":2544328.8500000001,"ADDRESS":"新美街２８０號","OBJECTID":483307},"geometry":{"x":168184.66000000015,"y":2544328.8499999996}},{"attributes":{"ID":483333,"DIS_CODE":0,"TOWNNAME":"中西區","LI":"天后里","LIN":"25鄰","STREET":"新美街","SECT":" ","MAREA":" ","LANE":" ","ALLEY":" ","HOUSE_NO":"２８２號","E_COORD97":168180.19,"N_COORD97":2544329.6800000002,"ADDRESS":"新美街２８２號","OBJECTID":483308},"geometry":{"x":168180.19000000227,"y":2544329.6799999997}},{"attributes":{"ID":483334,"DIS_CODE":0,"TOWNNAME":"中西區","LI":"天后里","LIN":"25鄰","STREET":"新美街","SECT":" ","MAREA":" ","LANE":" ","ALLEY":" ","HOUSE_NO":"２８４號","E_COORD97":168163.89999999999,"N_COORD97":2544335.1600000001,"ADDRESS":"新美街２８４號","OBJECTID":483309},"geometry":{"x":168163.9000000013,"y":2544335.1600000039}},{"attributes":{"ID":483335,"DIS_CODE":0,"TOWNNAME":"中西區","LI":"天后里","LIN":"25鄰","STREET":"新美街","SECT":" ","MAREA":" ","LANE":" ","ALLEY":" ","HOUSE_NO":"２８６號","E_COORD97":168166.54999999999,"N_COORD97":2544339.3700000001,"ADDRESS":"新美街２８６號","OBJECTID":483310},"geometry":{"x":168166.54999999981,"y":2544339.3700000029}},{"attributes":{"ID":483336,"DIS_CODE":0,"TOWNNAME":"中西區","LI":"天后里","LIN":"25鄰","STREET":"新美街","SECT":" ","MAREA":" ","LANE":" ","ALLEY":" ","HOUSE_NO":"２８８號","E_COORD97":168204.51999999999,"N_COORD97":2544332.6200000001,"ADDRESS":"新美街２８８號","OBJECTID":483311},"geometry":{"x":168204.52000000048,"y":2544332.620000001}},{"attributes":{"ID":483337,"DIS_CODE":0,"TOWNNAME":"中西區","LI":"天后里","LIN":"25鄰","STREET":"新美街","SECT":" ","MAREA":" ","LANE":" ","ALLEY":" ","HOUSE_NO":"２９０號","E_COORD97":168185.64999999999,"N_COORD97":2544344.1699999999,"ADDRESS":"新美街２９０號","OBJECTID":483312},"geometry":{"x":168185.65000000224,"y":2544344.1699999999}},{"attributes":{"ID":483338,"DIS_CODE":0,"TOWNNAME":"中西區","LI":"天后里","LIN":"25鄰","STREET":"新美街","SECT":" ","MAREA":" ","LANE":" ","ALLEY":" ","HOUSE_NO":"２９２號","E_COORD97":168167.26999999999,"N_COORD97":2544345.1299999999,"ADDRESS":"新美街２９２號","OBJECTID":483313},"geometry":{"x":168167.27000000048,"y":2544345.1300000008}},{"attributes":{"ID":483339,"DIS_CODE":0,"TOWNNAME":"中西區","LI":"天后里","LIN":"25鄰","STREET":"新美街","SECT":" ","MAREA":" ","LANE":" ","ALLEY":" ","HOUSE_NO":"２９６號","E_COORD97":168168.59,"N_COORD97":2544352.4500000002,"ADDRESS":"新美街２９６號","OBJECTID":483314},"geometry":{"x":168168.59000000171,"y":2544352.4499999974}},{"attributes":{"ID":483340,"DIS_CODE":0,"TOWNNAME":"中西區","LI":"天后里","LIN":"25鄰","STREET":"新美街","SECT":" ","MAREA":" ","LANE":" ","ALLEY":" ","HOUSE_NO":"２９８號","E_COORD97":168170.75,"N_COORD97":2544355.3300000001,"ADDRESS":"新美街２９８號","OBJECTID":483315},"geometry":{"x":168170.75,"y":2544355.3300000019}},{"attributes":{"ID":483341,"DIS_CODE":0,"TOWNNAME":"中西區","LI":"天后里","LIN":"25鄰","STREET":"新美街","SECT":" ","MAREA":" ","LANE":" ","ALLEY":" ","HOUSE_NO":"３００號","E_COORD97":168173.03,"N_COORD97":2544360.3799999999,"ADDRESS":"新美街３００號","OBJECTID":483316},"geometry":{"x":168173.03000000119,"y":2544360.3800000008}},{"attributes":{"ID":483342,"DIS_CODE":0,"TOWNNAME":"中西區","LI":"天后里","LIN":"25鄰","STREET":"新美街","SECT":" ","MAREA":" ","LANE":" ","ALLEY":" ","HOUSE_NO":"３０２號","E_COORD97":168183.82999999999,"N_COORD97":2544354.5600000001,"ADDRESS":"新美街３０２號","OBJECTID":483317},"geometry":{"x":168183.83000000007,"y":2544354.5600000024}},{"attributes":{"ID":483343,"DIS_CODE":0,"TOWNNAME":"中西區","LI":"天后里","LIN":"25鄰","STREET":"新美街","SECT":" ","MAREA":" ","LANE":" ","ALLEY":" ","HOUSE_NO":"３０４號","E_COORD97":168197.25,"N_COORD97":2544350.79,"ADDRESS":"新美街３０４號","OBJECTID":483318},"geometry":{"x":168197.25,"y":2544350.790000001}},{"attributes":{"ID":483344,"DIS_CODE":0,"TOWNNAME":"中西區","LI":"天后里","LIN":"25鄰","STREET":"新美街","SECT":" ","MAREA":" ","LANE":" ","ALLEY":" ","HOUSE_NO":"３０６號","E_COORD97":168202.29000000001,"N_COORD97":2544349.1099999999,"ADDRESS":"新美街３０６號","OBJECTID":483319},"geometry":{"x":168202.29000000004,"y":2544349.1100000013}},{"attributes":{"ID":483345,"DIS_CODE":0,"TOWNNAME":"中西區","LI":"天后里","LIN":"25鄰","STREET":"新美街","SECT":" ","MAREA":" ","LANE":" ","ALLEY":" ","HOUSE_NO":"３０８號","E_COORD97":168210.04000000001,"N_COORD97":2544353.7999999998,"ADDRESS":"新美街３０８號","OBJECTID":483320},"geometry":{"x":168210.04000000097,"y":2544353.8000000007}},{"attributes":{"ID":483346,"DIS_CODE":0,"TOWNNAME":"中西區","LI":"天后里","LIN":"25鄰","STREET":"新美街","SECT":" ","MAREA":" ","LANE":" ","ALLEY":" ","HOUSE_NO":"３１０號","E_COORD97":168202.35999999999,"N_COORD97":2544356.9700000002,"ADDRESS":"新美街３１０號","OBJECTID":483321},"geometry":{"x":168202.36000000034,"y":2544356.9700000007}},{"attributes":{"ID":483347,"DIS_CODE":0,"TOWNNAME":"中西區","LI":"天后里","LIN":"25鄰","STREET":"新美街","SECT":" ","MAREA":" ","LANE":" ","ALLEY":" ","HOUSE_NO":"３１２號","E_COORD97":168196.51000000001,"N_COORD97":2544359.2999999998,"ADDRESS":"新美街３１２號","OBJECTID":483322},"geometry":{"x":168196.51000000071,"y":2544359.3000000026}},{"attributes":{"ID":483348,"DIS_CODE":0,"TOWNNAME":"中西區","LI":"天后里","LIN":"25鄰","STREET":"新美街","SECT":" ","MAREA":" ","LANE":" ","ALLEY":" ","HOUSE_NO":"３１４號","E_COORD97":168190.5,"N_COORD97":2544361.4700000002,"ADDRESS":"新美街３１４號","OBJECTID":483323},"geometry":{"x":168190.5,"y":2544361.4700000025}},{"attributes":{"ID":483349,"DIS_CODE":0,"TOWNNAME":"中西區","LI":"天后里","LIN":"25鄰","STREET":"新美街","SECT":" ","MAREA":" ","LANE":" ","ALLEY":" ","HOUSE_NO":"３１６號","E_COORD97":168183.82000000001,"N_COORD97":2544363.98,"ADDRESS":"新美街３１６號","OBJECTID":483324},"geometry":{"x":168183.8200000003,"y":2544363.9800000042}},{"attributes":{"ID":483350,"DIS_CODE":0,"TOWNNAME":"中西區","LI":"天后里","LIN":"25鄰","STREET":"新美街","SECT":" ","MAREA":" ","LANE":" ","ALLEY":" ","HOUSE_NO":"３２０號","E_COORD97":168174.45999999999,"N_COORD97":2544367.8199999998,"ADDRESS":"新美街３２０號","OBJECTID":483325},"geometry":{"x":168174.45999999903,"y":2544367.8200000003}},{"attributes":{"ID":483351,"DIS_CODE":0,"TOWNNAME":"中西區","LI":"天后里","LIN":"25鄰","STREET":"新美街","SECT":" ","MAREA":" ","LANE":" ","ALLEY":" ","HOUSE_NO":"２４８號","E_COORD97":168152.92000000001,"N_COORD97":2544311.7799999998,"ADDRESS":"新美街２４８號","OBJECTID":483326},"geometry":{"x":168152.92000000086,"y":2544311.7799999993}},{"attributes":{"ID":483352,"DIS_CODE":0,"TOWNNAME":"中西區","LI":"天后里","LIN":"25鄰","STREET":"新美街","SECT":" ","MAREA":" ","LANE":" ","ALLEY":" ","HOUSE_NO":"２５０號","E_COORD97":168153.06,"N_COORD97":2544314.4300000002,"ADDRESS":"新美街２５０號","OBJECTID":483327},"geometry":{"x":168153.05999999866,"y":2544314.4299999997}},{"attributes":{"ID":483353,"DIS_CODE":0,"TOWNNAME":"中西區","LI":"天后里","LIN":"25鄰","STREET":"新美街","SECT":" ","MAREA":" ","LANE":" ","ALLEY":" ","HOUSE_NO":"２６２號","E_COORD97":168170.95999999999,"N_COORD97":2544318.0600000001,"ADDRESS":"新美街２６２號","OBJECTID":483328},"geometry":{"x":168170.95999999996,"y":2544318.0600000005}},{"attributes":{"ID":483354,"DIS_CODE":0,"TOWNNAME":"中西區","LI":"天后里","LIN":"25鄰","STREET":"新美街","SECT":" ","MAREA":" ","LANE":" ","ALLEY":" ","HOUSE_NO":"２６４號","E_COORD97":168174.31,"N_COORD97":2544316.5299999998,"ADDRESS":"新美街２６４號","OBJECTID":483329},"geometry":{"x":168174.31000000052,"y":2544316.5300000012}},{"attributes":{"ID":483355,"DIS_CODE":0,"TOWNNAME":"中西區","LI":"天后里","LIN":"25鄰","STREET":"新美街","SECT":" ","MAREA":" ","LANE":" ","ALLEY":" ","HOUSE_NO":"２６６號","E_COORD97":168178.51000000001,"N_COORD97":2544315.5499999998,"ADDRESS":"新美街２６６號","OBJECTID":483330},"geometry":{"x":168178.50999999978,"y":2544315.5500000007}},{"attributes":{"ID":483356,"DIS_CODE":0,"TOWNNAME":"中西區","LI":"天后里","LIN":"25鄰","STREET":"新美街","SECT":" ","MAREA":" ","LANE":" ","ALLEY":" ","HOUSE_NO":"２６８號","E_COORD97":168181.17000000001,"N_COORD97":2544312.2000000002,"ADDRESS":"新美街２６８號","OBJECTID":483331},"geometry":{"x":168181.16999999993,"y":2544312.1999999993}},{"attributes":{"ID":483357,"DIS_CODE":0,"TOWNNAME":"中西區","LI":"天后里","LIN":"25鄰","STREET":"新美街","SECT":" ","MAREA":" ","LANE":" ","ALLEY":" ","HOUSE_NO":"２７０號","E_COORD97":168184.94,"N_COORD97":2544310.2400000002,"ADDRESS":"新美街２７０號","OBJECTID":483332},"geometry":{"x":168184.94000000041,"y":2544310.2400000002}},{"attributes":{"ID":483358,"DIS_CODE":0,"TOWNNAME":"仁德區","LI":"後壁里","LIN":"25鄰","STREET":"德洋一街","SECT":" ","MAREA":" ","LANE":" ","ALLEY":" ","HOUSE_NO":"８號","E_COORD97":173080.64000000001,"N_COORD97":2539107.2599999998,"ADDRESS":"德洋一街８號","OBJECTID":483333},"geometry":{"x":173080.64000000153,"y":2539107.2600000016}},{"attributes":{"ID":483359,"DIS_CODE":0,"TOWNNAME":"仁德區","LI":"後壁里","LIN":"25鄰","STREET":"德洋路","SECT":" ","MAREA":" ","LANE":" ","ALLEY":" ","HOUSE_NO":"６０號","E_COORD97":173034.04000000001,"N_COORD97":2539091.52,"ADDRESS":"德洋路６０號","OBJECTID":483334},"geometry":{"x":173034.04000000004,"y":2539091.5200000014}},{"attributes":{"ID":483360,"DIS_CODE":0,"TOWNNAME":"仁德區","LI":"仁愛里","LIN":"25鄰","STREET":"保仁路","SECT":" ","MAREA":" ","LANE":" ","ALLEY":" ","HOUSE_NO":"３１３號","E_COORD97":169785.75,"N_COORD97":2540092.5299999998,"ADDRESS":"保仁路３１３號","OBJECTID":483335},"geometry":{"x":169785.75,"y":2540092.5299999993}},{"attributes":{"ID":483361,"DIS_CODE":0,"TOWNNAME":"仁德區","LI":"仁義里","LIN":"25鄰","STREET":"中清一街","SECT":" ","MAREA":" ","LANE":" ","ALLEY":" ","HOUSE_NO":"１１號","E_COORD97":173605.73999999999,"N_COORD97":2541358.9500000002,"ADDRESS":"中清一街１１號","OBJECTID":483336},"geometry":{"x":173605.74000000022,"y":2541358.950000003}},{"attributes":{"ID":483362,"DIS_CODE":0,"TOWNNAME":"仁德區","LI":"仁義里","LIN":"25鄰","STREET":"中清一街","SECT":" ","MAREA":" ","LANE":" ","ALLEY":" ","HOUSE_NO":"１３號","E_COORD97":173603.32000000001,"N_COORD97":2541365.8900000001,"ADDRESS":"中清一街１３號","OBJECTID":483337},"geometry":{"x":173603.3200000003,"y":2541365.8900000006}},{"attributes":{"ID":483363,"DIS_CODE":0,"TOWNNAME":"仁德區","LI":"仁義里","LIN":"25鄰","STREET":"中清一街","SECT":" ","MAREA":" ","LANE":" ","ALLEY":" ","HOUSE_NO":"１５號","E_COORD97":173607.45000000001,"N_COORD97":2541365.4500000002,"ADDRESS":"中清一街１５號","OBJECTID":483338},"geometry":{"x":173607.45000000019,"y":2541365.4499999993}},{"attributes":{"ID":483364,"DIS_CODE":0,"TOWNNAME":"仁德區","LI":"仁義里","LIN":"25鄰","STREET":"中清一街","SECT":" ","MAREA":" ","LANE":" ","ALLEY":" ","HOUSE_NO":"１７號","E_COORD97":173611.57999999999,"N_COORD97":2541364.6800000002,"ADDRESS":"中清一街１７號","OBJECTID":483339},"geometry":{"x":173611.58000000007,"y":2541364.6800000034}},{"attributes":{"ID":483365,"DIS_CODE":0,"TOWNNAME":"仁德區","LI":"仁義里","LIN":"25鄰","STREET":"中清一街","SECT":" ","MAREA":" ","LANE":" ","ALLEY":" ","HOUSE_NO":"１９號","E_COORD97":173616.14999999999,"N_COORD97":2541364.2400000002,"ADDRESS":"中清一街１９號","OBJECTID":483340},"geometry":{"x":173616.15000000037,"y":2541364.2400000002}},{"attributes":{"ID":483366,"DIS_CODE":0,"TOWNNAME":"仁德區","LI":"仁義里","LIN":"25鄰","STREET":"中清一街","SECT":" ","MAREA":" ","LANE":" ","ALLEY":" ","HOUSE_NO":"２１號","E_COORD97":173632.64000000001,"N_COORD97":2541362.6099999999,"ADDRESS":"中清一街２１號","OBJECTID":483341},"geometry":{"x":173632.63999999966,"y":2541362.6100000013}},{"attributes":{"ID":483367,"DIS_CODE":0,"TOWNNAME":"仁德區","LI":"仁義里","LIN":"25鄰","STREET":"中清一街","SECT":" ","MAREA":" ","LANE":" ","ALLEY":" ","HOUSE_NO":"２３號","E_COORD97":173632.72,"N_COORD97":2541366.75,"ADDRESS":"中清一街２３號","OBJECTID":483342},"geometry":{"x":173632.7200000016,"y":2541366.75}},{"attributes":{"ID":483368,"DIS_CODE":0,"TOWNNAME":"仁德區","LI":"仁義里","LIN":"25鄰","STREET":"中清一街","SECT":" ","MAREA":" ","LANE":" ","ALLEY":" ","HOUSE_NO":"３１號","E_COORD97":173634.01999999999,"N_COORD97":2541373.29,"ADDRESS":"中清一街３１號","OBJECTID":483343},"geometry":{"x":173634.02000000142,"y":2541373.2899999972}},{"attributes":{"ID":483369,"DIS_CODE":0,"TOWNNAME":"仁德區","LI":"仁義里","LIN":"25鄰","STREET":"中清一街","SECT":" ","MAREA":" ","LANE":" ","ALLEY":" ","HOUSE_NO":"３３號","E_COORD97":173634.37,"N_COORD97":2541376.98,"ADDRESS":"中清一街３３號","OBJECTID":483344},"geometry":{"x":173634.37000000104,"y":2541376.9800000042}},{"attributes":{"ID":483370,"DIS_CODE":0,"TOWNNAME":"仁德區","LI":"仁義里","LIN":"25鄰","STREET":"中清一街","SECT":" ","MAREA":" ","LANE":" ","ALLEY":" ","HOUSE_NO":"３５號","E_COORD97":173634.89999999999,"N_COORD97":2541381.02,"ADDRESS":"中清一街３５號","OBJECTID":483345},"geometry":{"x":173634.90000000037,"y":2541381.0199999996}},{"attributes":{"ID":483371,"DIS_CODE":0,"TOWNNAME":"仁德區","LI":"仁義里","LIN":"25鄰","STREET":"中清一街","SECT":" ","MAREA":" ","LANE":" ","ALLEY":" ","HOUSE_NO":"３７號","E_COORD97":173635.07999999999,"N_COORD97":2541384.7599999998,"ADDRESS":"中清一街３７號","OBJECTID":483346},"geometry":{"x":173635.08000000007,"y":2541384.7600000035}},{"attributes":{"ID":483372,"DIS_CODE":0,"TOWNNAME":"仁德區","LI":"仁義里","LIN":"25鄰","STREET":"中清一街","SECT":" ","MAREA":" ","LANE":" ","ALLEY":" ","HOUSE_NO":"３號","E_COORD97":173633.29999999999,"N_COORD97":2541354.0800000001,"ADDRESS":"中清一街３號","OBJECTID":483347},"geometry":{"x":173633.29999999981,"y":2541354.0800000001}},{"attributes":{"ID":483373,"DIS_CODE":0,"TOWNNAME":"仁德區","LI":"仁義里","LIN":"25鄰","STREET":"中清一街","SECT":" ","MAREA":" ","LANE":" ","ALLEY":" ","HOUSE_NO":"５號","E_COORD97":173618.09,"N_COORD97":2541356.6400000001,"ADDRESS":"中清一街５號","OBJECTID":483348},"geometry":{"x":173618.08999999985,"y":2541356.6400000025}},{"attributes":{"ID":483374,"DIS_CODE":0,"TOWNNAME":"仁德區","LI":"仁義里","LIN":"25鄰","STREET":"中清一街","SECT":" ","MAREA":" ","LANE":" ","ALLEY":" ","HOUSE_NO":"７號","E_COORD97":173613.35999999999,"N_COORD97":2541357.6899999999,"ADDRESS":"中清一街７號","OBJECTID":483349},"geometry":{"x":173613.36000000034,"y":2541357.6900000032}},{"attributes":{"ID":483375,"DIS_CODE":0,"TOWNNAME":"仁德區","LI":"仁義里","LIN":"25鄰","STREET":"中清一街","SECT":" ","MAREA":" ","LANE":" ","ALLEY":" ","HOUSE_NO":"９號","E_COORD97":173609.67000000001,"N_COORD97":2541358.29,"ADDRESS":"中清一街９號","OBJECTID":483350},"geometry":{"x":173609.67000000179,"y":2541358.2899999991}},{"attributes":{"ID":483376,"DIS_CODE":0,"TOWNNAME":"仁德區","LI":"仁義里","LIN":"25鄰","STREET":"正義路","SECT":" ","MAREA":" ","LANE":" ","ALLEY":" ","HOUSE_NO":"９８之６號","E_COORD97":173620.98000000001,"N_COORD97":2541422.9100000001,"ADDRESS":"正義路９８之６號","OBJECTID":483351},"geometry":{"x":173620.98000000045,"y":2541422.9100000001}},{"attributes":{"ID":483377,"DIS_CODE":0,"TOWNNAME":"仁德區","LI":"仁義里","LIN":"25鄰","STREET":"正義路","SECT":" ","MAREA":" ","LANE":" ","ALLEY":" ","HOUSE_NO":"９８之７號","E_COORD97":173625.45000000001,"N_COORD97":2541422.2200000002,"ADDRESS":"正義路９８之７號","OBJECTID":483352},"geometry":{"x":173625.45000000112,"y":2541422.2200000007}},{"attributes":{"ID":483378,"DIS_CODE":0,"TOWNNAME":"仁德區","LI":"仁義里","LIN":"25鄰","STREET":"正義路","SECT":" ","MAREA":" ","LANE":" ","ALLEY":" ","HOUSE_NO":"９８之８號","E_COORD97":173629.5,"N_COORD97":2541421.7000000002,"ADDRESS":"正義路９８之８號","OBJECTID":483353},"geometry":{"x":173629.50000000186,"y":2541421.700000003}},{"attributes":{"ID":483379,"DIS_CODE":0,"TOWNNAME":"仁德區","LI":"仁義里","LIN":"25鄰","STREET":"正義路","SECT":" ","MAREA":" ","LANE":" ","ALLEY":" ","HOUSE_NO":"９８之９號","E_COORD97":173634.37,"N_COORD97":2541421.0600000001,"ADDRESS":"正義路９８之９號","OBJECTID":483354},"geometry":{"x":173634.37000000104,"y":2541421.0600000024}},{"attributes":{"ID":483380,"DIS_CODE":0,"TOWNNAME":"仁德區","LI":"仁義里","LIN":"25鄰","STREET":"正義路","SECT":" ","MAREA":" ","LANE":" ","ALLEY":" ","HOUSE_NO":"９８號","E_COORD97":173596.78,"N_COORD97":2541426.0099999998,"ADDRESS":"正義路９８號","OBJECTID":483355},"geometry":{"x":173596.78000000026,"y":2541426.0099999998}},{"attributes":{"ID":483381,"DIS_CODE":0,"TOWNNAME":"新市區","LI":"新和里","LIN":"25鄰","STREET":"仁愛街","SECT":" ","MAREA":" ","LANE":" ","ALLEY":" ","HOUSE_NO":"２１４號","E_COORD97":177609.12,"N_COORD97":2552785.7799999998,"ADDRESS":"仁愛街２１４號","OBJECTID":483356},"geometry":{"x":177609.12000000197,"y":2552785.7800000031}},{"attributes":{"ID":483382,"DIS_CODE":0,"TOWNNAME":"新市區","LI":"新和里","LIN":"25鄰","STREET":"仁愛街","SECT":" ","MAREA":" ","LANE":" ","ALLEY":" ","HOUSE_NO":"２５４號","E_COORD97":177628.95000000001,"N_COORD97":2552872.77,"ADDRESS":"仁愛街２５４號","OBJECTID":483357},"geometry":{"x":177628.95000000205,"y":2552872.7699999996}},{"attributes":{"ID":483383,"DIS_CODE":0,"TOWNNAME":"新市區","LI":"新市里","LIN":"25鄰","STREET":"民族路","SECT":" ","MAREA":" ","LANE":" ","ALLEY":" ","HOUSE_NO":"１８８號","E_COORD97":177884.51999999999,"N_COORD97":2553289.04,"ADDRESS":"民族路１８８號","OBJECTID":483358},"geometry":{"x":177884.52000000048,"y":2553289.0400000028}},{"attributes":{"ID":483384,"DIS_CODE":0,"TOWNNAME":"佳里區","LI":"建南里","LIN":"25鄰","STREET":"公園路","SECT":" ","MAREA":" ","LANE":" ","ALLEY":" ","HOUSE_NO":"１３０號","E_COORD97":165338.35999999999,"N_COORD97":2561724.1099999999,"ADDRESS":"公園路１３０號","OBJECTID":483359},"geometry":{"x":165338.36000000127,"y":2561724.1100000031}},{"attributes":{"ID":483385,"DIS_CODE":0,"TOWNNAME":"佳里區","LI":"建南里","LIN":"25鄰","STREET":"公園路","SECT":" ","MAREA":" ","LANE":" ","ALLEY":" ","HOUSE_NO":"１３２號","E_COORD97":165336.95000000001,"N_COORD97":2561737.23,"ADDRESS":"公園路１３２號","OBJECTID":483360},"geometry":{"x":165336.95000000019,"y":2561737.2300000004}},{"attributes":{"ID":483386,"DIS_CODE":0,"TOWNNAME":"佳里區","LI":"建南里","LIN":"25鄰","STREET":"公園路","SECT":" ","MAREA":" ","LANE":" ","ALLEY":" ","HOUSE_NO":"１６０號","E_COORD97":165333.04999999999,"N_COORD97":2561791,"ADDRESS":"公園路１６０號","OBJECTID":483361},"geometry":{"x":165333.05000000075,"y":2561791.0000000019}},{"attributes":{"ID":483387,"DIS_CODE":0,"TOWNNAME":"佳里區","LI":"建南里","LIN":"25鄰","STREET":"公園路","SECT":" ","MAREA":" ","LANE":" ","ALLEY":" ","HOUSE_NO":"１６２號","E_COORD97":165332.31,"N_COORD97":2561797.1499999999,"ADDRESS":"公園路１６２號","OBJECTID":483362},"geometry":{"x":165332.31000000145,"y":2561797.1500000022}},{"attributes":{"ID":483388,"DIS_CODE":0,"TOWNNAME":"佳里區","LI":"建南里","LIN":"25鄰","STREET":"公園路","SECT":" ","MAREA":" ","LANE":" ","ALLEY":" ","HOUSE_NO":"１６６號","E_COORD97":165331.64999999999,"N_COORD97":2561802.0099999998,"ADDRESS":"公園路１６６號","OBJECTID":483363},"geometry":{"x":165331.6500000013,"y":2561802.0099999998}},{"attributes":{"ID":483389,"DIS_CODE":0,"TOWNNAME":"佳里區","LI":"建南里","LIN":"25鄰","STREET":"公園路","SECT":" ","MAREA":" ","LANE":" ","ALLEY":" ","HOUSE_NO":"１６８號","E_COORD97":165331.14999999999,"N_COORD97":2561806.8700000001,"ADDRESS":"公園路１６８號","OBJECTID":483364},"geometry":{"x":165331.1500000013,"y":2561806.8700000029}},{"attributes":{"ID":483390,"DIS_CODE":0,"TOWNNAME":"佳里區","LI":"建南里","LIN":"25鄰","STREET":"公園路","SECT":" ","MAREA":" ","LANE":" ","ALLEY":" ","HOUSE_NO":"１９８號","E_COORD97":165325.17999999999,"N_COORD97":2561921.1699999999,"ADDRESS":"公園路１９８號","OBJECTID":483365},"geometry":{"x":165325.18000000063,"y":2561921.1700000018}},{"attributes":{"ID":483391,"DIS_CODE":0,"TOWNNAME":"永康區","LI":"甲頂里","LIN":"25鄰","STREET":"中正南路","SECT":" ","MAREA":" ","LANE":" ","ALLEY":" ","HOUSE_NO":"４１號","E_COORD97":169640.89000000001,"N_COORD97":2546768.4900000002,"ADDRESS":"中正南路４１號","OBJECTID":483366},"geometry":{"x":169640.88999999966,"y":2546768.4900000021}},{"attributes":{"ID":483392,"DIS_CODE":0,"TOWNNAME":"東區","LI":"大福里","LIN":"25鄰","STREET":"榮譽街","SECT":" ","MAREA":" ","LANE":" ","ALLEY":" ","HOUSE_NO":"２４號","E_COORD97":169532.25,"N_COORD97":2541586.8500000001,"ADDRESS":"榮譽街２４號","OBJECTID":483367},"geometry":{"x":169532.25000000186,"y":2541586.8499999996}},{"attributes":{"ID":483393,"DIS_CODE":0,"TOWNNAME":"東區","LI":"大福里","LIN":"25鄰","STREET":"榮譽街","SECT":" ","MAREA":" ","LANE":" ","ALLEY":" ","HOUSE_NO":"１０號","E_COORD97":169494.41,"N_COORD97":2541574.9300000002,"ADDRESS":"榮譽街１０號","OBJECTID":483368},"geometry":{"x":169494.41000000108,"y":2541574.9299999997}},{"attributes":{"ID":483394,"DIS_CODE":0,"TOWNNAME":"東區","LI":"大福里","LIN":"25鄰","STREET":"榮譽街","SECT":" ","MAREA":" ","LANE":" ","ALLEY":" ","HOUSE_NO":"１２號","E_COORD97":169499.23000000001,"N_COORD97":2541577.46,"ADDRESS":"榮譽街１２號","OBJECTID":483369},"geometry":{"x":169499.23000000138,"y":2541577.459999999}},{"attributes":{"ID":483395,"DIS_CODE":0,"TOWNNAME":"東區","LI":"大福里","LIN":"25鄰","STREET":"榮譽街","SECT":" ","MAREA":" ","LANE":" ","ALLEY":" ","HOUSE_NO":"１４號","E_COORD97":169504.31,"N_COORD97":2541577.9700000002,"ADDRESS":"榮譽街１４號","OBJECTID":483370},"geometry":{"x":169504.31000000145,"y":2541577.9700000025}},{"attributes":{"ID":483396,"DIS_CODE":0,"TOWNNAME":"東區","LI":"大福里","LIN":"25鄰","STREET":"榮譽街","SECT":" ","MAREA":" ","LANE":" ","ALLEY":" ","HOUSE_NO":"１６號","E_COORD97":169508.88,"N_COORD97":2541578.2200000002,"ADDRESS":"榮譽街１６號","OBJECTID":483371},"geometry":{"x":169508.87999999989,"y":2541578.2200000007}},{"attributes":{"ID":483397,"DIS_CODE":0,"TOWNNAME":"東區","LI":"大福里","LIN":"25鄰","STREET":"榮譽街","SECT":" ","MAREA":" ","LANE":" ","ALLEY":" ","HOUSE_NO":"１６號之１","E_COORD97":169503.29999999999,"N_COORD97":2541565.79,"ADDRESS":"榮譽街１６號之１","OBJECTID":483372},"geometry":{"x":169503.30000000075,"y":2541565.7899999991}},{"attributes":{"ID":483398,"DIS_CODE":0,"TOWNNAME":"東區","LI":"大福里","LIN":"25鄰","STREET":"榮譽街","SECT":" ","MAREA":" ","LANE":" ","ALLEY":" ","HOUSE_NO":"１６號之２","E_COORD97":169503.54999999999,"N_COORD97":2541561.48,"ADDRESS":"榮譽街１６號之２","OBJECTID":483373},"geometry":{"x":169503.55000000075,"y":2541561.4800000023}},{"attributes":{"ID":483399,"DIS_CODE":0,"TOWNNAME":"東區","LI":"大福里","LIN":"25鄰","STREET":"榮譽街","SECT":" ","MAREA":" ","LANE":" ","ALLEY":" ","HOUSE_NO":"１６號之３","E_COORD97":169505.32999999999,"N_COORD97":2541556.9199999999,"ADDRESS":"榮譽街１６號之３","OBJECTID":483374},"geometry":{"x":169505.33000000101,"y":2541556.9200000018}},{"attributes":{"ID":483400,"DIS_CODE":0,"TOWNNAME":"永康區","LI":"尚頂里","LIN":"25鄰","STREET":"中正南路","SECT":" ","MAREA":" ","LANE":" ","ALLEY":" ","HOUSE_NO":"２０８號","E_COORD97":170060.5,"N_COORD97":2547268.8900000001,"ADDRESS":"中正南路２０８號","OBJECTID":483375},"geometry":{"x":170060.5,"y":2547268.8900000006}},{"attributes":{"ID":483401,"DIS_CODE":0,"TOWNNAME":"永康區","LI":"尚頂里","LIN":"25鄰","STREET":"中正南路","SECT":" ","MAREA":" ","LANE":" ","ALLEY":" ","HOUSE_NO":"２０６號","E_COORD97":170057.44,"N_COORD97":2547266.1400000001,"ADDRESS":"中正南路２０６號","OBJECTID":483376},"geometry":{"x":170057.44000000134,"y":2547266.1400000025}},{"attributes":{"ID":483402,"DIS_CODE":0,"TOWNNAME":"永康區","LI":"尚頂里","LIN":"25鄰","STREET":"中正南路","SECT":" ","MAREA":" ","LANE":" ","ALLEY":" ","HOUSE_NO":"１９８號","E_COORD97":170003.84,"N_COORD97":2547190.6899999999,"ADDRESS":"中正南路１９８號","OBJECTID":483377},"geometry":{"x":170003.83999999985,"y":2547190.6900000013}},{"attributes":{"ID":483403,"DIS_CODE":0,"TOWNNAME":"永康區","LI":"西灣里","LIN":"25鄰","STREET":"國光七街","SECT":" ","MAREA":" ","LANE":" ","ALLEY":" ","HOUSE_NO":"２８號","E_COORD97":174284.38,"N_COORD97":2545541.3900000001,"ADDRESS":"國光七街２８號","OBJECTID":483378},"geometry":{"x":174284.37999999896,"y":2545541.3900000043}},{"attributes":{"ID":483404,"DIS_CODE":0,"TOWNNAME":"安南區","LI":"新順里","LIN":"25鄰","STREET":"興安路","SECT":" ","MAREA":" ","LANE":" ","ALLEY":" ","HOUSE_NO":"９號","E_COORD97":169543.07999999999,"N_COORD97":2549061.2000000002,"ADDRESS":"興安路９號","OBJECTID":483379},"geometry":{"x":169543.08000000007,"y":2549061.2000000011}},{"attributes":{"ID":483405,"DIS_CODE":0,"TOWNNAME":"安南區","LI":"新順里","LIN":"25鄰","STREET":"興安路","SECT":" ","MAREA":" ","LANE":" ","ALLEY":" ","HOUSE_NO":"３７號","E_COORD97":169506.38,"N_COORD97":2549069.2000000002,"ADDRESS":"興安路３７號","OBJECTID":483380},"geometry":{"x":169506.38000000082,"y":2549069.1999999993}},{"attributes":{"ID":483406,"DIS_CODE":0,"TOWNNAME":"安南區","LI":"新順里","LIN":"25鄰","STREET":"興安路","SECT":" ","MAREA":" ","LANE":" ","ALLEY":" ","HOUSE_NO":"７８號","E_COORD97":169459.26000000001,"N_COORD97":2549107.1800000002,"ADDRESS":"興安路７８號","OBJECTID":483381},"geometry":{"x":169459.26000000071,"y":2549107.1799999997}},{"attributes":{"ID":483407,"DIS_CODE":0,"TOWNNAME":"安南區","LI":"新順里","LIN":"25鄰","STREET":"興安路","SECT":" ","MAREA":" ","LANE":" ","ALLEY":" ","HOUSE_NO":"８０號","E_COORD97":169454.42999999999,"N_COORD97":2549108.4500000002,"ADDRESS":"興安路８０號","OBJECTID":483382},"geometry":{"x":169454.43000000156,"y":2549108.4499999993}},{"attributes":{"ID":483408,"DIS_CODE":0,"TOWNNAME":"安南區","LI":"新順里","LIN":"25鄰","STREET":"興安路","SECT":" ","MAREA":" ","LANE":" ","ALLEY":" ","HOUSE_NO":"７９號","E_COORD97":169426.10999999999,"N_COORD97":2549093.3300000001,"ADDRESS":"興安路７９號","OBJECTID":483383},"geometry":{"x":169426.11000000034,"y":2549093.3300000001}},{"attributes":{"ID":483409,"DIS_CODE":0,"TOWNNAME":"安南區","LI":"新順里","LIN":"25鄰","STREET":"興安路","SECT":" ","MAREA":" ","LANE":" ","ALLEY":" ","HOUSE_NO":"８１號","E_COORD97":169421.67000000001,"N_COORD97":2549094.0899999999,"ADDRESS":"興安路８１號","OBJECTID":483384},"geometry":{"x":169421.66999999993,"y":2549094.0899999999}},{"attributes":{"ID":483410,"DIS_CODE":0,"TOWNNAME":"安南區","LI":"新順里","LIN":"25鄰","STREET":"興安路","SECT":" ","MAREA":" ","LANE":" ","ALLEY":" ","HOUSE_NO":"８３號","E_COORD97":169417.48000000001,"N_COORD97":2549094.8599999999,"ADDRESS":"興安路８３號","OBJECTID":483385},"geometry":{"x":169417.48000000231,"y":2549094.8600000013}},{"attributes":{"ID":483411,"DIS_CODE":0,"TOWNNAME":"安南區","LI":"新順里","LIN":"25鄰","STREET":"興安路","SECT":" ","MAREA":" ","LANE":" ","ALLEY":" ","HOUSE_NO":"８５號","E_COORD97":169413.16,"N_COORD97":2549095.8700000001,"ADDRESS":"興安路８５號","OBJECTID":483386},"geometry":{"x":169413.16000000108,"y":2549095.8700000029}},{"attributes":{"ID":483412,"DIS_CODE":0,"TOWNNAME":"安南區","LI":"新順里","LIN":"25鄰","STREET":"興安路","SECT":" ","MAREA":" ","LANE":" ","ALLEY":" ","HOUSE_NO":"８７號","E_COORD97":169408.97,"N_COORD97":2549096.6299999999,"ADDRESS":"興安路８７號","OBJECTID":483387},"geometry":{"x":169408.97000000067,"y":2549096.629999999}},{"attributes":{"ID":483413,"DIS_CODE":0,"TOWNNAME":"佳里區","LI":"安西里","LIN":"25鄰","STREET":"佳北路","SECT":" ","MAREA":" ","LANE":" ","ALLEY":" ","HOUSE_NO":"４７４號","E_COORD97":165073.34,"N_COORD97":2563336.79,"ADDRESS":"佳北路４７４號","OBJECTID":483388},"geometry":{"x":165073.34000000078,"y":2563336.790000001}},{"attributes":{"ID":483414,"DIS_CODE":0,"TOWNNAME":"佳里區","LI":"安西里","LIN":"25鄰","STREET":"佳北路","SECT":" ","MAREA":" ","LANE":" ","ALLEY":" ","HOUSE_NO":"４７６號","E_COORD97":165069.35000000001,"N_COORD97":2563334.0299999998,"ADDRESS":"佳北路４７６號","OBJECTID":483389},"geometry":{"x":165069.35000000149,"y":2563334.0299999993}},{"attributes":{"ID":483415,"DIS_CODE":0,"TOWNNAME":"歸仁區","LI":"西埔里","LIN":"7鄰","STREET":"西埔一街","SECT":" ","MAREA":" ","LANE":"８０巷","ALLEY":" ","HOUSE_NO":"２號","E_COORD97":177247.51999999999,"N_COORD97":2544313.25,"ADDRESS":"西埔一街８０巷２號","OBJECTID":483390},"geometry":{"x":177247.51999999955,"y":2544313.25}},{"attributes":{"ID":483416,"DIS_CODE":0,"TOWNNAME":"佳里區","LI":"安西里","LIN":"25鄰","STREET":"佳北路","SECT":" ","MAREA":" ","LANE":" ","ALLEY":" ","HOUSE_NO":"４７８號","E_COORD97":165065.37,"N_COORD97":2563331.27,"ADDRESS":"佳北路４７８號","OBJECTID":483391},"geometry":{"x":165065.37000000104,"y":2563331.2700000014}},{"attributes":{"ID":483417,"DIS_CODE":0,"TOWNNAME":"佳里區","LI":"安西里","LIN":"25鄰","STREET":"佳北路","SECT":" ","MAREA":" ","LANE":" ","ALLEY":" ","HOUSE_NO":"４８０號","E_COORD97":165040.12,"N_COORD97":2563377.8999999999,"ADDRESS":"佳北路４８０號","OBJECTID":483392},"geometry":{"x":165040.12000000011,"y":2563377.9000000022}},{"attributes":{"ID":483418,"DIS_CODE":0,"TOWNNAME":"安南區","LI":"州南里","LIN":"25鄰","STREET":"安和路","SECT":"四段","MAREA":" ","LANE":" ","ALLEY":" ","HOUSE_NO":"５０２號","E_COORD97":169960.19,"N_COORD97":2551255.1200000001,"ADDRESS":"安和路四段５０２號","OBJECTID":483393},"geometry":{"x":169960.19000000227,"y":2551255.120000001}},{"attributes":{"ID":483419,"DIS_CODE":0,"TOWNNAME":"安南區","LI":"州南里","LIN":"25鄰","STREET":"安和路","SECT":"四段","MAREA":" ","LANE":" ","ALLEY":" ","HOUSE_NO":"４９８號","E_COORD97":169962.10000000001,"N_COORD97":2551247.25,"ADDRESS":"安和路四段４９８號","OBJECTID":483394},"geometry":{"x":169962.10000000056,"y":2551247.2499999981}},{"attributes":{"ID":483420,"DIS_CODE":0,"TOWNNAME":"安南區","LI":"州南里","LIN":"25鄰","STREET":"安和路","SECT":"四段","MAREA":" ","LANE":" ","ALLEY":" ","HOUSE_NO":"４８０號","E_COORD97":169967.56,"N_COORD97":2551200.5099999998,"ADDRESS":"安和路四段４８０號","OBJECTID":483395},"geometry":{"x":169967.56000000052,"y":2551200.5099999998}},{"attributes":{"ID":483421,"DIS_CODE":0,"TOWNNAME":"東區","LI":"東門里","LIN":"25鄰","STREET":"新樓街","SECT":" ","MAREA":" ","LANE":" ","ALLEY":" ","HOUSE_NO":"３４號","E_COORD97":169518.06,"N_COORD97":2543340.7799999998,"ADDRESS":"新樓街３４號","OBJECTID":483396},"geometry":{"x":169518.06000000052,"y":2543340.7800000012}},{"attributes":{"ID":483422,"DIS_CODE":0,"TOWNNAME":"中西區","LI":"法華里","LIN":"25鄰","STREET":"慶中街","SECT":" ","MAREA":" ","LANE":" ","ALLEY":" ","HOUSE_NO":"８號五樓","E_COORD97":168565.20999999999,"N_COORD97":2542509.1400000001,"ADDRESS":"慶中街８號五樓","OBJECTID":483397},"geometry":{"x":168565.21000000089,"y":2542509.1400000025}},{"attributes":{"ID":483423,"DIS_CODE":0,"TOWNNAME":"官田區","LI":"隆田里","LIN":"25鄰","STREET":"中山路","SECT":"二段","MAREA":" ","LANE":" ","ALLEY":" ","HOUSE_NO":"２３號","E_COORD97":179075.56,"N_COORD97":2565936.0699999998,"ADDRESS":"中山路二段２３號","OBJECTID":483398},"geometry":{"x":179075.56000000052,"y":2565936.070000004}},{"attributes":{"ID":483424,"DIS_CODE":0,"TOWNNAME":"官田區","LI":"隆田里","LIN":"25鄰","STREET":"中山路","SECT":"二段","MAREA":" ","LANE":" ","ALLEY":" ","HOUSE_NO":"２５號","E_COORD97":179071.54999999999,"N_COORD97":2565937.5099999998,"ADDRESS":"中山路二段２５號","OBJECTID":483399},"geometry":{"x":179071.54999999981,"y":2565937.5100000016}},{"attributes":{"ID":483425,"DIS_CODE":0,"TOWNNAME":"官田區","LI":"隆田里","LIN":"25鄰","STREET":"中山路","SECT":"二段","MAREA":" ","LANE":" ","ALLEY":" ","HOUSE_NO":"２７號","E_COORD97":179067.76000000001,"N_COORD97":2565939.0699999998,"ADDRESS":"中山路二段２７號","OBJECTID":483400},"geometry":{"x":179067.76000000071,"y":2565939.0700000003}}]}