{"displayFieldName":"TOWNNAME","fieldAliases":{"ID":"ID","DIS_CODE":"DIS_CODE","TOWNNAME":"TOWNNAME","LI":"LI","LIN":"LIN","STREET":"STREET","SECT":"SECT","MAREA":"MAREA","LANE":"LANE","ALLEY":"ALLEY","HOUSE_NO":"HOUSE_NO","E_COORD97":"E_COORD97","N_COORD97":"N_COORD97","ADDRESS":"ADDRESS","OBJECTID":"OBJECTID"},"geometryType":"esriGeometryPoint","spatialReference":{"wkid":102443,"latestWkid":3826},"fields":[{"name":"ID","type":"esriFieldTypeDouble","alias":"ID"},{"name":"DIS_CODE","type":"esriFieldTypeInteger","alias":"DIS_CODE"},{"name":"TOWNNAME","type":"esriFieldTypeString","alias":"TOWNNAME","length":8},{"name":"LI","type":"esriFieldTypeString","alias":"LI","length":8},{"name":"LIN","type":"esriFieldTypeString","alias":"LIN","length":12},{"name":"STREET","type":"esriFieldTypeString","alias":"STREET","length":20},{"name":"SECT","type":"esriFieldTypeString","alias":"SECT","length":8},{"name":"MAREA","type":"esriFieldTypeString","alias":"MAREA","length":12},{"name":"LANE","type":"esriFieldTypeString","alias":"LANE","length":10},{"name":"ALLEY","type":"esriFieldTypeString","alias":"ALLEY","length":10},{"name":"HOUSE_NO","type":"esriFieldTypeString","alias":"HOUSE_NO","length":20},{"name":"E_COORD97","type":"esriFieldTypeDouble","alias":"E_COORD97"},{"name":"N_COORD97","type":"esriFieldTypeDouble","alias":"N_COORD97"},{"name":"ADDRESS","type":"esriFieldTypeString","alias":"ADDRESS","length":50},{"name":"OBJECTID","type":"esriFieldTypeOID","alias":"OBJECTID"}],"features":[{"attributes":{"ID":651628,"DIS_CODE":0,"TOWNNAME":"北區","LI":"大山里","LIN":"11鄰","STREET":"和緯路","SECT":"一段","MAREA":" ","LANE":"１７６巷","ALLEY":" ","HOUSE_NO":"１７號","E_COORD97":169300.08506300001,"N_COORD97":2545654.9714299999,"ADDRESS":"和緯路一段１７６巷１７號","OBJECTID":651601},"geometry":{"x":169300.08506300114,"y":2545654.9714340027}},{"attributes":{"ID":651629,"DIS_CODE":0,"TOWNNAME":"北區","LI":"大山里","LIN":"11鄰","STREET":"和緯路","SECT":"一段","MAREA":" ","LANE":"１７６巷","ALLEY":" ","HOUSE_NO":"２１號","E_COORD97":169306.22935899999,"N_COORD97":2545661.7447600001,"ADDRESS":"和緯路一段１７６巷２１號","OBJECTID":651602},"geometry":{"x":169306.22935900092,"y":2545661.7447640002}},{"attributes":{"ID":651630,"DIS_CODE":0,"TOWNNAME":"北區","LI":"大山里","LIN":"11鄰","STREET":"和緯路","SECT":"一段","MAREA":" ","LANE":"１７６巷","ALLEY":" ","HOUSE_NO":"２３號","E_COORD97":169312.373654,"N_COORD97":2545662.1680999999,"ADDRESS":"和緯路一段１７６巷２３號","OBJECTID":651603},"geometry":{"x":169312.37365400139,"y":2545662.1680970024}},{"attributes":{"ID":651631,"DIS_CODE":0,"TOWNNAME":"北區","LI":"大山里","LIN":"11鄰","STREET":"和緯路","SECT":"一段","MAREA":" ","LANE":"１７６巷","ALLEY":" ","HOUSE_NO":"２７號","E_COORD97":169318.094205,"N_COORD97":2545661.32143,"ADDRESS":"和緯路一段１７６巷２７號","OBJECTID":651604},"geometry":{"x":169318.09420500044,"y":2545661.3214310016}},{"attributes":{"ID":651632,"DIS_CODE":0,"TOWNNAME":"安南區","LI":"淵西里","LIN":"10鄰","STREET":"安中路","SECT":"四段","MAREA":" ","LANE":"３２０巷","ALLEY":"１５弄","HOUSE_NO":"３７９號","E_COORD97":164079.64892499999,"N_COORD97":2550968.6735800002,"ADDRESS":"安中路四段３２０巷１５弄３７９號","OBJECTID":651605},"geometry":{"x":164079.64892500173,"y":2550968.6735759992}},{"attributes":{"ID":651633,"DIS_CODE":0,"TOWNNAME":"安南區","LI":"淵西里","LIN":"10鄰","STREET":"安中路","SECT":"四段","MAREA":" ","LANE":"３２０巷","ALLEY":"１５弄","HOUSE_NO":"３９４號","E_COORD97":164071.80646399999,"N_COORD97":2551078.10518,"ADDRESS":"安中路四段３２０巷１５弄３９４號","OBJECTID":651606},"geometry":{"x":164071.80646399967,"y":2551078.105184}},{"attributes":{"ID":651634,"DIS_CODE":0,"TOWNNAME":"安南區","LI":"淵西里","LIN":"10鄰","STREET":"安中路","SECT":"四段","MAREA":" ","LANE":"３２０巷","ALLEY":"１５弄","HOUSE_NO":"３９５號","E_COORD97":164055.061751,"N_COORD97":2551033.86687,"ADDRESS":"安中路四段３２０巷１５弄３９５號","OBJECTID":651607},"geometry":{"x":164055.06175100058,"y":2551033.8668740019}},{"attributes":{"ID":651635,"DIS_CODE":0,"TOWNNAME":"安南區","LI":"淵西里","LIN":"10鄰","STREET":"安中路","SECT":"四段","MAREA":" ","LANE":"３２０巷","ALLEY":"１５弄","HOUSE_NO":"３９７號","E_COORD97":164005.887403,"N_COORD97":2551013.1235500001,"ADDRESS":"安中路四段３２０巷１５弄３９７號","OBJECTID":651608},"geometry":{"x":164005.88740300015,"y":2551013.123552002}},{"attributes":{"ID":651636,"DIS_CODE":0,"TOWNNAME":"北區","LI":"大道里","LIN":"20鄰","STREET":"和緯路","SECT":"一段","MAREA":" ","LANE":"９６巷","ALLEY":" ","HOUSE_NO":"３８號","E_COORD97":169466.404786,"N_COORD97":2545642.8006099998,"ADDRESS":"和緯路一段９６巷３８號","OBJECTID":651609},"geometry":{"x":169466.40478600096,"y":2545642.8006069995}},{"attributes":{"ID":651637,"DIS_CODE":0,"TOWNNAME":"北區","LI":"大道里","LIN":"20鄰","STREET":"和緯路","SECT":"一段","MAREA":" ","LANE":"９６巷","ALLEY":" ","HOUSE_NO":"３８號","E_COORD97":169466.404786,"N_COORD97":2545642.8006099998,"ADDRESS":"和緯路一段９６巷３８號","OBJECTID":651610},"geometry":{"x":169466.40478600096,"y":2545642.8006069995}},{"attributes":{"ID":651638,"DIS_CODE":0,"TOWNNAME":"安南區","LI":"淵西里","LIN":"10鄰","STREET":"安中路","SECT":"四段","MAREA":" ","LANE":"３２０巷","ALLEY":"１５弄","HOUSE_NO":"３９６號","E_COORD97":164075.19779800001,"N_COORD97":2551128.69349,"ADDRESS":"安中路四段３２０巷１５弄３９６號","OBJECTID":651611},"geometry":{"x":164075.19779799972,"y":2551128.6934899986}},{"attributes":{"ID":651639,"DIS_CODE":0,"TOWNNAME":"北區","LI":"大道里","LIN":"20鄰","STREET":"和緯路","SECT":"一段","MAREA":" ","LANE":"９６巷","ALLEY":" ","HOUSE_NO":"４０號","E_COORD97":169467.887892,"N_COORD97":2545651.0556000001,"ADDRESS":"和緯路一段９６巷４０號","OBJECTID":651612},"geometry":{"x":169467.88789200038,"y":2545651.0556030031}},{"attributes":{"ID":651640,"DIS_CODE":0,"TOWNNAME":"安南區","LI":"淵西里","LIN":"10鄰","STREET":"安中路","SECT":"四段","MAREA":" ","LANE":" ","ALLEY":" ","HOUSE_NO":"３７６號","E_COORD97":164246.672139,"N_COORD97":2550389.7655500001,"ADDRESS":"安中路四段３７６號","OBJECTID":651613},"geometry":{"x":164246.67213900015,"y":2550389.7655550018}},{"attributes":{"ID":651641,"DIS_CODE":0,"TOWNNAME":"北區","LI":"大道里","LIN":"20鄰","STREET":"和緯路","SECT":"一段","MAREA":" ","LANE":"９６巷","ALLEY":" ","HOUSE_NO":"６８號","E_COORD97":169477.210272,"N_COORD97":2545710.11057,"ADDRESS":"和緯路一段９６巷６８號","OBJECTID":651614},"geometry":{"x":169477.21027200203,"y":2545710.1105710007}},{"attributes":{"ID":651642,"DIS_CODE":0,"TOWNNAME":"北區","LI":"大道里","LIN":"20鄰","STREET":"和緯路","SECT":"一段","MAREA":" ","LANE":"９６巷","ALLEY":" ","HOUSE_NO":"６６號","E_COORD97":169475.93903800001,"N_COORD97":2545705.4539100002,"ADDRESS":"和緯路一段９６巷６６號","OBJECTID":651615},"geometry":{"x":169475.93903800007,"y":2545705.4539069999}},{"attributes":{"ID":651643,"DIS_CODE":0,"TOWNNAME":"北區","LI":"大道里","LIN":"20鄰","STREET":"和緯路","SECT":"一段","MAREA":" ","LANE":"９６巷","ALLEY":" ","HOUSE_NO":"６０號","E_COORD97":169474.45593200001,"N_COORD97":2545694.4472500002,"ADDRESS":"和緯路一段９６巷６０號","OBJECTID":651616},"geometry":{"x":169474.45593199972,"y":2545694.4472460002}},{"attributes":{"ID":651644,"DIS_CODE":0,"TOWNNAME":"安南區","LI":"淵西里","LIN":"13鄰","STREET":"安中路","SECT":"四段","MAREA":" ","LANE":"３２０巷","ALLEY":"９７弄","HOUSE_NO":"２９號","E_COORD97":164627.137457,"N_COORD97":2550477.1838400001,"ADDRESS":"安中路四段３２０巷９７弄２９號","OBJECTID":651617},"geometry":{"x":164627.13745700195,"y":2550477.1838409994}},{"attributes":{"ID":651645,"DIS_CODE":0,"TOWNNAME":"北區","LI":"大道里","LIN":"20鄰","STREET":"和緯路","SECT":"一段","MAREA":" ","LANE":"９６巷","ALLEY":" ","HOUSE_NO":"５８號","E_COORD97":169473.608443,"N_COORD97":2545689.2614199999,"ADDRESS":"和緯路一段９６巷５８號","OBJECTID":651618},"geometry":{"x":169473.60844300129,"y":2545689.2614160012}},{"attributes":{"ID":651646,"DIS_CODE":0,"TOWNNAME":"北區","LI":"大道里","LIN":"20鄰","STREET":"和緯路","SECT":"一段","MAREA":" ","LANE":"９６巷","ALLEY":" ","HOUSE_NO":"５６號","E_COORD97":169472.760954,"N_COORD97":2545683.9697500002,"ADDRESS":"和緯路一段９６巷５６號","OBJECTID":651619},"geometry":{"x":169472.76095400099,"y":2545683.9697520006}},{"attributes":{"ID":651647,"DIS_CODE":0,"TOWNNAME":"北區","LI":"大道里","LIN":"20鄰","STREET":"和緯路","SECT":"一段","MAREA":" ","LANE":"９６巷","ALLEY":" ","HOUSE_NO":"５２號","E_COORD97":169471.70159300001,"N_COORD97":2545678.6780900001,"ADDRESS":"和緯路一段９６巷５２號","OBJECTID":651620},"geometry":{"x":169471.70159300044,"y":2545678.678088}},{"attributes":{"ID":651648,"DIS_CODE":0,"TOWNNAME":"北區","LI":"大道里","LIN":"20鄰","STREET":"和緯路","SECT":"一段","MAREA":" ","LANE":"９６巷","ALLEY":" ","HOUSE_NO":"５０號","E_COORD97":169471.06597600001,"N_COORD97":2545673.5753000001,"ADDRESS":"和緯路一段９６巷５０號","OBJECTID":651621},"geometry":{"x":169471.06597599946,"y":2545673.5753000025}},{"attributes":{"ID":651649,"DIS_CODE":0,"TOWNNAME":"北區","LI":"大道里","LIN":"20鄰","STREET":"和緯路","SECT":"一段","MAREA":" ","LANE":"９６巷","ALLEY":" ","HOUSE_NO":"４８號","E_COORD97":169470.21848700001,"N_COORD97":2545668.7069700002,"ADDRESS":"和緯路一段９６巷４８號","OBJECTID":651622},"geometry":{"x":169470.21848700196,"y":2545668.7069690004}},{"attributes":{"ID":651650,"DIS_CODE":0,"TOWNNAME":"北區","LI":"大道里","LIN":"20鄰","STREET":"和緯路","SECT":"一段","MAREA":" ","LANE":"９６巷","ALLEY":" ","HOUSE_NO":"４６號","E_COORD97":169470.21848700001,"N_COORD97":2545664.6853,"ADDRESS":"和緯路一段９６巷４６號","OBJECTID":651623},"geometry":{"x":169470.21848700196,"y":2545664.6853049994}},{"attributes":{"ID":651651,"DIS_CODE":0,"TOWNNAME":"北區","LI":"大道里","LIN":"20鄰","STREET":"和緯路","SECT":"一段","MAREA":" ","LANE":"９６巷","ALLEY":" ","HOUSE_NO":"３０號","E_COORD97":169464.70980800001,"N_COORD97":2545634.5228200001,"ADDRESS":"和緯路一段９６巷３０號","OBJECTID":651624},"geometry":{"x":169464.70980800036,"y":2545634.5228210036}},{"attributes":{"ID":651652,"DIS_CODE":0,"TOWNNAME":"北區","LI":"大道里","LIN":"20鄰","STREET":"和緯路","SECT":"一段","MAREA":" ","LANE":"９６巷","ALLEY":" ","HOUSE_NO":"３２號","E_COORD97":169470.64223200001,"N_COORD97":2545633.4644900002,"ADDRESS":"和緯路一段９６巷３２號","OBJECTID":651625},"geometry":{"x":169470.64223200083,"y":2545633.4644879997}},{"attributes":{"ID":651653,"DIS_CODE":0,"TOWNNAME":"北區","LI":"大道里","LIN":"20鄰","STREET":"和緯路","SECT":"一段","MAREA":" ","LANE":"９６巷","ALLEY":" ","HOUSE_NO":"２８號","E_COORD97":169463.65044699999,"N_COORD97":2545629.44282,"ADDRESS":"和緯路一段９６巷２８號","OBJECTID":651626},"geometry":{"x":169463.65044700075,"y":2545629.4428240042}},{"attributes":{"ID":651654,"DIS_CODE":0,"TOWNNAME":"北區","LI":"大道里","LIN":"20鄰","STREET":"和緯路","SECT":"一段","MAREA":" ","LANE":"９６巷","ALLEY":" ","HOUSE_NO":"６號","E_COORD97":169457.92989599999,"N_COORD97":2545596.4228400001,"ADDRESS":"和緯路一段９６巷６號","OBJECTID":651627},"geometry":{"x":169457.92989599984,"y":2545596.4228419997}},{"attributes":{"ID":651655,"DIS_CODE":0,"TOWNNAME":"北區","LI":"大道里","LIN":"20鄰","STREET":"和緯路","SECT":"一段","MAREA":" ","LANE":"９６巷","ALLEY":" ","HOUSE_NO":"８號","E_COORD97":169458.77738499999,"N_COORD97":2545600.1270099999,"ADDRESS":"和緯路一段９６巷８號","OBJECTID":651628},"geometry":{"x":169458.77738500014,"y":2545600.1270059999}},{"attributes":{"ID":651656,"DIS_CODE":0,"TOWNNAME":"北區","LI":"大道里","LIN":"20鄰","STREET":"和緯路","SECT":"一段","MAREA":" ","LANE":"９６巷","ALLEY":" ","HOUSE_NO":"１０號","E_COORD97":169459.20113,"N_COORD97":2545603.5136699998,"ADDRESS":"和緯路一段９６巷１０號","OBJECTID":651629},"geometry":{"x":169459.20113000087,"y":2545603.5136709996}},{"attributes":{"ID":651657,"DIS_CODE":0,"TOWNNAME":"北區","LI":"大道里","LIN":"20鄰","STREET":"和緯路","SECT":"一段","MAREA":" ","LANE":"９６巷","ALLEY":" ","HOUSE_NO":"１２號","E_COORD97":169460.04861900001,"N_COORD97":2545607.5353399999,"ADDRESS":"和緯路一段９６巷１２號","OBJECTID":651630},"geometry":{"x":169460.04861900117,"y":2545607.5353360008}},{"attributes":{"ID":651658,"DIS_CODE":0,"TOWNNAME":"北區","LI":"大道里","LIN":"20鄰","STREET":"和緯路","SECT":"一段","MAREA":" ","LANE":"９６巷","ALLEY":" ","HOUSE_NO":"１８號","E_COORD97":169460.47236300001,"N_COORD97":2545610.4986700001,"ADDRESS":"和緯路一段９６巷１８號","OBJECTID":651631},"geometry":{"x":169460.47236300074,"y":2545610.498666998}},{"attributes":{"ID":651659,"DIS_CODE":0,"TOWNNAME":"北區","LI":"大道里","LIN":"20鄰","STREET":"和緯路","SECT":"一段","MAREA":" ","LANE":"９６巷","ALLEY":" ","HOUSE_NO":"２０號","E_COORD97":169461.10798,"N_COORD97":2545614.5203300002,"ADDRESS":"和緯路一段９６巷２０號","OBJECTID":651632},"geometry":{"x":169461.10798000172,"y":2545614.520332003}},{"attributes":{"ID":651660,"DIS_CODE":0,"TOWNNAME":"北區","LI":"大道里","LIN":"20鄰","STREET":"和緯路","SECT":"一段","MAREA":" ","LANE":"９６巷","ALLEY":" ","HOUSE_NO":"２２號","E_COORD97":169462.37921300001,"N_COORD97":2545619.8119999999,"ADDRESS":"和緯路一段９６巷２２號","OBJECTID":651633},"geometry":{"x":169462.37921300158,"y":2545619.8119959999}},{"attributes":{"ID":651661,"DIS_CODE":0,"TOWNNAME":"北區","LI":"大道里","LIN":"20鄰","STREET":"和緯路","SECT":"一段","MAREA":" ","LANE":"９６巷","ALLEY":" ","HOUSE_NO":"２６號","E_COORD97":169463.22670299999,"N_COORD97":2545624.8919899999,"ADDRESS":"和緯路一段９６巷２６號","OBJECTID":651634},"geometry":{"x":169463.22670300119,"y":2545624.891993003}},{"attributes":{"ID":651662,"DIS_CODE":0,"TOWNNAME":"北區","LI":"大道里","LIN":"20鄰","STREET":"和緯路","SECT":"一段","MAREA":" ","LANE":" ","ALLEY":" ","HOUSE_NO":"１２２號","E_COORD97":169400.512514,"N_COORD97":2545596.3170099999,"ADDRESS":"和緯路一段１２２號","OBJECTID":651635},"geometry":{"x":169400.5125139989,"y":2545596.3170079999}},{"attributes":{"ID":651663,"DIS_CODE":0,"TOWNNAME":"北區","LI":"大道里","LIN":"20鄰","STREET":"和緯路","SECT":"一段","MAREA":" ","LANE":" ","ALLEY":" ","HOUSE_NO":"１１２號","E_COORD97":169419.15727299999,"N_COORD97":2545593.98868,"ADDRESS":"和緯路一段１１２號","OBJECTID":651636},"geometry":{"x":169419.15727300104,"y":2545593.9886760022}},{"attributes":{"ID":651664,"DIS_CODE":0,"TOWNNAME":"北區","LI":"大仁里","LIN":"4鄰","STREET":"和緯路","SECT":"一段","MAREA":" ","LANE":" ","ALLEY":" ","HOUSE_NO":"２５號","E_COORD97":169607.08796599999,"N_COORD97":2545520.85788,"ADDRESS":"和緯路一段２５號","OBJECTID":651637},"geometry":{"x":169607.08796600066,"y":2545520.8578820005}},{"attributes":{"ID":651665,"DIS_CODE":0,"TOWNNAME":"北區","LI":"大仁里","LIN":"4鄰","STREET":"和緯路","SECT":"一段","MAREA":" ","LANE":" ","ALLEY":" ","HOUSE_NO":"２７號","E_COORD97":169601.579287,"N_COORD97":2545522.9745499999,"ADDRESS":"和緯路一段２７號","OBJECTID":651638},"geometry":{"x":169601.579287,"y":2545522.9745480008}},{"attributes":{"ID":651666,"DIS_CODE":0,"TOWNNAME":"北區","LI":"大仁里","LIN":"4鄰","STREET":"和緯路","SECT":"一段","MAREA":" ","LANE":" ","ALLEY":" ","HOUSE_NO":"５５號","E_COORD97":169544.79752200001,"N_COORD97":2545541.9186999998,"ADDRESS":"和緯路一段５５號","OBJECTID":651639},"geometry":{"x":169544.79752200004,"y":2545541.9187040012}},{"attributes":{"ID":651667,"DIS_CODE":0,"TOWNNAME":"北區","LI":"大仁里","LIN":"4鄰","STREET":"和緯路","SECT":"一段","MAREA":" ","LANE":" ","ALLEY":" ","HOUSE_NO":"５３號","E_COORD97":169547.97560599999,"N_COORD97":2545541.07204,"ADDRESS":"和緯路一段５３號","OBJECTID":651640},"geometry":{"x":169547.97560600005,"y":2545541.0720380004}},{"attributes":{"ID":651668,"DIS_CODE":0,"TOWNNAME":"安南區","LI":"安西里","LIN":"1鄰","STREET":"安和路","SECT":"一段","MAREA":" ","LANE":"１８５巷","ALLEY":" ","HOUSE_NO":"１２之２號","E_COORD97":169288.78799099999,"N_COORD97":2547875.6957100001,"ADDRESS":"安和路一段１８５巷１２之２號","OBJECTID":651641},"geometry":{"x":169288.7879910022,"y":2547875.6957130022}},{"attributes":{"ID":651669,"DIS_CODE":0,"TOWNNAME":"安南區","LI":"安慶里","LIN":"22鄰","STREET":"安通一街","SECT":" ","MAREA":" ","LANE":" ","ALLEY":" ","HOUSE_NO":"９１號","E_COORD97":168759.30185799999,"N_COORD97":2548201.2108,"ADDRESS":"安通一街９１號","OBJECTID":651642},"geometry":{"x":168759.30185800139,"y":2548201.2108040005}},{"attributes":{"ID":651670,"DIS_CODE":0,"TOWNNAME":"新化區","LI":"礁坑里","LIN":"2鄰","STREET":" ","SECT":" ","MAREA":"九層嶺","LANE":" ","ALLEY":" ","HOUSE_NO":"４８號之３","E_COORD97":185430.57124300001,"N_COORD97":2548604.97377,"ADDRESS":"九層嶺４８號之３","OBJECTID":651643},"geometry":{"x":185430.57124300115,"y":2548604.9737689998}},{"attributes":{"ID":651671,"DIS_CODE":0,"TOWNNAME":"新化區","LI":"礁坑里","LIN":"13鄰","STREET":" ","SECT":" ","MAREA":"礁坑子","LANE":" ","ALLEY":" ","HOUSE_NO":"９１號","E_COORD97":181957.97035399999,"N_COORD97":2548530.71196,"ADDRESS":"礁坑子９１號","OBJECTID":651644},"geometry":{"x":181957.97035400104,"y":2548530.7119629998}},{"attributes":{"ID":651672,"DIS_CODE":0,"TOWNNAME":"新化區","LI":"唪口里","LIN":"5鄰","STREET":"中正路","SECT":" ","MAREA":" ","LANE":"７０７巷","ALLEY":" ","HOUSE_NO":"７６號","E_COORD97":178419.47584100001,"N_COORD97":2549034.6900200001,"ADDRESS":"中正路７０７巷７６號","OBJECTID":651645},"geometry":{"x":178419.47584099881,"y":2549034.6900209989}},{"attributes":{"ID":651673,"DIS_CODE":0,"TOWNNAME":"新化區","LI":"唪口里","LIN":"1鄰","STREET":"大德路","SECT":" ","MAREA":" ","LANE":" ","ALLEY":" ","HOUSE_NO":"５９號","E_COORD97":178291.731592,"N_COORD97":2549312.8198699998,"ADDRESS":"大德路５９號","OBJECTID":651646},"geometry":{"x":178291.73159199953,"y":2549312.8198710009}},{"attributes":{"ID":651674,"DIS_CODE":0,"TOWNNAME":"佳里區","LI":"頂\u25A0里","LIN":"7鄰","STREET":" ","SECT":" ","MAREA":"頂\u25A0","LANE":" ","ALLEY":" ","HOUSE_NO":"７４號之４","E_COORD97":163096.00638199999,"N_COORD97":2563732.57589,"ADDRESS":"頂\u25A0７４號之４","OBJECTID":651647},"geometry":{"x":163096.00638200063,"y":2563732.575894}},{"attributes":{"ID":651675,"DIS_CODE":0,"TOWNNAME":"六甲區","LI":"甲東里","LIN":"8鄰","STREET":"忠孝街","SECT":" ","MAREA":" ","LANE":" ","ALLEY":" ","HOUSE_NO":"２５１號","E_COORD97":184113.022317,"N_COORD97":2570225.3023000001,"ADDRESS":"忠孝街２５１號","OBJECTID":651648},"geometry":{"x":184113.0223170016,"y":2570225.3022990022}},{"attributes":{"ID":651676,"DIS_CODE":0,"TOWNNAME":"佳里區","LI":"頂\u25A0里","LIN":"7鄰","STREET":" ","SECT":" ","MAREA":"頂\u25A0","LANE":" ","ALLEY":" ","HOUSE_NO":"８０號","E_COORD97":163092.431836,"N_COORD97":2563694.1584100001,"ADDRESS":"頂\u25A0８０號","OBJECTID":651649},"geometry":{"x":163092.43183600157,"y":2563694.1584140006}},{"attributes":{"ID":651677,"DIS_CODE":0,"TOWNNAME":"六甲區","LI":"甲東里","LIN":"11鄰","STREET":"曾文街","SECT":" ","MAREA":" ","LANE":"１３３巷","ALLEY":" ","HOUSE_NO":"８號","E_COORD97":184950.096915,"N_COORD97":2570677.62225,"ADDRESS":"曾文街１３３巷８號","OBJECTID":651650},"geometry":{"x":184950.09691500105,"y":2570677.6222450007}},{"attributes":{"ID":651678,"DIS_CODE":0,"TOWNNAME":"中西區","LI":"文賢里","LIN":"11鄰","STREET":"和真街","SECT":" ","MAREA":" ","LANE":"９５巷","ALLEY":" ","HOUSE_NO":"９號","E_COORD97":166804.65934400001,"N_COORD97":2544649.83947,"ADDRESS":"和真街９５巷９號","OBJECTID":651651},"geometry":{"x":166804.65934399981,"y":2544649.8394650016}},{"attributes":{"ID":651679,"DIS_CODE":0,"TOWNNAME":"楠西區","LI":"鹿田里","LIN":"4鄰","STREET":" ","SECT":" ","MAREA":"鹿陶洋","LANE":" ","ALLEY":" ","HOUSE_NO":"４０號之１０","E_COORD97":197955.30851199999,"N_COORD97":2560951.5965900002,"ADDRESS":"鹿陶洋４０號之１０","OBJECTID":651652},"geometry":{"x":197955.30851200037,"y":2560951.596586002}},{"attributes":{"ID":651680,"DIS_CODE":0,"TOWNNAME":"楠西區","LI":"鹿田里","LIN":"4鄰","STREET":" ","SECT":" ","MAREA":"鹿陶洋","LANE":" ","ALLEY":" ","HOUSE_NO":"４０號之１６","E_COORD97":197939.62991600001,"N_COORD97":2560958.36992,"ADDRESS":"鹿陶洋４０號之１６","OBJECTID":651653},"geometry":{"x":197939.62991600111,"y":2560958.3699159995}},{"attributes":{"ID":651681,"DIS_CODE":0,"TOWNNAME":"安南區","LI":"顯宮里","LIN":"2鄰","STREET":"顯宮二街","SECT":" ","MAREA":" ","LANE":"５８巷","ALLEY":" ","HOUSE_NO":"３７之６號","E_COORD97":160646.27121800001,"N_COORD97":2548765.3149899999,"ADDRESS":"顯宮二街５８巷３７之６號","OBJECTID":651654},"geometry":{"x":160646.27121799998,"y":2548765.3149920013}},{"attributes":{"ID":651682,"DIS_CODE":0,"TOWNNAME":"安南區","LI":"顯宮里","LIN":"2鄰","STREET":"顯宮二街","SECT":" ","MAREA":" ","LANE":"５８巷","ALLEY":" ","HOUSE_NO":"３７之５號","E_COORD97":160652.529909,"N_COORD97":2548769.9016900002,"ADDRESS":"顯宮二街５８巷３７之５號","OBJECTID":651655},"geometry":{"x":160652.52990900073,"y":2548769.901688002}},{"attributes":{"ID":651683,"DIS_CODE":0,"TOWNNAME":"楠西區","LI":"鹿田里","LIN":"4鄰","STREET":" ","SECT":" ","MAREA":"鹿陶洋","LANE":" ","ALLEY":" ","HOUSE_NO":"４７號","E_COORD97":197811.34131300001,"N_COORD97":2561554.8859299999,"ADDRESS":"鹿陶洋４７號","OBJECTID":651656},"geometry":{"x":197811.3413130017,"y":2561554.8859269992}},{"attributes":{"ID":651684,"DIS_CODE":0,"TOWNNAME":"楠西區","LI":"鹿田里","LIN":"4鄰","STREET":" ","SECT":" ","MAREA":"鹿陶洋","LANE":" ","ALLEY":" ","HOUSE_NO":"５１號","E_COORD97":197798.20523299999,"N_COORD97":2561571.2900899998,"ADDRESS":"鹿陶洋５１號","OBJECTID":651657},"geometry":{"x":197798.20523300115,"y":2561571.2900849991}},{"attributes":{"ID":651685,"DIS_CODE":0,"TOWNNAME":"楠西區","LI":"鹿田里","LIN":"4鄰","STREET":" ","SECT":" ","MAREA":"鹿陶洋","LANE":" ","ALLEY":" ","HOUSE_NO":"５６號之１","E_COORD97":197795.027149,"N_COORD97":2561586.3184099998,"ADDRESS":"鹿陶洋５６號之１","OBJECTID":651658},"geometry":{"x":197795.02714900114,"y":2561586.3184099998}},{"attributes":{"ID":651686,"DIS_CODE":0,"TOWNNAME":"楠西區","LI":"鹿田里","LIN":"6鄰","STREET":" ","SECT":" ","MAREA":"鹿陶洋","LANE":" ","ALLEY":" ","HOUSE_NO":"９７號之１","E_COORD97":197802.65455000001,"N_COORD97":2561698.7133499999,"ADDRESS":"鹿陶洋９７號之１","OBJECTID":651659},"geometry":{"x":197802.65455000009,"y":2561698.7133489996}},{"attributes":{"ID":651687,"DIS_CODE":0,"TOWNNAME":"安南區","LI":"佃東里","LIN":"2鄰","STREET":"海佃路","SECT":"四段","MAREA":" ","LANE":" ","ALLEY":" ","HOUSE_NO":"３１４號","E_COORD97":165619.81481800001,"N_COORD97":2551347.9512700001,"ADDRESS":"海佃路四段３１４號","OBJECTID":651660},"geometry":{"x":165619.81481800042,"y":2551347.9512719996}},{"attributes":{"ID":651688,"DIS_CODE":0,"TOWNNAME":"安南區","LI":"佃東里","LIN":"12鄰","STREET":"海佃路","SECT":"四段","MAREA":" ","LANE":"３８８巷","ALLEY":" ","HOUSE_NO":"１５０號","E_COORD97":165614.09507400001,"N_COORD97":2551910.6667999998,"ADDRESS":"海佃路四段３８８巷１５０號","OBJECTID":651661},"geometry":{"x":165614.09507400077,"y":2551910.6668010037}},{"attributes":{"ID":651689,"DIS_CODE":0,"TOWNNAME":"中西區","LI":"福安里","LIN":"16鄰","STREET":"永福路","SECT":"二段","MAREA":" ","LANE":" ","ALLEY":" ","HOUSE_NO":"６５號之１","E_COORD97":168046.684037,"N_COORD97":2543605.9285499998,"ADDRESS":"永福路二段６５號之１","OBJECTID":651662},"geometry":{"x":168046.68403699901,"y":2543605.9285480026}},{"attributes":{"ID":651690,"DIS_CODE":0,"TOWNNAME":"中西區","LI":"福安里","LIN":"16鄰","STREET":"永福路","SECT":"二段","MAREA":" ","LANE":" ","ALLEY":" ","HOUSE_NO":"６５號之２","E_COORD97":168047.10778699999,"N_COORD97":2543608.9977099998,"ADDRESS":"永福路二段６５號之２","OBJECTID":651663},"geometry":{"x":168047.10778700188,"y":2543608.9977130014}},{"attributes":{"ID":651691,"DIS_CODE":0,"TOWNNAME":"中西區","LI":"福安里","LIN":"16鄰","STREET":"永福路","SECT":"二段","MAREA":" ","LANE":" ","ALLEY":" ","HOUSE_NO":"６５號之３","E_COORD97":168048.16716000001,"N_COORD97":2543611.7493799999,"ADDRESS":"永福路二段６５號之３","OBJECTID":651664},"geometry":{"x":168048.16715999972,"y":2543611.7493780013}},{"attributes":{"ID":651692,"DIS_CODE":0,"TOWNNAME":"中西區","LI":"郡王里","LIN":"5鄰","STREET":"大埔街","SECT":" ","MAREA":" ","LANE":" ","ALLEY":" ","HOUSE_NO":"６９號","E_COORD97":168811.08000300001,"N_COORD97":2543060.5202600001,"ADDRESS":"大埔街６９號","OBJECTID":651665},"geometry":{"x":168811.08000299986,"y":2543060.5202639978}},{"attributes":{"ID":651693,"DIS_CODE":0,"TOWNNAME":"中西區","LI":"福安里","LIN":"3鄰","STREET":"府前路","SECT":"一段","MAREA":" ","LANE":" ","ALLEY":" ","HOUSE_NO":"３１４號","E_COORD97":167862.14116200001,"N_COORD97":2543436.3836400001,"ADDRESS":"府前路一段３１４號","OBJECTID":651666},"geometry":{"x":167862.1411620006,"y":2543436.3836390004}},{"attributes":{"ID":651694,"DIS_CODE":0,"TOWNNAME":"中西區","LI":"大涼里","LIN":"14鄰","STREET":"府前路","SECT":"二段","MAREA":" ","LANE":" ","ALLEY":" ","HOUSE_NO":"３０６號","E_COORD97":166865.67527000001,"N_COORD97":2543670.3316000002,"ADDRESS":"府前路二段３０６號","OBJECTID":651667},"geometry":{"x":166865.67526999954,"y":2543670.3316019997}},{"attributes":{"ID":651695,"DIS_CODE":0,"TOWNNAME":"新營區","LI":"延平里","LIN":"4鄰","STREET":"成功街","SECT":" ","MAREA":" ","LANE":" ","ALLEY":" ","HOUSE_NO":"３號","E_COORD97":179697.93624400001,"N_COORD97":2577809.1619699998,"ADDRESS":"成功街３號","OBJECTID":651668},"geometry":{"x":179697.93624400161,"y":2577809.1619680002}},{"attributes":{"ID":651696,"DIS_CODE":0,"TOWNNAME":"新營區","LI":"延平里","LIN":"4鄰","STREET":"成功街","SECT":" ","MAREA":" ","LANE":" ","ALLEY":" ","HOUSE_NO":"５號","E_COORD97":179696.664704,"N_COORD97":2577812.9719699998,"ADDRESS":"成功街５號","OBJECTID":651669},"geometry":{"x":179696.66470399965,"y":2577812.9719660003}},{"attributes":{"ID":651697,"DIS_CODE":0,"TOWNNAME":"佳里區","LI":"頂\u25A0里","LIN":"7鄰","STREET":" ","SECT":" ","MAREA":"頂\u25A0","LANE":" ","ALLEY":" ","HOUSE_NO":"７８號之１","E_COORD97":163107.10486299999,"N_COORD97":2563693.3700199998,"ADDRESS":"頂\u25A0７８號之１","OBJECTID":651670},"geometry":{"x":163107.10486300103,"y":2563693.3700200003}},{"attributes":{"ID":651698,"DIS_CODE":0,"TOWNNAME":"佳里區","LI":"頂\u25A0里","LIN":"7鄰","STREET":" ","SECT":" ","MAREA":"頂\u25A0","LANE":" ","ALLEY":" ","HOUSE_NO":"８１號之２","E_COORD97":163086.028277,"N_COORD97":2563681.51669,"ADDRESS":"頂\u25A0８１號之２","OBJECTID":651671},"geometry":{"x":163086.02827700041,"y":2563681.5166929998}},{"attributes":{"ID":651699,"DIS_CODE":0,"TOWNNAME":"新營區","LI":"延平里","LIN":"4鄰","STREET":"成功街","SECT":" ","MAREA":" ","LANE":" ","ALLEY":" ","HOUSE_NO":"７號","E_COORD97":179695.605087,"N_COORD97":2577817.0994600002,"ADDRESS":"成功街７號","OBJECTID":651672},"geometry":{"x":179695.60508700088,"y":2577817.0994640011}},{"attributes":{"ID":651700,"DIS_CODE":0,"TOWNNAME":"中西區","LI":"福安里","LIN":"16鄰","STREET":"永福路","SECT":"二段","MAREA":" ","LANE":"６３巷","ALLEY":" ","HOUSE_NO":"２０號","E_COORD97":167984.39287099999,"N_COORD97":2543616.30021,"ADDRESS":"永福路二段６３巷２０號","OBJECTID":651673},"geometry":{"x":167984.39287100174,"y":2543616.3002090026}},{"attributes":{"ID":651701,"DIS_CODE":0,"TOWNNAME":"佳里區","LI":"頂\u25A0里","LIN":"7鄰","STREET":" ","SECT":" ","MAREA":"頂\u25A0","LANE":" ","ALLEY":" ","HOUSE_NO":"８５號之１","E_COORD97":163067.625982,"N_COORD97":2563711.8379299999,"ADDRESS":"頂\u25A0８５號之１","OBJECTID":651674},"geometry":{"x":163067.62598199956,"y":2563711.8379270043}},{"attributes":{"ID":651702,"DIS_CODE":0,"TOWNNAME":"中西區","LI":"民權里","LIN":"1鄰","STREET":"海安路","SECT":"二段","MAREA":" ","LANE":" ","ALLEY":" ","HOUSE_NO":"１２５號","E_COORD97":167634.76917099999,"N_COORD97":2544058.3632800002,"ADDRESS":"海安路二段１２５號","OBJECTID":651675},"geometry":{"x":167634.76917099953,"y":2544058.3632769994}},{"attributes":{"ID":651703,"DIS_CODE":0,"TOWNNAME":"中西區","LI":"福安里","LIN":"19鄰","STREET":"中正路","SECT":" ","MAREA":" ","LANE":" ","ALLEY":" ","HOUSE_NO":"１３３號之１","E_COORD97":167953.24728899999,"N_COORD97":2543667.8410100001,"ADDRESS":"中正路１３３號之１","OBJECTID":651676},"geometry":{"x":167953.24728900194,"y":2543667.8410139978}},{"attributes":{"ID":651704,"DIS_CODE":0,"TOWNNAME":"新營區","LI":"延平里","LIN":"4鄰","STREET":"成功街","SECT":" ","MAREA":" ","LANE":" ","ALLEY":" ","HOUSE_NO":"１０號之１２","E_COORD97":179726.96974100001,"N_COORD97":2577814.5594600001,"ADDRESS":"成功街１０號之１２","OBJECTID":651677},"geometry":{"x":179726.96974099986,"y":2577814.5594650023}},{"attributes":{"ID":651705,"DIS_CODE":0,"TOWNNAME":"中西區","LI":"福安里","LIN":"21鄰","STREET":"西門路","SECT":"二段","MAREA":" ","LANE":"７４巷","ALLEY":" ","HOUSE_NO":"２３號","E_COORD97":167895.40549199999,"N_COORD97":2543628.1535399999,"ADDRESS":"西門路二段７４巷２３號","OBJECTID":651678},"geometry":{"x":167895.40549200028,"y":2543628.1535360031}},{"attributes":{"ID":651706,"DIS_CODE":0,"TOWNNAME":"中西區","LI":"西賢里","LIN":"4鄰","STREET":"湖美街","SECT":" ","MAREA":" ","LANE":"１７７巷","ALLEY":" ","HOUSE_NO":"１２號","E_COORD97":165889.99920600001,"N_COORD97":2544853.5945100002,"ADDRESS":"湖美街１７７巷１２號","OBJECTID":651679},"geometry":{"x":165889.99920600187,"y":2544853.5945140012}},{"attributes":{"ID":651707,"DIS_CODE":0,"TOWNNAME":"中西區","LI":"福安里","LIN":"18鄰","STREET":"中正路","SECT":" ","MAREA":" ","LANE":"１３１巷","ALLEY":" ","HOUSE_NO":"１９號","E_COORD97":167929.093571,"N_COORD97":2543614.9243800002,"ADDRESS":"中正路１３１巷１９號","OBJECTID":651680},"geometry":{"x":167929.09357100073,"y":2543614.9243760016}},{"attributes":{"ID":651708,"DIS_CODE":0,"TOWNNAME":"中西區","LI":"福安里","LIN":"18鄰","STREET":"中正路","SECT":" ","MAREA":" ","LANE":"１３１巷","ALLEY":" ","HOUSE_NO":"２３號之２","E_COORD97":167927.822323,"N_COORD97":2543599.0493899998,"ADDRESS":"中正路１３１巷２３號之２","OBJECTID":651681},"geometry":{"x":167927.82232300006,"y":2543599.049385}},{"attributes":{"ID":651709,"DIS_CODE":0,"TOWNNAME":"中西區","LI":"福安里","LIN":"18鄰","STREET":"中正路","SECT":" ","MAREA":" ","LANE":"１３１巷","ALLEY":" ","HOUSE_NO":"２３號之３","E_COORD97":167926.12732500001,"N_COORD97":2543597.9910499998,"ADDRESS":"中正路１３１巷２３號之３","OBJECTID":651682},"geometry":{"x":167926.12732499931,"y":2543597.9910520017}},{"attributes":{"ID":651710,"DIS_CODE":0,"TOWNNAME":"中西區","LI":"西湖里","LIN":"33鄰","STREET":"和緯路","SECT":"五段","MAREA":" ","LANE":"８９巷","ALLEY":"１１２弄","HOUSE_NO":"２號","E_COORD97":166371.07750000001,"N_COORD97":2544983.7694399999,"ADDRESS":"和緯路五段８９巷１１２弄２號","OBJECTID":651683},"geometry":{"x":166371.0775000006,"y":2544983.7694430016}},{"attributes":{"ID":651711,"DIS_CODE":0,"TOWNNAME":"中西區","LI":"福安里","LIN":"18鄰","STREET":"中正路","SECT":" ","MAREA":" ","LANE":"１３１巷","ALLEY":" ","HOUSE_NO":"２７號","E_COORD97":167921.88983100001,"N_COORD97":2543589.8418899998,"ADDRESS":"中正路１３１巷２７號","OBJECTID":651684},"geometry":{"x":167921.88983100001,"y":2543589.8418899979}},{"attributes":{"ID":651712,"DIS_CODE":0,"TOWNNAME":"中西區","LI":"西湖里","LIN":"33鄰","STREET":"和緯路","SECT":"五段","MAREA":" ","LANE":"８９巷","ALLEY":" ","HOUSE_NO":"１００號","E_COORD97":166386.86967099999,"N_COORD97":2544982.2877799999,"ADDRESS":"和緯路五段８９巷１００號","OBJECTID":651685},"geometry":{"x":166386.86967100017,"y":2544982.2877779994}},{"attributes":{"ID":651713,"DIS_CODE":0,"TOWNNAME":"中西區","LI":"福安里","LIN":"20鄰","STREET":"西門路","SECT":"二段","MAREA":" ","LANE":"７４巷","ALLEY":" ","HOUSE_NO":"２８號","E_COORD97":167892.43924599999,"N_COORD97":2543600.95438,"ADDRESS":"西門路二段７４巷２８號","OBJECTID":651686},"geometry":{"x":167892.43924599979,"y":2543600.9543839991}},{"attributes":{"ID":651714,"DIS_CODE":0,"TOWNNAME":"中西區","LI":"福安里","LIN":"18鄰","STREET":"永福路","SECT":"二段","MAREA":" ","LANE":"６３巷","ALLEY":" ","HOUSE_NO":"５號","E_COORD97":167992.86786,"N_COORD97":2543568.2519,"ADDRESS":"永福路二段６３巷５號","OBJECTID":651687},"geometry":{"x":167992.86785999965,"y":2543568.2519010026}},{"attributes":{"ID":651715,"DIS_CODE":0,"TOWNNAME":"中西區","LI":"福安里","LIN":"14鄰","STREET":"永福路","SECT":"二段","MAREA":" ","LANE":" ","ALLEY":" ","HOUSE_NO":"３３號","E_COORD97":168028.67468699999,"N_COORD97":2543506.1277700001,"ADDRESS":"永福路二段３３號","OBJECTID":651688},"geometry":{"x":168028.67468699999,"y":2543506.1277680006}},{"attributes":{"ID":651716,"DIS_CODE":0,"TOWNNAME":"善化區","LI":"小新里","LIN":"11鄰","STREET":"月眉園路","SECT":" ","MAREA":" ","LANE":"５１巷","ALLEY":" ","HOUSE_NO":"１號","E_COORD97":178683.416287,"N_COORD97":2556657.0009699999,"ADDRESS":"月眉園路５１巷１號","OBJECTID":651689},"geometry":{"x":178683.41628700029,"y":2556657.000971999}},{"attributes":{"ID":651717,"DIS_CODE":0,"TOWNNAME":"中西區","LI":"福安里","LIN":"11鄰","STREET":"永福路","SECT":"二段","MAREA":" ","LANE":"３５巷","ALLEY":" ","HOUSE_NO":"１號","E_COORD97":167994.77473199999,"N_COORD97":2543492.4752799999,"ADDRESS":"永福路二段３５巷１號","OBJECTID":651690},"geometry":{"x":167994.77473200019,"y":2543492.4752750006}},{"attributes":{"ID":651718,"DIS_CODE":0,"TOWNNAME":"善化區","LI":"小新里","LIN":"11鄰","STREET":"月眉園路","SECT":" ","MAREA":" ","LANE":"５１巷","ALLEY":" ","HOUSE_NO":"３號","E_COORD97":178678.12103400001,"N_COORD97":2556656.8951400002,"ADDRESS":"月眉園路５１巷３號","OBJECTID":651691},"geometry":{"x":178678.12103400007,"y":2556656.8951390032}},{"attributes":{"ID":651719,"DIS_CODE":0,"TOWNNAME":"善化區","LI":"小新里","LIN":"11鄰","STREET":"月眉園路","SECT":" ","MAREA":" ","LANE":"５１巷","ALLEY":" ","HOUSE_NO":"５號","E_COORD97":178672.931686,"N_COORD97":2556657.21264,"ADDRESS":"月眉園路５１巷５號","OBJECTID":651692},"geometry":{"x":178672.93168599997,"y":2556657.2126390003}},{"attributes":{"ID":651720,"DIS_CODE":0,"TOWNNAME":"善化區","LI":"小新里","LIN":"11鄰","STREET":"月眉園路","SECT":" ","MAREA":" ","LANE":"５１巷","ALLEY":" ","HOUSE_NO":"７號","E_COORD97":178668.060054,"N_COORD97":2556657.4243100001,"ADDRESS":"月眉園路５１巷７號","OBJECTID":651693},"geometry":{"x":178668.06005400233,"y":2556657.4243060015}},{"attributes":{"ID":651721,"DIS_CODE":0,"TOWNNAME":"六甲區","LI":"菁埔里","LIN":"3鄰","STREET":" ","SECT":" ","MAREA":"林鳳營","LANE":" ","ALLEY":" ","HOUSE_NO":"５７６號","E_COORD97":177969.60264600001,"N_COORD97":2571624.72903,"ADDRESS":"林鳳營５７６號","OBJECTID":651694},"geometry":{"x":177969.60264600068,"y":2571624.7290339991}},{"attributes":{"ID":651722,"DIS_CODE":0,"TOWNNAME":"善化區","LI":"小新里","LIN":"11鄰","STREET":"月眉園路","SECT":" ","MAREA":" ","LANE":"５１巷","ALLEY":" ","HOUSE_NO":"９號","E_COORD97":178662.552991,"N_COORD97":2556657.3184699998,"ADDRESS":"月眉園路５１巷９號","OBJECTID":651695},"geometry":{"x":178662.55299099907,"y":2556657.3184720017}},{"attributes":{"ID":651723,"DIS_CODE":0,"TOWNNAME":"善化區","LI":"小新里","LIN":"11鄰","STREET":"月眉園路","SECT":" ","MAREA":" ","LANE":"５１巷","ALLEY":" ","HOUSE_NO":"１１號","E_COORD97":178657.46954799999,"N_COORD97":2556657.5301399999,"ADDRESS":"月眉園路５１巷１１號","OBJECTID":651696},"geometry":{"x":178657.46954800002,"y":2556657.5301390029}},{"attributes":{"ID":651724,"DIS_CODE":0,"TOWNNAME":"善化區","LI":"小新里","LIN":"11鄰","STREET":"月眉園路","SECT":" ","MAREA":" ","LANE":"５１巷","ALLEY":" ","HOUSE_NO":"１３號","E_COORD97":178652.28020000001,"N_COORD97":2556658.0593099999,"ADDRESS":"月眉園路５１巷１３號","OBJECTID":651697},"geometry":{"x":178652.28019999992,"y":2556658.0593050011}},{"attributes":{"ID":651725,"DIS_CODE":0,"TOWNNAME":"善化區","LI":"小新里","LIN":"11鄰","STREET":"月眉園路","SECT":" ","MAREA":" ","LANE":"５１巷","ALLEY":" ","HOUSE_NO":"１５號","E_COORD97":178646.98494699999,"N_COORD97":2556657.8476399998,"ADDRESS":"月眉園路５１巷１５號","OBJECTID":651698},"geometry":{"x":178646.9849469997,"y":2556657.847639}},{"attributes":{"ID":651726,"DIS_CODE":0,"TOWNNAME":"善化區","LI":"小新里","LIN":"11鄰","STREET":"月眉園路","SECT":" ","MAREA":" ","LANE":"５１巷","ALLEY":" ","HOUSE_NO":"１７號","E_COORD97":178642.00740900001,"N_COORD97":2556657.9534700001,"ADDRESS":"月眉園路５１巷１７號","OBJECTID":651699},"geometry":{"x":178642.00740899984,"y":2556657.9534720015}},{"attributes":{"ID":651727,"DIS_CODE":0,"TOWNNAME":"中西區","LI":"福安里","LIN":"14鄰","STREET":"永福路","SECT":"二段","MAREA":" ","LANE":"３５巷","ALLEY":" ","HOUSE_NO":"４０號","E_COORD97":167959.60352999999,"N_COORD97":2543467.6044600001,"ADDRESS":"永福路二段３５巷４０號","OBJECTID":651700},"geometry":{"x":167959.60352999903,"y":2543467.604456}},{"attributes":{"ID":651728,"DIS_CODE":0,"TOWNNAME":"善化區","LI":"小新里","LIN":"11鄰","STREET":"月眉園路","SECT":" ","MAREA":" ","LANE":"５１巷","ALLEY":" ","HOUSE_NO":"１９號","E_COORD97":178635.86491599999,"N_COORD97":2556658.27097,"ADDRESS":"月眉園路５１巷１９號","OBJECTID":651701},"geometry":{"x":178635.86491600052,"y":2556658.2709720023}},{"attributes":{"ID":651729,"DIS_CODE":0,"TOWNNAME":"善化區","LI":"小新里","LIN":"11鄰","STREET":"月眉園路","SECT":" ","MAREA":" ","LANE":"５１巷","ALLEY":" ","HOUSE_NO":"２號","E_COORD97":178683.495716,"N_COORD97":2556663.1392999999,"ADDRESS":"月眉園路５１巷２號","OBJECTID":651702},"geometry":{"x":178683.49571599998,"y":2556663.1393020004}},{"attributes":{"ID":651730,"DIS_CODE":0,"TOWNNAME":"善化區","LI":"小新里","LIN":"11鄰","STREET":"月眉園路","SECT":" ","MAREA":" ","LANE":"５１巷","ALLEY":" ","HOUSE_NO":"６號","E_COORD97":178678.25341599999,"N_COORD97":2556663.4567999998,"ADDRESS":"月眉園路５１巷６號","OBJECTID":651703},"geometry":{"x":178678.25341599993,"y":2556663.4568019994}},{"attributes":{"ID":651731,"DIS_CODE":0,"TOWNNAME":"善化區","LI":"小新里","LIN":"11鄰","STREET":"月眉園路","SECT":" ","MAREA":" ","LANE":"５１巷","ALLEY":" ","HOUSE_NO":"８號","E_COORD97":178673.11702000001,"N_COORD97":2556663.72138,"ADDRESS":"月眉園路５１巷８號","OBJECTID":651704},"geometry":{"x":178673.1170200007,"y":2556663.7213850021}},{"attributes":{"ID":651732,"DIS_CODE":0,"TOWNNAME":"中西區","LI":"安海里","LIN":"18鄰","STREET":"民生路","SECT":"二段","MAREA":" ","LANE":"３６３巷","ALLEY":" ","HOUSE_NO":"１６號","E_COORD97":166904.897703,"N_COORD97":2544172.4845099999,"ADDRESS":"民生路二段３６３巷１６號","OBJECTID":651705},"geometry":{"x":166904.89770300128,"y":2544172.4845049996}},{"attributes":{"ID":651733,"DIS_CODE":0,"TOWNNAME":"善化區","LI":"小新里","LIN":"11鄰","STREET":"月眉園路","SECT":" ","MAREA":" ","LANE":"５１巷","ALLEY":" ","HOUSE_NO":"１０號","E_COORD97":178667.92767199999,"N_COORD97":2556664.1447200002,"ADDRESS":"月眉園路５１巷１０號","OBJECTID":651706},"geometry":{"x":178667.9276720006,"y":2556664.1447190009}},{"attributes":{"ID":651734,"DIS_CODE":0,"TOWNNAME":"中西區","LI":"福安里","LIN":"14鄰","STREET":"永福路","SECT":"二段","MAREA":" ","LANE":"３５巷","ALLEY":" ","HOUSE_NO":"４２號","E_COORD97":167959.815405,"N_COORD97":2543470.9911199999,"ADDRESS":"永福路二段３５巷４２號","OBJECTID":651707},"geometry":{"x":167959.81540500186,"y":2543470.9911200013}},{"attributes":{"ID":651735,"DIS_CODE":0,"TOWNNAME":"善化區","LI":"小新里","LIN":"11鄰","STREET":"月眉園路","SECT":" ","MAREA":" ","LANE":"５１巷","ALLEY":" ","HOUSE_NO":"１２號","E_COORD97":178662.95013499999,"N_COORD97":2556664.03889,"ADDRESS":"月眉園路５１巷１２號","OBJECTID":651708},"geometry":{"x":178662.95013500005,"y":2556664.0388850011}},{"attributes":{"ID":651736,"DIS_CODE":0,"TOWNNAME":"善化區","LI":"小新里","LIN":"11鄰","STREET":"月眉園路","SECT":" ","MAREA":" ","LANE":"５１巷","ALLEY":" ","HOUSE_NO":"１６號","E_COORD97":178657.49602399999,"N_COORD97":2556664.1976399999,"ADDRESS":"月眉園路５１巷１６號","OBJECTID":651709},"geometry":{"x":178657.49602399953,"y":2556664.1976350043}},{"attributes":{"ID":651737,"DIS_CODE":0,"TOWNNAME":"善化區","LI":"小新里","LIN":"11鄰","STREET":"月眉園路","SECT":" ","MAREA":" ","LANE":"５１巷","ALLEY":" ","HOUSE_NO":"１８號","E_COORD97":178652.200771,"N_COORD97":2556664.3034700002,"ADDRESS":"月眉園路５１巷１８號","OBJECTID":651710},"geometry":{"x":178652.2007710021,"y":2556664.3034680001}},{"attributes":{"ID":651738,"DIS_CODE":0,"TOWNNAME":"善化區","LI":"小新里","LIN":"11鄰","STREET":"月眉園路","SECT":" ","MAREA":" ","LANE":"５１巷","ALLEY":" ","HOUSE_NO":"２０號","E_COORD97":178646.95847099999,"N_COORD97":2556664.25055,"ADDRESS":"月眉園路５１巷２０號","OBJECTID":651711},"geometry":{"x":178646.95847100113,"y":2556664.2505520023}},{"attributes":{"ID":651739,"DIS_CODE":0,"TOWNNAME":"善化區","LI":"小新里","LIN":"11鄰","STREET":"月眉園路","SECT":" ","MAREA":" ","LANE":"５１巷","ALLEY":" ","HOUSE_NO":"２２號","E_COORD97":178641.92798000001,"N_COORD97":2556664.4622200001,"ADDRESS":"月眉園路５１巷２２號","OBJECTID":651712},"geometry":{"x":178641.92797999922,"y":2556664.4622179996}},{"attributes":{"ID":651740,"DIS_CODE":0,"TOWNNAME":"善化區","LI":"小新里","LIN":"11鄰","STREET":"月眉園路","SECT":" ","MAREA":" ","LANE":"５１巷","ALLEY":" ","HOUSE_NO":"２６號","E_COORD97":178635.520724,"N_COORD97":2556665.0443000002,"ADDRESS":"月眉園路５１巷２６號","OBJECTID":651713},"geometry":{"x":178635.52072400041,"y":2556665.0443010014}},{"attributes":{"ID":651741,"DIS_CODE":0,"TOWNNAME":"中西區","LI":"福安里","LIN":"14鄰","STREET":"永福路","SECT":"二段","MAREA":" ","LANE":"３５巷","ALLEY":" ","HOUSE_NO":"４４號","E_COORD97":167958.12040700001,"N_COORD97":2543469.0861200001,"ADDRESS":"永福路二段３５巷４４號","OBJECTID":651714},"geometry":{"x":167958.12040700112,"y":2543469.0861210003}},{"attributes":{"ID":651742,"DIS_CODE":0,"TOWNNAME":"善化區","LI":"小新里","LIN":"11鄰","STREET":"月眉園路","SECT":" ","MAREA":" ","LANE":"７１巷","ALLEY":" ","HOUSE_NO":"１號","E_COORD97":178684.29000400001,"N_COORD97":2556688.3805399998,"ADDRESS":"月眉園路７１巷１號","OBJECTID":651715},"geometry":{"x":178684.290004001,"y":2556688.3805390019}},{"attributes":{"ID":651743,"DIS_CODE":0,"TOWNNAME":"善化區","LI":"小新里","LIN":"11鄰","STREET":"月眉園路","SECT":" ","MAREA":" ","LANE":"７１巷","ALLEY":" ","HOUSE_NO":"３號","E_COORD97":178679.100656,"N_COORD97":2556688.6980400002,"ADDRESS":"月眉園路７１巷３號","OBJECTID":651716},"geometry":{"x":178679.1006560009,"y":2556688.698038999}},{"attributes":{"ID":651744,"DIS_CODE":0,"TOWNNAME":"善化區","LI":"小新里","LIN":"11鄰","STREET":"月眉園路","SECT":" ","MAREA":" ","LANE":"７１巷","ALLEY":" ","HOUSE_NO":"５號","E_COORD97":178673.91130800001,"N_COORD97":2556688.8038699999,"ADDRESS":"月眉園路７１巷５號","OBJECTID":651717},"geometry":{"x":178673.9113080008,"y":2556688.8038720004}},{"attributes":{"ID":651745,"DIS_CODE":0,"TOWNNAME":"善化區","LI":"小新里","LIN":"11鄰","STREET":"月眉園路","SECT":" ","MAREA":" ","LANE":"７１巷","ALLEY":" ","HOUSE_NO":"７號","E_COORD97":178668.61605499999,"N_COORD97":2556688.8038699999,"ADDRESS":"月眉園路７１巷７號","OBJECTID":651718},"geometry":{"x":178668.61605500057,"y":2556688.8038720004}},{"attributes":{"ID":651746,"DIS_CODE":0,"TOWNNAME":"善化區","LI":"小新里","LIN":"11鄰","STREET":"月眉園路","SECT":" ","MAREA":" ","LANE":"７１巷","ALLEY":" ","HOUSE_NO":"９號","E_COORD97":178663.53261200001,"N_COORD97":2556689.0155400001,"ADDRESS":"月眉園路７１巷９號","OBJECTID":651719},"geometry":{"x":178663.53261200059,"y":2556689.0155380014}},{"attributes":{"ID":651747,"DIS_CODE":0,"TOWNNAME":"中西區","LI":"福安里","LIN":"14鄰","STREET":"永福路","SECT":"二段","MAREA":" ","LANE":"３５巷","ALLEY":" ","HOUSE_NO":"６０號","E_COORD97":167945.83167399999,"N_COORD97":2543445.90863,"ADDRESS":"永福路二段３５巷６０號","OBJECTID":651720},"geometry":{"x":167945.83167400118,"y":2543445.9086340033}},{"attributes":{"ID":651748,"DIS_CODE":0,"TOWNNAME":"善化區","LI":"小新里","LIN":"11鄰","STREET":"月眉園路","SECT":" ","MAREA":" ","LANE":"７１巷","ALLEY":" ","HOUSE_NO":"１１號","E_COORD97":178658.13145399999,"N_COORD97":2556689.2272000001,"ADDRESS":"月眉園路７１巷１１號","OBJECTID":651721},"geometry":{"x":178658.13145400025,"y":2556689.2272050027}},{"attributes":{"ID":651749,"DIS_CODE":0,"TOWNNAME":"善化區","LI":"小新里","LIN":"11鄰","STREET":"月眉園路","SECT":" ","MAREA":" ","LANE":"７１巷","ALLEY":" ","HOUSE_NO":"１３號","E_COORD97":178653.04801200001,"N_COORD97":2556689.2272000001,"ADDRESS":"月眉園路７１巷１３號","OBJECTID":651722},"geometry":{"x":178653.04801199958,"y":2556689.2272050027}},{"attributes":{"ID":651750,"DIS_CODE":0,"TOWNNAME":"善化區","LI":"小新里","LIN":"11鄰","STREET":"月眉園路","SECT":" ","MAREA":" ","LANE":"７１巷","ALLEY":" ","HOUSE_NO":"１５號","E_COORD97":178647.964569,"N_COORD97":2556689.6505399998,"ADDRESS":"月眉園路７１巷１５號","OBJECTID":651723},"geometry":{"x":178647.96456900053,"y":2556689.6505380012}},{"attributes":{"ID":651751,"DIS_CODE":0,"TOWNNAME":"善化區","LI":"小新里","LIN":"11鄰","STREET":"月眉園路","SECT":" ","MAREA":" ","LANE":"７１巷","ALLEY":" ","HOUSE_NO":"１７號","E_COORD97":178642.56341100001,"N_COORD97":2556689.4388700002,"ADDRESS":"月眉園路７１巷１７號","OBJECTID":651724},"geometry":{"x":178642.56341100018,"y":2556689.4388720002}},{"attributes":{"ID":651752,"DIS_CODE":0,"TOWNNAME":"善化區","LI":"小新里","LIN":"11鄰","STREET":"月眉園路","SECT":" ","MAREA":" ","LANE":"７１巷","ALLEY":" ","HOUSE_NO":"１９號","E_COORD97":178636.52682200001,"N_COORD97":2556689.9680400002,"ADDRESS":"月眉園路７１巷１９號","OBJECTID":651725},"geometry":{"x":178636.52682199888,"y":2556689.9680380002}},{"attributes":{"ID":651753,"DIS_CODE":0,"TOWNNAME":"善化區","LI":"小新里","LIN":"11鄰","STREET":"月眉園路","SECT":" ","MAREA":" ","LANE":"７１巷","ALLEY":" ","HOUSE_NO":"１９號","E_COORD97":178636.52682200001,"N_COORD97":2556689.9680400002,"ADDRESS":"月眉園路７１巷１９號","OBJECTID":651726},"geometry":{"x":178636.52682199888,"y":2556689.9680380002}},{"attributes":{"ID":651754,"DIS_CODE":0,"TOWNNAME":"善化區","LI":"小新里","LIN":"11鄰","STREET":"月眉園路","SECT":" ","MAREA":" ","LANE":"７１巷","ALLEY":" ","HOUSE_NO":"２號","E_COORD97":178684.39590900001,"N_COORD97":2556694.3072000002,"ADDRESS":"月眉園路７１巷２號","OBJECTID":651727},"geometry":{"x":178684.39590900112,"y":2556694.307202002}},{"attributes":{"ID":651755,"DIS_CODE":0,"TOWNNAME":"善化區","LI":"小新里","LIN":"11鄰","STREET":"月眉園路","SECT":" ","MAREA":" ","LANE":"７１巷","ALLEY":" ","HOUSE_NO":"６號","E_COORD97":178679.206561,"N_COORD97":2556695.0480399998,"ADDRESS":"月眉園路７１巷６號","OBJECTID":651728},"geometry":{"x":178679.20656100102,"y":2556695.0480349995}},{"attributes":{"ID":651756,"DIS_CODE":0,"TOWNNAME":"善化區","LI":"小新里","LIN":"11鄰","STREET":"月眉園路","SECT":" ","MAREA":" ","LANE":"７１巷","ALLEY":" ","HOUSE_NO":"８號","E_COORD97":178674.12311799999,"N_COORD97":2556695.5772000002,"ADDRESS":"月眉園路７１巷８號","OBJECTID":651729},"geometry":{"x":178674.12311800104,"y":2556695.5772020016}},{"attributes":{"ID":651757,"DIS_CODE":0,"TOWNNAME":"善化區","LI":"小新里","LIN":"11鄰","STREET":"月眉園路","SECT":" ","MAREA":" ","LANE":"７１巷","ALLEY":" ","HOUSE_NO":"１０號","E_COORD97":178668.93377,"N_COORD97":2556695.68304,"ADDRESS":"月眉園路７１巷１０號","OBJECTID":651730},"geometry":{"x":178668.93377000093,"y":2556695.683035003}},{"attributes":{"ID":651758,"DIS_CODE":0,"TOWNNAME":"善化區","LI":"小新里","LIN":"11鄰","STREET":"月眉園路","SECT":" ","MAREA":" ","LANE":"７１巷","ALLEY":" ","HOUSE_NO":"１２號","E_COORD97":178663.744423,"N_COORD97":2556695.8947000001,"ADDRESS":"月眉園路７１巷１２號","OBJECTID":651731},"geometry":{"x":178663.74442300014,"y":2556695.8947010003}},{"attributes":{"ID":651759,"DIS_CODE":0,"TOWNNAME":"善化區","LI":"小新里","LIN":"11鄰","STREET":"月眉園路","SECT":" ","MAREA":" ","LANE":"７１巷","ALLEY":" ","HOUSE_NO":"１６號","E_COORD97":178658.44917000001,"N_COORD97":2556696.1063700002,"ADDRESS":"月眉園路７１巷１６號","OBJECTID":651732},"geometry":{"x":178658.44916999992,"y":2556696.1063680016}},{"attributes":{"ID":651760,"DIS_CODE":0,"TOWNNAME":"善化區","LI":"小新里","LIN":"11鄰","STREET":"月眉園路","SECT":" ","MAREA":" ","LANE":"７１巷","ALLEY":" ","HOUSE_NO":"１８號","E_COORD97":178653.471632,"N_COORD97":2556696.0005399999,"ADDRESS":"月眉園路７１巷１８號","OBJECTID":651733},"geometry":{"x":178653.47163200006,"y":2556696.0005350001}},{"attributes":{"ID":651761,"DIS_CODE":0,"TOWNNAME":"善化區","LI":"小新里","LIN":"11鄰","STREET":"月眉園路","SECT":" ","MAREA":" ","LANE":"７１巷","ALLEY":" ","HOUSE_NO":"２０號","E_COORD97":178647.964569,"N_COORD97":2556696.4238700001,"ADDRESS":"月眉園路７１巷２０號","OBJECTID":651734},"geometry":{"x":178647.96456900053,"y":2556696.4238680042}},{"attributes":{"ID":651762,"DIS_CODE":0,"TOWNNAME":"善化區","LI":"小新里","LIN":"11鄰","STREET":"月眉園路","SECT":" ","MAREA":" ","LANE":"７１巷","ALLEY":" ","HOUSE_NO":"２２號","E_COORD97":178642.987031,"N_COORD97":2556696.4238700001,"ADDRESS":"月眉園路７１巷２２號","OBJECTID":651735},"geometry":{"x":178642.98703100067,"y":2556696.4238680042}},{"attributes":{"ID":651763,"DIS_CODE":0,"TOWNNAME":"善化區","LI":"小新里","LIN":"11鄰","STREET":"月眉園路","SECT":" ","MAREA":" ","LANE":"７１巷","ALLEY":" ","HOUSE_NO":"２６號","E_COORD97":178636.73863199999,"N_COORD97":2556696.7413699999,"ADDRESS":"月眉園路７１巷２６號","OBJECTID":651736},"geometry":{"x":178636.73863200005,"y":2556696.7413680013}},{"attributes":{"ID":651764,"DIS_CODE":0,"TOWNNAME":"中西區","LI":"西湖里","LIN":"8鄰","STREET":"湖美三街","SECT":" ","MAREA":" ","LANE":" ","ALLEY":" ","HOUSE_NO":"５８號","E_COORD97":166223.39661699999,"N_COORD97":2544656.98924,"ADDRESS":"湖美三街５８號","OBJECTID":651737},"geometry":{"x":166223.39661700092,"y":2544656.9892430026}},{"attributes":{"ID":651765,"DIS_CODE":0,"TOWNNAME":"中西區","LI":"西湖里","LIN":"8鄰","STREET":"湖美三街","SECT":" ","MAREA":" ","LANE":" ","ALLEY":" ","HOUSE_NO":"５６號","E_COORD97":166222.760691,"N_COORD97":2544650.2159099998,"ADDRESS":"湖美三街５６號","OBJECTID":651738},"geometry":{"x":166222.76069100015,"y":2544650.2159130014}},{"attributes":{"ID":651766,"DIS_CODE":0,"TOWNNAME":"中西區","LI":"西湖里","LIN":"8鄰","STREET":"湖美三街","SECT":" ","MAREA":" ","LANE":" ","ALLEY":" ","HOUSE_NO":"５２號","E_COORD97":166222.54871500001,"N_COORD97":2544643.8659199998,"ADDRESS":"湖美三街５２號","OBJECTID":651739},"geometry":{"x":166222.54871500097,"y":2544643.8659170028}},{"attributes":{"ID":651767,"DIS_CODE":0,"TOWNNAME":"中西區","LI":"西湖里","LIN":"8鄰","STREET":"湖美三街","SECT":" ","MAREA":" ","LANE":" ","ALLEY":" ","HOUSE_NO":"５０號","E_COORD97":166222.54871500001,"N_COORD97":2544638.7859200002,"ADDRESS":"湖美三街５０號","OBJECTID":651740},"geometry":{"x":166222.54871500097,"y":2544638.7859200034}},{"attributes":{"ID":651768,"DIS_CODE":0,"TOWNNAME":"楠西區","LI":"鹿田里","LIN":"6鄰","STREET":" ","SECT":" ","MAREA":"鹿陶洋","LANE":" ","ALLEY":" ","HOUSE_NO":"９８號之１","E_COORD97":197696.37779999999,"N_COORD97":2561694.6748100002,"ADDRESS":"鹿陶洋９８號之１","OBJECTID":651741},"geometry":{"x":197696.3777999999,"y":2561694.6748089995}},{"attributes":{"ID":651769,"DIS_CODE":0,"TOWNNAME":"楠西區","LI":"鹿田里","LIN":"6鄰","STREET":" ","SECT":" ","MAREA":"鹿陶洋","LANE":" ","ALLEY":" ","HOUSE_NO":"９８號之３","E_COORD97":197560.14393799999,"N_COORD97":2561578.57571,"ADDRESS":"鹿陶洋９８號之３","OBJECTID":651742},"geometry":{"x":197560.14393800125,"y":2561578.575705003}},{"attributes":{"ID":651770,"DIS_CODE":0,"TOWNNAME":"安平區","LI":"建平里","LIN":"8鄰","STREET":"中華西路","SECT":"二段","MAREA":" ","LANE":" ","ALLEY":" ","HOUSE_NO":"４８５號","E_COORD97":166562.92786500001,"N_COORD97":2544028.8357799998,"ADDRESS":"中華西路二段４８５號","OBJECTID":651743},"geometry":{"x":166562.92786500044,"y":2544028.8357760012}},{"attributes":{"ID":651771,"DIS_CODE":0,"TOWNNAME":"楠西區","LI":"鹿田里","LIN":"6鄰","STREET":" ","SECT":" ","MAREA":"鹿陶洋","LANE":" ","ALLEY":" ","HOUSE_NO":"９８號之４","E_COORD97":197565.65261600001,"N_COORD97":2561533.7023999998,"ADDRESS":"鹿陶洋９８號之４","OBJECTID":651744},"geometry":{"x":197565.65261600073,"y":2561533.7023960017}},{"attributes":{"ID":651772,"DIS_CODE":0,"TOWNNAME":"楠西區","LI":"鹿田里","LIN":"6鄰","STREET":" ","SECT":" ","MAREA":"鹿陶洋","LANE":" ","ALLEY":" ","HOUSE_NO":"９８號之５","E_COORD97":197551.88091899999,"N_COORD97":2561534.9723999999,"ADDRESS":"鹿陶洋９８號之５","OBJECTID":651745},"geometry":{"x":197551.8809189992,"y":2561534.9723960012}},{"attributes":{"ID":651773,"DIS_CODE":0,"TOWNNAME":"安南區","LI":"溪心里","LIN":"7鄰","STREET":"本原街","SECT":"二段","MAREA":" ","LANE":"１１６巷","ALLEY":" ","HOUSE_NO":"３１號之１","E_COORD97":166746.32725100001,"N_COORD97":2550870.7287099999,"ADDRESS":"本原街二段１１６巷３１號之１","OBJECTID":651746},"geometry":{"x":166746.32725100033,"y":2550870.728709003}},{"attributes":{"ID":651774,"DIS_CODE":0,"TOWNNAME":"中西區","LI":"大涼里","LIN":"24鄰","STREET":"永華一街","SECT":" ","MAREA":" ","LANE":"９６巷","ALLEY":" ","HOUSE_NO":"９號","E_COORD97":166918.987097,"N_COORD97":2543478.1054199999,"ADDRESS":"永華一街９６巷９號","OBJECTID":651747},"geometry":{"x":166918.98709699884,"y":2543478.105415998}},{"attributes":{"ID":651775,"DIS_CODE":0,"TOWNNAME":"中西區","LI":"大涼里","LIN":"24鄰","STREET":"永華一街","SECT":" ","MAREA":" ","LANE":"９６巷","ALLEY":" ","HOUSE_NO":"１３號","E_COORD97":166924.07450799999,"N_COORD97":2543477.25875,"ADDRESS":"永華一街９６巷１３號","OBJECTID":651748},"geometry":{"x":166924.07450799923,"y":2543477.258750001}},{"attributes":{"ID":651776,"DIS_CODE":0,"TOWNNAME":"安平區","LI":"建平里","LIN":"27鄰","STREET":"永華五街","SECT":" ","MAREA":" ","LANE":" ","ALLEY":" ","HOUSE_NO":"９１號之１","E_COORD97":165874.65222600001,"N_COORD97":2543676.6226300001,"ADDRESS":"永華五街９１號之１","OBJECTID":651749},"geometry":{"x":165874.65222600009,"y":2543676.622632999}},{"attributes":{"ID":651777,"DIS_CODE":0,"TOWNNAME":"安平區","LI":"建平里","LIN":"27鄰","STREET":"永華五街","SECT":" ","MAREA":" ","LANE":" ","ALLEY":" ","HOUSE_NO":"９１號之２","E_COORD97":165874.65222600001,"N_COORD97":2543676.6226300001,"ADDRESS":"永華五街９１號之２","OBJECTID":651750},"geometry":{"x":165874.65222600009,"y":2543676.622632999}},{"attributes":{"ID":651778,"DIS_CODE":0,"TOWNNAME":"安平區","LI":"建平里","LIN":"27鄰","STREET":"永華五街","SECT":" ","MAREA":" ","LANE":" ","ALLEY":" ","HOUSE_NO":"９１號之３","E_COORD97":165874.65222600001,"N_COORD97":2543676.6226300001,"ADDRESS":"永華五街９１號之３","OBJECTID":651751},"geometry":{"x":165874.65222600009,"y":2543676.622632999}},{"attributes":{"ID":651779,"DIS_CODE":0,"TOWNNAME":"安平區","LI":"建平里","LIN":"27鄰","STREET":"永華五街","SECT":" ","MAREA":" ","LANE":" ","ALLEY":" ","HOUSE_NO":"９１號之４","E_COORD97":165874.65222600001,"N_COORD97":2543676.6226300001,"ADDRESS":"永華五街９１號之４","OBJECTID":651752},"geometry":{"x":165874.65222600009,"y":2543676.622632999}},{"attributes":{"ID":651780,"DIS_CODE":0,"TOWNNAME":"安平區","LI":"建平里","LIN":"27鄰","STREET":"永華五街","SECT":" ","MAREA":" ","LANE":" ","ALLEY":" ","HOUSE_NO":"９１號之５","E_COORD97":165874.65222600001,"N_COORD97":2543676.6226300001,"ADDRESS":"永華五街９１號之５","OBJECTID":651753},"geometry":{"x":165874.65222600009,"y":2543676.622632999}},{"attributes":{"ID":651781,"DIS_CODE":0,"TOWNNAME":"歸仁區","LI":"沙崙里","LIN":"6鄰","STREET":" ","SECT":" ","MAREA":"沙崙","LANE":" ","ALLEY":" ","HOUSE_NO":"２８３號","E_COORD97":179571.32124300001,"N_COORD97":2538005.92411,"ADDRESS":"沙崙２８３號","OBJECTID":651754},"geometry":{"x":179571.32124300208,"y":2538005.9241080023}},{"attributes":{"ID":651782,"DIS_CODE":0,"TOWNNAME":"安平區","LI":"建平里","LIN":"28鄰","STREET":"永華路","SECT":"二段","MAREA":" ","LANE":" ","ALLEY":" ","HOUSE_NO":"２４８號之７","E_COORD97":165930.80772000001,"N_COORD97":2543434.8994300002,"ADDRESS":"永華路二段２４８號之７","OBJECTID":651755},"geometry":{"x":165930.80772000086,"y":2543434.8994300012}},{"attributes":{"ID":651783,"DIS_CODE":0,"TOWNNAME":"安南區","LI":"溪心里","LIN":"4鄰","STREET":"安吉路","SECT":"二段","MAREA":" ","LANE":" ","ALLEY":" ","HOUSE_NO":"９９號","E_COORD97":166746.32725100001,"N_COORD97":2550870.7287099999,"ADDRESS":"安吉路二段９９號","OBJECTID":651756},"geometry":{"x":166746.32725100033,"y":2550870.728709003}},{"attributes":{"ID":651784,"DIS_CODE":0,"TOWNNAME":"安南區","LI":"溪心里","LIN":"4鄰","STREET":"安吉路","SECT":"二段","MAREA":" ","LANE":" ","ALLEY":" ","HOUSE_NO":"９９號","E_COORD97":166746.32725100001,"N_COORD97":2550870.7287099999,"ADDRESS":"安吉路二段９９號","OBJECTID":651757},"geometry":{"x":166746.32725100033,"y":2550870.728709003}},{"attributes":{"ID":651785,"DIS_CODE":0,"TOWNNAME":"安南區","LI":"溪心里","LIN":"4鄰","STREET":"安吉路","SECT":"二段","MAREA":" ","LANE":" ","ALLEY":" ","HOUSE_NO":"９９號","E_COORD97":167061.22722199999,"N_COORD97":2550891.4191100001,"ADDRESS":"安吉路二段９９號","OBJECTID":651758},"geometry":{"x":167061.22722200025,"y":2550891.419114003}},{"attributes":{"ID":651786,"DIS_CODE":0,"TOWNNAME":"安南區","LI":"溪心里","LIN":"4鄰","STREET":"安吉路","SECT":"二段","MAREA":" ","LANE":" ","ALLEY":" ","HOUSE_NO":"１０３號","E_COORD97":167061.22722199999,"N_COORD97":2550891.4191100001,"ADDRESS":"安吉路二段１０３號","OBJECTID":651759},"geometry":{"x":167061.22722200025,"y":2550891.419114003}},{"attributes":{"ID":651787,"DIS_CODE":0,"TOWNNAME":"中西區","LI":"普濟里","LIN":"1鄰","STREET":"西門路","SECT":"二段","MAREA":" ","LANE":" ","ALLEY":" ","HOUSE_NO":"３７９號之１","E_COORD97":168016.145732,"N_COORD97":2544332.8859100002,"ADDRESS":"西門路二段３７９號之１","OBJECTID":651760},"geometry":{"x":168016.1457320014,"y":2544332.8859060034}},{"attributes":{"ID":651788,"DIS_CODE":0,"TOWNNAME":"安南區","LI":"溪心里","LIN":"4鄰","STREET":"安吉路","SECT":"二段","MAREA":" ","LANE":" ","ALLEY":" ","HOUSE_NO":"９９號","E_COORD97":167061.22722199999,"N_COORD97":2550891.4191100001,"ADDRESS":"安吉路二段９９號","OBJECTID":651761},"geometry":{"x":167061.22722200025,"y":2550891.419114003}},{"attributes":{"ID":651789,"DIS_CODE":0,"TOWNNAME":"安平區","LI":"建平里","LIN":"8鄰","STREET":"府前三街","SECT":" ","MAREA":" ","LANE":"２５巷","ALLEY":" ","HOUSE_NO":"１７號三樓","E_COORD97":166513.765319,"N_COORD97":2543776.5292400001,"ADDRESS":"府前三街２５巷１７號三樓","OBJECTID":651762},"geometry":{"x":166513.765319,"y":2543776.5292450022}},{"attributes":{"ID":651790,"DIS_CODE":0,"TOWNNAME":"中西區","LI":"普濟里","LIN":"1鄰","STREET":"西門路","SECT":"二段","MAREA":" ","LANE":" ","ALLEY":" ","HOUSE_NO":"３８５號之１","E_COORD97":168022.71377199999,"N_COORD97":2544339.9767399998,"ADDRESS":"西門路二段３８５號之１","OBJECTID":651763},"geometry":{"x":168022.71377200074,"y":2544339.9767350033}},{"attributes":{"ID":651791,"DIS_CODE":0,"TOWNNAME":"安南區","LI":"溪心里","LIN":"4鄰","STREET":"安吉路","SECT":"二段","MAREA":" ","LANE":" ","ALLEY":" ","HOUSE_NO":"９９號","E_COORD97":167050.85230299999,"N_COORD97":2550858.3991299998,"ADDRESS":"安吉路二段９９號","OBJECTID":651764},"geometry":{"x":167050.85230300203,"y":2550858.3991320003}},{"attributes":{"ID":651792,"DIS_CODE":0,"TOWNNAME":"安南區","LI":"溪心里","LIN":"4鄰","STREET":"安吉路","SECT":"二段","MAREA":" ","LANE":" ","ALLEY":" ","HOUSE_NO":"１０５號","E_COORD97":167064.40321700001,"N_COORD97":2550910.68077,"ADDRESS":"安吉路二段１０５號","OBJECTID":651765},"geometry":{"x":167064.40321700089,"y":2550910.6807710007}},{"attributes":{"ID":651793,"DIS_CODE":0,"TOWNNAME":"楠西區","LI":"鹿田里","LIN":"7鄰","STREET":" ","SECT":" ","MAREA":"油車","LANE":" ","ALLEY":" ","HOUSE_NO":"１４號之３","E_COORD97":197712.90383600001,"N_COORD97":2561990.5618599998,"ADDRESS":"油車１４號之３","OBJECTID":651766},"geometry":{"x":197712.90383599978,"y":2561990.5618590005}},{"attributes":{"ID":651794,"DIS_CODE":0,"TOWNNAME":"楠西區","LI":"鹿田里","LIN":"7鄰","STREET":" ","SECT":" ","MAREA":"油車","LANE":" ","ALLEY":" ","HOUSE_NO":"１４號之１","E_COORD97":197713.539453,"N_COORD97":2561993.1018599998,"ADDRESS":"油車１４號之１","OBJECTID":651767},"geometry":{"x":197713.53945299983,"y":2561993.101857001}},{"attributes":{"ID":651795,"DIS_CODE":0,"TOWNNAME":"中西區","LI":"西湖里","LIN":"40鄰","STREET":"頂美三街","SECT":" ","MAREA":" ","LANE":" ","ALLEY":" ","HOUSE_NO":"１３８號","E_COORD97":166577.454661,"N_COORD97":2544821.8914200002,"ADDRESS":"頂美三街１３８號","OBJECTID":651768},"geometry":{"x":166577.45466100052,"y":2544821.8914150018}},{"attributes":{"ID":651796,"DIS_CODE":0,"TOWNNAME":"安南區","LI":"溪心里","LIN":"9鄰","STREET":"海中街","SECT":" ","MAREA":" ","LANE":" ","ALLEY":" ","HOUSE_NO":"１８２之１號","E_COORD97":166290.51894000001,"N_COORD97":2549297.9933099998,"ADDRESS":"海中街１８２之１號","OBJECTID":651769},"geometry":{"x":166290.51894000079,"y":2549297.9933080003}},{"attributes":{"ID":651797,"DIS_CODE":0,"TOWNNAME":"中西區","LI":"西湖里","LIN":"40鄰","STREET":"中華西路","SECT":"二段","MAREA":" ","LANE":" ","ALLEY":" ","HOUSE_NO":"６８７號","E_COORD97":166648.14847499999,"N_COORD97":2544824.0080800001,"ADDRESS":"中華西路二段６８７號","OBJECTID":651770},"geometry":{"x":166648.14847500063,"y":2544824.0080810022}},{"attributes":{"ID":651798,"DIS_CODE":0,"TOWNNAME":"安平區","LI":"建平里","LIN":"6鄰","STREET":"慶平路","SECT":" ","MAREA":" ","LANE":" ","ALLEY":" ","HOUSE_NO":"１９０號","E_COORD97":165877.40702399999,"N_COORD97":2544206.8473499999,"ADDRESS":"慶平路１９０號","OBJECTID":651771},"geometry":{"x":165877.40702399984,"y":2544206.8473460004}},{"attributes":{"ID":651799,"DIS_CODE":0,"TOWNNAME":"中西區","LI":"協進里","LIN":"11鄰","STREET":"民權路","SECT":"三段","MAREA":" ","LANE":" ","ALLEY":" ","HOUSE_NO":"３９３號","E_COORD97":166843.05990600001,"N_COORD97":2544380.9899900001,"ADDRESS":"民權路三段３９３號","OBJECTID":651772},"geometry":{"x":166843.0599060012,"y":2544380.9899870027}},{"attributes":{"ID":651800,"DIS_CODE":0,"TOWNNAME":"中西區","LI":"普濟里","LIN":"3鄰","STREET":"國華街","SECT":"三段","MAREA":" ","LANE":" ","ALLEY":" ","HOUSE_NO":"１９６之１號","E_COORD97":167902.370329,"N_COORD97":2544276.5825999998,"ADDRESS":"國華街三段１９６之１號","OBJECTID":651773},"geometry":{"x":167902.37032900099,"y":2544276.5826030001}},{"attributes":{"ID":651801,"DIS_CODE":0,"TOWNNAME":"中西區","LI":"協進里","LIN":"11鄰","STREET":"民權路","SECT":"三段","MAREA":" ","LANE":" ","ALLEY":" ","HOUSE_NO":"３９５號","E_COORD97":166836.48866599999,"N_COORD97":2544382.4716500002,"ADDRESS":"民權路三段３９５號","OBJECTID":651774},"geometry":{"x":166836.48866600078,"y":2544382.4716520011}},{"attributes":{"ID":651802,"DIS_CODE":0,"TOWNNAME":"安平區","LI":"建平里","LIN":"7鄰","STREET":"建平十街","SECT":" ","MAREA":" ","LANE":" ","ALLEY":" ","HOUSE_NO":"１６號","E_COORD97":166380.26357899999,"N_COORD97":2543837.91255,"ADDRESS":"建平十街１６號","OBJECTID":651775},"geometry":{"x":166380.26357899979,"y":2543837.9125459995}},{"attributes":{"ID":651803,"DIS_CODE":0,"TOWNNAME":"安平區","LI":"建平里","LIN":"7鄰","STREET":"建平十街","SECT":" ","MAREA":" ","LANE":" ","ALLEY":" ","HOUSE_NO":"３７號之１","E_COORD97":166366.48959000001,"N_COORD97":2543812.08923,"ADDRESS":"建平十街３７號之１","OBJECTID":651776},"geometry":{"x":166366.48959000129,"y":2543812.089226}},{"attributes":{"ID":651804,"DIS_CODE":0,"TOWNNAME":"安南區","LI":"溪心里","LIN":"4鄰","STREET":"安吉路","SECT":"二段","MAREA":" ","LANE":" ","ALLEY":" ","HOUSE_NO":"１之６號","E_COORD97":167026.50300200001,"N_COORD97":2550701.5542199998,"ADDRESS":"安吉路二段１之６號","OBJECTID":651777},"geometry":{"x":167026.50300200004,"y":2550701.5542169996}},{"attributes":{"ID":651805,"DIS_CODE":0,"TOWNNAME":"安平區","LI":"建平里","LIN":"7鄰","STREET":"建平十街","SECT":" ","MAREA":" ","LANE":" ","ALLEY":" ","HOUSE_NO":"３７號之２","E_COORD97":166366.48959000001,"N_COORD97":2543812.08923,"ADDRESS":"建平十街３７號之２","OBJECTID":651778},"geometry":{"x":166366.48959000129,"y":2543812.089226}},{"attributes":{"ID":651806,"DIS_CODE":0,"TOWNNAME":"中西區","LI":"協進里","LIN":"11鄰","STREET":"民權路","SECT":"三段","MAREA":" ","LANE":" ","ALLEY":" ","HOUSE_NO":"３９７號","E_COORD97":166829.24849599999,"N_COORD97":2544384.0521900002,"ADDRESS":"民權路三段３９７號","OBJECTID":651779},"geometry":{"x":166829.24849599972,"y":2544384.0521880016}},{"attributes":{"ID":651807,"DIS_CODE":0,"TOWNNAME":"安南區","LI":"溪心里","LIN":"4鄰","STREET":"安吉路","SECT":"二段","MAREA":" ","LANE":" ","ALLEY":" ","HOUSE_NO":"１之７號","E_COORD97":167027.34993500001,"N_COORD97":2550704.72921,"ADDRESS":"安吉路二段１之７號","OBJECTID":651780},"geometry":{"x":167027.3499349989,"y":2550704.7292149998}},{"attributes":{"ID":651808,"DIS_CODE":0,"TOWNNAME":"中西區","LI":"協進里","LIN":"11鄰","STREET":"民權路","SECT":"三段","MAREA":" ","LANE":" ","ALLEY":" ","HOUSE_NO":"３９９號","E_COORD97":166822.88923299999,"N_COORD97":2544385.7455199999,"ADDRESS":"民權路三段３９９號","OBJECTID":651781},"geometry":{"x":166822.88923300058,"y":2544385.7455199994}},{"attributes":{"ID":651809,"DIS_CODE":0,"TOWNNAME":"楠西區","LI":"鹿田里","LIN":"7鄰","STREET":" ","SECT":" ","MAREA":"油車","LANE":" ","ALLEY":" ","HOUSE_NO":"１６號之１","E_COORD97":197750.405226,"N_COORD97":2562037.8693300001,"ADDRESS":"油車１６號之１","OBJECTID":651782},"geometry":{"x":197750.40522600058,"y":2562037.869332999}},{"attributes":{"ID":651810,"DIS_CODE":0,"TOWNNAME":"安南區","LI":"溪心里","LIN":"4鄰","STREET":"安吉路","SECT":"二段","MAREA":" ","LANE":" ","ALLEY":" ","HOUSE_NO":"１之３號","E_COORD97":167026.29126900001,"N_COORD97":2550693.2992199999,"ADDRESS":"安吉路二段１之３號","OBJECTID":651783},"geometry":{"x":167026.29126899969,"y":2550693.2992210016}},{"attributes":{"ID":651811,"DIS_CODE":0,"TOWNNAME":"中西區","LI":"協進里","LIN":"11鄰","STREET":"民權路","SECT":"三段","MAREA":" ","LANE":" ","ALLEY":" ","HOUSE_NO":"４０１號","E_COORD97":166816.95392,"N_COORD97":2544387.43885,"ADDRESS":"民權路三段４０１號","OBJECTID":651784},"geometry":{"x":166816.95392000023,"y":2544387.4388530012}},{"attributes":{"ID":651812,"DIS_CODE":0,"TOWNNAME":"楠西區","LI":"鹿田里","LIN":"7鄰","STREET":" ","SECT":" ","MAREA":"油車","LANE":" ","ALLEY":" ","HOUSE_NO":"１６號之３","E_COORD97":197753.58330999999,"N_COORD97":2562027.0743399998,"ADDRESS":"油車１６號之３","OBJECTID":651785},"geometry":{"x":197753.58330999967,"y":2562027.0743390005}},{"attributes":{"ID":651813,"DIS_CODE":0,"TOWNNAME":"安南區","LI":"溪心里","LIN":"8鄰","STREET":"安中路","SECT":"二段","MAREA":" ","LANE":" ","ALLEY":" ","HOUSE_NO":"３０９之１號","E_COORD97":166435.344342,"N_COORD97":2549707.14475,"ADDRESS":"安中路二段３０９之１號","OBJECTID":651786},"geometry":{"x":166435.34434199985,"y":2549707.1447540037}},{"attributes":{"ID":651814,"DIS_CODE":0,"TOWNNAME":"安南區","LI":"溪心里","LIN":"3鄰","STREET":"海佃路","SECT":"三段","MAREA":" ","LANE":" ","ALLEY":" ","HOUSE_NO":"１２之１號","E_COORD97":166363.56684000001,"N_COORD97":2549777.6297200001,"ADDRESS":"海佃路三段１２之１號","OBJECTID":651787},"geometry":{"x":166363.56684000231,"y":2549777.6297159996}},{"attributes":{"ID":651815,"DIS_CODE":0,"TOWNNAME":"楠西區","LI":"鹿田里","LIN":"7鄰","STREET":" ","SECT":" ","MAREA":"油車","LANE":" ","ALLEY":" ","HOUSE_NO":"１６號之５","E_COORD97":197761.931262,"N_COORD97":2562004.8493499998,"ADDRESS":"油車１６號之５","OBJECTID":651788},"geometry":{"x":197761.93126200046,"y":2562004.849351}},{"attributes":{"ID":651816,"DIS_CODE":0,"TOWNNAME":"楠西區","LI":"鹿田里","LIN":"7鄰","STREET":" ","SECT":" ","MAREA":"油車","LANE":" ","ALLEY":" ","HOUSE_NO":"１６號之２０","E_COORD97":197743.201569,"N_COORD97":2561935.9518900001,"ADDRESS":"油車１６號之２０","OBJECTID":651789},"geometry":{"x":197743.20156900026,"y":2561935.9518880006}},{"attributes":{"ID":651817,"DIS_CODE":0,"TOWNNAME":"安南區","LI":"溪心里","LIN":"3鄰","STREET":"安中路","SECT":"二段","MAREA":" ","LANE":" ","ALLEY":" ","HOUSE_NO":"１５６之２０號","E_COORD97":166655.33497500001,"N_COORD97":2549684.91977,"ADDRESS":"安中路二段１５６之２０號","OBJECTID":651790},"geometry":{"x":166655.33497500047,"y":2549684.9197660014}},{"attributes":{"ID":651818,"DIS_CODE":0,"TOWNNAME":"安南區","LI":"溪心里","LIN":"3鄰","STREET":"安中路","SECT":"二段","MAREA":" ","LANE":"３３６巷","ALLEY":" ","HOUSE_NO":"１００號","E_COORD97":166555.185245,"N_COORD97":2550002.4195900001,"ADDRESS":"安中路二段３３６巷１００號","OBJECTID":651791},"geometry":{"x":166555.18524500169,"y":2550002.4195950013}},{"attributes":{"ID":651819,"DIS_CODE":0,"TOWNNAME":"楠西區","LI":"鹿田里","LIN":"7鄰","STREET":" ","SECT":" ","MAREA":"油車","LANE":" ","ALLEY":" ","HOUSE_NO":"１６號之２５","E_COORD97":197797.46367999999,"N_COORD97":2561884.1391699999,"ADDRESS":"油車１６號之２５","OBJECTID":651792},"geometry":{"x":197797.46368000098,"y":2561884.1391650029}},{"attributes":{"ID":651820,"DIS_CODE":0,"TOWNNAME":"中西區","LI":"青年里","LIN":"8鄰","STREET":"民權路","SECT":"一段","MAREA":" ","LANE":"２２０巷","ALLEY":" ","HOUSE_NO":"１８號","E_COORD97":168812.390877,"N_COORD97":2543692.1195,"ADDRESS":"民權路一段２２０巷１８號","OBJECTID":651793},"geometry":{"x":168812.39087700006,"y":2543692.1195049994}},{"attributes":{"ID":651821,"DIS_CODE":0,"TOWNNAME":"中西區","LI":"青年里","LIN":"8鄰","STREET":"民權路","SECT":"一段","MAREA":" ","LANE":"２２０巷","ALLEY":" ","HOUSE_NO":"２０號","E_COORD97":168807.72941299999,"N_COORD97":2543696.9878400001,"ADDRESS":"民權路一段２２０巷２０號","OBJECTID":651794},"geometry":{"x":168807.72941299994,"y":2543696.9878360014}},{"attributes":{"ID":651822,"DIS_CODE":0,"TOWNNAME":"中西區","LI":"青年里","LIN":"8鄰","STREET":"民權路","SECT":"一段","MAREA":" ","LANE":"２２０巷","ALLEY":" ","HOUSE_NO":"２０號","E_COORD97":168807.72941299999,"N_COORD97":2543696.9878400001,"ADDRESS":"民權路一段２２０巷２０號","OBJECTID":651795},"geometry":{"x":168807.72941299994,"y":2543696.9878360014}},{"attributes":{"ID":651823,"DIS_CODE":0,"TOWNNAME":"善化區","LI":"文正里","LIN":"14鄰","STREET":"興農路","SECT":" ","MAREA":" ","LANE":" ","ALLEY":" ","HOUSE_NO":"２６２號","E_COORD97":175750.94189700001,"N_COORD97":2559069.1767099998,"ADDRESS":"興農路２６２號","OBJECTID":651796},"geometry":{"x":175750.94189700019,"y":2559069.1767120007}},{"attributes":{"ID":651824,"DIS_CODE":0,"TOWNNAME":"中西區","LI":"青年里","LIN":"5鄰","STREET":"武德街","SECT":" ","MAREA":" ","LANE":" ","ALLEY":" ","HOUSE_NO":"２１號","E_COORD97":168974.058926,"N_COORD97":2543675.9270100002,"ADDRESS":"武德街２１號","OBJECTID":651797},"geometry":{"x":168974.05892600119,"y":2543675.9270140044}},{"attributes":{"ID":651825,"DIS_CODE":0,"TOWNNAME":"中西區","LI":"青年里","LIN":"4鄰","STREET":"武德街","SECT":" ","MAREA":" ","LANE":"２６巷","ALLEY":" ","HOUSE_NO":"２號","E_COORD97":169010.07933000001,"N_COORD97":2543685.24034,"ADDRESS":"武德街２６巷２號","OBJECTID":651798},"geometry":{"x":169010.07933000103,"y":2543685.2403420005}},{"attributes":{"ID":651826,"DIS_CODE":0,"TOWNNAME":"中西區","LI":"青年里","LIN":"2鄰","STREET":"興華街","SECT":" ","MAREA":" ","LANE":" ","ALLEY":" ","HOUSE_NO":"４３號","E_COORD97":169153.70882,"N_COORD97":2543690.10867,"ADDRESS":"興華街４３號","OBJECTID":651799},"geometry":{"x":169153.70882000122,"y":2543690.1086729988}},{"attributes":{"ID":651827,"DIS_CODE":0,"TOWNNAME":"中西區","LI":"青年里","LIN":"3鄰","STREET":"興華街","SECT":" ","MAREA":" ","LANE":" ","ALLEY":" ","HOUSE_NO":"８號","E_COORD97":169050.309072,"N_COORD97":2543603.5370499999,"ADDRESS":"興華街８號","OBJECTID":651800},"geometry":{"x":169050.30907200091,"y":2543603.537053002}}]}