{"displayFieldName":"TOWNNAME","fieldAliases":{"ID":"ID","DIS_CODE":"DIS_CODE","TOWNNAME":"TOWNNAME","LI":"LI","LIN":"LIN","STREET":"STREET","SECT":"SECT","MAREA":"MAREA","LANE":"LANE","ALLEY":"ALLEY","HOUSE_NO":"HOUSE_NO","E_COORD97":"E_COORD97","N_COORD97":"N_COORD97","ADDRESS":"ADDRESS","OBJECTID":"OBJECTID"},"geometryType":"esriGeometryPoint","spatialReference":{"wkid":102443,"latestWkid":3826},"fields":[{"name":"ID","type":"esriFieldTypeDouble","alias":"ID"},{"name":"DIS_CODE","type":"esriFieldTypeInteger","alias":"DIS_CODE"},{"name":"TOWNNAME","type":"esriFieldTypeString","alias":"TOWNNAME","length":8},{"name":"LI","type":"esriFieldTypeString","alias":"LI","length":8},{"name":"LIN","type":"esriFieldTypeString","alias":"LIN","length":12},{"name":"STREET","type":"esriFieldTypeString","alias":"STREET","length":20},{"name":"SECT","type":"esriFieldTypeString","alias":"SECT","length":8},{"name":"MAREA","type":"esriFieldTypeString","alias":"MAREA","length":12},{"name":"LANE","type":"esriFieldTypeString","alias":"LANE","length":10},{"name":"ALLEY","type":"esriFieldTypeString","alias":"ALLEY","length":10},{"name":"HOUSE_NO","type":"esriFieldTypeString","alias":"HOUSE_NO","length":20},{"name":"E_COORD97","type":"esriFieldTypeDouble","alias":"E_COORD97"},{"name":"N_COORD97","type":"esriFieldTypeDouble","alias":"N_COORD97"},{"name":"ADDRESS","type":"esriFieldTypeString","alias":"ADDRESS","length":50},{"name":"OBJECTID","type":"esriFieldTypeOID","alias":"OBJECTID"}],"features":[{"attributes":{"ID":226805,"DIS_CODE":0,"TOWNNAME":"永康區","LI":"五王里","LIN":"29鄰","STREET":"中山東路","SECT":" ","MAREA":" ","LANE":"６８巷","ALLEY":" ","HOUSE_NO":"１１號","E_COORD97":171616.94,"N_COORD97":2545967.1099999999,"ADDRESS":"中山東路６８巷１１號","OBJECTID":226801},"geometry":{"x":171616.94000000134,"y":2545967.1100000013}},{"attributes":{"ID":226806,"DIS_CODE":0,"TOWNNAME":"麻豆區","LI":"大埕里","LIN":"9鄰","STREET":" ","SECT":" ","MAREA":"大埕","LANE":" ","ALLEY":" ","HOUSE_NO":"５６號","E_COORD97":173066.44,"N_COORD97":2565434.0800000001,"ADDRESS":"大埕５６號","OBJECTID":226802},"geometry":{"x":173066.44000000134,"y":2565434.0800000038}},{"attributes":{"ID":226807,"DIS_CODE":0,"TOWNNAME":"永康區","LI":"大橋里","LIN":"29鄰","STREET":"大橋一街","SECT":" ","MAREA":" ","LANE":"２５０巷","ALLEY":" ","HOUSE_NO":"１０號","E_COORD97":171112.37,"N_COORD97":2546509.5,"ADDRESS":"大橋一街２５０巷１０號","OBJECTID":226803},"geometry":{"x":171112.37000000011,"y":2546509.5000000037}},{"attributes":{"ID":226808,"DIS_CODE":0,"TOWNNAME":"永康區","LI":"大橋里","LIN":"29鄰","STREET":"大橋一街","SECT":" ","MAREA":" ","LANE":"２５０巷","ALLEY":" ","HOUSE_NO":"５號","E_COORD97":171074.57000000001,"N_COORD97":2546486.2400000002,"ADDRESS":"大橋一街２５０巷５號","OBJECTID":226804},"geometry":{"x":171074.57000000216,"y":2546486.2400000002}},{"attributes":{"ID":226809,"DIS_CODE":0,"TOWNNAME":"永康區","LI":"大橋里","LIN":"29鄰","STREET":"大橋一街","SECT":" ","MAREA":" ","LANE":"２５０巷","ALLEY":" ","HOUSE_NO":"３號","E_COORD97":171062.67000000001,"N_COORD97":2546478.2400000002,"ADDRESS":"大橋一街２５０巷３號","OBJECTID":226805},"geometry":{"x":171062.66999999993,"y":2546478.2400000021}},{"attributes":{"ID":226810,"DIS_CODE":0,"TOWNNAME":"永康區","LI":"五王里","LIN":"29鄰","STREET":"中山東路","SECT":" ","MAREA":" ","LANE":"６８巷","ALLEY":" ","HOUSE_NO":"２１號","E_COORD97":171592.14999999999,"N_COORD97":2545955.6699999999,"ADDRESS":"中山東路６８巷２１號","OBJECTID":226806},"geometry":{"x":171592.15000000037,"y":2545955.6700000037}},{"attributes":{"ID":226811,"DIS_CODE":0,"TOWNNAME":"永康區","LI":"大橋里","LIN":"29鄰","STREET":"大橋一街","SECT":" ","MAREA":" ","LANE":"２５０巷","ALLEY":" ","HOUSE_NO":"９號","E_COORD97":171104.20999999999,"N_COORD97":2546505.4900000002,"ADDRESS":"大橋一街２５０巷９號","OBJECTID":226807},"geometry":{"x":171104.21000000089,"y":2546505.4900000002}},{"attributes":{"ID":226812,"DIS_CODE":0,"TOWNNAME":"東區","LI":"富強里","LIN":"23鄰","STREET":"中華東路","SECT":"二段","MAREA":" ","LANE":"４８巷","ALLEY":" ","HOUSE_NO":"８號","E_COORD97":171346.01000000001,"N_COORD97":2543021.0800000001,"ADDRESS":"中華東路二段４８巷８號","OBJECTID":226808},"geometry":{"x":171346.01000000071,"y":2543021.0800000019}},{"attributes":{"ID":226813,"DIS_CODE":0,"TOWNNAME":"東區","LI":"小東里","LIN":"17鄰","STREET":"光明街","SECT":" ","MAREA":" ","LANE":"１０２巷","ALLEY":" ","HOUSE_NO":"８號","E_COORD97":170875.13,"N_COORD97":2544075.3700000001,"ADDRESS":"光明街１０２巷８號","OBJECTID":226809},"geometry":{"x":170875.12999999989,"y":2544075.3700000029}},{"attributes":{"ID":226814,"DIS_CODE":0,"TOWNNAME":"東區","LI":"小東里","LIN":"17鄰","STREET":"光明街","SECT":" ","MAREA":" ","LANE":"１０２巷","ALLEY":" ","HOUSE_NO":"１０號","E_COORD97":170864.79000000001,"N_COORD97":2544075.9199999999,"ADDRESS":"光明街１０２巷１０號","OBJECTID":226810},"geometry":{"x":170864.79000000097,"y":2544075.9200000018}},{"attributes":{"ID":226815,"DIS_CODE":0,"TOWNNAME":"東區","LI":"小東里","LIN":"17鄰","STREET":"光明街","SECT":" ","MAREA":" ","LANE":"１０２巷","ALLEY":" ","HOUSE_NO":"１２號","E_COORD97":170838.14000000001,"N_COORD97":2544076.46,"ADDRESS":"光明街１０２巷１２號","OBJECTID":226811},"geometry":{"x":170838.1400000006,"y":2544076.4600000046}},{"attributes":{"ID":226816,"DIS_CODE":0,"TOWNNAME":"東區","LI":"小東里","LIN":"17鄰","STREET":"光明街","SECT":" ","MAREA":" ","LANE":"１０２巷","ALLEY":" ","HOUSE_NO":"１６號","E_COORD97":170824.54000000001,"N_COORD97":2544076.46,"ADDRESS":"光明街１０２巷１６號","OBJECTID":226812},"geometry":{"x":170824.54000000004,"y":2544076.4600000046}},{"attributes":{"ID":226817,"DIS_CODE":0,"TOWNNAME":"東區","LI":"小東里","LIN":"17鄰","STREET":"光明街","SECT":" ","MAREA":" ","LANE":"１０２巷","ALLEY":" ","HOUSE_NO":"１８號","E_COORD97":170812.03,"N_COORD97":2544076.46,"ADDRESS":"光明街１０２巷１８號","OBJECTID":226813},"geometry":{"x":170812.02999999933,"y":2544076.4600000046}},{"attributes":{"ID":226818,"DIS_CODE":0,"TOWNNAME":"東區","LI":"小東里","LIN":"17鄰","STREET":"光明街","SECT":" ","MAREA":" ","LANE":"１０２巷","ALLEY":" ","HOUSE_NO":"２０號","E_COORD97":170801.14999999999,"N_COORD97":2544076.46,"ADDRESS":"光明街１０２巷２０號","OBJECTID":226814},"geometry":{"x":170801.14999999944,"y":2544076.4600000046}},{"attributes":{"ID":226819,"DIS_CODE":0,"TOWNNAME":"柳營區","LI":"士林里","LIN":"3鄰","STREET":"士林街","SECT":" ","MAREA":" ","LANE":"６２巷","ALLEY":" ","HOUSE_NO":"１１號","E_COORD97":179276.87,"N_COORD97":2575206.4399999999,"ADDRESS":"士林街６２巷１１號","OBJECTID":226815},"geometry":{"x":179276.87000000011,"y":2575206.4400000013}},{"attributes":{"ID":226820,"DIS_CODE":0,"TOWNNAME":"東區","LI":"新東里","LIN":"15鄰","STREET":"裕豐街","SECT":" ","MAREA":" ","LANE":"１３３巷","ALLEY":" ","HOUSE_NO":"１５號","E_COORD97":170709.54000000001,"N_COORD97":2543044.3199999998,"ADDRESS":"裕豐街１３３巷１５號","OBJECTID":226816},"geometry":{"x":170709.54000000004,"y":2543044.3200000003}},{"attributes":{"ID":226821,"DIS_CODE":0,"TOWNNAME":"仁德區","LI":"仁義里","LIN":"34鄰","STREET":"正義二街","SECT":" ","MAREA":" ","LANE":" ","ALLEY":" ","HOUSE_NO":"１５８號四樓","E_COORD97":173797.76000000001,"N_COORD97":2541581.02,"ADDRESS":"正義二街１５８號四樓","OBJECTID":226817},"geometry":{"x":173797.76000000071,"y":2541581.0199999996}},{"attributes":{"ID":226822,"DIS_CODE":0,"TOWNNAME":"仁德區","LI":"仁義里","LIN":"34鄰","STREET":"正義二街","SECT":" ","MAREA":" ","LANE":" ","ALLEY":" ","HOUSE_NO":"１６２號五樓","E_COORD97":173824.79000000001,"N_COORD97":2541580.27,"ADDRESS":"正義二街１６２號五樓","OBJECTID":226818},"geometry":{"x":173824.79000000097,"y":2541580.2699999996}},{"attributes":{"ID":226823,"DIS_CODE":0,"TOWNNAME":"仁德區","LI":"仁義里","LIN":"34鄰","STREET":"正義二街","SECT":" ","MAREA":" ","LANE":" ","ALLEY":" ","HOUSE_NO":"１５３號三樓","E_COORD97":173807.57999999999,"N_COORD97":2541602.5099999998,"ADDRESS":"正義二街１５３號三樓","OBJECTID":226819},"geometry":{"x":173807.58000000101,"y":2541602.5099999998}},{"attributes":{"ID":226824,"DIS_CODE":0,"TOWNNAME":"仁德區","LI":"仁義里","LIN":"34鄰","STREET":"正義二街","SECT":" ","MAREA":" ","LANE":" ","ALLEY":" ","HOUSE_NO":"１６２號一樓","E_COORD97":173824.79000000001,"N_COORD97":2541580.27,"ADDRESS":"正義二街１６２號一樓","OBJECTID":226820},"geometry":{"x":173824.79000000097,"y":2541580.2699999996}},{"attributes":{"ID":226825,"DIS_CODE":0,"TOWNNAME":"仁德區","LI":"仁義里","LIN":"34鄰","STREET":"正義二街","SECT":" ","MAREA":" ","LANE":" ","ALLEY":" ","HOUSE_NO":"１５５號四樓","E_COORD97":173817.62,"N_COORD97":2541598.2599999998,"ADDRESS":"正義二街１５５號四樓","OBJECTID":226821},"geometry":{"x":173817.62000000104,"y":2541598.2600000035}},{"attributes":{"ID":226826,"DIS_CODE":0,"TOWNNAME":"仁德區","LI":"仁義里","LIN":"34鄰","STREET":"正義二街","SECT":" ","MAREA":" ","LANE":" ","ALLEY":" ","HOUSE_NO":"１５３號七樓","E_COORD97":173807.57999999999,"N_COORD97":2541602.5099999998,"ADDRESS":"正義二街１５３號七樓","OBJECTID":226822},"geometry":{"x":173807.58000000101,"y":2541602.5099999998}},{"attributes":{"ID":226827,"DIS_CODE":0,"TOWNNAME":"仁德區","LI":"仁義里","LIN":"34鄰","STREET":"正義二街","SECT":" ","MAREA":" ","LANE":" ","ALLEY":" ","HOUSE_NO":"１６２號二樓","E_COORD97":173824.79000000001,"N_COORD97":2541580.27,"ADDRESS":"正義二街１６２號二樓","OBJECTID":226823},"geometry":{"x":173824.79000000097,"y":2541580.2699999996}},{"attributes":{"ID":226828,"DIS_CODE":0,"TOWNNAME":"仁德區","LI":"仁義里","LIN":"34鄰","STREET":"正義二街","SECT":" ","MAREA":" ","LANE":" ","ALLEY":" ","HOUSE_NO":"１５８號一樓","E_COORD97":173797.76000000001,"N_COORD97":2541581.02,"ADDRESS":"正義二街１５８號一樓","OBJECTID":226824},"geometry":{"x":173797.76000000071,"y":2541581.0199999996}},{"attributes":{"ID":226829,"DIS_CODE":0,"TOWNNAME":"仁德區","LI":"仁義里","LIN":"34鄰","STREET":"正義二街","SECT":" ","MAREA":" ","LANE":" ","ALLEY":" ","HOUSE_NO":"１６２號七樓","E_COORD97":173824.79000000001,"N_COORD97":2541580.27,"ADDRESS":"正義二街１６２號七樓","OBJECTID":226825},"geometry":{"x":173824.79000000097,"y":2541580.2699999996}},{"attributes":{"ID":226830,"DIS_CODE":0,"TOWNNAME":"仁德區","LI":"仁義里","LIN":"34鄰","STREET":"正義二街","SECT":" ","MAREA":" ","LANE":" ","ALLEY":" ","HOUSE_NO":"１５８號二樓","E_COORD97":173797.76000000001,"N_COORD97":2541581.02,"ADDRESS":"正義二街１５８號二樓","OBJECTID":226826},"geometry":{"x":173797.76000000071,"y":2541581.0199999996}},{"attributes":{"ID":226831,"DIS_CODE":0,"TOWNNAME":"永康區","LI":"大橋里","LIN":"29鄰","STREET":"大橋一街","SECT":" ","MAREA":" ","LANE":"２５０巷","ALLEY":" ","HOUSE_NO":"２號","E_COORD97":171058.28,"N_COORD97":2546475.4900000002,"ADDRESS":"大橋一街２５０巷２號","OBJECTID":226827},"geometry":{"x":171058.28000000119,"y":2546475.4900000002}},{"attributes":{"ID":226832,"DIS_CODE":0,"TOWNNAME":"永康區","LI":"大灣里","LIN":"29鄰","STREET":"民族路","SECT":" ","MAREA":" ","LANE":"１２６巷","ALLEY":" ","HOUSE_NO":"３號","E_COORD97":175301.70999999999,"N_COORD97":2544907.73,"ADDRESS":"民族路１２６巷３號","OBJECTID":226828},"geometry":{"x":175301.71000000089,"y":2544907.7300000004}},{"attributes":{"ID":226833,"DIS_CODE":0,"TOWNNAME":"永康區","LI":"成功里","LIN":"29鄰","STREET":"中華路","SECT":" ","MAREA":" ","LANE":"１３４巷","ALLEY":" ","HOUSE_NO":"５５號","E_COORD97":171734.47,"N_COORD97":2544822.9100000001,"ADDRESS":"中華路１３４巷５５號","OBJECTID":226829},"geometry":{"x":171734.47000000067,"y":2544822.910000002}},{"attributes":{"ID":226834,"DIS_CODE":0,"TOWNNAME":"永康區","LI":"二王里","LIN":"29鄰","STREET":"中山南路","SECT":" ","MAREA":" ","LANE":"５４４巷","ALLEY":" ","HOUSE_NO":"１９號","E_COORD97":172240.67999999999,"N_COORD97":2546547.6899999999,"ADDRESS":"中山南路５４４巷１９號","OBJECTID":226830},"geometry":{"x":172240.6799999997,"y":2546547.6899999995}},{"attributes":{"ID":226835,"DIS_CODE":0,"TOWNNAME":"東區","LI":"東光里","LIN":"1鄰","STREET":"東光路","SECT":"一段","MAREA":" ","LANE":"５巷","ALLEY":" ","HOUSE_NO":"２６號","E_COORD97":171054.28,"N_COORD97":2543382.29,"ADDRESS":"東光路一段５巷２６號","OBJECTID":226831},"geometry":{"x":171054.28000000026,"y":2543382.2899999991}},{"attributes":{"ID":226836,"DIS_CODE":0,"TOWNNAME":"東區","LI":"仁和里","LIN":"4鄰","STREET":"仁和路","SECT":" ","MAREA":" ","LANE":"１０９巷","ALLEY":" ","HOUSE_NO":"４２之１號","E_COORD97":171490.20000000001,"N_COORD97":2541321.79,"ADDRESS":"仁和路１０９巷４２之１號","OBJECTID":226832},"geometry":{"x":171490.20000000019,"y":2541321.7899999991}},{"attributes":{"ID":226837,"DIS_CODE":0,"TOWNNAME":"東區","LI":"崇德里","LIN":"8鄰","STREET":"崇德七街","SECT":" ","MAREA":" ","LANE":"３０巷","ALLEY":" ","HOUSE_NO":"６９號","E_COORD97":170913.67000000001,"N_COORD97":2541663.21,"ADDRESS":"崇德七街３０巷６９號","OBJECTID":226833},"geometry":{"x":170913.66999999993,"y":2541663.2100000009}},{"attributes":{"ID":226838,"DIS_CODE":0,"TOWNNAME":"新營區","LI":"埤寮里","LIN":"3鄰","STREET":"建國路","SECT":" ","MAREA":" ","LANE":"１８巷","ALLEY":" ","HOUSE_NO":"７號","E_COORD97":180045.47,"N_COORD97":2581126.29,"ADDRESS":"建國路１８巷７號","OBJECTID":226834},"geometry":{"x":180045.46999999974,"y":2581126.290000001}},{"attributes":{"ID":226839,"DIS_CODE":0,"TOWNNAME":"新營區","LI":"忠政里","LIN":"3鄰","STREET":"中正路","SECT":" ","MAREA":" ","LANE":"３７巷","ALLEY":" ","HOUSE_NO":"５之１號","E_COORD97":180065.10999999999,"N_COORD97":2579128.3999999999,"ADDRESS":"中正路３７巷５之１號","OBJECTID":226835},"geometry":{"x":180065.11000000034,"y":2579128.4000000004}},{"attributes":{"ID":226840,"DIS_CODE":0,"TOWNNAME":"東區","LI":"忠孝里","LIN":"40鄰","STREET":"崇明路","SECT":" ","MAREA":" ","LANE":"２６６巷","ALLEY":" ","HOUSE_NO":"２０號","E_COORD97":169869.57999999999,"N_COORD97":2542030.1000000001,"ADDRESS":"崇明路２６６巷２０號","OBJECTID":226836},"geometry":{"x":169869.58000000101,"y":2542030.1000000015}},{"attributes":{"ID":226841,"DIS_CODE":0,"TOWNNAME":"新營區","LI":"興安里","LIN":"3鄰","STREET":"中興路","SECT":" ","MAREA":" ","LANE":"６８巷","ALLEY":" ","HOUSE_NO":"１０號","E_COORD97":179842.97,"N_COORD97":2577415.0600000001,"ADDRESS":"中興路６８巷１０號","OBJECTID":226837},"geometry":{"x":179842.97000000067,"y":2577415.0600000005}},{"attributes":{"ID":226842,"DIS_CODE":0,"TOWNNAME":"新營區","LI":"嘉芳里","LIN":"3鄰","STREET":"嘉芳街","SECT":" ","MAREA":" ","LANE":"１２９巷","ALLEY":" ","HOUSE_NO":"９號","E_COORD97":177042.19,"N_COORD97":2578302.3599999999,"ADDRESS":"嘉芳街１２９巷９號","OBJECTID":226838},"geometry":{"x":177042.19000000041,"y":2578302.3600000013}},{"attributes":{"ID":226843,"DIS_CODE":0,"TOWNNAME":"安平區","LI":"億載里","LIN":"3鄰","STREET":"永華十二街","SECT":" ","MAREA":" ","LANE":"１１３巷","ALLEY":" ","HOUSE_NO":"１０號","E_COORD97":163732.64000000001,"N_COORD97":2543724.98,"ADDRESS":"永華十二街１１３巷１０號","OBJECTID":226839},"geometry":{"x":163732.63999999966,"y":2543724.9800000004}},{"attributes":{"ID":226844,"DIS_CODE":0,"TOWNNAME":"安平區","LI":"億載里","LIN":"3鄰","STREET":"永華十二街","SECT":" ","MAREA":" ","LANE":"１１３巷","ALLEY":" ","HOUSE_NO":"１１號","E_COORD97":163728.32000000001,"N_COORD97":2543713.21,"ADDRESS":"永華十二街１１３巷１１號","OBJECTID":226840},"geometry":{"x":163728.32000000123,"y":2543713.2100000028}},{"attributes":{"ID":226845,"DIS_CODE":0,"TOWNNAME":"安平區","LI":"億載里","LIN":"3鄰","STREET":"永華十二街","SECT":" ","MAREA":" ","LANE":"１１３巷","ALLEY":" ","HOUSE_NO":"１２號","E_COORD97":163727.92999999999,"N_COORD97":2543724.98,"ADDRESS":"永華十二街１１３巷１２號","OBJECTID":226841},"geometry":{"x":163727.93000000156,"y":2543724.9800000004}},{"attributes":{"ID":226846,"DIS_CODE":0,"TOWNNAME":"安平區","LI":"億載里","LIN":"3鄰","STREET":"永華十二街","SECT":" ","MAREA":" ","LANE":"１１３巷","ALLEY":" ","HOUSE_NO":"１３號","E_COORD97":163724,"N_COORD97":2543712.4199999999,"ADDRESS":"永華十二街１１３巷１３號","OBJECTID":226842},"geometry":{"x":163724,"y":2543712.4199999999}},{"attributes":{"ID":226847,"DIS_CODE":0,"TOWNNAME":"安平區","LI":"億載里","LIN":"3鄰","STREET":"永華十二街","SECT":" ","MAREA":" ","LANE":"１１３巷","ALLEY":" ","HOUSE_NO":"１４號","E_COORD97":163723.60999999999,"N_COORD97":2543724.98,"ADDRESS":"永華十二街１１３巷１４號","OBJECTID":226843},"geometry":{"x":163723.61000000034,"y":2543724.9800000004}},{"attributes":{"ID":226848,"DIS_CODE":0,"TOWNNAME":"安平區","LI":"億載里","LIN":"3鄰","STREET":"永華十二街","SECT":" ","MAREA":" ","LANE":"１１３巷","ALLEY":" ","HOUSE_NO":"１５號","E_COORD97":163719.69,"N_COORD97":2543712.4199999999,"ADDRESS":"永華十二街１１３巷１５號","OBJECTID":226844},"geometry":{"x":163719.69000000041,"y":2543712.4199999999}},{"attributes":{"ID":226849,"DIS_CODE":0,"TOWNNAME":"東區","LI":"忠孝里","LIN":"11鄰","STREET":"榮譽街","SECT":" ","MAREA":" ","LANE":"１０４巷","ALLEY":" ","HOUSE_NO":"３號","E_COORD97":169825.47,"N_COORD97":2541683.77,"ADDRESS":"榮譽街１０４巷３號","OBJECTID":226845},"geometry":{"x":169825.4700000016,"y":2541683.7700000014}},{"attributes":{"ID":226850,"DIS_CODE":0,"TOWNNAME":"安平區","LI":"華平里","LIN":"3鄰","STREET":"怡平路","SECT":" ","MAREA":" ","LANE":"４６８巷","ALLEY":" ","HOUSE_NO":"９２號","E_COORD97":165269.26000000001,"N_COORD97":2544082.6699999999,"ADDRESS":"怡平路４６８巷９２號","OBJECTID":226846},"geometry":{"x":165269.26000000071,"y":2544082.6699999999}},{"attributes":{"ID":226851,"DIS_CODE":0,"TOWNNAME":"安平區","LI":"華平里","LIN":"3鄰","STREET":"怡平路","SECT":" ","MAREA":" ","LANE":"４６８巷","ALLEY":" ","HOUSE_NO":"９４號","E_COORD97":165270.10000000001,"N_COORD97":2544086.6899999999,"ADDRESS":"怡平路４６８巷９４號","OBJECTID":226847},"geometry":{"x":165270.10000000056,"y":2544086.6900000032}},{"attributes":{"ID":226852,"DIS_CODE":0,"TOWNNAME":"安平區","LI":"華平里","LIN":"3鄰","STREET":"怡平路","SECT":" ","MAREA":" ","LANE":"４６８巷","ALLEY":" ","HOUSE_NO":"９６號","E_COORD97":165270.60000000001,"N_COORD97":2544091.04,"ADDRESS":"怡平路４６８巷９６號","OBJECTID":226848},"geometry":{"x":165270.59999999963,"y":2544091.0400000028}},{"attributes":{"ID":226853,"DIS_CODE":0,"TOWNNAME":"安平區","LI":"華平里","LIN":"3鄰","STREET":"怡平路","SECT":" ","MAREA":" ","LANE":"４６８巷","ALLEY":" ","HOUSE_NO":"９８號","E_COORD97":165270.20999999999,"N_COORD97":2544095.2200000002,"ADDRESS":"怡平路４６８巷９８號","OBJECTID":226849},"geometry":{"x":165270.20999999996,"y":2544095.2200000025}},{"attributes":{"ID":226854,"DIS_CODE":0,"TOWNNAME":"東區","LI":"忠孝里","LIN":"36鄰","STREET":"榮譽街","SECT":" ","MAREA":" ","LANE":"１０４巷","ALLEY":" ","HOUSE_NO":"１７號","E_COORD97":169884.98000000001,"N_COORD97":2541720.1099999999,"ADDRESS":"榮譽街１０４巷１７號","OBJECTID":226850},"geometry":{"x":169884.98000000045,"y":2541720.1099999994}},{"attributes":{"ID":226855,"DIS_CODE":0,"TOWNNAME":"東區","LI":"忠孝里","LIN":"38鄰","STREET":"中華東路","SECT":"三段","MAREA":" ","LANE":"３８０巷","ALLEY":" ","HOUSE_NO":"７９號","E_COORD97":169940.98999999999,"N_COORD97":2541763.1899999999,"ADDRESS":"中華東路三段３８０巷７９號","OBJECTID":226851},"geometry":{"x":169940.99000000209,"y":2541763.1899999995}},{"attributes":{"ID":226856,"DIS_CODE":0,"TOWNNAME":"東區","LI":"忠孝里","LIN":"38鄰","STREET":"中華東路","SECT":"三段","MAREA":" ","LANE":"３８０巷","ALLEY":" ","HOUSE_NO":"８１號","E_COORD97":169931.94,"N_COORD97":2541760.1299999999,"ADDRESS":"中華東路三段３８０巷８１號","OBJECTID":226852},"geometry":{"x":169931.94000000134,"y":2541760.129999999}},{"attributes":{"ID":226857,"DIS_CODE":0,"TOWNNAME":"東區","LI":"忠孝里","LIN":"11鄰","STREET":"榮譽街","SECT":" ","MAREA":" ","LANE":"１０４巷","ALLEY":" ","HOUSE_NO":"７號","E_COORD97":169845.56,"N_COORD97":2541702.6800000002,"ADDRESS":"榮譽街１０４巷７號","OBJECTID":226853},"geometry":{"x":169845.56000000052,"y":2541702.6799999997}},{"attributes":{"ID":226858,"DIS_CODE":0,"TOWNNAME":"仁德區","LI":"仁義里","LIN":"34鄰","STREET":"正義二街","SECT":" ","MAREA":" ","LANE":" ","ALLEY":" ","HOUSE_NO":"１６４號八樓","E_COORD97":173836.39000000001,"N_COORD97":2541581.02,"ADDRESS":"正義二街１６４號八樓","OBJECTID":226854},"geometry":{"x":173836.38999999966,"y":2541581.0199999996}},{"attributes":{"ID":226859,"DIS_CODE":0,"TOWNNAME":"仁德區","LI":"仁義里","LIN":"34鄰","STREET":"正義二街","SECT":" ","MAREA":" ","LANE":" ","ALLEY":" ","HOUSE_NO":"１５１號四樓","E_COORD97":173794.29999999999,"N_COORD97":2541595.0099999998,"ADDRESS":"正義二街１５１號四樓","OBJECTID":226855},"geometry":{"x":173794.29999999981,"y":2541595.0099999998}},{"attributes":{"ID":226860,"DIS_CODE":0,"TOWNNAME":"仁德區","LI":"仁義里","LIN":"34鄰","STREET":"正義二街","SECT":" ","MAREA":" ","LANE":" ","ALLEY":" ","HOUSE_NO":"１６４號二樓","E_COORD97":173836.39000000001,"N_COORD97":2541581.02,"ADDRESS":"正義二街１６４號二樓","OBJECTID":226856},"geometry":{"x":173836.38999999966,"y":2541581.0199999996}},{"attributes":{"ID":226861,"DIS_CODE":0,"TOWNNAME":"仁德區","LI":"仁義里","LIN":"34鄰","STREET":"正義二街","SECT":" ","MAREA":" ","LANE":" ","ALLEY":" ","HOUSE_NO":"１６４號五樓","E_COORD97":173836.39000000001,"N_COORD97":2541581.02,"ADDRESS":"正義二街１６４號五樓","OBJECTID":226857},"geometry":{"x":173836.38999999966,"y":2541581.0199999996}},{"attributes":{"ID":226862,"DIS_CODE":0,"TOWNNAME":"安南區","LI":"安富里","LIN":"29鄰","STREET":"府安路","SECT":"五段","MAREA":" ","LANE":"２２３巷","ALLEY":" ","HOUSE_NO":"８８號","E_COORD97":167484.97,"N_COORD97":2547140.71,"ADDRESS":"府安路五段２２３巷８８號","OBJECTID":226858},"geometry":{"x":167484.97000000067,"y":2547140.7100000028}},{"attributes":{"ID":226863,"DIS_CODE":0,"TOWNNAME":"安南區","LI":"安富里","LIN":"29鄰","STREET":"府安路","SECT":"五段","MAREA":" ","LANE":"２２３巷","ALLEY":" ","HOUSE_NO":"９０號","E_COORD97":167484.64999999999,"N_COORD97":2547144.2200000002,"ADDRESS":"府安路五段２２３巷９０號","OBJECTID":226859},"geometry":{"x":167484.65000000037,"y":2547144.2200000025}},{"attributes":{"ID":226864,"DIS_CODE":0,"TOWNNAME":"安南區","LI":"安富里","LIN":"29鄰","STREET":"府安路","SECT":"五段","MAREA":" ","LANE":"２２３巷","ALLEY":" ","HOUSE_NO":"９２號","E_COORD97":167483.69,"N_COORD97":2547149.6499999999,"ADDRESS":"府安路五段２２３巷９２號","OBJECTID":226860},"geometry":{"x":167483.69000000134,"y":2547149.6500000041}},{"attributes":{"ID":226865,"DIS_CODE":0,"TOWNNAME":"東區","LI":"忠孝里","LIN":"11鄰","STREET":"榮譽街","SECT":" ","MAREA":" ","LANE":"１０４巷","ALLEY":" ","HOUSE_NO":"９號","E_COORD97":169851.82000000001,"N_COORD97":2541705.8100000001,"ADDRESS":"榮譽街１０４巷９號","OBJECTID":226861},"geometry":{"x":169851.8200000003,"y":2541705.8100000005}},{"attributes":{"ID":226866,"DIS_CODE":0,"TOWNNAME":"南區","LI":"省躬里","LIN":"3鄰","STREET":"灣裡路","SECT":" ","MAREA":" ","LANE":"１１４巷","ALLEY":" ","HOUSE_NO":"１號","E_COORD97":165973.47,"N_COORD97":2536817.2599999998,"ADDRESS":"灣裡路１１４巷１號","OBJECTID":226862},"geometry":{"x":165973.46999999974,"y":2536817.2599999998}},{"attributes":{"ID":226867,"DIS_CODE":0,"TOWNNAME":"南區","LI":"省躬里","LIN":"3鄰","STREET":"灣裡路","SECT":" ","MAREA":" ","LANE":"１１４巷","ALLEY":" ","HOUSE_NO":"５號","E_COORD97":165962.03,"N_COORD97":2536818.0800000001,"ADDRESS":"灣裡路１１４巷５號","OBJECTID":226863},"geometry":{"x":165962.02999999933,"y":2536818.0800000001}},{"attributes":{"ID":226868,"DIS_CODE":0,"TOWNNAME":"南區","LI":"省躬里","LIN":"3鄰","STREET":"灣裡路","SECT":" ","MAREA":" ","LANE":"１１４巷","ALLEY":" ","HOUSE_NO":"７號","E_COORD97":165947.04999999999,"N_COORD97":2536808.8300000001,"ADDRESS":"灣裡路１１４巷７號","OBJECTID":226864},"geometry":{"x":165947.05000000075,"y":2536808.8300000019}},{"attributes":{"ID":226869,"DIS_CODE":0,"TOWNNAME":"南區","LI":"省躬里","LIN":"3鄰","STREET":"灣裡路","SECT":" ","MAREA":" ","LANE":"１１４巷","ALLEY":" ","HOUSE_NO":"９號","E_COORD97":165943.78,"N_COORD97":2536817.2599999998,"ADDRESS":"灣裡路１１４巷９號","OBJECTID":226865},"geometry":{"x":165943.78000000119,"y":2536817.2599999998}},{"attributes":{"ID":226870,"DIS_CODE":0,"TOWNNAME":"南區","LI":"鯤鯓里","LIN":"3鄰","STREET":"鯤鯓路","SECT":" ","MAREA":" ","LANE":"１０４巷","ALLEY":" ","HOUSE_NO":"６號","E_COORD97":165041.10999999999,"N_COORD97":2540099.5499999998,"ADDRESS":"鯤鯓路１０４巷６號","OBJECTID":226866},"geometry":{"x":165041.1099999994,"y":2540099.5500000026}},{"attributes":{"ID":226871,"DIS_CODE":0,"TOWNNAME":"南區","LI":"鯤鯓里","LIN":"3鄰","STREET":"鯤鯓路","SECT":" ","MAREA":" ","LANE":"１０２巷","ALLEY":" ","HOUSE_NO":"１１號","E_COORD97":165069.26999999999,"N_COORD97":2540093.9399999999,"ADDRESS":"鯤鯓路１０２巷１１號","OBJECTID":226867},"geometry":{"x":165069.26999999955,"y":2540093.9399999995}},{"attributes":{"ID":226872,"DIS_CODE":0,"TOWNNAME":"南區","LI":"鯤鯓里","LIN":"3鄰","STREET":"鯤鯓路","SECT":" ","MAREA":" ","LANE":"１０２巷","ALLEY":" ","HOUSE_NO":"１５號","E_COORD97":165054.29000000001,"N_COORD97":2540094.54,"ADDRESS":"鯤鯓路１０２巷１５號","OBJECTID":226868},"geometry":{"x":165054.29000000004,"y":2540094.540000001}},{"attributes":{"ID":226873,"DIS_CODE":0,"TOWNNAME":"南區","LI":"鯤鯓里","LIN":"3鄰","STREET":"鯤鯓路","SECT":" ","MAREA":" ","LANE":"１０２巷","ALLEY":" ","HOUSE_NO":"１７號","E_COORD97":165048.85999999999,"N_COORD97":2540112.8100000001,"ADDRESS":"鯤鯓路１０２巷１７號","OBJECTID":226869},"geometry":{"x":165048.86000000034,"y":2540112.8100000005}},{"attributes":{"ID":226874,"DIS_CODE":0,"TOWNNAME":"六甲區","LI":"七甲里","LIN":"3鄰","STREET":"七甲街","SECT":" ","MAREA":" ","LANE":"１１５巷","ALLEY":" ","HOUSE_NO":"３１號","E_COORD97":182854.69,"N_COORD97":2569127.1200000001,"ADDRESS":"七甲街１１５巷３１號","OBJECTID":226870},"geometry":{"x":182854.69000000041,"y":2569127.1200000048}},{"attributes":{"ID":226875,"DIS_CODE":0,"TOWNNAME":"六甲區","LI":"七甲里","LIN":"3鄰","STREET":"七甲街","SECT":" ","MAREA":" ","LANE":"１１５巷","ALLEY":" ","HOUSE_NO":"４３號","E_COORD97":182844.94,"N_COORD97":2569112.52,"ADDRESS":"七甲街１１５巷４３號","OBJECTID":226871},"geometry":{"x":182844.94000000041,"y":2569112.5200000033}},{"attributes":{"ID":226876,"DIS_CODE":0,"TOWNNAME":"六甲區","LI":"七甲里","LIN":"3鄰","STREET":"七甲街","SECT":" ","MAREA":" ","LANE":"１１５巷","ALLEY":" ","HOUSE_NO":"４５號","E_COORD97":182808.42999999999,"N_COORD97":2569125.8199999998,"ADDRESS":"七甲街１１５巷４５號","OBJECTID":226872},"geometry":{"x":182808.4299999997,"y":2569125.8200000022}},{"attributes":{"ID":226877,"DIS_CODE":0,"TOWNNAME":"六甲區","LI":"七甲里","LIN":"3鄰","STREET":"七甲街","SECT":" ","MAREA":" ","LANE":"１１５巷","ALLEY":" ","HOUSE_NO":"４７號","E_COORD97":182843.42000000001,"N_COORD97":2569104.3700000001,"ADDRESS":"七甲街１１５巷４７號","OBJECTID":226873},"geometry":{"x":182843.42000000086,"y":2569104.370000001}},{"attributes":{"ID":226878,"DIS_CODE":0,"TOWNNAME":"六甲區","LI":"七甲里","LIN":"3鄰","STREET":"七甲街","SECT":" ","MAREA":" ","LANE":"１１５巷","ALLEY":" ","HOUSE_NO":"４９號","E_COORD97":182842.20000000001,"N_COORD97":2569099.9900000002,"ADDRESS":"七甲街１１５巷４９號","OBJECTID":226874},"geometry":{"x":182842.20000000112,"y":2569099.9900000039}},{"attributes":{"ID":226879,"DIS_CODE":0,"TOWNNAME":"北區","LI":"仁愛里","LIN":"3鄰","STREET":"勝利路","SECT":" ","MAREA":" ","LANE":"２０６巷","ALLEY":" ","HOUSE_NO":"６５號","E_COORD97":169959.37,"N_COORD97":2545076.0899999999,"ADDRESS":"勝利路２０６巷６５號","OBJECTID":226875},"geometry":{"x":169959.37000000104,"y":2545076.0900000017}},{"attributes":{"ID":226880,"DIS_CODE":0,"TOWNNAME":"北區","LI":"仁愛里","LIN":"3鄰","STREET":"勝利路","SECT":" ","MAREA":" ","LANE":"２０６巷","ALLEY":" ","HOUSE_NO":"６７號","E_COORD97":169965.39000000001,"N_COORD97":2545079.04,"ADDRESS":"勝利路２０６巷６７號","OBJECTID":226876},"geometry":{"x":169965.3900000006,"y":2545079.040000001}},{"attributes":{"ID":226881,"DIS_CODE":0,"TOWNNAME":"北區","LI":"仁愛里","LIN":"3鄰","STREET":"勝利路","SECT":" ","MAREA":" ","LANE":"２０６巷","ALLEY":" ","HOUSE_NO":"６９號","E_COORD97":169971.79999999999,"N_COORD97":2545081.1600000001,"ADDRESS":"勝利路２０６巷６９號","OBJECTID":226877},"geometry":{"x":169971.79999999981,"y":2545081.1600000039}},{"attributes":{"ID":226882,"DIS_CODE":0,"TOWNNAME":"北區","LI":"仁愛里","LIN":"3鄰","STREET":"勝利路","SECT":" ","MAREA":" ","LANE":"２０６巷","ALLEY":" ","HOUSE_NO":"７１號","E_COORD97":169978.76000000001,"N_COORD97":2545083.1600000001,"ADDRESS":"勝利路２０６巷７１號","OBJECTID":226878},"geometry":{"x":169978.75999999978,"y":2545083.1600000001}},{"attributes":{"ID":226883,"DIS_CODE":0,"TOWNNAME":"北區","LI":"仁愛里","LIN":"3鄰","STREET":"勝利路","SECT":" ","MAREA":" ","LANE":"２０６巷","ALLEY":" ","HOUSE_NO":"７３號","E_COORD97":169983.70999999999,"N_COORD97":2545084.1000000001,"ADDRESS":"勝利路２０６巷７３號","OBJECTID":226879},"geometry":{"x":169983.71000000089,"y":2545084.0999999978}},{"attributes":{"ID":226884,"DIS_CODE":0,"TOWNNAME":"仁德區","LI":"仁義里","LIN":"34鄰","STREET":"正義二街","SECT":" ","MAREA":" ","LANE":" ","ALLEY":" ","HOUSE_NO":"１５６號四樓","E_COORD97":173784.87,"N_COORD97":2541581.02,"ADDRESS":"正義二街１５６號四樓","OBJECTID":226880},"geometry":{"x":173784.87000000104,"y":2541581.0199999996}},{"attributes":{"ID":226885,"DIS_CODE":0,"TOWNNAME":"仁德區","LI":"仁義里","LIN":"34鄰","STREET":"正義二街","SECT":" ","MAREA":" ","LANE":" ","ALLEY":" ","HOUSE_NO":"１５６號三樓","E_COORD97":173784.87,"N_COORD97":2541581.02,"ADDRESS":"正義二街１５６號三樓","OBJECTID":226881},"geometry":{"x":173784.87000000104,"y":2541581.0199999996}},{"attributes":{"ID":226886,"DIS_CODE":0,"TOWNNAME":"東區","LI":"崇誨里","LIN":"34鄰","STREET":"東寧路","SECT":" ","MAREA":" ","LANE":" ","ALLEY":" ","HOUSE_NO":"２２６號之１六樓","E_COORD97":170545.23999999999,"N_COORD97":2543462.5,"ADDRESS":"東寧路２２６號之１六樓","OBJECTID":226882},"geometry":{"x":170545.24000000115,"y":2543462.5000000019}},{"attributes":{"ID":226887,"DIS_CODE":0,"TOWNNAME":"歸仁區","LI":"七甲里","LIN":"14鄰","STREET":"南丁路","SECT":" ","MAREA":" ","LANE":" ","ALLEY":" ","HOUSE_NO":"５７３號","E_COORD97":176018.39000000001,"N_COORD97":2543042.25,"ADDRESS":"南丁路５７３號","OBJECTID":226883},"geometry":{"x":176018.39000000153,"y":2543042.25}},{"attributes":{"ID":226888,"DIS_CODE":0,"TOWNNAME":"東區","LI":"東安里","LIN":"15鄰","STREET":"長榮路","SECT":"二段","MAREA":" ","LANE":"２４巷","ALLEY":" ","HOUSE_NO":"７７號","E_COORD97":170154.5,"N_COORD97":2543021.4900000002,"ADDRESS":"長榮路二段２４巷７７號","OBJECTID":226884},"geometry":{"x":170154.50000000093,"y":2543021.4900000021}},{"attributes":{"ID":226889,"DIS_CODE":0,"TOWNNAME":"東區","LI":"中西里","LIN":"37鄰","STREET":"林森路","SECT":"二段","MAREA":" ","LANE":"９１巷","ALLEY":" ","HOUSE_NO":"１３號","E_COORD97":170379.31,"N_COORD97":2543335.8199999998,"ADDRESS":"林森路二段９１巷１３號","OBJECTID":226885},"geometry":{"x":170379.31000000052,"y":2543335.8200000022}},{"attributes":{"ID":226890,"DIS_CODE":0,"TOWNNAME":"永康區","LI":"崑山里","LIN":"29鄰","STREET":"大仁街","SECT":" ","MAREA":" ","LANE":"１０７巷","ALLEY":" ","HOUSE_NO":"２之１號","E_COORD97":173817.39000000001,"N_COORD97":2544814.1699999999,"ADDRESS":"大仁街１０７巷２之１號","OBJECTID":226886},"geometry":{"x":173817.38999999966,"y":2544814.1700000018}},{"attributes":{"ID":226891,"DIS_CODE":0,"TOWNNAME":"永康區","LI":"崑山里","LIN":"29鄰","STREET":"大仁街","SECT":" ","MAREA":" ","LANE":"１０７巷","ALLEY":" ","HOUSE_NO":"８號","E_COORD97":173806.37,"N_COORD97":2544816.6200000001,"ADDRESS":"大仁街１０７巷８號","OBJECTID":226887},"geometry":{"x":173806.37000000011,"y":2544816.620000001}},{"attributes":{"ID":226892,"DIS_CODE":0,"TOWNNAME":"永康區","LI":"崑山里","LIN":"29鄰","STREET":"大仁街","SECT":" ","MAREA":" ","LANE":"１０７巷","ALLEY":" ","HOUSE_NO":"２０號","E_COORD97":173782.69,"N_COORD97":2544825.3700000001,"ADDRESS":"大仁街１０７巷２０號","OBJECTID":226888},"geometry":{"x":173782.69000000041,"y":2544825.370000001}},{"attributes":{"ID":226893,"DIS_CODE":0,"TOWNNAME":"南區","LI":"明興里","LIN":"3鄰","STREET":"金華路","SECT":"一段","MAREA":" ","LANE":"２１６巷","ALLEY":" ","HOUSE_NO":"１９號","E_COORD97":167033.54000000001,"N_COORD97":2540817.6800000002,"ADDRESS":"金華路一段２１６巷１９號","OBJECTID":226889},"geometry":{"x":167033.54000000097,"y":2540817.6799999997}},{"attributes":{"ID":226894,"DIS_CODE":0,"TOWNNAME":"南區","LI":"明興里","LIN":"3鄰","STREET":"金華路","SECT":"一段","MAREA":" ","LANE":"２１６巷","ALLEY":" ","HOUSE_NO":"６號","E_COORD97":166993.87,"N_COORD97":2540809.7000000002,"ADDRESS":"金華路一段２１６巷６號","OBJECTID":226890},"geometry":{"x":166993.87000000197,"y":2540809.7000000011}},{"attributes":{"ID":226895,"DIS_CODE":0,"TOWNNAME":"南區","LI":"大忠里","LIN":"3鄰","STREET":"公英一街","SECT":" ","MAREA":" ","LANE":"１５巷","ALLEY":" ","HOUSE_NO":"１５號","E_COORD97":169480.47,"N_COORD97":2541214.9700000002,"ADDRESS":"公英一街１５巷１５號","OBJECTID":226891},"geometry":{"x":169480.46999999974,"y":2541214.9700000025}},{"attributes":{"ID":226896,"DIS_CODE":0,"TOWNNAME":"南區","LI":"建南里","LIN":"3鄰","STREET":"德興路","SECT":" ","MAREA":" ","LANE":"２４７巷","ALLEY":" ","HOUSE_NO":"３１號","E_COORD97":167315.12,"N_COORD97":2540074.96,"ADDRESS":"德興路２４７巷３１號","OBJECTID":226892},"geometry":{"x":167315.12000000011,"y":2540074.9600000009}},{"attributes":{"ID":226897,"DIS_CODE":0,"TOWNNAME":"東區","LI":"忠孝里","LIN":"36鄰","STREET":"榮譽街","SECT":" ","MAREA":" ","LANE":"１３０巷","ALLEY":" ","HOUSE_NO":"２號","E_COORD97":169901.41,"N_COORD97":2541720.71,"ADDRESS":"榮譽街１３０巷２號","OBJECTID":226893},"geometry":{"x":169901.41000000108,"y":2541720.7100000009}},{"attributes":{"ID":226898,"DIS_CODE":0,"TOWNNAME":"永康區","LI":"復國里","LIN":"34鄰","STREET":"復華一街","SECT":" ","MAREA":" ","LANE":" ","ALLEY":" ","HOUSE_NO":"７３號八樓之１","E_COORD97":172520.01000000001,"N_COORD97":2545071.0499999998,"ADDRESS":"復華一街７３號八樓之１","OBJECTID":226894},"geometry":{"x":172520.00999999978,"y":2545071.0500000007}},{"attributes":{"ID":226899,"DIS_CODE":0,"TOWNNAME":"永康區","LI":"復國里","LIN":"34鄰","STREET":"復華一街","SECT":" ","MAREA":" ","LANE":" ","ALLEY":" ","HOUSE_NO":"７３號三樓之１","E_COORD97":172520.01000000001,"N_COORD97":2545071.0499999998,"ADDRESS":"復華一街７３號三樓之１","OBJECTID":226895},"geometry":{"x":172520.00999999978,"y":2545071.0500000007}},{"attributes":{"ID":226900,"DIS_CODE":0,"TOWNNAME":"永康區","LI":"復國里","LIN":"34鄰","STREET":"復華一街","SECT":" ","MAREA":" ","LANE":" ","ALLEY":" ","HOUSE_NO":"６５號七樓之３","E_COORD97":172536.45999999999,"N_COORD97":2545071.5499999998,"ADDRESS":"復華一街６５號七樓之３","OBJECTID":226896},"geometry":{"x":172536.46000000089,"y":2545071.5500000007}},{"attributes":{"ID":226901,"DIS_CODE":0,"TOWNNAME":"永康區","LI":"復國里","LIN":"34鄰","STREET":"復華一街","SECT":" ","MAREA":" ","LANE":" ","ALLEY":" ","HOUSE_NO":"７３號五樓之２","E_COORD97":172520.14000000001,"N_COORD97":2545071.0499999998,"ADDRESS":"復華一街７３號五樓之２","OBJECTID":226897},"geometry":{"x":172520.1400000006,"y":2545071.0500000007}},{"attributes":{"ID":226902,"DIS_CODE":0,"TOWNNAME":"永康區","LI":"復國里","LIN":"34鄰","STREET":"復華一街","SECT":" ","MAREA":" ","LANE":" ","ALLEY":" ","HOUSE_NO":"７３號七樓之１","E_COORD97":172520.01000000001,"N_COORD97":2545071.0499999998,"ADDRESS":"復華一街７３號七樓之１","OBJECTID":226898},"geometry":{"x":172520.00999999978,"y":2545071.0500000007}},{"attributes":{"ID":226903,"DIS_CODE":0,"TOWNNAME":"永康區","LI":"崑山里","LIN":"29鄰","STREET":"大灣路","SECT":" ","MAREA":" ","LANE":"９４２巷","ALLEY":" ","HOUSE_NO":"１３６號","E_COORD97":173756.98000000001,"N_COORD97":2544848.8100000001,"ADDRESS":"大灣路９４２巷１３６號","OBJECTID":226899},"geometry":{"x":173756.98000000045,"y":2544848.8100000005}},{"attributes":{"ID":226904,"DIS_CODE":0,"TOWNNAME":"永康區","LI":"崑山里","LIN":"29鄰","STREET":"大仁街","SECT":" ","MAREA":" ","LANE":"１０７巷","ALLEY":" ","HOUSE_NO":"１３號","E_COORD97":173790.54000000001,"N_COORD97":2544808.9300000002,"ADDRESS":"大仁街１０７巷１３號","OBJECTID":226900},"geometry":{"x":173790.54000000097,"y":2544808.9300000016}},{"attributes":{"ID":226905,"DIS_CODE":0,"TOWNNAME":"永康區","LI":"崑山里","LIN":"29鄰","STREET":"大仁街","SECT":" ","MAREA":" ","LANE":"１０７巷","ALLEY":" ","HOUSE_NO":"１２號","E_COORD97":173799.19,"N_COORD97":2544819.6200000001,"ADDRESS":"大仁街１０７巷１２號","OBJECTID":226901},"geometry":{"x":173799.19000000041,"y":2544819.620000001}},{"attributes":{"ID":226906,"DIS_CODE":0,"TOWNNAME":"永康區","LI":"崑山里","LIN":"29鄰","STREET":"大灣路","SECT":" ","MAREA":" ","LANE":"９４２巷","ALLEY":" ","HOUSE_NO":"１１４號","E_COORD97":173735.20000000001,"N_COORD97":2544788.75,"ADDRESS":"大灣路９４２巷１１４號","OBJECTID":226902},"geometry":{"x":173735.20000000205,"y":2544788.7500000037}},{"attributes":{"ID":226907,"DIS_CODE":0,"TOWNNAME":"永康區","LI":"崑山里","LIN":"29鄰","STREET":"大仁街","SECT":" ","MAREA":" ","LANE":"１０７巷","ALLEY":" ","HOUSE_NO":"１５號","E_COORD97":173786.39999999999,"N_COORD97":2544810.4300000002,"ADDRESS":"大仁街１０７巷１５號","OBJECTID":226903},"geometry":{"x":173786.40000000224,"y":2544810.4299999997}},{"attributes":{"ID":226908,"DIS_CODE":0,"TOWNNAME":"永康區","LI":"崑山里","LIN":"29鄰","STREET":"大仁街","SECT":" ","MAREA":" ","LANE":"１０７巷","ALLEY":" ","HOUSE_NO":"２２號","E_COORD97":173778.73999999999,"N_COORD97":2544826.8700000001,"ADDRESS":"大仁街１０７巷２２號","OBJECTID":226904},"geometry":{"x":173778.74000000022,"y":2544826.8700000029}},{"attributes":{"ID":226909,"DIS_CODE":0,"TOWNNAME":"東區","LI":"忠孝里","LIN":"37鄰","STREET":"榮譽街","SECT":" ","MAREA":" ","LANE":"１３０巷","ALLEY":" ","HOUSE_NO":"９號","E_COORD97":169916.57000000001,"N_COORD97":2541720.71,"ADDRESS":"榮譽街１３０巷９號","OBJECTID":226905},"geometry":{"x":169916.5700000003,"y":2541720.7100000009}},{"attributes":{"ID":226910,"DIS_CODE":0,"TOWNNAME":"北區","LI":"振興里","LIN":"3鄰","STREET":"開元路","SECT":" ","MAREA":" ","LANE":"１４８巷","ALLEY":" ","HOUSE_NO":"７號","E_COORD97":170005.59,"N_COORD97":2545237,"ADDRESS":"開元路１４８巷７號","OBJECTID":226906},"geometry":{"x":170005.58999999985,"y":2545237}},{"attributes":{"ID":226911,"DIS_CODE":0,"TOWNNAME":"北區","LI":"振興里","LIN":"3鄰","STREET":"開元路","SECT":" ","MAREA":" ","LANE":"１４８巷","ALLEY":" ","HOUSE_NO":"７號之１","E_COORD97":170016.16,"N_COORD97":2545237.4199999999,"ADDRESS":"開元路１４８巷７號之１","OBJECTID":226907},"geometry":{"x":170016.16000000201,"y":2545237.4199999999}},{"attributes":{"ID":226912,"DIS_CODE":0,"TOWNNAME":"北區","LI":"振興里","LIN":"3鄰","STREET":"開元路","SECT":" ","MAREA":" ","LANE":"１４８巷","ALLEY":" ","HOUSE_NO":"７號之３","E_COORD97":170026.81,"N_COORD97":2545240.5699999998,"ADDRESS":"開元路１４８巷７號之３","OBJECTID":226908},"geometry":{"x":170026.81000000052,"y":2545240.5700000003}},{"attributes":{"ID":226913,"DIS_CODE":0,"TOWNNAME":"新營區","LI":"延平里","LIN":"7鄰","STREET":"復興路","SECT":" ","MAREA":" ","LANE":"２９巷","ALLEY":" ","HOUSE_NO":"２７之４號","E_COORD97":179682.836706,"N_COORD97":2577943.2675399999,"ADDRESS":"復興路２９巷２７之４號","OBJECTID":226909},"geometry":{"x":179682.83670600224,"y":2577943.2675429992}},{"attributes":{"ID":226914,"DIS_CODE":0,"TOWNNAME":"永康區","LI":"復國里","LIN":"34鄰","STREET":"復華一街","SECT":" ","MAREA":" ","LANE":" ","ALLEY":" ","HOUSE_NO":"７３號六樓之２","E_COORD97":172520.14000000001,"N_COORD97":2545071.0499999998,"ADDRESS":"復華一街７３號六樓之２","OBJECTID":226910},"geometry":{"x":172520.1400000006,"y":2545071.0500000007}},{"attributes":{"ID":226915,"DIS_CODE":0,"TOWNNAME":"永康區","LI":"復國里","LIN":"34鄰","STREET":"復華一街","SECT":" ","MAREA":" ","LANE":" ","ALLEY":" ","HOUSE_NO":"６５號五樓之１","E_COORD97":172536.37,"N_COORD97":2545071.5499999998,"ADDRESS":"復華一街６５號五樓之１","OBJECTID":226911},"geometry":{"x":172536.37000000011,"y":2545071.5500000007}},{"attributes":{"ID":226916,"DIS_CODE":0,"TOWNNAME":"永康區","LI":"復國里","LIN":"34鄰","STREET":"復華一街","SECT":" ","MAREA":" ","LANE":" ","ALLEY":" ","HOUSE_NO":"７３號四樓之１","E_COORD97":172520.01000000001,"N_COORD97":2545071.0499999998,"ADDRESS":"復華一街７３號四樓之１","OBJECTID":226912},"geometry":{"x":172520.00999999978,"y":2545071.0500000007}},{"attributes":{"ID":226917,"DIS_CODE":0,"TOWNNAME":"佳里區","LI":"建南里","LIN":"34鄰","STREET":"佳南路","SECT":" ","MAREA":" ","LANE":" ","ALLEY":" ","HOUSE_NO":"２９６號","E_COORD97":165960.79999999999,"N_COORD97":2561004.9900000002,"ADDRESS":"佳南路２９６號","OBJECTID":226913},"geometry":{"x":165960.79999999981,"y":2561004.9900000021}},{"attributes":{"ID":226918,"DIS_CODE":0,"TOWNNAME":"仁德區","LI":"仁義里","LIN":"34鄰","STREET":"正義二街","SECT":" ","MAREA":" ","LANE":" ","ALLEY":" ","HOUSE_NO":"１５１號一樓","E_COORD97":173794.29999999999,"N_COORD97":2541595.0099999998,"ADDRESS":"正義二街１５１號一樓","OBJECTID":226914},"geometry":{"x":173794.29999999981,"y":2541595.0099999998}},{"attributes":{"ID":226919,"DIS_CODE":0,"TOWNNAME":"仁德區","LI":"仁義里","LIN":"34鄰","STREET":"正義二街","SECT":" ","MAREA":" ","LANE":" ","ALLEY":" ","HOUSE_NO":"１５３號八樓","E_COORD97":173807.57999999999,"N_COORD97":2541602.5099999998,"ADDRESS":"正義二街１５３號八樓","OBJECTID":226915},"geometry":{"x":173807.58000000101,"y":2541602.5099999998}},{"attributes":{"ID":226920,"DIS_CODE":0,"TOWNNAME":"善化區","LI":"胡家里","LIN":"8鄰","STREET":" ","SECT":" ","MAREA":"胡厝寮","LANE":" ","ALLEY":" ","HOUSE_NO":"６０號","E_COORD97":175458.45000000001,"N_COORD97":2560742,"ADDRESS":"胡厝寮６０號","OBJECTID":226916},"geometry":{"x":175458.45000000019,"y":2560741.9999999981}},{"attributes":{"ID":226921,"DIS_CODE":0,"TOWNNAME":"東區","LI":"裕農里","LIN":"10鄰","STREET":"東寧路","SECT":" ","MAREA":" ","LANE":"５３８巷","ALLEY":" ","HOUSE_NO":"１號","E_COORD97":171219.09,"N_COORD97":2543232.9900000002,"ADDRESS":"東寧路５３８巷１號","OBJECTID":226917},"geometry":{"x":171219.08999999985,"y":2543232.9900000002}},{"attributes":{"ID":226922,"DIS_CODE":0,"TOWNNAME":"東區","LI":"裕農里","LIN":"10鄰","STREET":"東寧路","SECT":" ","MAREA":" ","LANE":"５３８巷","ALLEY":" ","HOUSE_NO":"３號","E_COORD97":171218.76000000001,"N_COORD97":2543227.3799999999,"ADDRESS":"東寧路５３８巷３號","OBJECTID":226918},"geometry":{"x":171218.76000000071,"y":2543227.3800000027}},{"attributes":{"ID":226923,"DIS_CODE":0,"TOWNNAME":"東區","LI":"裕農里","LIN":"10鄰","STREET":"東寧路","SECT":" ","MAREA":" ","LANE":"５３８巷","ALLEY":" ","HOUSE_NO":"５號","E_COORD97":171222.39999999999,"N_COORD97":2543218.1499999999,"ADDRESS":"東寧路５３８巷５號","OBJECTID":226919},"geometry":{"x":171222.4000000013,"y":2543218.1500000022}},{"attributes":{"ID":226924,"DIS_CODE":0,"TOWNNAME":"北區","LI":"振興里","LIN":"3鄰","STREET":"開元路","SECT":" ","MAREA":" ","LANE":"１４８巷","ALLEY":" ","HOUSE_NO":"７號之４","E_COORD97":170037.51000000001,"N_COORD97":2545244.3300000001,"ADDRESS":"開元路１４８巷７號之４","OBJECTID":226920},"geometry":{"x":170037.51000000071,"y":2545244.3300000001}},{"attributes":{"ID":226925,"DIS_CODE":0,"TOWNNAME":"北區","LI":"振興里","LIN":"3鄰","STREET":"開元路","SECT":" ","MAREA":" ","LANE":"１４８巷","ALLEY":" ","HOUSE_NO":"７號之５","E_COORD97":170042.42000000001,"N_COORD97":2545246.48,"ADDRESS":"開元路１４８巷７號之５","OBJECTID":226921},"geometry":{"x":170042.41999999993,"y":2545246.4800000023}},{"attributes":{"ID":226926,"DIS_CODE":0,"TOWNNAME":"北區","LI":"振興里","LIN":"3鄰","STREET":"開元路","SECT":" ","MAREA":" ","LANE":"１４８巷","ALLEY":" ","HOUSE_NO":"７號之６","E_COORD97":170047.57000000001,"N_COORD97":2545248.1600000001,"ADDRESS":"開元路１４８巷７號之６","OBJECTID":226922},"geometry":{"x":170047.57000000123,"y":2545248.160000002}},{"attributes":{"ID":226927,"DIS_CODE":0,"TOWNNAME":"北區","LI":"振興里","LIN":"3鄰","STREET":"開元路","SECT":" ","MAREA":" ","LANE":"１４８巷","ALLEY":" ","HOUSE_NO":"９號","E_COORD97":170006.57000000001,"N_COORD97":2545231.1600000001,"ADDRESS":"開元路１４８巷９號","OBJECTID":226923},"geometry":{"x":170006.56999999937,"y":2545231.160000002}},{"attributes":{"ID":226928,"DIS_CODE":0,"TOWNNAME":"北區","LI":"振興里","LIN":"3鄰","STREET":"開元路","SECT":" ","MAREA":" ","LANE":"１６６巷","ALLEY":" ","HOUSE_NO":"１８號","E_COORD97":170063.5,"N_COORD97":2545226.4199999999,"ADDRESS":"開元路１６６巷１８號","OBJECTID":226924},"geometry":{"x":170063.50000000093,"y":2545226.4200000018}},{"attributes":{"ID":226929,"DIS_CODE":0,"TOWNNAME":"北區","LI":"重興里","LIN":"3鄰","STREET":"開元路","SECT":" ","MAREA":" ","LANE":"２１２巷","ALLEY":" ","HOUSE_NO":"１３６號","E_COORD97":170479.23999999999,"N_COORD97":2545031.1699999999,"ADDRESS":"開元路２１２巷１３６號","OBJECTID":226925},"geometry":{"x":170479.24000000022,"y":2545031.1700000018}},{"attributes":{"ID":226930,"DIS_CODE":0,"TOWNNAME":"北區","LI":"文元里","LIN":"3鄰","STREET":"文賢路","SECT":" ","MAREA":" ","LANE":"１１２２巷","ALLEY":" ","HOUSE_NO":"８７號之２","E_COORD97":167576.73999999999,"N_COORD97":2546432.8799999999,"ADDRESS":"文賢路１１２２巷８７號之２","OBJECTID":226926},"geometry":{"x":167576.74000000115,"y":2546432.879999999}},{"attributes":{"ID":226931,"DIS_CODE":0,"TOWNNAME":"北區","LI":"裕民里","LIN":"3鄰","STREET":"成功路","SECT":" ","MAREA":" ","LANE":"５０４巷","ALLEY":" ","HOUSE_NO":"８號","E_COORD97":167706.17000000001,"N_COORD97":2544697.7000000002,"ADDRESS":"成功路５０４巷８號","OBJECTID":226927},"geometry":{"x":167706.16999999993,"y":2544697.7000000011}},{"attributes":{"ID":226932,"DIS_CODE":0,"TOWNNAME":"北區","LI":"正風里","LIN":"3鄰","STREET":"公園路","SECT":" ","MAREA":" ","LANE":"９１８巷","ALLEY":" ","HOUSE_NO":"１８號","E_COORD97":169491.04000000001,"N_COORD97":2546112.5099999998,"ADDRESS":"公園路９１８巷１８號","OBJECTID":226928},"geometry":{"x":169491.04000000004,"y":2546112.5100000035}},{"attributes":{"ID":226933,"DIS_CODE":0,"TOWNNAME":"東區","LI":"忠孝里","LIN":"40鄰","STREET":"崇明路","SECT":" ","MAREA":" ","LANE":"２６６巷","ALLEY":" ","HOUSE_NO":"１４號","E_COORD97":169891.97,"N_COORD97":2542036.4300000002,"ADDRESS":"崇明路２６６巷１４號","OBJECTID":226929},"geometry":{"x":169891.97000000067,"y":2542036.4299999997}},{"attributes":{"ID":226934,"DIS_CODE":0,"TOWNNAME":"東區","LI":"忠孝里","LIN":"40鄰","STREET":"崇明路","SECT":" ","MAREA":" ","LANE":"２６６巷","ALLEY":" ","HOUSE_NO":"１６號","E_COORD97":169885.37,"N_COORD97":2542032.5499999998,"ADDRESS":"崇明路２６６巷１６號","OBJECTID":226930},"geometry":{"x":169885.37000000011,"y":2542032.5500000026}},{"attributes":{"ID":226935,"DIS_CODE":0,"TOWNNAME":"東區","LI":"忠孝里","LIN":"40鄰","STREET":"崇明路","SECT":" ","MAREA":" ","LANE":"２６６巷","ALLEY":" ","HOUSE_NO":"２號地下層","E_COORD97":169887.98000000001,"N_COORD97":2542069.25,"ADDRESS":"崇明路２６６巷２號地下層","OBJECTID":226931},"geometry":{"x":169887.98000000045,"y":2542069.25}},{"attributes":{"ID":226936,"DIS_CODE":0,"TOWNNAME":"北區","LI":"安民里","LIN":"3鄰","STREET":"海安路","SECT":"三段","MAREA":" ","LANE":"３２巷","ALLEY":" ","HOUSE_NO":"３１號","E_COORD97":168004.98999999999,"N_COORD97":2544679.7599999998,"ADDRESS":"海安路三段３２巷３１號","OBJECTID":226932},"geometry":{"x":168004.98999999929,"y":2544679.7599999979}},{"attributes":{"ID":226937,"DIS_CODE":0,"TOWNNAME":"北區","LI":"安民里","LIN":"3鄰","STREET":"海安路","SECT":"三段","MAREA":" ","LANE":"３２巷","ALLEY":" ","HOUSE_NO":"３號","E_COORD97":167951.22,"N_COORD97":2544682.9700000002,"ADDRESS":"海安路三段３２巷３號","OBJECTID":226933},"geometry":{"x":167951.22000000067,"y":2544682.9700000044}},{"attributes":{"ID":226938,"DIS_CODE":0,"TOWNNAME":"北區","LI":"安民里","LIN":"3鄰","STREET":"海安路","SECT":"三段","MAREA":" ","LANE":"３２巷","ALLEY":" ","HOUSE_NO":"５號","E_COORD97":167955.60000000001,"N_COORD97":2544680.3399999999,"ADDRESS":"海安路三段３２巷５號","OBJECTID":226934},"geometry":{"x":167955.59999999963,"y":2544680.3400000017}},{"attributes":{"ID":226939,"DIS_CODE":0,"TOWNNAME":"東區","LI":"東安里","LIN":"3鄰","STREET":"長榮路","SECT":"二段","MAREA":" ","LANE":"２４巷","ALLEY":" ","HOUSE_NO":"６４號二樓","E_COORD97":170056.10000000001,"N_COORD97":2543043.6000000001,"ADDRESS":"長榮路二段２４巷６４號二樓","OBJECTID":226935},"geometry":{"x":170056.09999999963,"y":2543043.6000000034}},{"attributes":{"ID":226940,"DIS_CODE":0,"TOWNNAME":"永康區","LI":"\u25A0行里","LIN":"3鄰","STREET":"中正路","SECT":" ","MAREA":" ","LANE":"８７２巷","ALLEY":" ","HOUSE_NO":"７號二樓","E_COORD97":172105.62,"N_COORD97":2548843,"ADDRESS":"中正路８７２巷７號二樓","OBJECTID":226936},"geometry":{"x":172105.62000000011,"y":2548843.0000000019}},{"attributes":{"ID":226941,"DIS_CODE":0,"TOWNNAME":"仁德區","LI":"仁義里","LIN":"34鄰","STREET":"正義二街","SECT":" ","MAREA":" ","LANE":" ","ALLEY":" ","HOUSE_NO":"１６０號四樓","E_COORD97":173812.42000000001,"N_COORD97":2541576.52,"ADDRESS":"正義二街１６０號四樓","OBJECTID":226937},"geometry":{"x":173812.41999999993,"y":2541576.5200000014}},{"attributes":{"ID":226942,"DIS_CODE":0,"TOWNNAME":"仁德區","LI":"仁義里","LIN":"34鄰","STREET":"正義二街","SECT":" ","MAREA":" ","LANE":" ","ALLEY":" ","HOUSE_NO":"１６４號三樓","E_COORD97":173836.39000000001,"N_COORD97":2541581.02,"ADDRESS":"正義二街１６４號三樓","OBJECTID":226938},"geometry":{"x":173836.38999999966,"y":2541581.0199999996}},{"attributes":{"ID":226943,"DIS_CODE":0,"TOWNNAME":"仁德區","LI":"仁義里","LIN":"34鄰","STREET":"正義二街","SECT":" ","MAREA":" ","LANE":" ","ALLEY":" ","HOUSE_NO":"１６０號一樓","E_COORD97":173812.42000000001,"N_COORD97":2541576.52,"ADDRESS":"正義二街１６０號一樓","OBJECTID":226939},"geometry":{"x":173812.41999999993,"y":2541576.5200000014}},{"attributes":{"ID":226944,"DIS_CODE":0,"TOWNNAME":"永康區","LI":"尚頂里","LIN":"29鄰","STREET":"南台街","SECT":" ","MAREA":" ","LANE":"８９巷","ALLEY":" ","HOUSE_NO":"６號","E_COORD97":170172.57999999999,"N_COORD97":2546983.8300000001,"ADDRESS":"南台街８９巷６號","OBJECTID":226940},"geometry":{"x":170172.58000000194,"y":2546983.8300000001}},{"attributes":{"ID":226945,"DIS_CODE":0,"TOWNNAME":"永康區","LI":"\u25A0行里","LIN":"3鄰","STREET":"中正路","SECT":" ","MAREA":" ","LANE":"８７２巷","ALLEY":" ","HOUSE_NO":"７號四樓","E_COORD97":172105.62,"N_COORD97":2548843,"ADDRESS":"中正路８７２巷７號四樓","OBJECTID":226941},"geometry":{"x":172105.62000000011,"y":2548843.0000000019}},{"attributes":{"ID":226946,"DIS_CODE":0,"TOWNNAME":"仁德區","LI":"仁義里","LIN":"34鄰","STREET":"正義二街","SECT":" ","MAREA":" ","LANE":" ","ALLEY":" ","HOUSE_NO":"１５８號五樓","E_COORD97":173797.76000000001,"N_COORD97":2541581.02,"ADDRESS":"正義二街１５８號五樓","OBJECTID":226942},"geometry":{"x":173797.76000000071,"y":2541581.0199999996}},{"attributes":{"ID":226947,"DIS_CODE":0,"TOWNNAME":"學甲區","LI":"中洲里","LIN":"29鄰","STREET":" ","SECT":" ","MAREA":"中洲","LANE":" ","ALLEY":" ","HOUSE_NO":"４０１號之１０","E_COORD97":163842.29999999999,"N_COORD97":2571968.5499999998,"ADDRESS":"中洲４０１號之１０","OBJECTID":226943},"geometry":{"x":163842.29999999981,"y":2571968.5500000026}},{"attributes":{"ID":226948,"DIS_CODE":0,"TOWNNAME":"學甲區","LI":"中洲里","LIN":"29鄰","STREET":" ","SECT":" ","MAREA":"中洲","LANE":" ","ALLEY":" ","HOUSE_NO":"４０１號","E_COORD97":163840.39000000001,"N_COORD97":2571894.0299999998,"ADDRESS":"中洲４０１號","OBJECTID":226944},"geometry":{"x":163840.3900000006,"y":2571894.0299999993}},{"attributes":{"ID":226949,"DIS_CODE":0,"TOWNNAME":"學甲區","LI":"中洲里","LIN":"29鄰","STREET":" ","SECT":" ","MAREA":"中洲","LANE":" ","ALLEY":" ","HOUSE_NO":"４０２號","E_COORD97":163839.37,"N_COORD97":2571862.6899999999,"ADDRESS":"中洲４０２號","OBJECTID":226945},"geometry":{"x":163839.37000000104,"y":2571862.6899999995}},{"attributes":{"ID":226950,"DIS_CODE":0,"TOWNNAME":"永康區","LI":"\u25A0行里","LIN":"3鄰","STREET":"中正路","SECT":" ","MAREA":" ","LANE":"８７２巷","ALLEY":" ","HOUSE_NO":"１１號五樓","E_COORD97":172086.85999999999,"N_COORD97":2548847.0800000001,"ADDRESS":"中正路８７２巷１１號五樓","OBJECTID":226946},"geometry":{"x":172086.86000000127,"y":2548847.0800000001}},{"attributes":{"ID":226951,"DIS_CODE":0,"TOWNNAME":"永康區","LI":"\u25A0行里","LIN":"3鄰","STREET":"中正路","SECT":" ","MAREA":" ","LANE":"８７２巷","ALLEY":" ","HOUSE_NO":"９號二樓","E_COORD97":172098.73000000001,"N_COORD97":2548859.5,"ADDRESS":"中正路８７２巷９號二樓","OBJECTID":226947},"geometry":{"x":172098.73000000045,"y":2548859.5000000019}},{"attributes":{"ID":226952,"DIS_CODE":0,"TOWNNAME":"永康區","LI":"\u25A0行里","LIN":"3鄰","STREET":"中正路","SECT":" ","MAREA":" ","LANE":"８７２巷","ALLEY":" ","HOUSE_NO":"５號二樓","E_COORD97":172116.57000000001,"N_COORD97":2548828.0099999998,"ADDRESS":"中正路８７２巷５號二樓","OBJECTID":226948},"geometry":{"x":172116.5700000003,"y":2548828.0100000035}},{"attributes":{"ID":226953,"DIS_CODE":0,"TOWNNAME":"永康區","LI":"北灣里","LIN":"3鄰","STREET":"文賢街","SECT":" ","MAREA":" ","LANE":"１３６巷","ALLEY":" ","HOUSE_NO":"１０號五樓之２","E_COORD97":175429.64999999999,"N_COORD97":2545543.8799999999,"ADDRESS":"文賢街１３６巷１０號五樓之２","OBJECTID":226949},"geometry":{"x":175429.6500000013,"y":2545543.8800000008}},{"attributes":{"ID":226954,"DIS_CODE":0,"TOWNNAME":"永康區","LI":"北灣里","LIN":"3鄰","STREET":"文賢街","SECT":" ","MAREA":" ","LANE":"１３６巷","ALLEY":" ","HOUSE_NO":"２號十一樓之２","E_COORD97":175409.39000000001,"N_COORD97":2545555.9300000002,"ADDRESS":"文賢街１３６巷２號十一樓之２","OBJECTID":226950},"geometry":{"x":175409.38999999966,"y":2545555.9299999997}},{"attributes":{"ID":226955,"DIS_CODE":0,"TOWNNAME":"永康區","LI":"安康里","LIN":"3鄰","STREET":"中華路","SECT":" ","MAREA":" ","LANE":"７２７巷","ALLEY":" ","HOUSE_NO":"８６號十樓之１","E_COORD97":170657.84,"N_COORD97":2546333.2999999998,"ADDRESS":"中華路７２７巷８６號十樓之１","OBJECTID":226951},"geometry":{"x":170657.84000000078,"y":2546333.3000000026}},{"attributes":{"ID":226956,"DIS_CODE":0,"TOWNNAME":"永康區","LI":"北灣里","LIN":"3鄰","STREET":"文賢街","SECT":" ","MAREA":" ","LANE":"１３６巷","ALLEY":" ","HOUSE_NO":"２號五樓之１","E_COORD97":175408.01000000001,"N_COORD97":2545555.9300000002,"ADDRESS":"文賢街１３６巷２號五樓之１","OBJECTID":226952},"geometry":{"x":175408.01000000071,"y":2545555.9299999997}},{"attributes":{"ID":226957,"DIS_CODE":0,"TOWNNAME":"永康區","LI":"北灣里","LIN":"3鄰","STREET":"文賢街","SECT":" ","MAREA":" ","LANE":"１３６巷","ALLEY":" ","HOUSE_NO":"８號二樓之１","E_COORD97":175428.37,"N_COORD97":2545540.3799999999,"ADDRESS":"文賢街１３６巷８號二樓之１","OBJECTID":226953},"geometry":{"x":175428.37000000011,"y":2545540.3800000008}},{"attributes":{"ID":226958,"DIS_CODE":0,"TOWNNAME":"永康區","LI":"北灣里","LIN":"3鄰","STREET":"文賢街","SECT":" ","MAREA":" ","LANE":"１３６巷","ALLEY":" ","HOUSE_NO":"１０號二樓之３","E_COORD97":175429.62,"N_COORD97":2545543.8799999999,"ADDRESS":"文賢街１３６巷１０號二樓之３","OBJECTID":226954},"geometry":{"x":175429.62000000104,"y":2545543.8800000008}},{"attributes":{"ID":226959,"DIS_CODE":0,"TOWNNAME":"學甲區","LI":"中洲里","LIN":"29鄰","STREET":" ","SECT":" ","MAREA":"中洲","LANE":" ","ALLEY":" ","HOUSE_NO":"４０３號","E_COORD97":163860.89999999999,"N_COORD97":2571886.7000000002,"ADDRESS":"中洲４０３號","OBJECTID":226955},"geometry":{"x":163860.90000000037,"y":2571886.6999999993}},{"attributes":{"ID":226960,"DIS_CODE":0,"TOWNNAME":"學甲區","LI":"中洲里","LIN":"29鄰","STREET":" ","SECT":" ","MAREA":"中洲","LANE":" ","ALLEY":" ","HOUSE_NO":"４０５號之１","E_COORD97":163883.70999999999,"N_COORD97":2571859.2400000002,"ADDRESS":"中洲４０５號之１","OBJECTID":226956},"geometry":{"x":163883.70999999996,"y":2571859.2400000021}},{"attributes":{"ID":226961,"DIS_CODE":0,"TOWNNAME":"學甲區","LI":"中洲里","LIN":"29鄰","STREET":" ","SECT":" ","MAREA":"中洲","LANE":" ","ALLEY":" ","HOUSE_NO":"４０６號之１","E_COORD97":163899.76999999999,"N_COORD97":2571888.3599999999,"ADDRESS":"中洲４０６號之１","OBJECTID":226957},"geometry":{"x":163899.76999999955,"y":2571888.3600000013}},{"attributes":{"ID":226962,"DIS_CODE":0,"TOWNNAME":"學甲區","LI":"中洲里","LIN":"29鄰","STREET":" ","SECT":" ","MAREA":"中洲","LANE":" ","ALLEY":" ","HOUSE_NO":"４０８號","E_COORD97":163910.44,"N_COORD97":2571865.8700000001,"ADDRESS":"中洲４０８號","OBJECTID":226958},"geometry":{"x":163910.44000000134,"y":2571865.8700000029}},{"attributes":{"ID":226963,"DIS_CODE":0,"TOWNNAME":"新營區","LI":"王公里","LIN":"29鄰","STREET":"長榮路","SECT":"一段","MAREA":" ","LANE":"５１５巷","ALLEY":" ","HOUSE_NO":"５９號","E_COORD97":180312.97,"N_COORD97":2579685.3399999999,"ADDRESS":"長榮路一段５１５巷５９號","OBJECTID":226959},"geometry":{"x":180312.96999999974,"y":2579685.3400000036}},{"attributes":{"ID":226964,"DIS_CODE":0,"TOWNNAME":"新營區","LI":"民生里","LIN":"29鄰","STREET":"民治路","SECT":" ","MAREA":" ","LANE":"２２５巷","ALLEY":" ","HOUSE_NO":"３號","E_COORD97":178812.13,"N_COORD97":2578353.5600000001,"ADDRESS":"民治路２２５巷３號","OBJECTID":226960},"geometry":{"x":178812.12999999989,"y":2578353.5600000024}},{"attributes":{"ID":226965,"DIS_CODE":0,"TOWNNAME":"永康區","LI":"北灣里","LIN":"3鄰","STREET":"文賢街","SECT":" ","MAREA":" ","LANE":"１３６巷","ALLEY":" ","HOUSE_NO":"２號七樓之１","E_COORD97":175408.01000000001,"N_COORD97":2545555.9300000002,"ADDRESS":"文賢街１３６巷２號七樓之１","OBJECTID":226961},"geometry":{"x":175408.01000000071,"y":2545555.9299999997}},{"attributes":{"ID":226966,"DIS_CODE":0,"TOWNNAME":"永康區","LI":"北灣里","LIN":"3鄰","STREET":"文賢街","SECT":" ","MAREA":" ","LANE":"１３６巷","ALLEY":" ","HOUSE_NO":"２號八樓之２","E_COORD97":175408.14000000001,"N_COORD97":2545555.9300000002,"ADDRESS":"文賢街１３６巷２號八樓之２","OBJECTID":226962},"geometry":{"x":175408.14000000153,"y":2545555.9299999997}},{"attributes":{"ID":226967,"DIS_CODE":0,"TOWNNAME":"永康區","LI":"北灣里","LIN":"3鄰","STREET":"文賢街","SECT":" ","MAREA":" ","LANE":"１３６巷","ALLEY":" ","HOUSE_NO":"２號七樓之２","E_COORD97":175408.14000000001,"N_COORD97":2545555.9300000002,"ADDRESS":"文賢街１３６巷２號七樓之２","OBJECTID":226963},"geometry":{"x":175408.14000000153,"y":2545555.9299999997}},{"attributes":{"ID":226968,"DIS_CODE":0,"TOWNNAME":"永康區","LI":"北灣里","LIN":"3鄰","STREET":"文賢街","SECT":" ","MAREA":" ","LANE":"１３６巷","ALLEY":" ","HOUSE_NO":"１０號十樓之２","E_COORD97":175429.64999999999,"N_COORD97":2545543.8799999999,"ADDRESS":"文賢街１３６巷１０號十樓之２","OBJECTID":226964},"geometry":{"x":175429.6500000013,"y":2545543.8800000008}},{"attributes":{"ID":226969,"DIS_CODE":0,"TOWNNAME":"東區","LI":"成大里","LIN":"3鄰","STREET":"東寧路","SECT":"西段","MAREA":" ","LANE":"１８巷","ALLEY":" ","HOUSE_NO":"２９號四樓","E_COORD97":169720.67999999999,"N_COORD97":2543737.2200000002,"ADDRESS":"東寧路西段１８巷２９號四樓","OBJECTID":226965},"geometry":{"x":169720.68000000063,"y":2543737.2200000007}},{"attributes":{"ID":226970,"DIS_CODE":0,"TOWNNAME":"東區","LI":"成大里","LIN":"3鄰","STREET":"東寧路","SECT":"西段","MAREA":" ","LANE":"１８巷","ALLEY":" ","HOUSE_NO":"５號二樓","E_COORD97":169645.17999999999,"N_COORD97":2543710.0299999998,"ADDRESS":"東寧路西段１８巷５號二樓","OBJECTID":226966},"geometry":{"x":169645.1799999997,"y":2543710.0299999993}},{"attributes":{"ID":226971,"DIS_CODE":0,"TOWNNAME":"東區","LI":"成大里","LIN":"3鄰","STREET":"東寧路","SECT":"西段","MAREA":" ","LANE":"１８巷","ALLEY":" ","HOUSE_NO":"５號三樓","E_COORD97":169645.17999999999,"N_COORD97":2543710.0299999998,"ADDRESS":"東寧路西段１８巷５號三樓","OBJECTID":226967},"geometry":{"x":169645.1799999997,"y":2543710.0299999993}},{"attributes":{"ID":226972,"DIS_CODE":0,"TOWNNAME":"仁德區","LI":"新田里","LIN":"17鄰","STREET":"北保東路","SECT":" ","MAREA":" ","LANE":"４６巷","ALLEY":" ","HOUSE_NO":"２９號","E_COORD97":173569.14000000001,"N_COORD97":2539288.25,"ADDRESS":"北保東路４６巷２９號","OBJECTID":226968},"geometry":{"x":173569.1400000006,"y":2539288.25}},{"attributes":{"ID":226973,"DIS_CODE":0,"TOWNNAME":"仁德區","LI":"後壁里","LIN":"7鄰","STREET":"德善二街","SECT":" ","MAREA":" ","LANE":"５１巷","ALLEY":" ","HOUSE_NO":"１８號","E_COORD97":173615.76000000001,"N_COORD97":2539035.5099999998,"ADDRESS":"德善二街５１巷１８號","OBJECTID":226969},"geometry":{"x":173615.76000000071,"y":2539035.5099999998}},{"attributes":{"ID":226974,"DIS_CODE":0,"TOWNNAME":"東區","LI":"成大里","LIN":"3鄰","STREET":"東寧路","SECT":"西段","MAREA":" ","LANE":"１８巷","ALLEY":" ","HOUSE_NO":"５號四樓","E_COORD97":169645.17999999999,"N_COORD97":2543710.0299999998,"ADDRESS":"東寧路西段１８巷５號四樓","OBJECTID":226970},"geometry":{"x":169645.1799999997,"y":2543710.0299999993}},{"attributes":{"ID":226975,"DIS_CODE":0,"TOWNNAME":"東區","LI":"成大里","LIN":"3鄰","STREET":"東寧路","SECT":"西段","MAREA":" ","LANE":"１８巷","ALLEY":" ","HOUSE_NO":"７號二樓","E_COORD97":169656.26999999999,"N_COORD97":2543707.5299999998,"ADDRESS":"東寧路西段１８巷７號二樓","OBJECTID":226971},"geometry":{"x":169656.26999999955,"y":2543707.5299999993}},{"attributes":{"ID":226976,"DIS_CODE":0,"TOWNNAME":"東區","LI":"成大里","LIN":"3鄰","STREET":"東寧路","SECT":"西段","MAREA":" ","LANE":"１８巷","ALLEY":" ","HOUSE_NO":"７號三樓","E_COORD97":169656.26999999999,"N_COORD97":2543707.5299999998,"ADDRESS":"東寧路西段１８巷７號三樓","OBJECTID":226972},"geometry":{"x":169656.26999999955,"y":2543707.5299999993}},{"attributes":{"ID":226977,"DIS_CODE":0,"TOWNNAME":"東區","LI":"成大里","LIN":"3鄰","STREET":"東寧路","SECT":"西段","MAREA":" ","LANE":"１８巷","ALLEY":" ","HOUSE_NO":"７號四樓","E_COORD97":169656.26999999999,"N_COORD97":2543707.5299999998,"ADDRESS":"東寧路西段１８巷７號四樓","OBJECTID":226973},"geometry":{"x":169656.26999999955,"y":2543707.5299999993}},{"attributes":{"ID":226978,"DIS_CODE":0,"TOWNNAME":"仁德區","LI":"後壁里","LIN":"32鄰","STREET":"德洋路","SECT":" ","MAREA":" ","LANE":"２２７巷","ALLEY":" ","HOUSE_NO":"１４號","E_COORD97":172498.54999999999,"N_COORD97":2539556.0099999998,"ADDRESS":"德洋路２２７巷１４號","OBJECTID":226974},"geometry":{"x":172498.55000000075,"y":2539556.0100000016}},{"attributes":{"ID":226979,"DIS_CODE":0,"TOWNNAME":"仁德區","LI":"成功里","LIN":"19鄰","STREET":"保生路","SECT":" ","MAREA":" ","LANE":"８９巷","ALLEY":" ","HOUSE_NO":"１２號","E_COORD97":170634.73999999999,"N_COORD97":2539760.7400000002,"ADDRESS":"保生路８９巷１２號","OBJECTID":226975},"geometry":{"x":170634.74000000115,"y":2539760.7400000002}},{"attributes":{"ID":226980,"DIS_CODE":0,"TOWNNAME":"仁德區","LI":"成功里","LIN":"20鄰","STREET":"保生路","SECT":" ","MAREA":" ","LANE":"６９巷","ALLEY":" ","HOUSE_NO":"４號","E_COORD97":170688.26000000001,"N_COORD97":2539773.2400000002,"ADDRESS":"保生路６９巷４號","OBJECTID":226976},"geometry":{"x":170688.26000000071,"y":2539773.2400000002}},{"attributes":{"ID":226981,"DIS_CODE":0,"TOWNNAME":"仁德區","LI":"後壁里","LIN":"18鄰","STREET":"德南路","SECT":" ","MAREA":" ","LANE":"２２巷","ALLEY":" ","HOUSE_NO":"７號","E_COORD97":173293.62,"N_COORD97":2538763.27,"ADDRESS":"德南路２２巷７號","OBJECTID":226977},"geometry":{"x":173293.62000000104,"y":2538763.2699999977}},{"attributes":{"ID":226982,"DIS_CODE":0,"TOWNNAME":"永康區","LI":"\u25A0行里","LIN":"3鄰","STREET":"中正路","SECT":" ","MAREA":" ","LANE":"８７２巷","ALLEY":" ","HOUSE_NO":"１號七樓","E_COORD97":172125.26000000001,"N_COORD97":2548807.0099999998,"ADDRESS":"中正路８７２巷１號七樓","OBJECTID":226978},"geometry":{"x":172125.25999999978,"y":2548807.0099999998}},{"attributes":{"ID":226983,"DIS_CODE":0,"TOWNNAME":"永康區","LI":"北灣里","LIN":"3鄰","STREET":"文賢街","SECT":" ","MAREA":" ","LANE":"１３６巷","ALLEY":" ","HOUSE_NO":"８號七樓之３","E_COORD97":175428.47,"N_COORD97":2545540.3799999999,"ADDRESS":"文賢街１３６巷８號七樓之３","OBJECTID":226979},"geometry":{"x":175428.47000000067,"y":2545540.3800000008}},{"attributes":{"ID":226984,"DIS_CODE":0,"TOWNNAME":"永康區","LI":"安康里","LIN":"3鄰","STREET":"中華路","SECT":" ","MAREA":" ","LANE":"７２７巷","ALLEY":" ","HOUSE_NO":"８６號四樓之１","E_COORD97":170657.84,"N_COORD97":2546333.2999999998,"ADDRESS":"中華路７２７巷８６號四樓之１","OBJECTID":226980},"geometry":{"x":170657.84000000078,"y":2546333.3000000026}},{"attributes":{"ID":226985,"DIS_CODE":0,"TOWNNAME":"仁德區","LI":"後壁里","LIN":"39鄰","STREET":"德糖路","SECT":" ","MAREA":" ","LANE":"３５７巷","ALLEY":" ","HOUSE_NO":"３號","E_COORD97":173509.60999999999,"N_COORD97":2539125.0600000001,"ADDRESS":"德糖路３５７巷３號","OBJECTID":226981},"geometry":{"x":173509.61000000034,"y":2539125.0599999987}},{"attributes":{"ID":226986,"DIS_CODE":0,"TOWNNAME":"仁德區","LI":"仁義里","LIN":"34鄰","STREET":"正義二街","SECT":" ","MAREA":" ","LANE":" ","ALLEY":" ","HOUSE_NO":"１６０號三樓","E_COORD97":173812.42000000001,"N_COORD97":2541576.52,"ADDRESS":"正義二街１６０號三樓","OBJECTID":226982},"geometry":{"x":173812.41999999993,"y":2541576.5200000014}},{"attributes":{"ID":226987,"DIS_CODE":0,"TOWNNAME":"仁德區","LI":"仁義里","LIN":"34鄰","STREET":"正義二街","SECT":" ","MAREA":" ","LANE":" ","ALLEY":" ","HOUSE_NO":"１５６號五樓","E_COORD97":173784.87,"N_COORD97":2541581.02,"ADDRESS":"正義二街１５６號五樓","OBJECTID":226983},"geometry":{"x":173784.87000000104,"y":2541581.0199999996}},{"attributes":{"ID":226988,"DIS_CODE":0,"TOWNNAME":"歸仁區","LI":"南保里","LIN":"29鄰","STREET":"民權北路","SECT":" ","MAREA":" ","LANE":"６１巷","ALLEY":" ","HOUSE_NO":"２５號","E_COORD97":176890.04000000001,"N_COORD97":2541031.29,"ADDRESS":"民權北路６１巷２５號","OBJECTID":226984},"geometry":{"x":176890.04000000004,"y":2541031.2900000028}},{"attributes":{"ID":226989,"DIS_CODE":0,"TOWNNAME":"仁德區","LI":"太子里","LIN":"45鄰","STREET":"太子路","SECT":" ","MAREA":" ","LANE":"１０１巷","ALLEY":" ","HOUSE_NO":"７１號","E_COORD97":174920.87,"N_COORD97":2543380,"ADDRESS":"太子路１０１巷７１號","OBJECTID":226985},"geometry":{"x":174920.87000000104,"y":2543380.0000000037}},{"attributes":{"ID":226990,"DIS_CODE":0,"TOWNNAME":"仁德區","LI":"太子里","LIN":"11鄰","STREET":"長興二街","SECT":" ","MAREA":" ","LANE":"８４巷","ALLEY":" ","HOUSE_NO":"７號","E_COORD97":174228.67000000001,"N_COORD97":2543737.2599999998,"ADDRESS":"長興二街８４巷７號","OBJECTID":226986},"geometry":{"x":174228.67000000086,"y":2543737.2599999979}},{"attributes":{"ID":226991,"DIS_CODE":0,"TOWNNAME":"仁德區","LI":"仁義里","LIN":"34鄰","STREET":"正義二街","SECT":" ","MAREA":" ","LANE":" ","ALLEY":" ","HOUSE_NO":"１５３號四樓","E_COORD97":173807.57999999999,"N_COORD97":2541602.5099999998,"ADDRESS":"正義二街１５３號四樓","OBJECTID":226987},"geometry":{"x":173807.58000000101,"y":2541602.5099999998}},{"attributes":{"ID":226992,"DIS_CODE":0,"TOWNNAME":"麻豆區","LI":"大埕里","LIN":"9鄰","STREET":" ","SECT":" ","MAREA":"大埕","LANE":" ","ALLEY":" ","HOUSE_NO":"５７號","E_COORD97":173065.64000000001,"N_COORD97":2565439.5099999998,"ADDRESS":"大埕５７號","OBJECTID":226988},"geometry":{"x":173065.6400000006,"y":2565439.5099999998}},{"attributes":{"ID":226993,"DIS_CODE":0,"TOWNNAME":"安定區","LI":"港南里","LIN":"20鄰","STREET":" ","SECT":" ","MAREA":"港口","LANE":" ","ALLEY":" ","HOUSE_NO":"２０５號","E_COORD97":171389.98999999999,"N_COORD97":2554620.25,"ADDRESS":"港口２０５號","OBJECTID":226989},"geometry":{"x":171389.99000000022,"y":2554620.25}},{"attributes":{"ID":226994,"DIS_CODE":0,"TOWNNAME":"歸仁區","LI":"南保里","LIN":"29鄰","STREET":"民權北路","SECT":" ","MAREA":" ","LANE":"６１巷","ALLEY":" ","HOUSE_NO":"２３號","E_COORD97":176893.04000000001,"N_COORD97":2541031.29,"ADDRESS":"民權北路６１巷２３號","OBJECTID":226990},"geometry":{"x":176893.04000000097,"y":2541031.2900000028}},{"attributes":{"ID":226995,"DIS_CODE":0,"TOWNNAME":"東區","LI":"新東里","LIN":"14鄰","STREET":"裕豐街","SECT":" ","MAREA":" ","LANE":"１１５巷","ALLEY":" ","HOUSE_NO":"２５號","E_COORD97":170683.45000000001,"N_COORD97":2542991.4100000001,"ADDRESS":"裕豐街１１５巷２５號","OBJECTID":226991},"geometry":{"x":170683.45000000019,"y":2542991.410000002}},{"attributes":{"ID":226996,"DIS_CODE":0,"TOWNNAME":"東區","LI":"新東里","LIN":"14鄰","STREET":"裕豐街","SECT":" ","MAREA":" ","LANE":"１１５巷","ALLEY":" ","HOUSE_NO":"２７號","E_COORD97":170678.70000000001,"N_COORD97":2542990.5499999998,"ADDRESS":"裕豐街１１５巷２７號","OBJECTID":226992},"geometry":{"x":170678.70000000205,"y":2542990.5500000045}},{"attributes":{"ID":226997,"DIS_CODE":0,"TOWNNAME":"東區","LI":"新東里","LIN":"14鄰","STREET":"裕豐街","SECT":" ","MAREA":" ","LANE":"１１５巷","ALLEY":" ","HOUSE_NO":"２９號","E_COORD97":170674.92000000001,"N_COORD97":2542989.5699999998,"ADDRESS":"裕豐街１１５巷２９號","OBJECTID":226993},"geometry":{"x":170674.91999999993,"y":2542989.5700000003}},{"attributes":{"ID":226998,"DIS_CODE":0,"TOWNNAME":"東區","LI":"崇德里","LIN":"8鄰","STREET":"崇德七街","SECT":" ","MAREA":" ","LANE":"８巷","ALLEY":" ","HOUSE_NO":"３３號","E_COORD97":170836.13,"N_COORD97":2541664.3199999998,"ADDRESS":"崇德七街８巷３３號","OBJECTID":226994},"geometry":{"x":170836.12999999989,"y":2541664.3200000022}},{"attributes":{"ID":226999,"DIS_CODE":0,"TOWNNAME":"永康區","LI":"北灣里","LIN":"3鄰","STREET":"文賢街","SECT":" ","MAREA":" ","LANE":"１３６巷","ALLEY":" ","HOUSE_NO":"１０號九樓之１","E_COORD97":175429.51999999999,"N_COORD97":2545543.8799999999,"ADDRESS":"文賢街１３６巷１０號九樓之１","OBJECTID":226995},"geometry":{"x":175429.52000000048,"y":2545543.8800000008}},{"attributes":{"ID":227000,"DIS_CODE":0,"TOWNNAME":"永康區","LI":"\u25A0洲里","LIN":"3鄰","STREET":"\u25A0洲二街","SECT":" ","MAREA":" ","LANE":"１６０巷","ALLEY":" ","HOUSE_NO":"３號十一樓之２","E_COORD97":171706.59,"N_COORD97":2549342.8199999998,"ADDRESS":"\u25A0洲二街１６０巷３號十一樓之２","OBJECTID":226996},"geometry":{"x":171706.59000000078,"y":2549342.8200000022}},{"attributes":{"ID":227001,"DIS_CODE":0,"TOWNNAME":"永康區","LI":"\u25A0行里","LIN":"3鄰","STREET":"中正路","SECT":" ","MAREA":" ","LANE":"８７２巷","ALLEY":" ","HOUSE_NO":"６號二樓","E_COORD97":172111.01000000001,"N_COORD97":2548833.5099999998,"ADDRESS":"中正路８７２巷６號二樓","OBJECTID":226997},"geometry":{"x":172111.01000000071,"y":2548833.5099999998}},{"attributes":{"ID":227002,"DIS_CODE":0,"TOWNNAME":"永康區","LI":"永康里","LIN":"3鄰","STREET":"中山路","SECT":" ","MAREA":" ","LANE":"１０巷","ALLEY":" ","HOUSE_NO":"８號八樓之１","E_COORD97":173894.70999999999,"N_COORD97":2547386.6299999999,"ADDRESS":"中山路１０巷８號八樓之１","OBJECTID":226998},"geometry":{"x":173894.71000000089,"y":2547386.6300000008}},{"attributes":{"ID":227003,"DIS_CODE":0,"TOWNNAME":"永康區","LI":"\u25A0行里","LIN":"3鄰","STREET":"中正路","SECT":" ","MAREA":" ","LANE":"８７２巷","ALLEY":" ","HOUSE_NO":"７號五樓","E_COORD97":172105.62,"N_COORD97":2548843,"ADDRESS":"中正路８７２巷７號五樓","OBJECTID":226999},"geometry":{"x":172105.62000000011,"y":2548843.0000000019}},{"attributes":{"ID":227004,"DIS_CODE":0,"TOWNNAME":"安平區","LI":"華平里","LIN":"3鄰","STREET":"國平路","SECT":" ","MAREA":" ","LANE":"５５２巷","ALLEY":" ","HOUSE_NO":"９４號六樓之２","E_COORD97":165295.35999999999,"N_COORD97":2544119.2599999998,"ADDRESS":"國平路５５２巷９４號六樓之２","OBJECTID":227000},"geometry":{"x":165295.3599999994,"y":2544119.2599999998}}]}