{"displayFieldName":"TOWNNAME","fieldAliases":{"ID":"ID","DIS_CODE":"DIS_CODE","TOWNNAME":"TOWNNAME","LI":"LI","LIN":"LIN","STREET":"STREET","SECT":"SECT","MAREA":"MAREA","LANE":"LANE","ALLEY":"ALLEY","HOUSE_NO":"HOUSE_NO","E_COORD97":"E_COORD97","N_COORD97":"N_COORD97","ADDRESS":"ADDRESS","OBJECTID":"OBJECTID"},"geometryType":"esriGeometryPoint","spatialReference":{"wkid":102443,"latestWkid":3826},"fields":[{"name":"ID","type":"esriFieldTypeDouble","alias":"ID"},{"name":"DIS_CODE","type":"esriFieldTypeInteger","alias":"DIS_CODE"},{"name":"TOWNNAME","type":"esriFieldTypeString","alias":"TOWNNAME","length":8},{"name":"LI","type":"esriFieldTypeString","alias":"LI","length":8},{"name":"LIN","type":"esriFieldTypeString","alias":"LIN","length":12},{"name":"STREET","type":"esriFieldTypeString","alias":"STREET","length":20},{"name":"SECT","type":"esriFieldTypeString","alias":"SECT","length":8},{"name":"MAREA","type":"esriFieldTypeString","alias":"MAREA","length":12},{"name":"LANE","type":"esriFieldTypeString","alias":"LANE","length":10},{"name":"ALLEY","type":"esriFieldTypeString","alias":"ALLEY","length":10},{"name":"HOUSE_NO","type":"esriFieldTypeString","alias":"HOUSE_NO","length":20},{"name":"E_COORD97","type":"esriFieldTypeDouble","alias":"E_COORD97"},{"name":"N_COORD97","type":"esriFieldTypeDouble","alias":"N_COORD97"},{"name":"ADDRESS","type":"esriFieldTypeString","alias":"ADDRESS","length":50},{"name":"OBJECTID","type":"esriFieldTypeOID","alias":"OBJECTID"}],"features":[{"attributes":{"ID":316009,"DIS_CODE":0,"TOWNNAME":"北區","LI":"三德里","LIN":"4鄰","STREET":"裕民街","SECT":" ","MAREA":" ","LANE":"９４巷","ALLEY":" ","HOUSE_NO":"８號","E_COORD97":168516.06,"N_COORD97":2544543.4300000002,"ADDRESS":"裕民街９４巷８號","OBJECTID":316001},"geometry":{"x":168516.06000000052,"y":2544543.4300000016}},{"attributes":{"ID":316010,"DIS_CODE":0,"TOWNNAME":"善化區","LI":"南關里","LIN":"7鄰","STREET":"三民路","SECT":" ","MAREA":" ","LANE":"六合巷","ALLEY":" ","HOUSE_NO":"１８號","E_COORD97":176976.95000000001,"N_COORD97":2558755.2599999998,"ADDRESS":"三民路六合巷１８號","OBJECTID":316002},"geometry":{"x":176976.95000000112,"y":2558755.2599999998}},{"attributes":{"ID":316011,"DIS_CODE":0,"TOWNNAME":"善化區","LI":"小新里","LIN":"7鄰","STREET":"成功路","SECT":" ","MAREA":" ","LANE":"１８６巷","ALLEY":" ","HOUSE_NO":"２號","E_COORD97":179483.29999999999,"N_COORD97":2558812.25,"ADDRESS":"成功路１８６巷２號","OBJECTID":316003},"geometry":{"x":179483.29999999981,"y":2558812.2500000019}},{"attributes":{"ID":316012,"DIS_CODE":0,"TOWNNAME":"善化區","LI":"光文里","LIN":"7鄰","STREET":"光文路","SECT":" ","MAREA":" ","LANE":"３９巷","ALLEY":" ","HOUSE_NO":"１６號","E_COORD97":178964.98000000001,"N_COORD97":2559509.7799999998,"ADDRESS":"光文路３９巷１６號","OBJECTID":316004},"geometry":{"x":178964.98000000138,"y":2559509.7800000012}},{"attributes":{"ID":316013,"DIS_CODE":0,"TOWNNAME":"善化區","LI":"文昌里","LIN":"7鄰","STREET":"中華路","SECT":" ","MAREA":" ","LANE":"７２巷","ALLEY":" ","HOUSE_NO":"２號","E_COORD97":177264.23000000001,"N_COORD97":2558817,"ADDRESS":"中華路７２巷２號","OBJECTID":316005},"geometry":{"x":177264.23000000045,"y":2558817.0000000019}},{"attributes":{"ID":316014,"DIS_CODE":0,"TOWNNAME":"善化區","LI":"光文里","LIN":"7鄰","STREET":"光文路","SECT":" ","MAREA":" ","LANE":"３９巷","ALLEY":" ","HOUSE_NO":"２０號","E_COORD97":178956.81,"N_COORD97":2559511.2799999998,"ADDRESS":"光文路３９巷２０號","OBJECTID":316006},"geometry":{"x":178956.81000000052,"y":2559511.2799999993}},{"attributes":{"ID":316015,"DIS_CODE":0,"TOWNNAME":"善化區","LI":"光文里","LIN":"7鄰","STREET":"光文路","SECT":" ","MAREA":" ","LANE":"３９巷","ALLEY":" ","HOUSE_NO":"１２號","E_COORD97":178973.25,"N_COORD97":2559508.2799999998,"ADDRESS":"光文路３９巷１２號","OBJECTID":316007},"geometry":{"x":178973.25000000093,"y":2559508.2799999993}},{"attributes":{"ID":316016,"DIS_CODE":0,"TOWNNAME":"善化區","LI":"光文里","LIN":"7鄰","STREET":"光文路","SECT":" ","MAREA":" ","LANE":"３９巷","ALLEY":" ","HOUSE_NO":"２５號","E_COORD97":178944.70000000001,"N_COORD97":2559496.2799999998,"ADDRESS":"光文路３９巷２５號","OBJECTID":316008},"geometry":{"x":178944.70000000112,"y":2559496.2800000012}},{"attributes":{"ID":316017,"DIS_CODE":0,"TOWNNAME":"善化區","LI":"文昌里","LIN":"7鄰","STREET":"中華路","SECT":" ","MAREA":" ","LANE":"９巷","ALLEY":" ","HOUSE_NO":"２２號","E_COORD97":177244.62,"N_COORD97":2558641.5,"ADDRESS":"中華路９巷２２號","OBJECTID":316009},"geometry":{"x":177244.62000000197,"y":2558641.5000000019}},{"attributes":{"ID":316018,"DIS_CODE":0,"TOWNNAME":"善化區","LI":"文昌里","LIN":"7鄰","STREET":"中華路","SECT":" ","MAREA":" ","LANE":"９巷","ALLEY":" ","HOUSE_NO":"１５號","E_COORD97":177251.82000000001,"N_COORD97":2558629.75,"ADDRESS":"中華路９巷１５號","OBJECTID":316010},"geometry":{"x":177251.81999999937,"y":2558629.7500000019}},{"attributes":{"ID":316019,"DIS_CODE":0,"TOWNNAME":"仁德區","LI":"上崙里","LIN":"7鄰","STREET":"德南路","SECT":" ","MAREA":" ","LANE":"３７３巷","ALLEY":" ","HOUSE_NO":"３號","E_COORD97":173902.41,"N_COORD97":2538313.0099999998,"ADDRESS":"德南路３７３巷３號","OBJECTID":316011},"geometry":{"x":173902.41000000015,"y":2538313.0099999998}},{"attributes":{"ID":316020,"DIS_CODE":0,"TOWNNAME":"北區","LI":"文成里","LIN":"17鄰","STREET":"文賢路","SECT":" ","MAREA":" ","LANE":" ","ALLEY":" ","HOUSE_NO":"２３２號","E_COORD97":167359.51999999999,"N_COORD97":2544965.8799999999,"ADDRESS":"文賢路２３２號","OBJECTID":316012},"geometry":{"x":167359.51999999955,"y":2544965.879999999}},{"attributes":{"ID":316021,"DIS_CODE":0,"TOWNNAME":"北區","LI":"文元里","LIN":"17鄰","STREET":"文成三路","SECT":" ","MAREA":" ","LANE":" ","ALLEY":" ","HOUSE_NO":"７６１號","E_COORD97":167602.07000000001,"N_COORD97":2546227.7400000002,"ADDRESS":"文成三路７６１號","OBJECTID":316013},"geometry":{"x":167602.0700000003,"y":2546227.7400000021}},{"attributes":{"ID":316022,"DIS_CODE":0,"TOWNNAME":"北區","LI":"文元里","LIN":"17鄰","STREET":"文成三路","SECT":" ","MAREA":" ","LANE":" ","ALLEY":" ","HOUSE_NO":"７６３號","E_COORD97":167597.63,"N_COORD97":2546227.6099999999,"ADDRESS":"文成三路７６３號","OBJECTID":316014},"geometry":{"x":167597.63000000082,"y":2546227.6100000013}},{"attributes":{"ID":316023,"DIS_CODE":0,"TOWNNAME":"北區","LI":"文元里","LIN":"17鄰","STREET":"文成三路","SECT":" ","MAREA":" ","LANE":" ","ALLEY":" ","HOUSE_NO":"７６５號","E_COORD97":167592.67000000001,"N_COORD97":2546227.3599999999,"ADDRESS":"文成三路７６５號","OBJECTID":316015},"geometry":{"x":167592.66999999993,"y":2546227.3599999994}},{"attributes":{"ID":316024,"DIS_CODE":0,"TOWNNAME":"北區","LI":"大和里","LIN":"17鄰","STREET":"文賢路","SECT":" ","MAREA":" ","LANE":" ","ALLEY":" ","HOUSE_NO":"８３７之１號","E_COORD97":167298.62,"N_COORD97":2546389.5800000001,"ADDRESS":"文賢路８３７之１號","OBJECTID":316016},"geometry":{"x":167298.62000000011,"y":2546389.5800000001}},{"attributes":{"ID":316025,"DIS_CODE":0,"TOWNNAME":"南區","LI":"明興里","LIN":"17鄰","STREET":"中華南路","SECT":"二段","MAREA":" ","LANE":" ","ALLEY":" ","HOUSE_NO":"１１６號","E_COORD97":167174.70999999999,"N_COORD97":2540290.3900000001,"ADDRESS":"中華南路二段１１６號","OBJECTID":316017},"geometry":{"x":167174.71000000089,"y":2540290.3900000025}},{"attributes":{"ID":316026,"DIS_CODE":0,"TOWNNAME":"北區","LI":"六甲里","LIN":"5鄰","STREET":"和緯路","SECT":"二段","MAREA":" ","LANE":" ","ALLEY":" ","HOUSE_NO":"１號","E_COORD97":169077.17999999999,"N_COORD97":2545680.9100000001,"ADDRESS":"和緯路二段１號","OBJECTID":316018},"geometry":{"x":169077.1799999997,"y":2545680.910000002}},{"attributes":{"ID":316027,"DIS_CODE":0,"TOWNNAME":"北區","LI":"六甲里","LIN":"5鄰","STREET":"和緯路","SECT":"二段","MAREA":" ","LANE":" ","ALLEY":" ","HOUSE_NO":"７號","E_COORD97":169057.51999999999,"N_COORD97":2545689.4900000002,"ADDRESS":"和緯路二段７號","OBJECTID":316019},"geometry":{"x":169057.52000000048,"y":2545689.4900000039}},{"attributes":{"ID":316028,"DIS_CODE":0,"TOWNNAME":"北區","LI":"六甲里","LIN":"5鄰","STREET":"和緯路","SECT":"二段","MAREA":" ","LANE":" ","ALLEY":" ","HOUSE_NO":"９號","E_COORD97":169051.70000000001,"N_COORD97":2545691.2599999998,"ADDRESS":"和緯路二段９號","OBJECTID":316020},"geometry":{"x":169051.70000000112,"y":2545691.2600000016}},{"attributes":{"ID":316029,"DIS_CODE":0,"TOWNNAME":"北區","LI":"大山里","LIN":"4鄰","STREET":"和緯路","SECT":"一段","MAREA":" ","LANE":"１２９巷","ALLEY":" ","HOUSE_NO":"２１號","E_COORD97":169380.32000000001,"N_COORD97":2545568.4100000001,"ADDRESS":"和緯路一段１２９巷２１號","OBJECTID":316021},"geometry":{"x":169380.3200000003,"y":2545568.410000002}},{"attributes":{"ID":316030,"DIS_CODE":0,"TOWNNAME":"北區","LI":"大山里","LIN":"4鄰","STREET":"和緯路","SECT":"一段","MAREA":" ","LANE":"１２９巷","ALLEY":" ","HOUSE_NO":"２３號","E_COORD97":169377.26000000001,"N_COORD97":2545571.6099999999,"ADDRESS":"和緯路一段１２９巷２３號","OBJECTID":316022},"geometry":{"x":169377.25999999978,"y":2545571.6099999994}},{"attributes":{"ID":316031,"DIS_CODE":0,"TOWNNAME":"北區","LI":"大山里","LIN":"4鄰","STREET":"和緯路","SECT":"一段","MAREA":" ","LANE":"１２９巷","ALLEY":" ","HOUSE_NO":"２５號","E_COORD97":169373.5,"N_COORD97":2545572.3199999998,"ADDRESS":"和緯路一段１２９巷２５號","OBJECTID":316023},"geometry":{"x":169373.50000000093,"y":2545572.3200000022}},{"attributes":{"ID":316032,"DIS_CODE":0,"TOWNNAME":"仁德區","LI":"土庫里","LIN":"7鄰","STREET":"土庫三街","SECT":" ","MAREA":" ","LANE":"３９巷","ALLEY":" ","HOUSE_NO":"２４號","E_COORD97":174231.70999999999,"N_COORD97":2543184.2400000002,"ADDRESS":"土庫三街３９巷２４號","OBJECTID":316024},"geometry":{"x":174231.71000000089,"y":2543184.2400000002}},{"attributes":{"ID":316033,"DIS_CODE":0,"TOWNNAME":"仁德區","LI":"後壁里","LIN":"7鄰","STREET":"德善二街","SECT":" ","MAREA":" ","LANE":"５１巷","ALLEY":" ","HOUSE_NO":"２１號","E_COORD97":173600.12,"N_COORD97":2539028.5099999998,"ADDRESS":"德善二街５１巷２１號","OBJECTID":316025},"geometry":{"x":173600.12000000104,"y":2539028.5099999998}},{"attributes":{"ID":316034,"DIS_CODE":0,"TOWNNAME":"仁德區","LI":"後壁里","LIN":"7鄰","STREET":"德善二街","SECT":" ","MAREA":" ","LANE":"５１巷","ALLEY":" ","HOUSE_NO":"５號","E_COORD97":173619.89999999999,"N_COORD97":2538986.77,"ADDRESS":"德善二街５１巷５號","OBJECTID":316026},"geometry":{"x":173619.90000000037,"y":2538986.7699999996}},{"attributes":{"ID":316035,"DIS_CODE":0,"TOWNNAME":"仁德區","LI":"成功里","LIN":"7鄰","STREET":"保華路","SECT":" ","MAREA":" ","LANE":"１２９巷","ALLEY":" ","HOUSE_NO":"５５號","E_COORD97":171121.87,"N_COORD97":2539869.7400000002,"ADDRESS":"保華路１２９巷５５號","OBJECTID":316027},"geometry":{"x":171121.87000000104,"y":2539869.7400000039}},{"attributes":{"ID":316036,"DIS_CODE":0,"TOWNNAME":"仁德區","LI":"二行里","LIN":"7鄰","STREET":"行大街","SECT":" ","MAREA":" ","LANE":"５６巷","ALLEY":" ","HOUSE_NO":"１６號","E_COORD97":170254.92999999999,"N_COORD97":2535246.25,"ADDRESS":"行大街５６巷１６號","OBJECTID":316028},"geometry":{"x":170254.93000000063,"y":2535246.2500000019}},{"attributes":{"ID":316037,"DIS_CODE":0,"TOWNNAME":"仁德區","LI":"一甲里","LIN":"7鄰","STREET":"中正路","SECT":"三段","MAREA":" ","LANE":"１６２巷","ALLEY":" ","HOUSE_NO":"３９號","E_COORD97":173586.72,"N_COORD97":2541742.2999999998,"ADDRESS":"中正路三段１６２巷３９號","OBJECTID":316029},"geometry":{"x":173586.71999999974,"y":2541742.3000000026}},{"attributes":{"ID":316038,"DIS_CODE":0,"TOWNNAME":"仁德區","LI":"一甲里","LIN":"7鄰","STREET":"中正路","SECT":"三段","MAREA":" ","LANE":"１６２巷","ALLEY":" ","HOUSE_NO":"３１號","E_COORD97":173579.88,"N_COORD97":2541756.5299999998,"ADDRESS":"中正路三段１６２巷３１號","OBJECTID":316030},"geometry":{"x":173579.88000000082,"y":2541756.5300000012}},{"attributes":{"ID":316039,"DIS_CODE":0,"TOWNNAME":"仁德區","LI":"上崙里","LIN":"7鄰","STREET":"德南路","SECT":" ","MAREA":" ","LANE":"３７３巷","ALLEY":" ","HOUSE_NO":"９號","E_COORD97":173913.26000000001,"N_COORD97":2538320.7599999998,"ADDRESS":"德南路３７３巷９號","OBJECTID":316031},"geometry":{"x":173913.25999999978,"y":2538320.7600000016}},{"attributes":{"ID":316040,"DIS_CODE":0,"TOWNNAME":"白河區","LI":"仙草里","LIN":"21鄰鄰","STREET":" ","SECT":" ","MAREA":"仙草","LANE":" ","ALLEY":" ","HOUSE_NO":"７３之３號","E_COORD97":196816.22949600001,"N_COORD97":2582177.5121800001,"ADDRESS":"仙草７３之３號","OBJECTID":316032},"geometry":{"x":196816.22949600127,"y":2582177.5121770017}},{"attributes":{"ID":316041,"DIS_CODE":0,"TOWNNAME":"仁德區","LI":"一甲里","LIN":"7鄰","STREET":"中正路","SECT":"三段","MAREA":" ","LANE":"１６２巷","ALLEY":" ","HOUSE_NO":"６７號","E_COORD97":173684.42000000001,"N_COORD97":2541722.5600000001,"ADDRESS":"中正路三段１６２巷６７號","OBJECTID":316033},"geometry":{"x":173684.42000000086,"y":2541722.5600000042}},{"attributes":{"ID":316042,"DIS_CODE":0,"TOWNNAME":"仁德區","LI":"上崙里","LIN":"7鄰","STREET":"德南路","SECT":" ","MAREA":" ","LANE":"３７３巷","ALLEY":" ","HOUSE_NO":"１５號","E_COORD97":173925.31,"N_COORD97":2538328.02,"ADDRESS":"德南路３７３巷１５號","OBJECTID":316034},"geometry":{"x":173925.31000000145,"y":2538328.0200000033}},{"attributes":{"ID":316043,"DIS_CODE":0,"TOWNNAME":"仁德區","LI":"一甲里","LIN":"7鄰","STREET":"中正路","SECT":"三段","MAREA":" ","LANE":"１６２巷","ALLEY":" ","HOUSE_NO":"４９號","E_COORD97":173635.59,"N_COORD97":2541733.02,"ADDRESS":"中正路三段１６２巷４９號","OBJECTID":316035},"geometry":{"x":173635.59000000078,"y":2541733.0200000014}},{"attributes":{"ID":316044,"DIS_CODE":0,"TOWNNAME":"仁德區","LI":"上崙里","LIN":"7鄰","STREET":"德南路","SECT":" ","MAREA":" ","LANE":"３７３巷","ALLEY":" ","HOUSE_NO":"２３號","E_COORD97":173955.23999999999,"N_COORD97":2538342.52,"ADDRESS":"德南路３７３巷２３號","OBJECTID":316036},"geometry":{"x":173955.24000000209,"y":2538342.5200000014}},{"attributes":{"ID":316045,"DIS_CODE":0,"TOWNNAME":"仁德區","LI":"上崙里","LIN":"7鄰","STREET":"德南路","SECT":" ","MAREA":" ","LANE":"３７３巷","ALLEY":" ","HOUSE_NO":"３２號","E_COORD97":173968.39999999999,"N_COORD97":2538336.52,"ADDRESS":"德南路３７３巷３２號","OBJECTID":316037},"geometry":{"x":173968.4000000013,"y":2538336.5199999996}},{"attributes":{"ID":316046,"DIS_CODE":0,"TOWNNAME":"仁德區","LI":"上崙里","LIN":"7鄰","STREET":"德南路","SECT":" ","MAREA":" ","LANE":"３７３巷","ALLEY":" ","HOUSE_NO":"１１號","E_COORD97":173918.16,"N_COORD97":2538323.0099999998,"ADDRESS":"德南路３７３巷１１號","OBJECTID":316038},"geometry":{"x":173918.16000000015,"y":2538323.0100000016}},{"attributes":{"ID":316047,"DIS_CODE":0,"TOWNNAME":"仁德區","LI":"上崙里","LIN":"7鄰","STREET":"德南路","SECT":" ","MAREA":" ","LANE":"３７３巷","ALLEY":" ","HOUSE_NO":"２９號","E_COORD97":173967.10000000001,"N_COORD97":2538345.52,"ADDRESS":"德南路３７３巷２９號","OBJECTID":316039},"geometry":{"x":173967.09999999963,"y":2538345.5200000014}},{"attributes":{"ID":316048,"DIS_CODE":0,"TOWNNAME":"仁德區","LI":"上崙里","LIN":"7鄰","STREET":"德南路","SECT":" ","MAREA":" ","LANE":"３７３巷","ALLEY":" ","HOUSE_NO":"３３號","E_COORD97":173974.75,"N_COORD97":2538347.77,"ADDRESS":"德南路３７３巷３３號","OBJECTID":316040},"geometry":{"x":173974.75,"y":2538347.7700000014}},{"attributes":{"ID":316049,"DIS_CODE":0,"TOWNNAME":"仁德區","LI":"上崙里","LIN":"7鄰","STREET":"德南路","SECT":" ","MAREA":" ","LANE":"３７３巷","ALLEY":" ","HOUSE_NO":"５號","E_COORD97":173906.01000000001,"N_COORD97":2538315.5099999998,"ADDRESS":"德南路３７３巷５號","OBJECTID":316041},"geometry":{"x":173906.01000000071,"y":2538315.5100000016}},{"attributes":{"ID":316050,"DIS_CODE":0,"TOWNNAME":"仁德區","LI":"上崙里","LIN":"7鄰","STREET":"德南路","SECT":" ","MAREA":" ","LANE":"３７３巷","ALLEY":" ","HOUSE_NO":"３６號","E_COORD97":173976.32000000001,"N_COORD97":2538339.27,"ADDRESS":"德南路３７３巷３６號","OBJECTID":316042},"geometry":{"x":173976.3200000003,"y":2538339.2699999996}},{"attributes":{"ID":316051,"DIS_CODE":0,"TOWNNAME":"仁德區","LI":"上崙里","LIN":"7鄰","STREET":"德南路","SECT":" ","MAREA":" ","LANE":"３７３巷","ALLEY":" ","HOUSE_NO":"２７號","E_COORD97":173963.17000000001,"N_COORD97":2538344.52,"ADDRESS":"德南路３７３巷２７號","OBJECTID":316043},"geometry":{"x":173963.16999999993,"y":2538344.5199999977}},{"attributes":{"ID":316052,"DIS_CODE":0,"TOWNNAME":"仁德區","LI":"上崙里","LIN":"7鄰","STREET":"德南路","SECT":" ","MAREA":" ","LANE":"３７３巷","ALLEY":" ","HOUSE_NO":"３８號","E_COORD97":173980.23999999999,"N_COORD97":2538340.02,"ADDRESS":"德南路３７３巷３８號","OBJECTID":316044},"geometry":{"x":173980.24000000022,"y":2538340.0199999996}},{"attributes":{"ID":316053,"DIS_CODE":0,"TOWNNAME":"仁德區","LI":"上崙里","LIN":"7鄰","STREET":"德南路","SECT":" ","MAREA":" ","LANE":"３７３巷","ALLEY":" ","HOUSE_NO":"３４號","E_COORD97":173972.29000000001,"N_COORD97":2538337.77,"ADDRESS":"德南路３７３巷３４號","OBJECTID":316045},"geometry":{"x":173972.29000000097,"y":2538337.7700000014}},{"attributes":{"ID":316054,"DIS_CODE":0,"TOWNNAME":"仁德區","LI":"上崙里","LIN":"7鄰","STREET":"德南路","SECT":" ","MAREA":" ","LANE":"３９９巷","ALLEY":" ","HOUSE_NO":"２５號","E_COORD97":173991.82000000001,"N_COORD97":2538285.2599999998,"ADDRESS":"德南路３９９巷２５號","OBJECTID":316046},"geometry":{"x":173991.8200000003,"y":2538285.2599999998}},{"attributes":{"ID":316055,"DIS_CODE":0,"TOWNNAME":"北區","LI":"六甲里","LIN":"5鄰","STREET":"和緯路","SECT":"二段","MAREA":" ","LANE":" ","ALLEY":" ","HOUSE_NO":"１１號","E_COORD97":169046.14000000001,"N_COORD97":2545690.75,"ADDRESS":"和緯路二段１１號","OBJECTID":316047},"geometry":{"x":169046.14000000153,"y":2545690.7500000037}},{"attributes":{"ID":316056,"DIS_CODE":0,"TOWNNAME":"南區","LI":"明興里","LIN":"17鄰","STREET":"中華南路","SECT":"二段","MAREA":" ","LANE":" ","ALLEY":" ","HOUSE_NO":"１２２號","E_COORD97":167161,"N_COORD97":2540287.6600000001,"ADDRESS":"中華南路二段１２２號","OBJECTID":316048},"geometry":{"x":167161.00000000093,"y":2540287.660000002}},{"attributes":{"ID":316057,"DIS_CODE":0,"TOWNNAME":"南區","LI":"明興里","LIN":"17鄰","STREET":"中華南路","SECT":"二段","MAREA":" ","LANE":" ","ALLEY":" ","HOUSE_NO":"１２４號","E_COORD97":167156.70000000001,"N_COORD97":2540286.8399999999,"ADDRESS":"中華南路二段１２４號","OBJECTID":316049},"geometry":{"x":167156.70000000112,"y":2540286.8400000017}},{"attributes":{"ID":316058,"DIS_CODE":0,"TOWNNAME":"佳里區","LI":"安西里","LIN":"1鄰","STREET":"中山路","SECT":" ","MAREA":" ","LANE":" ","ALLEY":" ","HOUSE_NO":"３６７號","E_COORD97":165702.78,"N_COORD97":2562619.54,"ADDRESS":"中山路３６７號","OBJECTID":316050},"geometry":{"x":165702.78000000212,"y":2562619.540000001}},{"attributes":{"ID":316059,"DIS_CODE":0,"TOWNNAME":"仁德區","LI":"上崙里","LIN":"7鄰","STREET":"德南路","SECT":" ","MAREA":" ","LANE":"３９９巷","ALLEY":" ","HOUSE_NO":"１７號","E_COORD97":173971.34,"N_COORD97":2538280.0099999998,"ADDRESS":"德南路３９９巷１７號","OBJECTID":316051},"geometry":{"x":173971.34000000078,"y":2538280.0099999998}},{"attributes":{"ID":316060,"DIS_CODE":0,"TOWNNAME":"仁德區","LI":"二行里","LIN":"7鄰","STREET":"行大街","SECT":" ","MAREA":" ","LANE":"５６巷","ALLEY":" ","HOUSE_NO":"２號","E_COORD97":170234.32000000001,"N_COORD97":2535210.4900000002,"ADDRESS":"行大街５６巷２號","OBJECTID":316052},"geometry":{"x":170234.32000000123,"y":2535210.4900000021}},{"attributes":{"ID":316061,"DIS_CODE":0,"TOWNNAME":"仁德區","LI":"一甲里","LIN":"7鄰","STREET":"中正路","SECT":"三段","MAREA":" ","LANE":"１６２巷","ALLEY":" ","HOUSE_NO":"３７號","E_COORD97":173582.32999999999,"N_COORD97":2541743.5499999998,"ADDRESS":"中正路三段１６２巷３７號","OBJECTID":316053},"geometry":{"x":173582.33000000101,"y":2541743.5500000026}},{"attributes":{"ID":316062,"DIS_CODE":0,"TOWNNAME":"仁德區","LI":"一甲里","LIN":"7鄰","STREET":"中正路","SECT":"三段","MAREA":" ","LANE":"１６２巷","ALLEY":" ","HOUSE_NO":"４３號","E_COORD97":173607.22,"N_COORD97":2541737.27,"ADDRESS":"中正路三段１６２巷４３號","OBJECTID":316054},"geometry":{"x":173607.21999999881,"y":2541737.2700000014}},{"attributes":{"ID":316063,"DIS_CODE":0,"TOWNNAME":"仁德區","LI":"一甲里","LIN":"7鄰","STREET":"中正路","SECT":"三段","MAREA":" ","LANE":"１６２巷","ALLEY":" ","HOUSE_NO":"２７號","E_COORD97":173596.98000000001,"N_COORD97":2541787.5299999998,"ADDRESS":"中正路三段１６２巷２７號","OBJECTID":316055},"geometry":{"x":173596.98000000138,"y":2541787.5299999993}},{"attributes":{"ID":316064,"DIS_CODE":0,"TOWNNAME":"仁德區","LI":"一甲里","LIN":"7鄰","STREET":"中正路","SECT":"三段","MAREA":" ","LANE":"１６２巷","ALLEY":" ","HOUSE_NO":"６９號","E_COORD97":173690.13,"N_COORD97":2541721.5600000001,"ADDRESS":"中正路三段１６２巷６９號","OBJECTID":316056},"geometry":{"x":173690.13000000082,"y":2541721.5600000005}},{"attributes":{"ID":316065,"DIS_CODE":0,"TOWNNAME":"仁德區","LI":"一甲里","LIN":"7鄰","STREET":"中正路","SECT":"三段","MAREA":" ","LANE":"１６２巷","ALLEY":" ","HOUSE_NO":"６３號","E_COORD97":173672.60999999999,"N_COORD97":2541720.0600000001,"ADDRESS":"中正路三段１６２巷６３號","OBJECTID":316057},"geometry":{"x":173672.61000000034,"y":2541720.0600000024}},{"attributes":{"ID":316066,"DIS_CODE":0,"TOWNNAME":"仁德區","LI":"上崙里","LIN":"7鄰","STREET":"德南路","SECT":" ","MAREA":" ","LANE":"３７３巷","ALLEY":" ","HOUSE_NO":"２５號","E_COORD97":173959.32000000001,"N_COORD97":2538343.52,"ADDRESS":"德南路３７３巷２５號","OBJECTID":316058},"geometry":{"x":173959.3200000003,"y":2538343.5199999996}},{"attributes":{"ID":316067,"DIS_CODE":0,"TOWNNAME":"仁德區","LI":"一甲里","LIN":"7鄰","STREET":"中正路","SECT":"三段","MAREA":" ","LANE":"１６２巷","ALLEY":" ","HOUSE_NO":"７３號","E_COORD97":173703.13,"N_COORD97":2541717.3100000001,"ADDRESS":"中正路三段１６２巷７３號","OBJECTID":316059},"geometry":{"x":173703.13000000175,"y":2541717.3100000042}},{"attributes":{"ID":316068,"DIS_CODE":0,"TOWNNAME":"安平區","LI":"平安里","LIN":"14鄰","STREET":"安平路","SECT":" ","MAREA":" ","LANE":"５５０巷","ALLEY":" ","HOUSE_NO":"３１號","E_COORD97":165007.66,"N_COORD97":2544464.5899999999,"ADDRESS":"安平路５５０巷３１號","OBJECTID":316060},"geometry":{"x":165007.66000000015,"y":2544464.5900000017}},{"attributes":{"ID":316069,"DIS_CODE":0,"TOWNNAME":"安平區","LI":"平安里","LIN":"19鄰","STREET":"安平路","SECT":" ","MAREA":" ","LANE":"６０６巷","ALLEY":" ","HOUSE_NO":"３７號","E_COORD97":164863.19,"N_COORD97":2544534.0299999998,"ADDRESS":"安平路６０６巷３７號","OBJECTID":316061},"geometry":{"x":164863.19000000134,"y":2544534.0299999993}},{"attributes":{"ID":316070,"DIS_CODE":0,"TOWNNAME":"安平區","LI":"平安里","LIN":"19鄰","STREET":"安平路","SECT":" ","MAREA":" ","LANE":"６０６巷","ALLEY":" ","HOUSE_NO":"３８號","E_COORD97":164879.26999999999,"N_COORD97":2544537.6099999999,"ADDRESS":"安平路６０６巷３８號","OBJECTID":316062},"geometry":{"x":164879.26999999955,"y":2544537.6099999994}},{"attributes":{"ID":316071,"DIS_CODE":0,"TOWNNAME":"安平區","LI":"平安里","LIN":"19鄰","STREET":"安平路","SECT":" ","MAREA":" ","LANE":"６０６巷","ALLEY":" ","HOUSE_NO":"３９號","E_COORD97":164865.23999999999,"N_COORD97":2544536.8500000001,"ADDRESS":"安平路６０６巷３９號","OBJECTID":316063},"geometry":{"x":164865.24000000022,"y":2544536.8500000034}},{"attributes":{"ID":316072,"DIS_CODE":0,"TOWNNAME":"安平區","LI":"平安里","LIN":"19鄰","STREET":"安平路","SECT":" ","MAREA":" ","LANE":"６０６巷","ALLEY":" ","HOUSE_NO":"４０號","E_COORD97":164880.34,"N_COORD97":2544541.1800000002,"ADDRESS":"安平路６０６巷４０號","OBJECTID":316064},"geometry":{"x":164880.34000000078,"y":2544541.1799999978}},{"attributes":{"ID":316073,"DIS_CODE":0,"TOWNNAME":"安平區","LI":"平安里","LIN":"19鄰","STREET":"安平路","SECT":" ","MAREA":" ","LANE":"６０６巷","ALLEY":" ","HOUSE_NO":"４１號","E_COORD97":164867.04000000001,"N_COORD97":2544540.8300000001,"ADDRESS":"安平路６０６巷４１號","OBJECTID":316065},"geometry":{"x":164867.04000000097,"y":2544540.8300000038}},{"attributes":{"ID":316074,"DIS_CODE":0,"TOWNNAME":"安平區","LI":"平安里","LIN":"19鄰","STREET":"安平路","SECT":" ","MAREA":" ","LANE":"６０６巷","ALLEY":" ","HOUSE_NO":"４２號","E_COORD97":164881.87,"N_COORD97":2544545.0099999998,"ADDRESS":"安平路６０６巷４２號","OBJECTID":316066},"geometry":{"x":164881.87000000104,"y":2544545.0099999998}},{"attributes":{"ID":316075,"DIS_CODE":0,"TOWNNAME":"安平區","LI":"平安里","LIN":"19鄰","STREET":"安平路","SECT":" ","MAREA":" ","LANE":"６０６巷","ALLEY":" ","HOUSE_NO":"４３號","E_COORD97":164868.07000000001,"N_COORD97":2544545.1899999999,"ADDRESS":"安平路６０６巷４３號","OBJECTID":316067},"geometry":{"x":164868.0700000003,"y":2544545.1900000013}},{"attributes":{"ID":316076,"DIS_CODE":0,"TOWNNAME":"安平區","LI":"平安里","LIN":"19鄰","STREET":"安平路","SECT":" ","MAREA":" ","LANE":"６０６巷","ALLEY":" ","HOUSE_NO":"４４號","E_COORD97":164883.25,"N_COORD97":2544548.8300000001,"ADDRESS":"安平路６０６巷４４號","OBJECTID":316068},"geometry":{"x":164883.25,"y":2544548.8300000019}},{"attributes":{"ID":316077,"DIS_CODE":0,"TOWNNAME":"安平區","LI":"平安里","LIN":"19鄰","STREET":"安平路","SECT":" ","MAREA":" ","LANE":"６０６巷","ALLEY":" ","HOUSE_NO":"４５號","E_COORD97":164870.38,"N_COORD97":2544553.3900000001,"ADDRESS":"安平路６０６巷４５號","OBJECTID":316069},"geometry":{"x":164870.37999999989,"y":2544553.3900000006}},{"attributes":{"ID":316078,"DIS_CODE":0,"TOWNNAME":"安平區","LI":"平安里","LIN":"19鄰","STREET":"安平路","SECT":" ","MAREA":" ","LANE":"６０６巷","ALLEY":" ","HOUSE_NO":"４６號","E_COORD97":164884.17000000001,"N_COORD97":2544552.0499999998,"ADDRESS":"安平路６０６巷４６號","OBJECTID":316070},"geometry":{"x":164884.16999999993,"y":2544552.0500000007}},{"attributes":{"ID":316079,"DIS_CODE":0,"TOWNNAME":"安平區","LI":"平安里","LIN":"19鄰","STREET":"安平路","SECT":" ","MAREA":" ","LANE":"６０６巷","ALLEY":" ","HOUSE_NO":"４７號","E_COORD97":164871.14999999999,"N_COORD97":2544555.8300000001,"ADDRESS":"安平路６０６巷４７號","OBJECTID":316071},"geometry":{"x":164871.15000000037,"y":2544555.8300000019}},{"attributes":{"ID":316080,"DIS_CODE":0,"TOWNNAME":"安平區","LI":"平安里","LIN":"19鄰","STREET":"安平路","SECT":" ","MAREA":" ","LANE":"６０６巷","ALLEY":" ","HOUSE_NO":"４８號","E_COORD97":164885.07999999999,"N_COORD97":2544554.9500000002,"ADDRESS":"安平路６０６巷４８號","OBJECTID":316072},"geometry":{"x":164885.07999999914,"y":2544554.9499999993}},{"attributes":{"ID":316081,"DIS_CODE":0,"TOWNNAME":"南區","LI":"明興里","LIN":"17鄰","STREET":"中華南路","SECT":"二段","MAREA":" ","LANE":" ","ALLEY":" ","HOUSE_NO":"１２６號","E_COORD97":167152.23999999999,"N_COORD97":2540285.8500000001,"ADDRESS":"中華南路二段１２６號","OBJECTID":316073},"geometry":{"x":167152.24000000022,"y":2540285.8500000015}},{"attributes":{"ID":316082,"DIS_CODE":0,"TOWNNAME":"南區","LI":"明興里","LIN":"17鄰","STREET":"中華南路","SECT":"二段","MAREA":" ","LANE":" ","ALLEY":" ","HOUSE_NO":"１２８號","E_COORD97":167147.69,"N_COORD97":2540284.7799999998,"ADDRESS":"中華南路二段１２８號","OBJECTID":316074},"geometry":{"x":167147.69000000041,"y":2540284.7799999993}},{"attributes":{"ID":316083,"DIS_CODE":0,"TOWNNAME":"南區","LI":"明興里","LIN":"17鄰","STREET":"中華南路","SECT":"二段","MAREA":" ","LANE":" ","ALLEY":" ","HOUSE_NO":"１４２號","E_COORD97":167120.51000000001,"N_COORD97":2540279.5299999998,"ADDRESS":"中華南路二段１４２號","OBJECTID":316075},"geometry":{"x":167120.50999999978,"y":2540279.5299999993}},{"attributes":{"ID":316084,"DIS_CODE":0,"TOWNNAME":"南區","LI":"明興里","LIN":"17鄰","STREET":"中華南路","SECT":"二段","MAREA":" ","LANE":" ","ALLEY":" ","HOUSE_NO":"１６４號","E_COORD97":167076.10000000001,"N_COORD97":2540270.3700000001,"ADDRESS":"中華南路二段１６４號","OBJECTID":316076},"geometry":{"x":167076.09999999963,"y":2540270.3700000029}},{"attributes":{"ID":316085,"DIS_CODE":0,"TOWNNAME":"南區","LI":"明興里","LIN":"17鄰","STREET":"中華南路","SECT":"二段","MAREA":" ","LANE":" ","ALLEY":" ","HOUSE_NO":"１８２號","E_COORD97":167039.42000000001,"N_COORD97":2540262.9399999999,"ADDRESS":"中華南路二段１８２號","OBJECTID":316077},"geometry":{"x":167039.42000000086,"y":2540262.9399999995}},{"attributes":{"ID":316086,"DIS_CODE":0,"TOWNNAME":"北區","LI":"大豐里","LIN":"17鄰","STREET":"和緯路","SECT":"四段","MAREA":" ","LANE":" ","ALLEY":" ","HOUSE_NO":"１０１號","E_COORD97":167105.23000000001,"N_COORD97":2545486.71,"ADDRESS":"和緯路四段１０１號","OBJECTID":316078},"geometry":{"x":167105.23000000231,"y":2545486.7100000028}},{"attributes":{"ID":316087,"DIS_CODE":0,"TOWNNAME":"北區","LI":"大豐里","LIN":"17鄰","STREET":"和緯路","SECT":"四段","MAREA":" ","LANE":" ","ALLEY":" ","HOUSE_NO":"１０３號","E_COORD97":167101.92999999999,"N_COORD97":2545485.21,"ADDRESS":"和緯路四段１０３號","OBJECTID":316079},"geometry":{"x":167101.93000000063,"y":2545485.2100000046}},{"attributes":{"ID":316088,"DIS_CODE":0,"TOWNNAME":"北區","LI":"大豐里","LIN":"17鄰","STREET":"和緯路","SECT":"四段","MAREA":" ","LANE":" ","ALLEY":" ","HOUSE_NO":"１０５號","E_COORD97":167097.63,"N_COORD97":2545483.2799999998,"ADDRESS":"和緯路四段１０５號","OBJECTID":316080},"geometry":{"x":167097.63000000082,"y":2545483.2800000012}},{"attributes":{"ID":316089,"DIS_CODE":0,"TOWNNAME":"北區","LI":"大豐里","LIN":"17鄰","STREET":"和緯路","SECT":"四段","MAREA":" ","LANE":" ","ALLEY":" ","HOUSE_NO":"１０７號","E_COORD97":167094.19,"N_COORD97":2545481.6299999999,"ADDRESS":"和緯路四段１０７號","OBJECTID":316081},"geometry":{"x":167094.19000000134,"y":2545481.6300000008}},{"attributes":{"ID":316090,"DIS_CODE":0,"TOWNNAME":"北區","LI":"大豐里","LIN":"17鄰","STREET":"和緯路","SECT":"四段","MAREA":" ","LANE":" ","ALLEY":" ","HOUSE_NO":"１０９號","E_COORD97":167090.04000000001,"N_COORD97":2545479.98,"ADDRESS":"和緯路四段１０９號","OBJECTID":316082},"geometry":{"x":167090.04000000004,"y":2545479.9800000023}},{"attributes":{"ID":316091,"DIS_CODE":0,"TOWNNAME":"北區","LI":"大豐里","LIN":"17鄰","STREET":"和緯路","SECT":"四段","MAREA":" ","LANE":" ","ALLEY":" ","HOUSE_NO":"１１１號","E_COORD97":167085.38,"N_COORD97":2545478.1899999999,"ADDRESS":"和緯路四段１１１號","OBJECTID":316083},"geometry":{"x":167085.38000000082,"y":2545478.1900000013}},{"attributes":{"ID":316092,"DIS_CODE":0,"TOWNNAME":"北區","LI":"六甲里","LIN":"12鄰","STREET":"和緯路","SECT":"二段","MAREA":" ","LANE":" ","ALLEY":" ","HOUSE_NO":"１６號","E_COORD97":169052.45000000001,"N_COORD97":2545716.0299999998,"ADDRESS":"和緯路二段１６號","OBJECTID":316084},"geometry":{"x":169052.45000000019,"y":2545716.0300000012}},{"attributes":{"ID":316093,"DIS_CODE":0,"TOWNNAME":"北區","LI":"六甲里","LIN":"12鄰","STREET":"和緯路","SECT":"二段","MAREA":" ","LANE":" ","ALLEY":" ","HOUSE_NO":"１８號","E_COORD97":169049.19,"N_COORD97":2545717.5099999998,"ADDRESS":"和緯路二段１８號","OBJECTID":316085},"geometry":{"x":169049.19000000041,"y":2545717.5099999998}},{"attributes":{"ID":316094,"DIS_CODE":0,"TOWNNAME":"新營區","LI":"延平里","LIN":"7鄰","STREET":"復興路","SECT":" ","MAREA":" ","LANE":" ","ALLEY":" ","HOUSE_NO":"１之１８號","E_COORD97":179706.295557,"N_COORD97":2577958.1768,"ADDRESS":"復興路１之１８號","OBJECTID":316086},"geometry":{"x":179706.29555699974,"y":2577958.1768050008}},{"attributes":{"ID":316095,"DIS_CODE":0,"TOWNNAME":"安平區","LI":"平安里","LIN":"19鄰","STREET":"安平路","SECT":" ","MAREA":" ","LANE":"６０６巷","ALLEY":" ","HOUSE_NO":"４９號","E_COORD97":164872.17000000001,"N_COORD97":2544560.5699999998,"ADDRESS":"安平路６０６巷４９號","OBJECTID":316087},"geometry":{"x":164872.16999999993,"y":2544560.5700000022}},{"attributes":{"ID":316096,"DIS_CODE":0,"TOWNNAME":"安平區","LI":"平安里","LIN":"19鄰","STREET":"安平路","SECT":" ","MAREA":" ","LANE":"６０６巷","ALLEY":" ","HOUSE_NO":"５１號","E_COORD97":164873.97,"N_COORD97":2544564.1600000001,"ADDRESS":"安平路６０６巷５１號","OBJECTID":316088},"geometry":{"x":164873.97000000067,"y":2544564.1600000001}},{"attributes":{"ID":316097,"DIS_CODE":0,"TOWNNAME":"安平區","LI":"石門里","LIN":"1鄰","STREET":"安北路","SECT":" ","MAREA":" ","LANE":"１６巷","ALLEY":" ","HOUSE_NO":"２９號","E_COORD97":164738.47,"N_COORD97":2544556.79,"ADDRESS":"安北路１６巷２９號","OBJECTID":316089},"geometry":{"x":164738.47000000067,"y":2544556.7899999972}},{"attributes":{"ID":316098,"DIS_CODE":0,"TOWNNAME":"安平區","LI":"石門里","LIN":"1鄰","STREET":"安北路","SECT":" ","MAREA":" ","LANE":"１６巷","ALLEY":" ","HOUSE_NO":"３３號","E_COORD97":164742.60000000001,"N_COORD97":2544566.0600000001,"ADDRESS":"安北路１６巷３３號","OBJECTID":316090},"geometry":{"x":164742.60000000056,"y":2544566.0600000005}},{"attributes":{"ID":316099,"DIS_CODE":0,"TOWNNAME":"安平區","LI":"石門里","LIN":"1鄰","STREET":"安北路","SECT":" ","MAREA":" ","LANE":"１６巷","ALLEY":" ","HOUSE_NO":"４１號","E_COORD97":164752.73999999999,"N_COORD97":2544597.3700000001,"ADDRESS":"安北路１６巷４１號","OBJECTID":316091},"geometry":{"x":164752.74000000115,"y":2544597.3700000029}},{"attributes":{"ID":316100,"DIS_CODE":0,"TOWNNAME":"安平區","LI":"石門里","LIN":"1鄰","STREET":"安北路","SECT":" ","MAREA":" ","LANE":"１６巷","ALLEY":" ","HOUSE_NO":"４３號","E_COORD97":164753.26000000001,"N_COORD97":2544601.7400000002,"ADDRESS":"安北路１６巷４３號","OBJECTID":316092},"geometry":{"x":164753.26000000071,"y":2544601.7400000002}},{"attributes":{"ID":316101,"DIS_CODE":0,"TOWNNAME":"安平區","LI":"石門里","LIN":"4鄰","STREET":"安北路","SECT":" ","MAREA":" ","LANE":"１６巷","ALLEY":" ","HOUSE_NO":"１１號","E_COORD97":164718.82000000001,"N_COORD97":2544516.9900000002,"ADDRESS":"安北路１６巷１１號","OBJECTID":316093},"geometry":{"x":164718.8200000003,"y":2544516.9900000021}},{"attributes":{"ID":316102,"DIS_CODE":0,"TOWNNAME":"安平區","LI":"石門里","LIN":"4鄰","STREET":"安北路","SECT":" ","MAREA":" ","LANE":"１６巷","ALLEY":" ","HOUSE_NO":"１５號","E_COORD97":164722.67999999999,"N_COORD97":2544519.8199999998,"ADDRESS":"安北路１６巷１５號","OBJECTID":316094},"geometry":{"x":164722.6799999997,"y":2544519.8200000003}},{"attributes":{"ID":316103,"DIS_CODE":0,"TOWNNAME":"安平區","LI":"石門里","LIN":"4鄰","STREET":"安北路","SECT":" ","MAREA":" ","LANE":"１６巷","ALLEY":" ","HOUSE_NO":"１９號","E_COORD97":164729.19,"N_COORD97":2544533.3500000001,"ADDRESS":"安北路１６巷１９號","OBJECTID":316095},"geometry":{"x":164729.19000000134,"y":2544533.3500000034}},{"attributes":{"ID":316104,"DIS_CODE":0,"TOWNNAME":"安平區","LI":"石門里","LIN":"4鄰","STREET":"安北路","SECT":" ","MAREA":" ","LANE":"１６巷","ALLEY":" ","HOUSE_NO":"１號","E_COORD97":164700.76000000001,"N_COORD97":2544496.1200000001,"ADDRESS":"安北路１６巷１號","OBJECTID":316096},"geometry":{"x":164700.76000000071,"y":2544496.1200000029}},{"attributes":{"ID":316105,"DIS_CODE":0,"TOWNNAME":"安平區","LI":"石門里","LIN":"4鄰","STREET":"安北路","SECT":" ","MAREA":" ","LANE":"１６巷","ALLEY":" ","HOUSE_NO":"２１號","E_COORD97":164733.32000000001,"N_COORD97":2544537.21,"ADDRESS":"安北路１６巷２１號","OBJECTID":316097},"geometry":{"x":164733.32000000123,"y":2544537.2100000028}},{"attributes":{"ID":316106,"DIS_CODE":0,"TOWNNAME":"安平區","LI":"石門里","LIN":"4鄰","STREET":"安北路","SECT":" ","MAREA":" ","LANE":"１６巷","ALLEY":" ","HOUSE_NO":"２３號","E_COORD97":164734.35000000001,"N_COORD97":2544541.8500000001,"ADDRESS":"安北路１６巷２３號","OBJECTID":316098},"geometry":{"x":164734.35000000056,"y":2544541.8500000015}},{"attributes":{"ID":316107,"DIS_CODE":0,"TOWNNAME":"安平區","LI":"育平里","LIN":"28鄰","STREET":"健康三街","SECT":" ","MAREA":" ","LANE":" ","ALLEY":" ","HOUSE_NO":"１９５之１號","E_COORD97":164752.48000000001,"N_COORD97":2543302.2200000002,"ADDRESS":"健康三街１９５之１號","OBJECTID":316099},"geometry":{"x":164752.48000000138,"y":2543302.2200000025}},{"attributes":{"ID":316108,"DIS_CODE":0,"TOWNNAME":"安平區","LI":"育平里","LIN":"32鄰","STREET":"府平路","SECT":" ","MAREA":" ","LANE":" ","ALLEY":" ","HOUSE_NO":"３６０號","E_COORD97":164686.67000000001,"N_COORD97":2543102.0499999998,"ADDRESS":"府平路３６０號","OBJECTID":316100},"geometry":{"x":164686.67000000086,"y":2543102.0500000007}},{"attributes":{"ID":316109,"DIS_CODE":0,"TOWNNAME":"安平區","LI":"育平里","LIN":"32鄰","STREET":"府平路","SECT":" ","MAREA":" ","LANE":" ","ALLEY":" ","HOUSE_NO":"３６２號","E_COORD97":164681.53,"N_COORD97":2543103.1499999999,"ADDRESS":"府平路３６２號","OBJECTID":316101},"geometry":{"x":164681.53000000026,"y":2543103.1500000004}},{"attributes":{"ID":316110,"DIS_CODE":0,"TOWNNAME":"安平區","LI":"石門里","LIN":"12鄰","STREET":"中興街","SECT":" ","MAREA":" ","LANE":" ","ALLEY":" ","HOUSE_NO":"３號","E_COORD97":164322.14999999999,"N_COORD97":2544651.8199999998,"ADDRESS":"中興街３號","OBJECTID":316102},"geometry":{"x":164322.14999999944,"y":2544651.8200000003}},{"attributes":{"ID":316111,"DIS_CODE":0,"TOWNNAME":"安平區","LI":"育平里","LIN":"28鄰","STREET":"健康三街","SECT":" ","MAREA":" ","LANE":" ","ALLEY":" ","HOUSE_NO":"１９５號","E_COORD97":164751.64000000001,"N_COORD97":2543297.0099999998,"ADDRESS":"健康三街１９５號","OBJECTID":316103},"geometry":{"x":164751.63999999966,"y":2543297.0099999998}},{"attributes":{"ID":316112,"DIS_CODE":0,"TOWNNAME":"仁德區","LI":"仁德里","LIN":"4鄰","STREET":"仁中三街","SECT":" ","MAREA":" ","LANE":" ","ALLEY":" ","HOUSE_NO":"４８號","E_COORD97":173334.39000000001,"N_COORD97":2540429.25,"ADDRESS":"仁中三街４８號","OBJECTID":316104},"geometry":{"x":173334.38999999966,"y":2540429.2500000019}},{"attributes":{"ID":316113,"DIS_CODE":0,"TOWNNAME":"仁德區","LI":"仁德里","LIN":"4鄰","STREET":"仁中一街","SECT":" ","MAREA":" ","LANE":" ","ALLEY":" ","HOUSE_NO":"８１號","E_COORD97":173284.42999999999,"N_COORD97":2540596.9900000002,"ADDRESS":"仁中一街８１號","OBJECTID":316105},"geometry":{"x":173284.43000000063,"y":2540596.9900000039}},{"attributes":{"ID":316114,"DIS_CODE":0,"TOWNNAME":"仁德區","LI":"仁德里","LIN":"39鄰","STREET":"文宏二街","SECT":" ","MAREA":" ","LANE":" ","ALLEY":" ","HOUSE_NO":"５５號","E_COORD97":172449.79999999999,"N_COORD97":2541779.8300000001,"ADDRESS":"文宏二街５５號","OBJECTID":316106},"geometry":{"x":172449.80000000075,"y":2541779.8300000001}},{"attributes":{"ID":316115,"DIS_CODE":0,"TOWNNAME":"仁德區","LI":"仁德里","LIN":"39鄰","STREET":"文山路","SECT":" ","MAREA":" ","LANE":" ","ALLEY":" ","HOUSE_NO":"２５９號","E_COORD97":172631.60000000001,"N_COORD97":2541777.3300000001,"ADDRESS":"文山路２５９號","OBJECTID":316107},"geometry":{"x":172631.60000000149,"y":2541777.3300000001}},{"attributes":{"ID":316116,"DIS_CODE":0,"TOWNNAME":"仁德區","LI":"仁德里","LIN":"39鄰","STREET":"文宏二街","SECT":" ","MAREA":" ","LANE":" ","ALLEY":" ","HOUSE_NO":"７３號","E_COORD97":172460.39000000001,"N_COORD97":2541788.5800000001,"ADDRESS":"文宏二街７３號","OBJECTID":316108},"geometry":{"x":172460.3900000006,"y":2541788.5800000001}},{"attributes":{"ID":316117,"DIS_CODE":0,"TOWNNAME":"仁德區","LI":"仁德里","LIN":"39鄰","STREET":"文山路","SECT":" ","MAREA":" ","LANE":" ","ALLEY":" ","HOUSE_NO":"２５６號","E_COORD97":172624.01999999999,"N_COORD97":2541826.3199999998,"ADDRESS":"文山路２５６號","OBJECTID":316109},"geometry":{"x":172624.02000000048,"y":2541826.3200000022}},{"attributes":{"ID":316118,"DIS_CODE":0,"TOWNNAME":"仁德區","LI":"太子里","LIN":"13鄰","STREET":"長興二街","SECT":" ","MAREA":" ","LANE":" ","ALLEY":" ","HOUSE_NO":"１２號","E_COORD97":174429.35999999999,"N_COORD97":2543710,"ADDRESS":"長興二街１２號","OBJECTID":316110},"geometry":{"x":174429.36000000127,"y":2543710.0000000019}},{"attributes":{"ID":316119,"DIS_CODE":0,"TOWNNAME":"仁德區","LI":"仁義里","LIN":"36鄰","STREET":"勝利路","SECT":" ","MAREA":" ","LANE":" ","ALLEY":" ","HOUSE_NO":"９３號","E_COORD97":173701.10000000001,"N_COORD97":2539877.75,"ADDRESS":"勝利路９３號","OBJECTID":316111},"geometry":{"x":173701.09999999963,"y":2539877.7500000019}},{"attributes":{"ID":316120,"DIS_CODE":0,"TOWNNAME":"仁德區","LI":"仁德里","LIN":"38鄰","STREET":"中山路","SECT":" ","MAREA":" ","LANE":" ","ALLEY":" ","HOUSE_NO":"８２８號","E_COORD97":172411.95000000001,"N_COORD97":2541622.7400000002,"ADDRESS":"中山路８２８號","OBJECTID":316112},"geometry":{"x":172411.95000000112,"y":2541622.7400000039}},{"attributes":{"ID":316121,"DIS_CODE":0,"TOWNNAME":"仁德區","LI":"仁德里","LIN":"39鄰","STREET":"文山路","SECT":" ","MAREA":" ","LANE":" ","ALLEY":" ","HOUSE_NO":"２７３號","E_COORD97":172614.95999999999,"N_COORD97":2541753.3300000001,"ADDRESS":"文山路２７３號","OBJECTID":316113},"geometry":{"x":172614.96000000089,"y":2541753.3300000001}},{"attributes":{"ID":316122,"DIS_CODE":0,"TOWNNAME":"仁德區","LI":"仁義里","LIN":"4鄰","STREET":"仁義三街","SECT":" ","MAREA":" ","LANE":" ","ALLEY":" ","HOUSE_NO":"１９３號","E_COORD97":173845.17000000001,"N_COORD97":2541128.77,"ADDRESS":"仁義三街１９３號","OBJECTID":316114},"geometry":{"x":173845.17000000179,"y":2541128.7699999996}},{"attributes":{"ID":316123,"DIS_CODE":0,"TOWNNAME":"仁德區","LI":"仁義里","LIN":"4鄰","STREET":"仁義二街","SECT":" ","MAREA":" ","LANE":" ","ALLEY":" ","HOUSE_NO":"３６號","E_COORD97":173806.03,"N_COORD97":2541166.27,"ADDRESS":"仁義二街３６號","OBJECTID":316115},"geometry":{"x":173806.03000000119,"y":2541166.2699999996}},{"attributes":{"ID":316124,"DIS_CODE":0,"TOWNNAME":"麻豆區","LI":"大山里","LIN":"6鄰","STREET":" ","SECT":" ","MAREA":"大山\u25A0","LANE":" ","ALLEY":" ","HOUSE_NO":"５９號","E_COORD97":170139.03,"N_COORD97":2566212.3399999999,"ADDRESS":"大山\u25A0５９號","OBJECTID":316116},"geometry":{"x":170139.02999999933,"y":2566212.3400000017}},{"attributes":{"ID":316125,"DIS_CODE":0,"TOWNNAME":"安平區","LI":"平安里","LIN":"18鄰","STREET":"安北路","SECT":" ","MAREA":" ","LANE":"１６巷","ALLEY":" ","HOUSE_NO":"２號","E_COORD97":164711.97,"N_COORD97":2544482.3100000001,"ADDRESS":"安北路１６巷２號","OBJECTID":316117},"geometry":{"x":164711.96999999974,"y":2544482.3100000005}},{"attributes":{"ID":316126,"DIS_CODE":0,"TOWNNAME":"安平區","LI":"平安里","LIN":"18鄰","STREET":"安北路","SECT":" ","MAREA":" ","LANE":"１６巷","ALLEY":" ","HOUSE_NO":"８號","E_COORD97":164723.39999999999,"N_COORD97":2544494.6000000001,"ADDRESS":"安北路１６巷８號","OBJECTID":316118},"geometry":{"x":164723.40000000037,"y":2544494.6000000034}},{"attributes":{"ID":316127,"DIS_CODE":0,"TOWNNAME":"安平區","LI":"石門里","LIN":"7鄰","STREET":"安北路","SECT":" ","MAREA":" ","LANE":"４０巷","ALLEY":" ","HOUSE_NO":"１１號","E_COORD97":164603.66,"N_COORD97":2544623.8399999999,"ADDRESS":"安北路４０巷１１號","OBJECTID":316119},"geometry":{"x":164603.66000000108,"y":2544623.8399999999}},{"attributes":{"ID":316128,"DIS_CODE":0,"TOWNNAME":"安平區","LI":"石門里","LIN":"14鄰","STREET":"延平街","SECT":" ","MAREA":" ","LANE":"３０巷","ALLEY":" ","HOUSE_NO":"６號","E_COORD97":164305.56,"N_COORD97":2544605.3599999999,"ADDRESS":"延平街３０巷６號","OBJECTID":316120},"geometry":{"x":164305.56000000052,"y":2544605.3600000013}},{"attributes":{"ID":316129,"DIS_CODE":0,"TOWNNAME":"仁德區","LI":"上崙里","LIN":"7鄰","STREET":"德南路","SECT":" ","MAREA":" ","LANE":"３７３巷","ALLEY":" ","HOUSE_NO":"２８號","E_COORD97":173955.82999999999,"N_COORD97":2538333.27,"ADDRESS":"德南路３７３巷２８號","OBJECTID":316121},"geometry":{"x":173955.83000000007,"y":2538333.2700000014}},{"attributes":{"ID":316130,"DIS_CODE":0,"TOWNNAME":"仁德區","LI":"一甲里","LIN":"7鄰","STREET":"中正路","SECT":"三段","MAREA":" ","LANE":"１６２巷","ALLEY":" ","HOUSE_NO":"４１號","E_COORD97":173599.12,"N_COORD97":2541746.7799999998,"ADDRESS":"中正路三段１６２巷４１號","OBJECTID":316122},"geometry":{"x":173599.12000000011,"y":2541746.7800000031}},{"attributes":{"ID":316131,"DIS_CODE":0,"TOWNNAME":"北區","LI":"大豐里","LIN":"17鄰","STREET":"和緯路","SECT":"四段","MAREA":" ","LANE":" ","ALLEY":" ","HOUSE_NO":"１１３號","E_COORD97":167081.94,"N_COORD97":2545476.1200000001,"ADDRESS":"和緯路四段１１３號","OBJECTID":316123},"geometry":{"x":167081.94000000134,"y":2545476.1200000029}},{"attributes":{"ID":316132,"DIS_CODE":0,"TOWNNAME":"北區","LI":"大豐里","LIN":"17鄰","STREET":"和緯路","SECT":"四段","MAREA":" ","LANE":" ","ALLEY":" ","HOUSE_NO":"１１５號","E_COORD97":167077.85000000001,"N_COORD97":2545474.54,"ADDRESS":"和緯路四段１１５號","OBJECTID":316124},"geometry":{"x":167077.84999999963,"y":2545474.540000001}},{"attributes":{"ID":316133,"DIS_CODE":0,"TOWNNAME":"北區","LI":"和順里","LIN":"17鄰","STREET":"海安路","SECT":"三段","MAREA":" ","LANE":" ","ALLEY":" ","HOUSE_NO":"１２６號","E_COORD97":168022.67999999999,"N_COORD97":2544988.2599999998,"ADDRESS":"海安路三段１２６號","OBJECTID":316125},"geometry":{"x":168022.68000000063,"y":2544988.2599999979}},{"attributes":{"ID":316134,"DIS_CODE":0,"TOWNNAME":"北區","LI":"和順里","LIN":"17鄰","STREET":"海安路","SECT":"三段","MAREA":" ","LANE":" ","ALLEY":" ","HOUSE_NO":"１２８號","E_COORD97":168021.53,"N_COORD97":2544992.3199999998,"ADDRESS":"海安路三段１２８號","OBJECTID":316126},"geometry":{"x":168021.53000000026,"y":2544992.3200000022}},{"attributes":{"ID":316135,"DIS_CODE":0,"TOWNNAME":"麻豆區","LI":"港尾里","LIN":"6鄰","STREET":" ","SECT":" ","MAREA":"港子尾","LANE":" ","ALLEY":" ","HOUSE_NO":"１９號","E_COORD97":168545.47,"N_COORD97":2567187.4500000002,"ADDRESS":"港子尾１９號","OBJECTID":316127},"geometry":{"x":168545.4700000016,"y":2567187.4500000011}},{"attributes":{"ID":316136,"DIS_CODE":0,"TOWNNAME":"安平區","LI":"海頭里","LIN":"3鄰","STREET":"\u25A0忠街","SECT":" ","MAREA":" ","LANE":"５２巷","ALLEY":" ","HOUSE_NO":"２號","E_COORD97":164179.14999999999,"N_COORD97":2544667.8300000001,"ADDRESS":"\u25A0忠街５２巷２號","OBJECTID":316128},"geometry":{"x":164179.15000000037,"y":2544667.8300000019}},{"attributes":{"ID":316137,"DIS_CODE":0,"TOWNNAME":"安平區","LI":"海頭里","LIN":"3鄰","STREET":"\u25A0忠街","SECT":" ","MAREA":" ","LANE":"５２巷","ALLEY":" ","HOUSE_NO":"２號之１","E_COORD97":164190.28,"N_COORD97":2544663.6200000001,"ADDRESS":"\u25A0忠街５２巷２號之１","OBJECTID":316129},"geometry":{"x":164190.28000000026,"y":2544663.6200000029}},{"attributes":{"ID":316138,"DIS_CODE":0,"TOWNNAME":"安平區","LI":"海頭里","LIN":"2鄰","STREET":"\u25A0忠街","SECT":" ","MAREA":" ","LANE":"４４巷","ALLEY":" ","HOUSE_NO":"１號","E_COORD97":164232.07999999999,"N_COORD97":2544654.6600000001,"ADDRESS":"\u25A0忠街４４巷１號","OBJECTID":316130},"geometry":{"x":164232.08000000007,"y":2544654.660000002}},{"attributes":{"ID":316139,"DIS_CODE":0,"TOWNNAME":"安平區","LI":"海頭里","LIN":"2鄰","STREET":"\u25A0忠街","SECT":" ","MAREA":" ","LANE":"４４巷","ALLEY":" ","HOUSE_NO":"３號","E_COORD97":164238.42999999999,"N_COORD97":2544662.6099999999,"ADDRESS":"\u25A0忠街４４巷３號","OBJECTID":316131},"geometry":{"x":164238.43000000063,"y":2544662.6099999994}},{"attributes":{"ID":316140,"DIS_CODE":0,"TOWNNAME":"安平區","LI":"海頭里","LIN":"2鄰","STREET":"\u25A0忠街","SECT":" ","MAREA":" ","LANE":"４４巷","ALLEY":" ","HOUSE_NO":"５號","E_COORD97":164235.95000000001,"N_COORD97":2544675.52,"ADDRESS":"\u25A0忠街４４巷５號","OBJECTID":316132},"geometry":{"x":164235.95000000112,"y":2544675.5200000014}},{"attributes":{"ID":316141,"DIS_CODE":0,"TOWNNAME":"安平區","LI":"海頭里","LIN":"4鄰","STREET":"安北路","SECT":" ","MAREA":" ","LANE":"１２１巷","ALLEY":" ","HOUSE_NO":"１１號","E_COORD97":164222.23000000001,"N_COORD97":2544760.6499999999,"ADDRESS":"安北路１２１巷１１號","OBJECTID":316133},"geometry":{"x":164222.23000000138,"y":2544760.6500000022}},{"attributes":{"ID":316142,"DIS_CODE":0,"TOWNNAME":"安平區","LI":"海頭里","LIN":"4鄰","STREET":"安北路","SECT":" ","MAREA":" ","LANE":"１２１巷","ALLEY":" ","HOUSE_NO":"１３號","E_COORD97":164215.78,"N_COORD97":2544746.9399999999,"ADDRESS":"安北路１２１巷１３號","OBJECTID":316134},"geometry":{"x":164215.78000000026,"y":2544746.9400000013}},{"attributes":{"ID":316143,"DIS_CODE":0,"TOWNNAME":"新化區","LI":"清水里","LIN":"7鄰","STREET":"忠孝路","SECT":" ","MAREA":" ","LANE":"１６１巷","ALLEY":" ","HOUSE_NO":"３３號","E_COORD97":178637.37,"N_COORD97":2548527.2400000002,"ADDRESS":"忠孝路１６１巷３３號","OBJECTID":316135},"geometry":{"x":178637.37000000011,"y":2548527.2400000002}},{"attributes":{"ID":316144,"DIS_CODE":0,"TOWNNAME":"新化區","LI":"清水里","LIN":"7鄰","STREET":"忠孝路","SECT":" ","MAREA":" ","LANE":"１６１巷","ALLEY":" ","HOUSE_NO":"３７號之３","E_COORD97":178630.51999999999,"N_COORD97":2548518.2599999998,"ADDRESS":"忠孝路１６１巷３７號之３","OBJECTID":316136},"geometry":{"x":178630.51999999955,"y":2548518.2600000016}},{"attributes":{"ID":316145,"DIS_CODE":0,"TOWNNAME":"新化區","LI":"協興里","LIN":"7鄰","STREET":"太平街","SECT":" ","MAREA":" ","LANE":"１６９巷","ALLEY":" ","HOUSE_NO":"１號","E_COORD97":178240.01999999999,"N_COORD97":2548632.25,"ADDRESS":"太平街１６９巷１號","OBJECTID":316137},"geometry":{"x":178240.02000000048,"y":2548632.25}},{"attributes":{"ID":316146,"DIS_CODE":0,"TOWNNAME":"新化區","LI":"協興里","LIN":"7鄰","STREET":"太平街","SECT":" ","MAREA":" ","LANE":"１６９巷","ALLEY":" ","HOUSE_NO":"３號","E_COORD97":178241.42000000001,"N_COORD97":2548629.25,"ADDRESS":"太平街１６９巷３號","OBJECTID":316138},"geometry":{"x":178241.42000000086,"y":2548629.25}},{"attributes":{"ID":316147,"DIS_CODE":0,"TOWNNAME":"安南區","LI":"大安里","LIN":"7鄰","STREET":"大安街","SECT":" ","MAREA":" ","LANE":"１５２巷","ALLEY":" ","HOUSE_NO":"１０號","E_COORD97":167351.85999999999,"N_COORD97":2548157.2999999998,"ADDRESS":"大安街１５２巷１０號","OBJECTID":316139},"geometry":{"x":167351.8600000022,"y":2548157.3000000026}},{"attributes":{"ID":316148,"DIS_CODE":0,"TOWNNAME":"安南區","LI":"大安里","LIN":"7鄰","STREET":"大安街","SECT":" ","MAREA":" ","LANE":"１５２巷","ALLEY":" ","HOUSE_NO":"１１號","E_COORD97":167369.17000000001,"N_COORD97":2548170.4300000002,"ADDRESS":"大安街１５２巷１１號","OBJECTID":316140},"geometry":{"x":167369.16999999993,"y":2548170.4299999997}},{"attributes":{"ID":316149,"DIS_CODE":0,"TOWNNAME":"北區","LI":"和順里","LIN":"17鄰","STREET":"海安路","SECT":"三段","MAREA":" ","LANE":" ","ALLEY":" ","HOUSE_NO":"１３０號","E_COORD97":168021.53,"N_COORD97":2544996.8300000001,"ADDRESS":"海安路三段１３０號","OBJECTID":316141},"geometry":{"x":168021.53000000026,"y":2544996.8300000001}},{"attributes":{"ID":316150,"DIS_CODE":0,"TOWNNAME":"北區","LI":"和順里","LIN":"17鄰","STREET":"海安路","SECT":"三段","MAREA":" ","LANE":" ","ALLEY":" ","HOUSE_NO":"１３２號","E_COORD97":168020.91,"N_COORD97":2545000.9900000002,"ADDRESS":"海安路三段１３２號","OBJECTID":316142},"geometry":{"x":168020.91000000201,"y":2545000.9900000039}},{"attributes":{"ID":316151,"DIS_CODE":0,"TOWNNAME":"北區","LI":"和順里","LIN":"17鄰","STREET":"海安路","SECT":"三段","MAREA":" ","LANE":" ","ALLEY":" ","HOUSE_NO":"１４６號","E_COORD97":168020.07999999999,"N_COORD97":2545026.9199999999,"ADDRESS":"海安路三段１４６號","OBJECTID":316143},"geometry":{"x":168020.08000000101,"y":2545026.9199999999}},{"attributes":{"ID":316152,"DIS_CODE":0,"TOWNNAME":"北區","LI":"和順里","LIN":"17鄰","STREET":"海安路","SECT":"三段","MAREA":" ","LANE":" ","ALLEY":" ","HOUSE_NO":"１４８號","E_COORD97":168020.54000000001,"N_COORD97":2545031.3199999998,"ADDRESS":"海安路三段１４８號","OBJECTID":316144},"geometry":{"x":168020.54000000097,"y":2545031.3200000003}},{"attributes":{"ID":316153,"DIS_CODE":0,"TOWNNAME":"北區","LI":"和順里","LIN":"17鄰","STREET":"海安路","SECT":"三段","MAREA":" ","LANE":" ","ALLEY":" ","HOUSE_NO":"１５０號","E_COORD97":168020.07999999999,"N_COORD97":2545035.1600000001,"ADDRESS":"海安路三段１５０號","OBJECTID":316145},"geometry":{"x":168020.08000000101,"y":2545035.160000002}},{"attributes":{"ID":316154,"DIS_CODE":0,"TOWNNAME":"北區","LI":"和順里","LIN":"17鄰","STREET":"海安路","SECT":"三段","MAREA":" ","LANE":" ","ALLEY":" ","HOUSE_NO":"１５２號","E_COORD97":168019.85999999999,"N_COORD97":2545039.8999999999,"ADDRESS":"海安路三段１５２號","OBJECTID":316146},"geometry":{"x":168019.86000000127,"y":2545039.9000000022}},{"attributes":{"ID":316155,"DIS_CODE":0,"TOWNNAME":"安平區","LI":"海頭里","LIN":"2鄰","STREET":"\u25A0忠街","SECT":" ","MAREA":" ","LANE":" ","ALLEY":" ","HOUSE_NO":"３１號","E_COORD97":164219.35999999999,"N_COORD97":2544640.3700000001,"ADDRESS":"\u25A0忠街３１號","OBJECTID":316147},"geometry":{"x":164219.36000000127,"y":2544640.3700000029}},{"attributes":{"ID":316156,"DIS_CODE":0,"TOWNNAME":"安平區","LI":"西門里","LIN":"4鄰","STREET":"安平路","SECT":" ","MAREA":" ","LANE":"８５０巷","ALLEY":" ","HOUSE_NO":"６號","E_COORD97":163767.28,"N_COORD97":2544612.52,"ADDRESS":"安平路８５０巷６號","OBJECTID":316148},"geometry":{"x":163767.28000000119,"y":2544612.5199999996}},{"attributes":{"ID":316157,"DIS_CODE":0,"TOWNNAME":"安平區","LI":"西門里","LIN":"4鄰","STREET":"安平路","SECT":" ","MAREA":" ","LANE":"８５０巷","ALLEY":" ","HOUSE_NO":"６號之１","E_COORD97":163783.78,"N_COORD97":2544604.6899999999,"ADDRESS":"安平路８５０巷６號之１","OBJECTID":316149},"geometry":{"x":163783.78000000212,"y":2544604.6899999995}},{"attributes":{"ID":316158,"DIS_CODE":0,"TOWNNAME":"北區","LI":"大和里","LIN":"4鄰","STREET":"大興街","SECT":" ","MAREA":" ","LANE":"９６巷","ALLEY":" ","HOUSE_NO":"１００號","E_COORD97":167122.07999999999,"N_COORD97":2546036.4300000002,"ADDRESS":"大興街９６巷１００號","OBJECTID":316150},"geometry":{"x":167122.08000000007,"y":2546036.4300000016}},{"attributes":{"ID":316159,"DIS_CODE":0,"TOWNNAME":"北區","LI":"大和里","LIN":"4鄰","STREET":"大興街","SECT":" ","MAREA":" ","LANE":"９６巷","ALLEY":" ","HOUSE_NO":"１０２號","E_COORD97":167121.47,"N_COORD97":2546040.4300000002,"ADDRESS":"大興街９６巷１０２號","OBJECTID":316151},"geometry":{"x":167121.4700000016,"y":2546040.4299999997}},{"attributes":{"ID":316160,"DIS_CODE":0,"TOWNNAME":"北區","LI":"大和里","LIN":"4鄰","STREET":"大興街","SECT":" ","MAREA":" ","LANE":"９６巷","ALLEY":" ","HOUSE_NO":"１０４號","E_COORD97":167120.98000000001,"N_COORD97":2546045.02,"ADDRESS":"大興街９６巷１０４號","OBJECTID":316152},"geometry":{"x":167120.98000000138,"y":2546045.0200000014}},{"attributes":{"ID":316161,"DIS_CODE":0,"TOWNNAME":"北區","LI":"大和里","LIN":"4鄰","STREET":"大興街","SECT":" ","MAREA":" ","LANE":"９６巷","ALLEY":" ","HOUSE_NO":"１２號","E_COORD97":167137.94,"N_COORD97":2545827.5600000001,"ADDRESS":"大興街９６巷１２號","OBJECTID":316153},"geometry":{"x":167137.94000000134,"y":2545827.5600000005}},{"attributes":{"ID":316162,"DIS_CODE":0,"TOWNNAME":"北區","LI":"大和里","LIN":"4鄰","STREET":"大興街","SECT":" ","MAREA":" ","LANE":"９６巷","ALLEY":" ","HOUSE_NO":"１４號","E_COORD97":167137.41,"N_COORD97":2545832.4500000002,"ADDRESS":"大興街９６巷１４號","OBJECTID":316154},"geometry":{"x":167137.41000000015,"y":2545832.4500000011}},{"attributes":{"ID":316163,"DIS_CODE":0,"TOWNNAME":"北區","LI":"大和里","LIN":"4鄰","STREET":"大興街","SECT":" ","MAREA":" ","LANE":"９６巷","ALLEY":" ","HOUSE_NO":"１６號","E_COORD97":167136.79999999999,"N_COORD97":2545836.8700000001,"ADDRESS":"大興街９６巷１６號","OBJECTID":316155},"geometry":{"x":167136.80000000075,"y":2545836.8700000048}},{"attributes":{"ID":316164,"DIS_CODE":0,"TOWNNAME":"北區","LI":"大和里","LIN":"4鄰","STREET":"大興街","SECT":" ","MAREA":" ","LANE":"９６巷","ALLEY":" ","HOUSE_NO":"１８號","E_COORD97":167136.73999999999,"N_COORD97":2545841.1000000001,"ADDRESS":"大興街９６巷１８號","OBJECTID":316156},"geometry":{"x":167136.74000000022,"y":2545841.1000000015}},{"attributes":{"ID":316165,"DIS_CODE":0,"TOWNNAME":"北區","LI":"大和里","LIN":"4鄰","STREET":"大興街","SECT":" ","MAREA":" ","LANE":"９６巷","ALLEY":" ","HOUSE_NO":"２０號","E_COORD97":167136.87,"N_COORD97":2545845.8500000001,"ADDRESS":"大興街９６巷２０號","OBJECTID":316157},"geometry":{"x":167136.87000000104,"y":2545845.8500000015}},{"attributes":{"ID":316166,"DIS_CODE":0,"TOWNNAME":"北區","LI":"大和里","LIN":"4鄰","STREET":"大興街","SECT":" ","MAREA":" ","LANE":"９６巷","ALLEY":" ","HOUSE_NO":"２２號","E_COORD97":167136.39999999999,"N_COORD97":2545850.54,"ADDRESS":"大興街９６巷２２號","OBJECTID":316158},"geometry":{"x":167136.4000000013,"y":2545850.5400000028}},{"attributes":{"ID":316167,"DIS_CODE":0,"TOWNNAME":"北區","LI":"大和里","LIN":"4鄰","STREET":"大興街","SECT":" ","MAREA":" ","LANE":"９６巷","ALLEY":" ","HOUSE_NO":"２４號","E_COORD97":167135.39999999999,"N_COORD97":2545854.96,"ADDRESS":"大興街９６巷２４號","OBJECTID":316159},"geometry":{"x":167135.40000000037,"y":2545854.9600000009}},{"attributes":{"ID":316168,"DIS_CODE":0,"TOWNNAME":"北區","LI":"大和里","LIN":"4鄰","STREET":"大興街","SECT":" ","MAREA":" ","LANE":"９６巷","ALLEY":" ","HOUSE_NO":"１１號","E_COORD97":167114.56,"N_COORD97":2545816.8799999999,"ADDRESS":"大興街９６巷１１號","OBJECTID":316160},"geometry":{"x":167114.56000000052,"y":2545816.879999999}},{"attributes":{"ID":316169,"DIS_CODE":0,"TOWNNAME":"安平區","LI":"海頭里","LIN":"6鄰","STREET":"平生路","SECT":" ","MAREA":" ","LANE":" ","ALLEY":" ","HOUSE_NO":"７１號","E_COORD97":164333.98000000001,"N_COORD97":2544671.3700000001,"ADDRESS":"平生路７１號","OBJECTID":316161},"geometry":{"x":164333.98000000138,"y":2544671.3700000029}},{"attributes":{"ID":316170,"DIS_CODE":0,"TOWNNAME":"安平區","LI":"育平里","LIN":"34鄰","STREET":"建平七街","SECT":" ","MAREA":" ","LANE":" ","ALLEY":" ","HOUSE_NO":"８２５號","E_COORD97":164510.57000000001,"N_COORD97":2543464.7799999998,"ADDRESS":"建平七街８２５號","OBJECTID":316162},"geometry":{"x":164510.5700000003,"y":2543464.7799999993}},{"attributes":{"ID":316171,"DIS_CODE":0,"TOWNNAME":"安平區","LI":"育平里","LIN":"34鄰","STREET":"建平七街","SECT":" ","MAREA":" ","LANE":" ","ALLEY":" ","HOUSE_NO":"８２７號","E_COORD97":164502.38,"N_COORD97":2543465.4199999999,"ADDRESS":"建平七街８２７號","OBJECTID":316163},"geometry":{"x":164502.38000000082,"y":2543465.4200000037}},{"attributes":{"ID":316172,"DIS_CODE":0,"TOWNNAME":"安平區","LI":"育平里","LIN":"34鄰","STREET":"建平七街","SECT":" ","MAREA":" ","LANE":" ","ALLEY":" ","HOUSE_NO":"８３３號","E_COORD97":164493.85999999999,"N_COORD97":2543468.3300000001,"ADDRESS":"建平七街８３３號","OBJECTID":316164},"geometry":{"x":164493.86000000127,"y":2543468.3300000001}},{"attributes":{"ID":316173,"DIS_CODE":0,"TOWNNAME":"安平區","LI":"育平里","LIN":"34鄰","STREET":"建平七街","SECT":" ","MAREA":" ","LANE":" ","ALLEY":" ","HOUSE_NO":"８４３號","E_COORD97":164460.23000000001,"N_COORD97":2543469.6200000001,"ADDRESS":"建平七街８４３號","OBJECTID":316165},"geometry":{"x":164460.23000000045,"y":2543469.6200000029}},{"attributes":{"ID":316174,"DIS_CODE":0,"TOWNNAME":"安平區","LI":"育平里","LIN":"34鄰","STREET":"建平七街","SECT":" ","MAREA":" ","LANE":" ","ALLEY":" ","HOUSE_NO":"８４５號","E_COORD97":164456.14000000001,"N_COORD97":2543470.5899999999,"ADDRESS":"建平七街８４５號","OBJECTID":316166},"geometry":{"x":164456.1400000006,"y":2543470.589999998}},{"attributes":{"ID":316175,"DIS_CODE":0,"TOWNNAME":"北區","LI":"玉皇里","LIN":"14鄰","STREET":"佑民街","SECT":" ","MAREA":" ","LANE":" ","ALLEY":" ","HOUSE_NO":"３９號","E_COORD97":168588.44,"N_COORD97":2544400.7799999998,"ADDRESS":"佑民街３９號","OBJECTID":316167},"geometry":{"x":168588.44000000041,"y":2544400.7799999993}},{"attributes":{"ID":316176,"DIS_CODE":0,"TOWNNAME":"仁德區","LI":"仁義里","LIN":"26鄰","STREET":"中山路","SECT":" ","MAREA":" ","LANE":" ","ALLEY":" ","HOUSE_NO":"５６０號","E_COORD97":173350.04000000001,"N_COORD97":2541339.75,"ADDRESS":"中山路５６０號","OBJECTID":316168},"geometry":{"x":173350.04000000097,"y":2541339.75}},{"attributes":{"ID":316177,"DIS_CODE":0,"TOWNNAME":"仁德區","LI":"仁義里","LIN":"39鄰","STREET":"仁義五街","SECT":" ","MAREA":" ","LANE":" ","ALLEY":" ","HOUSE_NO":"２６號","E_COORD97":173548.17000000001,"N_COORD97":2540428.02,"ADDRESS":"仁義五街２６號","OBJECTID":316169},"geometry":{"x":173548.16999999993,"y":2540428.0200000014}},{"attributes":{"ID":316178,"DIS_CODE":0,"TOWNNAME":"仁德區","LI":"仁義里","LIN":"32鄰","STREET":"正義路","SECT":" ","MAREA":" ","LANE":" ","ALLEY":" ","HOUSE_NO":"６１號","E_COORD97":173505.32000000001,"N_COORD97":2541454.27,"ADDRESS":"正義路６１號","OBJECTID":316170},"geometry":{"x":173505.3200000003,"y":2541454.2699999996}},{"attributes":{"ID":316179,"DIS_CODE":0,"TOWNNAME":"仁德區","LI":"仁義里","LIN":"41鄰","STREET":"中正路","SECT":"二段","MAREA":" ","LANE":" ","ALLEY":" ","HOUSE_NO":"８７２號","E_COORD97":173459.16,"N_COORD97":2540527.5299999998,"ADDRESS":"中正路二段８７２號","OBJECTID":316171},"geometry":{"x":173459.16000000108,"y":2540527.5299999993}},{"attributes":{"ID":316180,"DIS_CODE":0,"TOWNNAME":"仁德區","LI":"仁義里","LIN":"4鄰","STREET":"仁義三街","SECT":" ","MAREA":" ","LANE":" ","ALLEY":" ","HOUSE_NO":"２００號","E_COORD97":173839.76999999999,"N_COORD97":2541112.5099999998,"ADDRESS":"仁義三街２００號","OBJECTID":316172},"geometry":{"x":173839.77000000048,"y":2541112.5100000016}},{"attributes":{"ID":316181,"DIS_CODE":0,"TOWNNAME":"仁德區","LI":"仁義里","LIN":"4鄰","STREET":"仁義三街","SECT":" ","MAREA":" ","LANE":" ","ALLEY":" ","HOUSE_NO":"１７２號","E_COORD97":173780.76999999999,"N_COORD97":2541114.0099999998,"ADDRESS":"仁義三街１７２號","OBJECTID":316173},"geometry":{"x":173780.76999999955,"y":2541114.0099999998}},{"attributes":{"ID":316182,"DIS_CODE":0,"TOWNNAME":"仁德區","LI":"仁義里","LIN":"38鄰","STREET":"仁義五街","SECT":" ","MAREA":" ","LANE":" ","ALLEY":" ","HOUSE_NO":"２０號","E_COORD97":173531.89999999999,"N_COORD97":2540428.02,"ADDRESS":"仁義五街２０號","OBJECTID":316174},"geometry":{"x":173531.90000000037,"y":2540428.0200000014}},{"attributes":{"ID":316183,"DIS_CODE":0,"TOWNNAME":"麻豆區","LI":"大山里","LIN":"6鄰","STREET":" ","SECT":" ","MAREA":"大山\u25A0","LANE":" ","ALLEY":" ","HOUSE_NO":"６１號","E_COORD97":170137.79000000001,"N_COORD97":2566172.21,"ADDRESS":"大山\u25A0６１號","OBJECTID":316175},"geometry":{"x":170137.79000000097,"y":2566172.2100000009}},{"attributes":{"ID":316184,"DIS_CODE":0,"TOWNNAME":"安南區","LI":"大安里","LIN":"7鄰","STREET":"大安街","SECT":" ","MAREA":" ","LANE":"１５２巷","ALLEY":" ","HOUSE_NO":"１２號","E_COORD97":167357.23000000001,"N_COORD97":2548152.7000000002,"ADDRESS":"大安街１５２巷１２號","OBJECTID":316176},"geometry":{"x":167357.23000000045,"y":2548152.7000000011}},{"attributes":{"ID":316185,"DIS_CODE":0,"TOWNNAME":"安南區","LI":"大安里","LIN":"7鄰","STREET":"大安街","SECT":" ","MAREA":" ","LANE":"１５２巷","ALLEY":" ","HOUSE_NO":"１３號","E_COORD97":167377.81,"N_COORD97":2548165.6299999999,"ADDRESS":"大安街１５２巷１３號","OBJECTID":316177},"geometry":{"x":167377.80999999959,"y":2548165.6300000008}},{"attributes":{"ID":316186,"DIS_CODE":0,"TOWNNAME":"安南區","LI":"大安里","LIN":"7鄰","STREET":"大安街","SECT":" ","MAREA":" ","LANE":"１５２巷","ALLEY":" ","HOUSE_NO":"１４號","E_COORD97":167362.98999999999,"N_COORD97":2548146.5600000001,"ADDRESS":"大安街１５２巷１４號","OBJECTID":316178},"geometry":{"x":167362.99000000115,"y":2548146.5600000005}},{"attributes":{"ID":316187,"DIS_CODE":0,"TOWNNAME":"安南區","LI":"大安里","LIN":"7鄰","STREET":"大安街","SECT":" ","MAREA":" ","LANE":"１５２巷","ALLEY":" ","HOUSE_NO":"１５號","E_COORD97":167383.37,"N_COORD97":2548162.3700000001,"ADDRESS":"大安街１５２巷１５號","OBJECTID":316179},"geometry":{"x":167383.37000000011,"y":2548162.3700000048}},{"attributes":{"ID":316188,"DIS_CODE":0,"TOWNNAME":"安南區","LI":"大安里","LIN":"7鄰","STREET":"大安街","SECT":" ","MAREA":" ","LANE":"１５２巷","ALLEY":" ","HOUSE_NO":"１６號","E_COORD97":167370.67000000001,"N_COORD97":2548144.6499999999,"ADDRESS":"大安街１５２巷１６號","OBJECTID":316180},"geometry":{"x":167370.66999999993,"y":2548144.6500000004}},{"attributes":{"ID":316189,"DIS_CODE":0,"TOWNNAME":"安南區","LI":"大安里","LIN":"7鄰","STREET":"大安街","SECT":" ","MAREA":" ","LANE":"１５２巷","ALLEY":" ","HOUSE_NO":"１７號","E_COORD97":167386.82000000001,"N_COORD97":2548159.5,"ADDRESS":"大安街１５２巷１７號","OBJECTID":316181},"geometry":{"x":167386.8200000003,"y":2548159.5}},{"attributes":{"ID":316190,"DIS_CODE":0,"TOWNNAME":"安南區","LI":"大安里","LIN":"7鄰","STREET":"大安街","SECT":" ","MAREA":" ","LANE":"１５２巷","ALLEY":" ","HOUSE_NO":"１８號","E_COORD97":167374.89000000001,"N_COORD97":2548141.3900000001,"ADDRESS":"大安街１５２巷１８號","OBJECTID":316182},"geometry":{"x":167374.8900000006,"y":2548141.3899999987}},{"attributes":{"ID":316191,"DIS_CODE":0,"TOWNNAME":"安南區","LI":"大安里","LIN":"7鄰","STREET":"大安街","SECT":" ","MAREA":" ","LANE":"１５２巷","ALLEY":" ","HOUSE_NO":"１９號","E_COORD97":167391.23999999999,"N_COORD97":2548156.4300000002,"ADDRESS":"大安街１５２巷１９號","OBJECTID":316183},"geometry":{"x":167391.24000000022,"y":2548156.4299999997}},{"attributes":{"ID":316192,"DIS_CODE":0,"TOWNNAME":"安南區","LI":"大安里","LIN":"7鄰","STREET":"大安街","SECT":" ","MAREA":" ","LANE":"１５２巷","ALLEY":" ","HOUSE_NO":"１號","E_COORD97":167346.51999999999,"N_COORD97":2548184.04,"ADDRESS":"大安街１５２巷１號","OBJECTID":316184},"geometry":{"x":167346.52000000142,"y":2548184.040000001}},{"attributes":{"ID":316193,"DIS_CODE":0,"TOWNNAME":"安南區","LI":"大安里","LIN":"7鄰","STREET":"大安街","SECT":" ","MAREA":" ","LANE":"１５２巷","ALLEY":" ","HOUSE_NO":"２０號","E_COORD97":167379.5,"N_COORD97":2548139.2799999998,"ADDRESS":"大安街１５２巷２０號","OBJECTID":316185},"geometry":{"x":167379.50000000093,"y":2548139.2799999993}},{"attributes":{"ID":316194,"DIS_CODE":0,"TOWNNAME":"安南區","LI":"大安里","LIN":"7鄰","STREET":"大安街","SECT":" ","MAREA":" ","LANE":"１５２巷","ALLEY":" ","HOUSE_NO":"２１號","E_COORD97":167395.45999999999,"N_COORD97":2548153.3599999999,"ADDRESS":"大安街１５２巷２１號","OBJECTID":316186},"geometry":{"x":167395.46000000089,"y":2548153.3599999994}},{"attributes":{"ID":316195,"DIS_CODE":0,"TOWNNAME":"安南區","LI":"大安里","LIN":"7鄰","STREET":"大安街","SECT":" ","MAREA":" ","LANE":"１５２巷","ALLEY":" ","HOUSE_NO":"２２號","E_COORD97":167383.72,"N_COORD97":2548136.21,"ADDRESS":"大安街１５２巷２２號","OBJECTID":316187},"geometry":{"x":167383.71999999974,"y":2548136.2100000046}},{"attributes":{"ID":316196,"DIS_CODE":0,"TOWNNAME":"安南區","LI":"大安里","LIN":"7鄰","STREET":"大安街","SECT":" ","MAREA":" ","LANE":"１５２巷","ALLEY":" ","HOUSE_NO":"２３號","E_COORD97":167399.87,"N_COORD97":2548151.0600000001,"ADDRESS":"大安街１５２巷２３號","OBJECTID":316188},"geometry":{"x":167399.87000000011,"y":2548151.0600000024}},{"attributes":{"ID":316197,"DIS_CODE":0,"TOWNNAME":"安南區","LI":"大安里","LIN":"7鄰","STREET":"大安街","SECT":" ","MAREA":" ","LANE":"１５２巷","ALLEY":" ","HOUSE_NO":"２４號","E_COORD97":167387.94,"N_COORD97":2548133.5299999998,"ADDRESS":"大安街１５２巷２４號","OBJECTID":316189},"geometry":{"x":167387.94000000041,"y":2548133.5300000012}},{"attributes":{"ID":316198,"DIS_CODE":0,"TOWNNAME":"安南區","LI":"大安里","LIN":"7鄰","STREET":"大安街","SECT":" ","MAREA":" ","LANE":"１５２巷","ALLEY":" ","HOUSE_NO":"２５號","E_COORD97":167404.48000000001,"N_COORD97":2548148.3799999999,"ADDRESS":"大安街１５２巷２５號","OBJECTID":316190},"geometry":{"x":167404.48000000045,"y":2548148.379999999}},{"attributes":{"ID":316199,"DIS_CODE":0,"TOWNNAME":"安南區","LI":"大安里","LIN":"7鄰","STREET":"大安街","SECT":" ","MAREA":" ","LANE":"１５２巷","ALLEY":" ","HOUSE_NO":"２６號","E_COORD97":167391.97,"N_COORD97":2548130.0699999998,"ADDRESS":"大安街１５２巷２６號","OBJECTID":316191},"geometry":{"x":167391.96999999974,"y":2548130.070000004}},{"attributes":{"ID":316200,"DIS_CODE":0,"TOWNNAME":"安南區","LI":"大安里","LIN":"7鄰","STREET":"大安街","SECT":" ","MAREA":" ","LANE":"１５２巷","ALLEY":" ","HOUSE_NO":"２７號","E_COORD97":167408.89000000001,"N_COORD97":2548145.6899999999,"ADDRESS":"大安街１５２巷２７號","OBJECTID":316192},"geometry":{"x":167408.8900000006,"y":2548145.6900000013}},{"attributes":{"ID":316201,"DIS_CODE":0,"TOWNNAME":"安南區","LI":"大安里","LIN":"7鄰","STREET":"大安街","SECT":" ","MAREA":" ","LANE":"１５２巷","ALLEY":" ","HOUSE_NO":"２８號","E_COORD97":167396.19,"N_COORD97":2548126.8199999998,"ADDRESS":"大安街１５２巷２８號","OBJECTID":316193},"geometry":{"x":167396.19000000134,"y":2548126.8200000003}},{"attributes":{"ID":316202,"DIS_CODE":0,"TOWNNAME":"南區","LI":"彰南里","LIN":"7鄰","STREET":"新建路","SECT":" ","MAREA":" ","LANE":"１６巷","ALLEY":" ","HOUSE_NO":"１號","E_COORD97":166441.45999999999,"N_COORD97":2541277.5899999999,"ADDRESS":"新建路１６巷１號","OBJECTID":316194},"geometry":{"x":166441.45999999996,"y":2541277.5900000017}},{"attributes":{"ID":316203,"DIS_CODE":0,"TOWNNAME":"南區","LI":"彰南里","LIN":"7鄰","STREET":"新建路","SECT":" ","MAREA":" ","LANE":"１６巷","ALLEY":" ","HOUSE_NO":"２號","E_COORD97":166424.10000000001,"N_COORD97":2541303.0099999998,"ADDRESS":"新建路１６巷２號","OBJECTID":316195},"geometry":{"x":166424.10000000056,"y":2541303.0100000016}},{"attributes":{"ID":316204,"DIS_CODE":0,"TOWNNAME":"南區","LI":"彰南里","LIN":"7鄰","STREET":"新建路","SECT":" ","MAREA":" ","LANE":"１６巷","ALLEY":" ","HOUSE_NO":"３號","E_COORD97":166432.79000000001,"N_COORD97":2541277.8700000001,"ADDRESS":"新建路１６巷３號","OBJECTID":316196},"geometry":{"x":166432.79000000004,"y":2541277.8700000029}},{"attributes":{"ID":316205,"DIS_CODE":0,"TOWNNAME":"南區","LI":"彰南里","LIN":"7鄰","STREET":"新建路","SECT":" ","MAREA":" ","LANE":"１６巷","ALLEY":" ","HOUSE_NO":"４號","E_COORD97":166416.38,"N_COORD97":2541303.27,"ADDRESS":"新建路１６巷４號","OBJECTID":316197},"geometry":{"x":166416.37999999989,"y":2541303.2700000014}},{"attributes":{"ID":316206,"DIS_CODE":0,"TOWNNAME":"南區","LI":"彰南里","LIN":"7鄰","STREET":"新建路","SECT":" ","MAREA":" ","LANE":"１６巷","ALLEY":" ","HOUSE_NO":"５號","E_COORD97":166423.04000000001,"N_COORD97":2541277.3799999999,"ADDRESS":"新建路１６巷５號","OBJECTID":316198},"geometry":{"x":166423.0400000019,"y":2541277.379999999}},{"attributes":{"ID":316207,"DIS_CODE":0,"TOWNNAME":"南區","LI":"彰南里","LIN":"7鄰","STREET":"新建路","SECT":" ","MAREA":" ","LANE":"１６巷","ALLEY":" ","HOUSE_NO":"６號","E_COORD97":166407.51000000001,"N_COORD97":2541303.27,"ADDRESS":"新建路１６巷６號","OBJECTID":316199},"geometry":{"x":166407.50999999885,"y":2541303.2700000014}},{"attributes":{"ID":316208,"DIS_CODE":0,"TOWNNAME":"南區","LI":"彰南里","LIN":"7鄰","STREET":"新建路","SECT":" ","MAREA":" ","LANE":"１６巷","ALLEY":" ","HOUSE_NO":"７號","E_COORD97":166416.47,"N_COORD97":2541276.9300000002,"ADDRESS":"新建路１６巷７號","OBJECTID":316200},"geometry":{"x":166416.47000000067,"y":2541276.9299999997}}]}