{"displayFieldName":"TOWNNAME","fieldAliases":{"ID":"ID","DIS_CODE":"DIS_CODE","TOWNNAME":"TOWNNAME","LI":"LI","LIN":"LIN","STREET":"STREET","SECT":"SECT","MAREA":"MAREA","LANE":"LANE","ALLEY":"ALLEY","HOUSE_NO":"HOUSE_NO","E_COORD97":"E_COORD97","N_COORD97":"N_COORD97","ADDRESS":"ADDRESS","OBJECTID":"OBJECTID"},"geometryType":"esriGeometryPoint","spatialReference":{"wkid":102443,"latestWkid":3826},"fields":[{"name":"ID","type":"esriFieldTypeDouble","alias":"ID"},{"name":"DIS_CODE","type":"esriFieldTypeInteger","alias":"DIS_CODE"},{"name":"TOWNNAME","type":"esriFieldTypeString","alias":"TOWNNAME","length":8},{"name":"LI","type":"esriFieldTypeString","alias":"LI","length":8},{"name":"LIN","type":"esriFieldTypeString","alias":"LIN","length":12},{"name":"STREET","type":"esriFieldTypeString","alias":"STREET","length":20},{"name":"SECT","type":"esriFieldTypeString","alias":"SECT","length":8},{"name":"MAREA","type":"esriFieldTypeString","alias":"MAREA","length":12},{"name":"LANE","type":"esriFieldTypeString","alias":"LANE","length":10},{"name":"ALLEY","type":"esriFieldTypeString","alias":"ALLEY","length":10},{"name":"HOUSE_NO","type":"esriFieldTypeString","alias":"HOUSE_NO","length":20},{"name":"E_COORD97","type":"esriFieldTypeDouble","alias":"E_COORD97"},{"name":"N_COORD97","type":"esriFieldTypeDouble","alias":"N_COORD97"},{"name":"ADDRESS","type":"esriFieldTypeString","alias":"ADDRESS","length":50},{"name":"OBJECTID","type":"esriFieldTypeOID","alias":"OBJECTID"}],"features":[{"attributes":{"ID":550828,"DIS_CODE":0,"TOWNNAME":"安平區","LI":"海頭里","LIN":"10鄰","STREET":"中興街","SECT":" ","MAREA":" ","LANE":" ","ALLEY":" ","HOUSE_NO":"４３號","E_COORD97":164100.45999999999,"N_COORD97":2544744,"ADDRESS":"中興街４３號","OBJECTID":550801},"geometry":{"x":164100.45999999996,"y":2544744.0000000019}},{"attributes":{"ID":550829,"DIS_CODE":0,"TOWNNAME":"北區","LI":"國興里","LIN":"10鄰","STREET":"開元路","SECT":" ","MAREA":" ","LANE":" ","ALLEY":" ","HOUSE_NO":"４３８號","E_COORD97":170661.19,"N_COORD97":2545712.2799999998,"ADDRESS":"開元路４３８號","OBJECTID":550802},"geometry":{"x":170661.19000000041,"y":2545712.2799999993}},{"attributes":{"ID":550830,"DIS_CODE":0,"TOWNNAME":"北區","LI":"國興里","LIN":"10鄰","STREET":"開元路","SECT":" ","MAREA":" ","LANE":" ","ALLEY":" ","HOUSE_NO":"４１２之１號","E_COORD97":170608.91,"N_COORD97":2545654.2999999998,"ADDRESS":"開元路４１２之１號","OBJECTID":550803},"geometry":{"x":170608.91000000015,"y":2545654.3000000026}},{"attributes":{"ID":550831,"DIS_CODE":0,"TOWNNAME":"北區","LI":"國興里","LIN":"10鄰","STREET":"開元路","SECT":" ","MAREA":" ","LANE":" ","ALLEY":" ","HOUSE_NO":"４１２之２號","E_COORD97":170601.76999999999,"N_COORD97":2545655.73,"ADDRESS":"開元路４１２之２號","OBJECTID":550804},"geometry":{"x":170601.77000000048,"y":2545655.7300000004}},{"attributes":{"ID":550832,"DIS_CODE":0,"TOWNNAME":"北區","LI":"國興里","LIN":"10鄰","STREET":"開元路","SECT":" ","MAREA":" ","LANE":" ","ALLEY":" ","HOUSE_NO":"４０８號","E_COORD97":170598.75,"N_COORD97":2545651.9199999999,"ADDRESS":"開元路４０８號","OBJECTID":550805},"geometry":{"x":170598.75000000093,"y":2545651.9199999981}},{"attributes":{"ID":550833,"DIS_CODE":0,"TOWNNAME":"北區","LI":"國興里","LIN":"10鄰","STREET":"開元路","SECT":" ","MAREA":" ","LANE":" ","ALLEY":" ","HOUSE_NO":"４０６之１號","E_COORD97":170595.26000000001,"N_COORD97":2545649.2200000002,"ADDRESS":"開元路４０６之１號","OBJECTID":550806},"geometry":{"x":170595.26000000071,"y":2545649.2200000007}},{"attributes":{"ID":550834,"DIS_CODE":0,"TOWNNAME":"北區","LI":"長榮里","LIN":"10鄰","STREET":"長榮路","SECT":"五段","MAREA":" ","LANE":" ","ALLEY":" ","HOUSE_NO":"３１號","E_COORD97":170097,"N_COORD97":2545442.0899999999,"ADDRESS":"長榮路五段３１號","OBJECTID":550807},"geometry":{"x":170097.00000000093,"y":2545442.0900000017}},{"attributes":{"ID":550835,"DIS_CODE":0,"TOWNNAME":"北區","LI":"長榮里","LIN":"10鄰","STREET":"長榮路","SECT":"五段","MAREA":" ","LANE":" ","ALLEY":" ","HOUSE_NO":"３３號","E_COORD97":170096.84,"N_COORD97":2545447.8100000001,"ADDRESS":"長榮路五段３３號","OBJECTID":550808},"geometry":{"x":170096.83999999985,"y":2545447.8100000024}},{"attributes":{"ID":550836,"DIS_CODE":0,"TOWNNAME":"北區","LI":"長榮里","LIN":"10鄰","STREET":"長榮路","SECT":"五段","MAREA":" ","LANE":" ","ALLEY":" ","HOUSE_NO":"３５號","E_COORD97":170095.41,"N_COORD97":2545453.2000000002,"ADDRESS":"長榮路五段３５號","OBJECTID":550809},"geometry":{"x":170095.41000000015,"y":2545453.2000000011}},{"attributes":{"ID":550837,"DIS_CODE":0,"TOWNNAME":"北區","LI":"長榮里","LIN":"10鄰","STREET":"長榮路","SECT":"五段","MAREA":" ","LANE":" ","ALLEY":" ","HOUSE_NO":"３７號","E_COORD97":170094.78,"N_COORD97":2545458.4399999999,"ADDRESS":"長榮路五段３７號","OBJECTID":550810},"geometry":{"x":170094.78000000026,"y":2545458.4400000032}},{"attributes":{"ID":550838,"DIS_CODE":0,"TOWNNAME":"北區","LI":"長榮里","LIN":"10鄰","STREET":"長榮路","SECT":"五段","MAREA":" ","LANE":" ","ALLEY":" ","HOUSE_NO":"３９號","E_COORD97":170094.29999999999,"N_COORD97":2545463.6800000002,"ADDRESS":"長榮路五段３９號","OBJECTID":550811},"geometry":{"x":170094.29999999888,"y":2545463.6800000034}},{"attributes":{"ID":550839,"DIS_CODE":0,"TOWNNAME":"南區","LI":"金華里","LIN":"10鄰","STREET":"尊南街","SECT":" ","MAREA":" ","LANE":" ","ALLEY":" ","HOUSE_NO":"２２２號","E_COORD97":166857.54999999999,"N_COORD97":2542228.1200000001,"ADDRESS":"尊南街２２２號","OBJECTID":550812},"geometry":{"x":166857.54999999981,"y":2542228.1200000029}},{"attributes":{"ID":550840,"DIS_CODE":0,"TOWNNAME":"南區","LI":"金華里","LIN":"10鄰","STREET":"尊南街","SECT":" ","MAREA":" ","LANE":" ","ALLEY":" ","HOUSE_NO":"２２２號之１","E_COORD97":166858.42999999999,"N_COORD97":2542233.5600000001,"ADDRESS":"尊南街２２２號之１","OBJECTID":550813},"geometry":{"x":166858.4299999997,"y":2542233.5600000005}},{"attributes":{"ID":550841,"DIS_CODE":0,"TOWNNAME":"南區","LI":"金華里","LIN":"10鄰","STREET":"尊南街","SECT":" ","MAREA":" ","LANE":" ","ALLEY":" ","HOUSE_NO":"２２４號","E_COORD97":166857.38,"N_COORD97":2542237.6000000001,"ADDRESS":"尊南街２２４號","OBJECTID":550814},"geometry":{"x":166857.37999999989,"y":2542237.6000000015}},{"attributes":{"ID":550842,"DIS_CODE":0,"TOWNNAME":"南區","LI":"金華里","LIN":"10鄰","STREET":"尊南街","SECT":" ","MAREA":" ","LANE":" ","ALLEY":" ","HOUSE_NO":"２２６號","E_COORD97":166857.20000000001,"N_COORD97":2542241.46,"ADDRESS":"尊南街２２６號","OBJECTID":550815},"geometry":{"x":166857.20000000019,"y":2542241.4600000009}},{"attributes":{"ID":550843,"DIS_CODE":0,"TOWNNAME":"南區","LI":"金華里","LIN":"10鄰","STREET":"尊南街","SECT":" ","MAREA":" ","LANE":" ","ALLEY":" ","HOUSE_NO":"２２８號","E_COORD97":166858.26000000001,"N_COORD97":2542247.96,"ADDRESS":"尊南街２２８號","OBJECTID":550816},"geometry":{"x":166858.25999999978,"y":2542247.9600000009}},{"attributes":{"ID":550844,"DIS_CODE":0,"TOWNNAME":"南區","LI":"金華里","LIN":"10鄰","STREET":"尊南街","SECT":" ","MAREA":" ","LANE":" ","ALLEY":" ","HOUSE_NO":"２３２號","E_COORD97":166859.48999999999,"N_COORD97":2542271.9399999999,"ADDRESS":"尊南街２３２號","OBJECTID":550817},"geometry":{"x":166859.49000000115,"y":2542271.9400000013}},{"attributes":{"ID":550845,"DIS_CODE":0,"TOWNNAME":"南區","LI":"金華里","LIN":"10鄰","STREET":"尊南街","SECT":" ","MAREA":" ","LANE":" ","ALLEY":" ","HOUSE_NO":"２３４號","E_COORD97":166861.42000000001,"N_COORD97":2542277.3799999999,"ADDRESS":"尊南街２３４號","OBJECTID":550818},"geometry":{"x":166861.42000000086,"y":2542277.379999999}},{"attributes":{"ID":550846,"DIS_CODE":0,"TOWNNAME":"南區","LI":"金華里","LIN":"10鄰","STREET":"尊南街","SECT":" ","MAREA":" ","LANE":" ","ALLEY":" ","HOUSE_NO":"２３６號","E_COORD97":166858.48999999999,"N_COORD97":2542284.4900000002,"ADDRESS":"尊南街２３６號","OBJECTID":550819},"geometry":{"x":166858.49000000022,"y":2542284.4900000002}},{"attributes":{"ID":550847,"DIS_CODE":0,"TOWNNAME":"南區","LI":"金華里","LIN":"10鄰","STREET":"尊南街","SECT":" ","MAREA":" ","LANE":" ","ALLEY":" ","HOUSE_NO":"２３８號","E_COORD97":166858.22,"N_COORD97":2542288.96,"ADDRESS":"尊南街２３８號","OBJECTID":550820},"geometry":{"x":166858.21999999974,"y":2542288.9600000009}},{"attributes":{"ID":550848,"DIS_CODE":0,"TOWNNAME":"南區","LI":"金華里","LIN":"10鄰","STREET":"尊南街","SECT":" ","MAREA":" ","LANE":" ","ALLEY":" ","HOUSE_NO":"２４０號","E_COORD97":166858.48999999999,"N_COORD97":2542291.8500000001,"ADDRESS":"尊南街２４０號","OBJECTID":550821},"geometry":{"x":166858.49000000022,"y":2542291.8499999996}},{"attributes":{"ID":550849,"DIS_CODE":0,"TOWNNAME":"東山區","LI":"東山里","LIN":"10鄰","STREET":"中興路","SECT":" ","MAREA":" ","LANE":" ","ALLEY":" ","HOUSE_NO":"１４５號","E_COORD97":188953.94,"N_COORD97":2580409.46,"ADDRESS":"中興路１４５號","OBJECTID":550822},"geometry":{"x":188953.94000000041,"y":2580409.4600000009}},{"attributes":{"ID":550850,"DIS_CODE":0,"TOWNNAME":"東山區","LI":"東山里","LIN":"10鄰","STREET":"中興路","SECT":" ","MAREA":" ","LANE":" ","ALLEY":" ","HOUSE_NO":"１４７號","E_COORD97":188954.07999999999,"N_COORD97":2580413.71,"ADDRESS":"中興路１４７號","OBJECTID":550823},"geometry":{"x":188954.08000000101,"y":2580413.7100000028}},{"attributes":{"ID":550851,"DIS_CODE":0,"TOWNNAME":"東山區","LI":"東山里","LIN":"10鄰","STREET":"中興路","SECT":" ","MAREA":" ","LANE":" ","ALLEY":" ","HOUSE_NO":"１４９號","E_COORD97":188954.44,"N_COORD97":2580417.6499999999,"ADDRESS":"中興路１４９號","OBJECTID":550824},"geometry":{"x":188954.44000000041,"y":2580417.6500000004}},{"attributes":{"ID":550852,"DIS_CODE":0,"TOWNNAME":"東山區","LI":"東山里","LIN":"10鄰","STREET":"中興路","SECT":" ","MAREA":" ","LANE":" ","ALLEY":" ","HOUSE_NO":"１５１號","E_COORD97":188955.06,"N_COORD97":2580421.6699999999,"ADDRESS":"中興路１５１號","OBJECTID":550825},"geometry":{"x":188955.06000000052,"y":2580421.6699999999}},{"attributes":{"ID":550853,"DIS_CODE":0,"TOWNNAME":"東山區","LI":"東山里","LIN":"10鄰","STREET":"中興路","SECT":" ","MAREA":" ","LANE":" ","ALLEY":" ","HOUSE_NO":"１５３號","E_COORD97":188955.19,"N_COORD97":2580426.1000000001,"ADDRESS":"中興路１５３號","OBJECTID":550826},"geometry":{"x":188955.19000000134,"y":2580426.1000000015}},{"attributes":{"ID":550854,"DIS_CODE":0,"TOWNNAME":"東山區","LI":"東山里","LIN":"10鄰","STREET":"中興路","SECT":" ","MAREA":" ","LANE":" ","ALLEY":" ","HOUSE_NO":"１５５號","E_COORD97":188955.48000000001,"N_COORD97":2580430.21,"ADDRESS":"中興路１５５號","OBJECTID":550827},"geometry":{"x":188955.48000000045,"y":2580430.2100000028}},{"attributes":{"ID":550855,"DIS_CODE":0,"TOWNNAME":"東山區","LI":"東山里","LIN":"10鄰","STREET":"中興路","SECT":" ","MAREA":" ","LANE":" ","ALLEY":" ","HOUSE_NO":"１５７號","E_COORD97":188955.73000000001,"N_COORD97":2580434.6499999999,"ADDRESS":"中興路１５７號","OBJECTID":550828},"geometry":{"x":188955.73000000045,"y":2580434.6500000004}},{"attributes":{"ID":550856,"DIS_CODE":0,"TOWNNAME":"東山區","LI":"東山里","LIN":"10鄰","STREET":"中興路","SECT":" ","MAREA":" ","LANE":" ","ALLEY":" ","HOUSE_NO":"１５９號","E_COORD97":188955.76999999999,"N_COORD97":2580438.8999999999,"ADDRESS":"中興路１５９號","OBJECTID":550829},"geometry":{"x":188955.77000000048,"y":2580438.9000000022}},{"attributes":{"ID":550857,"DIS_CODE":0,"TOWNNAME":"東山區","LI":"東山里","LIN":"10鄰","STREET":"中興路","SECT":" ","MAREA":" ","LANE":" ","ALLEY":" ","HOUSE_NO":"１６１號","E_COORD97":188955.95999999999,"N_COORD97":2580443.2799999998,"ADDRESS":"中興路１６１號","OBJECTID":550830},"geometry":{"x":188955.96000000183,"y":2580443.2799999993}},{"attributes":{"ID":550858,"DIS_CODE":0,"TOWNNAME":"東山區","LI":"東山里","LIN":"10鄰","STREET":"中興路","SECT":" ","MAREA":" ","LANE":" ","ALLEY":" ","HOUSE_NO":"１６３號","E_COORD97":188956.13,"N_COORD97":2580447.6200000001,"ADDRESS":"中興路１６３號","OBJECTID":550831},"geometry":{"x":188956.12999999989,"y":2580447.6200000048}},{"attributes":{"ID":550859,"DIS_CODE":0,"TOWNNAME":"東山區","LI":"東山里","LIN":"10鄰","STREET":"中興路","SECT":" ","MAREA":" ","LANE":" ","ALLEY":" ","HOUSE_NO":"１６５號","E_COORD97":188956.10000000001,"N_COORD97":2580451.5,"ADDRESS":"中興路１６５號","OBJECTID":550832},"geometry":{"x":188956.09999999963,"y":2580451.5000000019}},{"attributes":{"ID":550860,"DIS_CODE":0,"TOWNNAME":"東山區","LI":"東山里","LIN":"10鄰","STREET":"中興路","SECT":" ","MAREA":" ","LANE":" ","ALLEY":" ","HOUSE_NO":"１６９號","E_COORD97":188956.44,"N_COORD97":2580459.75,"ADDRESS":"中興路１６９號","OBJECTID":550833},"geometry":{"x":188956.44000000227,"y":2580459.7500000019}},{"attributes":{"ID":550861,"DIS_CODE":0,"TOWNNAME":"新營區","LI":"嘉芳里","LIN":"10鄰","STREET":"復興路","SECT":" ","MAREA":" ","LANE":" ","ALLEY":" ","HOUSE_NO":"８４７號","E_COORD97":177017.73999999999,"N_COORD97":2578624.7799999998,"ADDRESS":"復興路８４７號","OBJECTID":550834},"geometry":{"x":177017.74000000022,"y":2578624.7800000012}},{"attributes":{"ID":550862,"DIS_CODE":0,"TOWNNAME":"新營區","LI":"民生里","LIN":"10鄰","STREET":"中華路","SECT":" ","MAREA":" ","LANE":" ","ALLEY":" ","HOUSE_NO":"９５號","E_COORD97":179238.76999999999,"N_COORD97":2578137.7799999998,"ADDRESS":"中華路９５號","OBJECTID":550835},"geometry":{"x":179238.77000000048,"y":2578137.7799999993}},{"attributes":{"ID":550863,"DIS_CODE":0,"TOWNNAME":"新營區","LI":"民生里","LIN":"10鄰","STREET":"復興路","SECT":" ","MAREA":" ","LANE":" ","ALLEY":" ","HOUSE_NO":"１５６號","E_COORD97":179186.31,"N_COORD97":2578022.8700000001,"ADDRESS":"復興路１５６號","OBJECTID":550836},"geometry":{"x":179186.30999999959,"y":2578022.8700000029}},{"attributes":{"ID":550864,"DIS_CODE":0,"TOWNNAME":"新營區","LI":"興安里","LIN":"10鄰","STREET":"新進路","SECT":" ","MAREA":" ","LANE":" ","ALLEY":" ","HOUSE_NO":"３１３號","E_COORD97":179923.81,"N_COORD97":2577784.5699999998,"ADDRESS":"新進路３１３號","OBJECTID":550837},"geometry":{"x":179923.80999999959,"y":2577784.5700000003}},{"attributes":{"ID":550865,"DIS_CODE":0,"TOWNNAME":"新營區","LI":"興安里","LIN":"10鄰","STREET":"新進路","SECT":" ","MAREA":" ","LANE":" ","ALLEY":" ","HOUSE_NO":"２９５號","E_COORD97":179951.29999999999,"N_COORD97":2577764.5099999998,"ADDRESS":"新進路２９５號","OBJECTID":550838},"geometry":{"x":179951.29999999981,"y":2577764.5099999998}},{"attributes":{"ID":550866,"DIS_CODE":0,"TOWNNAME":"新營區","LI":"大宏里","LIN":"10鄰","STREET":"民治路","SECT":" ","MAREA":" ","LANE":" ","ALLEY":" ","HOUSE_NO":"３５號","E_COORD97":180145.51999999999,"N_COORD97":2578862.1800000002,"ADDRESS":"民治路３５號","OBJECTID":550839},"geometry":{"x":180145.52000000048,"y":2578862.1800000034}},{"attributes":{"ID":550867,"DIS_CODE":0,"TOWNNAME":"新營區","LI":"嘉芳里","LIN":"10鄰","STREET":"復興路","SECT":" ","MAREA":" ","LANE":" ","ALLEY":" ","HOUSE_NO":"８６１號","E_COORD97":176957.42999999999,"N_COORD97":2578632.8199999998,"ADDRESS":"復興路８６１號","OBJECTID":550840},"geometry":{"x":176957.43000000063,"y":2578632.8200000022}},{"attributes":{"ID":550868,"DIS_CODE":0,"TOWNNAME":"新營區","LI":"中營里","LIN":"10鄰","STREET":"工業街","SECT":" ","MAREA":" ","LANE":" ","ALLEY":" ","HOUSE_NO":"２５號","E_COORD97":180861.25,"N_COORD97":2578374.8599999999,"ADDRESS":"工業街２５號","OBJECTID":550841},"geometry":{"x":180861.25000000093,"y":2578374.8599999994}},{"attributes":{"ID":550869,"DIS_CODE":0,"TOWNNAME":"新營區","LI":"興安里","LIN":"10鄰","STREET":"新進路","SECT":" ","MAREA":" ","LANE":" ","ALLEY":" ","HOUSE_NO":"３０３號","E_COORD97":179942.09,"N_COORD97":2577759.02,"ADDRESS":"新進路３０３號","OBJECTID":550842},"geometry":{"x":179942.09000000078,"y":2577759.0200000014}},{"attributes":{"ID":550870,"DIS_CODE":0,"TOWNNAME":"新營區","LI":"新東里","LIN":"10鄰","STREET":"東勇街","SECT":" ","MAREA":" ","LANE":" ","ALLEY":" ","HOUSE_NO":"１１０號","E_COORD97":181480.25,"N_COORD97":2579703.1499999999,"ADDRESS":"東勇街１１０號","OBJECTID":550843},"geometry":{"x":181480.25000000093,"y":2579703.1500000004}},{"attributes":{"ID":550871,"DIS_CODE":0,"TOWNNAME":"新營區","LI":"新東里","LIN":"10鄰","STREET":"東勇街","SECT":" ","MAREA":" ","LANE":" ","ALLEY":" ","HOUSE_NO":"１０８號","E_COORD97":181477.17000000001,"N_COORD97":2579698.73,"ADDRESS":"東勇街１０８號","OBJECTID":550844},"geometry":{"x":181477.17000000086,"y":2579698.7300000004}},{"attributes":{"ID":550872,"DIS_CODE":0,"TOWNNAME":"新營區","LI":"新東里","LIN":"10鄰","STREET":"東林街","SECT":" ","MAREA":" ","LANE":" ","ALLEY":" ","HOUSE_NO":"３號","E_COORD97":181326.85000000001,"N_COORD97":2579784.7000000002,"ADDRESS":"東林街３號","OBJECTID":550845},"geometry":{"x":181326.85000000056,"y":2579784.7000000011}},{"attributes":{"ID":550873,"DIS_CODE":0,"TOWNNAME":"新營區","LI":"新東里","LIN":"10鄰","STREET":"東林街","SECT":" ","MAREA":" ","LANE":" ","ALLEY":" ","HOUSE_NO":"７號","E_COORD97":181335.98000000001,"N_COORD97":2579782.4399999999,"ADDRESS":"東林街７號","OBJECTID":550846},"geometry":{"x":181335.98000000045,"y":2579782.4400000032}},{"attributes":{"ID":550874,"DIS_CODE":0,"TOWNNAME":"新營區","LI":"興安里","LIN":"10鄰","STREET":"廠前街","SECT":" ","MAREA":" ","LANE":" ","ALLEY":" ","HOUSE_NO":"５２號之１","E_COORD97":179961.14999999999,"N_COORD97":2577721.3300000001,"ADDRESS":"廠前街５２號之１","OBJECTID":550847},"geometry":{"x":179961.1500000013,"y":2577721.3300000001}},{"attributes":{"ID":550875,"DIS_CODE":0,"TOWNNAME":"新營區","LI":"三仙里","LIN":"10鄰","STREET":"三興街","SECT":" ","MAREA":" ","LANE":" ","ALLEY":" ","HOUSE_NO":"１４號","E_COORD97":179504.76000000001,"N_COORD97":2578139.8399999999,"ADDRESS":"三興街１４號","OBJECTID":550848},"geometry":{"x":179504.76000000164,"y":2578139.8400000017}},{"attributes":{"ID":550876,"DIS_CODE":0,"TOWNNAME":"新營區","LI":"忠政里","LIN":"10鄰","STREET":"中正路","SECT":" ","MAREA":" ","LANE":" ","ALLEY":" ","HOUSE_NO":"４９之１號","E_COORD97":180079.25,"N_COORD97":2579465.0099999998,"ADDRESS":"中正路４９之１號","OBJECTID":550849},"geometry":{"x":180079.25,"y":2579465.0100000016}},{"attributes":{"ID":550877,"DIS_CODE":0,"TOWNNAME":"新營區","LI":"忠政里","LIN":"10鄰","STREET":"中正路","SECT":" ","MAREA":" ","LANE":" ","ALLEY":" ","HOUSE_NO":"４９號","E_COORD97":180076.73999999999,"N_COORD97":2579461.6400000001,"ADDRESS":"中正路４９號","OBJECTID":550850},"geometry":{"x":180076.74000000115,"y":2579461.6400000025}},{"attributes":{"ID":550878,"DIS_CODE":0,"TOWNNAME":"新營區","LI":"新東里","LIN":"10鄰","STREET":"東林街","SECT":" ","MAREA":" ","LANE":" ","ALLEY":" ","HOUSE_NO":"１３號","E_COORD97":181350.47,"N_COORD97":2579777.9500000002,"ADDRESS":"東林街１３號","OBJECTID":550851},"geometry":{"x":181350.46999999974,"y":2579777.9499999993}},{"attributes":{"ID":550879,"DIS_CODE":0,"TOWNNAME":"新營區","LI":"新東里","LIN":"10鄰","STREET":"東林街","SECT":" ","MAREA":" ","LANE":" ","ALLEY":" ","HOUSE_NO":"１號","E_COORD97":181323.70000000001,"N_COORD97":2579785.8199999998,"ADDRESS":"東林街１號","OBJECTID":550852},"geometry":{"x":181323.70000000019,"y":2579785.8200000003}},{"attributes":{"ID":550880,"DIS_CODE":0,"TOWNNAME":"新營區","LI":"新東里","LIN":"10鄰","STREET":"東勇街","SECT":" ","MAREA":" ","LANE":" ","ALLEY":" ","HOUSE_NO":"１０２號","E_COORD97":181473.04000000001,"N_COORD97":2579692.1099999999,"ADDRESS":"東勇街１０２號","OBJECTID":550853},"geometry":{"x":181473.04000000097,"y":2579692.1099999994}},{"attributes":{"ID":550881,"DIS_CODE":0,"TOWNNAME":"新營區","LI":"新東里","LIN":"10鄰","STREET":"東勇街","SECT":" ","MAREA":" ","LANE":" ","ALLEY":" ","HOUSE_NO":"８２號","E_COORD97":181447.16,"N_COORD97":2579659,"ADDRESS":"東勇街８２號","OBJECTID":550854},"geometry":{"x":181447.16000000108,"y":2579659}},{"attributes":{"ID":550882,"DIS_CODE":0,"TOWNNAME":"新營區","LI":"興安里","LIN":"10鄰","STREET":"廠前街","SECT":" ","MAREA":" ","LANE":" ","ALLEY":" ","HOUSE_NO":"６０號","E_COORD97":179930.29000000001,"N_COORD97":2577705.9100000001,"ADDRESS":"廠前街６０號","OBJECTID":550855},"geometry":{"x":179930.2900000019,"y":2577705.910000002}},{"attributes":{"ID":550883,"DIS_CODE":0,"TOWNNAME":"新營區","LI":"南紙里","LIN":"10鄰","STREET":"南紙街","SECT":" ","MAREA":" ","LANE":" ","ALLEY":" ","HOUSE_NO":"５０號","E_COORD97":177809.72,"N_COORD97":2577691.73,"ADDRESS":"南紙街５０號","OBJECTID":550856},"geometry":{"x":177809.7200000016,"y":2577691.7300000004}},{"attributes":{"ID":550884,"DIS_CODE":0,"TOWNNAME":"新營區","LI":"新東里","LIN":"10鄰","STREET":"東林街","SECT":" ","MAREA":" ","LANE":" ","ALLEY":" ","HOUSE_NO":"１５號","E_COORD97":181354.57000000001,"N_COORD97":2579776.8199999998,"ADDRESS":"東林街１５號","OBJECTID":550857},"geometry":{"x":181354.57000000123,"y":2579776.8200000003}},{"attributes":{"ID":550885,"DIS_CODE":0,"TOWNNAME":"新營區","LI":"新東里","LIN":"10鄰","STREET":"東勇街","SECT":" ","MAREA":" ","LANE":" ","ALLEY":" ","HOUSE_NO":"８５號","E_COORD97":181439.04999999999,"N_COORD97":2579674.54,"ADDRESS":"東勇街８５號","OBJECTID":550858},"geometry":{"x":181439.05000000075,"y":2579674.540000001}},{"attributes":{"ID":550886,"DIS_CODE":0,"TOWNNAME":"新營區","LI":"新東里","LIN":"10鄰","STREET":"東林街","SECT":" ","MAREA":" ","LANE":" ","ALLEY":" ","HOUSE_NO":"９號","E_COORD97":181340.01000000001,"N_COORD97":2579780.2000000002,"ADDRESS":"東林街９號","OBJECTID":550859},"geometry":{"x":181340.00999999978,"y":2579780.1999999974}},{"attributes":{"ID":550887,"DIS_CODE":0,"TOWNNAME":"新營區","LI":"興安里","LIN":"10鄰","STREET":"廠前街","SECT":" ","MAREA":" ","LANE":" ","ALLEY":" ","HOUSE_NO":"４２號","E_COORD97":179987.79000000001,"N_COORD97":2577738.8599999999,"ADDRESS":"廠前街４２號","OBJECTID":550860},"geometry":{"x":179987.7900000019,"y":2577738.8600000013}},{"attributes":{"ID":550888,"DIS_CODE":0,"TOWNNAME":"新營區","LI":"新東里","LIN":"10鄰","STREET":"東林街","SECT":" ","MAREA":" ","LANE":" ","ALLEY":" ","HOUSE_NO":"１１號","E_COORD97":181346.39000000001,"N_COORD97":2579779.0699999998,"ADDRESS":"東林街１１號","OBJECTID":550861},"geometry":{"x":181346.39000000153,"y":2579779.070000004}},{"attributes":{"ID":550889,"DIS_CODE":0,"TOWNNAME":"新營區","LI":"新東里","LIN":"10鄰","STREET":"東勇街","SECT":" ","MAREA":" ","LANE":" ","ALLEY":" ","HOUSE_NO":"８３號","E_COORD97":181434.92999999999,"N_COORD97":2579669.0299999998,"ADDRESS":"東勇街８３號","OBJECTID":550862},"geometry":{"x":181434.93000000063,"y":2579669.0299999993}},{"attributes":{"ID":550890,"DIS_CODE":0,"TOWNNAME":"新營區","LI":"新北里","LIN":"10鄰","STREET":"長榮路","SECT":"二段","MAREA":" ","LANE":" ","ALLEY":" ","HOUSE_NO":"２７９號","E_COORD97":179231.64000000001,"N_COORD97":2579786.8199999998,"ADDRESS":"長榮路二段２７９號","OBJECTID":550863},"geometry":{"x":179231.63999999966,"y":2579786.8200000003}},{"attributes":{"ID":550891,"DIS_CODE":0,"TOWNNAME":"東山區","LI":"東中里","LIN":"10鄰","STREET":"永安街","SECT":" ","MAREA":" ","LANE":" ","ALLEY":" ","HOUSE_NO":"３５號","E_COORD97":188652.87,"N_COORD97":2579616.27,"ADDRESS":"永安街３５號","OBJECTID":550864},"geometry":{"x":188652.87000000011,"y":2579616.2699999996}},{"attributes":{"ID":550892,"DIS_CODE":0,"TOWNNAME":"北區","LI":"成德里","LIN":"10鄰","STREET":"西門路","SECT":"四段","MAREA":" ","LANE":" ","ALLEY":" ","HOUSE_NO":"１７３號","E_COORD97":168823.32000000001,"N_COORD97":2545673.8100000001,"ADDRESS":"西門路四段１７３號","OBJECTID":550865},"geometry":{"x":168823.31999999937,"y":2545673.8100000042}},{"attributes":{"ID":550893,"DIS_CODE":0,"TOWNNAME":"北區","LI":"成德里","LIN":"10鄰","STREET":"西門路","SECT":"四段","MAREA":" ","LANE":" ","ALLEY":" ","HOUSE_NO":"２２５號","E_COORD97":168846.67999999999,"N_COORD97":2545740.1000000001,"ADDRESS":"西門路四段２２５號","OBJECTID":550866},"geometry":{"x":168846.6799999997,"y":2545740.1000000015}},{"attributes":{"ID":550894,"DIS_CODE":0,"TOWNNAME":"北區","LI":"成德里","LIN":"10鄰","STREET":"西門路","SECT":"四段","MAREA":" ","LANE":" ","ALLEY":" ","HOUSE_NO":"２３７號","E_COORD97":168854.53,"N_COORD97":2545761.98,"ADDRESS":"西門路四段２３７號","OBJECTID":550867},"geometry":{"x":168854.53000000119,"y":2545761.9800000023}},{"attributes":{"ID":550895,"DIS_CODE":0,"TOWNNAME":"鹽水區","LI":"中境里","LIN":"10鄰","STREET":"三福路","SECT":" ","MAREA":" ","LANE":" ","ALLEY":" ","HOUSE_NO":"１０６號","E_COORD97":174799.06,"N_COORD97":2580141.7799999998,"ADDRESS":"三福路１０６號","OBJECTID":550868},"geometry":{"x":174799.06000000052,"y":2580141.7799999993}},{"attributes":{"ID":550896,"DIS_CODE":0,"TOWNNAME":"鹽水區","LI":"中境里","LIN":"10鄰","STREET":"三福路","SECT":" ","MAREA":" ","LANE":" ","ALLEY":" ","HOUSE_NO":"１０８號","E_COORD97":174781.06,"N_COORD97":2580146.8399999999,"ADDRESS":"三福路１０８號","OBJECTID":550869},"geometry":{"x":174781.05999999959,"y":2580146.8400000017}},{"attributes":{"ID":550897,"DIS_CODE":0,"TOWNNAME":"鹽水區","LI":"中境里","LIN":"10鄰","STREET":"三福路","SECT":" ","MAREA":" ","LANE":" ","ALLEY":" ","HOUSE_NO":"１１２號","E_COORD97":174756.79999999999,"N_COORD97":2580151.9500000002,"ADDRESS":"三福路１１２號","OBJECTID":550870},"geometry":{"x":174756.80000000075,"y":2580151.9500000011}},{"attributes":{"ID":550898,"DIS_CODE":0,"TOWNNAME":"鹽水區","LI":"中境里","LIN":"10鄰","STREET":"三福路","SECT":" ","MAREA":" ","LANE":" ","ALLEY":" ","HOUSE_NO":"１１４號","E_COORD97":174776.19,"N_COORD97":2580176.4100000001,"ADDRESS":"三福路１１４號","OBJECTID":550871},"geometry":{"x":174776.19000000227,"y":2580176.4099999983}},{"attributes":{"ID":550899,"DIS_CODE":0,"TOWNNAME":"鹽水區","LI":"中境里","LIN":"10鄰","STREET":"三福路","SECT":" ","MAREA":" ","LANE":" ","ALLEY":" ","HOUSE_NO":"１１６號","E_COORD97":174792.62,"N_COORD97":2580204.8700000001,"ADDRESS":"三福路１１６號","OBJECTID":550872},"geometry":{"x":174792.62000000011,"y":2580204.8700000048}},{"attributes":{"ID":550900,"DIS_CODE":0,"TOWNNAME":"鹽水區","LI":"中境里","LIN":"10鄰","STREET":"三福路","SECT":" ","MAREA":" ","LANE":" ","ALLEY":" ","HOUSE_NO":"５９之１號","E_COORD97":174769.73000000001,"N_COORD97":2580037.3599999999,"ADDRESS":"三福路５９之１號","OBJECTID":550873},"geometry":{"x":174769.73000000138,"y":2580037.3600000031}},{"attributes":{"ID":550901,"DIS_CODE":0,"TOWNNAME":"鹽水區","LI":"中境里","LIN":"10鄰","STREET":"三福路","SECT":" ","MAREA":" ","LANE":" ","ALLEY":" ","HOUSE_NO":"５９號之２","E_COORD97":174783.01000000001,"N_COORD97":2580035.4700000002,"ADDRESS":"三福路５９號之２","OBJECTID":550874},"geometry":{"x":174783.00999999978,"y":2580035.4700000025}},{"attributes":{"ID":550902,"DIS_CODE":0,"TOWNNAME":"鹽水區","LI":"中境里","LIN":"10鄰","STREET":"三福路","SECT":" ","MAREA":" ","LANE":" ","ALLEY":" ","HOUSE_NO":"５９號之３","E_COORD97":174785.79999999999,"N_COORD97":2580033.2799999998,"ADDRESS":"三福路５９號之３","OBJECTID":550875},"geometry":{"x":174785.80000000075,"y":2580033.2799999993}},{"attributes":{"ID":550903,"DIS_CODE":0,"TOWNNAME":"鹽水區","LI":"中境里","LIN":"10鄰","STREET":"三福路","SECT":" ","MAREA":" ","LANE":" ","ALLEY":" ","HOUSE_NO":"５９號之４","E_COORD97":174789.70999999999,"N_COORD97":2580030.9900000002,"ADDRESS":"三福路５９號之４","OBJECTID":550876},"geometry":{"x":174789.71000000089,"y":2580030.9900000021}},{"attributes":{"ID":550904,"DIS_CODE":0,"TOWNNAME":"鹽水區","LI":"中境里","LIN":"10鄰","STREET":"三福路","SECT":" ","MAREA":" ","LANE":" ","ALLEY":" ","HOUSE_NO":"５９號之５","E_COORD97":174766.07000000001,"N_COORD97":2580039.48,"ADDRESS":"三福路５９號之５","OBJECTID":550877},"geometry":{"x":174766.0700000003,"y":2580039.4800000004}},{"attributes":{"ID":550905,"DIS_CODE":0,"TOWNNAME":"鹽水區","LI":"中境里","LIN":"10鄰","STREET":"三福路","SECT":" ","MAREA":" ","LANE":" ","ALLEY":" ","HOUSE_NO":"５９號之６","E_COORD97":174759.81,"N_COORD97":2580043.23,"ADDRESS":"三福路５９號之６","OBJECTID":550878},"geometry":{"x":174759.81000000052,"y":2580043.2300000023}},{"attributes":{"ID":550906,"DIS_CODE":0,"TOWNNAME":"鹽水區","LI":"中境里","LIN":"10鄰","STREET":"三福路","SECT":" ","MAREA":" ","LANE":" ","ALLEY":" ","HOUSE_NO":"５９號之７","E_COORD97":174793.82999999999,"N_COORD97":2580028.8199999998,"ADDRESS":"三福路５９號之７","OBJECTID":550879},"geometry":{"x":174793.83000000101,"y":2580028.8200000022}},{"attributes":{"ID":550907,"DIS_CODE":0,"TOWNNAME":"鹽水區","LI":"中境里","LIN":"10鄰","STREET":"三福路","SECT":" ","MAREA":" ","LANE":" ","ALLEY":" ","HOUSE_NO":"５９號","E_COORD97":174753.72,"N_COORD97":2580051.9900000002,"ADDRESS":"三福路５９號","OBJECTID":550880},"geometry":{"x":174753.72000000067,"y":2580051.9900000021}},{"attributes":{"ID":550908,"DIS_CODE":0,"TOWNNAME":"鹽水區","LI":"中境里","LIN":"10鄰","STREET":"三福路","SECT":" ","MAREA":" ","LANE":" ","ALLEY":" ","HOUSE_NO":"６１號","E_COORD97":174744.67999999999,"N_COORD97":2580050.9700000002,"ADDRESS":"三福路６１號","OBJECTID":550881},"geometry":{"x":174744.6799999997,"y":2580050.9700000007}},{"attributes":{"ID":550909,"DIS_CODE":0,"TOWNNAME":"鹽水區","LI":"中境里","LIN":"10鄰","STREET":"三福路","SECT":" ","MAREA":" ","LANE":" ","ALLEY":" ","HOUSE_NO":"９４號之１","E_COORD97":174801.98000000001,"N_COORD97":2580077.8599999999,"ADDRESS":"三福路９４號之１","OBJECTID":550882},"geometry":{"x":174801.98000000138,"y":2580077.8600000031}},{"attributes":{"ID":550910,"DIS_CODE":0,"TOWNNAME":"鹽水區","LI":"中境里","LIN":"10鄰","STREET":"三福路","SECT":" ","MAREA":" ","LANE":" ","ALLEY":" ","HOUSE_NO":"９４之２號","E_COORD97":174802.23000000001,"N_COORD97":2580059.6499999999,"ADDRESS":"三福路９４之２號","OBJECTID":550883},"geometry":{"x":174802.23000000138,"y":2580059.6500000004}},{"attributes":{"ID":550911,"DIS_CODE":0,"TOWNNAME":"鹽水區","LI":"中境里","LIN":"10鄰","STREET":"三福路","SECT":" ","MAREA":" ","LANE":" ","ALLEY":" ","HOUSE_NO":"９４之３號","E_COORD97":174798.19,"N_COORD97":2580061.6800000002,"ADDRESS":"三福路９４之３號","OBJECTID":550884},"geometry":{"x":174798.19000000227,"y":2580061.6799999997}},{"attributes":{"ID":550912,"DIS_CODE":0,"TOWNNAME":"鹽水區","LI":"中境里","LIN":"10鄰","STREET":"三福路","SECT":" ","MAREA":" ","LANE":" ","ALLEY":" ","HOUSE_NO":"９４號之４","E_COORD97":174794.13,"N_COORD97":2580063.7599999998,"ADDRESS":"三福路９４號之４","OBJECTID":550885},"geometry":{"x":174794.12999999989,"y":2580063.7599999998}},{"attributes":{"ID":550913,"DIS_CODE":0,"TOWNNAME":"鹽水區","LI":"中境里","LIN":"10鄰","STREET":"三福路","SECT":" ","MAREA":" ","LANE":" ","ALLEY":" ","HOUSE_NO":"９４號","E_COORD97":174809.19,"N_COORD97":2580105.77,"ADDRESS":"三福路９４號","OBJECTID":550886},"geometry":{"x":174809.19000000134,"y":2580105.7700000033}},{"attributes":{"ID":550914,"DIS_CODE":0,"TOWNNAME":"鹽水區","LI":"中境里","LIN":"10鄰","STREET":"三福路","SECT":" ","MAREA":" ","LANE":" ","ALLEY":" ","HOUSE_NO":"９６號之１","E_COORD97":174758.57999999999,"N_COORD97":2580114.2000000002,"ADDRESS":"三福路９６號之１","OBJECTID":550887},"geometry":{"x":174758.58000000101,"y":2580114.2000000011}},{"attributes":{"ID":550915,"DIS_CODE":0,"TOWNNAME":"鹽水區","LI":"中境里","LIN":"10鄰","STREET":"三福路","SECT":" ","MAREA":" ","LANE":" ","ALLEY":" ","HOUSE_NO":"９６之２號","E_COORD97":174752.47,"N_COORD97":2580123.3100000001,"ADDRESS":"三福路９６之２號","OBJECTID":550888},"geometry":{"x":174752.46999999974,"y":2580123.3099999987}},{"attributes":{"ID":550916,"DIS_CODE":0,"TOWNNAME":"鹽水區","LI":"中境里","LIN":"10鄰","STREET":"三福路","SECT":" ","MAREA":" ","LANE":" ","ALLEY":" ","HOUSE_NO":"９６號之３","E_COORD97":174751.67000000001,"N_COORD97":2580128.9900000002,"ADDRESS":"三福路９６號之３","OBJECTID":550889},"geometry":{"x":174751.66999999993,"y":2580128.9900000021}},{"attributes":{"ID":550917,"DIS_CODE":0,"TOWNNAME":"鹽水區","LI":"中境里","LIN":"10鄰","STREET":"三福路","SECT":" ","MAREA":" ","LANE":" ","ALLEY":" ","HOUSE_NO":"９６號","E_COORD97":174776.22,"N_COORD97":2580077.5299999998,"ADDRESS":"三福路９６號","OBJECTID":550890},"geometry":{"x":174776.21999999974,"y":2580077.5300000012}},{"attributes":{"ID":550918,"DIS_CODE":0,"TOWNNAME":"鹽水區","LI":"水仙里","LIN":"10鄰","STREET":"中山路","SECT":" ","MAREA":" ","LANE":" ","ALLEY":" ","HOUSE_NO":"３１號之１","E_COORD97":174989.45999999999,"N_COORD97":2579902.6800000002,"ADDRESS":"中山路３１號之１","OBJECTID":550891},"geometry":{"x":174989.46000000089,"y":2579902.6799999997}},{"attributes":{"ID":550919,"DIS_CODE":0,"TOWNNAME":"鹽水區","LI":"水仙里","LIN":"10鄰","STREET":"中山路","SECT":" ","MAREA":" ","LANE":" ","ALLEY":" ","HOUSE_NO":"３１號之２","E_COORD97":174980.64999999999,"N_COORD97":2579880.3700000001,"ADDRESS":"中山路３１號之２","OBJECTID":550892},"geometry":{"x":174980.6500000013,"y":2579880.3700000029}},{"attributes":{"ID":550920,"DIS_CODE":0,"TOWNNAME":"鹽水區","LI":"水仙里","LIN":"10鄰","STREET":"中山路","SECT":" ","MAREA":" ","LANE":" ","ALLEY":" ","HOUSE_NO":"３１號","E_COORD97":174993.89000000001,"N_COORD97":2579901.7200000002,"ADDRESS":"中山路３１號","OBJECTID":550893},"geometry":{"x":174993.88999999966,"y":2579901.7200000025}},{"attributes":{"ID":550921,"DIS_CODE":0,"TOWNNAME":"鹽水區","LI":"水仙里","LIN":"10鄰","STREET":"中山路","SECT":" ","MAREA":" ","LANE":" ","ALLEY":" ","HOUSE_NO":"３３號","E_COORD97":174984.64000000001,"N_COORD97":2579903.7000000002,"ADDRESS":"中山路３３號","OBJECTID":550894},"geometry":{"x":174984.6400000006,"y":2579903.7000000011}},{"attributes":{"ID":550922,"DIS_CODE":0,"TOWNNAME":"鹽水區","LI":"水仙里","LIN":"10鄰","STREET":"中山路","SECT":" ","MAREA":" ","LANE":" ","ALLEY":" ","HOUSE_NO":"３５號","E_COORD97":174980.03,"N_COORD97":2579905.1200000001,"ADDRESS":"中山路３５號","OBJECTID":550895},"geometry":{"x":174980.03000000026,"y":2579905.1200000048}},{"attributes":{"ID":550923,"DIS_CODE":0,"TOWNNAME":"鹽水區","LI":"水仙里","LIN":"10鄰","STREET":"中山路","SECT":" ","MAREA":" ","LANE":" ","ALLEY":" ","HOUSE_NO":"３７號","E_COORD97":174975.10000000001,"N_COORD97":2579906.0899999999,"ADDRESS":"中山路３７號","OBJECTID":550896},"geometry":{"x":174975.10000000056,"y":2579906.0899999999}},{"attributes":{"ID":550924,"DIS_CODE":0,"TOWNNAME":"鹽水區","LI":"水仙里","LIN":"10鄰","STREET":"中山路","SECT":" ","MAREA":" ","LANE":" ","ALLEY":" ","HOUSE_NO":"３９號","E_COORD97":174970.48000000001,"N_COORD97":2579907.02,"ADDRESS":"中山路３９號","OBJECTID":550897},"geometry":{"x":174970.48000000045,"y":2579907.0199999996}},{"attributes":{"ID":550925,"DIS_CODE":0,"TOWNNAME":"鹽水區","LI":"水仙里","LIN":"10鄰","STREET":"中山路","SECT":" ","MAREA":" ","LANE":" ","ALLEY":" ","HOUSE_NO":"４１號","E_COORD97":174965.07999999999,"N_COORD97":2579907.54,"ADDRESS":"中山路４１號","OBJECTID":550898},"geometry":{"x":174965.08000000101,"y":2579907.540000001}},{"attributes":{"ID":550926,"DIS_CODE":0,"TOWNNAME":"鹽水區","LI":"水仙里","LIN":"10鄰","STREET":"中山路","SECT":" ","MAREA":" ","LANE":" ","ALLEY":" ","HOUSE_NO":"４３號","E_COORD97":174960.92999999999,"N_COORD97":2579908.02,"ADDRESS":"中山路４３號","OBJECTID":550899},"geometry":{"x":174960.93000000063,"y":2579908.0200000014}},{"attributes":{"ID":550927,"DIS_CODE":0,"TOWNNAME":"關廟區","LI":"山西里","LIN":"10鄰","STREET":"文衡路","SECT":" ","MAREA":" ","LANE":" ","ALLEY":" ","HOUSE_NO":"２４０號","E_COORD97":180918.94,"N_COORD97":2540644.3300000001,"ADDRESS":"文衡路２４０號","OBJECTID":550900},"geometry":{"x":180918.94000000041,"y":2540644.3300000001}},{"attributes":{"ID":550928,"DIS_CODE":0,"TOWNNAME":"關廟區","LI":"山西里","LIN":"10鄰","STREET":"文衡路","SECT":" ","MAREA":" ","LANE":" ","ALLEY":" ","HOUSE_NO":"２７６號","E_COORD97":180917.84,"N_COORD97":2540704.3300000001,"ADDRESS":"文衡路２７６號","OBJECTID":550901},"geometry":{"x":180917.83999999985,"y":2540704.3300000019}},{"attributes":{"ID":550929,"DIS_CODE":0,"TOWNNAME":"關廟區","LI":"五甲里","LIN":"10鄰","STREET":"五甲路","SECT":" ","MAREA":" ","LANE":" ","ALLEY":" ","HOUSE_NO":"５８１號","E_COORD97":181087.87,"N_COORD97":2537964.25,"ADDRESS":"五甲路５８１號","OBJECTID":550902},"geometry":{"x":181087.87000000104,"y":2537964.2500000019}},{"attributes":{"ID":550930,"DIS_CODE":0,"TOWNNAME":"關廟區","LI":"五甲里","LIN":"10鄰","STREET":"五甲路","SECT":" ","MAREA":" ","LANE":" ","ALLEY":" ","HOUSE_NO":"５６６號","E_COORD97":181028.76999999999,"N_COORD97":2537991.25,"ADDRESS":"五甲路５６６號","OBJECTID":550903},"geometry":{"x":181028.77000000048,"y":2537991.2500000037}},{"attributes":{"ID":550931,"DIS_CODE":0,"TOWNNAME":"關廟區","LI":"五甲里","LIN":"10鄰","STREET":"五甲路","SECT":" ","MAREA":" ","LANE":" ","ALLEY":" ","HOUSE_NO":"５３６號","E_COORD97":180935.87,"N_COORD97":2538158.25,"ADDRESS":"五甲路５３６號","OBJECTID":550904},"geometry":{"x":180935.87000000011,"y":2538158.2500000019}},{"attributes":{"ID":550932,"DIS_CODE":0,"TOWNNAME":"關廟區","LI":"五甲里","LIN":"10鄰","STREET":"五甲路","SECT":" ","MAREA":" ","LANE":" ","ALLEY":" ","HOUSE_NO":"６１１號","E_COORD97":181118.57000000001,"N_COORD97":2537792.25,"ADDRESS":"五甲路６１１號","OBJECTID":550905},"geometry":{"x":181118.57000000216,"y":2537792.2500000019}},{"attributes":{"ID":550933,"DIS_CODE":0,"TOWNNAME":"關廟區","LI":"五甲里","LIN":"10鄰","STREET":"五甲路","SECT":" ","MAREA":" ","LANE":" ","ALLEY":" ","HOUSE_NO":"７１８號","E_COORD97":180945.47,"N_COORD97":2537634.25,"ADDRESS":"五甲路７１８號","OBJECTID":550906},"geometry":{"x":180945.46999999974,"y":2537634.25}},{"attributes":{"ID":550934,"DIS_CODE":0,"TOWNNAME":"關廟區","LI":"五甲里","LIN":"10鄰","STREET":"五甲路","SECT":" ","MAREA":" ","LANE":" ","ALLEY":" ","HOUSE_NO":"７１２號","E_COORD97":181000.37,"N_COORD97":2537684.25,"ADDRESS":"五甲路７１２號","OBJECTID":550907},"geometry":{"x":181000.37000000011,"y":2537684.25}},{"attributes":{"ID":550935,"DIS_CODE":0,"TOWNNAME":"關廟區","LI":"山西里","LIN":"10鄰","STREET":"成功路","SECT":" ","MAREA":" ","LANE":" ","ALLEY":" ","HOUSE_NO":"４８２號","E_COORD97":180955.07000000001,"N_COORD97":2540622.27,"ADDRESS":"成功路４８２號","OBJECTID":550908},"geometry":{"x":180955.0700000003,"y":2540622.2700000014}},{"attributes":{"ID":550936,"DIS_CODE":0,"TOWNNAME":"關廟區","LI":"北勢里","LIN":"10鄰","STREET":"成功路","SECT":" ","MAREA":" ","LANE":" ","ALLEY":" ","HOUSE_NO":"２１８號","E_COORD97":181548.17000000001,"N_COORD97":2540502.27,"ADDRESS":"成功路２１８號","OBJECTID":550909},"geometry":{"x":181548.17000000179,"y":2540502.2699999996}},{"attributes":{"ID":550937,"DIS_CODE":0,"TOWNNAME":"關廟區","LI":"香洋里","LIN":"10鄰","STREET":"中正路","SECT":" ","MAREA":" ","LANE":" ","ALLEY":" ","HOUSE_NO":"９２７號","E_COORD97":181286.26000000001,"N_COORD97":2540230.25,"ADDRESS":"中正路９２７號","OBJECTID":550910},"geometry":{"x":181286.26000000164,"y":2540230.2500000019}},{"attributes":{"ID":550938,"DIS_CODE":0,"TOWNNAME":"關廟區","LI":"關廟里","LIN":"10鄰","STREET":"大仁街","SECT":" ","MAREA":" ","LANE":" ","ALLEY":" ","HOUSE_NO":"２５６號","E_COORD97":180823.76999999999,"N_COORD97":2539548.25,"ADDRESS":"大仁街２５６號","OBJECTID":550911},"geometry":{"x":180823.77000000048,"y":2539548.2500000019}},{"attributes":{"ID":550939,"DIS_CODE":0,"TOWNNAME":"關廟區","LI":"松腳里","LIN":"10鄰","STREET":"勝利街","SECT":" ","MAREA":" ","LANE":" ","ALLEY":" ","HOUSE_NO":"６６號","E_COORD97":181718.01999999999,"N_COORD97":2539752.2599999998,"ADDRESS":"勝利街６６號","OBJECTID":550912},"geometry":{"x":181718.01999999955,"y":2539752.2599999998}},{"attributes":{"ID":550940,"DIS_CODE":0,"TOWNNAME":"關廟區","LI":"關廟里","LIN":"10鄰","STREET":"大仁街","SECT":" ","MAREA":" ","LANE":" ","ALLEY":" ","HOUSE_NO":"２３８號","E_COORD97":180839.17000000001,"N_COORD97":2539501.25,"ADDRESS":"大仁街２３８號","OBJECTID":550913},"geometry":{"x":180839.16999999993,"y":2539501.2500000019}},{"attributes":{"ID":550941,"DIS_CODE":0,"TOWNNAME":"關廟區","LI":"松腳里","LIN":"10鄰","STREET":"勝利街","SECT":" ","MAREA":" ","LANE":" ","ALLEY":" ","HOUSE_NO":"４６號","E_COORD97":181753.72,"N_COORD97":2539755.2599999998,"ADDRESS":"勝利街４６號","OBJECTID":550914},"geometry":{"x":181753.71999999974,"y":2539755.2600000016}},{"attributes":{"ID":550942,"DIS_CODE":0,"TOWNNAME":"關廟區","LI":"香洋里","LIN":"10鄰","STREET":"中正路","SECT":" ","MAREA":" ","LANE":" ","ALLEY":" ","HOUSE_NO":"９４７號","E_COORD97":181237.45999999999,"N_COORD97":2540244.25,"ADDRESS":"中正路９４７號","OBJECTID":550915},"geometry":{"x":181237.45999999996,"y":2540244.25}},{"attributes":{"ID":550943,"DIS_CODE":0,"TOWNNAME":"關廟區","LI":"關廟里","LIN":"10鄰","STREET":"大仁街","SECT":" ","MAREA":" ","LANE":" ","ALLEY":" ","HOUSE_NO":"２４３號","E_COORD97":180823.76999999999,"N_COORD97":2539486.25,"ADDRESS":"大仁街２４３號","OBJECTID":550916},"geometry":{"x":180823.77000000048,"y":2539486.2500000037}},{"attributes":{"ID":550944,"DIS_CODE":0,"TOWNNAME":"關廟區","LI":"松腳里","LIN":"10鄰","STREET":"和平路","SECT":" ","MAREA":" ","LANE":" ","ALLEY":" ","HOUSE_NO":"２２６號","E_COORD97":181705.84,"N_COORD97":2539732.25,"ADDRESS":"和平路２２６號","OBJECTID":550917},"geometry":{"x":181705.83999999985,"y":2539732.25}},{"attributes":{"ID":550945,"DIS_CODE":0,"TOWNNAME":"關廟區","LI":"香洋里","LIN":"10鄰","STREET":"中正路","SECT":" ","MAREA":" ","LANE":" ","ALLEY":" ","HOUSE_NO":"９５３號","E_COORD97":181219.85999999999,"N_COORD97":2540251.25,"ADDRESS":"中正路９５３號","OBJECTID":550918},"geometry":{"x":181219.86000000034,"y":2540251.25}},{"attributes":{"ID":550946,"DIS_CODE":0,"TOWNNAME":"關廟區","LI":"關廟里","LIN":"10鄰","STREET":"大仁街","SECT":" ","MAREA":" ","LANE":" ","ALLEY":" ","HOUSE_NO":"２５１號","E_COORD97":180818.07000000001,"N_COORD97":2539502.25,"ADDRESS":"大仁街２５１號","OBJECTID":550919},"geometry":{"x":180818.0700000003,"y":2539502.25}},{"attributes":{"ID":550947,"DIS_CODE":0,"TOWNNAME":"關廟區","LI":"關廟里","LIN":"10鄰","STREET":"大仁街","SECT":" ","MAREA":" ","LANE":" ","ALLEY":" ","HOUSE_NO":"２８５號","E_COORD97":180792.67000000001,"N_COORD97":2539580.25,"ADDRESS":"大仁街２８５號","OBJECTID":550920},"geometry":{"x":180792.67000000086,"y":2539580.25}},{"attributes":{"ID":550948,"DIS_CODE":0,"TOWNNAME":"關廟區","LI":"關廟里","LIN":"10鄰","STREET":"大仁街","SECT":" ","MAREA":" ","LANE":" ","ALLEY":" ","HOUSE_NO":"２３９號","E_COORD97":180826.47,"N_COORD97":2539478.25,"ADDRESS":"大仁街２３９號","OBJECTID":550921},"geometry":{"x":180826.46999999974,"y":2539478.25}},{"attributes":{"ID":550949,"DIS_CODE":0,"TOWNNAME":"關廟區","LI":"松腳里","LIN":"10鄰","STREET":"和平路","SECT":" ","MAREA":" ","LANE":" ","ALLEY":" ","HOUSE_NO":"２１２號","E_COORD97":181703.14000000001,"N_COORD97":2539706.25,"ADDRESS":"和平路２１２號","OBJECTID":550922},"geometry":{"x":181703.1400000006,"y":2539706.25}},{"attributes":{"ID":550950,"DIS_CODE":0,"TOWNNAME":"關廟區","LI":"松腳里","LIN":"10鄰","STREET":"勝利街","SECT":" ","MAREA":" ","LANE":" ","ALLEY":" ","HOUSE_NO":"５６號","E_COORD97":181732.62,"N_COORD97":2539752.2599999998,"ADDRESS":"勝利街５６號","OBJECTID":550923},"geometry":{"x":181732.62000000011,"y":2539752.2599999998}},{"attributes":{"ID":550951,"DIS_CODE":0,"TOWNNAME":"關廟區","LI":"松腳里","LIN":"10鄰","STREET":"勝利街","SECT":" ","MAREA":" ","LANE":" ","ALLEY":" ","HOUSE_NO":"３８號","E_COORD97":181766.82000000001,"N_COORD97":2539749.2599999998,"ADDRESS":"勝利街３８號","OBJECTID":550924},"geometry":{"x":181766.82000000123,"y":2539749.2599999998}},{"attributes":{"ID":550952,"DIS_CODE":0,"TOWNNAME":"關廟區","LI":"松腳里","LIN":"10鄰","STREET":"勝利街","SECT":" ","MAREA":" ","LANE":" ","ALLEY":" ","HOUSE_NO":"７０號","E_COORD97":181708.82000000001,"N_COORD97":2539752.2599999998,"ADDRESS":"勝利街７０號","OBJECTID":550925},"geometry":{"x":181708.82000000123,"y":2539752.2599999998}},{"attributes":{"ID":550953,"DIS_CODE":0,"TOWNNAME":"關廟區","LI":"關廟里","LIN":"10鄰","STREET":"大仁街","SECT":" ","MAREA":" ","LANE":" ","ALLEY":" ","HOUSE_NO":"２９６號","E_COORD97":180799.26999999999,"N_COORD97":2539615.25,"ADDRESS":"大仁街２９６號","OBJECTID":550926},"geometry":{"x":180799.26999999955,"y":2539615.2500000037}},{"attributes":{"ID":550954,"DIS_CODE":0,"TOWNNAME":"關廟區","LI":"松腳里","LIN":"10鄰","STREET":"和平路","SECT":" ","MAREA":" ","LANE":" ","ALLEY":" ","HOUSE_NO":"２１６號","E_COORD97":181702.44,"N_COORD97":2539714.25,"ADDRESS":"和平路２１６號","OBJECTID":550927},"geometry":{"x":181702.44000000041,"y":2539714.2500000019}},{"attributes":{"ID":550955,"DIS_CODE":0,"TOWNNAME":"關廟區","LI":"松腳里","LIN":"10鄰","STREET":"勝利街","SECT":" ","MAREA":" ","LANE":" ","ALLEY":" ","HOUSE_NO":"４２號","E_COORD97":181758.01999999999,"N_COORD97":2539755.2599999998,"ADDRESS":"勝利街４２號","OBJECTID":550928},"geometry":{"x":181758.02000000048,"y":2539755.2600000016}},{"attributes":{"ID":550956,"DIS_CODE":0,"TOWNNAME":"關廟區","LI":"新光里","LIN":"10鄰","STREET":"新光街","SECT":" ","MAREA":" ","LANE":" ","ALLEY":" ","HOUSE_NO":"２７０號","E_COORD97":184352.26999999999,"N_COORD97":2541867.25,"ADDRESS":"新光街２７０號","OBJECTID":550929},"geometry":{"x":184352.26999999955,"y":2541867.2500000019}},{"attributes":{"ID":550957,"DIS_CODE":0,"TOWNNAME":"關廟區","LI":"關廟里","LIN":"10鄰","STREET":"大仁街","SECT":" ","MAREA":" ","LANE":" ","ALLEY":" ","HOUSE_NO":"２４６號","E_COORD97":180834.97,"N_COORD97":2539513.25,"ADDRESS":"大仁街２４６號","OBJECTID":550930},"geometry":{"x":180834.96999999974,"y":2539513.2500000037}},{"attributes":{"ID":550958,"DIS_CODE":0,"TOWNNAME":"關廟區","LI":"香洋里","LIN":"10鄰","STREET":"中正路","SECT":" ","MAREA":" ","LANE":" ","ALLEY":" ","HOUSE_NO":"９４５號","E_COORD97":181243.95999999999,"N_COORD97":2540243.25,"ADDRESS":"中正路９４５號","OBJECTID":550931},"geometry":{"x":181243.95999999996,"y":2540243.2500000019}},{"attributes":{"ID":550959,"DIS_CODE":0,"TOWNNAME":"關廟區","LI":"關廟里","LIN":"10鄰","STREET":"大仁街","SECT":" ","MAREA":" ","LANE":" ","ALLEY":" ","HOUSE_NO":"３００號","E_COORD97":180798.07000000001,"N_COORD97":2539624.25,"ADDRESS":"大仁街３００號","OBJECTID":550932},"geometry":{"x":180798.0700000003,"y":2539624.25}},{"attributes":{"ID":550960,"DIS_CODE":0,"TOWNNAME":"關廟區","LI":"關廟里","LIN":"10鄰","STREET":"大仁街","SECT":" ","MAREA":" ","LANE":" ","ALLEY":" ","HOUSE_NO":"２９８號","E_COORD97":180798.47,"N_COORD97":2539619.25,"ADDRESS":"大仁街２９８號","OBJECTID":550933},"geometry":{"x":180798.47000000067,"y":2539619.2500000019}},{"attributes":{"ID":550961,"DIS_CODE":0,"TOWNNAME":"關廟區","LI":"關廟里","LIN":"10鄰","STREET":"大仁街","SECT":" ","MAREA":" ","LANE":" ","ALLEY":" ","HOUSE_NO":"２３６號","E_COORD97":180852.17000000001,"N_COORD97":2539484.25,"ADDRESS":"大仁街２３６號","OBJECTID":550934},"geometry":{"x":180852.17000000086,"y":2539484.2500000019}},{"attributes":{"ID":550962,"DIS_CODE":0,"TOWNNAME":"關廟區","LI":"關廟里","LIN":"10鄰","STREET":"大仁街","SECT":" ","MAREA":" ","LANE":" ","ALLEY":" ","HOUSE_NO":"２４９號","E_COORD97":180819.17000000001,"N_COORD97":2539498.25,"ADDRESS":"大仁街２４９號","OBJECTID":550935},"geometry":{"x":180819.17000000179,"y":2539498.25}},{"attributes":{"ID":550963,"DIS_CODE":0,"TOWNNAME":"關廟區","LI":"關廟里","LIN":"10鄰","STREET":"大仁街","SECT":" ","MAREA":" ","LANE":" ","ALLEY":" ","HOUSE_NO":"２４２號","E_COORD97":180836.07000000001,"N_COORD97":2539509.25,"ADDRESS":"大仁街２４２號","OBJECTID":550936},"geometry":{"x":180836.07000000123,"y":2539509.25}},{"attributes":{"ID":550964,"DIS_CODE":0,"TOWNNAME":"關廟區","LI":"松腳里","LIN":"10鄰","STREET":"和平路","SECT":" ","MAREA":" ","LANE":" ","ALLEY":" ","HOUSE_NO":"２３６號","E_COORD97":181704.73999999999,"N_COORD97":2539776.25,"ADDRESS":"和平路２３６號","OBJECTID":550937},"geometry":{"x":181704.74000000115,"y":2539776.25}},{"attributes":{"ID":550965,"DIS_CODE":0,"TOWNNAME":"關廟區","LI":"香洋里","LIN":"10鄰","STREET":"中正路","SECT":" ","MAREA":" ","LANE":" ","ALLEY":" ","HOUSE_NO":"９６１號","E_COORD97":181197.56,"N_COORD97":2540258.25,"ADDRESS":"中正路９６１號","OBJECTID":550938},"geometry":{"x":181197.56000000145,"y":2540258.25}},{"attributes":{"ID":550966,"DIS_CODE":0,"TOWNNAME":"關廟區","LI":"關廟里","LIN":"10鄰","STREET":"大仁街","SECT":" ","MAREA":" ","LANE":" ","ALLEY":" ","HOUSE_NO":"３０２號","E_COORD97":180800.37,"N_COORD97":2539632.25,"ADDRESS":"大仁街３０２號","OBJECTID":550939},"geometry":{"x":180800.37000000011,"y":2539632.2500000037}},{"attributes":{"ID":550967,"DIS_CODE":0,"TOWNNAME":"關廟區","LI":"松腳里","LIN":"10鄰","STREET":"和平路","SECT":" ","MAREA":" ","LANE":" ","ALLEY":" ","HOUSE_NO":"２２０號","E_COORD97":181705.04000000001,"N_COORD97":2539725.25,"ADDRESS":"和平路２２０號","OBJECTID":550940},"geometry":{"x":181705.0400000019,"y":2539725.25}},{"attributes":{"ID":550968,"DIS_CODE":0,"TOWNNAME":"關廟區","LI":"松腳里","LIN":"10鄰","STREET":"勝利街","SECT":" ","MAREA":" ","LANE":" ","ALLEY":" ","HOUSE_NO":"３６號","E_COORD97":181771.01999999999,"N_COORD97":2539749.2599999998,"ADDRESS":"勝利街３６號","OBJECTID":550941},"geometry":{"x":181771.02000000048,"y":2539749.2599999998}},{"attributes":{"ID":550969,"DIS_CODE":0,"TOWNNAME":"關廟區","LI":"松腳里","LIN":"10鄰","STREET":"和平路","SECT":" ","MAREA":" ","LANE":" ","ALLEY":" ","HOUSE_NO":"２４０號","E_COORD97":181704.73999999999,"N_COORD97":2539784.25,"ADDRESS":"和平路２４０號","OBJECTID":550942},"geometry":{"x":181704.74000000115,"y":2539784.25}},{"attributes":{"ID":550970,"DIS_CODE":0,"TOWNNAME":"關廟區","LI":"布袋里","LIN":"10鄰","STREET":"長榮街","SECT":" ","MAREA":" ","LANE":" ","ALLEY":" ","HOUSE_NO":"３１９號","E_COORD97":182207.69,"N_COORD97":2534328.2999999998,"ADDRESS":"長榮街３１９號","OBJECTID":550943},"geometry":{"x":182207.69000000041,"y":2534328.3000000007}},{"attributes":{"ID":550971,"DIS_CODE":0,"TOWNNAME":"關廟區","LI":"北花里","LIN":"10鄰","STREET":"園中街","SECT":" ","MAREA":" ","LANE":" ","ALLEY":" ","HOUSE_NO":"３８號","E_COORD97":181816.66,"N_COORD97":2540289.25,"ADDRESS":"園中街３８號","OBJECTID":550944},"geometry":{"x":181816.66000000108,"y":2540289.25}},{"attributes":{"ID":550972,"DIS_CODE":0,"TOWNNAME":"關廟區","LI":"北花里","LIN":"10鄰","STREET":"園中街","SECT":" ","MAREA":" ","LANE":" ","ALLEY":" ","HOUSE_NO":"４２號","E_COORD97":181785.56,"N_COORD97":2540299.25,"ADDRESS":"園中街４２號","OBJECTID":550945},"geometry":{"x":181785.55999999959,"y":2540299.25}},{"attributes":{"ID":550973,"DIS_CODE":0,"TOWNNAME":"關廟區","LI":"布袋里","LIN":"10鄰","STREET":"長榮街","SECT":" ","MAREA":" ","LANE":" ","ALLEY":" ","HOUSE_NO":"３１８號","E_COORD97":182242.59,"N_COORD97":2534363.2999999998,"ADDRESS":"長榮街３１８號","OBJECTID":550946},"geometry":{"x":182242.59000000078,"y":2534363.3000000007}},{"attributes":{"ID":550974,"DIS_CODE":0,"TOWNNAME":"麻豆區","LI":"新建里","LIN":"10鄰","STREET":"麻佳路","SECT":"一段","MAREA":" ","LANE":" ","ALLEY":" ","HOUSE_NO":"８２號","E_COORD97":172139.95999999999,"N_COORD97":2564919.9900000002,"ADDRESS":"麻佳路一段８２號","OBJECTID":550947},"geometry":{"x":172139.96000000089,"y":2564919.9900000021}},{"attributes":{"ID":550975,"DIS_CODE":0,"TOWNNAME":"麻豆區","LI":"新建里","LIN":"10鄰","STREET":"麻佳路","SECT":"一段","MAREA":" ","LANE":" ","ALLEY":" ","HOUSE_NO":"３６號","E_COORD97":172222.57000000001,"N_COORD97":2564973.0899999999,"ADDRESS":"麻佳路一段３６號","OBJECTID":550948},"geometry":{"x":172222.57000000123,"y":2564973.0900000017}},{"attributes":{"ID":550976,"DIS_CODE":0,"TOWNNAME":"麻豆區","LI":"新建里","LIN":"10鄰","STREET":"麻佳路","SECT":"一段","MAREA":" ","LANE":" ","ALLEY":" ","HOUSE_NO":"１０６號","E_COORD97":172048.63,"N_COORD97":2564885.29,"ADDRESS":"麻佳路一段１０６號","OBJECTID":550949},"geometry":{"x":172048.63000000175,"y":2564885.2899999991}},{"attributes":{"ID":550977,"DIS_CODE":0,"TOWNNAME":"麻豆區","LI":"新建里","LIN":"10鄰","STREET":"麻佳路","SECT":"一段","MAREA":" ","LANE":" ","ALLEY":" ","HOUSE_NO":"１１０號","E_COORD97":172033.51999999999,"N_COORD97":2564870.79,"ADDRESS":"麻佳路一段１１０號","OBJECTID":550950},"geometry":{"x":172033.51999999862,"y":2564870.7899999991}},{"attributes":{"ID":550978,"DIS_CODE":0,"TOWNNAME":"麻豆區","LI":"新建里","LIN":"10鄰","STREET":"麻佳路","SECT":"一段","MAREA":" ","LANE":" ","ALLEY":" ","HOUSE_NO":"１６號之５","E_COORD97":172255.52341200001,"N_COORD97":2564996.8850699998,"ADDRESS":"麻佳路一段１６號之５","OBJECTID":550951},"geometry":{"x":172255.52341200132,"y":2564996.8850679994}},{"attributes":{"ID":550979,"DIS_CODE":0,"TOWNNAME":"麻豆區","LI":"新建里","LIN":"10鄰","STREET":"麻佳路","SECT":"一段","MAREA":" ","LANE":" ","ALLEY":" ","HOUSE_NO":"１６號","E_COORD97":172245.06,"N_COORD97":2564985.3599999999,"ADDRESS":"麻佳路一段１６號","OBJECTID":550952},"geometry":{"x":172245.05999999959,"y":2564985.3600000013}},{"attributes":{"ID":550980,"DIS_CODE":0,"TOWNNAME":"麻豆區","LI":"新建里","LIN":"10鄰","STREET":"麻佳路","SECT":"一段","MAREA":" ","LANE":" ","ALLEY":" ","HOUSE_NO":"１８號","E_COORD97":172239.85999999999,"N_COORD97":2564982.79,"ADDRESS":"麻佳路一段１８號","OBJECTID":550953},"geometry":{"x":172239.86000000034,"y":2564982.7899999991}},{"attributes":{"ID":550981,"DIS_CODE":0,"TOWNNAME":"麻豆區","LI":"新建里","LIN":"10鄰","STREET":"麻佳路","SECT":"一段","MAREA":" ","LANE":" ","ALLEY":" ","HOUSE_NO":"３５號","E_COORD97":172266.03,"N_COORD97":2564937.9700000002,"ADDRESS":"麻佳路一段３５號","OBJECTID":550954},"geometry":{"x":172266.03000000026,"y":2564937.9700000025}},{"attributes":{"ID":550982,"DIS_CODE":0,"TOWNNAME":"麻豆區","LI":"新建里","LIN":"10鄰","STREET":"麻佳路","SECT":"一段","MAREA":" ","LANE":" ","ALLEY":" ","HOUSE_NO":"３７號","E_COORD97":172261.64000000001,"N_COORD97":2564936.4100000001,"ADDRESS":"麻佳路一段３７號","OBJECTID":550955},"geometry":{"x":172261.63999999966,"y":2564936.4100000001}},{"attributes":{"ID":550983,"DIS_CODE":0,"TOWNNAME":"麻豆區","LI":"新建里","LIN":"10鄰","STREET":"麻佳路","SECT":"一段","MAREA":" ","LANE":" ","ALLEY":" ","HOUSE_NO":"３８號","E_COORD97":172218.17000000001,"N_COORD97":2564970.4199999999,"ADDRESS":"麻佳路一段３８號","OBJECTID":550956},"geometry":{"x":172218.17000000086,"y":2564970.4200000037}},{"attributes":{"ID":550984,"DIS_CODE":0,"TOWNNAME":"麻豆區","LI":"新建里","LIN":"10鄰","STREET":"麻佳路","SECT":"一段","MAREA":" ","LANE":" ","ALLEY":" ","HOUSE_NO":"３９號","E_COORD97":172257.23999999999,"N_COORD97":2564934.73,"ADDRESS":"麻佳路一段３９號","OBJECTID":550957},"geometry":{"x":172257.24000000115,"y":2564934.7300000004}},{"attributes":{"ID":550985,"DIS_CODE":0,"TOWNNAME":"麻豆區","LI":"新建里","LIN":"10鄰","STREET":"麻佳路","SECT":"一段","MAREA":" ","LANE":" ","ALLEY":" ","HOUSE_NO":"４０號","E_COORD97":172213.85000000001,"N_COORD97":2564968.4900000002,"ADDRESS":"麻佳路一段４０號","OBJECTID":550958},"geometry":{"x":172213.84999999963,"y":2564968.4900000021}},{"attributes":{"ID":550986,"DIS_CODE":0,"TOWNNAME":"麻豆區","LI":"新建里","LIN":"10鄰","STREET":"麻佳路","SECT":"一段","MAREA":" ","LANE":" ","ALLEY":" ","HOUSE_NO":"４１號","E_COORD97":172252.48000000001,"N_COORD97":2564933.27,"ADDRESS":"麻佳路一段４１號","OBJECTID":550959},"geometry":{"x":172252.48000000138,"y":2564933.2699999996}},{"attributes":{"ID":550987,"DIS_CODE":0,"TOWNNAME":"麻豆區","LI":"新建里","LIN":"10鄰","STREET":"麻佳路","SECT":"一段","MAREA":" ","LANE":" ","ALLEY":" ","HOUSE_NO":"４２號之１０","E_COORD97":172142.73999999999,"N_COORD97":2564982.7599999998,"ADDRESS":"麻佳路一段４２號之１０","OBJECTID":550960},"geometry":{"x":172142.74000000022,"y":2564982.7600000016}},{"attributes":{"ID":550988,"DIS_CODE":0,"TOWNNAME":"麻豆區","LI":"新建里","LIN":"10鄰","STREET":"麻佳路","SECT":"一段","MAREA":" ","LANE":" ","ALLEY":" ","HOUSE_NO":"４２號之１","E_COORD97":172160.84,"N_COORD97":2564959.3700000001,"ADDRESS":"麻佳路一段４２號之１","OBJECTID":550961},"geometry":{"x":172160.84000000078,"y":2564959.3700000029}},{"attributes":{"ID":550989,"DIS_CODE":0,"TOWNNAME":"麻豆區","LI":"新建里","LIN":"10鄰","STREET":"麻佳路","SECT":"一段","MAREA":" ","LANE":" ","ALLEY":" ","HOUSE_NO":"４２號","E_COORD97":172204.26000000001,"N_COORD97":2564974.9900000002,"ADDRESS":"麻佳路一段４２號","OBJECTID":550962},"geometry":{"x":172204.26000000071,"y":2564974.9900000021}},{"attributes":{"ID":550990,"DIS_CODE":0,"TOWNNAME":"麻豆區","LI":"新建里","LIN":"10鄰","STREET":"麻佳路","SECT":"一段","MAREA":" ","LANE":" ","ALLEY":" ","HOUSE_NO":"４３號","E_COORD97":172248.04999999999,"N_COORD97":2564931.3900000001,"ADDRESS":"麻佳路一段４３號","OBJECTID":550963},"geometry":{"x":172248.05000000075,"y":2564931.3900000025}},{"attributes":{"ID":550991,"DIS_CODE":0,"TOWNNAME":"麻豆區","LI":"新建里","LIN":"10鄰","STREET":"麻佳路","SECT":"一段","MAREA":" ","LANE":" ","ALLEY":" ","HOUSE_NO":"４５號","E_COORD97":172243.76000000001,"N_COORD97":2564929.6600000001,"ADDRESS":"麻佳路一段４５號","OBJECTID":550964},"geometry":{"x":172243.75999999978,"y":2564929.660000002}},{"attributes":{"ID":550992,"DIS_CODE":0,"TOWNNAME":"麻豆區","LI":"新建里","LIN":"10鄰","STREET":"麻佳路","SECT":"一段","MAREA":" ","LANE":" ","ALLEY":" ","HOUSE_NO":"４７號","E_COORD97":172238.56,"N_COORD97":2564927.6899999999,"ADDRESS":"麻佳路一段４７號","OBJECTID":550965},"geometry":{"x":172238.56000000145,"y":2564927.6900000032}},{"attributes":{"ID":550993,"DIS_CODE":0,"TOWNNAME":"麻豆區","LI":"新建里","LIN":"10鄰","STREET":"麻佳路","SECT":"一段","MAREA":" ","LANE":" ","ALLEY":" ","HOUSE_NO":"５１號","E_COORD97":172230.63,"N_COORD97":2564921.54,"ADDRESS":"麻佳路一段５１號","OBJECTID":550966},"geometry":{"x":172230.63000000082,"y":2564921.5400000028}},{"attributes":{"ID":550994,"DIS_CODE":0,"TOWNNAME":"麻豆區","LI":"新建里","LIN":"10鄰","STREET":"麻佳路","SECT":"一段","MAREA":" ","LANE":" ","ALLEY":" ","HOUSE_NO":"５３號之１","E_COORD97":172211.85999999999,"N_COORD97":2564912.2200000002,"ADDRESS":"麻佳路一段５３號之１","OBJECTID":550967},"geometry":{"x":172211.8600000022,"y":2564912.2200000025}},{"attributes":{"ID":550995,"DIS_CODE":0,"TOWNNAME":"麻豆區","LI":"新建里","LIN":"10鄰","STREET":"麻佳路","SECT":"一段","MAREA":" ","LANE":" ","ALLEY":" ","HOUSE_NO":"５３號","E_COORD97":172218.81,"N_COORD97":2564914.4100000001,"ADDRESS":"麻佳路一段５３號","OBJECTID":550968},"geometry":{"x":172218.81000000052,"y":2564914.410000002}},{"attributes":{"ID":550996,"DIS_CODE":0,"TOWNNAME":"麻豆區","LI":"新建里","LIN":"10鄰","STREET":"麻佳路","SECT":"一段","MAREA":" ","LANE":" ","ALLEY":" ","HOUSE_NO":"５５號","E_COORD97":172207.85000000001,"N_COORD97":2564910.8599999999,"ADDRESS":"麻佳路一段５５號","OBJECTID":550969},"geometry":{"x":172207.85000000149,"y":2564910.8600000013}},{"attributes":{"ID":550997,"DIS_CODE":0,"TOWNNAME":"麻豆區","LI":"新建里","LIN":"10鄰","STREET":"麻佳路","SECT":"一段","MAREA":" ","LANE":" ","ALLEY":" ","HOUSE_NO":"６１號","E_COORD97":172191.66,"N_COORD97":2564902.5499999998,"ADDRESS":"麻佳路一段６１號","OBJECTID":550970},"geometry":{"x":172191.66000000108,"y":2564902.5500000045}},{"attributes":{"ID":550998,"DIS_CODE":0,"TOWNNAME":"麻豆區","LI":"新建里","LIN":"10鄰","STREET":"麻佳路","SECT":"一段","MAREA":" ","LANE":" ","ALLEY":" ","HOUSE_NO":"６３號","E_COORD97":172179.98999999999,"N_COORD97":2564898,"ADDRESS":"麻佳路一段６３號","OBJECTID":550971},"geometry":{"x":172179.99000000022,"y":2564898}},{"attributes":{"ID":550999,"DIS_CODE":0,"TOWNNAME":"麻豆區","LI":"新建里","LIN":"10鄰","STREET":"麻佳路","SECT":"一段","MAREA":" ","LANE":" ","ALLEY":" ","HOUSE_NO":"６９號","E_COORD97":172172.79999999999,"N_COORD97":2564886.3100000001,"ADDRESS":"麻佳路一段６９號","OBJECTID":550972},"geometry":{"x":172172.80000000168,"y":2564886.3100000005}},{"attributes":{"ID":551000,"DIS_CODE":0,"TOWNNAME":"麻豆區","LI":"新建里","LIN":"10鄰","STREET":"麻佳路","SECT":"一段","MAREA":" ","LANE":" ","ALLEY":" ","HOUSE_NO":"７１號","E_COORD97":172168.04000000001,"N_COORD97":2564886.2799999998,"ADDRESS":"麻佳路一段７１號","OBJECTID":550973},"geometry":{"x":172168.0400000019,"y":2564886.2800000031}},{"attributes":{"ID":551001,"DIS_CODE":0,"TOWNNAME":"麻豆區","LI":"新建里","LIN":"10鄰","STREET":"麻佳路","SECT":"一段","MAREA":" ","LANE":" ","ALLEY":" ","HOUSE_NO":"７３號之１","E_COORD97":172158.28,"N_COORD97":2564843.3300000001,"ADDRESS":"麻佳路一段７３號之１","OBJECTID":550974},"geometry":{"x":172158.28000000119,"y":2564843.3300000019}},{"attributes":{"ID":551002,"DIS_CODE":0,"TOWNNAME":"麻豆區","LI":"新建里","LIN":"10鄰","STREET":"麻佳路","SECT":"一段","MAREA":" ","LANE":" ","ALLEY":" ","HOUSE_NO":"７３號","E_COORD97":172163.29000000001,"N_COORD97":2564886.25,"ADDRESS":"麻佳路一段７３號","OBJECTID":550975},"geometry":{"x":172163.29000000097,"y":2564886.25}},{"attributes":{"ID":551003,"DIS_CODE":0,"TOWNNAME":"麻豆區","LI":"新建里","LIN":"10鄰","STREET":"麻佳路","SECT":"一段","MAREA":" ","LANE":" ","ALLEY":" ","HOUSE_NO":"７９號","E_COORD97":172149.54000000001,"N_COORD97":2564879.5899999999,"ADDRESS":"麻佳路一段７９號","OBJECTID":550976},"geometry":{"x":172149.54000000097,"y":2564879.5899999999}},{"attributes":{"ID":551004,"DIS_CODE":0,"TOWNNAME":"麻豆區","LI":"新建里","LIN":"10鄰","STREET":"麻佳路","SECT":"一段","MAREA":" ","LANE":" ","ALLEY":" ","HOUSE_NO":"８０號之１４","E_COORD97":172144.63,"N_COORD97":2565011.5,"ADDRESS":"麻佳路一段８０號之１４","OBJECTID":550977},"geometry":{"x":172144.62999999989,"y":2565011.5000000019}},{"attributes":{"ID":551005,"DIS_CODE":0,"TOWNNAME":"麻豆區","LI":"新建里","LIN":"10鄰","STREET":"麻佳路","SECT":"一段","MAREA":" ","LANE":" ","ALLEY":" ","HOUSE_NO":"８０號之１５","E_COORD97":172141.72,"N_COORD97":2565002.21,"ADDRESS":"麻佳路一段８０號之１５","OBJECTID":550978},"geometry":{"x":172141.72000000067,"y":2565002.2100000009}},{"attributes":{"ID":551006,"DIS_CODE":0,"TOWNNAME":"麻豆區","LI":"新建里","LIN":"10鄰","STREET":"麻佳路","SECT":"一段","MAREA":" ","LANE":" ","ALLEY":" ","HOUSE_NO":"８０號之１７","E_COORD97":171991.32000000001,"N_COORD97":2565008.7799999998,"ADDRESS":"麻佳路一段８０號之１７","OBJECTID":550979},"geometry":{"x":171991.3200000003,"y":2565008.7800000012}},{"attributes":{"ID":551007,"DIS_CODE":0,"TOWNNAME":"安平區","LI":"平安里","LIN":"10鄰","STREET":"安平路","SECT":" ","MAREA":" ","LANE":" ","ALLEY":" ","HOUSE_NO":"４５０號","E_COORD97":165261.85999999999,"N_COORD97":2544325.9900000002,"ADDRESS":"安平路４５０號","OBJECTID":550980},"geometry":{"x":165261.86000000127,"y":2544325.9900000002}},{"attributes":{"ID":551008,"DIS_CODE":0,"TOWNNAME":"麻豆區","LI":"新建里","LIN":"10鄰","STREET":"麻佳路","SECT":"一段","MAREA":" ","LANE":" ","ALLEY":" ","HOUSE_NO":"８０號之１８","E_COORD97":171990.60000000001,"N_COORD97":2565013.9900000002,"ADDRESS":"麻佳路一段８０號之１８","OBJECTID":550981},"geometry":{"x":171990.59999999963,"y":2565013.9900000002}},{"attributes":{"ID":551009,"DIS_CODE":0,"TOWNNAME":"麻豆區","LI":"新建里","LIN":"10鄰","STREET":"麻佳路","SECT":"一段","MAREA":" ","LANE":" ","ALLEY":" ","HOUSE_NO":"８０號之１９","E_COORD97":172150.63,"N_COORD97":2565035.5299999998,"ADDRESS":"麻佳路一段８０號之１９","OBJECTID":550982},"geometry":{"x":172150.63000000082,"y":2565035.5299999993}},{"attributes":{"ID":551010,"DIS_CODE":0,"TOWNNAME":"麻豆區","LI":"新建里","LIN":"10鄰","STREET":"麻佳路","SECT":"一段","MAREA":" ","LANE":" ","ALLEY":" ","HOUSE_NO":"８４號之１","E_COORD97":172127.54999999999,"N_COORD97":2564915.8300000001,"ADDRESS":"麻佳路一段８４號之１","OBJECTID":550983},"geometry":{"x":172127.55000000075,"y":2564915.8300000001}},{"attributes":{"ID":551011,"DIS_CODE":0,"TOWNNAME":"麻豆區","LI":"新建里","LIN":"10鄰","STREET":"麻佳路","SECT":"一段","MAREA":" ","LANE":" ","ALLEY":" ","HOUSE_NO":"８４號之２","E_COORD97":172122.85999999999,"N_COORD97":2564915.7400000002,"ADDRESS":"麻佳路一段８４號之２","OBJECTID":550984},"geometry":{"x":172122.86000000127,"y":2564915.7400000021}},{"attributes":{"ID":551012,"DIS_CODE":0,"TOWNNAME":"麻豆區","LI":"新建里","LIN":"10鄰","STREET":"麻佳路","SECT":"一段","MAREA":" ","LANE":" ","ALLEY":" ","HOUSE_NO":"８４號","E_COORD97":172132.03,"N_COORD97":2564918.8300000001,"ADDRESS":"麻佳路一段８４號","OBJECTID":550985},"geometry":{"x":172132.03000000026,"y":2564918.8300000001}},{"attributes":{"ID":551013,"DIS_CODE":0,"TOWNNAME":"麻豆區","LI":"新建里","LIN":"10鄰","STREET":"麻佳路","SECT":"一段","MAREA":" ","LANE":" ","ALLEY":" ","HOUSE_NO":"８６號","E_COORD97":172118.16,"N_COORD97":2564915.6499999999,"ADDRESS":"麻佳路一段８６號","OBJECTID":550986},"geometry":{"x":172118.16000000201,"y":2564915.6500000022}},{"attributes":{"ID":551014,"DIS_CODE":0,"TOWNNAME":"麻豆區","LI":"新建里","LIN":"10鄰","STREET":"麻佳路","SECT":"一段","MAREA":" ","LANE":" ","ALLEY":" ","HOUSE_NO":"８７號之７","E_COORD97":172115.23999999999,"N_COORD97":2564858.7799999998,"ADDRESS":"麻佳路一段８７號之７","OBJECTID":550987},"geometry":{"x":172115.24000000022,"y":2564858.7800000031}},{"attributes":{"ID":551015,"DIS_CODE":0,"TOWNNAME":"麻豆區","LI":"新建里","LIN":"10鄰","STREET":"麻佳路","SECT":"一段","MAREA":" ","LANE":" ","ALLEY":" ","HOUSE_NO":"８８號","E_COORD97":172114.14000000001,"N_COORD97":2564912.52,"ADDRESS":"麻佳路一段８８號","OBJECTID":550988},"geometry":{"x":172114.13999999966,"y":2564912.5200000014}},{"attributes":{"ID":551016,"DIS_CODE":0,"TOWNNAME":"麻豆區","LI":"新建里","LIN":"10鄰","STREET":"麻佳路","SECT":"一段","MAREA":" ","LANE":" ","ALLEY":" ","HOUSE_NO":"９０號","E_COORD97":172109.19,"N_COORD97":2564912.3399999999,"ADDRESS":"麻佳路一段９０號","OBJECTID":550989},"geometry":{"x":172109.19000000041,"y":2564912.3399999999}},{"attributes":{"ID":551017,"DIS_CODE":0,"TOWNNAME":"麻豆區","LI":"新建里","LIN":"10鄰","STREET":"麻佳路","SECT":"一段","MAREA":" ","LANE":" ","ALLEY":" ","HOUSE_NO":"９２號之６","E_COORD97":172083.92999999999,"N_COORD97":2564896.5299999998,"ADDRESS":"麻佳路一段９２號之６","OBJECTID":550990},"geometry":{"x":172083.93000000063,"y":2564896.5299999993}},{"attributes":{"ID":551018,"DIS_CODE":0,"TOWNNAME":"麻豆區","LI":"新建里","LIN":"10鄰","STREET":"麻佳路","SECT":"一段","MAREA":" ","LANE":" ","ALLEY":" ","HOUSE_NO":"９２號","E_COORD97":172104.23999999999,"N_COORD97":2564912.1499999999,"ADDRESS":"麻佳路一段９２號","OBJECTID":550991},"geometry":{"x":172104.24000000115,"y":2564912.1500000022}},{"attributes":{"ID":551019,"DIS_CODE":0,"TOWNNAME":"麻豆區","LI":"新建里","LIN":"10鄰","STREET":"麻佳路","SECT":"一段","MAREA":" ","LANE":" ","ALLEY":" ","HOUSE_NO":"９５號","E_COORD97":172084.53,"N_COORD97":2564827.9100000001,"ADDRESS":"麻佳路一段９５號","OBJECTID":550992},"geometry":{"x":172084.53000000026,"y":2564827.9100000001}},{"attributes":{"ID":551020,"DIS_CODE":0,"TOWNNAME":"麻豆區","LI":"新建里","LIN":"10鄰","STREET":"麻佳路","SECT":"一段","MAREA":" ","LANE":" ","ALLEY":" ","HOUSE_NO":"９６號","E_COORD97":172095.44,"N_COORD97":2564900.5,"ADDRESS":"麻佳路一段９６號","OBJECTID":550993},"geometry":{"x":172095.44000000041,"y":2564900.5000000019}},{"attributes":{"ID":551021,"DIS_CODE":0,"TOWNNAME":"麻豆區","LI":"新建里","LIN":"10鄰","STREET":"麻學路","SECT":"一段","MAREA":" ","LANE":" ","ALLEY":" ","HOUSE_NO":"１１號","E_COORD97":172235.10999999999,"N_COORD97":2565024.8100000001,"ADDRESS":"麻學路一段１１號","OBJECTID":550994},"geometry":{"x":172235.11000000034,"y":2565024.8100000005}},{"attributes":{"ID":551022,"DIS_CODE":0,"TOWNNAME":"麻豆區","LI":"新建里","LIN":"10鄰","STREET":"麻學路","SECT":"一段","MAREA":" ","LANE":" ","ALLEY":" ","HOUSE_NO":"１２１號","E_COORD97":172004.19,"N_COORD97":2565156.54,"ADDRESS":"麻學路一段１２１號","OBJECTID":550995},"geometry":{"x":172004.19000000041,"y":2565156.540000001}},{"attributes":{"ID":551023,"DIS_CODE":0,"TOWNNAME":"麻豆區","LI":"新建里","LIN":"10鄰","STREET":"麻學路","SECT":"一段","MAREA":" ","LANE":" ","ALLEY":" ","HOUSE_NO":"１２３號","E_COORD97":171991.45999999999,"N_COORD97":2565159,"ADDRESS":"麻學路一段１２３號","OBJECTID":550996},"geometry":{"x":171991.45999999996,"y":2565159}},{"attributes":{"ID":551024,"DIS_CODE":0,"TOWNNAME":"麻豆區","LI":"新建里","LIN":"10鄰","STREET":"麻學路","SECT":"一段","MAREA":" ","LANE":" ","ALLEY":" ","HOUSE_NO":"１３號","E_COORD97":172231.37,"N_COORD97":2565027.6099999999,"ADDRESS":"麻學路一段１３號","OBJECTID":550997},"geometry":{"x":172231.37000000011,"y":2565027.6100000013}},{"attributes":{"ID":551025,"DIS_CODE":0,"TOWNNAME":"北區","LI":"玉皇里","LIN":"10鄰","STREET":"佑民街","SECT":" ","MAREA":" ","LANE":" ","ALLEY":" ","HOUSE_NO":"７３號","E_COORD97":168647.41,"N_COORD97":2544473.6099999999,"ADDRESS":"佑民街７３號","OBJECTID":550998},"geometry":{"x":168647.41000000015,"y":2544473.6099999975}},{"attributes":{"ID":551026,"DIS_CODE":0,"TOWNNAME":"北區","LI":"玉皇里","LIN":"10鄰","STREET":"佑民街","SECT":" ","MAREA":" ","LANE":" ","ALLEY":" ","HOUSE_NO":"７５號","E_COORD97":168651.94,"N_COORD97":2544475.3199999998,"ADDRESS":"佑民街７５號","OBJECTID":550999},"geometry":{"x":168651.94000000134,"y":2544475.3200000003}},{"attributes":{"ID":551027,"DIS_CODE":0,"TOWNNAME":"北區","LI":"大山里","LIN":"10鄰","STREET":"精忠街","SECT":" ","MAREA":" ","LANE":" ","ALLEY":" ","HOUSE_NO":"１０４號","E_COORD97":169327.42000000001,"N_COORD97":2545537.21,"ADDRESS":"精忠街１０４號","OBJECTID":551000},"geometry":{"x":169327.41999999899,"y":2545537.2100000028}}]}