{"displayFieldName":"TOWNNAME","fieldAliases":{"ID":"ID","DIS_CODE":"DIS_CODE","TOWNNAME":"TOWNNAME","LI":"LI","LIN":"LIN","STREET":"STREET","SECT":"SECT","MAREA":"MAREA","LANE":"LANE","ALLEY":"ALLEY","HOUSE_NO":"HOUSE_NO","E_COORD97":"E_COORD97","N_COORD97":"N_COORD97","ADDRESS":"ADDRESS","OBJECTID":"OBJECTID"},"geometryType":"esriGeometryPoint","spatialReference":{"wkid":102443,"latestWkid":3826},"fields":[{"name":"ID","type":"esriFieldTypeDouble","alias":"ID"},{"name":"DIS_CODE","type":"esriFieldTypeInteger","alias":"DIS_CODE"},{"name":"TOWNNAME","type":"esriFieldTypeString","alias":"TOWNNAME","length":8},{"name":"LI","type":"esriFieldTypeString","alias":"LI","length":8},{"name":"LIN","type":"esriFieldTypeString","alias":"LIN","length":12},{"name":"STREET","type":"esriFieldTypeString","alias":"STREET","length":20},{"name":"SECT","type":"esriFieldTypeString","alias":"SECT","length":8},{"name":"MAREA","type":"esriFieldTypeString","alias":"MAREA","length":12},{"name":"LANE","type":"esriFieldTypeString","alias":"LANE","length":10},{"name":"ALLEY","type":"esriFieldTypeString","alias":"ALLEY","length":10},{"name":"HOUSE_NO","type":"esriFieldTypeString","alias":"HOUSE_NO","length":20},{"name":"E_COORD97","type":"esriFieldTypeDouble","alias":"E_COORD97"},{"name":"N_COORD97","type":"esriFieldTypeDouble","alias":"N_COORD97"},{"name":"ADDRESS","type":"esriFieldTypeString","alias":"ADDRESS","length":50},{"name":"OBJECTID","type":"esriFieldTypeOID","alias":"OBJECTID"}],"features":[{"attributes":{"ID":338010,"DIS_CODE":0,"TOWNNAME":"學甲區","LI":"仁得里","LIN":"1鄰","STREET":"自強路","SECT":" ","MAREA":" ","LANE":"７巷","ALLEY":" ","HOUSE_NO":"５號","E_COORD97":166345.91,"N_COORD97":2569799.0600000001,"ADDRESS":"自強路７巷５號","OBJECTID":338001},"geometry":{"x":166345.91000000201,"y":2569799.0600000024}},{"attributes":{"ID":338011,"DIS_CODE":0,"TOWNNAME":"學甲區","LI":"仁得里","LIN":"1鄰","STREET":"自強路","SECT":" ","MAREA":" ","LANE":"７巷","ALLEY":" ","HOUSE_NO":"６號","E_COORD97":166327.95999999999,"N_COORD97":2569796.1800000002,"ADDRESS":"自強路７巷６號","OBJECTID":338002},"geometry":{"x":166327.95999999996,"y":2569796.1799999978}},{"attributes":{"ID":338012,"DIS_CODE":0,"TOWNNAME":"學甲區","LI":"仁得里","LIN":"1鄰","STREET":"自強路","SECT":" ","MAREA":" ","LANE":"７巷","ALLEY":" ","HOUSE_NO":"７號","E_COORD97":166346.16,"N_COORD97":2569794.7200000002,"ADDRESS":"自強路７巷７號","OBJECTID":338003},"geometry":{"x":166346.16000000108,"y":2569794.7200000025}},{"attributes":{"ID":338013,"DIS_CODE":0,"TOWNNAME":"學甲區","LI":"仁得里","LIN":"1鄰","STREET":"自強路","SECT":" ","MAREA":" ","LANE":"７巷","ALLEY":" ","HOUSE_NO":"８號","E_COORD97":166328.35000000001,"N_COORD97":2569791.4500000002,"ADDRESS":"自強路７巷８號","OBJECTID":338004},"geometry":{"x":166328.34999999963,"y":2569791.4500000011}},{"attributes":{"ID":338014,"DIS_CODE":0,"TOWNNAME":"安南區","LI":"溪頂里","LIN":"8鄰","STREET":"惠安街","SECT":" ","MAREA":" ","LANE":" ","ALLEY":" ","HOUSE_NO":"５３之１號","E_COORD97":168997.81,"N_COORD97":2547467.9199999999,"ADDRESS":"惠安街５３之１號","OBJECTID":338005},"geometry":{"x":168997.81000000052,"y":2547467.9199999999}},{"attributes":{"ID":338015,"DIS_CODE":0,"TOWNNAME":"安南區","LI":"公親里","LIN":"8鄰","STREET":"公學路","SECT":"一段","MAREA":" ","LANE":" ","ALLEY":" ","HOUSE_NO":"１３９號","E_COORD97":168218.98999999999,"N_COORD97":2553024.3599999999,"ADDRESS":"公學路一段１３９號","OBJECTID":338006},"geometry":{"x":168218.99000000115,"y":2553024.3599999994}},{"attributes":{"ID":338016,"DIS_CODE":0,"TOWNNAME":"安南區","LI":"公親里","LIN":"8鄰","STREET":"公學路","SECT":"一段","MAREA":" ","LANE":" ","ALLEY":" ","HOUSE_NO":"１４５號","E_COORD97":168185.92000000001,"N_COORD97":2553037.96,"ADDRESS":"公學路一段１４５號","OBJECTID":338007},"geometry":{"x":168185.91999999993,"y":2553037.9600000028}},{"attributes":{"ID":338017,"DIS_CODE":0,"TOWNNAME":"安南區","LI":"城北里","LIN":"8鄰","STREET":"安中路","SECT":"六段","MAREA":" ","LANE":" ","ALLEY":" ","HOUSE_NO":"２１３號之２","E_COORD97":161552.92999999999,"N_COORD97":2551260.1000000001,"ADDRESS":"安中路六段２１３號之２","OBJECTID":338008},"geometry":{"x":161552.92999999877,"y":2551260.0999999996}},{"attributes":{"ID":338018,"DIS_CODE":0,"TOWNNAME":"安南區","LI":"國安里","LIN":"5鄰","STREET":"國安街","SECT":" ","MAREA":" ","LANE":"１５６巷","ALLEY":" ","HOUSE_NO":"１８１號","E_COORD97":166642.31,"N_COORD97":2547466.3199999998,"ADDRESS":"國安街１５６巷１８１號","OBJECTID":338009},"geometry":{"x":166642.30999999959,"y":2547466.3200000003}},{"attributes":{"ID":338019,"DIS_CODE":0,"TOWNNAME":"安南區","LI":"國安里","LIN":"5鄰","STREET":"國安街","SECT":" ","MAREA":" ","LANE":"１５６巷","ALLEY":" ","HOUSE_NO":"１８３號","E_COORD97":166641.42000000001,"N_COORD97":2547472.48,"ADDRESS":"國安街１５６巷１８３號","OBJECTID":338010},"geometry":{"x":166641.42000000086,"y":2547472.4800000004}},{"attributes":{"ID":338020,"DIS_CODE":0,"TOWNNAME":"安南區","LI":"國安里","LIN":"5鄰","STREET":"國安街","SECT":" ","MAREA":" ","LANE":"１５６巷","ALLEY":" ","HOUSE_NO":"１８７號","E_COORD97":166638.94,"N_COORD97":2547485.0499999998,"ADDRESS":"國安街１５６巷１８７號","OBJECTID":338011},"geometry":{"x":166638.94000000041,"y":2547485.0500000007}},{"attributes":{"ID":338021,"DIS_CODE":0,"TOWNNAME":"安南區","LI":"國安里","LIN":"5鄰","STREET":"國安街","SECT":" ","MAREA":" ","LANE":"１５６巷","ALLEY":" ","HOUSE_NO":"１８９號","E_COORD97":166638.17999999999,"N_COORD97":2547492.1000000001,"ADDRESS":"國安街１５６巷１８９號","OBJECTID":338012},"geometry":{"x":166638.1799999997,"y":2547492.1000000015}},{"attributes":{"ID":338022,"DIS_CODE":0,"TOWNNAME":"學甲區","LI":"仁得里","LIN":"1鄰","STREET":"自強路","SECT":" ","MAREA":" ","LANE":"７巷","ALLEY":" ","HOUSE_NO":"９號","E_COORD97":166346.85000000001,"N_COORD97":2569790.5099999998,"ADDRESS":"自強路７巷９號","OBJECTID":338013},"geometry":{"x":166346.84999999963,"y":2569790.5099999998}},{"attributes":{"ID":338023,"DIS_CODE":0,"TOWNNAME":"學甲區","LI":"仁得里","LIN":"1鄰","STREET":"建國路","SECT":" ","MAREA":" ","LANE":"５５巷","ALLEY":" ","HOUSE_NO":"３號之１","E_COORD97":166137.48000000001,"N_COORD97":2569956.3900000001,"ADDRESS":"建國路５５巷３號之１","OBJECTID":338014},"geometry":{"x":166137.48000000138,"y":2569956.3900000025}},{"attributes":{"ID":338024,"DIS_CODE":0,"TOWNNAME":"學甲區","LI":"仁得里","LIN":"1鄰","STREET":"建國路","SECT":" ","MAREA":" ","LANE":"５５巷","ALLEY":" ","HOUSE_NO":"３號之２","E_COORD97":166141.75,"N_COORD97":2569955.52,"ADDRESS":"建國路５５巷３號之２","OBJECTID":338015},"geometry":{"x":166141.75000000186,"y":2569955.5199999996}},{"attributes":{"ID":338025,"DIS_CODE":0,"TOWNNAME":"學甲區","LI":"仁得里","LIN":"1鄰","STREET":"建國路","SECT":" ","MAREA":" ","LANE":"５５巷","ALLEY":" ","HOUSE_NO":"３號之３","E_COORD97":166146.20000000001,"N_COORD97":2569954.4399999999,"ADDRESS":"建國路５５巷３號之３","OBJECTID":338016},"geometry":{"x":166146.20000000112,"y":2569954.4400000013}},{"attributes":{"ID":338026,"DIS_CODE":0,"TOWNNAME":"學甲區","LI":"仁得里","LIN":"1鄰","STREET":"建國路","SECT":" ","MAREA":" ","LANE":"５５巷","ALLEY":" ","HOUSE_NO":"３號之４","E_COORD97":166150.22,"N_COORD97":2569953.6600000001,"ADDRESS":"建國路５５巷３號之４","OBJECTID":338017},"geometry":{"x":166150.2200000016,"y":2569953.660000002}},{"attributes":{"ID":338027,"DIS_CODE":0,"TOWNNAME":"學甲區","LI":"仁得里","LIN":"1鄰","STREET":"建國路","SECT":" ","MAREA":" ","LANE":"５５巷","ALLEY":" ","HOUSE_NO":"３號之５","E_COORD97":166154.89000000001,"N_COORD97":2569953.54,"ADDRESS":"建國路５５巷３號之５","OBJECTID":338018},"geometry":{"x":166154.88999999966,"y":2569953.540000001}},{"attributes":{"ID":338028,"DIS_CODE":0,"TOWNNAME":"學甲區","LI":"仁得里","LIN":"1鄰","STREET":"建國路","SECT":" ","MAREA":" ","LANE":"５５巷","ALLEY":" ","HOUSE_NO":"３號之６","E_COORD97":166158.82000000001,"N_COORD97":2569953.1600000001,"ADDRESS":"建國路５５巷３號之６","OBJECTID":338019},"geometry":{"x":166158.82000000123,"y":2569953.1600000039}},{"attributes":{"ID":338029,"DIS_CODE":0,"TOWNNAME":"學甲區","LI":"仁得里","LIN":"1鄰","STREET":"建國路","SECT":" ","MAREA":" ","LANE":"５５巷","ALLEY":" ","HOUSE_NO":"３號","E_COORD97":166133.72,"N_COORD97":2569957.5899999999,"ADDRESS":"建國路５５巷３號","OBJECTID":338020},"geometry":{"x":166133.72000000067,"y":2569957.5900000017}},{"attributes":{"ID":338030,"DIS_CODE":0,"TOWNNAME":"學甲區","LI":"仁得里","LIN":"1鄰","STREET":"建國路","SECT":" ","MAREA":" ","LANE":"５５巷","ALLEY":" ","HOUSE_NO":"６號之１","E_COORD97":166124.94,"N_COORD97":2569980.0600000001,"ADDRESS":"建國路５５巷６號之１","OBJECTID":338021},"geometry":{"x":166124.94000000041,"y":2569980.0600000005}},{"attributes":{"ID":338031,"DIS_CODE":0,"TOWNNAME":"學甲區","LI":"仁得里","LIN":"1鄰","STREET":"建國路","SECT":" ","MAREA":" ","LANE":"５５巷","ALLEY":" ","HOUSE_NO":"６號之２","E_COORD97":166120.25,"N_COORD97":2569980.9300000002,"ADDRESS":"建國路５５巷６號之２","OBJECTID":338022},"geometry":{"x":166120.25000000093,"y":2569980.9299999978}},{"attributes":{"ID":338032,"DIS_CODE":0,"TOWNNAME":"學甲區","LI":"仁得里","LIN":"1鄰","STREET":"建國路","SECT":" ","MAREA":" ","LANE":"５５巷","ALLEY":" ","HOUSE_NO":"６號之３","E_COORD97":166115.92000000001,"N_COORD97":2569981.5099999998,"ADDRESS":"建國路５５巷６號之３","OBJECTID":338023},"geometry":{"x":166115.92000000086,"y":2569981.5100000016}},{"attributes":{"ID":338033,"DIS_CODE":0,"TOWNNAME":"學甲區","LI":"仁得里","LIN":"1鄰","STREET":"建國路","SECT":" ","MAREA":" ","LANE":"５５巷","ALLEY":" ","HOUSE_NO":"６號之４","E_COORD97":166111.92000000001,"N_COORD97":2569982.5299999998,"ADDRESS":"建國路５５巷６號之４","OBJECTID":338024},"geometry":{"x":166111.92000000086,"y":2569982.5299999993}},{"attributes":{"ID":338034,"DIS_CODE":0,"TOWNNAME":"學甲區","LI":"仁得里","LIN":"1鄰","STREET":"建國路","SECT":" ","MAREA":" ","LANE":"５５巷","ALLEY":" ","HOUSE_NO":"６號之５","E_COORD97":166108.14000000001,"N_COORD97":2569983.3900000001,"ADDRESS":"建國路５５巷６號之５","OBJECTID":338025},"geometry":{"x":166108.13999999873,"y":2569983.3900000025}},{"attributes":{"ID":338035,"DIS_CODE":0,"TOWNNAME":"學甲區","LI":"仁得里","LIN":"1鄰","STREET":"建國路","SECT":" ","MAREA":" ","LANE":"５５巷","ALLEY":" ","HOUSE_NO":"６號之６","E_COORD97":166103.88,"N_COORD97":2569984.21,"ADDRESS":"建國路５５巷６號之６","OBJECTID":338026},"geometry":{"x":166103.88000000082,"y":2569984.2100000028}},{"attributes":{"ID":338036,"DIS_CODE":0,"TOWNNAME":"學甲區","LI":"仁得里","LIN":"1鄰","STREET":"建國路","SECT":" ","MAREA":" ","LANE":"５５巷","ALLEY":" ","HOUSE_NO":"６號","E_COORD97":166128.73000000001,"N_COORD97":2569979.3999999999,"ADDRESS":"建國路５５巷６號","OBJECTID":338027},"geometry":{"x":166128.72999999952,"y":2569979.4000000022}},{"attributes":{"ID":338037,"DIS_CODE":0,"TOWNNAME":"學甲區","LI":"仁得里","LIN":"1鄰","STREET":"建國路","SECT":" ","MAREA":" ","LANE":"５５巷","ALLEY":" ","HOUSE_NO":"７號之１","E_COORD97":166118.01000000001,"N_COORD97":2569961.5499999998,"ADDRESS":"建國路５５巷７號之１","OBJECTID":338028},"geometry":{"x":166118.01000000071,"y":2569961.5500000026}},{"attributes":{"ID":338038,"DIS_CODE":0,"TOWNNAME":"學甲區","LI":"仁得里","LIN":"1鄰","STREET":"建國路","SECT":" ","MAREA":" ","LANE":"５５巷","ALLEY":" ","HOUSE_NO":"７號之２","E_COORD97":166113.87,"N_COORD97":2569961.9900000002,"ADDRESS":"建國路５５巷７號之２","OBJECTID":338029},"geometry":{"x":166113.86999999918,"y":2569961.9900000021}},{"attributes":{"ID":338039,"DIS_CODE":0,"TOWNNAME":"學甲區","LI":"仁得里","LIN":"1鄰","STREET":"建國路","SECT":" ","MAREA":" ","LANE":"５５巷","ALLEY":" ","HOUSE_NO":"７號之３","E_COORD97":166109.51000000001,"N_COORD97":2569962.96,"ADDRESS":"建國路５５巷７號之３","OBJECTID":338030},"geometry":{"x":166109.51000000071,"y":2569962.9600000028}},{"attributes":{"ID":338040,"DIS_CODE":0,"TOWNNAME":"學甲區","LI":"仁得里","LIN":"1鄰","STREET":"建國路","SECT":" ","MAREA":" ","LANE":"５５巷","ALLEY":" ","HOUSE_NO":"７號之４","E_COORD97":166105.48000000001,"N_COORD97":2569964.21,"ADDRESS":"建國路５５巷７號之４","OBJECTID":338031},"geometry":{"x":166105.48000000138,"y":2569964.2100000028}},{"attributes":{"ID":338041,"DIS_CODE":0,"TOWNNAME":"學甲區","LI":"仁得里","LIN":"1鄰","STREET":"建國路","SECT":" ","MAREA":" ","LANE":"５５巷","ALLEY":" ","HOUSE_NO":"７號之５","E_COORD97":166101.51999999999,"N_COORD97":2569965.1899999999,"ADDRESS":"建國路５５巷７號之５","OBJECTID":338032},"geometry":{"x":166101.51999999955,"y":2569965.1899999995}},{"attributes":{"ID":338042,"DIS_CODE":0,"TOWNNAME":"學甲區","LI":"仁得里","LIN":"1鄰","STREET":"建國路","SECT":" ","MAREA":" ","LANE":"５５巷","ALLEY":" ","HOUSE_NO":"７號之６","E_COORD97":166097.38,"N_COORD97":2569965.8900000001,"ADDRESS":"建國路５５巷７號之６","OBJECTID":338033},"geometry":{"x":166097.38000000082,"y":2569965.8900000025}},{"attributes":{"ID":338043,"DIS_CODE":0,"TOWNNAME":"學甲區","LI":"仁得里","LIN":"1鄰","STREET":"建國路","SECT":" ","MAREA":" ","LANE":"５５巷","ALLEY":" ","HOUSE_NO":"７號","E_COORD97":166121.88,"N_COORD97":2569960.3700000001,"ADDRESS":"建國路５５巷７號","OBJECTID":338034},"geometry":{"x":166121.87999999989,"y":2569960.3700000029}},{"attributes":{"ID":338044,"DIS_CODE":0,"TOWNNAME":"北區","LI":"正風里","LIN":"1鄰","STREET":"公園路","SECT":" ","MAREA":" ","LANE":"８６２巷","ALLEY":" ","HOUSE_NO":"１號","E_COORD97":169305.04999999999,"N_COORD97":2546037.5699999998,"ADDRESS":"公園路８６２巷１號","OBJECTID":338035},"geometry":{"x":169305.05000000075,"y":2546037.5700000003}},{"attributes":{"ID":338045,"DIS_CODE":0,"TOWNNAME":"安南區","LI":"溪頂里","LIN":"8鄰","STREET":"惠安街","SECT":" ","MAREA":" ","LANE":" ","ALLEY":" ","HOUSE_NO":"６９號","E_COORD97":168938.39999999999,"N_COORD97":2547467.3399999999,"ADDRESS":"惠安街６９號","OBJECTID":338036},"geometry":{"x":168938.4000000013,"y":2547467.3400000017}},{"attributes":{"ID":338046,"DIS_CODE":0,"TOWNNAME":"安南區","LI":"溪頂里","LIN":"8鄰","STREET":"惠安街","SECT":" ","MAREA":" ","LANE":" ","ALLEY":" ","HOUSE_NO":"５７號","E_COORD97":168989.51999999999,"N_COORD97":2547467.9199999999,"ADDRESS":"惠安街５７號","OBJECTID":338037},"geometry":{"x":168989.52000000048,"y":2547467.9199999999}},{"attributes":{"ID":338047,"DIS_CODE":0,"TOWNNAME":"安南區","LI":"溪頂里","LIN":"8鄰","STREET":"惠安街","SECT":" ","MAREA":" ","LANE":" ","ALLEY":" ","HOUSE_NO":"７１號","E_COORD97":168929.92000000001,"N_COORD97":2547467.25,"ADDRESS":"惠安街７１號","OBJECTID":338038},"geometry":{"x":168929.92000000086,"y":2547467.2500000037}},{"attributes":{"ID":338048,"DIS_CODE":0,"TOWNNAME":"安南區","LI":"公親里","LIN":"8鄰","STREET":"公學路","SECT":"一段","MAREA":" ","LANE":" ","ALLEY":" ","HOUSE_NO":"１６２號","E_COORD97":168156.07999999999,"N_COORD97":2553078.1200000001,"ADDRESS":"公學路一段１６２號","OBJECTID":338039},"geometry":{"x":168156.08000000007,"y":2553078.1200000029}},{"attributes":{"ID":338049,"DIS_CODE":0,"TOWNNAME":"安南區","LI":"公親里","LIN":"8鄰","STREET":"公學路","SECT":"一段","MAREA":" ","LANE":" ","ALLEY":" ","HOUSE_NO":"１６７號","E_COORD97":168121.10999999999,"N_COORD97":2553051.5600000001,"ADDRESS":"公學路一段１６７號","OBJECTID":338040},"geometry":{"x":168121.11000000034,"y":2553051.5600000005}},{"attributes":{"ID":338050,"DIS_CODE":0,"TOWNNAME":"安南區","LI":"城東里","LIN":"5鄰","STREET":"城北路","SECT":" ","MAREA":" ","LANE":"１３８巷","ALLEY":" ","HOUSE_NO":"１５號","E_COORD97":161058.34,"N_COORD97":2551673.1899999999,"ADDRESS":"城北路１３８巷１５號","OBJECTID":338041},"geometry":{"x":161058.33999999985,"y":2551673.1899999995}},{"attributes":{"ID":338051,"DIS_CODE":0,"TOWNNAME":"安南區","LI":"\u25A0南里","LIN":"5鄰","STREET":"安昌街","SECT":" ","MAREA":" ","LANE":"８５巷","ALLEY":" ","HOUSE_NO":"１２８號","E_COORD97":169934.04000000001,"N_COORD97":2552488.8999999999,"ADDRESS":"安昌街８５巷１２８號","OBJECTID":338042},"geometry":{"x":169934.04000000097,"y":2552488.9000000022}},{"attributes":{"ID":338052,"DIS_CODE":0,"TOWNNAME":"安南區","LI":"布袋里","LIN":"5鄰","STREET":"長和路","SECT":"四段","MAREA":" ","LANE":"２５３巷","ALLEY":" ","HOUSE_NO":"８８號","E_COORD97":168539.60000000001,"N_COORD97":2551539.0299999998,"ADDRESS":"長和路四段２５３巷８８號","OBJECTID":338043},"geometry":{"x":168539.60000000056,"y":2551539.0299999993}},{"attributes":{"ID":338053,"DIS_CODE":0,"TOWNNAME":"安南區","LI":"布袋里","LIN":"5鄰","STREET":"長和路","SECT":"四段","MAREA":" ","LANE":"２５３巷","ALLEY":" ","HOUSE_NO":"３３０號","E_COORD97":168181.45999999999,"N_COORD97":2551624.6299999999,"ADDRESS":"長和路四段２５３巷３３０號","OBJECTID":338044},"geometry":{"x":168181.46000000183,"y":2551624.6300000008}},{"attributes":{"ID":338054,"DIS_CODE":0,"TOWNNAME":"安南區","LI":"公\u25A0里","LIN":"5鄰","STREET":"安興街","SECT":" ","MAREA":" ","LANE":"１０５巷","ALLEY":" ","HOUSE_NO":"１６號","E_COORD97":164206.5,"N_COORD97":2552143.3300000001,"ADDRESS":"安興街１０５巷１６號","OBJECTID":338045},"geometry":{"x":164206.50000000093,"y":2552143.3300000019}},{"attributes":{"ID":338055,"DIS_CODE":0,"TOWNNAME":"安南區","LI":"城北里","LIN":"5鄰","STREET":"安中路","SECT":"六段","MAREA":" ","LANE":"５５４巷","ALLEY":" ","HOUSE_NO":"１７之２號","E_COORD97":160911.44,"N_COORD97":2551432.7599999998,"ADDRESS":"安中路六段５５４巷１７之２號","OBJECTID":338046},"geometry":{"x":160911.44000000134,"y":2551432.7599999998}},{"attributes":{"ID":338056,"DIS_CODE":0,"TOWNNAME":"安南區","LI":"城北里","LIN":"5鄰","STREET":"安中路","SECT":"六段","MAREA":" ","LANE":"５５４巷","ALLEY":" ","HOUSE_NO":"１７之６號","E_COORD97":160930.48999999999,"N_COORD97":2551438.9500000002,"ADDRESS":"安中路六段５５４巷１７之６號","OBJECTID":338047},"geometry":{"x":160930.49000000022,"y":2551438.9500000011}},{"attributes":{"ID":338057,"DIS_CODE":0,"TOWNNAME":"安南區","LI":"原佃里","LIN":"5鄰","STREET":"本原街","SECT":"一段","MAREA":" ","LANE":"２６２巷","ALLEY":" ","HOUSE_NO":"８０號","E_COORD97":167788.42999999999,"N_COORD97":2550851.52,"ADDRESS":"本原街一段２６２巷８０號","OBJECTID":338048},"geometry":{"x":167788.43000000063,"y":2550851.5199999996}},{"attributes":{"ID":338058,"DIS_CODE":0,"TOWNNAME":"安南區","LI":"城南里","LIN":"5鄰","STREET":"城西街","SECT":"一段","MAREA":" ","LANE":"２１５巷","ALLEY":" ","HOUSE_NO":"１５之３號","E_COORD97":160483.76999999999,"N_COORD97":2551215.0699999998,"ADDRESS":"城西街一段２１５巷１５之３號","OBJECTID":338049},"geometry":{"x":160483.76999999955,"y":2551215.070000004}},{"attributes":{"ID":338059,"DIS_CODE":0,"TOWNNAME":"安南區","LI":"安慶里","LIN":"5鄰","STREET":"怡安路","SECT":"一段","MAREA":" ","LANE":"２６２巷","ALLEY":" ","HOUSE_NO":"３８號之１","E_COORD97":169095.09,"N_COORD97":2549205.6099999999,"ADDRESS":"怡安路一段２６２巷３８號之１","OBJECTID":338050},"geometry":{"x":169095.08999999985,"y":2549205.6099999994}},{"attributes":{"ID":338060,"DIS_CODE":0,"TOWNNAME":"北區","LI":"正覺里","LIN":"1鄰","STREET":"公園路","SECT":" ","MAREA":" ","LANE":"５９３巷","ALLEY":" ","HOUSE_NO":"２０號之１","E_COORD97":169103.04000000001,"N_COORD97":2546027.1000000001,"ADDRESS":"公園路５９３巷２０號之１","OBJECTID":338051},"geometry":{"x":169103.0400000019,"y":2546027.1000000034}},{"attributes":{"ID":338061,"DIS_CODE":0,"TOWNNAME":"安南區","LI":"公親里","LIN":"8鄰","STREET":"公學路","SECT":"一段","MAREA":" ","LANE":" ","ALLEY":" ","HOUSE_NO":"１８６號","E_COORD97":168088.04000000001,"N_COORD97":2553074.6800000002,"ADDRESS":"公學路一段１８６號","OBJECTID":338052},"geometry":{"x":168088.04000000097,"y":2553074.6799999997}},{"attributes":{"ID":338062,"DIS_CODE":0,"TOWNNAME":"安南區","LI":"公親里","LIN":"8鄰","STREET":"公學路","SECT":"一段","MAREA":" ","LANE":" ","ALLEY":" ","HOUSE_NO":"１８８號","E_COORD97":168088.69,"N_COORD97":2553093.4700000002,"ADDRESS":"公學路一段１８８號","OBJECTID":338053},"geometry":{"x":168088.69000000227,"y":2553093.4700000007}},{"attributes":{"ID":338063,"DIS_CODE":0,"TOWNNAME":"安南區","LI":"溪頂里","LIN":"8鄰","STREET":"惠安街","SECT":" ","MAREA":" ","LANE":" ","ALLEY":" ","HOUSE_NO":"６１號","E_COORD97":168972.85000000001,"N_COORD97":2547467.54,"ADDRESS":"惠安街６１號","OBJECTID":338054},"geometry":{"x":168972.84999999963,"y":2547467.5400000028}},{"attributes":{"ID":338064,"DIS_CODE":0,"TOWNNAME":"安南區","LI":"溪頂里","LIN":"8鄰","STREET":"惠安街","SECT":" ","MAREA":" ","LANE":" ","ALLEY":" ","HOUSE_NO":"７５號","E_COORD97":168912.63,"N_COORD97":2547466.75,"ADDRESS":"惠安街７５號","OBJECTID":338055},"geometry":{"x":168912.63000000082,"y":2547466.75}},{"attributes":{"ID":338065,"DIS_CODE":0,"TOWNNAME":"安南區","LI":"溪頂里","LIN":"8鄰","STREET":"惠安街","SECT":" ","MAREA":" ","LANE":" ","ALLEY":" ","HOUSE_NO":"７７號","E_COORD97":168904.44,"N_COORD97":2547466.6600000001,"ADDRESS":"惠安街７７號","OBJECTID":338056},"geometry":{"x":168904.44000000134,"y":2547466.6600000001}},{"attributes":{"ID":338066,"DIS_CODE":0,"TOWNNAME":"安南區","LI":"溪頂里","LIN":"8鄰","STREET":"惠安街","SECT":" ","MAREA":" ","LANE":" ","ALLEY":" ","HOUSE_NO":"７９號","E_COORD97":168896.04999999999,"N_COORD97":2547466.6600000001,"ADDRESS":"惠安街７９號","OBJECTID":338057},"geometry":{"x":168896.05000000168,"y":2547466.6600000001}},{"attributes":{"ID":338067,"DIS_CODE":0,"TOWNNAME":"安南區","LI":"溪頂里","LIN":"8鄰","STREET":"惠安街","SECT":" ","MAREA":" ","LANE":" ","ALLEY":" ","HOUSE_NO":"８１號","E_COORD97":168887.28,"N_COORD97":2547466.4700000002,"ADDRESS":"惠安街８１號","OBJECTID":338058},"geometry":{"x":168887.28000000026,"y":2547466.4700000044}},{"attributes":{"ID":338068,"DIS_CODE":0,"TOWNNAME":"安南區","LI":"溪頂里","LIN":"8鄰","STREET":"惠安街","SECT":" ","MAREA":" ","LANE":" ","ALLEY":" ","HOUSE_NO":"８３號","E_COORD97":168878.85999999999,"N_COORD97":2547466.9399999999,"ADDRESS":"惠安街８３號","OBJECTID":338059},"geometry":{"x":168878.86000000034,"y":2547466.9400000013}},{"attributes":{"ID":338069,"DIS_CODE":0,"TOWNNAME":"永康區","LI":"王行里","LIN":"8鄰","STREET":"王行路","SECT":" ","MAREA":" ","LANE":" ","ALLEY":" ","HOUSE_NO":"３６１號","E_COORD97":175405.29000000001,"N_COORD97":2548583.1800000002,"ADDRESS":"王行路３６１號","OBJECTID":338060},"geometry":{"x":175405.29000000004,"y":2548583.1800000016}},{"attributes":{"ID":338070,"DIS_CODE":0,"TOWNNAME":"永康區","LI":"二王里","LIN":"8鄰","STREET":"中山南路","SECT":" ","MAREA":" ","LANE":" ","ALLEY":" ","HOUSE_NO":"８１６號","E_COORD97":172830.51999999999,"N_COORD97":2546806.04,"ADDRESS":"中山南路８１６號","OBJECTID":338061},"geometry":{"x":172830.52000000142,"y":2546806.0399999991}},{"attributes":{"ID":338071,"DIS_CODE":0,"TOWNNAME":"永康區","LI":"南灣里","LIN":"8鄰","STREET":"大灣東路","SECT":" ","MAREA":" ","LANE":" ","ALLEY":" ","HOUSE_NO":"５０號","E_COORD97":174309.85000000001,"N_COORD97":2544328.77,"ADDRESS":"大灣東路５０號","OBJECTID":338062},"geometry":{"x":174309.85000000149,"y":2544328.7700000014}},{"attributes":{"ID":338072,"DIS_CODE":0,"TOWNNAME":"永康區","LI":"永康里","LIN":"8鄰","STREET":"永康街","SECT":" ","MAREA":" ","LANE":" ","ALLEY":" ","HOUSE_NO":"１１號","E_COORD97":173790.88,"N_COORD97":2547297.9399999999,"ADDRESS":"永康街１１號","OBJECTID":338063},"geometry":{"x":173790.87999999989,"y":2547297.9399999995}},{"attributes":{"ID":338073,"DIS_CODE":0,"TOWNNAME":"永康區","LI":"西灣里","LIN":"8鄰","STREET":"大灣三街","SECT":" ","MAREA":" ","LANE":" ","ALLEY":" ","HOUSE_NO":"２２０號","E_COORD97":174468.92999999999,"N_COORD97":2545168.5,"ADDRESS":"大灣三街２２０號","OBJECTID":338064},"geometry":{"x":174468.93000000063,"y":2545168.5000000019}},{"attributes":{"ID":338074,"DIS_CODE":0,"TOWNNAME":"永康區","LI":"中興里","LIN":"8鄰","STREET":"中山東路","SECT":" ","MAREA":" ","LANE":" ","ALLEY":" ","HOUSE_NO":"３８３號","E_COORD97":171950.20999999999,"N_COORD97":2545143.7400000002,"ADDRESS":"中山東路３８３號","OBJECTID":338065},"geometry":{"x":171950.21000000089,"y":2545143.7400000002}},{"attributes":{"ID":338075,"DIS_CODE":0,"TOWNNAME":"七股區","LI":"竹橋里","LIN":"5鄰","STREET":" ","SECT":" ","MAREA":"竹橋","LANE":" ","ALLEY":" ","HOUSE_NO":"６６號","E_COORD97":164086.67999999999,"N_COORD97":2555822.2599999998,"ADDRESS":"竹橋６６號","OBJECTID":338066},"geometry":{"x":164086.6799999997,"y":2555822.2600000016}},{"attributes":{"ID":338076,"DIS_CODE":0,"TOWNNAME":"歸仁區","LI":"大潭里","LIN":"1鄰","STREET":"中正南路","SECT":"三段","MAREA":" ","LANE":"５１巷","ALLEY":" ","HOUSE_NO":"２２號","E_COORD97":175332.81,"N_COORD97":2535026.2799999998,"ADDRESS":"中正南路三段５１巷２２號","OBJECTID":338067},"geometry":{"x":175332.81000000052,"y":2535026.2799999993}},{"attributes":{"ID":338077,"DIS_CODE":0,"TOWNNAME":"歸仁區","LI":"大潭里","LIN":"1鄰","STREET":"中正南路","SECT":"三段","MAREA":" ","LANE":"９５巷","ALLEY":" ","HOUSE_NO":"１９號","E_COORD97":175348.10999999999,"N_COORD97":2535011.2799999998,"ADDRESS":"中正南路三段９５巷１９號","OBJECTID":338068},"geometry":{"x":175348.11000000127,"y":2535011.2800000012}},{"attributes":{"ID":338078,"DIS_CODE":0,"TOWNNAME":"歸仁區","LI":"六甲里","LIN":"1鄰","STREET":"中正南路","SECT":"一段","MAREA":" ","LANE":"５４５巷","ALLEY":" ","HOUSE_NO":"５號","E_COORD97":176818.34089299999,"N_COORD97":2539938.85066,"ADDRESS":"中正南路一段５４５巷５號","OBJECTID":338069},"geometry":{"x":176818.34089300223,"y":2539938.8506640028}},{"attributes":{"ID":338079,"DIS_CODE":0,"TOWNNAME":"歸仁區","LI":"大潭里","LIN":"1鄰","STREET":"中正南路","SECT":"三段","MAREA":" ","LANE":"５１巷","ALLEY":" ","HOUSE_NO":"１７號","E_COORD97":175346.31,"N_COORD97":2535058.2799999998,"ADDRESS":"中正南路三段５１巷１７號","OBJECTID":338070},"geometry":{"x":175346.31000000052,"y":2535058.2800000012}},{"attributes":{"ID":338080,"DIS_CODE":0,"TOWNNAME":"歸仁區","LI":"大廟里","LIN":"1鄰","STREET":"大廟二街","SECT":" ","MAREA":" ","LANE":"４５巷","ALLEY":" ","HOUSE_NO":"１號","E_COORD97":175985.89000000001,"N_COORD97":2544007.8900000001,"ADDRESS":"大廟二街４５巷１號","OBJECTID":338071},"geometry":{"x":175985.88999999966,"y":2544007.8900000006}},{"attributes":{"ID":338081,"DIS_CODE":0,"TOWNNAME":"歸仁區","LI":"大潭里","LIN":"1鄰","STREET":"中正南路","SECT":"三段","MAREA":" ","LANE":"９５巷","ALLEY":" ","HOUSE_NO":"９號","E_COORD97":175322.16,"N_COORD97":2535007.2799999998,"ADDRESS":"中正南路三段９５巷９號","OBJECTID":338072},"geometry":{"x":175322.16000000108,"y":2535007.2800000012}},{"attributes":{"ID":338082,"DIS_CODE":0,"TOWNNAME":"安南區","LI":"新順里","LIN":"5鄰","STREET":"安豐六街","SECT":" ","MAREA":" ","LANE":"１０巷","ALLEY":" ","HOUSE_NO":"２８號","E_COORD97":169267.35999999999,"N_COORD97":2549571.4700000002,"ADDRESS":"安豐六街１０巷２８號","OBJECTID":338073},"geometry":{"x":169267.3600000022,"y":2549571.4700000007}},{"attributes":{"ID":338083,"DIS_CODE":0,"TOWNNAME":"安南區","LI":"新順里","LIN":"5鄰","STREET":"安豐六街","SECT":" ","MAREA":" ","LANE":"１０巷","ALLEY":" ","HOUSE_NO":"３０號","E_COORD97":169266.67999999999,"N_COORD97":2549566.2200000002,"ADDRESS":"安豐六街１０巷３０號","OBJECTID":338074},"geometry":{"x":169266.68000000063,"y":2549566.2200000007}},{"attributes":{"ID":338084,"DIS_CODE":0,"TOWNNAME":"歸仁區","LI":"八甲里","LIN":"1鄰","STREET":"中正北路","SECT":"一段","MAREA":" ","LANE":"２３１巷","ALLEY":" ","HOUSE_NO":"１７５號","E_COORD97":177023.81,"N_COORD97":2541589.2799999998,"ADDRESS":"中正北路一段２３１巷１７５號","OBJECTID":338075},"geometry":{"x":177023.80999999959,"y":2541589.2799999993}},{"attributes":{"ID":338085,"DIS_CODE":0,"TOWNNAME":"東區","LI":"大同里","LIN":"8鄰","STREET":"樹林街","SECT":"一段","MAREA":" ","LANE":" ","ALLEY":" ","HOUSE_NO":"１９３號","E_COORD97":169240.26999999999,"N_COORD97":2543004.5499999998,"ADDRESS":"樹林街一段１９３號","OBJECTID":338076},"geometry":{"x":169240.27000000048,"y":2543004.5500000026}},{"attributes":{"ID":338086,"DIS_CODE":0,"TOWNNAME":"七股區","LI":"竹橋里","LIN":"5鄰","STREET":" ","SECT":" ","MAREA":"竹橋","LANE":" ","ALLEY":" ","HOUSE_NO":"６２號之２","E_COORD97":164118.01000000001,"N_COORD97":2555803.98,"ADDRESS":"竹橋６２號之２","OBJECTID":338077},"geometry":{"x":164118.01000000071,"y":2555803.9800000023}},{"attributes":{"ID":338087,"DIS_CODE":0,"TOWNNAME":"七股區","LI":"竹橋里","LIN":"5鄰","STREET":" ","SECT":" ","MAREA":"竹橋","LANE":" ","ALLEY":" ","HOUSE_NO":"６２號之３","E_COORD97":164103.59,"N_COORD97":2555726.0800000001,"ADDRESS":"竹橋６２號之３","OBJECTID":338078},"geometry":{"x":164103.59000000078,"y":2555726.0800000001}},{"attributes":{"ID":338088,"DIS_CODE":0,"TOWNNAME":"七股區","LI":"竹橋里","LIN":"5鄰","STREET":" ","SECT":" ","MAREA":"竹橋","LANE":" ","ALLEY":" ","HOUSE_NO":"６２號之５","E_COORD97":164091.84,"N_COORD97":2555790.54,"ADDRESS":"竹橋６２號之５","OBJECTID":338079},"geometry":{"x":164091.84000000078,"y":2555790.5399999991}},{"attributes":{"ID":338089,"DIS_CODE":0,"TOWNNAME":"七股區","LI":"竹橋里","LIN":"5鄰","STREET":" ","SECT":" ","MAREA":"竹橋","LANE":" ","ALLEY":" ","HOUSE_NO":"６２號之６","E_COORD97":164080.53,"N_COORD97":2555784.1099999999,"ADDRESS":"竹橋６２號之６","OBJECTID":338080},"geometry":{"x":164080.53000000212,"y":2555784.1100000031}},{"attributes":{"ID":338090,"DIS_CODE":0,"TOWNNAME":"東區","LI":"大同里","LIN":"8鄰","STREET":"樹林街","SECT":"一段","MAREA":" ","LANE":" ","ALLEY":" ","HOUSE_NO":"１９５號","E_COORD97":169236.54000000001,"N_COORD97":2543003.5499999998,"ADDRESS":"樹林街一段１９５號","OBJECTID":338081},"geometry":{"x":169236.54000000004,"y":2543003.5500000007}},{"attributes":{"ID":338091,"DIS_CODE":0,"TOWNNAME":"南區","LI":"大成里","LIN":"1鄰","STREET":"健康路","SECT":"一段","MAREA":" ","LANE":"３５７巷","ALLEY":" ","HOUSE_NO":"２６號","E_COORD97":167983.69,"N_COORD97":2542365.2400000002,"ADDRESS":"健康路一段３５７巷２６號","OBJECTID":338082},"geometry":{"x":167983.69000000227,"y":2542365.2400000021}},{"attributes":{"ID":338092,"DIS_CODE":0,"TOWNNAME":"南區","LI":"大成里","LIN":"1鄰","STREET":"健康路","SECT":"一段","MAREA":" ","LANE":"３５７巷","ALLEY":" ","HOUSE_NO":"２７號","E_COORD97":168001.57000000001,"N_COORD97":2542364.3399999999,"ADDRESS":"健康路一段３５７巷２７號","OBJECTID":338083},"geometry":{"x":168001.57000000123,"y":2542364.3400000017}},{"attributes":{"ID":338093,"DIS_CODE":0,"TOWNNAME":"南區","LI":"大成里","LIN":"1鄰","STREET":"健康路","SECT":"一段","MAREA":" ","LANE":"３５７巷","ALLEY":" ","HOUSE_NO":"２８號","E_COORD97":167983.79000000001,"N_COORD97":2542358.6099999999,"ADDRESS":"健康路一段３５７巷２８號","OBJECTID":338084},"geometry":{"x":167983.79000000004,"y":2542358.6100000013}},{"attributes":{"ID":338094,"DIS_CODE":0,"TOWNNAME":"南區","LI":"大成里","LIN":"1鄰","STREET":"健康路","SECT":"一段","MAREA":" ","LANE":"３９１巷","ALLEY":" ","HOUSE_NO":"１０號","E_COORD97":167907.38,"N_COORD97":2542403.1299999999,"ADDRESS":"健康路一段３９１巷１０號","OBJECTID":338085},"geometry":{"x":167907.38000000082,"y":2542403.1300000008}},{"attributes":{"ID":338095,"DIS_CODE":0,"TOWNNAME":"南區","LI":"大成里","LIN":"1鄰","STREET":"健康路","SECT":"一段","MAREA":" ","LANE":"３９１巷","ALLEY":" ","HOUSE_NO":"１１號","E_COORD97":167958.62,"N_COORD97":2542415.0099999998,"ADDRESS":"健康路一段３９１巷１１號","OBJECTID":338086},"geometry":{"x":167958.62000000104,"y":2542415.0100000016}},{"attributes":{"ID":338096,"DIS_CODE":0,"TOWNNAME":"楠西區","LI":"楠西里","LIN":"1鄰","STREET":"民族路","SECT":" ","MAREA":" ","LANE":"１０４巷","ALLEY":" ","HOUSE_NO":"５號","E_COORD97":196978.48999999999,"N_COORD97":2564165.29,"ADDRESS":"民族路１０４巷５號","OBJECTID":338087},"geometry":{"x":196978.49000000022,"y":2564165.2899999991}},{"attributes":{"ID":338097,"DIS_CODE":0,"TOWNNAME":"南區","LI":"大忠里","LIN":"1鄰","STREET":"大同路","SECT":"二段","MAREA":" ","LANE":"４８２巷","ALLEY":" ","HOUSE_NO":"３號","E_COORD97":169447.60000000001,"N_COORD97":2541481.7000000002,"ADDRESS":"大同路二段４８２巷３號","OBJECTID":338088},"geometry":{"x":169447.59999999963,"y":2541481.6999999993}},{"attributes":{"ID":338098,"DIS_CODE":0,"TOWNNAME":"南區","LI":"大忠里","LIN":"1鄰","STREET":"大同路","SECT":"二段","MAREA":" ","LANE":"４８２巷","ALLEY":" ","HOUSE_NO":"７號","E_COORD97":169446.07000000001,"N_COORD97":2541468.8700000001,"ADDRESS":"大同路二段４８２巷７號","OBJECTID":338089},"geometry":{"x":169446.07000000123,"y":2541468.870000001}},{"attributes":{"ID":338099,"DIS_CODE":0,"TOWNNAME":"南區","LI":"大忠里","LIN":"1鄰","STREET":"大同路","SECT":"二段","MAREA":" ","LANE":"４８２巷","ALLEY":" ","HOUSE_NO":"９號","E_COORD97":169439.10000000001,"N_COORD97":2541479.0899999999,"ADDRESS":"大同路二段４８２巷９號","OBJECTID":338090},"geometry":{"x":169439.09999999963,"y":2541479.0899999999}},{"attributes":{"ID":338100,"DIS_CODE":0,"TOWNNAME":"南區","LI":"大林里","LIN":"1鄰","STREET":"大同路","SECT":"二段","MAREA":" ","LANE":"３５４巷","ALLEY":" ","HOUSE_NO":"５號","E_COORD97":169364.32000000001,"N_COORD97":2541762.6600000001,"ADDRESS":"大同路二段３５４巷５號","OBJECTID":338091},"geometry":{"x":169364.32000000123,"y":2541762.660000002}},{"attributes":{"ID":338101,"DIS_CODE":0,"TOWNNAME":"南區","LI":"大林里","LIN":"1鄰","STREET":"大同路","SECT":"二段","MAREA":" ","LANE":"３５４巷","ALLEY":" ","HOUSE_NO":"７號","E_COORD97":169358.23999999999,"N_COORD97":2541760.3300000001,"ADDRESS":"大同路二段３５４巷７號","OBJECTID":338092},"geometry":{"x":169358.24000000115,"y":2541760.3300000001}},{"attributes":{"ID":338102,"DIS_CODE":0,"TOWNNAME":"南區","LI":"大林里","LIN":"1鄰","STREET":"大同路","SECT":"二段","MAREA":" ","LANE":"３５４巷","ALLEY":" ","HOUSE_NO":"９號","E_COORD97":169352.62,"N_COORD97":2541758.75,"ADDRESS":"大同路二段３５４巷９號","OBJECTID":338093},"geometry":{"x":169352.62000000104,"y":2541758.7500000019}},{"attributes":{"ID":338103,"DIS_CODE":0,"TOWNNAME":"南區","LI":"大恩里","LIN":"1鄰","STREET":"大同路","SECT":"二段","MAREA":" ","LANE":"６４０巷","ALLEY":" ","HOUSE_NO":"１３號","E_COORD97":169496.89000000001,"N_COORD97":2541023.1299999999,"ADDRESS":"大同路二段６４０巷１３號","OBJECTID":338094},"geometry":{"x":169496.89000000153,"y":2541023.1300000008}},{"attributes":{"ID":338104,"DIS_CODE":0,"TOWNNAME":"南區","LI":"大恩里","LIN":"1鄰","STREET":"大同路","SECT":"二段","MAREA":" ","LANE":"６４０巷","ALLEY":" ","HOUSE_NO":"１５號","E_COORD97":169491.98999999999,"N_COORD97":2541022.0299999998,"ADDRESS":"大同路二段６４０巷１５號","OBJECTID":338095},"geometry":{"x":169491.99000000115,"y":2541022.0299999993}},{"attributes":{"ID":338105,"DIS_CODE":0,"TOWNNAME":"南區","LI":"大恩里","LIN":"1鄰","STREET":"大同路","SECT":"二段","MAREA":" ","LANE":"６４０巷","ALLEY":" ","HOUSE_NO":"１７號","E_COORD97":169487.23999999999,"N_COORD97":2541021.5899999999,"ADDRESS":"大同路二段６４０巷１７號","OBJECTID":338096},"geometry":{"x":169487.24000000115,"y":2541021.5899999999}},{"attributes":{"ID":338106,"DIS_CODE":0,"TOWNNAME":"南區","LI":"大恩里","LIN":"1鄰","STREET":"大同路","SECT":"二段","MAREA":" ","LANE":"６４０巷","ALLEY":" ","HOUSE_NO":"１９號","E_COORD97":169482.26999999999,"N_COORD97":2541021.2599999998,"ADDRESS":"大同路二段６４０巷１９號","OBJECTID":338097},"geometry":{"x":169482.26999999862,"y":2541021.2599999998}},{"attributes":{"ID":338107,"DIS_CODE":0,"TOWNNAME":"南區","LI":"大恩里","LIN":"1鄰","STREET":"大同路","SECT":"二段","MAREA":" ","LANE":"６４０巷","ALLEY":" ","HOUSE_NO":"１號","E_COORD97":169536.42999999999,"N_COORD97":2541028.4300000002,"ADDRESS":"大同路二段６４０巷１號","OBJECTID":338098},"geometry":{"x":169536.43000000063,"y":2541028.4300000016}},{"attributes":{"ID":338108,"DIS_CODE":0,"TOWNNAME":"南區","LI":"大恩里","LIN":"1鄰","STREET":"大同路","SECT":"二段","MAREA":" ","LANE":"６４０巷","ALLEY":" ","HOUSE_NO":"２１號","E_COORD97":169476.85999999999,"N_COORD97":2541020.4900000002,"ADDRESS":"大同路二段６４０巷２１號","OBJECTID":338099},"geometry":{"x":169476.86000000034,"y":2541020.4899999984}},{"attributes":{"ID":338109,"DIS_CODE":0,"TOWNNAME":"南區","LI":"大恩里","LIN":"1鄰","STREET":"大同路","SECT":"二段","MAREA":" ","LANE":"６４０巷","ALLEY":" ","HOUSE_NO":"２３號","E_COORD97":169472.22,"N_COORD97":2541019.9300000002,"ADDRESS":"大同路二段６４０巷２３號","OBJECTID":338100},"geometry":{"x":169472.21999999974,"y":2541019.9299999997}},{"attributes":{"ID":338110,"DIS_CODE":0,"TOWNNAME":"南區","LI":"大恩里","LIN":"1鄰","STREET":"大同路","SECT":"二段","MAREA":" ","LANE":"６４０巷","ALLEY":" ","HOUSE_NO":"２５號","E_COORD97":169466.59,"N_COORD97":2541019.3799999999,"ADDRESS":"大同路二段６４０巷２５號","OBJECTID":338101},"geometry":{"x":169466.58999999985,"y":2541019.379999999}},{"attributes":{"ID":338111,"DIS_CODE":0,"TOWNNAME":"南區","LI":"大恩里","LIN":"1鄰","STREET":"大同路","SECT":"二段","MAREA":" ","LANE":"６４０巷","ALLEY":" ","HOUSE_NO":"２７號","E_COORD97":169460.95000000001,"N_COORD97":2541018.7200000002,"ADDRESS":"大同路二段６４０巷２７號","OBJECTID":338102},"geometry":{"x":169460.95000000019,"y":2541018.7200000007}},{"attributes":{"ID":338112,"DIS_CODE":0,"TOWNNAME":"南區","LI":"大恩里","LIN":"1鄰","STREET":"大同路","SECT":"二段","MAREA":" ","LANE":"６４０巷","ALLEY":" ","HOUSE_NO":"３號","E_COORD97":169529.81,"N_COORD97":2541027.4399999999,"ADDRESS":"大同路二段６４０巷３號","OBJECTID":338103},"geometry":{"x":169529.81000000052,"y":2541027.4400000013}},{"attributes":{"ID":338113,"DIS_CODE":0,"TOWNNAME":"南區","LI":"大恩里","LIN":"1鄰","STREET":"大同路","SECT":"二段","MAREA":" ","LANE":"６４０巷","ALLEY":" ","HOUSE_NO":"４７號","E_COORD97":169353.76000000001,"N_COORD97":2541013.9399999999,"ADDRESS":"大同路二段６４０巷４７號","OBJECTID":338104},"geometry":{"x":169353.75999999885,"y":2541013.9400000013}},{"attributes":{"ID":338114,"DIS_CODE":0,"TOWNNAME":"南區","LI":"大恩里","LIN":"1鄰","STREET":"大同路","SECT":"二段","MAREA":" ","LANE":"６４０巷","ALLEY":" ","HOUSE_NO":"４９號","E_COORD97":169348.35000000001,"N_COORD97":2541013.1600000001,"ADDRESS":"大同路二段６４０巷４９號","OBJECTID":338105},"geometry":{"x":169348.35000000056,"y":2541013.160000002}},{"attributes":{"ID":338115,"DIS_CODE":0,"TOWNNAME":"南區","LI":"大恩里","LIN":"1鄰","STREET":"大同路","SECT":"二段","MAREA":" ","LANE":"６４０巷","ALLEY":" ","HOUSE_NO":"５１號","E_COORD97":169342.28,"N_COORD97":2541012.1699999999,"ADDRESS":"大同路二段６４０巷５１號","OBJECTID":338106},"geometry":{"x":169342.27999999933,"y":2541012.1699999981}},{"attributes":{"ID":338116,"DIS_CODE":0,"TOWNNAME":"南區","LI":"大恩里","LIN":"1鄰","STREET":"大同路","SECT":"二段","MAREA":" ","LANE":"６４０巷","ALLEY":" ","HOUSE_NO":"５３號","E_COORD97":169336.54000000001,"N_COORD97":2541011.3999999999,"ADDRESS":"大同路二段６４０巷５３號","OBJECTID":338107},"geometry":{"x":169336.54000000004,"y":2541011.4000000041}},{"attributes":{"ID":338117,"DIS_CODE":0,"TOWNNAME":"南區","LI":"大恩里","LIN":"1鄰","STREET":"大同路","SECT":"二段","MAREA":" ","LANE":"６４０巷","ALLEY":" ","HOUSE_NO":"５５號","E_COORD97":169330.35000000001,"N_COORD97":2541011.1800000002,"ADDRESS":"大同路二段６４０巷５５號","OBJECTID":338108},"geometry":{"x":169330.34999999963,"y":2541011.1799999997}},{"attributes":{"ID":338118,"DIS_CODE":0,"TOWNNAME":"南區","LI":"大恩里","LIN":"1鄰","STREET":"大同路","SECT":"二段","MAREA":" ","LANE":"６４０巷","ALLEY":" ","HOUSE_NO":"５７號","E_COORD97":169323.94,"N_COORD97":2541010.2999999998,"ADDRESS":"大同路二段６４０巷５７號","OBJECTID":338109},"geometry":{"x":169323.94000000041,"y":2541010.3000000026}},{"attributes":{"ID":338119,"DIS_CODE":0,"TOWNNAME":"南區","LI":"大恩里","LIN":"1鄰","STREET":"大同路","SECT":"二段","MAREA":" ","LANE":"６４０巷","ALLEY":" ","HOUSE_NO":"５９號","E_COORD97":169317.87,"N_COORD97":2541010.0699999998,"ADDRESS":"大同路二段６４０巷５９號","OBJECTID":338110},"geometry":{"x":169317.87000000197,"y":2541010.070000004}},{"attributes":{"ID":338120,"DIS_CODE":0,"TOWNNAME":"楠西區","LI":"楠西里","LIN":"1鄰","STREET":"民族路","SECT":" ","MAREA":" ","LANE":"９０巷","ALLEY":" ","HOUSE_NO":"５號","E_COORD97":197008.34,"N_COORD97":2564077.29,"ADDRESS":"民族路９０巷５號","OBJECTID":338111},"geometry":{"x":197008.33999999985,"y":2564077.2899999991}},{"attributes":{"ID":338121,"DIS_CODE":0,"TOWNNAME":"楠西區","LI":"楠西里","LIN":"1鄰","STREET":"民族路","SECT":" ","MAREA":" ","LANE":"９０巷","ALLEY":" ","HOUSE_NO":"９號之２","E_COORD97":196992.41,"N_COORD97":2564097.2999999998,"ADDRESS":"民族路９０巷９號之２","OBJECTID":338112},"geometry":{"x":196992.41000000108,"y":2564097.3000000045}},{"attributes":{"ID":338122,"DIS_CODE":0,"TOWNNAME":"楠西區","LI":"楠西里","LIN":"1鄰","STREET":"民族路","SECT":" ","MAREA":" ","LANE":"９０巷","ALLEY":" ","HOUSE_NO":"７號","E_COORD97":197002.14000000001,"N_COORD97":2564079.29,"ADDRESS":"民族路９０巷７號","OBJECTID":338113},"geometry":{"x":197002.1400000006,"y":2564079.290000001}},{"attributes":{"ID":338123,"DIS_CODE":0,"TOWNNAME":"楠西區","LI":"楠西里","LIN":"1鄰","STREET":"民族路","SECT":" ","MAREA":" ","LANE":"９０巷","ALLEY":" ","HOUSE_NO":"１１號","E_COORD97":196982.48999999999,"N_COORD97":2564094.29,"ADDRESS":"民族路９０巷１１號","OBJECTID":338114},"geometry":{"x":196982.49000000022,"y":2564094.2899999991}},{"attributes":{"ID":338124,"DIS_CODE":0,"TOWNNAME":"安南區","LI":"安西里","LIN":"5鄰","STREET":"安通一街","SECT":" ","MAREA":" ","LANE":"１１６巷","ALLEY":" ","HOUSE_NO":"８號","E_COORD97":168835.67676900001,"N_COORD97":2548072.1274000001,"ADDRESS":"安通一街１１６巷８號","OBJECTID":338115},"geometry":{"x":168835.67676900141,"y":2548072.127404999}},{"attributes":{"ID":338125,"DIS_CODE":0,"TOWNNAME":"安南區","LI":"安西里","LIN":"5鄰","STREET":"安通一街","SECT":" ","MAREA":" ","LANE":"１１６巷","ALLEY":" ","HOUSE_NO":"６號","E_COORD97":168829.93166999999,"N_COORD97":2548070.0311099999,"ADDRESS":"安通一街１１６巷６號","OBJECTID":338116},"geometry":{"x":168829.93167000078,"y":2548070.0311089996}},{"attributes":{"ID":338126,"DIS_CODE":0,"TOWNNAME":"安南區","LI":"安西里","LIN":"5鄰","STREET":"安通一街","SECT":" ","MAREA":" ","LANE":"１１６巷","ALLEY":" ","HOUSE_NO":"２號","E_COORD97":168824.41900200001,"N_COORD97":2548069.8194400002,"ADDRESS":"安通一街１１６巷２號","OBJECTID":338117},"geometry":{"x":168824.41900200024,"y":2548069.8194420021}},{"attributes":{"ID":338127,"DIS_CODE":0,"TOWNNAME":"安南區","LI":"安西里","LIN":"5鄰","STREET":"安通一街","SECT":" ","MAREA":" ","LANE":"１１６巷","ALLEY":" ","HOUSE_NO":"２１號","E_COORD97":168872.76086000001,"N_COORD97":2548094.1611000001,"ADDRESS":"安通一街１１６巷２１號","OBJECTID":338118},"geometry":{"x":168872.76086000074,"y":2548094.1610959992}},{"attributes":{"ID":338128,"DIS_CODE":0,"TOWNNAME":"安南區","LI":"安西里","LIN":"5鄰","STREET":"安通一街","SECT":" ","MAREA":" ","LANE":"１１６巷","ALLEY":" ","HOUSE_NO":"１９號","E_COORD97":168868.30832000001,"N_COORD97":2548092.8911000001,"ADDRESS":"安通一街１１６巷１９號","OBJECTID":338119},"geometry":{"x":168868.30832000077,"y":2548092.8910969999}},{"attributes":{"ID":338129,"DIS_CODE":0,"TOWNNAME":"安南區","LI":"安西里","LIN":"5鄰","STREET":"安通一街","SECT":" ","MAREA":" ","LANE":"１１６巷","ALLEY":" ","HOUSE_NO":"１７號","E_COORD97":168862.58362700001,"N_COORD97":2548092.4677599999,"ADDRESS":"安通一街１１６巷１７號","OBJECTID":338120},"geometry":{"x":168862.58362700138,"y":2548092.4677640013}},{"attributes":{"ID":338130,"DIS_CODE":0,"TOWNNAME":"安南區","LI":"安西里","LIN":"5鄰","STREET":"安通一街","SECT":" ","MAREA":" ","LANE":"１１６巷","ALLEY":" ","HOUSE_NO":"１５號","E_COORD97":168857.070959,"N_COORD97":2548091.40943,"ADDRESS":"安通一街１１６巷１５號","OBJECTID":338121},"geometry":{"x":168857.07095900085,"y":2548091.4094309993}},{"attributes":{"ID":338131,"DIS_CODE":0,"TOWNNAME":"安南區","LI":"安西里","LIN":"5鄰","STREET":"安通一街","SECT":" ","MAREA":" ","LANE":"１１６巷","ALLEY":" ","HOUSE_NO":"１３號","E_COORD97":168853.25449600001,"N_COORD97":2548090.5627600001,"ADDRESS":"安通一街１１６巷１３號","OBJECTID":338122},"geometry":{"x":168853.25449600071,"y":2548090.5627650023}},{"attributes":{"ID":338132,"DIS_CODE":0,"TOWNNAME":"安南區","LI":"安西里","LIN":"5鄰","STREET":"安通一街","SECT":" ","MAREA":" ","LANE":"１１６巷","ALLEY":" ","HOUSE_NO":"９號","E_COORD97":168842.44118600001,"N_COORD97":2548088.86943,"ADDRESS":"安通一街１１６巷９號","OBJECTID":338123},"geometry":{"x":168842.44118600059,"y":2548088.8694320042}},{"attributes":{"ID":338133,"DIS_CODE":0,"TOWNNAME":"永康區","LI":"\u25A0洲里","LIN":"26鄰","STREET":"洲尾街","SECT":" ","MAREA":" ","LANE":" ","ALLEY":" ","HOUSE_NO":"１８７號","E_COORD97":170878.91,"N_COORD97":2548957.7000000002,"ADDRESS":"洲尾街１８７號","OBJECTID":338124},"geometry":{"x":170878.91000000201,"y":2548957.6999999993}},{"attributes":{"ID":338134,"DIS_CODE":0,"TOWNNAME":"永康區","LI":"中華里","LIN":"15鄰","STREET":"華興街","SECT":" ","MAREA":" ","LANE":" ","ALLEY":" ","HOUSE_NO":"９７號底二層之８","E_COORD97":171791.73999999999,"N_COORD97":2544563.1299999999,"ADDRESS":"華興街９７號底二層之８","OBJECTID":338125},"geometry":{"x":171791.74000000022,"y":2544563.129999999}},{"attributes":{"ID":338135,"DIS_CODE":0,"TOWNNAME":"安南區","LI":"安西里","LIN":"5鄰","STREET":"安通一街","SECT":" ","MAREA":" ","LANE":"１１６巷","ALLEY":" ","HOUSE_NO":"７號","E_COORD97":168837.14054399999,"N_COORD97":2548086.9644300002,"ADDRESS":"安通一街１１６巷７號","OBJECTID":338126},"geometry":{"x":168837.14054400008,"y":2548086.9644329995}},{"attributes":{"ID":338136,"DIS_CODE":0,"TOWNNAME":"安南區","LI":"安西里","LIN":"5鄰","STREET":"安通一街","SECT":" ","MAREA":" ","LANE":"１１６巷","ALLEY":" ","HOUSE_NO":"５號","E_COORD97":168832.47597900001,"N_COORD97":2548086.3294299999,"ADDRESS":"安通一街１１６巷５號","OBJECTID":338127},"geometry":{"x":168832.47597900033,"y":2548086.329434}},{"attributes":{"ID":338137,"DIS_CODE":0,"TOWNNAME":"安南區","LI":"安西里","LIN":"5鄰","STREET":"安通一街","SECT":" ","MAREA":" ","LANE":"１１６巷","ALLEY":" ","HOUSE_NO":"３號","E_COORD97":168827.599388,"N_COORD97":2548085.9060999998,"ADDRESS":"安通一街１１６巷３號","OBJECTID":338128},"geometry":{"x":168827.59938800149,"y":2548085.9061000012}},{"attributes":{"ID":338138,"DIS_CODE":0,"TOWNNAME":"安南區","LI":"安西里","LIN":"5鄰","STREET":"安通一街","SECT":" ","MAREA":" ","LANE":"１１６巷","ALLEY":" ","HOUSE_NO":"１號","E_COORD97":168821.662668,"N_COORD97":2548084.8477699999,"ADDRESS":"安通一街１１６巷１號","OBJECTID":338129},"geometry":{"x":168821.66266799998,"y":2548084.8477680031}},{"attributes":{"ID":338139,"DIS_CODE":0,"TOWNNAME":"永康區","LI":"南灣里","LIN":" ","STREET":"南興路","SECT":" ","MAREA":" ","LANE":" ","ALLEY":" ","HOUSE_NO":"８之６號","E_COORD97":174451.54999999999,"N_COORD97":2544303.79,"ADDRESS":"南興路８之６號","OBJECTID":338130},"geometry":{"x":174451.55000000075,"y":2544303.790000001}},{"attributes":{"ID":338140,"DIS_CODE":0,"TOWNNAME":"永康區","LI":"甲頂里","LIN":" ","STREET":"中華路","SECT":" ","MAREA":" ","LANE":" ","ALLEY":" ","HOUSE_NO":"１０５６號","E_COORD97":169430.48000000001,"N_COORD97":2547068.98,"ADDRESS":"中華路１０５６號","OBJECTID":338131},"geometry":{"x":169430.48000000045,"y":2547068.9800000004}},{"attributes":{"ID":338141,"DIS_CODE":0,"TOWNNAME":"永康區","LI":"三合里","LIN":" ","STREET":"中華二路","SECT":" ","MAREA":" ","LANE":" ","ALLEY":" ","HOUSE_NO":"５４號","E_COORD97":172154.17000000001,"N_COORD97":2545445.2400000002,"ADDRESS":"中華二路５４號","OBJECTID":338132},"geometry":{"x":172154.17000000086,"y":2545445.2400000002}},{"attributes":{"ID":338142,"DIS_CODE":0,"TOWNNAME":"永康區","LI":"大橋里","LIN":"36鄰","STREET":"中華路","SECT":" ","MAREA":" ","LANE":" ","ALLEY":" ","HOUSE_NO":"６００號","E_COORD97":171178.19,"N_COORD97":2545968.9900000002,"ADDRESS":"中華路６００號","OBJECTID":338133},"geometry":{"x":171178.19000000041,"y":2545968.9900000002}},{"attributes":{"ID":338143,"DIS_CODE":0,"TOWNNAME":"永康區","LI":"中華里","LIN":"24鄰","STREET":"華興街","SECT":" ","MAREA":" ","LANE":" ","ALLEY":" ","HOUSE_NO":"１２６號","E_COORD97":171771.14000000001,"N_COORD97":2544582.4100000001,"ADDRESS":"華興街１２６號","OBJECTID":338134},"geometry":{"x":171771.13999999966,"y":2544582.410000002}},{"attributes":{"ID":338144,"DIS_CODE":0,"TOWNNAME":"永康區","LI":"東灣里","LIN":"24鄰","STREET":"大灣二街","SECT":" ","MAREA":" ","LANE":" ","ALLEY":" ","HOUSE_NO":"９８號","E_COORD97":174789.94,"N_COORD97":2544779.5,"ADDRESS":"大灣二街９８號","OBJECTID":338135},"geometry":{"x":174789.94000000134,"y":2544779.5}},{"attributes":{"ID":338145,"DIS_CODE":0,"TOWNNAME":"永康區","LI":"大灣里","LIN":" ","STREET":"大灣路","SECT":" ","MAREA":" ","LANE":" ","ALLEY":" ","HOUSE_NO":"３１２號","E_COORD97":174884.67999999999,"N_COORD97":2545206.8999999999,"ADDRESS":"大灣路３１２號","OBJECTID":338136},"geometry":{"x":174884.68000000063,"y":2545206.9000000004}},{"attributes":{"ID":338146,"DIS_CODE":0,"TOWNNAME":"永康區","LI":"甲頂里","LIN":" ","STREET":"中華路","SECT":" ","MAREA":" ","LANE":" ","ALLEY":" ","HOUSE_NO":"１０３６號","E_COORD97":169483.56,"N_COORD97":2547077.1899999999,"ADDRESS":"中華路１０３６號","OBJECTID":338137},"geometry":{"x":169483.55999999959,"y":2547077.1900000032}},{"attributes":{"ID":338147,"DIS_CODE":0,"TOWNNAME":"永康區","LI":"南灣里","LIN":" ","STREET":"立興街","SECT":" ","MAREA":" ","LANE":" ","ALLEY":" ","HOUSE_NO":"４４號","E_COORD97":174604.34,"N_COORD97":2544868.9100000001,"ADDRESS":"立興街４４號","OBJECTID":338138},"geometry":{"x":174604.33999999985,"y":2544868.9100000001}},{"attributes":{"ID":338148,"DIS_CODE":0,"TOWNNAME":"永康區","LI":"西橋里","LIN":" ","STREET":"中華西街","SECT":" ","MAREA":" ","LANE":" ","ALLEY":" ","HOUSE_NO":"１５５號","E_COORD97":170623.51000000001,"N_COORD97":2546263.7400000002,"ADDRESS":"中華西街１５５號","OBJECTID":338139},"geometry":{"x":170623.51000000164,"y":2546263.7399999984}},{"attributes":{"ID":338149,"DIS_CODE":0,"TOWNNAME":"永康區","LI":"王行里","LIN":" ","STREET":"龍國街","SECT":" ","MAREA":" ","LANE":" ","ALLEY":" ","HOUSE_NO":"４１９號","E_COORD97":175060.44,"N_COORD97":2548026.02,"ADDRESS":"龍國街４１９號","OBJECTID":338140},"geometry":{"x":175060.44000000041,"y":2548026.0199999996}},{"attributes":{"ID":338150,"DIS_CODE":0,"TOWNNAME":"永康區","LI":"尚頂里","LIN":" ","STREET":"中正二街","SECT":" ","MAREA":" ","LANE":" ","ALLEY":" ","HOUSE_NO":"３６號","E_COORD97":170894,"N_COORD97":2547372.02,"ADDRESS":"中正二街３６號","OBJECTID":338141},"geometry":{"x":170894.00000000093,"y":2547372.0199999996}},{"attributes":{"ID":338151,"DIS_CODE":0,"TOWNNAME":"永康區","LI":"復國里","LIN":" ","STREET":"復國一路","SECT":" ","MAREA":" ","LANE":" ","ALLEY":" ","HOUSE_NO":"２５７號","E_COORD97":172731.06,"N_COORD97":2545452.52,"ADDRESS":"復國一路２５７號","OBJECTID":338142},"geometry":{"x":172731.05999999959,"y":2545452.5200000014}},{"attributes":{"ID":338152,"DIS_CODE":0,"TOWNNAME":"永康區","LI":"王行里","LIN":" ","STREET":"中山北路","SECT":" ","MAREA":" ","LANE":" ","ALLEY":" ","HOUSE_NO":"７８５號","E_COORD97":176015.37,"N_COORD97":2547926.7799999998,"ADDRESS":"中山北路７８５號","OBJECTID":338143},"geometry":{"x":176015.37000000011,"y":2547926.7799999993}},{"attributes":{"ID":338153,"DIS_CODE":0,"TOWNNAME":"永康區","LI":"西橋里","LIN":"25鄰","STREET":"中華路","SECT":" ","MAREA":" ","LANE":" ","ALLEY":" ","HOUSE_NO":"７４７號","E_COORD97":170715.20000000001,"N_COORD97":2546504.9100000001,"ADDRESS":"中華路７４７號","OBJECTID":338144},"geometry":{"x":170715.20000000019,"y":2546504.910000002}},{"attributes":{"ID":338154,"DIS_CODE":0,"TOWNNAME":"安南區","LI":"淵中里","LIN":"5鄰","STREET":"安中路","SECT":"四段","MAREA":" ","LANE":"４巷","ALLEY":" ","HOUSE_NO":"６７之１號","E_COORD97":165135.47,"N_COORD97":2550192.8500000001,"ADDRESS":"安中路四段４巷６７之１號","OBJECTID":338145},"geometry":{"x":165135.47000000067,"y":2550192.8500000015}},{"attributes":{"ID":338155,"DIS_CODE":0,"TOWNNAME":"安南區","LI":"安慶里","LIN":"5鄰","STREET":"怡安路","SECT":"一段","MAREA":" ","LANE":"２６２巷","ALLEY":" ","HOUSE_NO":"２８號","E_COORD97":169034.26999999999,"N_COORD97":2549167.6299999999,"ADDRESS":"怡安路一段２６２巷２８號","OBJECTID":338146},"geometry":{"x":169034.26999999955,"y":2549167.629999999}},{"attributes":{"ID":338156,"DIS_CODE":0,"TOWNNAME":"安南區","LI":"州南里","LIN":"5鄰","STREET":"安和路","SECT":"四段","MAREA":" ","LANE":"５３７巷","ALLEY":" ","HOUSE_NO":"５０號","E_COORD97":169863.54999999999,"N_COORD97":2551404.5600000001,"ADDRESS":"安和路四段５３７巷５０號","OBJECTID":338147},"geometry":{"x":169863.54999999981,"y":2551404.5600000005}},{"attributes":{"ID":338157,"DIS_CODE":0,"TOWNNAME":"鹽水區","LI":"岸內里","LIN":"5鄰","STREET":" ","SECT":" ","MAREA":"岸內","LANE":" ","ALLEY":" ","HOUSE_NO":"５３號","E_COORD97":174815.39999999999,"N_COORD97":2581381.2000000002,"ADDRESS":"岸內５３號","OBJECTID":338148},"geometry":{"x":174815.40000000224,"y":2581381.2000000011}},{"attributes":{"ID":338158,"DIS_CODE":0,"TOWNNAME":"安南區","LI":"州南里","LIN":"5鄰","STREET":"安和路","SECT":"四段","MAREA":" ","LANE":"５３７巷","ALLEY":" ","HOUSE_NO":"５２號","E_COORD97":169866.64999999999,"N_COORD97":2551418.9900000002,"ADDRESS":"安和路四段５３７巷５２號","OBJECTID":338149},"geometry":{"x":169866.65000000037,"y":2551418.9900000039}},{"attributes":{"ID":338159,"DIS_CODE":0,"TOWNNAME":"楠西區","LI":"楠西里","LIN":"1鄰","STREET":"民族路","SECT":" ","MAREA":" ","LANE":"９０巷","ALLEY":" ","HOUSE_NO":"３號","E_COORD97":197013.14000000001,"N_COORD97":2564074.29,"ADDRESS":"民族路９０巷３號","OBJECTID":338150},"geometry":{"x":197013.13999999873,"y":2564074.2899999991}},{"attributes":{"ID":338160,"DIS_CODE":0,"TOWNNAME":"楠西區","LI":"楠西里","LIN":"1鄰","STREET":"民族路","SECT":" ","MAREA":" ","LANE":"９０巷","ALLEY":" ","HOUSE_NO":"９號之１","E_COORD97":196997.17000000001,"N_COORD97":2564095.2999999998,"ADDRESS":"民族路９０巷９號之１","OBJECTID":338151},"geometry":{"x":196997.17000000086,"y":2564095.3000000026}},{"attributes":{"ID":338161,"DIS_CODE":0,"TOWNNAME":"楠西區","LI":"楠西里","LIN":"1鄰","STREET":"中華路","SECT":" ","MAREA":" ","LANE":"１４５巷","ALLEY":" ","HOUSE_NO":"１７號","E_COORD97":196974.60999999999,"N_COORD97":2564246.2200000002,"ADDRESS":"中華路１４５巷１７號","OBJECTID":338152},"geometry":{"x":196974.61000000034,"y":2564246.2200000007}},{"attributes":{"ID":338162,"DIS_CODE":0,"TOWNNAME":"楠西區","LI":"楠西里","LIN":"1鄰","STREET":"中華路","SECT":" ","MAREA":" ","LANE":"１４５巷","ALLEY":" ","HOUSE_NO":"１８號","E_COORD97":196992.23999999999,"N_COORD97":2564270.5800000001,"ADDRESS":"中華路１４５巷１８號","OBJECTID":338153},"geometry":{"x":196992.24000000022,"y":2564270.5800000001}},{"attributes":{"ID":338163,"DIS_CODE":0,"TOWNNAME":"楠西區","LI":"楠西里","LIN":"1鄰","STREET":"民族路","SECT":" ","MAREA":" ","LANE":"１０４巷","ALLEY":" ","HOUSE_NO":"３號","E_COORD97":197019.09,"N_COORD97":2564169.29,"ADDRESS":"民族路１０４巷３號","OBJECTID":338154},"geometry":{"x":197019.09000000078,"y":2564169.2899999991}},{"attributes":{"ID":338164,"DIS_CODE":0,"TOWNNAME":"楠西區","LI":"楠西里","LIN":"1鄰","STREET":"民族路","SECT":" ","MAREA":" ","LANE":"１０４巷","ALLEY":" ","HOUSE_NO":"１號","E_COORD97":197010.29000000001,"N_COORD97":2564117.29,"ADDRESS":"民族路１０４巷１號","OBJECTID":338155},"geometry":{"x":197010.29000000004,"y":2564117.290000001}},{"attributes":{"ID":338165,"DIS_CODE":0,"TOWNNAME":"楠西區","LI":"楠西里","LIN":"1鄰","STREET":"中華路","SECT":" ","MAREA":" ","LANE":"１４５巷","ALLEY":" ","HOUSE_NO":"１５號","E_COORD97":196983.82999999999,"N_COORD97":2564246.02,"ADDRESS":"中華路１４５巷１５號","OBJECTID":338156},"geometry":{"x":196983.83000000101,"y":2564246.0199999996}},{"attributes":{"ID":338166,"DIS_CODE":0,"TOWNNAME":"柳營區","LI":"東昇里","LIN":"1鄰","STREET":"十美街","SECT":" ","MAREA":" ","LANE":"３９９巷","ALLEY":" ","HOUSE_NO":"１號","E_COORD97":179787.81,"N_COORD97":2575499.5600000001,"ADDRESS":"十美街３９９巷１號","OBJECTID":338157},"geometry":{"x":179787.81000000052,"y":2575499.5600000005}},{"attributes":{"ID":338167,"DIS_CODE":0,"TOWNNAME":"柳營區","LI":"士林里","LIN":"1鄰","STREET":"士林街","SECT":" ","MAREA":" ","LANE":"１７巷","ALLEY":" ","HOUSE_NO":"１２號","E_COORD97":179238.09,"N_COORD97":2575124.1400000001,"ADDRESS":"士林街１７巷１２號","OBJECTID":338158},"geometry":{"x":179238.09000000171,"y":2575124.1400000043}},{"attributes":{"ID":338168,"DIS_CODE":0,"TOWNNAME":"東區","LI":"大同里","LIN":"8鄰","STREET":"樹林街","SECT":"一段","MAREA":" ","LANE":" ","ALLEY":" ","HOUSE_NO":"１９７號","E_COORD97":169233.06,"N_COORD97":2543002.8100000001,"ADDRESS":"樹林街一段１９７號","OBJECTID":338159},"geometry":{"x":169233.06000000145,"y":2543002.8100000024}},{"attributes":{"ID":338169,"DIS_CODE":0,"TOWNNAME":"東區","LI":"大同里","LIN":"8鄰","STREET":"樹林街","SECT":"一段","MAREA":" ","LANE":" ","ALLEY":" ","HOUSE_NO":"１９９號","E_COORD97":169229.34,"N_COORD97":2543002.5600000001,"ADDRESS":"樹林街一段１９９號","OBJECTID":338160},"geometry":{"x":169229.33999999985,"y":2543002.5600000005}},{"attributes":{"ID":338170,"DIS_CODE":0,"TOWNNAME":"東區","LI":"大同里","LIN":"8鄰","STREET":"樹林街","SECT":"一段","MAREA":" ","LANE":" ","ALLEY":" ","HOUSE_NO":"２０１號","E_COORD97":169225.54000000001,"N_COORD97":2543001.9100000001,"ADDRESS":"樹林街一段２０１號","OBJECTID":338161},"geometry":{"x":169225.54000000097,"y":2543001.910000002}},{"attributes":{"ID":338171,"DIS_CODE":0,"TOWNNAME":"東區","LI":"大同里","LIN":"8鄰","STREET":"樹林街","SECT":"一段","MAREA":" ","LANE":" ","ALLEY":" ","HOUSE_NO":"２０３號","E_COORD97":169219.73000000001,"N_COORD97":2542999.29,"ADDRESS":"樹林街一段２０３號","OBJECTID":338162},"geometry":{"x":169219.73000000138,"y":2542999.2899999991}},{"attributes":{"ID":338172,"DIS_CODE":0,"TOWNNAME":"東區","LI":"大同里","LIN":"8鄰","STREET":"樹林街","SECT":"一段","MAREA":" ","LANE":" ","ALLEY":" ","HOUSE_NO":"２０５號","E_COORD97":169215.17000000001,"N_COORD97":2542999.8399999999,"ADDRESS":"樹林街一段２０５號","OBJECTID":338163},"geometry":{"x":169215.16999999993,"y":2542999.8399999999}},{"attributes":{"ID":338173,"DIS_CODE":0,"TOWNNAME":"白河區","LI":"甘宅里","LIN":"5鄰","STREET":" ","SECT":" ","MAREA":"甘宅","LANE":" ","ALLEY":" ","HOUSE_NO":"５５號","E_COORD97":192528.54999999999,"N_COORD97":2586834.73,"ADDRESS":"甘宅５５號","OBJECTID":338164},"geometry":{"x":192528.55000000168,"y":2586834.7300000023}},{"attributes":{"ID":338174,"DIS_CODE":0,"TOWNNAME":"白河區","LI":"甘宅里","LIN":"5鄰","STREET":" ","SECT":" ","MAREA":"甘宅","LANE":" ","ALLEY":" ","HOUSE_NO":"５６之１號","E_COORD97":192376.22,"N_COORD97":2586827.6000000001,"ADDRESS":"甘宅５６之１號","OBJECTID":338165},"geometry":{"x":192376.21999999974,"y":2586827.6000000015}},{"attributes":{"ID":338175,"DIS_CODE":0,"TOWNNAME":"白河區","LI":"竹門里","LIN":"5鄰","STREET":" ","SECT":" ","MAREA":"竹子門","LANE":" ","ALLEY":" ","HOUSE_NO":"５９之１號","E_COORD97":193606.17000000001,"N_COORD97":2586222.5800000001,"ADDRESS":"竹子門５９之１號","OBJECTID":338166},"geometry":{"x":193606.17000000086,"y":2586222.5800000001}},{"attributes":{"ID":338176,"DIS_CODE":0,"TOWNNAME":"安南區","LI":"安西里","LIN":"5鄰","STREET":"安通一街","SECT":" ","MAREA":" ","LANE":"１１６巷","ALLEY":" ","HOUSE_NO":"２８號","E_COORD97":168875.72922000001,"N_COORD97":2548078.7094399999,"ADDRESS":"安通一街１１６巷２８號","OBJECTID":338167},"geometry":{"x":168875.72922000103,"y":2548078.7094379999}},{"attributes":{"ID":338177,"DIS_CODE":0,"TOWNNAME":"安南區","LI":"安西里","LIN":"5鄰","STREET":"安通一街","SECT":" ","MAREA":" ","LANE":"１１６巷","ALLEY":" ","HOUSE_NO":"２６號","E_COORD97":168870.64060300001,"N_COORD97":2548078.4977699998,"ADDRESS":"安通一街１１６巷２６號","OBJECTID":338168},"geometry":{"x":168870.64060300216,"y":2548078.4977709986}},{"attributes":{"ID":338178,"DIS_CODE":0,"TOWNNAME":"柳營區","LI":"士林里","LIN":"1鄰","STREET":"士林街","SECT":" ","MAREA":" ","LANE":"１７巷","ALLEY":" ","HOUSE_NO":"１號","E_COORD97":179270.01000000001,"N_COORD97":2575109.1000000001,"ADDRESS":"士林街１７巷１號","OBJECTID":338169},"geometry":{"x":179270.00999999978,"y":2575109.0999999996}},{"attributes":{"ID":338179,"DIS_CODE":0,"TOWNNAME":"新營區","LI":"興業里","LIN":"1鄰","STREET":"公誠街","SECT":" ","MAREA":" ","LANE":"１７巷","ALLEY":" ","HOUSE_NO":"１０之１號","E_COORD97":180333.78,"N_COORD97":2577927.7799999998,"ADDRESS":"公誠街１７巷１０之１號","OBJECTID":338170},"geometry":{"x":180333.78000000026,"y":2577927.7799999993}},{"attributes":{"ID":338180,"DIS_CODE":0,"TOWNNAME":"新營區","LI":"興業里","LIN":"1鄰","STREET":"公誠街","SECT":" ","MAREA":" ","LANE":"１７巷","ALLEY":" ","HOUSE_NO":"１０號","E_COORD97":180330.26000000001,"N_COORD97":2577929.9500000002,"ADDRESS":"公誠街１７巷１０號","OBJECTID":338171},"geometry":{"x":180330.26000000164,"y":2577929.9499999993}},{"attributes":{"ID":338181,"DIS_CODE":0,"TOWNNAME":"新營區","LI":"好平里","LIN":"1鄰","STREET":"武侯街","SECT":" ","MAREA":" ","LANE":"９巷","ALLEY":" ","HOUSE_NO":"２９號","E_COORD97":179568.16,"N_COORD97":2577689.9100000001,"ADDRESS":"武侯街９巷２９號","OBJECTID":338172},"geometry":{"x":179568.16000000015,"y":2577689.9100000001}},{"attributes":{"ID":338182,"DIS_CODE":0,"TOWNNAME":"新營區","LI":"興業里","LIN":"1鄰","STREET":"公誠街","SECT":" ","MAREA":" ","LANE":"１７巷","ALLEY":" ","HOUSE_NO":"１２號之１","E_COORD97":180340.60000000001,"N_COORD97":2577931.0600000001,"ADDRESS":"公誠街１７巷１２號之１","OBJECTID":338173},"geometry":{"x":180340.59999999963,"y":2577931.0600000005}},{"attributes":{"ID":338183,"DIS_CODE":0,"TOWNNAME":"新營區","LI":"新南里","LIN":"1鄰","STREET":"民治路","SECT":" ","MAREA":" ","LANE":"２３０巷","ALLEY":" ","HOUSE_NO":"６２號","E_COORD97":178673.66,"N_COORD97":2578667.6400000001,"ADDRESS":"民治路２３０巷６２號","OBJECTID":338174},"geometry":{"x":178673.66000000108,"y":2578667.6400000025}},{"attributes":{"ID":338184,"DIS_CODE":0,"TOWNNAME":"新營區","LI":"興業里","LIN":"1鄰","STREET":"公誠街","SECT":" ","MAREA":" ","LANE":"１７巷","ALLEY":" ","HOUSE_NO":"８號","E_COORD97":180321.89999999999,"N_COORD97":2577925.5499999998,"ADDRESS":"公誠街１７巷８號","OBJECTID":338175},"geometry":{"x":180321.9000000013,"y":2577925.5500000026}},{"attributes":{"ID":338185,"DIS_CODE":0,"TOWNNAME":"新營區","LI":"新南里","LIN":"1鄰","STREET":"民治路","SECT":" ","MAREA":" ","LANE":"２３０巷","ALLEY":" ","HOUSE_NO":"８號","E_COORD97":178807.07000000001,"N_COORD97":2578580.6099999999,"ADDRESS":"民治路２３０巷８號","OBJECTID":338176},"geometry":{"x":178807.07000000123,"y":2578580.6099999994}},{"attributes":{"ID":338186,"DIS_CODE":0,"TOWNNAME":"新營區","LI":"忠政里","LIN":"1鄰","STREET":"中正路","SECT":" ","MAREA":" ","LANE":"３１巷","ALLEY":" ","HOUSE_NO":"２８號","E_COORD97":180061.19,"N_COORD97":2578987.7200000002,"ADDRESS":"中正路３１巷２８號","OBJECTID":338177},"geometry":{"x":180061.19000000041,"y":2578987.7200000007}},{"attributes":{"ID":338187,"DIS_CODE":0,"TOWNNAME":"新營區","LI":"好平里","LIN":"1鄰","STREET":"武侯街","SECT":" ","MAREA":" ","LANE":"９巷","ALLEY":" ","HOUSE_NO":"４２號","E_COORD97":179536.48999999999,"N_COORD97":2577695.6000000001,"ADDRESS":"武侯街９巷４２號","OBJECTID":338178},"geometry":{"x":179536.49000000115,"y":2577695.5999999996}},{"attributes":{"ID":338188,"DIS_CODE":0,"TOWNNAME":"新營區","LI":"好平里","LIN":"1鄰","STREET":"武侯街","SECT":" ","MAREA":" ","LANE":"９巷","ALLEY":" ","HOUSE_NO":"３２號","E_COORD97":179564.12,"N_COORD97":2577697.6800000002,"ADDRESS":"武侯街９巷３２號","OBJECTID":338179},"geometry":{"x":179564.12000000104,"y":2577697.6799999997}},{"attributes":{"ID":338189,"DIS_CODE":0,"TOWNNAME":"新營區","LI":"興業里","LIN":"1鄰","STREET":"公誠街","SECT":" ","MAREA":" ","LANE":"１７巷","ALLEY":" ","HOUSE_NO":"１８號","E_COORD97":180358.98000000001,"N_COORD97":2577944.2000000002,"ADDRESS":"公誠街１７巷１８號","OBJECTID":338180},"geometry":{"x":180358.98000000138,"y":2577944.2000000011}},{"attributes":{"ID":338190,"DIS_CODE":0,"TOWNNAME":"東區","LI":"大同里","LIN":"8鄰","STREET":"樹林街","SECT":"一段","MAREA":" ","LANE":" ","ALLEY":" ","HOUSE_NO":"２０７號","E_COORD97":169211.44,"N_COORD97":2542997.77,"ADDRESS":"樹林街一段２０７號","OBJECTID":338181},"geometry":{"x":169211.44000000134,"y":2542997.7699999996}},{"attributes":{"ID":338191,"DIS_CODE":0,"TOWNNAME":"東區","LI":"大同里","LIN":"8鄰","STREET":"樹林街","SECT":"一段","MAREA":" ","LANE":" ","ALLEY":" ","HOUSE_NO":"２０９號","E_COORD97":169207.44,"N_COORD97":2542998.73,"ADDRESS":"樹林街一段２０９號","OBJECTID":338182},"geometry":{"x":169207.43999999948,"y":2542998.7300000004}},{"attributes":{"ID":338192,"DIS_CODE":0,"TOWNNAME":"新營區","LI":"興業里","LIN":"1鄰","STREET":"公誠街","SECT":" ","MAREA":" ","LANE":"１７巷","ALLEY":" ","HOUSE_NO":"１０之４號","E_COORD97":180336.81,"N_COORD97":2577921.1200000001,"ADDRESS":"公誠街１７巷１０之４號","OBJECTID":338183},"geometry":{"x":180336.81000000052,"y":2577921.120000001}},{"attributes":{"ID":338193,"DIS_CODE":0,"TOWNNAME":"南區","LI":"省躬里","LIN":"1鄰","STREET":"灣裡路","SECT":" ","MAREA":" ","LANE":"１３６巷","ALLEY":" ","HOUSE_NO":"１９號","E_COORD97":165974.28,"N_COORD97":2536726.4500000002,"ADDRESS":"灣裡路１３６巷１９號","OBJECTID":338184},"geometry":{"x":165974.28000000119,"y":2536726.4499999993}},{"attributes":{"ID":338194,"DIS_CODE":0,"TOWNNAME":"白河區","LI":"竹門里","LIN":"5鄰","STREET":" ","SECT":" ","MAREA":"竹子門","LANE":" ","ALLEY":" ","HOUSE_NO":"５９號","E_COORD97":193619.67999999999,"N_COORD97":2586219.9100000001,"ADDRESS":"竹子門５９號","OBJECTID":338185},"geometry":{"x":193619.68000000063,"y":2586219.910000002}},{"attributes":{"ID":338195,"DIS_CODE":0,"TOWNNAME":"南區","LI":"省躬里","LIN":"1鄰","STREET":"灣裡路","SECT":" ","MAREA":" ","LANE":"１３６巷","ALLEY":" ","HOUSE_NO":"９號","E_COORD97":165992.53,"N_COORD97":2536744.6699999999,"ADDRESS":"灣裡路１３６巷９號","OBJECTID":338186},"geometry":{"x":165992.53000000026,"y":2536744.6700000018}},{"attributes":{"ID":338196,"DIS_CODE":0,"TOWNNAME":"白河區","LI":"竹門里","LIN":"5鄰","STREET":" ","SECT":" ","MAREA":"竹子門","LANE":" ","ALLEY":" ","HOUSE_NO":"６０之１號","E_COORD97":193578.20000000001,"N_COORD97":2586267.0600000001,"ADDRESS":"竹子門６０之１號","OBJECTID":338187},"geometry":{"x":193578.20000000019,"y":2586267.0600000005}},{"attributes":{"ID":338197,"DIS_CODE":0,"TOWNNAME":"南區","LI":"鯤鯓里","LIN":"1鄰","STREET":"鯤鯓路","SECT":" ","MAREA":" ","LANE":"１０１巷","ALLEY":" ","HOUSE_NO":"１１號","E_COORD97":165123.17999999999,"N_COORD97":2539952.48,"ADDRESS":"鯤鯓路１０１巷１１號","OBJECTID":338188},"geometry":{"x":165123.18000000156,"y":2539952.4800000004}},{"attributes":{"ID":338198,"DIS_CODE":0,"TOWNNAME":"白河區","LI":"竹門里","LIN":"5鄰","STREET":" ","SECT":" ","MAREA":"竹子門","LANE":" ","ALLEY":" ","HOUSE_NO":"６０號","E_COORD97":193584.70999999999,"N_COORD97":2586228.1400000001,"ADDRESS":"竹子門６０號","OBJECTID":338189},"geometry":{"x":193584.70999999996,"y":2586228.1400000025}},{"attributes":{"ID":338199,"DIS_CODE":0,"TOWNNAME":"白河區","LI":"竹門里","LIN":"5鄰","STREET":" ","SECT":" ","MAREA":"竹子門","LANE":" ","ALLEY":" ","HOUSE_NO":"６１號","E_COORD97":193550.39000000001,"N_COORD97":2586228.4700000002,"ADDRESS":"竹子門６１號","OBJECTID":338190},"geometry":{"x":193550.3900000006,"y":2586228.4700000044}},{"attributes":{"ID":338200,"DIS_CODE":0,"TOWNNAME":"白河區","LI":"竹門里","LIN":"5鄰","STREET":" ","SECT":" ","MAREA":"竹子門","LANE":" ","ALLEY":" ","HOUSE_NO":"６２號","E_COORD97":193624.94,"N_COORD97":2586254.9500000002,"ADDRESS":"竹子門６２號","OBJECTID":338191},"geometry":{"x":193624.93999999948,"y":2586254.9500000011}},{"attributes":{"ID":338201,"DIS_CODE":0,"TOWNNAME":"白河區","LI":"竹門里","LIN":"5鄰","STREET":" ","SECT":" ","MAREA":"竹子門","LANE":" ","ALLEY":" ","HOUSE_NO":"６３號","E_COORD97":193610.04999999999,"N_COORD97":2586265.3599999999,"ADDRESS":"竹子門６３號","OBJECTID":338192},"geometry":{"x":193610.05000000168,"y":2586265.3600000031}},{"attributes":{"ID":338202,"DIS_CODE":0,"TOWNNAME":"白河區","LI":"竹門里","LIN":"5鄰","STREET":" ","SECT":" ","MAREA":"竹子門","LANE":" ","ALLEY":" ","HOUSE_NO":"６４號","E_COORD97":193594.59,"N_COORD97":2586276.27,"ADDRESS":"竹子門６４號","OBJECTID":338193},"geometry":{"x":193594.59000000171,"y":2586276.2700000033}},{"attributes":{"ID":338203,"DIS_CODE":0,"TOWNNAME":"白河區","LI":"竹門里","LIN":"5鄰","STREET":" ","SECT":" ","MAREA":"竹子門","LANE":" ","ALLEY":" ","HOUSE_NO":"６５之１號","E_COORD97":193637.09,"N_COORD97":2586267.4399999999,"ADDRESS":"竹子門６５之１號","OBJECTID":338194},"geometry":{"x":193637.09000000171,"y":2586267.4399999995}},{"attributes":{"ID":338204,"DIS_CODE":0,"TOWNNAME":"白河區","LI":"竹門里","LIN":"5鄰","STREET":" ","SECT":" ","MAREA":"竹子門","LANE":" ","ALLEY":" ","HOUSE_NO":"６５號","E_COORD97":193616.84,"N_COORD97":2586277.9700000002,"ADDRESS":"竹子門６５號","OBJECTID":338195},"geometry":{"x":193616.84000000078,"y":2586277.9700000007}},{"attributes":{"ID":338205,"DIS_CODE":0,"TOWNNAME":"白河區","LI":"竹門里","LIN":"5鄰","STREET":" ","SECT":" ","MAREA":"竹子門","LANE":" ","ALLEY":" ","HOUSE_NO":"６６之１０號","E_COORD97":193916.28,"N_COORD97":2586400.9700000002,"ADDRESS":"竹子門６６之１０號","OBJECTID":338196},"geometry":{"x":193916.28000000119,"y":2586400.9700000007}},{"attributes":{"ID":338206,"DIS_CODE":0,"TOWNNAME":"白河區","LI":"竹門里","LIN":"5鄰","STREET":" ","SECT":" ","MAREA":"竹子門","LANE":" ","ALLEY":" ","HOUSE_NO":"６６之１２號","E_COORD97":193665.07999999999,"N_COORD97":2586311.5,"ADDRESS":"竹子門６６之１２號","OBJECTID":338197},"geometry":{"x":193665.08000000101,"y":2586311.5}},{"attributes":{"ID":338207,"DIS_CODE":0,"TOWNNAME":"白河區","LI":"竹門里","LIN":"5鄰","STREET":" ","SECT":" ","MAREA":"竹子門","LANE":" ","ALLEY":" ","HOUSE_NO":"６６之１號","E_COORD97":193676.35000000001,"N_COORD97":2586298.3799999999,"ADDRESS":"竹子門６６之１號","OBJECTID":338198},"geometry":{"x":193676.35000000056,"y":2586298.3799999971}},{"attributes":{"ID":338208,"DIS_CODE":0,"TOWNNAME":"白河區","LI":"竹門里","LIN":"5鄰","STREET":" ","SECT":" ","MAREA":"竹子門","LANE":" ","ALLEY":" ","HOUSE_NO":"６６之３號","E_COORD97":193707.53,"N_COORD97":2586320.52,"ADDRESS":"竹子門６６之３號","OBJECTID":338199},"geometry":{"x":193707.53000000119,"y":2586320.5199999996}},{"attributes":{"ID":338209,"DIS_CODE":0,"TOWNNAME":"白河區","LI":"竹門里","LIN":"5鄰","STREET":" ","SECT":" ","MAREA":"竹子門","LANE":" ","ALLEY":" ","HOUSE_NO":"６６號","E_COORD97":193629.78,"N_COORD97":2586293.6400000001,"ADDRESS":"竹子門６６號","OBJECTID":338200},"geometry":{"x":193629.78000000119,"y":2586293.6400000006}}]}