{"displayFieldName":"TOWNNAME","fieldAliases":{"ID":"ID","DIS_CODE":"DIS_CODE","TOWNNAME":"TOWNNAME","LI":"LI","LIN":"LIN","STREET":"STREET","SECT":"SECT","MAREA":"MAREA","LANE":"LANE","ALLEY":"ALLEY","HOUSE_NO":"HOUSE_NO","E_COORD97":"E_COORD97","N_COORD97":"N_COORD97","ADDRESS":"ADDRESS","OBJECTID":"OBJECTID"},"geometryType":"esriGeometryPoint","spatialReference":{"wkid":102443,"latestWkid":3826},"fields":[{"name":"ID","type":"esriFieldTypeDouble","alias":"ID"},{"name":"DIS_CODE","type":"esriFieldTypeInteger","alias":"DIS_CODE"},{"name":"TOWNNAME","type":"esriFieldTypeString","alias":"TOWNNAME","length":8},{"name":"LI","type":"esriFieldTypeString","alias":"LI","length":8},{"name":"LIN","type":"esriFieldTypeString","alias":"LIN","length":12},{"name":"STREET","type":"esriFieldTypeString","alias":"STREET","length":20},{"name":"SECT","type":"esriFieldTypeString","alias":"SECT","length":8},{"name":"MAREA","type":"esriFieldTypeString","alias":"MAREA","length":12},{"name":"LANE","type":"esriFieldTypeString","alias":"LANE","length":10},{"name":"ALLEY","type":"esriFieldTypeString","alias":"ALLEY","length":10},{"name":"HOUSE_NO","type":"esriFieldTypeString","alias":"HOUSE_NO","length":20},{"name":"E_COORD97","type":"esriFieldTypeDouble","alias":"E_COORD97"},{"name":"N_COORD97","type":"esriFieldTypeDouble","alias":"N_COORD97"},{"name":"ADDRESS","type":"esriFieldTypeString","alias":"ADDRESS","length":50},{"name":"OBJECTID","type":"esriFieldTypeOID","alias":"OBJECTID"}],"features":[{"attributes":{"ID":460226,"DIS_CODE":0,"TOWNNAME":"東區","LI":"崇成里","LIN":"13鄰","STREET":"崇道路","SECT":" ","MAREA":" ","LANE":" ","ALLEY":" ","HOUSE_NO":"２０號","E_COORD97":170657.79000000001,"N_COORD97":2541386.25,"ADDRESS":"崇道路２０號","OBJECTID":460201},"geometry":{"x":170657.79000000097,"y":2541386.2500000019}},{"attributes":{"ID":460227,"DIS_CODE":0,"TOWNNAME":"東區","LI":"崇成里","LIN":"13鄰","STREET":"崇道路","SECT":" ","MAREA":" ","LANE":" ","ALLEY":" ","HOUSE_NO":"４２號之１","E_COORD97":170724.14000000001,"N_COORD97":2541387.4399999999,"ADDRESS":"崇道路４２號之１","OBJECTID":460202},"geometry":{"x":170724.13999999873,"y":2541387.4400000013}},{"attributes":{"ID":460228,"DIS_CODE":0,"TOWNNAME":"佳里區","LI":"東寧里","LIN":"13鄰","STREET":"和平街","SECT":" ","MAREA":" ","LANE":" ","ALLEY":" ","HOUSE_NO":"４４號","E_COORD97":165962.04000000001,"N_COORD97":2562524.2000000002,"ADDRESS":"和平街４４號","OBJECTID":460203},"geometry":{"x":165962.04000000097,"y":2562524.2000000011}},{"attributes":{"ID":460229,"DIS_CODE":0,"TOWNNAME":"佳里區","LI":"東寧里","LIN":"13鄰","STREET":"和平街","SECT":" ","MAREA":" ","LANE":" ","ALLEY":" ","HOUSE_NO":"４６號","E_COORD97":165957.42000000001,"N_COORD97":2562524.6699999999,"ADDRESS":"和平街４６號","OBJECTID":460204},"geometry":{"x":165957.42000000179,"y":2562524.6700000018}},{"attributes":{"ID":460230,"DIS_CODE":0,"TOWNNAME":"佳里區","LI":"東寧里","LIN":"13鄰","STREET":"和平街","SECT":" ","MAREA":" ","LANE":" ","ALLEY":" ","HOUSE_NO":"４８號","E_COORD97":165953.64000000001,"N_COORD97":2562524.6499999999,"ADDRESS":"和平街４８號","OBJECTID":460205},"geometry":{"x":165953.63999999966,"y":2562524.6499999985}},{"attributes":{"ID":460231,"DIS_CODE":0,"TOWNNAME":"佳里區","LI":"東寧里","LIN":"13鄰","STREET":"和平街","SECT":" ","MAREA":" ","LANE":" ","ALLEY":" ","HOUSE_NO":"５２號","E_COORD97":165949.32999999999,"N_COORD97":2562548.4399999999,"ADDRESS":"和平街５２號","OBJECTID":460206},"geometry":{"x":165949.33000000007,"y":2562548.4399999995}},{"attributes":{"ID":460232,"DIS_CODE":0,"TOWNNAME":"佳里區","LI":"東寧里","LIN":"13鄰","STREET":"和平街","SECT":" ","MAREA":" ","LANE":" ","ALLEY":" ","HOUSE_NO":"５４號","E_COORD97":165953.73000000001,"N_COORD97":2562540.48,"ADDRESS":"和平街５４號","OBJECTID":460207},"geometry":{"x":165953.73000000045,"y":2562540.4800000023}},{"attributes":{"ID":460233,"DIS_CODE":0,"TOWNNAME":"佳里區","LI":"東寧里","LIN":"13鄰","STREET":"和平街","SECT":" ","MAREA":" ","LANE":" ","ALLEY":" ","HOUSE_NO":"５６號","E_COORD97":165946.23999999999,"N_COORD97":2562523.8599999999,"ADDRESS":"和平街５６號","OBJECTID":460208},"geometry":{"x":165946.24000000115,"y":2562523.8600000013}},{"attributes":{"ID":460234,"DIS_CODE":0,"TOWNNAME":"佳里區","LI":"東寧里","LIN":"13鄰","STREET":"和平街","SECT":" ","MAREA":" ","LANE":" ","ALLEY":" ","HOUSE_NO":"６０號","E_COORD97":165937.62,"N_COORD97":2562527.5099999998,"ADDRESS":"和平街６０號","OBJECTID":460209},"geometry":{"x":165937.62000000197,"y":2562527.5099999998}},{"attributes":{"ID":460235,"DIS_CODE":0,"TOWNNAME":"佳里區","LI":"東寧里","LIN":"13鄰","STREET":"和平街","SECT":" ","MAREA":" ","LANE":" ","ALLEY":" ","HOUSE_NO":"６６號","E_COORD97":165910.14000000001,"N_COORD97":2562527.04,"ADDRESS":"和平街６６號","OBJECTID":460210},"geometry":{"x":165910.1400000006,"y":2562527.0399999991}},{"attributes":{"ID":460236,"DIS_CODE":0,"TOWNNAME":"佳里區","LI":"東寧里","LIN":"13鄰","STREET":"和平街","SECT":" ","MAREA":" ","LANE":" ","ALLEY":" ","HOUSE_NO":"７４號","E_COORD97":165896.94,"N_COORD97":2562522.7000000002,"ADDRESS":"和平街７４號","OBJECTID":460211},"geometry":{"x":165896.94000000227,"y":2562522.6999999993}},{"attributes":{"ID":460237,"DIS_CODE":0,"TOWNNAME":"中西區","LI":"普濟里","LIN":"13鄰","STREET":"郡緯街","SECT":" ","MAREA":" ","LANE":" ","ALLEY":" ","HOUSE_NO":"１００號","E_COORD97":167893.51000000001,"N_COORD97":2544430.8799999999,"ADDRESS":"郡緯街１００號","OBJECTID":460212},"geometry":{"x":167893.50999999978,"y":2544430.8800000027}},{"attributes":{"ID":460238,"DIS_CODE":0,"TOWNNAME":"中西區","LI":"普濟里","LIN":"13鄰","STREET":"郡緯街","SECT":" ","MAREA":" ","LANE":" ","ALLEY":" ","HOUSE_NO":"１０２號","E_COORD97":167890.95000000001,"N_COORD97":2544434.9399999999,"ADDRESS":"郡緯街１０２號","OBJECTID":460213},"geometry":{"x":167890.95000000019,"y":2544434.9400000013}},{"attributes":{"ID":460239,"DIS_CODE":0,"TOWNNAME":"中西區","LI":"普濟里","LIN":"13鄰","STREET":"郡緯街","SECT":" ","MAREA":" ","LANE":" ","ALLEY":" ","HOUSE_NO":"１０４號","E_COORD97":167880.16,"N_COORD97":2544434.0099999998,"ADDRESS":"郡緯街１０４號","OBJECTID":460214},"geometry":{"x":167880.16000000201,"y":2544434.0099999979}},{"attributes":{"ID":460240,"DIS_CODE":0,"TOWNNAME":"中西區","LI":"普濟里","LIN":"13鄰","STREET":"郡緯街","SECT":" ","MAREA":" ","LANE":" ","ALLEY":" ","HOUSE_NO":"１０６號","E_COORD97":167878.07000000001,"N_COORD97":2544436.6800000002,"ADDRESS":"郡緯街１０６號","OBJECTID":460215},"geometry":{"x":167878.07000000123,"y":2544436.6800000016}},{"attributes":{"ID":460241,"DIS_CODE":0,"TOWNNAME":"中西區","LI":"普濟里","LIN":"13鄰","STREET":"郡緯街","SECT":" ","MAREA":" ","LANE":" ","ALLEY":" ","HOUSE_NO":"７０號","E_COORD97":167907.97,"N_COORD97":2544405.1000000001,"ADDRESS":"郡緯街７０號","OBJECTID":460216},"geometry":{"x":167907.96999999881,"y":2544405.0999999996}},{"attributes":{"ID":460242,"DIS_CODE":0,"TOWNNAME":"中西區","LI":"普濟里","LIN":"13鄰","STREET":"郡緯街","SECT":" ","MAREA":" ","LANE":" ","ALLEY":" ","HOUSE_NO":"７２號","E_COORD97":167902.67000000001,"N_COORD97":2544406.5800000001,"ADDRESS":"郡緯街７２號","OBJECTID":460217},"geometry":{"x":167902.67000000086,"y":2544406.5800000001}},{"attributes":{"ID":460243,"DIS_CODE":0,"TOWNNAME":"中西區","LI":"普濟里","LIN":"13鄰","STREET":"郡緯街","SECT":" ","MAREA":" ","LANE":" ","ALLEY":" ","HOUSE_NO":"７４號","E_COORD97":167896.51999999999,"N_COORD97":2544408.4900000002,"ADDRESS":"郡緯街７４號","OBJECTID":460218},"geometry":{"x":167896.52000000048,"y":2544408.4900000021}},{"attributes":{"ID":460244,"DIS_CODE":0,"TOWNNAME":"中西區","LI":"普濟里","LIN":"13鄰","STREET":"郡緯街","SECT":" ","MAREA":" ","LANE":" ","ALLEY":" ","HOUSE_NO":"７６號","E_COORD97":167889.63,"N_COORD97":2544411.6699999999,"ADDRESS":"郡緯街７６號","OBJECTID":460219},"geometry":{"x":167889.62999999989,"y":2544411.6699999999}},{"attributes":{"ID":460245,"DIS_CODE":0,"TOWNNAME":"中西區","LI":"普濟里","LIN":"13鄰","STREET":"郡緯街","SECT":" ","MAREA":" ","LANE":" ","ALLEY":" ","HOUSE_NO":"７８號","E_COORD97":167884.32000000001,"N_COORD97":2544413.2599999998,"ADDRESS":"郡緯街７８號","OBJECTID":460220},"geometry":{"x":167884.32000000216,"y":2544413.2600000016}},{"attributes":{"ID":460246,"DIS_CODE":0,"TOWNNAME":"中西區","LI":"普濟里","LIN":"13鄰","STREET":"郡緯街","SECT":" ","MAREA":" ","LANE":" ","ALLEY":" ","HOUSE_NO":"８０號","E_COORD97":167877.07999999999,"N_COORD97":2544416.4500000002,"ADDRESS":"郡緯街８０號","OBJECTID":460221},"geometry":{"x":167877.07999999914,"y":2544416.4499999993}},{"attributes":{"ID":460247,"DIS_CODE":0,"TOWNNAME":"中西區","LI":"普濟里","LIN":"13鄰","STREET":"郡緯街","SECT":" ","MAREA":" ","LANE":" ","ALLEY":" ","HOUSE_NO":"８３號","E_COORD97":167909.32000000001,"N_COORD97":2544388.2000000002,"ADDRESS":"郡緯街８３號","OBJECTID":460222},"geometry":{"x":167909.3200000003,"y":2544388.200000003}},{"attributes":{"ID":460248,"DIS_CODE":0,"TOWNNAME":"中西區","LI":"普濟里","LIN":"13鄰","STREET":"郡緯街","SECT":" ","MAREA":" ","LANE":" ","ALLEY":" ","HOUSE_NO":"８５號","E_COORD97":167891.01000000001,"N_COORD97":2544398.0800000001,"ADDRESS":"郡緯街８５號","OBJECTID":460223},"geometry":{"x":167891.01000000164,"y":2544398.0800000019}},{"attributes":{"ID":460249,"DIS_CODE":0,"TOWNNAME":"中西區","LI":"普濟里","LIN":"13鄰","STREET":"郡緯街","SECT":" ","MAREA":" ","LANE":" ","ALLEY":" ","HOUSE_NO":"８７號","E_COORD97":167882.70999999999,"N_COORD97":2544401.2000000002,"ADDRESS":"郡緯街８７號","OBJECTID":460224},"geometry":{"x":167882.70999999996,"y":2544401.1999999993}},{"attributes":{"ID":460250,"DIS_CODE":0,"TOWNNAME":"中西區","LI":"普濟里","LIN":"13鄰","STREET":"郡緯街","SECT":" ","MAREA":" ","LANE":" ","ALLEY":" ","HOUSE_NO":"８８號","E_COORD97":167874.04000000001,"N_COORD97":2544423.8300000001,"ADDRESS":"郡緯街８８號","OBJECTID":460225},"geometry":{"x":167874.0400000019,"y":2544423.8300000019}},{"attributes":{"ID":460251,"DIS_CODE":0,"TOWNNAME":"中西區","LI":"普濟里","LIN":"13鄰","STREET":"郡緯街","SECT":" ","MAREA":" ","LANE":" ","ALLEY":" ","HOUSE_NO":"８９號","E_COORD97":167877.14000000001,"N_COORD97":2544403.6400000001,"ADDRESS":"郡緯街８９號","OBJECTID":460226},"geometry":{"x":167877.1400000006,"y":2544403.6400000043}},{"attributes":{"ID":460252,"DIS_CODE":0,"TOWNNAME":"下營區","LI":"仁里里","LIN":"13鄰","STREET":"永安街","SECT":" ","MAREA":" ","LANE":" ","ALLEY":" ","HOUSE_NO":"９２號","E_COORD97":174110.23999999999,"N_COORD97":2570498.3500000001,"ADDRESS":"永安街９２號","OBJECTID":460227},"geometry":{"x":174110.24000000115,"y":2570498.3500000015}},{"attributes":{"ID":460253,"DIS_CODE":0,"TOWNNAME":"中西區","LI":"安海里","LIN":"13鄰","STREET":"河中街","SECT":" ","MAREA":" ","LANE":" ","ALLEY":" ","HOUSE_NO":"４１號之１","E_COORD97":167284.35999999999,"N_COORD97":2544032.3700000001,"ADDRESS":"河中街４１號之１","OBJECTID":460228},"geometry":{"x":167284.36000000127,"y":2544032.370000001}},{"attributes":{"ID":460254,"DIS_CODE":0,"TOWNNAME":"中西區","LI":"安海里","LIN":"13鄰","STREET":"河中街","SECT":" ","MAREA":" ","LANE":" ","ALLEY":" ","HOUSE_NO":"４１號之２","E_COORD97":167285.35000000001,"N_COORD97":2544037.1000000001,"ADDRESS":"河中街４１號之２","OBJECTID":460229},"geometry":{"x":167285.35000000056,"y":2544037.1000000015}},{"attributes":{"ID":460255,"DIS_CODE":0,"TOWNNAME":"中西區","LI":"安海里","LIN":"13鄰","STREET":"河中街","SECT":" ","MAREA":" ","LANE":" ","ALLEY":" ","HOUSE_NO":"４１號之３","E_COORD97":167285.54999999999,"N_COORD97":2544040.8500000001,"ADDRESS":"河中街４１號之３","OBJECTID":460230},"geometry":{"x":167285.55000000168,"y":2544040.8499999996}},{"attributes":{"ID":460256,"DIS_CODE":0,"TOWNNAME":"下營區","LI":"仁里里","LIN":"13鄰","STREET":"友愛街","SECT":" ","MAREA":" ","LANE":" ","ALLEY":" ","HOUSE_NO":"３７號","E_COORD97":174184.26000000001,"N_COORD97":2570394.5800000001,"ADDRESS":"友愛街３７號","OBJECTID":460231},"geometry":{"x":174184.26000000071,"y":2570394.5800000019}},{"attributes":{"ID":460257,"DIS_CODE":0,"TOWNNAME":"下營區","LI":"仁里里","LIN":"13鄰","STREET":"友愛街","SECT":" ","MAREA":" ","LANE":" ","ALLEY":" ","HOUSE_NO":"３９號","E_COORD97":174184.04000000001,"N_COORD97":2570402.3799999999,"ADDRESS":"友愛街３９號","OBJECTID":460232},"geometry":{"x":174184.04000000097,"y":2570402.3800000008}},{"attributes":{"ID":460258,"DIS_CODE":0,"TOWNNAME":"下營區","LI":"仁里里","LIN":"13鄰","STREET":"友愛街","SECT":" ","MAREA":" ","LANE":" ","ALLEY":" ","HOUSE_NO":"４１號","E_COORD97":174183.47,"N_COORD97":2570406.6699999999,"ADDRESS":"友愛街４１號","OBJECTID":460233},"geometry":{"x":174183.46999999974,"y":2570406.6699999981}},{"attributes":{"ID":460259,"DIS_CODE":0,"TOWNNAME":"下營區","LI":"仁里里","LIN":"13鄰","STREET":"友愛街","SECT":" ","MAREA":" ","LANE":" ","ALLEY":" ","HOUSE_NO":"４３號","E_COORD97":174183.29999999999,"N_COORD97":2570409.7200000002,"ADDRESS":"友愛街４３號","OBJECTID":460234},"geometry":{"x":174183.30000000168,"y":2570409.7200000007}},{"attributes":{"ID":460260,"DIS_CODE":0,"TOWNNAME":"下營區","LI":"仁里里","LIN":"13鄰","STREET":"友愛街","SECT":" ","MAREA":" ","LANE":" ","ALLEY":" ","HOUSE_NO":"４５號","E_COORD97":174183.04999999999,"N_COORD97":2570413.6200000001,"ADDRESS":"友愛街４５號","OBJECTID":460235},"geometry":{"x":174183.04999999981,"y":2570413.620000001}},{"attributes":{"ID":460261,"DIS_CODE":0,"TOWNNAME":"下營區","LI":"仁里里","LIN":"13鄰","STREET":"友愛街","SECT":" ","MAREA":" ","LANE":" ","ALLEY":" ","HOUSE_NO":"４７號","E_COORD97":174182.60000000001,"N_COORD97":2570417.6099999999,"ADDRESS":"友愛街４７號","OBJECTID":460236},"geometry":{"x":174182.5999999987,"y":2570417.6100000013}},{"attributes":{"ID":460262,"DIS_CODE":0,"TOWNNAME":"下營區","LI":"仁里里","LIN":"13鄰","STREET":"友愛街","SECT":" ","MAREA":" ","LANE":" ","ALLEY":" ","HOUSE_NO":"４９號","E_COORD97":174182.01000000001,"N_COORD97":2570421.5099999998,"ADDRESS":"友愛街４９號","OBJECTID":460237},"geometry":{"x":174182.01000000071,"y":2570421.5100000035}},{"attributes":{"ID":460263,"DIS_CODE":0,"TOWNNAME":"下營區","LI":"仁里里","LIN":"13鄰","STREET":"友愛街","SECT":" ","MAREA":" ","LANE":" ","ALLEY":" ","HOUSE_NO":"５１號","E_COORD97":174181.84,"N_COORD97":2570425.7999999998,"ADDRESS":"友愛街５１號","OBJECTID":460238},"geometry":{"x":174181.84000000078,"y":2570425.8000000007}},{"attributes":{"ID":460264,"DIS_CODE":0,"TOWNNAME":"下營區","LI":"仁里里","LIN":"13鄰","STREET":"友愛街","SECT":" ","MAREA":" ","LANE":" ","ALLEY":" ","HOUSE_NO":"５３號","E_COORD97":174181.03,"N_COORD97":2570429.7999999998,"ADDRESS":"友愛街５３號","OBJECTID":460239},"geometry":{"x":174181.03000000119,"y":2570429.8000000007}},{"attributes":{"ID":460265,"DIS_CODE":0,"TOWNNAME":"下營區","LI":"仁里里","LIN":"13鄰","STREET":"友愛街","SECT":" ","MAREA":" ","LANE":" ","ALLEY":" ","HOUSE_NO":"５５號","E_COORD97":174180.89999999999,"N_COORD97":2570433.96,"ADDRESS":"友愛街５５號","OBJECTID":460240},"geometry":{"x":174180.90000000037,"y":2570433.9600000028}},{"attributes":{"ID":460266,"DIS_CODE":0,"TOWNNAME":"下營區","LI":"仁里里","LIN":"13鄰","STREET":"友愛街","SECT":" ","MAREA":" ","LANE":" ","ALLEY":" ","HOUSE_NO":"５７號","E_COORD97":174180.25,"N_COORD97":2570437.8900000001,"ADDRESS":"友愛街５７號","OBJECTID":460241},"geometry":{"x":174180.24999999907,"y":2570437.8900000025}},{"attributes":{"ID":460267,"DIS_CODE":0,"TOWNNAME":"下營區","LI":"仁里里","LIN":"13鄰","STREET":"友愛街","SECT":" ","MAREA":" ","LANE":" ","ALLEY":" ","HOUSE_NO":"５９號","E_COORD97":174179.92999999999,"N_COORD97":2570441.7999999998,"ADDRESS":"友愛街５９號","OBJECTID":460242},"geometry":{"x":174179.9299999997,"y":2570441.8000000026}},{"attributes":{"ID":460268,"DIS_CODE":0,"TOWNNAME":"下營區","LI":"仁里里","LIN":"13鄰","STREET":"友愛街","SECT":" ","MAREA":" ","LANE":" ","ALLEY":" ","HOUSE_NO":"６１號","E_COORD97":174179.32000000001,"N_COORD97":2570445.4700000002,"ADDRESS":"友愛街６１號","OBJECTID":460243},"geometry":{"x":174179.32000000123,"y":2570445.4700000007}},{"attributes":{"ID":460269,"DIS_CODE":0,"TOWNNAME":"下營區","LI":"仁里里","LIN":"13鄰","STREET":"友愛街","SECT":" ","MAREA":" ","LANE":" ","ALLEY":" ","HOUSE_NO":"７１號","E_COORD97":174177.29999999999,"N_COORD97":2570465.6800000002,"ADDRESS":"友愛街７１號","OBJECTID":460244},"geometry":{"x":174177.29999999981,"y":2570465.6800000016}},{"attributes":{"ID":460270,"DIS_CODE":0,"TOWNNAME":"下營區","LI":"仁里里","LIN":"13鄰","STREET":"友愛街","SECT":" ","MAREA":" ","LANE":" ","ALLEY":" ","HOUSE_NO":"７３號","E_COORD97":174177.22,"N_COORD97":2570469.3300000001,"ADDRESS":"友愛街７３號","OBJECTID":460245},"geometry":{"x":174177.22000000067,"y":2570469.3300000001}},{"attributes":{"ID":460271,"DIS_CODE":0,"TOWNNAME":"下營區","LI":"仁里里","LIN":"13鄰","STREET":"友愛街","SECT":" ","MAREA":" ","LANE":" ","ALLEY":" ","HOUSE_NO":"７５號","E_COORD97":174177.20999999999,"N_COORD97":2570473.0099999998,"ADDRESS":"友愛街７５號","OBJECTID":460246},"geometry":{"x":174177.21000000183,"y":2570473.0100000016}},{"attributes":{"ID":460272,"DIS_CODE":0,"TOWNNAME":"下營區","LI":"仁里里","LIN":"13鄰","STREET":"友愛街","SECT":" ","MAREA":" ","LANE":" ","ALLEY":" ","HOUSE_NO":"７７號","E_COORD97":174177.12,"N_COORD97":2570476.79,"ADDRESS":"友愛街７７號","OBJECTID":460247},"geometry":{"x":174177.12000000104,"y":2570476.790000001}},{"attributes":{"ID":460273,"DIS_CODE":0,"TOWNNAME":"下營區","LI":"仁里里","LIN":"13鄰","STREET":"友愛街","SECT":" ","MAREA":" ","LANE":" ","ALLEY":" ","HOUSE_NO":"７９號","E_COORD97":174177.14999999999,"N_COORD97":2570481.1400000001,"ADDRESS":"友愛街７９號","OBJECTID":460248},"geometry":{"x":174177.1500000013,"y":2570481.1400000006}},{"attributes":{"ID":460274,"DIS_CODE":0,"TOWNNAME":"下營區","LI":"仁里里","LIN":"13鄰","STREET":"友愛街","SECT":" ","MAREA":" ","LANE":" ","ALLEY":" ","HOUSE_NO":"８５號","E_COORD97":174184.14999999999,"N_COORD97":2570502.52,"ADDRESS":"友愛街８５號","OBJECTID":460249},"geometry":{"x":174184.15000000037,"y":2570502.5200000033}},{"attributes":{"ID":460275,"DIS_CODE":0,"TOWNNAME":"下營區","LI":"仁里里","LIN":"13鄰","STREET":"友愛街","SECT":" ","MAREA":" ","LANE":" ","ALLEY":" ","HOUSE_NO":"８７號","E_COORD97":174151.29000000001,"N_COORD97":2570515.7599999998,"ADDRESS":"友愛街８７號","OBJECTID":460250},"geometry":{"x":174151.2900000019,"y":2570515.7600000016}},{"attributes":{"ID":460276,"DIS_CODE":0,"TOWNNAME":"下營區","LI":"仁里里","LIN":"13鄰","STREET":"永安街","SECT":" ","MAREA":" ","LANE":" ","ALLEY":" ","HOUSE_NO":"７０號","E_COORD97":174110.44,"N_COORD97":2570448.6099999999,"ADDRESS":"永安街７０號","OBJECTID":460251},"geometry":{"x":174110.44000000134,"y":2570448.6100000013}},{"attributes":{"ID":460277,"DIS_CODE":0,"TOWNNAME":"下營區","LI":"仁里里","LIN":"13鄰","STREET":"永安街","SECT":" ","MAREA":" ","LANE":" ","ALLEY":" ","HOUSE_NO":"７８號","E_COORD97":174107.09,"N_COORD97":2570474.1699999999,"ADDRESS":"永安街７８號","OBJECTID":460252},"geometry":{"x":174107.09000000078,"y":2570474.1699999999}},{"attributes":{"ID":460278,"DIS_CODE":0,"TOWNNAME":"下營區","LI":"仁里里","LIN":"13鄰","STREET":"永安街","SECT":" ","MAREA":" ","LANE":" ","ALLEY":" ","HOUSE_NO":"９６號","E_COORD97":174099.26000000001,"N_COORD97":2570510.04,"ADDRESS":"永安街９６號","OBJECTID":460253},"geometry":{"x":174099.26000000071,"y":2570510.040000001}},{"attributes":{"ID":460279,"DIS_CODE":0,"TOWNNAME":"下營區","LI":"仁里里","LIN":"13鄰","STREET":"永安街","SECT":" ","MAREA":" ","LANE":" ","ALLEY":" ","HOUSE_NO":"４８號","E_COORD97":174104.48999999999,"N_COORD97":2570400.8199999998,"ADDRESS":"永安街４８號","OBJECTID":460254},"geometry":{"x":174104.49000000209,"y":2570400.8200000022}},{"attributes":{"ID":460280,"DIS_CODE":0,"TOWNNAME":"下營區","LI":"仁里里","LIN":"13鄰","STREET":"永安街","SECT":" ","MAREA":" ","LANE":" ","ALLEY":" ","HOUSE_NO":"６０號","E_COORD97":174104.53,"N_COORD97":2570426.3700000001,"ADDRESS":"永安街６０號","OBJECTID":460255},"geometry":{"x":174104.53000000119,"y":2570426.370000001}},{"attributes":{"ID":460281,"DIS_CODE":0,"TOWNNAME":"永康區","LI":"正強里","LIN":"13鄰","STREET":"正強街","SECT":" ","MAREA":" ","LANE":" ","ALLEY":" ","HOUSE_NO":"１３３號","E_COORD97":173320.10000000001,"N_COORD97":2547466.6200000001,"ADDRESS":"正強街１３３號","OBJECTID":460256},"geometry":{"x":173320.10000000056,"y":2547466.6200000029}},{"attributes":{"ID":460282,"DIS_CODE":0,"TOWNNAME":"永康區","LI":"埔園里","LIN":"13鄰","STREET":"中山路","SECT":" ","MAREA":" ","LANE":" ","ALLEY":" ","HOUSE_NO":"２１１號","E_COORD97":173664.04999999999,"N_COORD97":2548104.75,"ADDRESS":"中山路２１１號","OBJECTID":460257},"geometry":{"x":173664.04999999981,"y":2548104.7500000037}},{"attributes":{"ID":460283,"DIS_CODE":0,"TOWNNAME":"永康區","LI":"崑山里","LIN":"13鄰","STREET":"大灣路","SECT":" ","MAREA":" ","LANE":" ","ALLEY":" ","HOUSE_NO":"９８８號","E_COORD97":173509.39000000001,"N_COORD97":2544403.3399999999,"ADDRESS":"大灣路９８８號","OBJECTID":460258},"geometry":{"x":173509.38999999873,"y":2544403.3399999999}},{"attributes":{"ID":460284,"DIS_CODE":0,"TOWNNAME":"東區","LI":"崇明里","LIN":"13鄰","STREET":"大同路","SECT":"二段","MAREA":" ","LANE":" ","ALLEY":" ","HOUSE_NO":"６５１號","E_COORD97":169638.57999999999,"N_COORD97":2540878.4199999999,"ADDRESS":"大同路二段６５１號","OBJECTID":460259},"geometry":{"x":169638.58000000194,"y":2540878.4200000037}},{"attributes":{"ID":460285,"DIS_CODE":0,"TOWNNAME":"東區","LI":"崇明里","LIN":"13鄰","STREET":"大同路","SECT":"二段","MAREA":" ","LANE":" ","ALLEY":" ","HOUSE_NO":"６５３號","E_COORD97":169644.5,"N_COORD97":2540879.0499999998,"ADDRESS":"大同路二段６５３號","OBJECTID":460260},"geometry":{"x":169644.50000000093,"y":2540879.0500000026}},{"attributes":{"ID":460286,"DIS_CODE":0,"TOWNNAME":"東區","LI":"崇明里","LIN":"13鄰","STREET":"大同路","SECT":"二段","MAREA":" ","LANE":" ","ALLEY":" ","HOUSE_NO":"６５５號","E_COORD97":169653.39000000001,"N_COORD97":2540880.8500000001,"ADDRESS":"大同路二段６５５號","OBJECTID":460261},"geometry":{"x":169653.3900000006,"y":2540880.8499999996}},{"attributes":{"ID":460287,"DIS_CODE":0,"TOWNNAME":"東區","LI":"崇明里","LIN":"13鄰","STREET":"大同路","SECT":"二段","MAREA":" ","LANE":" ","ALLEY":" ","HOUSE_NO":"６５７號","E_COORD97":169659.32000000001,"N_COORD97":2540881.3799999999,"ADDRESS":"大同路二段６５７號","OBJECTID":460262},"geometry":{"x":169659.32000000123,"y":2540881.3800000008}},{"attributes":{"ID":460288,"DIS_CODE":0,"TOWNNAME":"東區","LI":"崇明里","LIN":"13鄰","STREET":"大同路","SECT":"二段","MAREA":" ","LANE":" ","ALLEY":" ","HOUSE_NO":"６５９號","E_COORD97":169663.87,"N_COORD97":2540856.3399999999,"ADDRESS":"大同路二段６５９號","OBJECTID":460263},"geometry":{"x":169663.87000000104,"y":2540856.3400000017}},{"attributes":{"ID":460289,"DIS_CODE":0,"TOWNNAME":"東區","LI":"崇明里","LIN":"13鄰","STREET":"大同路","SECT":"二段","MAREA":" ","LANE":" ","ALLEY":" ","HOUSE_NO":"６６１號","E_COORD97":169657.51999999999,"N_COORD97":2540856.23,"ADDRESS":"大同路二段６６１號","OBJECTID":460264},"geometry":{"x":169657.52000000048,"y":2540856.2300000004}},{"attributes":{"ID":460290,"DIS_CODE":0,"TOWNNAME":"東區","LI":"崇明里","LIN":"13鄰","STREET":"大同路","SECT":"二段","MAREA":" ","LANE":" ","ALLEY":" ","HOUSE_NO":"６６３號","E_COORD97":169648.51999999999,"N_COORD97":2540854.2200000002,"ADDRESS":"大同路二段６６３號","OBJECTID":460265},"geometry":{"x":169648.52000000142,"y":2540854.2200000025}},{"attributes":{"ID":460291,"DIS_CODE":0,"TOWNNAME":"東區","LI":"崇明里","LIN":"13鄰","STREET":"大同路","SECT":"二段","MAREA":" ","LANE":" ","ALLEY":" ","HOUSE_NO":"６６５號","E_COORD97":169641.64999999999,"N_COORD97":2540853.3799999999,"ADDRESS":"大同路二段６６５號","OBJECTID":460266},"geometry":{"x":169641.64999999944,"y":2540853.379999999}},{"attributes":{"ID":460292,"DIS_CODE":0,"TOWNNAME":"東區","LI":"崇明里","LIN":"13鄰","STREET":"大同路","SECT":"二段","MAREA":" ","LANE":" ","ALLEY":" ","HOUSE_NO":"６６７號","E_COORD97":169626.04999999999,"N_COORD97":2540856.9399999999,"ADDRESS":"大同路二段６６７號","OBJECTID":460267},"geometry":{"x":169626.04999999981,"y":2540856.9399999995}},{"attributes":{"ID":460293,"DIS_CODE":0,"TOWNNAME":"東區","LI":"崇明里","LIN":"13鄰","STREET":"大同路","SECT":"二段","MAREA":" ","LANE":" ","ALLEY":" ","HOUSE_NO":"６６９號","E_COORD97":169626.69,"N_COORD97":2540852.3900000001,"ADDRESS":"大同路二段６６９號","OBJECTID":460268},"geometry":{"x":169626.69000000134,"y":2540852.3900000043}},{"attributes":{"ID":460294,"DIS_CODE":0,"TOWNNAME":"東區","LI":"崇明里","LIN":"13鄰","STREET":"大同路","SECT":"二段","MAREA":" ","LANE":" ","ALLEY":" ","HOUSE_NO":"６７１號","E_COORD97":169627.10999999999,"N_COORD97":2540848.0600000001,"ADDRESS":"大同路二段６７１號","OBJECTID":460269},"geometry":{"x":169627.11000000127,"y":2540848.0600000024}},{"attributes":{"ID":460295,"DIS_CODE":0,"TOWNNAME":"東區","LI":"崇明里","LIN":"13鄰","STREET":"大同路","SECT":"二段","MAREA":" ","LANE":" ","ALLEY":" ","HOUSE_NO":"６７３號","E_COORD97":169628.70000000001,"N_COORD97":2540843.2999999998,"ADDRESS":"大同路二段６７３號","OBJECTID":460270},"geometry":{"x":169628.70000000019,"y":2540843.3000000026}},{"attributes":{"ID":460296,"DIS_CODE":0,"TOWNNAME":"東區","LI":"崇明里","LIN":"13鄰","STREET":"大同路","SECT":"二段","MAREA":" ","LANE":" ","ALLEY":" ","HOUSE_NO":"６７５號","E_COORD97":169628.91,"N_COORD97":2540838.6499999999,"ADDRESS":"大同路二段６７５號","OBJECTID":460271},"geometry":{"x":169628.91000000015,"y":2540838.6500000004}},{"attributes":{"ID":460297,"DIS_CODE":0,"TOWNNAME":"東區","LI":"崇明里","LIN":"13鄰","STREET":"大同路","SECT":"二段","MAREA":" ","LANE":" ","ALLEY":" ","HOUSE_NO":"６７７號","E_COORD97":169629.76000000001,"N_COORD97":2540833.7799999998,"ADDRESS":"大同路二段６７７號","OBJECTID":460272},"geometry":{"x":169629.75999999978,"y":2540833.7799999993}},{"attributes":{"ID":460298,"DIS_CODE":0,"TOWNNAME":"東區","LI":"崇明里","LIN":"13鄰","STREET":"大同路","SECT":"二段","MAREA":" ","LANE":" ","ALLEY":" ","HOUSE_NO":"６７９號","E_COORD97":169643.54999999999,"N_COORD97":2540841.5299999998,"ADDRESS":"大同路二段６７９號","OBJECTID":460273},"geometry":{"x":169643.55000000168,"y":2540841.5299999993}},{"attributes":{"ID":460299,"DIS_CODE":0,"TOWNNAME":"東區","LI":"崇明里","LIN":"13鄰","STREET":"大同路","SECT":"二段","MAREA":" ","LANE":" ","ALLEY":" ","HOUSE_NO":"６８１號","E_COORD97":169650.32000000001,"N_COORD97":2540842.7999999998,"ADDRESS":"大同路二段６８１號","OBJECTID":460274},"geometry":{"x":169650.3200000003,"y":2540842.8000000045}},{"attributes":{"ID":460300,"DIS_CODE":0,"TOWNNAME":"東區","LI":"崇明里","LIN":"13鄰","STREET":"大同路","SECT":"二段","MAREA":" ","LANE":" ","ALLEY":" ","HOUSE_NO":"６８３號","E_COORD97":169658.67999999999,"N_COORD97":2540842.7999999998,"ADDRESS":"大同路二段６８３號","OBJECTID":460275},"geometry":{"x":169658.6799999997,"y":2540842.8000000045}},{"attributes":{"ID":460301,"DIS_CODE":0,"TOWNNAME":"東區","LI":"崇明里","LIN":"13鄰","STREET":"大同路","SECT":"二段","MAREA":" ","LANE":" ","ALLEY":" ","HOUSE_NO":"６９３號","E_COORD97":169647.14999999999,"N_COORD97":2540818.5,"ADDRESS":"大同路二段６９３號","OBJECTID":460276},"geometry":{"x":169647.1500000013,"y":2540818.5000000019}},{"attributes":{"ID":460302,"DIS_CODE":0,"TOWNNAME":"東區","LI":"崇明里","LIN":"13鄰","STREET":"大同路","SECT":"二段","MAREA":" ","LANE":" ","ALLEY":" ","HOUSE_NO":"６９５號","E_COORD97":169630.92000000001,"N_COORD97":2540822.77,"ADDRESS":"大同路二段６９５號","OBJECTID":460277},"geometry":{"x":169630.92000000179,"y":2540822.7700000014}},{"attributes":{"ID":460303,"DIS_CODE":0,"TOWNNAME":"東區","LI":"崇明里","LIN":"13鄰","STREET":"大同路","SECT":"二段","MAREA":" ","LANE":" ","ALLEY":" ","HOUSE_NO":"６９７號","E_COORD97":169631.13,"N_COORD97":2540818.54,"ADDRESS":"大同路二段６９７號","OBJECTID":460278},"geometry":{"x":169631.13000000175,"y":2540818.5399999991}},{"attributes":{"ID":460304,"DIS_CODE":0,"TOWNNAME":"東區","LI":"崇明里","LIN":"13鄰","STREET":"大同路","SECT":"二段","MAREA":" ","LANE":" ","ALLEY":" ","HOUSE_NO":"６９９號","E_COORD97":169631.87,"N_COORD97":2540812.5099999998,"ADDRESS":"大同路二段６９９號","OBJECTID":460279},"geometry":{"x":169631.87000000104,"y":2540812.5099999998}},{"attributes":{"ID":460305,"DIS_CODE":0,"TOWNNAME":"東區","LI":"崇明里","LIN":"13鄰","STREET":"大同路","SECT":"二段","MAREA":" ","LANE":" ","ALLEY":" ","HOUSE_NO":"７０１號","E_COORD97":169633.25,"N_COORD97":2540808.6000000001,"ADDRESS":"大同路二段７０１號","OBJECTID":460280},"geometry":{"x":169633.25,"y":2540808.5999999996}},{"attributes":{"ID":460306,"DIS_CODE":0,"TOWNNAME":"東區","LI":"崇明里","LIN":"13鄰","STREET":"大同路","SECT":"二段","MAREA":" ","LANE":" ","ALLEY":" ","HOUSE_NO":"７０３號","E_COORD97":169633.25,"N_COORD97":2540803.4199999999,"ADDRESS":"大同路二段７０３號","OBJECTID":460281},"geometry":{"x":169633.25,"y":2540803.4199999999}},{"attributes":{"ID":460307,"DIS_CODE":0,"TOWNNAME":"東區","LI":"崇明里","LIN":"13鄰","STREET":"大同路","SECT":"二段","MAREA":" ","LANE":" ","ALLEY":" ","HOUSE_NO":"７０５號","E_COORD97":169633.88,"N_COORD97":2540798.6600000001,"ADDRESS":"大同路二段７０５號","OBJECTID":460282},"geometry":{"x":169633.87999999989,"y":2540798.6600000001}},{"attributes":{"ID":460308,"DIS_CODE":0,"TOWNNAME":"東區","LI":"崇信里","LIN":"13鄰","STREET":"崇信街","SECT":" ","MAREA":" ","LANE":" ","ALLEY":" ","HOUSE_NO":"５８號","E_COORD97":170707.54999999999,"N_COORD97":2542449.8799999999,"ADDRESS":"崇信街５８號","OBJECTID":460283},"geometry":{"x":170707.54999999981,"y":2542449.879999999}},{"attributes":{"ID":460309,"DIS_CODE":0,"TOWNNAME":"東區","LI":"崇信里","LIN":"13鄰","STREET":"崇信街","SECT":" ","MAREA":" ","LANE":" ","ALLEY":" ","HOUSE_NO":"６０號","E_COORD97":170708.79999999999,"N_COORD97":2542444.8799999999,"ADDRESS":"崇信街６０號","OBJECTID":460284},"geometry":{"x":170708.80000000075,"y":2542444.8800000008}},{"attributes":{"ID":460310,"DIS_CODE":0,"TOWNNAME":"東區","LI":"崇信里","LIN":"13鄰","STREET":"崇信街","SECT":" ","MAREA":" ","LANE":" ","ALLEY":" ","HOUSE_NO":"６２號","E_COORD97":170710.26000000001,"N_COORD97":2542439.46,"ADDRESS":"崇信街６２號","OBJECTID":460285},"geometry":{"x":170710.26000000071,"y":2542439.4600000028}},{"attributes":{"ID":460311,"DIS_CODE":0,"TOWNNAME":"東區","LI":"崇信里","LIN":"13鄰","STREET":"崇信街","SECT":" ","MAREA":" ","LANE":" ","ALLEY":" ","HOUSE_NO":"８２號","E_COORD97":170728.35999999999,"N_COORD97":2542379.9900000002,"ADDRESS":"崇信街８２號","OBJECTID":460286},"geometry":{"x":170728.36000000034,"y":2542379.9899999984}},{"attributes":{"ID":460312,"DIS_CODE":0,"TOWNNAME":"東區","LI":"崇信里","LIN":"13鄰","STREET":"崇信街","SECT":" ","MAREA":" ","LANE":" ","ALLEY":" ","HOUSE_NO":"８６號","E_COORD97":170731.17999999999,"N_COORD97":2542372.96,"ADDRESS":"崇信街８６號","OBJECTID":460287},"geometry":{"x":170731.18000000063,"y":2542372.9600000009}},{"attributes":{"ID":460313,"DIS_CODE":0,"TOWNNAME":"東區","LI":"崇信里","LIN":"13鄰","STREET":"崇信街","SECT":" ","MAREA":" ","LANE":" ","ALLEY":" ","HOUSE_NO":"８８號","E_COORD97":170732.59,"N_COORD97":2542367.3300000001,"ADDRESS":"崇信街８８號","OBJECTID":460288},"geometry":{"x":170732.58999999985,"y":2542367.3299999982}},{"attributes":{"ID":460314,"DIS_CODE":0,"TOWNNAME":"白河區","LI":"永安里","LIN":"13鄰","STREET":"國光路","SECT":" ","MAREA":" ","LANE":" ","ALLEY":" ","HOUSE_NO":"２０號","E_COORD97":190310.67999999999,"N_COORD97":2583366.3999999999,"ADDRESS":"國光路２０號","OBJECTID":460289},"geometry":{"x":190310.68000000063,"y":2583366.4000000004}},{"attributes":{"ID":460315,"DIS_CODE":0,"TOWNNAME":"白河區","LI":"永安里","LIN":"13鄰","STREET":"國光路","SECT":" ","MAREA":" ","LANE":" ","ALLEY":" ","HOUSE_NO":"２２號","E_COORD97":190311.35999999999,"N_COORD97":2583370.8700000001,"ADDRESS":"國光路２２號","OBJECTID":460290},"geometry":{"x":190311.3600000022,"y":2583370.870000001}},{"attributes":{"ID":460316,"DIS_CODE":0,"TOWNNAME":"白河區","LI":"永安里","LIN":"13鄰","STREET":"國光路","SECT":" ","MAREA":" ","LANE":" ","ALLEY":" ","HOUSE_NO":"２４號","E_COORD97":190312.32000000001,"N_COORD97":2583375.3799999999,"ADDRESS":"國光路２４號","OBJECTID":460291},"geometry":{"x":190312.32000000123,"y":2583375.379999999}},{"attributes":{"ID":460317,"DIS_CODE":0,"TOWNNAME":"白河區","LI":"永安里","LIN":"13鄰","STREET":"國光路","SECT":" ","MAREA":" ","LANE":" ","ALLEY":" ","HOUSE_NO":"２６號","E_COORD97":190312.14999999999,"N_COORD97":2583378.5,"ADDRESS":"國光路２６號","OBJECTID":460292},"geometry":{"x":190312.15000000037,"y":2583378.5}},{"attributes":{"ID":460318,"DIS_CODE":0,"TOWNNAME":"白河區","LI":"永安里","LIN":"13鄰","STREET":"國光路","SECT":" ","MAREA":" ","LANE":" ","ALLEY":" ","HOUSE_NO":"２８號","E_COORD97":190312.35000000001,"N_COORD97":2583382.1499999999,"ADDRESS":"國光路２８號","OBJECTID":460293},"geometry":{"x":190312.35000000149,"y":2583382.1500000004}},{"attributes":{"ID":460319,"DIS_CODE":0,"TOWNNAME":"白河區","LI":"永安里","LIN":"13鄰","STREET":"國光路","SECT":" ","MAREA":" ","LANE":" ","ALLEY":" ","HOUSE_NO":"３０號","E_COORD97":190313.19,"N_COORD97":2583386.1899999999,"ADDRESS":"國光路３０號","OBJECTID":460294},"geometry":{"x":190313.19000000134,"y":2583386.1900000013}},{"attributes":{"ID":460320,"DIS_CODE":0,"TOWNNAME":"白河區","LI":"永安里","LIN":"13鄰","STREET":"國光路","SECT":" ","MAREA":" ","LANE":" ","ALLEY":" ","HOUSE_NO":"３４之１號","E_COORD97":190314.72,"N_COORD97":2583402.5099999998,"ADDRESS":"國光路３４之１號","OBJECTID":460295},"geometry":{"x":190314.71999999974,"y":2583402.5099999998}},{"attributes":{"ID":460321,"DIS_CODE":0,"TOWNNAME":"白河區","LI":"永安里","LIN":"13鄰","STREET":"國光路","SECT":" ","MAREA":" ","LANE":" ","ALLEY":" ","HOUSE_NO":"３４號","E_COORD97":190329.41,"N_COORD97":2583400.7799999998,"ADDRESS":"國光路３４號","OBJECTID":460296},"geometry":{"x":190329.40999999922,"y":2583400.7800000031}},{"attributes":{"ID":460322,"DIS_CODE":0,"TOWNNAME":"白河區","LI":"永安里","LIN":"13鄰","STREET":"國光路","SECT":" ","MAREA":" ","LANE":" ","ALLEY":" ","HOUSE_NO":"３６號","E_COORD97":190314.78,"N_COORD97":2583398.2799999998,"ADDRESS":"國光路３６號","OBJECTID":460297},"geometry":{"x":190314.78000000026,"y":2583398.2800000012}},{"attributes":{"ID":460323,"DIS_CODE":0,"TOWNNAME":"白河區","LI":"永安里","LIN":"13鄰","STREET":"國光路","SECT":" ","MAREA":" ","LANE":" ","ALLEY":" ","HOUSE_NO":"４０號","E_COORD97":190316.53,"N_COORD97":2583416.3399999999,"ADDRESS":"國光路４０號","OBJECTID":460298},"geometry":{"x":190316.53000000026,"y":2583416.3399999999}},{"attributes":{"ID":460324,"DIS_CODE":0,"TOWNNAME":"白河區","LI":"永安里","LIN":"13鄰","STREET":"復興街","SECT":" ","MAREA":" ","LANE":" ","ALLEY":" ","HOUSE_NO":"４５號","E_COORD97":190365.34,"N_COORD97":2583400.5499999998,"ADDRESS":"復興街４５號","OBJECTID":460299},"geometry":{"x":190365.34000000171,"y":2583400.5500000045}},{"attributes":{"ID":460325,"DIS_CODE":0,"TOWNNAME":"白河區","LI":"永安里","LIN":"13鄰","STREET":"復興街","SECT":" ","MAREA":" ","LANE":" ","ALLEY":" ","HOUSE_NO":"４９號","E_COORD97":190349.97,"N_COORD97":2583410.3300000001,"ADDRESS":"復興街４９號","OBJECTID":460300},"geometry":{"x":190349.96999999974,"y":2583410.3300000001}},{"attributes":{"ID":460326,"DIS_CODE":0,"TOWNNAME":"安南區","LI":"溪心里","LIN":"13鄰","STREET":"安中路","SECT":"三段","MAREA":" ","LANE":" ","ALLEY":" ","HOUSE_NO":"１０５之１號","E_COORD97":166138.98999999999,"N_COORD97":2549765.7400000002,"ADDRESS":"安中路三段１０５之１號","OBJECTID":460301},"geometry":{"x":166138.99000000115,"y":2549765.7400000002}},{"attributes":{"ID":460327,"DIS_CODE":0,"TOWNNAME":"佳里區","LI":"東寧里","LIN":"13鄰","STREET":"延平路","SECT":" ","MAREA":" ","LANE":" ","ALLEY":" ","HOUSE_NO":"３６６號","E_COORD97":165874.42000000001,"N_COORD97":2562521.6899999999,"ADDRESS":"延平路３６６號","OBJECTID":460302},"geometry":{"x":165874.42000000179,"y":2562521.6900000013}},{"attributes":{"ID":460328,"DIS_CODE":0,"TOWNNAME":"佳里區","LI":"東寧里","LIN":"13鄰","STREET":"延平路","SECT":" ","MAREA":" ","LANE":" ","ALLEY":" ","HOUSE_NO":"３６８號","E_COORD97":165873.31,"N_COORD97":2562527.4399999999,"ADDRESS":"延平路３６８號","OBJECTID":460303},"geometry":{"x":165873.31000000052,"y":2562527.4399999995}},{"attributes":{"ID":460329,"DIS_CODE":0,"TOWNNAME":"佳里區","LI":"東寧里","LIN":"13鄰","STREET":"延平路","SECT":" ","MAREA":" ","LANE":" ","ALLEY":" ","HOUSE_NO":"３７０號","E_COORD97":165873.42999999999,"N_COORD97":2562532,"ADDRESS":"延平路３７０號","OBJECTID":460304},"geometry":{"x":165873.4299999997,"y":2562532}},{"attributes":{"ID":460330,"DIS_CODE":0,"TOWNNAME":"佳里區","LI":"東寧里","LIN":"13鄰","STREET":"延平路","SECT":" ","MAREA":" ","LANE":" ","ALLEY":" ","HOUSE_NO":"３７２號","E_COORD97":165874.91,"N_COORD97":2562536.1600000001,"ADDRESS":"延平路３７２號","OBJECTID":460305},"geometry":{"x":165874.91000000108,"y":2562536.160000002}},{"attributes":{"ID":460331,"DIS_CODE":0,"TOWNNAME":"佳里區","LI":"東寧里","LIN":"13鄰","STREET":"延平路","SECT":" ","MAREA":" ","LANE":" ","ALLEY":" ","HOUSE_NO":"３７４號","E_COORD97":165874.81,"N_COORD97":2562540.7200000002,"ADDRESS":"延平路３７４號","OBJECTID":460306},"geometry":{"x":165874.81000000145,"y":2562540.7200000007}},{"attributes":{"ID":460332,"DIS_CODE":0,"TOWNNAME":"佳里區","LI":"東寧里","LIN":"13鄰","STREET":"延平路","SECT":" ","MAREA":" ","LANE":" ","ALLEY":" ","HOUSE_NO":"３７６號","E_COORD97":165874.88,"N_COORD97":2562545.1600000001,"ADDRESS":"延平路３７６號","OBJECTID":460307},"geometry":{"x":165874.88000000082,"y":2562545.1600000039}},{"attributes":{"ID":460333,"DIS_CODE":0,"TOWNNAME":"佳里區","LI":"東寧里","LIN":"13鄰","STREET":"延平路","SECT":" ","MAREA":" ","LANE":" ","ALLEY":" ","HOUSE_NO":"３７８號","E_COORD97":165874.73000000001,"N_COORD97":2562550.1600000001,"ADDRESS":"延平路３７８號","OBJECTID":460308},"geometry":{"x":165874.73000000138,"y":2562550.1600000001}},{"attributes":{"ID":460334,"DIS_CODE":0,"TOWNNAME":"佳里區","LI":"東寧里","LIN":"13鄰","STREET":"延平路","SECT":" ","MAREA":" ","LANE":" ","ALLEY":" ","HOUSE_NO":"３８０號","E_COORD97":165874.72,"N_COORD97":2562554.7599999998,"ADDRESS":"延平路３８０號","OBJECTID":460309},"geometry":{"x":165874.71999999974,"y":2562554.7600000016}},{"attributes":{"ID":460335,"DIS_CODE":0,"TOWNNAME":"佳里區","LI":"東寧里","LIN":"13鄰","STREET":"延平路","SECT":" ","MAREA":" ","LANE":" ","ALLEY":" ","HOUSE_NO":"３８２號","E_COORD97":165874.95999999999,"N_COORD97":2562559.46,"ADDRESS":"延平路３８２號","OBJECTID":460310},"geometry":{"x":165874.96000000089,"y":2562559.4600000009}},{"attributes":{"ID":460336,"DIS_CODE":0,"TOWNNAME":"佳里區","LI":"東寧里","LIN":"13鄰","STREET":"延平路","SECT":" ","MAREA":" ","LANE":" ","ALLEY":" ","HOUSE_NO":"３８４號","E_COORD97":165875.56,"N_COORD97":2562564,"ADDRESS":"延平路３８４號","OBJECTID":460311},"geometry":{"x":165875.56000000052,"y":2562564.0000000019}},{"attributes":{"ID":460337,"DIS_CODE":0,"TOWNNAME":"佳里區","LI":"東寧里","LIN":"13鄰","STREET":"延平路","SECT":" ","MAREA":" ","LANE":" ","ALLEY":" ","HOUSE_NO":"３８６號","E_COORD97":165875.66,"N_COORD97":2562568.6299999999,"ADDRESS":"延平路３８６號","OBJECTID":460312},"geometry":{"x":165875.66000000015,"y":2562568.6300000008}},{"attributes":{"ID":460338,"DIS_CODE":0,"TOWNNAME":"佳里區","LI":"東寧里","LIN":"13鄰","STREET":"延平路","SECT":" ","MAREA":" ","LANE":" ","ALLEY":" ","HOUSE_NO":"３８８號","E_COORD97":165875.81,"N_COORD97":2562573.6099999999,"ADDRESS":"延平路３８８號","OBJECTID":460313},"geometry":{"x":165875.80999999959,"y":2562573.6099999994}},{"attributes":{"ID":460339,"DIS_CODE":0,"TOWNNAME":"佳里區","LI":"六安里","LIN":"13鄰","STREET":"延平路","SECT":" ","MAREA":" ","LANE":" ","ALLEY":" ","HOUSE_NO":"７６６號","E_COORD97":166022.04000000001,"N_COORD97":2563643.2799999998,"ADDRESS":"延平路７６６號","OBJECTID":460314},"geometry":{"x":166022.04000000004,"y":2563643.2800000012}},{"attributes":{"ID":460340,"DIS_CODE":0,"TOWNNAME":"佳里區","LI":"忠仁里","LIN":"13鄰","STREET":"忠仁街","SECT":" ","MAREA":" ","LANE":" ","ALLEY":" ","HOUSE_NO":"１２２號","E_COORD97":166043.01000000001,"N_COORD97":2562186.8999999999,"ADDRESS":"忠仁街１２２號","OBJECTID":460315},"geometry":{"x":166043.00999999978,"y":2562186.9000000004}},{"attributes":{"ID":460341,"DIS_CODE":0,"TOWNNAME":"佳里區","LI":"忠仁里","LIN":"13鄰","STREET":"忠仁街","SECT":" ","MAREA":" ","LANE":" ","ALLEY":" ","HOUSE_NO":"１２６號","E_COORD97":166042.44,"N_COORD97":2562190.8799999999,"ADDRESS":"忠仁街１２６號","OBJECTID":460316},"geometry":{"x":166042.44000000041,"y":2562190.8800000008}},{"attributes":{"ID":460342,"DIS_CODE":0,"TOWNNAME":"佳里區","LI":"忠仁里","LIN":"13鄰","STREET":"忠仁街","SECT":" ","MAREA":" ","LANE":" ","ALLEY":" ","HOUSE_NO":"１２８號","E_COORD97":166042.04000000001,"N_COORD97":2562194.75,"ADDRESS":"忠仁街１２８號","OBJECTID":460317},"geometry":{"x":166042.04000000097,"y":2562194.7499999981}},{"attributes":{"ID":460343,"DIS_CODE":0,"TOWNNAME":"佳里區","LI":"忠仁里","LIN":"13鄰","STREET":"忠仁街","SECT":" ","MAREA":" ","LANE":" ","ALLEY":" ","HOUSE_NO":"１３０號","E_COORD97":166041.67000000001,"N_COORD97":2562198.98,"ADDRESS":"忠仁街１３０號","OBJECTID":460318},"geometry":{"x":166041.66999999993,"y":2562198.9800000023}},{"attributes":{"ID":460344,"DIS_CODE":0,"TOWNNAME":"佳里區","LI":"忠仁里","LIN":"13鄰","STREET":"忠仁街","SECT":" ","MAREA":" ","LANE":" ","ALLEY":" ","HOUSE_NO":"１５６號","E_COORD97":166030.07999999999,"N_COORD97":2562262.8199999998,"ADDRESS":"忠仁街１５６號","OBJECTID":460319},"geometry":{"x":166030.08000000101,"y":2562262.820000004}},{"attributes":{"ID":460345,"DIS_CODE":0,"TOWNNAME":"佳里區","LI":"安西里","LIN":"13鄰","STREET":"長安街","SECT":" ","MAREA":" ","LANE":" ","ALLEY":" ","HOUSE_NO":"７８號之１","E_COORD97":165434.62,"N_COORD97":2562450.9399999999,"ADDRESS":"長安街７８號之１","OBJECTID":460320},"geometry":{"x":165434.62000000104,"y":2562450.9400000032}},{"attributes":{"ID":460346,"DIS_CODE":0,"TOWNNAME":"安南區","LI":"州南里","LIN":"13鄰","STREET":"安和路","SECT":"五段","MAREA":" ","LANE":" ","ALLEY":" ","HOUSE_NO":"３３號","E_COORD97":169921.04000000001,"N_COORD97":2551581.8599999999,"ADDRESS":"安和路五段３３號","OBJECTID":460321},"geometry":{"x":169921.04000000004,"y":2551581.8600000031}},{"attributes":{"ID":460347,"DIS_CODE":0,"TOWNNAME":"安南區","LI":"州南里","LIN":"13鄰","STREET":"安和路","SECT":"五段","MAREA":" ","LANE":" ","ALLEY":" ","HOUSE_NO":"３５號","E_COORD97":169921.47,"N_COORD97":2551586.4700000002,"ADDRESS":"安和路五段３５號","OBJECTID":460322},"geometry":{"x":169921.46999999974,"y":2551586.4700000025}},{"attributes":{"ID":460348,"DIS_CODE":0,"TOWNNAME":"安南區","LI":"州南里","LIN":"13鄰","STREET":"安和路","SECT":"五段","MAREA":" ","LANE":" ","ALLEY":" ","HOUSE_NO":"３６號","E_COORD97":169952,"N_COORD97":2551583.2400000002,"ADDRESS":"安和路五段３６號","OBJECTID":460323},"geometry":{"x":169952,"y":2551583.2399999984}},{"attributes":{"ID":460349,"DIS_CODE":0,"TOWNNAME":"安南區","LI":"州南里","LIN":"13鄰","STREET":"安和路","SECT":"五段","MAREA":" ","LANE":" ","ALLEY":" ","HOUSE_NO":"３７號","E_COORD97":169919.73999999999,"N_COORD97":2551589.9700000002,"ADDRESS":"安和路五段３７號","OBJECTID":460324},"geometry":{"x":169919.74000000115,"y":2551589.9700000025}},{"attributes":{"ID":460350,"DIS_CODE":0,"TOWNNAME":"安南區","LI":"州南里","LIN":"13鄰","STREET":"安和路","SECT":"五段","MAREA":" ","LANE":" ","ALLEY":" ","HOUSE_NO":"３８號","E_COORD97":169951.37,"N_COORD97":2551587.2400000002,"ADDRESS":"安和路五段３８號","OBJECTID":460325},"geometry":{"x":169951.37000000011,"y":2551587.2400000021}},{"attributes":{"ID":460351,"DIS_CODE":0,"TOWNNAME":"安南區","LI":"州南里","LIN":"13鄰","STREET":"安和路","SECT":"五段","MAREA":" ","LANE":" ","ALLEY":" ","HOUSE_NO":"３９號","E_COORD97":169920.45999999999,"N_COORD97":2551594,"ADDRESS":"安和路五段３９號","OBJECTID":460326},"geometry":{"x":169920.45999999903,"y":2551594}},{"attributes":{"ID":460352,"DIS_CODE":0,"TOWNNAME":"安南區","LI":"州南里","LIN":"13鄰","STREET":"安和路","SECT":"五段","MAREA":" ","LANE":" ","ALLEY":" ","HOUSE_NO":"４０號","E_COORD97":169952,"N_COORD97":2551590.6099999999,"ADDRESS":"安和路五段４０號","OBJECTID":460327},"geometry":{"x":169952,"y":2551590.6100000013}},{"attributes":{"ID":460353,"DIS_CODE":0,"TOWNNAME":"安南區","LI":"州南里","LIN":"13鄰","STREET":"安和路","SECT":"五段","MAREA":" ","LANE":" ","ALLEY":" ","HOUSE_NO":"４２號","E_COORD97":169950.91,"N_COORD97":2551596.4199999999,"ADDRESS":"安和路五段４２號","OBJECTID":460328},"geometry":{"x":169950.91000000015,"y":2551596.4200000018}},{"attributes":{"ID":460354,"DIS_CODE":0,"TOWNNAME":"安南區","LI":"州南里","LIN":"13鄰","STREET":"安和路","SECT":"五段","MAREA":" ","LANE":" ","ALLEY":" ","HOUSE_NO":"４４號","E_COORD97":169953.26000000001,"N_COORD97":2551600.7599999998,"ADDRESS":"安和路五段４４號","OBJECTID":460329},"geometry":{"x":169953.25999999978,"y":2551600.7600000016}},{"attributes":{"ID":460355,"DIS_CODE":0,"TOWNNAME":"安南區","LI":"州南里","LIN":"13鄰","STREET":"安和路","SECT":"五段","MAREA":" ","LANE":" ","ALLEY":" ","HOUSE_NO":"４５號","E_COORD97":169917.01999999999,"N_COORD97":2551604.7400000002,"ADDRESS":"安和路五段４５號","OBJECTID":460330},"geometry":{"x":169917.02000000048,"y":2551604.7400000021}},{"attributes":{"ID":460356,"DIS_CODE":0,"TOWNNAME":"安南區","LI":"州南里","LIN":"13鄰","STREET":"安和路","SECT":"五段","MAREA":" ","LANE":" ","ALLEY":" ","HOUSE_NO":"４６號","E_COORD97":169953.48000000001,"N_COORD97":2551603.7400000002,"ADDRESS":"安和路五段４６號","OBJECTID":460331},"geometry":{"x":169953.48000000138,"y":2551603.7400000039}},{"attributes":{"ID":460357,"DIS_CODE":0,"TOWNNAME":"安南區","LI":"州南里","LIN":"13鄰","STREET":"安和路","SECT":"五段","MAREA":" ","LANE":" ","ALLEY":" ","HOUSE_NO":"４７號","E_COORD97":169916.35000000001,"N_COORD97":2551609.23,"ADDRESS":"安和路五段４７號","OBJECTID":460332},"geometry":{"x":169916.35000000056,"y":2551609.2300000004}},{"attributes":{"ID":460358,"DIS_CODE":0,"TOWNNAME":"安南區","LI":"州南里","LIN":"13鄰","STREET":"安和路","SECT":"五段","MAREA":" ","LANE":" ","ALLEY":" ","HOUSE_NO":"４８號","E_COORD97":169952.89999999999,"N_COORD97":2551608.0699999998,"ADDRESS":"安和路五段４８號","OBJECTID":460333},"geometry":{"x":169952.90000000037,"y":2551608.0700000003}},{"attributes":{"ID":460359,"DIS_CODE":0,"TOWNNAME":"安南區","LI":"州南里","LIN":"13鄰","STREET":"安和路","SECT":"五段","MAREA":" ","LANE":" ","ALLEY":" ","HOUSE_NO":"４９號","E_COORD97":169915.85000000001,"N_COORD97":2551613,"ADDRESS":"安和路五段４９號","OBJECTID":460334},"geometry":{"x":169915.85000000149,"y":2551613.0000000019}},{"attributes":{"ID":460360,"DIS_CODE":0,"TOWNNAME":"安南區","LI":"州南里","LIN":"13鄰","STREET":"安和路","SECT":"五段","MAREA":" ","LANE":" ","ALLEY":" ","HOUSE_NO":"５０號","E_COORD97":169952.04000000001,"N_COORD97":2551611.8199999998,"ADDRESS":"安和路五段５０號","OBJECTID":460335},"geometry":{"x":169952.04000000004,"y":2551611.8200000003}},{"attributes":{"ID":460361,"DIS_CODE":0,"TOWNNAME":"安南區","LI":"州南里","LIN":"13鄰","STREET":"安和路","SECT":"五段","MAREA":" ","LANE":" ","ALLEY":" ","HOUSE_NO":"５２號","E_COORD97":169952.60999999999,"N_COORD97":2551615.29,"ADDRESS":"安和路五段５２號","OBJECTID":460336},"geometry":{"x":169952.61000000127,"y":2551615.2899999991}},{"attributes":{"ID":460362,"DIS_CODE":0,"TOWNNAME":"安南區","LI":"州南里","LIN":"13鄰","STREET":"安和路","SECT":"五段","MAREA":" ","LANE":" ","ALLEY":" ","HOUSE_NO":"５４號","E_COORD97":169952.04000000001,"N_COORD97":2551618.75,"ADDRESS":"安和路五段５４號","OBJECTID":460337},"geometry":{"x":169952.04000000004,"y":2551618.75}},{"attributes":{"ID":460363,"DIS_CODE":0,"TOWNNAME":"安南區","LI":"州南里","LIN":"13鄰","STREET":"安和路","SECT":"五段","MAREA":" ","LANE":" ","ALLEY":" ","HOUSE_NO":"５１號","E_COORD97":169914.35999999999,"N_COORD97":2551619.1000000001,"ADDRESS":"安和路五段５１號","OBJECTID":460338},"geometry":{"x":169914.36000000034,"y":2551619.1000000015}},{"attributes":{"ID":460364,"DIS_CODE":0,"TOWNNAME":"安南區","LI":"州南里","LIN":"13鄰","STREET":"安和路","SECT":"五段","MAREA":" ","LANE":" ","ALLEY":" ","HOUSE_NO":"５３號","E_COORD97":169914.76000000001,"N_COORD97":2551623.0699999998,"ADDRESS":"安和路五段５３號","OBJECTID":460339},"geometry":{"x":169914.75999999978,"y":2551623.0700000022}},{"attributes":{"ID":460365,"DIS_CODE":0,"TOWNNAME":"安南區","LI":"州南里","LIN":"13鄰","STREET":"安和路","SECT":"五段","MAREA":" ","LANE":" ","ALLEY":" ","HOUSE_NO":"５５號","E_COORD97":169915.51000000001,"N_COORD97":2551626.7599999998,"ADDRESS":"安和路五段５５號","OBJECTID":460340},"geometry":{"x":169915.51000000071,"y":2551626.7600000035}},{"attributes":{"ID":460366,"DIS_CODE":0,"TOWNNAME":"安南區","LI":"州南里","LIN":"13鄰","STREET":"安和路","SECT":"五段","MAREA":" ","LANE":" ","ALLEY":" ","HOUSE_NO":"５６號","E_COORD97":169953.76999999999,"N_COORD97":2551623.3700000001,"ADDRESS":"安和路五段５６號","OBJECTID":460341},"geometry":{"x":169953.77000000142,"y":2551623.370000001}},{"attributes":{"ID":460367,"DIS_CODE":0,"TOWNNAME":"安南區","LI":"州南里","LIN":"13鄰","STREET":"安和路","SECT":"五段","MAREA":" ","LANE":" ","ALLEY":" ","HOUSE_NO":"５７號","E_COORD97":169912.91,"N_COORD97":2551629.5,"ADDRESS":"安和路五段５７號","OBJECTID":460342},"geometry":{"x":169912.91000000108,"y":2551629.5000000019}},{"attributes":{"ID":460368,"DIS_CODE":0,"TOWNNAME":"安南區","LI":"州南里","LIN":"13鄰","STREET":"安和路","SECT":"五段","MAREA":" ","LANE":" ","ALLEY":" ","HOUSE_NO":"５８號之１","E_COORD97":169953.76999999999,"N_COORD97":2551628.8500000001,"ADDRESS":"安和路五段５８號之１","OBJECTID":460343},"geometry":{"x":169953.77000000142,"y":2551628.8499999996}},{"attributes":{"ID":460369,"DIS_CODE":0,"TOWNNAME":"安南區","LI":"州南里","LIN":"13鄰","STREET":"安和路","SECT":"五段","MAREA":" ","LANE":" ","ALLEY":" ","HOUSE_NO":"５９號","E_COORD97":169911.64000000001,"N_COORD97":2551633.6400000001,"ADDRESS":"安和路五段５９號","OBJECTID":460344},"geometry":{"x":169911.63999999966,"y":2551633.6400000006}},{"attributes":{"ID":460370,"DIS_CODE":0,"TOWNNAME":"安南區","LI":"州南里","LIN":"13鄰","STREET":"安和路","SECT":"五段","MAREA":" ","LANE":" ","ALLEY":" ","HOUSE_NO":"６１號","E_COORD97":169906.64999999999,"N_COORD97":2551636.5299999998,"ADDRESS":"安和路五段６１號","OBJECTID":460345},"geometry":{"x":169906.6500000013,"y":2551636.5299999993}},{"attributes":{"ID":460371,"DIS_CODE":0,"TOWNNAME":"安南區","LI":"州南里","LIN":"13鄰","STREET":"安和路","SECT":"五段","MAREA":" ","LANE":" ","ALLEY":" ","HOUSE_NO":"６２號","E_COORD97":169950.88,"N_COORD97":2551635.2000000002,"ADDRESS":"安和路五段６２號","OBJECTID":460346},"geometry":{"x":169950.87999999989,"y":2551635.1999999993}},{"attributes":{"ID":460372,"DIS_CODE":0,"TOWNNAME":"安南區","LI":"州南里","LIN":"13鄰","STREET":"安和路","SECT":"五段","MAREA":" ","LANE":" ","ALLEY":" ","HOUSE_NO":"６３號","E_COORD97":169907.25,"N_COORD97":2551639.8399999999,"ADDRESS":"安和路五段６３號","OBJECTID":460347},"geometry":{"x":169907.25000000093,"y":2551639.8400000036}},{"attributes":{"ID":460373,"DIS_CODE":0,"TOWNNAME":"安南區","LI":"州南里","LIN":"13鄰","STREET":"安和路","SECT":"五段","MAREA":" ","LANE":" ","ALLEY":" ","HOUSE_NO":"６４號","E_COORD97":169947.70000000001,"N_COORD97":2551639.5299999998,"ADDRESS":"安和路五段６４號","OBJECTID":460348},"geometry":{"x":169947.70000000019,"y":2551639.5300000012}},{"attributes":{"ID":460374,"DIS_CODE":0,"TOWNNAME":"安南區","LI":"海西里","LIN":"13鄰","STREET":"海環街","SECT":" ","MAREA":" ","LANE":" ","ALLEY":" ","HOUSE_NO":"３６１號","E_COORD97":166066.09,"N_COORD97":2548882.3999999999,"ADDRESS":"海環街３６１號","OBJECTID":460349},"geometry":{"x":166066.08999999985,"y":2548882.4000000004}},{"attributes":{"ID":460375,"DIS_CODE":0,"TOWNNAME":"安南區","LI":"海西里","LIN":"13鄰","STREET":"海環街","SECT":" ","MAREA":" ","LANE":" ","ALLEY":" ","HOUSE_NO":"３６３號","E_COORD97":166064.67999999999,"N_COORD97":2548886.8999999999,"ADDRESS":"海環街３６３號","OBJECTID":460350},"geometry":{"x":166064.68000000063,"y":2548886.8999999985}},{"attributes":{"ID":460376,"DIS_CODE":0,"TOWNNAME":"安南區","LI":"海西里","LIN":"13鄰","STREET":"海環街","SECT":" ","MAREA":" ","LANE":" ","ALLEY":" ","HOUSE_NO":"３６７號","E_COORD97":166056.97,"N_COORD97":2548900.23,"ADDRESS":"海環街３６７號","OBJECTID":460351},"geometry":{"x":166056.9700000016,"y":2548900.2300000004}},{"attributes":{"ID":460377,"DIS_CODE":0,"TOWNNAME":"安南區","LI":"海西里","LIN":"13鄰","STREET":"海環街","SECT":" ","MAREA":" ","LANE":" ","ALLEY":" ","HOUSE_NO":"３６９號","E_COORD97":166055.29000000001,"N_COORD97":2548903.9900000002,"ADDRESS":"海環街３６９號","OBJECTID":460352},"geometry":{"x":166055.29000000097,"y":2548903.9900000021}},{"attributes":{"ID":460378,"DIS_CODE":0,"TOWNNAME":"安南區","LI":"海西里","LIN":"13鄰","STREET":"海環街","SECT":" ","MAREA":" ","LANE":" ","ALLEY":" ","HOUSE_NO":"３７１號","E_COORD97":166051.51999999999,"N_COORD97":2548907.3399999999,"ADDRESS":"海環街３７１號","OBJECTID":460353},"geometry":{"x":166051.52000000048,"y":2548907.3400000036}},{"attributes":{"ID":460379,"DIS_CODE":0,"TOWNNAME":"安南區","LI":"海西里","LIN":"13鄰","STREET":"海環街","SECT":" ","MAREA":" ","LANE":" ","ALLEY":" ","HOUSE_NO":"３７３號","E_COORD97":166048.17000000001,"N_COORD97":2548910.6899999999,"ADDRESS":"海環街３７３號","OBJECTID":460354},"geometry":{"x":166048.16999999993,"y":2548910.6899999995}},{"attributes":{"ID":460380,"DIS_CODE":0,"TOWNNAME":"東區","LI":"崇學里","LIN":"13鄰","STREET":"崇明十街","SECT":" ","MAREA":" ","LANE":" ","ALLEY":" ","HOUSE_NO":"９９號","E_COORD97":170236.92999999999,"N_COORD97":2541936.98,"ADDRESS":"崇明十街９９號","OBJECTID":460355},"geometry":{"x":170236.9299999997,"y":2541936.9800000023}},{"attributes":{"ID":460381,"DIS_CODE":0,"TOWNNAME":"新營區","LI":"埤寮里","LIN":"13鄰","STREET":"中正路","SECT":" ","MAREA":" ","LANE":" ","ALLEY":" ","HOUSE_NO":"４２９號","E_COORD97":180049.14999999999,"N_COORD97":2580284.6200000001,"ADDRESS":"中正路４２９號","OBJECTID":460356},"geometry":{"x":180049.1500000013,"y":2580284.6200000048}},{"attributes":{"ID":460382,"DIS_CODE":0,"TOWNNAME":"東區","LI":"崇學里","LIN":"13鄰","STREET":"崇明九街","SECT":" ","MAREA":" ","LANE":" ","ALLEY":" ","HOUSE_NO":"１３０號","E_COORD97":170216.73000000001,"N_COORD97":2541939.6800000002,"ADDRESS":"崇明九街１３０號","OBJECTID":460357},"geometry":{"x":170216.73000000138,"y":2541939.6799999997}},{"attributes":{"ID":460383,"DIS_CODE":0,"TOWNNAME":"東區","LI":"崇學里","LIN":"13鄰","STREET":"崇明九街","SECT":" ","MAREA":" ","LANE":" ","ALLEY":" ","HOUSE_NO":"１３２號","E_COORD97":170220.89999999999,"N_COORD97":2541945.7400000002,"ADDRESS":"崇明九街１３２號","OBJECTID":460358},"geometry":{"x":170220.90000000037,"y":2541945.7400000021}},{"attributes":{"ID":460384,"DIS_CODE":0,"TOWNNAME":"東區","LI":"崇學里","LIN":"13鄰","STREET":"崇明九街","SECT":" ","MAREA":" ","LANE":" ","ALLEY":" ","HOUSE_NO":"１３４號","E_COORD97":170223.54999999999,"N_COORD97":2541949.3399999999,"ADDRESS":"崇明九街１３４號","OBJECTID":460359},"geometry":{"x":170223.55000000075,"y":2541949.3399999999}},{"attributes":{"ID":460385,"DIS_CODE":0,"TOWNNAME":"東區","LI":"崇學里","LIN":"13鄰","STREET":"崇明九街","SECT":" ","MAREA":" ","LANE":" ","ALLEY":" ","HOUSE_NO":"１３６號","E_COORD97":170225.64000000001,"N_COORD97":2541954.0800000001,"ADDRESS":"崇明九街１３６號","OBJECTID":460360},"geometry":{"x":170225.63999999966,"y":2541954.0800000001}},{"attributes":{"ID":460386,"DIS_CODE":0,"TOWNNAME":"東區","LI":"崇學里","LIN":"13鄰","STREET":"崇明十街","SECT":" ","MAREA":" ","LANE":" ","ALLEY":" ","HOUSE_NO":"７３號","E_COORD97":170193.89000000001,"N_COORD97":2541881.6400000001,"ADDRESS":"崇明十街７３號","OBJECTID":460361},"geometry":{"x":170193.8900000006,"y":2541881.6400000025}},{"attributes":{"ID":460387,"DIS_CODE":0,"TOWNNAME":"東區","LI":"崇學里","LIN":"13鄰","STREET":"崇明十街","SECT":" ","MAREA":" ","LANE":" ","ALLEY":" ","HOUSE_NO":"７５號","E_COORD97":170197.10000000001,"N_COORD97":2541884.1499999999,"ADDRESS":"崇明十街７５號","OBJECTID":460362},"geometry":{"x":170197.09999999963,"y":2541884.1499999985}},{"attributes":{"ID":460388,"DIS_CODE":0,"TOWNNAME":"東區","LI":"崇學里","LIN":"13鄰","STREET":"崇明十街","SECT":" ","MAREA":" ","LANE":" ","ALLEY":" ","HOUSE_NO":"７７號","E_COORD97":170200.76000000001,"N_COORD97":2541886.8999999999,"ADDRESS":"崇明十街７７號","OBJECTID":460363},"geometry":{"x":170200.75999999978,"y":2541886.9000000022}},{"attributes":{"ID":460389,"DIS_CODE":0,"TOWNNAME":"東區","LI":"崇學里","LIN":"13鄰","STREET":"崇明十街","SECT":" ","MAREA":" ","LANE":" ","ALLEY":" ","HOUSE_NO":"７９號","E_COORD97":170204.20000000001,"N_COORD97":2541889.4100000001,"ADDRESS":"崇明十街７９號","OBJECTID":460364},"geometry":{"x":170204.20000000112,"y":2541889.410000002}},{"attributes":{"ID":460390,"DIS_CODE":0,"TOWNNAME":"東區","LI":"崇學里","LIN":"13鄰","STREET":"崇明十街","SECT":" ","MAREA":" ","LANE":" ","ALLEY":" ","HOUSE_NO":"８１號","E_COORD97":170209.45999999999,"N_COORD97":2541894.6699999999,"ADDRESS":"崇明十街８１號","OBJECTID":460365},"geometry":{"x":170209.46000000089,"y":2541894.6700000018}},{"attributes":{"ID":460391,"DIS_CODE":0,"TOWNNAME":"東區","LI":"崇學里","LIN":"13鄰","STREET":"崇明十街","SECT":" ","MAREA":" ","LANE":" ","ALLEY":" ","HOUSE_NO":"８３號","E_COORD97":170213.35000000001,"N_COORD97":2541899.02,"ADDRESS":"崇明十街８３號","OBJECTID":460366},"geometry":{"x":170213.35000000056,"y":2541899.0200000014}},{"attributes":{"ID":460392,"DIS_CODE":0,"TOWNNAME":"東區","LI":"崇學里","LIN":"13鄰","STREET":"崇明十街","SECT":" ","MAREA":" ","LANE":" ","ALLEY":" ","HOUSE_NO":"８５號","E_COORD97":170215.87,"N_COORD97":2541902.6800000002,"ADDRESS":"崇明十街８５號","OBJECTID":460367},"geometry":{"x":170215.87000000011,"y":2541902.6799999997}},{"attributes":{"ID":460393,"DIS_CODE":0,"TOWNNAME":"東區","LI":"崇學里","LIN":"13鄰","STREET":"崇明十街","SECT":" ","MAREA":" ","LANE":" ","ALLEY":" ","HOUSE_NO":"８７號","E_COORD97":170219.53,"N_COORD97":2541906.79,"ADDRESS":"崇明十街８７號","OBJECTID":460368},"geometry":{"x":170219.53000000119,"y":2541906.790000001}},{"attributes":{"ID":460394,"DIS_CODE":0,"TOWNNAME":"東區","LI":"崇學里","LIN":"13鄰","STREET":"崇明十街","SECT":" ","MAREA":" ","LANE":" ","ALLEY":" ","HOUSE_NO":"８９號","E_COORD97":170223.19,"N_COORD97":2541911.1400000001,"ADDRESS":"崇明十街８９號","OBJECTID":460369},"geometry":{"x":170223.19000000134,"y":2541911.1400000006}},{"attributes":{"ID":460395,"DIS_CODE":0,"TOWNNAME":"東區","LI":"崇學里","LIN":"13鄰","STREET":"崇明十街","SECT":" ","MAREA":" ","LANE":" ","ALLEY":" ","HOUSE_NO":"９１號","E_COORD97":170226.39999999999,"N_COORD97":2541915.25,"ADDRESS":"崇明十街９１號","OBJECTID":460370},"geometry":{"x":170226.40000000037,"y":2541915.2500000019}},{"attributes":{"ID":460396,"DIS_CODE":0,"TOWNNAME":"東區","LI":"崇學里","LIN":"13鄰","STREET":"崇明十街","SECT":" ","MAREA":" ","LANE":" ","ALLEY":" ","HOUSE_NO":"９３號","E_COORD97":170230.06,"N_COORD97":2541920.0600000001,"ADDRESS":"崇明十街９３號","OBJECTID":460371},"geometry":{"x":170230.06000000052,"y":2541920.0600000024}},{"attributes":{"ID":460397,"DIS_CODE":0,"TOWNNAME":"東區","LI":"崇學里","LIN":"13鄰","STREET":"崇明十街","SECT":" ","MAREA":" ","LANE":" ","ALLEY":" ","HOUSE_NO":"９５號","E_COORD97":170234.17999999999,"N_COORD97":2541923.9500000002,"ADDRESS":"崇明十街９５號","OBJECTID":460372},"geometry":{"x":170234.18000000156,"y":2541923.9499999993}},{"attributes":{"ID":460398,"DIS_CODE":0,"TOWNNAME":"東區","LI":"崇學里","LIN":"13鄰","STREET":"崇明路","SECT":" ","MAREA":" ","LANE":" ","ALLEY":" ","HOUSE_NO":"２６９號","E_COORD97":170164.14000000001,"N_COORD97":2541883.2400000002,"ADDRESS":"崇明路２６９號","OBJECTID":460373},"geometry":{"x":170164.13999999966,"y":2541883.2400000002}},{"attributes":{"ID":460399,"DIS_CODE":0,"TOWNNAME":"永康區","LI":"永康里","LIN":"13鄰","STREET":"永康街","SECT":" ","MAREA":" ","LANE":" ","ALLEY":" ","HOUSE_NO":"１８２號","E_COORD97":173996.16,"N_COORD97":2547031.4199999999,"ADDRESS":"永康街１８２號","OBJECTID":460374},"geometry":{"x":173996.16000000015,"y":2547031.4199999999}},{"attributes":{"ID":460400,"DIS_CODE":0,"TOWNNAME":"安南區","LI":"州南里","LIN":"13鄰","STREET":"安和路","SECT":"五段","MAREA":" ","LANE":" ","ALLEY":" ","HOUSE_NO":"２７號","E_COORD97":169920.75,"N_COORD97":2551569.7000000002,"ADDRESS":"安和路五段２７號","OBJECTID":460375},"geometry":{"x":169920.75000000093,"y":2551569.7000000011}},{"attributes":{"ID":460401,"DIS_CODE":0,"TOWNNAME":"安南區","LI":"州南里","LIN":"13鄰","STREET":"安和路","SECT":"五段","MAREA":" ","LANE":" ","ALLEY":" ","HOUSE_NO":"２８號","E_COORD97":169954.32000000001,"N_COORD97":2551567.8700000001,"ADDRESS":"安和路五段２８號","OBJECTID":460376},"geometry":{"x":169954.32000000123,"y":2551567.8700000029}},{"attributes":{"ID":460402,"DIS_CODE":0,"TOWNNAME":"安南區","LI":"州南里","LIN":"13鄰","STREET":"安和路","SECT":"五段","MAREA":" ","LANE":" ","ALLEY":" ","HOUSE_NO":"２９號","E_COORD97":169920.60000000001,"N_COORD97":2551573.5899999999,"ADDRESS":"安和路五段２９號","OBJECTID":460377},"geometry":{"x":169920.59999999963,"y":2551573.589999998}},{"attributes":{"ID":460403,"DIS_CODE":0,"TOWNNAME":"安南區","LI":"州南里","LIN":"13鄰","STREET":"安和路","SECT":"五段","MAREA":" ","LANE":" ","ALLEY":" ","HOUSE_NO":"３０號","E_COORD97":169953.06,"N_COORD97":2551572.29,"ADDRESS":"安和路五段３０號","OBJECTID":460378},"geometry":{"x":169953.05999999959,"y":2551572.290000001}},{"attributes":{"ID":460404,"DIS_CODE":0,"TOWNNAME":"安南區","LI":"州南里","LIN":"13鄰","STREET":"安和路","SECT":"五段","MAREA":" ","LANE":" ","ALLEY":" ","HOUSE_NO":"３１號","E_COORD97":169921.32000000001,"N_COORD97":2551577.3900000001,"ADDRESS":"安和路五段３１號","OBJECTID":460379},"geometry":{"x":169921.3200000003,"y":2551577.3900000025}},{"attributes":{"ID":460405,"DIS_CODE":0,"TOWNNAME":"安南區","LI":"州南里","LIN":"13鄰","STREET":"安和路","SECT":"五段","MAREA":" ","LANE":" ","ALLEY":" ","HOUSE_NO":"３２號","E_COORD97":169953.89999999999,"N_COORD97":2551575.6600000001,"ADDRESS":"安和路五段３２號","OBJECTID":460380},"geometry":{"x":169953.9000000013,"y":2551575.6600000001}},{"attributes":{"ID":460406,"DIS_CODE":0,"TOWNNAME":"安南區","LI":"州南里","LIN":"13鄰","STREET":"安和路","SECT":"五段","MAREA":" ","LANE":" ","ALLEY":" ","HOUSE_NO":"３４號","E_COORD97":169955.17000000001,"N_COORD97":2551579.2400000002,"ADDRESS":"安和路五段３４號","OBJECTID":460381},"geometry":{"x":169955.17000000086,"y":2551579.2400000002}},{"attributes":{"ID":460407,"DIS_CODE":0,"TOWNNAME":"安南區","LI":"州北里","LIN":"13鄰","STREET":"安和路","SECT":"五段","MAREA":" ","LANE":" ","ALLEY":" ","HOUSE_NO":"１０５號","E_COORD97":169898.57000000001,"N_COORD97":2551721.0600000001,"ADDRESS":"安和路五段１０５號","OBJECTID":460382},"geometry":{"x":169898.57000000123,"y":2551721.0600000024}},{"attributes":{"ID":460408,"DIS_CODE":0,"TOWNNAME":"安南區","LI":"州北里","LIN":"13鄰","STREET":"安和路","SECT":"五段","MAREA":" ","LANE":" ","ALLEY":" ","HOUSE_NO":"１０７號","E_COORD97":169897.34,"N_COORD97":2551724.5800000001,"ADDRESS":"安和路五段１０７號","OBJECTID":460383},"geometry":{"x":169897.33999999985,"y":2551724.5800000019}},{"attributes":{"ID":460409,"DIS_CODE":0,"TOWNNAME":"安南區","LI":"州北里","LIN":"13鄰","STREET":"安和路","SECT":"五段","MAREA":" ","LANE":" ","ALLEY":" ","HOUSE_NO":"１０８號","E_COORD97":169929.95999999999,"N_COORD97":2551722.5800000001,"ADDRESS":"安和路五段１０８號","OBJECTID":460384},"geometry":{"x":169929.95999999996,"y":2551722.5800000001}},{"attributes":{"ID":460410,"DIS_CODE":0,"TOWNNAME":"安南區","LI":"州北里","LIN":"13鄰","STREET":"安和路","SECT":"五段","MAREA":" ","LANE":" ","ALLEY":" ","HOUSE_NO":"１０９號","E_COORD97":169896.75,"N_COORD97":2551728.1200000001,"ADDRESS":"安和路五段１０９號","OBJECTID":460385},"geometry":{"x":169896.75000000186,"y":2551728.1200000029}},{"attributes":{"ID":460411,"DIS_CODE":0,"TOWNNAME":"安南區","LI":"州北里","LIN":"13鄰","STREET":"安和路","SECT":"五段","MAREA":" ","LANE":" ","ALLEY":" ","HOUSE_NO":"１１０號","E_COORD97":169928.98999999999,"N_COORD97":2551726.2400000002,"ADDRESS":"安和路五段１１０號","OBJECTID":460386},"geometry":{"x":169928.99000000022,"y":2551726.2400000021}},{"attributes":{"ID":460412,"DIS_CODE":0,"TOWNNAME":"安南區","LI":"州北里","LIN":"13鄰","STREET":"安和路","SECT":"五段","MAREA":" ","LANE":" ","ALLEY":" ","HOUSE_NO":"１１１號","E_COORD97":169895.07000000001,"N_COORD97":2551731.7999999998,"ADDRESS":"安和路五段１１１號","OBJECTID":460387},"geometry":{"x":169895.07000000123,"y":2551731.8000000007}},{"attributes":{"ID":460413,"DIS_CODE":0,"TOWNNAME":"安南區","LI":"州北里","LIN":"13鄰","STREET":"安和路","SECT":"五段","MAREA":" ","LANE":" ","ALLEY":" ","HOUSE_NO":"１１２號","E_COORD97":169928.10000000001,"N_COORD97":2551729.8999999999,"ADDRESS":"安和路五段１１２號","OBJECTID":460388},"geometry":{"x":169928.10000000056,"y":2551729.9000000022}},{"attributes":{"ID":460414,"DIS_CODE":0,"TOWNNAME":"安南區","LI":"州北里","LIN":"13鄰","STREET":"安和路","SECT":"五段","MAREA":" ","LANE":" ","ALLEY":" ","HOUSE_NO":"１１３號","E_COORD97":169893.44,"N_COORD97":2551735.3300000001,"ADDRESS":"安和路五段１１３號","OBJECTID":460389},"geometry":{"x":169893.44000000041,"y":2551735.3300000038}},{"attributes":{"ID":460415,"DIS_CODE":0,"TOWNNAME":"安南區","LI":"州北里","LIN":"13鄰","STREET":"安和路","SECT":"五段","MAREA":" ","LANE":" ","ALLEY":" ","HOUSE_NO":"１１４號","E_COORD97":169926.82000000001,"N_COORD97":2551733.5499999998,"ADDRESS":"安和路五段１１４號","OBJECTID":460390},"geometry":{"x":169926.8200000003,"y":2551733.5500000007}},{"attributes":{"ID":460416,"DIS_CODE":0,"TOWNNAME":"安南區","LI":"州北里","LIN":"13鄰","STREET":"安和路","SECT":"五段","MAREA":" ","LANE":" ","ALLEY":" ","HOUSE_NO":"１１５號","E_COORD97":169892.42999999999,"N_COORD97":2551739.2400000002,"ADDRESS":"安和路五段１１５號","OBJECTID":460391},"geometry":{"x":169892.43000000063,"y":2551739.2400000039}},{"attributes":{"ID":460417,"DIS_CODE":0,"TOWNNAME":"安南區","LI":"州北里","LIN":"13鄰","STREET":"安和路","SECT":"五段","MAREA":" ","LANE":" ","ALLEY":" ","HOUSE_NO":"１１７號","E_COORD97":169891.20999999999,"N_COORD97":2551742.9100000001,"ADDRESS":"安和路五段１１７號","OBJECTID":460392},"geometry":{"x":169891.20999999996,"y":2551742.910000002}},{"attributes":{"ID":460418,"DIS_CODE":0,"TOWNNAME":"安南區","LI":"州北里","LIN":"13鄰","STREET":"安和路","SECT":"五段","MAREA":" ","LANE":" ","ALLEY":" ","HOUSE_NO":"１１８號","E_COORD97":169924.98000000001,"N_COORD97":2551740.96,"ADDRESS":"安和路五段１１８號","OBJECTID":460393},"geometry":{"x":169924.98000000138,"y":2551740.9600000009}},{"attributes":{"ID":460419,"DIS_CODE":0,"TOWNNAME":"安南區","LI":"州北里","LIN":"13鄰","STREET":"安和路","SECT":"五段","MAREA":" ","LANE":" ","ALLEY":" ","HOUSE_NO":"８３號","E_COORD97":169908.48999999999,"N_COORD97":2551680.8999999999,"ADDRESS":"安和路五段８３號","OBJECTID":460394},"geometry":{"x":169908.49000000022,"y":2551680.9000000041}},{"attributes":{"ID":460420,"DIS_CODE":0,"TOWNNAME":"安平區","LI":"平安里","LIN":"9鄰","STREET":"安平路","SECT":" ","MAREA":" ","LANE":"４２６巷","ALLEY":" ","HOUSE_NO":"２８號之４","E_COORD97":165401.156709,"N_COORD97":2544373.9433800001,"ADDRESS":"安平路４２６巷２８號之４","OBJECTID":460395},"geometry":{"x":165401.1567090014,"y":2544373.9433810022}},{"attributes":{"ID":460421,"DIS_CODE":0,"TOWNNAME":"安南區","LI":"州北里","LIN":"13鄰","STREET":"安和路","SECT":"五段","MAREA":" ","LANE":" ","ALLEY":" ","HOUSE_NO":"８５號","E_COORD97":169908.12,"N_COORD97":2551684.6499999999,"ADDRESS":"安和路五段８５號","OBJECTID":460396},"geometry":{"x":169908.12000000104,"y":2551684.6500000004}},{"attributes":{"ID":460422,"DIS_CODE":0,"TOWNNAME":"安南區","LI":"州北里","LIN":"13鄰","STREET":"安和路","SECT":"五段","MAREA":" ","LANE":" ","ALLEY":" ","HOUSE_NO":"８７號","E_COORD97":169907.07999999999,"N_COORD97":2551688.9399999999,"ADDRESS":"安和路五段８７號","OBJECTID":460397},"geometry":{"x":169907.08000000101,"y":2551688.9399999995}},{"attributes":{"ID":460423,"DIS_CODE":0,"TOWNNAME":"安南區","LI":"州北里","LIN":"13鄰","STREET":"安和路","SECT":"五段","MAREA":" ","LANE":" ","ALLEY":" ","HOUSE_NO":"８９號","E_COORD97":169906.01999999999,"N_COORD97":2551693.1000000001,"ADDRESS":"安和路五段８９號","OBJECTID":460398},"geometry":{"x":169906.01999999955,"y":2551693.1000000015}},{"attributes":{"ID":460424,"DIS_CODE":0,"TOWNNAME":"安南區","LI":"州北里","LIN":"13鄰","STREET":"安和路","SECT":"五段","MAREA":" ","LANE":" ","ALLEY":" ","HOUSE_NO":"９２號","E_COORD97":169935.79000000001,"N_COORD97":2551696.4500000002,"ADDRESS":"安和路五段９２號","OBJECTID":460399},"geometry":{"x":169935.79000000097,"y":2551696.450000003}},{"attributes":{"ID":460425,"DIS_CODE":0,"TOWNNAME":"安南區","LI":"州北里","LIN":"13鄰","STREET":"安和路","SECT":"五段","MAREA":" ","LANE":" ","ALLEY":" ","HOUSE_NO":"９３號","E_COORD97":169904.01999999999,"N_COORD97":2551700.9900000002,"ADDRESS":"安和路五段９３號","OBJECTID":460400},"geometry":{"x":169904.01999999955,"y":2551700.9900000021}}]}