{"displayFieldName":"TOWNNAME","fieldAliases":{"ID":"ID","DIS_CODE":"DIS_CODE","TOWNNAME":"TOWNNAME","LI":"LI","LIN":"LIN","STREET":"STREET","SECT":"SECT","MAREA":"MAREA","LANE":"LANE","ALLEY":"ALLEY","HOUSE_NO":"HOUSE_NO","E_COORD97":"E_COORD97","N_COORD97":"N_COORD97","ADDRESS":"ADDRESS","OBJECTID":"OBJECTID"},"geometryType":"esriGeometryPoint","spatialReference":{"wkid":102443,"latestWkid":3826},"fields":[{"name":"ID","type":"esriFieldTypeDouble","alias":"ID"},{"name":"DIS_CODE","type":"esriFieldTypeInteger","alias":"DIS_CODE"},{"name":"TOWNNAME","type":"esriFieldTypeString","alias":"TOWNNAME","length":8},{"name":"LI","type":"esriFieldTypeString","alias":"LI","length":8},{"name":"LIN","type":"esriFieldTypeString","alias":"LIN","length":12},{"name":"STREET","type":"esriFieldTypeString","alias":"STREET","length":20},{"name":"SECT","type":"esriFieldTypeString","alias":"SECT","length":8},{"name":"MAREA","type":"esriFieldTypeString","alias":"MAREA","length":12},{"name":"LANE","type":"esriFieldTypeString","alias":"LANE","length":10},{"name":"ALLEY","type":"esriFieldTypeString","alias":"ALLEY","length":10},{"name":"HOUSE_NO","type":"esriFieldTypeString","alias":"HOUSE_NO","length":20},{"name":"E_COORD97","type":"esriFieldTypeDouble","alias":"E_COORD97"},{"name":"N_COORD97","type":"esriFieldTypeDouble","alias":"N_COORD97"},{"name":"ADDRESS","type":"esriFieldTypeString","alias":"ADDRESS","length":50},{"name":"OBJECTID","type":"esriFieldTypeOID","alias":"OBJECTID"}],"features":[{"attributes":{"ID":251405,"DIS_CODE":0,"TOWNNAME":"安南區","LI":"鳳凰里","LIN":"11鄰","STREET":"安中路","SECT":"一段","MAREA":" ","LANE":"７００巷","ALLEY":" ","HOUSE_NO":"７０號之２","E_COORD97":167882.89999999999,"N_COORD97":2549246.73,"ADDRESS":"安中路一段７００巷７０號之２","OBJECTID":251401},"geometry":{"x":167882.9000000013,"y":2549246.7300000004}},{"attributes":{"ID":251406,"DIS_CODE":0,"TOWNNAME":"安南區","LI":"頂安里","LIN":"11鄰","STREET":"頂安街","SECT":" ","MAREA":" ","LANE":"５２６巷","ALLEY":" ","HOUSE_NO":"７號","E_COORD97":168607.94,"N_COORD97":2549327.5600000001,"ADDRESS":"頂安街５２６巷７號","OBJECTID":251402},"geometry":{"x":168607.94000000134,"y":2549327.5600000024}},{"attributes":{"ID":251407,"DIS_CODE":0,"TOWNNAME":"安南區","LI":"頂安里","LIN":"11鄰","STREET":"頂安街","SECT":" ","MAREA":" ","LANE":"５２６巷","ALLEY":" ","HOUSE_NO":"５號","E_COORD97":168610.03,"N_COORD97":2549323.9100000001,"ADDRESS":"頂安街５２６巷５號","OBJECTID":251403},"geometry":{"x":168610.03000000212,"y":2549323.9099999983}},{"attributes":{"ID":251408,"DIS_CODE":0,"TOWNNAME":"安南區","LI":"頂安里","LIN":"11鄰","STREET":"頂安街","SECT":" ","MAREA":" ","LANE":"５２６巷","ALLEY":" ","HOUSE_NO":"３號","E_COORD97":168613.42000000001,"N_COORD97":2549321.3100000001,"ADDRESS":"頂安街５２６巷３號","OBJECTID":251404},"geometry":{"x":168613.41999999993,"y":2549321.3100000005}},{"attributes":{"ID":251409,"DIS_CODE":0,"TOWNNAME":"東區","LI":"東聖里","LIN":"14鄰","STREET":"中華東路","SECT":"二段","MAREA":" ","LANE":"４１巷","ALLEY":" ","HOUSE_NO":"５０號二樓","E_COORD97":171546.97,"N_COORD97":2543083.7599999998,"ADDRESS":"中華東路二段４１巷５０號二樓","OBJECTID":251405},"geometry":{"x":171546.96999999974,"y":2543083.7600000016}},{"attributes":{"ID":251410,"DIS_CODE":0,"TOWNNAME":"東區","LI":"東聖里","LIN":"14鄰","STREET":"中華東路","SECT":"二段","MAREA":" ","LANE":"４１巷","ALLEY":" ","HOUSE_NO":"５０號五樓","E_COORD97":171546.97,"N_COORD97":2543083.7599999998,"ADDRESS":"中華東路二段４１巷５０號五樓","OBJECTID":251406},"geometry":{"x":171546.96999999974,"y":2543083.7600000016}},{"attributes":{"ID":251411,"DIS_CODE":0,"TOWNNAME":"東區","LI":"東聖里","LIN":"14鄰","STREET":"中華東路","SECT":"二段","MAREA":" ","LANE":"４１巷","ALLEY":" ","HOUSE_NO":"５０號四樓","E_COORD97":171546.97,"N_COORD97":2543083.7599999998,"ADDRESS":"中華東路二段４１巷５０號四樓","OBJECTID":251407},"geometry":{"x":171546.96999999974,"y":2543083.7600000016}},{"attributes":{"ID":251412,"DIS_CODE":0,"TOWNNAME":"東區","LI":"東聖里","LIN":"14鄰","STREET":"中華東路","SECT":"二段","MAREA":" ","LANE":"４１巷","ALLEY":" ","HOUSE_NO":"５２號二樓","E_COORD97":171557.79999999999,"N_COORD97":2543082.3700000001,"ADDRESS":"中華東路二段４１巷５２號二樓","OBJECTID":251408},"geometry":{"x":171557.80000000075,"y":2543082.370000001}},{"attributes":{"ID":251413,"DIS_CODE":0,"TOWNNAME":"東區","LI":"東聖里","LIN":"14鄰","STREET":"中華東路","SECT":"二段","MAREA":" ","LANE":"４１巷","ALLEY":" ","HOUSE_NO":"５２號三樓","E_COORD97":171557.79999999999,"N_COORD97":2543082.3700000001,"ADDRESS":"中華東路二段４１巷５２號三樓","OBJECTID":251409},"geometry":{"x":171557.80000000075,"y":2543082.370000001}},{"attributes":{"ID":251414,"DIS_CODE":0,"TOWNNAME":"東區","LI":"東聖里","LIN":"14鄰","STREET":"中華東路","SECT":"二段","MAREA":" ","LANE":"４１巷","ALLEY":" ","HOUSE_NO":"５２號五樓","E_COORD97":171557.79999999999,"N_COORD97":2543082.3700000001,"ADDRESS":"中華東路二段４１巷５２號五樓","OBJECTID":251410},"geometry":{"x":171557.80000000075,"y":2543082.370000001}},{"attributes":{"ID":251415,"DIS_CODE":0,"TOWNNAME":"東區","LI":"東聖里","LIN":"14鄰","STREET":"中華東路","SECT":"二段","MAREA":" ","LANE":"４１巷","ALLEY":" ","HOUSE_NO":"５４號二樓","E_COORD97":171567.23999999999,"N_COORD97":2543082.0699999998,"ADDRESS":"中華東路二段４１巷５４號二樓","OBJECTID":251411},"geometry":{"x":171567.24000000115,"y":2543082.0700000022}},{"attributes":{"ID":251416,"DIS_CODE":0,"TOWNNAME":"東區","LI":"東聖里","LIN":"14鄰","STREET":"中華東路","SECT":"二段","MAREA":" ","LANE":"４１巷","ALLEY":" ","HOUSE_NO":"５６號三樓","E_COORD97":171577.91,"N_COORD97":2543080.98,"ADDRESS":"中華東路二段４１巷５６號三樓","OBJECTID":251412},"geometry":{"x":171577.91000000108,"y":2543080.9800000004}},{"attributes":{"ID":251417,"DIS_CODE":0,"TOWNNAME":"東區","LI":"東聖里","LIN":"14鄰","STREET":"中華東路","SECT":"二段","MAREA":" ","LANE":"４１巷","ALLEY":" ","HOUSE_NO":"５６號五樓","E_COORD97":171577.91,"N_COORD97":2543080.98,"ADDRESS":"中華東路二段４１巷５６號五樓","OBJECTID":251413},"geometry":{"x":171577.91000000108,"y":2543080.9800000004}},{"attributes":{"ID":251418,"DIS_CODE":0,"TOWNNAME":"六甲區","LI":"水林里","LIN":"14鄰","STREET":"民族街","SECT":" ","MAREA":" ","LANE":" ","ALLEY":" ","HOUSE_NO":"３０４號","E_COORD97":183125.29000000001,"N_COORD97":2570366.8900000001,"ADDRESS":"民族街３０４號","OBJECTID":251414},"geometry":{"x":183125.29000000004,"y":2570366.8900000025}},{"attributes":{"ID":251419,"DIS_CODE":0,"TOWNNAME":"六甲區","LI":"水林里","LIN":"14鄰","STREET":"民族街","SECT":" ","MAREA":" ","LANE":" ","ALLEY":" ","HOUSE_NO":"３０６號","E_COORD97":183116.19,"N_COORD97":2570362.3599999999,"ADDRESS":"民族街３０６號","OBJECTID":251415},"geometry":{"x":183116.19000000041,"y":2570362.3600000013}},{"attributes":{"ID":251420,"DIS_CODE":0,"TOWNNAME":"六甲區","LI":"水林里","LIN":"14鄰","STREET":"民族街","SECT":" ","MAREA":" ","LANE":" ","ALLEY":" ","HOUSE_NO":"３０８號","E_COORD97":183111.82000000001,"N_COORD97":2570363.0499999998,"ADDRESS":"民族街３０８號","OBJECTID":251416},"geometry":{"x":183111.8200000003,"y":2570363.0500000007}},{"attributes":{"ID":251421,"DIS_CODE":0,"TOWNNAME":"六甲區","LI":"水林里","LIN":"14鄰","STREET":"民族街","SECT":" ","MAREA":" ","LANE":" ","ALLEY":" ","HOUSE_NO":"３３８號","E_COORD97":183055.48000000001,"N_COORD97":2570370.6499999999,"ADDRESS":"民族街３３８號","OBJECTID":251417},"geometry":{"x":183055.48000000138,"y":2570370.6500000022}},{"attributes":{"ID":251422,"DIS_CODE":0,"TOWNNAME":"六甲區","LI":"水林里","LIN":"14鄰","STREET":"民族街","SECT":" ","MAREA":" ","LANE":" ","ALLEY":" ","HOUSE_NO":"３５０號","E_COORD97":183021.70999999999,"N_COORD97":2570364.6400000001,"ADDRESS":"民族街３５０號","OBJECTID":251418},"geometry":{"x":183021.71000000089,"y":2570364.6400000025}},{"attributes":{"ID":251423,"DIS_CODE":0,"TOWNNAME":"六甲區","LI":"水林里","LIN":"14鄰","STREET":"民族街","SECT":" ","MAREA":" ","LANE":" ","ALLEY":" ","HOUSE_NO":"３７６之１號","E_COORD97":182954.42000000001,"N_COORD97":2570365.4199999999,"ADDRESS":"民族街３７６之１號","OBJECTID":251419},"geometry":{"x":182954.41999999993,"y":2570365.4200000018}},{"attributes":{"ID":251424,"DIS_CODE":0,"TOWNNAME":"柳營區","LI":"光福里","LIN":"14鄰","STREET":"成功街","SECT":" ","MAREA":" ","LANE":" ","ALLEY":" ","HOUSE_NO":"２０６號","E_COORD97":179767.35000000001,"N_COORD97":2575301.4700000002,"ADDRESS":"成功街２０６號","OBJECTID":251420},"geometry":{"x":179767.35000000056,"y":2575301.4700000044}},{"attributes":{"ID":251425,"DIS_CODE":0,"TOWNNAME":"柳營區","LI":"光福里","LIN":"14鄰","STREET":"成功街","SECT":" ","MAREA":" ","LANE":" ","ALLEY":" ","HOUSE_NO":"２０８號","E_COORD97":179760.28,"N_COORD97":2575304.1099999999,"ADDRESS":"成功街２０８號","OBJECTID":251421},"geometry":{"x":179760.28000000026,"y":2575304.1100000013}},{"attributes":{"ID":251426,"DIS_CODE":0,"TOWNNAME":"柳營區","LI":"光福里","LIN":"14鄰","STREET":"成功街","SECT":" ","MAREA":" ","LANE":" ","ALLEY":" ","HOUSE_NO":"２１０號","E_COORD97":179756.45000000001,"N_COORD97":2575302.7200000002,"ADDRESS":"成功街２１０號","OBJECTID":251422},"geometry":{"x":179756.45000000205,"y":2575302.7200000007}},{"attributes":{"ID":251427,"DIS_CODE":0,"TOWNNAME":"柳營區","LI":"光福里","LIN":"14鄰","STREET":"成功街","SECT":" ","MAREA":" ","LANE":" ","ALLEY":" ","HOUSE_NO":"２１６號","E_COORD97":179749,"N_COORD97":2575295.1299999999,"ADDRESS":"成功街２１６號","OBJECTID":251423},"geometry":{"x":179749.00000000186,"y":2575295.1300000027}},{"attributes":{"ID":251428,"DIS_CODE":0,"TOWNNAME":"柳營區","LI":"光福里","LIN":"14鄰","STREET":"成功街","SECT":" ","MAREA":" ","LANE":" ","ALLEY":" ","HOUSE_NO":"２１８號","E_COORD97":179743.42999999999,"N_COORD97":2575293.23,"ADDRESS":"成功街２１８號","OBJECTID":251424},"geometry":{"x":179743.4299999997,"y":2575293.2300000023}},{"attributes":{"ID":251429,"DIS_CODE":0,"TOWNNAME":"柳營區","LI":"光福里","LIN":"14鄰","STREET":"成功街","SECT":" ","MAREA":" ","LANE":" ","ALLEY":" ","HOUSE_NO":"２２０號","E_COORD97":179736.88,"N_COORD97":2575291.29,"ADDRESS":"成功街２２０號","OBJECTID":251425},"geometry":{"x":179736.88000000082,"y":2575291.290000001}},{"attributes":{"ID":251430,"DIS_CODE":0,"TOWNNAME":"安南區","LI":"頂安里","LIN":"11鄰","STREET":"頂安街","SECT":" ","MAREA":" ","LANE":"５２６巷","ALLEY":" ","HOUSE_NO":"１號","E_COORD97":168616.01999999999,"N_COORD97":2549317.3999999999,"ADDRESS":"頂安街５２６巷１號","OBJECTID":251426},"geometry":{"x":168616.01999999862,"y":2549317.4000000004}},{"attributes":{"ID":251431,"DIS_CODE":0,"TOWNNAME":"安南區","LI":"鳳凰里","LIN":"11鄰","STREET":"安中路","SECT":"一段","MAREA":" ","LANE":"７００巷","ALLEY":" ","HOUSE_NO":"７６號","E_COORD97":167905.23999999999,"N_COORD97":2549245.3300000001,"ADDRESS":"安中路一段７００巷７６號","OBJECTID":251427},"geometry":{"x":167905.24000000115,"y":2549245.3300000001}},{"attributes":{"ID":251432,"DIS_CODE":0,"TOWNNAME":"安南區","LI":"鳳凰里","LIN":"11鄰","STREET":"安中路","SECT":"一段","MAREA":" ","LANE":"７００巷","ALLEY":" ","HOUSE_NO":"６８號之１","E_COORD97":167875.78,"N_COORD97":2549247.1600000001,"ADDRESS":"安中路一段７００巷６８號之１","OBJECTID":251428},"geometry":{"x":167875.78000000026,"y":2549247.1600000001}},{"attributes":{"ID":251433,"DIS_CODE":0,"TOWNNAME":"安南區","LI":"鳳凰里","LIN":"11鄰","STREET":"安中路","SECT":"一段","MAREA":" ","LANE":"７００巷","ALLEY":" ","HOUSE_NO":"９２號之３","E_COORD97":167968.03,"N_COORD97":2549239.7999999998,"ADDRESS":"安中路一段７００巷９２號之３","OBJECTID":251429},"geometry":{"x":167968.03000000119,"y":2549239.8000000007}},{"attributes":{"ID":251434,"DIS_CODE":0,"TOWNNAME":"東區","LI":"東聖里","LIN":"14鄰","STREET":"中華東路","SECT":"二段","MAREA":" ","LANE":"４１巷","ALLEY":" ","HOUSE_NO":"５６號四樓","E_COORD97":171577.91,"N_COORD97":2543080.98,"ADDRESS":"中華東路二段４１巷５６號四樓","OBJECTID":251430},"geometry":{"x":171577.91000000108,"y":2543080.9800000004}},{"attributes":{"ID":251435,"DIS_CODE":0,"TOWNNAME":"東區","LI":"東聖里","LIN":"14鄰","STREET":"中華東路","SECT":"二段","MAREA":" ","LANE":"４１巷","ALLEY":" ","HOUSE_NO":"５８號二樓","E_COORD97":171588.26999999999,"N_COORD97":2543080.6699999999,"ADDRESS":"中華東路二段４１巷５８號二樓","OBJECTID":251431},"geometry":{"x":171588.27000000048,"y":2543080.6700000037}},{"attributes":{"ID":251436,"DIS_CODE":0,"TOWNNAME":"東區","LI":"東聖里","LIN":"14鄰","STREET":"中華東路","SECT":"二段","MAREA":" ","LANE":"４１巷","ALLEY":" ","HOUSE_NO":"５８號五樓","E_COORD97":171588.26999999999,"N_COORD97":2543080.6699999999,"ADDRESS":"中華東路二段４１巷５８號五樓","OBJECTID":251432},"geometry":{"x":171588.27000000048,"y":2543080.6700000037}},{"attributes":{"ID":251437,"DIS_CODE":0,"TOWNNAME":"東區","LI":"東聖里","LIN":"14鄰","STREET":"中華東路","SECT":"二段","MAREA":" ","LANE":"４１巷","ALLEY":" ","HOUSE_NO":"６２號二樓","E_COORD97":171608.20999999999,"N_COORD97":2543079.5899999999,"ADDRESS":"中華東路二段４１巷６２號二樓","OBJECTID":251433},"geometry":{"x":171608.20999999996,"y":2543079.5899999999}},{"attributes":{"ID":251438,"DIS_CODE":0,"TOWNNAME":"東區","LI":"東聖里","LIN":"14鄰","STREET":"中華東路","SECT":"二段","MAREA":" ","LANE":"４１巷","ALLEY":" ","HOUSE_NO":"６２號五樓","E_COORD97":171608.20999999999,"N_COORD97":2543079.5899999999,"ADDRESS":"中華東路二段４１巷６２號五樓","OBJECTID":251434},"geometry":{"x":171608.20999999996,"y":2543079.5899999999}},{"attributes":{"ID":251439,"DIS_CODE":0,"TOWNNAME":"東區","LI":"東聖里","LIN":"14鄰","STREET":"中華東路","SECT":"二段","MAREA":" ","LANE":"４１巷","ALLEY":" ","HOUSE_NO":"６２號四樓","E_COORD97":171608.20999999999,"N_COORD97":2543079.5899999999,"ADDRESS":"中華東路二段４１巷６２號四樓","OBJECTID":251435},"geometry":{"x":171608.20999999996,"y":2543079.5899999999}},{"attributes":{"ID":251440,"DIS_CODE":0,"TOWNNAME":"東區","LI":"東聖里","LIN":"14鄰","STREET":"中華東路","SECT":"二段","MAREA":" ","LANE":"４１巷","ALLEY":" ","HOUSE_NO":"６４號二樓","E_COORD97":171618.73000000001,"N_COORD97":2543079.2799999998,"ADDRESS":"中華東路二段４１巷６４號二樓","OBJECTID":251436},"geometry":{"x":171618.73000000045,"y":2543079.2800000031}},{"attributes":{"ID":251441,"DIS_CODE":0,"TOWNNAME":"東區","LI":"東聖里","LIN":"14鄰","STREET":"中華東路","SECT":"二段","MAREA":" ","LANE":"４１巷","ALLEY":" ","HOUSE_NO":"６４號三樓","E_COORD97":171618.73000000001,"N_COORD97":2543079.2799999998,"ADDRESS":"中華東路二段４１巷６４號三樓","OBJECTID":251437},"geometry":{"x":171618.73000000045,"y":2543079.2800000031}},{"attributes":{"ID":251442,"DIS_CODE":0,"TOWNNAME":"東區","LI":"東聖里","LIN":"14鄰","STREET":"中華東路","SECT":"二段","MAREA":" ","LANE":"４１巷","ALLEY":" ","HOUSE_NO":"６４號四樓","E_COORD97":171618.73000000001,"N_COORD97":2543079.2799999998,"ADDRESS":"中華東路二段４１巷６４號四樓","OBJECTID":251438},"geometry":{"x":171618.73000000045,"y":2543079.2800000031}},{"attributes":{"ID":251443,"DIS_CODE":0,"TOWNNAME":"中西區","LI":"西賢里","LIN":"14鄰","STREET":"西賢一街","SECT":" ","MAREA":" ","LANE":"２３０巷","ALLEY":" ","HOUSE_NO":"１３號三樓之２","E_COORD97":165739.92999999999,"N_COORD97":2544957.48,"ADDRESS":"西賢一街２３０巷１３號三樓之２","OBJECTID":251439},"geometry":{"x":165739.9299999997,"y":2544957.4800000042}},{"attributes":{"ID":251444,"DIS_CODE":0,"TOWNNAME":"中西區","LI":"西賢里","LIN":"14鄰","STREET":"西賢一街","SECT":" ","MAREA":" ","LANE":"２３０巷","ALLEY":" ","HOUSE_NO":"１３號五樓之１","E_COORD97":165739.92999999999,"N_COORD97":2544957.48,"ADDRESS":"西賢一街２３０巷１３號五樓之１","OBJECTID":251440},"geometry":{"x":165739.9299999997,"y":2544957.4800000042}},{"attributes":{"ID":251445,"DIS_CODE":0,"TOWNNAME":"中西區","LI":"西賢里","LIN":"14鄰","STREET":"西賢一街","SECT":" ","MAREA":" ","LANE":"２３０巷","ALLEY":" ","HOUSE_NO":"１３號五樓之２","E_COORD97":165739.92999999999,"N_COORD97":2544957.48,"ADDRESS":"西賢一街２３０巷１３號五樓之２","OBJECTID":251441},"geometry":{"x":165739.9299999997,"y":2544957.4800000042}},{"attributes":{"ID":251446,"DIS_CODE":0,"TOWNNAME":"中西區","LI":"西賢里","LIN":"14鄰","STREET":"西賢一街","SECT":" ","MAREA":" ","LANE":"２３０巷","ALLEY":" ","HOUSE_NO":"１３號六樓之１","E_COORD97":165739.92999999999,"N_COORD97":2544957.48,"ADDRESS":"西賢一街２３０巷１３號六樓之１","OBJECTID":251442},"geometry":{"x":165739.9299999997,"y":2544957.4800000042}},{"attributes":{"ID":251447,"DIS_CODE":0,"TOWNNAME":"中西區","LI":"西賢里","LIN":"14鄰","STREET":"西賢一街","SECT":" ","MAREA":" ","LANE":"２３０巷","ALLEY":" ","HOUSE_NO":"１３號六樓之２","E_COORD97":165739.92999999999,"N_COORD97":2544957.48,"ADDRESS":"西賢一街２３０巷１３號六樓之２","OBJECTID":251443},"geometry":{"x":165739.9299999997,"y":2544957.4800000042}},{"attributes":{"ID":251448,"DIS_CODE":0,"TOWNNAME":"中西區","LI":"西賢里","LIN":"14鄰","STREET":"西賢一街","SECT":" ","MAREA":" ","LANE":"２３０巷","ALLEY":" ","HOUSE_NO":"１３號四樓之１","E_COORD97":165739.92999999999,"N_COORD97":2544957.48,"ADDRESS":"西賢一街２３０巷１３號四樓之１","OBJECTID":251444},"geometry":{"x":165739.9299999997,"y":2544957.4800000042}},{"attributes":{"ID":251449,"DIS_CODE":0,"TOWNNAME":"中西區","LI":"西賢里","LIN":"14鄰","STREET":"西賢一街","SECT":" ","MAREA":" ","LANE":"２３０巷","ALLEY":" ","HOUSE_NO":"１３號四樓之２","E_COORD97":165739.92999999999,"N_COORD97":2544957.48,"ADDRESS":"西賢一街２３０巷１３號四樓之２","OBJECTID":251445},"geometry":{"x":165739.9299999997,"y":2544957.4800000042}},{"attributes":{"ID":251450,"DIS_CODE":0,"TOWNNAME":"中西區","LI":"西賢里","LIN":"14鄰","STREET":"西賢一街","SECT":" ","MAREA":" ","LANE":"２３０巷","ALLEY":" ","HOUSE_NO":"１７號七樓之１","E_COORD97":165761.04999999999,"N_COORD97":2544965.5600000001,"ADDRESS":"西賢一街２３０巷１７號七樓之１","OBJECTID":251446},"geometry":{"x":165761.04999999981,"y":2544965.5600000005}},{"attributes":{"ID":251451,"DIS_CODE":0,"TOWNNAME":"中西區","LI":"西賢里","LIN":"14鄰","STREET":"西賢一街","SECT":" ","MAREA":" ","LANE":"２３０巷","ALLEY":" ","HOUSE_NO":"１７號七樓之２","E_COORD97":165761.04999999999,"N_COORD97":2544965.5600000001,"ADDRESS":"西賢一街２３０巷１７號七樓之２","OBJECTID":251447},"geometry":{"x":165761.04999999981,"y":2544965.5600000005}},{"attributes":{"ID":251452,"DIS_CODE":0,"TOWNNAME":"中西區","LI":"西賢里","LIN":"14鄰","STREET":"西賢一街","SECT":" ","MAREA":" ","LANE":"２３０巷","ALLEY":" ","HOUSE_NO":"１７號九樓之１","E_COORD97":165761.04999999999,"N_COORD97":2544965.5600000001,"ADDRESS":"西賢一街２３０巷１７號九樓之１","OBJECTID":251448},"geometry":{"x":165761.04999999981,"y":2544965.5600000005}},{"attributes":{"ID":251453,"DIS_CODE":0,"TOWNNAME":"中西區","LI":"西賢里","LIN":"14鄰","STREET":"西賢一街","SECT":" ","MAREA":" ","LANE":"２３０巷","ALLEY":" ","HOUSE_NO":"１７號九樓之２","E_COORD97":165761.04999999999,"N_COORD97":2544965.5600000001,"ADDRESS":"西賢一街２３０巷１７號九樓之２","OBJECTID":251449},"geometry":{"x":165761.04999999981,"y":2544965.5600000005}},{"attributes":{"ID":251454,"DIS_CODE":0,"TOWNNAME":"柳營區","LI":"光福里","LIN":"14鄰","STREET":"成功街","SECT":" ","MAREA":" ","LANE":" ","ALLEY":" ","HOUSE_NO":"２２６號","E_COORD97":179728.04999999999,"N_COORD97":2575286.8500000001,"ADDRESS":"成功街２２６號","OBJECTID":251450},"geometry":{"x":179728.04999999981,"y":2575286.8499999996}},{"attributes":{"ID":251455,"DIS_CODE":0,"TOWNNAME":"柳營區","LI":"光福里","LIN":"14鄰","STREET":"成功街","SECT":" ","MAREA":" ","LANE":" ","ALLEY":" ","HOUSE_NO":"２２８號","E_COORD97":179722.76000000001,"N_COORD97":2575285.0800000001,"ADDRESS":"成功街２２８號","OBJECTID":251451},"geometry":{"x":179722.75999999978,"y":2575285.0800000001}},{"attributes":{"ID":251456,"DIS_CODE":0,"TOWNNAME":"柳營區","LI":"光福里","LIN":"14鄰","STREET":"成功街","SECT":" ","MAREA":" ","LANE":" ","ALLEY":" ","HOUSE_NO":"２３０號","E_COORD97":179718.23999999999,"N_COORD97":2575283.1899999999,"ADDRESS":"成功街２３０號","OBJECTID":251452},"geometry":{"x":179718.24000000022,"y":2575283.1900000013}},{"attributes":{"ID":251457,"DIS_CODE":0,"TOWNNAME":"柳營區","LI":"光福里","LIN":"14鄰","STREET":"成功街","SECT":" ","MAREA":" ","LANE":" ","ALLEY":" ","HOUSE_NO":"２３２號","E_COORD97":179712.95000000001,"N_COORD97":2575282.23,"ADDRESS":"成功街２３２號","OBJECTID":251453},"geometry":{"x":179712.95000000112,"y":2575282.2299999986}},{"attributes":{"ID":251458,"DIS_CODE":0,"TOWNNAME":"安南區","LI":"理想里","LIN":"11鄰","STREET":"海佃路","SECT":"二段","MAREA":" ","LANE":"１１８巷","ALLEY":" ","HOUSE_NO":"２６號","E_COORD97":167107.35999999999,"N_COORD97":2548032.9300000002,"ADDRESS":"海佃路二段１１８巷２６號","OBJECTID":251454},"geometry":{"x":167107.36000000034,"y":2548032.9300000016}},{"attributes":{"ID":251459,"DIS_CODE":0,"TOWNNAME":"安南區","LI":"鳳凰里","LIN":"11鄰","STREET":"安中路","SECT":"一段","MAREA":" ","LANE":"７００巷","ALLEY":" ","HOUSE_NO":"６６號","E_COORD97":167868.64999999999,"N_COORD97":2549247.3799999999,"ADDRESS":"安中路一段７００巷６６號","OBJECTID":251455},"geometry":{"x":167868.65000000224,"y":2549247.379999999}},{"attributes":{"ID":251460,"DIS_CODE":0,"TOWNNAME":"安南區","LI":"鳳凰里","LIN":"11鄰","STREET":"安中路","SECT":"一段","MAREA":" ","LANE":"７００巷","ALLEY":" ","HOUSE_NO":"７２號","E_COORD97":167890.98999999999,"N_COORD97":2549246.52,"ADDRESS":"安中路一段７００巷７２號","OBJECTID":251456},"geometry":{"x":167890.99000000022,"y":2549246.5199999996}},{"attributes":{"ID":251461,"DIS_CODE":0,"TOWNNAME":"中西區","LI":"西賢里","LIN":"14鄰","STREET":"西賢一街","SECT":" ","MAREA":" ","LANE":"２３０巷","ALLEY":" ","HOUSE_NO":"１７號二樓之１","E_COORD97":165761.04999999999,"N_COORD97":2544965.5600000001,"ADDRESS":"西賢一街２３０巷１７號二樓之１","OBJECTID":251457},"geometry":{"x":165761.04999999981,"y":2544965.5600000005}},{"attributes":{"ID":251462,"DIS_CODE":0,"TOWNNAME":"中西區","LI":"西賢里","LIN":"14鄰","STREET":"西賢一街","SECT":" ","MAREA":" ","LANE":"２３０巷","ALLEY":" ","HOUSE_NO":"１７號二樓之２","E_COORD97":165761.04999999999,"N_COORD97":2544965.5600000001,"ADDRESS":"西賢一街２３０巷１７號二樓之２","OBJECTID":251458},"geometry":{"x":165761.04999999981,"y":2544965.5600000005}},{"attributes":{"ID":251463,"DIS_CODE":0,"TOWNNAME":"中西區","LI":"西賢里","LIN":"14鄰","STREET":"西賢一街","SECT":" ","MAREA":" ","LANE":"２３０巷","ALLEY":" ","HOUSE_NO":"１７號八樓之１","E_COORD97":165761.04999999999,"N_COORD97":2544965.5600000001,"ADDRESS":"西賢一街２３０巷１７號八樓之１","OBJECTID":251459},"geometry":{"x":165761.04999999981,"y":2544965.5600000005}},{"attributes":{"ID":251464,"DIS_CODE":0,"TOWNNAME":"中西區","LI":"西賢里","LIN":"14鄰","STREET":"西賢一街","SECT":" ","MAREA":" ","LANE":"２３０巷","ALLEY":" ","HOUSE_NO":"１７號八樓之２","E_COORD97":165761.04999999999,"N_COORD97":2544965.5600000001,"ADDRESS":"西賢一街２３０巷１７號八樓之２","OBJECTID":251460},"geometry":{"x":165761.04999999981,"y":2544965.5600000005}},{"attributes":{"ID":251465,"DIS_CODE":0,"TOWNNAME":"中西區","LI":"西賢里","LIN":"14鄰","STREET":"西賢一街","SECT":" ","MAREA":" ","LANE":"２３０巷","ALLEY":" ","HOUSE_NO":"１７號三樓之１","E_COORD97":165761.04999999999,"N_COORD97":2544965.5600000001,"ADDRESS":"西賢一街２３０巷１７號三樓之１","OBJECTID":251461},"geometry":{"x":165761.04999999981,"y":2544965.5600000005}},{"attributes":{"ID":251466,"DIS_CODE":0,"TOWNNAME":"中西區","LI":"西賢里","LIN":"14鄰","STREET":"西賢一街","SECT":" ","MAREA":" ","LANE":"２３０巷","ALLEY":" ","HOUSE_NO":"１７號三樓之２","E_COORD97":165761.04999999999,"N_COORD97":2544965.5600000001,"ADDRESS":"西賢一街２３０巷１７號三樓之２","OBJECTID":251462},"geometry":{"x":165761.04999999981,"y":2544965.5600000005}},{"attributes":{"ID":251467,"DIS_CODE":0,"TOWNNAME":"中西區","LI":"西賢里","LIN":"14鄰","STREET":"西賢一街","SECT":" ","MAREA":" ","LANE":"２３０巷","ALLEY":" ","HOUSE_NO":"１７號五樓之１","E_COORD97":165761.04999999999,"N_COORD97":2544965.5600000001,"ADDRESS":"西賢一街２３０巷１７號五樓之１","OBJECTID":251463},"geometry":{"x":165761.04999999981,"y":2544965.5600000005}},{"attributes":{"ID":251468,"DIS_CODE":0,"TOWNNAME":"中西區","LI":"西賢里","LIN":"14鄰","STREET":"西賢一街","SECT":" ","MAREA":" ","LANE":"２３０巷","ALLEY":" ","HOUSE_NO":"１７號五樓之２","E_COORD97":165761.04999999999,"N_COORD97":2544965.5600000001,"ADDRESS":"西賢一街２３０巷１７號五樓之２","OBJECTID":251464},"geometry":{"x":165761.04999999981,"y":2544965.5600000005}},{"attributes":{"ID":251469,"DIS_CODE":0,"TOWNNAME":"中西區","LI":"西賢里","LIN":"14鄰","STREET":"西賢一街","SECT":" ","MAREA":" ","LANE":"２３０巷","ALLEY":" ","HOUSE_NO":"１７號六樓之１","E_COORD97":165761.04999999999,"N_COORD97":2544965.5600000001,"ADDRESS":"西賢一街２３０巷１７號六樓之１","OBJECTID":251465},"geometry":{"x":165761.04999999981,"y":2544965.5600000005}},{"attributes":{"ID":251470,"DIS_CODE":0,"TOWNNAME":"中西區","LI":"西賢里","LIN":"14鄰","STREET":"西賢一街","SECT":" ","MAREA":" ","LANE":"２３０巷","ALLEY":" ","HOUSE_NO":"１７號六樓之２","E_COORD97":165761.04999999999,"N_COORD97":2544965.5600000001,"ADDRESS":"西賢一街２３０巷１７號六樓之２","OBJECTID":251466},"geometry":{"x":165761.04999999981,"y":2544965.5600000005}},{"attributes":{"ID":251471,"DIS_CODE":0,"TOWNNAME":"中西區","LI":"西賢里","LIN":"14鄰","STREET":"西賢一街","SECT":" ","MAREA":" ","LANE":"２３０巷","ALLEY":" ","HOUSE_NO":"１７號四樓之１","E_COORD97":165761.04999999999,"N_COORD97":2544965.5600000001,"ADDRESS":"西賢一街２３０巷１７號四樓之１","OBJECTID":251467},"geometry":{"x":165761.04999999981,"y":2544965.5600000005}},{"attributes":{"ID":251472,"DIS_CODE":0,"TOWNNAME":"中西區","LI":"西賢里","LIN":"14鄰","STREET":"西賢一街","SECT":" ","MAREA":" ","LANE":"２３０巷","ALLEY":" ","HOUSE_NO":"１７號四樓之２","E_COORD97":165761.04999999999,"N_COORD97":2544965.5600000001,"ADDRESS":"西賢一街２３０巷１７號四樓之２","OBJECTID":251468},"geometry":{"x":165761.04999999981,"y":2544965.5600000005}},{"attributes":{"ID":251473,"DIS_CODE":0,"TOWNNAME":"中西區","LI":"公正里","LIN":"14鄰","STREET":"西華南街","SECT":" ","MAREA":" ","LANE":"４５巷","ALLEY":" ","HOUSE_NO":"１５號一樓之１","E_COORD97":168898.32999999999,"N_COORD97":2543850.75,"ADDRESS":"西華南街４５巷１５號一樓之１","OBJECTID":251469},"geometry":{"x":168898.33000000101,"y":2543850.7500000019}},{"attributes":{"ID":251474,"DIS_CODE":0,"TOWNNAME":"中西區","LI":"公正里","LIN":"14鄰","STREET":"西華南街","SECT":" ","MAREA":" ","LANE":"４５巷","ALLEY":" ","HOUSE_NO":"１５號一樓之２","E_COORD97":168889.85000000001,"N_COORD97":2543851.46,"ADDRESS":"西華南街４５巷１５號一樓之２","OBJECTID":251470},"geometry":{"x":168889.84999999963,"y":2543851.4600000009}},{"attributes":{"ID":251475,"DIS_CODE":0,"TOWNNAME":"中西區","LI":"公正里","LIN":"14鄰","STREET":"西華南街","SECT":" ","MAREA":" ","LANE":"４５巷","ALLEY":" ","HOUSE_NO":"１５號一樓之３","E_COORD97":168899.39000000001,"N_COORD97":2543857.6299999999,"ADDRESS":"西華南街４５巷１５號一樓之３","OBJECTID":251471},"geometry":{"x":168899.3900000006,"y":2543857.6300000008}},{"attributes":{"ID":251476,"DIS_CODE":0,"TOWNNAME":"中西區","LI":"公正里","LIN":"14鄰","STREET":"西華南街","SECT":" ","MAREA":" ","LANE":"４５巷","ALLEY":" ","HOUSE_NO":"１５號一樓之４","E_COORD97":168891.88,"N_COORD97":2543858.6000000001,"ADDRESS":"西華南街４５巷１５號一樓之４","OBJECTID":251472},"geometry":{"x":168891.87999999989,"y":2543858.6000000015}},{"attributes":{"ID":251477,"DIS_CODE":0,"TOWNNAME":"中西區","LI":"公正里","LIN":"14鄰","STREET":"西華南街","SECT":" ","MAREA":" ","LANE":"４５巷","ALLEY":" ","HOUSE_NO":"１５號二樓之１","E_COORD97":168898.32999999999,"N_COORD97":2543850.75,"ADDRESS":"西華南街４５巷１５號二樓之１","OBJECTID":251473},"geometry":{"x":168898.33000000101,"y":2543850.7500000019}},{"attributes":{"ID":251478,"DIS_CODE":0,"TOWNNAME":"中西區","LI":"公正里","LIN":"14鄰","STREET":"西華南街","SECT":" ","MAREA":" ","LANE":"４５巷","ALLEY":" ","HOUSE_NO":"１５號二樓之２","E_COORD97":168889.85000000001,"N_COORD97":2543851.46,"ADDRESS":"西華南街４５巷１５號二樓之２","OBJECTID":251474},"geometry":{"x":168889.84999999963,"y":2543851.4600000009}},{"attributes":{"ID":251479,"DIS_CODE":0,"TOWNNAME":"柳營區","LI":"光福里","LIN":"14鄰","STREET":"成功街","SECT":" ","MAREA":" ","LANE":" ","ALLEY":" ","HOUSE_NO":"２３６號","E_COORD97":179708.17999999999,"N_COORD97":2575280.8100000001,"ADDRESS":"成功街２３６號","OBJECTID":251475},"geometry":{"x":179708.1799999997,"y":2575280.8100000005}},{"attributes":{"ID":251480,"DIS_CODE":0,"TOWNNAME":"柳營區","LI":"光福里","LIN":"14鄰","STREET":"成功街","SECT":" ","MAREA":" ","LANE":" ","ALLEY":" ","HOUSE_NO":"２４０號","E_COORD97":179695.56,"N_COORD97":2575279.29,"ADDRESS":"成功街２４０號","OBJECTID":251476},"geometry":{"x":179695.55999999866,"y":2575279.2899999991}},{"attributes":{"ID":251481,"DIS_CODE":0,"TOWNNAME":"柳營區","LI":"光福里","LIN":"14鄰","STREET":"成功街","SECT":" ","MAREA":" ","LANE":" ","ALLEY":" ","HOUSE_NO":"２５０號","E_COORD97":179682.85000000001,"N_COORD97":2575273.3399999999,"ADDRESS":"成功街２５０號","OBJECTID":251477},"geometry":{"x":179682.84999999963,"y":2575273.3399999999}},{"attributes":{"ID":251482,"DIS_CODE":0,"TOWNNAME":"柳營區","LI":"士林里","LIN":"14鄰","STREET":"育英街","SECT":" ","MAREA":" ","LANE":" ","ALLEY":" ","HOUSE_NO":"５７號","E_COORD97":179499.97,"N_COORD97":2574884.8999999999,"ADDRESS":"育英街５７號","OBJECTID":251478},"geometry":{"x":179499.97000000067,"y":2574884.9000000022}},{"attributes":{"ID":251483,"DIS_CODE":0,"TOWNNAME":"中西區","LI":"公正里","LIN":"14鄰","STREET":"西華南街","SECT":" ","MAREA":" ","LANE":"４５巷","ALLEY":" ","HOUSE_NO":"１５號二樓之３","E_COORD97":168899.39000000001,"N_COORD97":2543857.6299999999,"ADDRESS":"西華南街４５巷１５號二樓之３","OBJECTID":251479},"geometry":{"x":168899.3900000006,"y":2543857.6300000008}},{"attributes":{"ID":251484,"DIS_CODE":0,"TOWNNAME":"後壁區","LI":"福安里","LIN":"11鄰","STREET":" ","SECT":" ","MAREA":"下寮","LANE":" ","ALLEY":" ","HOUSE_NO":"１１３號","E_COORD97":184131.19,"N_COORD97":2580973.7599999998,"ADDRESS":"下寮１１３號","OBJECTID":251480},"geometry":{"x":184131.19000000041,"y":2580973.7599999979}},{"attributes":{"ID":251485,"DIS_CODE":0,"TOWNNAME":"中西區","LI":"公正里","LIN":"14鄰","STREET":"西華南街","SECT":" ","MAREA":" ","LANE":"４５巷","ALLEY":" ","HOUSE_NO":"１５號二樓之４","E_COORD97":168891.88,"N_COORD97":2543858.6000000001,"ADDRESS":"西華南街４５巷１５號二樓之４","OBJECTID":251481},"geometry":{"x":168891.87999999989,"y":2543858.6000000015}},{"attributes":{"ID":251486,"DIS_CODE":0,"TOWNNAME":"後壁區","LI":"長安里","LIN":"11鄰","STREET":" ","SECT":" ","MAREA":"中寮","LANE":" ","ALLEY":" ","HOUSE_NO":"１５５號之２３","E_COORD97":184318.06,"N_COORD97":2581407.23,"ADDRESS":"中寮１５５號之２３","OBJECTID":251482},"geometry":{"x":184318.05999999959,"y":2581407.2300000004}},{"attributes":{"ID":251487,"DIS_CODE":0,"TOWNNAME":"後壁區","LI":"長安里","LIN":"11鄰","STREET":" ","SECT":" ","MAREA":"中寮","LANE":" ","ALLEY":" ","HOUSE_NO":"１５５號之６","E_COORD97":184304.57000000001,"N_COORD97":2581380.2200000002,"ADDRESS":"中寮１５５號之６","OBJECTID":251483},"geometry":{"x":184304.57000000123,"y":2581380.2200000025}},{"attributes":{"ID":251488,"DIS_CODE":0,"TOWNNAME":"後壁區","LI":"長安里","LIN":"11鄰","STREET":" ","SECT":" ","MAREA":"中寮","LANE":" ","ALLEY":" ","HOUSE_NO":"１５５號之７","E_COORD97":184304.16,"N_COORD97":2581386.6499999999,"ADDRESS":"中寮１５５號之７","OBJECTID":251484},"geometry":{"x":184304.16000000015,"y":2581386.6500000022}},{"attributes":{"ID":251489,"DIS_CODE":0,"TOWNNAME":"後壁區","LI":"長安里","LIN":"11鄰","STREET":" ","SECT":" ","MAREA":"中寮","LANE":" ","ALLEY":" ","HOUSE_NO":"１５５號之８","E_COORD97":184302.91,"N_COORD97":2581391.9399999999,"ADDRESS":"中寮１５５號之８","OBJECTID":251485},"geometry":{"x":184302.91000000015,"y":2581391.9399999995}},{"attributes":{"ID":251490,"DIS_CODE":0,"TOWNNAME":"後壁區","LI":"長安里","LIN":"11鄰","STREET":" ","SECT":" ","MAREA":"中寮","LANE":" ","ALLEY":" ","HOUSE_NO":"１５５號之９","E_COORD97":184302.44,"N_COORD97":2581397.1899999999,"ADDRESS":"中寮１５５號之９","OBJECTID":251486},"geometry":{"x":184302.44000000041,"y":2581397.1899999995}},{"attributes":{"ID":251491,"DIS_CODE":0,"TOWNNAME":"後壁區","LI":"長安里","LIN":"11鄰","STREET":" ","SECT":" ","MAREA":"中寮","LANE":" ","ALLEY":" ","HOUSE_NO":"１５５號","E_COORD97":184310.04999999999,"N_COORD97":2581368.9399999999,"ADDRESS":"中寮１５５號","OBJECTID":251487},"geometry":{"x":184310.04999999981,"y":2581368.9399999976}},{"attributes":{"ID":251492,"DIS_CODE":0,"TOWNNAME":"東區","LI":"東聖里","LIN":"11鄰","STREET":"中華東路","SECT":"二段","MAREA":" ","LANE":"１３３巷","ALLEY":" ","HOUSE_NO":"５５號","E_COORD97":171539.42000000001,"N_COORD97":2542839.02,"ADDRESS":"中華東路二段１３３巷５５號","OBJECTID":251488},"geometry":{"x":171539.41999999993,"y":2542839.0199999996}},{"attributes":{"ID":251493,"DIS_CODE":0,"TOWNNAME":"東區","LI":"崇善里","LIN":"11鄰","STREET":"崇善八街","SECT":" ","MAREA":" ","LANE":"３６巷","ALLEY":" ","HOUSE_NO":"１２號","E_COORD97":171156.13,"N_COORD97":2541357.8700000001,"ADDRESS":"崇善八街３６巷１２號","OBJECTID":251489},"geometry":{"x":171156.12999999989,"y":2541357.8700000048}},{"attributes":{"ID":251494,"DIS_CODE":0,"TOWNNAME":"東區","LI":"崇善里","LIN":"11鄰","STREET":"崇善八街","SECT":" ","MAREA":" ","LANE":"３６巷","ALLEY":" ","HOUSE_NO":"１８號","E_COORD97":171168.19,"N_COORD97":2541335.6600000001,"ADDRESS":"崇善八街３６巷１８號","OBJECTID":251490},"geometry":{"x":171168.19000000041,"y":2541335.660000002}},{"attributes":{"ID":251495,"DIS_CODE":0,"TOWNNAME":"東區","LI":"後甲里","LIN":"11鄰","STREET":"建東街","SECT":" ","MAREA":" ","LANE":"４３巷","ALLEY":" ","HOUSE_NO":"１０號","E_COORD97":171722.51999999999,"N_COORD97":2543420.4399999999,"ADDRESS":"建東街４３巷１０號","OBJECTID":251491},"geometry":{"x":171722.52000000048,"y":2543420.4399999976}},{"attributes":{"ID":251496,"DIS_CODE":0,"TOWNNAME":"東區","LI":"後甲里","LIN":"11鄰","STREET":"建東街","SECT":" ","MAREA":" ","LANE":"４３巷","ALLEY":" ","HOUSE_NO":"１１號","E_COORD97":171739.78,"N_COORD97":2543412.0600000001,"ADDRESS":"建東街４３巷１１號","OBJECTID":251492},"geometry":{"x":171739.78000000119,"y":2543412.0600000024}},{"attributes":{"ID":251497,"DIS_CODE":0,"TOWNNAME":"東區","LI":"後甲里","LIN":"11鄰","STREET":"建東街","SECT":" ","MAREA":" ","LANE":"４３巷","ALLEY":" ","HOUSE_NO":"１２號","E_COORD97":171712.70999999999,"N_COORD97":2543418.0600000001,"ADDRESS":"建東街４３巷１２號","OBJECTID":251493},"geometry":{"x":171712.71000000089,"y":2543418.0600000024}},{"attributes":{"ID":251498,"DIS_CODE":0,"TOWNNAME":"東區","LI":"後甲里","LIN":"11鄰","STREET":"建東街","SECT":" ","MAREA":" ","LANE":"４３巷","ALLEY":" ","HOUSE_NO":"１７號","E_COORD97":171724.14000000001,"N_COORD97":2543408.3500000001,"ADDRESS":"建東街４３巷１７號","OBJECTID":251494},"geometry":{"x":171724.13999999966,"y":2543408.3500000015}},{"attributes":{"ID":251499,"DIS_CODE":0,"TOWNNAME":"中西區","LI":"公正里","LIN":"14鄰","STREET":"西華南街","SECT":" ","MAREA":" ","LANE":"４５巷","ALLEY":" ","HOUSE_NO":"１５號三樓之１","E_COORD97":168898.32999999999,"N_COORD97":2543850.75,"ADDRESS":"西華南街４５巷１５號三樓之１","OBJECTID":251495},"geometry":{"x":168898.33000000101,"y":2543850.7500000019}},{"attributes":{"ID":251500,"DIS_CODE":0,"TOWNNAME":"中西區","LI":"公正里","LIN":"14鄰","STREET":"西華南街","SECT":" ","MAREA":" ","LANE":"４５巷","ALLEY":" ","HOUSE_NO":"１５號三樓之２","E_COORD97":168889.85000000001,"N_COORD97":2543851.46,"ADDRESS":"西華南街４５巷１５號三樓之２","OBJECTID":251496},"geometry":{"x":168889.84999999963,"y":2543851.4600000009}},{"attributes":{"ID":251501,"DIS_CODE":0,"TOWNNAME":"中西區","LI":"公正里","LIN":"14鄰","STREET":"西華南街","SECT":" ","MAREA":" ","LANE":"４５巷","ALLEY":" ","HOUSE_NO":"１５號三樓之３","E_COORD97":168899.39000000001,"N_COORD97":2543857.6299999999,"ADDRESS":"西華南街４５巷１５號三樓之３","OBJECTID":251497},"geometry":{"x":168899.3900000006,"y":2543857.6300000008}},{"attributes":{"ID":251502,"DIS_CODE":0,"TOWNNAME":"柳營區","LI":"士林里","LIN":"14鄰","STREET":"育英街","SECT":" ","MAREA":" ","LANE":" ","ALLEY":" ","HOUSE_NO":"５９號","E_COORD97":179495.60999999999,"N_COORD97":2574884.8199999998,"ADDRESS":"育英街５９號","OBJECTID":251498},"geometry":{"x":179495.61000000034,"y":2574884.8199999984}},{"attributes":{"ID":251503,"DIS_CODE":0,"TOWNNAME":"柳營區","LI":"士林里","LIN":"14鄰","STREET":"育英街","SECT":" ","MAREA":" ","LANE":" ","ALLEY":" ","HOUSE_NO":"６０號","E_COORD97":179567.89000000001,"N_COORD97":2574934.2799999998,"ADDRESS":"育英街６０號","OBJECTID":251499},"geometry":{"x":179567.88999999966,"y":2574934.2799999993}},{"attributes":{"ID":251504,"DIS_CODE":0,"TOWNNAME":"柳營區","LI":"士林里","LIN":"14鄰","STREET":"育英街","SECT":" ","MAREA":" ","LANE":" ","ALLEY":" ","HOUSE_NO":"６１號","E_COORD97":179491.25,"N_COORD97":2574884.7400000002,"ADDRESS":"育英街６１號","OBJECTID":251500},"geometry":{"x":179491.25,"y":2574884.7400000002}},{"attributes":{"ID":251505,"DIS_CODE":0,"TOWNNAME":"柳營區","LI":"士林里","LIN":"14鄰","STREET":"育英街","SECT":" ","MAREA":" ","LANE":" ","ALLEY":" ","HOUSE_NO":"６３號","E_COORD97":179486.89000000001,"N_COORD97":2574884.6600000001,"ADDRESS":"育英街６３號","OBJECTID":251501},"geometry":{"x":179486.8900000006,"y":2574884.6600000001}},{"attributes":{"ID":251506,"DIS_CODE":0,"TOWNNAME":"柳營區","LI":"士林里","LIN":"14鄰","STREET":"育英街","SECT":" ","MAREA":" ","LANE":" ","ALLEY":" ","HOUSE_NO":"６５號","E_COORD97":179482.53,"N_COORD97":2574884.5899999999,"ADDRESS":"育英街６５號","OBJECTID":251502},"geometry":{"x":179482.53000000026,"y":2574884.5899999999}},{"attributes":{"ID":251507,"DIS_CODE":0,"TOWNNAME":"柳營區","LI":"士林里","LIN":"14鄰","STREET":"育英街","SECT":" ","MAREA":" ","LANE":" ","ALLEY":" ","HOUSE_NO":"６７號","E_COORD97":179478.17000000001,"N_COORD97":2574884.5099999998,"ADDRESS":"育英街６７號","OBJECTID":251503},"geometry":{"x":179478.16999999899,"y":2574884.5100000016}},{"attributes":{"ID":251508,"DIS_CODE":0,"TOWNNAME":"柳營區","LI":"士林里","LIN":"14鄰","STREET":"育英街","SECT":" ","MAREA":" ","LANE":" ","ALLEY":" ","HOUSE_NO":"６９號","E_COORD97":179473.81,"N_COORD97":2574884.4300000002,"ADDRESS":"育英街６９號","OBJECTID":251504},"geometry":{"x":179473.81000000052,"y":2574884.4300000016}},{"attributes":{"ID":251509,"DIS_CODE":0,"TOWNNAME":"柳營區","LI":"士林里","LIN":"14鄰","STREET":"育英街","SECT":" ","MAREA":" ","LANE":" ","ALLEY":" ","HOUSE_NO":"７１號","E_COORD97":179469.45000000001,"N_COORD97":2574884.3500000001,"ADDRESS":"育英街７１號","OBJECTID":251505},"geometry":{"x":179469.45000000019,"y":2574884.3500000034}},{"attributes":{"ID":251510,"DIS_CODE":0,"TOWNNAME":"東區","LI":"後甲里","LIN":"11鄰","STREET":"建東街","SECT":" ","MAREA":" ","LANE":"４３巷","ALLEY":" ","HOUSE_NO":"５號","E_COORD97":171752.76000000001,"N_COORD97":2543408.6200000001,"ADDRESS":"建東街４３巷５號","OBJECTID":251506},"geometry":{"x":171752.76000000071,"y":2543408.6200000029}},{"attributes":{"ID":251511,"DIS_CODE":0,"TOWNNAME":"中西區","LI":"公正里","LIN":"14鄰","STREET":"西華南街","SECT":" ","MAREA":" ","LANE":"４５巷","ALLEY":" ","HOUSE_NO":"１５號三樓之４","E_COORD97":168891.88,"N_COORD97":2543858.6000000001,"ADDRESS":"西華南街４５巷１５號三樓之４","OBJECTID":251507},"geometry":{"x":168891.87999999989,"y":2543858.6000000015}},{"attributes":{"ID":251512,"DIS_CODE":0,"TOWNNAME":"中西區","LI":"公正里","LIN":"14鄰","STREET":"西華南街","SECT":" ","MAREA":" ","LANE":"４５巷","ALLEY":" ","HOUSE_NO":"１５號五樓之１","E_COORD97":168898.32999999999,"N_COORD97":2543850.75,"ADDRESS":"西華南街４５巷１５號五樓之１","OBJECTID":251508},"geometry":{"x":168898.33000000101,"y":2543850.7500000019}},{"attributes":{"ID":251513,"DIS_CODE":0,"TOWNNAME":"中西區","LI":"公正里","LIN":"14鄰","STREET":"西華南街","SECT":" ","MAREA":" ","LANE":"４５巷","ALLEY":" ","HOUSE_NO":"１５號五樓之２","E_COORD97":168889.85000000001,"N_COORD97":2543851.46,"ADDRESS":"西華南街４５巷１５號五樓之２","OBJECTID":251509},"geometry":{"x":168889.84999999963,"y":2543851.4600000009}},{"attributes":{"ID":251514,"DIS_CODE":0,"TOWNNAME":"中西區","LI":"公正里","LIN":"14鄰","STREET":"西華南街","SECT":" ","MAREA":" ","LANE":"４５巷","ALLEY":" ","HOUSE_NO":"１５號五樓之３","E_COORD97":168899.39000000001,"N_COORD97":2543857.6299999999,"ADDRESS":"西華南街４５巷１５號五樓之３","OBJECTID":251510},"geometry":{"x":168899.3900000006,"y":2543857.6300000008}},{"attributes":{"ID":251515,"DIS_CODE":0,"TOWNNAME":"中西區","LI":"公正里","LIN":"14鄰","STREET":"西華南街","SECT":" ","MAREA":" ","LANE":"４５巷","ALLEY":" ","HOUSE_NO":"１５號五樓之４","E_COORD97":168891.88,"N_COORD97":2543858.6000000001,"ADDRESS":"西華南街４５巷１５號五樓之４","OBJECTID":251511},"geometry":{"x":168891.87999999989,"y":2543858.6000000015}},{"attributes":{"ID":251516,"DIS_CODE":0,"TOWNNAME":"中西區","LI":"公正里","LIN":"14鄰","STREET":"西華南街","SECT":" ","MAREA":" ","LANE":"４５巷","ALLEY":" ","HOUSE_NO":"１５號四樓之１","E_COORD97":168898.32999999999,"N_COORD97":2543850.75,"ADDRESS":"西華南街４５巷１５號四樓之１","OBJECTID":251512},"geometry":{"x":168898.33000000101,"y":2543850.7500000019}},{"attributes":{"ID":251517,"DIS_CODE":0,"TOWNNAME":"中西區","LI":"公正里","LIN":"14鄰","STREET":"西華南街","SECT":" ","MAREA":" ","LANE":"４５巷","ALLEY":" ","HOUSE_NO":"１５號四樓之２","E_COORD97":168889.85000000001,"N_COORD97":2543851.46,"ADDRESS":"西華南街４５巷１５號四樓之２","OBJECTID":251513},"geometry":{"x":168889.84999999963,"y":2543851.4600000009}},{"attributes":{"ID":251518,"DIS_CODE":0,"TOWNNAME":"中西區","LI":"公正里","LIN":"14鄰","STREET":"西華南街","SECT":" ","MAREA":" ","LANE":"４５巷","ALLEY":" ","HOUSE_NO":"１５號四樓之３","E_COORD97":168899.39000000001,"N_COORD97":2543857.6299999999,"ADDRESS":"西華南街４５巷１５號四樓之３","OBJECTID":251514},"geometry":{"x":168899.3900000006,"y":2543857.6300000008}},{"attributes":{"ID":251519,"DIS_CODE":0,"TOWNNAME":"中西區","LI":"公正里","LIN":"14鄰","STREET":"西華南街","SECT":" ","MAREA":" ","LANE":"４５巷","ALLEY":" ","HOUSE_NO":"１５號四樓之４","E_COORD97":168891.88,"N_COORD97":2543858.6000000001,"ADDRESS":"西華南街４５巷１５號四樓之４","OBJECTID":251515},"geometry":{"x":168891.87999999989,"y":2543858.6000000015}},{"attributes":{"ID":251520,"DIS_CODE":0,"TOWNNAME":"東區","LI":"大同里","LIN":"14鄰","STREET":"大同路","SECT":"一段","MAREA":" ","LANE":"１５５巷","ALLEY":" ","HOUSE_NO":"１４號三樓","E_COORD97":169206.98999999999,"N_COORD97":2542869.5800000001,"ADDRESS":"大同路一段１５５巷１４號三樓","OBJECTID":251516},"geometry":{"x":169206.99000000209,"y":2542869.5800000001}},{"attributes":{"ID":251521,"DIS_CODE":0,"TOWNNAME":"東區","LI":"大同里","LIN":"14鄰","STREET":"大同路","SECT":"一段","MAREA":" ","LANE":"１５５巷","ALLEY":" ","HOUSE_NO":"１４號五樓","E_COORD97":169206.98999999999,"N_COORD97":2542869.5800000001,"ADDRESS":"大同路一段１５５巷１４號五樓","OBJECTID":251517},"geometry":{"x":169206.99000000209,"y":2542869.5800000001}},{"attributes":{"ID":251522,"DIS_CODE":0,"TOWNNAME":"東區","LI":"大同里","LIN":"14鄰","STREET":"大同路","SECT":"一段","MAREA":" ","LANE":"１５５巷","ALLEY":" ","HOUSE_NO":"１４號四樓","E_COORD97":169206.98999999999,"N_COORD97":2542869.5800000001,"ADDRESS":"大同路一段１５５巷１４號四樓","OBJECTID":251518},"geometry":{"x":169206.99000000209,"y":2542869.5800000001}},{"attributes":{"ID":251523,"DIS_CODE":0,"TOWNNAME":"東區","LI":"大同里","LIN":"14鄰","STREET":"大同路","SECT":"一段","MAREA":" ","LANE":"１５５巷","ALLEY":" ","HOUSE_NO":"１６號二樓","E_COORD97":169215.12,"N_COORD97":2542871.3599999999,"ADDRESS":"大同路一段１５５巷１６號二樓","OBJECTID":251519},"geometry":{"x":169215.12000000104,"y":2542871.3599999994}},{"attributes":{"ID":251524,"DIS_CODE":0,"TOWNNAME":"東區","LI":"大同里","LIN":"14鄰","STREET":"大同路","SECT":"一段","MAREA":" ","LANE":"１５５巷","ALLEY":" ","HOUSE_NO":"１６號三樓","E_COORD97":169215.12,"N_COORD97":2542871.3599999999,"ADDRESS":"大同路一段１５５巷１６號三樓","OBJECTID":251520},"geometry":{"x":169215.12000000104,"y":2542871.3599999994}},{"attributes":{"ID":251525,"DIS_CODE":0,"TOWNNAME":"東區","LI":"大同里","LIN":"14鄰","STREET":"大同路","SECT":"一段","MAREA":" ","LANE":"１５５巷","ALLEY":" ","HOUSE_NO":"１６號五樓","E_COORD97":169215.12,"N_COORD97":2542871.3599999999,"ADDRESS":"大同路一段１５５巷１６號五樓","OBJECTID":251521},"geometry":{"x":169215.12000000104,"y":2542871.3599999994}},{"attributes":{"ID":251526,"DIS_CODE":0,"TOWNNAME":"東區","LI":"大同里","LIN":"14鄰","STREET":"大同路","SECT":"一段","MAREA":" ","LANE":"１５５巷","ALLEY":" ","HOUSE_NO":"１６號四樓","E_COORD97":169215.12,"N_COORD97":2542871.3599999999,"ADDRESS":"大同路一段１５５巷１６號四樓","OBJECTID":251522},"geometry":{"x":169215.12000000104,"y":2542871.3599999994}},{"attributes":{"ID":251527,"DIS_CODE":0,"TOWNNAME":"東區","LI":"東門里","LIN":"14鄰","STREET":"慶東街","SECT":" ","MAREA":" ","LANE":"８７巷","ALLEY":" ","HOUSE_NO":"３號三樓","E_COORD97":169608.22,"N_COORD97":2543194.77,"ADDRESS":"慶東街８７巷３號三樓","OBJECTID":251523},"geometry":{"x":169608.21999999974,"y":2543194.7700000033}},{"attributes":{"ID":251528,"DIS_CODE":0,"TOWNNAME":"東區","LI":"東門里","LIN":"14鄰","STREET":"慶東街","SECT":" ","MAREA":" ","LANE":"８７巷","ALLEY":" ","HOUSE_NO":"３號之１二樓","E_COORD97":169610.88,"N_COORD97":2543210.2799999998,"ADDRESS":"慶東街８７巷３號之１二樓","OBJECTID":251524},"geometry":{"x":169610.88000000175,"y":2543210.2799999993}},{"attributes":{"ID":251529,"DIS_CODE":0,"TOWNNAME":"東區","LI":"東門里","LIN":"14鄰","STREET":"慶東街","SECT":" ","MAREA":" ","LANE":"８７巷","ALLEY":" ","HOUSE_NO":"３號之１三樓","E_COORD97":169610.88,"N_COORD97":2543210.2799999998,"ADDRESS":"慶東街８７巷３號之１三樓","OBJECTID":251525},"geometry":{"x":169610.88000000175,"y":2543210.2799999993}},{"attributes":{"ID":251530,"DIS_CODE":0,"TOWNNAME":"東區","LI":"東門里","LIN":"14鄰","STREET":"慶東街","SECT":" ","MAREA":" ","LANE":"８７巷","ALLEY":" ","HOUSE_NO":"３號之１四樓","E_COORD97":169610.88,"N_COORD97":2543210.2799999998,"ADDRESS":"慶東街８７巷３號之１四樓","OBJECTID":251526},"geometry":{"x":169610.88000000175,"y":2543210.2799999993}},{"attributes":{"ID":251531,"DIS_CODE":0,"TOWNNAME":"東區","LI":"東門里","LIN":"14鄰","STREET":"慶東街","SECT":" ","MAREA":" ","LANE":"８７巷","ALLEY":" ","HOUSE_NO":"３號五樓","E_COORD97":169608.22,"N_COORD97":2543194.77,"ADDRESS":"慶東街８７巷３號五樓","OBJECTID":251527},"geometry":{"x":169608.21999999974,"y":2543194.7700000033}},{"attributes":{"ID":251532,"DIS_CODE":0,"TOWNNAME":"柳營區","LI":"士林里","LIN":"14鄰","STREET":"育英街","SECT":" ","MAREA":" ","LANE":" ","ALLEY":" ","HOUSE_NO":"７３號","E_COORD97":179465.09,"N_COORD97":2574884.27,"ADDRESS":"育英街７３號","OBJECTID":251528},"geometry":{"x":179465.08999999892,"y":2574884.2699999996}},{"attributes":{"ID":251533,"DIS_CODE":0,"TOWNNAME":"後壁區","LI":"嘉苳里","LIN":"11鄰","STREET":" ","SECT":" ","MAREA":"本協","LANE":" ","ALLEY":" ","HOUSE_NO":"１號之１３","E_COORD97":187212.79000000001,"N_COORD97":2583808.8399999999,"ADDRESS":"本協１號之１３","OBJECTID":251529},"geometry":{"x":187212.7900000019,"y":2583808.8400000017}},{"attributes":{"ID":251534,"DIS_CODE":0,"TOWNNAME":"後壁區","LI":"嘉苳里","LIN":"11鄰","STREET":" ","SECT":" ","MAREA":"本協","LANE":" ","ALLEY":" ","HOUSE_NO":"１號之１","E_COORD97":187165.39999999999,"N_COORD97":2583655.1200000001,"ADDRESS":"本協１號之１","OBJECTID":251530},"geometry":{"x":187165.4000000013,"y":2583655.1200000029}},{"attributes":{"ID":251535,"DIS_CODE":0,"TOWNNAME":"後壁區","LI":"新嘉里","LIN":"11鄰","STREET":" ","SECT":" ","MAREA":"白沙屯","LANE":" ","ALLEY":" ","HOUSE_NO":"１１６號之１","E_COORD97":179636.28,"N_COORD97":2585622.25,"ADDRESS":"白沙屯１１６號之１","OBJECTID":251531},"geometry":{"x":179636.28000000119,"y":2585622.2499999981}},{"attributes":{"ID":251536,"DIS_CODE":0,"TOWNNAME":"仁德區","LI":"田厝里","LIN":"11鄰","STREET":"田厝二街","SECT":" ","MAREA":" ","LANE":"９６巷","ALLEY":" ","HOUSE_NO":"２５號","E_COORD97":172348.66,"N_COORD97":2537798.7400000002,"ADDRESS":"田厝二街９６巷２５號","OBJECTID":251532},"geometry":{"x":172348.66000000201,"y":2537798.7400000021}},{"attributes":{"ID":251537,"DIS_CODE":0,"TOWNNAME":"東區","LI":"東門里","LIN":"14鄰","STREET":"慶東街","SECT":" ","MAREA":" ","LANE":"８７巷","ALLEY":" ","HOUSE_NO":"３號四樓","E_COORD97":169608.22,"N_COORD97":2543194.77,"ADDRESS":"慶東街８７巷３號四樓","OBJECTID":251533},"geometry":{"x":169608.21999999974,"y":2543194.7700000033}},{"attributes":{"ID":251538,"DIS_CODE":0,"TOWNNAME":"後壁區","LI":"新嘉里","LIN":"11鄰","STREET":" ","SECT":" ","MAREA":"白沙屯","LANE":" ","ALLEY":" ","HOUSE_NO":"１１６號","E_COORD97":179644.97,"N_COORD97":2585621.2599999998,"ADDRESS":"白沙屯１１６號","OBJECTID":251534},"geometry":{"x":179644.96999999974,"y":2585621.2599999998}},{"attributes":{"ID":251539,"DIS_CODE":0,"TOWNNAME":"玉井區","LI":"玉田里","LIN":"5鄰","STREET":"民族路","SECT":" ","MAREA":" ","LANE":"２７巷","ALLEY":" ","HOUSE_NO":"５號","E_COORD97":195001.63,"N_COORD97":2558134.29,"ADDRESS":"民族路２７巷５號","OBJECTID":251535},"geometry":{"x":195001.63000000082,"y":2558134.2899999991}},{"attributes":{"ID":251540,"DIS_CODE":0,"TOWNNAME":"中西區","LI":"安海里","LIN":"14鄰","STREET":"河中街","SECT":" ","MAREA":" ","LANE":"４３巷","ALLEY":" ","HOUSE_NO":"７號","E_COORD97":167270.16,"N_COORD97":2544056.02,"ADDRESS":"河中街４３巷７號","OBJECTID":251536},"geometry":{"x":167270.16000000108,"y":2544056.0199999996}},{"attributes":{"ID":251541,"DIS_CODE":0,"TOWNNAME":"後壁區","LI":"新嘉里","LIN":"11鄰","STREET":" ","SECT":" ","MAREA":"白沙屯","LANE":" ","ALLEY":" ","HOUSE_NO":"１１７號","E_COORD97":179719.98000000001,"N_COORD97":2585589.2200000002,"ADDRESS":"白沙屯１１７號","OBJECTID":251537},"geometry":{"x":179719.98000000138,"y":2585589.2200000007}},{"attributes":{"ID":251542,"DIS_CODE":0,"TOWNNAME":"後壁區","LI":"新嘉里","LIN":"11鄰","STREET":" ","SECT":" ","MAREA":"白沙屯","LANE":" ","ALLEY":" ","HOUSE_NO":"１１８號","E_COORD97":179674.64999999999,"N_COORD97":2585602.8599999999,"ADDRESS":"白沙屯１１８號","OBJECTID":251538},"geometry":{"x":179674.6500000013,"y":2585602.8599999994}},{"attributes":{"ID":251543,"DIS_CODE":0,"TOWNNAME":"後壁區","LI":"竹新里","LIN":"11鄰","STREET":" ","SECT":" ","MAREA":"竹圍後","LANE":" ","ALLEY":" ","HOUSE_NO":"１００號之１","E_COORD97":178735.19,"N_COORD97":2582413.9900000002,"ADDRESS":"竹圍後１００號之１","OBJECTID":251539},"geometry":{"x":178735.19000000134,"y":2582413.9900000039}},{"attributes":{"ID":251544,"DIS_CODE":0,"TOWNNAME":"後壁區","LI":"竹新里","LIN":"11鄰","STREET":" ","SECT":" ","MAREA":"竹圍後","LANE":" ","ALLEY":" ","HOUSE_NO":"１００號之２","E_COORD97":178753.89999999999,"N_COORD97":2582419.5899999999,"ADDRESS":"竹圍後１００號之２","OBJECTID":251540},"geometry":{"x":178753.9000000013,"y":2582419.5900000036}},{"attributes":{"ID":251545,"DIS_CODE":0,"TOWNNAME":"後壁區","LI":"竹新里","LIN":"11鄰","STREET":" ","SECT":" ","MAREA":"竹圍後","LANE":" ","ALLEY":" ","HOUSE_NO":"１００號之４","E_COORD97":178754.91,"N_COORD97":2582397.6099999999,"ADDRESS":"竹圍後１００號之４","OBJECTID":251541},"geometry":{"x":178754.91000000108,"y":2582397.6099999994}},{"attributes":{"ID":251546,"DIS_CODE":0,"TOWNNAME":"中西區","LI":"安海里","LIN":"14鄰","STREET":"河中街","SECT":" ","MAREA":" ","LANE":"４３巷","ALLEY":" ","HOUSE_NO":"８號","E_COORD97":167262.26000000001,"N_COORD97":2544060.75,"ADDRESS":"河中街４３巷８號","OBJECTID":251542},"geometry":{"x":167262.26000000071,"y":2544060.7500000019}},{"attributes":{"ID":251547,"DIS_CODE":0,"TOWNNAME":"後壁區","LI":"竹新里","LIN":"11鄰","STREET":" ","SECT":" ","MAREA":"竹圍後","LANE":" ","ALLEY":" ","HOUSE_NO":"１００號之５","E_COORD97":178789.81,"N_COORD97":2582389.27,"ADDRESS":"竹圍後１００號之５","OBJECTID":251543},"geometry":{"x":178789.80999999959,"y":2582389.2699999996}},{"attributes":{"ID":251548,"DIS_CODE":0,"TOWNNAME":"後壁區","LI":"竹新里","LIN":"11鄰","STREET":" ","SECT":" ","MAREA":"竹圍後","LANE":" ","ALLEY":" ","HOUSE_NO":"１００號","E_COORD97":178713.75,"N_COORD97":2582409.8100000001,"ADDRESS":"竹圍後１００號","OBJECTID":251544},"geometry":{"x":178713.75000000093,"y":2582409.8100000024}},{"attributes":{"ID":251549,"DIS_CODE":0,"TOWNNAME":"後壁區","LI":"竹新里","LIN":"11鄰","STREET":" ","SECT":" ","MAREA":"竹圍後","LANE":" ","ALLEY":" ","HOUSE_NO":"１０１號","E_COORD97":178723.35000000001,"N_COORD97":2582384.8799999999,"ADDRESS":"竹圍後１０１號","OBJECTID":251545},"geometry":{"x":178723.34999999963,"y":2582384.879999999}},{"attributes":{"ID":251550,"DIS_CODE":0,"TOWNNAME":"柳營區","LI":"士林里","LIN":"14鄰","STREET":"育英街","SECT":" ","MAREA":" ","LANE":" ","ALLEY":" ","HOUSE_NO":"７５號","E_COORD97":179460.73000000001,"N_COORD97":2574884.1899999999,"ADDRESS":"育英街７５號","OBJECTID":251546},"geometry":{"x":179460.73000000045,"y":2574884.1899999995}},{"attributes":{"ID":251551,"DIS_CODE":0,"TOWNNAME":"後壁區","LI":"竹新里","LIN":"11鄰","STREET":" ","SECT":" ","MAREA":"竹圍後","LANE":" ","ALLEY":" ","HOUSE_NO":"１０３號","E_COORD97":178696.25,"N_COORD97":2582413.02,"ADDRESS":"竹圍後１０３號","OBJECTID":251547},"geometry":{"x":178696.24999999907,"y":2582413.0200000033}},{"attributes":{"ID":251552,"DIS_CODE":0,"TOWNNAME":"柳營區","LI":"士林里","LIN":"14鄰","STREET":"育英街","SECT":" ","MAREA":" ","LANE":" ","ALLEY":" ","HOUSE_NO":"７７號","E_COORD97":179449.70999999999,"N_COORD97":2574885.9199999999,"ADDRESS":"育英街７７號","OBJECTID":251548},"geometry":{"x":179449.71000000089,"y":2574885.9199999999}},{"attributes":{"ID":251553,"DIS_CODE":0,"TOWNNAME":"中西區","LI":"普濟里","LIN":"14鄰","STREET":"國華街","SECT":"三段","MAREA":" ","LANE":"２６９巷","ALLEY":" ","HOUSE_NO":"１５號二樓","E_COORD97":167927.89999999999,"N_COORD97":2544475.8199999998,"ADDRESS":"國華街三段２６９巷１５號二樓","OBJECTID":251549},"geometry":{"x":167927.90000000224,"y":2544475.8200000003}},{"attributes":{"ID":251554,"DIS_CODE":0,"TOWNNAME":"中西區","LI":"普濟里","LIN":"14鄰","STREET":"國華街","SECT":"三段","MAREA":" ","LANE":"２６９巷","ALLEY":" ","HOUSE_NO":"１５號三樓","E_COORD97":167927.89999999999,"N_COORD97":2544475.8199999998,"ADDRESS":"國華街三段２６９巷１５號三樓","OBJECTID":251550},"geometry":{"x":167927.90000000224,"y":2544475.8200000003}},{"attributes":{"ID":251555,"DIS_CODE":0,"TOWNNAME":"歸仁區","LI":"崙頂里","LIN":"24鄰","STREET":"崙頂二街","SECT":" ","MAREA":" ","LANE":" ","ALLEY":" ","HOUSE_NO":"１５號","E_COORD97":177804.32999999999,"N_COORD97":2539966.25,"ADDRESS":"崙頂二街１５號","OBJECTID":251551},"geometry":{"x":177804.33000000194,"y":2539966.25}},{"attributes":{"ID":251556,"DIS_CODE":0,"TOWNNAME":"中西區","LI":"安海里","LIN":"14鄰","STREET":"河中街","SECT":" ","MAREA":" ","LANE":"４３巷","ALLEY":" ","HOUSE_NO":"１１號三樓之１","E_COORD97":167264.82999999999,"N_COORD97":2544053.0699999998,"ADDRESS":"河中街４３巷１１號三樓之１","OBJECTID":251552},"geometry":{"x":167264.83000000007,"y":2544053.0700000003}},{"attributes":{"ID":251557,"DIS_CODE":0,"TOWNNAME":"中西區","LI":"安海里","LIN":"14鄰","STREET":"河中街","SECT":" ","MAREA":" ","LANE":"４３巷","ALLEY":" ","HOUSE_NO":"１１號三樓之３","E_COORD97":167262.66,"N_COORD97":2544041.4399999999,"ADDRESS":"河中街４３巷１１號三樓之３","OBJECTID":251553},"geometry":{"x":167262.66000000015,"y":2544041.4400000013}},{"attributes":{"ID":251558,"DIS_CODE":0,"TOWNNAME":"中西區","LI":"安海里","LIN":"14鄰","STREET":"河中街","SECT":" ","MAREA":" ","LANE":"４３巷","ALLEY":" ","HOUSE_NO":"１１號三樓之４","E_COORD97":167262.07000000001,"N_COORD97":2544036.1200000001,"ADDRESS":"河中街４３巷１１號三樓之４","OBJECTID":251554},"geometry":{"x":167262.06999999937,"y":2544036.1200000029}},{"attributes":{"ID":251559,"DIS_CODE":0,"TOWNNAME":"中西區","LI":"安海里","LIN":"14鄰","STREET":"河中街","SECT":" ","MAREA":" ","LANE":"４３巷","ALLEY":" ","HOUSE_NO":"１１號四樓之１","E_COORD97":167264.82999999999,"N_COORD97":2544053.0699999998,"ADDRESS":"河中街４３巷１１號四樓之１","OBJECTID":251555},"geometry":{"x":167264.83000000007,"y":2544053.0700000003}},{"attributes":{"ID":251560,"DIS_CODE":0,"TOWNNAME":"中西區","LI":"安海里","LIN":"14鄰","STREET":"河中街","SECT":" ","MAREA":" ","LANE":"４３巷","ALLEY":" ","HOUSE_NO":"１１號四樓之３","E_COORD97":167262.66,"N_COORD97":2544041.4399999999,"ADDRESS":"河中街４３巷１１號四樓之３","OBJECTID":251556},"geometry":{"x":167262.66000000015,"y":2544041.4400000013}},{"attributes":{"ID":251561,"DIS_CODE":0,"TOWNNAME":"北區","LI":"賢北里","LIN":"14鄰","STREET":"賢北街","SECT":" ","MAREA":" ","LANE":"５７巷","ALLEY":" ","HOUSE_NO":"２０號二樓之１","E_COORD97":166185.01000000001,"N_COORD97":2545461.8199999998,"ADDRESS":"賢北街５７巷２０號二樓之１","OBJECTID":251557},"geometry":{"x":166185.00999999978,"y":2545461.8200000003}},{"attributes":{"ID":251562,"DIS_CODE":0,"TOWNNAME":"北區","LI":"賢北里","LIN":"14鄰","STREET":"賢北街","SECT":" ","MAREA":" ","LANE":"５７巷","ALLEY":" ","HOUSE_NO":"２０號三樓之１","E_COORD97":166185.01000000001,"N_COORD97":2545461.8199999998,"ADDRESS":"賢北街５７巷２０號三樓之１","OBJECTID":251558},"geometry":{"x":166185.00999999978,"y":2545461.8200000003}},{"attributes":{"ID":251563,"DIS_CODE":0,"TOWNNAME":"北區","LI":"賢北里","LIN":"14鄰","STREET":"賢北街","SECT":" ","MAREA":" ","LANE":"５７巷","ALLEY":" ","HOUSE_NO":"２０號四樓之１","E_COORD97":166185.01000000001,"N_COORD97":2545461.8199999998,"ADDRESS":"賢北街５７巷２０號四樓之１","OBJECTID":251559},"geometry":{"x":166185.00999999978,"y":2545461.8200000003}},{"attributes":{"ID":251564,"DIS_CODE":0,"TOWNNAME":"北區","LI":"中樓里","LIN":"14鄰","STREET":"開元路","SECT":" ","MAREA":" ","LANE":"９０巷","ALLEY":" ","HOUSE_NO":"２９號四樓之１","E_COORD97":169860,"N_COORD97":2545169.8700000001,"ADDRESS":"開元路９０巷２９號四樓之１","OBJECTID":251560},"geometry":{"x":169860.00000000093,"y":2545169.8700000029}},{"attributes":{"ID":251565,"DIS_CODE":0,"TOWNNAME":"南區","LI":"新昌里","LIN":"14鄰","STREET":"大德街","SECT":" ","MAREA":" ","LANE":"１４１巷","ALLEY":" ","HOUSE_NO":"９１號十一樓之２","E_COORD97":167543.92999999999,"N_COORD97":2542744.48,"ADDRESS":"大德街１４１巷９１號十一樓之２","OBJECTID":251561},"geometry":{"x":167543.93000000156,"y":2542744.4800000023}},{"attributes":{"ID":251566,"DIS_CODE":0,"TOWNNAME":"南區","LI":"新昌里","LIN":"14鄰","STREET":"大德街","SECT":" ","MAREA":" ","LANE":"１４１巷","ALLEY":" ","HOUSE_NO":"９１號十二樓","E_COORD97":167543.92999999999,"N_COORD97":2542744.48,"ADDRESS":"大德街１４１巷９１號十二樓","OBJECTID":251562},"geometry":{"x":167543.93000000156,"y":2542744.4800000023}},{"attributes":{"ID":251567,"DIS_CODE":0,"TOWNNAME":"南區","LI":"新昌里","LIN":"14鄰","STREET":"大德街","SECT":" ","MAREA":" ","LANE":"１４１巷","ALLEY":" ","HOUSE_NO":"９１號十三樓","E_COORD97":167543.92999999999,"N_COORD97":2542744.48,"ADDRESS":"大德街１４１巷９１號十三樓","OBJECTID":251563},"geometry":{"x":167543.93000000156,"y":2542744.4800000023}},{"attributes":{"ID":251568,"DIS_CODE":0,"TOWNNAME":"南區","LI":"新昌里","LIN":"14鄰","STREET":"大德街","SECT":" ","MAREA":" ","LANE":"１４１巷","ALLEY":" ","HOUSE_NO":"９１號十樓之１","E_COORD97":167543.92999999999,"N_COORD97":2542744.48,"ADDRESS":"大德街１４１巷９１號十樓之１","OBJECTID":251564},"geometry":{"x":167543.93000000156,"y":2542744.4800000023}},{"attributes":{"ID":251569,"DIS_CODE":0,"TOWNNAME":"南區","LI":"新昌里","LIN":"14鄰","STREET":"大德街","SECT":" ","MAREA":" ","LANE":"１４１巷","ALLEY":" ","HOUSE_NO":"９１號十樓之２","E_COORD97":167543.92999999999,"N_COORD97":2542744.48,"ADDRESS":"大德街１４１巷９１號十樓之２","OBJECTID":251565},"geometry":{"x":167543.93000000156,"y":2542744.4800000023}},{"attributes":{"ID":251570,"DIS_CODE":0,"TOWNNAME":"南區","LI":"新昌里","LIN":"14鄰","STREET":"大德街","SECT":" ","MAREA":" ","LANE":"１４１巷","ALLEY":" ","HOUSE_NO":"９１號三樓之１","E_COORD97":167543.92999999999,"N_COORD97":2542744.48,"ADDRESS":"大德街１４１巷９１號三樓之１","OBJECTID":251566},"geometry":{"x":167543.93000000156,"y":2542744.4800000023}},{"attributes":{"ID":251571,"DIS_CODE":0,"TOWNNAME":"南區","LI":"新昌里","LIN":"14鄰","STREET":"大德街","SECT":" ","MAREA":" ","LANE":"１４１巷","ALLEY":" ","HOUSE_NO":"９１號五樓之１","E_COORD97":167543.92999999999,"N_COORD97":2542744.48,"ADDRESS":"大德街１４１巷９１號五樓之１","OBJECTID":251567},"geometry":{"x":167543.93000000156,"y":2542744.4800000023}},{"attributes":{"ID":251572,"DIS_CODE":0,"TOWNNAME":"安南區","LI":"理想里","LIN":"11鄰","STREET":"海佃路","SECT":"二段","MAREA":" ","LANE":"１１８巷","ALLEY":" ","HOUSE_NO":"１８號","E_COORD97":167084.63,"N_COORD97":2548045.8700000001,"ADDRESS":"海佃路二段１１８巷１８號","OBJECTID":251568},"geometry":{"x":167084.62999999989,"y":2548045.870000001}},{"attributes":{"ID":251573,"DIS_CODE":0,"TOWNNAME":"安南區","LI":"理想里","LIN":"11鄰","STREET":"海佃路","SECT":"二段","MAREA":" ","LANE":"１１８巷","ALLEY":" ","HOUSE_NO":"１９號","E_COORD97":167098.04999999999,"N_COORD97":2548056.6499999999,"ADDRESS":"海佃路二段１１８巷１９號","OBJECTID":251569},"geometry":{"x":167098.05000000075,"y":2548056.6500000004}},{"attributes":{"ID":251574,"DIS_CODE":0,"TOWNNAME":"南區","LI":"新昌里","LIN":"14鄰","STREET":"大德街","SECT":" ","MAREA":" ","LANE":"１４１巷","ALLEY":" ","HOUSE_NO":"９１號五樓之２","E_COORD97":167543.92999999999,"N_COORD97":2542744.48,"ADDRESS":"大德街１４１巷９１號五樓之２","OBJECTID":251570},"geometry":{"x":167543.93000000156,"y":2542744.4800000023}},{"attributes":{"ID":251575,"DIS_CODE":0,"TOWNNAME":"南區","LI":"新昌里","LIN":"14鄰","STREET":"大德街","SECT":" ","MAREA":" ","LANE":"１４１巷","ALLEY":" ","HOUSE_NO":"９１號六樓之１","E_COORD97":167543.92999999999,"N_COORD97":2542744.48,"ADDRESS":"大德街１４１巷９１號六樓之１","OBJECTID":251571},"geometry":{"x":167543.93000000156,"y":2542744.4800000023}},{"attributes":{"ID":251576,"DIS_CODE":0,"TOWNNAME":"南區","LI":"新昌里","LIN":"14鄰","STREET":"大德街","SECT":" ","MAREA":" ","LANE":"１４１巷","ALLEY":" ","HOUSE_NO":"９１號六樓之２","E_COORD97":167543.92999999999,"N_COORD97":2542744.48,"ADDRESS":"大德街１４１巷９１號六樓之２","OBJECTID":251572},"geometry":{"x":167543.93000000156,"y":2542744.4800000023}},{"attributes":{"ID":251577,"DIS_CODE":0,"TOWNNAME":"南區","LI":"新昌里","LIN":"14鄰","STREET":"大德街","SECT":" ","MAREA":" ","LANE":"１４１巷","ALLEY":" ","HOUSE_NO":"９１號四樓之１","E_COORD97":167543.92999999999,"N_COORD97":2542744.48,"ADDRESS":"大德街１４１巷９１號四樓之１","OBJECTID":251573},"geometry":{"x":167543.93000000156,"y":2542744.4800000023}},{"attributes":{"ID":251578,"DIS_CODE":0,"TOWNNAME":"南區","LI":"新昌里","LIN":"14鄰","STREET":"大德街","SECT":" ","MAREA":" ","LANE":"１４１巷","ALLEY":" ","HOUSE_NO":"９１號四樓之２","E_COORD97":167543.92999999999,"N_COORD97":2542744.48,"ADDRESS":"大德街１４１巷９１號四樓之２","OBJECTID":251574},"geometry":{"x":167543.93000000156,"y":2542744.4800000023}},{"attributes":{"ID":251579,"DIS_CODE":0,"TOWNNAME":"南區","LI":"新昌里","LIN":"14鄰","STREET":"大德街","SECT":" ","MAREA":" ","LANE":"１４１巷","ALLEY":" ","HOUSE_NO":"９３號七樓之１","E_COORD97":167543.92999999999,"N_COORD97":2542750.6400000001,"ADDRESS":"大德街１４１巷９３號七樓之１","OBJECTID":251575},"geometry":{"x":167543.93000000156,"y":2542750.6400000025}},{"attributes":{"ID":251580,"DIS_CODE":0,"TOWNNAME":"南區","LI":"新昌里","LIN":"14鄰","STREET":"大德街","SECT":" ","MAREA":" ","LANE":"１４１巷","ALLEY":" ","HOUSE_NO":"９３號七樓之２","E_COORD97":167543.92999999999,"N_COORD97":2542750.6400000001,"ADDRESS":"大德街１４１巷９３號七樓之２","OBJECTID":251576},"geometry":{"x":167543.93000000156,"y":2542750.6400000025}},{"attributes":{"ID":251581,"DIS_CODE":0,"TOWNNAME":"南區","LI":"新昌里","LIN":"14鄰","STREET":"大德街","SECT":" ","MAREA":" ","LANE":"１４１巷","ALLEY":" ","HOUSE_NO":"９３號七樓之３","E_COORD97":167543.92999999999,"N_COORD97":2542750.6400000001,"ADDRESS":"大德街１４１巷９３號七樓之３","OBJECTID":251577},"geometry":{"x":167543.93000000156,"y":2542750.6400000025}},{"attributes":{"ID":251582,"DIS_CODE":0,"TOWNNAME":"南區","LI":"新昌里","LIN":"14鄰","STREET":"大德街","SECT":" ","MAREA":" ","LANE":"１４１巷","ALLEY":" ","HOUSE_NO":"９３號九樓之１","E_COORD97":167543.92999999999,"N_COORD97":2542750.6400000001,"ADDRESS":"大德街１４１巷９３號九樓之１","OBJECTID":251578},"geometry":{"x":167543.93000000156,"y":2542750.6400000025}},{"attributes":{"ID":251583,"DIS_CODE":0,"TOWNNAME":"南區","LI":"新昌里","LIN":"14鄰","STREET":"大德街","SECT":" ","MAREA":" ","LANE":"１４１巷","ALLEY":" ","HOUSE_NO":"９３號九樓之２","E_COORD97":167543.92999999999,"N_COORD97":2542750.6400000001,"ADDRESS":"大德街１４１巷９３號九樓之２","OBJECTID":251579},"geometry":{"x":167543.93000000156,"y":2542750.6400000025}},{"attributes":{"ID":251584,"DIS_CODE":0,"TOWNNAME":"南區","LI":"新昌里","LIN":"14鄰","STREET":"大德街","SECT":" ","MAREA":" ","LANE":"１４１巷","ALLEY":" ","HOUSE_NO":"９３號九樓之３","E_COORD97":167543.92999999999,"N_COORD97":2542750.6400000001,"ADDRESS":"大德街１４１巷９３號九樓之３","OBJECTID":251580},"geometry":{"x":167543.93000000156,"y":2542750.6400000025}},{"attributes":{"ID":251585,"DIS_CODE":0,"TOWNNAME":"南區","LI":"新昌里","LIN":"14鄰","STREET":"大德街","SECT":" ","MAREA":" ","LANE":"１４１巷","ALLEY":" ","HOUSE_NO":"９３號二樓之１","E_COORD97":167543.92999999999,"N_COORD97":2542750.6400000001,"ADDRESS":"大德街１４１巷９３號二樓之１","OBJECTID":251581},"geometry":{"x":167543.93000000156,"y":2542750.6400000025}},{"attributes":{"ID":251586,"DIS_CODE":0,"TOWNNAME":"南區","LI":"新昌里","LIN":"14鄰","STREET":"大德街","SECT":" ","MAREA":" ","LANE":"１４１巷","ALLEY":" ","HOUSE_NO":"９３號二樓之２","E_COORD97":167543.92999999999,"N_COORD97":2542750.6400000001,"ADDRESS":"大德街１４１巷９３號二樓之２","OBJECTID":251582},"geometry":{"x":167543.93000000156,"y":2542750.6400000025}},{"attributes":{"ID":251587,"DIS_CODE":0,"TOWNNAME":"南區","LI":"新昌里","LIN":"14鄰","STREET":"大德街","SECT":" ","MAREA":" ","LANE":"１４１巷","ALLEY":" ","HOUSE_NO":"９３號二樓之３","E_COORD97":167543.92999999999,"N_COORD97":2542750.6400000001,"ADDRESS":"大德街１４１巷９３號二樓之３","OBJECTID":251583},"geometry":{"x":167543.93000000156,"y":2542750.6400000025}},{"attributes":{"ID":251588,"DIS_CODE":0,"TOWNNAME":"南區","LI":"新昌里","LIN":"14鄰","STREET":"大德街","SECT":" ","MAREA":" ","LANE":"１４１巷","ALLEY":" ","HOUSE_NO":"９３號八樓之１","E_COORD97":167543.92999999999,"N_COORD97":2542750.6400000001,"ADDRESS":"大德街１４１巷９３號八樓之１","OBJECTID":251584},"geometry":{"x":167543.93000000156,"y":2542750.6400000025}},{"attributes":{"ID":251589,"DIS_CODE":0,"TOWNNAME":"南區","LI":"新昌里","LIN":"14鄰","STREET":"大德街","SECT":" ","MAREA":" ","LANE":"１４１巷","ALLEY":" ","HOUSE_NO":"９３號八樓之２","E_COORD97":167543.92999999999,"N_COORD97":2542750.6400000001,"ADDRESS":"大德街１４１巷９３號八樓之２","OBJECTID":251585},"geometry":{"x":167543.93000000156,"y":2542750.6400000025}},{"attributes":{"ID":251590,"DIS_CODE":0,"TOWNNAME":"南區","LI":"新昌里","LIN":"14鄰","STREET":"大德街","SECT":" ","MAREA":" ","LANE":"１４１巷","ALLEY":" ","HOUSE_NO":"９３號八樓之３","E_COORD97":167543.92999999999,"N_COORD97":2542750.6400000001,"ADDRESS":"大德街１４１巷９３號八樓之３","OBJECTID":251586},"geometry":{"x":167543.93000000156,"y":2542750.6400000025}},{"attributes":{"ID":251591,"DIS_CODE":0,"TOWNNAME":"南區","LI":"新昌里","LIN":"14鄰","STREET":"大德街","SECT":" ","MAREA":" ","LANE":"１４１巷","ALLEY":" ","HOUSE_NO":"９３號十一樓之１","E_COORD97":167543.92999999999,"N_COORD97":2542750.6400000001,"ADDRESS":"大德街１４１巷９３號十一樓之１","OBJECTID":251587},"geometry":{"x":167543.93000000156,"y":2542750.6400000025}},{"attributes":{"ID":251592,"DIS_CODE":0,"TOWNNAME":"南區","LI":"新昌里","LIN":"14鄰","STREET":"大德街","SECT":" ","MAREA":" ","LANE":"１４１巷","ALLEY":" ","HOUSE_NO":"９３號十一樓之２","E_COORD97":167543.92999999999,"N_COORD97":2542750.6400000001,"ADDRESS":"大德街１４１巷９３號十一樓之２","OBJECTID":251588},"geometry":{"x":167543.93000000156,"y":2542750.6400000025}},{"attributes":{"ID":251593,"DIS_CODE":0,"TOWNNAME":"柳營區","LI":"士林里","LIN":"14鄰","STREET":"育英街","SECT":" ","MAREA":" ","LANE":" ","ALLEY":" ","HOUSE_NO":"７９號","E_COORD97":179446.12,"N_COORD97":2574886.0699999998,"ADDRESS":"育英街７９號","OBJECTID":251589},"geometry":{"x":179446.12000000011,"y":2574886.0700000003}},{"attributes":{"ID":251594,"DIS_CODE":0,"TOWNNAME":"柳營區","LI":"士林里","LIN":"14鄰","STREET":"育英街","SECT":" ","MAREA":" ","LANE":" ","ALLEY":" ","HOUSE_NO":"９２號","E_COORD97":179551.19,"N_COORD97":2574928.1099999999,"ADDRESS":"育英街９２號","OBJECTID":251590},"geometry":{"x":179551.19000000041,"y":2574928.1099999994}},{"attributes":{"ID":251595,"DIS_CODE":0,"TOWNNAME":"柳營區","LI":"東昇里","LIN":"14鄰","STREET":"東南五街","SECT":" ","MAREA":" ","LANE":" ","ALLEY":" ","HOUSE_NO":"１７號","E_COORD97":180354.51999999999,"N_COORD97":2575254.0899999999,"ADDRESS":"東南五街１７號","OBJECTID":251591},"geometry":{"x":180354.51999999955,"y":2575254.0899999999}},{"attributes":{"ID":251596,"DIS_CODE":0,"TOWNNAME":"永康區","LI":"大橋里","LIN":"11鄰","STREET":"大橋三街","SECT":" ","MAREA":" ","LANE":"２６６巷","ALLEY":" ","HOUSE_NO":"１１７號","E_COORD97":170915.91,"N_COORD97":2546726.25,"ADDRESS":"大橋三街２６６巷１１７號","OBJECTID":251592},"geometry":{"x":170915.91000000015,"y":2546726.2500000019}},{"attributes":{"ID":251597,"DIS_CODE":0,"TOWNNAME":"永康區","LI":"大橋里","LIN":"11鄰","STREET":"大橋三街","SECT":" ","MAREA":" ","LANE":"２６６巷","ALLEY":" ","HOUSE_NO":"１０５號","E_COORD97":170944.95999999999,"N_COORD97":2546719.25,"ADDRESS":"大橋三街２６６巷１０５號","OBJECTID":251593},"geometry":{"x":170944.96000000089,"y":2546719.2500000019}},{"attributes":{"ID":251598,"DIS_CODE":0,"TOWNNAME":"永康區","LI":"中興里","LIN":"11鄰","STREET":"中興街","SECT":" ","MAREA":" ","LANE":"３５巷","ALLEY":" ","HOUSE_NO":"５號","E_COORD97":172059.69,"N_COORD97":2545182.1499999999,"ADDRESS":"中興街３５巷５號","OBJECTID":251594},"geometry":{"x":172059.69000000041,"y":2545182.1500000004}},{"attributes":{"ID":251599,"DIS_CODE":0,"TOWNNAME":"永康區","LI":"大橋里","LIN":"11鄰","STREET":"大橋三街","SECT":" ","MAREA":" ","LANE":"２６６巷","ALLEY":" ","HOUSE_NO":"１０３號","E_COORD97":170943.67000000001,"N_COORD97":2546724.25,"ADDRESS":"大橋三街２６６巷１０３號","OBJECTID":251595},"geometry":{"x":170943.67000000086,"y":2546724.25}},{"attributes":{"ID":251600,"DIS_CODE":0,"TOWNNAME":"永康區","LI":"中興里","LIN":"11鄰","STREET":"中興街","SECT":" ","MAREA":" ","LANE":"３５巷","ALLEY":" ","HOUSE_NO":"４７號","E_COORD97":171971.48999999999,"N_COORD97":2545162.6000000001,"ADDRESS":"中興街３５巷４７號","OBJECTID":251596},"geometry":{"x":171971.49000000022,"y":2545162.6000000034}},{"attributes":{"ID":251601,"DIS_CODE":0,"TOWNNAME":"永康區","LI":"大灣里","LIN":"11鄰","STREET":"大灣路","SECT":" ","MAREA":" ","LANE":"２４０巷","ALLEY":" ","HOUSE_NO":"９號","E_COORD97":174935.98000000001,"N_COORD97":2545348.04,"ADDRESS":"大灣路２４０巷９號","OBJECTID":251597},"geometry":{"x":174935.98000000138,"y":2545348.0399999991}},{"attributes":{"ID":251602,"DIS_CODE":0,"TOWNNAME":"永康區","LI":"三民里","LIN":"11鄰","STREET":"和平路","SECT":" ","MAREA":" ","LANE":"２４６巷","ALLEY":" ","HOUSE_NO":"５號","E_COORD97":174778.76000000001,"N_COORD97":2550784.75,"ADDRESS":"和平路２４６巷５號","OBJECTID":251598},"geometry":{"x":174778.76000000071,"y":2550784.75}},{"attributes":{"ID":251603,"DIS_CODE":0,"TOWNNAME":"永康區","LI":"大橋里","LIN":"11鄰","STREET":"大橋一街","SECT":" ","MAREA":" ","LANE":"１０３巷","ALLEY":" ","HOUSE_NO":"１２６號","E_COORD97":170869.23000000001,"N_COORD97":2546669.2400000002,"ADDRESS":"大橋一街１０３巷１２６號","OBJECTID":251599},"geometry":{"x":170869.23000000138,"y":2546669.2400000002}},{"attributes":{"ID":251604,"DIS_CODE":0,"TOWNNAME":"永康區","LI":"三合里","LIN":"11鄰","STREET":"南工街","SECT":" ","MAREA":" ","LANE":"２４７巷","ALLEY":" ","HOUSE_NO":"７０號","E_COORD97":171950.79000000001,"N_COORD97":2545745.9900000002,"ADDRESS":"南工街２４７巷７０號","OBJECTID":251600},"geometry":{"x":171950.79000000004,"y":2545745.9900000002}}]}