{"displayFieldName":"TOWNNAME","fieldAliases":{"ID":"ID","DIS_CODE":"DIS_CODE","TOWNNAME":"TOWNNAME","LI":"LI","LIN":"LIN","STREET":"STREET","SECT":"SECT","MAREA":"MAREA","LANE":"LANE","ALLEY":"ALLEY","HOUSE_NO":"HOUSE_NO","E_COORD97":"E_COORD97","N_COORD97":"N_COORD97","ADDRESS":"ADDRESS","OBJECTID":"OBJECTID"},"geometryType":"esriGeometryPoint","spatialReference":{"wkid":102443,"latestWkid":3826},"fields":[{"name":"ID","type":"esriFieldTypeDouble","alias":"ID"},{"name":"DIS_CODE","type":"esriFieldTypeInteger","alias":"DIS_CODE"},{"name":"TOWNNAME","type":"esriFieldTypeString","alias":"TOWNNAME","length":8},{"name":"LI","type":"esriFieldTypeString","alias":"LI","length":8},{"name":"LIN","type":"esriFieldTypeString","alias":"LIN","length":12},{"name":"STREET","type":"esriFieldTypeString","alias":"STREET","length":20},{"name":"SECT","type":"esriFieldTypeString","alias":"SECT","length":8},{"name":"MAREA","type":"esriFieldTypeString","alias":"MAREA","length":12},{"name":"LANE","type":"esriFieldTypeString","alias":"LANE","length":10},{"name":"ALLEY","type":"esriFieldTypeString","alias":"ALLEY","length":10},{"name":"HOUSE_NO","type":"esriFieldTypeString","alias":"HOUSE_NO","length":20},{"name":"E_COORD97","type":"esriFieldTypeDouble","alias":"E_COORD97"},{"name":"N_COORD97","type":"esriFieldTypeDouble","alias":"N_COORD97"},{"name":"ADDRESS","type":"esriFieldTypeString","alias":"ADDRESS","length":50},{"name":"OBJECTID","type":"esriFieldTypeOID","alias":"OBJECTID"}],"features":[{"attributes":{"ID":120801,"DIS_CODE":0,"TOWNNAME":"麻豆區","LI":"大埕里","LIN":"10鄰","STREET":" ","SECT":" ","MAREA":"\u25A0祖\u25A0","LANE":" ","ALLEY":" ","HOUSE_NO":"１２號之７","E_COORD97":172967.04000000001,"N_COORD97":2565211.2999999998,"ADDRESS":"\u25A0祖\u25A0１２號之７","OBJECTID":120801},"geometry":{"x":172967.04000000097,"y":2565211.3000000007}},{"attributes":{"ID":120802,"DIS_CODE":0,"TOWNNAME":"麻豆區","LI":"大埕里","LIN":"10鄰","STREET":" ","SECT":" ","MAREA":"\u25A0祖\u25A0","LANE":" ","ALLEY":" ","HOUSE_NO":"１２號之８","E_COORD97":172962.73999999999,"N_COORD97":2565212.23,"ADDRESS":"\u25A0祖\u25A0１２號之８","OBJECTID":120802},"geometry":{"x":172962.74000000022,"y":2565212.2300000004}},{"attributes":{"ID":120803,"DIS_CODE":0,"TOWNNAME":"麻豆區","LI":"大埕里","LIN":"10鄰","STREET":" ","SECT":" ","MAREA":"\u25A0祖\u25A0","LANE":" ","ALLEY":" ","HOUSE_NO":"１４號之２","E_COORD97":172929.22,"N_COORD97":2565223.5899999999,"ADDRESS":"\u25A0祖\u25A0１４號之２","OBJECTID":120803},"geometry":{"x":172929.2200000016,"y":2565223.5900000036}},{"attributes":{"ID":120804,"DIS_CODE":0,"TOWNNAME":"麻豆區","LI":"大埕里","LIN":"10鄰","STREET":" ","SECT":" ","MAREA":"\u25A0祖\u25A0","LANE":" ","ALLEY":" ","HOUSE_NO":"１４號之３","E_COORD97":172924.98000000001,"N_COORD97":2565225.7799999998,"ADDRESS":"\u25A0祖\u25A0１４號之３","OBJECTID":120804},"geometry":{"x":172924.98000000138,"y":2565225.7800000012}},{"attributes":{"ID":120805,"DIS_CODE":0,"TOWNNAME":"麻豆區","LI":"大埕里","LIN":"10鄰","STREET":" ","SECT":" ","MAREA":"\u25A0祖\u25A0","LANE":" ","ALLEY":" ","HOUSE_NO":"１４號之４","E_COORD97":172921.06,"N_COORD97":2565227.6099999999,"ADDRESS":"\u25A0祖\u25A0１４號之４","OBJECTID":120805},"geometry":{"x":172921.05999999959,"y":2565227.6100000013}},{"attributes":{"ID":120806,"DIS_CODE":0,"TOWNNAME":"麻豆區","LI":"大埕里","LIN":"10鄰","STREET":" ","SECT":" ","MAREA":"\u25A0祖\u25A0","LANE":" ","ALLEY":" ","HOUSE_NO":"１４號之５","E_COORD97":172917.25,"N_COORD97":2565229.52,"ADDRESS":"\u25A0祖\u25A0１４號之５","OBJECTID":120806},"geometry":{"x":172917.25,"y":2565229.5199999996}},{"attributes":{"ID":120807,"DIS_CODE":0,"TOWNNAME":"麻豆區","LI":"大埕里","LIN":"10鄰","STREET":" ","SECT":" ","MAREA":"\u25A0祖\u25A0","LANE":" ","ALLEY":" ","HOUSE_NO":"１４號之６","E_COORD97":172913.5,"N_COORD97":2565231.1800000002,"ADDRESS":"\u25A0祖\u25A0１４號之６","OBJECTID":120807},"geometry":{"x":172913.5,"y":2565231.1800000016}},{"attributes":{"ID":120808,"DIS_CODE":0,"TOWNNAME":"麻豆區","LI":"大埕里","LIN":"10鄰","STREET":" ","SECT":" ","MAREA":"\u25A0祖\u25A0","LANE":" ","ALLEY":" ","HOUSE_NO":"１４號之７","E_COORD97":172909.69,"N_COORD97":2565232.8199999998,"ADDRESS":"\u25A0祖\u25A0１４號之７","OBJECTID":120808},"geometry":{"x":172909.68999999948,"y":2565232.820000004}},{"attributes":{"ID":120809,"DIS_CODE":0,"TOWNNAME":"麻豆區","LI":"大埕里","LIN":"10鄰","STREET":" ","SECT":" ","MAREA":"\u25A0祖\u25A0","LANE":" ","ALLEY":" ","HOUSE_NO":"１４號之８","E_COORD97":172906.01000000001,"N_COORD97":2565234.7599999998,"ADDRESS":"\u25A0祖\u25A0１４號之８","OBJECTID":120809},"geometry":{"x":172906.01000000071,"y":2565234.7599999998}},{"attributes":{"ID":120810,"DIS_CODE":0,"TOWNNAME":"麻豆區","LI":"大埕里","LIN":"10鄰","STREET":" ","SECT":" ","MAREA":"\u25A0祖\u25A0","LANE":" ","ALLEY":" ","HOUSE_NO":"１４號之９","E_COORD97":172902.29999999999,"N_COORD97":2565236.3199999998,"ADDRESS":"\u25A0祖\u25A0１４號之９","OBJECTID":120810},"geometry":{"x":172902.30000000075,"y":2565236.3200000022}},{"attributes":{"ID":120811,"DIS_CODE":0,"TOWNNAME":"麻豆區","LI":"大埕里","LIN":"10鄰","STREET":" ","SECT":" ","MAREA":"\u25A0祖\u25A0","LANE":" ","ALLEY":" ","HOUSE_NO":"１５號之１０","E_COORD97":172940.75,"N_COORD97":2565248.6600000001,"ADDRESS":"\u25A0祖\u25A0１５號之１０","OBJECTID":120811},"geometry":{"x":172940.75,"y":2565248.660000002}},{"attributes":{"ID":120812,"DIS_CODE":0,"TOWNNAME":"麻豆區","LI":"大埕里","LIN":"10鄰","STREET":" ","SECT":" ","MAREA":"\u25A0祖\u25A0","LANE":" ","ALLEY":" ","HOUSE_NO":"１５號之１１","E_COORD97":172939.35000000001,"N_COORD97":2565265.1000000001,"ADDRESS":"\u25A0祖\u25A0１５號之１１","OBJECTID":120812},"geometry":{"x":172939.34999999963,"y":2565265.1000000015}},{"attributes":{"ID":120813,"DIS_CODE":0,"TOWNNAME":"麻豆區","LI":"大埕里","LIN":"10鄰","STREET":" ","SECT":" ","MAREA":"\u25A0祖\u25A0","LANE":" ","ALLEY":" ","HOUSE_NO":"１５號之１２","E_COORD97":172943.62,"N_COORD97":2565266,"ADDRESS":"\u25A0祖\u25A0１５號之１２","OBJECTID":120813},"geometry":{"x":172943.62000000011,"y":2565266.0000000019}},{"attributes":{"ID":120814,"DIS_CODE":0,"TOWNNAME":"麻豆區","LI":"大埕里","LIN":"10鄰","STREET":" ","SECT":" ","MAREA":"\u25A0祖\u25A0","LANE":" ","ALLEY":" ","HOUSE_NO":"１５號之１３","E_COORD97":172947.44,"N_COORD97":2565267.1299999999,"ADDRESS":"\u25A0祖\u25A0１５號之１３","OBJECTID":120814},"geometry":{"x":172947.44000000134,"y":2565267.1300000008}},{"attributes":{"ID":120815,"DIS_CODE":0,"TOWNNAME":"麻豆區","LI":"大埕里","LIN":"10鄰","STREET":" ","SECT":" ","MAREA":"\u25A0祖\u25A0","LANE":" ","ALLEY":" ","HOUSE_NO":"１５號之１４","E_COORD97":172951.04000000001,"N_COORD97":2565267.9700000002,"ADDRESS":"\u25A0祖\u25A0１５號之１４","OBJECTID":120815},"geometry":{"x":172951.03999999911,"y":2565267.9700000007}},{"attributes":{"ID":120816,"DIS_CODE":0,"TOWNNAME":"麻豆區","LI":"大埕里","LIN":"10鄰","STREET":" ","SECT":" ","MAREA":"\u25A0祖\u25A0","LANE":" ","ALLEY":" ","HOUSE_NO":"１５號之１５","E_COORD97":172954.95999999999,"N_COORD97":2565268.7400000002,"ADDRESS":"\u25A0祖\u25A0１５號之１５","OBJECTID":120816},"geometry":{"x":172954.96000000183,"y":2565268.7400000002}},{"attributes":{"ID":120817,"DIS_CODE":0,"TOWNNAME":"麻豆區","LI":"大埕里","LIN":"10鄰","STREET":" ","SECT":" ","MAREA":"\u25A0祖\u25A0","LANE":" ","ALLEY":" ","HOUSE_NO":"１５號之１６","E_COORD97":172958.85000000001,"N_COORD97":2565269.6499999999,"ADDRESS":"\u25A0祖\u25A0１５號之１６","OBJECTID":120817},"geometry":{"x":172958.85000000149,"y":2565269.6500000004}},{"attributes":{"ID":120818,"DIS_CODE":0,"TOWNNAME":"麻豆區","LI":"大埕里","LIN":"10鄰","STREET":" ","SECT":" ","MAREA":"\u25A0祖\u25A0","LANE":" ","ALLEY":" ","HOUSE_NO":"１５號之１７","E_COORD97":172962.73999999999,"N_COORD97":2565270.5600000001,"ADDRESS":"\u25A0祖\u25A0１５號之１７","OBJECTID":120818},"geometry":{"x":172962.74000000022,"y":2565270.5600000005}},{"attributes":{"ID":120819,"DIS_CODE":0,"TOWNNAME":"麻豆區","LI":"大埕里","LIN":"10鄰","STREET":" ","SECT":" ","MAREA":"\u25A0祖\u25A0","LANE":" ","ALLEY":" ","HOUSE_NO":"１５號之１８","E_COORD97":172966.63,"N_COORD97":2565271.4700000002,"ADDRESS":"\u25A0祖\u25A0１５號之１８","OBJECTID":120819},"geometry":{"x":172966.62999999989,"y":2565271.4700000007}},{"attributes":{"ID":120820,"DIS_CODE":0,"TOWNNAME":"麻豆區","LI":"大埕里","LIN":"10鄰","STREET":" ","SECT":" ","MAREA":"\u25A0祖\u25A0","LANE":" ","ALLEY":" ","HOUSE_NO":"１５號之８","E_COORD97":172943.56,"N_COORD97":2565237.2799999998,"ADDRESS":"\u25A0祖\u25A0１５號之８","OBJECTID":120820},"geometry":{"x":172943.55999999959,"y":2565237.2799999993}},{"attributes":{"ID":120821,"DIS_CODE":0,"TOWNNAME":"麻豆區","LI":"大埕里","LIN":"10鄰","STREET":" ","SECT":" ","MAREA":"\u25A0祖\u25A0","LANE":" ","ALLEY":" ","HOUSE_NO":"１８號之１","E_COORD97":172853.87,"N_COORD97":2565286.6000000001,"ADDRESS":"\u25A0祖\u25A0１８號之１","OBJECTID":120821},"geometry":{"x":172853.87000000011,"y":2565286.5999999996}},{"attributes":{"ID":120822,"DIS_CODE":0,"TOWNNAME":"麻豆區","LI":"大埕里","LIN":"10鄰","STREET":" ","SECT":" ","MAREA":"\u25A0祖\u25A0","LANE":" ","ALLEY":" ","HOUSE_NO":"１８號之２","E_COORD97":172852.31,"N_COORD97":2565291.4300000002,"ADDRESS":"\u25A0祖\u25A0１８號之２","OBJECTID":120822},"geometry":{"x":172852.31000000145,"y":2565291.4299999997}},{"attributes":{"ID":120823,"DIS_CODE":0,"TOWNNAME":"安南區","LI":"\u25A0南里","LIN":"16鄰","STREET":"安昌街","SECT":" ","MAREA":" ","LANE":"１０６巷","ALLEY":"１８弄","HOUSE_NO":"４號","E_COORD97":169994.07000000001,"N_COORD97":2552102.02,"ADDRESS":"安昌街１０６巷１８弄４號","OBJECTID":120823},"geometry":{"x":169994.0700000003,"y":2552102.0199999996}},{"attributes":{"ID":120824,"DIS_CODE":0,"TOWNNAME":"安南區","LI":"\u25A0南里","LIN":"16鄰","STREET":"安昌街","SECT":" ","MAREA":" ","LANE":"１０６巷","ALLEY":"１８弄","HOUSE_NO":"６號","E_COORD97":169989.07999999999,"N_COORD97":2552101.8599999999,"ADDRESS":"安昌街１０６巷１８弄６號","OBJECTID":120824},"geometry":{"x":169989.08000000007,"y":2552101.8600000013}},{"attributes":{"ID":120825,"DIS_CODE":0,"TOWNNAME":"安南區","LI":"\u25A0南里","LIN":"16鄰","STREET":"安昌街","SECT":" ","MAREA":" ","LANE":"１０６巷","ALLEY":"１８弄","HOUSE_NO":"８號","E_COORD97":169983.62,"N_COORD97":2552102.1800000002,"ADDRESS":"安昌街１０６巷１８弄８號","OBJECTID":120825},"geometry":{"x":169983.62000000011,"y":2552102.1800000034}},{"attributes":{"ID":120826,"DIS_CODE":0,"TOWNNAME":"安南區","LI":"\u25A0南里","LIN":"16鄰","STREET":"安昌街","SECT":" ","MAREA":" ","LANE":"１０６巷","ALLEY":"１９弄","HOUSE_NO":"１號","E_COORD97":170016.89999999999,"N_COORD97":2552102.1800000002,"ADDRESS":"安昌街１０６巷１９弄１號","OBJECTID":120826},"geometry":{"x":170016.9000000013,"y":2552102.1800000034}},{"attributes":{"ID":120827,"DIS_CODE":0,"TOWNNAME":"安南區","LI":"\u25A0南里","LIN":"16鄰","STREET":"安昌街","SECT":" ","MAREA":" ","LANE":"１０６巷","ALLEY":"１９弄","HOUSE_NO":"３號","E_COORD97":170022.04999999999,"N_COORD97":2552102.6600000001,"ADDRESS":"安昌街１０６巷１９弄３號","OBJECTID":120827},"geometry":{"x":170022.05000000075,"y":2552102.6600000039}},{"attributes":{"ID":120828,"DIS_CODE":0,"TOWNNAME":"安南區","LI":"\u25A0南里","LIN":"16鄰","STREET":"安昌街","SECT":" ","MAREA":" ","LANE":"１０６巷","ALLEY":"１９弄","HOUSE_NO":"５號","E_COORD97":170026.70999999999,"N_COORD97":2552103.1400000001,"ADDRESS":"安昌街１０６巷１９弄５號","OBJECTID":120828},"geometry":{"x":170026.70999999996,"y":2552103.1400000043}},{"attributes":{"ID":120829,"DIS_CODE":0,"TOWNNAME":"安南區","LI":"\u25A0南里","LIN":"16鄰","STREET":"安昌街","SECT":" ","MAREA":" ","LANE":"１０６巷","ALLEY":"１９弄","HOUSE_NO":"７號","E_COORD97":170032.34,"N_COORD97":2552102.6600000001,"ADDRESS":"安昌街１０６巷１９弄７號","OBJECTID":120829},"geometry":{"x":170032.33999999985,"y":2552102.6600000039}},{"attributes":{"ID":120830,"DIS_CODE":0,"TOWNNAME":"安南區","LI":"\u25A0南里","LIN":"16鄰","STREET":"安昌街","SECT":" ","MAREA":" ","LANE":"１０６巷","ALLEY":"１９弄","HOUSE_NO":"９號","E_COORD97":170036.84,"N_COORD97":2552102.8199999998,"ADDRESS":"安昌街１０６巷１９弄９號","OBJECTID":120830},"geometry":{"x":170036.84000000078,"y":2552102.8200000022}},{"attributes":{"ID":120831,"DIS_CODE":0,"TOWNNAME":"南區","LI":"郡南里","LIN":"16鄰","STREET":"德興路","SECT":" ","MAREA":" ","LANE":"１３９巷","ALLEY":"４４弄","HOUSE_NO":"１號","E_COORD97":167390.81,"N_COORD97":2540457.9700000002,"ADDRESS":"德興路１３９巷４４弄１號","OBJECTID":120831},"geometry":{"x":167390.81000000052,"y":2540457.9700000007}},{"attributes":{"ID":120832,"DIS_CODE":0,"TOWNNAME":"南區","LI":"郡南里","LIN":"16鄰","STREET":"德興路","SECT":" ","MAREA":" ","LANE":"１３９巷","ALLEY":"４４弄","HOUSE_NO":"３號","E_COORD97":167390.44,"N_COORD97":2540455.0800000001,"ADDRESS":"德興路１３９巷４４弄３號","OBJECTID":120832},"geometry":{"x":167390.44000000134,"y":2540455.0800000019}},{"attributes":{"ID":120833,"DIS_CODE":0,"TOWNNAME":"南區","LI":"郡南里","LIN":"16鄰","STREET":"德興路","SECT":" ","MAREA":" ","LANE":"１３９巷","ALLEY":"４４弄","HOUSE_NO":"５號","E_COORD97":167389.26000000001,"N_COORD97":2540453.0699999998,"ADDRESS":"德興路１３９巷４４弄５號","OBJECTID":120833},"geometry":{"x":167389.26000000164,"y":2540453.0700000003}},{"attributes":{"ID":120834,"DIS_CODE":0,"TOWNNAME":"南區","LI":"郡南里","LIN":"16鄰","STREET":"德興路","SECT":" ","MAREA":" ","LANE":"１３９巷","ALLEY":"４４弄","HOUSE_NO":"７號","E_COORD97":167389.67000000001,"N_COORD97":2540450.5800000001,"ADDRESS":"德興路１３９巷４４弄７號","OBJECTID":120834},"geometry":{"x":167389.66999999993,"y":2540450.5800000038}},{"attributes":{"ID":120835,"DIS_CODE":0,"TOWNNAME":"南區","LI":"郡南里","LIN":"16鄰","STREET":"德興路","SECT":" ","MAREA":" ","LANE":"１３９巷","ALLEY":"４４弄","HOUSE_NO":"９號","E_COORD97":167388.54000000001,"N_COORD97":2540446.3199999998,"ADDRESS":"德興路１３９巷４４弄９號","OBJECTID":120835},"geometry":{"x":167388.54000000004,"y":2540446.3200000022}},{"attributes":{"ID":120836,"DIS_CODE":0,"TOWNNAME":"新市區","LI":"新和里","LIN":"31鄰","STREET":"光華街","SECT":" ","MAREA":" ","LANE":"２３４巷","ALLEY":" ","HOUSE_NO":"１８號","E_COORD97":177896.62,"N_COORD97":2553056.25,"ADDRESS":"光華街２３４巷１８號","OBJECTID":120836},"geometry":{"x":177896.62000000011,"y":2553056.25}},{"attributes":{"ID":120837,"DIS_CODE":0,"TOWNNAME":"北區","LI":"玉皇里","LIN":"15鄰","STREET":"佑民街","SECT":" ","MAREA":" ","LANE":" ","ALLEY":" ","HOUSE_NO":"８號之２","E_COORD97":168581.16,"N_COORD97":2544369.6699999999,"ADDRESS":"佑民街８號之２","OBJECTID":120837},"geometry":{"x":168581.16000000015,"y":2544369.6700000018}},{"attributes":{"ID":120838,"DIS_CODE":0,"TOWNNAME":"北區","LI":"玉皇里","LIN":"15鄰","STREET":"佑民街","SECT":" ","MAREA":" ","LANE":" ","ALLEY":" ","HOUSE_NO":"８號之３","E_COORD97":168583.39999999999,"N_COORD97":2544373.3100000001,"ADDRESS":"佑民街８號之３","OBJECTID":120838},"geometry":{"x":168583.40000000037,"y":2544373.3100000024}},{"attributes":{"ID":120839,"DIS_CODE":0,"TOWNNAME":"南區","LI":"郡南里","LIN":"16鄰","STREET":"德興路","SECT":" ","MAREA":" ","LANE":"１３９巷","ALLEY":"４４弄","HOUSE_NO":"１１號","E_COORD97":167389.10000000001,"N_COORD97":2540441.4900000002,"ADDRESS":"德興路１３９巷４４弄１１號","OBJECTID":120839},"geometry":{"x":167389.10000000056,"y":2540441.4900000021}},{"attributes":{"ID":120840,"DIS_CODE":0,"TOWNNAME":"官田區","LI":"渡頭里","LIN":"31鄰","STREET":" ","SECT":" ","MAREA":"三塊厝","LANE":" ","ALLEY":" ","HOUSE_NO":"２２２號","E_COORD97":183406.63,"N_COORD97":2561348.71,"ADDRESS":"三塊厝２２２號","OBJECTID":120840},"geometry":{"x":183406.63000000082,"y":2561348.7100000046}},{"attributes":{"ID":120841,"DIS_CODE":0,"TOWNNAME":"南區","LI":"郡南里","LIN":"16鄰","STREET":"德興路","SECT":" ","MAREA":" ","LANE":"１３９巷","ALLEY":"４４弄","HOUSE_NO":"１３號","E_COORD97":167388.82000000001,"N_COORD97":2540437.23,"ADDRESS":"德興路１３９巷４４弄１３號","OBJECTID":120841},"geometry":{"x":167388.8200000003,"y":2540437.2300000023}},{"attributes":{"ID":120842,"DIS_CODE":0,"TOWNNAME":"南區","LI":"郡南里","LIN":"16鄰","STREET":"德興路","SECT":" ","MAREA":" ","LANE":"１３９巷","ALLEY":"４４弄","HOUSE_NO":"１５號","E_COORD97":167387.67999999999,"N_COORD97":2540429.7400000002,"ADDRESS":"德興路１３９巷４４弄１５號","OBJECTID":120842},"geometry":{"x":167387.6799999997,"y":2540429.7400000021}},{"attributes":{"ID":120843,"DIS_CODE":0,"TOWNNAME":"官田區","LI":"渡頭里","LIN":"31鄰","STREET":" ","SECT":" ","MAREA":"三塊厝","LANE":" ","ALLEY":" ","HOUSE_NO":"２４０號之７","E_COORD97":183401.82000000001,"N_COORD97":2561259.23,"ADDRESS":"三塊厝２４０號之７","OBJECTID":120843},"geometry":{"x":183401.8200000003,"y":2561259.2300000004}},{"attributes":{"ID":120844,"DIS_CODE":0,"TOWNNAME":"官田區","LI":"渡頭里","LIN":"31鄰","STREET":" ","SECT":" ","MAREA":"三塊厝","LANE":" ","ALLEY":" ","HOUSE_NO":"２４０號之８","E_COORD97":183406.04000000001,"N_COORD97":2561275.9500000002,"ADDRESS":"三塊厝２４０號之８","OBJECTID":120844},"geometry":{"x":183406.04000000097,"y":2561275.9499999993}},{"attributes":{"ID":120845,"DIS_CODE":0,"TOWNNAME":"官田區","LI":"渡頭里","LIN":"31鄰","STREET":" ","SECT":" ","MAREA":"三塊厝","LANE":" ","ALLEY":" ","HOUSE_NO":"２４０號之９","E_COORD97":183400.57000000001,"N_COORD97":2561273.6200000001,"ADDRESS":"三塊厝２４０號之９","OBJECTID":120845},"geometry":{"x":183400.57000000123,"y":2561273.620000001}},{"attributes":{"ID":120846,"DIS_CODE":0,"TOWNNAME":"官田區","LI":"渡頭里","LIN":"31鄰","STREET":" ","SECT":" ","MAREA":"三塊厝","LANE":" ","ALLEY":" ","HOUSE_NO":"２４０號","E_COORD97":183410.29999999999,"N_COORD97":2561210.5699999998,"ADDRESS":"三塊厝２４０號","OBJECTID":120846},"geometry":{"x":183410.30000000075,"y":2561210.5700000022}},{"attributes":{"ID":120847,"DIS_CODE":0,"TOWNNAME":"麻豆區","LI":"大埕里","LIN":"10鄰","STREET":" ","SECT":" ","MAREA":"\u25A0祖\u25A0","LANE":" ","ALLEY":" ","HOUSE_NO":"１８號之７","E_COORD97":172902.85000000001,"N_COORD97":2565292.79,"ADDRESS":"\u25A0祖\u25A0１８號之７","OBJECTID":120847},"geometry":{"x":172902.85000000149,"y":2565292.7900000028}},{"attributes":{"ID":120848,"DIS_CODE":0,"TOWNNAME":"麻豆區","LI":"大埕里","LIN":"10鄰","STREET":" ","SECT":" ","MAREA":"\u25A0祖\u25A0","LANE":" ","ALLEY":" ","HOUSE_NO":"１８號之９","E_COORD97":172926.35000000001,"N_COORD97":2565292.8399999999,"ADDRESS":"\u25A0祖\u25A0１８號之９","OBJECTID":120848},"geometry":{"x":172926.34999999963,"y":2565292.839999998}},{"attributes":{"ID":120849,"DIS_CODE":0,"TOWNNAME":"南區","LI":"郡南里","LIN":"16鄰","STREET":"德興路","SECT":" ","MAREA":" ","LANE":"１３９巷","ALLEY":"４４弄","HOUSE_NO":"１７號","E_COORD97":167386.26000000001,"N_COORD97":2540423.77,"ADDRESS":"德興路１３９巷４４弄１７號","OBJECTID":120849},"geometry":{"x":167386.26000000071,"y":2540423.7699999996}},{"attributes":{"ID":120850,"DIS_CODE":0,"TOWNNAME":"麻豆區","LI":"大埕里","LIN":"10鄰","STREET":" ","SECT":" ","MAREA":"\u25A0祖\u25A0","LANE":" ","ALLEY":" ","HOUSE_NO":"１８號","E_COORD97":172875.12,"N_COORD97":2565273.8300000001,"ADDRESS":"\u25A0祖\u25A0１８號","OBJECTID":120850},"geometry":{"x":172875.12000000104,"y":2565273.8300000019}},{"attributes":{"ID":120851,"DIS_CODE":0,"TOWNNAME":"南區","LI":"郡南里","LIN":"16鄰","STREET":"德興路","SECT":" ","MAREA":" ","LANE":"１３９巷","ALLEY":"４６弄","HOUSE_NO":"１號","E_COORD97":167432.62,"N_COORD97":2540458.25,"ADDRESS":"德興路１３９巷４６弄１號","OBJECTID":120851},"geometry":{"x":167432.62000000011,"y":2540458.25}},{"attributes":{"ID":120852,"DIS_CODE":0,"TOWNNAME":"南區","LI":"郡南里","LIN":"16鄰","STREET":"德興路","SECT":" ","MAREA":" ","LANE":"１３９巷","ALLEY":"４６弄","HOUSE_NO":"２號","E_COORD97":167407.88,"N_COORD97":2540458.54,"ADDRESS":"德興路１３９巷４６弄２號","OBJECTID":120852},"geometry":{"x":167407.88000000082,"y":2540458.5399999991}},{"attributes":{"ID":120853,"DIS_CODE":0,"TOWNNAME":"南區","LI":"郡南里","LIN":"16鄰","STREET":"德興路","SECT":" ","MAREA":" ","LANE":"１３９巷","ALLEY":"４６弄","HOUSE_NO":"３號","E_COORD97":167432.34,"N_COORD97":2540455.1299999999,"ADDRESS":"德興路１３９巷４６弄３號","OBJECTID":120853},"geometry":{"x":167432.33999999985,"y":2540455.129999999}},{"attributes":{"ID":120854,"DIS_CODE":0,"TOWNNAME":"麻豆區","LI":"大埕里","LIN":"10鄰","STREET":" ","SECT":" ","MAREA":"\u25A0祖\u25A0","LANE":" ","ALLEY":" ","HOUSE_NO":"１９號之１０","E_COORD97":172875.60999999999,"N_COORD97":2565359.6899999999,"ADDRESS":"\u25A0祖\u25A0１９號之１０","OBJECTID":120854},"geometry":{"x":172875.61000000034,"y":2565359.6900000013}},{"attributes":{"ID":120855,"DIS_CODE":0,"TOWNNAME":"麻豆區","LI":"大埕里","LIN":"10鄰","STREET":" ","SECT":" ","MAREA":"\u25A0祖\u25A0","LANE":" ","ALLEY":" ","HOUSE_NO":"１９號之１１","E_COORD97":172879.67000000001,"N_COORD97":2565361.4399999999,"ADDRESS":"\u25A0祖\u25A0１９號之１１","OBJECTID":120855},"geometry":{"x":172879.67000000086,"y":2565361.4400000013}},{"attributes":{"ID":120856,"DIS_CODE":0,"TOWNNAME":"麻豆區","LI":"大埕里","LIN":"10鄰","STREET":" ","SECT":" ","MAREA":"\u25A0祖\u25A0","LANE":" ","ALLEY":" ","HOUSE_NO":"１９號之１２","E_COORD97":172884.53,"N_COORD97":2565363.04,"ADDRESS":"\u25A0祖\u25A0１９號之１２","OBJECTID":120856},"geometry":{"x":172884.53000000026,"y":2565363.040000001}},{"attributes":{"ID":120857,"DIS_CODE":0,"TOWNNAME":"麻豆區","LI":"大埕里","LIN":"10鄰","STREET":" ","SECT":" ","MAREA":"\u25A0祖\u25A0","LANE":" ","ALLEY":" ","HOUSE_NO":"１９號之１３","E_COORD97":172889.20999999999,"N_COORD97":2565364.4500000002,"ADDRESS":"\u25A0祖\u25A0１９號之１３","OBJECTID":120857},"geometry":{"x":172889.21000000089,"y":2565364.4500000011}},{"attributes":{"ID":120858,"DIS_CODE":0,"TOWNNAME":"麻豆區","LI":"大埕里","LIN":"10鄰","STREET":" ","SECT":" ","MAREA":"\u25A0祖\u25A0","LANE":" ","ALLEY":" ","HOUSE_NO":"１９號之１５","E_COORD97":172893.39000000001,"N_COORD97":2565365.8999999999,"ADDRESS":"\u25A0祖\u25A0１９號之１５","OBJECTID":120858},"geometry":{"x":172893.38999999966,"y":2565365.9000000022}},{"attributes":{"ID":120859,"DIS_CODE":0,"TOWNNAME":"麻豆區","LI":"大埕里","LIN":"10鄰","STREET":" ","SECT":" ","MAREA":"\u25A0祖\u25A0","LANE":" ","ALLEY":" ","HOUSE_NO":"１９號之１６","E_COORD97":172897.01000000001,"N_COORD97":2565367.3799999999,"ADDRESS":"\u25A0祖\u25A0１９號之１６","OBJECTID":120859},"geometry":{"x":172897.01000000071,"y":2565367.3800000008}},{"attributes":{"ID":120860,"DIS_CODE":0,"TOWNNAME":"麻豆區","LI":"大埕里","LIN":"10鄰","STREET":" ","SECT":" ","MAREA":"\u25A0祖\u25A0","LANE":" ","ALLEY":" ","HOUSE_NO":"１９號之２１","E_COORD97":172923.60000000001,"N_COORD97":2565345.5099999998,"ADDRESS":"\u25A0祖\u25A0１９號之２１","OBJECTID":120860},"geometry":{"x":172923.60000000056,"y":2565345.5099999998}},{"attributes":{"ID":120861,"DIS_CODE":0,"TOWNNAME":"永康區","LI":"東灣里","LIN":"31鄰","STREET":"大灣二街","SECT":" ","MAREA":" ","LANE":" ","ALLEY":" ","HOUSE_NO":"２９號","E_COORD97":174922.23000000001,"N_COORD97":2544709.0099999998,"ADDRESS":"大灣二街２９號","OBJECTID":120861},"geometry":{"x":174922.23000000138,"y":2544709.0100000035}},{"attributes":{"ID":120862,"DIS_CODE":0,"TOWNNAME":"永康區","LI":"尚頂里","LIN":"31鄰","STREET":"中正南路","SECT":" ","MAREA":" ","LANE":" ","ALLEY":" ","HOUSE_NO":"２５１號","E_COORD97":170096.45999999999,"N_COORD97":2547363.5,"ADDRESS":"中正南路２５１號","OBJECTID":120862},"geometry":{"x":170096.45999999996,"y":2547363.4999999981}},{"attributes":{"ID":120863,"DIS_CODE":0,"TOWNNAME":"麻豆區","LI":"大埕里","LIN":"10鄰","STREET":" ","SECT":" ","MAREA":"\u25A0祖\u25A0","LANE":" ","ALLEY":" ","HOUSE_NO":"１９號之２２","E_COORD97":172919.35000000001,"N_COORD97":2565344.4399999999,"ADDRESS":"\u25A0祖\u25A0１９號之２２","OBJECTID":120863},"geometry":{"x":172919.34999999963,"y":2565344.4400000013}},{"attributes":{"ID":120864,"DIS_CODE":0,"TOWNNAME":"麻豆區","LI":"大埕里","LIN":"10鄰","STREET":" ","SECT":" ","MAREA":"\u25A0祖\u25A0","LANE":" ","ALLEY":" ","HOUSE_NO":"１９號之２３","E_COORD97":172915.10000000001,"N_COORD97":2565343.3599999999,"ADDRESS":"\u25A0祖\u25A0１９號之２３","OBJECTID":120864},"geometry":{"x":172915.10000000056,"y":2565343.3600000031}},{"attributes":{"ID":120865,"DIS_CODE":0,"TOWNNAME":"南區","LI":"郡南里","LIN":"16鄰","STREET":"德興路","SECT":" ","MAREA":" ","LANE":"１３９巷","ALLEY":"４６弄","HOUSE_NO":"４號","E_COORD97":167408.45000000001,"N_COORD97":2540451.7200000002,"ADDRESS":"德興路１３９巷４６弄４號","OBJECTID":120865},"geometry":{"x":167408.45000000019,"y":2540451.7200000007}},{"attributes":{"ID":120866,"DIS_CODE":0,"TOWNNAME":"永康區","LI":"尚頂里","LIN":"31鄰","STREET":"中正南路","SECT":" ","MAREA":" ","LANE":" ","ALLEY":" ","HOUSE_NO":"３２５號","E_COORD97":170310.59,"N_COORD97":2547571.6600000001,"ADDRESS":"中正南路３２５號","OBJECTID":120866},"geometry":{"x":170310.58999999985,"y":2547571.6600000001}},{"attributes":{"ID":120867,"DIS_CODE":0,"TOWNNAME":"永康區","LI":"尚頂里","LIN":"31鄰","STREET":"中正南路","SECT":" ","MAREA":" ","LANE":" ","ALLEY":" ","HOUSE_NO":"３１９號","E_COORD97":170274.67000000001,"N_COORD97":2547544.9900000002,"ADDRESS":"中正南路３１９號","OBJECTID":120867},"geometry":{"x":170274.66999999993,"y":2547544.9900000021}},{"attributes":{"ID":120868,"DIS_CODE":0,"TOWNNAME":"麻豆區","LI":"大埕里","LIN":"10鄰","STREET":" ","SECT":" ","MAREA":"\u25A0祖\u25A0","LANE":" ","ALLEY":" ","HOUSE_NO":"１９號之２５","E_COORD97":172910.85000000001,"N_COORD97":2565342.2799999998,"ADDRESS":"\u25A0祖\u25A0１９號之２５","OBJECTID":120868},"geometry":{"x":172910.84999999963,"y":2565342.2799999993}},{"attributes":{"ID":120869,"DIS_CODE":0,"TOWNNAME":"麻豆區","LI":"大埕里","LIN":"10鄰","STREET":" ","SECT":" ","MAREA":"\u25A0祖\u25A0","LANE":" ","ALLEY":" ","HOUSE_NO":"１９號之２６","E_COORD97":172906.60000000001,"N_COORD97":2565341.2000000002,"ADDRESS":"\u25A0祖\u25A0１９號之２６","OBJECTID":120869},"geometry":{"x":172906.60000000056,"y":2565341.2000000011}},{"attributes":{"ID":120870,"DIS_CODE":0,"TOWNNAME":"麻豆區","LI":"大埕里","LIN":"10鄰","STREET":" ","SECT":" ","MAREA":"\u25A0祖\u25A0","LANE":" ","ALLEY":" ","HOUSE_NO":"１９號之２７","E_COORD97":172902.35000000001,"N_COORD97":2565340.1299999999,"ADDRESS":"\u25A0祖\u25A0１９號之２７","OBJECTID":120870},"geometry":{"x":172902.34999999963,"y":2565340.129999999}},{"attributes":{"ID":120871,"DIS_CODE":0,"TOWNNAME":"南區","LI":"郡南里","LIN":"16鄰","STREET":"德興路","SECT":" ","MAREA":" ","LANE":"１３９巷","ALLEY":"４６弄","HOUSE_NO":"５號","E_COORD97":167432.34,"N_COORD97":2540450.02,"ADDRESS":"德興路１３９巷４６弄５號","OBJECTID":120871},"geometry":{"x":167432.33999999985,"y":2540450.0199999977}},{"attributes":{"ID":120872,"DIS_CODE":0,"TOWNNAME":"南區","LI":"郡南里","LIN":"16鄰","STREET":"德興路","SECT":" ","MAREA":" ","LANE":"１３９巷","ALLEY":"４７弄","HOUSE_NO":"２號","E_COORD97":167409.87,"N_COORD97":2540469.6899999999,"ADDRESS":"德興路１３９巷４７弄２號","OBJECTID":120872},"geometry":{"x":167409.87000000104,"y":2540469.6900000013}},{"attributes":{"ID":120873,"DIS_CODE":0,"TOWNNAME":"南區","LI":"郡南里","LIN":"16鄰","STREET":"德興路","SECT":" ","MAREA":" ","LANE":"１３９巷","ALLEY":"４７弄","HOUSE_NO":"３號","E_COORD97":167432.51000000001,"N_COORD97":2540472.6099999999,"ADDRESS":"德興路１３９巷４７弄３號","OBJECTID":120873},"geometry":{"x":167432.50999999978,"y":2540472.6099999994}},{"attributes":{"ID":120874,"DIS_CODE":0,"TOWNNAME":"南區","LI":"郡南里","LIN":"16鄰","STREET":"德興路","SECT":" ","MAREA":" ","LANE":"１３９巷","ALLEY":"４７弄","HOUSE_NO":"５號","E_COORD97":167432.26999999999,"N_COORD97":2540476.7400000002,"ADDRESS":"德興路１３９巷４７弄５號","OBJECTID":120874},"geometry":{"x":167432.26999999955,"y":2540476.7400000039}},{"attributes":{"ID":120875,"DIS_CODE":0,"TOWNNAME":"永康區","LI":"尚頂里","LIN":"31鄰","STREET":"中正南路","SECT":" ","MAREA":" ","LANE":" ","ALLEY":" ","HOUSE_NO":"３３９號","E_COORD97":170477.42999999999,"N_COORD97":2547734.4300000002,"ADDRESS":"中正南路３３９號","OBJECTID":120875},"geometry":{"x":170477.4299999997,"y":2547734.4300000016}},{"attributes":{"ID":120876,"DIS_CODE":0,"TOWNNAME":"南區","LI":"郡南里","LIN":"16鄰","STREET":"德興路","SECT":" ","MAREA":" ","LANE":"１３９巷","ALLEY":"４７弄","HOUSE_NO":"６號","E_COORD97":167410.60000000001,"N_COORD97":2540477.71,"ADDRESS":"德興路１３９巷４７弄６號","OBJECTID":120876},"geometry":{"x":167410.60000000056,"y":2540477.7100000028}},{"attributes":{"ID":120877,"DIS_CODE":0,"TOWNNAME":"南區","LI":"郡南里","LIN":"16鄰","STREET":"德興路","SECT":" ","MAREA":" ","LANE":"１３９巷","ALLEY":"４７弄","HOUSE_NO":"７號","E_COORD97":167432.26999999999,"N_COORD97":2540481.6000000001,"ADDRESS":"德興路１３９巷４７弄７號","OBJECTID":120877},"geometry":{"x":167432.26999999955,"y":2540481.6000000015}},{"attributes":{"ID":120878,"DIS_CODE":0,"TOWNNAME":"南區","LI":"郡南里","LIN":"16鄰","STREET":"德興路","SECT":" ","MAREA":" ","LANE":"１３９巷","ALLEY":"４７弄","HOUSE_NO":"８號","E_COORD97":167409.38,"N_COORD97":2540482.3300000001,"ADDRESS":"德興路１３９巷４７弄８號","OBJECTID":120878},"geometry":{"x":167409.38000000082,"y":2540482.3299999982}},{"attributes":{"ID":120879,"DIS_CODE":0,"TOWNNAME":"南區","LI":"郡南里","LIN":"16鄰","STREET":"德興路","SECT":" ","MAREA":" ","LANE":"１３９巷","ALLEY":"４７弄","HOUSE_NO":"９號","E_COORD97":167431.54000000001,"N_COORD97":2540485.73,"ADDRESS":"德興路１３９巷４７弄９號","OBJECTID":120879},"geometry":{"x":167431.5400000019,"y":2540485.7300000004}},{"attributes":{"ID":120880,"DIS_CODE":0,"TOWNNAME":"南區","LI":"郡南里","LIN":"16鄰","STREET":"德興路","SECT":" ","MAREA":" ","LANE":"１３９巷","ALLEY":"４７弄","HOUSE_NO":"１０號","E_COORD97":167410.10999999999,"N_COORD97":2540485.25,"ADDRESS":"德興路１３９巷４７弄１０號","OBJECTID":120880},"geometry":{"x":167410.11000000127,"y":2540485.25}},{"attributes":{"ID":120881,"DIS_CODE":0,"TOWNNAME":"南區","LI":"郡南里","LIN":"16鄰","STREET":"德興路","SECT":" ","MAREA":" ","LANE":"１３９巷","ALLEY":"４７弄","HOUSE_NO":"１１號","E_COORD97":167433.23999999999,"N_COORD97":2540490.3500000001,"ADDRESS":"德興路１３９巷４７弄１１號","OBJECTID":120881},"geometry":{"x":167433.24000000022,"y":2540490.3500000015}},{"attributes":{"ID":120882,"DIS_CODE":0,"TOWNNAME":"南區","LI":"郡南里","LIN":"16鄰","STREET":"德興路","SECT":" ","MAREA":" ","LANE":"１３９巷","ALLEY":"４７弄","HOUSE_NO":"１２號","E_COORD97":167409.38,"N_COORD97":2540490.6000000001,"ADDRESS":"德興路１３９巷４７弄１２號","OBJECTID":120882},"geometry":{"x":167409.38000000082,"y":2540490.6000000034}},{"attributes":{"ID":120883,"DIS_CODE":0,"TOWNNAME":"南區","LI":"郡南里","LIN":"16鄰","STREET":"德興路","SECT":" ","MAREA":" ","LANE":"１３９巷","ALLEY":"４７弄","HOUSE_NO":"１３號","E_COORD97":167432.01999999999,"N_COORD97":2540494,"ADDRESS":"德興路１３９巷４７弄１３號","OBJECTID":120883},"geometry":{"x":167432.02000000048,"y":2540494}},{"attributes":{"ID":120884,"DIS_CODE":0,"TOWNNAME":"南區","LI":"郡南里","LIN":"16鄰","STREET":"德興路","SECT":" ","MAREA":" ","LANE":"１３９巷","ALLEY":"４７弄","HOUSE_NO":"１４號","E_COORD97":167408.64999999999,"N_COORD97":2540495.46,"ADDRESS":"德興路１３９巷４７弄１４號","OBJECTID":120884},"geometry":{"x":167408.65000000037,"y":2540495.4600000009}},{"attributes":{"ID":120885,"DIS_CODE":0,"TOWNNAME":"南區","LI":"郡南里","LIN":"16鄰","STREET":"德興路","SECT":" ","MAREA":" ","LANE":"１３９巷","ALLEY":"４７弄","HOUSE_NO":"１５號","E_COORD97":167432.26999999999,"N_COORD97":2540499.8300000001,"ADDRESS":"德興路１３９巷４７弄１５號","OBJECTID":120885},"geometry":{"x":167432.26999999955,"y":2540499.8300000019}},{"attributes":{"ID":120886,"DIS_CODE":0,"TOWNNAME":"南區","LI":"郡南里","LIN":"16鄰","STREET":"德興路","SECT":" ","MAREA":" ","LANE":"１３９巷","ALLEY":"４７弄","HOUSE_NO":"１６號","E_COORD97":167408.41,"N_COORD97":2540499.1099999999,"ADDRESS":"德興路１３９巷４７弄１６號","OBJECTID":120886},"geometry":{"x":167408.41000000015,"y":2540499.1099999994}},{"attributes":{"ID":120887,"DIS_CODE":0,"TOWNNAME":"永康區","LI":"尚頂里","LIN":"31鄰","STREET":"中正南路","SECT":" ","MAREA":" ","LANE":" ","ALLEY":" ","HOUSE_NO":"３５９號","E_COORD97":170517.26000000001,"N_COORD97":2547776.2799999998,"ADDRESS":"中正南路３５９號","OBJECTID":120887},"geometry":{"x":170517.26000000071,"y":2547776.2800000012}},{"attributes":{"ID":120888,"DIS_CODE":0,"TOWNNAME":"南區","LI":"喜北里","LIN":"16鄰","STREET":"喜樹路","SECT":" ","MAREA":" ","LANE":"２２２巷","ALLEY":"９２弄","HOUSE_NO":"１號","E_COORD97":165517.19,"N_COORD97":2538093.0299999998,"ADDRESS":"喜樹路２２２巷９２弄１號","OBJECTID":120888},"geometry":{"x":165517.19000000227,"y":2538093.0299999993}},{"attributes":{"ID":120889,"DIS_CODE":0,"TOWNNAME":"南區","LI":"喜北里","LIN":"16鄰","STREET":"喜樹路","SECT":" ","MAREA":" ","LANE":"２２２巷","ALLEY":"９２弄","HOUSE_NO":"２號","E_COORD97":165507.39000000001,"N_COORD97":2538088.6600000001,"ADDRESS":"喜樹路２２２巷９２弄２號","OBJECTID":120889},"geometry":{"x":165507.38999999966,"y":2538088.6600000001}},{"attributes":{"ID":120890,"DIS_CODE":0,"TOWNNAME":"永康區","LI":"永康里","LIN":"31鄰","STREET":"龍中街","SECT":" ","MAREA":" ","LANE":" ","ALLEY":" ","HOUSE_NO":"９５號","E_COORD97":174372.67000000001,"N_COORD97":2547813.0800000001,"ADDRESS":"龍中街９５號","OBJECTID":120890},"geometry":{"x":174372.67000000086,"y":2547813.0800000001}},{"attributes":{"ID":120891,"DIS_CODE":0,"TOWNNAME":"仁德區","LI":"後壁里","LIN":"18鄰","STREET":"中正路","SECT":"二段","MAREA":" ","LANE":" ","ALLEY":" ","HOUSE_NO":"２２２號","E_COORD97":173235.91,"N_COORD97":2538790.0299999998,"ADDRESS":"中正路二段２２２號","OBJECTID":120891},"geometry":{"x":173235.91000000108,"y":2538790.0300000012}},{"attributes":{"ID":120892,"DIS_CODE":0,"TOWNNAME":"仁德區","LI":"仁義里","LIN":"25鄰","STREET":"中山路","SECT":" ","MAREA":" ","LANE":" ","ALLEY":" ","HOUSE_NO":"４７８號","E_COORD97":173574.67999999999,"N_COORD97":2541318.2400000002,"ADDRESS":"中山路４７８號","OBJECTID":120892},"geometry":{"x":173574.6799999997,"y":2541318.2400000021}},{"attributes":{"ID":120893,"DIS_CODE":0,"TOWNNAME":"仁德區","LI":"仁義里","LIN":"26鄰","STREET":"中清四街","SECT":" ","MAREA":" ","LANE":" ","ALLEY":" ","HOUSE_NO":"３號","E_COORD97":173423.47,"N_COORD97":2541355.2999999998,"ADDRESS":"中清四街３號","OBJECTID":120893},"geometry":{"x":173423.46999999974,"y":2541355.3000000026}},{"attributes":{"ID":120894,"DIS_CODE":0,"TOWNNAME":"永康區","LI":"崑山里","LIN":"31鄰","STREET":"國光二街","SECT":" ","MAREA":" ","LANE":" ","ALLEY":" ","HOUSE_NO":"２０號","E_COORD97":174031.44,"N_COORD97":2544687.8500000001,"ADDRESS":"國光二街２０號","OBJECTID":120894},"geometry":{"x":174031.44000000041,"y":2544687.8499999996}},{"attributes":{"ID":120895,"DIS_CODE":0,"TOWNNAME":"仁德區","LI":"太子里","LIN":"25鄰","STREET":"長興五街","SECT":" ","MAREA":" ","LANE":" ","ALLEY":" ","HOUSE_NO":"２７之８號","E_COORD97":173512.90466999999,"N_COORD97":2543624.6261999998,"ADDRESS":"長興五街２７之８號","OBJECTID":120895},"geometry":{"x":173512.90467000101,"y":2543624.6262020003}},{"attributes":{"ID":120896,"DIS_CODE":0,"TOWNNAME":"仁德區","LI":"後壁里","LIN":"39鄰","STREET":"德安路","SECT":" ","MAREA":" ","LANE":" ","ALLEY":" ","HOUSE_NO":"９０號","E_COORD97":173481.57000000001,"N_COORD97":2539060.3199999998,"ADDRESS":"德安路９０號","OBJECTID":120896},"geometry":{"x":173481.5700000003,"y":2539060.3200000022}},{"attributes":{"ID":120897,"DIS_CODE":0,"TOWNNAME":"仁德區","LI":"仁德里","LIN":"20鄰","STREET":"中山路","SECT":" ","MAREA":" ","LANE":" ","ALLEY":" ","HOUSE_NO":"８８１號","E_COORD97":172407.98000000001,"N_COORD97":2541586.5,"ADDRESS":"中山路８８１號","OBJECTID":120897},"geometry":{"x":172407.98000000138,"y":2541586.5000000037}},{"attributes":{"ID":120898,"DIS_CODE":0,"TOWNNAME":"仁德區","LI":"仁德里","LIN":"20鄰","STREET":"中山路","SECT":" ","MAREA":" ","LANE":" ","ALLEY":" ","HOUSE_NO":"８６９號","E_COORD97":172451.04999999999,"N_COORD97":2541572.5,"ADDRESS":"中山路８６９號","OBJECTID":120898},"geometry":{"x":172451.05000000075,"y":2541572.5}},{"attributes":{"ID":120899,"DIS_CODE":0,"TOWNNAME":"仁德區","LI":"後壁里","LIN":"26鄰","STREET":"中正路","SECT":"二段","MAREA":" ","LANE":" ","ALLEY":" ","HOUSE_NO":"３２３號","E_COORD97":173247.70000000001,"N_COORD97":2539145.52,"ADDRESS":"中正路二段３２３號","OBJECTID":120899},"geometry":{"x":173247.70000000112,"y":2539145.5200000014}},{"attributes":{"ID":120900,"DIS_CODE":0,"TOWNNAME":"仁德區","LI":"後壁里","LIN":"39鄰","STREET":"德安路","SECT":" ","MAREA":" ","LANE":" ","ALLEY":" ","HOUSE_NO":"４３號","E_COORD97":173480.89999999999,"N_COORD97":2539102.8100000001,"ADDRESS":"德安路４３號","OBJECTID":120900},"geometry":{"x":173480.90000000037,"y":2539102.8100000005}},{"attributes":{"ID":120901,"DIS_CODE":0,"TOWNNAME":"仁德區","LI":"仁義里","LIN":"25鄰","STREET":"中山路","SECT":" ","MAREA":" ","LANE":" ","ALLEY":" ","HOUSE_NO":"４８８號","E_COORD97":173529.01000000001,"N_COORD97":2541317.9900000002,"ADDRESS":"中山路４８８號","OBJECTID":120901},"geometry":{"x":173529.00999999885,"y":2541317.9900000002}},{"attributes":{"ID":120902,"DIS_CODE":0,"TOWNNAME":"麻豆區","LI":"大埕里","LIN":"10鄰","STREET":" ","SECT":" ","MAREA":"\u25A0祖\u25A0","LANE":" ","ALLEY":" ","HOUSE_NO":"１９號之２８","E_COORD97":172898.10000000001,"N_COORD97":2565339.0499999998,"ADDRESS":"\u25A0祖\u25A0１９號之２８","OBJECTID":120902},"geometry":{"x":172898.10000000056,"y":2565339.0500000007}},{"attributes":{"ID":120903,"DIS_CODE":0,"TOWNNAME":"麻豆區","LI":"大埕里","LIN":"10鄰","STREET":" ","SECT":" ","MAREA":"\u25A0祖\u25A0","LANE":" ","ALLEY":" ","HOUSE_NO":"１９號之２９","E_COORD97":172893.85000000001,"N_COORD97":2565337.9700000002,"ADDRESS":"\u25A0祖\u25A0１９號之２９","OBJECTID":120903},"geometry":{"x":172893.84999999963,"y":2565337.9700000025}},{"attributes":{"ID":120904,"DIS_CODE":0,"TOWNNAME":"麻豆區","LI":"大埕里","LIN":"10鄰","STREET":" ","SECT":" ","MAREA":"\u25A0祖\u25A0","LANE":" ","ALLEY":" ","HOUSE_NO":"１９號之２","E_COORD97":172839.09,"N_COORD97":2565344.0800000001,"ADDRESS":"\u25A0祖\u25A0１９號之２","OBJECTID":120904},"geometry":{"x":172839.09000000078,"y":2565344.0800000019}},{"attributes":{"ID":120905,"DIS_CODE":0,"TOWNNAME":"南區","LI":"喜北里","LIN":"16鄰","STREET":"喜樹路","SECT":" ","MAREA":" ","LANE":"２２２巷","ALLEY":"９２弄","HOUSE_NO":"３號","E_COORD97":165529.38,"N_COORD97":2538102.8599999999,"ADDRESS":"喜樹路２２２巷９２弄３號","OBJECTID":120905},"geometry":{"x":165529.38000000082,"y":2538102.8600000013}},{"attributes":{"ID":120906,"DIS_CODE":0,"TOWNNAME":"南區","LI":"喜北里","LIN":"16鄰","STREET":"喜樹路","SECT":" ","MAREA":" ","LANE":"２２２巷","ALLEY":"９２弄","HOUSE_NO":"４號","E_COORD97":165518.47,"N_COORD97":2538087.48,"ADDRESS":"喜樹路２２２巷９２弄４號","OBJECTID":120906},"geometry":{"x":165518.47000000067,"y":2538087.4800000004}},{"attributes":{"ID":120907,"DIS_CODE":0,"TOWNNAME":"永康區","LI":"勝利里","LIN":"16鄰","STREET":"勝利街","SECT":" ","MAREA":" ","LANE":"１０７巷","ALLEY":"６１弄","HOUSE_NO":"８號","E_COORD97":171213.32000000001,"N_COORD97":2544905,"ADDRESS":"勝利街１０７巷６１弄８號","OBJECTID":120907},"geometry":{"x":171213.3200000003,"y":2544905}},{"attributes":{"ID":120908,"DIS_CODE":0,"TOWNNAME":"永康區","LI":"烏竹里","LIN":"16鄰","STREET":"自強路","SECT":" ","MAREA":" ","LANE":"９２５巷","ALLEY":"１１弄","HOUSE_NO":"３號","E_COORD97":174749.73999999999,"N_COORD97":2548864.2400000002,"ADDRESS":"自強路９２５巷１１弄３號","OBJECTID":120908},"geometry":{"x":174749.74000000022,"y":2548864.2400000039}},{"attributes":{"ID":120909,"DIS_CODE":0,"TOWNNAME":"永康區","LI":"烏竹里","LIN":"16鄰","STREET":"自強路","SECT":" ","MAREA":" ","LANE":"９２５巷","ALLEY":"１１弄","HOUSE_NO":"２３號","E_COORD97":174702.35000000001,"N_COORD97":2548833.5,"ADDRESS":"自強路９２５巷１１弄２３號","OBJECTID":120909},"geometry":{"x":174702.34999999963,"y":2548833.5}},{"attributes":{"ID":120910,"DIS_CODE":0,"TOWNNAME":"永康區","LI":"勝利里","LIN":"16鄰","STREET":"勝利街","SECT":" ","MAREA":" ","LANE":"１０７巷","ALLEY":"６１弄","HOUSE_NO":"１１號","E_COORD97":171225.14999999999,"N_COORD97":2544891.5099999998,"ADDRESS":"勝利街１０７巷６１弄１１號","OBJECTID":120910},"geometry":{"x":171225.15000000224,"y":2544891.5099999998}},{"attributes":{"ID":120911,"DIS_CODE":0,"TOWNNAME":"新市區","LI":"新市里","LIN":"16鄰","STREET":"中正路","SECT":" ","MAREA":" ","LANE":"３２３巷","ALLEY":"２２弄","HOUSE_NO":"３號","E_COORD97":177691.48999999999,"N_COORD97":2553348,"ADDRESS":"中正路３２３巷２２弄３號","OBJECTID":120911},"geometry":{"x":177691.49000000209,"y":2553348.0000000037}},{"attributes":{"ID":120912,"DIS_CODE":0,"TOWNNAME":"新市區","LI":"港墘里","LIN":"16鄰","STREET":"長安街","SECT":" ","MAREA":" ","LANE":"３６巷","ALLEY":"９弄","HOUSE_NO":"２５號","E_COORD97":178213.01000000001,"N_COORD97":2552695.5699999998,"ADDRESS":"長安街３６巷９弄２５號","OBJECTID":120912},"geometry":{"x":178213.01000000164,"y":2552695.5700000003}},{"attributes":{"ID":120913,"DIS_CODE":0,"TOWNNAME":"善化區","LI":"坐駕里","LIN":"16鄰","STREET":"大成路","SECT":" ","MAREA":" ","LANE":"１巷","ALLEY":"１弄","HOUSE_NO":"２０號","E_COORD97":178881.59,"N_COORD97":2558842,"ADDRESS":"大成路１巷１弄２０號","OBJECTID":120913},"geometry":{"x":178881.58999999985,"y":2558842}},{"attributes":{"ID":120914,"DIS_CODE":0,"TOWNNAME":"仁德區","LI":"上崙里","LIN":"16鄰","STREET":"德崙路","SECT":" ","MAREA":" ","LANE":"３７０巷","ALLEY":"４９弄","HOUSE_NO":"１號","E_COORD97":174038.95999999999,"N_COORD97":2537950.02,"ADDRESS":"德崙路３７０巷４９弄１號","OBJECTID":120914},"geometry":{"x":174038.96000000089,"y":2537950.0199999996}},{"attributes":{"ID":120915,"DIS_CODE":0,"TOWNNAME":"仁德區","LI":"成功里","LIN":"16鄰","STREET":"全福路","SECT":" ","MAREA":" ","LANE":"７５巷","ALLEY":"１３弄","HOUSE_NO":"４號","E_COORD97":171008.29999999999,"N_COORD97":2539363.75,"ADDRESS":"全福路７５巷１３弄４號","OBJECTID":120915},"geometry":{"x":171008.30000000075,"y":2539363.75}},{"attributes":{"ID":120916,"DIS_CODE":0,"TOWNNAME":"仁德區","LI":"成功里","LIN":"16鄰","STREET":"全福路","SECT":" ","MAREA":" ","LANE":"７５巷","ALLEY":"１３弄","HOUSE_NO":"９號","E_COORD97":170994.13,"N_COORD97":2539348.7400000002,"ADDRESS":"全福路７５巷１３弄９號","OBJECTID":120916},"geometry":{"x":170994.13000000175,"y":2539348.7400000021}},{"attributes":{"ID":120917,"DIS_CODE":0,"TOWNNAME":"仁德區","LI":"仁義里","LIN":"16鄰","STREET":"義林路","SECT":" ","MAREA":" ","LANE":"２４１巷","ALLEY":"２弄","HOUSE_NO":"３號","E_COORD97":174514.64999999999,"N_COORD97":2541291.7200000002,"ADDRESS":"義林路２４１巷２弄３號","OBJECTID":120917},"geometry":{"x":174514.65000000037,"y":2541291.7200000025}},{"attributes":{"ID":120918,"DIS_CODE":0,"TOWNNAME":"仁德區","LI":"二行里","LIN":"16鄰","STREET":"中正西路","SECT":" ","MAREA":" ","LANE":"３５３巷","ALLEY":"１８弄","HOUSE_NO":"２０號","E_COORD97":169753.54999999999,"N_COORD97":2535275.9900000002,"ADDRESS":"中正西路３５３巷１８弄２０號","OBJECTID":120918},"geometry":{"x":169753.54999999981,"y":2535275.9900000002}},{"attributes":{"ID":120919,"DIS_CODE":0,"TOWNNAME":"永康區","LI":"甲頂里","LIN":"16鄰","STREET":"中正南路","SECT":" ","MAREA":" ","LANE":"５２巷","ALLEY":"２１弄","HOUSE_NO":"７號","E_COORD97":169877.45000000001,"N_COORD97":2546805.9900000002,"ADDRESS":"中正南路５２巷２１弄７號","OBJECTID":120919},"geometry":{"x":169877.45000000112,"y":2546805.9900000021}},{"attributes":{"ID":120920,"DIS_CODE":0,"TOWNNAME":"永康區","LI":"西橋里","LIN":"16鄰","STREET":"大橋一街","SECT":" ","MAREA":" ","LANE":"３１巷","ALLEY":"４１弄","HOUSE_NO":"１號","E_COORD97":170564.07000000001,"N_COORD97":2546378.4900000002,"ADDRESS":"大橋一街３１巷４１弄１號","OBJECTID":120920},"geometry":{"x":170564.0700000003,"y":2546378.4900000021}},{"attributes":{"ID":120921,"DIS_CODE":0,"TOWNNAME":"永康區","LI":"西橋里","LIN":"16鄰","STREET":"大橋一街","SECT":" ","MAREA":" ","LANE":"３１巷","ALLEY":"４１弄","HOUSE_NO":"７號","E_COORD97":170552.82000000001,"N_COORD97":2546386.2400000002,"ADDRESS":"大橋一街３１巷４１弄７號","OBJECTID":120921},"geometry":{"x":170552.82000000123,"y":2546386.2400000021}},{"attributes":{"ID":120922,"DIS_CODE":0,"TOWNNAME":"永康區","LI":"西橋里","LIN":"16鄰","STREET":"大橋一街","SECT":" ","MAREA":" ","LANE":"３１巷","ALLEY":"４１弄","HOUSE_NO":"２號","E_COORD97":170566.92999999999,"N_COORD97":2546390.2400000002,"ADDRESS":"大橋一街３１巷４１弄２號","OBJECTID":120922},"geometry":{"x":170566.93000000063,"y":2546390.2400000021}},{"attributes":{"ID":120923,"DIS_CODE":0,"TOWNNAME":"永康區","LI":"西橋里","LIN":"16鄰","STREET":"大橋一街","SECT":" ","MAREA":" ","LANE":"３１巷","ALLEY":"４１弄","HOUSE_NO":"４號","E_COORD97":170563.48000000001,"N_COORD97":2546392.4900000002,"ADDRESS":"大橋一街３１巷４１弄４號","OBJECTID":120923},"geometry":{"x":170563.48000000231,"y":2546392.4900000021}},{"attributes":{"ID":120924,"DIS_CODE":0,"TOWNNAME":"西港區","LI":"慶安里","LIN":"16鄰","STREET":"慶安路","SECT":" ","MAREA":" ","LANE":"１７０巷","ALLEY":"２０弄","HOUSE_NO":"２４號","E_COORD97":168015.87,"N_COORD97":2557965.6699999999,"ADDRESS":"慶安路１７０巷２０弄２４號","OBJECTID":120924},"geometry":{"x":168015.86999999918,"y":2557965.6700000018}},{"attributes":{"ID":120925,"DIS_CODE":0,"TOWNNAME":"西港區","LI":"慶安里","LIN":"16鄰","STREET":"慶安路","SECT":" ","MAREA":" ","LANE":"１７０巷","ALLEY":"２０弄","HOUSE_NO":"２６號","E_COORD97":168019.98999999999,"N_COORD97":2557965.3900000001,"ADDRESS":"慶安路１７０巷２０弄２６號","OBJECTID":120925},"geometry":{"x":168019.99000000022,"y":2557965.3900000006}},{"attributes":{"ID":120926,"DIS_CODE":0,"TOWNNAME":"西港區","LI":"慶安里","LIN":"16鄰","STREET":"慶安路","SECT":" ","MAREA":" ","LANE":"１７０巷","ALLEY":"２０弄","HOUSE_NO":"２８號","E_COORD97":168024.32999999999,"N_COORD97":2557965.7400000002,"ADDRESS":"慶安路１７０巷２０弄２８號","OBJECTID":120926},"geometry":{"x":168024.33000000007,"y":2557965.7400000021}},{"attributes":{"ID":120927,"DIS_CODE":0,"TOWNNAME":"仁德區","LI":"仁德里","LIN":"39鄰","STREET":"文宏二街","SECT":" ","MAREA":" ","LANE":" ","ALLEY":" ","HOUSE_NO":"８０號","E_COORD97":172473.12,"N_COORD97":2541744.8300000001,"ADDRESS":"文宏二街８０號","OBJECTID":120927},"geometry":{"x":172473.12000000104,"y":2541744.8300000019}},{"attributes":{"ID":120928,"DIS_CODE":0,"TOWNNAME":"西港區","LI":"慶安里","LIN":"16鄰","STREET":"慶安路","SECT":" ","MAREA":" ","LANE":"１７０巷","ALLEY":"２０弄","HOUSE_NO":"３０號","E_COORD97":168028.06,"N_COORD97":2557965.9100000001,"ADDRESS":"慶安路１７０巷２０弄３０號","OBJECTID":120928},"geometry":{"x":168028.06000000052,"y":2557965.9100000001}},{"attributes":{"ID":120929,"DIS_CODE":0,"TOWNNAME":"西港區","LI":"慶安里","LIN":"16鄰","STREET":"慶安路","SECT":" ","MAREA":" ","LANE":"１７０巷","ALLEY":"２０弄","HOUSE_NO":"４２號","E_COORD97":168067.32000000001,"N_COORD97":2557946.98,"ADDRESS":"慶安路１７０巷２０弄４２號","OBJECTID":120929},"geometry":{"x":168067.32000000216,"y":2557946.9800000023}},{"attributes":{"ID":120930,"DIS_CODE":0,"TOWNNAME":"西港區","LI":"慶安里","LIN":"16鄰","STREET":"慶安路","SECT":" ","MAREA":" ","LANE":"１７０巷","ALLEY":"２０弄","HOUSE_NO":"４４號","E_COORD97":168059.48999999999,"N_COORD97":2557966.2999999998,"ADDRESS":"慶安路１７０巷２０弄４４號","OBJECTID":120930},"geometry":{"x":168059.49000000115,"y":2557966.3000000007}},{"attributes":{"ID":120931,"DIS_CODE":0,"TOWNNAME":"西港區","LI":"慶安里","LIN":"16鄰","STREET":"慶安路","SECT":" ","MAREA":" ","LANE":"１７０巷","ALLEY":"２０弄","HOUSE_NO":"４６號","E_COORD97":168063.32999999999,"N_COORD97":2557966.3300000001,"ADDRESS":"慶安路１７０巷２０弄４６號","OBJECTID":120931},"geometry":{"x":168063.33000000007,"y":2557966.3300000001}},{"attributes":{"ID":120932,"DIS_CODE":0,"TOWNNAME":"西港區","LI":"慶安里","LIN":"16鄰","STREET":"慶安路","SECT":" ","MAREA":" ","LANE":"１７０巷","ALLEY":"２０弄","HOUSE_NO":"４８號","E_COORD97":168067.79000000001,"N_COORD97":2557966.1499999999,"ADDRESS":"慶安路１７０巷２０弄４８號","OBJECTID":120932},"geometry":{"x":168067.79000000097,"y":2557966.1500000022}},{"attributes":{"ID":120933,"DIS_CODE":0,"TOWNNAME":"西港區","LI":"慶安里","LIN":"16鄰","STREET":"慶安路","SECT":" ","MAREA":" ","LANE":"１７０巷","ALLEY":"２０弄","HOUSE_NO":"５０號","E_COORD97":168072.25,"N_COORD97":2557964.1800000002,"ADDRESS":"慶安路１７０巷２０弄５０號","OBJECTID":120933},"geometry":{"x":168072.25,"y":2557964.1800000034}},{"attributes":{"ID":120934,"DIS_CODE":0,"TOWNNAME":"西港區","LI":"慶安里","LIN":"16鄰","STREET":"慶安路","SECT":" ","MAREA":" ","LANE":"１７０巷","ALLEY":"２０弄","HOUSE_NO":"５２號","E_COORD97":168076.16,"N_COORD97":2557966.7799999998,"ADDRESS":"慶安路１７０巷２０弄５２號","OBJECTID":120934},"geometry":{"x":168076.16000000015,"y":2557966.7800000012}},{"attributes":{"ID":120935,"DIS_CODE":0,"TOWNNAME":"西港區","LI":"慶安里","LIN":"16鄰","STREET":"慶安路","SECT":" ","MAREA":" ","LANE":"１７０巷","ALLEY":"２０弄","HOUSE_NO":"５４號","E_COORD97":168080.44,"N_COORD97":2557966.98,"ADDRESS":"慶安路１７０巷２０弄５４號","OBJECTID":120935},"geometry":{"x":168080.44000000134,"y":2557966.9800000023}},{"attributes":{"ID":120936,"DIS_CODE":0,"TOWNNAME":"麻豆區","LI":"大埕里","LIN":"10鄰","STREET":" ","SECT":" ","MAREA":"\u25A0祖\u25A0","LANE":" ","ALLEY":" ","HOUSE_NO":"１９號之３","E_COORD97":172837.88,"N_COORD97":2565348.6299999999,"ADDRESS":"\u25A0祖\u25A0１９號之３","OBJECTID":120936},"geometry":{"x":172837.87999999989,"y":2565348.6300000008}},{"attributes":{"ID":120937,"DIS_CODE":0,"TOWNNAME":"麻豆區","LI":"大埕里","LIN":"10鄰","STREET":" ","SECT":" ","MAREA":"\u25A0祖\u25A0","LANE":" ","ALLEY":" ","HOUSE_NO":"１９號之６","E_COORD97":172854.35999999999,"N_COORD97":2565351.8500000001,"ADDRESS":"\u25A0祖\u25A0１９號之６","OBJECTID":120937},"geometry":{"x":172854.3600000022,"y":2565351.8500000015}},{"attributes":{"ID":120938,"DIS_CODE":0,"TOWNNAME":"麻豆區","LI":"大埕里","LIN":"10鄰","STREET":" ","SECT":" ","MAREA":"\u25A0祖\u25A0","LANE":" ","ALLEY":" ","HOUSE_NO":"１９號之７","E_COORD97":172859.01000000001,"N_COORD97":2565353.5299999998,"ADDRESS":"\u25A0祖\u25A0１９號之７","OBJECTID":120938},"geometry":{"x":172859.00999999978,"y":2565353.5300000012}},{"attributes":{"ID":120939,"DIS_CODE":0,"TOWNNAME":"麻豆區","LI":"大埕里","LIN":"10鄰","STREET":" ","SECT":" ","MAREA":"\u25A0祖\u25A0","LANE":" ","ALLEY":" ","HOUSE_NO":"１９號之８","E_COORD97":172865.29999999999,"N_COORD97":2565355.8399999999,"ADDRESS":"\u25A0祖\u25A0１９號之８","OBJECTID":120939},"geometry":{"x":172865.29999999981,"y":2565355.8399999999}},{"attributes":{"ID":120940,"DIS_CODE":0,"TOWNNAME":"麻豆區","LI":"大埕里","LIN":"10鄰","STREET":" ","SECT":" ","MAREA":"\u25A0祖\u25A0","LANE":" ","ALLEY":" ","HOUSE_NO":"１９號之９","E_COORD97":172869.79999999999,"N_COORD97":2565357.6099999999,"ADDRESS":"\u25A0祖\u25A0１９號之９","OBJECTID":120940},"geometry":{"x":172869.80000000075,"y":2565357.6099999994}},{"attributes":{"ID":120941,"DIS_CODE":0,"TOWNNAME":"麻豆區","LI":"大埕里","LIN":"10鄰","STREET":" ","SECT":" ","MAREA":"\u25A0祖\u25A0","LANE":" ","ALLEY":" ","HOUSE_NO":"１號之１０","E_COORD97":173011.34,"N_COORD97":2565227.3300000001,"ADDRESS":"\u25A0祖\u25A0１號之１０","OBJECTID":120941},"geometry":{"x":173011.33999999985,"y":2565227.3300000001}},{"attributes":{"ID":120942,"DIS_CODE":0,"TOWNNAME":"麻豆區","LI":"大埕里","LIN":"10鄰","STREET":" ","SECT":" ","MAREA":"\u25A0祖\u25A0","LANE":" ","ALLEY":" ","HOUSE_NO":"１號之１１","E_COORD97":172982.78,"N_COORD97":2565235.5699999998,"ADDRESS":"\u25A0祖\u25A0１號之１１","OBJECTID":120942},"geometry":{"x":172982.78000000119,"y":2565235.5700000022}},{"attributes":{"ID":120943,"DIS_CODE":0,"TOWNNAME":"麻豆區","LI":"大埕里","LIN":"10鄰","STREET":" ","SECT":" ","MAREA":"\u25A0祖\u25A0","LANE":" ","ALLEY":" ","HOUSE_NO":"１號之１２","E_COORD97":172986.20999999999,"N_COORD97":2565236.8999999999,"ADDRESS":"\u25A0祖\u25A0１號之１２","OBJECTID":120943},"geometry":{"x":172986.21000000089,"y":2565236.9000000022}},{"attributes":{"ID":120944,"DIS_CODE":0,"TOWNNAME":"麻豆區","LI":"大埕里","LIN":"10鄰","STREET":" ","SECT":" ","MAREA":"\u25A0祖\u25A0","LANE":" ","ALLEY":" ","HOUSE_NO":"１號之１３","E_COORD97":172990.07999999999,"N_COORD97":2565237.54,"ADDRESS":"\u25A0祖\u25A0１號之１３","OBJECTID":120944},"geometry":{"x":172990.08000000101,"y":2565237.540000001}},{"attributes":{"ID":120945,"DIS_CODE":0,"TOWNNAME":"麻豆區","LI":"大埕里","LIN":"10鄰","STREET":" ","SECT":" ","MAREA":"\u25A0祖\u25A0","LANE":" ","ALLEY":" ","HOUSE_NO":"１號之１４","E_COORD97":172994.16,"N_COORD97":2565238.6899999999,"ADDRESS":"\u25A0祖\u25A0１號之１４","OBJECTID":120945},"geometry":{"x":172994.16000000015,"y":2565238.6899999995}},{"attributes":{"ID":120946,"DIS_CODE":0,"TOWNNAME":"麻豆區","LI":"大埕里","LIN":"10鄰","STREET":" ","SECT":" ","MAREA":"\u25A0祖\u25A0","LANE":" ","ALLEY":" ","HOUSE_NO":"１號之１５","E_COORD97":172998.42999999999,"N_COORD97":2565239.3399999999,"ADDRESS":"\u25A0祖\u25A0１號之１５","OBJECTID":120946},"geometry":{"x":172998.4299999997,"y":2565239.3400000017}},{"attributes":{"ID":120947,"DIS_CODE":0,"TOWNNAME":"麻豆區","LI":"大埕里","LIN":"10鄰","STREET":" ","SECT":" ","MAREA":"\u25A0祖\u25A0","LANE":" ","ALLEY":" ","HOUSE_NO":"１號之１６","E_COORD97":173002.45000000001,"N_COORD97":2565240.73,"ADDRESS":"\u25A0祖\u25A0１號之１６","OBJECTID":120947},"geometry":{"x":173002.45000000019,"y":2565240.7300000023}},{"attributes":{"ID":120948,"DIS_CODE":0,"TOWNNAME":"麻豆區","LI":"大埕里","LIN":"10鄰","STREET":" ","SECT":" ","MAREA":"\u25A0祖\u25A0","LANE":" ","ALLEY":" ","HOUSE_NO":"１號之１７","E_COORD97":173014.92999999999,"N_COORD97":2565235.5,"ADDRESS":"\u25A0祖\u25A0１號之１７","OBJECTID":120948},"geometry":{"x":173014.93000000063,"y":2565235.5000000019}},{"attributes":{"ID":120949,"DIS_CODE":0,"TOWNNAME":"麻豆區","LI":"大埕里","LIN":"10鄰","STREET":" ","SECT":" ","MAREA":"\u25A0祖\u25A0","LANE":" ","ALLEY":" ","HOUSE_NO":"１號之１８","E_COORD97":173014.48000000001,"N_COORD97":2565239.4100000001,"ADDRESS":"\u25A0祖\u25A0１號之１８","OBJECTID":120949},"geometry":{"x":173014.48000000045,"y":2565239.410000002}},{"attributes":{"ID":120950,"DIS_CODE":0,"TOWNNAME":"西港區","LI":"慶安里","LIN":"16鄰","STREET":"慶安路","SECT":" ","MAREA":" ","LANE":"１７０巷","ALLEY":"２０弄","HOUSE_NO":"５６號","E_COORD97":168084.81,"N_COORD97":2557966.8500000001,"ADDRESS":"慶安路１７０巷２０弄５６號","OBJECTID":120950},"geometry":{"x":168084.80999999959,"y":2557966.8500000015}},{"attributes":{"ID":120951,"DIS_CODE":0,"TOWNNAME":"南區","LI":"明亮里","LIN":"16鄰","STREET":"金華路","SECT":"一段","MAREA":" ","LANE":"３５２巷","ALLEY":"１１１弄","HOUSE_NO":"４１號","E_COORD97":167383.10000000001,"N_COORD97":2541133.5099999998,"ADDRESS":"金華路一段３５２巷１１１弄４１號","OBJECTID":120951},"geometry":{"x":167383.09999999963,"y":2541133.5100000016}},{"attributes":{"ID":120952,"DIS_CODE":0,"TOWNNAME":"南區","LI":"明亮里","LIN":"16鄰","STREET":"金華路","SECT":"一段","MAREA":" ","LANE":"３５２巷","ALLEY":"１１１弄","HOUSE_NO":"４３號","E_COORD97":167387.23000000001,"N_COORD97":2541137.6400000001,"ADDRESS":"金華路一段３５２巷１１１弄４３號","OBJECTID":120952},"geometry":{"x":167387.23000000138,"y":2541137.6400000006}},{"attributes":{"ID":120953,"DIS_CODE":0,"TOWNNAME":"南區","LI":"建南里","LIN":"16鄰","STREET":"德興路","SECT":" ","MAREA":" ","LANE":"３３６巷","ALLEY":"１５弄","HOUSE_NO":"２１號","E_COORD97":167182.10999999999,"N_COORD97":2539737.27,"ADDRESS":"德興路３３６巷１５弄２１號","OBJECTID":120953},"geometry":{"x":167182.1099999994,"y":2539737.2700000014}},{"attributes":{"ID":120954,"DIS_CODE":0,"TOWNNAME":"南區","LI":"明亮里","LIN":"16鄰","STREET":"金華路","SECT":"一段","MAREA":" ","LANE":"３５２巷","ALLEY":"１１１弄","HOUSE_NO":"５號","E_COORD97":167278.19,"N_COORD97":2541075.4900000002,"ADDRESS":"金華路一段３５２巷１１１弄５號","OBJECTID":120954},"geometry":{"x":167278.19000000041,"y":2541075.4900000021}},{"attributes":{"ID":120955,"DIS_CODE":0,"TOWNNAME":"佳里區","LI":"建南里","LIN":"31鄰","STREET":"成功路","SECT":" ","MAREA":" ","LANE":"２１３巷","ALLEY":" ","HOUSE_NO":"９２號","E_COORD97":165603.76999999999,"N_COORD97":2561058.1899999999,"ADDRESS":"成功路２１３巷９２號","OBJECTID":120955},"geometry":{"x":165603.77000000142,"y":2561058.1899999995}},{"attributes":{"ID":120956,"DIS_CODE":0,"TOWNNAME":"安南區","LI":"佃東里","LIN":"16鄰","STREET":"海佃路","SECT":"四段","MAREA":" ","LANE":"３８８巷","ALLEY":"１３４弄","HOUSE_NO":"３２號","E_COORD97":165722.85999999999,"N_COORD97":2551775.3100000001,"ADDRESS":"海佃路四段３８８巷１３４弄３２號","OBJECTID":120956},"geometry":{"x":165722.86000000127,"y":2551775.3100000005}},{"attributes":{"ID":120957,"DIS_CODE":0,"TOWNNAME":"安南區","LI":"佃東里","LIN":"16鄰","STREET":"海佃路","SECT":"四段","MAREA":" ","LANE":"３８８巷","ALLEY":"１３４弄","HOUSE_NO":"３２號之１","E_COORD97":165722.67000000001,"N_COORD97":2551770.8999999999,"ADDRESS":"海佃路四段３８８巷１３４弄３２號之１","OBJECTID":120957},"geometry":{"x":165722.67000000086,"y":2551770.9000000004}},{"attributes":{"ID":120958,"DIS_CODE":0,"TOWNNAME":"安南區","LI":"佃東里","LIN":"16鄰","STREET":"海佃路","SECT":"四段","MAREA":" ","LANE":"３８８巷","ALLEY":"１３４弄","HOUSE_NO":"３２號之１０","E_COORD97":165723.06,"N_COORD97":2551730.23,"ADDRESS":"海佃路四段３８８巷１３４弄３２號之１０","OBJECTID":120958},"geometry":{"x":165723.06000000052,"y":2551730.2300000023}},{"attributes":{"ID":120959,"DIS_CODE":0,"TOWNNAME":"安南區","LI":"佃東里","LIN":"16鄰","STREET":"海佃路","SECT":"四段","MAREA":" ","LANE":"３８８巷","ALLEY":"１３４弄","HOUSE_NO":"３２號之１１","E_COORD97":165722.48000000001,"N_COORD97":2551723.71,"ADDRESS":"海佃路四段３８８巷１３４弄３２號之１１","OBJECTID":120959},"geometry":{"x":165722.48000000138,"y":2551723.7100000028}},{"attributes":{"ID":120960,"DIS_CODE":0,"TOWNNAME":"佳里區","LI":"安西里","LIN":"31鄰","STREET":"安西路","SECT":" ","MAREA":" ","LANE":"３１１巷","ALLEY":" ","HOUSE_NO":"１１號","E_COORD97":165157.69,"N_COORD97":2562955.23,"ADDRESS":"安西路３１１巷１１號","OBJECTID":120960},"geometry":{"x":165157.69000000227,"y":2562955.2300000042}},{"attributes":{"ID":120961,"DIS_CODE":0,"TOWNNAME":"東區","LI":"忠孝里","LIN":"24鄰","STREET":"崇明四街","SECT":" ","MAREA":" ","LANE":" ","ALLEY":" ","HOUSE_NO":"４８號五樓","E_COORD97":169693.87,"N_COORD97":2542313.3999999999,"ADDRESS":"崇明四街４８號五樓","OBJECTID":120961},"geometry":{"x":169693.87000000011,"y":2542313.4000000041}},{"attributes":{"ID":120962,"DIS_CODE":0,"TOWNNAME":"東區","LI":"忠孝里","LIN":"24鄰","STREET":"崇明四街","SECT":" ","MAREA":" ","LANE":" ","ALLEY":" ","HOUSE_NO":"４８號六樓","E_COORD97":169693.87,"N_COORD97":2542313.3999999999,"ADDRESS":"崇明四街４８號六樓","OBJECTID":120962},"geometry":{"x":169693.87000000011,"y":2542313.4000000041}},{"attributes":{"ID":120963,"DIS_CODE":0,"TOWNNAME":"東區","LI":"忠孝里","LIN":"24鄰","STREET":"崇明四街","SECT":" ","MAREA":" ","LANE":" ","ALLEY":" ","HOUSE_NO":"５０號三樓","E_COORD97":169697.12,"N_COORD97":2542314.1400000001,"ADDRESS":"崇明四街５０號三樓","OBJECTID":120963},"geometry":{"x":169697.12000000011,"y":2542314.1400000006}},{"attributes":{"ID":120964,"DIS_CODE":0,"TOWNNAME":"東區","LI":"忠孝里","LIN":"24鄰","STREET":"崇明四街","SECT":" ","MAREA":" ","LANE":" ","ALLEY":" ","HOUSE_NO":"５０號三樓之１","E_COORD97":169697.12,"N_COORD97":2542314.1400000001,"ADDRESS":"崇明四街５０號三樓之１","OBJECTID":120964},"geometry":{"x":169697.12000000011,"y":2542314.1400000006}},{"attributes":{"ID":120965,"DIS_CODE":0,"TOWNNAME":"東區","LI":"忠孝里","LIN":"24鄰","STREET":"崇明四街","SECT":" ","MAREA":" ","LANE":" ","ALLEY":" ","HOUSE_NO":"５０號三樓之２","E_COORD97":169697.12,"N_COORD97":2542314.1400000001,"ADDRESS":"崇明四街５０號三樓之２","OBJECTID":120965},"geometry":{"x":169697.12000000011,"y":2542314.1400000006}},{"attributes":{"ID":120966,"DIS_CODE":0,"TOWNNAME":"東區","LI":"忠孝里","LIN":"24鄰","STREET":"崇明四街","SECT":" ","MAREA":" ","LANE":" ","ALLEY":" ","HOUSE_NO":"５０號四樓","E_COORD97":169697.12,"N_COORD97":2542314.1400000001,"ADDRESS":"崇明四街５０號四樓","OBJECTID":120966},"geometry":{"x":169697.12000000011,"y":2542314.1400000006}},{"attributes":{"ID":120967,"DIS_CODE":0,"TOWNNAME":"東區","LI":"忠孝里","LIN":"24鄰","STREET":"崇明四街","SECT":" ","MAREA":" ","LANE":" ","ALLEY":" ","HOUSE_NO":"５０號四樓之１","E_COORD97":169697.12,"N_COORD97":2542314.1400000001,"ADDRESS":"崇明四街５０號四樓之１","OBJECTID":120967},"geometry":{"x":169697.12000000011,"y":2542314.1400000006}},{"attributes":{"ID":120968,"DIS_CODE":0,"TOWNNAME":"東區","LI":"忠孝里","LIN":"24鄰","STREET":"崇明四街","SECT":" ","MAREA":" ","LANE":" ","ALLEY":" ","HOUSE_NO":"５０號四樓之２","E_COORD97":169697.12,"N_COORD97":2542314.1400000001,"ADDRESS":"崇明四街５０號四樓之２","OBJECTID":120968},"geometry":{"x":169697.12000000011,"y":2542314.1400000006}},{"attributes":{"ID":120969,"DIS_CODE":0,"TOWNNAME":"東區","LI":"忠孝里","LIN":"24鄰","STREET":"崇明四街","SECT":" ","MAREA":" ","LANE":" ","ALLEY":" ","HOUSE_NO":"５０號四樓之３","E_COORD97":169697.12,"N_COORD97":2542314.1400000001,"ADDRESS":"崇明四街５０號四樓之３","OBJECTID":120969},"geometry":{"x":169697.12000000011,"y":2542314.1400000006}},{"attributes":{"ID":120970,"DIS_CODE":0,"TOWNNAME":"安南區","LI":"佃東里","LIN":"16鄰","STREET":"海佃路","SECT":"四段","MAREA":" ","LANE":"３８８巷","ALLEY":"１３４弄","HOUSE_NO":"３２號之１２","E_COORD97":165722.48000000001,"N_COORD97":2551719.29,"ADDRESS":"海佃路四段３８８巷１３４弄３２號之１２","OBJECTID":120970},"geometry":{"x":165722.48000000138,"y":2551719.2899999991}},{"attributes":{"ID":120971,"DIS_CODE":0,"TOWNNAME":"安南區","LI":"佃東里","LIN":"16鄰","STREET":"海佃路","SECT":"四段","MAREA":" ","LANE":"３８８巷","ALLEY":"１３４弄","HOUSE_NO":"３２號之１３","E_COORD97":165722.07000000001,"N_COORD97":2551715.1699999999,"ADDRESS":"海佃路四段３８８巷１３４弄３２號之１３","OBJECTID":120971},"geometry":{"x":165722.0700000003,"y":2551715.1699999999}},{"attributes":{"ID":120972,"DIS_CODE":0,"TOWNNAME":"安南區","LI":"佃東里","LIN":"16鄰","STREET":"海佃路","SECT":"四段","MAREA":" ","LANE":"３８８巷","ALLEY":"１３４弄","HOUSE_NO":"３２號之１４","E_COORD97":165707.98000000001,"N_COORD97":2551716.73,"ADDRESS":"海佃路四段３８８巷１３４弄３２號之１４","OBJECTID":120972},"geometry":{"x":165707.98000000045,"y":2551716.7300000023}},{"attributes":{"ID":120973,"DIS_CODE":0,"TOWNNAME":"安南區","LI":"佃東里","LIN":"16鄰","STREET":"海佃路","SECT":"四段","MAREA":" ","LANE":"３８８巷","ALLEY":"１３４弄","HOUSE_NO":"３２號之１５","E_COORD97":165703.64000000001,"N_COORD97":2551716.73,"ADDRESS":"海佃路四段３８８巷１３４弄３２號之１５","OBJECTID":120973},"geometry":{"x":165703.6400000006,"y":2551716.7300000023}},{"attributes":{"ID":120974,"DIS_CODE":0,"TOWNNAME":"安南區","LI":"佃東里","LIN":"16鄰","STREET":"海佃路","SECT":"四段","MAREA":" ","LANE":"３８８巷","ALLEY":"１３４弄","HOUSE_NO":"３２號之１６","E_COORD97":165698.42999999999,"N_COORD97":2551716.98,"ADDRESS":"海佃路四段３８８巷１３４弄３２號之１６","OBJECTID":120974},"geometry":{"x":165698.43000000063,"y":2551716.9800000004}},{"attributes":{"ID":120975,"DIS_CODE":0,"TOWNNAME":"安南區","LI":"佃東里","LIN":"16鄰","STREET":"海佃路","SECT":"四段","MAREA":" ","LANE":"３８８巷","ALLEY":"１３４弄","HOUSE_NO":"３２號之１７","E_COORD97":165688.17000000001,"N_COORD97":2551683.29,"ADDRESS":"海佃路四段３８８巷１３４弄３２號之１７","OBJECTID":120975},"geometry":{"x":165688.17000000086,"y":2551683.2899999991}},{"attributes":{"ID":120976,"DIS_CODE":0,"TOWNNAME":"安南區","LI":"佃東里","LIN":"16鄰","STREET":"海佃路","SECT":"四段","MAREA":" ","LANE":"３８８巷","ALLEY":"１３４弄","HOUSE_NO":"３２號之１８","E_COORD97":165693.39000000001,"N_COORD97":2551683.1099999999,"ADDRESS":"海佃路四段３８８巷１３４弄３２號之１８","OBJECTID":120976},"geometry":{"x":165693.3900000006,"y":2551683.1100000013}},{"attributes":{"ID":120977,"DIS_CODE":0,"TOWNNAME":"安南區","LI":"佃東里","LIN":"16鄰","STREET":"海佃路","SECT":"四段","MAREA":" ","LANE":"３８８巷","ALLEY":"１３４弄","HOUSE_NO":"３２號之１９","E_COORD97":165698.01999999999,"N_COORD97":2551684.9399999999,"ADDRESS":"海佃路四段３８８巷１３４弄３２號之１９","OBJECTID":120977},"geometry":{"x":165698.01999999955,"y":2551684.9399999995}},{"attributes":{"ID":120978,"DIS_CODE":0,"TOWNNAME":"安南區","LI":"佃東里","LIN":"16鄰","STREET":"海佃路","SECT":"四段","MAREA":" ","LANE":"３８８巷","ALLEY":"１３４弄","HOUSE_NO":"３２號之２","E_COORD97":165723.44,"N_COORD97":2551766.1099999999,"ADDRESS":"海佃路四段３８８巷１３４弄３２號之２","OBJECTID":120978},"geometry":{"x":165723.44000000041,"y":2551766.1099999994}},{"attributes":{"ID":120979,"DIS_CODE":0,"TOWNNAME":"安南區","LI":"佃東里","LIN":"16鄰","STREET":"海佃路","SECT":"四段","MAREA":" ","LANE":"３８８巷","ALLEY":"１３４弄","HOUSE_NO":"３２號之２０","E_COORD97":165702.78,"N_COORD97":2551682.6299999999,"ADDRESS":"海佃路四段３８８巷１３４弄３２號之２０","OBJECTID":120979},"geometry":{"x":165702.78000000212,"y":2551682.6300000008}},{"attributes":{"ID":120980,"DIS_CODE":0,"TOWNNAME":"安南區","LI":"佃東里","LIN":"16鄰","STREET":"海佃路","SECT":"四段","MAREA":" ","LANE":"３８８巷","ALLEY":"１３４弄","HOUSE_NO":"３２號之２１","E_COORD97":165707.29000000001,"N_COORD97":2551684.3300000001,"ADDRESS":"海佃路四段３８８巷１３４弄３２號之２１","OBJECTID":120980},"geometry":{"x":165707.29000000004,"y":2551684.3300000038}},{"attributes":{"ID":120981,"DIS_CODE":0,"TOWNNAME":"安南區","LI":"佃東里","LIN":"16鄰","STREET":"海佃路","SECT":"四段","MAREA":" ","LANE":"３８８巷","ALLEY":"１３４弄","HOUSE_NO":"３２號之２２","E_COORD97":165721.66,"N_COORD97":2551696.5299999998,"ADDRESS":"海佃路四段３８８巷１３４弄３２號之２２","OBJECTID":120981},"geometry":{"x":165721.66000000015,"y":2551696.5300000012}},{"attributes":{"ID":120982,"DIS_CODE":0,"TOWNNAME":"安南區","LI":"佃東里","LIN":"16鄰","STREET":"海佃路","SECT":"四段","MAREA":" ","LANE":"３８８巷","ALLEY":"１３４弄","HOUSE_NO":"３２號之２３","E_COORD97":165719.5,"N_COORD97":2551691.96,"ADDRESS":"海佃路四段３８８巷１３４弄３２號之２３","OBJECTID":120982},"geometry":{"x":165719.5,"y":2551691.9600000028}},{"attributes":{"ID":120983,"DIS_CODE":0,"TOWNNAME":"東區","LI":"忠孝里","LIN":"24鄰","STREET":"崇明四街","SECT":" ","MAREA":" ","LANE":" ","ALLEY":" ","HOUSE_NO":"５０號四樓之５","E_COORD97":169697.12,"N_COORD97":2542314.1400000001,"ADDRESS":"崇明四街５０號四樓之５","OBJECTID":120983},"geometry":{"x":169697.12000000011,"y":2542314.1400000006}},{"attributes":{"ID":120984,"DIS_CODE":0,"TOWNNAME":"麻豆區","LI":"大埕里","LIN":"10鄰","STREET":" ","SECT":" ","MAREA":"\u25A0祖\u25A0","LANE":" ","ALLEY":" ","HOUSE_NO":"１號之１９","E_COORD97":173013.03,"N_COORD97":2565243.8900000001,"ADDRESS":"\u25A0祖\u25A0１號之１９","OBJECTID":120984},"geometry":{"x":173013.03000000119,"y":2565243.8900000025}},{"attributes":{"ID":120985,"DIS_CODE":0,"TOWNNAME":"東區","LI":"忠孝里","LIN":"24鄰","STREET":"崇明四街","SECT":" ","MAREA":" ","LANE":" ","ALLEY":" ","HOUSE_NO":"５０號五樓","E_COORD97":169697.12,"N_COORD97":2542314.1400000001,"ADDRESS":"崇明四街５０號五樓","OBJECTID":120985},"geometry":{"x":169697.12000000011,"y":2542314.1400000006}},{"attributes":{"ID":120986,"DIS_CODE":0,"TOWNNAME":"東區","LI":"忠孝里","LIN":"24鄰","STREET":"崇明四街","SECT":" ","MAREA":" ","LANE":" ","ALLEY":" ","HOUSE_NO":"５０號五樓之１","E_COORD97":169697.12,"N_COORD97":2542314.1400000001,"ADDRESS":"崇明四街５０號五樓之１","OBJECTID":120986},"geometry":{"x":169697.12000000011,"y":2542314.1400000006}},{"attributes":{"ID":120987,"DIS_CODE":0,"TOWNNAME":"東區","LI":"忠孝里","LIN":"24鄰","STREET":"崇明四街","SECT":" ","MAREA":" ","LANE":" ","ALLEY":" ","HOUSE_NO":"５０號五樓之２","E_COORD97":169697.12,"N_COORD97":2542314.1400000001,"ADDRESS":"崇明四街５０號五樓之２","OBJECTID":120987},"geometry":{"x":169697.12000000011,"y":2542314.1400000006}},{"attributes":{"ID":120988,"DIS_CODE":0,"TOWNNAME":"仁德區","LI":"仁德里","LIN":"39鄰","STREET":"文宏二街","SECT":" ","MAREA":" ","LANE":" ","ALLEY":" ","HOUSE_NO":"６１號","E_COORD97":172437.76000000001,"N_COORD97":2541782.8300000001,"ADDRESS":"文宏二街６１號","OBJECTID":120988},"geometry":{"x":172437.76000000071,"y":2541782.8300000001}},{"attributes":{"ID":120989,"DIS_CODE":0,"TOWNNAME":"東區","LI":"忠孝里","LIN":"24鄰","STREET":"崇明四街","SECT":" ","MAREA":" ","LANE":" ","ALLEY":" ","HOUSE_NO":"５０號五樓之３","E_COORD97":169697.12,"N_COORD97":2542314.1400000001,"ADDRESS":"崇明四街５０號五樓之３","OBJECTID":120989},"geometry":{"x":169697.12000000011,"y":2542314.1400000006}},{"attributes":{"ID":120990,"DIS_CODE":0,"TOWNNAME":"東區","LI":"忠孝里","LIN":"24鄰","STREET":"崇明四街","SECT":" ","MAREA":" ","LANE":" ","ALLEY":" ","HOUSE_NO":"５０號五樓之４","E_COORD97":169697.12,"N_COORD97":2542314.1400000001,"ADDRESS":"崇明四街５０號五樓之４","OBJECTID":120990},"geometry":{"x":169697.12000000011,"y":2542314.1400000006}},{"attributes":{"ID":120991,"DIS_CODE":0,"TOWNNAME":"東區","LI":"忠孝里","LIN":"24鄰","STREET":"崇明四街","SECT":" ","MAREA":" ","LANE":" ","ALLEY":" ","HOUSE_NO":"５０號五樓之５","E_COORD97":169697.12,"N_COORD97":2542314.1400000001,"ADDRESS":"崇明四街５０號五樓之５","OBJECTID":120991},"geometry":{"x":169697.12000000011,"y":2542314.1400000006}},{"attributes":{"ID":120992,"DIS_CODE":0,"TOWNNAME":"東區","LI":"忠孝里","LIN":"24鄰","STREET":"崇明四街","SECT":" ","MAREA":" ","LANE":" ","ALLEY":" ","HOUSE_NO":"５０號六樓","E_COORD97":169697.12,"N_COORD97":2542314.1400000001,"ADDRESS":"崇明四街５０號六樓","OBJECTID":120992},"geometry":{"x":169697.12000000011,"y":2542314.1400000006}},{"attributes":{"ID":120993,"DIS_CODE":0,"TOWNNAME":"東區","LI":"忠孝里","LIN":"24鄰","STREET":"崇明四街","SECT":" ","MAREA":" ","LANE":" ","ALLEY":" ","HOUSE_NO":"５０號六樓之１","E_COORD97":169697.12,"N_COORD97":2542314.1400000001,"ADDRESS":"崇明四街５０號六樓之１","OBJECTID":120993},"geometry":{"x":169697.12000000011,"y":2542314.1400000006}},{"attributes":{"ID":120994,"DIS_CODE":0,"TOWNNAME":"東區","LI":"忠孝里","LIN":"24鄰","STREET":"崇明四街","SECT":" ","MAREA":" ","LANE":" ","ALLEY":" ","HOUSE_NO":"５０號六樓之２","E_COORD97":169697.12,"N_COORD97":2542314.1400000001,"ADDRESS":"崇明四街５０號六樓之２","OBJECTID":120994},"geometry":{"x":169697.12000000011,"y":2542314.1400000006}},{"attributes":{"ID":120995,"DIS_CODE":0,"TOWNNAME":"東區","LI":"忠孝里","LIN":"24鄰","STREET":"崇明四街","SECT":" ","MAREA":" ","LANE":" ","ALLEY":" ","HOUSE_NO":"５０號六樓之３","E_COORD97":169697.12,"N_COORD97":2542314.1400000001,"ADDRESS":"崇明四街５０號六樓之３","OBJECTID":120995},"geometry":{"x":169697.12000000011,"y":2542314.1400000006}},{"attributes":{"ID":120996,"DIS_CODE":0,"TOWNNAME":"東區","LI":"忠孝里","LIN":"24鄰","STREET":"崇明四街","SECT":" ","MAREA":" ","LANE":" ","ALLEY":" ","HOUSE_NO":"５０號六樓之４","E_COORD97":169697.12,"N_COORD97":2542314.1400000001,"ADDRESS":"崇明四街５０號六樓之４","OBJECTID":120996},"geometry":{"x":169697.12000000011,"y":2542314.1400000006}},{"attributes":{"ID":120997,"DIS_CODE":0,"TOWNNAME":"東區","LI":"忠孝里","LIN":"24鄰","STREET":"崇明四街","SECT":" ","MAREA":" ","LANE":" ","ALLEY":" ","HOUSE_NO":"５０號七樓","E_COORD97":169697.12,"N_COORD97":2542314.1400000001,"ADDRESS":"崇明四街５０號七樓","OBJECTID":120997},"geometry":{"x":169697.12000000011,"y":2542314.1400000006}},{"attributes":{"ID":120998,"DIS_CODE":0,"TOWNNAME":"永康區","LI":"永康里","LIN":"31鄰","STREET":"永大路","SECT":"三段","MAREA":" ","LANE":" ","ALLEY":" ","HOUSE_NO":"８６號","E_COORD97":174189.34,"N_COORD97":2547810.3900000001,"ADDRESS":"永大路三段８６號","OBJECTID":120998},"geometry":{"x":174189.33999999985,"y":2547810.3900000025}},{"attributes":{"ID":120999,"DIS_CODE":0,"TOWNNAME":"永康區","LI":"永康里","LIN":"31鄰","STREET":"龍中街","SECT":" ","MAREA":" ","LANE":" ","ALLEY":" ","HOUSE_NO":"９９號","E_COORD97":174375.85000000001,"N_COORD97":2547820.8300000001,"ADDRESS":"龍中街９９號","OBJECTID":120999},"geometry":{"x":174375.8499999987,"y":2547820.8300000019}},{"attributes":{"ID":121000,"DIS_CODE":0,"TOWNNAME":"永康區","LI":"永康里","LIN":"31鄰","STREET":"龍中街","SECT":" ","MAREA":" ","LANE":" ","ALLEY":" ","HOUSE_NO":"９７號","E_COORD97":174374.26999999999,"N_COORD97":2547816.8300000001,"ADDRESS":"龍中街９７號","OBJECTID":121000},"geometry":{"x":174374.26999999955,"y":2547816.8300000019}}]}