{"displayFieldName":"TOWNNAME","fieldAliases":{"ID":"ID","DIS_CODE":"DIS_CODE","TOWNNAME":"TOWNNAME","LI":"LI","LIN":"LIN","STREET":"STREET","SECT":"SECT","MAREA":"MAREA","LANE":"LANE","ALLEY":"ALLEY","HOUSE_NO":"HOUSE_NO","E_COORD97":"E_COORD97","N_COORD97":"N_COORD97","ADDRESS":"ADDRESS","OBJECTID":"OBJECTID"},"geometryType":"esriGeometryPoint","spatialReference":{"wkid":102443,"latestWkid":3826},"fields":[{"name":"ID","type":"esriFieldTypeDouble","alias":"ID"},{"name":"DIS_CODE","type":"esriFieldTypeInteger","alias":"DIS_CODE"},{"name":"TOWNNAME","type":"esriFieldTypeString","alias":"TOWNNAME","length":8},{"name":"LI","type":"esriFieldTypeString","alias":"LI","length":8},{"name":"LIN","type":"esriFieldTypeString","alias":"LIN","length":12},{"name":"STREET","type":"esriFieldTypeString","alias":"STREET","length":20},{"name":"SECT","type":"esriFieldTypeString","alias":"SECT","length":8},{"name":"MAREA","type":"esriFieldTypeString","alias":"MAREA","length":12},{"name":"LANE","type":"esriFieldTypeString","alias":"LANE","length":10},{"name":"ALLEY","type":"esriFieldTypeString","alias":"ALLEY","length":10},{"name":"HOUSE_NO","type":"esriFieldTypeString","alias":"HOUSE_NO","length":20},{"name":"E_COORD97","type":"esriFieldTypeDouble","alias":"E_COORD97"},{"name":"N_COORD97","type":"esriFieldTypeDouble","alias":"N_COORD97"},{"name":"ADDRESS","type":"esriFieldTypeString","alias":"ADDRESS","length":50},{"name":"OBJECTID","type":"esriFieldTypeOID","alias":"OBJECTID"}],"features":[{"attributes":{"ID":306609,"DIS_CODE":0,"TOWNNAME":"柳營區","LI":"八翁里","LIN":"4鄰","STREET":" ","SECT":" ","MAREA":"八老爺","LANE":" ","ALLEY":" ","HOUSE_NO":"３３號","E_COORD97":178139.41,"N_COORD97":2575027.9500000002,"ADDRESS":"八老爺３３號","OBJECTID":306601},"geometry":{"x":178139.41000000201,"y":2575027.9499999993}},{"attributes":{"ID":306610,"DIS_CODE":0,"TOWNNAME":"柳營區","LI":"八翁里","LIN":"4鄰","STREET":" ","SECT":" ","MAREA":"八老爺","LANE":" ","ALLEY":" ","HOUSE_NO":"３４之１號","E_COORD97":178157.79000000001,"N_COORD97":2575046,"ADDRESS":"八老爺３４之１號","OBJECTID":306602},"geometry":{"x":178157.79000000097,"y":2575045.9999999981}},{"attributes":{"ID":306611,"DIS_CODE":0,"TOWNNAME":"柳營區","LI":"八翁里","LIN":"4鄰","STREET":" ","SECT":" ","MAREA":"八老爺","LANE":" ","ALLEY":" ","HOUSE_NO":"３４號之１","E_COORD97":178157.79000000001,"N_COORD97":2575046,"ADDRESS":"八老爺３４號之１","OBJECTID":306603},"geometry":{"x":178157.79000000097,"y":2575045.9999999981}},{"attributes":{"ID":306612,"DIS_CODE":0,"TOWNNAME":"南區","LI":"明亮里","LIN":"8鄰","STREET":"新都路","SECT":" ","MAREA":" ","LANE":"４８８巷","ALLEY":" ","HOUSE_NO":"３２號","E_COORD97":167226.23999999999,"N_COORD97":2540966.79,"ADDRESS":"新都路４８８巷３２號","OBJECTID":306604},"geometry":{"x":167226.24000000022,"y":2540966.7900000028}},{"attributes":{"ID":306613,"DIS_CODE":0,"TOWNNAME":"柳營區","LI":"八翁里","LIN":"4鄰","STREET":" ","SECT":" ","MAREA":"八老爺","LANE":" ","ALLEY":" ","HOUSE_NO":"３４之５號","E_COORD97":178146.54999999999,"N_COORD97":2574992.29,"ADDRESS":"八老爺３４之５號","OBJECTID":306605},"geometry":{"x":178146.55000000168,"y":2574992.2899999972}},{"attributes":{"ID":306614,"DIS_CODE":0,"TOWNNAME":"柳營區","LI":"八翁里","LIN":"4鄰","STREET":" ","SECT":" ","MAREA":"八老爺","LANE":" ","ALLEY":" ","HOUSE_NO":"３４號之５","E_COORD97":178146.54999999999,"N_COORD97":2574992.29,"ADDRESS":"八老爺３４號之５","OBJECTID":306606},"geometry":{"x":178146.55000000168,"y":2574992.2899999972}},{"attributes":{"ID":306615,"DIS_CODE":0,"TOWNNAME":"柳營區","LI":"八翁里","LIN":"4鄰","STREET":" ","SECT":" ","MAREA":"八老爺","LANE":" ","ALLEY":" ","HOUSE_NO":"３４號","E_COORD97":178137.42000000001,"N_COORD97":2575008.5800000001,"ADDRESS":"八老爺３４號","OBJECTID":306607},"geometry":{"x":178137.42000000179,"y":2575008.5800000038}},{"attributes":{"ID":306616,"DIS_CODE":0,"TOWNNAME":"柳營區","LI":"八翁里","LIN":"4鄰","STREET":" ","SECT":" ","MAREA":"八老爺","LANE":" ","ALLEY":" ","HOUSE_NO":"３５號","E_COORD97":178135.82999999999,"N_COORD97":2574980.8199999998,"ADDRESS":"八老爺３５號","OBJECTID":306608},"geometry":{"x":178135.83000000007,"y":2574980.8200000022}},{"attributes":{"ID":306617,"DIS_CODE":0,"TOWNNAME":"柳營區","LI":"八翁里","LIN":"13鄰","STREET":" ","SECT":" ","MAREA":"八老爺","LANE":" ","ALLEY":" ","HOUSE_NO":"５號","E_COORD97":178631.53,"N_COORD97":2574976.3900000001,"ADDRESS":"八老爺５號","OBJECTID":306609},"geometry":{"x":178631.53000000026,"y":2574976.3900000043}},{"attributes":{"ID":306618,"DIS_CODE":0,"TOWNNAME":"柳營區","LI":"八翁里","LIN":"14鄰","STREET":" ","SECT":" ","MAREA":"八老爺","LANE":" ","ALLEY":" ","HOUSE_NO":"９５之１號","E_COORD97":178442.66,"N_COORD97":2574540.7000000002,"ADDRESS":"八老爺９５之１號","OBJECTID":306610},"geometry":{"x":178442.66000000015,"y":2574540.6999999993}},{"attributes":{"ID":306619,"DIS_CODE":0,"TOWNNAME":"柳營區","LI":"八翁里","LIN":"14鄰","STREET":" ","SECT":" ","MAREA":"八老爺","LANE":" ","ALLEY":" ","HOUSE_NO":"９５號之１","E_COORD97":178442.66,"N_COORD97":2574540.7000000002,"ADDRESS":"八老爺９５號之１","OBJECTID":306611},"geometry":{"x":178442.66000000015,"y":2574540.6999999993}},{"attributes":{"ID":306620,"DIS_CODE":0,"TOWNNAME":"柳營區","LI":"八翁里","LIN":"14鄰","STREET":" ","SECT":" ","MAREA":"八老爺","LANE":" ","ALLEY":" ","HOUSE_NO":"９５之５號","E_COORD97":178518.26000000001,"N_COORD97":2574665.1400000001,"ADDRESS":"八老爺９５之５號","OBJECTID":306612},"geometry":{"x":178518.26000000071,"y":2574665.1400000006}},{"attributes":{"ID":306621,"DIS_CODE":0,"TOWNNAME":"柳營區","LI":"八翁里","LIN":"14鄰","STREET":" ","SECT":" ","MAREA":"八老爺","LANE":" ","ALLEY":" ","HOUSE_NO":"９５號之５","E_COORD97":178518.26000000001,"N_COORD97":2574665.1400000001,"ADDRESS":"八老爺９５號之５","OBJECTID":306613},"geometry":{"x":178518.26000000071,"y":2574665.1400000006}},{"attributes":{"ID":306622,"DIS_CODE":0,"TOWNNAME":"柳營區","LI":"八翁里","LIN":"14鄰","STREET":" ","SECT":" ","MAREA":"八老爺","LANE":" ","ALLEY":" ","HOUSE_NO":"９５號","E_COORD97":178441.78,"N_COORD97":2574535.1899999999,"ADDRESS":"八老爺９５號","OBJECTID":306614},"geometry":{"x":178441.78000000026,"y":2574535.1899999995}},{"attributes":{"ID":306623,"DIS_CODE":0,"TOWNNAME":"南區","LI":"明亮里","LIN":"8鄰","STREET":"新都路","SECT":" ","MAREA":" ","LANE":"４８８巷","ALLEY":" ","HOUSE_NO":"３３號","E_COORD97":167215.17999999999,"N_COORD97":2540972,"ADDRESS":"新都路４８８巷３３號","OBJECTID":306615},"geometry":{"x":167215.18000000063,"y":2540972}},{"attributes":{"ID":306624,"DIS_CODE":0,"TOWNNAME":"南區","LI":"明興里","LIN":"8鄰","STREET":"金華路","SECT":"一段","MAREA":" ","LANE":"１４０巷","ALLEY":" ","HOUSE_NO":"２號","E_COORD97":166948.92000000001,"N_COORD97":2540604.1600000001,"ADDRESS":"金華路一段１４０巷２號","OBJECTID":306616},"geometry":{"x":166948.91999999993,"y":2540604.1600000001}},{"attributes":{"ID":306625,"DIS_CODE":0,"TOWNNAME":"南區","LI":"明興里","LIN":"8鄰","STREET":"金華路","SECT":"一段","MAREA":" ","LANE":"１４０巷","ALLEY":" ","HOUSE_NO":"４號","E_COORD97":166953.85000000001,"N_COORD97":2540603.5600000001,"ADDRESS":"金華路一段１４０巷４號","OBJECTID":306617},"geometry":{"x":166953.84999999963,"y":2540603.5600000042}},{"attributes":{"ID":306626,"DIS_CODE":0,"TOWNNAME":"南區","LI":"明興里","LIN":"8鄰","STREET":"金華路","SECT":"一段","MAREA":" ","LANE":"１４０巷","ALLEY":" ","HOUSE_NO":"６號","E_COORD97":166959.37,"N_COORD97":2540603.2200000002,"ADDRESS":"金華路一段１４０巷６號","OBJECTID":306618},"geometry":{"x":166959.37000000011,"y":2540603.2200000025}},{"attributes":{"ID":306627,"DIS_CODE":0,"TOWNNAME":"南區","LI":"明興里","LIN":"8鄰","STREET":"金華路","SECT":"一段","MAREA":" ","LANE":"１４０巷","ALLEY":" ","HOUSE_NO":"８號","E_COORD97":166959.45999999999,"N_COORD97":2540584.8599999999,"ADDRESS":"金華路一段１４０巷８號","OBJECTID":306619},"geometry":{"x":166959.46000000089,"y":2540584.8600000013}},{"attributes":{"ID":306628,"DIS_CODE":0,"TOWNNAME":"南區","LI":"明興里","LIN":"8鄰","STREET":"金華路","SECT":"一段","MAREA":" ","LANE":"１４０巷","ALLEY":" ","HOUSE_NO":"９號","E_COORD97":166969.03,"N_COORD97":2540614.2200000002,"ADDRESS":"金華路一段１４０巷９號","OBJECTID":306620},"geometry":{"x":166969.02999999933,"y":2540614.2200000025}},{"attributes":{"ID":306629,"DIS_CODE":0,"TOWNNAME":"柳營區","LI":"東昇里","LIN":"16鄰","STREET":"十美街","SECT":" ","MAREA":" ","LANE":" ","ALLEY":" ","HOUSE_NO":"７１號","E_COORD97":180611.82000000001,"N_COORD97":2575516.3500000001,"ADDRESS":"十美街７１號","OBJECTID":306621},"geometry":{"x":180611.82000000216,"y":2575516.3500000015}},{"attributes":{"ID":306630,"DIS_CODE":0,"TOWNNAME":"南區","LI":"明興里","LIN":"8鄰","STREET":"金華路","SECT":"一段","MAREA":" ","LANE":"１４０巷","ALLEY":" ","HOUSE_NO":"１０號","E_COORD97":166958.78,"N_COORD97":2540579.77,"ADDRESS":"金華路一段１４０巷１０號","OBJECTID":306622},"geometry":{"x":166958.78000000026,"y":2540579.7699999996}},{"attributes":{"ID":306631,"DIS_CODE":0,"TOWNNAME":"南區","LI":"明興里","LIN":"8鄰","STREET":"金華路","SECT":"一段","MAREA":" ","LANE":"１４０巷","ALLEY":" ","HOUSE_NO":"１１號","E_COORD97":166973.87,"N_COORD97":2540613.1099999999,"ADDRESS":"金華路一段１４０巷１１號","OBJECTID":306623},"geometry":{"x":166973.87000000104,"y":2540613.1100000013}},{"attributes":{"ID":306632,"DIS_CODE":0,"TOWNNAME":"南區","LI":"明興里","LIN":"8鄰","STREET":"金華路","SECT":"一段","MAREA":" ","LANE":"１４０巷","ALLEY":" ","HOUSE_NO":"１２號","E_COORD97":166959.03,"N_COORD97":2540575.5299999998,"ADDRESS":"金華路一段１４０巷１２號","OBJECTID":306624},"geometry":{"x":166959.03000000212,"y":2540575.5300000031}},{"attributes":{"ID":306633,"DIS_CODE":0,"TOWNNAME":"南區","LI":"明興里","LIN":"8鄰","STREET":"金華路","SECT":"一段","MAREA":" ","LANE":"１４０巷","ALLEY":" ","HOUSE_NO":"１３號","E_COORD97":166977.44,"N_COORD97":2540612.9399999999,"ADDRESS":"金華路一段１４０巷１３號","OBJECTID":306625},"geometry":{"x":166977.44000000134,"y":2540612.9399999995}},{"attributes":{"ID":306634,"DIS_CODE":0,"TOWNNAME":"南區","LI":"明興里","LIN":"8鄰","STREET":"金華路","SECT":"一段","MAREA":" ","LANE":"１４０巷","ALLEY":" ","HOUSE_NO":"１４號","E_COORD97":166970.84,"N_COORD97":2540568.71,"ADDRESS":"金華路一段１４０巷１４號","OBJECTID":306626},"geometry":{"x":166970.83999999985,"y":2540568.709999999}},{"attributes":{"ID":306635,"DIS_CODE":0,"TOWNNAME":"南區","LI":"明興里","LIN":"8鄰","STREET":"金華路","SECT":"一段","MAREA":" ","LANE":"１４０巷","ALLEY":" ","HOUSE_NO":"１５號","E_COORD97":166982.88,"N_COORD97":2540612.6000000001,"ADDRESS":"金華路一段１４０巷１５號","OBJECTID":306627},"geometry":{"x":166982.87999999989,"y":2540612.6000000034}},{"attributes":{"ID":306636,"DIS_CODE":0,"TOWNNAME":"南區","LI":"明興里","LIN":"8鄰","STREET":"金華路","SECT":"一段","MAREA":" ","LANE":"１４０巷","ALLEY":" ","HOUSE_NO":"１６號","E_COORD97":166970.84,"N_COORD97":2540574,"ADDRESS":"金華路一段１４０巷１６號","OBJECTID":306628},"geometry":{"x":166970.83999999985,"y":2540574.0000000019}},{"attributes":{"ID":306637,"DIS_CODE":0,"TOWNNAME":"南區","LI":"明興里","LIN":"8鄰","STREET":"金華路","SECT":"一段","MAREA":" ","LANE":"１４０巷","ALLEY":" ","HOUSE_NO":"１７號","E_COORD97":166986.87,"N_COORD97":2540612.6899999999,"ADDRESS":"金華路一段１４０巷１７號","OBJECTID":306629},"geometry":{"x":166986.86999999918,"y":2540612.6900000013}},{"attributes":{"ID":306638,"DIS_CODE":0,"TOWNNAME":"南區","LI":"明興里","LIN":"8鄰","STREET":"金華路","SECT":"一段","MAREA":" ","LANE":"１４０巷","ALLEY":" ","HOUSE_NO":"１８號","E_COORD97":166970.5,"N_COORD97":2540579.0899999999,"ADDRESS":"金華路一段１４０巷１８號","OBJECTID":306630},"geometry":{"x":166970.5,"y":2540579.0900000036}},{"attributes":{"ID":306639,"DIS_CODE":0,"TOWNNAME":"南區","LI":"明興里","LIN":"8鄰","STREET":"金華路","SECT":"一段","MAREA":" ","LANE":"１４０巷","ALLEY":" ","HOUSE_NO":"２０號","E_COORD97":166970.59,"N_COORD97":2540584.02,"ADDRESS":"金華路一段１４０巷２０號","OBJECTID":306631},"geometry":{"x":166970.59000000078,"y":2540584.0200000014}},{"attributes":{"ID":306640,"DIS_CODE":0,"TOWNNAME":"南區","LI":"明興里","LIN":"8鄰","STREET":"金華路","SECT":"一段","MAREA":" ","LANE":"１４０巷","ALLEY":" ","HOUSE_NO":"２１號","E_COORD97":166999.60999999999,"N_COORD97":2540609.25,"ADDRESS":"金華路一段１４０巷２１號","OBJECTID":306632},"geometry":{"x":166999.61000000127,"y":2540609.2500000019}},{"attributes":{"ID":306641,"DIS_CODE":0,"TOWNNAME":"南區","LI":"明興里","LIN":"8鄰","STREET":"金華路","SECT":"一段","MAREA":" ","LANE":"１４０巷","ALLEY":" ","HOUSE_NO":"２２號","E_COORD97":166973.78,"N_COORD97":2540602.54,"ADDRESS":"金華路一段１４０巷２２號","OBJECTID":306633},"geometry":{"x":166973.78000000026,"y":2540602.540000001}},{"attributes":{"ID":306642,"DIS_CODE":0,"TOWNNAME":"南區","LI":"明興里","LIN":"8鄰","STREET":"金華路","SECT":"一段","MAREA":" ","LANE":"１４０巷","ALLEY":" ","HOUSE_NO":"２３號","E_COORD97":167009.38,"N_COORD97":2540605.3399999999,"ADDRESS":"金華路一段１４０巷２３號","OBJECTID":306634},"geometry":{"x":167009.38000000082,"y":2540605.3400000017}},{"attributes":{"ID":306643,"DIS_CODE":0,"TOWNNAME":"柳營區","LI":"士林里","LIN":"1鄰","STREET":"士林街","SECT":" ","MAREA":" ","LANE":" ","ALLEY":" ","HOUSE_NO":"５號","E_COORD97":179289.76999999999,"N_COORD97":2575096.2200000002,"ADDRESS":"士林街５號","OBJECTID":306635},"geometry":{"x":179289.77000000048,"y":2575096.2200000044}},{"attributes":{"ID":306644,"DIS_CODE":0,"TOWNNAME":"南區","LI":"大恩里","LIN":"4鄰","STREET":"國民路","SECT":" ","MAREA":" ","LANE":"１４０巷","ALLEY":" ","HOUSE_NO":"１１號","E_COORD97":169238.54000000001,"N_COORD97":2540956.2799999998,"ADDRESS":"國民路１４０巷１１號","OBJECTID":306636},"geometry":{"x":169238.53999999911,"y":2540956.2799999993}},{"attributes":{"ID":306645,"DIS_CODE":0,"TOWNNAME":"南區","LI":"大恩里","LIN":"4鄰","STREET":"國民路","SECT":" ","MAREA":" ","LANE":"１４０巷","ALLEY":" ","HOUSE_NO":"１３號","E_COORD97":169240.69,"N_COORD97":2540960.8999999999,"ADDRESS":"國民路１４０巷１３號","OBJECTID":306637},"geometry":{"x":169240.69000000041,"y":2540960.9000000022}},{"attributes":{"ID":306646,"DIS_CODE":0,"TOWNNAME":"南區","LI":"大恩里","LIN":"4鄰","STREET":"國民路","SECT":" ","MAREA":" ","LANE":"１４０巷","ALLEY":" ","HOUSE_NO":"１５號","E_COORD97":169242.51000000001,"N_COORD97":2540965.29,"ADDRESS":"國民路１４０巷１５號","OBJECTID":306638},"geometry":{"x":169242.51000000071,"y":2540965.2899999991}},{"attributes":{"ID":306647,"DIS_CODE":0,"TOWNNAME":"南區","LI":"明興里","LIN":"8鄰","STREET":"金華路","SECT":"一段","MAREA":" ","LANE":"１４０巷","ALLEY":" ","HOUSE_NO":"２４號","E_COORD97":166978.03,"N_COORD97":2540602.8799999999,"ADDRESS":"金華路一段１４０巷２４號","OBJECTID":306639},"geometry":{"x":166978.03000000119,"y":2540602.8799999971}},{"attributes":{"ID":306648,"DIS_CODE":0,"TOWNNAME":"南區","LI":"明興里","LIN":"8鄰","STREET":"金華路","SECT":"一段","MAREA":" ","LANE":"１４０巷","ALLEY":" ","HOUSE_NO":"２５號","E_COORD97":167012.87,"N_COORD97":2540604.2400000002,"ADDRESS":"金華路一段１４０巷２５號","OBJECTID":306640},"geometry":{"x":167012.87000000104,"y":2540604.2400000002}},{"attributes":{"ID":306649,"DIS_CODE":0,"TOWNNAME":"南區","LI":"明興里","LIN":"8鄰","STREET":"金華路","SECT":"一段","MAREA":" ","LANE":"１４０巷","ALLEY":" ","HOUSE_NO":"２６號","E_COORD97":166982.10999999999,"N_COORD97":2540602.25,"ADDRESS":"金華路一段１４０巷２６號","OBJECTID":306641},"geometry":{"x":166982.1099999994,"y":2540602.2500000019}},{"attributes":{"ID":306650,"DIS_CODE":0,"TOWNNAME":"南區","LI":"明興里","LIN":"8鄰","STREET":"金華路","SECT":"一段","MAREA":" ","LANE":"１４０巷","ALLEY":" ","HOUSE_NO":"２７號","E_COORD97":167017.88,"N_COORD97":2540602.46,"ADDRESS":"金華路一段１４０巷２７號","OBJECTID":306642},"geometry":{"x":167017.88000000082,"y":2540602.4600000028}},{"attributes":{"ID":306651,"DIS_CODE":0,"TOWNNAME":"南區","LI":"明興里","LIN":"8鄰","STREET":"金華路","SECT":"一段","MAREA":" ","LANE":"１４０巷","ALLEY":" ","HOUSE_NO":"２８號","E_COORD97":166986.87,"N_COORD97":2540601.3500000001,"ADDRESS":"金華路一段１４０巷２８號","OBJECTID":306643},"geometry":{"x":166986.86999999918,"y":2540601.3500000015}},{"attributes":{"ID":306652,"DIS_CODE":0,"TOWNNAME":"南區","LI":"明興里","LIN":"8鄰","STREET":"金華路","SECT":"一段","MAREA":" ","LANE":"１４０巷","ALLEY":" ","HOUSE_NO":"３８號","E_COORD97":167010.12,"N_COORD97":2540588.6299999999,"ADDRESS":"金華路一段１４０巷３８號","OBJECTID":306644},"geometry":{"x":167010.12000000011,"y":2540588.6300000008}},{"attributes":{"ID":306653,"DIS_CODE":0,"TOWNNAME":"南區","LI":"明興里","LIN":"8鄰","STREET":"金華路","SECT":"一段","MAREA":" ","LANE":"１４０巷","ALLEY":" ","HOUSE_NO":"４０號","E_COORD97":167013.95000000001,"N_COORD97":2540588.2000000002,"ADDRESS":"金華路一段１４０巷４０號","OBJECTID":306645},"geometry":{"x":167013.95000000112,"y":2540588.2000000011}},{"attributes":{"ID":306654,"DIS_CODE":0,"TOWNNAME":"南區","LI":"明興里","LIN":"8鄰","STREET":"金華路","SECT":"一段","MAREA":" ","LANE":"１４０巷","ALLEY":" ","HOUSE_NO":"４１號","E_COORD97":167044.45000000001,"N_COORD97":2540562.7000000002,"ADDRESS":"金華路一段１４０巷４１號","OBJECTID":306646},"geometry":{"x":167044.45000000112,"y":2540562.6999999993}},{"attributes":{"ID":306655,"DIS_CODE":0,"TOWNNAME":"南區","LI":"明興里","LIN":"8鄰","STREET":"金華路","SECT":"一段","MAREA":" ","LANE":"１４０巷","ALLEY":" ","HOUSE_NO":"４２號","E_COORD97":167018.62,"N_COORD97":2540587.3500000001,"ADDRESS":"金華路一段１４０巷４２號","OBJECTID":306647},"geometry":{"x":167018.62000000011,"y":2540587.3500000015}},{"attributes":{"ID":306656,"DIS_CODE":0,"TOWNNAME":"南區","LI":"明興里","LIN":"8鄰","STREET":"金華路","SECT":"一段","MAREA":" ","LANE":"１４０巷","ALLEY":" ","HOUSE_NO":"４３號","E_COORD97":167044.10999999999,"N_COORD97":2540557.6899999999,"ADDRESS":"金華路一段１４０巷４３號","OBJECTID":306648},"geometry":{"x":167044.11000000034,"y":2540557.6900000032}},{"attributes":{"ID":306657,"DIS_CODE":0,"TOWNNAME":"南區","LI":"明興里","LIN":"8鄰","STREET":"金華路","SECT":"一段","MAREA":" ","LANE":"１４０巷","ALLEY":" ","HOUSE_NO":"４４號","E_COORD97":167023.29000000001,"N_COORD97":2540587.27,"ADDRESS":"金華路一段１４０巷４４號","OBJECTID":306649},"geometry":{"x":167023.29000000097,"y":2540587.2699999977}},{"attributes":{"ID":306658,"DIS_CODE":0,"TOWNNAME":"南區","LI":"明興里","LIN":"8鄰","STREET":"金華路","SECT":"一段","MAREA":" ","LANE":"１４０巷","ALLEY":" ","HOUSE_NO":"４５號","E_COORD97":167044.01999999999,"N_COORD97":2540553.1099999999,"ADDRESS":"金華路一段１４０巷４５號","OBJECTID":306650},"geometry":{"x":167044.01999999955,"y":2540553.1099999994}},{"attributes":{"ID":306659,"DIS_CODE":0,"TOWNNAME":"南區","LI":"明興里","LIN":"8鄰","STREET":"金華路","SECT":"一段","MAREA":" ","LANE":"１４０巷","ALLEY":" ","HOUSE_NO":"４６號","E_COORD97":167027.29000000001,"N_COORD97":2540585.9100000001,"ADDRESS":"金華路一段１４０巷４６號","OBJECTID":306651},"geometry":{"x":167027.29000000004,"y":2540585.9100000001}},{"attributes":{"ID":306660,"DIS_CODE":0,"TOWNNAME":"南區","LI":"明興里","LIN":"8鄰","STREET":"金華路","SECT":"一段","MAREA":" ","LANE":"１４０巷","ALLEY":" ","HOUSE_NO":"４８號","E_COORD97":167031.28,"N_COORD97":2540585.5699999998,"ADDRESS":"金華路一段１４０巷４８號","OBJECTID":306652},"geometry":{"x":167031.28000000026,"y":2540585.5700000003}},{"attributes":{"ID":306661,"DIS_CODE":0,"TOWNNAME":"南區","LI":"建南里","LIN":"8鄰","STREET":"德興路","SECT":" ","MAREA":" ","LANE":"２１０巷","ALLEY":" ","HOUSE_NO":"１１號","E_COORD97":167166.75,"N_COORD97":2540150.9100000001,"ADDRESS":"德興路２１０巷１１號","OBJECTID":306653},"geometry":{"x":167166.75,"y":2540150.910000002}},{"attributes":{"ID":306662,"DIS_CODE":0,"TOWNNAME":"南區","LI":"建南里","LIN":"8鄰","STREET":"德興路","SECT":" ","MAREA":" ","LANE":"２１０巷","ALLEY":" ","HOUSE_NO":"１３號","E_COORD97":167163.10000000001,"N_COORD97":2540151.1000000001,"ADDRESS":"德興路２１０巷１３號","OBJECTID":306654},"geometry":{"x":167163.10000000056,"y":2540151.0999999978}},{"attributes":{"ID":306663,"DIS_CODE":0,"TOWNNAME":"南區","LI":"建南里","LIN":"8鄰","STREET":"德興路","SECT":" ","MAREA":" ","LANE":"２１０巷","ALLEY":" ","HOUSE_NO":"１５號","E_COORD97":167158.89000000001,"N_COORD97":2540151.2799999998,"ADDRESS":"德興路２１０巷１５號","OBJECTID":306655},"geometry":{"x":167158.88999999966,"y":2540151.2800000012}},{"attributes":{"ID":306664,"DIS_CODE":0,"TOWNNAME":"南區","LI":"建南里","LIN":"8鄰","STREET":"德興路","SECT":" ","MAREA":" ","LANE":"２１０巷","ALLEY":" ","HOUSE_NO":"１７號","E_COORD97":167154.87,"N_COORD97":2540150.9100000001,"ADDRESS":"德興路２１０巷１７號","OBJECTID":306656},"geometry":{"x":167154.87000000197,"y":2540150.910000002}},{"attributes":{"ID":306665,"DIS_CODE":0,"TOWNNAME":"南區","LI":"建南里","LIN":"8鄰","STREET":"德興路","SECT":" ","MAREA":" ","LANE":"２１０巷","ALLEY":" ","HOUSE_NO":"１８號","E_COORD97":167152.95000000001,"N_COORD97":2540173.3799999999,"ADDRESS":"德興路２１０巷１８號","OBJECTID":306657},"geometry":{"x":167152.95000000112,"y":2540173.3800000008}},{"attributes":{"ID":306666,"DIS_CODE":0,"TOWNNAME":"安南區","LI":"梅花里","LIN":"17鄰","STREET":"安中路","SECT":"一段","MAREA":" ","LANE":" ","ALLEY":" ","HOUSE_NO":"７７３號","E_COORD97":167386.70999999999,"N_COORD97":2549360.29,"ADDRESS":"安中路一段７７３號","OBJECTID":306658},"geometry":{"x":167386.71000000089,"y":2549360.2899999991}},{"attributes":{"ID":306667,"DIS_CODE":0,"TOWNNAME":"安南區","LI":"州北里","LIN":"17鄰","STREET":"北安路","SECT":"四段","MAREA":" ","LANE":" ","ALLEY":" ","HOUSE_NO":"７１１號","E_COORD97":169557.98000000001,"N_COORD97":2552326.1400000001,"ADDRESS":"北安路四段７１１號","OBJECTID":306659},"geometry":{"x":169557.98000000045,"y":2552326.1400000006}},{"attributes":{"ID":306668,"DIS_CODE":0,"TOWNNAME":"安南區","LI":"海東里","LIN":"17鄰","STREET":"安中路","SECT":"一段","MAREA":" ","LANE":" ","ALLEY":" ","HOUSE_NO":"８３１號","E_COORD97":167260.91,"N_COORD97":2549444.9900000002,"ADDRESS":"安中路一段８３１號","OBJECTID":306660},"geometry":{"x":167260.91000000015,"y":2549444.9900000002}},{"attributes":{"ID":306669,"DIS_CODE":0,"TOWNNAME":"新營區","LI":"王公里","LIN":"12鄰","STREET":"義和街","SECT":" ","MAREA":" ","LANE":" ","ALLEY":" ","HOUSE_NO":"３號之２８","E_COORD97":180485.39000000001,"N_COORD97":2579045.5899999999,"ADDRESS":"義和街３號之２８","OBJECTID":306661},"geometry":{"x":180485.3900000006,"y":2579045.5899999999}},{"attributes":{"ID":306670,"DIS_CODE":0,"TOWNNAME":"新營區","LI":"大宏里","LIN":"19鄰","STREET":"三民路","SECT":" ","MAREA":" ","LANE":" ","ALLEY":" ","HOUSE_NO":"３６號之３８","E_COORD97":180457.62,"N_COORD97":2578529.6600000001,"ADDRESS":"三民路３６號之３８","OBJECTID":306662},"geometry":{"x":180457.62000000104,"y":2578529.6600000001}},{"attributes":{"ID":306671,"DIS_CODE":0,"TOWNNAME":"新營區","LI":"大宏里","LIN":"19鄰","STREET":"三民路","SECT":" ","MAREA":" ","LANE":" ","ALLEY":" ","HOUSE_NO":"３６號之４８","E_COORD97":180439.477227,"N_COORD97":2578528.4811,"ADDRESS":"三民路３６號之４８","OBJECTID":306663},"geometry":{"x":180439.47722699959,"y":2578528.4810990021}},{"attributes":{"ID":306672,"DIS_CODE":0,"TOWNNAME":"新營區","LI":"興業里","LIN":"4鄰","STREET":"公誠街","SECT":" ","MAREA":" ","LANE":"７巷","ALLEY":" ","HOUSE_NO":"２０之３號","E_COORD97":180383.48999999999,"N_COORD97":2578042.7200000002,"ADDRESS":"公誠街７巷２０之３號","OBJECTID":306664},"geometry":{"x":180383.49000000209,"y":2578042.7200000044}},{"attributes":{"ID":306673,"DIS_CODE":0,"TOWNNAME":"新營區","LI":"民生里","LIN":" ","STREET":"民生路","SECT":" ","MAREA":" ","LANE":"１６３巷","ALLEY":" ","HOUSE_NO":"９０之１號","E_COORD97":179075.57000000001,"N_COORD97":2578564.9900000002,"ADDRESS":"民生路１６３巷９０之１號","OBJECTID":306665},"geometry":{"x":179075.5700000003,"y":2578564.9900000002}},{"attributes":{"ID":306674,"DIS_CODE":0,"TOWNNAME":"新營區","LI":"興業里","LIN":" ","STREET":"中興路","SECT":" ","MAREA":" ","LANE":"１５巷","ALLEY":" ","HOUSE_NO":"１３之２號","E_COORD97":180210.04999999999,"N_COORD97":2577937.2200000002,"ADDRESS":"中興路１５巷１３之２號","OBJECTID":306666},"geometry":{"x":180210.05000000075,"y":2577937.2199999988}},{"attributes":{"ID":306675,"DIS_CODE":0,"TOWNNAME":"新營區","LI":"延平里","LIN":"15鄰","STREET":"中原街","SECT":" ","MAREA":" ","LANE":" ","ALLEY":" ","HOUSE_NO":"３號之３","E_COORD97":179515.85277600001,"N_COORD97":2577990.4956399999,"ADDRESS":"中原街３號之３","OBJECTID":306667},"geometry":{"x":179515.85277600121,"y":2577990.4956419989}},{"attributes":{"ID":306676,"DIS_CODE":0,"TOWNNAME":"新營區","LI":"好平里","LIN":"6鄰","STREET":"長春街","SECT":" ","MAREA":" ","LANE":" ","ALLEY":" ","HOUSE_NO":"１６８號之３","E_COORD97":179456.85999999999,"N_COORD97":2577816.7599999998,"ADDRESS":"長春街１６８號之３","OBJECTID":306668},"geometry":{"x":179456.86000000034,"y":2577816.7599999998}},{"attributes":{"ID":306677,"DIS_CODE":0,"TOWNNAME":"新營區","LI":"民榮里","LIN":"25鄰","STREET":"新進路","SECT":"二段","MAREA":" ","LANE":" ","ALLEY":" ","HOUSE_NO":"１６１號","E_COORD97":179328.06,"N_COORD97":2577716.5299999998,"ADDRESS":"新進路二段１６１號","OBJECTID":306669},"geometry":{"x":179328.06000000052,"y":2577716.5299999993}},{"attributes":{"ID":306678,"DIS_CODE":0,"TOWNNAME":"新營區","LI":"好平里","LIN":"8鄰","STREET":"長春街","SECT":" ","MAREA":" ","LANE":" ","ALLEY":" ","HOUSE_NO":"１５４號之２","E_COORD97":179523.39000000001,"N_COORD97":2577827.5099999998,"ADDRESS":"長春街１５４號之２","OBJECTID":306670},"geometry":{"x":179523.38999999966,"y":2577827.5100000016}},{"attributes":{"ID":306679,"DIS_CODE":0,"TOWNNAME":"新營區","LI":"民生里","LIN":"2鄰","STREET":"三興街","SECT":" ","MAREA":" ","LANE":" ","ALLEY":" ","HOUSE_NO":"１號之１０","E_COORD97":179450.88,"N_COORD97":2578113.5800000001,"ADDRESS":"三興街１號之１０","OBJECTID":306671},"geometry":{"x":179450.87999999989,"y":2578113.5800000001}},{"attributes":{"ID":306680,"DIS_CODE":0,"TOWNNAME":"新營區","LI":"嘉芳里","LIN":"4鄰","STREET":" ","SECT":" ","MAREA":"茄苳腳","LANE":" ","ALLEY":" ","HOUSE_NO":"５０號之１２","E_COORD97":176926.92999999999,"N_COORD97":2578381.6400000001,"ADDRESS":"茄苳腳５０之１２號","OBJECTID":306672},"geometry":{"x":176926.93000000063,"y":2578381.6400000006}},{"attributes":{"ID":306681,"DIS_CODE":0,"TOWNNAME":"新營區","LI":"嘉芳里","LIN":" ","STREET":" ","SECT":" ","MAREA":"茄苳腳","LANE":" ","ALLEY":" ","HOUSE_NO":"５０之３２號","E_COORD97":176829.60000000001,"N_COORD97":2578351.1099999999,"ADDRESS":"茄苳腳５０之３２號","OBJECTID":306673},"geometry":{"x":176829.60000000056,"y":2578351.1100000013}},{"attributes":{"ID":306682,"DIS_CODE":0,"TOWNNAME":"新營區","LI":"大宏里","LIN":" ","STREET":"三民路","SECT":" ","MAREA":" ","LANE":" ","ALLEY":" ","HOUSE_NO":"３９之３號","E_COORD97":180399.85999999999,"N_COORD97":2578476.7599999998,"ADDRESS":"三民路３９之３號","OBJECTID":306674},"geometry":{"x":180399.86000000127,"y":2578476.7600000016}},{"attributes":{"ID":306683,"DIS_CODE":0,"TOWNNAME":"新營區","LI":"太北里","LIN":"5鄰","STREET":" ","SECT":" ","MAREA":"太子宮","LANE":" ","ALLEY":" ","HOUSE_NO":"３６號之３","E_COORD97":175877.29000000001,"N_COORD97":2577206.2999999998,"ADDRESS":"太子宮３６號之３","OBJECTID":306675},"geometry":{"x":175877.29000000097,"y":2577206.3000000026}},{"attributes":{"ID":306684,"DIS_CODE":0,"TOWNNAME":"新營區","LI":"五興里","LIN":" ","STREET":" ","SECT":" ","MAREA":"五間厝","LANE":" ","ALLEY":" ","HOUSE_NO":"１１０之７號","E_COORD97":175582.79999999999,"N_COORD97":2574703.8199999998,"ADDRESS":"五間厝１１０之７號","OBJECTID":306676},"geometry":{"x":175582.79999999981,"y":2574703.8200000003}},{"attributes":{"ID":306685,"DIS_CODE":0,"TOWNNAME":"新營區","LI":"鐵線里","LIN":" ","STREET":" ","SECT":" ","MAREA":"鐵線橋","LANE":" ","ALLEY":" ","HOUSE_NO":"９７之１號","E_COORD97":175973.70000000001,"N_COORD97":2573948.7799999998,"ADDRESS":"鐵線橋９７之１號","OBJECTID":306677},"geometry":{"x":175973.70000000019,"y":2573948.7800000031}},{"attributes":{"ID":306686,"DIS_CODE":0,"TOWNNAME":"新營區","LI":"民生里","LIN":"7鄰","STREET":"中華路","SECT":" ","MAREA":" ","LANE":" ","ALLEY":" ","HOUSE_NO":"８３號之５","E_COORD97":179320.04000000001,"N_COORD97":2578117.52,"ADDRESS":"中華路８３號之５","OBJECTID":306678},"geometry":{"x":179320.0400000019,"y":2578117.5200000033}},{"attributes":{"ID":306687,"DIS_CODE":0,"TOWNNAME":"新營區","LI":"南興里","LIN":" ","STREET":"建業路","SECT":" ","MAREA":" ","LANE":" ","ALLEY":" ","HOUSE_NO":"８之１０號","E_COORD97":179580.31,"N_COORD97":2577568.0899999999,"ADDRESS":"建業路８之１０號","OBJECTID":306679},"geometry":{"x":179580.30999999866,"y":2577568.0900000036}},{"attributes":{"ID":306688,"DIS_CODE":0,"TOWNNAME":"新營區","LI":"新北里","LIN":"18鄰","STREET":"民生路","SECT":" ","MAREA":" ","LANE":" ","ALLEY":" ","HOUSE_NO":"１８３號","E_COORD97":179133.94,"N_COORD97":2578835.9900000002,"ADDRESS":"民生路１８３號","OBJECTID":306680},"geometry":{"x":179133.94000000041,"y":2578835.9900000002}},{"attributes":{"ID":306689,"DIS_CODE":0,"TOWNNAME":"新營區","LI":"埤寮里","LIN":"13鄰","STREET":"中正路","SECT":" ","MAREA":" ","LANE":" ","ALLEY":" ","HOUSE_NO":"４７１號","E_COORD97":180048.87,"N_COORD97":2580440.7599999998,"ADDRESS":"中正路４７１號","OBJECTID":306681},"geometry":{"x":180048.87000000104,"y":2580440.7599999998}},{"attributes":{"ID":306690,"DIS_CODE":0,"TOWNNAME":"新營區","LI":"大宏里","LIN":"10鄰","STREET":"民治路","SECT":" ","MAREA":" ","LANE":" ","ALLEY":" ","HOUSE_NO":"２７號之１０","E_COORD97":180192.20999999999,"N_COORD97":2578864.2400000002,"ADDRESS":"民治路２７號之１０","OBJECTID":306682},"geometry":{"x":180192.21000000089,"y":2578864.2400000002}},{"attributes":{"ID":306691,"DIS_CODE":0,"TOWNNAME":"新營區","LI":"太南里","LIN":"4鄰","STREET":" ","SECT":" ","MAREA":"太子宮","LANE":" ","ALLEY":" ","HOUSE_NO":"３３２之８號","E_COORD97":176334.35000000001,"N_COORD97":2577065.6000000001,"ADDRESS":"太子宮３３２之８號","OBJECTID":306683},"geometry":{"x":176334.35000000056,"y":2577065.5999999978}},{"attributes":{"ID":306692,"DIS_CODE":0,"TOWNNAME":"新營區","LI":"鐵線里","LIN":" ","STREET":" ","SECT":" ","MAREA":"鐵線橋","LANE":" ","ALLEY":" ","HOUSE_NO":"１０２號","E_COORD97":175975.45000000001,"N_COORD97":2574131.4500000002,"ADDRESS":"鐵線橋１０２號","OBJECTID":306684},"geometry":{"x":175975.45000000019,"y":2574131.4500000011}},{"attributes":{"ID":306693,"DIS_CODE":0,"TOWNNAME":"南區","LI":"建南里","LIN":"8鄰","STREET":"德興路","SECT":" ","MAREA":" ","LANE":"２１０巷","ALLEY":" ","HOUSE_NO":"１９號","E_COORD97":167151.03,"N_COORD97":2540150.9100000001,"ADDRESS":"德興路２１０巷１９號","OBJECTID":306685},"geometry":{"x":167151.03000000119,"y":2540150.910000002}},{"attributes":{"ID":306694,"DIS_CODE":0,"TOWNNAME":"南區","LI":"建南里","LIN":"8鄰","STREET":"德興路","SECT":" ","MAREA":" ","LANE":"２１０巷","ALLEY":" ","HOUSE_NO":"２０號","E_COORD97":167147.82999999999,"N_COORD97":2540172.6499999999,"ADDRESS":"德興路２１０巷２０號","OBJECTID":306686},"geometry":{"x":167147.83000000007,"y":2540172.6500000022}},{"attributes":{"ID":306695,"DIS_CODE":0,"TOWNNAME":"新營區","LI":"五興里","LIN":" ","STREET":" ","SECT":" ","MAREA":"五間厝","LANE":" ","ALLEY":" ","HOUSE_NO":"７３之１３號","E_COORD97":175898.26000000001,"N_COORD97":2574764.25,"ADDRESS":"五間厝７３之１３號","OBJECTID":306687},"geometry":{"x":175898.25999999978,"y":2574764.2500000019}},{"attributes":{"ID":306696,"DIS_CODE":0,"TOWNNAME":"南區","LI":"建南里","LIN":"8鄰","STREET":"德興路","SECT":" ","MAREA":" ","LANE":"２１０巷","ALLEY":" ","HOUSE_NO":"２１號","E_COORD97":167145.91,"N_COORD97":2540150.5499999998,"ADDRESS":"德興路２１０巷２１號","OBJECTID":306688},"geometry":{"x":167145.91000000015,"y":2540150.5500000026}},{"attributes":{"ID":306697,"DIS_CODE":0,"TOWNNAME":"新營區","LI":"姑爺里","LIN":"7鄰","STREET":" ","SECT":" ","MAREA":"挖仔","LANE":" ","ALLEY":" ","HOUSE_NO":"８號之２","E_COORD97":173739.17000000001,"N_COORD97":2575584.7400000002,"ADDRESS":"挖仔８之２號","OBJECTID":306689},"geometry":{"x":173739.17000000086,"y":2575584.7400000021}},{"attributes":{"ID":306698,"DIS_CODE":0,"TOWNNAME":"新營區","LI":"埤寮里","LIN":"4鄰","STREET":" ","SECT":" ","MAREA":"許丑","LANE":" ","ALLEY":" ","HOUSE_NO":"４２之１６號","E_COORD97":179782.75,"N_COORD97":2580949.2999999998,"ADDRESS":"許丑４２之１６號","OBJECTID":306690},"geometry":{"x":179782.75,"y":2580949.3000000026}},{"attributes":{"ID":306699,"DIS_CODE":0,"TOWNNAME":"南區","LI":"建南里","LIN":"8鄰","STREET":"德興路","SECT":" ","MAREA":" ","LANE":"２１０巷","ALLEY":" ","HOUSE_NO":"２２號","E_COORD97":167142.89999999999,"N_COORD97":2540172.4700000002,"ADDRESS":"德興路２１０巷２２號","OBJECTID":306691},"geometry":{"x":167142.89999999944,"y":2540172.4700000007}},{"attributes":{"ID":306700,"DIS_CODE":0,"TOWNNAME":"新營區","LI":"太南里","LIN":"4鄰","STREET":" ","SECT":" ","MAREA":"太子宮","LANE":" ","ALLEY":" ","HOUSE_NO":"３３２之４號","E_COORD97":176329.32999999999,"N_COORD97":2577084.4500000002,"ADDRESS":"太子宮３３２之４號","OBJECTID":306692},"geometry":{"x":176329.32999999914,"y":2577084.4500000011}},{"attributes":{"ID":306701,"DIS_CODE":0,"TOWNNAME":"新營區","LI":"太北里","LIN":"4鄰","STREET":" ","SECT":" ","MAREA":"太子宮","LANE":" ","ALLEY":" ","HOUSE_NO":"３１號","E_COORD97":175998.91,"N_COORD97":2577220.02,"ADDRESS":"太子宮３１號","OBJECTID":306693},"geometry":{"x":175998.91000000108,"y":2577220.0200000014}},{"attributes":{"ID":306702,"DIS_CODE":0,"TOWNNAME":"新營區","LI":"護鎮里","LIN":"4鄰","STREET":" ","SECT":" ","MAREA":"後鎮","LANE":" ","ALLEY":" ","HOUSE_NO":"４３號之１９","E_COORD97":179157.12,"N_COORD97":2581214.7599999998,"ADDRESS":"後鎮４３之１９號","OBJECTID":306694},"geometry":{"x":179157.12000000104,"y":2581214.7600000035}},{"attributes":{"ID":306703,"DIS_CODE":0,"TOWNNAME":"南區","LI":"建南里","LIN":"8鄰","STREET":"德興路","SECT":" ","MAREA":" ","LANE":"２１０巷","ALLEY":" ","HOUSE_NO":"２３號","E_COORD97":167142.44,"N_COORD97":2540150.5499999998,"ADDRESS":"德興路２１０巷２３號","OBJECTID":306695},"geometry":{"x":167142.44000000041,"y":2540150.5500000026}},{"attributes":{"ID":306704,"DIS_CODE":0,"TOWNNAME":"南區","LI":"建南里","LIN":"8鄰","STREET":"德興路","SECT":" ","MAREA":" ","LANE":"２１０巷","ALLEY":" ","HOUSE_NO":"２４號","E_COORD97":167137.41,"N_COORD97":2540172.8300000001,"ADDRESS":"德興路２１０巷２４號","OBJECTID":306696},"geometry":{"x":167137.41000000015,"y":2540172.8300000001}},{"attributes":{"ID":306705,"DIS_CODE":0,"TOWNNAME":"南區","LI":"建南里","LIN":"8鄰","STREET":"德興路","SECT":" ","MAREA":" ","LANE":"２１０巷","ALLEY":" ","HOUSE_NO":"２５號","E_COORD97":167137.14000000001,"N_COORD97":2540151.1000000001,"ADDRESS":"德興路２１０巷２５號","OBJECTID":306697},"geometry":{"x":167137.13999999873,"y":2540151.0999999978}},{"attributes":{"ID":306706,"DIS_CODE":0,"TOWNNAME":"南區","LI":"建南里","LIN":"8鄰","STREET":"德興路","SECT":" ","MAREA":" ","LANE":"２１０巷","ALLEY":" ","HOUSE_NO":"２６號","E_COORD97":167130.38,"N_COORD97":2540173,"ADDRESS":"德興路２１０巷２６號","OBJECTID":306698},"geometry":{"x":167130.37999999989,"y":2540173.0000000037}},{"attributes":{"ID":306707,"DIS_CODE":0,"TOWNNAME":"南區","LI":"建南里","LIN":"8鄰","STREET":"德興路","SECT":" ","MAREA":" ","LANE":"２１０巷","ALLEY":" ","HOUSE_NO":"２７號","E_COORD97":167132.94,"N_COORD97":2540151.1000000001,"ADDRESS":"德興路２１０巷２７號","OBJECTID":306699},"geometry":{"x":167132.94000000134,"y":2540151.0999999978}},{"attributes":{"ID":306708,"DIS_CODE":0,"TOWNNAME":"南區","LI":"建南里","LIN":"8鄰","STREET":"德興路","SECT":" ","MAREA":" ","LANE":"２１０巷","ALLEY":" ","HOUSE_NO":"２８號","E_COORD97":167122.14999999999,"N_COORD97":2540172.4500000002,"ADDRESS":"德興路２１０巷２８號","OBJECTID":306700},"geometry":{"x":167122.15000000037,"y":2540172.450000003}},{"attributes":{"ID":306709,"DIS_CODE":0,"TOWNNAME":"南區","LI":"建南里","LIN":"8鄰","STREET":"德興路","SECT":" ","MAREA":" ","LANE":"２１０巷","ALLEY":" ","HOUSE_NO":"２９號","E_COORD97":167128.37,"N_COORD97":2540151.6400000001,"ADDRESS":"德興路２１０巷２９號","OBJECTID":306701},"geometry":{"x":167128.37000000104,"y":2540151.6400000006}},{"attributes":{"ID":306710,"DIS_CODE":0,"TOWNNAME":"中西區","LI":"青年里","LIN":"17鄰","STREET":"青年路","SECT":" ","MAREA":" ","LANE":" ","ALLEY":" ","HOUSE_NO":"５號","E_COORD97":168564.35000000001,"N_COORD97":2543674.25,"ADDRESS":"青年路５號","OBJECTID":306702},"geometry":{"x":168564.34999999963,"y":2543674.2500000019}},{"attributes":{"ID":306711,"DIS_CODE":0,"TOWNNAME":"南區","LI":"建南里","LIN":"8鄰","STREET":"德興路","SECT":" ","MAREA":" ","LANE":"２１０巷","ALLEY":" ","HOUSE_NO":"３１號","E_COORD97":167124.35000000001,"N_COORD97":2540152.5600000001,"ADDRESS":"德興路２１０巷３１號","OBJECTID":306703},"geometry":{"x":167124.35000000056,"y":2540152.5600000042}},{"attributes":{"ID":306712,"DIS_CODE":0,"TOWNNAME":"安南區","LI":"頂安里","LIN":"17鄰","STREET":"北安路","SECT":"二段","MAREA":" ","LANE":" ","ALLEY":" ","HOUSE_NO":"４８６號","E_COORD97":168374.29999999999,"N_COORD97":2548455.1000000001,"ADDRESS":"北安路二段４８６號","OBJECTID":306704},"geometry":{"x":168374.30000000075,"y":2548455.1000000015}},{"attributes":{"ID":306713,"DIS_CODE":0,"TOWNNAME":"新營區","LI":"角帶里","LIN":"4鄰","STREET":" ","SECT":" ","MAREA":"角帶圍","LANE":" ","ALLEY":" ","HOUSE_NO":"５０號","E_COORD97":174784.64000000001,"N_COORD97":2575819.6600000001,"ADDRESS":"角帶圍５０號","OBJECTID":306705},"geometry":{"x":174784.6400000006,"y":2575819.660000002}},{"attributes":{"ID":306714,"DIS_CODE":0,"TOWNNAME":"新營區","LI":"護鎮里","LIN":"5鄰","STREET":" ","SECT":" ","MAREA":"後鎮","LANE":" ","ALLEY":" ","HOUSE_NO":"４９號之２","E_COORD97":179154.41,"N_COORD97":2581123.9500000002,"ADDRESS":"後鎮４９之２號","OBJECTID":306706},"geometry":{"x":179154.41000000015,"y":2581123.9499999993}},{"attributes":{"ID":306715,"DIS_CODE":0,"TOWNNAME":"新營區","LI":"大宏里","LIN":"6鄰","STREET":"三民路","SECT":" ","MAREA":" ","LANE":" ","ALLEY":" ","HOUSE_NO":"２６號之２","E_COORD97":180486.92000000001,"N_COORD97":2578504.0299999998,"ADDRESS":"三民路２６號之２","OBJECTID":306707},"geometry":{"x":180486.92000000179,"y":2578504.0300000012}},{"attributes":{"ID":306716,"DIS_CODE":0,"TOWNNAME":"新營區","LI":"大宏里","LIN":"13鄰","STREET":"文昌街","SECT":" ","MAREA":" ","LANE":" ","ALLEY":" ","HOUSE_NO":"４８號之３","E_COORD97":180259.09,"N_COORD97":2578342.3100000001,"ADDRESS":"文昌街４８號之３","OBJECTID":306708},"geometry":{"x":180259.09000000078,"y":2578342.3100000005}},{"attributes":{"ID":306717,"DIS_CODE":0,"TOWNNAME":"新營區","LI":"太南里","LIN":"4鄰","STREET":" ","SECT":" ","MAREA":"太子宮","LANE":" ","ALLEY":" ","HOUSE_NO":"３３６號","E_COORD97":176389.26999999999,"N_COORD97":2577092.9500000002,"ADDRESS":"太子宮３３６號","OBJECTID":306709},"geometry":{"x":176389.27000000048,"y":2577092.9499999993}},{"attributes":{"ID":306718,"DIS_CODE":0,"TOWNNAME":"南區","LI":"建南里","LIN":"8鄰","STREET":"德興路","SECT":" ","MAREA":" ","LANE":"２３２巷","ALLEY":" ","HOUSE_NO":"８號","E_COORD97":167175.75,"N_COORD97":2540123.7999999998,"ADDRESS":"德興路２３２巷８號","OBJECTID":306710},"geometry":{"x":167175.74999999907,"y":2540123.7999999989}},{"attributes":{"ID":306719,"DIS_CODE":0,"TOWNNAME":"新營區","LI":"埤寮里","LIN":"12鄰","STREET":" ","SECT":" ","MAREA":"埤寮","LANE":" ","ALLEY":" ","HOUSE_NO":"９８號之５","E_COORD97":180615.98999999999,"N_COORD97":2580748.2400000002,"ADDRESS":"埤寮９８號之５","OBJECTID":306711},"geometry":{"x":180615.99000000115,"y":2580748.2400000021}},{"attributes":{"ID":306720,"DIS_CODE":0,"TOWNNAME":"南區","LI":"建南里","LIN":"8鄰","STREET":"德興路","SECT":" ","MAREA":" ","LANE":"２３２巷","ALLEY":" ","HOUSE_NO":"１０號","E_COORD97":167172.64000000001,"N_COORD97":2540123.6099999999,"ADDRESS":"德興路２３２巷１０號","OBJECTID":306712},"geometry":{"x":167172.63999999966,"y":2540123.6099999994}},{"attributes":{"ID":306721,"DIS_CODE":0,"TOWNNAME":"新營區","LI":"土庫里","LIN":" ","STREET":" ","SECT":" ","MAREA":"土庫","LANE":" ","ALLEY":" ","HOUSE_NO":"１之４號","E_COORD97":183112.45999999999,"N_COORD97":2579900.6099999999,"ADDRESS":"土庫１之４號","OBJECTID":306713},"geometry":{"x":183112.45999999903,"y":2579900.6100000013}},{"attributes":{"ID":306722,"DIS_CODE":0,"TOWNNAME":"南區","LI":"建南里","LIN":"8鄰","STREET":"德興路","SECT":" ","MAREA":" ","LANE":"２３２巷","ALLEY":" ","HOUSE_NO":"１２號","E_COORD97":167168.25,"N_COORD97":2540123.7999999998,"ADDRESS":"德興路２３２巷１２號","OBJECTID":306714},"geometry":{"x":167168.25,"y":2540123.7999999989}},{"attributes":{"ID":306723,"DIS_CODE":0,"TOWNNAME":"南區","LI":"建南里","LIN":"8鄰","STREET":"德興路","SECT":" ","MAREA":" ","LANE":"２３２巷","ALLEY":" ","HOUSE_NO":"１４號","E_COORD97":167163.5,"N_COORD97":2540123.7999999998,"ADDRESS":"德興路２３２巷１４號","OBJECTID":306715},"geometry":{"x":167163.5,"y":2540123.7999999989}},{"attributes":{"ID":306724,"DIS_CODE":0,"TOWNNAME":"南區","LI":"建南里","LIN":"8鄰","STREET":"德興路","SECT":" ","MAREA":" ","LANE":"２３２巷","ALLEY":" ","HOUSE_NO":"１６號","E_COORD97":167159.29000000001,"N_COORD97":2540123.6099999999,"ADDRESS":"德興路２３２巷１６號","OBJECTID":306716},"geometry":{"x":167159.29000000097,"y":2540123.6099999994}},{"attributes":{"ID":306725,"DIS_CODE":0,"TOWNNAME":"南區","LI":"建南里","LIN":"8鄰","STREET":"德興路","SECT":" ","MAREA":" ","LANE":"２３２巷","ALLEY":" ","HOUSE_NO":"１８號","E_COORD97":167155.26999999999,"N_COORD97":2540123.98,"ADDRESS":"德興路２３２巷１８號","OBJECTID":306717},"geometry":{"x":167155.27000000048,"y":2540123.9800000023}},{"attributes":{"ID":306726,"DIS_CODE":0,"TOWNNAME":"南區","LI":"建南里","LIN":"8鄰","STREET":"德興路","SECT":" ","MAREA":" ","LANE":"２３２巷","ALLEY":" ","HOUSE_NO":"２０號","E_COORD97":167151.42999999999,"N_COORD97":2540123.4300000002,"ADDRESS":"德興路２３２巷２０號","OBJECTID":306718},"geometry":{"x":167151.4299999997,"y":2540123.4300000016}},{"attributes":{"ID":306727,"DIS_CODE":0,"TOWNNAME":"南區","LI":"建南里","LIN":"8鄰","STREET":"德興路","SECT":" ","MAREA":" ","LANE":"２３２巷","ALLEY":" ","HOUSE_NO":"２２號","E_COORD97":167148.14000000001,"N_COORD97":2540123.6099999999,"ADDRESS":"德興路２３２巷２２號","OBJECTID":306719},"geometry":{"x":167148.1400000006,"y":2540123.6099999994}},{"attributes":{"ID":306728,"DIS_CODE":0,"TOWNNAME":"南區","LI":"建南里","LIN":"8鄰","STREET":"德興路","SECT":" ","MAREA":" ","LANE":"２３２巷","ALLEY":" ","HOUSE_NO":"２４號","E_COORD97":167144.17000000001,"N_COORD97":2540123.6000000001,"ADDRESS":"德興路２３２巷２４號","OBJECTID":306720},"geometry":{"x":167144.17000000179,"y":2540123.5999999996}},{"attributes":{"ID":306729,"DIS_CODE":0,"TOWNNAME":"安南區","LI":"州北里","LIN":"17鄰","STREET":"安和路","SECT":"六段","MAREA":" ","LANE":" ","ALLEY":" ","HOUSE_NO":"２６號之８","E_COORD97":169624.12,"N_COORD97":2552357.5499999998,"ADDRESS":"安和路六段２６號之８","OBJECTID":306721},"geometry":{"x":169624.12000000011,"y":2552357.5500000007}},{"attributes":{"ID":306730,"DIS_CODE":0,"TOWNNAME":"中西區","LI":"天后里","LIN":"17鄰","STREET":"民族路","SECT":"二段","MAREA":" ","LANE":" ","ALLEY":" ","HOUSE_NO":"２８０號","E_COORD97":168066.23999999999,"N_COORD97":2544234.5899999999,"ADDRESS":"民族路二段２８０號","OBJECTID":306722},"geometry":{"x":168066.24000000209,"y":2544234.5900000017}},{"attributes":{"ID":306731,"DIS_CODE":0,"TOWNNAME":"新營區","LI":"土庫里","LIN":"1鄰","STREET":" ","SECT":" ","MAREA":"土庫","LANE":" ","ALLEY":" ","HOUSE_NO":"２號之１","E_COORD97":183100.79000000001,"N_COORD97":2580019.1600000001,"ADDRESS":"土庫２號之１","OBJECTID":306723},"geometry":{"x":183100.79000000097,"y":2580019.1600000039}},{"attributes":{"ID":306732,"DIS_CODE":0,"TOWNNAME":"新營區","LI":"太南里","LIN":" ","STREET":" ","SECT":" ","MAREA":"太子宮","LANE":" ","ALLEY":" ","HOUSE_NO":"２２６之５號","E_COORD97":176310.04999999999,"N_COORD97":2576915.1000000001,"ADDRESS":"太子宮２２６之５號","OBJECTID":306724},"geometry":{"x":176310.04999999981,"y":2576915.0999999996}},{"attributes":{"ID":306733,"DIS_CODE":0,"TOWNNAME":"新營區","LI":"太北里","LIN":"4鄰","STREET":" ","SECT":" ","MAREA":"太子宮","LANE":" ","ALLEY":" ","HOUSE_NO":"３４號","E_COORD97":175942.54000000001,"N_COORD97":2577199.27,"ADDRESS":"太子宮３４號","OBJECTID":306725},"geometry":{"x":175942.54000000004,"y":2577199.2699999996}},{"attributes":{"ID":306734,"DIS_CODE":0,"TOWNNAME":"新營區","LI":"嘉芳里","LIN":" ","STREET":" ","SECT":" ","MAREA":"茄苳腳","LANE":" ","ALLEY":" ","HOUSE_NO":"１２號","E_COORD97":177134.66,"N_COORD97":2578334.04,"ADDRESS":"茄苳腳１２號","OBJECTID":306726},"geometry":{"x":177134.66000000108,"y":2578334.040000001}},{"attributes":{"ID":306735,"DIS_CODE":0,"TOWNNAME":"新營區","LI":"太北里","LIN":"20鄰","STREET":" ","SECT":" ","MAREA":"太子宮","LANE":" ","ALLEY":" ","HOUSE_NO":"１４０號之２６","E_COORD97":175576.09,"N_COORD97":2576635.2599999998,"ADDRESS":"太子宮１４０號之２６","OBJECTID":306727},"geometry":{"x":175576.08999999985,"y":2576635.2600000016}},{"attributes":{"ID":306736,"DIS_CODE":0,"TOWNNAME":"新營區","LI":"護鎮里","LIN":" ","STREET":"中正路","SECT":" ","MAREA":" ","LANE":"４７９巷","ALLEY":" ","HOUSE_NO":"２６號","E_COORD97":179608,"N_COORD97":2580476.0699999998,"ADDRESS":"中正路４７９巷２６號","OBJECTID":306728},"geometry":{"x":179608,"y":2580476.0700000003}},{"attributes":{"ID":306737,"DIS_CODE":0,"TOWNNAME":"新營區","LI":"民榮里","LIN":" ","STREET":"裕民路","SECT":" ","MAREA":" ","LANE":"３４巷","ALLEY":" ","HOUSE_NO":"２５之３號","E_COORD97":179051.89999999999,"N_COORD97":2577876.27,"ADDRESS":"裕民路３４巷２５之３號","OBJECTID":306729},"geometry":{"x":179051.9000000013,"y":2577876.2700000014}},{"attributes":{"ID":306738,"DIS_CODE":0,"TOWNNAME":"新營區","LI":"民榮里","LIN":" ","STREET":"和平路","SECT":" ","MAREA":" ","LANE":"１６巷","ALLEY":" ","HOUSE_NO":"３號","E_COORD97":179368.45999999999,"N_COORD97":2577901.27,"ADDRESS":"和平路１６巷３號","OBJECTID":306730},"geometry":{"x":179368.46000000089,"y":2577901.2699999996}},{"attributes":{"ID":306739,"DIS_CODE":0,"TOWNNAME":"南區","LI":"建南里","LIN":"8鄰","STREET":"德興路","SECT":" ","MAREA":" ","LANE":"２３２巷","ALLEY":" ","HOUSE_NO":"２６號","E_COORD97":167140.17000000001,"N_COORD97":2540123.6000000001,"ADDRESS":"德興路２３２巷２６號","OBJECTID":306731},"geometry":{"x":167140.16999999993,"y":2540123.5999999996}},{"attributes":{"ID":306740,"DIS_CODE":0,"TOWNNAME":"南區","LI":"建南里","LIN":"8鄰","STREET":"德興路","SECT":" ","MAREA":" ","LANE":"２３２巷","ALLEY":" ","HOUSE_NO":"２８號","E_COORD97":167135.81,"N_COORD97":2540123.48,"ADDRESS":"德興路２３２巷２８號","OBJECTID":306732},"geometry":{"x":167135.80999999959,"y":2540123.4800000023}},{"attributes":{"ID":306741,"DIS_CODE":0,"TOWNNAME":"南區","LI":"建南里","LIN":"8鄰","STREET":"德興路","SECT":" ","MAREA":" ","LANE":"２３２巷","ALLEY":" ","HOUSE_NO":"３０號","E_COORD97":167131.81,"N_COORD97":2540123.7200000002,"ADDRESS":"德興路２３２巷３０號","OBJECTID":306733},"geometry":{"x":167131.80999999959,"y":2540123.7200000007}},{"attributes":{"ID":306742,"DIS_CODE":0,"TOWNNAME":"南區","LI":"建南里","LIN":"8鄰","STREET":"德興路","SECT":" ","MAREA":" ","LANE":"２３２巷","ALLEY":" ","HOUSE_NO":"３２號","E_COORD97":167127.92000000001,"N_COORD97":2540123.3599999999,"ADDRESS":"德興路２３２巷３２號","OBJECTID":306734},"geometry":{"x":167127.92000000086,"y":2540123.3600000013}},{"attributes":{"ID":306743,"DIS_CODE":0,"TOWNNAME":"南區","LI":"建南里","LIN":"8鄰","STREET":"德興路","SECT":" ","MAREA":" ","LANE":"２３２巷","ALLEY":" ","HOUSE_NO":"３４號","E_COORD97":167124.73999999999,"N_COORD97":2540123.25,"ADDRESS":"德興路２３２巷３４號","OBJECTID":306735},"geometry":{"x":167124.74000000022,"y":2540123.25}},{"attributes":{"ID":306744,"DIS_CODE":0,"TOWNNAME":"南區","LI":"建南里","LIN":"8鄰","STREET":"德興路","SECT":" ","MAREA":" ","LANE":"２３２巷","ALLEY":" ","HOUSE_NO":"３８號","E_COORD97":167115.67999999999,"N_COORD97":2540124.0699999998,"ADDRESS":"德興路２３２巷３８號","OBJECTID":306736},"geometry":{"x":167115.68000000063,"y":2540124.0700000003}},{"attributes":{"ID":306745,"DIS_CODE":0,"TOWNNAME":"中西區","LI":"天后里","LIN":"17鄰","STREET":"民族路","SECT":"二段","MAREA":" ","LANE":" ","ALLEY":" ","HOUSE_NO":"２８２號","E_COORD97":168059.91,"N_COORD97":2544239.73,"ADDRESS":"民族路二段２８２號","OBJECTID":306737},"geometry":{"x":168059.91000000201,"y":2544239.7300000004}},{"attributes":{"ID":306746,"DIS_CODE":0,"TOWNNAME":"中西區","LI":"天后里","LIN":"17鄰","STREET":"民族路","SECT":"二段","MAREA":" ","LANE":" ","ALLEY":" ","HOUSE_NO":"２８４號","E_COORD97":168055.95999999999,"N_COORD97":2544242.3599999999,"ADDRESS":"民族路二段２８４號","OBJECTID":306738},"geometry":{"x":168055.96000000183,"y":2544242.3600000013}},{"attributes":{"ID":306747,"DIS_CODE":0,"TOWNNAME":"中西區","LI":"天后里","LIN":"17鄰","STREET":"西門路","SECT":"二段","MAREA":" ","LANE":" ","ALLEY":" ","HOUSE_NO":"３３０號","E_COORD97":168054.51000000001,"N_COORD97":2544248.0299999998,"ADDRESS":"西門路二段３３０號","OBJECTID":306739},"geometry":{"x":168054.50999999978,"y":2544248.0300000012}},{"attributes":{"ID":306748,"DIS_CODE":0,"TOWNNAME":"新營區","LI":"埤寮里","LIN":"2鄰","STREET":" ","SECT":" ","MAREA":"許丑","LANE":" ","ALLEY":" ","HOUSE_NO":"２２號之３","E_COORD97":180033.17999999999,"N_COORD97":2580971.3599999999,"ADDRESS":"許丑２２號之３","OBJECTID":306740},"geometry":{"x":180033.1799999997,"y":2580971.3599999994}},{"attributes":{"ID":306749,"DIS_CODE":0,"TOWNNAME":"新營區","LI":"嘉芳里","LIN":"2鄰","STREET":" ","SECT":" ","MAREA":"茄苳腳","LANE":" ","ALLEY":" ","HOUSE_NO":"２４號之１","E_COORD97":177091.66,"N_COORD97":2578426.23,"ADDRESS":"茄苳腳２４之１號","OBJECTID":306741},"geometry":{"x":177091.65999999922,"y":2578426.2300000023}},{"attributes":{"ID":306750,"DIS_CODE":0,"TOWNNAME":"新營區","LI":"太北里","LIN":"18鄰","STREET":" ","SECT":" ","MAREA":"太子宮","LANE":" ","ALLEY":" ","HOUSE_NO":"８號之１","E_COORD97":176262.45000000001,"N_COORD97":2577175.5800000001,"ADDRESS":"太子宮８號之１","OBJECTID":306742},"geometry":{"x":176262.45000000019,"y":2577175.5800000019}},{"attributes":{"ID":306751,"DIS_CODE":0,"TOWNNAME":"新營區","LI":"埤寮里","LIN":"4鄰","STREET":" ","SECT":" ","MAREA":"許丑","LANE":" ","ALLEY":" ","HOUSE_NO":"４２之１３號","E_COORD97":179783.72,"N_COORD97":2580937.1200000001,"ADDRESS":"許丑４２之１３號","OBJECTID":306743},"geometry":{"x":179783.72000000067,"y":2580937.1200000029}},{"attributes":{"ID":306752,"DIS_CODE":0,"TOWNNAME":"新營區","LI":"嘉芳里","LIN":" ","STREET":" ","SECT":" ","MAREA":"茄苳腳","LANE":" ","ALLEY":" ","HOUSE_NO":"２２之１號","E_COORD97":177083.14999999999,"N_COORD97":2578359.8199999998,"ADDRESS":"茄苳腳２２之１號","OBJECTID":306744},"geometry":{"x":177083.15000000037,"y":2578359.8200000003}},{"attributes":{"ID":306753,"DIS_CODE":0,"TOWNNAME":"新營區","LI":"護鎮里","LIN":"5鄰","STREET":" ","SECT":" ","MAREA":"後鎮","LANE":" ","ALLEY":" ","HOUSE_NO":"５９之１４號","E_COORD97":179107.98999999999,"N_COORD97":2581218.3100000001,"ADDRESS":"後鎮５９之１４號","OBJECTID":306745},"geometry":{"x":179107.99000000022,"y":2581218.3099999987}},{"attributes":{"ID":306754,"DIS_CODE":0,"TOWNNAME":"新營區","LI":"護鎮里","LIN":" ","STREET":" ","SECT":" ","MAREA":"後鎮","LANE":" ","ALLEY":" ","HOUSE_NO":"８５之２１號","E_COORD97":179210.89000000001,"N_COORD97":2580915.48,"ADDRESS":"後鎮８５之２１號","OBJECTID":306746},"geometry":{"x":179210.8900000006,"y":2580915.4800000042}},{"attributes":{"ID":306755,"DIS_CODE":0,"TOWNNAME":"新營區","LI":"王公里","LIN":"8鄰","STREET":"民治路","SECT":" ","MAREA":" ","LANE":" ","ALLEY":" ","HOUSE_NO":"２４號之６","E_COORD97":180237.10999999999,"N_COORD97":2578889.5,"ADDRESS":"民治路２４號之６","OBJECTID":306747},"geometry":{"x":180237.11000000127,"y":2578889.5}},{"attributes":{"ID":306756,"DIS_CODE":0,"TOWNNAME":"新營區","LI":"王公里","LIN":"8鄰","STREET":"民治路","SECT":" ","MAREA":" ","LANE":" ","ALLEY":" ","HOUSE_NO":"２４號之２","E_COORD97":180254.5,"N_COORD97":2578890.52,"ADDRESS":"民治路２４號之２","OBJECTID":306748},"geometry":{"x":180254.50000000093,"y":2578890.5200000033}},{"attributes":{"ID":306757,"DIS_CODE":0,"TOWNNAME":"新營區","LI":"新東里","LIN":" ","STREET":"東泰街","SECT":" ","MAREA":" ","LANE":"１６巷","ALLEY":" ","HOUSE_NO":"２１號","E_COORD97":181216.87,"N_COORD97":2579492.0699999998,"ADDRESS":"東泰街１６巷２１號","OBJECTID":306749},"geometry":{"x":181216.87000000104,"y":2579492.0700000022}},{"attributes":{"ID":306758,"DIS_CODE":0,"TOWNNAME":"南區","LI":"建南里","LIN":"8鄰","STREET":"德興路","SECT":" ","MAREA":" ","LANE":"２３２巷","ALLEY":" ","HOUSE_NO":"４０號","E_COORD97":167111.32000000001,"N_COORD97":2540123.6000000001,"ADDRESS":"德興路２３２巷４０號","OBJECTID":306750},"geometry":{"x":167111.32000000216,"y":2540123.5999999996}},{"attributes":{"ID":306759,"DIS_CODE":0,"TOWNNAME":"南區","LI":"建南里","LIN":"8鄰","STREET":"德興路","SECT":" ","MAREA":" ","LANE":"２３２巷","ALLEY":" ","HOUSE_NO":"４２號","E_COORD97":167105.14999999999,"N_COORD97":2540122.8900000001,"ADDRESS":"德興路２３２巷４２號","OBJECTID":306751},"geometry":{"x":167105.15000000037,"y":2540122.8900000006}},{"attributes":{"ID":306760,"DIS_CODE":0,"TOWNNAME":"南區","LI":"省躬里","LIN":"8鄰","STREET":"省躬一街","SECT":" ","MAREA":" ","LANE":"２巷","ALLEY":" ","HOUSE_NO":"２０號","E_COORD97":165737.64000000001,"N_COORD97":2537138.7000000002,"ADDRESS":"省躬一街２巷２０號","OBJECTID":306752},"geometry":{"x":165737.6400000006,"y":2537138.6999999993}},{"attributes":{"ID":306761,"DIS_CODE":0,"TOWNNAME":"中西區","LI":"天后里","LIN":"17鄰","STREET":"西門路","SECT":"二段","MAREA":" ","LANE":" ","ALLEY":" ","HOUSE_NO":"３３４號","E_COORD97":168050.92000000001,"N_COORD97":2544257.4100000001,"ADDRESS":"西門路二段３３４號","OBJECTID":306753},"geometry":{"x":168050.91999999899,"y":2544257.4100000001}},{"attributes":{"ID":306762,"DIS_CODE":0,"TOWNNAME":"中西區","LI":"天后里","LIN":"17鄰","STREET":"西門路","SECT":"二段","MAREA":" ","LANE":" ","ALLEY":" ","HOUSE_NO":"３３６號","E_COORD97":168050.39999999999,"N_COORD97":2544260.71,"ADDRESS":"西門路二段３３６號","OBJECTID":306754},"geometry":{"x":168050.4000000013,"y":2544260.7100000009}},{"attributes":{"ID":306763,"DIS_CODE":0,"TOWNNAME":"中西區","LI":"天后里","LIN":"17鄰","STREET":"西門路","SECT":"二段","MAREA":" ","LANE":" ","ALLEY":" ","HOUSE_NO":"３３８號","E_COORD97":168047.76000000001,"N_COORD97":2544264.2599999998,"ADDRESS":"西門路二段３３８號","OBJECTID":306755},"geometry":{"x":168047.75999999978,"y":2544264.2600000016}},{"attributes":{"ID":306764,"DIS_CODE":0,"TOWNNAME":"新營區","LI":"太北里","LIN":"16鄰","STREET":" ","SECT":" ","MAREA":"太子宮","LANE":" ","ALLEY":" ","HOUSE_NO":"１３２號之７","E_COORD97":175895.54000000001,"N_COORD97":2576887.27,"ADDRESS":"太子宮１３２號之７","OBJECTID":306756},"geometry":{"x":175895.53999999911,"y":2576887.2699999996}},{"attributes":{"ID":306765,"DIS_CODE":0,"TOWNNAME":"新營區","LI":"護鎮里","LIN":"1鄰","STREET":" ","SECT":" ","MAREA":"後鎮","LANE":" ","ALLEY":" ","HOUSE_NO":"３號之１１","E_COORD97":179609.29999999999,"N_COORD97":2581080.7999999998,"ADDRESS":"後鎮３之１１號","OBJECTID":306757},"geometry":{"x":179609.29999999981,"y":2581080.8000000026}},{"attributes":{"ID":306766,"DIS_CODE":0,"TOWNNAME":"新營區","LI":"護鎮里","LIN":"1鄰","STREET":" ","SECT":" ","MAREA":"後鎮","LANE":" ","ALLEY":" ","HOUSE_NO":"３號之７","E_COORD97":179607.98000000001,"N_COORD97":2581064.1899999999,"ADDRESS":"後鎮３之７號","OBJECTID":306758},"geometry":{"x":179607.98000000138,"y":2581064.1899999995}},{"attributes":{"ID":306767,"DIS_CODE":0,"TOWNNAME":"新營區","LI":"王公里","LIN":"1","STREET":"中正路","SECT":" ","MAREA":" ","LANE":" ","ALLEY":" ","HOUSE_NO":"４４號之２","E_COORD97":180117.60999999999,"N_COORD97":2578922.1699999999,"ADDRESS":"中正路４４號之２","OBJECTID":306759},"geometry":{"x":180117.61000000034,"y":2578922.1699999999}},{"attributes":{"ID":306768,"DIS_CODE":0,"TOWNNAME":"新營區","LI":"新東里","LIN":"26鄰","STREET":"東興三街","SECT":" ","MAREA":" ","LANE":"２２巷","ALLEY":" ","HOUSE_NO":"４２之４號","E_COORD97":180696.79999999999,"N_COORD97":2579418.9100000001,"ADDRESS":"東興三街２２巷４２之４號","OBJECTID":306760},"geometry":{"x":180696.80000000075,"y":2579418.9100000001}},{"attributes":{"ID":306769,"DIS_CODE":0,"TOWNNAME":"新營區","LI":"忠政里","LIN":"13鄰","STREET":"中正路","SECT":" ","MAREA":" ","LANE":"７７巷","ALLEY":" ","HOUSE_NO":"１３之３號","E_COORD97":180031.06,"N_COORD97":2579671.23,"ADDRESS":"中正路７７巷１３之３號","OBJECTID":306761},"geometry":{"x":180031.05999999959,"y":2579671.2300000023}},{"attributes":{"ID":306770,"DIS_CODE":0,"TOWNNAME":"新化區","LI":"東榮里","LIN":"8鄰","STREET":"信義路","SECT":" ","MAREA":" ","LANE":"１１７巷","ALLEY":" ","HOUSE_NO":"２８號之３１","E_COORD97":179708.16,"N_COORD97":2548296.2599999998,"ADDRESS":"信義路１１７巷２８號之３１","OBJECTID":306762},"geometry":{"x":179708.16000000108,"y":2548296.2599999998}},{"attributes":{"ID":306771,"DIS_CODE":0,"TOWNNAME":"新化區","LI":"東榮里","LIN":"8鄰","STREET":"信義路","SECT":" ","MAREA":" ","LANE":"１１７巷","ALLEY":" ","HOUSE_NO":"２８號之４３","E_COORD97":179770.48000000001,"N_COORD97":2548295.2599999998,"ADDRESS":"信義路１１７巷２８號之４３","OBJECTID":306763},"geometry":{"x":179770.48000000138,"y":2548295.2600000016}},{"attributes":{"ID":306772,"DIS_CODE":0,"TOWNNAME":"新化區","LI":"東榮里","LIN":"8鄰","STREET":"信義路","SECT":" ","MAREA":" ","LANE":"１１７巷","ALLEY":" ","HOUSE_NO":"２８號之１８","E_COORD97":179766.98999999999,"N_COORD97":2548306.2599999998,"ADDRESS":"信義路１１７巷２８號之１８","OBJECTID":306764},"geometry":{"x":179766.99000000115,"y":2548306.2599999998}},{"attributes":{"ID":306773,"DIS_CODE":0,"TOWNNAME":"新化區","LI":"東榮里","LIN":"8鄰","STREET":"信義路","SECT":" ","MAREA":" ","LANE":"１１７巷","ALLEY":" ","HOUSE_NO":"２８號之３","E_COORD97":179752.73000000001,"N_COORD97":2548340.2599999998,"ADDRESS":"信義路１１７巷２８號之３","OBJECTID":306765},"geometry":{"x":179752.73000000045,"y":2548340.2599999998}},{"attributes":{"ID":306774,"DIS_CODE":0,"TOWNNAME":"新化區","LI":"東榮里","LIN":"8鄰","STREET":"信義路","SECT":" ","MAREA":" ","LANE":"１３１巷","ALLEY":" ","HOUSE_NO":"４１號","E_COORD97":179679.48000000001,"N_COORD97":2548288.25,"ADDRESS":"信義路１３１巷４１號","OBJECTID":306766},"geometry":{"x":179679.48000000045,"y":2548288.2500000019}},{"attributes":{"ID":306775,"DIS_CODE":0,"TOWNNAME":"新化區","LI":"東榮里","LIN":"8鄰","STREET":"信義路","SECT":" ","MAREA":" ","LANE":"１１７巷","ALLEY":" ","HOUSE_NO":"２８號之５４","E_COORD97":179764.26000000001,"N_COORD97":2548265.2599999998,"ADDRESS":"信義路１１７巷２８號之５４","OBJECTID":306767},"geometry":{"x":179764.26000000071,"y":2548265.2600000016}},{"attributes":{"ID":306776,"DIS_CODE":0,"TOWNNAME":"新化區","LI":"東榮里","LIN":"8鄰","STREET":"信義路","SECT":" ","MAREA":" ","LANE":"１１７巷","ALLEY":" ","HOUSE_NO":"２８號之１０","E_COORD97":179785.07000000001,"N_COORD97":2548342.2599999998,"ADDRESS":"信義路１１７巷２８號之１０","OBJECTID":306768},"geometry":{"x":179785.07000000123,"y":2548342.2600000016}},{"attributes":{"ID":306777,"DIS_CODE":0,"TOWNNAME":"新營區","LI":"南紙里","LIN":"25鄰","STREET":"建業路","SECT":" ","MAREA":" ","LANE":" ","ALLEY":" ","HOUSE_NO":"２３１號","E_COORD97":178107.76000000001,"N_COORD97":2577499.7999999998,"ADDRESS":"建業路２３１號","OBJECTID":306769},"geometry":{"x":178107.76000000164,"y":2577499.8000000045}},{"attributes":{"ID":306778,"DIS_CODE":0,"TOWNNAME":"中西區","LI":"天后里","LIN":"17鄰","STREET":"西門路","SECT":"二段","MAREA":" ","LANE":" ","ALLEY":" ","HOUSE_NO":"３４０號","E_COORD97":168046.17999999999,"N_COORD97":2544266.6400000001,"ADDRESS":"西門路二段３４０號","OBJECTID":306770},"geometry":{"x":168046.18000000063,"y":2544266.6400000006}},{"attributes":{"ID":306779,"DIS_CODE":0,"TOWNNAME":"中西區","LI":"天后里","LIN":"17鄰","STREET":"西門路","SECT":"二段","MAREA":" ","LANE":" ","ALLEY":" ","HOUSE_NO":"３４２號","E_COORD97":168044.85999999999,"N_COORD97":2544270.5899999999,"ADDRESS":"西門路二段３４２號","OBJECTID":306771},"geometry":{"x":168044.86000000034,"y":2544270.5899999999}},{"attributes":{"ID":306780,"DIS_CODE":0,"TOWNNAME":"中西區","LI":"天后里","LIN":"17鄰","STREET":"西門路","SECT":"二段","MAREA":" ","LANE":" ","ALLEY":" ","HOUSE_NO":"３４４號","E_COORD97":168042.22,"N_COORD97":2544273.2200000002,"ADDRESS":"西門路二段３４４號","OBJECTID":306772},"geometry":{"x":168042.22000000067,"y":2544273.2200000007}},{"attributes":{"ID":306781,"DIS_CODE":0,"TOWNNAME":"新營區","LI":"太北里","LIN":"16鄰","STREET":" ","SECT":" ","MAREA":"太子宮","LANE":" ","ALLEY":" ","HOUSE_NO":"１３２號之２","E_COORD97":175915.59642700001,"N_COORD97":2576898.0073299999,"ADDRESS":"太子宮１３２號之２","OBJECTID":306773},"geometry":{"x":175915.59642700106,"y":2576898.0073270015}},{"attributes":{"ID":306782,"DIS_CODE":0,"TOWNNAME":"新營區","LI":"姑爺里","LIN":" ","STREET":" ","SECT":" ","MAREA":"挖仔","LANE":" ","ALLEY":" ","HOUSE_NO":"４４之３３號","E_COORD97":174032.35999999999,"N_COORD97":2575610.9300000002,"ADDRESS":"挖仔４４之３３號","OBJECTID":306774},"geometry":{"x":174032.3599999994,"y":2575610.9299999997}},{"attributes":{"ID":306783,"DIS_CODE":0,"TOWNNAME":"新營區","LI":"姑爺里","LIN":" ","STREET":" ","SECT":" ","MAREA":"挖仔","LANE":" ","ALLEY":" ","HOUSE_NO":"３６之１１號","E_COORD97":173945.87,"N_COORD97":2575302.3900000001,"ADDRESS":"挖仔３６之１１號","OBJECTID":306775},"geometry":{"x":173945.87000000197,"y":2575302.3900000025}},{"attributes":{"ID":306784,"DIS_CODE":0,"TOWNNAME":"新營區","LI":"土庫里","LIN":"8鄰","STREET":" ","SECT":" ","MAREA":"土庫","LANE":" ","ALLEY":" ","HOUSE_NO":"７１號之３１","E_COORD97":182941.07000000001,"N_COORD97":2579888.1099999999,"ADDRESS":"土庫７１號之３１","OBJECTID":306776},"geometry":{"x":182941.07000000216,"y":2579888.1099999994}},{"attributes":{"ID":306785,"DIS_CODE":0,"TOWNNAME":"新營區","LI":"嘉芳里","LIN":" ","STREET":" ","SECT":" ","MAREA":"茄苳腳","LANE":" ","ALLEY":" ","HOUSE_NO":"２１之３號","E_COORD97":177080,"N_COORD97":2578345.4399999999,"ADDRESS":"茄苳腳２１之３號","OBJECTID":306777},"geometry":{"x":177080,"y":2578345.4400000013}},{"attributes":{"ID":306786,"DIS_CODE":0,"TOWNNAME":"新營區","LI":"舊部里","LIN":" ","STREET":" ","SECT":" ","MAREA":"舊部","LANE":" ","ALLEY":" ","HOUSE_NO":"５４號","E_COORD97":177125.87,"N_COORD97":2575293,"ADDRESS":"舊部５４號","OBJECTID":306778},"geometry":{"x":177125.87000000197,"y":2575293}},{"attributes":{"ID":306787,"DIS_CODE":0,"TOWNNAME":"新營區","LI":"土庫里","LIN":"5鄰","STREET":" ","SECT":" ","MAREA":"土庫","LANE":" ","ALLEY":" ","HOUSE_NO":"４３號","E_COORD97":183349.95999999999,"N_COORD97":2579982.5499999998,"ADDRESS":"土庫４３號","OBJECTID":306779},"geometry":{"x":183349.96000000183,"y":2579982.5500000007}},{"attributes":{"ID":306788,"DIS_CODE":0,"TOWNNAME":"新營區","LI":"鐵線里","LIN":" ","STREET":" ","SECT":" ","MAREA":"鐵線橋","LANE":" ","ALLEY":" ","HOUSE_NO":"６之４號","E_COORD97":176021.82000000001,"N_COORD97":2573991.73,"ADDRESS":"鐵線橋６之４號","OBJECTID":306780},"geometry":{"x":176021.82000000123,"y":2573991.7300000023}},{"attributes":{"ID":306789,"DIS_CODE":0,"TOWNNAME":"新營區","LI":"新東里","LIN":"20鄰","STREET":"東明街","SECT":" ","MAREA":" ","LANE":"２巷","ALLEY":" ","HOUSE_NO":"３５號","E_COORD97":180872.35999999999,"N_COORD97":2579545.5,"ADDRESS":"東明街２巷３５號","OBJECTID":306781},"geometry":{"x":180872.36000000034,"y":2579545.5000000037}},{"attributes":{"ID":306790,"DIS_CODE":0,"TOWNNAME":"新營區","LI":"中營里","LIN":"14鄰","STREET":"東山路","SECT":" ","MAREA":" ","LANE":"１９巷","ALLEY":" ","HOUSE_NO":"６９號","E_COORD97":181354.66,"N_COORD97":2578803.2599999998,"ADDRESS":"東山路１９巷６９號","OBJECTID":306782},"geometry":{"x":181354.66000000015,"y":2578803.2599999998}},{"attributes":{"ID":306791,"DIS_CODE":0,"TOWNNAME":"新營區","LI":"嘉芳里","LIN":" ","STREET":" ","SECT":" ","MAREA":"茄苳腳","LANE":" ","ALLEY":" ","HOUSE_NO":"５４號","E_COORD97":176869.67000000001,"N_COORD97":2578316.52,"ADDRESS":"茄苳腳５４號","OBJECTID":306783},"geometry":{"x":176869.67000000086,"y":2578316.5199999996}},{"attributes":{"ID":306792,"DIS_CODE":0,"TOWNNAME":"新營區","LI":"新東里","LIN":"24鄰","STREET":"民治路","SECT":" ","MAREA":" ","LANE":" ","ALLEY":" ","HOUSE_NO":"６之５６號","E_COORD97":180604.79000000001,"N_COORD97":2579049.4500000002,"ADDRESS":"民治路６之５６號","OBJECTID":306784},"geometry":{"x":180604.78999999911,"y":2579049.4499999993}},{"attributes":{"ID":306793,"DIS_CODE":0,"TOWNNAME":"新化區","LI":"東榮里","LIN":"8鄰","STREET":"信義路","SECT":" ","MAREA":" ","LANE":"１１７巷","ALLEY":" ","HOUSE_NO":"２８號之５","E_COORD97":179761.84,"N_COORD97":2548341.2599999998,"ADDRESS":"信義路１１７巷２８號之５","OBJECTID":306785},"geometry":{"x":179761.84000000171,"y":2548341.2599999998}},{"attributes":{"ID":306794,"DIS_CODE":0,"TOWNNAME":"新化區","LI":"東榮里","LIN":"8鄰","STREET":"信義路","SECT":" ","MAREA":" ","LANE":"１１７巷","ALLEY":" ","HOUSE_NO":"２８號之４２","E_COORD97":179765.78,"N_COORD97":2548295.2599999998,"ADDRESS":"信義路１１７巷２８號之４２","OBJECTID":306786},"geometry":{"x":179765.78000000026,"y":2548295.2600000016}},{"attributes":{"ID":306795,"DIS_CODE":0,"TOWNNAME":"新化區","LI":"東榮里","LIN":"8鄰","STREET":"信義路","SECT":" ","MAREA":" ","LANE":"１１７巷","ALLEY":" ","HOUSE_NO":"２８號之３３","E_COORD97":179719.67999999999,"N_COORD97":2548296.2599999998,"ADDRESS":"信義路１１７巷２８號之３３","OBJECTID":306787},"geometry":{"x":179719.6799999997,"y":2548296.2599999998}},{"attributes":{"ID":306796,"DIS_CODE":0,"TOWNNAME":"新化區","LI":"東榮里","LIN":"8鄰","STREET":"信義路","SECT":" ","MAREA":" ","LANE":"１３１巷","ALLEY":" ","HOUSE_NO":"４３號","E_COORD97":179680.17999999999,"N_COORD97":2548283.25,"ADDRESS":"信義路１３１巷４３號","OBJECTID":306788},"geometry":{"x":179680.18000000063,"y":2548283.25}},{"attributes":{"ID":306797,"DIS_CODE":0,"TOWNNAME":"中西區","LI":"天后里","LIN":"17鄰","STREET":"西門路","SECT":"二段","MAREA":" ","LANE":" ","ALLEY":" ","HOUSE_NO":"３４６號","E_COORD97":168039.85000000001,"N_COORD97":2544275.5899999999,"ADDRESS":"西門路二段３４６號","OBJECTID":306789},"geometry":{"x":168039.85000000056,"y":2544275.5900000017}},{"attributes":{"ID":306798,"DIS_CODE":0,"TOWNNAME":"中西區","LI":"天后里","LIN":"17鄰","STREET":"西門路","SECT":"二段","MAREA":" ","LANE":" ","ALLEY":" ","HOUSE_NO":"３４８號","E_COORD97":168037.34,"N_COORD97":2544277.9700000002,"ADDRESS":"西門路二段３４８號","OBJECTID":306790},"geometry":{"x":168037.33999999985,"y":2544277.9700000007}},{"attributes":{"ID":306799,"DIS_CODE":0,"TOWNNAME":"中西區","LI":"天后里","LIN":"17鄰","STREET":"西門路","SECT":"二段","MAREA":" ","LANE":" ","ALLEY":" ","HOUSE_NO":"３５０號","E_COORD97":168034.57000000001,"N_COORD97":2544280.7200000002,"ADDRESS":"西門路二段３５０號","OBJECTID":306791},"geometry":{"x":168034.5700000003,"y":2544280.7200000007}},{"attributes":{"ID":306800,"DIS_CODE":0,"TOWNNAME":"新營區","LI":"土庫里","LIN":"13鄰","STREET":" ","SECT":" ","MAREA":"土庫","LANE":" ","ALLEY":" ","HOUSE_NO":"１０９之１號","E_COORD97":183415.98999999999,"N_COORD97":2579748.6400000001,"ADDRESS":"土庫１０９之１號","OBJECTID":306792},"geometry":{"x":183415.98999999929,"y":2579748.6400000025}},{"attributes":{"ID":306801,"DIS_CODE":0,"TOWNNAME":"新營區","LI":"姑爺里","LIN":"6鄰","STREET":" ","SECT":" ","MAREA":"姑爺","LANE":" ","ALLEY":" ","HOUSE_NO":"４７號之１","E_COORD97":174324.66,"N_COORD97":2574795.4500000002,"ADDRESS":"姑爺４７之１號","OBJECTID":306793},"geometry":{"x":174324.66000000015,"y":2574795.4500000011}},{"attributes":{"ID":306802,"DIS_CODE":0,"TOWNNAME":"新營區","LI":"嘉芳里","LIN":" ","STREET":" ","SECT":" ","MAREA":"茄苳腳","LANE":" ","ALLEY":" ","HOUSE_NO":"５７之２６號","E_COORD97":176876.22,"N_COORD97":2578469.3799999999,"ADDRESS":"茄苳腳５７之２６號","OBJECTID":306794},"geometry":{"x":176876.22000000067,"y":2578469.379999999}},{"attributes":{"ID":306803,"DIS_CODE":0,"TOWNNAME":"新營區","LI":"大宏里","LIN":"25鄰","STREET":"同濟街","SECT":" ","MAREA":" ","LANE":"１３６巷","ALLEY":" ","HOUSE_NO":"３６號","E_COORD97":180554.10999999999,"N_COORD97":2578746.1899999999,"ADDRESS":"同濟街１３６巷３６號","OBJECTID":306795},"geometry":{"x":180554.11000000127,"y":2578746.1899999995}},{"attributes":{"ID":306804,"DIS_CODE":0,"TOWNNAME":"新營區","LI":"新東里","LIN":"25鄰","STREET":"民族路","SECT":" ","MAREA":" ","LANE":"１５０巷","ALLEY":" ","HOUSE_NO":"４８號","E_COORD97":180617.26000000001,"N_COORD97":2579347.25,"ADDRESS":"民族路１５０巷４８號","OBJECTID":306796},"geometry":{"x":180617.26000000071,"y":2579347.2500000019}},{"attributes":{"ID":306805,"DIS_CODE":0,"TOWNNAME":"新營區","LI":"太南里","LIN":"18鄰","STREET":" ","SECT":" ","MAREA":"太子宮","LANE":" ","ALLEY":" ","HOUSE_NO":"３０９之１４號","E_COORD97":175951.76999999999,"N_COORD97":2576612.3399999999,"ADDRESS":"太子宮３０９之１４號","OBJECTID":306797},"geometry":{"x":175951.77000000048,"y":2576612.3399999999}},{"attributes":{"ID":306806,"DIS_CODE":0,"TOWNNAME":"新營區","LI":"太北里","LIN":" ","STREET":" ","SECT":" ","MAREA":"太子宮","LANE":" ","ALLEY":" ","HOUSE_NO":"１４０之２１號","E_COORD97":175539.14999999999,"N_COORD97":2576763.9199999999,"ADDRESS":"太子宮１４０之２１號","OBJECTID":306798},"geometry":{"x":175539.15000000037,"y":2576763.9199999999}},{"attributes":{"ID":306807,"DIS_CODE":0,"TOWNNAME":"新化區","LI":"東榮里","LIN":"8鄰","STREET":"信義路","SECT":" ","MAREA":" ","LANE":"１１７巷","ALLEY":" ","HOUSE_NO":"２８號之１２","E_COORD97":179793.28,"N_COORD97":2548305.2599999998,"ADDRESS":"信義路１１７巷２８號之１２","OBJECTID":306799},"geometry":{"x":179793.28000000212,"y":2548305.2600000016}},{"attributes":{"ID":306808,"DIS_CODE":0,"TOWNNAME":"中西區","LI":"青年里","LIN":"17鄰","STREET":"青年路","SECT":" ","MAREA":" ","LANE":" ","ALLEY":" ","HOUSE_NO":"７號","E_COORD97":168570.35000000001,"N_COORD97":2543673.6699999999,"ADDRESS":"青年路７號","OBJECTID":306800},"geometry":{"x":168570.35000000056,"y":2543673.6699999981}}]}