{"displayFieldName":"TOWNNAME","fieldAliases":{"ID":"ID","DIS_CODE":"DIS_CODE","TOWNNAME":"TOWNNAME","LI":"LI","LIN":"LIN","STREET":"STREET","SECT":"SECT","MAREA":"MAREA","LANE":"LANE","ALLEY":"ALLEY","HOUSE_NO":"HOUSE_NO","E_COORD97":"E_COORD97","N_COORD97":"N_COORD97","ADDRESS":"ADDRESS","OBJECTID":"OBJECTID"},"geometryType":"esriGeometryPoint","spatialReference":{"wkid":102443,"latestWkid":3826},"fields":[{"name":"ID","type":"esriFieldTypeDouble","alias":"ID"},{"name":"DIS_CODE","type":"esriFieldTypeInteger","alias":"DIS_CODE"},{"name":"TOWNNAME","type":"esriFieldTypeString","alias":"TOWNNAME","length":8},{"name":"LI","type":"esriFieldTypeString","alias":"LI","length":8},{"name":"LIN","type":"esriFieldTypeString","alias":"LIN","length":12},{"name":"STREET","type":"esriFieldTypeString","alias":"STREET","length":20},{"name":"SECT","type":"esriFieldTypeString","alias":"SECT","length":8},{"name":"MAREA","type":"esriFieldTypeString","alias":"MAREA","length":12},{"name":"LANE","type":"esriFieldTypeString","alias":"LANE","length":10},{"name":"ALLEY","type":"esriFieldTypeString","alias":"ALLEY","length":10},{"name":"HOUSE_NO","type":"esriFieldTypeString","alias":"HOUSE_NO","length":20},{"name":"E_COORD97","type":"esriFieldTypeDouble","alias":"E_COORD97"},{"name":"N_COORD97","type":"esriFieldTypeDouble","alias":"N_COORD97"},{"name":"ADDRESS","type":"esriFieldTypeString","alias":"ADDRESS","length":50},{"name":"OBJECTID","type":"esriFieldTypeOID","alias":"OBJECTID"}],"features":[{"attributes":{"ID":150202,"DIS_CODE":0,"TOWNNAME":"柳營區","LI":"東昇里","LIN":"20鄰","STREET":" ","SECT":" ","MAREA":"柳營","LANE":" ","ALLEY":" ","HOUSE_NO":"４５５之４３號","E_COORD97":180425,"N_COORD97":2575613,"ADDRESS":"柳營４５５之４３號","OBJECTID":150201},"geometry":{"x":180425,"y":2575613.0000000019}},{"attributes":{"ID":150203,"DIS_CODE":0,"TOWNNAME":"柳營區","LI":"東昇里","LIN":"20鄰","STREET":" ","SECT":" ","MAREA":"柳營","LANE":" ","ALLEY":" ","HOUSE_NO":"４５５號之４４","E_COORD97":180429.85999999999,"N_COORD97":2575594,"ADDRESS":"柳營４５５號之４４","OBJECTID":150202},"geometry":{"x":180429.86000000034,"y":2575594}},{"attributes":{"ID":150204,"DIS_CODE":0,"TOWNNAME":"柳營區","LI":"東昇里","LIN":"20鄰","STREET":" ","SECT":" ","MAREA":"柳營","LANE":" ","ALLEY":" ","HOUSE_NO":"４５５號之４５","E_COORD97":180428.60999999999,"N_COORD97":2575581.0600000001,"ADDRESS":"柳營４５５號之４５","OBJECTID":150203},"geometry":{"x":180428.61000000127,"y":2575581.0600000005}},{"attributes":{"ID":150205,"DIS_CODE":0,"TOWNNAME":"柳營區","LI":"東昇里","LIN":"20鄰","STREET":" ","SECT":" ","MAREA":"柳營","LANE":" ","ALLEY":" ","HOUSE_NO":"４５５號之４６","E_COORD97":180428.69,"N_COORD97":2575571.77,"ADDRESS":"柳營４５５號之４６","OBJECTID":150204},"geometry":{"x":180428.69000000134,"y":2575571.7699999996}},{"attributes":{"ID":150206,"DIS_CODE":0,"TOWNNAME":"東山區","LI":"東原里","LIN":"20鄰","STREET":" ","SECT":" ","MAREA":"瓦厝子","LANE":" ","ALLEY":" ","HOUSE_NO":"４９號之１６","E_COORD97":194875.17000000001,"N_COORD97":2575113.8399999999,"ADDRESS":"瓦厝子４９號之１６","OBJECTID":150205},"geometry":{"x":194875.16999999993,"y":2575113.8399999999}},{"attributes":{"ID":150207,"DIS_CODE":0,"TOWNNAME":"東山區","LI":"東原里","LIN":"20鄰","STREET":" ","SECT":" ","MAREA":"瓦厝子","LANE":" ","ALLEY":" ","HOUSE_NO":"４９號之１７","E_COORD97":194813.19,"N_COORD97":2575071.04,"ADDRESS":"瓦厝子４９號之１７","OBJECTID":150206},"geometry":{"x":194813.19000000041,"y":2575071.0399999991}},{"attributes":{"ID":150208,"DIS_CODE":0,"TOWNNAME":"東山區","LI":"東原里","LIN":"20鄰","STREET":" ","SECT":" ","MAREA":"瓦厝子","LANE":" ","ALLEY":" ","HOUSE_NO":"４９號之１８","E_COORD97":194915.51999999999,"N_COORD97":2575143.25,"ADDRESS":"瓦厝子４９號之１８","OBJECTID":150207},"geometry":{"x":194915.52000000048,"y":2575143.2500000019}},{"attributes":{"ID":150209,"DIS_CODE":0,"TOWNNAME":"東山區","LI":"東原里","LIN":"20鄰","STREET":" ","SECT":" ","MAREA":"瓦厝子","LANE":" ","ALLEY":" ","HOUSE_NO":"４９號之３","E_COORD97":194884.03,"N_COORD97":2575188.0699999998,"ADDRESS":"瓦厝子４９號之３","OBJECTID":150208},"geometry":{"x":194884.03000000119,"y":2575188.0700000003}},{"attributes":{"ID":150210,"DIS_CODE":0,"TOWNNAME":"東山區","LI":"東原里","LIN":"20鄰","STREET":" ","SECT":" ","MAREA":"瓦厝子","LANE":" ","ALLEY":" ","HOUSE_NO":"４９號之４","E_COORD97":194856.89999999999,"N_COORD97":2575203.1600000001,"ADDRESS":"瓦厝子４９號之４","OBJECTID":150209},"geometry":{"x":194856.90000000037,"y":2575203.1600000001}},{"attributes":{"ID":150211,"DIS_CODE":0,"TOWNNAME":"東山區","LI":"東原里","LIN":"20鄰","STREET":" ","SECT":" ","MAREA":"瓦厝子","LANE":" ","ALLEY":" ","HOUSE_NO":"４９號之５","E_COORD97":194797.26999999999,"N_COORD97":2575247.1699999999,"ADDRESS":"瓦厝子４９號之５","OBJECTID":150210},"geometry":{"x":194797.27000000048,"y":2575247.1699999999}},{"attributes":{"ID":150212,"DIS_CODE":0,"TOWNNAME":"東山區","LI":"東原里","LIN":"20鄰","STREET":" ","SECT":" ","MAREA":"瓦厝子","LANE":" ","ALLEY":" ","HOUSE_NO":"４９號之６","E_COORD97":194884.97,"N_COORD97":2575116.6699999999,"ADDRESS":"瓦厝子４９號之６","OBJECTID":150211},"geometry":{"x":194884.96999999974,"y":2575116.6700000018}},{"attributes":{"ID":150213,"DIS_CODE":0,"TOWNNAME":"東山區","LI":"東原里","LIN":"20鄰","STREET":" ","SECT":" ","MAREA":"瓦厝子","LANE":" ","ALLEY":" ","HOUSE_NO":"４９號之７","E_COORD97":194890.29000000001,"N_COORD97":2575118.21,"ADDRESS":"瓦厝子４９號之７","OBJECTID":150212},"geometry":{"x":194890.2900000019,"y":2575118.2100000028}},{"attributes":{"ID":150214,"DIS_CODE":0,"TOWNNAME":"東山區","LI":"東原里","LIN":"20鄰","STREET":" ","SECT":" ","MAREA":"瓦厝子","LANE":" ","ALLEY":" ","HOUSE_NO":"４９號之８","E_COORD97":194895.48999999999,"N_COORD97":2575119.5899999999,"ADDRESS":"瓦厝子４９號之８","OBJECTID":150213},"geometry":{"x":194895.49000000022,"y":2575119.5899999999}},{"attributes":{"ID":150215,"DIS_CODE":0,"TOWNNAME":"東山區","LI":"東原里","LIN":"20鄰","STREET":" ","SECT":" ","MAREA":"瓦厝子","LANE":" ","ALLEY":" ","HOUSE_NO":"４９號之９","E_COORD97":195002.84,"N_COORD97":2575170.2000000002,"ADDRESS":"瓦厝子４９號之９","OBJECTID":150214},"geometry":{"x":195002.83999999985,"y":2575170.2000000011}},{"attributes":{"ID":150216,"DIS_CODE":0,"TOWNNAME":"東山區","LI":"東原里","LIN":"20鄰","STREET":" ","SECT":" ","MAREA":"瓦厝子","LANE":" ","ALLEY":" ","HOUSE_NO":"４９號","E_COORD97":194821.78,"N_COORD97":2575198.5899999999,"ADDRESS":"瓦厝子４９號","OBJECTID":150215},"geometry":{"x":194821.78000000119,"y":2575198.5900000017}},{"attributes":{"ID":150217,"DIS_CODE":0,"TOWNNAME":"麻豆區","LI":"寮\u25A0里","LIN":"20鄰","STREET":" ","SECT":" ","MAREA":"寮子\u25A0","LANE":" ","ALLEY":" ","HOUSE_NO":"１６６號之１０","E_COORD97":176248.95000000001,"N_COORD97":2565347.46,"ADDRESS":"寮子\u25A0１６６號之１０","OBJECTID":150216},"geometry":{"x":176248.94999999925,"y":2565347.4600000046}},{"attributes":{"ID":150218,"DIS_CODE":0,"TOWNNAME":"麻豆區","LI":"寮\u25A0里","LIN":"20鄰","STREET":" ","SECT":" ","MAREA":"寮子\u25A0","LANE":" ","ALLEY":" ","HOUSE_NO":"１６６號之１３","E_COORD97":176108.5,"N_COORD97":2565421.96,"ADDRESS":"寮子\u25A0１６６號之１３","OBJECTID":150217},"geometry":{"x":176108.50000000093,"y":2565421.959999999}},{"attributes":{"ID":150219,"DIS_CODE":0,"TOWNNAME":"白河區","LI":"白河里","LIN":"19鄰","STREET":"中山路","SECT":" ","MAREA":" ","LANE":" ","ALLEY":" ","HOUSE_NO":"３０８號","E_COORD97":190628.38,"N_COORD97":2583715.3300000001,"ADDRESS":"中山路３０８號","OBJECTID":150218},"geometry":{"x":190628.38000000082,"y":2583715.3300000001}},{"attributes":{"ID":150220,"DIS_CODE":0,"TOWNNAME":"白河區","LI":"白河里","LIN":"19鄰","STREET":"中山路","SECT":" ","MAREA":" ","LANE":" ","ALLEY":" ","HOUSE_NO":"３１０號","E_COORD97":190630.70000000001,"N_COORD97":2583718.9100000001,"ADDRESS":"中山路３１０號","OBJECTID":150219},"geometry":{"x":190630.70000000019,"y":2583718.9100000001}},{"attributes":{"ID":150221,"DIS_CODE":0,"TOWNNAME":"白河區","LI":"白河里","LIN":"19鄰","STREET":"中山路","SECT":" ","MAREA":" ","LANE":" ","ALLEY":" ","HOUSE_NO":"３１２號","E_COORD97":190633.38,"N_COORD97":2583722.8599999999,"ADDRESS":"中山路３１２號","OBJECTID":150220},"geometry":{"x":190633.38000000082,"y":2583722.8600000013}},{"attributes":{"ID":150222,"DIS_CODE":0,"TOWNNAME":"白河區","LI":"白河里","LIN":"19鄰","STREET":"中山路","SECT":" ","MAREA":" ","LANE":" ","ALLEY":" ","HOUSE_NO":"３１８之１號","E_COORD97":190703.92999999999,"N_COORD97":2583773.5699999998,"ADDRESS":"中山路３１８之１號","OBJECTID":150221},"geometry":{"x":190703.93000000063,"y":2583773.5700000022}},{"attributes":{"ID":150223,"DIS_CODE":0,"TOWNNAME":"白河區","LI":"白河里","LIN":"19鄰","STREET":"中山路","SECT":" ","MAREA":" ","LANE":" ","ALLEY":" ","HOUSE_NO":"３２２號","E_COORD97":190682.92999999999,"N_COORD97":2583779.6200000001,"ADDRESS":"中山路３２２號","OBJECTID":150222},"geometry":{"x":190682.9299999997,"y":2583779.620000001}},{"attributes":{"ID":150224,"DIS_CODE":0,"TOWNNAME":"白河區","LI":"白河里","LIN":"19鄰","STREET":"中山路","SECT":" ","MAREA":" ","LANE":" ","ALLEY":" ","HOUSE_NO":"３２６號","E_COORD97":190693.76999999999,"N_COORD97":2583798.8799999999,"ADDRESS":"中山路３２６號","OBJECTID":150223},"geometry":{"x":190693.76999999955,"y":2583798.879999999}},{"attributes":{"ID":150225,"DIS_CODE":0,"TOWNNAME":"東區","LI":"忠孝里","LIN":" ","STREET":"崇明路","SECT":" ","MAREA":" ","LANE":" ","ALLEY":" ","HOUSE_NO":"１６８號","E_COORD97":169762.19,"N_COORD97":2542245.98,"ADDRESS":"崇明路１６８號","OBJECTID":150224},"geometry":{"x":169762.19000000134,"y":2542245.9800000023}},{"attributes":{"ID":150226,"DIS_CODE":0,"TOWNNAME":"東區","LI":"忠孝里","LIN":"25鄰","STREET":"崇明三街","SECT":" ","MAREA":" ","LANE":" ","ALLEY":" ","HOUSE_NO":"３６號","E_COORD97":169638.60466899999,"N_COORD97":2542350.0566699998,"ADDRESS":"崇明三街３６號","OBJECTID":150225},"geometry":{"x":169638.60466900188,"y":2542350.0566739999}},{"attributes":{"ID":150227,"DIS_CODE":0,"TOWNNAME":"東區","LI":"東光里","LIN":" ","STREET":"東寧路","SECT":" ","MAREA":" ","LANE":" ","ALLEY":" ","HOUSE_NO":"５１１號","E_COORD97":171330.23999999999,"N_COORD97":2543393.71,"ADDRESS":"東寧路５１１號","OBJECTID":150226},"geometry":{"x":171330.24000000022,"y":2543393.7100000028}},{"attributes":{"ID":150228,"DIS_CODE":0,"TOWNNAME":"東區","LI":"忠孝里","LIN":"25鄰","STREET":"崇明四街","SECT":" ","MAREA":" ","LANE":" ","ALLEY":" ","HOUSE_NO":"５號","E_COORD97":169568.82999999999,"N_COORD97":2542288.1099999999,"ADDRESS":"崇明四街５號","OBJECTID":150227},"geometry":{"x":169568.83000000007,"y":2542288.1100000013}},{"attributes":{"ID":150229,"DIS_CODE":0,"TOWNNAME":"東區","LI":"東智里","LIN":" ","STREET":"德東街","SECT":" ","MAREA":" ","LANE":" ","ALLEY":" ","HOUSE_NO":"１０號","E_COORD97":170826.29000000001,"N_COORD97":2540236.29,"ADDRESS":"德東街１０號","OBJECTID":150228},"geometry":{"x":170826.29000000004,"y":2540236.2899999991}},{"attributes":{"ID":150230,"DIS_CODE":0,"TOWNNAME":"安南區","LI":"州南里","LIN":"3鄰","STREET":"安和路","SECT":"四段","MAREA":" ","LANE":"５３３巷","ALLEY":"１７２弄","HOUSE_NO":"２３號","E_COORD97":169526.42999999999,"N_COORD97":2551301.04,"ADDRESS":"安和路四段５３３巷１７２弄２３號","OBJECTID":150229},"geometry":{"x":169526.4299999997,"y":2551301.0399999991}},{"attributes":{"ID":150231,"DIS_CODE":0,"TOWNNAME":"安南區","LI":"州南里","LIN":"3鄰","STREET":"安和路","SECT":"四段","MAREA":" ","LANE":"５３３巷","ALLEY":"１７２弄","HOUSE_NO":"２５號","E_COORD97":169528.04999999999,"N_COORD97":2551306.1600000001,"ADDRESS":"安和路四段５３３巷１７２弄２５號","OBJECTID":150230},"geometry":{"x":169528.04999999981,"y":2551306.160000002}},{"attributes":{"ID":150232,"DIS_CODE":0,"TOWNNAME":"安南區","LI":"州南里","LIN":"3鄰","STREET":"安和路","SECT":"四段","MAREA":" ","LANE":"５３３巷","ALLEY":"１７２弄","HOUSE_NO":"２７號","E_COORD97":169532.91,"N_COORD97":2551311.2799999998,"ADDRESS":"安和路四段５３３巷１７２弄２７號","OBJECTID":150231},"geometry":{"x":169532.91000000201,"y":2551311.2800000012}},{"attributes":{"ID":150233,"DIS_CODE":0,"TOWNNAME":"安南區","LI":"州南里","LIN":"3鄰","STREET":"安和路","SECT":"四段","MAREA":" ","LANE":"５３３巷","ALLEY":"１７２弄","HOUSE_NO":"３號","E_COORD97":169527.78,"N_COORD97":2551256.8399999999,"ADDRESS":"安和路四段５３３巷１７２弄３號","OBJECTID":150232},"geometry":{"x":169527.78000000119,"y":2551256.8400000036}},{"attributes":{"ID":150234,"DIS_CODE":0,"TOWNNAME":"東區","LI":"東光里","LIN":" ","STREET":"東光路","SECT":"一段","MAREA":" ","LANE":" ","ALLEY":" ","HOUSE_NO":"６１號","E_COORD97":171174.95999999999,"N_COORD97":2543888.4399999999,"ADDRESS":"東光路一段６１號","OBJECTID":150233},"geometry":{"x":171174.95999999903,"y":2543888.4400000032}},{"attributes":{"ID":150235,"DIS_CODE":0,"TOWNNAME":"安南區","LI":"州南里","LIN":"3鄰","STREET":"安和路","SECT":"四段","MAREA":" ","LANE":"５３３巷","ALLEY":"１７２弄","HOUSE_NO":"４號","E_COORD97":169552.87,"N_COORD97":2551239.8700000001,"ADDRESS":"安和路四段５３３巷１７２弄４號","OBJECTID":150234},"geometry":{"x":169552.87000000011,"y":2551239.870000001}},{"attributes":{"ID":150236,"DIS_CODE":0,"TOWNNAME":"安南區","LI":"州南里","LIN":"3鄰","STREET":"安和路","SECT":"四段","MAREA":" ","LANE":"５３３巷","ALLEY":"１７２弄","HOUSE_NO":"５號","E_COORD97":169526.70000000001,"N_COORD97":2551261.1499999999,"ADDRESS":"安和路四段５３３巷１７２弄５號","OBJECTID":150235},"geometry":{"x":169526.70000000112,"y":2551261.1500000004}},{"attributes":{"ID":150237,"DIS_CODE":0,"TOWNNAME":"安南區","LI":"州南里","LIN":"3鄰","STREET":"安和路","SECT":"四段","MAREA":" ","LANE":"５３３巷","ALLEY":"１７２弄","HOUSE_NO":"６號","E_COORD97":169552.60000000001,"N_COORD97":2551244.4500000002,"ADDRESS":"安和路四段５３３巷１７２弄６號","OBJECTID":150236},"geometry":{"x":169552.59999999963,"y":2551244.4499999993}},{"attributes":{"ID":150238,"DIS_CODE":0,"TOWNNAME":"安南區","LI":"州南里","LIN":"3鄰","STREET":"安和路","SECT":"四段","MAREA":" ","LANE":"５３３巷","ALLEY":"１７２弄","HOUSE_NO":"７號","E_COORD97":169526.16,"N_COORD97":2551266.8100000001,"ADDRESS":"安和路四段５３３巷１７２弄７號","OBJECTID":150237},"geometry":{"x":169526.16000000201,"y":2551266.8100000005}},{"attributes":{"ID":150239,"DIS_CODE":0,"TOWNNAME":"安南區","LI":"州南里","LIN":"3鄰","STREET":"安和路","SECT":"四段","MAREA":" ","LANE":"５３３巷","ALLEY":"１７２弄","HOUSE_NO":"８號","E_COORD97":169553.67999999999,"N_COORD97":2551248.4900000002,"ADDRESS":"安和路四段５３３巷１７２弄８號","OBJECTID":150238},"geometry":{"x":169553.6799999997,"y":2551248.4900000002}},{"attributes":{"ID":150240,"DIS_CODE":0,"TOWNNAME":"安南區","LI":"州南里","LIN":"3鄰","STREET":"安和路","SECT":"四段","MAREA":" ","LANE":"５３３巷","ALLEY":"１７２弄","HOUSE_NO":"９號","E_COORD97":169525.07999999999,"N_COORD97":2551270.3199999998,"ADDRESS":"安和路四段５３３巷１７２弄９號","OBJECTID":150239},"geometry":{"x":169525.08000000101,"y":2551270.3200000003}},{"attributes":{"ID":150241,"DIS_CODE":0,"TOWNNAME":"東區","LI":"虎尾里","LIN":"3鄰","STREET":"東門路","SECT":"三段","MAREA":" ","LANE":"１７９巷","ALLEY":"１４７弄","HOUSE_NO":"５１號","E_COORD97":171752.79999999999,"N_COORD97":2542186.8100000001,"ADDRESS":"東門路三段１７９巷１４７弄５１號","OBJECTID":150240},"geometry":{"x":171752.80000000075,"y":2542186.8100000005}},{"attributes":{"ID":150242,"DIS_CODE":0,"TOWNNAME":"仁德區","LI":"成功里","LIN":"3鄰","STREET":"保生東路","SECT":" ","MAREA":" ","LANE":"２１８巷","ALLEY":"６６弄","HOUSE_NO":"１１號","E_COORD97":171218.44,"N_COORD97":2539625.5800000001,"ADDRESS":"保生東路２１８巷６６弄１１號","OBJECTID":150241},"geometry":{"x":171218.44000000134,"y":2539625.5800000001}},{"attributes":{"ID":150243,"DIS_CODE":0,"TOWNNAME":"仁德區","LI":"成功里","LIN":"3鄰","STREET":"保生東路","SECT":" ","MAREA":" ","LANE":"２１８巷","ALLEY":"６６弄","HOUSE_NO":"２２號","E_COORD97":171206.45000000001,"N_COORD97":2539657.5800000001,"ADDRESS":"保生東路２１８巷６６弄２２號","OBJECTID":150242},"geometry":{"x":171206.45000000112,"y":2539657.5800000019}},{"attributes":{"ID":150244,"DIS_CODE":0,"TOWNNAME":"東區","LI":"富裕里","LIN":"4鄰","STREET":"裕農路","SECT":" ","MAREA":" ","LANE":" ","ALLEY":" ","HOUSE_NO":"３２號","E_COORD97":170571.01999999999,"N_COORD97":2542846.2200000002,"ADDRESS":"裕農路３２號","OBJECTID":150243},"geometry":{"x":170571.02000000048,"y":2542846.2200000007}},{"attributes":{"ID":150245,"DIS_CODE":0,"TOWNNAME":"東區","LI":"富強里","LIN":" ","STREET":"裕農路","SECT":" ","MAREA":" ","LANE":" ","ALLEY":" ","HOUSE_NO":"３９０號","E_COORD97":171145.32000000001,"N_COORD97":2543098.1099999999,"ADDRESS":"裕農路３９０號","OBJECTID":150244},"geometry":{"x":171145.3200000003,"y":2543098.1100000013}},{"attributes":{"ID":150246,"DIS_CODE":0,"TOWNNAME":"麻豆區","LI":"寮\u25A0里","LIN":"20鄰","STREET":" ","SECT":" ","MAREA":"寮子\u25A0","LANE":" ","ALLEY":" ","HOUSE_NO":"１６６號之１７","E_COORD97":176126.5,"N_COORD97":2565464.29,"ADDRESS":"寮子\u25A0１６６號之１７","OBJECTID":150245},"geometry":{"x":176126.50000000186,"y":2565464.2899999991}},{"attributes":{"ID":150247,"DIS_CODE":0,"TOWNNAME":"麻豆區","LI":"寮\u25A0里","LIN":"20鄰","STREET":" ","SECT":" ","MAREA":"寮子\u25A0","LANE":" ","ALLEY":" ","HOUSE_NO":"１６６號之１","E_COORD97":176369.14000000001,"N_COORD97":2565450.2400000002,"ADDRESS":"寮子\u25A0１６６號之１","OBJECTID":150246},"geometry":{"x":176369.13999999873,"y":2565450.2400000039}},{"attributes":{"ID":150248,"DIS_CODE":0,"TOWNNAME":"麻豆區","LI":"寮\u25A0里","LIN":"20鄰","STREET":" ","SECT":" ","MAREA":"寮子\u25A0","LANE":" ","ALLEY":" ","HOUSE_NO":"１６６號之２０","E_COORD97":175879.01000000001,"N_COORD97":2565248.3700000001,"ADDRESS":"寮子\u25A0１６６號之２０","OBJECTID":150247},"geometry":{"x":175879.01000000071,"y":2565248.370000001}},{"attributes":{"ID":150249,"DIS_CODE":0,"TOWNNAME":"麻豆區","LI":"寮\u25A0里","LIN":"20鄰","STREET":" ","SECT":" ","MAREA":"寮子\u25A0","LANE":" ","ALLEY":" ","HOUSE_NO":"１６６號之２２","E_COORD97":176133.60999999999,"N_COORD97":2565438.79,"ADDRESS":"寮子\u25A0１６６號之２２","OBJECTID":150248},"geometry":{"x":176133.61000000127,"y":2565438.790000001}},{"attributes":{"ID":150250,"DIS_CODE":0,"TOWNNAME":"麻豆區","LI":"寮\u25A0里","LIN":"20鄰","STREET":" ","SECT":" ","MAREA":"寮子\u25A0","LANE":" ","ALLEY":" ","HOUSE_NO":"１６６號之２３","E_COORD97":176134.32000000001,"N_COORD97":2565434.4500000002,"ADDRESS":"寮子\u25A0１６６號之２３","OBJECTID":150249},"geometry":{"x":176134.3200000003,"y":2565434.4500000011}},{"attributes":{"ID":150251,"DIS_CODE":0,"TOWNNAME":"永康區","LI":"北灣里","LIN":"3鄰","STREET":"文賢街","SECT":" ","MAREA":" ","LANE":"１３６巷","ALLEY":"１弄","HOUSE_NO":"１６號","E_COORD97":175423.04000000001,"N_COORD97":2545598.48,"ADDRESS":"文賢街１３６巷１弄１６號","OBJECTID":150250},"geometry":{"x":175423.04000000097,"y":2545598.4800000023}},{"attributes":{"ID":150252,"DIS_CODE":0,"TOWNNAME":"永康區","LI":"王行里","LIN":"3鄰","STREET":"王行路","SECT":" ","MAREA":" ","LANE":"２４６巷","ALLEY":"９３弄","HOUSE_NO":"５號","E_COORD97":175837.31,"N_COORD97":2548172.7799999998,"ADDRESS":"王行路２４６巷９３弄５號","OBJECTID":150251},"geometry":{"x":175837.30999999866,"y":2548172.7800000012}},{"attributes":{"ID":150253,"DIS_CODE":0,"TOWNNAME":"永康區","LI":"北灣里","LIN":"3鄰","STREET":"文賢街","SECT":" ","MAREA":" ","LANE":"１３６巷","ALLEY":"１弄","HOUSE_NO":"６號","E_COORD97":175421.59,"N_COORD97":2545578.48,"ADDRESS":"文賢街１３６巷１弄６號","OBJECTID":150252},"geometry":{"x":175421.58999999985,"y":2545578.4800000023}},{"attributes":{"ID":150254,"DIS_CODE":0,"TOWNNAME":"仁德區","LI":"仁德里","LIN":"19鄰","STREET":"文華一街","SECT":" ","MAREA":" ","LANE":" ","ALLEY":" ","HOUSE_NO":"６號","E_COORD97":172223.45000000001,"N_COORD97":2540308.5800000001,"ADDRESS":"文華一街６號","OBJECTID":150253},"geometry":{"x":172223.45000000112,"y":2540308.5800000019}},{"attributes":{"ID":150255,"DIS_CODE":0,"TOWNNAME":"仁德區","LI":"仁德里","LIN":"19鄰","STREET":"文華路","SECT":"三段","MAREA":" ","LANE":" ","ALLEY":" ","HOUSE_NO":"１４３號","E_COORD97":172180.26999999999,"N_COORD97":2540322.0800000001,"ADDRESS":"文華路三段１４３號","OBJECTID":150254},"geometry":{"x":172180.27000000048,"y":2540322.0800000019}},{"attributes":{"ID":150256,"DIS_CODE":0,"TOWNNAME":"永康區","LI":"北灣里","LIN":"3鄰","STREET":"文賢街","SECT":" ","MAREA":" ","LANE":"１３６巷","ALLEY":"１弄","HOUSE_NO":"９號","E_COORD97":175411.67000000001,"N_COORD97":2545594.5,"ADDRESS":"文賢街１３６巷１弄９號","OBJECTID":150255},"geometry":{"x":175411.67000000179,"y":2545594.5000000019}},{"attributes":{"ID":150257,"DIS_CODE":0,"TOWNNAME":"永康區","LI":"北灣里","LIN":"3鄰","STREET":"文賢街","SECT":" ","MAREA":" ","LANE":"１３６巷","ALLEY":"１弄","HOUSE_NO":"１０號","E_COORD97":175423.13,"N_COORD97":2545588.48,"ADDRESS":"文賢街１３６巷１弄１０號","OBJECTID":150256},"geometry":{"x":175423.12999999989,"y":2545588.4800000023}},{"attributes":{"ID":150258,"DIS_CODE":0,"TOWNNAME":"永康區","LI":"北灣里","LIN":"3鄰","STREET":"文賢街","SECT":" ","MAREA":" ","LANE":"１３６巷","ALLEY":"１弄","HOUSE_NO":"７號","E_COORD97":175411.62,"N_COORD97":2545589.4100000001,"ADDRESS":"文賢街１３６巷１弄７號","OBJECTID":150257},"geometry":{"x":175411.62000000011,"y":2545589.410000002}},{"attributes":{"ID":150259,"DIS_CODE":0,"TOWNNAME":"永康區","LI":"王行里","LIN":"3鄰","STREET":"王行路","SECT":" ","MAREA":" ","LANE":"２２４巷","ALLEY":" ","HOUSE_NO":"３９號","E_COORD97":175790.17999999999,"N_COORD97":2548225.7400000002,"ADDRESS":"王行路２２４巷３９號","OBJECTID":150258},"geometry":{"x":175790.1799999997,"y":2548225.7400000002}},{"attributes":{"ID":150260,"DIS_CODE":0,"TOWNNAME":"永康區","LI":"北灣里","LIN":"3鄰","STREET":"文賢街","SECT":" ","MAREA":" ","LANE":"１３６巷","ALLEY":"１弄","HOUSE_NO":"１２號","E_COORD97":175422.19,"N_COORD97":2545593.73,"ADDRESS":"文賢街１３６巷１弄１２號","OBJECTID":150259},"geometry":{"x":175422.19000000227,"y":2545593.7300000023}},{"attributes":{"ID":150261,"DIS_CODE":0,"TOWNNAME":"永康區","LI":"北灣里","LIN":"3鄰","STREET":"文賢街","SECT":" ","MAREA":" ","LANE":"１３６巷","ALLEY":"１弄","HOUSE_NO":"１１號","E_COORD97":175413.04999999999,"N_COORD97":2545598.75,"ADDRESS":"文賢街１３６巷１弄１１號","OBJECTID":150260},"geometry":{"x":175413.05000000075,"y":2545598.75}},{"attributes":{"ID":150262,"DIS_CODE":0,"TOWNNAME":"永康區","LI":"正強里","LIN":"3鄰","STREET":"中正路","SECT":" ","MAREA":" ","LANE":"１巷","ALLEY":"２０弄","HOUSE_NO":"４號","E_COORD97":173635.04000000001,"N_COORD97":2547655.25,"ADDRESS":"中正路１巷２０弄４號","OBJECTID":150261},"geometry":{"x":173635.04000000097,"y":2547655.2500000019}},{"attributes":{"ID":150263,"DIS_CODE":0,"TOWNNAME":"永康區","LI":"正強里","LIN":"3鄰","STREET":"中正路","SECT":" ","MAREA":" ","LANE":"１巷","ALLEY":"２０弄","HOUSE_NO":"３號","E_COORD97":173646.66,"N_COORD97":2547643.7400000002,"ADDRESS":"中正路１巷２０弄３號","OBJECTID":150262},"geometry":{"x":173646.66000000015,"y":2547643.7400000039}},{"attributes":{"ID":150264,"DIS_CODE":0,"TOWNNAME":"東山區","LI":"聖賢里","LIN":"20鄰","STREET":" ","SECT":" ","MAREA":"頂窩","LANE":" ","ALLEY":" ","HOUSE_NO":"５７號之７","E_COORD97":183332.04999999999,"N_COORD97":2578731.8199999998,"ADDRESS":"頂窩５７號之７","OBJECTID":150263},"geometry":{"x":183332.04999999888,"y":2578731.8200000003}},{"attributes":{"ID":150265,"DIS_CODE":0,"TOWNNAME":"永康區","LI":"北灣里","LIN":"3鄰","STREET":"文賢街","SECT":" ","MAREA":" ","LANE":"１３６巷","ALLEY":"１弄","HOUSE_NO":"５號","E_COORD97":175411.32999999999,"N_COORD97":2545584.1600000001,"ADDRESS":"文賢街１３６巷１弄５號","OBJECTID":150264},"geometry":{"x":175411.33000000101,"y":2545584.160000002}},{"attributes":{"ID":150266,"DIS_CODE":0,"TOWNNAME":"永康區","LI":"北灣里","LIN":"3鄰","STREET":"文賢街","SECT":" ","MAREA":" ","LANE":"１３６巷","ALLEY":"１弄","HOUSE_NO":"２號","E_COORD97":175421.59,"N_COORD97":2545573.9700000002,"ADDRESS":"文賢街１３６巷１弄２號","OBJECTID":150265},"geometry":{"x":175421.58999999985,"y":2545573.9700000007}},{"attributes":{"ID":150267,"DIS_CODE":0,"TOWNNAME":"永康區","LI":"北灣里","LIN":"3鄰","STREET":"文賢街","SECT":" ","MAREA":" ","LANE":"１３６巷","ALLEY":"１弄","HOUSE_NO":"３號","E_COORD97":175411.29000000001,"N_COORD97":2545579.1600000001,"ADDRESS":"文賢街１３６巷１弄３號","OBJECTID":150266},"geometry":{"x":175411.29000000097,"y":2545579.1600000001}},{"attributes":{"ID":150268,"DIS_CODE":0,"TOWNNAME":"永康區","LI":"正強里","LIN":"3鄰","STREET":"中正路","SECT":" ","MAREA":" ","LANE":"１巷","ALLEY":"４２弄","HOUSE_NO":"２號","E_COORD97":173640.82000000001,"N_COORD97":2547611.4900000002,"ADDRESS":"中正路１巷４２弄２號","OBJECTID":150267},"geometry":{"x":173640.8200000003,"y":2547611.4900000039}},{"attributes":{"ID":150269,"DIS_CODE":0,"TOWNNAME":"麻豆區","LI":"寮\u25A0里","LIN":"20鄰","STREET":" ","SECT":" ","MAREA":"寮子\u25A0","LANE":" ","ALLEY":" ","HOUSE_NO":"１６６號之２４","E_COORD97":176135.03,"N_COORD97":2565429.1499999999,"ADDRESS":"寮子\u25A0１６６號之２４","OBJECTID":150268},"geometry":{"x":176135.03000000212,"y":2565429.1500000004}},{"attributes":{"ID":150270,"DIS_CODE":0,"TOWNNAME":"麻豆區","LI":"寮\u25A0里","LIN":"20鄰","STREET":" ","SECT":" ","MAREA":"寮子\u25A0","LANE":" ","ALLEY":" ","HOUSE_NO":"１６６號之２５","E_COORD97":176135.82999999999,"N_COORD97":2565424.8900000001,"ADDRESS":"寮子\u25A0１６６號之２５","OBJECTID":150269},"geometry":{"x":176135.83000000007,"y":2565424.8900000006}},{"attributes":{"ID":150271,"DIS_CODE":0,"TOWNNAME":"永康區","LI":"正強里","LIN":"3鄰","STREET":"中正路","SECT":" ","MAREA":" ","LANE":"１巷","ALLEY":"２０弄","HOUSE_NO":"１號","E_COORD97":173655.92999999999,"N_COORD97":2547641.7400000002,"ADDRESS":"中正路１巷２０弄１號","OBJECTID":150270},"geometry":{"x":173655.9299999997,"y":2547641.7400000021}},{"attributes":{"ID":150272,"DIS_CODE":0,"TOWNNAME":"永康區","LI":"王行里","LIN":"3鄰","STREET":"王行路","SECT":" ","MAREA":" ","LANE":"２４６巷","ALLEY":"９３弄","HOUSE_NO":"７號","E_COORD97":175842.62,"N_COORD97":2548172.4300000002,"ADDRESS":"王行路２４６巷９３弄７號","OBJECTID":150271},"geometry":{"x":175842.62000000197,"y":2548172.4300000016}},{"attributes":{"ID":150273,"DIS_CODE":0,"TOWNNAME":"麻豆區","LI":"寮\u25A0里","LIN":"20鄰","STREET":" ","SECT":" ","MAREA":"寮子\u25A0","LANE":" ","ALLEY":" ","HOUSE_NO":"１６６號之２６","E_COORD97":176137.01000000001,"N_COORD97":2565420.0299999998,"ADDRESS":"寮子\u25A0１６６號之２６","OBJECTID":150272},"geometry":{"x":176137.01000000071,"y":2565420.0300000031}},{"attributes":{"ID":150274,"DIS_CODE":0,"TOWNNAME":"麻豆區","LI":"寮\u25A0里","LIN":"20鄰","STREET":" ","SECT":" ","MAREA":"寮子\u25A0","LANE":" ","ALLEY":" ","HOUSE_NO":"１６６號之２７","E_COORD97":176137.54999999999,"N_COORD97":2565415.46,"ADDRESS":"寮子\u25A0１６６號之２７","OBJECTID":150273},"geometry":{"x":176137.54999999981,"y":2565415.4600000046}},{"attributes":{"ID":150275,"DIS_CODE":0,"TOWNNAME":"麻豆區","LI":"寮\u25A0里","LIN":"20鄰","STREET":" ","SECT":" ","MAREA":"寮子\u25A0","LANE":" ","ALLEY":" ","HOUSE_NO":"１６６號之２８","E_COORD97":176138.32999999999,"N_COORD97":2565411.2200000002,"ADDRESS":"寮子\u25A0１６６號之２８","OBJECTID":150274},"geometry":{"x":176138.33000000101,"y":2565411.2200000025}},{"attributes":{"ID":150276,"DIS_CODE":0,"TOWNNAME":"麻豆區","LI":"寮\u25A0里","LIN":"20鄰","STREET":" ","SECT":" ","MAREA":"寮子\u25A0","LANE":" ","ALLEY":" ","HOUSE_NO":"１６６號之２","E_COORD97":176349.45000000001,"N_COORD97":2565457.29,"ADDRESS":"寮子\u25A0１６６號之２","OBJECTID":150275},"geometry":{"x":176349.45000000112,"y":2565457.2899999991}},{"attributes":{"ID":150277,"DIS_CODE":0,"TOWNNAME":"麻豆區","LI":"寮\u25A0里","LIN":"20鄰","STREET":" ","SECT":" ","MAREA":"寮子\u25A0","LANE":" ","ALLEY":" ","HOUSE_NO":"１６６號之３","E_COORD97":176347.76000000001,"N_COORD97":2565419.0499999998,"ADDRESS":"寮子\u25A0１６６號之３","OBJECTID":150276},"geometry":{"x":176347.75999999978,"y":2565419.0500000026}},{"attributes":{"ID":150278,"DIS_CODE":0,"TOWNNAME":"麻豆區","LI":"寮\u25A0里","LIN":"20鄰","STREET":" ","SECT":" ","MAREA":"寮子\u25A0","LANE":" ","ALLEY":" ","HOUSE_NO":"１６６號之４","E_COORD97":176247.48999999999,"N_COORD97":2565335.3500000001,"ADDRESS":"寮子\u25A0１６６號之４","OBJECTID":150277},"geometry":{"x":176247.49000000115,"y":2565335.3499999996}},{"attributes":{"ID":150279,"DIS_CODE":0,"TOWNNAME":"麻豆區","LI":"寮\u25A0里","LIN":"20鄰","STREET":" ","SECT":" ","MAREA":"寮子\u25A0","LANE":" ","ALLEY":" ","HOUSE_NO":"１６６號之５","E_COORD97":176241.14999999999,"N_COORD97":2565392.4199999999,"ADDRESS":"寮子\u25A0１６６號之５","OBJECTID":150278},"geometry":{"x":176241.15000000224,"y":2565392.4200000018}},{"attributes":{"ID":150280,"DIS_CODE":0,"TOWNNAME":"麻豆區","LI":"寮\u25A0里","LIN":"20鄰","STREET":" ","SECT":" ","MAREA":"寮子\u25A0","LANE":" ","ALLEY":" ","HOUSE_NO":"１６６號之６","E_COORD97":176271.13,"N_COORD97":2565409.2000000002,"ADDRESS":"寮子\u25A0１６６號之６","OBJECTID":150279},"geometry":{"x":176271.12999999896,"y":2565409.2000000011}},{"attributes":{"ID":150281,"DIS_CODE":0,"TOWNNAME":"麻豆區","LI":"寮\u25A0里","LIN":"20鄰","STREET":" ","SECT":" ","MAREA":"寮子\u25A0","LANE":" ","ALLEY":" ","HOUSE_NO":"１６６號之７","E_COORD97":176063.28,"N_COORD97":2565376.8900000001,"ADDRESS":"寮子\u25A0１６６號之７","OBJECTID":150280},"geometry":{"x":176063.28000000026,"y":2565376.8900000006}},{"attributes":{"ID":150282,"DIS_CODE":0,"TOWNNAME":"永康區","LI":"五王里","LIN":"3鄰","STREET":"中華二路","SECT":" ","MAREA":" ","LANE":"２０６巷","ALLEY":"５１弄","HOUSE_NO":"８號","E_COORD97":171564.01999999999,"N_COORD97":2545604.75,"ADDRESS":"中華二路２０６巷５１弄８號","OBJECTID":150281},"geometry":{"x":171564.02000000142,"y":2545604.75}},{"attributes":{"ID":150283,"DIS_CODE":0,"TOWNNAME":"永康區","LI":"王行里","LIN":"3鄰","STREET":"王行路","SECT":" ","MAREA":" ","LANE":"２２４巷","ALLEY":" ","HOUSE_NO":"２７號","E_COORD97":175749.92999999999,"N_COORD97":2548214,"ADDRESS":"王行路２２４巷２７號","OBJECTID":150282},"geometry":{"x":175749.9299999997,"y":2548214}},{"attributes":{"ID":150284,"DIS_CODE":0,"TOWNNAME":"永康區","LI":"五王里","LIN":"3鄰","STREET":"成功路","SECT":" ","MAREA":" ","LANE":"１７２巷","ALLEY":"１８弄","HOUSE_NO":"１８號","E_COORD97":171536.07999999999,"N_COORD97":2545614.54,"ADDRESS":"成功路１７２巷１８弄１８號","OBJECTID":150283},"geometry":{"x":171536.08000000101,"y":2545614.540000001}},{"attributes":{"ID":150285,"DIS_CODE":0,"TOWNNAME":"永康區","LI":"五王里","LIN":"3鄰","STREET":"中華二路","SECT":" ","MAREA":" ","LANE":"２０６巷","ALLEY":"５１弄","HOUSE_NO":"１０號","E_COORD97":171561.17999999999,"N_COORD97":2545603.5,"ADDRESS":"中華二路２０６巷５１弄１０號","OBJECTID":150284},"geometry":{"x":171561.1799999997,"y":2545603.5}},{"attributes":{"ID":150286,"DIS_CODE":0,"TOWNNAME":"永康區","LI":"五王里","LIN":"3鄰","STREET":"成功路","SECT":" ","MAREA":" ","LANE":"１７２巷","ALLEY":"８弄","HOUSE_NO":"１９號","E_COORD97":171516.79000000001,"N_COORD97":2545587.6099999999,"ADDRESS":"成功路１７２巷８弄１９號","OBJECTID":150285},"geometry":{"x":171516.79000000004,"y":2545587.6099999994}},{"attributes":{"ID":150287,"DIS_CODE":0,"TOWNNAME":"永康區","LI":"王行里","LIN":"3鄰","STREET":"王行路","SECT":" ","MAREA":" ","LANE":"２２４巷","ALLEY":" ","HOUSE_NO":"３５號","E_COORD97":175775.48000000001,"N_COORD97":2548214.1299999999,"ADDRESS":"王行路２２４巷３５號","OBJECTID":150286},"geometry":{"x":175775.48000000045,"y":2548214.1300000008}},{"attributes":{"ID":150288,"DIS_CODE":0,"TOWNNAME":"永康區","LI":"五王里","LIN":"3鄰","STREET":"成功路","SECT":" ","MAREA":" ","LANE":"１７２巷","ALLEY":"８弄","HOUSE_NO":"１５號","E_COORD97":171512.03,"N_COORD97":2545596.3599999999,"ADDRESS":"成功路１７２巷８弄１５號","OBJECTID":150287},"geometry":{"x":171512.03000000026,"y":2545596.3599999994}},{"attributes":{"ID":150289,"DIS_CODE":0,"TOWNNAME":"永康區","LI":"五王里","LIN":"3鄰","STREET":"成功路","SECT":" ","MAREA":" ","LANE":"１７２巷","ALLEY":"８弄","HOUSE_NO":"１號","E_COORD97":171494.98999999999,"N_COORD97":2545628.7599999998,"ADDRESS":"成功路１７２巷８弄１號","OBJECTID":150288},"geometry":{"x":171494.99000000022,"y":2545628.7599999998}},{"attributes":{"ID":150290,"DIS_CODE":0,"TOWNNAME":"永康區","LI":"王行里","LIN":"3鄰","STREET":"王行路","SECT":" ","MAREA":" ","LANE":"２４６巷","ALLEY":"９３弄","HOUSE_NO":"９號","E_COORD97":175846.95000000001,"N_COORD97":2548172.0499999998,"ADDRESS":"王行路２４６巷９３弄９號","OBJECTID":150289},"geometry":{"x":175846.95000000019,"y":2548172.0500000026}},{"attributes":{"ID":150291,"DIS_CODE":0,"TOWNNAME":"新營區","LI":"太北里","LIN":"20鄰","STREET":" ","SECT":" ","MAREA":"太子宮","LANE":" ","ALLEY":" ","HOUSE_NO":"１４０之７０號","E_COORD97":175158.92999999999,"N_COORD97":2576423.6200000001,"ADDRESS":"太子宮１４０之７０號","OBJECTID":150290},"geometry":{"x":175158.93000000063,"y":2576423.6200000029}},{"attributes":{"ID":150292,"DIS_CODE":0,"TOWNNAME":"學甲區","LI":"秀昌里","LIN":"20鄰","STREET":" ","SECT":" ","MAREA":"下溪洲","LANE":" ","ALLEY":" ","HOUSE_NO":"６５號","E_COORD97":165261.23000000001,"N_COORD97":2571206.6299999999,"ADDRESS":"下溪洲６５號","OBJECTID":150291},"geometry":{"x":165261.23000000138,"y":2571206.6300000008}},{"attributes":{"ID":150293,"DIS_CODE":0,"TOWNNAME":"學甲區","LI":"秀昌里","LIN":"20鄰","STREET":" ","SECT":" ","MAREA":"下溪洲","LANE":" ","ALLEY":" ","HOUSE_NO":"６６號之１","E_COORD97":165273.07999999999,"N_COORD97":2571184.79,"ADDRESS":"下溪洲６６號之１","OBJECTID":150292},"geometry":{"x":165273.08000000007,"y":2571184.7899999972}},{"attributes":{"ID":150294,"DIS_CODE":0,"TOWNNAME":"永康區","LI":"王行里","LIN":"3鄰","STREET":"王行路","SECT":" ","MAREA":" ","LANE":"２４６巷","ALLEY":"９３弄","HOUSE_NO":"１號","E_COORD97":175828.12,"N_COORD97":2548173.6099999999,"ADDRESS":"王行路２４６巷９３弄１號","OBJECTID":150293},"geometry":{"x":175828.12000000104,"y":2548173.6100000013}},{"attributes":{"ID":150295,"DIS_CODE":0,"TOWNNAME":"永康區","LI":"王行里","LIN":"3鄰","STREET":"王行路","SECT":" ","MAREA":" ","LANE":"２２４巷","ALLEY":" ","HOUSE_NO":"３７號","E_COORD97":175779.89999999999,"N_COORD97":2548215.52,"ADDRESS":"王行路２２４巷３７號","OBJECTID":150294},"geometry":{"x":175779.89999999944,"y":2548215.5200000014}},{"attributes":{"ID":150296,"DIS_CODE":0,"TOWNNAME":"東區","LI":"虎尾里","LIN":"3鄰","STREET":"自由路","SECT":"三段","MAREA":" ","LANE":" ","ALLEY":" ","HOUSE_NO":"８７號","E_COORD97":171817.73999999999,"N_COORD97":2542138.6400000001,"ADDRESS":"自由路三段８７號","OBJECTID":150295},"geometry":{"x":171817.74000000115,"y":2542138.6399999987}},{"attributes":{"ID":150297,"DIS_CODE":0,"TOWNNAME":"永康區","LI":"網寮里","LIN":"3鄰","STREET":"永和街","SECT":" ","MAREA":" ","LANE":"２３８巷","ALLEY":"２２弄","HOUSE_NO":"８號","E_COORD97":173508.20000000001,"N_COORD97":2546604.7599999998,"ADDRESS":"永和街２３８巷２２弄８號","OBJECTID":150296},"geometry":{"x":173508.20000000112,"y":2546604.7599999998}},{"attributes":{"ID":150298,"DIS_CODE":0,"TOWNNAME":"永康區","LI":"網寮里","LIN":"3鄰","STREET":"永和街","SECT":" ","MAREA":" ","LANE":"２３８巷","ALLEY":"２２弄","HOUSE_NO":"１０號","E_COORD97":173507.53,"N_COORD97":2546600.1000000001,"ADDRESS":"永和街２３８巷２２弄１０號","OBJECTID":150297},"geometry":{"x":173507.53000000212,"y":2546600.1000000034}},{"attributes":{"ID":150299,"DIS_CODE":0,"TOWNNAME":"永康區","LI":"網寮里","LIN":"3鄰","STREET":"永和街","SECT":" ","MAREA":" ","LANE":"２３８巷","ALLEY":"２２弄","HOUSE_NO":"１２號","E_COORD97":173504.23999999999,"N_COORD97":2546597.1499999999,"ADDRESS":"永和街２３８巷２２弄１２號","OBJECTID":150298},"geometry":{"x":173504.24000000209,"y":2546597.1500000041}},{"attributes":{"ID":150300,"DIS_CODE":0,"TOWNNAME":"永康區","LI":"網寮里","LIN":"3鄰","STREET":"永和街","SECT":" ","MAREA":" ","LANE":"２３８巷","ALLEY":"２２弄","HOUSE_NO":"１６號","E_COORD97":173502.01000000001,"N_COORD97":2546592.8599999999,"ADDRESS":"永和街２３８巷２２弄１６號","OBJECTID":150299},"geometry":{"x":173502.01000000164,"y":2546592.8599999994}},{"attributes":{"ID":150301,"DIS_CODE":0,"TOWNNAME":"永康區","LI":"網寮里","LIN":"3鄰","STREET":"永和街","SECT":" ","MAREA":" ","LANE":"２３８巷","ALLEY":"２２弄","HOUSE_NO":"１８號","E_COORD97":173498.54999999999,"N_COORD97":2546588.7200000002,"ADDRESS":"永和街２３８巷２２弄１８號","OBJECTID":150300},"geometry":{"x":173498.55000000075,"y":2546588.7200000007}},{"attributes":{"ID":150302,"DIS_CODE":0,"TOWNNAME":"永康區","LI":"網寮里","LIN":"3鄰","STREET":"永和街","SECT":" ","MAREA":" ","LANE":"２３８巷","ALLEY":"２２弄","HOUSE_NO":"２０號","E_COORD97":173519.54999999999,"N_COORD97":2546578.1899999999,"ADDRESS":"永和街２３８巷２２弄２０號","OBJECTID":150301},"geometry":{"x":173519.55000000075,"y":2546578.1899999995}},{"attributes":{"ID":150303,"DIS_CODE":0,"TOWNNAME":"學甲區","LI":"秀昌里","LIN":"20鄰","STREET":" ","SECT":" ","MAREA":"下溪洲","LANE":" ","ALLEY":" ","HOUSE_NO":"６６號之２","E_COORD97":165271.70999999999,"N_COORD97":2571161.9500000002,"ADDRESS":"下溪洲６６號之２","OBJECTID":150302},"geometry":{"x":165271.70999999996,"y":2571161.9500000011}},{"attributes":{"ID":150304,"DIS_CODE":0,"TOWNNAME":"東山區","LI":"科里里","LIN":"20鄰","STREET":" ","SECT":" ","MAREA":"枋子林","LANE":" ","ALLEY":" ","HOUSE_NO":"４１號之２","E_COORD97":188400.76000000001,"N_COORD97":2576753.96,"ADDRESS":"枋子林４１號之２","OBJECTID":150303},"geometry":{"x":188400.75999999978,"y":2576753.9600000028}},{"attributes":{"ID":150305,"DIS_CODE":0,"TOWNNAME":"東山區","LI":"科里里","LIN":"20鄰","STREET":" ","SECT":" ","MAREA":"枋子林","LANE":" ","ALLEY":" ","HOUSE_NO":"４１號","E_COORD97":188348.60999999999,"N_COORD97":2576788.52,"ADDRESS":"枋子林４１號","OBJECTID":150304},"geometry":{"x":188348.61000000127,"y":2576788.5200000033}},{"attributes":{"ID":150306,"DIS_CODE":0,"TOWNNAME":"東山區","LI":"科里里","LIN":"20鄰","STREET":" ","SECT":" ","MAREA":"枋子林","LANE":" ","ALLEY":" ","HOUSE_NO":"４２號","E_COORD97":188325.76999999999,"N_COORD97":2576793.0800000001,"ADDRESS":"枋子林４２號","OBJECTID":150305},"geometry":{"x":188325.76999999955,"y":2576793.0800000019}},{"attributes":{"ID":150307,"DIS_CODE":0,"TOWNNAME":"東山區","LI":"科里里","LIN":"20鄰","STREET":" ","SECT":" ","MAREA":"枋子林","LANE":" ","ALLEY":" ","HOUSE_NO":"４３號","E_COORD97":188335.47,"N_COORD97":2576809.6499999999,"ADDRESS":"枋子林４３號","OBJECTID":150306},"geometry":{"x":188335.47000000067,"y":2576809.6500000022}},{"attributes":{"ID":150308,"DIS_CODE":0,"TOWNNAME":"東山區","LI":"科里里","LIN":"20鄰","STREET":" ","SECT":" ","MAREA":"枋子林","LANE":" ","ALLEY":" ","HOUSE_NO":"４５號","E_COORD97":188282.51999999999,"N_COORD97":2576781.0699999998,"ADDRESS":"枋子林４５號","OBJECTID":150307},"geometry":{"x":188282.52000000048,"y":2576781.0700000003}},{"attributes":{"ID":150309,"DIS_CODE":0,"TOWNNAME":"東山區","LI":"科里里","LIN":"20鄰","STREET":" ","SECT":" ","MAREA":"枋子林","LANE":" ","ALLEY":" ","HOUSE_NO":"４７號","E_COORD97":188320.62,"N_COORD97":2576779.8399999999,"ADDRESS":"枋子林４７號","OBJECTID":150308},"geometry":{"x":188320.62000000011,"y":2576779.8400000036}},{"attributes":{"ID":150310,"DIS_CODE":0,"TOWNNAME":"東山區","LI":"科里里","LIN":"20鄰","STREET":" ","SECT":" ","MAREA":"枋子林","LANE":" ","ALLEY":" ","HOUSE_NO":"４８號之１","E_COORD97":188319.89999999999,"N_COORD97":2576726.3199999998,"ADDRESS":"枋子林４８號之１","OBJECTID":150309},"geometry":{"x":188319.9000000013,"y":2576726.3200000022}},{"attributes":{"ID":150311,"DIS_CODE":0,"TOWNNAME":"東山區","LI":"科里里","LIN":"20鄰","STREET":" ","SECT":" ","MAREA":"枋子林","LANE":" ","ALLEY":" ","HOUSE_NO":"４８號之２","E_COORD97":188333.35999999999,"N_COORD97":2576735.3500000001,"ADDRESS":"枋子林４８號之２","OBJECTID":150310},"geometry":{"x":188333.36000000127,"y":2576735.3500000034}},{"attributes":{"ID":150312,"DIS_CODE":0,"TOWNNAME":"東山區","LI":"科里里","LIN":"20鄰","STREET":" ","SECT":" ","MAREA":"枋子林","LANE":" ","ALLEY":" ","HOUSE_NO":"４８號之３","E_COORD97":188336.76999999999,"N_COORD97":2576740.1400000001,"ADDRESS":"枋子林４８號之３","OBJECTID":150311},"geometry":{"x":188336.77000000048,"y":2576740.1400000006}},{"attributes":{"ID":150313,"DIS_CODE":0,"TOWNNAME":"東山區","LI":"科里里","LIN":"20鄰","STREET":" ","SECT":" ","MAREA":"枋子林","LANE":" ","ALLEY":" ","HOUSE_NO":"４９號之１","E_COORD97":188267.20000000001,"N_COORD97":2576708.98,"ADDRESS":"枋子林４９號之１","OBJECTID":150312},"geometry":{"x":188267.20000000019,"y":2576708.9800000023}},{"attributes":{"ID":150314,"DIS_CODE":0,"TOWNNAME":"東山區","LI":"科里里","LIN":"20鄰","STREET":" ","SECT":" ","MAREA":"枋子林","LANE":" ","ALLEY":" ","HOUSE_NO":"４９號之２","E_COORD97":188360.42999999999,"N_COORD97":2576713,"ADDRESS":"枋子林４９號之２","OBJECTID":150313},"geometry":{"x":188360.4299999997,"y":2576713}},{"attributes":{"ID":150315,"DIS_CODE":0,"TOWNNAME":"東山區","LI":"科里里","LIN":"20鄰","STREET":" ","SECT":" ","MAREA":"枋子林","LANE":" ","ALLEY":" ","HOUSE_NO":"４９號之３","E_COORD97":188300.88,"N_COORD97":2576664.5099999998,"ADDRESS":"枋子林４９號之３","OBJECTID":150314},"geometry":{"x":188300.88000000082,"y":2576664.5100000016}},{"attributes":{"ID":150316,"DIS_CODE":0,"TOWNNAME":"東山區","LI":"科里里","LIN":"20鄰","STREET":" ","SECT":" ","MAREA":"枋子林","LANE":" ","ALLEY":" ","HOUSE_NO":"５１號之１","E_COORD97":188262.23000000001,"N_COORD97":2576680.5800000001,"ADDRESS":"枋子林５１號之１","OBJECTID":150315},"geometry":{"x":188262.23000000045,"y":2576680.5800000019}},{"attributes":{"ID":150317,"DIS_CODE":0,"TOWNNAME":"後壁區","LI":"新嘉里","LIN":"19鄰","STREET":" ","SECT":" ","MAREA":"白沙屯","LANE":" ","ALLEY":" ","HOUSE_NO":"２０１號之１","E_COORD97":179511.48999999999,"N_COORD97":2585791.8500000001,"ADDRESS":"白沙屯２０１號之１","OBJECTID":150316},"geometry":{"x":179511.49000000022,"y":2585791.8500000015}},{"attributes":{"ID":150318,"DIS_CODE":0,"TOWNNAME":"後壁區","LI":"新嘉里","LIN":"19鄰","STREET":" ","SECT":" ","MAREA":"白沙屯","LANE":" ","ALLEY":" ","HOUSE_NO":"２０１號","E_COORD97":179502.20999999999,"N_COORD97":2585786.7400000002,"ADDRESS":"白沙屯２０１號","OBJECTID":150317},"geometry":{"x":179502.21000000089,"y":2585786.7400000021}},{"attributes":{"ID":150319,"DIS_CODE":0,"TOWNNAME":"後壁區","LI":"新嘉里","LIN":"19鄰","STREET":" ","SECT":" ","MAREA":"白沙屯","LANE":" ","ALLEY":" ","HOUSE_NO":"２０４號","E_COORD97":179514.63,"N_COORD97":2585773.6699999999,"ADDRESS":"白沙屯２０４號","OBJECTID":150318},"geometry":{"x":179514.63000000082,"y":2585773.6700000018}},{"attributes":{"ID":150320,"DIS_CODE":0,"TOWNNAME":"後壁區","LI":"新嘉里","LIN":"19鄰","STREET":" ","SECT":" ","MAREA":"白沙屯","LANE":" ","ALLEY":" ","HOUSE_NO":"２０５號","E_COORD97":179521.85999999999,"N_COORD97":2585762.23,"ADDRESS":"白沙屯２０５號","OBJECTID":150319},"geometry":{"x":179521.86000000127,"y":2585762.2300000042}},{"attributes":{"ID":150321,"DIS_CODE":0,"TOWNNAME":"後壁區","LI":"新嘉里","LIN":"19鄰","STREET":" ","SECT":" ","MAREA":"白沙屯","LANE":" ","ALLEY":" ","HOUSE_NO":"２０６號","E_COORD97":179516.10000000001,"N_COORD97":2585747.71,"ADDRESS":"白沙屯２０６號","OBJECTID":150320},"geometry":{"x":179516.10000000056,"y":2585747.7100000009}},{"attributes":{"ID":150322,"DIS_CODE":0,"TOWNNAME":"後壁區","LI":"新嘉里","LIN":"19鄰","STREET":" ","SECT":" ","MAREA":"白沙屯","LANE":" ","ALLEY":" ","HOUSE_NO":"２０７號","E_COORD97":179524.38,"N_COORD97":2585734.7200000002,"ADDRESS":"白沙屯２０７號","OBJECTID":150321},"geometry":{"x":179524.38000000175,"y":2585734.7200000007}},{"attributes":{"ID":150323,"DIS_CODE":0,"TOWNNAME":"東山區","LI":"科里里","LIN":"20鄰","STREET":" ","SECT":" ","MAREA":"枋子林","LANE":" ","ALLEY":" ","HOUSE_NO":"５２之２號","E_COORD97":188216.82000000001,"N_COORD97":2576720.2599999998,"ADDRESS":"枋子林５２之２號","OBJECTID":150322},"geometry":{"x":188216.82000000123,"y":2576720.2600000016}},{"attributes":{"ID":150324,"DIS_CODE":0,"TOWNNAME":"東山區","LI":"科里里","LIN":"20鄰","STREET":" ","SECT":" ","MAREA":"枋子林","LANE":" ","ALLEY":" ","HOUSE_NO":"５２號之２","E_COORD97":188216.82000000001,"N_COORD97":2576720.2599999998,"ADDRESS":"枋子林５２號之２","OBJECTID":150323},"geometry":{"x":188216.82000000123,"y":2576720.2600000016}},{"attributes":{"ID":150325,"DIS_CODE":0,"TOWNNAME":"東山區","LI":"科里里","LIN":"20鄰","STREET":" ","SECT":" ","MAREA":"枋子林","LANE":" ","ALLEY":" ","HOUSE_NO":"５２號之３","E_COORD97":188156.09,"N_COORD97":2576706.48,"ADDRESS":"枋子林５２號之３","OBJECTID":150324},"geometry":{"x":188156.08999999985,"y":2576706.4800000004}},{"attributes":{"ID":150326,"DIS_CODE":0,"TOWNNAME":"東山區","LI":"科里里","LIN":"20鄰","STREET":" ","SECT":" ","MAREA":"枋子林","LANE":" ","ALLEY":" ","HOUSE_NO":"５２號之４","E_COORD97":188220.73999999999,"N_COORD97":2576701.27,"ADDRESS":"枋子林５２號之４","OBJECTID":150325},"geometry":{"x":188220.74000000115,"y":2576701.2699999996}},{"attributes":{"ID":150327,"DIS_CODE":0,"TOWNNAME":"東山區","LI":"科里里","LIN":"20鄰","STREET":" ","SECT":" ","MAREA":"枋子林","LANE":" ","ALLEY":" ","HOUSE_NO":"５２號之５","E_COORD97":188162.81,"N_COORD97":2576666.2400000002,"ADDRESS":"枋子林５２號之５","OBJECTID":150326},"geometry":{"x":188162.80999999959,"y":2576666.2400000021}},{"attributes":{"ID":150328,"DIS_CODE":0,"TOWNNAME":"永康區","LI":"網寮里","LIN":"3鄰","STREET":"永和街","SECT":" ","MAREA":" ","LANE":"２３８巷","ALLEY":"２２弄","HOUSE_NO":"２２號","E_COORD97":173526.14000000001,"N_COORD97":2546580.6800000002,"ADDRESS":"永和街２３８巷２２弄２２號","OBJECTID":150327},"geometry":{"x":173526.13999999966,"y":2546580.6800000016}},{"attributes":{"ID":150329,"DIS_CODE":0,"TOWNNAME":"永康區","LI":"網寮里","LIN":"3鄰","STREET":"永和街","SECT":" ","MAREA":" ","LANE":"２３８巷","ALLEY":"２２弄","HOUSE_NO":"２６號","E_COORD97":173527.26999999999,"N_COORD97":2546584.8100000001,"ADDRESS":"永和街２３８巷２２弄２６號","OBJECTID":150328},"geometry":{"x":173527.27000000048,"y":2546584.8100000005}},{"attributes":{"ID":150330,"DIS_CODE":0,"TOWNNAME":"東山區","LI":"科里里","LIN":"20鄰","STREET":" ","SECT":" ","MAREA":"枋子林","LANE":" ","ALLEY":" ","HOUSE_NO":"５２號","E_COORD97":188198.53,"N_COORD97":2576720.8199999998,"ADDRESS":"枋子林５２號","OBJECTID":150329},"geometry":{"x":188198.53000000119,"y":2576720.8200000022}},{"attributes":{"ID":150331,"DIS_CODE":0,"TOWNNAME":"永康區","LI":"網寮里","LIN":"3鄰","STREET":"永和街","SECT":" ","MAREA":" ","LANE":"２３８巷","ALLEY":"１０弄","HOUSE_NO":"１號","E_COORD97":173475.59,"N_COORD97":2546587.6600000001,"ADDRESS":"永和街２３８巷１０弄１號","OBJECTID":150330},"geometry":{"x":173475.58999999985,"y":2546587.660000002}},{"attributes":{"ID":150332,"DIS_CODE":0,"TOWNNAME":"永康區","LI":"網寮里","LIN":"3鄰","STREET":"永和街","SECT":" ","MAREA":" ","LANE":"２３８巷","ALLEY":"１０弄","HOUSE_NO":"３號","E_COORD97":173482.07999999999,"N_COORD97":2546583.2799999998,"ADDRESS":"永和街２３８巷１０弄３號","OBJECTID":150331},"geometry":{"x":173482.08000000101,"y":2546583.2799999993}},{"attributes":{"ID":150333,"DIS_CODE":0,"TOWNNAME":"永康區","LI":"網寮里","LIN":"3鄰","STREET":"永和街","SECT":" ","MAREA":" ","LANE":"２３８巷","ALLEY":"１０弄","HOUSE_NO":"５號","E_COORD97":173487.98999999999,"N_COORD97":2546582.3300000001,"ADDRESS":"永和街２３８巷１０弄５號","OBJECTID":150332},"geometry":{"x":173487.99000000115,"y":2546582.3300000019}},{"attributes":{"ID":150334,"DIS_CODE":0,"TOWNNAME":"東山區","LI":"科里里","LIN":"20鄰","STREET":" ","SECT":" ","MAREA":"枋子林","LANE":" ","ALLEY":" ","HOUSE_NO":"５３號之２","E_COORD97":188201.91,"N_COORD97":2576732.5,"ADDRESS":"枋子林５３號之２","OBJECTID":150333},"geometry":{"x":188201.91000000015,"y":2576732.5000000019}},{"attributes":{"ID":150335,"DIS_CODE":0,"TOWNNAME":"東山區","LI":"科里里","LIN":"20鄰","STREET":" ","SECT":" ","MAREA":"枋子林","LANE":" ","ALLEY":" ","HOUSE_NO":"５３號","E_COORD97":188214.60999999999,"N_COORD97":2576790.4900000002,"ADDRESS":"枋子林５３號","OBJECTID":150334},"geometry":{"x":188214.61000000127,"y":2576790.4900000021}},{"attributes":{"ID":150336,"DIS_CODE":0,"TOWNNAME":"東山區","LI":"東山里","LIN":"20鄰","STREET":" ","SECT":" ","MAREA":"東山","LANE":" ","ALLEY":" ","HOUSE_NO":"２８５號之１","E_COORD97":188963.78,"N_COORD97":2580580.1800000002,"ADDRESS":"東山２８５號之１","OBJECTID":150335},"geometry":{"x":188963.78000000026,"y":2580580.1799999997}},{"attributes":{"ID":150337,"DIS_CODE":0,"TOWNNAME":"東山區","LI":"東山里","LIN":"20鄰","STREET":" ","SECT":" ","MAREA":"東山","LANE":" ","ALLEY":" ","HOUSE_NO":"２８５號","E_COORD97":188964.14999999999,"N_COORD97":2580586.0800000001,"ADDRESS":"東山２８５號","OBJECTID":150336},"geometry":{"x":188964.1500000013,"y":2580586.0800000019}},{"attributes":{"ID":150338,"DIS_CODE":0,"TOWNNAME":"永康區","LI":"網寮里","LIN":"3鄰","STREET":"永和街","SECT":" ","MAREA":" ","LANE":"２３８巷","ALLEY":"１０弄","HOUSE_NO":"７號","E_COORD97":173491.06,"N_COORD97":2546578.6099999999,"ADDRESS":"永和街２３８巷１０弄７號","OBJECTID":150337},"geometry":{"x":173491.05999999959,"y":2546578.6099999994}},{"attributes":{"ID":150339,"DIS_CODE":0,"TOWNNAME":"東山區","LI":"東山里","LIN":"20鄰","STREET":" ","SECT":" ","MAREA":"東山","LANE":" ","ALLEY":" ","HOUSE_NO":"２９１號之１","E_COORD97":188964.20000000001,"N_COORD97":2580561.5299999998,"ADDRESS":"東山２９１號之１","OBJECTID":150338},"geometry":{"x":188964.20000000019,"y":2580561.5300000031}},{"attributes":{"ID":150340,"DIS_CODE":0,"TOWNNAME":"東山區","LI":"東山里","LIN":"20鄰","STREET":" ","SECT":" ","MAREA":"東山","LANE":" ","ALLEY":" ","HOUSE_NO":"２９１之２號","E_COORD97":188963.60999999999,"N_COORD97":2580569.4100000001,"ADDRESS":"東山２９１之２號","OBJECTID":150339},"geometry":{"x":188963.6099999994,"y":2580569.4100000001}},{"attributes":{"ID":150341,"DIS_CODE":0,"TOWNNAME":"東山區","LI":"東山里","LIN":"20鄰","STREET":" ","SECT":" ","MAREA":"東山","LANE":" ","ALLEY":" ","HOUSE_NO":"２９１號","E_COORD97":188964.85000000001,"N_COORD97":2580550.3500000001,"ADDRESS":"東山２９１號","OBJECTID":150340},"geometry":{"x":188964.85000000149,"y":2580550.3500000015}},{"attributes":{"ID":150342,"DIS_CODE":0,"TOWNNAME":"永康區","LI":"網寮里","LIN":"3鄰","STREET":"永和街","SECT":" ","MAREA":" ","LANE":"２３８巷","ALLEY":"１０弄","HOUSE_NO":"９號","E_COORD97":173494.95999999999,"N_COORD97":2546576.5800000001,"ADDRESS":"永和街２３８巷１０弄９號","OBJECTID":150341},"geometry":{"x":173494.95999999996,"y":2546576.5799999982}},{"attributes":{"ID":150343,"DIS_CODE":0,"TOWNNAME":"永康區","LI":"網寮里","LIN":"3鄰","STREET":"永和街","SECT":" ","MAREA":" ","LANE":"２３８巷","ALLEY":"１０弄","HOUSE_NO":"１１號","E_COORD97":173500.04999999999,"N_COORD97":2546576.0600000001,"ADDRESS":"永和街２３８巷１０弄１１號","OBJECTID":150342},"geometry":{"x":173500.05000000168,"y":2546576.0600000005}},{"attributes":{"ID":150344,"DIS_CODE":0,"TOWNNAME":"永康區","LI":"網寮里","LIN":"3鄰","STREET":"永和街","SECT":" ","MAREA":" ","LANE":"２３８巷","ALLEY":"１０弄","HOUSE_NO":"１３號","E_COORD97":173502.76999999999,"N_COORD97":2546572.52,"ADDRESS":"永和街２３８巷１０弄１３號","OBJECTID":150343},"geometry":{"x":173502.76999999955,"y":2546572.5199999996}},{"attributes":{"ID":150345,"DIS_CODE":0,"TOWNNAME":"永康區","LI":"網寮里","LIN":"3鄰","STREET":"永和街","SECT":" ","MAREA":" ","LANE":"２３８巷","ALLEY":"１０弄","HOUSE_NO":"１５號","E_COORD97":173507.45000000001,"N_COORD97":2546572.21,"ADDRESS":"永和街２３８巷１０弄１５號","OBJECTID":150344},"geometry":{"x":173507.45000000019,"y":2546572.2100000009}},{"attributes":{"ID":150346,"DIS_CODE":0,"TOWNNAME":"永康區","LI":"網寮里","LIN":"3鄰","STREET":"永和街","SECT":" ","MAREA":" ","LANE":"２３８巷","ALLEY":"１０弄","HOUSE_NO":"１７號","E_COORD97":173510.57999999999,"N_COORD97":2546568.46,"ADDRESS":"永和街２３８巷１０弄１７號","OBJECTID":150345},"geometry":{"x":173510.58000000101,"y":2546568.4600000046}},{"attributes":{"ID":150347,"DIS_CODE":0,"TOWNNAME":"永康區","LI":"網寮里","LIN":"3鄰","STREET":"永和街","SECT":" ","MAREA":" ","LANE":"２３８巷","ALLEY":"１０弄","HOUSE_NO":"１９號","E_COORD97":173518.57000000001,"N_COORD97":2546564.1400000001,"ADDRESS":"永和街２３８巷１０弄１９號","OBJECTID":150346},"geometry":{"x":173518.5700000003,"y":2546564.1400000025}},{"attributes":{"ID":150348,"DIS_CODE":0,"TOWNNAME":"永康區","LI":"網寮里","LIN":"3鄰","STREET":"永和街","SECT":" ","MAREA":" ","LANE":"２３８巷","ALLEY":"１０弄","HOUSE_NO":"２號","E_COORD97":173465.19,"N_COORD97":2546566.9199999999,"ADDRESS":"永和街２３８巷１０弄２號","OBJECTID":150347},"geometry":{"x":173465.19000000041,"y":2546566.9199999999}},{"attributes":{"ID":150349,"DIS_CODE":0,"TOWNNAME":"永康區","LI":"網寮里","LIN":"3鄰","STREET":"永和街","SECT":" ","MAREA":" ","LANE":"２３８巷","ALLEY":"１０弄","HOUSE_NO":"６號","E_COORD97":173470.57000000001,"N_COORD97":2546561.1499999999,"ADDRESS":"永和街２３８巷１０弄６號","OBJECTID":150348},"geometry":{"x":173470.57000000123,"y":2546561.1500000022}},{"attributes":{"ID":150350,"DIS_CODE":0,"TOWNNAME":"永康區","LI":"網寮里","LIN":"3鄰","STREET":"永和街","SECT":" ","MAREA":" ","LANE":"２３８巷","ALLEY":"１０弄","HOUSE_NO":"８號","E_COORD97":173475.66,"N_COORD97":2546558.5299999998,"ADDRESS":"永和街２３８巷１０弄８號","OBJECTID":150349},"geometry":{"x":173475.66000000015,"y":2546558.5299999993}},{"attributes":{"ID":150351,"DIS_CODE":0,"TOWNNAME":"永康區","LI":"網寮里","LIN":"3鄰","STREET":"永和街","SECT":" ","MAREA":" ","LANE":"２３８巷","ALLEY":"１０弄","HOUSE_NO":"１０號","E_COORD97":173479.32000000001,"N_COORD97":2546555.2200000002,"ADDRESS":"永和街２３８巷１０弄１０號","OBJECTID":150350},"geometry":{"x":173479.3200000003,"y":2546555.2200000007}},{"attributes":{"ID":150352,"DIS_CODE":0,"TOWNNAME":"永康區","LI":"網寮里","LIN":"3鄰","STREET":"永和街","SECT":" ","MAREA":" ","LANE":"２３８巷","ALLEY":"１０弄","HOUSE_NO":"１２號","E_COORD97":173483.48000000001,"N_COORD97":2546554.5,"ADDRESS":"永和街２３８巷１０弄１２號","OBJECTID":150351},"geometry":{"x":173483.48000000045,"y":2546554.5000000019}},{"attributes":{"ID":150353,"DIS_CODE":0,"TOWNNAME":"永康區","LI":"網寮里","LIN":"3鄰","STREET":"永和街","SECT":" ","MAREA":" ","LANE":"２３８巷","ALLEY":"１０弄","HOUSE_NO":"１６號","E_COORD97":173486.63,"N_COORD97":2546551.4500000002,"ADDRESS":"永和街２３８巷１０弄１６號","OBJECTID":150352},"geometry":{"x":173486.63000000082,"y":2546551.4499999993}},{"attributes":{"ID":150354,"DIS_CODE":0,"TOWNNAME":"永康區","LI":"網寮里","LIN":"3鄰","STREET":"永和街","SECT":" ","MAREA":" ","LANE":"２３８巷","ALLEY":"１０弄","HOUSE_NO":"１８號","E_COORD97":173491.29999999999,"N_COORD97":2546550.4700000002,"ADDRESS":"永和街２３８巷１０弄１８號","OBJECTID":150353},"geometry":{"x":173491.29999999981,"y":2546550.4700000007}},{"attributes":{"ID":150355,"DIS_CODE":0,"TOWNNAME":"永康區","LI":"網寮里","LIN":"3鄰","STREET":"永和街","SECT":" ","MAREA":" ","LANE":"２３８巷","ALLEY":"１０弄","HOUSE_NO":"２０號","E_COORD97":173495.20999999999,"N_COORD97":2546548.4500000002,"ADDRESS":"永和街２３８巷１０弄２０號","OBJECTID":150354},"geometry":{"x":173495.20999999996,"y":2546548.4499999993}},{"attributes":{"ID":150356,"DIS_CODE":0,"TOWNNAME":"永康區","LI":"網寮里","LIN":"3鄰","STREET":"永和街","SECT":" ","MAREA":" ","LANE":"２３８巷","ALLEY":"１０弄","HOUSE_NO":"２２號","E_COORD97":173499.12,"N_COORD97":2546546.4399999999,"ADDRESS":"永和街２３８巷１０弄２２號","OBJECTID":150355},"geometry":{"x":173499.12000000011,"y":2546546.4400000032}},{"attributes":{"ID":150357,"DIS_CODE":0,"TOWNNAME":"永康區","LI":"網寮里","LIN":"3鄰","STREET":"永和街","SECT":" ","MAREA":" ","LANE":"２３８巷","ALLEY":"１０弄","HOUSE_NO":"２６號","E_COORD97":173504.89999999999,"N_COORD97":2546543.4700000002,"ADDRESS":"永和街２３８巷１０弄２６號","OBJECTID":150356},"geometry":{"x":173504.90000000037,"y":2546543.4700000007}},{"attributes":{"ID":150358,"DIS_CODE":0,"TOWNNAME":"永康區","LI":"西勢里","LIN":"3鄰","STREET":"富強路","SECT":"一段","MAREA":" ","LANE":"３２１巷","ALLEY":"３６弄","HOUSE_NO":"１３號","E_COORD97":175593.20999999999,"N_COORD97":2546759.3799999999,"ADDRESS":"富強路一段３２１巷３６弄１３號","OBJECTID":150357},"geometry":{"x":175593.21000000089,"y":2546759.379999999}},{"attributes":{"ID":150359,"DIS_CODE":0,"TOWNNAME":"安南區","LI":"州北里","LIN":"3鄰","STREET":"安和路","SECT":"五段","MAREA":" ","LANE":"１７１巷","ALLEY":"１８１弄","HOUSE_NO":"１３號","E_COORD97":169653.12,"N_COORD97":2551635.1099999999,"ADDRESS":"安和路五段１７１巷１８１弄１３號","OBJECTID":150358},"geometry":{"x":169653.12000000011,"y":2551635.1100000013}},{"attributes":{"ID":150360,"DIS_CODE":0,"TOWNNAME":"安南區","LI":"州北里","LIN":"3鄰","STREET":"安和路","SECT":"五段","MAREA":" ","LANE":"１７１巷","ALLEY":"１８１弄","HOUSE_NO":"１９號","E_COORD97":169661.06,"N_COORD97":2551643.1800000002,"ADDRESS":"安和路五段１７１巷１８１弄１９號","OBJECTID":150359},"geometry":{"x":169661.05999999959,"y":2551643.1799999997}},{"attributes":{"ID":150361,"DIS_CODE":0,"TOWNNAME":"安南區","LI":"州北里","LIN":"3鄰","STREET":"安和路","SECT":"五段","MAREA":" ","LANE":"１７１巷","ALLEY":"１８１弄","HOUSE_NO":"３號","E_COORD97":169639.32999999999,"N_COORD97":2551622.27,"ADDRESS":"安和路五段１７１巷１８１弄３號","OBJECTID":150360},"geometry":{"x":169639.33000000101,"y":2551622.2699999996}},{"attributes":{"ID":150362,"DIS_CODE":0,"TOWNNAME":"安南區","LI":"州北里","LIN":"3鄰","STREET":"安和路","SECT":"五段","MAREA":" ","LANE":"１７１巷","ALLEY":"１９１弄","HOUSE_NO":"１號","E_COORD97":169652.04999999999,"N_COORD97":2551597.0699999998,"ADDRESS":"安和路五段１７１巷１９１弄１號","OBJECTID":150361},"geometry":{"x":169652.05000000168,"y":2551597.0700000003}},{"attributes":{"ID":150363,"DIS_CODE":0,"TOWNNAME":"安南區","LI":"州北里","LIN":"3鄰","STREET":"安和路","SECT":"五段","MAREA":" ","LANE":"１７１巷","ALLEY":"１９１弄","HOUSE_NO":"３號","E_COORD97":169656.44,"N_COORD97":2551603.6899999999,"ADDRESS":"安和路五段１７１巷１９１弄３號","OBJECTID":150362},"geometry":{"x":169656.44000000041,"y":2551603.6900000013}},{"attributes":{"ID":150364,"DIS_CODE":0,"TOWNNAME":"安南區","LI":"公親里","LIN":"3鄰","STREET":"公學路","SECT":"一段","MAREA":" ","LANE":"２２６巷","ALLEY":"１３弄","HOUSE_NO":"１１號","E_COORD97":168031.62,"N_COORD97":2553173.1299999999,"ADDRESS":"公學路一段２２６巷１３弄１１號","OBJECTID":150363},"geometry":{"x":168031.62000000104,"y":2553173.1300000027}},{"attributes":{"ID":150365,"DIS_CODE":0,"TOWNNAME":"安南區","LI":"公親里","LIN":"3鄰","STREET":"公學路","SECT":"一段","MAREA":" ","LANE":"２２６巷","ALLEY":"１３弄","HOUSE_NO":"７號","E_COORD97":168034.20999999999,"N_COORD97":2553153.0499999998,"ADDRESS":"公學路一段２２６巷１３弄７號","OBJECTID":150364},"geometry":{"x":168034.21000000089,"y":2553153.0500000026}},{"attributes":{"ID":150366,"DIS_CODE":0,"TOWNNAME":"永康區","LI":"東橋里","LIN":"3鄰","STREET":"大橋一街","SECT":" ","MAREA":" ","LANE":"３２４巷","ALLEY":"２５弄","HOUSE_NO":"２號","E_COORD97":171374.16,"N_COORD97":2546621.79,"ADDRESS":"大橋一街３２４巷２５弄２號","OBJECTID":150365},"geometry":{"x":171374.16000000108,"y":2546621.7900000028}},{"attributes":{"ID":150367,"DIS_CODE":0,"TOWNNAME":"永康區","LI":"六合里","LIN":"3鄰","STREET":"中山南路","SECT":" ","MAREA":" ","LANE":"１１８巷","ALLEY":"１弄","HOUSE_NO":"７號","E_COORD97":171137.88,"N_COORD97":2545933.5,"ADDRESS":"中山南路１１８巷１弄７號","OBJECTID":150366},"geometry":{"x":171137.87999999989,"y":2545933.5000000019}},{"attributes":{"ID":150368,"DIS_CODE":0,"TOWNNAME":"永康區","LI":"東橋里","LIN":"3鄰","STREET":"大橋一街","SECT":" ","MAREA":" ","LANE":"３２４巷","ALLEY":"２５弄","HOUSE_NO":"７號","E_COORD97":171378.82999999999,"N_COORD97":2546638.29,"ADDRESS":"大橋一街３２４巷２５弄７號","OBJECTID":150367},"geometry":{"x":171378.83000000007,"y":2546638.2899999991}},{"attributes":{"ID":150369,"DIS_CODE":0,"TOWNNAME":"永康區","LI":"正強里","LIN":"3鄰","STREET":"中正路","SECT":" ","MAREA":" ","LANE":"１巷","ALLEY":"２０弄","HOUSE_NO":"２號","E_COORD97":173639.04000000001,"N_COORD97":2547657.75,"ADDRESS":"中正路１巷２０弄２號","OBJECTID":150368},"geometry":{"x":173639.04000000004,"y":2547657.7500000019}},{"attributes":{"ID":150370,"DIS_CODE":0,"TOWNNAME":"仁德區","LI":"一甲里","LIN":"3鄰","STREET":"中正路","SECT":"三段","MAREA":" ","LANE":"１３６巷","ALLEY":"１８弄","HOUSE_NO":"１０號","E_COORD97":173474.85999999999,"N_COORD97":2541668.7000000002,"ADDRESS":"中正路三段１３６巷１８弄１０號","OBJECTID":150369},"geometry":{"x":173474.8600000022,"y":2541668.6999999993}},{"attributes":{"ID":150371,"DIS_CODE":0,"TOWNNAME":"仁德區","LI":"一甲里","LIN":"3鄰","STREET":"中正路","SECT":"三段","MAREA":" ","LANE":"１３６巷","ALLEY":"１８弄","HOUSE_NO":"１１號","E_COORD97":173484.03,"N_COORD97":2541656.2799999998,"ADDRESS":"中正路三段１３６巷１８弄１１號","OBJECTID":150370},"geometry":{"x":173484.03000000119,"y":2541656.2800000012}},{"attributes":{"ID":150372,"DIS_CODE":0,"TOWNNAME":"仁德區","LI":"一甲里","LIN":"3鄰","STREET":"中正路","SECT":"三段","MAREA":" ","LANE":"１３６巷","ALLEY":"１８弄","HOUSE_NO":"１２號","E_COORD97":173474.73999999999,"N_COORD97":2541664,"ADDRESS":"中正路三段１３６巷１８弄１２號","OBJECTID":150371},"geometry":{"x":173474.74000000022,"y":2541664}},{"attributes":{"ID":150373,"DIS_CODE":0,"TOWNNAME":"南區","LI":"文南里","LIN":"15鄰","STREET":"南明街","SECT":" ","MAREA":" ","LANE":" ","ALLEY":" ","HOUSE_NO":"５３號","E_COORD97":166677.53,"N_COORD97":2542801.3999999999,"ADDRESS":"南明街５３號","OBJECTID":150372},"geometry":{"x":166677.53000000212,"y":2542801.4000000041}},{"attributes":{"ID":150374,"DIS_CODE":0,"TOWNNAME":"南區","LI":"文南里","LIN":"15鄰","STREET":"永南二街","SECT":" ","MAREA":" ","LANE":" ","ALLEY":" ","HOUSE_NO":"５４號","E_COORD97":166675.26000000001,"N_COORD97":2542638.21,"ADDRESS":"永南二街５４號","OBJECTID":150373},"geometry":{"x":166675.25999999978,"y":2542638.2100000028}},{"attributes":{"ID":150375,"DIS_CODE":0,"TOWNNAME":"南區","LI":"文南里","LIN":"15鄰","STREET":"永南二街","SECT":" ","MAREA":" ","LANE":" ","ALLEY":" ","HOUSE_NO":"５６號","E_COORD97":166669.19,"N_COORD97":2542637.9900000002,"ADDRESS":"永南二街５６號","OBJECTID":150374},"geometry":{"x":166669.19000000041,"y":2542637.9900000039}},{"attributes":{"ID":150376,"DIS_CODE":0,"TOWNNAME":"仁德區","LI":"一甲里","LIN":"3鄰","STREET":"中正路","SECT":"三段","MAREA":" ","LANE":"１３６巷","ALLEY":"１８弄","HOUSE_NO":"１３號","E_COORD97":173484.70999999999,"N_COORD97":2541651.7000000002,"ADDRESS":"中正路三段１３６巷１８弄１３號","OBJECTID":150375},"geometry":{"x":173484.71000000089,"y":2541651.6999999993}},{"attributes":{"ID":150377,"DIS_CODE":0,"TOWNNAME":"仁德區","LI":"一甲里","LIN":"3鄰","STREET":"中正路","SECT":"三段","MAREA":" ","LANE":"１３６巷","ALLEY":"１８弄","HOUSE_NO":"１５號","E_COORD97":173484.76000000001,"N_COORD97":2541647.6299999999,"ADDRESS":"中正路三段１３６巷１８弄１５號","OBJECTID":150376},"geometry":{"x":173484.75999999978,"y":2541647.629999999}},{"attributes":{"ID":150378,"DIS_CODE":0,"TOWNNAME":"仁德區","LI":"一甲里","LIN":"3鄰","STREET":"中正路","SECT":"三段","MAREA":" ","LANE":"１３６巷","ALLEY":"１８弄","HOUSE_NO":"１６號","E_COORD97":173475.19,"N_COORD97":2541659.0600000001,"ADDRESS":"中正路三段１３６巷１８弄１６號","OBJECTID":150377},"geometry":{"x":173475.19000000041,"y":2541659.0600000024}},{"attributes":{"ID":150379,"DIS_CODE":0,"TOWNNAME":"仁德區","LI":"一甲里","LIN":"3鄰","STREET":"中正路","SECT":"三段","MAREA":" ","LANE":"１３６巷","ALLEY":"１８弄","HOUSE_NO":"１８號","E_COORD97":173475.48000000001,"N_COORD97":2541654.1699999999,"ADDRESS":"中正路三段１３６巷１８弄１８號","OBJECTID":150378},"geometry":{"x":173475.48000000045,"y":2541654.1700000018}},{"attributes":{"ID":150380,"DIS_CODE":0,"TOWNNAME":"仁德區","LI":"一甲里","LIN":"3鄰","STREET":"中正路","SECT":"三段","MAREA":" ","LANE":"１３６巷","ALLEY":"１８弄","HOUSE_NO":"１號","E_COORD97":173482.70999999999,"N_COORD97":2541681.2799999998,"ADDRESS":"中正路三段１３６巷１８弄１號","OBJECTID":150379},"geometry":{"x":173482.71000000089,"y":2541681.2799999993}},{"attributes":{"ID":150381,"DIS_CODE":0,"TOWNNAME":"仁德區","LI":"一甲里","LIN":"3鄰","STREET":"中正路","SECT":"三段","MAREA":" ","LANE":"１３６巷","ALLEY":"１８弄","HOUSE_NO":"２０號","E_COORD97":173475.53,"N_COORD97":2541649.27,"ADDRESS":"中正路三段１３６巷１８弄２０號","OBJECTID":150380},"geometry":{"x":173475.53000000119,"y":2541649.2700000014}},{"attributes":{"ID":150382,"DIS_CODE":0,"TOWNNAME":"仁德區","LI":"一甲里","LIN":"3鄰","STREET":"中正路","SECT":"三段","MAREA":" ","LANE":"１３６巷","ALLEY":"１８弄","HOUSE_NO":"２號","E_COORD97":173473.45000000001,"N_COORD97":2541683.1499999999,"ADDRESS":"中正路三段１３６巷１８弄２號","OBJECTID":150381},"geometry":{"x":173473.45000000019,"y":2541683.1500000004}},{"attributes":{"ID":150383,"DIS_CODE":0,"TOWNNAME":"仁德區","LI":"一甲里","LIN":"3鄰","STREET":"中正路","SECT":"三段","MAREA":" ","LANE":"１３６巷","ALLEY":"１８弄","HOUSE_NO":"３號","E_COORD97":173482.87,"N_COORD97":2541675.73,"ADDRESS":"中正路三段１３６巷１８弄３號","OBJECTID":150382},"geometry":{"x":173482.86999999918,"y":2541675.7300000004}},{"attributes":{"ID":150384,"DIS_CODE":0,"TOWNNAME":"永康區","LI":"北灣里","LIN":"19鄰","STREET":"大同街","SECT":" ","MAREA":" ","LANE":" ","ALLEY":" ","HOUSE_NO":"２８７號","E_COORD97":174769.57000000001,"N_COORD97":2545924.8100000001,"ADDRESS":"大同街２８７號","OBJECTID":150383},"geometry":{"x":174769.5700000003,"y":2545924.8100000042}},{"attributes":{"ID":150385,"DIS_CODE":0,"TOWNNAME":"永康區","LI":"中興里","LIN":"19鄰","STREET":"中山東路","SECT":" ","MAREA":" ","LANE":" ","ALLEY":" ","HOUSE_NO":"３６８號","E_COORD97":171890.72,"N_COORD97":2545285.3900000001,"ADDRESS":"中山東路３６８號","OBJECTID":150384},"geometry":{"x":171890.72000000067,"y":2545285.3900000006}},{"attributes":{"ID":150386,"DIS_CODE":0,"TOWNNAME":"永康區","LI":"五王里","LIN":"19鄰","STREET":"成功路","SECT":" ","MAREA":" ","LANE":" ","ALLEY":" ","HOUSE_NO":"１７６號","E_COORD97":171432.29000000001,"N_COORD97":2545636.8799999999,"ADDRESS":"成功路１７６號","OBJECTID":150385},"geometry":{"x":171432.2900000019,"y":2545636.879999999}},{"attributes":{"ID":150387,"DIS_CODE":0,"TOWNNAME":"永康區","LI":"北灣里","LIN":"19鄰","STREET":"大同街","SECT":" ","MAREA":" ","LANE":" ","ALLEY":" ","HOUSE_NO":"２８３號","E_COORD97":174769.57000000001,"N_COORD97":2545915.5600000001,"ADDRESS":"大同街２８３號","OBJECTID":150386},"geometry":{"x":174769.5700000003,"y":2545915.5600000005}},{"attributes":{"ID":150388,"DIS_CODE":0,"TOWNNAME":"永康區","LI":"北灣里","LIN":"19鄰","STREET":"大同街","SECT":" ","MAREA":" ","LANE":" ","ALLEY":" ","HOUSE_NO":"２８１號","E_COORD97":174768.82000000001,"N_COORD97":2545911.3100000001,"ADDRESS":"大同街２８１號","OBJECTID":150387},"geometry":{"x":174768.82000000123,"y":2545911.3100000042}},{"attributes":{"ID":150389,"DIS_CODE":0,"TOWNNAME":"永康區","LI":"大灣里","LIN":"19鄰","STREET":"大灣路","SECT":" ","MAREA":" ","LANE":" ","ALLEY":" ","HOUSE_NO":"３６６號","E_COORD97":174829.26000000001,"N_COORD97":2545101.25,"ADDRESS":"大灣路３６６號","OBJECTID":150388},"geometry":{"x":174829.26000000164,"y":2545101.2500000019}},{"attributes":{"ID":150390,"DIS_CODE":0,"TOWNNAME":"永康區","LI":"大灣里","LIN":"19鄰","STREET":"大灣路","SECT":" ","MAREA":" ","LANE":" ","ALLEY":" ","HOUSE_NO":"３６８號","E_COORD97":174827.04000000001,"N_COORD97":2545097.79,"ADDRESS":"大灣路３６８號","OBJECTID":150389},"geometry":{"x":174827.04000000004,"y":2545097.7899999991}},{"attributes":{"ID":150391,"DIS_CODE":0,"TOWNNAME":"仁德區","LI":"一甲里","LIN":"3鄰","STREET":"中正路","SECT":"三段","MAREA":" ","LANE":"１３６巷","ALLEY":"１８弄","HOUSE_NO":"５號","E_COORD97":173482.64999999999,"N_COORD97":2541670.98,"ADDRESS":"中正路三段１３６巷１８弄５號","OBJECTID":150390},"geometry":{"x":173482.65000000037,"y":2541670.9800000004}},{"attributes":{"ID":150392,"DIS_CODE":0,"TOWNNAME":"東區","LI":"東安里","LIN":"17鄰","STREET":"衛國街","SECT":" ","MAREA":" ","LANE":" ","ALLEY":" ","HOUSE_NO":"２０號之１","E_COORD97":170251.04999999999,"N_COORD97":2542998.2400000002,"ADDRESS":"衛國街２０號之１","OBJECTID":150391},"geometry":{"x":170251.05000000075,"y":2542998.2400000002}},{"attributes":{"ID":150393,"DIS_CODE":0,"TOWNNAME":"東山區","LI":"聖賢里","LIN":"20鄰","STREET":" ","SECT":" ","MAREA":"頂窩","LANE":" ","ALLEY":" ","HOUSE_NO":"５７號之８","E_COORD97":183389.32000000001,"N_COORD97":2578748.0499999998,"ADDRESS":"頂窩５７號之８","OBJECTID":150392},"geometry":{"x":183389.32000000123,"y":2578748.0500000007}},{"attributes":{"ID":150394,"DIS_CODE":0,"TOWNNAME":"仁德區","LI":"一甲里","LIN":"3鄰","STREET":"中正路","SECT":"三段","MAREA":" ","LANE":"１３６巷","ALLEY":"１８弄","HOUSE_NO":"６號","E_COORD97":173473.26000000001,"N_COORD97":2541678.4900000002,"ADDRESS":"中正路三段１３６巷１８弄６號","OBJECTID":150393},"geometry":{"x":173473.26000000164,"y":2541678.4900000039}},{"attributes":{"ID":150395,"DIS_CODE":0,"TOWNNAME":"仁德區","LI":"一甲里","LIN":"3鄰","STREET":"中正路","SECT":"三段","MAREA":" ","LANE":"１３６巷","ALLEY":"１８弄","HOUSE_NO":"７號","E_COORD97":173482.64999999999,"N_COORD97":2541666.0099999998,"ADDRESS":"中正路三段１３６巷１８弄７號","OBJECTID":150394},"geometry":{"x":173482.65000000037,"y":2541666.0099999998}},{"attributes":{"ID":150396,"DIS_CODE":0,"TOWNNAME":"東區","LI":"東安里","LIN":"21鄰","STREET":"衛國街","SECT":" ","MAREA":" ","LANE":" ","ALLEY":" ","HOUSE_NO":"２０號之２","E_COORD97":170252.41,"N_COORD97":2543002.9500000002,"ADDRESS":"衛國街２０號之２","OBJECTID":150395},"geometry":{"x":170252.41000000108,"y":2543002.9499999993}},{"attributes":{"ID":150397,"DIS_CODE":0,"TOWNNAME":"東區","LI":"東安里","LIN":"20鄰","STREET":"林森路","SECT":"二段","MAREA":" ","LANE":" ","ALLEY":" ","HOUSE_NO":"７１號","E_COORD97":170309.89000000001,"N_COORD97":2543051.8900000001,"ADDRESS":"林森路二段７１號","OBJECTID":150396},"geometry":{"x":170309.88999999966,"y":2543051.8900000006}},{"attributes":{"ID":150398,"DIS_CODE":0,"TOWNNAME":"東區","LI":"東安里","LIN":"21鄰","STREET":"衛國街","SECT":" ","MAREA":" ","LANE":" ","ALLEY":" ","HOUSE_NO":"１８號","E_COORD97":170249.23000000001,"N_COORD97":2542989.7999999998,"ADDRESS":"衛國街１８號","OBJECTID":150397},"geometry":{"x":170249.23000000045,"y":2542989.8000000026}},{"attributes":{"ID":150399,"DIS_CODE":0,"TOWNNAME":"東區","LI":"東安里","LIN":"21鄰","STREET":"衛國街","SECT":" ","MAREA":" ","LANE":" ","ALLEY":" ","HOUSE_NO":"２０號","E_COORD97":170250.32000000001,"N_COORD97":2542994.25,"ADDRESS":"衛國街２０號","OBJECTID":150398},"geometry":{"x":170250.3200000003,"y":2542994.25}},{"attributes":{"ID":150400,"DIS_CODE":0,"TOWNNAME":"東區","LI":"東安里","LIN":"21鄰","STREET":"衛國街","SECT":" ","MAREA":" ","LANE":" ","ALLEY":" ","HOUSE_NO":"２２號","E_COORD97":170252.41,"N_COORD97":2543007.7599999998,"ADDRESS":"衛國街２２號","OBJECTID":150399},"geometry":{"x":170252.41000000108,"y":2543007.7599999998}},{"attributes":{"ID":150401,"DIS_CODE":0,"TOWNNAME":"新化區","LI":"\u25A0拔里","LIN":"1鄰","STREET":" ","SECT":" ","MAREA":"\u25A0拔林","LANE":" ","ALLEY":" ","HOUSE_NO":"７號","E_COORD97":182950.22,"N_COORD97":2551837.25,"ADDRESS":"\u25A0拔林７號","OBJECTID":150400},"geometry":{"x":182950.22000000067,"y":2551837.2500000037}}]}