{"displayFieldName":"TOWNNAME","fieldAliases":{"ID":"ID","DIS_CODE":"DIS_CODE","TOWNNAME":"TOWNNAME","LI":"LI","LIN":"LIN","STREET":"STREET","SECT":"SECT","MAREA":"MAREA","LANE":"LANE","ALLEY":"ALLEY","HOUSE_NO":"HOUSE_NO","E_COORD97":"E_COORD97","N_COORD97":"N_COORD97","ADDRESS":"ADDRESS","OBJECTID":"OBJECTID"},"geometryType":"esriGeometryPoint","spatialReference":{"wkid":102443,"latestWkid":3826},"fields":[{"name":"ID","type":"esriFieldTypeDouble","alias":"ID"},{"name":"DIS_CODE","type":"esriFieldTypeInteger","alias":"DIS_CODE"},{"name":"TOWNNAME","type":"esriFieldTypeString","alias":"TOWNNAME","length":8},{"name":"LI","type":"esriFieldTypeString","alias":"LI","length":8},{"name":"LIN","type":"esriFieldTypeString","alias":"LIN","length":12},{"name":"STREET","type":"esriFieldTypeString","alias":"STREET","length":20},{"name":"SECT","type":"esriFieldTypeString","alias":"SECT","length":8},{"name":"MAREA","type":"esriFieldTypeString","alias":"MAREA","length":12},{"name":"LANE","type":"esriFieldTypeString","alias":"LANE","length":10},{"name":"ALLEY","type":"esriFieldTypeString","alias":"ALLEY","length":10},{"name":"HOUSE_NO","type":"esriFieldTypeString","alias":"HOUSE_NO","length":20},{"name":"E_COORD97","type":"esriFieldTypeDouble","alias":"E_COORD97"},{"name":"N_COORD97","type":"esriFieldTypeDouble","alias":"N_COORD97"},{"name":"ADDRESS","type":"esriFieldTypeString","alias":"ADDRESS","length":50},{"name":"OBJECTID","type":"esriFieldTypeOID","alias":"OBJECTID"}],"features":[{"attributes":{"ID":353610,"DIS_CODE":0,"TOWNNAME":"新化區","LI":"協興里","LIN":"6鄰","STREET":"忠孝路","SECT":" ","MAREA":" ","LANE":"１９０巷","ALLEY":" ","HOUSE_NO":"４５號","E_COORD97":178371.47,"N_COORD97":2548623.25,"ADDRESS":"忠孝路１９０巷４５號","OBJECTID":353601},"geometry":{"x":178371.47000000067,"y":2548623.2500000037}},{"attributes":{"ID":353611,"DIS_CODE":0,"TOWNNAME":"新化區","LI":"協興里","LIN":"6鄰","STREET":"忠孝路","SECT":" ","MAREA":" ","LANE":"１９６巷","ALLEY":" ","HOUSE_NO":"１４號","E_COORD97":178339.26999999999,"N_COORD97":2548590.25,"ADDRESS":"忠孝路１９６巷１４號","OBJECTID":353602},"geometry":{"x":178339.26999999955,"y":2548590.2500000019}},{"attributes":{"ID":353612,"DIS_CODE":0,"TOWNNAME":"新化區","LI":"太平里","LIN":"6鄰","STREET":"民生路","SECT":" ","MAREA":" ","LANE":"３１４巷","ALLEY":" ","HOUSE_NO":"２４號","E_COORD97":179003.85999999999,"N_COORD97":2549229.25,"ADDRESS":"民生路３１４巷２４號","OBJECTID":353603},"geometry":{"x":179003.86000000034,"y":2549229.25}},{"attributes":{"ID":353613,"DIS_CODE":0,"TOWNNAME":"新化區","LI":"太平里","LIN":"6鄰","STREET":"民生路","SECT":" ","MAREA":" ","LANE":"３１４巷","ALLEY":" ","HOUSE_NO":"２９號","E_COORD97":179005.06,"N_COORD97":2549244.25,"ADDRESS":"民生路３１４巷２９號","OBJECTID":353604},"geometry":{"x":179005.05999999959,"y":2549244.2500000019}},{"attributes":{"ID":353614,"DIS_CODE":0,"TOWNNAME":"新化區","LI":"太平里","LIN":"6鄰","STREET":"民生路","SECT":" ","MAREA":" ","LANE":"３１４巷","ALLEY":" ","HOUSE_NO":"１０號","E_COORD97":178966.45999999999,"N_COORD97":2549227.25,"ADDRESS":"民生路３１４巷１０號","OBJECTID":353605},"geometry":{"x":178966.46000000089,"y":2549227.2500000019}},{"attributes":{"ID":353615,"DIS_CODE":0,"TOWNNAME":"新化區","LI":"觀音里","LIN":"6鄰","STREET":"中正路","SECT":" ","MAREA":" ","LANE":"５４９巷","ALLEY":" ","HOUSE_NO":"２號之２","E_COORD97":178974.45999999999,"N_COORD97":2548670.2599999998,"ADDRESS":"中正路５４９巷２號之２","OBJECTID":353606},"geometry":{"x":178974.45999999996,"y":2548670.2599999979}},{"attributes":{"ID":353616,"DIS_CODE":0,"TOWNNAME":"新化區","LI":"武安里","LIN":"6鄰","STREET":"中正路","SECT":" ","MAREA":" ","LANE":"３６９巷","ALLEY":" ","HOUSE_NO":"１２號","E_COORD97":179092.26000000001,"N_COORD97":2548278.25,"ADDRESS":"中正路３６９巷１２號","OBJECTID":353607},"geometry":{"x":179092.25999999978,"y":2548278.2500000019}},{"attributes":{"ID":353617,"DIS_CODE":0,"TOWNNAME":"新化區","LI":"太平里","LIN":"6鄰","STREET":"民生路","SECT":" ","MAREA":" ","LANE":"３１４巷","ALLEY":" ","HOUSE_NO":"７號","E_COORD97":178941.20999999999,"N_COORD97":2549230.25,"ADDRESS":"民生路３１４巷７號","OBJECTID":353608},"geometry":{"x":178941.21000000089,"y":2549230.2500000037}},{"attributes":{"ID":353618,"DIS_CODE":0,"TOWNNAME":"新化區","LI":"協興里","LIN":"6鄰","STREET":"忠孝路","SECT":" ","MAREA":" ","LANE":"１９０巷","ALLEY":" ","HOUSE_NO":"５號之３","E_COORD97":178395.76999999999,"N_COORD97":2548648.2599999998,"ADDRESS":"忠孝路１９０巷５號之３","OBJECTID":353609},"geometry":{"x":178395.77000000142,"y":2548648.2600000016}},{"attributes":{"ID":353619,"DIS_CODE":0,"TOWNNAME":"新化區","LI":"協興里","LIN":"6鄰","STREET":"忠孝路","SECT":" ","MAREA":" ","LANE":"１９０巷","ALLEY":" ","HOUSE_NO":"３號之３","E_COORD97":178397.26999999999,"N_COORD97":2548624.2599999998,"ADDRESS":"忠孝路１９０巷３號之３","OBJECTID":353610},"geometry":{"x":178397.26999999862,"y":2548624.2600000016}},{"attributes":{"ID":353620,"DIS_CODE":0,"TOWNNAME":"新化區","LI":"東榮里","LIN":"6鄰","STREET":"信義路","SECT":" ","MAREA":" ","LANE":"１１３巷","ALLEY":" ","HOUSE_NO":"１７號","E_COORD97":179748.78,"N_COORD97":2548474.25,"ADDRESS":"信義路１１３巷１７號","OBJECTID":353611},"geometry":{"x":179748.78000000026,"y":2548474.2500000037}},{"attributes":{"ID":353621,"DIS_CODE":0,"TOWNNAME":"北門區","LI":"北門里","LIN":"20鄰","STREET":" ","SECT":" ","MAREA":"舊埕","LANE":" ","ALLEY":" ","HOUSE_NO":"１０２號","E_COORD97":160465.95000000001,"N_COORD97":2574223.8399999999,"ADDRESS":"舊埕１０２號","OBJECTID":353612},"geometry":{"x":160465.95000000112,"y":2574223.8400000017}},{"attributes":{"ID":353622,"DIS_CODE":0,"TOWNNAME":"北門區","LI":"北門里","LIN":"20鄰","STREET":" ","SECT":" ","MAREA":"舊埕","LANE":" ","ALLEY":" ","HOUSE_NO":"１０３號","E_COORD97":160472.10999999999,"N_COORD97":2574215.1499999999,"ADDRESS":"舊埕１０３號","OBJECTID":353613},"geometry":{"x":160472.11000000034,"y":2574215.1500000041}},{"attributes":{"ID":353623,"DIS_CODE":0,"TOWNNAME":"北門區","LI":"北門里","LIN":"20鄰","STREET":" ","SECT":" ","MAREA":"舊埕","LANE":" ","ALLEY":" ","HOUSE_NO":"１０４號","E_COORD97":160484.26999999999,"N_COORD97":2574236.2200000002,"ADDRESS":"舊埕１０４號","OBJECTID":353614},"geometry":{"x":160484.27000000142,"y":2574236.2200000025}},{"attributes":{"ID":353624,"DIS_CODE":0,"TOWNNAME":"北門區","LI":"北門里","LIN":"20鄰","STREET":" ","SECT":" ","MAREA":"舊埕","LANE":" ","ALLEY":" ","HOUSE_NO":"１０５號","E_COORD97":160489.57000000001,"N_COORD97":2574227.46,"ADDRESS":"舊埕１０５號","OBJECTID":353615},"geometry":{"x":160489.5700000003,"y":2574227.4600000028}},{"attributes":{"ID":353625,"DIS_CODE":0,"TOWNNAME":"北門區","LI":"北門里","LIN":"20鄰","STREET":" ","SECT":" ","MAREA":"舊埕","LANE":" ","ALLEY":" ","HOUSE_NO":"１０６之１號","E_COORD97":160507.85000000001,"N_COORD97":2574238.1800000002,"ADDRESS":"舊埕１０６之１號","OBJECTID":353616},"geometry":{"x":160507.85000000056,"y":2574238.1800000016}},{"attributes":{"ID":353626,"DIS_CODE":0,"TOWNNAME":"北門區","LI":"北門里","LIN":"20鄰","STREET":" ","SECT":" ","MAREA":"舊埕","LANE":" ","ALLEY":" ","HOUSE_NO":"１０６號","E_COORD97":160503.66695799999,"N_COORD97":2574249.7661299999,"ADDRESS":"舊埕１０６號","OBJECTID":353617},"geometry":{"x":160503.66695800051,"y":2574249.7661320008}},{"attributes":{"ID":353627,"DIS_CODE":0,"TOWNNAME":"下營區","LI":"下營里","LIN":"20鄰","STREET":"中山路","SECT":"二段","MAREA":" ","LANE":"２９巷","ALLEY":" ","HOUSE_NO":"１號","E_COORD97":174419.25,"N_COORD97":2570403.04,"ADDRESS":"中山路二段２９巷１號","OBJECTID":353618},"geometry":{"x":174419.25,"y":2570403.0399999991}},{"attributes":{"ID":353628,"DIS_CODE":0,"TOWNNAME":"下營區","LI":"下營里","LIN":"20鄰","STREET":"中山路","SECT":"二段","MAREA":" ","LANE":"２９巷","ALLEY":" ","HOUSE_NO":"２號","E_COORD97":174409.72,"N_COORD97":2570390.8300000001,"ADDRESS":"中山路二段２９巷２號","OBJECTID":353619},"geometry":{"x":174409.72000000067,"y":2570390.8300000001}},{"attributes":{"ID":353629,"DIS_CODE":0,"TOWNNAME":"下營區","LI":"下營里","LIN":"20鄰","STREET":"中山路","SECT":"二段","MAREA":" ","LANE":"２９巷","ALLEY":" ","HOUSE_NO":"６號","E_COORD97":174412.95000000001,"N_COORD97":2570391.9300000002,"ADDRESS":"中山路二段２９巷６號","OBJECTID":353620},"geometry":{"x":174412.95000000019,"y":2570391.9300000016}},{"attributes":{"ID":353630,"DIS_CODE":0,"TOWNNAME":"下營區","LI":"下營里","LIN":"20鄰","STREET":"中山路","SECT":"二段","MAREA":" ","LANE":"２９巷","ALLEY":" ","HOUSE_NO":"８號","E_COORD97":174415.75,"N_COORD97":2570392.8999999999,"ADDRESS":"中山路二段２９巷８號","OBJECTID":353621},"geometry":{"x":174415.75,"y":2570392.9000000022}},{"attributes":{"ID":353631,"DIS_CODE":0,"TOWNNAME":"下營區","LI":"下營里","LIN":"20鄰","STREET":"中山路","SECT":"二段","MAREA":" ","LANE":"３５巷","ALLEY":" ","HOUSE_NO":"１號","E_COORD97":174411.84,"N_COORD97":2570382.0600000001,"ADDRESS":"中山路二段３５巷１號","OBJECTID":353622},"geometry":{"x":174411.84000000171,"y":2570382.0600000024}},{"attributes":{"ID":353632,"DIS_CODE":0,"TOWNNAME":"下營區","LI":"下營里","LIN":"20鄰","STREET":"中山路","SECT":"二段","MAREA":" ","LANE":"３５巷","ALLEY":" ","HOUSE_NO":"２號","E_COORD97":174413.37,"N_COORD97":2570376.2999999998,"ADDRESS":"中山路二段３５巷２號","OBJECTID":353623},"geometry":{"x":174413.37000000011,"y":2570376.3000000045}},{"attributes":{"ID":353633,"DIS_CODE":0,"TOWNNAME":"下營區","LI":"下營里","LIN":"20鄰","STREET":"中山路","SECT":"二段","MAREA":" ","LANE":"３５巷","ALLEY":" ","HOUSE_NO":"３號","E_COORD97":174414.76000000001,"N_COORD97":2570383.0600000001,"ADDRESS":"中山路二段３５巷３號","OBJECTID":353624},"geometry":{"x":174414.76000000071,"y":2570383.0600000005}},{"attributes":{"ID":353634,"DIS_CODE":0,"TOWNNAME":"下營區","LI":"下營里","LIN":"20鄰","STREET":"中山路","SECT":"二段","MAREA":" ","LANE":"３５巷","ALLEY":" ","HOUSE_NO":"５號","E_COORD97":174417.47,"N_COORD97":2570383.6699999999,"ADDRESS":"中山路二段３５巷５號","OBJECTID":353625},"geometry":{"x":174417.46999999974,"y":2570383.6700000018}},{"attributes":{"ID":353635,"DIS_CODE":0,"TOWNNAME":"新化區","LI":"東榮里","LIN":"6鄰","STREET":"信義路","SECT":" ","MAREA":" ","LANE":"１１７巷","ALLEY":" ","HOUSE_NO":"４９號之８","E_COORD97":179781.04000000001,"N_COORD97":2548355.2599999998,"ADDRESS":"信義路１１７巷４９號之８","OBJECTID":353626},"geometry":{"x":179781.0400000019,"y":2548355.2600000035}},{"attributes":{"ID":353636,"DIS_CODE":0,"TOWNNAME":"新化區","LI":"護國里","LIN":"6鄰","STREET":"中山路","SECT":" ","MAREA":" ","LANE":"１４６巷","ALLEY":" ","HOUSE_NO":"８號","E_COORD97":179248.81,"N_COORD97":2548571.25,"ADDRESS":"中山路１４６巷８號","OBJECTID":353627},"geometry":{"x":179248.81000000052,"y":2548571.25}},{"attributes":{"ID":353637,"DIS_CODE":0,"TOWNNAME":"新化區","LI":"觀音里","LIN":"6鄰","STREET":"中正路","SECT":" ","MAREA":" ","LANE":"５４９巷","ALLEY":" ","HOUSE_NO":"２７號之１","E_COORD97":178985.19,"N_COORD97":2548622.2599999998,"ADDRESS":"中正路５４９巷２７號之１","OBJECTID":353628},"geometry":{"x":178985.19000000041,"y":2548622.2599999998}},{"attributes":{"ID":353638,"DIS_CODE":0,"TOWNNAME":"新化區","LI":"東榮里","LIN":"6鄰","STREET":"信義路","SECT":" ","MAREA":" ","LANE":"１１７巷","ALLEY":" ","HOUSE_NO":"４９號之１１","E_COORD97":179800.66,"N_COORD97":2548359.2599999998,"ADDRESS":"信義路１１７巷４９號之１１","OBJECTID":353629},"geometry":{"x":179800.66000000201,"y":2548359.2600000016}},{"attributes":{"ID":353639,"DIS_CODE":0,"TOWNNAME":"新化區","LI":"協興里","LIN":"6鄰","STREET":"忠孝路","SECT":" ","MAREA":" ","LANE":"１９０巷","ALLEY":" ","HOUSE_NO":"１號","E_COORD97":178401.62,"N_COORD97":2548598.25,"ADDRESS":"忠孝路１９０巷１號","OBJECTID":353630},"geometry":{"x":178401.62000000011,"y":2548598.25}},{"attributes":{"ID":353640,"DIS_CODE":0,"TOWNNAME":"東區","LI":"小東里","LIN":"8鄰","STREET":"東和路","SECT":" ","MAREA":" ","LANE":" ","ALLEY":" ","HOUSE_NO":"９５號五樓之３","E_COORD97":170830.70999999999,"N_COORD97":2544293.7599999998,"ADDRESS":"東和路９５號五樓之３","OBJECTID":353631},"geometry":{"x":170830.70999999996,"y":2544293.7600000016}},{"attributes":{"ID":353641,"DIS_CODE":0,"TOWNNAME":"東區","LI":"小東里","LIN":"8鄰","STREET":"東和路","SECT":" ","MAREA":" ","LANE":" ","ALLEY":" ","HOUSE_NO":"９５號五樓之４","E_COORD97":170830.70999999999,"N_COORD97":2544293.7599999998,"ADDRESS":"東和路９５號五樓之４","OBJECTID":353632},"geometry":{"x":170830.70999999996,"y":2544293.7600000016}},{"attributes":{"ID":353642,"DIS_CODE":0,"TOWNNAME":"東區","LI":"小東里","LIN":"8鄰","STREET":"東和路","SECT":" ","MAREA":" ","LANE":" ","ALLEY":" ","HOUSE_NO":"９５號六樓","E_COORD97":170830.70999999999,"N_COORD97":2544293.7599999998,"ADDRESS":"東和路９５號六樓","OBJECTID":353633},"geometry":{"x":170830.70999999996,"y":2544293.7600000016}},{"attributes":{"ID":353643,"DIS_CODE":0,"TOWNNAME":"東區","LI":"小東里","LIN":"8鄰","STREET":"東和路","SECT":" ","MAREA":" ","LANE":" ","ALLEY":" ","HOUSE_NO":"９５號六樓之２","E_COORD97":170830.70999999999,"N_COORD97":2544293.7599999998,"ADDRESS":"東和路９５號六樓之２","OBJECTID":353634},"geometry":{"x":170830.70999999996,"y":2544293.7600000016}},{"attributes":{"ID":353644,"DIS_CODE":0,"TOWNNAME":"東區","LI":"小東里","LIN":"8鄰","STREET":"東和路","SECT":" ","MAREA":" ","LANE":" ","ALLEY":" ","HOUSE_NO":"９５號六樓之３","E_COORD97":170830.70999999999,"N_COORD97":2544293.7599999998,"ADDRESS":"東和路９５號六樓之３","OBJECTID":353635},"geometry":{"x":170830.70999999996,"y":2544293.7600000016}},{"attributes":{"ID":353645,"DIS_CODE":0,"TOWNNAME":"東區","LI":"小東里","LIN":"8鄰","STREET":"東和路","SECT":" ","MAREA":" ","LANE":" ","ALLEY":" ","HOUSE_NO":"９５號六樓之４","E_COORD97":170830.70999999999,"N_COORD97":2544293.7599999998,"ADDRESS":"東和路９５號六樓之４","OBJECTID":353636},"geometry":{"x":170830.70999999996,"y":2544293.7600000016}},{"attributes":{"ID":353646,"DIS_CODE":0,"TOWNNAME":"東區","LI":"小東里","LIN":"8鄰","STREET":"東和路","SECT":" ","MAREA":" ","LANE":" ","ALLEY":" ","HOUSE_NO":"９５號四樓","E_COORD97":170830.70999999999,"N_COORD97":2544293.7599999998,"ADDRESS":"東和路９５號四樓","OBJECTID":353637},"geometry":{"x":170830.70999999996,"y":2544293.7600000016}},{"attributes":{"ID":353647,"DIS_CODE":0,"TOWNNAME":"北區","LI":"重興里","LIN":"1鄰","STREET":"東豐路","SECT":" ","MAREA":" ","LANE":" ","ALLEY":" ","HOUSE_NO":"３３５號","E_COORD97":170495.35999999999,"N_COORD97":2544802.3700000001,"ADDRESS":"東豐路３３５號","OBJECTID":353638},"geometry":{"x":170495.36000000127,"y":2544802.3699999992}},{"attributes":{"ID":353648,"DIS_CODE":0,"TOWNNAME":"下營區","LI":"宅內里","LIN":"20鄰","STREET":"中正北路","SECT":" ","MAREA":" ","LANE":"２１３巷","ALLEY":" ","HOUSE_NO":"７０號","E_COORD97":173764.37,"N_COORD97":2571434.1000000001,"ADDRESS":"中正北路２１３巷７０號","OBJECTID":353639},"geometry":{"x":173764.37000000197,"y":2571434.0999999996}},{"attributes":{"ID":353649,"DIS_CODE":0,"TOWNNAME":"新化區","LI":"東榮里","LIN":"6鄰","STREET":"信義路","SECT":" ","MAREA":" ","LANE":"１１３巷","ALLEY":" ","HOUSE_NO":"１９號","E_COORD97":179753.17999999999,"N_COORD97":2548475.25,"ADDRESS":"信義路１１３巷１９號","OBJECTID":353640},"geometry":{"x":179753.18000000063,"y":2548475.2500000019}},{"attributes":{"ID":353650,"DIS_CODE":0,"TOWNNAME":"新化區","LI":"協興里","LIN":"6鄰","STREET":"忠孝路","SECT":" ","MAREA":" ","LANE":"１９６巷","ALLEY":" ","HOUSE_NO":"８號","E_COORD97":178358.01999999999,"N_COORD97":2548597.25,"ADDRESS":"忠孝路１９６巷８號","OBJECTID":353641},"geometry":{"x":178358.01999999955,"y":2548597.2500000019}},{"attributes":{"ID":353651,"DIS_CODE":0,"TOWNNAME":"新化區","LI":"協興里","LIN":"6鄰","STREET":"忠孝路","SECT":" ","MAREA":" ","LANE":"１９６巷","ALLEY":" ","HOUSE_NO":"６號","E_COORD97":178364.32000000001,"N_COORD97":2548599.25,"ADDRESS":"忠孝路１９６巷６號","OBJECTID":353642},"geometry":{"x":178364.32000000123,"y":2548599.25}},{"attributes":{"ID":353652,"DIS_CODE":0,"TOWNNAME":"新化區","LI":"觀音里","LIN":"6鄰","STREET":"中正路","SECT":" ","MAREA":" ","LANE":"５４９巷","ALLEY":" ","HOUSE_NO":"５號之４","E_COORD97":178943.73999999999,"N_COORD97":2548643.2599999998,"ADDRESS":"中正路５４９巷５號之４","OBJECTID":353643},"geometry":{"x":178943.74000000022,"y":2548643.2600000035}},{"attributes":{"ID":353653,"DIS_CODE":0,"TOWNNAME":"新化區","LI":"東榮里","LIN":"6鄰","STREET":"信義路","SECT":" ","MAREA":" ","LANE":"１１７巷","ALLEY":" ","HOUSE_NO":"４９號之７","E_COORD97":179776.82000000001,"N_COORD97":2548354.2599999998,"ADDRESS":"信義路１１７巷４９號之７","OBJECTID":353644},"geometry":{"x":179776.82000000123,"y":2548354.2599999998}},{"attributes":{"ID":353654,"DIS_CODE":0,"TOWNNAME":"新化區","LI":"觀音里","LIN":"6鄰","STREET":"中正路","SECT":" ","MAREA":" ","LANE":"５４９巷","ALLEY":" ","HOUSE_NO":"３號之５","E_COORD97":178964.26999999999,"N_COORD97":2548646.2599999998,"ADDRESS":"中正路５４９巷３號之５","OBJECTID":353645},"geometry":{"x":178964.27000000048,"y":2548646.2599999998}},{"attributes":{"ID":353655,"DIS_CODE":0,"TOWNNAME":"新化區","LI":"東榮里","LIN":"6鄰","STREET":"信義路","SECT":" ","MAREA":" ","LANE":"１１７巷","ALLEY":" ","HOUSE_NO":"１３號","E_COORD97":179738.67999999999,"N_COORD97":2548429.25,"ADDRESS":"信義路１１７巷１３號","OBJECTID":353646},"geometry":{"x":179738.6799999997,"y":2548429.25}},{"attributes":{"ID":353656,"DIS_CODE":0,"TOWNNAME":"新化區","LI":"東榮里","LIN":"6鄰","STREET":"信義路","SECT":" ","MAREA":" ","LANE":"１１７巷","ALLEY":" ","HOUSE_NO":"３號","E_COORD97":179695.13,"N_COORD97":2548460.25,"ADDRESS":"信義路１１７巷３號","OBJECTID":353647},"geometry":{"x":179695.12999999989,"y":2548460.25}},{"attributes":{"ID":353657,"DIS_CODE":0,"TOWNNAME":"新化區","LI":"東榮里","LIN":"6鄰","STREET":"信義路","SECT":" ","MAREA":" ","LANE":"１１７巷","ALLEY":" ","HOUSE_NO":"３３號之３","E_COORD97":179722.23000000001,"N_COORD97":2548395.2599999998,"ADDRESS":"信義路１１７巷３３號之３","OBJECTID":353648},"geometry":{"x":179722.23000000045,"y":2548395.2599999998}},{"attributes":{"ID":353658,"DIS_CODE":0,"TOWNNAME":"新化區","LI":"東榮里","LIN":"6鄰","STREET":"信義路","SECT":" ","MAREA":" ","LANE":"１１７巷","ALLEY":" ","HOUSE_NO":"４９號之６","E_COORD97":179772.13,"N_COORD97":2548354.2599999998,"ADDRESS":"信義路１１７巷４９號之６","OBJECTID":353649},"geometry":{"x":179772.13000000082,"y":2548354.2599999998}},{"attributes":{"ID":353659,"DIS_CODE":0,"TOWNNAME":"新化區","LI":"觀音里","LIN":"6鄰","STREET":"中正路","SECT":" ","MAREA":" ","LANE":"５４９巷","ALLEY":" ","HOUSE_NO":"５號之５","E_COORD97":178940.76999999999,"N_COORD97":2548642.2599999998,"ADDRESS":"中正路５４９巷５號之５","OBJECTID":353650},"geometry":{"x":178940.76999999955,"y":2548642.2599999998}},{"attributes":{"ID":353660,"DIS_CODE":0,"TOWNNAME":"新化區","LI":"東榮里","LIN":"6鄰","STREET":"信義路","SECT":" ","MAREA":" ","LANE":"１１７巷","ALLEY":" ","HOUSE_NO":"３３號","E_COORD97":179727.48000000001,"N_COORD97":2548407.25,"ADDRESS":"信義路１１７巷３３號","OBJECTID":353651},"geometry":{"x":179727.48000000045,"y":2548407.2500000019}},{"attributes":{"ID":353661,"DIS_CODE":0,"TOWNNAME":"新化區","LI":"東榮里","LIN":"6鄰","STREET":"信義路","SECT":" ","MAREA":" ","LANE":"１１３巷","ALLEY":" ","HOUSE_NO":"５號","E_COORD97":179723.42999999999,"N_COORD97":2548463.25,"ADDRESS":"信義路１１３巷５號","OBJECTID":353652},"geometry":{"x":179723.4299999997,"y":2548463.25}},{"attributes":{"ID":353662,"DIS_CODE":0,"TOWNNAME":"新化區","LI":"觀音里","LIN":"6鄰","STREET":"中正路","SECT":" ","MAREA":" ","LANE":"５４９巷","ALLEY":" ","HOUSE_NO":"３號之２","E_COORD97":178976.76000000001,"N_COORD97":2548649.2599999998,"ADDRESS":"中正路５４９巷３號之２","OBJECTID":353653},"geometry":{"x":178976.75999999978,"y":2548649.2599999998}},{"attributes":{"ID":353663,"DIS_CODE":0,"TOWNNAME":"永康區","LI":"建國里","LIN":"1鄰","STREET":"復興路","SECT":" ","MAREA":" ","LANE":" ","ALLEY":" ","HOUSE_NO":"１６號","E_COORD97":173116.14000000001,"N_COORD97":2544359.2599999998,"ADDRESS":"復興路１６號","OBJECTID":353654},"geometry":{"x":173116.14000000153,"y":2544359.2600000016}},{"attributes":{"ID":353664,"DIS_CODE":0,"TOWNNAME":"安南區","LI":"新順里","LIN":"20鄰","STREET":"慶安路","SECT":" ","MAREA":" ","LANE":"１７５巷","ALLEY":" ","HOUSE_NO":"６之５號","E_COORD97":169377.04000000001,"N_COORD97":2549310.9399999999,"ADDRESS":"慶安路１７５巷６之５號","OBJECTID":353655},"geometry":{"x":169377.04000000004,"y":2549310.9400000013}},{"attributes":{"ID":353665,"DIS_CODE":0,"TOWNNAME":"佳里區","LI":"安西里","LIN":"20鄰","STREET":"光華街","SECT":" ","MAREA":" ","LANE":"２２巷","ALLEY":" ","HOUSE_NO":"３０號","E_COORD97":165419.92999999999,"N_COORD97":2562873.4399999999,"ADDRESS":"光華街２２巷３０號","OBJECTID":353656},"geometry":{"x":165419.93000000063,"y":2562873.4399999995}},{"attributes":{"ID":353666,"DIS_CODE":0,"TOWNNAME":"佳里區","LI":"安西里","LIN":"20鄰","STREET":"安西路","SECT":" ","MAREA":" ","LANE":"４０２巷","ALLEY":" ","HOUSE_NO":"１１號","E_COORD97":165280.07000000001,"N_COORD97":2562978.02,"ADDRESS":"安西路４０２巷１１號","OBJECTID":353657},"geometry":{"x":165280.0700000003,"y":2562978.0199999996}},{"attributes":{"ID":353667,"DIS_CODE":0,"TOWNNAME":"新化區","LI":"東榮里","LIN":"6鄰","STREET":"信義路","SECT":" ","MAREA":" ","LANE":"１１３巷","ALLEY":" ","HOUSE_NO":"９號","E_COORD97":179725.13,"N_COORD97":2548455.25,"ADDRESS":"信義路１１３巷９號","OBJECTID":353658},"geometry":{"x":179725.13000000082,"y":2548455.2500000019}},{"attributes":{"ID":353668,"DIS_CODE":0,"TOWNNAME":"新化區","LI":"武安里","LIN":"6鄰","STREET":"中正路","SECT":" ","MAREA":" ","LANE":"３６９巷","ALLEY":" ","HOUSE_NO":"３６號","E_COORD97":179054.76000000001,"N_COORD97":2548272.25,"ADDRESS":"中正路３６９巷３６號","OBJECTID":353659},"geometry":{"x":179054.75999999978,"y":2548272.2500000019}},{"attributes":{"ID":353669,"DIS_CODE":0,"TOWNNAME":"新化區","LI":"武安里","LIN":"6鄰","STREET":"中正路","SECT":" ","MAREA":" ","LANE":"３６９巷","ALLEY":" ","HOUSE_NO":"６號","E_COORD97":179098.60999999999,"N_COORD97":2548279.25,"ADDRESS":"中正路３６９巷６號","OBJECTID":353660},"geometry":{"x":179098.61000000034,"y":2548279.25}},{"attributes":{"ID":353670,"DIS_CODE":0,"TOWNNAME":"新化區","LI":"協興里","LIN":"6鄰","STREET":"忠孝路","SECT":" ","MAREA":" ","LANE":"１９０巷","ALLEY":" ","HOUSE_NO":"３９號","E_COORD97":178351.97,"N_COORD97":2548619.25,"ADDRESS":"忠孝路１９０巷３９號","OBJECTID":353661},"geometry":{"x":178351.96999999974,"y":2548619.25}},{"attributes":{"ID":353671,"DIS_CODE":0,"TOWNNAME":"新化區","LI":"協興里","LIN":"6鄰","STREET":"忠孝路","SECT":" ","MAREA":" ","LANE":"１９０巷","ALLEY":" ","HOUSE_NO":"１９號","E_COORD97":178327.76999999999,"N_COORD97":2548625.25,"ADDRESS":"忠孝路１９０巷１９號","OBJECTID":353662},"geometry":{"x":178327.76999999862,"y":2548625.25}},{"attributes":{"ID":353672,"DIS_CODE":0,"TOWNNAME":"新化區","LI":"協興里","LIN":"6鄰","STREET":"忠孝路","SECT":" ","MAREA":" ","LANE":"１９０巷","ALLEY":" ","HOUSE_NO":"２９號","E_COORD97":178331.87,"N_COORD97":2548610.25,"ADDRESS":"忠孝路１９０巷２９號","OBJECTID":353663},"geometry":{"x":178331.87000000104,"y":2548610.2500000019}},{"attributes":{"ID":353673,"DIS_CODE":0,"TOWNNAME":"新化區","LI":"協興里","LIN":"6鄰","STREET":"忠孝路","SECT":" ","MAREA":" ","LANE":"１９０巷","ALLEY":" ","HOUSE_NO":"３５號","E_COORD97":178344.26999999999,"N_COORD97":2548616.25,"ADDRESS":"忠孝路１９０巷３５號","OBJECTID":353664},"geometry":{"x":178344.26999999955,"y":2548616.2499999981}},{"attributes":{"ID":353674,"DIS_CODE":0,"TOWNNAME":"新化區","LI":"東榮里","LIN":"6鄰","STREET":"信義路","SECT":" ","MAREA":" ","LANE":"１１７巷","ALLEY":" ","HOUSE_NO":"１１號之３","E_COORD97":179704.92999999999,"N_COORD97":2548410.2599999998,"ADDRESS":"信義路１１７巷１１號之３","OBJECTID":353665},"geometry":{"x":179704.9299999997,"y":2548410.2600000016}},{"attributes":{"ID":353675,"DIS_CODE":0,"TOWNNAME":"新化區","LI":"清水里","LIN":"6鄰","STREET":"民權街","SECT":" ","MAREA":" ","LANE":"２７巷","ALLEY":" ","HOUSE_NO":"１０號","E_COORD97":178711.01000000001,"N_COORD97":2548510.25,"ADDRESS":"民權街２７巷１０號","OBJECTID":353666},"geometry":{"x":178711.00999999978,"y":2548510.25}},{"attributes":{"ID":353676,"DIS_CODE":0,"TOWNNAME":"新化區","LI":"清水里","LIN":"6鄰","STREET":"民權街","SECT":" ","MAREA":" ","LANE":"２７巷","ALLEY":" ","HOUSE_NO":"８號","E_COORD97":178720.95999999999,"N_COORD97":2548506.25,"ADDRESS":"民權街２７巷８號","OBJECTID":353667},"geometry":{"x":178720.96000000089,"y":2548506.2500000019}},{"attributes":{"ID":353677,"DIS_CODE":0,"TOWNNAME":"新化區","LI":"東榮里","LIN":"6鄰","STREET":"信義路","SECT":" ","MAREA":" ","LANE":"１１７巷","ALLEY":" ","HOUSE_NO":"９號","E_COORD97":179697.23000000001,"N_COORD97":2548430.25,"ADDRESS":"信義路１１７巷９號","OBJECTID":353668},"geometry":{"x":179697.23000000231,"y":2548430.2500000037}},{"attributes":{"ID":353678,"DIS_CODE":0,"TOWNNAME":"新化區","LI":"武安里","LIN":"6鄰","STREET":"中正路","SECT":" ","MAREA":" ","LANE":"３６９巷","ALLEY":" ","HOUSE_NO":"３４號","E_COORD97":179058.26000000001,"N_COORD97":2548272.25,"ADDRESS":"中正路３６９巷３４號","OBJECTID":353669},"geometry":{"x":179058.25999999978,"y":2548272.2500000019}},{"attributes":{"ID":353679,"DIS_CODE":0,"TOWNNAME":"新化區","LI":"協興里","LIN":"6鄰","STREET":"忠孝路","SECT":" ","MAREA":" ","LANE":"１９６巷","ALLEY":" ","HOUSE_NO":"２號之１","E_COORD97":178379.85000000001,"N_COORD97":2548600.2599999998,"ADDRESS":"忠孝路１９６巷２號之１","OBJECTID":353670},"geometry":{"x":178379.8499999987,"y":2548600.2600000016}},{"attributes":{"ID":353680,"DIS_CODE":0,"TOWNNAME":"北區","LI":"成德里","LIN":"34鄰","STREET":"海安路","SECT":"三段","MAREA":" ","LANE":" ","ALLEY":" ","HOUSE_NO":"６８８號","E_COORD97":168065.5,"N_COORD97":2546028.3900000001,"ADDRESS":"海安路三段６８８號","OBJECTID":353671},"geometry":{"x":168065.5,"y":2546028.3900000006}},{"attributes":{"ID":353681,"DIS_CODE":0,"TOWNNAME":"北區","LI":"成德里","LIN":"34鄰","STREET":"海安路","SECT":"三段","MAREA":" ","LANE":" ","ALLEY":" ","HOUSE_NO":"６８６號","E_COORD97":168065.17999999999,"N_COORD97":2546024.7400000002,"ADDRESS":"海安路三段６８６號","OBJECTID":353672},"geometry":{"x":168065.1799999997,"y":2546024.7400000021}},{"attributes":{"ID":353682,"DIS_CODE":0,"TOWNNAME":"北區","LI":"成德里","LIN":"34鄰","STREET":"海安路","SECT":"三段","MAREA":" ","LANE":" ","ALLEY":" ","HOUSE_NO":"６８２號","E_COORD97":168065.01999999999,"N_COORD97":2546021.8799999999,"ADDRESS":"海安路三段６８２號","OBJECTID":353673},"geometry":{"x":168065.01999999955,"y":2546021.8800000008}},{"attributes":{"ID":353683,"DIS_CODE":0,"TOWNNAME":"佳里區","LI":"建南里","LIN":"20鄰","STREET":"自由街","SECT":" ","MAREA":" ","LANE":"１２３巷","ALLEY":" ","HOUSE_NO":"２號","E_COORD97":165691.20000000001,"N_COORD97":2561739.8599999999,"ADDRESS":"自由街１２３巷２號","OBJECTID":353674},"geometry":{"x":165691.20000000019,"y":2561739.8600000013}},{"attributes":{"ID":353684,"DIS_CODE":0,"TOWNNAME":"佳里區","LI":"建南里","LIN":"20鄰","STREET":"自由街","SECT":" ","MAREA":" ","LANE":"１２３巷","ALLEY":" ","HOUSE_NO":"４號","E_COORD97":165690.85999999999,"N_COORD97":2561735.3500000001,"ADDRESS":"自由街１２３巷４號","OBJECTID":353675},"geometry":{"x":165690.86000000127,"y":2561735.3499999996}},{"attributes":{"ID":353685,"DIS_CODE":0,"TOWNNAME":"新化區","LI":"武安里","LIN":"6鄰","STREET":"中正路","SECT":" ","MAREA":" ","LANE":"３６９巷","ALLEY":" ","HOUSE_NO":"４６號","E_COORD97":179017.06,"N_COORD97":2548267.25,"ADDRESS":"中正路３６９巷４６號","OBJECTID":353676},"geometry":{"x":179017.05999999959,"y":2548267.2500000037}},{"attributes":{"ID":353686,"DIS_CODE":0,"TOWNNAME":"新化區","LI":"武安里","LIN":"6鄰","STREET":"中正路","SECT":" ","MAREA":" ","LANE":"３６９巷","ALLEY":" ","HOUSE_NO":"２號","E_COORD97":179106.81,"N_COORD97":2548281.25,"ADDRESS":"中正路３６９巷２號","OBJECTID":353677},"geometry":{"x":179106.80999999959,"y":2548281.2500000019}},{"attributes":{"ID":353687,"DIS_CODE":0,"TOWNNAME":"新化區","LI":"武安里","LIN":"6鄰","STREET":"中正路","SECT":" ","MAREA":" ","LANE":"３６９巷","ALLEY":" ","HOUSE_NO":"３０號","E_COORD97":179064.35999999999,"N_COORD97":2548273.25,"ADDRESS":"中正路３６９巷３０號","OBJECTID":353678},"geometry":{"x":179064.36000000127,"y":2548273.25}},{"attributes":{"ID":353688,"DIS_CODE":0,"TOWNNAME":"新化區","LI":"武安里","LIN":"6鄰","STREET":"中正路","SECT":" ","MAREA":" ","LANE":"３６９巷","ALLEY":" ","HOUSE_NO":"２８號","E_COORD97":179067.85999999999,"N_COORD97":2548274.25,"ADDRESS":"中正路３６９巷２８號","OBJECTID":353679},"geometry":{"x":179067.86000000127,"y":2548274.2500000037}},{"attributes":{"ID":353689,"DIS_CODE":0,"TOWNNAME":"新化區","LI":"協興里","LIN":"6鄰","STREET":"忠孝路","SECT":" ","MAREA":" ","LANE":"１９６巷","ALLEY":" ","HOUSE_NO":"１號","E_COORD97":178364.32000000001,"N_COORD97":2548589.25,"ADDRESS":"忠孝路１９６巷１號","OBJECTID":353680},"geometry":{"x":178364.32000000123,"y":2548589.2499999981}},{"attributes":{"ID":353690,"DIS_CODE":0,"TOWNNAME":"新化區","LI":"協興里","LIN":"6鄰","STREET":"忠孝路","SECT":" ","MAREA":" ","LANE":"１９０巷","ALLEY":" ","HOUSE_NO":"２３號","E_COORD97":178313.97,"N_COORD97":2548620.25,"ADDRESS":"忠孝路１９０巷２３號","OBJECTID":353681},"geometry":{"x":178313.97000000067,"y":2548620.2500000019}},{"attributes":{"ID":353691,"DIS_CODE":0,"TOWNNAME":"新化區","LI":"武安里","LIN":"6鄰","STREET":"中正路","SECT":" ","MAREA":" ","LANE":"３６９巷","ALLEY":" ","HOUSE_NO":"４０號","E_COORD97":179045.26000000001,"N_COORD97":2548270.25,"ADDRESS":"中正路３６９巷４０號","OBJECTID":353682},"geometry":{"x":179045.26000000164,"y":2548270.25}},{"attributes":{"ID":353692,"DIS_CODE":0,"TOWNNAME":"新化區","LI":"武安里","LIN":"6鄰","STREET":"中正路","SECT":" ","MAREA":" ","LANE":"３６９巷","ALLEY":" ","HOUSE_NO":"２４號","E_COORD97":179075.06,"N_COORD97":2548275.25,"ADDRESS":"中正路３６９巷２４號","OBJECTID":353683},"geometry":{"x":179075.05999999959,"y":2548275.2500000019}},{"attributes":{"ID":353693,"DIS_CODE":0,"TOWNNAME":"新化區","LI":"協興里","LIN":"6鄰","STREET":"忠孝路","SECT":" ","MAREA":" ","LANE":"１９６巷","ALLEY":" ","HOUSE_NO":"３號","E_COORD97":178361.01999999999,"N_COORD97":2548588.25,"ADDRESS":"忠孝路１９６巷３號","OBJECTID":353684},"geometry":{"x":178361.01999999955,"y":2548588.25}},{"attributes":{"ID":353694,"DIS_CODE":0,"TOWNNAME":"安平區","LI":"國平里","LIN":"6鄰","STREET":"文平路","SECT":" ","MAREA":" ","LANE":"１８７巷","ALLEY":" ","HOUSE_NO":"１８號","E_COORD97":165639.91,"N_COORD97":2543083.3500000001,"ADDRESS":"文平路１８７巷１８號","OBJECTID":353685},"geometry":{"x":165639.91000000108,"y":2543083.3500000015}},{"attributes":{"ID":353695,"DIS_CODE":0,"TOWNNAME":"安平區","LI":"億載里","LIN":"6鄰","STREET":"平豐路","SECT":" ","MAREA":" ","LANE":"２５１巷","ALLEY":" ","HOUSE_NO":"４２號","E_COORD97":164170.01000000001,"N_COORD97":2543707.8199999998,"ADDRESS":"平豐路２５１巷４２號","OBJECTID":353686},"geometry":{"x":164170.01000000164,"y":2543707.8200000022}},{"attributes":{"ID":353696,"DIS_CODE":0,"TOWNNAME":"安平區","LI":"億載里","LIN":"6鄰","STREET":"平豐路","SECT":" ","MAREA":" ","LANE":"２５１巷","ALLEY":" ","HOUSE_NO":"４０號","E_COORD97":164175.73000000001,"N_COORD97":2543707.8999999999,"ADDRESS":"平豐路２５１巷４０號","OBJECTID":353687},"geometry":{"x":164175.73000000045,"y":2543707.9000000022}},{"attributes":{"ID":353697,"DIS_CODE":0,"TOWNNAME":"安平區","LI":"億載里","LIN":"6鄰","STREET":"平豐路","SECT":" ","MAREA":" ","LANE":"２５１巷","ALLEY":" ","HOUSE_NO":"４５號","E_COORD97":164182.23999999999,"N_COORD97":2543678.9399999999,"ADDRESS":"平豐路２５１巷４５號","OBJECTID":353688},"geometry":{"x":164182.24000000022,"y":2543678.9400000013}},{"attributes":{"ID":353698,"DIS_CODE":0,"TOWNNAME":"安平區","LI":"億載里","LIN":"6鄰","STREET":"平豐路","SECT":" ","MAREA":" ","LANE":"２５１巷","ALLEY":" ","HOUSE_NO":"４９號","E_COORD97":164171.90485299999,"N_COORD97":2543679.6476699999,"ADDRESS":"平豐路２５１巷４９號","OBJECTID":353689},"geometry":{"x":164171.90485300031,"y":2543679.6476730015}},{"attributes":{"ID":353699,"DIS_CODE":0,"TOWNNAME":"安平區","LI":"億載里","LIN":"6鄰","STREET":"平豐路","SECT":" ","MAREA":" ","LANE":"２５１巷","ALLEY":" ","HOUSE_NO":"５１號","E_COORD97":164167.45479399999,"N_COORD97":2543679.4360099998,"ADDRESS":"平豐路２５１巷５１號","OBJECTID":353690},"geometry":{"x":164167.45479400083,"y":2543679.4360070005}},{"attributes":{"ID":353700,"DIS_CODE":0,"TOWNNAME":"安平區","LI":"億載里","LIN":"6鄰","STREET":"平豐路","SECT":" ","MAREA":" ","LANE":"２５１巷","ALLEY":" ","HOUSE_NO":"５３號","E_COORD97":164162.37,"N_COORD97":2543678.6600000001,"ADDRESS":"平豐路２５１巷５３號","OBJECTID":353691},"geometry":{"x":164162.37000000011,"y":2543678.660000002}},{"attributes":{"ID":353701,"DIS_CODE":0,"TOWNNAME":"安平區","LI":"億載里","LIN":"6鄰","STREET":"平豐路","SECT":" ","MAREA":" ","LANE":"２５１巷","ALLEY":" ","HOUSE_NO":"５５號","E_COORD97":164156.85999999999,"N_COORD97":2543677.1600000001,"ADDRESS":"平豐路２５１巷５５號","OBJECTID":353692},"geometry":{"x":164156.86000000127,"y":2543677.1600000001}},{"attributes":{"ID":353702,"DIS_CODE":0,"TOWNNAME":"北區","LI":"成德里","LIN":"34鄰","STREET":"海安路","SECT":"三段","MAREA":" ","LANE":" ","ALLEY":" ","HOUSE_NO":"６８０號","E_COORD97":168065.17999999999,"N_COORD97":2546019.5,"ADDRESS":"海安路三段６８０號","OBJECTID":353693},"geometry":{"x":168065.1799999997,"y":2546019.5}},{"attributes":{"ID":353703,"DIS_CODE":0,"TOWNNAME":"北區","LI":"成德里","LIN":"34鄰","STREET":"海安路","SECT":"三段","MAREA":" ","LANE":" ","ALLEY":" ","HOUSE_NO":"６０６號","E_COORD97":168071.20999999999,"N_COORD97":2545920.7599999998,"ADDRESS":"海安路三段６０６號","OBJECTID":353694},"geometry":{"x":168071.21000000183,"y":2545920.7600000035}},{"attributes":{"ID":353704,"DIS_CODE":0,"TOWNNAME":"安南區","LI":"海東里","LIN":"20鄰","STREET":"海佃路","SECT":"二段","MAREA":" ","LANE":" ","ALLEY":" ","HOUSE_NO":"１６３號之２","E_COORD97":166890.36413199999,"N_COORD97":2548340.5575600001,"ADDRESS":"海佃路二段１６３號之２","OBJECTID":353695},"geometry":{"x":166890.36413200106,"y":2548340.5575579982}},{"attributes":{"ID":353705,"DIS_CODE":0,"TOWNNAME":"佳里區","LI":"建南里","LIN":"20鄰","STREET":"自由街","SECT":" ","MAREA":" ","LANE":"９３巷","ALLEY":" ","HOUSE_NO":"１３號","E_COORD97":165773.35999999999,"N_COORD97":2561723.1699999999,"ADDRESS":"自由街９３巷１３號","OBJECTID":353696},"geometry":{"x":165773.36000000034,"y":2561723.1699999999}},{"attributes":{"ID":353706,"DIS_CODE":0,"TOWNNAME":"佳里區","LI":"建南里","LIN":"20鄰","STREET":"自由街","SECT":" ","MAREA":" ","LANE":"９３巷","ALLEY":" ","HOUSE_NO":"１５號","E_COORD97":165774.07999999999,"N_COORD97":2561719.27,"ADDRESS":"自由街９３巷１５號","OBJECTID":353697},"geometry":{"x":165774.08000000101,"y":2561719.2699999996}},{"attributes":{"ID":353707,"DIS_CODE":0,"TOWNNAME":"佳里區","LI":"建南里","LIN":"20鄰","STREET":"自由街","SECT":" ","MAREA":" ","LANE":"９３巷","ALLEY":" ","HOUSE_NO":"１號","E_COORD97":165769.13,"N_COORD97":2561747.0499999998,"ADDRESS":"自由街９３巷１號","OBJECTID":353698},"geometry":{"x":165769.12999999989,"y":2561747.0500000026}},{"attributes":{"ID":353708,"DIS_CODE":0,"TOWNNAME":"安平區","LI":"華平里","LIN":"6鄰","STREET":"怡平路","SECT":" ","MAREA":" ","LANE":"４１０巷","ALLEY":" ","HOUSE_NO":"１１６號","E_COORD97":165451.14000000001,"N_COORD97":2544117.6000000001,"ADDRESS":"怡平路４１０巷１１６號","OBJECTID":353699},"geometry":{"x":165451.1400000006,"y":2544117.5999999996}},{"attributes":{"ID":353709,"DIS_CODE":0,"TOWNNAME":"永康區","LI":"埔園里","LIN":"6鄰","STREET":"自強路","SECT":" ","MAREA":" ","LANE":"４６８巷","ALLEY":" ","HOUSE_NO":"２６之５號","E_COORD97":173847.14999999999,"N_COORD97":2547902.8900000001,"ADDRESS":"自強路４６８巷２６之５號","OBJECTID":353700},"geometry":{"x":173847.15000000037,"y":2547902.8900000006}},{"attributes":{"ID":353710,"DIS_CODE":0,"TOWNNAME":"永康區","LI":"埔園里","LIN":"6鄰","STREET":"自強路","SECT":" ","MAREA":" ","LANE":"４６８巷","ALLEY":" ","HOUSE_NO":"２０號","E_COORD97":173820.84,"N_COORD97":2547923.1299999999,"ADDRESS":"自強路４６８巷２０號","OBJECTID":353701},"geometry":{"x":173820.84000000078,"y":2547923.129999999}},{"attributes":{"ID":353711,"DIS_CODE":0,"TOWNNAME":"永康區","LI":"埔園里","LIN":"6鄰","STREET":"自強路","SECT":" ","MAREA":" ","LANE":"４６８巷","ALLEY":" ","HOUSE_NO":"１２號","E_COORD97":173806.87,"N_COORD97":2547930.48,"ADDRESS":"自強路４６８巷１２號","OBJECTID":353702},"geometry":{"x":173806.87000000104,"y":2547930.4800000042}},{"attributes":{"ID":353712,"DIS_CODE":0,"TOWNNAME":"永康區","LI":"埔園里","LIN":"6鄰","STREET":"自強路","SECT":" ","MAREA":" ","LANE":"４６８巷","ALLEY":" ","HOUSE_NO":"２６之１號","E_COORD97":173835.79000000001,"N_COORD97":2547916.0499999998,"ADDRESS":"自強路４６８巷２６之１號","OBJECTID":353703},"geometry":{"x":173835.79000000004,"y":2547916.0500000007}},{"attributes":{"ID":353713,"DIS_CODE":0,"TOWNNAME":"永康區","LI":"埔園里","LIN":"6鄰","STREET":"自強路","SECT":" ","MAREA":" ","LANE":"４６８巷","ALLEY":" ","HOUSE_NO":"２６之２號","E_COORD97":173837.76000000001,"N_COORD97":2547909.1699999999,"ADDRESS":"自強路４６８巷２６之２號","OBJECTID":353704},"geometry":{"x":173837.76000000164,"y":2547909.1700000018}},{"attributes":{"ID":353714,"DIS_CODE":0,"TOWNNAME":"永康區","LI":"埔園里","LIN":"6鄰","STREET":"自強路","SECT":" ","MAREA":" ","LANE":"４６８巷","ALLEY":" ","HOUSE_NO":"２６之６號","E_COORD97":173852.26000000001,"N_COORD97":2547899.4700000002,"ADDRESS":"自強路４６８巷２６之６號","OBJECTID":353705},"geometry":{"x":173852.25999999978,"y":2547899.4700000007}},{"attributes":{"ID":353715,"DIS_CODE":0,"TOWNNAME":"永康區","LI":"埔園里","LIN":"6鄰","STREET":"自強路","SECT":" ","MAREA":" ","LANE":"４６８巷","ALLEY":" ","HOUSE_NO":"１６號","E_COORD97":173812.17999999999,"N_COORD97":2547930.2599999998,"ADDRESS":"自強路４６８巷１６號","OBJECTID":353706},"geometry":{"x":173812.1799999997,"y":2547930.2599999998}},{"attributes":{"ID":353716,"DIS_CODE":0,"TOWNNAME":"東區","LI":"大同里","LIN":"6鄰","STREET":"大同路","SECT":"一段","MAREA":" ","LANE":"７３巷","ALLEY":" ","HOUSE_NO":"３８號","E_COORD97":169302.35000000001,"N_COORD97":2543040.8199999998,"ADDRESS":"大同路一段７３巷３８號","OBJECTID":353707},"geometry":{"x":169302.35000000149,"y":2543040.8200000022}},{"attributes":{"ID":353717,"DIS_CODE":0,"TOWNNAME":"永康區","LI":"光復里","LIN":"6鄰","STREET":"復國路","SECT":" ","MAREA":" ","LANE":"６１巷","ALLEY":" ","HOUSE_NO":"１４０號","E_COORD97":172522.01000000001,"N_COORD97":2544480.75,"ADDRESS":"復國路６１巷１４０號","OBJECTID":353708},"geometry":{"x":172522.00999999978,"y":2544480.7500000019}},{"attributes":{"ID":353718,"DIS_CODE":0,"TOWNNAME":"南區","LI":"田寮里","LIN":"6鄰","STREET":"新興路","SECT":" ","MAREA":" ","LANE":"２１７巷","ALLEY":" ","HOUSE_NO":"４４號","E_COORD97":167443.51999999999,"N_COORD97":2541881.27,"ADDRESS":"新興路２１７巷４４號","OBJECTID":353709},"geometry":{"x":167443.52000000048,"y":2541881.2699999996}},{"attributes":{"ID":353719,"DIS_CODE":0,"TOWNNAME":"南區","LI":"田寮里","LIN":"6鄰","STREET":"新興路","SECT":" ","MAREA":" ","LANE":"２１７巷","ALLEY":" ","HOUSE_NO":"４６號","E_COORD97":167445.91,"N_COORD97":2541879.25,"ADDRESS":"新興路２１７巷４６號","OBJECTID":353710},"geometry":{"x":167445.91000000015,"y":2541879.25}},{"attributes":{"ID":353720,"DIS_CODE":0,"TOWNNAME":"南區","LI":"田寮里","LIN":"6鄰","STREET":"新興路","SECT":" ","MAREA":" ","LANE":"２１７巷","ALLEY":" ","HOUSE_NO":"４８號","E_COORD97":167448.5,"N_COORD97":2541877.96,"ADDRESS":"新興路２１７巷４８號","OBJECTID":353711},"geometry":{"x":167448.5,"y":2541877.9600000009}},{"attributes":{"ID":353721,"DIS_CODE":0,"TOWNNAME":"南區","LI":"田寮里","LIN":"6鄰","STREET":"新興路","SECT":" ","MAREA":" ","LANE":"２１７巷","ALLEY":" ","HOUSE_NO":"３０號","E_COORD97":167419.20000000001,"N_COORD97":2541893.6499999999,"ADDRESS":"新興路２１７巷３０號","OBJECTID":353712},"geometry":{"x":167419.20000000112,"y":2541893.6500000004}},{"attributes":{"ID":353722,"DIS_CODE":0,"TOWNNAME":"南區","LI":"田寮里","LIN":"6鄰","STREET":"新興路","SECT":" ","MAREA":" ","LANE":"２１７巷","ALLEY":" ","HOUSE_NO":"３２號","E_COORD97":167422.48000000001,"N_COORD97":2541891.4100000001,"ADDRESS":"新興路２１７巷３２號","OBJECTID":353713},"geometry":{"x":167422.48000000138,"y":2541891.4100000001}},{"attributes":{"ID":353723,"DIS_CODE":0,"TOWNNAME":"北區","LI":"成德里","LIN":"34鄰","STREET":"海安路","SECT":"三段","MAREA":" ","LANE":" ","ALLEY":" ","HOUSE_NO":"６００號","E_COORD97":168074.39000000001,"N_COORD97":2545899.3300000001,"ADDRESS":"海安路三段６００號","OBJECTID":353714},"geometry":{"x":168074.38999999966,"y":2545899.3300000001}},{"attributes":{"ID":353724,"DIS_CODE":0,"TOWNNAME":"東區","LI":"大德里","LIN":"6鄰","STREET":"立德十路","SECT":" ","MAREA":" ","LANE":"３０巷","ALLEY":" ","HOUSE_NO":"６號","E_COORD97":169460.35999999999,"N_COORD97":2542024.23,"ADDRESS":"立德十路３０巷６號","OBJECTID":353715},"geometry":{"x":169460.36000000034,"y":2542024.2300000023}},{"attributes":{"ID":353725,"DIS_CODE":0,"TOWNNAME":"北區","LI":"成德里","LIN":"34鄰","STREET":"海安路","SECT":"三段","MAREA":" ","LANE":" ","ALLEY":" ","HOUSE_NO":"５９８號","E_COORD97":168074.39000000001,"N_COORD97":2545895.3599999999,"ADDRESS":"海安路三段５９８號","OBJECTID":353716},"geometry":{"x":168074.38999999966,"y":2545895.3599999994}},{"attributes":{"ID":353726,"DIS_CODE":0,"TOWNNAME":"北區","LI":"成德里","LIN":"34鄰","STREET":"海安路","SECT":"三段","MAREA":" ","LANE":" ","ALLEY":" ","HOUSE_NO":"５９６號","E_COORD97":168074.70000000001,"N_COORD97":2545891.23,"ADDRESS":"海安路三段５９６號","OBJECTID":353717},"geometry":{"x":168074.69999999925,"y":2545891.2300000042}},{"attributes":{"ID":353727,"DIS_CODE":0,"TOWNNAME":"北區","LI":"成德里","LIN":"34鄰","STREET":"海安路","SECT":"三段","MAREA":" ","LANE":" ","ALLEY":" ","HOUSE_NO":"５９２號","E_COORD97":168075.01999999999,"N_COORD97":2545886.4700000002,"ADDRESS":"海安路三段５９２號","OBJECTID":353718},"geometry":{"x":168075.01999999955,"y":2545886.4700000044}},{"attributes":{"ID":353728,"DIS_CODE":0,"TOWNNAME":"南區","LI":"田寮里","LIN":"6鄰","STREET":"新興路","SECT":" ","MAREA":" ","LANE":"２１７巷","ALLEY":" ","HOUSE_NO":"３４號","E_COORD97":167425.79999999999,"N_COORD97":2541890.1200000001,"ADDRESS":"新興路２１７巷３４號","OBJECTID":353719},"geometry":{"x":167425.79999999981,"y":2541890.1200000029}},{"attributes":{"ID":353729,"DIS_CODE":0,"TOWNNAME":"南區","LI":"田寮里","LIN":"6鄰","STREET":"新興路","SECT":" ","MAREA":" ","LANE":"２１７巷","ALLEY":" ","HOUSE_NO":"３６號","E_COORD97":167429.31,"N_COORD97":2541887.9100000001,"ADDRESS":"新興路２１７巷３６號","OBJECTID":353720},"geometry":{"x":167429.31000000145,"y":2541887.9100000001}},{"attributes":{"ID":353730,"DIS_CODE":0,"TOWNNAME":"南區","LI":"田寮里","LIN":"6鄰","STREET":"新興路","SECT":" ","MAREA":" ","LANE":"２１７巷","ALLEY":" ","HOUSE_NO":"３８號","E_COORD97":167432.81,"N_COORD97":2541886.4300000002,"ADDRESS":"新興路２１７巷３８號","OBJECTID":353721},"geometry":{"x":167432.81000000145,"y":2541886.4300000016}},{"attributes":{"ID":353731,"DIS_CODE":0,"TOWNNAME":"南區","LI":"田寮里","LIN":"6鄰","STREET":"新興路","SECT":" ","MAREA":" ","LANE":"２１７巷","ALLEY":" ","HOUSE_NO":"４０號","E_COORD97":167436.5,"N_COORD97":2541884.04,"ADDRESS":"新興路２１７巷４０號","OBJECTID":353722},"geometry":{"x":167436.5,"y":2541884.040000001}},{"attributes":{"ID":353732,"DIS_CODE":0,"TOWNNAME":"南區","LI":"田寮里","LIN":"6鄰","STREET":"新興路","SECT":" ","MAREA":" ","LANE":"２１７巷","ALLEY":" ","HOUSE_NO":"５０號","E_COORD97":167452.92999999999,"N_COORD97":2541875.9300000002,"ADDRESS":"新興路２１７巷５０號","OBJECTID":353723},"geometry":{"x":167452.93000000063,"y":2541875.9300000016}},{"attributes":{"ID":353733,"DIS_CODE":0,"TOWNNAME":"南區","LI":"田寮里","LIN":"6鄰","STREET":"新興路","SECT":" ","MAREA":" ","LANE":"２１７巷","ALLEY":" ","HOUSE_NO":"５２號","E_COORD97":167456.62,"N_COORD97":2541874.46,"ADDRESS":"新興路２１７巷５２號","OBJECTID":353724},"geometry":{"x":167456.62000000197,"y":2541874.4600000009}},{"attributes":{"ID":353734,"DIS_CODE":0,"TOWNNAME":"南區","LI":"田寮里","LIN":"6鄰","STREET":"新興路","SECT":" ","MAREA":" ","LANE":"２１７巷","ALLEY":" ","HOUSE_NO":"５４號","E_COORD97":167459.39000000001,"N_COORD97":2541872.6099999999,"ADDRESS":"新興路２１７巷５４號","OBJECTID":353725},"geometry":{"x":167459.39000000153,"y":2541872.6099999994}},{"attributes":{"ID":353735,"DIS_CODE":0,"TOWNNAME":"南區","LI":"田寮里","LIN":"6鄰","STREET":"新興路","SECT":" ","MAREA":" ","LANE":"２１７巷","ALLEY":" ","HOUSE_NO":"５６號","E_COORD97":167463.07999999999,"N_COORD97":2541870.96,"ADDRESS":"新興路２１７巷５６號","OBJECTID":353726},"geometry":{"x":167463.08000000007,"y":2541870.9600000009}},{"attributes":{"ID":353736,"DIS_CODE":0,"TOWNNAME":"永康區","LI":"甲頂里","LIN":"6鄰","STREET":"中正南路","SECT":" ","MAREA":" ","LANE":"１６８巷","ALLEY":" ","HOUSE_NO":"３６號","E_COORD97":169921.97,"N_COORD97":2546915.2400000002,"ADDRESS":"中正南路１６８巷３６號","OBJECTID":353727},"geometry":{"x":169921.9700000016,"y":2546915.2400000021}},{"attributes":{"ID":353737,"DIS_CODE":0,"TOWNNAME":"永康區","LI":"甲頂里","LIN":"6鄰","STREET":"中正南路","SECT":" ","MAREA":" ","LANE":"１６８巷","ALLEY":" ","HOUSE_NO":"３１號","E_COORD97":169945.73000000001,"N_COORD97":2546867.1899999999,"ADDRESS":"中正南路１６８巷３１號","OBJECTID":353728},"geometry":{"x":169945.73000000045,"y":2546867.1900000032}},{"attributes":{"ID":353738,"DIS_CODE":0,"TOWNNAME":"永康區","LI":"甲頂里","LIN":"6鄰","STREET":"中正南路","SECT":" ","MAREA":" ","LANE":"１６８巷","ALLEY":" ","HOUSE_NO":"１３號","E_COORD97":169943,"N_COORD97":2546922.1200000001,"ADDRESS":"中正南路１６８巷１３號","OBJECTID":353729},"geometry":{"x":169943.00000000093,"y":2546922.120000001}},{"attributes":{"ID":353739,"DIS_CODE":0,"TOWNNAME":"永康區","LI":"安康里","LIN":"6鄰","STREET":"中華西街","SECT":" ","MAREA":" ","LANE":"２３０巷","ALLEY":" ","HOUSE_NO":"７號","E_COORD97":170728.29999999999,"N_COORD97":2546425.5,"ADDRESS":"中華西街２３０巷７號","OBJECTID":353730},"geometry":{"x":170728.29999999888,"y":2546425.5000000019}},{"attributes":{"ID":353740,"DIS_CODE":0,"TOWNNAME":"永康區","LI":"甲頂里","LIN":"6鄰","STREET":"中正南路","SECT":" ","MAREA":" ","LANE":"１６８巷","ALLEY":" ","HOUSE_NO":"３３號","E_COORD97":169946.26999999999,"N_COORD97":2546862.1899999999,"ADDRESS":"中正南路１６８巷３３號","OBJECTID":353731},"geometry":{"x":169946.26999999955,"y":2546862.1899999995}},{"attributes":{"ID":353741,"DIS_CODE":0,"TOWNNAME":"永康區","LI":"甲頂里","LIN":"6鄰","STREET":"中正南路","SECT":" ","MAREA":" ","LANE":"１６８巷","ALLEY":" ","HOUSE_NO":"２０號","E_COORD97":169899.89000000001,"N_COORD97":2546947.25,"ADDRESS":"中正南路１６８巷２０號","OBJECTID":353732},"geometry":{"x":169899.88999999966,"y":2546947.25}},{"attributes":{"ID":353742,"DIS_CODE":0,"TOWNNAME":"永康區","LI":"甲頂里","LIN":"6鄰","STREET":"中正南路","SECT":" ","MAREA":" ","LANE":"１６８巷","ALLEY":" ","HOUSE_NO":"５９號","E_COORD97":169948.95000000001,"N_COORD97":2546807.4300000002,"ADDRESS":"中正南路１６８巷５９號","OBJECTID":353733},"geometry":{"x":169948.95000000019,"y":2546807.4299999997}},{"attributes":{"ID":353743,"DIS_CODE":0,"TOWNNAME":"永康區","LI":"甲頂里","LIN":"6鄰","STREET":"中正南路","SECT":" ","MAREA":" ","LANE":"１６８巷","ALLEY":" ","HOUSE_NO":"３７號","E_COORD97":169946.70000000001,"N_COORD97":2546853.9399999999,"ADDRESS":"中正南路１６８巷３７號","OBJECTID":353734},"geometry":{"x":169946.70000000112,"y":2546853.9399999995}},{"attributes":{"ID":353744,"DIS_CODE":0,"TOWNNAME":"永康區","LI":"甲頂里","LIN":"6鄰","STREET":"中正南路","SECT":" ","MAREA":" ","LANE":"１６８巷","ALLEY":" ","HOUSE_NO":"３２號","E_COORD97":169915.17999999999,"N_COORD97":2546922.75,"ADDRESS":"中正南路１６８巷３２號","OBJECTID":353735},"geometry":{"x":169915.1799999997,"y":2546922.7500000019}},{"attributes":{"ID":353745,"DIS_CODE":0,"TOWNNAME":"永康區","LI":"甲頂里","LIN":"6鄰","STREET":"中正南路","SECT":" ","MAREA":" ","LANE":"１６８巷","ALLEY":" ","HOUSE_NO":"２９號","E_COORD97":169945.5,"N_COORD97":2546871.1899999999,"ADDRESS":"中正南路１６８巷２９號","OBJECTID":353736},"geometry":{"x":169945.5,"y":2546871.1900000013}},{"attributes":{"ID":353746,"DIS_CODE":0,"TOWNNAME":"永康區","LI":"甲頂里","LIN":"6鄰","STREET":"中正南路","SECT":" ","MAREA":" ","LANE":"１６８巷","ALLEY":" ","HOUSE_NO":"１５號","E_COORD97":169948.95999999999,"N_COORD97":2546912.7799999998,"ADDRESS":"中正南路１６８巷１５號","OBJECTID":353737},"geometry":{"x":169948.95999999996,"y":2546912.7799999993}},{"attributes":{"ID":353747,"DIS_CODE":0,"TOWNNAME":"永康區","LI":"甲頂里","LIN":"6鄰","STREET":"中正南路","SECT":" ","MAREA":" ","LANE":"１６８巷","ALLEY":" ","HOUSE_NO":"４５號","E_COORD97":169947.09,"N_COORD97":2546837.4399999999,"ADDRESS":"中正南路１６８巷４５號","OBJECTID":353738},"geometry":{"x":169947.09000000078,"y":2546837.4399999995}},{"attributes":{"ID":353748,"DIS_CODE":0,"TOWNNAME":"永康區","LI":"甲頂里","LIN":"6鄰","STREET":"中正南路","SECT":" ","MAREA":" ","LANE":"１６８巷","ALLEY":" ","HOUSE_NO":"３０號","E_COORD97":169912.04000000001,"N_COORD97":2546926.75,"ADDRESS":"中正南路１６８巷３０號","OBJECTID":353739},"geometry":{"x":169912.04000000097,"y":2546926.75}},{"attributes":{"ID":353749,"DIS_CODE":0,"TOWNNAME":"永康區","LI":"甲頂里","LIN":"6鄰","STREET":"中正南路","SECT":" ","MAREA":" ","LANE":"１６８巷","ALLEY":" ","HOUSE_NO":"１８號","E_COORD97":169897.53,"N_COORD97":2546950.5,"ADDRESS":"中正南路１６８巷１８號","OBJECTID":353740},"geometry":{"x":169897.53000000119,"y":2546950.5000000019}},{"attributes":{"ID":353750,"DIS_CODE":0,"TOWNNAME":"永康區","LI":"甲頂里","LIN":"6鄰","STREET":"中正南路","SECT":" ","MAREA":" ","LANE":"１６８巷","ALLEY":" ","HOUSE_NO":"４９號","E_COORD97":169947.17000000001,"N_COORD97":2546829.1899999999,"ADDRESS":"中正南路１６８巷４９號","OBJECTID":353741},"geometry":{"x":169947.16999999993,"y":2546829.1899999995}},{"attributes":{"ID":353751,"DIS_CODE":0,"TOWNNAME":"永康區","LI":"安康里","LIN":"6鄰","STREET":"中華西街","SECT":" ","MAREA":" ","LANE":"１９６巷","ALLEY":" ","HOUSE_NO":"５８號","E_COORD97":170743.16,"N_COORD97":2546400.5699999998,"ADDRESS":"中華西街１９６巷５８號","OBJECTID":353742},"geometry":{"x":170743.15999999922,"y":2546400.5699999984}},{"attributes":{"ID":353752,"DIS_CODE":0,"TOWNNAME":"永康區","LI":"安康里","LIN":"6鄰","STREET":"中華西街","SECT":" ","MAREA":" ","LANE":"１９６巷","ALLEY":" ","HOUSE_NO":"６６號","E_COORD97":170774.98999999999,"N_COORD97":2546415.8199999998,"ADDRESS":"中華西街１９６巷６６號","OBJECTID":353743},"geometry":{"x":170774.99000000209,"y":2546415.8199999984}},{"attributes":{"ID":353753,"DIS_CODE":0,"TOWNNAME":"永康區","LI":"安康里","LIN":"6鄰","STREET":"中華西街","SECT":" ","MAREA":" ","LANE":"１９６巷","ALLEY":" ","HOUSE_NO":"１０號","E_COORD97":170669.92999999999,"N_COORD97":2546373.7400000002,"ADDRESS":"中華西街１９６巷１０號","OBJECTID":353744},"geometry":{"x":170669.93000000063,"y":2546373.7400000021}},{"attributes":{"ID":353754,"DIS_CODE":0,"TOWNNAME":"永康區","LI":"甲頂里","LIN":"6鄰","STREET":"中正南路","SECT":" ","MAREA":" ","LANE":"１６８巷","ALLEY":" ","HOUSE_NO":"４０號","E_COORD97":169928.47,"N_COORD97":2546907.7400000002,"ADDRESS":"中正南路１６８巷４０號","OBJECTID":353745},"geometry":{"x":169928.46999999974,"y":2546907.7400000002}},{"attributes":{"ID":353755,"DIS_CODE":0,"TOWNNAME":"永康區","LI":"安康里","LIN":"6鄰","STREET":"中華西街","SECT":" ","MAREA":" ","LANE":"１９６巷","ALLEY":" ","HOUSE_NO":"４８號","E_COORD97":170722.26000000001,"N_COORD97":2546393.0699999998,"ADDRESS":"中華西街１９６巷４８號","OBJECTID":353746},"geometry":{"x":170722.26000000071,"y":2546393.0700000003}},{"attributes":{"ID":353756,"DIS_CODE":0,"TOWNNAME":"永康區","LI":"安康里","LIN":"6鄰","STREET":"中華西街","SECT":" ","MAREA":" ","LANE":"１９６巷","ALLEY":" ","HOUSE_NO":"６８號","E_COORD97":170779.35000000001,"N_COORD97":2546418.3199999998,"ADDRESS":"中華西街１９６巷６８號","OBJECTID":353747},"geometry":{"x":170779.35000000056,"y":2546418.3200000003}},{"attributes":{"ID":353757,"DIS_CODE":0,"TOWNNAME":"永康區","LI":"安康里","LIN":"6鄰","STREET":"中華西街","SECT":" ","MAREA":" ","LANE":"２３０巷","ALLEY":" ","HOUSE_NO":"１５號","E_COORD97":170745.89999999999,"N_COORD97":2546414.5,"ADDRESS":"中華西街２３０巷１５號","OBJECTID":353748},"geometry":{"x":170745.9000000013,"y":2546414.5000000037}},{"attributes":{"ID":353758,"DIS_CODE":0,"TOWNNAME":"永康區","LI":"甲頂里","LIN":"6鄰","STREET":"中正南路","SECT":" ","MAREA":" ","LANE":"１６８巷","ALLEY":" ","HOUSE_NO":"２４號","E_COORD97":169905.23000000001,"N_COORD97":2546941.25,"ADDRESS":"中正南路１６８巷２４號","OBJECTID":353749},"geometry":{"x":169905.23000000045,"y":2546941.25}},{"attributes":{"ID":353759,"DIS_CODE":0,"TOWNNAME":"永康區","LI":"甲頂里","LIN":"6鄰","STREET":"中正南路","SECT":" ","MAREA":" ","LANE":"１６８巷","ALLEY":" ","HOUSE_NO":"２２號","E_COORD97":169902.51999999999,"N_COORD97":2546944.5,"ADDRESS":"中正南路１６８巷２２號","OBJECTID":353750},"geometry":{"x":169902.51999999955,"y":2546944.5000000019}},{"attributes":{"ID":353760,"DIS_CODE":0,"TOWNNAME":"永康區","LI":"甲頂里","LIN":"6鄰","STREET":"中正南路","SECT":" ","MAREA":" ","LANE":"１６８巷","ALLEY":" ","HOUSE_NO":"７號","E_COORD97":169933.25,"N_COORD97":2546931.6299999999,"ADDRESS":"中正南路１６８巷７號","OBJECTID":353751},"geometry":{"x":169933.25,"y":2546931.6300000008}},{"attributes":{"ID":353761,"DIS_CODE":0,"TOWNNAME":"永康區","LI":"安康里","LIN":"6鄰","STREET":"中華西街","SECT":" ","MAREA":" ","LANE":"２３０巷","ALLEY":" ","HOUSE_NO":"１３號","E_COORD97":170741.64999999999,"N_COORD97":2546417,"ADDRESS":"中華西街２３０巷１３號","OBJECTID":353752},"geometry":{"x":170741.65000000037,"y":2546417}},{"attributes":{"ID":353762,"DIS_CODE":0,"TOWNNAME":"中西區","LI":"元安里","LIN":"6鄰","STREET":"建安街","SECT":" ","MAREA":" ","LANE":"５１巷","ALLEY":" ","HOUSE_NO":"７號","E_COORD97":167516.38,"N_COORD97":2543209.9399999999,"ADDRESS":"建安街５１巷７號","OBJECTID":353753},"geometry":{"x":167516.38000000082,"y":2543209.9399999995}},{"attributes":{"ID":353763,"DIS_CODE":0,"TOWNNAME":"永康區","LI":"甲頂里","LIN":"6鄰","STREET":"中正南路","SECT":" ","MAREA":" ","LANE":"１６８巷","ALLEY":" ","HOUSE_NO":"４７號","E_COORD97":169947.48999999999,"N_COORD97":2546833.1899999999,"ADDRESS":"中正南路１６８巷４７號","OBJECTID":353754},"geometry":{"x":169947.49000000022,"y":2546833.1900000032}},{"attributes":{"ID":353764,"DIS_CODE":0,"TOWNNAME":"永康區","LI":"甲頂里","LIN":"6鄰","STREET":"中正南路","SECT":" ","MAREA":" ","LANE":"１６８巷","ALLEY":" ","HOUSE_NO":"２６號","E_COORD97":169907.57000000001,"N_COORD97":2546938.25,"ADDRESS":"中正南路１６８巷２６號","OBJECTID":353755},"geometry":{"x":169907.5700000003,"y":2546938.2500000037}},{"attributes":{"ID":353765,"DIS_CODE":0,"TOWNNAME":"永康區","LI":"安康里","LIN":"6鄰","STREET":"中華西街","SECT":" ","MAREA":" ","LANE":"１９６巷","ALLEY":" ","HOUSE_NO":"５６號","E_COORD97":170737.04999999999,"N_COORD97":2546398.8199999998,"ADDRESS":"中華西街１９６巷５６號","OBJECTID":353756},"geometry":{"x":170737.05000000075,"y":2546398.8199999984}},{"attributes":{"ID":353766,"DIS_CODE":0,"TOWNNAME":"永康區","LI":"安康里","LIN":"6鄰","STREET":"中華西街","SECT":" ","MAREA":" ","LANE":"２３０巷","ALLEY":" ","HOUSE_NO":"３號","E_COORD97":170720.45000000001,"N_COORD97":2546431.75,"ADDRESS":"中華西街２３０巷３號","OBJECTID":353757},"geometry":{"x":170720.45000000019,"y":2546431.75}},{"attributes":{"ID":353767,"DIS_CODE":0,"TOWNNAME":"永康區","LI":"安康里","LIN":"6鄰","STREET":"中華西街","SECT":" ","MAREA":" ","LANE":"１９６巷","ALLEY":" ","HOUSE_NO":"５２號","E_COORD97":170733.16,"N_COORD97":2546397.3199999998,"ADDRESS":"中華西街１９６巷５２號","OBJECTID":353758},"geometry":{"x":170733.16000000201,"y":2546397.3200000022}},{"attributes":{"ID":353768,"DIS_CODE":0,"TOWNNAME":"安南區","LI":"新順里","LIN":"20鄰","STREET":"慶安路","SECT":" ","MAREA":" ","LANE":"１１５巷","ALLEY":" ","HOUSE_NO":"６５號","E_COORD97":169277,"N_COORD97":2549256.1200000001,"ADDRESS":"慶安路１１５巷６５號","OBJECTID":353759},"geometry":{"x":169277.00000000093,"y":2549256.1200000048}},{"attributes":{"ID":353769,"DIS_CODE":0,"TOWNNAME":"安南區","LI":"新順里","LIN":"20鄰","STREET":"慶安路","SECT":" ","MAREA":" ","LANE":"１１５巷","ALLEY":" ","HOUSE_NO":"６７號","E_COORD97":169271.76999999999,"N_COORD97":2549256.1200000001,"ADDRESS":"慶安路１１５巷６７號","OBJECTID":353760},"geometry":{"x":169271.76999999955,"y":2549256.1200000048}},{"attributes":{"ID":353770,"DIS_CODE":0,"TOWNNAME":"永康區","LI":"成功里","LIN":"6鄰","STREET":"忠孝路","SECT":" ","MAREA":" ","LANE":"２０７巷","ALLEY":" ","HOUSE_NO":"１８號","E_COORD97":172049.63,"N_COORD97":2544929.8199999998,"ADDRESS":"忠孝路２０７巷１８號","OBJECTID":353761},"geometry":{"x":172049.62999999989,"y":2544929.8200000003}},{"attributes":{"ID":353771,"DIS_CODE":0,"TOWNNAME":"永康區","LI":"甲頂里","LIN":"6鄰","STREET":"中正南路","SECT":" ","MAREA":" ","LANE":"１６８巷","ALLEY":" ","HOUSE_NO":"６１號","E_COORD97":169949.01000000001,"N_COORD97":2546803.4300000002,"ADDRESS":"中正南路１６８巷６１號","OBJECTID":353762},"geometry":{"x":169949.01000000071,"y":2546803.4299999997}},{"attributes":{"ID":353772,"DIS_CODE":0,"TOWNNAME":"永康區","LI":"西橋里","LIN":"6鄰","STREET":"中山南路","SECT":" ","MAREA":" ","LANE":"４３巷","ALLEY":" ","HOUSE_NO":"５５號","E_COORD97":170667.19,"N_COORD97":2545981.8700000001,"ADDRESS":"中山南路４３巷５５號","OBJECTID":353763},"geometry":{"x":170667.19000000227,"y":2545981.870000001}},{"attributes":{"ID":353773,"DIS_CODE":0,"TOWNNAME":"永康區","LI":"安康里","LIN":"6鄰","STREET":"中華西街","SECT":" ","MAREA":" ","LANE":"１９６巷","ALLEY":" ","HOUSE_NO":"６０號","E_COORD97":170747,"N_COORD97":2546402.3199999998,"ADDRESS":"中華西街１９６巷６０號","OBJECTID":353764},"geometry":{"x":170747,"y":2546402.320000004}},{"attributes":{"ID":353774,"DIS_CODE":0,"TOWNNAME":"永康區","LI":"甲頂里","LIN":"6鄰","STREET":"中正南路","SECT":" ","MAREA":" ","LANE":"１６８巷","ALLEY":" ","HOUSE_NO":"５７號","E_COORD97":169948.73000000001,"N_COORD97":2546811.9300000002,"ADDRESS":"中正南路１６８巷５７號","OBJECTID":353765},"geometry":{"x":169948.73000000138,"y":2546811.9300000016}},{"attributes":{"ID":353775,"DIS_CODE":0,"TOWNNAME":"永康區","LI":"甲頂里","LIN":"6鄰","STREET":"中正南路","SECT":" ","MAREA":" ","LANE":"１６８巷","ALLEY":" ","HOUSE_NO":"４１號","E_COORD97":169946.91,"N_COORD97":2546845.6899999999,"ADDRESS":"中正南路１６８巷４１號","OBJECTID":353766},"geometry":{"x":169946.91000000108,"y":2546845.6899999995}},{"attributes":{"ID":353776,"DIS_CODE":0,"TOWNNAME":"永康區","LI":"正強里","LIN":"6鄰","STREET":"自強路","SECT":" ","MAREA":" ","LANE":"３６８巷","ALLEY":" ","HOUSE_NO":"９號","E_COORD97":173527.47,"N_COORD97":2547705.4900000002,"ADDRESS":"自強路３６８巷９號","OBJECTID":353767},"geometry":{"x":173527.46999999974,"y":2547705.4900000002}},{"attributes":{"ID":353777,"DIS_CODE":0,"TOWNNAME":"北區","LI":"成德里","LIN":"34鄰","STREET":"海安路","SECT":"三段","MAREA":" ","LANE":" ","ALLEY":" ","HOUSE_NO":"５９０號","E_COORD97":168075.34,"N_COORD97":2545881.5499999998,"ADDRESS":"海安路三段５９０號","OBJECTID":353768},"geometry":{"x":168075.34000000171,"y":2545881.5500000007}},{"attributes":{"ID":353778,"DIS_CODE":0,"TOWNNAME":"北區","LI":"成德里","LIN":"34鄰","STREET":"海安路","SECT":"三段","MAREA":" ","LANE":" ","ALLEY":" ","HOUSE_NO":"５８８號","E_COORD97":168075.34,"N_COORD97":2545875.9900000002,"ADDRESS":"海安路三段５８８號","OBJECTID":353769},"geometry":{"x":168075.34000000171,"y":2545875.9900000021}},{"attributes":{"ID":353779,"DIS_CODE":0,"TOWNNAME":"永康區","LI":"安康里","LIN":"6鄰","STREET":"中華路","SECT":" ","MAREA":" ","LANE":"７２７巷","ALLEY":" ","HOUSE_NO":"６８號","E_COORD97":170695.78,"N_COORD97":2546346.2799999998,"ADDRESS":"中華路７２７巷６８號","OBJECTID":353770},"geometry":{"x":170695.78000000119,"y":2546346.2799999993}},{"attributes":{"ID":353780,"DIS_CODE":0,"TOWNNAME":"永康區","LI":"安康里","LIN":"6鄰","STREET":"中華路","SECT":" ","MAREA":" ","LANE":"７２７巷","ALLEY":" ","HOUSE_NO":"４２號","E_COORD97":170740.07000000001,"N_COORD97":2546372.0600000001,"ADDRESS":"中華路７２７巷４２號","OBJECTID":353771},"geometry":{"x":170740.0700000003,"y":2546372.0600000024}},{"attributes":{"ID":353781,"DIS_CODE":0,"TOWNNAME":"永康區","LI":"甲頂里","LIN":"6鄰","STREET":"中正南路","SECT":" ","MAREA":" ","LANE":"１６８巷","ALLEY":" ","HOUSE_NO":"２５號","E_COORD97":169945.57999999999,"N_COORD97":2546879.1800000002,"ADDRESS":"中正南路１６８巷２５號","OBJECTID":353772},"geometry":{"x":169945.58000000101,"y":2546879.1799999997}},{"attributes":{"ID":353782,"DIS_CODE":0,"TOWNNAME":"永康區","LI":"安康里","LIN":"6鄰","STREET":"中華路","SECT":" ","MAREA":" ","LANE":"７２７巷","ALLEY":" ","HOUSE_NO":"３７號","E_COORD97":170738.69,"N_COORD97":2546355.2400000002,"ADDRESS":"中華路７２７巷３７號","OBJECTID":353773},"geometry":{"x":170738.69000000134,"y":2546355.2399999984}},{"attributes":{"ID":353783,"DIS_CODE":0,"TOWNNAME":"中西區","LI":"元安里","LIN":"6鄰","STREET":"建安街","SECT":" ","MAREA":" ","LANE":"５１巷","ALLEY":" ","HOUSE_NO":"３１號","E_COORD97":167513.45999999999,"N_COORD97":2543150.1600000001,"ADDRESS":"建安街５１巷３１號","OBJECTID":353774},"geometry":{"x":167513.46000000183,"y":2543150.160000002}},{"attributes":{"ID":353784,"DIS_CODE":0,"TOWNNAME":"中西區","LI":"元安里","LIN":"6鄰","STREET":"建安街","SECT":" ","MAREA":" ","LANE":"５１巷","ALLEY":" ","HOUSE_NO":"３３號","E_COORD97":167517.91,"N_COORD97":2543150.1600000001,"ADDRESS":"建安街５１巷３３號","OBJECTID":353775},"geometry":{"x":167517.91000000108,"y":2543150.160000002}},{"attributes":{"ID":353785,"DIS_CODE":0,"TOWNNAME":"中西區","LI":"元安里","LIN":"6鄰","STREET":"建安街","SECT":" ","MAREA":" ","LANE":"５１巷","ALLEY":" ","HOUSE_NO":"４８號","E_COORD97":167513.54000000001,"N_COORD97":2543139.79,"ADDRESS":"建安街５１巷４８號","OBJECTID":353776},"geometry":{"x":167513.54000000097,"y":2543139.7900000028}},{"attributes":{"ID":353786,"DIS_CODE":0,"TOWNNAME":"中西區","LI":"元安里","LIN":"6鄰","STREET":"建安街","SECT":" ","MAREA":" ","LANE":"５１巷","ALLEY":" ","HOUSE_NO":"５號","E_COORD97":167516.38,"N_COORD97":2543214.9399999999,"ADDRESS":"建安街５１巷５號","OBJECTID":353777},"geometry":{"x":167516.38000000082,"y":2543214.9400000013}},{"attributes":{"ID":353787,"DIS_CODE":0,"TOWNNAME":"新營區","LI":"南興里","LIN":"20鄰","STREET":"建業路","SECT":" ","MAREA":" ","LANE":"７８巷","ALLEY":" ","HOUSE_NO":"１０號五樓之２","E_COORD97":179350.12,"N_COORD97":2577529.3300000001,"ADDRESS":"建業路７８巷１０號五樓之２","OBJECTID":353778},"geometry":{"x":179350.12000000197,"y":2577529.3300000038}},{"attributes":{"ID":353788,"DIS_CODE":0,"TOWNNAME":"新營區","LI":"新北里","LIN":"20鄰","STREET":"民生路","SECT":" ","MAREA":" ","LANE":"３３６巷","ALLEY":" ","HOUSE_NO":"４６號四樓","E_COORD97":178999.88,"N_COORD97":2579184.3799999999,"ADDRESS":"民生路３３６巷４６號四樓","OBJECTID":353779},"geometry":{"x":178999.87999999989,"y":2579184.379999999}},{"attributes":{"ID":353789,"DIS_CODE":0,"TOWNNAME":"中西區","LI":"元安里","LIN":"6鄰","STREET":"建安街","SECT":" ","MAREA":" ","LANE":"５１巷","ALLEY":" ","HOUSE_NO":"９號","E_COORD97":167516.20000000001,"N_COORD97":2543205.8300000001,"ADDRESS":"建安街５１巷９號","OBJECTID":353780},"geometry":{"x":167516.20000000112,"y":2543205.8300000019}},{"attributes":{"ID":353790,"DIS_CODE":0,"TOWNNAME":"中西區","LI":"元安里","LIN":"6鄰","STREET":"建安街","SECT":" ","MAREA":" ","LANE":"６１巷","ALLEY":" ","HOUSE_NO":"１１號","E_COORD97":167496.31,"N_COORD97":2543207.0800000001,"ADDRESS":"建安街６１巷１１號","OBJECTID":353781},"geometry":{"x":167496.30999999959,"y":2543207.0800000019}},{"attributes":{"ID":353791,"DIS_CODE":0,"TOWNNAME":"北區","LI":"成德里","LIN":"34鄰","STREET":"海安路","SECT":"三段","MAREA":" ","LANE":" ","ALLEY":" ","HOUSE_NO":"５８６號","E_COORD97":168075.5,"N_COORD97":2545871.3900000001,"ADDRESS":"海安路三段５８６號","OBJECTID":353782},"geometry":{"x":168075.5,"y":2545871.3900000025}},{"attributes":{"ID":353792,"DIS_CODE":0,"TOWNNAME":"北區","LI":"成德里","LIN":"34鄰","STREET":"海安路","SECT":"三段","MAREA":" ","LANE":" ","ALLEY":" ","HOUSE_NO":"５８２號","E_COORD97":168075.66,"N_COORD97":2545866.7799999998,"ADDRESS":"海安路三段５８２號","OBJECTID":353783},"geometry":{"x":168075.66000000108,"y":2545866.7800000012}},{"attributes":{"ID":353793,"DIS_CODE":0,"TOWNNAME":"歸仁區","LI":"崙頂里","LIN":"4鄰","STREET":"信義南路","SECT":" ","MAREA":" ","LANE":"１７０巷","ALLEY":" ","HOUSE_NO":"１７號","E_COORD97":178050.32999999999,"N_COORD97":2540164.25,"ADDRESS":"信義南路１７０巷１７號","OBJECTID":353784},"geometry":{"x":178050.33000000101,"y":2540164.2500000037}},{"attributes":{"ID":353794,"DIS_CODE":0,"TOWNNAME":"中西區","LI":"元安里","LIN":"6鄰","STREET":"建安街","SECT":" ","MAREA":" ","LANE":"６１巷","ALLEY":" ","HOUSE_NO":"１３號","E_COORD97":167495.92000000001,"N_COORD97":2543202.1699999999,"ADDRESS":"建安街６１巷１３號","OBJECTID":353785},"geometry":{"x":167495.91999999993,"y":2543202.1699999999}},{"attributes":{"ID":353795,"DIS_CODE":0,"TOWNNAME":"中西區","LI":"元安里","LIN":"6鄰","STREET":"建安街","SECT":" ","MAREA":" ","LANE":"６１巷","ALLEY":" ","HOUSE_NO":"９號","E_COORD97":167496.94,"N_COORD97":2543210.6800000002,"ADDRESS":"建安街６１巷９號","OBJECTID":353786},"geometry":{"x":167496.94000000041,"y":2543210.6800000016}},{"attributes":{"ID":353796,"DIS_CODE":0,"TOWNNAME":"永康區","LI":"尚頂里","LIN":"1鄰","STREET":"尚頂路","SECT":" ","MAREA":" ","LANE":" ","ALLEY":" ","HOUSE_NO":"１７９號","E_COORD97":170759.01000000001,"N_COORD97":2547884.0299999998,"ADDRESS":"尚頂路１７９號","OBJECTID":353787},"geometry":{"x":170759.00999999978,"y":2547884.0299999993}},{"attributes":{"ID":353797,"DIS_CODE":0,"TOWNNAME":"中西區","LI":"中正里","LIN":"6鄰","STREET":"正興街","SECT":" ","MAREA":" ","LANE":"１１６巷","ALLEY":" ","HOUSE_NO":"５號","E_COORD97":167641.03,"N_COORD97":2543893.04,"ADDRESS":"正興街１１６巷５號","OBJECTID":353788},"geometry":{"x":167641.03000000119,"y":2543893.0399999991}},{"attributes":{"ID":353798,"DIS_CODE":0,"TOWNNAME":"新化區","LI":"太平里","LIN":"6鄰","STREET":"民生路","SECT":" ","MAREA":" ","LANE":"３１４巷","ALLEY":" ","HOUSE_NO":"５號","E_COORD97":178936.70999999999,"N_COORD97":2549229.25,"ADDRESS":"民生路３１４巷５號","OBJECTID":353789},"geometry":{"x":178936.70999999996,"y":2549229.25}},{"attributes":{"ID":353799,"DIS_CODE":0,"TOWNNAME":"新化區","LI":"太平里","LIN":"6鄰","STREET":"民生路","SECT":" ","MAREA":" ","LANE":"３１４巷","ALLEY":" ","HOUSE_NO":"１０７號","E_COORD97":178915.91,"N_COORD97":2549246.25,"ADDRESS":"民生路３１４巷１０７號","OBJECTID":353790},"geometry":{"x":178915.91000000201,"y":2549246.25}},{"attributes":{"ID":353800,"DIS_CODE":0,"TOWNNAME":"新化區","LI":"太平里","LIN":"6鄰","STREET":"民生路","SECT":" ","MAREA":" ","LANE":"３１４巷","ALLEY":" ","HOUSE_NO":"３２號","E_COORD97":179022.85999999999,"N_COORD97":2549228.25,"ADDRESS":"民生路３１４巷３２號","OBJECTID":353791},"geometry":{"x":179022.86000000034,"y":2549228.2500000019}},{"attributes":{"ID":353801,"DIS_CODE":0,"TOWNNAME":"新化區","LI":"太平里","LIN":"6鄰","STREET":"民生路","SECT":" ","MAREA":" ","LANE":"３１４巷","ALLEY":" ","HOUSE_NO":"２１號","E_COORD97":178977.45999999999,"N_COORD97":2549245.25,"ADDRESS":"民生路３１４巷２１號","OBJECTID":353792},"geometry":{"x":178977.45999999996,"y":2549245.2500000019}},{"attributes":{"ID":353802,"DIS_CODE":0,"TOWNNAME":"新化區","LI":"太平里","LIN":"6鄰","STREET":"民生路","SECT":" ","MAREA":" ","LANE":"３１４巷","ALLEY":" ","HOUSE_NO":"１３號","E_COORD97":178954.56,"N_COORD97":2549235.25,"ADDRESS":"民生路３１４巷１３號","OBJECTID":353793},"geometry":{"x":178954.55999999959,"y":2549235.2500000019}},{"attributes":{"ID":353803,"DIS_CODE":0,"TOWNNAME":"新化區","LI":"太平里","LIN":"6鄰","STREET":"民生路","SECT":" ","MAREA":" ","LANE":"３１４巷","ALLEY":" ","HOUSE_NO":"１２號","E_COORD97":178973.66,"N_COORD97":2549229.25,"ADDRESS":"民生路３１４巷１２號","OBJECTID":353794},"geometry":{"x":178973.66000000108,"y":2549229.25}},{"attributes":{"ID":353804,"DIS_CODE":0,"TOWNNAME":"新化區","LI":"太平里","LIN":"6鄰","STREET":"民生路","SECT":" ","MAREA":" ","LANE":"３１４巷","ALLEY":" ","HOUSE_NO":"１５號","E_COORD97":178958.85999999999,"N_COORD97":2549237.25,"ADDRESS":"民生路３１４巷１５號","OBJECTID":353795},"geometry":{"x":178958.86000000127,"y":2549237.2500000019}},{"attributes":{"ID":353805,"DIS_CODE":0,"TOWNNAME":"新化區","LI":"太平里","LIN":"6鄰","STREET":"民生路","SECT":" ","MAREA":" ","LANE":"３１４巷","ALLEY":" ","HOUSE_NO":"３號","E_COORD97":178927.60999999999,"N_COORD97":2549225.25,"ADDRESS":"民生路３１４巷３號","OBJECTID":353796},"geometry":{"x":178927.61000000034,"y":2549225.25}},{"attributes":{"ID":353806,"DIS_CODE":0,"TOWNNAME":"新化區","LI":"太平里","LIN":"6鄰","STREET":"民生路","SECT":" ","MAREA":" ","LANE":"３１４巷","ALLEY":" ","HOUSE_NO":"１４號","E_COORD97":178980.35999999999,"N_COORD97":2549229.25,"ADDRESS":"民生路３１４巷１４號","OBJECTID":353797},"geometry":{"x":178980.36000000034,"y":2549229.25}},{"attributes":{"ID":353807,"DIS_CODE":0,"TOWNNAME":"新化區","LI":"太平里","LIN":"6鄰","STREET":"民生路","SECT":" ","MAREA":" ","LANE":"３１４巷","ALLEY":" ","HOUSE_NO":"１９號","E_COORD97":178967.76000000001,"N_COORD97":2549241.25,"ADDRESS":"民生路３１４巷１９號","OBJECTID":353798},"geometry":{"x":178967.76000000071,"y":2549241.2500000019}},{"attributes":{"ID":353808,"DIS_CODE":0,"TOWNNAME":"新化區","LI":"太平里","LIN":"6鄰","STREET":"民生路","SECT":" ","MAREA":" ","LANE":"３１４巷","ALLEY":" ","HOUSE_NO":"９３號","E_COORD97":178977.45999999999,"N_COORD97":2549258.25,"ADDRESS":"民生路３１４巷９３號","OBJECTID":353799},"geometry":{"x":178977.45999999996,"y":2549258.2500000019}},{"attributes":{"ID":353809,"DIS_CODE":0,"TOWNNAME":"新化區","LI":"太平里","LIN":"6鄰","STREET":"民生路","SECT":" ","MAREA":" ","LANE":"３１４巷","ALLEY":" ","HOUSE_NO":"６號","E_COORD97":178956.01000000001,"N_COORD97":2549223.25,"ADDRESS":"民生路３１４巷６號","OBJECTID":353800},"geometry":{"x":178956.01000000071,"y":2549223.2499999981}}]}