{"displayFieldName":"TOWNNAME","fieldAliases":{"ID":"ID","DIS_CODE":"DIS_CODE","TOWNNAME":"TOWNNAME","LI":"LI","LIN":"LIN","STREET":"STREET","SECT":"SECT","MAREA":"MAREA","LANE":"LANE","ALLEY":"ALLEY","HOUSE_NO":"HOUSE_NO","E_COORD97":"E_COORD97","N_COORD97":"N_COORD97","ADDRESS":"ADDRESS","OBJECTID":"OBJECTID"},"geometryType":"esriGeometryPoint","spatialReference":{"wkid":102443,"latestWkid":3826},"fields":[{"name":"ID","type":"esriFieldTypeDouble","alias":"ID"},{"name":"DIS_CODE","type":"esriFieldTypeInteger","alias":"DIS_CODE"},{"name":"TOWNNAME","type":"esriFieldTypeString","alias":"TOWNNAME","length":8},{"name":"LI","type":"esriFieldTypeString","alias":"LI","length":8},{"name":"LIN","type":"esriFieldTypeString","alias":"LIN","length":12},{"name":"STREET","type":"esriFieldTypeString","alias":"STREET","length":20},{"name":"SECT","type":"esriFieldTypeString","alias":"SECT","length":8},{"name":"MAREA","type":"esriFieldTypeString","alias":"MAREA","length":12},{"name":"LANE","type":"esriFieldTypeString","alias":"LANE","length":10},{"name":"ALLEY","type":"esriFieldTypeString","alias":"ALLEY","length":10},{"name":"HOUSE_NO","type":"esriFieldTypeString","alias":"HOUSE_NO","length":20},{"name":"E_COORD97","type":"esriFieldTypeDouble","alias":"E_COORD97"},{"name":"N_COORD97","type":"esriFieldTypeDouble","alias":"N_COORD97"},{"name":"ADDRESS","type":"esriFieldTypeString","alias":"ADDRESS","length":50},{"name":"OBJECTID","type":"esriFieldTypeOID","alias":"OBJECTID"}],"features":[{"attributes":{"ID":661628,"DIS_CODE":0,"TOWNNAME":"中西區","LI":"萬昌里","LIN":"8鄰","STREET":"府前路","SECT":"一段","MAREA":" ","LANE":"１２２巷","ALLEY":" ","HOUSE_NO":"１８號二樓之１","E_COORD97":168816.84043899999,"N_COORD97":2543351.81702,"ADDRESS":"府前路一段１２２巷１８號二樓之１","OBJECTID":661601},"geometry":{"x":168816.84043900017,"y":2543351.8170149997}},{"attributes":{"ID":661629,"DIS_CODE":0,"TOWNNAME":"中西區","LI":"萬昌里","LIN":"8鄰","STREET":"府前路","SECT":"一段","MAREA":" ","LANE":"１２２巷","ALLEY":" ","HOUSE_NO":"１８號二樓之２","E_COORD97":168816.84043899999,"N_COORD97":2543351.81702,"ADDRESS":"府前路一段１２２巷１８號二樓之２","OBJECTID":661602},"geometry":{"x":168816.84043900017,"y":2543351.8170149997}},{"attributes":{"ID":661630,"DIS_CODE":0,"TOWNNAME":"中西區","LI":"萬昌里","LIN":"8鄰","STREET":"府前路","SECT":"一段","MAREA":" ","LANE":"１２２巷","ALLEY":" ","HOUSE_NO":"１８號三樓之１","E_COORD97":168816.84043899999,"N_COORD97":2543351.81702,"ADDRESS":"府前路一段１２２巷１８號三樓之１","OBJECTID":661603},"geometry":{"x":168816.84043900017,"y":2543351.8170149997}},{"attributes":{"ID":661631,"DIS_CODE":0,"TOWNNAME":"中西區","LI":"萬昌里","LIN":"8鄰","STREET":"府前路","SECT":"一段","MAREA":" ","LANE":"１２２巷","ALLEY":" ","HOUSE_NO":"１８號三樓之２","E_COORD97":168816.84043899999,"N_COORD97":2543351.81702,"ADDRESS":"府前路一段１２２巷１８號三樓之２","OBJECTID":661604},"geometry":{"x":168816.84043900017,"y":2543351.8170149997}},{"attributes":{"ID":661632,"DIS_CODE":0,"TOWNNAME":"中西區","LI":"萬昌里","LIN":"8鄰","STREET":"府前路","SECT":"一段","MAREA":" ","LANE":"１２２巷","ALLEY":" ","HOUSE_NO":"１８號三樓之３","E_COORD97":168816.84043899999,"N_COORD97":2543351.81702,"ADDRESS":"府前路一段１２２巷１８號三樓之３","OBJECTID":661605},"geometry":{"x":168816.84043900017,"y":2543351.8170149997}},{"attributes":{"ID":661633,"DIS_CODE":0,"TOWNNAME":"中西區","LI":"萬昌里","LIN":"8鄰","STREET":"府前路","SECT":"一段","MAREA":" ","LANE":"１２２巷","ALLEY":" ","HOUSE_NO":"１８號四樓之１","E_COORD97":168816.84043899999,"N_COORD97":2543351.81702,"ADDRESS":"府前路一段１２２巷１８號四樓之１","OBJECTID":661606},"geometry":{"x":168816.84043900017,"y":2543351.8170149997}},{"attributes":{"ID":661634,"DIS_CODE":0,"TOWNNAME":"中西區","LI":"萬昌里","LIN":"8鄰","STREET":"府前路","SECT":"一段","MAREA":" ","LANE":"１２２巷","ALLEY":" ","HOUSE_NO":"１８號四樓之２","E_COORD97":168816.84043899999,"N_COORD97":2543351.81702,"ADDRESS":"府前路一段１２２巷１８號四樓之２","OBJECTID":661607},"geometry":{"x":168816.84043900017,"y":2543351.8170149997}},{"attributes":{"ID":661635,"DIS_CODE":0,"TOWNNAME":"中西區","LI":"萬昌里","LIN":"8鄰","STREET":"府前路","SECT":"一段","MAREA":" ","LANE":"１２２巷","ALLEY":" ","HOUSE_NO":"１８號四樓之３","E_COORD97":168816.84043899999,"N_COORD97":2543351.81702,"ADDRESS":"府前路一段１２２巷１８號四樓之３","OBJECTID":661608},"geometry":{"x":168816.84043900017,"y":2543351.8170149997}},{"attributes":{"ID":661636,"DIS_CODE":0,"TOWNNAME":"中西區","LI":"萬昌里","LIN":"8鄰","STREET":"府前路","SECT":"一段","MAREA":" ","LANE":"１２２巷","ALLEY":" ","HOUSE_NO":"１８號五樓之１","E_COORD97":168816.84043899999,"N_COORD97":2543351.81702,"ADDRESS":"府前路一段１２２巷１８號五樓之１","OBJECTID":661609},"geometry":{"x":168816.84043900017,"y":2543351.8170149997}},{"attributes":{"ID":661637,"DIS_CODE":0,"TOWNNAME":"中西區","LI":"萬昌里","LIN":"8鄰","STREET":"府前路","SECT":"一段","MAREA":" ","LANE":"１２２巷","ALLEY":" ","HOUSE_NO":"１８號五樓之２","E_COORD97":168816.84043899999,"N_COORD97":2543351.81702,"ADDRESS":"府前路一段１２２巷１８號五樓之２","OBJECTID":661610},"geometry":{"x":168816.84043900017,"y":2543351.8170149997}},{"attributes":{"ID":661638,"DIS_CODE":0,"TOWNNAME":"中西區","LI":"萬昌里","LIN":"8鄰","STREET":"府前路","SECT":"一段","MAREA":" ","LANE":"１２２巷","ALLEY":" ","HOUSE_NO":"１８號五樓之３","E_COORD97":168816.84043899999,"N_COORD97":2543351.81702,"ADDRESS":"府前路一段１２２巷１８號五樓之３","OBJECTID":661611},"geometry":{"x":168816.84043900017,"y":2543351.8170149997}},{"attributes":{"ID":661639,"DIS_CODE":0,"TOWNNAME":"中西區","LI":"萬昌里","LIN":"8鄰","STREET":"府前路","SECT":"一段","MAREA":" ","LANE":"１２２巷","ALLEY":" ","HOUSE_NO":"１８號六樓之１","E_COORD97":168816.84043899999,"N_COORD97":2543351.81702,"ADDRESS":"府前路一段１２２巷１８號六樓之１","OBJECTID":661612},"geometry":{"x":168816.84043900017,"y":2543351.8170149997}},{"attributes":{"ID":661640,"DIS_CODE":0,"TOWNNAME":"中西區","LI":"萬昌里","LIN":"8鄰","STREET":"府前路","SECT":"一段","MAREA":" ","LANE":"１２２巷","ALLEY":" ","HOUSE_NO":"１８號六樓之２","E_COORD97":168816.84043899999,"N_COORD97":2543351.81702,"ADDRESS":"府前路一段１２２巷１８號六樓之２","OBJECTID":661613},"geometry":{"x":168816.84043900017,"y":2543351.8170149997}},{"attributes":{"ID":661641,"DIS_CODE":0,"TOWNNAME":"中西區","LI":"萬昌里","LIN":"8鄰","STREET":"府前路","SECT":"一段","MAREA":" ","LANE":"１２２巷","ALLEY":" ","HOUSE_NO":"１８號六樓之３","E_COORD97":168816.84043899999,"N_COORD97":2543351.81702,"ADDRESS":"府前路一段１２２巷１８號六樓之３","OBJECTID":661614},"geometry":{"x":168816.84043900017,"y":2543351.8170149997}},{"attributes":{"ID":661642,"DIS_CODE":0,"TOWNNAME":"中西區","LI":"萬昌里","LIN":"8鄰","STREET":"府前路","SECT":"一段","MAREA":" ","LANE":"１２２巷","ALLEY":" ","HOUSE_NO":"１８號七樓之１","E_COORD97":168816.84043899999,"N_COORD97":2543351.81702,"ADDRESS":"府前路一段１２２巷１８號七樓之１","OBJECTID":661615},"geometry":{"x":168816.84043900017,"y":2543351.8170149997}},{"attributes":{"ID":661643,"DIS_CODE":0,"TOWNNAME":"中西區","LI":"萬昌里","LIN":"8鄰","STREET":"府前路","SECT":"一段","MAREA":" ","LANE":"１２２巷","ALLEY":" ","HOUSE_NO":"１８號七樓之２","E_COORD97":168816.84043899999,"N_COORD97":2543351.81702,"ADDRESS":"府前路一段１２２巷１８號七樓之２","OBJECTID":661616},"geometry":{"x":168816.84043900017,"y":2543351.8170149997}},{"attributes":{"ID":661644,"DIS_CODE":0,"TOWNNAME":"中西區","LI":"萬昌里","LIN":"8鄰","STREET":"府前路","SECT":"一段","MAREA":" ","LANE":"１２２巷","ALLEY":" ","HOUSE_NO":"１８號七樓之３","E_COORD97":168816.84043899999,"N_COORD97":2543351.81702,"ADDRESS":"府前路一段１２２巷１８號七樓之３","OBJECTID":661617},"geometry":{"x":168816.84043900017,"y":2543351.8170149997}},{"attributes":{"ID":661645,"DIS_CODE":0,"TOWNNAME":"中西區","LI":"萬昌里","LIN":"8鄰","STREET":"府前路","SECT":"一段","MAREA":" ","LANE":"１２２巷","ALLEY":" ","HOUSE_NO":"１８號八樓之１","E_COORD97":168816.84043899999,"N_COORD97":2543351.81702,"ADDRESS":"府前路一段１２２巷１８號八樓之１","OBJECTID":661618},"geometry":{"x":168816.84043900017,"y":2543351.8170149997}},{"attributes":{"ID":661646,"DIS_CODE":0,"TOWNNAME":"中西區","LI":"萬昌里","LIN":"8鄰","STREET":"府前路","SECT":"一段","MAREA":" ","LANE":"１２２巷","ALLEY":" ","HOUSE_NO":"１８號八樓之３","E_COORD97":168816.84043899999,"N_COORD97":2543351.81702,"ADDRESS":"府前路一段１２２巷１８號八樓之３","OBJECTID":661619},"geometry":{"x":168816.84043900017,"y":2543351.8170149997}},{"attributes":{"ID":661647,"DIS_CODE":0,"TOWNNAME":"中西區","LI":"萬昌里","LIN":"8鄰","STREET":"府前路","SECT":"一段","MAREA":" ","LANE":"１２２巷","ALLEY":" ","HOUSE_NO":"１８號九樓之１","E_COORD97":168816.84043899999,"N_COORD97":2543351.81702,"ADDRESS":"府前路一段１２２巷１８號九樓之１","OBJECTID":661620},"geometry":{"x":168816.84043900017,"y":2543351.8170149997}},{"attributes":{"ID":661648,"DIS_CODE":0,"TOWNNAME":"中西區","LI":"萬昌里","LIN":"8鄰","STREET":"府前路","SECT":"一段","MAREA":" ","LANE":"１２２巷","ALLEY":" ","HOUSE_NO":"１８號九樓之２","E_COORD97":168816.84043899999,"N_COORD97":2543351.81702,"ADDRESS":"府前路一段１２２巷１８號九樓之２","OBJECTID":661621},"geometry":{"x":168816.84043900017,"y":2543351.8170149997}},{"attributes":{"ID":661649,"DIS_CODE":0,"TOWNNAME":"中西區","LI":"萬昌里","LIN":"8鄰","STREET":"府前路","SECT":"一段","MAREA":" ","LANE":"１２２巷","ALLEY":" ","HOUSE_NO":"１８號十樓之１","E_COORD97":168816.84043899999,"N_COORD97":2543351.81702,"ADDRESS":"府前路一段１２２巷１８號十樓之１","OBJECTID":661622},"geometry":{"x":168816.84043900017,"y":2543351.8170149997}},{"attributes":{"ID":661650,"DIS_CODE":0,"TOWNNAME":"中西區","LI":"萬昌里","LIN":"8鄰","STREET":"府前路","SECT":"一段","MAREA":" ","LANE":"１２２巷","ALLEY":" ","HOUSE_NO":"１８號十樓之２","E_COORD97":168816.84043899999,"N_COORD97":2543351.81702,"ADDRESS":"府前路一段１２２巷１８號十樓之２","OBJECTID":661623},"geometry":{"x":168816.84043900017,"y":2543351.8170149997}},{"attributes":{"ID":661651,"DIS_CODE":0,"TOWNNAME":"鹽水區","LI":"舊營里","LIN":"1鄰","STREET":" ","SECT":" ","MAREA":"舊營","LANE":" ","ALLEY":" ","HOUSE_NO":"１之３６號","E_COORD97":174334.64441000001,"N_COORD97":2578721.38314,"ADDRESS":"舊營１之３６號","OBJECTID":661624},"geometry":{"x":174334.64441000205,"y":2578721.3831360023}},{"attributes":{"ID":661652,"DIS_CODE":0,"TOWNNAME":"鹽水區","LI":"舊營里","LIN":"1鄰","STREET":" ","SECT":" ","MAREA":"舊營","LANE":" ","ALLEY":" ","HOUSE_NO":"１之３６號","E_COORD97":174334.64441000001,"N_COORD97":2578721.38314,"ADDRESS":"舊營１之３６號","OBJECTID":661625},"geometry":{"x":174334.64441000205,"y":2578721.3831360023}},{"attributes":{"ID":661653,"DIS_CODE":0,"TOWNNAME":"仁德區","LI":"保安里","LIN":"12鄰","STREET":"開發三路","SECT":" ","MAREA":" ","LANE":" ","ALLEY":" ","HOUSE_NO":"８之１號","E_COORD97":172669.019569,"N_COORD97":2535800.7557999999,"ADDRESS":"開發三路８之１號","OBJECTID":661626},"geometry":{"x":172669.01956900116,"y":2535800.7558010016}},{"attributes":{"ID":661654,"DIS_CODE":0,"TOWNNAME":"官田區","LI":"南\u25A0里","LIN":"13鄰","STREET":" ","SECT":" ","MAREA":"三結義","LANE":" ","ALLEY":" ","HOUSE_NO":"４５號","E_COORD97":179966.03543600001,"N_COORD97":2567043.01346,"ADDRESS":"三結義４５號","OBJECTID":661627},"geometry":{"x":179966.03543600067,"y":2567043.0134609994}},{"attributes":{"ID":661655,"DIS_CODE":0,"TOWNNAME":"下營區","LI":"紅厝里","LIN":"11鄰","STREET":" ","SECT":" ","MAREA":"紅毛厝","LANE":" ","ALLEY":" ","HOUSE_NO":"７８號之２","E_COORD97":175034.86945999999,"N_COORD97":2571696.3724600002,"ADDRESS":"紅毛厝７８號之２","OBJECTID":661628},"geometry":{"x":175034.86945999973,"y":2571696.3724600039}},{"attributes":{"ID":661656,"DIS_CODE":0,"TOWNNAME":"下營區","LI":"紅厝里","LIN":"18鄰","STREET":" ","SECT":" ","MAREA":"紅毛厝","LANE":" ","ALLEY":" ","HOUSE_NO":"１４０號之１","E_COORD97":176156.37679499999,"N_COORD97":2571596.88919,"ADDRESS":"紅毛厝１４０號之１","OBJECTID":661629},"geometry":{"x":176156.3767950004,"y":2571596.889189003}},{"attributes":{"ID":661657,"DIS_CODE":0,"TOWNNAME":"仁德區","LI":"仁義里","LIN":"1鄰","STREET":"義林路","SECT":" ","MAREA":" ","LANE":"１４５巷","ALLEY":" ","HOUSE_NO":"２６號","E_COORD97":174168.17193300001,"N_COORD97":2540680.0800399999,"ADDRESS":"義林路１４５巷２６號","OBJECTID":661630},"geometry":{"x":174168.17193299998,"y":2540680.0800400041}},{"attributes":{"ID":661658,"DIS_CODE":0,"TOWNNAME":"新市區","LI":"大社里","LIN":"1鄰","STREET":" ","SECT":" ","MAREA":"大社","LANE":" ","ALLEY":" ","HOUSE_NO":"４７號","E_COORD97":180175.167602,"N_COORD97":2554178.68768,"ADDRESS":"大社４７號","OBJECTID":661631},"geometry":{"x":180175.16760199983,"y":2554178.6876759995}},{"attributes":{"ID":661659,"DIS_CODE":0,"TOWNNAME":"仁德區","LI":"大甲里","LIN":"23鄰","STREET":"中正西路","SECT":" ","MAREA":" ","LANE":" ","ALLEY":" ","HOUSE_NO":"９８２之１號","E_COORD97":168189.21483300001,"N_COORD97":2535863.5076799998,"ADDRESS":"中正西路９８２之１號","OBJECTID":661632},"geometry":{"x":168189.21483299974,"y":2535863.5076760016}},{"attributes":{"ID":661660,"DIS_CODE":0,"TOWNNAME":"下營區","LI":"紅厝里","LIN":"3鄰","STREET":" ","SECT":" ","MAREA":"紅毛厝","LANE":" ","ALLEY":" ","HOUSE_NO":"１４號","E_COORD97":174746.920923,"N_COORD97":2571797.61858,"ADDRESS":"紅毛厝１４號","OBJECTID":661633},"geometry":{"x":174746.9209230002,"y":2571797.618578}},{"attributes":{"ID":661661,"DIS_CODE":0,"TOWNNAME":"下營區","LI":"紅厝里","LIN":"3鄰","STREET":" ","SECT":" ","MAREA":"紅毛厝","LANE":" ","ALLEY":" ","HOUSE_NO":"１４號之２","E_COORD97":174745.43772799999,"N_COORD97":2571815.6102399998,"ADDRESS":"紅毛厝１４號之２","OBJECTID":661634},"geometry":{"x":174745.4377280008,"y":2571815.6102350019}},{"attributes":{"ID":661662,"DIS_CODE":0,"TOWNNAME":"龍崎區","LI":"中坑里","LIN":"9鄰","STREET":" ","SECT":" ","MAREA":"內潭子","LANE":" ","ALLEY":" ","HOUSE_NO":"１５號","E_COORD97":183447.42920499999,"N_COORD97":2537652.8486000001,"ADDRESS":"內潭子１５號","OBJECTID":661635},"geometry":{"x":183447.42920500133,"y":2537652.8485979978}},{"attributes":{"ID":661663,"DIS_CODE":0,"TOWNNAME":"下營區","LI":"紅厝里","LIN":"1鄰","STREET":" ","SECT":" ","MAREA":"紅毛厝","LANE":" ","ALLEY":" ","HOUSE_NO":"１號之１６","E_COORD97":174744.590188,"N_COORD97":2571543.40705,"ADDRESS":"紅毛厝１號之１６","OBJECTID":661636},"geometry":{"x":174744.59018800035,"y":2571543.4070480019}},{"attributes":{"ID":661664,"DIS_CODE":0,"TOWNNAME":"龍崎區","LI":"中坑里","LIN":"9鄰","STREET":" ","SECT":" ","MAREA":"內潭子","LANE":" ","ALLEY":" ","HOUSE_NO":"１７號","E_COORD97":183402.13256299999,"N_COORD97":2537632.7400799999,"ADDRESS":"內潭子１７號","OBJECTID":661637},"geometry":{"x":183402.13256300148,"y":2537632.7400830034}},{"attributes":{"ID":661665,"DIS_CODE":0,"TOWNNAME":"龍崎區","LI":"中坑里","LIN":"9鄰","STREET":" ","SECT":" ","MAREA":"內潭子","LANE":" ","ALLEY":" ","HOUSE_NO":"１２號","E_COORD97":183402.97922899999,"N_COORD97":2537616.6532700001,"ADDRESS":"內潭子１２號","OBJECTID":661638},"geometry":{"x":183402.9792290004,"y":2537616.6532719992}},{"attributes":{"ID":661666,"DIS_CODE":0,"TOWNNAME":"龍崎區","LI":"中坑里","LIN":"9鄰","STREET":" ","SECT":" ","MAREA":"內潭子","LANE":" ","ALLEY":" ","HOUSE_NO":"１２號２樓","E_COORD97":183402.97922899999,"N_COORD97":2537616.6532700001,"ADDRESS":"內潭子１２號２樓","OBJECTID":661639},"geometry":{"x":183402.9792290004,"y":2537616.6532719992}},{"attributes":{"ID":661667,"DIS_CODE":0,"TOWNNAME":"龍崎區","LI":"中坑里","LIN":"9鄰","STREET":" ","SECT":" ","MAREA":"內潭子","LANE":" ","ALLEY":" ","HOUSE_NO":"１２號３樓","E_COORD97":183402.97922899999,"N_COORD97":2537616.6532700001,"ADDRESS":"內潭子１２號３樓","OBJECTID":661640},"geometry":{"x":183402.9792290004,"y":2537616.6532719992}},{"attributes":{"ID":661668,"DIS_CODE":0,"TOWNNAME":"龍崎區","LI":"中坑里","LIN":"9鄰","STREET":" ","SECT":" ","MAREA":"內潭子","LANE":" ","ALLEY":" ","HOUSE_NO":"１２號４樓","E_COORD97":183402.97922899999,"N_COORD97":2537616.6532700001,"ADDRESS":"內潭子１２號４樓","OBJECTID":661641},"geometry":{"x":183402.9792290004,"y":2537616.6532719992}},{"attributes":{"ID":661669,"DIS_CODE":0,"TOWNNAME":"龍崎區","LI":"中坑里","LIN":"9鄰","STREET":" ","SECT":" ","MAREA":"內潭子","LANE":" ","ALLEY":" ","HOUSE_NO":"１２號５樓","E_COORD97":183402.97922899999,"N_COORD97":2537616.6532700001,"ADDRESS":"內潭子１２號５樓","OBJECTID":661642},"geometry":{"x":183402.9792290004,"y":2537616.6532719992}},{"attributes":{"ID":661670,"DIS_CODE":0,"TOWNNAME":"龍崎區","LI":"中坑里","LIN":"9鄰","STREET":" ","SECT":" ","MAREA":"內潭子","LANE":" ","ALLEY":" ","HOUSE_NO":"１３號","E_COORD97":183407.21256000001,"N_COORD97":2537594.4280699999,"ADDRESS":"內潭子１３號","OBJECTID":661643},"geometry":{"x":183407.21256000083,"y":2537594.4280720018}},{"attributes":{"ID":661671,"DIS_CODE":0,"TOWNNAME":"龍崎區","LI":"中坑里","LIN":"9鄰","STREET":" ","SECT":" ","MAREA":"內潭子","LANE":" ","ALLEY":" ","HOUSE_NO":"１６號","E_COORD97":183435.78754399999,"N_COORD97":2537599.93145,"ADDRESS":"內潭子１６號","OBJECTID":661644},"geometry":{"x":183435.78754399996,"y":2537599.9314549994}},{"attributes":{"ID":661672,"DIS_CODE":0,"TOWNNAME":"龍崎區","LI":"中坑里","LIN":"9鄰","STREET":" ","SECT":" ","MAREA":"內潭子","LANE":" ","ALLEY":" ","HOUSE_NO":"１１號","E_COORD97":183411.23422400001,"N_COORD97":2537567.1228299998,"ADDRESS":"內潭子１１號","OBJECTID":661645},"geometry":{"x":183411.23422400188,"y":2537567.1228259988}},{"attributes":{"ID":661673,"DIS_CODE":0,"TOWNNAME":"龍崎區","LI":"中坑里","LIN":"9鄰","STREET":" ","SECT":" ","MAREA":"內潭子","LANE":" ","ALLEY":" ","HOUSE_NO":"１８號","E_COORD97":183412.92755699999,"N_COORD97":2537540.4525899999,"ADDRESS":"內潭子１８號","OBJECTID":661646},"geometry":{"x":183412.92755700182,"y":2537540.4525860026}},{"attributes":{"ID":661674,"DIS_CODE":0,"TOWNNAME":"善化區","LI":"文正里","LIN":"14鄰","STREET":"陽明路","SECT":" ","MAREA":" ","LANE":"５７巷","ALLEY":" ","HOUSE_NO":"８８號","E_COORD97":176089.30322999999,"N_COORD97":2559271.2274000002,"ADDRESS":"陽明路５７巷８８號","OBJECTID":661647},"geometry":{"x":176089.30323000159,"y":2559271.2274000049}},{"attributes":{"ID":661675,"DIS_CODE":0,"TOWNNAME":"龍崎區","LI":"中坑里","LIN":"9鄰","STREET":" ","SECT":" ","MAREA":"內潭子","LANE":" ","ALLEY":" ","HOUSE_NO":"１０號","E_COORD97":183308.78761299999,"N_COORD97":2537556.32773,"ADDRESS":"內潭子１０號","OBJECTID":661648},"geometry":{"x":183308.78761299886,"y":2537556.3277290016}},{"attributes":{"ID":661676,"DIS_CODE":0,"TOWNNAME":"龍崎區","LI":"中坑里","LIN":"9鄰","STREET":" ","SECT":" ","MAREA":"內潭子","LANE":" ","ALLEY":" ","HOUSE_NO":"７號","E_COORD97":183436.503803,"N_COORD97":2537507.5695799999,"ADDRESS":"內潭子７號","OBJECTID":661649},"geometry":{"x":183436.50380299985,"y":2537507.5695780013}},{"attributes":{"ID":661677,"DIS_CODE":0,"TOWNNAME":"龍崎區","LI":"中坑里","LIN":"9鄰","STREET":" ","SECT":" ","MAREA":"內潭子","LANE":" ","ALLEY":" ","HOUSE_NO":"６號","E_COORD97":183436.71612500001,"N_COORD97":2537468.5019800002,"ADDRESS":"內潭子６號","OBJECTID":661650},"geometry":{"x":183436.71612500027,"y":2537468.5019819979}},{"attributes":{"ID":661678,"DIS_CODE":0,"TOWNNAME":"龍崎區","LI":"中坑里","LIN":"9鄰","STREET":" ","SECT":" ","MAREA":"內潭子","LANE":" ","ALLEY":" ","HOUSE_NO":"４號","E_COORD97":183438.520861,"N_COORD97":2537410.0067500002,"ADDRESS":"內潭子４號","OBJECTID":661651},"geometry":{"x":183438.52086100075,"y":2537410.0067499988}},{"attributes":{"ID":661679,"DIS_CODE":0,"TOWNNAME":"龍崎區","LI":"中坑里","LIN":"9鄰","STREET":" ","SECT":" ","MAREA":"內潭子","LANE":" ","ALLEY":" ","HOUSE_NO":"５號","E_COORD97":183436.82228600001,"N_COORD97":2537437.9273399999,"ADDRESS":"內潭子５號","OBJECTID":661652},"geometry":{"x":183436.82228600141,"y":2537437.9273419995}},{"attributes":{"ID":661680,"DIS_CODE":0,"TOWNNAME":"龍崎區","LI":"中坑里","LIN":"9鄰","STREET":" ","SECT":" ","MAREA":"內潭子","LANE":" ","ALLEY":" ","HOUSE_NO":"８號","E_COORD97":183399.24131499999,"N_COORD97":2537467.3341999999,"ADDRESS":"內潭子８號","OBJECTID":661653},"geometry":{"x":183399.24131500162,"y":2537467.3342010006}},{"attributes":{"ID":661681,"DIS_CODE":0,"TOWNNAME":"龍崎區","LI":"中坑里","LIN":"9鄰","STREET":" ","SECT":" ","MAREA":"內潭子","LANE":" ","ALLEY":" ","HOUSE_NO":"５之１號","E_COORD97":183275.139184,"N_COORD97":2537514.78859,"ADDRESS":"內潭子５之１號","OBJECTID":661654},"geometry":{"x":183275.13918399997,"y":2537514.7885910012}},{"attributes":{"ID":661682,"DIS_CODE":0,"TOWNNAME":"龍崎區","LI":"中坑里","LIN":"9鄰","STREET":" ","SECT":" ","MAREA":"內潭子","LANE":" ","ALLEY":" ","HOUSE_NO":"９號","E_COORD97":183275.139184,"N_COORD97":2537514.78859,"ADDRESS":"內潭子９號","OBJECTID":661655},"geometry":{"x":183275.13918399997,"y":2537514.7885910012}},{"attributes":{"ID":661683,"DIS_CODE":0,"TOWNNAME":"龍崎區","LI":"中坑里","LIN":"6鄰","STREET":" ","SECT":" ","MAREA":"大溪","LANE":" ","ALLEY":" ","HOUSE_NO":"１之１號","E_COORD97":184714.927184,"N_COORD97":2538565.8311800002,"ADDRESS":"大溪１之１號","OBJECTID":661656},"geometry":{"x":184714.92718400061,"y":2538565.8311780002}},{"attributes":{"ID":661684,"DIS_CODE":0,"TOWNNAME":"下營區","LI":"紅厝里","LIN":"5鄰","STREET":" ","SECT":" ","MAREA":"紅毛厝","LANE":" ","ALLEY":" ","HOUSE_NO":"２８號之１０","E_COORD97":174860.06751600001,"N_COORD97":2572091.2000899999,"ADDRESS":"紅毛厝２８號之１０","OBJECTID":661657},"geometry":{"x":174860.06751600001,"y":2572091.2000860013}},{"attributes":{"ID":661685,"DIS_CODE":0,"TOWNNAME":"下營區","LI":"紅厝里","LIN":"5鄰","STREET":" ","SECT":" ","MAREA":"紅毛厝","LANE":" ","ALLEY":" ","HOUSE_NO":"２８號之１２","E_COORD97":174907.74164200001,"N_COORD97":2572090.14175,"ADDRESS":"紅毛厝２８號之１２","OBJECTID":661658},"geometry":{"x":174907.74164200015,"y":2572090.141753003}},{"attributes":{"ID":661686,"DIS_CODE":0,"TOWNNAME":"龍崎區","LI":"中坑里","LIN":"6鄰","STREET":" ","SECT":" ","MAREA":"大溪","LANE":" ","ALLEY":" ","HOUSE_NO":"４號","E_COORD97":184640.632224,"N_COORD97":2538395.64965,"ADDRESS":"大溪４號","OBJECTID":661659},"geometry":{"x":184640.63222400006,"y":2538395.6496459991}},{"attributes":{"ID":661687,"DIS_CODE":0,"TOWNNAME":"龍崎區","LI":"中坑里","LIN":"6鄰","STREET":" ","SECT":" ","MAREA":"大溪","LANE":" ","ALLEY":" ","HOUSE_NO":"６號","E_COORD97":184640.632224,"N_COORD97":2538395.64965,"ADDRESS":"大溪６號","OBJECTID":661660},"geometry":{"x":184640.63222400006,"y":2538395.6496459991}},{"attributes":{"ID":661688,"DIS_CODE":0,"TOWNNAME":"龍崎區","LI":"中坑里","LIN":"6鄰","STREET":" ","SECT":" ","MAREA":"大溪","LANE":" ","ALLEY":" ","HOUSE_NO":"７號","E_COORD97":184564.43226500001,"N_COORD97":2538350.3525700001,"ADDRESS":"大溪７號","OBJECTID":661661},"geometry":{"x":184564.43226499949,"y":2538350.3525719997}},{"attributes":{"ID":661689,"DIS_CODE":0,"TOWNNAME":"下營區","LI":"紅厝里","LIN":"1鄰","STREET":" ","SECT":" ","MAREA":"紅毛厝","LANE":" ","ALLEY":" ","HOUSE_NO":"２號之９","E_COORD97":174879.349051,"N_COORD97":2571533.45872,"ADDRESS":"紅毛厝２號之９","OBJECTID":661662},"geometry":{"x":174879.34905100055,"y":2571533.4587200005}},{"attributes":{"ID":661690,"DIS_CODE":0,"TOWNNAME":"龍崎區","LI":"中坑里","LIN":"6鄰","STREET":" ","SECT":" ","MAREA":"大溪","LANE":" ","ALLEY":" ","HOUSE_NO":"８號","E_COORD97":184615.020571,"N_COORD97":2538286.852,"ADDRESS":"大溪８號","OBJECTID":661663},"geometry":{"x":184615.02057100087,"y":2538286.8520000037}},{"attributes":{"ID":661691,"DIS_CODE":0,"TOWNNAME":"龍崎區","LI":"中坑里","LIN":"4鄰","STREET":" ","SECT":" ","MAREA":"三塊厝","LANE":" ","ALLEY":" ","HOUSE_NO":"１１號","E_COORD97":185805.22159500001,"N_COORD97":2539571.46856,"ADDRESS":"三塊厝１１號","OBJECTID":661664},"geometry":{"x":185805.22159500234,"y":2539571.4685630016}},{"attributes":{"ID":661692,"DIS_CODE":0,"TOWNNAME":"龍崎區","LI":"中坑里","LIN":"4鄰","STREET":" ","SECT":" ","MAREA":"三塊厝","LANE":" ","ALLEY":" ","HOUSE_NO":"１２號","E_COORD97":185861.10156499999,"N_COORD97":2539510.50801,"ADDRESS":"三塊厝１２號","OBJECTID":661665},"geometry":{"x":185861.10156500153,"y":2539510.508014001}},{"attributes":{"ID":661693,"DIS_CODE":0,"TOWNNAME":"龍崎區","LI":"中坑里","LIN":"4鄰","STREET":" ","SECT":" ","MAREA":"三塊厝","LANE":" ","ALLEY":" ","HOUSE_NO":"２號","E_COORD97":185519.04841600001,"N_COORD97":2539571.46856,"ADDRESS":"三塊厝２號","OBJECTID":661666},"geometry":{"x":185519.04841600079,"y":2539571.4685630016}},{"attributes":{"ID":661694,"DIS_CODE":0,"TOWNNAME":"龍崎區","LI":"中坑里","LIN":"4鄰","STREET":" ","SECT":" ","MAREA":"三塊厝","LANE":" ","ALLEY":" ","HOUSE_NO":"９之２號","E_COORD97":185695.15498799999,"N_COORD97":2539588.4020500001,"ADDRESS":"三塊厝９之２號","OBJECTID":661667},"geometry":{"x":185695.1549880011,"y":2539588.4020479973}},{"attributes":{"ID":661695,"DIS_CODE":0,"TOWNNAME":"下營區","LI":"紅厝里","LIN":"1鄰","STREET":" ","SECT":" ","MAREA":"紅毛厝","LANE":" ","ALLEY":" ","HOUSE_NO":"２號","E_COORD97":174893.96911599999,"N_COORD97":2571564.9970399998,"ADDRESS":"紅毛厝２號","OBJECTID":661668},"geometry":{"x":174893.96911600046,"y":2571564.997037001}},{"attributes":{"ID":661696,"DIS_CODE":0,"TOWNNAME":"下營區","LI":"紅厝里","LIN":"1鄰","STREET":" ","SECT":" ","MAREA":"紅毛厝","LANE":" ","ALLEY":" ","HOUSE_NO":"２號之２","E_COORD97":174881.89167099999,"N_COORD97":2571573.6753699998,"ADDRESS":"紅毛厝２號之２","OBJECTID":661669},"geometry":{"x":174881.89167100098,"y":2571573.6753650028}},{"attributes":{"ID":661697,"DIS_CODE":0,"TOWNNAME":"龍崎區","LI":"中坑里","LIN":"4鄰","STREET":" ","SECT":" ","MAREA":"三塊厝","LANE":" ","ALLEY":" ","HOUSE_NO":"１０號","E_COORD97":185783.208274,"N_COORD97":2539507.1213199999,"ADDRESS":"三塊厝１０號","OBJECTID":661670},"geometry":{"x":185783.20827400032,"y":2539507.1213169992}},{"attributes":{"ID":661698,"DIS_CODE":0,"TOWNNAME":"龍崎區","LI":"中坑里","LIN":"4鄰","STREET":" ","SECT":" ","MAREA":"三塊厝","LANE":" ","ALLEY":" ","HOUSE_NO":"９之１號","E_COORD97":185777.493277,"N_COORD97":2539481.9327600002,"ADDRESS":"三塊厝９之１號","OBJECTID":661671},"geometry":{"x":185777.49327700119,"y":2539481.9327570032}},{"attributes":{"ID":661699,"DIS_CODE":0,"TOWNNAME":"龍崎區","LI":"中坑里","LIN":"4鄰","STREET":" ","SECT":" ","MAREA":"三塊厝","LANE":" ","ALLEY":" ","HOUSE_NO":"９號","E_COORD97":185691.97998999999,"N_COORD97":2539532.3098800001,"ADDRESS":"三塊厝９號","OBJECTID":661672},"geometry":{"x":185691.97999000177,"y":2539532.3098770007}},{"attributes":{"ID":661700,"DIS_CODE":0,"TOWNNAME":"龍崎區","LI":"中坑里","LIN":"4鄰","STREET":" ","SECT":" ","MAREA":"三塊厝","LANE":" ","ALLEY":" ","HOUSE_NO":"８號","E_COORD97":185654.09167699999,"N_COORD97":2539504.36962,"ADDRESS":"三塊厝８號","OBJECTID":661673},"geometry":{"x":185654.09167700075,"y":2539504.3696250003}},{"attributes":{"ID":661701,"DIS_CODE":0,"TOWNNAME":"下營區","LI":"紅厝里","LIN":"7鄰","STREET":" ","SECT":" ","MAREA":"紅毛厝","LANE":" ","ALLEY":" ","HOUSE_NO":"４７號之２","E_COORD97":174856.889241,"N_COORD97":2571738.1402799999,"ADDRESS":"紅毛厝４７號之２","OBJECTID":661674},"geometry":{"x":174856.88924100064,"y":2571738.1402760036}},{"attributes":{"ID":661702,"DIS_CODE":0,"TOWNNAME":"安平區","LI":"平通里","LIN":"19鄰","STREET":"育平路","SECT":" ","MAREA":" ","LANE":" ","ALLEY":" ","HOUSE_NO":"４６３號","E_COORD97":164629.992899,"N_COORD97":2544152.0257100002,"ADDRESS":"育平路４６３號","OBJECTID":661675},"geometry":{"x":164629.99289899971,"y":2544152.0257090032}},{"attributes":{"ID":661703,"DIS_CODE":0,"TOWNNAME":"安平區","LI":"育平里","LIN":"33鄰","STREET":"建平七街","SECT":" ","MAREA":" ","LANE":" ","ALLEY":" ","HOUSE_NO":"８２２號","E_COORD97":164524.67486,"N_COORD97":2543481.2544,"ADDRESS":"建平七街８２２號","OBJECTID":661676},"geometry":{"x":164524.67486000061,"y":2543481.2544049993}},{"attributes":{"ID":661704,"DIS_CODE":0,"TOWNNAME":"安平區","LI":"金城里","LIN":"13鄰","STREET":"世平五街","SECT":" ","MAREA":" ","LANE":"１０巷","ALLEY":" ","HOUSE_NO":"２３號","E_COORD97":162695.06529599999,"N_COORD97":2544167.9007000001,"ADDRESS":"世平五街１０巷２３號","OBJECTID":661677},"geometry":{"x":162695.0652960008,"y":2544167.9007009994}},{"attributes":{"ID":661705,"DIS_CODE":0,"TOWNNAME":"安平區","LI":"金城里","LIN":"13鄰","STREET":"世平五街","SECT":" ","MAREA":" ","LANE":"１０巷","ALLEY":" ","HOUSE_NO":"４３號","E_COORD97":162663.91488999999,"N_COORD97":2544206.6356799998,"ADDRESS":"世平五街１０巷４３號","OBJECTID":661678},"geometry":{"x":162663.91488999967,"y":2544206.6356800012}},{"attributes":{"ID":661706,"DIS_CODE":0,"TOWNNAME":"安平區","LI":"金城里","LIN":"13鄰","STREET":"世平五街","SECT":" ","MAREA":" ","LANE":"１０巷","ALLEY":" ","HOUSE_NO":"４１號","E_COORD97":162666.66968699999,"N_COORD97":2544203.24902,"ADDRESS":"世平五街１０巷４１號","OBJECTID":661679},"geometry":{"x":162666.6696870001,"y":2544203.2490150016}},{"attributes":{"ID":661707,"DIS_CODE":0,"TOWNNAME":"安平區","LI":"金城里","LIN":"13鄰","STREET":"世平五街","SECT":" ","MAREA":" ","LANE":"１０巷","ALLEY":" ","HOUSE_NO":"３９號","E_COORD97":162669.63639299999,"N_COORD97":2544199.0156800002,"ADDRESS":"世平五街１０巷３９號","OBJECTID":661680},"geometry":{"x":162669.6363930013,"y":2544199.015684003}},{"attributes":{"ID":661708,"DIS_CODE":0,"TOWNNAME":"安平區","LI":"金城里","LIN":"13鄰","STREET":"世平五街","SECT":" ","MAREA":" ","LANE":"１０巷","ALLEY":" ","HOUSE_NO":"３７號","E_COORD97":162672.179283,"N_COORD97":2544194.57069,"ADDRESS":"世平五街１０巷３７號","OBJECTID":661681},"geometry":{"x":162672.1792829996,"y":2544194.5706859995}},{"attributes":{"ID":661709,"DIS_CODE":0,"TOWNNAME":"安平區","LI":"金城里","LIN":"13鄰","STREET":"世平五街","SECT":" ","MAREA":" ","LANE":"１０巷","ALLEY":" ","HOUSE_NO":"３５號","E_COORD97":162674.72217299999,"N_COORD97":2544190.1256900001,"ADDRESS":"世平五街１０巷３５號","OBJECTID":661682},"geometry":{"x":162674.72217300069,"y":2544190.1256889999}},{"attributes":{"ID":661710,"DIS_CODE":0,"TOWNNAME":"安平區","LI":"金城里","LIN":"13鄰","STREET":"世平五街","SECT":" ","MAREA":" ","LANE":"１０巷","ALLEY":" ","HOUSE_NO":"３３號","E_COORD97":162677.26506400001,"N_COORD97":2544186.3156900001,"ADDRESS":"世平五街１０巷３３號","OBJECTID":661683},"geometry":{"x":162677.26506400015,"y":2544186.3156910017}},{"attributes":{"ID":661711,"DIS_CODE":0,"TOWNNAME":"安平區","LI":"金城里","LIN":"13鄰","STREET":"世平五街","SECT":" ","MAREA":" ","LANE":"１０巷","ALLEY":" ","HOUSE_NO":"３１號","E_COORD97":162680.443677,"N_COORD97":2544182.0823599999,"ADDRESS":"世平五街１０巷３１號","OBJECTID":661684},"geometry":{"x":162680.44367699977,"y":2544182.0823599994}},{"attributes":{"ID":661712,"DIS_CODE":0,"TOWNNAME":"安平區","LI":"金城里","LIN":"8鄰","STREET":"世平五街","SECT":" ","MAREA":" ","LANE":" ","ALLEY":" ","HOUSE_NO":"６５號","E_COORD97":162845.519638,"N_COORD97":2544165.9956999999,"ADDRESS":"世平五街６５號","OBJECTID":661685},"geometry":{"x":162845.51963800006,"y":2544165.9957020003}},{"attributes":{"ID":661713,"DIS_CODE":0,"TOWNNAME":"安平區","LI":"金城里","LIN":"12鄰","STREET":"世平一街","SECT":" ","MAREA":" ","LANE":" ","ALLEY":" ","HOUSE_NO":"６６號","E_COORD97":162856.32692200001,"N_COORD97":2543970.4158100002,"ADDRESS":"世平一街６６號","OBJECTID":661686},"geometry":{"x":162856.32692200039,"y":2543970.4158070032}},{"attributes":{"ID":661714,"DIS_CODE":0,"TOWNNAME":"安平區","LI":"國平里","LIN":"2鄰","STREET":"華平路","SECT":" ","MAREA":" ","LANE":" ","ALLEY":" ","HOUSE_NO":"１４８號","E_COORD97":165389.46946600001,"N_COORD97":2543161.63791,"ADDRESS":"華平路１４８號","OBJECTID":661687},"geometry":{"x":165389.46946599986,"y":2543161.6379110012}},{"attributes":{"ID":661715,"DIS_CODE":0,"TOWNNAME":"下營區","LI":"紅厝里","LIN":"8鄰","STREET":" ","SECT":" ","MAREA":"紅毛厝","LANE":" ","ALLEY":" ","HOUSE_NO":"５１號之２","E_COORD97":174910.496147,"N_COORD97":2571632.83617,"ADDRESS":"紅毛厝５１號之２","OBJECTID":661688},"geometry":{"x":174910.49614700023,"y":2571632.8361670021}},{"attributes":{"ID":661716,"DIS_CODE":0,"TOWNNAME":"安平區","LI":"華平里","LIN":"12鄰","STREET":"華平路","SECT":" ","MAREA":" ","LANE":" ","ALLEY":" ","HOUSE_NO":"４６９號","E_COORD97":165435.24149099999,"N_COORD97":2543697.5776200001,"ADDRESS":"華平路４６９號","OBJECTID":661689},"geometry":{"x":165435.24149100017,"y":2543697.5776210018}},{"attributes":{"ID":661717,"DIS_CODE":0,"TOWNNAME":"安平區","LI":"億載里","LIN":"14鄰","STREET":"平豐路","SECT":" ","MAREA":" ","LANE":"１０１巷","ALLEY":"１３弄","HOUSE_NO":"１７號","E_COORD97":164273.56444399999,"N_COORD97":2543219.8462100001,"ADDRESS":"平豐路１０１巷１３弄１７號","OBJECTID":661690},"geometry":{"x":164273.56444400083,"y":2543219.8462129999}},{"attributes":{"ID":661718,"DIS_CODE":0,"TOWNNAME":"下營區","LI":"紅厝里","LIN":"8鄰","STREET":" ","SECT":" ","MAREA":"紅毛厝","LANE":" ","ALLEY":" ","HOUSE_NO":"５９號之１","E_COORD97":175007.11570900001,"N_COORD97":2571706.4961299999,"ADDRESS":"紅毛厝５９號之１","OBJECTID":661691},"geometry":{"x":175007.1157090012,"y":2571706.4961270001}},{"attributes":{"ID":661719,"DIS_CODE":0,"TOWNNAME":"仁德區","LI":"仁愛里","LIN":"26鄰","STREET":"大同路","SECT":"三段","MAREA":" ","LANE":" ","ALLEY":" ","HOUSE_NO":"２６０號","E_COORD97":169735.63920199999,"N_COORD97":2539630.1225700001,"ADDRESS":"大同路三段２６０號","OBJECTID":661692},"geometry":{"x":169735.6392020015,"y":2539630.1225729994}},{"attributes":{"ID":661720,"DIS_CODE":0,"TOWNNAME":"仁德區","LI":"仁愛里","LIN":"26鄰","STREET":"大同路","SECT":"三段","MAREA":" ","LANE":" ","ALLEY":" ","HOUSE_NO":"２４８號","E_COORD97":169739.87401100001,"N_COORD97":2539663.9892199999,"ADDRESS":"大同路三段２４８號","OBJECTID":661693},"geometry":{"x":169739.87401099969,"y":2539663.9892219994}},{"attributes":{"ID":661721,"DIS_CODE":0,"TOWNNAME":"永康區","LI":"北灣里","LIN":"13鄰","STREET":"大灣路","SECT":" ","MAREA":" ","LANE":"４０巷","ALLEY":" ","HOUSE_NO":"１號","E_COORD97":175295.48478,"N_COORD97":2545886.2544800001,"ADDRESS":"大灣路４０巷１號","OBJECTID":661694},"geometry":{"x":175295.48477999959,"y":2545886.2544760015}},{"attributes":{"ID":661722,"DIS_CODE":0,"TOWNNAME":"永康區","LI":"北灣里","LIN":"13鄰","STREET":"大灣路","SECT":" ","MAREA":" ","LANE":"４０巷","ALLEY":" ","HOUSE_NO":"１１號","E_COORD97":175271.53428399999,"N_COORD97":2545906.9978,"ADDRESS":"大灣路４０巷１１號","OBJECTID":661695},"geometry":{"x":175271.53428400028,"y":2545906.9977989998}},{"attributes":{"ID":661723,"DIS_CODE":0,"TOWNNAME":"永康區","LI":"北灣里","LIN":"13鄰","STREET":"大灣路","SECT":" ","MAREA":" ","LANE":"４０巷","ALLEY":" ","HOUSE_NO":"１５號","E_COORD97":175263.056232,"N_COORD97":2545914.61779,"ADDRESS":"大灣路４０巷１５號","OBJECTID":661696},"geometry":{"x":175263.05623199977,"y":2545914.6177939996}},{"attributes":{"ID":661724,"DIS_CODE":0,"TOWNNAME":"永康區","LI":"北灣里","LIN":"13鄰","STREET":"大灣路","SECT":" ","MAREA":" ","LANE":"４０巷","ALLEY":" ","HOUSE_NO":"１１之１號","E_COORD97":175269.41477100001,"N_COORD97":2545903.1878,"ADDRESS":"大灣路４０巷１１之１號","OBJECTID":661697},"geometry":{"x":175269.41477099899,"y":2545903.1878010016}},{"attributes":{"ID":661725,"DIS_CODE":0,"TOWNNAME":"永康區","LI":"北灣里","LIN":"13鄰","STREET":"大灣路","SECT":" ","MAREA":" ","LANE":"４０巷","ALLEY":" ","HOUSE_NO":"１１之２號","E_COORD97":175267.295258,"N_COORD97":2545899.58947,"ADDRESS":"大灣路４０巷１１之２號","OBJECTID":661698},"geometry":{"x":175267.29525800049,"y":2545899.5894690026}},{"attributes":{"ID":661726,"DIS_CODE":0,"TOWNNAME":"永康區","LI":"北灣里","LIN":"13鄰","STREET":"大灣路","SECT":" ","MAREA":" ","LANE":"４４巷","ALLEY":" ","HOUSE_NO":"２號","E_COORD97":175276.409163,"N_COORD97":2545873.3428199999,"ADDRESS":"大灣路４４巷２號","OBJECTID":661699},"geometry":{"x":175276.40916300099,"y":2545873.342817001}},{"attributes":{"ID":661727,"DIS_CODE":0,"TOWNNAME":"永康區","LI":"北灣里","LIN":"21鄰","STREET":"大同街","SECT":" ","MAREA":" ","LANE":"３８０巷","ALLEY":"７７弄","HOUSE_NO":"２號","E_COORD97":174944.06953400001,"N_COORD97":2545991.3469199999,"ADDRESS":"大同街３８０巷７７弄２號","OBJECTID":661700},"geometry":{"x":174944.06953400001,"y":2545991.3469200023}},{"attributes":{"ID":661728,"DIS_CODE":0,"TOWNNAME":"永康區","LI":"北灣里","LIN":"21鄰","STREET":"大同街","SECT":" ","MAREA":" ","LANE":"３８０巷","ALLEY":"７７弄","HOUSE_NO":"６號","E_COORD97":174946.612949,"N_COORD97":2545985.6319200001,"ADDRESS":"大同街３８０巷７７弄６號","OBJECTID":661701},"geometry":{"x":174946.61294900067,"y":2545985.6319229994}},{"attributes":{"ID":661729,"DIS_CODE":0,"TOWNNAME":"永康區","LI":"北灣里","LIN":"21鄰","STREET":"大同街","SECT":" ","MAREA":" ","LANE":"３８０巷","ALLEY":"７７弄","HOUSE_NO":"８號","E_COORD97":174959.75393000001,"N_COORD97":2545995.36858,"ADDRESS":"大同街３８０巷７７弄８號","OBJECTID":661702},"geometry":{"x":174959.75392999966,"y":2545995.3685839996}},{"attributes":{"ID":661730,"DIS_CODE":0,"TOWNNAME":"永康區","LI":"北灣里","LIN":"21鄰","STREET":"大同街","SECT":" ","MAREA":" ","LANE":"３８０巷","ALLEY":"７７弄","HOUSE_NO":"１２號","E_COORD97":174961.66149100001,"N_COORD97":2546004.6819099998,"ADDRESS":"大同街３８０巷７７弄１２號","OBJECTID":661703},"geometry":{"x":174961.66149100102,"y":2546004.6819130015}},{"attributes":{"ID":661731,"DIS_CODE":0,"TOWNNAME":"永康區","LI":"北灣里","LIN":"21鄰","STREET":"大同街","SECT":" ","MAREA":" ","LANE":"３８０巷","ALLEY":"７７弄","HOUSE_NO":"１６號","E_COORD97":174963.992956,"N_COORD97":2546008.0685800002,"ADDRESS":"大同街３８０巷７７弄１６號","OBJECTID":661704},"geometry":{"x":174963.99295600038,"y":2546008.0685770027}},{"attributes":{"ID":661732,"DIS_CODE":0,"TOWNNAME":"永康區","LI":"北灣里","LIN":"21鄰","STREET":"大同街","SECT":" ","MAREA":" ","LANE":"３８０巷","ALLEY":"７７弄","HOUSE_NO":"２０號","E_COORD97":174966.748322,"N_COORD97":2546011.45524,"ADDRESS":"大同街３８０巷７７弄２０號","OBJECTID":661705},"geometry":{"x":174966.7483219998,"y":2546011.4552420024}},{"attributes":{"ID":661733,"DIS_CODE":0,"TOWNNAME":"永康區","LI":"北灣里","LIN":"21鄰","STREET":"大同街","SECT":" ","MAREA":" ","LANE":"３８０巷","ALLEY":"７７弄","HOUSE_NO":"２２號","E_COORD97":174969.079787,"N_COORD97":2546014.6302399999,"ADDRESS":"大同街３８０巷７７弄２２號","OBJECTID":661706},"geometry":{"x":174969.07978700101,"y":2546014.6302400026}},{"attributes":{"ID":661734,"DIS_CODE":0,"TOWNNAME":"永康區","LI":"北灣里","LIN":"21鄰","STREET":"大同街","SECT":" ","MAREA":" ","LANE":"３８０巷","ALLEY":"７７弄","HOUSE_NO":"２６號","E_COORD97":174971.83515299999,"N_COORD97":2546018.2285699998,"ADDRESS":"大同街３８０巷７７弄２６號","OBJECTID":661707},"geometry":{"x":174971.8351529995,"y":2546018.2285719998}},{"attributes":{"ID":661735,"DIS_CODE":0,"TOWNNAME":"永康區","LI":"北灣里","LIN":"21鄰","STREET":"大同街","SECT":" ","MAREA":" ","LANE":"３８０巷","ALLEY":"７７弄","HOUSE_NO":"２８號","E_COORD97":174966.53637099999,"N_COORD97":2546020.1335700001,"ADDRESS":"大同街３８０巷７７弄２８號","OBJECTID":661708},"geometry":{"x":174966.53637100104,"y":2546020.1335709989}},{"attributes":{"ID":661736,"DIS_CODE":0,"TOWNNAME":"永康區","LI":"北灣里","LIN":"21鄰","STREET":"大同街","SECT":" ","MAREA":" ","LANE":"３８０巷","ALLEY":"７７弄","HOUSE_NO":"３０號","E_COORD97":174963.56905300001,"N_COORD97":2546017.59357,"ADDRESS":"大同街３８０巷７７弄３０號","OBJECTID":661709},"geometry":{"x":174963.56905299891,"y":2546017.593572}},{"attributes":{"ID":661737,"DIS_CODE":0,"TOWNNAME":"永康區","LI":"北灣里","LIN":"21鄰","STREET":"大同街","SECT":" ","MAREA":" ","LANE":"３８０巷","ALLEY":"７７弄","HOUSE_NO":"３２號","E_COORD97":174961.02563700001,"N_COORD97":2546014.4185700002,"ADDRESS":"大同街３８０巷７７弄３２號","OBJECTID":661710},"geometry":{"x":174961.02563699987,"y":2546014.4185739998}},{"attributes":{"ID":661738,"DIS_CODE":0,"TOWNNAME":"永康區","LI":"北灣里","LIN":"21鄰","STREET":"大同街","SECT":" ","MAREA":" ","LANE":"３８０巷","ALLEY":"７７弄","HOUSE_NO":"３６號","E_COORD97":174958.90612500001,"N_COORD97":2546011.45524,"ADDRESS":"大同街３８０巷７７弄３６號","OBJECTID":661711},"geometry":{"x":174958.90612499975,"y":2546011.4552420024}},{"attributes":{"ID":661739,"DIS_CODE":0,"TOWNNAME":"新營區","LI":"王公里","LIN":"27鄰","STREET":"民族路","SECT":" ","MAREA":" ","LANE":"３０８巷","ALLEY":" ","HOUSE_NO":"２８號","E_COORD97":180450.12142800001,"N_COORD97":2579739.31483,"ADDRESS":"民族路３０８巷２８號","OBJECTID":661712},"geometry":{"x":180450.12142800074,"y":2579739.3148260005}},{"attributes":{"ID":661740,"DIS_CODE":0,"TOWNNAME":"新營區","LI":"王公里","LIN":"27鄰","STREET":"民族路","SECT":" ","MAREA":" ","LANE":"３０８巷","ALLEY":" ","HOUSE_NO":"２８之１號","E_COORD97":180454.570954,"N_COORD97":2579739.9498299998,"ADDRESS":"民族路３０８巷２８之１號","OBJECTID":661713},"geometry":{"x":180454.57095400058,"y":2579739.9498260003}},{"attributes":{"ID":661741,"DIS_CODE":0,"TOWNNAME":"新營區","LI":"王公里","LIN":"27鄰","STREET":"民族路","SECT":" ","MAREA":" ","LANE":"３０８巷","ALLEY":" ","HOUSE_NO":"３０號","E_COORD97":180458.17295199999,"N_COORD97":2579740.37316,"ADDRESS":"民族路３０８巷３０號","OBJECTID":661714},"geometry":{"x":180458.17295200098,"y":2579740.3731590025}},{"attributes":{"ID":661742,"DIS_CODE":0,"TOWNNAME":"玉井區","LI":"沙田里","LIN":"1鄰","STREET":" ","SECT":" ","MAREA":"沙田","LANE":" ","ALLEY":" ","HOUSE_NO":"３之１號","E_COORD97":195438.55767099999,"N_COORD97":2557204.2491799998,"ADDRESS":"沙田３之１號","OBJECTID":661715},"geometry":{"x":195438.55767100118,"y":2557204.2491770014}},{"attributes":{"ID":661743,"DIS_CODE":0,"TOWNNAME":"玉井區","LI":"沙田里","LIN":"1鄰","STREET":" ","SECT":" ","MAREA":"沙田","LANE":" ","ALLEY":" ","HOUSE_NO":"４之１號","E_COORD97":195477.329409,"N_COORD97":2557183.5058599999,"ADDRESS":"沙田４之１號","OBJECTID":661716},"geometry":{"x":195477.32940899953,"y":2557183.5058550034}},{"attributes":{"ID":661744,"DIS_CODE":0,"TOWNNAME":"玉井區","LI":"沙田里","LIN":"1鄰","STREET":" ","SECT":" ","MAREA":"沙田","LANE":" ","ALLEY":" ","HOUSE_NO":"５之１號","E_COORD97":195560.80517199999,"N_COORD97":2557104.97756,"ADDRESS":"沙田５之１號","OBJECTID":661717},"geometry":{"x":195560.80517200101,"y":2557104.9775639996}},{"attributes":{"ID":661745,"DIS_CODE":0,"TOWNNAME":"玉井區","LI":"竹圍里","LIN":"4鄰","STREET":"大成路","SECT":" ","MAREA":" ","LANE":"２３０巷","ALLEY":"１２１弄","HOUSE_NO":"３號","E_COORD97":195666.52701399999,"N_COORD97":2558522.08513,"ADDRESS":"大成路２３０巷１２１弄３號","OBJECTID":661718},"geometry":{"x":195666.52701400034,"y":2558522.0851319991}},{"attributes":{"ID":661746,"DIS_CODE":0,"TOWNNAME":"玉井區","LI":"竹圍里","LIN":"4鄰","STREET":"大成路","SECT":" ","MAREA":" ","LANE":"２３０巷","ALLEY":"１５弄","HOUSE_NO":"１９號","E_COORD97":195651.27256000001,"N_COORD97":2558489.2768199998,"ADDRESS":"大成路２３０巷１５弄１９號","OBJECTID":661719},"geometry":{"x":195651.27256000135,"y":2558489.2768170014}},{"attributes":{"ID":661747,"DIS_CODE":0,"TOWNNAME":"玉井區","LI":"竹圍里","LIN":"5鄰","STREET":"大成路","SECT":" ","MAREA":" ","LANE":"３３０巷","ALLEY":"１弄","HOUSE_NO":"１２號","E_COORD97":195604.23799299999,"N_COORD97":2558478.3759900001,"ADDRESS":"大成路３３０巷１弄１２號","OBJECTID":661720},"geometry":{"x":195604.23799300008,"y":2558478.3759889994}},{"attributes":{"ID":661748,"DIS_CODE":0,"TOWNNAME":"玉井區","LI":"沙田里","LIN":"2鄰","STREET":" ","SECT":" ","MAREA":"沙田","LANE":" ","ALLEY":" ","HOUSE_NO":"１６號之１","E_COORD97":195769.07084,"N_COORD97":2556655.5036399998,"ADDRESS":"沙田１６號之１","OBJECTID":661721},"geometry":{"x":195769.07084000204,"y":2556655.5036399998}},{"attributes":{"ID":661749,"DIS_CODE":0,"TOWNNAME":"玉井區","LI":"沙田里","LIN":"2鄰","STREET":" ","SECT":" ","MAREA":"沙田","LANE":" ","ALLEY":" ","HOUSE_NO":"１７號","E_COORD97":195849.79233,"N_COORD97":2556623.6478200001,"ADDRESS":"沙田１７號","OBJECTID":661722},"geometry":{"x":195849.79233000055,"y":2556623.6478199996}},{"attributes":{"ID":661750,"DIS_CODE":0,"TOWNNAME":"玉井區","LI":"三埔里","LIN":"7鄰","STREET":" ","SECT":" ","MAREA":"三埔","LANE":" ","ALLEY":" ","HOUSE_NO":"７９之８號","E_COORD97":197982,"N_COORD97":2554871,"ADDRESS":"三埔７９之８號","OBJECTID":661723},"geometry":{"x":197982,"y":2554871.0000000019}},{"attributes":{"ID":661751,"DIS_CODE":0,"TOWNNAME":"玉井區","LI":"三埔里","LIN":"7鄰","STREET":" ","SECT":" ","MAREA":"三埔","LANE":" ","ALLEY":" ","HOUSE_NO":"７９之３號","E_COORD97":197938,"N_COORD97":2554877,"ADDRESS":"三埔７９之３號","OBJECTID":661724},"geometry":{"x":197938,"y":2554877.0000000037}},{"attributes":{"ID":661752,"DIS_CODE":0,"TOWNNAME":"玉井區","LI":"三埔里","LIN":"7鄰","STREET":" ","SECT":" ","MAREA":"三埔","LANE":" ","ALLEY":" ","HOUSE_NO":"７９之１０號","E_COORD97":198042,"N_COORD97":2554820,"ADDRESS":"三埔７９之１０號","OBJECTID":661725},"geometry":{"x":198042.00000000093,"y":2554820.0000000019}},{"attributes":{"ID":661753,"DIS_CODE":0,"TOWNNAME":"玉井區","LI":"三埔里","LIN":"7鄰","STREET":" ","SECT":" ","MAREA":"三埔","LANE":" ","ALLEY":" ","HOUSE_NO":"７９之７號","E_COORD97":198004,"N_COORD97":2554841,"ADDRESS":"三埔７９之７號","OBJECTID":661726},"geometry":{"x":198004,"y":2554841.0000000019}},{"attributes":{"ID":661754,"DIS_CODE":0,"TOWNNAME":"玉井區","LI":"三埔里","LIN":"7鄰","STREET":" ","SECT":" ","MAREA":"三埔","LANE":" ","ALLEY":" ","HOUSE_NO":"１３號","E_COORD97":197100,"N_COORD97":2555548,"ADDRESS":"三埔１３號","OBJECTID":661727},"geometry":{"x":197100.00000000093,"y":2555547.9999999981}},{"attributes":{"ID":661755,"DIS_CODE":0,"TOWNNAME":"玉井區","LI":"三埔里","LIN":"7鄰","STREET":" ","SECT":" ","MAREA":"三埔","LANE":" ","ALLEY":" ","HOUSE_NO":"１２號","E_COORD97":197124,"N_COORD97":2555556,"ADDRESS":"三埔１２號","OBJECTID":661728},"geometry":{"x":197124,"y":2555556.0000000019}},{"attributes":{"ID":661756,"DIS_CODE":0,"TOWNNAME":"玉井區","LI":"三埔里","LIN":"7鄰","STREET":" ","SECT":" ","MAREA":"三埔","LANE":" ","ALLEY":" ","HOUSE_NO":"７號","E_COORD97":197075,"N_COORD97":2555592,"ADDRESS":"三埔７號","OBJECTID":661729},"geometry":{"x":197075,"y":2555591.9999999981}},{"attributes":{"ID":661757,"DIS_CODE":0,"TOWNNAME":"玉井區","LI":"三埔里","LIN":"7鄰","STREET":" ","SECT":" ","MAREA":"三埔","LANE":" ","ALLEY":" ","HOUSE_NO":"９號","E_COORD97":197110,"N_COORD97":2555592,"ADDRESS":"三埔９號","OBJECTID":661730},"geometry":{"x":197110.00000000093,"y":2555591.9999999981}},{"attributes":{"ID":661758,"DIS_CODE":0,"TOWNNAME":"玉井區","LI":"三埔里","LIN":"7鄰","STREET":" ","SECT":" ","MAREA":"三埔","LANE":" ","ALLEY":" ","HOUSE_NO":"２０號","E_COORD97":197121,"N_COORD97":2555455,"ADDRESS":"三埔２０號","OBJECTID":661731},"geometry":{"x":197121,"y":2555455}},{"attributes":{"ID":661759,"DIS_CODE":0,"TOWNNAME":"玉井區","LI":"三埔里","LIN":"7鄰","STREET":" ","SECT":" ","MAREA":"三埔","LANE":" ","ALLEY":" ","HOUSE_NO":"３４之１號","E_COORD97":197017,"N_COORD97":2555456,"ADDRESS":"三埔３４之１號","OBJECTID":661732},"geometry":{"x":197017.00000000093,"y":2555456}},{"attributes":{"ID":661760,"DIS_CODE":0,"TOWNNAME":"玉井區","LI":"三埔里","LIN":"7鄰","STREET":" ","SECT":" ","MAREA":"三埔","LANE":" ","ALLEY":" ","HOUSE_NO":"３５之１號","E_COORD97":196932,"N_COORD97":2555416,"ADDRESS":"三埔３５之１號","OBJECTID":661733},"geometry":{"x":196932.00000000093,"y":2555416.0000000037}},{"attributes":{"ID":661761,"DIS_CODE":0,"TOWNNAME":"玉井區","LI":"三埔里","LIN":"7鄰","STREET":" ","SECT":" ","MAREA":"三埔","LANE":" ","ALLEY":" ","HOUSE_NO":"３６之１號","E_COORD97":196923,"N_COORD97":2555400,"ADDRESS":"三埔３６之１號","OBJECTID":661734},"geometry":{"x":196923.00000000186,"y":2555400.0000000019}},{"attributes":{"ID":661762,"DIS_CODE":0,"TOWNNAME":"玉井區","LI":"三埔里","LIN":"7鄰","STREET":" ","SECT":" ","MAREA":"三埔","LANE":" ","ALLEY":" ","HOUSE_NO":"３６之２號","E_COORD97":196929,"N_COORD97":2555375,"ADDRESS":"三埔３６之２號","OBJECTID":661735},"geometry":{"x":196929,"y":2555374.9999999981}},{"attributes":{"ID":661763,"DIS_CODE":0,"TOWNNAME":"玉井區","LI":"三埔里","LIN":"7鄰","STREET":" ","SECT":" ","MAREA":"三埔","LANE":" ","ALLEY":" ","HOUSE_NO":"３７之２號","E_COORD97":197390,"N_COORD97":2554654,"ADDRESS":"三埔３７之２號","OBJECTID":661736},"geometry":{"x":197390.00000000093,"y":2554654.0000000019}},{"attributes":{"ID":661764,"DIS_CODE":0,"TOWNNAME":"玉井區","LI":"三埔里","LIN":"7鄰","STREET":" ","SECT":" ","MAREA":"三埔","LANE":" ","ALLEY":" ","HOUSE_NO":"４７號","E_COORD97":196705,"N_COORD97":2554524,"ADDRESS":"三埔４７號","OBJECTID":661737},"geometry":{"x":196705.00000000093,"y":2554523.9999999981}},{"attributes":{"ID":661765,"DIS_CODE":0,"TOWNNAME":"玉井區","LI":"三埔里","LIN":"6鄰","STREET":" ","SECT":" ","MAREA":"三埔","LANE":" ","ALLEY":" ","HOUSE_NO":"６６號","E_COORD97":196658,"N_COORD97":2554200,"ADDRESS":"三埔６６號","OBJECTID":661738},"geometry":{"x":196658,"y":2554200.0000000019}},{"attributes":{"ID":661766,"DIS_CODE":0,"TOWNNAME":"玉井區","LI":"玉井里","LIN":"1鄰","STREET":"中正路","SECT":" ","MAREA":" ","LANE":"２１巷","ALLEY":" ","HOUSE_NO":"１號","E_COORD97":194641.51183500001,"N_COORD97":2558046.0478099999,"ADDRESS":"中正路２１巷１號","OBJECTID":661739},"geometry":{"x":194641.51183499955,"y":2558046.0478090011}},{"attributes":{"ID":661767,"DIS_CODE":0,"TOWNNAME":"玉井區","LI":"三埔里","LIN":"6鄰","STREET":" ","SECT":" ","MAREA":"三埔","LANE":" ","ALLEY":" ","HOUSE_NO":"６９號","E_COORD97":196560,"N_COORD97":2554247,"ADDRESS":"三埔６９號","OBJECTID":661740},"geometry":{"x":196560,"y":2554247.0000000019}},{"attributes":{"ID":661768,"DIS_CODE":0,"TOWNNAME":"玉井區","LI":"玉井里","LIN":"1鄰","STREET":"中正路","SECT":" ","MAREA":" ","LANE":"２１巷","ALLEY":"２２弄","HOUSE_NO":"２號","E_COORD97":194669.902069,"N_COORD97":2558036.0994799999,"ADDRESS":"中正路２１巷２２弄２號","OBJECTID":661741},"geometry":{"x":194669.90206900053,"y":2558036.0994809996}},{"attributes":{"ID":661769,"DIS_CODE":0,"TOWNNAME":"玉井區","LI":"三埔里","LIN":"7鄰","STREET":" ","SECT":" ","MAREA":"三埔","LANE":" ","ALLEY":" ","HOUSE_NO":"７８之１號","E_COORD97":197876,"N_COORD97":2554851,"ADDRESS":"三埔７８之１號","OBJECTID":661742},"geometry":{"x":197876.00000000093,"y":2554851.0000000019}},{"attributes":{"ID":661770,"DIS_CODE":0,"TOWNNAME":"玉井區","LI":"三埔里","LIN":"7鄰","STREET":" ","SECT":" ","MAREA":"三埔","LANE":" ","ALLEY":" ","HOUSE_NO":"８３之１號","E_COORD97":198037,"N_COORD97":2554759,"ADDRESS":"三埔８３之１號","OBJECTID":661743},"geometry":{"x":198037.00000000093,"y":2554759.0000000019}},{"attributes":{"ID":661771,"DIS_CODE":0,"TOWNNAME":"玉井區","LI":"三埔里","LIN":"7鄰","STREET":" ","SECT":" ","MAREA":"三埔","LANE":" ","ALLEY":" ","HOUSE_NO":"１００之２號","E_COORD97":198816,"N_COORD97":2555116,"ADDRESS":"三埔１００之２號","OBJECTID":661744},"geometry":{"x":198816,"y":2555116}},{"attributes":{"ID":661772,"DIS_CODE":0,"TOWNNAME":"玉井區","LI":"三埔里","LIN":"8鄰","STREET":" ","SECT":" ","MAREA":"三埔","LANE":" ","ALLEY":" ","HOUSE_NO":"８８號","E_COORD97":198989,"N_COORD97":2554767,"ADDRESS":"三埔８８號","OBJECTID":661745},"geometry":{"x":198989,"y":2554767}},{"attributes":{"ID":661773,"DIS_CODE":0,"TOWNNAME":"玉井區","LI":"三埔里","LIN":"8鄰","STREET":" ","SECT":" ","MAREA":"三埔","LANE":" ","ALLEY":" ","HOUSE_NO":"８８號","E_COORD97":198487,"N_COORD97":2554767,"ADDRESS":"三埔８８號","OBJECTID":661746},"geometry":{"x":198487,"y":2554767}},{"attributes":{"ID":661774,"DIS_CODE":0,"TOWNNAME":"玉井區","LI":"三埔里","LIN":"8鄰","STREET":" ","SECT":" ","MAREA":"三埔","LANE":" ","ALLEY":" ","HOUSE_NO":"８９號","E_COORD97":198483,"N_COORD97":2554758,"ADDRESS":"三埔８９號","OBJECTID":661747},"geometry":{"x":198483.00000000093,"y":2554757.9999999981}},{"attributes":{"ID":661775,"DIS_CODE":0,"TOWNNAME":"玉井區","LI":"三埔里","LIN":"8鄰","STREET":" ","SECT":" ","MAREA":"三埔","LANE":" ","ALLEY":" ","HOUSE_NO":"９６號","E_COORD97":198641,"N_COORD97":2555468,"ADDRESS":"三埔９６號","OBJECTID":661748},"geometry":{"x":198641.00000000093,"y":2555468.0000000019}},{"attributes":{"ID":661776,"DIS_CODE":0,"TOWNNAME":"玉井區","LI":"三埔里","LIN":"8鄰","STREET":" ","SECT":" ","MAREA":"三埔","LANE":" ","ALLEY":" ","HOUSE_NO":"１１５號","E_COORD97":199064,"N_COORD97":2555215,"ADDRESS":"三埔１１５號","OBJECTID":661749},"geometry":{"x":199064.00000000186,"y":2555215}},{"attributes":{"ID":661777,"DIS_CODE":0,"TOWNNAME":"玉井區","LI":"三埔里","LIN":"8鄰","STREET":" ","SECT":" ","MAREA":"三埔","LANE":" ","ALLEY":" ","HOUSE_NO":"９６之１０號","E_COORD97":199166,"N_COORD97":2555529,"ADDRESS":"三埔９６之１０號","OBJECTID":661750},"geometry":{"x":199166.00000000093,"y":2555529.0000000019}},{"attributes":{"ID":661778,"DIS_CODE":0,"TOWNNAME":"安定區","LI":"新吉里","LIN":"18鄰","STREET":" ","SECT":" ","MAREA":"新吉","LANE":" ","ALLEY":" ","HOUSE_NO":"２８１之１２號","E_COORD97":168950.98447299999,"N_COORD97":2554377.0714699998,"ADDRESS":"新吉２８１之１２號","OBJECTID":661751},"geometry":{"x":168950.98447300121,"y":2554377.0714690015}},{"attributes":{"ID":661779,"DIS_CODE":0,"TOWNNAME":"玉井區","LI":"三埔里","LIN":"8鄰","STREET":" ","SECT":" ","MAREA":"三埔","LANE":" ","ALLEY":" ","HOUSE_NO":"９６之１０號","E_COORD97":199166,"N_COORD97":2555529,"ADDRESS":"三埔９６之１０號","OBJECTID":661752},"geometry":{"x":199166.00000000093,"y":2555529.0000000019}},{"attributes":{"ID":661780,"DIS_CODE":0,"TOWNNAME":"玉井區","LI":"三埔里","LIN":"12鄰","STREET":" ","SECT":" ","MAREA":"三埔","LANE":" ","ALLEY":" ","HOUSE_NO":"１５７號","E_COORD97":199147,"N_COORD97":2555286,"ADDRESS":"三埔１５７號","OBJECTID":661753},"geometry":{"x":199146.99999999907,"y":2555286}},{"attributes":{"ID":661781,"DIS_CODE":0,"TOWNNAME":"玉井區","LI":"三埔里","LIN":"13鄰","STREET":" ","SECT":" ","MAREA":"三埔","LANE":" ","ALLEY":" ","HOUSE_NO":"１之７號","E_COORD97":196889,"N_COORD97":2555689,"ADDRESS":"三埔１之７號","OBJECTID":661754},"geometry":{"x":196888.99999999907,"y":2555689}},{"attributes":{"ID":661782,"DIS_CODE":0,"TOWNNAME":"玉井區","LI":"三埔里","LIN":"3鄰","STREET":" ","SECT":" ","MAREA":"三埔","LANE":" ","ALLEY":" ","HOUSE_NO":"３２之２號","E_COORD97":197068,"N_COORD97":255404,"ADDRESS":"三埔３２之２號","OBJECTID":661755},"geometry":{"x":197068,"y":255404.00000000186}},{"attributes":{"ID":661783,"DIS_CODE":0,"TOWNNAME":"玉井區","LI":"三埔里","LIN":"3鄰","STREET":" ","SECT":" ","MAREA":"三埔","LANE":" ","ALLEY":" ","HOUSE_NO":"３２之２號","E_COORD97":197094,"N_COORD97":2555415,"ADDRESS":"三埔３２之２號","OBJECTID":661756},"geometry":{"x":197094,"y":2555415}},{"attributes":{"ID":661784,"DIS_CODE":0,"TOWNNAME":"玉井區","LI":"三埔里","LIN":"5鄰","STREET":" ","SECT":" ","MAREA":"三埔","LANE":" ","ALLEY":" ","HOUSE_NO":"４６之２號","E_COORD97":196707,"N_COORD97":2554586,"ADDRESS":"三埔４６之２號","OBJECTID":661757},"geometry":{"x":196707,"y":2554586.0000000019}},{"attributes":{"ID":661785,"DIS_CODE":0,"TOWNNAME":"安定區","LI":"港南里","LIN":"3鄰","STREET":" ","SECT":" ","MAREA":"港口","LANE":" ","ALLEY":" ","HOUSE_NO":"３４之５號","E_COORD97":171488.44143499999,"N_COORD97":2554195.7526099999,"ADDRESS":"港口３４之５號","OBJECTID":661758},"geometry":{"x":171488.44143499993,"y":2554195.7526090015}},{"attributes":{"ID":661786,"DIS_CODE":0,"TOWNNAME":"玉井區","LI":"三埔里","LIN":"5鄰","STREET":" ","SECT":" ","MAREA":"三埔","LANE":" ","ALLEY":" ","HOUSE_NO":"１５６號","E_COORD97":199135,"N_COORD97":2555282,"ADDRESS":"三埔１５６號","OBJECTID":661759},"geometry":{"x":199135,"y":2555282}},{"attributes":{"ID":661787,"DIS_CODE":0,"TOWNNAME":"玉井區","LI":"三埔里","LIN":"5鄰","STREET":" ","SECT":" ","MAREA":"三埔","LANE":" ","ALLEY":" ","HOUSE_NO":"１５５號","E_COORD97":199130,"N_COORD97":2555289,"ADDRESS":"三埔１５５號","OBJECTID":661760},"geometry":{"x":199130,"y":2555289}},{"attributes":{"ID":661788,"DIS_CODE":0,"TOWNNAME":"玉井區","LI":"玉井里","LIN":"17鄰","STREET":"民主街","SECT":" ","MAREA":" ","LANE":" ","ALLEY":" ","HOUSE_NO":"４４號","E_COORD97":194900.83755699999,"N_COORD97":2558049.7519700001,"ADDRESS":"民主街４４號","OBJECTID":661761},"geometry":{"x":194900.83755700104,"y":2558049.7519739997}},{"attributes":{"ID":661789,"DIS_CODE":0,"TOWNNAME":"玉井區","LI":"玉井里","LIN":"19鄰","STREET":"太子街","SECT":" ","MAREA":" ","LANE":"４４巷","ALLEY":" ","HOUSE_NO":"１１號","E_COORD97":194816.72619099999,"N_COORD97":2558068.0611299998,"ADDRESS":"太子街４４巷１１號","OBJECTID":661762},"geometry":{"x":194816.72619100008,"y":2558068.0611310005}},{"attributes":{"ID":661790,"DIS_CODE":0,"TOWNNAME":"玉井區","LI":"中正里","LIN":"11鄰","STREET":" ","SECT":" ","MAREA":"中正","LANE":" ","ALLEY":" ","HOUSE_NO":"１２０之１０號","E_COORD97":195374,"N_COORD97":2560466,"ADDRESS":"中正１２０之１０號","OBJECTID":661763},"geometry":{"x":195374.00000000093,"y":2560466}},{"attributes":{"ID":661791,"DIS_CODE":0,"TOWNNAME":"玉井區","LI":"玉井里","LIN":"20鄰","STREET":"太子街","SECT":" ","MAREA":" ","LANE":" ","ALLEY":" ","HOUSE_NO":"４９號","E_COORD97":194784.098608,"N_COORD97":2558025.6219899999,"ADDRESS":"太子街４９號","OBJECTID":661764},"geometry":{"x":194784.09860800207,"y":2558025.6219870001}},{"attributes":{"ID":661792,"DIS_CODE":0,"TOWNNAME":"玉井區","LI":"中正里","LIN":"11鄰","STREET":" ","SECT":" ","MAREA":"中正","LANE":" ","ALLEY":" ","HOUSE_NO":"１２３之６號","E_COORD97":195050,"N_COORD97":2560424,"ADDRESS":"中正１２３之６號","OBJECTID":661765},"geometry":{"x":195050.00000000093,"y":2560424.0000000019}},{"attributes":{"ID":661793,"DIS_CODE":0,"TOWNNAME":"玉井區","LI":"中正里","LIN":"11鄰","STREET":"健康街","SECT":" ","MAREA":" ","LANE":" ","ALLEY":" ","HOUSE_NO":"１７３號","E_COORD97":195384,"N_COORD97":2558845,"ADDRESS":"健康街１７３號","OBJECTID":661766},"geometry":{"x":195384.00000000093,"y":2558845.0000000019}},{"attributes":{"ID":661794,"DIS_CODE":0,"TOWNNAME":"安定區","LI":"新吉里","LIN":"18鄰","STREET":" ","SECT":" ","MAREA":"新吉","LANE":" ","ALLEY":" ","HOUSE_NO":"２８６之３號","E_COORD97":167662.497496,"N_COORD97":2554047.10977,"ADDRESS":"新吉２８６之３號","OBJECTID":661767},"geometry":{"x":167662.49749599956,"y":2554047.1097730007}},{"attributes":{"ID":661795,"DIS_CODE":0,"TOWNNAME":"安定區","LI":"新吉里","LIN":"18鄰","STREET":" ","SECT":" ","MAREA":"新吉","LANE":" ","ALLEY":" ","HOUSE_NO":"２８６之１號","E_COORD97":167669.70166600001,"N_COORD97":2554073.5680900002,"ADDRESS":"新吉２８６之１號","OBJECTID":661768},"geometry":{"x":167669.70166600123,"y":2554073.5680919997}},{"attributes":{"ID":661796,"DIS_CODE":0,"TOWNNAME":"安定區","LI":"中沙里","LIN":"2鄰","STREET":" ","SECT":" ","MAREA":"中崙","LANE":" ","ALLEY":" ","HOUSE_NO":"９０之１０號","E_COORD97":168096.25925900001,"N_COORD97":2552531.6007599998,"ADDRESS":"中崙９０之１０號","OBJECTID":661769},"geometry":{"x":168096.25925900135,"y":2552531.6007640027}},{"attributes":{"ID":661797,"DIS_CODE":0,"TOWNNAME":"安定區","LI":"南安里","LIN":"5鄰","STREET":" ","SECT":" ","MAREA":"油車","LANE":" ","ALLEY":" ","HOUSE_NO":"６２之８號","E_COORD97":170083.126942,"N_COORD97":2555259.3476200001,"ADDRESS":"油車６２之８號","OBJECTID":661770},"geometry":{"x":170083.12694200035,"y":2555259.3476240039}},{"attributes":{"ID":661798,"DIS_CODE":0,"TOWNNAME":"安定區","LI":"南安里","LIN":"5鄰","STREET":" ","SECT":" ","MAREA":"油車","LANE":" ","ALLEY":" ","HOUSE_NO":"６２之６號","E_COORD97":170445.90565599999,"N_COORD97":2555471.2742400002,"ADDRESS":"油車６２之６號","OBJECTID":661771},"geometry":{"x":170445.90565599967,"y":2555471.2742379997}},{"attributes":{"ID":661799,"DIS_CODE":0,"TOWNNAME":"安定區","LI":"南安里","LIN":"5鄰","STREET":" ","SECT":" ","MAREA":"油車","LANE":" ","ALLEY":" ","HOUSE_NO":"６２之５號","E_COORD97":170393.15988399999,"N_COORD97":2555478.4709000001,"ADDRESS":"油車６２之５號","OBJECTID":661772},"geometry":{"x":170393.15988400113,"y":2555478.4708999991}},{"attributes":{"ID":661800,"DIS_CODE":0,"TOWNNAME":"安定區","LI":"安加里","LIN":"2鄰","STREET":" ","SECT":" ","MAREA":"安定","LANE":" ","ALLEY":" ","HOUSE_NO":"１６３之３號","E_COORD97":171948.73086499999,"N_COORD97":2557591.2735100002,"ADDRESS":"安定１６３之３號","OBJECTID":661773},"geometry":{"x":171948.73086500075,"y":2557591.2735089976}},{"attributes":{"ID":661801,"DIS_CODE":0,"TOWNNAME":"安定區","LI":"港南里","LIN":"1鄰","STREET":" ","SECT":" ","MAREA":"港口","LANE":" ","ALLEY":" ","HOUSE_NO":"１之９０號","E_COORD97":171154.259246,"N_COORD97":2553993.8946199999,"ADDRESS":"港口１之９０號","OBJECTID":661774},"geometry":{"x":171154.25924600102,"y":2553993.8946189992}},{"attributes":{"ID":661802,"DIS_CODE":0,"TOWNNAME":"安定區","LI":"海寮里","LIN":"3鄰","STREET":" ","SECT":" ","MAREA":"海寮","LANE":" ","ALLEY":" ","HOUSE_NO":"３０之１９號","E_COORD97":169771.906173,"N_COORD97":2555231.6147799999,"ADDRESS":"海寮３０之１９號","OBJECTID":661775},"geometry":{"x":169771.90617299918,"y":2555231.6147840004}},{"attributes":{"ID":661803,"DIS_CODE":0,"TOWNNAME":"安定區","LI":"南安里","LIN":"5鄰","STREET":" ","SECT":" ","MAREA":"油車","LANE":" ","ALLEY":" ","HOUSE_NO":"６２之９號","E_COORD97":170450.79324299999,"N_COORD97":2555211.0831300002,"ADDRESS":"油車６２之９號","OBJECTID":661776},"geometry":{"x":170450.79324300028,"y":2555211.0831280015}},{"attributes":{"ID":661804,"DIS_CODE":0,"TOWNNAME":"安定區","LI":"管寮里","LIN":"3鄰","STREET":" ","SECT":" ","MAREA":"管寮","LANE":" ","ALLEY":" ","HOUSE_NO":"３０之６號","E_COORD97":170004.05545700001,"N_COORD97":2554799.8279800001,"ADDRESS":"管寮３０之６號","OBJECTID":661777},"geometry":{"x":170004.05545699969,"y":2554799.827982001}},{"attributes":{"ID":661805,"DIS_CODE":0,"TOWNNAME":"安定區","LI":"中沙里","LIN":"4鄰","STREET":" ","SECT":" ","MAREA":"中崙","LANE":" ","ALLEY":" ","HOUSE_NO":"１３１之５號","E_COORD97":169119.74360099999,"N_COORD97":2553189.7069799998,"ADDRESS":"中崙１３１之５號","OBJECTID":661778},"geometry":{"x":169119.74360100087,"y":2553189.7069760039}},{"attributes":{"ID":661806,"DIS_CODE":0,"TOWNNAME":"安定區","LI":"大同里","LIN":"10鄰","STREET":" ","SECT":" ","MAREA":"大同","LANE":" ","ALLEY":" ","HOUSE_NO":"１１５之１１號","E_COORD97":170096.332398,"N_COORD97":2554095.3223199998,"ADDRESS":"大同１１５之１１號","OBJECTID":661779},"geometry":{"x":170096.33239800017,"y":2554095.3223210014}},{"attributes":{"ID":661807,"DIS_CODE":0,"TOWNNAME":"玉井區","LI":"玉井里","LIN":"17鄰","STREET":"民主街","SECT":" ","MAREA":" ","LANE":"２巷","ALLEY":" ","HOUSE_NO":"３號","E_COORD97":194829.80908000001,"N_COORD97":2558052.9269699999,"ADDRESS":"民主街２巷３號","OBJECTID":661780},"geometry":{"x":194829.80908000097,"y":2558052.9269719999}},{"attributes":{"ID":661808,"DIS_CODE":0,"TOWNNAME":"玉井區","LI":"玉井里","LIN":"17鄰","STREET":"民主街","SECT":" ","MAREA":" ","LANE":"２巷","ALLEY":" ","HOUSE_NO":"２號","E_COORD97":194827.478538,"N_COORD97":2558053.7736399998,"ADDRESS":"民主街２巷２號","OBJECTID":661781},"geometry":{"x":194827.47853800096,"y":2558053.773639001}},{"attributes":{"ID":661809,"DIS_CODE":0,"TOWNNAME":"玉井區","LI":"玉井里","LIN":"17鄰","STREET":"民主街","SECT":" ","MAREA":" ","LANE":"２巷","ALLEY":" ","HOUSE_NO":"１號","E_COORD97":194825.359864,"N_COORD97":2558054.6203000001,"ADDRESS":"民主街２巷１號","OBJECTID":661782},"geometry":{"x":194825.35986400023,"y":2558054.6203050017}},{"attributes":{"ID":661810,"DIS_CODE":0,"TOWNNAME":"後壁區","LI":"後壁里","LIN":"3鄰","STREET":" ","SECT":" ","MAREA":"後壁","LANE":" ","ALLEY":" ","HOUSE_NO":"４２號之６０","E_COORD97":184246.653272,"N_COORD97":2584322.9704399998,"ADDRESS":"後壁４２號之６０","OBJECTID":661783},"geometry":{"x":184246.65327200107,"y":2584322.970435001}},{"attributes":{"ID":661811,"DIS_CODE":0,"TOWNNAME":"玉井區","LI":"中正里","LIN":"11鄰","STREET":" ","SECT":" ","MAREA":"中正","LANE":" ","ALLEY":" ","HOUSE_NO":"１１４號","E_COORD97":194865,"N_COORD97":2560525,"ADDRESS":"中正１１４號","OBJECTID":661784},"geometry":{"x":194864.99999999907,"y":2560524.9999999981}},{"attributes":{"ID":661812,"DIS_CODE":0,"TOWNNAME":"下營區","LI":"新興里","LIN":"19鄰","STREET":"中華街","SECT":" ","MAREA":" ","LANE":" ","ALLEY":" ","HOUSE_NO":"１１５號","E_COORD97":175093.28828499999,"N_COORD97":2570650.8449599999,"ADDRESS":"中華街１１５號","OBJECTID":661785},"geometry":{"x":175093.28828500118,"y":2570650.8449639995}},{"attributes":{"ID":661813,"DIS_CODE":0,"TOWNNAME":"下營區","LI":"新興里","LIN":"19鄰","STREET":"中華街","SECT":" ","MAREA":" ","LANE":" ","ALLEY":" ","HOUSE_NO":"１１３號","E_COORD97":175092.652562,"N_COORD97":2570646.1883,"ADDRESS":"中華街１１３號","OBJECTID":661786},"geometry":{"x":175092.65256199986,"y":2570646.1883000024}},{"attributes":{"ID":661814,"DIS_CODE":0,"TOWNNAME":"新化區","LI":"全興里","LIN":"2鄰","STREET":" ","SECT":" ","MAREA":"竹子\u25A0","LANE":" ","ALLEY":" ","HOUSE_NO":"２００號之６６（農業","E_COORD97":178235.57148000001,"N_COORD97":2547477.9708400001,"ADDRESS":"竹子\u25A0２００號之６６（農業資料室）","OBJECTID":661787},"geometry":{"x":178235.57148000039,"y":2547477.9708399996}},{"attributes":{"ID":661815,"DIS_CODE":0,"TOWNNAME":"下營區","LI":"新興里","LIN":"19鄰","STREET":"中華街","SECT":" ","MAREA":" ","LANE":" ","ALLEY":" ","HOUSE_NO":"１１１號","E_COORD97":175092.01683899999,"N_COORD97":2570642.3783,"ADDRESS":"中華街１１１號","OBJECTID":661788},"geometry":{"x":175092.01683900133,"y":2570642.3783019986}},{"attributes":{"ID":661816,"DIS_CODE":0,"TOWNNAME":"下營區","LI":"新興里","LIN":"19鄰","STREET":"中華街","SECT":" ","MAREA":" ","LANE":" ","ALLEY":" ","HOUSE_NO":"１０９號","E_COORD97":175091.593024,"N_COORD97":2570638.77997,"ADDRESS":"中華街１０９號","OBJECTID":661789},"geometry":{"x":175091.59302399959,"y":2570638.7799700014}},{"attributes":{"ID":661817,"DIS_CODE":0,"TOWNNAME":"下營區","LI":"新興里","LIN":"19鄰","STREET":"中華街","SECT":" ","MAREA":" ","LANE":" ","ALLEY":" ","HOUSE_NO":"１０７號","E_COORD97":175091.16920900001,"N_COORD97":2570633.2766399998,"ADDRESS":"中華街１０７號","OBJECTID":661790},"geometry":{"x":175091.16920900065,"y":2570633.2766399998}},{"attributes":{"ID":661818,"DIS_CODE":0,"TOWNNAME":"新化區","LI":"全興里","LIN":"2鄰","STREET":" ","SECT":" ","MAREA":"竹子\u25A0","LANE":" ","ALLEY":" ","HOUSE_NO":"２００號之５０（農業","E_COORD97":178128.04157999999,"N_COORD97":2547548.4954300001,"ADDRESS":"竹子\u25A0２００號之５０（農業資料室）","OBJECTID":661791},"geometry":{"x":178128.04158000089,"y":2547548.495430002}},{"attributes":{"ID":661819,"DIS_CODE":0,"TOWNNAME":"下營區","LI":"新興里","LIN":"19鄰","STREET":"中華街","SECT":" ","MAREA":" ","LANE":" ","ALLEY":" ","HOUSE_NO":"１０５號","E_COORD97":175089.89776399999,"N_COORD97":2570628.1966400002,"ADDRESS":"中華街１０５號","OBJECTID":661792},"geometry":{"x":175089.89776400011,"y":2570628.1966430005}},{"attributes":{"ID":661820,"DIS_CODE":0,"TOWNNAME":"下營區","LI":"新興里","LIN":"19鄰","STREET":"中華街","SECT":" ","MAREA":" ","LANE":" ","ALLEY":" ","HOUSE_NO":"１０３號","E_COORD97":175089.05013399999,"N_COORD97":2570623.5399799999,"ADDRESS":"中華街１０３號","OBJECTID":661793},"geometry":{"x":175089.0501340013,"y":2570623.5399789996}},{"attributes":{"ID":661821,"DIS_CODE":0,"TOWNNAME":"下營區","LI":"新興里","LIN":"19鄰","STREET":"中華街","SECT":" ","MAREA":" ","LANE":" ","ALLEY":" ","HOUSE_NO":"１０１號","E_COORD97":175088.20250399999,"N_COORD97":2570618.8833099999,"ADDRESS":"中華街１０１號","OBJECTID":661794},"geometry":{"x":175088.20250400063,"y":2570618.8833139986}},{"attributes":{"ID":661822,"DIS_CODE":0,"TOWNNAME":"新化區","LI":"全興里","LIN":"11鄰","STREET":" ","SECT":" ","MAREA":"竹子\u25A0","LANE":" ","ALLEY":" ","HOUSE_NO":"２５６號之１０","E_COORD97":178782.25905399999,"N_COORD97":2547336.4032899998,"ADDRESS":"竹子\u25A0２５６號之１０","OBJECTID":661795},"geometry":{"x":178782.25905400049,"y":2547336.4032910019}},{"attributes":{"ID":661823,"DIS_CODE":0,"TOWNNAME":"新化區","LI":"全興里","LIN":"11鄰","STREET":" ","SECT":" ","MAREA":"竹子\u25A0","LANE":" ","ALLEY":" ","HOUSE_NO":"２４９號之９","E_COORD97":178599.679592,"N_COORD97":2547083.07974,"ADDRESS":"竹子\u25A0２４９號之９","OBJECTID":661796},"geometry":{"x":178599.67959200032,"y":2547083.079744}},{"attributes":{"ID":661824,"DIS_CODE":0,"TOWNNAME":"新化區","LI":"全興里","LIN":"11鄰","STREET":" ","SECT":" ","MAREA":"竹子\u25A0","LANE":" ","ALLEY":" ","HOUSE_NO":"２４９號之１１","E_COORD97":178596.503126,"N_COORD97":2547120.3330600001,"ADDRESS":"竹子\u25A0２４９號之１１","OBJECTID":661797},"geometry":{"x":178596.50312600005,"y":2547120.3330570012}},{"attributes":{"ID":661825,"DIS_CODE":0,"TOWNNAME":"後壁區","LI":"後壁里","LIN":"4鄰","STREET":" ","SECT":" ","MAREA":"後壁","LANE":" ","ALLEY":" ","HOUSE_NO":"９５號之２５","E_COORD97":184702.01590100001,"N_COORD97":2585108.5832199999,"ADDRESS":"後壁９５號之２５","OBJECTID":661798},"geometry":{"x":184702.0159010021,"y":2585108.5832209997}},{"attributes":{"ID":661826,"DIS_CODE":0,"TOWNNAME":"安定區","LI":"安定里","LIN":"9鄰","STREET":" ","SECT":" ","MAREA":"安定","LANE":" ","ALLEY":" ","HOUSE_NO":"７７之１號","E_COORD97":171815.24737900001,"N_COORD97":2557796.0953199998,"ADDRESS":"安定７７之１號","OBJECTID":661799},"geometry":{"x":171815.24737900123,"y":2557796.0953210015}},{"attributes":{"ID":661827,"DIS_CODE":0,"TOWNNAME":"下營區","LI":"紅厝里","LIN":"9鄰","STREET":" ","SECT":" ","MAREA":"紅毛厝","LANE":" ","ALLEY":" ","HOUSE_NO":"６３號之３","E_COORD97":174973.89311999999,"N_COORD97":2571883.0499700001,"ADDRESS":"紅毛厝６３號之３","OBJECTID":661800},"geometry":{"x":174973.89312000014,"y":2571883.0499660019}}]}