{"displayFieldName":"TOWNNAME","fieldAliases":{"ID":"ID","DIS_CODE":"DIS_CODE","TOWNNAME":"TOWNNAME","LI":"LI","LIN":"LIN","STREET":"STREET","SECT":"SECT","MAREA":"MAREA","LANE":"LANE","ALLEY":"ALLEY","HOUSE_NO":"HOUSE_NO","E_COORD97":"E_COORD97","N_COORD97":"N_COORD97","ADDRESS":"ADDRESS","OBJECTID":"OBJECTID"},"geometryType":"esriGeometryPoint","spatialReference":{"wkid":102443,"latestWkid":3826},"fields":[{"name":"ID","type":"esriFieldTypeDouble","alias":"ID"},{"name":"DIS_CODE","type":"esriFieldTypeInteger","alias":"DIS_CODE"},{"name":"TOWNNAME","type":"esriFieldTypeString","alias":"TOWNNAME","length":8},{"name":"LI","type":"esriFieldTypeString","alias":"LI","length":8},{"name":"LIN","type":"esriFieldTypeString","alias":"LIN","length":12},{"name":"STREET","type":"esriFieldTypeString","alias":"STREET","length":20},{"name":"SECT","type":"esriFieldTypeString","alias":"SECT","length":8},{"name":"MAREA","type":"esriFieldTypeString","alias":"MAREA","length":12},{"name":"LANE","type":"esriFieldTypeString","alias":"LANE","length":10},{"name":"ALLEY","type":"esriFieldTypeString","alias":"ALLEY","length":10},{"name":"HOUSE_NO","type":"esriFieldTypeString","alias":"HOUSE_NO","length":20},{"name":"E_COORD97","type":"esriFieldTypeDouble","alias":"E_COORD97"},{"name":"N_COORD97","type":"esriFieldTypeDouble","alias":"N_COORD97"},{"name":"ADDRESS","type":"esriFieldTypeString","alias":"ADDRESS","length":50},{"name":"OBJECTID","type":"esriFieldTypeOID","alias":"OBJECTID"}],"features":[{"attributes":{"ID":488826,"DIS_CODE":0,"TOWNNAME":"安南區","LI":"新順里","LIN":"13鄰","STREET":"永安路","SECT":" ","MAREA":" ","LANE":" ","ALLEY":" ","HOUSE_NO":"５３號","E_COORD97":170183.85999999999,"N_COORD97":2549465.1699999999,"ADDRESS":"永安路５３號","OBJECTID":488801},"geometry":{"x":170183.86000000034,"y":2549465.1700000018}},{"attributes":{"ID":488827,"DIS_CODE":0,"TOWNNAME":"佳里區","LI":"鎮山里","LIN":"13鄰","STREET":"安南路","SECT":" ","MAREA":" ","LANE":" ","ALLEY":" ","HOUSE_NO":"４９號","E_COORD97":165989.60000000001,"N_COORD97":2561318.1600000001,"ADDRESS":"安南路４９號","OBJECTID":488802},"geometry":{"x":165989.59999999963,"y":2561318.160000002}},{"attributes":{"ID":488828,"DIS_CODE":0,"TOWNNAME":"佳里區","LI":"鎮山里","LIN":"13鄰","STREET":"安南路","SECT":" ","MAREA":" ","LANE":" ","ALLEY":" ","HOUSE_NO":"４１號","E_COORD97":166005.73999999999,"N_COORD97":2561317.4399999999,"ADDRESS":"安南路４１號","OBJECTID":488803},"geometry":{"x":166005.74000000022,"y":2561317.4399999995}},{"attributes":{"ID":488829,"DIS_CODE":0,"TOWNNAME":"佳里區","LI":"鎮山里","LIN":"13鄰","STREET":"安南路","SECT":" ","MAREA":" ","LANE":" ","ALLEY":" ","HOUSE_NO":"４３號","E_COORD97":166001.42000000001,"N_COORD97":2561317.7200000002,"ADDRESS":"安南路４３號","OBJECTID":488804},"geometry":{"x":166001.41999999899,"y":2561317.7200000044}},{"attributes":{"ID":488830,"DIS_CODE":0,"TOWNNAME":"佳里區","LI":"建南里","LIN":"13鄰","STREET":"安南路","SECT":" ","MAREA":" ","LANE":" ","ALLEY":" ","HOUSE_NO":"４５２號","E_COORD97":165171.42999999999,"N_COORD97":2561774.6600000001,"ADDRESS":"安南路４５２號","OBJECTID":488805},"geometry":{"x":165171.43000000063,"y":2561774.6600000001}},{"attributes":{"ID":488831,"DIS_CODE":0,"TOWNNAME":"佳里區","LI":"建南里","LIN":"13鄰","STREET":"安南路","SECT":" ","MAREA":" ","LANE":" ","ALLEY":" ","HOUSE_NO":"４５６號","E_COORD97":165170.76999999999,"N_COORD97":2561779.1600000001,"ADDRESS":"安南路４５６號","OBJECTID":488806},"geometry":{"x":165170.76999999955,"y":2561779.160000002}},{"attributes":{"ID":488832,"DIS_CODE":0,"TOWNNAME":"佳里區","LI":"建南里","LIN":"13鄰","STREET":"安南路","SECT":" ","MAREA":" ","LANE":" ","ALLEY":" ","HOUSE_NO":"４５８號","E_COORD97":165170.26999999999,"N_COORD97":2561783.4199999999,"ADDRESS":"安南路４５８號","OBJECTID":488807},"geometry":{"x":165170.27000000048,"y":2561783.4200000037}},{"attributes":{"ID":488833,"DIS_CODE":0,"TOWNNAME":"佳里區","LI":"鎮山里","LIN":"13鄰","STREET":"安南路","SECT":" ","MAREA":" ","LANE":" ","ALLEY":" ","HOUSE_NO":"４５號","E_COORD97":165997.85000000001,"N_COORD97":2561317.4100000001,"ADDRESS":"安南路４５號","OBJECTID":488808},"geometry":{"x":165997.84999999963,"y":2561317.410000002}},{"attributes":{"ID":488834,"DIS_CODE":0,"TOWNNAME":"佳里區","LI":"建南里","LIN":"13鄰","STREET":"安南路","SECT":" ","MAREA":" ","LANE":" ","ALLEY":" ","HOUSE_NO":"４６０號","E_COORD97":165169.35999999999,"N_COORD97":2561787.9700000002,"ADDRESS":"安南路４６０號","OBJECTID":488809},"geometry":{"x":165169.36000000034,"y":2561787.9700000025}},{"attributes":{"ID":488835,"DIS_CODE":0,"TOWNNAME":"佳里區","LI":"建南里","LIN":"13鄰","STREET":"安南路","SECT":" ","MAREA":" ","LANE":" ","ALLEY":" ","HOUSE_NO":"４６２號","E_COORD97":165168.70999999999,"N_COORD97":2561792.4199999999,"ADDRESS":"安南路４６２號","OBJECTID":488810},"geometry":{"x":165168.70999999996,"y":2561792.4199999999}},{"attributes":{"ID":488836,"DIS_CODE":0,"TOWNNAME":"佳里區","LI":"建南里","LIN":"13鄰","STREET":"安南路","SECT":" ","MAREA":" ","LANE":" ","ALLEY":" ","HOUSE_NO":"４６６號","E_COORD97":165168.10999999999,"N_COORD97":2561796.7200000002,"ADDRESS":"安南路４６６號","OBJECTID":488811},"geometry":{"x":165168.11000000034,"y":2561796.7200000025}},{"attributes":{"ID":488837,"DIS_CODE":0,"TOWNNAME":"佳里區","LI":"建南里","LIN":"13鄰","STREET":"安南路","SECT":" ","MAREA":" ","LANE":" ","ALLEY":" ","HOUSE_NO":"４６８號","E_COORD97":165167.67000000001,"N_COORD97":2561801.1099999999,"ADDRESS":"安南路４６８號","OBJECTID":488812},"geometry":{"x":165167.67000000086,"y":2561801.1099999994}},{"attributes":{"ID":488838,"DIS_CODE":0,"TOWNNAME":"佳里區","LI":"建南里","LIN":"13鄰","STREET":"安南路","SECT":" ","MAREA":" ","LANE":" ","ALLEY":" ","HOUSE_NO":"４７０號","E_COORD97":165167.01999999999,"N_COORD97":2561805.3799999999,"ADDRESS":"安南路４７０號","OBJECTID":488813},"geometry":{"x":165167.02000000048,"y":2561805.379999999}},{"attributes":{"ID":488839,"DIS_CODE":0,"TOWNNAME":"佳里區","LI":"建南里","LIN":"13鄰","STREET":"安南路","SECT":" ","MAREA":" ","LANE":" ","ALLEY":" ","HOUSE_NO":"４７２號","E_COORD97":165166.35999999999,"N_COORD97":2561810.54,"ADDRESS":"安南路４７２號","OBJECTID":488814},"geometry":{"x":165166.36000000034,"y":2561810.540000001}},{"attributes":{"ID":488840,"DIS_CODE":0,"TOWNNAME":"佳里區","LI":"建南里","LIN":"13鄰","STREET":"安南路","SECT":" ","MAREA":" ","LANE":" ","ALLEY":" ","HOUSE_NO":"４７６號","E_COORD97":165165.82000000001,"N_COORD97":2561814.4300000002,"ADDRESS":"安南路４７６號","OBJECTID":488815},"geometry":{"x":165165.82000000123,"y":2561814.4300000016}},{"attributes":{"ID":488841,"DIS_CODE":0,"TOWNNAME":"佳里區","LI":"建南里","LIN":"13鄰","STREET":"安南路","SECT":" ","MAREA":" ","LANE":" ","ALLEY":" ","HOUSE_NO":"４７８號","E_COORD97":165166.42000000001,"N_COORD97":2561820.6200000001,"ADDRESS":"安南路４７８號","OBJECTID":488816},"geometry":{"x":165166.42000000086,"y":2561820.6200000048}},{"attributes":{"ID":488842,"DIS_CODE":0,"TOWNNAME":"佳里區","LI":"鎮山里","LIN":"13鄰","STREET":"安南路","SECT":" ","MAREA":" ","LANE":" ","ALLEY":" ","HOUSE_NO":"４７號","E_COORD97":165993.89999999999,"N_COORD97":2561317.5499999998,"ADDRESS":"安南路４７號","OBJECTID":488817},"geometry":{"x":165993.9000000013,"y":2561317.5500000007}},{"attributes":{"ID":488843,"DIS_CODE":0,"TOWNNAME":"佳里區","LI":"建南里","LIN":"13鄰","STREET":"安南路","SECT":" ","MAREA":" ","LANE":" ","ALLEY":" ","HOUSE_NO":"４８０號","E_COORD97":165165.59,"N_COORD97":2561828.8900000001,"ADDRESS":"安南路４８０號","OBJECTID":488818},"geometry":{"x":165165.58999999985,"y":2561828.8900000025}},{"attributes":{"ID":488844,"DIS_CODE":0,"TOWNNAME":"佳里區","LI":"鎮山里","LIN":"13鄰","STREET":"安南路","SECT":" ","MAREA":" ","LANE":" ","ALLEY":" ","HOUSE_NO":"５１號","E_COORD97":165985.72,"N_COORD97":2561317.8399999999,"ADDRESS":"安南路５１號","OBJECTID":488819},"geometry":{"x":165985.7200000016,"y":2561317.8399999999}},{"attributes":{"ID":488845,"DIS_CODE":0,"TOWNNAME":"佳里區","LI":"建南里","LIN":"13鄰","STREET":"安南路","SECT":" ","MAREA":" ","LANE":" ","ALLEY":" ","HOUSE_NO":"５２３號","E_COORD97":165080.84,"N_COORD97":2562015.77,"ADDRESS":"安南路５２３號","OBJECTID":488820},"geometry":{"x":165080.83999999985,"y":2562015.7700000014}},{"attributes":{"ID":488846,"DIS_CODE":0,"TOWNNAME":"佳里區","LI":"鎮山里","LIN":"13鄰","STREET":"安南路","SECT":" ","MAREA":" ","LANE":" ","ALLEY":" ","HOUSE_NO":"５３號","E_COORD97":165981.59,"N_COORD97":2561318.0299999998,"ADDRESS":"安南路５３號","OBJECTID":488821},"geometry":{"x":165981.58999999892,"y":2561318.0300000012}},{"attributes":{"ID":488847,"DIS_CODE":0,"TOWNNAME":"新營區","LI":"中營里","LIN":"15鄰","STREET":"開元路","SECT":" ","MAREA":" ","LANE":" ","ALLEY":" ","HOUSE_NO":"８６號之４","E_COORD97":181533.57000000001,"N_COORD97":2579300.9500000002,"ADDRESS":"開元路８６號之４","OBJECTID":488822},"geometry":{"x":181533.5700000003,"y":2579300.950000003}},{"attributes":{"ID":488848,"DIS_CODE":0,"TOWNNAME":"新營區","LI":"延平里","LIN":"5鄰","STREET":"長春街","SECT":" ","MAREA":" ","LANE":" ","ALLEY":" ","HOUSE_NO":"３２號","E_COORD97":179722.34875,"N_COORD97":2577903.1302700001,"ADDRESS":"長春街３２號","OBJECTID":488823},"geometry":{"x":179722.34874999896,"y":2577903.1302729994}},{"attributes":{"ID":488849,"DIS_CODE":0,"TOWNNAME":"佳里區","LI":"建南里","LIN":"13鄰","STREET":"安南路","SECT":" ","MAREA":" ","LANE":" ","ALLEY":" ","HOUSE_NO":"５５０號","E_COORD97":165147.76000000001,"N_COORD97":2561979.04,"ADDRESS":"安南路５５０號","OBJECTID":488824},"geometry":{"x":165147.75999999978,"y":2561979.040000001}},{"attributes":{"ID":488850,"DIS_CODE":0,"TOWNNAME":"佳里區","LI":"建南里","LIN":"13鄰","STREET":"安南路","SECT":" ","MAREA":" ","LANE":" ","ALLEY":" ","HOUSE_NO":"５５２號之１","E_COORD97":165145.23999999999,"N_COORD97":2561988.48,"ADDRESS":"安南路５５２號之１","OBJECTID":488825},"geometry":{"x":165145.23999999929,"y":2561988.4800000023}},{"attributes":{"ID":488851,"DIS_CODE":0,"TOWNNAME":"佳里區","LI":"建南里","LIN":"13鄰","STREET":"安南路","SECT":" ","MAREA":" ","LANE":" ","ALLEY":" ","HOUSE_NO":"５５２號","E_COORD97":165147.45999999999,"N_COORD97":2561984.1600000001,"ADDRESS":"安南路５５２號","OBJECTID":488826},"geometry":{"x":165147.46000000089,"y":2561984.1600000001}},{"attributes":{"ID":488852,"DIS_CODE":0,"TOWNNAME":"佳里區","LI":"建南里","LIN":"13鄰","STREET":"安南路","SECT":" ","MAREA":" ","LANE":" ","ALLEY":" ","HOUSE_NO":"５５６號","E_COORD97":165146.17000000001,"N_COORD97":2561993.3500000001,"ADDRESS":"安南路５５６號","OBJECTID":488827},"geometry":{"x":165146.17000000086,"y":2561993.3499999996}},{"attributes":{"ID":488853,"DIS_CODE":0,"TOWNNAME":"佳里區","LI":"建南里","LIN":"13鄰","STREET":"安南路","SECT":" ","MAREA":" ","LANE":" ","ALLEY":" ","HOUSE_NO":"５５８號","E_COORD97":165145.53,"N_COORD97":2561999.3999999999,"ADDRESS":"安南路５５８號","OBJECTID":488828},"geometry":{"x":165145.53000000119,"y":2561999.4000000022}},{"attributes":{"ID":488854,"DIS_CODE":0,"TOWNNAME":"佳里區","LI":"鎮山里","LIN":"13鄰","STREET":"安南路","SECT":" ","MAREA":" ","LANE":" ","ALLEY":" ","HOUSE_NO":"５５號","E_COORD97":165977.35000000001,"N_COORD97":2561317.98,"ADDRESS":"安南路５５號","OBJECTID":488829},"geometry":{"x":165977.34999999963,"y":2561317.9800000004}},{"attributes":{"ID":488855,"DIS_CODE":0,"TOWNNAME":"佳里區","LI":"建南里","LIN":"13鄰","STREET":"安南路","SECT":" ","MAREA":" ","LANE":" ","ALLEY":" ","HOUSE_NO":"５６０號","E_COORD97":165142.26999999999,"N_COORD97":2562017.3999999999,"ADDRESS":"安南路５６０號","OBJECTID":488830},"geometry":{"x":165142.26999999955,"y":2562017.4000000004}},{"attributes":{"ID":488856,"DIS_CODE":0,"TOWNNAME":"佳里區","LI":"建南里","LIN":"13鄰","STREET":"安南路","SECT":" ","MAREA":" ","LANE":" ","ALLEY":" ","HOUSE_NO":"５６２號","E_COORD97":165140.79000000001,"N_COORD97":2562027.2999999998,"ADDRESS":"安南路５６２號","OBJECTID":488831},"geometry":{"x":165140.79000000004,"y":2562027.3000000026}},{"attributes":{"ID":488857,"DIS_CODE":0,"TOWNNAME":"佳里區","LI":"建南里","LIN":"13鄰","STREET":"安南路","SECT":" ","MAREA":" ","LANE":" ","ALLEY":" ","HOUSE_NO":"５６４號","E_COORD97":165140,"N_COORD97":2562033.1699999999,"ADDRESS":"安南路５６４號","OBJECTID":488832},"geometry":{"x":165140.00000000186,"y":2562033.1700000018}},{"attributes":{"ID":488858,"DIS_CODE":0,"TOWNNAME":"佳里區","LI":"建南里","LIN":"13鄰","STREET":"安南路","SECT":" ","MAREA":" ","LANE":" ","ALLEY":" ","HOUSE_NO":"５６６號","E_COORD97":165139.67999999999,"N_COORD97":2562038.9700000002,"ADDRESS":"安南路５６６號","OBJECTID":488833},"geometry":{"x":165139.6799999997,"y":2562038.9700000025}},{"attributes":{"ID":488859,"DIS_CODE":0,"TOWNNAME":"佳里區","LI":"建南里","LIN":"13鄰","STREET":"安南路","SECT":" ","MAREA":" ","LANE":" ","ALLEY":" ","HOUSE_NO":"５７８號","E_COORD97":165139.10000000001,"N_COORD97":2562057.8500000001,"ADDRESS":"安南路５７８號","OBJECTID":488834},"geometry":{"x":165139.10000000056,"y":2562057.8499999996}},{"attributes":{"ID":488860,"DIS_CODE":0,"TOWNNAME":"佳里區","LI":"鎮山里","LIN":"13鄰","STREET":"安南路","SECT":" ","MAREA":" ","LANE":" ","ALLEY":" ","HOUSE_NO":"５７號","E_COORD97":165973.47,"N_COORD97":2561317.96,"ADDRESS":"安南路５７號","OBJECTID":488835},"geometry":{"x":165973.46999999974,"y":2561317.9600000028}},{"attributes":{"ID":488861,"DIS_CODE":0,"TOWNNAME":"佳里區","LI":"建南里","LIN":"13鄰","STREET":"安南路","SECT":" ","MAREA":" ","LANE":" ","ALLEY":" ","HOUSE_NO":"５８０號","E_COORD97":165138.28,"N_COORD97":2562065.8300000001,"ADDRESS":"安南路５８０號","OBJECTID":488836},"geometry":{"x":165138.28000000212,"y":2562065.8300000038}},{"attributes":{"ID":488862,"DIS_CODE":0,"TOWNNAME":"佳里區","LI":"建南里","LIN":"13鄰","STREET":"安南路","SECT":" ","MAREA":" ","LANE":" ","ALLEY":" ","HOUSE_NO":"５９０號","E_COORD97":165133.97,"N_COORD97":2562090.6200000001,"ADDRESS":"安南路５９０號","OBJECTID":488837},"geometry":{"x":165133.96999999974,"y":2562090.620000001}},{"attributes":{"ID":488863,"DIS_CODE":0,"TOWNNAME":"佳里區","LI":"建南里","LIN":"13鄰","STREET":"安南路","SECT":" ","MAREA":" ","LANE":" ","ALLEY":" ","HOUSE_NO":"５９２號","E_COORD97":165133.13,"N_COORD97":2562096.1299999999,"ADDRESS":"安南路５９２號","OBJECTID":488838},"geometry":{"x":165133.12999999989,"y":2562096.1299999971}},{"attributes":{"ID":488864,"DIS_CODE":0,"TOWNNAME":"佳里區","LI":"建南里","LIN":"13鄰","STREET":"安南路","SECT":" ","MAREA":" ","LANE":" ","ALLEY":" ","HOUSE_NO":"５９４號","E_COORD97":165132.67999999999,"N_COORD97":2562100.54,"ADDRESS":"安南路５９４號","OBJECTID":488839},"geometry":{"x":165132.6799999997,"y":2562100.5400000028}},{"attributes":{"ID":488865,"DIS_CODE":0,"TOWNNAME":"佳里區","LI":"建南里","LIN":"13鄰","STREET":"安南路","SECT":" ","MAREA":" ","LANE":" ","ALLEY":" ","HOUSE_NO":"５９６號","E_COORD97":165134.60000000001,"N_COORD97":2562105.0899999999,"ADDRESS":"安南路５９６號","OBJECTID":488840},"geometry":{"x":165134.60000000056,"y":2562105.0900000017}},{"attributes":{"ID":488866,"DIS_CODE":0,"TOWNNAME":"新營區","LI":"好平里","LIN":"6鄰","STREET":"和平路","SECT":" ","MAREA":" ","LANE":" ","ALLEY":" ","HOUSE_NO":"５５號之２","E_COORD97":179425.59,"N_COORD97":2577738.27,"ADDRESS":"和平路５５號之２","OBJECTID":488841},"geometry":{"x":179425.58999999985,"y":2577738.2699999996}},{"attributes":{"ID":488867,"DIS_CODE":0,"TOWNNAME":"新營區","LI":"民權里","LIN":" ","STREET":"三民路","SECT":" ","MAREA":" ","LANE":" ","ALLEY":" ","HOUSE_NO":"９１之４號","E_COORD97":179732.63,"N_COORD97":2578431.1800000002,"ADDRESS":"三民路９１之４號","OBJECTID":488842},"geometry":{"x":179732.62999999989,"y":2578431.1799999997}},{"attributes":{"ID":488868,"DIS_CODE":0,"TOWNNAME":"新營區","LI":"新東里","LIN":"12鄰","STREET":"東大街","SECT":" ","MAREA":" ","LANE":" ","ALLEY":" ","HOUSE_NO":"６２號","E_COORD97":181018.34,"N_COORD97":2579173.71,"ADDRESS":"東大街６２號","OBJECTID":488843},"geometry":{"x":181018.34000000078,"y":2579173.7100000009}},{"attributes":{"ID":488869,"DIS_CODE":0,"TOWNNAME":"佳里區","LI":"建南里","LIN":"13鄰","STREET":"安南路","SECT":" ","MAREA":" ","LANE":" ","ALLEY":" ","HOUSE_NO":"５９８號","E_COORD97":165134.23000000001,"N_COORD97":2562109.8999999999,"ADDRESS":"安南路５９８號","OBJECTID":488844},"geometry":{"x":165134.23000000138,"y":2562109.9000000022}},{"attributes":{"ID":488870,"DIS_CODE":0,"TOWNNAME":"佳里區","LI":"鎮山里","LIN":"13鄰","STREET":"安南路","SECT":" ","MAREA":" ","LANE":" ","ALLEY":" ","HOUSE_NO":"５９號","E_COORD97":165969.45000000001,"N_COORD97":2561317.5699999998,"ADDRESS":"安南路５９號","OBJECTID":488845},"geometry":{"x":165969.45000000205,"y":2561317.5700000003}},{"attributes":{"ID":488871,"DIS_CODE":0,"TOWNNAME":"佳里區","LI":"建南里","LIN":"13鄰","STREET":"安南路","SECT":" ","MAREA":" ","LANE":" ","ALLEY":" ","HOUSE_NO":"６００號","E_COORD97":165133.73999999999,"N_COORD97":2562114.6000000001,"ADDRESS":"安南路６００號","OBJECTID":488846},"geometry":{"x":165133.74000000115,"y":2562114.6000000015}},{"attributes":{"ID":488872,"DIS_CODE":0,"TOWNNAME":"佳里區","LI":"建南里","LIN":"13鄰","STREET":"安南路","SECT":" ","MAREA":" ","LANE":" ","ALLEY":" ","HOUSE_NO":"６０２號","E_COORD97":165133.20000000001,"N_COORD97":2562119.04,"ADDRESS":"安南路６０２號","OBJECTID":488847},"geometry":{"x":165133.20000000019,"y":2562119.040000001}},{"attributes":{"ID":488873,"DIS_CODE":0,"TOWNNAME":"佳里區","LI":"鎮山里","LIN":"13鄰","STREET":"安南路","SECT":" ","MAREA":" ","LANE":" ","ALLEY":" ","HOUSE_NO":"６１號","E_COORD97":165965.26000000001,"N_COORD97":2561317.8700000001,"ADDRESS":"安南路６１號","OBJECTID":488848},"geometry":{"x":165965.26000000164,"y":2561317.8700000029}},{"attributes":{"ID":488874,"DIS_CODE":0,"TOWNNAME":"佳里區","LI":"鎮山里","LIN":"13鄰","STREET":"安南路","SECT":" ","MAREA":" ","LANE":" ","ALLEY":" ","HOUSE_NO":"６３號","E_COORD97":165961.57000000001,"N_COORD97":2561317.3900000001,"ADDRESS":"安南路６３號","OBJECTID":488849},"geometry":{"x":165961.5700000003,"y":2561317.3900000025}},{"attributes":{"ID":488875,"DIS_CODE":0,"TOWNNAME":"佳里區","LI":"鎮山里","LIN":"13鄰","STREET":"安南路","SECT":" ","MAREA":" ","LANE":" ","ALLEY":" ","HOUSE_NO":"６５號","E_COORD97":165957.62,"N_COORD97":2561317.8700000001,"ADDRESS":"安南路６５號","OBJECTID":488850},"geometry":{"x":165957.62000000011,"y":2561317.8700000029}},{"attributes":{"ID":488876,"DIS_CODE":0,"TOWNNAME":"佳里區","LI":"鎮山里","LIN":"13鄰","STREET":"安南路","SECT":" ","MAREA":" ","LANE":" ","ALLEY":" ","HOUSE_NO":"６７號","E_COORD97":165953.64999999999,"N_COORD97":2561318.2400000002,"ADDRESS":"安南路６７號","OBJECTID":488851},"geometry":{"x":165953.6500000013,"y":2561318.2400000021}},{"attributes":{"ID":488877,"DIS_CODE":0,"TOWNNAME":"佳里區","LI":"鎮山里","LIN":"13鄰","STREET":"安南路","SECT":" ","MAREA":" ","LANE":" ","ALLEY":" ","HOUSE_NO":"６９號","E_COORD97":165949.51999999999,"N_COORD97":2561318.3500000001,"ADDRESS":"安南路６９號","OBJECTID":488852},"geometry":{"x":165949.51999999862,"y":2561318.3499999996}},{"attributes":{"ID":488878,"DIS_CODE":0,"TOWNNAME":"佳里區","LI":"鎮山里","LIN":"13鄰","STREET":"安南路","SECT":" ","MAREA":" ","LANE":" ","ALLEY":" ","HOUSE_NO":"７１號","E_COORD97":165945.31,"N_COORD97":2561318.2200000002,"ADDRESS":"安南路７１號","OBJECTID":488853},"geometry":{"x":165945.30999999959,"y":2561318.2200000025}},{"attributes":{"ID":488879,"DIS_CODE":0,"TOWNNAME":"佳里區","LI":"鎮山里","LIN":"13鄰","STREET":"安南路","SECT":" ","MAREA":" ","LANE":" ","ALLEY":" ","HOUSE_NO":"７３號","E_COORD97":165941.59,"N_COORD97":2561318.3900000001,"ADDRESS":"安南路７３號","OBJECTID":488854},"geometry":{"x":165941.59000000078,"y":2561318.3900000006}},{"attributes":{"ID":488880,"DIS_CODE":0,"TOWNNAME":"安南區","LI":"淵東里","LIN":"13鄰","STREET":"本原街","SECT":"三段","MAREA":" ","LANE":" ","ALLEY":" ","HOUSE_NO":"２２號","E_COORD97":165734.07999999999,"N_COORD97":2550430.8500000001,"ADDRESS":"本原街三段２２號","OBJECTID":488855},"geometry":{"x":165734.08000000007,"y":2550430.8500000015}},{"attributes":{"ID":488881,"DIS_CODE":0,"TOWNNAME":"安南區","LI":"安慶里","LIN":"13鄰","STREET":"安和路","SECT":"二段","MAREA":" ","LANE":" ","ALLEY":" ","HOUSE_NO":"２７之１號","E_COORD97":169418.70000000001,"N_COORD97":2548575.8799999999,"ADDRESS":"安和路二段２７之１號","OBJECTID":488856},"geometry":{"x":169418.70000000019,"y":2548575.879999999}},{"attributes":{"ID":488882,"DIS_CODE":0,"TOWNNAME":"安南區","LI":"理想里","LIN":"13鄰","STREET":"海佃路","SECT":"二段","MAREA":" ","LANE":" ","ALLEY":" ","HOUSE_NO":"７０號","E_COORD97":167022.39000000001,"N_COORD97":2547976.2200000002,"ADDRESS":"海佃路二段７０號","OBJECTID":488857},"geometry":{"x":167022.3900000006,"y":2547976.2200000007}},{"attributes":{"ID":488883,"DIS_CODE":0,"TOWNNAME":"安南區","LI":"理想里","LIN":"13鄰","STREET":"海佃路","SECT":"二段","MAREA":" ","LANE":" ","ALLEY":" ","HOUSE_NO":"７２號","E_COORD97":167020.98999999999,"N_COORD97":2547981.1699999999,"ADDRESS":"海佃路二段７２號","OBJECTID":488858},"geometry":{"x":167020.99000000115,"y":2547981.1700000018}},{"attributes":{"ID":488884,"DIS_CODE":0,"TOWNNAME":"安南區","LI":"安慶里","LIN":"13鄰","STREET":"安和路","SECT":"二段","MAREA":" ","LANE":" ","ALLEY":" ","HOUSE_NO":"８３號","E_COORD97":169489.63,"N_COORD97":2548746.1299999999,"ADDRESS":"安和路二段８３號","OBJECTID":488859},"geometry":{"x":169489.62999999989,"y":2548746.1300000008}},{"attributes":{"ID":488885,"DIS_CODE":0,"TOWNNAME":"安南區","LI":"安慶里","LIN":"13鄰","STREET":"安和路","SECT":"二段","MAREA":" ","LANE":" ","ALLEY":" ","HOUSE_NO":"８１號","E_COORD97":169488.26999999999,"N_COORD97":2548741.5600000001,"ADDRESS":"安和路二段８１號","OBJECTID":488860},"geometry":{"x":169488.27000000048,"y":2548741.5600000024}},{"attributes":{"ID":488886,"DIS_CODE":0,"TOWNNAME":"安南區","LI":"安慶里","LIN":"13鄰","STREET":"安和路","SECT":"二段","MAREA":" ","LANE":" ","ALLEY":" ","HOUSE_NO":"４１之２號","E_COORD97":169427.48000000001,"N_COORD97":2548607.4500000002,"ADDRESS":"安和路二段４１之２號","OBJECTID":488861},"geometry":{"x":169427.48000000045,"y":2548607.4499999974}},{"attributes":{"ID":488887,"DIS_CODE":0,"TOWNNAME":"新營區","LI":"新南里","LIN":"4鄰","STREET":"新北三街","SECT":" ","MAREA":" ","LANE":" ","ALLEY":" ","HOUSE_NO":"３０號","E_COORD97":178599.78,"N_COORD97":2578813.0699999998,"ADDRESS":"新北三街３０號","OBJECTID":488862},"geometry":{"x":178599.78000000212,"y":2578813.0700000022}},{"attributes":{"ID":488888,"DIS_CODE":0,"TOWNNAME":"新營區","LI":"忠政里","LIN":"25鄰","STREET":"府西路","SECT":" ","MAREA":" ","LANE":" ","ALLEY":" ","HOUSE_NO":"１１５之５號","E_COORD97":179800.32000000001,"N_COORD97":2579280.2799999998,"ADDRESS":"府西路１１５之５號","OBJECTID":488863},"geometry":{"x":179800.32000000123,"y":2579280.2799999993}},{"attributes":{"ID":488889,"DIS_CODE":0,"TOWNNAME":"安南區","LI":"佃西里","LIN":"13鄰","STREET":"海佃路","SECT":"四段","MAREA":" ","LANE":" ","ALLEY":" ","HOUSE_NO":"４６９之１６號","E_COORD97":165333.85000000001,"N_COORD97":2551419.5800000001,"ADDRESS":"海佃路四段４６９之１６號","OBJECTID":488864},"geometry":{"x":165333.85000000149,"y":2551419.5800000019}},{"attributes":{"ID":488890,"DIS_CODE":0,"TOWNNAME":"安南區","LI":"安慶里","LIN":"13鄰","STREET":"培安路","SECT":" ","MAREA":" ","LANE":" ","ALLEY":" ","HOUSE_NO":"５０２號","E_COORD97":169377.29000000001,"N_COORD97":2548552.96,"ADDRESS":"培安路５０２號","OBJECTID":488865},"geometry":{"x":169377.29000000004,"y":2548552.9600000028}},{"attributes":{"ID":488891,"DIS_CODE":0,"TOWNNAME":"安南區","LI":"溪心里","LIN":"13鄰","STREET":"海中街","SECT":" ","MAREA":" ","LANE":" ","ALLEY":" ","HOUSE_NO":"３５２號","E_COORD97":166021.51999999999,"N_COORD97":2549518.0800000001,"ADDRESS":"海中街３５２號","OBJECTID":488866},"geometry":{"x":166021.52000000048,"y":2549518.0800000001}},{"attributes":{"ID":488892,"DIS_CODE":0,"TOWNNAME":"安南區","LI":"新順里","LIN":"13鄰","STREET":"開安一街","SECT":" ","MAREA":" ","LANE":" ","ALLEY":" ","HOUSE_NO":"１０號","E_COORD97":170470.60999999999,"N_COORD97":2549672.4900000002,"ADDRESS":"開安一街１０號","OBJECTID":488867},"geometry":{"x":170470.61000000034,"y":2549672.4900000002}},{"attributes":{"ID":488893,"DIS_CODE":0,"TOWNNAME":"東區","LI":"東門里","LIN":"13鄰","STREET":"東門路","SECT":"一段","MAREA":" ","LANE":" ","ALLEY":" ","HOUSE_NO":"２０３號","E_COORD97":169645.63,"N_COORD97":2543120.1499999999,"ADDRESS":"東門路一段２０３號","OBJECTID":488868},"geometry":{"x":169645.62999999989,"y":2543120.1500000004}},{"attributes":{"ID":488894,"DIS_CODE":0,"TOWNNAME":"東區","LI":"東門里","LIN":"13鄰","STREET":"東門路","SECT":"一段","MAREA":" ","LANE":" ","ALLEY":" ","HOUSE_NO":"２０３號之１","E_COORD97":169653.72,"N_COORD97":2543136.3500000001,"ADDRESS":"東門路一段２０３號之１","OBJECTID":488869},"geometry":{"x":169653.71999999974,"y":2543136.3499999978}},{"attributes":{"ID":488895,"DIS_CODE":0,"TOWNNAME":"東區","LI":"東門里","LIN":"13鄰","STREET":"東門路","SECT":"一段","MAREA":" ","LANE":" ","ALLEY":" ","HOUSE_NO":"２０３號之２","E_COORD97":169657.98999999999,"N_COORD97":2543134,"ADDRESS":"東門路一段２０３號之２","OBJECTID":488870},"geometry":{"x":169657.99000000209,"y":2543134.0000000019}},{"attributes":{"ID":488896,"DIS_CODE":0,"TOWNNAME":"東區","LI":"東門里","LIN":"13鄰","STREET":"東門路","SECT":"一段","MAREA":" ","LANE":" ","ALLEY":" ","HOUSE_NO":"２０５號","E_COORD97":169650.97,"N_COORD97":2543117.6699999999,"ADDRESS":"東門路一段２０５號","OBJECTID":488871},"geometry":{"x":169650.97000000067,"y":2543117.6700000037}},{"attributes":{"ID":488897,"DIS_CODE":0,"TOWNNAME":"東區","LI":"東門里","LIN":"13鄰","STREET":"東門路","SECT":"一段","MAREA":" ","LANE":" ","ALLEY":" ","HOUSE_NO":"２０７號","E_COORD97":169655.04999999999,"N_COORD97":2543116.02,"ADDRESS":"東門路一段２０７號","OBJECTID":488872},"geometry":{"x":169655.04999999981,"y":2543116.0200000014}},{"attributes":{"ID":488898,"DIS_CODE":0,"TOWNNAME":"東區","LI":"東門里","LIN":"13鄰","STREET":"東門路","SECT":"一段","MAREA":" ","LANE":" ","ALLEY":" ","HOUSE_NO":"２０９號","E_COORD97":169660.72,"N_COORD97":2543114.1699999999,"ADDRESS":"東門路一段２０９號","OBJECTID":488873},"geometry":{"x":169660.71999999974,"y":2543114.1699999981}},{"attributes":{"ID":488899,"DIS_CODE":0,"TOWNNAME":"新營區","LI":"南興里","LIN":"5鄰","STREET":"建業路","SECT":" ","MAREA":" ","LANE":" ","ALLEY":" ","HOUSE_NO":"５４號","E_COORD97":179478.45999999999,"N_COORD97":2577554.1200000001,"ADDRESS":"建業路５４號","OBJECTID":488874},"geometry":{"x":179478.46000000089,"y":2577554.120000001}},{"attributes":{"ID":488900,"DIS_CODE":0,"TOWNNAME":"新營區","LI":"南興里","LIN":"26鄰","STREET":"建業路","SECT":" ","MAREA":" ","LANE":" ","ALLEY":" ","HOUSE_NO":"６６之２號","E_COORD97":179391.79000000001,"N_COORD97":2577518.0499999998,"ADDRESS":"建業路６６之２號","OBJECTID":488875},"geometry":{"x":179391.79000000097,"y":2577518.0499999989}},{"attributes":{"ID":488901,"DIS_CODE":0,"TOWNNAME":"東區","LI":"東門里","LIN":"13鄰","STREET":"東門路","SECT":"一段","MAREA":" ","LANE":" ","ALLEY":" ","HOUSE_NO":"２１３號","E_COORD97":169668.75,"N_COORD97":2543113.2200000002,"ADDRESS":"東門路一段２１３號","OBJECTID":488876},"geometry":{"x":169668.75,"y":2543113.2200000007}},{"attributes":{"ID":488902,"DIS_CODE":0,"TOWNNAME":"東區","LI":"東門里","LIN":"13鄰","STREET":"東門路","SECT":"一段","MAREA":" ","LANE":" ","ALLEY":" ","HOUSE_NO":"２１５號","E_COORD97":169673.72,"N_COORD97":2543112.8300000001,"ADDRESS":"東門路一段２１５號","OBJECTID":488877},"geometry":{"x":169673.71999999974,"y":2543112.8300000001}},{"attributes":{"ID":488903,"DIS_CODE":0,"TOWNNAME":"東區","LI":"東門里","LIN":"13鄰","STREET":"東門路","SECT":"一段","MAREA":" ","LANE":" ","ALLEY":" ","HOUSE_NO":"２１７號","E_COORD97":169677.09,"N_COORD97":2543108.3799999999,"ADDRESS":"東門路一段２１７號","OBJECTID":488878},"geometry":{"x":169677.08999999892,"y":2543108.3799999971}},{"attributes":{"ID":488904,"DIS_CODE":0,"TOWNNAME":"東區","LI":"東門里","LIN":"13鄰","STREET":"東門路","SECT":"一段","MAREA":" ","LANE":" ","ALLEY":" ","HOUSE_NO":"２１９號","E_COORD97":169683.39999999999,"N_COORD97":2543106.1499999999,"ADDRESS":"東門路一段２１９號","OBJECTID":488879},"geometry":{"x":169683.40000000037,"y":2543106.1500000022}},{"attributes":{"ID":488905,"DIS_CODE":0,"TOWNNAME":"東區","LI":"東門里","LIN":"13鄰","STREET":"東門路","SECT":"一段","MAREA":" ","LANE":" ","ALLEY":" ","HOUSE_NO":"２２１號","E_COORD97":169687.16,"N_COORD97":2543103.5299999998,"ADDRESS":"東門路一段２２１號","OBJECTID":488880},"geometry":{"x":169687.16000000201,"y":2543103.5299999993}},{"attributes":{"ID":488906,"DIS_CODE":0,"TOWNNAME":"東區","LI":"東門里","LIN":"13鄰","STREET":"東門路","SECT":"一段","MAREA":" ","LANE":" ","ALLEY":" ","HOUSE_NO":"２２３號","E_COORD97":169692.82999999999,"N_COORD97":2543102.0699999998,"ADDRESS":"東門路一段２２３號","OBJECTID":488881},"geometry":{"x":169692.83000000194,"y":2543102.070000004}},{"attributes":{"ID":488907,"DIS_CODE":0,"TOWNNAME":"東區","LI":"東門里","LIN":"13鄰","STREET":"東門路","SECT":"一段","MAREA":" ","LANE":" ","ALLEY":" ","HOUSE_NO":"２２５號","E_COORD97":169703.78,"N_COORD97":2543098.7599999998,"ADDRESS":"東門路一段２２５號","OBJECTID":488882},"geometry":{"x":169703.78000000119,"y":2543098.7599999998}},{"attributes":{"ID":488908,"DIS_CODE":0,"TOWNNAME":"東區","LI":"東門里","LIN":"13鄰","STREET":"東門路","SECT":"一段","MAREA":" ","LANE":" ","ALLEY":" ","HOUSE_NO":"２２７號","E_COORD97":169708.12,"N_COORD97":2543098.4900000002,"ADDRESS":"東門路一段２２７號","OBJECTID":488883},"geometry":{"x":169708.12000000104,"y":2543098.4900000002}},{"attributes":{"ID":488909,"DIS_CODE":0,"TOWNNAME":"東區","LI":"東門里","LIN":"13鄰","STREET":"東門路","SECT":"一段","MAREA":" ","LANE":" ","ALLEY":" ","HOUSE_NO":"２３１號","E_COORD97":169720.23000000001,"N_COORD97":2543103.0699999998,"ADDRESS":"東門路一段２３１號","OBJECTID":488884},"geometry":{"x":169720.23000000045,"y":2543103.0700000022}},{"attributes":{"ID":488910,"DIS_CODE":0,"TOWNNAME":"東區","LI":"東門里","LIN":"13鄰","STREET":"東門路","SECT":"一段","MAREA":" ","LANE":" ","ALLEY":" ","HOUSE_NO":"２３７號","E_COORD97":169736.66,"N_COORD97":2543105.8500000001,"ADDRESS":"東門路一段２３７號","OBJECTID":488885},"geometry":{"x":169736.66000000108,"y":2543105.8499999978}},{"attributes":{"ID":488911,"DIS_CODE":0,"TOWNNAME":"東區","LI":"東門里","LIN":"13鄰","STREET":"東門路","SECT":"一段","MAREA":" ","LANE":" ","ALLEY":" ","HOUSE_NO":"２３９號","E_COORD97":169742.54999999999,"N_COORD97":2543105.7999999998,"ADDRESS":"東門路一段２３９號","OBJECTID":488886},"geometry":{"x":169742.55000000075,"y":2543105.8000000026}},{"attributes":{"ID":488912,"DIS_CODE":0,"TOWNNAME":"東區","LI":"東門里","LIN":"13鄰","STREET":"東門路","SECT":"一段","MAREA":" ","LANE":" ","ALLEY":" ","HOUSE_NO":"２４１號","E_COORD97":169747.85999999999,"N_COORD97":2543105.0600000001,"ADDRESS":"東門路一段２４１號","OBJECTID":488887},"geometry":{"x":169747.86000000127,"y":2543105.0600000005}},{"attributes":{"ID":488913,"DIS_CODE":0,"TOWNNAME":"東區","LI":"泉南里","LIN":"13鄰","STREET":"光華街","SECT":" ","MAREA":" ","LANE":" ","ALLEY":" ","HOUSE_NO":"２４１號","E_COORD97":169473.85000000001,"N_COORD97":2543045.5299999998,"ADDRESS":"光華街２４１號","OBJECTID":488888},"geometry":{"x":169473.85000000056,"y":2543045.5299999993}},{"attributes":{"ID":488914,"DIS_CODE":0,"TOWNNAME":"東區","LI":"泉南里","LIN":"13鄰","STREET":"光華街","SECT":" ","MAREA":" ","LANE":" ","ALLEY":" ","HOUSE_NO":"２４３號","E_COORD97":169466.54000000001,"N_COORD97":2543046.3999999999,"ADDRESS":"光華街２４３號","OBJECTID":488889},"geometry":{"x":169466.54000000097,"y":2543046.4000000022}},{"attributes":{"ID":488915,"DIS_CODE":0,"TOWNNAME":"東區","LI":"泉南里","LIN":"13鄰","STREET":"光華街","SECT":" ","MAREA":" ","LANE":" ","ALLEY":" ","HOUSE_NO":"２４７號","E_COORD97":169452.98999999999,"N_COORD97":2543047.27,"ADDRESS":"光華街２４７號","OBJECTID":488890},"geometry":{"x":169452.99000000115,"y":2543047.2699999996}},{"attributes":{"ID":488916,"DIS_CODE":0,"TOWNNAME":"東區","LI":"泉南里","LIN":"13鄰","STREET":"光華街","SECT":" ","MAREA":" ","LANE":" ","ALLEY":" ","HOUSE_NO":"２５５號","E_COORD97":169442.04000000001,"N_COORD97":2543047.27,"ADDRESS":"光華街２５５號","OBJECTID":488891},"geometry":{"x":169442.0400000019,"y":2543047.2699999996}},{"attributes":{"ID":488917,"DIS_CODE":0,"TOWNNAME":"東區","LI":"泉南里","LIN":"13鄰","STREET":"光華街","SECT":" ","MAREA":" ","LANE":" ","ALLEY":" ","HOUSE_NO":"２５７號","E_COORD97":169437.85999999999,"N_COORD97":2543048.1400000001,"ADDRESS":"光華街２５７號","OBJECTID":488892},"geometry":{"x":169437.86000000034,"y":2543048.1400000025}},{"attributes":{"ID":488918,"DIS_CODE":0,"TOWNNAME":"東區","LI":"泉南里","LIN":"13鄰","STREET":"光華街","SECT":" ","MAREA":" ","LANE":" ","ALLEY":" ","HOUSE_NO":"２６３號","E_COORD97":169430.04000000001,"N_COORD97":2543047.27,"ADDRESS":"光華街２６３號","OBJECTID":488893},"geometry":{"x":169430.04000000004,"y":2543047.2699999996}},{"attributes":{"ID":488919,"DIS_CODE":0,"TOWNNAME":"新營區","LI":"民生里","LIN":"17鄰","STREET":"中華路","SECT":" ","MAREA":" ","LANE":" ","ALLEY":" ","HOUSE_NO":"１３１之１號","E_COORD97":179100.59,"N_COORD97":2578185.02,"ADDRESS":"中華路１３１之１號","OBJECTID":488894},"geometry":{"x":179100.58999999985,"y":2578185.0200000033}},{"attributes":{"ID":488920,"DIS_CODE":0,"TOWNNAME":"麻豆區","LI":"保安里","LIN":"13鄰","STREET":"興中路","SECT":" ","MAREA":" ","LANE":" ","ALLEY":" ","HOUSE_NO":"７６號","E_COORD97":173264.66,"N_COORD97":2564805.8900000001,"ADDRESS":"興中路７６號","OBJECTID":488895},"geometry":{"x":173264.66000000108,"y":2564805.8900000025}},{"attributes":{"ID":488921,"DIS_CODE":0,"TOWNNAME":"安南區","LI":"新順里","LIN":"13鄰","STREET":"永安路","SECT":" ","MAREA":" ","LANE":" ","ALLEY":" ","HOUSE_NO":"４６號","E_COORD97":170039.73999999999,"N_COORD97":2549505.0699999998,"ADDRESS":"永安路４６號","OBJECTID":488896},"geometry":{"x":170039.74000000115,"y":2549505.0700000003}},{"attributes":{"ID":488922,"DIS_CODE":0,"TOWNNAME":"安南區","LI":"頂安里","LIN":"13鄰","STREET":"安中路","SECT":"一段","MAREA":" ","LANE":" ","ALLEY":" ","HOUSE_NO":"２７９號","E_COORD97":168540.32000000001,"N_COORD97":2548630.3300000001,"ADDRESS":"安中路一段２７９號","OBJECTID":488897},"geometry":{"x":168540.32000000216,"y":2548630.3300000019}},{"attributes":{"ID":488923,"DIS_CODE":0,"TOWNNAME":"新營區","LI":"忠政里","LIN":"32鄰","STREET":"民治路","SECT":" ","MAREA":" ","LANE":" ","ALLEY":" ","HOUSE_NO":"６２號","E_COORD97":179734.23999999999,"N_COORD97":2578858.5899999999,"ADDRESS":"民治路６２號","OBJECTID":488898},"geometry":{"x":179734.24000000209,"y":2578858.5899999999}},{"attributes":{"ID":488924,"DIS_CODE":0,"TOWNNAME":"安南區","LI":"城東里","LIN":"13鄰","STREET":"城安一街","SECT":" ","MAREA":" ","LANE":" ","ALLEY":" ","HOUSE_NO":"１５號","E_COORD97":160725.59,"N_COORD97":2551838.3399999999,"ADDRESS":"城安一街１５號","OBJECTID":488899},"geometry":{"x":160725.59000000078,"y":2551838.3399999999}},{"attributes":{"ID":488925,"DIS_CODE":0,"TOWNNAME":"安南區","LI":"新順里","LIN":"13鄰","STREET":"永安路","SECT":" ","MAREA":" ","LANE":" ","ALLEY":" ","HOUSE_NO":"１７號","E_COORD97":170050.88,"N_COORD97":2549548.1600000001,"ADDRESS":"永安路１７號","OBJECTID":488900},"geometry":{"x":170050.87999999989,"y":2549548.1600000001}},{"attributes":{"ID":488926,"DIS_CODE":0,"TOWNNAME":"安南區","LI":"新順里","LIN":"13鄰","STREET":"永安路","SECT":" ","MAREA":" ","LANE":" ","ALLEY":" ","HOUSE_NO":"２５號","E_COORD97":170118.01999999999,"N_COORD97":2549512.2200000002,"ADDRESS":"永安路２５號","OBJECTID":488901},"geometry":{"x":170118.02000000142,"y":2549512.2199999988}},{"attributes":{"ID":488927,"DIS_CODE":0,"TOWNNAME":"安南區","LI":"州北里","LIN":"13鄰","STREET":"安和路","SECT":"五段","MAREA":" ","LANE":" ","ALLEY":" ","HOUSE_NO":"１２８號","E_COORD97":169917.16,"N_COORD97":2551762.8100000001,"ADDRESS":"安和路五段１２８號","OBJECTID":488902},"geometry":{"x":169917.16000000015,"y":2551762.8100000042}},{"attributes":{"ID":488928,"DIS_CODE":0,"TOWNNAME":"新營區","LI":"忠政里","LIN":"32鄰","STREET":"府西路","SECT":" ","MAREA":" ","LANE":" ","ALLEY":" ","HOUSE_NO":"３５號","E_COORD97":179802.39000000001,"N_COORD97":2578977.8700000001,"ADDRESS":"府西路３５號","OBJECTID":488903},"geometry":{"x":179802.3900000006,"y":2578977.8700000048}},{"attributes":{"ID":488929,"DIS_CODE":0,"TOWNNAME":"白河區","LI":"庄內里","LIN":"13鄰","STREET":"光華路","SECT":" ","MAREA":" ","LANE":" ","ALLEY":" ","HOUSE_NO":"１２０號","E_COORD97":190721.35000000001,"N_COORD97":2583604.7200000002,"ADDRESS":"光華路１２０號","OBJECTID":488904},"geometry":{"x":190721.35000000056,"y":2583604.7200000007}},{"attributes":{"ID":488930,"DIS_CODE":0,"TOWNNAME":"新營區","LI":"大宏里","LIN":"1鄰","STREET":"民治路","SECT":" ","MAREA":" ","LANE":" ","ALLEY":" ","HOUSE_NO":"１７號","E_COORD97":180427.69,"N_COORD97":2578853.1000000001,"ADDRESS":"民治路１７號","OBJECTID":488905},"geometry":{"x":180427.69000000041,"y":2578853.1000000015}},{"attributes":{"ID":488931,"DIS_CODE":0,"TOWNNAME":"永康區","LI":"甲頂里","LIN":"13鄰","STREET":"大武街","SECT":" ","MAREA":" ","LANE":" ","ALLEY":" ","HOUSE_NO":"１２號","E_COORD97":170289.23000000001,"N_COORD97":2546657.5899999999,"ADDRESS":"大武街１２號","OBJECTID":488906},"geometry":{"x":170289.23000000138,"y":2546657.589999998}},{"attributes":{"ID":488932,"DIS_CODE":0,"TOWNNAME":"永康區","LI":"甲頂里","LIN":"13鄰","STREET":"大武街","SECT":" ","MAREA":" ","LANE":" ","ALLEY":" ","HOUSE_NO":"１６號","E_COORD97":170295.01999999999,"N_COORD97":2546664.8300000001,"ADDRESS":"大武街１６號","OBJECTID":488907},"geometry":{"x":170295.02000000048,"y":2546664.8300000019}},{"attributes":{"ID":488933,"DIS_CODE":0,"TOWNNAME":"永康區","LI":"甲頂里","LIN":"13鄰","STREET":"大武街","SECT":" ","MAREA":" ","LANE":" ","ALLEY":" ","HOUSE_NO":"１０號","E_COORD97":170286.82000000001,"N_COORD97":2546653.8399999999,"ADDRESS":"大武街１０號","OBJECTID":488908},"geometry":{"x":170286.82000000123,"y":2546653.8400000017}},{"attributes":{"ID":488934,"DIS_CODE":0,"TOWNNAME":"永康區","LI":"正強里","LIN":"13鄰","STREET":"正強街","SECT":" ","MAREA":" ","LANE":" ","ALLEY":" ","HOUSE_NO":"１１９號","E_COORD97":173322.94,"N_COORD97":2547435.3100000001,"ADDRESS":"正強街１１９號","OBJECTID":488909},"geometry":{"x":173322.94000000041,"y":2547435.3100000005}},{"attributes":{"ID":488935,"DIS_CODE":0,"TOWNNAME":"永康區","LI":"王行里","LIN":"13鄰","STREET":"王行路","SECT":" ","MAREA":" ","LANE":" ","ALLEY":" ","HOUSE_NO":"１０４６號","E_COORD97":175772.41,"N_COORD97":2550155.5,"ADDRESS":"王行路１０４６號","OBJECTID":488910},"geometry":{"x":175772.41000000015,"y":2550155.5000000019}},{"attributes":{"ID":488936,"DIS_CODE":0,"TOWNNAME":"永康區","LI":"北灣里","LIN":"13鄰","STREET":"文賢街","SECT":" ","MAREA":" ","LANE":" ","ALLEY":" ","HOUSE_NO":"２４０號","E_COORD97":175230.89999999999,"N_COORD97":2545817.6400000001,"ADDRESS":"文賢街２４０號","OBJECTID":488911},"geometry":{"x":175230.90000000224,"y":2545817.6400000043}},{"attributes":{"ID":488937,"DIS_CODE":0,"TOWNNAME":"永康區","LI":"正強里","LIN":"13鄰","STREET":"正強街","SECT":" ","MAREA":" ","LANE":" ","ALLEY":" ","HOUSE_NO":"１１３號","E_COORD97":173324.92999999999,"N_COORD97":2547421.3100000001,"ADDRESS":"正強街１１３號","OBJECTID":488912},"geometry":{"x":173324.93000000063,"y":2547421.3100000024}},{"attributes":{"ID":488938,"DIS_CODE":0,"TOWNNAME":"永康區","LI":"北灣里","LIN":"13鄰","STREET":"文賢街","SECT":" ","MAREA":" ","LANE":" ","ALLEY":" ","HOUSE_NO":"３０５號","E_COORD97":175135.63,"N_COORD97":2545817.5600000001,"ADDRESS":"文賢街３０５號","OBJECTID":488913},"geometry":{"x":175135.63000000082,"y":2545817.5600000005}},{"attributes":{"ID":488939,"DIS_CODE":0,"TOWNNAME":"永康區","LI":"正強里","LIN":"13鄰","STREET":"正強街","SECT":" ","MAREA":" ","LANE":" ","ALLEY":" ","HOUSE_NO":"１２３號","E_COORD97":173321.89000000001,"N_COORD97":2547443.8199999998,"ADDRESS":"正強街１２３號","OBJECTID":488914},"geometry":{"x":173321.8900000006,"y":2547443.8200000022}},{"attributes":{"ID":488940,"DIS_CODE":0,"TOWNNAME":"安南區","LI":"頂安里","LIN":"13鄰","STREET":"安中路","SECT":"一段","MAREA":" ","LANE":" ","ALLEY":" ","HOUSE_NO":"２８７號","E_COORD97":168524.802735,"N_COORD97":2548640.78682,"ADDRESS":"安中路一段２８７號","OBJECTID":488915},"geometry":{"x":168524.80273500085,"y":2548640.7868160009}},{"attributes":{"ID":488941,"DIS_CODE":0,"TOWNNAME":"安南區","LI":"頂安里","LIN":"13鄰","STREET":"安中路","SECT":"一段","MAREA":" ","LANE":" ","ALLEY":" ","HOUSE_NO":"２８１號","E_COORD97":168535.82437300001,"N_COORD97":2548633.37849,"ADDRESS":"安中路一段２８１號","OBJECTID":488916},"geometry":{"x":168535.8243730003,"y":2548633.378487004}},{"attributes":{"ID":488942,"DIS_CODE":0,"TOWNNAME":"永康區","LI":"正強里","LIN":"13鄰","STREET":"正強街","SECT":" ","MAREA":" ","LANE":" ","ALLEY":" ","HOUSE_NO":"１３１號","E_COORD97":173320.69,"N_COORD97":2547462.1200000001,"ADDRESS":"正強街１３１號","OBJECTID":488917},"geometry":{"x":173320.69000000134,"y":2547462.1199999992}},{"attributes":{"ID":488943,"DIS_CODE":0,"TOWNNAME":"永康區","LI":"王行里","LIN":"13鄰","STREET":"王行路","SECT":" ","MAREA":" ","LANE":" ","ALLEY":" ","HOUSE_NO":"１０２４號","E_COORD97":175816.42000000001,"N_COORD97":2550135.3999999999,"ADDRESS":"王行路１０２４號","OBJECTID":488918},"geometry":{"x":175816.41999999993,"y":2550135.4000000022}},{"attributes":{"ID":488944,"DIS_CODE":0,"TOWNNAME":"永康區","LI":"正強里","LIN":"13鄰","STREET":"正強街","SECT":" ","MAREA":" ","LANE":" ","ALLEY":" ","HOUSE_NO":"１５７號","E_COORD97":173313.48000000001,"N_COORD97":2547524.48,"ADDRESS":"正強街１５７號","OBJECTID":488919},"geometry":{"x":173313.48000000138,"y":2547524.4800000023}},{"attributes":{"ID":488945,"DIS_CODE":0,"TOWNNAME":"永康區","LI":"王行里","LIN":"13鄰","STREET":"王行路","SECT":" ","MAREA":" ","LANE":" ","ALLEY":" ","HOUSE_NO":"１０３０號","E_COORD97":175805.44,"N_COORD97":2550141.1499999999,"ADDRESS":"王行路１０３０號","OBJECTID":488920},"geometry":{"x":175805.44000000134,"y":2550141.1500000022}},{"attributes":{"ID":488946,"DIS_CODE":0,"TOWNNAME":"永康區","LI":"王行里","LIN":"13鄰","STREET":"王行路","SECT":" ","MAREA":" ","LANE":" ","ALLEY":" ","HOUSE_NO":"１０３６號","E_COORD97":175793.26999999999,"N_COORD97":2550144.75,"ADDRESS":"王行路１０３６號","OBJECTID":488921},"geometry":{"x":175793.26999999955,"y":2550144.75}},{"attributes":{"ID":488947,"DIS_CODE":0,"TOWNNAME":"永康區","LI":"正強里","LIN":"13鄰","STREET":"正強街","SECT":" ","MAREA":" ","LANE":" ","ALLEY":" ","HOUSE_NO":"１３７號","E_COORD97":173317.92999999999,"N_COORD97":2547481.9199999999,"ADDRESS":"正強街１３７號","OBJECTID":488922},"geometry":{"x":173317.93000000063,"y":2547481.9199999999}},{"attributes":{"ID":488948,"DIS_CODE":0,"TOWNNAME":"新營區","LI":"土庫里","LIN":"18鄰","STREET":"開元路","SECT":" ","MAREA":" ","LANE":" ","ALLEY":" ","HOUSE_NO":"２４７號之１","E_COORD97":181863.41,"N_COORD97":2579729.1299999999,"ADDRESS":"開元路２４７號之１","OBJECTID":488923},"geometry":{"x":181863.41000000015,"y":2579729.129999999}},{"attributes":{"ID":488949,"DIS_CODE":0,"TOWNNAME":"新營區","LI":"民權里","LIN":"20鄰","STREET":"仁愛街","SECT":" ","MAREA":" ","LANE":" ","ALLEY":" ","HOUSE_NO":"４１號之４","E_COORD97":179773.60000000001,"N_COORD97":2578277.0499999998,"ADDRESS":"仁愛街４１號之４","OBJECTID":488924},"geometry":{"x":179773.60000000056,"y":2578277.0500000007}},{"attributes":{"ID":488950,"DIS_CODE":0,"TOWNNAME":"永康區","LI":"北灣里","LIN":"13鄰","STREET":"文賢街","SECT":" ","MAREA":" ","LANE":" ","ALLEY":" ","HOUSE_NO":"２８５號","E_COORD97":175181.34,"N_COORD97":2545810.46,"ADDRESS":"文賢街２８５號","OBJECTID":488925},"geometry":{"x":175181.33999999892,"y":2545810.4600000028}},{"attributes":{"ID":488951,"DIS_CODE":0,"TOWNNAME":"永康區","LI":"王行里","LIN":"13鄰","STREET":"王行路","SECT":" ","MAREA":" ","LANE":" ","ALLEY":" ","HOUSE_NO":"１０４８號","E_COORD97":175766.41,"N_COORD97":2550159,"ADDRESS":"王行路１０４８號","OBJECTID":488926},"geometry":{"x":175766.41000000108,"y":2550159.0000000019}},{"attributes":{"ID":488952,"DIS_CODE":0,"TOWNNAME":"永康區","LI":"王行里","LIN":"13鄰","STREET":"王行路","SECT":" ","MAREA":" ","LANE":" ","ALLEY":" ","HOUSE_NO":"１０４２號","E_COORD97":175777.51999999999,"N_COORD97":2550153,"ADDRESS":"王行路１０４２號","OBJECTID":488927},"geometry":{"x":175777.51999999955,"y":2550153}},{"attributes":{"ID":488953,"DIS_CODE":0,"TOWNNAME":"永康區","LI":"正強里","LIN":"13鄰","STREET":"正強街","SECT":" ","MAREA":" ","LANE":" ","ALLEY":" ","HOUSE_NO":"１４９號","E_COORD97":173315.45000000001,"N_COORD97":2547503.4900000002,"ADDRESS":"正強街１４９號","OBJECTID":488928},"geometry":{"x":173315.45000000112,"y":2547503.4900000021}},{"attributes":{"ID":488954,"DIS_CODE":0,"TOWNNAME":"南區","LI":"文南里","LIN":"13鄰","STREET":"育南街","SECT":" ","MAREA":" ","LANE":" ","ALLEY":" ","HOUSE_NO":"４８號五樓","E_COORD97":166879.20000000001,"N_COORD97":2542672.25,"ADDRESS":"育南街４８號五樓","OBJECTID":488929},"geometry":{"x":166879.20000000019,"y":2542672.25}},{"attributes":{"ID":488955,"DIS_CODE":0,"TOWNNAME":"南區","LI":"文南里","LIN":"13鄰","STREET":"育南街","SECT":" ","MAREA":" ","LANE":" ","ALLEY":" ","HOUSE_NO":"４８號三樓","E_COORD97":166879.20000000001,"N_COORD97":2542672.25,"ADDRESS":"育南街４８號三樓","OBJECTID":488930},"geometry":{"x":166879.20000000019,"y":2542672.25}},{"attributes":{"ID":488956,"DIS_CODE":0,"TOWNNAME":"南區","LI":"文南里","LIN":"13鄰","STREET":"育南街","SECT":" ","MAREA":" ","LANE":" ","ALLEY":" ","HOUSE_NO":"４８號四樓","E_COORD97":166879.20000000001,"N_COORD97":2542672.25,"ADDRESS":"育南街４８號四樓","OBJECTID":488931},"geometry":{"x":166879.20000000019,"y":2542672.25}},{"attributes":{"ID":488957,"DIS_CODE":0,"TOWNNAME":"新營區","LI":"民生里","LIN":" ","STREET":"復興路","SECT":" ","MAREA":" ","LANE":" ","ALLEY":" ","HOUSE_NO":"２６０號","E_COORD97":178805.26000000001,"N_COORD97":2578109.9700000002,"ADDRESS":"復興路２６０號","OBJECTID":488932},"geometry":{"x":178805.26000000071,"y":2578109.9700000025}},{"attributes":{"ID":488958,"DIS_CODE":0,"TOWNNAME":"南區","LI":"竹溪里","LIN":"13鄰","STREET":"南門路","SECT":" ","MAREA":" ","LANE":" ","ALLEY":" ","HOUSE_NO":"３４３號之１二樓","E_COORD97":168360.32999999999,"N_COORD97":2541886.8900000001,"ADDRESS":"南門路３４３號之１二樓","OBJECTID":488933},"geometry":{"x":168360.33000000194,"y":2541886.8900000025}},{"attributes":{"ID":488959,"DIS_CODE":0,"TOWNNAME":"南區","LI":"竹溪里","LIN":"13鄰","STREET":"南門路","SECT":" ","MAREA":" ","LANE":" ","ALLEY":" ","HOUSE_NO":"３４３號之１三樓","E_COORD97":168360.32999999999,"N_COORD97":2541886.8900000001,"ADDRESS":"南門路３４３號之１三樓","OBJECTID":488934},"geometry":{"x":168360.33000000194,"y":2541886.8900000025}},{"attributes":{"ID":488960,"DIS_CODE":0,"TOWNNAME":"南區","LI":"竹溪里","LIN":"13鄰","STREET":"南門路","SECT":" ","MAREA":" ","LANE":" ","ALLEY":" ","HOUSE_NO":"３４３號之２二樓","E_COORD97":168363.04999999999,"N_COORD97":2541883.21,"ADDRESS":"南門路３４３號之２二樓","OBJECTID":488935},"geometry":{"x":168363.04999999981,"y":2541883.2100000009}},{"attributes":{"ID":488961,"DIS_CODE":0,"TOWNNAME":"南區","LI":"竹溪里","LIN":"13鄰","STREET":"南門路","SECT":" ","MAREA":" ","LANE":" ","ALLEY":" ","HOUSE_NO":"３４３號之２三樓","E_COORD97":168363.04999999999,"N_COORD97":2541883.21,"ADDRESS":"南門路３４３號之２三樓","OBJECTID":488936},"geometry":{"x":168363.04999999981,"y":2541883.2100000009}},{"attributes":{"ID":488962,"DIS_CODE":0,"TOWNNAME":"安平區","LI":"港仔里","LIN":"13鄰","STREET":"運河路","SECT":" ","MAREA":" ","LANE":" ","ALLEY":" ","HOUSE_NO":"５號一樓","E_COORD97":164229.89000000001,"N_COORD97":2544408.8100000001,"ADDRESS":"運河路５號一樓","OBJECTID":488937},"geometry":{"x":164229.88999999873,"y":2544408.8100000005}},{"attributes":{"ID":488963,"DIS_CODE":0,"TOWNNAME":"安平區","LI":"港仔里","LIN":"13鄰","STREET":"運河路","SECT":" ","MAREA":" ","LANE":" ","ALLEY":" ","HOUSE_NO":"５號二樓","E_COORD97":164229.89000000001,"N_COORD97":2544408.8100000001,"ADDRESS":"運河路５號二樓","OBJECTID":488938},"geometry":{"x":164229.88999999873,"y":2544408.8100000005}},{"attributes":{"ID":488964,"DIS_CODE":0,"TOWNNAME":"安平區","LI":"港仔里","LIN":"13鄰","STREET":"運河路","SECT":" ","MAREA":" ","LANE":" ","ALLEY":" ","HOUSE_NO":"５號三樓","E_COORD97":164229.89000000001,"N_COORD97":2544408.8100000001,"ADDRESS":"運河路５號三樓","OBJECTID":488939},"geometry":{"x":164229.88999999873,"y":2544408.8100000005}},{"attributes":{"ID":488965,"DIS_CODE":0,"TOWNNAME":"安平區","LI":"港仔里","LIN":"13鄰","STREET":"運河路","SECT":" ","MAREA":" ","LANE":" ","ALLEY":" ","HOUSE_NO":"５號四樓","E_COORD97":164229.89000000001,"N_COORD97":2544408.8100000001,"ADDRESS":"運河路５號四樓","OBJECTID":488940},"geometry":{"x":164229.88999999873,"y":2544408.8100000005}},{"attributes":{"ID":488966,"DIS_CODE":0,"TOWNNAME":"新營區","LI":"嘉芳里","LIN":"14鄰","STREET":"五福路","SECT":" ","MAREA":" ","LANE":" ","ALLEY":" ","HOUSE_NO":"１１號","E_COORD97":176740.56,"N_COORD97":2578276.1699999999,"ADDRESS":"五福路１１號","OBJECTID":488941},"geometry":{"x":176740.55999999959,"y":2578276.1700000037}},{"attributes":{"ID":488967,"DIS_CODE":0,"TOWNNAME":"新營區","LI":"延平里","LIN":"7鄰","STREET":"復興路","SECT":" ","MAREA":" ","LANE":" ","ALLEY":" ","HOUSE_NO":"１之１號","E_COORD97":179765.95999999999,"N_COORD97":2577952.6000000001,"ADDRESS":"復興路１之１號","OBJECTID":488942},"geometry":{"x":179765.95999999996,"y":2577952.5999999996}},{"attributes":{"ID":488968,"DIS_CODE":0,"TOWNNAME":"新營區","LI":"中營里","LIN":"5鄰","STREET":"中山路","SECT":" ","MAREA":" ","LANE":" ","ALLEY":" ","HOUSE_NO":"２０之１號","E_COORD97":180664.5,"N_COORD97":2578433.4399999999,"ADDRESS":"中山路２０之１號","OBJECTID":488943},"geometry":{"x":180664.50000000186,"y":2578433.4400000013}},{"attributes":{"ID":488969,"DIS_CODE":0,"TOWNNAME":"新營區","LI":"新北里","LIN":"24鄰","STREET":"長榮路","SECT":"二段","MAREA":" ","LANE":" ","ALLEY":" ","HOUSE_NO":"５５０號","E_COORD97":178639.57999999999,"N_COORD97":2579399.8399999999,"ADDRESS":"長榮路二段５５０號","OBJECTID":488944},"geometry":{"x":178639.58000000007,"y":2579399.8399999999}},{"attributes":{"ID":488970,"DIS_CODE":0,"TOWNNAME":"新營區","LI":"中營里","LIN":"14鄰","STREET":"東山路","SECT":" ","MAREA":" ","LANE":" ","ALLEY":" ","HOUSE_NO":"３７號","E_COORD97":181362.97,"N_COORD97":2578702.5499999998,"ADDRESS":"東山路３７號","OBJECTID":488945},"geometry":{"x":181362.97000000067,"y":2578702.5500000026}},{"attributes":{"ID":488971,"DIS_CODE":0,"TOWNNAME":"北區","LI":"公園里","LIN":"13鄰","STREET":"西華街","SECT":" ","MAREA":" ","LANE":" ","ALLEY":" ","HOUSE_NO":"８１號七樓之１","E_COORD97":169061.89999999999,"N_COORD97":2544503.8799999999,"ADDRESS":"西華街８１號七樓之１","OBJECTID":488946},"geometry":{"x":169061.89999999944,"y":2544503.879999999}},{"attributes":{"ID":488972,"DIS_CODE":0,"TOWNNAME":"北區","LI":"公園里","LIN":"13鄰","STREET":"西華街","SECT":" ","MAREA":" ","LANE":" ","ALLEY":" ","HOUSE_NO":"８１號七樓之１０","E_COORD97":169061.89999999999,"N_COORD97":2544503.8799999999,"ADDRESS":"西華街８１號七樓之１０","OBJECTID":488947},"geometry":{"x":169061.89999999944,"y":2544503.879999999}},{"attributes":{"ID":488973,"DIS_CODE":0,"TOWNNAME":"北區","LI":"公園里","LIN":"13鄰","STREET":"西華街","SECT":" ","MAREA":" ","LANE":" ","ALLEY":" ","HOUSE_NO":"８１號七樓之１１","E_COORD97":169061.89999999999,"N_COORD97":2544503.8799999999,"ADDRESS":"西華街８１號七樓之１１","OBJECTID":488948},"geometry":{"x":169061.89999999944,"y":2544503.879999999}},{"attributes":{"ID":488974,"DIS_CODE":0,"TOWNNAME":"北區","LI":"公園里","LIN":"13鄰","STREET":"西華街","SECT":" ","MAREA":" ","LANE":" ","ALLEY":" ","HOUSE_NO":"８１號七樓之１２","E_COORD97":169061.89999999999,"N_COORD97":2544503.8799999999,"ADDRESS":"西華街８１號七樓之１２","OBJECTID":488949},"geometry":{"x":169061.89999999944,"y":2544503.879999999}},{"attributes":{"ID":488975,"DIS_CODE":0,"TOWNNAME":"北區","LI":"公園里","LIN":"13鄰","STREET":"西華街","SECT":" ","MAREA":" ","LANE":" ","ALLEY":" ","HOUSE_NO":"８１號七樓之２","E_COORD97":169061.89999999999,"N_COORD97":2544503.8799999999,"ADDRESS":"西華街８１號七樓之２","OBJECTID":488950},"geometry":{"x":169061.89999999944,"y":2544503.879999999}},{"attributes":{"ID":488976,"DIS_CODE":0,"TOWNNAME":"北區","LI":"公園里","LIN":"13鄰","STREET":"西華街","SECT":" ","MAREA":" ","LANE":" ","ALLEY":" ","HOUSE_NO":"８１號七樓之３","E_COORD97":169061.89999999999,"N_COORD97":2544503.8799999999,"ADDRESS":"西華街８１號七樓之３","OBJECTID":488951},"geometry":{"x":169061.89999999944,"y":2544503.879999999}},{"attributes":{"ID":488977,"DIS_CODE":0,"TOWNNAME":"北區","LI":"公園里","LIN":"13鄰","STREET":"西華街","SECT":" ","MAREA":" ","LANE":" ","ALLEY":" ","HOUSE_NO":"８１號七樓之４","E_COORD97":169061.89999999999,"N_COORD97":2544503.8799999999,"ADDRESS":"西華街８１號七樓之４","OBJECTID":488952},"geometry":{"x":169061.89999999944,"y":2544503.879999999}},{"attributes":{"ID":488978,"DIS_CODE":0,"TOWNNAME":"北區","LI":"公園里","LIN":"13鄰","STREET":"西華街","SECT":" ","MAREA":" ","LANE":" ","ALLEY":" ","HOUSE_NO":"８１號七樓之５","E_COORD97":169061.89999999999,"N_COORD97":2544503.8799999999,"ADDRESS":"西華街８１號七樓之５","OBJECTID":488953},"geometry":{"x":169061.89999999944,"y":2544503.879999999}},{"attributes":{"ID":488979,"DIS_CODE":0,"TOWNNAME":"北區","LI":"公園里","LIN":"13鄰","STREET":"西華街","SECT":" ","MAREA":" ","LANE":" ","ALLEY":" ","HOUSE_NO":"８１號七樓之６","E_COORD97":169061.89999999999,"N_COORD97":2544503.8799999999,"ADDRESS":"西華街８１號七樓之６","OBJECTID":488954},"geometry":{"x":169061.89999999944,"y":2544503.879999999}},{"attributes":{"ID":488980,"DIS_CODE":0,"TOWNNAME":"北區","LI":"公園里","LIN":"13鄰","STREET":"西華街","SECT":" ","MAREA":" ","LANE":" ","ALLEY":" ","HOUSE_NO":"８１號七樓之７","E_COORD97":169061.89999999999,"N_COORD97":2544503.8799999999,"ADDRESS":"西華街８１號七樓之７","OBJECTID":488955},"geometry":{"x":169061.89999999944,"y":2544503.879999999}},{"attributes":{"ID":488981,"DIS_CODE":0,"TOWNNAME":"北區","LI":"公園里","LIN":"13鄰","STREET":"西華街","SECT":" ","MAREA":" ","LANE":" ","ALLEY":" ","HOUSE_NO":"８１號七樓之８","E_COORD97":169061.89999999999,"N_COORD97":2544503.8799999999,"ADDRESS":"西華街８１號七樓之８","OBJECTID":488956},"geometry":{"x":169061.89999999944,"y":2544503.879999999}},{"attributes":{"ID":488982,"DIS_CODE":0,"TOWNNAME":"北區","LI":"公園里","LIN":"13鄰","STREET":"西華街","SECT":" ","MAREA":" ","LANE":" ","ALLEY":" ","HOUSE_NO":"８１號七樓之９","E_COORD97":169061.89999999999,"N_COORD97":2544503.8799999999,"ADDRESS":"西華街８１號七樓之９","OBJECTID":488957},"geometry":{"x":169061.89999999944,"y":2544503.879999999}},{"attributes":{"ID":488983,"DIS_CODE":0,"TOWNNAME":"北區","LI":"公園里","LIN":"13鄰","STREET":"西華街","SECT":" ","MAREA":" ","LANE":" ","ALLEY":" ","HOUSE_NO":"８１號六樓之１","E_COORD97":169061.89999999999,"N_COORD97":2544503.8799999999,"ADDRESS":"西華街８１號六樓之１","OBJECTID":488958},"geometry":{"x":169061.89999999944,"y":2544503.879999999}},{"attributes":{"ID":488984,"DIS_CODE":0,"TOWNNAME":"北區","LI":"公園里","LIN":"13鄰","STREET":"西華街","SECT":" ","MAREA":" ","LANE":" ","ALLEY":" ","HOUSE_NO":"８１號六樓之１０","E_COORD97":169061.89999999999,"N_COORD97":2544503.8799999999,"ADDRESS":"西華街８１號六樓之１０","OBJECTID":488959},"geometry":{"x":169061.89999999944,"y":2544503.879999999}},{"attributes":{"ID":488985,"DIS_CODE":0,"TOWNNAME":"北區","LI":"公園里","LIN":"13鄰","STREET":"西華街","SECT":" ","MAREA":" ","LANE":" ","ALLEY":" ","HOUSE_NO":"８１號六樓之１１","E_COORD97":169061.89999999999,"N_COORD97":2544503.8799999999,"ADDRESS":"西華街８１號六樓之１１","OBJECTID":488960},"geometry":{"x":169061.89999999944,"y":2544503.879999999}},{"attributes":{"ID":488986,"DIS_CODE":0,"TOWNNAME":"北區","LI":"公園里","LIN":"13鄰","STREET":"西華街","SECT":" ","MAREA":" ","LANE":" ","ALLEY":" ","HOUSE_NO":"８１號六樓之１２","E_COORD97":169061.89999999999,"N_COORD97":2544503.8799999999,"ADDRESS":"西華街８１號六樓之１２","OBJECTID":488961},"geometry":{"x":169061.89999999944,"y":2544503.879999999}},{"attributes":{"ID":488987,"DIS_CODE":0,"TOWNNAME":"北區","LI":"公園里","LIN":"13鄰","STREET":"西華街","SECT":" ","MAREA":" ","LANE":" ","ALLEY":" ","HOUSE_NO":"８１號六樓之２","E_COORD97":169061.89999999999,"N_COORD97":2544503.8799999999,"ADDRESS":"西華街８１號六樓之２","OBJECTID":488962},"geometry":{"x":169061.89999999944,"y":2544503.879999999}},{"attributes":{"ID":488988,"DIS_CODE":0,"TOWNNAME":"北區","LI":"公園里","LIN":"13鄰","STREET":"西華街","SECT":" ","MAREA":" ","LANE":" ","ALLEY":" ","HOUSE_NO":"８１號六樓之３","E_COORD97":169061.89999999999,"N_COORD97":2544503.8799999999,"ADDRESS":"西華街８１號六樓之３","OBJECTID":488963},"geometry":{"x":169061.89999999944,"y":2544503.879999999}},{"attributes":{"ID":488989,"DIS_CODE":0,"TOWNNAME":"北區","LI":"公園里","LIN":"13鄰","STREET":"西華街","SECT":" ","MAREA":" ","LANE":" ","ALLEY":" ","HOUSE_NO":"８１號六樓之８","E_COORD97":169061.89999999999,"N_COORD97":2544503.8799999999,"ADDRESS":"西華街８１號六樓之８","OBJECTID":488964},"geometry":{"x":169061.89999999944,"y":2544503.879999999}},{"attributes":{"ID":488990,"DIS_CODE":0,"TOWNNAME":"北區","LI":"公園里","LIN":"13鄰","STREET":"西華街","SECT":" ","MAREA":" ","LANE":" ","ALLEY":" ","HOUSE_NO":"８１號六樓之９","E_COORD97":169061.89999999999,"N_COORD97":2544503.8799999999,"ADDRESS":"西華街８１號六樓之９","OBJECTID":488965},"geometry":{"x":169061.89999999944,"y":2544503.879999999}},{"attributes":{"ID":488991,"DIS_CODE":0,"TOWNNAME":"北區","LI":"公園里","LIN":"13鄰","STREET":"西華街","SECT":" ","MAREA":" ","LANE":" ","ALLEY":" ","HOUSE_NO":"８１號九樓之１","E_COORD97":169061.89999999999,"N_COORD97":2544503.8799999999,"ADDRESS":"西華街８１號九樓之１","OBJECTID":488966},"geometry":{"x":169061.89999999944,"y":2544503.879999999}},{"attributes":{"ID":488992,"DIS_CODE":0,"TOWNNAME":"北區","LI":"公園里","LIN":"13鄰","STREET":"西華街","SECT":" ","MAREA":" ","LANE":" ","ALLEY":" ","HOUSE_NO":"８１號九樓之１０","E_COORD97":169061.89999999999,"N_COORD97":2544503.8799999999,"ADDRESS":"西華街８１號九樓之１０","OBJECTID":488967},"geometry":{"x":169061.89999999944,"y":2544503.879999999}},{"attributes":{"ID":488993,"DIS_CODE":0,"TOWNNAME":"北區","LI":"公園里","LIN":"13鄰","STREET":"西華街","SECT":" ","MAREA":" ","LANE":" ","ALLEY":" ","HOUSE_NO":"８１號九樓之１１","E_COORD97":169061.89999999999,"N_COORD97":2544503.8799999999,"ADDRESS":"西華街８１號九樓之１１","OBJECTID":488968},"geometry":{"x":169061.89999999944,"y":2544503.879999999}},{"attributes":{"ID":488994,"DIS_CODE":0,"TOWNNAME":"北區","LI":"公園里","LIN":"13鄰","STREET":"西華街","SECT":" ","MAREA":" ","LANE":" ","ALLEY":" ","HOUSE_NO":"８１號九樓之１２","E_COORD97":169061.89999999999,"N_COORD97":2544503.8799999999,"ADDRESS":"西華街８１號九樓之１２","OBJECTID":488969},"geometry":{"x":169061.89999999944,"y":2544503.879999999}},{"attributes":{"ID":488995,"DIS_CODE":0,"TOWNNAME":"北區","LI":"公園里","LIN":"13鄰","STREET":"西華街","SECT":" ","MAREA":" ","LANE":" ","ALLEY":" ","HOUSE_NO":"８１號九樓之２","E_COORD97":169061.89999999999,"N_COORD97":2544503.8799999999,"ADDRESS":"西華街８１號九樓之２","OBJECTID":488970},"geometry":{"x":169061.89999999944,"y":2544503.879999999}},{"attributes":{"ID":488996,"DIS_CODE":0,"TOWNNAME":"北區","LI":"公園里","LIN":"13鄰","STREET":"西華街","SECT":" ","MAREA":" ","LANE":" ","ALLEY":" ","HOUSE_NO":"８１號九樓之３","E_COORD97":169061.89999999999,"N_COORD97":2544503.8799999999,"ADDRESS":"西華街８１號九樓之３","OBJECTID":488971},"geometry":{"x":169061.89999999944,"y":2544503.879999999}},{"attributes":{"ID":488997,"DIS_CODE":0,"TOWNNAME":"北區","LI":"公園里","LIN":"13鄰","STREET":"西華街","SECT":" ","MAREA":" ","LANE":" ","ALLEY":" ","HOUSE_NO":"８１號九樓之６","E_COORD97":169061.89999999999,"N_COORD97":2544503.8799999999,"ADDRESS":"西華街８１號九樓之６","OBJECTID":488972},"geometry":{"x":169061.89999999944,"y":2544503.879999999}},{"attributes":{"ID":488998,"DIS_CODE":0,"TOWNNAME":"北區","LI":"公園里","LIN":"13鄰","STREET":"西華街","SECT":" ","MAREA":" ","LANE":" ","ALLEY":" ","HOUSE_NO":"８１號九樓之７","E_COORD97":169061.89999999999,"N_COORD97":2544503.8799999999,"ADDRESS":"西華街８１號九樓之７","OBJECTID":488973},"geometry":{"x":169061.89999999944,"y":2544503.879999999}},{"attributes":{"ID":488999,"DIS_CODE":0,"TOWNNAME":"北區","LI":"公園里","LIN":"13鄰","STREET":"西華街","SECT":" ","MAREA":" ","LANE":" ","ALLEY":" ","HOUSE_NO":"８１號九樓之８","E_COORD97":169061.89999999999,"N_COORD97":2544503.8799999999,"ADDRESS":"西華街８１號九樓之８","OBJECTID":488974},"geometry":{"x":169061.89999999944,"y":2544503.879999999}},{"attributes":{"ID":489000,"DIS_CODE":0,"TOWNNAME":"北區","LI":"公園里","LIN":"13鄰","STREET":"西華街","SECT":" ","MAREA":" ","LANE":" ","ALLEY":" ","HOUSE_NO":"８１號九樓之９","E_COORD97":169061.89999999999,"N_COORD97":2544503.8799999999,"ADDRESS":"西華街８１號九樓之９","OBJECTID":488975},"geometry":{"x":169061.89999999944,"y":2544503.879999999}},{"attributes":{"ID":489001,"DIS_CODE":0,"TOWNNAME":"北區","LI":"公園里","LIN":"13鄰","STREET":"西華街","SECT":" ","MAREA":" ","LANE":" ","ALLEY":" ","HOUSE_NO":"８１號八樓之１","E_COORD97":169061.89999999999,"N_COORD97":2544503.8799999999,"ADDRESS":"西華街８１號八樓之１","OBJECTID":488976},"geometry":{"x":169061.89999999944,"y":2544503.879999999}},{"attributes":{"ID":489002,"DIS_CODE":0,"TOWNNAME":"北區","LI":"公園里","LIN":"13鄰","STREET":"西華街","SECT":" ","MAREA":" ","LANE":" ","ALLEY":" ","HOUSE_NO":"８１號八樓之１０","E_COORD97":169061.89999999999,"N_COORD97":2544503.8799999999,"ADDRESS":"西華街８１號八樓之１０","OBJECTID":488977},"geometry":{"x":169061.89999999944,"y":2544503.879999999}},{"attributes":{"ID":489003,"DIS_CODE":0,"TOWNNAME":"北區","LI":"公園里","LIN":"13鄰","STREET":"西華街","SECT":" ","MAREA":" ","LANE":" ","ALLEY":" ","HOUSE_NO":"８１號八樓之１１","E_COORD97":169061.89999999999,"N_COORD97":2544503.8799999999,"ADDRESS":"西華街８１號八樓之１１","OBJECTID":488978},"geometry":{"x":169061.89999999944,"y":2544503.879999999}},{"attributes":{"ID":489004,"DIS_CODE":0,"TOWNNAME":"北區","LI":"公園里","LIN":"13鄰","STREET":"西華街","SECT":" ","MAREA":" ","LANE":" ","ALLEY":" ","HOUSE_NO":"８１號八樓之１２","E_COORD97":169061.89999999999,"N_COORD97":2544503.8799999999,"ADDRESS":"西華街８１號八樓之１２","OBJECTID":488979},"geometry":{"x":169061.89999999944,"y":2544503.879999999}},{"attributes":{"ID":489005,"DIS_CODE":0,"TOWNNAME":"北區","LI":"公園里","LIN":"13鄰","STREET":"西華街","SECT":" ","MAREA":" ","LANE":" ","ALLEY":" ","HOUSE_NO":"８１號八樓之２","E_COORD97":169061.89999999999,"N_COORD97":2544503.8799999999,"ADDRESS":"西華街８１號八樓之２","OBJECTID":488980},"geometry":{"x":169061.89999999944,"y":2544503.879999999}},{"attributes":{"ID":489006,"DIS_CODE":0,"TOWNNAME":"北區","LI":"公園里","LIN":"13鄰","STREET":"西華街","SECT":" ","MAREA":" ","LANE":" ","ALLEY":" ","HOUSE_NO":"８１號八樓之３","E_COORD97":169061.89999999999,"N_COORD97":2544503.8799999999,"ADDRESS":"西華街８１號八樓之３","OBJECTID":488981},"geometry":{"x":169061.89999999944,"y":2544503.879999999}},{"attributes":{"ID":489007,"DIS_CODE":0,"TOWNNAME":"新營區","LI":"三仙里","LIN":"13鄰","STREET":"中華路","SECT":" ","MAREA":" ","LANE":" ","ALLEY":" ","HOUSE_NO":"５８號","E_COORD97":179573.59,"N_COORD97":2578198.2000000002,"ADDRESS":"中華路５８號","OBJECTID":488982},"geometry":{"x":179573.58999999892,"y":2578198.2000000011}},{"attributes":{"ID":489008,"DIS_CODE":0,"TOWNNAME":"北區","LI":"公園里","LIN":"13鄰","STREET":"西華街","SECT":" ","MAREA":" ","LANE":" ","ALLEY":" ","HOUSE_NO":"８１號八樓之４","E_COORD97":169061.89999999999,"N_COORD97":2544503.8799999999,"ADDRESS":"西華街８１號八樓之４","OBJECTID":488983},"geometry":{"x":169061.89999999944,"y":2544503.879999999}},{"attributes":{"ID":489009,"DIS_CODE":0,"TOWNNAME":"北區","LI":"公園里","LIN":"13鄰","STREET":"西華街","SECT":" ","MAREA":" ","LANE":" ","ALLEY":" ","HOUSE_NO":"８１號八樓之５","E_COORD97":169061.89999999999,"N_COORD97":2544503.8799999999,"ADDRESS":"西華街８１號八樓之５","OBJECTID":488984},"geometry":{"x":169061.89999999944,"y":2544503.879999999}},{"attributes":{"ID":489010,"DIS_CODE":0,"TOWNNAME":"北區","LI":"公園里","LIN":"13鄰","STREET":"西華街","SECT":" ","MAREA":" ","LANE":" ","ALLEY":" ","HOUSE_NO":"８１號八樓之６","E_COORD97":169061.89999999999,"N_COORD97":2544503.8799999999,"ADDRESS":"西華街８１號八樓之６","OBJECTID":488985},"geometry":{"x":169061.89999999944,"y":2544503.879999999}},{"attributes":{"ID":489011,"DIS_CODE":0,"TOWNNAME":"北區","LI":"公園里","LIN":"13鄰","STREET":"西華街","SECT":" ","MAREA":" ","LANE":" ","ALLEY":" ","HOUSE_NO":"８１號八樓之７","E_COORD97":169061.89999999999,"N_COORD97":2544503.8799999999,"ADDRESS":"西華街８１號八樓之７","OBJECTID":488986},"geometry":{"x":169061.89999999944,"y":2544503.879999999}},{"attributes":{"ID":489012,"DIS_CODE":0,"TOWNNAME":"北區","LI":"公園里","LIN":"13鄰","STREET":"西華街","SECT":" ","MAREA":" ","LANE":" ","ALLEY":" ","HOUSE_NO":"８１號八樓之８","E_COORD97":169061.89999999999,"N_COORD97":2544503.8799999999,"ADDRESS":"西華街８１號八樓之８","OBJECTID":488987},"geometry":{"x":169061.89999999944,"y":2544503.879999999}},{"attributes":{"ID":489013,"DIS_CODE":0,"TOWNNAME":"北區","LI":"公園里","LIN":"13鄰","STREET":"西華街","SECT":" ","MAREA":" ","LANE":" ","ALLEY":" ","HOUSE_NO":"８１號八樓之９","E_COORD97":169061.89999999999,"N_COORD97":2544503.8799999999,"ADDRESS":"西華街８１號八樓之９","OBJECTID":488988},"geometry":{"x":169061.89999999944,"y":2544503.879999999}},{"attributes":{"ID":489014,"DIS_CODE":0,"TOWNNAME":"北區","LI":"公園里","LIN":"13鄰","STREET":"西華街","SECT":" ","MAREA":" ","LANE":" ","ALLEY":" ","HOUSE_NO":"８１號十樓之１","E_COORD97":169061.89999999999,"N_COORD97":2544503.8799999999,"ADDRESS":"西華街８１號十樓之１","OBJECTID":488989},"geometry":{"x":169061.89999999944,"y":2544503.879999999}},{"attributes":{"ID":489015,"DIS_CODE":0,"TOWNNAME":"北區","LI":"公園里","LIN":"13鄰","STREET":"西華街","SECT":" ","MAREA":" ","LANE":" ","ALLEY":" ","HOUSE_NO":"８１號十樓之１０","E_COORD97":169061.89999999999,"N_COORD97":2544503.8799999999,"ADDRESS":"西華街８１號十樓之１０","OBJECTID":488990},"geometry":{"x":169061.89999999944,"y":2544503.879999999}},{"attributes":{"ID":489016,"DIS_CODE":0,"TOWNNAME":"北區","LI":"公園里","LIN":"13鄰","STREET":"西華街","SECT":" ","MAREA":" ","LANE":" ","ALLEY":" ","HOUSE_NO":"８１號十樓之１１","E_COORD97":169061.89999999999,"N_COORD97":2544503.8799999999,"ADDRESS":"西華街８１號十樓之１１","OBJECTID":488991},"geometry":{"x":169061.89999999944,"y":2544503.879999999}},{"attributes":{"ID":489017,"DIS_CODE":0,"TOWNNAME":"北區","LI":"公園里","LIN":"13鄰","STREET":"西華街","SECT":" ","MAREA":" ","LANE":" ","ALLEY":" ","HOUSE_NO":"８１號十樓之１２","E_COORD97":169061.89999999999,"N_COORD97":2544503.8799999999,"ADDRESS":"西華街８１號十樓之１２","OBJECTID":488992},"geometry":{"x":169061.89999999944,"y":2544503.879999999}},{"attributes":{"ID":489018,"DIS_CODE":0,"TOWNNAME":"北區","LI":"公園里","LIN":"13鄰","STREET":"西華街","SECT":" ","MAREA":" ","LANE":" ","ALLEY":" ","HOUSE_NO":"８１號十樓之２","E_COORD97":169061.89999999999,"N_COORD97":2544503.8799999999,"ADDRESS":"西華街８１號十樓之２","OBJECTID":488993},"geometry":{"x":169061.89999999944,"y":2544503.879999999}},{"attributes":{"ID":489019,"DIS_CODE":0,"TOWNNAME":"北區","LI":"公園里","LIN":"13鄰","STREET":"西華街","SECT":" ","MAREA":" ","LANE":" ","ALLEY":" ","HOUSE_NO":"８１號十樓之３","E_COORD97":169061.89999999999,"N_COORD97":2544503.8799999999,"ADDRESS":"西華街８１號十樓之３","OBJECTID":488994},"geometry":{"x":169061.89999999944,"y":2544503.879999999}},{"attributes":{"ID":489020,"DIS_CODE":0,"TOWNNAME":"北區","LI":"公園里","LIN":"13鄰","STREET":"西華街","SECT":" ","MAREA":" ","LANE":" ","ALLEY":" ","HOUSE_NO":"８１號十樓之４","E_COORD97":169061.89999999999,"N_COORD97":2544503.8799999999,"ADDRESS":"西華街８１號十樓之４","OBJECTID":488995},"geometry":{"x":169061.89999999944,"y":2544503.879999999}},{"attributes":{"ID":489021,"DIS_CODE":0,"TOWNNAME":"北區","LI":"公園里","LIN":"13鄰","STREET":"西華街","SECT":" ","MAREA":" ","LANE":" ","ALLEY":" ","HOUSE_NO":"８１號十樓之５","E_COORD97":169061.89999999999,"N_COORD97":2544503.8799999999,"ADDRESS":"西華街８１號十樓之５","OBJECTID":488996},"geometry":{"x":169061.89999999944,"y":2544503.879999999}},{"attributes":{"ID":489022,"DIS_CODE":0,"TOWNNAME":"北區","LI":"公園里","LIN":"13鄰","STREET":"西華街","SECT":" ","MAREA":" ","LANE":" ","ALLEY":" ","HOUSE_NO":"８１號十樓之６","E_COORD97":169061.89999999999,"N_COORD97":2544503.8799999999,"ADDRESS":"西華街８１號十樓之６","OBJECTID":488997},"geometry":{"x":169061.89999999944,"y":2544503.879999999}},{"attributes":{"ID":489023,"DIS_CODE":0,"TOWNNAME":"北區","LI":"公園里","LIN":"13鄰","STREET":"西華街","SECT":" ","MAREA":" ","LANE":" ","ALLEY":" ","HOUSE_NO":"８１號十樓之７","E_COORD97":169061.89999999999,"N_COORD97":2544503.8799999999,"ADDRESS":"西華街８１號十樓之７","OBJECTID":488998},"geometry":{"x":169061.89999999944,"y":2544503.879999999}},{"attributes":{"ID":489024,"DIS_CODE":0,"TOWNNAME":"北區","LI":"公園里","LIN":"13鄰","STREET":"西華街","SECT":" ","MAREA":" ","LANE":" ","ALLEY":" ","HOUSE_NO":"８１號十樓之８","E_COORD97":169061.89999999999,"N_COORD97":2544503.8799999999,"ADDRESS":"西華街８１號十樓之８","OBJECTID":488999},"geometry":{"x":169061.89999999944,"y":2544503.879999999}},{"attributes":{"ID":489025,"DIS_CODE":0,"TOWNNAME":"北區","LI":"公園里","LIN":"13鄰","STREET":"西華街","SECT":" ","MAREA":" ","LANE":" ","ALLEY":" ","HOUSE_NO":"８１號十樓之９","E_COORD97":169061.89999999999,"N_COORD97":2544503.8799999999,"ADDRESS":"西華街８１號十樓之９","OBJECTID":489000},"geometry":{"x":169061.89999999944,"y":2544503.879999999}}]}