{"displayFieldName":"TOWNNAME","fieldAliases":{"ID":"ID","DIS_CODE":"DIS_CODE","TOWNNAME":"TOWNNAME","LI":"LI","LIN":"LIN","STREET":"STREET","SECT":"SECT","MAREA":"MAREA","LANE":"LANE","ALLEY":"ALLEY","HOUSE_NO":"HOUSE_NO","E_COORD97":"E_COORD97","N_COORD97":"N_COORD97","ADDRESS":"ADDRESS","OBJECTID":"OBJECTID"},"geometryType":"esriGeometryPoint","spatialReference":{"wkid":102443,"latestWkid":3826},"fields":[{"name":"ID","type":"esriFieldTypeDouble","alias":"ID"},{"name":"DIS_CODE","type":"esriFieldTypeInteger","alias":"DIS_CODE"},{"name":"TOWNNAME","type":"esriFieldTypeString","alias":"TOWNNAME","length":8},{"name":"LI","type":"esriFieldTypeString","alias":"LI","length":8},{"name":"LIN","type":"esriFieldTypeString","alias":"LIN","length":12},{"name":"STREET","type":"esriFieldTypeString","alias":"STREET","length":20},{"name":"SECT","type":"esriFieldTypeString","alias":"SECT","length":8},{"name":"MAREA","type":"esriFieldTypeString","alias":"MAREA","length":12},{"name":"LANE","type":"esriFieldTypeString","alias":"LANE","length":10},{"name":"ALLEY","type":"esriFieldTypeString","alias":"ALLEY","length":10},{"name":"HOUSE_NO","type":"esriFieldTypeString","alias":"HOUSE_NO","length":20},{"name":"E_COORD97","type":"esriFieldTypeDouble","alias":"E_COORD97"},{"name":"N_COORD97","type":"esriFieldTypeDouble","alias":"N_COORD97"},{"name":"ADDRESS","type":"esriFieldTypeString","alias":"ADDRESS","length":50},{"name":"OBJECTID","type":"esriFieldTypeOID","alias":"OBJECTID"}],"features":[{"attributes":{"ID":132801,"DIS_CODE":0,"TOWNNAME":"歸仁區","LI":"七甲里","LIN":"11鄰","STREET":"南丁路","SECT":" ","MAREA":" ","LANE":"７８巷","ALLEY":"１１８弄","HOUSE_NO":"３號","E_COORD97":176528.64000000001,"N_COORD97":2541701.25,"ADDRESS":"南丁路７８巷１１８弄３號","OBJECTID":132801},"geometry":{"x":176528.64000000153,"y":2541701.2500000019}},{"attributes":{"ID":132802,"DIS_CODE":0,"TOWNNAME":"歸仁區","LI":"七甲里","LIN":"11鄰","STREET":"南丁路","SECT":" ","MAREA":" ","LANE":"７８巷","ALLEY":"１１８弄","HOUSE_NO":"２號","E_COORD97":176516.54000000001,"N_COORD97":2541732.25,"ADDRESS":"南丁路７８巷１１８弄２號","OBJECTID":132802},"geometry":{"x":176516.54000000097,"y":2541732.2500000019}},{"attributes":{"ID":132803,"DIS_CODE":0,"TOWNNAME":"歸仁區","LI":"大廟里","LIN":"11鄰","STREET":"大廟五街","SECT":" ","MAREA":" ","LANE":"２６巷","ALLEY":"１８弄","HOUSE_NO":"８號","E_COORD97":176004.73000000001,"N_COORD97":2544160.0899999999,"ADDRESS":"大廟五街２６巷１８弄８號","OBJECTID":132803},"geometry":{"x":176004.73000000045,"y":2544160.0900000017}},{"attributes":{"ID":132804,"DIS_CODE":0,"TOWNNAME":"歸仁區","LI":"大廟里","LIN":"11鄰","STREET":"大廟五街","SECT":" ","MAREA":" ","LANE":"２６巷","ALLEY":"１８弄","HOUSE_NO":"６號","E_COORD97":176000.63,"N_COORD97":2544161.0899999999,"ADDRESS":"大廟五街２６巷１８弄６號","OBJECTID":132804},"geometry":{"x":176000.63000000082,"y":2544161.0899999999}},{"attributes":{"ID":132805,"DIS_CODE":0,"TOWNNAME":"歸仁區","LI":"大廟里","LIN":"11鄰","STREET":"大廟五街","SECT":" ","MAREA":" ","LANE":"２６巷","ALLEY":"１８弄","HOUSE_NO":"５號","E_COORD97":176011.42999999999,"N_COORD97":2544167.9900000002,"ADDRESS":"大廟五街２６巷１８弄５號","OBJECTID":132805},"geometry":{"x":176011.43000000156,"y":2544167.9900000021}},{"attributes":{"ID":132806,"DIS_CODE":0,"TOWNNAME":"歸仁區","LI":"大廟里","LIN":"11鄰","STREET":"大廟五街","SECT":" ","MAREA":" ","LANE":"２６巷","ALLEY":"１８弄","HOUSE_NO":"１號","E_COORD97":176000.23000000001,"N_COORD97":2544171.9900000002,"ADDRESS":"大廟五街２６巷１８弄１號","OBJECTID":132806},"geometry":{"x":176000.23000000138,"y":2544171.9900000021}},{"attributes":{"ID":132807,"DIS_CODE":0,"TOWNNAME":"柳營區","LI":"東昇里","LIN":"11鄰","STREET":"十美街","SECT":" ","MAREA":" ","LANE":"２４９巷","ALLEY":"１弄","HOUSE_NO":"１號","E_COORD97":180189.37,"N_COORD97":2575507.4199999999,"ADDRESS":"十美街２４９巷１弄１號","OBJECTID":132807},"geometry":{"x":180189.37000000104,"y":2575507.4199999999}},{"attributes":{"ID":132808,"DIS_CODE":0,"TOWNNAME":"新營區","LI":"嘉芳里","LIN":"11鄰","STREET":"復興路","SECT":" ","MAREA":" ","LANE":"８０３巷","ALLEY":"４弄","HOUSE_NO":"６號","E_COORD97":177078.28,"N_COORD97":2578561.3399999999,"ADDRESS":"復興路８０３巷４弄６號","OBJECTID":132808},"geometry":{"x":177078.28000000119,"y":2578561.3399999999}},{"attributes":{"ID":132809,"DIS_CODE":0,"TOWNNAME":"南區","LI":"大恩里","LIN":"11鄰","STREET":"大同路","SECT":"二段","MAREA":" ","LANE":"７５０巷","ALLEY":"１０６弄","HOUSE_NO":"２號","E_COORD97":169248.98999999999,"N_COORD97":2540739.8799999999,"ADDRESS":"大同路二段７５０巷１０６弄２號","OBJECTID":132809},"geometry":{"x":169248.99000000022,"y":2540739.8800000008}},{"attributes":{"ID":132810,"DIS_CODE":0,"TOWNNAME":"南區","LI":"大恩里","LIN":"11鄰","STREET":"大同路","SECT":"二段","MAREA":" ","LANE":"７５０巷","ALLEY":"１０６弄","HOUSE_NO":"３號","E_COORD97":169243.41,"N_COORD97":2540739.0299999998,"ADDRESS":"大同路二段７５０巷１０６弄３號","OBJECTID":132810},"geometry":{"x":169243.41000000108,"y":2540739.0300000012}},{"attributes":{"ID":132811,"DIS_CODE":0,"TOWNNAME":"南區","LI":"大恩里","LIN":"11鄰","STREET":"大同路","SECT":"二段","MAREA":" ","LANE":"７５０巷","ALLEY":"１０６弄","HOUSE_NO":"４號","E_COORD97":169237.5,"N_COORD97":2540738.1699999999,"ADDRESS":"大同路二段７５０巷１０６弄４號","OBJECTID":132811},"geometry":{"x":169237.50000000093,"y":2540738.1700000018}},{"attributes":{"ID":132812,"DIS_CODE":0,"TOWNNAME":"南區","LI":"大恩里","LIN":"11鄰","STREET":"大同路","SECT":"二段","MAREA":" ","LANE":"７５０巷","ALLEY":"１０６弄","HOUSE_NO":"５號","E_COORD97":169231.92000000001,"N_COORD97":2540738.1699999999,"ADDRESS":"大同路二段７５０巷１０６弄５號","OBJECTID":132812},"geometry":{"x":169231.91999999993,"y":2540738.1700000018}},{"attributes":{"ID":132813,"DIS_CODE":0,"TOWNNAME":"南區","LI":"大恩里","LIN":"11鄰","STREET":"大同路","SECT":"二段","MAREA":" ","LANE":"７５０巷","ALLEY":"１０６弄","HOUSE_NO":"６號","E_COORD97":169226.54999999999,"N_COORD97":2540737.52,"ADDRESS":"大同路二段７５０巷１０６弄６號","OBJECTID":132813},"geometry":{"x":169226.55000000168,"y":2540737.5199999996}},{"attributes":{"ID":132814,"DIS_CODE":0,"TOWNNAME":"南區","LI":"大恩里","LIN":"11鄰","STREET":"大同路","SECT":"二段","MAREA":" ","LANE":"７５０巷","ALLEY":"１０６弄","HOUSE_NO":"７號","E_COORD97":169221.92999999999,"N_COORD97":2540737.3100000001,"ADDRESS":"大同路二段７５０巷１０６弄７號","OBJECTID":132814},"geometry":{"x":169221.9299999997,"y":2540737.3100000042}},{"attributes":{"ID":132815,"DIS_CODE":0,"TOWNNAME":"南區","LI":"大恩里","LIN":"11鄰","STREET":"大同路","SECT":"二段","MAREA":" ","LANE":"７５０巷","ALLEY":"１０６弄","HOUSE_NO":"８號","E_COORD97":169216.67000000001,"N_COORD97":2540736.02,"ADDRESS":"大同路二段７５０巷１０６弄８號","OBJECTID":132815},"geometry":{"x":169216.66999999993,"y":2540736.0200000014}},{"attributes":{"ID":132816,"DIS_CODE":0,"TOWNNAME":"南區","LI":"大恩里","LIN":"11鄰","STREET":"國民路","SECT":" ","MAREA":" ","LANE":"１６５巷","ALLEY":"２１弄","HOUSE_NO":"２５號","E_COORD97":169262.98999999999,"N_COORD97":2540800.8999999999,"ADDRESS":"國民路１６５巷２１弄２５號","OBJECTID":132816},"geometry":{"x":169262.99000000209,"y":2540800.8999999985}},{"attributes":{"ID":132817,"DIS_CODE":0,"TOWNNAME":"南區","LI":"大恩里","LIN":"11鄰","STREET":"國民路","SECT":" ","MAREA":" ","LANE":"１６５巷","ALLEY":"２１弄","HOUSE_NO":"２６號","E_COORD97":169259.66,"N_COORD97":2540781.23,"ADDRESS":"國民路１６５巷２１弄２６號","OBJECTID":132817},"geometry":{"x":169259.66000000015,"y":2540781.2300000004}},{"attributes":{"ID":132818,"DIS_CODE":0,"TOWNNAME":"南區","LI":"大恩里","LIN":"11鄰","STREET":"國民路","SECT":" ","MAREA":" ","LANE":"１６５巷","ALLEY":"２１弄","HOUSE_NO":"２７號","E_COORD97":169268.35999999999,"N_COORD97":2540799.5,"ADDRESS":"國民路１６５巷２１弄２７號","OBJECTID":132818},"geometry":{"x":169268.36000000034,"y":2540799.5}},{"attributes":{"ID":132819,"DIS_CODE":0,"TOWNNAME":"南區","LI":"大恩里","LIN":"11鄰","STREET":"國民路","SECT":" ","MAREA":" ","LANE":"１６５巷","ALLEY":"２１弄","HOUSE_NO":"２８號","E_COORD97":169264.48999999999,"N_COORD97":2540779.73,"ADDRESS":"國民路１６５巷２１弄２８號","OBJECTID":132819},"geometry":{"x":169264.48999999929,"y":2540779.7300000023}},{"attributes":{"ID":132820,"DIS_CODE":0,"TOWNNAME":"南區","LI":"大恩里","LIN":"11鄰","STREET":"國民路","SECT":" ","MAREA":" ","LANE":"１６５巷","ALLEY":"２１弄","HOUSE_NO":"３０號","E_COORD97":169269.85999999999,"N_COORD97":2540777.9100000001,"ADDRESS":"國民路１６５巷２１弄３０號","OBJECTID":132820},"geometry":{"x":169269.86000000127,"y":2540777.910000002}},{"attributes":{"ID":132821,"DIS_CODE":0,"TOWNNAME":"南區","LI":"大恩里","LIN":"11鄰","STREET":"國民路","SECT":" ","MAREA":" ","LANE":"１６５巷","ALLEY":"２１弄","HOUSE_NO":"３１號","E_COORD97":169277.70000000001,"N_COORD97":2540796.1800000002,"ADDRESS":"國民路１６５巷２１弄３１號","OBJECTID":132821},"geometry":{"x":169277.70000000019,"y":2540796.1800000016}},{"attributes":{"ID":132822,"DIS_CODE":0,"TOWNNAME":"南區","LI":"大恩里","LIN":"11鄰","STREET":"國民路","SECT":" ","MAREA":" ","LANE":"１６５巷","ALLEY":"２１弄","HOUSE_NO":"３２號","E_COORD97":169274.04999999999,"N_COORD97":2540776.8399999999,"ADDRESS":"國民路１６５巷２１弄３２號","OBJECTID":132822},"geometry":{"x":169274.05000000168,"y":2540776.8399999999}},{"attributes":{"ID":132823,"DIS_CODE":0,"TOWNNAME":"南區","LI":"大恩里","LIN":"11鄰","STREET":"國民路","SECT":" ","MAREA":" ","LANE":"１６５巷","ALLEY":"２１弄","HOUSE_NO":"３３號","E_COORD97":169282.85000000001,"N_COORD97":2540794.7799999998,"ADDRESS":"國民路１６５巷２１弄３３號","OBJECTID":132823},"geometry":{"x":169282.84999999963,"y":2540794.7800000012}},{"attributes":{"ID":132824,"DIS_CODE":0,"TOWNNAME":"南區","LI":"大恩里","LIN":"11鄰","STREET":"國民路","SECT":" ","MAREA":" ","LANE":"１６５巷","ALLEY":"２１弄","HOUSE_NO":"３４號","E_COORD97":169279.51999999999,"N_COORD97":2540775.4399999999,"ADDRESS":"國民路１６５巷２１弄３４號","OBJECTID":132824},"geometry":{"x":169279.52000000048,"y":2540775.4399999995}},{"attributes":{"ID":132825,"DIS_CODE":0,"TOWNNAME":"南區","LI":"大恩里","LIN":"11鄰","STREET":"國民路","SECT":" ","MAREA":" ","LANE":"１６５巷","ALLEY":"２１弄","HOUSE_NO":"３５號","E_COORD97":169288.54000000001,"N_COORD97":2540793.0699999998,"ADDRESS":"國民路１６５巷２１弄３５號","OBJECTID":132825},"geometry":{"x":169288.54000000097,"y":2540793.070000004}},{"attributes":{"ID":132826,"DIS_CODE":0,"TOWNNAME":"南區","LI":"大恩里","LIN":"11鄰","STREET":"國民路","SECT":" ","MAREA":" ","LANE":"１６５巷","ALLEY":"２１弄","HOUSE_NO":"３６號","E_COORD97":169283.28,"N_COORD97":2540773.29,"ADDRESS":"國民路１６５巷２１弄３６號","OBJECTID":132826},"geometry":{"x":169283.28000000119,"y":2540773.2900000028}},{"attributes":{"ID":132827,"DIS_CODE":0,"TOWNNAME":"南區","LI":"大恩里","LIN":"11鄰","STREET":"國民路","SECT":" ","MAREA":" ","LANE":"１６５巷","ALLEY":"２１弄","HOUSE_NO":"３７號","E_COORD97":169293.37,"N_COORD97":2540791.5600000001,"ADDRESS":"國民路１６５巷２１弄３７號","OBJECTID":132827},"geometry":{"x":169293.37000000011,"y":2540791.5600000024}},{"attributes":{"ID":132828,"DIS_CODE":0,"TOWNNAME":"南區","LI":"大恩里","LIN":"11鄰","STREET":"國民路","SECT":" ","MAREA":" ","LANE":"１６５巷","ALLEY":"２１弄","HOUSE_NO":"３８號","E_COORD97":169288.42999999999,"N_COORD97":2540772.2200000002,"ADDRESS":"國民路１６５巷２１弄３８號","OBJECTID":132828},"geometry":{"x":169288.43000000063,"y":2540772.2200000044}},{"attributes":{"ID":132829,"DIS_CODE":0,"TOWNNAME":"南區","LI":"大恩里","LIN":"11鄰","STREET":"國民路","SECT":" ","MAREA":" ","LANE":"１６５巷","ALLEY":"２１弄","HOUSE_NO":"３９號","E_COORD97":169298.64000000001,"N_COORD97":2540789.7400000002,"ADDRESS":"國民路１６５巷２１弄３９號","OBJECTID":132829},"geometry":{"x":169298.64000000153,"y":2540789.7400000021}},{"attributes":{"ID":132830,"DIS_CODE":0,"TOWNNAME":"南區","LI":"大恩里","LIN":"11鄰","STREET":"國民路","SECT":" ","MAREA":" ","LANE":"１６５巷","ALLEY":"２１弄","HOUSE_NO":"４０號","E_COORD97":169293.04999999999,"N_COORD97":2540770.5099999998,"ADDRESS":"國民路１６５巷２１弄４０號","OBJECTID":132830},"geometry":{"x":169293.05000000075,"y":2540770.5100000016}},{"attributes":{"ID":132831,"DIS_CODE":0,"TOWNNAME":"南區","LI":"大恩里","LIN":"11鄰","STREET":"國民路","SECT":" ","MAREA":" ","LANE":"１６５巷","ALLEY":"２１弄","HOUSE_NO":"４１號","E_COORD97":169304,"N_COORD97":2540788.02,"ADDRESS":"國民路１６５巷２１弄４１號","OBJECTID":132831},"geometry":{"x":169304.00000000093,"y":2540788.0199999996}},{"attributes":{"ID":132832,"DIS_CODE":0,"TOWNNAME":"南區","LI":"大恩里","LIN":"11鄰","STREET":"國民路","SECT":" ","MAREA":" ","LANE":"１６５巷","ALLEY":"２１弄","HOUSE_NO":"４２號","E_COORD97":169298.20999999999,"N_COORD97":2540768.8999999999,"ADDRESS":"國民路１６５巷２１弄４２號","OBJECTID":132832},"geometry":{"x":169298.20999999996,"y":2540768.9000000004}},{"attributes":{"ID":132833,"DIS_CODE":0,"TOWNNAME":"新營區","LI":"新北里","LIN":"11鄰","STREET":"三興街","SECT":" ","MAREA":" ","LANE":"３０１巷","ALLEY":"６４弄","HOUSE_NO":"２號","E_COORD97":179176.73000000001,"N_COORD97":2579735.02,"ADDRESS":"三興街３０１巷６４弄２號","OBJECTID":132833},"geometry":{"x":179176.73000000231,"y":2579735.0200000014}},{"attributes":{"ID":132834,"DIS_CODE":0,"TOWNNAME":"新營區","LI":"南紙里","LIN":"11鄰","STREET":"太子路","SECT":" ","MAREA":" ","LANE":"２００巷","ALLEY":"１７弄","HOUSE_NO":"３９號","E_COORD97":177815.85000000001,"N_COORD97":2577887.71,"ADDRESS":"太子路２００巷１７弄３９號","OBJECTID":132834},"geometry":{"x":177815.85000000056,"y":2577887.7100000028}},{"attributes":{"ID":132835,"DIS_CODE":0,"TOWNNAME":"新營區","LI":"嘉芳里","LIN":"11鄰","STREET":"復興路","SECT":" ","MAREA":" ","LANE":"８０３巷","ALLEY":"４弄","HOUSE_NO":"３之５號","E_COORD97":177077.63,"N_COORD97":2578527.0699999998,"ADDRESS":"復興路８０３巷４弄３之５號","OBJECTID":132835},"geometry":{"x":177077.62999999989,"y":2578527.0700000003}},{"attributes":{"ID":132836,"DIS_CODE":0,"TOWNNAME":"新營區","LI":"嘉芳里","LIN":"11鄰","STREET":"復興路","SECT":" ","MAREA":" ","LANE":"８０３巷","ALLEY":"４弄","HOUSE_NO":"１之８號","E_COORD97":177089.75,"N_COORD97":2578515.9399999999,"ADDRESS":"復興路８０３巷４弄１之８號","OBJECTID":132836},"geometry":{"x":177089.75000000093,"y":2578515.9400000013}},{"attributes":{"ID":132837,"DIS_CODE":0,"TOWNNAME":"新營區","LI":"嘉芳里","LIN":"11鄰","STREET":"復興路","SECT":" ","MAREA":" ","LANE":"８０３巷","ALLEY":"４弄","HOUSE_NO":"１之１０號","E_COORD97":177091.98999999999,"N_COORD97":2578508.1699999999,"ADDRESS":"復興路８０３巷４弄１之１０號","OBJECTID":132837},"geometry":{"x":177091.99000000115,"y":2578508.1700000018}},{"attributes":{"ID":132838,"DIS_CODE":0,"TOWNNAME":"新營區","LI":"南紙里","LIN":"11鄰","STREET":"太子路","SECT":" ","MAREA":" ","LANE":"２００巷","ALLEY":"１７弄","HOUSE_NO":"７號","E_COORD97":177856.54999999999,"N_COORD97":2577899.7000000002,"ADDRESS":"太子路２００巷１７弄７號","OBJECTID":132838},"geometry":{"x":177856.54999999981,"y":2577899.7000000011}},{"attributes":{"ID":132839,"DIS_CODE":0,"TOWNNAME":"新營區","LI":"嘉芳里","LIN":"11鄰","STREET":"復興路","SECT":" ","MAREA":" ","LANE":"８０３巷","ALLEY":"４弄","HOUSE_NO":"３之１２號","E_COORD97":177082.82999999999,"N_COORD97":2578499.3599999999,"ADDRESS":"復興路８０３巷４弄３之１２號","OBJECTID":132839},"geometry":{"x":177082.83000000101,"y":2578499.3600000013}},{"attributes":{"ID":132840,"DIS_CODE":0,"TOWNNAME":"新營區","LI":"新東里","LIN":"11鄰","STREET":"東仁街","SECT":" ","MAREA":" ","LANE":"４３巷","ALLEY":"１６弄","HOUSE_NO":"２０號","E_COORD97":181238.73000000001,"N_COORD97":2579705.3700000001,"ADDRESS":"東仁街４３巷１６弄２０號","OBJECTID":132840},"geometry":{"x":181238.73000000138,"y":2579705.370000001}},{"attributes":{"ID":132841,"DIS_CODE":0,"TOWNNAME":"南化區","LI":"小崙里","LIN":"6鄰","STREET":" ","SECT":" ","MAREA":"小崙","LANE":" ","ALLEY":" ","HOUSE_NO":"５９號之１","E_COORD97":197515.79999999999,"N_COORD97":2550043.7999999998,"ADDRESS":"小崙５９號之１","OBJECTID":132841},"geometry":{"x":197515.80000000168,"y":2550043.8000000007}},{"attributes":{"ID":132842,"DIS_CODE":0,"TOWNNAME":"南化區","LI":"西埔里","LIN":"6鄰","STREET":" ","SECT":" ","MAREA":"西埔","LANE":" ","ALLEY":" ","HOUSE_NO":"４４號","E_COORD97":194492.34,"N_COORD97":2548303.75,"ADDRESS":"西埔４４號","OBJECTID":132842},"geometry":{"x":194492.33999999985,"y":2548303.75}},{"attributes":{"ID":132843,"DIS_CODE":0,"TOWNNAME":"南化區","LI":"南化里","LIN":"10鄰","STREET":" ","SECT":" ","MAREA":"南化","LANE":" ","ALLEY":" ","HOUSE_NO":"２０９之１號","E_COORD97":196557.84,"N_COORD97":2549188.7999999998,"ADDRESS":"南化２０９之１號","OBJECTID":132843},"geometry":{"x":196557.84000000171,"y":2549188.8000000007}},{"attributes":{"ID":132844,"DIS_CODE":0,"TOWNNAME":"南化區","LI":"小崙里","LIN":"4鄰","STREET":" ","SECT":" ","MAREA":"小崙","LANE":" ","ALLEY":" ","HOUSE_NO":"３９之３號","E_COORD97":197174.07000000001,"N_COORD97":2551264.7999999998,"ADDRESS":"小崙３９之３號","OBJECTID":132844},"geometry":{"x":197174.07000000123,"y":2551264.8000000045}},{"attributes":{"ID":132845,"DIS_CODE":0,"TOWNNAME":"南化區","LI":"小崙里","LIN":"4鄰","STREET":" ","SECT":" ","MAREA":"小崙","LANE":" ","ALLEY":" ","HOUSE_NO":"３８之３號","E_COORD97":197017.67000000001,"N_COORD97":2551075.7999999998,"ADDRESS":"小崙３８之３號","OBJECTID":132845},"geometry":{"x":197017.66999999993,"y":2551075.8000000026}},{"attributes":{"ID":132846,"DIS_CODE":0,"TOWNNAME":"南化區","LI":"小崙里","LIN":"4鄰","STREET":" ","SECT":" ","MAREA":"小崙","LANE":" ","ALLEY":" ","HOUSE_NO":"３７號之１","E_COORD97":197054.60000000001,"N_COORD97":2550924.7999999998,"ADDRESS":"小崙３７號之１","OBJECTID":132846},"geometry":{"x":197054.60000000056,"y":2550924.8000000007}},{"attributes":{"ID":132847,"DIS_CODE":0,"TOWNNAME":"南化區","LI":"玉山里","LIN":"13鄰","STREET":" ","SECT":" ","MAREA":"玉山","LANE":" ","ALLEY":" ","HOUSE_NO":"１５２號之７","E_COORD97":203448.63,"N_COORD97":2551968.7999999998,"ADDRESS":"玉山１５２號之７","OBJECTID":132847},"geometry":{"x":203448.63000000175,"y":2551968.8000000007}},{"attributes":{"ID":132848,"DIS_CODE":0,"TOWNNAME":"南化區","LI":"玉山里","LIN":"13鄰","STREET":" ","SECT":" ","MAREA":"玉山","LANE":" ","ALLEY":" ","HOUSE_NO":"１５２號之５","E_COORD97":203429.81,"N_COORD97":2552538.7999999998,"ADDRESS":"玉山１５２號之５","OBJECTID":132848},"geometry":{"x":203429.80999999959,"y":2552538.8000000007}},{"attributes":{"ID":132849,"DIS_CODE":0,"TOWNNAME":"南化區","LI":"玉山里","LIN":"14鄰","STREET":" ","SECT":" ","MAREA":"玉山","LANE":" ","ALLEY":" ","HOUSE_NO":"１５７號","E_COORD97":203437.72,"N_COORD97":2553598.75,"ADDRESS":"玉山１５７號","OBJECTID":132849},"geometry":{"x":203437.72000000067,"y":2553598.75}},{"attributes":{"ID":132850,"DIS_CODE":0,"TOWNNAME":"南化區","LI":"關山里","LIN":"8鄰","STREET":" ","SECT":" ","MAREA":"西阿里關","LANE":" ","ALLEY":" ","HOUSE_NO":"１７６號","E_COORD97":211107.89000000001,"N_COORD97":2566094.75,"ADDRESS":"西阿里關１７６號","OBJECTID":132850},"geometry":{"x":211107.8900000006,"y":2566094.7500000019}},{"attributes":{"ID":132851,"DIS_CODE":0,"TOWNNAME":"南化區","LI":"關山里","LIN":"8鄰","STREET":" ","SECT":" ","MAREA":"西阿里關","LANE":" ","ALLEY":" ","HOUSE_NO":"１７０之１號","E_COORD97":211066.09,"N_COORD97":2565260.7999999998,"ADDRESS":"西阿里關１７０之１號","OBJECTID":132851},"geometry":{"x":211066.08999999985,"y":2565260.8000000026}},{"attributes":{"ID":132852,"DIS_CODE":0,"TOWNNAME":"南化區","LI":"關山里","LIN":"8鄰","STREET":" ","SECT":" ","MAREA":"西阿里關","LANE":" ","ALLEY":" ","HOUSE_NO":"１７２號","E_COORD97":212124.09,"N_COORD97":2565528.75,"ADDRESS":"西阿里關１７２號","OBJECTID":132852},"geometry":{"x":212124.08999999985,"y":2565528.7500000019}},{"attributes":{"ID":132853,"DIS_CODE":0,"TOWNNAME":"南化區","LI":"西埔里","LIN":"1鄰","STREET":" ","SECT":" ","MAREA":"西埔","LANE":" ","ALLEY":" ","HOUSE_NO":"３號之２","E_COORD97":196951.56,"N_COORD97":2548247.7999999998,"ADDRESS":"西埔３號之２","OBJECTID":132853},"geometry":{"x":196951.56000000052,"y":2548247.8000000026}},{"attributes":{"ID":132854,"DIS_CODE":0,"TOWNNAME":"南化區","LI":"西埔里","LIN":"6鄰","STREET":" ","SECT":" ","MAREA":"西埔","LANE":" ","ALLEY":" ","HOUSE_NO":"４５號","E_COORD97":194501.34,"N_COORD97":2548274.75,"ADDRESS":"西埔４５號","OBJECTID":132854},"geometry":{"x":194501.33999999985,"y":2548274.7500000019}},{"attributes":{"ID":132855,"DIS_CODE":0,"TOWNNAME":"南化區","LI":"小崙里","LIN":"6鄰","STREET":" ","SECT":" ","MAREA":"小崙","LANE":" ","ALLEY":" ","HOUSE_NO":"６０號","E_COORD97":197596.17000000001,"N_COORD97":2550020.75,"ADDRESS":"小崙６０號","OBJECTID":132855},"geometry":{"x":197596.16999999993,"y":2550020.7500000019}},{"attributes":{"ID":132856,"DIS_CODE":0,"TOWNNAME":"南化區","LI":"南化里","LIN":"10鄰","STREET":" ","SECT":" ","MAREA":"南化","LANE":" ","ALLEY":" ","HOUSE_NO":"２１４號","E_COORD97":196558.23999999999,"N_COORD97":2549193.75,"ADDRESS":"南化２１４號","OBJECTID":132856},"geometry":{"x":196558.24000000022,"y":2549193.7500000019}},{"attributes":{"ID":132857,"DIS_CODE":0,"TOWNNAME":"南化區","LI":"南化里","LIN":"10鄰","STREET":" ","SECT":" ","MAREA":"南化","LANE":" ","ALLEY":" ","HOUSE_NO":"２０８號","E_COORD97":196548.84,"N_COORD97":2549176.7400000002,"ADDRESS":"南化２０８號","OBJECTID":132857},"geometry":{"x":196548.83999999985,"y":2549176.7400000021}},{"attributes":{"ID":132858,"DIS_CODE":0,"TOWNNAME":"南化區","LI":"南化里","LIN":"11鄰","STREET":" ","SECT":" ","MAREA":"南化","LANE":" ","ALLEY":" ","HOUSE_NO":"２１９號之１","E_COORD97":196591.57000000001,"N_COORD97":2549248.7999999998,"ADDRESS":"南化２１９號之１","OBJECTID":132858},"geometry":{"x":196591.5700000003,"y":2549248.8000000026}},{"attributes":{"ID":132859,"DIS_CODE":0,"TOWNNAME":"南化區","LI":"南化里","LIN":"11鄰","STREET":" ","SECT":" ","MAREA":"南化","LANE":" ","ALLEY":" ","HOUSE_NO":"２２１號之１","E_COORD97":196637.26999999999,"N_COORD97":2549241.7999999998,"ADDRESS":"南化２２１號之１","OBJECTID":132859},"geometry":{"x":196637.26999999955,"y":2549241.8000000026}},{"attributes":{"ID":132860,"DIS_CODE":0,"TOWNNAME":"南化區","LI":"關山里","LIN":"3鄰","STREET":" ","SECT":" ","MAREA":"西阿里關","LANE":" ","ALLEY":" ","HOUSE_NO":"６５號之１","E_COORD97":208081.67999999999,"N_COORD97":2562721.7999999998,"ADDRESS":"西阿里關６５號之１","OBJECTID":132860},"geometry":{"x":208081.68000000063,"y":2562721.8000000026}},{"attributes":{"ID":132861,"DIS_CODE":0,"TOWNNAME":"南化區","LI":"小崙里","LIN":"3鄰","STREET":" ","SECT":" ","MAREA":"小崙","LANE":" ","ALLEY":" ","HOUSE_NO":"３２號","E_COORD97":197287.07000000001,"N_COORD97":2550747.75,"ADDRESS":"小崙３２號","OBJECTID":132861},"geometry":{"x":197287.0700000003,"y":2550747.75}},{"attributes":{"ID":132862,"DIS_CODE":0,"TOWNNAME":"南化區","LI":"小崙里","LIN":"4鄰","STREET":" ","SECT":" ","MAREA":"小崙","LANE":" ","ALLEY":" ","HOUSE_NO":"３９號之１","E_COORD97":197139.89999999999,"N_COORD97":2551211.7999999998,"ADDRESS":"小崙３９號之１","OBJECTID":132862},"geometry":{"x":197139.9000000013,"y":2551211.8000000026}},{"attributes":{"ID":132863,"DIS_CODE":0,"TOWNNAME":"南化區","LI":"小崙里","LIN":"4鄰","STREET":" ","SECT":" ","MAREA":"小崙","LANE":" ","ALLEY":" ","HOUSE_NO":"３８之２號","E_COORD97":197099.87,"N_COORD97":2551150.7999999998,"ADDRESS":"小崙３８之２號","OBJECTID":132863},"geometry":{"x":197099.87000000011,"y":2551150.8000000026}},{"attributes":{"ID":132864,"DIS_CODE":0,"TOWNNAME":"南化區","LI":"西埔里","LIN":"4鄰","STREET":" ","SECT":" ","MAREA":"西埔","LANE":" ","ALLEY":" ","HOUSE_NO":"３２之１號","E_COORD97":194651.44,"N_COORD97":2547936.7999999998,"ADDRESS":"西埔３２之１號","OBJECTID":132864},"geometry":{"x":194651.44000000134,"y":2547936.8000000026}},{"attributes":{"ID":132865,"DIS_CODE":0,"TOWNNAME":"南化區","LI":"南化里","LIN":"4鄰","STREET":" ","SECT":" ","MAREA":"南化","LANE":" ","ALLEY":" ","HOUSE_NO":"４９號之１０","E_COORD97":196258.63,"N_COORD97":2549259.7999999998,"ADDRESS":"南化４９號之１０","OBJECTID":132865},"geometry":{"x":196258.62999999989,"y":2549259.8000000007}},{"attributes":{"ID":132866,"DIS_CODE":0,"TOWNNAME":"南化區","LI":"南化里","LIN":"4鄰","STREET":" ","SECT":" ","MAREA":"南化","LANE":" ","ALLEY":" ","HOUSE_NO":"４９號之３","E_COORD97":196230.32000000001,"N_COORD97":2549275.7999999998,"ADDRESS":"南化４９號之３","OBJECTID":132866},"geometry":{"x":196230.32000000123,"y":2549275.8000000026}},{"attributes":{"ID":132867,"DIS_CODE":0,"TOWNNAME":"南化區","LI":"南化里","LIN":"14鄰","STREET":" ","SECT":" ","MAREA":"南化","LANE":" ","ALLEY":" ","HOUSE_NO":"２９３號之１","E_COORD97":198638.07000000001,"N_COORD97":2548313.7999999998,"ADDRESS":"南化２９３號之１","OBJECTID":132867},"geometry":{"x":198638.0700000003,"y":2548313.8000000007}},{"attributes":{"ID":132868,"DIS_CODE":0,"TOWNNAME":"南化區","LI":"關山里","LIN":"8鄰","STREET":" ","SECT":" ","MAREA":"西阿里關","LANE":" ","ALLEY":" ","HOUSE_NO":"１８１號","E_COORD97":211832.98999999999,"N_COORD97":2567508.75,"ADDRESS":"西阿里關１８１號","OBJECTID":132868},"geometry":{"x":211832.99000000115,"y":2567508.7500000019}},{"attributes":{"ID":132869,"DIS_CODE":0,"TOWNNAME":"南化區","LI":"玉山里","LIN":"7鄰","STREET":" ","SECT":" ","MAREA":"玉山","LANE":" ","ALLEY":" ","HOUSE_NO":"８３號之１","E_COORD97":200861.89999999999,"N_COORD97":2552887.7999999998,"ADDRESS":"玉山８３號之１","OBJECTID":132869},"geometry":{"x":200861.89999999944,"y":2552887.8000000007}},{"attributes":{"ID":132870,"DIS_CODE":0,"TOWNNAME":"南化區","LI":"西埔里","LIN":"7鄰","STREET":" ","SECT":" ","MAREA":"西埔","LANE":" ","ALLEY":" ","HOUSE_NO":"５７號","E_COORD97":194227.23999999999,"N_COORD97":2548283.75,"ADDRESS":"西埔５７號","OBJECTID":132870},"geometry":{"x":194227.24000000022,"y":2548283.75}},{"attributes":{"ID":132871,"DIS_CODE":0,"TOWNNAME":"南化區","LI":"西埔里","LIN":"1鄰","STREET":" ","SECT":" ","MAREA":"西埔","LANE":" ","ALLEY":" ","HOUSE_NO":"５號","E_COORD97":196326.48999999999,"N_COORD97":2548037.75,"ADDRESS":"西埔５號","OBJECTID":132871},"geometry":{"x":196326.49000000022,"y":2548037.7500000019}},{"attributes":{"ID":132872,"DIS_CODE":0,"TOWNNAME":"南化區","LI":"西埔里","LIN":"1鄰","STREET":" ","SECT":" ","MAREA":"西埔","LANE":" ","ALLEY":" ","HOUSE_NO":"５號之４","E_COORD97":196277.95000000001,"N_COORD97":2547972.7999999998,"ADDRESS":"西埔５號之４","OBJECTID":132872},"geometry":{"x":196277.95000000112,"y":2547972.8000000045}},{"attributes":{"ID":132873,"DIS_CODE":0,"TOWNNAME":"南化區","LI":"南化里","LIN":"4鄰","STREET":" ","SECT":" ","MAREA":"南化","LANE":" ","ALLEY":" ","HOUSE_NO":"４１號之３","E_COORD97":195943.12,"N_COORD97":2549332.7999999998,"ADDRESS":"南化４１號之３","OBJECTID":132873},"geometry":{"x":195943.12000000104,"y":2549332.8000000026}},{"attributes":{"ID":132874,"DIS_CODE":0,"TOWNNAME":"南化區","LI":"南化里","LIN":"4鄰","STREET":" ","SECT":" ","MAREA":"南化","LANE":" ","ALLEY":" ","HOUSE_NO":"４５號","E_COORD97":196160.29000000001,"N_COORD97":2549386.75,"ADDRESS":"南化４５號","OBJECTID":132874},"geometry":{"x":196160.29000000097,"y":2549386.7500000019}},{"attributes":{"ID":132875,"DIS_CODE":0,"TOWNNAME":"南化區","LI":"南化里","LIN":"4鄰","STREET":" ","SECT":" ","MAREA":"南化","LANE":" ","ALLEY":" ","HOUSE_NO":"４４號之１","E_COORD97":196094.42000000001,"N_COORD97":2549434.7999999998,"ADDRESS":"南化４４號之１","OBJECTID":132875},"geometry":{"x":196094.41999999899,"y":2549434.8000000026}},{"attributes":{"ID":132876,"DIS_CODE":0,"TOWNNAME":"新營區","LI":"嘉芳里","LIN":"11鄰","STREET":"復興路","SECT":" ","MAREA":" ","LANE":"８０３巷","ALLEY":"４弄","HOUSE_NO":"１之９號","E_COORD97":177089.73999999999,"N_COORD97":2578512.6099999999,"ADDRESS":"復興路８０３巷４弄１之９號","OBJECTID":132876},"geometry":{"x":177089.74000000209,"y":2578512.6099999994}},{"attributes":{"ID":132877,"DIS_CODE":0,"TOWNNAME":"南區","LI":"大恩里","LIN":"11鄰","STREET":"國民路","SECT":" ","MAREA":" ","LANE":"１６５巷","ALLEY":"３５弄","HOUSE_NO":"３５號","E_COORD97":169279.41,"N_COORD97":2540760.5600000001,"ADDRESS":"國民路１６５巷３５弄３５號","OBJECTID":132877},"geometry":{"x":169279.41000000108,"y":2540760.5600000024}},{"attributes":{"ID":132878,"DIS_CODE":0,"TOWNNAME":"南區","LI":"大恩里","LIN":"11鄰","STREET":"國民路","SECT":" ","MAREA":" ","LANE":"１６５巷","ALLEY":"３５弄","HOUSE_NO":"３６號","E_COORD97":169286.39000000001,"N_COORD97":2540737.7400000002,"ADDRESS":"國民路１６５巷３５弄３６號","OBJECTID":132878},"geometry":{"x":169286.38999999966,"y":2540737.7400000039}},{"attributes":{"ID":132879,"DIS_CODE":0,"TOWNNAME":"南區","LI":"大恩里","LIN":"11鄰","STREET":"國民路","SECT":" ","MAREA":" ","LANE":"１６５巷","ALLEY":"３５弄","HOUSE_NO":"３７號","E_COORD97":169284.78,"N_COORD97":2540759.4900000002,"ADDRESS":"國民路１６５巷３５弄３７號","OBJECTID":132879},"geometry":{"x":169284.78000000212,"y":2540759.4900000039}},{"attributes":{"ID":132880,"DIS_CODE":0,"TOWNNAME":"北區","LI":"公園里","LIN":"6鄰","STREET":"富北街","SECT":" ","MAREA":" ","LANE":" ","ALLEY":" ","HOUSE_NO":"７號五樓","E_COORD97":169138.73000000001,"N_COORD97":2544315.8599999999,"ADDRESS":"富北街７號五樓","OBJECTID":132880},"geometry":{"x":169138.73000000045,"y":2544315.8599999994}},{"attributes":{"ID":132881,"DIS_CODE":0,"TOWNNAME":"南化區","LI":"南化里","LIN":"4鄰","STREET":" ","SECT":" ","MAREA":"南化","LANE":" ","ALLEY":" ","HOUSE_NO":"４４號之２","E_COORD97":196117.66,"N_COORD97":2549447.7999999998,"ADDRESS":"南化４４號之２","OBJECTID":132881},"geometry":{"x":196117.66000000108,"y":2549447.8000000045}},{"attributes":{"ID":132882,"DIS_CODE":0,"TOWNNAME":"南化區","LI":"南化里","LIN":"4鄰","STREET":" ","SECT":" ","MAREA":"南化","LANE":" ","ALLEY":" ","HOUSE_NO":"４１號之１２","E_COORD97":195988.10999999999,"N_COORD97":2549332.7999999998,"ADDRESS":"南化４１號之１２","OBJECTID":132882},"geometry":{"x":195988.11000000034,"y":2549332.8000000026}},{"attributes":{"ID":132883,"DIS_CODE":0,"TOWNNAME":"南化區","LI":"南化里","LIN":"13鄰","STREET":" ","SECT":" ","MAREA":"南化","LANE":" ","ALLEY":" ","HOUSE_NO":"２７３號","E_COORD97":197557.73999999999,"N_COORD97":2548848.75,"ADDRESS":"南化２７３號","OBJECTID":132883},"geometry":{"x":197557.74000000115,"y":2548848.7500000019}},{"attributes":{"ID":132884,"DIS_CODE":0,"TOWNNAME":"南化區","LI":"玉山里","LIN":"13鄰","STREET":" ","SECT":" ","MAREA":"玉山","LANE":" ","ALLEY":" ","HOUSE_NO":"１４０號之１","E_COORD97":202273.85000000001,"N_COORD97":2552567.7999999998,"ADDRESS":"玉山１４０號之１","OBJECTID":132884},"geometry":{"x":202273.85000000056,"y":2552567.8000000026}},{"attributes":{"ID":132885,"DIS_CODE":0,"TOWNNAME":"南化區","LI":"南化里","LIN":"13鄰","STREET":" ","SECT":" ","MAREA":"南化","LANE":" ","ALLEY":" ","HOUSE_NO":"２８５號","E_COORD97":197856.34,"N_COORD97":2548729.75,"ADDRESS":"南化２８５號","OBJECTID":132885},"geometry":{"x":197856.34000000171,"y":2548729.7500000019}},{"attributes":{"ID":132886,"DIS_CODE":0,"TOWNNAME":"南化區","LI":"南化里","LIN":"13鄰","STREET":" ","SECT":" ","MAREA":"南化","LANE":" ","ALLEY":" ","HOUSE_NO":"２８５之２號","E_COORD97":197954.14000000001,"N_COORD97":2548685.7999999998,"ADDRESS":"南化２８５之２號","OBJECTID":132886},"geometry":{"x":197954.14000000153,"y":2548685.8000000026}},{"attributes":{"ID":132887,"DIS_CODE":0,"TOWNNAME":"南化區","LI":"中坑里","LIN":"4鄰","STREET":" ","SECT":" ","MAREA":"中坑","LANE":" ","ALLEY":" ","HOUSE_NO":"２７號之１","E_COORD97":193894.5,"N_COORD97":2549396.7999999998,"ADDRESS":"中坑２７號之１","OBJECTID":132887},"geometry":{"x":193894.50000000093,"y":2549396.8000000045}},{"attributes":{"ID":132888,"DIS_CODE":0,"TOWNNAME":"南化區","LI":"中坑里","LIN":"4鄰","STREET":" ","SECT":" ","MAREA":"中坑","LANE":" ","ALLEY":" ","HOUSE_NO":"３３號之１","E_COORD97":193799.39999999999,"N_COORD97":2549361.7999999998,"ADDRESS":"中坑３３號之１","OBJECTID":132888},"geometry":{"x":193799.40000000037,"y":2549361.8000000007}},{"attributes":{"ID":132889,"DIS_CODE":0,"TOWNNAME":"南化區","LI":"玉山里","LIN":"13鄰","STREET":" ","SECT":" ","MAREA":"玉山","LANE":" ","ALLEY":" ","HOUSE_NO":"１４８之２號","E_COORD97":202391.61976199999,"N_COORD97":2552533.63216,"ADDRESS":"玉山１４８號","OBJECTID":132889},"geometry":{"x":202391.61976200063,"y":2552533.6321590003}},{"attributes":{"ID":132890,"DIS_CODE":0,"TOWNNAME":"南化區","LI":"西埔里","LIN":"8鄰","STREET":" ","SECT":" ","MAREA":"西埔","LANE":" ","ALLEY":" ","HOUSE_NO":"６２號之３","E_COORD97":193860.07000000001,"N_COORD97":2548520.7999999998,"ADDRESS":"西埔６２號之３","OBJECTID":132890},"geometry":{"x":193860.07000000123,"y":2548520.8000000007}},{"attributes":{"ID":132891,"DIS_CODE":0,"TOWNNAME":"南化區","LI":"西埔里","LIN":"8鄰","STREET":" ","SECT":" ","MAREA":"西埔","LANE":" ","ALLEY":" ","HOUSE_NO":"７０號","E_COORD97":193586.23999999999,"N_COORD97":2547872.75,"ADDRESS":"西埔７０號","OBJECTID":132891},"geometry":{"x":193586.24000000115,"y":2547872.75}},{"attributes":{"ID":132892,"DIS_CODE":0,"TOWNNAME":"南化區","LI":"北平里","LIN":"4鄰","STREET":" ","SECT":" ","MAREA":"北平","LANE":" ","ALLEY":" ","HOUSE_NO":"４５之２號","E_COORD97":195417.79000000001,"N_COORD97":2551656.7999999998,"ADDRESS":"北平４５之２號","OBJECTID":132892},"geometry":{"x":195417.79000000097,"y":2551656.8000000007}},{"attributes":{"ID":132893,"DIS_CODE":0,"TOWNNAME":"南化區","LI":"南化里","LIN":"4鄰","STREET":" ","SECT":" ","MAREA":"南化","LANE":" ","ALLEY":" ","HOUSE_NO":"４１之１號","E_COORD97":195934.29000000001,"N_COORD97":2549333.7999999998,"ADDRESS":"南化４１之１號","OBJECTID":132893},"geometry":{"x":195934.29000000004,"y":2549333.8000000026}},{"attributes":{"ID":132894,"DIS_CODE":0,"TOWNNAME":"南化區","LI":"北平里","LIN":"4鄰","STREET":" ","SECT":" ","MAREA":"北平","LANE":" ","ALLEY":" ","HOUSE_NO":"４０號","E_COORD97":195619.48999999999,"N_COORD97":2551813.75,"ADDRESS":"北平４０號","OBJECTID":132894},"geometry":{"x":195619.49000000022,"y":2551813.7500000037}},{"attributes":{"ID":132895,"DIS_CODE":0,"TOWNNAME":"南化區","LI":"中坑里","LIN":"4鄰","STREET":" ","SECT":" ","MAREA":"中坑","LANE":" ","ALLEY":" ","HOUSE_NO":"２７號","E_COORD97":193949.06,"N_COORD97":2549440.7799999998,"ADDRESS":"中坑２７號","OBJECTID":132895},"geometry":{"x":193949.06000000052,"y":2549440.7800000012}},{"attributes":{"ID":132896,"DIS_CODE":0,"TOWNNAME":"南化區","LI":"北寮里","LIN":"1鄰","STREET":" ","SECT":" ","MAREA":"北寮","LANE":" ","ALLEY":" ","HOUSE_NO":"１９號","E_COORD97":197785.59,"N_COORD97":2553080.75,"ADDRESS":"北寮１９號","OBJECTID":132896},"geometry":{"x":197785.59000000078,"y":2553080.75}},{"attributes":{"ID":132897,"DIS_CODE":0,"TOWNNAME":"南化區","LI":"東和里","LIN":"1鄰","STREET":" ","SECT":" ","MAREA":"東和","LANE":" ","ALLEY":" ","HOUSE_NO":"１１號","E_COORD97":196230.37,"N_COORD97":2547437.75,"ADDRESS":"東和１１號","OBJECTID":132897},"geometry":{"x":196230.37000000011,"y":2547437.7500000019}},{"attributes":{"ID":132898,"DIS_CODE":0,"TOWNNAME":"南化區","LI":"北寮里","LIN":"1鄰","STREET":" ","SECT":" ","MAREA":"北寮","LANE":" ","ALLEY":" ","HOUSE_NO":"１７號","E_COORD97":197791.89000000001,"N_COORD97":2553073.75,"ADDRESS":"北寮１７號","OBJECTID":132898},"geometry":{"x":197791.8900000006,"y":2553073.75}},{"attributes":{"ID":132899,"DIS_CODE":0,"TOWNNAME":"南化區","LI":"中坑里","LIN":"4鄰","STREET":" ","SECT":" ","MAREA":"中坑","LANE":" ","ALLEY":" ","HOUSE_NO":"２９號","E_COORD97":193846.76000000001,"N_COORD97":2549461.7799999998,"ADDRESS":"中坑２９號","OBJECTID":132899},"geometry":{"x":193846.76000000071,"y":2549461.7799999993}},{"attributes":{"ID":132900,"DIS_CODE":0,"TOWNNAME":"南化區","LI":"南化里","LIN":"4鄰","STREET":" ","SECT":" ","MAREA":"南化","LANE":" ","ALLEY":" ","HOUSE_NO":"１２４號之２","E_COORD97":196457.51000000001,"N_COORD97":2549180.7999999998,"ADDRESS":"南化１２４號之２","OBJECTID":132900},"geometry":{"x":196457.50999999978,"y":2549180.8000000026}},{"attributes":{"ID":132901,"DIS_CODE":0,"TOWNNAME":"南化區","LI":"北平里","LIN":"4鄰","STREET":" ","SECT":" ","MAREA":"北平","LANE":" ","ALLEY":" ","HOUSE_NO":"３７號之２","E_COORD97":195459.56,"N_COORD97":2551791.7999999998,"ADDRESS":"北平３７號之２","OBJECTID":132901},"geometry":{"x":195459.56000000052,"y":2551791.8000000026}},{"attributes":{"ID":132902,"DIS_CODE":0,"TOWNNAME":"南化區","LI":"南化里","LIN":"4鄰","STREET":" ","SECT":" ","MAREA":"南化","LANE":" ","ALLEY":" ","HOUSE_NO":"１１９號之３","E_COORD97":196299.47,"N_COORD97":2549235.7999999998,"ADDRESS":"南化１１９號之３","OBJECTID":132902},"geometry":{"x":196299.47000000067,"y":2549235.8000000007}},{"attributes":{"ID":132903,"DIS_CODE":0,"TOWNNAME":"南化區","LI":"北平里","LIN":"4鄰","STREET":" ","SECT":" ","MAREA":"北平","LANE":" ","ALLEY":" ","HOUSE_NO":"４５號","E_COORD97":195426.89000000001,"N_COORD97":2551652.75,"ADDRESS":"北平４５號","OBJECTID":132903},"geometry":{"x":195426.8900000006,"y":2551652.75}},{"attributes":{"ID":132904,"DIS_CODE":0,"TOWNNAME":"南化區","LI":"南化里","LIN":"4鄰","STREET":" ","SECT":" ","MAREA":"南化","LANE":" ","ALLEY":" ","HOUSE_NO":"１３３號","E_COORD97":196365.34,"N_COORD97":2549148.7400000002,"ADDRESS":"南化１３３號","OBJECTID":132904},"geometry":{"x":196365.34000000078,"y":2549148.7400000002}},{"attributes":{"ID":132905,"DIS_CODE":0,"TOWNNAME":"南化區","LI":"南化里","LIN":"13鄰","STREET":" ","SECT":" ","MAREA":"南化","LANE":" ","ALLEY":" ","HOUSE_NO":"２７４號","E_COORD97":197553.04000000001,"N_COORD97":2548536.75,"ADDRESS":"南化２７４號","OBJECTID":132905},"geometry":{"x":197553.04000000004,"y":2548536.7500000019}},{"attributes":{"ID":132906,"DIS_CODE":0,"TOWNNAME":"南化區","LI":"西埔里","LIN":"13鄰","STREET":" ","SECT":" ","MAREA":"西埔","LANE":" ","ALLEY":" ","HOUSE_NO":"１６０號","E_COORD97":192566.69,"N_COORD97":2549634.75,"ADDRESS":"西埔１６０號","OBJECTID":132906},"geometry":{"x":192566.69000000041,"y":2549634.7500000019}},{"attributes":{"ID":132907,"DIS_CODE":0,"TOWNNAME":"南化區","LI":"北寮里","LIN":"14鄰","STREET":" ","SECT":" ","MAREA":"北寮","LANE":" ","ALLEY":" ","HOUSE_NO":"１８９號","E_COORD97":197742.23999999999,"N_COORD97":2552836.75,"ADDRESS":"北寮１８９號","OBJECTID":132907},"geometry":{"x":197742.24000000209,"y":2552836.75}},{"attributes":{"ID":132908,"DIS_CODE":0,"TOWNNAME":"南化區","LI":"北平里","LIN":"4鄰","STREET":" ","SECT":" ","MAREA":"北平","LANE":" ","ALLEY":" ","HOUSE_NO":"４３號之３","E_COORD97":195432.03,"N_COORD97":2551665.7999999998,"ADDRESS":"北平４３號之３","OBJECTID":132908},"geometry":{"x":195432.03000000119,"y":2551665.8000000026}},{"attributes":{"ID":132909,"DIS_CODE":0,"TOWNNAME":"南化區","LI":"北平里","LIN":"4鄰","STREET":" ","SECT":" ","MAREA":"北平","LANE":" ","ALLEY":" ","HOUSE_NO":"３９號","E_COORD97":195314.39000000001,"N_COORD97":2551928.75,"ADDRESS":"北平３９號","OBJECTID":132909},"geometry":{"x":195314.38999999966,"y":2551928.7499999981}},{"attributes":{"ID":132910,"DIS_CODE":0,"TOWNNAME":"南化區","LI":"南化里","LIN":"4鄰","STREET":" ","SECT":" ","MAREA":"南化","LANE":" ","ALLEY":" ","HOUSE_NO":"１１９號之２","E_COORD97":196295.20999999999,"N_COORD97":2549238.7999999998,"ADDRESS":"南化１１９號之２","OBJECTID":132910},"geometry":{"x":196295.20999999996,"y":2549238.8000000026}},{"attributes":{"ID":132911,"DIS_CODE":0,"TOWNNAME":"南化區","LI":"西埔里","LIN":"13鄰","STREET":" ","SECT":" ","MAREA":"西埔","LANE":" ","ALLEY":" ","HOUSE_NO":"１６３號","E_COORD97":192586.69,"N_COORD97":2549495.75,"ADDRESS":"西埔１６３號","OBJECTID":132911},"geometry":{"x":192586.69000000134,"y":2549495.7500000019}},{"attributes":{"ID":132912,"DIS_CODE":0,"TOWNNAME":"南化區","LI":"北平里","LIN":"4鄰","STREET":" ","SECT":" ","MAREA":"北平","LANE":" ","ALLEY":" ","HOUSE_NO":"４６號之１","E_COORD97":195367.42999999999,"N_COORD97":2551568.7999999998,"ADDRESS":"北平４６號之１","OBJECTID":132912},"geometry":{"x":195367.43000000063,"y":2551568.8000000007}},{"attributes":{"ID":132913,"DIS_CODE":0,"TOWNNAME":"南化區","LI":"北寮里","LIN":"13鄰","STREET":" ","SECT":" ","MAREA":"北寮","LANE":" ","ALLEY":" ","HOUSE_NO":"１７９之３號","E_COORD97":198877.23999999999,"N_COORD97":2552514.7999999998,"ADDRESS":"北寮１７９之３號","OBJECTID":132913},"geometry":{"x":198877.24000000022,"y":2552514.8000000007}},{"attributes":{"ID":132914,"DIS_CODE":0,"TOWNNAME":"南化區","LI":"西埔里","LIN":"14鄰","STREET":" ","SECT":" ","MAREA":"西埔","LANE":" ","ALLEY":" ","HOUSE_NO":"１８３號","E_COORD97":192594.98999999999,"N_COORD97":2549296.75,"ADDRESS":"西埔１８３號","OBJECTID":132914},"geometry":{"x":192594.99000000022,"y":2549296.75}},{"attributes":{"ID":132915,"DIS_CODE":0,"TOWNNAME":"南化區","LI":"北平里","LIN":"4鄰","STREET":" ","SECT":" ","MAREA":"北平","LANE":" ","ALLEY":" ","HOUSE_NO":"４１號","E_COORD97":195528.98999999999,"N_COORD97":2551741.75,"ADDRESS":"北平４１號","OBJECTID":132915},"geometry":{"x":195528.99000000115,"y":2551741.75}},{"attributes":{"ID":132916,"DIS_CODE":0,"TOWNNAME":"南化區","LI":"南化里","LIN":"4鄰","STREET":" ","SECT":" ","MAREA":"南化","LANE":" ","ALLEY":" ","HOUSE_NO":"１２４之５號","E_COORD97":196455.23999999999,"N_COORD97":2549184.7999999998,"ADDRESS":"南化１２４之５號","OBJECTID":132916},"geometry":{"x":196455.24000000022,"y":2549184.8000000026}},{"attributes":{"ID":132917,"DIS_CODE":0,"TOWNNAME":"南化區","LI":"南化里","LIN":"4鄰","STREET":" ","SECT":" ","MAREA":"南化","LANE":" ","ALLEY":" ","HOUSE_NO":"１１９號","E_COORD97":196282.64000000001,"N_COORD97":2549242.75,"ADDRESS":"南化１１９號","OBJECTID":132917},"geometry":{"x":196282.64000000153,"y":2549242.75}},{"attributes":{"ID":132918,"DIS_CODE":0,"TOWNNAME":"南化區","LI":"南化里","LIN":"4鄰","STREET":" ","SECT":" ","MAREA":"南化","LANE":" ","ALLEY":" ","HOUSE_NO":"１３４號","E_COORD97":196366.94,"N_COORD97":2549143.75,"ADDRESS":"南化１３４號","OBJECTID":132918},"geometry":{"x":196366.94000000134,"y":2549143.75}},{"attributes":{"ID":132919,"DIS_CODE":0,"TOWNNAME":"南化區","LI":"北平里","LIN":"4鄰","STREET":" ","SECT":" ","MAREA":"北平","LANE":" ","ALLEY":" ","HOUSE_NO":"３７號","E_COORD97":195482.39000000001,"N_COORD97":2551822.75,"ADDRESS":"北平３７號","OBJECTID":132919},"geometry":{"x":195482.38999999873,"y":2551822.75}},{"attributes":{"ID":132920,"DIS_CODE":0,"TOWNNAME":"南化區","LI":"南化里","LIN":"4鄰","STREET":" ","SECT":" ","MAREA":"南化","LANE":" ","ALLEY":" ","HOUSE_NO":"１３０號","E_COORD97":196361.64000000001,"N_COORD97":2549157.75,"ADDRESS":"南化１３０號","OBJECTID":132920},"geometry":{"x":196361.63999999966,"y":2549157.75}},{"attributes":{"ID":132921,"DIS_CODE":0,"TOWNNAME":"南化區","LI":"南化里","LIN":"4鄰","STREET":" ","SECT":" ","MAREA":"南化","LANE":" ","ALLEY":" ","HOUSE_NO":"１２０號","E_COORD97":196312.14000000001,"N_COORD97":2549273.75,"ADDRESS":"南化１２０號","OBJECTID":132921},"geometry":{"x":196312.1400000006,"y":2549273.75}},{"attributes":{"ID":132922,"DIS_CODE":0,"TOWNNAME":"南區","LI":"大恩里","LIN":"11鄰","STREET":"國民路","SECT":" ","MAREA":" ","LANE":"１６５巷","ALLEY":"３５弄","HOUSE_NO":"３９號","E_COORD97":169289.19,"N_COORD97":2540758.2000000002,"ADDRESS":"國民路１６５巷３５弄３９號","OBJECTID":132922},"geometry":{"x":169289.19000000134,"y":2540758.2000000011}},{"attributes":{"ID":132923,"DIS_CODE":0,"TOWNNAME":"南區","LI":"大恩里","LIN":"11鄰","STREET":"國民路","SECT":" ","MAREA":" ","LANE":"１６５巷","ALLEY":"３５弄","HOUSE_NO":"４１號","E_COORD97":169294.13,"N_COORD97":2540756.7000000002,"ADDRESS":"國民路１６５巷３５弄４１號","OBJECTID":132923},"geometry":{"x":169294.13000000082,"y":2540756.6999999993}},{"attributes":{"ID":132924,"DIS_CODE":0,"TOWNNAME":"南區","LI":"大恩里","LIN":"11鄰","STREET":"國民路","SECT":" ","MAREA":" ","LANE":"１６５巷","ALLEY":"７弄","HOUSE_NO":"１７號","E_COORD97":169272.39000000001,"N_COORD97":2540832.6200000001,"ADDRESS":"國民路１６５巷７弄１７號","OBJECTID":132924},"geometry":{"x":169272.38999999966,"y":2540832.620000001}},{"attributes":{"ID":132925,"DIS_CODE":0,"TOWNNAME":"南區","LI":"大恩里","LIN":"11鄰","STREET":"國民路","SECT":" ","MAREA":" ","LANE":"１６５巷","ALLEY":"７弄","HOUSE_NO":"１８號","E_COORD97":169267.39000000001,"N_COORD97":2540813.6600000001,"ADDRESS":"國民路１６５巷７弄１８號","OBJECTID":132925},"geometry":{"x":169267.38999999966,"y":2540813.660000002}},{"attributes":{"ID":132926,"DIS_CODE":0,"TOWNNAME":"南區","LI":"大恩里","LIN":"11鄰","STREET":"國民路","SECT":" ","MAREA":" ","LANE":"１６５巷","ALLEY":"７弄","HOUSE_NO":"１９號","E_COORD97":169277.01000000001,"N_COORD97":2540831.7599999998,"ADDRESS":"國民路１６５巷７弄１９號","OBJECTID":132926},"geometry":{"x":169277.00999999978,"y":2540831.7599999979}},{"attributes":{"ID":132927,"DIS_CODE":0,"TOWNNAME":"南區","LI":"大恩里","LIN":"11鄰","STREET":"國民路","SECT":" ","MAREA":" ","LANE":"１６５巷","ALLEY":"７弄","HOUSE_NO":"２１號","E_COORD97":169283.01999999999,"N_COORD97":2540829.6200000001,"ADDRESS":"國民路１６５巷７弄２１號","OBJECTID":132927},"geometry":{"x":169283.02000000048,"y":2540829.620000001}},{"attributes":{"ID":132928,"DIS_CODE":0,"TOWNNAME":"南區","LI":"大恩里","LIN":"11鄰","STREET":"國民路","SECT":" ","MAREA":" ","LANE":"１６５巷","ALLEY":"７弄","HOUSE_NO":"２２號","E_COORD97":169276.41,"N_COORD97":2540810.5499999998,"ADDRESS":"國民路１６５巷７弄２２號","OBJECTID":132928},"geometry":{"x":169276.41000000015,"y":2540810.5500000045}},{"attributes":{"ID":132929,"DIS_CODE":0,"TOWNNAME":"南區","LI":"大恩里","LIN":"11鄰","STREET":"國民路","SECT":" ","MAREA":" ","LANE":"１６５巷","ALLEY":"７弄","HOUSE_NO":"２３號","E_COORD97":169288.29000000001,"N_COORD97":2540828.1200000001,"ADDRESS":"國民路１６５巷７弄２３號","OBJECTID":132929},"geometry":{"x":169288.29000000097,"y":2540828.1200000029}},{"attributes":{"ID":132930,"DIS_CODE":0,"TOWNNAME":"南區","LI":"大恩里","LIN":"11鄰","STREET":"國民路","SECT":" ","MAREA":" ","LANE":"１６５巷","ALLEY":"７弄","HOUSE_NO":"２４號","E_COORD97":169281.78,"N_COORD97":2540808.0899999999,"ADDRESS":"國民路１６５巷７弄２４號","OBJECTID":132930},"geometry":{"x":169281.78000000119,"y":2540808.0899999999}},{"attributes":{"ID":132931,"DIS_CODE":0,"TOWNNAME":"南化區","LI":"南化里","LIN":"4鄰","STREET":" ","SECT":" ","MAREA":"南化","LANE":" ","ALLEY":" ","HOUSE_NO":"１２１號之１","E_COORD97":196483.87,"N_COORD97":2549146.7999999998,"ADDRESS":"南化１２１號之１","OBJECTID":132931},"geometry":{"x":196483.87000000104,"y":2549146.8000000026}},{"attributes":{"ID":132932,"DIS_CODE":0,"TOWNNAME":"南化區","LI":"西埔里","LIN":"13鄰","STREET":" ","SECT":" ","MAREA":"西埔","LANE":" ","ALLEY":" ","HOUSE_NO":"１５７號","E_COORD97":192716.89000000001,"N_COORD97":2549681.75,"ADDRESS":"西埔１５７號","OBJECTID":132932},"geometry":{"x":192716.88999999966,"y":2549681.7500000019}},{"attributes":{"ID":132933,"DIS_CODE":0,"TOWNNAME":"南化區","LI":"南化里","LIN":"4鄰","STREET":" ","SECT":" ","MAREA":"南化","LANE":" ","ALLEY":" ","HOUSE_NO":"４９之８號","E_COORD97":196250.09,"N_COORD97":2549263.7999999998,"ADDRESS":"南化４９之８號","OBJECTID":132933},"geometry":{"x":196250.09000000078,"y":2549263.8000000007}},{"attributes":{"ID":132934,"DIS_CODE":0,"TOWNNAME":"南化區","LI":"南化里","LIN":"4鄰","STREET":" ","SECT":" ","MAREA":"南化","LANE":" ","ALLEY":" ","HOUSE_NO":"４３號","E_COORD97":196050.98999999999,"N_COORD97":2549403.75,"ADDRESS":"南化４３號","OBJECTID":132934},"geometry":{"x":196050.99000000115,"y":2549403.7500000019}},{"attributes":{"ID":132935,"DIS_CODE":0,"TOWNNAME":"南化區","LI":"南化里","LIN":"4鄰","STREET":" ","SECT":" ","MAREA":"南化","LANE":" ","ALLEY":" ","HOUSE_NO":"４６號之９","E_COORD97":196190.41,"N_COORD97":2549297.7999999998,"ADDRESS":"南化４６號之９","OBJECTID":132935},"geometry":{"x":196190.41000000108,"y":2549297.8000000007}},{"attributes":{"ID":132936,"DIS_CODE":0,"TOWNNAME":"南化區","LI":"南化里","LIN":"13鄰","STREET":" ","SECT":" ","MAREA":"南化","LANE":" ","ALLEY":" ","HOUSE_NO":"２９３之１６號","E_COORD97":198659.59,"N_COORD97":2548438.7999999998,"ADDRESS":"南化２９３之１６號","OBJECTID":132936},"geometry":{"x":198659.58999999985,"y":2548438.8000000026}},{"attributes":{"ID":132937,"DIS_CODE":0,"TOWNNAME":"南化區","LI":"西埔里","LIN":"8鄰","STREET":" ","SECT":" ","MAREA":"西埔","LANE":" ","ALLEY":" ","HOUSE_NO":"６５號之１","E_COORD97":193494.67999999999,"N_COORD97":2548127.7999999998,"ADDRESS":"西埔６５號之１","OBJECTID":132937},"geometry":{"x":193494.6799999997,"y":2548127.8000000007}},{"attributes":{"ID":132938,"DIS_CODE":0,"TOWNNAME":"南化區","LI":"南化里","LIN":"4鄰","STREET":" ","SECT":" ","MAREA":"南化","LANE":" ","ALLEY":" ","HOUSE_NO":"４９號之２","E_COORD97":196226.35999999999,"N_COORD97":2549277.7999999998,"ADDRESS":"南化４９號之２","OBJECTID":132938},"geometry":{"x":196226.36000000127,"y":2549277.8000000007}},{"attributes":{"ID":132939,"DIS_CODE":0,"TOWNNAME":"南化區","LI":"東和里","LIN":"4鄰","STREET":" ","SECT":" ","MAREA":"東和","LANE":" ","ALLEY":" ","HOUSE_NO":"２５號之９","E_COORD97":195398.59,"N_COORD97":2545434.7999999998,"ADDRESS":"東和２５號之９","OBJECTID":132939},"geometry":{"x":195398.59000000078,"y":2545434.8000000026}},{"attributes":{"ID":132940,"DIS_CODE":0,"TOWNNAME":"南化區","LI":"玉山里","LIN":"13鄰","STREET":" ","SECT":" ","MAREA":"玉山","LANE":" ","ALLEY":" ","HOUSE_NO":"１４５號","E_COORD97":202373.72,"N_COORD97":2552482.75,"ADDRESS":"玉山１４５號","OBJECTID":132940},"geometry":{"x":202373.72000000067,"y":2552482.7500000019}},{"attributes":{"ID":132941,"DIS_CODE":0,"TOWNNAME":"南化區","LI":"南化里","LIN":"13鄰","STREET":" ","SECT":" ","MAREA":"南化","LANE":" ","ALLEY":" ","HOUSE_NO":"２８２號之１","E_COORD97":197784.87,"N_COORD97":2548529.7999999998,"ADDRESS":"南化２８２號之１","OBJECTID":132941},"geometry":{"x":197784.87000000011,"y":2548529.8000000026}},{"attributes":{"ID":132942,"DIS_CODE":0,"TOWNNAME":"南化區","LI":"南化里","LIN":"8鄰","STREET":" ","SECT":" ","MAREA":"南化","LANE":" ","ALLEY":" ","HOUSE_NO":"１５６號","E_COORD97":196444.34,"N_COORD97":2549106.75,"ADDRESS":"南化１５６號","OBJECTID":132942},"geometry":{"x":196444.34000000171,"y":2549106.75}},{"attributes":{"ID":132943,"DIS_CODE":0,"TOWNNAME":"南化區","LI":"中坑里","LIN":"8鄰","STREET":" ","SECT":" ","MAREA":"中坑","LANE":" ","ALLEY":" ","HOUSE_NO":"６６號","E_COORD97":193628.85999999999,"N_COORD97":2550464.7799999998,"ADDRESS":"中坑６６號","OBJECTID":132943},"geometry":{"x":193628.8600000022,"y":2550464.7800000012}},{"attributes":{"ID":132944,"DIS_CODE":0,"TOWNNAME":"南化區","LI":"南化里","LIN":"4鄰","STREET":" ","SECT":" ","MAREA":"南化","LANE":" ","ALLEY":" ","HOUSE_NO":"４５之２號","E_COORD97":196123.59,"N_COORD97":2549375.7999999998,"ADDRESS":"南化４５之２號","OBJECTID":132944},"geometry":{"x":196123.58999999985,"y":2549375.8000000007}},{"attributes":{"ID":132945,"DIS_CODE":0,"TOWNNAME":"南化區","LI":"玉山里","LIN":"13鄰","STREET":" ","SECT":" ","MAREA":"玉山","LANE":" ","ALLEY":" ","HOUSE_NO":"１４６號","E_COORD97":202345.32000000001,"N_COORD97":2552503.75,"ADDRESS":"玉山１４６號","OBJECTID":132945},"geometry":{"x":202345.3200000003,"y":2552503.75}},{"attributes":{"ID":132946,"DIS_CODE":0,"TOWNNAME":"南化區","LI":"南化里","LIN":"14鄰","STREET":" ","SECT":" ","MAREA":"南化","LANE":" ","ALLEY":" ","HOUSE_NO":"２９３號之２","E_COORD97":198628.70999999999,"N_COORD97":2548317.7999999998,"ADDRESS":"南化２９３號之２","OBJECTID":132946},"geometry":{"x":198628.71000000183,"y":2548317.8000000007}},{"attributes":{"ID":132947,"DIS_CODE":0,"TOWNNAME":"南化區","LI":"中坑里","LIN":"4鄰","STREET":" ","SECT":" ","MAREA":"中坑","LANE":" ","ALLEY":" ","HOUSE_NO":"３４號","E_COORD97":193780.56,"N_COORD97":2549352.7799999998,"ADDRESS":"中坑３４號","OBJECTID":132947},"geometry":{"x":193780.55999999959,"y":2549352.7800000012}},{"attributes":{"ID":132948,"DIS_CODE":0,"TOWNNAME":"南化區","LI":"東和里","LIN":"4鄰","STREET":" ","SECT":" ","MAREA":"東和","LANE":" ","ALLEY":" ","HOUSE_NO":"３６號之１","E_COORD97":195996.10000000001,"N_COORD97":2545203.7999999998,"ADDRESS":"東和３６號之１","OBJECTID":132948},"geometry":{"x":195996.09999999963,"y":2545203.8000000026}},{"attributes":{"ID":132949,"DIS_CODE":0,"TOWNNAME":"安定區","LI":"中榮里","LIN":"4鄰","STREET":" ","SECT":" ","MAREA":"許中營","LANE":" ","ALLEY":" ","HOUSE_NO":"４２號","E_COORD97":172404.23999999999,"N_COORD97":2555029.25,"ADDRESS":"許中營４２號","OBJECTID":132949},"geometry":{"x":172404.24000000209,"y":2555029.2500000019}},{"attributes":{"ID":132950,"DIS_CODE":0,"TOWNNAME":"南化區","LI":"南化里","LIN":"4鄰","STREET":" ","SECT":" ","MAREA":"南化","LANE":" ","ALLEY":" ","HOUSE_NO":"４２之４號","E_COORD97":196022.39000000001,"N_COORD97":2549323.7999999998,"ADDRESS":"南化４２之４號","OBJECTID":132950},"geometry":{"x":196022.3900000006,"y":2549323.8000000026}},{"attributes":{"ID":132951,"DIS_CODE":0,"TOWNNAME":"南化區","LI":"南化里","LIN":"4鄰","STREET":" ","SECT":" ","MAREA":"南化","LANE":" ","ALLEY":" ","HOUSE_NO":"４２號之２","E_COORD97":196015.26000000001,"N_COORD97":2549330.7999999998,"ADDRESS":"南化４２號之２","OBJECTID":132951},"geometry":{"x":196015.25999999978,"y":2549330.8000000007}},{"attributes":{"ID":132952,"DIS_CODE":0,"TOWNNAME":"南化區","LI":"南化里","LIN":"4鄰","STREET":" ","SECT":" ","MAREA":"南化","LANE":" ","ALLEY":" ","HOUSE_NO":"４１號之２","E_COORD97":195939.16,"N_COORD97":2549333.7999999998,"ADDRESS":"南化４１號之２","OBJECTID":132952},"geometry":{"x":195939.16000000108,"y":2549333.8000000026}},{"attributes":{"ID":132953,"DIS_CODE":0,"TOWNNAME":"南化區","LI":"南化里","LIN":"13鄰","STREET":" ","SECT":" ","MAREA":"南化","LANE":" ","ALLEY":" ","HOUSE_NO":"２７９號","E_COORD97":197597.14000000001,"N_COORD97":2548521.75,"ADDRESS":"南化２７９號","OBJECTID":132953},"geometry":{"x":197597.1400000006,"y":2548521.7500000037}},{"attributes":{"ID":132954,"DIS_CODE":0,"TOWNNAME":"南化區","LI":"玉山里","LIN":"13鄰","STREET":" ","SECT":" ","MAREA":"玉山","LANE":" ","ALLEY":" ","HOUSE_NO":"１４０號","E_COORD97":202266.72,"N_COORD97":2552590.75,"ADDRESS":"玉山１４０號","OBJECTID":132954},"geometry":{"x":202266.72000000067,"y":2552590.7500000019}},{"attributes":{"ID":132955,"DIS_CODE":0,"TOWNNAME":"南化區","LI":"北平里","LIN":"1鄰","STREET":" ","SECT":" ","MAREA":"北平","LANE":" ","ALLEY":" ","HOUSE_NO":"１號","E_COORD97":196655.64000000001,"N_COORD97":2551541.75,"ADDRESS":"北平１號","OBJECTID":132955},"geometry":{"x":196655.64000000153,"y":2551541.75}},{"attributes":{"ID":132956,"DIS_CODE":0,"TOWNNAME":"南化區","LI":"南化里","LIN":"13鄰","STREET":" ","SECT":" ","MAREA":"南化","LANE":" ","ALLEY":" ","HOUSE_NO":"２７５號之１","E_COORD97":197573.57000000001,"N_COORD97":2548518.7999999998,"ADDRESS":"南化２７５號之１","OBJECTID":132956},"geometry":{"x":197573.5700000003,"y":2548518.8000000045}},{"attributes":{"ID":132957,"DIS_CODE":0,"TOWNNAME":"南化區","LI":"南化里","LIN":"4鄰","STREET":" ","SECT":" ","MAREA":"南化","LANE":" ","ALLEY":" ","HOUSE_NO":"４９號之７","E_COORD97":196245.70000000001,"N_COORD97":2549266.7999999998,"ADDRESS":"南化４９號之７","OBJECTID":132957},"geometry":{"x":196245.70000000112,"y":2549266.8000000007}},{"attributes":{"ID":132958,"DIS_CODE":0,"TOWNNAME":"南化區","LI":"玉山里","LIN":"13鄰","STREET":" ","SECT":" ","MAREA":"玉山","LANE":" ","ALLEY":" ","HOUSE_NO":"１５１號","E_COORD97":202438.51999999999,"N_COORD97":2552565.75,"ADDRESS":"玉山１５１號","OBJECTID":132958},"geometry":{"x":202438.52000000142,"y":2552565.75}},{"attributes":{"ID":132959,"DIS_CODE":0,"TOWNNAME":"南化區","LI":"北寮里","LIN":"14鄰","STREET":" ","SECT":" ","MAREA":"北寮","LANE":" ","ALLEY":" ","HOUSE_NO":"１８８之６號","E_COORD97":197462.23999999999,"N_COORD97":2552724.7999999998,"ADDRESS":"北寮１８８之６號","OBJECTID":132959},"geometry":{"x":197462.24000000022,"y":2552724.8000000007}},{"attributes":{"ID":132960,"DIS_CODE":0,"TOWNNAME":"南化區","LI":"南化里","LIN":"4鄰","STREET":" ","SECT":" ","MAREA":"南化","LANE":" ","ALLEY":" ","HOUSE_NO":"４６號","E_COORD97":196183.79000000001,"N_COORD97":2549407.75,"ADDRESS":"南化４６號","OBJECTID":132960},"geometry":{"x":196183.7900000019,"y":2549407.7500000019}},{"attributes":{"ID":132961,"DIS_CODE":0,"TOWNNAME":"南化區","LI":"北平里","LIN":"4鄰","STREET":" ","SECT":" ","MAREA":"北平","LANE":" ","ALLEY":" ","HOUSE_NO":"４５號之１","E_COORD97":195490.92999999999,"N_COORD97":2551593.7999999998,"ADDRESS":"北平４５號之１","OBJECTID":132961},"geometry":{"x":195490.93000000063,"y":2551593.8000000045}},{"attributes":{"ID":132962,"DIS_CODE":0,"TOWNNAME":"南化區","LI":"北平里","LIN":"4鄰","STREET":" ","SECT":" ","MAREA":"北平","LANE":" ","ALLEY":" ","HOUSE_NO":"４３號之１","E_COORD97":195447.63,"N_COORD97":2551761.7999999998,"ADDRESS":"北平４３號之１","OBJECTID":132962},"geometry":{"x":195447.63000000082,"y":2551761.8000000007}},{"attributes":{"ID":132963,"DIS_CODE":0,"TOWNNAME":"南化區","LI":"南化里","LIN":"4鄰","STREET":" ","SECT":" ","MAREA":"南化","LANE":" ","ALLEY":" ","HOUSE_NO":"４１號之６","E_COORD97":195955.63,"N_COORD97":2549332.7999999998,"ADDRESS":"南化４１號之６","OBJECTID":132963},"geometry":{"x":195955.62999999989,"y":2549332.8000000026}},{"attributes":{"ID":132964,"DIS_CODE":0,"TOWNNAME":"南化區","LI":"東和里","LIN":"4鄰","STREET":" ","SECT":" ","MAREA":"東和","LANE":" ","ALLEY":" ","HOUSE_NO":"２５號之６","E_COORD97":195655.31,"N_COORD97":2545306.7999999998,"ADDRESS":"東和２５號之６","OBJECTID":132964},"geometry":{"x":195655.30999999959,"y":2545306.8000000007}},{"attributes":{"ID":132965,"DIS_CODE":0,"TOWNNAME":"南化區","LI":"南化里","LIN":"13鄰","STREET":" ","SECT":" ","MAREA":"南化","LANE":" ","ALLEY":" ","HOUSE_NO":"２７１號","E_COORD97":197516.94,"N_COORD97":2548549.75,"ADDRESS":"南化２７１號","OBJECTID":132965},"geometry":{"x":197516.94000000041,"y":2548549.7500000019}},{"attributes":{"ID":132966,"DIS_CODE":0,"TOWNNAME":"南化區","LI":"北寮里","LIN":"14鄰","STREET":" ","SECT":" ","MAREA":"北寮","LANE":" ","ALLEY":" ","HOUSE_NO":"１９２號","E_COORD97":197732.73999999999,"N_COORD97":2552504.75,"ADDRESS":"北寮１９２號","OBJECTID":132966},"geometry":{"x":197732.74000000115,"y":2552504.75}},{"attributes":{"ID":132967,"DIS_CODE":0,"TOWNNAME":"南化區","LI":"北平里","LIN":"8鄰","STREET":" ","SECT":" ","MAREA":"北平","LANE":" ","ALLEY":" ","HOUSE_NO":"９４號","E_COORD97":193845.89000000001,"N_COORD97":2551059.75,"ADDRESS":"北平９４號","OBJECTID":132967},"geometry":{"x":193845.88999999966,"y":2551059.75}},{"attributes":{"ID":132968,"DIS_CODE":0,"TOWNNAME":"南化區","LI":"中坑里","LIN":"1鄰","STREET":" ","SECT":" ","MAREA":"中坑","LANE":" ","ALLEY":" ","HOUSE_NO":"２號","E_COORD97":195695.81,"N_COORD97":2550431.7799999998,"ADDRESS":"中坑２號","OBJECTID":132968},"geometry":{"x":195695.80999999959,"y":2550431.7799999993}},{"attributes":{"ID":132969,"DIS_CODE":0,"TOWNNAME":"南化區","LI":"南化里","LIN":"4鄰","STREET":" ","SECT":" ","MAREA":"南化","LANE":" ","ALLEY":" ","HOUSE_NO":"４６號之８","E_COORD97":196186.47,"N_COORD97":2549299.7999999998,"ADDRESS":"南化４６號之８","OBJECTID":132969},"geometry":{"x":196186.46999999974,"y":2549299.8000000026}},{"attributes":{"ID":132970,"DIS_CODE":0,"TOWNNAME":"南化區","LI":"南化里","LIN":"13鄰","STREET":" ","SECT":" ","MAREA":"南化","LANE":" ","ALLEY":" ","HOUSE_NO":"２８２號","E_COORD97":197657.94,"N_COORD97":2548527.75,"ADDRESS":"南化２８２號","OBJECTID":132970},"geometry":{"x":197657.94000000227,"y":2548527.75}},{"attributes":{"ID":132971,"DIS_CODE":0,"TOWNNAME":"新營區","LI":"太北里","LIN":"4鄰","STREET":" ","SECT":" ","MAREA":"太子宮","LANE":" ","ALLEY":" ","HOUSE_NO":"３０號","E_COORD97":175977.41,"N_COORD97":2577216.8100000001,"ADDRESS":"太子宮３０號","OBJECTID":132971},"geometry":{"x":175977.41000000015,"y":2577216.8100000005}},{"attributes":{"ID":132972,"DIS_CODE":0,"TOWNNAME":"新營區","LI":"土庫里","LIN":"11鄰","STREET":" ","SECT":" ","MAREA":"土庫","LANE":" ","ALLEY":" ","HOUSE_NO":"９３號之２","E_COORD97":183249.16,"N_COORD97":2579779.29,"ADDRESS":"土庫９３號之２","OBJECTID":132972},"geometry":{"x":183249.16000000108,"y":2579779.2899999991}},{"attributes":{"ID":132973,"DIS_CODE":0,"TOWNNAME":"新營區","LI":"太南里","LIN":" ","STREET":" ","SECT":" ","MAREA":"太子宮","LANE":" ","ALLEY":" ","HOUSE_NO":"３０２之１號","E_COORD97":176204.94,"N_COORD97":2576550.1600000001,"ADDRESS":"太子宮３０２之１號","OBJECTID":132973},"geometry":{"x":176204.94000000041,"y":2576550.1600000001}},{"attributes":{"ID":132974,"DIS_CODE":0,"TOWNNAME":"新營區","LI":"土庫里","LIN":" ","STREET":" ","SECT":" ","MAREA":"土庫","LANE":" ","ALLEY":" ","HOUSE_NO":"９３之３號","E_COORD97":183271.57999999999,"N_COORD97":2579760.3700000001,"ADDRESS":"土庫９３之３號","OBJECTID":132974},"geometry":{"x":183271.58000000101,"y":2579760.370000001}},{"attributes":{"ID":132975,"DIS_CODE":0,"TOWNNAME":"新營區","LI":"土庫里","LIN":"16鄰","STREET":" ","SECT":" ","MAREA":"卯舍","LANE":" ","ALLEY":" ","HOUSE_NO":"１１號之６","E_COORD97":181790.01999999999,"N_COORD97":2580290.9399999999,"ADDRESS":"卯舍１１號之６","OBJECTID":132975},"geometry":{"x":181790.02000000048,"y":2580290.9400000032}},{"attributes":{"ID":132976,"DIS_CODE":0,"TOWNNAME":"新營區","LI":"太北里","LIN":"5鄰","STREET":" ","SECT":" ","MAREA":"太子宮","LANE":" ","ALLEY":" ","HOUSE_NO":"３６之２號","E_COORD97":175881.64999999999,"N_COORD97":2577206.2799999998,"ADDRESS":"太子宮３６之２號","OBJECTID":132976},"geometry":{"x":175881.65000000224,"y":2577206.2799999993}},{"attributes":{"ID":132977,"DIS_CODE":0,"TOWNNAME":"新營區","LI":"太南里","LIN":" ","STREET":" ","SECT":" ","MAREA":"太子宮","LANE":" ","ALLEY":" ","HOUSE_NO":"２９７之２號","E_COORD97":176154.17000000001,"N_COORD97":2576630.1499999999,"ADDRESS":"太子宮２９７之２號","OBJECTID":132977},"geometry":{"x":176154.17000000179,"y":2576630.1500000022}},{"attributes":{"ID":132978,"DIS_CODE":0,"TOWNNAME":"新營區","LI":"土庫里","LIN":"16鄰","STREET":" ","SECT":" ","MAREA":"卯舍","LANE":" ","ALLEY":" ","HOUSE_NO":"１１號之５","E_COORD97":181814.45000000001,"N_COORD97":2580267.5600000001,"ADDRESS":"卯舍１１號之５","OBJECTID":132978},"geometry":{"x":181814.45000000205,"y":2580267.5600000042}},{"attributes":{"ID":132979,"DIS_CODE":0,"TOWNNAME":"新營區","LI":"土庫里","LIN":"16鄰","STREET":" ","SECT":" ","MAREA":"卯舍","LANE":" ","ALLEY":" ","HOUSE_NO":"１１號之１","E_COORD97":181798.94,"N_COORD97":2580229.9900000002,"ADDRESS":"卯舍１１號之１","OBJECTID":132979},"geometry":{"x":181798.94000000041,"y":2580229.9900000002}},{"attributes":{"ID":132980,"DIS_CODE":0,"TOWNNAME":"新營區","LI":"五興里","LIN":"1鄰","STREET":" ","SECT":" ","MAREA":"五間厝","LANE":" ","ALLEY":" ","HOUSE_NO":"２號之２","E_COORD97":175925.84,"N_COORD97":2574840.52,"ADDRESS":"五間厝２之２號","OBJECTID":132980},"geometry":{"x":175925.84000000078,"y":2574840.5199999996}},{"attributes":{"ID":132981,"DIS_CODE":0,"TOWNNAME":"新營區","LI":"五興里","LIN":"4鄰","STREET":" ","SECT":" ","MAREA":"五間厝","LANE":" ","ALLEY":" ","HOUSE_NO":"４８號","E_COORD97":175739.39000000001,"N_COORD97":2574833.6400000001,"ADDRESS":"五間厝４８號","OBJECTID":132981},"geometry":{"x":175739.3900000006,"y":2574833.6400000025}},{"attributes":{"ID":132982,"DIS_CODE":0,"TOWNNAME":"新營區","LI":"鐵線里","LIN":" ","STREET":" ","SECT":" ","MAREA":"鐵線橋","LANE":" ","ALLEY":" ","HOUSE_NO":"６之１７號","E_COORD97":176023.84,"N_COORD97":2573941.8799999999,"ADDRESS":"鐵線橋６之１７號","OBJECTID":132982},"geometry":{"x":176023.83999999892,"y":2573941.8800000008}},{"attributes":{"ID":132983,"DIS_CODE":0,"TOWNNAME":"新營區","LI":"姑爺里","LIN":" ","STREET":" ","SECT":" ","MAREA":"姑爺","LANE":" ","ALLEY":" ","HOUSE_NO":"２２號","E_COORD97":174327.07999999999,"N_COORD97":2574156.3599999999,"ADDRESS":"姑爺２２號","OBJECTID":132983},"geometry":{"x":174327.08000000007,"y":2574156.3600000013}},{"attributes":{"ID":132984,"DIS_CODE":0,"TOWNNAME":"鹽水區","LI":"岸內里","LIN":"25鄰","STREET":" ","SECT":" ","MAREA":"新岸內","LANE":" ","ALLEY":" ","HOUSE_NO":"１號之１７","E_COORD97":174388.48999999999,"N_COORD97":2580466.7200000002,"ADDRESS":"新岸內１號之１７","OBJECTID":132984},"geometry":{"x":174388.49000000022,"y":2580466.7200000044}},{"attributes":{"ID":132985,"DIS_CODE":0,"TOWNNAME":"鹽水區","LI":"岸內里","LIN":"25鄰","STREET":" ","SECT":" ","MAREA":"新岸內","LANE":" ","ALLEY":" ","HOUSE_NO":"１之１８號","E_COORD97":174387.95000000001,"N_COORD97":2580470.7999999998,"ADDRESS":"新岸內１之１８號","OBJECTID":132985},"geometry":{"x":174387.95000000112,"y":2580470.8000000026}},{"attributes":{"ID":132986,"DIS_CODE":0,"TOWNNAME":"鹽水區","LI":"岸內里","LIN":"25鄰","STREET":" ","SECT":" ","MAREA":"新岸內","LANE":" ","ALLEY":" ","HOUSE_NO":"１之１９號","E_COORD97":174387.54999999999,"N_COORD97":2580474.5499999998,"ADDRESS":"新岸內１之１９號","OBJECTID":132986},"geometry":{"x":174387.54999999981,"y":2580474.5500000045}},{"attributes":{"ID":132987,"DIS_CODE":0,"TOWNNAME":"鹽水區","LI":"汫水里","LIN":"12鄰","STREET":" ","SECT":" ","MAREA":"溪州寮","LANE":" ","ALLEY":" ","HOUSE_NO":"１０之２號","E_COORD97":176379.67000000001,"N_COORD97":2582128.3500000001,"ADDRESS":"溪州寮１０之２號","OBJECTID":132987},"geometry":{"x":176379.67000000086,"y":2582128.3499999996}},{"attributes":{"ID":132988,"DIS_CODE":0,"TOWNNAME":"鹽水區","LI":"汫水里","LIN":"12鄰","STREET":" ","SECT":" ","MAREA":"溪州寮","LANE":" ","ALLEY":" ","HOUSE_NO":"１０號","E_COORD97":176393.39999999999,"N_COORD97":2582272.5299999998,"ADDRESS":"溪州寮１０號","OBJECTID":132988},"geometry":{"x":176393.40000000037,"y":2582272.5299999993}},{"attributes":{"ID":132989,"DIS_CODE":0,"TOWNNAME":"鹽水區","LI":"岸內里","LIN":"10鄰","STREET":" ","SECT":" ","MAREA":"新岸內","LANE":" ","ALLEY":" ","HOUSE_NO":"５３號之１","E_COORD97":174390.31,"N_COORD97":2581220.8900000001,"ADDRESS":"新岸內５３號之１","OBJECTID":132989},"geometry":{"x":174390.31000000052,"y":2581220.8900000006}},{"attributes":{"ID":132990,"DIS_CODE":0,"TOWNNAME":"鹽水區","LI":"岸內里","LIN":"10鄰","STREET":" ","SECT":" ","MAREA":"新岸內","LANE":" ","ALLEY":" ","HOUSE_NO":"５３號之４","E_COORD97":174383.84,"N_COORD97":2581234.1800000002,"ADDRESS":"新岸內５３號之４","OBJECTID":132990},"geometry":{"x":174383.84000000078,"y":2581234.1799999997}},{"attributes":{"ID":132991,"DIS_CODE":0,"TOWNNAME":"鹽水區","LI":"汫水里","LIN":"11鄰","STREET":" ","SECT":" ","MAREA":"溪州寮","LANE":" ","ALLEY":" ","HOUSE_NO":"１１號","E_COORD97":176403.48999999999,"N_COORD97":2582355.9199999999,"ADDRESS":"溪州寮１１號","OBJECTID":132991},"geometry":{"x":176403.49000000115,"y":2582355.9199999999}},{"attributes":{"ID":132992,"DIS_CODE":0,"TOWNNAME":"鹽水區","LI":"汫水里","LIN":"11鄰","STREET":" ","SECT":" ","MAREA":"溪州寮","LANE":" ","ALLEY":" ","HOUSE_NO":"１３號","E_COORD97":176440.42000000001,"N_COORD97":2582336.2000000002,"ADDRESS":"溪州寮１３號","OBJECTID":132992},"geometry":{"x":176440.41999999899,"y":2582336.1999999993}},{"attributes":{"ID":132993,"DIS_CODE":0,"TOWNNAME":"鹽水區","LI":"汫水里","LIN":"11鄰","STREET":" ","SECT":" ","MAREA":"溪州寮","LANE":" ","ALLEY":" ","HOUSE_NO":"１４號","E_COORD97":176443.88,"N_COORD97":2582360.3399999999,"ADDRESS":"溪州寮１４號","OBJECTID":132993},"geometry":{"x":176443.87999999989,"y":2582360.3400000036}},{"attributes":{"ID":132994,"DIS_CODE":0,"TOWNNAME":"鹽水區","LI":"汫水里","LIN":"11鄰","STREET":" ","SECT":" ","MAREA":"溪州寮","LANE":" ","ALLEY":" ","HOUSE_NO":"１５號","E_COORD97":176427.23999999999,"N_COORD97":2582370.6600000001,"ADDRESS":"溪州寮１５號","OBJECTID":132994},"geometry":{"x":176427.24000000115,"y":2582370.6600000001}},{"attributes":{"ID":132995,"DIS_CODE":0,"TOWNNAME":"鹽水區","LI":"汫水里","LIN":"11鄰","STREET":" ","SECT":" ","MAREA":"溪州寮","LANE":" ","ALLEY":" ","HOUSE_NO":"１６號","E_COORD97":176431.29999999999,"N_COORD97":2582387.8799999999,"ADDRESS":"溪州寮１６號","OBJECTID":132995},"geometry":{"x":176431.30000000075,"y":2582387.879999999}},{"attributes":{"ID":132996,"DIS_CODE":0,"TOWNNAME":"鹽水區","LI":"汫水里","LIN":"11鄰","STREET":" ","SECT":" ","MAREA":"溪州寮","LANE":" ","ALLEY":" ","HOUSE_NO":"１７號","E_COORD97":176435.37,"N_COORD97":2582419.4500000002,"ADDRESS":"溪州寮１７號","OBJECTID":132996},"geometry":{"x":176435.37000000011,"y":2582419.4499999993}},{"attributes":{"ID":132997,"DIS_CODE":0,"TOWNNAME":"鹽水區","LI":"汫水里","LIN":"11鄰","STREET":" ","SECT":" ","MAREA":"溪州寮","LANE":" ","ALLEY":" ","HOUSE_NO":"１８號","E_COORD97":176449.97,"N_COORD97":2582378.25,"ADDRESS":"溪州寮１８號","OBJECTID":132997},"geometry":{"x":176449.96999999974,"y":2582378.2500000019}},{"attributes":{"ID":132998,"DIS_CODE":0,"TOWNNAME":"鹽水區","LI":"義稠里","LIN":"4鄰","STREET":" ","SECT":" ","MAREA":"義稠","LANE":" ","ALLEY":" ","HOUSE_NO":"５４號","E_COORD97":174117.03,"N_COORD97":2580662.1000000001,"ADDRESS":"義稠５４號","OBJECTID":132998},"geometry":{"x":174117.03000000026,"y":2580662.0999999996}},{"attributes":{"ID":132999,"DIS_CODE":0,"TOWNNAME":"鹽水區","LI":"義稠里","LIN":"4鄰","STREET":" ","SECT":" ","MAREA":"義稠","LANE":" ","ALLEY":" ","HOUSE_NO":"５５號之１","E_COORD97":174101.19,"N_COORD97":2580669.7400000002,"ADDRESS":"義稠５５號之１","OBJECTID":132999},"geometry":{"x":174101.19000000041,"y":2580669.7400000021}},{"attributes":{"ID":133000,"DIS_CODE":0,"TOWNNAME":"鹽水區","LI":"義稠里","LIN":"4鄰","STREET":" ","SECT":" ","MAREA":"義稠","LANE":" ","ALLEY":" ","HOUSE_NO":"５５號之２","E_COORD97":174112.42000000001,"N_COORD97":2580675.8700000001,"ADDRESS":"義稠５５號之２","OBJECTID":133000},"geometry":{"x":174112.41999999993,"y":2580675.870000001}}]}