{"displayFieldName":"TOWNNAME","fieldAliases":{"ID":"ID","DIS_CODE":"DIS_CODE","TOWNNAME":"TOWNNAME","LI":"LI","LIN":"LIN","STREET":"STREET","SECT":"SECT","MAREA":"MAREA","LANE":"LANE","ALLEY":"ALLEY","HOUSE_NO":"HOUSE_NO","E_COORD97":"E_COORD97","N_COORD97":"N_COORD97","ADDRESS":"ADDRESS","OBJECTID":"OBJECTID"},"geometryType":"esriGeometryPoint","spatialReference":{"wkid":102443,"latestWkid":3826},"fields":[{"name":"ID","type":"esriFieldTypeDouble","alias":"ID"},{"name":"DIS_CODE","type":"esriFieldTypeInteger","alias":"DIS_CODE"},{"name":"TOWNNAME","type":"esriFieldTypeString","alias":"TOWNNAME","length":8},{"name":"LI","type":"esriFieldTypeString","alias":"LI","length":8},{"name":"LIN","type":"esriFieldTypeString","alias":"LIN","length":12},{"name":"STREET","type":"esriFieldTypeString","alias":"STREET","length":20},{"name":"SECT","type":"esriFieldTypeString","alias":"SECT","length":8},{"name":"MAREA","type":"esriFieldTypeString","alias":"MAREA","length":12},{"name":"LANE","type":"esriFieldTypeString","alias":"LANE","length":10},{"name":"ALLEY","type":"esriFieldTypeString","alias":"ALLEY","length":10},{"name":"HOUSE_NO","type":"esriFieldTypeString","alias":"HOUSE_NO","length":20},{"name":"E_COORD97","type":"esriFieldTypeDouble","alias":"E_COORD97"},{"name":"N_COORD97","type":"esriFieldTypeDouble","alias":"N_COORD97"},{"name":"ADDRESS","type":"esriFieldTypeString","alias":"ADDRESS","length":50},{"name":"OBJECTID","type":"esriFieldTypeOID","alias":"OBJECTID"}],"features":[{"attributes":{"ID":259005,"DIS_CODE":0,"TOWNNAME":"東區","LI":"大福里","LIN":"4鄰","STREET":"立德二路","SECT":" ","MAREA":" ","LANE":"８巷","ALLEY":" ","HOUSE_NO":"１３號","E_COORD97":169486.31,"N_COORD97":2541683.3199999998,"ADDRESS":"立德二路８巷１３號","OBJECTID":259001},"geometry":{"x":169486.31000000052,"y":2541683.3200000022}},{"attributes":{"ID":259006,"DIS_CODE":0,"TOWNNAME":"東區","LI":"大福里","LIN":"4鄰","STREET":"立德二路","SECT":" ","MAREA":" ","LANE":"８巷","ALLEY":" ","HOUSE_NO":"１５號","E_COORD97":169482.73999999999,"N_COORD97":2541683.3199999998,"ADDRESS":"立德二路８巷１５號","OBJECTID":259002},"geometry":{"x":169482.74000000022,"y":2541683.3200000022}},{"attributes":{"ID":259007,"DIS_CODE":0,"TOWNNAME":"東區","LI":"大福里","LIN":"4鄰","STREET":"立德二路","SECT":" ","MAREA":" ","LANE":"８巷","ALLEY":" ","HOUSE_NO":"９號","E_COORD97":169502.53,"N_COORD97":2541681.9500000002,"ADDRESS":"立德二路８巷９號","OBJECTID":259003},"geometry":{"x":169502.53000000119,"y":2541681.9500000011}},{"attributes":{"ID":259008,"DIS_CODE":0,"TOWNNAME":"東區","LI":"大福里","LIN":"4鄰","STREET":"立德二路","SECT":" ","MAREA":" ","LANE":"８巷","ALLEY":" ","HOUSE_NO":"３號之１","E_COORD97":169491.70999999999,"N_COORD97":2541701.29,"ADDRESS":"立德二路８巷３號之１","OBJECTID":259004},"geometry":{"x":169491.71000000183,"y":2541701.2899999991}},{"attributes":{"ID":259009,"DIS_CODE":0,"TOWNNAME":"安南區","LI":"東和里","LIN":"4鄰","STREET":"長和路","SECT":"一段","MAREA":" ","LANE":"８２３巷","ALLEY":" ","HOUSE_NO":"１３２號","E_COORD97":170830.44133500001,"N_COORD97":2551061.0831900002,"ADDRESS":"長和路一段８２３巷１３２號","OBJECTID":259005},"geometry":{"x":170830.4413350001,"y":2551061.0831930023}},{"attributes":{"ID":259010,"DIS_CODE":0,"TOWNNAME":"仁德區","LI":"仁愛里","LIN":"25鄰","STREET":"保仁路","SECT":" ","MAREA":" ","LANE":"２９５巷","ALLEY":" ","HOUSE_NO":"２１號","E_COORD97":169788.27189500001,"N_COORD97":2540048.7455899999,"ADDRESS":"保仁路２９５巷２１號","OBJECTID":259006},"geometry":{"x":169788.27189499978,"y":2540048.7455929983}},{"attributes":{"ID":259011,"DIS_CODE":0,"TOWNNAME":"仁德區","LI":"仁愛里","LIN":"26鄰","STREET":"大同路","SECT":"三段","MAREA":" ","LANE":"３５８巷","ALLEY":" ","HOUSE_NO":"１號","E_COORD97":169733.52499999999,"N_COORD97":2539467.0299999998,"ADDRESS":"大同路三段３５８巷１號","OBJECTID":259007},"geometry":{"x":169733.52500000037,"y":2539467.0300000012}},{"attributes":{"ID":259012,"DIS_CODE":0,"TOWNNAME":"仁德區","LI":"仁愛里","LIN":"25鄰","STREET":"保仁路","SECT":" ","MAREA":" ","LANE":"２９５巷","ALLEY":" ","HOUSE_NO":"９號","E_COORD97":169811.82500000001,"N_COORD97":2540049.6299999999,"ADDRESS":"保仁路２９５巷９號","OBJECTID":259008},"geometry":{"x":169811.82500000112,"y":2540049.6300000008}},{"attributes":{"ID":259013,"DIS_CODE":0,"TOWNNAME":"仁德區","LI":"仁德里","LIN":"4鄰","STREET":"中正路","SECT":"二段","MAREA":" ","LANE":"８６７巷","ALLEY":" ","HOUSE_NO":"８號","E_COORD97":173395.764433,"N_COORD97":2540577.5089599998,"ADDRESS":"中正路二段８６７巷８號","OBJECTID":259009},"geometry":{"x":173395.76443300024,"y":2540577.508963}},{"attributes":{"ID":259014,"DIS_CODE":0,"TOWNNAME":"永康區","LI":"復華里","LIN":"22鄰","STREET":"復華七街","SECT":" ","MAREA":" ","LANE":"１１７巷","ALLEY":" ","HOUSE_NO":"２２號","E_COORD97":172847.282087,"N_COORD97":2546239.8698800001,"ADDRESS":"復華七街１１７巷２２號","OBJECTID":259010},"geometry":{"x":172847.28208700102,"y":2546239.869876001}},{"attributes":{"ID":259015,"DIS_CODE":0,"TOWNNAME":"歸仁區","LI":"大廟里","LIN":"21鄰","STREET":"保大路","SECT":"三段","MAREA":" ","LANE":"４０１巷","ALLEY":" ","HOUSE_NO":"１２５號","E_COORD97":175543.88677899999,"N_COORD97":2544089.0791600002,"ADDRESS":"保大路三段４０１巷１２５號","OBJECTID":259011},"geometry":{"x":175543.88677900098,"y":2544089.079160003}},{"attributes":{"ID":259016,"DIS_CODE":0,"TOWNNAME":"歸仁區","LI":"大廟里","LIN":"23鄰","STREET":"保大路","SECT":"三段","MAREA":" ","LANE":"４０１巷","ALLEY":" ","HOUSE_NO":"１９１號","E_COORD97":175568.029679,"N_COORD97":2543843.7576299999,"ADDRESS":"保大路三段４０１巷１９１號","OBJECTID":259012},"geometry":{"x":175568.02967899945,"y":2543843.7576260027}},{"attributes":{"ID":259017,"DIS_CODE":0,"TOWNNAME":"仁德區","LI":"太子里","LIN":"15鄰","STREET":"長興四街","SECT":" ","MAREA":" ","LANE":"２６巷","ALLEY":" ","HOUSE_NO":"４號","E_COORD97":173999.59669400001,"N_COORD97":2543666.3775499999,"ADDRESS":"長興四街２６巷４號","OBJECTID":259013},"geometry":{"x":173999.59669400007,"y":2543666.3775500003}},{"attributes":{"ID":259018,"DIS_CODE":0,"TOWNNAME":"歸仁區","LI":"大廟里","LIN":"21鄰","STREET":"保大路","SECT":"三段","MAREA":" ","LANE":"４０１巷","ALLEY":" ","HOUSE_NO":"７９號","E_COORD97":175560.829165,"N_COORD97":2544242.3257399998,"ADDRESS":"保大路三段４０１巷７９號","OBJECTID":259014},"geometry":{"x":175560.82916500047,"y":2544242.3257440012}},{"attributes":{"ID":259019,"DIS_CODE":0,"TOWNNAME":"歸仁區","LI":"大廟里","LIN":"21鄰","STREET":"保大路","SECT":"三段","MAREA":" ","LANE":"４０１巷","ALLEY":" ","HOUSE_NO":"８５號","E_COORD97":175555.11111,"N_COORD97":2544213.3274300001,"ADDRESS":"保大路三段４０１巷８５號","OBJECTID":259015},"geometry":{"x":175555.11110999994,"y":2544213.3274259996}},{"attributes":{"ID":259020,"DIS_CODE":0,"TOWNNAME":"新營區","LI":"王公里","LIN":"22鄰","STREET":"大德街","SECT":" ","MAREA":" ","LANE":" ","ALLEY":" ","HOUSE_NO":"１０６號","E_COORD97":180439.66,"N_COORD97":2579483.2400000002,"ADDRESS":"大德街１０６號","OBJECTID":259016},"geometry":{"x":180439.65999999922,"y":2579483.2400000021}},{"attributes":{"ID":259021,"DIS_CODE":0,"TOWNNAME":"新營區","LI":"王公里","LIN":"22鄰","STREET":"民族路","SECT":" ","MAREA":" ","LANE":" ","ALLEY":" ","HOUSE_NO":"２３０號","E_COORD97":180383.85000000001,"N_COORD97":2579473.4900000002,"ADDRESS":"民族路２３０號","OBJECTID":259017},"geometry":{"x":180383.85000000056,"y":2579473.4900000002}},{"attributes":{"ID":259022,"DIS_CODE":0,"TOWNNAME":"新營區","LI":"王公里","LIN":"22鄰","STREET":"民族路","SECT":" ","MAREA":" ","LANE":" ","ALLEY":" ","HOUSE_NO":"２２２號","E_COORD97":180379.64000000001,"N_COORD97":2579448.0299999998,"ADDRESS":"民族路２２２號","OBJECTID":259018},"geometry":{"x":180379.63999999966,"y":2579448.0299999993}},{"attributes":{"ID":259023,"DIS_CODE":0,"TOWNNAME":"歸仁區","LI":"媽廟里","LIN":"9鄰","STREET":"和順路","SECT":"一段","MAREA":" ","LANE":"３３６巷","ALLEY":" ","HOUSE_NO":"１２號","E_COORD97":176617.25001399999,"N_COORD97":2543779.6750500002,"ADDRESS":"和順路一段３３６巷１２號","OBJECTID":259019},"geometry":{"x":176617.25001399964,"y":2543779.6750480048}},{"attributes":{"ID":259024,"DIS_CODE":0,"TOWNNAME":"安南區","LI":"布袋里","LIN":"4鄰","STREET":"長和路","SECT":"四段","MAREA":" ","LANE":"２４３巷","ALLEY":" ","HOUSE_NO":"３５號","E_COORD97":168710.92000000001,"N_COORD97":2551643.7799999998,"ADDRESS":"長和路四段２４３巷３５號","OBJECTID":259020},"geometry":{"x":168710.92000000086,"y":2551643.7800000012}},{"attributes":{"ID":259025,"DIS_CODE":0,"TOWNNAME":"新營區","LI":"王公里","LIN":"22鄰","STREET":"大德街","SECT":" ","MAREA":" ","LANE":" ","ALLEY":" ","HOUSE_NO":"１３２號","E_COORD97":180464.98999999999,"N_COORD97":2579497.52,"ADDRESS":"大德街１３２號","OBJECTID":259021},"geometry":{"x":180464.99000000115,"y":2579497.5200000014}},{"attributes":{"ID":259026,"DIS_CODE":0,"TOWNNAME":"安南區","LI":"布袋里","LIN":"4鄰","STREET":"長和路","SECT":"四段","MAREA":" ","LANE":"２４３巷","ALLEY":" ","HOUSE_NO":"３７號","E_COORD97":168713.70000000001,"N_COORD97":2551640.1699999999,"ADDRESS":"長和路四段２４３巷３７號","OBJECTID":259022},"geometry":{"x":168713.70000000019,"y":2551640.1699999999}},{"attributes":{"ID":259027,"DIS_CODE":0,"TOWNNAME":"新營區","LI":"民生里","LIN":"22鄰","STREET":"進修街","SECT":" ","MAREA":" ","LANE":" ","ALLEY":" ","HOUSE_NO":"１１之６號","E_COORD97":179030.81,"N_COORD97":2578396.8700000001,"ADDRESS":"進修街１１之６號","OBJECTID":259023},"geometry":{"x":179030.80999999959,"y":2578396.870000001}},{"attributes":{"ID":259028,"DIS_CODE":0,"TOWNNAME":"歸仁區","LI":"媽廟里","LIN":"4鄰","STREET":"和順路","SECT":"一段","MAREA":" ","LANE":"１１巷","ALLEY":" ","HOUSE_NO":"４８號","E_COORD97":177435.72725900001,"N_COORD97":2543638.3933299999,"ADDRESS":"和順路一段１１巷４８號","OBJECTID":259024},"geometry":{"x":177435.72725899983,"y":2543638.3933310006}},{"attributes":{"ID":259029,"DIS_CODE":0,"TOWNNAME":"歸仁區","LI":"媽廟里","LIN":"4鄰","STREET":"和順路","SECT":"一段","MAREA":" ","LANE":"１１巷","ALLEY":" ","HOUSE_NO":"１０６號","E_COORD97":177421.28,"N_COORD97":2543622.7200000002,"ADDRESS":"和順路一段１１巷１０６號","OBJECTID":259025},"geometry":{"x":177421.28000000026,"y":2543622.7200000007}},{"attributes":{"ID":259030,"DIS_CODE":0,"TOWNNAME":"安南區","LI":"海西里","LIN":"4鄰","STREET":"海中街","SECT":" ","MAREA":" ","LANE":"１２１巷","ALLEY":" ","HOUSE_NO":"７０號","E_COORD97":166252.23876000001,"N_COORD97":2549001.5204799999,"ADDRESS":"海中街１２１巷７０號","OBJECTID":259026},"geometry":{"x":166252.23876000196,"y":2549001.5204799995}},{"attributes":{"ID":259031,"DIS_CODE":0,"TOWNNAME":"新營區","LI":"王公里","LIN":"22鄰","STREET":"民族路","SECT":" ","MAREA":" ","LANE":" ","ALLEY":" ","HOUSE_NO":"２３６號","E_COORD97":180388.60000000001,"N_COORD97":2579501.7999999998,"ADDRESS":"民族路２３６號","OBJECTID":259027},"geometry":{"x":180388.59999999963,"y":2579501.8000000007}},{"attributes":{"ID":259032,"DIS_CODE":0,"TOWNNAME":"南區","LI":"府南里","LIN":"10鄰","STREET":"永成路","SECT":"三段","MAREA":" ","LANE":"３５７巷","ALLEY":" ","HOUSE_NO":"１２號","E_COORD97":167440.94330399999,"N_COORD97":2541266.5753000001,"ADDRESS":"永成路三段３５７巷１２號","OBJECTID":259028},"geometry":{"x":167440.94330400042,"y":2541266.5753029995}},{"attributes":{"ID":259033,"DIS_CODE":0,"TOWNNAME":"永康區","LI":"龍潭里","LIN":"17鄰","STREET":"龍潭街","SECT":" ","MAREA":" ","LANE":"１９３巷","ALLEY":" ","HOUSE_NO":"１２號","E_COORD97":174902.12378600001,"N_COORD97":2548373.3423299999,"ADDRESS":"龍潭街１９３巷１２號","OBJECTID":259029},"geometry":{"x":174902.12378600053,"y":2548373.3423289992}},{"attributes":{"ID":259034,"DIS_CODE":0,"TOWNNAME":"南區","LI":"府南里","LIN":"10鄰","STREET":"永成路","SECT":"三段","MAREA":" ","LANE":"３５７巷","ALLEY":" ","HOUSE_NO":"１８號","E_COORD97":167425.695572,"N_COORD97":2541267.2102999999,"ADDRESS":"永成路三段３５７巷１８號","OBJECTID":259030},"geometry":{"x":167425.69557200093,"y":2541267.2103030048}},{"attributes":{"ID":259035,"DIS_CODE":0,"TOWNNAME":"仁德區","LI":"大甲里","LIN":"23鄰","STREET":"中正西路","SECT":" ","MAREA":" ","LANE":"３６０巷","ALLEY":" ","HOUSE_NO":"２０００號","E_COORD97":168233.06255599999,"N_COORD97":2536624.52122,"ADDRESS":"中正西路３６０巷２０００號","OBJECTID":259031},"geometry":{"x":168233.06255600229,"y":2536624.5212190039}},{"attributes":{"ID":259036,"DIS_CODE":0,"TOWNNAME":"楠西區","LI":"東勢里","LIN":"21鄰","STREET":"民生路","SECT":" ","MAREA":" ","LANE":"１０６巷","ALLEY":" ","HOUSE_NO":"２號","E_COORD97":197404.31190500001,"N_COORD97":2564222.2217199998,"ADDRESS":"民生路１０６巷２號","OBJECTID":259032},"geometry":{"x":197404.31190500129,"y":2564222.2217190024}},{"attributes":{"ID":259037,"DIS_CODE":0,"TOWNNAME":"楠西區","LI":"東勢里","LIN":"21鄰","STREET":"民生路","SECT":" ","MAREA":" ","LANE":"１０６巷","ALLEY":" ","HOUSE_NO":"２號之１","E_COORD97":197399.02187999999,"N_COORD97":2564222.9196199998,"ADDRESS":"民生路１０６巷２號之１","OBJECTID":259033},"geometry":{"x":197399.0218799999,"y":2564222.9196210001}},{"attributes":{"ID":259038,"DIS_CODE":0,"TOWNNAME":"中西區","LI":"進學里","LIN":"6鄰","STREET":"永福路","SECT":"一段","MAREA":" ","LANE":"２４巷","ALLEY":" ","HOUSE_NO":"１號","E_COORD97":168019.73098399999,"N_COORD97":2542924.2112799999,"ADDRESS":"永福路一段２４巷１號","OBJECTID":259034},"geometry":{"x":168019.73098399956,"y":2542924.2112790029}},{"attributes":{"ID":259039,"DIS_CODE":0,"TOWNNAME":"安平區","LI":"建平里","LIN":"22鄰","STREET":"永華三街","SECT":" ","MAREA":" ","LANE":" ","ALLEY":" ","HOUSE_NO":"７４號","E_COORD97":166107.10999999999,"N_COORD97":2543619.75,"ADDRESS":"永華三街７４號","OBJECTID":259035},"geometry":{"x":166107.11000000034,"y":2543619.7500000019}},{"attributes":{"ID":259040,"DIS_CODE":0,"TOWNNAME":"中西區","LI":"進學里","LIN":"6鄰","STREET":"永福路","SECT":"一段","MAREA":" ","LANE":"２４巷","ALLEY":" ","HOUSE_NO":"２號","E_COORD97":168027.145846,"N_COORD97":2542921.88295,"ADDRESS":"永福路一段２４巷２號","OBJECTID":259036},"geometry":{"x":168027.14584599994,"y":2542921.8829469997}},{"attributes":{"ID":259041,"DIS_CODE":0,"TOWNNAME":"中西區","LI":"進學里","LIN":"6鄰","STREET":"永福路","SECT":"一段","MAREA":" ","LANE":"２４巷","ALLEY":" ","HOUSE_NO":"３號","E_COORD97":168036.255534,"N_COORD97":2542921.0362800001,"ADDRESS":"永福路一段２４巷３號","OBJECTID":259037},"geometry":{"x":168036.25553400069,"y":2542921.0362810027}},{"attributes":{"ID":259042,"DIS_CODE":0,"TOWNNAME":"中西區","LI":"進學里","LIN":"6鄰","STREET":"永福路","SECT":"一段","MAREA":" ","LANE":"２４巷","ALLEY":" ","HOUSE_NO":"７號","E_COORD97":168061.04235900001,"N_COORD97":2542927.3862800002,"ADDRESS":"永福路一段２４巷７號","OBJECTID":259038},"geometry":{"x":168061.04235900007,"y":2542927.3862770032}},{"attributes":{"ID":259043,"DIS_CODE":0,"TOWNNAME":"中西區","LI":"進學里","LIN":"6鄰","STREET":"永福路","SECT":"一段","MAREA":" ","LANE":"２４巷","ALLEY":" ","HOUSE_NO":"４號","E_COORD97":168044.94151500001,"N_COORD97":2542920.5071100001,"ADDRESS":"永福路一段２４巷４號","OBJECTID":259039},"geometry":{"x":168044.94151500054,"y":2542920.5071140006}},{"attributes":{"ID":259044,"DIS_CODE":0,"TOWNNAME":"南區","LI":"府南里","LIN":"10鄰","STREET":"永成路","SECT":"三段","MAREA":" ","LANE":"３５７巷","ALLEY":" ","HOUSE_NO":"２０號","E_COORD97":167426.54266800001,"N_COORD97":2541271.76113,"ADDRESS":"永成路三段３５７巷２０號","OBJECTID":259040},"geometry":{"x":167426.54266800079,"y":2541271.7611340005}},{"attributes":{"ID":259045,"DIS_CODE":0,"TOWNNAME":"永康區","LI":"復華里","LIN":"31鄰","STREET":"復國一路","SECT":" ","MAREA":" ","LANE":"５８６巷","ALLEY":" ","HOUSE_NO":"１號","E_COORD97":172485.329688,"N_COORD97":2546354.3549000002,"ADDRESS":"復國一路５８６巷１號","OBJECTID":259041},"geometry":{"x":172485.32968800049,"y":2546354.3549019992}},{"attributes":{"ID":259046,"DIS_CODE":0,"TOWNNAME":"歸仁區","LI":"媽廟里","LIN":"17鄰","STREET":"中正北路","SECT":"三段","MAREA":" ","LANE":"１６０巷","ALLEY":" ","HOUSE_NO":"２號","E_COORD97":177640.176875,"N_COORD97":2543880.0823900001,"ADDRESS":"中正北路三段１６０巷２號","OBJECTID":259042},"geometry":{"x":177640.17687499989,"y":2543880.082394002}},{"attributes":{"ID":259047,"DIS_CODE":0,"TOWNNAME":"安南區","LI":"州南里","LIN":"3鄰","STREET":"北安路","SECT":"四段","MAREA":" ","LANE":"１０５巷","ALLEY":" ","HOUSE_NO":"６８號","E_COORD97":169323.70137900001,"N_COORD97":2551096.76932,"ADDRESS":"北安路四段１０５巷６８號","OBJECTID":259043},"geometry":{"x":169323.70137900021,"y":2551096.7693200018}},{"attributes":{"ID":259048,"DIS_CODE":0,"TOWNNAME":"仁德區","LI":"太子里","LIN":"14鄰","STREET":"長興路","SECT":" ","MAREA":" ","LANE":"８７巷","ALLEY":" ","HOUSE_NO":"３０號","E_COORD97":174028.63610999999,"N_COORD97":2543806.4081700002,"ADDRESS":"長興路８７巷３０號","OBJECTID":259044},"geometry":{"x":174028.63611000217,"y":2543806.4081730042}},{"attributes":{"ID":259049,"DIS_CODE":0,"TOWNNAME":"安南區","LI":"安東里","LIN":"22鄰","STREET":"安和路","SECT":"二段","MAREA":" ","LANE":"５４巷","ALLEY":" ","HOUSE_NO":"２０號之１","E_COORD97":169533.715322,"N_COORD97":2548634.43071,"ADDRESS":"安和路二段５４巷２０號之１","OBJECTID":259045},"geometry":{"x":169533.71532199997,"y":2548634.4307050016}},{"attributes":{"ID":259050,"DIS_CODE":0,"TOWNNAME":"下營區","LI":"仁里里","LIN":"5鄰","STREET":"仁南街","SECT":" ","MAREA":" ","LANE":"６巷","ALLEY":" ","HOUSE_NO":"３０號","E_COORD97":174493.524684,"N_COORD97":2569740.6889599999,"ADDRESS":"仁南街６巷３０號","OBJECTID":259046},"geometry":{"x":174493.52468400076,"y":2569740.6889559999}},{"attributes":{"ID":259051,"DIS_CODE":0,"TOWNNAME":"仁德區","LI":"上崙里","LIN":"1鄰","STREET":"德崙路","SECT":" ","MAREA":" ","LANE":"７７巷","ALLEY":" ","HOUSE_NO":"８６號三樓之３","E_COORD97":173571.47855999999,"N_COORD97":2538453.5479799998,"ADDRESS":"德崙路７７巷８６號三樓之３","OBJECTID":259047},"geometry":{"x":173571.47856000066,"y":2538453.5479799975}},{"attributes":{"ID":259052,"DIS_CODE":0,"TOWNNAME":"仁德區","LI":"上崙里","LIN":"1鄰","STREET":"德崙路","SECT":" ","MAREA":" ","LANE":"７７巷","ALLEY":" ","HOUSE_NO":"８６號三樓之５","E_COORD97":173571.47855999999,"N_COORD97":2538453.5479799998,"ADDRESS":"德崙路７７巷８６號三樓之５","OBJECTID":259048},"geometry":{"x":173571.47856000066,"y":2538453.5479799975}},{"attributes":{"ID":259053,"DIS_CODE":0,"TOWNNAME":"仁德區","LI":"上崙里","LIN":"1鄰","STREET":"德崙路","SECT":" ","MAREA":" ","LANE":"７７巷","ALLEY":" ","HOUSE_NO":"８６號四樓之１","E_COORD97":173571.47855999999,"N_COORD97":2538453.5479799998,"ADDRESS":"德崙路７７巷８６號四樓之１","OBJECTID":259049},"geometry":{"x":173571.47856000066,"y":2538453.5479799975}},{"attributes":{"ID":259054,"DIS_CODE":0,"TOWNNAME":"仁德區","LI":"上崙里","LIN":"1鄰","STREET":"德崙路","SECT":" ","MAREA":" ","LANE":"７７巷","ALLEY":" ","HOUSE_NO":"８６號四樓之３","E_COORD97":173571.47855999999,"N_COORD97":2538453.5479799998,"ADDRESS":"德崙路７７巷８６號四樓之３","OBJECTID":259050},"geometry":{"x":173571.47856000066,"y":2538453.5479799975}},{"attributes":{"ID":259055,"DIS_CODE":0,"TOWNNAME":"仁德區","LI":"上崙里","LIN":"1鄰","STREET":"德崙路","SECT":" ","MAREA":" ","LANE":"７７巷","ALLEY":" ","HOUSE_NO":"８６號四樓之４","E_COORD97":173571.47855999999,"N_COORD97":2538453.5479799998,"ADDRESS":"德崙路７７巷８６號四樓之４","OBJECTID":259051},"geometry":{"x":173571.47856000066,"y":2538453.5479799975}},{"attributes":{"ID":259056,"DIS_CODE":0,"TOWNNAME":"仁德區","LI":"上崙里","LIN":"1鄰","STREET":"德崙路","SECT":" ","MAREA":" ","LANE":"７７巷","ALLEY":" ","HOUSE_NO":"８６號四樓之５","E_COORD97":173571.47855999999,"N_COORD97":2538453.5479799998,"ADDRESS":"德崙路７７巷８６號四樓之５","OBJECTID":259052},"geometry":{"x":173571.47856000066,"y":2538453.5479799975}},{"attributes":{"ID":259057,"DIS_CODE":0,"TOWNNAME":"南區","LI":"建南里","LIN":"2鄰","STREET":"永成路","SECT":"二段","MAREA":" ","LANE":"８８１巷","ALLEY":" ","HOUSE_NO":"７２號","E_COORD97":167287.88520300001,"N_COORD97":2540242.2535899999,"ADDRESS":"永成路二段８８１巷７２號","OBJECTID":259053},"geometry":{"x":167287.88520300202,"y":2540242.2535850015}},{"attributes":{"ID":259058,"DIS_CODE":0,"TOWNNAME":"南區","LI":"建南里","LIN":"2鄰","STREET":"永成路","SECT":"二段","MAREA":" ","LANE":"８８１巷","ALLEY":" ","HOUSE_NO":"７６號","E_COORD97":167283.75511599999,"N_COORD97":2540241.5127500002,"ADDRESS":"永成路二段８８１巷７６號","OBJECTID":259054},"geometry":{"x":167283.75511599984,"y":2540241.5127520002}},{"attributes":{"ID":259059,"DIS_CODE":0,"TOWNNAME":"南區","LI":"建南里","LIN":"2鄰","STREET":"永成路","SECT":"二段","MAREA":" ","LANE":"８８１巷","ALLEY":" ","HOUSE_NO":"７８號","E_COORD97":167280.578125,"N_COORD97":2540240.87775,"ADDRESS":"永成路二段８８１巷７８號","OBJECTID":259055},"geometry":{"x":167280.57812500186,"y":2540240.8777520005}},{"attributes":{"ID":259060,"DIS_CODE":0,"TOWNNAME":"南區","LI":"建南里","LIN":"2鄰","STREET":"永成路","SECT":"二段","MAREA":" ","LANE":"８８巷","ALLEY":" ","HOUSE_NO":"８０號","E_COORD97":167276.871636,"N_COORD97":2540239.7135899998,"ADDRESS":"永成路二段８８巷８０號","OBJECTID":259056},"geometry":{"x":167276.87163599953,"y":2540239.7135860026}},{"attributes":{"ID":259061,"DIS_CODE":0,"TOWNNAME":"關廟區","LI":"香洋里","LIN":"7鄰","STREET":"南雄路","SECT":"二段","MAREA":" ","LANE":"３９巷","ALLEY":" ","HOUSE_NO":"６號","E_COORD97":181085.85560400001,"N_COORD97":2540146.4190799999,"ADDRESS":"南雄路二段３９巷６號","OBJECTID":259057},"geometry":{"x":181085.85560400132,"y":2540146.4190820009}},{"attributes":{"ID":259062,"DIS_CODE":0,"TOWNNAME":"關廟區","LI":"香洋里","LIN":"7鄰","STREET":"南雄路","SECT":"二段","MAREA":" ","LANE":"３９巷","ALLEY":" ","HOUSE_NO":"８號","E_COORD97":181080.51915899999,"N_COORD97":2540147.41872,"ADDRESS":"南雄路二段３９巷８號","OBJECTID":259058},"geometry":{"x":181080.5191590013,"y":2540147.4187170025}},{"attributes":{"ID":259063,"DIS_CODE":0,"TOWNNAME":"關廟區","LI":"香洋里","LIN":"6鄰","STREET":"忠孝街","SECT":" ","MAREA":" ","LANE":"９０巷","ALLEY":" ","HOUSE_NO":"７號","E_COORD97":181048.41710799999,"N_COORD97":2540216.01865,"ADDRESS":"忠孝街９０巷７號","OBJECTID":259059},"geometry":{"x":181048.41710800026,"y":2540216.0186550021}},{"attributes":{"ID":259064,"DIS_CODE":0,"TOWNNAME":"關廟區","LI":"香洋里","LIN":"1鄰","STREET":"中正路","SECT":" ","MAREA":" ","LANE":"９０８巷","ALLEY":" ","HOUSE_NO":"１５號","E_COORD97":181215.72299499999,"N_COORD97":2540343.7011699998,"ADDRESS":"中正路９０８巷１５號","OBJECTID":259060},"geometry":{"x":181215.72299500182,"y":2540343.7011740021}},{"attributes":{"ID":259065,"DIS_CODE":0,"TOWNNAME":"仁德區","LI":"後壁里","LIN":"12鄰","STREET":"德南路","SECT":" ","MAREA":" ","LANE":"２５１巷","ALLEY":" ","HOUSE_NO":"２號","E_COORD97":173829.61640200001,"N_COORD97":2538425.5644200002,"ADDRESS":"德南路２５１巷２號","OBJECTID":259061},"geometry":{"x":173829.61640200019,"y":2538425.564421}},{"attributes":{"ID":259066,"DIS_CODE":0,"TOWNNAME":"仁德區","LI":"後壁里","LIN":"12鄰","STREET":"德南路","SECT":" ","MAREA":" ","LANE":"２５１巷","ALLEY":" ","HOUSE_NO":"６號","E_COORD97":173831.946192,"N_COORD97":2538428.9510900001,"ADDRESS":"德南路２５１巷６號","OBJECTID":259062},"geometry":{"x":173831.94619200192,"y":2538428.9510860015}},{"attributes":{"ID":259067,"DIS_CODE":0,"TOWNNAME":"新營區","LI":"興安里","LIN":"9鄰","STREET":"新進路","SECT":" ","MAREA":" ","LANE":"２８１巷","ALLEY":" ","HOUSE_NO":"６號","E_COORD97":179978.33992,"N_COORD97":2577782.7239000001,"ADDRESS":"新進路２８１巷６號","OBJECTID":259063},"geometry":{"x":179978.33992000204,"y":2577782.7238990013}},{"attributes":{"ID":259068,"DIS_CODE":0,"TOWNNAME":"仁德區","LI":"後壁里","LIN":"12鄰","STREET":"德南路","SECT":" ","MAREA":" ","LANE":"２５１巷","ALLEY":" ","HOUSE_NO":"８號","E_COORD97":173834.699582,"N_COORD97":2538432.3377499999,"ADDRESS":"德南路２５１巷８號","OBJECTID":259064},"geometry":{"x":173834.69958200213,"y":2538432.3377510011}},{"attributes":{"ID":259069,"DIS_CODE":0,"TOWNNAME":"仁德區","LI":"後壁里","LIN":"12鄰","STREET":"德南路","SECT":" ","MAREA":" ","LANE":"２５１巷","ALLEY":" ","HOUSE_NO":"１０號","E_COORD97":173837.029373,"N_COORD97":2538434.87775,"ADDRESS":"德南路２５１巷１０號","OBJECTID":259065},"geometry":{"x":173837.02937300038,"y":2538434.8777500018}},{"attributes":{"ID":259070,"DIS_CODE":0,"TOWNNAME":"仁德區","LI":"後壁里","LIN":"12鄰","STREET":"德南路","SECT":" ","MAREA":" ","LANE":"２５１巷","ALLEY":" ","HOUSE_NO":"３１號","E_COORD97":173848.89012600001,"N_COORD97":2538474.0360599998,"ADDRESS":"德南路２５１巷３１號","OBJECTID":259066},"geometry":{"x":173848.89012600016,"y":2538474.0360620022}},{"attributes":{"ID":259071,"DIS_CODE":0,"TOWNNAME":"仁德區","LI":"後壁里","LIN":"12鄰","STREET":"德南路","SECT":" ","MAREA":" ","LANE":"２５１巷","ALLEY":" ","HOUSE_NO":"３３號","E_COORD97":173850.58452,"N_COORD97":2538478.26939,"ADDRESS":"德南路２５１巷３３號","OBJECTID":259067},"geometry":{"x":173850.58452000003,"y":2538478.2693929989}},{"attributes":{"ID":259072,"DIS_CODE":0,"TOWNNAME":"關廟區","LI":"埤頭里","LIN":"13鄰","STREET":"關新路","SECT":"二段","MAREA":" ","LANE":"４５１巷","ALLEY":" ","HOUSE_NO":"１２６號","E_COORD97":178857.857406,"N_COORD97":2545206.61179,"ADDRESS":"關新路二段４５１巷１２６號","OBJECTID":259068},"geometry":{"x":178857.85740599874,"y":2545206.6117930003}},{"attributes":{"ID":259073,"DIS_CODE":0,"TOWNNAME":"南區","LI":"郡南里","LIN":"17鄰","STREET":"永成路","SECT":"三段","MAREA":" ","LANE":"２５巷","ALLEY":" ","HOUSE_NO":"１號","E_COORD97":167466.77973899999,"N_COORD97":2540402.5140499999,"ADDRESS":"永成路三段２５巷１號","OBJECTID":259069},"geometry":{"x":167466.77973900083,"y":2540402.5140540022}},{"attributes":{"ID":259074,"DIS_CODE":0,"TOWNNAME":"安南區","LI":"安東里","LIN":"8鄰","STREET":"安和路","SECT":"一段","MAREA":" ","LANE":"２８８巷","ALLEY":" ","HOUSE_NO":"８號","E_COORD97":169335.30147100001,"N_COORD97":2548047.2676900001,"ADDRESS":"安和路一段２８８巷８號","OBJECTID":259070},"geometry":{"x":169335.30147099961,"y":2548047.2676890008}},{"attributes":{"ID":259075,"DIS_CODE":0,"TOWNNAME":"學甲區","LI":"慈福里","LIN":"22鄰","STREET":"華宗路","SECT":" ","MAREA":" ","LANE":" ","ALLEY":" ","HOUSE_NO":"３９１號","E_COORD97":166302.17999999999,"N_COORD97":2570321.9100000001,"ADDRESS":"華宗路３９１號","OBJECTID":259071},"geometry":{"x":166302.1799999997,"y":2570321.910000002}},{"attributes":{"ID":259076,"DIS_CODE":0,"TOWNNAME":"東區","LI":"文聖里","LIN":"13鄰","STREET":"裕興街","SECT":" ","MAREA":" ","LANE":" ","ALLEY":" ","HOUSE_NO":"１９１號","E_COORD97":172302.89000000001,"N_COORD97":2542655.7799999998,"ADDRESS":"裕興街１９１號","OBJECTID":259072},"geometry":{"x":172302.8900000006,"y":2542655.7800000012}},{"attributes":{"ID":259077,"DIS_CODE":0,"TOWNNAME":"學甲區","LI":"秀昌里","LIN":"22鄰","STREET":" ","SECT":" ","MAREA":"煥昌","LANE":" ","ALLEY":" ","HOUSE_NO":"１０號","E_COORD97":166244.14999999999,"N_COORD97":2570833.7000000002,"ADDRESS":"煥昌１０號","OBJECTID":259073},"geometry":{"x":166244.15000000037,"y":2570833.7000000011}},{"attributes":{"ID":259078,"DIS_CODE":0,"TOWNNAME":"南區","LI":"郡南里","LIN":"17鄰","STREET":"永成路","SECT":"三段","MAREA":" ","LANE":"２５巷","ALLEY":" ","HOUSE_NO":"４３號","E_COORD97":167402.82397299999,"N_COORD97":2540397.5398900001,"ADDRESS":"永成路三段２５巷４３號","OBJECTID":259074},"geometry":{"x":167402.82397300098,"y":2540397.5398900006}},{"attributes":{"ID":259079,"DIS_CODE":0,"TOWNNAME":"學甲區","LI":"光華里","LIN":"22鄰","STREET":" ","SECT":" ","MAREA":"頭港子","LANE":" ","ALLEY":" ","HOUSE_NO":"４６號之１１","E_COORD97":163169.73000000001,"N_COORD97":2573162.9300000002,"ADDRESS":"頭港子４６號之１１","OBJECTID":259075},"geometry":{"x":163169.73000000138,"y":2573162.9300000016}},{"attributes":{"ID":259080,"DIS_CODE":0,"TOWNNAME":"學甲區","LI":"光華里","LIN":"22鄰","STREET":" ","SECT":" ","MAREA":"頭港子","LANE":" ","ALLEY":" ","HOUSE_NO":"４６號之１２","E_COORD97":163169.64999999999,"N_COORD97":2573166.79,"ADDRESS":"頭港子４６號之１２","OBJECTID":259076},"geometry":{"x":163169.6500000013,"y":2573166.7899999991}},{"attributes":{"ID":259081,"DIS_CODE":0,"TOWNNAME":"學甲區","LI":"光華里","LIN":"22鄰","STREET":" ","SECT":" ","MAREA":"頭港子","LANE":" ","ALLEY":" ","HOUSE_NO":"４６號之５","E_COORD97":163168.48999999999,"N_COORD97":2573138.3300000001,"ADDRESS":"頭港子４６號之５","OBJECTID":259077},"geometry":{"x":163168.49000000022,"y":2573138.3300000001}},{"attributes":{"ID":259082,"DIS_CODE":0,"TOWNNAME":"學甲區","LI":"光華里","LIN":"22鄰","STREET":" ","SECT":" ","MAREA":"頭港子","LANE":" ","ALLEY":" ","HOUSE_NO":"４６號之６","E_COORD97":163168.76000000001,"N_COORD97":2573142.46,"ADDRESS":"頭港子４６號之６","OBJECTID":259078},"geometry":{"x":163168.76000000071,"y":2573142.4600000028}},{"attributes":{"ID":259083,"DIS_CODE":0,"TOWNNAME":"學甲區","LI":"光華里","LIN":"22鄰","STREET":" ","SECT":" ","MAREA":"頭港子","LANE":" ","ALLEY":" ","HOUSE_NO":"４６號之７","E_COORD97":163168.87,"N_COORD97":2573146.5699999998,"ADDRESS":"頭港子４６號之７","OBJECTID":259079},"geometry":{"x":163168.87000000011,"y":2573146.5700000003}},{"attributes":{"ID":259084,"DIS_CODE":0,"TOWNNAME":"學甲區","LI":"光華里","LIN":"22鄰","STREET":" ","SECT":" ","MAREA":"頭港子","LANE":" ","ALLEY":" ","HOUSE_NO":"４６號之８","E_COORD97":163168.51999999999,"N_COORD97":2573150.96,"ADDRESS":"頭港子４６號之８","OBJECTID":259080},"geometry":{"x":163168.52000000048,"y":2573150.9600000009}},{"attributes":{"ID":259085,"DIS_CODE":0,"TOWNNAME":"學甲區","LI":"光華里","LIN":"22鄰","STREET":" ","SECT":" ","MAREA":"頭港子","LANE":" ","ALLEY":" ","HOUSE_NO":"４６號之９","E_COORD97":163168.72,"N_COORD97":2573154.75,"ADDRESS":"頭港子４６號之９","OBJECTID":259081},"geometry":{"x":163168.72000000067,"y":2573154.75}},{"attributes":{"ID":259086,"DIS_CODE":0,"TOWNNAME":"學甲區","LI":"光華里","LIN":"22鄰","STREET":" ","SECT":" ","MAREA":"頭港子","LANE":" ","ALLEY":" ","HOUSE_NO":"４６號","E_COORD97":163151.12,"N_COORD97":2573067.1600000001,"ADDRESS":"頭港子４６號","OBJECTID":259082},"geometry":{"x":163151.12000000104,"y":2573067.1600000001}},{"attributes":{"ID":259087,"DIS_CODE":0,"TOWNNAME":"學甲區","LI":"光華里","LIN":"22鄰","STREET":" ","SECT":" ","MAREA":"頭港子","LANE":" ","ALLEY":" ","HOUSE_NO":"４７號","E_COORD97":163191.01999999999,"N_COORD97":2573105.75,"ADDRESS":"頭港子４７號","OBJECTID":259083},"geometry":{"x":163191.01999999955,"y":2573105.7500000019}},{"attributes":{"ID":259088,"DIS_CODE":0,"TOWNNAME":"學甲區","LI":"光華里","LIN":"22鄰","STREET":" ","SECT":" ","MAREA":"頭港子","LANE":" ","ALLEY":" ","HOUSE_NO":"４８號","E_COORD97":163194.32999999999,"N_COORD97":2573128.0499999998,"ADDRESS":"頭港子４８號","OBJECTID":259084},"geometry":{"x":163194.33000000007,"y":2573128.0500000026}},{"attributes":{"ID":259089,"DIS_CODE":0,"TOWNNAME":"學甲區","LI":"光華里","LIN":"22鄰","STREET":" ","SECT":" ","MAREA":"頭港子","LANE":" ","ALLEY":" ","HOUSE_NO":"４９號之１","E_COORD97":163235.23999999999,"N_COORD97":2573145.0299999998,"ADDRESS":"頭港子４９號之１","OBJECTID":259085},"geometry":{"x":163235.24000000115,"y":2573145.0299999993}},{"attributes":{"ID":259090,"DIS_CODE":0,"TOWNNAME":"學甲區","LI":"光華里","LIN":"22鄰","STREET":" ","SECT":" ","MAREA":"頭港子","LANE":" ","ALLEY":" ","HOUSE_NO":"４９號","E_COORD97":163233.44,"N_COORD97":2573130.6400000001,"ADDRESS":"頭港子４９號","OBJECTID":259086},"geometry":{"x":163233.44000000041,"y":2573130.6400000025}},{"attributes":{"ID":259091,"DIS_CODE":0,"TOWNNAME":"學甲區","LI":"光華里","LIN":"22鄰","STREET":" ","SECT":" ","MAREA":"頭港子","LANE":" ","ALLEY":" ","HOUSE_NO":"５０號","E_COORD97":163238.67999999999,"N_COORD97":2573163.0899999999,"ADDRESS":"頭港子５０號","OBJECTID":259087},"geometry":{"x":163238.68000000063,"y":2573163.0899999999}},{"attributes":{"ID":259092,"DIS_CODE":0,"TOWNNAME":"學甲區","LI":"光華里","LIN":"22鄰","STREET":" ","SECT":" ","MAREA":"頭港子","LANE":" ","ALLEY":" ","HOUSE_NO":"５１號","E_COORD97":163233.17000000001,"N_COORD97":2573192.5899999999,"ADDRESS":"頭港子５１號","OBJECTID":259088},"geometry":{"x":163233.16999999899,"y":2573192.5900000017}},{"attributes":{"ID":259093,"DIS_CODE":0,"TOWNNAME":"學甲區","LI":"光華里","LIN":"22鄰","STREET":" ","SECT":" ","MAREA":"頭港子","LANE":" ","ALLEY":" ","HOUSE_NO":"５３號","E_COORD97":163246.09,"N_COORD97":2573221.4100000001,"ADDRESS":"頭港子５３號","OBJECTID":259089},"geometry":{"x":163246.09000000078,"y":2573221.4100000001}},{"attributes":{"ID":259094,"DIS_CODE":0,"TOWNNAME":"北區","LI":"重興里","LIN":"22鄰","STREET":" ","SECT":" ","MAREA":"自治","LANE":" ","ALLEY":" ","HOUSE_NO":"９１號","E_COORD97":170779.59,"N_COORD97":2544918.7400000002,"ADDRESS":"自治９１號","OBJECTID":259090},"geometry":{"x":170779.59000000078,"y":2544918.7400000021}},{"attributes":{"ID":259095,"DIS_CODE":0,"TOWNNAME":"南區","LI":"郡南里","LIN":"17鄰","STREET":"永成路","SECT":"三段","MAREA":" ","LANE":"２５巷","ALLEY":" ","HOUSE_NO":"４５號","E_COORD97":167402.92986,"N_COORD97":2540391.71906,"ADDRESS":"永成路三段２５巷４５號","OBJECTID":259091},"geometry":{"x":167402.9298600005,"y":2540391.71906}},{"attributes":{"ID":259096,"DIS_CODE":0,"TOWNNAME":"南區","LI":"郡南里","LIN":"17鄰","STREET":"永成路","SECT":"三段","MAREA":" ","LANE":"２５巷","ALLEY":" ","HOUSE_NO":"４７號","E_COORD97":167402.612199,"N_COORD97":2540385.8982299999,"ADDRESS":"永成路三段２５巷４７號","OBJECTID":259092},"geometry":{"x":167402.61219900008,"y":2540385.8982299995}},{"attributes":{"ID":259097,"DIS_CODE":0,"TOWNNAME":"學甲區","LI":"慈福里","LIN":"22鄰","STREET":"濟生路","SECT":" ","MAREA":" ","LANE":" ","ALLEY":" ","HOUSE_NO":"１００號","E_COORD97":166248.48999999999,"N_COORD97":2570300.77,"ADDRESS":"濟生路１００號","OBJECTID":259093},"geometry":{"x":166248.49000000022,"y":2570300.7700000033}},{"attributes":{"ID":259098,"DIS_CODE":0,"TOWNNAME":"南區","LI":"郡南里","LIN":"17鄰","STREET":"永成路","SECT":"三段","MAREA":" ","LANE":"７巷","ALLEY":" ","HOUSE_NO":"１０號","E_COORD97":167468.791593,"N_COORD97":2540349.6503300001,"ADDRESS":"永成路三段７巷１０號","OBJECTID":259094},"geometry":{"x":167468.79159300029,"y":2540349.6503330041}},{"attributes":{"ID":259099,"DIS_CODE":0,"TOWNNAME":"新營區","LI":"興安里","LIN":"9鄰","STREET":"新進路","SECT":" ","MAREA":" ","LANE":"２８１巷","ALLEY":" ","HOUSE_NO":"１０號","E_COORD97":179993.43179800001,"N_COORD97":2577777.12421,"ADDRESS":"新進路２８１巷１０號","OBJECTID":259095},"geometry":{"x":179993.43179800082,"y":2577777.124207003}},{"attributes":{"ID":259100,"DIS_CODE":0,"TOWNNAME":"安南區","LI":"安東里","LIN":"6鄰","STREET":"安和路","SECT":"一段","MAREA":" ","LANE":"２８８巷","ALLEY":" ","HOUSE_NO":"３２號之１","E_COORD97":169388.495994,"N_COORD97":2548093.9465700001,"ADDRESS":"安和路一段２８８巷３２號之１","OBJECTID":259096},"geometry":{"x":169388.49599399976,"y":2548093.9465690032}},{"attributes":{"ID":259101,"DIS_CODE":0,"TOWNNAME":"新營區","LI":"興安里","LIN":"10鄰","STREET":"新進路","SECT":" ","MAREA":" ","LANE":"３４５巷","ALLEY":" ","HOUSE_NO":"７號","E_COORD97":179888.332421,"N_COORD97":2577724.2075700001,"ADDRESS":"新進路３４５巷７號","OBJECTID":259097},"geometry":{"x":179888.33242100198,"y":2577724.2075690012}},{"attributes":{"ID":259102,"DIS_CODE":0,"TOWNNAME":"新營區","LI":"興安里","LIN":"10鄰","STREET":"新進路","SECT":" ","MAREA":" ","LANE":"３４５巷","ALLEY":" ","HOUSE_NO":"９號","E_COORD97":179890.02757199999,"N_COORD97":2577720.5033999998,"ADDRESS":"新進路３４５巷９號","OBJECTID":259098},"geometry":{"x":179890.02757200133,"y":2577720.5034039989}},{"attributes":{"ID":259103,"DIS_CODE":0,"TOWNNAME":"新營區","LI":"興安里","LIN":"11鄰","STREET":"新進路","SECT":" ","MAREA":" ","LANE":"３４５巷","ALLEY":" ","HOUSE_NO":"１２號","E_COORD97":179883.03507300001,"N_COORD97":2577715.0000700001,"ADDRESS":"新進路３４５巷１２號","OBJECTID":259099},"geometry":{"x":179883.03507300001,"y":2577715.000074001}},{"attributes":{"ID":259104,"DIS_CODE":0,"TOWNNAME":"新營區","LI":"興安里","LIN":"11鄰","STREET":"新進路","SECT":" ","MAREA":" ","LANE":"３４５巷","ALLEY":" ","HOUSE_NO":"８號","E_COORD97":179877.52583200001,"N_COORD97":2577722.4084000001,"ADDRESS":"新進路３４５巷８號","OBJECTID":259100},"geometry":{"x":179877.52583200019,"y":2577722.4084030017}},{"attributes":{"ID":259105,"DIS_CODE":0,"TOWNNAME":"北區","LI":"文元里","LIN":"22鄰","STREET":"文成路","SECT":" ","MAREA":" ","LANE":" ","ALLEY":" ","HOUSE_NO":"６５１號","E_COORD97":167764.48000000001,"N_COORD97":2545862.6899999999,"ADDRESS":"文成路６５１號","OBJECTID":259101},"geometry":{"x":167764.48000000045,"y":2545862.6899999995}},{"attributes":{"ID":259106,"DIS_CODE":0,"TOWNNAME":"北區","LI":"文元里","LIN":"22鄰","STREET":"文成路","SECT":" ","MAREA":" ","LANE":" ","ALLEY":" ","HOUSE_NO":"６５３號","E_COORD97":167758.87,"N_COORD97":2545864.4300000002,"ADDRESS":"文成路６５３號","OBJECTID":259102},"geometry":{"x":167758.87000000104,"y":2545864.4299999997}},{"attributes":{"ID":259107,"DIS_CODE":0,"TOWNNAME":"北區","LI":"文元里","LIN":"22鄰","STREET":"文賢二街","SECT":" ","MAREA":" ","LANE":" ","ALLEY":" ","HOUSE_NO":"２２２號","E_COORD97":167727.17999999999,"N_COORD97":2545726.8599999999,"ADDRESS":"文賢二街２２２號","OBJECTID":259103},"geometry":{"x":167727.18000000063,"y":2545726.8600000013}},{"attributes":{"ID":259108,"DIS_CODE":0,"TOWNNAME":"東區","LI":"德高里","LIN":"5鄰","STREET":"仁和路","SECT":" ","MAREA":" ","LANE":" ","ALLEY":" ","HOUSE_NO":"２４４號","E_COORD97":171567.23000000001,"N_COORD97":2540898.4300000002,"ADDRESS":"仁和路２４４號","OBJECTID":259104},"geometry":{"x":171567.23000000138,"y":2540898.4300000034}},{"attributes":{"ID":259109,"DIS_CODE":0,"TOWNNAME":"新營區","LI":"興安里","LIN":"11鄰","STREET":"新進路","SECT":" ","MAREA":" ","LANE":"３４５巷","ALLEY":" ","HOUSE_NO":"１０號","E_COORD97":179880.28045200001,"N_COORD97":2577717.9634099999,"ADDRESS":"新進路３４５巷１０號","OBJECTID":259105},"geometry":{"x":179880.28045199998,"y":2577717.9634060021}},{"attributes":{"ID":259110,"DIS_CODE":0,"TOWNNAME":"南區","LI":"郡南里","LIN":"13鄰","STREET":"永成路","SECT":"三段","MAREA":" ","LANE":"７１巷","ALLEY":" ","HOUSE_NO":"３１號","E_COORD97":167390.747309,"N_COORD97":2540552.4395400002,"ADDRESS":"永成路三段７１巷３１號","OBJECTID":259106},"geometry":{"x":167390.74730900023,"y":2540552.4395430014}},{"attributes":{"ID":259111,"DIS_CODE":0,"TOWNNAME":"仁德區","LI":"後壁里","LIN":"3鄰","STREET":"中正路","SECT":"二段","MAREA":" ","LANE":"３１８巷","ALLEY":" ","HOUSE_NO":"８之１號","E_COORD97":173272.05999899999,"N_COORD97":2539008.2187000001,"ADDRESS":"中正路二段３１８巷８之１號","OBJECTID":259107},"geometry":{"x":173272.05999900028,"y":2539008.2186990008}},{"attributes":{"ID":259112,"DIS_CODE":0,"TOWNNAME":"永康區","LI":"復華里","LIN":"15鄰","STREET":"國華街","SECT":" ","MAREA":" ","LANE":"９１巷","ALLEY":" ","HOUSE_NO":"１號","E_COORD97":172829.06073,"N_COORD97":2545955.4893399999,"ADDRESS":"國華街９１巷１號","OBJECTID":259108},"geometry":{"x":172829.06073000096,"y":2545955.4893350024}},{"attributes":{"ID":259113,"DIS_CODE":0,"TOWNNAME":"安南區","LI":"海西里","LIN":"1鄰","STREET":"海環街","SECT":" ","MAREA":" ","LANE":"５３９巷","ALLEY":" ","HOUSE_NO":"４８號","E_COORD97":166095.38559600001,"N_COORD97":2549299.29427,"ADDRESS":"海環街５３９巷４８號","OBJECTID":259109},"geometry":{"x":166095.38559600059,"y":2549299.2942680009}},{"attributes":{"ID":259114,"DIS_CODE":0,"TOWNNAME":"東區","LI":"德高里","LIN":"19鄰","STREET":"城東街","SECT":" ","MAREA":" ","LANE":" ","ALLEY":" ","HOUSE_NO":"１０５號","E_COORD97":171743.57999999999,"N_COORD97":2540837.1600000001,"ADDRESS":"城東街１０５號","OBJECTID":259110},"geometry":{"x":171743.58000000007,"y":2540837.160000002}},{"attributes":{"ID":259115,"DIS_CODE":0,"TOWNNAME":"安南區","LI":"城中里","LIN":"5鄰","STREET":"城西街","SECT":"一段","MAREA":" ","LANE":"６１巷","ALLEY":" ","HOUSE_NO":"６５號","E_COORD97":160775.44454,"N_COORD97":2551261.95573,"ADDRESS":"城西街一段６１巷６５號","OBJECTID":259111},"geometry":{"x":160775.44453999959,"y":2551261.9557300005}},{"attributes":{"ID":259116,"DIS_CODE":0,"TOWNNAME":"南區","LI":"建南里","LIN":"2鄰","STREET":"永成路","SECT":"二段","MAREA":" ","LANE":"８８１巷","ALLEY":" ","HOUSE_NO":"５８號","E_COORD97":167312.98342900001,"N_COORD97":2540248.7623299998,"ADDRESS":"永成路二段８８１巷５８號","OBJECTID":259112},"geometry":{"x":167312.98342899978,"y":2540248.7623309996}},{"attributes":{"ID":259117,"DIS_CODE":0,"TOWNNAME":"安南區","LI":"城中里","LIN":"5鄰","STREET":"城西街","SECT":"一段","MAREA":" ","LANE":"６１巷","ALLEY":" ","HOUSE_NO":"６７號","E_COORD97":160784.3377,"N_COORD97":2551252.0074,"ADDRESS":"城西街一段６１巷６７號","OBJECTID":259113},"geometry":{"x":160784.33770000096,"y":2551252.0074000005}},{"attributes":{"ID":259118,"DIS_CODE":0,"TOWNNAME":"南區","LI":"建南里","LIN":"2鄰","STREET":"永成路","SECT":"二段","MAREA":" ","LANE":"８８１巷","ALLEY":" ","HOUSE_NO":"６０號","E_COORD97":167308.85334100001,"N_COORD97":2540247.4923299998,"ADDRESS":"永成路二段８８１巷６０號","OBJECTID":259114},"geometry":{"x":167308.85334100109,"y":2540247.4923319984}},{"attributes":{"ID":259119,"DIS_CODE":0,"TOWNNAME":"南區","LI":"建南里","LIN":"2鄰","STREET":"永成路","SECT":"二段","MAREA":" ","LANE":"８８１巷","ALLEY":" ","HOUSE_NO":"６２號","E_COORD97":167304.61735399999,"N_COORD97":2540246.1694200002,"ADDRESS":"永成路二段８８１巷６２號","OBJECTID":259115},"geometry":{"x":167304.61735399906,"y":2540246.1694160011}},{"attributes":{"ID":259120,"DIS_CODE":0,"TOWNNAME":"東區","LI":"德高里","LIN":"18鄰","STREET":"仁和路","SECT":" ","MAREA":" ","LANE":"２８６巷","ALLEY":" ","HOUSE_NO":"１１號","E_COORD97":171681.23999999999,"N_COORD97":2540709.6699999999,"ADDRESS":"仁和路２８６巷１１號","OBJECTID":259116},"geometry":{"x":171681.24000000022,"y":2540709.6699999999}},{"attributes":{"ID":259121,"DIS_CODE":0,"TOWNNAME":"南區","LI":"建南里","LIN":"2鄰","STREET":"永成路","SECT":"二段","MAREA":" ","LANE":"８８１巷","ALLEY":" ","HOUSE_NO":"６６號","E_COORD97":167300.169567,"N_COORD97":2540245.21692,"ADDRESS":"永成路二段８８１巷６６號","OBJECTID":259117},"geometry":{"x":167300.16956700012,"y":2540245.2169160005}},{"attributes":{"ID":259122,"DIS_CODE":0,"TOWNNAME":"南區","LI":"建南里","LIN":"2鄰","STREET":"永成路","SECT":"二段","MAREA":" ","LANE":"８８１巷","ALLEY":" ","HOUSE_NO":"６８號","E_COORD97":167296.039479,"N_COORD97":2540244.15858,"ADDRESS":"永成路二段８８１巷６８號","OBJECTID":259118},"geometry":{"x":167296.03947900049,"y":2540244.1585840005}},{"attributes":{"ID":259123,"DIS_CODE":0,"TOWNNAME":"東區","LI":"德高里","LIN":"13鄰","STREET":"城東街","SECT":" ","MAREA":" ","LANE":" ","ALLEY":" ","HOUSE_NO":"３１號","E_COORD97":171525.98000000001,"N_COORD97":2540693.7799999998,"ADDRESS":"城東街３１號","OBJECTID":259119},"geometry":{"x":171525.98000000045,"y":2540693.7800000012}},{"attributes":{"ID":259124,"DIS_CODE":0,"TOWNNAME":"東區","LI":"德高里","LIN":"8鄰","STREET":"仁和路","SECT":" ","MAREA":" ","LANE":" ","ALLEY":" ","HOUSE_NO":"１８２號","E_COORD97":171472.92000000001,"N_COORD97":2541044.6299999999,"ADDRESS":"仁和路１８２號","OBJECTID":259120},"geometry":{"x":171472.91999999993,"y":2541044.629999999}},{"attributes":{"ID":259125,"DIS_CODE":0,"TOWNNAME":"東區","LI":"德高里","LIN":"12鄰","STREET":"崇善路","SECT":" ","MAREA":" ","LANE":" ","ALLEY":" ","HOUSE_NO":"８９５號","E_COORD97":171394.37,"N_COORD97":2540715.5499999998,"ADDRESS":"崇善路８９５號","OBJECTID":259121},"geometry":{"x":171394.36999999918,"y":2540715.5500000045}},{"attributes":{"ID":259126,"DIS_CODE":0,"TOWNNAME":"東區","LI":"中西里","LIN":"28鄰","STREET":"東寧路","SECT":" ","MAREA":" ","LANE":" ","ALLEY":" ","HOUSE_NO":"１５０號","E_COORD97":170349.70000000001,"N_COORD97":2543523.9100000001,"ADDRESS":"東寧路１５０號","OBJECTID":259122},"geometry":{"x":170349.69999999925,"y":2543523.910000002}},{"attributes":{"ID":259127,"DIS_CODE":0,"TOWNNAME":"東區","LI":"中西里","LIN":"28鄰","STREET":"東寧路","SECT":" ","MAREA":" ","LANE":" ","ALLEY":" ","HOUSE_NO":"１５２號","E_COORD97":170357.16,"N_COORD97":2543526.7200000002,"ADDRESS":"東寧路１５２號","OBJECTID":259123},"geometry":{"x":170357.16000000108,"y":2543526.7200000025}},{"attributes":{"ID":259128,"DIS_CODE":0,"TOWNNAME":"東區","LI":"中西里","LIN":"28鄰","STREET":"東寧路","SECT":" ","MAREA":" ","LANE":" ","ALLEY":" ","HOUSE_NO":"１５４號","E_COORD97":170365.17999999999,"N_COORD97":2543530.23,"ADDRESS":"東寧路１５４號","OBJECTID":259124},"geometry":{"x":170365.18000000063,"y":2543530.2300000004}},{"attributes":{"ID":259129,"DIS_CODE":0,"TOWNNAME":"東區","LI":"中西里","LIN":"28鄰","STREET":"東寧路","SECT":" ","MAREA":" ","LANE":" ","ALLEY":" ","HOUSE_NO":"１５４號之１","E_COORD97":170373.76000000001,"N_COORD97":2543512.3799999999,"ADDRESS":"東寧路１５４號之１","OBJECTID":259125},"geometry":{"x":170373.75999999978,"y":2543512.3800000008}},{"attributes":{"ID":259130,"DIS_CODE":0,"TOWNNAME":"南區","LI":"建南里","LIN":"2鄰","STREET":"永成路","SECT":"二段","MAREA":" ","LANE":"８８１巷","ALLEY":" ","HOUSE_NO":"７０號","E_COORD97":167292.12119100001,"N_COORD97":2540243.2060799999,"ADDRESS":"永成路二段８８１巷７０號","OBJECTID":259126},"geometry":{"x":167292.12119099963,"y":2540243.2060839999}},{"attributes":{"ID":259131,"DIS_CODE":0,"TOWNNAME":"關廟區","LI":"東勢里","LIN":"14鄰","STREET":"東榮街","SECT":" ","MAREA":" ","LANE":"９２巷","ALLEY":" ","HOUSE_NO":"１５號","E_COORD97":182126.34229999999,"N_COORD97":2539289.5787399998,"ADDRESS":"東榮街９２巷１５號","OBJECTID":259127},"geometry":{"x":182126.34229999967,"y":2539289.5787390042}},{"attributes":{"ID":259132,"DIS_CODE":0,"TOWNNAME":"歸仁區","LI":"西埔里","LIN":"15鄰","STREET":"大埔路","SECT":"二段","MAREA":" ","LANE":"８巷","ALLEY":" ","HOUSE_NO":"１６６號","E_COORD97":176476.58178400001,"N_COORD97":2545890.0773800001,"ADDRESS":"大埔路二段８巷１６６號","OBJECTID":259128},"geometry":{"x":176476.58178400062,"y":2545890.0773809981}},{"attributes":{"ID":259133,"DIS_CODE":0,"TOWNNAME":"歸仁區","LI":"西埔里","LIN":"15鄰","STREET":"大埔路","SECT":"二段","MAREA":" ","LANE":"８巷","ALLEY":" ","HOUSE_NO":"１６８號","E_COORD97":176505.41842599999,"N_COORD97":2545881.6107200002,"ADDRESS":"大埔路二段８巷１６８號","OBJECTID":259129},"geometry":{"x":176505.41842599958,"y":2545881.6107189991}},{"attributes":{"ID":259134,"DIS_CODE":0,"TOWNNAME":"關廟區","LI":"香洋里","LIN":"6鄰","STREET":"忠孝街","SECT":" ","MAREA":" ","LANE":"９０巷","ALLEY":" ","HOUSE_NO":"１７號","E_COORD97":181032.417617,"N_COORD97":2540216.47792,"ADDRESS":"忠孝街９０巷１７號","OBJECTID":259130},"geometry":{"x":181032.41761699878,"y":2540216.4779209998}},{"attributes":{"ID":259135,"DIS_CODE":0,"TOWNNAME":"麻豆區","LI":"興農里","LIN":"7鄰","STREET":"新生南路","SECT":" ","MAREA":" ","LANE":"２１８巷","ALLEY":" ","HOUSE_NO":"１２號","E_COORD97":172313.45131599999,"N_COORD97":2564479.21881,"ADDRESS":"新生南路２１８巷１２號","OBJECTID":259131},"geometry":{"x":172313.45131599996,"y":2564479.2188130021}},{"attributes":{"ID":259136,"DIS_CODE":0,"TOWNNAME":"南區","LI":"建南里","LIN":"22鄰","STREET":"永成路","SECT":"二段","MAREA":" ","LANE":"８４５巷","ALLEY":" ","HOUSE_NO":"１２號","E_COORD97":167437.55491899999,"N_COORD97":2540172.89023,"ADDRESS":"永成路二段８４５巷１２號","OBJECTID":259132},"geometry":{"x":167437.55491899978,"y":2540172.8902349994}},{"attributes":{"ID":259137,"DIS_CODE":0,"TOWNNAME":"關廟區","LI":"下湖里","LIN":"1鄰","STREET":"南雄路","SECT":"二段","MAREA":" ","LANE":"８８０巷","ALLEY":" ","HOUSE_NO":"５０號","E_COORD97":180459.38737000001,"N_COORD97":2541776.14873,"ADDRESS":"南雄路二段８８０巷５０號","OBJECTID":259133},"geometry":{"x":180459.38737000059,"y":2541776.1487310026}},{"attributes":{"ID":259138,"DIS_CODE":0,"TOWNNAME":"南區","LI":"建南里","LIN":"22鄰","STREET":"永成路","SECT":"二段","MAREA":" ","LANE":"８４５巷","ALLEY":" ","HOUSE_NO":"１６號","E_COORD97":167430.77814899999,"N_COORD97":2540173.1019000001,"ADDRESS":"永成路二段８４５巷１６號","OBJECTID":259134},"geometry":{"x":167430.77814900037,"y":2540173.1019020006}},{"attributes":{"ID":259139,"DIS_CODE":0,"TOWNNAME":"新營區","LI":"王公里","LIN":"30鄰","STREET":"民族路","SECT":" ","MAREA":" ","LANE":"２６８巷","ALLEY":" ","HOUSE_NO":"１２號","E_COORD97":180436.13720100001,"N_COORD97":2579552.9010800002,"ADDRESS":"民族路２６８巷１２號","OBJECTID":259135},"geometry":{"x":180436.13720100094,"y":2579552.9010770023}},{"attributes":{"ID":259140,"DIS_CODE":0,"TOWNNAME":"南區","LI":"建南里","LIN":"22鄰","STREET":"永成路","SECT":"二段","MAREA":" ","LANE":"８４５巷","ALLEY":" ","HOUSE_NO":"１８號","E_COORD97":167423.577831,"N_COORD97":2540172.89023,"ADDRESS":"永成路二段８４５巷１８號","OBJECTID":259136},"geometry":{"x":167423.57783100102,"y":2540172.8902349994}},{"attributes":{"ID":259141,"DIS_CODE":0,"TOWNNAME":"新營區","LI":"王公里","LIN":"30鄰","STREET":"民族路","SECT":" ","MAREA":" ","LANE":"２６８巷","ALLEY":" ","HOUSE_NO":"２２號","E_COORD97":180458.80859900001,"N_COORD97":2579548.2444099998,"ADDRESS":"民族路２６８巷２２號","OBJECTID":259137},"geometry":{"x":180458.8085990008,"y":2579548.2444119994}},{"attributes":{"ID":259142,"DIS_CODE":0,"TOWNNAME":"歸仁區","LI":"七甲里","LIN":"1鄰","STREET":"中正北路","SECT":"二段","MAREA":" ","LANE":"７５巷","ALLEY":" ","HOUSE_NO":"３３號","E_COORD97":177509.930116,"N_COORD97":2542268.1451699999,"ADDRESS":"中正北路二段７５巷３３號","OBJECTID":259138},"geometry":{"x":177509.93011600152,"y":2542268.1451700013}},{"attributes":{"ID":259143,"DIS_CODE":0,"TOWNNAME":"南區","LI":"建南里","LIN":"22鄰","STREET":"永成路","SECT":"二段","MAREA":" ","LANE":"８４５巷","ALLEY":" ","HOUSE_NO":"２２號","E_COORD97":167413.62445,"N_COORD97":2540173.3135700002,"ADDRESS":"永成路二段８４５巷２２號","OBJECTID":259139},"geometry":{"x":167413.62445000187,"y":2540173.3135690019}},{"attributes":{"ID":259144,"DIS_CODE":0,"TOWNNAME":"南區","LI":"建南里","LIN":"22鄰","STREET":"永成路","SECT":"二段","MAREA":" ","LANE":"８４５巷","ALLEY":" ","HOUSE_NO":"２６號","E_COORD97":167409.177195,"N_COORD97":2540173.3135700002,"ADDRESS":"永成路二段８４５巷２６號","OBJECTID":259140},"geometry":{"x":167409.17719499953,"y":2540173.3135690019}},{"attributes":{"ID":259145,"DIS_CODE":0,"TOWNNAME":"歸仁區","LI":"七甲里","LIN":"1鄰","STREET":"中正北路","SECT":"二段","MAREA":" ","LANE":"７５巷","ALLEY":" ","HOUSE_NO":"３５號","E_COORD97":177492.755351,"N_COORD97":2542262.6418400002,"ADDRESS":"中正北路二段７５巷３５號","OBJECTID":259141},"geometry":{"x":177492.75535099953,"y":2542262.6418399997}},{"attributes":{"ID":259146,"DIS_CODE":0,"TOWNNAME":"東區","LI":"中西里","LIN":"28鄰","STREET":"東寧路","SECT":" ","MAREA":" ","LANE":" ","ALLEY":" ","HOUSE_NO":"１５４號之２","E_COORD97":170365.04000000001,"N_COORD97":2543510.4100000001,"ADDRESS":"東寧路１５４號之２","OBJECTID":259142},"geometry":{"x":170365.04000000097,"y":2543510.410000002}},{"attributes":{"ID":259147,"DIS_CODE":0,"TOWNNAME":"南區","LI":"建南里","LIN":"22鄰","STREET":"永成路","SECT":"二段","MAREA":" ","LANE":"８４５巷","ALLEY":" ","HOUSE_NO":"２８號","E_COORD97":167403.03574699999,"N_COORD97":2540173.5252399999,"ADDRESS":"永成路二段８４５巷２８號","OBJECTID":259143},"geometry":{"x":167403.03574700002,"y":2540173.5252350029}},{"attributes":{"ID":259148,"DIS_CODE":0,"TOWNNAME":"關廟區","LI":"香洋里","LIN":"5鄰","STREET":"忠孝街","SECT":" ","MAREA":" ","LANE":"１０６巷","ALLEY":" ","HOUSE_NO":"７號","E_COORD97":181056.88243900001,"N_COORD97":2540255.1857799999,"ADDRESS":"忠孝街１０６巷７號","OBJECTID":259144},"geometry":{"x":181056.88243900053,"y":2540255.1857789997}},{"attributes":{"ID":259149,"DIS_CODE":0,"TOWNNAME":"東區","LI":"中西里","LIN":"28鄰","STREET":"東寧路","SECT":" ","MAREA":" ","LANE":" ","ALLEY":" ","HOUSE_NO":"１５４號之６","E_COORD97":170343.09,"N_COORD97":2543504.0899999999,"ADDRESS":"東寧路１５４號之６","OBJECTID":259145},"geometry":{"x":170343.08999999985,"y":2543504.0899999999}},{"attributes":{"ID":259150,"DIS_CODE":0,"TOWNNAME":"新營區","LI":"王公里","LIN":"30鄰","STREET":"民族路","SECT":" ","MAREA":" ","LANE":"２６８巷","ALLEY":" ","HOUSE_NO":"２號","E_COORD97":180414.31333199999,"N_COORD97":2579555.6527399998,"ADDRESS":"民族路２６８巷２號","OBJECTID":259146},"geometry":{"x":180414.31333200075,"y":2579555.6527420003}},{"attributes":{"ID":259151,"DIS_CODE":0,"TOWNNAME":"南區","LI":"建南里","LIN":"22鄰","STREET":"永成路","SECT":"二段","MAREA":" ","LANE":"８４５巷","ALLEY":" ","HOUSE_NO":"３０號","E_COORD97":167398.37671800001,"N_COORD97":2540173.5252399999,"ADDRESS":"永成路二段８４５巷３０號","OBJECTID":259147},"geometry":{"x":167398.37671799958,"y":2540173.5252350029}},{"attributes":{"ID":259152,"DIS_CODE":0,"TOWNNAME":"關廟區","LI":"下湖里","LIN":"1鄰","STREET":"南雄路","SECT":"二段","MAREA":" ","LANE":"８８０巷","ALLEY":" ","HOUSE_NO":"１６１號","E_COORD97":180555.59679700001,"N_COORD97":2542305.6590700001,"ADDRESS":"南雄路二段８８０巷１６１號","OBJECTID":259148},"geometry":{"x":180555.59679700062,"y":2542305.6590700038}},{"attributes":{"ID":259153,"DIS_CODE":0,"TOWNNAME":"安南區","LI":"安東里","LIN":"14鄰","STREET":"安和路","SECT":"一段","MAREA":" ","LANE":"２２０巷","ALLEY":" ","HOUSE_NO":"４６之１號","E_COORD97":169448.98023700001,"N_COORD97":2547976.1605400001,"ADDRESS":"安和路一段２２０巷４６之１號","OBJECTID":259149},"geometry":{"x":169448.98023699969,"y":2547976.1605390012}},{"attributes":{"ID":259154,"DIS_CODE":0,"TOWNNAME":"新營區","LI":"王公里","LIN":"27鄰","STREET":"民族路","SECT":" ","MAREA":" ","LANE":"３０６巷","ALLEY":" ","HOUSE_NO":"３號","E_COORD97":180414.05935699999,"N_COORD97":2579717.6059500002,"ADDRESS":"民族路３０６巷３號","OBJECTID":259150},"geometry":{"x":180414.05935700051,"y":2579717.6059460025}},{"attributes":{"ID":259155,"DIS_CODE":0,"TOWNNAME":"新營區","LI":"王公里","LIN":"27鄰","STREET":"民族路","SECT":" ","MAREA":" ","LANE":"３０６巷","ALLEY":" ","HOUSE_NO":"５號","E_COORD97":180416.496002,"N_COORD97":2579717.87053,"ADDRESS":"民族路３０６巷５號","OBJECTID":259151},"geometry":{"x":180416.49600199983,"y":2579717.8705290016}},{"attributes":{"ID":259156,"DIS_CODE":0,"TOWNNAME":"新營區","LI":"王公里","LIN":"27鄰","STREET":"民族路","SECT":" ","MAREA":" ","LANE":"３０６巷","ALLEY":" ","HOUSE_NO":"７號","E_COORD97":180423.170292,"N_COORD97":2579717.5530300001,"ADDRESS":"民族路３０６巷７號","OBJECTID":259152},"geometry":{"x":180423.17029200122,"y":2579717.5530290008}},{"attributes":{"ID":259157,"DIS_CODE":0,"TOWNNAME":"仁德區","LI":"太子里","LIN":"27鄰","STREET":"中正路","SECT":"三段","MAREA":" ","LANE":"５２３巷","ALLEY":" ","HOUSE_NO":"１０４號","E_COORD97":173597.98418999999,"N_COORD97":2543077.0844299998,"ADDRESS":"中正路三段５２３巷１０４號","OBJECTID":259153},"geometry":{"x":173597.98419000022,"y":2543077.0844279993}},{"attributes":{"ID":259158,"DIS_CODE":0,"TOWNNAME":"新營區","LI":"王公里","LIN":"27鄰","STREET":"民族路","SECT":" ","MAREA":" ","LANE":"３０８巷","ALLEY":" ","HOUSE_NO":"２６號","E_COORD97":180444.78227900001,"N_COORD97":2579738.7196800001,"ADDRESS":"民族路３０８巷２６號","OBJECTID":259154},"geometry":{"x":180444.78227899969,"y":2579738.7196840029}},{"attributes":{"ID":259159,"DIS_CODE":0,"TOWNNAME":"仁德區","LI":"太子里","LIN":"27鄰","STREET":"中正路","SECT":"三段","MAREA":" ","LANE":"５２３巷","ALLEY":" ","HOUSE_NO":"１０４之１號","E_COORD97":173588.87799400001,"N_COORD97":2543077.0844299998,"ADDRESS":"中正路三段５２３巷１０４之１號","OBJECTID":259155},"geometry":{"x":173588.87799400184,"y":2543077.0844279993}},{"attributes":{"ID":259160,"DIS_CODE":0,"TOWNNAME":"六甲區","LI":"甲東里","LIN":"28鄰","STREET":"珊瑚路","SECT":" ","MAREA":" ","LANE":"１２１巷","ALLEY":" ","HOUSE_NO":"３４號","E_COORD97":184010.06055900001,"N_COORD97":2569383.9994100002,"ADDRESS":"珊瑚路１２１巷３４號","OBJECTID":259156},"geometry":{"x":184010.06055899989,"y":2569383.9994140025}},{"attributes":{"ID":259161,"DIS_CODE":0,"TOWNNAME":"安南區","LI":"安東里","LIN":"13鄰","STREET":"安和路","SECT":"一段","MAREA":" ","LANE":"２２０巷","ALLEY":" ","HOUSE_NO":"６４號之１","E_COORD97":169499.18957399999,"N_COORD97":2548011.72052,"ADDRESS":"安和路一段２２０巷６４號之１","OBJECTID":259157},"geometry":{"x":169499.18957400043,"y":2548011.7205200028}},{"attributes":{"ID":259162,"DIS_CODE":0,"TOWNNAME":"新營區","LI":"王公里","LIN":"29鄰","STREET":"長榮路","SECT":"一段","MAREA":" ","LANE":"５１５巷","ALLEY":" ","HOUSE_NO":"３７號","E_COORD97":180310.660833,"N_COORD97":2579731.25844,"ADDRESS":"長榮路一段５１５巷３７號","OBJECTID":259158},"geometry":{"x":180310.66083300114,"y":2579731.2584380023}},{"attributes":{"ID":259163,"DIS_CODE":0,"TOWNNAME":"安南區","LI":"總頭里","LIN":"10鄰","STREET":"長溪路","SECT":"二段","MAREA":" ","LANE":"５２３巷","ALLEY":" ","HOUSE_NO":"６４號","E_COORD97":168066.01396499999,"N_COORD97":2550501.6656599999,"ADDRESS":"長溪路二段５２３巷６４號","OBJECTID":259159},"geometry":{"x":168066.01396500133,"y":2550501.6656569988}},{"attributes":{"ID":259164,"DIS_CODE":0,"TOWNNAME":"安南區","LI":"總頭里","LIN":"12鄰","STREET":"長溪路","SECT":"二段","MAREA":" ","LANE":"５２３巷","ALLEY":" ","HOUSE_NO":"１７號","E_COORD97":168189.744538,"N_COORD97":2550497.8556599999,"ADDRESS":"長溪路二段５２３巷１７號","OBJECTID":259160},"geometry":{"x":168189.74453800078,"y":2550497.8556590006}},{"attributes":{"ID":259165,"DIS_CODE":0,"TOWNNAME":"安南區","LI":"總頭里","LIN":"12鄰","STREET":"長溪路","SECT":"二段","MAREA":" ","LANE":"５２３巷","ALLEY":" ","HOUSE_NO":"２５號","E_COORD97":168179.57490199999,"N_COORD97":2550503.14732,"ADDRESS":"長溪路二段５２３巷２５號","OBJECTID":259161},"geometry":{"x":168179.57490199991,"y":2550503.1473220009}},{"attributes":{"ID":259166,"DIS_CODE":0,"TOWNNAME":"北區","LI":"成德里","LIN":"22鄰","STREET":"文成五街","SECT":" ","MAREA":" ","LANE":" ","ALLEY":" ","HOUSE_NO":"９０號","E_COORD97":168459.39999999999,"N_COORD97":2546583.71,"ADDRESS":"文成五街９０號","OBJECTID":259162},"geometry":{"x":168459.40000000037,"y":2546583.7100000046}},{"attributes":{"ID":259167,"DIS_CODE":0,"TOWNNAME":"北區","LI":"成德里","LIN":"22鄰","STREET":"文成五街","SECT":" ","MAREA":" ","LANE":" ","ALLEY":" ","HOUSE_NO":"８８號","E_COORD97":168464.23000000001,"N_COORD97":2546584.98,"ADDRESS":"文成五街８８號","OBJECTID":259163},"geometry":{"x":168464.23000000045,"y":2546584.9800000023}},{"attributes":{"ID":259168,"DIS_CODE":0,"TOWNNAME":"北區","LI":"成德里","LIN":"22鄰","STREET":"文成五街","SECT":" ","MAREA":" ","LANE":" ","ALLEY":" ","HOUSE_NO":"８６號","E_COORD97":168469.31,"N_COORD97":2546586.75,"ADDRESS":"文成五街８６號","OBJECTID":259164},"geometry":{"x":168469.30999999959,"y":2546586.7500000019}},{"attributes":{"ID":259169,"DIS_CODE":0,"TOWNNAME":"安南區","LI":"安慶里","LIN":"13鄰","STREET":"培安路","SECT":" ","MAREA":" ","LANE":"２８５巷","ALLEY":" ","HOUSE_NO":"６０號","E_COORD97":169433.686197,"N_COORD97":2548844.4470799998,"ADDRESS":"培安路２８５巷６０號","OBJECTID":259165},"geometry":{"x":169433.68619699962,"y":2548844.447079001}},{"attributes":{"ID":259170,"DIS_CODE":0,"TOWNNAME":"安南區","LI":"安慶里","LIN":"13鄰","STREET":"培安路","SECT":" ","MAREA":" ","LANE":"２８５巷","ALLEY":" ","HOUSE_NO":"６２號","E_COORD97":169437.49998600001,"N_COORD97":2548842.54208,"ADDRESS":"培安路２８５巷６２號","OBJECTID":259166},"geometry":{"x":169437.49998600222,"y":2548842.54208}},{"attributes":{"ID":259171,"DIS_CODE":0,"TOWNNAME":"安南區","LI":"安慶里","LIN":"13鄰","STREET":"培安路","SECT":" ","MAREA":" ","LANE":"２８５巷","ALLEY":" ","HOUSE_NO":"６６號","E_COORD97":169441.52565299999,"N_COORD97":2548841.4837500001,"ADDRESS":"培安路２８５巷６６號","OBJECTID":259167},"geometry":{"x":169441.52565299906,"y":2548841.483748002}},{"attributes":{"ID":259172,"DIS_CODE":0,"TOWNNAME":"中西區","LI":"進學里","LIN":"7鄰","STREET":"永福路","SECT":"一段","MAREA":" ","LANE":"２６巷","ALLEY":" ","HOUSE_NO":"５號","E_COORD97":168034.881509,"N_COORD97":2542939.3454399998,"ADDRESS":"永福路一段２６巷５號","OBJECTID":259168},"geometry":{"x":168034.8815090023,"y":2542939.3454369996}},{"attributes":{"ID":259173,"DIS_CODE":0,"TOWNNAME":"中西區","LI":"進學里","LIN":"11鄰","STREET":"永福路","SECT":"一段","MAREA":" ","LANE":"６８巷","ALLEY":" ","HOUSE_NO":"２號","E_COORD97":168032.339271,"N_COORD97":2543057.2437100001,"ADDRESS":"永福路一段６８巷２號","OBJECTID":259169},"geometry":{"x":168032.33927100059,"y":2543057.2437070012}},{"attributes":{"ID":259174,"DIS_CODE":0,"TOWNNAME":"北區","LI":"成德里","LIN":"22鄰","STREET":"文成五街","SECT":" ","MAREA":" ","LANE":" ","ALLEY":" ","HOUSE_NO":"８２號","E_COORD97":168475.28,"N_COORD97":2546587.77,"ADDRESS":"文成五街８２號","OBJECTID":259170},"geometry":{"x":168475.28000000119,"y":2546587.7699999996}},{"attributes":{"ID":259175,"DIS_CODE":0,"TOWNNAME":"中西區","LI":"進學里","LIN":"14鄰","STREET":"永福路","SECT":"一段","MAREA":" ","LANE":"１０２巷","ALLEY":" ","HOUSE_NO":"１號","E_COORD97":168018.356959,"N_COORD97":2543248.8019400002,"ADDRESS":"永福路一段１０２巷１號","OBJECTID":259171},"geometry":{"x":168018.35695900116,"y":2543248.801936999}},{"attributes":{"ID":259176,"DIS_CODE":0,"TOWNNAME":"中西區","LI":"進學里","LIN":"14鄰","STREET":"永福路","SECT":"一段","MAREA":" ","LANE":"１０８巷","ALLEY":" ","HOUSE_NO":"２號","E_COORD97":168019.41622499999,"N_COORD97":2543266.1585900001,"ADDRESS":"永福路一段１０８巷２號","OBJECTID":259172},"geometry":{"x":168019.41622500028,"y":2543266.1585940011}},{"attributes":{"ID":259177,"DIS_CODE":0,"TOWNNAME":"中西區","LI":"進學里","LIN":"14鄰","STREET":"永福路","SECT":"一段","MAREA":" ","LANE":"１０８巷","ALLEY":" ","HOUSE_NO":"４號","E_COORD97":168030.64444500001,"N_COORD97":2543262.7719299998,"ADDRESS":"永福路一段１０８巷４號","OBJECTID":259173},"geometry":{"x":168030.64444500115,"y":2543262.7719290014}},{"attributes":{"ID":259178,"DIS_CODE":0,"TOWNNAME":"東區","LI":"東光里","LIN":"16鄰","STREET":"莊敬路","SECT":" ","MAREA":" ","LANE":" ","ALLEY":" ","HOUSE_NO":"２號","E_COORD97":171346.39999999999,"N_COORD97":2543714.1699999999,"ADDRESS":"莊敬路２號","OBJECTID":259174},"geometry":{"x":171346.40000000037,"y":2543714.1699999999}},{"attributes":{"ID":259179,"DIS_CODE":0,"TOWNNAME":"東區","LI":"圍下里","LIN":"16鄰","STREET":"新樓街","SECT":" ","MAREA":" ","LANE":" ","ALLEY":" ","HOUSE_NO":"６１號","E_COORD97":169596.14000000001,"N_COORD97":2543350.6699999999,"ADDRESS":"新樓街６１號","OBJECTID":259175},"geometry":{"x":169596.13999999966,"y":2543350.6699999999}},{"attributes":{"ID":259180,"DIS_CODE":0,"TOWNNAME":"南區","LI":"建南里","LIN":"21鄰","STREET":"永成路","SECT":"二段","MAREA":" ","LANE":"８６３巷","ALLEY":" ","HOUSE_NO":"１６號","E_COORD97":167456.614584,"N_COORD97":2540217.5518800002,"ADDRESS":"永成路二段８６３巷１６號","OBJECTID":259176},"geometry":{"x":167456.61458399985,"y":2540217.5518780015}},{"attributes":{"ID":259181,"DIS_CODE":0,"TOWNNAME":"南區","LI":"建南里","LIN":"21鄰","STREET":"永成路","SECT":"二段","MAREA":" ","LANE":"８６３巷","ALLEY":" ","HOUSE_NO":"１０號","E_COORD97":167471.43876799999,"N_COORD97":2540217.6047999999,"ADDRESS":"永成路二段８６３巷１０號","OBJECTID":259177},"geometry":{"x":167471.43876800127,"y":2540217.6047949996}},{"attributes":{"ID":259182,"DIS_CODE":0,"TOWNNAME":"南區","LI":"建南里","LIN":"21鄰","STREET":"永成路","SECT":"二段","MAREA":" ","LANE":"８６３巷","ALLEY":" ","HOUSE_NO":"１２號","E_COORD97":167464.23845,"N_COORD97":2540217.49896,"ADDRESS":"永成路二段８６３巷１２號","OBJECTID":259178},"geometry":{"x":167464.23845000006,"y":2540217.4989609998}},{"attributes":{"ID":259183,"DIS_CODE":0,"TOWNNAME":"南區","LI":"建南里","LIN":"21鄰","STREET":"永成路","SECT":"二段","MAREA":" ","LANE":"８６３巷","ALLEY":" ","HOUSE_NO":"２０號","E_COORD97":167446.02588100001,"N_COORD97":2540217.2873,"ADDRESS":"永成路二段８６３巷２０號","OBJECTID":259179},"geometry":{"x":167446.02588099986,"y":2540217.2872950025}},{"attributes":{"ID":259184,"DIS_CODE":0,"TOWNNAME":"南區","LI":"建南里","LIN":"21鄰","STREET":"永成路","SECT":"二段","MAREA":" ","LANE":"８６３巷","ALLEY":" ","HOUSE_NO":"２６號","E_COORD97":167431.30758399999,"N_COORD97":2540217.2873,"ADDRESS":"永成路二段８６３巷２６號","OBJECTID":259180},"geometry":{"x":167431.30758400075,"y":2540217.2872950025}},{"attributes":{"ID":259185,"DIS_CODE":0,"TOWNNAME":"南區","LI":"建南里","LIN":"22鄰","STREET":"永成路","SECT":"二段","MAREA":" ","LANE":"８６３巷","ALLEY":" ","HOUSE_NO":"１１號","E_COORD97":167470.90933299999,"N_COORD97":2540202.47064,"ADDRESS":"永成路二段８６３巷１１號","OBJECTID":259181},"geometry":{"x":167470.90933300089,"y":2540202.470635999}},{"attributes":{"ID":259186,"DIS_CODE":0,"TOWNNAME":"南區","LI":"建南里","LIN":"22鄰","STREET":"永成路","SECT":"二段","MAREA":" ","LANE":"８６３巷","ALLEY":" ","HOUSE_NO":"１５號","E_COORD97":167460.74417799999,"N_COORD97":2540203.5289699999,"ADDRESS":"永成路二段８６３巷１５號","OBJECTID":259182},"geometry":{"x":167460.74417799991,"y":2540203.528969001}},{"attributes":{"ID":259187,"DIS_CODE":0,"TOWNNAME":"南區","LI":"建南里","LIN":"22鄰","STREET":"永成路","SECT":"二段","MAREA":" ","LANE":"８６３巷","ALLEY":" ","HOUSE_NO":"１７號","E_COORD97":167452.273216,"N_COORD97":2540203.5289699999,"ADDRESS":"永成路二段８６３巷１７號","OBJECTID":259183},"geometry":{"x":167452.27321599983,"y":2540203.528969001}},{"attributes":{"ID":259188,"DIS_CODE":0,"TOWNNAME":"南區","LI":"建南里","LIN":"22鄰","STREET":"永成路","SECT":"二段","MAREA":" ","LANE":"８６３巷","ALLEY":" ","HOUSE_NO":"１９號","E_COORD97":167444.01402800001,"N_COORD97":2540203.74064,"ADDRESS":"永成路二段８６３巷１９號","OBJECTID":259184},"geometry":{"x":167444.01402799971,"y":2540203.740635002}},{"attributes":{"ID":259189,"DIS_CODE":0,"TOWNNAME":"南區","LI":"建南里","LIN":"863鄰","STREET":"永成路","SECT":"二段","MAREA":" ","LANE":"８６３巷","ALLEY":" ","HOUSE_NO":"２１號","E_COORD97":167436.81370999999,"N_COORD97":2540203.9523,"ADDRESS":"永成路二段８６３巷２１號","OBJECTID":259185},"geometry":{"x":167436.8137100013,"y":2540203.9523019996}},{"attributes":{"ID":259190,"DIS_CODE":0,"TOWNNAME":"南區","LI":"建南里","LIN":"20鄰","STREET":"永成路","SECT":"二段","MAREA":" ","LANE":"８６３巷","ALLEY":" ","HOUSE_NO":"２５號","E_COORD97":167424.31904,"N_COORD97":2540204.3756300001,"ADDRESS":"永成路二段８６３巷２５號","OBJECTID":259186},"geometry":{"x":167424.31904000044,"y":2540204.3756350018}},{"attributes":{"ID":259191,"DIS_CODE":0,"TOWNNAME":"南區","LI":"建南里","LIN":"22鄰","STREET":"永成路","SECT":"二段","MAREA":" ","LANE":"８６３巷","ALLEY":" ","HOUSE_NO":"２７號","E_COORD97":167417.965818,"N_COORD97":2540204.7989699999,"ADDRESS":"永成路二段８６３巷２７號","OBJECTID":259187},"geometry":{"x":167417.96581800003,"y":2540204.7989680003}},{"attributes":{"ID":259192,"DIS_CODE":0,"TOWNNAME":"善化區","LI":"小新里","LIN":"22鄰","STREET":" ","SECT":" ","MAREA":"成功新村","LANE":" ","ALLEY":" ","HOUSE_NO":"５２號五樓","E_COORD97":180341.95999999999,"N_COORD97":2558662.25,"ADDRESS":"成功新村５２號五樓","OBJECTID":259188},"geometry":{"x":180341.95999999996,"y":2558662.2500000037}},{"attributes":{"ID":259193,"DIS_CODE":0,"TOWNNAME":"善化區","LI":"小新里","LIN":"22鄰","STREET":" ","SECT":" ","MAREA":"成功新村","LANE":" ","ALLEY":" ","HOUSE_NO":"５５號六樓","E_COORD97":180334.48999999999,"N_COORD97":2558644.5,"ADDRESS":"成功新村５５號六樓","OBJECTID":259189},"geometry":{"x":180334.49000000115,"y":2558644.5000000019}},{"attributes":{"ID":259194,"DIS_CODE":0,"TOWNNAME":"善化區","LI":"小新里","LIN":"22鄰","STREET":" ","SECT":" ","MAREA":"成功新村","LANE":" ","ALLEY":" ","HOUSE_NO":"３９號五樓","E_COORD97":180430.29999999999,"N_COORD97":2558656.5,"ADDRESS":"成功新村３９號五樓","OBJECTID":259190},"geometry":{"x":180430.30000000075,"y":2558656.5}},{"attributes":{"ID":259195,"DIS_CODE":0,"TOWNNAME":"善化區","LI":"小新里","LIN":"22鄰","STREET":" ","SECT":" ","MAREA":"成功新村","LANE":" ","ALLEY":" ","HOUSE_NO":"５５號五樓","E_COORD97":180334.48999999999,"N_COORD97":2558644.5,"ADDRESS":"成功新村５５號五樓","OBJECTID":259191},"geometry":{"x":180334.49000000115,"y":2558644.5000000019}},{"attributes":{"ID":259196,"DIS_CODE":0,"TOWNNAME":"南區","LI":"建南里","LIN":"22鄰","STREET":"永成路","SECT":"二段","MAREA":" ","LANE":"８６３巷","ALLEY":" ","HOUSE_NO":"３１號","E_COORD97":167407.16534100001,"N_COORD97":2540204.3756300001,"ADDRESS":"永成路二段８６３巷３１號","OBJECTID":259192},"geometry":{"x":167407.16534100194,"y":2540204.3756350018}},{"attributes":{"ID":259197,"DIS_CODE":0,"TOWNNAME":"善化區","LI":"小新里","LIN":"22鄰","STREET":" ","SECT":" ","MAREA":"成功新村","LANE":" ","ALLEY":" ","HOUSE_NO":"３５號六樓","E_COORD97":180431.26000000001,"N_COORD97":2558667.25,"ADDRESS":"成功新村３５號六樓","OBJECTID":259193},"geometry":{"x":180431.25999999978,"y":2558667.2500000019}},{"attributes":{"ID":259198,"DIS_CODE":0,"TOWNNAME":"善化區","LI":"小新里","LIN":"22鄰","STREET":" ","SECT":" ","MAREA":"成功新村","LANE":" ","ALLEY":" ","HOUSE_NO":"３３號四樓","E_COORD97":180412.35000000001,"N_COORD97":2558674.25,"ADDRESS":"成功新村３３號四樓","OBJECTID":259194},"geometry":{"x":180412.34999999963,"y":2558674.25}},{"attributes":{"ID":259199,"DIS_CODE":0,"TOWNNAME":"善化區","LI":"小新里","LIN":"22鄰","STREET":" ","SECT":" ","MAREA":"成功新村","LANE":" ","ALLEY":" ","HOUSE_NO":"４３號五樓","E_COORD97":180452.19,"N_COORD97":2558646,"ADDRESS":"成功新村４３號五樓","OBJECTID":259195},"geometry":{"x":180452.19000000134,"y":2558646}},{"attributes":{"ID":259200,"DIS_CODE":0,"TOWNNAME":"善化區","LI":"小新里","LIN":"22鄰","STREET":" ","SECT":" ","MAREA":"成功新村","LANE":" ","ALLEY":" ","HOUSE_NO":"２７號五樓","E_COORD97":180386.45999999999,"N_COORD97":2558667.4900000002,"ADDRESS":"成功新村２７號五樓","OBJECTID":259196},"geometry":{"x":180386.45999999996,"y":2558667.4900000039}},{"attributes":{"ID":259201,"DIS_CODE":0,"TOWNNAME":"善化區","LI":"小新里","LIN":"22鄰","STREET":" ","SECT":" ","MAREA":"成功新村","LANE":" ","ALLEY":" ","HOUSE_NO":"４８號七樓","E_COORD97":180471.64999999999,"N_COORD97":2558636.75,"ADDRESS":"成功新村４８號七樓","OBJECTID":259197},"geometry":{"x":180471.65000000037,"y":2558636.7500000019}},{"attributes":{"ID":259202,"DIS_CODE":0,"TOWNNAME":"南區","LI":"建南里","LIN":"22鄰","STREET":"永成路","SECT":"二段","MAREA":" ","LANE":"８６３巷","ALLEY":" ","HOUSE_NO":"３３號","E_COORD97":167401.97687700001,"N_COORD97":2540204.2697999999,"ADDRESS":"永成路二段８６３巷３３號","OBJECTID":259198},"geometry":{"x":167401.97687700111,"y":2540204.2698020022}},{"attributes":{"ID":259203,"DIS_CODE":0,"TOWNNAME":"善化區","LI":"小新里","LIN":"22鄰","STREET":" ","SECT":" ","MAREA":"成功新村","LANE":" ","ALLEY":" ","HOUSE_NO":"２９號七樓","E_COORD97":180417.51000000001,"N_COORD97":2558657.25,"ADDRESS":"成功新村２９號七樓","OBJECTID":259199},"geometry":{"x":180417.51000000071,"y":2558657.25}},{"attributes":{"ID":259204,"DIS_CODE":0,"TOWNNAME":"善化區","LI":"小新里","LIN":"22鄰","STREET":" ","SECT":" ","MAREA":"成功新村","LANE":" ","ALLEY":" ","HOUSE_NO":"２９號五樓","E_COORD97":180417.51000000001,"N_COORD97":2558657.25,"ADDRESS":"成功新村２９號五樓","OBJECTID":259200},"geometry":{"x":180417.51000000071,"y":2558657.25}}]}