{"displayFieldName":"TOWNNAME","fieldAliases":{"ID":"ID","DIS_CODE":"DIS_CODE","TOWNNAME":"TOWNNAME","LI":"LI","LIN":"LIN","STREET":"STREET","SECT":"SECT","MAREA":"MAREA","LANE":"LANE","ALLEY":"ALLEY","HOUSE_NO":"HOUSE_NO","E_COORD97":"E_COORD97","N_COORD97":"N_COORD97","ADDRESS":"ADDRESS","OBJECTID":"OBJECTID"},"geometryType":"esriGeometryPoint","spatialReference":{"wkid":102443,"latestWkid":3826},"fields":[{"name":"ID","type":"esriFieldTypeDouble","alias":"ID"},{"name":"DIS_CODE","type":"esriFieldTypeInteger","alias":"DIS_CODE"},{"name":"TOWNNAME","type":"esriFieldTypeString","alias":"TOWNNAME","length":8},{"name":"LI","type":"esriFieldTypeString","alias":"LI","length":8},{"name":"LIN","type":"esriFieldTypeString","alias":"LIN","length":12},{"name":"STREET","type":"esriFieldTypeString","alias":"STREET","length":20},{"name":"SECT","type":"esriFieldTypeString","alias":"SECT","length":8},{"name":"MAREA","type":"esriFieldTypeString","alias":"MAREA","length":12},{"name":"LANE","type":"esriFieldTypeString","alias":"LANE","length":10},{"name":"ALLEY","type":"esriFieldTypeString","alias":"ALLEY","length":10},{"name":"HOUSE_NO","type":"esriFieldTypeString","alias":"HOUSE_NO","length":20},{"name":"E_COORD97","type":"esriFieldTypeDouble","alias":"E_COORD97"},{"name":"N_COORD97","type":"esriFieldTypeDouble","alias":"N_COORD97"},{"name":"ADDRESS","type":"esriFieldTypeString","alias":"ADDRESS","length":50},{"name":"OBJECTID","type":"esriFieldTypeOID","alias":"OBJECTID"}],"features":[{"attributes":{"ID":104601,"DIS_CODE":0,"TOWNNAME":"佳里區","LI":"子龍里","LIN":"9鄰","STREET":" ","SECT":" ","MAREA":"子良廟","LANE":" ","ALLEY":" ","HOUSE_NO":"４０號之１５","E_COORD97":169333.73999999999,"N_COORD97":2564041.1699999999,"ADDRESS":"子良廟４０號之１５","OBJECTID":104601},"geometry":{"x":169333.74000000022,"y":2564041.1700000018}},{"attributes":{"ID":104602,"DIS_CODE":0,"TOWNNAME":"南區","LI":"大恩里","LIN":"9鄰","STREET":"大同路","SECT":"二段","MAREA":" ","LANE":"７５０巷","ALLEY":"７４弄","HOUSE_NO":"８號","E_COORD97":169372.76000000001,"N_COORD97":2540730.7000000002,"ADDRESS":"大同路二段７５０巷７４弄８號","OBJECTID":104602},"geometry":{"x":169372.76000000071,"y":2540730.7000000011}},{"attributes":{"ID":104603,"DIS_CODE":0,"TOWNNAME":"佳里區","LI":"子龍里","LIN":"9鄰","STREET":" ","SECT":" ","MAREA":"子良廟","LANE":" ","ALLEY":" ","HOUSE_NO":"４０號之１６","E_COORD97":169347,"N_COORD97":2564041.4700000002,"ADDRESS":"子良廟４０號之１６","OBJECTID":104603},"geometry":{"x":169347,"y":2564041.4700000007}},{"attributes":{"ID":104604,"DIS_CODE":0,"TOWNNAME":"佳里區","LI":"子龍里","LIN":"9鄰","STREET":" ","SECT":" ","MAREA":"子良廟","LANE":" ","ALLEY":" ","HOUSE_NO":"４０號之１８","E_COORD97":169188.37,"N_COORD97":2564155.9199999999,"ADDRESS":"子良廟４０號之１８","OBJECTID":104604},"geometry":{"x":169188.37000000011,"y":2564155.9199999999}},{"attributes":{"ID":104605,"DIS_CODE":0,"TOWNNAME":"南區","LI":"大恩里","LIN":"9鄰","STREET":"大同路","SECT":"二段","MAREA":" ","LANE":"７５０巷","ALLEY":"７４弄","HOUSE_NO":"９號","E_COORD97":169355.47,"N_COORD97":2540735.96,"ADDRESS":"大同路二段７５０巷７４弄９號","OBJECTID":104605},"geometry":{"x":169355.46999999974,"y":2540735.9600000009}},{"attributes":{"ID":104606,"DIS_CODE":0,"TOWNNAME":"玉井區","LI":"豐里里","LIN":"1鄰","STREET":" ","SECT":" ","MAREA":"豐里","LANE":" ","ALLEY":" ","HOUSE_NO":"２之３號","E_COORD97":193207.91,"N_COORD97":2557969.29,"ADDRESS":"豐里２之３號","OBJECTID":104606},"geometry":{"x":193207.91000000201,"y":2557969.2900000028}},{"attributes":{"ID":104607,"DIS_CODE":0,"TOWNNAME":"新營區","LI":"新東里","LIN":"9鄰","STREET":"東仁街","SECT":" ","MAREA":" ","LANE":"４３巷","ALLEY":"１６弄","HOUSE_NO":"１７號","E_COORD97":181208.92000000001,"N_COORD97":2579687.79,"ADDRESS":"東仁街４３巷１６弄１７號","OBJECTID":104607},"geometry":{"x":181208.91999999993,"y":2579687.7899999991}},{"attributes":{"ID":104608,"DIS_CODE":0,"TOWNNAME":"安平區","LI":"金城里","LIN":"9鄰","STREET":"同平路","SECT":" ","MAREA":" ","LANE":"１０８巷","ALLEY":"２３弄","HOUSE_NO":"１０號","E_COORD97":163087.98999999999,"N_COORD97":2544113.73,"ADDRESS":"同平路１０８巷２３弄１０號","OBJECTID":104608},"geometry":{"x":163087.99000000115,"y":2544113.7300000004}},{"attributes":{"ID":104609,"DIS_CODE":0,"TOWNNAME":"安平區","LI":"金城里","LIN":"9鄰","STREET":"同平路","SECT":" ","MAREA":" ","LANE":"１０８巷","ALLEY":"２３弄","HOUSE_NO":"１２號","E_COORD97":163087.98999999999,"N_COORD97":2544119.8399999999,"ADDRESS":"同平路１０８巷２３弄１２號","OBJECTID":104609},"geometry":{"x":163087.99000000115,"y":2544119.839999998}},{"attributes":{"ID":104610,"DIS_CODE":0,"TOWNNAME":"玉井區","LI":"豐里里","LIN":"1鄰","STREET":" ","SECT":" ","MAREA":"豐里","LANE":" ","ALLEY":" ","HOUSE_NO":"１號之４","E_COORD97":193554.28,"N_COORD97":2558078.29,"ADDRESS":"豐里１號之４","OBJECTID":104610},"geometry":{"x":193554.28000000026,"y":2558078.290000001}},{"attributes":{"ID":104611,"DIS_CODE":0,"TOWNNAME":"安平區","LI":"金城里","LIN":"9鄰","STREET":"同平路","SECT":" ","MAREA":" ","LANE":"１０８巷","ALLEY":"２３弄","HOUSE_NO":"８號","E_COORD97":163087.53,"N_COORD97":2544124.5899999999,"ADDRESS":"同平路１０８巷２３弄８號","OBJECTID":104611},"geometry":{"x":163087.53000000119,"y":2544124.5899999999}},{"attributes":{"ID":104612,"DIS_CODE":0,"TOWNNAME":"南區","LI":"省躬里","LIN":"9鄰","STREET":"灣裡路","SECT":" ","MAREA":" ","LANE":"６２巷","ALLEY":"４０弄","HOUSE_NO":"１００號","E_COORD97":165715.34,"N_COORD97":2537262.23,"ADDRESS":"灣裡路６２巷４０弄１００號","OBJECTID":104612},"geometry":{"x":165715.33999999985,"y":2537262.2300000004}},{"attributes":{"ID":104613,"DIS_CODE":0,"TOWNNAME":"南區","LI":"省躬里","LIN":"9鄰","STREET":"灣裡路","SECT":" ","MAREA":" ","LANE":"６２巷","ALLEY":"４０弄","HOUSE_NO":"１０２號","E_COORD97":165713.64999999999,"N_COORD97":2537246.8100000001,"ADDRESS":"灣裡路６２巷４０弄１０２號","OBJECTID":104613},"geometry":{"x":165713.65000000037,"y":2537246.8100000024}},{"attributes":{"ID":104614,"DIS_CODE":0,"TOWNNAME":"南區","LI":"省躬里","LIN":"9鄰","STREET":"灣裡路","SECT":" ","MAREA":" ","LANE":"６２巷","ALLEY":"４０弄","HOUSE_NO":"１０４號","E_COORD97":165709.79000000001,"N_COORD97":2537244.6400000001,"ADDRESS":"灣裡路６２巷４０弄１０４號","OBJECTID":104614},"geometry":{"x":165709.79000000097,"y":2537244.6400000025}},{"attributes":{"ID":104615,"DIS_CODE":0,"TOWNNAME":"南區","LI":"省躬里","LIN":"9鄰","STREET":"灣裡路","SECT":" ","MAREA":" ","LANE":"６２巷","ALLEY":"４０弄","HOUSE_NO":"１０６號","E_COORD97":165704.95999999999,"N_COORD97":2537245.8399999999,"ADDRESS":"灣裡路６２巷４０弄１０６號","OBJECTID":104615},"geometry":{"x":165704.96000000089,"y":2537245.8400000017}},{"attributes":{"ID":104616,"DIS_CODE":0,"TOWNNAME":"玉井區","LI":"豐里里","LIN":"1鄰","STREET":" ","SECT":" ","MAREA":"豐里","LANE":" ","ALLEY":" ","HOUSE_NO":"２號之１３","E_COORD97":193155.39000000001,"N_COORD97":2557972.29,"ADDRESS":"豐里２號之１３","OBJECTID":104616},"geometry":{"x":193155.3900000006,"y":2557972.2899999991}},{"attributes":{"ID":104617,"DIS_CODE":0,"TOWNNAME":"玉井區","LI":"豐里里","LIN":"1鄰","STREET":" ","SECT":" ","MAREA":"豐里","LANE":" ","ALLEY":" ","HOUSE_NO":"２號之４","E_COORD97":193153.37,"N_COORD97":2557825.2999999998,"ADDRESS":"豐里２號之４","OBJECTID":104617},"geometry":{"x":193153.37000000011,"y":2557825.3000000045}},{"attributes":{"ID":104618,"DIS_CODE":0,"TOWNNAME":"玉井區","LI":"沙田里","LIN":"1鄰","STREET":" ","SECT":" ","MAREA":"沙田","LANE":" ","ALLEY":" ","HOUSE_NO":"５之６號","E_COORD97":195528.20999999999,"N_COORD97":2557159.29,"ADDRESS":"沙田５之６號","OBJECTID":104618},"geometry":{"x":195528.21000000183,"y":2557159.2900000028}},{"attributes":{"ID":104619,"DIS_CODE":0,"TOWNNAME":"南區","LI":"省躬里","LIN":"9鄰","STREET":"灣裡路","SECT":" ","MAREA":" ","LANE":"６２巷","ALLEY":"４０弄","HOUSE_NO":"１０８號","E_COORD97":165701.10000000001,"N_COORD97":2537243.1899999999,"ADDRESS":"灣裡路６２巷４０弄１０８號","OBJECTID":104619},"geometry":{"x":165701.09999999963,"y":2537243.1900000013}},{"attributes":{"ID":104620,"DIS_CODE":0,"TOWNNAME":"南區","LI":"省躬里","LIN":"9鄰","STREET":"灣裡路","SECT":" ","MAREA":" ","LANE":"６２巷","ALLEY":"４０弄","HOUSE_NO":"１０號","E_COORD97":165685.04000000001,"N_COORD97":2537197.5,"ADDRESS":"灣裡路６２巷４０弄１０號","OBJECTID":104620},"geometry":{"x":165685.04000000004,"y":2537197.5000000019}},{"attributes":{"ID":104621,"DIS_CODE":0,"TOWNNAME":"玉井區","LI":"豐里里","LIN":"1鄰","STREET":" ","SECT":" ","MAREA":"豐里","LANE":" ","ALLEY":" ","HOUSE_NO":"５之１１號","E_COORD97":193380.45999999999,"N_COORD97":2557968.2799999998,"ADDRESS":"豐里５之１１號","OBJECTID":104621},"geometry":{"x":193380.46000000089,"y":2557968.2799999993}},{"attributes":{"ID":104622,"DIS_CODE":0,"TOWNNAME":"玉井區","LI":"沙田里","LIN":"1鄰","STREET":" ","SECT":" ","MAREA":"沙田","LANE":" ","ALLEY":" ","HOUSE_NO":"１０號","E_COORD97":195733.26000000001,"N_COORD97":2556737.2799999998,"ADDRESS":"沙田１０號","OBJECTID":104622},"geometry":{"x":195733.26000000071,"y":2556737.2799999993}},{"attributes":{"ID":104623,"DIS_CODE":0,"TOWNNAME":"玉井區","LI":"豐里里","LIN":"1鄰","STREET":" ","SECT":" ","MAREA":"豐里","LANE":" ","ALLEY":" ","HOUSE_NO":"４號","E_COORD97":193223.91,"N_COORD97":2558014.25,"ADDRESS":"豐里４號","OBJECTID":104623},"geometry":{"x":193223.91000000108,"y":2558014.25}},{"attributes":{"ID":104624,"DIS_CODE":0,"TOWNNAME":"北區","LI":"興南里","LIN":"1鄰","STREET":"公園路","SECT":" ","MAREA":" ","LANE":" ","ALLEY":" ","HOUSE_NO":"２７７號","E_COORD97":168878.28,"N_COORD97":2544637.0299999998,"ADDRESS":"公園路２７７號","OBJECTID":104624},"geometry":{"x":168878.28000000119,"y":2544637.0300000031}},{"attributes":{"ID":104625,"DIS_CODE":0,"TOWNNAME":"玉井區","LI":"沙田里","LIN":"1鄰","STREET":" ","SECT":" ","MAREA":"沙田","LANE":" ","ALLEY":" ","HOUSE_NO":"２之２號","E_COORD97":195427.20999999999,"N_COORD97":2557189.2999999998,"ADDRESS":"沙田２之２號","OBJECTID":104625},"geometry":{"x":195427.21000000089,"y":2557189.3000000026}},{"attributes":{"ID":104626,"DIS_CODE":0,"TOWNNAME":"玉井區","LI":"望明里","LIN":"1鄰","STREET":" ","SECT":" ","MAREA":"望明","LANE":" ","ALLEY":" ","HOUSE_NO":"９號之２","E_COORD97":194523.75,"N_COORD97":2556184.2999999998,"ADDRESS":"望明９號之２","OBJECTID":104626},"geometry":{"x":194523.75,"y":2556184.3000000045}},{"attributes":{"ID":104627,"DIS_CODE":0,"TOWNNAME":"玉井區","LI":"沙田里","LIN":"1鄰","STREET":" ","SECT":" ","MAREA":"沙田","LANE":" ","ALLEY":" ","HOUSE_NO":"１號","E_COORD97":195394.62,"N_COORD97":2557167.2799999998,"ADDRESS":"沙田１號","OBJECTID":104627},"geometry":{"x":195394.62000000011,"y":2557167.2800000012}},{"attributes":{"ID":104628,"DIS_CODE":0,"TOWNNAME":"玉井區","LI":"層林里","LIN":"1鄰","STREET":" ","SECT":" ","MAREA":"層林","LANE":" ","ALLEY":" ","HOUSE_NO":"４之３號","E_COORD97":194208.51000000001,"N_COORD97":2554065.29,"ADDRESS":"層林４之３號","OBJECTID":104628},"geometry":{"x":194208.50999999978,"y":2554065.290000001}},{"attributes":{"ID":104629,"DIS_CODE":0,"TOWNNAME":"玉井區","LI":"沙田里","LIN":"1鄰","STREET":" ","SECT":" ","MAREA":"沙田","LANE":" ","ALLEY":" ","HOUSE_NO":"２號","E_COORD97":195442.32000000001,"N_COORD97":2557166.2799999998,"ADDRESS":"沙田２號","OBJECTID":104629},"geometry":{"x":195442.3200000003,"y":2557166.2800000031}},{"attributes":{"ID":104630,"DIS_CODE":0,"TOWNNAME":"玉井區","LI":"層林里","LIN":"1鄰","STREET":" ","SECT":" ","MAREA":"層林","LANE":" ","ALLEY":" ","HOUSE_NO":"３號","E_COORD97":193889.92000000001,"N_COORD97":2554252.2400000002,"ADDRESS":"層林３號","OBJECTID":104630},"geometry":{"x":193889.92000000086,"y":2554252.2400000021}},{"attributes":{"ID":104631,"DIS_CODE":0,"TOWNNAME":"佳里區","LI":"子龍里","LIN":"9鄰","STREET":" ","SECT":" ","MAREA":"子良廟","LANE":" ","ALLEY":" ","HOUSE_NO":"４０號之１９","E_COORD97":169206.92999999999,"N_COORD97":2564088.6200000001,"ADDRESS":"子良廟４０號之１９","OBJECTID":104631},"geometry":{"x":169206.93000000156,"y":2564088.6199999992}},{"attributes":{"ID":104632,"DIS_CODE":0,"TOWNNAME":"佳里區","LI":"子龍里","LIN":"9鄰","STREET":" ","SECT":" ","MAREA":"子良廟","LANE":" ","ALLEY":" ","HOUSE_NO":"４０號之２０","E_COORD97":169315.31,"N_COORD97":2564041.4300000002,"ADDRESS":"子良廟４０號之２０","OBJECTID":104632},"geometry":{"x":169315.30999999959,"y":2564041.4300000034}},{"attributes":{"ID":104633,"DIS_CODE":0,"TOWNNAME":"佳里區","LI":"子龍里","LIN":"9鄰","STREET":" ","SECT":" ","MAREA":"子良廟","LANE":" ","ALLEY":" ","HOUSE_NO":"４０號之２１","E_COORD97":169454.64000000001,"N_COORD97":2564196.2400000002,"ADDRESS":"子良廟４０號之２１","OBJECTID":104633},"geometry":{"x":169454.64000000153,"y":2564196.2400000021}},{"attributes":{"ID":104634,"DIS_CODE":0,"TOWNNAME":"佳里區","LI":"子龍里","LIN":"9鄰","STREET":" ","SECT":" ","MAREA":"子良廟","LANE":" ","ALLEY":" ","HOUSE_NO":"４０號之２７","E_COORD97":169166.76000000001,"N_COORD97":2564061.25,"ADDRESS":"子良廟４０號之２７","OBJECTID":104634},"geometry":{"x":169166.75999999978,"y":2564061.2500000019}},{"attributes":{"ID":104635,"DIS_CODE":0,"TOWNNAME":"北區","LI":"大豐里","LIN":"1鄰","STREET":"文賢路","SECT":" ","MAREA":" ","LANE":" ","ALLEY":" ","HOUSE_NO":"２５７號","E_COORD97":167321.45999999999,"N_COORD97":2545110.2599999998,"ADDRESS":"文賢路２５７號","OBJECTID":104635},"geometry":{"x":167321.45999999996,"y":2545110.2599999998}},{"attributes":{"ID":104636,"DIS_CODE":0,"TOWNNAME":"佳里區","LI":"子龍里","LIN":"9鄰","STREET":" ","SECT":" ","MAREA":"子良廟","LANE":" ","ALLEY":" ","HOUSE_NO":"４０號之２８","E_COORD97":169209.47,"N_COORD97":2564166.23,"ADDRESS":"子良廟４０號之２８","OBJECTID":104636},"geometry":{"x":169209.46999999974,"y":2564166.2300000023}},{"attributes":{"ID":104637,"DIS_CODE":0,"TOWNNAME":"佳里區","LI":"子龍里","LIN":"9鄰","STREET":" ","SECT":" ","MAREA":"子良廟","LANE":" ","ALLEY":" ","HOUSE_NO":"４０號之２９","E_COORD97":169360.26999999999,"N_COORD97":2564274.6899999999,"ADDRESS":"子良廟４０號之２９","OBJECTID":104637},"geometry":{"x":169360.27000000142,"y":2564274.6900000013}},{"attributes":{"ID":104638,"DIS_CODE":0,"TOWNNAME":"佳里區","LI":"子龍里","LIN":"9鄰","STREET":" ","SECT":" ","MAREA":"子良廟","LANE":" ","ALLEY":" ","HOUSE_NO":"４０號之３０","E_COORD97":169631.54000000001,"N_COORD97":2564064.54,"ADDRESS":"子良廟４０號之３０","OBJECTID":104638},"geometry":{"x":169631.54000000004,"y":2564064.540000001}},{"attributes":{"ID":104639,"DIS_CODE":0,"TOWNNAME":"佳里區","LI":"子龍里","LIN":"9鄰","STREET":" ","SECT":" ","MAREA":"子良廟","LANE":" ","ALLEY":" ","HOUSE_NO":"４０號之３１","E_COORD97":169606.51999999999,"N_COORD97":2564066.8100000001,"ADDRESS":"子良廟４０號之３１","OBJECTID":104639},"geometry":{"x":169606.52000000048,"y":2564066.8100000042}},{"attributes":{"ID":104640,"DIS_CODE":0,"TOWNNAME":"佳里區","LI":"子龍里","LIN":"9鄰","STREET":" ","SECT":" ","MAREA":"子良廟","LANE":" ","ALLEY":" ","HOUSE_NO":"４０號之３５","E_COORD97":169479.85999999999,"N_COORD97":2564035.7000000002,"ADDRESS":"子良廟４０號之３５","OBJECTID":104640},"geometry":{"x":169479.86000000127,"y":2564035.700000003}},{"attributes":{"ID":104641,"DIS_CODE":0,"TOWNNAME":"佳里區","LI":"子龍里","LIN":"9鄰","STREET":" ","SECT":" ","MAREA":"子良廟","LANE":" ","ALLEY":" ","HOUSE_NO":"４０號之４８","E_COORD97":169201.98999999999,"N_COORD97":2564006.8300000001,"ADDRESS":"子良廟４０號之４８","OBJECTID":104641},"geometry":{"x":169201.99000000209,"y":2564006.8300000001}},{"attributes":{"ID":104642,"DIS_CODE":0,"TOWNNAME":"佳里區","LI":"子龍里","LIN":"9鄰","STREET":" ","SECT":" ","MAREA":"子良廟","LANE":" ","ALLEY":" ","HOUSE_NO":"４０號之４９","E_COORD97":169197.94,"N_COORD97":2564006.0699999998,"ADDRESS":"子良廟４０號之４９","OBJECTID":104642},"geometry":{"x":169197.94000000134,"y":2564006.0700000003}},{"attributes":{"ID":104643,"DIS_CODE":0,"TOWNNAME":"佳里區","LI":"子龍里","LIN":"9鄰","STREET":" ","SECT":" ","MAREA":"子良廟","LANE":" ","ALLEY":" ","HOUSE_NO":"４０號之５０","E_COORD97":169194.17000000001,"N_COORD97":2564005.8300000001,"ADDRESS":"子良廟４０號之５０","OBJECTID":104643},"geometry":{"x":169194.17000000086,"y":2564005.8300000019}},{"attributes":{"ID":104644,"DIS_CODE":0,"TOWNNAME":"佳里區","LI":"子龍里","LIN":"9鄰","STREET":" ","SECT":" ","MAREA":"子良廟","LANE":" ","ALLEY":" ","HOUSE_NO":"４０號之５１","E_COORD97":169189.60999999999,"N_COORD97":2564005.3999999999,"ADDRESS":"子良廟４０號之５１","OBJECTID":104644},"geometry":{"x":169189.61000000127,"y":2564005.4000000022}},{"attributes":{"ID":104645,"DIS_CODE":0,"TOWNNAME":"佳里區","LI":"子龍里","LIN":"9鄰","STREET":" ","SECT":" ","MAREA":"子良廟","LANE":" ","ALLEY":" ","HOUSE_NO":"４０號之５２","E_COORD97":169185.60000000001,"N_COORD97":2564004.98,"ADDRESS":"子良廟４０號之５２","OBJECTID":104645},"geometry":{"x":169185.60000000056,"y":2564004.9800000023}},{"attributes":{"ID":104646,"DIS_CODE":0,"TOWNNAME":"南區","LI":"省躬里","LIN":"9鄰","STREET":"灣裡路","SECT":" ","MAREA":" ","LANE":"６２巷","ALLEY":"４０弄","HOUSE_NO":"１１０號","E_COORD97":165696.76000000001,"N_COORD97":2537241.5099999998,"ADDRESS":"灣裡路６２巷４０弄１１０號","OBJECTID":104646},"geometry":{"x":165696.75999999978,"y":2537241.5099999998}},{"attributes":{"ID":104647,"DIS_CODE":0,"TOWNNAME":"南區","LI":"省躬里","LIN":"9鄰","STREET":"灣裡路","SECT":" ","MAREA":" ","LANE":"６２巷","ALLEY":"４０弄","HOUSE_NO":"１２號","E_COORD97":165683.59,"N_COORD97":2537201.3599999999,"ADDRESS":"灣裡路６２巷４０弄１２號","OBJECTID":104647},"geometry":{"x":165683.59000000078,"y":2537201.3600000013}},{"attributes":{"ID":104648,"DIS_CODE":0,"TOWNNAME":"南區","LI":"省躬里","LIN":"9鄰","STREET":"灣裡路","SECT":" ","MAREA":" ","LANE":"６２巷","ALLEY":"４０弄","HOUSE_NO":"１４號","E_COORD97":165682.63,"N_COORD97":2537206.8999999999,"ADDRESS":"灣裡路６２巷４０弄１４號","OBJECTID":104648},"geometry":{"x":165682.62999999989,"y":2537206.9000000004}},{"attributes":{"ID":104649,"DIS_CODE":0,"TOWNNAME":"南區","LI":"省躬里","LIN":"9鄰","STREET":"灣裡路","SECT":" ","MAREA":" ","LANE":"６２巷","ALLEY":"４０弄","HOUSE_NO":"１６號","E_COORD97":165681.91,"N_COORD97":2537211.7200000002,"ADDRESS":"灣裡路６２巷４０弄１６號","OBJECTID":104649},"geometry":{"x":165681.91000000108,"y":2537211.7200000007}},{"attributes":{"ID":104650,"DIS_CODE":0,"TOWNNAME":"南區","LI":"省躬里","LIN":"9鄰","STREET":"灣裡路","SECT":" ","MAREA":" ","LANE":"６２巷","ALLEY":"４０弄","HOUSE_NO":"１８號","E_COORD97":165682.14999999999,"N_COORD97":2537215.5699999998,"ADDRESS":"灣裡路６２巷４０弄１８號","OBJECTID":104650},"geometry":{"x":165682.1500000013,"y":2537215.5700000003}},{"attributes":{"ID":104651,"DIS_CODE":0,"TOWNNAME":"將軍區","LI":"三吉里","LIN":"9鄰","STREET":" ","SECT":" ","MAREA":"三吉","LANE":" ","ALLEY":" ","HOUSE_NO":"８１號","E_COORD97":160023.17000000001,"N_COORD97":2566095.2999999998,"ADDRESS":"三吉８１號","OBJECTID":104651},"geometry":{"x":160023.17000000086,"y":2566095.3000000026}},{"attributes":{"ID":104652,"DIS_CODE":0,"TOWNNAME":"南區","LI":"省躬里","LIN":"9鄰","STREET":"灣裡路","SECT":" ","MAREA":" ","LANE":"６２巷","ALLEY":"４０弄","HOUSE_NO":"２０號","E_COORD97":165680.70000000001,"N_COORD97":2537220.3900000001,"ADDRESS":"灣裡路６２巷４０弄２０號","OBJECTID":104652},"geometry":{"x":165680.70000000019,"y":2537220.3900000006}},{"attributes":{"ID":104653,"DIS_CODE":0,"TOWNNAME":"南區","LI":"省躬里","LIN":"9鄰","STREET":"灣裡路","SECT":" ","MAREA":" ","LANE":"６２巷","ALLEY":"４０弄","HOUSE_NO":"２２號","E_COORD97":165679.73000000001,"N_COORD97":2537225.6899999999,"ADDRESS":"灣裡路６２巷４０弄２２號","OBJECTID":104653},"geometry":{"x":165679.73000000231,"y":2537225.6900000013}},{"attributes":{"ID":104654,"DIS_CODE":0,"TOWNNAME":"北區","LI":"大豐里","LIN":"1鄰","STREET":"文賢路","SECT":" ","MAREA":" ","LANE":" ","ALLEY":" ","HOUSE_NO":"２５９號","E_COORD97":167322.35999999999,"N_COORD97":2545114.5699999998,"ADDRESS":"文賢路２５９號","OBJECTID":104654},"geometry":{"x":167322.36000000034,"y":2545114.5700000003}},{"attributes":{"ID":104655,"DIS_CODE":0,"TOWNNAME":"南區","LI":"省躬里","LIN":"9鄰","STREET":"灣裡路","SECT":" ","MAREA":" ","LANE":"６２巷","ALLEY":"４０弄","HOUSE_NO":"２４號","E_COORD97":165678.29000000001,"N_COORD97":2537230.75,"ADDRESS":"灣裡路６２巷４０弄２４號","OBJECTID":104655},"geometry":{"x":165678.29000000004,"y":2537230.75}},{"attributes":{"ID":104656,"DIS_CODE":0,"TOWNNAME":"南區","LI":"省躬里","LIN":"9鄰","STREET":"灣裡路","SECT":" ","MAREA":" ","LANE":"６２巷","ALLEY":"４０弄","HOUSE_NO":"２６號","E_COORD97":165677.07999999999,"N_COORD97":2537234.6000000001,"ADDRESS":"灣裡路６２巷４０弄２６號","OBJECTID":104656},"geometry":{"x":165677.08000000101,"y":2537234.5999999996}},{"attributes":{"ID":104657,"DIS_CODE":0,"TOWNNAME":"南區","LI":"省躬里","LIN":"9鄰","STREET":"灣裡路","SECT":" ","MAREA":" ","LANE":"６２巷","ALLEY":"４０弄","HOUSE_NO":"２８號","E_COORD97":165676.84,"N_COORD97":2537239.8999999999,"ADDRESS":"灣裡路６２巷４０弄２８號","OBJECTID":104657},"geometry":{"x":165676.84000000078,"y":2537239.9000000004}},{"attributes":{"ID":104658,"DIS_CODE":0,"TOWNNAME":"後壁區","LI":"嘉苳里","LIN":"1鄰","STREET":" ","SECT":" ","MAREA":"下茄苳","LANE":" ","ALLEY":" ","HOUSE_NO":"５號","E_COORD97":185483,"N_COORD97":2583549.3700000001,"ADDRESS":"下茄苳５號","OBJECTID":104658},"geometry":{"x":185483.00000000093,"y":2583549.3700000029}},{"attributes":{"ID":104659,"DIS_CODE":0,"TOWNNAME":"南區","LI":"省躬里","LIN":"9鄰","STREET":"灣裡路","SECT":" ","MAREA":" ","LANE":"６２巷","ALLEY":"４０弄","HOUSE_NO":"２號","E_COORD97":165688.03,"N_COORD97":2537178.0299999998,"ADDRESS":"灣裡路６２巷４０弄２號","OBJECTID":104659},"geometry":{"x":165688.03000000119,"y":2537178.0300000031}},{"attributes":{"ID":104660,"DIS_CODE":0,"TOWNNAME":"學甲區","LI":"宅港里","LIN":"1鄰","STREET":" ","SECT":" ","MAREA":"宅子港","LANE":" ","ALLEY":" ","HOUSE_NO":"３號","E_COORD97":168638.85999999999,"N_COORD97":2573131.52,"ADDRESS":"宅子港３號","OBJECTID":104660},"geometry":{"x":168638.86000000127,"y":2573131.5200000014}},{"attributes":{"ID":104661,"DIS_CODE":0,"TOWNNAME":"南區","LI":"省躬里","LIN":"9鄰","STREET":"灣裡路","SECT":" ","MAREA":" ","LANE":"６２巷","ALLEY":"４０弄","HOUSE_NO":"２號之１","E_COORD97":165657.09,"N_COORD97":2537157.3799999999,"ADDRESS":"灣裡路６２巷４０弄２號之１","OBJECTID":104661},"geometry":{"x":165657.08999999985,"y":2537157.379999999}},{"attributes":{"ID":104662,"DIS_CODE":0,"TOWNNAME":"佳里區","LI":"子龍里","LIN":"9鄰","STREET":" ","SECT":" ","MAREA":"子良廟","LANE":" ","ALLEY":" ","HOUSE_NO":"４０號之５３","E_COORD97":169350.51999999999,"N_COORD97":2563870.7799999998,"ADDRESS":"子良廟４０號之５３","OBJECTID":104662},"geometry":{"x":169350.52000000048,"y":2563870.7799999993}},{"attributes":{"ID":104663,"DIS_CODE":0,"TOWNNAME":"佳里區","LI":"子龍里","LIN":"9鄰","STREET":" ","SECT":" ","MAREA":"子良廟","LANE":" ","ALLEY":" ","HOUSE_NO":"４０號之５７","E_COORD97":169534.70999999999,"N_COORD97":2564061.1200000001,"ADDRESS":"子良廟４０號之５７","OBJECTID":104663},"geometry":{"x":169534.71000000089,"y":2564061.120000001}},{"attributes":{"ID":104664,"DIS_CODE":0,"TOWNNAME":"佳里區","LI":"子龍里","LIN":"9鄰","STREET":" ","SECT":" ","MAREA":"子良廟","LANE":" ","ALLEY":" ","HOUSE_NO":"４０號之５８","E_COORD97":169502.98000000001,"N_COORD97":2564141.6200000001,"ADDRESS":"子良廟４０號之５８","OBJECTID":104664},"geometry":{"x":169502.98000000138,"y":2564141.620000001}},{"attributes":{"ID":104665,"DIS_CODE":0,"TOWNNAME":"佳里區","LI":"子龍里","LIN":"9鄰","STREET":" ","SECT":" ","MAREA":"子良廟","LANE":" ","ALLEY":" ","HOUSE_NO":"４０號之６０","E_COORD97":169192.76999999999,"N_COORD97":2563947.52,"ADDRESS":"子良廟４０號之６０","OBJECTID":104665},"geometry":{"x":169192.77000000048,"y":2563947.5199999996}},{"attributes":{"ID":104666,"DIS_CODE":0,"TOWNNAME":"新化區","LI":"崙頂里","LIN":"9鄰","STREET":" ","SECT":" ","MAREA":"崙子頂","LANE":" ","ALLEY":" ","HOUSE_NO":"３５９號","E_COORD97":176798.82999999999,"N_COORD97":2546823.25,"ADDRESS":"崙子頂３５９號","OBJECTID":104666},"geometry":{"x":176798.83000000007,"y":2546823.2500000037}},{"attributes":{"ID":104667,"DIS_CODE":0,"TOWNNAME":"新化區","LI":"唪口里","LIN":"9鄰","STREET":" ","SECT":" ","MAREA":"唪口","LANE":" ","ALLEY":" ","HOUSE_NO":"１２７號之２","E_COORD97":177906.5,"N_COORD97":2548979.2599999998,"ADDRESS":"唪口１２７號之２","OBJECTID":104667},"geometry":{"x":177906.50000000186,"y":2548979.2600000016}},{"attributes":{"ID":104668,"DIS_CODE":0,"TOWNNAME":"新化區","LI":"唪口里","LIN":"9鄰","STREET":" ","SECT":" ","MAREA":"唪口","LANE":" ","ALLEY":" ","HOUSE_NO":"１３６號","E_COORD97":177853.04999999999,"N_COORD97":2548991.25,"ADDRESS":"唪口１３６號","OBJECTID":104668},"geometry":{"x":177853.04999999981,"y":2548991.25}},{"attributes":{"ID":104669,"DIS_CODE":0,"TOWNNAME":"新化區","LI":"唪口里","LIN":"9鄰","STREET":" ","SECT":" ","MAREA":"唪口","LANE":" ","ALLEY":" ","HOUSE_NO":"１３８號之２","E_COORD97":177830.39999999999,"N_COORD97":2549017.2599999998,"ADDRESS":"唪口１３８號之２","OBJECTID":104669},"geometry":{"x":177830.40000000037,"y":2549017.2600000016}},{"attributes":{"ID":104670,"DIS_CODE":0,"TOWNNAME":"新化區","LI":"唪口里","LIN":"9鄰","STREET":" ","SECT":" ","MAREA":"唪口","LANE":" ","ALLEY":" ","HOUSE_NO":"１２０號","E_COORD97":177901.85000000001,"N_COORD97":2548935.25,"ADDRESS":"唪口１２０號","OBJECTID":104670},"geometry":{"x":177901.8499999987,"y":2548935.2500000037}},{"attributes":{"ID":104671,"DIS_CODE":0,"TOWNNAME":"新化區","LI":"\u25A0拔里","LIN":"9鄰","STREET":" ","SECT":" ","MAREA":"\u25A0拔林","LANE":" ","ALLEY":" ","HOUSE_NO":"３５５號之５","E_COORD97":183250.78,"N_COORD97":2551806.2599999998,"ADDRESS":"\u25A0拔林３５５號之５","OBJECTID":104671},"geometry":{"x":183250.78000000026,"y":2551806.2599999998}},{"attributes":{"ID":104672,"DIS_CODE":0,"TOWNNAME":"新化區","LI":"唪口里","LIN":"9鄰","STREET":" ","SECT":" ","MAREA":"唪口","LANE":" ","ALLEY":" ","HOUSE_NO":"１２４號之２","E_COORD97":177874.79999999999,"N_COORD97":2548978.2599999998,"ADDRESS":"唪口１２４號之２","OBJECTID":104672},"geometry":{"x":177874.79999999981,"y":2548978.2599999998}},{"attributes":{"ID":104673,"DIS_CODE":0,"TOWNNAME":"新化區","LI":"礁坑里","LIN":"9鄰","STREET":" ","SECT":" ","MAREA":"蔡厝仔","LANE":" ","ALLEY":" ","HOUSE_NO":"３６號","E_COORD97":184459.07000000001,"N_COORD97":2548864.25,"ADDRESS":"蔡厝仔３６號","OBJECTID":104673},"geometry":{"x":184459.0700000003,"y":2548864.2500000037}},{"attributes":{"ID":104674,"DIS_CODE":0,"TOWNNAME":"新市區","LI":"港墘里","LIN":"9鄰","STREET":" ","SECT":" ","MAREA":"崙頂","LANE":" ","ALLEY":" ","HOUSE_NO":"８２之１５號","E_COORD97":178692.81,"N_COORD97":2552668.0499999998,"ADDRESS":"崙頂８２之１５號","OBJECTID":104674},"geometry":{"x":178692.81000000052,"y":2552668.0500000026}},{"attributes":{"ID":104675,"DIS_CODE":0,"TOWNNAME":"新市區","LI":"社內里","LIN":"9鄰","STREET":" ","SECT":" ","MAREA":"社內","LANE":" ","ALLEY":" ","HOUSE_NO":"９９之２４號","E_COORD97":176340.23000000001,"N_COORD97":2552981.0499999998,"ADDRESS":"社內９９之２４號","OBJECTID":104675},"geometry":{"x":176340.23000000045,"y":2552981.0500000007}},{"attributes":{"ID":104676,"DIS_CODE":0,"TOWNNAME":"新市區","LI":"港墘里","LIN":"9鄰","STREET":" ","SECT":" ","MAREA":"崙頂","LANE":" ","ALLEY":" ","HOUSE_NO":"７５之１６號","E_COORD97":178765.09,"N_COORD97":2552663.7999999998,"ADDRESS":"崙頂７５之１６號","OBJECTID":104676},"geometry":{"x":178765.09000000171,"y":2552663.8000000007}},{"attributes":{"ID":104677,"DIS_CODE":0,"TOWNNAME":"新市區","LI":"社內里","LIN":"9鄰","STREET":" ","SECT":" ","MAREA":"社內","LANE":" ","ALLEY":" ","HOUSE_NO":"９９之７４號","E_COORD97":176353.28,"N_COORD97":2553043.2999999998,"ADDRESS":"社內９９之７４號","OBJECTID":104677},"geometry":{"x":176353.28000000026,"y":2553043.3000000007}},{"attributes":{"ID":104678,"DIS_CODE":0,"TOWNNAME":"新市區","LI":"港墘里","LIN":"9鄰","STREET":" ","SECT":" ","MAREA":"崙頂","LANE":" ","ALLEY":" ","HOUSE_NO":"８２之６號","E_COORD97":178716.26999999999,"N_COORD97":2552697.0499999998,"ADDRESS":"崙頂８２之６號","OBJECTID":104678},"geometry":{"x":178716.27000000048,"y":2552697.0499999989}},{"attributes":{"ID":104679,"DIS_CODE":0,"TOWNNAME":"新市區","LI":"社內里","LIN":"9鄰","STREET":" ","SECT":" ","MAREA":"社內","LANE":" ","ALLEY":" ","HOUSE_NO":"９９之５０號","E_COORD97":176318.64000000001,"N_COORD97":2552985.5499999998,"ADDRESS":"社內９９之５０號","OBJECTID":104679},"geometry":{"x":176318.6400000006,"y":2552985.5500000045}},{"attributes":{"ID":104680,"DIS_CODE":0,"TOWNNAME":"新市區","LI":"社內里","LIN":"9鄰","STREET":" ","SECT":" ","MAREA":"社內","LANE":" ","ALLEY":" ","HOUSE_NO":"９１之１１號","E_COORD97":176430.04000000001,"N_COORD97":2553035.5499999998,"ADDRESS":"社內９１之１１號","OBJECTID":104680},"geometry":{"x":176430.04000000097,"y":2553035.5500000007}},{"attributes":{"ID":104681,"DIS_CODE":0,"TOWNNAME":"新市區","LI":"永就里","LIN":"9鄰","STREET":" ","SECT":" ","MAREA":"永就","LANE":" ","ALLEY":" ","HOUSE_NO":"９１之５號","E_COORD97":177526.81,"N_COORD97":2551478.2999999998,"ADDRESS":"永就９１之５號","OBJECTID":104681},"geometry":{"x":177526.80999999959,"y":2551478.2999999989}},{"attributes":{"ID":104682,"DIS_CODE":0,"TOWNNAME":"新市區","LI":"港墘里","LIN":"9鄰","STREET":" ","SECT":" ","MAREA":"崙頂","LANE":" ","ALLEY":" ","HOUSE_NO":"８２之１２號","E_COORD97":178709.32000000001,"N_COORD97":2552673.04,"ADDRESS":"崙頂８２之１２號","OBJECTID":104682},"geometry":{"x":178709.3200000003,"y":2552673.040000001}},{"attributes":{"ID":104683,"DIS_CODE":0,"TOWNNAME":"新市區","LI":"社內里","LIN":"9鄰","STREET":" ","SECT":" ","MAREA":"社內","LANE":" ","ALLEY":" ","HOUSE_NO":"９９之７０號","E_COORD97":176352.73000000001,"N_COORD97":2553035.0499999998,"ADDRESS":"社內９９之７０號","OBJECTID":104683},"geometry":{"x":176352.73000000138,"y":2553035.0500000007}},{"attributes":{"ID":104684,"DIS_CODE":0,"TOWNNAME":"新市區","LI":"社內里","LIN":"9鄰","STREET":" ","SECT":" ","MAREA":"社內","LANE":" ","ALLEY":" ","HOUSE_NO":"９９之３９號","E_COORD97":176368.67000000001,"N_COORD97":2553040.7999999998,"ADDRESS":"社內９９之３９號","OBJECTID":104684},"geometry":{"x":176368.66999999993,"y":2553040.8000000007}},{"attributes":{"ID":104685,"DIS_CODE":0,"TOWNNAME":"新市區","LI":"大社里","LIN":"9鄰","STREET":" ","SECT":" ","MAREA":"大社","LANE":" ","ALLEY":" ","HOUSE_NO":"２９６號","E_COORD97":180319.85000000001,"N_COORD97":2554581,"ADDRESS":"大社２９６號","OBJECTID":104685},"geometry":{"x":180319.85000000056,"y":2554581}},{"attributes":{"ID":104686,"DIS_CODE":0,"TOWNNAME":"新市區","LI":"社內里","LIN":"9鄰","STREET":" ","SECT":" ","MAREA":"社內","LANE":" ","ALLEY":" ","HOUSE_NO":"９９之２６號","E_COORD97":176336.09,"N_COORD97":2552979.7999999998,"ADDRESS":"社內９９之２６號","OBJECTID":104686},"geometry":{"x":176336.09000000078,"y":2552979.8000000007}},{"attributes":{"ID":104687,"DIS_CODE":0,"TOWNNAME":"新市區","LI":"港墘里","LIN":"9鄰","STREET":" ","SECT":" ","MAREA":"崙頂","LANE":" ","ALLEY":" ","HOUSE_NO":"７５之１１號","E_COORD97":178765.09,"N_COORD97":2552690.5499999998,"ADDRESS":"崙頂７５之１１號","OBJECTID":104687},"geometry":{"x":178765.09000000171,"y":2552690.5500000045}},{"attributes":{"ID":104688,"DIS_CODE":0,"TOWNNAME":"新市區","LI":"港墘里","LIN":"9鄰","STREET":" ","SECT":" ","MAREA":"崙頂","LANE":" ","ALLEY":" ","HOUSE_NO":"６４號","E_COORD97":178910.64999999999,"N_COORD97":2552724.5,"ADDRESS":"崙頂６４號","OBJECTID":104688},"geometry":{"x":178910.65000000037,"y":2552724.5000000019}},{"attributes":{"ID":104689,"DIS_CODE":0,"TOWNNAME":"學甲區","LI":"宅港里","LIN":"1鄰","STREET":" ","SECT":" ","MAREA":"宅子港","LANE":" ","ALLEY":" ","HOUSE_NO":"１０號之２","E_COORD97":168593.51000000001,"N_COORD97":2573086.1499999999,"ADDRESS":"宅子港１０號之２","OBJECTID":104689},"geometry":{"x":168593.51000000071,"y":2573086.1500000041}},{"attributes":{"ID":104690,"DIS_CODE":0,"TOWNNAME":"學甲區","LI":"宅港里","LIN":"1鄰","STREET":" ","SECT":" ","MAREA":"宅子港","LANE":" ","ALLEY":" ","HOUSE_NO":"１１號之２","E_COORD97":168605.94,"N_COORD97":2573104.27,"ADDRESS":"宅子港１１號之２","OBJECTID":104690},"geometry":{"x":168605.94000000134,"y":2573104.2699999996}},{"attributes":{"ID":104691,"DIS_CODE":0,"TOWNNAME":"學甲區","LI":"宅港里","LIN":"1鄰","STREET":" ","SECT":" ","MAREA":"宅子港","LANE":" ","ALLEY":" ","HOUSE_NO":"１１號之６","E_COORD97":168581.72,"N_COORD97":2573114.48,"ADDRESS":"宅子港１１號之６","OBJECTID":104691},"geometry":{"x":168581.72000000067,"y":2573114.4800000042}},{"attributes":{"ID":104692,"DIS_CODE":0,"TOWNNAME":"學甲區","LI":"宅港里","LIN":"1鄰","STREET":" ","SECT":" ","MAREA":"宅子港","LANE":" ","ALLEY":" ","HOUSE_NO":"１１號之７","E_COORD97":168576.85000000001,"N_COORD97":2573114.5600000001,"ADDRESS":"宅子港１１號之７","OBJECTID":104692},"geometry":{"x":168576.85000000056,"y":2573114.5600000024}},{"attributes":{"ID":104693,"DIS_CODE":0,"TOWNNAME":"學甲區","LI":"宅港里","LIN":"1鄰","STREET":" ","SECT":" ","MAREA":"宅子港","LANE":" ","ALLEY":" ","HOUSE_NO":"１１號","E_COORD97":168594.39999999999,"N_COORD97":2573120.25,"ADDRESS":"宅子港１１號","OBJECTID":104693},"geometry":{"x":168594.4000000013,"y":2573120.2500000019}},{"attributes":{"ID":104694,"DIS_CODE":0,"TOWNNAME":"學甲區","LI":"宅港里","LIN":"1鄰","STREET":" ","SECT":" ","MAREA":"宅子港","LANE":" ","ALLEY":" ","HOUSE_NO":"１２號之１","E_COORD97":168562.17999999999,"N_COORD97":2573115.3799999999,"ADDRESS":"宅子港１２號之１","OBJECTID":104694},"geometry":{"x":168562.1799999997,"y":2573115.379999999}},{"attributes":{"ID":104695,"DIS_CODE":0,"TOWNNAME":"學甲區","LI":"宅港里","LIN":"1鄰","STREET":" ","SECT":" ","MAREA":"宅子港","LANE":" ","ALLEY":" ","HOUSE_NO":"１２號","E_COORD97":168567.39999999999,"N_COORD97":2573115.6499999999,"ADDRESS":"宅子港１２號","OBJECTID":104695},"geometry":{"x":168567.4000000013,"y":2573115.6500000004}},{"attributes":{"ID":104696,"DIS_CODE":0,"TOWNNAME":"學甲區","LI":"宅港里","LIN":"1鄰","STREET":" ","SECT":" ","MAREA":"宅子港","LANE":" ","ALLEY":" ","HOUSE_NO":"１３號","E_COORD97":168562.07999999999,"N_COORD97":2573057.7200000002,"ADDRESS":"宅子港１３號","OBJECTID":104696},"geometry":{"x":168562.08000000194,"y":2573057.7200000007}},{"attributes":{"ID":104697,"DIS_CODE":0,"TOWNNAME":"學甲區","LI":"宅港里","LIN":"1鄰","STREET":" ","SECT":" ","MAREA":"宅子港","LANE":" ","ALLEY":" ","HOUSE_NO":"１４號","E_COORD97":168478.10999999999,"N_COORD97":2573094.9199999999,"ADDRESS":"宅子港１４號","OBJECTID":104697},"geometry":{"x":168478.11000000127,"y":2573094.9200000018}},{"attributes":{"ID":104698,"DIS_CODE":0,"TOWNNAME":"學甲區","LI":"宅港里","LIN":"1鄰","STREET":" ","SECT":" ","MAREA":"宅子港","LANE":" ","ALLEY":" ","HOUSE_NO":"１７號","E_COORD97":168454.64000000001,"N_COORD97":2573010.1400000001,"ADDRESS":"宅子港１７號","OBJECTID":104698},"geometry":{"x":168454.6400000006,"y":2573010.1400000006}},{"attributes":{"ID":104699,"DIS_CODE":0,"TOWNNAME":"將軍區","LI":"嘉昌里","LIN":"1鄰","STREET":" ","SECT":" ","MAREA":"北嘉","LANE":" ","ALLEY":" ","HOUSE_NO":"４號","E_COORD97":163793.73999999999,"N_COORD97":2567468.1299999999,"ADDRESS":"北嘉４號","OBJECTID":104699},"geometry":{"x":163793.74000000022,"y":2567468.1300000008}},{"attributes":{"ID":104700,"DIS_CODE":0,"TOWNNAME":"新市區","LI":"港墘里","LIN":"9鄰","STREET":" ","SECT":" ","MAREA":"崙頂","LANE":" ","ALLEY":" ","HOUSE_NO":"７７之２號","E_COORD97":178739.70000000001,"N_COORD97":2552719.7999999998,"ADDRESS":"崙頂７７之２號","OBJECTID":104700},"geometry":{"x":178739.70000000112,"y":2552719.8000000026}},{"attributes":{"ID":104701,"DIS_CODE":0,"TOWNNAME":"新市區","LI":"港墘里","LIN":"9鄰","STREET":" ","SECT":" ","MAREA":"崙頂","LANE":" ","ALLEY":" ","HOUSE_NO":"７７號","E_COORD97":178728.45999999999,"N_COORD97":2552719.5,"ADDRESS":"崙頂７７號","OBJECTID":104701},"geometry":{"x":178728.45999999996,"y":2552719.5}},{"attributes":{"ID":104702,"DIS_CODE":0,"TOWNNAME":"新市區","LI":"港墘里","LIN":"9鄰","STREET":" ","SECT":" ","MAREA":"崙頂","LANE":" ","ALLEY":" ","HOUSE_NO":"８７號","E_COORD97":178639.73999999999,"N_COORD97":2552698,"ADDRESS":"崙頂８７號","OBJECTID":104702},"geometry":{"x":178639.74000000115,"y":2552698.0000000019}},{"attributes":{"ID":104703,"DIS_CODE":0,"TOWNNAME":"新市區","LI":"港墘里","LIN":"9鄰","STREET":" ","SECT":" ","MAREA":"崙頂","LANE":" ","ALLEY":" ","HOUSE_NO":"８９號","E_COORD97":178618.79000000001,"N_COORD97":2552702.25,"ADDRESS":"崙頂８９號","OBJECTID":104703},"geometry":{"x":178618.79000000097,"y":2552702.2500000019}},{"attributes":{"ID":104704,"DIS_CODE":0,"TOWNNAME":"新市區","LI":"社內里","LIN":"9鄰","STREET":" ","SECT":" ","MAREA":"社內","LANE":" ","ALLEY":" ","HOUSE_NO":"９９之５號","E_COORD97":176370.23000000001,"N_COORD97":2552967.5499999998,"ADDRESS":"社內９９之５號","OBJECTID":104704},"geometry":{"x":176370.23000000138,"y":2552967.5500000007}},{"attributes":{"ID":104705,"DIS_CODE":0,"TOWNNAME":"新市區","LI":"港墘里","LIN":"9鄰","STREET":" ","SECT":" ","MAREA":"崙頂","LANE":" ","ALLEY":" ","HOUSE_NO":"８０號","E_COORD97":178727.20999999999,"N_COORD97":2552696.75,"ADDRESS":"崙頂８０號","OBJECTID":104705},"geometry":{"x":178727.21000000183,"y":2552696.7500000019}},{"attributes":{"ID":104706,"DIS_CODE":0,"TOWNNAME":"七股區","LI":"十份里","LIN":"9鄰","STREET":" ","SECT":" ","MAREA":"十份","LANE":" ","ALLEY":" ","HOUSE_NO":"９５號之１","E_COORD97":156891.48000000001,"N_COORD97":2554617.5600000001,"ADDRESS":"十份９５號之１","OBJECTID":104706},"geometry":{"x":156891.48000000045,"y":2554617.5600000024}},{"attributes":{"ID":104707,"DIS_CODE":0,"TOWNNAME":"七股區","LI":"七股里","LIN":"9鄰","STREET":" ","SECT":" ","MAREA":"七股","LANE":" ","ALLEY":" ","HOUSE_NO":"７５號","E_COORD97":160725.78,"N_COORD97":2559370.6299999999,"ADDRESS":"七股７５號","OBJECTID":104707},"geometry":{"x":160725.78000000212,"y":2559370.6300000027}},{"attributes":{"ID":104708,"DIS_CODE":0,"TOWNNAME":"七股區","LI":"七股里","LIN":"9鄰","STREET":" ","SECT":" ","MAREA":"七股","LANE":" ","ALLEY":" ","HOUSE_NO":"７６號","E_COORD97":160713.41,"N_COORD97":2559362.2999999998,"ADDRESS":"七股７６號","OBJECTID":104708},"geometry":{"x":160713.41000000108,"y":2559362.3000000026}},{"attributes":{"ID":104709,"DIS_CODE":0,"TOWNNAME":"七股區","LI":"七股里","LIN":"9鄰","STREET":" ","SECT":" ","MAREA":"七股","LANE":" ","ALLEY":" ","HOUSE_NO":"７７號","E_COORD97":160719.85999999999,"N_COORD97":2559395.71,"ADDRESS":"七股７７號","OBJECTID":104709},"geometry":{"x":160719.86000000034,"y":2559395.7100000046}},{"attributes":{"ID":104710,"DIS_CODE":0,"TOWNNAME":"七股區","LI":"七股里","LIN":"9鄰","STREET":" ","SECT":" ","MAREA":"七股","LANE":" ","ALLEY":" ","HOUSE_NO":"８３號","E_COORD97":160727.32000000001,"N_COORD97":2559423.1800000002,"ADDRESS":"七股８３號","OBJECTID":104710},"geometry":{"x":160727.32000000216,"y":2559423.1800000016}},{"attributes":{"ID":104711,"DIS_CODE":0,"TOWNNAME":"七股區","LI":"七股里","LIN":"9鄰","STREET":" ","SECT":" ","MAREA":"七股","LANE":" ","ALLEY":" ","HOUSE_NO":"８５號","E_COORD97":160703.73000000001,"N_COORD97":2559413.3700000001,"ADDRESS":"七股８５號","OBJECTID":104711},"geometry":{"x":160703.73000000045,"y":2559413.3700000029}},{"attributes":{"ID":104712,"DIS_CODE":0,"TOWNNAME":"七股區","LI":"七股里","LIN":"9鄰","STREET":" ","SECT":" ","MAREA":"七股","LANE":" ","ALLEY":" ","HOUSE_NO":"８６號","E_COORD97":160685.20000000001,"N_COORD97":2559407.7799999998,"ADDRESS":"七股８６號","OBJECTID":104712},"geometry":{"x":160685.20000000019,"y":2559407.7800000012}},{"attributes":{"ID":104713,"DIS_CODE":0,"TOWNNAME":"七股區","LI":"十份里","LIN":"9鄰","STREET":" ","SECT":" ","MAREA":"十份","LANE":" ","ALLEY":" ","HOUSE_NO":"８５號之１０","E_COORD97":157274.67000000001,"N_COORD97":2554526.7799999998,"ADDRESS":"十份８５號之１０","OBJECTID":104713},"geometry":{"x":157274.67000000179,"y":2554526.7799999993}},{"attributes":{"ID":104714,"DIS_CODE":0,"TOWNNAME":"七股區","LI":"十份里","LIN":"9鄰","STREET":" ","SECT":" ","MAREA":"十份","LANE":" ","ALLEY":" ","HOUSE_NO":"８５號之１１","E_COORD97":157244.79000000001,"N_COORD97":2554534.6600000001,"ADDRESS":"十份８５號之１１","OBJECTID":104714},"geometry":{"x":157244.79000000004,"y":2554534.660000002}},{"attributes":{"ID":104715,"DIS_CODE":0,"TOWNNAME":"七股區","LI":"十份里","LIN":"9鄰","STREET":" ","SECT":" ","MAREA":"十份","LANE":" ","ALLEY":" ","HOUSE_NO":"８５號之１２","E_COORD97":157203.54000000001,"N_COORD97":2554560.5600000001,"ADDRESS":"十份８５號之１２","OBJECTID":104715},"geometry":{"x":157203.54000000097,"y":2554560.5600000005}},{"attributes":{"ID":104716,"DIS_CODE":0,"TOWNNAME":"七股區","LI":"十份里","LIN":"9鄰","STREET":" ","SECT":" ","MAREA":"十份","LANE":" ","ALLEY":" ","HOUSE_NO":"８５號之１","E_COORD97":157141.70000000001,"N_COORD97":2554589.5800000001,"ADDRESS":"十份８５號之１","OBJECTID":104716},"geometry":{"x":157141.70000000112,"y":2554589.5800000019}},{"attributes":{"ID":104717,"DIS_CODE":0,"TOWNNAME":"七股區","LI":"十份里","LIN":"9鄰","STREET":" ","SECT":" ","MAREA":"十份","LANE":" ","ALLEY":" ","HOUSE_NO":"８５號之２","E_COORD97":157173.26000000001,"N_COORD97":2554593.0699999998,"ADDRESS":"十份８５號之２","OBJECTID":104717},"geometry":{"x":157173.25999999978,"y":2554593.0700000022}},{"attributes":{"ID":104718,"DIS_CODE":0,"TOWNNAME":"七股區","LI":"十份里","LIN":"9鄰","STREET":" ","SECT":" ","MAREA":"十份","LANE":" ","ALLEY":" ","HOUSE_NO":"８５號之３","E_COORD97":157150.64000000001,"N_COORD97":2554542.9399999999,"ADDRESS":"十份８５號之３","OBJECTID":104718},"geometry":{"x":157150.63999999966,"y":2554542.9399999995}},{"attributes":{"ID":104719,"DIS_CODE":0,"TOWNNAME":"七股區","LI":"十份里","LIN":"9鄰","STREET":" ","SECT":" ","MAREA":"十份","LANE":" ","ALLEY":" ","HOUSE_NO":"８５號之４","E_COORD97":157250.28,"N_COORD97":2554575.4900000002,"ADDRESS":"十份８５號之４","OBJECTID":104719},"geometry":{"x":157250.28000000026,"y":2554575.4900000039}},{"attributes":{"ID":104720,"DIS_CODE":0,"TOWNNAME":"七股區","LI":"十份里","LIN":"9鄰","STREET":" ","SECT":" ","MAREA":"十份","LANE":" ","ALLEY":" ","HOUSE_NO":"８５號之５","E_COORD97":157273.79999999999,"N_COORD97":2554561.1400000001,"ADDRESS":"十份８５號之５","OBJECTID":104720},"geometry":{"x":157273.80000000168,"y":2554561.1400000043}},{"attributes":{"ID":104721,"DIS_CODE":0,"TOWNNAME":"七股區","LI":"十份里","LIN":"9鄰","STREET":" ","SECT":" ","MAREA":"十份","LANE":" ","ALLEY":" ","HOUSE_NO":"８５號之６","E_COORD97":157296.44,"N_COORD97":2554565.1899999999,"ADDRESS":"十份８５號之６","OBJECTID":104721},"geometry":{"x":157296.44000000041,"y":2554565.1899999995}},{"attributes":{"ID":104722,"DIS_CODE":0,"TOWNNAME":"南區","LI":"省躬里","LIN":"9鄰","STREET":"灣裡路","SECT":" ","MAREA":" ","LANE":"６２巷","ALLEY":"４０弄","HOUSE_NO":"３０號","E_COORD97":165675.14999999999,"N_COORD97":2537250.6400000001,"ADDRESS":"灣裡路６２巷４０弄３０號","OBJECTID":104722},"geometry":{"x":165675.1500000013,"y":2537250.6400000025}},{"attributes":{"ID":104723,"DIS_CODE":0,"TOWNNAME":"南區","LI":"省躬里","LIN":"9鄰","STREET":"灣裡路","SECT":" ","MAREA":" ","LANE":"６２巷","ALLEY":"４０弄","HOUSE_NO":"３２號","E_COORD97":165675.39000000001,"N_COORD97":2537254.98,"ADDRESS":"灣裡路６２巷４０弄３２號","OBJECTID":104723},"geometry":{"x":165675.38999999966,"y":2537254.9800000023}},{"attributes":{"ID":104724,"DIS_CODE":0,"TOWNNAME":"南區","LI":"省躬里","LIN":"9鄰","STREET":"灣裡路","SECT":" ","MAREA":" ","LANE":"６２巷","ALLEY":"４０弄","HOUSE_NO":"３４號","E_COORD97":165674.19,"N_COORD97":2537260.2799999998,"ADDRESS":"灣裡路６２巷４０弄３４號","OBJECTID":104724},"geometry":{"x":165674.19000000041,"y":2537260.2799999993}},{"attributes":{"ID":104725,"DIS_CODE":0,"TOWNNAME":"南區","LI":"省躬里","LIN":"9鄰","STREET":"灣裡路","SECT":" ","MAREA":" ","LANE":"６２巷","ALLEY":"４０弄","HOUSE_NO":"３６號","E_COORD97":165672.73999999999,"N_COORD97":2537264.6099999999,"ADDRESS":"灣裡路６２巷４０弄３６號","OBJECTID":104725},"geometry":{"x":165672.74000000115,"y":2537264.6099999994}},{"attributes":{"ID":104726,"DIS_CODE":0,"TOWNNAME":"南區","LI":"省躬里","LIN":"9鄰","STREET":"灣裡路","SECT":" ","MAREA":" ","LANE":"６２巷","ALLEY":"４０弄","HOUSE_NO":"３８號","E_COORD97":165672.01000000001,"N_COORD97":2537269.6699999999,"ADDRESS":"灣裡路６２巷４０弄３８號","OBJECTID":104726},"geometry":{"x":165672.01000000164,"y":2537269.6700000018}},{"attributes":{"ID":104727,"DIS_CODE":0,"TOWNNAME":"南區","LI":"省躬里","LIN":"9鄰","STREET":"灣裡路","SECT":" ","MAREA":" ","LANE":"６２巷","ALLEY":"４０弄","HOUSE_NO":"４０號","E_COORD97":165671.29000000001,"N_COORD97":2537274.4900000002,"ADDRESS":"灣裡路６２巷４０弄４０號","OBJECTID":104727},"geometry":{"x":165671.29000000004,"y":2537274.4900000039}},{"attributes":{"ID":104728,"DIS_CODE":0,"TOWNNAME":"南區","LI":"省躬里","LIN":"9鄰","STREET":"灣裡路","SECT":" ","MAREA":" ","LANE":"６２巷","ALLEY":"４０弄","HOUSE_NO":"４２號","E_COORD97":165670.07999999999,"N_COORD97":2537278.8300000001,"ADDRESS":"灣裡路６２巷４０弄４２號","OBJECTID":104728},"geometry":{"x":165670.08000000194,"y":2537278.8300000038}},{"attributes":{"ID":104729,"DIS_CODE":0,"TOWNNAME":"南區","LI":"省躬里","LIN":"9鄰","STREET":"灣裡路","SECT":" ","MAREA":" ","LANE":"６２巷","ALLEY":"４０弄","HOUSE_NO":"４４號","E_COORD97":165669.60000000001,"N_COORD97":2537283.1699999999,"ADDRESS":"灣裡路６２巷４０弄４４號","OBJECTID":104729},"geometry":{"x":165669.60000000056,"y":2537283.1700000037}},{"attributes":{"ID":104730,"DIS_CODE":0,"TOWNNAME":"南區","LI":"省躬里","LIN":"9鄰","STREET":"灣裡路","SECT":" ","MAREA":" ","LANE":"６２巷","ALLEY":"４０弄","HOUSE_NO":"４６號","E_COORD97":165668.39999999999,"N_COORD97":2537287.7400000002,"ADDRESS":"灣裡路６２巷４０弄４６號","OBJECTID":104730},"geometry":{"x":165668.4000000013,"y":2537287.7400000021}},{"attributes":{"ID":104731,"DIS_CODE":0,"TOWNNAME":"南區","LI":"省躬里","LIN":"9鄰","STREET":"灣裡路","SECT":" ","MAREA":" ","LANE":"６２巷","ALLEY":"４０弄","HOUSE_NO":"４８號","E_COORD97":165667.42999999999,"N_COORD97":2537293.2999999998,"ADDRESS":"灣裡路６２巷４０弄４８號","OBJECTID":104731},"geometry":{"x":165667.43000000063,"y":2537293.3000000045}},{"attributes":{"ID":104732,"DIS_CODE":0,"TOWNNAME":"南區","LI":"省躬里","LIN":"9鄰","STREET":"灣裡路","SECT":" ","MAREA":" ","LANE":"６２巷","ALLEY":"４０弄","HOUSE_NO":"４號","E_COORD97":165686.98999999999,"N_COORD97":2537183.0099999998,"ADDRESS":"灣裡路６２巷４０弄４號","OBJECTID":104732},"geometry":{"x":165686.99000000022,"y":2537183.0100000016}},{"attributes":{"ID":104733,"DIS_CODE":0,"TOWNNAME":"南區","LI":"省躬里","LIN":"9鄰","STREET":"灣裡路","SECT":" ","MAREA":" ","LANE":"６２巷","ALLEY":"４０弄","HOUSE_NO":"５０號","E_COORD97":165667.19,"N_COORD97":2537297.8799999999,"ADDRESS":"灣裡路６２巷４０弄５０號","OBJECTID":104733},"geometry":{"x":165667.19000000041,"y":2537297.8800000008}},{"attributes":{"ID":104734,"DIS_CODE":0,"TOWNNAME":"南區","LI":"省躬里","LIN":"9鄰","STREET":"灣裡路","SECT":" ","MAREA":" ","LANE":"６２巷","ALLEY":"４０弄","HOUSE_NO":"５２號","E_COORD97":165669.35999999999,"N_COORD97":2537318.3500000001,"ADDRESS":"灣裡路６２巷４０弄５２號","OBJECTID":104734},"geometry":{"x":165669.36000000034,"y":2537318.3499999996}},{"attributes":{"ID":104735,"DIS_CODE":0,"TOWNNAME":"南區","LI":"省躬里","LIN":"9鄰","STREET":"灣裡路","SECT":" ","MAREA":" ","LANE":"６２巷","ALLEY":"４０弄","HOUSE_NO":"５４號","E_COORD97":165673.22,"N_COORD97":2537315.7000000002,"ADDRESS":"灣裡路６２巷４０弄５４號","OBJECTID":104735},"geometry":{"x":165673.21999999974,"y":2537315.6999999974}},{"attributes":{"ID":104736,"DIS_CODE":0,"TOWNNAME":"南區","LI":"省躬里","LIN":"9鄰","STREET":"灣裡路","SECT":" ","MAREA":" ","LANE":"６２巷","ALLEY":"４０弄","HOUSE_NO":"５６號","E_COORD97":165677.79999999999,"N_COORD97":2537317.1499999999,"ADDRESS":"灣裡路６２巷４０弄５６號","OBJECTID":104736},"geometry":{"x":165677.79999999981,"y":2537317.1500000004}},{"attributes":{"ID":104737,"DIS_CODE":0,"TOWNNAME":"南區","LI":"省躬里","LIN":"9鄰","STREET":"灣裡路","SECT":" ","MAREA":" ","LANE":"６２巷","ALLEY":"４０弄","HOUSE_NO":"５８號","E_COORD97":165681.17999999999,"N_COORD97":2537314.5,"ADDRESS":"灣裡路６２巷４０弄５８號","OBJECTID":104737},"geometry":{"x":165681.18000000063,"y":2537314.4999999981}},{"attributes":{"ID":104738,"DIS_CODE":0,"TOWNNAME":"南區","LI":"省躬里","LIN":"9鄰","STREET":"灣裡路","SECT":" ","MAREA":" ","LANE":"６２巷","ALLEY":"４０弄","HOUSE_NO":"６０號","E_COORD97":165685.76999999999,"N_COORD97":2537315.9399999999,"ADDRESS":"灣裡路６２巷４０弄６０號","OBJECTID":104738},"geometry":{"x":165685.77000000048,"y":2537315.9400000013}},{"attributes":{"ID":104739,"DIS_CODE":0,"TOWNNAME":"南區","LI":"省躬里","LIN":"9鄰","STREET":"灣裡路","SECT":" ","MAREA":" ","LANE":"６２巷","ALLEY":"４０弄","HOUSE_NO":"６２號","E_COORD97":165689.14000000001,"N_COORD97":2537313.0499999998,"ADDRESS":"灣裡路６２巷４０弄６２號","OBJECTID":104739},"geometry":{"x":165689.13999999966,"y":2537313.0500000026}},{"attributes":{"ID":104740,"DIS_CODE":0,"TOWNNAME":"南區","LI":"省躬里","LIN":"9鄰","STREET":"灣裡路","SECT":" ","MAREA":" ","LANE":"６２巷","ALLEY":"４０弄","HOUSE_NO":"６４號","E_COORD97":165693.73000000001,"N_COORD97":2537314.5,"ADDRESS":"灣裡路６２巷４０弄６４號","OBJECTID":104740},"geometry":{"x":165693.73000000138,"y":2537314.4999999981}},{"attributes":{"ID":104741,"DIS_CODE":0,"TOWNNAME":"學甲區","LI":"新榮里","LIN":"1鄰","STREET":" ","SECT":" ","MAREA":"東寮","LANE":" ","ALLEY":" ","HOUSE_NO":"１０號","E_COORD97":166787.88,"N_COORD97":2569562.0299999998,"ADDRESS":"東寮１０號","OBJECTID":104741},"geometry":{"x":166787.87999999989,"y":2569562.0299999993}},{"attributes":{"ID":104742,"DIS_CODE":0,"TOWNNAME":"學甲區","LI":"新榮里","LIN":"1鄰","STREET":" ","SECT":" ","MAREA":"東寮","LANE":" ","ALLEY":" ","HOUSE_NO":"１１號","E_COORD97":166790.17999999999,"N_COORD97":2569578.0499999998,"ADDRESS":"東寮１１號","OBJECTID":104742},"geometry":{"x":166790.18000000063,"y":2569578.0500000045}},{"attributes":{"ID":104743,"DIS_CODE":0,"TOWNNAME":"學甲區","LI":"新榮里","LIN":"1鄰","STREET":" ","SECT":" ","MAREA":"東寮","LANE":" ","ALLEY":" ","HOUSE_NO":"１２號","E_COORD97":166788.45999999999,"N_COORD97":2569594.7999999998,"ADDRESS":"東寮１２號","OBJECTID":104743},"geometry":{"x":166788.46000000089,"y":2569594.8000000026}},{"attributes":{"ID":104744,"DIS_CODE":0,"TOWNNAME":"學甲區","LI":"新榮里","LIN":"1鄰","STREET":" ","SECT":" ","MAREA":"東寮","LANE":" ","ALLEY":" ","HOUSE_NO":"８號之１５","E_COORD97":166719.92999999999,"N_COORD97":2569713.71,"ADDRESS":"東寮８號之１５","OBJECTID":104744},"geometry":{"x":166719.92999999877,"y":2569713.7100000028}},{"attributes":{"ID":104745,"DIS_CODE":0,"TOWNNAME":"學甲區","LI":"新榮里","LIN":"1鄰","STREET":" ","SECT":" ","MAREA":"東寮","LANE":" ","ALLEY":" ","HOUSE_NO":"８號之１６","E_COORD97":166715.95999999999,"N_COORD97":2569714.04,"ADDRESS":"東寮８號之１６","OBJECTID":104745},"geometry":{"x":166715.95999999996,"y":2569714.0399999991}},{"attributes":{"ID":104746,"DIS_CODE":0,"TOWNNAME":"學甲區","LI":"新榮里","LIN":"1鄰","STREET":" ","SECT":" ","MAREA":"東寮","LANE":" ","ALLEY":" ","HOUSE_NO":"８號之２１","E_COORD97":166729.56,"N_COORD97":2569762.6200000001,"ADDRESS":"東寮８號之２１","OBJECTID":104746},"geometry":{"x":166729.56000000052,"y":2569762.620000001}},{"attributes":{"ID":104747,"DIS_CODE":0,"TOWNNAME":"學甲區","LI":"新榮里","LIN":"1鄰","STREET":" ","SECT":" ","MAREA":"東寮","LANE":" ","ALLEY":" ","HOUSE_NO":"８號之３６","E_COORD97":166686.64999999999,"N_COORD97":2569765.4100000001,"ADDRESS":"東寮８號之３６","OBJECTID":104747},"geometry":{"x":166686.65000000037,"y":2569765.410000002}},{"attributes":{"ID":104748,"DIS_CODE":0,"TOWNNAME":"學甲區","LI":"新榮里","LIN":"1鄰","STREET":" ","SECT":" ","MAREA":"東寮","LANE":" ","ALLEY":" ","HOUSE_NO":"８號之３７","E_COORD97":166687.04000000001,"N_COORD97":2569758.9300000002,"ADDRESS":"東寮８號之３７","OBJECTID":104748},"geometry":{"x":166687.04000000004,"y":2569758.9300000016}},{"attributes":{"ID":104749,"DIS_CODE":0,"TOWNNAME":"學甲區","LI":"新榮里","LIN":"1鄰","STREET":" ","SECT":" ","MAREA":"東寮","LANE":" ","ALLEY":" ","HOUSE_NO":"８號之３８","E_COORD97":166687.19,"N_COORD97":2569753.52,"ADDRESS":"東寮８號之３８","OBJECTID":104749},"geometry":{"x":166687.19000000134,"y":2569753.5200000014}},{"attributes":{"ID":104750,"DIS_CODE":0,"TOWNNAME":"學甲區","LI":"新榮里","LIN":"1鄰","STREET":" ","SECT":" ","MAREA":"東寮","LANE":" ","ALLEY":" ","HOUSE_NO":"８號之３９","E_COORD97":166687.38,"N_COORD97":2569748.96,"ADDRESS":"東寮８號之３９","OBJECTID":104750},"geometry":{"x":166687.38000000082,"y":2569748.9600000028}},{"attributes":{"ID":104751,"DIS_CODE":0,"TOWNNAME":"學甲區","LI":"新榮里","LIN":"1鄰","STREET":" ","SECT":" ","MAREA":"東寮","LANE":" ","ALLEY":" ","HOUSE_NO":"８號之３","E_COORD97":166735.51999999999,"N_COORD97":2569608.8399999999,"ADDRESS":"東寮８號之３","OBJECTID":104751},"geometry":{"x":166735.51999999955,"y":2569608.8400000036}},{"attributes":{"ID":104752,"DIS_CODE":0,"TOWNNAME":"學甲區","LI":"新榮里","LIN":"1鄰","STREET":" ","SECT":" ","MAREA":"東寮","LANE":" ","ALLEY":" ","HOUSE_NO":"８號之４０","E_COORD97":166687.62,"N_COORD97":2569743.7999999998,"ADDRESS":"東寮８號之４０","OBJECTID":104752},"geometry":{"x":166687.62000000104,"y":2569743.8000000026}},{"attributes":{"ID":104753,"DIS_CODE":0,"TOWNNAME":"學甲區","LI":"新榮里","LIN":"1鄰","STREET":" ","SECT":" ","MAREA":"東寮","LANE":" ","ALLEY":" ","HOUSE_NO":"８號之４１","E_COORD97":166687.92000000001,"N_COORD97":2569739.0899999999,"ADDRESS":"東寮８號之４１","OBJECTID":104753},"geometry":{"x":166687.91999999993,"y":2569739.0899999999}},{"attributes":{"ID":104754,"DIS_CODE":0,"TOWNNAME":"學甲區","LI":"新榮里","LIN":"1鄰","STREET":" ","SECT":" ","MAREA":"東寮","LANE":" ","ALLEY":" ","HOUSE_NO":"８號之４２","E_COORD97":166687.91,"N_COORD97":2569733.8399999999,"ADDRESS":"東寮８號之４２","OBJECTID":104754},"geometry":{"x":166687.91000000015,"y":2569733.8399999999}},{"attributes":{"ID":104755,"DIS_CODE":0,"TOWNNAME":"學甲區","LI":"新榮里","LIN":"1鄰","STREET":" ","SECT":" ","MAREA":"東寮","LANE":" ","ALLEY":" ","HOUSE_NO":"８號之４３","E_COORD97":166688.35000000001,"N_COORD97":2569727.6000000001,"ADDRESS":"東寮８號之４３","OBJECTID":104755},"geometry":{"x":166688.35000000149,"y":2569727.5999999996}},{"attributes":{"ID":104756,"DIS_CODE":0,"TOWNNAME":"學甲區","LI":"新榮里","LIN":"1鄰","STREET":" ","SECT":" ","MAREA":"東寮","LANE":" ","ALLEY":" ","HOUSE_NO":"８號之４５","E_COORD97":166706.62,"N_COORD97":2569765.21,"ADDRESS":"東寮８號之４５","OBJECTID":104756},"geometry":{"x":166706.62000000011,"y":2569765.2100000028}},{"attributes":{"ID":104757,"DIS_CODE":0,"TOWNNAME":"學甲區","LI":"新榮里","LIN":"1鄰","STREET":" ","SECT":" ","MAREA":"東寮","LANE":" ","ALLEY":" ","HOUSE_NO":"８號之４６","E_COORD97":166706.70999999999,"N_COORD97":2569758.7799999998,"ADDRESS":"東寮８號之４６","OBJECTID":104757},"geometry":{"x":166706.71000000089,"y":2569758.7800000012}},{"attributes":{"ID":104758,"DIS_CODE":0,"TOWNNAME":"學甲區","LI":"新榮里","LIN":"1鄰","STREET":" ","SECT":" ","MAREA":"東寮","LANE":" ","ALLEY":" ","HOUSE_NO":"８號之４７","E_COORD97":166706.56,"N_COORD97":2569753.2799999998,"ADDRESS":"東寮８號之４７","OBJECTID":104758},"geometry":{"x":166706.55999999959,"y":2569753.2799999993}},{"attributes":{"ID":104759,"DIS_CODE":0,"TOWNNAME":"學甲區","LI":"新榮里","LIN":"1鄰","STREET":" ","SECT":" ","MAREA":"東寮","LANE":" ","ALLEY":" ","HOUSE_NO":"８號之４８","E_COORD97":166706.69,"N_COORD97":2569749.3399999999,"ADDRESS":"東寮８號之４８","OBJECTID":104759},"geometry":{"x":166706.69000000041,"y":2569749.3400000017}},{"attributes":{"ID":104760,"DIS_CODE":0,"TOWNNAME":"七股區","LI":"十份里","LIN":"9鄰","STREET":" ","SECT":" ","MAREA":"十份","LANE":" ","ALLEY":" ","HOUSE_NO":"８５號之７","E_COORD97":157297.67000000001,"N_COORD97":2554534.7000000002,"ADDRESS":"十份８５號之７","OBJECTID":104760},"geometry":{"x":157297.66999999993,"y":2554534.6999999993}},{"attributes":{"ID":104761,"DIS_CODE":0,"TOWNNAME":"七股區","LI":"十份里","LIN":"9鄰","STREET":" ","SECT":" ","MAREA":"十份","LANE":" ","ALLEY":" ","HOUSE_NO":"８５號之８","E_COORD97":157325.84,"N_COORD97":2554538.0899999999,"ADDRESS":"十份８５號之８","OBJECTID":104761},"geometry":{"x":157325.83999999985,"y":2554538.0900000017}},{"attributes":{"ID":104762,"DIS_CODE":0,"TOWNNAME":"七股區","LI":"十份里","LIN":"9鄰","STREET":" ","SECT":" ","MAREA":"十份","LANE":" ","ALLEY":" ","HOUSE_NO":"８５號之９","E_COORD97":157325.13,"N_COORD97":2554566.0699999998,"ADDRESS":"十份８５號之９","OBJECTID":104762},"geometry":{"x":157325.12999999989,"y":2554566.0700000022}},{"attributes":{"ID":104763,"DIS_CODE":0,"TOWNNAME":"七股區","LI":"十份里","LIN":"9鄰","STREET":" ","SECT":" ","MAREA":"十份","LANE":" ","ALLEY":" ","HOUSE_NO":"８５號","E_COORD97":157133.01000000001,"N_COORD97":2554545.7000000002,"ADDRESS":"十份８５號","OBJECTID":104763},"geometry":{"x":157133.00999999978,"y":2554545.6999999974}},{"attributes":{"ID":104764,"DIS_CODE":0,"TOWNNAME":"七股區","LI":"十份里","LIN":"9鄰","STREET":" ","SECT":" ","MAREA":"十份","LANE":" ","ALLEY":" ","HOUSE_NO":"８６號之１","E_COORD97":157116.03,"N_COORD97":2554582.9100000001,"ADDRESS":"十份８６號之１","OBJECTID":104764},"geometry":{"x":157116.03000000026,"y":2554582.9100000039}},{"attributes":{"ID":104765,"DIS_CODE":0,"TOWNNAME":"七股區","LI":"十份里","LIN":"9鄰","STREET":" ","SECT":" ","MAREA":"十份","LANE":" ","ALLEY":" ","HOUSE_NO":"８６號","E_COORD97":157111.35000000001,"N_COORD97":2554556.5,"ADDRESS":"十份８６號","OBJECTID":104765},"geometry":{"x":157111.34999999963,"y":2554556.5}},{"attributes":{"ID":104766,"DIS_CODE":0,"TOWNNAME":"將軍區","LI":"苓和里","LIN":"4鄰","STREET":" ","SECT":" ","MAREA":"苓和","LANE":" ","ALLEY":" ","HOUSE_NO":"３０號","E_COORD97":164645.19,"N_COORD97":2568960.0899999999,"ADDRESS":"苓和３０號","OBJECTID":104766},"geometry":{"x":164645.19000000041,"y":2568960.0900000017}},{"attributes":{"ID":104767,"DIS_CODE":0,"TOWNNAME":"南區","LI":"省躬里","LIN":"9鄰","STREET":"灣裡路","SECT":" ","MAREA":" ","LANE":"６２巷","ALLEY":"４０弄","HOUSE_NO":"６６號","E_COORD97":165697.59,"N_COORD97":2537312.0899999999,"ADDRESS":"灣裡路６２巷４０弄６６號","OBJECTID":104767},"geometry":{"x":165697.59000000078,"y":2537312.0900000017}},{"attributes":{"ID":104768,"DIS_CODE":0,"TOWNNAME":"南區","LI":"省躬里","LIN":"9鄰","STREET":"灣裡路","SECT":" ","MAREA":" ","LANE":"６２巷","ALLEY":"４０弄","HOUSE_NO":"６８號","E_COORD97":165701.20999999999,"N_COORD97":2537309.9199999999,"ADDRESS":"灣裡路６２巷４０弄６８號","OBJECTID":104768},"geometry":{"x":165701.21000000183,"y":2537309.9200000018}},{"attributes":{"ID":104769,"DIS_CODE":0,"TOWNNAME":"南區","LI":"省躬里","LIN":"9鄰","STREET":"灣裡路","SECT":" ","MAREA":" ","LANE":"６２巷","ALLEY":"４０弄","HOUSE_NO":"６號","E_COORD97":165686.37,"N_COORD97":2537187.1499999999,"ADDRESS":"灣裡路６２巷４０弄６號","OBJECTID":104769},"geometry":{"x":165686.37000000011,"y":2537187.1500000004}},{"attributes":{"ID":104770,"DIS_CODE":0,"TOWNNAME":"南區","LI":"省躬里","LIN":"9鄰","STREET":"灣裡路","SECT":" ","MAREA":" ","LANE":"６２巷","ALLEY":"４０弄","HOUSE_NO":"７０號","E_COORD97":165705.07000000001,"N_COORD97":2537307.5099999998,"ADDRESS":"灣裡路６２巷４０弄７０號","OBJECTID":104770},"geometry":{"x":165705.07000000123,"y":2537307.5100000035}},{"attributes":{"ID":104771,"DIS_CODE":0,"TOWNNAME":"南區","LI":"省躬里","LIN":"9鄰","STREET":"灣裡路","SECT":" ","MAREA":" ","LANE":"６２巷","ALLEY":"４０弄","HOUSE_NO":"７２號","E_COORD97":165709.64999999999,"N_COORD97":2537309.4399999999,"ADDRESS":"灣裡路６２巷４０弄７２號","OBJECTID":104771},"geometry":{"x":165709.6500000013,"y":2537309.4400000013}},{"attributes":{"ID":104772,"DIS_CODE":0,"TOWNNAME":"南區","LI":"省躬里","LIN":"9鄰","STREET":"灣裡路","SECT":" ","MAREA":" ","LANE":"６２巷","ALLEY":"４０弄","HOUSE_NO":"７４號","E_COORD97":165713.03,"N_COORD97":2537307.27,"ADDRESS":"灣裡路６２巷４０弄７４號","OBJECTID":104772},"geometry":{"x":165713.03000000212,"y":2537307.2700000014}},{"attributes":{"ID":104773,"DIS_CODE":0,"TOWNNAME":"南區","LI":"省躬里","LIN":"9鄰","STREET":"灣裡路","SECT":" ","MAREA":" ","LANE":"６２巷","ALLEY":"４０弄","HOUSE_NO":"７６號","E_COORD97":165698.07000000001,"N_COORD97":2537293.54,"ADDRESS":"灣裡路６２巷４０弄７６號","OBJECTID":104773},"geometry":{"x":165698.07000000123,"y":2537293.540000001}},{"attributes":{"ID":104774,"DIS_CODE":0,"TOWNNAME":"南區","LI":"省躬里","LIN":"9鄰","STREET":"灣裡路","SECT":" ","MAREA":" ","LANE":"６２巷","ALLEY":"４０弄","HOUSE_NO":"７８號","E_COORD97":165690.10999999999,"N_COORD97":2537294.5,"ADDRESS":"灣裡路６２巷４０弄７８號","OBJECTID":104774},"geometry":{"x":165690.11000000034,"y":2537294.5000000037}},{"attributes":{"ID":104775,"DIS_CODE":0,"TOWNNAME":"南區","LI":"省躬里","LIN":"9鄰","STREET":"灣裡路","SECT":" ","MAREA":" ","LANE":"６２巷","ALLEY":"４０弄","HOUSE_NO":"７８號之１","E_COORD97":165684.56,"N_COORD97":2537289.6800000002,"ADDRESS":"灣裡路６２巷４０弄７８號之１","OBJECTID":104775},"geometry":{"x":165684.55999999959,"y":2537289.6800000034}},{"attributes":{"ID":104776,"DIS_CODE":0,"TOWNNAME":"南區","LI":"省躬里","LIN":"9鄰","STREET":"灣裡路","SECT":" ","MAREA":" ","LANE":"６２巷","ALLEY":"４０弄","HOUSE_NO":"８０號","E_COORD97":165710.26999999999,"N_COORD97":2537278.1299999999,"ADDRESS":"灣裡路６２巷４０弄８０號","OBJECTID":104776},"geometry":{"x":165710.26999999955,"y":2537278.129999999}},{"attributes":{"ID":104777,"DIS_CODE":0,"TOWNNAME":"南區","LI":"省躬里","LIN":"9鄰","STREET":"灣裡路","SECT":" ","MAREA":" ","LANE":"６２巷","ALLEY":"４０弄","HOUSE_NO":"８２號","E_COORD97":165706.17000000001,"N_COORD97":2537275.7200000002,"ADDRESS":"灣裡路６２巷４０弄８２號","OBJECTID":104777},"geometry":{"x":165706.16999999993,"y":2537275.7200000007}},{"attributes":{"ID":104778,"DIS_CODE":0,"TOWNNAME":"南區","LI":"省躬里","LIN":"9鄰","STREET":"灣裡路","SECT":" ","MAREA":" ","LANE":"６２巷","ALLEY":"４０弄","HOUSE_NO":"８４號","E_COORD97":165701.57999999999,"N_COORD97":2537273.0699999998,"ADDRESS":"灣裡路６２巷４０弄８４號","OBJECTID":104778},"geometry":{"x":165701.58000000007,"y":2537273.0700000003}},{"attributes":{"ID":104779,"DIS_CODE":0,"TOWNNAME":"南區","LI":"省躬里","LIN":"9鄰","STREET":"灣裡路","SECT":" ","MAREA":" ","LANE":"６２巷","ALLEY":"４０弄","HOUSE_NO":"８６號","E_COORD97":165696.28,"N_COORD97":2537274.75,"ADDRESS":"灣裡路６２巷４０弄８６號","OBJECTID":104779},"geometry":{"x":165696.28000000119,"y":2537274.75}},{"attributes":{"ID":104780,"DIS_CODE":0,"TOWNNAME":"南區","LI":"省躬里","LIN":"9鄰","STREET":"灣裡路","SECT":" ","MAREA":" ","LANE":"６２巷","ALLEY":"４０弄","HOUSE_NO":"８８號","E_COORD97":165691.45000000001,"N_COORD97":2537272.8300000001,"ADDRESS":"灣裡路６２巷４０弄８８號","OBJECTID":104780},"geometry":{"x":165691.45000000205,"y":2537272.8300000019}},{"attributes":{"ID":104781,"DIS_CODE":0,"TOWNNAME":"南區","LI":"省躬里","LIN":"9鄰","STREET":"灣裡路","SECT":" ","MAREA":" ","LANE":"６２巷","ALLEY":"４０弄","HOUSE_NO":"８號","E_COORD97":165685.51999999999,"N_COORD97":2537193.4100000001,"ADDRESS":"灣裡路６２巷４０弄８號","OBJECTID":104781},"geometry":{"x":165685.52000000048,"y":2537193.4100000039}},{"attributes":{"ID":104782,"DIS_CODE":0,"TOWNNAME":"南區","LI":"省躬里","LIN":"9鄰","STREET":"灣裡路","SECT":" ","MAREA":" ","LANE":"６２巷","ALLEY":"４０弄","HOUSE_NO":"９０號","E_COORD97":165693.85999999999,"N_COORD97":2537258.3700000001,"ADDRESS":"灣裡路６２巷４０弄９０號","OBJECTID":104782},"geometry":{"x":165693.8600000022,"y":2537258.370000001}},{"attributes":{"ID":104783,"DIS_CODE":0,"TOWNNAME":"七股區","LI":"十份里","LIN":"9鄰","STREET":" ","SECT":" ","MAREA":"十份","LANE":" ","ALLEY":" ","HOUSE_NO":"８７號","E_COORD97":157091.26999999999,"N_COORD97":2554552.0899999999,"ADDRESS":"十份８７號","OBJECTID":104783},"geometry":{"x":157091.27000000048,"y":2554552.0900000017}},{"attributes":{"ID":104784,"DIS_CODE":0,"TOWNNAME":"七股區","LI":"十份里","LIN":"9鄰","STREET":" ","SECT":" ","MAREA":"十份","LANE":" ","ALLEY":" ","HOUSE_NO":"８８號之１","E_COORD97":157080.98000000001,"N_COORD97":2554595.3599999999,"ADDRESS":"十份８８號之１","OBJECTID":104784},"geometry":{"x":157080.98000000045,"y":2554595.3599999994}},{"attributes":{"ID":104785,"DIS_CODE":0,"TOWNNAME":"七股區","LI":"十份里","LIN":"9鄰","STREET":" ","SECT":" ","MAREA":"十份","LANE":" ","ALLEY":" ","HOUSE_NO":"８８號","E_COORD97":157071.98999999999,"N_COORD97":2554553.7000000002,"ADDRESS":"十份８８號","OBJECTID":104785},"geometry":{"x":157071.99000000022,"y":2554553.7000000011}},{"attributes":{"ID":104786,"DIS_CODE":0,"TOWNNAME":"七股區","LI":"十份里","LIN":"9鄰","STREET":" ","SECT":" ","MAREA":"十份","LANE":" ","ALLEY":" ","HOUSE_NO":"８９號","E_COORD97":157048.76999999999,"N_COORD97":2554557.8799999999,"ADDRESS":"十份８９號","OBJECTID":104786},"geometry":{"x":157048.77000000048,"y":2554557.8800000027}},{"attributes":{"ID":104787,"DIS_CODE":0,"TOWNNAME":"七股區","LI":"十份里","LIN":"9鄰","STREET":" ","SECT":" ","MAREA":"十份","LANE":" ","ALLEY":" ","HOUSE_NO":"９０號","E_COORD97":157035.95000000001,"N_COORD97":2554599.98,"ADDRESS":"十份９０號","OBJECTID":104787},"geometry":{"x":157035.95000000112,"y":2554599.9800000023}},{"attributes":{"ID":104788,"DIS_CODE":0,"TOWNNAME":"七股區","LI":"十份里","LIN":"9鄰","STREET":" ","SECT":" ","MAREA":"十份","LANE":" ","ALLEY":" ","HOUSE_NO":"９１號之１","E_COORD97":157016.10000000001,"N_COORD97":2554596.1400000001,"ADDRESS":"十份９１號之１","OBJECTID":104788},"geometry":{"x":157016.10000000056,"y":2554596.1400000025}},{"attributes":{"ID":104789,"DIS_CODE":0,"TOWNNAME":"七股區","LI":"十份里","LIN":"9鄰","STREET":" ","SECT":" ","MAREA":"十份","LANE":" ","ALLEY":" ","HOUSE_NO":"９１號","E_COORD97":157007.20000000001,"N_COORD97":2554558.79,"ADDRESS":"十份９１號","OBJECTID":104789},"geometry":{"x":157007.20000000112,"y":2554558.7900000028}},{"attributes":{"ID":104790,"DIS_CODE":0,"TOWNNAME":"七股區","LI":"十份里","LIN":"9鄰","STREET":" ","SECT":" ","MAREA":"十份","LANE":" ","ALLEY":" ","HOUSE_NO":"９２號之１","E_COORD97":156999.75,"N_COORD97":2554610.8799999999,"ADDRESS":"十份９２號之１","OBJECTID":104790},"geometry":{"x":156999.75000000186,"y":2554610.879999999}},{"attributes":{"ID":104791,"DIS_CODE":0,"TOWNNAME":"七股區","LI":"十份里","LIN":"9鄰","STREET":" ","SECT":" ","MAREA":"十份","LANE":" ","ALLEY":" ","HOUSE_NO":"９２號","E_COORD97":156991.85000000001,"N_COORD97":2554560.0099999998,"ADDRESS":"十份９２號","OBJECTID":104791},"geometry":{"x":156991.85000000149,"y":2554560.0099999998}},{"attributes":{"ID":104792,"DIS_CODE":0,"TOWNNAME":"七股區","LI":"十份里","LIN":"9鄰","STREET":" ","SECT":" ","MAREA":"十份","LANE":" ","ALLEY":" ","HOUSE_NO":"９３號之１","E_COORD97":156963.07000000001,"N_COORD97":2554591.2599999998,"ADDRESS":"十份９３號之１","OBJECTID":104792},"geometry":{"x":156963.0700000003,"y":2554591.2600000016}},{"attributes":{"ID":104793,"DIS_CODE":0,"TOWNNAME":"七股區","LI":"十份里","LIN":"9鄰","STREET":" ","SECT":" ","MAREA":"十份","LANE":" ","ALLEY":" ","HOUSE_NO":"９３號","E_COORD97":156965.29000000001,"N_COORD97":2554571.04,"ADDRESS":"十份９３號","OBJECTID":104793},"geometry":{"x":156965.29000000004,"y":2554571.040000001}},{"attributes":{"ID":104794,"DIS_CODE":0,"TOWNNAME":"七股區","LI":"十份里","LIN":"9鄰","STREET":" ","SECT":" ","MAREA":"十份","LANE":" ","ALLEY":" ","HOUSE_NO":"９４號","E_COORD97":156932.92999999999,"N_COORD97":2554573.7400000002,"ADDRESS":"十份９４號","OBJECTID":104794},"geometry":{"x":156932.9299999997,"y":2554573.7400000039}},{"attributes":{"ID":104795,"DIS_CODE":0,"TOWNNAME":"七股區","LI":"三股里","LIN":"9鄰","STREET":" ","SECT":" ","MAREA":"三股","LANE":" ","ALLEY":" ","HOUSE_NO":"１３６號","E_COORD97":159073.03,"N_COORD97":2556274.2799999998,"ADDRESS":"三股１３６號","OBJECTID":104795},"geometry":{"x":159073.03000000212,"y":2556274.2799999975}},{"attributes":{"ID":104796,"DIS_CODE":0,"TOWNNAME":"七股區","LI":"三股里","LIN":"9鄰","STREET":" ","SECT":" ","MAREA":"三股","LANE":" ","ALLEY":" ","HOUSE_NO":"１３７號","E_COORD97":159061.53,"N_COORD97":2556405.3500000001,"ADDRESS":"三股１３７號","OBJECTID":104796},"geometry":{"x":159061.53000000119,"y":2556405.3499999996}},{"attributes":{"ID":104797,"DIS_CODE":0,"TOWNNAME":"七股區","LI":"大寮里","LIN":"9鄰","STREET":" ","SECT":" ","MAREA":"大寮","LANE":" ","ALLEY":" ","HOUSE_NO":"８８號之１","E_COORD97":163414.04999999999,"N_COORD97":2560826.6400000001,"ADDRESS":"大寮８８號之１","OBJECTID":104797},"geometry":{"x":163414.05000000075,"y":2560826.6400000043}},{"attributes":{"ID":104798,"DIS_CODE":0,"TOWNNAME":"七股區","LI":"大寮里","LIN":"9鄰","STREET":" ","SECT":" ","MAREA":"大寮","LANE":" ","ALLEY":" ","HOUSE_NO":"８８號","E_COORD97":163404.54999999999,"N_COORD97":2560813.2000000002,"ADDRESS":"大寮８８號","OBJECTID":104798},"geometry":{"x":163404.54999999981,"y":2560813.1999999993}},{"attributes":{"ID":104799,"DIS_CODE":0,"TOWNNAME":"七股區","LI":"大寮里","LIN":"9鄰","STREET":" ","SECT":" ","MAREA":"大寮","LANE":" ","ALLEY":" ","HOUSE_NO":"８９號","E_COORD97":163422.14000000001,"N_COORD97":2560787.5099999998,"ADDRESS":"大寮８９號","OBJECTID":104799},"geometry":{"x":163422.1400000006,"y":2560787.5100000016}},{"attributes":{"ID":104800,"DIS_CODE":0,"TOWNNAME":"七股區","LI":"大寮里","LIN":"9鄰","STREET":" ","SECT":" ","MAREA":"大寮","LANE":" ","ALLEY":" ","HOUSE_NO":"９１號","E_COORD97":163388.53,"N_COORD97":2560843.2599999998,"ADDRESS":"大寮９０號之１","OBJECTID":104800},"geometry":{"x":163388.53000000026,"y":2560843.2600000016}}]}