{"displayFieldName":"TOWNNAME","fieldAliases":{"ID":"ID","DIS_CODE":"DIS_CODE","TOWNNAME":"TOWNNAME","LI":"LI","LIN":"LIN","STREET":"STREET","SECT":"SECT","MAREA":"MAREA","LANE":"LANE","ALLEY":"ALLEY","HOUSE_NO":"HOUSE_NO","E_COORD97":"E_COORD97","N_COORD97":"N_COORD97","ADDRESS":"ADDRESS","OBJECTID":"OBJECTID"},"geometryType":"esriGeometryPoint","spatialReference":{"wkid":102443,"latestWkid":3826},"fields":[{"name":"ID","type":"esriFieldTypeDouble","alias":"ID"},{"name":"DIS_CODE","type":"esriFieldTypeInteger","alias":"DIS_CODE"},{"name":"TOWNNAME","type":"esriFieldTypeString","alias":"TOWNNAME","length":8},{"name":"LI","type":"esriFieldTypeString","alias":"LI","length":8},{"name":"LIN","type":"esriFieldTypeString","alias":"LIN","length":12},{"name":"STREET","type":"esriFieldTypeString","alias":"STREET","length":20},{"name":"SECT","type":"esriFieldTypeString","alias":"SECT","length":8},{"name":"MAREA","type":"esriFieldTypeString","alias":"MAREA","length":12},{"name":"LANE","type":"esriFieldTypeString","alias":"LANE","length":10},{"name":"ALLEY","type":"esriFieldTypeString","alias":"ALLEY","length":10},{"name":"HOUSE_NO","type":"esriFieldTypeString","alias":"HOUSE_NO","length":20},{"name":"E_COORD97","type":"esriFieldTypeDouble","alias":"E_COORD97"},{"name":"N_COORD97","type":"esriFieldTypeDouble","alias":"N_COORD97"},{"name":"ADDRESS","type":"esriFieldTypeString","alias":"ADDRESS","length":50},{"name":"OBJECTID","type":"esriFieldTypeOID","alias":"OBJECTID"}],"features":[{"attributes":{"ID":371611,"DIS_CODE":0,"TOWNNAME":"東區","LI":"富裕里","LIN":"12鄰","STREET":"裕豐街","SECT":" ","MAREA":" ","LANE":"８４巷","ALLEY":" ","HOUSE_NO":"２號","E_COORD97":170741.45999999999,"N_COORD97":2542830.8100000001,"ADDRESS":"裕豐街８４巷２號","OBJECTID":371601},"geometry":{"x":170741.46000000089,"y":2542830.8100000024}},{"attributes":{"ID":371612,"DIS_CODE":0,"TOWNNAME":"東區","LI":"富裕里","LIN":"12鄰","STREET":"裕豐街","SECT":" ","MAREA":" ","LANE":"８４巷","ALLEY":" ","HOUSE_NO":"３號","E_COORD97":170755.85000000001,"N_COORD97":2542843.23,"ADDRESS":"裕豐街８４巷３號","OBJECTID":371602},"geometry":{"x":170755.85000000056,"y":2542843.2300000042}},{"attributes":{"ID":371613,"DIS_CODE":0,"TOWNNAME":"東區","LI":"富裕里","LIN":"12鄰","STREET":"裕豐街","SECT":" ","MAREA":" ","LANE":"８４巷","ALLEY":" ","HOUSE_NO":"５號","E_COORD97":170759.64999999999,"N_COORD97":2542843.4700000002,"ADDRESS":"裕豐街８４巷５號","OBJECTID":371603},"geometry":{"x":170759.6500000013,"y":2542843.4700000025}},{"attributes":{"ID":371614,"DIS_CODE":0,"TOWNNAME":"東區","LI":"富裕里","LIN":"12鄰","STREET":"裕豐街","SECT":" ","MAREA":" ","LANE":"８４巷","ALLEY":" ","HOUSE_NO":"７號","E_COORD97":170763.60999999999,"N_COORD97":2542843.7400000002,"ADDRESS":"裕豐街８４巷７號","OBJECTID":371604},"geometry":{"x":170763.61000000034,"y":2542843.7400000021}},{"attributes":{"ID":371615,"DIS_CODE":0,"TOWNNAME":"東區","LI":"富裕里","LIN":"12鄰","STREET":"裕豐街","SECT":" ","MAREA":" ","LANE":"８４巷","ALLEY":" ","HOUSE_NO":"９號","E_COORD97":170767.38,"N_COORD97":2542843.7400000002,"ADDRESS":"裕豐街８４巷９號","OBJECTID":371605},"geometry":{"x":170767.38000000082,"y":2542843.7400000021}},{"attributes":{"ID":371616,"DIS_CODE":0,"TOWNNAME":"東區","LI":"富裕里","LIN":"12鄰","STREET":"裕豐街","SECT":" ","MAREA":" ","LANE":"８４巷","ALLEY":" ","HOUSE_NO":"１５號","E_COORD97":170778.45000000001,"N_COORD97":2542844.4300000002,"ADDRESS":"裕豐街８４巷１５號","OBJECTID":371606},"geometry":{"x":170778.45000000019,"y":2542844.4300000034}},{"attributes":{"ID":371617,"DIS_CODE":0,"TOWNNAME":"東區","LI":"富裕里","LIN":"12鄰","STREET":"裕豐街","SECT":" ","MAREA":" ","LANE":"８４巷","ALLEY":" ","HOUSE_NO":"１１號","E_COORD97":170771.07999999999,"N_COORD97":2542843.79,"ADDRESS":"裕豐街８４巷１１號","OBJECTID":371607},"geometry":{"x":170771.08000000101,"y":2542843.7899999991}},{"attributes":{"ID":371618,"DIS_CODE":0,"TOWNNAME":"東區","LI":"富裕里","LIN":"12鄰","STREET":"裕豐街","SECT":" ","MAREA":" ","LANE":"７６巷","ALLEY":" ","HOUSE_NO":"１４號","E_COORD97":170764.39999999999,"N_COORD97":2542810.9500000002,"ADDRESS":"裕豐街７６巷１４號","OBJECTID":371608},"geometry":{"x":170764.4000000013,"y":2542810.9500000011}},{"attributes":{"ID":371619,"DIS_CODE":0,"TOWNNAME":"南區","LI":"新生里","LIN":"5鄰","STREET":"大同路","SECT":"二段","MAREA":" ","LANE":" ","ALLEY":" ","HOUSE_NO":"１８４號","E_COORD97":169354.04999999999,"N_COORD97":2541956.46,"ADDRESS":"大同路二段１８４號","OBJECTID":371609},"geometry":{"x":169354.05000000075,"y":2541956.4600000009}},{"attributes":{"ID":371620,"DIS_CODE":0,"TOWNNAME":"東區","LI":"大學里","LIN":"12鄰","STREET":"長榮路","SECT":"三段","MAREA":" ","LANE":"６６巷","ALLEY":" ","HOUSE_NO":"６８號之２","E_COORD97":170378.73999999999,"N_COORD97":2543756.9399999999,"ADDRESS":"長榮路三段６６巷６８號之２","OBJECTID":371610},"geometry":{"x":170378.74000000115,"y":2543756.9400000013}},{"attributes":{"ID":371621,"DIS_CODE":0,"TOWNNAME":"東區","LI":"大學里","LIN":"12鄰","STREET":"長榮路","SECT":"三段","MAREA":" ","LANE":"６６巷","ALLEY":" ","HOUSE_NO":"６８號之４","E_COORD97":170386.26000000001,"N_COORD97":2543768.79,"ADDRESS":"長榮路三段６６巷６８號之４","OBJECTID":371611},"geometry":{"x":170386.26000000164,"y":2543768.7899999991}},{"attributes":{"ID":371622,"DIS_CODE":0,"TOWNNAME":"東區","LI":"大學里","LIN":"12鄰","STREET":"長榮路","SECT":"三段","MAREA":" ","LANE":"６６巷","ALLEY":" ","HOUSE_NO":"６８號之３","E_COORD97":170386.26000000001,"N_COORD97":2543763.3999999999,"ADDRESS":"長榮路三段６６巷６８號之３","OBJECTID":371612},"geometry":{"x":170386.26000000164,"y":2543763.4000000004}},{"attributes":{"ID":371623,"DIS_CODE":0,"TOWNNAME":"東區","LI":"大學里","LIN":"12鄰","STREET":"長榮路","SECT":"三段","MAREA":" ","LANE":"６６巷","ALLEY":" ","HOUSE_NO":"６８號之１","E_COORD97":170373.37,"N_COORD97":2543761.6000000001,"ADDRESS":"長榮路三段６６巷６８號之１","OBJECTID":371613},"geometry":{"x":170373.37000000011,"y":2543761.5999999996}},{"attributes":{"ID":371624,"DIS_CODE":0,"TOWNNAME":"東區","LI":"裕農里","LIN":"12鄰","STREET":"東寧路","SECT":" ","MAREA":" ","LANE":"５１０巷","ALLEY":" ","HOUSE_NO":"１５號","E_COORD97":171076.23000000001,"N_COORD97":2543255.77,"ADDRESS":"東寧路５１０巷１５號","OBJECTID":371614},"geometry":{"x":171076.23000000138,"y":2543255.7700000033}},{"attributes":{"ID":371625,"DIS_CODE":0,"TOWNNAME":"東區","LI":"新東里","LIN":"12鄰","STREET":"裕農路","SECT":" ","MAREA":" ","LANE":"１９巷","ALLEY":" ","HOUSE_NO":"１０號","E_COORD97":170496.45000000001,"N_COORD97":2542872.3599999999,"ADDRESS":"裕農路１９巷１０號","OBJECTID":371615},"geometry":{"x":170496.45000000019,"y":2542872.3600000013}},{"attributes":{"ID":371626,"DIS_CODE":0,"TOWNNAME":"東區","LI":"新東里","LIN":"12鄰","STREET":"裕農路","SECT":" ","MAREA":" ","LANE":"１９巷","ALLEY":" ","HOUSE_NO":"１１號","E_COORD97":170474.38,"N_COORD97":2542872.3799999999,"ADDRESS":"裕農路１９巷１１號","OBJECTID":371616},"geometry":{"x":170474.38000000082,"y":2542872.3800000008}},{"attributes":{"ID":371627,"DIS_CODE":0,"TOWNNAME":"東區","LI":"新東里","LIN":"12鄰","STREET":"裕農路","SECT":" ","MAREA":" ","LANE":"１９巷","ALLEY":" ","HOUSE_NO":"１５號","E_COORD97":170474.07999999999,"N_COORD97":2542883.8500000001,"ADDRESS":"裕農路１９巷１５號","OBJECTID":371617},"geometry":{"x":170474.08000000007,"y":2542883.8500000015}},{"attributes":{"ID":371628,"DIS_CODE":0,"TOWNNAME":"東區","LI":"新東里","LIN":"12鄰","STREET":"裕農路","SECT":" ","MAREA":" ","LANE":"１９巷","ALLEY":" ","HOUSE_NO":"１６號","E_COORD97":170490.84,"N_COORD97":2542887.3900000001,"ADDRESS":"裕農路１９巷１６號","OBJECTID":371618},"geometry":{"x":170490.84000000171,"y":2542887.3900000025}},{"attributes":{"ID":371629,"DIS_CODE":0,"TOWNNAME":"東區","LI":"新東里","LIN":"12鄰","STREET":"裕農路","SECT":" ","MAREA":" ","LANE":"１９巷","ALLEY":" ","HOUSE_NO":"１８號","E_COORD97":170492.31,"N_COORD97":2542892.6099999999,"ADDRESS":"裕農路１９巷１８號","OBJECTID":371619},"geometry":{"x":170492.30999999959,"y":2542892.6099999994}},{"attributes":{"ID":371630,"DIS_CODE":0,"TOWNNAME":"東區","LI":"新東里","LIN":"12鄰","STREET":"裕農路","SECT":" ","MAREA":" ","LANE":"１９巷","ALLEY":" ","HOUSE_NO":"２０號","E_COORD97":170492.63,"N_COORD97":2542896.04,"ADDRESS":"裕農路１９巷２０號","OBJECTID":371620},"geometry":{"x":170492.63000000082,"y":2542896.0399999991}},{"attributes":{"ID":371631,"DIS_CODE":0,"TOWNNAME":"東區","LI":"新東里","LIN":"12鄰","STREET":"裕農路","SECT":" ","MAREA":" ","LANE":"１９巷","ALLEY":" ","HOUSE_NO":"２２號","E_COORD97":170492.63,"N_COORD97":2542899.6299999999,"ADDRESS":"裕農路１９巷２２號","OBJECTID":371621},"geometry":{"x":170492.63000000082,"y":2542899.629999999}},{"attributes":{"ID":371632,"DIS_CODE":0,"TOWNNAME":"東區","LI":"新東里","LIN":"12鄰","STREET":"裕農路","SECT":" ","MAREA":" ","LANE":"１９巷","ALLEY":" ","HOUSE_NO":"２４號","E_COORD97":170493.12,"N_COORD97":2542903.2200000002,"ADDRESS":"裕農路１９巷２４號","OBJECTID":371622},"geometry":{"x":170493.12000000104,"y":2542903.2200000007}},{"attributes":{"ID":371633,"DIS_CODE":0,"TOWNNAME":"東區","LI":"新東里","LIN":"12鄰","STREET":"裕農路","SECT":" ","MAREA":" ","LANE":"１９巷","ALLEY":" ","HOUSE_NO":"２６號","E_COORD97":170492.31,"N_COORD97":2542906.9700000002,"ADDRESS":"裕農路１９巷２６號","OBJECTID":371623},"geometry":{"x":170492.30999999959,"y":2542906.9700000025}},{"attributes":{"ID":371634,"DIS_CODE":0,"TOWNNAME":"東區","LI":"新東里","LIN":"12鄰","STREET":"裕農路","SECT":" ","MAREA":" ","LANE":"１９巷","ALLEY":" ","HOUSE_NO":"２８號","E_COORD97":170491.82000000001,"N_COORD97":2542910.3999999999,"ADDRESS":"裕農路１９巷２８號","OBJECTID":371624},"geometry":{"x":170491.82000000123,"y":2542910.4000000022}},{"attributes":{"ID":371635,"DIS_CODE":0,"TOWNNAME":"東區","LI":"新東里","LIN":"12鄰","STREET":"裕農路","SECT":" ","MAREA":" ","LANE":"１９巷","ALLEY":" ","HOUSE_NO":"２號","E_COORD97":170499.35000000001,"N_COORD97":2542857.5,"ADDRESS":"裕農路１９巷２號","OBJECTID":371625},"geometry":{"x":170499.35000000056,"y":2542857.5}},{"attributes":{"ID":371636,"DIS_CODE":0,"TOWNNAME":"東區","LI":"新東里","LIN":"12鄰","STREET":"裕農路","SECT":" ","MAREA":" ","LANE":"１９巷","ALLEY":" ","HOUSE_NO":"６號","E_COORD97":170498,"N_COORD97":2542864.6400000001,"ADDRESS":"裕農路１９巷６號","OBJECTID":371626},"geometry":{"x":170498,"y":2542864.6400000043}},{"attributes":{"ID":371637,"DIS_CODE":0,"TOWNNAME":"東區","LI":"新東里","LIN":"12鄰","STREET":"裕農路","SECT":" ","MAREA":" ","LANE":"１９巷","ALLEY":" ","HOUSE_NO":"８號","E_COORD97":170497.42000000001,"N_COORD97":2542868.5,"ADDRESS":"裕農路１９巷８號","OBJECTID":371627},"geometry":{"x":170497.42000000086,"y":2542868.5000000019}},{"attributes":{"ID":371638,"DIS_CODE":0,"TOWNNAME":"東區","LI":"新東里","LIN":"12鄰","STREET":"裕農路","SECT":" ","MAREA":" ","LANE":"１９巷","ALLEY":" ","HOUSE_NO":"９號","E_COORD97":170474.97,"N_COORD97":2542868.2000000002,"ADDRESS":"裕農路１９巷９號","OBJECTID":371628},"geometry":{"x":170474.97000000067,"y":2542868.1999999993}},{"attributes":{"ID":371639,"DIS_CODE":0,"TOWNNAME":"東區","LI":"大智里","LIN":"12鄰","STREET":"德東街","SECT":" ","MAREA":" ","LANE":"１３６巷","ALLEY":" ","HOUSE_NO":"１９號","E_COORD97":171224.25,"N_COORD97":2540195.6800000002,"ADDRESS":"德東街１３６巷１９號","OBJECTID":371629},"geometry":{"x":171224.25000000093,"y":2540195.6800000016}},{"attributes":{"ID":371640,"DIS_CODE":0,"TOWNNAME":"東區","LI":"大智里","LIN":"12鄰","STREET":"德東街","SECT":" ","MAREA":" ","LANE":"１３６巷","ALLEY":" ","HOUSE_NO":"２１號","E_COORD97":171224.37,"N_COORD97":2540192.1099999999,"ADDRESS":"德東街１３６巷２１號","OBJECTID":371630},"geometry":{"x":171224.37000000011,"y":2540192.1100000013}},{"attributes":{"ID":371641,"DIS_CODE":0,"TOWNNAME":"東區","LI":"大智里","LIN":"12鄰","STREET":"德東街","SECT":" ","MAREA":" ","LANE":"１３６巷","ALLEY":" ","HOUSE_NO":"２３號","E_COORD97":171224.54999999999,"N_COORD97":2540187.1299999999,"ADDRESS":"德東街１３６巷２３號","OBJECTID":371631},"geometry":{"x":171224.54999999981,"y":2540187.129999999}},{"attributes":{"ID":371642,"DIS_CODE":0,"TOWNNAME":"東區","LI":"大智里","LIN":"12鄰","STREET":"德東街","SECT":" ","MAREA":" ","LANE":"１３６巷","ALLEY":" ","HOUSE_NO":"２５號","E_COORD97":171224.73000000001,"N_COORD97":2540182.8900000001,"ADDRESS":"德東街１３６巷２５號","OBJECTID":371632},"geometry":{"x":171224.73000000138,"y":2540182.8900000006}},{"attributes":{"ID":371643,"DIS_CODE":0,"TOWNNAME":"東區","LI":"大智里","LIN":"12鄰","STREET":"德東街","SECT":" ","MAREA":" ","LANE":"１３６巷","ALLEY":" ","HOUSE_NO":"２７號","E_COORD97":171224.92000000001,"N_COORD97":2540178.6499999999,"ADDRESS":"德東街１３６巷２７號","OBJECTID":371633},"geometry":{"x":171224.92000000086,"y":2540178.6500000004}},{"attributes":{"ID":371644,"DIS_CODE":0,"TOWNNAME":"東區","LI":"大智里","LIN":"12鄰","STREET":"德東街","SECT":" ","MAREA":" ","LANE":"１３６巷","ALLEY":" ","HOUSE_NO":"２９號","E_COORD97":171223.48999999999,"N_COORD97":2540173.5299999998,"ADDRESS":"德東街１３６巷２９號","OBJECTID":371634},"geometry":{"x":171223.49000000022,"y":2540173.5300000012}},{"attributes":{"ID":371645,"DIS_CODE":0,"TOWNNAME":"東區","LI":"大智里","LIN":"12鄰","STREET":"德東街","SECT":" ","MAREA":" ","LANE":"１３６巷","ALLEY":" ","HOUSE_NO":"１８號","E_COORD97":171187.35999999999,"N_COORD97":2540198.6899999999,"ADDRESS":"德東街１３６巷１８號","OBJECTID":371635},"geometry":{"x":171187.36000000034,"y":2540198.6900000013}},{"attributes":{"ID":371646,"DIS_CODE":0,"TOWNNAME":"東區","LI":"大智里","LIN":"12鄰","STREET":"德東街","SECT":" ","MAREA":" ","LANE":"１３６巷","ALLEY":" ","HOUSE_NO":"２０號","E_COORD97":171187.48999999999,"N_COORD97":2540195.27,"ADDRESS":"德東街１３６巷２０號","OBJECTID":371636},"geometry":{"x":171187.49000000115,"y":2540195.2700000014}},{"attributes":{"ID":371647,"DIS_CODE":0,"TOWNNAME":"東區","LI":"大智里","LIN":"12鄰","STREET":"德東街","SECT":" ","MAREA":" ","LANE":"１３６巷","ALLEY":" ","HOUSE_NO":"２２號","E_COORD97":171187.89000000001,"N_COORD97":2540190.04,"ADDRESS":"德東街１３６巷２２號","OBJECTID":371637},"geometry":{"x":171187.8900000006,"y":2540190.040000001}},{"attributes":{"ID":371648,"DIS_CODE":0,"TOWNNAME":"永康區","LI":"西灣里","LIN":"12鄰","STREET":"永大路","SECT":"二段","MAREA":" ","LANE":"５５６巷","ALLEY":" ","HOUSE_NO":"１２號","E_COORD97":174438.07999999999,"N_COORD97":2545421.3100000001,"ADDRESS":"永大路二段５５６巷１２號","OBJECTID":371638},"geometry":{"x":174438.08000000101,"y":2545421.3100000005}},{"attributes":{"ID":371649,"DIS_CODE":0,"TOWNNAME":"永康區","LI":"尚頂里","LIN":"12鄰","STREET":"正南一街","SECT":" ","MAREA":" ","LANE":"９２巷","ALLEY":" ","HOUSE_NO":"２１號","E_COORD97":171034.07000000001,"N_COORD97":2547350.9300000002,"ADDRESS":"正南一街９２巷２１號","OBJECTID":371639},"geometry":{"x":171034.07000000216,"y":2547350.9300000016}},{"attributes":{"ID":371650,"DIS_CODE":0,"TOWNNAME":"永康區","LI":"尚頂里","LIN":"12鄰","STREET":"尚頂路","SECT":" ","MAREA":" ","LANE":"５２巷","ALLEY":" ","HOUSE_NO":"１２號","E_COORD97":171252.67999999999,"N_COORD97":2547524.3599999999,"ADDRESS":"尚頂路５２巷１２號","OBJECTID":371640},"geometry":{"x":171252.6799999997,"y":2547524.3600000013}},{"attributes":{"ID":371651,"DIS_CODE":0,"TOWNNAME":"永康區","LI":"西灣里","LIN":"12鄰","STREET":"永大路","SECT":"二段","MAREA":" ","LANE":"５５６巷","ALLEY":" ","HOUSE_NO":"４０號","E_COORD97":174498.29999999999,"N_COORD97":2545392.5299999998,"ADDRESS":"永大路二段５５６巷４０號","OBJECTID":371641},"geometry":{"x":174498.29999999981,"y":2545392.5299999993}},{"attributes":{"ID":371652,"DIS_CODE":0,"TOWNNAME":"永康區","LI":"尚頂里","LIN":"12鄰","STREET":"尚頂路","SECT":" ","MAREA":" ","LANE":"５２巷","ALLEY":" ","HOUSE_NO":"１號","E_COORD97":171209.56,"N_COORD97":2547524.7599999998,"ADDRESS":"尚頂路５２巷１號","OBJECTID":371642},"geometry":{"x":171209.56000000145,"y":2547524.7600000035}},{"attributes":{"ID":371653,"DIS_CODE":0,"TOWNNAME":"永康區","LI":"\u25A0洲里","LIN":"12鄰","STREET":"\u25A0洲一街","SECT":" ","MAREA":" ","LANE":"１１巷","ALLEY":" ","HOUSE_NO":"４６號","E_COORD97":171569.01999999999,"N_COORD97":2549102,"ADDRESS":"\u25A0洲一街１１巷４６號","OBJECTID":371643},"geometry":{"x":171569.01999999955,"y":2549102}},{"attributes":{"ID":371654,"DIS_CODE":0,"TOWNNAME":"永康區","LI":"\u25A0洲里","LIN":"12鄰","STREET":"\u25A0洲一街","SECT":" ","MAREA":" ","LANE":"１１巷","ALLEY":" ","HOUSE_NO":"４８號","E_COORD97":171572.17999999999,"N_COORD97":2549105,"ADDRESS":"\u25A0洲一街１１巷４８號","OBJECTID":371644},"geometry":{"x":171572.18000000063,"y":2549105}},{"attributes":{"ID":371655,"DIS_CODE":0,"TOWNNAME":"永康區","LI":"中華里","LIN":"12鄰","STREET":"忠義街","SECT":" ","MAREA":" ","LANE":"４４巷","ALLEY":" ","HOUSE_NO":"４２號","E_COORD97":171846.79999999999,"N_COORD97":2544463.0499999998,"ADDRESS":"忠義街４４巷４２號","OBJECTID":371645},"geometry":{"x":171846.79999999981,"y":2544463.0500000026}},{"attributes":{"ID":371656,"DIS_CODE":0,"TOWNNAME":"永康區","LI":"\u25A0洲里","LIN":"12鄰","STREET":"\u25A0洲一街","SECT":" ","MAREA":" ","LANE":"１１巷","ALLEY":" ","HOUSE_NO":"５２號","E_COORD97":171579.97,"N_COORD97":2549112.75,"ADDRESS":"\u25A0洲一街１１巷５２號","OBJECTID":371646},"geometry":{"x":171579.9700000016,"y":2549112.7500000019}},{"attributes":{"ID":371657,"DIS_CODE":0,"TOWNNAME":"永康區","LI":"\u25A0洲里","LIN":"12鄰","STREET":"\u25A0洲一街","SECT":" ","MAREA":" ","LANE":"１１巷","ALLEY":" ","HOUSE_NO":"５０號","E_COORD97":171574.97,"N_COORD97":2549108,"ADDRESS":"\u25A0洲一街１１巷５０號","OBJECTID":371647},"geometry":{"x":171574.97000000067,"y":2549108.0000000019}},{"attributes":{"ID":371658,"DIS_CODE":0,"TOWNNAME":"安南區","LI":"幸福里","LIN":"12鄰","STREET":"府安路","SECT":"六段","MAREA":" ","LANE":"８６巷","ALLEY":" ","HOUSE_NO":"１５號","E_COORD97":166781.37,"N_COORD97":2546579.9500000002,"ADDRESS":"府安路六段８６巷１５號","OBJECTID":371648},"geometry":{"x":166781.37000000011,"y":2546579.9499999974}},{"attributes":{"ID":371659,"DIS_CODE":0,"TOWNNAME":"永康區","LI":"網寮里","LIN":"12鄰","STREET":"永二街","SECT":" ","MAREA":" ","LANE":"２４４巷","ALLEY":" ","HOUSE_NO":"２９號","E_COORD97":173268.28,"N_COORD97":2546525.9700000002,"ADDRESS":"永二街２４４巷２９號","OBJECTID":371649},"geometry":{"x":173268.28000000026,"y":2546525.9700000007}},{"attributes":{"ID":371660,"DIS_CODE":0,"TOWNNAME":"永康區","LI":"網寮里","LIN":"12鄰","STREET":"永二街","SECT":" ","MAREA":" ","LANE":"２４４巷","ALLEY":" ","HOUSE_NO":"５１號","E_COORD97":173264.38,"N_COORD97":2546582.21,"ADDRESS":"永二街２４４巷５１號","OBJECTID":371650},"geometry":{"x":173264.38000000082,"y":2546582.2100000009}},{"attributes":{"ID":371661,"DIS_CODE":0,"TOWNNAME":"永康區","LI":"網寮里","LIN":"12鄰","STREET":"永二街","SECT":" ","MAREA":" ","LANE":"２４４巷","ALLEY":" ","HOUSE_NO":"２４號","E_COORD97":173284.82999999999,"N_COORD97":2546498.8100000001,"ADDRESS":"永二街２４４巷２４號","OBJECTID":371651},"geometry":{"x":173284.83000000194,"y":2546498.8100000024}},{"attributes":{"ID":371662,"DIS_CODE":0,"TOWNNAME":"永康區","LI":"網寮里","LIN":"12鄰","STREET":"永二街","SECT":" ","MAREA":" ","LANE":"２４４巷","ALLEY":" ","HOUSE_NO":"４１號","E_COORD97":173266.13,"N_COORD97":2546556.4700000002,"ADDRESS":"永二街２４４巷４１號","OBJECTID":371652},"geometry":{"x":173266.13000000082,"y":2546556.4700000007}},{"attributes":{"ID":371663,"DIS_CODE":0,"TOWNNAME":"永康區","LI":"網寮里","LIN":"12鄰","STREET":"永二街","SECT":" ","MAREA":" ","LANE":"２４４巷","ALLEY":" ","HOUSE_NO":"７號","E_COORD97":173271.67000000001,"N_COORD97":2546469.46,"ADDRESS":"永二街２４４巷７號","OBJECTID":371653},"geometry":{"x":173271.66999999993,"y":2546469.4600000009}},{"attributes":{"ID":371664,"DIS_CODE":0,"TOWNNAME":"永康區","LI":"網寮里","LIN":"12鄰","STREET":"永二街","SECT":" ","MAREA":" ","LANE":"２４４巷","ALLEY":" ","HOUSE_NO":"４７號","E_COORD97":173265.19,"N_COORD97":2546571.96,"ADDRESS":"永二街２４４巷４７號","OBJECTID":371654},"geometry":{"x":173265.19000000041,"y":2546571.9600000028}},{"attributes":{"ID":371665,"DIS_CODE":0,"TOWNNAME":"永康區","LI":"網寮里","LIN":"12鄰","STREET":"永二街","SECT":" ","MAREA":" ","LANE":"２４４巷","ALLEY":" ","HOUSE_NO":"９號","E_COORD97":173271.29000000001,"N_COORD97":2546474.46,"ADDRESS":"永二街２４４巷９號","OBJECTID":371655},"geometry":{"x":173271.29000000004,"y":2546474.4600000028}},{"attributes":{"ID":371666,"DIS_CODE":0,"TOWNNAME":"永康區","LI":"網寮里","LIN":"12鄰","STREET":"永二街","SECT":" ","MAREA":" ","LANE":"２４４巷","ALLEY":" ","HOUSE_NO":"３９號","E_COORD97":173266.53,"N_COORD97":2546551.4700000002,"ADDRESS":"永二街２４４巷３９號","OBJECTID":371656},"geometry":{"x":173266.53000000026,"y":2546551.4700000025}},{"attributes":{"ID":371667,"DIS_CODE":0,"TOWNNAME":"永康區","LI":"網寮里","LIN":"12鄰","STREET":"永二街","SECT":" ","MAREA":" ","LANE":"２４４巷","ALLEY":" ","HOUSE_NO":"５號","E_COORD97":173272.13,"N_COORD97":2546464.46,"ADDRESS":"永二街２４４巷５號","OBJECTID":371657},"geometry":{"x":173272.12999999989,"y":2546464.4600000028}},{"attributes":{"ID":371668,"DIS_CODE":0,"TOWNNAME":"永康區","LI":"網寮里","LIN":"12鄰","STREET":"永勝街","SECT":" ","MAREA":" ","LANE":"１６９巷","ALLEY":" ","HOUSE_NO":"１３號","E_COORD97":173287.01000000001,"N_COORD97":2546518.0099999998,"ADDRESS":"永勝街１６９巷１３號","OBJECTID":371658},"geometry":{"x":173287.01000000071,"y":2546518.0099999998}},{"attributes":{"ID":371669,"DIS_CODE":0,"TOWNNAME":"永康區","LI":"網寮里","LIN":"12鄰","STREET":"永二街","SECT":" ","MAREA":" ","LANE":"２４４巷","ALLEY":" ","HOUSE_NO":"１３號","E_COORD97":173271.64999999999,"N_COORD97":2546485.21,"ADDRESS":"永二街２４４巷１３號","OBJECTID":371659},"geometry":{"x":173271.6500000013,"y":2546485.2100000046}},{"attributes":{"ID":371670,"DIS_CODE":0,"TOWNNAME":"永康區","LI":"網寮里","LIN":"12鄰","STREET":"永二街","SECT":" ","MAREA":" ","LANE":"２４４巷","ALLEY":" ","HOUSE_NO":"２１號","E_COORD97":173269.62,"N_COORD97":2546505.46,"ADDRESS":"永二街２４４巷２１號","OBJECTID":371660},"geometry":{"x":173269.62000000104,"y":2546505.4600000028}},{"attributes":{"ID":371671,"DIS_CODE":0,"TOWNNAME":"永康區","LI":"網寮里","LIN":"12鄰","STREET":"永二街","SECT":" ","MAREA":" ","LANE":"２４４巷","ALLEY":" ","HOUSE_NO":"１９號","E_COORD97":173270.04000000001,"N_COORD97":2546500.21,"ADDRESS":"永二街２４４巷１９號","OBJECTID":371661},"geometry":{"x":173270.04000000097,"y":2546500.2100000028}},{"attributes":{"ID":371672,"DIS_CODE":0,"TOWNNAME":"永康區","LI":"網寮里","LIN":"12鄰","STREET":"永勝街","SECT":" ","MAREA":" ","LANE":"１６３巷","ALLEY":" ","HOUSE_NO":"２號","E_COORD97":173310.04000000001,"N_COORD97":2546489.3199999998,"ADDRESS":"永勝街１６３巷２號","OBJECTID":371662},"geometry":{"x":173310.04000000004,"y":2546489.3200000003}},{"attributes":{"ID":371673,"DIS_CODE":0,"TOWNNAME":"永康區","LI":"網寮里","LIN":"12鄰","STREET":"永勝街","SECT":" ","MAREA":" ","LANE":"１６９巷","ALLEY":" ","HOUSE_NO":"１１號","E_COORD97":173292.53,"N_COORD97":2546516.5099999998,"ADDRESS":"永勝街１６９巷１１號","OBJECTID":371663},"geometry":{"x":173292.53000000119,"y":2546516.5100000016}},{"attributes":{"ID":371674,"DIS_CODE":0,"TOWNNAME":"永康區","LI":"網寮里","LIN":"12鄰","STREET":"永勝街","SECT":" ","MAREA":" ","LANE":"１６３巷","ALLEY":" ","HOUSE_NO":"１０號","E_COORD97":173296.14999999999,"N_COORD97":2546494.5699999998,"ADDRESS":"永勝街１６３巷１０號","OBJECTID":371664},"geometry":{"x":173296.15000000037,"y":2546494.5700000003}},{"attributes":{"ID":371675,"DIS_CODE":0,"TOWNNAME":"麻豆區","LI":"\u25A0江里","LIN":"12鄰","STREET":"建南街","SECT":" ","MAREA":" ","LANE":"１８７巷","ALLEY":" ","HOUSE_NO":"１０號","E_COORD97":173566.23000000001,"N_COORD97":2564349.2000000002,"ADDRESS":"建南街１８７巷１０號","OBJECTID":371665},"geometry":{"x":173566.23000000138,"y":2564349.1999999993}},{"attributes":{"ID":371676,"DIS_CODE":0,"TOWNNAME":"麻豆區","LI":"\u25A0江里","LIN":"12鄰","STREET":"建南街","SECT":" ","MAREA":" ","LANE":"１８７巷","ALLEY":" ","HOUSE_NO":"１號","E_COORD97":173530.06,"N_COORD97":2564324.5800000001,"ADDRESS":"建南街１８７巷１號","OBJECTID":371666},"geometry":{"x":173530.05999999959,"y":2564324.5800000001}},{"attributes":{"ID":371677,"DIS_CODE":0,"TOWNNAME":"麻豆區","LI":"\u25A0江里","LIN":"12鄰","STREET":"建南街","SECT":" ","MAREA":" ","LANE":"１８７巷","ALLEY":" ","HOUSE_NO":"２號","E_COORD97":173534.17999999999,"N_COORD97":2564325.6000000001,"ADDRESS":"建南街１８７巷２號","OBJECTID":371667},"geometry":{"x":173534.1799999997,"y":2564325.6000000015}},{"attributes":{"ID":371678,"DIS_CODE":0,"TOWNNAME":"麻豆區","LI":"\u25A0江里","LIN":"12鄰","STREET":"建南街","SECT":" ","MAREA":" ","LANE":"１８７巷","ALLEY":" ","HOUSE_NO":"３號","E_COORD97":173538.13,"N_COORD97":2564326.2599999998,"ADDRESS":"建南街１８７巷３號","OBJECTID":371668},"geometry":{"x":173538.12999999989,"y":2564326.2599999998}},{"attributes":{"ID":371679,"DIS_CODE":0,"TOWNNAME":"麻豆區","LI":"\u25A0江里","LIN":"12鄰","STREET":"建南街","SECT":" ","MAREA":" ","LANE":"１８７巷","ALLEY":" ","HOUSE_NO":"５號","E_COORD97":173542.28,"N_COORD97":2564327.1899999999,"ADDRESS":"建南街１８７巷５號","OBJECTID":371669},"geometry":{"x":173542.28000000026,"y":2564327.1899999976}},{"attributes":{"ID":371680,"DIS_CODE":0,"TOWNNAME":"麻豆區","LI":"\u25A0江里","LIN":"12鄰","STREET":"建南街","SECT":" ","MAREA":" ","LANE":"１８７巷","ALLEY":" ","HOUSE_NO":"６號","E_COORD97":173546.25,"N_COORD97":2564328.25,"ADDRESS":"建南街１８７巷６號","OBJECTID":371670},"geometry":{"x":173546.24999999907,"y":2564328.2500000019}},{"attributes":{"ID":371681,"DIS_CODE":0,"TOWNNAME":"麻豆區","LI":"\u25A0江里","LIN":"12鄰","STREET":"建南街","SECT":" ","MAREA":" ","LANE":"１８７巷","ALLEY":" ","HOUSE_NO":"７號","E_COORD97":173550.54999999999,"N_COORD97":2564329.5699999998,"ADDRESS":"建南街１８７巷７號","OBJECTID":371671},"geometry":{"x":173550.54999999981,"y":2564329.5700000022}},{"attributes":{"ID":371682,"DIS_CODE":0,"TOWNNAME":"麻豆區","LI":"\u25A0江里","LIN":"12鄰","STREET":"建南街","SECT":" ","MAREA":" ","LANE":"１８７巷","ALLEY":" ","HOUSE_NO":"８號","E_COORD97":173556.12,"N_COORD97":2564330.8100000001,"ADDRESS":"建南街１８７巷８號","OBJECTID":371672},"geometry":{"x":173556.12000000104,"y":2564330.8099999987}},{"attributes":{"ID":371683,"DIS_CODE":0,"TOWNNAME":"麻豆區","LI":"\u25A0江里","LIN":"12鄰","STREET":"建南街","SECT":" ","MAREA":" ","LANE":"１８７巷","ALLEY":" ","HOUSE_NO":"９號","E_COORD97":173561.60000000001,"N_COORD97":2564332.0800000001,"ADDRESS":"建南街１８７巷９號","OBJECTID":371673},"geometry":{"x":173561.59999999963,"y":2564332.0800000038}},{"attributes":{"ID":371684,"DIS_CODE":0,"TOWNNAME":"仁德區","LI":"大甲里","LIN":"12鄰","STREET":"行大街","SECT":" ","MAREA":" ","LANE":"３４１巷","ALLEY":" ","HOUSE_NO":"２０號","E_COORD97":169602.73000000001,"N_COORD97":2535133.5,"ADDRESS":"行大街３４１巷２０號","OBJECTID":371674},"geometry":{"x":169602.73000000138,"y":2535133.5}},{"attributes":{"ID":371685,"DIS_CODE":0,"TOWNNAME":"仁德區","LI":"二行里","LIN":"12鄰","STREET":"中正西路","SECT":" ","MAREA":" ","LANE":"３５３巷","ALLEY":" ","HOUSE_NO":"９４號","E_COORD97":169967.10000000001,"N_COORD97":2535256,"ADDRESS":"中正西路３５３巷９４號","OBJECTID":371675},"geometry":{"x":169967.10000000056,"y":2535256}},{"attributes":{"ID":371686,"DIS_CODE":0,"TOWNNAME":"仁德區","LI":"土庫里","LIN":"12鄰","STREET":"土庫路","SECT":" ","MAREA":" ","LANE":"１４５巷","ALLEY":" ","HOUSE_NO":"３號","E_COORD97":174381.95999999999,"N_COORD97":2543092,"ADDRESS":"土庫路１４５巷３號","OBJECTID":371676},"geometry":{"x":174381.95999999996,"y":2543092.0000000037}},{"attributes":{"ID":371687,"DIS_CODE":0,"TOWNNAME":"仁德區","LI":"大甲里","LIN":"12鄰","STREET":"行大街","SECT":" ","MAREA":" ","LANE":"３４１巷","ALLEY":" ","HOUSE_NO":"２之１號","E_COORD97":169637.45999999999,"N_COORD97":2535179.29,"ADDRESS":"行大街３４１巷２之１號","OBJECTID":371677},"geometry":{"x":169637.46000000183,"y":2535179.2900000028}},{"attributes":{"ID":371688,"DIS_CODE":0,"TOWNNAME":"安南區","LI":"淵東里","LIN":"12鄰","STREET":"海佃路","SECT":"四段","MAREA":" ","LANE":"１４９巷","ALLEY":" ","HOUSE_NO":"１號","E_COORD97":165628.92999999999,"N_COORD97":2550765.25,"ADDRESS":"海佃路四段１４９巷１號","OBJECTID":371678},"geometry":{"x":165628.93000000063,"y":2550765.25}},{"attributes":{"ID":371689,"DIS_CODE":0,"TOWNNAME":"安南區","LI":"淵東里","LIN":"12鄰","STREET":"海佃路","SECT":"四段","MAREA":" ","LANE":"１４９巷","ALLEY":" ","HOUSE_NO":"５號","E_COORD97":165619.64000000001,"N_COORD97":2550764.5899999999,"ADDRESS":"海佃路四段１４９巷５號","OBJECTID":371679},"geometry":{"x":165619.63999999966,"y":2550764.5900000017}},{"attributes":{"ID":371690,"DIS_CODE":0,"TOWNNAME":"安南區","LI":"淵東里","LIN":"12鄰","STREET":"海佃路","SECT":"四段","MAREA":" ","LANE":"１４９巷","ALLEY":" ","HOUSE_NO":"７號","E_COORD97":165615.47,"N_COORD97":2550763.79,"ADDRESS":"海佃路四段１４９巷７號","OBJECTID":371680},"geometry":{"x":165615.46999999974,"y":2550763.7899999991}},{"attributes":{"ID":371691,"DIS_CODE":0,"TOWNNAME":"安南區","LI":"淵東里","LIN":"12鄰","STREET":"海佃路","SECT":"四段","MAREA":" ","LANE":"１４９巷","ALLEY":" ","HOUSE_NO":"９號","E_COORD97":165610.75,"N_COORD97":2550763.5499999998,"ADDRESS":"海佃路四段１４９巷９號","OBJECTID":371681},"geometry":{"x":165610.75,"y":2550763.5500000007}},{"attributes":{"ID":371692,"DIS_CODE":0,"TOWNNAME":"東區","LI":"新東里","LIN":"12鄰","STREET":"裕農路","SECT":" ","MAREA":" ","LANE":"１９巷","ALLEY":" ","HOUSE_NO":"１２號","E_COORD97":170495.48000000001,"N_COORD97":2542876.4199999999,"ADDRESS":"裕農路１９巷１２號","OBJECTID":371682},"geometry":{"x":170495.48000000045,"y":2542876.4200000018}},{"attributes":{"ID":371693,"DIS_CODE":0,"TOWNNAME":"東區","LI":"新東里","LIN":"12鄰","STREET":"裕農路","SECT":" ","MAREA":" ","LANE":"１９巷","ALLEY":" ","HOUSE_NO":"１３號","E_COORD97":170474.07999999999,"N_COORD97":2542878.1800000002,"ADDRESS":"裕農路１９巷１３號","OBJECTID":371683},"geometry":{"x":170474.08000000007,"y":2542878.1800000016}},{"attributes":{"ID":371694,"DIS_CODE":0,"TOWNNAME":"東區","LI":"新東里","LIN":"12鄰","STREET":"裕農路","SECT":" ","MAREA":" ","LANE":"１９巷","ALLEY":" ","HOUSE_NO":"１４號","E_COORD97":170491.82000000001,"N_COORD97":2542881.3500000001,"ADDRESS":"裕農路１９巷１４號","OBJECTID":371684},"geometry":{"x":170491.82000000123,"y":2542881.3499999996}},{"attributes":{"ID":371695,"DIS_CODE":0,"TOWNNAME":"東區","LI":"大智里","LIN":"12鄰","STREET":"長東街","SECT":" ","MAREA":" ","LANE":"１３３巷","ALLEY":" ","HOUSE_NO":"１０號","E_COORD97":171067.79000000001,"N_COORD97":2540159.1899999999,"ADDRESS":"長東街１３３巷１０號","OBJECTID":371685},"geometry":{"x":171067.7900000019,"y":2540159.1899999995}},{"attributes":{"ID":371696,"DIS_CODE":0,"TOWNNAME":"東區","LI":"大智里","LIN":"12鄰","STREET":"長東街","SECT":" ","MAREA":" ","LANE":"１３３巷","ALLEY":" ","HOUSE_NO":"１１號","E_COORD97":171054.53,"N_COORD97":2540181.52,"ADDRESS":"長東街１３３巷１１號","OBJECTID":371686},"geometry":{"x":171054.53000000212,"y":2540181.5199999996}},{"attributes":{"ID":371697,"DIS_CODE":0,"TOWNNAME":"東區","LI":"大智里","LIN":"12鄰","STREET":"長東街","SECT":" ","MAREA":" ","LANE":"１３３巷","ALLEY":" ","HOUSE_NO":"１２號","E_COORD97":171071.85000000001,"N_COORD97":2540159.6099999999,"ADDRESS":"長東街１３３巷１２號","OBJECTID":371687},"geometry":{"x":171071.84999999963,"y":2540159.6099999994}},{"attributes":{"ID":371698,"DIS_CODE":0,"TOWNNAME":"東區","LI":"大智里","LIN":"12鄰","STREET":"長東街","SECT":" ","MAREA":" ","LANE":"１３３巷","ALLEY":" ","HOUSE_NO":"１４號","E_COORD97":171076.32999999999,"N_COORD97":2540160.1499999999,"ADDRESS":"長東街１３３巷１４號","OBJECTID":371688},"geometry":{"x":171076.33000000101,"y":2540160.1500000022}},{"attributes":{"ID":371699,"DIS_CODE":0,"TOWNNAME":"東區","LI":"大智里","LIN":"12鄰","STREET":"長東街","SECT":" ","MAREA":" ","LANE":"１３３巷","ALLEY":" ","HOUSE_NO":"１６號","E_COORD97":171081.23000000001,"N_COORD97":2540160.5699999998,"ADDRESS":"長東街１３３巷１６號","OBJECTID":371689},"geometry":{"x":171081.23000000138,"y":2540160.5700000022}},{"attributes":{"ID":371700,"DIS_CODE":0,"TOWNNAME":"東區","LI":"大智里","LIN":"12鄰","STREET":"長東街","SECT":" ","MAREA":" ","LANE":"１３３巷","ALLEY":" ","HOUSE_NO":"１７號","E_COORD97":171072.45000000001,"N_COORD97":2540182.73,"ADDRESS":"長東街１３３巷１７號","OBJECTID":371690},"geometry":{"x":171072.45000000112,"y":2540182.7300000023}},{"attributes":{"ID":371701,"DIS_CODE":0,"TOWNNAME":"東區","LI":"大智里","LIN":"12鄰","STREET":"長東街","SECT":" ","MAREA":" ","LANE":"１３３巷","ALLEY":" ","HOUSE_NO":"１８號","E_COORD97":171085.5,"N_COORD97":2540161,"ADDRESS":"長東街１３３巷１８號","OBJECTID":371691},"geometry":{"x":171085.50000000093,"y":2540161}},{"attributes":{"ID":371702,"DIS_CODE":0,"TOWNNAME":"東區","LI":"大智里","LIN":"12鄰","STREET":"長東街","SECT":" ","MAREA":" ","LANE":"１３３巷","ALLEY":" ","HOUSE_NO":"１９號","E_COORD97":171076.45000000001,"N_COORD97":2540184.1200000001,"ADDRESS":"長東街１３３巷１９號","OBJECTID":371692},"geometry":{"x":171076.45000000019,"y":2540184.1200000029}},{"attributes":{"ID":371703,"DIS_CODE":0,"TOWNNAME":"東區","LI":"大智里","LIN":"12鄰","STREET":"長東街","SECT":" ","MAREA":" ","LANE":"１３３巷","ALLEY":" ","HOUSE_NO":"２０號","E_COORD97":171090.51000000001,"N_COORD97":2540160.8900000001,"ADDRESS":"長東街１３３巷２０號","OBJECTID":371693},"geometry":{"x":171090.51000000071,"y":2540160.8900000025}},{"attributes":{"ID":371704,"DIS_CODE":0,"TOWNNAME":"東區","LI":"大智里","LIN":"12鄰","STREET":"長東街","SECT":" ","MAREA":" ","LANE":"１３３巷","ALLEY":" ","HOUSE_NO":"２１號","E_COORD97":171081,"N_COORD97":2540182.6299999999,"ADDRESS":"長東街１３３巷２１號","OBJECTID":371694},"geometry":{"x":171081,"y":2540182.6300000008}},{"attributes":{"ID":371705,"DIS_CODE":0,"TOWNNAME":"東區","LI":"大智里","LIN":"12鄰","STREET":"長東街","SECT":" ","MAREA":" ","LANE":"１３３巷","ALLEY":" ","HOUSE_NO":"２２號","E_COORD97":171094.67000000001,"N_COORD97":2540161.3199999998,"ADDRESS":"長東街１３３巷２２號","OBJECTID":371695},"geometry":{"x":171094.67000000086,"y":2540161.3200000022}},{"attributes":{"ID":371706,"DIS_CODE":0,"TOWNNAME":"東區","LI":"大智里","LIN":"12鄰","STREET":"長東街","SECT":" ","MAREA":" ","LANE":"１３３巷","ALLEY":" ","HOUSE_NO":"２３號","E_COORD97":171086.10000000001,"N_COORD97":2540183.4700000002,"ADDRESS":"長東街１３３巷２３號","OBJECTID":371696},"geometry":{"x":171086.10000000056,"y":2540183.4700000007}},{"attributes":{"ID":371707,"DIS_CODE":0,"TOWNNAME":"東區","LI":"大智里","LIN":"12鄰","STREET":"長東街","SECT":" ","MAREA":" ","LANE":"１３３巷","ALLEY":" ","HOUSE_NO":"２４號","E_COORD97":171098.82999999999,"N_COORD97":2540161.96,"ADDRESS":"長東街１３３巷２４號","OBJECTID":371697},"geometry":{"x":171098.83000000101,"y":2540161.9600000028}},{"attributes":{"ID":371708,"DIS_CODE":0,"TOWNNAME":"東區","LI":"大智里","LIN":"12鄰","STREET":"長東街","SECT":" ","MAREA":" ","LANE":"１３３巷","ALLEY":" ","HOUSE_NO":"２５號","E_COORD97":171090.19,"N_COORD97":2540184.8599999999,"ADDRESS":"長東街１３３巷２５號","OBJECTID":371698},"geometry":{"x":171090.19000000041,"y":2540184.8600000013}},{"attributes":{"ID":371709,"DIS_CODE":0,"TOWNNAME":"東區","LI":"大智里","LIN":"12鄰","STREET":"長東街","SECT":" ","MAREA":" ","LANE":"１３３巷","ALLEY":" ","HOUSE_NO":"２７號","E_COORD97":171094.92000000001,"N_COORD97":2540184.21,"ADDRESS":"長東街１３３巷２７號","OBJECTID":371699},"geometry":{"x":171094.91999999993,"y":2540184.2100000009}},{"attributes":{"ID":371710,"DIS_CODE":0,"TOWNNAME":"東區","LI":"大智里","LIN":"12鄰","STREET":"長東街","SECT":" ","MAREA":" ","LANE":"１３３巷","ALLEY":" ","HOUSE_NO":"２９號","E_COORD97":171099.75,"N_COORD97":2540185.5099999998,"ADDRESS":"長東街１３３巷２９號","OBJECTID":371700},"geometry":{"x":171099.75,"y":2540185.5099999998}},{"attributes":{"ID":371711,"DIS_CODE":0,"TOWNNAME":"東區","LI":"大智里","LIN":"12鄰","STREET":"長東街","SECT":" ","MAREA":" ","LANE":"１３３巷","ALLEY":" ","HOUSE_NO":"２號","E_COORD97":171049.01999999999,"N_COORD97":2540158.3399999999,"ADDRESS":"長東街１３３巷２號","OBJECTID":371701},"geometry":{"x":171049.02000000048,"y":2540158.3400000017}},{"attributes":{"ID":371712,"DIS_CODE":0,"TOWNNAME":"東區","LI":"大智里","LIN":"12鄰","STREET":"長東街","SECT":" ","MAREA":" ","LANE":"１３３巷","ALLEY":" ","HOUSE_NO":"３１號","E_COORD97":171103.92999999999,"N_COORD97":2540184.5800000001,"ADDRESS":"長東街１３３巷３１號","OBJECTID":371702},"geometry":{"x":171103.93000000063,"y":2540184.5800000001}},{"attributes":{"ID":371713,"DIS_CODE":0,"TOWNNAME":"東區","LI":"大智里","LIN":"12鄰","STREET":"長東街","SECT":" ","MAREA":" ","LANE":"１３３巷","ALLEY":" ","HOUSE_NO":"３４號","E_COORD97":171117.59,"N_COORD97":2540164.0299999998,"ADDRESS":"長東街１３３巷３４號","OBJECTID":371703},"geometry":{"x":171117.58999999985,"y":2540164.0299999993}},{"attributes":{"ID":371714,"DIS_CODE":0,"TOWNNAME":"東區","LI":"大智里","LIN":"12鄰","STREET":"長東街","SECT":" ","MAREA":" ","LANE":"１３３巷","ALLEY":" ","HOUSE_NO":"３５號","E_COORD97":171120.89000000001,"N_COORD97":2540183.6699999999,"ADDRESS":"長東街１３３巷３５號","OBJECTID":371704},"geometry":{"x":171120.89000000153,"y":2540183.6699999999}},{"attributes":{"ID":371715,"DIS_CODE":0,"TOWNNAME":"東區","LI":"大智里","LIN":"12鄰","STREET":"長東街","SECT":" ","MAREA":" ","LANE":"１３３巷","ALLEY":" ","HOUSE_NO":"３６號","E_COORD97":171121.12,"N_COORD97":2540165.7999999998,"ADDRESS":"長東街１３３巷３６號","OBJECTID":371705},"geometry":{"x":171121.12000000011,"y":2540165.8000000026}},{"attributes":{"ID":371716,"DIS_CODE":0,"TOWNNAME":"東區","LI":"大智里","LIN":"12鄰","STREET":"長東街","SECT":" ","MAREA":" ","LANE":"１３３巷","ALLEY":" ","HOUSE_NO":"３８號","E_COORD97":171124.75,"N_COORD97":2540163.9399999999,"ADDRESS":"長東街１３３巷３８號","OBJECTID":371706},"geometry":{"x":171124.75000000093,"y":2540163.9400000013}},{"attributes":{"ID":371717,"DIS_CODE":0,"TOWNNAME":"東區","LI":"大智里","LIN":"12鄰","STREET":"長東街","SECT":" ","MAREA":" ","LANE":"１３３巷","ALLEY":" ","HOUSE_NO":"３９號","E_COORD97":171127.98000000001,"N_COORD97":2540187.1699999999,"ADDRESS":"長東街１３３巷３９號","OBJECTID":371707},"geometry":{"x":171127.98000000231,"y":2540187.1699999999}},{"attributes":{"ID":371718,"DIS_CODE":0,"TOWNNAME":"東區","LI":"大智里","LIN":"12鄰","STREET":"長東街","SECT":" ","MAREA":" ","LANE":"１３３巷","ALLEY":" ","HOUSE_NO":"４０號","E_COORD97":171128.73999999999,"N_COORD97":2540165.7999999998,"ADDRESS":"長東街１３３巷４０號","OBJECTID":371708},"geometry":{"x":171128.74000000022,"y":2540165.8000000026}},{"attributes":{"ID":371719,"DIS_CODE":0,"TOWNNAME":"東區","LI":"大智里","LIN":"12鄰","STREET":"長東街","SECT":" ","MAREA":" ","LANE":"１３３巷","ALLEY":" ","HOUSE_NO":"４１號","E_COORD97":171131.57000000001,"N_COORD97":2540185.4199999999,"ADDRESS":"長東街１３３巷４１號","OBJECTID":371709},"geometry":{"x":171131.5700000003,"y":2540185.4199999999}},{"attributes":{"ID":371720,"DIS_CODE":0,"TOWNNAME":"東區","LI":"大智里","LIN":"12鄰","STREET":"長東街","SECT":" ","MAREA":" ","LANE":"１３３巷","ALLEY":" ","HOUSE_NO":"４２號","E_COORD97":171132.17999999999,"N_COORD97":2540167.1000000001,"ADDRESS":"長東街１３３巷４２號","OBJECTID":371710},"geometry":{"x":171132.1799999997,"y":2540167.0999999996}},{"attributes":{"ID":371721,"DIS_CODE":0,"TOWNNAME":"東區","LI":"大智里","LIN":"12鄰","STREET":"長東街","SECT":" ","MAREA":" ","LANE":"１３３巷","ALLEY":" ","HOUSE_NO":"４３號","E_COORD97":171135.07000000001,"N_COORD97":2540186.8799999999,"ADDRESS":"長東街１３３巷４３號","OBJECTID":371711},"geometry":{"x":171135.0700000003,"y":2540186.8800000008}},{"attributes":{"ID":371722,"DIS_CODE":0,"TOWNNAME":"東區","LI":"大智里","LIN":"12鄰","STREET":"長東街","SECT":" ","MAREA":" ","LANE":"１３３巷","ALLEY":" ","HOUSE_NO":"４４號","E_COORD97":171136.37,"N_COORD97":2540166.1699999999,"ADDRESS":"長東街１３３巷４４號","OBJECTID":371712},"geometry":{"x":171136.37000000011,"y":2540166.1700000018}},{"attributes":{"ID":371723,"DIS_CODE":0,"TOWNNAME":"東區","LI":"大智里","LIN":"12鄰","STREET":"長東街","SECT":" ","MAREA":" ","LANE":"１３３巷","ALLEY":" ","HOUSE_NO":"４５號","E_COORD97":171139.04999999999,"N_COORD97":2540185.0299999998,"ADDRESS":"長東街１３３巷４５號","OBJECTID":371713},"geometry":{"x":171139.05000000075,"y":2540185.0299999993}},{"attributes":{"ID":371724,"DIS_CODE":0,"TOWNNAME":"東區","LI":"大智里","LIN":"12鄰","STREET":"長東街","SECT":" ","MAREA":" ","LANE":"１３３巷","ALLEY":" ","HOUSE_NO":"４６號","E_COORD97":171139.89999999999,"N_COORD97":2540167.6499999999,"ADDRESS":"長東街１３３巷４６號","OBJECTID":371714},"geometry":{"x":171139.90000000037,"y":2540167.6500000004}},{"attributes":{"ID":371725,"DIS_CODE":0,"TOWNNAME":"東區","LI":"大智里","LIN":"12鄰","STREET":"長東街","SECT":" ","MAREA":" ","LANE":"１３３巷","ALLEY":" ","HOUSE_NO":"４７號","E_COORD97":171142.54999999999,"N_COORD97":2540187.1699999999,"ADDRESS":"長東街１３３巷４７號","OBJECTID":371715},"geometry":{"x":171142.55000000075,"y":2540187.1699999999}},{"attributes":{"ID":371726,"DIS_CODE":0,"TOWNNAME":"東區","LI":"大智里","LIN":"12鄰","STREET":"長東街","SECT":" ","MAREA":" ","LANE":"１３３巷","ALLEY":" ","HOUSE_NO":"４８號","E_COORD97":171144.35999999999,"N_COORD97":2540166.3500000001,"ADDRESS":"長東街１３３巷４８號","OBJECTID":371716},"geometry":{"x":171144.36000000127,"y":2540166.3499999978}},{"attributes":{"ID":371727,"DIS_CODE":0,"TOWNNAME":"東區","LI":"大智里","LIN":"12鄰","STREET":"長東街","SECT":" ","MAREA":" ","LANE":"１３３巷","ALLEY":" ","HOUSE_NO":"４號","E_COORD97":171054.14000000001,"N_COORD97":2540158.7599999998,"ADDRESS":"長東街１３３巷４號","OBJECTID":371717},"geometry":{"x":171054.13999999966,"y":2540158.7600000016}},{"attributes":{"ID":371728,"DIS_CODE":0,"TOWNNAME":"東區","LI":"大智里","LIN":"12鄰","STREET":"長東街","SECT":" ","MAREA":" ","LANE":"１３３巷","ALLEY":" ","HOUSE_NO":"５０號","E_COORD97":171148.73000000001,"N_COORD97":2540168.2999999998,"ADDRESS":"長東街１３３巷５０號","OBJECTID":371718},"geometry":{"x":171148.73000000138,"y":2540168.3000000045}},{"attributes":{"ID":371729,"DIS_CODE":0,"TOWNNAME":"東區","LI":"大智里","LIN":"12鄰","STREET":"長東街","SECT":" ","MAREA":" ","LANE":"１３３巷","ALLEY":" ","HOUSE_NO":"５２號","E_COORD97":171153.47,"N_COORD97":2540167.4700000002,"ADDRESS":"長東街１３３巷５２號","OBJECTID":371719},"geometry":{"x":171153.47000000067,"y":2540167.4700000025}},{"attributes":{"ID":371730,"DIS_CODE":0,"TOWNNAME":"東區","LI":"大智里","LIN":"12鄰","STREET":"長東街","SECT":" ","MAREA":" ","LANE":"１３３巷","ALLEY":" ","HOUSE_NO":"５４號","E_COORD97":171157.19,"N_COORD97":2540168.8599999999,"ADDRESS":"長東街１３３巷５４號","OBJECTID":371720},"geometry":{"x":171157.19000000134,"y":2540168.8599999994}},{"attributes":{"ID":371731,"DIS_CODE":0,"TOWNNAME":"東區","LI":"大智里","LIN":"12鄰","STREET":"長東街","SECT":" ","MAREA":" ","LANE":"１３３巷","ALLEY":" ","HOUSE_NO":"５６號","E_COORD97":171160.72,"N_COORD97":2540167.1899999999,"ADDRESS":"長東街１３３巷５６號","OBJECTID":371721},"geometry":{"x":171160.71999999974,"y":2540167.1899999995}},{"attributes":{"ID":371732,"DIS_CODE":0,"TOWNNAME":"東區","LI":"大智里","LIN":"12鄰","STREET":"長東街","SECT":" ","MAREA":" ","LANE":"１３３巷","ALLEY":" ","HOUSE_NO":"５號","E_COORD97":171040.88,"N_COORD97":2540180.6899999999,"ADDRESS":"長東街１３３巷５號","OBJECTID":371722},"geometry":{"x":171040.87999999989,"y":2540180.6899999995}},{"attributes":{"ID":371733,"DIS_CODE":0,"TOWNNAME":"東區","LI":"大智里","LIN":"12鄰","STREET":"長東街","SECT":" ","MAREA":" ","LANE":"１３３巷","ALLEY":" ","HOUSE_NO":"６０號","E_COORD97":171168.62,"N_COORD97":2540167.3700000001,"ADDRESS":"長東街１３３巷６０號","OBJECTID":371723},"geometry":{"x":171168.62000000011,"y":2540167.370000001}},{"attributes":{"ID":371734,"DIS_CODE":0,"TOWNNAME":"東區","LI":"大智里","LIN":"12鄰","STREET":"長東街","SECT":" ","MAREA":" ","LANE":"１３３巷","ALLEY":" ","HOUSE_NO":"６２號","E_COORD97":171172.53,"N_COORD97":2540169.1400000001,"ADDRESS":"長東街１３３巷６２號","OBJECTID":371724},"geometry":{"x":171172.53000000026,"y":2540169.1400000043}},{"attributes":{"ID":371735,"DIS_CODE":0,"TOWNNAME":"東區","LI":"大智里","LIN":"12鄰","STREET":"長東街","SECT":" ","MAREA":" ","LANE":"１３３巷","ALLEY":" ","HOUSE_NO":"６號","E_COORD97":171057.67999999999,"N_COORD97":2540159.23,"ADDRESS":"長東街１３３巷６號","OBJECTID":371725},"geometry":{"x":171057.6799999997,"y":2540159.2300000023}},{"attributes":{"ID":371736,"DIS_CODE":0,"TOWNNAME":"東區","LI":"大智里","LIN":"12鄰","STREET":"長東街","SECT":" ","MAREA":" ","LANE":"１３３巷","ALLEY":" ","HOUSE_NO":"８號","E_COORD97":171062.45999999999,"N_COORD97":2540159.0800000001,"ADDRESS":"長東街１３３巷８號","OBJECTID":371726},"geometry":{"x":171062.45999999996,"y":2540159.0800000019}},{"attributes":{"ID":371737,"DIS_CODE":0,"TOWNNAME":"東區","LI":"大智里","LIN":"12鄰","STREET":"長東街","SECT":" ","MAREA":" ","LANE":"１３３巷","ALLEY":" ","HOUSE_NO":"９號","E_COORD97":171049.70000000001,"N_COORD97":2540183.0099999998,"ADDRESS":"長東街１３３巷９號","OBJECTID":371727},"geometry":{"x":171049.70000000019,"y":2540183.0100000016}},{"attributes":{"ID":371738,"DIS_CODE":0,"TOWNNAME":"東區","LI":"圍下里","LIN":"12鄰","STREET":"前鋒路","SECT":" ","MAREA":" ","LANE":"８５巷","ALLEY":" ","HOUSE_NO":"１０號","E_COORD97":169272.84,"N_COORD97":2543634.7200000002,"ADDRESS":"前鋒路８５巷１０號","OBJECTID":371728},"geometry":{"x":169272.84000000078,"y":2543634.7200000025}},{"attributes":{"ID":371739,"DIS_CODE":0,"TOWNNAME":"東區","LI":"裕農里","LIN":"12鄰","STREET":"東寧路","SECT":" ","MAREA":" ","LANE":"４７２巷","ALLEY":" ","HOUSE_NO":"１４號","E_COORD97":171028.98999999999,"N_COORD97":2543276.79,"ADDRESS":"東寧路４７２巷１４號","OBJECTID":371729},"geometry":{"x":171028.99000000022,"y":2543276.790000001}},{"attributes":{"ID":371740,"DIS_CODE":0,"TOWNNAME":"東區","LI":"裕農里","LIN":"12鄰","STREET":"東寧路","SECT":" ","MAREA":" ","LANE":"４７２巷","ALLEY":" ","HOUSE_NO":"１６號","E_COORD97":171027.34,"N_COORD97":2543272.5,"ADDRESS":"東寧路４７２巷１６號","OBJECTID":371730},"geometry":{"x":171027.34000000078,"y":2543272.5000000019}},{"attributes":{"ID":371741,"DIS_CODE":0,"TOWNNAME":"東區","LI":"裕農里","LIN":"12鄰","STREET":"東寧路","SECT":" ","MAREA":" ","LANE":"４７２巷","ALLEY":" ","HOUSE_NO":"１號","E_COORD97":171046.5,"N_COORD97":2543288.6699999999,"ADDRESS":"東寧路４７２巷１號","OBJECTID":371731},"geometry":{"x":171046.50000000093,"y":2543288.6700000018}},{"attributes":{"ID":371742,"DIS_CODE":0,"TOWNNAME":"東區","LI":"裕農里","LIN":"12鄰","STREET":"東寧路","SECT":" ","MAREA":" ","LANE":"４７２巷","ALLEY":" ","HOUSE_NO":"３號","E_COORD97":171046.5,"N_COORD97":2543284.3799999999,"ADDRESS":"東寧路４７２巷３號","OBJECTID":371732},"geometry":{"x":171046.50000000093,"y":2543284.379999999}},{"attributes":{"ID":371743,"DIS_CODE":0,"TOWNNAME":"東區","LI":"裕農里","LIN":"12鄰","STREET":"東寧路","SECT":" ","MAREA":" ","LANE":"５１０巷","ALLEY":" ","HOUSE_NO":"１０號","E_COORD97":171074.57000000001,"N_COORD97":2543276.79,"ADDRESS":"東寧路５１０巷１０號","OBJECTID":371733},"geometry":{"x":171074.57000000216,"y":2543276.790000001}},{"attributes":{"ID":371744,"DIS_CODE":0,"TOWNNAME":"東區","LI":"裕農里","LIN":"12鄰","STREET":"東寧路","SECT":" ","MAREA":" ","LANE":"５１０巷","ALLEY":" ","HOUSE_NO":"１２號","E_COORD97":171069.95000000001,"N_COORD97":2543276.1299999999,"ADDRESS":"東寧路５１０巷１２號","OBJECTID":371734},"geometry":{"x":171069.95000000019,"y":2543276.1299999971}},{"attributes":{"ID":371745,"DIS_CODE":0,"TOWNNAME":"東區","LI":"裕農里","LIN":"12鄰","STREET":"東寧路","SECT":" ","MAREA":" ","LANE":"５１０巷","ALLEY":" ","HOUSE_NO":"１４號","E_COORD97":171064.32999999999,"N_COORD97":2543275.7999999998,"ADDRESS":"東寧路５１０巷１４號","OBJECTID":371735},"geometry":{"x":171064.33000000101,"y":2543275.8000000007}},{"attributes":{"ID":371746,"DIS_CODE":0,"TOWNNAME":"東區","LI":"裕農里","LIN":"12鄰","STREET":"東寧路","SECT":" ","MAREA":" ","LANE":"５１０巷","ALLEY":" ","HOUSE_NO":"１６號","E_COORD97":171060.37,"N_COORD97":2543276.1299999999,"ADDRESS":"東寧路５１０巷１６號","OBJECTID":371736},"geometry":{"x":171060.37000000011,"y":2543276.1299999971}},{"attributes":{"ID":371747,"DIS_CODE":0,"TOWNNAME":"東區","LI":"裕農里","LIN":"12鄰","STREET":"東寧路","SECT":" ","MAREA":" ","LANE":"４７２巷","ALLEY":" ","HOUSE_NO":"９號","E_COORD97":171050.79000000001,"N_COORD97":2543272.1699999999,"ADDRESS":"東寧路４７２巷９號","OBJECTID":371737},"geometry":{"x":171050.7900000019,"y":2543272.1699999999}},{"attributes":{"ID":371748,"DIS_CODE":0,"TOWNNAME":"東區","LI":"崇學里","LIN":"12鄰","STREET":"崇明十街","SECT":" ","MAREA":" ","LANE":"７０巷","ALLEY":" ","HOUSE_NO":"３３號","E_COORD97":170270.82000000001,"N_COORD97":2541837.9700000002,"ADDRESS":"崇明十街７０巷３３號","OBJECTID":371738},"geometry":{"x":170270.8200000003,"y":2541837.9700000007}},{"attributes":{"ID":371749,"DIS_CODE":0,"TOWNNAME":"東區","LI":"富裕里","LIN":"12鄰","STREET":"裕豐街","SECT":" ","MAREA":" ","LANE":"８４巷","ALLEY":" ","HOUSE_NO":"８號","E_COORD97":170757.57000000001,"N_COORD97":2542829.0299999998,"ADDRESS":"裕豐街８４巷８號","OBJECTID":371739},"geometry":{"x":170757.57000000216,"y":2542829.0299999993}},{"attributes":{"ID":371750,"DIS_CODE":0,"TOWNNAME":"東區","LI":"崇學里","LIN":"12鄰","STREET":"崇明十街","SECT":" ","MAREA":" ","LANE":"７０巷","ALLEY":" ","HOUSE_NO":"１６號","E_COORD97":170232.42999999999,"N_COORD97":2541844.6400000001,"ADDRESS":"崇明十街７０巷１６號","OBJECTID":371740},"geometry":{"x":170232.43000000156,"y":2541844.6400000025}},{"attributes":{"ID":371751,"DIS_CODE":0,"TOWNNAME":"東區","LI":"崇學里","LIN":"12鄰","STREET":"崇明十街","SECT":" ","MAREA":" ","LANE":"７０巷","ALLEY":" ","HOUSE_NO":"１８號","E_COORD97":170236.47,"N_COORD97":2541839.25,"ADDRESS":"崇明十街７０巷１８號","OBJECTID":371741},"geometry":{"x":170236.46999999974,"y":2541839.2500000037}},{"attributes":{"ID":371752,"DIS_CODE":0,"TOWNNAME":"白河區","LI":"外角里","LIN":"12鄰","STREET":"三民路","SECT":" ","MAREA":" ","LANE":"２０８巷","ALLEY":" ","HOUSE_NO":"１１號","E_COORD97":190849.01000000001,"N_COORD97":2583355.98,"ADDRESS":"三民路２０８巷１１號","OBJECTID":371742},"geometry":{"x":190849.01000000071,"y":2583355.9800000004}},{"attributes":{"ID":371753,"DIS_CODE":0,"TOWNNAME":"白河區","LI":"外角里","LIN":"12鄰","STREET":"三民路","SECT":" ","MAREA":" ","LANE":"２０８巷","ALLEY":" ","HOUSE_NO":"１２號","E_COORD97":190880.13,"N_COORD97":2583333.3799999999,"ADDRESS":"三民路２０８巷１２號","OBJECTID":371743},"geometry":{"x":190880.12999999989,"y":2583333.3800000008}},{"attributes":{"ID":371754,"DIS_CODE":0,"TOWNNAME":"白河區","LI":"外角里","LIN":"12鄰","STREET":"三民路","SECT":" ","MAREA":" ","LANE":"２０８巷","ALLEY":" ","HOUSE_NO":"１３號","E_COORD97":190848.32000000001,"N_COORD97":2583360.3300000001,"ADDRESS":"三民路２０８巷１３號","OBJECTID":371744},"geometry":{"x":190848.3200000003,"y":2583360.3300000001}},{"attributes":{"ID":371755,"DIS_CODE":0,"TOWNNAME":"白河區","LI":"外角里","LIN":"12鄰","STREET":"三民路","SECT":" ","MAREA":" ","LANE":"２０８巷","ALLEY":" ","HOUSE_NO":"１５號","E_COORD97":190847.60000000001,"N_COORD97":2583365.1200000001,"ADDRESS":"三民路２０８巷１５號","OBJECTID":371745},"geometry":{"x":190847.59999999963,"y":2583365.120000001}},{"attributes":{"ID":371756,"DIS_CODE":0,"TOWNNAME":"白河區","LI":"外角里","LIN":"12鄰","STREET":"三民路","SECT":" ","MAREA":" ","LANE":"２０８巷","ALLEY":" ","HOUSE_NO":"１６號","E_COORD97":190878.67999999999,"N_COORD97":2583339.3100000001,"ADDRESS":"三民路２０８巷１６號","OBJECTID":371746},"geometry":{"x":190878.68000000063,"y":2583339.3100000005}},{"attributes":{"ID":371757,"DIS_CODE":0,"TOWNNAME":"白河區","LI":"外角里","LIN":"12鄰","STREET":"三民路","SECT":" ","MAREA":" ","LANE":"２０８巷","ALLEY":" ","HOUSE_NO":"１７號","E_COORD97":190847.17999999999,"N_COORD97":2583369.0800000001,"ADDRESS":"三民路２０８巷１７號","OBJECTID":371747},"geometry":{"x":190847.1799999997,"y":2583369.0800000038}},{"attributes":{"ID":371758,"DIS_CODE":0,"TOWNNAME":"白河區","LI":"外角里","LIN":"12鄰","STREET":"三民路","SECT":" ","MAREA":" ","LANE":"２０８巷","ALLEY":" ","HOUSE_NO":"１８號","E_COORD97":190877.45000000001,"N_COORD97":2583345.02,"ADDRESS":"三民路２０８巷１８號","OBJECTID":371748},"geometry":{"x":190877.45000000112,"y":2583345.0199999977}},{"attributes":{"ID":371759,"DIS_CODE":0,"TOWNNAME":"白河區","LI":"外角里","LIN":"12鄰","STREET":"三民路","SECT":" ","MAREA":" ","LANE":"２０８巷","ALLEY":" ","HOUSE_NO":"１９號","E_COORD97":190846.45999999999,"N_COORD97":2583373.29,"ADDRESS":"三民路２０８巷１９號","OBJECTID":371749},"geometry":{"x":190846.46000000089,"y":2583373.2899999972}},{"attributes":{"ID":371760,"DIS_CODE":0,"TOWNNAME":"白河區","LI":"外角里","LIN":"12鄰","STREET":"三民路","SECT":" ","MAREA":" ","LANE":"２０８巷","ALLEY":" ","HOUSE_NO":"２０號","E_COORD97":190876.54999999999,"N_COORD97":2583350.1099999999,"ADDRESS":"三民路２０８巷２０號","OBJECTID":371750},"geometry":{"x":190876.55000000075,"y":2583350.1099999994}},{"attributes":{"ID":371761,"DIS_CODE":0,"TOWNNAME":"白河區","LI":"外角里","LIN":"12鄰","STREET":"三民路","SECT":" ","MAREA":" ","LANE":"２０８巷","ALLEY":" ","HOUSE_NO":"２１號","E_COORD97":190846.16,"N_COORD97":2583377.6600000001,"ADDRESS":"三民路２０８巷２１號","OBJECTID":371751},"geometry":{"x":190846.16000000015,"y":2583377.6600000001}},{"attributes":{"ID":371762,"DIS_CODE":0,"TOWNNAME":"白河區","LI":"外角里","LIN":"12鄰","STREET":"三民路","SECT":" ","MAREA":" ","LANE":"２０８巷","ALLEY":" ","HOUSE_NO":"２２號","E_COORD97":190875.01000000001,"N_COORD97":2583358.4100000001,"ADDRESS":"三民路２０８巷２２號","OBJECTID":371752},"geometry":{"x":190875.01000000071,"y":2583358.410000002}},{"attributes":{"ID":371763,"DIS_CODE":0,"TOWNNAME":"白河區","LI":"外角里","LIN":"12鄰","STREET":"三民路","SECT":" ","MAREA":" ","LANE":"２０８巷","ALLEY":" ","HOUSE_NO":"２號","E_COORD97":190861.48000000001,"N_COORD97":2583332.52,"ADDRESS":"三民路２０８巷２號","OBJECTID":371753},"geometry":{"x":190861.48000000045,"y":2583332.5200000014}},{"attributes":{"ID":371764,"DIS_CODE":0,"TOWNNAME":"白河區","LI":"外角里","LIN":"12鄰","STREET":"三民路","SECT":" ","MAREA":" ","LANE":"２０８巷","ALLEY":" ","HOUSE_NO":"３號","E_COORD97":190857.48999999999,"N_COORD97":2583332.48,"ADDRESS":"三民路２０８巷３號","OBJECTID":371754},"geometry":{"x":190857.49000000022,"y":2583332.4800000004}},{"attributes":{"ID":371765,"DIS_CODE":0,"TOWNNAME":"白河區","LI":"外角里","LIN":"12鄰","STREET":"三民路","SECT":" ","MAREA":" ","LANE":"２０８巷","ALLEY":" ","HOUSE_NO":"４號","E_COORD97":190853.48999999999,"N_COORD97":2583332.4399999999,"ADDRESS":"三民路２０８巷４號","OBJECTID":371755},"geometry":{"x":190853.49000000115,"y":2583332.4400000013}},{"attributes":{"ID":371766,"DIS_CODE":0,"TOWNNAME":"白河區","LI":"外角里","LIN":"12鄰","STREET":"三民路","SECT":" ","MAREA":" ","LANE":"２０８巷","ALLEY":" ","HOUSE_NO":"５號","E_COORD97":190849.48999999999,"N_COORD97":2583332.3900000001,"ADDRESS":"三民路２０８巷５號","OBJECTID":371756},"geometry":{"x":190849.49000000209,"y":2583332.3900000006}},{"attributes":{"ID":371767,"DIS_CODE":0,"TOWNNAME":"白河區","LI":"外角里","LIN":"12鄰","STREET":"三民路","SECT":" ","MAREA":" ","LANE":"２０８巷","ALLEY":" ","HOUSE_NO":"６號","E_COORD97":190845.48999999999,"N_COORD97":2583332.3500000001,"ADDRESS":"三民路２０８巷６號","OBJECTID":371757},"geometry":{"x":190845.49000000022,"y":2583332.3499999996}},{"attributes":{"ID":371768,"DIS_CODE":0,"TOWNNAME":"白河區","LI":"外角里","LIN":"12鄰","STREET":"三民路","SECT":" ","MAREA":" ","LANE":"２０８巷","ALLEY":" ","HOUSE_NO":"７號","E_COORD97":190850.37,"N_COORD97":2583347.5899999999,"ADDRESS":"三民路２０８巷７號","OBJECTID":371758},"geometry":{"x":190850.37000000104,"y":2583347.5899999999}},{"attributes":{"ID":371769,"DIS_CODE":0,"TOWNNAME":"白河區","LI":"外角里","LIN":"12鄰","STREET":"三民路","SECT":" ","MAREA":" ","LANE":"２０８巷","ALLEY":" ","HOUSE_NO":"８號","E_COORD97":190881.54999999999,"N_COORD97":2583324.21,"ADDRESS":"三民路２０８巷８號","OBJECTID":371759},"geometry":{"x":190881.55000000075,"y":2583324.2100000009}},{"attributes":{"ID":371770,"DIS_CODE":0,"TOWNNAME":"白河區","LI":"外角里","LIN":"12鄰","STREET":"三民路","SECT":" ","MAREA":" ","LANE":"２０８巷","ALLEY":" ","HOUSE_NO":"９號","E_COORD97":190849.92000000001,"N_COORD97":2583351.8700000001,"ADDRESS":"三民路２０８巷９號","OBJECTID":371760},"geometry":{"x":190849.92000000086,"y":2583351.8700000029}},{"attributes":{"ID":371771,"DIS_CODE":0,"TOWNNAME":"永康區","LI":"\u25A0洲里","LIN":"12鄰","STREET":"\u25A0洲一街","SECT":" ","MAREA":" ","LANE":"１１巷","ALLEY":" ","HOUSE_NO":"４２號","E_COORD97":171566.07999999999,"N_COORD97":2549099.25,"ADDRESS":"\u25A0洲一街１１巷４２號","OBJECTID":371761},"geometry":{"x":171566.08000000101,"y":2549099.2500000019}},{"attributes":{"ID":371772,"DIS_CODE":0,"TOWNNAME":"永康區","LI":"中華里","LIN":"12鄰","STREET":"忠義街","SECT":" ","MAREA":" ","LANE":"４４巷","ALLEY":" ","HOUSE_NO":"４０號","E_COORD97":171841.38,"N_COORD97":2544462.8300000001,"ADDRESS":"忠義街４４巷４０號","OBJECTID":371762},"geometry":{"x":171841.37999999989,"y":2544462.8300000038}},{"attributes":{"ID":371773,"DIS_CODE":0,"TOWNNAME":"永康區","LI":"中華里","LIN":"12鄰","STREET":"忠義街","SECT":" ","MAREA":" ","LANE":"４４巷","ALLEY":" ","HOUSE_NO":"５２號","E_COORD97":171867.37,"N_COORD97":2544464.3500000001,"ADDRESS":"忠義街４４巷５２號","OBJECTID":371763},"geometry":{"x":171867.37000000197,"y":2544464.3499999996}},{"attributes":{"ID":371774,"DIS_CODE":0,"TOWNNAME":"永康區","LI":"\u25A0洲里","LIN":"12鄰","STREET":"\u25A0洲一街","SECT":" ","MAREA":" ","LANE":"１１巷","ALLEY":" ","HOUSE_NO":"７號","E_COORD97":171519.26999999999,"N_COORD97":2549079.4900000002,"ADDRESS":"\u25A0洲一街１１巷７號","OBJECTID":371764},"geometry":{"x":171519.26999999955,"y":2549079.4900000039}},{"attributes":{"ID":371775,"DIS_CODE":0,"TOWNNAME":"永康區","LI":"\u25A0洲里","LIN":"12鄰","STREET":"\u25A0洲一街","SECT":" ","MAREA":" ","LANE":"１１巷","ALLEY":" ","HOUSE_NO":"２５號","E_COORD97":171549.82000000001,"N_COORD97":2549107,"ADDRESS":"\u25A0洲一街１１巷２５號","OBJECTID":371765},"geometry":{"x":171549.82000000123,"y":2549107.0000000019}},{"attributes":{"ID":371776,"DIS_CODE":0,"TOWNNAME":"永康區","LI":"\u25A0洲里","LIN":"12鄰","STREET":"\u25A0洲一街","SECT":" ","MAREA":" ","LANE":"１１巷","ALLEY":" ","HOUSE_NO":"１３號","E_COORD97":171530.82000000001,"N_COORD97":2549089.2400000002,"ADDRESS":"\u25A0洲一街１１巷１３號","OBJECTID":371766},"geometry":{"x":171530.82000000123,"y":2549089.2400000021}},{"attributes":{"ID":371777,"DIS_CODE":0,"TOWNNAME":"永康區","LI":"\u25A0洲里","LIN":"12鄰","STREET":"\u25A0洲一街","SECT":" ","MAREA":" ","LANE":"１１巷","ALLEY":" ","HOUSE_NO":"１５號","E_COORD97":171533.92999999999,"N_COORD97":2549092.2400000002,"ADDRESS":"\u25A0洲一街１１巷１５號","OBJECTID":371767},"geometry":{"x":171533.9299999997,"y":2549092.2400000021}},{"attributes":{"ID":371778,"DIS_CODE":0,"TOWNNAME":"永康區","LI":"\u25A0洲里","LIN":"12鄰","STREET":"\u25A0洲一街","SECT":" ","MAREA":" ","LANE":"１１巷","ALLEY":" ","HOUSE_NO":"３號","E_COORD97":171512.57000000001,"N_COORD97":2549073.2400000002,"ADDRESS":"\u25A0洲一街１１巷３號","OBJECTID":371768},"geometry":{"x":171512.57000000123,"y":2549073.2400000002}},{"attributes":{"ID":371779,"DIS_CODE":0,"TOWNNAME":"永康區","LI":"\u25A0洲里","LIN":"12鄰","STREET":"\u25A0洲一街","SECT":" ","MAREA":" ","LANE":"１１巷","ALLEY":" ","HOUSE_NO":"５號","E_COORD97":171515.88,"N_COORD97":2549076.48,"ADDRESS":"\u25A0洲一街１１巷５號","OBJECTID":371769},"geometry":{"x":171515.87999999989,"y":2549076.4800000042}},{"attributes":{"ID":371780,"DIS_CODE":0,"TOWNNAME":"永康區","LI":"\u25A0洲里","LIN":"12鄰","STREET":"\u25A0洲一街","SECT":" ","MAREA":" ","LANE":"１１巷","ALLEY":" ","HOUSE_NO":"１１號","E_COORD97":171527.38,"N_COORD97":2549085.9900000002,"ADDRESS":"\u25A0洲一街１１巷１１號","OBJECTID":371770},"geometry":{"x":171527.37999999989,"y":2549085.9900000002}},{"attributes":{"ID":371781,"DIS_CODE":0,"TOWNNAME":"永康區","LI":"\u25A0洲里","LIN":"12鄰","STREET":"\u25A0洲一街","SECT":" ","MAREA":" ","LANE":"１１巷","ALLEY":" ","HOUSE_NO":"２１號","E_COORD97":171543.47,"N_COORD97":2549101,"ADDRESS":"\u25A0洲一街１１巷２１號","OBJECTID":371771},"geometry":{"x":171543.46999999974,"y":2549101.0000000019}},{"attributes":{"ID":371782,"DIS_CODE":0,"TOWNNAME":"永康區","LI":"\u25A0洲里","LIN":"12鄰","STREET":"\u25A0洲一街","SECT":" ","MAREA":" ","LANE":"１１巷","ALLEY":" ","HOUSE_NO":"２３號","E_COORD97":171546.57000000001,"N_COORD97":2549104,"ADDRESS":"\u25A0洲一街１１巷２３號","OBJECTID":371772},"geometry":{"x":171546.57000000123,"y":2549104.0000000019}},{"attributes":{"ID":371783,"DIS_CODE":0,"TOWNNAME":"永康區","LI":"\u25A0洲里","LIN":"12鄰","STREET":"\u25A0洲一街","SECT":" ","MAREA":" ","LANE":"１１巷","ALLEY":" ","HOUSE_NO":"１７號","E_COORD97":171537.17999999999,"N_COORD97":2549095.4900000002,"ADDRESS":"\u25A0洲一街１１巷１７號","OBJECTID":371773},"geometry":{"x":171537.1799999997,"y":2549095.4900000002}},{"attributes":{"ID":371784,"DIS_CODE":0,"TOWNNAME":"永康區","LI":"中華里","LIN":"12鄰","STREET":"小東路","SECT":" ","MAREA":" ","LANE":"５９１巷","ALLEY":" ","HOUSE_NO":"２２號","E_COORD97":171842.54000000001,"N_COORD97":2544425.0899999999,"ADDRESS":"小東路５９１巷２２號","OBJECTID":371774},"geometry":{"x":171842.5400000019,"y":2544425.0900000017}},{"attributes":{"ID":371785,"DIS_CODE":0,"TOWNNAME":"永康區","LI":"新樹里","LIN":"12鄰","STREET":"富強路","SECT":"二段","MAREA":" ","LANE":"１２１巷","ALLEY":" ","HOUSE_NO":"６５號","E_COORD97":175630.76999999999,"N_COORD97":2547005.4900000002,"ADDRESS":"富強路二段１２１巷６５號","OBJECTID":371775},"geometry":{"x":175630.76999999862,"y":2547005.4900000021}},{"attributes":{"ID":371786,"DIS_CODE":0,"TOWNNAME":"永康區","LI":"中華里","LIN":"12鄰","STREET":"小東路","SECT":" ","MAREA":" ","LANE":"５９１巷","ALLEY":" ","HOUSE_NO":"２０號","E_COORD97":171842.32000000001,"N_COORD97":2544420.98,"ADDRESS":"小東路５９１巷２０號","OBJECTID":371776},"geometry":{"x":171842.3200000003,"y":2544420.9800000004}},{"attributes":{"ID":371787,"DIS_CODE":0,"TOWNNAME":"安南區","LI":"安東里","LIN":"12鄰","STREET":"安和路","SECT":"一段","MAREA":" ","LANE":"２２０巷","ALLEY":" ","HOUSE_NO":"１０７號","E_COORD97":169551.20999999999,"N_COORD97":2548086.9500000002,"ADDRESS":"安和路一段２２０巷１０７號","OBJECTID":371777},"geometry":{"x":169551.21000000089,"y":2548086.9500000011}},{"attributes":{"ID":371788,"DIS_CODE":0,"TOWNNAME":"安南區","LI":"安東里","LIN":"12鄰","STREET":"安和路","SECT":"一段","MAREA":" ","LANE":"２８８巷","ALLEY":" ","HOUSE_NO":"１３８號","E_COORD97":169618.70000000001,"N_COORD97":2548189.4399999999,"ADDRESS":"安和路一段２８８巷１３８號","OBJECTID":371778},"geometry":{"x":169618.70000000019,"y":2548189.4399999995}},{"attributes":{"ID":371789,"DIS_CODE":0,"TOWNNAME":"安南區","LI":"安東里","LIN":"12鄰","STREET":"安和路","SECT":"一段","MAREA":" ","LANE":"２８８巷","ALLEY":" ","HOUSE_NO":"１６２號","E_COORD97":169736.92999999999,"N_COORD97":2548205.48,"ADDRESS":"安和路一段２８８巷１６２號","OBJECTID":371779},"geometry":{"x":169736.9299999997,"y":2548205.4800000023}},{"attributes":{"ID":371790,"DIS_CODE":0,"TOWNNAME":"善化區","LI":"光文里","LIN":"12鄰","STREET":"民生路","SECT":" ","MAREA":" ","LANE":"１６９巷","ALLEY":" ","HOUSE_NO":"６號","E_COORD97":178487.54999999999,"N_COORD97":2558935.7599999998,"ADDRESS":"民生路１６９巷６號","OBJECTID":371780},"geometry":{"x":178487.55000000075,"y":2558935.7599999998}},{"attributes":{"ID":371791,"DIS_CODE":0,"TOWNNAME":"善化區","LI":"西關里","LIN":"12鄰","STREET":"復興街","SECT":" ","MAREA":" ","LANE":"９６巷","ALLEY":" ","HOUSE_NO":"１１號","E_COORD97":176808.29000000001,"N_COORD97":2559076.2599999998,"ADDRESS":"復興街９６巷１１號","OBJECTID":371781},"geometry":{"x":176808.29000000097,"y":2559076.2600000016}},{"attributes":{"ID":371792,"DIS_CODE":0,"TOWNNAME":"善化區","LI":"光文里","LIN":"12鄰","STREET":"民生路","SECT":" ","MAREA":" ","LANE":"３３巷","ALLEY":" ","HOUSE_NO":"１６號","E_COORD97":178824.07000000001,"N_COORD97":2558980.5099999998,"ADDRESS":"民生路３３巷１６號","OBJECTID":371782},"geometry":{"x":178824.07000000123,"y":2558980.5100000016}},{"attributes":{"ID":371793,"DIS_CODE":0,"TOWNNAME":"善化區","LI":"光文里","LIN":"12鄰","STREET":"民生路","SECT":" ","MAREA":" ","LANE":"１６９巷","ALLEY":" ","HOUSE_NO":"１２號","E_COORD97":178489.98999999999,"N_COORD97":2558923.7599999998,"ADDRESS":"民生路１６９巷１２號","OBJECTID":371783},"geometry":{"x":178489.99000000115,"y":2558923.7600000016}},{"attributes":{"ID":371794,"DIS_CODE":0,"TOWNNAME":"善化區","LI":"西關里","LIN":"12鄰","STREET":"復興街","SECT":" ","MAREA":" ","LANE":"９４巷","ALLEY":" ","HOUSE_NO":"６號","E_COORD97":176828.53,"N_COORD97":2559044.5099999998,"ADDRESS":"復興街９４巷６號","OBJECTID":371784},"geometry":{"x":176828.53000000119,"y":2559044.5100000016}},{"attributes":{"ID":371795,"DIS_CODE":0,"TOWNNAME":"善化區","LI":"西關里","LIN":"12鄰","STREET":"復興街","SECT":" ","MAREA":" ","LANE":"９６巷","ALLEY":" ","HOUSE_NO":"３號","E_COORD97":176804.5,"N_COORD97":2559047.5099999998,"ADDRESS":"復興街９６巷３號","OBJECTID":371785},"geometry":{"x":176804.50000000186,"y":2559047.5100000016}},{"attributes":{"ID":371796,"DIS_CODE":0,"TOWNNAME":"善化區","LI":"光文里","LIN":"12鄰","STREET":"民生路","SECT":" ","MAREA":" ","LANE":"１６９巷","ALLEY":" ","HOUSE_NO":"２號","E_COORD97":178486.87,"N_COORD97":2558939.5099999998,"ADDRESS":"民生路１６９巷２號","OBJECTID":371786},"geometry":{"x":178486.87000000011,"y":2558939.5100000016}},{"attributes":{"ID":371797,"DIS_CODE":0,"TOWNNAME":"善化區","LI":"西關里","LIN":"12鄰","STREET":"復興街","SECT":" ","MAREA":" ","LANE":"９４巷","ALLEY":" ","HOUSE_NO":"８號","E_COORD97":176828.95999999999,"N_COORD97":2559048.7599999998,"ADDRESS":"復興街９４巷８號","OBJECTID":371787},"geometry":{"x":176828.96000000089,"y":2559048.7600000016}},{"attributes":{"ID":371798,"DIS_CODE":0,"TOWNNAME":"善化區","LI":"西關里","LIN":"12鄰","STREET":"復興街","SECT":" ","MAREA":" ","LANE":"９４巷","ALLEY":" ","HOUSE_NO":"４號","E_COORD97":176827.79000000001,"N_COORD97":2559040.0099999998,"ADDRESS":"復興街９４巷４號","OBJECTID":371788},"geometry":{"x":176827.79000000004,"y":2559040.0100000035}},{"attributes":{"ID":371799,"DIS_CODE":0,"TOWNNAME":"善化區","LI":"西關里","LIN":"12鄰","STREET":"復興街","SECT":" ","MAREA":" ","LANE":"９４巷","ALLEY":" ","HOUSE_NO":"１６號","E_COORD97":176831.19,"N_COORD97":2559065.7599999998,"ADDRESS":"復興街９４巷１６號","OBJECTID":371789},"geometry":{"x":176831.19000000134,"y":2559065.7600000016}},{"attributes":{"ID":371800,"DIS_CODE":0,"TOWNNAME":"善化區","LI":"光文里","LIN":"12鄰","STREET":"民生路","SECT":" ","MAREA":" ","LANE":"９８巷","ALLEY":" ","HOUSE_NO":"７號","E_COORD97":178687.54999999999,"N_COORD97":2559036.0099999998,"ADDRESS":"民生路９８巷７號","OBJECTID":371790},"geometry":{"x":178687.55000000075,"y":2559036.0099999998}},{"attributes":{"ID":371801,"DIS_CODE":0,"TOWNNAME":"善化區","LI":"光文里","LIN":"12鄰","STREET":"民生路","SECT":" ","MAREA":" ","LANE":"１６９巷","ALLEY":" ","HOUSE_NO":"８號","E_COORD97":178488.23000000001,"N_COORD97":2558931.7599999998,"ADDRESS":"民生路１６９巷８號","OBJECTID":371791},"geometry":{"x":178488.23000000045,"y":2558931.7599999998}},{"attributes":{"ID":371802,"DIS_CODE":0,"TOWNNAME":"善化區","LI":"西關里","LIN":"12鄰","STREET":"復興街","SECT":" ","MAREA":" ","LANE":"９６巷","ALLEY":" ","HOUSE_NO":"５號","E_COORD97":176805.51000000001,"N_COORD97":2559054.7599999998,"ADDRESS":"復興街９６巷５號","OBJECTID":371792},"geometry":{"x":176805.50999999978,"y":2559054.7599999998}},{"attributes":{"ID":371803,"DIS_CODE":0,"TOWNNAME":"善化區","LI":"光文里","LIN":"12鄰","STREET":"民生路","SECT":" ","MAREA":" ","LANE":"１６９巷","ALLEY":" ","HOUSE_NO":"１８號","E_COORD97":178491.91,"N_COORD97":2558911.7599999998,"ADDRESS":"民生路１６９巷１８號","OBJECTID":371793},"geometry":{"x":178491.90999999922,"y":2558911.7599999998}},{"attributes":{"ID":371804,"DIS_CODE":0,"TOWNNAME":"善化區","LI":"南關里","LIN":"12鄰","STREET":"復興街","SECT":" ","MAREA":" ","LANE":"５５巷","ALLEY":" ","HOUSE_NO":"３號（已半毀）","E_COORD97":176991.39000000001,"N_COORD97":2558941.7599999998,"ADDRESS":"復興街５５巷３號（已半毀）","OBJECTID":371794},"geometry":{"x":176991.39000000153,"y":2558941.7599999998}},{"attributes":{"ID":371805,"DIS_CODE":0,"TOWNNAME":"善化區","LI":"西關里","LIN":"12鄰","STREET":"復興街","SECT":" ","MAREA":" ","LANE":"９４巷","ALLEY":" ","HOUSE_NO":"１４號","E_COORD97":176831.06,"N_COORD97":2559061.5099999998,"ADDRESS":"復興街９４巷１４號","OBJECTID":371795},"geometry":{"x":176831.06000000052,"y":2559061.5100000016}},{"attributes":{"ID":371806,"DIS_CODE":0,"TOWNNAME":"善化區","LI":"西關里","LIN":"12鄰","STREET":"復興街","SECT":" ","MAREA":" ","LANE":"９４巷","ALLEY":" ","HOUSE_NO":"２４號","E_COORD97":176830.54000000001,"N_COORD97":2559083.2599999998,"ADDRESS":"復興街９４巷２４號","OBJECTID":371796},"geometry":{"x":176830.54000000097,"y":2559083.2600000016}},{"attributes":{"ID":371807,"DIS_CODE":0,"TOWNNAME":"善化區","LI":"南關里","LIN":"12鄰","STREET":"復興街","SECT":" ","MAREA":" ","LANE":"５５巷","ALLEY":" ","HOUSE_NO":"１號（已半毀）","E_COORD97":177002.31,"N_COORD97":2558996.7599999998,"ADDRESS":"復興街５５巷１號（已半毀）","OBJECTID":371797},"geometry":{"x":177002.31000000052,"y":2558996.7599999998}},{"attributes":{"ID":371808,"DIS_CODE":0,"TOWNNAME":"善化區","LI":"南關里","LIN":"12鄰","STREET":"復興街","SECT":" ","MAREA":" ","LANE":"５５巷","ALLEY":" ","HOUSE_NO":"２之１號","E_COORD97":177006.06,"N_COORD97":2558950.77,"ADDRESS":"復興街５５巷２之１號","OBJECTID":371798},"geometry":{"x":177006.06000000052,"y":2558950.7700000014}},{"attributes":{"ID":371809,"DIS_CODE":0,"TOWNNAME":"善化區","LI":"光文里","LIN":"12鄰","STREET":"仁愛路","SECT":" ","MAREA":" ","LANE":"２４巷","ALLEY":" ","HOUSE_NO":"５號","E_COORD97":178557.10000000001,"N_COORD97":2558929.5099999998,"ADDRESS":"仁愛路２４巷５號","OBJECTID":371799},"geometry":{"x":178557.10000000056,"y":2558929.5100000016}},{"attributes":{"ID":371810,"DIS_CODE":0,"TOWNNAME":"善化區","LI":"光文里","LIN":"12鄰","STREET":"仁愛路","SECT":" ","MAREA":" ","LANE":"２４巷","ALLEY":" ","HOUSE_NO":"１５號","E_COORD97":178585.39000000001,"N_COORD97":2558934.2599999998,"ADDRESS":"仁愛路２４巷１５號","OBJECTID":371800},"geometry":{"x":178585.3900000006,"y":2558934.2600000016}}]}