{"displayFieldName":"TOWNNAME","fieldAliases":{"ID":"ID","DIS_CODE":"DIS_CODE","TOWNNAME":"TOWNNAME","LI":"LI","LIN":"LIN","STREET":"STREET","SECT":"SECT","MAREA":"MAREA","LANE":"LANE","ALLEY":"ALLEY","HOUSE_NO":"HOUSE_NO","E_COORD97":"E_COORD97","N_COORD97":"N_COORD97","ADDRESS":"ADDRESS","OBJECTID":"OBJECTID"},"geometryType":"esriGeometryPoint","spatialReference":{"wkid":102443,"latestWkid":3826},"fields":[{"name":"ID","type":"esriFieldTypeDouble","alias":"ID"},{"name":"DIS_CODE","type":"esriFieldTypeInteger","alias":"DIS_CODE"},{"name":"TOWNNAME","type":"esriFieldTypeString","alias":"TOWNNAME","length":8},{"name":"LI","type":"esriFieldTypeString","alias":"LI","length":8},{"name":"LIN","type":"esriFieldTypeString","alias":"LIN","length":12},{"name":"STREET","type":"esriFieldTypeString","alias":"STREET","length":20},{"name":"SECT","type":"esriFieldTypeString","alias":"SECT","length":8},{"name":"MAREA","type":"esriFieldTypeString","alias":"MAREA","length":12},{"name":"LANE","type":"esriFieldTypeString","alias":"LANE","length":10},{"name":"ALLEY","type":"esriFieldTypeString","alias":"ALLEY","length":10},{"name":"HOUSE_NO","type":"esriFieldTypeString","alias":"HOUSE_NO","length":20},{"name":"E_COORD97","type":"esriFieldTypeDouble","alias":"E_COORD97"},{"name":"N_COORD97","type":"esriFieldTypeDouble","alias":"N_COORD97"},{"name":"ADDRESS","type":"esriFieldTypeString","alias":"ADDRESS","length":50},{"name":"OBJECTID","type":"esriFieldTypeOID","alias":"OBJECTID"}],"features":[{"attributes":{"ID":633828,"DIS_CODE":0,"TOWNNAME":"東區","LI":"泉南里","LIN":"41鄰","STREET":"慶東街","SECT":" ","MAREA":" ","LANE":" ","ALLEY":" ","HOUSE_NO":"３５號九樓","E_COORD97":169549.56,"N_COORD97":2542987.8399999999,"ADDRESS":"慶東街３５號九樓","OBJECTID":633801},"geometry":{"x":169549.55999999959,"y":2542987.8400000036}},{"attributes":{"ID":633829,"DIS_CODE":0,"TOWNNAME":"東區","LI":"泉南里","LIN":"41鄰","STREET":"慶東街","SECT":" ","MAREA":" ","LANE":" ","ALLEY":" ","HOUSE_NO":"３５號九樓之１","E_COORD97":169549.56,"N_COORD97":2542987.8399999999,"ADDRESS":"慶東街３５號九樓之１","OBJECTID":633802},"geometry":{"x":169549.55999999959,"y":2542987.8400000036}},{"attributes":{"ID":633830,"DIS_CODE":0,"TOWNNAME":"東區","LI":"泉南里","LIN":"41鄰","STREET":"慶東街","SECT":" ","MAREA":" ","LANE":" ","ALLEY":" ","HOUSE_NO":"３５號十樓","E_COORD97":169549.56,"N_COORD97":2542987.8399999999,"ADDRESS":"慶東街３５號十樓","OBJECTID":633803},"geometry":{"x":169549.55999999959,"y":2542987.8400000036}},{"attributes":{"ID":633831,"DIS_CODE":0,"TOWNNAME":"東區","LI":"泉南里","LIN":"41鄰","STREET":"慶東街","SECT":" ","MAREA":" ","LANE":" ","ALLEY":" ","HOUSE_NO":"３５號十樓之１","E_COORD97":169549.56,"N_COORD97":2542987.8399999999,"ADDRESS":"慶東街３５號十樓之１","OBJECTID":633804},"geometry":{"x":169549.55999999959,"y":2542987.8400000036}},{"attributes":{"ID":633832,"DIS_CODE":0,"TOWNNAME":"東區","LI":"泉南里","LIN":"41鄰","STREET":"慶東街","SECT":" ","MAREA":" ","LANE":" ","ALLEY":" ","HOUSE_NO":"３５號十一樓","E_COORD97":169549.56,"N_COORD97":2542987.8399999999,"ADDRESS":"慶東街３５號十一樓","OBJECTID":633805},"geometry":{"x":169549.55999999959,"y":2542987.8400000036}},{"attributes":{"ID":633833,"DIS_CODE":0,"TOWNNAME":"東區","LI":"泉南里","LIN":"41鄰","STREET":"慶東街","SECT":" ","MAREA":" ","LANE":" ","ALLEY":" ","HOUSE_NO":"３５號十一樓之１","E_COORD97":169549.56,"N_COORD97":2542987.8399999999,"ADDRESS":"慶東街３５號十一樓之１","OBJECTID":633806},"geometry":{"x":169549.55999999959,"y":2542987.8400000036}},{"attributes":{"ID":633834,"DIS_CODE":0,"TOWNNAME":"東區","LI":"泉南里","LIN":"34鄰","STREET":"林森路","SECT":"一段","MAREA":" ","LANE":" ","ALLEY":" ","HOUSE_NO":"１４９號九樓之１０","E_COORD97":169495.73000000001,"N_COORD97":2542552.3999999999,"ADDRESS":"林森路一段１４９號九樓之１０","OBJECTID":633807},"geometry":{"x":169495.73000000138,"y":2542552.4000000004}},{"attributes":{"ID":633835,"DIS_CODE":0,"TOWNNAME":"東區","LI":"泉南里","LIN":"34鄰","STREET":"林森路","SECT":"一段","MAREA":" ","LANE":" ","ALLEY":" ","HOUSE_NO":"１４９號九樓之１１","E_COORD97":169495.73000000001,"N_COORD97":2542552.3999999999,"ADDRESS":"林森路一段１４９號九樓之１１","OBJECTID":633808},"geometry":{"x":169495.73000000138,"y":2542552.4000000004}},{"attributes":{"ID":633836,"DIS_CODE":0,"TOWNNAME":"東區","LI":"泉南里","LIN":"34鄰","STREET":"林森路","SECT":"一段","MAREA":" ","LANE":" ","ALLEY":" ","HOUSE_NO":"１４９號十樓之１０","E_COORD97":169495.73000000001,"N_COORD97":2542552.3999999999,"ADDRESS":"林森路一段１４９號十樓之１０","OBJECTID":633809},"geometry":{"x":169495.73000000138,"y":2542552.4000000004}},{"attributes":{"ID":633837,"DIS_CODE":0,"TOWNNAME":"東區","LI":"泉南里","LIN":"34鄰","STREET":"林森路","SECT":"一段","MAREA":" ","LANE":" ","ALLEY":" ","HOUSE_NO":"１４９號十樓之１１","E_COORD97":169495.73000000001,"N_COORD97":2542552.3999999999,"ADDRESS":"林森路一段１４９號十樓之１１","OBJECTID":633810},"geometry":{"x":169495.73000000138,"y":2542552.4000000004}},{"attributes":{"ID":633838,"DIS_CODE":0,"TOWNNAME":"東區","LI":"泉南里","LIN":"34鄰","STREET":"林森路","SECT":"一段","MAREA":" ","LANE":" ","ALLEY":" ","HOUSE_NO":"１５１號十三樓之１","E_COORD97":169521.72,"N_COORD97":2542559.71,"ADDRESS":"林森路一段１５１號十三樓之１","OBJECTID":633811},"geometry":{"x":169521.71999999974,"y":2542559.7100000028}},{"attributes":{"ID":633839,"DIS_CODE":0,"TOWNNAME":"東區","LI":"圍下里","LIN":"9鄰","STREET":"勝利路","SECT":" ","MAREA":" ","LANE":" ","ALLEY":" ","HOUSE_NO":"８３號二樓","E_COORD97":169792.89000000001,"N_COORD97":2543544.23,"ADDRESS":"勝利路８３號二樓","OBJECTID":633812},"geometry":{"x":169792.88999999966,"y":2543544.2300000004}},{"attributes":{"ID":633840,"DIS_CODE":0,"TOWNNAME":"東區","LI":"泉南里","LIN":"34鄰","STREET":"林森路","SECT":"一段","MAREA":" ","LANE":" ","ALLEY":" ","HOUSE_NO":"１４９號四樓之９","E_COORD97":169495.73000000001,"N_COORD97":2542552.3999999999,"ADDRESS":"林森路一段１４９號四樓之９","OBJECTID":633813},"geometry":{"x":169495.73000000138,"y":2542552.4000000004}},{"attributes":{"ID":633841,"DIS_CODE":0,"TOWNNAME":"東區","LI":"泉南里","LIN":"34鄰","STREET":"林森路","SECT":"一段","MAREA":" ","LANE":" ","ALLEY":" ","HOUSE_NO":"１４９號十二樓之１１","E_COORD97":169495.73000000001,"N_COORD97":2542552.3999999999,"ADDRESS":"林森路一段１４９號十二樓之１１","OBJECTID":633814},"geometry":{"x":169495.73000000138,"y":2542552.4000000004}},{"attributes":{"ID":633842,"DIS_CODE":0,"TOWNNAME":"東區","LI":"圍下里","LIN":"19鄰","STREET":"慶東街","SECT":" ","MAREA":" ","LANE":" ","ALLEY":" ","HOUSE_NO":"１３９號二樓","E_COORD97":169641.28,"N_COORD97":2543463.6699999999,"ADDRESS":"慶東街１３９號二樓","OBJECTID":633815},"geometry":{"x":169641.28000000119,"y":2543463.6700000037}},{"attributes":{"ID":633843,"DIS_CODE":0,"TOWNNAME":"東區","LI":"圍下里","LIN":"19鄰","STREET":"慶東街","SECT":" ","MAREA":" ","LANE":" ","ALLEY":" ","HOUSE_NO":"１３９號四樓","E_COORD97":169641.28,"N_COORD97":2543463.6699999999,"ADDRESS":"慶東街１３９號四樓","OBJECTID":633816},"geometry":{"x":169641.28000000119,"y":2543463.6700000037}},{"attributes":{"ID":633844,"DIS_CODE":0,"TOWNNAME":"東區","LI":"圍下里","LIN":"19鄰","STREET":"慶東街","SECT":" ","MAREA":" ","LANE":" ","ALLEY":" ","HOUSE_NO":"１３９號三樓","E_COORD97":169641.28,"N_COORD97":2543463.6699999999,"ADDRESS":"慶東街１３９號三樓","OBJECTID":633817},"geometry":{"x":169641.28000000119,"y":2543463.6700000037}},{"attributes":{"ID":633845,"DIS_CODE":0,"TOWNNAME":"東區","LI":"忠孝里","LIN":"24鄰","STREET":"崇明四街","SECT":" ","MAREA":" ","LANE":" ","ALLEY":" ","HOUSE_NO":"４６號二樓","E_COORD97":169690.45999999999,"N_COORD97":2542311.4199999999,"ADDRESS":"崇明四街４６號二樓","OBJECTID":633818},"geometry":{"x":169690.46000000089,"y":2542311.4199999999}},{"attributes":{"ID":633846,"DIS_CODE":0,"TOWNNAME":"東區","LI":"圍下里","LIN":"4鄰","STREET":"東榮街","SECT":" ","MAREA":" ","LANE":" ","ALLEY":" ","HOUSE_NO":"１號之４二樓","E_COORD97":169568.35999999999,"N_COORD97":2543502.8999999999,"ADDRESS":"東榮街１號之４二樓","OBJECTID":633819},"geometry":{"x":169568.36000000034,"y":2543502.9000000004}},{"attributes":{"ID":633847,"DIS_CODE":0,"TOWNNAME":"東區","LI":"和平里","LIN":"18鄰","STREET":"仁和路","SECT":" ","MAREA":" ","LANE":" ","ALLEY":" ","HOUSE_NO":"７９號七樓之８","E_COORD97":171251.70000000001,"N_COORD97":2541542.7599999998,"ADDRESS":"仁和路７９號七樓之８","OBJECTID":633820},"geometry":{"x":171251.70000000205,"y":2541542.7599999998}},{"attributes":{"ID":633848,"DIS_CODE":0,"TOWNNAME":"東區","LI":"和平里","LIN":"18鄰","STREET":"仁和路","SECT":" ","MAREA":" ","LANE":" ","ALLEY":" ","HOUSE_NO":"７９號三樓之７","E_COORD97":171251.70000000001,"N_COORD97":2541542.7599999998,"ADDRESS":"仁和路７９號三樓之７","OBJECTID":633821},"geometry":{"x":171251.70000000205,"y":2541542.7599999998}},{"attributes":{"ID":633849,"DIS_CODE":0,"TOWNNAME":"東區","LI":"和平里","LIN":"18鄰","STREET":"仁和路","SECT":" ","MAREA":" ","LANE":" ","ALLEY":" ","HOUSE_NO":"７９號四樓之７","E_COORD97":171251.70000000001,"N_COORD97":2541542.7599999998,"ADDRESS":"仁和路７９號四樓之７","OBJECTID":633822},"geometry":{"x":171251.70000000205,"y":2541542.7599999998}},{"attributes":{"ID":633850,"DIS_CODE":0,"TOWNNAME":"東區","LI":"和平里","LIN":"18鄰","STREET":"仁和路","SECT":" ","MAREA":" ","LANE":" ","ALLEY":" ","HOUSE_NO":"７９號五樓之７","E_COORD97":171251.70000000001,"N_COORD97":2541542.7599999998,"ADDRESS":"仁和路７９號五樓之７","OBJECTID":633823},"geometry":{"x":171251.70000000205,"y":2541542.7599999998}},{"attributes":{"ID":633851,"DIS_CODE":0,"TOWNNAME":"東區","LI":"和平里","LIN":"18鄰","STREET":"仁和路","SECT":" ","MAREA":" ","LANE":" ","ALLEY":" ","HOUSE_NO":"７９號六樓之７","E_COORD97":171251.70000000001,"N_COORD97":2541542.7599999998,"ADDRESS":"仁和路７９號六樓之７","OBJECTID":633824},"geometry":{"x":171251.70000000205,"y":2541542.7599999998}},{"attributes":{"ID":633852,"DIS_CODE":0,"TOWNNAME":"東區","LI":"和平里","LIN":"18鄰","STREET":"仁和路","SECT":" ","MAREA":" ","LANE":" ","ALLEY":" ","HOUSE_NO":"７９號七樓之７","E_COORD97":171251.70000000001,"N_COORD97":2541542.7599999998,"ADDRESS":"仁和路７９號七樓之７","OBJECTID":633825},"geometry":{"x":171251.70000000205,"y":2541542.7599999998}},{"attributes":{"ID":633853,"DIS_CODE":0,"TOWNNAME":"東區","LI":"中西里","LIN":"14鄰","STREET":"東寧路","SECT":" ","MAREA":" ","LANE":" ","ALLEY":" ","HOUSE_NO":"７０號九樓","E_COORD97":170138.82999999999,"N_COORD97":2543586.9500000002,"ADDRESS":"東寧路７０號九樓","OBJECTID":633826},"geometry":{"x":170138.83000000101,"y":2543586.9500000011}},{"attributes":{"ID":633854,"DIS_CODE":0,"TOWNNAME":"東區","LI":"泉南里","LIN":"25鄰","STREET":"樹林街","SECT":"一段","MAREA":" ","LANE":" ","ALLEY":" ","HOUSE_NO":"７７號三樓","E_COORD97":169523.60999999999,"N_COORD97":2542949.1099999999,"ADDRESS":"樹林街一段７７號三樓","OBJECTID":633827},"geometry":{"x":169523.61000000127,"y":2542949.1100000013}},{"attributes":{"ID":633855,"DIS_CODE":0,"TOWNNAME":"善化區","LI":"坐駕里","LIN":"17鄰","STREET":"文化路","SECT":" ","MAREA":" ","LANE":" ","ALLEY":" ","HOUSE_NO":"６號七樓之３","E_COORD97":177970.09,"N_COORD97":2558361.29,"ADDRESS":"文化路６號七樓之３","OBJECTID":633828},"geometry":{"x":177970.09000000171,"y":2558361.2899999991}},{"attributes":{"ID":633856,"DIS_CODE":0,"TOWNNAME":"東區","LI":"泉南里","LIN":"2鄰","STREET":"府東街","SECT":" ","MAREA":" ","LANE":" ","ALLEY":" ","HOUSE_NO":"２３６號二樓","E_COORD97":169371.76999999999,"N_COORD97":2543117.6800000002,"ADDRESS":"府東街２３６號二樓","OBJECTID":633829},"geometry":{"x":169371.76999999955,"y":2543117.6800000034}},{"attributes":{"ID":633857,"DIS_CODE":0,"TOWNNAME":"東區","LI":"泉南里","LIN":"2鄰","STREET":"府東街","SECT":" ","MAREA":" ","LANE":" ","ALLEY":" ","HOUSE_NO":"２３８號二樓","E_COORD97":169363.92999999999,"N_COORD97":2543121.0299999998,"ADDRESS":"府東街２３８號二樓","OBJECTID":633830},"geometry":{"x":169363.9299999997,"y":2543121.0299999993}},{"attributes":{"ID":633858,"DIS_CODE":0,"TOWNNAME":"東區","LI":"泉南里","LIN":"2鄰","STREET":"府東街","SECT":" ","MAREA":" ","LANE":" ","ALLEY":" ","HOUSE_NO":"２１７號二樓","E_COORD97":169371.17999999999,"N_COORD97":2543078.7400000002,"ADDRESS":"府東街２１７號二樓","OBJECTID":633831},"geometry":{"x":169371.17999999877,"y":2543078.7400000002}},{"attributes":{"ID":633859,"DIS_CODE":0,"TOWNNAME":"東區","LI":"泉南里","LIN":"2鄰","STREET":"府東街","SECT":" ","MAREA":" ","LANE":" ","ALLEY":" ","HOUSE_NO":"２１７號三樓","E_COORD97":169371.17999999999,"N_COORD97":2543078.7400000002,"ADDRESS":"府東街２１７號三樓","OBJECTID":633832},"geometry":{"x":169371.17999999877,"y":2543078.7400000002}},{"attributes":{"ID":633860,"DIS_CODE":0,"TOWNNAME":"安南區","LI":"溪北里","LIN":"24鄰","STREET":"敬安街","SECT":" ","MAREA":" ","LANE":" ","ALLEY":" ","HOUSE_NO":"３號九樓","E_COORD97":169164.79000000001,"N_COORD97":2547590.3700000001,"ADDRESS":"敬安街３號九樓","OBJECTID":633833},"geometry":{"x":169164.79000000097,"y":2547590.3700000029}},{"attributes":{"ID":633861,"DIS_CODE":0,"TOWNNAME":"東區","LI":"泉南里","LIN":"2鄰","STREET":"府東街","SECT":" ","MAREA":" ","LANE":" ","ALLEY":" ","HOUSE_NO":"２１７號四樓","E_COORD97":169371.17999999999,"N_COORD97":2543078.7400000002,"ADDRESS":"府東街２１７號四樓","OBJECTID":633834},"geometry":{"x":169371.17999999877,"y":2543078.7400000002}},{"attributes":{"ID":633862,"DIS_CODE":0,"TOWNNAME":"東區","LI":"泉南里","LIN":"25鄰","STREET":"樹林街","SECT":"一段","MAREA":" ","LANE":" ","ALLEY":" ","HOUSE_NO":"７１號三樓","E_COORD97":169540.5,"N_COORD97":2542944.52,"ADDRESS":"樹林街一段７１號三樓","OBJECTID":633835},"geometry":{"x":169540.49999999907,"y":2542944.5199999996}},{"attributes":{"ID":633863,"DIS_CODE":0,"TOWNNAME":"東區","LI":"泉南里","LIN":"25鄰","STREET":"樹林街","SECT":"一段","MAREA":" ","LANE":" ","ALLEY":" ","HOUSE_NO":"７１號四樓","E_COORD97":169540.5,"N_COORD97":2542944.52,"ADDRESS":"樹林街一段７１號四樓","OBJECTID":633836},"geometry":{"x":169540.49999999907,"y":2542944.5199999996}},{"attributes":{"ID":633864,"DIS_CODE":0,"TOWNNAME":"永康區","LI":"大橋里","LIN":"4鄰","STREET":"大橋五街","SECT":" ","MAREA":" ","LANE":" ","ALLEY":" ","HOUSE_NO":"１３９號九樓之５","E_COORD97":170948.53,"N_COORD97":2546995.54,"ADDRESS":"大橋五街１３９號九樓之５","OBJECTID":633837},"geometry":{"x":170948.53000000119,"y":2546995.5399999991}},{"attributes":{"ID":633865,"DIS_CODE":0,"TOWNNAME":"永康區","LI":"大橋里","LIN":"4鄰","STREET":"大橋五街","SECT":" ","MAREA":" ","LANE":" ","ALLEY":" ","HOUSE_NO":"１２３號五樓","E_COORD97":170932.59,"N_COORD97":2546976.8700000001,"ADDRESS":"大橋五街１２３號五樓","OBJECTID":633838},"geometry":{"x":170932.58999999985,"y":2546976.8700000029}},{"attributes":{"ID":633866,"DIS_CODE":0,"TOWNNAME":"永康區","LI":"大橋里","LIN":"4鄰","STREET":"大橋五街","SECT":" ","MAREA":" ","LANE":" ","ALLEY":" ","HOUSE_NO":"１３９號五樓之３","E_COORD97":170948.47,"N_COORD97":2546995.54,"ADDRESS":"大橋五街１３９號五樓之３","OBJECTID":633839},"geometry":{"x":170948.46999999974,"y":2546995.5399999991}},{"attributes":{"ID":633867,"DIS_CODE":0,"TOWNNAME":"永康區","LI":"大橋里","LIN":"4鄰","STREET":"大橋五街","SECT":" ","MAREA":" ","LANE":" ","ALLEY":" ","HOUSE_NO":"１３７號四樓之５","E_COORD97":170961.94,"N_COORD97":2546977.6699999999,"ADDRESS":"大橋五街１３７號四樓之５","OBJECTID":633840},"geometry":{"x":170961.93999999948,"y":2546977.6700000018}},{"attributes":{"ID":633868,"DIS_CODE":0,"TOWNNAME":"永康區","LI":"大橋里","LIN":"4鄰","STREET":"大橋五街","SECT":" ","MAREA":" ","LANE":" ","ALLEY":" ","HOUSE_NO":"１３７號四樓之３","E_COORD97":170961.88,"N_COORD97":2546977.6699999999,"ADDRESS":"大橋五街１３７號四樓之３","OBJECTID":633841},"geometry":{"x":170961.88000000175,"y":2546977.6700000018}},{"attributes":{"ID":633869,"DIS_CODE":0,"TOWNNAME":"永康區","LI":"五王里","LIN":"20鄰","STREET":"成功路","SECT":" ","MAREA":" ","LANE":" ","ALLEY":" ","HOUSE_NO":"１２１號五樓之１","E_COORD97":171408.35999999999,"N_COORD97":2545647.54,"ADDRESS":"成功路１２１號五樓之１","OBJECTID":633842},"geometry":{"x":171408.3600000022,"y":2545647.540000001}},{"attributes":{"ID":633870,"DIS_CODE":0,"TOWNNAME":"永康區","LI":"大橋里","LIN":"4鄰","STREET":"大橋五街","SECT":" ","MAREA":" ","LANE":" ","ALLEY":" ","HOUSE_NO":"１３７號七樓之３","E_COORD97":170961.88,"N_COORD97":2546977.6699999999,"ADDRESS":"大橋五街１３７號七樓之３","OBJECTID":633843},"geometry":{"x":170961.88000000175,"y":2546977.6700000018}},{"attributes":{"ID":633871,"DIS_CODE":0,"TOWNNAME":"永康區","LI":"大橋里","LIN":"4鄰","STREET":"大橋五街","SECT":" ","MAREA":" ","LANE":" ","ALLEY":" ","HOUSE_NO":"１２７號六樓","E_COORD97":170921.51000000001,"N_COORD97":2546990.25,"ADDRESS":"大橋五街１２７號六樓","OBJECTID":633844},"geometry":{"x":170921.50999999978,"y":2546990.2500000019}},{"attributes":{"ID":633872,"DIS_CODE":0,"TOWNNAME":"永康區","LI":"大橋里","LIN":"4鄰","STREET":"大橋五街","SECT":" ","MAREA":" ","LANE":" ","ALLEY":" ","HOUSE_NO":"１３７號五樓之３","E_COORD97":170961.88,"N_COORD97":2546977.6699999999,"ADDRESS":"大橋五街１３７號五樓之３","OBJECTID":633845},"geometry":{"x":170961.88000000175,"y":2546977.6700000018}},{"attributes":{"ID":633873,"DIS_CODE":0,"TOWNNAME":"永康區","LI":"大橋里","LIN":"4鄰","STREET":"大橋五街","SECT":" ","MAREA":" ","LANE":" ","ALLEY":" ","HOUSE_NO":"１２７號四樓","E_COORD97":170921.51000000001,"N_COORD97":2546990.25,"ADDRESS":"大橋五街１２７號四樓","OBJECTID":633846},"geometry":{"x":170921.50999999978,"y":2546990.2500000019}},{"attributes":{"ID":633874,"DIS_CODE":0,"TOWNNAME":"永康區","LI":"大橋里","LIN":"4鄰","STREET":"大橋五街","SECT":" ","MAREA":" ","LANE":" ","ALLEY":" ","HOUSE_NO":"１２９號六樓","E_COORD97":170927.35000000001,"N_COORD97":2546992.5,"ADDRESS":"大橋五街１２９號六樓","OBJECTID":633847},"geometry":{"x":170927.34999999963,"y":2546992.5000000019}},{"attributes":{"ID":633875,"DIS_CODE":0,"TOWNNAME":"永康區","LI":"大橋里","LIN":"4鄰","STREET":"大橋五街","SECT":" ","MAREA":" ","LANE":" ","ALLEY":" ","HOUSE_NO":"１３７號六樓之３","E_COORD97":170961.88,"N_COORD97":2546977.6699999999,"ADDRESS":"大橋五街１３７號六樓之３","OBJECTID":633848},"geometry":{"x":170961.88000000175,"y":2546977.6700000018}},{"attributes":{"ID":633876,"DIS_CODE":0,"TOWNNAME":"永康區","LI":"大橋里","LIN":"4鄰","STREET":"大橋五街","SECT":" ","MAREA":" ","LANE":" ","ALLEY":" ","HOUSE_NO":"９３號五樓之１","E_COORD97":170877.06,"N_COORD97":2546938.3300000001,"ADDRESS":"大橋五街９３號五樓之１","OBJECTID":633849},"geometry":{"x":170877.05999999959,"y":2546938.3300000019}},{"attributes":{"ID":633877,"DIS_CODE":0,"TOWNNAME":"永康區","LI":"大橋里","LIN":"4鄰","STREET":"大橋五街","SECT":" ","MAREA":" ","LANE":" ","ALLEY":" ","HOUSE_NO":"９３號四樓之１","E_COORD97":170877.06,"N_COORD97":2546938.3300000001,"ADDRESS":"大橋五街９３號四樓之１","OBJECTID":633850},"geometry":{"x":170877.05999999959,"y":2546938.3300000019}},{"attributes":{"ID":633878,"DIS_CODE":0,"TOWNNAME":"永康區","LI":"大橋里","LIN":"4鄰","STREET":"大橋五街","SECT":" ","MAREA":" ","LANE":" ","ALLEY":" ","HOUSE_NO":"１４３號三樓之３","E_COORD97":170978.78,"N_COORD97":2546989.3599999999,"ADDRESS":"大橋五街１４３號三樓之３","OBJECTID":633851},"geometry":{"x":170978.78000000119,"y":2546989.3600000013}},{"attributes":{"ID":633879,"DIS_CODE":0,"TOWNNAME":"永康區","LI":"大橋里","LIN":"18鄰","STREET":"大橋二街","SECT":" ","MAREA":" ","LANE":" ","ALLEY":" ","HOUSE_NO":"１６８號七樓","E_COORD97":171074.64999999999,"N_COORD97":2546755.2000000002,"ADDRESS":"大橋二街１６８號七樓","OBJECTID":633852},"geometry":{"x":171074.6500000013,"y":2546755.2000000011}},{"attributes":{"ID":633880,"DIS_CODE":0,"TOWNNAME":"永康區","LI":"五王里","LIN":"20鄰","STREET":"成功路","SECT":" ","MAREA":" ","LANE":" ","ALLEY":" ","HOUSE_NO":"１２１號二樓之２","E_COORD97":171408.5,"N_COORD97":2545647.54,"ADDRESS":"成功路１２１號二樓之２","OBJECTID":633853},"geometry":{"x":171408.5,"y":2545647.540000001}},{"attributes":{"ID":633881,"DIS_CODE":0,"TOWNNAME":"永康區","LI":"大橋里","LIN":"4鄰","STREET":"大橋五街","SECT":" ","MAREA":" ","LANE":" ","ALLEY":" ","HOUSE_NO":"１４１號四樓之２","E_COORD97":170968.88,"N_COORD97":2547008.29,"ADDRESS":"大橋五街１４１號四樓之２","OBJECTID":633854},"geometry":{"x":170968.88000000082,"y":2547008.2900000028}},{"attributes":{"ID":633882,"DIS_CODE":0,"TOWNNAME":"永康區","LI":"大橋里","LIN":"4鄰","STREET":"大橋五街","SECT":" ","MAREA":" ","LANE":" ","ALLEY":" ","HOUSE_NO":"１４３號二樓之３","E_COORD97":170978.78,"N_COORD97":2546989.3599999999,"ADDRESS":"大橋五街１４３號二樓之３","OBJECTID":633855},"geometry":{"x":170978.78000000119,"y":2546989.3600000013}},{"attributes":{"ID":633883,"DIS_CODE":0,"TOWNNAME":"永康區","LI":"大橋里","LIN":"4鄰","STREET":"大橋五街","SECT":" ","MAREA":" ","LANE":" ","ALLEY":" ","HOUSE_NO":"１７號五樓之１","E_COORD97":170789.45999999999,"N_COORD97":2546868.9199999999,"ADDRESS":"大橋五街１７號五樓之１","OBJECTID":633856},"geometry":{"x":170789.45999999996,"y":2546868.9199999999}},{"attributes":{"ID":633884,"DIS_CODE":0,"TOWNNAME":"東區","LI":"和平里","LIN":"11鄰","STREET":"仁和路","SECT":" ","MAREA":" ","LANE":" ","ALLEY":" ","HOUSE_NO":"９５號四樓","E_COORD97":171315.45999999999,"N_COORD97":2541408.8900000001,"ADDRESS":"仁和路９５號四樓","OBJECTID":633857},"geometry":{"x":171315.45999999996,"y":2541408.8900000025}},{"attributes":{"ID":633885,"DIS_CODE":0,"TOWNNAME":"永康區","LI":"大橋里","LIN":"4鄰","STREET":"大橋五街","SECT":" ","MAREA":" ","LANE":" ","ALLEY":" ","HOUSE_NO":"１４３號十樓之５","E_COORD97":170978.84,"N_COORD97":2546989.3599999999,"ADDRESS":"大橋五街１４３號十樓之５","OBJECTID":633858},"geometry":{"x":170978.83999999985,"y":2546989.3600000013}},{"attributes":{"ID":633886,"DIS_CODE":0,"TOWNNAME":"永康區","LI":"大橋里","LIN":"4鄰","STREET":"大橋五街","SECT":" ","MAREA":" ","LANE":" ","ALLEY":" ","HOUSE_NO":"１４３號八樓之３","E_COORD97":170978.78,"N_COORD97":2546989.3599999999,"ADDRESS":"大橋五街１４３號八樓之３","OBJECTID":633859},"geometry":{"x":170978.78000000119,"y":2546989.3600000013}},{"attributes":{"ID":633887,"DIS_CODE":0,"TOWNNAME":"永康區","LI":"大橋里","LIN":"4鄰","STREET":"大橋五街","SECT":" ","MAREA":" ","LANE":" ","ALLEY":" ","HOUSE_NO":"１４３號四樓之３","E_COORD97":170978.78,"N_COORD97":2546989.3599999999,"ADDRESS":"大橋五街１４３號四樓之３","OBJECTID":633860},"geometry":{"x":170978.78000000119,"y":2546989.3600000013}},{"attributes":{"ID":633888,"DIS_CODE":0,"TOWNNAME":"東區","LI":"崇成里","LIN":"1鄰","STREET":"崇道路","SECT":" ","MAREA":" ","LANE":" ","ALLEY":" ","HOUSE_NO":"９４號五樓","E_COORD97":170847.25,"N_COORD97":2541383.2999999998,"ADDRESS":"崇道路９４號五樓","OBJECTID":633861},"geometry":{"x":170847.25,"y":2541383.3000000026}},{"attributes":{"ID":633889,"DIS_CODE":0,"TOWNNAME":"永康區","LI":"大橋里","LIN":"4鄰","STREET":"大橋五街","SECT":" ","MAREA":" ","LANE":" ","ALLEY":" ","HOUSE_NO":"１４１號十樓之５","E_COORD97":170968.89999999999,"N_COORD97":2547008.29,"ADDRESS":"大橋五街１４１號十樓之５","OBJECTID":633862},"geometry":{"x":170968.90000000037,"y":2547008.2900000028}},{"attributes":{"ID":633890,"DIS_CODE":0,"TOWNNAME":"永康區","LI":"大橋里","LIN":"4鄰","STREET":"大橋五街","SECT":" ","MAREA":" ","LANE":" ","ALLEY":" ","HOUSE_NO":"１４３號六樓之１","E_COORD97":170978.67999999999,"N_COORD97":2546989.3599999999,"ADDRESS":"大橋五街１４３號六樓之１","OBJECTID":633863},"geometry":{"x":170978.68000000063,"y":2546989.3600000013}},{"attributes":{"ID":633891,"DIS_CODE":0,"TOWNNAME":"永康區","LI":"大橋里","LIN":"4鄰","STREET":"大橋五街","SECT":" ","MAREA":" ","LANE":" ","ALLEY":" ","HOUSE_NO":"１４３號八樓之１","E_COORD97":170978.67999999999,"N_COORD97":2546989.3599999999,"ADDRESS":"大橋五街１４３號八樓之１","OBJECTID":633864},"geometry":{"x":170978.68000000063,"y":2546989.3600000013}},{"attributes":{"ID":633892,"DIS_CODE":0,"TOWNNAME":"永康區","LI":"大橋里","LIN":"4鄰","STREET":"大橋五街","SECT":" ","MAREA":" ","LANE":" ","ALLEY":" ","HOUSE_NO":"１４１號六樓之１","E_COORD97":170968.73999999999,"N_COORD97":2547008.29,"ADDRESS":"大橋五街１４１號六樓之１","OBJECTID":633865},"geometry":{"x":170968.74000000115,"y":2547008.2900000028}},{"attributes":{"ID":633893,"DIS_CODE":0,"TOWNNAME":"永康區","LI":"大橋里","LIN":"4鄰","STREET":"大橋五街","SECT":" ","MAREA":" ","LANE":" ","ALLEY":" ","HOUSE_NO":"１３７號八樓之２","E_COORD97":170961.92000000001,"N_COORD97":2546977.6699999999,"ADDRESS":"大橋五街１３７號八樓之２","OBJECTID":633866},"geometry":{"x":170961.92000000086,"y":2546977.6700000018}},{"attributes":{"ID":633894,"DIS_CODE":0,"TOWNNAME":"永康區","LI":"大橋里","LIN":"4鄰","STREET":"大橋五街","SECT":" ","MAREA":" ","LANE":" ","ALLEY":" ","HOUSE_NO":"１４１號六樓之５","E_COORD97":170968.89999999999,"N_COORD97":2547008.29,"ADDRESS":"大橋五街１４１號六樓之５","OBJECTID":633867},"geometry":{"x":170968.90000000037,"y":2547008.2900000028}},{"attributes":{"ID":633895,"DIS_CODE":0,"TOWNNAME":"永康區","LI":"大橋里","LIN":"4鄰","STREET":"大橋五街","SECT":" ","MAREA":" ","LANE":" ","ALLEY":" ","HOUSE_NO":"１３９號八樓之３","E_COORD97":170948.47,"N_COORD97":2546995.54,"ADDRESS":"大橋五街１３９號八樓之３","OBJECTID":633868},"geometry":{"x":170948.46999999974,"y":2546995.5399999991}},{"attributes":{"ID":633896,"DIS_CODE":0,"TOWNNAME":"永康區","LI":"大橋里","LIN":"4鄰","STREET":"大橋五街","SECT":" ","MAREA":" ","LANE":" ","ALLEY":" ","HOUSE_NO":"１３９號九樓之２","E_COORD97":170948.51000000001,"N_COORD97":2546995.54,"ADDRESS":"大橋五街１３９號九樓之２","OBJECTID":633869},"geometry":{"x":170948.50999999978,"y":2546995.5399999991}},{"attributes":{"ID":633897,"DIS_CODE":0,"TOWNNAME":"永康區","LI":"大橋里","LIN":"4鄰","STREET":"大橋五街","SECT":" ","MAREA":" ","LANE":" ","ALLEY":" ","HOUSE_NO":"１６３號六樓","E_COORD97":171017.16,"N_COORD97":2547015.5,"ADDRESS":"大橋五街１６３號六樓","OBJECTID":633870},"geometry":{"x":171017.16000000015,"y":2547015.5000000019}},{"attributes":{"ID":633898,"DIS_CODE":0,"TOWNNAME":"永康區","LI":"大橋里","LIN":"4鄰","STREET":"大橋五街","SECT":" ","MAREA":" ","LANE":" ","ALLEY":" ","HOUSE_NO":"１６３號三樓","E_COORD97":171017.16,"N_COORD97":2547015.5,"ADDRESS":"大橋五街１６３號三樓","OBJECTID":633871},"geometry":{"x":171017.16000000015,"y":2547015.5000000019}},{"attributes":{"ID":633899,"DIS_CODE":0,"TOWNNAME":"永康區","LI":"大橋里","LIN":"14鄰","STREET":"大橋一街","SECT":" ","MAREA":" ","LANE":" ","ALLEY":" ","HOUSE_NO":"６１號五樓之２","E_COORD97":170895.84,"N_COORD97":2546426.5499999998,"ADDRESS":"大橋一街６１號五樓之２","OBJECTID":633872},"geometry":{"x":170895.83999999985,"y":2546426.5500000026}},{"attributes":{"ID":633900,"DIS_CODE":0,"TOWNNAME":"永康區","LI":"大橋里","LIN":"14鄰","STREET":"大橋二街","SECT":" ","MAREA":" ","LANE":" ","ALLEY":" ","HOUSE_NO":"２４號七樓之２","E_COORD97":170777.62,"N_COORD97":2546536,"ADDRESS":"大橋二街２４號七樓之２","OBJECTID":633873},"geometry":{"x":170777.62000000104,"y":2546536}},{"attributes":{"ID":633901,"DIS_CODE":0,"TOWNNAME":"永康區","LI":"大橋里","LIN":"14鄰","STREET":"大橋一街","SECT":" ","MAREA":" ","LANE":" ","ALLEY":" ","HOUSE_NO":"６１號五樓之１","E_COORD97":170895.70000000001,"N_COORD97":2546426.5499999998,"ADDRESS":"大橋一街６１號五樓之１","OBJECTID":633874},"geometry":{"x":170895.70000000205,"y":2546426.5500000026}},{"attributes":{"ID":633902,"DIS_CODE":0,"TOWNNAME":"永康區","LI":"大橋里","LIN":"4鄰","STREET":"大橋五街","SECT":" ","MAREA":" ","LANE":" ","ALLEY":" ","HOUSE_NO":"１７號四樓之２","E_COORD97":170789.59,"N_COORD97":2546868.9199999999,"ADDRESS":"大橋五街１７號四樓之２","OBJECTID":633875},"geometry":{"x":170789.59000000078,"y":2546868.9199999999}},{"attributes":{"ID":633903,"DIS_CODE":0,"TOWNNAME":"永康區","LI":"大橋里","LIN":"4鄰","STREET":"大橋五街","SECT":" ","MAREA":" ","LANE":" ","ALLEY":" ","HOUSE_NO":"２５號四樓之３","E_COORD97":170809.13,"N_COORD97":2546878.0600000001,"ADDRESS":"大橋五街２５號四樓之３","OBJECTID":633876},"geometry":{"x":170809.12999999989,"y":2546878.0600000005}},{"attributes":{"ID":633904,"DIS_CODE":0,"TOWNNAME":"永康區","LI":"大橋里","LIN":"4鄰","STREET":"大橋五街","SECT":" ","MAREA":" ","LANE":" ","ALLEY":" ","HOUSE_NO":"９３號二樓之２","E_COORD97":170877.19,"N_COORD97":2546938.3300000001,"ADDRESS":"大橋五街９３號二樓之２","OBJECTID":633877},"geometry":{"x":170877.18999999948,"y":2546938.3300000019}},{"attributes":{"ID":633905,"DIS_CODE":0,"TOWNNAME":"永康區","LI":"大橋里","LIN":"18鄰","STREET":"大橋二街","SECT":" ","MAREA":" ","LANE":" ","ALLEY":" ","HOUSE_NO":"１７２號四樓","E_COORD97":171084.89000000001,"N_COORD97":2546737.79,"ADDRESS":"大橋二街１７２號四樓","OBJECTID":633878},"geometry":{"x":171084.88999999966,"y":2546737.790000001}},{"attributes":{"ID":633906,"DIS_CODE":0,"TOWNNAME":"永康區","LI":"大橋里","LIN":"14鄰","STREET":"大橋二街","SECT":" ","MAREA":" ","LANE":" ","ALLEY":" ","HOUSE_NO":"２４號七樓之１","E_COORD97":170777.48999999999,"N_COORD97":2546536,"ADDRESS":"大橋二街２４號七樓之１","OBJECTID":633879},"geometry":{"x":170777.49000000115,"y":2546536}},{"attributes":{"ID":633907,"DIS_CODE":0,"TOWNNAME":"永康區","LI":"復國里","LIN":"20鄰","STREET":"國華街","SECT":" ","MAREA":" ","LANE":" ","ALLEY":" ","HOUSE_NO":"５５號十四樓之３","E_COORD97":172800.76999999999,"N_COORD97":2545761.4199999999,"ADDRESS":"國華街５５號十四樓之３","OBJECTID":633880},"geometry":{"x":172800.76999999955,"y":2545761.4200000018}},{"attributes":{"ID":633908,"DIS_CODE":0,"TOWNNAME":"永康區","LI":"復國里","LIN":"20鄰","STREET":"國華街","SECT":" ","MAREA":" ","LANE":" ","ALLEY":" ","HOUSE_NO":"５９號十三樓之２","E_COORD97":172824.79999999999,"N_COORD97":2545757.4199999999,"ADDRESS":"國華街５９號十三樓之２","OBJECTID":633881},"geometry":{"x":172824.79999999981,"y":2545757.4200000037}},{"attributes":{"ID":633909,"DIS_CODE":0,"TOWNNAME":"仁德區","LI":"仁義里","LIN":"34鄰","STREET":"正義二街","SECT":" ","MAREA":" ","LANE":" ","ALLEY":" ","HOUSE_NO":"１６２號四樓","E_COORD97":173824.79000000001,"N_COORD97":2541580.27,"ADDRESS":"正義二街１６２號四樓","OBJECTID":633882},"geometry":{"x":173824.79000000097,"y":2541580.2699999996}},{"attributes":{"ID":633910,"DIS_CODE":0,"TOWNNAME":"仁德區","LI":"仁義里","LIN":"34鄰","STREET":"正義二街","SECT":" ","MAREA":" ","LANE":" ","ALLEY":" ","HOUSE_NO":"１５５號六樓","E_COORD97":173817.62,"N_COORD97":2541598.2599999998,"ADDRESS":"正義二街１５５號六樓","OBJECTID":633883},"geometry":{"x":173817.62000000104,"y":2541598.2600000035}},{"attributes":{"ID":633911,"DIS_CODE":0,"TOWNNAME":"仁德區","LI":"成功里","LIN":"26鄰","STREET":"成功一街","SECT":" ","MAREA":" ","LANE":" ","ALLEY":" ","HOUSE_NO":"４８號二樓","E_COORD97":170524.34,"N_COORD97":2540017.52,"ADDRESS":"成功一街４８號二樓","OBJECTID":633884},"geometry":{"x":170524.33999999985,"y":2540017.5200000014}},{"attributes":{"ID":633912,"DIS_CODE":0,"TOWNNAME":"仁德區","LI":"成功里","LIN":"5鄰","STREET":"成功三街","SECT":" ","MAREA":" ","LANE":" ","ALLEY":" ","HOUSE_NO":"３４號三樓","E_COORD97":171166.04000000001,"N_COORD97":2539953.0099999998,"ADDRESS":"成功三街３４號三樓","OBJECTID":633885},"geometry":{"x":171166.0400000019,"y":2539953.0100000016}},{"attributes":{"ID":633913,"DIS_CODE":0,"TOWNNAME":"仁德區","LI":"成功里","LIN":"26鄰","STREET":"成功一街","SECT":" ","MAREA":" ","LANE":" ","ALLEY":" ","HOUSE_NO":"４８號四樓","E_COORD97":170524.34,"N_COORD97":2540017.52,"ADDRESS":"成功一街４８號四樓","OBJECTID":633886},"geometry":{"x":170524.33999999985,"y":2540017.5200000014}},{"attributes":{"ID":633914,"DIS_CODE":0,"TOWNNAME":"仁德區","LI":"成功里","LIN":"26鄰","STREET":"成功一街","SECT":" ","MAREA":" ","LANE":" ","ALLEY":" ","HOUSE_NO":"４６號六樓","E_COORD97":170524.29000000001,"N_COORD97":2540026.52,"ADDRESS":"成功一街４６號六樓","OBJECTID":633887},"geometry":{"x":170524.29000000097,"y":2540026.5200000033}},{"attributes":{"ID":633915,"DIS_CODE":0,"TOWNNAME":"仁德區","LI":"仁義里","LIN":"34鄰","STREET":"正義二街","SECT":" ","MAREA":" ","LANE":" ","ALLEY":" ","HOUSE_NO":"１５５號七樓","E_COORD97":173817.62,"N_COORD97":2541598.2599999998,"ADDRESS":"正義二街１５５號七樓","OBJECTID":633888},"geometry":{"x":173817.62000000104,"y":2541598.2600000035}},{"attributes":{"ID":633916,"DIS_CODE":0,"TOWNNAME":"善化區","LI":"東關里","LIN":"14鄰","STREET":"中和街","SECT":" ","MAREA":" ","LANE":" ","ALLEY":" ","HOUSE_NO":"２８號三樓","E_COORD97":177399.26999999999,"N_COORD97":2558998.9399999999,"ADDRESS":"中和街２８號三樓","OBJECTID":633889},"geometry":{"x":177399.27000000048,"y":2558998.9399999995}},{"attributes":{"ID":633917,"DIS_CODE":0,"TOWNNAME":"善化區","LI":"東關里","LIN":"7鄰","STREET":"中華路","SECT":" ","MAREA":" ","LANE":" ","ALLEY":" ","HOUSE_NO":"１５２號二樓","E_COORD97":177231.95999999999,"N_COORD97":2559083.6400000001,"ADDRESS":"中華路１５２號二樓","OBJECTID":633890},"geometry":{"x":177231.96000000183,"y":2559083.6400000006}},{"attributes":{"ID":633918,"DIS_CODE":0,"TOWNNAME":"善化區","LI":"東關里","LIN":"7鄰","STREET":"中華路","SECT":" ","MAREA":" ","LANE":" ","ALLEY":" ","HOUSE_NO":"１５２號三樓","E_COORD97":177231.95999999999,"N_COORD97":2559083.6400000001,"ADDRESS":"中華路１５２號三樓","OBJECTID":633891},"geometry":{"x":177231.96000000183,"y":2559083.6400000006}},{"attributes":{"ID":633919,"DIS_CODE":0,"TOWNNAME":"善化區","LI":"東關里","LIN":"7鄰","STREET":"中華路","SECT":" ","MAREA":" ","LANE":" ","ALLEY":" ","HOUSE_NO":"１５２號四樓","E_COORD97":177231.95999999999,"N_COORD97":2559083.6400000001,"ADDRESS":"中華路１５２號四樓","OBJECTID":633892},"geometry":{"x":177231.96000000183,"y":2559083.6400000006}},{"attributes":{"ID":633920,"DIS_CODE":0,"TOWNNAME":"善化區","LI":"東關里","LIN":"7鄰","STREET":"中華路","SECT":" ","MAREA":" ","LANE":" ","ALLEY":" ","HOUSE_NO":"１５２號五樓","E_COORD97":177231.95999999999,"N_COORD97":2559083.6400000001,"ADDRESS":"中華路１５２號五樓","OBJECTID":633893},"geometry":{"x":177231.96000000183,"y":2559083.6400000006}},{"attributes":{"ID":633921,"DIS_CODE":0,"TOWNNAME":"善化區","LI":"光文里","LIN":"29鄰","STREET":"公園路","SECT":" ","MAREA":" ","LANE":" ","ALLEY":" ","HOUSE_NO":"２５３號十一樓之９","E_COORD97":177716.67999999999,"N_COORD97":2559128.1299999999,"ADDRESS":"公園路２５３號十一樓之９","OBJECTID":633894},"geometry":{"x":177716.68000000156,"y":2559128.129999999}},{"attributes":{"ID":633922,"DIS_CODE":0,"TOWNNAME":"善化區","LI":"光文里","LIN":"29鄰","STREET":"公園路","SECT":" ","MAREA":" ","LANE":" ","ALLEY":" ","HOUSE_NO":"２５３號十二樓之１","E_COORD97":177716.67999999999,"N_COORD97":2559128.1299999999,"ADDRESS":"公園路２５３號十二樓之１","OBJECTID":633895},"geometry":{"x":177716.68000000156,"y":2559128.129999999}},{"attributes":{"ID":633923,"DIS_CODE":0,"TOWNNAME":"善化區","LI":"光文里","LIN":"29鄰","STREET":"公園路","SECT":" ","MAREA":" ","LANE":" ","ALLEY":" ","HOUSE_NO":"２５３號十二樓之２","E_COORD97":177716.67999999999,"N_COORD97":2559128.1299999999,"ADDRESS":"公園路２５３號十二樓之２","OBJECTID":633896},"geometry":{"x":177716.68000000156,"y":2559128.129999999}},{"attributes":{"ID":633924,"DIS_CODE":0,"TOWNNAME":"東區","LI":"中西里","LIN":"8鄰","STREET":"勝利路","SECT":" ","MAREA":" ","LANE":" ","ALLEY":" ","HOUSE_NO":"５０號七樓","E_COORD97":169830.25,"N_COORD97":2543536.9100000001,"ADDRESS":"勝利路５０號七樓","OBJECTID":633897},"geometry":{"x":169830.25,"y":2543536.9100000039}},{"attributes":{"ID":633925,"DIS_CODE":0,"TOWNNAME":"中西區","LI":"保安里","LIN":"14鄰","STREET":"康樂街","SECT":" ","MAREA":" ","LANE":" ","ALLEY":" ","HOUSE_NO":"１０２號二樓","E_COORD97":167440.75,"N_COORD97":2543732.3500000001,"ADDRESS":"康樂街１０２號二樓","OBJECTID":633898},"geometry":{"x":167440.75000000093,"y":2543732.3499999996}},{"attributes":{"ID":633926,"DIS_CODE":0,"TOWNNAME":"中西區","LI":"保安里","LIN":"12鄰","STREET":"國華街","SECT":"二段","MAREA":" ","LANE":" ","ALLEY":" ","HOUSE_NO":"１５９號二樓","E_COORD97":167684.60999999999,"N_COORD97":2543644.5299999998,"ADDRESS":"國華街二段１５９號二樓","OBJECTID":633899},"geometry":{"x":167684.61000000127,"y":2543644.5300000012}},{"attributes":{"ID":633927,"DIS_CODE":0,"TOWNNAME":"中西區","LI":"保安里","LIN":"12鄰","STREET":"國華街","SECT":"二段","MAREA":" ","LANE":" ","ALLEY":" ","HOUSE_NO":"１５９號三樓","E_COORD97":167684.60999999999,"N_COORD97":2543644.5299999998,"ADDRESS":"國華街二段１５９號三樓","OBJECTID":633900},"geometry":{"x":167684.61000000127,"y":2543644.5300000012}},{"attributes":{"ID":633928,"DIS_CODE":0,"TOWNNAME":"中西區","LI":"保安里","LIN":"12鄰","STREET":"國華街","SECT":"二段","MAREA":" ","LANE":" ","ALLEY":" ","HOUSE_NO":"１５９號五樓","E_COORD97":167684.60999999999,"N_COORD97":2543644.5299999998,"ADDRESS":"國華街二段１５９號五樓","OBJECTID":633901},"geometry":{"x":167684.61000000127,"y":2543644.5300000012}},{"attributes":{"ID":633929,"DIS_CODE":0,"TOWNNAME":"中西區","LI":"保安里","LIN":"12鄰","STREET":"國華街","SECT":"二段","MAREA":" ","LANE":" ","ALLEY":" ","HOUSE_NO":"１５９號六樓","E_COORD97":167684.60999999999,"N_COORD97":2543644.5299999998,"ADDRESS":"國華街二段１５９號六樓","OBJECTID":633902},"geometry":{"x":167684.61000000127,"y":2543644.5300000012}},{"attributes":{"ID":633930,"DIS_CODE":0,"TOWNNAME":"北區","LI":"安民里","LIN":"11鄰","STREET":"國華街","SECT":"四段","MAREA":" ","LANE":" ","ALLEY":" ","HOUSE_NO":"１７號","E_COORD97":168012.16,"N_COORD97":2544599.0499999998,"ADDRESS":"國華街四段１７號","OBJECTID":633903},"geometry":{"x":168012.16000000015,"y":2544599.0500000026}},{"attributes":{"ID":633931,"DIS_CODE":0,"TOWNNAME":"中西區","LI":"元安里","LIN":"2鄰","STREET":"國華街","SECT":"二段","MAREA":" ","LANE":" ","ALLEY":" ","HOUSE_NO":"１７號三樓之２","E_COORD97":167592.39999999999,"N_COORD97":2543175.1000000001,"ADDRESS":"國華街二段１７號三樓之２","OBJECTID":633904},"geometry":{"x":167592.4000000013,"y":2543175.0999999996}},{"attributes":{"ID":633932,"DIS_CODE":0,"TOWNNAME":"中西區","LI":"元安里","LIN":"2鄰","STREET":"國華街","SECT":"二段","MAREA":" ","LANE":" ","ALLEY":" ","HOUSE_NO":"１７號五樓之１","E_COORD97":167592.39999999999,"N_COORD97":2543175.1000000001,"ADDRESS":"國華街二段１７號五樓之１","OBJECTID":633905},"geometry":{"x":167592.4000000013,"y":2543175.0999999996}},{"attributes":{"ID":633933,"DIS_CODE":0,"TOWNNAME":"中西區","LI":"元安里","LIN":"2鄰","STREET":"國華街","SECT":"二段","MAREA":" ","LANE":" ","ALLEY":" ","HOUSE_NO":"１７號五樓之２","E_COORD97":167592.39999999999,"N_COORD97":2543175.1000000001,"ADDRESS":"國華街二段１７號五樓之２","OBJECTID":633906},"geometry":{"x":167592.4000000013,"y":2543175.0999999996}},{"attributes":{"ID":633934,"DIS_CODE":0,"TOWNNAME":"中西區","LI":"開山里","LIN":"15鄰","STREET":"大埔街","SECT":" ","MAREA":" ","LANE":" ","ALLEY":" ","HOUSE_NO":"３４號五樓","E_COORD97":168949.76000000001,"N_COORD97":2543068.3300000001,"ADDRESS":"大埔街３４號五樓","OBJECTID":633907},"geometry":{"x":168949.75999999978,"y":2543068.3300000001}},{"attributes":{"ID":633935,"DIS_CODE":0,"TOWNNAME":"中西區","LI":"開山里","LIN":"15鄰","STREET":"大埔街","SECT":" ","MAREA":" ","LANE":" ","ALLEY":" ","HOUSE_NO":"３４號四樓","E_COORD97":168949.76000000001,"N_COORD97":2543068.3300000001,"ADDRESS":"大埔街３４號四樓","OBJECTID":633908},"geometry":{"x":168949.75999999978,"y":2543068.3300000001}},{"attributes":{"ID":633936,"DIS_CODE":0,"TOWNNAME":"中西區","LI":"開山里","LIN":"15鄰","STREET":"大埔街","SECT":" ","MAREA":" ","LANE":" ","ALLEY":" ","HOUSE_NO":"３６號五樓","E_COORD97":168946.42999999999,"N_COORD97":2543071.6499999999,"ADDRESS":"大埔街３６號五樓","OBJECTID":633909},"geometry":{"x":168946.43000000063,"y":2543071.6500000022}},{"attributes":{"ID":633937,"DIS_CODE":0,"TOWNNAME":"中西區","LI":"開山里","LIN":"15鄰","STREET":"大埔街","SECT":" ","MAREA":" ","LANE":" ","ALLEY":" ","HOUSE_NO":"３６號四樓","E_COORD97":168946.42999999999,"N_COORD97":2543071.6499999999,"ADDRESS":"大埔街３６號四樓","OBJECTID":633910},"geometry":{"x":168946.43000000063,"y":2543071.6500000022}},{"attributes":{"ID":633938,"DIS_CODE":0,"TOWNNAME":"中西區","LI":"開山里","LIN":"16鄰","STREET":"大同路","SECT":"一段","MAREA":" ","LANE":" ","ALLEY":" ","HOUSE_NO":"５８號一樓","E_COORD97":169128.10999999999,"N_COORD97":2543090.7000000002,"ADDRESS":"大同路一段５８號一樓","OBJECTID":633911},"geometry":{"x":169128.11000000034,"y":2543090.7000000011}},{"attributes":{"ID":633939,"DIS_CODE":0,"TOWNNAME":"中西區","LI":"開山里","LIN":"16鄰","STREET":"大同路","SECT":"一段","MAREA":" ","LANE":" ","ALLEY":" ","HOUSE_NO":"５８號二樓","E_COORD97":169128.10999999999,"N_COORD97":2543090.7000000002,"ADDRESS":"大同路一段５８號二樓","OBJECTID":633912},"geometry":{"x":169128.11000000034,"y":2543090.7000000011}},{"attributes":{"ID":633940,"DIS_CODE":0,"TOWNNAME":"中西區","LI":"開山里","LIN":"16鄰","STREET":"大同路","SECT":"一段","MAREA":" ","LANE":" ","ALLEY":" ","HOUSE_NO":"５８號三樓","E_COORD97":169128.10999999999,"N_COORD97":2543090.7000000002,"ADDRESS":"大同路一段５８號三樓","OBJECTID":633913},"geometry":{"x":169128.11000000034,"y":2543090.7000000011}},{"attributes":{"ID":633941,"DIS_CODE":0,"TOWNNAME":"東區","LI":"中西里","LIN":"8鄰","STREET":"勝利路","SECT":" ","MAREA":" ","LANE":" ","ALLEY":" ","HOUSE_NO":"５０號三樓之９","E_COORD97":169830.25,"N_COORD97":2543536.9100000001,"ADDRESS":"勝利路５０號三樓之９","OBJECTID":633914},"geometry":{"x":169830.25,"y":2543536.9100000039}},{"attributes":{"ID":633942,"DIS_CODE":0,"TOWNNAME":"東區","LI":"中西里","LIN":"8鄰","STREET":"勝利路","SECT":" ","MAREA":" ","LANE":" ","ALLEY":" ","HOUSE_NO":"５０號五樓","E_COORD97":169830.25,"N_COORD97":2543536.9100000001,"ADDRESS":"勝利路５０號五樓","OBJECTID":633915},"geometry":{"x":169830.25,"y":2543536.9100000039}},{"attributes":{"ID":633943,"DIS_CODE":0,"TOWNNAME":"東區","LI":"中西里","LIN":"24鄰","STREET":"長榮路","SECT":"二段","MAREA":" ","LANE":" ","ALLEY":" ","HOUSE_NO":"２５８號三樓","E_COORD97":170191.85000000001,"N_COORD97":2543464.75,"ADDRESS":"長榮路二段２５８號三樓","OBJECTID":633916},"geometry":{"x":170191.84999999963,"y":2543464.7500000019}},{"attributes":{"ID":633944,"DIS_CODE":0,"TOWNNAME":"東區","LI":"崇誨里","LIN":"34鄰","STREET":"東寧路","SECT":" ","MAREA":" ","LANE":" ","ALLEY":" ","HOUSE_NO":"２２６號之１四樓","E_COORD97":170545.23999999999,"N_COORD97":2543462.5,"ADDRESS":"東寧路２２６號之１四樓","OBJECTID":633917},"geometry":{"x":170545.24000000115,"y":2543462.5000000019}},{"attributes":{"ID":633945,"DIS_CODE":0,"TOWNNAME":"東區","LI":"崇德里","LIN":"14鄰","STREET":"崇明路","SECT":" ","MAREA":" ","LANE":" ","ALLEY":" ","HOUSE_NO":"４７３號二樓之１","E_COORD97":170534.31,"N_COORD97":2541488.1800000002,"ADDRESS":"崇明路４７３號二樓之１","OBJECTID":633918},"geometry":{"x":170534.30999999959,"y":2541488.1800000016}},{"attributes":{"ID":633946,"DIS_CODE":0,"TOWNNAME":"東區","LI":"崇德里","LIN":"14鄰","STREET":"崇明路","SECT":" ","MAREA":" ","LANE":" ","ALLEY":" ","HOUSE_NO":"４７３號八樓","E_COORD97":170534.31,"N_COORD97":2541488.1800000002,"ADDRESS":"崇明路４７３號八樓","OBJECTID":633919},"geometry":{"x":170534.30999999959,"y":2541488.1800000016}},{"attributes":{"ID":633947,"DIS_CODE":0,"TOWNNAME":"東區","LI":"崇德里","LIN":"14鄰","STREET":"崇明路","SECT":" ","MAREA":" ","LANE":" ","ALLEY":" ","HOUSE_NO":"４７３號五樓","E_COORD97":170534.31,"N_COORD97":2541488.1800000002,"ADDRESS":"崇明路４７３號五樓","OBJECTID":633920},"geometry":{"x":170534.30999999959,"y":2541488.1800000016}},{"attributes":{"ID":633948,"DIS_CODE":0,"TOWNNAME":"東區","LI":"崇德里","LIN":"14鄰","STREET":"崇明路","SECT":" ","MAREA":" ","LANE":" ","ALLEY":" ","HOUSE_NO":"４７３號五樓之１","E_COORD97":170534.31,"N_COORD97":2541488.1800000002,"ADDRESS":"崇明路４７３號五樓之１","OBJECTID":633921},"geometry":{"x":170534.30999999959,"y":2541488.1800000016}},{"attributes":{"ID":633949,"DIS_CODE":0,"TOWNNAME":"東區","LI":"崇德里","LIN":"14鄰","STREET":"崇明路","SECT":" ","MAREA":" ","LANE":" ","ALLEY":" ","HOUSE_NO":"４７３號六樓","E_COORD97":170534.31,"N_COORD97":2541488.1800000002,"ADDRESS":"崇明路４７３號六樓","OBJECTID":633922},"geometry":{"x":170534.30999999959,"y":2541488.1800000016}},{"attributes":{"ID":633950,"DIS_CODE":0,"TOWNNAME":"東區","LI":"崇德里","LIN":"14鄰","STREET":"崇明路","SECT":" ","MAREA":" ","LANE":" ","ALLEY":" ","HOUSE_NO":"４７３號六樓之１","E_COORD97":170534.31,"N_COORD97":2541488.1800000002,"ADDRESS":"崇明路４７３號六樓之１","OBJECTID":633923},"geometry":{"x":170534.30999999959,"y":2541488.1800000016}},{"attributes":{"ID":633951,"DIS_CODE":0,"TOWNNAME":"東區","LI":"崇德里","LIN":"14鄰","STREET":"崇明路","SECT":" ","MAREA":" ","LANE":" ","ALLEY":" ","HOUSE_NO":"４７３號四樓","E_COORD97":170534.31,"N_COORD97":2541488.1800000002,"ADDRESS":"崇明路４７３號四樓","OBJECTID":633924},"geometry":{"x":170534.30999999959,"y":2541488.1800000016}},{"attributes":{"ID":633952,"DIS_CODE":0,"TOWNNAME":"東區","LI":"崇德里","LIN":"14鄰","STREET":"崇明路","SECT":" ","MAREA":" ","LANE":" ","ALLEY":" ","HOUSE_NO":"４７９號七樓","E_COORD97":170540.07999999999,"N_COORD97":2541473.7599999998,"ADDRESS":"崇明路４７９號七樓","OBJECTID":633925},"geometry":{"x":170540.08000000007,"y":2541473.7600000016}},{"attributes":{"ID":633953,"DIS_CODE":0,"TOWNNAME":"東區","LI":"崇德里","LIN":"14鄰","STREET":"崇明路","SECT":" ","MAREA":" ","LANE":" ","ALLEY":" ","HOUSE_NO":"４７９號七樓之１","E_COORD97":170540.07999999999,"N_COORD97":2541473.7599999998,"ADDRESS":"崇明路４７９號七樓之１","OBJECTID":633926},"geometry":{"x":170540.08000000007,"y":2541473.7600000016}},{"attributes":{"ID":633954,"DIS_CODE":0,"TOWNNAME":"東區","LI":"崇德里","LIN":"14鄰","STREET":"崇明路","SECT":" ","MAREA":" ","LANE":" ","ALLEY":" ","HOUSE_NO":"４７９號八樓","E_COORD97":170540.07999999999,"N_COORD97":2541473.7599999998,"ADDRESS":"崇明路４７９號八樓","OBJECTID":633927},"geometry":{"x":170540.08000000007,"y":2541473.7600000016}},{"attributes":{"ID":633955,"DIS_CODE":0,"TOWNNAME":"東區","LI":"崇德里","LIN":"14鄰","STREET":"崇明路","SECT":" ","MAREA":" ","LANE":" ","ALLEY":" ","HOUSE_NO":"４７９號三樓","E_COORD97":170540.07999999999,"N_COORD97":2541473.7599999998,"ADDRESS":"崇明路４７９號三樓","OBJECTID":633928},"geometry":{"x":170540.08000000007,"y":2541473.7600000016}},{"attributes":{"ID":633956,"DIS_CODE":0,"TOWNNAME":"東區","LI":"崇德里","LIN":"14鄰","STREET":"崇明路","SECT":" ","MAREA":" ","LANE":" ","ALLEY":" ","HOUSE_NO":"４７９號三樓之１","E_COORD97":170540.07999999999,"N_COORD97":2541473.7599999998,"ADDRESS":"崇明路４７９號三樓之１","OBJECTID":633929},"geometry":{"x":170540.08000000007,"y":2541473.7600000016}},{"attributes":{"ID":633957,"DIS_CODE":0,"TOWNNAME":"東區","LI":"崇德里","LIN":"14鄰","STREET":"崇明路","SECT":" ","MAREA":" ","LANE":" ","ALLEY":" ","HOUSE_NO":"４７９號六樓","E_COORD97":170540.07999999999,"N_COORD97":2541473.7599999998,"ADDRESS":"崇明路４７９號六樓","OBJECTID":633930},"geometry":{"x":170540.08000000007,"y":2541473.7600000016}},{"attributes":{"ID":633958,"DIS_CODE":0,"TOWNNAME":"東區","LI":"龍山里","LIN":"12鄰","STREET":"東門路","SECT":"一段","MAREA":" ","LANE":" ","ALLEY":" ","HOUSE_NO":"３５６號二樓","E_COORD97":169842.09,"N_COORD97":2543027.3900000001,"ADDRESS":"東門路一段３５６號二樓","OBJECTID":633931},"geometry":{"x":169842.09000000078,"y":2543027.3900000006}},{"attributes":{"ID":633959,"DIS_CODE":0,"TOWNNAME":"東區","LI":"龍山里","LIN":"12鄰","STREET":"東門路","SECT":"一段","MAREA":" ","LANE":" ","ALLEY":" ","HOUSE_NO":"３５６號三樓","E_COORD97":169842.09,"N_COORD97":2543027.3900000001,"ADDRESS":"東門路一段３５６號三樓","OBJECTID":633932},"geometry":{"x":169842.09000000078,"y":2543027.3900000006}},{"attributes":{"ID":633960,"DIS_CODE":0,"TOWNNAME":"東區","LI":"龍山里","LIN":"12鄰","STREET":"東門路","SECT":"一段","MAREA":" ","LANE":" ","ALLEY":" ","HOUSE_NO":"３５６號四樓","E_COORD97":169842.09,"N_COORD97":2543027.3900000001,"ADDRESS":"東門路一段３５６號四樓","OBJECTID":633933},"geometry":{"x":169842.09000000078,"y":2543027.3900000006}},{"attributes":{"ID":633961,"DIS_CODE":0,"TOWNNAME":"東區","LI":"龍山里","LIN":"12鄰","STREET":"東門路","SECT":"一段","MAREA":" ","LANE":" ","ALLEY":" ","HOUSE_NO":"３５６號五樓","E_COORD97":169842.09,"N_COORD97":2543027.3900000001,"ADDRESS":"東門路一段３５６號五樓","OBJECTID":633934},"geometry":{"x":169842.09000000078,"y":2543027.3900000006}},{"attributes":{"ID":633962,"DIS_CODE":0,"TOWNNAME":"東區","LI":"龍山里","LIN":"12鄰","STREET":"東門路","SECT":"一段","MAREA":" ","LANE":" ","ALLEY":" ","HOUSE_NO":"３５６號六樓","E_COORD97":169842.09,"N_COORD97":2543027.3900000001,"ADDRESS":"東門路一段３５６號六樓","OBJECTID":633935},"geometry":{"x":169842.09000000078,"y":2543027.3900000006}},{"attributes":{"ID":633963,"DIS_CODE":0,"TOWNNAME":"東區","LI":"龍山里","LIN":"12鄰","STREET":"東門路","SECT":"一段","MAREA":" ","LANE":" ","ALLEY":" ","HOUSE_NO":"３５６號七樓","E_COORD97":169842.09,"N_COORD97":2543027.3900000001,"ADDRESS":"東門路一段３５６號七樓","OBJECTID":633936},"geometry":{"x":169842.09000000078,"y":2543027.3900000006}},{"attributes":{"ID":633964,"DIS_CODE":0,"TOWNNAME":"東區","LI":"龍山里","LIN":"12鄰","STREET":"東門路","SECT":"一段","MAREA":" ","LANE":" ","ALLEY":" ","HOUSE_NO":"３５６號八樓","E_COORD97":169842.09,"N_COORD97":2543027.3900000001,"ADDRESS":"東門路一段３５６號八樓","OBJECTID":633937},"geometry":{"x":169842.09000000078,"y":2543027.3900000006}},{"attributes":{"ID":633965,"DIS_CODE":0,"TOWNNAME":"東區","LI":"龍山里","LIN":"12鄰","STREET":"東門路","SECT":"一段","MAREA":" ","LANE":" ","ALLEY":" ","HOUSE_NO":"３５６號九樓","E_COORD97":169842.09,"N_COORD97":2543027.3900000001,"ADDRESS":"東門路一段３５６號九樓","OBJECTID":633938},"geometry":{"x":169842.09000000078,"y":2543027.3900000006}},{"attributes":{"ID":633966,"DIS_CODE":0,"TOWNNAME":"東區","LI":"龍山里","LIN":"12鄰","STREET":"東門路","SECT":"一段","MAREA":" ","LANE":" ","ALLEY":" ","HOUSE_NO":"３５６號十樓","E_COORD97":169842.09,"N_COORD97":2543027.3900000001,"ADDRESS":"東門路一段３５６號十樓","OBJECTID":633939},"geometry":{"x":169842.09000000078,"y":2543027.3900000006}},{"attributes":{"ID":633967,"DIS_CODE":0,"TOWNNAME":"東區","LI":"大智里","LIN":"26鄰","STREET":"德東街","SECT":" ","MAREA":" ","LANE":" ","ALLEY":" ","HOUSE_NO":"２１０號七樓","E_COORD97":171363.01000000001,"N_COORD97":2540246.9900000002,"ADDRESS":"德東街２１０號七樓","OBJECTID":633940},"geometry":{"x":171363.01000000071,"y":2540246.9900000002}},{"attributes":{"ID":633968,"DIS_CODE":0,"TOWNNAME":"東區","LI":"大智里","LIN":"26鄰","STREET":"德東街","SECT":" ","MAREA":" ","LANE":" ","ALLEY":" ","HOUSE_NO":"２１０號七樓之４","E_COORD97":171363.01000000001,"N_COORD97":2540246.9900000002,"ADDRESS":"德東街２１０號七樓之４","OBJECTID":633941},"geometry":{"x":171363.01000000071,"y":2540246.9900000002}},{"attributes":{"ID":633969,"DIS_CODE":0,"TOWNNAME":"東區","LI":"大智里","LIN":"26鄰","STREET":"德東街","SECT":" ","MAREA":" ","LANE":" ","ALLEY":" ","HOUSE_NO":"２１０號五樓","E_COORD97":171363.01000000001,"N_COORD97":2540246.9900000002,"ADDRESS":"德東街２１０號五樓","OBJECTID":633942},"geometry":{"x":171363.01000000071,"y":2540246.9900000002}},{"attributes":{"ID":633970,"DIS_CODE":0,"TOWNNAME":"東區","LI":"大智里","LIN":"26鄰","STREET":"德東街","SECT":" ","MAREA":" ","LANE":" ","ALLEY":" ","HOUSE_NO":"２１０號五樓之２","E_COORD97":171363.01000000001,"N_COORD97":2540246.9900000002,"ADDRESS":"德東街２１０號五樓之２","OBJECTID":633943},"geometry":{"x":171363.01000000071,"y":2540246.9900000002}},{"attributes":{"ID":633971,"DIS_CODE":0,"TOWNNAME":"東區","LI":"大智里","LIN":"26鄰","STREET":"德東街","SECT":" ","MAREA":" ","LANE":" ","ALLEY":" ","HOUSE_NO":"２１０號五樓之４","E_COORD97":171363.01000000001,"N_COORD97":2540246.9900000002,"ADDRESS":"德東街２１０號五樓之４","OBJECTID":633944},"geometry":{"x":171363.01000000071,"y":2540246.9900000002}},{"attributes":{"ID":633972,"DIS_CODE":0,"TOWNNAME":"東區","LI":"大智里","LIN":"26鄰","STREET":"德東街","SECT":" ","MAREA":" ","LANE":" ","ALLEY":" ","HOUSE_NO":"２１０號五樓之５","E_COORD97":171363.01000000001,"N_COORD97":2540246.9900000002,"ADDRESS":"德東街２１０號五樓之５","OBJECTID":633945},"geometry":{"x":171363.01000000071,"y":2540246.9900000002}},{"attributes":{"ID":633973,"DIS_CODE":0,"TOWNNAME":"東區","LI":"大智里","LIN":"26鄰","STREET":"德東街","SECT":" ","MAREA":" ","LANE":" ","ALLEY":" ","HOUSE_NO":"２１０號五樓之６","E_COORD97":171363.01000000001,"N_COORD97":2540246.9900000002,"ADDRESS":"德東街２１０號五樓之６","OBJECTID":633946},"geometry":{"x":171363.01000000071,"y":2540246.9900000002}},{"attributes":{"ID":633974,"DIS_CODE":0,"TOWNNAME":"東區","LI":"大智里","LIN":"26鄰","STREET":"德東街","SECT":" ","MAREA":" ","LANE":" ","ALLEY":" ","HOUSE_NO":"２１０號六樓","E_COORD97":171363.01000000001,"N_COORD97":2540246.9900000002,"ADDRESS":"德東街２１０號六樓","OBJECTID":633947},"geometry":{"x":171363.01000000071,"y":2540246.9900000002}},{"attributes":{"ID":633975,"DIS_CODE":0,"TOWNNAME":"東區","LI":"大智里","LIN":"29鄰","STREET":"德東街","SECT":" ","MAREA":" ","LANE":" ","ALLEY":" ","HOUSE_NO":"２５２號七樓之１","E_COORD97":171463.54000000001,"N_COORD97":2540245.54,"ADDRESS":"德東街２５２號七樓之１","OBJECTID":633948},"geometry":{"x":171463.54000000097,"y":2540245.5399999991}},{"attributes":{"ID":633976,"DIS_CODE":0,"TOWNNAME":"東區","LI":"大智里","LIN":"29鄰","STREET":"德東街","SECT":" ","MAREA":" ","LANE":" ","ALLEY":" ","HOUSE_NO":"２５２號七樓之２","E_COORD97":171463.54000000001,"N_COORD97":2540245.54,"ADDRESS":"德東街２５２號七樓之２","OBJECTID":633949},"geometry":{"x":171463.54000000097,"y":2540245.5399999991}},{"attributes":{"ID":633977,"DIS_CODE":0,"TOWNNAME":"東區","LI":"大智里","LIN":"29鄰","STREET":"德東街","SECT":" ","MAREA":" ","LANE":" ","ALLEY":" ","HOUSE_NO":"２５２號七樓之３","E_COORD97":171463.54000000001,"N_COORD97":2540245.54,"ADDRESS":"德東街２５２號七樓之３","OBJECTID":633950},"geometry":{"x":171463.54000000097,"y":2540245.5399999991}},{"attributes":{"ID":633978,"DIS_CODE":0,"TOWNNAME":"東區","LI":"大智里","LIN":"29鄰","STREET":"德東街","SECT":" ","MAREA":" ","LANE":" ","ALLEY":" ","HOUSE_NO":"２５２號七樓之４","E_COORD97":171463.54000000001,"N_COORD97":2540245.54,"ADDRESS":"德東街２５２號七樓之４","OBJECTID":633951},"geometry":{"x":171463.54000000097,"y":2540245.5399999991}},{"attributes":{"ID":633979,"DIS_CODE":0,"TOWNNAME":"東區","LI":"大智里","LIN":"29鄰","STREET":"德東街","SECT":" ","MAREA":" ","LANE":" ","ALLEY":" ","HOUSE_NO":"２５２號七樓之５","E_COORD97":171463.54000000001,"N_COORD97":2540245.54,"ADDRESS":"德東街２５２號七樓之５","OBJECTID":633952},"geometry":{"x":171463.54000000097,"y":2540245.5399999991}},{"attributes":{"ID":633980,"DIS_CODE":0,"TOWNNAME":"東區","LI":"大智里","LIN":"29鄰","STREET":"德東街","SECT":" ","MAREA":" ","LANE":" ","ALLEY":" ","HOUSE_NO":"２５２號七樓之６","E_COORD97":171463.54000000001,"N_COORD97":2540245.54,"ADDRESS":"德東街２５２號七樓之６","OBJECTID":633953},"geometry":{"x":171463.54000000097,"y":2540245.5399999991}},{"attributes":{"ID":633981,"DIS_CODE":0,"TOWNNAME":"東區","LI":"大智里","LIN":"29鄰","STREET":"德東街","SECT":" ","MAREA":" ","LANE":" ","ALLEY":" ","HOUSE_NO":"２５２號七樓之７","E_COORD97":171463.54000000001,"N_COORD97":2540245.54,"ADDRESS":"德東街２５２號七樓之７","OBJECTID":633954},"geometry":{"x":171463.54000000097,"y":2540245.5399999991}},{"attributes":{"ID":633982,"DIS_CODE":0,"TOWNNAME":"東區","LI":"東聖里","LIN":"16鄰","STREET":"中華東路","SECT":"二段","MAREA":" ","LANE":" ","ALLEY":" ","HOUSE_NO":"７７號六樓之３","E_COORD97":171432.92000000001,"N_COORD97":2543012.3799999999,"ADDRESS":"中華東路二段７７號六樓之３","OBJECTID":633955},"geometry":{"x":171432.92000000179,"y":2543012.379999999}},{"attributes":{"ID":633983,"DIS_CODE":0,"TOWNNAME":"東區","LI":"東聖里","LIN":"16鄰","STREET":"中華東路","SECT":"二段","MAREA":" ","LANE":" ","ALLEY":" ","HOUSE_NO":"７７號七樓之３","E_COORD97":171432.92000000001,"N_COORD97":2543012.3799999999,"ADDRESS":"中華東路二段７７號七樓之３","OBJECTID":633956},"geometry":{"x":171432.92000000179,"y":2543012.379999999}},{"attributes":{"ID":633984,"DIS_CODE":0,"TOWNNAME":"東區","LI":"東聖里","LIN":"16鄰","STREET":"中華東路","SECT":"二段","MAREA":" ","LANE":" ","ALLEY":" ","HOUSE_NO":"７７號八樓之３","E_COORD97":171432.92000000001,"N_COORD97":2543012.3799999999,"ADDRESS":"中華東路二段７７號八樓之３","OBJECTID":633957},"geometry":{"x":171432.92000000179,"y":2543012.379999999}},{"attributes":{"ID":633985,"DIS_CODE":0,"TOWNNAME":"東區","LI":"東聖里","LIN":"16鄰","STREET":"中華東路","SECT":"二段","MAREA":" ","LANE":" ","ALLEY":" ","HOUSE_NO":"７７號九樓之３","E_COORD97":171432.92000000001,"N_COORD97":2543012.3799999999,"ADDRESS":"中華東路二段７７號九樓之３","OBJECTID":633958},"geometry":{"x":171432.92000000179,"y":2543012.379999999}},{"attributes":{"ID":633986,"DIS_CODE":0,"TOWNNAME":"東區","LI":"東聖里","LIN":"16鄰","STREET":"中華東路","SECT":"二段","MAREA":" ","LANE":" ","ALLEY":" ","HOUSE_NO":"７７號十樓之３","E_COORD97":171432.92000000001,"N_COORD97":2543012.3799999999,"ADDRESS":"中華東路二段７７號十樓之３","OBJECTID":633959},"geometry":{"x":171432.92000000179,"y":2543012.379999999}},{"attributes":{"ID":633987,"DIS_CODE":0,"TOWNNAME":"東區","LI":"東聖里","LIN":"16鄰","STREET":"中華東路","SECT":"二段","MAREA":" ","LANE":" ","ALLEY":" ","HOUSE_NO":"７７號十一樓之３","E_COORD97":171432.92000000001,"N_COORD97":2543012.3799999999,"ADDRESS":"中華東路二段７７號十一樓之３","OBJECTID":633960},"geometry":{"x":171432.92000000179,"y":2543012.379999999}},{"attributes":{"ID":633988,"DIS_CODE":0,"TOWNNAME":"東區","LI":"東聖里","LIN":"16鄰","STREET":"中華東路","SECT":"二段","MAREA":" ","LANE":" ","ALLEY":" ","HOUSE_NO":"７７號十二樓之３","E_COORD97":171432.92000000001,"N_COORD97":2543012.3799999999,"ADDRESS":"中華東路二段７７號十二樓之３","OBJECTID":633961},"geometry":{"x":171432.92000000179,"y":2543012.379999999}},{"attributes":{"ID":633989,"DIS_CODE":0,"TOWNNAME":"東區","LI":"東聖里","LIN":"16鄰","STREET":"中華東路","SECT":"二段","MAREA":" ","LANE":" ","ALLEY":" ","HOUSE_NO":"７７號十三樓之３","E_COORD97":171432.92000000001,"N_COORD97":2543012.3799999999,"ADDRESS":"中華東路二段７７號十三樓之３","OBJECTID":633962},"geometry":{"x":171432.92000000179,"y":2543012.379999999}},{"attributes":{"ID":633990,"DIS_CODE":0,"TOWNNAME":"東區","LI":"東聖里","LIN":"16鄰","STREET":"中華東路","SECT":"二段","MAREA":" ","LANE":" ","ALLEY":" ","HOUSE_NO":"７７號十四樓之３","E_COORD97":171432.92000000001,"N_COORD97":2543012.3799999999,"ADDRESS":"中華東路二段７７號十四樓之３","OBJECTID":633963},"geometry":{"x":171432.92000000179,"y":2543012.379999999}},{"attributes":{"ID":633991,"DIS_CODE":0,"TOWNNAME":"東區","LI":"東聖里","LIN":"16鄰","STREET":"中華東路","SECT":"二段","MAREA":" ","LANE":" ","ALLEY":" ","HOUSE_NO":"７７號十五樓之３","E_COORD97":171432.92000000001,"N_COORD97":2543012.3799999999,"ADDRESS":"中華東路二段７７號十五樓之３","OBJECTID":633964},"geometry":{"x":171432.92000000179,"y":2543012.379999999}},{"attributes":{"ID":633992,"DIS_CODE":0,"TOWNNAME":"東區","LI":"崇善里","LIN":"8鄰","STREET":"崇善七街","SECT":" ","MAREA":" ","LANE":" ","ALLEY":" ","HOUSE_NO":"５２號二樓","E_COORD97":171171.78,"N_COORD97":2541486.4100000001,"ADDRESS":"崇善七街５２號二樓","OBJECTID":633965},"geometry":{"x":171171.78000000119,"y":2541486.410000002}},{"attributes":{"ID":633993,"DIS_CODE":0,"TOWNNAME":"東區","LI":"崇善里","LIN":"8鄰","STREET":"崇善七街","SECT":" ","MAREA":" ","LANE":" ","ALLEY":" ","HOUSE_NO":"５２號二樓之１","E_COORD97":171171.78,"N_COORD97":2541486.4100000001,"ADDRESS":"崇善七街５２號二樓之１","OBJECTID":633966},"geometry":{"x":171171.78000000119,"y":2541486.410000002}},{"attributes":{"ID":633994,"DIS_CODE":0,"TOWNNAME":"永康區","LI":"大橋里","LIN":"4鄰","STREET":"大橋五街","SECT":" ","MAREA":" ","LANE":" ","ALLEY":" ","HOUSE_NO":"１４１號三樓之５","E_COORD97":170968.89999999999,"N_COORD97":2547008.29,"ADDRESS":"大橋五街１４１號三樓之５","OBJECTID":633967},"geometry":{"x":170968.90000000037,"y":2547008.2900000028}},{"attributes":{"ID":633995,"DIS_CODE":0,"TOWNNAME":"永康區","LI":"大橋里","LIN":"4鄰","STREET":"大橋五街","SECT":" ","MAREA":" ","LANE":" ","ALLEY":" ","HOUSE_NO":"１４３號十樓之３","E_COORD97":170978.78,"N_COORD97":2546989.3599999999,"ADDRESS":"大橋五街１４３號十樓之３","OBJECTID":633968},"geometry":{"x":170978.78000000119,"y":2546989.3600000013}},{"attributes":{"ID":633996,"DIS_CODE":0,"TOWNNAME":"永康區","LI":"大橋里","LIN":"4鄰","STREET":"大橋五街","SECT":" ","MAREA":" ","LANE":" ","ALLEY":" ","HOUSE_NO":"１４３號二樓之１","E_COORD97":170978.67999999999,"N_COORD97":2546989.3599999999,"ADDRESS":"大橋五街１４３號二樓之１","OBJECTID":633969},"geometry":{"x":170978.68000000063,"y":2546989.3600000013}},{"attributes":{"ID":633997,"DIS_CODE":0,"TOWNNAME":"永康區","LI":"大橋里","LIN":"4鄰","STREET":"大橋五街","SECT":" ","MAREA":" ","LANE":" ","ALLEY":" ","HOUSE_NO":"１４３號六樓之２","E_COORD97":170978.82000000001,"N_COORD97":2546989.3599999999,"ADDRESS":"大橋五街１４３號六樓之２","OBJECTID":633970},"geometry":{"x":170978.82000000123,"y":2546989.3600000013}},{"attributes":{"ID":633998,"DIS_CODE":0,"TOWNNAME":"永康區","LI":"大橋里","LIN":"4鄰","STREET":"大橋五街","SECT":" ","MAREA":" ","LANE":" ","ALLEY":" ","HOUSE_NO":"１３９號十樓之３","E_COORD97":170948.47,"N_COORD97":2546995.54,"ADDRESS":"大橋五街１３９號十樓之３","OBJECTID":633971},"geometry":{"x":170948.46999999974,"y":2546995.5399999991}},{"attributes":{"ID":633999,"DIS_CODE":0,"TOWNNAME":"永康區","LI":"大橋里","LIN":"4鄰","STREET":"大橋五街","SECT":" ","MAREA":" ","LANE":" ","ALLEY":" ","HOUSE_NO":"１７號二樓之２","E_COORD97":170789.59,"N_COORD97":2546868.9199999999,"ADDRESS":"大橋五街１７號二樓之２","OBJECTID":633972},"geometry":{"x":170789.59000000078,"y":2546868.9199999999}},{"attributes":{"ID":634000,"DIS_CODE":0,"TOWNNAME":"永康區","LI":"大橋里","LIN":"4鄰","STREET":"大橋五街","SECT":" ","MAREA":" ","LANE":" ","ALLEY":" ","HOUSE_NO":"１４１號三樓之２","E_COORD97":170968.88,"N_COORD97":2547008.29,"ADDRESS":"大橋五街１４１號三樓之２","OBJECTID":633973},"geometry":{"x":170968.88000000082,"y":2547008.2900000028}},{"attributes":{"ID":634001,"DIS_CODE":0,"TOWNNAME":"永康區","LI":"大橋里","LIN":"4鄰","STREET":"大橋五街","SECT":" ","MAREA":" ","LANE":" ","ALLEY":" ","HOUSE_NO":"１４１號四樓之３","E_COORD97":170968.84,"N_COORD97":2547008.29,"ADDRESS":"大橋五街１４１號四樓之３","OBJECTID":633974},"geometry":{"x":170968.83999999892,"y":2547008.2900000028}},{"attributes":{"ID":634002,"DIS_CODE":0,"TOWNNAME":"永康區","LI":"大橋里","LIN":"4鄰","STREET":"大橋五街","SECT":" ","MAREA":" ","LANE":" ","ALLEY":" ","HOUSE_NO":"１３７號九樓之３","E_COORD97":170961.88,"N_COORD97":2546977.6699999999,"ADDRESS":"大橋五街１３７號九樓之３","OBJECTID":633975},"geometry":{"x":170961.88000000175,"y":2546977.6700000018}},{"attributes":{"ID":634003,"DIS_CODE":0,"TOWNNAME":"永康區","LI":"大橋里","LIN":"4鄰","STREET":"大橋五街","SECT":" ","MAREA":" ","LANE":" ","ALLEY":" ","HOUSE_NO":"２５號四樓之１","E_COORD97":170809.03,"N_COORD97":2546878.0600000001,"ADDRESS":"大橋五街２５號四樓之１","OBJECTID":633976},"geometry":{"x":170809.03000000119,"y":2546878.0600000005}},{"attributes":{"ID":634004,"DIS_CODE":0,"TOWNNAME":"永康區","LI":"大橋里","LIN":"4鄰","STREET":"大橋五街","SECT":" ","MAREA":" ","LANE":" ","ALLEY":" ","HOUSE_NO":"９３號三樓之１","E_COORD97":170877.06,"N_COORD97":2546938.3300000001,"ADDRESS":"大橋五街９３號三樓之１","OBJECTID":633977},"geometry":{"x":170877.05999999959,"y":2546938.3300000019}},{"attributes":{"ID":634005,"DIS_CODE":0,"TOWNNAME":"東區","LI":"龍山里","LIN":"10鄰","STREET":"府東街","SECT":" ","MAREA":" ","LANE":" ","ALLEY":" ","HOUSE_NO":"６６號二樓","E_COORD97":169936.05594300001,"N_COORD97":2542942.3786900002,"ADDRESS":"府東街６６號二樓","OBJECTID":633978},"geometry":{"x":169936.05594300013,"y":2542942.3786940016}},{"attributes":{"ID":634006,"DIS_CODE":0,"TOWNNAME":"永康區","LI":"大橋里","LIN":"4鄰","STREET":"大橋五街","SECT":" ","MAREA":" ","LANE":" ","ALLEY":" ","HOUSE_NO":"１４３號七樓之５","E_COORD97":170978.84,"N_COORD97":2546989.3599999999,"ADDRESS":"大橋五街１４３號七樓之５","OBJECTID":633979},"geometry":{"x":170978.83999999985,"y":2546989.3600000013}},{"attributes":{"ID":634007,"DIS_CODE":0,"TOWNNAME":"永康區","LI":"大橋里","LIN":"4鄰","STREET":"大橋五街","SECT":" ","MAREA":" ","LANE":" ","ALLEY":" ","HOUSE_NO":"１４３號三樓之２","E_COORD97":170978.82000000001,"N_COORD97":2546989.3599999999,"ADDRESS":"大橋五街１４３號三樓之２","OBJECTID":633980},"geometry":{"x":170978.82000000123,"y":2546989.3600000013}},{"attributes":{"ID":634008,"DIS_CODE":0,"TOWNNAME":"永康區","LI":"大橋里","LIN":"14鄰","STREET":"大橋一街","SECT":" ","MAREA":" ","LANE":" ","ALLEY":" ","HOUSE_NO":"６１號九樓之３","E_COORD97":170895.79999999999,"N_COORD97":2546426.5499999998,"ADDRESS":"大橋一街６１號九樓之３","OBJECTID":633981},"geometry":{"x":170895.79999999981,"y":2546426.5500000026}},{"attributes":{"ID":634009,"DIS_CODE":0,"TOWNNAME":"永康區","LI":"大橋里","LIN":"4鄰","STREET":"大橋五街","SECT":" ","MAREA":" ","LANE":" ","ALLEY":" ","HOUSE_NO":"１４１號九樓之２","E_COORD97":170968.88,"N_COORD97":2547008.29,"ADDRESS":"大橋五街１４１號九樓之２","OBJECTID":633982},"geometry":{"x":170968.88000000082,"y":2547008.2900000028}},{"attributes":{"ID":634010,"DIS_CODE":0,"TOWNNAME":"永康區","LI":"大橋里","LIN":"4鄰","STREET":"大橋五街","SECT":" ","MAREA":" ","LANE":" ","ALLEY":" ","HOUSE_NO":"１４１號五樓之１","E_COORD97":170968.73999999999,"N_COORD97":2547008.29,"ADDRESS":"大橋五街１４１號五樓之１","OBJECTID":633983},"geometry":{"x":170968.74000000115,"y":2547008.2900000028}},{"attributes":{"ID":634011,"DIS_CODE":0,"TOWNNAME":"永康區","LI":"大橋里","LIN":"4鄰","STREET":"大橋五街","SECT":" ","MAREA":" ","LANE":" ","ALLEY":" ","HOUSE_NO":"１４３號七樓之１","E_COORD97":170978.67999999999,"N_COORD97":2546989.3599999999,"ADDRESS":"大橋五街１４３號七樓之１","OBJECTID":633984},"geometry":{"x":170978.68000000063,"y":2546989.3600000013}},{"attributes":{"ID":634012,"DIS_CODE":0,"TOWNNAME":"永康區","LI":"大橋里","LIN":"4鄰","STREET":"大橋五街","SECT":" ","MAREA":" ","LANE":" ","ALLEY":" ","HOUSE_NO":"１４３號六樓之３","E_COORD97":170978.78,"N_COORD97":2546989.3599999999,"ADDRESS":"大橋五街１４３號六樓之３","OBJECTID":633985},"geometry":{"x":170978.78000000119,"y":2546989.3600000013}},{"attributes":{"ID":634013,"DIS_CODE":0,"TOWNNAME":"永康區","LI":"大橋里","LIN":"4鄰","STREET":"大橋五街","SECT":" ","MAREA":" ","LANE":" ","ALLEY":" ","HOUSE_NO":"１６３號四樓","E_COORD97":171017.16,"N_COORD97":2547015.5,"ADDRESS":"大橋五街１６３號四樓","OBJECTID":633986},"geometry":{"x":171017.16000000015,"y":2547015.5000000019}},{"attributes":{"ID":634014,"DIS_CODE":0,"TOWNNAME":"永康區","LI":"大橋里","LIN":"4鄰","STREET":"大橋五街","SECT":" ","MAREA":" ","LANE":" ","ALLEY":" ","HOUSE_NO":"１７號五樓之２","E_COORD97":170789.59,"N_COORD97":2546868.9199999999,"ADDRESS":"大橋五街１７號五樓之２","OBJECTID":633987},"geometry":{"x":170789.59000000078,"y":2546868.9199999999}},{"attributes":{"ID":634015,"DIS_CODE":0,"TOWNNAME":"永康區","LI":"大橋里","LIN":"4鄰","STREET":"大橋五街","SECT":" ","MAREA":" ","LANE":" ","ALLEY":" ","HOUSE_NO":"１４３號十樓之１","E_COORD97":170978.67999999999,"N_COORD97":2546989.3599999999,"ADDRESS":"大橋五街１４３號十樓之１","OBJECTID":633988},"geometry":{"x":170978.68000000063,"y":2546989.3600000013}},{"attributes":{"ID":634016,"DIS_CODE":0,"TOWNNAME":"永康區","LI":"大橋里","LIN":"4鄰","STREET":"大橋五街","SECT":" ","MAREA":" ","LANE":" ","ALLEY":" ","HOUSE_NO":"１４１號四樓之５","E_COORD97":170968.89999999999,"N_COORD97":2547008.29,"ADDRESS":"大橋五街１４１號四樓之５","OBJECTID":633989},"geometry":{"x":170968.90000000037,"y":2547008.2900000028}},{"attributes":{"ID":634017,"DIS_CODE":0,"TOWNNAME":"永康區","LI":"大橋里","LIN":"4鄰","STREET":"大橋五街","SECT":" ","MAREA":" ","LANE":" ","ALLEY":" ","HOUSE_NO":"１７號二樓之１","E_COORD97":170789.45999999999,"N_COORD97":2546868.9199999999,"ADDRESS":"大橋五街１７號二樓之１","OBJECTID":633990},"geometry":{"x":170789.45999999996,"y":2546868.9199999999}},{"attributes":{"ID":634018,"DIS_CODE":0,"TOWNNAME":"永康區","LI":"大橋里","LIN":"4鄰","STREET":"大橋五街","SECT":" ","MAREA":" ","LANE":" ","ALLEY":" ","HOUSE_NO":"１４３號四樓之２","E_COORD97":170978.82000000001,"N_COORD97":2546989.3599999999,"ADDRESS":"大橋五街１４３號四樓之２","OBJECTID":633991},"geometry":{"x":170978.82000000123,"y":2546989.3600000013}},{"attributes":{"ID":634019,"DIS_CODE":0,"TOWNNAME":"永康區","LI":"大橋里","LIN":"4鄰","STREET":"大橋五街","SECT":" ","MAREA":" ","LANE":" ","ALLEY":" ","HOUSE_NO":"１４３號七樓之２","E_COORD97":170978.82000000001,"N_COORD97":2546989.3599999999,"ADDRESS":"大橋五街１４３號七樓之２","OBJECTID":633992},"geometry":{"x":170978.82000000123,"y":2546989.3600000013}},{"attributes":{"ID":634020,"DIS_CODE":0,"TOWNNAME":"永康區","LI":"大橋里","LIN":"4鄰","STREET":"大橋五街","SECT":" ","MAREA":" ","LANE":" ","ALLEY":" ","HOUSE_NO":"１６７號五樓","E_COORD97":171026.98999999999,"N_COORD97":2547022.0499999998,"ADDRESS":"大橋五街１６７號五樓","OBJECTID":633993},"geometry":{"x":171026.99000000022,"y":2547022.0500000045}},{"attributes":{"ID":634021,"DIS_CODE":0,"TOWNNAME":"永康區","LI":"大橋里","LIN":"4鄰","STREET":"大橋五街","SECT":" ","MAREA":" ","LANE":" ","ALLEY":" ","HOUSE_NO":"１４３號十樓之２","E_COORD97":170978.82000000001,"N_COORD97":2546989.3599999999,"ADDRESS":"大橋五街１４３號十樓之２","OBJECTID":633994},"geometry":{"x":170978.82000000123,"y":2546989.3600000013}},{"attributes":{"ID":634022,"DIS_CODE":0,"TOWNNAME":"永康區","LI":"大橋里","LIN":"4鄰","STREET":"大橋五街","SECT":" ","MAREA":" ","LANE":" ","ALLEY":" ","HOUSE_NO":"１４１號九樓之３","E_COORD97":170968.84,"N_COORD97":2547008.29,"ADDRESS":"大橋五街１４１號九樓之３","OBJECTID":633995},"geometry":{"x":170968.83999999892,"y":2547008.2900000028}},{"attributes":{"ID":634023,"DIS_CODE":0,"TOWNNAME":"永康區","LI":"大橋里","LIN":"14鄰","STREET":"大橋一街","SECT":" ","MAREA":" ","LANE":" ","ALLEY":" ","HOUSE_NO":"６１號七樓之３","E_COORD97":170895.79999999999,"N_COORD97":2546426.5499999998,"ADDRESS":"大橋一街６１號七樓之３","OBJECTID":633996},"geometry":{"x":170895.79999999981,"y":2546426.5500000026}},{"attributes":{"ID":634024,"DIS_CODE":0,"TOWNNAME":"永康區","LI":"大橋里","LIN":"4鄰","STREET":"大橋五街","SECT":" ","MAREA":" ","LANE":" ","ALLEY":" ","HOUSE_NO":"１３９號三樓之５","E_COORD97":170948.53,"N_COORD97":2546995.54,"ADDRESS":"大橋五街１３９號三樓之５","OBJECTID":633997},"geometry":{"x":170948.53000000119,"y":2546995.5399999991}},{"attributes":{"ID":634025,"DIS_CODE":0,"TOWNNAME":"永康區","LI":"大橋里","LIN":"4鄰","STREET":"大橋五街","SECT":" ","MAREA":" ","LANE":" ","ALLEY":" ","HOUSE_NO":"１４１號四樓之１","E_COORD97":170968.73999999999,"N_COORD97":2547008.29,"ADDRESS":"大橋五街１４１號四樓之１","OBJECTID":633998},"geometry":{"x":170968.74000000115,"y":2547008.2900000028}},{"attributes":{"ID":634026,"DIS_CODE":0,"TOWNNAME":"永康區","LI":"大橋里","LIN":"4鄰","STREET":"大橋五街","SECT":" ","MAREA":" ","LANE":" ","ALLEY":" ","HOUSE_NO":"１４３號七樓之３","E_COORD97":170978.78,"N_COORD97":2546989.3599999999,"ADDRESS":"大橋五街１４３號七樓之３","OBJECTID":633999},"geometry":{"x":170978.78000000119,"y":2546989.3600000013}},{"attributes":{"ID":634027,"DIS_CODE":0,"TOWNNAME":"永康區","LI":"大橋里","LIN":"4鄰","STREET":"大橋五街","SECT":" ","MAREA":" ","LANE":" ","ALLEY":" ","HOUSE_NO":"９３號四樓之２","E_COORD97":170877.19,"N_COORD97":2546938.3300000001,"ADDRESS":"大橋五街９３號四樓之２","OBJECTID":634000},"geometry":{"x":170877.18999999948,"y":2546938.3300000019}}]}