{"displayFieldName":"TOWNNAME","fieldAliases":{"ID":"ID","DIS_CODE":"DIS_CODE","TOWNNAME":"TOWNNAME","LI":"LI","LIN":"LIN","STREET":"STREET","SECT":"SECT","MAREA":"MAREA","LANE":"LANE","ALLEY":"ALLEY","HOUSE_NO":"HOUSE_NO","E_COORD97":"E_COORD97","N_COORD97":"N_COORD97","ADDRESS":"ADDRESS","OBJECTID":"OBJECTID"},"geometryType":"esriGeometryPoint","spatialReference":{"wkid":102443,"latestWkid":3826},"fields":[{"name":"ID","type":"esriFieldTypeDouble","alias":"ID"},{"name":"DIS_CODE","type":"esriFieldTypeInteger","alias":"DIS_CODE"},{"name":"TOWNNAME","type":"esriFieldTypeString","alias":"TOWNNAME","length":8},{"name":"LI","type":"esriFieldTypeString","alias":"LI","length":8},{"name":"LIN","type":"esriFieldTypeString","alias":"LIN","length":12},{"name":"STREET","type":"esriFieldTypeString","alias":"STREET","length":20},{"name":"SECT","type":"esriFieldTypeString","alias":"SECT","length":8},{"name":"MAREA","type":"esriFieldTypeString","alias":"MAREA","length":12},{"name":"LANE","type":"esriFieldTypeString","alias":"LANE","length":10},{"name":"ALLEY","type":"esriFieldTypeString","alias":"ALLEY","length":10},{"name":"HOUSE_NO","type":"esriFieldTypeString","alias":"HOUSE_NO","length":20},{"name":"E_COORD97","type":"esriFieldTypeDouble","alias":"E_COORD97"},{"name":"N_COORD97","type":"esriFieldTypeDouble","alias":"N_COORD97"},{"name":"ADDRESS","type":"esriFieldTypeString","alias":"ADDRESS","length":50},{"name":"OBJECTID","type":"esriFieldTypeOID","alias":"OBJECTID"}],"features":[{"attributes":{"ID":555628,"DIS_CODE":0,"TOWNNAME":"東區","LI":"東門里","LIN":"21鄰","STREET":"慶東街","SECT":" ","MAREA":" ","LANE":" ","ALLEY":" ","HOUSE_NO":"９６號七樓之２","E_COORD97":169660.69,"N_COORD97":2543194.6099999999,"ADDRESS":"慶東街９６號七樓之２","OBJECTID":555601},"geometry":{"x":169660.69000000134,"y":2543194.6099999994}},{"attributes":{"ID":555629,"DIS_CODE":0,"TOWNNAME":"東區","LI":"東門里","LIN":"21鄰","STREET":"慶東街","SECT":" ","MAREA":" ","LANE":" ","ALLEY":" ","HOUSE_NO":"９６號九樓之１","E_COORD97":169660.69,"N_COORD97":2543194.6099999999,"ADDRESS":"慶東街９６號九樓之１","OBJECTID":555602},"geometry":{"x":169660.69000000134,"y":2543194.6099999994}},{"attributes":{"ID":555630,"DIS_CODE":0,"TOWNNAME":"東區","LI":"東門里","LIN":"21鄰","STREET":"慶東街","SECT":" ","MAREA":" ","LANE":" ","ALLEY":" ","HOUSE_NO":"９６號九樓之２","E_COORD97":169660.69,"N_COORD97":2543194.6099999999,"ADDRESS":"慶東街９６號九樓之２","OBJECTID":555603},"geometry":{"x":169660.69000000134,"y":2543194.6099999994}},{"attributes":{"ID":555631,"DIS_CODE":0,"TOWNNAME":"東區","LI":"東門里","LIN":"21鄰","STREET":"慶東街","SECT":" ","MAREA":" ","LANE":" ","ALLEY":" ","HOUSE_NO":"９６號八樓","E_COORD97":169660.69,"N_COORD97":2543194.6099999999,"ADDRESS":"慶東街９６號八樓","OBJECTID":555604},"geometry":{"x":169660.69000000134,"y":2543194.6099999994}},{"attributes":{"ID":555632,"DIS_CODE":0,"TOWNNAME":"東區","LI":"東門里","LIN":"21鄰","STREET":"慶東街","SECT":" ","MAREA":" ","LANE":" ","ALLEY":" ","HOUSE_NO":"９６號八樓之１","E_COORD97":169660.69,"N_COORD97":2543194.6099999999,"ADDRESS":"慶東街９６號八樓之１","OBJECTID":555605},"geometry":{"x":169660.69000000134,"y":2543194.6099999994}},{"attributes":{"ID":555633,"DIS_CODE":0,"TOWNNAME":"東區","LI":"東門里","LIN":"21鄰","STREET":"慶東街","SECT":" ","MAREA":" ","LANE":" ","ALLEY":" ","HOUSE_NO":"９６號八樓之２","E_COORD97":169660.69,"N_COORD97":2543194.6099999999,"ADDRESS":"慶東街９６號八樓之２","OBJECTID":555606},"geometry":{"x":169660.69000000134,"y":2543194.6099999994}},{"attributes":{"ID":555634,"DIS_CODE":0,"TOWNNAME":"東區","LI":"東門里","LIN":"21鄰","STREET":"慶東街","SECT":" ","MAREA":" ","LANE":" ","ALLEY":" ","HOUSE_NO":"９６號五樓","E_COORD97":169660.69,"N_COORD97":2543194.6099999999,"ADDRESS":"慶東街９６號五樓","OBJECTID":555607},"geometry":{"x":169660.69000000134,"y":2543194.6099999994}},{"attributes":{"ID":555635,"DIS_CODE":0,"TOWNNAME":"東區","LI":"東門里","LIN":"21鄰","STREET":"慶東街","SECT":" ","MAREA":" ","LANE":" ","ALLEY":" ","HOUSE_NO":"９６號五樓之１","E_COORD97":169660.69,"N_COORD97":2543194.6099999999,"ADDRESS":"慶東街９６號五樓之１","OBJECTID":555608},"geometry":{"x":169660.69000000134,"y":2543194.6099999994}},{"attributes":{"ID":555636,"DIS_CODE":0,"TOWNNAME":"東區","LI":"東門里","LIN":"21鄰","STREET":"慶東街","SECT":" ","MAREA":" ","LANE":" ","ALLEY":" ","HOUSE_NO":"９６號五樓之２","E_COORD97":169660.69,"N_COORD97":2543194.6099999999,"ADDRESS":"慶東街９６號五樓之２","OBJECTID":555609},"geometry":{"x":169660.69000000134,"y":2543194.6099999994}},{"attributes":{"ID":555637,"DIS_CODE":0,"TOWNNAME":"東區","LI":"東門里","LIN":"21鄰","STREET":"慶東街","SECT":" ","MAREA":" ","LANE":" ","ALLEY":" ","HOUSE_NO":"９６號五樓之３","E_COORD97":169660.69,"N_COORD97":2543194.6099999999,"ADDRESS":"慶東街９６號五樓之３","OBJECTID":555610},"geometry":{"x":169660.69000000134,"y":2543194.6099999994}},{"attributes":{"ID":555638,"DIS_CODE":0,"TOWNNAME":"東區","LI":"東門里","LIN":"21鄰","STREET":"慶東街","SECT":" ","MAREA":" ","LANE":" ","ALLEY":" ","HOUSE_NO":"９６號六樓","E_COORD97":169660.69,"N_COORD97":2543194.6099999999,"ADDRESS":"慶東街９６號六樓","OBJECTID":555611},"geometry":{"x":169660.69000000134,"y":2543194.6099999994}},{"attributes":{"ID":555639,"DIS_CODE":0,"TOWNNAME":"東區","LI":"東門里","LIN":"21鄰","STREET":"慶東街","SECT":" ","MAREA":" ","LANE":" ","ALLEY":" ","HOUSE_NO":"９６號六樓之１","E_COORD97":169660.69,"N_COORD97":2543194.6099999999,"ADDRESS":"慶東街９６號六樓之１","OBJECTID":555612},"geometry":{"x":169660.69000000134,"y":2543194.6099999994}},{"attributes":{"ID":555640,"DIS_CODE":0,"TOWNNAME":"東區","LI":"東門里","LIN":"21鄰","STREET":"慶東街","SECT":" ","MAREA":" ","LANE":" ","ALLEY":" ","HOUSE_NO":"９６號六樓之２","E_COORD97":169660.69,"N_COORD97":2543194.6099999999,"ADDRESS":"慶東街９６號六樓之２","OBJECTID":555613},"geometry":{"x":169660.69000000134,"y":2543194.6099999994}},{"attributes":{"ID":555641,"DIS_CODE":0,"TOWNNAME":"東區","LI":"東門里","LIN":"21鄰","STREET":"慶東街","SECT":" ","MAREA":" ","LANE":" ","ALLEY":" ","HOUSE_NO":"９６號六樓之３","E_COORD97":169660.69,"N_COORD97":2543194.6099999999,"ADDRESS":"慶東街９６號六樓之３","OBJECTID":555614},"geometry":{"x":169660.69000000134,"y":2543194.6099999994}},{"attributes":{"ID":555642,"DIS_CODE":0,"TOWNNAME":"東區","LI":"東門里","LIN":"21鄰","STREET":"慶東街","SECT":" ","MAREA":" ","LANE":" ","ALLEY":" ","HOUSE_NO":"９６號四樓","E_COORD97":169660.69,"N_COORD97":2543194.6099999999,"ADDRESS":"慶東街９６號四樓","OBJECTID":555615},"geometry":{"x":169660.69000000134,"y":2543194.6099999994}},{"attributes":{"ID":555643,"DIS_CODE":0,"TOWNNAME":"東區","LI":"東門里","LIN":"21鄰","STREET":"慶東街","SECT":" ","MAREA":" ","LANE":" ","ALLEY":" ","HOUSE_NO":"９６號四樓之１","E_COORD97":169660.69,"N_COORD97":2543194.6099999999,"ADDRESS":"慶東街９６號四樓之１","OBJECTID":555616},"geometry":{"x":169660.69000000134,"y":2543194.6099999994}},{"attributes":{"ID":555644,"DIS_CODE":0,"TOWNNAME":"東區","LI":"東門里","LIN":"21鄰","STREET":"慶東街","SECT":" ","MAREA":" ","LANE":" ","ALLEY":" ","HOUSE_NO":"９６號四樓之２","E_COORD97":169660.69,"N_COORD97":2543194.6099999999,"ADDRESS":"慶東街９６號四樓之２","OBJECTID":555617},"geometry":{"x":169660.69000000134,"y":2543194.6099999994}},{"attributes":{"ID":555645,"DIS_CODE":0,"TOWNNAME":"東區","LI":"東門里","LIN":"21鄰","STREET":"慶東街","SECT":" ","MAREA":" ","LANE":" ","ALLEY":" ","HOUSE_NO":"９６號四樓之３","E_COORD97":169660.69,"N_COORD97":2543194.6099999999,"ADDRESS":"慶東街９６號四樓之３","OBJECTID":555618},"geometry":{"x":169660.69000000134,"y":2543194.6099999994}},{"attributes":{"ID":555646,"DIS_CODE":0,"TOWNNAME":"中西區","LI":"安海里","LIN":"21鄰","STREET":"民生路","SECT":"二段","MAREA":" ","LANE":" ","ALLEY":" ","HOUSE_NO":"４８９號二樓","E_COORD97":166697.56,"N_COORD97":2544248.2000000002,"ADDRESS":"民生路二段４８９號二樓","OBJECTID":555619},"geometry":{"x":166697.56000000052,"y":2544248.1999999993}},{"attributes":{"ID":555647,"DIS_CODE":0,"TOWNNAME":"永康區","LI":"永康里","LIN":"21鄰","STREET":"中山南路","SECT":" ","MAREA":" ","LANE":" ","ALLEY":" ","HOUSE_NO":"１０４２號五樓之３","E_COORD97":173706.14999999999,"N_COORD97":2547287.2999999998,"ADDRESS":"中山南路１０４２號五樓之３","OBJECTID":555620},"geometry":{"x":173706.15000000037,"y":2547287.3000000007}},{"attributes":{"ID":555648,"DIS_CODE":0,"TOWNNAME":"永康區","LI":"永康里","LIN":"21鄰","STREET":"中山南路","SECT":" ","MAREA":" ","LANE":" ","ALLEY":" ","HOUSE_NO":"１０４２號四樓之２","E_COORD97":173706.17999999999,"N_COORD97":2547287.2999999998,"ADDRESS":"中山南路１０４２號四樓之２","OBJECTID":555621},"geometry":{"x":173706.18000000063,"y":2547287.3000000007}},{"attributes":{"ID":555649,"DIS_CODE":0,"TOWNNAME":"永康區","LI":"永康里","LIN":"21鄰","STREET":"中山南路","SECT":" ","MAREA":" ","LANE":" ","ALLEY":" ","HOUSE_NO":"１０４２號四樓之１","E_COORD97":173706.04999999999,"N_COORD97":2547287.2999999998,"ADDRESS":"中山南路１０４２號四樓之１","OBJECTID":555622},"geometry":{"x":173706.04999999981,"y":2547287.3000000007}},{"attributes":{"ID":555650,"DIS_CODE":0,"TOWNNAME":"永康區","LI":"永康里","LIN":"21鄰","STREET":"中山南路","SECT":" ","MAREA":" ","LANE":" ","ALLEY":" ","HOUSE_NO":"１０４２號七樓之１","E_COORD97":173706.04999999999,"N_COORD97":2547287.2999999998,"ADDRESS":"中山南路１０４２號七樓之１","OBJECTID":555623},"geometry":{"x":173706.04999999981,"y":2547287.3000000007}},{"attributes":{"ID":555651,"DIS_CODE":0,"TOWNNAME":"永康區","LI":"永康里","LIN":"21鄰","STREET":"中山南路","SECT":" ","MAREA":" ","LANE":" ","ALLEY":" ","HOUSE_NO":"１０４２號四樓之３","E_COORD97":173706.14999999999,"N_COORD97":2547287.2999999998,"ADDRESS":"中山南路１０４２號四樓之３","OBJECTID":555624},"geometry":{"x":173706.15000000037,"y":2547287.3000000007}},{"attributes":{"ID":555652,"DIS_CODE":0,"TOWNNAME":"東區","LI":"崇文里","LIN":"21鄰","STREET":"崇德二十一街","SECT":" ","MAREA":" ","LANE":" ","ALLEY":" ","HOUSE_NO":"６７號二樓之１","E_COORD97":171002.10000000001,"N_COORD97":2540882.0299999998,"ADDRESS":"崇德二十一街６７號二樓之１","OBJECTID":555625},"geometry":{"x":171002.09999999963,"y":2540882.0300000012}},{"attributes":{"ID":555653,"DIS_CODE":0,"TOWNNAME":"東區","LI":"崇文里","LIN":"21鄰","STREET":"崇德二十一街","SECT":" ","MAREA":" ","LANE":" ","ALLEY":" ","HOUSE_NO":"６７號二樓之２","E_COORD97":171002.10000000001,"N_COORD97":2540882.0299999998,"ADDRESS":"崇德二十一街６７號二樓之２","OBJECTID":555626},"geometry":{"x":171002.09999999963,"y":2540882.0300000012}},{"attributes":{"ID":555654,"DIS_CODE":0,"TOWNNAME":"東區","LI":"崇文里","LIN":"21鄰","STREET":"崇德二十一街","SECT":" ","MAREA":" ","LANE":" ","ALLEY":" ","HOUSE_NO":"６７號三樓","E_COORD97":171002.10000000001,"N_COORD97":2540882.0299999998,"ADDRESS":"崇德二十一街６７號三樓","OBJECTID":555627},"geometry":{"x":171002.09999999963,"y":2540882.0300000012}},{"attributes":{"ID":555655,"DIS_CODE":0,"TOWNNAME":"東區","LI":"崇文里","LIN":"21鄰","STREET":"崇德二十一街","SECT":" ","MAREA":" ","LANE":" ","ALLEY":" ","HOUSE_NO":"６７號三樓之１","E_COORD97":171002.10000000001,"N_COORD97":2540882.0299999998,"ADDRESS":"崇德二十一街６７號三樓之１","OBJECTID":555628},"geometry":{"x":171002.09999999963,"y":2540882.0300000012}},{"attributes":{"ID":555656,"DIS_CODE":0,"TOWNNAME":"東區","LI":"崇文里","LIN":"21鄰","STREET":"崇德二十一街","SECT":" ","MAREA":" ","LANE":" ","ALLEY":" ","HOUSE_NO":"６７號三樓之２","E_COORD97":171002.10000000001,"N_COORD97":2540882.0299999998,"ADDRESS":"崇德二十一街６７號三樓之２","OBJECTID":555629},"geometry":{"x":171002.09999999963,"y":2540882.0300000012}},{"attributes":{"ID":555657,"DIS_CODE":0,"TOWNNAME":"東區","LI":"崇文里","LIN":"21鄰","STREET":"崇德二十一街","SECT":" ","MAREA":" ","LANE":" ","ALLEY":" ","HOUSE_NO":"６７號五樓","E_COORD97":171002.10000000001,"N_COORD97":2540882.0299999998,"ADDRESS":"崇德二十一街６７號五樓","OBJECTID":555630},"geometry":{"x":171002.09999999963,"y":2540882.0300000012}},{"attributes":{"ID":555658,"DIS_CODE":0,"TOWNNAME":"東區","LI":"崇文里","LIN":"21鄰","STREET":"崇德二十一街","SECT":" ","MAREA":" ","LANE":" ","ALLEY":" ","HOUSE_NO":"６７號五樓之１","E_COORD97":171002.10000000001,"N_COORD97":2540882.0299999998,"ADDRESS":"崇德二十一街６７號五樓之１","OBJECTID":555631},"geometry":{"x":171002.09999999963,"y":2540882.0300000012}},{"attributes":{"ID":555659,"DIS_CODE":0,"TOWNNAME":"東區","LI":"崇文里","LIN":"21鄰","STREET":"崇德二十一街","SECT":" ","MAREA":" ","LANE":" ","ALLEY":" ","HOUSE_NO":"６７號五樓之２","E_COORD97":171002.10000000001,"N_COORD97":2540882.0299999998,"ADDRESS":"崇德二十一街６７號五樓之２","OBJECTID":555632},"geometry":{"x":171002.09999999963,"y":2540882.0300000012}},{"attributes":{"ID":555660,"DIS_CODE":0,"TOWNNAME":"東區","LI":"崇文里","LIN":"21鄰","STREET":"崇德二十一街","SECT":" ","MAREA":" ","LANE":" ","ALLEY":" ","HOUSE_NO":"６７號六樓","E_COORD97":171002.10000000001,"N_COORD97":2540882.0299999998,"ADDRESS":"崇德二十一街６７號六樓","OBJECTID":555633},"geometry":{"x":171002.09999999963,"y":2540882.0300000012}},{"attributes":{"ID":555661,"DIS_CODE":0,"TOWNNAME":"麻豆區","LI":"\u25A0江里","LIN":"21鄰","STREET":"民生路","SECT":" ","MAREA":" ","LANE":" ","ALLEY":" ","HOUSE_NO":"７６號六樓","E_COORD97":173748.17000000001,"N_COORD97":2564411.4100000001,"ADDRESS":"民生路７６號六樓","OBJECTID":555634},"geometry":{"x":173748.16999999993,"y":2564411.4100000039}},{"attributes":{"ID":555662,"DIS_CODE":0,"TOWNNAME":"東區","LI":"崇文里","LIN":"21鄰","STREET":"崇德二十一街","SECT":" ","MAREA":" ","LANE":" ","ALLEY":" ","HOUSE_NO":"６７號六樓之１","E_COORD97":171002.10000000001,"N_COORD97":2540882.0299999998,"ADDRESS":"崇德二十一街６７號六樓之１","OBJECTID":555635},"geometry":{"x":171002.09999999963,"y":2540882.0300000012}},{"attributes":{"ID":555663,"DIS_CODE":0,"TOWNNAME":"東區","LI":"崇文里","LIN":"21鄰","STREET":"崇德二十一街","SECT":" ","MAREA":" ","LANE":" ","ALLEY":" ","HOUSE_NO":"６７號六樓之２","E_COORD97":171002.10000000001,"N_COORD97":2540882.0299999998,"ADDRESS":"崇德二十一街６７號六樓之２","OBJECTID":555636},"geometry":{"x":171002.09999999963,"y":2540882.0300000012}},{"attributes":{"ID":555664,"DIS_CODE":0,"TOWNNAME":"東區","LI":"崇文里","LIN":"21鄰","STREET":"崇德二十一街","SECT":" ","MAREA":" ","LANE":" ","ALLEY":" ","HOUSE_NO":"６７號四樓","E_COORD97":171002.10000000001,"N_COORD97":2540882.0299999998,"ADDRESS":"崇德二十一街６７號四樓","OBJECTID":555637},"geometry":{"x":171002.09999999963,"y":2540882.0300000012}},{"attributes":{"ID":555665,"DIS_CODE":0,"TOWNNAME":"東區","LI":"崇文里","LIN":"21鄰","STREET":"崇德二十一街","SECT":" ","MAREA":" ","LANE":" ","ALLEY":" ","HOUSE_NO":"６７號四樓之１","E_COORD97":171002.10000000001,"N_COORD97":2540882.0299999998,"ADDRESS":"崇德二十一街６７號四樓之１","OBJECTID":555638},"geometry":{"x":171002.09999999963,"y":2540882.0300000012}},{"attributes":{"ID":555666,"DIS_CODE":0,"TOWNNAME":"東區","LI":"崇文里","LIN":"21鄰","STREET":"崇德二十一街","SECT":" ","MAREA":" ","LANE":" ","ALLEY":" ","HOUSE_NO":"６７號四樓之２","E_COORD97":171002.10000000001,"N_COORD97":2540882.0299999998,"ADDRESS":"崇德二十一街６７號四樓之２","OBJECTID":555639},"geometry":{"x":171002.09999999963,"y":2540882.0300000012}},{"attributes":{"ID":555667,"DIS_CODE":0,"TOWNNAME":"中西區","LI":"大涼里","LIN":"21鄰","STREET":"府前二街","SECT":" ","MAREA":" ","LANE":" ","ALLEY":" ","HOUSE_NO":"７０號二樓之１","E_COORD97":166684.92999999999,"N_COORD97":2543908.52,"ADDRESS":"府前二街７０號二樓之１","OBJECTID":555640},"geometry":{"x":166684.93000000063,"y":2543908.5200000033}},{"attributes":{"ID":555668,"DIS_CODE":0,"TOWNNAME":"中西區","LI":"大涼里","LIN":"21鄰","STREET":"府前二街","SECT":" ","MAREA":" ","LANE":" ","ALLEY":" ","HOUSE_NO":"７０號三樓之１","E_COORD97":166684.92999999999,"N_COORD97":2543908.52,"ADDRESS":"府前二街７０號三樓之１","OBJECTID":555641},"geometry":{"x":166684.93000000063,"y":2543908.5200000033}},{"attributes":{"ID":555669,"DIS_CODE":0,"TOWNNAME":"中西區","LI":"大涼里","LIN":"21鄰","STREET":"府前二街","SECT":" ","MAREA":" ","LANE":" ","ALLEY":" ","HOUSE_NO":"７０號三樓之１０","E_COORD97":166684.92999999999,"N_COORD97":2543908.52,"ADDRESS":"府前二街７０號三樓之１０","OBJECTID":555642},"geometry":{"x":166684.93000000063,"y":2543908.5200000033}},{"attributes":{"ID":555670,"DIS_CODE":0,"TOWNNAME":"中西區","LI":"大涼里","LIN":"21鄰","STREET":"府前二街","SECT":" ","MAREA":" ","LANE":" ","ALLEY":" ","HOUSE_NO":"７０號三樓之１１","E_COORD97":166684.92999999999,"N_COORD97":2543908.52,"ADDRESS":"府前二街７０號三樓之１１","OBJECTID":555643},"geometry":{"x":166684.93000000063,"y":2543908.5200000033}},{"attributes":{"ID":555671,"DIS_CODE":0,"TOWNNAME":"中西區","LI":"大涼里","LIN":"21鄰","STREET":"府前二街","SECT":" ","MAREA":" ","LANE":" ","ALLEY":" ","HOUSE_NO":"７０號三樓之１２","E_COORD97":166684.92999999999,"N_COORD97":2543908.52,"ADDRESS":"府前二街７０號三樓之１２","OBJECTID":555644},"geometry":{"x":166684.93000000063,"y":2543908.5200000033}},{"attributes":{"ID":555672,"DIS_CODE":0,"TOWNNAME":"中西區","LI":"大涼里","LIN":"21鄰","STREET":"府前二街","SECT":" ","MAREA":" ","LANE":" ","ALLEY":" ","HOUSE_NO":"７０號三樓之１３","E_COORD97":166684.92999999999,"N_COORD97":2543908.52,"ADDRESS":"府前二街７０號三樓之１３","OBJECTID":555645},"geometry":{"x":166684.93000000063,"y":2543908.5200000033}},{"attributes":{"ID":555673,"DIS_CODE":0,"TOWNNAME":"中西區","LI":"大涼里","LIN":"21鄰","STREET":"府前二街","SECT":" ","MAREA":" ","LANE":" ","ALLEY":" ","HOUSE_NO":"７０號三樓之１４","E_COORD97":166684.92999999999,"N_COORD97":2543908.52,"ADDRESS":"府前二街７０號三樓之１４","OBJECTID":555646},"geometry":{"x":166684.93000000063,"y":2543908.5200000033}},{"attributes":{"ID":555674,"DIS_CODE":0,"TOWNNAME":"中西區","LI":"大涼里","LIN":"21鄰","STREET":"府前二街","SECT":" ","MAREA":" ","LANE":" ","ALLEY":" ","HOUSE_NO":"７０號三樓之１５","E_COORD97":166684.92999999999,"N_COORD97":2543908.52,"ADDRESS":"府前二街７０號三樓之１５","OBJECTID":555647},"geometry":{"x":166684.93000000063,"y":2543908.5200000033}},{"attributes":{"ID":555675,"DIS_CODE":0,"TOWNNAME":"中西區","LI":"大涼里","LIN":"21鄰","STREET":"府前二街","SECT":" ","MAREA":" ","LANE":" ","ALLEY":" ","HOUSE_NO":"７０號三樓之１６","E_COORD97":166684.92999999999,"N_COORD97":2543908.52,"ADDRESS":"府前二街７０號三樓之１６","OBJECTID":555648},"geometry":{"x":166684.93000000063,"y":2543908.5200000033}},{"attributes":{"ID":555676,"DIS_CODE":0,"TOWNNAME":"中西區","LI":"大涼里","LIN":"21鄰","STREET":"府前二街","SECT":" ","MAREA":" ","LANE":" ","ALLEY":" ","HOUSE_NO":"７０號三樓之１７","E_COORD97":166684.92999999999,"N_COORD97":2543908.52,"ADDRESS":"府前二街７０號三樓之１７","OBJECTID":555649},"geometry":{"x":166684.93000000063,"y":2543908.5200000033}},{"attributes":{"ID":555677,"DIS_CODE":0,"TOWNNAME":"中西區","LI":"大涼里","LIN":"21鄰","STREET":"府前二街","SECT":" ","MAREA":" ","LANE":" ","ALLEY":" ","HOUSE_NO":"７０號三樓之１８","E_COORD97":166684.92999999999,"N_COORD97":2543908.52,"ADDRESS":"府前二街７０號三樓之１８","OBJECTID":555650},"geometry":{"x":166684.93000000063,"y":2543908.5200000033}},{"attributes":{"ID":555678,"DIS_CODE":0,"TOWNNAME":"中西區","LI":"大涼里","LIN":"21鄰","STREET":"府前二街","SECT":" ","MAREA":" ","LANE":" ","ALLEY":" ","HOUSE_NO":"７０號三樓之１９","E_COORD97":166684.92999999999,"N_COORD97":2543908.52,"ADDRESS":"府前二街７０號三樓之１９","OBJECTID":555651},"geometry":{"x":166684.93000000063,"y":2543908.5200000033}},{"attributes":{"ID":555679,"DIS_CODE":0,"TOWNNAME":"中西區","LI":"大涼里","LIN":"21鄰","STREET":"府前二街","SECT":" ","MAREA":" ","LANE":" ","ALLEY":" ","HOUSE_NO":"７０號三樓之２","E_COORD97":166684.92999999999,"N_COORD97":2543908.52,"ADDRESS":"府前二街７０號三樓之２","OBJECTID":555652},"geometry":{"x":166684.93000000063,"y":2543908.5200000033}},{"attributes":{"ID":555680,"DIS_CODE":0,"TOWNNAME":"中西區","LI":"大涼里","LIN":"21鄰","STREET":"府前二街","SECT":" ","MAREA":" ","LANE":" ","ALLEY":" ","HOUSE_NO":"７０號三樓之２０","E_COORD97":166684.92999999999,"N_COORD97":2543908.52,"ADDRESS":"府前二街７０號三樓之２０","OBJECTID":555653},"geometry":{"x":166684.93000000063,"y":2543908.5200000033}},{"attributes":{"ID":555681,"DIS_CODE":0,"TOWNNAME":"新市區","LI":"三舍里","LIN":"9鄰","STREET":"大順九路","SECT":" ","MAREA":" ","LANE":" ","ALLEY":" ","HOUSE_NO":"３號","E_COORD97":176981.23000000001,"N_COORD97":2556398.75,"ADDRESS":"大順九路３號","OBJECTID":555654},"geometry":{"x":176981.23000000045,"y":2556398.7500000019}},{"attributes":{"ID":555682,"DIS_CODE":0,"TOWNNAME":"中西區","LI":"大涼里","LIN":"21鄰","STREET":"府前二街","SECT":" ","MAREA":" ","LANE":" ","ALLEY":" ","HOUSE_NO":"７０號三樓之２１","E_COORD97":166684.92999999999,"N_COORD97":2543908.52,"ADDRESS":"府前二街７０號三樓之２１","OBJECTID":555655},"geometry":{"x":166684.93000000063,"y":2543908.5200000033}},{"attributes":{"ID":555683,"DIS_CODE":0,"TOWNNAME":"中西區","LI":"大涼里","LIN":"21鄰","STREET":"府前二街","SECT":" ","MAREA":" ","LANE":" ","ALLEY":" ","HOUSE_NO":"７０號三樓之２２","E_COORD97":166684.92999999999,"N_COORD97":2543908.52,"ADDRESS":"府前二街７０號三樓之２２","OBJECTID":555656},"geometry":{"x":166684.93000000063,"y":2543908.5200000033}},{"attributes":{"ID":555684,"DIS_CODE":0,"TOWNNAME":"中西區","LI":"大涼里","LIN":"21鄰","STREET":"府前二街","SECT":" ","MAREA":" ","LANE":" ","ALLEY":" ","HOUSE_NO":"７０號三樓之２３","E_COORD97":166684.92999999999,"N_COORD97":2543908.52,"ADDRESS":"府前二街７０號三樓之２３","OBJECTID":555657},"geometry":{"x":166684.93000000063,"y":2543908.5200000033}},{"attributes":{"ID":555685,"DIS_CODE":0,"TOWNNAME":"中西區","LI":"大涼里","LIN":"21鄰","STREET":"府前二街","SECT":" ","MAREA":" ","LANE":" ","ALLEY":" ","HOUSE_NO":"７０號三樓之２４","E_COORD97":166684.92999999999,"N_COORD97":2543908.52,"ADDRESS":"府前二街７０號三樓之２４","OBJECTID":555658},"geometry":{"x":166684.93000000063,"y":2543908.5200000033}},{"attributes":{"ID":555686,"DIS_CODE":0,"TOWNNAME":"中西區","LI":"大涼里","LIN":"21鄰","STREET":"府前二街","SECT":" ","MAREA":" ","LANE":" ","ALLEY":" ","HOUSE_NO":"７０號三樓之２５","E_COORD97":166684.92999999999,"N_COORD97":2543908.52,"ADDRESS":"府前二街７０號三樓之２５","OBJECTID":555659},"geometry":{"x":166684.93000000063,"y":2543908.5200000033}},{"attributes":{"ID":555687,"DIS_CODE":0,"TOWNNAME":"中西區","LI":"大涼里","LIN":"21鄰","STREET":"府前二街","SECT":" ","MAREA":" ","LANE":" ","ALLEY":" ","HOUSE_NO":"７０號三樓之２６","E_COORD97":166684.92999999999,"N_COORD97":2543908.52,"ADDRESS":"府前二街７０號三樓之２６","OBJECTID":555660},"geometry":{"x":166684.93000000063,"y":2543908.5200000033}},{"attributes":{"ID":555688,"DIS_CODE":0,"TOWNNAME":"中西區","LI":"大涼里","LIN":"21鄰","STREET":"府前二街","SECT":" ","MAREA":" ","LANE":" ","ALLEY":" ","HOUSE_NO":"７０號三樓之２７","E_COORD97":166684.92999999999,"N_COORD97":2543908.52,"ADDRESS":"府前二街７０號三樓之２７","OBJECTID":555661},"geometry":{"x":166684.93000000063,"y":2543908.5200000033}},{"attributes":{"ID":555689,"DIS_CODE":0,"TOWNNAME":"中西區","LI":"大涼里","LIN":"21鄰","STREET":"府前二街","SECT":" ","MAREA":" ","LANE":" ","ALLEY":" ","HOUSE_NO":"７０號三樓之２８","E_COORD97":166684.92999999999,"N_COORD97":2543908.52,"ADDRESS":"府前二街７０號三樓之２８","OBJECTID":555662},"geometry":{"x":166684.93000000063,"y":2543908.5200000033}},{"attributes":{"ID":555690,"DIS_CODE":0,"TOWNNAME":"中西區","LI":"大涼里","LIN":"21鄰","STREET":"府前二街","SECT":" ","MAREA":" ","LANE":" ","ALLEY":" ","HOUSE_NO":"７０號三樓之２９","E_COORD97":166684.92999999999,"N_COORD97":2543908.52,"ADDRESS":"府前二街７０號三樓之２９","OBJECTID":555663},"geometry":{"x":166684.93000000063,"y":2543908.5200000033}},{"attributes":{"ID":555691,"DIS_CODE":0,"TOWNNAME":"中西區","LI":"大涼里","LIN":"21鄰","STREET":"府前二街","SECT":" ","MAREA":" ","LANE":" ","ALLEY":" ","HOUSE_NO":"７０號三樓之３","E_COORD97":166684.92999999999,"N_COORD97":2543908.52,"ADDRESS":"府前二街７０號三樓之３","OBJECTID":555664},"geometry":{"x":166684.93000000063,"y":2543908.5200000033}},{"attributes":{"ID":555692,"DIS_CODE":0,"TOWNNAME":"中西區","LI":"大涼里","LIN":"21鄰","STREET":"府前二街","SECT":" ","MAREA":" ","LANE":" ","ALLEY":" ","HOUSE_NO":"７０號三樓之３０","E_COORD97":166684.92999999999,"N_COORD97":2543908.52,"ADDRESS":"府前二街７０號三樓之３０","OBJECTID":555665},"geometry":{"x":166684.93000000063,"y":2543908.5200000033}},{"attributes":{"ID":555693,"DIS_CODE":0,"TOWNNAME":"中西區","LI":"大涼里","LIN":"21鄰","STREET":"府前二街","SECT":" ","MAREA":" ","LANE":" ","ALLEY":" ","HOUSE_NO":"７０號三樓之３１","E_COORD97":166684.92999999999,"N_COORD97":2543908.52,"ADDRESS":"府前二街７０號三樓之３１","OBJECTID":555666},"geometry":{"x":166684.93000000063,"y":2543908.5200000033}},{"attributes":{"ID":555694,"DIS_CODE":0,"TOWNNAME":"中西區","LI":"大涼里","LIN":"21鄰","STREET":"府前二街","SECT":" ","MAREA":" ","LANE":" ","ALLEY":" ","HOUSE_NO":"７０號三樓之４","E_COORD97":166684.92999999999,"N_COORD97":2543908.52,"ADDRESS":"府前二街７０號三樓之４","OBJECTID":555667},"geometry":{"x":166684.93000000063,"y":2543908.5200000033}},{"attributes":{"ID":555695,"DIS_CODE":0,"TOWNNAME":"中西區","LI":"大涼里","LIN":"21鄰","STREET":"府前二街","SECT":" ","MAREA":" ","LANE":" ","ALLEY":" ","HOUSE_NO":"７０號三樓之８","E_COORD97":166684.92999999999,"N_COORD97":2543908.52,"ADDRESS":"府前二街７０號三樓之８","OBJECTID":555668},"geometry":{"x":166684.93000000063,"y":2543908.5200000033}},{"attributes":{"ID":555696,"DIS_CODE":0,"TOWNNAME":"中西區","LI":"大涼里","LIN":"21鄰","STREET":"府前二街","SECT":" ","MAREA":" ","LANE":" ","ALLEY":" ","HOUSE_NO":"７０號三樓之９","E_COORD97":166684.92999999999,"N_COORD97":2543908.52,"ADDRESS":"府前二街７０號三樓之９","OBJECTID":555669},"geometry":{"x":166684.93000000063,"y":2543908.5200000033}},{"attributes":{"ID":555697,"DIS_CODE":0,"TOWNNAME":"中西區","LI":"大涼里","LIN":"21鄰","STREET":"府前二街","SECT":" ","MAREA":" ","LANE":" ","ALLEY":" ","HOUSE_NO":"７０號五樓之１","E_COORD97":166684.92999999999,"N_COORD97":2543908.52,"ADDRESS":"府前二街７０號五樓之１","OBJECTID":555670},"geometry":{"x":166684.93000000063,"y":2543908.5200000033}},{"attributes":{"ID":555698,"DIS_CODE":0,"TOWNNAME":"麻豆區","LI":"\u25A0江里","LIN":"21鄰","STREET":"民生路","SECT":" ","MAREA":" ","LANE":" ","ALLEY":" ","HOUSE_NO":"７６號八樓","E_COORD97":173748.17000000001,"N_COORD97":2564411.4100000001,"ADDRESS":"民生路７６號八樓","OBJECTID":555671},"geometry":{"x":173748.16999999993,"y":2564411.4100000039}},{"attributes":{"ID":555699,"DIS_CODE":0,"TOWNNAME":"中西區","LI":"大涼里","LIN":"21鄰","STREET":"府前二街","SECT":" ","MAREA":" ","LANE":" ","ALLEY":" ","HOUSE_NO":"７０號五樓之１０","E_COORD97":166684.92999999999,"N_COORD97":2543908.52,"ADDRESS":"府前二街７０號五樓之１０","OBJECTID":555672},"geometry":{"x":166684.93000000063,"y":2543908.5200000033}},{"attributes":{"ID":555700,"DIS_CODE":0,"TOWNNAME":"中西區","LI":"大涼里","LIN":"21鄰","STREET":"府前二街","SECT":" ","MAREA":" ","LANE":" ","ALLEY":" ","HOUSE_NO":"７０號五樓之１１","E_COORD97":166684.92999999999,"N_COORD97":2543908.52,"ADDRESS":"府前二街７０號五樓之１１","OBJECTID":555673},"geometry":{"x":166684.93000000063,"y":2543908.5200000033}},{"attributes":{"ID":555701,"DIS_CODE":0,"TOWNNAME":"中西區","LI":"大涼里","LIN":"21鄰","STREET":"府前二街","SECT":" ","MAREA":" ","LANE":" ","ALLEY":" ","HOUSE_NO":"７０號五樓之１２","E_COORD97":166684.92999999999,"N_COORD97":2543908.52,"ADDRESS":"府前二街７０號五樓之１２","OBJECTID":555674},"geometry":{"x":166684.93000000063,"y":2543908.5200000033}},{"attributes":{"ID":555702,"DIS_CODE":0,"TOWNNAME":"中西區","LI":"大涼里","LIN":"21鄰","STREET":"府前二街","SECT":" ","MAREA":" ","LANE":" ","ALLEY":" ","HOUSE_NO":"７０號五樓之１３","E_COORD97":166684.92999999999,"N_COORD97":2543908.52,"ADDRESS":"府前二街７０號五樓之１３","OBJECTID":555675},"geometry":{"x":166684.93000000063,"y":2543908.5200000033}},{"attributes":{"ID":555703,"DIS_CODE":0,"TOWNNAME":"中西區","LI":"大涼里","LIN":"21鄰","STREET":"府前二街","SECT":" ","MAREA":" ","LANE":" ","ALLEY":" ","HOUSE_NO":"７０號五樓之１４","E_COORD97":166684.92999999999,"N_COORD97":2543908.52,"ADDRESS":"府前二街７０號五樓之１４","OBJECTID":555676},"geometry":{"x":166684.93000000063,"y":2543908.5200000033}},{"attributes":{"ID":555704,"DIS_CODE":0,"TOWNNAME":"中西區","LI":"大涼里","LIN":"21鄰","STREET":"府前二街","SECT":" ","MAREA":" ","LANE":" ","ALLEY":" ","HOUSE_NO":"７０號五樓之１５","E_COORD97":166684.92999999999,"N_COORD97":2543908.52,"ADDRESS":"府前二街７０號五樓之１５","OBJECTID":555677},"geometry":{"x":166684.93000000063,"y":2543908.5200000033}},{"attributes":{"ID":555705,"DIS_CODE":0,"TOWNNAME":"中西區","LI":"大涼里","LIN":"21鄰","STREET":"府前二街","SECT":" ","MAREA":" ","LANE":" ","ALLEY":" ","HOUSE_NO":"７０號五樓之１６","E_COORD97":166684.92999999999,"N_COORD97":2543908.52,"ADDRESS":"府前二街７０號五樓之１６","OBJECTID":555678},"geometry":{"x":166684.93000000063,"y":2543908.5200000033}},{"attributes":{"ID":555706,"DIS_CODE":0,"TOWNNAME":"永康區","LI":"中華里","LIN":"21鄰","STREET":"中華路","SECT":" ","MAREA":" ","LANE":" ","ALLEY":" ","HOUSE_NO":"１２號四樓之６","E_COORD97":171587.23999999999,"N_COORD97":2544494.1499999999,"ADDRESS":"中華路１２號四樓之６","OBJECTID":555679},"geometry":{"x":171587.24000000115,"y":2544494.1500000004}},{"attributes":{"ID":555707,"DIS_CODE":0,"TOWNNAME":"永康區","LI":"勝利里","LIN":"21鄰","STREET":"勝利街","SECT":" ","MAREA":" ","LANE":" ","ALLEY":" ","HOUSE_NO":"１５２號二樓之５","E_COORD97":171383.89999999999,"N_COORD97":2545055.8599999999,"ADDRESS":"勝利街１５２號二樓之５","OBJECTID":555680},"geometry":{"x":171383.90000000037,"y":2545055.8600000013}},{"attributes":{"ID":555708,"DIS_CODE":0,"TOWNNAME":"永康區","LI":"中華里","LIN":"21鄰","STREET":"中華路","SECT":" ","MAREA":" ","LANE":" ","ALLEY":" ","HOUSE_NO":"１２號八樓之５","E_COORD97":171587.29000000001,"N_COORD97":2544494.1499999999,"ADDRESS":"中華路１２號八樓之５","OBJECTID":555681},"geometry":{"x":171587.29000000097,"y":2544494.1500000004}},{"attributes":{"ID":555709,"DIS_CODE":0,"TOWNNAME":"永康區","LI":"網寮里","LIN":"21鄰","STREET":"文化路","SECT":" ","MAREA":" ","LANE":" ","ALLEY":" ","HOUSE_NO":"２３０號三樓之１","E_COORD97":173614.26000000001,"N_COORD97":2546146.7799999998,"ADDRESS":"文化路２３０號三樓之１","OBJECTID":555682},"geometry":{"x":173614.26000000071,"y":2546146.7799999993}},{"attributes":{"ID":555710,"DIS_CODE":0,"TOWNNAME":"永康區","LI":"網寮里","LIN":"21鄰","STREET":"文化路","SECT":" ","MAREA":" ","LANE":" ","ALLEY":" ","HOUSE_NO":"２３０號六樓之１","E_COORD97":173614.26000000001,"N_COORD97":2546146.7799999998,"ADDRESS":"文化路２３０號六樓之１","OBJECTID":555683},"geometry":{"x":173614.26000000071,"y":2546146.7799999993}},{"attributes":{"ID":555711,"DIS_CODE":0,"TOWNNAME":"永康區","LI":"勝利里","LIN":"21鄰","STREET":"勝利街","SECT":" ","MAREA":" ","LANE":" ","ALLEY":" ","HOUSE_NO":"１５２號五樓之７","E_COORD97":171383.82000000001,"N_COORD97":2545055.8599999999,"ADDRESS":"勝利街１５２號五樓之７","OBJECTID":555684},"geometry":{"x":171383.82000000123,"y":2545055.8600000013}},{"attributes":{"ID":555712,"DIS_CODE":0,"TOWNNAME":"永康區","LI":"中華里","LIN":"21鄰","STREET":"中華路","SECT":" ","MAREA":" ","LANE":" ","ALLEY":" ","HOUSE_NO":"２２號十六樓之４","E_COORD97":171618.64000000001,"N_COORD97":2544543.8199999998,"ADDRESS":"中華路２２號十六樓之４","OBJECTID":555685},"geometry":{"x":171618.63999999966,"y":2544543.8200000003}},{"attributes":{"ID":555713,"DIS_CODE":0,"TOWNNAME":"永康區","LI":"中華里","LIN":"21鄰","STREET":"中華路","SECT":" ","MAREA":" ","LANE":" ","ALLEY":" ","HOUSE_NO":"１２號九樓之１","E_COORD97":171587.14000000001,"N_COORD97":2544494.1499999999,"ADDRESS":"中華路１２號九樓之１","OBJECTID":555686},"geometry":{"x":171587.14000000153,"y":2544494.1500000004}},{"attributes":{"ID":555714,"DIS_CODE":0,"TOWNNAME":"永康區","LI":"中華里","LIN":"21鄰","STREET":"中華路","SECT":" ","MAREA":" ","LANE":" ","ALLEY":" ","HOUSE_NO":"１２號十三樓之５","E_COORD97":171588.54000000001,"N_COORD97":2544494.1499999999,"ADDRESS":"中華路１２號十三樓之５","OBJECTID":555687},"geometry":{"x":171588.54000000097,"y":2544494.1500000004}},{"attributes":{"ID":555715,"DIS_CODE":0,"TOWNNAME":"永康區","LI":"中華里","LIN":"21鄰","STREET":"中華路","SECT":" ","MAREA":" ","LANE":" ","ALLEY":" ","HOUSE_NO":"１２號六樓之３","E_COORD97":171587.23999999999,"N_COORD97":2544494.1499999999,"ADDRESS":"中華路１２號六樓之３","OBJECTID":555688},"geometry":{"x":171587.24000000115,"y":2544494.1500000004}},{"attributes":{"ID":555716,"DIS_CODE":0,"TOWNNAME":"永康區","LI":"中華里","LIN":"21鄰","STREET":"中華路","SECT":" ","MAREA":" ","LANE":" ","ALLEY":" ","HOUSE_NO":"１２號十五樓之３","E_COORD97":171588.48999999999,"N_COORD97":2544494.1499999999,"ADDRESS":"中華路１２號十五樓之３","OBJECTID":555689},"geometry":{"x":171588.49000000022,"y":2544494.1500000004}},{"attributes":{"ID":555717,"DIS_CODE":0,"TOWNNAME":"永康區","LI":"中華里","LIN":"21鄰","STREET":"中華路","SECT":" ","MAREA":" ","LANE":" ","ALLEY":" ","HOUSE_NO":"２２號十七樓之３","E_COORD97":171618.72,"N_COORD97":2544543.8199999998,"ADDRESS":"中華路２２號十七樓之３","OBJECTID":555690},"geometry":{"x":171618.71999999974,"y":2544543.8200000003}},{"attributes":{"ID":555718,"DIS_CODE":0,"TOWNNAME":"永康區","LI":"中華里","LIN":"21鄰","STREET":"中華路","SECT":" ","MAREA":" ","LANE":" ","ALLEY":" ","HOUSE_NO":"２２號四樓之１","E_COORD97":171617.37,"N_COORD97":2544543.8199999998,"ADDRESS":"中華路２２號四樓之１","OBJECTID":555691},"geometry":{"x":171617.37000000104,"y":2544543.8200000003}},{"attributes":{"ID":555719,"DIS_CODE":0,"TOWNNAME":"永康區","LI":"中華里","LIN":"21鄰","STREET":"中華路","SECT":" ","MAREA":" ","LANE":" ","ALLEY":" ","HOUSE_NO":"１２號十樓之１","E_COORD97":171587.14000000001,"N_COORD97":2544494.1499999999,"ADDRESS":"中華路１２號十樓之１","OBJECTID":555692},"geometry":{"x":171587.14000000153,"y":2544494.1500000004}},{"attributes":{"ID":555720,"DIS_CODE":0,"TOWNNAME":"永康區","LI":"中華里","LIN":"21鄰","STREET":"中華路","SECT":" ","MAREA":" ","LANE":" ","ALLEY":" ","HOUSE_NO":"２２號四樓之５","E_COORD97":171617.51999999999,"N_COORD97":2544543.8199999998,"ADDRESS":"中華路２２號四樓之５","OBJECTID":555693},"geometry":{"x":171617.51999999955,"y":2544543.8200000003}},{"attributes":{"ID":555721,"DIS_CODE":0,"TOWNNAME":"中西區","LI":"大涼里","LIN":"21鄰","STREET":"府前二街","SECT":" ","MAREA":" ","LANE":" ","ALLEY":" ","HOUSE_NO":"７０號五樓之２","E_COORD97":166684.92999999999,"N_COORD97":2543908.52,"ADDRESS":"府前二街７０號五樓之２","OBJECTID":555694},"geometry":{"x":166684.93000000063,"y":2543908.5200000033}},{"attributes":{"ID":555722,"DIS_CODE":0,"TOWNNAME":"中西區","LI":"大涼里","LIN":"21鄰","STREET":"府前二街","SECT":" ","MAREA":" ","LANE":" ","ALLEY":" ","HOUSE_NO":"７０號五樓之２２","E_COORD97":166684.92999999999,"N_COORD97":2543908.52,"ADDRESS":"府前二街７０號五樓之２２","OBJECTID":555695},"geometry":{"x":166684.93000000063,"y":2543908.5200000033}},{"attributes":{"ID":555723,"DIS_CODE":0,"TOWNNAME":"中西區","LI":"大涼里","LIN":"21鄰","STREET":"府前二街","SECT":" ","MAREA":" ","LANE":" ","ALLEY":" ","HOUSE_NO":"７０號五樓之２３","E_COORD97":166684.92999999999,"N_COORD97":2543908.52,"ADDRESS":"府前二街７０號五樓之２３","OBJECTID":555696},"geometry":{"x":166684.93000000063,"y":2543908.5200000033}},{"attributes":{"ID":555724,"DIS_CODE":0,"TOWNNAME":"中西區","LI":"大涼里","LIN":"21鄰","STREET":"府前二街","SECT":" ","MAREA":" ","LANE":" ","ALLEY":" ","HOUSE_NO":"７０號五樓之２４","E_COORD97":166684.92999999999,"N_COORD97":2543908.52,"ADDRESS":"府前二街７０號五樓之２４","OBJECTID":555697},"geometry":{"x":166684.93000000063,"y":2543908.5200000033}},{"attributes":{"ID":555725,"DIS_CODE":0,"TOWNNAME":"中西區","LI":"大涼里","LIN":"21鄰","STREET":"府前二街","SECT":" ","MAREA":" ","LANE":" ","ALLEY":" ","HOUSE_NO":"７０號五樓之２５","E_COORD97":166684.92999999999,"N_COORD97":2543908.52,"ADDRESS":"府前二街７０號五樓之２５","OBJECTID":555698},"geometry":{"x":166684.93000000063,"y":2543908.5200000033}},{"attributes":{"ID":555726,"DIS_CODE":0,"TOWNNAME":"永康區","LI":"中華里","LIN":"21鄰","STREET":"中華路","SECT":" ","MAREA":" ","LANE":" ","ALLEY":" ","HOUSE_NO":"１２號十六樓之４","E_COORD97":171588.41,"N_COORD97":2544494.1499999999,"ADDRESS":"中華路１２號十六樓之４","OBJECTID":555699},"geometry":{"x":171588.41000000015,"y":2544494.1500000004}},{"attributes":{"ID":555727,"DIS_CODE":0,"TOWNNAME":"永康區","LI":"中華里","LIN":"21鄰","STREET":"中華路","SECT":" ","MAREA":" ","LANE":" ","ALLEY":" ","HOUSE_NO":"１２號十七樓之５","E_COORD97":171588.54000000001,"N_COORD97":2544494.1499999999,"ADDRESS":"中華路１２號十七樓之５","OBJECTID":555700},"geometry":{"x":171588.54000000097,"y":2544494.1500000004}},{"attributes":{"ID":555728,"DIS_CODE":0,"TOWNNAME":"永康區","LI":"勝利里","LIN":"21鄰","STREET":"勝利街","SECT":" ","MAREA":" ","LANE":" ","ALLEY":" ","HOUSE_NO":"１５２號四樓之８","E_COORD97":171383.89000000001,"N_COORD97":2545055.8599999999,"ADDRESS":"勝利街１５２號四樓之８","OBJECTID":555701},"geometry":{"x":171383.8900000006,"y":2545055.8600000013}},{"attributes":{"ID":555729,"DIS_CODE":0,"TOWNNAME":"永康區","LI":"中華里","LIN":"21鄰","STREET":"中華路","SECT":" ","MAREA":" ","LANE":" ","ALLEY":" ","HOUSE_NO":"２２號十五樓之８","E_COORD97":171618.76999999999,"N_COORD97":2544543.8199999998,"ADDRESS":"中華路２２號十五樓之８","OBJECTID":555702},"geometry":{"x":171618.77000000048,"y":2544543.8200000003}},{"attributes":{"ID":555730,"DIS_CODE":0,"TOWNNAME":"永康區","LI":"中華里","LIN":"21鄰","STREET":"中華路","SECT":" ","MAREA":" ","LANE":" ","ALLEY":" ","HOUSE_NO":"２２號六樓之１","E_COORD97":171617.37,"N_COORD97":2544543.8199999998,"ADDRESS":"中華路２２號六樓之１","OBJECTID":555703},"geometry":{"x":171617.37000000104,"y":2544543.8200000003}},{"attributes":{"ID":555731,"DIS_CODE":0,"TOWNNAME":"永康區","LI":"中華里","LIN":"21鄰","STREET":"中華路","SECT":" ","MAREA":" ","LANE":" ","ALLEY":" ","HOUSE_NO":"２２號十一樓之６","E_COORD97":171618.72,"N_COORD97":2544543.8199999998,"ADDRESS":"中華路２２號十一樓之６","OBJECTID":555704},"geometry":{"x":171618.71999999974,"y":2544543.8200000003}},{"attributes":{"ID":555732,"DIS_CODE":0,"TOWNNAME":"永康區","LI":"中華里","LIN":"21鄰","STREET":"中華路","SECT":" ","MAREA":" ","LANE":" ","ALLEY":" ","HOUSE_NO":"１２號五樓之２","E_COORD97":171587.26999999999,"N_COORD97":2544494.1499999999,"ADDRESS":"中華路１２號五樓之２","OBJECTID":555705},"geometry":{"x":171587.26999999955,"y":2544494.1500000004}},{"attributes":{"ID":555733,"DIS_CODE":0,"TOWNNAME":"永康區","LI":"中華里","LIN":"21鄰","STREET":"中華路","SECT":" ","MAREA":" ","LANE":" ","ALLEY":" ","HOUSE_NO":"１２號十一樓之５","E_COORD97":171588.54000000001,"N_COORD97":2544494.1499999999,"ADDRESS":"中華路１２號十一樓之５","OBJECTID":555706},"geometry":{"x":171588.54000000097,"y":2544494.1500000004}},{"attributes":{"ID":555734,"DIS_CODE":0,"TOWNNAME":"永康區","LI":"中華里","LIN":"21鄰","STREET":"中華路","SECT":" ","MAREA":" ","LANE":" ","ALLEY":" ","HOUSE_NO":"２２號六樓之５","E_COORD97":171617.51999999999,"N_COORD97":2544543.8199999998,"ADDRESS":"中華路２２號六樓之５","OBJECTID":555707},"geometry":{"x":171617.51999999955,"y":2544543.8200000003}},{"attributes":{"ID":555735,"DIS_CODE":0,"TOWNNAME":"永康區","LI":"中華里","LIN":"21鄰","STREET":"中華路","SECT":" ","MAREA":" ","LANE":" ","ALLEY":" ","HOUSE_NO":"２２號八樓之９","E_COORD97":171617.45000000001,"N_COORD97":2544543.8199999998,"ADDRESS":"中華路２２號八樓之９","OBJECTID":555708},"geometry":{"x":171617.45000000019,"y":2544543.8200000003}},{"attributes":{"ID":555736,"DIS_CODE":0,"TOWNNAME":"東區","LI":"崇學里","LIN":"21鄰","STREET":"崇學路","SECT":" ","MAREA":" ","LANE":" ","ALLEY":" ","HOUSE_NO":"１８號九樓之２","E_COORD97":170127.32000000001,"N_COORD97":2542029.5800000001,"ADDRESS":"崇學路１８號九樓之２","OBJECTID":555709},"geometry":{"x":170127.32000000123,"y":2542029.5800000001}},{"attributes":{"ID":555737,"DIS_CODE":0,"TOWNNAME":"東區","LI":"崇學里","LIN":"21鄰","STREET":"崇學路","SECT":" ","MAREA":" ","LANE":" ","ALLEY":" ","HOUSE_NO":"１８號二十樓","E_COORD97":170127.32000000001,"N_COORD97":2542029.5800000001,"ADDRESS":"崇學路１８號二十樓","OBJECTID":555710},"geometry":{"x":170127.32000000123,"y":2542029.5800000001}},{"attributes":{"ID":555738,"DIS_CODE":0,"TOWNNAME":"東區","LI":"崇學里","LIN":"21鄰","STREET":"崇學路","SECT":" ","MAREA":" ","LANE":" ","ALLEY":" ","HOUSE_NO":"１８號二十樓之１","E_COORD97":170127.32000000001,"N_COORD97":2542029.5800000001,"ADDRESS":"崇學路１８號二十樓之１","OBJECTID":555711},"geometry":{"x":170127.32000000123,"y":2542029.5800000001}},{"attributes":{"ID":555739,"DIS_CODE":0,"TOWNNAME":"東區","LI":"崇學里","LIN":"21鄰","STREET":"崇學路","SECT":" ","MAREA":" ","LANE":" ","ALLEY":" ","HOUSE_NO":"１８號二十樓之２","E_COORD97":170127.32000000001,"N_COORD97":2542029.5800000001,"ADDRESS":"崇學路１８號二十樓之２","OBJECTID":555712},"geometry":{"x":170127.32000000123,"y":2542029.5800000001}},{"attributes":{"ID":555740,"DIS_CODE":0,"TOWNNAME":"東區","LI":"崇學里","LIN":"21鄰","STREET":"崇學路","SECT":" ","MAREA":" ","LANE":" ","ALLEY":" ","HOUSE_NO":"１８號八樓","E_COORD97":170127.32000000001,"N_COORD97":2542029.5800000001,"ADDRESS":"崇學路１８號八樓","OBJECTID":555713},"geometry":{"x":170127.32000000123,"y":2542029.5800000001}},{"attributes":{"ID":555741,"DIS_CODE":0,"TOWNNAME":"東區","LI":"崇學里","LIN":"21鄰","STREET":"崇學路","SECT":" ","MAREA":" ","LANE":" ","ALLEY":" ","HOUSE_NO":"１８號八樓之１","E_COORD97":170127.32000000001,"N_COORD97":2542029.5800000001,"ADDRESS":"崇學路１８號八樓之１","OBJECTID":555714},"geometry":{"x":170127.32000000123,"y":2542029.5800000001}},{"attributes":{"ID":555742,"DIS_CODE":0,"TOWNNAME":"東區","LI":"崇學里","LIN":"21鄰","STREET":"崇學路","SECT":" ","MAREA":" ","LANE":" ","ALLEY":" ","HOUSE_NO":"１８號八樓之２","E_COORD97":170127.32000000001,"N_COORD97":2542029.5800000001,"ADDRESS":"崇學路１８號八樓之２","OBJECTID":555715},"geometry":{"x":170127.32000000123,"y":2542029.5800000001}},{"attributes":{"ID":555743,"DIS_CODE":0,"TOWNNAME":"東區","LI":"崇學里","LIN":"21鄰","STREET":"崇學路","SECT":" ","MAREA":" ","LANE":" ","ALLEY":" ","HOUSE_NO":"１８號十一樓","E_COORD97":170127.32000000001,"N_COORD97":2542029.5800000001,"ADDRESS":"崇學路１８號十一樓","OBJECTID":555716},"geometry":{"x":170127.32000000123,"y":2542029.5800000001}},{"attributes":{"ID":555744,"DIS_CODE":0,"TOWNNAME":"東區","LI":"崇學里","LIN":"21鄰","STREET":"崇學路","SECT":" ","MAREA":" ","LANE":" ","ALLEY":" ","HOUSE_NO":"１８號十一樓之１","E_COORD97":170127.32000000001,"N_COORD97":2542029.5800000001,"ADDRESS":"崇學路１８號十一樓之１","OBJECTID":555717},"geometry":{"x":170127.32000000123,"y":2542029.5800000001}},{"attributes":{"ID":555745,"DIS_CODE":0,"TOWNNAME":"東區","LI":"崇學里","LIN":"21鄰","STREET":"崇學路","SECT":" ","MAREA":" ","LANE":" ","ALLEY":" ","HOUSE_NO":"１８號十一樓之２","E_COORD97":170127.32000000001,"N_COORD97":2542029.5800000001,"ADDRESS":"崇學路１８號十一樓之２","OBJECTID":555718},"geometry":{"x":170127.32000000123,"y":2542029.5800000001}},{"attributes":{"ID":555746,"DIS_CODE":0,"TOWNNAME":"東區","LI":"崇學里","LIN":"21鄰","STREET":"崇學路","SECT":" ","MAREA":" ","LANE":" ","ALLEY":" ","HOUSE_NO":"１８號十七樓","E_COORD97":170127.32000000001,"N_COORD97":2542029.5800000001,"ADDRESS":"崇學路１８號十七樓","OBJECTID":555719},"geometry":{"x":170127.32000000123,"y":2542029.5800000001}},{"attributes":{"ID":555747,"DIS_CODE":0,"TOWNNAME":"東區","LI":"崇學里","LIN":"21鄰","STREET":"崇學路","SECT":" ","MAREA":" ","LANE":" ","ALLEY":" ","HOUSE_NO":"１８號十七樓之１","E_COORD97":170127.32000000001,"N_COORD97":2542029.5800000001,"ADDRESS":"崇學路１８號十七樓之１","OBJECTID":555720},"geometry":{"x":170127.32000000123,"y":2542029.5800000001}},{"attributes":{"ID":555748,"DIS_CODE":0,"TOWNNAME":"東區","LI":"崇學里","LIN":"21鄰","STREET":"崇學路","SECT":" ","MAREA":" ","LANE":" ","ALLEY":" ","HOUSE_NO":"１８號十七樓之２","E_COORD97":170127.32000000001,"N_COORD97":2542029.5800000001,"ADDRESS":"崇學路１８號十七樓之２","OBJECTID":555721},"geometry":{"x":170127.32000000123,"y":2542029.5800000001}},{"attributes":{"ID":555749,"DIS_CODE":0,"TOWNNAME":"東區","LI":"崇學里","LIN":"21鄰","STREET":"崇學路","SECT":" ","MAREA":" ","LANE":" ","ALLEY":" ","HOUSE_NO":"１８號十九樓","E_COORD97":170127.32000000001,"N_COORD97":2542029.5800000001,"ADDRESS":"崇學路１８號十九樓","OBJECTID":555722},"geometry":{"x":170127.32000000123,"y":2542029.5800000001}},{"attributes":{"ID":555750,"DIS_CODE":0,"TOWNNAME":"東區","LI":"崇學里","LIN":"21鄰","STREET":"崇學路","SECT":" ","MAREA":" ","LANE":" ","ALLEY":" ","HOUSE_NO":"１８號十九樓之１","E_COORD97":170127.32000000001,"N_COORD97":2542029.5800000001,"ADDRESS":"崇學路１８號十九樓之１","OBJECTID":555723},"geometry":{"x":170127.32000000123,"y":2542029.5800000001}},{"attributes":{"ID":555751,"DIS_CODE":0,"TOWNNAME":"東區","LI":"崇學里","LIN":"21鄰","STREET":"崇學路","SECT":" ","MAREA":" ","LANE":" ","ALLEY":" ","HOUSE_NO":"１８號十九樓之２","E_COORD97":170127.32000000001,"N_COORD97":2542029.5800000001,"ADDRESS":"崇學路１８號十九樓之２","OBJECTID":555724},"geometry":{"x":170127.32000000123,"y":2542029.5800000001}},{"attributes":{"ID":555752,"DIS_CODE":0,"TOWNNAME":"東區","LI":"崇學里","LIN":"21鄰","STREET":"崇學路","SECT":" ","MAREA":" ","LANE":" ","ALLEY":" ","HOUSE_NO":"１８號十二樓","E_COORD97":170127.32000000001,"N_COORD97":2542029.5800000001,"ADDRESS":"崇學路１８號十二樓","OBJECTID":555725},"geometry":{"x":170127.32000000123,"y":2542029.5800000001}},{"attributes":{"ID":555753,"DIS_CODE":0,"TOWNNAME":"東區","LI":"崇學里","LIN":"21鄰","STREET":"崇學路","SECT":" ","MAREA":" ","LANE":" ","ALLEY":" ","HOUSE_NO":"１８號十二樓之１","E_COORD97":170127.32000000001,"N_COORD97":2542029.5800000001,"ADDRESS":"崇學路１８號十二樓之１","OBJECTID":555726},"geometry":{"x":170127.32000000123,"y":2542029.5800000001}},{"attributes":{"ID":555754,"DIS_CODE":0,"TOWNNAME":"東區","LI":"崇學里","LIN":"21鄰","STREET":"崇學路","SECT":" ","MAREA":" ","LANE":" ","ALLEY":" ","HOUSE_NO":"１８號十二樓之２","E_COORD97":170127.32000000001,"N_COORD97":2542029.5800000001,"ADDRESS":"崇學路１８號十二樓之２","OBJECTID":555727},"geometry":{"x":170127.32000000123,"y":2542029.5800000001}},{"attributes":{"ID":555755,"DIS_CODE":0,"TOWNNAME":"東區","LI":"崇學里","LIN":"21鄰","STREET":"崇學路","SECT":" ","MAREA":" ","LANE":" ","ALLEY":" ","HOUSE_NO":"１８號十八樓","E_COORD97":170127.32000000001,"N_COORD97":2542029.5800000001,"ADDRESS":"崇學路１８號十八樓","OBJECTID":555728},"geometry":{"x":170127.32000000123,"y":2542029.5800000001}},{"attributes":{"ID":555756,"DIS_CODE":0,"TOWNNAME":"東區","LI":"崇學里","LIN":"21鄰","STREET":"崇學路","SECT":" ","MAREA":" ","LANE":" ","ALLEY":" ","HOUSE_NO":"１８號十八樓之１","E_COORD97":170127.32000000001,"N_COORD97":2542029.5800000001,"ADDRESS":"崇學路１８號十八樓之１","OBJECTID":555729},"geometry":{"x":170127.32000000123,"y":2542029.5800000001}},{"attributes":{"ID":555757,"DIS_CODE":0,"TOWNNAME":"東區","LI":"崇學里","LIN":"21鄰","STREET":"崇學路","SECT":" ","MAREA":" ","LANE":" ","ALLEY":" ","HOUSE_NO":"１８號十八樓之２","E_COORD97":170127.32000000001,"N_COORD97":2542029.5800000001,"ADDRESS":"崇學路１８號十八樓之２","OBJECTID":555730},"geometry":{"x":170127.32000000123,"y":2542029.5800000001}},{"attributes":{"ID":555758,"DIS_CODE":0,"TOWNNAME":"東區","LI":"崇學里","LIN":"21鄰","STREET":"崇學路","SECT":" ","MAREA":" ","LANE":" ","ALLEY":" ","HOUSE_NO":"１８號十三樓","E_COORD97":170127.32000000001,"N_COORD97":2542029.5800000001,"ADDRESS":"崇學路１８號十三樓","OBJECTID":555731},"geometry":{"x":170127.32000000123,"y":2542029.5800000001}},{"attributes":{"ID":555759,"DIS_CODE":0,"TOWNNAME":"東區","LI":"崇學里","LIN":"21鄰","STREET":"崇學路","SECT":" ","MAREA":" ","LANE":" ","ALLEY":" ","HOUSE_NO":"１８號十三樓之１","E_COORD97":170127.32000000001,"N_COORD97":2542029.5800000001,"ADDRESS":"崇學路１８號十三樓之１","OBJECTID":555732},"geometry":{"x":170127.32000000123,"y":2542029.5800000001}},{"attributes":{"ID":555760,"DIS_CODE":0,"TOWNNAME":"東區","LI":"崇學里","LIN":"21鄰","STREET":"崇學路","SECT":" ","MAREA":" ","LANE":" ","ALLEY":" ","HOUSE_NO":"１８號十三樓之２","E_COORD97":170127.32000000001,"N_COORD97":2542029.5800000001,"ADDRESS":"崇學路１８號十三樓之２","OBJECTID":555733},"geometry":{"x":170127.32000000123,"y":2542029.5800000001}},{"attributes":{"ID":555761,"DIS_CODE":0,"TOWNNAME":"東區","LI":"崇學里","LIN":"21鄰","STREET":"崇學路","SECT":" ","MAREA":" ","LANE":" ","ALLEY":" ","HOUSE_NO":"１８號十五樓","E_COORD97":170127.32000000001,"N_COORD97":2542029.5800000001,"ADDRESS":"崇學路１８號十五樓","OBJECTID":555734},"geometry":{"x":170127.32000000123,"y":2542029.5800000001}},{"attributes":{"ID":555762,"DIS_CODE":0,"TOWNNAME":"東區","LI":"崇學里","LIN":"21鄰","STREET":"崇學路","SECT":" ","MAREA":" ","LANE":" ","ALLEY":" ","HOUSE_NO":"１８號十五樓之１","E_COORD97":170127.32000000001,"N_COORD97":2542029.5800000001,"ADDRESS":"崇學路１８號十五樓之１","OBJECTID":555735},"geometry":{"x":170127.32000000123,"y":2542029.5800000001}},{"attributes":{"ID":555763,"DIS_CODE":0,"TOWNNAME":"東區","LI":"崇學里","LIN":"21鄰","STREET":"崇學路","SECT":" ","MAREA":" ","LANE":" ","ALLEY":" ","HOUSE_NO":"１８號十五樓之２","E_COORD97":170127.32000000001,"N_COORD97":2542029.5800000001,"ADDRESS":"崇學路１８號十五樓之２","OBJECTID":555736},"geometry":{"x":170127.32000000123,"y":2542029.5800000001}},{"attributes":{"ID":555764,"DIS_CODE":0,"TOWNNAME":"東區","LI":"崇學里","LIN":"21鄰","STREET":"崇學路","SECT":" ","MAREA":" ","LANE":" ","ALLEY":" ","HOUSE_NO":"１８號十六樓","E_COORD97":170127.32000000001,"N_COORD97":2542029.5800000001,"ADDRESS":"崇學路１８號十六樓","OBJECTID":555737},"geometry":{"x":170127.32000000123,"y":2542029.5800000001}},{"attributes":{"ID":555765,"DIS_CODE":0,"TOWNNAME":"東區","LI":"崇學里","LIN":"21鄰","STREET":"崇學路","SECT":" ","MAREA":" ","LANE":" ","ALLEY":" ","HOUSE_NO":"１８號十六樓之１","E_COORD97":170127.32000000001,"N_COORD97":2542029.5800000001,"ADDRESS":"崇學路１８號十六樓之１","OBJECTID":555738},"geometry":{"x":170127.32000000123,"y":2542029.5800000001}},{"attributes":{"ID":555766,"DIS_CODE":0,"TOWNNAME":"東區","LI":"崇學里","LIN":"21鄰","STREET":"崇學路","SECT":" ","MAREA":" ","LANE":" ","ALLEY":" ","HOUSE_NO":"１８號十六樓之２","E_COORD97":170127.32000000001,"N_COORD97":2542029.5800000001,"ADDRESS":"崇學路１８號十六樓之２","OBJECTID":555739},"geometry":{"x":170127.32000000123,"y":2542029.5800000001}},{"attributes":{"ID":555767,"DIS_CODE":0,"TOWNNAME":"東區","LI":"崇學里","LIN":"21鄰","STREET":"崇學路","SECT":" ","MAREA":" ","LANE":" ","ALLEY":" ","HOUSE_NO":"１８號十四樓","E_COORD97":170127.32000000001,"N_COORD97":2542029.5800000001,"ADDRESS":"崇學路１８號十四樓","OBJECTID":555740},"geometry":{"x":170127.32000000123,"y":2542029.5800000001}},{"attributes":{"ID":555768,"DIS_CODE":0,"TOWNNAME":"東區","LI":"崇學里","LIN":"21鄰","STREET":"崇學路","SECT":" ","MAREA":" ","LANE":" ","ALLEY":" ","HOUSE_NO":"１８號十四樓之１","E_COORD97":170127.32000000001,"N_COORD97":2542029.5800000001,"ADDRESS":"崇學路１８號十四樓之１","OBJECTID":555741},"geometry":{"x":170127.32000000123,"y":2542029.5800000001}},{"attributes":{"ID":555769,"DIS_CODE":0,"TOWNNAME":"東區","LI":"崇學里","LIN":"21鄰","STREET":"崇學路","SECT":" ","MAREA":" ","LANE":" ","ALLEY":" ","HOUSE_NO":"１８號十四樓之２","E_COORD97":170127.32000000001,"N_COORD97":2542029.5800000001,"ADDRESS":"崇學路１８號十四樓之２","OBJECTID":555742},"geometry":{"x":170127.32000000123,"y":2542029.5800000001}},{"attributes":{"ID":555770,"DIS_CODE":0,"TOWNNAME":"東區","LI":"崇學里","LIN":"21鄰","STREET":"崇學路","SECT":" ","MAREA":" ","LANE":" ","ALLEY":" ","HOUSE_NO":"１８號十樓","E_COORD97":170127.32000000001,"N_COORD97":2542029.5800000001,"ADDRESS":"崇學路１８號十樓","OBJECTID":555743},"geometry":{"x":170127.32000000123,"y":2542029.5800000001}},{"attributes":{"ID":555771,"DIS_CODE":0,"TOWNNAME":"東區","LI":"崇學里","LIN":"21鄰","STREET":"崇學路","SECT":" ","MAREA":" ","LANE":" ","ALLEY":" ","HOUSE_NO":"１８號十樓之１","E_COORD97":170127.32000000001,"N_COORD97":2542029.5800000001,"ADDRESS":"崇學路１８號十樓之１","OBJECTID":555744},"geometry":{"x":170127.32000000123,"y":2542029.5800000001}},{"attributes":{"ID":555772,"DIS_CODE":0,"TOWNNAME":"東區","LI":"崇學里","LIN":"21鄰","STREET":"崇學路","SECT":" ","MAREA":" ","LANE":" ","ALLEY":" ","HOUSE_NO":"１８號十樓之２","E_COORD97":170127.32000000001,"N_COORD97":2542029.5800000001,"ADDRESS":"崇學路１８號十樓之２","OBJECTID":555745},"geometry":{"x":170127.32000000123,"y":2542029.5800000001}},{"attributes":{"ID":555773,"DIS_CODE":0,"TOWNNAME":"東區","LI":"崇學里","LIN":"21鄰","STREET":"崇學路","SECT":" ","MAREA":" ","LANE":" ","ALLEY":" ","HOUSE_NO":"１８號三樓","E_COORD97":170127.32000000001,"N_COORD97":2542029.5800000001,"ADDRESS":"崇學路１８號三樓","OBJECTID":555746},"geometry":{"x":170127.32000000123,"y":2542029.5800000001}},{"attributes":{"ID":555774,"DIS_CODE":0,"TOWNNAME":"東區","LI":"崇學里","LIN":"21鄰","STREET":"崇學路","SECT":" ","MAREA":" ","LANE":" ","ALLEY":" ","HOUSE_NO":"１８號三樓之１","E_COORD97":170127.32000000001,"N_COORD97":2542029.5800000001,"ADDRESS":"崇學路１８號三樓之１","OBJECTID":555747},"geometry":{"x":170127.32000000123,"y":2542029.5800000001}},{"attributes":{"ID":555775,"DIS_CODE":0,"TOWNNAME":"東區","LI":"崇學里","LIN":"21鄰","STREET":"崇學路","SECT":" ","MAREA":" ","LANE":" ","ALLEY":" ","HOUSE_NO":"１８號三樓之２","E_COORD97":170127.32000000001,"N_COORD97":2542029.5800000001,"ADDRESS":"崇學路１８號三樓之２","OBJECTID":555748},"geometry":{"x":170127.32000000123,"y":2542029.5800000001}},{"attributes":{"ID":555776,"DIS_CODE":0,"TOWNNAME":"東區","LI":"崇學里","LIN":"21鄰","STREET":"崇學路","SECT":" ","MAREA":" ","LANE":" ","ALLEY":" ","HOUSE_NO":"１８號五樓","E_COORD97":170127.32000000001,"N_COORD97":2542029.5800000001,"ADDRESS":"崇學路１８號五樓","OBJECTID":555749},"geometry":{"x":170127.32000000123,"y":2542029.5800000001}},{"attributes":{"ID":555777,"DIS_CODE":0,"TOWNNAME":"仁德區","LI":"保安里","LIN":"23鄰","STREET":"保學一街","SECT":" ","MAREA":" ","LANE":" ","ALLEY":" ","HOUSE_NO":"９號","E_COORD97":171581.39000000001,"N_COORD97":2535583.6200000001,"ADDRESS":"保學一街９號","OBJECTID":555750},"geometry":{"x":171581.38999999966,"y":2535583.6200000029}},{"attributes":{"ID":555778,"DIS_CODE":0,"TOWNNAME":"東區","LI":"崇學里","LIN":"21鄰","STREET":"崇學路","SECT":" ","MAREA":" ","LANE":" ","ALLEY":" ","HOUSE_NO":"１８號五樓之１","E_COORD97":170127.32000000001,"N_COORD97":2542029.5800000001,"ADDRESS":"崇學路１８號五樓之１","OBJECTID":555751},"geometry":{"x":170127.32000000123,"y":2542029.5800000001}},{"attributes":{"ID":555779,"DIS_CODE":0,"TOWNNAME":"東區","LI":"崇學里","LIN":"21鄰","STREET":"崇學路","SECT":" ","MAREA":" ","LANE":" ","ALLEY":" ","HOUSE_NO":"１８號五樓之２","E_COORD97":170127.32000000001,"N_COORD97":2542029.5800000001,"ADDRESS":"崇學路１８號五樓之２","OBJECTID":555752},"geometry":{"x":170127.32000000123,"y":2542029.5800000001}},{"attributes":{"ID":555780,"DIS_CODE":0,"TOWNNAME":"東區","LI":"崇學里","LIN":"21鄰","STREET":"崇學路","SECT":" ","MAREA":" ","LANE":" ","ALLEY":" ","HOUSE_NO":"１８號六樓","E_COORD97":170127.32000000001,"N_COORD97":2542029.5800000001,"ADDRESS":"崇學路１８號六樓","OBJECTID":555753},"geometry":{"x":170127.32000000123,"y":2542029.5800000001}},{"attributes":{"ID":555781,"DIS_CODE":0,"TOWNNAME":"東區","LI":"崇學里","LIN":"21鄰","STREET":"崇學路","SECT":" ","MAREA":" ","LANE":" ","ALLEY":" ","HOUSE_NO":"１８號六樓之１","E_COORD97":170127.32000000001,"N_COORD97":2542029.5800000001,"ADDRESS":"崇學路１８號六樓之１","OBJECTID":555754},"geometry":{"x":170127.32000000123,"y":2542029.5800000001}},{"attributes":{"ID":555782,"DIS_CODE":0,"TOWNNAME":"東區","LI":"崇學里","LIN":"21鄰","STREET":"崇學路","SECT":" ","MAREA":" ","LANE":" ","ALLEY":" ","HOUSE_NO":"１８號六樓之２","E_COORD97":170127.32000000001,"N_COORD97":2542029.5800000001,"ADDRESS":"崇學路１８號六樓之２","OBJECTID":555755},"geometry":{"x":170127.32000000123,"y":2542029.5800000001}},{"attributes":{"ID":555783,"DIS_CODE":0,"TOWNNAME":"東區","LI":"崇學里","LIN":"21鄰","STREET":"崇學路","SECT":" ","MAREA":" ","LANE":" ","ALLEY":" ","HOUSE_NO":"１８號四樓","E_COORD97":170127.32000000001,"N_COORD97":2542029.5800000001,"ADDRESS":"崇學路１８號四樓","OBJECTID":555756},"geometry":{"x":170127.32000000123,"y":2542029.5800000001}},{"attributes":{"ID":555784,"DIS_CODE":0,"TOWNNAME":"東區","LI":"崇學里","LIN":"21鄰","STREET":"崇學路","SECT":" ","MAREA":" ","LANE":" ","ALLEY":" ","HOUSE_NO":"１８號四樓之１","E_COORD97":170127.32000000001,"N_COORD97":2542029.5800000001,"ADDRESS":"崇學路１８號四樓之１","OBJECTID":555757},"geometry":{"x":170127.32000000123,"y":2542029.5800000001}},{"attributes":{"ID":555785,"DIS_CODE":0,"TOWNNAME":"東區","LI":"崇學里","LIN":"21鄰","STREET":"崇學路","SECT":" ","MAREA":" ","LANE":" ","ALLEY":" ","HOUSE_NO":"１８號四樓之２","E_COORD97":170127.32000000001,"N_COORD97":2542029.5800000001,"ADDRESS":"崇學路１８號四樓之２","OBJECTID":555758},"geometry":{"x":170127.32000000123,"y":2542029.5800000001}},{"attributes":{"ID":555786,"DIS_CODE":0,"TOWNNAME":"東區","LI":"崇學里","LIN":"21鄰","STREET":"崇學路","SECT":" ","MAREA":" ","LANE":" ","ALLEY":" ","HOUSE_NO":"１８號地下一樓","E_COORD97":170127.32000000001,"N_COORD97":2542029.5800000001,"ADDRESS":"崇學路１８號地下一樓","OBJECTID":555759},"geometry":{"x":170127.32000000123,"y":2542029.5800000001}},{"attributes":{"ID":555787,"DIS_CODE":0,"TOWNNAME":"東區","LI":"崇學里","LIN":"21鄰","STREET":"崇學路","SECT":" ","MAREA":" ","LANE":" ","ALLEY":" ","HOUSE_NO":"１８號地下二樓","E_COORD97":170127.32000000001,"N_COORD97":2542029.5800000001,"ADDRESS":"崇學路１８號地下二樓","OBJECTID":555760},"geometry":{"x":170127.32000000123,"y":2542029.5800000001}},{"attributes":{"ID":555788,"DIS_CODE":0,"TOWNNAME":"永康區","LI":"永康里","LIN":"21鄰","STREET":"中山南路","SECT":" ","MAREA":" ","LANE":" ","ALLEY":" ","HOUSE_NO":"１０４２號六樓之２","E_COORD97":173706.17999999999,"N_COORD97":2547287.2999999998,"ADDRESS":"中山南路１０４２號六樓之２","OBJECTID":555761},"geometry":{"x":173706.18000000063,"y":2547287.3000000007}},{"attributes":{"ID":555789,"DIS_CODE":0,"TOWNNAME":"永康區","LI":"永康里","LIN":"21鄰","STREET":"中山南路","SECT":" ","MAREA":" ","LANE":" ","ALLEY":" ","HOUSE_NO":"１０４２號五樓之１","E_COORD97":173706.04999999999,"N_COORD97":2547287.2999999998,"ADDRESS":"中山南路１０４２號五樓之１","OBJECTID":555762},"geometry":{"x":173706.04999999981,"y":2547287.3000000007}},{"attributes":{"ID":555790,"DIS_CODE":0,"TOWNNAME":"永康區","LI":"中華里","LIN":"21鄰","STREET":"中華路","SECT":" ","MAREA":" ","LANE":" ","ALLEY":" ","HOUSE_NO":"２２號九樓之９","E_COORD97":171617.45000000001,"N_COORD97":2544543.8199999998,"ADDRESS":"中華路２２號九樓之９","OBJECTID":555763},"geometry":{"x":171617.45000000019,"y":2544543.8200000003}},{"attributes":{"ID":555791,"DIS_CODE":0,"TOWNNAME":"永康區","LI":"勝利里","LIN":"21鄰","STREET":"勝利街","SECT":" ","MAREA":" ","LANE":" ","ALLEY":" ","HOUSE_NO":"１５２號五樓之４","E_COORD97":171383.76999999999,"N_COORD97":2545055.8599999999,"ADDRESS":"勝利街１５２號五樓之４","OBJECTID":555764},"geometry":{"x":171383.76999999955,"y":2545055.8600000013}},{"attributes":{"ID":555792,"DIS_CODE":0,"TOWNNAME":"永康區","LI":"中華里","LIN":"21鄰","STREET":"中華路","SECT":" ","MAREA":" ","LANE":" ","ALLEY":" ","HOUSE_NO":"２２號十三樓之１","E_COORD97":171618.62,"N_COORD97":2544543.8199999998,"ADDRESS":"中華路２２號十三樓之１","OBJECTID":555765},"geometry":{"x":171618.62000000104,"y":2544543.8200000003}},{"attributes":{"ID":555793,"DIS_CODE":0,"TOWNNAME":"永康區","LI":"勝利里","LIN":"21鄰","STREET":"勝利街","SECT":" ","MAREA":" ","LANE":" ","ALLEY":" ","HOUSE_NO":"１５２號一樓之１","E_COORD97":171383.75,"N_COORD97":2545055.8599999999,"ADDRESS":"勝利街１５２號一樓之１","OBJECTID":555766},"geometry":{"x":171383.75000000093,"y":2545055.8600000013}},{"attributes":{"ID":555794,"DIS_CODE":0,"TOWNNAME":"永康區","LI":"勝利里","LIN":"21鄰","STREET":"勝利街","SECT":" ","MAREA":" ","LANE":" ","ALLEY":" ","HOUSE_NO":"１５２號五樓之３","E_COORD97":171383.84,"N_COORD97":2545055.8599999999,"ADDRESS":"勝利街１５２號五樓之３","OBJECTID":555767},"geometry":{"x":171383.83999999985,"y":2545055.8600000013}},{"attributes":{"ID":555795,"DIS_CODE":0,"TOWNNAME":"永康區","LI":"勝利里","LIN":"21鄰","STREET":"勝利街","SECT":" ","MAREA":" ","LANE":" ","ALLEY":" ","HOUSE_NO":"１５３號四樓之６","E_COORD97":171361.16,"N_COORD97":2545015.29,"ADDRESS":"勝利街１５３號四樓之６","OBJECTID":555768},"geometry":{"x":171361.16000000108,"y":2545015.290000001}},{"attributes":{"ID":555796,"DIS_CODE":0,"TOWNNAME":"永康區","LI":"中華里","LIN":"21鄰","STREET":"中華路","SECT":" ","MAREA":" ","LANE":" ","ALLEY":" ","HOUSE_NO":"２２號四樓之８","E_COORD97":171617.51999999999,"N_COORD97":2544543.8199999998,"ADDRESS":"中華路２２號四樓之８","OBJECTID":555769},"geometry":{"x":171617.51999999955,"y":2544543.8200000003}},{"attributes":{"ID":555797,"DIS_CODE":0,"TOWNNAME":"永康區","LI":"中華里","LIN":"21鄰","STREET":"中華路","SECT":" ","MAREA":" ","LANE":" ","ALLEY":" ","HOUSE_NO":"２２號九樓之４","E_COORD97":171617.39000000001,"N_COORD97":2544543.8199999998,"ADDRESS":"中華路２２號九樓之４","OBJECTID":555770},"geometry":{"x":171617.38999999966,"y":2544543.8200000003}},{"attributes":{"ID":555798,"DIS_CODE":0,"TOWNNAME":"永康區","LI":"中華里","LIN":"21鄰","STREET":"中華路","SECT":" ","MAREA":" ","LANE":" ","ALLEY":" ","HOUSE_NO":"２２號十三樓之５","E_COORD97":171618.76999999999,"N_COORD97":2544543.8199999998,"ADDRESS":"中華路２２號十三樓之５","OBJECTID":555771},"geometry":{"x":171618.77000000048,"y":2544543.8200000003}},{"attributes":{"ID":555799,"DIS_CODE":0,"TOWNNAME":"永康區","LI":"中華里","LIN":"21鄰","STREET":"中華路","SECT":" ","MAREA":" ","LANE":" ","ALLEY":" ","HOUSE_NO":"２２號六樓之９","E_COORD97":171617.45000000001,"N_COORD97":2544543.8199999998,"ADDRESS":"中華路２２號六樓之９","OBJECTID":555772},"geometry":{"x":171617.45000000019,"y":2544543.8200000003}},{"attributes":{"ID":555800,"DIS_CODE":0,"TOWNNAME":"永康區","LI":"中華里","LIN":"21鄰","STREET":"中華路","SECT":" ","MAREA":" ","LANE":" ","ALLEY":" ","HOUSE_NO":"２２號十七樓之９","E_COORD97":171618.70000000001,"N_COORD97":2544543.8199999998,"ADDRESS":"中華路２２號十七樓之９","OBJECTID":555773},"geometry":{"x":171618.70000000019,"y":2544543.8200000003}},{"attributes":{"ID":555801,"DIS_CODE":0,"TOWNNAME":"永康區","LI":"中華里","LIN":"21鄰","STREET":"中華路","SECT":" ","MAREA":" ","LANE":" ","ALLEY":" ","HOUSE_NO":"２２號十二樓之５","E_COORD97":171618.76999999999,"N_COORD97":2544543.8199999998,"ADDRESS":"中華路２２號十二樓之５","OBJECTID":555774},"geometry":{"x":171618.77000000048,"y":2544543.8200000003}},{"attributes":{"ID":555802,"DIS_CODE":0,"TOWNNAME":"永康區","LI":"中華里","LIN":"21鄰","STREET":"中華路","SECT":" ","MAREA":" ","LANE":" ","ALLEY":" ","HOUSE_NO":"２２號七樓之５","E_COORD97":171617.51999999999,"N_COORD97":2544543.8199999998,"ADDRESS":"中華路２２號七樓之５","OBJECTID":555775},"geometry":{"x":171617.51999999955,"y":2544543.8200000003}},{"attributes":{"ID":555803,"DIS_CODE":0,"TOWNNAME":"永康區","LI":"中華里","LIN":"21鄰","STREET":"中華路","SECT":" ","MAREA":" ","LANE":" ","ALLEY":" ","HOUSE_NO":"２２號十四樓之４","E_COORD97":171618.64000000001,"N_COORD97":2544543.8199999998,"ADDRESS":"中華路２２號十四樓之４","OBJECTID":555776},"geometry":{"x":171618.63999999966,"y":2544543.8200000003}},{"attributes":{"ID":555804,"DIS_CODE":0,"TOWNNAME":"永康區","LI":"中華里","LIN":"21鄰","STREET":"中華路","SECT":" ","MAREA":" ","LANE":" ","ALLEY":" ","HOUSE_NO":"２２號十六樓之８","E_COORD97":171618.76999999999,"N_COORD97":2544543.8199999998,"ADDRESS":"中華路２２號十六樓之８","OBJECTID":555777},"geometry":{"x":171618.77000000048,"y":2544543.8200000003}},{"attributes":{"ID":555805,"DIS_CODE":0,"TOWNNAME":"永康區","LI":"中華里","LIN":"21鄰","STREET":"中華路","SECT":" ","MAREA":" ","LANE":" ","ALLEY":" ","HOUSE_NO":"２２號十三樓之４","E_COORD97":171618.64000000001,"N_COORD97":2544543.8199999998,"ADDRESS":"中華路２２號十三樓之４","OBJECTID":555778},"geometry":{"x":171618.63999999966,"y":2544543.8200000003}},{"attributes":{"ID":555806,"DIS_CODE":0,"TOWNNAME":"永康區","LI":"中華里","LIN":"21鄰","STREET":"中華路","SECT":" ","MAREA":" ","LANE":" ","ALLEY":" ","HOUSE_NO":"１２號十三樓之１","E_COORD97":171588.39000000001,"N_COORD97":2544494.1499999999,"ADDRESS":"中華路１２號十三樓之１","OBJECTID":555779},"geometry":{"x":171588.38999999966,"y":2544494.1500000004}},{"attributes":{"ID":555807,"DIS_CODE":0,"TOWNNAME":"永康區","LI":"中華里","LIN":"21鄰","STREET":"中華路","SECT":" ","MAREA":" ","LANE":" ","ALLEY":" ","HOUSE_NO":"２２號十五樓之７","E_COORD97":171618.70000000001,"N_COORD97":2544543.8199999998,"ADDRESS":"中華路２２號十五樓之７","OBJECTID":555780},"geometry":{"x":171618.70000000019,"y":2544543.8200000003}},{"attributes":{"ID":555808,"DIS_CODE":0,"TOWNNAME":"永康區","LI":"中華里","LIN":"21鄰","STREET":"中華路","SECT":" ","MAREA":" ","LANE":" ","ALLEY":" ","HOUSE_NO":"２２號六樓之２","E_COORD97":171617.5,"N_COORD97":2544543.8199999998,"ADDRESS":"中華路２２號六樓之２","OBJECTID":555781},"geometry":{"x":171617.50000000093,"y":2544543.8200000003}},{"attributes":{"ID":555809,"DIS_CODE":0,"TOWNNAME":"永康區","LI":"中華里","LIN":"21鄰","STREET":"中華路","SECT":" ","MAREA":" ","LANE":" ","ALLEY":" ","HOUSE_NO":"１２號九樓之５","E_COORD97":171587.29000000001,"N_COORD97":2544494.1499999999,"ADDRESS":"中華路１２號九樓之５","OBJECTID":555782},"geometry":{"x":171587.29000000097,"y":2544494.1500000004}},{"attributes":{"ID":555810,"DIS_CODE":0,"TOWNNAME":"永康區","LI":"中華里","LIN":"21鄰","STREET":"中華路","SECT":" ","MAREA":" ","LANE":" ","ALLEY":" ","HOUSE_NO":"２２號十樓之１０","E_COORD97":171618.67000000001,"N_COORD97":2544543.8199999998,"ADDRESS":"中華路２２號十樓之１０","OBJECTID":555783},"geometry":{"x":171618.66999999993,"y":2544543.8200000003}},{"attributes":{"ID":555811,"DIS_CODE":0,"TOWNNAME":"永康區","LI":"中華里","LIN":"21鄰","STREET":"中華路","SECT":" ","MAREA":" ","LANE":" ","ALLEY":" ","HOUSE_NO":"２２號五樓之４","E_COORD97":171617.39000000001,"N_COORD97":2544543.8199999998,"ADDRESS":"中華路２２號五樓之４","OBJECTID":555784},"geometry":{"x":171617.38999999966,"y":2544543.8200000003}},{"attributes":{"ID":555812,"DIS_CODE":0,"TOWNNAME":"永康區","LI":"中華里","LIN":"21鄰","STREET":"中華路","SECT":" ","MAREA":" ","LANE":" ","ALLEY":" ","HOUSE_NO":"２２號十五樓之５","E_COORD97":171618.76999999999,"N_COORD97":2544543.8199999998,"ADDRESS":"中華路２２號十五樓之５","OBJECTID":555785},"geometry":{"x":171618.77000000048,"y":2544543.8200000003}},{"attributes":{"ID":555813,"DIS_CODE":0,"TOWNNAME":"東區","LI":"崇成里","LIN":"21鄰","STREET":"崇明十九街","SECT":" ","MAREA":" ","LANE":" ","ALLEY":" ","HOUSE_NO":"６號","E_COORD97":170660.10000000001,"N_COORD97":2541118.8199999998,"ADDRESS":"崇明十九街６號","OBJECTID":555786},"geometry":{"x":170660.10000000149,"y":2541118.8200000003}},{"attributes":{"ID":555814,"DIS_CODE":0,"TOWNNAME":"永康區","LI":"勝利里","LIN":"21鄰","STREET":"勝利街","SECT":" ","MAREA":" ","LANE":" ","ALLEY":" ","HOUSE_NO":"１５３號五樓之３","E_COORD97":171361,"N_COORD97":2545016.46,"ADDRESS":"勝利街１５３號五樓之３","OBJECTID":555787},"geometry":{"x":171361,"y":2545016.4600000028}},{"attributes":{"ID":555815,"DIS_CODE":0,"TOWNNAME":"永康區","LI":"中華里","LIN":"21鄰","STREET":"中華路","SECT":" ","MAREA":" ","LANE":" ","ALLEY":" ","HOUSE_NO":"２２號九樓之１","E_COORD97":171617.37,"N_COORD97":2544543.8199999998,"ADDRESS":"中華路２２號九樓之１","OBJECTID":555788},"geometry":{"x":171617.37000000104,"y":2544543.8200000003}},{"attributes":{"ID":555816,"DIS_CODE":0,"TOWNNAME":"永康區","LI":"中華里","LIN":"21鄰","STREET":"中華路","SECT":" ","MAREA":" ","LANE":" ","ALLEY":" ","HOUSE_NO":"２２號八樓之１０","E_COORD97":171618.67000000001,"N_COORD97":2544543.8199999998,"ADDRESS":"中華路２２號八樓之１０","OBJECTID":555789},"geometry":{"x":171618.66999999993,"y":2544543.8200000003}},{"attributes":{"ID":555817,"DIS_CODE":0,"TOWNNAME":"永康區","LI":"中華里","LIN":"21鄰","STREET":"中華路","SECT":" ","MAREA":" ","LANE":" ","ALLEY":" ","HOUSE_NO":"２２號十樓之７","E_COORD97":171617.45000000001,"N_COORD97":2544543.8199999998,"ADDRESS":"中華路２２號十樓之７","OBJECTID":555790},"geometry":{"x":171617.45000000019,"y":2544543.8200000003}},{"attributes":{"ID":555818,"DIS_CODE":0,"TOWNNAME":"永康區","LI":"中華里","LIN":"21鄰","STREET":"中華路","SECT":" ","MAREA":" ","LANE":" ","ALLEY":" ","HOUSE_NO":"２２號十五樓之１","E_COORD97":171618.62,"N_COORD97":2544543.8199999998,"ADDRESS":"中華路２２號十五樓之１","OBJECTID":555791},"geometry":{"x":171618.62000000104,"y":2544543.8200000003}},{"attributes":{"ID":555819,"DIS_CODE":0,"TOWNNAME":"永康區","LI":"西灣里","LIN":"21鄰","STREET":"永大路","SECT":"二段","MAREA":" ","LANE":" ","ALLEY":" ","HOUSE_NO":"２２３號二樓","E_COORD97":174351.20000000001,"N_COORD97":2545365.7400000002,"ADDRESS":"永大路二段２２３號二樓","OBJECTID":555792},"geometry":{"x":174351.20000000112,"y":2545365.7400000021}},{"attributes":{"ID":555820,"DIS_CODE":0,"TOWNNAME":"中西區","LI":"大涼里","LIN":"21鄰","STREET":"府前二街","SECT":" ","MAREA":" ","LANE":" ","ALLEY":" ","HOUSE_NO":"７０號五樓之２６","E_COORD97":166684.92999999999,"N_COORD97":2543908.52,"ADDRESS":"府前二街７０號五樓之２６","OBJECTID":555793},"geometry":{"x":166684.93000000063,"y":2543908.5200000033}},{"attributes":{"ID":555821,"DIS_CODE":0,"TOWNNAME":"中西區","LI":"大涼里","LIN":"21鄰","STREET":"府前二街","SECT":" ","MAREA":" ","LANE":" ","ALLEY":" ","HOUSE_NO":"７０號五樓之２７","E_COORD97":166684.92999999999,"N_COORD97":2543908.52,"ADDRESS":"府前二街７０號五樓之２７","OBJECTID":555794},"geometry":{"x":166684.93000000063,"y":2543908.5200000033}},{"attributes":{"ID":555822,"DIS_CODE":0,"TOWNNAME":"中西區","LI":"大涼里","LIN":"21鄰","STREET":"府前二街","SECT":" ","MAREA":" ","LANE":" ","ALLEY":" ","HOUSE_NO":"７０號五樓之２８","E_COORD97":166684.92999999999,"N_COORD97":2543908.52,"ADDRESS":"府前二街７０號五樓之２８","OBJECTID":555795},"geometry":{"x":166684.93000000063,"y":2543908.5200000033}},{"attributes":{"ID":555823,"DIS_CODE":0,"TOWNNAME":"中西區","LI":"大涼里","LIN":"21鄰","STREET":"府前二街","SECT":" ","MAREA":" ","LANE":" ","ALLEY":" ","HOUSE_NO":"７０號五樓之３","E_COORD97":166684.92999999999,"N_COORD97":2543908.52,"ADDRESS":"府前二街７０號五樓之３","OBJECTID":555796},"geometry":{"x":166684.93000000063,"y":2543908.5200000033}},{"attributes":{"ID":555824,"DIS_CODE":0,"TOWNNAME":"中西區","LI":"大涼里","LIN":"21鄰","STREET":"府前二街","SECT":" ","MAREA":" ","LANE":" ","ALLEY":" ","HOUSE_NO":"７０號五樓之４","E_COORD97":166684.92999999999,"N_COORD97":2543908.52,"ADDRESS":"府前二街７０號五樓之４","OBJECTID":555797},"geometry":{"x":166684.93000000063,"y":2543908.5200000033}},{"attributes":{"ID":555825,"DIS_CODE":0,"TOWNNAME":"中西區","LI":"大涼里","LIN":"21鄰","STREET":"府前二街","SECT":" ","MAREA":" ","LANE":" ","ALLEY":" ","HOUSE_NO":"７０號五樓之５","E_COORD97":166684.92999999999,"N_COORD97":2543908.52,"ADDRESS":"府前二街７０號五樓之５","OBJECTID":555798},"geometry":{"x":166684.93000000063,"y":2543908.5200000033}},{"attributes":{"ID":555826,"DIS_CODE":0,"TOWNNAME":"中西區","LI":"大涼里","LIN":"21鄰","STREET":"府前二街","SECT":" ","MAREA":" ","LANE":" ","ALLEY":" ","HOUSE_NO":"７０號五樓之６","E_COORD97":166684.92999999999,"N_COORD97":2543908.52,"ADDRESS":"府前二街７０號五樓之６","OBJECTID":555799},"geometry":{"x":166684.93000000063,"y":2543908.5200000033}},{"attributes":{"ID":555827,"DIS_CODE":0,"TOWNNAME":"中西區","LI":"大涼里","LIN":"21鄰","STREET":"府前二街","SECT":" ","MAREA":" ","LANE":" ","ALLEY":" ","HOUSE_NO":"７０號五樓之７","E_COORD97":166684.92999999999,"N_COORD97":2543908.52,"ADDRESS":"府前二街７０號五樓之７","OBJECTID":555800},"geometry":{"x":166684.93000000063,"y":2543908.5200000033}}]}