{"displayFieldName":"TOWNNAME","fieldAliases":{"ID":"ID","DIS_CODE":"DIS_CODE","TOWNNAME":"TOWNNAME","LI":"LI","LIN":"LIN","STREET":"STREET","SECT":"SECT","MAREA":"MAREA","LANE":"LANE","ALLEY":"ALLEY","HOUSE_NO":"HOUSE_NO","E_COORD97":"E_COORD97","N_COORD97":"N_COORD97","ADDRESS":"ADDRESS","OBJECTID":"OBJECTID"},"geometryType":"esriGeometryPoint","spatialReference":{"wkid":102443,"latestWkid":3826},"fields":[{"name":"ID","type":"esriFieldTypeDouble","alias":"ID"},{"name":"DIS_CODE","type":"esriFieldTypeInteger","alias":"DIS_CODE"},{"name":"TOWNNAME","type":"esriFieldTypeString","alias":"TOWNNAME","length":8},{"name":"LI","type":"esriFieldTypeString","alias":"LI","length":8},{"name":"LIN","type":"esriFieldTypeString","alias":"LIN","length":12},{"name":"STREET","type":"esriFieldTypeString","alias":"STREET","length":20},{"name":"SECT","type":"esriFieldTypeString","alias":"SECT","length":8},{"name":"MAREA","type":"esriFieldTypeString","alias":"MAREA","length":12},{"name":"LANE","type":"esriFieldTypeString","alias":"LANE","length":10},{"name":"ALLEY","type":"esriFieldTypeString","alias":"ALLEY","length":10},{"name":"HOUSE_NO","type":"esriFieldTypeString","alias":"HOUSE_NO","length":20},{"name":"E_COORD97","type":"esriFieldTypeDouble","alias":"E_COORD97"},{"name":"N_COORD97","type":"esriFieldTypeDouble","alias":"N_COORD97"},{"name":"ADDRESS","type":"esriFieldTypeString","alias":"ADDRESS","length":50},{"name":"OBJECTID","type":"esriFieldTypeOID","alias":"OBJECTID"}],"features":[{"attributes":{"ID":124201,"DIS_CODE":0,"TOWNNAME":"永康區","LI":"勝利里","LIN":"16鄰","STREET":"勝利街","SECT":" ","MAREA":" ","LANE":"１０７巷","ALLEY":"６１弄","HOUSE_NO":"１２號","E_COORD97":171209.10000000001,"N_COORD97":2544892.79,"ADDRESS":"勝利街１０７巷６１弄１２號","OBJECTID":124201},"geometry":{"x":171209.09999999963,"y":2544892.7900000028}},{"attributes":{"ID":124202,"DIS_CODE":0,"TOWNNAME":"永康區","LI":"崑山里","LIN":"16鄰","STREET":"大灣路","SECT":" ","MAREA":" ","LANE":"９４２巷","ALLEY":"７１弄","HOUSE_NO":"７３號","E_COORD97":173589.23999999999,"N_COORD97":2544546.25,"ADDRESS":"大灣路９４２巷７１弄７３號","OBJECTID":124202},"geometry":{"x":173589.24000000115,"y":2544546.2500000019}},{"attributes":{"ID":124203,"DIS_CODE":0,"TOWNNAME":"永康區","LI":"烏竹里","LIN":"16鄰","STREET":"自強路","SECT":" ","MAREA":" ","LANE":"９２５巷","ALLEY":"１１弄","HOUSE_NO":"２７號","E_COORD97":174694.85999999999,"N_COORD97":2548829,"ADDRESS":"自強路９２５巷１１弄２７號","OBJECTID":124203},"geometry":{"x":174694.86000000034,"y":2548829.0000000019}},{"attributes":{"ID":124204,"DIS_CODE":0,"TOWNNAME":"永康區","LI":"勝利里","LIN":"16鄰","STREET":"勝利街","SECT":" ","MAREA":" ","LANE":"１０７巷","ALLEY":"６３弄","HOUSE_NO":"１０號","E_COORD97":171178.29999999999,"N_COORD97":2544899.6299999999,"ADDRESS":"勝利街１０７巷６３弄１０號","OBJECTID":124204},"geometry":{"x":171178.30000000075,"y":2544899.629999999}},{"attributes":{"ID":124205,"DIS_CODE":0,"TOWNNAME":"永康區","LI":"勝利里","LIN":"16鄰","STREET":"勝利街","SECT":" ","MAREA":" ","LANE":"１０７巷","ALLEY":"６１弄","HOUSE_NO":"４號","E_COORD97":171214.12,"N_COORD97":2544918.5,"ADDRESS":"勝利街１０７巷６１弄４號","OBJECTID":124205},"geometry":{"x":171214.12000000011,"y":2544918.5}},{"attributes":{"ID":124206,"DIS_CODE":0,"TOWNNAME":"永康區","LI":"勝利里","LIN":"16鄰","STREET":"勝利街","SECT":" ","MAREA":" ","LANE":"１０７巷","ALLEY":"６１弄","HOUSE_NO":"３號","E_COORD97":171225.14999999999,"N_COORD97":2544918.5,"ADDRESS":"勝利街１０７巷６１弄３號","OBJECTID":124206},"geometry":{"x":171225.15000000224,"y":2544918.5}},{"attributes":{"ID":124207,"DIS_CODE":0,"TOWNNAME":"永康區","LI":"勝利里","LIN":"16鄰","STREET":"勝利街","SECT":" ","MAREA":" ","LANE":"１０７巷","ALLEY":"６３弄","HOUSE_NO":"９號","E_COORD97":171194.70000000001,"N_COORD97":2544898.7599999998,"ADDRESS":"勝利街１０７巷６３弄９號","OBJECTID":124207},"geometry":{"x":171194.70000000112,"y":2544898.7599999998}},{"attributes":{"ID":124208,"DIS_CODE":0,"TOWNNAME":"永康區","LI":"崑山里","LIN":"16鄰","STREET":"大灣路","SECT":" ","MAREA":" ","LANE":"９４２巷","ALLEY":"７１弄","HOUSE_NO":"３７號","E_COORD97":173610.23000000001,"N_COORD97":2544581,"ADDRESS":"大灣路９４２巷７１弄３７號","OBJECTID":124208},"geometry":{"x":173610.23000000138,"y":2544581.0000000019}},{"attributes":{"ID":124209,"DIS_CODE":0,"TOWNNAME":"永康區","LI":"勝利里","LIN":"16鄰","STREET":"勝利街","SECT":" ","MAREA":" ","LANE":"１０７巷","ALLEY":"６３弄","HOUSE_NO":"７號","E_COORD97":171195.10000000001,"N_COORD97":2544907.25,"ADDRESS":"勝利街１０７巷６３弄７號","OBJECTID":124209},"geometry":{"x":171195.09999999963,"y":2544907.2499999981}},{"attributes":{"ID":124210,"DIS_CODE":0,"TOWNNAME":"永康區","LI":"烏竹里","LIN":"16鄰","STREET":"自強路","SECT":" ","MAREA":" ","LANE":"９２５巷","ALLEY":"１１弄","HOUSE_NO":"３９號","E_COORD97":174674.28,"N_COORD97":2548814.5,"ADDRESS":"自強路９２５巷１１弄３９號","OBJECTID":124210},"geometry":{"x":174674.28000000119,"y":2548814.5}},{"attributes":{"ID":124211,"DIS_CODE":0,"TOWNNAME":"安南區","LI":"安順里","LIN":"16鄰","STREET":"總安街","SECT":"一段","MAREA":" ","LANE":"１４６巷","ALLEY":"９２弄","HOUSE_NO":"１５號","E_COORD97":169690.51000000001,"N_COORD97":2550404.8100000001,"ADDRESS":"總安街一段１４６巷９２弄１５號","OBJECTID":124211},"geometry":{"x":169690.50999999978,"y":2550404.8100000024}},{"attributes":{"ID":124212,"DIS_CODE":0,"TOWNNAME":"安南區","LI":"安順里","LIN":"16鄰","STREET":"總安街","SECT":"一段","MAREA":" ","LANE":"１４６巷","ALLEY":"９２弄","HOUSE_NO":"１７號","E_COORD97":169695.75,"N_COORD97":2550404.4900000002,"ADDRESS":"總安街一段１４６巷９２弄１７號","OBJECTID":124212},"geometry":{"x":169695.75,"y":2550404.4900000002}},{"attributes":{"ID":124213,"DIS_CODE":0,"TOWNNAME":"安南區","LI":"安順里","LIN":"16鄰","STREET":"總安街","SECT":"一段","MAREA":" ","LANE":"１４６巷","ALLEY":"９２弄","HOUSE_NO":"１９號","E_COORD97":169699.72,"N_COORD97":2550404.1800000002,"ADDRESS":"總安街一段１４６巷９２弄１９號","OBJECTID":124213},"geometry":{"x":169699.71999999974,"y":2550404.1800000016}},{"attributes":{"ID":124214,"DIS_CODE":0,"TOWNNAME":"安南區","LI":"安順里","LIN":"16鄰","STREET":"總安街","SECT":"一段","MAREA":" ","LANE":"１４６巷","ALLEY":"９２弄","HOUSE_NO":"２１號","E_COORD97":169703.69,"N_COORD97":2550403.8599999999,"ADDRESS":"總安街一段１４６巷９２弄２１號","OBJECTID":124214},"geometry":{"x":169703.69000000041,"y":2550403.8599999994}},{"attributes":{"ID":124215,"DIS_CODE":0,"TOWNNAME":"安南區","LI":"\u25A0田里","LIN":"2鄰","STREET":"\u25A0田路","SECT":" ","MAREA":" ","LANE":" ","ALLEY":" ","HOUSE_NO":"１３１號","E_COORD97":162472.34,"N_COORD97":2548227.6699999999,"ADDRESS":"\u25A0田路１３１號","OBJECTID":124215},"geometry":{"x":162472.33999999985,"y":2548227.6700000018}},{"attributes":{"ID":124216,"DIS_CODE":0,"TOWNNAME":"佳里區","LI":"東寧里","LIN":"18鄰","STREET":"新生路","SECT":" ","MAREA":" ","LANE":" ","ALLEY":" ","HOUSE_NO":"３２號","E_COORD97":166098.95999999999,"N_COORD97":2562401.1200000001,"ADDRESS":"新生路３２號","OBJECTID":124216},"geometry":{"x":166098.95999999996,"y":2562401.1200000029}},{"attributes":{"ID":124217,"DIS_CODE":0,"TOWNNAME":"佳里區","LI":"東寧里","LIN":"18鄰","STREET":"新生路","SECT":" ","MAREA":" ","LANE":" ","ALLEY":" ","HOUSE_NO":"３４號","E_COORD97":166094.94,"N_COORD97":2562399.0499999998,"ADDRESS":"新生路３４號","OBJECTID":124217},"geometry":{"x":166094.94000000041,"y":2562399.0500000007}},{"attributes":{"ID":124218,"DIS_CODE":0,"TOWNNAME":"安南區","LI":"安順里","LIN":"16鄰","STREET":"總安街","SECT":"一段","MAREA":" ","LANE":"１４６巷","ALLEY":"９２弄","HOUSE_NO":"２３號","E_COORD97":169708.13,"N_COORD97":2550403.2200000002,"ADDRESS":"總安街一段１４６巷９２弄２３號","OBJECTID":124218},"geometry":{"x":169708.13000000082,"y":2550403.2200000007}},{"attributes":{"ID":124219,"DIS_CODE":0,"TOWNNAME":"安南區","LI":"安順里","LIN":"16鄰","STREET":"總安街","SECT":"一段","MAREA":" ","LANE":"１４６巷","ALLEY":"９２弄","HOUSE_NO":"２５號","E_COORD97":169711.94,"N_COORD97":2550402.4300000002,"ADDRESS":"總安街一段１４６巷９２弄２５號","OBJECTID":124219},"geometry":{"x":169711.94000000041,"y":2550402.4300000016}},{"attributes":{"ID":124220,"DIS_CODE":0,"TOWNNAME":"安南區","LI":"安順里","LIN":"16鄰","STREET":"總安街","SECT":"一段","MAREA":" ","LANE":"１４６巷","ALLEY":"９２弄","HOUSE_NO":"２７號","E_COORD97":169715.91,"N_COORD97":2550401.7999999998,"ADDRESS":"總安街一段１４６巷９２弄２７號","OBJECTID":124220},"geometry":{"x":169715.90999999922,"y":2550401.8000000026}},{"attributes":{"ID":124221,"DIS_CODE":0,"TOWNNAME":"安南區","LI":"安順里","LIN":"16鄰","STREET":"總安街","SECT":"一段","MAREA":" ","LANE":"１４６巷","ALLEY":"９２弄","HOUSE_NO":"２９號","E_COORD97":169719.72,"N_COORD97":2550401,"ADDRESS":"總安街一段１４６巷９２弄２９號","OBJECTID":124221},"geometry":{"x":169719.71999999974,"y":2550401}},{"attributes":{"ID":124222,"DIS_CODE":0,"TOWNNAME":"安南區","LI":"安順里","LIN":"16鄰","STREET":"總安街","SECT":"一段","MAREA":" ","LANE":"１４６巷","ALLEY":"９２弄","HOUSE_NO":"３１號","E_COORD97":169724.95999999999,"N_COORD97":2550400.8399999999,"ADDRESS":"總安街一段１４６巷９２弄３１號","OBJECTID":124222},"geometry":{"x":169724.95999999996,"y":2550400.8399999999}},{"attributes":{"ID":124223,"DIS_CODE":0,"TOWNNAME":"安南區","LI":"安順里","LIN":"16鄰","STREET":"總安街","SECT":"一段","MAREA":" ","LANE":"１４６巷","ALLEY":"９２弄","HOUSE_NO":"３３號","E_COORD97":169729.25,"N_COORD97":2550400.0499999998,"ADDRESS":"總安街一段１４６巷９２弄３３號","OBJECTID":124223},"geometry":{"x":169729.25000000093,"y":2550400.0500000026}},{"attributes":{"ID":124224,"DIS_CODE":0,"TOWNNAME":"安南區","LI":"安順里","LIN":"16鄰","STREET":"總安街","SECT":"一段","MAREA":" ","LANE":"１４６巷","ALLEY":"９２弄","HOUSE_NO":"３５號","E_COORD97":169732.89999999999,"N_COORD97":2550399.4100000001,"ADDRESS":"總安街一段１４６巷９２弄３５號","OBJECTID":124224},"geometry":{"x":169732.90000000037,"y":2550399.410000002}},{"attributes":{"ID":124225,"DIS_CODE":0,"TOWNNAME":"後壁區","LI":"侯伯里","LIN":"4鄰","STREET":" ","SECT":" ","MAREA":"後壁寮","LANE":" ","ALLEY":" ","HOUSE_NO":"３２號","E_COORD97":185429.92999999999,"N_COORD97":2585363.6000000001,"ADDRESS":"後壁寮３２號","OBJECTID":124225},"geometry":{"x":185429.93000000156,"y":2585363.6000000015}},{"attributes":{"ID":124226,"DIS_CODE":0,"TOWNNAME":"安南區","LI":"安順里","LIN":"16鄰","STREET":"總安街","SECT":"一段","MAREA":" ","LANE":"１４６巷","ALLEY":"９２弄","HOUSE_NO":"３７號","E_COORD97":169737.5,"N_COORD97":2550398.7799999998,"ADDRESS":"總安街一段１４６巷９２弄３７號","OBJECTID":124226},"geometry":{"x":169737.50000000093,"y":2550398.7799999975}},{"attributes":{"ID":124227,"DIS_CODE":0,"TOWNNAME":"安南區","LI":"安順里","LIN":"16鄰","STREET":"總安街","SECT":"一段","MAREA":" ","LANE":"１４６巷","ALLEY":"９２弄","HOUSE_NO":"３９號","E_COORD97":169741.31,"N_COORD97":2550398.9399999999,"ADDRESS":"總安街一段１４６巷９２弄３９號","OBJECTID":124227},"geometry":{"x":169741.30999999959,"y":2550398.9400000013}},{"attributes":{"ID":124228,"DIS_CODE":0,"TOWNNAME":"安南區","LI":"安順里","LIN":"16鄰","STREET":"總安街","SECT":"一段","MAREA":" ","LANE":"１４６巷","ALLEY":"９２弄","HOUSE_NO":"４１號","E_COORD97":169745.28,"N_COORD97":2550398.6200000001,"ADDRESS":"總安街一段１４６巷９２弄４１號","OBJECTID":124228},"geometry":{"x":169745.28000000026,"y":2550398.6200000048}},{"attributes":{"ID":124229,"DIS_CODE":0,"TOWNNAME":"安南區","LI":"安順里","LIN":"16鄰","STREET":"總安街","SECT":"一段","MAREA":" ","LANE":"１４６巷","ALLEY":"９２弄","HOUSE_NO":"４３號","E_COORD97":169693.20999999999,"N_COORD97":2550415.9199999999,"ADDRESS":"總安街一段１４６巷９２弄４３號","OBJECTID":124229},"geometry":{"x":169693.20999999996,"y":2550415.9200000018}},{"attributes":{"ID":124230,"DIS_CODE":0,"TOWNNAME":"安南區","LI":"安順里","LIN":"16鄰","STREET":"總安街","SECT":"一段","MAREA":" ","LANE":"１４６巷","ALLEY":"９２弄","HOUSE_NO":"４５號","E_COORD97":169697.01999999999,"N_COORD97":2550415.4500000002,"ADDRESS":"總安街一段１４６巷９２弄４５號","OBJECTID":124230},"geometry":{"x":169697.01999999955,"y":2550415.4500000011}},{"attributes":{"ID":124231,"DIS_CODE":0,"TOWNNAME":"安南區","LI":"安順里","LIN":"16鄰","STREET":"總安街","SECT":"一段","MAREA":" ","LANE":"１４６巷","ALLEY":"９２弄","HOUSE_NO":"４７號","E_COORD97":169701.31,"N_COORD97":2550414.9700000002,"ADDRESS":"總安街一段１４６巷９２弄４７號","OBJECTID":124231},"geometry":{"x":169701.31000000052,"y":2550414.9700000007}},{"attributes":{"ID":124232,"DIS_CODE":0,"TOWNNAME":"安南區","LI":"安順里","LIN":"16鄰","STREET":"總安街","SECT":"一段","MAREA":" ","LANE":"１４６巷","ALLEY":"９２弄","HOUSE_NO":"４９號","E_COORD97":169705.59,"N_COORD97":2550414.3399999999,"ADDRESS":"總安街一段１４６巷９２弄４９號","OBJECTID":124232},"geometry":{"x":169705.58999999985,"y":2550414.3400000017}},{"attributes":{"ID":124233,"DIS_CODE":0,"TOWNNAME":"安南區","LI":"安順里","LIN":"16鄰","STREET":"總安街","SECT":"一段","MAREA":" ","LANE":"１４６巷","ALLEY":"９２弄","HOUSE_NO":"５１號","E_COORD97":169709.56,"N_COORD97":2550414.3399999999,"ADDRESS":"總安街一段１４６巷９２弄５１號","OBJECTID":124233},"geometry":{"x":169709.56000000052,"y":2550414.3400000017}},{"attributes":{"ID":124234,"DIS_CODE":0,"TOWNNAME":"安南區","LI":"安順里","LIN":"16鄰","STREET":"總安街","SECT":"一段","MAREA":" ","LANE":"１４６巷","ALLEY":"９２弄","HOUSE_NO":"５３號","E_COORD97":169714.32000000001,"N_COORD97":2550413.8599999999,"ADDRESS":"總安街一段１４６巷９２弄５３號","OBJECTID":124234},"geometry":{"x":169714.3200000003,"y":2550413.8599999994}},{"attributes":{"ID":124235,"DIS_CODE":0,"TOWNNAME":"安南區","LI":"安順里","LIN":"16鄰","STREET":"總安街","SECT":"一段","MAREA":" ","LANE":"１４６巷","ALLEY":"９２弄","HOUSE_NO":"５５號","E_COORD97":169718.29000000001,"N_COORD97":2550413.54,"ADDRESS":"總安街一段１４６巷９２弄５５號","OBJECTID":124235},"geometry":{"x":169718.28999999911,"y":2550413.5399999991}},{"attributes":{"ID":124236,"DIS_CODE":0,"TOWNNAME":"安南區","LI":"安順里","LIN":"16鄰","STREET":"總安街","SECT":"一段","MAREA":" ","LANE":"１４６巷","ALLEY":"９２弄","HOUSE_NO":"５７號","E_COORD97":169721.94,"N_COORD97":2550413.3799999999,"ADDRESS":"總安街一段１４６巷９２弄５７號","OBJECTID":124236},"geometry":{"x":169721.94000000134,"y":2550413.379999999}},{"attributes":{"ID":124237,"DIS_CODE":0,"TOWNNAME":"安南區","LI":"安順里","LIN":"16鄰","STREET":"總安街","SECT":"一段","MAREA":" ","LANE":"１４６巷","ALLEY":"９２弄","HOUSE_NO":"５９號","E_COORD97":169726.54999999999,"N_COORD97":2550413.0699999998,"ADDRESS":"總安街一段１４６巷９２弄５９號","OBJECTID":124237},"geometry":{"x":169726.55000000168,"y":2550413.0700000022}},{"attributes":{"ID":124238,"DIS_CODE":0,"TOWNNAME":"安南區","LI":"安順里","LIN":"16鄰","STREET":"總安街","SECT":"一段","MAREA":" ","LANE":"１４６巷","ALLEY":"９２弄","HOUSE_NO":"６１號","E_COORD97":169730.67999999999,"N_COORD97":2550412.4300000002,"ADDRESS":"總安街一段１４６巷９２弄６１號","OBJECTID":124238},"geometry":{"x":169730.68000000156,"y":2550412.4300000016}},{"attributes":{"ID":124239,"DIS_CODE":0,"TOWNNAME":"安南區","LI":"安順里","LIN":"16鄰","STREET":"總安街","SECT":"一段","MAREA":" ","LANE":"１４６巷","ALLEY":"９２弄","HOUSE_NO":"６３號","E_COORD97":169734.32999999999,"N_COORD97":2550412.1099999999,"ADDRESS":"總安街一段１４６巷９２弄６３號","OBJECTID":124239},"geometry":{"x":169734.33000000007,"y":2550412.1099999994}},{"attributes":{"ID":124240,"DIS_CODE":0,"TOWNNAME":"安南區","LI":"安順里","LIN":"16鄰","STREET":"總安街","SECT":"一段","MAREA":" ","LANE":"１４６巷","ALLEY":"９２弄","HOUSE_NO":"６５號","E_COORD97":169738.29999999999,"N_COORD97":2550411.7999999998,"ADDRESS":"總安街一段１４６巷９２弄６５號","OBJECTID":124240},"geometry":{"x":169738.29999999981,"y":2550411.8000000026}},{"attributes":{"ID":124241,"DIS_CODE":0,"TOWNNAME":"安南區","LI":"安順里","LIN":"16鄰","STREET":"總安街","SECT":"一段","MAREA":" ","LANE":"１４６巷","ALLEY":"９２弄","HOUSE_NO":"６７號","E_COORD97":169742.57999999999,"N_COORD97":2550410.21,"ADDRESS":"總安街一段１４６巷９２弄６７號","OBJECTID":124241},"geometry":{"x":169742.58000000101,"y":2550410.2100000009}},{"attributes":{"ID":124242,"DIS_CODE":0,"TOWNNAME":"安南區","LI":"安順里","LIN":"16鄰","STREET":"總安街","SECT":"一段","MAREA":" ","LANE":"１４６巷","ALLEY":"９２弄","HOUSE_NO":"６９號","E_COORD97":169746.70999999999,"N_COORD97":2550409.5699999998,"ADDRESS":"總安街一段１４６巷９２弄６９號","OBJECTID":124242},"geometry":{"x":169746.71000000089,"y":2550409.5700000022}},{"attributes":{"ID":124243,"DIS_CODE":0,"TOWNNAME":"安南區","LI":"安順里","LIN":"16鄰","STREET":"總安街","SECT":"一段","MAREA":" ","LANE":"１４６巷","ALLEY":"９２弄","HOUSE_NO":"７１號","E_COORD97":169750.67999999999,"N_COORD97":2550409.1000000001,"ADDRESS":"總安街一段１４６巷９２弄７１號","OBJECTID":124243},"geometry":{"x":169750.6799999997,"y":2550409.0999999996}},{"attributes":{"ID":124244,"DIS_CODE":0,"TOWNNAME":"北區","LI":"永祥里","LIN":"16鄰","STREET":"大武街","SECT":" ","MAREA":" ","LANE":"５０２巷","ALLEY":"４弄","HOUSE_NO":"６號","E_COORD97":170150.12,"N_COORD97":2546342.8399999999,"ADDRESS":"大武街５０２巷４弄６號","OBJECTID":124244},"geometry":{"x":170150.11999999918,"y":2546342.8399999999}},{"attributes":{"ID":124245,"DIS_CODE":0,"TOWNNAME":"東區","LI":"衛國里","LIN":"24鄰","STREET":"林森路","SECT":"二段","MAREA":" ","LANE":"１９２巷","ALLEY":"２４弄","HOUSE_NO":"１８號","E_COORD97":170569.89999999999,"N_COORD97":2543233.52,"ADDRESS":"林森路二段１９２巷２４弄１８號","OBJECTID":124245},"geometry":{"x":170569.90000000037,"y":2543233.5199999977}},{"attributes":{"ID":124246,"DIS_CODE":0,"TOWNNAME":"安南區","LI":"顯宮里","LIN":"2鄰","STREET":"顯宮二街","SECT":" ","MAREA":" ","LANE":"５８巷","ALLEY":" ","HOUSE_NO":"３１號","E_COORD97":160601.23999999999,"N_COORD97":2548762.0600000001,"ADDRESS":"顯宮二街５８巷３１號","OBJECTID":124246},"geometry":{"x":160601.24000000115,"y":2548762.0600000024}},{"attributes":{"ID":124247,"DIS_CODE":0,"TOWNNAME":"東區","LI":"關聖里","LIN":"2鄰","STREET":"富農街","SECT":"二段","MAREA":" ","LANE":"１２巷","ALLEY":" ","HOUSE_NO":"２５號","E_COORD97":171735.85999999999,"N_COORD97":2542892.7400000002,"ADDRESS":"富農街二段１２巷２５號","OBJECTID":124247},"geometry":{"x":171735.86000000127,"y":2542892.7400000002}},{"attributes":{"ID":124248,"DIS_CODE":0,"TOWNNAME":"東區","LI":"泉南里","LIN":"24鄰","STREET":"長榮路","SECT":"一段","MAREA":" ","LANE":" ","ALLEY":" ","HOUSE_NO":"１５號五樓之１","E_COORD97":169618.13,"N_COORD97":2542581.52,"ADDRESS":"長榮路一段１５號五樓之１","OBJECTID":124248},"geometry":{"x":169618.13000000082,"y":2542581.5199999996}},{"attributes":{"ID":124249,"DIS_CODE":0,"TOWNNAME":"東區","LI":"泉南里","LIN":"24鄰","STREET":"長榮路","SECT":"一段","MAREA":" ","LANE":" ","ALLEY":" ","HOUSE_NO":"１５號六樓","E_COORD97":169618.13,"N_COORD97":2542581.52,"ADDRESS":"長榮路一段１５號六樓","OBJECTID":124249},"geometry":{"x":169618.13000000082,"y":2542581.5199999996}},{"attributes":{"ID":124250,"DIS_CODE":0,"TOWNNAME":"東區","LI":"泉南里","LIN":"24鄰","STREET":"長榮路","SECT":"一段","MAREA":" ","LANE":" ","ALLEY":" ","HOUSE_NO":"１５號六樓之１","E_COORD97":169618.13,"N_COORD97":2542581.52,"ADDRESS":"長榮路一段１５號六樓之１","OBJECTID":124250},"geometry":{"x":169618.13000000082,"y":2542581.5199999996}},{"attributes":{"ID":124251,"DIS_CODE":0,"TOWNNAME":"東區","LI":"泉南里","LIN":"24鄰","STREET":"長榮路","SECT":"一段","MAREA":" ","LANE":" ","ALLEY":" ","HOUSE_NO":"１５號四樓","E_COORD97":169618.13,"N_COORD97":2542581.52,"ADDRESS":"長榮路一段１５號四樓","OBJECTID":124251},"geometry":{"x":169618.13000000082,"y":2542581.5199999996}},{"attributes":{"ID":124252,"DIS_CODE":0,"TOWNNAME":"後壁區","LI":"侯伯里","LIN":"4鄰","STREET":" ","SECT":" ","MAREA":"後壁寮","LANE":" ","ALLEY":" ","HOUSE_NO":"３３號之１","E_COORD97":185389.25,"N_COORD97":2585337.48,"ADDRESS":"後壁寮３３號之１","OBJECTID":124252},"geometry":{"x":185389.25000000093,"y":2585337.4800000023}},{"attributes":{"ID":124253,"DIS_CODE":0,"TOWNNAME":"東區","LI":"泉南里","LIN":"24鄰","STREET":"長榮路","SECT":"一段","MAREA":" ","LANE":" ","ALLEY":" ","HOUSE_NO":"１５號四樓之１","E_COORD97":169618.13,"N_COORD97":2542581.52,"ADDRESS":"長榮路一段１５號四樓之１","OBJECTID":124253},"geometry":{"x":169618.13000000082,"y":2542581.5199999996}},{"attributes":{"ID":124254,"DIS_CODE":0,"TOWNNAME":"東區","LI":"崇成里","LIN":"24鄰","STREET":"崇明二十三街","SECT":" ","MAREA":" ","LANE":" ","ALLEY":" ","HOUSE_NO":"７號六樓","E_COORD97":170655,"N_COORD97":2540884,"ADDRESS":"崇明二十三街７號六樓","OBJECTID":124254},"geometry":{"x":170655.00000000093,"y":2540884}},{"attributes":{"ID":124255,"DIS_CODE":0,"TOWNNAME":"安南區","LI":"青草里","LIN":"2鄰","STREET":"青砂街","SECT":" ","MAREA":" ","LANE":" ","ALLEY":" ","HOUSE_NO":"３５２號","E_COORD97":159252.37,"N_COORD97":2553166.7000000002,"ADDRESS":"青砂街３５２號","OBJECTID":124255},"geometry":{"x":159252.37000000104,"y":2553166.7000000011}},{"attributes":{"ID":124256,"DIS_CODE":0,"TOWNNAME":"佳里區","LI":"安西里","LIN":"12鄰","STREET":"新生路","SECT":" ","MAREA":" ","LANE":" ","ALLEY":" ","HOUSE_NO":"３３４號","E_COORD97":165474.20000000001,"N_COORD97":2562248.0499999998,"ADDRESS":"新生路３３４號","OBJECTID":124256},"geometry":{"x":165474.20000000019,"y":2562248.0500000045}},{"attributes":{"ID":124257,"DIS_CODE":0,"TOWNNAME":"東區","LI":"衛國里","LIN":"24鄰","STREET":"林森路","SECT":"二段","MAREA":" ","LANE":"１９２巷","ALLEY":"２４弄","HOUSE_NO":"２２號","E_COORD97":170572.10999999999,"N_COORD97":2543215.4100000001,"ADDRESS":"林森路二段１９２巷２４弄２２號","OBJECTID":124257},"geometry":{"x":170572.11000000034,"y":2543215.410000002}},{"attributes":{"ID":124258,"DIS_CODE":0,"TOWNNAME":"東區","LI":"衛國里","LIN":"24鄰","STREET":"林森路","SECT":"二段","MAREA":" ","LANE":"１９２巷","ALLEY":"２４弄","HOUSE_NO":"２４號","E_COORD97":170573.07000000001,"N_COORD97":2543204.6800000002,"ADDRESS":"林森路二段１９２巷２４弄２４號","OBJECTID":124258},"geometry":{"x":170573.07000000123,"y":2543204.6799999997}},{"attributes":{"ID":124259,"DIS_CODE":0,"TOWNNAME":"東區","LI":"衛國里","LIN":"24鄰","STREET":"林森路","SECT":"二段","MAREA":" ","LANE":"１９２巷","ALLEY":"２４弄","HOUSE_NO":"２６號","E_COORD97":170574.79000000001,"N_COORD97":2543196.6299999999,"ADDRESS":"林森路二段１９２巷２４弄２６號","OBJECTID":124259},"geometry":{"x":170574.79000000097,"y":2543196.6300000008}},{"attributes":{"ID":124260,"DIS_CODE":0,"TOWNNAME":"東區","LI":"忠孝里","LIN":"31鄰","STREET":"中華東路","SECT":"三段","MAREA":" ","LANE":"４５２巷","ALLEY":"８弄","HOUSE_NO":"４號","E_COORD97":169917.63,"N_COORD97":2541605.0600000001,"ADDRESS":"中華東路三段４５２巷８弄４號","OBJECTID":124260},"geometry":{"x":169917.63000000175,"y":2541605.0600000024}},{"attributes":{"ID":124261,"DIS_CODE":0,"TOWNNAME":"東區","LI":"忠孝里","LIN":"31鄰","STREET":"中華東路","SECT":"三段","MAREA":" ","LANE":"４５２巷","ALLEY":"８弄","HOUSE_NO":"４號地下層","E_COORD97":169917.63,"N_COORD97":2541605.0600000001,"ADDRESS":"中華東路三段４５２巷８弄４號地下層","OBJECTID":124261},"geometry":{"x":169917.63000000175,"y":2541605.0600000024}},{"attributes":{"ID":124262,"DIS_CODE":0,"TOWNNAME":"東區","LI":"富強里","LIN":"25鄰","STREET":"裕農路","SECT":" ","MAREA":" ","LANE":"４４６巷","ALLEY":"５２弄","HOUSE_NO":"５８號","E_COORD97":171053.85000000001,"N_COORD97":2542993.04,"ADDRESS":"裕農路４４６巷５２弄５８號","OBJECTID":124262},"geometry":{"x":171053.85000000056,"y":2542993.040000001}},{"attributes":{"ID":124263,"DIS_CODE":0,"TOWNNAME":"仁德區","LI":"成功里","LIN":"16鄰","STREET":"全福路","SECT":" ","MAREA":" ","LANE":"７５巷","ALLEY":"１３弄","HOUSE_NO":"７號","E_COORD97":170998.48000000001,"N_COORD97":2539348.2400000002,"ADDRESS":"全福路７５巷１３弄７號","OBJECTID":124263},"geometry":{"x":170998.48000000045,"y":2539348.2400000021}},{"attributes":{"ID":124264,"DIS_CODE":0,"TOWNNAME":"安南區","LI":"顯宮里","LIN":"2鄰","STREET":"媽祖宮路","SECT":" ","MAREA":" ","LANE":" ","ALLEY":" ","HOUSE_NO":"１４３號","E_COORD97":160538.41,"N_COORD97":2548802.5099999998,"ADDRESS":"媽祖宮路１４３號","OBJECTID":124264},"geometry":{"x":160538.41000000108,"y":2548802.5100000016}},{"attributes":{"ID":124265,"DIS_CODE":0,"TOWNNAME":"安南區","LI":"淵中里","LIN":"2鄰","STREET":"安中路","SECT":"三段","MAREA":" ","LANE":"３８７巷","ALLEY":" ","HOUSE_NO":"１３號","E_COORD97":165350.87,"N_COORD97":2549962.1000000001,"ADDRESS":"安中路三段３８７巷１３號","OBJECTID":124265},"geometry":{"x":165350.87000000011,"y":2549962.0999999996}},{"attributes":{"ID":124266,"DIS_CODE":0,"TOWNNAME":"南化區","LI":"東和里","LIN":"1鄰","STREET":" ","SECT":" ","MAREA":"東和","LANE":" ","ALLEY":" ","HOUSE_NO":"５號","E_COORD97":196221.12,"N_COORD97":2547535.75,"ADDRESS":"東和５號","OBJECTID":124266},"geometry":{"x":196221.12000000104,"y":2547535.7500000019}},{"attributes":{"ID":124267,"DIS_CODE":0,"TOWNNAME":"佳里區","LI":"嘉福里","LIN":"6鄰","STREET":" ","SECT":" ","MAREA":"下營","LANE":" ","ALLEY":" ","HOUSE_NO":"１２０號","E_COORD97":163181.60000000001,"N_COORD97":2563374,"ADDRESS":"下營１２０號","OBJECTID":124267},"geometry":{"x":163181.60000000056,"y":2563374.0000000019}},{"attributes":{"ID":124268,"DIS_CODE":0,"TOWNNAME":"白河區","LI":"蓮潭里","LIN":"6鄰","STREET":" ","SECT":" ","MAREA":"山子腳","LANE":" ","ALLEY":" ","HOUSE_NO":"３０之８號","E_COORD97":189085.17000000001,"N_COORD97":2588385.5899999999,"ADDRESS":"山子腳３０之８號","OBJECTID":124268},"geometry":{"x":189085.17000000086,"y":2588385.5899999999}},{"attributes":{"ID":124269,"DIS_CODE":0,"TOWNNAME":"鹽水區","LI":"竹埔里","LIN":"6鄰","STREET":" ","SECT":" ","MAREA":"竹子腳","LANE":" ","ALLEY":" ","HOUSE_NO":"１０６號之１１","E_COORD97":172787.70999999999,"N_COORD97":2574308.7200000002,"ADDRESS":"竹子腳１０６號之１１","OBJECTID":124269},"geometry":{"x":172787.71000000089,"y":2574308.7200000007}},{"attributes":{"ID":124270,"DIS_CODE":0,"TOWNNAME":"鹽水區","LI":"竹埔里","LIN":"6鄰","STREET":" ","SECT":" ","MAREA":"竹子腳","LANE":" ","ALLEY":" ","HOUSE_NO":"１０６之１號","E_COORD97":172733.20999999999,"N_COORD97":2574269.6699999999,"ADDRESS":"竹子腳１０６之１號","OBJECTID":124270},"geometry":{"x":172733.21000000089,"y":2574269.6700000018}},{"attributes":{"ID":124271,"DIS_CODE":0,"TOWNNAME":"鹽水區","LI":"竹埔里","LIN":"6鄰","STREET":" ","SECT":" ","MAREA":"竹子腳","LANE":" ","ALLEY":" ","HOUSE_NO":"１０６號之１","E_COORD97":172733.20999999999,"N_COORD97":2574269.6699999999,"ADDRESS":"竹子腳１０６號之１","OBJECTID":124271},"geometry":{"x":172733.21000000089,"y":2574269.6700000018}},{"attributes":{"ID":124272,"DIS_CODE":0,"TOWNNAME":"鹽水區","LI":"竹埔里","LIN":"6鄰","STREET":" ","SECT":" ","MAREA":"竹子腳","LANE":" ","ALLEY":" ","HOUSE_NO":"１０６號之２","E_COORD97":172723,"N_COORD97":2574281.2400000002,"ADDRESS":"竹子腳１０６號之２","OBJECTID":124272},"geometry":{"x":172723.00000000093,"y":2574281.2400000002}},{"attributes":{"ID":124273,"DIS_CODE":0,"TOWNNAME":"鹽水區","LI":"竹埔里","LIN":"6鄰","STREET":" ","SECT":" ","MAREA":"竹子腳","LANE":" ","ALLEY":" ","HOUSE_NO":"１０６號之３","E_COORD97":172724.59,"N_COORD97":2574310.29,"ADDRESS":"竹子腳１０６號之３","OBJECTID":124273},"geometry":{"x":172724.58999999985,"y":2574310.2899999991}},{"attributes":{"ID":124274,"DIS_CODE":0,"TOWNNAME":"七股區","LI":"?榔里","LIN":"6鄰","STREET":" ","SECT":" ","MAREA":"?榔","LANE":" ","ALLEY":" ","HOUSE_NO":"５０號之１４","E_COORD97":162363.66,"N_COORD97":2555141.2200000002,"ADDRESS":"?榔５０號之１４","OBJECTID":124274},"geometry":{"x":162363.66000000015,"y":2555141.2200000025}},{"attributes":{"ID":124275,"DIS_CODE":0,"TOWNNAME":"七股區","LI":"?榔里","LIN":"6鄰","STREET":" ","SECT":" ","MAREA":"?榔","LANE":" ","ALLEY":" ","HOUSE_NO":"５０號之１","E_COORD97":162367.98000000001,"N_COORD97":2555191.3300000001,"ADDRESS":"?榔５０號之１","OBJECTID":124275},"geometry":{"x":162367.98000000138,"y":2555191.3300000019}},{"attributes":{"ID":124276,"DIS_CODE":0,"TOWNNAME":"永康區","LI":"正強里","LIN":"6鄰","STREET":"自強路","SECT":" ","MAREA":" ","LANE":" ","ALLEY":" ","HOUSE_NO":"３６０號","E_COORD97":173471.92000000001,"N_COORD97":2547734.4900000002,"ADDRESS":"自強路３６０號","OBJECTID":124276},"geometry":{"x":173471.91999999993,"y":2547734.4900000021}},{"attributes":{"ID":124277,"DIS_CODE":0,"TOWNNAME":"仁德區","LI":"成功里","LIN":"16鄰","STREET":"全福路","SECT":" ","MAREA":" ","LANE":"７５巷","ALLEY":"１３弄","HOUSE_NO":"６號","E_COORD97":171003.89999999999,"N_COORD97":2539364.25,"ADDRESS":"全福路７５巷１３弄６號","OBJECTID":124277},"geometry":{"x":171003.90000000037,"y":2539364.2500000037}},{"attributes":{"ID":124278,"DIS_CODE":0,"TOWNNAME":"永康區","LI":"安康里","LIN":"6鄰","STREET":"大橋一街","SECT":" ","MAREA":" ","LANE":" ","ALLEY":" ","HOUSE_NO":"４５之５號","E_COORD97":170689.53,"N_COORD97":2546296.4199999999,"ADDRESS":"大橋一街４５之５號","OBJECTID":124278},"geometry":{"x":170689.53000000026,"y":2546296.4200000037}},{"attributes":{"ID":124279,"DIS_CODE":0,"TOWNNAME":"仁德區","LI":"成功里","LIN":"16鄰","STREET":"全福路","SECT":" ","MAREA":" ","LANE":"７５巷","ALLEY":"１３弄","HOUSE_NO":"１１號","E_COORD97":170991.20000000001,"N_COORD97":2539348.7400000002,"ADDRESS":"全福路７５巷１３弄１１號","OBJECTID":124279},"geometry":{"x":170991.20000000112,"y":2539348.7400000021}},{"attributes":{"ID":124280,"DIS_CODE":0,"TOWNNAME":"東區","LI":"崇誨里","LIN":"27鄰","STREET":"裕豐街","SECT":" ","MAREA":" ","LANE":"１８５巷","ALLEY":"１２弄","HOUSE_NO":"１０號","E_COORD97":170748.69,"N_COORD97":2543236.5099999998,"ADDRESS":"裕豐街１８５巷１２弄１０號","OBJECTID":124280},"geometry":{"x":170748.69000000134,"y":2543236.5099999998}},{"attributes":{"ID":124281,"DIS_CODE":0,"TOWNNAME":"麻豆區","LI":"海埔里","LIN":"6鄰","STREET":" ","SECT":" ","MAREA":"海埔","LANE":" ","ALLEY":" ","HOUSE_NO":"１６之５號","E_COORD97":169393.28,"N_COORD97":2566579.2000000002,"ADDRESS":"海埔１６之５號","OBJECTID":124281},"geometry":{"x":169393.28000000212,"y":2566579.2000000011}},{"attributes":{"ID":124282,"DIS_CODE":0,"TOWNNAME":"東區","LI":"崇誨里","LIN":"27鄰","STREET":"裕豐街","SECT":" ","MAREA":" ","LANE":"１８５巷","ALLEY":"１２弄","HOUSE_NO":"１４號","E_COORD97":170752.57000000001,"N_COORD97":2543242.3399999999,"ADDRESS":"裕豐街１８５巷１２弄１４號","OBJECTID":124282},"geometry":{"x":170752.57000000216,"y":2543242.3400000017}},{"attributes":{"ID":124283,"DIS_CODE":0,"TOWNNAME":"東區","LI":"崇誨里","LIN":"17鄰","STREET":"林森路","SECT":"二段","MAREA":" ","LANE":"１９２巷","ALLEY":"３６弄","HOUSE_NO":"６號","E_COORD97":170611.82999999999,"N_COORD97":2543321.5099999998,"ADDRESS":"林森路二段１９２巷３６弄６號","OBJECTID":124283},"geometry":{"x":170611.83000000101,"y":2543321.5099999998}},{"attributes":{"ID":124284,"DIS_CODE":0,"TOWNNAME":"東區","LI":"東安里","LIN":"7鄰","STREET":"長榮路","SECT":"二段","MAREA":" ","LANE":"３２巷","ALLEY":"４６弄","HOUSE_NO":"１９７號","E_COORD97":170133.10000000001,"N_COORD97":2543040.5800000001,"ADDRESS":"長榮路二段３２巷４６弄１９７號","OBJECTID":124284},"geometry":{"x":170133.10000000056,"y":2543040.5800000038}},{"attributes":{"ID":124285,"DIS_CODE":0,"TOWNNAME":"東區","LI":"和平里","LIN":"12鄰","STREET":"東門路","SECT":"三段","MAREA":" ","LANE":"２２６巷","ALLEY":"９７弄","HOUSE_NO":"９５號","E_COORD97":171531.10000000001,"N_COORD97":2541642.5099999998,"ADDRESS":"東門路三段２２６巷９７弄９５號","OBJECTID":124285},"geometry":{"x":171531.09999999963,"y":2541642.5099999998}},{"attributes":{"ID":124286,"DIS_CODE":0,"TOWNNAME":"永康區","LI":"烏竹里","LIN":"16鄰","STREET":"自強路","SECT":" ","MAREA":" ","LANE":"９２５巷","ALLEY":"５５弄","HOUSE_NO":"１７號","E_COORD97":174629.98000000001,"N_COORD97":2548888.54,"ADDRESS":"自強路９２５巷５５弄１７號","OBJECTID":124286},"geometry":{"x":174629.98000000045,"y":2548888.540000001}},{"attributes":{"ID":124287,"DIS_CODE":0,"TOWNNAME":"永康區","LI":"烏竹里","LIN":"16鄰","STREET":"自強路","SECT":" ","MAREA":" ","LANE":"９２５巷","ALLEY":"５５弄","HOUSE_NO":"１９號","E_COORD97":174625.84,"N_COORD97":2548886.6600000001,"ADDRESS":"自強路９２５巷５５弄１９號","OBJECTID":124287},"geometry":{"x":174625.84000000078,"y":2548886.660000002}},{"attributes":{"ID":124288,"DIS_CODE":0,"TOWNNAME":"永康區","LI":"安康里","LIN":"6鄰","STREET":"中華路","SECT":" ","MAREA":" ","LANE":"７２７巷","ALLEY":" ","HOUSE_NO":"２９號","E_COORD97":170757.04000000001,"N_COORD97":2546365.9900000002,"ADDRESS":"中華路７２７巷２９號","OBJECTID":124288},"geometry":{"x":170757.04000000004,"y":2546365.9900000002}},{"attributes":{"ID":124289,"DIS_CODE":0,"TOWNNAME":"將軍區","LI":"長榮里","LIN":"6鄰","STREET":" ","SECT":" ","MAREA":"長榮","LANE":" ","ALLEY":" ","HOUSE_NO":"６７號","E_COORD97":164090.89000000001,"N_COORD97":2566213.9500000002,"ADDRESS":"長榮６７號","OBJECTID":124289},"geometry":{"x":164090.88999999873,"y":2566213.950000003}},{"attributes":{"ID":124290,"DIS_CODE":0,"TOWNNAME":"將軍區","LI":"苓和里","LIN":"6鄰","STREET":" ","SECT":" ","MAREA":"苓和","LANE":" ","ALLEY":" ","HOUSE_NO":"５８號","E_COORD97":164548.23000000001,"N_COORD97":2568964.79,"ADDRESS":"苓和５８號","OBJECTID":124290},"geometry":{"x":164548.23000000045,"y":2568964.790000001}},{"attributes":{"ID":124291,"DIS_CODE":0,"TOWNNAME":"新化區","LI":"羊林里","LIN":"6鄰","STREET":" ","SECT":" ","MAREA":"\u25A0拔林","LANE":" ","ALLEY":" ","HOUSE_NO":"４８７號之２４","E_COORD97":183385.60999999999,"N_COORD97":2551760.2599999998,"ADDRESS":"\u25A0拔林４８７號之２４","OBJECTID":124291},"geometry":{"x":183385.61000000127,"y":2551760.2600000016}},{"attributes":{"ID":124292,"DIS_CODE":0,"TOWNNAME":"新化區","LI":"北勢里","LIN":"6鄰","STREET":" ","SECT":" ","MAREA":"北勢","LANE":" ","ALLEY":" ","HOUSE_NO":"１００號之１１","E_COORD97":177291.95999999999,"N_COORD97":2549763.2599999998,"ADDRESS":"北勢１００號之１１","OBJECTID":124292},"geometry":{"x":177291.96000000089,"y":2549763.2600000016}},{"attributes":{"ID":124293,"DIS_CODE":0,"TOWNNAME":"新化區","LI":"\u25A0拔里","LIN":"6鄰","STREET":" ","SECT":" ","MAREA":"\u25A0拔林","LANE":" ","ALLEY":" ","HOUSE_NO":"２６１號之２","E_COORD97":183594.78,"N_COORD97":2551923.2599999998,"ADDRESS":"\u25A0拔林２６１號之２","OBJECTID":124293},"geometry":{"x":183594.78000000026,"y":2551923.2600000016}},{"attributes":{"ID":124294,"DIS_CODE":0,"TOWNNAME":"新化區","LI":"羊林里","LIN":"6鄰","STREET":" ","SECT":" ","MAREA":"\u25A0拔林","LANE":" ","ALLEY":" ","HOUSE_NO":"４７７號之１","E_COORD97":183537.14999999999,"N_COORD97":2551742.2599999998,"ADDRESS":"\u25A0拔林４７７號之１","OBJECTID":124294},"geometry":{"x":183537.15000000224,"y":2551742.2600000035}},{"attributes":{"ID":124295,"DIS_CODE":0,"TOWNNAME":"新化區","LI":"礁坑里","LIN":"6鄰","STREET":" ","SECT":" ","MAREA":"三十六崙","LANE":" ","ALLEY":" ","HOUSE_NO":"１４６號","E_COORD97":184845.47,"N_COORD97":2549203.25,"ADDRESS":"三十六崙１４６號","OBJECTID":124295},"geometry":{"x":184845.47000000067,"y":2549203.2500000037}},{"attributes":{"ID":124296,"DIS_CODE":0,"TOWNNAME":"安定區","LI":"安定里","LIN":"6鄰","STREET":" ","SECT":" ","MAREA":"安定","LANE":" ","ALLEY":" ","HOUSE_NO":"３８號","E_COORD97":172148.17000000001,"N_COORD97":2557870.3199999998,"ADDRESS":"安定３８號","OBJECTID":124296},"geometry":{"x":172148.16999999899,"y":2557870.3200000022}},{"attributes":{"ID":124297,"DIS_CODE":0,"TOWNNAME":"新營區","LI":"角帶里","LIN":"6鄰","STREET":" ","SECT":" ","MAREA":"角帶圍","LANE":" ","ALLEY":" ","HOUSE_NO":"６８號","E_COORD97":174756.35999999999,"N_COORD97":2575692.4399999999,"ADDRESS":"角帶圍６８號","OBJECTID":124297},"geometry":{"x":174756.3600000022,"y":2575692.4399999995}},{"attributes":{"ID":124298,"DIS_CODE":0,"TOWNNAME":"後壁區","LI":"侯伯里","LIN":"4鄰","STREET":" ","SECT":" ","MAREA":"後壁寮","LANE":" ","ALLEY":" ","HOUSE_NO":"３３號","E_COORD97":185397.63,"N_COORD97":2585349.4100000001,"ADDRESS":"後壁寮３３號","OBJECTID":124298},"geometry":{"x":185397.62999999989,"y":2585349.4100000001}},{"attributes":{"ID":124299,"DIS_CODE":0,"TOWNNAME":"後壁區","LI":"侯伯里","LIN":"4鄰","STREET":" ","SECT":" ","MAREA":"後壁寮","LANE":" ","ALLEY":" ","HOUSE_NO":"３４號","E_COORD97":185447,"N_COORD97":2585353.9700000002,"ADDRESS":"後壁寮３４號","OBJECTID":124299},"geometry":{"x":185447.00000000093,"y":2585353.9700000044}},{"attributes":{"ID":124300,"DIS_CODE":0,"TOWNNAME":"後壁區","LI":"侯伯里","LIN":"4鄰","STREET":" ","SECT":" ","MAREA":"後壁寮","LANE":" ","ALLEY":" ","HOUSE_NO":"３５號","E_COORD97":185436.41,"N_COORD97":2585326.1099999999,"ADDRESS":"後壁寮３５號","OBJECTID":124300},"geometry":{"x":185436.41000000015,"y":2585326.1100000013}},{"attributes":{"ID":124301,"DIS_CODE":0,"TOWNNAME":"南區","LI":"新昌里","LIN":"6鄰","STREET":"五妃街","SECT":" ","MAREA":" ","LANE":" ","ALLEY":" ","HOUSE_NO":"３８０號","E_COORD97":167603.75,"N_COORD97":2542601.6299999999,"ADDRESS":"五妃街３８０號","OBJECTID":124301},"geometry":{"x":167603.75000000093,"y":2542601.6300000027}},{"attributes":{"ID":124302,"DIS_CODE":0,"TOWNNAME":"南區","LI":"新昌里","LIN":"6鄰","STREET":"五妃街","SECT":" ","MAREA":" ","LANE":" ","ALLEY":" ","HOUSE_NO":"３８２號","E_COORD97":167597.57999999999,"N_COORD97":2542601.1400000001,"ADDRESS":"五妃街３８２號","OBJECTID":124302},"geometry":{"x":167597.58000000194,"y":2542601.1400000025}},{"attributes":{"ID":124303,"DIS_CODE":0,"TOWNNAME":"永康區","LI":"烏竹里","LIN":"16鄰","STREET":"自強路","SECT":" ","MAREA":" ","LANE":"９２５巷","ALLEY":"５５弄","HOUSE_NO":"２１號","E_COORD97":174621.76999999999,"N_COORD97":2548884.1000000001,"ADDRESS":"自強路９２５巷５５弄２１號","OBJECTID":124303},"geometry":{"x":174621.76999999955,"y":2548884.0999999996}},{"attributes":{"ID":124304,"DIS_CODE":0,"TOWNNAME":"新營區","LI":"太南里","LIN":"6鄰","STREET":" ","SECT":" ","MAREA":"太子宮","LANE":" ","ALLEY":" ","HOUSE_NO":"２１５之４號","E_COORD97":176157.29000000001,"N_COORD97":2576848.2999999998,"ADDRESS":"太子宮２１５之４號","OBJECTID":124304},"geometry":{"x":176157.29000000097,"y":2576848.3000000007}},{"attributes":{"ID":124305,"DIS_CODE":0,"TOWNNAME":"永康區","LI":"烏竹里","LIN":"16鄰","STREET":"自強路","SECT":" ","MAREA":" ","LANE":"９２５巷","ALLEY":"５５弄","HOUSE_NO":"２３號","E_COORD97":174610.41,"N_COORD97":2548906.6299999999,"ADDRESS":"自強路９２５巷５５弄２３號","OBJECTID":124305},"geometry":{"x":174610.41000000108,"y":2548906.629999999}},{"attributes":{"ID":124306,"DIS_CODE":0,"TOWNNAME":"永康區","LI":"烏竹里","LIN":"16鄰","STREET":"自強路","SECT":" ","MAREA":" ","LANE":"９２５巷","ALLEY":"５５弄","HOUSE_NO":"２５號","E_COORD97":174616.67000000001,"N_COORD97":2548909.6800000002,"ADDRESS":"自強路９２５巷５５弄２５號","OBJECTID":124306},"geometry":{"x":174616.67000000086,"y":2548909.6800000016}},{"attributes":{"ID":124307,"DIS_CODE":0,"TOWNNAME":"後壁區","LI":"崁頂里","LIN":"1鄰","STREET":" ","SECT":" ","MAREA":"崁頂","LANE":" ","ALLEY":" ","HOUSE_NO":"５號之５","E_COORD97":182627.79999999999,"N_COORD97":2586657.7999999998,"ADDRESS":"崁頂５號之５","OBJECTID":124307},"geometry":{"x":182627.80000000075,"y":2586657.8000000026}},{"attributes":{"ID":124308,"DIS_CODE":0,"TOWNNAME":"永康區","LI":"烏竹里","LIN":"16鄰","STREET":"自強路","SECT":" ","MAREA":" ","LANE":"９２５巷","ALLEY":"５５弄","HOUSE_NO":"２７號","E_COORD97":174620.75,"N_COORD97":2548911.6499999999,"ADDRESS":"自強路９２５巷５５弄２７號","OBJECTID":124308},"geometry":{"x":174620.75,"y":2548911.6500000004}},{"attributes":{"ID":124309,"DIS_CODE":0,"TOWNNAME":"永康區","LI":"烏竹里","LIN":"16鄰","STREET":"自強路","SECT":" ","MAREA":" ","LANE":"９２５巷","ALLEY":"５５弄","HOUSE_NO":"２９號","E_COORD97":174624.82999999999,"N_COORD97":2548913.6200000001,"ADDRESS":"自強路９２５巷５５弄２９號","OBJECTID":124309},"geometry":{"x":174624.83000000101,"y":2548913.6200000048}},{"attributes":{"ID":124310,"DIS_CODE":0,"TOWNNAME":"永康區","LI":"烏竹里","LIN":"16鄰","STREET":"自強路","SECT":" ","MAREA":" ","LANE":"９２５巷","ALLEY":"５５弄","HOUSE_NO":"３１號","E_COORD97":174628.89999999999,"N_COORD97":2548915.5899999999,"ADDRESS":"自強路９２５巷５５弄３１號","OBJECTID":124310},"geometry":{"x":174628.89999999944,"y":2548915.589999998}},{"attributes":{"ID":124311,"DIS_CODE":0,"TOWNNAME":"永康區","LI":"烏竹里","LIN":"16鄰","STREET":"自強路","SECT":" ","MAREA":" ","LANE":"９２５巷","ALLEY":"５５弄","HOUSE_NO":"３３號","E_COORD97":174632.98000000001,"N_COORD97":2548917.5600000001,"ADDRESS":"自強路９２５巷５５弄３３號","OBJECTID":124311},"geometry":{"x":174632.98000000045,"y":2548917.5600000024}},{"attributes":{"ID":124312,"DIS_CODE":0,"TOWNNAME":"新營區","LI":"角帶里","LIN":"6鄰","STREET":" ","SECT":" ","MAREA":"角帶圍","LANE":" ","ALLEY":" ","HOUSE_NO":"７９號","E_COORD97":174743.92000000001,"N_COORD97":2575655.96,"ADDRESS":"角帶圍７９號","OBJECTID":124312},"geometry":{"x":174743.92000000086,"y":2575655.9600000028}},{"attributes":{"ID":124313,"DIS_CODE":0,"TOWNNAME":"後壁區","LI":"侯伯里","LIN":"7鄰","STREET":" ","SECT":" ","MAREA":"後壁寮","LANE":" ","ALLEY":" ","HOUSE_NO":"４８號之１","E_COORD97":185435.06,"N_COORD97":2585231.6600000001,"ADDRESS":"後壁寮４８號之１","OBJECTID":124313},"geometry":{"x":185435.05999999959,"y":2585231.660000002}},{"attributes":{"ID":124314,"DIS_CODE":0,"TOWNNAME":"後壁區","LI":"侯伯里","LIN":"1鄰","STREET":" ","SECT":" ","MAREA":"後壁寮","LANE":" ","ALLEY":" ","HOUSE_NO":"２號","E_COORD97":186206.04999999999,"N_COORD97":2585486.7799999998,"ADDRESS":"後壁寮２號","OBJECTID":124314},"geometry":{"x":186206.05000000075,"y":2585486.7800000012}},{"attributes":{"ID":124315,"DIS_CODE":0,"TOWNNAME":"後壁區","LI":"侯伯里","LIN":"1鄰","STREET":" ","SECT":" ","MAREA":"後壁寮","LANE":" ","ALLEY":" ","HOUSE_NO":"３號","E_COORD97":186150.48000000001,"N_COORD97":2585478.9399999999,"ADDRESS":"後壁寮３號","OBJECTID":124315},"geometry":{"x":186150.48000000045,"y":2585478.9400000013}},{"attributes":{"ID":124316,"DIS_CODE":0,"TOWNNAME":"後壁區","LI":"侯伯里","LIN":"6鄰","STREET":" ","SECT":" ","MAREA":"後壁寮","LANE":" ","ALLEY":" ","HOUSE_NO":"４３號","E_COORD97":185385.92999999999,"N_COORD97":2585308.5499999998,"ADDRESS":"後壁寮４３號","OBJECTID":124316},"geometry":{"x":185385.93000000063,"y":2585308.5500000007}},{"attributes":{"ID":124317,"DIS_CODE":0,"TOWNNAME":"後壁區","LI":"侯伯里","LIN":"6鄰","STREET":" ","SECT":" ","MAREA":"後壁寮","LANE":" ","ALLEY":" ","HOUSE_NO":"４４號之１","E_COORD97":185353.32999999999,"N_COORD97":2585271.5600000001,"ADDRESS":"後壁寮４４號之１","OBJECTID":124317},"geometry":{"x":185353.33000000101,"y":2585271.5599999987}},{"attributes":{"ID":124318,"DIS_CODE":0,"TOWNNAME":"後壁區","LI":"侯伯里","LIN":"6鄰","STREET":" ","SECT":" ","MAREA":"後壁寮","LANE":" ","ALLEY":" ","HOUSE_NO":"４４號","E_COORD97":185369.09,"N_COORD97":2585299.1800000002,"ADDRESS":"後壁寮４４號","OBJECTID":124318},"geometry":{"x":185369.08999999985,"y":2585299.1799999997}},{"attributes":{"ID":124319,"DIS_CODE":0,"TOWNNAME":"永康區","LI":"烏竹里","LIN":"16鄰","STREET":"自強路","SECT":" ","MAREA":" ","LANE":"９２５巷","ALLEY":"５５弄","HOUSE_NO":"３５號","E_COORD97":174636.16,"N_COORD97":2548921.04,"ADDRESS":"自強路９２５巷５５弄３５號","OBJECTID":124319},"geometry":{"x":174636.16000000108,"y":2548921.0399999991}},{"attributes":{"ID":124320,"DIS_CODE":0,"TOWNNAME":"南區","LI":"新昌里","LIN":"6鄰","STREET":"五妃街","SECT":" ","MAREA":" ","LANE":" ","ALLEY":" ","HOUSE_NO":"３８４號","E_COORD97":167591.89999999999,"N_COORD97":2542602.2799999998,"ADDRESS":"五妃街３８４號","OBJECTID":124320},"geometry":{"x":167591.90000000037,"y":2542602.2800000012}},{"attributes":{"ID":124321,"DIS_CODE":0,"TOWNNAME":"後壁區","LI":"侯伯里","LIN":"6鄰","STREET":" ","SECT":" ","MAREA":"後壁寮","LANE":" ","ALLEY":" ","HOUSE_NO":"４６號之１","E_COORD97":185459.95999999999,"N_COORD97":2585278.9900000002,"ADDRESS":"後壁寮４６號之１","OBJECTID":124321},"geometry":{"x":185459.95999999996,"y":2585278.9900000021}},{"attributes":{"ID":124322,"DIS_CODE":0,"TOWNNAME":"後壁區","LI":"侯伯里","LIN":"6鄰","STREET":" ","SECT":" ","MAREA":"後壁寮","LANE":" ","ALLEY":" ","HOUSE_NO":"４６號之２","E_COORD97":185457.44,"N_COORD97":2585275.0800000001,"ADDRESS":"後壁寮４６號之２","OBJECTID":124322},"geometry":{"x":185457.44000000041,"y":2585275.0800000019}},{"attributes":{"ID":124323,"DIS_CODE":0,"TOWNNAME":"後壁區","LI":"崁頂里","LIN":"4鄰","STREET":" ","SECT":" ","MAREA":"崁頂","LANE":" ","ALLEY":" ","HOUSE_NO":"３９號","E_COORD97":182951.45999999999,"N_COORD97":2586752.2200000002,"ADDRESS":"崁頂３９號","OBJECTID":124323},"geometry":{"x":182951.46000000183,"y":2586752.2199999988}},{"attributes":{"ID":124324,"DIS_CODE":0,"TOWNNAME":"後壁區","LI":"崁頂里","LIN":"4鄰","STREET":" ","SECT":" ","MAREA":"崁頂","LANE":" ","ALLEY":" ","HOUSE_NO":"４０號","E_COORD97":182952.32999999999,"N_COORD97":2586777.48,"ADDRESS":"崁頂４０號","OBJECTID":124324},"geometry":{"x":182952.33000000007,"y":2586777.4800000042}},{"attributes":{"ID":124325,"DIS_CODE":0,"TOWNNAME":"後壁區","LI":"崁頂里","LIN":"4鄰","STREET":" ","SECT":" ","MAREA":"崁頂","LANE":" ","ALLEY":" ","HOUSE_NO":"４１號之１０","E_COORD97":182946.87,"N_COORD97":2586846.8999999999,"ADDRESS":"崁頂４１號之１０","OBJECTID":124325},"geometry":{"x":182946.87000000011,"y":2586846.9000000022}},{"attributes":{"ID":124326,"DIS_CODE":0,"TOWNNAME":"後壁區","LI":"崁頂里","LIN":"4鄰","STREET":" ","SECT":" ","MAREA":"崁頂","LANE":" ","ALLEY":" ","HOUSE_NO":"４１號之３","E_COORD97":182963.22,"N_COORD97":2586821.6099999999,"ADDRESS":"崁頂４１號之３","OBJECTID":124326},"geometry":{"x":182963.22000000067,"y":2586821.6099999994}},{"attributes":{"ID":124327,"DIS_CODE":0,"TOWNNAME":"後壁區","LI":"崁頂里","LIN":"4鄰","STREET":" ","SECT":" ","MAREA":"崁頂","LANE":" ","ALLEY":" ","HOUSE_NO":"４１號之５","E_COORD97":182992.79999999999,"N_COORD97":2586802.9199999999,"ADDRESS":"崁頂４１號之５","OBJECTID":124327},"geometry":{"x":182992.79999999981,"y":2586802.9199999999}},{"attributes":{"ID":124328,"DIS_CODE":0,"TOWNNAME":"後壁區","LI":"崁頂里","LIN":"4鄰","STREET":" ","SECT":" ","MAREA":"崁頂","LANE":" ","ALLEY":" ","HOUSE_NO":"４１號之６","E_COORD97":182997.5,"N_COORD97":2586804.25,"ADDRESS":"崁頂４１號之６","OBJECTID":124328},"geometry":{"x":182997.50000000093,"y":2586804.25}},{"attributes":{"ID":124329,"DIS_CODE":0,"TOWNNAME":"後壁區","LI":"崁頂里","LIN":"4鄰","STREET":" ","SECT":" ","MAREA":"崁頂","LANE":" ","ALLEY":" ","HOUSE_NO":"４１號","E_COORD97":182983.89000000001,"N_COORD97":2586793.9300000002,"ADDRESS":"崁頂４１號","OBJECTID":124329},"geometry":{"x":182983.89000000153,"y":2586793.9300000034}},{"attributes":{"ID":124330,"DIS_CODE":0,"TOWNNAME":"後壁區","LI":"崁頂里","LIN":"4鄰","STREET":" ","SECT":" ","MAREA":"崁頂","LANE":" ","ALLEY":" ","HOUSE_NO":"４２號之１","E_COORD97":182996.16,"N_COORD97":2586776.1899999999,"ADDRESS":"崁頂４２號之１","OBJECTID":124330},"geometry":{"x":182996.16000000201,"y":2586776.1900000013}},{"attributes":{"ID":124331,"DIS_CODE":0,"TOWNNAME":"後壁區","LI":"崁頂里","LIN":"4鄰","STREET":" ","SECT":" ","MAREA":"崁頂","LANE":" ","ALLEY":" ","HOUSE_NO":"４２號","E_COORD97":182978.67999999999,"N_COORD97":2586772.6400000001,"ADDRESS":"崁頂４２號","OBJECTID":124331},"geometry":{"x":182978.68000000156,"y":2586772.6400000006}},{"attributes":{"ID":124332,"DIS_CODE":0,"TOWNNAME":"後壁區","LI":"崁頂里","LIN":"4鄰","STREET":" ","SECT":" ","MAREA":"崁頂","LANE":" ","ALLEY":" ","HOUSE_NO":"４３號之３","E_COORD97":182977.20999999999,"N_COORD97":2586749.7000000002,"ADDRESS":"崁頂４３號之３","OBJECTID":124332},"geometry":{"x":182977.21000000089,"y":2586749.6999999993}},{"attributes":{"ID":124333,"DIS_CODE":0,"TOWNNAME":"後壁區","LI":"崁頂里","LIN":"4鄰","STREET":" ","SECT":" ","MAREA":"崁頂","LANE":" ","ALLEY":" ","HOUSE_NO":"４３號","E_COORD97":182984.32000000001,"N_COORD97":2586750.7799999998,"ADDRESS":"崁頂４３號","OBJECTID":124333},"geometry":{"x":182984.3200000003,"y":2586750.7800000031}},{"attributes":{"ID":124334,"DIS_CODE":0,"TOWNNAME":"後壁區","LI":"崁頂里","LIN":"4鄰","STREET":" ","SECT":" ","MAREA":"崁頂","LANE":" ","ALLEY":" ","HOUSE_NO":"４４號","E_COORD97":182991.60999999999,"N_COORD97":2586734.3399999999,"ADDRESS":"崁頂４４號","OBJECTID":124334},"geometry":{"x":182991.6100000022,"y":2586734.3400000017}},{"attributes":{"ID":124335,"DIS_CODE":0,"TOWNNAME":"後壁區","LI":"崁頂里","LIN":"4鄰","STREET":" ","SECT":" ","MAREA":"崁頂","LANE":" ","ALLEY":" ","HOUSE_NO":"４５號之１","E_COORD97":183027.59,"N_COORD97":2586753.3799999999,"ADDRESS":"崁頂４５號之１","OBJECTID":124335},"geometry":{"x":183027.59000000078,"y":2586753.3800000008}},{"attributes":{"ID":124336,"DIS_CODE":0,"TOWNNAME":"東山區","LI":"林安里","LIN":" ","STREET":" ","SECT":" ","MAREA":"林安","LANE":" ","ALLEY":" ","HOUSE_NO":"２２號","E_COORD97":192219.94,"N_COORD97":2575092.9900000002,"ADDRESS":"林安２２號","OBJECTID":124336},"geometry":{"x":192219.94000000134,"y":2575092.9900000002}},{"attributes":{"ID":124337,"DIS_CODE":0,"TOWNNAME":"後壁區","LI":"崁頂里","LIN":"4鄰","STREET":" ","SECT":" ","MAREA":"崁頂","LANE":" ","ALLEY":" ","HOUSE_NO":"４５號","E_COORD97":183019.70000000001,"N_COORD97":2586780.04,"ADDRESS":"崁頂４５號","OBJECTID":124337},"geometry":{"x":183019.70000000205,"y":2586780.040000001}},{"attributes":{"ID":124338,"DIS_CODE":0,"TOWNNAME":"後壁區","LI":"崁頂里","LIN":"4鄰","STREET":" ","SECT":" ","MAREA":"崁頂","LANE":" ","ALLEY":" ","HOUSE_NO":"４７號之１","E_COORD97":183077.51999999999,"N_COORD97":2586747.6000000001,"ADDRESS":"崁頂４７號之１","OBJECTID":124338},"geometry":{"x":183077.51999999955,"y":2586747.5999999996}},{"attributes":{"ID":124339,"DIS_CODE":0,"TOWNNAME":"後壁區","LI":"崁頂里","LIN":"4鄰","STREET":" ","SECT":" ","MAREA":"崁頂","LANE":" ","ALLEY":" ","HOUSE_NO":"４７號之２","E_COORD97":183091.01999999999,"N_COORD97":2586787.6800000002,"ADDRESS":"崁頂４７號之２","OBJECTID":124339},"geometry":{"x":183091.01999999955,"y":2586787.6799999997}},{"attributes":{"ID":124340,"DIS_CODE":0,"TOWNNAME":"後壁區","LI":"崁頂里","LIN":"4鄰","STREET":" ","SECT":" ","MAREA":"崁頂","LANE":" ","ALLEY":" ","HOUSE_NO":"４７號之４","E_COORD97":183115.13,"N_COORD97":2586735.8900000001,"ADDRESS":"崁頂４７號之４","OBJECTID":124340},"geometry":{"x":183115.13000000082,"y":2586735.8900000025}},{"attributes":{"ID":124341,"DIS_CODE":0,"TOWNNAME":"後壁區","LI":"崁頂里","LIN":"4鄰","STREET":" ","SECT":" ","MAREA":"崁頂","LANE":" ","ALLEY":" ","HOUSE_NO":"４７號","E_COORD97":183050.48000000001,"N_COORD97":2586743.79,"ADDRESS":"崁頂４７號","OBJECTID":124341},"geometry":{"x":183050.48000000138,"y":2586743.790000001}},{"attributes":{"ID":124342,"DIS_CODE":0,"TOWNNAME":"後壁區","LI":"崁頂里","LIN":"1鄰","STREET":" ","SECT":" ","MAREA":"崁頂","LANE":" ","ALLEY":" ","HOUSE_NO":"４號","E_COORD97":182616.09,"N_COORD97":2586729.7999999998,"ADDRESS":"崁頂４號","OBJECTID":124342},"geometry":{"x":182616.08999999985,"y":2586729.8000000026}},{"attributes":{"ID":124343,"DIS_CODE":0,"TOWNNAME":"後壁區","LI":"崁頂里","LIN":"1鄰","STREET":" ","SECT":" ","MAREA":"崁頂","LANE":" ","ALLEY":" ","HOUSE_NO":"５號之１","E_COORD97":182629.75,"N_COORD97":2586676.73,"ADDRESS":"崁頂５號之１","OBJECTID":124343},"geometry":{"x":182629.75000000093,"y":2586676.7300000004}},{"attributes":{"ID":124344,"DIS_CODE":0,"TOWNNAME":"後壁區","LI":"崁頂里","LIN":"1鄰","STREET":" ","SECT":" ","MAREA":"崁頂","LANE":" ","ALLEY":" ","HOUSE_NO":"５號之２","E_COORD97":182624.39000000001,"N_COORD97":2586674.4900000002,"ADDRESS":"崁頂５號之２","OBJECTID":124344},"geometry":{"x":182624.38999999873,"y":2586674.4900000002}},{"attributes":{"ID":124345,"DIS_CODE":0,"TOWNNAME":"後壁區","LI":"崁頂里","LIN":"1鄰","STREET":" ","SECT":" ","MAREA":"崁頂","LANE":" ","ALLEY":" ","HOUSE_NO":"５號之３","E_COORD97":182617.35999999999,"N_COORD97":2586655.8199999998,"ADDRESS":"崁頂５號之３","OBJECTID":124345},"geometry":{"x":182617.36000000127,"y":2586655.8200000003}},{"attributes":{"ID":124346,"DIS_CODE":0,"TOWNNAME":"後壁區","LI":"崁頂里","LIN":"6鄰","STREET":" ","SECT":" ","MAREA":"崁頂","LANE":" ","ALLEY":" ","HOUSE_NO":"６３號之１","E_COORD97":183074.32999999999,"N_COORD97":2586717.1600000001,"ADDRESS":"崁頂６３號之１","OBJECTID":124346},"geometry":{"x":183074.33000000007,"y":2586717.1600000001}},{"attributes":{"ID":124347,"DIS_CODE":0,"TOWNNAME":"後壁區","LI":"烏樹里","LIN":"1鄰","STREET":" ","SECT":" ","MAREA":"烏樹林","LANE":" ","ALLEY":" ","HOUSE_NO":"１號之９","E_COORD97":186302.82999999999,"N_COORD97":2581716.6699999999,"ADDRESS":"烏樹林１號之９","OBJECTID":124347},"geometry":{"x":186302.83000000101,"y":2581716.6699999999}},{"attributes":{"ID":124348,"DIS_CODE":0,"TOWNNAME":"後壁區","LI":"烏樹里","LIN":"4鄰","STREET":" ","SECT":" ","MAREA":"烏樹林","LANE":" ","ALLEY":" ","HOUSE_NO":"３８號","E_COORD97":186246.37,"N_COORD97":2581581.73,"ADDRESS":"烏樹林３８號","OBJECTID":124348},"geometry":{"x":186246.37000000104,"y":2581581.7300000042}},{"attributes":{"ID":124349,"DIS_CODE":0,"TOWNNAME":"後壁區","LI":"烏樹里","LIN":"4鄰","STREET":" ","SECT":" ","MAREA":"烏樹林","LANE":" ","ALLEY":" ","HOUSE_NO":"３９號之３","E_COORD97":186211.12,"N_COORD97":2581591.8999999999,"ADDRESS":"烏樹林３９號之３","OBJECTID":124349},"geometry":{"x":186211.12000000104,"y":2581591.9000000022}},{"attributes":{"ID":124350,"DIS_CODE":0,"TOWNNAME":"東區","LI":"崇德里","LIN":"6鄰","STREET":"崇德五街","SECT":" ","MAREA":" ","LANE":"２巷","ALLEY":"１１弄","HOUSE_NO":"１９號","E_COORD97":170703.60999999999,"N_COORD97":2541808.4700000002,"ADDRESS":"崇德五街２巷１１弄１９號","OBJECTID":124350},"geometry":{"x":170703.61000000127,"y":2541808.4700000025}},{"attributes":{"ID":124351,"DIS_CODE":0,"TOWNNAME":"東區","LI":"富強里","LIN":"6鄰","STREET":"中華東路","SECT":"二段","MAREA":" ","LANE":"４８巷","ALLEY":"１７弄","HOUSE_NO":"２８號","E_COORD97":171308.88,"N_COORD97":2542915.02,"ADDRESS":"中華東路二段４８巷１７弄２８號","OBJECTID":124351},"geometry":{"x":171308.87999999989,"y":2542915.0200000033}},{"attributes":{"ID":124352,"DIS_CODE":0,"TOWNNAME":"永康區","LI":"烏竹里","LIN":"16鄰","STREET":"自強路","SECT":" ","MAREA":" ","LANE":"９２５巷","ALLEY":"５５弄","HOUSE_NO":"３７號","E_COORD97":174642.89000000001,"N_COORD97":2548918.2599999998,"ADDRESS":"自強路９２５巷５５弄３７號","OBJECTID":124352},"geometry":{"x":174642.88999999966,"y":2548918.2600000016}},{"attributes":{"ID":124353,"DIS_CODE":0,"TOWNNAME":"永康區","LI":"烏竹里","LIN":"16鄰","STREET":"自強路","SECT":" ","MAREA":" ","LANE":"９２５巷","ALLEY":"５５弄","HOUSE_NO":"３９號","E_COORD97":174652.89999999999,"N_COORD97":2548918.6800000002,"ADDRESS":"自強路９２５巷５５弄３９號","OBJECTID":124353},"geometry":{"x":174652.9000000013,"y":2548918.6800000034}},{"attributes":{"ID":124354,"DIS_CODE":0,"TOWNNAME":"永康區","LI":"烏竹里","LIN":"16鄰","STREET":"自強路","SECT":" ","MAREA":" ","LANE":"９２５巷","ALLEY":"５５弄","HOUSE_NO":"４１號","E_COORD97":174649.70000000001,"N_COORD97":2548925.5499999998,"ADDRESS":"自強路９２５巷５５弄４１號","OBJECTID":124354},"geometry":{"x":174649.70000000019,"y":2548925.5500000007}},{"attributes":{"ID":124355,"DIS_CODE":0,"TOWNNAME":"永康區","LI":"烏竹里","LIN":"16鄰","STREET":"自強路","SECT":" ","MAREA":" ","LANE":"９２５巷","ALLEY":"５５弄","HOUSE_NO":"４３號","E_COORD97":174638.47,"N_COORD97":2548932.54,"ADDRESS":"自強路９２５巷５５弄４３號","OBJECTID":124355},"geometry":{"x":174638.47000000067,"y":2548932.5400000028}},{"attributes":{"ID":124356,"DIS_CODE":0,"TOWNNAME":"後壁區","LI":"烏樹里","LIN":"4鄰","STREET":" ","SECT":" ","MAREA":"烏樹林","LANE":" ","ALLEY":" ","HOUSE_NO":"３９號之４","E_COORD97":186203.72,"N_COORD97":2581589.6400000001,"ADDRESS":"烏樹林３９號之４","OBJECTID":124356},"geometry":{"x":186203.71999999974,"y":2581589.6400000025}},{"attributes":{"ID":124357,"DIS_CODE":0,"TOWNNAME":"後壁區","LI":"烏樹里","LIN":"4鄰","STREET":" ","SECT":" ","MAREA":"烏樹林","LANE":" ","ALLEY":" ","HOUSE_NO":"３９號之６","E_COORD97":186180.14000000001,"N_COORD97":2581599.8900000001,"ADDRESS":"烏樹林３９號之６","OBJECTID":124357},"geometry":{"x":186180.1400000006,"y":2581599.8900000006}},{"attributes":{"ID":124358,"DIS_CODE":0,"TOWNNAME":"後壁區","LI":"烏樹里","LIN":"4鄰","STREET":" ","SECT":" ","MAREA":"烏樹林","LANE":" ","ALLEY":" ","HOUSE_NO":"３９號之８","E_COORD97":186165.07000000001,"N_COORD97":2581603.7400000002,"ADDRESS":"烏樹林３９號之８","OBJECTID":124358},"geometry":{"x":186165.06999999937,"y":2581603.7400000002}},{"attributes":{"ID":124359,"DIS_CODE":0,"TOWNNAME":"後壁區","LI":"烏樹里","LIN":"4鄰","STREET":" ","SECT":" ","MAREA":"烏樹林","LANE":" ","ALLEY":" ","HOUSE_NO":"４０號","E_COORD97":186249.79000000001,"N_COORD97":2581574.5899999999,"ADDRESS":"烏樹林４０號","OBJECTID":124359},"geometry":{"x":186249.78999999911,"y":2581574.5899999999}},{"attributes":{"ID":124360,"DIS_CODE":0,"TOWNNAME":"後壁區","LI":"烏樹里","LIN":"4鄰","STREET":" ","SECT":" ","MAREA":"烏樹林","LANE":" ","ALLEY":" ","HOUSE_NO":"４１號之５","E_COORD97":186173.64000000001,"N_COORD97":2581573.9199999999,"ADDRESS":"烏樹林４１號之５","OBJECTID":124360},"geometry":{"x":186173.63999999966,"y":2581573.9200000018}},{"attributes":{"ID":124361,"DIS_CODE":0,"TOWNNAME":"後壁區","LI":"烏樹里","LIN":"4鄰","STREET":" ","SECT":" ","MAREA":"烏樹林","LANE":" ","ALLEY":" ","HOUSE_NO":"４１號","E_COORD97":186239.14000000001,"N_COORD97":2581559.3399999999,"ADDRESS":"烏樹林４１號","OBJECTID":124361},"geometry":{"x":186239.1400000006,"y":2581559.3399999999}},{"attributes":{"ID":124362,"DIS_CODE":0,"TOWNNAME":"後壁區","LI":"烏樹里","LIN":"4鄰","STREET":" ","SECT":" ","MAREA":"烏樹林","LANE":" ","ALLEY":" ","HOUSE_NO":"４２號","E_COORD97":186265.54999999999,"N_COORD97":2581552,"ADDRESS":"烏樹林４２號","OBJECTID":124362},"geometry":{"x":186265.55000000075,"y":2581552}},{"attributes":{"ID":124363,"DIS_CODE":0,"TOWNNAME":"後壁區","LI":"烏樹里","LIN":"4鄰","STREET":" ","SECT":" ","MAREA":"烏樹林","LANE":" ","ALLEY":" ","HOUSE_NO":"４３號","E_COORD97":186240.67999999999,"N_COORD97":2581530.02,"ADDRESS":"烏樹林４３號","OBJECTID":124363},"geometry":{"x":186240.68000000063,"y":2581530.0199999996}},{"attributes":{"ID":124364,"DIS_CODE":0,"TOWNNAME":"楠西區","LI":"密枝里","LIN":"6鄰","STREET":" ","SECT":" ","MAREA":"密枝","LANE":" ","ALLEY":" ","HOUSE_NO":"６３號之６","E_COORD97":198974.51000000001,"N_COORD97":2566333.2999999998,"ADDRESS":"密枝６３號之６","OBJECTID":124364},"geometry":{"x":198974.51000000071,"y":2566333.3000000026}},{"attributes":{"ID":124365,"DIS_CODE":0,"TOWNNAME":"東區","LI":"大智里","LIN":"5鄰","STREET":"長東街","SECT":" ","MAREA":" ","LANE":"４１巷","ALLEY":"２弄","HOUSE_NO":"４１號","E_COORD97":171111.92000000001,"N_COORD97":2540476.6400000001,"ADDRESS":"長東街４１巷２弄４１號","OBJECTID":124365},"geometry":{"x":171111.91999999993,"y":2540476.6400000006}},{"attributes":{"ID":124366,"DIS_CODE":0,"TOWNNAME":"仁德區","LI":"成功里","LIN":"16鄰","STREET":"全福路","SECT":" ","MAREA":" ","LANE":"７５巷","ALLEY":"１３弄","HOUSE_NO":"１５號","E_COORD97":170982.67999999999,"N_COORD97":2539349.7400000002,"ADDRESS":"全福路７５巷１３弄１５號","OBJECTID":124366},"geometry":{"x":170982.6799999997,"y":2539349.7400000002}},{"attributes":{"ID":124367,"DIS_CODE":0,"TOWNNAME":"仁德區","LI":"後壁里","LIN":"16鄰","STREET":"德善路","SECT":" ","MAREA":" ","LANE":"３２巷","ALLEY":"１７弄","HOUSE_NO":"３３號","E_COORD97":173373.73000000001,"N_COORD97":2538821.7599999998,"ADDRESS":"德善路３２巷１７弄３３號","OBJECTID":124367},"geometry":{"x":173373.73000000045,"y":2538821.7600000016}},{"attributes":{"ID":124368,"DIS_CODE":0,"TOWNNAME":"仁德區","LI":"成功里","LIN":"16鄰","STREET":"全福路","SECT":" ","MAREA":" ","LANE":"７５巷","ALLEY":"１３弄","HOUSE_NO":"３５號","E_COORD97":170940.78,"N_COORD97":2539353.7400000002,"ADDRESS":"全福路７５巷１３弄３５號","OBJECTID":124368},"geometry":{"x":170940.78000000026,"y":2539353.7400000002}},{"attributes":{"ID":124369,"DIS_CODE":0,"TOWNNAME":"下營區","LI":"新興里","LIN":"16鄰","STREET":"裕農街","SECT":" ","MAREA":" ","LANE":"１０２巷","ALLEY":"１１９弄","HOUSE_NO":"３６號","E_COORD97":175434.10999999999,"N_COORD97":2569816.3900000001,"ADDRESS":"裕農街１０２巷１１９弄３６號","OBJECTID":124369},"geometry":{"x":175434.11000000034,"y":2569816.3900000043}},{"attributes":{"ID":124370,"DIS_CODE":0,"TOWNNAME":"下營區","LI":"新興里","LIN":"16鄰","STREET":"裕農街","SECT":" ","MAREA":" ","LANE":"１０２巷","ALLEY":"１１９弄","HOUSE_NO":"６１號","E_COORD97":175726.70000000001,"N_COORD97":2569916.8500000001,"ADDRESS":"裕農街１０２巷１１９弄６１號","OBJECTID":124370},"geometry":{"x":175726.70000000019,"y":2569916.8499999996}},{"attributes":{"ID":124371,"DIS_CODE":0,"TOWNNAME":"下營區","LI":"新興里","LIN":"16鄰","STREET":"裕農街","SECT":" ","MAREA":" ","LANE":"１０２巷","ALLEY":"１１９弄","HOUSE_NO":"７８號","E_COORD97":175884.5,"N_COORD97":2569864.3500000001,"ADDRESS":"裕農街１０２巷１１９弄７８號","OBJECTID":124371},"geometry":{"x":175884.50000000093,"y":2569864.3500000015}},{"attributes":{"ID":124372,"DIS_CODE":0,"TOWNNAME":"楠西區","LI":"鹿田里","LIN":"6鄰","STREET":" ","SECT":" ","MAREA":"鹿陶洋","LANE":" ","ALLEY":" ","HOUSE_NO":"９０號","E_COORD97":197751.62,"N_COORD97":2561644.25,"ADDRESS":"鹿陶洋９０號","OBJECTID":124372},"geometry":{"x":197751.62000000104,"y":2561644.25}},{"attributes":{"ID":124373,"DIS_CODE":0,"TOWNNAME":"楠西區","LI":"龜丹里","LIN":"6鄰","STREET":" ","SECT":" ","MAREA":"龜丹","LANE":" ","ALLEY":" ","HOUSE_NO":"７５號之３","E_COORD97":199479.87,"N_COORD97":2559984.2999999998,"ADDRESS":"龜丹７５號之３","OBJECTID":124373},"geometry":{"x":199479.87000000011,"y":2559984.3000000007}},{"attributes":{"ID":124374,"DIS_CODE":0,"TOWNNAME":"新營區","LI":"埤寮里","LIN":"6鄰","STREET":" ","SECT":" ","MAREA":"埤寮","LANE":" ","ALLEY":" ","HOUSE_NO":"１５號之３","E_COORD97":180322.32000000001,"N_COORD97":2580926.8100000001,"ADDRESS":"埤寮１５號之３","OBJECTID":124374},"geometry":{"x":180322.32000000123,"y":2580926.8099999987}},{"attributes":{"ID":124375,"DIS_CODE":0,"TOWNNAME":"新營區","LI":"角帶里","LIN":"6鄰","STREET":" ","SECT":" ","MAREA":"角帶圍","LANE":" ","ALLEY":" ","HOUSE_NO":"６７號","E_COORD97":174732.82999999999,"N_COORD97":2575692.5600000001,"ADDRESS":"角帶圍６７號","OBJECTID":124375},"geometry":{"x":174732.83000000101,"y":2575692.5600000005}},{"attributes":{"ID":124376,"DIS_CODE":0,"TOWNNAME":"新營區","LI":"太北里","LIN":"6鄰","STREET":" ","SECT":" ","MAREA":"太子宮","LANE":" ","ALLEY":" ","HOUSE_NO":"５２號","E_COORD97":175921.53,"N_COORD97":2577101.9100000001,"ADDRESS":"太子宮５２號","OBJECTID":124376},"geometry":{"x":175921.53000000212,"y":2577101.910000002}},{"attributes":{"ID":124377,"DIS_CODE":0,"TOWNNAME":"新營區","LI":"太南里","LIN":"6鄰","STREET":" ","SECT":" ","MAREA":"太子宮","LANE":" ","ALLEY":" ","HOUSE_NO":"２１２號","E_COORD97":176198.19,"N_COORD97":2576934.4199999999,"ADDRESS":"太子宮２１２號","OBJECTID":124377},"geometry":{"x":176198.19000000041,"y":2576934.4199999999}},{"attributes":{"ID":124378,"DIS_CODE":0,"TOWNNAME":"後壁區","LI":"烏樹里","LIN":"4鄰","STREET":" ","SECT":" ","MAREA":"烏樹林","LANE":" ","ALLEY":" ","HOUSE_NO":"４４號之１０","E_COORD97":186173.01999999999,"N_COORD97":2581530.5499999998,"ADDRESS":"烏樹林４４號之１０","OBJECTID":124378},"geometry":{"x":186173.01999999955,"y":2581530.5500000026}},{"attributes":{"ID":124379,"DIS_CODE":0,"TOWNNAME":"後壁區","LI":"烏樹里","LIN":"4鄰","STREET":" ","SECT":" ","MAREA":"烏樹林","LANE":" ","ALLEY":" ","HOUSE_NO":"４４號之１１","E_COORD97":186168.79000000001,"N_COORD97":2581530.21,"ADDRESS":"烏樹林４４號之１１","OBJECTID":124379},"geometry":{"x":186168.79000000097,"y":2581530.2100000009}},{"attributes":{"ID":124380,"DIS_CODE":0,"TOWNNAME":"後壁區","LI":"烏樹里","LIN":"4鄰","STREET":" ","SECT":" ","MAREA":"烏樹林","LANE":" ","ALLEY":" ","HOUSE_NO":"４４號之１２","E_COORD97":186176.29000000001,"N_COORD97":2581541.71,"ADDRESS":"烏樹林４４號之１２","OBJECTID":124380},"geometry":{"x":186176.29000000004,"y":2581541.7100000046}},{"attributes":{"ID":124381,"DIS_CODE":0,"TOWNNAME":"新營區","LI":"新東里","LIN":"6鄰","STREET":"東大街","SECT":" ","MAREA":" ","LANE":"６６巷","ALLEY":" ","HOUSE_NO":"１號","E_COORD97":181029.45999999999,"N_COORD97":2579196.9100000001,"ADDRESS":"東大街６６巷１號","OBJECTID":124381},"geometry":{"x":181029.46000000089,"y":2579196.9100000039}},{"attributes":{"ID":124382,"DIS_CODE":0,"TOWNNAME":"關廟區","LI":"五甲里","LIN":"15鄰","STREET":"東興一街","SECT":" ","MAREA":" ","LANE":" ","ALLEY":" ","HOUSE_NO":"８６號","E_COORD97":181277.87,"N_COORD97":2539444.25,"ADDRESS":"東興一街８６號","OBJECTID":124382},"geometry":{"x":181277.87000000104,"y":2539444.25}},{"attributes":{"ID":124383,"DIS_CODE":0,"TOWNNAME":"關廟區","LI":"香洋里","LIN":"15鄰","STREET":"中央路","SECT":" ","MAREA":" ","LANE":" ","ALLEY":" ","HOUSE_NO":"１１２號","E_COORD97":181439.35999999999,"N_COORD97":2540009.3199999998,"ADDRESS":"中央路１１２號","OBJECTID":124383},"geometry":{"x":181439.36000000127,"y":2540009.3200000022}},{"attributes":{"ID":124384,"DIS_CODE":0,"TOWNNAME":"關廟區","LI":"松腳里","LIN":"15鄰","STREET":"民權街","SECT":" ","MAREA":" ","LANE":" ","ALLEY":" ","HOUSE_NO":"４９號","E_COORD97":181556.04000000001,"N_COORD97":2539726.29,"ADDRESS":"民權街４９號","OBJECTID":124384},"geometry":{"x":181556.0400000019,"y":2539726.290000001}},{"attributes":{"ID":124385,"DIS_CODE":0,"TOWNNAME":"關廟區","LI":"五甲里","LIN":"15鄰","STREET":"東興一街","SECT":" ","MAREA":" ","LANE":" ","ALLEY":" ","HOUSE_NO":"７０號","E_COORD97":181269.07000000001,"N_COORD97":2539467.25,"ADDRESS":"東興一街７０號","OBJECTID":124385},"geometry":{"x":181269.0700000003,"y":2539467.2500000019}},{"attributes":{"ID":124386,"DIS_CODE":0,"TOWNNAME":"關廟區","LI":"松腳里","LIN":"15鄰","STREET":"和平路","SECT":" ","MAREA":" ","LANE":" ","ALLEY":" ","HOUSE_NO":"１５７號","E_COORD97":181679.34,"N_COORD97":2539693.25,"ADDRESS":"和平路１５７號","OBJECTID":124386},"geometry":{"x":181679.34000000078,"y":2539693.2500000037}},{"attributes":{"ID":124387,"DIS_CODE":0,"TOWNNAME":"關廟區","LI":"五甲里","LIN":"15鄰","STREET":"東興二街","SECT":" ","MAREA":" ","LANE":" ","ALLEY":" ","HOUSE_NO":"１０７號","E_COORD97":181306.42000000001,"N_COORD97":2539416.25,"ADDRESS":"東興二街１０７號","OBJECTID":124387},"geometry":{"x":181306.42000000086,"y":2539416.2500000019}},{"attributes":{"ID":124388,"DIS_CODE":0,"TOWNNAME":"北區","LI":"成功里","LIN":"13鄰","STREET":"北成路","SECT":" ","MAREA":" ","LANE":" ","ALLEY":" ","HOUSE_NO":"５０號","E_COORD97":169061.98000000001,"N_COORD97":2546601.8700000001,"ADDRESS":"北成路５０號","OBJECTID":124388},"geometry":{"x":169061.98000000138,"y":2546601.870000001}},{"attributes":{"ID":124389,"DIS_CODE":0,"TOWNNAME":"關廟區","LI":"松腳里","LIN":"15鄰","STREET":"和平路","SECT":" ","MAREA":" ","LANE":" ","ALLEY":" ","HOUSE_NO":"１５９號","E_COORD97":181680.94,"N_COORD97":2539699.25,"ADDRESS":"和平路１５９號","OBJECTID":124389},"geometry":{"x":181680.94000000134,"y":2539699.25}},{"attributes":{"ID":124390,"DIS_CODE":0,"TOWNNAME":"關廟區","LI":"五甲里","LIN":"15鄰","STREET":"東興二街","SECT":" ","MAREA":" ","LANE":" ","ALLEY":" ","HOUSE_NO":"９６號","E_COORD97":181323.57000000001,"N_COORD97":2539436.25,"ADDRESS":"東興二街９６號","OBJECTID":124390},"geometry":{"x":181323.5700000003,"y":2539436.2500000019}},{"attributes":{"ID":124391,"DIS_CODE":0,"TOWNNAME":"關廟區","LI":"五甲里","LIN":"15鄰","STREET":"東興一街","SECT":" ","MAREA":" ","LANE":" ","ALLEY":" ","HOUSE_NO":"６０號","E_COORD97":181262.57000000001,"N_COORD97":2539483.25,"ADDRESS":"東興一街６０號","OBJECTID":124391},"geometry":{"x":181262.5700000003,"y":2539483.2500000019}},{"attributes":{"ID":124392,"DIS_CODE":0,"TOWNNAME":"關廟區","LI":"松腳里","LIN":"15鄰","STREET":"和平路","SECT":" ","MAREA":" ","LANE":" ","ALLEY":" ","HOUSE_NO":"１５５號","E_COORD97":181678.94,"N_COORD97":2539688.25,"ADDRESS":"和平路１５５號","OBJECTID":124392},"geometry":{"x":181678.93999999948,"y":2539688.25}},{"attributes":{"ID":124393,"DIS_CODE":0,"TOWNNAME":"後壁區","LI":"烏樹里","LIN":"4鄰","STREET":" ","SECT":" ","MAREA":"烏樹林","LANE":" ","ALLEY":" ","HOUSE_NO":"４４號之１３","E_COORD97":186176.26999999999,"N_COORD97":2581546.0600000001,"ADDRESS":"烏樹林４４號之１３","OBJECTID":124393},"geometry":{"x":186176.26999999955,"y":2581546.0600000024}},{"attributes":{"ID":124394,"DIS_CODE":0,"TOWNNAME":"安平區","LI":"金城里","LIN":"6鄰","STREET":"同平路","SECT":" ","MAREA":" ","LANE":" ","ALLEY":" ","HOUSE_NO":"１４７號","E_COORD97":163158.19,"N_COORD97":2543997.1299999999,"ADDRESS":"同平路１４７號","OBJECTID":124394},"geometry":{"x":163158.19000000134,"y":2543997.129999999}},{"attributes":{"ID":124395,"DIS_CODE":0,"TOWNNAME":"安平區","LI":"金城里","LIN":"6鄰","STREET":"同平路","SECT":" ","MAREA":" ","LANE":" ","ALLEY":" ","HOUSE_NO":"１４９號","E_COORD97":163157.54999999999,"N_COORD97":2543987.71,"ADDRESS":"同平路１４９號","OBJECTID":124395},"geometry":{"x":163157.54999999981,"y":2543987.7100000028}},{"attributes":{"ID":124396,"DIS_CODE":0,"TOWNNAME":"安平區","LI":"金城里","LIN":"6鄰","STREET":"同平路","SECT":" ","MAREA":" ","LANE":" ","ALLEY":" ","HOUSE_NO":"１５１號","E_COORD97":163157.39999999999,"N_COORD97":2543978.5299999998,"ADDRESS":"同平路１５１號","OBJECTID":124396},"geometry":{"x":163157.40000000037,"y":2543978.5299999993}},{"attributes":{"ID":124397,"DIS_CODE":0,"TOWNNAME":"安平區","LI":"金城里","LIN":"6鄰","STREET":"同平路","SECT":" ","MAREA":" ","LANE":" ","ALLEY":" ","HOUSE_NO":"１５３號","E_COORD97":163155.81,"N_COORD97":2543961.0299999998,"ADDRESS":"同平路１５３號","OBJECTID":124397},"geometry":{"x":163155.81000000145,"y":2543961.0299999993}},{"attributes":{"ID":124398,"DIS_CODE":0,"TOWNNAME":"安平區","LI":"金城里","LIN":"6鄰","STREET":"同平路","SECT":" ","MAREA":" ","LANE":" ","ALLEY":" ","HOUSE_NO":"１５５號","E_COORD97":163155.64999999999,"N_COORD97":2543956.2799999998,"ADDRESS":"同平路１５５號","OBJECTID":124398},"geometry":{"x":163155.65000000037,"y":2543956.2799999993}},{"attributes":{"ID":124399,"DIS_CODE":0,"TOWNNAME":"安平區","LI":"金城里","LIN":"6鄰","STREET":"同平路","SECT":" ","MAREA":" ","LANE":" ","ALLEY":" ","HOUSE_NO":"１５７號","E_COORD97":163153.75,"N_COORD97":2543946.9399999999,"ADDRESS":"同平路１５７號","OBJECTID":124399},"geometry":{"x":163153.75000000093,"y":2543946.9400000013}},{"attributes":{"ID":124400,"DIS_CODE":0,"TOWNNAME":"安平區","LI":"金城里","LIN":"6鄰","STREET":"同平路","SECT":" ","MAREA":" ","LANE":" ","ALLEY":" ","HOUSE_NO":"１４１號","E_COORD97":163160.25,"N_COORD97":2544035.21,"ADDRESS":"同平路１４１號","OBJECTID":124400},"geometry":{"x":163160.25000000093,"y":2544035.2100000028}}]}