{"displayFieldName":"TOWNNAME","fieldAliases":{"ID":"ID","DIS_CODE":"DIS_CODE","TOWNNAME":"TOWNNAME","LI":"LI","LIN":"LIN","STREET":"STREET","SECT":"SECT","MAREA":"MAREA","LANE":"LANE","ALLEY":"ALLEY","HOUSE_NO":"HOUSE_NO","E_COORD97":"E_COORD97","N_COORD97":"N_COORD97","ADDRESS":"ADDRESS","OBJECTID":"OBJECTID"},"geometryType":"esriGeometryPoint","spatialReference":{"wkid":102443,"latestWkid":3826},"fields":[{"name":"ID","type":"esriFieldTypeDouble","alias":"ID"},{"name":"DIS_CODE","type":"esriFieldTypeInteger","alias":"DIS_CODE"},{"name":"TOWNNAME","type":"esriFieldTypeString","alias":"TOWNNAME","length":8},{"name":"LI","type":"esriFieldTypeString","alias":"LI","length":8},{"name":"LIN","type":"esriFieldTypeString","alias":"LIN","length":12},{"name":"STREET","type":"esriFieldTypeString","alias":"STREET","length":20},{"name":"SECT","type":"esriFieldTypeString","alias":"SECT","length":8},{"name":"MAREA","type":"esriFieldTypeString","alias":"MAREA","length":12},{"name":"LANE","type":"esriFieldTypeString","alias":"LANE","length":10},{"name":"ALLEY","type":"esriFieldTypeString","alias":"ALLEY","length":10},{"name":"HOUSE_NO","type":"esriFieldTypeString","alias":"HOUSE_NO","length":20},{"name":"E_COORD97","type":"esriFieldTypeDouble","alias":"E_COORD97"},{"name":"N_COORD97","type":"esriFieldTypeDouble","alias":"N_COORD97"},{"name":"ADDRESS","type":"esriFieldTypeString","alias":"ADDRESS","length":50},{"name":"OBJECTID","type":"esriFieldTypeOID","alias":"OBJECTID"}],"features":[{"attributes":{"ID":44601,"DIS_CODE":0,"TOWNNAME":"永康區","LI":"中興里","LIN":"17鄰","STREET":"中華路","SECT":" ","MAREA":" ","LANE":" ","ALLEY":" ","HOUSE_NO":"３２２號","E_COORD97":171510.01000000001,"N_COORD97":2545396,"ADDRESS":"中華路３２２號","OBJECTID":44601},"geometry":{"x":171510.00999999885,"y":2545396}},{"attributes":{"ID":44602,"DIS_CODE":0,"TOWNNAME":"永康區","LI":"中興里","LIN":"17鄰","STREET":"中華路","SECT":" ","MAREA":" ","LANE":" ","ALLEY":" ","HOUSE_NO":"３１４號","E_COORD97":171520.34,"N_COORD97":2545378.25,"ADDRESS":"中華路３１４號","OBJECTID":44602},"geometry":{"x":171520.34000000078,"y":2545378.25}},{"attributes":{"ID":44603,"DIS_CODE":0,"TOWNNAME":"永康區","LI":"中興里","LIN":"17鄰","STREET":"中華路","SECT":" ","MAREA":" ","LANE":" ","ALLEY":" ","HOUSE_NO":"３３０號","E_COORD97":171500.16,"N_COORD97":2545415.25,"ADDRESS":"中華路３３０號","OBJECTID":44603},"geometry":{"x":171500.16000000108,"y":2545415.25}},{"attributes":{"ID":44604,"DIS_CODE":0,"TOWNNAME":"永康區","LI":"中興里","LIN":"17鄰","STREET":"中華路","SECT":" ","MAREA":" ","LANE":" ","ALLEY":" ","HOUSE_NO":"２８０號之３６","E_COORD97":171652.84,"N_COORD97":2545277.98,"ADDRESS":"中華路２８０號之３６","OBJECTID":44604},"geometry":{"x":171652.84000000078,"y":2545277.9800000004}},{"attributes":{"ID":44605,"DIS_CODE":0,"TOWNNAME":"官田區","LI":"湖山里","LIN":"17鄰","STREET":" ","SECT":" ","MAREA":"烏山頭","LANE":" ","ALLEY":" ","HOUSE_NO":"１０３號之１２","E_COORD97":183535.97,"N_COORD97":2567751.4399999999,"ADDRESS":"烏山頭１０３號之１２","OBJECTID":44605},"geometry":{"x":183535.96999999881,"y":2567751.4400000013}},{"attributes":{"ID":44606,"DIS_CODE":0,"TOWNNAME":"官田區","LI":"湖山里","LIN":"17鄰","STREET":" ","SECT":" ","MAREA":"烏山頭","LANE":" ","ALLEY":" ","HOUSE_NO":"１０３號之１３","E_COORD97":183537.14999999999,"N_COORD97":2567757.5299999998,"ADDRESS":"烏山頭１０３號之１３","OBJECTID":44606},"geometry":{"x":183537.15000000224,"y":2567757.5300000012}},{"attributes":{"ID":44607,"DIS_CODE":0,"TOWNNAME":"安南區","LI":"東和里","LIN":"7鄰","STREET":"環館北路","SECT":" ","MAREA":" ","LANE":"８４９巷","ALLEY":"３弄","HOUSE_NO":"３３號","E_COORD97":171190.07999999999,"N_COORD97":2551537.1899999999,"ADDRESS":"環館北路８４９巷３弄３３號","OBJECTID":44607},"geometry":{"x":171190.08000000101,"y":2551537.1899999995}},{"attributes":{"ID":44608,"DIS_CODE":0,"TOWNNAME":"官田區","LI":"湖山里","LIN":"17鄰","STREET":" ","SECT":" ","MAREA":"烏山頭","LANE":" ","ALLEY":" ","HOUSE_NO":"１０３號之１","E_COORD97":183532.5,"N_COORD97":2567703.6200000001,"ADDRESS":"烏山頭１０３號之１","OBJECTID":44608},"geometry":{"x":183532.5,"y":2567703.6200000029}},{"attributes":{"ID":44609,"DIS_CODE":0,"TOWNNAME":"安南區","LI":"東和里","LIN":"7鄰","STREET":"環館北路","SECT":" ","MAREA":" ","LANE":"８４９巷","ALLEY":"３弄","HOUSE_NO":"３６號","E_COORD97":171185.92999999999,"N_COORD97":2551512.02,"ADDRESS":"環館北路８４９巷３弄３６號","OBJECTID":44609},"geometry":{"x":171185.93000000063,"y":2551512.0199999996}},{"attributes":{"ID":44610,"DIS_CODE":0,"TOWNNAME":"安南區","LI":"東和里","LIN":"7鄰","STREET":"環館北路","SECT":" ","MAREA":" ","LANE":"８４９巷","ALLEY":"３弄","HOUSE_NO":"３８號","E_COORD97":171190.79000000001,"N_COORD97":2551514.8199999998,"ADDRESS":"環館北路８４９巷３弄３８號","OBJECTID":44610},"geometry":{"x":171190.79000000004,"y":2551514.8200000003}},{"attributes":{"ID":44611,"DIS_CODE":0,"TOWNNAME":"官田區","LI":"湖山里","LIN":"17鄰","STREET":" ","SECT":" ","MAREA":"烏山頭","LANE":" ","ALLEY":" ","HOUSE_NO":"１０３號之２","E_COORD97":183563.98999999999,"N_COORD97":2567689.3599999999,"ADDRESS":"烏山頭１０３號之２","OBJECTID":44611},"geometry":{"x":183563.99000000115,"y":2567689.3600000031}},{"attributes":{"ID":44612,"DIS_CODE":0,"TOWNNAME":"永康區","LI":"復國里","LIN":"17鄰","STREET":"國華街","SECT":" ","MAREA":" ","LANE":" ","ALLEY":" ","HOUSE_NO":"１２號","E_COORD97":172840.41,"N_COORD97":2545599.3100000001,"ADDRESS":"國華街１２號","OBJECTID":44612},"geometry":{"x":172840.41000000108,"y":2545599.3100000042}},{"attributes":{"ID":44613,"DIS_CODE":0,"TOWNNAME":"永康區","LI":"復國里","LIN":"17鄰","STREET":"國華街","SECT":" ","MAREA":" ","LANE":" ","ALLEY":" ","HOUSE_NO":"６４號","E_COORD97":172859.45000000001,"N_COORD97":2545773.04,"ADDRESS":"國華街６４號","OBJECTID":44613},"geometry":{"x":172859.45000000112,"y":2545773.040000001}},{"attributes":{"ID":44614,"DIS_CODE":0,"TOWNNAME":"官田區","LI":"湖山里","LIN":"17鄰","STREET":" ","SECT":" ","MAREA":"烏山頭","LANE":" ","ALLEY":" ","HOUSE_NO":"１０３號之３","E_COORD97":183519.32999999999,"N_COORD97":2567722.1800000002,"ADDRESS":"烏山頭１０３號之３","OBJECTID":44614},"geometry":{"x":183519.33000000101,"y":2567722.1800000016}},{"attributes":{"ID":44615,"DIS_CODE":0,"TOWNNAME":"官田區","LI":"湖山里","LIN":"17鄰","STREET":" ","SECT":" ","MAREA":"烏山頭","LANE":" ","ALLEY":" ","HOUSE_NO":"１０３號之４","E_COORD97":183516.23999999999,"N_COORD97":2567718.2799999998,"ADDRESS":"烏山頭１０３號之４","OBJECTID":44615},"geometry":{"x":183516.24000000115,"y":2567718.2800000012}},{"attributes":{"ID":44616,"DIS_CODE":0,"TOWNNAME":"官田區","LI":"湖山里","LIN":"17鄰","STREET":" ","SECT":" ","MAREA":"烏山頭","LANE":" ","ALLEY":" ","HOUSE_NO":"１０３號之５","E_COORD97":183522.07000000001,"N_COORD97":2567726.0299999998,"ADDRESS":"烏山頭１０３號之５","OBJECTID":44616},"geometry":{"x":183522.0700000003,"y":2567726.0300000012}},{"attributes":{"ID":44617,"DIS_CODE":0,"TOWNNAME":"官田區","LI":"湖山里","LIN":"17鄰","STREET":" ","SECT":" ","MAREA":"烏山頭","LANE":" ","ALLEY":" ","HOUSE_NO":"１０３號之９","E_COORD97":183529.89999999999,"N_COORD97":2567740.1899999999,"ADDRESS":"烏山頭１０３號之９","OBJECTID":44617},"geometry":{"x":183529.90000000037,"y":2567740.1899999995}},{"attributes":{"ID":44618,"DIS_CODE":0,"TOWNNAME":"官田區","LI":"湖山里","LIN":"17鄰","STREET":" ","SECT":" ","MAREA":"烏山頭","LANE":" ","ALLEY":" ","HOUSE_NO":"１０４號之１","E_COORD97":183532.16,"N_COORD97":2567651.3100000001,"ADDRESS":"烏山頭１０４號之１","OBJECTID":44618},"geometry":{"x":183532.16000000108,"y":2567651.3100000024}},{"attributes":{"ID":44619,"DIS_CODE":0,"TOWNNAME":"官田區","LI":"湖山里","LIN":"17鄰","STREET":" ","SECT":" ","MAREA":"烏山頭","LANE":" ","ALLEY":" ","HOUSE_NO":"１０４號之２","E_COORD97":183544.20999999999,"N_COORD97":2567667.2400000002,"ADDRESS":"烏山頭１０４號之２","OBJECTID":44619},"geometry":{"x":183544.20999999996,"y":2567667.2400000039}},{"attributes":{"ID":44620,"DIS_CODE":0,"TOWNNAME":"永康區","LI":"復國里","LIN":"17鄰","STREET":"國華街","SECT":" ","MAREA":" ","LANE":" ","ALLEY":" ","HOUSE_NO":"７０號","E_COORD97":172861.10999999999,"N_COORD97":2545785.5499999998,"ADDRESS":"國華街７０號","OBJECTID":44620},"geometry":{"x":172861.1100000022,"y":2545785.5500000026}},{"attributes":{"ID":44621,"DIS_CODE":0,"TOWNNAME":"永康區","LI":"復國里","LIN":"17鄰","STREET":"國華街","SECT":" ","MAREA":" ","LANE":" ","ALLEY":" ","HOUSE_NO":"６６號","E_COORD97":172860.06,"N_COORD97":2545777.29,"ADDRESS":"國華街６６號","OBJECTID":44621},"geometry":{"x":172860.05999999959,"y":2545777.2899999972}},{"attributes":{"ID":44622,"DIS_CODE":0,"TOWNNAME":"永康區","LI":"復國里","LIN":"17鄰","STREET":"國華街","SECT":" ","MAREA":" ","LANE":" ","ALLEY":" ","HOUSE_NO":"７４號","E_COORD97":172862.14999999999,"N_COORD97":2545794.0499999998,"ADDRESS":"國華街７４號","OBJECTID":44622},"geometry":{"x":172862.15000000037,"y":2545794.0500000007}},{"attributes":{"ID":44623,"DIS_CODE":0,"TOWNNAME":"安南區","LI":"東和里","LIN":"7鄰","STREET":"環館北路","SECT":" ","MAREA":" ","LANE":"８４９巷","ALLEY":"３弄","HOUSE_NO":"４０號","E_COORD97":171195.64000000001,"N_COORD97":2551517.6200000001,"ADDRESS":"環館北路８４９巷３弄４０號","OBJECTID":44623},"geometry":{"x":171195.64000000153,"y":2551517.6200000029}},{"attributes":{"ID":44624,"DIS_CODE":0,"TOWNNAME":"新市區","LI":"大營里","LIN":"15鄰","STREET":" ","SECT":" ","MAREA":"大營","LANE":" ","ALLEY":" ","HOUSE_NO":"２８１號之２５","E_COORD97":179054.01999999999,"N_COORD97":2555508.2999999998,"ADDRESS":"大營２８１號之２５","OBJECTID":44624},"geometry":{"x":179054.02000000048,"y":2555508.3000000007}},{"attributes":{"ID":44625,"DIS_CODE":0,"TOWNNAME":"新市區","LI":"大營里","LIN":"15鄰","STREET":" ","SECT":" ","MAREA":"大營","LANE":" ","ALLEY":" ","HOUSE_NO":"２９５號","E_COORD97":179074.79000000001,"N_COORD97":2555377.5,"ADDRESS":"大營２９５號","OBJECTID":44625},"geometry":{"x":179074.79000000097,"y":2555377.5}},{"attributes":{"ID":44626,"DIS_CODE":0,"TOWNNAME":"新市區","LI":"大社里","LIN":"15鄰","STREET":" ","SECT":" ","MAREA":"大社","LANE":" ","ALLEY":" ","HOUSE_NO":"６３６號","E_COORD97":180065.89999999999,"N_COORD97":2554388.75,"ADDRESS":"大社６３６號","OBJECTID":44626},"geometry":{"x":180065.9000000013,"y":2554388.75}},{"attributes":{"ID":44627,"DIS_CODE":0,"TOWNNAME":"新市區","LI":"大社里","LIN":"15鄰","STREET":" ","SECT":" ","MAREA":"大社","LANE":" ","ALLEY":" ","HOUSE_NO":"６１２號","E_COORD97":180014.10000000001,"N_COORD97":2554412.25,"ADDRESS":"大社６１２號","OBJECTID":44627},"geometry":{"x":180014.10000000149,"y":2554412.2500000019}},{"attributes":{"ID":44628,"DIS_CODE":0,"TOWNNAME":"新市區","LI":"大營里","LIN":"15鄰","STREET":" ","SECT":" ","MAREA":"大營","LANE":" ","ALLEY":" ","HOUSE_NO":"２８２之１號","E_COORD97":179038.82000000001,"N_COORD97":2555508.0499999998,"ADDRESS":"大營２８２之１號","OBJECTID":44628},"geometry":{"x":179038.82000000123,"y":2555508.0500000045}},{"attributes":{"ID":44629,"DIS_CODE":0,"TOWNNAME":"新市區","LI":"大營里","LIN":"15鄰","STREET":" ","SECT":" ","MAREA":"大營","LANE":" ","ALLEY":" ","HOUSE_NO":"２９１之２號","E_COORD97":178895.34,"N_COORD97":2555378.0499999998,"ADDRESS":"大營２９１之２號","OBJECTID":44629},"geometry":{"x":178895.33999999985,"y":2555378.0500000007}},{"attributes":{"ID":44630,"DIS_CODE":0,"TOWNNAME":"新市區","LI":"大營里","LIN":"15鄰","STREET":" ","SECT":" ","MAREA":"大營","LANE":" ","ALLEY":" ","HOUSE_NO":"２８４之１９號","E_COORD97":179004.26999999999,"N_COORD97":2555470.54,"ADDRESS":"大營２８４之１９號","OBJECTID":44630},"geometry":{"x":179004.27000000142,"y":2555470.540000001}},{"attributes":{"ID":44631,"DIS_CODE":0,"TOWNNAME":"新市區","LI":"大營里","LIN":"15鄰","STREET":" ","SECT":" ","MAREA":"大營","LANE":" ","ALLEY":" ","HOUSE_NO":"２８７之３號","E_COORD97":178856.92999999999,"N_COORD97":2555553.5499999998,"ADDRESS":"大營２８７之３號","OBJECTID":44631},"geometry":{"x":178856.9299999997,"y":2555553.5500000026}},{"attributes":{"ID":44632,"DIS_CODE":0,"TOWNNAME":"安南區","LI":"東和里","LIN":"7鄰","STREET":"環館北路","SECT":" ","MAREA":" ","LANE":"８４９巷","ALLEY":"３弄","HOUSE_NO":"４２號","E_COORD97":171199.10000000001,"N_COORD97":2551521.79,"ADDRESS":"環館北路８４９巷３弄４２號","OBJECTID":44632},"geometry":{"x":171199.10000000149,"y":2551521.790000001}},{"attributes":{"ID":44633,"DIS_CODE":0,"TOWNNAME":"安南區","LI":"東和里","LIN":"7鄰","STREET":"環館北路","SECT":" ","MAREA":" ","LANE":"８４９巷","ALLEY":"６弄","HOUSE_NO":"１號","E_COORD97":171091.79999999999,"N_COORD97":2551458.5,"ADDRESS":"環館北路８４９巷６弄１號","OBJECTID":44633},"geometry":{"x":171091.80000000075,"y":2551458.5}},{"attributes":{"ID":44634,"DIS_CODE":0,"TOWNNAME":"安南區","LI":"東和里","LIN":"7鄰","STREET":"環館北路","SECT":" ","MAREA":" ","LANE":"８４９巷","ALLEY":"６弄","HOUSE_NO":"２號","E_COORD97":171078.76000000001,"N_COORD97":2551474.1899999999,"ADDRESS":"環館北路８４９巷６弄２號","OBJECTID":44634},"geometry":{"x":171078.75999999978,"y":2551474.1899999976}},{"attributes":{"ID":44635,"DIS_CODE":0,"TOWNNAME":"安南區","LI":"東和里","LIN":"7鄰","STREET":"環館北路","SECT":" ","MAREA":" ","LANE":"８４９巷","ALLEY":"６弄","HOUSE_NO":"３號","E_COORD97":171088.89999999999,"N_COORD97":2551452.3399999999,"ADDRESS":"環館北路８４９巷６弄３號","OBJECTID":44635},"geometry":{"x":171088.90000000037,"y":2551452.3399999999}},{"attributes":{"ID":44636,"DIS_CODE":0,"TOWNNAME":"安南區","LI":"東和里","LIN":"7鄰","STREET":"環館北路","SECT":" ","MAREA":" ","LANE":"８４９巷","ALLEY":"６弄","HOUSE_NO":"５號","E_COORD97":171083.03,"N_COORD97":2551447.1699999999,"ADDRESS":"環館北路８４９巷６弄５號","OBJECTID":44636},"geometry":{"x":171083.03000000026,"y":2551447.1699999999}},{"attributes":{"ID":44637,"DIS_CODE":0,"TOWNNAME":"安南區","LI":"東和里","LIN":"7鄰","STREET":"環館北路","SECT":" ","MAREA":" ","LANE":"８４９巷","ALLEY":"６弄","HOUSE_NO":"６號","E_COORD97":171074.70000000001,"N_COORD97":2551467.6200000001,"ADDRESS":"環館北路８４９巷６弄６號","OBJECTID":44637},"geometry":{"x":171074.70000000019,"y":2551467.6200000029}},{"attributes":{"ID":44638,"DIS_CODE":0,"TOWNNAME":"後壁區","LI":"福安里","LIN":"15鄰","STREET":" ","SECT":" ","MAREA":"下寮","LANE":" ","ALLEY":" ","HOUSE_NO":"１６９號之２０","E_COORD97":183684.59,"N_COORD97":2580800.4199999999,"ADDRESS":"下寮１６９號之２０","OBJECTID":44638},"geometry":{"x":183684.59000000171,"y":2580800.4200000037}},{"attributes":{"ID":44639,"DIS_CODE":0,"TOWNNAME":"安南區","LI":"東和里","LIN":"7鄰","STREET":"環館北路","SECT":" ","MAREA":" ","LANE":"８４９巷","ALLEY":"６弄","HOUSE_NO":"７號","E_COORD97":171075.48999999999,"N_COORD97":2551444.1200000001,"ADDRESS":"環館北路８４９巷６弄７號","OBJECTID":44639},"geometry":{"x":171075.49000000115,"y":2551444.1200000029}},{"attributes":{"ID":44640,"DIS_CODE":0,"TOWNNAME":"安南區","LI":"東和里","LIN":"7鄰","STREET":"環館北路","SECT":" ","MAREA":" ","LANE":"８４９巷","ALLEY":"６弄","HOUSE_NO":"８號","E_COORD97":171068.95999999999,"N_COORD97":2551462.5600000001,"ADDRESS":"環館北路８４９巷６弄８號","OBJECTID":44640},"geometry":{"x":171068.96000000089,"y":2551462.5600000005}},{"attributes":{"ID":44641,"DIS_CODE":0,"TOWNNAME":"安南區","LI":"東和里","LIN":"7鄰","STREET":"環館北路","SECT":" ","MAREA":" ","LANE":"８４９巷","ALLEY":"６弄","HOUSE_NO":"９號","E_COORD97":171071.32000000001,"N_COORD97":2551440.4500000002,"ADDRESS":"環館北路８４９巷６弄９號","OBJECTID":44641},"geometry":{"x":171071.32000000216,"y":2551440.4499999993}},{"attributes":{"ID":44642,"DIS_CODE":0,"TOWNNAME":"安南區","LI":"東和里","LIN":"7鄰","STREET":"環館北路","SECT":" ","MAREA":" ","LANE":"８４９巷","ALLEY":"６弄","HOUSE_NO":"１０號","E_COORD97":171062,"N_COORD97":2551459.4199999999,"ADDRESS":"環館北路８４９巷６弄１０號","OBJECTID":44642},"geometry":{"x":171062.00000000093,"y":2551459.4199999999}},{"attributes":{"ID":44643,"DIS_CODE":0,"TOWNNAME":"安南區","LI":"東和里","LIN":"7鄰","STREET":"環館北路","SECT":" ","MAREA":" ","LANE":"８４９巷","ALLEY":"６弄","HOUSE_NO":"１１號","E_COORD97":171067.16,"N_COORD97":2551436.7799999998,"ADDRESS":"環館北路８４９巷６弄１１號","OBJECTID":44643},"geometry":{"x":171067.16000000201,"y":2551436.7800000012}},{"attributes":{"ID":44644,"DIS_CODE":0,"TOWNNAME":"後壁區","LI":"福安里","LIN":"15鄰","STREET":" ","SECT":" ","MAREA":"下寮","LANE":" ","ALLEY":" ","HOUSE_NO":"１６９號之５","E_COORD97":183812.73999999999,"N_COORD97":2581015.6499999999,"ADDRESS":"下寮１６９號之５","OBJECTID":44644},"geometry":{"x":183812.74000000209,"y":2581015.6500000004}},{"attributes":{"ID":44645,"DIS_CODE":0,"TOWNNAME":"後壁區","LI":"福安里","LIN":"15鄰","STREET":" ","SECT":" ","MAREA":"下寮","LANE":" ","ALLEY":" ","HOUSE_NO":"１６９號之６","E_COORD97":183819.09,"N_COORD97":2581013.73,"ADDRESS":"下寮１６９號之６","OBJECTID":44645},"geometry":{"x":183819.09000000078,"y":2581013.7300000023}},{"attributes":{"ID":44646,"DIS_CODE":0,"TOWNNAME":"後壁區","LI":"福安里","LIN":"15鄰","STREET":" ","SECT":" ","MAREA":"下寮","LANE":" ","ALLEY":" ","HOUSE_NO":"１６９號","E_COORD97":183881.78,"N_COORD97":2581001.3999999999,"ADDRESS":"下寮１６９號","OBJECTID":44646},"geometry":{"x":183881.78000000026,"y":2581001.4000000022}},{"attributes":{"ID":44647,"DIS_CODE":0,"TOWNNAME":"後壁區","LI":"福安里","LIN":"15鄰","STREET":" ","SECT":" ","MAREA":"下寮","LANE":" ","ALLEY":" ","HOUSE_NO":"１７０號之２","E_COORD97":183886.48000000001,"N_COORD97":2580929.6000000001,"ADDRESS":"下寮１７０號之２","OBJECTID":44647},"geometry":{"x":183886.48000000138,"y":2580929.5999999996}},{"attributes":{"ID":44648,"DIS_CODE":0,"TOWNNAME":"安南區","LI":"東和里","LIN":"7鄰","STREET":"環館北路","SECT":" ","MAREA":" ","LANE":"８４９巷","ALLEY":"６弄","HOUSE_NO":"１２號","E_COORD97":171057.26000000001,"N_COORD97":2551456.1000000001,"ADDRESS":"環館北路８４９巷６弄１２號","OBJECTID":44648},"geometry":{"x":171057.25999999978,"y":2551456.1000000015}},{"attributes":{"ID":44649,"DIS_CODE":0,"TOWNNAME":"後壁區","LI":"福安里","LIN":"15鄰","STREET":" ","SECT":" ","MAREA":"下寮","LANE":" ","ALLEY":" ","HOUSE_NO":"１７０之５號","E_COORD97":183886.94,"N_COORD97":2580940.8999999999,"ADDRESS":"下寮１７０之５號","OBJECTID":44649},"geometry":{"x":183886.94000000134,"y":2580940.9000000022}},{"attributes":{"ID":44650,"DIS_CODE":0,"TOWNNAME":"後壁區","LI":"福安里","LIN":"15鄰","STREET":" ","SECT":" ","MAREA":"下寮","LANE":" ","ALLEY":" ","HOUSE_NO":"１７０號","E_COORD97":183874.67000000001,"N_COORD97":2580973.5,"ADDRESS":"下寮１７０號","OBJECTID":44650},"geometry":{"x":183874.67000000086,"y":2580973.5000000019}},{"attributes":{"ID":44651,"DIS_CODE":0,"TOWNNAME":"後壁區","LI":"福安里","LIN":"15鄰","STREET":" ","SECT":" ","MAREA":"下寮","LANE":" ","ALLEY":" ","HOUSE_NO":"１７１號之１","E_COORD97":183943.03,"N_COORD97":2580871.2000000002,"ADDRESS":"下寮１７１號之１","OBJECTID":44651},"geometry":{"x":183943.03000000212,"y":2580871.1999999993}},{"attributes":{"ID":44652,"DIS_CODE":0,"TOWNNAME":"後壁區","LI":"福安里","LIN":"15鄰","STREET":" ","SECT":" ","MAREA":"下寮","LANE":" ","ALLEY":" ","HOUSE_NO":"１７１號之２","E_COORD97":183944.44,"N_COORD97":2580866.8599999999,"ADDRESS":"下寮１７１號之２","OBJECTID":44652},"geometry":{"x":183944.44000000134,"y":2580866.8599999994}},{"attributes":{"ID":44653,"DIS_CODE":0,"TOWNNAME":"安南區","LI":"東和里","LIN":"7鄰","STREET":"環館北路","SECT":" ","MAREA":" ","LANE":"８４９巷","ALLEY":"６弄","HOUSE_NO":"１３號","E_COORD97":171063,"N_COORD97":2551433.1099999999,"ADDRESS":"環館北路８４９巷６弄１３號","OBJECTID":44653},"geometry":{"x":171063.00000000186,"y":2551433.1099999994}},{"attributes":{"ID":44654,"DIS_CODE":0,"TOWNNAME":"白河區","LI":"永安里","LIN":"17鄰","STREET":"中山路","SECT":" ","MAREA":" ","LANE":" ","ALLEY":" ","HOUSE_NO":"１之２１號","E_COORD97":190004.47,"N_COORD97":2582806.6400000001,"ADDRESS":"中山路１之２１號","OBJECTID":44654},"geometry":{"x":190004.46999999974,"y":2582806.6400000043}},{"attributes":{"ID":44655,"DIS_CODE":0,"TOWNNAME":"後壁區","LI":"福安里","LIN":"15鄰","STREET":" ","SECT":" ","MAREA":"下寮","LANE":" ","ALLEY":" ","HOUSE_NO":"１７１號之３","E_COORD97":183938.79999999999,"N_COORD97":2580879.3399999999,"ADDRESS":"下寮１７１號之３","OBJECTID":44655},"geometry":{"x":183938.79999999981,"y":2580879.3400000017}},{"attributes":{"ID":44656,"DIS_CODE":0,"TOWNNAME":"後壁區","LI":"福安里","LIN":"15鄰","STREET":" ","SECT":" ","MAREA":"下寮","LANE":" ","ALLEY":" ","HOUSE_NO":"１７２號之１","E_COORD97":183955.63,"N_COORD97":2580854.3799999999,"ADDRESS":"下寮１７２號之１","OBJECTID":44656},"geometry":{"x":183955.63000000175,"y":2580854.3800000008}},{"attributes":{"ID":44657,"DIS_CODE":0,"TOWNNAME":"安南區","LI":"東和里","LIN":"7鄰","STREET":"環館北路","SECT":" ","MAREA":" ","LANE":"８４９巷","ALLEY":"６弄","HOUSE_NO":"１５號","E_COORD97":171058.82999999999,"N_COORD97":2551429.4399999999,"ADDRESS":"環館北路８４９巷６弄１５號","OBJECTID":44657},"geometry":{"x":171058.83000000007,"y":2551429.4400000013}},{"attributes":{"ID":44658,"DIS_CODE":0,"TOWNNAME":"安南區","LI":"東和里","LIN":"7鄰","STREET":"環館北路","SECT":" ","MAREA":" ","LANE":"８４９巷","ALLEY":"６弄","HOUSE_NO":"１６號","E_COORD97":171053.34,"N_COORD97":2551451.79,"ADDRESS":"環館北路８４９巷６弄１６號","OBJECTID":44658},"geometry":{"x":171053.33999999985,"y":2551451.7899999991}},{"attributes":{"ID":44659,"DIS_CODE":0,"TOWNNAME":"安南區","LI":"東和里","LIN":"7鄰","STREET":"環館北路","SECT":" ","MAREA":" ","LANE":"８４９巷","ALLEY":"６弄","HOUSE_NO":"１７號","E_COORD97":171054.67000000001,"N_COORD97":2551425.77,"ADDRESS":"環館北路８４９巷６弄１７號","OBJECTID":44659},"geometry":{"x":171054.66999999993,"y":2551425.7699999996}},{"attributes":{"ID":44660,"DIS_CODE":0,"TOWNNAME":"安南區","LI":"東和里","LIN":"7鄰","STREET":"環館北路","SECT":" ","MAREA":" ","LANE":"８４９巷","ALLEY":"６弄","HOUSE_NO":"１８號","E_COORD97":171049.29000000001,"N_COORD97":2551448.2200000002,"ADDRESS":"環館北路８４９巷６弄１８號","OBJECTID":44660},"geometry":{"x":171049.29000000097,"y":2551448.2199999988}},{"attributes":{"ID":44661,"DIS_CODE":0,"TOWNNAME":"安南區","LI":"東和里","LIN":"7鄰","STREET":"環館北路","SECT":" ","MAREA":" ","LANE":"８４９巷","ALLEY":"６弄","HOUSE_NO":"２２號","E_COORD97":171041.20000000001,"N_COORD97":2551441.0899999999,"ADDRESS":"環館北路８４９巷６弄２２號","OBJECTID":44661},"geometry":{"x":171041.20000000019,"y":2551441.0899999999}},{"attributes":{"ID":44662,"DIS_CODE":0,"TOWNNAME":"安南區","LI":"東和里","LIN":"7鄰","STREET":"環館北路","SECT":" ","MAREA":" ","LANE":"８４９巷","ALLEY":"６弄","HOUSE_NO":"２３號","E_COORD97":171038.63,"N_COORD97":2551411.6299999999,"ADDRESS":"環館北路８４９巷６弄２３號","OBJECTID":44662},"geometry":{"x":171038.63000000082,"y":2551411.629999999}},{"attributes":{"ID":44663,"DIS_CODE":0,"TOWNNAME":"歸仁區","LI":"西埔里","LIN":"5鄰","STREET":"保大路","SECT":"二段","MAREA":" ","LANE":"１２２巷","ALLEY":"２３弄","HOUSE_NO":"１０號","E_COORD97":177002.307795,"N_COORD97":2544216.5340900002,"ADDRESS":"保大路二段１２２巷２３弄１０號","OBJECTID":44663},"geometry":{"x":177002.30779500213,"y":2544216.534086002}},{"attributes":{"ID":44664,"DIS_CODE":0,"TOWNNAME":"安南區","LI":"東和里","LIN":"7鄰","STREET":"環館北路","SECT":" ","MAREA":" ","LANE":"８４９巷","ALLEY":"６弄","HOUSE_NO":"２５號","E_COORD97":171034.42999999999,"N_COORD97":2551407.9300000002,"ADDRESS":"環館北路８４９巷６弄２５號","OBJECTID":44664},"geometry":{"x":171034.43000000063,"y":2551407.9299999997}},{"attributes":{"ID":44665,"DIS_CODE":0,"TOWNNAME":"後壁區","LI":"福安里","LIN":"15鄰","STREET":" ","SECT":" ","MAREA":"下寮","LANE":" ","ALLEY":" ","HOUSE_NO":"１７２號之２附１","E_COORD97":183953.88,"N_COORD97":2580843.1600000001,"ADDRESS":"下寮１７２號之２附１","OBJECTID":44665},"geometry":{"x":183953.88000000175,"y":2580843.160000002}},{"attributes":{"ID":44666,"DIS_CODE":0,"TOWNNAME":"後壁區","LI":"福安里","LIN":"15鄰","STREET":" ","SECT":" ","MAREA":"下寮","LANE":" ","ALLEY":" ","HOUSE_NO":"１７２號之２","E_COORD97":183958.16,"N_COORD97":2580819.6899999999,"ADDRESS":"下寮１７２號之２","OBJECTID":44666},"geometry":{"x":183958.16000000015,"y":2580819.6900000013}},{"attributes":{"ID":44667,"DIS_CODE":0,"TOWNNAME":"後壁區","LI":"福安里","LIN":"15鄰","STREET":" ","SECT":" ","MAREA":"下寮","LANE":" ","ALLEY":" ","HOUSE_NO":"１７５號","E_COORD97":183900.38,"N_COORD97":2580815.6400000001,"ADDRESS":"下寮１７５號","OBJECTID":44667},"geometry":{"x":183900.38000000082,"y":2580815.6400000006}},{"attributes":{"ID":44668,"DIS_CODE":0,"TOWNNAME":"安南區","LI":"東和里","LIN":"7鄰","STREET":"環館北路","SECT":" ","MAREA":" ","LANE":"８４９巷","ALLEY":"６弄","HOUSE_NO":"２６號","E_COORD97":171037.07999999999,"N_COORD97":2551437.46,"ADDRESS":"環館北路８４９巷６弄２６號","OBJECTID":44668},"geometry":{"x":171037.08000000194,"y":2551437.4600000028}},{"attributes":{"ID":44669,"DIS_CODE":0,"TOWNNAME":"安南區","LI":"東和里","LIN":"7鄰","STREET":"環館北路","SECT":" ","MAREA":" ","LANE":"８４９巷","ALLEY":"６弄","HOUSE_NO":"２７號","E_COORD97":171030.23000000001,"N_COORD97":2551404.23,"ADDRESS":"環館北路８４９巷６弄２７號","OBJECTID":44669},"geometry":{"x":171030.23000000138,"y":2551404.2300000042}},{"attributes":{"ID":44670,"DIS_CODE":0,"TOWNNAME":"安南區","LI":"東和里","LIN":"7鄰","STREET":"環館北路","SECT":" ","MAREA":" ","LANE":"８４９巷","ALLEY":"６弄","HOUSE_NO":"２８號","E_COORD97":171031.39000000001,"N_COORD97":2551429.4399999999,"ADDRESS":"環館北路８４９巷６弄２８號","OBJECTID":44670},"geometry":{"x":171031.3900000006,"y":2551429.4400000013}},{"attributes":{"ID":44671,"DIS_CODE":0,"TOWNNAME":"後壁區","LI":"福安里","LIN":"15鄰","STREET":" ","SECT":" ","MAREA":"下寮","LANE":" ","ALLEY":" ","HOUSE_NO":"１７２號之３","E_COORD97":183908.97,"N_COORD97":2580866.6800000002,"ADDRESS":"下寮１７２號之３","OBJECTID":44671},"geometry":{"x":183908.9700000016,"y":2580866.6800000016}},{"attributes":{"ID":44672,"DIS_CODE":0,"TOWNNAME":"安南區","LI":"東和里","LIN":"7鄰","STREET":"環館北路","SECT":" ","MAREA":" ","LANE":"８４９巷","ALLEY":"６弄","HOUSE_NO":"２９號","E_COORD97":171026.03,"N_COORD97":2551400.52,"ADDRESS":"環館北路８４９巷６弄２９號","OBJECTID":44672},"geometry":{"x":171026.03000000119,"y":2551400.5199999996}},{"attributes":{"ID":44673,"DIS_CODE":0,"TOWNNAME":"安南區","LI":"東和里","LIN":"7鄰","STREET":"環館北路","SECT":" ","MAREA":" ","LANE":"８４９巷","ALLEY":"６弄","HOUSE_NO":"３０號","E_COORD97":171024.95999999999,"N_COORD97":2551426.77,"ADDRESS":"環館北路８４９巷６弄３０號","OBJECTID":44673},"geometry":{"x":171024.96000000089,"y":2551426.7700000033}},{"attributes":{"ID":44674,"DIS_CODE":0,"TOWNNAME":"後壁區","LI":"福安里","LIN":"15鄰","STREET":" ","SECT":" ","MAREA":"下寮","LANE":" ","ALLEY":" ","HOUSE_NO":"１７２號之４","E_COORD97":183962.04999999999,"N_COORD97":2580806.2799999998,"ADDRESS":"下寮１７２號之４","OBJECTID":44674},"geometry":{"x":183962.04999999981,"y":2580806.2799999993}},{"attributes":{"ID":44675,"DIS_CODE":0,"TOWNNAME":"後壁區","LI":"福安里","LIN":"15鄰","STREET":" ","SECT":" ","MAREA":"下寮","LANE":" ","ALLEY":" ","HOUSE_NO":"１７２號之５","E_COORD97":183960.53,"N_COORD97":2580812.3399999999,"ADDRESS":"下寮１７２號之５","OBJECTID":44675},"geometry":{"x":183960.53000000119,"y":2580812.3400000017}},{"attributes":{"ID":44676,"DIS_CODE":0,"TOWNNAME":"後壁區","LI":"福安里","LIN":"15鄰","STREET":" ","SECT":" ","MAREA":"下寮","LANE":" ","ALLEY":" ","HOUSE_NO":"１７２號之６","E_COORD97":183965.84,"N_COORD97":2580793.0600000001,"ADDRESS":"下寮１７２號之６","OBJECTID":44676},"geometry":{"x":183965.83999999892,"y":2580793.0600000042}},{"attributes":{"ID":44677,"DIS_CODE":0,"TOWNNAME":"後壁區","LI":"福安里","LIN":"15鄰","STREET":" ","SECT":" ","MAREA":"下寮","LANE":" ","ALLEY":" ","HOUSE_NO":"１７２號之７","E_COORD97":183963.38,"N_COORD97":2580802.0600000001,"ADDRESS":"下寮１７２號之７","OBJECTID":44677},"geometry":{"x":183963.37999999989,"y":2580802.0600000005}},{"attributes":{"ID":44678,"DIS_CODE":0,"TOWNNAME":"後壁區","LI":"福安里","LIN":"15鄰","STREET":" ","SECT":" ","MAREA":"下寮","LANE":" ","ALLEY":" ","HOUSE_NO":"１７２號之８","E_COORD97":183965.04000000001,"N_COORD97":2580797.8999999999,"ADDRESS":"下寮１７２號之８","OBJECTID":44678},"geometry":{"x":183965.04000000097,"y":2580797.9000000022}},{"attributes":{"ID":44679,"DIS_CODE":0,"TOWNNAME":"後壁區","LI":"福安里","LIN":"15鄰","STREET":" ","SECT":" ","MAREA":"下寮","LANE":" ","ALLEY":" ","HOUSE_NO":"１７２號","E_COORD97":183917.98999999999,"N_COORD97":2580854.2000000002,"ADDRESS":"下寮１７２號","OBJECTID":44679},"geometry":{"x":183917.99000000115,"y":2580854.1999999993}},{"attributes":{"ID":44680,"DIS_CODE":0,"TOWNNAME":"後壁區","LI":"福安里","LIN":"15鄰","STREET":" ","SECT":" ","MAREA":"下寮","LANE":" ","ALLEY":" ","HOUSE_NO":"１７３號之１","E_COORD97":183922.35000000001,"N_COORD97":2580834.3100000001,"ADDRESS":"下寮１７３號之１","OBJECTID":44680},"geometry":{"x":183922.35000000056,"y":2580834.3100000005}},{"attributes":{"ID":44681,"DIS_CODE":0,"TOWNNAME":"安南區","LI":"東和里","LIN":"7鄰","STREET":"環館北路","SECT":" ","MAREA":" ","LANE":"８４９巷","ALLEY":"６弄","HOUSE_NO":"３１號","E_COORD97":171021.82999999999,"N_COORD97":2551396.8199999998,"ADDRESS":"環館北路８４９巷６弄３１號","OBJECTID":44681},"geometry":{"x":171021.83000000194,"y":2551396.8200000022}},{"attributes":{"ID":44682,"DIS_CODE":0,"TOWNNAME":"後壁區","LI":"福安里","LIN":"15鄰","STREET":" ","SECT":" ","MAREA":"下寮","LANE":" ","ALLEY":" ","HOUSE_NO":"１７３號之２","E_COORD97":183925.29000000001,"N_COORD97":2580842.1000000001,"ADDRESS":"下寮１７３號之２","OBJECTID":44682},"geometry":{"x":183925.29000000004,"y":2580842.0999999996}},{"attributes":{"ID":44683,"DIS_CODE":0,"TOWNNAME":"後壁區","LI":"福安里","LIN":"15鄰","STREET":" ","SECT":" ","MAREA":"下寮","LANE":" ","ALLEY":" ","HOUSE_NO":"１７３號","E_COORD97":183931.23000000001,"N_COORD97":2580822.6000000001,"ADDRESS":"下寮１７３號","OBJECTID":44683},"geometry":{"x":183931.23000000045,"y":2580822.6000000034}},{"attributes":{"ID":44684,"DIS_CODE":0,"TOWNNAME":"安南區","LI":"東和里","LIN":"7鄰","STREET":"環館北路","SECT":" ","MAREA":" ","LANE":"８４９巷","ALLEY":"６弄","HOUSE_NO":"３２號","E_COORD97":171020.88,"N_COORD97":2551423.1800000002,"ADDRESS":"環館北路８４９巷６弄３２號","OBJECTID":44684},"geometry":{"x":171020.87999999989,"y":2551423.1799999997}},{"attributes":{"ID":44685,"DIS_CODE":0,"TOWNNAME":"後壁區","LI":"福安里","LIN":"15鄰","STREET":" ","SECT":" ","MAREA":"下寮","LANE":" ","ALLEY":" ","HOUSE_NO":"１７４號","E_COORD97":183914.39999999999,"N_COORD97":2580819.0499999998,"ADDRESS":"下寮１７４號","OBJECTID":44685},"geometry":{"x":183914.40000000037,"y":2580819.0500000007}},{"attributes":{"ID":44686,"DIS_CODE":0,"TOWNNAME":"後壁區","LI":"福安里","LIN":"15鄰","STREET":" ","SECT":" ","MAREA":"下寮","LANE":" ","ALLEY":" ","HOUSE_NO":"１７５號之１０","E_COORD97":183910.88,"N_COORD97":2580763.3199999998,"ADDRESS":"下寮１７５號之１０","OBJECTID":44686},"geometry":{"x":183910.87999999989,"y":2580763.3200000003}},{"attributes":{"ID":44687,"DIS_CODE":0,"TOWNNAME":"安南區","LI":"海南里","LIN":"17鄰","STREET":"國安街","SECT":" ","MAREA":" ","LANE":" ","ALLEY":" ","HOUSE_NO":"２３５號","E_COORD97":166543.60999999999,"N_COORD97":2546913.6600000001,"ADDRESS":"國安街２３５號","OBJECTID":44687},"geometry":{"x":166543.61000000127,"y":2546913.6600000001}},{"attributes":{"ID":44688,"DIS_CODE":0,"TOWNNAME":"安南區","LI":"海南里","LIN":"17鄰","STREET":"國安街","SECT":" ","MAREA":" ","LANE":" ","ALLEY":" ","HOUSE_NO":"２３７號","E_COORD97":166538.88,"N_COORD97":2546913.8900000001,"ADDRESS":"國安街２３７號","OBJECTID":44688},"geometry":{"x":166538.87999999989,"y":2546913.8900000006}},{"attributes":{"ID":44689,"DIS_CODE":0,"TOWNNAME":"安南區","LI":"東和里","LIN":"7鄰","STREET":"環館北路","SECT":" ","MAREA":" ","LANE":"８４９巷","ALLEY":"６弄","HOUSE_NO":"３３號","E_COORD97":171017.84,"N_COORD97":2551394.79,"ADDRESS":"環館北路８４９巷６弄３３號","OBJECTID":44689},"geometry":{"x":171017.83999999985,"y":2551394.7899999991}},{"attributes":{"ID":44690,"DIS_CODE":0,"TOWNNAME":"後壁區","LI":"新嘉里","LIN":"17鄰","STREET":" ","SECT":" ","MAREA":"白沙屯","LANE":" ","ALLEY":" ","HOUSE_NO":"１７８號之１","E_COORD97":179516.10000000001,"N_COORD97":2585671.5699999998,"ADDRESS":"白沙屯１７８號之１","OBJECTID":44690},"geometry":{"x":179516.10000000056,"y":2585671.570000004}},{"attributes":{"ID":44691,"DIS_CODE":0,"TOWNNAME":"後壁區","LI":"新嘉里","LIN":"17鄰","STREET":" ","SECT":" ","MAREA":"白沙屯","LANE":" ","ALLEY":" ","HOUSE_NO":"１７８號","E_COORD97":179512.79999999999,"N_COORD97":2585656.25,"ADDRESS":"白沙屯１７８號","OBJECTID":44691},"geometry":{"x":179512.79999999888,"y":2585656.2499999981}},{"attributes":{"ID":44692,"DIS_CODE":0,"TOWNNAME":"後壁區","LI":"新嘉里","LIN":"17鄰","STREET":" ","SECT":" ","MAREA":"白沙屯","LANE":" ","ALLEY":" ","HOUSE_NO":"１８０號","E_COORD97":179549.10999999999,"N_COORD97":2585665.3799999999,"ADDRESS":"白沙屯１８０號","OBJECTID":44692},"geometry":{"x":179549.11000000127,"y":2585665.3800000008}},{"attributes":{"ID":44693,"DIS_CODE":0,"TOWNNAME":"後壁區","LI":"新嘉里","LIN":"17鄰","STREET":" ","SECT":" ","MAREA":"白沙屯","LANE":" ","ALLEY":" ","HOUSE_NO":"１８３號","E_COORD97":179575.23000000001,"N_COORD97":2585687.0099999998,"ADDRESS":"白沙屯１８３號","OBJECTID":44693},"geometry":{"x":179575.23000000138,"y":2585687.0099999998}},{"attributes":{"ID":44694,"DIS_CODE":0,"TOWNNAME":"安南區","LI":"東和里","LIN":"7鄰","STREET":"環館北路","SECT":" ","MAREA":" ","LANE":"８４９巷","ALLEY":"６弄","HOUSE_NO":"３６號","E_COORD97":171016.79999999999,"N_COORD97":2551419.5899999999,"ADDRESS":"環館北路８４９巷６弄３６號","OBJECTID":44694},"geometry":{"x":171016.80000000075,"y":2551419.5900000017}},{"attributes":{"ID":44695,"DIS_CODE":0,"TOWNNAME":"安南區","LI":"東和里","LIN":"7鄰","STREET":"環館北路","SECT":" ","MAREA":" ","LANE":"８４９巷","ALLEY":"６弄","HOUSE_NO":"３８號","E_COORD97":171012.07999999999,"N_COORD97":2551416.2799999998,"ADDRESS":"環館北路８４９巷６弄３８號","OBJECTID":44695},"geometry":{"x":171012.08000000101,"y":2551416.2800000031}},{"attributes":{"ID":44696,"DIS_CODE":0,"TOWNNAME":"安南區","LI":"東和里","LIN":"7鄰","STREET":"環館北路","SECT":" ","MAREA":" ","LANE":"８４９巷","ALLEY":"６弄","HOUSE_NO":"４０號","E_COORD97":171008.07999999999,"N_COORD97":2551411.8900000001,"ADDRESS":"環館北路８４９巷６弄４０號","OBJECTID":44696},"geometry":{"x":171008.07999999914,"y":2551411.8900000006}},{"attributes":{"ID":44697,"DIS_CODE":0,"TOWNNAME":"安南區","LI":"東和里","LIN":"7鄰","STREET":"環館北路","SECT":" ","MAREA":" ","LANE":"８４９巷","ALLEY":"６弄","HOUSE_NO":"４２號","E_COORD97":171007.14999999999,"N_COORD97":2551406.3300000001,"ADDRESS":"環館北路８４９巷６弄４２號","OBJECTID":44697},"geometry":{"x":171007.1500000013,"y":2551406.3300000038}},{"attributes":{"ID":44698,"DIS_CODE":0,"TOWNNAME":"安南區","LI":"原佃里","LIN":"7鄰","STREET":"安中路","SECT":"二段","MAREA":" ","LANE":"２巷","ALLEY":"１２３弄","HOUSE_NO":"１５號","E_COORD97":167294.54999999999,"N_COORD97":2549935.6600000001,"ADDRESS":"安中路二段２巷１２３弄１５號","OBJECTID":44698},"geometry":{"x":167294.55000000075,"y":2549935.6600000001}},{"attributes":{"ID":44699,"DIS_CODE":0,"TOWNNAME":"安南區","LI":"淵西里","LIN":"7鄰","STREET":"安中路","SECT":"四段","MAREA":" ","LANE":"３２０巷","ALLEY":"１２９弄","HOUSE_NO":"８號","E_COORD97":164742.60999999999,"N_COORD97":2550420.3700000001,"ADDRESS":"安中路四段３２０巷１２９弄８號","OBJECTID":44699},"geometry":{"x":164742.61000000034,"y":2550420.3700000048}},{"attributes":{"ID":44700,"DIS_CODE":0,"TOWNNAME":"南區","LI":"大恩里","LIN":"23鄰","STREET":"大同路","SECT":"二段","MAREA":" ","LANE":"７５０巷","ALLEY":"２８弄","HOUSE_NO":"１號","E_COORD97":169479.13,"N_COORD97":2540734.5299999998,"ADDRESS":"大同路二段７５０巷２８弄１號","OBJECTID":44700},"geometry":{"x":169479.13000000082,"y":2540734.5299999975}},{"attributes":{"ID":44701,"DIS_CODE":0,"TOWNNAME":"安南區","LI":"東和里","LIN":"7鄰","STREET":"環館三路","SECT":" ","MAREA":" ","LANE":"１３巷","ALLEY":"３０弄","HOUSE_NO":"１號","E_COORD97":171452.28,"N_COORD97":2551609.5099999998,"ADDRESS":"環館三路１３巷３０弄１號","OBJECTID":44701},"geometry":{"x":171452.28000000026,"y":2551609.5100000016}},{"attributes":{"ID":44702,"DIS_CODE":0,"TOWNNAME":"安南區","LI":"東和里","LIN":"7鄰","STREET":"環館三路","SECT":" ","MAREA":" ","LANE":"１３巷","ALLEY":"３０弄","HOUSE_NO":"３號","E_COORD97":171452.51999999999,"N_COORD97":2551619.2400000002,"ADDRESS":"環館三路１３巷３０弄３號","OBJECTID":44702},"geometry":{"x":171452.52000000048,"y":2551619.2400000002}},{"attributes":{"ID":44703,"DIS_CODE":0,"TOWNNAME":"新營區","LI":"土庫里","LIN":"17鄰","STREET":" ","SECT":" ","MAREA":"卯舍","LANE":" ","ALLEY":" ","HOUSE_NO":"６６號","E_COORD97":181376.26000000001,"N_COORD97":2580042.5,"ADDRESS":"卯舍６６號","OBJECTID":44703},"geometry":{"x":181376.26000000164,"y":2580042.5}},{"attributes":{"ID":44704,"DIS_CODE":0,"TOWNNAME":"仁德區","LI":"仁德里","LIN":"17鄰","STREET":"文華路","SECT":"三段","MAREA":" ","LANE":" ","ALLEY":" ","HOUSE_NO":"３１５號","E_COORD97":172226.07000000001,"N_COORD97":2540836.5800000001,"ADDRESS":"文華路三段３１５號","OBJECTID":44704},"geometry":{"x":172226.07000000123,"y":2540836.5799999982}},{"attributes":{"ID":44705,"DIS_CODE":0,"TOWNNAME":"仁德區","LI":"保安里","LIN":"17鄰","STREET":"二仁路","SECT":"一段","MAREA":" ","LANE":" ","ALLEY":" ","HOUSE_NO":"４６號","E_COORD97":170603.82999999999,"N_COORD97":2535471.5299999998,"ADDRESS":"二仁路一段４６號","OBJECTID":44705},"geometry":{"x":170603.83000000101,"y":2535471.5299999993}},{"attributes":{"ID":44706,"DIS_CODE":0,"TOWNNAME":"仁德區","LI":"保安里","LIN":"17鄰","STREET":"二仁路","SECT":"一段","MAREA":" ","LANE":" ","ALLEY":" ","HOUSE_NO":"４２號","E_COORD97":170604.04000000001,"N_COORD97":2535463.0299999998,"ADDRESS":"二仁路一段４２號","OBJECTID":44706},"geometry":{"x":170604.04000000097,"y":2535463.0300000012}},{"attributes":{"ID":44707,"DIS_CODE":0,"TOWNNAME":"仁德區","LI":"後壁里","LIN":"17鄰","STREET":"中正路","SECT":"二段","MAREA":" ","LANE":" ","ALLEY":" ","HOUSE_NO":"２３８號","E_COORD97":173240.76999999999,"N_COORD97":2538841.77,"ADDRESS":"中正路二段２３８號","OBJECTID":44707},"geometry":{"x":173240.77000000048,"y":2538841.7700000014}},{"attributes":{"ID":44708,"DIS_CODE":0,"TOWNNAME":"後壁區","LI":"新嘉里","LIN":"17鄰","STREET":" ","SECT":" ","MAREA":"白沙屯","LANE":" ","ALLEY":" ","HOUSE_NO":"１８４號","E_COORD97":179563.04000000001,"N_COORD97":2585691.8300000001,"ADDRESS":"白沙屯１８４號","OBJECTID":44708},"geometry":{"x":179563.04000000097,"y":2585691.8300000001}},{"attributes":{"ID":44709,"DIS_CODE":0,"TOWNNAME":"後壁區","LI":"新嘉里","LIN":"17鄰","STREET":" ","SECT":" ","MAREA":"白沙屯","LANE":" ","ALLEY":" ","HOUSE_NO":"１８５號之１","E_COORD97":179542.12,"N_COORD97":2585687.0499999998,"ADDRESS":"白沙屯１８５號之１","OBJECTID":44709},"geometry":{"x":179542.12000000104,"y":2585687.0500000026}},{"attributes":{"ID":44710,"DIS_CODE":0,"TOWNNAME":"後壁區","LI":"福安里","LIN":"15鄰","STREET":" ","SECT":" ","MAREA":"下寮","LANE":" ","ALLEY":" ","HOUSE_NO":"１７５之１１號","E_COORD97":183915.25,"N_COORD97":2580764.8199999998,"ADDRESS":"下寮１７５之１１號","OBJECTID":44710},"geometry":{"x":183915.25,"y":2580764.8200000022}},{"attributes":{"ID":44711,"DIS_CODE":0,"TOWNNAME":"後壁區","LI":"福安里","LIN":"15鄰","STREET":" ","SECT":" ","MAREA":"下寮","LANE":" ","ALLEY":" ","HOUSE_NO":"１７５號之１２","E_COORD97":183919.45999999999,"N_COORD97":2580765.8799999999,"ADDRESS":"下寮１７５號之１２","OBJECTID":44711},"geometry":{"x":183919.46000000183,"y":2580765.8800000008}},{"attributes":{"ID":44712,"DIS_CODE":0,"TOWNNAME":"後壁區","LI":"福安里","LIN":"15鄰","STREET":" ","SECT":" ","MAREA":"下寮","LANE":" ","ALLEY":" ","HOUSE_NO":"１７５號之１３","E_COORD97":183923.63,"N_COORD97":2580767.4100000001,"ADDRESS":"下寮１７５號之１３","OBJECTID":44712},"geometry":{"x":183923.63000000082,"y":2580767.410000002}},{"attributes":{"ID":44713,"DIS_CODE":0,"TOWNNAME":"後壁區","LI":"福安里","LIN":"15鄰","STREET":" ","SECT":" ","MAREA":"下寮","LANE":" ","ALLEY":" ","HOUSE_NO":"１７５號之１４","E_COORD97":183927.94,"N_COORD97":2580768.6899999999,"ADDRESS":"下寮１７５號之１４","OBJECTID":44713},"geometry":{"x":183927.94000000041,"y":2580768.6900000013}},{"attributes":{"ID":44714,"DIS_CODE":0,"TOWNNAME":"後壁區","LI":"福安里","LIN":"15鄰","STREET":" ","SECT":" ","MAREA":"下寮","LANE":" ","ALLEY":" ","HOUSE_NO":"１７５號之１","E_COORD97":183896.92999999999,"N_COORD97":2580805.1099999999,"ADDRESS":"下寮１７５號之１","OBJECTID":44714},"geometry":{"x":183896.9299999997,"y":2580805.1100000031}},{"attributes":{"ID":44715,"DIS_CODE":0,"TOWNNAME":"安南區","LI":"四草里","LIN":"1鄰","STREET":"大眾六街","SECT":" ","MAREA":" ","LANE":"１２６巷","ALLEY":"２弄","HOUSE_NO":"１號","E_COORD97":160466.064893,"N_COORD97":2546635.7140500001,"ADDRESS":"大眾六街１２６巷２弄１號","OBJECTID":44715},"geometry":{"x":160466.06489300076,"y":2546635.7140490003}},{"attributes":{"ID":44716,"DIS_CODE":0,"TOWNNAME":"安南區","LI":"東和里","LIN":"7鄰","STREET":"環館三路","SECT":" ","MAREA":" ","LANE":"１３巷","ALLEY":"３０弄","HOUSE_NO":"２１號","E_COORD97":171401.70000000001,"N_COORD97":2551608.6699999999,"ADDRESS":"環館三路１３巷３０弄２１號","OBJECTID":44716},"geometry":{"x":171401.70000000019,"y":2551608.6700000018}},{"attributes":{"ID":44717,"DIS_CODE":0,"TOWNNAME":"安南區","LI":"東和里","LIN":"7鄰","STREET":"環館三路","SECT":" ","MAREA":" ","LANE":"１３巷","ALLEY":"３０弄","HOUSE_NO":"２３號","E_COORD97":171395.51999999999,"N_COORD97":2551629.8500000001,"ADDRESS":"環館三路１３巷３０弄２３號","OBJECTID":44717},"geometry":{"x":171395.51999999955,"y":2551629.8500000015}},{"attributes":{"ID":44718,"DIS_CODE":0,"TOWNNAME":"安南區","LI":"東和里","LIN":"7鄰","STREET":"環館三路","SECT":" ","MAREA":" ","LANE":"１３巷","ALLEY":"３０弄","HOUSE_NO":"２５號","E_COORD97":171402.63,"N_COORD97":2551631.0600000001,"ADDRESS":"環館三路１３巷３０弄２５號","OBJECTID":44718},"geometry":{"x":171402.63000000175,"y":2551631.0600000005}},{"attributes":{"ID":44719,"DIS_CODE":0,"TOWNNAME":"安南區","LI":"東和里","LIN":"7鄰","STREET":"環館三路","SECT":" ","MAREA":" ","LANE":"１３巷","ALLEY":"３０弄","HOUSE_NO":"２７號","E_COORD97":171407.95000000001,"N_COORD97":2551631.9700000002,"ADDRESS":"環館三路１３巷３０弄２７號","OBJECTID":44719},"geometry":{"x":171407.95000000112,"y":2551631.9700000007}},{"attributes":{"ID":44720,"DIS_CODE":0,"TOWNNAME":"安南區","LI":"東和里","LIN":"7鄰","STREET":"環館三路","SECT":" ","MAREA":" ","LANE":"１３巷","ALLEY":"３０弄","HOUSE_NO":"２９號","E_COORD97":171412.88,"N_COORD97":2551632.7999999998,"ADDRESS":"環館三路１３巷３０弄２９號","OBJECTID":44720},"geometry":{"x":171412.88000000175,"y":2551632.8000000007}},{"attributes":{"ID":44721,"DIS_CODE":0,"TOWNNAME":"後壁區","LI":"福安里","LIN":"15鄰","STREET":" ","SECT":" ","MAREA":"下寮","LANE":" ","ALLEY":" ","HOUSE_NO":"１７５號之２","E_COORD97":183898.41,"N_COORD97":2580800.6499999999,"ADDRESS":"下寮１７５號之２","OBJECTID":44721},"geometry":{"x":183898.41000000108,"y":2580800.6500000022}},{"attributes":{"ID":44722,"DIS_CODE":0,"TOWNNAME":"安南區","LI":"東和里","LIN":"7鄰","STREET":"環館三路","SECT":" ","MAREA":" ","LANE":"１３巷","ALLEY":"３０弄","HOUSE_NO":"３１號","E_COORD97":171417.81,"N_COORD97":2551633.6400000001,"ADDRESS":"環館三路１３巷３０弄３１號","OBJECTID":44722},"geometry":{"x":171417.80999999959,"y":2551633.6400000006}},{"attributes":{"ID":44723,"DIS_CODE":0,"TOWNNAME":"後壁區","LI":"福安里","LIN":"15鄰","STREET":" ","SECT":" ","MAREA":"下寮","LANE":" ","ALLEY":" ","HOUSE_NO":"１７５號之３","E_COORD97":183899.54999999999,"N_COORD97":2580796.1099999999,"ADDRESS":"下寮１７５號之３","OBJECTID":44723},"geometry":{"x":183899.54999999981,"y":2580796.1100000013}},{"attributes":{"ID":44724,"DIS_CODE":0,"TOWNNAME":"安南區","LI":"東和里","LIN":"7鄰","STREET":"環館三路","SECT":" ","MAREA":" ","LANE":"１３巷","ALLEY":"３０弄","HOUSE_NO":"３９號","E_COORD97":171440.26000000001,"N_COORD97":2551639.23,"ADDRESS":"環館三路１３巷３０弄３９號","OBJECTID":44724},"geometry":{"x":171440.25999999978,"y":2551639.2300000023}},{"attributes":{"ID":44725,"DIS_CODE":0,"TOWNNAME":"安南區","LI":"東和里","LIN":"7鄰","STREET":"環館三路","SECT":" ","MAREA":" ","LANE":"１３巷","ALLEY":"３０弄","HOUSE_NO":"３３號","E_COORD97":171423.63693800001,"N_COORD97":2551636.3987099999,"ADDRESS":"環館三路１３巷３０弄３３號","OBJECTID":44725},"geometry":{"x":171423.63693800103,"y":2551636.398706004}},{"attributes":{"ID":44726,"DIS_CODE":0,"TOWNNAME":"安南區","LI":"東和里","LIN":"7鄰","STREET":"環館三路","SECT":" ","MAREA":" ","LANE":"１３巷","ALLEY":"３０弄","HOUSE_NO":"１３號","E_COORD97":171422.365915,"N_COORD97":2551614.59705,"ADDRESS":"環館三路１３巷３０弄１３號","OBJECTID":44726},"geometry":{"x":171422.36591500044,"y":2551614.5970510002}},{"attributes":{"ID":44727,"DIS_CODE":0,"TOWNNAME":"安南區","LI":"東和里","LIN":"7鄰","STREET":"環館三路","SECT":" ","MAREA":" ","LANE":"１３巷","ALLEY":"３０弄","HOUSE_NO":"５號","E_COORD97":171444.60882600001,"N_COORD97":2551617.3487200001,"ADDRESS":"環館三路１３巷３０弄５號","OBJECTID":44727},"geometry":{"x":171444.60882600024,"y":2551617.3487170022}},{"attributes":{"ID":44728,"DIS_CODE":0,"TOWNNAME":"安南區","LI":"東和里","LIN":"7鄰","STREET":"環館三路","SECT":" ","MAREA":" ","LANE":"１３巷","ALLEY":"３０弄","HOUSE_NO":"７號","E_COORD97":171439.94840600001,"N_COORD97":2551616.7137199999,"ADDRESS":"環館三路１３巷３０弄７號","OBJECTID":44728},"geometry":{"x":171439.94840600155,"y":2551616.7137170024}},{"attributes":{"ID":44729,"DIS_CODE":0,"TOWNNAME":"安南區","LI":"東和里","LIN":"7鄰","STREET":"環館三路","SECT":" ","MAREA":" ","LANE":"１３巷","ALLEY":"３０弄","HOUSE_NO":"１１號","E_COORD97":171427.02633399999,"N_COORD97":2551615.4437199999,"ADDRESS":"環館三路１３巷３０弄１１號","OBJECTID":44729},"geometry":{"x":171427.02633399982,"y":2551615.4437180012}},{"attributes":{"ID":44730,"DIS_CODE":0,"TOWNNAME":"安南區","LI":"東和里","LIN":"7鄰","STREET":"環館三路","SECT":" ","MAREA":" ","LANE":"１３巷","ALLEY":"３０弄","HOUSE_NO":"１９號","E_COORD97":171407.53730699999,"N_COORD97":2551610.7870499999,"ADDRESS":"環館三路１３巷３０弄１９號","OBJECTID":44730},"geometry":{"x":171407.53730700072,"y":2551610.787053002}},{"attributes":{"ID":44731,"DIS_CODE":0,"TOWNNAME":"安南區","LI":"東和里","LIN":"7鄰","STREET":"環館三路","SECT":" ","MAREA":" ","LANE":"１３巷","ALLEY":"３０弄","HOUSE_NO":"１７號","E_COORD97":171412.62140100001,"N_COORD97":2551612.4803900002,"ADDRESS":"環館三路１３巷３０弄１７號","OBJECTID":44731},"geometry":{"x":171412.62140100077,"y":2551612.4803860001}},{"attributes":{"ID":44732,"DIS_CODE":0,"TOWNNAME":"安南區","LI":"東和里","LIN":"7鄰","STREET":"環館三路","SECT":" ","MAREA":" ","LANE":"１３巷","ALLEY":"３０弄","HOUSE_NO":"１５號","E_COORD97":171417.91733200001,"N_COORD97":2551614.1737199998,"ADDRESS":"環館三路１３巷３０弄１５號","OBJECTID":44732},"geometry":{"x":171417.91733200196,"y":2551614.1737180017}},{"attributes":{"ID":44733,"DIS_CODE":0,"TOWNNAME":"安南區","LI":"東和里","LIN":"7鄰","STREET":"環館三路","SECT":" ","MAREA":" ","LANE":"１３巷","ALLEY":"３０弄","HOUSE_NO":"３７號","E_COORD97":171435.71166100001,"N_COORD97":2551639.1503699999,"ADDRESS":"環館三路１３巷３０弄３７號","OBJECTID":44733},"geometry":{"x":171435.71166100074,"y":2551639.1503720041}},{"attributes":{"ID":44734,"DIS_CODE":0,"TOWNNAME":"安南區","LI":"東和里","LIN":"7鄰","STREET":"環館三路","SECT":" ","MAREA":" ","LANE":"１３巷","ALLEY":"３０弄","HOUSE_NO":"４１號","E_COORD97":171449.45000000001,"N_COORD97":2551637.25,"ADDRESS":"環館三路１３巷３０弄４１號","OBJECTID":44734},"geometry":{"x":171449.45000000019,"y":2551637.2500000037}},{"attributes":{"ID":44735,"DIS_CODE":0,"TOWNNAME":"後壁區","LI":"福安里","LIN":"15鄰","STREET":" ","SECT":" ","MAREA":"下寮","LANE":" ","ALLEY":" ","HOUSE_NO":"１７５號之４","E_COORD97":183900.73000000001,"N_COORD97":2580790.8799999999,"ADDRESS":"下寮１７５號之４","OBJECTID":44735},"geometry":{"x":183900.73000000045,"y":2580790.8800000008}},{"attributes":{"ID":44736,"DIS_CODE":0,"TOWNNAME":"仁德區","LI":"太子里","LIN":"17鄰","STREET":"長興四街","SECT":" ","MAREA":" ","LANE":" ","ALLEY":" ","HOUSE_NO":"４９號","E_COORD97":173995.44,"N_COORD97":2543589,"ADDRESS":"長興四街４９號","OBJECTID":44736},"geometry":{"x":173995.44000000134,"y":2543589}},{"attributes":{"ID":44737,"DIS_CODE":0,"TOWNNAME":"仁德區","LI":"成功里","LIN":"17鄰","STREET":"全福路","SECT":" ","MAREA":" ","LANE":" ","ALLEY":" ","HOUSE_NO":"９４號","E_COORD97":171072.39999999999,"N_COORD97":2539294,"ADDRESS":"全福路９４號","OBJECTID":44737},"geometry":{"x":171072.40000000224,"y":2539294}},{"attributes":{"ID":44738,"DIS_CODE":0,"TOWNNAME":"仁德區","LI":"後壁里","LIN":"17鄰","STREET":"中正路","SECT":"二段","MAREA":" ","LANE":" ","ALLEY":" ","HOUSE_NO":"２２６號","E_COORD97":173240.29000000001,"N_COORD97":2538815.27,"ADDRESS":"中正路二段２２６號","OBJECTID":44738},"geometry":{"x":173240.29000000004,"y":2538815.2700000014}},{"attributes":{"ID":44739,"DIS_CODE":0,"TOWNNAME":"新營區","LI":"興業里","LIN":" ","STREET":"中山路","SECT":" ","MAREA":" ","LANE":" ","ALLEY":" ","HOUSE_NO":"９３之１號","E_COORD97":180462.37,"N_COORD97":2578307.0299999998,"ADDRESS":"中山路９３之１號","OBJECTID":44739},"geometry":{"x":180462.37000000104,"y":2578307.0300000031}},{"attributes":{"ID":44740,"DIS_CODE":0,"TOWNNAME":"新營區","LI":"民生里","LIN":" ","STREET":"民生路","SECT":" ","MAREA":" ","LANE":" ","ALLEY":" ","HOUSE_NO":"６９之８號","E_COORD97":179187.70999999999,"N_COORD97":2578479.1800000002,"ADDRESS":"民生路６９之８號","OBJECTID":44740},"geometry":{"x":179187.70999999996,"y":2578479.1800000034}},{"attributes":{"ID":44741,"DIS_CODE":0,"TOWNNAME":"新營區","LI":"三仙里","LIN":" ","STREET":"復興路","SECT":" ","MAREA":" ","LANE":" ","ALLEY":" ","HOUSE_NO":"１００號","E_COORD97":179507.64999999999,"N_COORD97":2578053.4500000002,"ADDRESS":"復興路１００號","OBJECTID":44741},"geometry":{"x":179507.64999999944,"y":2578053.4500000011}},{"attributes":{"ID":44742,"DIS_CODE":0,"TOWNNAME":"後壁區","LI":"福安里","LIN":"15鄰","STREET":" ","SECT":" ","MAREA":"下寮","LANE":" ","ALLEY":" ","HOUSE_NO":"１７５號之５","E_COORD97":183902.19,"N_COORD97":2580787.2000000002,"ADDRESS":"下寮１７５號之５","OBJECTID":44742},"geometry":{"x":183902.19000000134,"y":2580787.1999999974}},{"attributes":{"ID":44743,"DIS_CODE":0,"TOWNNAME":"安南區","LI":"東和里","LIN":"7鄰","STREET":"環館三路","SECT":" ","MAREA":" ","LANE":"１３巷","ALLEY":"３０弄","HOUSE_NO":"４３號","E_COORD97":171445.91,"N_COORD97":2551643.75,"ADDRESS":"環館三路１３巷３０弄４３號","OBJECTID":44743},"geometry":{"x":171445.91000000108,"y":2551643.75}},{"attributes":{"ID":44744,"DIS_CODE":0,"TOWNNAME":"安南區","LI":"東和里","LIN":"7鄰","STREET":"環館三路","SECT":" ","MAREA":" ","LANE":"１３巷","ALLEY":"３０弄","HOUSE_NO":"４９號","E_COORD97":171436.47,"N_COORD97":2551660.4199999999,"ADDRESS":"環館三路１３巷３０弄４９號","OBJECTID":44744},"geometry":{"x":171436.47000000067,"y":2551660.4200000018}},{"attributes":{"ID":44745,"DIS_CODE":0,"TOWNNAME":"安南區","LI":"東和里","LIN":"7鄰","STREET":"環館三路","SECT":" ","MAREA":" ","LANE":"１３巷","ALLEY":"３０弄","HOUSE_NO":"５１號","E_COORD97":171431.60000000001,"N_COORD97":2551659.6000000001,"ADDRESS":"環館三路１３巷３０弄５１號","OBJECTID":44745},"geometry":{"x":171431.60000000056,"y":2551659.6000000015}},{"attributes":{"ID":44746,"DIS_CODE":0,"TOWNNAME":"安南區","LI":"東和里","LIN":"7鄰","STREET":"環館三路","SECT":" ","MAREA":" ","LANE":"１３巷","ALLEY":"３０弄","HOUSE_NO":"５３號","E_COORD97":171426.72,"N_COORD97":2551658.77,"ADDRESS":"環館三路１３巷３０弄５３號","OBJECTID":44746},"geometry":{"x":171426.71999999974,"y":2551658.7700000014}},{"attributes":{"ID":44747,"DIS_CODE":0,"TOWNNAME":"安南區","LI":"東和里","LIN":"7鄰","STREET":"環館三路","SECT":" ","MAREA":" ","LANE":"１３巷","ALLEY":"３０弄","HOUSE_NO":"５５號","E_COORD97":171422.54000000001,"N_COORD97":2551656.6800000002,"ADDRESS":"環館三路１３巷３０弄５５號","OBJECTID":44747},"geometry":{"x":171422.54000000097,"y":2551656.6799999997}},{"attributes":{"ID":44748,"DIS_CODE":0,"TOWNNAME":"安南區","LI":"東和里","LIN":"7鄰","STREET":"環館三路","SECT":" ","MAREA":" ","LANE":"１３巷","ALLEY":"３０弄","HOUSE_NO":"５９號","E_COORD97":171413.04999999999,"N_COORD97":2551656.4399999999,"ADDRESS":"環館三路１３巷３０弄５９號","OBJECTID":44748},"geometry":{"x":171413.04999999981,"y":2551656.4400000013}},{"attributes":{"ID":44749,"DIS_CODE":0,"TOWNNAME":"安南區","LI":"東和里","LIN":"7鄰","STREET":"環館三路","SECT":" ","MAREA":" ","LANE":"１３巷","ALLEY":"３０弄","HOUSE_NO":"６１號","E_COORD97":171408.09,"N_COORD97":2551655.6000000001,"ADDRESS":"環館三路１３巷３０弄６１號","OBJECTID":44749},"geometry":{"x":171408.09000000171,"y":2551655.6000000015}},{"attributes":{"ID":44750,"DIS_CODE":0,"TOWNNAME":"安南區","LI":"東和里","LIN":"7鄰","STREET":"環館三路","SECT":" ","MAREA":" ","LANE":"１３巷","ALLEY":"３０弄","HOUSE_NO":"６３號","E_COORD97":171404.07999999999,"N_COORD97":2551653.54,"ADDRESS":"環館三路１３巷３０弄６３號","OBJECTID":44750},"geometry":{"x":171404.08000000007,"y":2551653.5399999991}},{"attributes":{"ID":44751,"DIS_CODE":0,"TOWNNAME":"安南區","LI":"東和里","LIN":"7鄰","STREET":"環館三路","SECT":" ","MAREA":" ","LANE":"１３巷","ALLEY":"３０弄","HOUSE_NO":"６５號","E_COORD97":171399.5,"N_COORD97":2551654.1400000001,"ADDRESS":"環館三路１３巷３０弄６５號","OBJECTID":44751},"geometry":{"x":171399.5,"y":2551654.1400000006}},{"attributes":{"ID":44752,"DIS_CODE":0,"TOWNNAME":"安南區","LI":"東和里","LIN":"7鄰","STREET":"環館三路","SECT":" ","MAREA":" ","LANE":"１３巷","ALLEY":"３０弄","HOUSE_NO":"６７號","E_COORD97":171394.67000000001,"N_COORD97":2551653.3199999998,"ADDRESS":"環館三路１３巷３０弄６７號","OBJECTID":44752},"geometry":{"x":171394.67000000086,"y":2551653.3200000003}},{"attributes":{"ID":44753,"DIS_CODE":0,"TOWNNAME":"安南區","LI":"東和里","LIN":"7鄰","STREET":"環館三路","SECT":" ","MAREA":" ","LANE":"１３巷","ALLEY":"３０弄","HOUSE_NO":"６９號","E_COORD97":171390.53,"N_COORD97":2551651.2400000002,"ADDRESS":"環館三路１３巷３０弄６９號","OBJECTID":44753},"geometry":{"x":171390.53000000119,"y":2551651.2400000039}},{"attributes":{"ID":44754,"DIS_CODE":0,"TOWNNAME":"後壁區","LI":"福安里","LIN":"15鄰","STREET":" ","SECT":" ","MAREA":"下寮","LANE":" ","ALLEY":" ","HOUSE_NO":"１７５號之６","E_COORD97":183903.59,"N_COORD97":2580781.8100000001,"ADDRESS":"下寮１７５號之６","OBJECTID":44754},"geometry":{"x":183903.59000000078,"y":2580781.8100000024}},{"attributes":{"ID":44755,"DIS_CODE":0,"TOWNNAME":"後壁區","LI":"福安里","LIN":"15鄰","STREET":" ","SECT":" ","MAREA":"下寮","LANE":" ","ALLEY":" ","HOUSE_NO":"１７５號之７","E_COORD97":183904.64000000001,"N_COORD97":2580777.3399999999,"ADDRESS":"下寮１７５號之７","OBJECTID":44755},"geometry":{"x":183904.6400000006,"y":2580777.3400000017}},{"attributes":{"ID":44756,"DIS_CODE":0,"TOWNNAME":"後壁區","LI":"福安里","LIN":"15鄰","STREET":" ","SECT":" ","MAREA":"下寮","LANE":" ","ALLEY":" ","HOUSE_NO":"１７５號之８","E_COORD97":183905.98999999999,"N_COORD97":2580772.3799999999,"ADDRESS":"下寮１７５號之８","OBJECTID":44756},"geometry":{"x":183905.99000000209,"y":2580772.3800000027}},{"attributes":{"ID":44757,"DIS_CODE":0,"TOWNNAME":"後壁區","LI":"福安里","LIN":"15鄰","STREET":" ","SECT":" ","MAREA":"下寮","LANE":" ","ALLEY":" ","HOUSE_NO":"１７５號之９","E_COORD97":183906.5,"N_COORD97":2580762.02,"ADDRESS":"下寮１７５號之９","OBJECTID":44757},"geometry":{"x":183906.50000000093,"y":2580762.0200000033}},{"attributes":{"ID":44758,"DIS_CODE":0,"TOWNNAME":"安南區","LI":"城西里","LIN":"7鄰","STREET":"城西街","SECT":"三段","MAREA":" ","LANE":"５０１巷","ALLEY":"２４８弄","HOUSE_NO":"６６之３號","E_COORD97":157063.37,"N_COORD97":2550004.3399999999,"ADDRESS":"城西街三段５０１巷２４８弄６６之３號","OBJECTID":44758},"geometry":{"x":157063.37000000197,"y":2550004.3399999999}},{"attributes":{"ID":44759,"DIS_CODE":0,"TOWNNAME":"後壁區","LI":"福安里","LIN":"15鄰","STREET":" ","SECT":" ","MAREA":"下寮","LANE":" ","ALLEY":" ","HOUSE_NO":"１７６號之２","E_COORD97":183866,"N_COORD97":2580747.3799999999,"ADDRESS":"下寮１７６號之２","OBJECTID":44759},"geometry":{"x":183866,"y":2580747.379999999}},{"attributes":{"ID":44760,"DIS_CODE":0,"TOWNNAME":"後壁區","LI":"福安里","LIN":"15鄰","STREET":" ","SECT":" ","MAREA":"下寮","LANE":" ","ALLEY":" ","HOUSE_NO":"１７６號之３","E_COORD97":183876.47,"N_COORD97":2580773.96,"ADDRESS":"下寮１７６號之３","OBJECTID":44760},"geometry":{"x":183876.46999999974,"y":2580773.9600000046}},{"attributes":{"ID":44761,"DIS_CODE":0,"TOWNNAME":"後壁區","LI":"福安里","LIN":"15鄰","STREET":" ","SECT":" ","MAREA":"下寮","LANE":" ","ALLEY":" ","HOUSE_NO":"１７６號","E_COORD97":183851.38,"N_COORD97":2580783.1899999999,"ADDRESS":"下寮１７６號","OBJECTID":44761},"geometry":{"x":183851.37999999989,"y":2580783.1899999995}},{"attributes":{"ID":44762,"DIS_CODE":0,"TOWNNAME":"安南區","LI":"城西里","LIN":"7鄰","STREET":"城西街","SECT":"三段","MAREA":" ","LANE":"５０１巷","ALLEY":"２４８弄","HOUSE_NO":"６６號","E_COORD97":157070.42000000001,"N_COORD97":2549978.9500000002,"ADDRESS":"城西街三段５０１巷２４８弄６６號","OBJECTID":44762},"geometry":{"x":157070.42000000086,"y":2549978.9500000011}},{"attributes":{"ID":44763,"DIS_CODE":0,"TOWNNAME":"安南區","LI":"東和里","LIN":"7鄰","STREET":"環館三路","SECT":" ","MAREA":" ","LANE":"１３巷","ALLEY":"３０弄","HOUSE_NO":"５７號","E_COORD97":171418.34100700001,"N_COORD97":2551658.2003600001,"ADDRESS":"環館三路１３巷３０弄５７號","OBJECTID":44763},"geometry":{"x":171418.34100699984,"y":2551658.2003610004}},{"attributes":{"ID":44764,"DIS_CODE":0,"TOWNNAME":"善化區","LI":"南關里","LIN":"7鄰","STREET":"三民路","SECT":" ","MAREA":" ","LANE":"六合巷","ALLEY":"９弄","HOUSE_NO":"４號","E_COORD97":176969.07000000001,"N_COORD97":2558713.0099999998,"ADDRESS":"三民路六合巷９弄４號","OBJECTID":44764},"geometry":{"x":176969.07000000123,"y":2558713.0099999998}},{"attributes":{"ID":44765,"DIS_CODE":0,"TOWNNAME":"善化區","LI":"南關里","LIN":"7鄰","STREET":"三民路","SECT":" ","MAREA":" ","LANE":"六合巷","ALLEY":"９弄","HOUSE_NO":"２號","E_COORD97":176971.14000000001,"N_COORD97":2558719.0099999998,"ADDRESS":"三民路六合巷９弄２號","OBJECTID":44765},"geometry":{"x":176971.14000000153,"y":2558719.0100000016}},{"attributes":{"ID":44766,"DIS_CODE":0,"TOWNNAME":"永康區","LI":"網寮里","LIN":"7鄰","STREET":"永二街","SECT":" ","MAREA":" ","LANE":"２４４巷","ALLEY":"２弄","HOUSE_NO":"１號","E_COORD97":173263.26999999999,"N_COORD97":2546330.8999999999,"ADDRESS":"永二街２４４巷２弄１號","OBJECTID":44766},"geometry":{"x":173263.27000000048,"y":2546330.9000000041}},{"attributes":{"ID":44767,"DIS_CODE":0,"TOWNNAME":"永康區","LI":"網寮里","LIN":"7鄰","STREET":"永二街","SECT":" ","MAREA":" ","LANE":"２４４巷","ALLEY":"２弄","HOUSE_NO":"１１號","E_COORD97":173286.10999999999,"N_COORD97":2546316.6499999999,"ADDRESS":"永二街２４４巷２弄１１號","OBJECTID":44767},"geometry":{"x":173286.11000000034,"y":2546316.6500000022}},{"attributes":{"ID":44768,"DIS_CODE":0,"TOWNNAME":"永康區","LI":"網寮里","LIN":"7鄰","STREET":"永二街","SECT":" ","MAREA":" ","LANE":"２４４巷","ALLEY":"２弄","HOUSE_NO":"１０號","E_COORD97":173282.63,"N_COORD97":2546304.8399999999,"ADDRESS":"永二街２４４巷２弄１０號","OBJECTID":44768},"geometry":{"x":173282.63000000175,"y":2546304.8400000017}},{"attributes":{"ID":44769,"DIS_CODE":0,"TOWNNAME":"永康區","LI":"網寮里","LIN":"7鄰","STREET":"永二街","SECT":" ","MAREA":" ","LANE":"２４４巷","ALLEY":"２弄","HOUSE_NO":"４號","E_COORD97":173268.09,"N_COORD97":2546313.5899999999,"ADDRESS":"永二街２４４巷２弄４號","OBJECTID":44769},"geometry":{"x":173268.09000000078,"y":2546313.5900000017}},{"attributes":{"ID":44770,"DIS_CODE":0,"TOWNNAME":"永康區","LI":"網寮里","LIN":"7鄰","STREET":"永二街","SECT":" ","MAREA":" ","LANE":"２４４巷","ALLEY":"２弄","HOUSE_NO":"９號","E_COORD97":173280.48000000001,"N_COORD97":2546319.3999999999,"ADDRESS":"永二街２４４巷２弄９號","OBJECTID":44770},"geometry":{"x":173280.48000000045,"y":2546319.4000000004}},{"attributes":{"ID":44771,"DIS_CODE":0,"TOWNNAME":"永康區","LI":"網寮里","LIN":"7鄰","STREET":"永二街","SECT":" ","MAREA":" ","LANE":"２４４巷","ALLEY":"２弄","HOUSE_NO":"５號","E_COORD97":173272.16,"N_COORD97":2546324.8999999999,"ADDRESS":"永二街２４４巷２弄５號","OBJECTID":44771},"geometry":{"x":173272.16000000015,"y":2546324.9000000022}},{"attributes":{"ID":44772,"DIS_CODE":0,"TOWNNAME":"永康區","LI":"網寮里","LIN":"7鄰","STREET":"永二街","SECT":" ","MAREA":" ","LANE":"２４４巷","ALLEY":"２弄","HOUSE_NO":"６號","E_COORD97":173272.34,"N_COORD97":2546310.8399999999,"ADDRESS":"永二街２４４巷２弄６號","OBJECTID":44772},"geometry":{"x":173272.33999999985,"y":2546310.8400000017}},{"attributes":{"ID":44773,"DIS_CODE":0,"TOWNNAME":"永康區","LI":"網寮里","LIN":"7鄰","STREET":"永二街","SECT":" ","MAREA":" ","LANE":"２４４巷","ALLEY":"２弄","HOUSE_NO":"２３號","E_COORD97":173313.14000000001,"N_COORD97":2546299.6400000001,"ADDRESS":"永二街２４４巷２弄２３號","OBJECTID":44773},"geometry":{"x":173313.1400000006,"y":2546299.6400000025}},{"attributes":{"ID":44774,"DIS_CODE":0,"TOWNNAME":"永康區","LI":"網寮里","LIN":"7鄰","STREET":"永二街","SECT":" ","MAREA":" ","LANE":"２４４巷","ALLEY":"２弄","HOUSE_NO":"１７號","E_COORD97":173299.70999999999,"N_COORD97":2546307.8999999999,"ADDRESS":"永二街２４４巷２弄１７號","OBJECTID":44774},"geometry":{"x":173299.71000000089,"y":2546307.9000000022}},{"attributes":{"ID":44775,"DIS_CODE":0,"TOWNNAME":"永康區","LI":"\u25A0行里","LIN":"7鄰","STREET":"中正路","SECT":" ","MAREA":" ","LANE":"７６４巷","ALLEY":"２１弄","HOUSE_NO":"８號","E_COORD97":172434.42999999999,"N_COORD97":2548704.5,"ADDRESS":"中正路７６４巷２１弄８號","OBJECTID":44775},"geometry":{"x":172434.43000000156,"y":2548704.5000000019}},{"attributes":{"ID":44776,"DIS_CODE":0,"TOWNNAME":"永康區","LI":"網寮里","LIN":"7鄰","STREET":"永二街","SECT":" ","MAREA":" ","LANE":"２４４巷","ALLEY":"２弄","HOUSE_NO":"１３號","E_COORD97":173290.38,"N_COORD97":2546313.8999999999,"ADDRESS":"永二街２４４巷２弄１３號","OBJECTID":44776},"geometry":{"x":173290.37999999989,"y":2546313.9000000041}},{"attributes":{"ID":44777,"DIS_CODE":0,"TOWNNAME":"永康區","LI":"網寮里","LIN":"7鄰","STREET":"永二街","SECT":" ","MAREA":" ","LANE":"２４４巷","ALLEY":"２弄","HOUSE_NO":"３號","E_COORD97":173267.48000000001,"N_COORD97":2546327.8999999999,"ADDRESS":"永二街２４４巷２弄３號","OBJECTID":44777},"geometry":{"x":173267.48000000138,"y":2546327.9000000022}},{"attributes":{"ID":44778,"DIS_CODE":0,"TOWNNAME":"後壁區","LI":"福安里","LIN":"15鄰","STREET":" ","SECT":" ","MAREA":"下寮","LANE":" ","ALLEY":" ","HOUSE_NO":"１７７號之２５","E_COORD97":183765.47,"N_COORD97":2580700.7599999998,"ADDRESS":"下寮１７７號之２５","OBJECTID":44778},"geometry":{"x":183765.47000000067,"y":2580700.7600000016}},{"attributes":{"ID":44779,"DIS_CODE":0,"TOWNNAME":"後壁區","LI":"福安里","LIN":"15鄰","STREET":" ","SECT":" ","MAREA":"下寮","LANE":" ","ALLEY":" ","HOUSE_NO":"１７７號之３","E_COORD97":183849.85000000001,"N_COORD97":2580742.0099999998,"ADDRESS":"下寮１７７號之３","OBJECTID":44779},"geometry":{"x":183849.84999999963,"y":2580742.0100000035}},{"attributes":{"ID":44780,"DIS_CODE":0,"TOWNNAME":"後壁區","LI":"福安里","LIN":"15鄰","STREET":" ","SECT":" ","MAREA":"下寮","LANE":" ","ALLEY":" ","HOUSE_NO":"１７７號","E_COORD97":183853.97,"N_COORD97":2580759.0600000001,"ADDRESS":"下寮１７７號","OBJECTID":44780},"geometry":{"x":183853.96999999974,"y":2580759.0600000042}},{"attributes":{"ID":44781,"DIS_CODE":0,"TOWNNAME":"後壁區","LI":"福安里","LIN":"15鄰","STREET":" ","SECT":" ","MAREA":"下寮","LANE":" ","ALLEY":" ","HOUSE_NO":"１７８號之１","E_COORD97":183916.32000000001,"N_COORD97":2580728.77,"ADDRESS":"下寮１７８號之１","OBJECTID":44781},"geometry":{"x":183916.32000000123,"y":2580728.7699999996}},{"attributes":{"ID":44782,"DIS_CODE":0,"TOWNNAME":"東區","LI":"和平里","LIN":"7鄰","STREET":"東門路","SECT":"三段","MAREA":" ","LANE":"２２６巷","ALLEY":"７５弄","HOUSE_NO":"７號","E_COORD97":171544.29999999999,"N_COORD97":2541825.5899999999,"ADDRESS":"東門路三段２２６巷７５弄７號","OBJECTID":44782},"geometry":{"x":171544.30000000075,"y":2541825.5899999999}},{"attributes":{"ID":44783,"DIS_CODE":0,"TOWNNAME":"後壁區","LI":"福安里","LIN":"15鄰","STREET":" ","SECT":" ","MAREA":"下寮","LANE":" ","ALLEY":" ","HOUSE_NO":"１７９號之１","E_COORD97":183935.92999999999,"N_COORD97":2580711.21,"ADDRESS":"下寮１７９號之１","OBJECTID":44783},"geometry":{"x":183935.9299999997,"y":2580711.2100000046}},{"attributes":{"ID":44784,"DIS_CODE":0,"TOWNNAME":"後壁區","LI":"福安里","LIN":"15鄰","STREET":" ","SECT":" ","MAREA":"下寮","LANE":" ","ALLEY":" ","HOUSE_NO":"１７９號","E_COORD97":183935.06,"N_COORD97":2580716.1200000001,"ADDRESS":"下寮１７９號","OBJECTID":44784},"geometry":{"x":183935.05999999959,"y":2580716.1200000029}},{"attributes":{"ID":44785,"DIS_CODE":0,"TOWNNAME":"後壁區","LI":"福安里","LIN":"15鄰","STREET":" ","SECT":" ","MAREA":"下寮","LANE":" ","ALLEY":" ","HOUSE_NO":"１８２號之２","E_COORD97":183573.57999999999,"N_COORD97":2580981.1499999999,"ADDRESS":"下寮１８２號之２","OBJECTID":44785},"geometry":{"x":183573.58000000101,"y":2580981.1500000004}},{"attributes":{"ID":44786,"DIS_CODE":0,"TOWNNAME":"東區","LI":"和平里","LIN":"7鄰","STREET":"東門路","SECT":"三段","MAREA":" ","LANE":"２２６巷","ALLEY":"７５弄","HOUSE_NO":"９號","E_COORD97":171543.82000000001,"N_COORD97":2541821.29,"ADDRESS":"東門路三段２２６巷７５弄９號","OBJECTID":44786},"geometry":{"x":171543.8200000003,"y":2541821.290000001}},{"attributes":{"ID":44787,"DIS_CODE":0,"TOWNNAME":"東區","LI":"富強里","LIN":"7鄰","STREET":"中華東路","SECT":"二段","MAREA":" ","LANE":"４８巷","ALLEY":"２５弄","HOUSE_NO":"１０號","E_COORD97":171275.79999999999,"N_COORD97":2542964.21,"ADDRESS":"中華東路二段４８巷２５弄１０號","OBJECTID":44787},"geometry":{"x":171275.79999999981,"y":2542964.2100000028}},{"attributes":{"ID":44788,"DIS_CODE":0,"TOWNNAME":"東區","LI":"富強里","LIN":"7鄰","STREET":"中華東路","SECT":"二段","MAREA":" ","LANE":"４８巷","ALLEY":"２５弄","HOUSE_NO":"１１號","E_COORD97":171293.92000000001,"N_COORD97":2542960,"ADDRESS":"中華東路二段４８巷２５弄１１號","OBJECTID":44788},"geometry":{"x":171293.92000000179,"y":2542960.0000000019}},{"attributes":{"ID":44789,"DIS_CODE":0,"TOWNNAME":"東區","LI":"富強里","LIN":"7鄰","STREET":"中華東路","SECT":"二段","MAREA":" ","LANE":"４８巷","ALLEY":"２５弄","HOUSE_NO":"１２號","E_COORD97":171275.92999999999,"N_COORD97":2542960.2799999998,"ADDRESS":"中華東路二段４８巷２５弄１２號","OBJECTID":44789},"geometry":{"x":171275.9299999997,"y":2542960.2799999975}},{"attributes":{"ID":44790,"DIS_CODE":0,"TOWNNAME":"東區","LI":"富強里","LIN":"7鄰","STREET":"中華東路","SECT":"二段","MAREA":" ","LANE":"４８巷","ALLEY":"２５弄","HOUSE_NO":"１３號","E_COORD97":171293.81,"N_COORD97":2542955.73,"ADDRESS":"中華東路二段４８巷２５弄１３號","OBJECTID":44790},"geometry":{"x":171293.80999999959,"y":2542955.7300000023}},{"attributes":{"ID":44791,"DIS_CODE":0,"TOWNNAME":"東區","LI":"富強里","LIN":"7鄰","STREET":"中華東路","SECT":"二段","MAREA":" ","LANE":"４８巷","ALLEY":"２５弄","HOUSE_NO":"１４號","E_COORD97":171275.79999999999,"N_COORD97":2542955.7000000002,"ADDRESS":"中華東路二段４８巷２５弄１４號","OBJECTID":44791},"geometry":{"x":171275.79999999981,"y":2542955.7000000011}},{"attributes":{"ID":44792,"DIS_CODE":0,"TOWNNAME":"東區","LI":"富強里","LIN":"7鄰","STREET":"中華東路","SECT":"二段","MAREA":" ","LANE":"４８巷","ALLEY":"２５弄","HOUSE_NO":"１６號","E_COORD97":171276.45000000001,"N_COORD97":2542952.04,"ADDRESS":"中華東路二段４８巷２５弄１６號","OBJECTID":44792},"geometry":{"x":171276.45000000019,"y":2542952.040000001}},{"attributes":{"ID":44793,"DIS_CODE":0,"TOWNNAME":"東區","LI":"富強里","LIN":"7鄰","STREET":"中華東路","SECT":"二段","MAREA":" ","LANE":"４８巷","ALLEY":"２５弄","HOUSE_NO":"１７號","E_COORD97":171294.14000000001,"N_COORD97":2542946.6499999999,"ADDRESS":"中華東路二段４８巷２５弄１７號","OBJECTID":44793},"geometry":{"x":171294.1400000006,"y":2542946.6500000022}},{"attributes":{"ID":44794,"DIS_CODE":0,"TOWNNAME":"東區","LI":"富強里","LIN":"7鄰","STREET":"中華東路","SECT":"二段","MAREA":" ","LANE":"４８巷","ALLEY":"２５弄","HOUSE_NO":"１８號","E_COORD97":171276.32000000001,"N_COORD97":2542947.8500000001,"ADDRESS":"中華東路二段４８巷２５弄１８號","OBJECTID":44794},"geometry":{"x":171276.32000000216,"y":2542947.8500000015}},{"attributes":{"ID":44795,"DIS_CODE":0,"TOWNNAME":"後壁區","LI":"福安里","LIN":"15鄰","STREET":" ","SECT":" ","MAREA":"下寮","LANE":" ","ALLEY":" ","HOUSE_NO":"１８２號之４","E_COORD97":183766.54000000001,"N_COORD97":2581039.6299999999,"ADDRESS":"下寮１８２號之４","OBJECTID":44795},"geometry":{"x":183766.5400000019,"y":2581039.6300000008}},{"attributes":{"ID":44796,"DIS_CODE":0,"TOWNNAME":"後壁區","LI":"福安里","LIN":"15鄰","STREET":" ","SECT":" ","MAREA":"下寮","LANE":" ","ALLEY":" ","HOUSE_NO":"１８２號","E_COORD97":183632.23999999999,"N_COORD97":2580898.9199999999,"ADDRESS":"下寮１８２號","OBJECTID":44796},"geometry":{"x":183632.24000000022,"y":2580898.9200000018}},{"attributes":{"ID":44797,"DIS_CODE":0,"TOWNNAME":"後壁區","LI":"福安里","LIN":"15鄰","STREET":" ","SECT":" ","MAREA":"下寮","LANE":" ","ALLEY":" ","HOUSE_NO":"１８６號","E_COORD97":183507.82000000001,"N_COORD97":2580870.27,"ADDRESS":"下寮１８６號","OBJECTID":44797},"geometry":{"x":183507.82000000123,"y":2580870.2700000014}},{"attributes":{"ID":44798,"DIS_CODE":0,"TOWNNAME":"後壁區","LI":"福安里","LIN":"15鄰","STREET":" ","SECT":" ","MAREA":"下寮","LANE":" ","ALLEY":" ","HOUSE_NO":"１８７號之２０","E_COORD97":183505.20000000001,"N_COORD97":2580709.3399999999,"ADDRESS":"下寮１８７號之２０","OBJECTID":44798},"geometry":{"x":183505.20000000112,"y":2580709.3400000036}},{"attributes":{"ID":44799,"DIS_CODE":0,"TOWNNAME":"後壁區","LI":"福安里","LIN":"15鄰","STREET":" ","SECT":" ","MAREA":"下寮","LANE":" ","ALLEY":" ","HOUSE_NO":"１８７號之３","E_COORD97":183440.72,"N_COORD97":2580744.27,"ADDRESS":"下寮１８７號之３","OBJECTID":44799},"geometry":{"x":183440.71999999974,"y":2580744.2700000014}},{"attributes":{"ID":44800,"DIS_CODE":0,"TOWNNAME":"後壁區","LI":"福安里","LIN":"15鄰","STREET":" ","SECT":" ","MAREA":"下寮","LANE":" ","ALLEY":" ","HOUSE_NO":"１８７號之５","E_COORD97":183409.19,"N_COORD97":2580733.02,"ADDRESS":"下寮１８７號之５","OBJECTID":44800},"geometry":{"x":183409.19000000041,"y":2580733.0199999996}}]}