{"displayFieldName":"TOWNNAME","fieldAliases":{"ID":"ID","DIS_CODE":"DIS_CODE","TOWNNAME":"TOWNNAME","LI":"LI","LIN":"LIN","STREET":"STREET","SECT":"SECT","MAREA":"MAREA","LANE":"LANE","ALLEY":"ALLEY","HOUSE_NO":"HOUSE_NO","E_COORD97":"E_COORD97","N_COORD97":"N_COORD97","ADDRESS":"ADDRESS","OBJECTID":"OBJECTID"},"geometryType":"esriGeometryPoint","spatialReference":{"wkid":102443,"latestWkid":3826},"fields":[{"name":"ID","type":"esriFieldTypeDouble","alias":"ID"},{"name":"DIS_CODE","type":"esriFieldTypeInteger","alias":"DIS_CODE"},{"name":"TOWNNAME","type":"esriFieldTypeString","alias":"TOWNNAME","length":8},{"name":"LI","type":"esriFieldTypeString","alias":"LI","length":8},{"name":"LIN","type":"esriFieldTypeString","alias":"LIN","length":12},{"name":"STREET","type":"esriFieldTypeString","alias":"STREET","length":20},{"name":"SECT","type":"esriFieldTypeString","alias":"SECT","length":8},{"name":"MAREA","type":"esriFieldTypeString","alias":"MAREA","length":12},{"name":"LANE","type":"esriFieldTypeString","alias":"LANE","length":10},{"name":"ALLEY","type":"esriFieldTypeString","alias":"ALLEY","length":10},{"name":"HOUSE_NO","type":"esriFieldTypeString","alias":"HOUSE_NO","length":20},{"name":"E_COORD97","type":"esriFieldTypeDouble","alias":"E_COORD97"},{"name":"N_COORD97","type":"esriFieldTypeDouble","alias":"N_COORD97"},{"name":"ADDRESS","type":"esriFieldTypeString","alias":"ADDRESS","length":50},{"name":"OBJECTID","type":"esriFieldTypeOID","alias":"OBJECTID"}],"features":[{"attributes":{"ID":355610,"DIS_CODE":0,"TOWNNAME":"東區","LI":"德高里","LIN":"20鄰","STREET":"仁和路","SECT":" ","MAREA":" ","LANE":"１３９巷","ALLEY":" ","HOUSE_NO":"３８號","E_COORD97":171596.54999999999,"N_COORD97":2541073.8999999999,"ADDRESS":"仁和路１３９巷３８號","OBJECTID":355601},"geometry":{"x":171596.55000000075,"y":2541073.9000000022}},{"attributes":{"ID":355611,"DIS_CODE":0,"TOWNNAME":"東區","LI":"德高里","LIN":"20鄰","STREET":"仁和路","SECT":" ","MAREA":" ","LANE":"１３９巷","ALLEY":" ","HOUSE_NO":"４２號","E_COORD97":171603.5,"N_COORD97":2541077.4399999999,"ADDRESS":"仁和路１３９巷４２號","OBJECTID":355602},"geometry":{"x":171603.5,"y":2541077.4399999995}},{"attributes":{"ID":355612,"DIS_CODE":0,"TOWNNAME":"東區","LI":"德高里","LIN":"20鄰","STREET":"仁和路","SECT":" ","MAREA":" ","LANE":"１３９巷","ALLEY":" ","HOUSE_NO":"４６號","E_COORD97":171611.57999999999,"N_COORD97":2541078.0099999998,"ADDRESS":"仁和路１３９巷４６號","OBJECTID":355603},"geometry":{"x":171611.57999999914,"y":2541078.0100000016}},{"attributes":{"ID":355613,"DIS_CODE":0,"TOWNNAME":"東區","LI":"德高里","LIN":"20鄰","STREET":"仁和路","SECT":" ","MAREA":" ","LANE":"１３９巷","ALLEY":" ","HOUSE_NO":"５０號","E_COORD97":171617.97,"N_COORD97":2541082.5499999998,"ADDRESS":"仁和路１３９巷５０號","OBJECTID":355604},"geometry":{"x":171617.97000000067,"y":2541082.5500000026}},{"attributes":{"ID":355614,"DIS_CODE":0,"TOWNNAME":"東區","LI":"德高里","LIN":"20鄰","STREET":"仁和路","SECT":" ","MAREA":" ","LANE":"１３９巷","ALLEY":" ","HOUSE_NO":"５４號","E_COORD97":171626.06,"N_COORD97":2541084.3900000001,"ADDRESS":"仁和路１３９巷５４號","OBJECTID":355605},"geometry":{"x":171626.05999999959,"y":2541084.3900000025}},{"attributes":{"ID":355615,"DIS_CODE":0,"TOWNNAME":"新營區","LI":"五興里","LIN":" ","STREET":" ","SECT":" ","MAREA":"五間厝","LANE":" ","ALLEY":" ","HOUSE_NO":"７３之１４號","E_COORD97":175898.23999999999,"N_COORD97":2574760.9300000002,"ADDRESS":"五間厝７３之１４號","OBJECTID":355606},"geometry":{"x":175898.24000000115,"y":2574760.9299999997}},{"attributes":{"ID":355616,"DIS_CODE":0,"TOWNNAME":"東區","LI":"德高里","LIN":"20鄰","STREET":"仁和路","SECT":" ","MAREA":" ","LANE":"１３９巷","ALLEY":" ","HOUSE_NO":"５６號","E_COORD97":171630.10000000001,"N_COORD97":2541085.3100000001,"ADDRESS":"仁和路１３９巷５６號","OBJECTID":355607},"geometry":{"x":171630.10000000056,"y":2541085.3100000005}},{"attributes":{"ID":355617,"DIS_CODE":0,"TOWNNAME":"東區","LI":"德高里","LIN":"20鄰","STREET":"仁和路","SECT":" ","MAREA":" ","LANE":"１３９巷","ALLEY":" ","HOUSE_NO":"５８號","E_COORD97":171634.84,"N_COORD97":2541085.3100000001,"ADDRESS":"仁和路１３９巷５８號","OBJECTID":355608},"geometry":{"x":171634.83999999985,"y":2541085.3100000005}},{"attributes":{"ID":355618,"DIS_CODE":0,"TOWNNAME":"東區","LI":"德高里","LIN":"20鄰","STREET":"仁和路","SECT":" ","MAREA":" ","LANE":"１３９巷","ALLEY":" ","HOUSE_NO":"４８號","E_COORD97":171614.56,"N_COORD97":2541080.9900000002,"ADDRESS":"仁和路１３９巷４８號","OBJECTID":355609},"geometry":{"x":171614.55999999959,"y":2541080.9900000002}},{"attributes":{"ID":355619,"DIS_CODE":0,"TOWNNAME":"東區","LI":"德高里","LIN":"20鄰","STREET":"仁和路","SECT":" ","MAREA":" ","LANE":"１３９巷","ALLEY":" ","HOUSE_NO":"３６號","E_COORD97":171592.72,"N_COORD97":2541072.2000000002,"ADDRESS":"仁和路１３９巷３６號","OBJECTID":355610},"geometry":{"x":171592.71999999974,"y":2541072.1999999993}},{"attributes":{"ID":355620,"DIS_CODE":0,"TOWNNAME":"東區","LI":"德高里","LIN":"20鄰","STREET":"仁和路","SECT":" ","MAREA":" ","LANE":"１３９巷","ALLEY":" ","HOUSE_NO":"４０號","E_COORD97":171600.38,"N_COORD97":2541075.46,"ADDRESS":"仁和路１３９巷４０號","OBJECTID":355611},"geometry":{"x":171600.37999999989,"y":2541075.4600000009}},{"attributes":{"ID":355621,"DIS_CODE":0,"TOWNNAME":"東區","LI":"德高里","LIN":"20鄰","STREET":"仁和路","SECT":" ","MAREA":" ","LANE":"１３９巷","ALLEY":" ","HOUSE_NO":"４４號","E_COORD97":171606.62,"N_COORD97":2541079.5699999998,"ADDRESS":"仁和路１３９巷４４號","OBJECTID":355612},"geometry":{"x":171606.62000000104,"y":2541079.5700000003}},{"attributes":{"ID":355622,"DIS_CODE":0,"TOWNNAME":"永康區","LI":"二王里","LIN":"8鄰","STREET":"二王路","SECT":" ","MAREA":" ","LANE":" ","ALLEY":" ","HOUSE_NO":"１０號十樓之１","E_COORD97":172985.98000000001,"N_COORD97":2546837.98,"ADDRESS":"二王路１０號十樓之１","OBJECTID":355613},"geometry":{"x":172985.98000000231,"y":2546837.9800000004}},{"attributes":{"ID":355623,"DIS_CODE":0,"TOWNNAME":"永康區","LI":"二王里","LIN":"8鄰","STREET":"二王路","SECT":" ","MAREA":" ","LANE":" ","ALLEY":" ","HOUSE_NO":"１０號六樓之１","E_COORD97":172985.98000000001,"N_COORD97":2546837.98,"ADDRESS":"二王路１０號六樓之１","OBJECTID":355614},"geometry":{"x":172985.98000000231,"y":2546837.9800000004}},{"attributes":{"ID":355624,"DIS_CODE":0,"TOWNNAME":"東區","LI":"中西里","LIN":"8鄰","STREET":"勝利路","SECT":" ","MAREA":" ","LANE":" ","ALLEY":" ","HOUSE_NO":"２８號二樓","E_COORD97":169805.19,"N_COORD97":2543430.8100000001,"ADDRESS":"勝利路２８號二樓","OBJECTID":355615},"geometry":{"x":169805.19000000041,"y":2543430.8100000024}},{"attributes":{"ID":355625,"DIS_CODE":0,"TOWNNAME":"新營區","LI":"埤寮里","LIN":"5鄰","STREET":" ","SECT":" ","MAREA":"埤寮","LANE":" ","ALLEY":" ","HOUSE_NO":"８之１２號","E_COORD97":180187.85999999999,"N_COORD97":2581026.0099999998,"ADDRESS":"埤寮８之１２號","OBJECTID":355616},"geometry":{"x":180187.8600000022,"y":2581026.0099999998}},{"attributes":{"ID":355626,"DIS_CODE":0,"TOWNNAME":"新營區","LI":"太北里","LIN":"20鄰","STREET":" ","SECT":" ","MAREA":"太子宮","LANE":" ","ALLEY":" ","HOUSE_NO":"１４２之８６號","E_COORD97":175494.10000000001,"N_COORD97":2576961.27,"ADDRESS":"太子宮１４２之８６號","OBJECTID":355617},"geometry":{"x":175494.09999999963,"y":2576961.2699999996}},{"attributes":{"ID":355627,"DIS_CODE":0,"TOWNNAME":"東區","LI":"中西里","LIN":"8鄰","STREET":"勝利路","SECT":" ","MAREA":" ","LANE":" ","ALLEY":" ","HOUSE_NO":"２８號三樓","E_COORD97":169805.19,"N_COORD97":2543430.8100000001,"ADDRESS":"勝利路２８號三樓","OBJECTID":355618},"geometry":{"x":169805.19000000041,"y":2543430.8100000024}},{"attributes":{"ID":355628,"DIS_CODE":0,"TOWNNAME":"東區","LI":"中西里","LIN":"8鄰","STREET":"勝利路","SECT":" ","MAREA":" ","LANE":" ","ALLEY":" ","HOUSE_NO":"２８號四樓","E_COORD97":169805.19,"N_COORD97":2543430.8100000001,"ADDRESS":"勝利路２８號四樓","OBJECTID":355619},"geometry":{"x":169805.19000000041,"y":2543430.8100000024}},{"attributes":{"ID":355629,"DIS_CODE":0,"TOWNNAME":"東區","LI":"中西里","LIN":"8鄰","STREET":"勝利路","SECT":" ","MAREA":" ","LANE":" ","ALLEY":" ","HOUSE_NO":"２８號五樓","E_COORD97":169805.19,"N_COORD97":2543430.8100000001,"ADDRESS":"勝利路２８號五樓","OBJECTID":355620},"geometry":{"x":169805.19000000041,"y":2543430.8100000024}},{"attributes":{"ID":355630,"DIS_CODE":0,"TOWNNAME":"東區","LI":"中西里","LIN":"8鄰","STREET":"勝利路","SECT":" ","MAREA":" ","LANE":" ","ALLEY":" ","HOUSE_NO":"２８號二樓之１","E_COORD97":169805.19,"N_COORD97":2543430.8100000001,"ADDRESS":"勝利路２８號二樓之１","OBJECTID":355621},"geometry":{"x":169805.19000000041,"y":2543430.8100000024}},{"attributes":{"ID":355631,"DIS_CODE":0,"TOWNNAME":"東區","LI":"中西里","LIN":"8鄰","STREET":"勝利路","SECT":" ","MAREA":" ","LANE":" ","ALLEY":" ","HOUSE_NO":"２８號三樓之１","E_COORD97":169805.19,"N_COORD97":2543430.8100000001,"ADDRESS":"勝利路２８號三樓之１","OBJECTID":355622},"geometry":{"x":169805.19000000041,"y":2543430.8100000024}},{"attributes":{"ID":355632,"DIS_CODE":0,"TOWNNAME":"東區","LI":"中西里","LIN":"8鄰","STREET":"勝利路","SECT":" ","MAREA":" ","LANE":" ","ALLEY":" ","HOUSE_NO":"２８號四樓之１","E_COORD97":169805.19,"N_COORD97":2543430.8100000001,"ADDRESS":"勝利路２８號四樓之１","OBJECTID":355623},"geometry":{"x":169805.19000000041,"y":2543430.8100000024}},{"attributes":{"ID":355633,"DIS_CODE":0,"TOWNNAME":"中西區","LI":"永福里","LIN":"8鄰","STREET":"忠義路","SECT":"二段","MAREA":" ","LANE":" ","ALLEY":" ","HOUSE_NO":"６９號一樓","E_COORD97":168263.60000000001,"N_COORD97":2543656.1699999999,"ADDRESS":"忠義路二段６９號一樓","OBJECTID":355624},"geometry":{"x":168263.60000000056,"y":2543656.1699999999}},{"attributes":{"ID":355634,"DIS_CODE":0,"TOWNNAME":"中西區","LI":"永福里","LIN":"8鄰","STREET":"忠義路","SECT":"二段","MAREA":" ","LANE":" ","ALLEY":" ","HOUSE_NO":"６９號七樓之１","E_COORD97":168263.60000000001,"N_COORD97":2543656.1699999999,"ADDRESS":"忠義路二段６９號七樓之１","OBJECTID":355625},"geometry":{"x":168263.60000000056,"y":2543656.1699999999}},{"attributes":{"ID":355635,"DIS_CODE":0,"TOWNNAME":"北區","LI":"和順里","LIN":"33鄰","STREET":"公園南路","SECT":" ","MAREA":" ","LANE":"３６２巷","ALLEY":" ","HOUSE_NO":"２號八樓之１","E_COORD97":168277.03,"N_COORD97":2544888.98,"ADDRESS":"公園南路３６２巷２號八樓之１","OBJECTID":355626},"geometry":{"x":168277.03000000026,"y":2544888.9800000004}},{"attributes":{"ID":355636,"DIS_CODE":0,"TOWNNAME":"新營區","LI":"埤寮里","LIN":"11鄰","STREET":" ","SECT":" ","MAREA":"埤寮","LANE":" ","ALLEY":" ","HOUSE_NO":"８３號","E_COORD97":180522.73999999999,"N_COORD97":2580782.9399999999,"ADDRESS":"埤寮８３號","OBJECTID":355627},"geometry":{"x":180522.74000000115,"y":2580782.9400000013}},{"attributes":{"ID":355637,"DIS_CODE":0,"TOWNNAME":"新營區","LI":"太北里","LIN":"2鄰","STREET":" ","SECT":" ","MAREA":"太子宮","LANE":" ","ALLEY":" ","HOUSE_NO":"１５號之１２","E_COORD97":176160.85000000001,"N_COORD97":2577165.0099999998,"ADDRESS":"太子宮１５號之１２","OBJECTID":355628},"geometry":{"x":176160.8499999987,"y":2577165.0100000035}},{"attributes":{"ID":355638,"DIS_CODE":0,"TOWNNAME":"麻豆區","LI":"南勢里","LIN":"20鄰","STREET":" ","SECT":" ","MAREA":"南勢","LANE":" ","ALLEY":" ","HOUSE_NO":"３８號之６６","E_COORD97":174526.87183399999,"N_COORD97":2564637.1577599999,"ADDRESS":"南勢３８號之６６","OBJECTID":355629},"geometry":{"x":174526.87183399871,"y":2564637.1577620003}},{"attributes":{"ID":355639,"DIS_CODE":0,"TOWNNAME":"麻豆區","LI":"南勢里","LIN":"20鄰","STREET":" ","SECT":" ","MAREA":"南勢","LANE":" ","ALLEY":" ","HOUSE_NO":"３８號之５２","E_COORD97":174486.37,"N_COORD97":2564659.71,"ADDRESS":"南勢３８號之５２","OBJECTID":355630},"geometry":{"x":174486.36999999918,"y":2564659.7100000009}},{"attributes":{"ID":355640,"DIS_CODE":0,"TOWNNAME":"永康區","LI":"\u25A0行里","LIN":"20鄰","STREET":"正南五街","SECT":" ","MAREA":" ","LANE":"４１０巷","ALLEY":" ","HOUSE_NO":"２５號","E_COORD97":171820.51999999999,"N_COORD97":2548633.2400000002,"ADDRESS":"正南五街４１０巷２５號","OBJECTID":355631},"geometry":{"x":171820.52000000048,"y":2548633.2400000002}},{"attributes":{"ID":355641,"DIS_CODE":0,"TOWNNAME":"永康區","LI":"\u25A0行里","LIN":"20鄰","STREET":"正南五街","SECT":" ","MAREA":" ","LANE":"４１０巷","ALLEY":" ","HOUSE_NO":"２９號","E_COORD97":171827.12,"N_COORD97":2548637.9900000002,"ADDRESS":"正南五街４１０巷２９號","OBJECTID":355632},"geometry":{"x":171827.12000000104,"y":2548637.9900000002}},{"attributes":{"ID":355642,"DIS_CODE":0,"TOWNNAME":"永康區","LI":"\u25A0行里","LIN":"20鄰","STREET":"正南五街","SECT":" ","MAREA":" ","LANE":"４１０巷","ALLEY":" ","HOUSE_NO":"１號","E_COORD97":171748.26000000001,"N_COORD97":2548617.25,"ADDRESS":"正南五街４１０巷１號","OBJECTID":355633},"geometry":{"x":171748.26000000071,"y":2548617.2500000019}},{"attributes":{"ID":355643,"DIS_CODE":0,"TOWNNAME":"麻豆區","LI":"南勢里","LIN":"20鄰","STREET":" ","SECT":" ","MAREA":"南勢","LANE":" ","ALLEY":" ","HOUSE_NO":"３８號之５６","E_COORD97":174474.33152899999,"N_COORD97":2564653.3502500001,"ADDRESS":"南勢３８號之５６","OBJECTID":355634},"geometry":{"x":174474.33152900077,"y":2564653.3502539992}},{"attributes":{"ID":355644,"DIS_CODE":0,"TOWNNAME":"麻豆區","LI":"南勢里","LIN":"20鄰","STREET":" ","SECT":" ","MAREA":"南勢","LANE":" ","ALLEY":" ","HOUSE_NO":"３８號之５７","E_COORD97":174470.51811999999,"N_COORD97":2564652.18609,"ADDRESS":"南勢３８號之５７","OBJECTID":355635},"geometry":{"x":174470.51812000107,"y":2564652.1860879995}},{"attributes":{"ID":355645,"DIS_CODE":0,"TOWNNAME":"麻豆區","LI":"南勢里","LIN":"20鄰","STREET":" ","SECT":" ","MAREA":"南勢","LANE":" ","ALLEY":" ","HOUSE_NO":"３８號之５８","E_COORD97":174464.162438,"N_COORD97":2564650.38692,"ADDRESS":"南勢３８號之５８","OBJECTID":355636},"geometry":{"x":174464.16243799962,"y":2564650.3869220018}},{"attributes":{"ID":355646,"DIS_CODE":0,"TOWNNAME":"麻豆區","LI":"南勢里","LIN":"20鄰","STREET":" ","SECT":" ","MAREA":"南勢","LANE":" ","ALLEY":" ","HOUSE_NO":"３８號之５９","E_COORD97":174473.57000000001,"N_COORD97":2564630.3900000001,"ADDRESS":"南勢３８號之５９","OBJECTID":355637},"geometry":{"x":174473.57000000216,"y":2564630.3900000025}},{"attributes":{"ID":355647,"DIS_CODE":0,"TOWNNAME":"麻豆區","LI":"南勢里","LIN":"20鄰","STREET":" ","SECT":" ","MAREA":"南勢","LANE":" ","ALLEY":" ","HOUSE_NO":"３８號之６０","E_COORD97":174478.51000000001,"N_COORD97":2564632,"ADDRESS":"南勢３８號之６０","OBJECTID":355638},"geometry":{"x":174478.51000000164,"y":2564632.0000000019}},{"attributes":{"ID":355648,"DIS_CODE":0,"TOWNNAME":"麻豆區","LI":"南勢里","LIN":"20鄰","STREET":" ","SECT":" ","MAREA":"南勢","LANE":" ","ALLEY":" ","HOUSE_NO":"３８號之６１","E_COORD97":174483,"N_COORD97":2564633.6000000001,"ADDRESS":"南勢３８號之６１","OBJECTID":355639},"geometry":{"x":174483,"y":2564633.6000000015}},{"attributes":{"ID":355649,"DIS_CODE":0,"TOWNNAME":"北區","LI":"和順里","LIN":"33鄰","STREET":"公園南路","SECT":" ","MAREA":" ","LANE":"３６２巷","ALLEY":" ","HOUSE_NO":"２號八樓之２","E_COORD97":168277.03,"N_COORD97":2544888.98,"ADDRESS":"公園南路３６２巷２號八樓之２","OBJECTID":355640},"geometry":{"x":168277.03000000026,"y":2544888.9800000004}},{"attributes":{"ID":355650,"DIS_CODE":0,"TOWNNAME":"北區","LI":"和順里","LIN":"33鄰","STREET":"公園南路","SECT":" ","MAREA":" ","LANE":"３６２巷","ALLEY":" ","HOUSE_NO":"２號八樓之３","E_COORD97":168277.03,"N_COORD97":2544888.98,"ADDRESS":"公園南路３６２巷２號八樓之３","OBJECTID":355641},"geometry":{"x":168277.03000000026,"y":2544888.9800000004}},{"attributes":{"ID":355651,"DIS_CODE":0,"TOWNNAME":"北區","LI":"和順里","LIN":"33鄰","STREET":"公園南路","SECT":" ","MAREA":" ","LANE":"３６２巷","ALLEY":" ","HOUSE_NO":"２號十一樓之１","E_COORD97":168277.03,"N_COORD97":2544888.98,"ADDRESS":"公園南路３６２巷２號十一樓之１","OBJECTID":355642},"geometry":{"x":168277.03000000026,"y":2544888.9800000004}},{"attributes":{"ID":355652,"DIS_CODE":0,"TOWNNAME":"北區","LI":"和順里","LIN":"33鄰","STREET":"公園南路","SECT":" ","MAREA":" ","LANE":"３６２巷","ALLEY":" ","HOUSE_NO":"２號十一樓之２","E_COORD97":168277.03,"N_COORD97":2544888.98,"ADDRESS":"公園南路３６２巷２號十一樓之２","OBJECTID":355643},"geometry":{"x":168277.03000000026,"y":2544888.9800000004}},{"attributes":{"ID":355653,"DIS_CODE":0,"TOWNNAME":"北區","LI":"和順里","LIN":"33鄰","STREET":"公園南路","SECT":" ","MAREA":" ","LANE":"３６２巷","ALLEY":" ","HOUSE_NO":"２號十一樓之３","E_COORD97":168277.03,"N_COORD97":2544888.98,"ADDRESS":"公園南路３６２巷２號十一樓之３","OBJECTID":355644},"geometry":{"x":168277.03000000026,"y":2544888.9800000004}},{"attributes":{"ID":355654,"DIS_CODE":0,"TOWNNAME":"中西區","LI":"永福里","LIN":"8鄰","STREET":"忠義路","SECT":"二段","MAREA":" ","LANE":" ","ALLEY":" ","HOUSE_NO":"６９號七樓之２","E_COORD97":168263.60000000001,"N_COORD97":2543656.1699999999,"ADDRESS":"忠義路二段６９號七樓之２","OBJECTID":355645},"geometry":{"x":168263.60000000056,"y":2543656.1699999999}},{"attributes":{"ID":355655,"DIS_CODE":0,"TOWNNAME":"中西區","LI":"永福里","LIN":"8鄰","STREET":"忠義路","SECT":"二段","MAREA":" ","LANE":" ","ALLEY":" ","HOUSE_NO":"６９號九樓之１","E_COORD97":168263.60000000001,"N_COORD97":2543656.1699999999,"ADDRESS":"忠義路二段６９號九樓之１","OBJECTID":355646},"geometry":{"x":168263.60000000056,"y":2543656.1699999999}},{"attributes":{"ID":355656,"DIS_CODE":0,"TOWNNAME":"中西區","LI":"永福里","LIN":"8鄰","STREET":"忠義路","SECT":"二段","MAREA":" ","LANE":" ","ALLEY":" ","HOUSE_NO":"６９號九樓之２","E_COORD97":168263.60000000001,"N_COORD97":2543656.1699999999,"ADDRESS":"忠義路二段６９號九樓之２","OBJECTID":355647},"geometry":{"x":168263.60000000056,"y":2543656.1699999999}},{"attributes":{"ID":355657,"DIS_CODE":0,"TOWNNAME":"北區","LI":"和順里","LIN":"33鄰","STREET":"公園南路","SECT":" ","MAREA":" ","LANE":"３６２巷","ALLEY":" ","HOUSE_NO":"２號十七樓之１","E_COORD97":168277.03,"N_COORD97":2544888.98,"ADDRESS":"公園南路３６２巷２號十七樓之１","OBJECTID":355648},"geometry":{"x":168277.03000000026,"y":2544888.9800000004}},{"attributes":{"ID":355658,"DIS_CODE":0,"TOWNNAME":"北區","LI":"和順里","LIN":"33鄰","STREET":"公園南路","SECT":" ","MAREA":" ","LANE":"３６２巷","ALLEY":" ","HOUSE_NO":"２號十七樓之２","E_COORD97":168277.03,"N_COORD97":2544888.98,"ADDRESS":"公園南路３６２巷２號十七樓之２","OBJECTID":355649},"geometry":{"x":168277.03000000026,"y":2544888.9800000004}},{"attributes":{"ID":355659,"DIS_CODE":0,"TOWNNAME":"麻豆區","LI":"南勢里","LIN":"20鄰","STREET":" ","SECT":" ","MAREA":"南勢","LANE":" ","ALLEY":" ","HOUSE_NO":"３８號之６２","E_COORD97":174520.09244000001,"N_COORD97":2564652.18609,"ADDRESS":"南勢３８號之６２","OBJECTID":355650},"geometry":{"x":174520.09244000074,"y":2564652.1860879995}},{"attributes":{"ID":355660,"DIS_CODE":0,"TOWNNAME":"麻豆區","LI":"南勢里","LIN":"20鄰","STREET":" ","SECT":" ","MAREA":"南勢","LANE":" ","ALLEY":" ","HOUSE_NO":"３８號之６３","E_COORD97":174520.30429599999,"N_COORD97":2564648.1644199998,"ADDRESS":"南勢３８號之６３","OBJECTID":355651},"geometry":{"x":174520.30429600086,"y":2564648.1644230001}},{"attributes":{"ID":355661,"DIS_CODE":0,"TOWNNAME":"永康區","LI":"復國里","LIN":"33鄰","STREET":"復華一街","SECT":" ","MAREA":" ","LANE":"６６巷","ALLEY":" ","HOUSE_NO":"９號","E_COORD97":172529.42999999999,"N_COORD97":2545114.52,"ADDRESS":"復華一街６６巷９號","OBJECTID":355652},"geometry":{"x":172529.43000000156,"y":2545114.5199999996}},{"attributes":{"ID":355662,"DIS_CODE":0,"TOWNNAME":"麻豆區","LI":"南勢里","LIN":"20鄰","STREET":" ","SECT":" ","MAREA":"南勢","LANE":" ","ALLEY":" ","HOUSE_NO":"３８號之６５","E_COORD97":174525.17698600001,"N_COORD97":2564643.2960899998,"ADDRESS":"南勢３８號之６５","OBJECTID":355653},"geometry":{"x":174525.17698599957,"y":2564643.2960920017}},{"attributes":{"ID":355663,"DIS_CODE":0,"TOWNNAME":"麻豆區","LI":"南勢里","LIN":"20鄰","STREET":" ","SECT":" ","MAREA":"南勢","LANE":" ","ALLEY":" ","HOUSE_NO":"３８號之６７","E_COORD97":174529.41410699999,"N_COORD97":2564633.1360999998,"ADDRESS":"南勢３８號之６７","OBJECTID":355654},"geometry":{"x":174529.41410700046,"y":2564633.136098003}},{"attributes":{"ID":355664,"DIS_CODE":0,"TOWNNAME":"麻豆區","LI":"南勢里","LIN":"20鄰","STREET":" ","SECT":" ","MAREA":"南勢","LANE":" ","ALLEY":" ","HOUSE_NO":"３８號之６８","E_COORD97":174531.32081199999,"N_COORD97":2564628.6910999999,"ADDRESS":"南勢３８號之６８","OBJECTID":355655},"geometry":{"x":174531.32081200182,"y":2564628.6910999995}},{"attributes":{"ID":355665,"DIS_CODE":0,"TOWNNAME":"麻豆區","LI":"南勢里","LIN":"20鄰","STREET":" ","SECT":" ","MAREA":"南勢","LANE":" ","ALLEY":" ","HOUSE_NO":"３８號之６９","E_COORD97":174533.86308400001,"N_COORD97":2564624.0344400001,"ADDRESS":"南勢３８號之６９","OBJECTID":355656},"geometry":{"x":174533.8630839996,"y":2564624.0344360042}},{"attributes":{"ID":355666,"DIS_CODE":0,"TOWNNAME":"麻豆區","LI":"南勢里","LIN":"20鄰","STREET":" ","SECT":" ","MAREA":"南勢","LANE":" ","ALLEY":" ","HOUSE_NO":"３８號之６","E_COORD97":174453.53,"N_COORD97":2564828.0499999998,"ADDRESS":"南勢３８號之６","OBJECTID":355657},"geometry":{"x":174453.53000000119,"y":2564828.0500000045}},{"attributes":{"ID":355667,"DIS_CODE":0,"TOWNNAME":"麻豆區","LI":"南勢里","LIN":"20鄰","STREET":" ","SECT":" ","MAREA":"南勢","LANE":" ","ALLEY":" ","HOUSE_NO":"３８號之７０","E_COORD97":174535.452005,"N_COORD97":2564618.8486100002,"ADDRESS":"南勢３８號之７０","OBJECTID":355658},"geometry":{"x":174535.45200500078,"y":2564618.8486059997}},{"attributes":{"ID":355668,"DIS_CODE":0,"TOWNNAME":"麻豆區","LI":"南勢里","LIN":"20鄰","STREET":" ","SECT":" ","MAREA":"南勢","LANE":" ","ALLEY":" ","HOUSE_NO":"３８號之７１","E_COORD97":174536.934997,"N_COORD97":2564614.61528,"ADDRESS":"南勢３８號之７１","OBJECTID":355659},"geometry":{"x":174536.93499700073,"y":2564614.6152750012}},{"attributes":{"ID":355669,"DIS_CODE":0,"TOWNNAME":"北區","LI":"和順里","LIN":"33鄰","STREET":"公園南路","SECT":" ","MAREA":" ","LANE":"３６２巷","ALLEY":" ","HOUSE_NO":"２號十七樓之３","E_COORD97":168277.03,"N_COORD97":2544888.98,"ADDRESS":"公園南路３６２巷２號十七樓之３","OBJECTID":355660},"geometry":{"x":168277.03000000026,"y":2544888.9800000004}},{"attributes":{"ID":355670,"DIS_CODE":0,"TOWNNAME":"北區","LI":"和順里","LIN":"33鄰","STREET":"公園南路","SECT":" ","MAREA":" ","LANE":"３６２巷","ALLEY":" ","HOUSE_NO":"２號十九樓之１","E_COORD97":168277.03,"N_COORD97":2544888.98,"ADDRESS":"公園南路３６２巷２號十九樓之１","OBJECTID":355661},"geometry":{"x":168277.03000000026,"y":2544888.9800000004}},{"attributes":{"ID":355671,"DIS_CODE":0,"TOWNNAME":"北區","LI":"和順里","LIN":"33鄰","STREET":"公園南路","SECT":" ","MAREA":" ","LANE":"３６２巷","ALLEY":" ","HOUSE_NO":"２號十九樓之２","E_COORD97":168277.03,"N_COORD97":2544888.98,"ADDRESS":"公園南路３６２巷２號十九樓之２","OBJECTID":355662},"geometry":{"x":168277.03000000026,"y":2544888.9800000004}},{"attributes":{"ID":355672,"DIS_CODE":0,"TOWNNAME":"東區","LI":"大學里","LIN":"20鄰","STREET":"大學路","SECT":" ","MAREA":" ","LANE":"２２巷","ALLEY":" ","HOUSE_NO":"２８號","E_COORD97":170162.29000000001,"N_COORD97":2543876.5600000001,"ADDRESS":"大學路２２巷２８號","OBJECTID":355663},"geometry":{"x":170162.29000000004,"y":2543876.5600000024}},{"attributes":{"ID":355673,"DIS_CODE":0,"TOWNNAME":"北區","LI":"和順里","LIN":"33鄰","STREET":"公園南路","SECT":" ","MAREA":" ","LANE":"３６２巷","ALLEY":" ","HOUSE_NO":"２號十九樓之３","E_COORD97":168277.03,"N_COORD97":2544888.98,"ADDRESS":"公園南路３６２巷２號十九樓之３","OBJECTID":355664},"geometry":{"x":168277.03000000026,"y":2544888.9800000004}},{"attributes":{"ID":355674,"DIS_CODE":0,"TOWNNAME":"北區","LI":"和順里","LIN":"33鄰","STREET":"公園南路","SECT":" ","MAREA":" ","LANE":"３６２巷","ALLEY":" ","HOUSE_NO":"２號十二樓之１","E_COORD97":168277.03,"N_COORD97":2544888.98,"ADDRESS":"公園南路３６２巷２號十二樓之１","OBJECTID":355665},"geometry":{"x":168277.03000000026,"y":2544888.9800000004}},{"attributes":{"ID":355675,"DIS_CODE":0,"TOWNNAME":"北區","LI":"和順里","LIN":"33鄰","STREET":"公園南路","SECT":" ","MAREA":" ","LANE":"３６２巷","ALLEY":" ","HOUSE_NO":"２號十二樓之２","E_COORD97":168277.03,"N_COORD97":2544888.98,"ADDRESS":"公園南路３６２巷２號十二樓之２","OBJECTID":355666},"geometry":{"x":168277.03000000026,"y":2544888.9800000004}},{"attributes":{"ID":355676,"DIS_CODE":0,"TOWNNAME":"北區","LI":"和順里","LIN":"33鄰","STREET":"公園南路","SECT":" ","MAREA":" ","LANE":"３６２巷","ALLEY":" ","HOUSE_NO":"２號十二樓之３","E_COORD97":168277.03,"N_COORD97":2544888.98,"ADDRESS":"公園南路３６２巷２號十二樓之３","OBJECTID":355667},"geometry":{"x":168277.03000000026,"y":2544888.9800000004}},{"attributes":{"ID":355677,"DIS_CODE":0,"TOWNNAME":"北區","LI":"和順里","LIN":"33鄰","STREET":"公園南路","SECT":" ","MAREA":" ","LANE":"３６２巷","ALLEY":" ","HOUSE_NO":"２號十八樓之１","E_COORD97":168277.03,"N_COORD97":2544888.98,"ADDRESS":"公園南路３６２巷２號十八樓之１","OBJECTID":355668},"geometry":{"x":168277.03000000026,"y":2544888.9800000004}},{"attributes":{"ID":355678,"DIS_CODE":0,"TOWNNAME":"北區","LI":"和順里","LIN":"33鄰","STREET":"公園南路","SECT":" ","MAREA":" ","LANE":"３６２巷","ALLEY":" ","HOUSE_NO":"２號十八樓之２","E_COORD97":168277.03,"N_COORD97":2544888.98,"ADDRESS":"公園南路３６２巷２號十八樓之２","OBJECTID":355669},"geometry":{"x":168277.03000000026,"y":2544888.9800000004}},{"attributes":{"ID":355679,"DIS_CODE":0,"TOWNNAME":"北區","LI":"和順里","LIN":"33鄰","STREET":"公園南路","SECT":" ","MAREA":" ","LANE":"３６２巷","ALLEY":" ","HOUSE_NO":"２號十八樓之３","E_COORD97":168277.03,"N_COORD97":2544888.98,"ADDRESS":"公園南路３６２巷２號十八樓之３","OBJECTID":355670},"geometry":{"x":168277.03000000026,"y":2544888.9800000004}},{"attributes":{"ID":355680,"DIS_CODE":0,"TOWNNAME":"北區","LI":"和順里","LIN":"33鄰","STREET":"公園南路","SECT":" ","MAREA":" ","LANE":"３６２巷","ALLEY":" ","HOUSE_NO":"２號十三樓之１","E_COORD97":168277.03,"N_COORD97":2544888.98,"ADDRESS":"公園南路３６２巷２號十三樓之１","OBJECTID":355671},"geometry":{"x":168277.03000000026,"y":2544888.9800000004}},{"attributes":{"ID":355681,"DIS_CODE":0,"TOWNNAME":"北區","LI":"和順里","LIN":"33鄰","STREET":"公園南路","SECT":" ","MAREA":" ","LANE":"３６２巷","ALLEY":" ","HOUSE_NO":"２號十三樓之２","E_COORD97":168277.03,"N_COORD97":2544888.98,"ADDRESS":"公園南路３６２巷２號十三樓之２","OBJECTID":355672},"geometry":{"x":168277.03000000026,"y":2544888.9800000004}},{"attributes":{"ID":355682,"DIS_CODE":0,"TOWNNAME":"北區","LI":"和順里","LIN":"33鄰","STREET":"公園南路","SECT":" ","MAREA":" ","LANE":"３６２巷","ALLEY":" ","HOUSE_NO":"２號十三樓之３","E_COORD97":168277.03,"N_COORD97":2544888.98,"ADDRESS":"公園南路３６２巷２號十三樓之３","OBJECTID":355673},"geometry":{"x":168277.03000000026,"y":2544888.9800000004}},{"attributes":{"ID":355683,"DIS_CODE":0,"TOWNNAME":"北區","LI":"和順里","LIN":"33鄰","STREET":"公園南路","SECT":" ","MAREA":" ","LANE":"３６２巷","ALLEY":" ","HOUSE_NO":"２號十五樓之１","E_COORD97":168277.03,"N_COORD97":2544888.98,"ADDRESS":"公園南路３６２巷２號十五樓之１","OBJECTID":355674},"geometry":{"x":168277.03000000026,"y":2544888.9800000004}},{"attributes":{"ID":355684,"DIS_CODE":0,"TOWNNAME":"北區","LI":"和順里","LIN":"33鄰","STREET":"公園南路","SECT":" ","MAREA":" ","LANE":"３６２巷","ALLEY":" ","HOUSE_NO":"２號十五樓之２","E_COORD97":168277.03,"N_COORD97":2544888.98,"ADDRESS":"公園南路３６２巷２號十五樓之２","OBJECTID":355675},"geometry":{"x":168277.03000000026,"y":2544888.9800000004}},{"attributes":{"ID":355685,"DIS_CODE":0,"TOWNNAME":"北區","LI":"和順里","LIN":"33鄰","STREET":"公園南路","SECT":" ","MAREA":" ","LANE":"３６２巷","ALLEY":" ","HOUSE_NO":"２號十五樓之３","E_COORD97":168277.03,"N_COORD97":2544888.98,"ADDRESS":"公園南路３６２巷２號十五樓之３","OBJECTID":355676},"geometry":{"x":168277.03000000026,"y":2544888.9800000004}},{"attributes":{"ID":355686,"DIS_CODE":0,"TOWNNAME":"北區","LI":"和順里","LIN":"33鄰","STREET":"公園南路","SECT":" ","MAREA":" ","LANE":"３６２巷","ALLEY":" ","HOUSE_NO":"２號十六樓之１","E_COORD97":168277.03,"N_COORD97":2544888.98,"ADDRESS":"公園南路３６２巷２號十六樓之１","OBJECTID":355677},"geometry":{"x":168277.03000000026,"y":2544888.9800000004}},{"attributes":{"ID":355687,"DIS_CODE":0,"TOWNNAME":"北區","LI":"和順里","LIN":"33鄰","STREET":"公園南路","SECT":" ","MAREA":" ","LANE":"３６２巷","ALLEY":" ","HOUSE_NO":"２號十六樓之２","E_COORD97":168277.03,"N_COORD97":2544888.98,"ADDRESS":"公園南路３６２巷２號十六樓之２","OBJECTID":355678},"geometry":{"x":168277.03000000026,"y":2544888.9800000004}},{"attributes":{"ID":355688,"DIS_CODE":0,"TOWNNAME":"北區","LI":"和順里","LIN":"33鄰","STREET":"公園南路","SECT":" ","MAREA":" ","LANE":"３６２巷","ALLEY":" ","HOUSE_NO":"２號十六樓之３","E_COORD97":168277.03,"N_COORD97":2544888.98,"ADDRESS":"公園南路３６２巷２號十六樓之３","OBJECTID":355679},"geometry":{"x":168277.03000000026,"y":2544888.9800000004}},{"attributes":{"ID":355689,"DIS_CODE":0,"TOWNNAME":"北區","LI":"和順里","LIN":"33鄰","STREET":"公園南路","SECT":" ","MAREA":" ","LANE":"３６２巷","ALLEY":" ","HOUSE_NO":"２號十四樓之１","E_COORD97":168277.03,"N_COORD97":2544888.98,"ADDRESS":"公園南路３６２巷２號十四樓之１","OBJECTID":355680},"geometry":{"x":168277.03000000026,"y":2544888.9800000004}},{"attributes":{"ID":355690,"DIS_CODE":0,"TOWNNAME":"北區","LI":"和順里","LIN":"33鄰","STREET":"公園南路","SECT":" ","MAREA":" ","LANE":"３６２巷","ALLEY":" ","HOUSE_NO":"２號十四樓之２","E_COORD97":168277.03,"N_COORD97":2544888.98,"ADDRESS":"公園南路３６２巷２號十四樓之２","OBJECTID":355681},"geometry":{"x":168277.03000000026,"y":2544888.9800000004}},{"attributes":{"ID":355691,"DIS_CODE":0,"TOWNNAME":"北區","LI":"和順里","LIN":"33鄰","STREET":"公園南路","SECT":" ","MAREA":" ","LANE":"３６２巷","ALLEY":" ","HOUSE_NO":"２號十四樓之３","E_COORD97":168277.03,"N_COORD97":2544888.98,"ADDRESS":"公園南路３６２巷２號十四樓之３","OBJECTID":355682},"geometry":{"x":168277.03000000026,"y":2544888.9800000004}},{"attributes":{"ID":355692,"DIS_CODE":0,"TOWNNAME":"中西區","LI":"永福里","LIN":"8鄰","STREET":"忠義路","SECT":"二段","MAREA":" ","LANE":" ","ALLEY":" ","HOUSE_NO":"６９號二樓","E_COORD97":168263.60000000001,"N_COORD97":2543656.1699999999,"ADDRESS":"忠義路二段６９號二樓","OBJECTID":355683},"geometry":{"x":168263.60000000056,"y":2543656.1699999999}},{"attributes":{"ID":355693,"DIS_CODE":0,"TOWNNAME":"新營區","LI":"太北里","LIN":"5鄰","STREET":" ","SECT":" ","MAREA":"太子宮","LANE":" ","ALLEY":" ","HOUSE_NO":"４２號之５","E_COORD97":175784.67999999999,"N_COORD97":2577251.0600000001,"ADDRESS":"太子宮４２號之５","OBJECTID":355684},"geometry":{"x":175784.68000000063,"y":2577251.0600000024}},{"attributes":{"ID":355694,"DIS_CODE":0,"TOWNNAME":"新營區","LI":"嘉芳里","LIN":"9鄰","STREET":" ","SECT":" ","MAREA":"茄苳腳","LANE":" ","ALLEY":" ","HOUSE_NO":"８３號","E_COORD97":176742.26999999999,"N_COORD97":2578607.29,"ADDRESS":"茄苳腳８３號","OBJECTID":355685},"geometry":{"x":176742.26999999955,"y":2578607.290000001}},{"attributes":{"ID":355695,"DIS_CODE":0,"TOWNNAME":"新營區","LI":"太南里","LIN":" ","STREET":" ","SECT":" ","MAREA":"太子宮","LANE":" ","ALLEY":" ","HOUSE_NO":"２１１之４號","E_COORD97":176160.69,"N_COORD97":2576913.6299999999,"ADDRESS":"太子宮２１１之４號","OBJECTID":355686},"geometry":{"x":176160.69000000041,"y":2576913.6300000008}},{"attributes":{"ID":355696,"DIS_CODE":0,"TOWNNAME":"東區","LI":"小東里","LIN":"20鄰","STREET":"東興路","SECT":" ","MAREA":" ","LANE":"２９６巷","ALLEY":" ","HOUSE_NO":"６號","E_COORD97":171084.91,"N_COORD97":2544034.27,"ADDRESS":"東興路２９６巷６號","OBJECTID":355687},"geometry":{"x":171084.91000000015,"y":2544034.2699999996}},{"attributes":{"ID":355697,"DIS_CODE":0,"TOWNNAME":"東區","LI":"小東里","LIN":"20鄰","STREET":"東興路","SECT":" ","MAREA":" ","LANE":"２９６巷","ALLEY":" ","HOUSE_NO":"７號","E_COORD97":171092.94,"N_COORD97":2544053.4100000001,"ADDRESS":"東興路２９６巷７號","OBJECTID":355688},"geometry":{"x":171092.94000000134,"y":2544053.410000002}},{"attributes":{"ID":355698,"DIS_CODE":0,"TOWNNAME":"東區","LI":"小東里","LIN":"20鄰","STREET":"東興路","SECT":" ","MAREA":" ","LANE":"２９６巷","ALLEY":" ","HOUSE_NO":"９號","E_COORD97":171097.60000000001,"N_COORD97":2544052.8900000001,"ADDRESS":"東興路２９６巷９號","OBJECTID":355689},"geometry":{"x":171097.60000000056,"y":2544052.8900000043}},{"attributes":{"ID":355699,"DIS_CODE":0,"TOWNNAME":"東區","LI":"小東里","LIN":"20鄰","STREET":"東興路","SECT":" ","MAREA":" ","LANE":"３１４巷","ALLEY":" ","HOUSE_NO":"１２號","E_COORD97":171110.48000000001,"N_COORD97":2544094.27,"ADDRESS":"東興路３１４巷１２號","OBJECTID":355690},"geometry":{"x":171110.48000000045,"y":2544094.2700000014}},{"attributes":{"ID":355700,"DIS_CODE":0,"TOWNNAME":"東區","LI":"小東里","LIN":"20鄰","STREET":"東興路","SECT":" ","MAREA":" ","LANE":"３１４巷","ALLEY":" ","HOUSE_NO":"１４號","E_COORD97":171115.66,"N_COORD97":2544094.1099999999,"ADDRESS":"東興路３１４巷１４號","OBJECTID":355691},"geometry":{"x":171115.66000000015,"y":2544094.1100000031}},{"attributes":{"ID":355701,"DIS_CODE":0,"TOWNNAME":"東區","LI":"小東里","LIN":"20鄰","STREET":"東興路","SECT":" ","MAREA":" ","LANE":"３１４巷","ALLEY":" ","HOUSE_NO":"４號","E_COORD97":171089.63,"N_COORD97":2544090.04,"ADDRESS":"東興路３１４巷４號","OBJECTID":355692},"geometry":{"x":171089.63000000082,"y":2544090.0399999991}},{"attributes":{"ID":355702,"DIS_CODE":0,"TOWNNAME":"東區","LI":"小東里","LIN":"20鄰","STREET":"東興路","SECT":" ","MAREA":" ","LANE":"３１４巷","ALLEY":" ","HOUSE_NO":"６號","E_COORD97":171093.85999999999,"N_COORD97":2544090.3500000001,"ADDRESS":"東興路３１４巷６號","OBJECTID":355693},"geometry":{"x":171093.86000000127,"y":2544090.3500000015}},{"attributes":{"ID":355703,"DIS_CODE":0,"TOWNNAME":"安南區","LI":"鳳凰里","LIN":"20鄰","STREET":"怡安路","SECT":"二段","MAREA":" ","LANE":"４９５巷","ALLEY":" ","HOUSE_NO":"２號","E_COORD97":167644.94914499999,"N_COORD97":2549394.8434000001,"ADDRESS":"怡安路二段４９５巷２號","OBJECTID":355694},"geometry":{"x":167644.94914500136,"y":2549394.8434050009}},{"attributes":{"ID":355704,"DIS_CODE":0,"TOWNNAME":"安南區","LI":"鳳凰里","LIN":"20鄰","STREET":"怡安路","SECT":"二段","MAREA":" ","LANE":"４９５巷","ALLEY":" ","HOUSE_NO":"８號","E_COORD97":167636.47982400001,"N_COORD97":2549386.80008,"ADDRESS":"怡安路二段４９５巷８號","OBJECTID":355695},"geometry":{"x":167636.47982400004,"y":2549386.8000760004}},{"attributes":{"ID":355705,"DIS_CODE":0,"TOWNNAME":"中西區","LI":"永福里","LIN":"8鄰","STREET":"忠義路","SECT":"二段","MAREA":" ","LANE":" ","ALLEY":" ","HOUSE_NO":"６９號八樓之１","E_COORD97":168263.60000000001,"N_COORD97":2543656.1699999999,"ADDRESS":"忠義路二段６９號八樓之１","OBJECTID":355696},"geometry":{"x":168263.60000000056,"y":2543656.1699999999}},{"attributes":{"ID":355706,"DIS_CODE":0,"TOWNNAME":"中西區","LI":"永福里","LIN":"8鄰","STREET":"忠義路","SECT":"二段","MAREA":" ","LANE":" ","ALLEY":" ","HOUSE_NO":"６９號八樓之２","E_COORD97":168263.60000000001,"N_COORD97":2543656.1699999999,"ADDRESS":"忠義路二段６９號八樓之２","OBJECTID":355697},"geometry":{"x":168263.60000000056,"y":2543656.1699999999}},{"attributes":{"ID":355707,"DIS_CODE":0,"TOWNNAME":"中西區","LI":"永福里","LIN":"8鄰","STREET":"忠義路","SECT":"二段","MAREA":" ","LANE":" ","ALLEY":" ","HOUSE_NO":"６９號三樓","E_COORD97":168263.60000000001,"N_COORD97":2543656.1699999999,"ADDRESS":"忠義路二段６９號三樓","OBJECTID":355698},"geometry":{"x":168263.60000000056,"y":2543656.1699999999}},{"attributes":{"ID":355708,"DIS_CODE":0,"TOWNNAME":"中西區","LI":"永福里","LIN":"8鄰","STREET":"忠義路","SECT":"二段","MAREA":" ","LANE":" ","ALLEY":" ","HOUSE_NO":"６９號五樓之１","E_COORD97":168263.60000000001,"N_COORD97":2543656.1699999999,"ADDRESS":"忠義路二段６９號五樓之１","OBJECTID":355699},"geometry":{"x":168263.60000000056,"y":2543656.1699999999}},{"attributes":{"ID":355709,"DIS_CODE":0,"TOWNNAME":"中西區","LI":"永福里","LIN":"8鄰","STREET":"忠義路","SECT":"二段","MAREA":" ","LANE":" ","ALLEY":" ","HOUSE_NO":"６９號五樓之２","E_COORD97":168263.60000000001,"N_COORD97":2543656.1699999999,"ADDRESS":"忠義路二段６９號五樓之２","OBJECTID":355700},"geometry":{"x":168263.60000000056,"y":2543656.1699999999}},{"attributes":{"ID":355710,"DIS_CODE":0,"TOWNNAME":"中西區","LI":"永福里","LIN":"8鄰","STREET":"忠義路","SECT":"二段","MAREA":" ","LANE":" ","ALLEY":" ","HOUSE_NO":"６９號六樓之１","E_COORD97":168263.60000000001,"N_COORD97":2543656.1699999999,"ADDRESS":"忠義路二段６９號六樓之１","OBJECTID":355701},"geometry":{"x":168263.60000000056,"y":2543656.1699999999}},{"attributes":{"ID":355711,"DIS_CODE":0,"TOWNNAME":"中西區","LI":"永福里","LIN":"8鄰","STREET":"忠義路","SECT":"二段","MAREA":" ","LANE":" ","ALLEY":" ","HOUSE_NO":"６９號六樓之２","E_COORD97":168263.60000000001,"N_COORD97":2543656.1699999999,"ADDRESS":"忠義路二段６９號六樓之２","OBJECTID":355702},"geometry":{"x":168263.60000000056,"y":2543656.1699999999}},{"attributes":{"ID":355712,"DIS_CODE":0,"TOWNNAME":"中西區","LI":"永福里","LIN":"8鄰","STREET":"忠義路","SECT":"二段","MAREA":" ","LANE":" ","ALLEY":" ","HOUSE_NO":"６９號四樓","E_COORD97":168263.60000000001,"N_COORD97":2543656.1699999999,"ADDRESS":"忠義路二段６９號四樓","OBJECTID":355703},"geometry":{"x":168263.60000000056,"y":2543656.1699999999}},{"attributes":{"ID":355713,"DIS_CODE":0,"TOWNNAME":"中西區","LI":"公正里","LIN":"8鄰","STREET":"民族路","SECT":"二段","MAREA":" ","LANE":" ","ALLEY":" ","HOUSE_NO":"５５號之１四樓","E_COORD97":169020.89000000001,"N_COORD97":2543870.2999999998,"ADDRESS":"民族路二段５５號之１四樓","OBJECTID":355704},"geometry":{"x":169020.8900000006,"y":2543870.3000000045}},{"attributes":{"ID":355714,"DIS_CODE":0,"TOWNNAME":"中西區","LI":"保安里","LIN":"8鄰","STREET":"府前路","SECT":"二段","MAREA":" ","LANE":" ","ALLEY":" ","HOUSE_NO":"３６號","E_COORD97":167640.54000000001,"N_COORD97":2543498.8500000001,"ADDRESS":"府前路二段３６號","OBJECTID":355705},"geometry":{"x":167640.54000000097,"y":2543498.8499999996}},{"attributes":{"ID":355715,"DIS_CODE":0,"TOWNNAME":"北區","LI":"和順里","LIN":"33鄰","STREET":"公園南路","SECT":" ","MAREA":" ","LANE":"３６２巷","ALLEY":" ","HOUSE_NO":"２號十樓之１","E_COORD97":168277.03,"N_COORD97":2544888.98,"ADDRESS":"公園南路３６２巷２號十樓之１","OBJECTID":355706},"geometry":{"x":168277.03000000026,"y":2544888.9800000004}},{"attributes":{"ID":355716,"DIS_CODE":0,"TOWNNAME":"北區","LI":"和順里","LIN":"33鄰","STREET":"公園南路","SECT":" ","MAREA":" ","LANE":"３６２巷","ALLEY":" ","HOUSE_NO":"２號十樓之２","E_COORD97":168277.03,"N_COORD97":2544888.98,"ADDRESS":"公園南路３６２巷２號十樓之２","OBJECTID":355707},"geometry":{"x":168277.03000000026,"y":2544888.9800000004}},{"attributes":{"ID":355717,"DIS_CODE":0,"TOWNNAME":"北區","LI":"和順里","LIN":"33鄰","STREET":"公園南路","SECT":" ","MAREA":" ","LANE":"３６２巷","ALLEY":" ","HOUSE_NO":"２號十樓之３","E_COORD97":168277.03,"N_COORD97":2544888.98,"ADDRESS":"公園南路３６２巷２號十樓之３","OBJECTID":355708},"geometry":{"x":168277.03000000026,"y":2544888.9800000004}},{"attributes":{"ID":355718,"DIS_CODE":0,"TOWNNAME":"北區","LI":"和順里","LIN":"33鄰","STREET":"公園南路","SECT":" ","MAREA":" ","LANE":"３６２巷","ALLEY":" ","HOUSE_NO":"２號三樓之１","E_COORD97":168277.03,"N_COORD97":2544888.98,"ADDRESS":"公園南路３６２巷２號三樓之１","OBJECTID":355709},"geometry":{"x":168277.03000000026,"y":2544888.9800000004}},{"attributes":{"ID":355719,"DIS_CODE":0,"TOWNNAME":"善化區","LI":"胡厝里","LIN":"20鄰","STREET":" ","SECT":" ","MAREA":"西衛","LANE":" ","ALLEY":" ","HOUSE_NO":"３６之６號","E_COORD97":174043.60999999999,"N_COORD97":2559246.52,"ADDRESS":"西衛３６之６號","OBJECTID":355710},"geometry":{"x":174043.61000000034,"y":2559246.5200000033}},{"attributes":{"ID":355720,"DIS_CODE":0,"TOWNNAME":"善化區","LI":"坐駕里","LIN":"20鄰","STREET":" ","SECT":" ","MAREA":"坐駕","LANE":" ","ALLEY":" ","HOUSE_NO":"１號之１","E_COORD97":178281.25,"N_COORD97":2558404.27,"ADDRESS":"坐駕１號之１","OBJECTID":355711},"geometry":{"x":178281.25000000093,"y":2558404.2700000014}},{"attributes":{"ID":355721,"DIS_CODE":0,"TOWNNAME":"善化區","LI":"胡厝里","LIN":"20鄰","STREET":" ","SECT":" ","MAREA":"西衛","LANE":" ","ALLEY":" ","HOUSE_NO":"３７號","E_COORD97":173960.45999999999,"N_COORD97":2559176.25,"ADDRESS":"西衛３７號","OBJECTID":355712},"geometry":{"x":173960.46000000089,"y":2559176.25}},{"attributes":{"ID":355722,"DIS_CODE":0,"TOWNNAME":"善化區","LI":"胡厝里","LIN":"20鄰","STREET":" ","SECT":" ","MAREA":"西衛","LANE":" ","ALLEY":" ","HOUSE_NO":"３６號之１１","E_COORD97":174056.57000000001,"N_COORD97":2559225.52,"ADDRESS":"西衛３６號之１１","OBJECTID":355713},"geometry":{"x":174056.57000000216,"y":2559225.5199999996}},{"attributes":{"ID":355723,"DIS_CODE":0,"TOWNNAME":"善化區","LI":"胡厝里","LIN":"20鄰","STREET":" ","SECT":" ","MAREA":"西衛","LANE":" ","ALLEY":" ","HOUSE_NO":"３７之１號","E_COORD97":173941.76999999999,"N_COORD97":2559196.7599999998,"ADDRESS":"西衛３７之１號","OBJECTID":355714},"geometry":{"x":173941.76999999955,"y":2559196.7599999998}},{"attributes":{"ID":355724,"DIS_CODE":0,"TOWNNAME":"北區","LI":"和順里","LIN":"33鄰","STREET":"公園南路","SECT":" ","MAREA":" ","LANE":"３６２巷","ALLEY":" ","HOUSE_NO":"２號三樓之２","E_COORD97":168277.03,"N_COORD97":2544888.98,"ADDRESS":"公園南路３６２巷２號三樓之２","OBJECTID":355715},"geometry":{"x":168277.03000000026,"y":2544888.9800000004}},{"attributes":{"ID":355725,"DIS_CODE":0,"TOWNNAME":"善化區","LI":"溪美里","LIN":"18鄰","STREET":" ","SECT":" ","MAREA":"溪尾","LANE":" ","ALLEY":" ","HOUSE_NO":"３１０號","E_COORD97":177517.32000000001,"N_COORD97":2561486.02,"ADDRESS":"溪尾３１０號","OBJECTID":355716},"geometry":{"x":177517.3200000003,"y":2561486.0199999996}},{"attributes":{"ID":355726,"DIS_CODE":0,"TOWNNAME":"善化區","LI":"胡家里","LIN":"20鄰","STREET":" ","SECT":" ","MAREA":"胡厝寮","LANE":" ","ALLEY":" ","HOUSE_NO":"９４號之４","E_COORD97":175365.01999999999,"N_COORD97":2560473.77,"ADDRESS":"胡厝寮９４號之４","OBJECTID":355717},"geometry":{"x":175365.02000000048,"y":2560473.7699999996}},{"attributes":{"ID":355727,"DIS_CODE":0,"TOWNNAME":"北區","LI":"和順里","LIN":"33鄰","STREET":"公園南路","SECT":" ","MAREA":" ","LANE":"３６２巷","ALLEY":" ","HOUSE_NO":"２號三樓之３","E_COORD97":168277.03,"N_COORD97":2544888.98,"ADDRESS":"公園南路３６２巷２號三樓之３","OBJECTID":355718},"geometry":{"x":168277.03000000026,"y":2544888.9800000004}},{"attributes":{"ID":355728,"DIS_CODE":0,"TOWNNAME":"善化區","LI":"坐駕里","LIN":"20鄰","STREET":" ","SECT":" ","MAREA":"坐駕","LANE":" ","ALLEY":" ","HOUSE_NO":"８７號","E_COORD97":178251.92000000001,"N_COORD97":2558331.25,"ADDRESS":"坐駕８７號","OBJECTID":355719},"geometry":{"x":178251.91999999993,"y":2558331.2500000019}},{"attributes":{"ID":355729,"DIS_CODE":0,"TOWNNAME":"新營區","LI":"嘉芳里","LIN":" ","STREET":" ","SECT":" ","MAREA":"茄苳腳","LANE":" ","ALLEY":" ","HOUSE_NO":"６０之１５號","E_COORD97":176910.98999999999,"N_COORD97":2578470.3100000001,"ADDRESS":"茄苳腳６０之１５號","OBJECTID":355720},"geometry":{"x":176910.99000000022,"y":2578470.3100000024}},{"attributes":{"ID":355730,"DIS_CODE":0,"TOWNNAME":"善化區","LI":"坐駕里","LIN":"20鄰","STREET":" ","SECT":" ","MAREA":"坐駕","LANE":" ","ALLEY":" ","HOUSE_NO":"１０９號","E_COORD97":178310.04000000001,"N_COORD97":2558326.75,"ADDRESS":"坐駕１０９號","OBJECTID":355721},"geometry":{"x":178310.04000000097,"y":2558326.7500000037}},{"attributes":{"ID":355731,"DIS_CODE":0,"TOWNNAME":"善化區","LI":"坐駕里","LIN":"20鄰","STREET":" ","SECT":" ","MAREA":"坐駕","LANE":" ","ALLEY":" ","HOUSE_NO":"７９號","E_COORD97":178267.63,"N_COORD97":2558359.25,"ADDRESS":"坐駕７９號","OBJECTID":355722},"geometry":{"x":178267.62999999989,"y":2558359.25}},{"attributes":{"ID":355732,"DIS_CODE":0,"TOWNNAME":"永康區","LI":"勝利里","LIN":"33鄰","STREET":"小東路","SECT":" ","MAREA":" ","LANE":"４４９巷","ALLEY":" ","HOUSE_NO":"５號","E_COORD97":171441.62,"N_COORD97":2544417.2400000002,"ADDRESS":"小東路４４９巷５號","OBJECTID":355723},"geometry":{"x":171441.62000000011,"y":2544417.2400000021}},{"attributes":{"ID":355733,"DIS_CODE":0,"TOWNNAME":"南區","LI":"光明里","LIN":"33鄰","STREET":"新興路","SECT":" ","MAREA":" ","LANE":"５３７巷","ALLEY":" ","HOUSE_NO":"１號四樓之１","E_COORD97":166620.31,"N_COORD97":2541616.6200000001,"ADDRESS":"新興路５３７巷１號四樓之１","OBJECTID":355724},"geometry":{"x":166620.30999999959,"y":2541616.620000001}},{"attributes":{"ID":355734,"DIS_CODE":0,"TOWNNAME":"善化區","LI":"小新里","LIN":"20鄰","STREET":" ","SECT":" ","MAREA":"小新營","LANE":" ","ALLEY":" ","HOUSE_NO":"３２６號","E_COORD97":180239.70999999999,"N_COORD97":2558190.25,"ADDRESS":"小新營３２６號","OBJECTID":355725},"geometry":{"x":180239.71000000089,"y":2558190.25}},{"attributes":{"ID":355735,"DIS_CODE":0,"TOWNNAME":"善化區","LI":"坐駕里","LIN":"20鄰","STREET":" ","SECT":" ","MAREA":"坐駕","LANE":" ","ALLEY":" ","HOUSE_NO":"７３號","E_COORD97":178267.89000000001,"N_COORD97":2558332.25,"ADDRESS":"坐駕７３號","OBJECTID":355726},"geometry":{"x":178267.89000000153,"y":2558332.25}},{"attributes":{"ID":355736,"DIS_CODE":0,"TOWNNAME":"善化區","LI":"坐駕里","LIN":"20鄰","STREET":" ","SECT":" ","MAREA":"坐駕","LANE":" ","ALLEY":" ","HOUSE_NO":"７７號","E_COORD97":178271.56,"N_COORD97":2558366.5,"ADDRESS":"坐駕７７號","OBJECTID":355727},"geometry":{"x":178271.55999999959,"y":2558366.5000000019}},{"attributes":{"ID":355737,"DIS_CODE":0,"TOWNNAME":"善化區","LI":"坐駕里","LIN":"20鄰","STREET":" ","SECT":" ","MAREA":"坐駕","LANE":" ","ALLEY":" ","HOUSE_NO":"１１３之１號","E_COORD97":178335.01000000001,"N_COORD97":2558338.27,"ADDRESS":"坐駕１１３之１號","OBJECTID":355728},"geometry":{"x":178335.01000000164,"y":2558338.2699999996}},{"attributes":{"ID":355738,"DIS_CODE":0,"TOWNNAME":"善化區","LI":"坐駕里","LIN":"20鄰","STREET":" ","SECT":" ","MAREA":"坐駕","LANE":" ","ALLEY":" ","HOUSE_NO":"１１８號","E_COORD97":178248.82000000001,"N_COORD97":2558356.25,"ADDRESS":"坐駕１１８號","OBJECTID":355729},"geometry":{"x":178248.82000000123,"y":2558356.25}},{"attributes":{"ID":355739,"DIS_CODE":0,"TOWNNAME":"北區","LI":"和順里","LIN":"33鄰","STREET":"公園南路","SECT":" ","MAREA":" ","LANE":"３６２巷","ALLEY":" ","HOUSE_NO":"２號五樓之１","E_COORD97":168277.03,"N_COORD97":2544888.98,"ADDRESS":"公園南路３６２巷２號五樓之１","OBJECTID":355730},"geometry":{"x":168277.03000000026,"y":2544888.9800000004}},{"attributes":{"ID":355740,"DIS_CODE":0,"TOWNNAME":"北區","LI":"和順里","LIN":"33鄰","STREET":"公園南路","SECT":" ","MAREA":" ","LANE":"３６２巷","ALLEY":" ","HOUSE_NO":"２號五樓之２","E_COORD97":168277.03,"N_COORD97":2544888.98,"ADDRESS":"公園南路３６２巷２號五樓之２","OBJECTID":355731},"geometry":{"x":168277.03000000026,"y":2544888.9800000004}},{"attributes":{"ID":355741,"DIS_CODE":0,"TOWNNAME":"北區","LI":"和順里","LIN":"33鄰","STREET":"公園南路","SECT":" ","MAREA":" ","LANE":"３６２巷","ALLEY":" ","HOUSE_NO":"２號五樓之３","E_COORD97":168277.03,"N_COORD97":2544888.98,"ADDRESS":"公園南路３６２巷２號五樓之３","OBJECTID":355732},"geometry":{"x":168277.03000000026,"y":2544888.9800000004}},{"attributes":{"ID":355742,"DIS_CODE":0,"TOWNNAME":"北區","LI":"和順里","LIN":"33鄰","STREET":"公園南路","SECT":" ","MAREA":" ","LANE":"３６２巷","ALLEY":" ","HOUSE_NO":"２號六樓之１","E_COORD97":168277.03,"N_COORD97":2544888.98,"ADDRESS":"公園南路３６２巷２號六樓之１","OBJECTID":355733},"geometry":{"x":168277.03000000026,"y":2544888.9800000004}},{"attributes":{"ID":355743,"DIS_CODE":0,"TOWNNAME":"北區","LI":"和順里","LIN":"33鄰","STREET":"公園南路","SECT":" ","MAREA":" ","LANE":"３６２巷","ALLEY":" ","HOUSE_NO":"２號六樓之２","E_COORD97":168277.03,"N_COORD97":2544888.98,"ADDRESS":"公園南路３６２巷２號六樓之２","OBJECTID":355734},"geometry":{"x":168277.03000000026,"y":2544888.9800000004}},{"attributes":{"ID":355744,"DIS_CODE":0,"TOWNNAME":"北區","LI":"和順里","LIN":"33鄰","STREET":"公園南路","SECT":" ","MAREA":" ","LANE":"３６２巷","ALLEY":" ","HOUSE_NO":"２號六樓之３","E_COORD97":168277.03,"N_COORD97":2544888.98,"ADDRESS":"公園南路３６２巷２號六樓之３","OBJECTID":355735},"geometry":{"x":168277.03000000026,"y":2544888.9800000004}},{"attributes":{"ID":355745,"DIS_CODE":0,"TOWNNAME":"北區","LI":"和順里","LIN":"33鄰","STREET":"公園南路","SECT":" ","MAREA":" ","LANE":"３６２巷","ALLEY":" ","HOUSE_NO":"２號四樓之１","E_COORD97":168277.03,"N_COORD97":2544888.98,"ADDRESS":"公園南路３６２巷２號四樓之１","OBJECTID":355736},"geometry":{"x":168277.03000000026,"y":2544888.9800000004}},{"attributes":{"ID":355746,"DIS_CODE":0,"TOWNNAME":"北區","LI":"和順里","LIN":"33鄰","STREET":"公園南路","SECT":" ","MAREA":" ","LANE":"３６２巷","ALLEY":" ","HOUSE_NO":"２號四樓之２","E_COORD97":168277.03,"N_COORD97":2544888.98,"ADDRESS":"公園南路３６２巷２號四樓之２","OBJECTID":355737},"geometry":{"x":168277.03000000026,"y":2544888.9800000004}},{"attributes":{"ID":355747,"DIS_CODE":0,"TOWNNAME":"北區","LI":"和順里","LIN":"33鄰","STREET":"公園南路","SECT":" ","MAREA":" ","LANE":"３６２巷","ALLEY":" ","HOUSE_NO":"２號四樓之３","E_COORD97":168277.03,"N_COORD97":2544888.98,"ADDRESS":"公園南路３６２巷２號四樓之３","OBJECTID":355738},"geometry":{"x":168277.03000000026,"y":2544888.9800000004}},{"attributes":{"ID":355748,"DIS_CODE":0,"TOWNNAME":"中西區","LI":"永華里","LIN":"20鄰","STREET":"中正路","SECT":" ","MAREA":" ","LANE":"４巷","ALLEY":" ","HOUSE_NO":"１號","E_COORD97":168388.51999999999,"N_COORD97":2543678.7400000002,"ADDRESS":"中正路４巷１號","OBJECTID":355739},"geometry":{"x":168388.51999999955,"y":2543678.7400000002}},{"attributes":{"ID":355749,"DIS_CODE":0,"TOWNNAME":"中西區","LI":"永華里","LIN":"20鄰","STREET":"中正路","SECT":" ","MAREA":" ","LANE":"４巷","ALLEY":" ","HOUSE_NO":"２號","E_COORD97":168399.57999999999,"N_COORD97":2543701.1699999999,"ADDRESS":"中正路４巷２號","OBJECTID":355740},"geometry":{"x":168399.58000000101,"y":2543701.1700000037}},{"attributes":{"ID":355750,"DIS_CODE":0,"TOWNNAME":"中西區","LI":"永華里","LIN":"20鄰","STREET":"中正路","SECT":" ","MAREA":" ","LANE":"４巷","ALLEY":" ","HOUSE_NO":"３號","E_COORD97":168388.35000000001,"N_COORD97":2543687.27,"ADDRESS":"中正路４巷３號","OBJECTID":355741},"geometry":{"x":168388.34999999963,"y":2543687.2700000014}},{"attributes":{"ID":355751,"DIS_CODE":0,"TOWNNAME":"中西區","LI":"永華里","LIN":"20鄰","STREET":"中正路","SECT":" ","MAREA":" ","LANE":"４巷","ALLEY":" ","HOUSE_NO":"５號","E_COORD97":168390.20000000001,"N_COORD97":2543696.8900000001,"ADDRESS":"中正路４巷５號","OBJECTID":355742},"geometry":{"x":168390.20000000205,"y":2543696.8900000043}},{"attributes":{"ID":355752,"DIS_CODE":0,"TOWNNAME":"中西區","LI":"永華里","LIN":"20鄰","STREET":"中正路","SECT":" ","MAREA":" ","LANE":"４巷","ALLEY":" ","HOUSE_NO":"７號","E_COORD97":168393.63,"N_COORD97":2543705.1899999999,"ADDRESS":"中正路４巷７號","OBJECTID":355743},"geometry":{"x":168393.63000000175,"y":2543705.1900000013}},{"attributes":{"ID":355753,"DIS_CODE":0,"TOWNNAME":"中西區","LI":"三民里","LIN":"20鄰","STREET":"忠義路","SECT":"二段","MAREA":" ","LANE":"１５８巷","ALLEY":" ","HOUSE_NO":"２４號","E_COORD97":168433.37,"N_COORD97":2544032.1299999999,"ADDRESS":"忠義路二段１５８巷２４號","OBJECTID":355744},"geometry":{"x":168433.37000000104,"y":2544032.129999999}},{"attributes":{"ID":355754,"DIS_CODE":0,"TOWNNAME":"中西區","LI":"三民里","LIN":"20鄰","STREET":"忠義路","SECT":"二段","MAREA":" ","LANE":"１５８巷","ALLEY":" ","HOUSE_NO":"２６號","E_COORD97":168437.63,"N_COORD97":2544034.2599999998,"ADDRESS":"忠義路二段１５８巷２６號","OBJECTID":355745},"geometry":{"x":168437.62999999896,"y":2544034.2599999998}},{"attributes":{"ID":355755,"DIS_CODE":0,"TOWNNAME":"中西區","LI":"三民里","LIN":"20鄰","STREET":"忠義路","SECT":"二段","MAREA":" ","LANE":"１５８巷","ALLEY":" ","HOUSE_NO":"２８號","E_COORD97":168441.89000000001,"N_COORD97":2544030.4700000002,"ADDRESS":"忠義路二段１５８巷２８號","OBJECTID":355746},"geometry":{"x":168441.88999999966,"y":2544030.4700000007}},{"attributes":{"ID":355756,"DIS_CODE":0,"TOWNNAME":"南區","LI":"光明里","LIN":"33鄰","STREET":"新興路","SECT":" ","MAREA":" ","LANE":"５３７巷","ALLEY":" ","HOUSE_NO":"１號七樓","E_COORD97":166620.31,"N_COORD97":2541616.6200000001,"ADDRESS":"新興路５３７巷１號七樓","OBJECTID":355747},"geometry":{"x":166620.30999999959,"y":2541616.620000001}},{"attributes":{"ID":355757,"DIS_CODE":0,"TOWNNAME":"中西區","LI":"公正里","LIN":"8鄰","STREET":"民族路","SECT":"二段","MAREA":" ","LANE":" ","ALLEY":" ","HOUSE_NO":"６７號二樓","E_COORD97":168974.97,"N_COORD97":2543870.1200000001,"ADDRESS":"民族路二段６７號二樓","OBJECTID":355748},"geometry":{"x":168974.97000000067,"y":2543870.1200000029}},{"attributes":{"ID":355758,"DIS_CODE":0,"TOWNNAME":"中西區","LI":"公正里","LIN":"8鄰","STREET":"民族路","SECT":"二段","MAREA":" ","LANE":" ","ALLEY":" ","HOUSE_NO":"６７號三樓","E_COORD97":168974.97,"N_COORD97":2543870.1200000001,"ADDRESS":"民族路二段６７號三樓","OBJECTID":355749},"geometry":{"x":168974.97000000067,"y":2543870.1200000029}},{"attributes":{"ID":355759,"DIS_CODE":0,"TOWNNAME":"中西區","LI":"公正里","LIN":"8鄰","STREET":"民族路","SECT":"二段","MAREA":" ","LANE":" ","ALLEY":" ","HOUSE_NO":"６７號五樓","E_COORD97":168974.97,"N_COORD97":2543870.1200000001,"ADDRESS":"民族路二段６７號五樓","OBJECTID":355750},"geometry":{"x":168974.97000000067,"y":2543870.1200000029}},{"attributes":{"ID":355760,"DIS_CODE":0,"TOWNNAME":"中西區","LI":"公正里","LIN":"8鄰","STREET":"民族路","SECT":"二段","MAREA":" ","LANE":" ","ALLEY":" ","HOUSE_NO":"６７號六樓","E_COORD97":168974.97,"N_COORD97":2543870.1200000001,"ADDRESS":"民族路二段６７號六樓","OBJECTID":355751},"geometry":{"x":168974.97000000067,"y":2543870.1200000029}},{"attributes":{"ID":355761,"DIS_CODE":0,"TOWNNAME":"中西區","LI":"公正里","LIN":"8鄰","STREET":"民族路","SECT":"二段","MAREA":" ","LANE":" ","ALLEY":" ","HOUSE_NO":"６７號四樓","E_COORD97":168974.97,"N_COORD97":2543870.1200000001,"ADDRESS":"民族路二段６７號四樓","OBJECTID":355752},"geometry":{"x":168974.97000000067,"y":2543870.1200000029}},{"attributes":{"ID":355762,"DIS_CODE":0,"TOWNNAME":"中西區","LI":"福安里","LIN":"8鄰","STREET":"西門路","SECT":"二段","MAREA":" ","LANE":" ","ALLEY":" ","HOUSE_NO":"１６號七樓","E_COORD97":167787.69,"N_COORD97":2543492.9900000002,"ADDRESS":"西門路二段１６號七樓","OBJECTID":355753},"geometry":{"x":167787.69000000134,"y":2543492.9900000021}},{"attributes":{"ID":355763,"DIS_CODE":0,"TOWNNAME":"中西區","LI":"福安里","LIN":"8鄰","STREET":"西門路","SECT":"二段","MAREA":" ","LANE":" ","ALLEY":" ","HOUSE_NO":"１６號九樓","E_COORD97":167787.69,"N_COORD97":2543492.9900000002,"ADDRESS":"西門路二段１６號九樓","OBJECTID":355754},"geometry":{"x":167787.69000000134,"y":2543492.9900000021}},{"attributes":{"ID":355764,"DIS_CODE":0,"TOWNNAME":"中西區","LI":"福安里","LIN":"8鄰","STREET":"西門路","SECT":"二段","MAREA":" ","LANE":" ","ALLEY":" ","HOUSE_NO":"１６號二樓","E_COORD97":167787.69,"N_COORD97":2543492.9900000002,"ADDRESS":"西門路二段１６號二樓","OBJECTID":355755},"geometry":{"x":167787.69000000134,"y":2543492.9900000021}},{"attributes":{"ID":355765,"DIS_CODE":0,"TOWNNAME":"中西區","LI":"福安里","LIN":"8鄰","STREET":"西門路","SECT":"二段","MAREA":" ","LANE":" ","ALLEY":" ","HOUSE_NO":"１６號八樓","E_COORD97":167787.69,"N_COORD97":2543492.9900000002,"ADDRESS":"西門路二段１６號八樓","OBJECTID":355756},"geometry":{"x":167787.69000000134,"y":2543492.9900000021}},{"attributes":{"ID":355766,"DIS_CODE":0,"TOWNNAME":"柳營區","LI":"旭山里","LIN":"20鄰","STREET":" ","SECT":" ","MAREA":"山子腳","LANE":" ","ALLEY":" ","HOUSE_NO":"４７號之４","E_COORD97":187210.91,"N_COORD97":2574283.5600000001,"ADDRESS":"山子腳４７號之４","OBJECTID":355757},"geometry":{"x":187210.91000000108,"y":2574283.5600000042}},{"attributes":{"ID":355767,"DIS_CODE":0,"TOWNNAME":"新營區","LI":"南紙里","LIN":"4鄰","STREET":"南紙街","SECT":" ","MAREA":" ","LANE":"２９巷","ALLEY":" ","HOUSE_NO":"１７號","E_COORD97":177892.79999999999,"N_COORD97":2577743.3700000001,"ADDRESS":"南紙街２９巷１７號","OBJECTID":355758},"geometry":{"x":177892.80000000075,"y":2577743.3699999992}},{"attributes":{"ID":355768,"DIS_CODE":0,"TOWNNAME":"永康區","LI":"網寮里","LIN":"20鄰","STREET":"永二街","SECT":" ","MAREA":" ","LANE":"２４５巷","ALLEY":" ","HOUSE_NO":"４７號之１","E_COORD97":173235.07000000001,"N_COORD97":2545958.48,"ADDRESS":"永二街２４５巷４７號之１","OBJECTID":355759},"geometry":{"x":173235.07000000123,"y":2545958.4800000023}},{"attributes":{"ID":355769,"DIS_CODE":0,"TOWNNAME":"永康區","LI":"網寮里","LIN":"20鄰","STREET":"永二街","SECT":" ","MAREA":" ","LANE":"２４５巷","ALLEY":" ","HOUSE_NO":"２７號之７","E_COORD97":173338.37,"N_COORD97":2546120.3799999999,"ADDRESS":"永二街２４５巷２７號之７","OBJECTID":355760},"geometry":{"x":173338.37000000011,"y":2546120.3800000008}},{"attributes":{"ID":355770,"DIS_CODE":0,"TOWNNAME":"永康區","LI":"復興里","LIN":"20鄰","STREET":"復興路","SECT":" ","MAREA":" ","LANE":"３５６巷","ALLEY":" ","HOUSE_NO":"５０號","E_COORD97":172318.67999999999,"N_COORD97":2544444.8399999999,"ADDRESS":"復興路３５６巷５０號","OBJECTID":355761},"geometry":{"x":172318.6799999997,"y":2544444.8399999999}},{"attributes":{"ID":355771,"DIS_CODE":0,"TOWNNAME":"永康區","LI":"網寮里","LIN":"20鄰","STREET":"永二街","SECT":" ","MAREA":" ","LANE":"２４５巷","ALLEY":" ","HOUSE_NO":"２７號之３","E_COORD97":173334.94,"N_COORD97":2546133.6200000001,"ADDRESS":"永二街２４５巷２７號之３","OBJECTID":355762},"geometry":{"x":173334.94000000041,"y":2546133.6200000048}},{"attributes":{"ID":355772,"DIS_CODE":0,"TOWNNAME":"永康區","LI":"網寮里","LIN":"20鄰","STREET":"永二街","SECT":" ","MAREA":" ","LANE":"２４５巷","ALLEY":" ","HOUSE_NO":"３０號","E_COORD97":173289.56,"N_COORD97":2546138.8100000001,"ADDRESS":"永二街２４５巷３０號","OBJECTID":355763},"geometry":{"x":173289.56000000145,"y":2546138.8100000024}},{"attributes":{"ID":355773,"DIS_CODE":0,"TOWNNAME":"東區","LI":"莊敬里","LIN":"20鄰","STREET":"東光路","SECT":"二段","MAREA":" ","LANE":"３６巷","ALLEY":" ","HOUSE_NO":"４號","E_COORD97":171245.41,"N_COORD97":2544046.04,"ADDRESS":"東光路二段３６巷４號","OBJECTID":355764},"geometry":{"x":171245.41000000108,"y":2544046.0399999991}},{"attributes":{"ID":355774,"DIS_CODE":0,"TOWNNAME":"南區","LI":"光明里","LIN":"33鄰","STREET":"新興路","SECT":" ","MAREA":" ","LANE":"５３７巷","ALLEY":" ","HOUSE_NO":"１號七樓之１","E_COORD97":166620.31,"N_COORD97":2541616.6200000001,"ADDRESS":"新興路５３７巷１號七樓之１","OBJECTID":355765},"geometry":{"x":166620.30999999959,"y":2541616.620000001}},{"attributes":{"ID":355775,"DIS_CODE":0,"TOWNNAME":"南區","LI":"光明里","LIN":"33鄰","STREET":"新興路","SECT":" ","MAREA":" ","LANE":"５３７巷","ALLEY":" ","HOUSE_NO":"１號七樓之２","E_COORD97":166620.31,"N_COORD97":2541616.6200000001,"ADDRESS":"新興路５３７巷１號七樓之２","OBJECTID":355766},"geometry":{"x":166620.30999999959,"y":2541616.620000001}},{"attributes":{"ID":355776,"DIS_CODE":0,"TOWNNAME":"南區","LI":"光明里","LIN":"33鄰","STREET":"新興路","SECT":" ","MAREA":" ","LANE":"５３７巷","ALLEY":" ","HOUSE_NO":"１號七樓之３","E_COORD97":166620.31,"N_COORD97":2541616.6200000001,"ADDRESS":"新興路５３７巷１號七樓之３","OBJECTID":355767},"geometry":{"x":166620.30999999959,"y":2541616.620000001}},{"attributes":{"ID":355777,"DIS_CODE":0,"TOWNNAME":"南區","LI":"光明里","LIN":"33鄰","STREET":"新興路","SECT":" ","MAREA":" ","LANE":"５３７巷","ALLEY":" ","HOUSE_NO":"１號九樓","E_COORD97":166620.31,"N_COORD97":2541616.6200000001,"ADDRESS":"新興路５３７巷１號九樓","OBJECTID":355768},"geometry":{"x":166620.30999999959,"y":2541616.620000001}},{"attributes":{"ID":355778,"DIS_CODE":0,"TOWNNAME":"南區","LI":"光明里","LIN":"33鄰","STREET":"新興路","SECT":" ","MAREA":" ","LANE":"５３７巷","ALLEY":" ","HOUSE_NO":"１號九樓之１","E_COORD97":166620.31,"N_COORD97":2541616.6200000001,"ADDRESS":"新興路５３７巷１號九樓之１","OBJECTID":355769},"geometry":{"x":166620.30999999959,"y":2541616.620000001}},{"attributes":{"ID":355779,"DIS_CODE":0,"TOWNNAME":"南區","LI":"光明里","LIN":"33鄰","STREET":"新興路","SECT":" ","MAREA":" ","LANE":"５３７巷","ALLEY":" ","HOUSE_NO":"１號九樓之２","E_COORD97":166620.31,"N_COORD97":2541616.6200000001,"ADDRESS":"新興路５３７巷１號九樓之２","OBJECTID":355770},"geometry":{"x":166620.30999999959,"y":2541616.620000001}},{"attributes":{"ID":355780,"DIS_CODE":0,"TOWNNAME":"南區","LI":"光明里","LIN":"33鄰","STREET":"新興路","SECT":" ","MAREA":" ","LANE":"５３７巷","ALLEY":" ","HOUSE_NO":"１號九樓之３","E_COORD97":166620.31,"N_COORD97":2541616.6200000001,"ADDRESS":"新興路５３７巷１號九樓之３","OBJECTID":355771},"geometry":{"x":166620.30999999959,"y":2541616.620000001}},{"attributes":{"ID":355781,"DIS_CODE":0,"TOWNNAME":"南區","LI":"光明里","LIN":"33鄰","STREET":"新興路","SECT":" ","MAREA":" ","LANE":"５３７巷","ALLEY":" ","HOUSE_NO":"１號二樓","E_COORD97":166620.31,"N_COORD97":2541616.6200000001,"ADDRESS":"新興路５３７巷１號二樓","OBJECTID":355772},"geometry":{"x":166620.30999999959,"y":2541616.620000001}},{"attributes":{"ID":355782,"DIS_CODE":0,"TOWNNAME":"南區","LI":"光明里","LIN":"33鄰","STREET":"新興路","SECT":" ","MAREA":" ","LANE":"５３７巷","ALLEY":" ","HOUSE_NO":"１號二樓之１","E_COORD97":166620.31,"N_COORD97":2541616.6200000001,"ADDRESS":"新興路５３７巷１號二樓之１","OBJECTID":355773},"geometry":{"x":166620.30999999959,"y":2541616.620000001}},{"attributes":{"ID":355783,"DIS_CODE":0,"TOWNNAME":"南區","LI":"光明里","LIN":"33鄰","STREET":"新興路","SECT":" ","MAREA":" ","LANE":"５３７巷","ALLEY":" ","HOUSE_NO":"１號二樓之２","E_COORD97":166620.31,"N_COORD97":2541616.6200000001,"ADDRESS":"新興路５３７巷１號二樓之２","OBJECTID":355774},"geometry":{"x":166620.30999999959,"y":2541616.620000001}},{"attributes":{"ID":355784,"DIS_CODE":0,"TOWNNAME":"中西區","LI":"福安里","LIN":"8鄰","STREET":"西門路","SECT":"二段","MAREA":" ","LANE":" ","ALLEY":" ","HOUSE_NO":"１６號十樓","E_COORD97":167787.69,"N_COORD97":2543492.9900000002,"ADDRESS":"西門路二段１６號十樓","OBJECTID":355775},"geometry":{"x":167787.69000000134,"y":2543492.9900000021}},{"attributes":{"ID":355785,"DIS_CODE":0,"TOWNNAME":"中西區","LI":"福安里","LIN":"8鄰","STREET":"西門路","SECT":"二段","MAREA":" ","LANE":" ","ALLEY":" ","HOUSE_NO":"１６號三樓","E_COORD97":167787.69,"N_COORD97":2543492.9900000002,"ADDRESS":"西門路二段１６號三樓","OBJECTID":355776},"geometry":{"x":167787.69000000134,"y":2543492.9900000021}},{"attributes":{"ID":355786,"DIS_CODE":0,"TOWNNAME":"中西區","LI":"福安里","LIN":"8鄰","STREET":"西門路","SECT":"二段","MAREA":" ","LANE":" ","ALLEY":" ","HOUSE_NO":"１６號五樓","E_COORD97":167787.69,"N_COORD97":2543492.9900000002,"ADDRESS":"西門路二段１６號五樓","OBJECTID":355777},"geometry":{"x":167787.69000000134,"y":2543492.9900000021}},{"attributes":{"ID":355787,"DIS_CODE":0,"TOWNNAME":"中西區","LI":"福安里","LIN":"8鄰","STREET":"西門路","SECT":"二段","MAREA":" ","LANE":" ","ALLEY":" ","HOUSE_NO":"１６號六樓","E_COORD97":167787.69,"N_COORD97":2543492.9900000002,"ADDRESS":"西門路二段１６號六樓","OBJECTID":355778},"geometry":{"x":167787.69000000134,"y":2543492.9900000021}},{"attributes":{"ID":355788,"DIS_CODE":0,"TOWNNAME":"中西區","LI":"福安里","LIN":"8鄰","STREET":"西門路","SECT":"二段","MAREA":" ","LANE":" ","ALLEY":" ","HOUSE_NO":"１６號四樓","E_COORD97":167787.69,"N_COORD97":2543492.9900000002,"ADDRESS":"西門路二段１６號四樓","OBJECTID":355779},"geometry":{"x":167787.69000000134,"y":2543492.9900000021}},{"attributes":{"ID":355789,"DIS_CODE":0,"TOWNNAME":"永康區","LI":"二王里","LIN":"8鄰","STREET":"二王路","SECT":" ","MAREA":" ","LANE":" ","ALLEY":" ","HOUSE_NO":"１６號十四樓之１","E_COORD97":172971.12,"N_COORD97":2546832.3199999998,"ADDRESS":"二王路１６號十四樓之１","OBJECTID":355780},"geometry":{"x":172971.12000000197,"y":2546832.3200000003}},{"attributes":{"ID":355790,"DIS_CODE":0,"TOWNNAME":"東區","LI":"東門里","LIN":"8鄰","STREET":"前鋒路","SECT":" ","MAREA":" ","LANE":" ","ALLEY":" ","HOUSE_NO":"２６號三樓","E_COORD97":169301.32999999999,"N_COORD97":2543440.04,"ADDRESS":"前鋒路２６號三樓","OBJECTID":355781},"geometry":{"x":169301.33000000101,"y":2543440.0400000028}},{"attributes":{"ID":355791,"DIS_CODE":0,"TOWNNAME":"永康區","LI":"南灣里","LIN":"1鄰","STREET":"大灣二街","SECT":" ","MAREA":" ","LANE":" ","ALLEY":" ","HOUSE_NO":"１２３號","E_COORD97":174719.29000000001,"N_COORD97":2544800.6899999999,"ADDRESS":"大灣二街１２３號","OBJECTID":355782},"geometry":{"x":174719.2900000019,"y":2544800.6899999995}},{"attributes":{"ID":355792,"DIS_CODE":0,"TOWNNAME":"仁德區","LI":"太子里","LIN":"20鄰","STREET":"長興四街","SECT":" ","MAREA":" ","LANE":" ","ALLEY":" ","HOUSE_NO":"３４號","E_COORD97":174000.16,"N_COORD97":2543619.2599999998,"ADDRESS":"長興四街３４號","OBJECTID":355783},"geometry":{"x":174000.16000000108,"y":2543619.2600000016}},{"attributes":{"ID":355793,"DIS_CODE":0,"TOWNNAME":"仁德區","LI":"太子里","LIN":"20鄰","STREET":"長興四街","SECT":" ","MAREA":" ","LANE":" ","ALLEY":" ","HOUSE_NO":"３８號","E_COORD97":173995.73999999999,"N_COORD97":2543611.5099999998,"ADDRESS":"長興四街３８號","OBJECTID":355784},"geometry":{"x":173995.74000000022,"y":2543611.5100000016}},{"attributes":{"ID":355794,"DIS_CODE":0,"TOWNNAME":"安南區","LI":"理想里","LIN":"20鄰","STREET":"同安路","SECT":" ","MAREA":" ","LANE":"６８巷","ALLEY":" ","HOUSE_NO":"１３８號","E_COORD97":167078.85899000001,"N_COORD97":2548654.6923799999,"ADDRESS":"同安路６８巷１３８號","OBJECTID":355785},"geometry":{"x":167078.85899000056,"y":2548654.6923830025}},{"attributes":{"ID":355795,"DIS_CODE":0,"TOWNNAME":"南區","LI":"光明里","LIN":"33鄰","STREET":"新興路","SECT":" ","MAREA":" ","LANE":"５３７巷","ALLEY":" ","HOUSE_NO":"１號二樓之３","E_COORD97":166620.31,"N_COORD97":2541616.6200000001,"ADDRESS":"新興路５３７巷１號二樓之３","OBJECTID":355786},"geometry":{"x":166620.30999999959,"y":2541616.620000001}},{"attributes":{"ID":355796,"DIS_CODE":0,"TOWNNAME":"南區","LI":"光明里","LIN":"33鄰","STREET":"新興路","SECT":" ","MAREA":" ","LANE":"５３７巷","ALLEY":" ","HOUSE_NO":"１號八樓","E_COORD97":166620.31,"N_COORD97":2541616.6200000001,"ADDRESS":"新興路５３７巷１號八樓","OBJECTID":355787},"geometry":{"x":166620.30999999959,"y":2541616.620000001}},{"attributes":{"ID":355797,"DIS_CODE":0,"TOWNNAME":"南區","LI":"光明里","LIN":"33鄰","STREET":"新興路","SECT":" ","MAREA":" ","LANE":"５３７巷","ALLEY":" ","HOUSE_NO":"１號八樓之１","E_COORD97":166620.31,"N_COORD97":2541616.6200000001,"ADDRESS":"新興路５３７巷１號八樓之１","OBJECTID":355788},"geometry":{"x":166620.30999999959,"y":2541616.620000001}},{"attributes":{"ID":355798,"DIS_CODE":0,"TOWNNAME":"南區","LI":"光明里","LIN":"33鄰","STREET":"新興路","SECT":" ","MAREA":" ","LANE":"５３７巷","ALLEY":" ","HOUSE_NO":"１號八樓之２","E_COORD97":166620.31,"N_COORD97":2541616.6200000001,"ADDRESS":"新興路５３７巷１號八樓之２","OBJECTID":355789},"geometry":{"x":166620.30999999959,"y":2541616.620000001}},{"attributes":{"ID":355799,"DIS_CODE":0,"TOWNNAME":"南區","LI":"光明里","LIN":"33鄰","STREET":"新興路","SECT":" ","MAREA":" ","LANE":"５３７巷","ALLEY":" ","HOUSE_NO":"１號八樓之３","E_COORD97":166620.31,"N_COORD97":2541616.6200000001,"ADDRESS":"新興路５３７巷１號八樓之３","OBJECTID":355790},"geometry":{"x":166620.30999999959,"y":2541616.620000001}},{"attributes":{"ID":355800,"DIS_CODE":0,"TOWNNAME":"南區","LI":"光明里","LIN":"33鄰","STREET":"新興路","SECT":" ","MAREA":" ","LANE":"５３７巷","ALLEY":" ","HOUSE_NO":"１號十樓","E_COORD97":166620.31,"N_COORD97":2541616.6200000001,"ADDRESS":"新興路５３７巷１號十樓","OBJECTID":355791},"geometry":{"x":166620.30999999959,"y":2541616.620000001}},{"attributes":{"ID":355801,"DIS_CODE":0,"TOWNNAME":"南區","LI":"光明里","LIN":"33鄰","STREET":"新興路","SECT":" ","MAREA":" ","LANE":"５３７巷","ALLEY":" ","HOUSE_NO":"１號六樓","E_COORD97":166620.31,"N_COORD97":2541616.6200000001,"ADDRESS":"新興路５３７巷１號六樓","OBJECTID":355792},"geometry":{"x":166620.30999999959,"y":2541616.620000001}},{"attributes":{"ID":355802,"DIS_CODE":0,"TOWNNAME":"南區","LI":"光明里","LIN":"33鄰","STREET":"新興路","SECT":" ","MAREA":" ","LANE":"５３７巷","ALLEY":" ","HOUSE_NO":"１號六樓之１","E_COORD97":166620.31,"N_COORD97":2541616.6200000001,"ADDRESS":"新興路５３７巷１號六樓之１","OBJECTID":355793},"geometry":{"x":166620.30999999959,"y":2541616.620000001}},{"attributes":{"ID":355803,"DIS_CODE":0,"TOWNNAME":"南區","LI":"光明里","LIN":"33鄰","STREET":"新興路","SECT":" ","MAREA":" ","LANE":"５３７巷","ALLEY":" ","HOUSE_NO":"１號六樓之２","E_COORD97":166620.31,"N_COORD97":2541616.6200000001,"ADDRESS":"新興路５３７巷１號六樓之２","OBJECTID":355794},"geometry":{"x":166620.30999999959,"y":2541616.620000001}},{"attributes":{"ID":355804,"DIS_CODE":0,"TOWNNAME":"南區","LI":"光明里","LIN":"33鄰","STREET":"新興路","SECT":" ","MAREA":" ","LANE":"５３７巷","ALLEY":" ","HOUSE_NO":"１號六樓之３","E_COORD97":166620.31,"N_COORD97":2541616.6200000001,"ADDRESS":"新興路５３７巷１號六樓之３","OBJECTID":355795},"geometry":{"x":166620.30999999959,"y":2541616.620000001}},{"attributes":{"ID":355805,"DIS_CODE":0,"TOWNNAME":"南區","LI":"光明里","LIN":"33鄰","STREET":"新興路","SECT":" ","MAREA":" ","LANE":"５３７巷","ALLEY":" ","HOUSE_NO":"１號四樓","E_COORD97":166620.31,"N_COORD97":2541616.6200000001,"ADDRESS":"新興路５３７巷１號四樓","OBJECTID":355796},"geometry":{"x":166620.30999999959,"y":2541616.620000001}},{"attributes":{"ID":355806,"DIS_CODE":0,"TOWNNAME":"南區","LI":"光明里","LIN":"33鄰","STREET":"新興路","SECT":" ","MAREA":" ","LANE":"５３７巷","ALLEY":" ","HOUSE_NO":"１號四樓之２","E_COORD97":166620.31,"N_COORD97":2541616.6200000001,"ADDRESS":"新興路５３７巷１號四樓之２","OBJECTID":355797},"geometry":{"x":166620.30999999959,"y":2541616.620000001}},{"attributes":{"ID":355807,"DIS_CODE":0,"TOWNNAME":"南區","LI":"光明里","LIN":"33鄰","STREET":"新興路","SECT":" ","MAREA":" ","LANE":"５３７巷","ALLEY":" ","HOUSE_NO":"１號四樓之３","E_COORD97":166620.31,"N_COORD97":2541616.6200000001,"ADDRESS":"新興路５３７巷１號四樓之３","OBJECTID":355798},"geometry":{"x":166620.30999999959,"y":2541616.620000001}},{"attributes":{"ID":355808,"DIS_CODE":0,"TOWNNAME":"歸仁區","LI":"後市里","LIN":"33鄰","STREET":"文化街","SECT":"二段","MAREA":" ","LANE":"５３巷","ALLEY":" ","HOUSE_NO":"５號六樓","E_COORD97":177407.48999999999,"N_COORD97":2541073.7599999998,"ADDRESS":"文化街二段５３巷５號六樓","OBJECTID":355799},"geometry":{"x":177407.49000000022,"y":2541073.7600000016}},{"attributes":{"ID":355809,"DIS_CODE":0,"TOWNNAME":"東區","LI":"東門里","LIN":"8鄰","STREET":"前鋒路","SECT":" ","MAREA":" ","LANE":" ","ALLEY":" ","HOUSE_NO":"２６號之１二樓","E_COORD97":169316.29999999999,"N_COORD97":2543437.8399999999,"ADDRESS":"前鋒路２６號之１二樓","OBJECTID":355800},"geometry":{"x":169316.30000000168,"y":2543437.8399999999}}]}