{"displayFieldName":"TOWNNAME","fieldAliases":{"ID":"ID","DIS_CODE":"DIS_CODE","TOWNNAME":"TOWNNAME","LI":"LI","LIN":"LIN","STREET":"STREET","SECT":"SECT","MAREA":"MAREA","LANE":"LANE","ALLEY":"ALLEY","HOUSE_NO":"HOUSE_NO","E_COORD97":"E_COORD97","N_COORD97":"N_COORD97","ADDRESS":"ADDRESS","OBJECTID":"OBJECTID"},"geometryType":"esriGeometryPoint","spatialReference":{"wkid":102443,"latestWkid":3826},"fields":[{"name":"ID","type":"esriFieldTypeDouble","alias":"ID"},{"name":"DIS_CODE","type":"esriFieldTypeInteger","alias":"DIS_CODE"},{"name":"TOWNNAME","type":"esriFieldTypeString","alias":"TOWNNAME","length":8},{"name":"LI","type":"esriFieldTypeString","alias":"LI","length":8},{"name":"LIN","type":"esriFieldTypeString","alias":"LIN","length":12},{"name":"STREET","type":"esriFieldTypeString","alias":"STREET","length":20},{"name":"SECT","type":"esriFieldTypeString","alias":"SECT","length":8},{"name":"MAREA","type":"esriFieldTypeString","alias":"MAREA","length":12},{"name":"LANE","type":"esriFieldTypeString","alias":"LANE","length":10},{"name":"ALLEY","type":"esriFieldTypeString","alias":"ALLEY","length":10},{"name":"HOUSE_NO","type":"esriFieldTypeString","alias":"HOUSE_NO","length":20},{"name":"E_COORD97","type":"esriFieldTypeDouble","alias":"E_COORD97"},{"name":"N_COORD97","type":"esriFieldTypeDouble","alias":"N_COORD97"},{"name":"ADDRESS","type":"esriFieldTypeString","alias":"ADDRESS","length":50},{"name":"OBJECTID","type":"esriFieldTypeOID","alias":"OBJECTID"}],"features":[{"attributes":{"ID":104401,"DIS_CODE":0,"TOWNNAME":"北區","LI":"延平里","LIN":"9鄰","STREET":"長榮路","SECT":"五段","MAREA":" ","LANE":"４０１巷","ALLEY":"１０７弄","HOUSE_NO":"３１號","E_COORD97":169329.13,"N_COORD97":2545725.8399999999,"ADDRESS":"長榮路五段４０１巷１０７弄３１號","OBJECTID":104401},"geometry":{"x":169329.12999999989,"y":2545725.8399999999}},{"attributes":{"ID":104402,"DIS_CODE":0,"TOWNNAME":"北區","LI":"延平里","LIN":"9鄰","STREET":"長榮路","SECT":"五段","MAREA":" ","LANE":"４０１巷","ALLEY":"１０７弄","HOUSE_NO":"３號","E_COORD97":169328.12,"N_COORD97":2545794.2999999998,"ADDRESS":"長榮路五段４０１巷１０７弄３號","OBJECTID":104402},"geometry":{"x":169328.12000000197,"y":2545794.3000000026}},{"attributes":{"ID":104403,"DIS_CODE":0,"TOWNNAME":"北區","LI":"延平里","LIN":"9鄰","STREET":"長榮路","SECT":"五段","MAREA":" ","LANE":"４０１巷","ALLEY":"１０７弄","HOUSE_NO":"５號","E_COORD97":169332.92999999999,"N_COORD97":2545793.7799999998,"ADDRESS":"長榮路五段４０１巷１０７弄５號","OBJECTID":104403},"geometry":{"x":169332.93000000063,"y":2545793.7799999993}},{"attributes":{"ID":104404,"DIS_CODE":0,"TOWNNAME":"後壁區","LI":"墨林里","LIN":"9鄰","STREET":" ","SECT":" ","MAREA":"菁寮","LANE":" ","ALLEY":" ","HOUSE_NO":"２５７號","E_COORD97":182221.57999999999,"N_COORD97":2586490.96,"ADDRESS":"菁寮２５７號","OBJECTID":104404},"geometry":{"x":182221.58000000007,"y":2586490.9600000028}},{"attributes":{"ID":104405,"DIS_CODE":0,"TOWNNAME":"後壁區","LI":"墨林里","LIN":"9鄰","STREET":" ","SECT":" ","MAREA":"菁寮","LANE":" ","ALLEY":" ","HOUSE_NO":"２５８號","E_COORD97":182248.23999999999,"N_COORD97":2586440.23,"ADDRESS":"菁寮２５８號","OBJECTID":104405},"geometry":{"x":182248.24000000115,"y":2586440.2300000042}},{"attributes":{"ID":104406,"DIS_CODE":0,"TOWNNAME":"後壁區","LI":"墨林里","LIN":"9鄰","STREET":" ","SECT":" ","MAREA":"菁寮","LANE":" ","ALLEY":" ","HOUSE_NO":"２５９號之１","E_COORD97":182214.95999999999,"N_COORD97":2586431.3900000001,"ADDRESS":"菁寮２５９號之１","OBJECTID":104406},"geometry":{"x":182214.95999999996,"y":2586431.3900000006}},{"attributes":{"ID":104407,"DIS_CODE":0,"TOWNNAME":"北區","LI":"延平里","LIN":"9鄰","STREET":"長榮路","SECT":"五段","MAREA":" ","LANE":"４０１巷","ALLEY":"１０７弄","HOUSE_NO":"６號","E_COORD97":169334.54000000001,"N_COORD97":2545784.77,"ADDRESS":"長榮路五段４０１巷１０７弄６號","OBJECTID":104407},"geometry":{"x":169334.54000000004,"y":2545784.7699999977}},{"attributes":{"ID":104408,"DIS_CODE":0,"TOWNNAME":"北區","LI":"延平里","LIN":"9鄰","STREET":"長榮路","SECT":"五段","MAREA":" ","LANE":"４０１巷","ALLEY":"１０７弄","HOUSE_NO":"７號","E_COORD97":169337.04999999999,"N_COORD97":2545791.8900000001,"ADDRESS":"長榮路五段４０１巷１０７弄７號","OBJECTID":104408},"geometry":{"x":169337.05000000075,"y":2545791.8900000043}},{"attributes":{"ID":104409,"DIS_CODE":0,"TOWNNAME":"北區","LI":"延平里","LIN":"9鄰","STREET":"長榮路","SECT":"五段","MAREA":" ","LANE":"４０１巷","ALLEY":"１０７弄","HOUSE_NO":"８號","E_COORD97":169337.64999999999,"N_COORD97":2545783.3900000001,"ADDRESS":"長榮路五段４０１巷１０７弄８號","OBJECTID":104409},"geometry":{"x":169337.65000000037,"y":2545783.3900000025}},{"attributes":{"ID":104410,"DIS_CODE":0,"TOWNNAME":"北區","LI":"延平里","LIN":"9鄰","STREET":"長榮路","SECT":"五段","MAREA":" ","LANE":"４０１巷","ALLEY":"１０７弄","HOUSE_NO":"９號","E_COORD97":169339.45999999999,"N_COORD97":2545790.0099999998,"ADDRESS":"長榮路五段４０１巷１０７弄９號","OBJECTID":104410},"geometry":{"x":169339.46000000089,"y":2545790.0099999998}},{"attributes":{"ID":104411,"DIS_CODE":0,"TOWNNAME":"北區","LI":"延平里","LIN":"9鄰","STREET":"長榮路","SECT":"五段","MAREA":" ","LANE":"４０１巷","ALLEY":"１４９弄","HOUSE_NO":"１號","E_COORD97":169295.23000000001,"N_COORD97":2545721.7999999998,"ADDRESS":"長榮路五段４０１巷１４９弄１號","OBJECTID":104411},"geometry":{"x":169295.23000000045,"y":2545721.8000000045}},{"attributes":{"ID":104412,"DIS_CODE":0,"TOWNNAME":"北區","LI":"延平里","LIN":"9鄰","STREET":"長榮路","SECT":"五段","MAREA":" ","LANE":"４０１巷","ALLEY":"１４９弄","HOUSE_NO":"３號","E_COORD97":169305.60999999999,"N_COORD97":2545719.21,"ADDRESS":"長榮路五段４０１巷１４９弄３號","OBJECTID":104412},"geometry":{"x":169305.61000000034,"y":2545719.2100000046}},{"attributes":{"ID":104413,"DIS_CODE":0,"TOWNNAME":"北區","LI":"延平里","LIN":"9鄰","STREET":"長榮路","SECT":"五段","MAREA":" ","LANE":"４０１巷","ALLEY":"１４９弄","HOUSE_NO":"７號","E_COORD97":169323.54999999999,"N_COORD97":2545713.3799999999,"ADDRESS":"長榮路五段４０１巷１４９弄７號","OBJECTID":104413},"geometry":{"x":169323.55000000075,"y":2545713.3800000008}},{"attributes":{"ID":104414,"DIS_CODE":0,"TOWNNAME":"永康區","LI":"復興里","LIN":"21鄰","STREET":"復興路","SECT":" ","MAREA":" ","LANE":"２９６巷","ALLEY":"１３弄","HOUSE_NO":"２２號","E_COORD97":172336.45000000001,"N_COORD97":2544418.52,"ADDRESS":"復興路２９６巷１３弄２２號","OBJECTID":104414},"geometry":{"x":172336.44999999925,"y":2544418.5200000014}},{"attributes":{"ID":104415,"DIS_CODE":0,"TOWNNAME":"北區","LI":"大豐里","LIN":"9鄰","STREET":"文賢路","SECT":" ","MAREA":" ","LANE":"３６５巷","ALLEY":"５８弄","HOUSE_NO":"１號","E_COORD97":167141.85000000001,"N_COORD97":2545407.2200000002,"ADDRESS":"文賢路３６５巷５８弄１號","OBJECTID":104415},"geometry":{"x":167141.84999999963,"y":2545407.2200000025}},{"attributes":{"ID":104416,"DIS_CODE":0,"TOWNNAME":"後壁區","LI":"新東里","LIN":"9鄰","STREET":" ","SECT":" ","MAREA":"新港東","LANE":" ","ALLEY":" ","HOUSE_NO":"１０１號","E_COORD97":181633.20000000001,"N_COORD97":2581920.9300000002,"ADDRESS":"新港東１０１號","OBJECTID":104416},"geometry":{"x":181633.20000000112,"y":2581920.9299999997}},{"attributes":{"ID":104417,"DIS_CODE":0,"TOWNNAME":"北區","LI":"和順里","LIN":"9鄰","STREET":"民德路","SECT":" ","MAREA":" ","LANE":"５８巷","ALLEY":"６弄","HOUSE_NO":"１０號","E_COORD97":168233.20999999999,"N_COORD97":2545194.27,"ADDRESS":"民德路５８巷６弄１０號","OBJECTID":104417},"geometry":{"x":168233.20999999996,"y":2545194.2699999996}},{"attributes":{"ID":104418,"DIS_CODE":0,"TOWNNAME":"後壁區","LI":"墨林里","LIN":"9鄰","STREET":" ","SECT":" ","MAREA":"菁寮","LANE":" ","ALLEY":" ","HOUSE_NO":"２５９號之４","E_COORD97":182220.76999999999,"N_COORD97":2586421.8599999999,"ADDRESS":"菁寮２５９號之４","OBJECTID":104418},"geometry":{"x":182220.77000000048,"y":2586421.8600000013}},{"attributes":{"ID":104419,"DIS_CODE":0,"TOWNNAME":"後壁區","LI":"墨林里","LIN":"9鄰","STREET":" ","SECT":" ","MAREA":"菁寮","LANE":" ","ALLEY":" ","HOUSE_NO":"２６２號之１０","E_COORD97":182265.67000000001,"N_COORD97":2586381.8799999999,"ADDRESS":"菁寮２６２號之１０","OBJECTID":104419},"geometry":{"x":182265.67000000086,"y":2586381.879999999}},{"attributes":{"ID":104420,"DIS_CODE":0,"TOWNNAME":"後壁區","LI":"墨林里","LIN":"9鄰","STREET":" ","SECT":" ","MAREA":"菁寮","LANE":" ","ALLEY":" ","HOUSE_NO":"２６２號之１１","E_COORD97":182264.29999999999,"N_COORD97":2586362.1099999999,"ADDRESS":"菁寮２６２號之１１","OBJECTID":104420},"geometry":{"x":182264.30000000168,"y":2586362.1100000031}},{"attributes":{"ID":104421,"DIS_CODE":0,"TOWNNAME":"後壁區","LI":"墨林里","LIN":"9鄰","STREET":" ","SECT":" ","MAREA":"菁寮","LANE":" ","ALLEY":" ","HOUSE_NO":"２６２號之１２","E_COORD97":182271.98999999999,"N_COORD97":2586382.4900000002,"ADDRESS":"菁寮２６２號之１２","OBJECTID":104421},"geometry":{"x":182271.99000000115,"y":2586382.4900000002}},{"attributes":{"ID":104422,"DIS_CODE":0,"TOWNNAME":"後壁區","LI":"墨林里","LIN":"9鄰","STREET":" ","SECT":" ","MAREA":"菁寮","LANE":" ","ALLEY":" ","HOUSE_NO":"２６２號之１４","E_COORD97":182282.23999999999,"N_COORD97":2586379.6699999999,"ADDRESS":"菁寮２６２號之１４","OBJECTID":104422},"geometry":{"x":182282.24000000115,"y":2586379.6700000018}},{"attributes":{"ID":104423,"DIS_CODE":0,"TOWNNAME":"後壁區","LI":"墨林里","LIN":"9鄰","STREET":" ","SECT":" ","MAREA":"菁寮","LANE":" ","ALLEY":" ","HOUSE_NO":"２６２號之１６","E_COORD97":182291.64000000001,"N_COORD97":2586378.8500000001,"ADDRESS":"菁寮２６２號之１６","OBJECTID":104423},"geometry":{"x":182291.63999999966,"y":2586378.8500000015}},{"attributes":{"ID":104424,"DIS_CODE":0,"TOWNNAME":"後壁區","LI":"墨林里","LIN":"9鄰","STREET":" ","SECT":" ","MAREA":"菁寮","LANE":" ","ALLEY":" ","HOUSE_NO":"２６２號之１７","E_COORD97":182290.01000000001,"N_COORD97":2586359.0299999998,"ADDRESS":"菁寮２６２號之１７","OBJECTID":104424},"geometry":{"x":182290.01000000071,"y":2586359.0300000031}},{"attributes":{"ID":104425,"DIS_CODE":0,"TOWNNAME":"後壁區","LI":"墨林里","LIN":"9鄰","STREET":" ","SECT":" ","MAREA":"菁寮","LANE":" ","ALLEY":" ","HOUSE_NO":"２６２號之２","E_COORD97":182229.44,"N_COORD97":2586384.21,"ADDRESS":"菁寮２６２號之２","OBJECTID":104425},"geometry":{"x":182229.44000000041,"y":2586384.2100000028}},{"attributes":{"ID":104426,"DIS_CODE":0,"TOWNNAME":"後壁區","LI":"墨林里","LIN":"9鄰","STREET":" ","SECT":" ","MAREA":"菁寮","LANE":" ","ALLEY":" ","HOUSE_NO":"２６２號之３","E_COORD97":182233.81,"N_COORD97":2586384.21,"ADDRESS":"菁寮２６２號之３","OBJECTID":104426},"geometry":{"x":182233.81000000052,"y":2586384.2100000028}},{"attributes":{"ID":104427,"DIS_CODE":0,"TOWNNAME":"後壁區","LI":"墨林里","LIN":"9鄰","STREET":" ","SECT":" ","MAREA":"菁寮","LANE":" ","ALLEY":" ","HOUSE_NO":"２６２號之４","E_COORD97":182239.95999999999,"N_COORD97":2586383.75,"ADDRESS":"菁寮２６２號之４","OBJECTID":104427},"geometry":{"x":182239.96000000089,"y":2586383.75}},{"attributes":{"ID":104428,"DIS_CODE":0,"TOWNNAME":"玉井區","LI":"三和里","LIN":"1鄰","STREET":" ","SECT":" ","MAREA":"三和","LANE":" ","ALLEY":" ","HOUSE_NO":"６號之１","E_COORD97":194497.12,"N_COORD97":2557189.2999999998,"ADDRESS":"三和６號之１","OBJECTID":104428},"geometry":{"x":194497.12000000104,"y":2557189.3000000026}},{"attributes":{"ID":104429,"DIS_CODE":0,"TOWNNAME":"後壁區","LI":"墨林里","LIN":"9鄰","STREET":" ","SECT":" ","MAREA":"菁寮","LANE":" ","ALLEY":" ","HOUSE_NO":"２６２號之６","E_COORD97":182248.94,"N_COORD97":2586384.6099999999,"ADDRESS":"菁寮２６２號之６","OBJECTID":104429},"geometry":{"x":182248.94000000134,"y":2586384.6099999994}},{"attributes":{"ID":104430,"DIS_CODE":0,"TOWNNAME":"後壁區","LI":"墨林里","LIN":"9鄰","STREET":" ","SECT":" ","MAREA":"菁寮","LANE":" ","ALLEY":" ","HOUSE_NO":"２６２號之７","E_COORD97":182252.63,"N_COORD97":2586384.6099999999,"ADDRESS":"菁寮２６２號之７","OBJECTID":104430},"geometry":{"x":182252.63000000082,"y":2586384.6099999994}},{"attributes":{"ID":104431,"DIS_CODE":0,"TOWNNAME":"後壁區","LI":"墨林里","LIN":"9鄰","STREET":" ","SECT":" ","MAREA":"菁寮","LANE":" ","ALLEY":" ","HOUSE_NO":"２６２號之８","E_COORD97":182255.91,"N_COORD97":2586384.4900000002,"ADDRESS":"菁寮２６２號之８","OBJECTID":104431},"geometry":{"x":182255.91000000108,"y":2586384.4900000021}},{"attributes":{"ID":104432,"DIS_CODE":0,"TOWNNAME":"北區","LI":"和順里","LIN":"9鄰","STREET":"民德路","SECT":" ","MAREA":" ","LANE":"５８巷","ALLEY":"６弄","HOUSE_NO":"１１號","E_COORD97":168254.85999999999,"N_COORD97":2545212.7599999998,"ADDRESS":"民德路５８巷６弄１１號","OBJECTID":104432},"geometry":{"x":168254.86000000034,"y":2545212.7600000016}},{"attributes":{"ID":104433,"DIS_CODE":0,"TOWNNAME":"北區","LI":"和順里","LIN":"9鄰","STREET":"民德路","SECT":" ","MAREA":" ","LANE":"５８巷","ALLEY":"６弄","HOUSE_NO":"１２號","E_COORD97":168239.07000000001,"N_COORD97":2545189.1800000002,"ADDRESS":"民德路５８巷６弄１２號","OBJECTID":104433},"geometry":{"x":168239.07000000123,"y":2545189.1800000034}},{"attributes":{"ID":104434,"DIS_CODE":0,"TOWNNAME":"北區","LI":"和順里","LIN":"9鄰","STREET":"民德路","SECT":" ","MAREA":" ","LANE":"５８巷","ALLEY":"６弄","HOUSE_NO":"１號","E_COORD97":168224.12,"N_COORD97":2545231.9300000002,"ADDRESS":"民德路５８巷６弄１號","OBJECTID":104434},"geometry":{"x":168224.12000000011,"y":2545231.9300000016}},{"attributes":{"ID":104435,"DIS_CODE":0,"TOWNNAME":"後壁區","LI":"墨林里","LIN":"9鄰","STREET":" ","SECT":" ","MAREA":"菁寮","LANE":" ","ALLEY":" ","HOUSE_NO":"２６２號之９","E_COORD97":182259.73000000001,"N_COORD97":2586384.6600000001,"ADDRESS":"菁寮２６２號之９","OBJECTID":104435},"geometry":{"x":182259.73000000045,"y":2586384.6600000001}},{"attributes":{"ID":104436,"DIS_CODE":0,"TOWNNAME":"後壁區","LI":"墨林里","LIN":"9鄰","STREET":" ","SECT":" ","MAREA":"菁寮","LANE":" ","ALLEY":" ","HOUSE_NO":"２６２號","E_COORD97":182221.98999999999,"N_COORD97":2586401.5699999998,"ADDRESS":"菁寮２６２號","OBJECTID":104436},"geometry":{"x":182221.99000000022,"y":2586401.5700000022}},{"attributes":{"ID":104437,"DIS_CODE":0,"TOWNNAME":"後壁區","LI":"墨林里","LIN":"9鄰","STREET":" ","SECT":" ","MAREA":"菁寮","LANE":" ","ALLEY":" ","HOUSE_NO":"２６３號之５","E_COORD97":182246.51000000001,"N_COORD97":2586398.7599999998,"ADDRESS":"菁寮２６３號之５","OBJECTID":104437},"geometry":{"x":182246.51000000071,"y":2586398.7600000035}},{"attributes":{"ID":104438,"DIS_CODE":0,"TOWNNAME":"後壁區","LI":"墨林里","LIN":"9鄰","STREET":" ","SECT":" ","MAREA":"菁寮","LANE":" ","ALLEY":" ","HOUSE_NO":"２６４號","E_COORD97":182263.35999999999,"N_COORD97":2586399.3999999999,"ADDRESS":"菁寮２６４號","OBJECTID":104438},"geometry":{"x":182263.36000000127,"y":2586399.4000000022}},{"attributes":{"ID":104439,"DIS_CODE":0,"TOWNNAME":"後壁區","LI":"墨林里","LIN":"9鄰","STREET":" ","SECT":" ","MAREA":"菁寮","LANE":" ","ALLEY":" ","HOUSE_NO":"２６７號之２","E_COORD97":182275.07999999999,"N_COORD97":2586397.8999999999,"ADDRESS":"菁寮２６７號之２","OBJECTID":104439},"geometry":{"x":182275.08000000101,"y":2586397.9000000004}},{"attributes":{"ID":104440,"DIS_CODE":0,"TOWNNAME":"後壁區","LI":"墨林里","LIN":"9鄰","STREET":" ","SECT":" ","MAREA":"菁寮","LANE":" ","ALLEY":" ","HOUSE_NO":"２６７號之６","E_COORD97":182293.59,"N_COORD97":2586398.4300000002,"ADDRESS":"菁寮２６７號之６","OBJECTID":104440},"geometry":{"x":182293.59000000078,"y":2586398.4300000016}},{"attributes":{"ID":104441,"DIS_CODE":0,"TOWNNAME":"北區","LI":"和順里","LIN":"9鄰","STREET":"民德路","SECT":" ","MAREA":" ","LANE":"５８巷","ALLEY":"６弄","HOUSE_NO":"２號","E_COORD97":168208.84,"N_COORD97":2545210.5,"ADDRESS":"民德路５８巷６弄２號","OBJECTID":104441},"geometry":{"x":168208.83999999985,"y":2545210.5}},{"attributes":{"ID":104442,"DIS_CODE":0,"TOWNNAME":"北區","LI":"和順里","LIN":"9鄰","STREET":"民德路","SECT":" ","MAREA":" ","LANE":"５８巷","ALLEY":"６弄","HOUSE_NO":"３號","E_COORD97":168230.69,"N_COORD97":2545228.7799999998,"ADDRESS":"民德路５８巷６弄３號","OBJECTID":104442},"geometry":{"x":168230.69000000041,"y":2545228.7800000031}},{"attributes":{"ID":104443,"DIS_CODE":0,"TOWNNAME":"北區","LI":"和順里","LIN":"9鄰","STREET":"民德路","SECT":" ","MAREA":" ","LANE":"５８巷","ALLEY":"６弄","HOUSE_NO":"４號","E_COORD97":168215.64000000001,"N_COORD97":2545207.1000000001,"ADDRESS":"民德路５８巷６弄４號","OBJECTID":104443},"geometry":{"x":168215.6400000006,"y":2545207.1000000015}},{"attributes":{"ID":104444,"DIS_CODE":0,"TOWNNAME":"北區","LI":"和順里","LIN":"9鄰","STREET":"民德路","SECT":" ","MAREA":" ","LANE":"５８巷","ALLEY":"６弄","HOUSE_NO":"５號","E_COORD97":168236.47,"N_COORD97":2545224.3199999998,"ADDRESS":"民德路５８巷６弄５號","OBJECTID":104444},"geometry":{"x":168236.46999999974,"y":2545224.3200000003}},{"attributes":{"ID":104445,"DIS_CODE":0,"TOWNNAME":"北區","LI":"和順里","LIN":"9鄰","STREET":"民德路","SECT":" ","MAREA":" ","LANE":"５８巷","ALLEY":"６弄","HOUSE_NO":"６號","E_COORD97":168221.87,"N_COORD97":2545202.7599999998,"ADDRESS":"民德路５８巷６弄６號","OBJECTID":104445},"geometry":{"x":168221.87000000104,"y":2545202.7600000016}},{"attributes":{"ID":104446,"DIS_CODE":0,"TOWNNAME":"北區","LI":"和順里","LIN":"9鄰","STREET":"民德路","SECT":" ","MAREA":" ","LANE":"５８巷","ALLEY":"６弄","HOUSE_NO":"７號","E_COORD97":168241.45999999999,"N_COORD97":2545220.6400000001,"ADDRESS":"民德路５８巷６弄７號","OBJECTID":104446},"geometry":{"x":168241.46000000089,"y":2545220.6400000043}},{"attributes":{"ID":104447,"DIS_CODE":0,"TOWNNAME":"北區","LI":"和順里","LIN":"9鄰","STREET":"民德路","SECT":" ","MAREA":" ","LANE":"５８巷","ALLEY":"６弄","HOUSE_NO":"８號","E_COORD97":168228.48999999999,"N_COORD97":2545198.4199999999,"ADDRESS":"民德路５８巷６弄８號","OBJECTID":104447},"geometry":{"x":168228.49000000022,"y":2545198.4200000018}},{"attributes":{"ID":104448,"DIS_CODE":0,"TOWNNAME":"北區","LI":"和順里","LIN":"9鄰","STREET":"民德路","SECT":" ","MAREA":" ","LANE":"５８巷","ALLEY":"６弄","HOUSE_NO":"９號","E_COORD97":168246.70999999999,"N_COORD97":2545216.4399999999,"ADDRESS":"民德路５８巷６弄９號","OBJECTID":104448},"geometry":{"x":168246.70999999996,"y":2545216.4399999995}},{"attributes":{"ID":104449,"DIS_CODE":0,"TOWNNAME":"北區","LI":"大豐里","LIN":"9鄰","STREET":"文賢路","SECT":" ","MAREA":" ","LANE":"３１３巷","ALLEY":"５６弄","HOUSE_NO":"１１號","E_COORD97":167161.97,"N_COORD97":2545314.2400000002,"ADDRESS":"文賢路３１３巷５６弄１１號","OBJECTID":104449},"geometry":{"x":167161.96999999974,"y":2545314.2400000002}},{"attributes":{"ID":104450,"DIS_CODE":0,"TOWNNAME":"北區","LI":"大豐里","LIN":"9鄰","STREET":"文賢路","SECT":" ","MAREA":" ","LANE":"３１３巷","ALLEY":"５６弄","HOUSE_NO":"１３號","E_COORD97":167162.07999999999,"N_COORD97":2545318.8300000001,"ADDRESS":"文賢路３１３巷５６弄１３號","OBJECTID":104450},"geometry":{"x":167162.08000000101,"y":2545318.8300000019}},{"attributes":{"ID":104451,"DIS_CODE":0,"TOWNNAME":"北區","LI":"大豐里","LIN":"9鄰","STREET":"文賢路","SECT":" ","MAREA":" ","LANE":"３１３巷","ALLEY":"５６弄","HOUSE_NO":"１５號","E_COORD97":167162.79999999999,"N_COORD97":2545322.9700000002,"ADDRESS":"文賢路３１３巷５６弄１５號","OBJECTID":104451},"geometry":{"x":167162.79999999981,"y":2545322.9700000007}},{"attributes":{"ID":104452,"DIS_CODE":0,"TOWNNAME":"北區","LI":"大豐里","LIN":"9鄰","STREET":"文賢路","SECT":" ","MAREA":" ","LANE":"３１３巷","ALLEY":"５６弄","HOUSE_NO":"１號","E_COORD97":167160.37,"N_COORD97":2545291.77,"ADDRESS":"文賢路３１３巷５６弄１號","OBJECTID":104452},"geometry":{"x":167160.37000000104,"y":2545291.7699999996}},{"attributes":{"ID":104453,"DIS_CODE":0,"TOWNNAME":"北區","LI":"大豐里","LIN":"9鄰","STREET":"文賢路","SECT":" ","MAREA":" ","LANE":"３１３巷","ALLEY":"５６弄","HOUSE_NO":"２５號","E_COORD97":167165.76000000001,"N_COORD97":2545350.1000000001,"ADDRESS":"文賢路３１３巷５６弄２５號","OBJECTID":104453},"geometry":{"x":167165.76000000071,"y":2545350.1000000015}},{"attributes":{"ID":104454,"DIS_CODE":0,"TOWNNAME":"北區","LI":"大豐里","LIN":"9鄰","STREET":"文賢路","SECT":" ","MAREA":" ","LANE":"３１３巷","ALLEY":"５６弄","HOUSE_NO":"２７號","E_COORD97":167165.91,"N_COORD97":2545354.0699999998,"ADDRESS":"文賢路３１３巷５６弄２７號","OBJECTID":104454},"geometry":{"x":167165.91000000015,"y":2545354.0700000022}},{"attributes":{"ID":104455,"DIS_CODE":0,"TOWNNAME":"北區","LI":"大豐里","LIN":"9鄰","STREET":"文賢路","SECT":" ","MAREA":" ","LANE":"３１３巷","ALLEY":"５６弄","HOUSE_NO":"２９號","E_COORD97":167165.07999999999,"N_COORD97":2545359.48,"ADDRESS":"文賢路３１３巷５６弄２９號","OBJECTID":104455},"geometry":{"x":167165.07999999914,"y":2545359.4800000004}},{"attributes":{"ID":104456,"DIS_CODE":0,"TOWNNAME":"北區","LI":"大豐里","LIN":"9鄰","STREET":"文賢路","SECT":" ","MAREA":" ","LANE":"３１３巷","ALLEY":"５６弄","HOUSE_NO":"３１號","E_COORD97":167165.20000000001,"N_COORD97":2545363.5,"ADDRESS":"文賢路３１３巷５６弄３１號","OBJECTID":104456},"geometry":{"x":167165.20000000112,"y":2545363.5000000037}},{"attributes":{"ID":104457,"DIS_CODE":0,"TOWNNAME":"北區","LI":"大豐里","LIN":"9鄰","STREET":"文賢路","SECT":" ","MAREA":" ","LANE":"３１３巷","ALLEY":"５６弄","HOUSE_NO":"３號","E_COORD97":167160.81,"N_COORD97":2545296.02,"ADDRESS":"文賢路３１３巷５６弄３號","OBJECTID":104457},"geometry":{"x":167160.80999999959,"y":2545296.0200000014}},{"attributes":{"ID":104458,"DIS_CODE":0,"TOWNNAME":"後壁區","LI":"墨林里","LIN":"9鄰","STREET":" ","SECT":" ","MAREA":"菁寮","LANE":" ","ALLEY":" ","HOUSE_NO":"２６７號之７","E_COORD97":182297.79999999999,"N_COORD97":2586398.02,"ADDRESS":"菁寮２６７號之７","OBJECTID":104458},"geometry":{"x":182297.79999999981,"y":2586398.0200000014}},{"attributes":{"ID":104459,"DIS_CODE":0,"TOWNNAME":"後壁區","LI":"墨林里","LIN":"9鄰","STREET":" ","SECT":" ","MAREA":"菁寮","LANE":" ","ALLEY":" ","HOUSE_NO":"２６７號","E_COORD97":182274.17999999999,"N_COORD97":2586413.3999999999,"ADDRESS":"菁寮２６７號","OBJECTID":104459},"geometry":{"x":182274.18000000063,"y":2586413.4000000022}},{"attributes":{"ID":104460,"DIS_CODE":0,"TOWNNAME":"後壁區","LI":"墨林里","LIN":"9鄰","STREET":" ","SECT":" ","MAREA":"菁寮","LANE":" ","ALLEY":" ","HOUSE_NO":"２６８號之１","E_COORD97":182311.34,"N_COORD97":2586393.21,"ADDRESS":"菁寮２６８號之１","OBJECTID":104460},"geometry":{"x":182311.33999999892,"y":2586393.2100000046}},{"attributes":{"ID":104461,"DIS_CODE":0,"TOWNNAME":"北區","LI":"大豐里","LIN":"9鄰","STREET":"文賢路","SECT":" ","MAREA":" ","LANE":"３１３巷","ALLEY":"５６弄","HOUSE_NO":"５號","E_COORD97":167161.14000000001,"N_COORD97":2545300.98,"ADDRESS":"文賢路３１３巷５６弄５號","OBJECTID":104461},"geometry":{"x":167161.1400000006,"y":2545300.9800000023}},{"attributes":{"ID":104462,"DIS_CODE":0,"TOWNNAME":"北區","LI":"大豐里","LIN":"9鄰","STREET":"文賢路","SECT":" ","MAREA":" ","LANE":"３１３巷","ALLEY":"５６弄","HOUSE_NO":"７號","E_COORD97":167162.01999999999,"N_COORD97":2545305.2799999998,"ADDRESS":"文賢路３１３巷５６弄７號","OBJECTID":104462},"geometry":{"x":167162.02000000048,"y":2545305.2799999993}},{"attributes":{"ID":104463,"DIS_CODE":0,"TOWNNAME":"後壁區","LI":"墨林里","LIN":"9鄰","STREET":" ","SECT":" ","MAREA":"菁寮","LANE":" ","ALLEY":" ","HOUSE_NO":"２６８號之２","E_COORD97":182315.10000000001,"N_COORD97":2586393.3700000001,"ADDRESS":"菁寮２６８號之２","OBJECTID":104463},"geometry":{"x":182315.10000000056,"y":2586393.3700000029}},{"attributes":{"ID":104464,"DIS_CODE":0,"TOWNNAME":"後壁區","LI":"墨林里","LIN":"9鄰","STREET":" ","SECT":" ","MAREA":"菁寮","LANE":" ","ALLEY":" ","HOUSE_NO":"２６８號之５","E_COORD97":182320.16,"N_COORD97":2586392.6299999999,"ADDRESS":"菁寮２６８號之５","OBJECTID":104464},"geometry":{"x":182320.16000000108,"y":2586392.6300000008}},{"attributes":{"ID":104465,"DIS_CODE":0,"TOWNNAME":"後壁區","LI":"墨林里","LIN":"9鄰","STREET":" ","SECT":" ","MAREA":"菁寮","LANE":" ","ALLEY":" ","HOUSE_NO":"２６８號","E_COORD97":182301.92999999999,"N_COORD97":2586398.2999999998,"ADDRESS":"菁寮２６８號","OBJECTID":104465},"geometry":{"x":182301.9299999997,"y":2586398.3000000007}},{"attributes":{"ID":104466,"DIS_CODE":0,"TOWNNAME":"後壁區","LI":"墨林里","LIN":"9鄰","STREET":" ","SECT":" ","MAREA":"菁寮","LANE":" ","ALLEY":" ","HOUSE_NO":"２７０號","E_COORD97":182331.20000000001,"N_COORD97":2586393.6000000001,"ADDRESS":"菁寮２７０號","OBJECTID":104466},"geometry":{"x":182331.20000000019,"y":2586393.6000000015}},{"attributes":{"ID":104467,"DIS_CODE":0,"TOWNNAME":"後壁區","LI":"墨林里","LIN":"9鄰","STREET":" ","SECT":" ","MAREA":"菁寮","LANE":" ","ALLEY":" ","HOUSE_NO":"２７１號","E_COORD97":182335.67999999999,"N_COORD97":2586413.3300000001,"ADDRESS":"菁寮２７１號","OBJECTID":104467},"geometry":{"x":182335.6799999997,"y":2586413.3300000019}},{"attributes":{"ID":104468,"DIS_CODE":0,"TOWNNAME":"後壁區","LI":"墨林里","LIN":"9鄰","STREET":" ","SECT":" ","MAREA":"菁寮","LANE":" ","ALLEY":" ","HOUSE_NO":"２７３號之１","E_COORD97":182345.35000000001,"N_COORD97":2586459.5,"ADDRESS":"菁寮２７３號之１","OBJECTID":104468},"geometry":{"x":182345.35000000056,"y":2586459.5000000019}},{"attributes":{"ID":104469,"DIS_CODE":0,"TOWNNAME":"北區","LI":"大豐里","LIN":"9鄰","STREET":"文賢路","SECT":" ","MAREA":" ","LANE":"３１３巷","ALLEY":"５６弄","HOUSE_NO":"９號","E_COORD97":167162.13,"N_COORD97":2545309.9399999999,"ADDRESS":"文賢路３１３巷５６弄９號","OBJECTID":104469},"geometry":{"x":167162.13000000082,"y":2545309.9400000013}},{"attributes":{"ID":104470,"DIS_CODE":0,"TOWNNAME":"歸仁區","LI":"大潭里","LIN":"9鄰","STREET":"長榮路","SECT":"一段","MAREA":" ","LANE":"２００巷","ALLEY":"７２弄","HOUSE_NO":"６號","E_COORD97":175173.22,"N_COORD97":2534394.2799999998,"ADDRESS":"長榮路一段２００巷７２弄６號","OBJECTID":104470},"geometry":{"x":175173.21999999974,"y":2534394.2800000012}},{"attributes":{"ID":104471,"DIS_CODE":0,"TOWNNAME":"永康區","LI":"復興里","LIN":"16鄰","STREET":"復興路","SECT":" ","MAREA":" ","LANE":"３５６巷","ALLEY":"４１弄","HOUSE_NO":"９號","E_COORD97":172265.03,"N_COORD97":2544440.0299999998,"ADDRESS":"復興路３５６巷４１弄９號","OBJECTID":104471},"geometry":{"x":172265.03000000119,"y":2544440.0299999993}},{"attributes":{"ID":104472,"DIS_CODE":0,"TOWNNAME":"後壁區","LI":"墨林里","LIN":"9鄰","STREET":" ","SECT":" ","MAREA":"菁寮","LANE":" ","ALLEY":" ","HOUSE_NO":"２７３號之２","E_COORD97":182352.22,"N_COORD97":2586440.7200000002,"ADDRESS":"菁寮２７３號之２","OBJECTID":104472},"geometry":{"x":182352.21999999974,"y":2586440.7200000044}},{"attributes":{"ID":104473,"DIS_CODE":0,"TOWNNAME":"後壁區","LI":"墨林里","LIN":"9鄰","STREET":" ","SECT":" ","MAREA":"菁寮","LANE":" ","ALLEY":" ","HOUSE_NO":"２７３號","E_COORD97":182329.88,"N_COORD97":2586443.6099999999,"ADDRESS":"菁寮２７３號","OBJECTID":104473},"geometry":{"x":182329.88000000175,"y":2586443.6100000013}},{"attributes":{"ID":104474,"DIS_CODE":0,"TOWNNAME":"後壁區","LI":"新東里","LIN":"9鄰","STREET":" ","SECT":" ","MAREA":"新港東","LANE":" ","ALLEY":" ","HOUSE_NO":"１００號之１１","E_COORD97":181820.54000000001,"N_COORD97":2582127.25,"ADDRESS":"新港東１００號之１１","OBJECTID":104474},"geometry":{"x":181820.54000000097,"y":2582127.2500000037}},{"attributes":{"ID":104475,"DIS_CODE":0,"TOWNNAME":"後壁區","LI":"新東里","LIN":"9鄰","STREET":" ","SECT":" ","MAREA":"新港東","LANE":" ","ALLEY":" ","HOUSE_NO":"１００號之１６","E_COORD97":181781.20000000001,"N_COORD97":2582240.54,"ADDRESS":"新港東１００號之１６","OBJECTID":104475},"geometry":{"x":181781.20000000112,"y":2582240.540000001}},{"attributes":{"ID":104476,"DIS_CODE":0,"TOWNNAME":"後壁區","LI":"新東里","LIN":"9鄰","STREET":" ","SECT":" ","MAREA":"新港東","LANE":" ","ALLEY":" ","HOUSE_NO":"１００號之１７","E_COORD97":181858.76000000001,"N_COORD97":2582339.5299999998,"ADDRESS":"新港東１００號之１７","OBJECTID":104476},"geometry":{"x":181858.75999999978,"y":2582339.5300000012}},{"attributes":{"ID":104477,"DIS_CODE":0,"TOWNNAME":"後壁區","LI":"新東里","LIN":"9鄰","STREET":" ","SECT":" ","MAREA":"新港東","LANE":" ","ALLEY":" ","HOUSE_NO":"１００號之２０","E_COORD97":181879.92999999999,"N_COORD97":2582340.25,"ADDRESS":"新港東１００號之２０","OBJECTID":104477},"geometry":{"x":181879.9299999997,"y":2582340.25}},{"attributes":{"ID":104478,"DIS_CODE":0,"TOWNNAME":"後壁區","LI":"新東里","LIN":"9鄰","STREET":" ","SECT":" ","MAREA":"新港東","LANE":" ","ALLEY":" ","HOUSE_NO":"１００號之２２","E_COORD97":181895.67999999999,"N_COORD97":2582343.23,"ADDRESS":"新港東１００號之２２","OBJECTID":104478},"geometry":{"x":181895.68000000063,"y":2582343.2300000004}},{"attributes":{"ID":104479,"DIS_CODE":0,"TOWNNAME":"後壁區","LI":"新東里","LIN":"9鄰","STREET":" ","SECT":" ","MAREA":"新港東","LANE":" ","ALLEY":" ","HOUSE_NO":"１００號之２５","E_COORD97":181622.13,"N_COORD97":2582295.98,"ADDRESS":"新港東１００號之２５","OBJECTID":104479},"geometry":{"x":181622.12999999989,"y":2582295.9800000023}},{"attributes":{"ID":104480,"DIS_CODE":0,"TOWNNAME":"後壁區","LI":"新東里","LIN":"9鄰","STREET":" ","SECT":" ","MAREA":"新港東","LANE":" ","ALLEY":" ","HOUSE_NO":"１００號之２６","E_COORD97":181613.10999999999,"N_COORD97":2582296.04,"ADDRESS":"新港東１００號之２６","OBJECTID":104480},"geometry":{"x":181613.11000000034,"y":2582296.0399999991}},{"attributes":{"ID":104481,"DIS_CODE":0,"TOWNNAME":"後壁區","LI":"新東里","LIN":"9鄰","STREET":" ","SECT":" ","MAREA":"新港東","LANE":" ","ALLEY":" ","HOUSE_NO":"１００號之４５","E_COORD97":181555.62,"N_COORD97":2582427.8799999999,"ADDRESS":"新港東１００號之４５","OBJECTID":104481},"geometry":{"x":181555.62000000104,"y":2582427.8800000008}},{"attributes":{"ID":104482,"DIS_CODE":0,"TOWNNAME":"後壁區","LI":"新東里","LIN":"9鄰","STREET":" ","SECT":" ","MAREA":"新港東","LANE":" ","ALLEY":" ","HOUSE_NO":"１００號之９","E_COORD97":181908.97,"N_COORD97":2582289.1400000001,"ADDRESS":"新港東１００號之９","OBJECTID":104482},"geometry":{"x":181908.97000000067,"y":2582289.1400000025}},{"attributes":{"ID":104483,"DIS_CODE":0,"TOWNNAME":"後壁區","LI":"新東里","LIN":"9鄰","STREET":" ","SECT":" ","MAREA":"新港東","LANE":" ","ALLEY":" ","HOUSE_NO":"１０１號之１","E_COORD97":181631.64000000001,"N_COORD97":2581914.0899999999,"ADDRESS":"新港東１０１號之１","OBJECTID":104483},"geometry":{"x":181631.6400000006,"y":2581914.089999998}},{"attributes":{"ID":104484,"DIS_CODE":0,"TOWNNAME":"南區","LI":"大忠里","LIN":"9鄰","STREET":"大同路","SECT":"二段","MAREA":" ","LANE":"４８２巷","ALLEY":"６７弄","HOUSE_NO":"１０號","E_COORD97":169240.85000000001,"N_COORD97":2541465.4100000001,"ADDRESS":"大同路二段４８２巷６７弄１０號","OBJECTID":104484},"geometry":{"x":169240.84999999963,"y":2541465.4100000039}},{"attributes":{"ID":104485,"DIS_CODE":0,"TOWNNAME":"南區","LI":"大忠里","LIN":"9鄰","STREET":"大同路","SECT":"二段","MAREA":" ","LANE":"４８２巷","ALLEY":"６７弄","HOUSE_NO":"１１號","E_COORD97":169253.60999999999,"N_COORD97":2541444.5600000001,"ADDRESS":"大同路二段４８２巷６７弄１１號","OBJECTID":104485},"geometry":{"x":169253.61000000034,"y":2541444.5600000042}},{"attributes":{"ID":104486,"DIS_CODE":0,"TOWNNAME":"南區","LI":"大忠里","LIN":"9鄰","STREET":"大同路","SECT":"二段","MAREA":" ","LANE":"４８２巷","ALLEY":"６７弄","HOUSE_NO":"１２號","E_COORD97":169248.17999999999,"N_COORD97":2541469.2000000002,"ADDRESS":"大同路二段４８２巷６７弄１２號","OBJECTID":104486},"geometry":{"x":169248.18000000063,"y":2541469.200000003}},{"attributes":{"ID":104487,"DIS_CODE":0,"TOWNNAME":"南區","LI":"大忠里","LIN":"9鄰","STREET":"大同路","SECT":"二段","MAREA":" ","LANE":"４８２巷","ALLEY":"６７弄","HOUSE_NO":"１３號","E_COORD97":169258.23000000001,"N_COORD97":2541448.0800000001,"ADDRESS":"大同路二段４８２巷６７弄１３號","OBJECTID":104487},"geometry":{"x":169258.23000000231,"y":2541448.0800000019}},{"attributes":{"ID":104488,"DIS_CODE":0,"TOWNNAME":"南區","LI":"大忠里","LIN":"9鄰","STREET":"大同路","SECT":"二段","MAREA":" ","LANE":"４８２巷","ALLEY":"６７弄","HOUSE_NO":"１５號","E_COORD97":169260.94,"N_COORD97":2541456.4700000002,"ADDRESS":"大同路二段４８２巷６７弄１５號","OBJECTID":104488},"geometry":{"x":169260.94000000041,"y":2541456.4700000025}},{"attributes":{"ID":104489,"DIS_CODE":0,"TOWNNAME":"後壁區","LI":"新東里","LIN":"9鄰","STREET":" ","SECT":" ","MAREA":"新港東","LANE":" ","ALLEY":" ","HOUSE_NO":"９１號之１","E_COORD97":181760.37,"N_COORD97":2582013.8500000001,"ADDRESS":"新港東９１號之１","OBJECTID":104489},"geometry":{"x":181760.37000000011,"y":2582013.8499999978}},{"attributes":{"ID":104490,"DIS_CODE":0,"TOWNNAME":"南區","LI":"大忠里","LIN":"9鄰","STREET":"大同路","SECT":"二段","MAREA":" ","LANE":"４８２巷","ALLEY":"６７弄","HOUSE_NO":"１號","E_COORD97":169231.07000000001,"N_COORD97":2541424.5299999998,"ADDRESS":"大同路二段４８２巷６７弄１號","OBJECTID":104490},"geometry":{"x":169231.07000000123,"y":2541424.5300000012}},{"attributes":{"ID":104491,"DIS_CODE":0,"TOWNNAME":"後壁區","LI":"新東里","LIN":"9鄰","STREET":" ","SECT":" ","MAREA":"新港東","LANE":" ","ALLEY":" ","HOUSE_NO":"９１號之２","E_COORD97":181737.48999999999,"N_COORD97":2582031.3799999999,"ADDRESS":"新港東９１號之２","OBJECTID":104491},"geometry":{"x":181737.49000000022,"y":2582031.3800000008}},{"attributes":{"ID":104492,"DIS_CODE":0,"TOWNNAME":"玉井區","LI":"三和里","LIN":"1鄰","STREET":" ","SECT":" ","MAREA":"三和","LANE":" ","ALLEY":" ","HOUSE_NO":"１５號","E_COORD97":194673.13,"N_COORD97":2557004.25,"ADDRESS":"三和１５號","OBJECTID":104492},"geometry":{"x":194673.13000000082,"y":2557004.2500000037}},{"attributes":{"ID":104493,"DIS_CODE":0,"TOWNNAME":"歸仁區","LI":"沙崙里","LIN":"1鄰","STREET":" ","SECT":" ","MAREA":"二甲","LANE":" ","ALLEY":" ","HOUSE_NO":"１５８號","E_COORD97":178812.26999999999,"N_COORD97":2539551.25,"ADDRESS":"二甲１５８號","OBJECTID":104493},"geometry":{"x":178812.26999999955,"y":2539551.2500000019}},{"attributes":{"ID":104494,"DIS_CODE":0,"TOWNNAME":"歸仁區","LI":"沙崙里","LIN":"1鄰","STREET":" ","SECT":" ","MAREA":"二甲","LANE":" ","ALLEY":" ","HOUSE_NO":"１６２之１號","E_COORD97":178752.89000000001,"N_COORD97":2539240.96,"ADDRESS":"二甲１６２之１號","OBJECTID":104494},"geometry":{"x":178752.8900000006,"y":2539240.9600000009}},{"attributes":{"ID":104495,"DIS_CODE":0,"TOWNNAME":"歸仁區","LI":"沙崙里","LIN":"1鄰","STREET":" ","SECT":" ","MAREA":"二甲","LANE":" ","ALLEY":" ","HOUSE_NO":"１４２號","E_COORD97":178549.92999999999,"N_COORD97":2539300.8900000001,"ADDRESS":"二甲１４２號","OBJECTID":104495},"geometry":{"x":178549.9299999997,"y":2539300.8900000025}},{"attributes":{"ID":104496,"DIS_CODE":0,"TOWNNAME":"後壁區","LI":"新東里","LIN":"9鄰","STREET":" ","SECT":" ","MAREA":"新港東","LANE":" ","ALLEY":" ","HOUSE_NO":"９１號之３","E_COORD97":181713.51000000001,"N_COORD97":2582026.9100000001,"ADDRESS":"新港東９１號之３","OBJECTID":104496},"geometry":{"x":181713.51000000164,"y":2582026.9100000001}},{"attributes":{"ID":104497,"DIS_CODE":0,"TOWNNAME":"後壁區","LI":"新東里","LIN":"9鄰","STREET":" ","SECT":" ","MAREA":"新港東","LANE":" ","ALLEY":" ","HOUSE_NO":"９１號之４","E_COORD97":181723.69,"N_COORD97":2582063.8100000001,"ADDRESS":"新港東９１號之４","OBJECTID":104497},"geometry":{"x":181723.69000000134,"y":2582063.8100000024}},{"attributes":{"ID":104498,"DIS_CODE":0,"TOWNNAME":"後壁區","LI":"新東里","LIN":"9鄰","STREET":" ","SECT":" ","MAREA":"新港東","LANE":" ","ALLEY":" ","HOUSE_NO":"９１號之５","E_COORD97":181728.67000000001,"N_COORD97":2582077.7799999998,"ADDRESS":"新港東９１號之５","OBJECTID":104498},"geometry":{"x":181728.66999999993,"y":2582077.7799999993}},{"attributes":{"ID":104499,"DIS_CODE":0,"TOWNNAME":"後壁區","LI":"新東里","LIN":"9鄰","STREET":" ","SECT":" ","MAREA":"新港東","LANE":" ","ALLEY":" ","HOUSE_NO":"９１號之６","E_COORD97":181761.73999999999,"N_COORD97":2582092.9399999999,"ADDRESS":"新港東９１號之６","OBJECTID":104499},"geometry":{"x":181761.74000000115,"y":2582092.9400000013}},{"attributes":{"ID":104500,"DIS_CODE":0,"TOWNNAME":"後壁區","LI":"新東里","LIN":"9鄰","STREET":" ","SECT":" ","MAREA":"新港東","LANE":" ","ALLEY":" ","HOUSE_NO":"９１號之７","E_COORD97":181812.17000000001,"N_COORD97":2581991.46,"ADDRESS":"新港東９１號之７","OBJECTID":104500},"geometry":{"x":181812.16999999993,"y":2581991.4600000028}},{"attributes":{"ID":104501,"DIS_CODE":0,"TOWNNAME":"後壁區","LI":"新東里","LIN":"9鄰","STREET":" ","SECT":" ","MAREA":"新港東","LANE":" ","ALLEY":" ","HOUSE_NO":"９１號","E_COORD97":181755.97,"N_COORD97":2581988.23,"ADDRESS":"新港東９１號","OBJECTID":104501},"geometry":{"x":181755.96999999881,"y":2581988.2300000004}},{"attributes":{"ID":104502,"DIS_CODE":0,"TOWNNAME":"後壁區","LI":"新東里","LIN":"9鄰","STREET":" ","SECT":" ","MAREA":"新港東","LANE":" ","ALLEY":" ","HOUSE_NO":"９２號之１","E_COORD97":181698.31,"N_COORD97":2581984.7200000002,"ADDRESS":"新港東９２號之１","OBJECTID":104502},"geometry":{"x":181698.31000000052,"y":2581984.7200000007}},{"attributes":{"ID":104503,"DIS_CODE":0,"TOWNNAME":"後壁區","LI":"新東里","LIN":"9鄰","STREET":" ","SECT":" ","MAREA":"新港東","LANE":" ","ALLEY":" ","HOUSE_NO":"９２號之２","E_COORD97":181711.85999999999,"N_COORD97":2581994.25,"ADDRESS":"新港東９２號之２","OBJECTID":104503},"geometry":{"x":181711.86000000127,"y":2581994.25}},{"attributes":{"ID":104504,"DIS_CODE":0,"TOWNNAME":"南區","LI":"大忠里","LIN":"9鄰","STREET":"大同路","SECT":"二段","MAREA":" ","LANE":"４８２巷","ALLEY":"６７弄","HOUSE_NO":"２號","E_COORD97":169213.5,"N_COORD97":2541440.9100000001,"ADDRESS":"大同路二段４８２巷６７弄２號","OBJECTID":104504},"geometry":{"x":169213.50000000186,"y":2541440.9100000001}},{"attributes":{"ID":104505,"DIS_CODE":0,"TOWNNAME":"永康區","LI":"復興里","LIN":"27鄰","STREET":"復興路","SECT":" ","MAREA":" ","LANE":"２７７巷","ALLEY":"２２弄","HOUSE_NO":"５號","E_COORD97":172309.39999999999,"N_COORD97":2544204.27,"ADDRESS":"復興路２７７巷２２弄５號","OBJECTID":104505},"geometry":{"x":172309.40000000037,"y":2544204.2699999996}},{"attributes":{"ID":104506,"DIS_CODE":0,"TOWNNAME":"後壁區","LI":"新東里","LIN":"9鄰","STREET":" ","SECT":" ","MAREA":"新港東","LANE":" ","ALLEY":" ","HOUSE_NO":"９２號之３","E_COORD97":181722.39000000001,"N_COORD97":2581983.0899999999,"ADDRESS":"新港東９２號之３","OBJECTID":104506},"geometry":{"x":181722.38999999966,"y":2581983.0900000017}},{"attributes":{"ID":104507,"DIS_CODE":0,"TOWNNAME":"後壁區","LI":"新東里","LIN":"9鄰","STREET":" ","SECT":" ","MAREA":"新港東","LANE":" ","ALLEY":" ","HOUSE_NO":"９２號","E_COORD97":181705.85999999999,"N_COORD97":2581969.3799999999,"ADDRESS":"新港東９２號","OBJECTID":104507},"geometry":{"x":181705.86000000034,"y":2581969.3800000008}},{"attributes":{"ID":104508,"DIS_CODE":0,"TOWNNAME":"南區","LI":"大忠里","LIN":"9鄰","STREET":"大同路","SECT":"二段","MAREA":" ","LANE":"４８２巷","ALLEY":"６７弄","HOUSE_NO":"３號","E_COORD97":169235.69,"N_COORD97":2541428.5899999999,"ADDRESS":"大同路二段４８２巷６７弄３號","OBJECTID":104508},"geometry":{"x":169235.69000000041,"y":2541428.5899999999}},{"attributes":{"ID":104509,"DIS_CODE":0,"TOWNNAME":"後壁區","LI":"新東里","LIN":"9鄰","STREET":" ","SECT":" ","MAREA":"新港東","LANE":" ","ALLEY":" ","HOUSE_NO":"９３號","E_COORD97":181704.07999999999,"N_COORD97":2581946.48,"ADDRESS":"新港東９３號","OBJECTID":104509},"geometry":{"x":181704.08000000007,"y":2581946.4800000042}},{"attributes":{"ID":104510,"DIS_CODE":0,"TOWNNAME":"南區","LI":"大忠里","LIN":"9鄰","STREET":"大同路","SECT":"二段","MAREA":" ","LANE":"４８２巷","ALLEY":"６７弄","HOUSE_NO":"４號","E_COORD97":169220.28,"N_COORD97":2541447.1400000001,"ADDRESS":"大同路二段４８２巷６７弄４號","OBJECTID":104510},"geometry":{"x":169220.28000000212,"y":2541447.1400000043}},{"attributes":{"ID":104511,"DIS_CODE":0,"TOWNNAME":"後壁區","LI":"新東里","LIN":"9鄰","STREET":" ","SECT":" ","MAREA":"新港東","LANE":" ","ALLEY":" ","HOUSE_NO":"９５號之１","E_COORD97":181717.19,"N_COORD97":2581903.6000000001,"ADDRESS":"新港東９５號之１","OBJECTID":104511},"geometry":{"x":181717.19000000041,"y":2581903.5999999996}},{"attributes":{"ID":104512,"DIS_CODE":0,"TOWNNAME":"南區","LI":"大忠里","LIN":"9鄰","STREET":"大同路","SECT":"二段","MAREA":" ","LANE":"４８２巷","ALLEY":"６７弄","HOUSE_NO":"５號","E_COORD97":169239.76000000001,"N_COORD97":2541432.9199999999,"ADDRESS":"大同路二段４８２巷６７弄５號","OBJECTID":104512},"geometry":{"x":169239.75999999978,"y":2541432.9199999999}},{"attributes":{"ID":104513,"DIS_CODE":0,"TOWNNAME":"南區","LI":"大忠里","LIN":"9鄰","STREET":"大同路","SECT":"二段","MAREA":" ","LANE":"４８２巷","ALLEY":"６７弄","HOUSE_NO":"６號","E_COORD97":169227.26999999999,"N_COORD97":2541453.23,"ADDRESS":"大同路二段４８２巷６７弄６號","OBJECTID":104513},"geometry":{"x":169227.26999999955,"y":2541453.2300000042}},{"attributes":{"ID":104514,"DIS_CODE":0,"TOWNNAME":"南區","LI":"大忠里","LIN":"9鄰","STREET":"大同路","SECT":"二段","MAREA":" ","LANE":"４８２巷","ALLEY":"６７弄","HOUSE_NO":"７號","E_COORD97":169243.56,"N_COORD97":2541436.4399999999,"ADDRESS":"大同路二段４８２巷６７弄７號","OBJECTID":104514},"geometry":{"x":169243.56000000052,"y":2541436.4399999995}},{"attributes":{"ID":104515,"DIS_CODE":0,"TOWNNAME":"後壁區","LI":"新東里","LIN":"9鄰","STREET":" ","SECT":" ","MAREA":"新港東","LANE":" ","ALLEY":" ","HOUSE_NO":"９５號之２","E_COORD97":181723.89999999999,"N_COORD97":2581888.02,"ADDRESS":"新港東９５號之２","OBJECTID":104515},"geometry":{"x":181723.9000000013,"y":2581888.0200000014}},{"attributes":{"ID":104516,"DIS_CODE":0,"TOWNNAME":"後壁區","LI":"新東里","LIN":"9鄰","STREET":" ","SECT":" ","MAREA":"新港東","LANE":" ","ALLEY":" ","HOUSE_NO":"９５號之３","E_COORD97":181719.07000000001,"N_COORD97":2581889.04,"ADDRESS":"新港東９５號之３","OBJECTID":104516},"geometry":{"x":181719.07000000123,"y":2581889.0399999991}},{"attributes":{"ID":104517,"DIS_CODE":0,"TOWNNAME":"玉井區","LI":"望明里","LIN":"1鄰","STREET":" ","SECT":" ","MAREA":"望明","LANE":" ","ALLEY":" ","HOUSE_NO":"８號","E_COORD97":194388.59,"N_COORD97":2556145.25,"ADDRESS":"望明８號","OBJECTID":104517},"geometry":{"x":194388.59000000078,"y":2556145.25}},{"attributes":{"ID":104518,"DIS_CODE":0,"TOWNNAME":"歸仁區","LI":"南保里","LIN":"1鄰","STREET":"民權北路","SECT":" ","MAREA":" ","LANE":"２６７巷","ALLEY":" ","HOUSE_NO":"８號","E_COORD97":176955.84,"N_COORD97":2541501.29,"ADDRESS":"民權北路２６７巷８號","OBJECTID":104518},"geometry":{"x":176955.83999999985,"y":2541501.2899999991}},{"attributes":{"ID":104519,"DIS_CODE":0,"TOWNNAME":"後壁區","LI":"新東里","LIN":"9鄰","STREET":" ","SECT":" ","MAREA":"新港東","LANE":" ","ALLEY":" ","HOUSE_NO":"９７號","E_COORD97":181684.35999999999,"N_COORD97":2581894.7400000002,"ADDRESS":"新港東９７號","OBJECTID":104519},"geometry":{"x":181684.36000000034,"y":2581894.7400000021}},{"attributes":{"ID":104520,"DIS_CODE":0,"TOWNNAME":"後壁區","LI":"新東里","LIN":"9鄰","STREET":" ","SECT":" ","MAREA":"新港東","LANE":" ","ALLEY":" ","HOUSE_NO":"９８號之１","E_COORD97":181676.89000000001,"N_COORD97":2581899.0299999998,"ADDRESS":"新港東９８號之１","OBJECTID":104520},"geometry":{"x":181676.89000000153,"y":2581899.0299999993}},{"attributes":{"ID":104521,"DIS_CODE":0,"TOWNNAME":"楠西區","LI":"楠西里","LIN":"15鄰","STREET":"中正路","SECT":" ","MAREA":" ","LANE":" ","ALLEY":" ","HOUSE_NO":"４２號","E_COORD97":197158.51000000001,"N_COORD97":2564112.25,"ADDRESS":"中正路４２號","OBJECTID":104521},"geometry":{"x":197158.51000000071,"y":2564112.25}},{"attributes":{"ID":104522,"DIS_CODE":0,"TOWNNAME":"後壁區","LI":"新東里","LIN":"9鄰","STREET":" ","SECT":" ","MAREA":"新港東","LANE":" ","ALLEY":" ","HOUSE_NO":"９８號","E_COORD97":181671.63,"N_COORD97":2581904.1200000001,"ADDRESS":"新港東９８號","OBJECTID":104522},"geometry":{"x":181671.62999999989,"y":2581904.120000001}},{"attributes":{"ID":104523,"DIS_CODE":0,"TOWNNAME":"後壁區","LI":"新東里","LIN":"9鄰","STREET":" ","SECT":" ","MAREA":"新港東","LANE":" ","ALLEY":" ","HOUSE_NO":"９９號之６","E_COORD97":181651.57999999999,"N_COORD97":2581913.7799999998,"ADDRESS":"新港東９９號之６","OBJECTID":104523},"geometry":{"x":181651.58000000007,"y":2581913.7800000012}},{"attributes":{"ID":104524,"DIS_CODE":0,"TOWNNAME":"後壁區","LI":"新東里","LIN":"9鄰","STREET":" ","SECT":" ","MAREA":"新港東","LANE":" ","ALLEY":" ","HOUSE_NO":"９９號","E_COORD97":181663.48000000001,"N_COORD97":2581912.52,"ADDRESS":"新港東９９號","OBJECTID":104524},"geometry":{"x":181663.48000000231,"y":2581912.5200000014}},{"attributes":{"ID":104525,"DIS_CODE":0,"TOWNNAME":"歸仁區","LI":"八甲里","LIN":"1鄰","STREET":"忠孝北路","SECT":" ","MAREA":" ","LANE":" ","ALLEY":" ","HOUSE_NO":"２７１號","E_COORD97":177908.32999999999,"N_COORD97":2541473.25,"ADDRESS":"忠孝北路２７１號","OBJECTID":104525},"geometry":{"x":177908.33000000101,"y":2541473.2500000037}},{"attributes":{"ID":104526,"DIS_CODE":0,"TOWNNAME":"南區","LI":"大忠里","LIN":"9鄰","STREET":"大同路","SECT":"二段","MAREA":" ","LANE":"４８２巷","ALLEY":"６７弄","HOUSE_NO":"８號","E_COORD97":169233.79000000001,"N_COORD97":2541459.1800000002,"ADDRESS":"大同路二段４８２巷６７弄８號","OBJECTID":104526},"geometry":{"x":169233.79000000097,"y":2541459.1799999997}},{"attributes":{"ID":104527,"DIS_CODE":0,"TOWNNAME":"歸仁區","LI":"辜厝里","LIN":"1鄰","STREET":"中山路","SECT":"二段","MAREA":" ","LANE":" ","ALLEY":" ","HOUSE_NO":"５號","E_COORD97":177579.35999999999,"N_COORD97":2540767.1200000001,"ADDRESS":"中山路二段５號","OBJECTID":104527},"geometry":{"x":177579.36000000127,"y":2540767.1200000029}},{"attributes":{"ID":104528,"DIS_CODE":0,"TOWNNAME":"南區","LI":"大忠里","LIN":"9鄰","STREET":"大同路","SECT":"二段","MAREA":" ","LANE":"４８２巷","ALLEY":"６７弄","HOUSE_NO":"９號","E_COORD97":169249,"N_COORD97":2541440.5,"ADDRESS":"大同路二段４８２巷６７弄９號","OBJECTID":104528},"geometry":{"x":169249.00000000186,"y":2541440.5}},{"attributes":{"ID":104529,"DIS_CODE":0,"TOWNNAME":"南區","LI":"大林里","LIN":"9鄰","STREET":"大同路","SECT":"二段","MAREA":" ","LANE":"４８２巷","ALLEY":"１４８弄","HOUSE_NO":"１６號","E_COORD97":169070.73999999999,"N_COORD97":2541584.1299999999,"ADDRESS":"大同路二段４８２巷１４８弄１６號","OBJECTID":104529},"geometry":{"x":169070.74000000022,"y":2541584.129999999}},{"attributes":{"ID":104530,"DIS_CODE":0,"TOWNNAME":"南區","LI":"大林里","LIN":"9鄰","STREET":"大同路","SECT":"二段","MAREA":" ","LANE":"４８２巷","ALLEY":"１４８弄","HOUSE_NO":"２０號","E_COORD97":169062.94,"N_COORD97":2541617.02,"ADDRESS":"大同路二段４８２巷１４８弄２０號","OBJECTID":104530},"geometry":{"x":169062.94000000041,"y":2541617.0200000014}},{"attributes":{"ID":104531,"DIS_CODE":0,"TOWNNAME":"後壁區","LI":"墨林里","LIN":"9鄰","STREET":" ","SECT":" ","MAREA":"菁寮","LANE":" ","ALLEY":" ","HOUSE_NO":"２６３號","E_COORD97":182226.59,"N_COORD97":2586401.98,"ADDRESS":"菁寮２６３號","OBJECTID":104531},"geometry":{"x":182226.58999999892,"y":2586401.9800000023}},{"attributes":{"ID":104532,"DIS_CODE":0,"TOWNNAME":"後壁區","LI":"嘉苳里","LIN":"9鄰","STREET":" ","SECT":" ","MAREA":"下茄苳","LANE":" ","ALLEY":" ","HOUSE_NO":"１１０號","E_COORD97":184663.04999999999,"N_COORD97":2583318.3199999998,"ADDRESS":"下茄苳１１０號","OBJECTID":104532},"geometry":{"x":184663.05000000075,"y":2583318.3200000022}},{"attributes":{"ID":104533,"DIS_CODE":0,"TOWNNAME":"佳里區","LI":"子龍里","LIN":"9鄰","STREET":" ","SECT":" ","MAREA":"子良廟","LANE":" ","ALLEY":" ","HOUSE_NO":"４０號之７","E_COORD97":169385.67999999999,"N_COORD97":2563978.6600000001,"ADDRESS":"子良廟４０號之７","OBJECTID":104533},"geometry":{"x":169385.68000000063,"y":2563978.6600000001}},{"attributes":{"ID":104534,"DIS_CODE":0,"TOWNNAME":"南區","LI":"大恩里","LIN":"9鄰","STREET":"大同路","SECT":"二段","MAREA":" ","LANE":"７５０巷","ALLEY":"７４弄","HOUSE_NO":"１０號","E_COORD97":169374.26000000001,"N_COORD97":2540736.5,"ADDRESS":"大同路二段７５０巷７４弄１０號","OBJECTID":104534},"geometry":{"x":169374.26000000164,"y":2540736.5000000019}},{"attributes":{"ID":104535,"DIS_CODE":0,"TOWNNAME":"佳里區","LI":"子龍里","LIN":"9鄰","STREET":" ","SECT":" ","MAREA":"子良廟","LANE":" ","ALLEY":" ","HOUSE_NO":"４０號","E_COORD97":169008.94,"N_COORD97":2563927.0099999998,"ADDRESS":"子良廟４０號","OBJECTID":104535},"geometry":{"x":169008.94000000041,"y":2563927.0100000016}},{"attributes":{"ID":104536,"DIS_CODE":0,"TOWNNAME":"佳里區","LI":"子龍里","LIN":"9鄰","STREET":" ","SECT":" ","MAREA":"子良廟","LANE":" ","ALLEY":" ","HOUSE_NO":"１００號之１","E_COORD97":168966.44,"N_COORD97":2563862.6899999999,"ADDRESS":"子良廟１００號之１","OBJECTID":104536},"geometry":{"x":168966.44000000041,"y":2563862.6899999976}},{"attributes":{"ID":104537,"DIS_CODE":0,"TOWNNAME":"佳里區","LI":"子龍里","LIN":"9鄰","STREET":" ","SECT":" ","MAREA":"子良廟","LANE":" ","ALLEY":" ","HOUSE_NO":"１００號","E_COORD97":168990.87,"N_COORD97":2563863.6600000001,"ADDRESS":"子良廟１００號","OBJECTID":104537},"geometry":{"x":168990.87000000104,"y":2563863.6599999983}},{"attributes":{"ID":104538,"DIS_CODE":0,"TOWNNAME":"南區","LI":"大恩里","LIN":"9鄰","STREET":"大同路","SECT":"二段","MAREA":" ","LANE":"７５０巷","ALLEY":"７４弄","HOUSE_NO":"１１號","E_COORD97":169358.04999999999,"N_COORD97":2540741.2200000002,"ADDRESS":"大同路二段７５０巷７４弄１１號","OBJECTID":104538},"geometry":{"x":169358.04999999981,"y":2540741.2200000007}},{"attributes":{"ID":104539,"DIS_CODE":0,"TOWNNAME":"佳里區","LI":"子龍里","LIN":"9鄰","STREET":" ","SECT":" ","MAREA":"子良廟","LANE":" ","ALLEY":" ","HOUSE_NO":"１０１號之１","E_COORD97":169008.20999999999,"N_COORD97":2563878.6800000002,"ADDRESS":"子良廟１０１號之１","OBJECTID":104539},"geometry":{"x":169008.20999999996,"y":2563878.6799999997}},{"attributes":{"ID":104540,"DIS_CODE":0,"TOWNNAME":"南區","LI":"大恩里","LIN":"9鄰","STREET":"大同路","SECT":"二段","MAREA":" ","LANE":"７５０巷","ALLEY":"７４弄","HOUSE_NO":"１２號","E_COORD97":169375.87,"N_COORD97":2540741.3199999998,"ADDRESS":"大同路二段７５０巷７４弄１２號","OBJECTID":104540},"geometry":{"x":169375.87000000104,"y":2540741.3200000022}},{"attributes":{"ID":104541,"DIS_CODE":0,"TOWNNAME":"南區","LI":"大恩里","LIN":"9鄰","STREET":"大同路","SECT":"二段","MAREA":" ","LANE":"７５０巷","ALLEY":"７４弄","HOUSE_NO":"１３號","E_COORD97":169358.48000000001,"N_COORD97":2540746.8999999999,"ADDRESS":"大同路二段７５０巷７４弄１３號","OBJECTID":104541},"geometry":{"x":169358.48000000138,"y":2540746.9000000041}},{"attributes":{"ID":104542,"DIS_CODE":0,"TOWNNAME":"南區","LI":"大恩里","LIN":"9鄰","STREET":"大同路","SECT":"二段","MAREA":" ","LANE":"７５０巷","ALLEY":"７４弄","HOUSE_NO":"１４號","E_COORD97":169377.37,"N_COORD97":2540746.7999999998,"ADDRESS":"大同路二段７５０巷７４弄１４號","OBJECTID":104542},"geometry":{"x":169377.37000000104,"y":2540746.8000000007}},{"attributes":{"ID":104543,"DIS_CODE":0,"TOWNNAME":"南區","LI":"大恩里","LIN":"9鄰","STREET":"大同路","SECT":"二段","MAREA":" ","LANE":"７５０巷","ALLEY":"７４弄","HOUSE_NO":"１５號","E_COORD97":169360.29999999999,"N_COORD97":2540752.1600000001,"ADDRESS":"大同路二段７５０巷７４弄１５號","OBJECTID":104543},"geometry":{"x":169360.29999999888,"y":2540752.160000002}},{"attributes":{"ID":104544,"DIS_CODE":0,"TOWNNAME":"南區","LI":"大恩里","LIN":"9鄰","STREET":"大同路","SECT":"二段","MAREA":" ","LANE":"７５０巷","ALLEY":"７４弄","HOUSE_NO":"１６號","E_COORD97":169380.06,"N_COORD97":2540751.9500000002,"ADDRESS":"大同路二段７５０巷７４弄１６號","OBJECTID":104544},"geometry":{"x":169380.05999999959,"y":2540751.950000003}},{"attributes":{"ID":104545,"DIS_CODE":0,"TOWNNAME":"南區","LI":"大恩里","LIN":"9鄰","STREET":"大同路","SECT":"二段","MAREA":" ","LANE":"７５０巷","ALLEY":"７４弄","HOUSE_NO":"１７號","E_COORD97":169362.56,"N_COORD97":2540757.7799999998,"ADDRESS":"大同路二段７５０巷７４弄１７號","OBJECTID":104545},"geometry":{"x":169362.56000000052,"y":2540757.7800000012}},{"attributes":{"ID":104546,"DIS_CODE":0,"TOWNNAME":"南區","LI":"大恩里","LIN":"9鄰","STREET":"大同路","SECT":"二段","MAREA":" ","LANE":"７５０巷","ALLEY":"７４弄","HOUSE_NO":"１８號","E_COORD97":169381.56,"N_COORD97":2540756.9100000001,"ADDRESS":"大同路二段７５０巷７４弄１８號","OBJECTID":104546},"geometry":{"x":169381.55999999959,"y":2540756.9100000039}},{"attributes":{"ID":104547,"DIS_CODE":0,"TOWNNAME":"南區","LI":"大恩里","LIN":"9鄰","STREET":"大同路","SECT":"二段","MAREA":" ","LANE":"７５０巷","ALLEY":"７４弄","HOUSE_NO":"１９號","E_COORD97":169364.17000000001,"N_COORD97":2540763.1499999999,"ADDRESS":"大同路二段７５０巷７４弄１９號","OBJECTID":104547},"geometry":{"x":169364.16999999993,"y":2540763.1500000022}},{"attributes":{"ID":104548,"DIS_CODE":0,"TOWNNAME":"南區","LI":"大恩里","LIN":"9鄰","STREET":"大同路","SECT":"二段","MAREA":" ","LANE":"７５０巷","ALLEY":"７４弄","HOUSE_NO":"１號","E_COORD97":169348.92000000001,"N_COORD97":2540715.3599999999,"ADDRESS":"大同路二段７５０巷７４弄１號","OBJECTID":104548},"geometry":{"x":169348.91999999993,"y":2540715.3599999975}},{"attributes":{"ID":104549,"DIS_CODE":0,"TOWNNAME":"佳里區","LI":"子龍里","LIN":"9鄰","STREET":" ","SECT":" ","MAREA":"子良廟","LANE":" ","ALLEY":" ","HOUSE_NO":"１０１號之２","E_COORD97":169002.92999999999,"N_COORD97":2563878.0499999998,"ADDRESS":"子良廟１０１號之２","OBJECTID":104549},"geometry":{"x":169002.9299999997,"y":2563878.0500000007}},{"attributes":{"ID":104550,"DIS_CODE":0,"TOWNNAME":"佳里區","LI":"子龍里","LIN":"9鄰","STREET":" ","SECT":" ","MAREA":"子良廟","LANE":" ","ALLEY":" ","HOUSE_NO":"１０１號","E_COORD97":169013.32000000001,"N_COORD97":2563878.6899999999,"ADDRESS":"子良廟１０１號","OBJECTID":104550},"geometry":{"x":169013.32000000216,"y":2563878.6899999995}},{"attributes":{"ID":104551,"DIS_CODE":0,"TOWNNAME":"佳里區","LI":"子龍里","LIN":"9鄰","STREET":" ","SECT":" ","MAREA":"子良廟","LANE":" ","ALLEY":" ","HOUSE_NO":"１０２號","E_COORD97":169019.09,"N_COORD97":2563869.8700000001,"ADDRESS":"子良廟１０２號","OBJECTID":104551},"geometry":{"x":169019.08999999985,"y":2563869.8699999992}},{"attributes":{"ID":104552,"DIS_CODE":0,"TOWNNAME":"佳里區","LI":"子龍里","LIN":"9鄰","STREET":" ","SECT":" ","MAREA":"子良廟","LANE":" ","ALLEY":" ","HOUSE_NO":"１０３號","E_COORD97":169007.39000000001,"N_COORD97":2563850.8199999998,"ADDRESS":"子良廟１０３號","OBJECTID":104552},"geometry":{"x":169007.3900000006,"y":2563850.8200000022}},{"attributes":{"ID":104553,"DIS_CODE":0,"TOWNNAME":"佳里區","LI":"子龍里","LIN":"9鄰","STREET":" ","SECT":" ","MAREA":"子良廟","LANE":" ","ALLEY":" ","HOUSE_NO":"１６５號之１","E_COORD97":169053.20999999999,"N_COORD97":2563902.8300000001,"ADDRESS":"子良廟１６５號之１","OBJECTID":104553},"geometry":{"x":169053.21000000089,"y":2563902.8300000001}},{"attributes":{"ID":104554,"DIS_CODE":0,"TOWNNAME":"佳里區","LI":"子龍里","LIN":"9鄰","STREET":" ","SECT":" ","MAREA":"子良廟","LANE":" ","ALLEY":" ","HOUSE_NO":"１６５號之２","E_COORD97":169102.57000000001,"N_COORD97":2563838.1800000002,"ADDRESS":"子良廟１６５號之２","OBJECTID":104554},"geometry":{"x":169102.5700000003,"y":2563838.1799999997}},{"attributes":{"ID":104555,"DIS_CODE":0,"TOWNNAME":"佳里區","LI":"子龍里","LIN":"9鄰","STREET":" ","SECT":" ","MAREA":"子良廟","LANE":" ","ALLEY":" ","HOUSE_NO":"１６５號之３","E_COORD97":169086.12,"N_COORD97":2563823.9300000002,"ADDRESS":"子良廟１６５號之３","OBJECTID":104555},"geometry":{"x":169086.12000000104,"y":2563823.9299999997}},{"attributes":{"ID":104556,"DIS_CODE":0,"TOWNNAME":"北區","LI":"文元里","LIN":"1鄰","STREET":"北成路","SECT":" ","MAREA":" ","LANE":" ","ALLEY":" ","HOUSE_NO":"４６３號","E_COORD97":167879.37,"N_COORD97":2546535.5699999998,"ADDRESS":"北成路４６３號","OBJECTID":104556},"geometry":{"x":167879.37000000104,"y":2546535.5700000003}},{"attributes":{"ID":104557,"DIS_CODE":0,"TOWNNAME":"北區","LI":"文元里","LIN":"1鄰","STREET":"北成路","SECT":" ","MAREA":" ","LANE":" ","ALLEY":" ","HOUSE_NO":"４６５號","E_COORD97":167875.94,"N_COORD97":2546535.1899999999,"ADDRESS":"北成路４６５號","OBJECTID":104557},"geometry":{"x":167875.94000000134,"y":2546535.1900000013}},{"attributes":{"ID":104558,"DIS_CODE":0,"TOWNNAME":"玉井區","LI":"三和里","LIN":"1鄰","STREET":" ","SECT":" ","MAREA":"三和","LANE":" ","ALLEY":" ","HOUSE_NO":"７之５６號","E_COORD97":194315.73000000001,"N_COORD97":2556887.2999999998,"ADDRESS":"三和７之５６號","OBJECTID":104558},"geometry":{"x":194315.73000000045,"y":2556887.3000000026}},{"attributes":{"ID":104559,"DIS_CODE":0,"TOWNNAME":"南區","LI":"大恩里","LIN":"9鄰","STREET":"大同路","SECT":"二段","MAREA":" ","LANE":"７５０巷","ALLEY":"７４弄","HOUSE_NO":"２０號","E_COORD97":169384.25,"N_COORD97":2540761.9500000002,"ADDRESS":"大同路二段７５０巷７４弄２０號","OBJECTID":104559},"geometry":{"x":169384.25,"y":2540761.9499999993}},{"attributes":{"ID":104560,"DIS_CODE":0,"TOWNNAME":"南區","LI":"大恩里","LIN":"9鄰","STREET":"大同路","SECT":"二段","MAREA":" ","LANE":"７５０巷","ALLEY":"７４弄","HOUSE_NO":"２１號","E_COORD97":169364.81,"N_COORD97":2540767.7599999998,"ADDRESS":"大同路二段７５０巷７４弄２１號","OBJECTID":104560},"geometry":{"x":169364.80999999959,"y":2540767.7600000016}},{"attributes":{"ID":104561,"DIS_CODE":0,"TOWNNAME":"南區","LI":"大恩里","LIN":"9鄰","STREET":"大同路","SECT":"二段","MAREA":" ","LANE":"７５０巷","ALLEY":"７４弄","HOUSE_NO":"２２號","E_COORD97":169387.14999999999,"N_COORD97":2540771.27,"ADDRESS":"大同路二段７５０巷７４弄２２號","OBJECTID":104561},"geometry":{"x":169387.15000000037,"y":2540771.2700000014}},{"attributes":{"ID":104562,"DIS_CODE":0,"TOWNNAME":"南區","LI":"大恩里","LIN":"9鄰","STREET":"大同路","SECT":"二段","MAREA":" ","LANE":"７５０巷","ALLEY":"７４弄","HOUSE_NO":"２３號","E_COORD97":169369,"N_COORD97":2540776.9900000002,"ADDRESS":"大同路二段７５０巷７４弄２３號","OBJECTID":104562},"geometry":{"x":169369,"y":2540776.9900000021}},{"attributes":{"ID":104563,"DIS_CODE":0,"TOWNNAME":"南區","LI":"大恩里","LIN":"9鄰","STREET":"大同路","SECT":"二段","MAREA":" ","LANE":"７５０巷","ALLEY":"７４弄","HOUSE_NO":"２４號","E_COORD97":169389.19,"N_COORD97":2540775.8799999999,"ADDRESS":"大同路二段７５０巷７４弄２４號","OBJECTID":104563},"geometry":{"x":169389.19000000134,"y":2540775.8800000027}},{"attributes":{"ID":104564,"DIS_CODE":0,"TOWNNAME":"南區","LI":"大恩里","LIN":"9鄰","STREET":"大同路","SECT":"二段","MAREA":" ","LANE":"７５０巷","ALLEY":"７４弄","HOUSE_NO":"２５號","E_COORD97":169370.5,"N_COORD97":2540782.25,"ADDRESS":"大同路二段７５０巷７４弄２５號","OBJECTID":104564},"geometry":{"x":169370.5,"y":2540782.2500000019}},{"attributes":{"ID":104565,"DIS_CODE":0,"TOWNNAME":"玉井區","LI":"三和里","LIN":"1鄰","STREET":" ","SECT":" ","MAREA":"三和","LANE":" ","ALLEY":" ","HOUSE_NO":"１０之５號","E_COORD97":194597.13,"N_COORD97":2557117.2999999998,"ADDRESS":"三和１０之５號","OBJECTID":104565},"geometry":{"x":194597.12999999989,"y":2557117.3000000026}},{"attributes":{"ID":104566,"DIS_CODE":0,"TOWNNAME":"玉井區","LI":"三和里","LIN":"1鄰","STREET":" ","SECT":" ","MAREA":"三和","LANE":" ","ALLEY":" ","HOUSE_NO":"９號","E_COORD97":194564.67999999999,"N_COORD97":2557155.2400000002,"ADDRESS":"三和９號","OBJECTID":104566},"geometry":{"x":194564.6799999997,"y":2557155.2400000021}},{"attributes":{"ID":104567,"DIS_CODE":0,"TOWNNAME":"南區","LI":"大恩里","LIN":"9鄰","STREET":"大同路","SECT":"二段","MAREA":" ","LANE":"７５０巷","ALLEY":"７４弄","HOUSE_NO":"２６號","E_COORD97":169389.72,"N_COORD97":2540782.3199999998,"ADDRESS":"大同路二段７５０巷７４弄２６號","OBJECTID":104567},"geometry":{"x":169389.7200000016,"y":2540782.3200000022}},{"attributes":{"ID":104568,"DIS_CODE":0,"TOWNNAME":"南區","LI":"大恩里","LIN":"9鄰","STREET":"大同路","SECT":"二段","MAREA":" ","LANE":"７５０巷","ALLEY":"７４弄","HOUSE_NO":"２７號","E_COORD97":169372.01000000001,"N_COORD97":2540787.8199999998,"ADDRESS":"大同路二段７５０巷７４弄２７號","OBJECTID":104568},"geometry":{"x":169372.00999999978,"y":2540787.8199999984}},{"attributes":{"ID":104569,"DIS_CODE":0,"TOWNNAME":"玉井區","LI":"三埔里","LIN":"1鄰","STREET":" ","SECT":" ","MAREA":"三埔","LANE":" ","ALLEY":" ","HOUSE_NO":"１４號","E_COORD97":197077.13,"N_COORD97":2555548.25,"ADDRESS":"三埔１４號","OBJECTID":104569},"geometry":{"x":197077.13000000082,"y":2555548.25}},{"attributes":{"ID":104570,"DIS_CODE":0,"TOWNNAME":"南區","LI":"大恩里","LIN":"9鄰","STREET":"大同路","SECT":"二段","MAREA":" ","LANE":"７５０巷","ALLEY":"７４弄","HOUSE_NO":"２８號","E_COORD97":169391.98000000001,"N_COORD97":2540787.8999999999,"ADDRESS":"大同路二段７５０巷７４弄２８號","OBJECTID":104570},"geometry":{"x":169391.97999999952,"y":2540787.9000000022}},{"attributes":{"ID":104571,"DIS_CODE":0,"TOWNNAME":"南區","LI":"大恩里","LIN":"9鄰","STREET":"大同路","SECT":"二段","MAREA":" ","LANE":"７５０巷","ALLEY":"７４弄","HOUSE_NO":"２９號","E_COORD97":169373.29000000001,"N_COORD97":2540792.9100000001,"ADDRESS":"大同路二段７５０巷７４弄２９號","OBJECTID":104571},"geometry":{"x":169373.29000000097,"y":2540792.9100000001}},{"attributes":{"ID":104572,"DIS_CODE":0,"TOWNNAME":"玉井區","LI":"三和里","LIN":"1鄰","STREET":" ","SECT":" ","MAREA":"三和","LANE":" ","ALLEY":" ","HOUSE_NO":"７之５９號","E_COORD97":194308.23000000001,"N_COORD97":2556882.2999999998,"ADDRESS":"三和７之５９號","OBJECTID":104572},"geometry":{"x":194308.23000000138,"y":2556882.3000000007}},{"attributes":{"ID":104573,"DIS_CODE":0,"TOWNNAME":"玉井區","LI":"望明里","LIN":"1鄰","STREET":" ","SECT":" ","MAREA":"望明","LANE":" ","ALLEY":" ","HOUSE_NO":"４號","E_COORD97":194334.39000000001,"N_COORD97":2556133.2400000002,"ADDRESS":"望明４號","OBJECTID":104573},"geometry":{"x":194334.38999999966,"y":2556133.2400000039}},{"attributes":{"ID":104574,"DIS_CODE":0,"TOWNNAME":"玉井區","LI":"三和里","LIN":"1鄰","STREET":" ","SECT":" ","MAREA":"三和","LANE":" ","ALLEY":" ","HOUSE_NO":"１７號","E_COORD97":194631.34,"N_COORD97":2556999.25,"ADDRESS":"三和１７號","OBJECTID":104574},"geometry":{"x":194631.33999999985,"y":2556999.25}},{"attributes":{"ID":104575,"DIS_CODE":0,"TOWNNAME":"玉井區","LI":"三和里","LIN":"1鄰","STREET":" ","SECT":" ","MAREA":"三和","LANE":" ","ALLEY":" ","HOUSE_NO":"７之６５號","E_COORD97":194295.84,"N_COORD97":2556876.2999999998,"ADDRESS":"三和７之６５號","OBJECTID":104575},"geometry":{"x":194295.83999999985,"y":2556876.3000000026}},{"attributes":{"ID":104576,"DIS_CODE":0,"TOWNNAME":"南區","LI":"大恩里","LIN":"9鄰","STREET":"大同路","SECT":"二段","MAREA":" ","LANE":"７５０巷","ALLEY":"７４弄","HOUSE_NO":"２號","E_COORD97":169367.17000000001,"N_COORD97":2540715.4700000002,"ADDRESS":"大同路二段７５０巷７４弄２號","OBJECTID":104576},"geometry":{"x":169367.17000000086,"y":2540715.4700000007}},{"attributes":{"ID":104577,"DIS_CODE":0,"TOWNNAME":"南區","LI":"大恩里","LIN":"9鄰","STREET":"大同路","SECT":"二段","MAREA":" ","LANE":"７５０巷","ALLEY":"７４弄","HOUSE_NO":"３０號","E_COORD97":169392.41,"N_COORD97":2540792.9100000001,"ADDRESS":"大同路二段７５０巷７４弄３０號","OBJECTID":104577},"geometry":{"x":169392.41000000108,"y":2540792.9100000001}},{"attributes":{"ID":104578,"DIS_CODE":0,"TOWNNAME":"玉井區","LI":"三和里","LIN":"1鄰","STREET":" ","SECT":" ","MAREA":"三和","LANE":" ","ALLEY":" ","HOUSE_NO":"１４號","E_COORD97":194699.42999999999,"N_COORD97":2557095.25,"ADDRESS":"三和１４號","OBJECTID":104578},"geometry":{"x":194699.43000000063,"y":2557095.25}},{"attributes":{"ID":104579,"DIS_CODE":0,"TOWNNAME":"佳里區","LI":"子龍里","LIN":"9鄰","STREET":" ","SECT":" ","MAREA":"子良廟","LANE":" ","ALLEY":" ","HOUSE_NO":"１６５號之５","E_COORD97":169113.20000000001,"N_COORD97":2563784.8700000001,"ADDRESS":"子良廟１６５號之５","OBJECTID":104579},"geometry":{"x":169113.20000000019,"y":2563784.870000001}},{"attributes":{"ID":104580,"DIS_CODE":0,"TOWNNAME":"佳里區","LI":"子龍里","LIN":"9鄰","STREET":" ","SECT":" ","MAREA":"子良廟","LANE":" ","ALLEY":" ","HOUSE_NO":"１６５號","E_COORD97":169057.57000000001,"N_COORD97":2563870.21,"ADDRESS":"子良廟１６５號","OBJECTID":104580},"geometry":{"x":169057.57000000123,"y":2563870.2100000009}},{"attributes":{"ID":104581,"DIS_CODE":0,"TOWNNAME":"佳里區","LI":"子龍里","LIN":"9鄰","STREET":" ","SECT":" ","MAREA":"子良廟","LANE":" ","ALLEY":" ","HOUSE_NO":"４０號之１０","E_COORD97":169363.26000000001,"N_COORD97":2564031.0499999998,"ADDRESS":"子良廟４０號之１０","OBJECTID":104581},"geometry":{"x":169363.25999999978,"y":2564031.0499999989}},{"attributes":{"ID":104582,"DIS_CODE":0,"TOWNNAME":"佳里區","LI":"子龍里","LIN":"9鄰","STREET":" ","SECT":" ","MAREA":"子良廟","LANE":" ","ALLEY":" ","HOUSE_NO":"４０號之１３","E_COORD97":169321.98999999999,"N_COORD97":2564262.4199999999,"ADDRESS":"子良廟４０號之１３","OBJECTID":104582},"geometry":{"x":169321.99000000022,"y":2564262.4200000018}},{"attributes":{"ID":104583,"DIS_CODE":0,"TOWNNAME":"玉井區","LI":"望明里","LIN":"1鄰","STREET":" ","SECT":" ","MAREA":"望明","LANE":" ","ALLEY":" ","HOUSE_NO":"１０之１號","E_COORD97":194425.42999999999,"N_COORD97":2556141.2999999998,"ADDRESS":"望明１０之１號","OBJECTID":104583},"geometry":{"x":194425.4299999997,"y":2556141.3000000026}},{"attributes":{"ID":104584,"DIS_CODE":0,"TOWNNAME":"南區","LI":"大恩里","LIN":"9鄰","STREET":"大同路","SECT":"二段","MAREA":" ","LANE":"７５０巷","ALLEY":"７４弄","HOUSE_NO":"３１號","E_COORD97":169374.48000000001,"N_COORD97":2540798.3799999999,"ADDRESS":"大同路二段７５０巷７４弄３１號","OBJECTID":104584},"geometry":{"x":169374.48000000045,"y":2540798.379999999}},{"attributes":{"ID":104585,"DIS_CODE":0,"TOWNNAME":"玉井區","LI":"豐里里","LIN":"1鄰","STREET":" ","SECT":" ","MAREA":"豐里","LANE":" ","ALLEY":" ","HOUSE_NO":"１１號","E_COORD97":193220.97,"N_COORD97":2558101.2400000002,"ADDRESS":"豐里１１號","OBJECTID":104585},"geometry":{"x":193220.97000000067,"y":2558101.2400000021}},{"attributes":{"ID":104586,"DIS_CODE":0,"TOWNNAME":"玉井區","LI":"豐里里","LIN":"1鄰","STREET":" ","SECT":" ","MAREA":"豐里","LANE":" ","ALLEY":" ","HOUSE_NO":"５號之１","E_COORD97":193312.45000000001,"N_COORD97":2558028.2999999998,"ADDRESS":"豐里５號之１","OBJECTID":104586},"geometry":{"x":193312.45000000019,"y":2558028.3000000007}},{"attributes":{"ID":104587,"DIS_CODE":0,"TOWNNAME":"南區","LI":"大恩里","LIN":"9鄰","STREET":"大同路","SECT":"二段","MAREA":" ","LANE":"７５０巷","ALLEY":"７４弄","HOUSE_NO":"３２號","E_COORD97":169393.70000000001,"N_COORD97":2540798.3799999999,"ADDRESS":"大同路二段７５０巷７４弄３２號","OBJECTID":104587},"geometry":{"x":169393.70000000205,"y":2540798.379999999}},{"attributes":{"ID":104588,"DIS_CODE":0,"TOWNNAME":"南區","LI":"大恩里","LIN":"9鄰","STREET":"大同路","SECT":"二段","MAREA":" ","LANE":"７５０巷","ALLEY":"７４弄","HOUSE_NO":"３３號","E_COORD97":169376.09,"N_COORD97":2540804.1800000002,"ADDRESS":"大同路二段７５０巷７４弄３３號","OBJECTID":104588},"geometry":{"x":169376.09000000078,"y":2540804.1799999997}},{"attributes":{"ID":104589,"DIS_CODE":0,"TOWNNAME":"玉井區","LI":"三和里","LIN":"1鄰","STREET":" ","SECT":" ","MAREA":"三和","LANE":" ","ALLEY":" ","HOUSE_NO":"２之８號","E_COORD97":194481.88,"N_COORD97":2557228.29,"ADDRESS":"三和２之８號","OBJECTID":104589},"geometry":{"x":194481.87999999989,"y":2557228.290000001}},{"attributes":{"ID":104590,"DIS_CODE":0,"TOWNNAME":"玉井區","LI":"三和里","LIN":"1鄰","STREET":" ","SECT":" ","MAREA":"三和","LANE":" ","ALLEY":" ","HOUSE_NO":"３之１６號","E_COORD97":194583.14000000001,"N_COORD97":2557226.2999999998,"ADDRESS":"三和３之１６號","OBJECTID":104590},"geometry":{"x":194583.1400000006,"y":2557226.3000000026}},{"attributes":{"ID":104591,"DIS_CODE":0,"TOWNNAME":"玉井區","LI":"三和里","LIN":"1鄰","STREET":" ","SECT":" ","MAREA":"三和","LANE":" ","ALLEY":" ","HOUSE_NO":"７之３６號","E_COORD97":194352.54000000001,"N_COORD97":2556934.29,"ADDRESS":"三和７之３６號","OBJECTID":104591},"geometry":{"x":194352.54000000004,"y":2556934.2899999991}},{"attributes":{"ID":104592,"DIS_CODE":0,"TOWNNAME":"南區","LI":"大恩里","LIN":"9鄰","STREET":"大同路","SECT":"二段","MAREA":" ","LANE":"７５０巷","ALLEY":"７４弄","HOUSE_NO":"３號","E_COORD97":169350.42000000001,"N_COORD97":2540720.8300000001,"ADDRESS":"大同路二段７５０巷７４弄３號","OBJECTID":104592},"geometry":{"x":169350.41999999993,"y":2540720.8300000019}},{"attributes":{"ID":104593,"DIS_CODE":0,"TOWNNAME":"南區","LI":"大恩里","LIN":"9鄰","STREET":"大同路","SECT":"二段","MAREA":" ","LANE":"７５０巷","ALLEY":"７４弄","HOUSE_NO":"４號","E_COORD97":169368.89000000001,"N_COORD97":2540720.6200000001,"ADDRESS":"大同路二段７５０巷７４弄４號","OBJECTID":104593},"geometry":{"x":169368.8900000006,"y":2540720.620000001}},{"attributes":{"ID":104594,"DIS_CODE":0,"TOWNNAME":"南區","LI":"大恩里","LIN":"9鄰","STREET":"大同路","SECT":"二段","MAREA":" ","LANE":"７５０巷","ALLEY":"７４弄","HOUSE_NO":"５號","E_COORD97":169352.57000000001,"N_COORD97":2540725.5499999998,"ADDRESS":"大同路二段７５０巷７４弄５號","OBJECTID":104594},"geometry":{"x":169352.57000000123,"y":2540725.5500000007}},{"attributes":{"ID":104595,"DIS_CODE":0,"TOWNNAME":"南區","LI":"大恩里","LIN":"9鄰","STREET":"大同路","SECT":"二段","MAREA":" ","LANE":"７５０巷","ALLEY":"７４弄","HOUSE_NO":"６號","E_COORD97":169370.92999999999,"N_COORD97":2540725.5499999998,"ADDRESS":"大同路二段７５０巷７４弄６號","OBJECTID":104595},"geometry":{"x":169370.9299999997,"y":2540725.5500000007}},{"attributes":{"ID":104596,"DIS_CODE":0,"TOWNNAME":"玉井區","LI":"沙田里","LIN":"1鄰","STREET":" ","SECT":" ","MAREA":"沙田","LANE":" ","ALLEY":" ","HOUSE_NO":"３之３號","E_COORD97":195518.82000000001,"N_COORD97":2557199.2999999998,"ADDRESS":"沙田３之３號","OBJECTID":104596},"geometry":{"x":195518.8200000003,"y":2557199.3000000026}},{"attributes":{"ID":104597,"DIS_CODE":0,"TOWNNAME":"南區","LI":"大恩里","LIN":"9鄰","STREET":"大同路","SECT":"二段","MAREA":" ","LANE":"７５０巷","ALLEY":"７４弄","HOUSE_NO":"７號","E_COORD97":169353.85999999999,"N_COORD97":2540731.2400000002,"ADDRESS":"大同路二段７５０巷７４弄７號","OBJECTID":104597},"geometry":{"x":169353.8600000022,"y":2540731.2400000021}},{"attributes":{"ID":104598,"DIS_CODE":0,"TOWNNAME":"玉井區","LI":"望明里","LIN":"1鄰","STREET":" ","SECT":" ","MAREA":"望明","LANE":" ","ALLEY":" ","HOUSE_NO":"１號","E_COORD97":194385.88,"N_COORD97":2556183.25,"ADDRESS":"望明１號","OBJECTID":104598},"geometry":{"x":194385.87999999989,"y":2556183.25}},{"attributes":{"ID":104599,"DIS_CODE":0,"TOWNNAME":"玉井區","LI":"層林里","LIN":"1鄰","STREET":" ","SECT":" ","MAREA":"層林","LANE":" ","ALLEY":" ","HOUSE_NO":"４號之１","E_COORD97":193956.84,"N_COORD97":2554129.29,"ADDRESS":"層林４號之１","OBJECTID":104599},"geometry":{"x":193956.83999999985,"y":2554129.290000001}},{"attributes":{"ID":104600,"DIS_CODE":0,"TOWNNAME":"佳里區","LI":"子龍里","LIN":"9鄰","STREET":" ","SECT":" ","MAREA":"子良廟","LANE":" ","ALLEY":" ","HOUSE_NO":"４０號之１４","E_COORD97":169214.81,"N_COORD97":2564059.3799999999,"ADDRESS":"子良廟４０號之１４","OBJECTID":104600},"geometry":{"x":169214.81000000052,"y":2564059.3800000008}}]}