{"displayFieldName":"TOWNNAME","fieldAliases":{"ID":"ID","DIS_CODE":"DIS_CODE","TOWNNAME":"TOWNNAME","LI":"LI","LIN":"LIN","STREET":"STREET","SECT":"SECT","MAREA":"MAREA","LANE":"LANE","ALLEY":"ALLEY","HOUSE_NO":"HOUSE_NO","E_COORD97":"E_COORD97","N_COORD97":"N_COORD97","ADDRESS":"ADDRESS","OBJECTID":"OBJECTID"},"geometryType":"esriGeometryPoint","spatialReference":{"wkid":102443,"latestWkid":3826},"fields":[{"name":"ID","type":"esriFieldTypeDouble","alias":"ID"},{"name":"DIS_CODE","type":"esriFieldTypeInteger","alias":"DIS_CODE"},{"name":"TOWNNAME","type":"esriFieldTypeString","alias":"TOWNNAME","length":8},{"name":"LI","type":"esriFieldTypeString","alias":"LI","length":8},{"name":"LIN","type":"esriFieldTypeString","alias":"LIN","length":12},{"name":"STREET","type":"esriFieldTypeString","alias":"STREET","length":20},{"name":"SECT","type":"esriFieldTypeString","alias":"SECT","length":8},{"name":"MAREA","type":"esriFieldTypeString","alias":"MAREA","length":12},{"name":"LANE","type":"esriFieldTypeString","alias":"LANE","length":10},{"name":"ALLEY","type":"esriFieldTypeString","alias":"ALLEY","length":10},{"name":"HOUSE_NO","type":"esriFieldTypeString","alias":"HOUSE_NO","length":20},{"name":"E_COORD97","type":"esriFieldTypeDouble","alias":"E_COORD97"},{"name":"N_COORD97","type":"esriFieldTypeDouble","alias":"N_COORD97"},{"name":"ADDRESS","type":"esriFieldTypeString","alias":"ADDRESS","length":50},{"name":"OBJECTID","type":"esriFieldTypeOID","alias":"OBJECTID"}],"features":[{"attributes":{"ID":234805,"DIS_CODE":0,"TOWNNAME":"永康區","LI":"大橋里","LIN":" ","STREET":"中華路","SECT":" ","MAREA":" ","LANE":" ","ALLEY":" ","HOUSE_NO":"７９８號","E_COORD97":170778.29000000001,"N_COORD97":2546505.4900000002,"ADDRESS":"中華路７９８號","OBJECTID":234801},"geometry":{"x":170778.29000000097,"y":2546505.4900000002}},{"attributes":{"ID":234806,"DIS_CODE":0,"TOWNNAME":"南化區","LI":"西埔里","LIN":"16鄰","STREET":" ","SECT":" ","MAREA":"西埔","LANE":" ","ALLEY":" ","HOUSE_NO":"１９６號","E_COORD97":192664.89000000001,"N_COORD97":2548568.75,"ADDRESS":"西埔１９６號","OBJECTID":234802},"geometry":{"x":192664.88999999966,"y":2548568.75}},{"attributes":{"ID":234807,"DIS_CODE":0,"TOWNNAME":"新營區","LI":"新南里","LIN":"16鄰","STREET":"隋唐街","SECT":" ","MAREA":" ","LANE":"３１巷","ALLEY":" ","HOUSE_NO":"４５號","E_COORD97":178695.76000000001,"N_COORD97":2578356.3399999999,"ADDRESS":"隋唐街３１巷４５號","OBJECTID":234803},"geometry":{"x":178695.75999999978,"y":2578356.3400000036}},{"attributes":{"ID":234808,"DIS_CODE":0,"TOWNNAME":"新營區","LI":"新南里","LIN":"16鄰","STREET":"隋唐街","SECT":" ","MAREA":" ","LANE":"３１巷","ALLEY":" ","HOUSE_NO":"５３號","E_COORD97":178684.28,"N_COORD97":2578323.1699999999,"ADDRESS":"隋唐街３１巷５３號","OBJECTID":234804},"geometry":{"x":178684.28000000026,"y":2578323.1699999999}},{"attributes":{"ID":234809,"DIS_CODE":0,"TOWNNAME":"新營區","LI":"南紙里","LIN":"16鄰","STREET":"南紙街","SECT":" ","MAREA":" ","LANE":"１６２巷","ALLEY":" ","HOUSE_NO":"４８號","E_COORD97":177846.81,"N_COORD97":2577312.7999999998,"ADDRESS":"南紙街１６２巷４８號","OBJECTID":234805},"geometry":{"x":177846.81000000052,"y":2577312.8000000007}},{"attributes":{"ID":234810,"DIS_CODE":0,"TOWNNAME":"新營區","LI":"忠政里","LIN":"16鄰","STREET":"府西路","SECT":" ","MAREA":" ","LANE":"２６１巷","ALLEY":" ","HOUSE_NO":"４號","E_COORD97":179778.35000000001,"N_COORD97":2579781.9900000002,"ADDRESS":"府西路２６１巷４號","OBJECTID":234806},"geometry":{"x":179778.34999999963,"y":2579781.9900000002}},{"attributes":{"ID":234811,"DIS_CODE":0,"TOWNNAME":"新營區","LI":"忠政里","LIN":"16鄰","STREET":"府西路","SECT":" ","MAREA":" ","LANE":"２６１巷","ALLEY":" ","HOUSE_NO":"１３號","E_COORD97":179760.03,"N_COORD97":2579767.6899999999,"ADDRESS":"府西路２６１巷１３號","OBJECTID":234807},"geometry":{"x":179760.03000000119,"y":2579767.6900000013}},{"attributes":{"ID":234812,"DIS_CODE":0,"TOWNNAME":"新營區","LI":"南紙里","LIN":"16鄰","STREET":"南紙街","SECT":" ","MAREA":" ","LANE":"１６２巷","ALLEY":" ","HOUSE_NO":"５２號","E_COORD97":177861.07000000001,"N_COORD97":2577312.73,"ADDRESS":"南紙街１６２巷５２號","OBJECTID":234808},"geometry":{"x":177861.07000000123,"y":2577312.7300000004}},{"attributes":{"ID":234813,"DIS_CODE":0,"TOWNNAME":"麻豆區","LI":"小埤里","LIN":"6鄰","STREET":" ","SECT":" ","MAREA":"小埤頭","LANE":" ","ALLEY":" ","HOUSE_NO":"３１號之１２","E_COORD97":171548.91,"N_COORD97":2566016.77,"ADDRESS":"小埤頭３１號之１２","OBJECTID":234809},"geometry":{"x":171548.91000000108,"y":2566016.7700000014}},{"attributes":{"ID":234814,"DIS_CODE":0,"TOWNNAME":"歸仁區","LI":"武東里","LIN":"1鄰","STREET":"武東二街","SECT":" ","MAREA":" ","LANE":"４２巷","ALLEY":" ","HOUSE_NO":"６２號","E_COORD97":175700.53530399999,"N_COORD97":2535157.9254200002,"ADDRESS":"武東二街４２巷６２號","OBJECTID":234810},"geometry":{"x":175700.53530399874,"y":2535157.9254170004}},{"attributes":{"ID":234815,"DIS_CODE":0,"TOWNNAME":"安平區","LI":"石門里","LIN":"4鄰","STREET":"安北路","SECT":" ","MAREA":" ","LANE":"１６巷","ALLEY":" ","HOUSE_NO":"２７號","E_COORD97":164736.67000000001,"N_COORD97":2544553.1800000002,"ADDRESS":"安北路１６巷２７號","OBJECTID":234811},"geometry":{"x":164736.66999999993,"y":2544553.1800000016}},{"attributes":{"ID":234816,"DIS_CODE":0,"TOWNNAME":"安平區","LI":"石門里","LIN":"4鄰","STREET":"安北路","SECT":" ","MAREA":" ","LANE":"１６巷","ALLEY":" ","HOUSE_NO":"３號","E_COORD97":164704.10999999999,"N_COORD97":2544501.79,"ADDRESS":"安北路１６巷３號","OBJECTID":234812},"geometry":{"x":164704.11000000127,"y":2544501.7899999991}},{"attributes":{"ID":234817,"DIS_CODE":0,"TOWNNAME":"東區","LI":"東門里","LIN":"14鄰","STREET":"東門路","SECT":"一段","MAREA":" ","LANE":" ","ALLEY":" ","HOUSE_NO":"１９９號","E_COORD97":169623.17999999999,"N_COORD97":2543126.7000000002,"ADDRESS":"東門路一段１９９號","OBJECTID":234813},"geometry":{"x":169623.1799999997,"y":2543126.6999999993}},{"attributes":{"ID":234818,"DIS_CODE":0,"TOWNNAME":"東區","LI":"東門里","LIN":"14鄰","STREET":"慶東街","SECT":" ","MAREA":" ","LANE":" ","ALLEY":" ","HOUSE_NO":"８３號","E_COORD97":169627.67000000001,"N_COORD97":2543159.1800000002,"ADDRESS":"慶東街８３號","OBJECTID":234814},"geometry":{"x":169627.67000000179,"y":2543159.1800000016}},{"attributes":{"ID":234819,"DIS_CODE":0,"TOWNNAME":"麻豆區","LI":"大埕里","LIN":"9鄰","STREET":" ","SECT":" ","MAREA":"大埕","LANE":" ","ALLEY":" ","HOUSE_NO":"６６號","E_COORD97":173064.82000000001,"N_COORD97":2565486.5099999998,"ADDRESS":"大埕６６號","OBJECTID":234815},"geometry":{"x":173064.82000000216,"y":2565486.5100000016}},{"attributes":{"ID":234820,"DIS_CODE":0,"TOWNNAME":"東區","LI":"東門里","LIN":"14鄰","STREET":"慶東街","SECT":" ","MAREA":" ","LANE":" ","ALLEY":" ","HOUSE_NO":"８４號","E_COORD97":169644.48000000001,"N_COORD97":2543131.6099999999,"ADDRESS":"慶東街８４號","OBJECTID":234816},"geometry":{"x":169644.48000000045,"y":2543131.6100000013}},{"attributes":{"ID":234821,"DIS_CODE":0,"TOWNNAME":"東區","LI":"東門里","LIN":"14鄰","STREET":"慶東街","SECT":" ","MAREA":" ","LANE":" ","ALLEY":" ","HOUSE_NO":"８５號","E_COORD97":169628.37,"N_COORD97":2543170.3199999998,"ADDRESS":"慶東街８５號","OBJECTID":234817},"geometry":{"x":169628.37000000104,"y":2543170.3200000003}},{"attributes":{"ID":234822,"DIS_CODE":0,"TOWNNAME":"東區","LI":"東門里","LIN":"14鄰","STREET":"慶東街","SECT":" ","MAREA":" ","LANE":" ","ALLEY":" ","HOUSE_NO":"８６號","E_COORD97":169647.09,"N_COORD97":2543139.52,"ADDRESS":"慶東街８６號","OBJECTID":234818},"geometry":{"x":169647.09000000078,"y":2543139.5200000014}},{"attributes":{"ID":234823,"DIS_CODE":0,"TOWNNAME":"東區","LI":"東門里","LIN":"14鄰","STREET":"慶東街","SECT":" ","MAREA":" ","LANE":" ","ALLEY":" ","HOUSE_NO":"８６號之１","E_COORD97":169650.14999999999,"N_COORD97":2543148.8700000001,"ADDRESS":"慶東街８６號之１","OBJECTID":234819},"geometry":{"x":169650.15000000224,"y":2543148.8700000029}},{"attributes":{"ID":234824,"DIS_CODE":0,"TOWNNAME":"新營區","LI":"土庫里","LIN":"16鄰","STREET":" ","SECT":" ","MAREA":"卯舍","LANE":" ","ALLEY":" ","HOUSE_NO":"１２之２５號","E_COORD97":181741.39999999999,"N_COORD97":2580122.8300000001,"ADDRESS":"卯舍１２之２５號","OBJECTID":234820},"geometry":{"x":181741.40000000037,"y":2580122.8300000038}},{"attributes":{"ID":234825,"DIS_CODE":0,"TOWNNAME":"新營區","LI":"太南里","LIN":"16鄰","STREET":" ","SECT":" ","MAREA":"太子宮","LANE":" ","ALLEY":" ","HOUSE_NO":"３０５之２１號","E_COORD97":175955.29999999999,"N_COORD97":2576705.3500000001,"ADDRESS":"太子宮３０５之２１號","OBJECTID":234821},"geometry":{"x":175955.30000000075,"y":2576705.3500000015}},{"attributes":{"ID":234826,"DIS_CODE":0,"TOWNNAME":"新營區","LI":"土庫里","LIN":"16鄰","STREET":" ","SECT":" ","MAREA":"卯舍","LANE":" ","ALLEY":" ","HOUSE_NO":"１２之２６號","E_COORD97":181736.28,"N_COORD97":2580120.6400000001,"ADDRESS":"卯舍１２之２６號","OBJECTID":234822},"geometry":{"x":181736.28000000119,"y":2580120.6400000006}},{"attributes":{"ID":234827,"DIS_CODE":0,"TOWNNAME":"新營區","LI":"太南里","LIN":"16鄰","STREET":" ","SECT":" ","MAREA":"太子宮","LANE":" ","ALLEY":" ","HOUSE_NO":"３０５之２２號","E_COORD97":175954.29000000001,"N_COORD97":2576708.6699999999,"ADDRESS":"太子宮３０５之２２號","OBJECTID":234823},"geometry":{"x":175954.29000000004,"y":2576708.6699999999}},{"attributes":{"ID":234828,"DIS_CODE":0,"TOWNNAME":"新營區","LI":"土庫里","LIN":"16鄰","STREET":" ","SECT":" ","MAREA":"卯舍","LANE":" ","ALLEY":" ","HOUSE_NO":"１２之７號","E_COORD97":181747.25,"N_COORD97":2580110.6200000001,"ADDRESS":"卯舍１２之７號","OBJECTID":234824},"geometry":{"x":181747.25,"y":2580110.620000001}},{"attributes":{"ID":234829,"DIS_CODE":0,"TOWNNAME":"新營區","LI":"土庫里","LIN":"16鄰","STREET":" ","SECT":" ","MAREA":"卯舍","LANE":" ","ALLEY":" ","HOUSE_NO":"１２之１０號","E_COORD97":181736.20999999999,"N_COORD97":2580107.3599999999,"ADDRESS":"卯舍１２之１０號","OBJECTID":234825},"geometry":{"x":181736.21000000089,"y":2580107.3599999994}},{"attributes":{"ID":234830,"DIS_CODE":0,"TOWNNAME":"新營區","LI":"忠政里","LIN":"16鄰","STREET":"府西路","SECT":" ","MAREA":" ","LANE":"２５９巷","ALLEY":" ","HOUSE_NO":"９號","E_COORD97":179765.70999999999,"N_COORD97":2579726.6800000002,"ADDRESS":"府西路２５９巷９號","OBJECTID":234826},"geometry":{"x":179765.70999999996,"y":2579726.6800000034}},{"attributes":{"ID":234831,"DIS_CODE":0,"TOWNNAME":"新營區","LI":"新南里","LIN":"16鄰","STREET":"隋唐街","SECT":" ","MAREA":" ","LANE":"３１巷","ALLEY":" ","HOUSE_NO":"２７號","E_COORD97":178711.32999999999,"N_COORD97":2578406.0899999999,"ADDRESS":"隋唐街３１巷２７號","OBJECTID":234827},"geometry":{"x":178711.33000000101,"y":2578406.0900000017}},{"attributes":{"ID":234832,"DIS_CODE":0,"TOWNNAME":"新營區","LI":"新南里","LIN":"16鄰","STREET":"隋唐街","SECT":" ","MAREA":" ","LANE":"３１巷","ALLEY":" ","HOUSE_NO":"３５號","E_COORD97":178704.07999999999,"N_COORD97":2578383.98,"ADDRESS":"隋唐街３１巷３５號","OBJECTID":234828},"geometry":{"x":178704.08000000007,"y":2578383.9800000023}},{"attributes":{"ID":234833,"DIS_CODE":0,"TOWNNAME":"新營區","LI":"新南里","LIN":"16鄰","STREET":"隋唐街","SECT":" ","MAREA":" ","LANE":"３１巷","ALLEY":" ","HOUSE_NO":"２５號","E_COORD97":178712.39000000001,"N_COORD97":2578412.7400000002,"ADDRESS":"隋唐街３１巷２５號","OBJECTID":234829},"geometry":{"x":178712.3900000006,"y":2578412.7400000021}},{"attributes":{"ID":234834,"DIS_CODE":0,"TOWNNAME":"新營區","LI":"土庫里","LIN":"16鄰","STREET":" ","SECT":" ","MAREA":"卯舍","LANE":" ","ALLEY":" ","HOUSE_NO":"１２之２０號","E_COORD97":181761.88,"N_COORD97":2580128.2799999998,"ADDRESS":"卯舍１２之２０號","OBJECTID":234830},"geometry":{"x":181761.87999999896,"y":2580128.2799999993}},{"attributes":{"ID":234835,"DIS_CODE":0,"TOWNNAME":"新營區","LI":"土庫里","LIN":"16鄰","STREET":" ","SECT":" ","MAREA":"卯舍","LANE":" ","ALLEY":" ","HOUSE_NO":"１２之２２號","E_COORD97":181751.64999999999,"N_COORD97":2580126.1099999999,"ADDRESS":"卯舍１２之２２號","OBJECTID":234831},"geometry":{"x":181751.65000000037,"y":2580126.1099999994}},{"attributes":{"ID":234836,"DIS_CODE":0,"TOWNNAME":"麻豆區","LI":"大埕里","LIN":"9鄰","STREET":" ","SECT":" ","MAREA":"大埕","LANE":" ","ALLEY":" ","HOUSE_NO":"８２號","E_COORD97":173161.37,"N_COORD97":2565451.1899999999,"ADDRESS":"大埕８２號","OBJECTID":234832},"geometry":{"x":173161.37000000104,"y":2565451.1900000013}},{"attributes":{"ID":234837,"DIS_CODE":0,"TOWNNAME":"北區","LI":"大和里","LIN":"4鄰","STREET":"大興街","SECT":" ","MAREA":" ","LANE":"９６巷","ALLEY":" ","HOUSE_NO":"１３號","E_COORD97":167114.14999999999,"N_COORD97":2545820.96,"ADDRESS":"大興街９６巷１３號","OBJECTID":234833},"geometry":{"x":167114.15000000224,"y":2545820.9600000009}},{"attributes":{"ID":234838,"DIS_CODE":0,"TOWNNAME":"東區","LI":"東門里","LIN":"14鄰","STREET":"慶東街","SECT":" ","MAREA":" ","LANE":" ","ALLEY":" ","HOUSE_NO":"８８號","E_COORD97":169648.94,"N_COORD97":2543153.79,"ADDRESS":"慶東街８８號","OBJECTID":234834},"geometry":{"x":169648.94000000134,"y":2543153.790000001}},{"attributes":{"ID":234839,"DIS_CODE":0,"TOWNNAME":"中西區","LI":"協和里","LIN":"14鄰","STREET":"西和路","SECT":" ","MAREA":" ","LANE":" ","ALLEY":" ","HOUSE_NO":"２１２號","E_COORD97":167123.04999999999,"N_COORD97":2544735.52,"ADDRESS":"西和路２１２號","OBJECTID":234835},"geometry":{"x":167123.05000000075,"y":2544735.5200000033}},{"attributes":{"ID":234840,"DIS_CODE":0,"TOWNNAME":"中西區","LI":"法華里","LIN":"14鄰","STREET":"府連路","SECT":" ","MAREA":" ","LANE":" ","ALLEY":" ","HOUSE_NO":"４１號","E_COORD97":168960.88,"N_COORD97":2542560.6200000001,"ADDRESS":"府連路４１號","OBJECTID":234836},"geometry":{"x":168960.87999999989,"y":2542560.6200000029}},{"attributes":{"ID":234841,"DIS_CODE":0,"TOWNNAME":"中西區","LI":"法華里","LIN":"14鄰","STREET":"府連路","SECT":" ","MAREA":" ","LANE":" ","ALLEY":" ","HOUSE_NO":"３９號","E_COORD97":168960.88,"N_COORD97":2542557.1299999999,"ADDRESS":"府連路３９號","OBJECTID":234837},"geometry":{"x":168960.87999999989,"y":2542557.129999999}},{"attributes":{"ID":234842,"DIS_CODE":0,"TOWNNAME":"新化區","LI":"全興里","LIN":"16鄰","STREET":" ","SECT":" ","MAREA":"竹子\u25A0","LANE":" ","ALLEY":" ","HOUSE_NO":"２４７號之５４６","E_COORD97":178263.07999999999,"N_COORD97":2546635.2599999998,"ADDRESS":"竹子\u25A0２４７號之５４６","OBJECTID":234838},"geometry":{"x":178263.08000000007,"y":2546635.2599999998}},{"attributes":{"ID":234843,"DIS_CODE":0,"TOWNNAME":"新營區","LI":"大宏里","LIN":"16鄰","STREET":"民治東路","SECT":" ","MAREA":" ","LANE":"１７巷","ALLEY":" ","HOUSE_NO":"１８號","E_COORD97":180749.81,"N_COORD97":2578838.2999999998,"ADDRESS":"民治東路１７巷１８號","OBJECTID":234839},"geometry":{"x":180749.80999999959,"y":2578838.3000000007}},{"attributes":{"ID":234844,"DIS_CODE":0,"TOWNNAME":"新營區","LI":"新南里","LIN":"16鄰","STREET":"隋唐街","SECT":" ","MAREA":" ","LANE":"３１巷","ALLEY":" ","HOUSE_NO":"２９號","E_COORD97":178709.26000000001,"N_COORD97":2578400.5699999998,"ADDRESS":"隋唐街３１巷２９號","OBJECTID":234840},"geometry":{"x":178709.25999999978,"y":2578400.5700000022}},{"attributes":{"ID":234845,"DIS_CODE":0,"TOWNNAME":"新營區","LI":"新南里","LIN":"16鄰","STREET":"隋唐街","SECT":" ","MAREA":" ","LANE":"３１巷","ALLEY":" ","HOUSE_NO":"３７號","E_COORD97":178703.03,"N_COORD97":2578377.3399999999,"ADDRESS":"隋唐街３１巷３７號","OBJECTID":234841},"geometry":{"x":178703.03000000026,"y":2578377.3400000017}},{"attributes":{"ID":234846,"DIS_CODE":0,"TOWNNAME":"新營區","LI":"大宏里","LIN":"16鄰","STREET":"民治東路","SECT":" ","MAREA":" ","LANE":"１７巷","ALLEY":" ","HOUSE_NO":"１０號","E_COORD97":180749.87,"N_COORD97":2578852.7000000002,"ADDRESS":"民治東路１７巷１０號","OBJECTID":234842},"geometry":{"x":180749.87000000011,"y":2578852.7000000011}},{"attributes":{"ID":234847,"DIS_CODE":0,"TOWNNAME":"新營區","LI":"大宏里","LIN":"16鄰","STREET":"民治東路","SECT":" ","MAREA":" ","LANE":"１７巷","ALLEY":" ","HOUSE_NO":"８號","E_COORD97":180747.70000000001,"N_COORD97":2578857.1299999999,"ADDRESS":"民治東路１７巷８號","OBJECTID":234843},"geometry":{"x":180747.70000000019,"y":2578857.129999999}},{"attributes":{"ID":234848,"DIS_CODE":0,"TOWNNAME":"新營區","LI":"忠政里","LIN":"16鄰","STREET":"府西路","SECT":" ","MAREA":" ","LANE":"２５９巷","ALLEY":" ","HOUSE_NO":"１６號","E_COORD97":179751.69,"N_COORD97":2579737.8199999998,"ADDRESS":"府西路２５９巷１６號","OBJECTID":234844},"geometry":{"x":179751.69000000227,"y":2579737.8200000022}},{"attributes":{"ID":234849,"DIS_CODE":0,"TOWNNAME":"歸仁區","LI":"武東里","LIN":"7鄰","STREET":"武東二街","SECT":" ","MAREA":" ","LANE":"４２巷","ALLEY":" ","HOUSE_NO":"２００號","E_COORD97":176184.73098299999,"N_COORD97":2535313.59852,"ADDRESS":"武東二街４２巷２００號","OBJECTID":234845},"geometry":{"x":176184.73098300118,"y":2535313.5985150002}},{"attributes":{"ID":234850,"DIS_CODE":0,"TOWNNAME":"新營區","LI":"大宏里","LIN":"16鄰","STREET":"民治東路","SECT":" ","MAREA":" ","LANE":"１７巷","ALLEY":" ","HOUSE_NO":"２０號","E_COORD97":180747.79000000001,"N_COORD97":2578829.46,"ADDRESS":"民治東路１７巷２０號","OBJECTID":234846},"geometry":{"x":180747.79000000097,"y":2578829.4600000009}},{"attributes":{"ID":234851,"DIS_CODE":0,"TOWNNAME":"新化區","LI":"協興里","LIN":"16鄰","STREET":"中山路","SECT":" ","MAREA":" ","LANE":"６６０巷","ALLEY":" ","HOUSE_NO":"４９號之７","E_COORD97":178054.39999999999,"N_COORD97":2548620.2599999998,"ADDRESS":"中山路６６０巷４９號之７","OBJECTID":234847},"geometry":{"x":178054.40000000037,"y":2548620.2600000016}},{"attributes":{"ID":234852,"DIS_CODE":0,"TOWNNAME":"新化區","LI":"東榮里","LIN":"16鄰","STREET":"中興路","SECT":" ","MAREA":" ","LANE":"６５２巷","ALLEY":" ","HOUSE_NO":"７號","E_COORD97":179679.41,"N_COORD97":2548123.25,"ADDRESS":"中興路６５２巷７號","OBJECTID":234848},"geometry":{"x":179679.41000000108,"y":2548123.25}},{"attributes":{"ID":234853,"DIS_CODE":0,"TOWNNAME":"中西區","LI":"協和里","LIN":"14鄰","STREET":"中和街","SECT":" ","MAREA":" ","LANE":" ","ALLEY":" ","HOUSE_NO":"１３５號","E_COORD97":167168.97,"N_COORD97":2544696.8900000001,"ADDRESS":"中和街１３５號","OBJECTID":234849},"geometry":{"x":167168.9700000016,"y":2544696.8900000043}},{"attributes":{"ID":234854,"DIS_CODE":0,"TOWNNAME":"中西區","LI":"藥王里","LIN":"14鄰","STREET":"和真街","SECT":" ","MAREA":" ","LANE":" ","ALLEY":" ","HOUSE_NO":"５號","E_COORD97":166998.16,"N_COORD97":2544452.1400000001,"ADDRESS":"和真街５號","OBJECTID":234850},"geometry":{"x":166998.16000000015,"y":2544452.1400000025}},{"attributes":{"ID":234855,"DIS_CODE":0,"TOWNNAME":"中西區","LI":"藥王里","LIN":"14鄰","STREET":"臨安路","SECT":"一段","MAREA":" ","LANE":" ","ALLEY":" ","HOUSE_NO":"７９號","E_COORD97":167006.20000000001,"N_COORD97":2544426.0899999999,"ADDRESS":"臨安路一段７９號","OBJECTID":234851},"geometry":{"x":167006.20000000019,"y":2544426.0899999999}},{"attributes":{"ID":234856,"DIS_CODE":0,"TOWNNAME":"中西區","LI":"藥王里","LIN":"14鄰","STREET":"臨安路","SECT":"一段","MAREA":" ","LANE":" ","ALLEY":" ","HOUSE_NO":"８１號","E_COORD97":167008.26000000001,"N_COORD97":2544427.3599999999,"ADDRESS":"臨安路一段８１號","OBJECTID":234852},"geometry":{"x":167008.26000000071,"y":2544427.3599999994}},{"attributes":{"ID":234857,"DIS_CODE":0,"TOWNNAME":"中西區","LI":"藥王里","LIN":"14鄰","STREET":"臨安路","SECT":"一段","MAREA":" ","LANE":" ","ALLEY":" ","HOUSE_NO":"８３號","E_COORD97":167014.14000000001,"N_COORD97":2544433.23,"ADDRESS":"臨安路一段８３號","OBJECTID":234853},"geometry":{"x":167014.1400000006,"y":2544433.2299999986}},{"attributes":{"ID":234858,"DIS_CODE":0,"TOWNNAME":"中西區","LI":"藥王里","LIN":"14鄰","STREET":"臨安路","SECT":"一段","MAREA":" ","LANE":" ","ALLEY":" ","HOUSE_NO":"８５號","E_COORD97":167019.85000000001,"N_COORD97":2544438.3100000001,"ADDRESS":"臨安路一段８５號","OBJECTID":234854},"geometry":{"x":167019.84999999963,"y":2544438.3100000005}},{"attributes":{"ID":234859,"DIS_CODE":0,"TOWNNAME":"安南區","LI":"溪心里","LIN":"14鄰","STREET":"本原街","SECT":"二段","MAREA":" ","LANE":" ","ALLEY":" ","HOUSE_NO":"５４２之１號","E_COORD97":165821.09,"N_COORD97":2550487.0499999998,"ADDRESS":"本原街二段５４２之１號","OBJECTID":234855},"geometry":{"x":165821.09000000078,"y":2550487.0500000026}},{"attributes":{"ID":234860,"DIS_CODE":0,"TOWNNAME":"安南區","LI":"州南里","LIN":"14鄰","STREET":"北安路","SECT":"四段","MAREA":" ","LANE":" ","ALLEY":" ","HOUSE_NO":"１３６號","E_COORD97":169462.32000000001,"N_COORD97":2551025.6899999999,"ADDRESS":"北安路四段１３６號","OBJECTID":234856},"geometry":{"x":169462.3200000003,"y":2551025.6899999995}},{"attributes":{"ID":234861,"DIS_CODE":0,"TOWNNAME":"安南區","LI":"佃東里","LIN":"14鄰","STREET":"公學路","SECT":"三段","MAREA":" ","LANE":" ","ALLEY":" ","HOUSE_NO":"３３６號","E_COORD97":166471.32999999999,"N_COORD97":2552146.3599999999,"ADDRESS":"公學路三段３３６號","OBJECTID":234857},"geometry":{"x":166471.33000000007,"y":2552146.3599999994}},{"attributes":{"ID":234862,"DIS_CODE":0,"TOWNNAME":"南區","LI":"喜北里","LIN":"16鄰","STREET":"喜樹路","SECT":" ","MAREA":" ","LANE":"２２２巷","ALLEY":" ","HOUSE_NO":"１０２之２號","E_COORD97":165473.85999999999,"N_COORD97":2538169.3199999998,"ADDRESS":"喜樹路２２２巷１０２之２號","OBJECTID":234858},"geometry":{"x":165473.86000000127,"y":2538169.3200000003}},{"attributes":{"ID":234863,"DIS_CODE":0,"TOWNNAME":"歸仁區","LI":"武東里","LIN":"16鄰","STREET":"光明街","SECT":" ","MAREA":" ","LANE":"８６巷","ALLEY":" ","HOUSE_NO":"１５８號","E_COORD97":175291.29000000001,"N_COORD97":2536669.25,"ADDRESS":"光明街８６巷１５８號","OBJECTID":234859},"geometry":{"x":175291.29000000097,"y":2536669.2500000019}},{"attributes":{"ID":234864,"DIS_CODE":0,"TOWNNAME":"歸仁區","LI":"武東里","LIN":"16鄰","STREET":"光明街","SECT":" ","MAREA":" ","LANE":"８６巷","ALLEY":" ","HOUSE_NO":"１５０號","E_COORD97":175332.29000000001,"N_COORD97":2536658.25,"ADDRESS":"光明街８６巷１５０號","OBJECTID":234860},"geometry":{"x":175332.29000000004,"y":2536658.25}},{"attributes":{"ID":234865,"DIS_CODE":0,"TOWNNAME":"歸仁區","LI":"大廟里","LIN":"16鄰","STREET":"大廟六街","SECT":" ","MAREA":" ","LANE":"３５巷","ALLEY":" ","HOUSE_NO":"１６號","E_COORD97":176073.09,"N_COORD97":2544268.9100000001,"ADDRESS":"大廟六街３５巷１６號","OBJECTID":234861},"geometry":{"x":176073.09000000171,"y":2544268.9099999983}},{"attributes":{"ID":234866,"DIS_CODE":0,"TOWNNAME":"歸仁區","LI":"大廟里","LIN":"16鄰","STREET":"大廟六街","SECT":" ","MAREA":" ","LANE":"３５巷","ALLEY":" ","HOUSE_NO":"１８號","E_COORD97":176074.73999999999,"N_COORD97":2544272.4700000002,"ADDRESS":"大廟六街３５巷１８號","OBJECTID":234862},"geometry":{"x":176074.74000000115,"y":2544272.4699999988}},{"attributes":{"ID":234867,"DIS_CODE":0,"TOWNNAME":"歸仁區","LI":"大廟里","LIN":"16鄰","STREET":"大廟六街","SECT":" ","MAREA":" ","LANE":"７５巷","ALLEY":" ","HOUSE_NO":"２０之１號","E_COORD97":176105.32000000001,"N_COORD97":2544290.1600000001,"ADDRESS":"大廟六街７５巷２０之１號","OBJECTID":234863},"geometry":{"x":176105.3200000003,"y":2544290.1600000001}},{"attributes":{"ID":234868,"DIS_CODE":0,"TOWNNAME":"歸仁區","LI":"大廟里","LIN":"16鄰","STREET":"大廟六街","SECT":" ","MAREA":" ","LANE":"７５巷","ALLEY":" ","HOUSE_NO":"２５號","E_COORD97":176082.20999999999,"N_COORD97":2544279.5099999998,"ADDRESS":"大廟六街７５巷２５號","OBJECTID":234864},"geometry":{"x":176082.20999999996,"y":2544279.5100000016}},{"attributes":{"ID":234869,"DIS_CODE":0,"TOWNNAME":"北區","LI":"新勝里","LIN":"7鄰","STREET":"北園街","SECT":" ","MAREA":" ","LANE":"５３巷","ALLEY":" ","HOUSE_NO":"１５號","E_COORD97":170248.64000000001,"N_COORD97":2545608.7999999998,"ADDRESS":"北園街５３巷１５號","OBJECTID":234865},"geometry":{"x":170248.6400000006,"y":2545608.8000000007}},{"attributes":{"ID":234870,"DIS_CODE":0,"TOWNNAME":"安平區","LI":"西門里","LIN":"18鄰","STREET":"安北路","SECT":" ","MAREA":" ","LANE":"４２６巷","ALLEY":" ","HOUSE_NO":"３３號","E_COORD97":163053.35000000001,"N_COORD97":2544622.9100000001,"ADDRESS":"安北路４２６巷３３號","OBJECTID":234866},"geometry":{"x":163053.34999999963,"y":2544622.910000002}},{"attributes":{"ID":234871,"DIS_CODE":0,"TOWNNAME":"北區","LI":"大港里","LIN":"17鄰","STREET":"大興街","SECT":" ","MAREA":" ","LANE":"２４６巷","ALLEY":" ","HOUSE_NO":"１２０號","E_COORD97":166571.73000000001,"N_COORD97":2545922.9199999999,"ADDRESS":"大興街２４６巷１２０號","OBJECTID":234867},"geometry":{"x":166571.73000000138,"y":2545922.9199999999}},{"attributes":{"ID":234872,"DIS_CODE":0,"TOWNNAME":"鹽水區","LI":"橋南里","LIN":" ","STREET":"月津路","SECT":" ","MAREA":" ","LANE":"１２巷","ALLEY":" ","HOUSE_NO":"３３號","E_COORD97":174766.57000000001,"N_COORD97":2579604.6299999999,"ADDRESS":"月津路１２巷３３號","OBJECTID":234868},"geometry":{"x":174766.5700000003,"y":2579604.6300000008}},{"attributes":{"ID":234873,"DIS_CODE":0,"TOWNNAME":"歸仁區","LI":"南興里","LIN":"20鄰","STREET":"文化街","SECT":"三段","MAREA":" ","LANE":"５９２巷","ALLEY":" ","HOUSE_NO":"４６號","E_COORD97":175635.87,"N_COORD97":2541257.2599999998,"ADDRESS":"文化街三段５９２巷４６號","OBJECTID":234869},"geometry":{"x":175635.87000000197,"y":2541257.2600000016}},{"attributes":{"ID":234874,"DIS_CODE":0,"TOWNNAME":"北區","LI":"大仁里","LIN":" ","STREET":"北門路","SECT":"二段","MAREA":" ","LANE":"２３７巷","ALLEY":" ","HOUSE_NO":"１１號","E_COORD97":169477.67999999999,"N_COORD97":2545325.27,"ADDRESS":"北門路二段２３７巷１１號","OBJECTID":234870},"geometry":{"x":169477.6799999997,"y":2545325.2700000014}},{"attributes":{"ID":234875,"DIS_CODE":0,"TOWNNAME":"北區","LI":"文元里","LIN":"3鄰","STREET":"文賢路","SECT":" ","MAREA":" ","LANE":"１１２２巷","ALLEY":" ","HOUSE_NO":"１５６號","E_COORD97":167705.07000000001,"N_COORD97":2546355.7799999998,"ADDRESS":"文賢路１１２２巷１５６號","OBJECTID":234871},"geometry":{"x":167705.07000000123,"y":2546355.7800000012}},{"attributes":{"ID":234876,"DIS_CODE":0,"TOWNNAME":"北區","LI":"華興里","LIN":"1鄰","STREET":"開南街","SECT":" ","MAREA":" ","LANE":"３３巷","ALLEY":" ","HOUSE_NO":"１５號","E_COORD97":170350.29999999999,"N_COORD97":2545396.8399999999,"ADDRESS":"開南街３３巷１５號","OBJECTID":234872},"geometry":{"x":170350.29999999888,"y":2545396.8399999999}},{"attributes":{"ID":234877,"DIS_CODE":0,"TOWNNAME":"玉井區","LI":"玉田里","LIN":" ","STREET":"大智街","SECT":" ","MAREA":" ","LANE":"１５８巷","ALLEY":" ","HOUSE_NO":"８號","E_COORD97":195288.57000000001,"N_COORD97":2557847.25,"ADDRESS":"大智街１５８巷８號","OBJECTID":234873},"geometry":{"x":195288.5700000003,"y":2557847.25}},{"attributes":{"ID":234878,"DIS_CODE":0,"TOWNNAME":"麻豆區","LI":"大埕里","LIN":"9鄰","STREET":" ","SECT":" ","MAREA":"大埕","LANE":" ","ALLEY":" ","HOUSE_NO":"８４號之１０","E_COORD97":173122.98999999999,"N_COORD97":2565406.1200000001,"ADDRESS":"大埕８４號之１０","OBJECTID":234874},"geometry":{"x":173122.99000000209,"y":2565406.120000001}},{"attributes":{"ID":234879,"DIS_CODE":0,"TOWNNAME":"麻豆區","LI":"大埕里","LIN":"9鄰","STREET":" ","SECT":" ","MAREA":"大埕","LANE":" ","ALLEY":" ","HOUSE_NO":"８４號之１１","E_COORD97":173119.01000000001,"N_COORD97":2565406.3799999999,"ADDRESS":"大埕８４號之１１","OBJECTID":234875},"geometry":{"x":173119.01000000164,"y":2565406.379999999}},{"attributes":{"ID":234880,"DIS_CODE":0,"TOWNNAME":"麻豆區","LI":"大埕里","LIN":"9鄰","STREET":" ","SECT":" ","MAREA":"大埕","LANE":" ","ALLEY":" ","HOUSE_NO":"８４號之１２","E_COORD97":173114.70000000001,"N_COORD97":2565406.1899999999,"ADDRESS":"大埕８４號之１２","OBJECTID":234876},"geometry":{"x":173114.70000000205,"y":2565406.1900000013}},{"attributes":{"ID":234881,"DIS_CODE":0,"TOWNNAME":"麻豆區","LI":"保安里","LIN":"14鄰","STREET":"興中路","SECT":" ","MAREA":" ","LANE":" ","ALLEY":" ","HOUSE_NO":"９８號","E_COORD97":173315.63,"N_COORD97":2564803.7999999998,"ADDRESS":"興中路９８號","OBJECTID":234877},"geometry":{"x":173315.63000000082,"y":2564803.8000000026}},{"attributes":{"ID":234882,"DIS_CODE":0,"TOWNNAME":"麻豆區","LI":"保安里","LIN":"14鄰","STREET":"興南路","SECT":" ","MAREA":" ","LANE":" ","ALLEY":" ","HOUSE_NO":"１１１號","E_COORD97":173312.10999999999,"N_COORD97":2564759.9300000002,"ADDRESS":"興南路１１１號","OBJECTID":234878},"geometry":{"x":173312.1100000022,"y":2564759.9300000034}},{"attributes":{"ID":234883,"DIS_CODE":0,"TOWNNAME":"麻豆區","LI":"保安里","LIN":"14鄰","STREET":"興南路","SECT":" ","MAREA":" ","LANE":" ","ALLEY":" ","HOUSE_NO":"１１３號","E_COORD97":173319.76999999999,"N_COORD97":2564759.54,"ADDRESS":"興南路１１３號","OBJECTID":234879},"geometry":{"x":173319.76999999955,"y":2564759.540000001}},{"attributes":{"ID":234884,"DIS_CODE":0,"TOWNNAME":"麻豆區","LI":"保安里","LIN":"14鄰","STREET":"興南路","SECT":" ","MAREA":" ","LANE":" ","ALLEY":" ","HOUSE_NO":"１２５號","E_COORD97":173340.69,"N_COORD97":2564760.0299999998,"ADDRESS":"興南路１２５號","OBJECTID":234880},"geometry":{"x":173340.69000000134,"y":2564760.0300000012}},{"attributes":{"ID":234885,"DIS_CODE":0,"TOWNNAME":"永康區","LI":"甲頂里","LIN":"14鄰","STREET":"大武街","SECT":" ","MAREA":" ","LANE":" ","ALLEY":" ","HOUSE_NO":"２８號","E_COORD97":170311.5,"N_COORD97":2546692.1000000001,"ADDRESS":"大武街２８號","OBJECTID":234881},"geometry":{"x":170311.5,"y":2546692.1000000015}},{"attributes":{"ID":234886,"DIS_CODE":0,"TOWNNAME":"永康區","LI":"甲頂里","LIN":"14鄰","STREET":"大武街","SECT":" ","MAREA":" ","LANE":" ","ALLEY":" ","HOUSE_NO":"４２號","E_COORD97":170337.64999999999,"N_COORD97":2546729.6099999999,"ADDRESS":"大武街４２號","OBJECTID":234882},"geometry":{"x":170337.65000000037,"y":2546729.6100000013}},{"attributes":{"ID":234887,"DIS_CODE":0,"TOWNNAME":"永康區","LI":"甲頂里","LIN":"14鄰","STREET":"大武街","SECT":" ","MAREA":" ","LANE":" ","ALLEY":" ","HOUSE_NO":"１５號","E_COORD97":170282.92999999999,"N_COORD97":2546684.2400000002,"ADDRESS":"大武街１５號","OBJECTID":234883},"geometry":{"x":170282.9299999997,"y":2546684.2400000039}},{"attributes":{"ID":234888,"DIS_CODE":0,"TOWNNAME":"永康區","LI":"甲頂里","LIN":"14鄰","STREET":"大武街","SECT":" ","MAREA":" ","LANE":" ","ALLEY":" ","HOUSE_NO":"３８號","E_COORD97":170332.56,"N_COORD97":2546722.6099999999,"ADDRESS":"大武街３８號","OBJECTID":234884},"geometry":{"x":170332.55999999959,"y":2546722.6100000013}},{"attributes":{"ID":234889,"DIS_CODE":0,"TOWNNAME":"歸仁區","LI":"武東里","LIN":"16鄰","STREET":"中正南路","SECT":"二段","MAREA":" ","LANE":"４３巷","ALLEY":" ","HOUSE_NO":"１號","E_COORD97":175893.57000000001,"N_COORD97":2536412.8999999999,"ADDRESS":"中正南路二段４３巷１號","OBJECTID":234885},"geometry":{"x":175893.5700000003,"y":2536412.9000000004}},{"attributes":{"ID":234890,"DIS_CODE":0,"TOWNNAME":"歸仁區","LI":"武東里","LIN":"16鄰","STREET":"中正南路","SECT":"二段","MAREA":" ","LANE":"４３巷","ALLEY":" ","HOUSE_NO":"３號","E_COORD97":175897.20999999999,"N_COORD97":2536411.23,"ADDRESS":"中正南路二段４３巷３號","OBJECTID":234886},"geometry":{"x":175897.20999999996,"y":2536411.2300000004}},{"attributes":{"ID":234891,"DIS_CODE":0,"TOWNNAME":"歸仁區","LI":"武東里","LIN":"16鄰","STREET":"中正南路","SECT":"二段","MAREA":" ","LANE":"４３巷","ALLEY":" ","HOUSE_NO":"５號","E_COORD97":175900.47,"N_COORD97":2536409.77,"ADDRESS":"中正南路二段４３巷５號","OBJECTID":234887},"geometry":{"x":175900.46999999974,"y":2536409.7699999996}},{"attributes":{"ID":234892,"DIS_CODE":0,"TOWNNAME":"歸仁區","LI":"武東里","LIN":"16鄰","STREET":"中正南路","SECT":"二段","MAREA":" ","LANE":"４３巷","ALLEY":" ","HOUSE_NO":"７號","E_COORD97":175904.20000000001,"N_COORD97":2536408.2999999998,"ADDRESS":"中正南路二段４３巷７號","OBJECTID":234888},"geometry":{"x":175904.20000000019,"y":2536408.3000000045}},{"attributes":{"ID":234893,"DIS_CODE":0,"TOWNNAME":"歸仁區","LI":"武東里","LIN":"16鄰","STREET":"中正南路","SECT":"二段","MAREA":" ","LANE":"５０巷","ALLEY":" ","HOUSE_NO":"１０號","E_COORD97":175800.54000000001,"N_COORD97":2536471.29,"ADDRESS":"中正南路二段５０巷１０號","OBJECTID":234889},"geometry":{"x":175800.54000000004,"y":2536471.290000001}},{"attributes":{"ID":234894,"DIS_CODE":0,"TOWNNAME":"歸仁區","LI":"武東里","LIN":"16鄰","STREET":"中正南路","SECT":"二段","MAREA":" ","LANE":"５０巷","ALLEY":" ","HOUSE_NO":"１２號","E_COORD97":175794.51999999999,"N_COORD97":2536473.4399999999,"ADDRESS":"中正南路二段５０巷１２號","OBJECTID":234890},"geometry":{"x":175794.51999999955,"y":2536473.4399999995}},{"attributes":{"ID":234895,"DIS_CODE":0,"TOWNNAME":"歸仁區","LI":"武東里","LIN":"16鄰","STREET":"中正南路","SECT":"二段","MAREA":" ","LANE":"５０巷","ALLEY":" ","HOUSE_NO":"１６號","E_COORD97":175771.44,"N_COORD97":2536479.8100000001,"ADDRESS":"中正南路二段５０巷１６號","OBJECTID":234891},"geometry":{"x":175771.44000000134,"y":2536479.8100000024}},{"attributes":{"ID":234896,"DIS_CODE":0,"TOWNNAME":"歸仁區","LI":"武東里","LIN":"16鄰","STREET":"中正南路","SECT":"二段","MAREA":" ","LANE":"５０巷","ALLEY":" ","HOUSE_NO":"６號","E_COORD97":175813.41,"N_COORD97":2536466.2400000002,"ADDRESS":"中正南路二段５０巷６號","OBJECTID":234892},"geometry":{"x":175813.41000000015,"y":2536466.2400000021}},{"attributes":{"ID":234897,"DIS_CODE":0,"TOWNNAME":"歸仁區","LI":"武東里","LIN":"16鄰","STREET":"中正南路","SECT":"二段","MAREA":" ","LANE":"５０巷","ALLEY":" ","HOUSE_NO":"８號","E_COORD97":175807.42000000001,"N_COORD97":2536468.9199999999,"ADDRESS":"中正南路二段５０巷８號","OBJECTID":234893},"geometry":{"x":175807.41999999993,"y":2536468.9200000018}},{"attributes":{"ID":234898,"DIS_CODE":0,"TOWNNAME":"歸仁區","LI":"武東里","LIN":" ","STREET":"武東三街","SECT":" ","MAREA":" ","LANE":"５３巷","ALLEY":" ","HOUSE_NO":"４２號","E_COORD97":175114.76999999999,"N_COORD97":2535124.25,"ADDRESS":"武東三街５３巷４２號","OBJECTID":234894},"geometry":{"x":175114.76999999955,"y":2535124.2500000019}},{"attributes":{"ID":234899,"DIS_CODE":0,"TOWNNAME":"永康區","LI":"甲頂里","LIN":"14鄰","STREET":"大武街","SECT":" ","MAREA":" ","LANE":" ","ALLEY":" ","HOUSE_NO":"２５號","E_COORD97":170294.92999999999,"N_COORD97":2546701.9900000002,"ADDRESS":"大武街２５號","OBJECTID":234895},"geometry":{"x":170294.9299999997,"y":2546701.9900000002}},{"attributes":{"ID":234900,"DIS_CODE":0,"TOWNNAME":"永康區","LI":"甲頂里","LIN":"14鄰","STREET":"大武街","SECT":" ","MAREA":" ","LANE":" ","ALLEY":" ","HOUSE_NO":"３４號","E_COORD97":170326.70000000001,"N_COORD97":2546713.3500000001,"ADDRESS":"大武街３４號","OBJECTID":234896},"geometry":{"x":170326.70000000112,"y":2546713.3500000034}},{"attributes":{"ID":234901,"DIS_CODE":0,"TOWNNAME":"永康區","LI":"甲頂里","LIN":"14鄰","STREET":"大武街","SECT":" ","MAREA":" ","LANE":" ","ALLEY":" ","HOUSE_NO":"３０號","E_COORD97":170314.31,"N_COORD97":2546695.6000000001,"ADDRESS":"大武街３０號","OBJECTID":234897},"geometry":{"x":170314.30999999959,"y":2546695.6000000015}},{"attributes":{"ID":234902,"DIS_CODE":0,"TOWNNAME":"永康區","LI":"王行里","LIN":"14鄰","STREET":"環工路","SECT":" ","MAREA":" ","LANE":" ","ALLEY":" ","HOUSE_NO":"４５號之１","E_COORD97":175276.89999999999,"N_COORD97":2549283.3700000001,"ADDRESS":"環工路４５號之１","OBJECTID":234898},"geometry":{"x":175276.9000000013,"y":2549283.370000001}},{"attributes":{"ID":234903,"DIS_CODE":0,"TOWNNAME":"永康區","LI":"王行里","LIN":"14鄰","STREET":"環工路","SECT":" ","MAREA":" ","LANE":" ","ALLEY":" ","HOUSE_NO":"２２號","E_COORD97":175441.76999999999,"N_COORD97":2549491.5800000001,"ADDRESS":"環工路２２號","OBJECTID":234899},"geometry":{"x":175441.77000000048,"y":2549491.5800000001}},{"attributes":{"ID":234904,"DIS_CODE":0,"TOWNNAME":"永康區","LI":"正強里","LIN":"14鄰","STREET":"正強街","SECT":" ","MAREA":" ","LANE":" ","ALLEY":" ","HOUSE_NO":"１０９號","E_COORD97":173327.39999999999,"N_COORD97":2547404.4900000002,"ADDRESS":"正強街１０９號","OBJECTID":234900},"geometry":{"x":173327.4000000013,"y":2547404.4899999984}},{"attributes":{"ID":234905,"DIS_CODE":0,"TOWNNAME":"永康區","LI":"北灣里","LIN":"14鄰","STREET":"大灣七街","SECT":" ","MAREA":" ","LANE":" ","ALLEY":" ","HOUSE_NO":"１０７號","E_COORD97":175044.23999999999,"N_COORD97":2545883.8900000001,"ADDRESS":"大灣七街１０７號","OBJECTID":234901},"geometry":{"x":175044.24000000115,"y":2545883.8900000025}},{"attributes":{"ID":234906,"DIS_CODE":0,"TOWNNAME":"南區","LI":"廣州里","LIN":"26鄰","STREET":"福吉三街","SECT":" ","MAREA":" ","LANE":" ","ALLEY":" ","HOUSE_NO":"９４號","E_COORD97":167184.37,"N_COORD97":2542801.5299999998,"ADDRESS":"福吉三街９４號","OBJECTID":234902},"geometry":{"x":167184.37000000104,"y":2542801.5299999993}},{"attributes":{"ID":234907,"DIS_CODE":0,"TOWNNAME":"永康區","LI":"正強里","LIN":"14鄰","STREET":"正強街","SECT":" ","MAREA":" ","LANE":" ","ALLEY":" ","HOUSE_NO":"７９號","E_COORD97":173333.75,"N_COORD97":2547339.25,"ADDRESS":"正強街７９號","OBJECTID":234903},"geometry":{"x":173333.75,"y":2547339.2500000019}},{"attributes":{"ID":234908,"DIS_CODE":0,"TOWNNAME":"永康區","LI":"王行里","LIN":"14鄰","STREET":"環工路","SECT":" ","MAREA":" ","LANE":" ","ALLEY":" ","HOUSE_NO":"３１號","E_COORD97":175566.64999999999,"N_COORD97":2549542.6400000001,"ADDRESS":"環工路３１號","OBJECTID":234904},"geometry":{"x":175566.6500000013,"y":2549542.6400000006}},{"attributes":{"ID":234909,"DIS_CODE":0,"TOWNNAME":"歸仁區","LI":"武東里","LIN":"16鄰","STREET":"中正南路","SECT":"二段","MAREA":" ","LANE":"５巷","ALLEY":" ","HOUSE_NO":"４３號","E_COORD97":176028.75,"N_COORD97":2537268.9399999999,"ADDRESS":"中正南路二段５巷４３號","OBJECTID":234905},"geometry":{"x":176028.75000000093,"y":2537268.9399999995}},{"attributes":{"ID":234910,"DIS_CODE":0,"TOWNNAME":"永康區","LI":"王行里","LIN":"14鄰","STREET":"環工路","SECT":" ","MAREA":" ","LANE":" ","ALLEY":" ","HOUSE_NO":"８５號","E_COORD97":174869.17999999999,"N_COORD97":2549696.1499999999,"ADDRESS":"環工路８５號","OBJECTID":234906},"geometry":{"x":174869.18000000063,"y":2549696.1500000022}},{"attributes":{"ID":234911,"DIS_CODE":0,"TOWNNAME":"歸仁區","LI":"大廟里","LIN":"16鄰","STREET":"大廟六街","SECT":" ","MAREA":" ","LANE":"９３巷","ALLEY":" ","HOUSE_NO":"１３號","E_COORD97":176141.03,"N_COORD97":2544309.0899999999,"ADDRESS":"大廟六街９３巷１３號","OBJECTID":234907},"geometry":{"x":176141.03000000026,"y":2544309.0900000017}},{"attributes":{"ID":234912,"DIS_CODE":0,"TOWNNAME":"南區","LI":"南都里","LIN":"16鄰","STREET":"中華南路","SECT":"二段","MAREA":" ","LANE":"３１５巷","ALLEY":" ","HOUSE_NO":"９號","E_COORD97":166521.67000000001,"N_COORD97":2540094.8300000001,"ADDRESS":"中華南路二段３１５巷９號","OBJECTID":234908},"geometry":{"x":166521.66999999993,"y":2540094.8300000001}},{"attributes":{"ID":234913,"DIS_CODE":0,"TOWNNAME":"仁德區","LI":"成功里","LIN":" ","STREET":"成功三街","SECT":" ","MAREA":" ","LANE":"５７巷","ALLEY":" ","HOUSE_NO":"５之１號","E_COORD97":171283.89999999999,"N_COORD97":2539906.5499999998,"ADDRESS":"成功三街５７巷５之１號","OBJECTID":234909},"geometry":{"x":171283.90000000037,"y":2539906.5500000026}},{"attributes":{"ID":234914,"DIS_CODE":0,"TOWNNAME":"官田區","LI":"隆本里","LIN":" ","STREET":"勝利路","SECT":" ","MAREA":" ","LANE":"２７６巷","ALLEY":" ","HOUSE_NO":"１２號","E_COORD97":180053.34,"N_COORD97":2566378.3199999998,"ADDRESS":"勝利路２７６巷１２號","OBJECTID":234910},"geometry":{"x":180053.33999999892,"y":2566378.3199999984}},{"attributes":{"ID":234915,"DIS_CODE":0,"TOWNNAME":"永康區","LI":"西橋里","LIN":"4鄰","STREET":"中山南路","SECT":" ","MAREA":" ","LANE":"４３巷","ALLEY":" ","HOUSE_NO":"１４號","E_COORD97":170744.13,"N_COORD97":2545878.6400000001,"ADDRESS":"中山南路４３巷１４號","OBJECTID":234911},"geometry":{"x":170744.12999999989,"y":2545878.6400000043}},{"attributes":{"ID":234916,"DIS_CODE":0,"TOWNNAME":"永康區","LI":"西灣里","LIN":"25鄰","STREET":"國光七街","SECT":" ","MAREA":" ","LANE":"６巷","ALLEY":" ","HOUSE_NO":"７號","E_COORD97":174348.26999999999,"N_COORD97":2545546.3399999999,"ADDRESS":"國光七街６巷７號","OBJECTID":234912},"geometry":{"x":174348.27000000048,"y":2545546.3399999999}},{"attributes":{"ID":234917,"DIS_CODE":0,"TOWNNAME":"永康區","LI":"安康里","LIN":"18鄰","STREET":"中華路","SECT":" ","MAREA":" ","LANE":"６６１巷","ALLEY":" ","HOUSE_NO":"１１８號","E_COORD97":170777.98999999999,"N_COORD97":2546105.25,"ADDRESS":"中華路６６１巷１１８號","OBJECTID":234913},"geometry":{"x":170777.99000000022,"y":2546105.2500000019}},{"attributes":{"ID":234918,"DIS_CODE":0,"TOWNNAME":"永康區","LI":"永康里","LIN":"5鄰","STREET":"中山北路","SECT":" ","MAREA":" ","LANE":"１８巷","ALLEY":" ","HOUSE_NO":"２號","E_COORD97":173920.37,"N_COORD97":2547347.25,"ADDRESS":"中山北路１８巷２號","OBJECTID":234914},"geometry":{"x":173920.37000000197,"y":2547347.25}},{"attributes":{"ID":234919,"DIS_CODE":0,"TOWNNAME":"安南區","LI":"理想里","LIN":"8鄰","STREET":"海佃路","SECT":"二段","MAREA":" ","LANE":"１５０巷","ALLEY":" ","HOUSE_NO":"１２２號","E_COORD97":167200.34,"N_COORD97":2548421.3500000001,"ADDRESS":"海佃路二段１５０巷１２２號","OBJECTID":234915},"geometry":{"x":167200.33999999985,"y":2548421.3499999996}},{"attributes":{"ID":234920,"DIS_CODE":0,"TOWNNAME":"新化區","LI":"太平里","LIN":"8鄰","STREET":"中正路","SECT":" ","MAREA":" ","LANE":"６６２巷","ALLEY":" ","HOUSE_NO":"５號","E_COORD97":178679.31,"N_COORD97":2549485.25,"ADDRESS":"中正路６６２巷５號","OBJECTID":234916},"geometry":{"x":178679.31000000052,"y":2549485.2500000019}},{"attributes":{"ID":234921,"DIS_CODE":0,"TOWNNAME":"新化區","LI":"東榮里","LIN":"8鄰","STREET":"信義路","SECT":" ","MAREA":" ","LANE":"１１７巷","ALLEY":" ","HOUSE_NO":"３０號之３","E_COORD97":179710.32999999999,"N_COORD97":2548270.2599999998,"ADDRESS":"信義路１１７巷３０號之３","OBJECTID":234917},"geometry":{"x":179710.33000000101,"y":2548270.2600000035}},{"attributes":{"ID":234922,"DIS_CODE":0,"TOWNNAME":"南區","LI":"白雪里","LIN":" ","STREET":"鹽埕路","SECT":" ","MAREA":" ","LANE":"１０３巷","ALLEY":" ","HOUSE_NO":"５２號","E_COORD97":166730.81,"N_COORD97":2540716.5899999999,"ADDRESS":"鹽埕路１０３巷５２號","OBJECTID":234918},"geometry":{"x":166730.81000000145,"y":2540716.5899999999}},{"attributes":{"ID":234923,"DIS_CODE":0,"TOWNNAME":"仁德區","LI":"後壁里","LIN":"13鄰","STREET":"德善路","SECT":" ","MAREA":" ","LANE":"１０８巷","ALLEY":" ","HOUSE_NO":"２３號","E_COORD97":173503.42999999999,"N_COORD97":2538781.27,"ADDRESS":"德善路１０８巷２３號","OBJECTID":234919},"geometry":{"x":173503.4299999997,"y":2538781.2700000014}},{"attributes":{"ID":234924,"DIS_CODE":0,"TOWNNAME":"仁德區","LI":"土庫里","LIN":"13鄰","STREET":"土庫路","SECT":" ","MAREA":" ","LANE":"１８５巷","ALLEY":" ","HOUSE_NO":"６號","E_COORD97":174347.42000000001,"N_COORD97":2542939.7400000002,"ADDRESS":"土庫路１８５巷６號","OBJECTID":234920},"geometry":{"x":174347.42000000086,"y":2542939.7400000002}},{"attributes":{"ID":234925,"DIS_CODE":0,"TOWNNAME":"永康區","LI":"王行里","LIN":"14鄰","STREET":"王行路","SECT":" ","MAREA":" ","LANE":" ","ALLEY":" ","HOUSE_NO":"７４１號","E_COORD97":175559.23000000001,"N_COORD97":2550229.7400000002,"ADDRESS":"王行路７４１號","OBJECTID":234921},"geometry":{"x":175559.23000000231,"y":2550229.7400000002}},{"attributes":{"ID":234926,"DIS_CODE":0,"TOWNNAME":"永康區","LI":"北灣里","LIN":"14鄰","STREET":"大灣七街","SECT":" ","MAREA":" ","LANE":" ","ALLEY":" ","HOUSE_NO":"１０３號","E_COORD97":175050.35999999999,"N_COORD97":2545863.3100000001,"ADDRESS":"大灣七街１０３號","OBJECTID":234922},"geometry":{"x":175050.36000000127,"y":2545863.3100000005}},{"attributes":{"ID":234927,"DIS_CODE":0,"TOWNNAME":"南區","LI":"明興里","LIN":"16鄰","STREET":"德興路","SECT":" ","MAREA":" ","LANE":"１６４巷","ALLEY":" ","HOUSE_NO":"１３號","E_COORD97":167147.16,"N_COORD97":2540343.0299999998,"ADDRESS":"德興路１６４巷１３號","OBJECTID":234923},"geometry":{"x":167147.16000000015,"y":2540343.0300000012}},{"attributes":{"ID":234928,"DIS_CODE":0,"TOWNNAME":"南區","LI":"明興里","LIN":"16鄰","STREET":"德興路","SECT":" ","MAREA":" ","LANE":"１６４巷","ALLEY":" ","HOUSE_NO":"１５號","E_COORD97":167141.95000000001,"N_COORD97":2540341.96,"ADDRESS":"德興路１６４巷１５號","OBJECTID":234924},"geometry":{"x":167141.95000000019,"y":2540341.9600000009}},{"attributes":{"ID":234929,"DIS_CODE":0,"TOWNNAME":"楠西區","LI":"楠西里","LIN":"22鄰","STREET":"博愛路","SECT":" ","MAREA":" ","LANE":"５０巷","ALLEY":" ","HOUSE_NO":"８號","E_COORD97":197396.32000000001,"N_COORD97":2563508.2799999998,"ADDRESS":"博愛路５０巷８號","OBJECTID":234925},"geometry":{"x":197396.32000000123,"y":2563508.2799999993}},{"attributes":{"ID":234930,"DIS_CODE":0,"TOWNNAME":"南區","LI":"永寧里","LIN":"16鄰","STREET":"灣裡路","SECT":" ","MAREA":" ","LANE":"２１１巷","ALLEY":" ","HOUSE_NO":"１０號","E_COORD97":166118.47,"N_COORD97":2536553.1600000001,"ADDRESS":"灣裡路２１１巷１０號","OBJECTID":234926},"geometry":{"x":166118.47000000067,"y":2536553.1600000001}},{"attributes":{"ID":234931,"DIS_CODE":0,"TOWNNAME":"南區","LI":"文南里","LIN":"13鄰","STREET":"育南街","SECT":" ","MAREA":" ","LANE":" ","ALLEY":" ","HOUSE_NO":"１７號","E_COORD97":166853.70000000001,"N_COORD97":2542608.0899999999,"ADDRESS":"育南街１７號","OBJECTID":234927},"geometry":{"x":166853.70000000019,"y":2542608.0899999999}},{"attributes":{"ID":234932,"DIS_CODE":0,"TOWNNAME":"南區","LI":"文南里","LIN":"13鄰","STREET":"育南街","SECT":" ","MAREA":" ","LANE":" ","ALLEY":" ","HOUSE_NO":"１９號","E_COORD97":166854.47,"N_COORD97":2542617.21,"ADDRESS":"育南街１９號","OBJECTID":234928},"geometry":{"x":166854.47000000067,"y":2542617.2100000028}},{"attributes":{"ID":234933,"DIS_CODE":0,"TOWNNAME":"南區","LI":"文南里","LIN":"13鄰","STREET":"育南街","SECT":" ","MAREA":" ","LANE":" ","ALLEY":" ","HOUSE_NO":"１號","E_COORD97":166851.48999999999,"N_COORD97":2542568.8700000001,"ADDRESS":"育南街１號","OBJECTID":234929},"geometry":{"x":166851.49000000115,"y":2542568.8700000029}},{"attributes":{"ID":234934,"DIS_CODE":0,"TOWNNAME":"南區","LI":"文南里","LIN":"13鄰","STREET":"育南街","SECT":" ","MAREA":" ","LANE":" ","ALLEY":" ","HOUSE_NO":"２１號","E_COORD97":166855.60999999999,"N_COORD97":2542621.77,"ADDRESS":"育南街２１號","OBJECTID":234930},"geometry":{"x":166855.61000000127,"y":2542621.7700000033}},{"attributes":{"ID":234935,"DIS_CODE":0,"TOWNNAME":"永康區","LI":"復國里","LIN":"4鄰","STREET":"復國一路","SECT":" ","MAREA":" ","LANE":"６８巷","ALLEY":" ","HOUSE_NO":"４５號","E_COORD97":172825.32999999999,"N_COORD97":2544881.0299999998,"ADDRESS":"復國一路６８巷４５號","OBJECTID":234931},"geometry":{"x":172825.32999999914,"y":2544881.0300000031}},{"attributes":{"ID":234936,"DIS_CODE":0,"TOWNNAME":"永康區","LI":"南灣里","LIN":"20鄰","STREET":"大灣路","SECT":" ","MAREA":" ","LANE":"７６４巷","ALLEY":" ","HOUSE_NO":"９６號","E_COORD97":174255.25,"N_COORD97":2544699.2200000002,"ADDRESS":"大灣路７６４巷９６號","OBJECTID":234932},"geometry":{"x":174255.25000000093,"y":2544699.2200000025}},{"attributes":{"ID":234937,"DIS_CODE":0,"TOWNNAME":"安南區","LI":"長安里","LIN":"15鄰","STREET":"公學路","SECT":"二段","MAREA":" ","LANE":"１２３巷","ALLEY":" ","HOUSE_NO":"７２號","E_COORD97":167789.39000000001,"N_COORD97":2552331.4399999999,"ADDRESS":"公學路二段１２３巷７２號","OBJECTID":234933},"geometry":{"x":167789.38999999966,"y":2552331.4400000013}},{"attributes":{"ID":234938,"DIS_CODE":0,"TOWNNAME":"南區","LI":"明德里","LIN":"6鄰","STREET":"大成路","SECT":"一段","MAREA":" ","LANE":"６１巷","ALLEY":" ","HOUSE_NO":"３７號","E_COORD97":168140.94,"N_COORD97":2541659.0499999998,"ADDRESS":"大成路一段６１巷３７號","OBJECTID":234934},"geometry":{"x":168140.94000000041,"y":2541659.0500000026}},{"attributes":{"ID":234939,"DIS_CODE":0,"TOWNNAME":"南區","LI":"明德里","LIN":"6鄰","STREET":"大成路","SECT":"一段","MAREA":" ","LANE":"６１巷","ALLEY":" ","HOUSE_NO":"４０號","E_COORD97":168091.76999999999,"N_COORD97":2541662.4199999999,"ADDRESS":"大成路一段６１巷４０號","OBJECTID":234935},"geometry":{"x":168091.76999999955,"y":2541662.4200000018}},{"attributes":{"ID":234940,"DIS_CODE":0,"TOWNNAME":"仁德區","LI":"後壁里","LIN":"4鄰","STREET":"德善一街","SECT":" ","MAREA":" ","LANE":"２７巷","ALLEY":" ","HOUSE_NO":"３９號","E_COORD97":173326.92000000001,"N_COORD97":2539022.5099999998,"ADDRESS":"德善一街２７巷３９號","OBJECTID":234936},"geometry":{"x":173326.92000000086,"y":2539022.5099999998}},{"attributes":{"ID":234941,"DIS_CODE":0,"TOWNNAME":"永康區","LI":"西勢里","LIN":"26鄰","STREET":"廣興街","SECT":" ","MAREA":" ","LANE":"３８巷","ALLEY":" ","HOUSE_NO":"１８號","E_COORD97":175966.89999999999,"N_COORD97":2546493.7400000002,"ADDRESS":"廣興街３８巷１８號","OBJECTID":234937},"geometry":{"x":175966.9000000013,"y":2546493.7400000002}},{"attributes":{"ID":234942,"DIS_CODE":0,"TOWNNAME":"永康區","LI":"西灣里","LIN":"43鄰","STREET":"永華路","SECT":" ","MAREA":" ","LANE":"１５９巷","ALLEY":" ","HOUSE_NO":"９號","E_COORD97":174062.63,"N_COORD97":2545518.5800000001,"ADDRESS":"永華路１５９巷９號","OBJECTID":234938},"geometry":{"x":174062.63000000082,"y":2545518.5800000001}},{"attributes":{"ID":234943,"DIS_CODE":0,"TOWNNAME":"安南區","LI":"淵東里","LIN":"13鄰","STREET":"海佃路","SECT":"四段","MAREA":" ","LANE":"５５巷","ALLEY":" ","HOUSE_NO":"６５號","E_COORD97":165510.09,"N_COORD97":2550513.7400000002,"ADDRESS":"海佃路四段５５巷６５號","OBJECTID":234939},"geometry":{"x":165510.08999999985,"y":2550513.7400000002}},{"attributes":{"ID":234944,"DIS_CODE":0,"TOWNNAME":"北區","LI":"大豐里","LIN":"20鄰","STREET":"大興街","SECT":" ","MAREA":" ","LANE":"２３３巷","ALLEY":" ","HOUSE_NO":"５６號八樓之１","E_COORD97":166846.79999999999,"N_COORD97":2545498.4500000002,"ADDRESS":"大興街２３３巷５６號八樓之１","OBJECTID":234940},"geometry":{"x":166846.80000000075,"y":2545498.4499999974}},{"attributes":{"ID":234945,"DIS_CODE":0,"TOWNNAME":"永康區","LI":"\u25A0行里","LIN":"4鄰","STREET":"新行街","SECT":" ","MAREA":" ","LANE":"４巷","ALLEY":" ","HOUSE_NO":"２３號","E_COORD97":172271.17999999999,"N_COORD97":2548790.0299999998,"ADDRESS":"新行街４巷２３號","OBJECTID":234941},"geometry":{"x":172271.1799999997,"y":2548790.0299999975}},{"attributes":{"ID":234946,"DIS_CODE":0,"TOWNNAME":"安南區","LI":"淵中里","LIN":"4鄰","STREET":"安中路","SECT":"三段","MAREA":" ","LANE":"４３９巷","ALLEY":" ","HOUSE_NO":"２６號","E_COORD97":165268.51000000001,"N_COORD97":2550051.3900000001,"ADDRESS":"安中路三段４３９巷２６號","OBJECTID":234942},"geometry":{"x":165268.51000000164,"y":2550051.3900000025}},{"attributes":{"ID":234947,"DIS_CODE":0,"TOWNNAME":"永康區","LI":"尚頂里","LIN":"25鄰","STREET":"南台街","SECT":" ","MAREA":" ","LANE":"１５４巷","ALLEY":" ","HOUSE_NO":"１０號","E_COORD97":170065.51999999999,"N_COORD97":2547090.9900000002,"ADDRESS":"南台街１５４巷１０號","OBJECTID":234943},"geometry":{"x":170065.52000000142,"y":2547090.9900000021}},{"attributes":{"ID":234948,"DIS_CODE":0,"TOWNNAME":"安南區","LI":"\u25A0田里","LIN":"8鄰","STREET":"本田路","SECT":"三段","MAREA":" ","LANE":"８０巷","ALLEY":" ","HOUSE_NO":"２號之１","E_COORD97":163889.90849999999,"N_COORD97":2549059.7828099998,"ADDRESS":"本田路三段８０巷２號之１","OBJECTID":234944},"geometry":{"x":163889.90850000083,"y":2549059.7828059997}},{"attributes":{"ID":234949,"DIS_CODE":0,"TOWNNAME":"永康區","LI":"二王里","LIN":" ","STREET":"中山南路","SECT":" ","MAREA":" ","LANE":"７６２巷","ALLEY":" ","HOUSE_NO":"１０號","E_COORD97":172730.70000000001,"N_COORD97":2546692.1099999999,"ADDRESS":"中山南路７６２巷１０號","OBJECTID":234945},"geometry":{"x":172730.70000000019,"y":2546692.1100000013}},{"attributes":{"ID":234950,"DIS_CODE":0,"TOWNNAME":"永康區","LI":"\u25A0行里","LIN":"5鄰","STREET":"新行街","SECT":" ","MAREA":" ","LANE":"２１巷","ALLEY":" ","HOUSE_NO":"２５號","E_COORD97":172185.51999999999,"N_COORD97":2548768.4199999999,"ADDRESS":"新行街２１巷２５號","OBJECTID":234946},"geometry":{"x":172185.51999999955,"y":2548768.4200000018}},{"attributes":{"ID":234951,"DIS_CODE":0,"TOWNNAME":"仁德區","LI":"二行里","LIN":"4鄰","STREET":"二行一路","SECT":" ","MAREA":" ","LANE":"８３巷","ALLEY":" ","HOUSE_NO":"１６號","E_COORD97":170363.17000000001,"N_COORD97":2535361,"ADDRESS":"二行一路８３巷１６號","OBJECTID":234947},"geometry":{"x":170363.16999999899,"y":2535361}},{"attributes":{"ID":234952,"DIS_CODE":0,"TOWNNAME":"仁德區","LI":"大甲里","LIN":"18鄰","STREET":"行大街","SECT":" ","MAREA":" ","LANE":"５２１巷","ALLEY":" ","HOUSE_NO":"９號","E_COORD97":169242.95000000001,"N_COORD97":2535334.75,"ADDRESS":"行大街５２１巷９號","OBJECTID":234948},"geometry":{"x":169242.95000000205,"y":2535334.75}},{"attributes":{"ID":234953,"DIS_CODE":0,"TOWNNAME":"安南區","LI":"州南里","LIN":"20鄰","STREET":"安和路","SECT":"四段","MAREA":" ","LANE":"５３３巷","ALLEY":" ","HOUSE_NO":"６１號","E_COORD97":169832.73000000001,"N_COORD97":2551263.96,"ADDRESS":"安和路四段５３３巷６１號","OBJECTID":234949},"geometry":{"x":169832.72999999952,"y":2551263.9600000046}},{"attributes":{"ID":234954,"DIS_CODE":0,"TOWNNAME":"六甲區","LI":"甲東里","LIN":"20鄰","STREET":"裕農街","SECT":" ","MAREA":" ","LANE":"４９巷","ALLEY":" ","HOUSE_NO":"１８號","E_COORD97":184121.95999999999,"N_COORD97":2569803.4900000002,"ADDRESS":"裕農街４９巷１８號","OBJECTID":234950},"geometry":{"x":184121.96000000089,"y":2569803.4900000002}},{"attributes":{"ID":234955,"DIS_CODE":0,"TOWNNAME":"六甲區","LI":"甲東里","LIN":"20鄰","STREET":"裕農街","SECT":" ","MAREA":" ","LANE":"４９巷","ALLEY":" ","HOUSE_NO":"２０號","E_COORD97":184135.17000000001,"N_COORD97":2569831.7000000002,"ADDRESS":"裕農街４９巷２０號","OBJECTID":234951},"geometry":{"x":184135.17000000086,"y":2569831.6999999993}},{"attributes":{"ID":234956,"DIS_CODE":0,"TOWNNAME":"六甲區","LI":"甲東里","LIN":"20鄰","STREET":"裕農街","SECT":" ","MAREA":" ","LANE":"４９巷","ALLEY":" ","HOUSE_NO":"２２號","E_COORD97":184114.92000000001,"N_COORD97":2569837.5899999999,"ADDRESS":"裕農街４９巷２２號","OBJECTID":234952},"geometry":{"x":184114.92000000086,"y":2569837.589999998}},{"attributes":{"ID":234957,"DIS_CODE":0,"TOWNNAME":"北區","LI":"六甲里","LIN":"20鄰","STREET":"和緯路","SECT":"二段","MAREA":" ","LANE":"３０巷","ALLEY":" ","HOUSE_NO":"９９號","E_COORD97":169058.26000000001,"N_COORD97":2545928.8999999999,"ADDRESS":"和緯路二段３０巷９９號","OBJECTID":234953},"geometry":{"x":169058.25999999978,"y":2545928.9000000022}},{"attributes":{"ID":234958,"DIS_CODE":0,"TOWNNAME":"北區","LI":"成德里","LIN":"20鄰","STREET":"文成二路","SECT":" ","MAREA":" ","LANE":"２１２巷","ALLEY":" ","HOUSE_NO":"１０號","E_COORD97":168480.79000000001,"N_COORD97":2546201.3399999999,"ADDRESS":"文成二路２１２巷１０號","OBJECTID":234954},"geometry":{"x":168480.78999999911,"y":2546201.3399999999}},{"attributes":{"ID":234959,"DIS_CODE":0,"TOWNNAME":"北區","LI":"成德里","LIN":"20鄰","STREET":"育德一街","SECT":" ","MAREA":" ","LANE":"８７巷","ALLEY":" ","HOUSE_NO":"２１號","E_COORD97":168492.51000000001,"N_COORD97":2546227.8399999999,"ADDRESS":"育德一街８７巷２１號","OBJECTID":234955},"geometry":{"x":168492.50999999978,"y":2546227.8399999999}},{"attributes":{"ID":234960,"DIS_CODE":0,"TOWNNAME":"關廟區","LI":"山西里","LIN":"20鄰","STREET":"崇平路","SECT":" ","MAREA":" ","LANE":"１０７巷","ALLEY":" ","HOUSE_NO":"３０號","E_COORD97":180688.47,"N_COORD97":2540332.5099999998,"ADDRESS":"崇平路１０７巷３０號","OBJECTID":234956},"geometry":{"x":180688.47000000067,"y":2540332.5100000016}},{"attributes":{"ID":234961,"DIS_CODE":0,"TOWNNAME":"關廟區","LI":"山西里","LIN":"20鄰","STREET":"崇平路","SECT":" ","MAREA":" ","LANE":"１０７巷","ALLEY":" ","HOUSE_NO":"２６號","E_COORD97":180689.26999999999,"N_COORD97":2540341.5099999998,"ADDRESS":"崇平路１０７巷２６號","OBJECTID":234957},"geometry":{"x":180689.27000000142,"y":2540341.5099999998}},{"attributes":{"ID":234962,"DIS_CODE":0,"TOWNNAME":"關廟區","LI":"北花里","LIN":"20鄰","STREET":"中正路","SECT":" ","MAREA":" ","LANE":"１１３巷","ALLEY":" ","HOUSE_NO":"１２號","E_COORD97":183588.85999999999,"N_COORD97":2540882.6200000001,"ADDRESS":"中正路１１３巷１２號","OBJECTID":234958},"geometry":{"x":183588.86000000127,"y":2540882.6200000029}},{"attributes":{"ID":234963,"DIS_CODE":0,"TOWNNAME":"麻豆區","LI":"油車里","LIN":"16鄰","STREET":" ","SECT":" ","MAREA":"油車","LANE":" ","ALLEY":" ","HOUSE_NO":"１２８號","E_COORD97":172442.64000000001,"N_COORD97":2565324.7000000002,"ADDRESS":"油車１２８號","OBJECTID":234959},"geometry":{"x":172442.63999999966,"y":2565324.7000000011}},{"attributes":{"ID":234964,"DIS_CODE":0,"TOWNNAME":"關廟區","LI":"山西里","LIN":"20鄰","STREET":"崇平路","SECT":" ","MAREA":" ","LANE":"８３巷","ALLEY":" ","HOUSE_NO":"１０號","E_COORD97":180749.37,"N_COORD97":2540350.46,"ADDRESS":"崇平路８３巷１０號","OBJECTID":234960},"geometry":{"x":180749.37000000104,"y":2540350.4600000046}},{"attributes":{"ID":234965,"DIS_CODE":0,"TOWNNAME":"關廟區","LI":"北花里","LIN":"20鄰","STREET":"中正路","SECT":" ","MAREA":" ","LANE":"１１３巷","ALLEY":" ","HOUSE_NO":"１９號","E_COORD97":183601.56,"N_COORD97":2540857.6200000001,"ADDRESS":"中正路１１３巷１９號","OBJECTID":234961},"geometry":{"x":183601.56000000052,"y":2540857.620000001}},{"attributes":{"ID":234966,"DIS_CODE":0,"TOWNNAME":"關廟區","LI":"北花里","LIN":"20鄰","STREET":"中正路","SECT":" ","MAREA":" ","LANE":"１１３巷","ALLEY":" ","HOUSE_NO":"２９號","E_COORD97":183608.06,"N_COORD97":2540834.6200000001,"ADDRESS":"中正路１１３巷２９號","OBJECTID":234962},"geometry":{"x":183608.05999999866,"y":2540834.6200000029}},{"attributes":{"ID":234967,"DIS_CODE":0,"TOWNNAME":"永康區","LI":"龍潭里","LIN":"36鄰","STREET":"中山北路","SECT":" ","MAREA":" ","LANE":"１６４巷","ALLEY":" ","HOUSE_NO":"１４１號","E_COORD97":174621.64000000001,"N_COORD97":2547422.04,"ADDRESS":"中山北路１６４巷１４１號","OBJECTID":234963},"geometry":{"x":174621.64000000153,"y":2547422.0399999991}},{"attributes":{"ID":234968,"DIS_CODE":0,"TOWNNAME":"東區","LI":"虎尾里","LIN":"36鄰","STREET":"東成街","SECT":" ","MAREA":" ","LANE":"２００巷","ALLEY":" ","HOUSE_NO":"６１號五樓","E_COORD97":171895.95000000001,"N_COORD97":2542122.3700000001,"ADDRESS":"東成街２００巷６１號五樓","OBJECTID":234964},"geometry":{"x":171895.95000000112,"y":2542122.3700000029}},{"attributes":{"ID":234969,"DIS_CODE":0,"TOWNNAME":"歸仁區","LI":"辜厝里","LIN":"36鄰","STREET":"中正南路","SECT":"一段","MAREA":" ","LANE":"２１８巷","ALLEY":" ","HOUSE_NO":"２５號二樓之１","E_COORD97":177261.94,"N_COORD97":2540344.2599999998,"ADDRESS":"中正南路一段２１８巷２５號二樓之１","OBJECTID":234965},"geometry":{"x":177261.94000000134,"y":2540344.2600000016}},{"attributes":{"ID":234970,"DIS_CODE":0,"TOWNNAME":"南區","LI":"喜南里","LIN":"16鄰","STREET":"喜樹路","SECT":" ","MAREA":" ","LANE":"２２２巷","ALLEY":" ","HOUSE_NO":"４５號","E_COORD97":165474.23000000001,"N_COORD97":2538056.5499999998,"ADDRESS":"喜樹路２２２巷４５號","OBJECTID":234966},"geometry":{"x":165474.23000000045,"y":2538056.5500000007}},{"attributes":{"ID":234971,"DIS_CODE":0,"TOWNNAME":"南區","LI":"喜南里","LIN":"16鄰","STREET":"喜樹路","SECT":" ","MAREA":" ","LANE":"２２２巷","ALLEY":" ","HOUSE_NO":"４７號","E_COORD97":165465.88,"N_COORD97":2538054.8799999999,"ADDRESS":"喜樹路２２２巷４７號","OBJECTID":234967},"geometry":{"x":165465.87999999989,"y":2538054.8800000008}},{"attributes":{"ID":234972,"DIS_CODE":0,"TOWNNAME":"南區","LI":"喜南里","LIN":"16鄰","STREET":"喜樹路","SECT":" ","MAREA":" ","LANE":"３４０巷","ALLEY":" ","HOUSE_NO":"１６２號","E_COORD97":165494.29999999999,"N_COORD97":2537960.6499999999,"ADDRESS":"喜樹路３４０巷１６２號","OBJECTID":234968},"geometry":{"x":165494.30000000075,"y":2537960.6500000004}},{"attributes":{"ID":234973,"DIS_CODE":0,"TOWNNAME":"南區","LI":"喜南里","LIN":"16鄰","STREET":"喜樹路","SECT":" ","MAREA":" ","LANE":"３４０巷","ALLEY":" ","HOUSE_NO":"１６４號","E_COORD97":165505.04000000001,"N_COORD97":2537967.25,"ADDRESS":"喜樹路３４０巷１６４號","OBJECTID":234969},"geometry":{"x":165505.04000000004,"y":2537967.2500000037}},{"attributes":{"ID":234974,"DIS_CODE":0,"TOWNNAME":"南區","LI":"喜南里","LIN":"16鄰","STREET":"喜樹路","SECT":" ","MAREA":" ","LANE":"３４０巷","ALLEY":" ","HOUSE_NO":"１６６號","E_COORD97":165505.19,"N_COORD97":2538000.6699999999,"ADDRESS":"喜樹路３４０巷１６６號","OBJECTID":234970},"geometry":{"x":165505.19000000227,"y":2538000.6699999999}},{"attributes":{"ID":234975,"DIS_CODE":0,"TOWNNAME":"南區","LI":"喜南里","LIN":"16鄰","STREET":"喜樹路","SECT":" ","MAREA":" ","LANE":"３４０巷","ALLEY":" ","HOUSE_NO":"１６８號","E_COORD97":165508.45999999999,"N_COORD97":2538012.9399999999,"ADDRESS":"喜樹路３４０巷１６８號","OBJECTID":234971},"geometry":{"x":165508.46000000089,"y":2538012.9400000032}},{"attributes":{"ID":234976,"DIS_CODE":0,"TOWNNAME":"南區","LI":"喜南里","LIN":"16鄰","STREET":"喜樹路","SECT":" ","MAREA":" ","LANE":"３４０巷","ALLEY":" ","HOUSE_NO":"１７０號","E_COORD97":165508.45999999999,"N_COORD97":2538023.0800000001,"ADDRESS":"喜樹路３４０巷１７０號","OBJECTID":234972},"geometry":{"x":165508.46000000089,"y":2538023.0800000038}},{"attributes":{"ID":234977,"DIS_CODE":0,"TOWNNAME":"南區","LI":"喜南里","LIN":"16鄰","STREET":"喜樹路","SECT":" ","MAREA":" ","LANE":"３４０巷","ALLEY":" ","HOUSE_NO":"６５號","E_COORD97":165490.91,"N_COORD97":2537998.2000000002,"ADDRESS":"喜樹路３４０巷６５號","OBJECTID":234973},"geometry":{"x":165490.91000000015,"y":2537998.2000000011}},{"attributes":{"ID":234978,"DIS_CODE":0,"TOWNNAME":"南區","LI":"喜南里","LIN":"16鄰","STREET":"喜樹路","SECT":" ","MAREA":" ","LANE":"３４０巷","ALLEY":" ","HOUSE_NO":"７１號","E_COORD97":165492.10000000001,"N_COORD97":2538006.54,"ADDRESS":"喜樹路３４０巷７１號","OBJECTID":234974},"geometry":{"x":165492.10000000056,"y":2538006.540000001}},{"attributes":{"ID":234979,"DIS_CODE":0,"TOWNNAME":"學甲區","LI":"秀昌里","LIN":"16鄰","STREET":" ","SECT":" ","MAREA":"下溪洲","LANE":" ","ALLEY":" ","HOUSE_NO":"２５號","E_COORD97":165257.84,"N_COORD97":2571043.1699999999,"ADDRESS":"下溪洲２５號","OBJECTID":234975},"geometry":{"x":165257.84000000171,"y":2571043.1699999999}},{"attributes":{"ID":234980,"DIS_CODE":0,"TOWNNAME":"南區","LI":"喜南里","LIN":"16鄰","STREET":"喜樹路","SECT":" ","MAREA":" ","LANE":"３４０巷","ALLEY":" ","HOUSE_NO":"７３號","E_COORD97":165489.95999999999,"N_COORD97":2538017.25,"ADDRESS":"喜樹路３４０巷７３號","OBJECTID":234976},"geometry":{"x":165489.96000000089,"y":2538017.25}},{"attributes":{"ID":234981,"DIS_CODE":0,"TOWNNAME":"歸仁區","LI":"崙頂里","LIN":"16鄰","STREET":"崙頂街","SECT":" ","MAREA":" ","LANE":"１７巷","ALLEY":" ","HOUSE_NO":"４３號","E_COORD97":177972.57000000001,"N_COORD97":2540058.6800000002,"ADDRESS":"崙頂街１７巷４３號","OBJECTID":234977},"geometry":{"x":177972.57000000123,"y":2540058.6799999997}},{"attributes":{"ID":234982,"DIS_CODE":0,"TOWNNAME":"安南區","LI":"安慶里","LIN":"5鄰","STREET":"怡安路","SECT":"一段","MAREA":" ","LANE":"２４９巷","ALLEY":" ","HOUSE_NO":"６號","E_COORD97":169022.20000000001,"N_COORD97":2549047.9300000002,"ADDRESS":"怡安路一段２４９巷６號","OBJECTID":234978},"geometry":{"x":169022.20000000019,"y":2549047.9299999997}},{"attributes":{"ID":234983,"DIS_CODE":0,"TOWNNAME":"東區","LI":"復興里","LIN":"5鄰","STREET":"富農街","SECT":"一段","MAREA":" ","LANE":"２１８巷","ALLEY":" ","HOUSE_NO":"９號","E_COORD97":171606.26000000001,"N_COORD97":2542560.6000000001,"ADDRESS":"富農街一段２１８巷９號","OBJECTID":234979},"geometry":{"x":171606.25999999978,"y":2542560.5999999996}},{"attributes":{"ID":234984,"DIS_CODE":0,"TOWNNAME":"南區","LI":"文南里","LIN":"13鄰","STREET":"育南街","SECT":" ","MAREA":" ","LANE":" ","ALLEY":" ","HOUSE_NO":"６８號","E_COORD97":166884.32999999999,"N_COORD97":2542728.3100000001,"ADDRESS":"育南街６８號","OBJECTID":234980},"geometry":{"x":166884.33000000101,"y":2542728.3100000024}},{"attributes":{"ID":234985,"DIS_CODE":0,"TOWNNAME":"永康區","LI":"王行里","LIN":"14鄰","STREET":"環工路","SECT":" ","MAREA":" ","LANE":" ","ALLEY":" ","HOUSE_NO":"２８號","E_COORD97":175307.44,"N_COORD97":2549381.46,"ADDRESS":"環工路２８號","OBJECTID":234981},"geometry":{"x":175307.44000000134,"y":2549381.4600000009}},{"attributes":{"ID":234986,"DIS_CODE":0,"TOWNNAME":"永康區","LI":"王行里","LIN":"14鄰","STREET":"環工路","SECT":" ","MAREA":" ","LANE":" ","ALLEY":" ","HOUSE_NO":"３６之１號","E_COORD97":175180,"N_COORD97":2549269.54,"ADDRESS":"環工路３６之１號","OBJECTID":234982},"geometry":{"x":175180,"y":2549269.540000001}},{"attributes":{"ID":234987,"DIS_CODE":0,"TOWNNAME":"永康區","LI":"王行里","LIN":"14鄰","STREET":"環工路","SECT":" ","MAREA":" ","LANE":" ","ALLEY":" ","HOUSE_NO":"２６號","E_COORD97":175338.23999999999,"N_COORD97":2549413.5,"ADDRESS":"環工路２６號","OBJECTID":234983},"geometry":{"x":175338.24000000022,"y":2549413.5}},{"attributes":{"ID":234988,"DIS_CODE":0,"TOWNNAME":"永康區","LI":"王行里","LIN":"14鄰","STREET":"環工路","SECT":" ","MAREA":" ","LANE":" ","ALLEY":" ","HOUSE_NO":"３３號","E_COORD97":175420.34,"N_COORD97":2549429.5,"ADDRESS":"環工路３３號","OBJECTID":234984},"geometry":{"x":175420.33999999985,"y":2549429.5000000019}},{"attributes":{"ID":234989,"DIS_CODE":0,"TOWNNAME":"歸仁區","LI":"辜厝里","LIN":"14鄰","STREET":"中正南路","SECT":"一段","MAREA":" ","LANE":" ","ALLEY":" ","HOUSE_NO":"１２０號十樓","E_COORD97":177505.95000000001,"N_COORD97":2540501.6899999999,"ADDRESS":"中正南路一段１２０號十樓","OBJECTID":234985},"geometry":{"x":177505.95000000112,"y":2540501.6899999995}},{"attributes":{"ID":234990,"DIS_CODE":0,"TOWNNAME":"南區","LI":"文南里","LIN":"14鄰","STREET":"永南二街","SECT":" ","MAREA":" ","LANE":" ","ALLEY":" ","HOUSE_NO":"１４號七樓之１","E_COORD97":166790.67000000001,"N_COORD97":2542630.6200000001,"ADDRESS":"永南二街１４號七樓之１","OBJECTID":234986},"geometry":{"x":166790.66999999993,"y":2542630.620000001}},{"attributes":{"ID":234991,"DIS_CODE":0,"TOWNNAME":"南區","LI":"文南里","LIN":"14鄰","STREET":"永南二街","SECT":" ","MAREA":" ","LANE":" ","ALLEY":" ","HOUSE_NO":"１４號七樓之２","E_COORD97":166790.67000000001,"N_COORD97":2542630.6200000001,"ADDRESS":"永南二街１４號七樓之２","OBJECTID":234987},"geometry":{"x":166790.66999999993,"y":2542630.620000001}},{"attributes":{"ID":234992,"DIS_CODE":0,"TOWNNAME":"南區","LI":"文南里","LIN":"14鄰","STREET":"永南二街","SECT":" ","MAREA":" ","LANE":" ","ALLEY":" ","HOUSE_NO":"１４號七樓之３","E_COORD97":166790.67000000001,"N_COORD97":2542630.6200000001,"ADDRESS":"永南二街１４號七樓之３","OBJECTID":234988},"geometry":{"x":166790.66999999993,"y":2542630.620000001}},{"attributes":{"ID":234993,"DIS_CODE":0,"TOWNNAME":"南區","LI":"文南里","LIN":"14鄰","STREET":"永南二街","SECT":" ","MAREA":" ","LANE":" ","ALLEY":" ","HOUSE_NO":"１４號七樓之４","E_COORD97":166790.67000000001,"N_COORD97":2542630.6200000001,"ADDRESS":"永南二街１４號七樓之４","OBJECTID":234989},"geometry":{"x":166790.66999999993,"y":2542630.620000001}},{"attributes":{"ID":234994,"DIS_CODE":0,"TOWNNAME":"南區","LI":"文南里","LIN":"14鄰","STREET":"永南二街","SECT":" ","MAREA":" ","LANE":" ","ALLEY":" ","HOUSE_NO":"１４號三樓之１","E_COORD97":166790.67000000001,"N_COORD97":2542630.6200000001,"ADDRESS":"永南二街１４號三樓之１","OBJECTID":234990},"geometry":{"x":166790.66999999993,"y":2542630.620000001}},{"attributes":{"ID":234995,"DIS_CODE":0,"TOWNNAME":"歸仁區","LI":"崙頂里","LIN":"16鄰","STREET":"崙頂街","SECT":" ","MAREA":" ","LANE":"１７巷","ALLEY":" ","HOUSE_NO":"１９號","E_COORD97":177913.03,"N_COORD97":2540060.25,"ADDRESS":"崙頂街１７巷１９號","OBJECTID":234991},"geometry":{"x":177913.03000000026,"y":2540060.2500000019}},{"attributes":{"ID":234996,"DIS_CODE":0,"TOWNNAME":"歸仁區","LI":"崙頂里","LIN":"16鄰","STREET":"崙頂一街","SECT":" ","MAREA":" ","LANE":"２３巷","ALLEY":" ","HOUSE_NO":"１０號","E_COORD97":177962.42000000001,"N_COORD97":2540013.6800000002,"ADDRESS":"崙頂一街２３巷１０號","OBJECTID":234992},"geometry":{"x":177962.41999999993,"y":2540013.6799999997}},{"attributes":{"ID":234997,"DIS_CODE":0,"TOWNNAME":"歸仁區","LI":"看東里","LIN":"16鄰","STREET":"中山路","SECT":"一段","MAREA":" ","LANE":"１巷","ALLEY":" ","HOUSE_NO":"３６號","E_COORD97":179567.13,"N_COORD97":2540225.5699999998,"ADDRESS":"中山路一段１巷３６號","OBJECTID":234993},"geometry":{"x":179567.13000000082,"y":2540225.5700000003}},{"attributes":{"ID":234998,"DIS_CODE":0,"TOWNNAME":"新市區","LI":"港墘里","LIN":"5鄰","STREET":"民族路","SECT":" ","MAREA":" ","LANE":"１２１巷","ALLEY":" ","HOUSE_NO":"１３號","E_COORD97":178326.85000000001,"N_COORD97":2553556.54,"ADDRESS":"民族路１２１巷１３號","OBJECTID":234994},"geometry":{"x":178326.84999999963,"y":2553556.5399999972}},{"attributes":{"ID":234999,"DIS_CODE":0,"TOWNNAME":"關廟區","LI":"新埔里","LIN":"6鄰","STREET":"新埔三街","SECT":" ","MAREA":" ","LANE":"２９巷","ALLEY":" ","HOUSE_NO":"１８號","E_COORD97":181091.18662600001,"N_COORD97":2541011.1018400001,"ADDRESS":"新埔三街２９巷１８號","OBJECTID":234995},"geometry":{"x":181091.18662600033,"y":2541011.1018429995}},{"attributes":{"ID":235000,"DIS_CODE":0,"TOWNNAME":"安南區","LI":"原佃里","LIN":"5鄰","STREET":"本原街","SECT":"一段","MAREA":" ","LANE":"２６２巷","ALLEY":" ","HOUSE_NO":"８８號","E_COORD97":167839.39000000001,"N_COORD97":2550848.5800000001,"ADDRESS":"本原街一段２６２巷８８號","OBJECTID":234996},"geometry":{"x":167839.3900000006,"y":2550848.5800000038}},{"attributes":{"ID":235001,"DIS_CODE":0,"TOWNNAME":"安南區","LI":"安東里","LIN":"5鄰","STREET":"安和路","SECT":"一段","MAREA":" ","LANE":"２８８巷","ALLEY":" ","HOUSE_NO":"５７之１號","E_COORD97":169434.06,"N_COORD97":2548127.0800000001,"ADDRESS":"安和路一段２８８巷５７之１號","OBJECTID":234997},"geometry":{"x":169434.05999999959,"y":2548127.0800000019}},{"attributes":{"ID":235002,"DIS_CODE":0,"TOWNNAME":"永康區","LI":"神洲里","LIN":"5鄰","STREET":"忠孝路","SECT":" ","MAREA":" ","LANE":"３８巷","ALLEY":" ","HOUSE_NO":"２１號","E_COORD97":172168.72,"N_COORD97":2544710.6200000001,"ADDRESS":"忠孝路３８巷２１號","OBJECTID":234998},"geometry":{"x":172168.72000000067,"y":2544710.6200000029}},{"attributes":{"ID":235003,"DIS_CODE":0,"TOWNNAME":"永康區","LI":"六合里","LIN":"5鄰","STREET":"新興街","SECT":" ","MAREA":" ","LANE":"３４巷","ALLEY":" ","HOUSE_NO":"９號","E_COORD97":171043.57000000001,"N_COORD97":2545750.2400000002,"ADDRESS":"新興街３４巷９號","OBJECTID":234999},"geometry":{"x":171043.5700000003,"y":2545750.2400000021}},{"attributes":{"ID":235004,"DIS_CODE":0,"TOWNNAME":"北區","LI":"永祥里","LIN":"5鄰","STREET":"實踐街","SECT":" ","MAREA":" ","LANE":"３９巷","ALLEY":" ","HOUSE_NO":"１２６號","E_COORD97":169928.87,"N_COORD97":2546385.6699999999,"ADDRESS":"實踐街３９巷１２６號","OBJECTID":235000},"geometry":{"x":169928.87000000104,"y":2546385.6699999999}}]}