{"displayFieldName":"TOWNNAME","fieldAliases":{"ID":"ID","DIS_CODE":"DIS_CODE","TOWNNAME":"TOWNNAME","LI":"LI","LIN":"LIN","STREET":"STREET","SECT":"SECT","MAREA":"MAREA","LANE":"LANE","ALLEY":"ALLEY","HOUSE_NO":"HOUSE_NO","E_COORD97":"E_COORD97","N_COORD97":"N_COORD97","ADDRESS":"ADDRESS","OBJECTID":"OBJECTID"},"geometryType":"esriGeometryPoint","spatialReference":{"wkid":102443,"latestWkid":3826},"fields":[{"name":"ID","type":"esriFieldTypeDouble","alias":"ID"},{"name":"DIS_CODE","type":"esriFieldTypeInteger","alias":"DIS_CODE"},{"name":"TOWNNAME","type":"esriFieldTypeString","alias":"TOWNNAME","length":8},{"name":"LI","type":"esriFieldTypeString","alias":"LI","length":8},{"name":"LIN","type":"esriFieldTypeString","alias":"LIN","length":12},{"name":"STREET","type":"esriFieldTypeString","alias":"STREET","length":20},{"name":"SECT","type":"esriFieldTypeString","alias":"SECT","length":8},{"name":"MAREA","type":"esriFieldTypeString","alias":"MAREA","length":12},{"name":"LANE","type":"esriFieldTypeString","alias":"LANE","length":10},{"name":"ALLEY","type":"esriFieldTypeString","alias":"ALLEY","length":10},{"name":"HOUSE_NO","type":"esriFieldTypeString","alias":"HOUSE_NO","length":20},{"name":"E_COORD97","type":"esriFieldTypeDouble","alias":"E_COORD97"},{"name":"N_COORD97","type":"esriFieldTypeDouble","alias":"N_COORD97"},{"name":"ADDRESS","type":"esriFieldTypeString","alias":"ADDRESS","length":50},{"name":"OBJECTID","type":"esriFieldTypeOID","alias":"OBJECTID"}],"features":[{"attributes":{"ID":147001,"DIS_CODE":0,"TOWNNAME":"南區","LI":"興農里","LIN":"3鄰","STREET":"灣裡路","SECT":" ","MAREA":" ","LANE":"２６３巷","ALLEY":"６７弄","HOUSE_NO":"７號之２","E_COORD97":166320.17999999999,"N_COORD97":2536467.8100000001,"ADDRESS":"灣裡路２６３巷６７弄７號之２","OBJECTID":147001},"geometry":{"x":166320.18000000063,"y":2536467.8100000005}},{"attributes":{"ID":147002,"DIS_CODE":0,"TOWNNAME":"南區","LI":"興農里","LIN":"3鄰","STREET":"灣裡路","SECT":" ","MAREA":" ","LANE":"２６３巷","ALLEY":"６７弄","HOUSE_NO":"７號之３","E_COORD97":166314.85999999999,"N_COORD97":2536467.1699999999,"ADDRESS":"灣裡路２６３巷６７弄７號之３","OBJECTID":147002},"geometry":{"x":166314.86000000127,"y":2536467.1700000018}},{"attributes":{"ID":147003,"DIS_CODE":0,"TOWNNAME":"南區","LI":"喜南里","LIN":"3鄰","STREET":"喜樹路","SECT":" ","MAREA":" ","LANE":"３０２巷","ALLEY":"２７弄","HOUSE_NO":"１０號之２","E_COORD97":165625.17000000001,"N_COORD97":2537740.1000000001,"ADDRESS":"喜樹路３０２巷２７弄１０號之２","OBJECTID":147003},"geometry":{"x":165625.17000000179,"y":2537740.0999999996}},{"attributes":{"ID":147004,"DIS_CODE":0,"TOWNNAME":"南區","LI":"喜南里","LIN":"3鄰","STREET":"喜樹路","SECT":" ","MAREA":" ","LANE":"３０２巷","ALLEY":"２７弄","HOUSE_NO":"１０號之３","E_COORD97":165621.5,"N_COORD97":2537734.5099999998,"ADDRESS":"喜樹路３０２巷２７弄１０號之３","OBJECTID":147004},"geometry":{"x":165621.50000000093,"y":2537734.5099999998}},{"attributes":{"ID":147005,"DIS_CODE":0,"TOWNNAME":"南區","LI":"文南里","LIN":"3鄰","STREET":"金華路","SECT":"二段","MAREA":" ","LANE":"２８９巷","ALLEY":"５弄","HOUSE_NO":"４３號","E_COORD97":167074.82000000001,"N_COORD97":2542669.5,"ADDRESS":"金華路二段２８９巷５弄４３號","OBJECTID":147005},"geometry":{"x":167074.82000000123,"y":2542669.5000000019}},{"attributes":{"ID":147006,"DIS_CODE":0,"TOWNNAME":"新營區","LI":"大宏里","LIN":"30鄰","STREET":"開元路","SECT":" ","MAREA":" ","LANE":"３１巷","ALLEY":" ","HOUSE_NO":"１號","E_COORD97":180804.76000000001,"N_COORD97":2578607.6800000002,"ADDRESS":"開元路３１巷１號","OBJECTID":147006},"geometry":{"x":180804.75999999885,"y":2578607.6799999997}},{"attributes":{"ID":147007,"DIS_CODE":0,"TOWNNAME":"歸仁區","LI":"崙頂里","LIN":"30鄰","STREET":"凱旋路","SECT":"二段","MAREA":" ","LANE":"２１１巷","ALLEY":" ","HOUSE_NO":"３３號","E_COORD97":177073.10999999999,"N_COORD97":2539241.9500000002,"ADDRESS":"凱旋路二段２１１巷３３號","OBJECTID":147007},"geometry":{"x":177073.11000000034,"y":2539241.9499999993}},{"attributes":{"ID":147008,"DIS_CODE":0,"TOWNNAME":"新化區","LI":"東榮里","LIN":"30鄰","STREET":"護安街","SECT":" ","MAREA":" ","LANE":" ","ALLEY":" ","HOUSE_NO":"３２號","E_COORD97":179233.98000000001,"N_COORD97":2548311.2599999998,"ADDRESS":"護安街３２號","OBJECTID":147008},"geometry":{"x":179233.98000000045,"y":2548311.2600000035}},{"attributes":{"ID":147009,"DIS_CODE":0,"TOWNNAME":"白河區","LI":"虎山里","LIN":"4鄰","STREET":" ","SECT":" ","MAREA":"木屐寮","LANE":" ","ALLEY":" ","HOUSE_NO":"５４之２號","E_COORD97":193939.31,"N_COORD97":2584406.6699999999,"ADDRESS":"木屐寮５４之２號","OBJECTID":147009},"geometry":{"x":193939.31000000052,"y":2584406.6700000018}},{"attributes":{"ID":147010,"DIS_CODE":0,"TOWNNAME":"白河區","LI":"汴頭里","LIN":" ","STREET":" ","SECT":" ","MAREA":"內崎內","LANE":" ","ALLEY":" ","HOUSE_NO":"５號","E_COORD97":195311.51000000001,"N_COORD97":2585567.4700000002,"ADDRESS":"內崎內５號","OBJECTID":147010},"geometry":{"x":195311.50999999978,"y":2585567.4700000044}},{"attributes":{"ID":147011,"DIS_CODE":0,"TOWNNAME":"白河區","LI":"崎內里","LIN":" ","STREET":" ","SECT":" ","MAREA":"內崎內","LANE":" ","ALLEY":" ","HOUSE_NO":"６６號","E_COORD97":196631.82999999999,"N_COORD97":2586484.4199999999,"ADDRESS":"內崎內６６號","OBJECTID":147011},"geometry":{"x":196631.83000000101,"y":2586484.4199999999}},{"attributes":{"ID":147012,"DIS_CODE":0,"TOWNNAME":"白河區","LI":"崎內里","LIN":" ","STREET":" ","SECT":" ","MAREA":"內崎內","LANE":" ","ALLEY":" ","HOUSE_NO":"７１之１號","E_COORD97":196656.57000000001,"N_COORD97":2586546.6899999999,"ADDRESS":"內崎內７１之１號","OBJECTID":147012},"geometry":{"x":196656.5700000003,"y":2586546.6899999995}},{"attributes":{"ID":147013,"DIS_CODE":0,"TOWNNAME":"白河區","LI":"六溪里","LIN":" ","STREET":" ","SECT":" ","MAREA":"六重溪","LANE":" ","ALLEY":" ","HOUSE_NO":"１０１號","E_COORD97":195611.06,"N_COORD97":2578083.8999999999,"ADDRESS":"六重溪１０１號","OBJECTID":147013},"geometry":{"x":195611.05999999959,"y":2578083.9000000004}},{"attributes":{"ID":147014,"DIS_CODE":0,"TOWNNAME":"白河區","LI":"六溪里","LIN":" ","STREET":" ","SECT":" ","MAREA":"六重溪","LANE":" ","ALLEY":" ","HOUSE_NO":"１０６之２號","E_COORD97":195859.60999999999,"N_COORD97":2578493.4700000002,"ADDRESS":"六重溪１０６之２號","OBJECTID":147014},"geometry":{"x":195859.61000000034,"y":2578493.4700000007}},{"attributes":{"ID":147015,"DIS_CODE":0,"TOWNNAME":"白河區","LI":"六溪里","LIN":" ","STREET":" ","SECT":" ","MAREA":"六重溪","LANE":" ","ALLEY":" ","HOUSE_NO":"２６號","E_COORD97":194693.79000000001,"N_COORD97":2578642.3700000001,"ADDRESS":"六重溪２６號","OBJECTID":147015},"geometry":{"x":194693.79000000097,"y":2578642.3700000029}},{"attributes":{"ID":147016,"DIS_CODE":0,"TOWNNAME":"白河區","LI":"六溪里","LIN":" ","STREET":" ","SECT":" ","MAREA":"六重溪","LANE":" ","ALLEY":" ","HOUSE_NO":"４之２號","E_COORD97":193822.81,"N_COORD97":2578865.25,"ADDRESS":"六重溪４之２號","OBJECTID":147016},"geometry":{"x":193822.80999999959,"y":2578865.2499999981}},{"attributes":{"ID":147017,"DIS_CODE":0,"TOWNNAME":"南區","LI":"文南里","LIN":"3鄰","STREET":"金華路","SECT":"二段","MAREA":" ","LANE":"２８９巷","ALLEY":"５弄","HOUSE_NO":"４５號","E_COORD97":167073.87,"N_COORD97":2542662.0899999999,"ADDRESS":"金華路二段２８９巷５弄４５號","OBJECTID":147017},"geometry":{"x":167073.87000000104,"y":2542662.0900000017}},{"attributes":{"ID":147018,"DIS_CODE":0,"TOWNNAME":"南區","LI":"文南里","LIN":"3鄰","STREET":"金華路","SECT":"二段","MAREA":" ","LANE":"２８９巷","ALLEY":"５弄","HOUSE_NO":"４７號","E_COORD97":167072.92000000001,"N_COORD97":2542654.1000000001,"ADDRESS":"金華路二段２８９巷５弄４７號","OBJECTID":147018},"geometry":{"x":167072.92000000179,"y":2542654.1000000015}},{"attributes":{"ID":147019,"DIS_CODE":0,"TOWNNAME":"安平區","LI":"金城里","LIN":"3鄰","STREET":"運河路","SECT":" ","MAREA":" ","LANE":"４０巷","ALLEY":"７弄","HOUSE_NO":"６之１號","E_COORD97":163916.64999999999,"N_COORD97":2544356.75,"ADDRESS":"運河路４０巷７弄６之１號","OBJECTID":147019},"geometry":{"x":163916.65000000037,"y":2544356.75}},{"attributes":{"ID":147020,"DIS_CODE":0,"TOWNNAME":"安平區","LI":"國平里","LIN":"3鄰","STREET":"建平五街","SECT":" ","MAREA":" ","LANE":"１８４巷","ALLEY":"１５弄","HOUSE_NO":"２５號","E_COORD97":165516.66,"N_COORD97":2543227.8799999999,"ADDRESS":"建平五街１８４巷１５弄２５號","OBJECTID":147020},"geometry":{"x":165516.66000000015,"y":2543227.8800000008}},{"attributes":{"ID":147021,"DIS_CODE":0,"TOWNNAME":"南區","LI":"松安里","LIN":"3鄰","STREET":"灣裡路","SECT":" ","MAREA":" ","LANE":"２８２巷","ALLEY":"１１０弄","HOUSE_NO":"７７號之１","E_COORD97":165742.45000000001,"N_COORD97":2536191.54,"ADDRESS":"灣裡路２８２巷１１０弄７７號之１","OBJECTID":147021},"geometry":{"x":165742.45000000112,"y":2536191.540000001}},{"attributes":{"ID":147022,"DIS_CODE":0,"TOWNNAME":"南區","LI":"松安里","LIN":"3鄰","STREET":"灣裡路","SECT":" ","MAREA":" ","LANE":"２８２巷","ALLEY":"８８弄","HOUSE_NO":"１８號","E_COORD97":165946.34,"N_COORD97":2536204.3100000001,"ADDRESS":"灣裡路２８２巷８８弄１８號","OBJECTID":147022},"geometry":{"x":165946.34000000078,"y":2536204.3099999987}},{"attributes":{"ID":147023,"DIS_CODE":0,"TOWNNAME":"南化區","LI":"南化里","LIN":"5鄰","STREET":" ","SECT":" ","MAREA":"南化","LANE":" ","ALLEY":" ","HOUSE_NO":"６３號","E_COORD97":196341.89000000001,"N_COORD97":2549162.75,"ADDRESS":"南化６３號","OBJECTID":147023},"geometry":{"x":196341.88999999873,"y":2549162.7500000019}},{"attributes":{"ID":147024,"DIS_CODE":0,"TOWNNAME":"南區","LI":"松安里","LIN":"3鄰","STREET":"灣裡路","SECT":" ","MAREA":" ","LANE":"２８２巷","ALLEY":"１１０弄","HOUSE_NO":"７７號之２","E_COORD97":165750.75,"N_COORD97":2536188.7799999998,"ADDRESS":"灣裡路２８２巷１１０弄７７號之２","OBJECTID":147024},"geometry":{"x":165750.75000000093,"y":2536188.7799999993}},{"attributes":{"ID":147025,"DIS_CODE":0,"TOWNNAME":"南區","LI":"松安里","LIN":"3鄰","STREET":"灣裡路","SECT":" ","MAREA":" ","LANE":"２８２巷","ALLEY":"１１０弄","HOUSE_NO":"７７號之３","E_COORD97":165730.01999999999,"N_COORD97":2536193.3799999999,"ADDRESS":"灣裡路２８２巷１１０弄７７號之３","OBJECTID":147025},"geometry":{"x":165730.02000000048,"y":2536193.3800000008}},{"attributes":{"ID":147026,"DIS_CODE":0,"TOWNNAME":"南區","LI":"松安里","LIN":"3鄰","STREET":"灣裡路","SECT":" ","MAREA":" ","LANE":"２８２巷","ALLEY":"１１０弄","HOUSE_NO":"７７號之７","E_COORD97":165636.64999999999,"N_COORD97":2536217.29,"ADDRESS":"灣裡路２８２巷１１０弄７７號之７","OBJECTID":147026},"geometry":{"x":165636.6500000013,"y":2536217.290000001}},{"attributes":{"ID":147027,"DIS_CODE":0,"TOWNNAME":"南區","LI":"松安里","LIN":"3鄰","STREET":"灣裡路","SECT":" ","MAREA":" ","LANE":"２８２巷","ALLEY":"１１０弄","HOUSE_NO":"７７號之５","E_COORD97":165736.23000000001,"N_COORD97":2536212.9500000002,"ADDRESS":"灣裡路２８２巷１１０弄７７號之５","OBJECTID":147027},"geometry":{"x":165736.23000000138,"y":2536212.9500000011}},{"attributes":{"ID":147028,"DIS_CODE":0,"TOWNNAME":"南區","LI":"松安里","LIN":"3鄰","STREET":"灣裡路","SECT":" ","MAREA":" ","LANE":"２８２巷","ALLEY":"１１０弄","HOUSE_NO":"８４號","E_COORD97":165898.92000000001,"N_COORD97":2536194.3500000001,"ADDRESS":"灣裡路２８２巷１１０弄８４號","OBJECTID":147028},"geometry":{"x":165898.92000000086,"y":2536194.3500000015}},{"attributes":{"ID":147029,"DIS_CODE":0,"TOWNNAME":"南區","LI":"松安里","LIN":"3鄰","STREET":"灣裡路","SECT":" ","MAREA":" ","LANE":"２８２巷","ALLEY":"１１０弄","HOUSE_NO":"８６號","E_COORD97":165903.85000000001,"N_COORD97":2536194.3500000001,"ADDRESS":"灣裡路２８２巷１１０弄８６號","OBJECTID":147029},"geometry":{"x":165903.85000000056,"y":2536194.3500000015}},{"attributes":{"ID":147030,"DIS_CODE":0,"TOWNNAME":"南區","LI":"松安里","LIN":"3鄰","STREET":"灣裡路","SECT":" ","MAREA":" ","LANE":"２８２巷","ALLEY":"１１０弄","HOUSE_NO":"９０號","E_COORD97":165914.04000000001,"N_COORD97":2536195.4300000002,"ADDRESS":"灣裡路２８２巷１１０弄９０號","OBJECTID":147030},"geometry":{"x":165914.04000000004,"y":2536195.4299999997}},{"attributes":{"ID":147031,"DIS_CODE":0,"TOWNNAME":"西港區","LI":"西港里","LIN":"4鄰","STREET":"文化路","SECT":" ","MAREA":" ","LANE":" ","ALLEY":" ","HOUSE_NO":"２１號","E_COORD97":168511.09,"N_COORD97":2558171.21,"ADDRESS":"文化路２１號","OBJECTID":147031},"geometry":{"x":168511.09000000078,"y":2558171.2100000009}},{"attributes":{"ID":147032,"DIS_CODE":0,"TOWNNAME":"南區","LI":"松安里","LIN":"3鄰","STREET":"灣裡路","SECT":" ","MAREA":" ","LANE":"２８２巷","ALLEY":"１１０弄","HOUSE_NO":"９２號","E_COORD97":165913.57999999999,"N_COORD97":2536210.0800000001,"ADDRESS":"灣裡路２８２巷１１０弄９２號","OBJECTID":147032},"geometry":{"x":165913.58000000007,"y":2536210.0800000019}},{"attributes":{"ID":147033,"DIS_CODE":0,"TOWNNAME":"南區","LI":"松安里","LIN":"3鄰","STREET":"灣裡路","SECT":" ","MAREA":" ","LANE":"２８２巷","ALLEY":"１１０弄","HOUSE_NO":"９４號","E_COORD97":165907.70999999999,"N_COORD97":2536209,"ADDRESS":"灣裡路２８２巷１１０弄９４號","OBJECTID":147033},"geometry":{"x":165907.70999999996,"y":2536209}},{"attributes":{"ID":147034,"DIS_CODE":0,"TOWNNAME":"南區","LI":"松安里","LIN":"3鄰","STREET":"灣裡路","SECT":" ","MAREA":" ","LANE":"２８２巷","ALLEY":"１１０弄","HOUSE_NO":"９６號","E_COORD97":165902.76999999999,"N_COORD97":2536209.3100000001,"ADDRESS":"灣裡路２８２巷１１０弄９６號","OBJECTID":147034},"geometry":{"x":165902.77000000048,"y":2536209.3100000024}},{"attributes":{"ID":147035,"DIS_CODE":0,"TOWNNAME":"南區","LI":"松安里","LIN":"3鄰","STREET":"灣裡路","SECT":" ","MAREA":" ","LANE":"２８２巷","ALLEY":"１１０弄","HOUSE_NO":"９８號","E_COORD97":165896.60000000001,"N_COORD97":2536207.7599999998,"ADDRESS":"灣裡路２８２巷１１０弄９８號","OBJECTID":147035},"geometry":{"x":165896.60000000149,"y":2536207.7600000016}},{"attributes":{"ID":147036,"DIS_CODE":0,"TOWNNAME":"南區","LI":"松安里","LIN":"3鄰","STREET":"灣裡路","SECT":" ","MAREA":" ","LANE":"２８２巷","ALLEY":"３６弄","HOUSE_NO":"２５號","E_COORD97":165984.20999999999,"N_COORD97":2536323.0499999998,"ADDRESS":"灣裡路２８２巷３６弄２５號","OBJECTID":147036},"geometry":{"x":165984.20999999996,"y":2536323.0500000026}},{"attributes":{"ID":147037,"DIS_CODE":0,"TOWNNAME":"南區","LI":"松安里","LIN":"3鄰","STREET":"灣裡路","SECT":" ","MAREA":" ","LANE":"２８２巷","ALLEY":"３６弄","HOUSE_NO":"２５號之２","E_COORD97":165986.5,"N_COORD97":2536308.6899999999,"ADDRESS":"灣裡路２８２巷３６弄２５號之２","OBJECTID":147037},"geometry":{"x":165986.50000000093,"y":2536308.6899999995}},{"attributes":{"ID":147038,"DIS_CODE":0,"TOWNNAME":"南區","LI":"松安里","LIN":"3鄰","STREET":"灣裡路","SECT":" ","MAREA":" ","LANE":"２８２巷","ALLEY":"３６弄","HOUSE_NO":"２７號","E_COORD97":165984.04999999999,"N_COORD97":2536333.98,"ADDRESS":"灣裡路２８２巷３６弄２７號","OBJECTID":147038},"geometry":{"x":165984.05000000075,"y":2536333.9800000004}},{"attributes":{"ID":147039,"DIS_CODE":0,"TOWNNAME":"南區","LI":"松安里","LIN":"3鄰","STREET":"灣裡路","SECT":" ","MAREA":" ","LANE":"２８２巷","ALLEY":"３６弄","HOUSE_NO":"３９號","E_COORD97":165966.25,"N_COORD97":2536303.1400000001,"ADDRESS":"灣裡路２８２巷３６弄３９號","OBJECTID":147039},"geometry":{"x":165966.25000000093,"y":2536303.1400000006}},{"attributes":{"ID":147040,"DIS_CODE":0,"TOWNNAME":"南區","LI":"松安里","LIN":"3鄰","STREET":"灣裡路","SECT":" ","MAREA":" ","LANE":"２８２巷","ALLEY":"３６弄","HOUSE_NO":"４１號","E_COORD97":165965.42999999999,"N_COORD97":2536298.0800000001,"ADDRESS":"灣裡路２８２巷３６弄４１號","OBJECTID":147040},"geometry":{"x":165965.4299999997,"y":2536298.0800000019}},{"attributes":{"ID":147041,"DIS_CODE":0,"TOWNNAME":"南區","LI":"松安里","LIN":"3鄰","STREET":"灣裡路","SECT":" ","MAREA":" ","LANE":"２８２巷","ALLEY":"３６弄","HOUSE_NO":"４９號","E_COORD97":165947.60999999999,"N_COORD97":2536326.04,"ADDRESS":"灣裡路２８２巷３６弄４９號","OBJECTID":147041},"geometry":{"x":165947.61000000034,"y":2536326.0399999991}},{"attributes":{"ID":147042,"DIS_CODE":0,"TOWNNAME":"南區","LI":"松安里","LIN":"3鄰","STREET":"灣裡路","SECT":" ","MAREA":" ","LANE":"２８２巷","ALLEY":"３６弄","HOUSE_NO":"５１號","E_COORD97":165946.31,"N_COORD97":2536330.3700000001,"ADDRESS":"灣裡路２８２巷３６弄５１號","OBJECTID":147042},"geometry":{"x":165946.31000000052,"y":2536330.3700000029}},{"attributes":{"ID":147043,"DIS_CODE":0,"TOWNNAME":"南區","LI":"松安里","LIN":"3鄰","STREET":"灣裡路","SECT":" ","MAREA":" ","LANE":"２８２巷","ALLEY":"３６弄","HOUSE_NO":"５３號","E_COORD97":165940.01999999999,"N_COORD97":2536326.7999999998,"ADDRESS":"灣裡路２８２巷３６弄５３號","OBJECTID":147043},"geometry":{"x":165940.02000000048,"y":2536326.8000000045}},{"attributes":{"ID":147044,"DIS_CODE":0,"TOWNNAME":"南區","LI":"松安里","LIN":"3鄰","STREET":"灣裡路","SECT":" ","MAREA":" ","LANE":"２８２巷","ALLEY":"６８弄","HOUSE_NO":"１７號","E_COORD97":165954.51999999999,"N_COORD97":2536243.1299999999,"ADDRESS":"灣裡路２８２巷６８弄１７號","OBJECTID":147044},"geometry":{"x":165954.51999999955,"y":2536243.129999999}},{"attributes":{"ID":147045,"DIS_CODE":0,"TOWNNAME":"南區","LI":"松安里","LIN":"3鄰","STREET":"灣裡路","SECT":" ","MAREA":" ","LANE":"２８２巷","ALLEY":"６８弄","HOUSE_NO":"１８號","E_COORD97":165971.60999999999,"N_COORD97":2536286.3500000001,"ADDRESS":"灣裡路２８２巷６８弄１８號","OBJECTID":147045},"geometry":{"x":165971.61000000034,"y":2536286.3499999996}},{"attributes":{"ID":147046,"DIS_CODE":0,"TOWNNAME":"南區","LI":"松安里","LIN":"3鄰","STREET":"灣裡路","SECT":" ","MAREA":" ","LANE":"２８２巷","ALLEY":"６８弄","HOUSE_NO":"２０號","E_COORD97":165975.85000000001,"N_COORD97":2536276.7200000002,"ADDRESS":"灣裡路２８２巷６８弄２０號","OBJECTID":147046},"geometry":{"x":165975.84999999963,"y":2536276.7200000044}},{"attributes":{"ID":147047,"DIS_CODE":0,"TOWNNAME":"南區","LI":"松安里","LIN":"3鄰","STREET":"灣裡路","SECT":" ","MAREA":" ","LANE":"２８２巷","ALLEY":"６８弄","HOUSE_NO":"２１號","E_COORD97":165923.10999999999,"N_COORD97":2536243.7200000002,"ADDRESS":"灣裡路２８２巷６８弄２１號","OBJECTID":147047},"geometry":{"x":165923.11000000127,"y":2536243.7200000025}},{"attributes":{"ID":147048,"DIS_CODE":0,"TOWNNAME":"南區","LI":"松安里","LIN":"3鄰","STREET":"灣裡路","SECT":" ","MAREA":" ","LANE":"２８２巷","ALLEY":"６８弄","HOUSE_NO":"２２號","E_COORD97":165974.69,"N_COORD97":2536264.5099999998,"ADDRESS":"灣裡路２８２巷６８弄２２號","OBJECTID":147048},"geometry":{"x":165974.68999999948,"y":2536264.5100000016}},{"attributes":{"ID":147049,"DIS_CODE":0,"TOWNNAME":"南區","LI":"松安里","LIN":"3鄰","STREET":"灣裡路","SECT":" ","MAREA":" ","LANE":"２８２巷","ALLEY":"６８弄","HOUSE_NO":"２３號","E_COORD97":165913.56,"N_COORD97":2536243.7200000002,"ADDRESS":"灣裡路２８２巷６８弄２３號","OBJECTID":147049},"geometry":{"x":165913.55999999959,"y":2536243.7200000025}},{"attributes":{"ID":147050,"DIS_CODE":0,"TOWNNAME":"南區","LI":"松安里","LIN":"3鄰","STREET":"灣裡路","SECT":" ","MAREA":" ","LANE":"２８２巷","ALLEY":"６８弄","HOUSE_NO":"２５號","E_COORD97":165910.17999999999,"N_COORD97":2536254.0600000001,"ADDRESS":"灣裡路２８２巷６８弄２５號","OBJECTID":147050},"geometry":{"x":165910.18000000063,"y":2536254.0600000024}},{"attributes":{"ID":147051,"DIS_CODE":0,"TOWNNAME":"南區","LI":"松安里","LIN":"3鄰","STREET":"灣裡路","SECT":" ","MAREA":" ","LANE":"２８２巷","ALLEY":"６８弄","HOUSE_NO":"２７號","E_COORD97":165903.82000000001,"N_COORD97":2536254.6499999999,"ADDRESS":"灣裡路２８２巷６８弄２７號","OBJECTID":147051},"geometry":{"x":165903.8200000003,"y":2536254.6500000004}},{"attributes":{"ID":147052,"DIS_CODE":0,"TOWNNAME":"南區","LI":"松安里","LIN":"3鄰","STREET":"灣裡路","SECT":" ","MAREA":" ","LANE":"２８２巷","ALLEY":"６８弄","HOUSE_NO":"２８號","E_COORD97":165965.42000000001,"N_COORD97":2536264.4199999999,"ADDRESS":"灣裡路２８２巷６８弄２８號","OBJECTID":147052},"geometry":{"x":165965.41999999993,"y":2536264.4200000018}},{"attributes":{"ID":147053,"DIS_CODE":0,"TOWNNAME":"南區","LI":"松安里","LIN":"3鄰","STREET":"灣裡路","SECT":" ","MAREA":" ","LANE":"２８２巷","ALLEY":"６８弄","HOUSE_NO":"２９號","E_COORD97":165899.25,"N_COORD97":2536254.25,"ADDRESS":"灣裡路２８２巷６８弄２９號","OBJECTID":147053},"geometry":{"x":165899.24999999907,"y":2536254.25}},{"attributes":{"ID":147054,"DIS_CODE":0,"TOWNNAME":"歸仁區","LI":"許厝里","LIN":"30鄰","STREET":"中山路","SECT":"一段","MAREA":" ","LANE":" ","ALLEY":" ","HOUSE_NO":"５３１號","E_COORD97":177904.91,"N_COORD97":2540725.25,"ADDRESS":"中山路一段５３１號","OBJECTID":147054},"geometry":{"x":177904.91000000015,"y":2540725.2500000019}},{"attributes":{"ID":147055,"DIS_CODE":0,"TOWNNAME":"歸仁區","LI":"辜厝里","LIN":"30鄰","STREET":"大順三街","SECT":" ","MAREA":" ","LANE":" ","ALLEY":" ","HOUSE_NO":"７４號","E_COORD97":177408.63,"N_COORD97":2540472.9500000002,"ADDRESS":"大順三街７４號","OBJECTID":147055},"geometry":{"x":177408.62999999896,"y":2540472.9499999993}},{"attributes":{"ID":147056,"DIS_CODE":0,"TOWNNAME":"歸仁區","LI":"南興里","LIN":"30鄰","STREET":"保興一街","SECT":" ","MAREA":" ","LANE":" ","ALLEY":" ","HOUSE_NO":"５號","E_COORD97":176464.28,"N_COORD97":2541115.25,"ADDRESS":"保興一街５號","OBJECTID":147056},"geometry":{"x":176464.28000000119,"y":2541115.2500000019}},{"attributes":{"ID":147057,"DIS_CODE":0,"TOWNNAME":"歸仁區","LI":"許厝里","LIN":"30鄰","STREET":"大智街","SECT":" ","MAREA":" ","LANE":" ","ALLEY":" ","HOUSE_NO":"２０號","E_COORD97":177915.57000000001,"N_COORD97":2540650.5299999998,"ADDRESS":"大智街２０號","OBJECTID":147057},"geometry":{"x":177915.5700000003,"y":2540650.5300000012}},{"attributes":{"ID":147058,"DIS_CODE":0,"TOWNNAME":"南區","LI":"松安里","LIN":"3鄰","STREET":"灣裡路","SECT":" ","MAREA":" ","LANE":"２８２巷","ALLEY":"６８弄","HOUSE_NO":"４２號","E_COORD97":165909.78,"N_COORD97":2536269.5499999998,"ADDRESS":"灣裡路２８２巷６８弄４２號","OBJECTID":147058},"geometry":{"x":165909.78000000119,"y":2536269.5500000007}},{"attributes":{"ID":147059,"DIS_CODE":0,"TOWNNAME":"南區","LI":"松安里","LIN":"3鄰","STREET":"灣裡路","SECT":" ","MAREA":" ","LANE":"２８２巷","ALLEY":"６８弄","HOUSE_NO":"５２號","E_COORD97":165867.42999999999,"N_COORD97":2536261.6099999999,"ADDRESS":"灣裡路２８２巷６８弄５２號","OBJECTID":147059},"geometry":{"x":165867.43000000156,"y":2536261.6099999994}},{"attributes":{"ID":147060,"DIS_CODE":0,"TOWNNAME":"新化區","LI":"東榮里","LIN":"30鄰","STREET":"信義路","SECT":" ","MAREA":" ","LANE":" ","ALLEY":" ","HOUSE_NO":"１５７號之２４","E_COORD97":179301.41,"N_COORD97":2548373.2599999998,"ADDRESS":"信義路１５７號之２４","OBJECTID":147060},"geometry":{"x":179301.41000000108,"y":2548373.2600000016}},{"attributes":{"ID":147061,"DIS_CODE":0,"TOWNNAME":"南區","LI":"松安里","LIN":"3鄰","STREET":"灣裡路","SECT":" ","MAREA":" ","LANE":"２８２巷","ALLEY":"６８弄","HOUSE_NO":"５２號之１","E_COORD97":165873.98999999999,"N_COORD97":2536258.6299999999,"ADDRESS":"灣裡路２８２巷６８弄５２號之１","OBJECTID":147061},"geometry":{"x":165873.99000000022,"y":2536258.6300000008}},{"attributes":{"ID":147062,"DIS_CODE":0,"TOWNNAME":"南區","LI":"松安里","LIN":"3鄰","STREET":"灣裡路","SECT":" ","MAREA":" ","LANE":"２８２巷","ALLEY":"６８弄","HOUSE_NO":"５４號","E_COORD97":165858.48000000001,"N_COORD97":2536259.6200000001,"ADDRESS":"灣裡路２８２巷６８弄５４號","OBJECTID":147062},"geometry":{"x":165858.48000000045,"y":2536259.620000001}},{"attributes":{"ID":147063,"DIS_CODE":0,"TOWNNAME":"南區","LI":"松安里","LIN":"3鄰","STREET":"灣裡路","SECT":" ","MAREA":" ","LANE":"２８２巷","ALLEY":"６８弄","HOUSE_NO":"５４號之１","E_COORD97":165864.04999999999,"N_COORD97":2536259.2200000002,"ADDRESS":"灣裡路２８２巷６８弄５４號之１","OBJECTID":147063},"geometry":{"x":165864.05000000075,"y":2536259.2200000007}},{"attributes":{"ID":147064,"DIS_CODE":0,"TOWNNAME":"南區","LI":"松安里","LIN":"3鄰","STREET":"灣裡路","SECT":" ","MAREA":" ","LANE":"２８２巷","ALLEY":"８８弄","HOUSE_NO":"１６號","E_COORD97":165947.57000000001,"N_COORD97":2536212.75,"ADDRESS":"灣裡路２８２巷８８弄１６號","OBJECTID":147064},"geometry":{"x":165947.5700000003,"y":2536212.7500000019}},{"attributes":{"ID":147065,"DIS_CODE":0,"TOWNNAME":"南區","LI":"松安里","LIN":"3鄰","STREET":"灣裡路","SECT":" ","MAREA":" ","LANE":"２８２巷","ALLEY":"８８弄","HOUSE_NO":"２２號","E_COORD97":165915.75,"N_COORD97":2536224.4500000002,"ADDRESS":"灣裡路２８２巷８８弄２２號","OBJECTID":147065},"geometry":{"x":165915.75,"y":2536224.4499999993}},{"attributes":{"ID":147066,"DIS_CODE":0,"TOWNNAME":"歸仁區","LI":"許厝里","LIN":"30鄰","STREET":"大智街","SECT":" ","MAREA":" ","LANE":" ","ALLEY":" ","HOUSE_NO":"２８號","E_COORD97":177913.47,"N_COORD97":2540636.5299999998,"ADDRESS":"大智街２８號","OBJECTID":147066},"geometry":{"x":177913.47000000067,"y":2540636.5300000031}},{"attributes":{"ID":147067,"DIS_CODE":0,"TOWNNAME":"歸仁區","LI":"辜厝里","LIN":"30鄰","STREET":"大順三街","SECT":" ","MAREA":" ","LANE":" ","ALLEY":" ","HOUSE_NO":"６６號","E_COORD97":177403.53,"N_COORD97":2540488.9500000002,"ADDRESS":"大順三街６６號","OBJECTID":147067},"geometry":{"x":177403.53000000119,"y":2540488.9500000011}},{"attributes":{"ID":147068,"DIS_CODE":0,"TOWNNAME":"歸仁區","LI":"辜厝里","LIN":"30鄰","STREET":"大順三街","SECT":" ","MAREA":" ","LANE":" ","ALLEY":" ","HOUSE_NO":"７０號","E_COORD97":177406.63,"N_COORD97":2540480.9500000002,"ADDRESS":"大順三街７０號","OBJECTID":147068},"geometry":{"x":177406.62999999989,"y":2540480.950000003}},{"attributes":{"ID":147069,"DIS_CODE":0,"TOWNNAME":"白河區","LI":"虎山里","LIN":" ","STREET":" ","SECT":" ","MAREA":"木屐寮","LANE":" ","ALLEY":" ","HOUSE_NO":"１６號","E_COORD97":193869.16,"N_COORD97":2583130.8799999999,"ADDRESS":"木屐寮１６號","OBJECTID":147069},"geometry":{"x":193869.16000000201,"y":2583130.879999999}},{"attributes":{"ID":147070,"DIS_CODE":0,"TOWNNAME":"白河區","LI":"虎山里","LIN":" ","STREET":" ","SECT":" ","MAREA":"木屐寮","LANE":" ","ALLEY":" ","HOUSE_NO":"１７號","E_COORD97":193889.89000000001,"N_COORD97":2583128.1099999999,"ADDRESS":"木屐寮１７號","OBJECTID":147070},"geometry":{"x":193889.88999999966,"y":2583128.1100000013}},{"attributes":{"ID":147071,"DIS_CODE":0,"TOWNNAME":"白河區","LI":"虎山里","LIN":" ","STREET":" ","SECT":" ","MAREA":"木屐寮","LANE":" ","ALLEY":" ","HOUSE_NO":"１９號","E_COORD97":193889.32999999999,"N_COORD97":2583161.9900000002,"ADDRESS":"木屐寮１９號","OBJECTID":147071},"geometry":{"x":193889.33000000007,"y":2583161.9900000002}},{"attributes":{"ID":147072,"DIS_CODE":0,"TOWNNAME":"白河區","LI":"虎山里","LIN":" ","STREET":" ","SECT":" ","MAREA":"木屐寮","LANE":" ","ALLEY":" ","HOUSE_NO":"２３號","E_COORD97":193914.91,"N_COORD97":2583098.8900000001,"ADDRESS":"木屐寮２３號","OBJECTID":147072},"geometry":{"x":193914.91000000201,"y":2583098.8900000006}},{"attributes":{"ID":147073,"DIS_CODE":0,"TOWNNAME":"白河區","LI":"虎山里","LIN":" ","STREET":" ","SECT":" ","MAREA":"木屐寮","LANE":" ","ALLEY":" ","HOUSE_NO":"２８之５號","E_COORD97":193966.42999999999,"N_COORD97":2583306.3500000001,"ADDRESS":"木屐寮２８之５號","OBJECTID":147073},"geometry":{"x":193966.4299999997,"y":2583306.3500000015}},{"attributes":{"ID":147074,"DIS_CODE":0,"TOWNNAME":"白河區","LI":"虎山里","LIN":" ","STREET":" ","SECT":" ","MAREA":"木屐寮","LANE":" ","ALLEY":" ","HOUSE_NO":"４６之２號","E_COORD97":194246.03,"N_COORD97":2583904.8500000001,"ADDRESS":"木屐寮４６之２號","OBJECTID":147074},"geometry":{"x":194246.03000000026,"y":2583904.8499999996}},{"attributes":{"ID":147075,"DIS_CODE":0,"TOWNNAME":"白河區","LI":"虎山里","LIN":" ","STREET":" ","SECT":" ","MAREA":"木屐寮","LANE":" ","ALLEY":" ","HOUSE_NO":"４９之６號","E_COORD97":194301.04999999999,"N_COORD97":2584008.25,"ADDRESS":"木屐寮４９之６號","OBJECTID":147075},"geometry":{"x":194301.04999999981,"y":2584008.25}},{"attributes":{"ID":147076,"DIS_CODE":0,"TOWNNAME":"白河區","LI":"虎山里","LIN":" ","STREET":" ","SECT":" ","MAREA":"木屐寮","LANE":" ","ALLEY":" ","HOUSE_NO":"７０號","E_COORD97":195260.04999999999,"N_COORD97":2583560.4199999999,"ADDRESS":"木屐寮７０號","OBJECTID":147076},"geometry":{"x":195260.05000000075,"y":2583560.4200000018}},{"attributes":{"ID":147077,"DIS_CODE":0,"TOWNNAME":"白河區","LI":"虎山里","LIN":" ","STREET":" ","SECT":" ","MAREA":"木屐寮","LANE":" ","ALLEY":" ","HOUSE_NO":"９之１號","E_COORD97":193791.17999999999,"N_COORD97":2583037.3300000001,"ADDRESS":"木屐寮９之１號","OBJECTID":147077},"geometry":{"x":193791.18000000063,"y":2583037.3300000001}},{"attributes":{"ID":147078,"DIS_CODE":0,"TOWNNAME":"白河區","LI":"關嶺里","LIN":" ","STREET":" ","SECT":" ","MAREA":"水火洞","LANE":" ","ALLEY":" ","HOUSE_NO":"３號","E_COORD97":197200.95000000001,"N_COORD97":2580044.29,"ADDRESS":"水火洞３號","OBJECTID":147078},"geometry":{"x":197200.95000000019,"y":2580044.2900000028}},{"attributes":{"ID":147079,"DIS_CODE":0,"TOWNNAME":"白河區","LI":"仙草里","LIN":" ","STREET":" ","SECT":" ","MAREA":"火山","LANE":" ","ALLEY":" ","HOUSE_NO":"６號","E_COORD97":196669.32999999999,"N_COORD97":2580702.3900000001,"ADDRESS":"火山６號","OBJECTID":147079},"geometry":{"x":196669.33000000007,"y":2580702.3900000006}},{"attributes":{"ID":147080,"DIS_CODE":0,"TOWNNAME":"歸仁區","LI":"許厝里","LIN":"30鄰","STREET":"大智街","SECT":" ","MAREA":" ","LANE":" ","ALLEY":" ","HOUSE_NO":"１２號","E_COORD97":177917.67000000001,"N_COORD97":2540668.5299999998,"ADDRESS":"大智街１２號","OBJECTID":147080},"geometry":{"x":177917.67000000086,"y":2540668.5300000012}},{"attributes":{"ID":147081,"DIS_CODE":0,"TOWNNAME":"白河區","LI":"仙草里","LIN":" ","STREET":" ","SECT":" ","MAREA":"仙草","LANE":" ","ALLEY":" ","HOUSE_NO":"１０２號","E_COORD97":196778.20999999999,"N_COORD97":2582326.21,"ADDRESS":"仙草１０２號","OBJECTID":147081},"geometry":{"x":196778.21000000089,"y":2582326.2100000028}},{"attributes":{"ID":147082,"DIS_CODE":0,"TOWNNAME":"白河區","LI":"仙草里","LIN":" ","STREET":" ","SECT":" ","MAREA":"仙草","LANE":" ","ALLEY":" ","HOUSE_NO":"１０９號","E_COORD97":196792.69,"N_COORD97":2582284.73,"ADDRESS":"仙草１０９號","OBJECTID":147082},"geometry":{"x":196792.69000000041,"y":2582284.7300000023}},{"attributes":{"ID":147083,"DIS_CODE":0,"TOWNNAME":"白河區","LI":"仙草里","LIN":" ","STREET":" ","SECT":" ","MAREA":"仙草","LANE":" ","ALLEY":" ","HOUSE_NO":"１０號","E_COORD97":196189.39999999999,"N_COORD97":2582705.9399999999,"ADDRESS":"仙草１０號","OBJECTID":147083},"geometry":{"x":196189.40000000037,"y":2582705.9400000013}},{"attributes":{"ID":147084,"DIS_CODE":0,"TOWNNAME":"白河區","LI":"仙草里","LIN":" ","STREET":" ","SECT":" ","MAREA":"仙草","LANE":" ","ALLEY":" ","HOUSE_NO":"１１１號","E_COORD97":196813.73999999999,"N_COORD97":2582285.1699999999,"ADDRESS":"仙草１１１號","OBJECTID":147084},"geometry":{"x":196813.74000000115,"y":2582285.1699999999}},{"attributes":{"ID":147085,"DIS_CODE":0,"TOWNNAME":"白河區","LI":"仙草里","LIN":" ","STREET":" ","SECT":" ","MAREA":"仙草","LANE":" ","ALLEY":" ","HOUSE_NO":"１１２號","E_COORD97":196807.88,"N_COORD97":2582289.1699999999,"ADDRESS":"仙草１１２號","OBJECTID":147085},"geometry":{"x":196807.87999999989,"y":2582289.1699999999}},{"attributes":{"ID":147086,"DIS_CODE":0,"TOWNNAME":"白河區","LI":"仙草里","LIN":" ","STREET":" ","SECT":" ","MAREA":"仙草","LANE":" ","ALLEY":" ","HOUSE_NO":"１１９號","E_COORD97":196812.98000000001,"N_COORD97":2582298.3599999999,"ADDRESS":"仙草１１９號","OBJECTID":147086},"geometry":{"x":196812.98000000045,"y":2582298.3599999975}},{"attributes":{"ID":147087,"DIS_CODE":0,"TOWNNAME":"白河區","LI":"仙草里","LIN":" ","STREET":" ","SECT":" ","MAREA":"仙草","LANE":" ","ALLEY":" ","HOUSE_NO":"１２３號","E_COORD97":196795.23999999999,"N_COORD97":2582310.3599999999,"ADDRESS":"仙草１２３號","OBJECTID":147087},"geometry":{"x":196795.24000000115,"y":2582310.3600000013}},{"attributes":{"ID":147088,"DIS_CODE":0,"TOWNNAME":"白河區","LI":"仙草里","LIN":" ","STREET":" ","SECT":" ","MAREA":"仙草","LANE":" ","ALLEY":" ","HOUSE_NO":"１３５號","E_COORD97":196797.59,"N_COORD97":2582264.79,"ADDRESS":"仙草１３５號","OBJECTID":147088},"geometry":{"x":196797.59000000078,"y":2582264.7900000028}},{"attributes":{"ID":147089,"DIS_CODE":0,"TOWNNAME":"南區","LI":"松安里","LIN":"3鄰","STREET":"灣裡路","SECT":" ","MAREA":" ","LANE":"２８２巷","ALLEY":"８８弄","HOUSE_NO":"２２號之１","E_COORD97":165920.12,"N_COORD97":2536222.27,"ADDRESS":"灣裡路２８２巷８８弄２２號之１","OBJECTID":147089},"geometry":{"x":165920.12000000011,"y":2536222.2700000014}},{"attributes":{"ID":147090,"DIS_CODE":0,"TOWNNAME":"南區","LI":"松安里","LIN":"3鄰","STREET":"灣裡路","SECT":" ","MAREA":" ","LANE":"２８２巷","ALLEY":"８８弄","HOUSE_NO":"２４號","E_COORD97":165905.20999999999,"N_COORD97":2536221.8700000001,"ADDRESS":"灣裡路２８２巷８８弄２４號","OBJECTID":147090},"geometry":{"x":165905.21000000089,"y":2536221.8700000029}},{"attributes":{"ID":147091,"DIS_CODE":0,"TOWNNAME":"安平區","LI":"文平里","LIN":"3鄰","STREET":"中華西路","SECT":"二段","MAREA":" ","LANE":"４９巷","ALLEY":"２４弄","HOUSE_NO":"３８號","E_COORD97":166563.73000000001,"N_COORD97":2543092.23,"ADDRESS":"中華西路二段４９巷２４弄３８號","OBJECTID":147091},"geometry":{"x":166563.73000000045,"y":2543092.2300000023}},{"attributes":{"ID":147092,"DIS_CODE":0,"TOWNNAME":"安平區","LI":"文平里","LIN":"3鄰","STREET":"中華西路","SECT":"二段","MAREA":" ","LANE":"４９巷","ALLEY":"２４弄","HOUSE_NO":"４４號","E_COORD97":166566.73000000001,"N_COORD97":2543112.5099999998,"ADDRESS":"中華西路二段４９巷２４弄４４號","OBJECTID":147092},"geometry":{"x":166566.73000000138,"y":2543112.5100000016}},{"attributes":{"ID":147093,"DIS_CODE":0,"TOWNNAME":"白河區","LI":"仙草里","LIN":" ","STREET":" ","SECT":" ","MAREA":"仙草","LANE":" ","ALLEY":" ","HOUSE_NO":"１３７號","E_COORD97":196819.69,"N_COORD97":2582259.9199999999,"ADDRESS":"仙草１３７號","OBJECTID":147093},"geometry":{"x":196819.69000000041,"y":2582259.9199999999}},{"attributes":{"ID":147094,"DIS_CODE":0,"TOWNNAME":"安平區","LI":"文平里","LIN":"3鄰","STREET":"中華西路","SECT":"二段","MAREA":" ","LANE":"４９巷","ALLEY":"２４弄","HOUSE_NO":"４８號","E_COORD97":166568.87,"N_COORD97":2543126.9900000002,"ADDRESS":"中華西路二段４９巷２４弄４８號","OBJECTID":147094},"geometry":{"x":166568.87000000104,"y":2543126.9900000021}},{"attributes":{"ID":147095,"DIS_CODE":0,"TOWNNAME":"安平區","LI":"國平里","LIN":"3鄰","STREET":"建平五街","SECT":" ","MAREA":" ","LANE":"１８４巷","ALLEY":"１５弄","HOUSE_NO":"１１號","E_COORD97":165556.47,"N_COORD97":2543224.9700000002,"ADDRESS":"建平五街１８４巷１５弄１１號","OBJECTID":147095},"geometry":{"x":165556.46999999974,"y":2543224.9700000044}},{"attributes":{"ID":147096,"DIS_CODE":0,"TOWNNAME":"安平區","LI":"國平里","LIN":"3鄰","STREET":"建平五街","SECT":" ","MAREA":" ","LANE":"１８４巷","ALLEY":"１５弄","HOUSE_NO":"１３號","E_COORD97":165550.54999999999,"N_COORD97":2543225.46,"ADDRESS":"建平五街１８４巷１５弄１３號","OBJECTID":147096},"geometry":{"x":165550.54999999981,"y":2543225.4600000046}},{"attributes":{"ID":147097,"DIS_CODE":0,"TOWNNAME":"白河區","LI":"仙草里","LIN":" ","STREET":" ","SECT":" ","MAREA":"仙草","LANE":" ","ALLEY":" ","HOUSE_NO":"１３９號","E_COORD97":196819.64999999999,"N_COORD97":2582267.0600000001,"ADDRESS":"仙草１３９號","OBJECTID":147097},"geometry":{"x":196819.6500000013,"y":2582267.0600000005}},{"attributes":{"ID":147098,"DIS_CODE":0,"TOWNNAME":"安平區","LI":"國平里","LIN":"3鄰","STREET":"建平五街","SECT":" ","MAREA":" ","LANE":"１８４巷","ALLEY":"１５弄","HOUSE_NO":"１５號","E_COORD97":165546.28,"N_COORD97":2543225.9500000002,"ADDRESS":"建平五街１８４巷１５弄１５號","OBJECTID":147098},"geometry":{"x":165546.28000000026,"y":2543225.9499999993}},{"attributes":{"ID":147099,"DIS_CODE":0,"TOWNNAME":"白河區","LI":"仙草里","LIN":" ","STREET":" ","SECT":" ","MAREA":"仙草","LANE":" ","ALLEY":" ","HOUSE_NO":"１４７號","E_COORD97":196850.23000000001,"N_COORD97":2582268.8599999999,"ADDRESS":"仙草１４７號","OBJECTID":147099},"geometry":{"x":196850.23000000045,"y":2582268.8600000013}},{"attributes":{"ID":147100,"DIS_CODE":0,"TOWNNAME":"北區","LI":"正風里","LIN":"3鄰","STREET":"公園路","SECT":" ","MAREA":" ","LANE":"９１８巷","ALLEY":"１０弄","HOUSE_NO":"１號","E_COORD97":169445.82999999999,"N_COORD97":2546152.21,"ADDRESS":"公園路９１８巷１０弄１號","OBJECTID":147100},"geometry":{"x":169445.83000000101,"y":2546152.2100000009}},{"attributes":{"ID":147101,"DIS_CODE":0,"TOWNNAME":"白河區","LI":"仙草里","LIN":" ","STREET":" ","SECT":" ","MAREA":"仙草","LANE":" ","ALLEY":" ","HOUSE_NO":"１４９號","E_COORD97":196852.95999999999,"N_COORD97":2582253.5,"ADDRESS":"仙草１４９號","OBJECTID":147101},"geometry":{"x":196852.95999999996,"y":2582253.5}},{"attributes":{"ID":147102,"DIS_CODE":0,"TOWNNAME":"北區","LI":"正風里","LIN":"3鄰","STREET":"公園路","SECT":" ","MAREA":" ","LANE":"９１８巷","ALLEY":"１０弄","HOUSE_NO":"３號","E_COORD97":169449.63,"N_COORD97":2546130.9900000002,"ADDRESS":"公園路９１８巷１０弄３號","OBJECTID":147102},"geometry":{"x":169449.62999999989,"y":2546130.9900000021}},{"attributes":{"ID":147103,"DIS_CODE":0,"TOWNNAME":"北區","LI":"正風里","LIN":"3鄰","STREET":"公園路","SECT":" ","MAREA":" ","LANE":"９１８巷","ALLEY":"１０弄","HOUSE_NO":"５號","E_COORD97":169448.20999999999,"N_COORD97":2546126.4700000002,"ADDRESS":"公園路９１８巷１０弄５號","OBJECTID":147103},"geometry":{"x":169448.21000000089,"y":2546126.4700000007}},{"attributes":{"ID":147104,"DIS_CODE":0,"TOWNNAME":"北區","LI":"正風里","LIN":"3鄰","STREET":"公園路","SECT":" ","MAREA":" ","LANE":"９１８巷","ALLEY":"１０弄","HOUSE_NO":"７號","E_COORD97":169449.79999999999,"N_COORD97":2546121.4300000002,"ADDRESS":"公園路９１８巷１０弄７號","OBJECTID":147104},"geometry":{"x":169449.79999999981,"y":2546121.4299999997}},{"attributes":{"ID":147105,"DIS_CODE":0,"TOWNNAME":"白河區","LI":"仙草里","LIN":" ","STREET":" ","SECT":" ","MAREA":"仙草","LANE":" ","ALLEY":" ","HOUSE_NO":"１５５號","E_COORD97":196841.01999999999,"N_COORD97":2582274.7400000002,"ADDRESS":"仙草１５５號","OBJECTID":147105},"geometry":{"x":196841.02000000142,"y":2582274.7400000021}},{"attributes":{"ID":147106,"DIS_CODE":0,"TOWNNAME":"北區","LI":"正風里","LIN":"3鄰","STREET":"公園路","SECT":" ","MAREA":" ","LANE":"９１８巷","ALLEY":"１０弄","HOUSE_NO":"２１號","E_COORD97":169435.42999999999,"N_COORD97":2546077.0699999998,"ADDRESS":"公園路９１８巷１０弄２１號","OBJECTID":147106},"geometry":{"x":169435.4299999997,"y":2546077.0700000003}},{"attributes":{"ID":147107,"DIS_CODE":0,"TOWNNAME":"白河區","LI":"仙草里","LIN":" ","STREET":" ","SECT":" ","MAREA":"仙草","LANE":" ","ALLEY":" ","HOUSE_NO":"１５６之１號","E_COORD97":196824.60999999999,"N_COORD97":2582244.54,"ADDRESS":"仙草１５６之１號","OBJECTID":147107},"geometry":{"x":196824.61000000127,"y":2582244.5399999991}},{"attributes":{"ID":147108,"DIS_CODE":0,"TOWNNAME":"北區","LI":"正風里","LIN":"3鄰","STREET":"公園路","SECT":" ","MAREA":" ","LANE":"９１８巷","ALLEY":"１０弄","HOUSE_NO":"２３號","E_COORD97":169433.20999999999,"N_COORD97":2546072.0099999998,"ADDRESS":"公園路９１８巷１０弄２３號","OBJECTID":147108},"geometry":{"x":169433.21000000089,"y":2546072.0100000016}},{"attributes":{"ID":147109,"DIS_CODE":0,"TOWNNAME":"白河區","LI":"仙草里","LIN":" ","STREET":" ","SECT":" ","MAREA":"仙草","LANE":" ","ALLEY":" ","HOUSE_NO":"１６５之３號","E_COORD97":196788.16,"N_COORD97":2582271.71,"ADDRESS":"仙草１６５之３號","OBJECTID":147109},"geometry":{"x":196788.16000000201,"y":2582271.7100000028}},{"attributes":{"ID":147110,"DIS_CODE":0,"TOWNNAME":"白河區","LI":"仙草里","LIN":" ","STREET":" ","SECT":" ","MAREA":"仙草","LANE":" ","ALLEY":" ","HOUSE_NO":"１６６號","E_COORD97":196783.01999999999,"N_COORD97":2582271.3999999999,"ADDRESS":"仙草１６６號","OBJECTID":147110},"geometry":{"x":196783.01999999955,"y":2582271.4000000004}},{"attributes":{"ID":147111,"DIS_CODE":0,"TOWNNAME":"白河區","LI":"仙草里","LIN":" ","STREET":" ","SECT":" ","MAREA":"仙草","LANE":" ","ALLEY":" ","HOUSE_NO":"１６之１９號","E_COORD97":196219.07000000001,"N_COORD97":2582780.8599999999,"ADDRESS":"仙草１６之１９號","OBJECTID":147111},"geometry":{"x":196219.0700000003,"y":2582780.8600000013}},{"attributes":{"ID":147112,"DIS_CODE":0,"TOWNNAME":"白河區","LI":"仙草里","LIN":" ","STREET":" ","SECT":" ","MAREA":"仙草","LANE":" ","ALLEY":" ","HOUSE_NO":"１７６號","E_COORD97":196777.13,"N_COORD97":2582251.25,"ADDRESS":"仙草１７６號","OBJECTID":147112},"geometry":{"x":196777.12999999989,"y":2582251.25}},{"attributes":{"ID":147113,"DIS_CODE":0,"TOWNNAME":"白河區","LI":"仙草里","LIN":" ","STREET":" ","SECT":" ","MAREA":"仙草","LANE":" ","ALLEY":" ","HOUSE_NO":"１７７號","E_COORD97":196767.31,"N_COORD97":2582256.3799999999,"ADDRESS":"仙草１７７號","OBJECTID":147113},"geometry":{"x":196767.30999999959,"y":2582256.379999999}},{"attributes":{"ID":147114,"DIS_CODE":0,"TOWNNAME":"白河區","LI":"仙草里","LIN":" ","STREET":" ","SECT":" ","MAREA":"仙草","LANE":" ","ALLEY":" ","HOUSE_NO":"１８１號","E_COORD97":196772.79000000001,"N_COORD97":2582241.1000000001,"ADDRESS":"仙草１８１號","OBJECTID":147114},"geometry":{"x":196772.79000000004,"y":2582241.1000000015}},{"attributes":{"ID":147115,"DIS_CODE":0,"TOWNNAME":"白河區","LI":"仙草里","LIN":" ","STREET":" ","SECT":" ","MAREA":"仙草","LANE":" ","ALLEY":" ","HOUSE_NO":"１之１號","E_COORD97":196001.69,"N_COORD97":2583666.5099999998,"ADDRESS":"仙草１之１號","OBJECTID":147115},"geometry":{"x":196001.69000000227,"y":2583666.5099999998}},{"attributes":{"ID":147116,"DIS_CODE":0,"TOWNNAME":"白河區","LI":"仙草里","LIN":" ","STREET":" ","SECT":" ","MAREA":"仙草","LANE":" ","ALLEY":" ","HOUSE_NO":"２０之２號","E_COORD97":196208.59,"N_COORD97":2582621.0299999998,"ADDRESS":"仙草２０之２號","OBJECTID":147116},"geometry":{"x":196208.59000000171,"y":2582621.0300000012}},{"attributes":{"ID":147117,"DIS_CODE":0,"TOWNNAME":"白河區","LI":"仙草里","LIN":" ","STREET":" ","SECT":" ","MAREA":"仙草","LANE":" ","ALLEY":" ","HOUSE_NO":"２０之３號","E_COORD97":196200.54999999999,"N_COORD97":2582628.0899999999,"ADDRESS":"仙草２０之３號","OBJECTID":147117},"geometry":{"x":196200.55000000075,"y":2582628.0899999999}},{"attributes":{"ID":147118,"DIS_CODE":0,"TOWNNAME":"白河區","LI":"仙草里","LIN":" ","STREET":" ","SECT":" ","MAREA":"仙草","LANE":" ","ALLEY":" ","HOUSE_NO":"２１之２號","E_COORD97":196246.63,"N_COORD97":2582587.9399999999,"ADDRESS":"仙草２１之２號","OBJECTID":147118},"geometry":{"x":196246.62999999989,"y":2582587.9400000013}},{"attributes":{"ID":147119,"DIS_CODE":0,"TOWNNAME":"白河區","LI":"仙草里","LIN":" ","STREET":" ","SECT":" ","MAREA":"仙草","LANE":" ","ALLEY":" ","HOUSE_NO":"２２２號","E_COORD97":196952.69,"N_COORD97":2582392.8300000001,"ADDRESS":"仙草２２２號","OBJECTID":147119},"geometry":{"x":196952.69000000227,"y":2582392.8300000001}},{"attributes":{"ID":147120,"DIS_CODE":0,"TOWNNAME":"白河區","LI":"仙草里","LIN":" ","STREET":" ","SECT":" ","MAREA":"仙草","LANE":" ","ALLEY":" ","HOUSE_NO":"２４之１２號","E_COORD97":196325.98999999999,"N_COORD97":2582533.7799999998,"ADDRESS":"仙草２４之１２號","OBJECTID":147120},"geometry":{"x":196325.99000000022,"y":2582533.7800000012}},{"attributes":{"ID":147121,"DIS_CODE":0,"TOWNNAME":"白河區","LI":"仙草里","LIN":" ","STREET":" ","SECT":" ","MAREA":"仙草","LANE":" ","ALLEY":" ","HOUSE_NO":"２４之１３號","E_COORD97":196329.09,"N_COORD97":2582531.9700000002,"ADDRESS":"仙草２４之１３號","OBJECTID":147121},"geometry":{"x":196329.09000000078,"y":2582531.9700000007}},{"attributes":{"ID":147122,"DIS_CODE":0,"TOWNNAME":"白河區","LI":"仙草里","LIN":" ","STREET":" ","SECT":" ","MAREA":"仙草","LANE":" ","ALLEY":" ","HOUSE_NO":"２４之７號","E_COORD97":196292.56,"N_COORD97":2582552.8999999999,"ADDRESS":"仙草２４之７號","OBJECTID":147122},"geometry":{"x":196292.55999999959,"y":2582552.9000000004}},{"attributes":{"ID":147123,"DIS_CODE":0,"TOWNNAME":"白河區","LI":"仙草里","LIN":" ","STREET":" ","SECT":" ","MAREA":"仙草","LANE":" ","ALLEY":" ","HOUSE_NO":"２７之１號","E_COORD97":196296.07999999999,"N_COORD97":2582514.9700000002,"ADDRESS":"仙草２７之１號","OBJECTID":147123},"geometry":{"x":196296.08000000101,"y":2582514.9700000007}},{"attributes":{"ID":147124,"DIS_CODE":0,"TOWNNAME":"白河區","LI":"仙草里","LIN":" ","STREET":" ","SECT":" ","MAREA":"仙草","LANE":" ","ALLEY":" ","HOUSE_NO":"２７之２號","E_COORD97":196296.54999999999,"N_COORD97":2582511.3599999999,"ADDRESS":"仙草２７之２號","OBJECTID":147124},"geometry":{"x":196296.54999999981,"y":2582511.3599999994}},{"attributes":{"ID":147125,"DIS_CODE":0,"TOWNNAME":"白河區","LI":"仙草里","LIN":" ","STREET":" ","SECT":" ","MAREA":"仙草","LANE":" ","ALLEY":" ","HOUSE_NO":"３６之２號","E_COORD97":196274.41,"N_COORD97":2582435.7799999998,"ADDRESS":"仙草３６之２號","OBJECTID":147125},"geometry":{"x":196274.40999999922,"y":2582435.7800000012}},{"attributes":{"ID":147126,"DIS_CODE":0,"TOWNNAME":"白河區","LI":"仙草里","LIN":" ","STREET":" ","SECT":" ","MAREA":"仙草","LANE":" ","ALLEY":" ","HOUSE_NO":"３６之３號","E_COORD97":196274.22,"N_COORD97":2582431.1499999999,"ADDRESS":"仙草３６之３號","OBJECTID":147126},"geometry":{"x":196274.22000000067,"y":2582431.1500000022}},{"attributes":{"ID":147127,"DIS_CODE":0,"TOWNNAME":"新化區","LI":"東榮里","LIN":"30鄰","STREET":"信義路","SECT":" ","MAREA":" ","LANE":" ","ALLEY":" ","HOUSE_NO":"１５７號之２９","E_COORD97":179307.72,"N_COORD97":2548344.2599999998,"ADDRESS":"信義路１５７號之２９","OBJECTID":147127},"geometry":{"x":179307.71999999974,"y":2548344.2599999998}},{"attributes":{"ID":147128,"DIS_CODE":0,"TOWNNAME":"白河區","LI":"仙草里","LIN":" ","STREET":" ","SECT":" ","MAREA":"仙草","LANE":" ","ALLEY":" ","HOUSE_NO":"４０之３號","E_COORD97":196274.92999999999,"N_COORD97":2582393.8100000001,"ADDRESS":"仙草４０之３號","OBJECTID":147128},"geometry":{"x":196274.9299999997,"y":2582393.8100000005}},{"attributes":{"ID":147129,"DIS_CODE":0,"TOWNNAME":"白河區","LI":"仙草里","LIN":" ","STREET":" ","SECT":" ","MAREA":"仙草","LANE":" ","ALLEY":" ","HOUSE_NO":"４０號","E_COORD97":196271.64999999999,"N_COORD97":2582411.3100000001,"ADDRESS":"仙草４０號","OBJECTID":147129},"geometry":{"x":196271.6500000013,"y":2582411.3100000005}},{"attributes":{"ID":147130,"DIS_CODE":0,"TOWNNAME":"白河區","LI":"仙草里","LIN":" ","STREET":" ","SECT":" ","MAREA":"仙草","LANE":" ","ALLEY":" ","HOUSE_NO":"４３之３號","E_COORD97":196270.01000000001,"N_COORD97":2582371.6400000001,"ADDRESS":"仙草４３之３號","OBJECTID":147130},"geometry":{"x":196270.01000000164,"y":2582371.6400000006}},{"attributes":{"ID":147131,"DIS_CODE":0,"TOWNNAME":"白河區","LI":"仙草里","LIN":" ","STREET":" ","SECT":" ","MAREA":"仙草","LANE":" ","ALLEY":" ","HOUSE_NO":"４５之１號","E_COORD97":196269.48999999999,"N_COORD97":2582330.3100000001,"ADDRESS":"仙草４５之１號","OBJECTID":147131},"geometry":{"x":196269.49000000115,"y":2582330.3100000005}},{"attributes":{"ID":147132,"DIS_CODE":0,"TOWNNAME":"白河區","LI":"仙草里","LIN":" ","STREET":" ","SECT":" ","MAREA":"仙草","LANE":" ","ALLEY":" ","HOUSE_NO":"４５之２號","E_COORD97":196268.59,"N_COORD97":2582326.6000000001,"ADDRESS":"仙草４５之２號","OBJECTID":147132},"geometry":{"x":196268.59000000078,"y":2582326.5999999996}},{"attributes":{"ID":147133,"DIS_CODE":0,"TOWNNAME":"白河區","LI":"仙草里","LIN":" ","STREET":" ","SECT":" ","MAREA":"仙草","LANE":" ","ALLEY":" ","HOUSE_NO":"４６之１號","E_COORD97":196190.73000000001,"N_COORD97":2582197.1600000001,"ADDRESS":"仙草４６之１號","OBJECTID":147133},"geometry":{"x":196190.73000000045,"y":2582197.160000002}},{"attributes":{"ID":147134,"DIS_CODE":0,"TOWNNAME":"北區","LI":"正風里","LIN":"3鄰","STREET":"公園路","SECT":" ","MAREA":" ","LANE":"９１８巷","ALLEY":"１０弄","HOUSE_NO":"２５號","E_COORD97":169431.88,"N_COORD97":2546067.4900000002,"ADDRESS":"公園路９１８巷１０弄２５號","OBJECTID":147134},"geometry":{"x":169431.88000000082,"y":2546067.4900000002}},{"attributes":{"ID":147135,"DIS_CODE":0,"TOWNNAME":"北區","LI":"正風里","LIN":"3鄰","STREET":"公園路","SECT":" ","MAREA":" ","LANE":"９１８巷","ALLEY":"１０弄","HOUSE_NO":"２９號","E_COORD97":169429.67000000001,"N_COORD97":2546062.1800000002,"ADDRESS":"公園路９１８巷１０弄２９號","OBJECTID":147135},"geometry":{"x":169429.67000000086,"y":2546062.1799999997}},{"attributes":{"ID":147136,"DIS_CODE":0,"TOWNNAME":"北區","LI":"國姓里","LIN":"3鄰","STREET":"公園路","SECT":" ","MAREA":" ","LANE":"４３３巷","ALLEY":"３０弄","HOUSE_NO":"１４號","E_COORD97":168926.69,"N_COORD97":2545449.8599999999,"ADDRESS":"公園路４３３巷３０弄１４號","OBJECTID":147136},"geometry":{"x":168926.69000000134,"y":2545449.8600000013}},{"attributes":{"ID":147137,"DIS_CODE":0,"TOWNNAME":"北區","LI":"國姓里","LIN":"3鄰","STREET":"公園路","SECT":" ","MAREA":" ","LANE":"４３３巷","ALLEY":"３０弄","HOUSE_NO":"１２號","E_COORD97":168927.51999999999,"N_COORD97":2545446.8100000001,"ADDRESS":"公園路４３３巷３０弄１２號","OBJECTID":147137},"geometry":{"x":168927.51999999955,"y":2545446.8100000042}},{"attributes":{"ID":147138,"DIS_CODE":0,"TOWNNAME":"北區","LI":"國姓里","LIN":"3鄰","STREET":"公園路","SECT":" ","MAREA":" ","LANE":"４３３巷","ALLEY":"３０弄","HOUSE_NO":"１０號","E_COORD97":168927.23999999999,"N_COORD97":2545443.21,"ADDRESS":"公園路４３３巷３０弄１０號","OBJECTID":147138},"geometry":{"x":168927.24000000209,"y":2545443.2100000009}},{"attributes":{"ID":147139,"DIS_CODE":0,"TOWNNAME":"北區","LI":"國姓里","LIN":"3鄰","STREET":"公園路","SECT":" ","MAREA":" ","LANE":"４３３巷","ALLEY":"３０弄","HOUSE_NO":"８號","E_COORD97":168927.23999999999,"N_COORD97":2545438.77,"ADDRESS":"公園路４３３巷３０弄８號","OBJECTID":147139},"geometry":{"x":168927.24000000209,"y":2545438.7699999996}},{"attributes":{"ID":147140,"DIS_CODE":0,"TOWNNAME":"北區","LI":"國姓里","LIN":"3鄰","STREET":"公園路","SECT":" ","MAREA":" ","LANE":"４３３巷","ALLEY":"３０弄","HOUSE_NO":"２１號","E_COORD97":168908.09,"N_COORD97":2545444.3900000001,"ADDRESS":"公園路４３３巷３０弄２１號","OBJECTID":147140},"geometry":{"x":168908.09000000078,"y":2545444.3900000025}},{"attributes":{"ID":147141,"DIS_CODE":0,"TOWNNAME":"北區","LI":"國姓里","LIN":"3鄰","STREET":"公園路","SECT":" ","MAREA":" ","LANE":"４３３巷","ALLEY":"３０弄","HOUSE_NO":"１９號","E_COORD97":168908.60000000001,"N_COORD97":2545439.5899999999,"ADDRESS":"公園路４３３巷３０弄１９號","OBJECTID":147141},"geometry":{"x":168908.59999999963,"y":2545439.5899999999}},{"attributes":{"ID":147142,"DIS_CODE":0,"TOWNNAME":"北區","LI":"國姓里","LIN":"3鄰","STREET":"公園路","SECT":" ","MAREA":" ","LANE":"４３３巷","ALLEY":"３０弄","HOUSE_NO":"１７號","E_COORD97":168908.60000000001,"N_COORD97":2545435.0499999998,"ADDRESS":"公園路４３３巷３０弄１７號","OBJECTID":147142},"geometry":{"x":168908.59999999963,"y":2545435.0500000045}},{"attributes":{"ID":147143,"DIS_CODE":0,"TOWNNAME":"新化區","LI":"東榮里","LIN":"30鄰","STREET":"護安街","SECT":" ","MAREA":" ","LANE":" ","ALLEY":" ","HOUSE_NO":"２８號","E_COORD97":179236.78,"N_COORD97":2548302.2599999998,"ADDRESS":"護安街２８號","OBJECTID":147143},"geometry":{"x":179236.78000000026,"y":2548302.2600000016}},{"attributes":{"ID":147144,"DIS_CODE":0,"TOWNNAME":"白河區","LI":"仙草里","LIN":" ","STREET":" ","SECT":" ","MAREA":"仙草","LANE":" ","ALLEY":" ","HOUSE_NO":"４之１２號","E_COORD97":196371.41,"N_COORD97":2583261.75,"ADDRESS":"仙草４之１２號","OBJECTID":147144},"geometry":{"x":196371.41000000108,"y":2583261.75}},{"attributes":{"ID":147145,"DIS_CODE":0,"TOWNNAME":"白河區","LI":"仙草里","LIN":" ","STREET":" ","SECT":" ","MAREA":"仙草","LANE":" ","ALLEY":" ","HOUSE_NO":"４之１３號","E_COORD97":196356.53,"N_COORD97":2583264.8399999999,"ADDRESS":"仙草４之１３號","OBJECTID":147145},"geometry":{"x":196356.53000000026,"y":2583264.8399999999}},{"attributes":{"ID":147146,"DIS_CODE":0,"TOWNNAME":"白河區","LI":"仙草里","LIN":" ","STREET":" ","SECT":" ","MAREA":"仙草","LANE":" ","ALLEY":" ","HOUSE_NO":"６０之４號","E_COORD97":196374.42999999999,"N_COORD97":2582461.2799999998,"ADDRESS":"仙草６０之４號","OBJECTID":147146},"geometry":{"x":196374.43000000063,"y":2582461.2799999993}},{"attributes":{"ID":147147,"DIS_CODE":0,"TOWNNAME":"北區","LI":"國姓里","LIN":"3鄰","STREET":"公園路","SECT":" ","MAREA":" ","LANE":"４３３巷","ALLEY":"３０弄","HOUSE_NO":"１５號","E_COORD97":168908.09,"N_COORD97":2545431.0099999998,"ADDRESS":"公園路４３３巷３０弄１５號","OBJECTID":147147},"geometry":{"x":168908.09000000078,"y":2545431.0100000035}},{"attributes":{"ID":147148,"DIS_CODE":0,"TOWNNAME":"北區","LI":"國姓里","LIN":"3鄰","STREET":"公園路","SECT":" ","MAREA":" ","LANE":"４３３巷","ALLEY":"３０弄","HOUSE_NO":"１３號","E_COORD97":168907.84,"N_COORD97":2545427.73,"ADDRESS":"公園路４３３巷３０弄１３號","OBJECTID":147148},"geometry":{"x":168907.84000000078,"y":2545427.7300000023}},{"attributes":{"ID":147149,"DIS_CODE":0,"TOWNNAME":"北區","LI":"國姓里","LIN":"3鄰","STREET":"公園路","SECT":" ","MAREA":" ","LANE":"４３３巷","ALLEY":"３０弄","HOUSE_NO":"１１號","E_COORD97":168907.73000000001,"N_COORD97":2545424.4300000002,"ADDRESS":"公園路４３３巷３０弄１１號","OBJECTID":147149},"geometry":{"x":168907.73000000138,"y":2545424.4299999978}},{"attributes":{"ID":147150,"DIS_CODE":0,"TOWNNAME":"北區","LI":"國姓里","LIN":"3鄰","STREET":"公園路","SECT":" ","MAREA":" ","LANE":"４３３巷","ALLEY":"３０弄","HOUSE_NO":"９號","E_COORD97":168906.62,"N_COORD97":2545419.9900000002,"ADDRESS":"公園路４３３巷３０弄９號","OBJECTID":147150},"geometry":{"x":168906.62000000104,"y":2545419.9900000002}},{"attributes":{"ID":147151,"DIS_CODE":0,"TOWNNAME":"北區","LI":"國姓里","LIN":"3鄰","STREET":"公園路","SECT":" ","MAREA":" ","LANE":"４３３巷","ALLEY":"３０弄","HOUSE_NO":"７號","E_COORD97":168905.23000000001,"N_COORD97":2545414.73,"ADDRESS":"公園路４３３巷３０弄７號","OBJECTID":147151},"geometry":{"x":168905.23000000045,"y":2545414.7300000023}},{"attributes":{"ID":147152,"DIS_CODE":0,"TOWNNAME":"北區","LI":"國姓里","LIN":"3鄰","STREET":"公園路","SECT":" ","MAREA":" ","LANE":"４３３巷","ALLEY":"３０弄","HOUSE_NO":"５號","E_COORD97":168904.39999999999,"N_COORD97":2545409.7400000002,"ADDRESS":"公園路４３３巷３０弄５號","OBJECTID":147152},"geometry":{"x":168904.40000000224,"y":2545409.7400000039}},{"attributes":{"ID":147153,"DIS_CODE":0,"TOWNNAME":"白河區","LI":"仙草里","LIN":" ","STREET":" ","SECT":" ","MAREA":"仙草","LANE":" ","ALLEY":" ","HOUSE_NO":"６０之７號","E_COORD97":196370.85999999999,"N_COORD97":2582454.5699999998,"ADDRESS":"仙草６０之７號","OBJECTID":147153},"geometry":{"x":196370.86000000034,"y":2582454.5700000022}},{"attributes":{"ID":147154,"DIS_CODE":0,"TOWNNAME":"北區","LI":"國姓里","LIN":"3鄰","STREET":"公園路","SECT":" ","MAREA":" ","LANE":"４３３巷","ALLEY":"３０弄","HOUSE_NO":"３號","E_COORD97":168903.01000000001,"N_COORD97":2545405.8599999999,"ADDRESS":"公園路４３３巷３０弄３號","OBJECTID":147154},"geometry":{"x":168903.01000000164,"y":2545405.8600000013}},{"attributes":{"ID":147155,"DIS_CODE":0,"TOWNNAME":"北區","LI":"國姓里","LIN":"3鄰","STREET":"公園路","SECT":" ","MAREA":" ","LANE":"４３３巷","ALLEY":"３０弄","HOUSE_NO":"１號","E_COORD97":168902.45000000001,"N_COORD97":2545400.8799999999,"ADDRESS":"公園路４３３巷３０弄１號","OBJECTID":147155},"geometry":{"x":168902.45000000112,"y":2545400.8800000008}},{"attributes":{"ID":147156,"DIS_CODE":0,"TOWNNAME":"新市區","LI":"港墘里","LIN":"1鄰","STREET":"大同街","SECT":" ","MAREA":" ","LANE":"２９巷","ALLEY":"１弄","HOUSE_NO":"５號","E_COORD97":178475.37,"N_COORD97":2553576.5,"ADDRESS":"大同街２９巷１弄５號","OBJECTID":147156},"geometry":{"x":178475.37000000197,"y":2553576.5000000019}},{"attributes":{"ID":147157,"DIS_CODE":0,"TOWNNAME":"新市區","LI":"新和里","LIN":"33鄰","STREET":"忠孝街","SECT":" ","MAREA":" ","LANE":"２０１巷","ALLEY":"２弄","HOUSE_NO":"１４號","E_COORD97":177689.17999999999,"N_COORD97":2552885.5,"ADDRESS":"忠孝街２０１巷２弄１４號","OBJECTID":147157},"geometry":{"x":177689.1799999997,"y":2552885.5}},{"attributes":{"ID":147158,"DIS_CODE":0,"TOWNNAME":"新市區","LI":"港墘里","LIN":"16鄰","STREET":"長安街","SECT":" ","MAREA":" ","LANE":"３６巷","ALLEY":"９弄","HOUSE_NO":"３４號","E_COORD97":178196.95999999999,"N_COORD97":2552708.0699999998,"ADDRESS":"長安街３６巷９弄３４號","OBJECTID":147158},"geometry":{"x":178196.96000000089,"y":2552708.0700000022}},{"attributes":{"ID":147159,"DIS_CODE":0,"TOWNNAME":"永康區","LI":"北灣里","LIN":"14鄰","STREET":"大灣路","SECT":" ","MAREA":" ","LANE":"４４巷","ALLEY":"４２弄","HOUSE_NO":"３號","E_COORD97":175107.22,"N_COORD97":2545910.04,"ADDRESS":"大灣路４４巷４２弄３號","OBJECTID":147159},"geometry":{"x":175107.21999999974,"y":2545910.0399999991}},{"attributes":{"ID":147160,"DIS_CODE":0,"TOWNNAME":"永康區","LI":"王行里","LIN":"12鄰","STREET":"王行路","SECT":" ","MAREA":" ","LANE":"８６６巷","ALLEY":"２９弄","HOUSE_NO":"５６號","E_COORD97":176059.25,"N_COORD97":2549997.4900000002,"ADDRESS":"王行路８６６巷２９弄５６號","OBJECTID":147160},"geometry":{"x":176059.25000000093,"y":2549997.4900000002}},{"attributes":{"ID":147161,"DIS_CODE":0,"TOWNNAME":"永康區","LI":"正強里","LIN":"15鄰","STREET":"中山南路","SECT":" ","MAREA":" ","LANE":"４７１巷","ALLEY":"８１弄","HOUSE_NO":"８０號","E_COORD97":173301.19,"N_COORD97":2547275.25,"ADDRESS":"中山南路４７１巷８１弄８０號","OBJECTID":147161},"geometry":{"x":173301.19000000041,"y":2547275.2500000019}},{"attributes":{"ID":147162,"DIS_CODE":0,"TOWNNAME":"永康區","LI":"正強里","LIN":"25鄰","STREET":"中正路","SECT":" ","MAREA":" ","LANE":"１２７巷","ALLEY":"２４弄","HOUSE_NO":"８號","E_COORD97":173350.16,"N_COORD97":2547800.5,"ADDRESS":"中正路１２７巷２４弄８號","OBJECTID":147162},"geometry":{"x":173350.16000000015,"y":2547800.5}},{"attributes":{"ID":147163,"DIS_CODE":0,"TOWNNAME":"永康區","LI":"正強里","LIN":"19鄰","STREET":"中山南路","SECT":" ","MAREA":" ","LANE":"４７１巷","ALLEY":"３９弄","HOUSE_NO":"１２號","E_COORD97":173171.82000000001,"N_COORD97":2547220.9900000002,"ADDRESS":"中山南路４７１巷３９弄１２號","OBJECTID":147163},"geometry":{"x":173171.82000000123,"y":2547220.9900000002}},{"attributes":{"ID":147164,"DIS_CODE":0,"TOWNNAME":"永康區","LI":"北灣里","LIN":"22鄰","STREET":"大灣路","SECT":" ","MAREA":" ","LANE":"４０巷","ALLEY":"９８弄","HOUSE_NO":"４６號","E_COORD97":175018.10000000001,"N_COORD97":2546269.6400000001,"ADDRESS":"大灣路４０巷９８弄４６號","OBJECTID":147164},"geometry":{"x":175018.09999999963,"y":2546269.6400000025}},{"attributes":{"ID":147165,"DIS_CODE":0,"TOWNNAME":"永康區","LI":"北灣里","LIN":"39鄰","STREET":"永大路","SECT":"二段","MAREA":" ","LANE":"９５２巷","ALLEY":"２０弄","HOUSE_NO":"２３號","E_COORD97":174572.13,"N_COORD97":2546276.6800000002,"ADDRESS":"永大路二段９５２巷２０弄２３號","OBJECTID":147165},"geometry":{"x":174572.12999999989,"y":2546276.6799999997}},{"attributes":{"ID":147166,"DIS_CODE":0,"TOWNNAME":"永康區","LI":"正強里","LIN":"27鄰","STREET":"中正路","SECT":" ","MAREA":" ","LANE":"１５５巷","ALLEY":"４弄","HOUSE_NO":"６號","E_COORD97":173206.51000000001,"N_COORD97":2547874.0499999998,"ADDRESS":"中正路１５５巷４弄６號","OBJECTID":147166},"geometry":{"x":173206.50999999978,"y":2547874.0500000026}},{"attributes":{"ID":147167,"DIS_CODE":0,"TOWNNAME":"永康區","LI":"北灣里","LIN":"1鄰","STREET":"大灣路","SECT":" ","MAREA":" ","LANE":"１１９巷","ALLEY":"２２弄","HOUSE_NO":"４號","E_COORD97":175186.75,"N_COORD97":2545485.3599999999,"ADDRESS":"大灣路１１９巷２２弄４號","OBJECTID":147167},"geometry":{"x":175186.75,"y":2545485.3599999994}},{"attributes":{"ID":147168,"DIS_CODE":0,"TOWNNAME":"永康區","LI":"王行里","LIN":"3鄰","STREET":"王行路","SECT":" ","MAREA":" ","LANE":"２２４巷","ALLEY":" ","HOUSE_NO":"３２號","E_COORD97":175768.35000000001,"N_COORD97":2548199.4900000002,"ADDRESS":"王行路２２４巷３２號","OBJECTID":147168},"geometry":{"x":175768.35000000056,"y":2548199.4900000021}},{"attributes":{"ID":147169,"DIS_CODE":0,"TOWNNAME":"永康區","LI":"北灣里","LIN":"13鄰","STREET":"大灣路","SECT":" ","MAREA":" ","LANE":"４４巷","ALLEY":"７弄","HOUSE_NO":"７號","E_COORD97":175229.45999999999,"N_COORD97":2545833.75,"ADDRESS":"大灣路４４巷７弄７號","OBJECTID":147169},"geometry":{"x":175229.45999999996,"y":2545833.7500000019}},{"attributes":{"ID":147170,"DIS_CODE":0,"TOWNNAME":"永康區","LI":"北灣里","LIN":"39鄰","STREET":"永大路","SECT":"二段","MAREA":" ","LANE":"９８６巷","ALLEY":"２弄","HOUSE_NO":"６號","E_COORD97":174502.60000000001,"N_COORD97":2546353.75,"ADDRESS":"永大路二段９８６巷２弄６號","OBJECTID":147170},"geometry":{"x":174502.59999999963,"y":2546353.75}},{"attributes":{"ID":147171,"DIS_CODE":0,"TOWNNAME":"北區","LI":"正風里","LIN":"3鄰","STREET":"公園路","SECT":" ","MAREA":" ","LANE":"９１８巷","ALLEY":"１０弄","HOUSE_NO":"３３號","E_COORD97":169454.28,"N_COORD97":2546091.21,"ADDRESS":"公園路９１８巷１０弄３３號","OBJECTID":147171},"geometry":{"x":169454.28000000212,"y":2546091.2100000009}},{"attributes":{"ID":147172,"DIS_CODE":0,"TOWNNAME":"永康區","LI":"北灣里","LIN":"36鄰","STREET":"大灣路","SECT":" ","MAREA":" ","LANE":"４０巷","ALLEY":"１８２弄","HOUSE_NO":"１８號","E_COORD97":174857.78,"N_COORD97":2546362.5800000001,"ADDRESS":"大灣路４０巷１８２弄１８號","OBJECTID":147172},"geometry":{"x":174857.78000000026,"y":2546362.5800000001}},{"attributes":{"ID":147173,"DIS_CODE":0,"TOWNNAME":"白河區","LI":"仙草里","LIN":" ","STREET":" ","SECT":" ","MAREA":"仙草","LANE":" ","ALLEY":" ","HOUSE_NO":"６０之８號","E_COORD97":196369.07999999999,"N_COORD97":2582451.21,"ADDRESS":"仙草６０之８號","OBJECTID":147173},"geometry":{"x":196369.08000000101,"y":2582451.2100000028}},{"attributes":{"ID":147174,"DIS_CODE":0,"TOWNNAME":"永康區","LI":"王行里","LIN":"1鄰","STREET":"中山北路","SECT":" ","MAREA":" ","LANE":"４９９巷","ALLEY":"１２０弄","HOUSE_NO":"２２號","E_COORD97":175336.67999999999,"N_COORD97":2548021.9900000002,"ADDRESS":"中山北路４９９巷１２０弄２２號","OBJECTID":147174},"geometry":{"x":175336.68000000156,"y":2548021.9900000039}},{"attributes":{"ID":147175,"DIS_CODE":0,"TOWNNAME":"永康區","LI":"網寮里","LIN":"3鄰","STREET":"永和街","SECT":" ","MAREA":" ","LANE":"２６０巷","ALLEY":"２６弄","HOUSE_NO":"１３號","E_COORD97":173485.26999999999,"N_COORD97":2546653.8100000001,"ADDRESS":"永和街２６０巷２６弄１３號","OBJECTID":147175},"geometry":{"x":173485.27000000048,"y":2546653.8100000042}},{"attributes":{"ID":147176,"DIS_CODE":0,"TOWNNAME":"白河區","LI":"仙草里","LIN":" ","STREET":" ","SECT":" ","MAREA":"仙草","LANE":" ","ALLEY":" ","HOUSE_NO":"６２之１０號","E_COORD97":196788.20999999999,"N_COORD97":2582415.73,"ADDRESS":"仙草６２之１０號","OBJECTID":147176},"geometry":{"x":196788.21000000089,"y":2582415.7300000042}},{"attributes":{"ID":147177,"DIS_CODE":0,"TOWNNAME":"白河區","LI":"仙草里","LIN":" ","STREET":" ","SECT":" ","MAREA":"仙草","LANE":" ","ALLEY":" ","HOUSE_NO":"６２之６號","E_COORD97":196718.66,"N_COORD97":2582404.7200000002,"ADDRESS":"仙草６２之６號","OBJECTID":147177},"geometry":{"x":196718.66000000201,"y":2582404.7200000007}},{"attributes":{"ID":147178,"DIS_CODE":0,"TOWNNAME":"新市區","LI":"大社里","LIN":"30鄰","STREET":" ","SECT":" ","MAREA":"大社","LANE":" ","ALLEY":" ","HOUSE_NO":"９８６之１號","E_COORD97":180253.51999999999,"N_COORD97":2553730.7999999998,"ADDRESS":"大社９８６之１號","OBJECTID":147178},"geometry":{"x":180253.51999999862,"y":2553730.8000000026}},{"attributes":{"ID":147179,"DIS_CODE":0,"TOWNNAME":"永康區","LI":"\u25A0行里","LIN":"30鄰","STREET":"中正北路","SECT":" ","MAREA":" ","LANE":" ","ALLEY":" ","HOUSE_NO":"１８８號","E_COORD97":172474.54000000001,"N_COORD97":2549063.0099999998,"ADDRESS":"中正北路１８８號","OBJECTID":147179},"geometry":{"x":172474.54000000004,"y":2549063.0100000016}},{"attributes":{"ID":147180,"DIS_CODE":0,"TOWNNAME":"永康區","LI":"網寮里","LIN":"3鄰","STREET":"永和街","SECT":" ","MAREA":" ","LANE":"２６０巷","ALLEY":"２６弄","HOUSE_NO":"３號","E_COORD97":173467.23000000001,"N_COORD97":2546659.1000000001,"ADDRESS":"永和街２６０巷２６弄３號","OBJECTID":147180},"geometry":{"x":173467.22999999952,"y":2546659.1000000015}},{"attributes":{"ID":147181,"DIS_CODE":0,"TOWNNAME":"永康區","LI":"網寮里","LIN":"3鄰","STREET":"永和街","SECT":" ","MAREA":" ","LANE":"２６０巷","ALLEY":"２６弄","HOUSE_NO":"７號","E_COORD97":173475.72,"N_COORD97":2546653.9500000002,"ADDRESS":"永和街２６０巷２６弄７號","OBJECTID":147181},"geometry":{"x":173475.72000000067,"y":2546653.9499999993}},{"attributes":{"ID":147182,"DIS_CODE":0,"TOWNNAME":"永康區","LI":"網寮里","LIN":"3鄰","STREET":"永和街","SECT":" ","MAREA":" ","LANE":"２３８巷","ALLEY":"２２弄","HOUSE_NO":"１１號","E_COORD97":173541.87,"N_COORD97":2546631.8300000001,"ADDRESS":"永和街２３８巷２２弄１１號","OBJECTID":147182},"geometry":{"x":173541.87000000011,"y":2546631.8300000001}},{"attributes":{"ID":147183,"DIS_CODE":0,"TOWNNAME":"永康區","LI":"網寮里","LIN":"3鄰","STREET":"永和街","SECT":" ","MAREA":" ","LANE":"２６０巷","ALLEY":"２６弄","HOUSE_NO":"１７號","E_COORD97":173488.12,"N_COORD97":2546662.0499999998,"ADDRESS":"永和街２６０巷２６弄１７號","OBJECTID":147183},"geometry":{"x":173488.12000000197,"y":2546662.0500000007}},{"attributes":{"ID":147184,"DIS_CODE":0,"TOWNNAME":"新市區","LI":"大社里","LIN":"30鄰","STREET":" ","SECT":" ","MAREA":"大社","LANE":" ","ALLEY":" ","HOUSE_NO":"９８５之１６號","E_COORD97":180247.17999999999,"N_COORD97":2553742.2999999998,"ADDRESS":"大社９８５之１６號","OBJECTID":147184},"geometry":{"x":180247.1799999997,"y":2553742.3000000007}},{"attributes":{"ID":147185,"DIS_CODE":0,"TOWNNAME":"新市區","LI":"大社里","LIN":"30鄰","STREET":" ","SECT":" ","MAREA":"大社","LANE":" ","ALLEY":" ","HOUSE_NO":"９８５號之７","E_COORD97":180258.51999999999,"N_COORD97":2553778.0499999998,"ADDRESS":"大社９８５號之７","OBJECTID":147185},"geometry":{"x":180258.51999999955,"y":2553778.0500000007}},{"attributes":{"ID":147186,"DIS_CODE":0,"TOWNNAME":"永康區","LI":"網寮里","LIN":"3鄰","STREET":"永和街","SECT":" ","MAREA":" ","LANE":"２６０巷","ALLEY":"２６弄","HOUSE_NO":"２３號","E_COORD97":173512.20999999999,"N_COORD97":2546650.6899999999,"ADDRESS":"永和街２６０巷２６弄２３號","OBJECTID":147186},"geometry":{"x":173512.20999999996,"y":2546650.6900000013}},{"attributes":{"ID":147187,"DIS_CODE":0,"TOWNNAME":"永康區","LI":"網寮里","LIN":"3鄰","STREET":"永和街","SECT":" ","MAREA":" ","LANE":"２３８巷","ALLEY":"２２弄","HOUSE_NO":"７號","E_COORD97":173527.10999999999,"N_COORD97":2546649.1000000001,"ADDRESS":"永和街２３８巷２２弄７號","OBJECTID":147187},"geometry":{"x":173527.11000000034,"y":2546649.0999999996}},{"attributes":{"ID":147188,"DIS_CODE":0,"TOWNNAME":"永康區","LI":"北灣里","LIN":"37鄰","STREET":"大同街","SECT":" ","MAREA":" ","LANE":"３８０巷","ALLEY":"１１弄","HOUSE_NO":"７號","E_COORD97":174775.79999999999,"N_COORD97":2546138.77,"ADDRESS":"大同街３８０巷１１弄７號","OBJECTID":147188},"geometry":{"x":174775.79999999981,"y":2546138.7700000014}},{"attributes":{"ID":147189,"DIS_CODE":0,"TOWNNAME":"永康區","LI":"網寮里","LIN":"3鄰","STREET":"永和街","SECT":" ","MAREA":" ","LANE":"２６０巷","ALLEY":"２６弄","HOUSE_NO":"１號","E_COORD97":173463.01999999999,"N_COORD97":2546660.8100000001,"ADDRESS":"永和街２６０巷２６弄１號","OBJECTID":147189},"geometry":{"x":173463.02000000048,"y":2546660.8100000024}},{"attributes":{"ID":147190,"DIS_CODE":0,"TOWNNAME":"永康區","LI":"網寮里","LIN":"3鄰","STREET":"永和街","SECT":" ","MAREA":" ","LANE":"２３８巷","ALLEY":"２２弄","HOUSE_NO":"１號","E_COORD97":173518.01000000001,"N_COORD97":2546627.3199999998,"ADDRESS":"永和街２３８巷２２弄１號","OBJECTID":147190},"geometry":{"x":173518.01000000071,"y":2546627.3200000022}},{"attributes":{"ID":147191,"DIS_CODE":0,"TOWNNAME":"永康區","LI":"網寮里","LIN":"3鄰","STREET":"永和街","SECT":" ","MAREA":" ","LANE":"２６０巷","ALLEY":"２６弄","HOUSE_NO":"１１號","E_COORD97":173483.14000000001,"N_COORD97":2546649.4399999999,"ADDRESS":"永和街２６０巷２６弄１１號","OBJECTID":147191},"geometry":{"x":173483.1400000006,"y":2546649.4400000013}},{"attributes":{"ID":147192,"DIS_CODE":0,"TOWNNAME":"永康區","LI":"網寮里","LIN":"3鄰","STREET":"永和街","SECT":" ","MAREA":" ","LANE":"２６０巷","ALLEY":"２６弄","HOUSE_NO":"２７號","E_COORD97":173506.39999999999,"N_COORD97":2546644.1800000002,"ADDRESS":"永和街２６０巷２６弄２７號","OBJECTID":147192},"geometry":{"x":173506.40000000037,"y":2546644.1800000016}},{"attributes":{"ID":147194,"DIS_CODE":0,"TOWNNAME":"善化區","LI":"胡厝里","LIN":"26鄰","STREET":" ","SECT":" ","MAREA":"烏橋","LANE":" ","ALLEY":" ","HOUSE_NO":"３４號","E_COORD97":175357.79000000001,"N_COORD97":2558876.25,"ADDRESS":"烏橋３４號","OBJECTID":147193},"geometry":{"x":175357.79000000004,"y":2558876.2500000019}},{"attributes":{"ID":147195,"DIS_CODE":0,"TOWNNAME":"永康區","LI":"網寮里","LIN":"3鄰","STREET":"永和街","SECT":" ","MAREA":" ","LANE":"２３８巷","ALLEY":"２２弄","HOUSE_NO":"３號","E_COORD97":173519.07999999999,"N_COORD97":2546634.6299999999,"ADDRESS":"永和街２３８巷２２弄３號","OBJECTID":147194},"geometry":{"x":173519.08000000101,"y":2546634.629999999}},{"attributes":{"ID":147196,"DIS_CODE":0,"TOWNNAME":"永康區","LI":"網寮里","LIN":"3鄰","STREET":"永和街","SECT":" ","MAREA":" ","LANE":"２６０巷","ALLEY":"２６弄","HOUSE_NO":"１５號","E_COORD97":173487.39999999999,"N_COORD97":2546658.1800000002,"ADDRESS":"永和街２６０巷２６弄１５號","OBJECTID":147195},"geometry":{"x":173487.40000000037,"y":2546658.1800000016}},{"attributes":{"ID":147197,"DIS_CODE":0,"TOWNNAME":"永康區","LI":"網寮里","LIN":"3鄰","STREET":"永和街","SECT":" ","MAREA":" ","LANE":"２６０巷","ALLEY":"２６弄","HOUSE_NO":"２１號","E_COORD97":173511.59,"N_COORD97":2546659.7200000002,"ADDRESS":"永和街２６０巷２６弄２１號","OBJECTID":147196},"geometry":{"x":173511.58999999892,"y":2546659.7200000007}},{"attributes":{"ID":147198,"DIS_CODE":0,"TOWNNAME":"永康區","LI":"網寮里","LIN":"3鄰","STREET":"永和街","SECT":" ","MAREA":" ","LANE":"２６０巷","ALLEY":"２６弄","HOUSE_NO":"２９號","E_COORD97":173504.26999999999,"N_COORD97":2546639.5499999998,"ADDRESS":"永和街２６０巷２６弄２９號","OBJECTID":147197},"geometry":{"x":173504.26999999955,"y":2546639.5500000026}},{"attributes":{"ID":147199,"DIS_CODE":0,"TOWNNAME":"永康區","LI":"網寮里","LIN":"3鄰","STREET":"永和街","SECT":" ","MAREA":" ","LANE":"２３８巷","ALLEY":"２２弄","HOUSE_NO":"９號","E_COORD97":173545.70000000001,"N_COORD97":2546638.5800000001,"ADDRESS":"永和街２３８巷２２弄９號","OBJECTID":147198},"geometry":{"x":173545.70000000112,"y":2546638.5800000019}},{"attributes":{"ID":147200,"DIS_CODE":0,"TOWNNAME":"新市區","LI":"大社里","LIN":"30鄰","STREET":" ","SECT":" ","MAREA":"大社","LANE":" ","ALLEY":" ","HOUSE_NO":"９８６之３號","E_COORD97":180243.67999999999,"N_COORD97":2553728.0499999998,"ADDRESS":"大社９８６之３號","OBJECTID":147199},"geometry":{"x":180243.6799999997,"y":2553728.0500000045}},{"attributes":{"ID":147201,"DIS_CODE":0,"TOWNNAME":"永康區","LI":"網寮里","LIN":"3鄰","STREET":"永和街","SECT":" ","MAREA":" ","LANE":"２６０巷","ALLEY":"２６弄","HOUSE_NO":"９號","E_COORD97":173479.67000000001,"N_COORD97":2546644.8500000001,"ADDRESS":"永和街２６０巷２６弄９號","OBJECTID":147200},"geometry":{"x":173479.67000000086,"y":2546644.8499999996}}]}