{"displayFieldName":"TOWNNAME","fieldAliases":{"ID":"ID","DIS_CODE":"DIS_CODE","TOWNNAME":"TOWNNAME","LI":"LI","LIN":"LIN","STREET":"STREET","SECT":"SECT","MAREA":"MAREA","LANE":"LANE","ALLEY":"ALLEY","HOUSE_NO":"HOUSE_NO","E_COORD97":"E_COORD97","N_COORD97":"N_COORD97","ADDRESS":"ADDRESS","OBJECTID":"OBJECTID"},"geometryType":"esriGeometryPoint","spatialReference":{"wkid":102443,"latestWkid":3826},"fields":[{"name":"ID","type":"esriFieldTypeDouble","alias":"ID"},{"name":"DIS_CODE","type":"esriFieldTypeInteger","alias":"DIS_CODE"},{"name":"TOWNNAME","type":"esriFieldTypeString","alias":"TOWNNAME","length":8},{"name":"LI","type":"esriFieldTypeString","alias":"LI","length":8},{"name":"LIN","type":"esriFieldTypeString","alias":"LIN","length":12},{"name":"STREET","type":"esriFieldTypeString","alias":"STREET","length":20},{"name":"SECT","type":"esriFieldTypeString","alias":"SECT","length":8},{"name":"MAREA","type":"esriFieldTypeString","alias":"MAREA","length":12},{"name":"LANE","type":"esriFieldTypeString","alias":"LANE","length":10},{"name":"ALLEY","type":"esriFieldTypeString","alias":"ALLEY","length":10},{"name":"HOUSE_NO","type":"esriFieldTypeString","alias":"HOUSE_NO","length":20},{"name":"E_COORD97","type":"esriFieldTypeDouble","alias":"E_COORD97"},{"name":"N_COORD97","type":"esriFieldTypeDouble","alias":"N_COORD97"},{"name":"ADDRESS","type":"esriFieldTypeString","alias":"ADDRESS","length":50},{"name":"OBJECTID","type":"esriFieldTypeOID","alias":"OBJECTID"}],"features":[{"attributes":{"ID":68201,"DIS_CODE":0,"TOWNNAME":"七股區","LI":"?榔里","LIN":"6鄰","STREET":" ","SECT":" ","MAREA":"?榔","LANE":" ","ALLEY":" ","HOUSE_NO":"５２號之２１","E_COORD97":162263.14000000001,"N_COORD97":2555112.1600000001,"ADDRESS":"?榔５２號之２１","OBJECTID":68201},"geometry":{"x":162263.13999999966,"y":2555112.1600000001}},{"attributes":{"ID":68202,"DIS_CODE":0,"TOWNNAME":"七股區","LI":"?榔里","LIN":"6鄰","STREET":" ","SECT":" ","MAREA":"?榔","LANE":" ","ALLEY":" ","HOUSE_NO":"５２號之２","E_COORD97":162289.66,"N_COORD97":2555171.77,"ADDRESS":"?榔５２號之２","OBJECTID":68202},"geometry":{"x":162289.66000000108,"y":2555171.7699999996}},{"attributes":{"ID":68203,"DIS_CODE":0,"TOWNNAME":"七股區","LI":"?榔里","LIN":"6鄰","STREET":" ","SECT":" ","MAREA":"?榔","LANE":" ","ALLEY":" ","HOUSE_NO":"５２號之３","E_COORD97":162280.64000000001,"N_COORD97":2555171.4500000002,"ADDRESS":"?榔５２號之３","OBJECTID":68203},"geometry":{"x":162280.64000000153,"y":2555171.450000003}},{"attributes":{"ID":68204,"DIS_CODE":0,"TOWNNAME":"七股區","LI":"?榔里","LIN":"6鄰","STREET":" ","SECT":" ","MAREA":"?榔","LANE":" ","ALLEY":" ","HOUSE_NO":"５２號之６","E_COORD97":162242.29000000001,"N_COORD97":2555158.27,"ADDRESS":"?榔５２號之６","OBJECTID":68204},"geometry":{"x":162242.29000000004,"y":2555158.2699999996}},{"attributes":{"ID":68205,"DIS_CODE":0,"TOWNNAME":"北區","LI":"成功里","LIN":"6鄰","STREET":"北安路","SECT":"一段","MAREA":" ","LANE":"１７６巷","ALLEY":"２１弄","HOUSE_NO":"２４號","E_COORD97":168874.76999999999,"N_COORD97":2546565.2000000002,"ADDRESS":"北安路一段１７６巷２１弄２４號","OBJECTID":68205},"geometry":{"x":168874.76999999955,"y":2546565.2000000011}},{"attributes":{"ID":68206,"DIS_CODE":0,"TOWNNAME":"北區","LI":"成功里","LIN":"6鄰","STREET":"北安路","SECT":"一段","MAREA":" ","LANE":"１７６巷","ALLEY":"２１弄","HOUSE_NO":"２６號","E_COORD97":168870.60000000001,"N_COORD97":2546567.1200000001,"ADDRESS":"北安路一段１７６巷２１弄２６號","OBJECTID":68206},"geometry":{"x":168870.60000000056,"y":2546567.1199999992}},{"attributes":{"ID":68207,"DIS_CODE":0,"TOWNNAME":"北區","LI":"成功里","LIN":"6鄰","STREET":"北安路","SECT":"一段","MAREA":" ","LANE":"１７６巷","ALLEY":"２１弄","HOUSE_NO":"２８號","E_COORD97":168867.07999999999,"N_COORD97":2546568.3999999999,"ADDRESS":"北安路一段１７６巷２１弄２８號","OBJECTID":68207},"geometry":{"x":168867.07999999914,"y":2546568.4000000022}},{"attributes":{"ID":68208,"DIS_CODE":0,"TOWNNAME":"北區","LI":"成功里","LIN":"6鄰","STREET":"北安路","SECT":"一段","MAREA":" ","LANE":"１７６巷","ALLEY":"２１弄","HOUSE_NO":"２號","E_COORD97":168912.92999999999,"N_COORD97":2546542.7799999998,"ADDRESS":"北安路一段１７６巷２１弄２號","OBJECTID":68208},"geometry":{"x":168912.9299999997,"y":2546542.7799999993}},{"attributes":{"ID":68209,"DIS_CODE":0,"TOWNNAME":"北區","LI":"成功里","LIN":"6鄰","STREET":"北安路","SECT":"一段","MAREA":" ","LANE":"１７６巷","ALLEY":"２１弄","HOUSE_NO":"３０號","E_COORD97":168864.82999999999,"N_COORD97":2546570.3199999998,"ADDRESS":"北安路一段１７６巷２１弄３０號","OBJECTID":68209},"geometry":{"x":168864.83000000007,"y":2546570.3200000003}},{"attributes":{"ID":68210,"DIS_CODE":0,"TOWNNAME":"北區","LI":"成功里","LIN":"6鄰","STREET":"北安路","SECT":"一段","MAREA":" ","LANE":"１７６巷","ALLEY":"２１弄","HOUSE_NO":"３２號","E_COORD97":168860.98000000001,"N_COORD97":2546572.25,"ADDRESS":"北安路一段１７６巷２１弄３２號","OBJECTID":68210},"geometry":{"x":168860.98000000045,"y":2546572.2500000037}},{"attributes":{"ID":68211,"DIS_CODE":0,"TOWNNAME":"七股區","LI":"?榔里","LIN":"6鄰","STREET":" ","SECT":" ","MAREA":"?榔","LANE":" ","ALLEY":" ","HOUSE_NO":"５２號之７","E_COORD97":162233.48999999999,"N_COORD97":2555158.7999999998,"ADDRESS":"?榔５２號之７","OBJECTID":68211},"geometry":{"x":162233.49000000115,"y":2555158.8000000007}},{"attributes":{"ID":68212,"DIS_CODE":0,"TOWNNAME":"七股區","LI":"?榔里","LIN":"6鄰","STREET":" ","SECT":" ","MAREA":"?榔","LANE":" ","ALLEY":" ","HOUSE_NO":"５２號之８","E_COORD97":162267.92999999999,"N_COORD97":2555166.9700000002,"ADDRESS":"?榔５２號之８","OBJECTID":68212},"geometry":{"x":162267.9299999997,"y":2555166.9700000025}},{"attributes":{"ID":68213,"DIS_CODE":0,"TOWNNAME":"七股區","LI":"?榔里","LIN":"6鄰","STREET":" ","SECT":" ","MAREA":"?榔","LANE":" ","ALLEY":" ","HOUSE_NO":"５２號之９","E_COORD97":162264.10999999999,"N_COORD97":2555166.8199999998,"ADDRESS":"?榔５２號之９","OBJECTID":68213},"geometry":{"x":162264.11000000034,"y":2555166.820000004}},{"attributes":{"ID":68214,"DIS_CODE":0,"TOWNNAME":"七股區","LI":"?榔里","LIN":"6鄰","STREET":" ","SECT":" ","MAREA":"?榔","LANE":" ","ALLEY":" ","HOUSE_NO":"５２號","E_COORD97":162319.39999999999,"N_COORD97":2555175.6400000001,"ADDRESS":"?榔５２號","OBJECTID":68214},"geometry":{"x":162319.40000000037,"y":2555175.6400000025}},{"attributes":{"ID":68215,"DIS_CODE":0,"TOWNNAME":"七股區","LI":"?榔里","LIN":"6鄰","STREET":" ","SECT":" ","MAREA":"?榔","LANE":" ","ALLEY":" ","HOUSE_NO":"５３號","E_COORD97":162344.45999999999,"N_COORD97":2555229.02,"ADDRESS":"?榔５３號","OBJECTID":68215},"geometry":{"x":162344.45999999996,"y":2555229.0200000033}},{"attributes":{"ID":68216,"DIS_CODE":0,"TOWNNAME":"楠西區","LI":"灣丘里","LIN":" ","STREET":" ","SECT":" ","MAREA":"香蕉山","LANE":" ","ALLEY":" ","HOUSE_NO":"３７之３號","E_COORD97":203852.59,"N_COORD97":2563905.2999999998,"ADDRESS":"香蕉山３７之３號","OBJECTID":68216},"geometry":{"x":203852.59000000078,"y":2563905.3000000026}},{"attributes":{"ID":68217,"DIS_CODE":0,"TOWNNAME":"楠西區","LI":"照興里","LIN":" ","STREET":" ","SECT":" ","MAREA":"興北","LANE":" ","ALLEY":" ","HOUSE_NO":"６９之２號","E_COORD97":198476.07000000001,"N_COORD97":2567629.2999999998,"ADDRESS":"興北６９之２號","OBJECTID":68217},"geometry":{"x":198476.07000000123,"y":2567629.3000000007}},{"attributes":{"ID":68218,"DIS_CODE":0,"TOWNNAME":"七股區","LI":"?榔里","LIN":"6鄰","STREET":" ","SECT":" ","MAREA":"?榔","LANE":" ","ALLEY":" ","HOUSE_NO":"５６號","E_COORD97":162383.31,"N_COORD97":2555233.1400000001,"ADDRESS":"?榔５６號","OBJECTID":68218},"geometry":{"x":162383.31000000052,"y":2555233.1400000025}},{"attributes":{"ID":68219,"DIS_CODE":0,"TOWNNAME":"七股區","LI":"?榔里","LIN":"6鄰","STREET":" ","SECT":" ","MAREA":"?榔","LANE":" ","ALLEY":" ","HOUSE_NO":"５７號之１","E_COORD97":162401.73999999999,"N_COORD97":2555233.3100000001,"ADDRESS":"?榔５７號之１","OBJECTID":68219},"geometry":{"x":162401.74000000022,"y":2555233.3100000005}},{"attributes":{"ID":68220,"DIS_CODE":0,"TOWNNAME":"七股區","LI":"?榔里","LIN":"6鄰","STREET":" ","SECT":" ","MAREA":"?榔","LANE":" ","ALLEY":" ","HOUSE_NO":"５７號","E_COORD97":162405.70999999999,"N_COORD97":2555246.9100000001,"ADDRESS":"?榔５７號","OBJECTID":68220},"geometry":{"x":162405.70999999903,"y":2555246.9099999983}},{"attributes":{"ID":68221,"DIS_CODE":0,"TOWNNAME":"七股區","LI":"?埕里","LIN":"6鄰","STREET":" ","SECT":" ","MAREA":"?埕","LANE":" ","ALLEY":" ","HOUSE_NO":"１００號","E_COORD97":158382.04000000001,"N_COORD97":2561858.1099999999,"ADDRESS":"?埕１００號","OBJECTID":68221},"geometry":{"x":158382.04000000004,"y":2561858.1099999994}},{"attributes":{"ID":68222,"DIS_CODE":0,"TOWNNAME":"七股區","LI":"?埕里","LIN":"6鄰","STREET":" ","SECT":" ","MAREA":"?埕","LANE":" ","ALLEY":" ","HOUSE_NO":"８４號","E_COORD97":158417.51000000001,"N_COORD97":2561806.6099999999,"ADDRESS":"?埕８４號","OBJECTID":68222},"geometry":{"x":158417.50999999978,"y":2561806.6100000013}},{"attributes":{"ID":68223,"DIS_CODE":0,"TOWNNAME":"七股區","LI":"?埕里","LIN":"6鄰","STREET":" ","SECT":" ","MAREA":"?埕","LANE":" ","ALLEY":" ","HOUSE_NO":"８５號","E_COORD97":158411.07999999999,"N_COORD97":2561806.5600000001,"ADDRESS":"?埕８５號","OBJECTID":68223},"geometry":{"x":158411.08000000007,"y":2561806.5600000005}},{"attributes":{"ID":68224,"DIS_CODE":0,"TOWNNAME":"七股區","LI":"?埕里","LIN":"6鄰","STREET":" ","SECT":" ","MAREA":"?埕","LANE":" ","ALLEY":" ","HOUSE_NO":"８６號","E_COORD97":158404.64999999999,"N_COORD97":2561806.5099999998,"ADDRESS":"?埕８６號","OBJECTID":68224},"geometry":{"x":158404.6500000013,"y":2561806.5100000035}},{"attributes":{"ID":68225,"DIS_CODE":0,"TOWNNAME":"七股區","LI":"?埕里","LIN":"6鄰","STREET":" ","SECT":" ","MAREA":"?埕","LANE":" ","ALLEY":" ","HOUSE_NO":"８７號","E_COORD97":158398.23000000001,"N_COORD97":2561806.4500000002,"ADDRESS":"?埕８７號","OBJECTID":68225},"geometry":{"x":158398.23000000045,"y":2561806.450000003}},{"attributes":{"ID":68226,"DIS_CODE":0,"TOWNNAME":"七股區","LI":"?埕里","LIN":"6鄰","STREET":" ","SECT":" ","MAREA":"?埕","LANE":" ","ALLEY":" ","HOUSE_NO":"８８號","E_COORD97":158418.26999999999,"N_COORD97":2561820.1600000001,"ADDRESS":"?埕８８號","OBJECTID":68226},"geometry":{"x":158418.27000000048,"y":2561820.160000002}},{"attributes":{"ID":68227,"DIS_CODE":0,"TOWNNAME":"七股區","LI":"?埕里","LIN":"6鄰","STREET":" ","SECT":" ","MAREA":"?埕","LANE":" ","ALLEY":" ","HOUSE_NO":"８９號","E_COORD97":158411.56,"N_COORD97":2561820.1000000001,"ADDRESS":"?埕８９號","OBJECTID":68227},"geometry":{"x":158411.56000000052,"y":2561820.1000000015}},{"attributes":{"ID":68228,"DIS_CODE":0,"TOWNNAME":"七股區","LI":"?埕里","LIN":"6鄰","STREET":" ","SECT":" ","MAREA":"?埕","LANE":" ","ALLEY":" ","HOUSE_NO":"９０號","E_COORD97":158404.85999999999,"N_COORD97":2561820.0499999998,"ADDRESS":"?埕９０號","OBJECTID":68228},"geometry":{"x":158404.86000000127,"y":2561820.0500000007}},{"attributes":{"ID":68229,"DIS_CODE":0,"TOWNNAME":"七股區","LI":"?埕里","LIN":"6鄰","STREET":" ","SECT":" ","MAREA":"?埕","LANE":" ","ALLEY":" ","HOUSE_NO":"９１號","E_COORD97":158398.14999999999,"N_COORD97":2561820,"ADDRESS":"?埕９１號","OBJECTID":68229},"geometry":{"x":158398.1500000013,"y":2561820}},{"attributes":{"ID":68230,"DIS_CODE":0,"TOWNNAME":"北區","LI":"成功里","LIN":"6鄰","STREET":"北安路","SECT":"一段","MAREA":" ","LANE":"１７６巷","ALLEY":"２１弄","HOUSE_NO":"６號","E_COORD97":168905.87,"N_COORD97":2546546.9500000002,"ADDRESS":"北安路一段１７６巷２１弄６號","OBJECTID":68230},"geometry":{"x":168905.86999999918,"y":2546546.9500000011}},{"attributes":{"ID":68231,"DIS_CODE":0,"TOWNNAME":"永康區","LI":"神洲里","LIN":"7鄰","STREET":"忠孝路","SECT":" ","MAREA":" ","LANE":" ","ALLEY":" ","HOUSE_NO":"６２號","E_COORD97":172094.87,"N_COORD97":2544785.8100000001,"ADDRESS":"忠孝路６２號","OBJECTID":68231},"geometry":{"x":172094.87000000104,"y":2544785.8100000024}},{"attributes":{"ID":68232,"DIS_CODE":0,"TOWNNAME":"永康區","LI":"南灣里","LIN":"7鄰","STREET":"南興路","SECT":" ","MAREA":" ","LANE":" ","ALLEY":" ","HOUSE_NO":"１００號","E_COORD97":174295.16,"N_COORD97":2544408.0699999998,"ADDRESS":"南興路１００號","OBJECTID":68232},"geometry":{"x":174295.16000000108,"y":2544408.0700000022}},{"attributes":{"ID":68233,"DIS_CODE":0,"TOWNNAME":"安南區","LI":"溪墘里","LIN":"7鄰","STREET":"安富街","SECT":" ","MAREA":" ","LANE":" ","ALLEY":" ","HOUSE_NO":"４０９號之２","E_COORD97":167171.92000000001,"N_COORD97":2547351.2999999998,"ADDRESS":"安富街４０９號之２","OBJECTID":68233},"geometry":{"x":167171.92000000086,"y":2547351.3000000007}},{"attributes":{"ID":68234,"DIS_CODE":0,"TOWNNAME":"安南區","LI":"公親里","LIN":"7鄰","STREET":"公學路","SECT":"一段","MAREA":" ","LANE":" ","ALLEY":" ","HOUSE_NO":"７６號","E_COORD97":168424.67999999999,"N_COORD97":2553058.04,"ADDRESS":"公學路一段７６號","OBJECTID":68234},"geometry":{"x":168424.6799999997,"y":2553058.0399999991}},{"attributes":{"ID":68235,"DIS_CODE":0,"TOWNNAME":"七股區","LI":"?埕里","LIN":"6鄰","STREET":" ","SECT":" ","MAREA":"?埕","LANE":" ","ALLEY":" ","HOUSE_NO":"９２號","E_COORD97":158418.41,"N_COORD97":2561834.5699999998,"ADDRESS":"?埕９２號","OBJECTID":68235},"geometry":{"x":158418.41000000108,"y":2561834.5700000022}},{"attributes":{"ID":68236,"DIS_CODE":0,"TOWNNAME":"七股區","LI":"?埕里","LIN":"6鄰","STREET":" ","SECT":" ","MAREA":"?埕","LANE":" ","ALLEY":" ","HOUSE_NO":"９３號","E_COORD97":158412.07000000001,"N_COORD97":2561834.6299999999,"ADDRESS":"?埕９３號","OBJECTID":68236},"geometry":{"x":158412.07000000123,"y":2561834.629999999}},{"attributes":{"ID":68237,"DIS_CODE":0,"TOWNNAME":"七股區","LI":"?埕里","LIN":"6鄰","STREET":" ","SECT":" ","MAREA":"?埕","LANE":" ","ALLEY":" ","HOUSE_NO":"９４號","E_COORD97":158405.67000000001,"N_COORD97":2561833.8199999998,"ADDRESS":"?埕９４號","OBJECTID":68237},"geometry":{"x":158405.67000000086,"y":2561833.8200000003}},{"attributes":{"ID":68238,"DIS_CODE":0,"TOWNNAME":"七股區","LI":"?埕里","LIN":"6鄰","STREET":" ","SECT":" ","MAREA":"?埕","LANE":" ","ALLEY":" ","HOUSE_NO":"９５號","E_COORD97":158398.17000000001,"N_COORD97":2561835.04,"ADDRESS":"?埕９５號","OBJECTID":68238},"geometry":{"x":158398.16999999993,"y":2561835.0399999991}},{"attributes":{"ID":68239,"DIS_CODE":0,"TOWNNAME":"七股區","LI":"?埕里","LIN":"6鄰","STREET":" ","SECT":" ","MAREA":"?埕","LANE":" ","ALLEY":" ","HOUSE_NO":"９９號","E_COORD97":158380.59,"N_COORD97":2561846.2200000002,"ADDRESS":"?埕９９號","OBJECTID":68239},"geometry":{"x":158380.59000000078,"y":2561846.2200000007}},{"attributes":{"ID":68240,"DIS_CODE":0,"TOWNNAME":"西港區","LI":"永樂里","LIN":"6鄰","STREET":" ","SECT":" ","MAREA":"大塭寮","LANE":" ","ALLEY":" ","HOUSE_NO":"４９號","E_COORD97":166007.67000000001,"N_COORD97":2556218.4100000001,"ADDRESS":"大塭寮４９號","OBJECTID":68240},"geometry":{"x":166007.66999999993,"y":2556218.410000002}},{"attributes":{"ID":68241,"DIS_CODE":0,"TOWNNAME":"西港區","LI":"永樂里","LIN":"6鄰","STREET":" ","SECT":" ","MAREA":"大塭寮","LANE":" ","ALLEY":" ","HOUSE_NO":"５０號之１","E_COORD97":166029.81,"N_COORD97":2556191.6800000002,"ADDRESS":"大塭寮５０號之１","OBJECTID":68241},"geometry":{"x":166029.81000000052,"y":2556191.6800000016}},{"attributes":{"ID":68242,"DIS_CODE":0,"TOWNNAME":"西港區","LI":"永樂里","LIN":"6鄰","STREET":" ","SECT":" ","MAREA":"大塭寮","LANE":" ","ALLEY":" ","HOUSE_NO":"５０號之２","E_COORD97":166035.23000000001,"N_COORD97":2556190.6499999999,"ADDRESS":"大塭寮５０號之２","OBJECTID":68242},"geometry":{"x":166035.23000000045,"y":2556190.6500000004}},{"attributes":{"ID":68243,"DIS_CODE":0,"TOWNNAME":"西港區","LI":"永樂里","LIN":"6鄰","STREET":" ","SECT":" ","MAREA":"大塭寮","LANE":" ","ALLEY":" ","HOUSE_NO":"５０號之３","E_COORD97":166039.54999999999,"N_COORD97":2556187.3399999999,"ADDRESS":"大塭寮５０號之３","OBJECTID":68243},"geometry":{"x":166039.55000000168,"y":2556187.3400000017}},{"attributes":{"ID":68244,"DIS_CODE":0,"TOWNNAME":"西港區","LI":"永樂里","LIN":"6鄰","STREET":" ","SECT":" ","MAREA":"大塭寮","LANE":" ","ALLEY":" ","HOUSE_NO":"５０號之４","E_COORD97":166043.79999999999,"N_COORD97":2556185.9900000002,"ADDRESS":"大塭寮５０號之４","OBJECTID":68244},"geometry":{"x":166043.79999999981,"y":2556185.9900000039}},{"attributes":{"ID":68245,"DIS_CODE":0,"TOWNNAME":"西港區","LI":"永樂里","LIN":"6鄰","STREET":" ","SECT":" ","MAREA":"大塭寮","LANE":" ","ALLEY":" ","HOUSE_NO":"５０號之５","E_COORD97":166050.73999999999,"N_COORD97":2556178.2400000002,"ADDRESS":"大塭寮５０號之５","OBJECTID":68245},"geometry":{"x":166050.74000000115,"y":2556178.2400000021}},{"attributes":{"ID":68246,"DIS_CODE":0,"TOWNNAME":"西港區","LI":"永樂里","LIN":"6鄰","STREET":" ","SECT":" ","MAREA":"大塭寮","LANE":" ","ALLEY":" ","HOUSE_NO":"５０號之６","E_COORD97":166052.51000000001,"N_COORD97":2556183.71,"ADDRESS":"大塭寮５０號之６","OBJECTID":68246},"geometry":{"x":166052.50999999978,"y":2556183.7100000009}},{"attributes":{"ID":68247,"DIS_CODE":0,"TOWNNAME":"西港區","LI":"永樂里","LIN":"6鄰","STREET":" ","SECT":" ","MAREA":"大塭寮","LANE":" ","ALLEY":" ","HOUSE_NO":"５０號之７","E_COORD97":166053.39999999999,"N_COORD97":2556189.4399999999,"ADDRESS":"大塭寮５０號之７","OBJECTID":68247},"geometry":{"x":166053.4000000013,"y":2556189.4400000013}},{"attributes":{"ID":68248,"DIS_CODE":0,"TOWNNAME":"西港區","LI":"永樂里","LIN":"6鄰","STREET":" ","SECT":" ","MAREA":"大塭寮","LANE":" ","ALLEY":" ","HOUSE_NO":"５０號之８","E_COORD97":166055.59,"N_COORD97":2556195.6400000001,"ADDRESS":"大塭寮５０號之８","OBJECTID":68248},"geometry":{"x":166055.58999999985,"y":2556195.6400000043}},{"attributes":{"ID":68249,"DIS_CODE":0,"TOWNNAME":"北區","LI":"成功里","LIN":"6鄰","STREET":"北安路","SECT":"一段","MAREA":" ","LANE":"１７６巷","ALLEY":"２１弄","HOUSE_NO":"８號","E_COORD97":168903.31,"N_COORD97":2546549.8300000001,"ADDRESS":"北安路一段１７６巷２１弄８號","OBJECTID":68249},"geometry":{"x":168903.30999999959,"y":2546549.8300000001}},{"attributes":{"ID":68250,"DIS_CODE":0,"TOWNNAME":"北區","LI":"成功里","LIN":"6鄰","STREET":"北安路","SECT":"一段","MAREA":" ","LANE":"１７６巷","ALLEY":"３９弄","HOUSE_NO":"１１號","E_COORD97":168907.16,"N_COORD97":2546573.8500000001,"ADDRESS":"北安路一段１７６巷３９弄１１號","OBJECTID":68250},"geometry":{"x":168907.16000000015,"y":2546573.8499999996}},{"attributes":{"ID":68251,"DIS_CODE":0,"TOWNNAME":"北區","LI":"成功里","LIN":"6鄰","STREET":"北安路","SECT":"一段","MAREA":" ","LANE":"１７６巷","ALLEY":"３９弄","HOUSE_NO":"１３號","E_COORD97":168903.63,"N_COORD97":2546575.77,"ADDRESS":"北安路一段１７６巷３９弄１３號","OBJECTID":68251},"geometry":{"x":168903.62999999989,"y":2546575.7700000014}},{"attributes":{"ID":68252,"DIS_CODE":0,"TOWNNAME":"西港區","LI":"永樂里","LIN":"6鄰","STREET":" ","SECT":" ","MAREA":"大塭寮","LANE":" ","ALLEY":" ","HOUSE_NO":"５０號","E_COORD97":166013.28,"N_COORD97":2556204.9300000002,"ADDRESS":"大塭寮５０號","OBJECTID":68252},"geometry":{"x":166013.28000000119,"y":2556204.9299999997}},{"attributes":{"ID":68253,"DIS_CODE":0,"TOWNNAME":"北區","LI":"成功里","LIN":"6鄰","STREET":"北安路","SECT":"一段","MAREA":" ","LANE":"１７６巷","ALLEY":"３９弄","HOUSE_NO":"１５號","E_COORD97":168900.10000000001,"N_COORD97":2546578.3300000001,"ADDRESS":"北安路一段１７６巷３９弄１５號","OBJECTID":68253},"geometry":{"x":168900.09999999963,"y":2546578.3300000038}},{"attributes":{"ID":68254,"DIS_CODE":0,"TOWNNAME":"北區","LI":"成功里","LIN":"6鄰","STREET":"北安路","SECT":"一段","MAREA":" ","LANE":"１７６巷","ALLEY":"３９弄","HOUSE_NO":"１７號","E_COORD97":168897.22,"N_COORD97":2546579.9300000002,"ADDRESS":"北安路一段１７６巷３９弄１７號","OBJECTID":68254},"geometry":{"x":168897.22000000067,"y":2546579.9299999997}},{"attributes":{"ID":68255,"DIS_CODE":0,"TOWNNAME":"北區","LI":"成功里","LIN":"6鄰","STREET":"北安路","SECT":"一段","MAREA":" ","LANE":"１７６巷","ALLEY":"３９弄","HOUSE_NO":"１９號","E_COORD97":168893.04999999999,"N_COORD97":2546581.5299999998,"ADDRESS":"北安路一段１７６巷３９弄１９號","OBJECTID":68255},"geometry":{"x":168893.05000000075,"y":2546581.5299999993}},{"attributes":{"ID":68256,"DIS_CODE":0,"TOWNNAME":"北區","LI":"成功里","LIN":"6鄰","STREET":"北安路","SECT":"一段","MAREA":" ","LANE":"１７６巷","ALLEY":"３９弄","HOUSE_NO":"１號","E_COORD97":168924.79000000001,"N_COORD97":2546564.8799999999,"ADDRESS":"北安路一段１７６巷３９弄１號","OBJECTID":68256},"geometry":{"x":168924.79000000004,"y":2546564.8800000008}},{"attributes":{"ID":68257,"DIS_CODE":0,"TOWNNAME":"北區","LI":"成功里","LIN":"6鄰","STREET":"北安路","SECT":"一段","MAREA":" ","LANE":"１７６巷","ALLEY":"３９弄","HOUSE_NO":"２１號","E_COORD97":168889.84,"N_COORD97":2546583.7799999998,"ADDRESS":"北安路一段１７６巷３９弄２１號","OBJECTID":68257},"geometry":{"x":168889.83999999985,"y":2546583.7799999993}},{"attributes":{"ID":68258,"DIS_CODE":0,"TOWNNAME":"西港區","LI":"永樂里","LIN":"6鄰","STREET":" ","SECT":" ","MAREA":"大塭寮","LANE":" ","ALLEY":" ","HOUSE_NO":"５１號","E_COORD97":166003.23999999999,"N_COORD97":2556171.9500000002,"ADDRESS":"大塭寮５１號","OBJECTID":68258},"geometry":{"x":166003.24000000115,"y":2556171.9500000011}},{"attributes":{"ID":68259,"DIS_CODE":0,"TOWNNAME":"北區","LI":"成功里","LIN":"6鄰","STREET":"北安路","SECT":"一段","MAREA":" ","LANE":"１７６巷","ALLEY":"３９弄","HOUSE_NO":"２３號","E_COORD97":168886.32000000001,"N_COORD97":2546585.7000000002,"ADDRESS":"北安路一段１７６巷３９弄２３號","OBJECTID":68259},"geometry":{"x":168886.32000000123,"y":2546585.7000000011}},{"attributes":{"ID":68260,"DIS_CODE":0,"TOWNNAME":"中西區","LI":"赤嵌里","LIN":"7鄰","STREET":"公園路","SECT":" ","MAREA":" ","LANE":"８４巷","ALLEY":" ","HOUSE_NO":"２號","E_COORD97":168632.32999999999,"N_COORD97":2544080.4500000002,"ADDRESS":"公園路８４巷２號","OBJECTID":68260},"geometry":{"x":168632.33000000101,"y":2544080.4499999993}},{"attributes":{"ID":68261,"DIS_CODE":0,"TOWNNAME":"中西區","LI":"赤嵌里","LIN":"7鄰","STREET":"公園路","SECT":" ","MAREA":" ","LANE":" ","ALLEY":" ","HOUSE_NO":"９２號","E_COORD97":168640.92000000001,"N_COORD97":2544115.1000000001,"ADDRESS":"公園路９２號","OBJECTID":68261},"geometry":{"x":168640.92000000179,"y":2544115.1000000015}},{"attributes":{"ID":68262,"DIS_CODE":0,"TOWNNAME":"中西區","LI":"赤嵌里","LIN":"7鄰","STREET":"民族路","SECT":"二段","MAREA":" ","LANE":" ","ALLEY":" ","HOUSE_NO":"１１０號","E_COORD97":168614.14999999999,"N_COORD97":2544032.9100000001,"ADDRESS":"民族路二段１１０號","OBJECTID":68262},"geometry":{"x":168614.15000000037,"y":2544032.910000002}},{"attributes":{"ID":68263,"DIS_CODE":0,"TOWNNAME":"中西區","LI":"赤嵌里","LIN":"7鄰","STREET":"民族路","SECT":"二段","MAREA":" ","LANE":" ","ALLEY":" ","HOUSE_NO":"１１２號","E_COORD97":168571.85000000001,"N_COORD97":2544048.1000000001,"ADDRESS":"民族路二段１１２號","OBJECTID":68263},"geometry":{"x":168571.85000000056,"y":2544048.1000000015}},{"attributes":{"ID":68264,"DIS_CODE":0,"TOWNNAME":"中西區","LI":"赤嵌里","LIN":"7鄰","STREET":"慈音街","SECT":" ","MAREA":" ","LANE":" ","ALLEY":" ","HOUSE_NO":"３號","E_COORD97":168671.98999999999,"N_COORD97":2544095.6299999999,"ADDRESS":"慈音街３號","OBJECTID":68264},"geometry":{"x":168671.99000000115,"y":2544095.629999999}},{"attributes":{"ID":68265,"DIS_CODE":0,"TOWNNAME":"西港區","LI":"永樂里","LIN":"6鄰","STREET":" ","SECT":" ","MAREA":"大塭寮","LANE":" ","ALLEY":" ","HOUSE_NO":"５３號之１","E_COORD97":166040.91,"N_COORD97":2556140.6400000001,"ADDRESS":"大塭寮５３號之１","OBJECTID":68265},"geometry":{"x":166040.91000000201,"y":2556140.6400000006}},{"attributes":{"ID":68266,"DIS_CODE":0,"TOWNNAME":"西港區","LI":"永樂里","LIN":"6鄰","STREET":" ","SECT":" ","MAREA":"大塭寮","LANE":" ","ALLEY":" ","HOUSE_NO":"５４號","E_COORD97":165999.41,"N_COORD97":2556145.4900000002,"ADDRESS":"大塭寮５４號","OBJECTID":68266},"geometry":{"x":165999.41000000015,"y":2556145.4900000021}},{"attributes":{"ID":68267,"DIS_CODE":0,"TOWNNAME":"西港區","LI":"永樂里","LIN":"6鄰","STREET":" ","SECT":" ","MAREA":"大塭寮","LANE":" ","ALLEY":" ","HOUSE_NO":"５５之８號","E_COORD97":166097.22,"N_COORD97":2555958.3799999999,"ADDRESS":"大塭寮５５之８號","OBJECTID":68267},"geometry":{"x":166097.21999999974,"y":2555958.3800000008}},{"attributes":{"ID":68268,"DIS_CODE":0,"TOWNNAME":"下營區","LI":"大屯里","LIN":"7鄰","STREET":" ","SECT":" ","MAREA":"大屯寮","LANE":" ","ALLEY":" ","HOUSE_NO":"５９號之５","E_COORD97":171979.01000000001,"N_COORD97":2570480.5299999998,"ADDRESS":"大屯寮５９號之５","OBJECTID":68268},"geometry":{"x":171979.00999999978,"y":2570480.5299999993}},{"attributes":{"ID":68269,"DIS_CODE":0,"TOWNNAME":"下營區","LI":"大屯里","LIN":"7鄰","STREET":" ","SECT":" ","MAREA":"大屯寮","LANE":" ","ALLEY":" ","HOUSE_NO":"５９號","E_COORD97":172007.57999999999,"N_COORD97":2570483.77,"ADDRESS":"大屯寮５９號","OBJECTID":68269},"geometry":{"x":172007.58000000007,"y":2570483.7700000033}},{"attributes":{"ID":68270,"DIS_CODE":0,"TOWNNAME":"下營區","LI":"大屯里","LIN":"7鄰","STREET":" ","SECT":" ","MAREA":"大屯寮","LANE":" ","ALLEY":" ","HOUSE_NO":"６０號","E_COORD97":172019.48000000001,"N_COORD97":2570512.1699999999,"ADDRESS":"大屯寮６０號","OBJECTID":68270},"geometry":{"x":172019.47999999952,"y":2570512.1700000037}},{"attributes":{"ID":68271,"DIS_CODE":0,"TOWNNAME":"下營區","LI":"大屯里","LIN":"7鄰","STREET":" ","SECT":" ","MAREA":"大屯寮","LANE":" ","ALLEY":" ","HOUSE_NO":"６１號之１","E_COORD97":172007.45000000001,"N_COORD97":2570530.0499999998,"ADDRESS":"大屯寮６１號之１","OBJECTID":68271},"geometry":{"x":172007.45000000019,"y":2570530.0500000007}},{"attributes":{"ID":68272,"DIS_CODE":0,"TOWNNAME":"下營區","LI":"大屯里","LIN":"7鄰","STREET":" ","SECT":" ","MAREA":"大屯寮","LANE":" ","ALLEY":" ","HOUSE_NO":"６１號之２","E_COORD97":172001.91,"N_COORD97":2570555.5,"ADDRESS":"大屯寮６１號之２","OBJECTID":68272},"geometry":{"x":172001.91000000108,"y":2570555.5000000019}},{"attributes":{"ID":68273,"DIS_CODE":0,"TOWNNAME":"下營區","LI":"大屯里","LIN":"7鄰","STREET":" ","SECT":" ","MAREA":"大屯寮","LANE":" ","ALLEY":" ","HOUSE_NO":"６１號之３","E_COORD97":172001.45999999999,"N_COORD97":2570560.1699999999,"ADDRESS":"大屯寮６１號之３","OBJECTID":68273},"geometry":{"x":172001.45999999996,"y":2570560.1700000018}},{"attributes":{"ID":68274,"DIS_CODE":0,"TOWNNAME":"北區","LI":"成功里","LIN":"6鄰","STREET":"北安路","SECT":"一段","MAREA":" ","LANE":"１７６巷","ALLEY":"３９弄","HOUSE_NO":"２５號","E_COORD97":168883.10999999999,"N_COORD97":2546587.2999999998,"ADDRESS":"北安路一段１７６巷３９弄２５號","OBJECTID":68274},"geometry":{"x":168883.11000000127,"y":2546587.3000000026}},{"attributes":{"ID":68275,"DIS_CODE":0,"TOWNNAME":"北區","LI":"成功里","LIN":"6鄰","STREET":"北安路","SECT":"一段","MAREA":" ","LANE":"１７６巷","ALLEY":"３９弄","HOUSE_NO":"２７號","E_COORD97":168879.26000000001,"N_COORD97":2546589.54,"ADDRESS":"北安路一段１７６巷３９弄２７號","OBJECTID":68275},"geometry":{"x":168879.26000000164,"y":2546589.5400000028}},{"attributes":{"ID":68276,"DIS_CODE":0,"TOWNNAME":"下營區","LI":"大屯里","LIN":"7鄰","STREET":" ","SECT":" ","MAREA":"大屯寮","LANE":" ","ALLEY":" ","HOUSE_NO":"６１號之４","E_COORD97":171988.04999999999,"N_COORD97":2570573.3999999999,"ADDRESS":"大屯寮６１號之４","OBJECTID":68276},"geometry":{"x":171988.05000000168,"y":2570573.4000000022}},{"attributes":{"ID":68277,"DIS_CODE":0,"TOWNNAME":"下營區","LI":"大屯里","LIN":"7鄰","STREET":" ","SECT":" ","MAREA":"大屯寮","LANE":" ","ALLEY":" ","HOUSE_NO":"６１號","E_COORD97":172004.06,"N_COORD97":2570548.79,"ADDRESS":"大屯寮６１號","OBJECTID":68277},"geometry":{"x":172004.05999999959,"y":2570548.790000001}},{"attributes":{"ID":68278,"DIS_CODE":0,"TOWNNAME":"下營區","LI":"大屯里","LIN":"7鄰","STREET":" ","SECT":" ","MAREA":"大屯寮","LANE":" ","ALLEY":" ","HOUSE_NO":"６２號","E_COORD97":172021.76000000001,"N_COORD97":2570553.4900000002,"ADDRESS":"大屯寮６２號","OBJECTID":68278},"geometry":{"x":172021.75999999978,"y":2570553.4900000002}},{"attributes":{"ID":68279,"DIS_CODE":0,"TOWNNAME":"下營區","LI":"大屯里","LIN":"7鄰","STREET":" ","SECT":" ","MAREA":"大屯寮","LANE":" ","ALLEY":" ","HOUSE_NO":"６３號之２","E_COORD97":172034.79000000001,"N_COORD97":2570538.1200000001,"ADDRESS":"大屯寮６３號之２","OBJECTID":68279},"geometry":{"x":172034.79000000097,"y":2570538.1200000029}},{"attributes":{"ID":68280,"DIS_CODE":0,"TOWNNAME":"下營區","LI":"大屯里","LIN":"7鄰","STREET":" ","SECT":" ","MAREA":"大屯寮","LANE":" ","ALLEY":" ","HOUSE_NO":"６３號","E_COORD97":172023.01999999999,"N_COORD97":2570531.7200000002,"ADDRESS":"大屯寮６３號","OBJECTID":68280},"geometry":{"x":172023.01999999955,"y":2570531.7200000007}},{"attributes":{"ID":68281,"DIS_CODE":0,"TOWNNAME":"七股區","LI":"十份里","LIN":"7鄰","STREET":" ","SECT":" ","MAREA":"十份","LANE":" ","ALLEY":" ","HOUSE_NO":"７０號","E_COORD97":157811.45000000001,"N_COORD97":2555076.25,"ADDRESS":"十份７０號","OBJECTID":68281},"geometry":{"x":157811.45000000019,"y":2555076.2500000019}},{"attributes":{"ID":68282,"DIS_CODE":0,"TOWNNAME":"西港區","LI":"永樂里","LIN":"6鄰","STREET":" ","SECT":" ","MAREA":"大塭寮","LANE":" ","ALLEY":" ","HOUSE_NO":"５５號","E_COORD97":166109.62,"N_COORD97":2556057.3700000001,"ADDRESS":"大塭寮５５號","OBJECTID":68282},"geometry":{"x":166109.62000000104,"y":2556057.370000001}},{"attributes":{"ID":68283,"DIS_CODE":0,"TOWNNAME":"柳營區","LI":"篤農里","LIN":"6鄰","STREET":" ","SECT":" ","MAREA":"小腳腿","LANE":" ","ALLEY":" ","HOUSE_NO":"２２４號之１","E_COORD97":185324.23000000001,"N_COORD97":2576591.2799999998,"ADDRESS":"小腳腿２２４號之１","OBJECTID":68283},"geometry":{"x":185324.23000000138,"y":2576591.2800000012}},{"attributes":{"ID":68284,"DIS_CODE":0,"TOWNNAME":"北區","LI":"成功里","LIN":"6鄰","STREET":"北安路","SECT":"一段","MAREA":" ","LANE":"１７６巷","ALLEY":"３９弄","HOUSE_NO":"２９號","E_COORD97":168875.73000000001,"N_COORD97":2546591.46,"ADDRESS":"北安路一段１７６巷３９弄２９號","OBJECTID":68284},"geometry":{"x":168875.73000000138,"y":2546591.4600000009}},{"attributes":{"ID":68285,"DIS_CODE":0,"TOWNNAME":"北區","LI":"成功里","LIN":"6鄰","STREET":"北安路","SECT":"一段","MAREA":" ","LANE":"１７６巷","ALLEY":"３９弄","HOUSE_NO":"３１號","E_COORD97":168872.53,"N_COORD97":2546593.3799999999,"ADDRESS":"北安路一段１７６巷３９弄３１號","OBJECTID":68285},"geometry":{"x":168872.53000000026,"y":2546593.379999999}},{"attributes":{"ID":68286,"DIS_CODE":0,"TOWNNAME":"北區","LI":"成功里","LIN":"6鄰","STREET":"北安路","SECT":"一段","MAREA":" ","LANE":"１７６巷","ALLEY":"３９弄","HOUSE_NO":"３號","E_COORD97":168921.26999999999,"N_COORD97":2546566.48,"ADDRESS":"北安路一段１７６巷３９弄３號","OBJECTID":68286},"geometry":{"x":168921.27000000142,"y":2546566.4800000004}},{"attributes":{"ID":68287,"DIS_CODE":0,"TOWNNAME":"北區","LI":"成功里","LIN":"6鄰","STREET":"北安路","SECT":"一段","MAREA":" ","LANE":"１７６巷","ALLEY":"３９弄","HOUSE_NO":"５號","E_COORD97":168917.73999999999,"N_COORD97":2546568.7200000002,"ADDRESS":"北安路一段１７６巷３９弄５號","OBJECTID":68287},"geometry":{"x":168917.74000000115,"y":2546568.7200000007}},{"attributes":{"ID":68288,"DIS_CODE":0,"TOWNNAME":"北區","LI":"成功里","LIN":"6鄰","STREET":"北安路","SECT":"一段","MAREA":" ","LANE":"１７６巷","ALLEY":"３９弄","HOUSE_NO":"７號","E_COORD97":168913.57000000001,"N_COORD97":2546569.6800000002,"ADDRESS":"北安路一段１７６巷３９弄７號","OBJECTID":68288},"geometry":{"x":168913.57000000123,"y":2546569.6800000016}},{"attributes":{"ID":68289,"DIS_CODE":0,"TOWNNAME":"北區","LI":"成功里","LIN":"6鄰","STREET":"北安路","SECT":"一段","MAREA":" ","LANE":"１７６巷","ALLEY":"３９弄","HOUSE_NO":"９號","E_COORD97":168910.67999999999,"N_COORD97":2546571.9300000002,"ADDRESS":"北安路一段１７６巷３９弄９號","OBJECTID":68289},"geometry":{"x":168910.68000000063,"y":2546571.9300000016}},{"attributes":{"ID":68290,"DIS_CODE":0,"TOWNNAME":"下營區","LI":"仁里里","LIN":"7鄰","STREET":"九分街","SECT":" ","MAREA":" ","LANE":" ","ALLEY":" ","HOUSE_NO":"１３號","E_COORD97":174158.85000000001,"N_COORD97":2570207.6099999999,"ADDRESS":"九分街１３號","OBJECTID":68290},"geometry":{"x":174158.8499999987,"y":2570207.6100000013}},{"attributes":{"ID":68291,"DIS_CODE":0,"TOWNNAME":"下營區","LI":"仁里里","LIN":"7鄰","STREET":"九分街","SECT":" ","MAREA":" ","LANE":" ","ALLEY":" ","HOUSE_NO":"１號","E_COORD97":174167.79000000001,"N_COORD97":2570250.2599999998,"ADDRESS":"九分街１號","OBJECTID":68291},"geometry":{"x":174167.79000000004,"y":2570250.2600000035}},{"attributes":{"ID":68292,"DIS_CODE":0,"TOWNNAME":"北區","LI":"力行里","LIN":"6鄰","STREET":"開南街","SECT":" ","MAREA":" ","LANE":"２７５巷","ALLEY":"７弄","HOUSE_NO":"５號","E_COORD97":170937.48999999999,"N_COORD97":2545061.21,"ADDRESS":"開南街２７５巷７弄５號","OBJECTID":68292},"geometry":{"x":170937.49000000022,"y":2545061.2100000046}},{"attributes":{"ID":68293,"DIS_CODE":0,"TOWNNAME":"北區","LI":"力行里","LIN":"6鄰","STREET":"開南街","SECT":" ","MAREA":" ","LANE":"２７５巷","ALLEY":"５弄","HOUSE_NO":"１６號","E_COORD97":170912.20999999999,"N_COORD97":2545042.48,"ADDRESS":"開南街２７５巷５弄１６號","OBJECTID":68293},"geometry":{"x":170912.21000000183,"y":2545042.4800000023}},{"attributes":{"ID":68294,"DIS_CODE":0,"TOWNNAME":"北區","LI":"力行里","LIN":"6鄰","STREET":"開南街","SECT":" ","MAREA":" ","LANE":"２７５巷","ALLEY":"５弄","HOUSE_NO":"１７號","E_COORD97":170906.17000000001,"N_COORD97":2545031.6800000002,"ADDRESS":"開南街２７５巷５弄１７號","OBJECTID":68294},"geometry":{"x":170906.17000000086,"y":2545031.6799999997}},{"attributes":{"ID":68295,"DIS_CODE":0,"TOWNNAME":"北區","LI":"力行里","LIN":"6鄰","STREET":"開南街","SECT":" ","MAREA":" ","LANE":"２７５巷","ALLEY":"５弄","HOUSE_NO":"１８號","E_COORD97":170906.97,"N_COORD97":2545043.75,"ADDRESS":"開南街２７５巷５弄１８號","OBJECTID":68295},"geometry":{"x":170906.9700000016,"y":2545043.7500000019}},{"attributes":{"ID":68296,"DIS_CODE":0,"TOWNNAME":"北區","LI":"力行里","LIN":"6鄰","STREET":"開南街","SECT":" ","MAREA":" ","LANE":"２７５巷","ALLEY":"５弄","HOUSE_NO":"１９號","E_COORD97":170901.23999999999,"N_COORD97":2545031.8399999999,"ADDRESS":"開南街２７５巷５弄１９號","OBJECTID":68296},"geometry":{"x":170901.24000000115,"y":2545031.8399999999}},{"attributes":{"ID":68297,"DIS_CODE":0,"TOWNNAME":"新市區","LI":"新和里","LIN":"7鄰","STREET":"富強路","SECT":" ","MAREA":" ","LANE":" ","ALLEY":" ","HOUSE_NO":"６１號","E_COORD97":177256.95000000001,"N_COORD97":2552406,"ADDRESS":"富強路６１號","OBJECTID":68297},"geometry":{"x":177256.95000000019,"y":2552406.0000000019}},{"attributes":{"ID":68298,"DIS_CODE":0,"TOWNNAME":"新市區","LI":"社內里","LIN":"7鄰","STREET":" ","SECT":" ","MAREA":"社內","LANE":" ","ALLEY":" ","HOUSE_NO":"７２之１２號","E_COORD97":176618,"N_COORD97":2552828.7999999998,"ADDRESS":"社內７２之１２號","OBJECTID":68298},"geometry":{"x":176618.00000000186,"y":2552828.8000000026}},{"attributes":{"ID":68299,"DIS_CODE":0,"TOWNNAME":"新市區","LI":"豐華里","LIN":"7鄰","STREET":" ","SECT":" ","MAREA":"豐華","LANE":" ","ALLEY":" ","HOUSE_NO":"５６之２號","E_COORD97":175325.76999999999,"N_COORD97":2554115.2999999998,"ADDRESS":"豐華５６之２號","OBJECTID":68299},"geometry":{"x":175325.77000000142,"y":2554115.3000000007}},{"attributes":{"ID":68300,"DIS_CODE":0,"TOWNNAME":"新市區","LI":"社內里","LIN":"7鄰","STREET":" ","SECT":" ","MAREA":"社內","LANE":" ","ALLEY":" ","HOUSE_NO":"７１之１１號","E_COORD97":176567.37,"N_COORD97":2552730.0499999998,"ADDRESS":"社內７１之１１號","OBJECTID":68300},"geometry":{"x":176567.37000000011,"y":2552730.0500000007}},{"attributes":{"ID":68301,"DIS_CODE":0,"TOWNNAME":"新市區","LI":"社內里","LIN":"7鄰","STREET":" ","SECT":" ","MAREA":"社內","LANE":" ","ALLEY":" ","HOUSE_NO":"６８號","E_COORD97":176643.69,"N_COORD97":2552760.75,"ADDRESS":"社內６８號","OBJECTID":68301},"geometry":{"x":176643.69000000041,"y":2552760.7500000019}},{"attributes":{"ID":68302,"DIS_CODE":0,"TOWNNAME":"新市區","LI":"社內里","LIN":"7鄰","STREET":" ","SECT":" ","MAREA":"社內","LANE":" ","ALLEY":" ","HOUSE_NO":"７１之８號","E_COORD97":176569.67000000001,"N_COORD97":2552712.0499999998,"ADDRESS":"社內７１之８號","OBJECTID":68302},"geometry":{"x":176569.67000000086,"y":2552712.0500000026}},{"attributes":{"ID":68303,"DIS_CODE":0,"TOWNNAME":"新市區","LI":"新和里","LIN":"7鄰","STREET":"富強路","SECT":" ","MAREA":" ","LANE":" ","ALLEY":" ","HOUSE_NO":"７１號","E_COORD97":177238.48999999999,"N_COORD97":2552393.75,"ADDRESS":"富強路７１號","OBJECTID":68303},"geometry":{"x":177238.49000000022,"y":2552393.7500000019}},{"attributes":{"ID":68304,"DIS_CODE":0,"TOWNNAME":"新市區","LI":"新和里","LIN":"7鄰","STREET":"富強路","SECT":" ","MAREA":" ","LANE":" ","ALLEY":" ","HOUSE_NO":"１０６號","E_COORD97":177106.57000000001,"N_COORD97":2552298.25,"ADDRESS":"富強路１０６號","OBJECTID":68304},"geometry":{"x":177106.57000000123,"y":2552298.2499999981}},{"attributes":{"ID":68305,"DIS_CODE":0,"TOWNNAME":"新市區","LI":"新市里","LIN":"7鄰","STREET":"中正路","SECT":" ","MAREA":" ","LANE":" ","ALLEY":" ","HOUSE_NO":"２８２號","E_COORD97":177459.10000000001,"N_COORD97":2553050.75,"ADDRESS":"中正路２８２號","OBJECTID":68305},"geometry":{"x":177459.09999999963,"y":2553050.75}},{"attributes":{"ID":68306,"DIS_CODE":0,"TOWNNAME":"北區","LI":"力行里","LIN":"6鄰","STREET":"開南街","SECT":" ","MAREA":" ","LANE":"２７５巷","ALLEY":"５弄","HOUSE_NO":"１號","E_COORD97":170944.95999999999,"N_COORD97":2545028.8300000001,"ADDRESS":"開南街２７５巷５弄１號","OBJECTID":68306},"geometry":{"x":170944.96000000089,"y":2545028.8299999982}},{"attributes":{"ID":68307,"DIS_CODE":0,"TOWNNAME":"北區","LI":"力行里","LIN":"6鄰","STREET":"開南街","SECT":" ","MAREA":" ","LANE":"２７５巷","ALLEY":"５弄","HOUSE_NO":"２０號","E_COORD97":170903.31,"N_COORD97":2545043.4300000002,"ADDRESS":"開南街２７５巷５弄２０號","OBJECTID":68307},"geometry":{"x":170903.31000000052,"y":2545043.4299999997}},{"attributes":{"ID":68308,"DIS_CODE":0,"TOWNNAME":"北區","LI":"力行里","LIN":"6鄰","STREET":"開南街","SECT":" ","MAREA":" ","LANE":"２７５巷","ALLEY":"５弄","HOUSE_NO":"２２號","E_COORD97":170898.22,"N_COORD97":2545044.3799999999,"ADDRESS":"開南街２７５巷５弄２２號","OBJECTID":68308},"geometry":{"x":170898.21999999974,"y":2545044.3800000027}},{"attributes":{"ID":68309,"DIS_CODE":0,"TOWNNAME":"北區","LI":"力行里","LIN":"6鄰","STREET":"開南街","SECT":" ","MAREA":" ","LANE":"２７５巷","ALLEY":"５弄","HOUSE_NO":"２３號","E_COORD97":170891.85999999999,"N_COORD97":2545032.9500000002,"ADDRESS":"開南街２７５巷５弄２３號","OBJECTID":68309},"geometry":{"x":170891.86000000127,"y":2545032.9499999993}},{"attributes":{"ID":68310,"DIS_CODE":0,"TOWNNAME":"北區","LI":"力行里","LIN":"6鄰","STREET":"開南街","SECT":" ","MAREA":" ","LANE":"２７５巷","ALLEY":"５弄","HOUSE_NO":"２４號","E_COORD97":170892.34,"N_COORD97":2545044.3799999999,"ADDRESS":"開南街２７５巷５弄２４號","OBJECTID":68310},"geometry":{"x":170892.33999999985,"y":2545044.3800000027}},{"attributes":{"ID":68311,"DIS_CODE":0,"TOWNNAME":"北區","LI":"力行里","LIN":"6鄰","STREET":"開南街","SECT":" ","MAREA":" ","LANE":"２７５巷","ALLEY":"５弄","HOUSE_NO":"２５號","E_COORD97":170887.09,"N_COORD97":2545032.9500000002,"ADDRESS":"開南街２７５巷５弄２５號","OBJECTID":68311},"geometry":{"x":170887.08999999985,"y":2545032.9499999993}},{"attributes":{"ID":68312,"DIS_CODE":0,"TOWNNAME":"北區","LI":"力行里","LIN":"6鄰","STREET":"開南街","SECT":" ","MAREA":" ","LANE":"２７５巷","ALLEY":"５弄","HOUSE_NO":"２６號","E_COORD97":170887.57000000001,"N_COORD97":2545045.02,"ADDRESS":"開南街２７５巷５弄２６號","OBJECTID":68312},"geometry":{"x":170887.5700000003,"y":2545045.0200000014}},{"attributes":{"ID":68313,"DIS_CODE":0,"TOWNNAME":"北區","LI":"力行里","LIN":"6鄰","STREET":"開南街","SECT":" ","MAREA":" ","LANE":"２７５巷","ALLEY":"５弄","HOUSE_NO":"２７號","E_COORD97":170882.48000000001,"N_COORD97":2545033.1099999999,"ADDRESS":"開南街２７５巷５弄２７號","OBJECTID":68313},"geometry":{"x":170882.48000000138,"y":2545033.1100000031}},{"attributes":{"ID":68314,"DIS_CODE":0,"TOWNNAME":"北區","LI":"力行里","LIN":"6鄰","STREET":"開南街","SECT":" ","MAREA":" ","LANE":"２７５巷","ALLEY":"５弄","HOUSE_NO":"２８號","E_COORD97":170884.07000000001,"N_COORD97":2545045.3399999999,"ADDRESS":"開南街２７５巷５弄２８號","OBJECTID":68314},"geometry":{"x":170884.0700000003,"y":2545045.3399999999}},{"attributes":{"ID":68315,"DIS_CODE":0,"TOWNNAME":"北區","LI":"力行里","LIN":"6鄰","STREET":"開南街","SECT":" ","MAREA":" ","LANE":"２７５巷","ALLEY":"５弄","HOUSE_NO":"２號","E_COORD97":170946.39000000001,"N_COORD97":2545040.4199999999,"ADDRESS":"開南街２７５巷５弄２號","OBJECTID":68315},"geometry":{"x":170946.39000000153,"y":2545040.4199999999}},{"attributes":{"ID":68316,"DIS_CODE":0,"TOWNNAME":"北區","LI":"力行里","LIN":"6鄰","STREET":"開南街","SECT":" ","MAREA":" ","LANE":"２７５巷","ALLEY":"５弄","HOUSE_NO":"３號","E_COORD97":170939.54999999999,"N_COORD97":2545028.8300000001,"ADDRESS":"開南街２７５巷５弄３號","OBJECTID":68316},"geometry":{"x":170939.54999999981,"y":2545028.8299999982}},{"attributes":{"ID":68317,"DIS_CODE":0,"TOWNNAME":"仁德區","LI":"仁義里","LIN":" ","STREET":"義林路","SECT":" ","MAREA":" ","LANE":" ","ALLEY":" ","HOUSE_NO":"２８１號","E_COORD97":174568.04999999999,"N_COORD97":2541412.2599999998,"ADDRESS":"義林路２８１號","OBJECTID":68317},"geometry":{"x":174568.05000000168,"y":2541412.2600000016}},{"attributes":{"ID":68318,"DIS_CODE":0,"TOWNNAME":"仁德區","LI":"大甲里","LIN":" ","STREET":"行大街","SECT":" ","MAREA":" ","LANE":" ","ALLEY":" ","HOUSE_NO":"３７５之１號","E_COORD97":169539.38,"N_COORD97":2535208.54,"ADDRESS":"行大街３７５之１號","OBJECTID":68318},"geometry":{"x":169539.37999999989,"y":2535208.540000001}},{"attributes":{"ID":68319,"DIS_CODE":0,"TOWNNAME":"仁德區","LI":"後壁里","LIN":" ","STREET":"德洋路","SECT":" ","MAREA":" ","LANE":" ","ALLEY":" ","HOUSE_NO":"５７號","E_COORD97":173067.07999999999,"N_COORD97":2539054.27,"ADDRESS":"德洋路５７號","OBJECTID":68319},"geometry":{"x":173067.08000000007,"y":2539054.2699999996}},{"attributes":{"ID":68320,"DIS_CODE":0,"TOWNNAME":"仁德區","LI":"保安里","LIN":" ","STREET":"文賢路","SECT":"一段","MAREA":" ","LANE":" ","ALLEY":" ","HOUSE_NO":"７５１號","E_COORD97":171479.54000000001,"N_COORD97":2536198.8300000001,"ADDRESS":"文賢路一段７５１號","OBJECTID":68320},"geometry":{"x":171479.54000000004,"y":2536198.8300000001}},{"attributes":{"ID":68321,"DIS_CODE":0,"TOWNNAME":"仁德區","LI":"保安里","LIN":" ","STREET":"文賢路","SECT":"一段","MAREA":" ","LANE":" ","ALLEY":" ","HOUSE_NO":"７５０號","E_COORD97":171338.17000000001,"N_COORD97":2536356.3199999998,"ADDRESS":"文賢路一段７５０號","OBJECTID":68321},"geometry":{"x":171338.17000000086,"y":2536356.3200000003}},{"attributes":{"ID":68322,"DIS_CODE":0,"TOWNNAME":"仁德區","LI":"仁義里","LIN":" ","STREET":"中正路","SECT":"二段","MAREA":" ","LANE":" ","ALLEY":" ","HOUSE_NO":"９８６號","E_COORD97":173430.98999999999,"N_COORD97":2540768.77,"ADDRESS":"中正路二段９８６號","OBJECTID":68322},"geometry":{"x":173430.99000000022,"y":2540768.7700000014}},{"attributes":{"ID":68323,"DIS_CODE":0,"TOWNNAME":"仁德區","LI":"仁德里","LIN":" ","STREET":"中山路","SECT":" ","MAREA":" ","LANE":" ","ALLEY":" ","HOUSE_NO":"８５４號","E_COORD97":172344.84,"N_COORD97":2541645.75,"ADDRESS":"中山路８５４號","OBJECTID":68323},"geometry":{"x":172344.83999999985,"y":2541645.7499999981}},{"attributes":{"ID":68324,"DIS_CODE":0,"TOWNNAME":"北區","LI":"力行里","LIN":"6鄰","STREET":"開南街","SECT":" ","MAREA":" ","LANE":"２７５巷","ALLEY":"５弄","HOUSE_NO":"４號","E_COORD97":170940.67000000001,"N_COORD97":2545040.8900000001,"ADDRESS":"開南街２７５巷５弄４號","OBJECTID":68324},"geometry":{"x":170940.66999999993,"y":2545040.8900000025}},{"attributes":{"ID":68325,"DIS_CODE":0,"TOWNNAME":"北區","LI":"力行里","LIN":"6鄰","STREET":"開南街","SECT":" ","MAREA":" ","LANE":"２７５巷","ALLEY":"５弄","HOUSE_NO":"５號","E_COORD97":170933.82999999999,"N_COORD97":2545029.2999999998,"ADDRESS":"開南街２７５巷５弄５號","OBJECTID":68325},"geometry":{"x":170933.83000000101,"y":2545029.3000000007}},{"attributes":{"ID":68326,"DIS_CODE":0,"TOWNNAME":"北區","LI":"力行里","LIN":"6鄰","STREET":"開南街","SECT":" ","MAREA":" ","LANE":"２７５巷","ALLEY":"５弄","HOUSE_NO":"６號","E_COORD97":170936.22,"N_COORD97":2545041.3700000001,"ADDRESS":"開南街２７５巷５弄６號","OBJECTID":68326},"geometry":{"x":170936.22000000067,"y":2545041.3700000029}},{"attributes":{"ID":68327,"DIS_CODE":0,"TOWNNAME":"北區","LI":"力行里","LIN":"6鄰","STREET":"開南街","SECT":" ","MAREA":" ","LANE":"２７５巷","ALLEY":"５弄","HOUSE_NO":"７號","E_COORD97":170929.85999999999,"N_COORD97":2545029.46,"ADDRESS":"開南街２７５巷５弄７號","OBJECTID":68327},"geometry":{"x":170929.86000000034,"y":2545029.4600000028}},{"attributes":{"ID":68328,"DIS_CODE":0,"TOWNNAME":"北區","LI":"力行里","LIN":"6鄰","STREET":"開南街","SECT":" ","MAREA":" ","LANE":"２７５巷","ALLEY":"５弄","HOUSE_NO":"８號","E_COORD97":170931.60999999999,"N_COORD97":2545041.21,"ADDRESS":"開南街２７５巷５弄８號","OBJECTID":68328},"geometry":{"x":170931.61000000034,"y":2545041.2100000028}},{"attributes":{"ID":68329,"DIS_CODE":0,"TOWNNAME":"北區","LI":"力行里","LIN":"6鄰","STREET":"開南街","SECT":" ","MAREA":" ","LANE":"２７５巷","ALLEY":"５弄","HOUSE_NO":"９號","E_COORD97":170925.09,"N_COORD97":2545029.9399999999,"ADDRESS":"開南街２７５巷５弄９號","OBJECTID":68329},"geometry":{"x":170925.09000000078,"y":2545029.9399999995}},{"attributes":{"ID":68330,"DIS_CODE":0,"TOWNNAME":"北區","LI":"力行里","LIN":"6鄰","STREET":"開南街","SECT":" ","MAREA":" ","LANE":"２７５巷","ALLEY":"７弄","HOUSE_NO":"１０號","E_COORD97":170923.34,"N_COORD97":2545074,"ADDRESS":"開南街２７５巷７弄１０號","OBJECTID":68330},"geometry":{"x":170923.34000000078,"y":2545074}},{"attributes":{"ID":68331,"DIS_CODE":0,"TOWNNAME":"北區","LI":"力行里","LIN":"6鄰","STREET":"開南街","SECT":" ","MAREA":" ","LANE":"２７５巷","ALLEY":"７弄","HOUSE_NO":"１１號","E_COORD97":170923.17999999999,"N_COORD97":2545062.1699999999,"ADDRESS":"開南街２７５巷７弄１１號","OBJECTID":68331},"geometry":{"x":170923.18000000063,"y":2545062.1699999999}},{"attributes":{"ID":68332,"DIS_CODE":0,"TOWNNAME":"北區","LI":"力行里","LIN":"6鄰","STREET":"開南街","SECT":" ","MAREA":" ","LANE":"２７５巷","ALLEY":"７弄","HOUSE_NO":"１２號","E_COORD97":170916.66,"N_COORD97":2545074.96,"ADDRESS":"開南街２７５巷７弄１２號","OBJECTID":68332},"geometry":{"x":170916.66000000108,"y":2545074.9600000009}},{"attributes":{"ID":68333,"DIS_CODE":0,"TOWNNAME":"北區","LI":"力行里","LIN":"6鄰","STREET":"開南街","SECT":" ","MAREA":" ","LANE":"２７５巷","ALLEY":"７弄","HOUSE_NO":"１３號","E_COORD97":170918.57000000001,"N_COORD97":2545062.6400000001,"ADDRESS":"開南街２７５巷７弄１３號","OBJECTID":68333},"geometry":{"x":170918.56999999937,"y":2545062.6400000025}},{"attributes":{"ID":68334,"DIS_CODE":0,"TOWNNAME":"北區","LI":"力行里","LIN":"6鄰","STREET":"開南街","SECT":" ","MAREA":" ","LANE":"２７５巷","ALLEY":"７弄","HOUSE_NO":"１４號","E_COORD97":170909.51000000001,"N_COORD97":2545075.27,"ADDRESS":"開南街２７５巷７弄１４號","OBJECTID":68334},"geometry":{"x":170909.50999999978,"y":2545075.2699999996}},{"attributes":{"ID":68335,"DIS_CODE":0,"TOWNNAME":"仁德區","LI":"仁義里","LIN":" ","STREET":"仁義六街","SECT":" ","MAREA":" ","LANE":" ","ALLEY":" ","HOUSE_NO":"１３號","E_COORD97":173582.92000000001,"N_COORD97":2540108.02,"ADDRESS":"仁義六街１３號","OBJECTID":68335},"geometry":{"x":173582.92000000086,"y":2540108.0200000033}},{"attributes":{"ID":68336,"DIS_CODE":0,"TOWNNAME":"仁德區","LI":"仁義里","LIN":" ","STREET":"勝利路","SECT":" ","MAREA":" ","LANE":" ","ALLEY":" ","HOUSE_NO":"６９號","E_COORD97":173568.92999999999,"N_COORD97":2539933.25,"ADDRESS":"勝利路６９號","OBJECTID":68336},"geometry":{"x":173568.93000000063,"y":2539933.25}},{"attributes":{"ID":68337,"DIS_CODE":0,"TOWNNAME":"仁德區","LI":"仁義里","LIN":" ","STREET":"勝利路","SECT":" ","MAREA":" ","LANE":" ","ALLEY":" ","HOUSE_NO":"５１號","E_COORD97":173524.73000000001,"N_COORD97":2539994.0099999998,"ADDRESS":"勝利路５１號","OBJECTID":68337},"geometry":{"x":173524.73000000045,"y":2539994.0100000016}},{"attributes":{"ID":68338,"DIS_CODE":0,"TOWNNAME":"北區","LI":"力行里","LIN":"6鄰","STREET":"開南街","SECT":" ","MAREA":" ","LANE":"２７５巷","ALLEY":"７弄","HOUSE_NO":"１５號","E_COORD97":170913.17000000001,"N_COORD97":2545062.3199999998,"ADDRESS":"開南街２７５巷７弄１５號","OBJECTID":68338},"geometry":{"x":170913.17000000086,"y":2545062.3200000003}},{"attributes":{"ID":68339,"DIS_CODE":0,"TOWNNAME":"北區","LI":"力行里","LIN":"6鄰","STREET":"開南街","SECT":" ","MAREA":" ","LANE":"２７５巷","ALLEY":"７弄","HOUSE_NO":"１６號","E_COORD97":170906.01000000001,"N_COORD97":2545076.0699999998,"ADDRESS":"開南街２７５巷７弄１６號","OBJECTID":68339},"geometry":{"x":170906.00999999978,"y":2545076.0700000022}},{"attributes":{"ID":68340,"DIS_CODE":0,"TOWNNAME":"北區","LI":"力行里","LIN":"6鄰","STREET":"開南街","SECT":" ","MAREA":" ","LANE":"２７５巷","ALLEY":"７弄","HOUSE_NO":"１７號","E_COORD97":170908.70999999999,"N_COORD97":2545063.75,"ADDRESS":"開南街２７５巷７弄１７號","OBJECTID":68340},"geometry":{"x":170908.70999999996,"y":2545063.7500000019}},{"attributes":{"ID":68341,"DIS_CODE":0,"TOWNNAME":"北區","LI":"力行里","LIN":"6鄰","STREET":"開南街","SECT":" ","MAREA":" ","LANE":"２７５巷","ALLEY":"７弄","HOUSE_NO":"１８號","E_COORD97":170899.5,"N_COORD97":2545076.23,"ADDRESS":"開南街２７５巷７弄１８號","OBJECTID":68341},"geometry":{"x":170899.5,"y":2545076.2300000004}},{"attributes":{"ID":68342,"DIS_CODE":0,"TOWNNAME":"北區","LI":"力行里","LIN":"6鄰","STREET":"開南街","SECT":" ","MAREA":" ","LANE":"２７５巷","ALLEY":"７弄","HOUSE_NO":"１９號","E_COORD97":170904.89999999999,"N_COORD97":2545063.2799999998,"ADDRESS":"開南街２７５巷７弄１９號","OBJECTID":68342},"geometry":{"x":170904.9000000013,"y":2545063.2800000012}},{"attributes":{"ID":68343,"DIS_CODE":0,"TOWNNAME":"北區","LI":"力行里","LIN":"6鄰","STREET":"開南街","SECT":" ","MAREA":" ","LANE":"２７５巷","ALLEY":"７弄","HOUSE_NO":"１號","E_COORD97":170946.87,"N_COORD97":2545060.8999999999,"ADDRESS":"開南街２７５巷７弄１號","OBJECTID":68343},"geometry":{"x":170946.86999999918,"y":2545060.9000000022}},{"attributes":{"ID":68344,"DIS_CODE":0,"TOWNNAME":"北區","LI":"力行里","LIN":"6鄰","STREET":"開南街","SECT":" ","MAREA":" ","LANE":"２７５巷","ALLEY":"７弄","HOUSE_NO":"２０號","E_COORD97":170891.70999999999,"N_COORD97":2545076.54,"ADDRESS":"開南街２７５巷７弄２０號","OBJECTID":68344},"geometry":{"x":170891.70999999996,"y":2545076.5399999991}},{"attributes":{"ID":68345,"DIS_CODE":0,"TOWNNAME":"仁德區","LI":"保安里","LIN":" ","STREET":"文賢路","SECT":"一段","MAREA":" ","LANE":" ","ALLEY":" ","HOUSE_NO":"７００號","E_COORD97":171247.69,"N_COORD97":2536443.3199999998,"ADDRESS":"文賢路一段７００號","OBJECTID":68345},"geometry":{"x":171247.69000000041,"y":2536443.3200000003}},{"attributes":{"ID":68346,"DIS_CODE":0,"TOWNNAME":"仁德區","LI":"二行里","LIN":" ","STREET":"二行一路","SECT":" ","MAREA":" ","LANE":" ","ALLEY":" ","HOUSE_NO":"１８之３號","E_COORD97":170414.67999999999,"N_COORD97":2535258.0499999998,"ADDRESS":"二行一路１８之３號","OBJECTID":68346},"geometry":{"x":170414.6799999997,"y":2535258.0500000026}},{"attributes":{"ID":68347,"DIS_CODE":0,"TOWNNAME":"七股區","LI":"七股里","LIN":"7鄰","STREET":" ","SECT":" ","MAREA":"七股","LANE":" ","ALLEY":" ","HOUSE_NO":"６３號","E_COORD97":160853.73999999999,"N_COORD97":2559463.27,"ADDRESS":"七股６３號","OBJECTID":68347},"geometry":{"x":160853.74000000115,"y":2559463.2700000014}},{"attributes":{"ID":68348,"DIS_CODE":0,"TOWNNAME":"北區","LI":"力行里","LIN":"6鄰","STREET":"開南街","SECT":" ","MAREA":" ","LANE":"２７５巷","ALLEY":"７弄","HOUSE_NO":"２１號","E_COORD97":170899.17999999999,"N_COORD97":2545064.5499999998,"ADDRESS":"開南街２７５巷７弄２１號","OBJECTID":68348},"geometry":{"x":170899.18000000063,"y":2545064.5500000007}},{"attributes":{"ID":68349,"DIS_CODE":0,"TOWNNAME":"北區","LI":"力行里","LIN":"6鄰","STREET":"開南街","SECT":" ","MAREA":" ","LANE":"２７５巷","ALLEY":"７弄","HOUSE_NO":"２２號","E_COORD97":170895.20000000001,"N_COORD97":2545095.5899999999,"ADDRESS":"開南街２７５巷７弄２２號","OBJECTID":68349},"geometry":{"x":170895.20000000019,"y":2545095.5900000017}},{"attributes":{"ID":68350,"DIS_CODE":0,"TOWNNAME":"北區","LI":"力行里","LIN":"6鄰","STREET":"開南街","SECT":" ","MAREA":" ","LANE":"２７５巷","ALLEY":"７弄","HOUSE_NO":"２３號","E_COORD97":170894.25,"N_COORD97":2545064.23,"ADDRESS":"開南街２７５巷７弄２３號","OBJECTID":68350},"geometry":{"x":170894.25,"y":2545064.2300000042}},{"attributes":{"ID":68351,"DIS_CODE":0,"TOWNNAME":"安南區","LI":"\u25A0田里","LIN":"7鄰","STREET":"工業二路","SECT":" ","MAREA":" ","LANE":" ","ALLEY":" ","HOUSE_NO":"２１號","E_COORD97":163639.14000000001,"N_COORD97":2548477.6699999999,"ADDRESS":"工業二路２１號","OBJECTID":68351},"geometry":{"x":163639.1400000006,"y":2548477.6699999999}},{"attributes":{"ID":68352,"DIS_CODE":0,"TOWNNAME":"七股區","LI":"七股里","LIN":"7鄰","STREET":" ","SECT":" ","MAREA":"七股","LANE":" ","ALLEY":" ","HOUSE_NO":"６４號之１","E_COORD97":160843.76999999999,"N_COORD97":2559464.02,"ADDRESS":"七股６４號之１","OBJECTID":68352},"geometry":{"x":160843.77000000142,"y":2559464.0200000014}},{"attributes":{"ID":68353,"DIS_CODE":0,"TOWNNAME":"安南區","LI":"青草里","LIN":"7鄰","STREET":"青砂街","SECT":"二段","MAREA":" ","LANE":" ","ALLEY":" ","HOUSE_NO":"８９１之２２號","E_COORD97":157836.51000000001,"N_COORD97":2552639.8399999999,"ADDRESS":"青砂街二段８９１之２２號","OBJECTID":68353},"geometry":{"x":157836.50999999978,"y":2552639.8399999999}},{"attributes":{"ID":68354,"DIS_CODE":0,"TOWNNAME":"七股區","LI":"七股里","LIN":"7鄰","STREET":" ","SECT":" ","MAREA":"七股","LANE":" ","ALLEY":" ","HOUSE_NO":"６４號","E_COORD97":160842.32999999999,"N_COORD97":2559456,"ADDRESS":"七股６４號","OBJECTID":68354},"geometry":{"x":160842.33000000101,"y":2559456}},{"attributes":{"ID":68355,"DIS_CODE":0,"TOWNNAME":"仁德區","LI":"新田里","LIN":" ","STREET":"中正路","SECT":"二段","MAREA":" ","LANE":" ","ALLEY":" ","HOUSE_NO":"３９７號","E_COORD97":173279.76000000001,"N_COORD97":2539337.77,"ADDRESS":"中正路二段３９７號","OBJECTID":68355},"geometry":{"x":173279.75999999978,"y":2539337.7700000014}},{"attributes":{"ID":68356,"DIS_CODE":0,"TOWNNAME":"仁德區","LI":"大甲里","LIN":" ","STREET":"行大一街","SECT":" ","MAREA":" ","LANE":" ","ALLEY":" ","HOUSE_NO":"２６３號","E_COORD97":169771.17999999999,"N_COORD97":2534983.9900000002,"ADDRESS":"行大一街２６３號","OBJECTID":68356},"geometry":{"x":169771.1799999997,"y":2534983.9900000021}},{"attributes":{"ID":68357,"DIS_CODE":0,"TOWNNAME":"七股區","LI":"十份里","LIN":"7鄰","STREET":" ","SECT":" ","MAREA":"十份","LANE":" ","ALLEY":" ","HOUSE_NO":"７１號","E_COORD97":157862.17000000001,"N_COORD97":2555088.1400000001,"ADDRESS":"十份７１號","OBJECTID":68357},"geometry":{"x":157862.16999999993,"y":2555088.1400000025}},{"attributes":{"ID":68358,"DIS_CODE":0,"TOWNNAME":"七股區","LI":"十份里","LIN":"7鄰","STREET":" ","SECT":" ","MAREA":"十份","LANE":" ","ALLEY":" ","HOUSE_NO":"７２號","E_COORD97":157892.64000000001,"N_COORD97":2555125.3599999999,"ADDRESS":"十份７２號","OBJECTID":68358},"geometry":{"x":157892.63999999966,"y":2555125.3600000013}},{"attributes":{"ID":68359,"DIS_CODE":0,"TOWNNAME":"七股區","LI":"十份里","LIN":"7鄰","STREET":" ","SECT":" ","MAREA":"十份","LANE":" ","ALLEY":" ","HOUSE_NO":"７３號之６","E_COORD97":157948.42000000001,"N_COORD97":2555097.6099999999,"ADDRESS":"十份７３號之６","OBJECTID":68359},"geometry":{"x":157948.42000000086,"y":2555097.6099999994}},{"attributes":{"ID":68360,"DIS_CODE":0,"TOWNNAME":"北區","LI":"力行里","LIN":"6鄰","STREET":"開南街","SECT":" ","MAREA":" ","LANE":"２７５巷","ALLEY":"７弄","HOUSE_NO":"２４號","E_COORD97":170900.92999999999,"N_COORD97":2545095.5899999999,"ADDRESS":"開南街２７５巷７弄２４號","OBJECTID":68360},"geometry":{"x":170900.93000000063,"y":2545095.5900000017}},{"attributes":{"ID":68361,"DIS_CODE":0,"TOWNNAME":"北區","LI":"力行里","LIN":"6鄰","STREET":"開南街","SECT":" ","MAREA":" ","LANE":"２７５巷","ALLEY":"７弄","HOUSE_NO":"２５號","E_COORD97":170890.10999999999,"N_COORD97":2545064.5499999998,"ADDRESS":"開南街２７５巷７弄２５號","OBJECTID":68361},"geometry":{"x":170890.11000000127,"y":2545064.5500000007}},{"attributes":{"ID":68362,"DIS_CODE":0,"TOWNNAME":"北區","LI":"力行里","LIN":"6鄰","STREET":"開南街","SECT":" ","MAREA":" ","LANE":"２７５巷","ALLEY":"７弄","HOUSE_NO":"２６號","E_COORD97":170906.97,"N_COORD97":2545094.7999999998,"ADDRESS":"開南街２７５巷７弄２６號","OBJECTID":68362},"geometry":{"x":170906.9700000016,"y":2545094.8000000026}},{"attributes":{"ID":68363,"DIS_CODE":0,"TOWNNAME":"北區","LI":"力行里","LIN":"6鄰","STREET":"開南街","SECT":" ","MAREA":" ","LANE":"２７５巷","ALLEY":"７弄","HOUSE_NO":"２７號","E_COORD97":170886.14000000001,"N_COORD97":2545065.6600000001,"ADDRESS":"開南街２７５巷７弄２７號","OBJECTID":68363},"geometry":{"x":170886.1400000006,"y":2545065.660000002}},{"attributes":{"ID":68364,"DIS_CODE":0,"TOWNNAME":"北區","LI":"力行里","LIN":"6鄰","STREET":"開南街","SECT":" ","MAREA":" ","LANE":"２７５巷","ALLEY":"７弄","HOUSE_NO":"２８號","E_COORD97":170913.95999999999,"N_COORD97":2545093.8500000001,"ADDRESS":"開南街２７５巷７弄２８號","OBJECTID":68364},"geometry":{"x":170913.96000000183,"y":2545093.8500000015}},{"attributes":{"ID":68365,"DIS_CODE":0,"TOWNNAME":"北區","LI":"力行里","LIN":"6鄰","STREET":"開南街","SECT":" ","MAREA":" ","LANE":"２７５巷","ALLEY":"７弄","HOUSE_NO":"２號","E_COORD97":170946.39000000001,"N_COORD97":2545071.9399999999,"ADDRESS":"開南街２７５巷７弄２號","OBJECTID":68365},"geometry":{"x":170946.39000000153,"y":2545071.9400000032}},{"attributes":{"ID":68366,"DIS_CODE":0,"TOWNNAME":"北區","LI":"力行里","LIN":"6鄰","STREET":"開南街","SECT":" ","MAREA":" ","LANE":"２７５巷","ALLEY":"７弄","HOUSE_NO":"３０號","E_COORD97":170918.57000000001,"N_COORD97":2545094.0099999998,"ADDRESS":"開南街２７５巷７弄３０號","OBJECTID":68366},"geometry":{"x":170918.56999999937,"y":2545094.0099999998}},{"attributes":{"ID":68367,"DIS_CODE":0,"TOWNNAME":"柳營區","LI":"篤農里","LIN":"6鄰","STREET":" ","SECT":" ","MAREA":"小腳腿","LANE":" ","ALLEY":" ","HOUSE_NO":"２２７號","E_COORD97":185303.26999999999,"N_COORD97":2576599.8199999998,"ADDRESS":"小腳腿２２７號","OBJECTID":68367},"geometry":{"x":185303.26999999955,"y":2576599.8200000003}},{"attributes":{"ID":68368,"DIS_CODE":0,"TOWNNAME":"北區","LI":"力行里","LIN":"6鄰","STREET":"開南街","SECT":" ","MAREA":" ","LANE":"２７５巷","ALLEY":"７弄","HOUSE_NO":"３２號","E_COORD97":170925.09,"N_COORD97":2545093.6899999999,"ADDRESS":"開南街２７５巷７弄３２號","OBJECTID":68368},"geometry":{"x":170925.09000000078,"y":2545093.6900000032}},{"attributes":{"ID":68369,"DIS_CODE":0,"TOWNNAME":"北區","LI":"力行里","LIN":"6鄰","STREET":"開南街","SECT":" ","MAREA":" ","LANE":"２７５巷","ALLEY":"７弄","HOUSE_NO":"３４號","E_COORD97":170931.60999999999,"N_COORD97":2545092.8900000001,"ADDRESS":"開南街２７５巷７弄３４號","OBJECTID":68369},"geometry":{"x":170931.61000000034,"y":2545092.8900000006}},{"attributes":{"ID":68370,"DIS_CODE":0,"TOWNNAME":"北區","LI":"力行里","LIN":"6鄰","STREET":"開南街","SECT":" ","MAREA":" ","LANE":"２７５巷","ALLEY":"７弄","HOUSE_NO":"３６號","E_COORD97":170944.17000000001,"N_COORD97":2545092.1000000001,"ADDRESS":"開南街２７５巷７弄３６號","OBJECTID":68370},"geometry":{"x":170944.16999999993,"y":2545092.1000000015}},{"attributes":{"ID":68371,"DIS_CODE":0,"TOWNNAME":"北區","LI":"力行里","LIN":"6鄰","STREET":"開南街","SECT":" ","MAREA":" ","LANE":"２７５巷","ALLEY":"７弄","HOUSE_NO":"３８號","E_COORD97":170936.70000000001,"N_COORD97":2545092.7400000002,"ADDRESS":"開南街２７５巷７弄３８號","OBJECTID":68371},"geometry":{"x":170936.70000000112,"y":2545092.7400000002}},{"attributes":{"ID":68372,"DIS_CODE":0,"TOWNNAME":"北區","LI":"力行里","LIN":"6鄰","STREET":"開南街","SECT":" ","MAREA":" ","LANE":"２７５巷","ALLEY":"７弄","HOUSE_NO":"３號","E_COORD97":170941.45999999999,"N_COORD97":2545061.0499999998,"ADDRESS":"開南街２７５巷７弄３號","OBJECTID":68372},"geometry":{"x":170941.46000000089,"y":2545061.0500000007}},{"attributes":{"ID":68373,"DIS_CODE":0,"TOWNNAME":"北區","LI":"力行里","LIN":"6鄰","STREET":"開南街","SECT":" ","MAREA":" ","LANE":"２７５巷","ALLEY":"７弄","HOUSE_NO":"４０號","E_COORD97":170950.04999999999,"N_COORD97":2545091.7799999998,"ADDRESS":"開南街２７５巷７弄４０號","OBJECTID":68373},"geometry":{"x":170950.04999999981,"y":2545091.7799999993}},{"attributes":{"ID":68374,"DIS_CODE":0,"TOWNNAME":"北區","LI":"力行里","LIN":"6鄰","STREET":"開南街","SECT":" ","MAREA":" ","LANE":"２７５巷","ALLEY":"７弄","HOUSE_NO":"４２號","E_COORD97":170950.22,"N_COORD97":2545103.2599999998,"ADDRESS":"開南街２７５巷７弄４２號","OBJECTID":68374},"geometry":{"x":170950.21999999974,"y":2545103.2599999998}},{"attributes":{"ID":68375,"DIS_CODE":0,"TOWNNAME":"北區","LI":"力行里","LIN":"6鄰","STREET":"開南街","SECT":" ","MAREA":" ","LANE":"２７５巷","ALLEY":"７弄","HOUSE_NO":"４６號","E_COORD97":170943.54000000001,"N_COORD97":2545103.2599999998,"ADDRESS":"開南街２７５巷７弄４６號","OBJECTID":68375},"geometry":{"x":170943.54000000004,"y":2545103.2599999998}},{"attributes":{"ID":68376,"DIS_CODE":0,"TOWNNAME":"北區","LI":"力行里","LIN":"6鄰","STREET":"開南街","SECT":" ","MAREA":" ","LANE":"２７５巷","ALLEY":"７弄","HOUSE_NO":"４號","E_COORD97":170940.03,"N_COORD97":2545072.1000000001,"ADDRESS":"開南街２７５巷７弄４號","OBJECTID":68376},"geometry":{"x":170940.03000000119,"y":2545072.1000000015}},{"attributes":{"ID":68377,"DIS_CODE":0,"TOWNNAME":"北區","LI":"力行里","LIN":"6鄰","STREET":"開南街","SECT":" ","MAREA":" ","LANE":"２７５巷","ALLEY":"７弄","HOUSE_NO":"６號","E_COORD97":170934.31,"N_COORD97":2545072.8900000001,"ADDRESS":"開南街２７５巷７弄６號","OBJECTID":68377},"geometry":{"x":170934.30999999959,"y":2545072.8900000006}},{"attributes":{"ID":68378,"DIS_CODE":0,"TOWNNAME":"北區","LI":"力行里","LIN":"6鄰","STREET":"開南街","SECT":" ","MAREA":" ","LANE":"２７５巷","ALLEY":"７弄","HOUSE_NO":"７號","E_COORD97":170932.56,"N_COORD97":2545061.21,"ADDRESS":"開南街２７５巷７弄７號","OBJECTID":68378},"geometry":{"x":170932.55999999959,"y":2545061.2100000046}},{"attributes":{"ID":68379,"DIS_CODE":0,"TOWNNAME":"北區","LI":"力行里","LIN":"6鄰","STREET":"開南街","SECT":" ","MAREA":" ","LANE":"２７５巷","ALLEY":"７弄","HOUSE_NO":"８號","E_COORD97":170928.42999999999,"N_COORD97":2545073.21,"ADDRESS":"開南街２７５巷７弄８號","OBJECTID":68379},"geometry":{"x":170928.4299999997,"y":2545073.2100000009}},{"attributes":{"ID":68380,"DIS_CODE":0,"TOWNNAME":"佳里區","LI":"六安里","LIN":"7鄰","STREET":"六合街","SECT":" ","MAREA":" ","LANE":" ","ALLEY":" ","HOUSE_NO":"８０號","E_COORD97":165995,"N_COORD97":2562961.1000000001,"ADDRESS":"六合街８０號","OBJECTID":68380},"geometry":{"x":165995.00000000093,"y":2562961.0999999996}},{"attributes":{"ID":68381,"DIS_CODE":0,"TOWNNAME":"佳里區","LI":"六安里","LIN":"7鄰","STREET":"六合街","SECT":" ","MAREA":" ","LANE":" ","ALLEY":" ","HOUSE_NO":"２號","E_COORD97":165986.03,"N_COORD97":2562826.8900000001,"ADDRESS":"六合街２號","OBJECTID":68381},"geometry":{"x":165986.03000000212,"y":2562826.8900000025}},{"attributes":{"ID":68382,"DIS_CODE":0,"TOWNNAME":"佳里區","LI":"六安里","LIN":"7鄰","STREET":"六合街","SECT":" ","MAREA":" ","LANE":" ","ALLEY":" ","HOUSE_NO":"６８號","E_COORD97":166014.34,"N_COORD97":2562944.8799999999,"ADDRESS":"六合街６８號","OBJECTID":68382},"geometry":{"x":166014.34000000078,"y":2562944.879999999}},{"attributes":{"ID":68383,"DIS_CODE":0,"TOWNNAME":"佳里區","LI":"六安里","LIN":"7鄰","STREET":"六合街","SECT":" ","MAREA":" ","LANE":" ","ALLEY":" ","HOUSE_NO":"７６號","E_COORD97":165997.87,"N_COORD97":2562945.1099999999,"ADDRESS":"六合街７６號","OBJECTID":68383},"geometry":{"x":165997.87000000011,"y":2562945.1100000013}},{"attributes":{"ID":68384,"DIS_CODE":0,"TOWNNAME":"七股區","LI":"三股里","LIN":"7鄰","STREET":" ","SECT":" ","MAREA":"三股","LANE":" ","ALLEY":" ","HOUSE_NO":"１４７號","E_COORD97":160170.23000000001,"N_COORD97":2556137.4399999999,"ADDRESS":"三股１４７號","OBJECTID":68384},"geometry":{"x":160170.23000000231,"y":2556137.4399999995}},{"attributes":{"ID":68385,"DIS_CODE":0,"TOWNNAME":"北區","LI":"力行里","LIN":"6鄰","STREET":"開南街","SECT":" ","MAREA":" ","LANE":"２７５巷","ALLEY":"７弄","HOUSE_NO":"９號","E_COORD97":170927.63,"N_COORD97":2545062.1699999999,"ADDRESS":"開南街２７５巷７弄９號","OBJECTID":68385},"geometry":{"x":170927.62999999989,"y":2545062.1699999999}},{"attributes":{"ID":68386,"DIS_CODE":0,"TOWNNAME":"安平區","LI":"平安里","LIN":"6鄰","STREET":"安平路","SECT":" ","MAREA":" ","LANE":"３３６巷","ALLEY":"１１弄","HOUSE_NO":"１號","E_COORD97":165634.31,"N_COORD97":2544380.8300000001,"ADDRESS":"安平路３３６巷１１弄１號","OBJECTID":68386},"geometry":{"x":165634.31000000052,"y":2544380.8300000001}},{"attributes":{"ID":68387,"DIS_CODE":0,"TOWNNAME":"安平區","LI":"平安里","LIN":"6鄰","STREET":"安平路","SECT":" ","MAREA":" ","LANE":"３３６巷","ALLEY":"１１弄","HOUSE_NO":"３號","E_COORD97":165628.17999999999,"N_COORD97":2544384.54,"ADDRESS":"安平路３３６巷１１弄３號","OBJECTID":68387},"geometry":{"x":165628.17999999877,"y":2544384.5399999991}},{"attributes":{"ID":68388,"DIS_CODE":0,"TOWNNAME":"安平區","LI":"平安里","LIN":"6鄰","STREET":"安平路","SECT":" ","MAREA":" ","LANE":"３３６巷","ALLEY":"１１弄","HOUSE_NO":"５號","E_COORD97":165628.32999999999,"N_COORD97":2544388.75,"ADDRESS":"安平路３３６巷１１弄５號","OBJECTID":68388},"geometry":{"x":165628.33000000101,"y":2544388.7500000037}},{"attributes":{"ID":68389,"DIS_CODE":0,"TOWNNAME":"安平區","LI":"石門里","LIN":"6鄰","STREET":"安北路","SECT":" ","MAREA":" ","LANE":"４０巷","ALLEY":"１７弄","HOUSE_NO":"３６號","E_COORD97":164560.41,"N_COORD97":2544694.4100000001,"ADDRESS":"安北路４０巷１７弄３６號","OBJECTID":68389},"geometry":{"x":164560.41000000015,"y":2544694.410000002}},{"attributes":{"ID":68390,"DIS_CODE":0,"TOWNNAME":"安平區","LI":"石門里","LIN":"6鄰","STREET":"安北路","SECT":" ","MAREA":" ","LANE":"４０巷","ALLEY":"１７弄","HOUSE_NO":"３７號","E_COORD97":164543.98000000001,"N_COORD97":2544684.8599999999,"ADDRESS":"安北路４０巷１７弄３７號","OBJECTID":68390},"geometry":{"x":164543.98000000138,"y":2544684.8599999994}},{"attributes":{"ID":68391,"DIS_CODE":0,"TOWNNAME":"安平區","LI":"石門里","LIN":"6鄰","STREET":"安北路","SECT":" ","MAREA":" ","LANE":"４０巷","ALLEY":"１７弄","HOUSE_NO":"３７號之１","E_COORD97":164541.48999999999,"N_COORD97":2544687.3399999999,"ADDRESS":"安北路４０巷１７弄３７號之１","OBJECTID":68391},"geometry":{"x":164541.49000000022,"y":2544687.3400000017}},{"attributes":{"ID":68392,"DIS_CODE":0,"TOWNNAME":"安平區","LI":"石門里","LIN":"6鄰","STREET":"安北路","SECT":" ","MAREA":" ","LANE":"４０巷","ALLEY":"１７弄","HOUSE_NO":"３８號","E_COORD97":164557.04000000001,"N_COORD97":2544696.2799999998,"ADDRESS":"安北路４０巷１７弄３８號","OBJECTID":68392},"geometry":{"x":164557.04000000097,"y":2544696.2800000031}},{"attributes":{"ID":68393,"DIS_CODE":0,"TOWNNAME":"安平區","LI":"石門里","LIN":"6鄰","STREET":"安北路","SECT":" ","MAREA":" ","LANE":"４０巷","ALLEY":"１７弄","HOUSE_NO":"３９號","E_COORD97":164539.35999999999,"N_COORD97":2544689.4700000002,"ADDRESS":"安北路４０巷１７弄３９號","OBJECTID":68393},"geometry":{"x":164539.3599999994,"y":2544689.4699999988}},{"attributes":{"ID":68394,"DIS_CODE":0,"TOWNNAME":"安平區","LI":"石門里","LIN":"6鄰","STREET":"安北路","SECT":" ","MAREA":" ","LANE":"４０巷","ALLEY":"１７弄","HOUSE_NO":"４０號","E_COORD97":164553.67000000001,"N_COORD97":2544700.7599999998,"ADDRESS":"安北路４０巷１７弄４０號","OBJECTID":68394},"geometry":{"x":164553.66999999993,"y":2544700.7600000016}},{"attributes":{"ID":68395,"DIS_CODE":0,"TOWNNAME":"安平區","LI":"石門里","LIN":"6鄰","STREET":"安北路","SECT":" ","MAREA":" ","LANE":"４０巷","ALLEY":"１７弄","HOUSE_NO":"４１號","E_COORD97":164536.16,"N_COORD97":2544692.3100000001,"ADDRESS":"安北路４０巷１７弄４１號","OBJECTID":68395},"geometry":{"x":164536.16000000108,"y":2544692.3100000005}},{"attributes":{"ID":68396,"DIS_CODE":0,"TOWNNAME":"安平區","LI":"石門里","LIN":"6鄰","STREET":"安北路","SECT":" ","MAREA":" ","LANE":"４０巷","ALLEY":"１７弄","HOUSE_NO":"４２號","E_COORD97":164547.17999999999,"N_COORD97":2544707.2200000002,"ADDRESS":"安北路４０巷１７弄４２號","OBJECTID":68396},"geometry":{"x":164547.18000000063,"y":2544707.2200000007}},{"attributes":{"ID":68397,"DIS_CODE":0,"TOWNNAME":"安平區","LI":"石門里","LIN":"6鄰","STREET":"安北路","SECT":" ","MAREA":" ","LANE":"４０巷","ALLEY":"１７弄","HOUSE_NO":"４３號","E_COORD97":164532.60000000001,"N_COORD97":2544695.1400000001,"ADDRESS":"安北路４０巷１７弄４３號","OBJECTID":68397},"geometry":{"x":164532.60000000056,"y":2544695.1400000043}},{"attributes":{"ID":68398,"DIS_CODE":0,"TOWNNAME":"安平區","LI":"石門里","LIN":"6鄰","STREET":"安北路","SECT":" ","MAREA":" ","LANE":"４０巷","ALLEY":"１７弄","HOUSE_NO":"４５號","E_COORD97":164529.39999999999,"N_COORD97":2544697.9900000002,"ADDRESS":"安北路４０巷１７弄４５號","OBJECTID":68398},"geometry":{"x":164529.4000000013,"y":2544697.9900000002}},{"attributes":{"ID":68399,"DIS_CODE":0,"TOWNNAME":"安平區","LI":"石門里","LIN":"6鄰","STREET":"安北路","SECT":" ","MAREA":" ","LANE":"４０巷","ALLEY":"１７弄","HOUSE_NO":"４６號","E_COORD97":164542.20000000001,"N_COORD97":2544710.0600000001,"ADDRESS":"安北路４０巷１７弄４６號","OBJECTID":68399},"geometry":{"x":164542.20000000112,"y":2544710.0600000024}},{"attributes":{"ID":68400,"DIS_CODE":0,"TOWNNAME":"安平區","LI":"石門里","LIN":"6鄰","STREET":"安北路","SECT":" ","MAREA":" ","LANE":"４０巷","ALLEY":"１７弄","HOUSE_NO":"４７號","E_COORD97":164526.56,"N_COORD97":2544700.8300000001,"ADDRESS":"安北路４０巷１７弄４７號","OBJECTID":68400},"geometry":{"x":164526.55999999959,"y":2544700.8300000019}}]}