{"displayFieldName":"TOWNNAME","fieldAliases":{"ID":"ID","DIS_CODE":"DIS_CODE","TOWNNAME":"TOWNNAME","LI":"LI","LIN":"LIN","STREET":"STREET","SECT":"SECT","MAREA":"MAREA","LANE":"LANE","ALLEY":"ALLEY","HOUSE_NO":"HOUSE_NO","E_COORD97":"E_COORD97","N_COORD97":"N_COORD97","ADDRESS":"ADDRESS","OBJECTID":"OBJECTID"},"geometryType":"esriGeometryPoint","spatialReference":{"wkid":102443,"latestWkid":3826},"fields":[{"name":"ID","type":"esriFieldTypeDouble","alias":"ID"},{"name":"DIS_CODE","type":"esriFieldTypeInteger","alias":"DIS_CODE"},{"name":"TOWNNAME","type":"esriFieldTypeString","alias":"TOWNNAME","length":8},{"name":"LI","type":"esriFieldTypeString","alias":"LI","length":8},{"name":"LIN","type":"esriFieldTypeString","alias":"LIN","length":12},{"name":"STREET","type":"esriFieldTypeString","alias":"STREET","length":20},{"name":"SECT","type":"esriFieldTypeString","alias":"SECT","length":8},{"name":"MAREA","type":"esriFieldTypeString","alias":"MAREA","length":12},{"name":"LANE","type":"esriFieldTypeString","alias":"LANE","length":10},{"name":"ALLEY","type":"esriFieldTypeString","alias":"ALLEY","length":10},{"name":"HOUSE_NO","type":"esriFieldTypeString","alias":"HOUSE_NO","length":20},{"name":"E_COORD97","type":"esriFieldTypeDouble","alias":"E_COORD97"},{"name":"N_COORD97","type":"esriFieldTypeDouble","alias":"N_COORD97"},{"name":"ADDRESS","type":"esriFieldTypeString","alias":"ADDRESS","length":50},{"name":"OBJECTID","type":"esriFieldTypeOID","alias":"OBJECTID"}],"features":[{"attributes":{"ID":355210,"DIS_CODE":0,"TOWNNAME":"永康區","LI":"東灣里","LIN":"33鄰","STREET":"大灣一街","SECT":" ","MAREA":" ","LANE":"３５８巷","ALLEY":" ","HOUSE_NO":"２１號","E_COORD97":175153.26000000001,"N_COORD97":2544743.04,"ADDRESS":"大灣一街３５８巷２１號","OBJECTID":355201},"geometry":{"x":175153.26000000071,"y":2544743.040000001}},{"attributes":{"ID":355211,"DIS_CODE":0,"TOWNNAME":"永康區","LI":"埔園里","LIN":"33鄰","STREET":"埔園街","SECT":" ","MAREA":" ","LANE":"１４７巷","ALLEY":" ","HOUSE_NO":"５號","E_COORD97":173868.04999999999,"N_COORD97":2548154.2400000002,"ADDRESS":"埔園街１４７巷５號","OBJECTID":355202},"geometry":{"x":173868.05000000168,"y":2548154.2400000002}},{"attributes":{"ID":355212,"DIS_CODE":0,"TOWNNAME":"永康區","LI":"埔園里","LIN":"33鄰","STREET":"埔園街","SECT":" ","MAREA":" ","LANE":"１２９巷","ALLEY":" ","HOUSE_NO":"８號","E_COORD97":173883.73999999999,"N_COORD97":2548136.2400000002,"ADDRESS":"埔園街１２９巷８號","OBJECTID":355203},"geometry":{"x":173883.74000000022,"y":2548136.2400000021}},{"attributes":{"ID":355213,"DIS_CODE":0,"TOWNNAME":"永康區","LI":"大橋里","LIN":"8鄰","STREET":"大橋三街","SECT":" ","MAREA":" ","LANE":" ","ALLEY":" ","HOUSE_NO":"２５３號之４三樓","E_COORD97":171002.31,"N_COORD97":2546889,"ADDRESS":"大橋三街２５３號之４三樓","OBJECTID":355204},"geometry":{"x":171002.30999999959,"y":2546889.0000000037}},{"attributes":{"ID":355214,"DIS_CODE":0,"TOWNNAME":"永康區","LI":"二王里","LIN":"8鄰","STREET":"二王路","SECT":" ","MAREA":" ","LANE":" ","ALLEY":" ","HOUSE_NO":"１８號六樓之２","E_COORD97":172979.34,"N_COORD97":2546822.5499999998,"ADDRESS":"二王路１８號六樓之２","OBJECTID":355205},"geometry":{"x":172979.34000000171,"y":2546822.5500000026}},{"attributes":{"ID":355215,"DIS_CODE":0,"TOWNNAME":"永康區","LI":"二王里","LIN":"8鄰","STREET":"二王路","SECT":" ","MAREA":" ","LANE":" ","ALLEY":" ","HOUSE_NO":"１２號十六樓之１","E_COORD97":172966.59,"N_COORD97":2546841.48,"ADDRESS":"二王路１２號十六樓之１","OBJECTID":355206},"geometry":{"x":172966.59000000078,"y":2546841.4800000004}},{"attributes":{"ID":355216,"DIS_CODE":0,"TOWNNAME":"永康區","LI":"二王里","LIN":"8鄰","STREET":"二王路","SECT":" ","MAREA":" ","LANE":" ","ALLEY":" ","HOUSE_NO":"１２號四樓之１","E_COORD97":172965.34,"N_COORD97":2546841.48,"ADDRESS":"二王路１２號四樓之１","OBJECTID":355207},"geometry":{"x":172965.33999999985,"y":2546841.4800000004}},{"attributes":{"ID":355217,"DIS_CODE":0,"TOWNNAME":"永康區","LI":"二王里","LIN":"8鄰","STREET":"二王路","SECT":" ","MAREA":" ","LANE":" ","ALLEY":" ","HOUSE_NO":"１２號九樓之２","E_COORD97":172965.47,"N_COORD97":2546841.48,"ADDRESS":"二王路１２號九樓之２","OBJECTID":355208},"geometry":{"x":172965.47000000067,"y":2546841.4800000004}},{"attributes":{"ID":355218,"DIS_CODE":0,"TOWNNAME":"永康區","LI":"二王里","LIN":"8鄰","STREET":"二王路","SECT":" ","MAREA":" ","LANE":" ","ALLEY":" ","HOUSE_NO":"１２號七樓之１","E_COORD97":172965.34,"N_COORD97":2546841.48,"ADDRESS":"二王路１２號七樓之１","OBJECTID":355209},"geometry":{"x":172965.33999999985,"y":2546841.4800000004}},{"attributes":{"ID":355219,"DIS_CODE":0,"TOWNNAME":"西港區","LI":"慶安里","LIN":"33鄰","STREET":"中山路","SECT":" ","MAREA":" ","LANE":"１１７巷","ALLEY":" ","HOUSE_NO":"８號","E_COORD97":168405.28,"N_COORD97":2557474.9300000002,"ADDRESS":"中山路１１７巷８號","OBJECTID":355210},"geometry":{"x":168405.28000000119,"y":2557474.9300000016}},{"attributes":{"ID":355220,"DIS_CODE":0,"TOWNNAME":"永康區","LI":"埔園里","LIN":"33鄰","STREET":"埔園街","SECT":" ","MAREA":" ","LANE":"１２９巷","ALLEY":" ","HOUSE_NO":"２號","E_COORD97":173892.60000000001,"N_COORD97":2548143.7400000002,"ADDRESS":"埔園街１２９巷２號","OBJECTID":355211},"geometry":{"x":173892.59999999963,"y":2548143.7400000021}},{"attributes":{"ID":355221,"DIS_CODE":0,"TOWNNAME":"永康區","LI":"東灣里","LIN":"33鄰","STREET":"大灣一街","SECT":" ","MAREA":" ","LANE":"３５８巷","ALLEY":" ","HOUSE_NO":"１８號","E_COORD97":175130.64999999999,"N_COORD97":2544735.52,"ADDRESS":"大灣一街３５８巷１８號","OBJECTID":355212},"geometry":{"x":175130.64999999944,"y":2544735.5200000033}},{"attributes":{"ID":355222,"DIS_CODE":0,"TOWNNAME":"永康區","LI":"埔園里","LIN":"33鄰","STREET":"埔園街","SECT":" ","MAREA":" ","LANE":"１２９巷","ALLEY":" ","HOUSE_NO":"６號","E_COORD97":173889.60000000001,"N_COORD97":2548140.7400000002,"ADDRESS":"埔園街１２９巷６號","OBJECTID":355213},"geometry":{"x":173889.60000000056,"y":2548140.7400000002}},{"attributes":{"ID":355223,"DIS_CODE":0,"TOWNNAME":"永康區","LI":"東灣里","LIN":"33鄰","STREET":"大灣一街","SECT":" ","MAREA":" ","LANE":"３５８巷","ALLEY":" ","HOUSE_NO":"２６號","E_COORD97":175137.41,"N_COORD97":2544725.52,"ADDRESS":"大灣一街３５８巷２６號","OBJECTID":355214},"geometry":{"x":175137.41000000108,"y":2544725.5200000033}},{"attributes":{"ID":355224,"DIS_CODE":0,"TOWNNAME":"永康區","LI":"埔園里","LIN":"33鄰","STREET":"埔園街","SECT":" ","MAREA":" ","LANE":"１４７巷","ALLEY":" ","HOUSE_NO":"１號","E_COORD97":173874.26000000001,"N_COORD97":2548161.2400000002,"ADDRESS":"埔園街１４７巷１號","OBJECTID":355215},"geometry":{"x":173874.25999999978,"y":2548161.2400000002}},{"attributes":{"ID":355225,"DIS_CODE":0,"TOWNNAME":"永康區","LI":"東灣里","LIN":"33鄰","STREET":"大灣一街","SECT":" ","MAREA":" ","LANE":"３５８巷","ALLEY":" ","HOUSE_NO":"２０號","E_COORD97":175133.31,"N_COORD97":2544732.02,"ADDRESS":"大灣一街３５８巷２０號","OBJECTID":355216},"geometry":{"x":175133.30999999959,"y":2544732.0199999977}},{"attributes":{"ID":355226,"DIS_CODE":0,"TOWNNAME":"永康區","LI":"埔園里","LIN":"33鄰","STREET":"埔園街","SECT":" ","MAREA":" ","LANE":"１２９巷","ALLEY":" ","HOUSE_NO":"１號","E_COORD97":173900.70999999999,"N_COORD97":2548134.4900000002,"ADDRESS":"埔園街１２９巷１號","OBJECTID":355217},"geometry":{"x":173900.70999999996,"y":2548134.4900000021}},{"attributes":{"ID":355227,"DIS_CODE":0,"TOWNNAME":"永康區","LI":"東灣里","LIN":"33鄰","STREET":"大灣一街","SECT":" ","MAREA":" ","LANE":"３５８巷","ALLEY":" ","HOUSE_NO":"２３號","E_COORD97":175156.01000000001,"N_COORD97":2544739.54,"ADDRESS":"大灣一街３５８巷２３號","OBJECTID":355218},"geometry":{"x":175156.00999999978,"y":2544739.540000001}},{"attributes":{"ID":355228,"DIS_CODE":0,"TOWNNAME":"永康區","LI":"東灣里","LIN":"33鄰","STREET":"民族路","SECT":" ","MAREA":" ","LANE":"１４５巷","ALLEY":" ","HOUSE_NO":"７７號","E_COORD97":175145.95000000001,"N_COORD97":2544697.9100000001,"ADDRESS":"民族路１４５巷７７號","OBJECTID":355219},"geometry":{"x":175145.95000000112,"y":2544697.910000002}},{"attributes":{"ID":355229,"DIS_CODE":0,"TOWNNAME":"永康區","LI":"東灣里","LIN":"33鄰","STREET":"大灣一街","SECT":" ","MAREA":" ","LANE":"３５８巷","ALLEY":" ","HOUSE_NO":"１２號","E_COORD97":175125.85999999999,"N_COORD97":2544741.77,"ADDRESS":"大灣一街３５８巷１２號","OBJECTID":355220},"geometry":{"x":175125.8600000022,"y":2544741.7700000014}},{"attributes":{"ID":355230,"DIS_CODE":0,"TOWNNAME":"永康區","LI":"東灣里","LIN":"33鄰","STREET":"大灣一街","SECT":" ","MAREA":" ","LANE":"３５８巷","ALLEY":" ","HOUSE_NO":"８號","E_COORD97":175120.35000000001,"N_COORD97":2544748.5299999998,"ADDRESS":"大灣一街３５８巷８號","OBJECTID":355221},"geometry":{"x":175120.35000000056,"y":2544748.5299999993}},{"attributes":{"ID":355231,"DIS_CODE":0,"TOWNNAME":"永康區","LI":"東灣里","LIN":"33鄰","STREET":"大灣一街","SECT":" ","MAREA":" ","LANE":"３５８巷","ALLEY":" ","HOUSE_NO":"１５號","E_COORD97":175144.92000000001,"N_COORD97":2544753.5499999998,"ADDRESS":"大灣一街３５８巷１５號","OBJECTID":355222},"geometry":{"x":175144.91999999993,"y":2544753.5500000045}},{"attributes":{"ID":355232,"DIS_CODE":0,"TOWNNAME":"永康區","LI":"埔園里","LIN":"33鄰","STREET":"埔東街","SECT":" ","MAREA":" ","LANE":"３０巷","ALLEY":" ","HOUSE_NO":"１１號","E_COORD97":173867.06,"N_COORD97":2548137.2400000002,"ADDRESS":"埔東街３０巷１１號","OBJECTID":355223},"geometry":{"x":173867.05999999959,"y":2548137.2400000002}},{"attributes":{"ID":355233,"DIS_CODE":0,"TOWNNAME":"東區","LI":"大智里","LIN":"33鄰","STREET":"崇善十六街","SECT":" ","MAREA":" ","LANE":"１２６巷","ALLEY":" ","HOUSE_NO":"８號","E_COORD97":171266.26999999999,"N_COORD97":2540450.1299999999,"ADDRESS":"崇善十六街１２６巷８號","OBJECTID":355224},"geometry":{"x":171266.27000000048,"y":2540450.1300000008}},{"attributes":{"ID":355234,"DIS_CODE":0,"TOWNNAME":"東區","LI":"大智里","LIN":"33鄰","STREET":"崇善十六街","SECT":" ","MAREA":" ","LANE":"１２６巷","ALLEY":" ","HOUSE_NO":"２３號","E_COORD97":171228.94,"N_COORD97":2540495.6400000001,"ADDRESS":"崇善十六街１２６巷２３號","OBJECTID":355225},"geometry":{"x":171228.94000000134,"y":2540495.6400000025}},{"attributes":{"ID":355235,"DIS_CODE":0,"TOWNNAME":"東區","LI":"大智里","LIN":"33鄰","STREET":"崇善十六街","SECT":" ","MAREA":" ","LANE":"１２６巷","ALLEY":" ","HOUSE_NO":"１０號","E_COORD97":171271.82999999999,"N_COORD97":2540450.1299999999,"ADDRESS":"崇善十六街１２６巷１０號","OBJECTID":355226},"geometry":{"x":171271.83000000007,"y":2540450.1300000008}},{"attributes":{"ID":355236,"DIS_CODE":0,"TOWNNAME":"東區","LI":"大智里","LIN":"33鄰","STREET":"崇善十六街","SECT":" ","MAREA":" ","LANE":"１２６巷","ALLEY":" ","HOUSE_NO":"２５號","E_COORD97":171223.70000000001,"N_COORD97":2540494.6600000001,"ADDRESS":"崇善十六街１２６巷２５號","OBJECTID":355227},"geometry":{"x":171223.70000000019,"y":2540494.660000002}},{"attributes":{"ID":355237,"DIS_CODE":0,"TOWNNAME":"東區","LI":"大智里","LIN":"33鄰","STREET":"崇善十六街","SECT":" ","MAREA":" ","LANE":"１２６巷","ALLEY":" ","HOUSE_NO":"２７號","E_COORD97":171217.79999999999,"N_COORD97":2540494.9900000002,"ADDRESS":"崇善十六街１２６巷２７號","OBJECTID":355228},"geometry":{"x":171217.79999999981,"y":2540494.9899999984}},{"attributes":{"ID":355238,"DIS_CODE":0,"TOWNNAME":"永康區","LI":"崑山里","LIN":"20鄰","STREET":"崑山街","SECT":" ","MAREA":" ","LANE":"２１巷","ALLEY":" ","HOUSE_NO":"１９號五樓之１","E_COORD97":173867.75,"N_COORD97":2544557.3599999999,"ADDRESS":"崑山街２１巷１９號五樓之１","OBJECTID":355229},"geometry":{"x":173867.75,"y":2544557.3600000013}},{"attributes":{"ID":355239,"DIS_CODE":0,"TOWNNAME":"永康區","LI":"二王里","LIN":"8鄰","STREET":"二王路","SECT":" ","MAREA":" ","LANE":" ","ALLEY":" ","HOUSE_NO":"１２號六樓之２","E_COORD97":172965.47,"N_COORD97":2546841.48,"ADDRESS":"二王路１２號六樓之２","OBJECTID":355230},"geometry":{"x":172965.47000000067,"y":2546841.4800000004}},{"attributes":{"ID":355240,"DIS_CODE":0,"TOWNNAME":"東區","LI":"大智里","LIN":"33鄰","STREET":"崇善十六街","SECT":" ","MAREA":" ","LANE":"１２６巷","ALLEY":" ","HOUSE_NO":"１２號","E_COORD97":171277.39999999999,"N_COORD97":2540450.7799999998,"ADDRESS":"崇善十六街１２６巷１２號","OBJECTID":355231},"geometry":{"x":171277.40000000037,"y":2540450.7799999993}},{"attributes":{"ID":355241,"DIS_CODE":0,"TOWNNAME":"東區","LI":"大智里","LIN":"33鄰","STREET":"崇善十六街","SECT":" ","MAREA":" ","LANE":"１２６巷","ALLEY":" ","HOUSE_NO":"２９號","E_COORD97":171216.82000000001,"N_COORD97":2540512.6699999999,"ADDRESS":"崇善十六街１２６巷２９號","OBJECTID":355232},"geometry":{"x":171216.8200000003,"y":2540512.6699999999}},{"attributes":{"ID":355242,"DIS_CODE":0,"TOWNNAME":"永康區","LI":"勝利里","LIN":"20鄰","STREET":"勝學路","SECT":" ","MAREA":" ","LANE":"２６９巷","ALLEY":" ","HOUSE_NO":"２號四樓之９","E_COORD97":171173.37,"N_COORD97":2545316.0499999998,"ADDRESS":"勝學路２６９巷２號四樓之９","OBJECTID":355233},"geometry":{"x":171173.37000000011,"y":2545316.0500000007}},{"attributes":{"ID":355243,"DIS_CODE":0,"TOWNNAME":"東區","LI":"大智里","LIN":"33鄰","STREET":"崇善十六街","SECT":" ","MAREA":" ","LANE":"１２６巷","ALLEY":" ","HOUSE_NO":"１６號","E_COORD97":171281.66,"N_COORD97":2540451.1099999999,"ADDRESS":"崇善十六街１２６巷１６號","OBJECTID":355234},"geometry":{"x":171281.66000000015,"y":2540451.1099999994}},{"attributes":{"ID":355244,"DIS_CODE":0,"TOWNNAME":"東區","LI":"大智里","LIN":"33鄰","STREET":"崇善十六街","SECT":" ","MAREA":" ","LANE":"１２６巷","ALLEY":" ","HOUSE_NO":"３１號","E_COORD97":171221.07999999999,"N_COORD97":2540513,"ADDRESS":"崇善十六街１２６巷３１號","OBJECTID":355235},"geometry":{"x":171221.08000000007,"y":2540513.0000000019}},{"attributes":{"ID":355245,"DIS_CODE":0,"TOWNNAME":"東區","LI":"大智里","LIN":"33鄰","STREET":"崇善十六街","SECT":" ","MAREA":" ","LANE":"１２６巷","ALLEY":" ","HOUSE_NO":"１８號","E_COORD97":171286.23999999999,"N_COORD97":2540451.4399999999,"ADDRESS":"崇善十六街１２６巷１８號","OBJECTID":355236},"geometry":{"x":171286.24000000022,"y":2540451.4400000013}},{"attributes":{"ID":355246,"DIS_CODE":0,"TOWNNAME":"東區","LI":"大智里","LIN":"33鄰","STREET":"崇善十六街","SECT":" ","MAREA":" ","LANE":"１２６巷","ALLEY":" ","HOUSE_NO":"３３號","E_COORD97":171226.32000000001,"N_COORD97":2540515.29,"ADDRESS":"崇善十六街１２６巷３３號","OBJECTID":355237},"geometry":{"x":171226.32000000123,"y":2540515.2899999991}},{"attributes":{"ID":355247,"DIS_CODE":0,"TOWNNAME":"東區","LI":"大智里","LIN":"33鄰","STREET":"崇善十六街","SECT":" ","MAREA":" ","LANE":"１２６巷","ALLEY":" ","HOUSE_NO":"２０號","E_COORD97":171290.82999999999,"N_COORD97":2540450.1299999999,"ADDRESS":"崇善十六街１２６巷２０號","OBJECTID":355238},"geometry":{"x":171290.83000000007,"y":2540450.1300000008}},{"attributes":{"ID":355248,"DIS_CODE":0,"TOWNNAME":"東區","LI":"大智里","LIN":"33鄰","STREET":"崇善十六街","SECT":" ","MAREA":" ","LANE":"１２６巷","ALLEY":" ","HOUSE_NO":"３５號","E_COORD97":171231.88,"N_COORD97":2540517.9100000001,"ADDRESS":"崇善十六街１２６巷３５號","OBJECTID":355239},"geometry":{"x":171231.88000000082,"y":2540517.9100000001}},{"attributes":{"ID":355249,"DIS_CODE":0,"TOWNNAME":"東區","LI":"大智里","LIN":"33鄰","STREET":"崇善十六街","SECT":" ","MAREA":" ","LANE":"１２６巷","ALLEY":" ","HOUSE_NO":"３７號","E_COORD97":171239.73999999999,"N_COORD97":2540520.2000000002,"ADDRESS":"崇善十六街１２６巷３７號","OBJECTID":355240},"geometry":{"x":171239.74000000115,"y":2540520.2000000011}},{"attributes":{"ID":355250,"DIS_CODE":0,"TOWNNAME":"東區","LI":"大智里","LIN":"33鄰","STREET":"崇善十六街","SECT":" ","MAREA":" ","LANE":"１２６巷","ALLEY":" ","HOUSE_NO":"２２號","E_COORD97":171290.5,"N_COORD97":2540465.8500000001,"ADDRESS":"崇善十六街１２６巷２２號","OBJECTID":355241},"geometry":{"x":171290.50000000093,"y":2540465.8500000015}},{"attributes":{"ID":355251,"DIS_CODE":0,"TOWNNAME":"東區","LI":"大智里","LIN":"33鄰","STREET":"崇善十六街","SECT":" ","MAREA":" ","LANE":"１２６巷","ALLEY":" ","HOUSE_NO":"２６號","E_COORD97":171286.23999999999,"N_COORD97":2540466.1699999999,"ADDRESS":"崇善十六街１２６巷２６號","OBJECTID":355242},"geometry":{"x":171286.24000000022,"y":2540466.1699999999}},{"attributes":{"ID":355252,"DIS_CODE":0,"TOWNNAME":"東區","LI":"大智里","LIN":"33鄰","STREET":"崇善十六街","SECT":" ","MAREA":" ","LANE":"１２６巷","ALLEY":" ","HOUSE_NO":"２８號","E_COORD97":171281.98000000001,"N_COORD97":2540465.8500000001,"ADDRESS":"崇善十六街１２６巷２８號","OBJECTID":355243},"geometry":{"x":171281.98000000045,"y":2540465.8500000015}},{"attributes":{"ID":355253,"DIS_CODE":0,"TOWNNAME":"東區","LI":"大智里","LIN":"33鄰","STREET":"崇善十六街","SECT":" ","MAREA":" ","LANE":"１２６巷","ALLEY":" ","HOUSE_NO":"３０號","E_COORD97":171276.75,"N_COORD97":2540465.52,"ADDRESS":"崇善十六街１２６巷３０號","OBJECTID":355244},"geometry":{"x":171276.75000000093,"y":2540465.5199999996}},{"attributes":{"ID":355254,"DIS_CODE":0,"TOWNNAME":"東區","LI":"虎尾里","LIN":"33鄰","STREET":"東成街","SECT":" ","MAREA":" ","LANE":"１４２巷","ALLEY":" ","HOUSE_NO":"１０１號","E_COORD97":171728.32000000001,"N_COORD97":2542106.0899999999,"ADDRESS":"東成街１４２巷１０１號","OBJECTID":355245},"geometry":{"x":171728.3200000003,"y":2542106.0900000017}},{"attributes":{"ID":355255,"DIS_CODE":0,"TOWNNAME":"東區","LI":"虎尾里","LIN":"33鄰","STREET":"東成街","SECT":" ","MAREA":" ","LANE":"１４２巷","ALLEY":" ","HOUSE_NO":"１０３號","E_COORD97":171733.56,"N_COORD97":2542106.0899999999,"ADDRESS":"東成街１４２巷１０３號","OBJECTID":355246},"geometry":{"x":171733.56000000052,"y":2542106.0900000017}},{"attributes":{"ID":355256,"DIS_CODE":0,"TOWNNAME":"東區","LI":"虎尾里","LIN":"33鄰","STREET":"東成街","SECT":" ","MAREA":" ","LANE":"１４２巷","ALLEY":" ","HOUSE_NO":"１０５號","E_COORD97":171734.34,"N_COORD97":2542090.1099999999,"ADDRESS":"東成街１４２巷１０５號","OBJECTID":355247},"geometry":{"x":171734.33999999985,"y":2542090.1099999975}},{"attributes":{"ID":355257,"DIS_CODE":0,"TOWNNAME":"東區","LI":"虎尾里","LIN":"33鄰","STREET":"東成街","SECT":" ","MAREA":" ","LANE":"１４２巷","ALLEY":" ","HOUSE_NO":"１０７號","E_COORD97":171729.63,"N_COORD97":2542090.6299999999,"ADDRESS":"東成街１４２巷１０７號","OBJECTID":355248},"geometry":{"x":171729.62999999989,"y":2542090.6300000008}},{"attributes":{"ID":355258,"DIS_CODE":0,"TOWNNAME":"東區","LI":"虎尾里","LIN":"33鄰","STREET":"東成街","SECT":" ","MAREA":" ","LANE":"１４２巷","ALLEY":" ","HOUSE_NO":"１０９號","E_COORD97":171723.60000000001,"N_COORD97":2542090.3700000001,"ADDRESS":"東成街１４２巷１０９號","OBJECTID":355249},"geometry":{"x":171723.60000000056,"y":2542090.3700000048}},{"attributes":{"ID":355259,"DIS_CODE":0,"TOWNNAME":"東區","LI":"虎尾里","LIN":"33鄰","STREET":"東成街","SECT":" ","MAREA":" ","LANE":"１４２巷","ALLEY":" ","HOUSE_NO":"１１１號","E_COORD97":171718.10000000001,"N_COORD97":2542090.3700000001,"ADDRESS":"東成街１４２巷１１１號","OBJECTID":355250},"geometry":{"x":171718.10000000056,"y":2542090.3700000048}},{"attributes":{"ID":355260,"DIS_CODE":0,"TOWNNAME":"東區","LI":"虎尾里","LIN":"33鄰","STREET":"東成街","SECT":" ","MAREA":" ","LANE":"１４２巷","ALLEY":" ","HOUSE_NO":"１１３號","E_COORD97":171712.34,"N_COORD97":2542090.1099999999,"ADDRESS":"東成街１４２巷１１３號","OBJECTID":355251},"geometry":{"x":171712.33999999985,"y":2542090.1099999975}},{"attributes":{"ID":355261,"DIS_CODE":0,"TOWNNAME":"東區","LI":"虎尾里","LIN":"33鄰","STREET":"東成街","SECT":" ","MAREA":" ","LANE":"１４２巷","ALLEY":" ","HOUSE_NO":"１１５號","E_COORD97":171705.79000000001,"N_COORD97":2542090.1099999999,"ADDRESS":"東成街１４２巷１１５號","OBJECTID":355252},"geometry":{"x":171705.79000000097,"y":2542090.1099999975}},{"attributes":{"ID":355262,"DIS_CODE":0,"TOWNNAME":"東區","LI":"虎尾里","LIN":"33鄰","STREET":"東成街","SECT":" ","MAREA":" ","LANE":"１４２巷","ALLEY":" ","HOUSE_NO":"１１７號","E_COORD97":171699.5,"N_COORD97":2542090.1099999999,"ADDRESS":"東成街１４２巷１１７號","OBJECTID":355253},"geometry":{"x":171699.5,"y":2542090.1099999975}},{"attributes":{"ID":355263,"DIS_CODE":0,"TOWNNAME":"東區","LI":"虎尾里","LIN":"33鄰","STREET":"東成街","SECT":" ","MAREA":" ","LANE":"１４２巷","ALLEY":" ","HOUSE_NO":"１１９號","E_COORD97":171693.22,"N_COORD97":2542090.3700000001,"ADDRESS":"東成街１４２巷１１９號","OBJECTID":355254},"geometry":{"x":171693.21999999974,"y":2542090.3700000048}},{"attributes":{"ID":355264,"DIS_CODE":0,"TOWNNAME":"東區","LI":"虎尾里","LIN":"33鄰","STREET":"東成街","SECT":" ","MAREA":" ","LANE":"１４２巷","ALLEY":" ","HOUSE_NO":"１２１號","E_COORD97":171686.67000000001,"N_COORD97":2542090.3700000001,"ADDRESS":"東成街１４２巷１２１號","OBJECTID":355255},"geometry":{"x":171686.66999999993,"y":2542090.3700000048}},{"attributes":{"ID":355265,"DIS_CODE":0,"TOWNNAME":"東區","LI":"虎尾里","LIN":"33鄰","STREET":"東成街","SECT":" ","MAREA":" ","LANE":"１４２巷","ALLEY":" ","HOUSE_NO":"１２３號","E_COORD97":171687.98000000001,"N_COORD97":2542072.5499999998,"ADDRESS":"東成街１４２巷１２３號","OBJECTID":355256},"geometry":{"x":171687.98000000138,"y":2542072.5500000026}},{"attributes":{"ID":355266,"DIS_CODE":0,"TOWNNAME":"永康區","LI":"二王里","LIN":"8鄰","STREET":"二王路","SECT":" ","MAREA":" ","LANE":" ","ALLEY":" ","HOUSE_NO":"１２號六樓之１","E_COORD97":172965.34,"N_COORD97":2546841.48,"ADDRESS":"二王路１２號六樓之１","OBJECTID":355257},"geometry":{"x":172965.33999999985,"y":2546841.4800000004}},{"attributes":{"ID":355267,"DIS_CODE":0,"TOWNNAME":"東區","LI":"虎尾里","LIN":"33鄰","STREET":"東成街","SECT":" ","MAREA":" ","LANE":"１４２巷","ALLEY":" ","HOUSE_NO":"１２５號","E_COORD97":171691.64000000001,"N_COORD97":2542072.5499999998,"ADDRESS":"東成街１４２巷１２５號","OBJECTID":355258},"geometry":{"x":171691.63999999966,"y":2542072.5500000026}},{"attributes":{"ID":355268,"DIS_CODE":0,"TOWNNAME":"東區","LI":"虎尾里","LIN":"33鄰","STREET":"東成街","SECT":" ","MAREA":" ","LANE":"１４２巷","ALLEY":" ","HOUSE_NO":"１２７號","E_COORD97":171698.19,"N_COORD97":2542072.0299999998,"ADDRESS":"東成街１４２巷１２７號","OBJECTID":355259},"geometry":{"x":171698.19000000134,"y":2542072.0300000012}},{"attributes":{"ID":355269,"DIS_CODE":0,"TOWNNAME":"東區","LI":"虎尾里","LIN":"33鄰","STREET":"東成街","SECT":" ","MAREA":" ","LANE":"１４２巷","ALLEY":" ","HOUSE_NO":"１２９號","E_COORD97":171704.48000000001,"N_COORD97":2542072.5499999998,"ADDRESS":"東成街１４２巷１２９號","OBJECTID":355260},"geometry":{"x":171704.48000000138,"y":2542072.5500000026}},{"attributes":{"ID":355270,"DIS_CODE":0,"TOWNNAME":"東區","LI":"虎尾里","LIN":"33鄰","STREET":"東成街","SECT":" ","MAREA":" ","LANE":"１４２巷","ALLEY":" ","HOUSE_NO":"１３１號","E_COORD97":171710.76999999999,"N_COORD97":2542072.8199999998,"ADDRESS":"東成街１４２巷１３１號","OBJECTID":355261},"geometry":{"x":171710.76999999955,"y":2542072.820000004}},{"attributes":{"ID":355271,"DIS_CODE":0,"TOWNNAME":"東區","LI":"虎尾里","LIN":"33鄰","STREET":"東成街","SECT":" ","MAREA":" ","LANE":"１４２巷","ALLEY":" ","HOUSE_NO":"１３３號","E_COORD97":171716.26999999999,"N_COORD97":2542073.0800000001,"ADDRESS":"東成街１４２巷１３３號","OBJECTID":355262},"geometry":{"x":171716.26999999955,"y":2542073.0800000001}},{"attributes":{"ID":355272,"DIS_CODE":0,"TOWNNAME":"東區","LI":"虎尾里","LIN":"33鄰","STREET":"東成街","SECT":" ","MAREA":" ","LANE":"１４２巷","ALLEY":" ","HOUSE_NO":"１３５號","E_COORD97":171722.03,"N_COORD97":2542072.5499999998,"ADDRESS":"東成街１４２巷１３５號","OBJECTID":355263},"geometry":{"x":171722.03000000026,"y":2542072.5500000026}},{"attributes":{"ID":355273,"DIS_CODE":0,"TOWNNAME":"東區","LI":"虎尾里","LIN":"33鄰","STREET":"東成街","SECT":" ","MAREA":" ","LANE":"１４２巷","ALLEY":" ","HOUSE_NO":"１３７號","E_COORD97":171728.32000000001,"N_COORD97":2542072.8199999998,"ADDRESS":"東成街１４２巷１３７號","OBJECTID":355264},"geometry":{"x":171728.3200000003,"y":2542072.820000004}},{"attributes":{"ID":355274,"DIS_CODE":0,"TOWNNAME":"東區","LI":"虎尾里","LIN":"33鄰","STREET":"東成街","SECT":" ","MAREA":" ","LANE":"１４２巷","ALLEY":" ","HOUSE_NO":"１３９號","E_COORD97":171734.60999999999,"N_COORD97":2542072.5499999998,"ADDRESS":"東成街１４２巷１３９號","OBJECTID":355265},"geometry":{"x":171734.61000000127,"y":2542072.5500000026}},{"attributes":{"ID":355275,"DIS_CODE":0,"TOWNNAME":"東區","LI":"虎尾里","LIN":"33鄰","STREET":"東成街","SECT":" ","MAREA":" ","LANE":"１４２巷","ALLEY":" ","HOUSE_NO":"１５１號","E_COORD97":171735.64999999999,"N_COORD97":2542056.0499999998,"ADDRESS":"東成街１４２巷１５１號","OBJECTID":355266},"geometry":{"x":171735.6500000013,"y":2542056.0500000026}},{"attributes":{"ID":355276,"DIS_CODE":0,"TOWNNAME":"東區","LI":"虎尾里","LIN":"33鄰","STREET":"東成街","SECT":" ","MAREA":" ","LANE":"１４２巷","ALLEY":" ","HOUSE_NO":"１５３號","E_COORD97":171729.89000000001,"N_COORD97":2542055.79,"ADDRESS":"東成街１４２巷１５３號","OBJECTID":355267},"geometry":{"x":171729.8900000006,"y":2542055.790000001}},{"attributes":{"ID":355277,"DIS_CODE":0,"TOWNNAME":"東區","LI":"虎尾里","LIN":"33鄰","STREET":"東成街","SECT":" ","MAREA":" ","LANE":"１４２巷","ALLEY":" ","HOUSE_NO":"１５５號","E_COORD97":171723.87,"N_COORD97":2542056.0499999998,"ADDRESS":"東成街１４２巷１５５號","OBJECTID":355268},"geometry":{"x":171723.87000000104,"y":2542056.0500000026}},{"attributes":{"ID":355278,"DIS_CODE":0,"TOWNNAME":"東區","LI":"虎尾里","LIN":"33鄰","STREET":"東成街","SECT":" ","MAREA":" ","LANE":"１４２巷","ALLEY":" ","HOUSE_NO":"１５７號","E_COORD97":171718.35999999999,"N_COORD97":2542056.0499999998,"ADDRESS":"東成街１４２巷１５７號","OBJECTID":355269},"geometry":{"x":171718.36000000034,"y":2542056.0500000026}},{"attributes":{"ID":355279,"DIS_CODE":0,"TOWNNAME":"東區","LI":"虎尾里","LIN":"33鄰","STREET":"東成街","SECT":" ","MAREA":" ","LANE":"１４２巷","ALLEY":" ","HOUSE_NO":"１５９號","E_COORD97":171711.54999999999,"N_COORD97":2542055.79,"ADDRESS":"東成街１４２巷１５９號","OBJECTID":355270},"geometry":{"x":171711.54999999888,"y":2542055.790000001}},{"attributes":{"ID":355280,"DIS_CODE":0,"TOWNNAME":"東區","LI":"虎尾里","LIN":"33鄰","STREET":"東成街","SECT":" ","MAREA":" ","LANE":"１４２巷","ALLEY":" ","HOUSE_NO":"１６１號","E_COORD97":171705.26999999999,"N_COORD97":2542056.0499999998,"ADDRESS":"東成街１４２巷１６１號","OBJECTID":355271},"geometry":{"x":171705.27000000048,"y":2542056.0500000026}},{"attributes":{"ID":355281,"DIS_CODE":0,"TOWNNAME":"東區","LI":"虎尾里","LIN":"33鄰","STREET":"東成街","SECT":" ","MAREA":" ","LANE":"１４２巷","ALLEY":" ","HOUSE_NO":"１６３號","E_COORD97":171699.5,"N_COORD97":2542056.3100000001,"ADDRESS":"東成街１４２巷１６３號","OBJECTID":355272},"geometry":{"x":171699.5,"y":2542056.3100000042}},{"attributes":{"ID":355282,"DIS_CODE":0,"TOWNNAME":"東區","LI":"虎尾里","LIN":"33鄰","STREET":"東成街","SECT":" ","MAREA":" ","LANE":"１４２巷","ALLEY":" ","HOUSE_NO":"１６５號","E_COORD97":171693.48000000001,"N_COORD97":2542056.5699999998,"ADDRESS":"東成街１４２巷１６５號","OBJECTID":355273},"geometry":{"x":171693.48000000045,"y":2542056.5700000003}},{"attributes":{"ID":355283,"DIS_CODE":0,"TOWNNAME":"東區","LI":"虎尾里","LIN":"33鄰","STREET":"東成街","SECT":" ","MAREA":" ","LANE":"１４２巷","ALLEY":" ","HOUSE_NO":"１６７號","E_COORD97":171688.23999999999,"N_COORD97":2542055.2599999998,"ADDRESS":"東成街１４２巷１６７號","OBJECTID":355274},"geometry":{"x":171688.24000000022,"y":2542055.2599999998}},{"attributes":{"ID":355284,"DIS_CODE":0,"TOWNNAME":"東區","LI":"虎尾里","LIN":"33鄰","STREET":"東成街","SECT":" ","MAREA":" ","LANE":"１４２巷","ALLEY":" ","HOUSE_NO":"６９號","E_COORD97":171732.25,"N_COORD97":2542124.4199999999,"ADDRESS":"東成街１４２巷６９號","OBJECTID":355275},"geometry":{"x":171732.25,"y":2542124.4199999999}},{"attributes":{"ID":355285,"DIS_CODE":0,"TOWNNAME":"東區","LI":"虎尾里","LIN":"33鄰","STREET":"東成街","SECT":" ","MAREA":" ","LANE":"１４２巷","ALLEY":" ","HOUSE_NO":"７１號","E_COORD97":171726.75,"N_COORD97":2542124.9500000002,"ADDRESS":"東成街１４２巷７１號","OBJECTID":355276},"geometry":{"x":171726.75,"y":2542124.9499999974}},{"attributes":{"ID":355286,"DIS_CODE":0,"TOWNNAME":"東區","LI":"虎尾里","LIN":"33鄰","STREET":"東成街","SECT":" ","MAREA":" ","LANE":"１４２巷","ALLEY":" ","HOUSE_NO":"７３號","E_COORD97":171719.94,"N_COORD97":2542124.6899999999,"ADDRESS":"東成街１４２巷７３號","OBJECTID":355277},"geometry":{"x":171719.94000000134,"y":2542124.6900000013}},{"attributes":{"ID":355287,"DIS_CODE":0,"TOWNNAME":"東區","LI":"虎尾里","LIN":"33鄰","STREET":"東成街","SECT":" ","MAREA":" ","LANE":"１４２巷","ALLEY":" ","HOUSE_NO":"７５號","E_COORD97":171713.64999999999,"N_COORD97":2542124.6899999999,"ADDRESS":"東成街１４２巷７５號","OBJECTID":355278},"geometry":{"x":171713.6500000013,"y":2542124.6900000013}},{"attributes":{"ID":355288,"DIS_CODE":0,"TOWNNAME":"永康區","LI":"復華里","LIN":"33鄰","STREET":"復華十街","SECT":" ","MAREA":" ","LANE":"２４巷","ALLEY":" ","HOUSE_NO":"２號","E_COORD97":172536.34,"N_COORD97":2546112.5299999998,"ADDRESS":"復華十街２４巷２號","OBJECTID":355279},"geometry":{"x":172536.33999999985,"y":2546112.5300000012}},{"attributes":{"ID":355289,"DIS_CODE":0,"TOWNNAME":"東區","LI":"虎尾里","LIN":"33鄰","STREET":"東成街","SECT":" ","MAREA":" ","LANE":"１４２巷","ALLEY":" ","HOUSE_NO":"７７號","E_COORD97":171707.35999999999,"N_COORD97":2542124.6899999999,"ADDRESS":"東成街１４２巷７７號","OBJECTID":355280},"geometry":{"x":171707.36000000127,"y":2542124.6900000013}},{"attributes":{"ID":355290,"DIS_CODE":0,"TOWNNAME":"東區","LI":"虎尾里","LIN":"33鄰","STREET":"東成街","SECT":" ","MAREA":" ","LANE":"１４２巷","ALLEY":" ","HOUSE_NO":"７９號","E_COORD97":171701.34,"N_COORD97":2542125.21,"ADDRESS":"東成街１４２巷７９號","OBJECTID":355281},"geometry":{"x":171701.34000000171,"y":2542125.2100000046}},{"attributes":{"ID":355291,"DIS_CODE":0,"TOWNNAME":"東區","LI":"虎尾里","LIN":"33鄰","STREET":"東成街","SECT":" ","MAREA":" ","LANE":"１４２巷","ALLEY":" ","HOUSE_NO":"８１號","E_COORD97":171695.84,"N_COORD97":2542125.21,"ADDRESS":"東成街１４２巷８１號","OBJECTID":355282},"geometry":{"x":171695.83999999985,"y":2542125.2100000046}},{"attributes":{"ID":355292,"DIS_CODE":0,"TOWNNAME":"東區","LI":"虎尾里","LIN":"33鄰","STREET":"東成街","SECT":" ","MAREA":" ","LANE":"１４２巷","ALLEY":" ","HOUSE_NO":"８３號","E_COORD97":171691.64000000001,"N_COORD97":2542123.8999999999,"ADDRESS":"東成街１４２巷８３號","OBJECTID":355283},"geometry":{"x":171691.63999999966,"y":2542123.9000000022}},{"attributes":{"ID":355293,"DIS_CODE":0,"TOWNNAME":"東區","LI":"虎尾里","LIN":"33鄰","STREET":"東成街","SECT":" ","MAREA":" ","LANE":"１４２巷","ALLEY":" ","HOUSE_NO":"８５號","E_COORD97":171685.35999999999,"N_COORD97":2542121.54,"ADDRESS":"東成街１４２巷８５號","OBJECTID":355284},"geometry":{"x":171685.36000000127,"y":2542121.540000001}},{"attributes":{"ID":355294,"DIS_CODE":0,"TOWNNAME":"東區","LI":"虎尾里","LIN":"33鄰","STREET":"東成街","SECT":" ","MAREA":" ","LANE":"１４２巷","ALLEY":" ","HOUSE_NO":"８７號","E_COORD97":171686.39999999999,"N_COORD97":2542105.29,"ADDRESS":"東成街１４２巷８７號","OBJECTID":355285},"geometry":{"x":171686.4000000013,"y":2542105.2899999991}},{"attributes":{"ID":355295,"DIS_CODE":0,"TOWNNAME":"東區","LI":"虎尾里","LIN":"33鄰","STREET":"東成街","SECT":" ","MAREA":" ","LANE":"１４２巷","ALLEY":" ","HOUSE_NO":"８９號","E_COORD97":171691.12,"N_COORD97":2542105.8199999998,"ADDRESS":"東成街１４２巷８９號","OBJECTID":355286},"geometry":{"x":171691.12000000197,"y":2542105.8200000003}},{"attributes":{"ID":355296,"DIS_CODE":0,"TOWNNAME":"東區","LI":"虎尾里","LIN":"33鄰","STREET":"東成街","SECT":" ","MAREA":" ","LANE":"１４２巷","ALLEY":" ","HOUSE_NO":"９１號","E_COORD97":171695.57000000001,"N_COORD97":2542106.0899999999,"ADDRESS":"東成街１４２巷９１號","OBJECTID":355287},"geometry":{"x":171695.57000000123,"y":2542106.0900000017}},{"attributes":{"ID":355297,"DIS_CODE":0,"TOWNNAME":"東區","LI":"虎尾里","LIN":"33鄰","STREET":"東成街","SECT":" ","MAREA":" ","LANE":"１４２巷","ALLEY":" ","HOUSE_NO":"９３號","E_COORD97":171701.07999999999,"N_COORD97":2542106.3500000001,"ADDRESS":"東成街１４２巷９３號","OBJECTID":355288},"geometry":{"x":171701.08000000007,"y":2542106.3500000015}},{"attributes":{"ID":355298,"DIS_CODE":0,"TOWNNAME":"東區","LI":"虎尾里","LIN":"33鄰","STREET":"東成街","SECT":" ","MAREA":" ","LANE":"１４２巷","ALLEY":" ","HOUSE_NO":"９５號","E_COORD97":171707.62,"N_COORD97":2542106.0899999999,"ADDRESS":"東成街１４２巷９５號","OBJECTID":355289},"geometry":{"x":171707.62000000011,"y":2542106.0900000017}},{"attributes":{"ID":355299,"DIS_CODE":0,"TOWNNAME":"東區","LI":"虎尾里","LIN":"33鄰","STREET":"東成街","SECT":" ","MAREA":" ","LANE":"１４２巷","ALLEY":" ","HOUSE_NO":"９７號","E_COORD97":171713.39000000001,"N_COORD97":2542106.3500000001,"ADDRESS":"東成街１４２巷９７號","OBJECTID":355290},"geometry":{"x":171713.3900000006,"y":2542106.3500000015}},{"attributes":{"ID":355300,"DIS_CODE":0,"TOWNNAME":"東區","LI":"虎尾里","LIN":"33鄰","STREET":"東成街","SECT":" ","MAREA":" ","LANE":"１４２巷","ALLEY":" ","HOUSE_NO":"９９號","E_COORD97":171720.20000000001,"N_COORD97":2542106.8700000001,"ADDRESS":"東成街１４２巷９９號","OBJECTID":355291},"geometry":{"x":171720.20000000112,"y":2542106.870000001}},{"attributes":{"ID":355301,"DIS_CODE":0,"TOWNNAME":"東區","LI":"大智里","LIN":"33鄰","STREET":"崇善十六街","SECT":" ","MAREA":" ","LANE":"１２６巷","ALLEY":" ","HOUSE_NO":"３２號","E_COORD97":171270.85000000001,"N_COORD97":2540464.8599999999,"ADDRESS":"崇善十六街１２６巷３２號","OBJECTID":355292},"geometry":{"x":171270.85000000056,"y":2540464.8600000031}},{"attributes":{"ID":355302,"DIS_CODE":0,"TOWNNAME":"東區","LI":"大智里","LIN":"33鄰","STREET":"崇善十六街","SECT":" ","MAREA":" ","LANE":"１２６巷","ALLEY":" ","HOUSE_NO":"３６號","E_COORD97":171265.28,"N_COORD97":2540465.1899999999,"ADDRESS":"崇善十六街１２６巷３６號","OBJECTID":355293},"geometry":{"x":171265.28000000119,"y":2540465.1899999995}},{"attributes":{"ID":355303,"DIS_CODE":0,"TOWNNAME":"東區","LI":"虎尾里","LIN":"33鄰","STREET":"東門路","SECT":"三段","MAREA":" ","LANE":"１７９巷","ALLEY":" ","HOUSE_NO":"１２３號","E_COORD97":171691.73000000001,"N_COORD97":2542030.6899999999,"ADDRESS":"東門路三段１７９巷１２３號","OBJECTID":355294},"geometry":{"x":171691.73000000045,"y":2542030.6899999995}},{"attributes":{"ID":355304,"DIS_CODE":0,"TOWNNAME":"東區","LI":"虎尾里","LIN":"33鄰","STREET":"東門路","SECT":"三段","MAREA":" ","LANE":"１７９巷","ALLEY":" ","HOUSE_NO":"１２５號","E_COORD97":171697.57000000001,"N_COORD97":2542030.4900000002,"ADDRESS":"東門路三段１７９巷１２５號","OBJECTID":355295},"geometry":{"x":171697.57000000123,"y":2542030.4900000002}},{"attributes":{"ID":355305,"DIS_CODE":0,"TOWNNAME":"東區","LI":"虎尾里","LIN":"33鄰","STREET":"東門路","SECT":"三段","MAREA":" ","LANE":"１７９巷","ALLEY":" ","HOUSE_NO":"１３７號","E_COORD97":171729.48999999999,"N_COORD97":2542032.9900000002,"ADDRESS":"東門路三段１７９巷１３７號","OBJECTID":355296},"geometry":{"x":171729.49000000209,"y":2542032.9900000002}},{"attributes":{"ID":355306,"DIS_CODE":0,"TOWNNAME":"東區","LI":"虎尾里","LIN":"33鄰","STREET":"東門路","SECT":"三段","MAREA":" ","LANE":"１７９巷","ALLEY":" ","HOUSE_NO":"１３９號","E_COORD97":171735.54000000001,"N_COORD97":2542033.4100000001,"ADDRESS":"東門路三段１７９巷１３９號","OBJECTID":355297},"geometry":{"x":171735.53999999911,"y":2542033.4100000001}},{"attributes":{"ID":355307,"DIS_CODE":0,"TOWNNAME":"永康區","LI":"北灣里","LIN":"33鄰","STREET":"大灣路","SECT":" ","MAREA":" ","LANE":"４１巷","ALLEY":" ","HOUSE_NO":"９號","E_COORD97":175318.32000000001,"N_COORD97":2545797.5,"ADDRESS":"大灣路４１巷９號","OBJECTID":355298},"geometry":{"x":175318.32000000123,"y":2545797.5000000037}},{"attributes":{"ID":355308,"DIS_CODE":0,"TOWNNAME":"東區","LI":"小東里","LIN":"33鄰","STREET":"東興路","SECT":" ","MAREA":" ","LANE":"２８４巷","ALLEY":" ","HOUSE_NO":"１２號","E_COORD97":171087.28,"N_COORD97":2544003.8700000001,"ADDRESS":"東興路２８４巷１２號","OBJECTID":355299},"geometry":{"x":171087.28000000119,"y":2544003.8700000029}},{"attributes":{"ID":355309,"DIS_CODE":0,"TOWNNAME":"東區","LI":"大智里","LIN":"33鄰","STREET":"崇善十六街","SECT":" ","MAREA":" ","LANE":"１２６巷","ALLEY":" ","HOUSE_NO":"３８號","E_COORD97":171260.57999999999,"N_COORD97":2540464.8700000001,"ADDRESS":"崇善十六街１２６巷３８號","OBJECTID":355300},"geometry":{"x":171260.58000000007,"y":2540464.870000001}},{"attributes":{"ID":355310,"DIS_CODE":0,"TOWNNAME":"東區","LI":"大智里","LIN":"33鄰","STREET":"崇善十六街","SECT":" ","MAREA":" ","LANE":"１２６巷","ALLEY":" ","HOUSE_NO":"５０號","E_COORD97":171256.17999999999,"N_COORD97":2540464.4700000002,"ADDRESS":"崇善十六街１２６巷５０號","OBJECTID":355301},"geometry":{"x":171256.1799999997,"y":2540464.4700000007}},{"attributes":{"ID":355311,"DIS_CODE":0,"TOWNNAME":"東區","LI":"大智里","LIN":"33鄰","STREET":"崇善十六街","SECT":" ","MAREA":" ","LANE":"１２６巷","ALLEY":" ","HOUSE_NO":"５２號","E_COORD97":171253.78,"N_COORD97":2540494.5099999998,"ADDRESS":"崇善十六街１２６巷５２號","OBJECTID":355302},"geometry":{"x":171253.78000000026,"y":2540494.5100000035}},{"attributes":{"ID":355312,"DIS_CODE":0,"TOWNNAME":"東區","LI":"大智里","LIN":"33鄰","STREET":"崇善十六街","SECT":" ","MAREA":" ","LANE":"１２６巷","ALLEY":" ","HOUSE_NO":"５６號","E_COORD97":171258.17999999999,"N_COORD97":2540494.9100000001,"ADDRESS":"崇善十六街１２６巷５６號","OBJECTID":355303},"geometry":{"x":171258.18000000063,"y":2540494.9100000001}},{"attributes":{"ID":355313,"DIS_CODE":0,"TOWNNAME":"東區","LI":"大智里","LIN":"33鄰","STREET":"崇善十六街","SECT":" ","MAREA":" ","LANE":"１２６巷","ALLEY":" ","HOUSE_NO":"５８號","E_COORD97":171262.98999999999,"N_COORD97":2540494.9100000001,"ADDRESS":"崇善十六街１２６巷５８號","OBJECTID":355304},"geometry":{"x":171262.99000000022,"y":2540494.9100000001}},{"attributes":{"ID":355314,"DIS_CODE":0,"TOWNNAME":"東區","LI":"大智里","LIN":"33鄰","STREET":"崇善十六街","SECT":" ","MAREA":" ","LANE":"１２６巷","ALLEY":" ","HOUSE_NO":"６０號","E_COORD97":171267.39000000001,"N_COORD97":2540495.3100000001,"ADDRESS":"崇善十六街１２６巷６０號","OBJECTID":355305},"geometry":{"x":171267.3900000006,"y":2540495.3100000005}},{"attributes":{"ID":355315,"DIS_CODE":0,"TOWNNAME":"東區","LI":"大智里","LIN":"33鄰","STREET":"崇善十六街","SECT":" ","MAREA":" ","LANE":"１２６巷","ALLEY":" ","HOUSE_NO":"６２號","E_COORD97":171272.60000000001,"N_COORD97":2540495.3100000001,"ADDRESS":"崇善十六街１２６巷６２號","OBJECTID":355306},"geometry":{"x":171272.60000000056,"y":2540495.3100000005}},{"attributes":{"ID":355316,"DIS_CODE":0,"TOWNNAME":"東區","LI":"大智里","LIN":"33鄰","STREET":"崇善十六街","SECT":" ","MAREA":" ","LANE":"１２６巷","ALLEY":" ","HOUSE_NO":"６６號","E_COORD97":171277.41,"N_COORD97":2540496.1099999999,"ADDRESS":"崇善十六街１２６巷６６號","OBJECTID":355307},"geometry":{"x":171277.41000000201,"y":2540496.1099999994}},{"attributes":{"ID":355317,"DIS_CODE":0,"TOWNNAME":"東區","LI":"大智里","LIN":"33鄰","STREET":"崇善十六街","SECT":" ","MAREA":" ","LANE":"１２６巷","ALLEY":" ","HOUSE_NO":"６８號","E_COORD97":171281.81,"N_COORD97":2540495.71,"ADDRESS":"崇善十六街１２６巷６８號","OBJECTID":355308},"geometry":{"x":171281.80999999959,"y":2540495.7100000028}},{"attributes":{"ID":355318,"DIS_CODE":0,"TOWNNAME":"東區","LI":"大智里","LIN":"33鄰","STREET":"崇善十六街","SECT":" ","MAREA":" ","LANE":"１２６巷","ALLEY":" ","HOUSE_NO":"７０號","E_COORD97":171286.22,"N_COORD97":2540495.71,"ADDRESS":"崇善十六街１２６巷７０號","OBJECTID":355309},"geometry":{"x":171286.21999999974,"y":2540495.7100000028}},{"attributes":{"ID":355319,"DIS_CODE":0,"TOWNNAME":"東區","LI":"大智里","LIN":"33鄰","STREET":"崇善十六街","SECT":" ","MAREA":" ","LANE":"１２６巷","ALLEY":" ","HOUSE_NO":"７２號","E_COORD97":171284.20999999999,"N_COORD97":2540512.5299999998,"ADDRESS":"崇善十六街１２６巷７２號","OBJECTID":355310},"geometry":{"x":171284.21000000089,"y":2540512.5300000012}},{"attributes":{"ID":355320,"DIS_CODE":0,"TOWNNAME":"東區","LI":"大智里","LIN":"33鄰","STREET":"崇善十六街","SECT":" ","MAREA":" ","LANE":"１２６巷","ALLEY":" ","HOUSE_NO":"７６號","E_COORD97":171280.20999999999,"N_COORD97":2540513.3399999999,"ADDRESS":"崇善十六街１２６巷７６號","OBJECTID":355311},"geometry":{"x":171280.21000000183,"y":2540513.3400000017}},{"attributes":{"ID":355321,"DIS_CODE":0,"TOWNNAME":"東區","LI":"大智里","LIN":"33鄰","STREET":"崇善十六街","SECT":" ","MAREA":" ","LANE":"１２６巷","ALLEY":" ","HOUSE_NO":"７８號","E_COORD97":171275.79999999999,"N_COORD97":2540514.1400000001,"ADDRESS":"崇善十六街１２６巷７８號","OBJECTID":355312},"geometry":{"x":171275.79999999981,"y":2540514.1400000006}},{"attributes":{"ID":355322,"DIS_CODE":0,"TOWNNAME":"東區","LI":"大智里","LIN":"33鄰","STREET":"崇善十六街","SECT":" ","MAREA":" ","LANE":"１２６巷","ALLEY":" ","HOUSE_NO":"８０號","E_COORD97":171271,"N_COORD97":2540514.54,"ADDRESS":"崇善十六街１２６巷８０號","OBJECTID":355313},"geometry":{"x":171271,"y":2540514.540000001}},{"attributes":{"ID":355323,"DIS_CODE":0,"TOWNNAME":"東區","LI":"大智里","LIN":"33鄰","STREET":"崇善十六街","SECT":" ","MAREA":" ","LANE":"１２６巷","ALLEY":" ","HOUSE_NO":"８２號","E_COORD97":171262.59,"N_COORD97":2540514.54,"ADDRESS":"崇善十六街１２６巷８２號","OBJECTID":355314},"geometry":{"x":171262.59000000078,"y":2540514.540000001}},{"attributes":{"ID":355324,"DIS_CODE":0,"TOWNNAME":"東區","LI":"大智里","LIN":"33鄰","STREET":"崇善十六街","SECT":" ","MAREA":" ","LANE":"１２６巷","ALLEY":" ","HOUSE_NO":"８６號","E_COORD97":171253.38,"N_COORD97":2540514.9399999999,"ADDRESS":"崇善十六街１２６巷８６號","OBJECTID":355315},"geometry":{"x":171253.37999999896,"y":2540514.9400000032}},{"attributes":{"ID":355325,"DIS_CODE":0,"TOWNNAME":"東區","LI":"大智里","LIN":"33鄰","STREET":"崇善十六街","SECT":" ","MAREA":" ","LANE":"１２６巷","ALLEY":" ","HOUSE_NO":"５號","E_COORD97":171235.48999999999,"N_COORD97":2540450.46,"ADDRESS":"崇善十六街１２６巷５號","OBJECTID":355316},"geometry":{"x":171235.49000000022,"y":2540450.4600000009}},{"attributes":{"ID":355326,"DIS_CODE":0,"TOWNNAME":"東區","LI":"大智里","LIN":"33鄰","STREET":"崇善十六街","SECT":" ","MAREA":" ","LANE":"１２６巷","ALLEY":" ","HOUSE_NO":"７號","E_COORD97":171229.59,"N_COORD97":2540451.1099999999,"ADDRESS":"崇善十六街１２６巷７號","OBJECTID":355317},"geometry":{"x":171229.58999999985,"y":2540451.1099999994}},{"attributes":{"ID":355327,"DIS_CODE":0,"TOWNNAME":"東區","LI":"大智里","LIN":"33鄰","STREET":"崇善十六街","SECT":" ","MAREA":" ","LANE":"１２６巷","ALLEY":" ","HOUSE_NO":"９號","E_COORD97":171225.34,"N_COORD97":2540451.4399999999,"ADDRESS":"崇善十六街１２６巷９號","OBJECTID":355318},"geometry":{"x":171225.34000000078,"y":2540451.4400000013}},{"attributes":{"ID":355328,"DIS_CODE":0,"TOWNNAME":"東區","LI":"大智里","LIN":"33鄰","STREET":"崇善十六街","SECT":" ","MAREA":" ","LANE":"１２６巷","ALLEY":" ","HOUSE_NO":"１３號","E_COORD97":171220.42000000001,"N_COORD97":2540466.1699999999,"ADDRESS":"崇善十六街１２６巷１３號","OBJECTID":355319},"geometry":{"x":171220.41999999993,"y":2540466.1699999999}},{"attributes":{"ID":355329,"DIS_CODE":0,"TOWNNAME":"東區","LI":"大智里","LIN":"33鄰","STREET":"崇善十六街","SECT":" ","MAREA":" ","LANE":"１２６巷","ALLEY":" ","HOUSE_NO":"１５號","E_COORD97":171224.67999999999,"N_COORD97":2540467.48,"ADDRESS":"崇善十六街１２６巷１５號","OBJECTID":355320},"geometry":{"x":171224.68000000063,"y":2540467.4800000004}},{"attributes":{"ID":355330,"DIS_CODE":0,"TOWNNAME":"東區","LI":"大智里","LIN":"33鄰","STREET":"崇善十六街","SECT":" ","MAREA":" ","LANE":"１２６巷","ALLEY":" ","HOUSE_NO":"１７號","E_COORD97":171230.25,"N_COORD97":2540467.8100000001,"ADDRESS":"崇善十六街１２６巷１７號","OBJECTID":355321},"geometry":{"x":171230.25,"y":2540467.8100000024}},{"attributes":{"ID":355331,"DIS_CODE":0,"TOWNNAME":"東區","LI":"大智里","LIN":"33鄰","STREET":"崇善十六街","SECT":" ","MAREA":" ","LANE":"１２６巷","ALLEY":" ","HOUSE_NO":"２號","E_COORD97":171258.07999999999,"N_COORD97":2540449.7999999998,"ADDRESS":"崇善十六街１２６巷２號","OBJECTID":355322},"geometry":{"x":171258.08000000101,"y":2540449.8000000045}},{"attributes":{"ID":355332,"DIS_CODE":0,"TOWNNAME":"東區","LI":"大智里","LIN":"33鄰","STREET":"崇善十六街","SECT":" ","MAREA":" ","LANE":"１２６巷","ALLEY":" ","HOUSE_NO":"１９號","E_COORD97":171236.79999999999,"N_COORD97":2540468.4700000002,"ADDRESS":"崇善十六街１２６巷１９號","OBJECTID":355323},"geometry":{"x":171236.79999999981,"y":2540468.4699999988}},{"attributes":{"ID":355333,"DIS_CODE":0,"TOWNNAME":"東區","LI":"大智里","LIN":"33鄰","STREET":"崇善十六街","SECT":" ","MAREA":" ","LANE":"１２６巷","ALLEY":" ","HOUSE_NO":"６號","E_COORD97":171262.01000000001,"N_COORD97":2540451.1099999999,"ADDRESS":"崇善十六街１２６巷６號","OBJECTID":355324},"geometry":{"x":171262.00999999978,"y":2540451.1099999994}},{"attributes":{"ID":355334,"DIS_CODE":0,"TOWNNAME":"東區","LI":"大智里","LIN":"33鄰","STREET":"崇善十六街","SECT":" ","MAREA":" ","LANE":"１２６巷","ALLEY":" ","HOUSE_NO":"２１號","E_COORD97":171235.16,"N_COORD97":2540495.6400000001,"ADDRESS":"崇善十六街１２６巷２１號","OBJECTID":355325},"geometry":{"x":171235.16000000108,"y":2540495.6400000025}},{"attributes":{"ID":355335,"DIS_CODE":0,"TOWNNAME":"仁德區","LI":"成功里","LIN":"33鄰","STREET":"成功一街","SECT":" ","MAREA":" ","LANE":"４３巷","ALLEY":" ","HOUSE_NO":"１３號","E_COORD97":170598.76000000001,"N_COORD97":2540113.77,"ADDRESS":"成功一街４３巷１３號","OBJECTID":355326},"geometry":{"x":170598.76000000071,"y":2540113.7700000014}},{"attributes":{"ID":355336,"DIS_CODE":0,"TOWNNAME":"仁德區","LI":"後壁里","LIN":"33鄰","STREET":"德洋二街","SECT":" ","MAREA":" ","LANE":"３９巷","ALLEY":" ","HOUSE_NO":"５５號","E_COORD97":172237.73000000001,"N_COORD97":2539428.9100000001,"ADDRESS":"德洋二街３９巷５５號","OBJECTID":355327},"geometry":{"x":172237.73000000045,"y":2539428.910000002}},{"attributes":{"ID":355337,"DIS_CODE":0,"TOWNNAME":"仁德區","LI":"成功里","LIN":"33鄰","STREET":"成功一街","SECT":" ","MAREA":" ","LANE":"４３巷","ALLEY":" ","HOUSE_NO":"７號","E_COORD97":170578.14999999999,"N_COORD97":2540112.77,"ADDRESS":"成功一街４３巷７號","OBJECTID":355328},"geometry":{"x":170578.1500000013,"y":2540112.7700000033}},{"attributes":{"ID":355338,"DIS_CODE":0,"TOWNNAME":"仁德區","LI":"後壁里","LIN":"33鄰","STREET":"德洋二街","SECT":" ","MAREA":" ","LANE":"３９巷","ALLEY":" ","HOUSE_NO":"３５號","E_COORD97":172278.39000000001,"N_COORD97":2539424.9100000001,"ADDRESS":"德洋二街３９巷３５號","OBJECTID":355329},"geometry":{"x":172278.38999999966,"y":2539424.910000002}},{"attributes":{"ID":355339,"DIS_CODE":0,"TOWNNAME":"仁德區","LI":"後壁里","LIN":"33鄰","STREET":"德洋二街","SECT":" ","MAREA":" ","LANE":"３９巷","ALLEY":" ","HOUSE_NO":"２２５號","E_COORD97":172192.48000000001,"N_COORD97":2539327.0099999998,"ADDRESS":"德洋二街３９巷２２５號","OBJECTID":355330},"geometry":{"x":172192.48000000231,"y":2539327.0099999998}},{"attributes":{"ID":355340,"DIS_CODE":0,"TOWNNAME":"仁德區","LI":"後壁里","LIN":"33鄰","STREET":"德洋二街","SECT":" ","MAREA":" ","LANE":"３９巷","ALLEY":" ","HOUSE_NO":"７５號","E_COORD97":172191.66,"N_COORD97":2539425.4100000001,"ADDRESS":"德洋二街３９巷７５號","OBJECTID":355331},"geometry":{"x":172191.66000000108,"y":2539425.410000002}},{"attributes":{"ID":355341,"DIS_CODE":0,"TOWNNAME":"仁德區","LI":"成功里","LIN":"33鄰","STREET":"成功一街","SECT":" ","MAREA":" ","LANE":"４３巷","ALLEY":" ","HOUSE_NO":"１９號","E_COORD97":170614.73999999999,"N_COORD97":2540113.52,"ADDRESS":"成功一街４３巷１９號","OBJECTID":355332},"geometry":{"x":170614.74000000115,"y":2540113.5199999996}},{"attributes":{"ID":355342,"DIS_CODE":0,"TOWNNAME":"永康區","LI":"埔園里","LIN":"33鄰","STREET":"埔東街","SECT":" ","MAREA":" ","LANE":"３０巷","ALLEY":" ","HOUSE_NO":"１３號","E_COORD97":173896.34,"N_COORD97":2548126.7400000002,"ADDRESS":"埔東街３０巷１３號","OBJECTID":355333},"geometry":{"x":173896.33999999985,"y":2548126.7400000021}},{"attributes":{"ID":355343,"DIS_CODE":0,"TOWNNAME":"永康區","LI":"東灣里","LIN":"33鄰","STREET":"大灣一街","SECT":" ","MAREA":" ","LANE":"３５８巷","ALLEY":" ","HOUSE_NO":"３號","E_COORD97":175127.42000000001,"N_COORD97":2544775.0499999998,"ADDRESS":"大灣一街３５８巷３號","OBJECTID":355334},"geometry":{"x":175127.42000000086,"y":2544775.0500000026}},{"attributes":{"ID":355344,"DIS_CODE":0,"TOWNNAME":"永康區","LI":"東灣里","LIN":"33鄰","STREET":"大灣一街","SECT":" ","MAREA":" ","LANE":"３５８巷","ALLEY":" ","HOUSE_NO":"１３號","E_COORD97":175142.42000000001,"N_COORD97":2544757.5499999998,"ADDRESS":"大灣一街３５８巷１３號","OBJECTID":355335},"geometry":{"x":175142.42000000086,"y":2544757.5500000026}},{"attributes":{"ID":355345,"DIS_CODE":0,"TOWNNAME":"永康區","LI":"龍潭里","LIN":"33鄰","STREET":"龍國街","SECT":" ","MAREA":" ","LANE":"２４０巷","ALLEY":" ","HOUSE_NO":"１３號","E_COORD97":174496.19,"N_COORD97":2547953.2999999998,"ADDRESS":"龍國街２４０巷１３號","OBJECTID":355336},"geometry":{"x":174496.19000000041,"y":2547953.3000000026}},{"attributes":{"ID":355346,"DIS_CODE":0,"TOWNNAME":"永康區","LI":"龍潭里","LIN":"33鄰","STREET":"龍國街","SECT":" ","MAREA":" ","LANE":"２４０巷","ALLEY":" ","HOUSE_NO":"１９號","E_COORD97":174497.73999999999,"N_COORD97":2547938.9300000002,"ADDRESS":"龍國街２４０巷１９號","OBJECTID":355337},"geometry":{"x":174497.74000000209,"y":2547938.9299999997}},{"attributes":{"ID":355347,"DIS_CODE":0,"TOWNNAME":"永康區","LI":"龍潭里","LIN":"33鄰","STREET":"龍國街","SECT":" ","MAREA":" ","LANE":"２４０巷","ALLEY":" ","HOUSE_NO":"１１號","E_COORD97":174493.98999999999,"N_COORD97":2547957.4399999999,"ADDRESS":"龍國街２４０巷１１號","OBJECTID":355338},"geometry":{"x":174493.99000000022,"y":2547957.4400000013}},{"attributes":{"ID":355348,"DIS_CODE":0,"TOWNNAME":"永康區","LI":"龍潭里","LIN":"33鄰","STREET":"龍國街","SECT":" ","MAREA":" ","LANE":"２４０巷","ALLEY":" ","HOUSE_NO":"７號","E_COORD97":174495.01999999999,"N_COORD97":2547967.5600000001,"ADDRESS":"龍國街２４０巷７號","OBJECTID":355339},"geometry":{"x":174495.02000000142,"y":2547967.5600000042}},{"attributes":{"ID":355349,"DIS_CODE":0,"TOWNNAME":"東區","LI":"小東里","LIN":"33鄰","STREET":"東興路","SECT":" ","MAREA":" ","LANE":"２８４巷","ALLEY":" ","HOUSE_NO":"２８號","E_COORD97":171130.73999999999,"N_COORD97":2543998.1099999999,"ADDRESS":"東興路２８４巷２８號","OBJECTID":355340},"geometry":{"x":171130.74000000022,"y":2543998.1099999994}},{"attributes":{"ID":355350,"DIS_CODE":0,"TOWNNAME":"永康區","LI":"復國里","LIN":"33鄰","STREET":"復華一街","SECT":" ","MAREA":" ","LANE":"６６巷","ALLEY":" ","HOUSE_NO":"１５號","E_COORD97":172531.23000000001,"N_COORD97":2545128.02,"ADDRESS":"復華一街６６巷１５號","OBJECTID":355341},"geometry":{"x":172531.23000000045,"y":2545128.0199999996}},{"attributes":{"ID":355351,"DIS_CODE":0,"TOWNNAME":"永康區","LI":"勝利里","LIN":"33鄰","STREET":"小東路","SECT":" ","MAREA":" ","LANE":"４４９巷","ALLEY":" ","HOUSE_NO":"１６號","E_COORD97":171458.87,"N_COORD97":2544429.4100000001,"ADDRESS":"小東路４４９巷１６號","OBJECTID":355342},"geometry":{"x":171458.87000000197,"y":2544429.410000002}},{"attributes":{"ID":355352,"DIS_CODE":0,"TOWNNAME":"永康區","LI":"復華里","LIN":"33鄰","STREET":"忠孝路","SECT":" ","MAREA":" ","LANE":"３５２巷","ALLEY":" ","HOUSE_NO":"２８號","E_COORD97":172451.42000000001,"N_COORD97":2546248.9900000002,"ADDRESS":"忠孝路３５２巷２８號","OBJECTID":355343},"geometry":{"x":172451.41999999993,"y":2546248.9900000021}},{"attributes":{"ID":355353,"DIS_CODE":0,"TOWNNAME":"永康區","LI":"復國里","LIN":"33鄰","STREET":"復華一街","SECT":" ","MAREA":" ","LANE":"６６巷","ALLEY":" ","HOUSE_NO":"１０號","E_COORD97":172547.47,"N_COORD97":2545131.4900000002,"ADDRESS":"復華一街６６巷１０號","OBJECTID":355344},"geometry":{"x":172547.46999999974,"y":2545131.4900000021}},{"attributes":{"ID":355354,"DIS_CODE":0,"TOWNNAME":"永康區","LI":"復國里","LIN":"33鄰","STREET":"復華一街","SECT":" ","MAREA":" ","LANE":"６６巷","ALLEY":" ","HOUSE_NO":"３８號","E_COORD97":172549.73999999999,"N_COORD97":2545211.0299999998,"ADDRESS":"復華一街６６巷３８號","OBJECTID":355345},"geometry":{"x":172549.74000000022,"y":2545211.0300000012}},{"attributes":{"ID":355355,"DIS_CODE":0,"TOWNNAME":"永康區","LI":"\u25A0行里","LIN":"33鄰","STREET":"中正北路","SECT":" ","MAREA":" ","LANE":"７１巷","ALLEY":" ","HOUSE_NO":"１０號","E_COORD97":172086.25,"N_COORD97":2549162.4900000002,"ADDRESS":"中正北路７１巷１０號","OBJECTID":355346},"geometry":{"x":172086.25,"y":2549162.4900000021}},{"attributes":{"ID":355356,"DIS_CODE":0,"TOWNNAME":"永康區","LI":"\u25A0洲里","LIN":"33鄰","STREET":"洲尾街","SECT":" ","MAREA":" ","LANE":"７４巷","ALLEY":" ","HOUSE_NO":"１９號","E_COORD97":170945.07000000001,"N_COORD97":2548998.23,"ADDRESS":"洲尾街７４巷１９號","OBJECTID":355347},"geometry":{"x":170945.0700000003,"y":2548998.2300000023}},{"attributes":{"ID":355357,"DIS_CODE":0,"TOWNNAME":"永康區","LI":"\u25A0洲里","LIN":"33鄰","STREET":"洲尾街","SECT":" ","MAREA":" ","LANE":"７４巷","ALLEY":" ","HOUSE_NO":"３５號","E_COORD97":170960.47,"N_COORD97":2549077.5600000001,"ADDRESS":"洲尾街７４巷３５號","OBJECTID":355348},"geometry":{"x":170960.46999999974,"y":2549077.5600000024}},{"attributes":{"ID":355358,"DIS_CODE":0,"TOWNNAME":"歸仁區","LI":"辜厝里","LIN":"33鄰","STREET":"大吉二街","SECT":" ","MAREA":" ","LANE":"２６巷","ALLEY":" ","HOUSE_NO":"４９號","E_COORD97":177284.09,"N_COORD97":2540438.6800000002,"ADDRESS":"大吉二街２６巷４９號","OBJECTID":355349},"geometry":{"x":177284.09000000078,"y":2540438.6799999997}},{"attributes":{"ID":355359,"DIS_CODE":0,"TOWNNAME":"安平區","LI":"華平里","LIN":"33鄰","STREET":"育平九街","SECT":" ","MAREA":" ","LANE":"１４２巷","ALLEY":" ","HOUSE_NO":"５４號","E_COORD97":165157.41,"N_COORD97":2544105.23,"ADDRESS":"育平九街１４２巷５４號","OBJECTID":355350},"geometry":{"x":165157.41000000015,"y":2544105.2300000023}},{"attributes":{"ID":355360,"DIS_CODE":0,"TOWNNAME":"安平區","LI":"華平里","LIN":"33鄰","STREET":"育平九街","SECT":" ","MAREA":" ","LANE":"１４２巷","ALLEY":" ","HOUSE_NO":"５６號","E_COORD97":165157.75,"N_COORD97":2544109.3999999999,"ADDRESS":"育平九街１４２巷５６號","OBJECTID":355351},"geometry":{"x":165157.75,"y":2544109.4000000004}},{"attributes":{"ID":355361,"DIS_CODE":0,"TOWNNAME":"安平區","LI":"華平里","LIN":"33鄰","STREET":"育平九街","SECT":" ","MAREA":" ","LANE":"１４２巷","ALLEY":" ","HOUSE_NO":"５８號","E_COORD97":165158,"N_COORD97":2544113.1099999999,"ADDRESS":"育平九街１４２巷５８號","OBJECTID":355352},"geometry":{"x":165158,"y":2544113.1099999994}},{"attributes":{"ID":355362,"DIS_CODE":0,"TOWNNAME":"安平區","LI":"華平里","LIN":"33鄰","STREET":"育平九街","SECT":" ","MAREA":" ","LANE":"１４２巷","ALLEY":" ","HOUSE_NO":"６０號","E_COORD97":165158.51000000001,"N_COORD97":2544117.1499999999,"ADDRESS":"育平九街１４２巷６０號","OBJECTID":355353},"geometry":{"x":165158.51000000071,"y":2544117.1500000004}},{"attributes":{"ID":355363,"DIS_CODE":0,"TOWNNAME":"安平區","LI":"華平里","LIN":"33鄰","STREET":"育平九街","SECT":" ","MAREA":" ","LANE":"１４２巷","ALLEY":" ","HOUSE_NO":"６２號","E_COORD97":165159.10000000001,"N_COORD97":2544121.02,"ADDRESS":"育平九街１４２巷６２號","OBJECTID":355354},"geometry":{"x":165159.0999999987,"y":2544121.0199999996}},{"attributes":{"ID":355364,"DIS_CODE":0,"TOWNNAME":"安平區","LI":"華平里","LIN":"33鄰","STREET":"育平九街","SECT":" ","MAREA":" ","LANE":"１４２巷","ALLEY":" ","HOUSE_NO":"６４號","E_COORD97":165159.85999999999,"N_COORD97":2544124.73,"ADDRESS":"育平九街１４２巷６４號","OBJECTID":355355},"geometry":{"x":165159.8600000022,"y":2544124.7299999986}},{"attributes":{"ID":355365,"DIS_CODE":0,"TOWNNAME":"新營區","LI":"王公里","LIN":"33鄰","STREET":"長榮路","SECT":"一段","MAREA":" ","LANE":"５１５巷","ALLEY":" ","HOUSE_NO":"９號","E_COORD97":180302.07000000001,"N_COORD97":2579817.1699999999,"ADDRESS":"長榮路一段５１５巷９號","OBJECTID":355356},"geometry":{"x":180302.07000000123,"y":2579817.1699999999}},{"attributes":{"ID":355366,"DIS_CODE":0,"TOWNNAME":"新營區","LI":"三仙里","LIN":"21鄰","STREET":"健康路","SECT":" ","MAREA":" ","LANE":"２１３巷","ALLEY":" ","HOUSE_NO":"１號","E_COORD97":179583,"N_COORD97":2579583.5800000001,"ADDRESS":"健康路２１３巷１號","OBJECTID":355357},"geometry":{"x":179583.00000000186,"y":2579583.5800000019}},{"attributes":{"ID":355367,"DIS_CODE":0,"TOWNNAME":"新營區","LI":"忠政里","LIN":"33鄰","STREET":"中正路","SECT":" ","MAREA":" ","LANE":"３７巷","ALLEY":" ","HOUSE_NO":"１９２號","E_COORD97":179861.69,"N_COORD97":2579160.3300000001,"ADDRESS":"中正路３７巷１９２號","OBJECTID":355358},"geometry":{"x":179861.68999999948,"y":2579160.3300000019}},{"attributes":{"ID":355368,"DIS_CODE":0,"TOWNNAME":"新營區","LI":"三仙里","LIN":"21鄰","STREET":"金華路","SECT":"一段","MAREA":" ","LANE":"１２巷","ALLEY":" ","HOUSE_NO":"６號","E_COORD97":179613.09,"N_COORD97":2579713.6699999999,"ADDRESS":"金華路一段１２巷６號","OBJECTID":355359},"geometry":{"x":179613.09000000078,"y":2579713.6700000037}},{"attributes":{"ID":355369,"DIS_CODE":0,"TOWNNAME":"新營區","LI":"王公里","LIN":"33鄰","STREET":"長榮路","SECT":"一段","MAREA":" ","LANE":"５１５巷","ALLEY":" ","HOUSE_NO":"２７號","E_COORD97":180308.28,"N_COORD97":2579763.9900000002,"ADDRESS":"長榮路一段５１５巷２７號","OBJECTID":355360},"geometry":{"x":180308.28000000026,"y":2579763.9900000021}},{"attributes":{"ID":355370,"DIS_CODE":0,"TOWNNAME":"新營區","LI":"三仙里","LIN":"21鄰","STREET":"健康路","SECT":" ","MAREA":" ","LANE":"２１３巷","ALLEY":" ","HOUSE_NO":"２１號","E_COORD97":179587.10999999999,"N_COORD97":2579524.8700000001,"ADDRESS":"健康路２１３巷２１號","OBJECTID":355361},"geometry":{"x":179587.11000000034,"y":2579524.8700000029}},{"attributes":{"ID":355371,"DIS_CODE":0,"TOWNNAME":"新營區","LI":"忠政里","LIN":"33鄰","STREET":"中正路","SECT":" ","MAREA":" ","LANE":"３７巷","ALLEY":" ","HOUSE_NO":"１９８號","E_COORD97":179846.35000000001,"N_COORD97":2579159.29,"ADDRESS":"中正路３７巷１９８號","OBJECTID":355362},"geometry":{"x":179846.35000000149,"y":2579159.2900000028}},{"attributes":{"ID":355372,"DIS_CODE":0,"TOWNNAME":"新營區","LI":"王公里","LIN":"33鄰","STREET":"民族路","SECT":" ","MAREA":" ","LANE":"３３０巷","ALLEY":" ","HOUSE_NO":"２７號","E_COORD97":180463.37,"N_COORD97":2579816.0800000001,"ADDRESS":"民族路３３０巷２７號","OBJECTID":355363},"geometry":{"x":180463.37000000011,"y":2579816.0800000038}},{"attributes":{"ID":355373,"DIS_CODE":0,"TOWNNAME":"新營區","LI":"忠政里","LIN":"33鄰","STREET":"中正路","SECT":" ","MAREA":" ","LANE":"３７巷","ALLEY":" ","HOUSE_NO":"２０８號","E_COORD97":179846.47,"N_COORD97":2579170.3700000001,"ADDRESS":"中正路３７巷２０８號","OBJECTID":355364},"geometry":{"x":179846.46999999974,"y":2579170.370000001}},{"attributes":{"ID":355374,"DIS_CODE":0,"TOWNNAME":"新營區","LI":"王公里","LIN":"33鄰","STREET":"民族路","SECT":" ","MAREA":" ","LANE":"３３０巷","ALLEY":" ","HOUSE_NO":"５０號","E_COORD97":180497.57999999999,"N_COORD97":2579792.4500000002,"ADDRESS":"民族路３３０巷５０號","OBJECTID":355365},"geometry":{"x":180497.58000000007,"y":2579792.450000003}},{"attributes":{"ID":355375,"DIS_CODE":0,"TOWNNAME":"新營區","LI":"王公里","LIN":"33鄰","STREET":"民族路","SECT":" ","MAREA":" ","LANE":"３３０巷","ALLEY":" ","HOUSE_NO":"１２號","E_COORD97":180431.07000000001,"N_COORD97":2579789.9900000002,"ADDRESS":"民族路３３０巷１２號","OBJECTID":355366},"geometry":{"x":180431.07000000123,"y":2579789.9900000021}},{"attributes":{"ID":355376,"DIS_CODE":0,"TOWNNAME":"歸仁區","LI":"南保里","LIN":"33鄰","STREET":"民權八街","SECT":" ","MAREA":" ","LANE":"５３巷","ALLEY":" ","HOUSE_NO":"１０號","E_COORD97":176806.64000000001,"N_COORD97":2540968.29,"ADDRESS":"民權八街５３巷１０號","OBJECTID":355367},"geometry":{"x":176806.64000000153,"y":2540968.290000001}},{"attributes":{"ID":355377,"DIS_CODE":0,"TOWNNAME":"新營區","LI":"新北里","LIN":"33鄰","STREET":"新北八街","SECT":" ","MAREA":" ","LANE":"２９巷","ALLEY":" ","HOUSE_NO":"１４號","E_COORD97":178680.54000000001,"N_COORD97":2579247.9100000001,"ADDRESS":"新北八街２９巷１４號","OBJECTID":355368},"geometry":{"x":178680.54000000004,"y":2579247.9100000039}},{"attributes":{"ID":355378,"DIS_CODE":0,"TOWNNAME":"新營區","LI":"王公里","LIN":"33鄰","STREET":"長榮路","SECT":"一段","MAREA":" ","LANE":"５１５巷","ALLEY":" ","HOUSE_NO":"１５號","E_COORD97":180307.31,"N_COORD97":2579789.4700000002,"ADDRESS":"長榮路一段５１５巷１５號","OBJECTID":355369},"geometry":{"x":180307.30999999959,"y":2579789.4700000007}},{"attributes":{"ID":355379,"DIS_CODE":0,"TOWNNAME":"新營區","LI":"王公里","LIN":"33鄰","STREET":"長榮路","SECT":"一段","MAREA":" ","LANE":"５１５巷","ALLEY":" ","HOUSE_NO":"３號","E_COORD97":180302.26000000001,"N_COORD97":2579832.6699999999,"ADDRESS":"長榮路一段５１５巷３號","OBJECTID":355370},"geometry":{"x":180302.25999999978,"y":2579832.6700000018}},{"attributes":{"ID":355380,"DIS_CODE":0,"TOWNNAME":"新營區","LI":"忠政里","LIN":"33鄰","STREET":"中正路","SECT":" ","MAREA":" ","LANE":"３７巷","ALLEY":" ","HOUSE_NO":"１７４號","E_COORD97":179901.34,"N_COORD97":2579109.1899999999,"ADDRESS":"中正路３７巷１７４號","OBJECTID":355371},"geometry":{"x":179901.34000000078,"y":2579109.1899999976}},{"attributes":{"ID":355381,"DIS_CODE":0,"TOWNNAME":"中西區","LI":"保安里","LIN":"8鄰","STREET":"國華街","SECT":"二段","MAREA":" ","LANE":" ","ALLEY":" ","HOUSE_NO":"１５４號","E_COORD97":167681.51000000001,"N_COORD97":2543547.1800000002,"ADDRESS":"國華街二段１５４號","OBJECTID":355372},"geometry":{"x":167681.51000000071,"y":2543547.1799999997}},{"attributes":{"ID":355382,"DIS_CODE":0,"TOWNNAME":"新營區","LI":"忠政里","LIN":"33鄰","STREET":"中正路","SECT":" ","MAREA":" ","LANE":"３７巷","ALLEY":" ","HOUSE_NO":"１６０號之１","E_COORD97":179881,"N_COORD97":2579114.8900000001,"ADDRESS":"中正路３７巷１６０號之１","OBJECTID":355373},"geometry":{"x":179881,"y":2579114.8900000006}},{"attributes":{"ID":355383,"DIS_CODE":0,"TOWNNAME":"北區","LI":"和順里","LIN":"33鄰","STREET":"公園南路","SECT":" ","MAREA":" ","LANE":"３６２巷","ALLEY":" ","HOUSE_NO":"１０號","E_COORD97":168303.29999999999,"N_COORD97":2544916.5899999999,"ADDRESS":"公園南路３６２巷１０號","OBJECTID":355374},"geometry":{"x":168303.30000000075,"y":2544916.5900000017}},{"attributes":{"ID":355384,"DIS_CODE":0,"TOWNNAME":"新營區","LI":"太北里","LIN":"20鄰","STREET":" ","SECT":" ","MAREA":"太子宮","LANE":" ","ALLEY":" ","HOUSE_NO":"１４０之６５號","E_COORD97":175177.20999999999,"N_COORD97":2576399.1699999999,"ADDRESS":"太子宮１４０之６５號","OBJECTID":355375},"geometry":{"x":175177.20999999996,"y":2576399.1700000018}},{"attributes":{"ID":355385,"DIS_CODE":0,"TOWNNAME":"北區","LI":"和順里","LIN":"33鄰","STREET":"公園南路","SECT":" ","MAREA":" ","LANE":"３６２巷","ALLEY":" ","HOUSE_NO":"６號","E_COORD97":168307.45999999999,"N_COORD97":2544924.7400000002,"ADDRESS":"公園南路３６２巷６號","OBJECTID":355376},"geometry":{"x":168307.46000000089,"y":2544924.7400000039}},{"attributes":{"ID":355386,"DIS_CODE":0,"TOWNNAME":"北區","LI":"和順里","LIN":"33鄰","STREET":"公園南路","SECT":" ","MAREA":" ","LANE":"３６２巷","ALLEY":" ","HOUSE_NO":"８號","E_COORD97":168312.29000000001,"N_COORD97":2544919.0800000001,"ADDRESS":"公園南路３６２巷８號","OBJECTID":355377},"geometry":{"x":168312.29000000004,"y":2544919.0800000038}},{"attributes":{"ID":355387,"DIS_CODE":0,"TOWNNAME":"歸仁區","LI":"六甲里","LIN":"33鄰","STREET":"六甲路","SECT":" ","MAREA":" ","LANE":"３０６巷","ALLEY":" ","HOUSE_NO":"１５號","E_COORD97":175698.10000000001,"N_COORD97":2539290.21,"ADDRESS":"六甲路３０６巷１５號","OBJECTID":355378},"geometry":{"x":175698.0999999987,"y":2539290.2100000009}},{"attributes":{"ID":355388,"DIS_CODE":0,"TOWNNAME":"南區","LI":"光明里","LIN":"33鄰","STREET":"新興路","SECT":" ","MAREA":" ","LANE":"５３７巷","ALLEY":" ","HOUSE_NO":"１號","E_COORD97":166620.31,"N_COORD97":2541616.6200000001,"ADDRESS":"新興路５３７巷１號","OBJECTID":355379},"geometry":{"x":166620.30999999959,"y":2541616.620000001}},{"attributes":{"ID":355389,"DIS_CODE":0,"TOWNNAME":"永康區","LI":"龍潭里","LIN":"33鄰","STREET":"龍國街","SECT":" ","MAREA":" ","LANE":"３２０巷","ALLEY":" ","HOUSE_NO":"２號","E_COORD97":174620.25,"N_COORD97":2548010.7000000002,"ADDRESS":"龍國街３２０巷２號","OBJECTID":355380},"geometry":{"x":174620.25000000093,"y":2548010.7000000011}},{"attributes":{"ID":355390,"DIS_CODE":0,"TOWNNAME":"永康區","LI":"龍潭里","LIN":"33鄰","STREET":"龍國街","SECT":" ","MAREA":" ","LANE":"３２０巷","ALLEY":" ","HOUSE_NO":"３２號","E_COORD97":174614.09,"N_COORD97":2547947.6299999999,"ADDRESS":"龍國街３２０巷３２號","OBJECTID":355381},"geometry":{"x":174614.09000000078,"y":2547947.629999999}},{"attributes":{"ID":355391,"DIS_CODE":0,"TOWNNAME":"永康區","LI":"復華里","LIN":"33鄰","STREET":"復華十街","SECT":" ","MAREA":" ","LANE":"２４巷","ALLEY":" ","HOUSE_NO":"１６號","E_COORD97":172554.14999999999,"N_COORD97":2546137.0299999998,"ADDRESS":"復華十街２４巷１６號","OBJECTID":355382},"geometry":{"x":172554.15000000224,"y":2546137.0300000012}},{"attributes":{"ID":355392,"DIS_CODE":0,"TOWNNAME":"永康區","LI":"復華里","LIN":"33鄰","STREET":"復華十街","SECT":" ","MAREA":" ","LANE":"２４巷","ALLEY":" ","HOUSE_NO":"７號","E_COORD97":172531.31,"N_COORD97":2546128.6000000001,"ADDRESS":"復華十街２４巷７號","OBJECTID":355383},"geometry":{"x":172531.30999999959,"y":2546128.6000000034}},{"attributes":{"ID":355393,"DIS_CODE":0,"TOWNNAME":"永康區","LI":"\u25A0洲里","LIN":"33鄰","STREET":"洲尾街","SECT":" ","MAREA":" ","LANE":"７４巷","ALLEY":" ","HOUSE_NO":"２７號","E_COORD97":170964.48999999999,"N_COORD97":2549044.2599999998,"ADDRESS":"洲尾街７４巷２７號","OBJECTID":355384},"geometry":{"x":170964.49000000022,"y":2549044.2600000016}},{"attributes":{"ID":355394,"DIS_CODE":0,"TOWNNAME":"永康區","LI":"\u25A0洲里","LIN":"33鄰","STREET":"洲尾街","SECT":" ","MAREA":" ","LANE":"７４巷","ALLEY":" ","HOUSE_NO":"２５號","E_COORD97":170961.42000000001,"N_COORD97":2549036.0099999998,"ADDRESS":"洲尾街７４巷２５號","OBJECTID":355385},"geometry":{"x":170961.41999999993,"y":2549036.0100000016}},{"attributes":{"ID":355395,"DIS_CODE":0,"TOWNNAME":"永康區","LI":"二王里","LIN":"33鄰","STREET":"中山南路","SECT":" ","MAREA":" ","LANE":"４３６巷","ALLEY":" ","HOUSE_NO":"３號","E_COORD97":172025.10000000001,"N_COORD97":2546392.3399999999,"ADDRESS":"中山南路４３６巷３號","OBJECTID":355386},"geometry":{"x":172025.10000000056,"y":2546392.3400000017}},{"attributes":{"ID":355396,"DIS_CODE":0,"TOWNNAME":"仁德區","LI":"仁德里","LIN":"33鄰","STREET":"中山路","SECT":" ","MAREA":" ","LANE":"６９６巷","ALLEY":" ","HOUSE_NO":"２號","E_COORD97":172821.42000000001,"N_COORD97":2541515.4900000002,"ADDRESS":"中山路６９６巷２號","OBJECTID":355387},"geometry":{"x":172821.42000000179,"y":2541515.4899999984}},{"attributes":{"ID":355397,"DIS_CODE":0,"TOWNNAME":"仁德區","LI":"仁德里","LIN":"33鄰","STREET":"中山路","SECT":" ","MAREA":" ","LANE":"６９６巷","ALLEY":" ","HOUSE_NO":"１號","E_COORD97":172815.14999999999,"N_COORD97":2541519.7400000002,"ADDRESS":"中山路６９６巷１號","OBJECTID":355388},"geometry":{"x":172815.15000000224,"y":2541519.7400000002}},{"attributes":{"ID":355398,"DIS_CODE":0,"TOWNNAME":"仁德區","LI":"成功里","LIN":"33鄰","STREET":"成功一街","SECT":" ","MAREA":" ","LANE":"４３巷","ALLEY":" ","HOUSE_NO":"５號","E_COORD97":170568.66,"N_COORD97":2540113.02,"ADDRESS":"成功一街４３巷５號","OBJECTID":355389},"geometry":{"x":170568.66000000201,"y":2540113.0199999996}},{"attributes":{"ID":355399,"DIS_CODE":0,"TOWNNAME":"仁德區","LI":"成功里","LIN":"33鄰","STREET":"成功一街","SECT":" ","MAREA":" ","LANE":"４３巷","ALLEY":" ","HOUSE_NO":"１１號","E_COORD97":170594.31,"N_COORD97":2540113.27,"ADDRESS":"成功一街４３巷１１號","OBJECTID":355390},"geometry":{"x":170594.31000000145,"y":2540113.2700000014}},{"attributes":{"ID":355400,"DIS_CODE":0,"TOWNNAME":"東區","LI":"小東里","LIN":"33鄰","STREET":"東興路","SECT":" ","MAREA":" ","LANE":"２８４巷","ALLEY":" ","HOUSE_NO":"１８號","E_COORD97":171105.10999999999,"N_COORD97":2543999.6600000001,"ADDRESS":"東興路２８４巷１８號","OBJECTID":355391},"geometry":{"x":171105.11000000127,"y":2543999.6600000039}},{"attributes":{"ID":355401,"DIS_CODE":0,"TOWNNAME":"東區","LI":"小東里","LIN":"33鄰","STREET":"東興路","SECT":" ","MAREA":" ","LANE":"２８４巷","ALLEY":" ","HOUSE_NO":"２０號","E_COORD97":171110.54000000001,"N_COORD97":2543999.3999999999,"ADDRESS":"東興路２８４巷２０號","OBJECTID":355392},"geometry":{"x":171110.54000000097,"y":2543999.4000000022}},{"attributes":{"ID":355402,"DIS_CODE":0,"TOWNNAME":"東區","LI":"泉南里","LIN":"33鄰","STREET":"府連路","SECT":" ","MAREA":" ","LANE":"３２６巷","ALLEY":" ","HOUSE_NO":"２５號","E_COORD97":169578.16,"N_COORD97":2542724.4300000002,"ADDRESS":"府連路３２６巷２５號","OBJECTID":355393},"geometry":{"x":169578.16000000015,"y":2542724.4299999997}},{"attributes":{"ID":355403,"DIS_CODE":0,"TOWNNAME":"東區","LI":"泉南里","LIN":"33鄰","STREET":"府連路","SECT":" ","MAREA":" ","LANE":"３２６巷","ALLEY":" ","HOUSE_NO":"２７號","E_COORD97":169579.26000000001,"N_COORD97":2542718.4900000002,"ADDRESS":"府連路３２６巷２７號","OBJECTID":355394},"geometry":{"x":169579.26000000164,"y":2542718.4900000002}},{"attributes":{"ID":355404,"DIS_CODE":0,"TOWNNAME":"東區","LI":"泉南里","LIN":"33鄰","STREET":"府連路","SECT":" ","MAREA":" ","LANE":"３２６巷","ALLEY":" ","HOUSE_NO":"２９號","E_COORD97":169579.26000000001,"N_COORD97":2542713.4399999999,"ADDRESS":"府連路３２６巷２９號","OBJECTID":355395},"geometry":{"x":169579.26000000164,"y":2542713.4400000013}},{"attributes":{"ID":355405,"DIS_CODE":0,"TOWNNAME":"東區","LI":"泉南里","LIN":"33鄰","STREET":"府連路","SECT":" ","MAREA":" ","LANE":"３２６巷","ALLEY":" ","HOUSE_NO":"３１號","E_COORD97":169577.94,"N_COORD97":2542708.6000000001,"ADDRESS":"府連路３２６巷３１號","OBJECTID":355396},"geometry":{"x":169577.94000000041,"y":2542708.6000000015}},{"attributes":{"ID":355406,"DIS_CODE":0,"TOWNNAME":"東區","LI":"泉南里","LIN":"33鄰","STREET":"府連路","SECT":" ","MAREA":" ","LANE":"３２６巷","ALLEY":" ","HOUSE_NO":"３３號","E_COORD97":169577.06,"N_COORD97":2542704.2000000002,"ADDRESS":"府連路３２６巷３３號","OBJECTID":355397},"geometry":{"x":169577.06000000145,"y":2542704.2000000011}},{"attributes":{"ID":355407,"DIS_CODE":0,"TOWNNAME":"東區","LI":"泉南里","LIN":"33鄰","STREET":"府連路","SECT":" ","MAREA":" ","LANE":"３２６巷","ALLEY":" ","HOUSE_NO":"３５號","E_COORD97":169576.84,"N_COORD97":2542698.71,"ADDRESS":"府連路３２６巷３５號","OBJECTID":355398},"geometry":{"x":169576.83999999985,"y":2542698.7100000028}},{"attributes":{"ID":355408,"DIS_CODE":0,"TOWNNAME":"東區","LI":"泉南里","LIN":"33鄰","STREET":"府連路","SECT":" ","MAREA":" ","LANE":"３２６巷","ALLEY":" ","HOUSE_NO":"３７號","E_COORD97":169576.39999999999,"N_COORD97":2542693.21,"ADDRESS":"府連路３２６巷３７號","OBJECTID":355399},"geometry":{"x":169576.4000000013,"y":2542693.2100000009}},{"attributes":{"ID":355409,"DIS_CODE":0,"TOWNNAME":"東區","LI":"泉南里","LIN":"33鄰","STREET":"府連路","SECT":" ","MAREA":" ","LANE":"３２６巷","ALLEY":" ","HOUSE_NO":"３號","E_COORD97":169578.16,"N_COORD97":2542782.2599999998,"ADDRESS":"府連路３２６巷３號","OBJECTID":355400},"geometry":{"x":169578.16000000015,"y":2542782.2600000016}}]}