{"displayFieldName":"TOWNNAME","fieldAliases":{"ID":"ID","DIS_CODE":"DIS_CODE","TOWNNAME":"TOWNNAME","LI":"LI","LIN":"LIN","STREET":"STREET","SECT":"SECT","MAREA":"MAREA","LANE":"LANE","ALLEY":"ALLEY","HOUSE_NO":"HOUSE_NO","E_COORD97":"E_COORD97","N_COORD97":"N_COORD97","ADDRESS":"ADDRESS","OBJECTID":"OBJECTID"},"geometryType":"esriGeometryPoint","spatialReference":{"wkid":102443,"latestWkid":3826},"fields":[{"name":"ID","type":"esriFieldTypeDouble","alias":"ID"},{"name":"DIS_CODE","type":"esriFieldTypeInteger","alias":"DIS_CODE"},{"name":"TOWNNAME","type":"esriFieldTypeString","alias":"TOWNNAME","length":8},{"name":"LI","type":"esriFieldTypeString","alias":"LI","length":8},{"name":"LIN","type":"esriFieldTypeString","alias":"LIN","length":12},{"name":"STREET","type":"esriFieldTypeString","alias":"STREET","length":20},{"name":"SECT","type":"esriFieldTypeString","alias":"SECT","length":8},{"name":"MAREA","type":"esriFieldTypeString","alias":"MAREA","length":12},{"name":"LANE","type":"esriFieldTypeString","alias":"LANE","length":10},{"name":"ALLEY","type":"esriFieldTypeString","alias":"ALLEY","length":10},{"name":"HOUSE_NO","type":"esriFieldTypeString","alias":"HOUSE_NO","length":20},{"name":"E_COORD97","type":"esriFieldTypeDouble","alias":"E_COORD97"},{"name":"N_COORD97","type":"esriFieldTypeDouble","alias":"N_COORD97"},{"name":"ADDRESS","type":"esriFieldTypeString","alias":"ADDRESS","length":50},{"name":"OBJECTID","type":"esriFieldTypeOID","alias":"OBJECTID"}],"features":[{"attributes":{"ID":481626,"DIS_CODE":0,"TOWNNAME":"南區","LI":"廣州里","LIN":"26鄰","STREET":"福吉三街","SECT":" ","MAREA":" ","LANE":" ","ALLEY":" ","HOUSE_NO":"８９號","E_COORD97":167181.10999999999,"N_COORD97":2542772.3399999999,"ADDRESS":"福吉三街８９號","OBJECTID":481601},"geometry":{"x":167181.11000000127,"y":2542772.3400000017}},{"attributes":{"ID":481627,"DIS_CODE":0,"TOWNNAME":"南區","LI":"廣州里","LIN":"26鄰","STREET":"福吉三街","SECT":" ","MAREA":" ","LANE":" ","ALLEY":" ","HOUSE_NO":"９０號","E_COORD97":167191.54000000001,"N_COORD97":2542796.0499999998,"ADDRESS":"福吉三街９０號","OBJECTID":481602},"geometry":{"x":167191.54000000097,"y":2542796.0500000007}},{"attributes":{"ID":481628,"DIS_CODE":0,"TOWNNAME":"南區","LI":"廣州里","LIN":"26鄰","STREET":"福吉三街","SECT":" ","MAREA":" ","LANE":" ","ALLEY":" ","HOUSE_NO":"９１號","E_COORD97":167178,"N_COORD97":2542775.4500000002,"ADDRESS":"福吉三街９１號","OBJECTID":481603},"geometry":{"x":167178.00000000093,"y":2542775.4499999993}},{"attributes":{"ID":481629,"DIS_CODE":0,"TOWNNAME":"南區","LI":"廣州里","LIN":"26鄰","STREET":"福吉三街","SECT":" ","MAREA":" ","LANE":" ","ALLEY":" ","HOUSE_NO":"９５號","E_COORD97":167171.76999999999,"N_COORD97":2542782.5499999998,"ADDRESS":"福吉三街９５號","OBJECTID":481604},"geometry":{"x":167171.76999999862,"y":2542782.5500000007}},{"attributes":{"ID":481630,"DIS_CODE":0,"TOWNNAME":"南區","LI":"廣州里","LIN":"26鄰","STREET":"福吉三街","SECT":" ","MAREA":" ","LANE":" ","ALLEY":" ","HOUSE_NO":"９６號","E_COORD97":167179.29999999999,"N_COORD97":2542804.9100000001,"ADDRESS":"福吉三街９６號","OBJECTID":481605},"geometry":{"x":167179.30000000075,"y":2542804.910000002}},{"attributes":{"ID":481631,"DIS_CODE":0,"TOWNNAME":"南區","LI":"廣州里","LIN":"26鄰","STREET":"福吉三街","SECT":" ","MAREA":" ","LANE":" ","ALLEY":" ","HOUSE_NO":"９７號","E_COORD97":167170.44,"N_COORD97":2542785.8799999999,"ADDRESS":"福吉三街９７號","OBJECTID":481606},"geometry":{"x":167170.44000000134,"y":2542785.879999999}},{"attributes":{"ID":481632,"DIS_CODE":0,"TOWNNAME":"南區","LI":"廣州里","LIN":"26鄰","STREET":"福吉三街","SECT":" ","MAREA":" ","LANE":" ","ALLEY":" ","HOUSE_NO":"９９號","E_COORD97":167167.32999999999,"N_COORD97":2542790.3199999998,"ADDRESS":"福吉三街９９號","OBJECTID":481607},"geometry":{"x":167167.33000000101,"y":2542790.3200000003}},{"attributes":{"ID":481633,"DIS_CODE":0,"TOWNNAME":"安南區","LI":"溪頂里","LIN":"26鄰","STREET":"北安路","SECT":"二段","MAREA":" ","LANE":" ","ALLEY":" ","HOUSE_NO":"１００號","E_COORD97":168527.92999999999,"N_COORD97":2547599.0699999998,"ADDRESS":"北安路二段１００號","OBJECTID":481608},"geometry":{"x":168527.9299999997,"y":2547599.0700000022}},{"attributes":{"ID":481634,"DIS_CODE":0,"TOWNNAME":"安南區","LI":"溪頂里","LIN":"26鄰","STREET":"北安路","SECT":"二段","MAREA":" ","LANE":" ","ALLEY":" ","HOUSE_NO":"１０２號","E_COORD97":168527.64999999999,"N_COORD97":2547604.7799999998,"ADDRESS":"北安路二段１０２號","OBJECTID":481609},"geometry":{"x":168527.65000000037,"y":2547604.7799999993}},{"attributes":{"ID":481635,"DIS_CODE":0,"TOWNNAME":"安南區","LI":"溪頂里","LIN":"26鄰","STREET":"北安路","SECT":"二段","MAREA":" ","LANE":" ","ALLEY":" ","HOUSE_NO":"１０６號","E_COORD97":168527.35999999999,"N_COORD97":2547610.4900000002,"ADDRESS":"北安路二段１０６號","OBJECTID":481610},"geometry":{"x":168527.36000000127,"y":2547610.4900000002}},{"attributes":{"ID":481636,"DIS_CODE":0,"TOWNNAME":"安南區","LI":"溪頂里","LIN":"26鄰","STREET":"北安路","SECT":"二段","MAREA":" ","LANE":" ","ALLEY":" ","HOUSE_NO":"１０８號","E_COORD97":168526.5,"N_COORD97":2547615.6299999999,"ADDRESS":"北安路二段１０８號","OBJECTID":481611},"geometry":{"x":168526.5,"y":2547615.629999999}},{"attributes":{"ID":481637,"DIS_CODE":0,"TOWNNAME":"安南區","LI":"溪頂里","LIN":"26鄰","STREET":"北安路","SECT":"二段","MAREA":" ","LANE":" ","ALLEY":" ","HOUSE_NO":"１１０號","E_COORD97":168525.64999999999,"N_COORD97":2547620.77,"ADDRESS":"北安路二段１１０號","OBJECTID":481612},"geometry":{"x":168525.65000000037,"y":2547620.7700000014}},{"attributes":{"ID":481638,"DIS_CODE":0,"TOWNNAME":"安南區","LI":"溪頂里","LIN":"26鄰","STREET":"北安路","SECT":"二段","MAREA":" ","LANE":" ","ALLEY":" ","HOUSE_NO":"１１２號","E_COORD97":168524.79000000001,"N_COORD97":2547626.7599999998,"ADDRESS":"北安路二段１１２號","OBJECTID":481613},"geometry":{"x":168524.79000000004,"y":2547626.7600000016}},{"attributes":{"ID":481639,"DIS_CODE":0,"TOWNNAME":"安南區","LI":"溪頂里","LIN":"26鄰","STREET":"北安路","SECT":"二段","MAREA":" ","LANE":" ","ALLEY":" ","HOUSE_NO":"１１６號","E_COORD97":168524.5,"N_COORD97":2547632.4700000002,"ADDRESS":"北安路二段１１６號","OBJECTID":481614},"geometry":{"x":168524.5,"y":2547632.4700000044}},{"attributes":{"ID":481640,"DIS_CODE":0,"TOWNNAME":"安南區","LI":"溪頂里","LIN":"26鄰","STREET":"北安路","SECT":"二段","MAREA":" ","LANE":" ","ALLEY":" ","HOUSE_NO":"１１８號","E_COORD97":168523.92999999999,"N_COORD97":2547637.8999999999,"ADDRESS":"北安路二段１１８號","OBJECTID":481615},"geometry":{"x":168523.93000000063,"y":2547637.9000000004}},{"attributes":{"ID":481641,"DIS_CODE":0,"TOWNNAME":"安南區","LI":"溪頂里","LIN":"26鄰","STREET":"北安路","SECT":"二段","MAREA":" ","LANE":" ","ALLEY":" ","HOUSE_NO":"１２０號","E_COORD97":168523.35999999999,"N_COORD97":2547643.04,"ADDRESS":"北安路二段１２０號","OBJECTID":481616},"geometry":{"x":168523.36000000127,"y":2547643.0399999991}},{"attributes":{"ID":481642,"DIS_CODE":0,"TOWNNAME":"安南區","LI":"溪頂里","LIN":"26鄰","STREET":"北安路","SECT":"二段","MAREA":" ","LANE":" ","ALLEY":" ","HOUSE_NO":"１２２號","E_COORD97":168522.5,"N_COORD97":2547648.1800000002,"ADDRESS":"北安路二段１２２號","OBJECTID":481617},"geometry":{"x":168522.50000000093,"y":2547648.1800000016}},{"attributes":{"ID":481643,"DIS_CODE":0,"TOWNNAME":"安南區","LI":"溪頂里","LIN":"26鄰","STREET":"北安路","SECT":"二段","MAREA":" ","LANE":" ","ALLEY":" ","HOUSE_NO":"５０號","E_COORD97":168542.60999999999,"N_COORD97":2547494.0800000001,"ADDRESS":"北安路二段５０號","OBJECTID":481618},"geometry":{"x":168542.61000000127,"y":2547494.0800000001}},{"attributes":{"ID":481644,"DIS_CODE":0,"TOWNNAME":"安南區","LI":"溪頂里","LIN":"26鄰","STREET":"北安路","SECT":"二段","MAREA":" ","LANE":" ","ALLEY":" ","HOUSE_NO":"５２號","E_COORD97":168542.01999999999,"N_COORD97":2547497.75,"ADDRESS":"北安路二段５２號","OBJECTID":481619},"geometry":{"x":168542.02000000048,"y":2547497.7500000037}},{"attributes":{"ID":481645,"DIS_CODE":0,"TOWNNAME":"安南區","LI":"溪頂里","LIN":"26鄰","STREET":"北安路","SECT":"二段","MAREA":" ","LANE":" ","ALLEY":" ","HOUSE_NO":"７２號","E_COORD97":168537.64999999999,"N_COORD97":2547539.1099999999,"ADDRESS":"北安路二段７２號","OBJECTID":481620},"geometry":{"x":168537.65000000037,"y":2547539.1100000013}},{"attributes":{"ID":481646,"DIS_CODE":0,"TOWNNAME":"安南區","LI":"溪頂里","LIN":"26鄰","STREET":"郡安路","SECT":"四段","MAREA":" ","LANE":" ","ALLEY":" ","HOUSE_NO":"２８０號","E_COORD97":168553.31,"N_COORD97":2547644.8999999999,"ADDRESS":"郡安路四段２８０號","OBJECTID":481621},"geometry":{"x":168553.31000000145,"y":2547644.9000000004}},{"attributes":{"ID":481647,"DIS_CODE":0,"TOWNNAME":"官田區","LI":"隆田里","LIN":"26鄰","STREET":"中山路","SECT":"二段","MAREA":" ","LANE":" ","ALLEY":" ","HOUSE_NO":"５５號","E_COORD97":179011.95000000001,"N_COORD97":2565962.7000000002,"ADDRESS":"中山路二段５５號","OBJECTID":481622},"geometry":{"x":179011.95000000019,"y":2565962.7000000011}},{"attributes":{"ID":481648,"DIS_CODE":0,"TOWNNAME":"官田區","LI":"隆田里","LIN":"26鄰","STREET":"中山路","SECT":"二段","MAREA":" ","LANE":" ","ALLEY":" ","HOUSE_NO":"５７號","E_COORD97":179007.98999999999,"N_COORD97":2565964.5299999998,"ADDRESS":"中山路二段５７號","OBJECTID":481623},"geometry":{"x":179007.99000000022,"y":2565964.5299999993}},{"attributes":{"ID":481649,"DIS_CODE":0,"TOWNNAME":"官田區","LI":"隆田里","LIN":"26鄰","STREET":"中山路","SECT":"二段","MAREA":" ","LANE":" ","ALLEY":" ","HOUSE_NO":"６１號","E_COORD97":178999.75,"N_COORD97":2565968.1299999999,"ADDRESS":"中山路二段６１號","OBJECTID":481624},"geometry":{"x":178999.75000000186,"y":2565968.1300000027}},{"attributes":{"ID":481650,"DIS_CODE":0,"TOWNNAME":"官田區","LI":"隆田里","LIN":"26鄰","STREET":"中山路","SECT":"二段","MAREA":" ","LANE":" ","ALLEY":" ","HOUSE_NO":"６３號","E_COORD97":178995.85999999999,"N_COORD97":2565969.8100000001,"ADDRESS":"中山路二段６３號","OBJECTID":481625},"geometry":{"x":178995.86000000034,"y":2565969.8100000024}},{"attributes":{"ID":481651,"DIS_CODE":0,"TOWNNAME":"官田區","LI":"隆田里","LIN":"26鄰","STREET":"中山路","SECT":"二段","MAREA":" ","LANE":" ","ALLEY":" ","HOUSE_NO":"６５號","E_COORD97":178991.35000000001,"N_COORD97":2565971.54,"ADDRESS":"中山路二段６５號","OBJECTID":481626},"geometry":{"x":178991.34999999963,"y":2565971.5399999991}},{"attributes":{"ID":481652,"DIS_CODE":0,"TOWNNAME":"官田區","LI":"隆田里","LIN":"26鄰","STREET":"中山路","SECT":"二段","MAREA":" ","LANE":" ","ALLEY":" ","HOUSE_NO":"６７號","E_COORD97":178987.54999999999,"N_COORD97":2565973.3500000001,"ADDRESS":"中山路二段６７號","OBJECTID":481627},"geometry":{"x":178987.55000000075,"y":2565973.3499999996}},{"attributes":{"ID":481653,"DIS_CODE":0,"TOWNNAME":"官田區","LI":"隆田里","LIN":"26鄰","STREET":"中山路","SECT":"二段","MAREA":" ","LANE":" ","ALLEY":" ","HOUSE_NO":"６９號","E_COORD97":178983.23000000001,"N_COORD97":2565974.9300000002,"ADDRESS":"中山路二段６９號","OBJECTID":481628},"geometry":{"x":178983.23000000045,"y":2565974.9300000016}},{"attributes":{"ID":481654,"DIS_CODE":0,"TOWNNAME":"官田區","LI":"隆田里","LIN":"26鄰","STREET":"中山路","SECT":"二段","MAREA":" ","LANE":" ","ALLEY":" ","HOUSE_NO":"７１號","E_COORD97":178979.32000000001,"N_COORD97":2565976.8399999999,"ADDRESS":"中山路二段７１號","OBJECTID":481629},"geometry":{"x":178979.32000000216,"y":2565976.8399999999}},{"attributes":{"ID":481655,"DIS_CODE":0,"TOWNNAME":"官田區","LI":"隆田里","LIN":"26鄰","STREET":"中山路","SECT":"二段","MAREA":" ","LANE":" ","ALLEY":" ","HOUSE_NO":"７３號","E_COORD97":178974.72,"N_COORD97":2565978.5299999998,"ADDRESS":"中山路二段７３號","OBJECTID":481630},"geometry":{"x":178974.72000000067,"y":2565978.5299999993}},{"attributes":{"ID":481656,"DIS_CODE":0,"TOWNNAME":"官田區","LI":"隆田里","LIN":"26鄰","STREET":"中山路","SECT":"二段","MAREA":" ","LANE":" ","ALLEY":" ","HOUSE_NO":"７５號","E_COORD97":178970.73999999999,"N_COORD97":2565980.1499999999,"ADDRESS":"中山路二段７５號","OBJECTID":481631},"geometry":{"x":178970.74000000022,"y":2565980.1500000022}},{"attributes":{"ID":481657,"DIS_CODE":0,"TOWNNAME":"官田區","LI":"隆田里","LIN":"26鄰","STREET":"中山路","SECT":"二段","MAREA":" ","LANE":" ","ALLEY":" ","HOUSE_NO":"７７號","E_COORD97":178966.53,"N_COORD97":2565981.6299999999,"ADDRESS":"中山路二段７７號","OBJECTID":481632},"geometry":{"x":178966.53000000119,"y":2565981.6300000027}},{"attributes":{"ID":481658,"DIS_CODE":0,"TOWNNAME":"官田區","LI":"隆田里","LIN":"26鄰","STREET":"中山路","SECT":"二段","MAREA":" ","LANE":" ","ALLEY":" ","HOUSE_NO":"７９號","E_COORD97":178962.60000000001,"N_COORD97":2565983.2400000002,"ADDRESS":"中山路二段７９號","OBJECTID":481633},"geometry":{"x":178962.59999999963,"y":2565983.2400000021}},{"attributes":{"ID":481659,"DIS_CODE":0,"TOWNNAME":"官田區","LI":"隆田里","LIN":"26鄰","STREET":"中山路","SECT":"二段","MAREA":" ","LANE":" ","ALLEY":" ","HOUSE_NO":"８１號","E_COORD97":178955.59,"N_COORD97":2565979.5299999998,"ADDRESS":"中山路二段８１號","OBJECTID":481634},"geometry":{"x":178955.59000000078,"y":2565979.5300000031}},{"attributes":{"ID":481660,"DIS_CODE":0,"TOWNNAME":"官田區","LI":"隆田里","LIN":"26鄰","STREET":"中山路","SECT":"二段","MAREA":" ","LANE":" ","ALLEY":" ","HOUSE_NO":"８３號","E_COORD97":178954.82000000001,"N_COORD97":2565989.3700000001,"ADDRESS":"中山路二段８３號","OBJECTID":481635},"geometry":{"x":178954.8200000003,"y":2565989.3700000048}},{"attributes":{"ID":481661,"DIS_CODE":0,"TOWNNAME":"西港區","LI":"慶安里","LIN":"26鄰","STREET":"新興街","SECT":" ","MAREA":" ","LANE":" ","ALLEY":" ","HOUSE_NO":"１０號之３","E_COORD97":168232.31,"N_COORD97":2557768.48,"ADDRESS":"新興街１０號之３","OBJECTID":481636},"geometry":{"x":168232.30999999959,"y":2557768.4800000004}},{"attributes":{"ID":481662,"DIS_CODE":0,"TOWNNAME":"西港區","LI":"慶安里","LIN":"26鄰","STREET":"新興街","SECT":" ","MAREA":" ","LANE":" ","ALLEY":" ","HOUSE_NO":"１０號之４","E_COORD97":168231.14000000001,"N_COORD97":2557773.2200000002,"ADDRESS":"新興街１０號之４","OBJECTID":481637},"geometry":{"x":168231.1400000006,"y":2557773.2200000007}},{"attributes":{"ID":481663,"DIS_CODE":0,"TOWNNAME":"西港區","LI":"慶安里","LIN":"26鄰","STREET":"新興街","SECT":" ","MAREA":" ","LANE":" ","ALLEY":" ","HOUSE_NO":"１０號之６","E_COORD97":168237.51000000001,"N_COORD97":2557741.5,"ADDRESS":"新興街１０號之６","OBJECTID":481638},"geometry":{"x":168237.51000000071,"y":2557741.4999999981}},{"attributes":{"ID":481664,"DIS_CODE":0,"TOWNNAME":"東區","LI":"中西里","LIN":"26鄰","STREET":"東寧路","SECT":" ","MAREA":" ","LANE":" ","ALLEY":" ","HOUSE_NO":"１３２之８號","E_COORD97":170304.78,"N_COORD97":2543512.5099999998,"ADDRESS":"東寧路１３２之８號","OBJECTID":481639},"geometry":{"x":170304.78000000026,"y":2543512.5100000016}},{"attributes":{"ID":481665,"DIS_CODE":0,"TOWNNAME":"南區","LI":"文南里","LIN":"26鄰","STREET":"南功街","SECT":" ","MAREA":" ","LANE":" ","ALLEY":" ","HOUSE_NO":"１０８號","E_COORD97":166527.14999999999,"N_COORD97":2542840.0099999998,"ADDRESS":"南功街１０８號","OBJECTID":481640},"geometry":{"x":166527.15000000037,"y":2542840.0099999998}},{"attributes":{"ID":481666,"DIS_CODE":0,"TOWNNAME":"南區","LI":"文南里","LIN":"26鄰","STREET":"南功街","SECT":" ","MAREA":" ","LANE":" ","ALLEY":" ","HOUSE_NO":"１１０號","E_COORD97":166530.79999999999,"N_COORD97":2542847.4700000002,"ADDRESS":"南功街１１０號","OBJECTID":481641},"geometry":{"x":166530.79999999981,"y":2542847.4700000007}},{"attributes":{"ID":481667,"DIS_CODE":0,"TOWNNAME":"南區","LI":"文南里","LIN":"26鄰","STREET":"南功街","SECT":" ","MAREA":" ","LANE":" ","ALLEY":" ","HOUSE_NO":"１１２號","E_COORD97":166528.10999999999,"N_COORD97":2542856.6699999999,"ADDRESS":"南功街１１２號","OBJECTID":481642},"geometry":{"x":166528.11000000127,"y":2542856.6700000037}},{"attributes":{"ID":481668,"DIS_CODE":0,"TOWNNAME":"南區","LI":"文南里","LIN":"26鄰","STREET":"南功街","SECT":" ","MAREA":" ","LANE":" ","ALLEY":" ","HOUSE_NO":"１１６號","E_COORD97":166535.25,"N_COORD97":2542855.8799999999,"ADDRESS":"南功街１１６號","OBJECTID":481643},"geometry":{"x":166535.25000000093,"y":2542855.8800000008}},{"attributes":{"ID":481669,"DIS_CODE":0,"TOWNNAME":"南區","LI":"文南里","LIN":"26鄰","STREET":"南功街","SECT":" ","MAREA":" ","LANE":" ","ALLEY":" ","HOUSE_NO":"１１８號","E_COORD97":166541.60000000001,"N_COORD97":2542855.0899999999,"ADDRESS":"南功街１１８號","OBJECTID":481644},"geometry":{"x":166541.60000000056,"y":2542855.0900000017}},{"attributes":{"ID":481670,"DIS_CODE":0,"TOWNNAME":"南區","LI":"文南里","LIN":"26鄰","STREET":"南功街","SECT":" ","MAREA":" ","LANE":" ","ALLEY":" ","HOUSE_NO":"１２０號","E_COORD97":166542.70999999999,"N_COORD97":2542862.8700000001,"ADDRESS":"南功街１２０號","OBJECTID":481645},"geometry":{"x":166542.71000000089,"y":2542862.870000001}},{"attributes":{"ID":481671,"DIS_CODE":0,"TOWNNAME":"南區","LI":"文南里","LIN":"26鄰","STREET":"南功街","SECT":" ","MAREA":" ","LANE":" ","ALLEY":" ","HOUSE_NO":"１２２號","E_COORD97":166535.88,"N_COORD97":2542862.5499999998,"ADDRESS":"南功街１２２號","OBJECTID":481646},"geometry":{"x":166535.88000000175,"y":2542862.5500000026}},{"attributes":{"ID":481672,"DIS_CODE":0,"TOWNNAME":"南區","LI":"文南里","LIN":"26鄰","STREET":"南功街","SECT":" ","MAREA":" ","LANE":" ","ALLEY":" ","HOUSE_NO":"１２６號","E_COORD97":166530.48999999999,"N_COORD97":2542863.02,"ADDRESS":"南功街１２６號","OBJECTID":481647},"geometry":{"x":166530.49000000115,"y":2542863.0199999996}},{"attributes":{"ID":481673,"DIS_CODE":0,"TOWNNAME":"南區","LI":"文南里","LIN":"26鄰","STREET":"南功街","SECT":" ","MAREA":" ","LANE":" ","ALLEY":" ","HOUSE_NO":"９８號","E_COORD97":166537.47,"N_COORD97":2542814.7599999998,"ADDRESS":"南功街９８號","OBJECTID":481648},"geometry":{"x":166537.47000000067,"y":2542814.7599999998}},{"attributes":{"ID":481674,"DIS_CODE":0,"TOWNNAME":"南區","LI":"廣州里","LIN":"26鄰","STREET":"金華路","SECT":"二段","MAREA":" ","LANE":" ","ALLEY":" ","HOUSE_NO":"３７２號","E_COORD97":167146.48999999999,"N_COORD97":2542793.1099999999,"ADDRESS":"金華路二段３７２號","OBJECTID":481649},"geometry":{"x":167146.49000000022,"y":2542793.1100000013}},{"attributes":{"ID":481675,"DIS_CODE":0,"TOWNNAME":"南區","LI":"廣州里","LIN":"26鄰","STREET":"建南路","SECT":" ","MAREA":" ","LANE":" ","ALLEY":" ","HOUSE_NO":"８７之２號","E_COORD97":167199.89000000001,"N_COORD97":2542823.5099999998,"ADDRESS":"建南路８７之２號","OBJECTID":481650},"geometry":{"x":167199.88999999873,"y":2542823.5099999979}},{"attributes":{"ID":481676,"DIS_CODE":0,"TOWNNAME":"東區","LI":"大福里","LIN":"26鄰","STREET":"榮譽街","SECT":" ","MAREA":" ","LANE":" ","ALLEY":" ","HOUSE_NO":"５８之１號","E_COORD97":169675.60999999999,"N_COORD97":2541653.3900000001,"ADDRESS":"榮譽街５８之１號","OBJECTID":481651},"geometry":{"x":169675.61000000034,"y":2541653.3900000025}},{"attributes":{"ID":481677,"DIS_CODE":0,"TOWNNAME":"東區","LI":"裕農里","LIN":"26鄰","STREET":"東寧路","SECT":" ","MAREA":" ","LANE":" ","ALLEY":" ","HOUSE_NO":"４４０號","E_COORD97":170977.78,"N_COORD97":2543325.6200000001,"ADDRESS":"東寧路４４０號","OBJECTID":481652},"geometry":{"x":170977.78000000026,"y":2543325.620000001}},{"attributes":{"ID":481678,"DIS_CODE":0,"TOWNNAME":"安平區","LI":"金城里","LIN":"5鄰","STREET":"湖內二街","SECT":" ","MAREA":" ","LANE":" ","ALLEY":" ","HOUSE_NO":"１７號","E_COORD97":163784.07999999999,"N_COORD97":2544272.1600000001,"ADDRESS":"湖內二街１７號","OBJECTID":481653},"geometry":{"x":163784.08000000101,"y":2544272.160000002}},{"attributes":{"ID":481679,"DIS_CODE":0,"TOWNNAME":"安平區","LI":"金城里","LIN":"5鄰","STREET":"湖內二街","SECT":" ","MAREA":" ","LANE":" ","ALLEY":" ","HOUSE_NO":"１８號","E_COORD97":163809.23000000001,"N_COORD97":2544261.4700000002,"ADDRESS":"湖內二街１８號","OBJECTID":481654},"geometry":{"x":163809.23000000045,"y":2544261.4700000007}},{"attributes":{"ID":481680,"DIS_CODE":0,"TOWNNAME":"安平區","LI":"金城里","LIN":"5鄰","STREET":"湖內二街","SECT":" ","MAREA":" ","LANE":" ","ALLEY":" ","HOUSE_NO":"１號","E_COORD97":163797.04999999999,"N_COORD97":2544227.3399999999,"ADDRESS":"湖內二街１號","OBJECTID":481655},"geometry":{"x":163797.05000000075,"y":2544227.3399999999}},{"attributes":{"ID":481681,"DIS_CODE":0,"TOWNNAME":"安平區","LI":"金城里","LIN":"5鄰","STREET":"湖內二街","SECT":" ","MAREA":" ","LANE":" ","ALLEY":" ","HOUSE_NO":"２２號","E_COORD97":163807.22,"N_COORD97":2544269.71,"ADDRESS":"湖內二街２２號","OBJECTID":481656},"geometry":{"x":163807.21999999974,"y":2544269.7100000009}},{"attributes":{"ID":481682,"DIS_CODE":0,"TOWNNAME":"安平區","LI":"金城里","LIN":"5鄰","STREET":"湖內二街","SECT":" ","MAREA":" ","LANE":" ","ALLEY":" ","HOUSE_NO":"２３號","E_COORD97":163781.03,"N_COORD97":2544284.7599999998,"ADDRESS":"湖內二街２３號","OBJECTID":481657},"geometry":{"x":163781.03000000119,"y":2544284.7600000016}},{"attributes":{"ID":481683,"DIS_CODE":0,"TOWNNAME":"安平區","LI":"金城里","LIN":"5鄰","STREET":"湖內二街","SECT":" ","MAREA":" ","LANE":" ","ALLEY":" ","HOUSE_NO":"２５號","E_COORD97":163779.82000000001,"N_COORD97":2544289.4199999999,"ADDRESS":"湖內二街２５號","OBJECTID":481658},"geometry":{"x":163779.8200000003,"y":2544289.4200000037}},{"attributes":{"ID":481684,"DIS_CODE":0,"TOWNNAME":"安平區","LI":"金城里","LIN":"5鄰","STREET":"湖內二街","SECT":" ","MAREA":" ","LANE":" ","ALLEY":" ","HOUSE_NO":"２６號","E_COORD97":163805.66,"N_COORD97":2544277.8300000001,"ADDRESS":"湖內二街２６號","OBJECTID":481659},"geometry":{"x":163805.66000000108,"y":2544277.8300000019}},{"attributes":{"ID":481685,"DIS_CODE":0,"TOWNNAME":"安平區","LI":"金城里","LIN":"5鄰","STREET":"湖內二街","SECT":" ","MAREA":" ","LANE":" ","ALLEY":" ","HOUSE_NO":"２７號","E_COORD97":163779.41,"N_COORD97":2544293.6699999999,"ADDRESS":"湖內二街２７號","OBJECTID":481660},"geometry":{"x":163779.41000000201,"y":2544293.6699999999}},{"attributes":{"ID":481686,"DIS_CODE":0,"TOWNNAME":"安平區","LI":"金城里","LIN":"5鄰","STREET":"湖內二街","SECT":" ","MAREA":" ","LANE":" ","ALLEY":" ","HOUSE_NO":"２８號","E_COORD97":163804.76999999999,"N_COORD97":2544281.1600000001,"ADDRESS":"湖內二街２８號","OBJECTID":481661},"geometry":{"x":163804.76999999955,"y":2544281.1600000039}},{"attributes":{"ID":481687,"DIS_CODE":0,"TOWNNAME":"安平區","LI":"金城里","LIN":"5鄰","STREET":"湖內二街","SECT":" ","MAREA":" ","LANE":" ","ALLEY":" ","HOUSE_NO":"２９號","E_COORD97":163778.39999999999,"N_COORD97":2544297.52,"ADDRESS":"湖內二街２９號","OBJECTID":481662},"geometry":{"x":163778.4000000013,"y":2544297.5199999996}},{"attributes":{"ID":481688,"DIS_CODE":0,"TOWNNAME":"安平區","LI":"金城里","LIN":"5鄰","STREET":"湖內二街","SECT":" ","MAREA":" ","LANE":" ","ALLEY":" ","HOUSE_NO":"２號","E_COORD97":163818.35999999999,"N_COORD97":2544227.21,"ADDRESS":"湖內二街２號","OBJECTID":481663},"geometry":{"x":163818.36000000034,"y":2544227.2100000046}},{"attributes":{"ID":481689,"DIS_CODE":0,"TOWNNAME":"安平區","LI":"金城里","LIN":"5鄰","STREET":"湖內二街","SECT":" ","MAREA":" ","LANE":" ","ALLEY":" ","HOUSE_NO":"３０號之２","E_COORD97":163803.44,"N_COORD97":2544287.1699999999,"ADDRESS":"湖內二街３０號之２","OBJECTID":481664},"geometry":{"x":163803.44000000134,"y":2544287.1699999999}},{"attributes":{"ID":481690,"DIS_CODE":0,"TOWNNAME":"安平區","LI":"金城里","LIN":"5鄰","STREET":"湖內二街","SECT":" ","MAREA":" ","LANE":" ","ALLEY":" ","HOUSE_NO":"３３號","E_COORD97":163775.14999999999,"N_COORD97":2544306.6400000001,"ADDRESS":"湖內二街３３號","OBJECTID":481665},"geometry":{"x":163775.1500000013,"y":2544306.6400000025}},{"attributes":{"ID":481691,"DIS_CODE":0,"TOWNNAME":"安平區","LI":"金城里","LIN":"5鄰","STREET":"湖內二街","SECT":" ","MAREA":" ","LANE":" ","ALLEY":" ","HOUSE_NO":"３６號","E_COORD97":163798.31,"N_COORD97":2544309.8700000001,"ADDRESS":"湖內二街３６號","OBJECTID":481666},"geometry":{"x":163798.31000000145,"y":2544309.870000001}},{"attributes":{"ID":481692,"DIS_CODE":0,"TOWNNAME":"安平區","LI":"金城里","LIN":"5鄰","STREET":"湖內二街","SECT":" ","MAREA":" ","LANE":" ","ALLEY":" ","HOUSE_NO":"３８號","E_COORD97":163796.98000000001,"N_COORD97":2544315.8700000001,"ADDRESS":"湖內二街３８號","OBJECTID":481667},"geometry":{"x":163796.98000000138,"y":2544315.8700000029}},{"attributes":{"ID":481693,"DIS_CODE":0,"TOWNNAME":"安平區","LI":"金城里","LIN":"5鄰","STREET":"湖內二街","SECT":" ","MAREA":" ","LANE":" ","ALLEY":" ","HOUSE_NO":"３９號","E_COORD97":163771.91,"N_COORD97":2544319.8100000001,"ADDRESS":"湖內二街３９號","OBJECTID":481668},"geometry":{"x":163771.91000000015,"y":2544319.8100000005}},{"attributes":{"ID":481694,"DIS_CODE":0,"TOWNNAME":"安平區","LI":"金城里","LIN":"5鄰","STREET":"湖內二街","SECT":" ","MAREA":" ","LANE":" ","ALLEY":" ","HOUSE_NO":"４０號","E_COORD97":163795.85999999999,"N_COORD97":2544319.6600000001,"ADDRESS":"湖內二街４０號","OBJECTID":481669},"geometry":{"x":163795.86000000127,"y":2544319.660000002}},{"attributes":{"ID":481695,"DIS_CODE":0,"TOWNNAME":"安平區","LI":"金城里","LIN":"5鄰","STREET":"湖內二街","SECT":" ","MAREA":" ","LANE":" ","ALLEY":" ","HOUSE_NO":"４１號","E_COORD97":163771.29999999999,"N_COORD97":2544324.3700000001,"ADDRESS":"湖內二街４１號","OBJECTID":481670},"geometry":{"x":163771.29999999888,"y":2544324.3699999992}},{"attributes":{"ID":481696,"DIS_CODE":0,"TOWNNAME":"安平區","LI":"金城里","LIN":"5鄰","STREET":"湖內二街","SECT":" ","MAREA":" ","LANE":" ","ALLEY":" ","HOUSE_NO":"４３號","E_COORD97":163770.48999999999,"N_COORD97":2544328.4199999999,"ADDRESS":"湖內二街４３號","OBJECTID":481671},"geometry":{"x":163770.49000000209,"y":2544328.4199999999}},{"attributes":{"ID":481697,"DIS_CODE":0,"TOWNNAME":"安平區","LI":"金城里","LIN":"5鄰","STREET":"湖內二街","SECT":" ","MAREA":" ","LANE":" ","ALLEY":" ","HOUSE_NO":"４４號","E_COORD97":163793.85999999999,"N_COORD97":2544327.5600000001,"ADDRESS":"湖內二街４４號","OBJECTID":481672},"geometry":{"x":163793.86000000127,"y":2544327.5600000024}},{"attributes":{"ID":481698,"DIS_CODE":0,"TOWNNAME":"東區","LI":"忠孝里","LIN":"26鄰","STREET":"崇明一街","SECT":" ","MAREA":" ","LANE":" ","ALLEY":" ","HOUSE_NO":"２４號","E_COORD97":169578.95000000001,"N_COORD97":2542436.1800000002,"ADDRESS":"崇明一街２４號","OBJECTID":481673},"geometry":{"x":169578.95000000112,"y":2542436.1800000034}},{"attributes":{"ID":481699,"DIS_CODE":0,"TOWNNAME":"東區","LI":"忠孝里","LIN":"26鄰","STREET":"崇明一街","SECT":" ","MAREA":" ","LANE":" ","ALLEY":" ","HOUSE_NO":"２６號","E_COORD97":169582.89000000001,"N_COORD97":2542437.2999999998,"ADDRESS":"崇明一街２６號","OBJECTID":481674},"geometry":{"x":169582.88999999966,"y":2542437.3000000026}},{"attributes":{"ID":481700,"DIS_CODE":0,"TOWNNAME":"東區","LI":"忠孝里","LIN":"26鄰","STREET":"崇明一街","SECT":" ","MAREA":" ","LANE":" ","ALLEY":" ","HOUSE_NO":"３４號","E_COORD97":169597.70999999999,"N_COORD97":2542442.3599999999,"ADDRESS":"崇明一街３４號","OBJECTID":481675},"geometry":{"x":169597.70999999996,"y":2542442.3600000013}},{"attributes":{"ID":481701,"DIS_CODE":0,"TOWNNAME":"東區","LI":"忠孝里","LIN":"26鄰","STREET":"崇明一街","SECT":" ","MAREA":" ","LANE":" ","ALLEY":" ","HOUSE_NO":"３６號","E_COORD97":169603.89999999999,"N_COORD97":2542444.6099999999,"ADDRESS":"崇明一街３６號","OBJECTID":481676},"geometry":{"x":169603.90000000037,"y":2542444.6100000013}},{"attributes":{"ID":481702,"DIS_CODE":0,"TOWNNAME":"東區","LI":"忠孝里","LIN":"26鄰","STREET":"崇明一街","SECT":" ","MAREA":" ","LANE":" ","ALLEY":" ","HOUSE_NO":"３８號","E_COORD97":169609.32999999999,"N_COORD97":2542445.9199999999,"ADDRESS":"崇明一街３８號","OBJECTID":481677},"geometry":{"x":169609.33000000007,"y":2542445.9200000018}},{"attributes":{"ID":481703,"DIS_CODE":0,"TOWNNAME":"東區","LI":"忠孝里","LIN":"26鄰","STREET":"崇明一街","SECT":" ","MAREA":" ","LANE":" ","ALLEY":" ","HOUSE_NO":"４０號","E_COORD97":169613.64999999999,"N_COORD97":2542447.4199999999,"ADDRESS":"崇明一街４０號","OBJECTID":481678},"geometry":{"x":169613.6500000013,"y":2542447.4199999999}},{"attributes":{"ID":481704,"DIS_CODE":0,"TOWNNAME":"東區","LI":"忠孝里","LIN":"26鄰","STREET":"崇明一街","SECT":" ","MAREA":" ","LANE":" ","ALLEY":" ","HOUSE_NO":"２２號","E_COORD97":169575.57000000001,"N_COORD97":2542434.6800000002,"ADDRESS":"崇明一街２２號","OBJECTID":481679},"geometry":{"x":169575.5700000003,"y":2542434.6799999997}},{"attributes":{"ID":481705,"DIS_CODE":0,"TOWNNAME":"永康區","LI":"\u25A0行里","LIN":"26鄰","STREET":"中正南路","SECT":" ","MAREA":" ","LANE":" ","ALLEY":" ","HOUSE_NO":"４９６號","E_COORD97":171280.04999999999,"N_COORD97":2548519.2200000002,"ADDRESS":"中正南路４９６號","OBJECTID":481680},"geometry":{"x":171280.05000000075,"y":2548519.2200000044}},{"attributes":{"ID":481706,"DIS_CODE":0,"TOWNNAME":"永康區","LI":"\u25A0行里","LIN":"26鄰","STREET":"中正南路","SECT":" ","MAREA":" ","LANE":" ","ALLEY":" ","HOUSE_NO":"５０４號","E_COORD97":171304.20999999999,"N_COORD97":2548542.7400000002,"ADDRESS":"中正南路５０４號","OBJECTID":481681},"geometry":{"x":171304.21000000089,"y":2548542.7400000021}},{"attributes":{"ID":481707,"DIS_CODE":0,"TOWNNAME":"永康區","LI":"\u25A0行里","LIN":"26鄰","STREET":"中正南路","SECT":" ","MAREA":" ","LANE":" ","ALLEY":" ","HOUSE_NO":"４２０號","E_COORD97":171080.04000000001,"N_COORD97":2548322.6800000002,"ADDRESS":"中正南路４２０號","OBJECTID":481682},"geometry":{"x":171080.04000000097,"y":2548322.6800000016}},{"attributes":{"ID":481708,"DIS_CODE":0,"TOWNNAME":"仁德區","LI":"仁義里","LIN":"26鄰","STREET":"中山路","SECT":" ","MAREA":" ","LANE":" ","ALLEY":" ","HOUSE_NO":"５６４號","E_COORD97":173342.19,"N_COORD97":2541340.75,"ADDRESS":"中山路５６４號","OBJECTID":481683},"geometry":{"x":173342.19000000227,"y":2541340.7500000037}},{"attributes":{"ID":481709,"DIS_CODE":0,"TOWNNAME":"東區","LI":"忠孝里","LIN":"26鄰","STREET":"崇明一街","SECT":" ","MAREA":" ","LANE":" ","ALLEY":" ","HOUSE_NO":"１５號","E_COORD97":169548.38,"N_COORD97":2542446.9700000002,"ADDRESS":"崇明一街１５號","OBJECTID":481684},"geometry":{"x":169548.38000000082,"y":2542446.9700000007}},{"attributes":{"ID":481710,"DIS_CODE":0,"TOWNNAME":"東區","LI":"忠孝里","LIN":"26鄰","STREET":"崇明一街","SECT":" ","MAREA":" ","LANE":" ","ALLEY":" ","HOUSE_NO":"１７號","E_COORD97":169552.44,"N_COORD97":2542448.3300000001,"ADDRESS":"崇明一街１７號","OBJECTID":481685},"geometry":{"x":169552.44000000134,"y":2542448.3300000001}},{"attributes":{"ID":481711,"DIS_CODE":0,"TOWNNAME":"東區","LI":"忠孝里","LIN":"26鄰","STREET":"崇明一街","SECT":" ","MAREA":" ","LANE":" ","ALLEY":" ","HOUSE_NO":"１９號","E_COORD97":169556.04999999999,"N_COORD97":2542449.6800000002,"ADDRESS":"崇明一街１９號","OBJECTID":481686},"geometry":{"x":169556.05000000075,"y":2542449.6800000034}},{"attributes":{"ID":481712,"DIS_CODE":0,"TOWNNAME":"東區","LI":"忠孝里","LIN":"26鄰","STREET":"崇明一街","SECT":" ","MAREA":" ","LANE":" ","ALLEY":" ","HOUSE_NO":"２１號","E_COORD97":169560.32999999999,"N_COORD97":2542450.7999999998,"ADDRESS":"崇明一街２１號","OBJECTID":481687},"geometry":{"x":169560.33000000007,"y":2542450.8000000026}},{"attributes":{"ID":481713,"DIS_CODE":0,"TOWNNAME":"東區","LI":"忠孝里","LIN":"26鄰","STREET":"崇明一街","SECT":" ","MAREA":" ","LANE":" ","ALLEY":" ","HOUSE_NO":"２３號","E_COORD97":169563.70999999999,"N_COORD97":2542452.6000000001,"ADDRESS":"崇明一街２３號","OBJECTID":481688},"geometry":{"x":169563.71000000089,"y":2542452.5999999996}},{"attributes":{"ID":481714,"DIS_CODE":0,"TOWNNAME":"東區","LI":"忠孝里","LIN":"26鄰","STREET":"崇明一街","SECT":" ","MAREA":" ","LANE":" ","ALLEY":" ","HOUSE_NO":"２５號","E_COORD97":169567.54000000001,"N_COORD97":2542453.9500000002,"ADDRESS":"崇明一街２５號","OBJECTID":481689},"geometry":{"x":169567.5400000019,"y":2542453.950000003}},{"attributes":{"ID":481715,"DIS_CODE":0,"TOWNNAME":"東區","LI":"忠孝里","LIN":"26鄰","STREET":"崇明一街","SECT":" ","MAREA":" ","LANE":" ","ALLEY":" ","HOUSE_NO":"２７號","E_COORD97":169571.60000000001,"N_COORD97":2542454.6299999999,"ADDRESS":"崇明一街２７號","OBJECTID":481690},"geometry":{"x":169571.59999999963,"y":2542454.629999999}},{"attributes":{"ID":481716,"DIS_CODE":0,"TOWNNAME":"東區","LI":"忠孝里","LIN":"26鄰","STREET":"崇明一街","SECT":" ","MAREA":" ","LANE":" ","ALLEY":" ","HOUSE_NO":"３１號","E_COORD97":169578.81,"N_COORD97":2542458.0099999998,"ADDRESS":"崇明一街３１號","OBJECTID":481691},"geometry":{"x":169578.81000000145,"y":2542458.0100000016}},{"attributes":{"ID":481717,"DIS_CODE":0,"TOWNNAME":"東區","LI":"忠孝里","LIN":"26鄰","STREET":"崇明一街","SECT":" ","MAREA":" ","LANE":" ","ALLEY":" ","HOUSE_NO":"３３號","E_COORD97":169582.42000000001,"N_COORD97":2542458.6800000002,"ADDRESS":"崇明一街３３號","OBJECTID":481692},"geometry":{"x":169582.42000000086,"y":2542458.6799999997}},{"attributes":{"ID":481718,"DIS_CODE":0,"TOWNNAME":"東區","LI":"忠孝里","LIN":"26鄰","STREET":"崇明一街","SECT":" ","MAREA":" ","LANE":" ","ALLEY":" ","HOUSE_NO":"３５號","E_COORD97":169586.48000000001,"N_COORD97":2542460.2599999998,"ADDRESS":"崇明一街３５號","OBJECTID":481693},"geometry":{"x":169586.48000000045,"y":2542460.2600000016}},{"attributes":{"ID":481719,"DIS_CODE":0,"TOWNNAME":"東區","LI":"忠孝里","LIN":"26鄰","STREET":"崇明一街","SECT":" ","MAREA":" ","LANE":" ","ALLEY":" ","HOUSE_NO":"３７號","E_COORD97":169589.63,"N_COORD97":2542461.8300000001,"ADDRESS":"崇明一街３７號","OBJECTID":481694},"geometry":{"x":169589.63000000082,"y":2542461.8300000001}},{"attributes":{"ID":481720,"DIS_CODE":0,"TOWNNAME":"東區","LI":"忠孝里","LIN":"26鄰","STREET":"崇明一街","SECT":" ","MAREA":" ","LANE":" ","ALLEY":" ","HOUSE_NO":"３９號","E_COORD97":169594.14000000001,"N_COORD97":2542462.5099999998,"ADDRESS":"崇明一街３９號","OBJECTID":481695},"geometry":{"x":169594.1400000006,"y":2542462.5100000016}},{"attributes":{"ID":481721,"DIS_CODE":0,"TOWNNAME":"東區","LI":"忠孝里","LIN":"26鄰","STREET":"崇明一街","SECT":" ","MAREA":" ","LANE":" ","ALLEY":" ","HOUSE_NO":"４１號","E_COORD97":169597.97,"N_COORD97":2542464.0800000001,"ADDRESS":"崇明一街４１號","OBJECTID":481696},"geometry":{"x":169597.96999999974,"y":2542464.0800000038}},{"attributes":{"ID":481722,"DIS_CODE":0,"TOWNNAME":"東區","LI":"忠孝里","LIN":"26鄰","STREET":"崇明一街","SECT":" ","MAREA":" ","LANE":" ","ALLEY":" ","HOUSE_NO":"４３號","E_COORD97":169601.35000000001,"N_COORD97":2542465.4300000002,"ADDRESS":"崇明一街４３號","OBJECTID":481697},"geometry":{"x":169601.35000000056,"y":2542465.4300000016}},{"attributes":{"ID":481723,"DIS_CODE":0,"TOWNNAME":"安平區","LI":"金城里","LIN":"4鄰","STREET":"湖內一街","SECT":" ","MAREA":" ","LANE":" ","ALLEY":" ","HOUSE_NO":"１８號","E_COORD97":163786.31,"N_COORD97":2544224.5,"ADDRESS":"湖內一街１８號","OBJECTID":481698},"geometry":{"x":163786.31000000145,"y":2544224.5000000037}},{"attributes":{"ID":481724,"DIS_CODE":0,"TOWNNAME":"安平區","LI":"金城里","LIN":"4鄰","STREET":"湖內一街","SECT":" ","MAREA":" ","LANE":" ","ALLEY":" ","HOUSE_NO":"２０號","E_COORD97":163782.04999999999,"N_COORD97":2544223.6899999999,"ADDRESS":"湖內一街２０號","OBJECTID":481699},"geometry":{"x":163782.05000000075,"y":2544223.6900000013}},{"attributes":{"ID":481725,"DIS_CODE":0,"TOWNNAME":"東區","LI":"泉南里","LIN":"26鄰","STREET":"府連路","SECT":" ","MAREA":" ","LANE":" ","ALLEY":" ","HOUSE_NO":"２６２號","E_COORD97":169456.98000000001,"N_COORD97":2542870.0800000001,"ADDRESS":"府連路２６２號","OBJECTID":481700},"geometry":{"x":169456.98000000138,"y":2542870.0800000001}},{"attributes":{"ID":481726,"DIS_CODE":0,"TOWNNAME":"東區","LI":"泉南里","LIN":"26鄰","STREET":"府連路","SECT":" ","MAREA":" ","LANE":" ","ALLEY":" ","HOUSE_NO":"２６６號","E_COORD97":169461.70000000001,"N_COORD97":2542869.4199999999,"ADDRESS":"府連路２６６號","OBJECTID":481701},"geometry":{"x":169461.70000000112,"y":2542869.4200000018}},{"attributes":{"ID":481727,"DIS_CODE":0,"TOWNNAME":"東區","LI":"泉南里","LIN":"26鄰","STREET":"府連路","SECT":" ","MAREA":" ","LANE":" ","ALLEY":" ","HOUSE_NO":"２６８號","E_COORD97":169466.09,"N_COORD97":2542867.46,"ADDRESS":"府連路２６８號","OBJECTID":481702},"geometry":{"x":169466.09000000078,"y":2542867.4600000028}},{"attributes":{"ID":481728,"DIS_CODE":0,"TOWNNAME":"東區","LI":"泉南里","LIN":"26鄰","STREET":"府連路","SECT":" ","MAREA":" ","LANE":" ","ALLEY":" ","HOUSE_NO":"２７０號","E_COORD97":169469.82999999999,"N_COORD97":2542866.1600000001,"ADDRESS":"府連路２７０號","OBJECTID":481703},"geometry":{"x":169469.83000000007,"y":2542866.1600000001}},{"attributes":{"ID":481729,"DIS_CODE":0,"TOWNNAME":"東區","LI":"泉南里","LIN":"26鄰","STREET":"府連路","SECT":" ","MAREA":" ","LANE":" ","ALLEY":" ","HOUSE_NO":"２７２號","E_COORD97":169474.22,"N_COORD97":2542864.7000000002,"ADDRESS":"府連路２７２號","OBJECTID":481704},"geometry":{"x":169474.21999999974,"y":2542864.6999999993}},{"attributes":{"ID":481730,"DIS_CODE":0,"TOWNNAME":"東區","LI":"泉南里","LIN":"26鄰","STREET":"府連路","SECT":" ","MAREA":" ","LANE":" ","ALLEY":" ","HOUSE_NO":"２７４號","E_COORD97":169479.10000000001,"N_COORD97":2542863.73,"ADDRESS":"府連路２７４號","OBJECTID":481705},"geometry":{"x":169479.10000000056,"y":2542863.7300000042}},{"attributes":{"ID":481731,"DIS_CODE":0,"TOWNNAME":"東區","LI":"泉南里","LIN":"26鄰","STREET":"府連路","SECT":" ","MAREA":" ","LANE":" ","ALLEY":" ","HOUSE_NO":"２７６號","E_COORD97":169482.85000000001,"N_COORD97":2542862.9100000001,"ADDRESS":"府連路２７６號","OBJECTID":481706},"geometry":{"x":169482.84999999963,"y":2542862.910000002}},{"attributes":{"ID":481732,"DIS_CODE":0,"TOWNNAME":"東區","LI":"泉南里","LIN":"26鄰","STREET":"府連路","SECT":" ","MAREA":" ","LANE":" ","ALLEY":" ","HOUSE_NO":"２８０號","E_COORD97":169490,"N_COORD97":2542858.8500000001,"ADDRESS":"府連路２８０號","OBJECTID":481707},"geometry":{"x":169490.00000000093,"y":2542858.8500000034}},{"attributes":{"ID":481733,"DIS_CODE":0,"TOWNNAME":"東區","LI":"泉南里","LIN":"26鄰","STREET":"府連路","SECT":" ","MAREA":" ","LANE":" ","ALLEY":" ","HOUSE_NO":"２８４號","E_COORD97":169498.63,"N_COORD97":2542857.2200000002,"ADDRESS":"府連路２８４號","OBJECTID":481708},"geometry":{"x":169498.62999999989,"y":2542857.2200000044}},{"attributes":{"ID":481734,"DIS_CODE":0,"TOWNNAME":"東區","LI":"泉南里","LIN":"26鄰","STREET":"府連路","SECT":" ","MAREA":" ","LANE":" ","ALLEY":" ","HOUSE_NO":"２８６號","E_COORD97":169502.69,"N_COORD97":2542855.6000000001,"ADDRESS":"府連路２８６號","OBJECTID":481709},"geometry":{"x":169502.69000000134,"y":2542855.5999999996}},{"attributes":{"ID":481735,"DIS_CODE":0,"TOWNNAME":"東區","LI":"泉南里","LIN":"26鄰","STREET":"府連路","SECT":" ","MAREA":" ","LANE":" ","ALLEY":" ","HOUSE_NO":"２８８號","E_COORD97":169506.26999999999,"N_COORD97":2542853.9700000002,"ADDRESS":"府連路２８８號","OBJECTID":481710},"geometry":{"x":169506.27000000048,"y":2542853.9700000007}},{"attributes":{"ID":481736,"DIS_CODE":0,"TOWNNAME":"東區","LI":"泉南里","LIN":"26鄰","STREET":"府連路","SECT":" ","MAREA":" ","LANE":" ","ALLEY":" ","HOUSE_NO":"２９２號","E_COORD97":169514.39999999999,"N_COORD97":2542850.7200000002,"ADDRESS":"府連路２９２號","OBJECTID":481711},"geometry":{"x":169514.40000000037,"y":2542850.7200000025}},{"attributes":{"ID":481737,"DIS_CODE":0,"TOWNNAME":"安平區","LI":"國平里","LIN":"18鄰","STREET":"永華路","SECT":"二段","MAREA":" ","LANE":" ","ALLEY":" ","HOUSE_NO":"６６９號","E_COORD97":165254.76000000001,"N_COORD97":2543479.1499999999,"ADDRESS":"永華路二段６６９號","OBJECTID":481712},"geometry":{"x":165254.75999999885,"y":2543479.1500000022}},{"attributes":{"ID":481738,"DIS_CODE":0,"TOWNNAME":"東區","LI":"泉南里","LIN":"26鄰","STREET":"府連路","SECT":" ","MAREA":" ","LANE":" ","ALLEY":" ","HOUSE_NO":"２９４號","E_COORD97":169517.32999999999,"N_COORD97":2542849.1000000001,"ADDRESS":"府連路２９４號","OBJECTID":481713},"geometry":{"x":169517.33000000007,"y":2542849.0999999996}},{"attributes":{"ID":481739,"DIS_CODE":0,"TOWNNAME":"東區","LI":"泉南里","LIN":"26鄰","STREET":"府連路","SECT":" ","MAREA":" ","LANE":" ","ALLEY":" ","HOUSE_NO":"２９６號","E_COORD97":169522.20999999999,"N_COORD97":2542847.96,"ADDRESS":"府連路２９６號","OBJECTID":481714},"geometry":{"x":169522.21000000183,"y":2542847.9600000009}},{"attributes":{"ID":481740,"DIS_CODE":0,"TOWNNAME":"東區","LI":"泉南里","LIN":"26鄰","STREET":"府連路","SECT":" ","MAREA":" ","LANE":" ","ALLEY":" ","HOUSE_NO":"２８２號","E_COORD97":169494.88,"N_COORD97":2542859.3399999999,"ADDRESS":"府連路２８２號","OBJECTID":481715},"geometry":{"x":169494.87999999989,"y":2542859.3400000017}},{"attributes":{"ID":481741,"DIS_CODE":0,"TOWNNAME":"東區","LI":"泉南里","LIN":"26鄰","STREET":"府連路","SECT":" ","MAREA":" ","LANE":" ","ALLEY":" ","HOUSE_NO":"２７８號","E_COORD97":169486.42000000001,"N_COORD97":2542861.7799999998,"ADDRESS":"府連路２７８號","OBJECTID":481716},"geometry":{"x":169486.41999999993,"y":2542861.7799999993}},{"attributes":{"ID":481742,"DIS_CODE":0,"TOWNNAME":"東區","LI":"泉南里","LIN":"26鄰","STREET":"府連路","SECT":" ","MAREA":" ","LANE":" ","ALLEY":" ","HOUSE_NO":"２９０號","E_COORD97":169510.5,"N_COORD97":2542852.5099999998,"ADDRESS":"府連路２９０號","OBJECTID":481717},"geometry":{"x":169510.50000000093,"y":2542852.5100000016}},{"attributes":{"ID":481743,"DIS_CODE":0,"TOWNNAME":"東區","LI":"忠孝里","LIN":"26鄰","STREET":"崇明一街","SECT":" ","MAREA":" ","LANE":" ","ALLEY":" ","HOUSE_NO":"１８號","E_COORD97":169567.69,"N_COORD97":2542433.1800000002,"ADDRESS":"崇明一街１８號","OBJECTID":481718},"geometry":{"x":169567.69000000134,"y":2542433.1800000016}},{"attributes":{"ID":481744,"DIS_CODE":0,"TOWNNAME":"東區","LI":"裕農里","LIN":"26鄰","STREET":"東寧路","SECT":" ","MAREA":" ","LANE":" ","ALLEY":" ","HOUSE_NO":"４５８號","E_COORD97":171001.23999999999,"N_COORD97":2543316.0499999998,"ADDRESS":"東寧路４５８號","OBJECTID":481719},"geometry":{"x":171001.24000000115,"y":2543316.0500000045}},{"attributes":{"ID":481745,"DIS_CODE":0,"TOWNNAME":"東區","LI":"裕農里","LIN":"26鄰","STREET":"東寧路","SECT":" ","MAREA":" ","LANE":" ","ALLEY":" ","HOUSE_NO":"４６０號","E_COORD97":171006.19,"N_COORD97":2543315.0600000001,"ADDRESS":"東寧路４６０號","OBJECTID":481720},"geometry":{"x":171006.19000000227,"y":2543315.0600000005}},{"attributes":{"ID":481746,"DIS_CODE":0,"TOWNNAME":"東區","LI":"裕農里","LIN":"26鄰","STREET":"東寧路","SECT":" ","MAREA":" ","LANE":" ","ALLEY":" ","HOUSE_NO":"４６２號","E_COORD97":171010.16,"N_COORD97":2543314.0699999998,"ADDRESS":"東寧路４６２號","OBJECTID":481721},"geometry":{"x":171010.16000000108,"y":2543314.0700000003}},{"attributes":{"ID":481747,"DIS_CODE":0,"TOWNNAME":"東區","LI":"裕農里","LIN":"26鄰","STREET":"東寧路","SECT":" ","MAREA":" ","LANE":" ","ALLEY":" ","HOUSE_NO":"４６４號","E_COORD97":171014.45000000001,"N_COORD97":2543313.0800000001,"ADDRESS":"東寧路４６４號","OBJECTID":481722},"geometry":{"x":171014.45000000112,"y":2543313.0800000019}},{"attributes":{"ID":481748,"DIS_CODE":0,"TOWNNAME":"東區","LI":"裕農里","LIN":"26鄰","STREET":"東寧路","SECT":" ","MAREA":" ","LANE":" ","ALLEY":" ","HOUSE_NO":"４６６號","E_COORD97":171017.76000000001,"N_COORD97":2543311.7599999998,"ADDRESS":"東寧路４６６號","OBJECTID":481723},"geometry":{"x":171017.75999999978,"y":2543311.7600000016}},{"attributes":{"ID":481749,"DIS_CODE":0,"TOWNNAME":"東區","LI":"裕農里","LIN":"26鄰","STREET":"東寧路","SECT":" ","MAREA":" ","LANE":" ","ALLEY":" ","HOUSE_NO":"４６８號","E_COORD97":171023.04000000001,"N_COORD97":2543312.75,"ADDRESS":"東寧路４６８號","OBJECTID":481724},"geometry":{"x":171023.04000000004,"y":2543312.75}},{"attributes":{"ID":481750,"DIS_CODE":0,"TOWNNAME":"東區","LI":"裕農里","LIN":"26鄰","STREET":"東寧路","SECT":" ","MAREA":" ","LANE":" ","ALLEY":" ","HOUSE_NO":"４７０號","E_COORD97":171027.01000000001,"N_COORD97":2543308.79,"ADDRESS":"東寧路４７０號","OBJECTID":481725},"geometry":{"x":171027.01000000164,"y":2543308.7899999991}},{"attributes":{"ID":481751,"DIS_CODE":0,"TOWNNAME":"東區","LI":"裕農里","LIN":"26鄰","STREET":"東寧路","SECT":" ","MAREA":" ","LANE":" ","ALLEY":" ","HOUSE_NO":"４５６號","E_COORD97":170998.26999999999,"N_COORD97":2543317.3700000001,"ADDRESS":"東寧路４５６號","OBJECTID":481726},"geometry":{"x":170998.27000000048,"y":2543317.3699999992}},{"attributes":{"ID":481752,"DIS_CODE":0,"TOWNNAME":"東區","LI":"泉南里","LIN":"26鄰","STREET":"府連路","SECT":" ","MAREA":" ","LANE":" ","ALLEY":" ","HOUSE_NO":"３００號","E_COORD97":169531.64999999999,"N_COORD97":2542845.8500000001,"ADDRESS":"府連路３００號","OBJECTID":481727},"geometry":{"x":169531.65000000224,"y":2542845.8500000015}},{"attributes":{"ID":481753,"DIS_CODE":0,"TOWNNAME":"東區","LI":"泉南里","LIN":"26鄰","STREET":"府連路","SECT":" ","MAREA":" ","LANE":" ","ALLEY":" ","HOUSE_NO":"３０２號","E_COORD97":169535.23000000001,"N_COORD97":2542843.8900000001,"ADDRESS":"府連路３０２號","OBJECTID":481728},"geometry":{"x":169535.23000000138,"y":2542843.8900000025}},{"attributes":{"ID":481754,"DIS_CODE":0,"TOWNNAME":"東區","LI":"泉南里","LIN":"26鄰","STREET":"府連路","SECT":" ","MAREA":" ","LANE":" ","ALLEY":" ","HOUSE_NO":"３０４號","E_COORD97":169539.29000000001,"N_COORD97":2542840.6400000001,"ADDRESS":"府連路３０４號","OBJECTID":481729},"geometry":{"x":169539.29000000097,"y":2542840.6400000043}},{"attributes":{"ID":481755,"DIS_CODE":0,"TOWNNAME":"東區","LI":"泉南里","LIN":"26鄰","STREET":"府連路","SECT":" ","MAREA":" ","LANE":" ","ALLEY":" ","HOUSE_NO":"２９８號","E_COORD97":169526.76999999999,"N_COORD97":2542846.6600000001,"ADDRESS":"府連路２９８號","OBJECTID":481730},"geometry":{"x":169526.77000000048,"y":2542846.6599999983}},{"attributes":{"ID":481756,"DIS_CODE":0,"TOWNNAME":"安平區","LI":"文平里","LIN":"3鄰","STREET":"永華路","SECT":"二段","MAREA":" ","LANE":" ","ALLEY":" ","HOUSE_NO":"１號","E_COORD97":166607.89000000001,"N_COORD97":2543262.9300000002,"ADDRESS":"永華路二段１號","OBJECTID":481731},"geometry":{"x":166607.88999999966,"y":2543262.9300000016}},{"attributes":{"ID":481757,"DIS_CODE":0,"TOWNNAME":"永康區","LI":"\u25A0行里","LIN":"26鄰","STREET":"中正南路","SECT":" ","MAREA":" ","LANE":" ","ALLEY":" ","HOUSE_NO":"５０６號","E_COORD97":171307.04999999999,"N_COORD97":2548546.2400000002,"ADDRESS":"中正南路５０６號","OBJECTID":481732},"geometry":{"x":171307.05000000075,"y":2548546.2400000021}},{"attributes":{"ID":481758,"DIS_CODE":0,"TOWNNAME":"永康區","LI":"\u25A0洲里","LIN":"26鄰","STREET":"洲尾街","SECT":" ","MAREA":" ","LANE":" ","ALLEY":" ","HOUSE_NO":"２１３號","E_COORD97":170909.51000000001,"N_COORD97":2549034.8700000001,"ADDRESS":"洲尾街２１３號","OBJECTID":481733},"geometry":{"x":170909.50999999978,"y":2549034.8700000029}},{"attributes":{"ID":481759,"DIS_CODE":0,"TOWNNAME":"永康區","LI":"\u25A0洲里","LIN":"26鄰","STREET":"洲尾街","SECT":" ","MAREA":" ","LANE":" ","ALLEY":" ","HOUSE_NO":"２３３號","E_COORD97":170915.88,"N_COORD97":2549102.1099999999,"ADDRESS":"洲尾街２３３號","OBJECTID":481734},"geometry":{"x":170915.87999999989,"y":2549102.1100000013}},{"attributes":{"ID":481760,"DIS_CODE":0,"TOWNNAME":"東區","LI":"忠孝里","LIN":"26鄰","STREET":"崇明一街","SECT":" ","MAREA":" ","LANE":" ","ALLEY":" ","HOUSE_NO":"４２號","E_COORD97":169616.84,"N_COORD97":2542449.48,"ADDRESS":"崇明一街４２號","OBJECTID":481735},"geometry":{"x":169616.84000000078,"y":2542449.4800000023}},{"attributes":{"ID":481761,"DIS_CODE":0,"TOWNNAME":"東區","LI":"後甲里","LIN":"26鄰","STREET":"中華東路","SECT":"一段","MAREA":" ","LANE":" ","ALLEY":" ","HOUSE_NO":"２４１號","E_COORD97":171453.19,"N_COORD97":2543318.5899999999,"ADDRESS":"中華東路一段２４１號","OBJECTID":481736},"geometry":{"x":171453.19000000041,"y":2543318.5900000017}},{"attributes":{"ID":481762,"DIS_CODE":0,"TOWNNAME":"東區","LI":"後甲里","LIN":"26鄰","STREET":"中華東路","SECT":"一段","MAREA":" ","LANE":" ","ALLEY":" ","HOUSE_NO":"２４５號","E_COORD97":171450.23999999999,"N_COORD97":2543302.4100000001,"ADDRESS":"中華東路一段２４５號","OBJECTID":481737},"geometry":{"x":171450.24000000115,"y":2543302.4100000001}},{"attributes":{"ID":481763,"DIS_CODE":0,"TOWNNAME":"東區","LI":"後甲里","LIN":"26鄰","STREET":"中華東路","SECT":"一段","MAREA":" ","LANE":" ","ALLEY":" ","HOUSE_NO":"２５１號","E_COORD97":171451.01999999999,"N_COORD97":2543292.0899999999,"ADDRESS":"中華東路一段２５１號","OBJECTID":481738},"geometry":{"x":171451.02000000048,"y":2543292.0900000017}},{"attributes":{"ID":481764,"DIS_CODE":0,"TOWNNAME":"東區","LI":"後甲里","LIN":"26鄰","STREET":"中華東路","SECT":"一段","MAREA":" ","LANE":" ","ALLEY":" ","HOUSE_NO":"２６５號","E_COORD97":171450.04999999999,"N_COORD97":2543263.8399999999,"ADDRESS":"中華東路一段２６５號","OBJECTID":481739},"geometry":{"x":171450.04999999981,"y":2543263.8400000017}},{"attributes":{"ID":481765,"DIS_CODE":0,"TOWNNAME":"東區","LI":"後甲里","LIN":"26鄰","STREET":"中華東路","SECT":"一段","MAREA":" ","LANE":" ","ALLEY":" ","HOUSE_NO":"２５９號","E_COORD97":171448.84,"N_COORD97":2543274.9199999999,"ADDRESS":"中華東路一段２５９號","OBJECTID":481740},"geometry":{"x":171448.84000000078,"y":2543274.9199999999}},{"attributes":{"ID":481766,"DIS_CODE":0,"TOWNNAME":"東區","LI":"後甲里","LIN":"26鄰","STREET":"中華東路","SECT":"一段","MAREA":" ","LANE":" ","ALLEY":" ","HOUSE_NO":"２６３號","E_COORD97":171449.29000000001,"N_COORD97":2543267.2400000002,"ADDRESS":"中華東路一段２６３號","OBJECTID":481741},"geometry":{"x":171449.2900000019,"y":2543267.2400000021}},{"attributes":{"ID":481767,"DIS_CODE":0,"TOWNNAME":"東區","LI":"後甲里","LIN":"26鄰","STREET":"中華東路","SECT":"一段","MAREA":" ","LANE":" ","ALLEY":" ","HOUSE_NO":"２６９號","E_COORD97":171456.56,"N_COORD97":2543258.7799999998,"ADDRESS":"中華東路一段２６９號","OBJECTID":481742},"geometry":{"x":171456.55999999959,"y":2543258.7800000031}},{"attributes":{"ID":481768,"DIS_CODE":0,"TOWNNAME":"佳里區","LI":"六安里","LIN":"26鄰","STREET":"林園街","SECT":" ","MAREA":" ","LANE":" ","ALLEY":" ","HOUSE_NO":"２０６號","E_COORD97":165556.14999999999,"N_COORD97":2562909.6000000001,"ADDRESS":"林園街２０６號","OBJECTID":481743},"geometry":{"x":165556.15000000037,"y":2562909.5999999996}},{"attributes":{"ID":481769,"DIS_CODE":0,"TOWNNAME":"中西區","LI":"西賢里","LIN":"26鄰","STREET":"西賢五街","SECT":" ","MAREA":" ","LANE":" ","ALLEY":" ","HOUSE_NO":"７２號","E_COORD97":165221.81,"N_COORD97":2544679.5,"ADDRESS":"西賢五街７２號","OBJECTID":481744},"geometry":{"x":165221.80999999959,"y":2544679.5000000019}},{"attributes":{"ID":481770,"DIS_CODE":0,"TOWNNAME":"永康區","LI":"永康里","LIN":"26鄰","STREET":"中山北路","SECT":" ","MAREA":" ","LANE":" ","ALLEY":" ","HOUSE_NO":"７０號四樓之２","E_COORD97":174075.48000000001,"N_COORD97":2547398.25,"ADDRESS":"中山北路７０號四樓之２","OBJECTID":481745},"geometry":{"x":174075.48000000045,"y":2547398.25}},{"attributes":{"ID":481771,"DIS_CODE":0,"TOWNNAME":"東區","LI":"崇文里","LIN":"26鄰","STREET":"崇德二十二街","SECT":" ","MAREA":" ","LANE":" ","ALLEY":" ","HOUSE_NO":"１５０號","E_COORD97":171206.69,"N_COORD97":2540822.8599999999,"ADDRESS":"崇德二十二街１５０號","OBJECTID":481746},"geometry":{"x":171206.69000000134,"y":2540822.8599999994}},{"attributes":{"ID":481772,"DIS_CODE":0,"TOWNNAME":"東區","LI":"崇文里","LIN":"26鄰","STREET":"崇德二十二街","SECT":" ","MAREA":" ","LANE":" ","ALLEY":" ","HOUSE_NO":"２號","E_COORD97":170823.51999999999,"N_COORD97":2540795.3100000001,"ADDRESS":"崇德二十二街２號","OBJECTID":481747},"geometry":{"x":170823.52000000048,"y":2540795.3100000042}},{"attributes":{"ID":481773,"DIS_CODE":0,"TOWNNAME":"東區","LI":"崇文里","LIN":"26鄰","STREET":"崇德二十二街","SECT":" ","MAREA":" ","LANE":" ","ALLEY":" ","HOUSE_NO":"３２號","E_COORD97":170897.85000000001,"N_COORD97":2540794.3900000001,"ADDRESS":"崇德二十二街３２號","OBJECTID":481748},"geometry":{"x":170897.85000000056,"y":2540794.3899999987}},{"attributes":{"ID":481774,"DIS_CODE":0,"TOWNNAME":"東區","LI":"崇文里","LIN":"26鄰","STREET":"崇德二十二街","SECT":" ","MAREA":" ","LANE":" ","ALLEY":" ","HOUSE_NO":"３４號","E_COORD97":170904.22,"N_COORD97":2540794.3900000001,"ADDRESS":"崇德二十二街３４號","OBJECTID":481749},"geometry":{"x":170904.22000000067,"y":2540794.3899999987}},{"attributes":{"ID":481775,"DIS_CODE":0,"TOWNNAME":"永康區","LI":"永康里","LIN":"26鄰","STREET":"永大路","SECT":"二段","MAREA":" ","LANE":" ","ALLEY":" ","HOUSE_NO":"１０９３號","E_COORD97":174208.78,"N_COORD97":2547413.4700000002,"ADDRESS":"永大路二段１０９３號","OBJECTID":481750},"geometry":{"x":174208.78000000026,"y":2547413.4700000025}},{"attributes":{"ID":481776,"DIS_CODE":0,"TOWNNAME":"永康區","LI":"復國里","LIN":"26鄰","STREET":"復華三街","SECT":" ","MAREA":" ","LANE":" ","ALLEY":" ","HOUSE_NO":"５６號","E_COORD97":172722.89999999999,"N_COORD97":2545560.7400000002,"ADDRESS":"復華三街５６號","OBJECTID":481751},"geometry":{"x":172722.90000000037,"y":2545560.7400000002}},{"attributes":{"ID":481777,"DIS_CODE":0,"TOWNNAME":"永康區","LI":"東灣里","LIN":"26鄰","STREET":"大灣一街","SECT":" ","MAREA":" ","LANE":" ","ALLEY":" ","HOUSE_NO":"２１５號","E_COORD97":174920.78,"N_COORD97":2544636.1200000001,"ADDRESS":"大灣一街２１５號","OBJECTID":481752},"geometry":{"x":174920.78000000026,"y":2544636.1200000029}},{"attributes":{"ID":481778,"DIS_CODE":0,"TOWNNAME":"永康區","LI":"網寮里","LIN":"26鄰","STREET":"永華路","SECT":" ","MAREA":" ","LANE":" ","ALLEY":" ","HOUSE_NO":"５８２號","E_COORD97":173894.14999999999,"N_COORD97":2546583.0099999998,"ADDRESS":"永華路５８２號","OBJECTID":481753},"geometry":{"x":173894.15000000037,"y":2546583.0099999998}},{"attributes":{"ID":481779,"DIS_CODE":0,"TOWNNAME":"佳里區","LI":"六安里","LIN":"26鄰","STREET":"林園街","SECT":" ","MAREA":" ","LANE":" ","ALLEY":" ","HOUSE_NO":"２０８號","E_COORD97":165552.06,"N_COORD97":2562909.3199999998,"ADDRESS":"林園街２０８號","OBJECTID":481754},"geometry":{"x":165552.05999999959,"y":2562909.3200000003}},{"attributes":{"ID":481780,"DIS_CODE":0,"TOWNNAME":"佳里區","LI":"六安里","LIN":"26鄰","STREET":"林園街","SECT":" ","MAREA":" ","LANE":" ","ALLEY":" ","HOUSE_NO":"２１０號","E_COORD97":165547.98000000001,"N_COORD97":2562909.04,"ADDRESS":"林園街２１０號","OBJECTID":481755},"geometry":{"x":165547.98000000138,"y":2562909.040000001}},{"attributes":{"ID":481781,"DIS_CODE":0,"TOWNNAME":"佳里區","LI":"六安里","LIN":"26鄰","STREET":"林園街","SECT":" ","MAREA":" ","LANE":" ","ALLEY":" ","HOUSE_NO":"２１２號之２","E_COORD97":165532.07999999999,"N_COORD97":2562941.0499999998,"ADDRESS":"林園街２１２號之２","OBJECTID":481756},"geometry":{"x":165532.08000000007,"y":2562941.0500000026}},{"attributes":{"ID":481782,"DIS_CODE":0,"TOWNNAME":"佳里區","LI":"六安里","LIN":"26鄰","STREET":"林園街","SECT":" ","MAREA":" ","LANE":" ","ALLEY":" ","HOUSE_NO":"２１２號","E_COORD97":165537.70000000001,"N_COORD97":2562917.9399999999,"ADDRESS":"林園街２１２號","OBJECTID":481757},"geometry":{"x":165537.70000000112,"y":2562917.9399999995}},{"attributes":{"ID":481783,"DIS_CODE":0,"TOWNNAME":"佳里區","LI":"六安里","LIN":"26鄰","STREET":"林園街","SECT":" ","MAREA":" ","LANE":" ","ALLEY":" ","HOUSE_NO":"２１８號","E_COORD97":165508.28,"N_COORD97":2562950.6899999999,"ADDRESS":"林園街２１８號","OBJECTID":481758},"geometry":{"x":165508.28000000119,"y":2562950.6899999976}},{"attributes":{"ID":481784,"DIS_CODE":0,"TOWNNAME":"東區","LI":"莊敬里","LIN":"26鄰","STREET":"東平路","SECT":" ","MAREA":" ","LANE":" ","ALLEY":" ","HOUSE_NO":"４８號","E_COORD97":171332.72,"N_COORD97":2543936.7000000002,"ADDRESS":"東平路４８號","OBJECTID":481759},"geometry":{"x":171332.72000000067,"y":2543936.6999999993}},{"attributes":{"ID":481785,"DIS_CODE":0,"TOWNNAME":"東區","LI":"莊敬里","LIN":"26鄰","STREET":"東平路","SECT":" ","MAREA":" ","LANE":" ","ALLEY":" ","HOUSE_NO":"５０號","E_COORD97":171326.92999999999,"N_COORD97":2543937.3599999999,"ADDRESS":"東平路５０號","OBJECTID":481760},"geometry":{"x":171326.9299999997,"y":2543937.3600000013}},{"attributes":{"ID":481786,"DIS_CODE":0,"TOWNNAME":"東區","LI":"莊敬里","LIN":"26鄰","STREET":"東平路","SECT":" ","MAREA":" ","LANE":" ","ALLEY":" ","HOUSE_NO":"５２號","E_COORD97":171320.94,"N_COORD97":2543938.2200000002,"ADDRESS":"東平路５２號","OBJECTID":481761},"geometry":{"x":171320.94000000041,"y":2543938.2200000007}},{"attributes":{"ID":481787,"DIS_CODE":0,"TOWNNAME":"東區","LI":"莊敬里","LIN":"26鄰","STREET":"莊敬路","SECT":" ","MAREA":" ","LANE":" ","ALLEY":" ","HOUSE_NO":"１０１號","E_COORD97":171342.41,"N_COORD97":2543948.1800000002,"ADDRESS":"莊敬路１０１號","OBJECTID":481762},"geometry":{"x":171342.41000000108,"y":2543948.1800000034}},{"attributes":{"ID":481788,"DIS_CODE":0,"TOWNNAME":"東區","LI":"莊敬里","LIN":"26鄰","STREET":"莊敬路","SECT":" ","MAREA":" ","LANE":" ","ALLEY":" ","HOUSE_NO":"１０３號","E_COORD97":171343.35999999999,"N_COORD97":2543952.9300000002,"ADDRESS":"莊敬路１０３號","OBJECTID":481763},"geometry":{"x":171343.36000000034,"y":2543952.9299999997}},{"attributes":{"ID":481789,"DIS_CODE":0,"TOWNNAME":"東區","LI":"莊敬里","LIN":"26鄰","STREET":"莊敬路","SECT":" ","MAREA":" ","LANE":" ","ALLEY":" ","HOUSE_NO":"１０５號","E_COORD97":171344.12,"N_COORD97":2543957.5800000001,"ADDRESS":"莊敬路１０５號","OBJECTID":481764},"geometry":{"x":171344.12000000104,"y":2543957.5800000019}},{"attributes":{"ID":481790,"DIS_CODE":0,"TOWNNAME":"東區","LI":"莊敬里","LIN":"26鄰","STREET":"莊敬路","SECT":" ","MAREA":" ","LANE":" ","ALLEY":" ","HOUSE_NO":"１０７號","E_COORD97":171344.5,"N_COORD97":2543962.04,"ADDRESS":"莊敬路１０７號","OBJECTID":481765},"geometry":{"x":171344.50000000093,"y":2543962.0400000028}},{"attributes":{"ID":481791,"DIS_CODE":0,"TOWNNAME":"東區","LI":"莊敬里","LIN":"26鄰","STREET":"莊敬路","SECT":" ","MAREA":" ","LANE":" ","ALLEY":" ","HOUSE_NO":"１０９號","E_COORD97":171344.79000000001,"N_COORD97":2543965.6600000001,"ADDRESS":"莊敬路１０９號","OBJECTID":481766},"geometry":{"x":171344.79000000097,"y":2543965.6600000039}},{"attributes":{"ID":481792,"DIS_CODE":0,"TOWNNAME":"東區","LI":"莊敬里","LIN":"26鄰","STREET":"莊敬路","SECT":" ","MAREA":" ","LANE":" ","ALLEY":" ","HOUSE_NO":"１１１號","E_COORD97":171345.17000000001,"N_COORD97":2543968.8900000001,"ADDRESS":"莊敬路１１１號","OBJECTID":481767},"geometry":{"x":171345.17000000086,"y":2543968.8900000025}},{"attributes":{"ID":481793,"DIS_CODE":0,"TOWNNAME":"東區","LI":"莊敬里","LIN":"26鄰","STREET":"莊敬路","SECT":" ","MAREA":" ","LANE":" ","ALLEY":" ","HOUSE_NO":"１１３號","E_COORD97":171345.64000000001,"N_COORD97":2543973.1600000001,"ADDRESS":"莊敬路１１３號","OBJECTID":481768},"geometry":{"x":171345.63999999966,"y":2543973.160000002}},{"attributes":{"ID":481794,"DIS_CODE":0,"TOWNNAME":"東區","LI":"莊敬里","LIN":"26鄰","STREET":"莊敬路","SECT":" ","MAREA":" ","LANE":" ","ALLEY":" ","HOUSE_NO":"１１５號","E_COORD97":171343.84,"N_COORD97":2543977.25,"ADDRESS":"莊敬路１１５號","OBJECTID":481769},"geometry":{"x":171343.84000000078,"y":2543977.25}},{"attributes":{"ID":481795,"DIS_CODE":0,"TOWNNAME":"東區","LI":"莊敬里","LIN":"26鄰","STREET":"莊敬路","SECT":" ","MAREA":" ","LANE":" ","ALLEY":" ","HOUSE_NO":"１１７號","E_COORD97":171339.17999999999,"N_COORD97":2543959.1000000001,"ADDRESS":"莊敬路１１７號","OBJECTID":481770},"geometry":{"x":171339.1799999997,"y":2543959.1000000015}},{"attributes":{"ID":481796,"DIS_CODE":0,"TOWNNAME":"東區","LI":"莊敬里","LIN":"26鄰","STREET":"莊敬路","SECT":" ","MAREA":" ","LANE":" ","ALLEY":" ","HOUSE_NO":"１１９號","E_COORD97":171338.42000000001,"N_COORD97":2543950.3700000001,"ADDRESS":"莊敬路１１９號","OBJECTID":481771},"geometry":{"x":171338.42000000086,"y":2543950.370000001}},{"attributes":{"ID":481797,"DIS_CODE":0,"TOWNNAME":"東區","LI":"莊敬里","LIN":"26鄰","STREET":"莊敬路","SECT":" ","MAREA":" ","LANE":" ","ALLEY":" ","HOUSE_NO":"９９之１號","E_COORD97":171340.51000000001,"N_COORD97":2543936.7000000002,"ADDRESS":"莊敬路９９之１號","OBJECTID":481772},"geometry":{"x":171340.50999999885,"y":2543936.6999999993}},{"attributes":{"ID":481798,"DIS_CODE":0,"TOWNNAME":"永康區","LI":"\u25A0行里","LIN":"26鄰","STREET":"中正南路","SECT":" ","MAREA":" ","LANE":" ","ALLEY":" ","HOUSE_NO":"５０８號","E_COORD97":171304.32000000001,"N_COORD97":2548555.2400000002,"ADDRESS":"中正南路５０８號","OBJECTID":481773},"geometry":{"x":171304.32000000123,"y":2548555.2400000002}},{"attributes":{"ID":481799,"DIS_CODE":0,"TOWNNAME":"永康區","LI":"\u25A0洲里","LIN":"26鄰","STREET":"洲尾街","SECT":" ","MAREA":" ","LANE":" ","ALLEY":" ","HOUSE_NO":"１９３號","E_COORD97":170898.79000000001,"N_COORD97":2548981.3500000001,"ADDRESS":"洲尾街１９３號","OBJECTID":481774},"geometry":{"x":170898.79000000097,"y":2548981.3499999978}},{"attributes":{"ID":481800,"DIS_CODE":0,"TOWNNAME":"永康區","LI":"西灣里","LIN":"26鄰","STREET":"大勇路","SECT":" ","MAREA":" ","LANE":" ","ALLEY":" ","HOUSE_NO":"１４２號","E_COORD97":174296.73999999999,"N_COORD97":2545675.6699999999,"ADDRESS":"大勇路１４２號","OBJECTID":481775},"geometry":{"x":174296.74000000115,"y":2545675.6700000018}},{"attributes":{"ID":481801,"DIS_CODE":0,"TOWNNAME":"中西區","LI":"大涼里","LIN":"26鄰","STREET":"永華一街","SECT":" ","MAREA":" ","LANE":" ","ALLEY":" ","HOUSE_NO":"５６號","E_COORD97":166878.39999999999,"N_COORD97":2543401.1800000002,"ADDRESS":"永華一街５６號","OBJECTID":481776},"geometry":{"x":166878.40000000037,"y":2543401.1799999997}},{"attributes":{"ID":481802,"DIS_CODE":0,"TOWNNAME":"中西區","LI":"大涼里","LIN":"26鄰","STREET":"永華一街","SECT":" ","MAREA":" ","LANE":" ","ALLEY":" ","HOUSE_NO":"６８號","E_COORD97":166879.60000000001,"N_COORD97":2543409.8700000001,"ADDRESS":"永華一街６８號","OBJECTID":481777},"geometry":{"x":166879.59999999963,"y":2543409.8700000029}},{"attributes":{"ID":481803,"DIS_CODE":0,"TOWNNAME":"佳里區","LI":"建南里","LIN":"26鄰","STREET":"復興路","SECT":" ","MAREA":" ","LANE":" ","ALLEY":" ","HOUSE_NO":"１０３號","E_COORD97":165237.07999999999,"N_COORD97":2561668.3799999999,"ADDRESS":"復興路１０３號","OBJECTID":481778},"geometry":{"x":165237.08000000007,"y":2561668.3800000008}},{"attributes":{"ID":481804,"DIS_CODE":0,"TOWNNAME":"佳里區","LI":"建南里","LIN":"26鄰","STREET":"復興路","SECT":" ","MAREA":" ","LANE":" ","ALLEY":" ","HOUSE_NO":"１０５號","E_COORD97":165231.66,"N_COORD97":2561667.8900000001,"ADDRESS":"復興路１０５號","OBJECTID":481779},"geometry":{"x":165231.66000000015,"y":2561667.8900000006}},{"attributes":{"ID":481805,"DIS_CODE":0,"TOWNNAME":"佳里區","LI":"建南里","LIN":"26鄰","STREET":"復興路","SECT":" ","MAREA":" ","LANE":" ","ALLEY":" ","HOUSE_NO":"１０７號","E_COORD97":165226.89000000001,"N_COORD97":2561667.3900000001,"ADDRESS":"復興路１０７號","OBJECTID":481780},"geometry":{"x":165226.89000000153,"y":2561667.3900000025}},{"attributes":{"ID":481806,"DIS_CODE":0,"TOWNNAME":"佳里區","LI":"建南里","LIN":"26鄰","STREET":"復興路","SECT":" ","MAREA":" ","LANE":" ","ALLEY":" ","HOUSE_NO":"１０９號","E_COORD97":165222.54999999999,"N_COORD97":2561666.6299999999,"ADDRESS":"復興路１０９號","OBJECTID":481781},"geometry":{"x":165222.55000000168,"y":2561666.6300000008}},{"attributes":{"ID":481807,"DIS_CODE":0,"TOWNNAME":"佳里區","LI":"建南里","LIN":"26鄰","STREET":"復興路","SECT":" ","MAREA":" ","LANE":" ","ALLEY":" ","HOUSE_NO":"１１１號","E_COORD97":165223.91,"N_COORD97":2561646.5699999998,"ADDRESS":"復興路１１１號","OBJECTID":481782},"geometry":{"x":165223.91000000108,"y":2561646.5700000003}},{"attributes":{"ID":481808,"DIS_CODE":0,"TOWNNAME":"學甲區","LI":"慈福里","LIN":"26鄰","STREET":"中山路","SECT":" ","MAREA":" ","LANE":" ","ALLEY":" ","HOUSE_NO":"７５號","E_COORD97":166320.70000000001,"N_COORD97":2570441.5,"ADDRESS":"中山路７５號","OBJECTID":481783},"geometry":{"x":166320.70000000112,"y":2570441.5}},{"attributes":{"ID":481809,"DIS_CODE":0,"TOWNNAME":"永康區","LI":"網寮里","LIN":"26鄰","STREET":"永興路","SECT":" ","MAREA":" ","LANE":" ","ALLEY":" ","HOUSE_NO":"７１號","E_COORD97":174026.92999999999,"N_COORD97":2546543.25,"ADDRESS":"永興路７１號","OBJECTID":481784},"geometry":{"x":174026.93000000063,"y":2546543.2500000019}},{"attributes":{"ID":481810,"DIS_CODE":0,"TOWNNAME":"安南區","LI":"安富里","LIN":"26鄰","STREET":"郡安路","SECT":"五段","MAREA":" ","LANE":" ","ALLEY":" ","HOUSE_NO":"１６２號","E_COORD97":167658.45999999999,"N_COORD97":2547713.8799999999,"ADDRESS":"郡安路五段１６２號","OBJECTID":481785},"geometry":{"x":167658.45999999996,"y":2547713.8800000008}},{"attributes":{"ID":481811,"DIS_CODE":0,"TOWNNAME":"北區","LI":"中樓里","LIN":"6鄰","STREET":"東豐路","SECT":" ","MAREA":" ","LANE":" ","ALLEY":" ","HOUSE_NO":"５３號","E_COORD97":169574.01000000001,"N_COORD97":2544952.4300000002,"ADDRESS":"東豐路５３號","OBJECTID":481786},"geometry":{"x":169574.00999999978,"y":2544952.4299999997}},{"attributes":{"ID":481812,"DIS_CODE":0,"TOWNNAME":"仁德區","LI":"太子里","LIN":"26鄰","STREET":"太子路","SECT":" ","MAREA":" ","LANE":" ","ALLEY":" ","HOUSE_NO":"４０２號","E_COORD97":173617.32000000001,"N_COORD97":2543546.7599999998,"ADDRESS":"太子路４０２號","OBJECTID":481787},"geometry":{"x":173617.31999999937,"y":2543546.7599999998}},{"attributes":{"ID":481813,"DIS_CODE":0,"TOWNNAME":"東區","LI":"忠孝里","LIN":"26鄰","STREET":"崇明一街","SECT":" ","MAREA":" ","LANE":" ","ALLEY":" ","HOUSE_NO":"１０號","E_COORD97":169543.12,"N_COORD97":2542422.6899999999,"ADDRESS":"崇明一街１０號","OBJECTID":481788},"geometry":{"x":169543.12000000011,"y":2542422.6900000013}},{"attributes":{"ID":481814,"DIS_CODE":0,"TOWNNAME":"東區","LI":"東光里","LIN":"26鄰","STREET":"東安路","SECT":" ","MAREA":" ","LANE":" ","ALLEY":" ","HOUSE_NO":"１９６號","E_COORD97":170775.76999999999,"N_COORD97":2543994.0299999998,"ADDRESS":"東安路１９６號","OBJECTID":481789},"geometry":{"x":170775.77000000142,"y":2543994.0300000012}},{"attributes":{"ID":481815,"DIS_CODE":0,"TOWNNAME":"北區","LI":"中樓里","LIN":"6鄰","STREET":"東豐路","SECT":" ","MAREA":" ","LANE":" ","ALLEY":" ","HOUSE_NO":"５５號","E_COORD97":169579.95000000001,"N_COORD97":2544951.1200000001,"ADDRESS":"東豐路５５號","OBJECTID":481790},"geometry":{"x":169579.95000000019,"y":2544951.1200000029}},{"attributes":{"ID":481816,"DIS_CODE":0,"TOWNNAME":"永康區","LI":"復國里","LIN":"26鄰","STREET":"復國一路","SECT":" ","MAREA":" ","LANE":" ","ALLEY":" ","HOUSE_NO":"３０３號","E_COORD97":172737.16,"N_COORD97":2545583.3900000001,"ADDRESS":"復國一路３０３號","OBJECTID":481791},"geometry":{"x":172737.16000000108,"y":2545583.3900000025}},{"attributes":{"ID":481817,"DIS_CODE":0,"TOWNNAME":"永康區","LI":"網寮里","LIN":"26鄰","STREET":"永吉路","SECT":" ","MAREA":" ","LANE":" ","ALLEY":" ","HOUSE_NO":"１４２號","E_COORD97":173972.25,"N_COORD97":2546545.3100000001,"ADDRESS":"永吉路１４２號","OBJECTID":481792},"geometry":{"x":173972.25000000093,"y":2546545.3100000042}},{"attributes":{"ID":481818,"DIS_CODE":0,"TOWNNAME":"永康區","LI":"復國里","LIN":"26鄰","STREET":"復國一路","SECT":" ","MAREA":" ","LANE":" ","ALLEY":" ","HOUSE_NO":"２９７號","E_COORD97":172735.85000000001,"N_COORD97":2545565.3799999999,"ADDRESS":"復國一路２９７號","OBJECTID":481793},"geometry":{"x":172735.84999999963,"y":2545565.379999999}},{"attributes":{"ID":481819,"DIS_CODE":0,"TOWNNAME":"永康區","LI":"網寮里","LIN":"26鄰","STREET":"永吉路","SECT":" ","MAREA":" ","LANE":" ","ALLEY":" ","HOUSE_NO":"１４１號","E_COORD97":173947.97,"N_COORD97":2546537.9900000002,"ADDRESS":"永吉路１４１號","OBJECTID":481794},"geometry":{"x":173947.96999999881,"y":2546537.9900000021}},{"attributes":{"ID":481820,"DIS_CODE":0,"TOWNNAME":"永康區","LI":"網寮里","LIN":"26鄰","STREET":"永大二路","SECT":" ","MAREA":" ","LANE":" ","ALLEY":" ","HOUSE_NO":"１３３號","E_COORD97":174005.94,"N_COORD97":2546474.4900000002,"ADDRESS":"永大二路１３３號","OBJECTID":481795},"geometry":{"x":174005.94000000041,"y":2546474.4900000002}},{"attributes":{"ID":481821,"DIS_CODE":0,"TOWNNAME":"永康區","LI":"網寮里","LIN":"26鄰","STREET":"永大二路","SECT":" ","MAREA":" ","LANE":" ","ALLEY":" ","HOUSE_NO":"１３２號","E_COORD97":174009.14000000001,"N_COORD97":2546494.9900000002,"ADDRESS":"永大二路１３２號","OBJECTID":481796},"geometry":{"x":174009.13999999966,"y":2546494.9900000002}},{"attributes":{"ID":481822,"DIS_CODE":0,"TOWNNAME":"東區","LI":"東光里","LIN":"26鄰","STREET":"東安路","SECT":" ","MAREA":" ","LANE":" ","ALLEY":" ","HOUSE_NO":"１８８號","E_COORD97":170771.17000000001,"N_COORD97":2543974.2799999998,"ADDRESS":"東安路１８８號","OBJECTID":481797},"geometry":{"x":170771.16999999993,"y":2543974.2800000031}},{"attributes":{"ID":481823,"DIS_CODE":0,"TOWNNAME":"東區","LI":"東光里","LIN":"26鄰","STREET":"東安路","SECT":" ","MAREA":" ","LANE":" ","ALLEY":" ","HOUSE_NO":"１９０號","E_COORD97":170771.94,"N_COORD97":2543978.4100000001,"ADDRESS":"東安路１９０號","OBJECTID":481798},"geometry":{"x":170771.94000000041,"y":2543978.410000002}},{"attributes":{"ID":481824,"DIS_CODE":0,"TOWNNAME":"東區","LI":"東光里","LIN":"26鄰","STREET":"東安路","SECT":" ","MAREA":" ","LANE":" ","ALLEY":" ","HOUSE_NO":"１９２號","E_COORD97":170773.47,"N_COORD97":2543982.54,"ADDRESS":"東安路１９２號","OBJECTID":481799},"geometry":{"x":170773.47000000067,"y":2543982.5400000028}},{"attributes":{"ID":481825,"DIS_CODE":0,"TOWNNAME":"東區","LI":"東光里","LIN":"26鄰","STREET":"東安路","SECT":" ","MAREA":" ","LANE":" ","ALLEY":" ","HOUSE_NO":"１９４號","E_COORD97":170774.69,"N_COORD97":2543987.6000000001,"ADDRESS":"東安路１９４號","OBJECTID":481800},"geometry":{"x":170774.69000000134,"y":2543987.5999999996}}]}