{"displayFieldName":"TOWNNAME","fieldAliases":{"ID":"ID","DIS_CODE":"DIS_CODE","TOWNNAME":"TOWNNAME","LI":"LI","LIN":"LIN","STREET":"STREET","SECT":"SECT","MAREA":"MAREA","LANE":"LANE","ALLEY":"ALLEY","HOUSE_NO":"HOUSE_NO","E_COORD97":"E_COORD97","N_COORD97":"N_COORD97","ADDRESS":"ADDRESS","OBJECTID":"OBJECTID"},"geometryType":"esriGeometryPoint","spatialReference":{"wkid":102443,"latestWkid":3826},"fields":[{"name":"ID","type":"esriFieldTypeDouble","alias":"ID"},{"name":"DIS_CODE","type":"esriFieldTypeInteger","alias":"DIS_CODE"},{"name":"TOWNNAME","type":"esriFieldTypeString","alias":"TOWNNAME","length":8},{"name":"LI","type":"esriFieldTypeString","alias":"LI","length":8},{"name":"LIN","type":"esriFieldTypeString","alias":"LIN","length":12},{"name":"STREET","type":"esriFieldTypeString","alias":"STREET","length":20},{"name":"SECT","type":"esriFieldTypeString","alias":"SECT","length":8},{"name":"MAREA","type":"esriFieldTypeString","alias":"MAREA","length":12},{"name":"LANE","type":"esriFieldTypeString","alias":"LANE","length":10},{"name":"ALLEY","type":"esriFieldTypeString","alias":"ALLEY","length":10},{"name":"HOUSE_NO","type":"esriFieldTypeString","alias":"HOUSE_NO","length":20},{"name":"E_COORD97","type":"esriFieldTypeDouble","alias":"E_COORD97"},{"name":"N_COORD97","type":"esriFieldTypeDouble","alias":"N_COORD97"},{"name":"ADDRESS","type":"esriFieldTypeString","alias":"ADDRESS","length":50},{"name":"OBJECTID","type":"esriFieldTypeOID","alias":"OBJECTID"}],"features":[{"attributes":{"ID":309609,"DIS_CODE":0,"TOWNNAME":"南區","LI":"新昌里","LIN":"7鄰","STREET":"府緯街","SECT":" ","MAREA":" ","LANE":"１１５巷","ALLEY":" ","HOUSE_NO":"７號二樓","E_COORD97":167546.29999999999,"N_COORD97":2542663.6299999999,"ADDRESS":"府緯街１１５巷７號二樓","OBJECTID":309601},"geometry":{"x":167546.29999999981,"y":2542663.6300000008}},{"attributes":{"ID":309610,"DIS_CODE":0,"TOWNNAME":"南區","LI":"新昌里","LIN":"7鄰","STREET":"府緯街","SECT":" ","MAREA":" ","LANE":"１１５巷","ALLEY":" ","HOUSE_NO":"７號三樓","E_COORD97":167546.29999999999,"N_COORD97":2542663.6299999999,"ADDRESS":"府緯街１１５巷７號三樓","OBJECTID":309602},"geometry":{"x":167546.29999999981,"y":2542663.6300000008}},{"attributes":{"ID":309611,"DIS_CODE":0,"TOWNNAME":"南區","LI":"新昌里","LIN":"7鄰","STREET":"府緯街","SECT":" ","MAREA":" ","LANE":"１１５巷","ALLEY":" ","HOUSE_NO":"７號四樓","E_COORD97":167546.29999999999,"N_COORD97":2542663.6299999999,"ADDRESS":"府緯街１１５巷７號四樓","OBJECTID":309603},"geometry":{"x":167546.29999999981,"y":2542663.6300000008}},{"attributes":{"ID":309612,"DIS_CODE":0,"TOWNNAME":"南區","LI":"新昌里","LIN":"7鄰","STREET":"府緯街","SECT":" ","MAREA":" ","LANE":"１１５巷","ALLEY":" ","HOUSE_NO":"７號五樓","E_COORD97":167546.29999999999,"N_COORD97":2542663.6299999999,"ADDRESS":"府緯街１１５巷７號五樓","OBJECTID":309604},"geometry":{"x":167546.29999999981,"y":2542663.6300000008}},{"attributes":{"ID":309613,"DIS_CODE":0,"TOWNNAME":"南區","LI":"新昌里","LIN":"7鄰","STREET":"府緯街","SECT":" ","MAREA":" ","LANE":"１１５巷","ALLEY":" ","HOUSE_NO":"９號二樓","E_COORD97":167545.98000000001,"N_COORD97":2542656.5,"ADDRESS":"府緯街１１５巷９號二樓","OBJECTID":309605},"geometry":{"x":167545.98000000231,"y":2542656.5}},{"attributes":{"ID":309614,"DIS_CODE":0,"TOWNNAME":"南區","LI":"新昌里","LIN":"7鄰","STREET":"府緯街","SECT":" ","MAREA":" ","LANE":"１１５巷","ALLEY":" ","HOUSE_NO":"９號三樓","E_COORD97":167545.98000000001,"N_COORD97":2542656.5,"ADDRESS":"府緯街１１５巷９號三樓","OBJECTID":309606},"geometry":{"x":167545.98000000231,"y":2542656.5}},{"attributes":{"ID":309615,"DIS_CODE":0,"TOWNNAME":"南區","LI":"新昌里","LIN":"7鄰","STREET":"府緯街","SECT":" ","MAREA":" ","LANE":"１１５巷","ALLEY":" ","HOUSE_NO":"９號四樓","E_COORD97":167545.98000000001,"N_COORD97":2542656.5,"ADDRESS":"府緯街１１５巷９號四樓","OBJECTID":309607},"geometry":{"x":167545.98000000231,"y":2542656.5}},{"attributes":{"ID":309616,"DIS_CODE":0,"TOWNNAME":"南區","LI":"新昌里","LIN":"7鄰","STREET":"府緯街","SECT":" ","MAREA":" ","LANE":"１１５巷","ALLEY":" ","HOUSE_NO":"９號五樓","E_COORD97":167545.98000000001,"N_COORD97":2542656.5,"ADDRESS":"府緯街１１５巷９號五樓","OBJECTID":309608},"geometry":{"x":167545.98000000231,"y":2542656.5}},{"attributes":{"ID":309617,"DIS_CODE":0,"TOWNNAME":"南區","LI":"新昌里","LIN":"7鄰","STREET":"府緯街","SECT":" ","MAREA":" ","LANE":"１１５巷","ALLEY":" ","HOUSE_NO":"１１號二樓","E_COORD97":167544.67999999999,"N_COORD97":2542645.6400000001,"ADDRESS":"府緯街１１５巷１１號二樓","OBJECTID":309609},"geometry":{"x":167544.68000000063,"y":2542645.6400000025}},{"attributes":{"ID":309618,"DIS_CODE":0,"TOWNNAME":"南區","LI":"新昌里","LIN":"7鄰","STREET":"府緯街","SECT":" ","MAREA":" ","LANE":"１１５巷","ALLEY":" ","HOUSE_NO":"１１號三樓","E_COORD97":167544.67999999999,"N_COORD97":2542645.6400000001,"ADDRESS":"府緯街１１５巷１１號三樓","OBJECTID":309610},"geometry":{"x":167544.68000000063,"y":2542645.6400000025}},{"attributes":{"ID":309619,"DIS_CODE":0,"TOWNNAME":"南區","LI":"新昌里","LIN":"7鄰","STREET":"府緯街","SECT":" ","MAREA":" ","LANE":"１１５巷","ALLEY":" ","HOUSE_NO":"１１號四樓","E_COORD97":167544.67999999999,"N_COORD97":2542645.6400000001,"ADDRESS":"府緯街１１５巷１１號四樓","OBJECTID":309611},"geometry":{"x":167544.68000000063,"y":2542645.6400000025}},{"attributes":{"ID":309620,"DIS_CODE":0,"TOWNNAME":"南區","LI":"新昌里","LIN":"7鄰","STREET":"府緯街","SECT":" ","MAREA":" ","LANE":"１１５巷","ALLEY":" ","HOUSE_NO":"１１號五樓","E_COORD97":167544.67999999999,"N_COORD97":2542645.6400000001,"ADDRESS":"府緯街１１５巷１１號五樓","OBJECTID":309612},"geometry":{"x":167544.68000000063,"y":2542645.6400000025}},{"attributes":{"ID":309621,"DIS_CODE":0,"TOWNNAME":"南區","LI":"新昌里","LIN":"7鄰","STREET":"府緯街","SECT":" ","MAREA":" ","LANE":"１１５巷","ALLEY":" ","HOUSE_NO":"１３號二樓","E_COORD97":167545,"N_COORD97":2542638.5099999998,"ADDRESS":"府緯街１１５巷１３號二樓","OBJECTID":309613},"geometry":{"x":167545,"y":2542638.5100000016}},{"attributes":{"ID":309622,"DIS_CODE":0,"TOWNNAME":"南區","LI":"新昌里","LIN":"7鄰","STREET":"府緯街","SECT":" ","MAREA":" ","LANE":"１１５巷","ALLEY":" ","HOUSE_NO":"１３號三樓","E_COORD97":167545,"N_COORD97":2542638.5099999998,"ADDRESS":"府緯街１１５巷１３號三樓","OBJECTID":309614},"geometry":{"x":167545,"y":2542638.5100000016}},{"attributes":{"ID":309623,"DIS_CODE":0,"TOWNNAME":"南區","LI":"新昌里","LIN":"7鄰","STREET":"府緯街","SECT":" ","MAREA":" ","LANE":"１１５巷","ALLEY":" ","HOUSE_NO":"１３號四樓","E_COORD97":167545,"N_COORD97":2542638.5099999998,"ADDRESS":"府緯街１１５巷１３號四樓","OBJECTID":309615},"geometry":{"x":167545,"y":2542638.5100000016}},{"attributes":{"ID":309624,"DIS_CODE":0,"TOWNNAME":"新營區","LI":"忠政里","LIN":"17鄰","STREET":"府西路","SECT":" ","MAREA":" ","LANE":" ","ALLEY":" ","HOUSE_NO":"２５６號二樓","E_COORD97":179804.42000000001,"N_COORD97":2579697.73,"ADDRESS":"府西路２５６號二樓","OBJECTID":309616},"geometry":{"x":179804.42000000086,"y":2579697.7300000023}},{"attributes":{"ID":309625,"DIS_CODE":0,"TOWNNAME":"學甲區","LI":"慈福里","LIN":"13鄰","STREET":"民族路","SECT":" ","MAREA":" ","LANE":"５４巷","ALLEY":" ","HOUSE_NO":"８號七樓之１","E_COORD97":166658.98999999999,"N_COORD97":2570302.98,"ADDRESS":"民族路５４巷８號七樓之１","OBJECTID":309617},"geometry":{"x":166658.98999999929,"y":2570302.9800000004}},{"attributes":{"ID":309626,"DIS_CODE":0,"TOWNNAME":"學甲區","LI":"慈福里","LIN":"13鄰","STREET":"民族路","SECT":" ","MAREA":" ","LANE":"５４巷","ALLEY":" ","HOUSE_NO":"８號七樓之２","E_COORD97":166658.98999999999,"N_COORD97":2570302.98,"ADDRESS":"民族路５４巷８號七樓之２","OBJECTID":309618},"geometry":{"x":166658.98999999929,"y":2570302.9800000004}},{"attributes":{"ID":309627,"DIS_CODE":0,"TOWNNAME":"學甲區","LI":"慈福里","LIN":"13鄰","STREET":"民族路","SECT":" ","MAREA":" ","LANE":"５４巷","ALLEY":" ","HOUSE_NO":"８號七樓之３","E_COORD97":166658.98999999999,"N_COORD97":2570302.98,"ADDRESS":"民族路５４巷８號七樓之３","OBJECTID":309619},"geometry":{"x":166658.98999999929,"y":2570302.9800000004}},{"attributes":{"ID":309628,"DIS_CODE":0,"TOWNNAME":"學甲區","LI":"慈福里","LIN":"13鄰","STREET":"民族路","SECT":" ","MAREA":" ","LANE":"５４巷","ALLEY":" ","HOUSE_NO":"８號七樓之４","E_COORD97":166658.98999999999,"N_COORD97":2570302.98,"ADDRESS":"民族路５４巷８號七樓之４","OBJECTID":309620},"geometry":{"x":166658.98999999929,"y":2570302.9800000004}},{"attributes":{"ID":309629,"DIS_CODE":0,"TOWNNAME":"學甲區","LI":"慈福里","LIN":"13鄰","STREET":"民族路","SECT":" ","MAREA":" ","LANE":"５４巷","ALLEY":" ","HOUSE_NO":"８號七樓之５","E_COORD97":166658.98999999999,"N_COORD97":2570302.98,"ADDRESS":"民族路５４巷８號七樓之５","OBJECTID":309621},"geometry":{"x":166658.98999999929,"y":2570302.9800000004}},{"attributes":{"ID":309630,"DIS_CODE":0,"TOWNNAME":"南區","LI":"大成里","LIN":"1鄰","STREET":"健康路","SECT":"一段","MAREA":" ","LANE":"３４７巷","ALLEY":" ","HOUSE_NO":"９號二樓","E_COORD97":168023.92999999999,"N_COORD97":2542394.3599999999,"ADDRESS":"健康路一段３４７巷９號二樓","OBJECTID":309622},"geometry":{"x":168023.93000000063,"y":2542394.3600000013}},{"attributes":{"ID":309631,"DIS_CODE":0,"TOWNNAME":"南區","LI":"大成里","LIN":"1鄰","STREET":"健康路","SECT":"一段","MAREA":" ","LANE":"３４７巷","ALLEY":" ","HOUSE_NO":"９號三樓","E_COORD97":168023.92999999999,"N_COORD97":2542394.3599999999,"ADDRESS":"健康路一段３４７巷９號三樓","OBJECTID":309623},"geometry":{"x":168023.93000000063,"y":2542394.3600000013}},{"attributes":{"ID":309632,"DIS_CODE":0,"TOWNNAME":"南區","LI":"大成里","LIN":"1鄰","STREET":"健康路","SECT":"一段","MAREA":" ","LANE":"３４７巷","ALLEY":" ","HOUSE_NO":"９號五樓","E_COORD97":168023.92999999999,"N_COORD97":2542394.3599999999,"ADDRESS":"健康路一段３４７巷９號五樓","OBJECTID":309624},"geometry":{"x":168023.93000000063,"y":2542394.3600000013}},{"attributes":{"ID":309633,"DIS_CODE":0,"TOWNNAME":"南區","LI":"新昌里","LIN":"7鄰","STREET":"府緯街","SECT":" ","MAREA":" ","LANE":"１１５巷","ALLEY":" ","HOUSE_NO":"３６號三樓","E_COORD97":167517.89999999999,"N_COORD97":2542644.5099999998,"ADDRESS":"府緯街１１５巷３６號三樓","OBJECTID":309625},"geometry":{"x":167517.9000000013,"y":2542644.5100000016}},{"attributes":{"ID":309634,"DIS_CODE":0,"TOWNNAME":"南區","LI":"大成里","LIN":"1鄰","STREET":"健康路","SECT":"一段","MAREA":" ","LANE":"３４７巷","ALLEY":" ","HOUSE_NO":"９號四樓","E_COORD97":168023.92999999999,"N_COORD97":2542394.3599999999,"ADDRESS":"健康路一段３４７巷９號四樓","OBJECTID":309626},"geometry":{"x":168023.93000000063,"y":2542394.3600000013}},{"attributes":{"ID":309635,"DIS_CODE":0,"TOWNNAME":"南區","LI":"大成里","LIN":"1鄰","STREET":"健康路","SECT":"一段","MAREA":" ","LANE":"３９１巷","ALLEY":" ","HOUSE_NO":"１１號二樓","E_COORD97":167958.62,"N_COORD97":2542415.0099999998,"ADDRESS":"健康路一段３９１巷１１號二樓","OBJECTID":309627},"geometry":{"x":167958.62000000104,"y":2542415.0100000016}},{"attributes":{"ID":309636,"DIS_CODE":0,"TOWNNAME":"南區","LI":"大成里","LIN":"1鄰","STREET":"健康路","SECT":"一段","MAREA":" ","LANE":"３９１巷","ALLEY":" ","HOUSE_NO":"１１號三樓","E_COORD97":167958.62,"N_COORD97":2542415.0099999998,"ADDRESS":"健康路一段３９１巷１１號三樓","OBJECTID":309628},"geometry":{"x":167958.62000000104,"y":2542415.0100000016}},{"attributes":{"ID":309637,"DIS_CODE":0,"TOWNNAME":"南區","LI":"國宅里","LIN":"17鄰","STREET":"新孝路","SECT":" ","MAREA":" ","LANE":" ","ALLEY":" ","HOUSE_NO":"８３號二樓","E_COORD97":166714.82000000001,"N_COORD97":2542053.1699999999,"ADDRESS":"新孝路８３號二樓","OBJECTID":309629},"geometry":{"x":166714.82000000123,"y":2542053.1700000037}},{"attributes":{"ID":309638,"DIS_CODE":0,"TOWNNAME":"南區","LI":"國宅里","LIN":"17鄰","STREET":"新孝路","SECT":" ","MAREA":" ","LANE":" ","ALLEY":" ","HOUSE_NO":"８３號三樓","E_COORD97":166714.82000000001,"N_COORD97":2542053.1699999999,"ADDRESS":"新孝路８３號三樓","OBJECTID":309630},"geometry":{"x":166714.82000000123,"y":2542053.1700000037}},{"attributes":{"ID":309639,"DIS_CODE":0,"TOWNNAME":"南區","LI":"國宅里","LIN":"17鄰","STREET":"新孝路","SECT":" ","MAREA":" ","LANE":" ","ALLEY":" ","HOUSE_NO":"８３號四樓","E_COORD97":166714.82000000001,"N_COORD97":2542053.1699999999,"ADDRESS":"新孝路８３號四樓","OBJECTID":309631},"geometry":{"x":166714.82000000123,"y":2542053.1700000037}},{"attributes":{"ID":309640,"DIS_CODE":0,"TOWNNAME":"南區","LI":"文華里","LIN":"17鄰","STREET":"南樂街","SECT":" ","MAREA":" ","LANE":" ","ALLEY":" ","HOUSE_NO":"１９號二樓","E_COORD97":166843.5,"N_COORD97":2543150.54,"ADDRESS":"南樂街１９號二樓","OBJECTID":309632},"geometry":{"x":166843.49999999907,"y":2543150.5399999991}},{"attributes":{"ID":309641,"DIS_CODE":0,"TOWNNAME":"南區","LI":"文華里","LIN":"17鄰","STREET":"南樂街","SECT":" ","MAREA":" ","LANE":" ","ALLEY":" ","HOUSE_NO":"１９號三樓","E_COORD97":166843.5,"N_COORD97":2543150.54,"ADDRESS":"南樂街１９號三樓","OBJECTID":309633},"geometry":{"x":166843.49999999907,"y":2543150.5399999991}},{"attributes":{"ID":309642,"DIS_CODE":0,"TOWNNAME":"新營區","LI":"嘉芳里","LIN":"14鄰","STREET":"五福路","SECT":" ","MAREA":" ","LANE":" ","ALLEY":" ","HOUSE_NO":"１０６號","E_COORD97":176636.64000000001,"N_COORD97":2578312.1400000001,"ADDRESS":"五福路１０６號","OBJECTID":309634},"geometry":{"x":176636.63999999966,"y":2578312.1400000025}},{"attributes":{"ID":309643,"DIS_CODE":0,"TOWNNAME":"歸仁區","LI":"許厝里","LIN":"17鄰","STREET":"忠孝北路","SECT":" ","MAREA":" ","LANE":" ","ALLEY":" ","HOUSE_NO":"１５號四樓","E_COORD97":178435.01999999999,"N_COORD97":2540716.25,"ADDRESS":"忠孝北路１５號四樓","OBJECTID":309635},"geometry":{"x":178435.02000000048,"y":2540716.25}},{"attributes":{"ID":309644,"DIS_CODE":0,"TOWNNAME":"歸仁區","LI":"許厝里","LIN":"17鄰","STREET":"忠孝北路","SECT":" ","MAREA":" ","LANE":" ","ALLEY":" ","HOUSE_NO":"２３號四樓","E_COORD97":178444.22,"N_COORD97":2540724.25,"ADDRESS":"忠孝北路２３號四樓","OBJECTID":309636},"geometry":{"x":178444.22000000067,"y":2540724.2500000019}},{"attributes":{"ID":309645,"DIS_CODE":0,"TOWNNAME":"歸仁區","LI":"許厝里","LIN":"17鄰","STREET":"忠孝北路","SECT":" ","MAREA":" ","LANE":" ","ALLEY":" ","HOUSE_NO":"２１號五樓","E_COORD97":178444.22,"N_COORD97":2540724.25,"ADDRESS":"忠孝北路２１號五樓","OBJECTID":309637},"geometry":{"x":178444.22000000067,"y":2540724.2500000019}},{"attributes":{"ID":309646,"DIS_CODE":0,"TOWNNAME":"歸仁區","LI":"許厝里","LIN":"17鄰","STREET":"忠孝北路","SECT":" ","MAREA":" ","LANE":" ","ALLEY":" ","HOUSE_NO":"１７號四樓","E_COORD97":178444.22,"N_COORD97":2540724.25,"ADDRESS":"忠孝北路１７號四樓","OBJECTID":309638},"geometry":{"x":178444.22000000067,"y":2540724.2500000019}},{"attributes":{"ID":309647,"DIS_CODE":0,"TOWNNAME":"歸仁區","LI":"辜厝里","LIN":"17鄰","STREET":"大順街","SECT":" ","MAREA":" ","LANE":" ","ALLEY":" ","HOUSE_NO":"７號六樓","E_COORD97":177457.42999999999,"N_COORD97":2540505.9500000002,"ADDRESS":"大順街７號六樓","OBJECTID":309639},"geometry":{"x":177457.43000000156,"y":2540505.9500000011}},{"attributes":{"ID":309648,"DIS_CODE":0,"TOWNNAME":"歸仁區","LI":"辜厝里","LIN":"17鄰","STREET":"大順街","SECT":" ","MAREA":" ","LANE":" ","ALLEY":" ","HOUSE_NO":"７號八樓","E_COORD97":177457.42999999999,"N_COORD97":2540505.9500000002,"ADDRESS":"大順街７號八樓","OBJECTID":309640},"geometry":{"x":177457.43000000156,"y":2540505.9500000011}},{"attributes":{"ID":309649,"DIS_CODE":0,"TOWNNAME":"歸仁區","LI":"許厝里","LIN":"17鄰","STREET":"忠孝北路","SECT":" ","MAREA":" ","LANE":" ","ALLEY":" ","HOUSE_NO":"１９號三樓","E_COORD97":178444.22,"N_COORD97":2540724.25,"ADDRESS":"忠孝北路１９號三樓","OBJECTID":309641},"geometry":{"x":178444.22000000067,"y":2540724.2500000019}},{"attributes":{"ID":309650,"DIS_CODE":0,"TOWNNAME":"新營區","LI":"民生里","LIN":"26鄰","STREET":"民生路","SECT":" ","MAREA":" ","LANE":"１６３巷","ALLEY":" ","HOUSE_NO":"４７號五樓之７","E_COORD97":179111.91,"N_COORD97":2578622.4199999999,"ADDRESS":"民生路１６３巷４７號五樓之７","OBJECTID":309642},"geometry":{"x":179111.91000000015,"y":2578622.4199999999}},{"attributes":{"ID":309651,"DIS_CODE":0,"TOWNNAME":"南區","LI":"新昌里","LIN":"7鄰","STREET":"府緯街","SECT":" ","MAREA":" ","LANE":"１１５巷","ALLEY":" ","HOUSE_NO":"１３號五樓","E_COORD97":167545,"N_COORD97":2542638.5099999998,"ADDRESS":"府緯街１１５巷１３號五樓","OBJECTID":309643},"geometry":{"x":167545,"y":2542638.5100000016}},{"attributes":{"ID":309652,"DIS_CODE":0,"TOWNNAME":"南區","LI":"新昌里","LIN":"7鄰","STREET":"府緯街","SECT":" ","MAREA":" ","LANE":"１１５巷","ALLEY":" ","HOUSE_NO":"１５號二樓","E_COORD97":167546.63,"N_COORD97":2542628.3799999999,"ADDRESS":"府緯街１１５巷１５號二樓","OBJECTID":309644},"geometry":{"x":167546.63000000082,"y":2542628.3800000008}},{"attributes":{"ID":309653,"DIS_CODE":0,"TOWNNAME":"南區","LI":"新昌里","LIN":"7鄰","STREET":"府緯街","SECT":" ","MAREA":" ","LANE":"１１５巷","ALLEY":" ","HOUSE_NO":"１５號三樓","E_COORD97":167546.63,"N_COORD97":2542628.3799999999,"ADDRESS":"府緯街１１５巷１５號三樓","OBJECTID":309645},"geometry":{"x":167546.63000000082,"y":2542628.3800000008}},{"attributes":{"ID":309654,"DIS_CODE":0,"TOWNNAME":"南區","LI":"新昌里","LIN":"7鄰","STREET":"府緯街","SECT":" ","MAREA":" ","LANE":"１１５巷","ALLEY":" ","HOUSE_NO":"１５號四樓","E_COORD97":167546.63,"N_COORD97":2542628.3799999999,"ADDRESS":"府緯街１１５巷１５號四樓","OBJECTID":309646},"geometry":{"x":167546.63000000082,"y":2542628.3800000008}},{"attributes":{"ID":309655,"DIS_CODE":0,"TOWNNAME":"南區","LI":"新昌里","LIN":"7鄰","STREET":"府緯街","SECT":" ","MAREA":" ","LANE":"１１５巷","ALLEY":" ","HOUSE_NO":"１５號五樓","E_COORD97":167546.63,"N_COORD97":2542628.3799999999,"ADDRESS":"府緯街１１５巷１５號五樓","OBJECTID":309647},"geometry":{"x":167546.63000000082,"y":2542628.3800000008}},{"attributes":{"ID":309656,"DIS_CODE":0,"TOWNNAME":"南區","LI":"新昌里","LIN":"7鄰","STREET":"府緯街","SECT":" ","MAREA":" ","LANE":"１１５巷","ALLEY":" ","HOUSE_NO":"１９號二樓","E_COORD97":167531.04999999999,"N_COORD97":2542620.6000000001,"ADDRESS":"府緯街１１５巷１９號二樓","OBJECTID":309648},"geometry":{"x":167531.04999999981,"y":2542620.6000000015}},{"attributes":{"ID":309657,"DIS_CODE":0,"TOWNNAME":"南區","LI":"新昌里","LIN":"7鄰","STREET":"府緯街","SECT":" ","MAREA":" ","LANE":"１１５巷","ALLEY":" ","HOUSE_NO":"１９號三樓","E_COORD97":167531.04999999999,"N_COORD97":2542620.6000000001,"ADDRESS":"府緯街１１５巷１９號三樓","OBJECTID":309649},"geometry":{"x":167531.04999999981,"y":2542620.6000000015}},{"attributes":{"ID":309658,"DIS_CODE":0,"TOWNNAME":"新營區","LI":"三仙里","LIN":"26鄰","STREET":"育德三街","SECT":" ","MAREA":" ","LANE":" ","ALLEY":" ","HOUSE_NO":"４６號","E_COORD97":179494.76999999999,"N_COORD97":2579033.6000000001,"ADDRESS":"育德三街４６號","OBJECTID":309650},"geometry":{"x":179494.77000000048,"y":2579033.6000000015}},{"attributes":{"ID":309659,"DIS_CODE":0,"TOWNNAME":"南區","LI":"新昌里","LIN":"7鄰","STREET":"府緯街","SECT":" ","MAREA":" ","LANE":"１１５巷","ALLEY":" ","HOUSE_NO":"１９號四樓","E_COORD97":167531.04999999999,"N_COORD97":2542620.6000000001,"ADDRESS":"府緯街１１５巷１９號四樓","OBJECTID":309651},"geometry":{"x":167531.04999999981,"y":2542620.6000000015}},{"attributes":{"ID":309660,"DIS_CODE":0,"TOWNNAME":"永康區","LI":"三合里","LIN":"7鄰","STREET":"南工街","SECT":" ","MAREA":" ","LANE":"８７巷","ALLEY":" ","HOUSE_NO":"５號","E_COORD97":172067.76000000001,"N_COORD97":2545678.7400000002,"ADDRESS":"南工街８７巷５號","OBJECTID":309652},"geometry":{"x":172067.75999999885,"y":2545678.7400000021}},{"attributes":{"ID":309661,"DIS_CODE":0,"TOWNNAME":"南區","LI":"新昌里","LIN":"7鄰","STREET":"府緯街","SECT":" ","MAREA":" ","LANE":"１１５巷","ALLEY":" ","HOUSE_NO":"１９號五樓","E_COORD97":167531.04999999999,"N_COORD97":2542620.6000000001,"ADDRESS":"府緯街１１５巷１９號五樓","OBJECTID":309653},"geometry":{"x":167531.04999999981,"y":2542620.6000000015}},{"attributes":{"ID":309662,"DIS_CODE":0,"TOWNNAME":"南區","LI":"新昌里","LIN":"7鄰","STREET":"府緯街","SECT":" ","MAREA":" ","LANE":"１１５巷","ALLEY":" ","HOUSE_NO":"３４號二樓","E_COORD97":167518.23000000001,"N_COORD97":2542650.3500000001,"ADDRESS":"府緯街１１５巷３４號二樓","OBJECTID":309654},"geometry":{"x":167518.23000000045,"y":2542650.3499999996}},{"attributes":{"ID":309663,"DIS_CODE":0,"TOWNNAME":"南區","LI":"新昌里","LIN":"7鄰","STREET":"府緯街","SECT":" ","MAREA":" ","LANE":"１１５巷","ALLEY":" ","HOUSE_NO":"３４號三樓","E_COORD97":167518.23000000001,"N_COORD97":2542650.3500000001,"ADDRESS":"府緯街１１５巷３４號三樓","OBJECTID":309655},"geometry":{"x":167518.23000000045,"y":2542650.3499999996}},{"attributes":{"ID":309664,"DIS_CODE":0,"TOWNNAME":"南區","LI":"新昌里","LIN":"7鄰","STREET":"府緯街","SECT":" ","MAREA":" ","LANE":"１１５巷","ALLEY":" ","HOUSE_NO":"３４號四樓","E_COORD97":167518.23000000001,"N_COORD97":2542650.3500000001,"ADDRESS":"府緯街１１５巷３４號四樓","OBJECTID":309656},"geometry":{"x":167518.23000000045,"y":2542650.3499999996}},{"attributes":{"ID":309665,"DIS_CODE":0,"TOWNNAME":"南區","LI":"新昌里","LIN":"7鄰","STREET":"府緯街","SECT":" ","MAREA":" ","LANE":"１１５巷","ALLEY":" ","HOUSE_NO":"３４號五樓","E_COORD97":167518.23000000001,"N_COORD97":2542650.3500000001,"ADDRESS":"府緯街１１５巷３４號五樓","OBJECTID":309657},"geometry":{"x":167518.23000000045,"y":2542650.3499999996}},{"attributes":{"ID":309666,"DIS_CODE":0,"TOWNNAME":"南區","LI":"新昌里","LIN":"7鄰","STREET":"府緯街","SECT":" ","MAREA":" ","LANE":"１１５巷","ALLEY":" ","HOUSE_NO":"３６號二樓","E_COORD97":167517.89999999999,"N_COORD97":2542644.5099999998,"ADDRESS":"府緯街１１５巷３６號二樓","OBJECTID":309658},"geometry":{"x":167517.9000000013,"y":2542644.5100000016}},{"attributes":{"ID":309667,"DIS_CODE":0,"TOWNNAME":"南區","LI":"新昌里","LIN":"7鄰","STREET":"府緯街","SECT":" ","MAREA":" ","LANE":"１１５巷","ALLEY":" ","HOUSE_NO":"３６號四樓","E_COORD97":167517.89999999999,"N_COORD97":2542644.5099999998,"ADDRESS":"府緯街１１５巷３６號四樓","OBJECTID":309659},"geometry":{"x":167517.9000000013,"y":2542644.5100000016}},{"attributes":{"ID":309668,"DIS_CODE":0,"TOWNNAME":"南區","LI":"新昌里","LIN":"7鄰","STREET":"府緯街","SECT":" ","MAREA":" ","LANE":"１１５巷","ALLEY":" ","HOUSE_NO":"３６號五樓","E_COORD97":167517.89999999999,"N_COORD97":2542644.5099999998,"ADDRESS":"府緯街１１５巷３６號五樓","OBJECTID":309660},"geometry":{"x":167517.9000000013,"y":2542644.5100000016}},{"attributes":{"ID":309669,"DIS_CODE":0,"TOWNNAME":"南區","LI":"新昌里","LIN":"7鄰","STREET":"府緯街","SECT":" ","MAREA":" ","LANE":"１１５巷","ALLEY":" ","HOUSE_NO":"３８號二樓","E_COORD97":167517.25,"N_COORD97":2542637.71,"ADDRESS":"府緯街１１５巷３８號二樓","OBJECTID":309661},"geometry":{"x":167517.25000000093,"y":2542637.7100000028}},{"attributes":{"ID":309670,"DIS_CODE":0,"TOWNNAME":"歸仁區","LI":"許厝里","LIN":"17鄰","STREET":"忠孝北路","SECT":" ","MAREA":" ","LANE":" ","ALLEY":" ","HOUSE_NO":"２５號四樓","E_COORD97":178444.22,"N_COORD97":2540724.25,"ADDRESS":"忠孝北路２５號四樓","OBJECTID":309662},"geometry":{"x":178444.22000000067,"y":2540724.2500000019}},{"attributes":{"ID":309671,"DIS_CODE":0,"TOWNNAME":"歸仁區","LI":"許厝里","LIN":"17鄰","STREET":"忠孝北路","SECT":" ","MAREA":" ","LANE":" ","ALLEY":" ","HOUSE_NO":"２９號二樓","E_COORD97":178444.22,"N_COORD97":2540724.25,"ADDRESS":"忠孝北路２９號二樓","OBJECTID":309663},"geometry":{"x":178444.22000000067,"y":2540724.2500000019}},{"attributes":{"ID":309672,"DIS_CODE":0,"TOWNNAME":"新營區","LI":"嘉芳里","LIN":" ","STREET":" ","SECT":" ","MAREA":"茄苳腳","LANE":" ","ALLEY":" ","HOUSE_NO":"１３之７號一樓之１","E_COORD97":177094.67999999999,"N_COORD97":2578319.9199999999,"ADDRESS":"茄苳腳１３之７號一樓之１","OBJECTID":309664},"geometry":{"x":177094.68000000156,"y":2578319.9200000018}},{"attributes":{"ID":309673,"DIS_CODE":0,"TOWNNAME":"新營區","LI":"民權里","LIN":"4鄰","STREET":"中正路","SECT":" ","MAREA":" ","LANE":"９巷","ALLEY":" ","HOUSE_NO":"１６之３號四樓","E_COORD97":179950.89000000001,"N_COORD97":2578413.5499999998,"ADDRESS":"中正路９巷１６之３號四樓","OBJECTID":309665},"geometry":{"x":179950.88999999966,"y":2578413.5500000045}},{"attributes":{"ID":309674,"DIS_CODE":0,"TOWNNAME":"新營區","LI":"忠政里","LIN":"4鄰","STREET":"中正路","SECT":" ","MAREA":" ","LANE":"３７巷","ALLEY":" ","HOUSE_NO":"４號四樓","E_COORD97":180058.09,"N_COORD97":2579146.1200000001,"ADDRESS":"中正路３７巷４號四樓","OBJECTID":309666},"geometry":{"x":180058.08999999985,"y":2579146.1200000029}},{"attributes":{"ID":309675,"DIS_CODE":0,"TOWNNAME":"新營區","LI":"嘉芳里","LIN":" ","STREET":"復興路","SECT":" ","MAREA":" ","LANE":"１０７４巷","ALLEY":" ","HOUSE_NO":"１８號七樓","E_COORD97":176139.70999999999,"N_COORD97":2578918.1899999999,"ADDRESS":"復興路１０７４巷１８號七樓","OBJECTID":309667},"geometry":{"x":176139.70999999996,"y":2578918.1899999995}},{"attributes":{"ID":309676,"DIS_CODE":0,"TOWNNAME":"新營區","LI":"新南里","LIN":"25鄰","STREET":"復興路","SECT":" ","MAREA":" ","LANE":"６２０巷","ALLEY":" ","HOUSE_NO":"６６號二樓之４","E_COORD97":178065.03,"N_COORD97":2578543.2999999998,"ADDRESS":"復興路６２０巷６６號二樓之４","OBJECTID":309668},"geometry":{"x":178065.03000000026,"y":2578543.3000000007}},{"attributes":{"ID":309677,"DIS_CODE":0,"TOWNNAME":"新營區","LI":"嘉芳里","LIN":" ","STREET":"復興路","SECT":" ","MAREA":" ","LANE":"１０７４巷","ALLEY":" ","HOUSE_NO":"２８號三樓","E_COORD97":176139.79000000001,"N_COORD97":2578918.5299999998,"ADDRESS":"復興路１０７４巷２８號三樓","OBJECTID":309669},"geometry":{"x":176139.7900000019,"y":2578918.5300000012}},{"attributes":{"ID":309678,"DIS_CODE":0,"TOWNNAME":"新營區","LI":"嘉芳里","LIN":" ","STREET":" ","SECT":" ","MAREA":"茄苳腳","LANE":" ","ALLEY":" ","HOUSE_NO":"１３之６號三樓之１","E_COORD97":177094.67999999999,"N_COORD97":2578319.9199999999,"ADDRESS":"茄苳腳１３之６號三樓之１","OBJECTID":309670},"geometry":{"x":177094.68000000156,"y":2578319.9200000018}},{"attributes":{"ID":309679,"DIS_CODE":0,"TOWNNAME":"新營區","LI":"嘉芳里","LIN":" ","STREET":" ","SECT":" ","MAREA":"茄苳腳","LANE":" ","ALLEY":" ","HOUSE_NO":"１３之８號四樓之２","E_COORD97":177094.81,"N_COORD97":2578319.9199999999,"ADDRESS":"茄苳腳１３之８號四樓之２","OBJECTID":309671},"geometry":{"x":177094.80999999959,"y":2578319.9200000018}},{"attributes":{"ID":309680,"DIS_CODE":0,"TOWNNAME":"新營區","LI":"新東里","LIN":"26鄰","STREET":"東興三街","SECT":" ","MAREA":" ","LANE":"２２巷","ALLEY":" ","HOUSE_NO":"６６號二樓","E_COORD97":180604.66,"N_COORD97":2579414.8700000001,"ADDRESS":"東興三街２２巷６６號二樓","OBJECTID":309672},"geometry":{"x":180604.66000000108,"y":2579414.8700000048}},{"attributes":{"ID":309681,"DIS_CODE":0,"TOWNNAME":"新營區","LI":"新東里","LIN":"26鄰","STREET":"東興五街","SECT":" ","MAREA":" ","LANE":"２１巷","ALLEY":" ","HOUSE_NO":"４７號五樓","E_COORD97":180602.85000000001,"N_COORD97":2579450.3300000001,"ADDRESS":"東興五街２１巷４７號五樓","OBJECTID":309673},"geometry":{"x":180602.85000000056,"y":2579450.3300000001}},{"attributes":{"ID":309682,"DIS_CODE":0,"TOWNNAME":"新營區","LI":"新東里","LIN":"25鄰","STREET":"東興三街","SECT":" ","MAREA":" ","LANE":"２２巷","ALLEY":" ","HOUSE_NO":"１５號七樓","E_COORD97":180696.72,"N_COORD97":2579418.8700000001,"ADDRESS":"東興三街２２巷１５號七樓","OBJECTID":309674},"geometry":{"x":180696.7200000016,"y":2579418.8700000029}},{"attributes":{"ID":309683,"DIS_CODE":0,"TOWNNAME":"南區","LI":"新昌里","LIN":"7鄰","STREET":"府緯街","SECT":" ","MAREA":" ","LANE":"１１５巷","ALLEY":" ","HOUSE_NO":"３８號三樓","E_COORD97":167517.25,"N_COORD97":2542637.71,"ADDRESS":"府緯街１１５巷３８號三樓","OBJECTID":309675},"geometry":{"x":167517.25000000093,"y":2542637.7100000028}},{"attributes":{"ID":309684,"DIS_CODE":0,"TOWNNAME":"南區","LI":"新昌里","LIN":"7鄰","STREET":"府緯街","SECT":" ","MAREA":" ","LANE":"１１５巷","ALLEY":" ","HOUSE_NO":"３８號四樓","E_COORD97":167517.25,"N_COORD97":2542637.71,"ADDRESS":"府緯街１１５巷３８號四樓","OBJECTID":309676},"geometry":{"x":167517.25000000093,"y":2542637.7100000028}},{"attributes":{"ID":309685,"DIS_CODE":0,"TOWNNAME":"南區","LI":"新昌里","LIN":"7鄰","STREET":"府緯街","SECT":" ","MAREA":" ","LANE":"１１５巷","ALLEY":" ","HOUSE_NO":"３８號五樓","E_COORD97":167517.25,"N_COORD97":2542637.71,"ADDRESS":"府緯街１１５巷３８號五樓","OBJECTID":309677},"geometry":{"x":167517.25000000093,"y":2542637.7100000028}},{"attributes":{"ID":309686,"DIS_CODE":0,"TOWNNAME":"南區","LI":"新昌里","LIN":"7鄰","STREET":"府緯街","SECT":" ","MAREA":" ","LANE":"１１５巷","ALLEY":" ","HOUSE_NO":"４０號二樓","E_COORD97":167523.75,"N_COORD97":2542627.4900000002,"ADDRESS":"府緯街１１５巷４０號二樓","OBJECTID":309678},"geometry":{"x":167523.75000000093,"y":2542627.4899999984}},{"attributes":{"ID":309687,"DIS_CODE":0,"TOWNNAME":"歸仁區","LI":"許厝里","LIN":"17鄰","STREET":"忠孝北路","SECT":" ","MAREA":" ","LANE":" ","ALLEY":" ","HOUSE_NO":"２９號三樓","E_COORD97":178444.22,"N_COORD97":2540724.25,"ADDRESS":"忠孝北路２９號三樓","OBJECTID":309679},"geometry":{"x":178444.22000000067,"y":2540724.2500000019}},{"attributes":{"ID":309688,"DIS_CODE":0,"TOWNNAME":"歸仁區","LI":"許厝里","LIN":"17鄰","STREET":"忠孝北路","SECT":" ","MAREA":" ","LANE":" ","ALLEY":" ","HOUSE_NO":"１９號四樓","E_COORD97":178444.22,"N_COORD97":2540724.25,"ADDRESS":"忠孝北路１９號四樓","OBJECTID":309680},"geometry":{"x":178444.22000000067,"y":2540724.2500000019}},{"attributes":{"ID":309689,"DIS_CODE":0,"TOWNNAME":"歸仁區","LI":"許厝里","LIN":"17鄰","STREET":"忠孝北路","SECT":" ","MAREA":" ","LANE":" ","ALLEY":" ","HOUSE_NO":"１７號二樓","E_COORD97":178444.22,"N_COORD97":2540724.25,"ADDRESS":"忠孝北路１７號二樓","OBJECTID":309681},"geometry":{"x":178444.22000000067,"y":2540724.2500000019}},{"attributes":{"ID":309690,"DIS_CODE":0,"TOWNNAME":"歸仁區","LI":"許厝里","LIN":"17鄰","STREET":"忠孝北路","SECT":" ","MAREA":" ","LANE":" ","ALLEY":" ","HOUSE_NO":"２５號二樓","E_COORD97":178444.22,"N_COORD97":2540724.25,"ADDRESS":"忠孝北路２５號二樓","OBJECTID":309682},"geometry":{"x":178444.22000000067,"y":2540724.2500000019}},{"attributes":{"ID":309691,"DIS_CODE":0,"TOWNNAME":"歸仁區","LI":"許厝里","LIN":"17鄰","STREET":"忠孝北路","SECT":" ","MAREA":" ","LANE":" ","ALLEY":" ","HOUSE_NO":"２７號四樓","E_COORD97":178444.22,"N_COORD97":2540724.25,"ADDRESS":"忠孝北路２７號四樓","OBJECTID":309683},"geometry":{"x":178444.22000000067,"y":2540724.2500000019}},{"attributes":{"ID":309692,"DIS_CODE":0,"TOWNNAME":"歸仁區","LI":"許厝里","LIN":"17鄰","STREET":"忠孝北路","SECT":" ","MAREA":" ","LANE":" ","ALLEY":" ","HOUSE_NO":"３１號四樓","E_COORD97":178444.22,"N_COORD97":2540724.25,"ADDRESS":"忠孝北路３１號四樓","OBJECTID":309684},"geometry":{"x":178444.22000000067,"y":2540724.2500000019}},{"attributes":{"ID":309693,"DIS_CODE":0,"TOWNNAME":"歸仁區","LI":"許厝里","LIN":"17鄰","STREET":"忠孝北路","SECT":" ","MAREA":" ","LANE":" ","ALLEY":" ","HOUSE_NO":"２７號三樓","E_COORD97":178444.22,"N_COORD97":2540724.25,"ADDRESS":"忠孝北路２７號三樓","OBJECTID":309685},"geometry":{"x":178444.22000000067,"y":2540724.2500000019}},{"attributes":{"ID":309694,"DIS_CODE":0,"TOWNNAME":"歸仁區","LI":"許厝里","LIN":"17鄰","STREET":"忠孝北路","SECT":" ","MAREA":" ","LANE":" ","ALLEY":" ","HOUSE_NO":"３１號五樓","E_COORD97":178444.22,"N_COORD97":2540724.25,"ADDRESS":"忠孝北路３１號五樓","OBJECTID":309686},"geometry":{"x":178444.22000000067,"y":2540724.2500000019}},{"attributes":{"ID":309695,"DIS_CODE":0,"TOWNNAME":"歸仁區","LI":"許厝里","LIN":"17鄰","STREET":"忠孝北路","SECT":" ","MAREA":" ","LANE":" ","ALLEY":" ","HOUSE_NO":"３１號二樓","E_COORD97":178444.22,"N_COORD97":2540724.25,"ADDRESS":"忠孝北路３１號二樓","OBJECTID":309687},"geometry":{"x":178444.22000000067,"y":2540724.2500000019}},{"attributes":{"ID":309696,"DIS_CODE":0,"TOWNNAME":"歸仁區","LI":"許厝里","LIN":"17鄰","STREET":"忠孝北路","SECT":" ","MAREA":" ","LANE":" ","ALLEY":" ","HOUSE_NO":"３３號四樓","E_COORD97":178444.22,"N_COORD97":2540724.25,"ADDRESS":"忠孝北路３３號四樓","OBJECTID":309688},"geometry":{"x":178444.22000000067,"y":2540724.2500000019}},{"attributes":{"ID":309697,"DIS_CODE":0,"TOWNNAME":"新營區","LI":"忠政里","LIN":"4鄰","STREET":"中正路","SECT":" ","MAREA":" ","LANE":"３７巷","ALLEY":" ","HOUSE_NO":"２號二樓","E_COORD97":180068.31,"N_COORD97":2579147.1800000002,"ADDRESS":"中正路３７巷２號二樓","OBJECTID":309689},"geometry":{"x":180068.30999999959,"y":2579147.1800000034}},{"attributes":{"ID":309698,"DIS_CODE":0,"TOWNNAME":"歸仁區","LI":"媽廟里","LIN":"24鄰","STREET":"保大路","SECT":"一段","MAREA":" ","LANE":"１３３巷","ALLEY":" ","HOUSE_NO":"１６號","E_COORD97":177753.482598,"N_COORD97":2543973.79421,"ADDRESS":"保大路一段１３３巷１６號","OBJECTID":309690},"geometry":{"x":177753.48259800021,"y":2543973.7942140028}},{"attributes":{"ID":309699,"DIS_CODE":0,"TOWNNAME":"新營區","LI":"新南里","LIN":"25鄰","STREET":"復興路","SECT":" ","MAREA":" ","LANE":"６２０巷","ALLEY":" ","HOUSE_NO":"６６號五樓之１","E_COORD97":178065,"N_COORD97":2578543.2999999998,"ADDRESS":"復興路６２０巷６６號五樓之１","OBJECTID":309691},"geometry":{"x":178065,"y":2578543.3000000007}},{"attributes":{"ID":309700,"DIS_CODE":0,"TOWNNAME":"新營區","LI":"新東里","LIN":"25鄰","STREET":"東興三街","SECT":" ","MAREA":" ","LANE":"２２巷","ALLEY":" ","HOUSE_NO":"１號十一樓","E_COORD97":180696.72,"N_COORD97":2579418.8700000001,"ADDRESS":"東興三街２２巷１號十一樓","OBJECTID":309692},"geometry":{"x":180696.7200000016,"y":2579418.8700000029}},{"attributes":{"ID":309701,"DIS_CODE":0,"TOWNNAME":"新營區","LI":"新東里","LIN":"25鄰","STREET":"東興三街","SECT":" ","MAREA":" ","LANE":"２２巷","ALLEY":" ","HOUSE_NO":"２３號七樓","E_COORD97":180696.79000000001,"N_COORD97":2579418.8700000001,"ADDRESS":"東興三街２２巷２３號七樓","OBJECTID":309693},"geometry":{"x":180696.79000000097,"y":2579418.8700000029}},{"attributes":{"ID":309702,"DIS_CODE":0,"TOWNNAME":"新營區","LI":"新北里","LIN":"24鄰","STREET":"民生路","SECT":" ","MAREA":" ","LANE":"４２０巷","ALLEY":" ","HOUSE_NO":"４１號三樓之３","E_COORD97":178928.54999999999,"N_COORD97":2579414.02,"ADDRESS":"民生路４２０巷４１號三樓之３","OBJECTID":309694},"geometry":{"x":178928.55000000075,"y":2579414.0200000014}},{"attributes":{"ID":309703,"DIS_CODE":0,"TOWNNAME":"新營區","LI":"新北里","LIN":"24鄰","STREET":"民生路","SECT":" ","MAREA":" ","LANE":"４２０巷","ALLEY":" ","HOUSE_NO":"４１號六樓之１","E_COORD97":178928.45000000001,"N_COORD97":2579414.02,"ADDRESS":"民生路４２０巷４１號六樓之１","OBJECTID":309695},"geometry":{"x":178928.45000000019,"y":2579414.0200000014}},{"attributes":{"ID":309704,"DIS_CODE":0,"TOWNNAME":"新營區","LI":"新東里","LIN":"26鄰","STREET":"東興三街","SECT":" ","MAREA":" ","LANE":"２２巷","ALLEY":" ","HOUSE_NO":"４２號二樓之１０","E_COORD97":180700.23999999999,"N_COORD97":2579418.9100000001,"ADDRESS":"東興三街２２巷４２號二樓之１０","OBJECTID":309696},"geometry":{"x":180700.23999999929,"y":2579418.9100000001}},{"attributes":{"ID":309705,"DIS_CODE":0,"TOWNNAME":"新營區","LI":"新東里","LIN":"25鄰","STREET":"東興三街","SECT":" ","MAREA":" ","LANE":"２２巷","ALLEY":" ","HOUSE_NO":"１３號十二樓","E_COORD97":180697.97,"N_COORD97":2579418.8700000001,"ADDRESS":"東興三街２２巷１３號十二樓","OBJECTID":309697},"geometry":{"x":180697.96999999974,"y":2579418.8700000029}},{"attributes":{"ID":309706,"DIS_CODE":0,"TOWNNAME":"佳里區","LI":"安西里","LIN":"53鄰","STREET":"佳安西路","SECT":" ","MAREA":" ","LANE":"７巷","ALLEY":" ","HOUSE_NO":"６號","E_COORD97":163563.06,"N_COORD97":2562211.8599999999,"ADDRESS":"佳安西路７巷６號","OBJECTID":309698},"geometry":{"x":163563.06000000052,"y":2562211.8600000013}},{"attributes":{"ID":309707,"DIS_CODE":0,"TOWNNAME":"南區","LI":"新昌里","LIN":"7鄰","STREET":"府緯街","SECT":" ","MAREA":" ","LANE":"１１５巷","ALLEY":" ","HOUSE_NO":"４０號三樓","E_COORD97":167523.75,"N_COORD97":2542627.4900000002,"ADDRESS":"府緯街１１５巷４０號三樓","OBJECTID":309699},"geometry":{"x":167523.75000000093,"y":2542627.4899999984}},{"attributes":{"ID":309708,"DIS_CODE":0,"TOWNNAME":"南區","LI":"新昌里","LIN":"7鄰","STREET":"府緯街","SECT":" ","MAREA":" ","LANE":"１１５巷","ALLEY":" ","HOUSE_NO":"４０號四樓","E_COORD97":167523.75,"N_COORD97":2542627.4900000002,"ADDRESS":"府緯街１１５巷４０號四樓","OBJECTID":309700},"geometry":{"x":167523.75000000093,"y":2542627.4899999984}},{"attributes":{"ID":309709,"DIS_CODE":0,"TOWNNAME":"南區","LI":"新昌里","LIN":"7鄰","STREET":"府緯街","SECT":" ","MAREA":" ","LANE":"１１５巷","ALLEY":" ","HOUSE_NO":"４０號五樓","E_COORD97":167523.75,"N_COORD97":2542627.4900000002,"ADDRESS":"府緯街１１５巷４０號五樓","OBJECTID":309701},"geometry":{"x":167523.75000000093,"y":2542627.4899999984}},{"attributes":{"ID":309710,"DIS_CODE":0,"TOWNNAME":"中西區","LI":"五妃里","LIN":"7鄰","STREET":"南門路","SECT":" ","MAREA":" ","LANE":"２２７巷","ALLEY":" ","HOUSE_NO":"１３號一樓","E_COORD97":168465.14000000001,"N_COORD97":2542727.6200000001,"ADDRESS":"南門路２２７巷１３號一樓","OBJECTID":309702},"geometry":{"x":168465.1400000006,"y":2542727.6200000029}},{"attributes":{"ID":309711,"DIS_CODE":0,"TOWNNAME":"中西區","LI":"五妃里","LIN":"7鄰","STREET":"南門路","SECT":" ","MAREA":" ","LANE":"２２７巷","ALLEY":" ","HOUSE_NO":"１３號二樓","E_COORD97":168465.14000000001,"N_COORD97":2542727.6200000001,"ADDRESS":"南門路２２７巷１３號二樓","OBJECTID":309703},"geometry":{"x":168465.1400000006,"y":2542727.6200000029}},{"attributes":{"ID":309712,"DIS_CODE":0,"TOWNNAME":"中西區","LI":"五妃里","LIN":"7鄰","STREET":"南門路","SECT":" ","MAREA":" ","LANE":"２２７巷","ALLEY":" ","HOUSE_NO":"１３號三樓","E_COORD97":168465.14000000001,"N_COORD97":2542727.6200000001,"ADDRESS":"南門路２２７巷１３號三樓","OBJECTID":309704},"geometry":{"x":168465.1400000006,"y":2542727.6200000029}},{"attributes":{"ID":309713,"DIS_CODE":0,"TOWNNAME":"中西區","LI":"五妃里","LIN":"7鄰","STREET":"南門路","SECT":" ","MAREA":" ","LANE":"２２７巷","ALLEY":" ","HOUSE_NO":"１３號之１一樓","E_COORD97":168477.26999999999,"N_COORD97":2542726.21,"ADDRESS":"南門路２２７巷１３號之１一樓","OBJECTID":309705},"geometry":{"x":168477.27000000142,"y":2542726.2100000028}},{"attributes":{"ID":309714,"DIS_CODE":0,"TOWNNAME":"中西區","LI":"五妃里","LIN":"7鄰","STREET":"南門路","SECT":" ","MAREA":" ","LANE":"２２７巷","ALLEY":" ","HOUSE_NO":"１３號之１二樓","E_COORD97":168477.26999999999,"N_COORD97":2542726.21,"ADDRESS":"南門路２２７巷１３號之１二樓","OBJECTID":309706},"geometry":{"x":168477.27000000142,"y":2542726.2100000028}},{"attributes":{"ID":309715,"DIS_CODE":0,"TOWNNAME":"中西區","LI":"五妃里","LIN":"7鄰","STREET":"南門路","SECT":" ","MAREA":" ","LANE":"２２７巷","ALLEY":" ","HOUSE_NO":"１３號之１三樓","E_COORD97":168477.26999999999,"N_COORD97":2542726.21,"ADDRESS":"南門路２２７巷１３號之１三樓","OBJECTID":309707},"geometry":{"x":168477.27000000142,"y":2542726.2100000028}},{"attributes":{"ID":309716,"DIS_CODE":0,"TOWNNAME":"中西區","LI":"五妃里","LIN":"7鄰","STREET":"南門路","SECT":" ","MAREA":" ","LANE":"２２７巷","ALLEY":" ","HOUSE_NO":"１３號之１四樓","E_COORD97":168477.26999999999,"N_COORD97":2542726.21,"ADDRESS":"南門路２２７巷１３號之１四樓","OBJECTID":309708},"geometry":{"x":168477.27000000142,"y":2542726.2100000028}},{"attributes":{"ID":309717,"DIS_CODE":0,"TOWNNAME":"中西區","LI":"五妃里","LIN":"7鄰","STREET":"南門路","SECT":" ","MAREA":" ","LANE":"２２７巷","ALLEY":" ","HOUSE_NO":"１３號四樓","E_COORD97":168465.14000000001,"N_COORD97":2542727.6200000001,"ADDRESS":"南門路２２７巷１３號四樓","OBJECTID":309709},"geometry":{"x":168465.1400000006,"y":2542727.6200000029}},{"attributes":{"ID":309718,"DIS_CODE":0,"TOWNNAME":"新營區","LI":"新南里","LIN":"3鄰","STREET":"新北街","SECT":" ","MAREA":" ","LANE":" ","ALLEY":" ","HOUSE_NO":"６３號","E_COORD97":178802.85999999999,"N_COORD97":2578733.4700000002,"ADDRESS":"新北街６３號","OBJECTID":309710},"geometry":{"x":178802.8600000022,"y":2578733.4700000025}},{"attributes":{"ID":309719,"DIS_CODE":0,"TOWNNAME":"新營區","LI":"嘉芳里","LIN":"4鄰","STREET":"嘉芳街","SECT":" ","MAREA":" ","LANE":" ","ALLEY":" ","HOUSE_NO":"１１６號","E_COORD97":176967.48999999999,"N_COORD97":2578404.6299999999,"ADDRESS":"嘉芳街１１６號","OBJECTID":309711},"geometry":{"x":176967.48999999929,"y":2578404.6300000008}},{"attributes":{"ID":309720,"DIS_CODE":0,"TOWNNAME":"南區","LI":"國宅里","LIN":"17鄰","STREET":"新孝路","SECT":" ","MAREA":" ","LANE":" ","ALLEY":" ","HOUSE_NO":"７７號二樓","E_COORD97":166767.26999999999,"N_COORD97":2542050.48,"ADDRESS":"新孝路７７號二樓","OBJECTID":309712},"geometry":{"x":166767.27000000048,"y":2542050.4800000004}},{"attributes":{"ID":309721,"DIS_CODE":0,"TOWNNAME":"新營區","LI":"民榮里","LIN":"17鄰","STREET":"富強街","SECT":" ","MAREA":" ","LANE":" ","ALLEY":" ","HOUSE_NO":"３４號二樓","E_COORD97":178988.16,"N_COORD97":2577803.4500000002,"ADDRESS":"富強街３４號二樓","OBJECTID":309713},"geometry":{"x":178988.16000000015,"y":2577803.4500000011}},{"attributes":{"ID":309722,"DIS_CODE":0,"TOWNNAME":"學甲區","LI":"仁得里","LIN":"17鄰","STREET":"八德街","SECT":" ","MAREA":" ","LANE":" ","ALLEY":" ","HOUSE_NO":"２３８號二樓之１","E_COORD97":165719.44,"N_COORD97":2569821.8399999999,"ADDRESS":"八德街２３８號二樓之１","OBJECTID":309714},"geometry":{"x":165719.44000000134,"y":2569821.8399999999}},{"attributes":{"ID":309723,"DIS_CODE":0,"TOWNNAME":"學甲區","LI":"仁得里","LIN":"17鄰","STREET":"八德街","SECT":" ","MAREA":" ","LANE":" ","ALLEY":" ","HOUSE_NO":"２３８號二樓之１０","E_COORD97":165719.44,"N_COORD97":2569821.8399999999,"ADDRESS":"八德街２３８號二樓之１０","OBJECTID":309715},"geometry":{"x":165719.44000000134,"y":2569821.8399999999}},{"attributes":{"ID":309724,"DIS_CODE":0,"TOWNNAME":"學甲區","LI":"仁得里","LIN":"17鄰","STREET":"八德街","SECT":" ","MAREA":" ","LANE":" ","ALLEY":" ","HOUSE_NO":"２３８號二樓之１１","E_COORD97":165719.44,"N_COORD97":2569821.8399999999,"ADDRESS":"八德街２３８號二樓之１１","OBJECTID":309716},"geometry":{"x":165719.44000000134,"y":2569821.8399999999}},{"attributes":{"ID":309725,"DIS_CODE":0,"TOWNNAME":"學甲區","LI":"仁得里","LIN":"17鄰","STREET":"八德街","SECT":" ","MAREA":" ","LANE":" ","ALLEY":" ","HOUSE_NO":"２３８號二樓之１２","E_COORD97":165719.44,"N_COORD97":2569821.8399999999,"ADDRESS":"八德街２３８號二樓之１２","OBJECTID":309717},"geometry":{"x":165719.44000000134,"y":2569821.8399999999}},{"attributes":{"ID":309726,"DIS_CODE":0,"TOWNNAME":"學甲區","LI":"仁得里","LIN":"17鄰","STREET":"八德街","SECT":" ","MAREA":" ","LANE":" ","ALLEY":" ","HOUSE_NO":"２３８號二樓之２","E_COORD97":165719.44,"N_COORD97":2569821.8399999999,"ADDRESS":"八德街２３８號二樓之２","OBJECTID":309718},"geometry":{"x":165719.44000000134,"y":2569821.8399999999}},{"attributes":{"ID":309727,"DIS_CODE":0,"TOWNNAME":"學甲區","LI":"仁得里","LIN":"17鄰","STREET":"八德街","SECT":" ","MAREA":" ","LANE":" ","ALLEY":" ","HOUSE_NO":"２３８號二樓之４","E_COORD97":165719.44,"N_COORD97":2569821.8399999999,"ADDRESS":"八德街２３８號二樓之４","OBJECTID":309719},"geometry":{"x":165719.44000000134,"y":2569821.8399999999}},{"attributes":{"ID":309728,"DIS_CODE":0,"TOWNNAME":"歸仁區","LI":"看東里","LIN":"8鄰","STREET":"凱旋路","SECT":"一段","MAREA":" ","LANE":" ","ALLEY":" ","HOUSE_NO":"１２９號","E_COORD97":178637.22425100001,"N_COORD97":2539763.9896999998,"ADDRESS":"凱旋路一段１２９號","OBJECTID":309720},"geometry":{"x":178637.22425100207,"y":2539763.9897040017}},{"attributes":{"ID":309729,"DIS_CODE":0,"TOWNNAME":"中西區","LI":"五妃里","LIN":"7鄰","STREET":"南門路","SECT":" ","MAREA":" ","LANE":"２２７巷","ALLEY":" ","HOUSE_NO":"４號之１三樓","E_COORD97":168449.06,"N_COORD97":2542718.4399999999,"ADDRESS":"南門路２２７巷４號之１三樓","OBJECTID":309721},"geometry":{"x":168449.05999999959,"y":2542718.4399999995}},{"attributes":{"ID":309730,"DIS_CODE":0,"TOWNNAME":"中西區","LI":"五妃里","LIN":"7鄰","STREET":"南門路","SECT":" ","MAREA":" ","LANE":"２２７巷","ALLEY":" ","HOUSE_NO":"４號之１五樓","E_COORD97":168449.06,"N_COORD97":2542718.4399999999,"ADDRESS":"南門路２２７巷４號之１五樓","OBJECTID":309722},"geometry":{"x":168449.05999999959,"y":2542718.4399999995}},{"attributes":{"ID":309731,"DIS_CODE":0,"TOWNNAME":"中西區","LI":"五妃里","LIN":"7鄰","STREET":"南門路","SECT":" ","MAREA":" ","LANE":"２２７巷","ALLEY":" ","HOUSE_NO":"４號之１四樓","E_COORD97":168449.06,"N_COORD97":2542718.4399999999,"ADDRESS":"南門路２２７巷４號之１四樓","OBJECTID":309723},"geometry":{"x":168449.05999999959,"y":2542718.4399999995}},{"attributes":{"ID":309732,"DIS_CODE":0,"TOWNNAME":"中西區","LI":"五妃里","LIN":"7鄰","STREET":"南門路","SECT":" ","MAREA":" ","LANE":"２２７巷","ALLEY":" ","HOUSE_NO":"４號五樓","E_COORD97":168439.98999999999,"N_COORD97":2542719.5899999999,"ADDRESS":"南門路２２７巷４號五樓","OBJECTID":309724},"geometry":{"x":168439.99000000022,"y":2542719.5900000017}},{"attributes":{"ID":309733,"DIS_CODE":0,"TOWNNAME":"中西區","LI":"五妃里","LIN":"7鄰","STREET":"南門路","SECT":" ","MAREA":" ","LANE":"２２７巷","ALLEY":" ","HOUSE_NO":"４號四樓","E_COORD97":168439.98999999999,"N_COORD97":2542719.5899999999,"ADDRESS":"南門路２２７巷４號四樓","OBJECTID":309725},"geometry":{"x":168439.99000000022,"y":2542719.5900000017}},{"attributes":{"ID":309734,"DIS_CODE":0,"TOWNNAME":"北區","LI":"延平里","LIN":"7鄰","STREET":"公園路","SECT":" ","MAREA":" ","LANE":"７７２巷","ALLEY":" ","HOUSE_NO":"４號","E_COORD97":169153.51000000001,"N_COORD97":2545723.71,"ADDRESS":"公園路７７２巷４號","OBJECTID":309726},"geometry":{"x":169153.50999999978,"y":2545723.7100000028}},{"attributes":{"ID":309735,"DIS_CODE":0,"TOWNNAME":"東區","LI":"大智里","LIN":"7鄰","STREET":"長東街","SECT":" ","MAREA":" ","LANE":"１０３巷","ALLEY":" ","HOUSE_NO":"２號二樓之１０","E_COORD97":171051.97,"N_COORD97":2540308.1800000002,"ADDRESS":"長東街１０３巷２號二樓之１０","OBJECTID":309727},"geometry":{"x":171051.96999999974,"y":2540308.1800000016}},{"attributes":{"ID":309736,"DIS_CODE":0,"TOWNNAME":"東區","LI":"大智里","LIN":"7鄰","STREET":"長東街","SECT":" ","MAREA":" ","LANE":"１０３巷","ALLEY":" ","HOUSE_NO":"２號二樓之１１","E_COORD97":171051.97,"N_COORD97":2540308.1800000002,"ADDRESS":"長東街１０３巷２號二樓之１１","OBJECTID":309728},"geometry":{"x":171051.96999999974,"y":2540308.1800000016}},{"attributes":{"ID":309737,"DIS_CODE":0,"TOWNNAME":"東區","LI":"大智里","LIN":"7鄰","STREET":"長東街","SECT":" ","MAREA":" ","LANE":"１０３巷","ALLEY":" ","HOUSE_NO":"２號二樓之１２","E_COORD97":171051.97,"N_COORD97":2540308.1800000002,"ADDRESS":"長東街１０３巷２號二樓之１２","OBJECTID":309729},"geometry":{"x":171051.96999999974,"y":2540308.1800000016}},{"attributes":{"ID":309738,"DIS_CODE":0,"TOWNNAME":"東區","LI":"大智里","LIN":"7鄰","STREET":"長東街","SECT":" ","MAREA":" ","LANE":"１０３巷","ALLEY":" ","HOUSE_NO":"２號二樓之１３","E_COORD97":171051.97,"N_COORD97":2540308.1800000002,"ADDRESS":"長東街１０３巷２號二樓之１３","OBJECTID":309730},"geometry":{"x":171051.96999999974,"y":2540308.1800000016}},{"attributes":{"ID":309739,"DIS_CODE":0,"TOWNNAME":"東區","LI":"大智里","LIN":"7鄰","STREET":"長東街","SECT":" ","MAREA":" ","LANE":"１０３巷","ALLEY":" ","HOUSE_NO":"２號二樓之１５","E_COORD97":171051.97,"N_COORD97":2540308.1800000002,"ADDRESS":"長東街１０３巷２號二樓之１５","OBJECTID":309731},"geometry":{"x":171051.96999999974,"y":2540308.1800000016}},{"attributes":{"ID":309740,"DIS_CODE":0,"TOWNNAME":"北區","LI":"三德里","LIN":"4鄰","STREET":"裕民街","SECT":" ","MAREA":" ","LANE":"８４巷","ALLEY":" ","HOUSE_NO":"１號","E_COORD97":168513.73999999999,"N_COORD97":2544520.3399999999,"ADDRESS":"裕民街８４巷１號","OBJECTID":309732},"geometry":{"x":168513.74000000209,"y":2544520.3400000036}},{"attributes":{"ID":309741,"DIS_CODE":0,"TOWNNAME":"北區","LI":"三德里","LIN":"4鄰","STREET":"裕民街","SECT":" ","MAREA":" ","LANE":"８４巷","ALLEY":" ","HOUSE_NO":"１號之１","E_COORD97":168522.64999999999,"N_COORD97":2544521.73,"ADDRESS":"裕民街８４巷１號之１","OBJECTID":309733},"geometry":{"x":168522.65000000037,"y":2544521.7300000042}},{"attributes":{"ID":309742,"DIS_CODE":0,"TOWNNAME":"北區","LI":"三德里","LIN":"4鄰","STREET":"裕民街","SECT":" ","MAREA":" ","LANE":"８４巷","ALLEY":" ","HOUSE_NO":"１號之２","E_COORD97":168525.98999999999,"N_COORD97":2544529.9300000002,"ADDRESS":"裕民街８４巷１號之２","OBJECTID":309734},"geometry":{"x":168525.99000000115,"y":2544529.9300000016}},{"attributes":{"ID":309743,"DIS_CODE":0,"TOWNNAME":"北區","LI":"三德里","LIN":"4鄰","STREET":"裕民街","SECT":" ","MAREA":" ","LANE":"８４巷","ALLEY":" ","HOUSE_NO":"１號之３","E_COORD97":168527.94,"N_COORD97":2544536.6099999999,"ADDRESS":"裕民街８４巷１號之３","OBJECTID":309735},"geometry":{"x":168527.94000000134,"y":2544536.6099999994}},{"attributes":{"ID":309744,"DIS_CODE":0,"TOWNNAME":"北區","LI":"三德里","LIN":"4鄰","STREET":"裕民街","SECT":" ","MAREA":" ","LANE":"８４巷","ALLEY":" ","HOUSE_NO":"１號之４","E_COORD97":168521.81,"N_COORD97":2544539.3900000001,"ADDRESS":"裕民街８４巷１號之４","OBJECTID":309736},"geometry":{"x":168521.81000000052,"y":2544539.3900000006}},{"attributes":{"ID":309745,"DIS_CODE":0,"TOWNNAME":"東區","LI":"大智里","LIN":"7鄰","STREET":"長東街","SECT":" ","MAREA":" ","LANE":"１０３巷","ALLEY":" ","HOUSE_NO":"２號二樓之１６","E_COORD97":171051.97,"N_COORD97":2540308.1800000002,"ADDRESS":"長東街１０３巷２號二樓之１６","OBJECTID":309737},"geometry":{"x":171051.96999999974,"y":2540308.1800000016}},{"attributes":{"ID":309746,"DIS_CODE":0,"TOWNNAME":"東區","LI":"大智里","LIN":"7鄰","STREET":"長東街","SECT":" ","MAREA":" ","LANE":"１０３巷","ALLEY":" ","HOUSE_NO":"２號二樓之１７","E_COORD97":171051.97,"N_COORD97":2540308.1800000002,"ADDRESS":"長東街１０３巷２號二樓之１７","OBJECTID":309738},"geometry":{"x":171051.96999999974,"y":2540308.1800000016}},{"attributes":{"ID":309747,"DIS_CODE":0,"TOWNNAME":"東區","LI":"大智里","LIN":"7鄰","STREET":"長東街","SECT":" ","MAREA":" ","LANE":"１０３巷","ALLEY":" ","HOUSE_NO":"２號二樓之２","E_COORD97":171051.97,"N_COORD97":2540308.1800000002,"ADDRESS":"長東街１０３巷２號二樓之２","OBJECTID":309739},"geometry":{"x":171051.96999999974,"y":2540308.1800000016}},{"attributes":{"ID":309748,"DIS_CODE":0,"TOWNNAME":"東區","LI":"大智里","LIN":"7鄰","STREET":"長東街","SECT":" ","MAREA":" ","LANE":"１０３巷","ALLEY":" ","HOUSE_NO":"２號二樓之３","E_COORD97":171051.97,"N_COORD97":2540308.1800000002,"ADDRESS":"長東街１０３巷２號二樓之３","OBJECTID":309740},"geometry":{"x":171051.96999999974,"y":2540308.1800000016}},{"attributes":{"ID":309749,"DIS_CODE":0,"TOWNNAME":"東區","LI":"大智里","LIN":"7鄰","STREET":"長東街","SECT":" ","MAREA":" ","LANE":"１０３巷","ALLEY":" ","HOUSE_NO":"２號二樓之４","E_COORD97":171051.97,"N_COORD97":2540308.1800000002,"ADDRESS":"長東街１０３巷２號二樓之４","OBJECTID":309741},"geometry":{"x":171051.96999999974,"y":2540308.1800000016}},{"attributes":{"ID":309750,"DIS_CODE":0,"TOWNNAME":"東區","LI":"大智里","LIN":"7鄰","STREET":"長東街","SECT":" ","MAREA":" ","LANE":"１０３巷","ALLEY":" ","HOUSE_NO":"２號二樓之５","E_COORD97":171051.97,"N_COORD97":2540308.1800000002,"ADDRESS":"長東街１０３巷２號二樓之５","OBJECTID":309742},"geometry":{"x":171051.96999999974,"y":2540308.1800000016}},{"attributes":{"ID":309751,"DIS_CODE":0,"TOWNNAME":"東區","LI":"大智里","LIN":"7鄰","STREET":"長東街","SECT":" ","MAREA":" ","LANE":"１０３巷","ALLEY":" ","HOUSE_NO":"２號二樓之７","E_COORD97":171051.97,"N_COORD97":2540308.1800000002,"ADDRESS":"長東街１０３巷２號二樓之７","OBJECTID":309743},"geometry":{"x":171051.96999999974,"y":2540308.1800000016}},{"attributes":{"ID":309752,"DIS_CODE":0,"TOWNNAME":"東區","LI":"大智里","LIN":"7鄰","STREET":"長東街","SECT":" ","MAREA":" ","LANE":"１０３巷","ALLEY":" ","HOUSE_NO":"２號二樓之８","E_COORD97":171051.97,"N_COORD97":2540308.1800000002,"ADDRESS":"長東街１０３巷２號二樓之８","OBJECTID":309744},"geometry":{"x":171051.96999999974,"y":2540308.1800000016}},{"attributes":{"ID":309753,"DIS_CODE":0,"TOWNNAME":"佳里區","LI":"禮化里","LIN":"13鄰","STREET":" ","SECT":" ","MAREA":"佳里興","LANE":" ","ALLEY":" ","HOUSE_NO":"３６０號","E_COORD97":166625.06,"N_COORD97":2565651.1499999999,"ADDRESS":"佳里興３６０號","OBJECTID":309745},"geometry":{"x":166625.05999999959,"y":2565651.1500000022}},{"attributes":{"ID":309754,"DIS_CODE":0,"TOWNNAME":"東區","LI":"大智里","LIN":"7鄰","STREET":"長東街","SECT":" ","MAREA":" ","LANE":"１０３巷","ALLEY":" ","HOUSE_NO":"２號二樓之９","E_COORD97":171051.97,"N_COORD97":2540308.1800000002,"ADDRESS":"長東街１０３巷２號二樓之９","OBJECTID":309746},"geometry":{"x":171051.96999999974,"y":2540308.1800000016}},{"attributes":{"ID":309755,"DIS_CODE":0,"TOWNNAME":"東區","LI":"大智里","LIN":"7鄰","STREET":"長東街","SECT":" ","MAREA":" ","LANE":"１０３巷","ALLEY":" ","HOUSE_NO":"２號三樓之１０","E_COORD97":171051.97,"N_COORD97":2540308.1800000002,"ADDRESS":"長東街１０３巷２號三樓之１０","OBJECTID":309747},"geometry":{"x":171051.96999999974,"y":2540308.1800000016}},{"attributes":{"ID":309756,"DIS_CODE":0,"TOWNNAME":"東區","LI":"大智里","LIN":"7鄰","STREET":"長東街","SECT":" ","MAREA":" ","LANE":"１０３巷","ALLEY":" ","HOUSE_NO":"２號三樓之１１","E_COORD97":171051.97,"N_COORD97":2540308.1800000002,"ADDRESS":"長東街１０３巷２號三樓之１１","OBJECTID":309748},"geometry":{"x":171051.96999999974,"y":2540308.1800000016}},{"attributes":{"ID":309757,"DIS_CODE":0,"TOWNNAME":"東區","LI":"大智里","LIN":"7鄰","STREET":"長東街","SECT":" ","MAREA":" ","LANE":"１０３巷","ALLEY":" ","HOUSE_NO":"２號三樓之１２","E_COORD97":171051.97,"N_COORD97":2540308.1800000002,"ADDRESS":"長東街１０３巷２號三樓之１２","OBJECTID":309749},"geometry":{"x":171051.96999999974,"y":2540308.1800000016}},{"attributes":{"ID":309758,"DIS_CODE":0,"TOWNNAME":"東區","LI":"大智里","LIN":"7鄰","STREET":"長東街","SECT":" ","MAREA":" ","LANE":"１０３巷","ALLEY":" ","HOUSE_NO":"２號三樓之１４","E_COORD97":171051.97,"N_COORD97":2540308.1800000002,"ADDRESS":"長東街１０３巷２號三樓之１４","OBJECTID":309750},"geometry":{"x":171051.96999999974,"y":2540308.1800000016}},{"attributes":{"ID":309759,"DIS_CODE":0,"TOWNNAME":"學甲區","LI":"仁得里","LIN":"17鄰","STREET":"八德街","SECT":" ","MAREA":" ","LANE":" ","ALLEY":" ","HOUSE_NO":"２３８號二樓之５","E_COORD97":165719.44,"N_COORD97":2569821.8399999999,"ADDRESS":"八德街２３８號二樓之５","OBJECTID":309751},"geometry":{"x":165719.44000000134,"y":2569821.8399999999}},{"attributes":{"ID":309760,"DIS_CODE":0,"TOWNNAME":"歸仁區","LI":"大廟里","LIN":"3鄰","STREET":"保大路","SECT":"三段","MAREA":" ","LANE":"５５巷","ALLEY":" ","HOUSE_NO":"１２之１號","E_COORD97":176353.79083499999,"N_COORD97":2544035.6232099999,"ADDRESS":"保大路三段５５巷１２之１號","OBJECTID":309752},"geometry":{"x":176353.79083500057,"y":2544035.6232060008}},{"attributes":{"ID":309761,"DIS_CODE":0,"TOWNNAME":"東區","LI":"大智里","LIN":"7鄰","STREET":"長東街","SECT":" ","MAREA":" ","LANE":"１０３巷","ALLEY":" ","HOUSE_NO":"２號三樓之１５","E_COORD97":171051.97,"N_COORD97":2540308.1800000002,"ADDRESS":"長東街１０３巷２號三樓之１５","OBJECTID":309753},"geometry":{"x":171051.96999999974,"y":2540308.1800000016}},{"attributes":{"ID":309762,"DIS_CODE":0,"TOWNNAME":"東區","LI":"大智里","LIN":"7鄰","STREET":"長東街","SECT":" ","MAREA":" ","LANE":"１０３巷","ALLEY":" ","HOUSE_NO":"２號三樓之１６","E_COORD97":171051.97,"N_COORD97":2540308.1800000002,"ADDRESS":"長東街１０３巷２號三樓之１６","OBJECTID":309754},"geometry":{"x":171051.96999999974,"y":2540308.1800000016}},{"attributes":{"ID":309763,"DIS_CODE":0,"TOWNNAME":"東區","LI":"大智里","LIN":"7鄰","STREET":"長東街","SECT":" ","MAREA":" ","LANE":"１０３巷","ALLEY":" ","HOUSE_NO":"２號三樓之２","E_COORD97":171051.97,"N_COORD97":2540308.1800000002,"ADDRESS":"長東街１０３巷２號三樓之２","OBJECTID":309755},"geometry":{"x":171051.96999999974,"y":2540308.1800000016}},{"attributes":{"ID":309764,"DIS_CODE":0,"TOWNNAME":"東區","LI":"大智里","LIN":"7鄰","STREET":"長東街","SECT":" ","MAREA":" ","LANE":"１０３巷","ALLEY":" ","HOUSE_NO":"２號三樓之３","E_COORD97":171051.97,"N_COORD97":2540308.1800000002,"ADDRESS":"長東街１０３巷２號三樓之３","OBJECTID":309756},"geometry":{"x":171051.96999999974,"y":2540308.1800000016}},{"attributes":{"ID":309765,"DIS_CODE":0,"TOWNNAME":"東區","LI":"大智里","LIN":"7鄰","STREET":"長東街","SECT":" ","MAREA":" ","LANE":"１０３巷","ALLEY":" ","HOUSE_NO":"２號三樓之４","E_COORD97":171051.97,"N_COORD97":2540308.1800000002,"ADDRESS":"長東街１０３巷２號三樓之４","OBJECTID":309757},"geometry":{"x":171051.96999999974,"y":2540308.1800000016}},{"attributes":{"ID":309766,"DIS_CODE":0,"TOWNNAME":"東區","LI":"大智里","LIN":"7鄰","STREET":"長東街","SECT":" ","MAREA":" ","LANE":"１０３巷","ALLEY":" ","HOUSE_NO":"２號三樓之６","E_COORD97":171051.97,"N_COORD97":2540308.1800000002,"ADDRESS":"長東街１０３巷２號三樓之６","OBJECTID":309758},"geometry":{"x":171051.96999999974,"y":2540308.1800000016}},{"attributes":{"ID":309767,"DIS_CODE":0,"TOWNNAME":"學甲區","LI":"仁得里","LIN":"17鄰","STREET":"八德街","SECT":" ","MAREA":" ","LANE":" ","ALLEY":" ","HOUSE_NO":"２３８號二樓之６","E_COORD97":165719.44,"N_COORD97":2569821.8399999999,"ADDRESS":"八德街２３８號二樓之６","OBJECTID":309759},"geometry":{"x":165719.44000000134,"y":2569821.8399999999}},{"attributes":{"ID":309768,"DIS_CODE":0,"TOWNNAME":"學甲區","LI":"仁得里","LIN":"17鄰","STREET":"八德街","SECT":" ","MAREA":" ","LANE":" ","ALLEY":" ","HOUSE_NO":"２３８號二樓之７","E_COORD97":165719.44,"N_COORD97":2569821.8399999999,"ADDRESS":"八德街２３８號二樓之７","OBJECTID":309760},"geometry":{"x":165719.44000000134,"y":2569821.8399999999}},{"attributes":{"ID":309769,"DIS_CODE":0,"TOWNNAME":"歸仁區","LI":"大廟里","LIN":"3鄰","STREET":"保大路","SECT":"三段","MAREA":" ","LANE":"５５巷","ALLEY":" ","HOUSE_NO":"２０號","E_COORD97":176370.52144099999,"N_COORD97":2544020.8065499999,"ADDRESS":"保大路三段５５巷２０號","OBJECTID":309761},"geometry":{"x":176370.52144099958,"y":2544020.8065480012}},{"attributes":{"ID":309770,"DIS_CODE":0,"TOWNNAME":"安平區","LI":"華平里","LIN":"20鄰","STREET":"永華八街","SECT":" ","MAREA":" ","LANE":"１９３巷","ALLEY":" ","HOUSE_NO":"２號七樓之１","E_COORD97":165141.14000000001,"N_COORD97":2543745.21,"ADDRESS":"永華八街１９３巷２號七樓之１","OBJECTID":309762},"geometry":{"x":165141.1400000006,"y":2543745.2100000009}},{"attributes":{"ID":309771,"DIS_CODE":0,"TOWNNAME":"安平區","LI":"億載里","LIN":"9鄰","STREET":"永華十一街","SECT":" ","MAREA":" ","LANE":"１７巷","ALLEY":" ","HOUSE_NO":"３５號六樓之１","E_COORD97":163998.34,"N_COORD97":2543412.3199999998,"ADDRESS":"永華十一街１７巷３５號六樓之１","OBJECTID":309763},"geometry":{"x":163998.34000000171,"y":2543412.320000004}},{"attributes":{"ID":309772,"DIS_CODE":0,"TOWNNAME":"安平區","LI":"億載里","LIN":"9鄰","STREET":"永華十一街","SECT":" ","MAREA":" ","LANE":"１７巷","ALLEY":" ","HOUSE_NO":"３５號六樓之２","E_COORD97":163998.34,"N_COORD97":2543412.3199999998,"ADDRESS":"永華十一街１７巷３５號六樓之２","OBJECTID":309764},"geometry":{"x":163998.34000000171,"y":2543412.320000004}},{"attributes":{"ID":309773,"DIS_CODE":0,"TOWNNAME":"安平區","LI":"怡平里","LIN":"9鄰","STREET":"建平十二街","SECT":" ","MAREA":" ","LANE":"１４８巷","ALLEY":" ","HOUSE_NO":"１６號六樓之１","E_COORD97":165796.56,"N_COORD97":2544082.0499999998,"ADDRESS":"建平十二街１４８巷１６號六樓之１","OBJECTID":309765},"geometry":{"x":165796.55999999959,"y":2544082.0500000007}},{"attributes":{"ID":309774,"DIS_CODE":0,"TOWNNAME":"安平區","LI":"億載里","LIN":"9鄰","STREET":"永華十一街","SECT":" ","MAREA":" ","LANE":"１７巷","ALLEY":" ","HOUSE_NO":"３５號六樓之３","E_COORD97":163998.34,"N_COORD97":2543412.3199999998,"ADDRESS":"永華十一街１７巷３５號六樓之３","OBJECTID":309766},"geometry":{"x":163998.34000000171,"y":2543412.320000004}},{"attributes":{"ID":309775,"DIS_CODE":0,"TOWNNAME":"東區","LI":"大智里","LIN":"7鄰","STREET":"長東街","SECT":" ","MAREA":" ","LANE":"１０３巷","ALLEY":" ","HOUSE_NO":"２號三樓之８","E_COORD97":171051.97,"N_COORD97":2540308.1800000002,"ADDRESS":"長東街１０３巷２號三樓之８","OBJECTID":309767},"geometry":{"x":171051.96999999974,"y":2540308.1800000016}},{"attributes":{"ID":309776,"DIS_CODE":0,"TOWNNAME":"東區","LI":"大智里","LIN":"7鄰","STREET":"長東街","SECT":" ","MAREA":" ","LANE":"１０３巷","ALLEY":" ","HOUSE_NO":"２號三樓之９","E_COORD97":171051.97,"N_COORD97":2540308.1800000002,"ADDRESS":"長東街１０３巷２號三樓之９","OBJECTID":309768},"geometry":{"x":171051.96999999974,"y":2540308.1800000016}},{"attributes":{"ID":309777,"DIS_CODE":0,"TOWNNAME":"東區","LI":"大智里","LIN":"7鄰","STREET":"長東街","SECT":" ","MAREA":" ","LANE":"１０３巷","ALLEY":" ","HOUSE_NO":"２號之７二樓","E_COORD97":171077.95999999999,"N_COORD97":2540334.7200000002,"ADDRESS":"長東街１０３巷２號之７二樓","OBJECTID":309769},"geometry":{"x":171077.95999999996,"y":2540334.7200000044}},{"attributes":{"ID":309778,"DIS_CODE":0,"TOWNNAME":"東區","LI":"大智里","LIN":"7鄰","STREET":"長東街","SECT":" ","MAREA":" ","LANE":"１０３巷","ALLEY":" ","HOUSE_NO":"２號四樓之１","E_COORD97":171051.97,"N_COORD97":2540308.1800000002,"ADDRESS":"長東街１０３巷２號四樓之１","OBJECTID":309770},"geometry":{"x":171051.96999999974,"y":2540308.1800000016}},{"attributes":{"ID":309779,"DIS_CODE":0,"TOWNNAME":"東區","LI":"大智里","LIN":"7鄰","STREET":"長東街","SECT":" ","MAREA":" ","LANE":"１０３巷","ALLEY":" ","HOUSE_NO":"２號四樓之１５","E_COORD97":171051.97,"N_COORD97":2540308.1800000002,"ADDRESS":"長東街１０３巷２號四樓之１５","OBJECTID":309771},"geometry":{"x":171051.96999999974,"y":2540308.1800000016}},{"attributes":{"ID":309780,"DIS_CODE":0,"TOWNNAME":"東區","LI":"大智里","LIN":"7鄰","STREET":"長東街","SECT":" ","MAREA":" ","LANE":"１０３巷","ALLEY":" ","HOUSE_NO":"２號四樓之１６","E_COORD97":171051.97,"N_COORD97":2540308.1800000002,"ADDRESS":"長東街１０３巷２號四樓之１６","OBJECTID":309772},"geometry":{"x":171051.96999999974,"y":2540308.1800000016}},{"attributes":{"ID":309781,"DIS_CODE":0,"TOWNNAME":"東區","LI":"大智里","LIN":"7鄰","STREET":"長東街","SECT":" ","MAREA":" ","LANE":"１０３巷","ALLEY":" ","HOUSE_NO":"２號四樓之２","E_COORD97":171051.97,"N_COORD97":2540308.1800000002,"ADDRESS":"長東街１０３巷２號四樓之２","OBJECTID":309773},"geometry":{"x":171051.96999999974,"y":2540308.1800000016}},{"attributes":{"ID":309782,"DIS_CODE":0,"TOWNNAME":"學甲區","LI":"仁得里","LIN":"17鄰","STREET":"八德街","SECT":" ","MAREA":" ","LANE":" ","ALLEY":" ","HOUSE_NO":"２３８號二樓之８","E_COORD97":165719.44,"N_COORD97":2569821.8399999999,"ADDRESS":"八德街２３８號二樓之８","OBJECTID":309774},"geometry":{"x":165719.44000000134,"y":2569821.8399999999}},{"attributes":{"ID":309783,"DIS_CODE":0,"TOWNNAME":"學甲區","LI":"仁得里","LIN":"17鄰","STREET":"八德街","SECT":" ","MAREA":" ","LANE":" ","ALLEY":" ","HOUSE_NO":"２３８號二樓之９","E_COORD97":165719.44,"N_COORD97":2569821.8399999999,"ADDRESS":"八德街２３８號二樓之９","OBJECTID":309775},"geometry":{"x":165719.44000000134,"y":2569821.8399999999}},{"attributes":{"ID":309784,"DIS_CODE":0,"TOWNNAME":"學甲區","LI":"仁得里","LIN":"17鄰","STREET":"八德街","SECT":" ","MAREA":" ","LANE":" ","ALLEY":" ","HOUSE_NO":"２３８號三樓之１","E_COORD97":165719.44,"N_COORD97":2569821.8399999999,"ADDRESS":"八德街２３８號三樓之１","OBJECTID":309776},"geometry":{"x":165719.44000000134,"y":2569821.8399999999}},{"attributes":{"ID":309785,"DIS_CODE":0,"TOWNNAME":"學甲區","LI":"仁得里","LIN":"17鄰","STREET":"八德街","SECT":" ","MAREA":" ","LANE":" ","ALLEY":" ","HOUSE_NO":"２３８號三樓之１０","E_COORD97":165719.44,"N_COORD97":2569821.8399999999,"ADDRESS":"八德街２３８號三樓之１０","OBJECTID":309777},"geometry":{"x":165719.44000000134,"y":2569821.8399999999}},{"attributes":{"ID":309786,"DIS_CODE":0,"TOWNNAME":"學甲區","LI":"仁得里","LIN":"17鄰","STREET":"八德街","SECT":" ","MAREA":" ","LANE":" ","ALLEY":" ","HOUSE_NO":"２３８號三樓之１１","E_COORD97":165719.44,"N_COORD97":2569821.8399999999,"ADDRESS":"八德街２３８號三樓之１１","OBJECTID":309778},"geometry":{"x":165719.44000000134,"y":2569821.8399999999}},{"attributes":{"ID":309787,"DIS_CODE":0,"TOWNNAME":"學甲區","LI":"仁得里","LIN":"17鄰","STREET":"八德街","SECT":" ","MAREA":" ","LANE":" ","ALLEY":" ","HOUSE_NO":"２３８號三樓之１２","E_COORD97":165719.44,"N_COORD97":2569821.8399999999,"ADDRESS":"八德街２３８號三樓之１２","OBJECTID":309779},"geometry":{"x":165719.44000000134,"y":2569821.8399999999}},{"attributes":{"ID":309788,"DIS_CODE":0,"TOWNNAME":"歸仁區","LI":"媽廟里","LIN":"24鄰","STREET":"保大路","SECT":"一段","MAREA":" ","LANE":"１３３巷","ALLEY":" ","HOUSE_NO":"２０號","E_COORD97":177751.23000000001,"N_COORD97":2543962.7200000002,"ADDRESS":"保大路一段１３３巷２０號","OBJECTID":309780},"geometry":{"x":177751.23000000138,"y":2543962.7200000025}},{"attributes":{"ID":309789,"DIS_CODE":0,"TOWNNAME":"東區","LI":"大智里","LIN":"7鄰","STREET":"長東街","SECT":" ","MAREA":" ","LANE":"１０３巷","ALLEY":" ","HOUSE_NO":"２號四樓之３","E_COORD97":171051.97,"N_COORD97":2540308.1800000002,"ADDRESS":"長東街１０３巷２號四樓之３","OBJECTID":309781},"geometry":{"x":171051.96999999974,"y":2540308.1800000016}},{"attributes":{"ID":309790,"DIS_CODE":0,"TOWNNAME":"東區","LI":"大智里","LIN":"7鄰","STREET":"長東街","SECT":" ","MAREA":" ","LANE":"１０３巷","ALLEY":" ","HOUSE_NO":"２號四樓之４","E_COORD97":171051.97,"N_COORD97":2540308.1800000002,"ADDRESS":"長東街１０３巷２號四樓之４","OBJECTID":309782},"geometry":{"x":171051.96999999974,"y":2540308.1800000016}},{"attributes":{"ID":309791,"DIS_CODE":0,"TOWNNAME":"東區","LI":"大智里","LIN":"7鄰","STREET":"長東街","SECT":" ","MAREA":" ","LANE":"１０３巷","ALLEY":" ","HOUSE_NO":"２號四樓之６","E_COORD97":171051.97,"N_COORD97":2540308.1800000002,"ADDRESS":"長東街１０３巷２號四樓之６","OBJECTID":309783},"geometry":{"x":171051.96999999974,"y":2540308.1800000016}},{"attributes":{"ID":309792,"DIS_CODE":0,"TOWNNAME":"東區","LI":"大智里","LIN":"7鄰","STREET":"長東街","SECT":" ","MAREA":" ","LANE":"１０３巷","ALLEY":" ","HOUSE_NO":"２號四樓之７","E_COORD97":171051.97,"N_COORD97":2540308.1800000002,"ADDRESS":"長東街１０３巷２號四樓之７","OBJECTID":309784},"geometry":{"x":171051.96999999974,"y":2540308.1800000016}},{"attributes":{"ID":309793,"DIS_CODE":0,"TOWNNAME":"東區","LI":"大智里","LIN":"7鄰","STREET":"長東街","SECT":" ","MAREA":" ","LANE":"１０３巷","ALLEY":" ","HOUSE_NO":"２號四樓之９","E_COORD97":171051.97,"N_COORD97":2540308.1800000002,"ADDRESS":"長東街１０３巷２號四樓之９","OBJECTID":309785},"geometry":{"x":171051.96999999974,"y":2540308.1800000016}},{"attributes":{"ID":309794,"DIS_CODE":0,"TOWNNAME":"東區","LI":"崇明里","LIN":"7鄰","STREET":"大同路","SECT":"二段","MAREA":" ","LANE":"４４９巷","ALLEY":" ","HOUSE_NO":"１０號三樓","E_COORD97":169655.75,"N_COORD97":2541312.4100000001,"ADDRESS":"大同路二段４４９巷１０號三樓","OBJECTID":309786},"geometry":{"x":169655.75,"y":2541312.4100000001}},{"attributes":{"ID":309795,"DIS_CODE":0,"TOWNNAME":"東區","LI":"崇明里","LIN":"7鄰","STREET":"大同路","SECT":"二段","MAREA":" ","LANE":"４４９巷","ALLEY":" ","HOUSE_NO":"１０號四樓","E_COORD97":169655.75,"N_COORD97":2541312.4100000001,"ADDRESS":"大同路二段４４９巷１０號四樓","OBJECTID":309787},"geometry":{"x":169655.75,"y":2541312.4100000001}},{"attributes":{"ID":309796,"DIS_CODE":0,"TOWNNAME":"學甲區","LI":"仁得里","LIN":"17鄰","STREET":"八德街","SECT":" ","MAREA":" ","LANE":" ","ALLEY":" ","HOUSE_NO":"２３８號三樓之２","E_COORD97":165719.44,"N_COORD97":2569821.8399999999,"ADDRESS":"八德街２３８號三樓之２","OBJECTID":309788},"geometry":{"x":165719.44000000134,"y":2569821.8399999999}},{"attributes":{"ID":309797,"DIS_CODE":0,"TOWNNAME":"東區","LI":"崇明里","LIN":"7鄰","STREET":"大同路","SECT":"二段","MAREA":" ","LANE":"４４９巷","ALLEY":" ","HOUSE_NO":"１２號三樓","E_COORD97":169661.26999999999,"N_COORD97":2541314.5899999999,"ADDRESS":"大同路二段４４９巷１２號三樓","OBJECTID":309789},"geometry":{"x":169661.26999999955,"y":2541314.5900000036}},{"attributes":{"ID":309798,"DIS_CODE":0,"TOWNNAME":"東區","LI":"崇明里","LIN":"7鄰","STREET":"大同路","SECT":"二段","MAREA":" ","LANE":"４４９巷","ALLEY":" ","HOUSE_NO":"１４號二樓","E_COORD97":169666.29999999999,"N_COORD97":2541318.1000000001,"ADDRESS":"大同路二段４４９巷１４號二樓","OBJECTID":309790},"geometry":{"x":169666.30000000075,"y":2541318.1000000015}},{"attributes":{"ID":309799,"DIS_CODE":0,"TOWNNAME":"東區","LI":"崇明里","LIN":"7鄰","STREET":"大同路","SECT":"二段","MAREA":" ","LANE":"４４９巷","ALLEY":" ","HOUSE_NO":"１４號三樓","E_COORD97":169666.29999999999,"N_COORD97":2541318.1000000001,"ADDRESS":"大同路二段４４９巷１４號三樓","OBJECTID":309791},"geometry":{"x":169666.30000000075,"y":2541318.1000000015}},{"attributes":{"ID":309800,"DIS_CODE":0,"TOWNNAME":"東區","LI":"崇明里","LIN":"7鄰","STREET":"大同路","SECT":"二段","MAREA":" ","LANE":"４４９巷","ALLEY":" ","HOUSE_NO":"１４號四樓","E_COORD97":169666.29999999999,"N_COORD97":2541318.1000000001,"ADDRESS":"大同路二段４４９巷１４號四樓","OBJECTID":309792},"geometry":{"x":169666.30000000075,"y":2541318.1000000015}},{"attributes":{"ID":309801,"DIS_CODE":0,"TOWNNAME":"東區","LI":"崇明里","LIN":"7鄰","STREET":"大同路","SECT":"二段","MAREA":" ","LANE":"４４９巷","ALLEY":" ","HOUSE_NO":"１６號二樓","E_COORD97":169671.48999999999,"N_COORD97":2541321.2799999998,"ADDRESS":"大同路二段４４９巷１６號二樓","OBJECTID":309793},"geometry":{"x":169671.49000000209,"y":2541321.2799999993}},{"attributes":{"ID":309802,"DIS_CODE":0,"TOWNNAME":"東區","LI":"崇明里","LIN":"7鄰","STREET":"大同路","SECT":"二段","MAREA":" ","LANE":"４４９巷","ALLEY":" ","HOUSE_NO":"１６號三樓","E_COORD97":169671.48999999999,"N_COORD97":2541321.2799999998,"ADDRESS":"大同路二段４４９巷１６號三樓","OBJECTID":309794},"geometry":{"x":169671.49000000209,"y":2541321.2799999993}},{"attributes":{"ID":309803,"DIS_CODE":0,"TOWNNAME":"東區","LI":"崇明里","LIN":"7鄰","STREET":"大同路","SECT":"二段","MAREA":" ","LANE":"４４９巷","ALLEY":" ","HOUSE_NO":"１６號四樓","E_COORD97":169671.48999999999,"N_COORD97":2541321.2799999998,"ADDRESS":"大同路二段４４９巷１６號四樓","OBJECTID":309795},"geometry":{"x":169671.49000000209,"y":2541321.2799999993}},{"attributes":{"ID":309804,"DIS_CODE":0,"TOWNNAME":"東區","LI":"圍下里","LIN":"7鄰","STREET":"前鋒路","SECT":" ","MAREA":" ","LANE":"６０巷","ALLEY":" ","HOUSE_NO":"４號二樓","E_COORD97":169322.67000000001,"N_COORD97":2543585.1200000001,"ADDRESS":"前鋒路６０巷４號二樓","OBJECTID":309796},"geometry":{"x":169322.67000000086,"y":2543585.1200000029}},{"attributes":{"ID":309805,"DIS_CODE":0,"TOWNNAME":"東區","LI":"圍下里","LIN":"7鄰","STREET":"前鋒路","SECT":" ","MAREA":" ","LANE":"６０巷","ALLEY":" ","HOUSE_NO":"４號三樓","E_COORD97":169322.67000000001,"N_COORD97":2543585.1200000001,"ADDRESS":"前鋒路６０巷４號三樓","OBJECTID":309797},"geometry":{"x":169322.67000000086,"y":2543585.1200000029}},{"attributes":{"ID":309806,"DIS_CODE":0,"TOWNNAME":"東區","LI":"圍下里","LIN":"7鄰","STREET":"前鋒路","SECT":" ","MAREA":" ","LANE":"６０巷","ALLEY":" ","HOUSE_NO":"４號五樓","E_COORD97":169322.67000000001,"N_COORD97":2543585.1200000001,"ADDRESS":"前鋒路６０巷４號五樓","OBJECTID":309798},"geometry":{"x":169322.67000000086,"y":2543585.1200000029}},{"attributes":{"ID":309807,"DIS_CODE":0,"TOWNNAME":"東區","LI":"圍下里","LIN":"7鄰","STREET":"前鋒路","SECT":" ","MAREA":" ","LANE":"６０巷","ALLEY":" ","HOUSE_NO":"４號四樓","E_COORD97":169322.67000000001,"N_COORD97":2543585.1200000001,"ADDRESS":"前鋒路６０巷４號四樓","OBJECTID":309799},"geometry":{"x":169322.67000000086,"y":2543585.1200000029}},{"attributes":{"ID":309808,"DIS_CODE":0,"TOWNNAME":"東區","LI":"圍下里","LIN":"7鄰","STREET":"前鋒路","SECT":" ","MAREA":" ","LANE":"６０巷","ALLEY":" ","HOUSE_NO":"５號三樓","E_COORD97":169326.88,"N_COORD97":2543584.4100000001,"ADDRESS":"前鋒路６０巷５號三樓","OBJECTID":309800},"geometry":{"x":169326.88000000082,"y":2543584.4100000039}}]}