{"displayFieldName":"TOWNNAME","fieldAliases":{"ID":"ID","DIS_CODE":"DIS_CODE","TOWNNAME":"TOWNNAME","LI":"LI","LIN":"LIN","STREET":"STREET","SECT":"SECT","MAREA":"MAREA","LANE":"LANE","ALLEY":"ALLEY","HOUSE_NO":"HOUSE_NO","E_COORD97":"E_COORD97","N_COORD97":"N_COORD97","ADDRESS":"ADDRESS","OBJECTID":"OBJECTID"},"geometryType":"esriGeometryPoint","spatialReference":{"wkid":102443,"latestWkid":3826},"fields":[{"name":"ID","type":"esriFieldTypeDouble","alias":"ID"},{"name":"DIS_CODE","type":"esriFieldTypeInteger","alias":"DIS_CODE"},{"name":"TOWNNAME","type":"esriFieldTypeString","alias":"TOWNNAME","length":8},{"name":"LI","type":"esriFieldTypeString","alias":"LI","length":8},{"name":"LIN","type":"esriFieldTypeString","alias":"LIN","length":12},{"name":"STREET","type":"esriFieldTypeString","alias":"STREET","length":20},{"name":"SECT","type":"esriFieldTypeString","alias":"SECT","length":8},{"name":"MAREA","type":"esriFieldTypeString","alias":"MAREA","length":12},{"name":"LANE","type":"esriFieldTypeString","alias":"LANE","length":10},{"name":"ALLEY","type":"esriFieldTypeString","alias":"ALLEY","length":10},{"name":"HOUSE_NO","type":"esriFieldTypeString","alias":"HOUSE_NO","length":20},{"name":"E_COORD97","type":"esriFieldTypeDouble","alias":"E_COORD97"},{"name":"N_COORD97","type":"esriFieldTypeDouble","alias":"N_COORD97"},{"name":"ADDRESS","type":"esriFieldTypeString","alias":"ADDRESS","length":50},{"name":"OBJECTID","type":"esriFieldTypeOID","alias":"OBJECTID"}],"features":[{"attributes":{"ID":14601,"DIS_CODE":0,"TOWNNAME":"玉井區","LI":"玉田里","LIN":"40鄰","STREET":"信義街","SECT":" ","MAREA":" ","LANE":" ","ALLEY":" ","HOUSE_NO":"１５９號","E_COORD97":195324.37,"N_COORD97":2557518.27,"ADDRESS":"信義街１５９號","OBJECTID":14601},"geometry":{"x":195324.37000000104,"y":2557518.2699999996}},{"attributes":{"ID":14602,"DIS_CODE":0,"TOWNNAME":"玉井區","LI":"玉田里","LIN":"40鄰","STREET":"中華路","SECT":" ","MAREA":" ","LANE":" ","ALLEY":" ","HOUSE_NO":"２００號","E_COORD97":195254.64999999999,"N_COORD97":2557700.75,"ADDRESS":"中華路２００號","OBJECTID":14602},"geometry":{"x":195254.6500000013,"y":2557700.7500000019}},{"attributes":{"ID":14603,"DIS_CODE":0,"TOWNNAME":"玉井區","LI":"玉田里","LIN":"40鄰","STREET":"中華路","SECT":" ","MAREA":" ","LANE":" ","ALLEY":" ","HOUSE_NO":"２２８號","E_COORD97":195318.76000000001,"N_COORD97":2557680.2400000002,"ADDRESS":"中華路２２８號","OBJECTID":14603},"geometry":{"x":195318.75999999978,"y":2557680.2400000021}},{"attributes":{"ID":14604,"DIS_CODE":0,"TOWNNAME":"玉井區","LI":"玉田里","LIN":"40鄰","STREET":"和平街","SECT":" ","MAREA":" ","LANE":" ","ALLEY":" ","HOUSE_NO":"１４３號","E_COORD97":195286.54000000001,"N_COORD97":2557506.25,"ADDRESS":"和平街１４３號","OBJECTID":14604},"geometry":{"x":195286.54000000004,"y":2557506.2500000037}},{"attributes":{"ID":14605,"DIS_CODE":0,"TOWNNAME":"玉井區","LI":"玉田里","LIN":"40鄰","STREET":"和平街","SECT":" ","MAREA":" ","LANE":" ","ALLEY":" ","HOUSE_NO":"１２３號","E_COORD97":195251.04999999999,"N_COORD97":2557523.25,"ADDRESS":"和平街１２３號","OBJECTID":14605},"geometry":{"x":195251.05000000168,"y":2557523.2500000037}},{"attributes":{"ID":14606,"DIS_CODE":0,"TOWNNAME":"後壁區","LI":"新東里","LIN":"14鄰","STREET":" ","SECT":" ","MAREA":"新港東","LANE":" ","ALLEY":" ","HOUSE_NO":"１４７號之８３","E_COORD97":181350.82999999999,"N_COORD97":2582153.8999999999,"ADDRESS":"新港東１４７號之８３","OBJECTID":14606},"geometry":{"x":181350.83000000101,"y":2582153.9000000022}},{"attributes":{"ID":14607,"DIS_CODE":0,"TOWNNAME":"後壁區","LI":"新東里","LIN":"14鄰","STREET":" ","SECT":" ","MAREA":"新港東","LANE":" ","ALLEY":" ","HOUSE_NO":"１４７號之８４","E_COORD97":181353.47,"N_COORD97":2582157.3599999999,"ADDRESS":"新港東１４７號之８４","OBJECTID":14607},"geometry":{"x":181353.47000000067,"y":2582157.3600000013}},{"attributes":{"ID":14608,"DIS_CODE":0,"TOWNNAME":"後壁區","LI":"新東里","LIN":"14鄰","STREET":" ","SECT":" ","MAREA":"新港東","LANE":" ","ALLEY":" ","HOUSE_NO":"１４７號之８５","E_COORD97":181356.16,"N_COORD97":2582160.8300000001,"ADDRESS":"新港東１４７號之８５","OBJECTID":14608},"geometry":{"x":181356.16000000015,"y":2582160.8300000019}},{"attributes":{"ID":14609,"DIS_CODE":0,"TOWNNAME":"後壁區","LI":"新東里","LIN":"14鄰","STREET":" ","SECT":" ","MAREA":"新港東","LANE":" ","ALLEY":" ","HOUSE_NO":"１４７號之８６","E_COORD97":181358.79000000001,"N_COORD97":2582164.1299999999,"ADDRESS":"新港東１４７號之８６","OBJECTID":14609},"geometry":{"x":181358.79000000004,"y":2582164.1300000027}},{"attributes":{"ID":14610,"DIS_CODE":0,"TOWNNAME":"六甲區","LI":"六甲里","LIN":"24鄰","STREET":"信義街","SECT":" ","MAREA":" ","LANE":"２３８巷","ALLEY":"１４弄","HOUSE_NO":"７號","E_COORD97":183431.22,"N_COORD97":2569917.4399999999,"ADDRESS":"信義街２３８巷１４弄７號","OBJECTID":14610},"geometry":{"x":183431.22000000067,"y":2569917.4400000013}},{"attributes":{"ID":14611,"DIS_CODE":0,"TOWNNAME":"六甲區","LI":"六甲里","LIN":"24鄰","STREET":"信義街","SECT":" ","MAREA":" ","LANE":"２３８巷","ALLEY":"１４弄","HOUSE_NO":"９號","E_COORD97":183430.23000000001,"N_COORD97":2569913.2200000002,"ADDRESS":"信義街２３８巷１４弄９號","OBJECTID":14611},"geometry":{"x":183430.23000000138,"y":2569913.2200000025}},{"attributes":{"ID":14612,"DIS_CODE":0,"TOWNNAME":"後壁區","LI":"新東里","LIN":"14鄰","STREET":" ","SECT":" ","MAREA":"新港東","LANE":" ","ALLEY":" ","HOUSE_NO":"１４７號之８７","E_COORD97":181361.79999999999,"N_COORD97":2582167.5800000001,"ADDRESS":"新港東１４７號之８７","OBJECTID":14612},"geometry":{"x":181361.79999999981,"y":2582167.5800000001}},{"attributes":{"ID":14613,"DIS_CODE":0,"TOWNNAME":"後壁區","LI":"新東里","LIN":"14鄰","STREET":" ","SECT":" ","MAREA":"新港東","LANE":" ","ALLEY":" ","HOUSE_NO":"１４７號之８８","E_COORD97":181364.66,"N_COORD97":2582171.02,"ADDRESS":"新港東１４７號之８８","OBJECTID":14613},"geometry":{"x":181364.66000000015,"y":2582171.0199999996}},{"attributes":{"ID":14614,"DIS_CODE":0,"TOWNNAME":"六甲區","LI":"甲東里","LIN":"24鄰","STREET":"裕農街","SECT":" ","MAREA":" ","LANE":"２２巷","ALLEY":"６弄","HOUSE_NO":"１０號","E_COORD97":183982.98999999999,"N_COORD97":2569516.5099999998,"ADDRESS":"裕農街２２巷６弄１０號","OBJECTID":14614},"geometry":{"x":183982.99000000115,"y":2569516.5100000016}},{"attributes":{"ID":14615,"DIS_CODE":0,"TOWNNAME":"六甲區","LI":"甲東里","LIN":"24鄰","STREET":"裕農街","SECT":" ","MAREA":" ","LANE":"２２巷","ALLEY":"６弄","HOUSE_NO":"８號","E_COORD97":183996.85000000001,"N_COORD97":2569532.7999999998,"ADDRESS":"裕農街２２巷６弄８號","OBJECTID":14615},"geometry":{"x":183996.85000000056,"y":2569532.8000000026}},{"attributes":{"ID":14616,"DIS_CODE":0,"TOWNNAME":"新營區","LI":"民生里","LIN":"24鄰","STREET":"民生路","SECT":" ","MAREA":" ","LANE":"１３９巷","ALLEY":"７弄","HOUSE_NO":"７號","E_COORD97":179190.60000000001,"N_COORD97":2578580.9900000002,"ADDRESS":"民生路１３９巷７弄７號","OBJECTID":14616},"geometry":{"x":179190.60000000056,"y":2578580.9900000002}},{"attributes":{"ID":14617,"DIS_CODE":0,"TOWNNAME":"新營區","LI":"民生里","LIN":"24鄰","STREET":"民生路","SECT":" ","MAREA":" ","LANE":"１３９巷","ALLEY":"７弄","HOUSE_NO":"８號","E_COORD97":179182.39999999999,"N_COORD97":2578568.8399999999,"ADDRESS":"民生路１３９巷７弄８號","OBJECTID":14617},"geometry":{"x":179182.4000000013,"y":2578568.8399999999}},{"attributes":{"ID":14618,"DIS_CODE":0,"TOWNNAME":"新營區","LI":"南紙里","LIN":"24鄰","STREET":"建業路","SECT":" ","MAREA":" ","LANE":"２６９巷","ALLEY":"２０弄","HOUSE_NO":"１４號","E_COORD97":177913.76000000001,"N_COORD97":2577424.3199999998,"ADDRESS":"建業路２６９巷２０弄１４號","OBJECTID":14618},"geometry":{"x":177913.75999999978,"y":2577424.320000004}},{"attributes":{"ID":14619,"DIS_CODE":0,"TOWNNAME":"北區","LI":"文元里","LIN":"24鄰","STREET":"文賢路","SECT":" ","MAREA":" ","LANE":"１１２２巷","ALLEY":"２５０弄","HOUSE_NO":"１號","E_COORD97":167857.67000000001,"N_COORD97":2546453.9300000002,"ADDRESS":"文賢路１１２２巷２５０弄１號","OBJECTID":14619},"geometry":{"x":167857.66999999899,"y":2546453.9299999997}},{"attributes":{"ID":14620,"DIS_CODE":0,"TOWNNAME":"北區","LI":"文元里","LIN":"24鄰","STREET":"文賢路","SECT":" ","MAREA":" ","LANE":"１１２２巷","ALLEY":"２５０弄","HOUSE_NO":"２號","E_COORD97":167839.57999999999,"N_COORD97":2546444.02,"ADDRESS":"文賢路１１２２巷２５０弄２號","OBJECTID":14620},"geometry":{"x":167839.58000000007,"y":2546444.0199999996}},{"attributes":{"ID":14621,"DIS_CODE":0,"TOWNNAME":"北區","LI":"文元里","LIN":"24鄰","STREET":"文賢路","SECT":" ","MAREA":" ","LANE":"１１２２巷","ALLEY":"２５０弄","HOUSE_NO":"３號","E_COORD97":167857.67000000001,"N_COORD97":2546449.3599999999,"ADDRESS":"文賢路１１２２巷２５０弄３號","OBJECTID":14621},"geometry":{"x":167857.66999999899,"y":2546449.3600000013}},{"attributes":{"ID":14622,"DIS_CODE":0,"TOWNNAME":"北區","LI":"文元里","LIN":"24鄰","STREET":"文賢路","SECT":" ","MAREA":" ","LANE":"１１２２巷","ALLEY":"２５０弄","HOUSE_NO":"５號","E_COORD97":167857.92000000001,"N_COORD97":2546444.79,"ADDRESS":"文賢路１１２２巷２５０弄５號","OBJECTID":14622},"geometry":{"x":167857.92000000086,"y":2546444.7899999991}},{"attributes":{"ID":14623,"DIS_CODE":0,"TOWNNAME":"北區","LI":"文元里","LIN":"24鄰","STREET":"文賢路","SECT":" ","MAREA":" ","LANE":"１１２２巷","ALLEY":"２５０弄","HOUSE_NO":"６號","E_COORD97":167839.63,"N_COORD97":2546438.6899999999,"ADDRESS":"文賢路１１２２巷２５０弄６號","OBJECTID":14623},"geometry":{"x":167839.63000000082,"y":2546438.6899999995}},{"attributes":{"ID":14624,"DIS_CODE":0,"TOWNNAME":"北區","LI":"文元里","LIN":"24鄰","STREET":"文賢路","SECT":" ","MAREA":" ","LANE":"１１２２巷","ALLEY":"２５０弄","HOUSE_NO":"７號","E_COORD97":167858.17000000001,"N_COORD97":2546440.4700000002,"ADDRESS":"文賢路１１２２巷２５０弄７號","OBJECTID":14624},"geometry":{"x":167858.17000000086,"y":2546440.4700000025}},{"attributes":{"ID":14625,"DIS_CODE":0,"TOWNNAME":"永康區","LI":"甲頂里","LIN":"13鄰","STREET":"正新街","SECT":" ","MAREA":" ","LANE":"１７巷","ALLEY":" ","HOUSE_NO":"５號","E_COORD97":170376.10999999999,"N_COORD97":2546578.48,"ADDRESS":"正新街１７巷５號","OBJECTID":14625},"geometry":{"x":170376.11000000127,"y":2546578.4800000023}},{"attributes":{"ID":14626,"DIS_CODE":0,"TOWNNAME":"永康區","LI":"西橋里","LIN":"13鄰","STREET":"大橋一街","SECT":" ","MAREA":" ","LANE":" ","ALLEY":" ","HOUSE_NO":"２５號","E_COORD97":170566.63,"N_COORD97":2546219.25,"ADDRESS":"大橋一街２５號","OBJECTID":14626},"geometry":{"x":170566.62999999989,"y":2546219.2499999981}},{"attributes":{"ID":14627,"DIS_CODE":0,"TOWNNAME":"永康區","LI":"西勢里","LIN":"13鄰","STREET":"廣盛街","SECT":" ","MAREA":" ","LANE":" ","ALLEY":" ","HOUSE_NO":"１９０號","E_COORD97":176087.07000000001,"N_COORD97":2546732.6299999999,"ADDRESS":"廣盛街１９０號","OBJECTID":14627},"geometry":{"x":176087.0700000003,"y":2546732.6300000008}},{"attributes":{"ID":14628,"DIS_CODE":0,"TOWNNAME":"後壁區","LI":"新東里","LIN":"14鄰","STREET":" ","SECT":" ","MAREA":"新港東","LANE":" ","ALLEY":" ","HOUSE_NO":"１４７號之８９","E_COORD97":181367.06,"N_COORD97":2582174.54,"ADDRESS":"新港東１４７號之８９","OBJECTID":14628},"geometry":{"x":181367.05999999866,"y":2582174.5399999991}},{"attributes":{"ID":14629,"DIS_CODE":0,"TOWNNAME":"後壁區","LI":"新東里","LIN":"14鄰","STREET":" ","SECT":" ","MAREA":"新港東","LANE":" ","ALLEY":" ","HOUSE_NO":"１４７號之９０","E_COORD97":181369.72,"N_COORD97":2582178.1200000001,"ADDRESS":"新港東１４７號之９０","OBJECTID":14629},"geometry":{"x":181369.7200000016,"y":2582178.1200000029}},{"attributes":{"ID":14630,"DIS_CODE":0,"TOWNNAME":"後壁區","LI":"新東里","LIN":"14鄰","STREET":" ","SECT":" ","MAREA":"新港東","LANE":" ","ALLEY":" ","HOUSE_NO":"１４７號之９１","E_COORD97":181372.26000000001,"N_COORD97":2582181.1099999999,"ADDRESS":"新港東１４７號之９１","OBJECTID":14630},"geometry":{"x":181372.25999999978,"y":2582181.1099999994}},{"attributes":{"ID":14631,"DIS_CODE":0,"TOWNNAME":"後壁區","LI":"新東里","LIN":"14鄰","STREET":" ","SECT":" ","MAREA":"新港東","LANE":" ","ALLEY":" ","HOUSE_NO":"１４７號之９２","E_COORD97":181375.84,"N_COORD97":2582184.8399999999,"ADDRESS":"新港東１４７號之９２","OBJECTID":14631},"geometry":{"x":181375.84000000078,"y":2582184.8400000017}},{"attributes":{"ID":14632,"DIS_CODE":0,"TOWNNAME":"後壁區","LI":"新東里","LIN":"14鄰","STREET":" ","SECT":" ","MAREA":"新港東","LANE":" ","ALLEY":" ","HOUSE_NO":"１４７號之９３","E_COORD97":181378.51999999999,"N_COORD97":2582188.0099999998,"ADDRESS":"新港東１４７號之９３","OBJECTID":14632},"geometry":{"x":181378.51999999955,"y":2582188.0099999998}},{"attributes":{"ID":14633,"DIS_CODE":0,"TOWNNAME":"東山區","LI":"青山里","LIN":"16鄰","STREET":" ","SECT":" ","MAREA":"青山","LANE":" ","ALLEY":" ","HOUSE_NO":"４６號之１６","E_COORD97":195607.39000000001,"N_COORD97":2575215.27,"ADDRESS":"青山４６號之１６","OBJECTID":14633},"geometry":{"x":195607.38999999966,"y":2575215.2699999996}},{"attributes":{"ID":14634,"DIS_CODE":0,"TOWNNAME":"永康區","LI":"西灣里","LIN":"13鄰","STREET":"大灣五街","SECT":" ","MAREA":" ","LANE":" ","ALLEY":" ","HOUSE_NO":"１３６號","E_COORD97":174569.66,"N_COORD97":2545324.8999999999,"ADDRESS":"大灣五街１３６號","OBJECTID":14634},"geometry":{"x":174569.66000000108,"y":2545324.9000000022}},{"attributes":{"ID":14635,"DIS_CODE":0,"TOWNNAME":"永康區","LI":"西橋里","LIN":"13鄰","STREET":"大橋三街","SECT":" ","MAREA":" ","LANE":" ","ALLEY":" ","HOUSE_NO":"６號","E_COORD97":170485.12,"N_COORD97":2546343.3599999999,"ADDRESS":"大橋三街６號","OBJECTID":14635},"geometry":{"x":170485.12000000011,"y":2546343.3599999975}},{"attributes":{"ID":14636,"DIS_CODE":0,"TOWNNAME":"永康區","LI":"\u25A0行里","LIN":"13鄰","STREET":"中正南路","SECT":" ","MAREA":" ","LANE":" ","ALLEY":" ","HOUSE_NO":"７７４號","E_COORD97":171783.39999999999,"N_COORD97":2548999.75,"ADDRESS":"中正南路７７４號","OBJECTID":14636},"geometry":{"x":171783.4000000013,"y":2548999.7500000037}},{"attributes":{"ID":14637,"DIS_CODE":0,"TOWNNAME":"官田區","LI":"隆本里","LIN":"13鄰","STREET":"忠孝街","SECT":" ","MAREA":" ","LANE":" ","ALLEY":" ","HOUSE_NO":"１３９號","E_COORD97":179977.14000000001,"N_COORD97":2566419.9100000001,"ADDRESS":"忠孝街１３９號","OBJECTID":14637},"geometry":{"x":179977.1400000006,"y":2566419.910000002}},{"attributes":{"ID":14638,"DIS_CODE":0,"TOWNNAME":"官田區","LI":"隆本里","LIN":"13鄰","STREET":"忠孝街","SECT":" ","MAREA":" ","LANE":" ","ALLEY":" ","HOUSE_NO":"１４１號","E_COORD97":179976.14000000001,"N_COORD97":2566423.9300000002,"ADDRESS":"忠孝街１４１號","OBJECTID":14638},"geometry":{"x":179976.13999999966,"y":2566423.9299999997}},{"attributes":{"ID":14639,"DIS_CODE":0,"TOWNNAME":"善化區","LI":"牛庄里","LIN":"13鄰","STREET":" ","SECT":" ","MAREA":"牛庄","LANE":" ","ALLEY":" ","HOUSE_NO":"１號之７","E_COORD97":180069.69,"N_COORD97":2559713.77,"ADDRESS":"牛庄１號之７","OBJECTID":14639},"geometry":{"x":180069.69000000041,"y":2559713.7700000014}},{"attributes":{"ID":14640,"DIS_CODE":0,"TOWNNAME":"後壁區","LI":"新東里","LIN":"14鄰","STREET":" ","SECT":" ","MAREA":"新港東","LANE":" ","ALLEY":" ","HOUSE_NO":"１４７號之９４","E_COORD97":181381.98000000001,"N_COORD97":2582191.46,"ADDRESS":"新港東１４７號之９４","OBJECTID":14640},"geometry":{"x":181381.98000000045,"y":2582191.4600000028}},{"attributes":{"ID":14641,"DIS_CODE":0,"TOWNNAME":"後壁區","LI":"新東里","LIN":"14鄰","STREET":" ","SECT":" ","MAREA":"新港東","LANE":" ","ALLEY":" ","HOUSE_NO":"１４７號之９５","E_COORD97":181384.67999999999,"N_COORD97":2582195.0299999998,"ADDRESS":"新港東１４７號之９５","OBJECTID":14641},"geometry":{"x":181384.6799999997,"y":2582195.0299999993}},{"attributes":{"ID":14642,"DIS_CODE":0,"TOWNNAME":"後壁區","LI":"新東里","LIN":"14鄰","STREET":" ","SECT":" ","MAREA":"新港東","LANE":" ","ALLEY":" ","HOUSE_NO":"１４７號之９６","E_COORD97":181387.98000000001,"N_COORD97":2582198.1499999999,"ADDRESS":"新港東１４７號之９６","OBJECTID":14642},"geometry":{"x":181387.98000000138,"y":2582198.1500000004}},{"attributes":{"ID":14643,"DIS_CODE":0,"TOWNNAME":"北區","LI":"文元里","LIN":"24鄰","STREET":"文賢路","SECT":" ","MAREA":" ","LANE":"１１２２巷","ALLEY":"２５０弄","HOUSE_NO":"８號","E_COORD97":167840.39000000001,"N_COORD97":2546432.8500000001,"ADDRESS":"文賢路１１２２巷２５０弄８號","OBJECTID":14643},"geometry":{"x":167840.38999999966,"y":2546432.8500000015}},{"attributes":{"ID":14644,"DIS_CODE":0,"TOWNNAME":"後壁區","LI":"新東里","LIN":"14鄰","STREET":" ","SECT":" ","MAREA":"新港東","LANE":" ","ALLEY":" ","HOUSE_NO":"１４７號之９７","E_COORD97":181376.87,"N_COORD97":2582197.1400000001,"ADDRESS":"新港東１４７號之９７","OBJECTID":14644},"geometry":{"x":181376.87000000011,"y":2582197.1400000025}},{"attributes":{"ID":14645,"DIS_CODE":0,"TOWNNAME":"後壁區","LI":"新東里","LIN":"14鄰","STREET":" ","SECT":" ","MAREA":"新港東","LANE":" ","ALLEY":" ","HOUSE_NO":"１４７號之９８","E_COORD97":181373.51000000001,"N_COORD97":2582199.7799999998,"ADDRESS":"新港東１４７號之９８","OBJECTID":14645},"geometry":{"x":181373.51000000071,"y":2582199.7799999993}},{"attributes":{"ID":14646,"DIS_CODE":0,"TOWNNAME":"後壁區","LI":"新東里","LIN":"14鄰","STREET":" ","SECT":" ","MAREA":"新港東","LANE":" ","ALLEY":" ","HOUSE_NO":"１４７號之９９","E_COORD97":181369.97,"N_COORD97":2582202.2799999998,"ADDRESS":"新港東１４７號之９９","OBJECTID":14646},"geometry":{"x":181369.97000000067,"y":2582202.2800000012}},{"attributes":{"ID":14647,"DIS_CODE":0,"TOWNNAME":"後壁區","LI":"新東里","LIN":"14鄰","STREET":" ","SECT":" ","MAREA":"新港東","LANE":" ","ALLEY":" ","HOUSE_NO":"１４８號之２０","E_COORD97":181380.47,"N_COORD97":2582501.9300000002,"ADDRESS":"新港東１４８號之２０","OBJECTID":14647},"geometry":{"x":181380.47000000067,"y":2582501.9300000034}},{"attributes":{"ID":14648,"DIS_CODE":0,"TOWNNAME":"後壁區","LI":"新東里","LIN":"14鄰","STREET":" ","SECT":" ","MAREA":"新港東","LANE":" ","ALLEY":" ","HOUSE_NO":"１４９號之１","E_COORD97":181554.73000000001,"N_COORD97":2582577.5600000001,"ADDRESS":"新港東１４９號之１","OBJECTID":14648},"geometry":{"x":181554.73000000045,"y":2582577.5600000024}},{"attributes":{"ID":14649,"DIS_CODE":0,"TOWNNAME":"七股區","LI":"七股里","LIN":"14鄰","STREET":" ","SECT":" ","MAREA":"七股","LANE":" ","ALLEY":" ","HOUSE_NO":"１３０號","E_COORD97":161129.73999999999,"N_COORD97":2559446.1099999999,"ADDRESS":"七股１３０號","OBJECTID":14649},"geometry":{"x":161129.74000000115,"y":2559446.1100000013}},{"attributes":{"ID":14650,"DIS_CODE":0,"TOWNNAME":"後壁區","LI":"竹新里","LIN":"14鄰","STREET":" ","SECT":" ","MAREA":"新厝","LANE":" ","ALLEY":" ","HOUSE_NO":"１９號","E_COORD97":179223.57000000001,"N_COORD97":2582178.0699999998,"ADDRESS":"新厝１９號","OBJECTID":14650},"geometry":{"x":179223.57000000123,"y":2582178.0700000003}},{"attributes":{"ID":14651,"DIS_CODE":0,"TOWNNAME":"北區","LI":"文元里","LIN":"24鄰","STREET":"文賢路","SECT":" ","MAREA":" ","LANE":"１１２２巷","ALLEY":"２５０弄","HOUSE_NO":"９號","E_COORD97":167858.42999999999,"N_COORD97":2546436.6600000001,"ADDRESS":"文賢路１１２２巷２５０弄９號","OBJECTID":14651},"geometry":{"x":167858.4299999997,"y":2546436.6600000001}},{"attributes":{"ID":14652,"DIS_CODE":0,"TOWNNAME":"北區","LI":"文元里","LIN":"24鄰","STREET":"文賢路","SECT":" ","MAREA":" ","LANE":"１１２２巷","ALLEY":"２５０弄","HOUSE_NO":"１０號","E_COORD97":167840.89999999999,"N_COORD97":2546427.52,"ADDRESS":"文賢路１１２２巷２５０弄１０號","OBJECTID":14652},"geometry":{"x":167840.90000000037,"y":2546427.5200000033}},{"attributes":{"ID":14653,"DIS_CODE":0,"TOWNNAME":"北區","LI":"文元里","LIN":"24鄰","STREET":"文賢路","SECT":" ","MAREA":" ","LANE":"１１２２巷","ALLEY":"２５０弄","HOUSE_NO":"１１號","E_COORD97":167858.67999999999,"N_COORD97":2546432.3399999999,"ADDRESS":"文賢路１１２２巷２５０弄１１號","OBJECTID":14653},"geometry":{"x":167858.6799999997,"y":2546432.3400000036}},{"attributes":{"ID":14654,"DIS_CODE":0,"TOWNNAME":"七股區","LI":"七股里","LIN":"14鄰","STREET":" ","SECT":" ","MAREA":"七股","LANE":" ","ALLEY":" ","HOUSE_NO":"１２５號之１","E_COORD97":161019.73999999999,"N_COORD97":2559463.2000000002,"ADDRESS":"七股１２５號之１","OBJECTID":14654},"geometry":{"x":161019.74000000115,"y":2559463.2000000011}},{"attributes":{"ID":14655,"DIS_CODE":0,"TOWNNAME":"北區","LI":"文元里","LIN":"24鄰","STREET":"文賢路","SECT":" ","MAREA":" ","LANE":"１１２２巷","ALLEY":"２５０弄","HOUSE_NO":"１２號","E_COORD97":167841.16,"N_COORD97":2546422.1800000002,"ADDRESS":"文賢路１１２２巷２５０弄１２號","OBJECTID":14655},"geometry":{"x":167841.16000000201,"y":2546422.1799999997}},{"attributes":{"ID":14656,"DIS_CODE":0,"TOWNNAME":"北區","LI":"文元里","LIN":"24鄰","STREET":"文賢路","SECT":" ","MAREA":" ","LANE":"１１２２巷","ALLEY":"２５０弄","HOUSE_NO":"１３號","E_COORD97":167859.19,"N_COORD97":2546427.77,"ADDRESS":"文賢路１１２２巷２５０弄１３號","OBJECTID":14656},"geometry":{"x":167859.19000000041,"y":2546427.7699999996}},{"attributes":{"ID":14657,"DIS_CODE":0,"TOWNNAME":"北區","LI":"文元里","LIN":"24鄰","STREET":"文賢路","SECT":" ","MAREA":" ","LANE":"１１２２巷","ALLEY":"２５０弄","HOUSE_NO":"１５號","E_COORD97":167859.44,"N_COORD97":2546422.6899999999,"ADDRESS":"文賢路１１２２巷２５０弄１５號","OBJECTID":14657},"geometry":{"x":167859.44000000041,"y":2546422.6900000032}},{"attributes":{"ID":14658,"DIS_CODE":0,"TOWNNAME":"北區","LI":"文元里","LIN":"24鄰","STREET":"文賢路","SECT":" ","MAREA":" ","LANE":"１１２２巷","ALLEY":"２５０弄","HOUSE_NO":"１６號","E_COORD97":167841.41,"N_COORD97":2546417.6099999999,"ADDRESS":"文賢路１１２２巷２５０弄１６號","OBJECTID":14658},"geometry":{"x":167841.41000000108,"y":2546417.6100000013}},{"attributes":{"ID":14659,"DIS_CODE":0,"TOWNNAME":"北區","LI":"文元里","LIN":"24鄰","STREET":"文賢路","SECT":" ","MAREA":" ","LANE":"１１２２巷","ALLEY":"２５０弄","HOUSE_NO":"１７號","E_COORD97":167859.95000000001,"N_COORD97":2546418.6299999999,"ADDRESS":"文賢路１１２２巷２５０弄１７號","OBJECTID":14659},"geometry":{"x":167859.95000000112,"y":2546418.629999999}},{"attributes":{"ID":14660,"DIS_CODE":0,"TOWNNAME":"北區","LI":"文元里","LIN":"24鄰","STREET":"文賢路","SECT":" ","MAREA":" ","LANE":"１１２２巷","ALLEY":"２５０弄","HOUSE_NO":"１８號","E_COORD97":167841.66,"N_COORD97":2546413.04,"ADDRESS":"文賢路１１２２巷２５０弄１８號","OBJECTID":14660},"geometry":{"x":167841.66000000108,"y":2546413.0399999972}},{"attributes":{"ID":14661,"DIS_CODE":0,"TOWNNAME":"北區","LI":"文元里","LIN":"24鄰","STREET":"文賢路","SECT":" ","MAREA":" ","LANE":"１１２２巷","ALLEY":"２５０弄","HOUSE_NO":"１９號","E_COORD97":167860.20999999999,"N_COORD97":2546414.5600000001,"ADDRESS":"文賢路１１２２巷２５０弄１９號","OBJECTID":14661},"geometry":{"x":167860.20999999996,"y":2546414.5600000042}},{"attributes":{"ID":14662,"DIS_CODE":0,"TOWNNAME":"北區","LI":"文元里","LIN":"24鄰","STREET":"文賢路","SECT":" ","MAREA":" ","LANE":"１１２２巷","ALLEY":"２５０弄","HOUSE_NO":"２０號","E_COORD97":167841.66,"N_COORD97":2546408.21,"ADDRESS":"文賢路１１２２巷２５０弄２０號","OBJECTID":14662},"geometry":{"x":167841.66000000108,"y":2546408.2100000028}},{"attributes":{"ID":14663,"DIS_CODE":0,"TOWNNAME":"北區","LI":"文元里","LIN":"24鄰","STREET":"文賢路","SECT":" ","MAREA":" ","LANE":"１１２２巷","ALLEY":"２５０弄","HOUSE_NO":"２１號","E_COORD97":167860.20999999999,"N_COORD97":2546409.9900000002,"ADDRESS":"文賢路１１２２巷２５０弄２１號","OBJECTID":14663},"geometry":{"x":167860.20999999996,"y":2546409.9900000002}},{"attributes":{"ID":14664,"DIS_CODE":0,"TOWNNAME":"北區","LI":"文元里","LIN":"24鄰","STREET":"文賢路","SECT":" ","MAREA":" ","LANE":"１１２２巷","ALLEY":"２５０弄","HOUSE_NO":"２２號","E_COORD97":167842.17000000001,"N_COORD97":2546403.1299999999,"ADDRESS":"文賢路１１２２巷２５０弄２２號","OBJECTID":14664},"geometry":{"x":167842.16999999993,"y":2546403.1300000008}},{"attributes":{"ID":14665,"DIS_CODE":0,"TOWNNAME":"北區","LI":"三德里","LIN":"5鄰","STREET":"裕民街","SECT":" ","MAREA":" ","LANE":" ","ALLEY":" ","HOUSE_NO":"６６號","E_COORD97":168490.51999999999,"N_COORD97":2544489.29,"ADDRESS":"裕民街６６號","OBJECTID":14665},"geometry":{"x":168490.51999999955,"y":2544489.2900000028}},{"attributes":{"ID":14666,"DIS_CODE":0,"TOWNNAME":"北區","LI":"和順里","LIN":"26鄰","STREET":"民德路","SECT":" ","MAREA":" ","LANE":" ","ALLEY":" ","HOUSE_NO":"５４號","E_COORD97":168200.89999999999,"N_COORD97":2545193.1400000001,"ADDRESS":"民德路５４號","OBJECTID":14666},"geometry":{"x":168200.90000000224,"y":2545193.1400000006}},{"attributes":{"ID":14667,"DIS_CODE":0,"TOWNNAME":"新化區","LI":"豐榮里","LIN":"13鄰","STREET":"民治路","SECT":" ","MAREA":" ","LANE":" ","ALLEY":" ","HOUSE_NO":"５８號","E_COORD97":178753.26000000001,"N_COORD97":2548066.25,"ADDRESS":"民治路５８號","OBJECTID":14667},"geometry":{"x":178753.25999999978,"y":2548066.25}},{"attributes":{"ID":14668,"DIS_CODE":0,"TOWNNAME":"新化區","LI":"豐榮里","LIN":"13鄰","STREET":"民治路","SECT":" ","MAREA":" ","LANE":" ","ALLEY":" ","HOUSE_NO":"２６號","E_COORD97":178741,"N_COORD97":2548017.9399999999,"ADDRESS":"民治路２６號","OBJECTID":14668},"geometry":{"x":178741.00000000093,"y":2548017.9400000032}},{"attributes":{"ID":14669,"DIS_CODE":0,"TOWNNAME":"北區","LI":"文元里","LIN":"24鄰","STREET":"文賢路","SECT":" ","MAREA":" ","LANE":"１１２２巷","ALLEY":"２５０弄","HOUSE_NO":"２３號","E_COORD97":167860.45999999999,"N_COORD97":2546405.4199999999,"ADDRESS":"文賢路１１２２巷２５０弄２３號","OBJECTID":14669},"geometry":{"x":167860.45999999996,"y":2546405.4200000018}},{"attributes":{"ID":14670,"DIS_CODE":0,"TOWNNAME":"善化區","LI":"小新里","LIN":"13鄰","STREET":" ","SECT":" ","MAREA":"小新營","LANE":" ","ALLEY":" ","HOUSE_NO":"１０２號","E_COORD97":179720.91,"N_COORD97":2558201.25,"ADDRESS":"小新營１０２號","OBJECTID":14670},"geometry":{"x":179720.90999999922,"y":2558201.2500000037}},{"attributes":{"ID":14671,"DIS_CODE":0,"TOWNNAME":"北區","LI":"文元里","LIN":"24鄰","STREET":"文賢路","SECT":" ","MAREA":" ","LANE":"１１２２巷","ALLEY":"２５０弄","HOUSE_NO":"２５號","E_COORD97":167860.70999999999,"N_COORD97":2546401.1000000001,"ADDRESS":"文賢路１１２２巷２５０弄２５號","OBJECTID":14671},"geometry":{"x":167860.70999999996,"y":2546401.1000000015}},{"attributes":{"ID":14672,"DIS_CODE":0,"TOWNNAME":"七股區","LI":"七股里","LIN":"14鄰","STREET":" ","SECT":" ","MAREA":"七股","LANE":" ","ALLEY":" ","HOUSE_NO":"１２５號之２","E_COORD97":161023.59,"N_COORD97":2559462.6899999999,"ADDRESS":"七股１２５號之２","OBJECTID":14672},"geometry":{"x":161023.59000000078,"y":2559462.6900000013}},{"attributes":{"ID":14673,"DIS_CODE":0,"TOWNNAME":"北區","LI":"文元里","LIN":"24鄰","STREET":"文賢路","SECT":" ","MAREA":" ","LANE":"１１２２巷","ALLEY":"２５０弄","HOUSE_NO":"２６號","E_COORD97":167842.42999999999,"N_COORD97":2546398.0499999998,"ADDRESS":"文賢路１１２２巷２５０弄２６號","OBJECTID":14673},"geometry":{"x":167842.43000000063,"y":2546398.0500000045}},{"attributes":{"ID":14674,"DIS_CODE":0,"TOWNNAME":"七股區","LI":"七股里","LIN":"14鄰","STREET":" ","SECT":" ","MAREA":"七股","LANE":" ","ALLEY":" ","HOUSE_NO":"１２５號之３","E_COORD97":161027.56,"N_COORD97":2559462.2799999998,"ADDRESS":"七股１２５號之３","OBJECTID":14674},"geometry":{"x":161027.55999999959,"y":2559462.2800000012}},{"attributes":{"ID":14675,"DIS_CODE":0,"TOWNNAME":"七股區","LI":"七股里","LIN":"14鄰","STREET":" ","SECT":" ","MAREA":"七股","LANE":" ","ALLEY":" ","HOUSE_NO":"１２８號","E_COORD97":161087.45999999999,"N_COORD97":2559452.3300000001,"ADDRESS":"七股１２８號","OBJECTID":14675},"geometry":{"x":161087.46000000089,"y":2559452.3300000019}},{"attributes":{"ID":14676,"DIS_CODE":0,"TOWNNAME":"七股區","LI":"七股里","LIN":"14鄰","STREET":" ","SECT":" ","MAREA":"七股","LANE":" ","ALLEY":" ","HOUSE_NO":"１３０號之１","E_COORD97":161143.44,"N_COORD97":2559429.71,"ADDRESS":"七股１３０號之１","OBJECTID":14676},"geometry":{"x":161143.44000000227,"y":2559429.7100000046}},{"attributes":{"ID":14677,"DIS_CODE":0,"TOWNNAME":"七股區","LI":"七股里","LIN":"14鄰","STREET":" ","SECT":" ","MAREA":"七股","LANE":" ","ALLEY":" ","HOUSE_NO":"１３０號之３","E_COORD97":161158.89999999999,"N_COORD97":2559413.4300000002,"ADDRESS":"七股１３０號之３","OBJECTID":14677},"geometry":{"x":161158.89999999944,"y":2559413.4300000034}},{"attributes":{"ID":14678,"DIS_CODE":0,"TOWNNAME":"七股區","LI":"七股里","LIN":"14鄰","STREET":" ","SECT":" ","MAREA":"七股","LANE":" ","ALLEY":" ","HOUSE_NO":"１３３號","E_COORD97":161174.29999999999,"N_COORD97":2559407.0099999998,"ADDRESS":"七股１３３號","OBJECTID":14678},"geometry":{"x":161174.30000000168,"y":2559407.0100000016}},{"attributes":{"ID":14679,"DIS_CODE":0,"TOWNNAME":"東山區","LI":"聖賢里","LIN":"14鄰","STREET":" ","SECT":" ","MAREA":"田尾","LANE":" ","ALLEY":" ","HOUSE_NO":"６８號","E_COORD97":184855.01999999999,"N_COORD97":2578456.04,"ADDRESS":"田尾６８號","OBJECTID":14679},"geometry":{"x":184855.02000000048,"y":2578456.040000001}},{"attributes":{"ID":14680,"DIS_CODE":0,"TOWNNAME":"七股區","LI":"七股里","LIN":"14鄰","STREET":" ","SECT":" ","MAREA":"七股","LANE":" ","ALLEY":" ","HOUSE_NO":"１３４號之２","E_COORD97":161188.85000000001,"N_COORD97":2559400.5299999998,"ADDRESS":"七股１３４號之２","OBJECTID":14680},"geometry":{"x":161188.84999999963,"y":2559400.5299999993}},{"attributes":{"ID":14681,"DIS_CODE":0,"TOWNNAME":"北區","LI":"文元里","LIN":"24鄰","STREET":"文賢路","SECT":" ","MAREA":" ","LANE":"１１２２巷","ALLEY":"２５０弄","HOUSE_NO":"２７號","E_COORD97":167861.22,"N_COORD97":2546396.02,"ADDRESS":"文賢路１１２２巷２５０弄２７號","OBJECTID":14681},"geometry":{"x":167861.22000000067,"y":2546396.0199999996}},{"attributes":{"ID":14682,"DIS_CODE":0,"TOWNNAME":"北區","LI":"文元里","LIN":"24鄰","STREET":"文賢路","SECT":" ","MAREA":" ","LANE":"１１２２巷","ALLEY":"２５０弄","HOUSE_NO":"３０號","E_COORD97":167842.67999999999,"N_COORD97":2546392.46,"ADDRESS":"文賢路１１２２巷２５０弄３０號","OBJECTID":14682},"geometry":{"x":167842.68000000063,"y":2546392.4600000028}},{"attributes":{"ID":14683,"DIS_CODE":0,"TOWNNAME":"北區","LI":"文元里","LIN":"24鄰","STREET":"文賢路","SECT":" ","MAREA":" ","LANE":"１１２２巷","ALLEY":"２５０弄","HOUSE_NO":"２９號","E_COORD97":167861.48000000001,"N_COORD97":2546391.1899999999,"ADDRESS":"文賢路１１２２巷２５０弄２９號","OBJECTID":14683},"geometry":{"x":167861.48000000138,"y":2546391.1899999995}},{"attributes":{"ID":14684,"DIS_CODE":0,"TOWNNAME":"北區","LI":"文元里","LIN":"24鄰","STREET":"文賢路","SECT":" ","MAREA":" ","LANE":"１１２２巷","ALLEY":"２５０弄","HOUSE_NO":"３２號","E_COORD97":167842.92999999999,"N_COORD97":2546386.8799999999,"ADDRESS":"文賢路１１２２巷２５０弄３２號","OBJECTID":14684},"geometry":{"x":167842.93000000063,"y":2546386.8799999971}},{"attributes":{"ID":14685,"DIS_CODE":0,"TOWNNAME":"北區","LI":"文元里","LIN":"24鄰","STREET":"文賢路","SECT":" ","MAREA":" ","LANE":"１１２２巷","ALLEY":"２５０弄","HOUSE_NO":"３１號","E_COORD97":167861.98000000001,"N_COORD97":2546385.8599999999,"ADDRESS":"文賢路１１２２巷２５０弄３１號","OBJECTID":14685},"geometry":{"x":167861.98000000138,"y":2546385.8600000013}},{"attributes":{"ID":14686,"DIS_CODE":0,"TOWNNAME":"北區","LI":"文元里","LIN":"24鄰","STREET":"文賢路","SECT":" ","MAREA":" ","LANE":"１１２２巷","ALLEY":"２５０弄","HOUSE_NO":"３３號","E_COORD97":167862.23999999999,"N_COORD97":2546380.7799999998,"ADDRESS":"文賢路１１２２巷２５０弄３３號","OBJECTID":14686},"geometry":{"x":167862.24000000022,"y":2546380.7799999993}},{"attributes":{"ID":14687,"DIS_CODE":0,"TOWNNAME":"北區","LI":"文元里","LIN":"24鄰","STREET":"文賢路","SECT":" ","MAREA":" ","LANE":"１１２２巷","ALLEY":"２５０弄","HOUSE_NO":"３６號","E_COORD97":167843.44,"N_COORD97":2546380.7799999998,"ADDRESS":"文賢路１１２２巷２５０弄３６號","OBJECTID":14687},"geometry":{"x":167843.44000000134,"y":2546380.7799999993}},{"attributes":{"ID":14688,"DIS_CODE":0,"TOWNNAME":"北區","LI":"文元里","LIN":"24鄰","STREET":"文賢路","SECT":" ","MAREA":" ","LANE":"１１２２巷","ALLEY":"２５０弄","HOUSE_NO":"３５號","E_COORD97":167862.48999999999,"N_COORD97":2546375.9500000002,"ADDRESS":"文賢路１１２２巷２５０弄３５號","OBJECTID":14688},"geometry":{"x":167862.49000000022,"y":2546375.9499999993}},{"attributes":{"ID":14689,"DIS_CODE":0,"TOWNNAME":"北區","LI":"文元里","LIN":"24鄰","STREET":"文賢路","SECT":" ","MAREA":" ","LANE":"１１２２巷","ALLEY":"２５０弄","HOUSE_NO":"３８號","E_COORD97":167843.95000000001,"N_COORD97":2546374.9399999999,"ADDRESS":"文賢路１１２２巷２５０弄３８號","OBJECTID":14689},"geometry":{"x":167843.95000000019,"y":2546374.9400000013}},{"attributes":{"ID":14690,"DIS_CODE":0,"TOWNNAME":"六甲區","LI":"甲東里","LIN":"24鄰","STREET":"裕農街","SECT":" ","MAREA":" ","LANE":"２巷","ALLEY":"１１弄","HOUSE_NO":"１號","E_COORD97":183937.54999999999,"N_COORD97":2569584.7999999998,"ADDRESS":"裕農街２巷１１弄１號","OBJECTID":14690},"geometry":{"x":183937.55000000075,"y":2569584.8000000007}},{"attributes":{"ID":14691,"DIS_CODE":0,"TOWNNAME":"六甲區","LI":"甲東里","LIN":"24鄰","STREET":"裕農街","SECT":" ","MAREA":" ","LANE":"２巷","ALLEY":"１１弄","HOUSE_NO":"３號","E_COORD97":183963.04999999999,"N_COORD97":2569572.0299999998,"ADDRESS":"裕農街２巷１１弄３號","OBJECTID":14691},"geometry":{"x":183963.05000000075,"y":2569572.0299999993}},{"attributes":{"ID":14692,"DIS_CODE":0,"TOWNNAME":"六甲區","LI":"甲東里","LIN":"24鄰","STREET":"裕農街","SECT":" ","MAREA":" ","LANE":"２巷","ALLEY":"１１弄","HOUSE_NO":"４號","E_COORD97":183958.95000000001,"N_COORD97":2569550.6499999999,"ADDRESS":"裕農街２巷１１弄４號","OBJECTID":14692},"geometry":{"x":183958.95000000112,"y":2569550.6500000022}},{"attributes":{"ID":14693,"DIS_CODE":0,"TOWNNAME":"關廟區","LI":"東勢里","LIN":"24鄰","STREET":"東安街","SECT":" ","MAREA":" ","LANE":"２４１巷","ALLEY":"１３弄","HOUSE_NO":"８號","E_COORD97":181617.72,"N_COORD97":2539395.3199999998,"ADDRESS":"東安街２４１巷１３弄８號","OBJECTID":14693},"geometry":{"x":181617.72000000067,"y":2539395.3200000022}},{"attributes":{"ID":14694,"DIS_CODE":0,"TOWNNAME":"安南區","LI":"幸福里","LIN":"13鄰","STREET":"府安路","SECT":"六段","MAREA":" ","LANE":" ","ALLEY":" ","HOUSE_NO":"７３號","E_COORD97":166851.42999999999,"N_COORD97":2546567.1000000001,"ADDRESS":"府安路六段７３號","OBJECTID":14694},"geometry":{"x":166851.4299999997,"y":2546567.1000000015}},{"attributes":{"ID":14695,"DIS_CODE":0,"TOWNNAME":"安南區","LI":"海南里","LIN":"13鄰","STREET":"府安路","SECT":"七段","MAREA":" ","LANE":" ","ALLEY":" ","HOUSE_NO":"３８號","E_COORD97":166022.35999999999,"N_COORD97":2545960.7799999998,"ADDRESS":"府安路七段３８號","OBJECTID":14695},"geometry":{"x":166022.36000000034,"y":2545960.7799999975}},{"attributes":{"ID":14696,"DIS_CODE":0,"TOWNNAME":"七股區","LI":"七股里","LIN":"14鄰","STREET":" ","SECT":" ","MAREA":"七股","LANE":" ","ALLEY":" ","HOUSE_NO":"１３４號","E_COORD97":161169.82999999999,"N_COORD97":2559406.54,"ADDRESS":"七股１３４號","OBJECTID":14696},"geometry":{"x":161169.83000000101,"y":2559406.540000001}},{"attributes":{"ID":14697,"DIS_CODE":0,"TOWNNAME":"七股區","LI":"七股里","LIN":"14鄰","STREET":" ","SECT":" ","MAREA":"七股","LANE":" ","ALLEY":" ","HOUSE_NO":"１３９號之１","E_COORD97":161230.09,"N_COORD97":2559382.2799999998,"ADDRESS":"七股１３９號之１","OBJECTID":14697},"geometry":{"x":161230.09000000171,"y":2559382.2799999993}},{"attributes":{"ID":14698,"DIS_CODE":0,"TOWNNAME":"七股區","LI":"七股里","LIN":"14鄰","STREET":" ","SECT":" ","MAREA":"七股","LANE":" ","ALLEY":" ","HOUSE_NO":"１３９號","E_COORD97":161229.56,"N_COORD97":2559378.3700000001,"ADDRESS":"七股１３９號","OBJECTID":14698},"geometry":{"x":161229.55999999959,"y":2559378.3700000029}},{"attributes":{"ID":14699,"DIS_CODE":0,"TOWNNAME":"七股區","LI":"七股里","LIN":"14鄰","STREET":" ","SECT":" ","MAREA":"七股","LANE":" ","ALLEY":" ","HOUSE_NO":"１４１號","E_COORD97":161232.85999999999,"N_COORD97":2559388.0899999999,"ADDRESS":"七股１４１號","OBJECTID":14699},"geometry":{"x":161232.86000000127,"y":2559388.0899999999}},{"attributes":{"ID":14700,"DIS_CODE":0,"TOWNNAME":"七股區","LI":"七股里","LIN":"14鄰","STREET":" ","SECT":" ","MAREA":"七股","LANE":" ","ALLEY":" ","HOUSE_NO":"１４３號","E_COORD97":161234.45000000001,"N_COORD97":2559400.5499999998,"ADDRESS":"七股１４３號","OBJECTID":14700},"geometry":{"x":161234.45000000019,"y":2559400.5500000026}},{"attributes":{"ID":14701,"DIS_CODE":0,"TOWNNAME":"新營區","LI":"民生里","LIN":"24鄰","STREET":"民生路","SECT":" ","MAREA":" ","LANE":"１３９巷","ALLEY":"７弄","HOUSE_NO":"９號","E_COORD97":179191.54000000001,"N_COORD97":2578576.5499999998,"ADDRESS":"民生路１３９巷７弄９號","OBJECTID":14701},"geometry":{"x":179191.54000000097,"y":2578576.5500000026}},{"attributes":{"ID":14702,"DIS_CODE":0,"TOWNNAME":"新營區","LI":"南紙里","LIN":"24鄰","STREET":"建業路","SECT":" ","MAREA":" ","LANE":"２６９巷","ALLEY":"２０弄","HOUSE_NO":"２號","E_COORD97":177961.66,"N_COORD97":2577420.7599999998,"ADDRESS":"建業路２６９巷２０弄２號","OBJECTID":14702},"geometry":{"x":177961.66000000108,"y":2577420.7600000035}},{"attributes":{"ID":14703,"DIS_CODE":0,"TOWNNAME":"新營區","LI":"南紙里","LIN":"24鄰","STREET":"建業路","SECT":" ","MAREA":" ","LANE":"２６９巷","ALLEY":"２０弄","HOUSE_NO":"４號","E_COORD97":177954.51999999999,"N_COORD97":2577421.9100000001,"ADDRESS":"建業路２６９巷２０弄４號","OBJECTID":14703},"geometry":{"x":177954.51999999955,"y":2577421.910000002}},{"attributes":{"ID":14704,"DIS_CODE":0,"TOWNNAME":"北區","LI":"正覺里","LIN":"24鄰","STREET":"公園路","SECT":" ","MAREA":" ","LANE":"７６９巷","ALLEY":"３２弄","HOUSE_NO":"３號","E_COORD97":169526.59,"N_COORD97":2546475.0499999998,"ADDRESS":"公園路７６９巷３２弄３號","OBJECTID":14704},"geometry":{"x":169526.59000000078,"y":2546475.0500000007}},{"attributes":{"ID":14705,"DIS_CODE":0,"TOWNNAME":"北區","LI":"正覺里","LIN":"24鄰","STREET":"公園路","SECT":" ","MAREA":" ","LANE":"７６９巷","ALLEY":"３２弄","HOUSE_NO":"４０號","E_COORD97":169453.25,"N_COORD97":2546508.6899999999,"ADDRESS":"公園路７６９巷３２弄４０號","OBJECTID":14705},"geometry":{"x":169453.25000000093,"y":2546508.6900000013}},{"attributes":{"ID":14706,"DIS_CODE":0,"TOWNNAME":"北區","LI":"正覺里","LIN":"24鄰","STREET":"公園路","SECT":" ","MAREA":" ","LANE":"７６９巷","ALLEY":"３２弄","HOUSE_NO":"４１號","E_COORD97":169445.84,"N_COORD97":2546496.71,"ADDRESS":"公園路７６９巷３２弄４１號","OBJECTID":14706},"geometry":{"x":169445.83999999985,"y":2546496.7100000028}},{"attributes":{"ID":14707,"DIS_CODE":0,"TOWNNAME":"北區","LI":"正覺里","LIN":"24鄰","STREET":"公園路","SECT":" ","MAREA":" ","LANE":"７６９巷","ALLEY":"３２弄","HOUSE_NO":"４２號","E_COORD97":169449.39999999999,"N_COORD97":2546510.1899999999,"ADDRESS":"公園路７６９巷３２弄４２號","OBJECTID":14707},"geometry":{"x":169449.40000000037,"y":2546510.1899999995}},{"attributes":{"ID":14708,"DIS_CODE":0,"TOWNNAME":"北區","LI":"正覺里","LIN":"24鄰","STREET":"公園路","SECT":" ","MAREA":" ","LANE":"７６９巷","ALLEY":"３２弄","HOUSE_NO":"４３號","E_COORD97":169441.79999999999,"N_COORD97":2546498.5899999999,"ADDRESS":"公園路７６９巷３２弄４３號","OBJECTID":14708},"geometry":{"x":169441.80000000168,"y":2546498.5900000036}},{"attributes":{"ID":14709,"DIS_CODE":0,"TOWNNAME":"北區","LI":"正覺里","LIN":"24鄰","STREET":"公園路","SECT":" ","MAREA":" ","LANE":"７６９巷","ALLEY":"３２弄","HOUSE_NO":"４４號","E_COORD97":169445.92999999999,"N_COORD97":2546511.5899999999,"ADDRESS":"公園路７６９巷３２弄４４號","OBJECTID":14709},"geometry":{"x":169445.93000000156,"y":2546511.5899999999}},{"attributes":{"ID":14710,"DIS_CODE":0,"TOWNNAME":"北區","LI":"正覺里","LIN":"24鄰","STREET":"公園路","SECT":" ","MAREA":" ","LANE":"７６９巷","ALLEY":"３２弄","HOUSE_NO":"４５號","E_COORD97":169436.73000000001,"N_COORD97":2546499.4300000002,"ADDRESS":"公園路７６９巷３２弄４５號","OBJECTID":14710},"geometry":{"x":169436.73000000138,"y":2546499.4300000034}},{"attributes":{"ID":14711,"DIS_CODE":0,"TOWNNAME":"北區","LI":"正覺里","LIN":"24鄰","STREET":"公園路","SECT":" ","MAREA":" ","LANE":"７６９巷","ALLEY":"３２弄","HOUSE_NO":"４６號","E_COORD97":169441.23000000001,"N_COORD97":2546513.1000000001,"ADDRESS":"公園路７６９巷３２弄４６號","OBJECTID":14711},"geometry":{"x":169441.23000000231,"y":2546513.1000000015}},{"attributes":{"ID":14712,"DIS_CODE":0,"TOWNNAME":"北區","LI":"正覺里","LIN":"24鄰","STREET":"公園路","SECT":" ","MAREA":" ","LANE":"７６９巷","ALLEY":"３２弄","HOUSE_NO":"４７號","E_COORD97":169433.07000000001,"N_COORD97":2546500.8399999999,"ADDRESS":"公園路７６９巷３２弄４７號","OBJECTID":14712},"geometry":{"x":169433.0700000003,"y":2546500.8400000017}},{"attributes":{"ID":14713,"DIS_CODE":0,"TOWNNAME":"北區","LI":"正覺里","LIN":"24鄰","STREET":"公園路","SECT":" ","MAREA":" ","LANE":"７６９巷","ALLEY":"３２弄","HOUSE_NO":"４８號","E_COORD97":169435.97,"N_COORD97":2546514.8799999999,"ADDRESS":"公園路７６９巷３２弄４８號","OBJECTID":14713},"geometry":{"x":169435.97000000067,"y":2546514.879999999}},{"attributes":{"ID":14714,"DIS_CODE":0,"TOWNNAME":"北區","LI":"正覺里","LIN":"24鄰","STREET":"公園路","SECT":" ","MAREA":" ","LANE":"７６９巷","ALLEY":"３２弄","HOUSE_NO":"４９號","E_COORD97":169428.75,"N_COORD97":2546501.9700000002,"ADDRESS":"公園路７６９巷３２弄４９號","OBJECTID":14714},"geometry":{"x":169428.75000000186,"y":2546501.9700000007}},{"attributes":{"ID":14715,"DIS_CODE":0,"TOWNNAME":"北區","LI":"正覺里","LIN":"24鄰","STREET":"公園路","SECT":" ","MAREA":" ","LANE":"７６９巷","ALLEY":"３２弄","HOUSE_NO":"４號","E_COORD97":169530.04999999999,"N_COORD97":2546485.7400000002,"ADDRESS":"公園路７６９巷３２弄４號","OBJECTID":14715},"geometry":{"x":169530.05000000168,"y":2546485.7400000021}},{"attributes":{"ID":14716,"DIS_CODE":0,"TOWNNAME":"善化區","LI":"小新里","LIN":"13鄰","STREET":" ","SECT":" ","MAREA":"小新營","LANE":" ","ALLEY":" ","HOUSE_NO":"１０８號","E_COORD97":179733.04999999999,"N_COORD97":2558110.5,"ADDRESS":"小新營１０８號","OBJECTID":14716},"geometry":{"x":179733.04999999981,"y":2558110.5}},{"attributes":{"ID":14717,"DIS_CODE":0,"TOWNNAME":"北區","LI":"正覺里","LIN":"24鄰","STREET":"公園路","SECT":" ","MAREA":" ","LANE":"７６９巷","ALLEY":"３２弄","HOUSE_NO":"５號","E_COORD97":169522.23999999999,"N_COORD97":2546476.2599999998,"ADDRESS":"公園路７６９巷３２弄５號","OBJECTID":14717},"geometry":{"x":169522.24000000209,"y":2546476.2599999998}},{"attributes":{"ID":14718,"DIS_CODE":0,"TOWNNAME":"北區","LI":"正覺里","LIN":"24鄰","STREET":"公園路","SECT":" ","MAREA":" ","LANE":"７６９巷","ALLEY":"３２弄","HOUSE_NO":"６號","E_COORD97":169525.79999999999,"N_COORD97":2546487.25,"ADDRESS":"公園路７６９巷３２弄６號","OBJECTID":14718},"geometry":{"x":169525.79999999981,"y":2546487.2500000037}},{"attributes":{"ID":14719,"DIS_CODE":0,"TOWNNAME":"善化區","LI":"田寮里","LIN":"13鄰","STREET":" ","SECT":" ","MAREA":"六分寮","LANE":" ","ALLEY":" ","HOUSE_NO":"１４１號之４","E_COORD97":178689.39999999999,"N_COORD97":2561205.52,"ADDRESS":"六分寮１４１號之４","OBJECTID":14719},"geometry":{"x":178689.4000000013,"y":2561205.5199999996}},{"attributes":{"ID":14720,"DIS_CODE":0,"TOWNNAME":"善化區","LI":"牛庄里","LIN":"13鄰","STREET":" ","SECT":" ","MAREA":"牛庄","LANE":" ","ALLEY":" ","HOUSE_NO":"２號之１","E_COORD97":180128.25,"N_COORD97":2559720.27,"ADDRESS":"牛庄２號之１","OBJECTID":14720},"geometry":{"x":180128.25,"y":2559720.2700000014}},{"attributes":{"ID":14721,"DIS_CODE":0,"TOWNNAME":"善化區","LI":"田寮里","LIN":"13鄰","STREET":" ","SECT":" ","MAREA":"六分寮","LANE":" ","ALLEY":" ","HOUSE_NO":"１４１號之１０","E_COORD97":178684.41,"N_COORD97":2561230.77,"ADDRESS":"六分寮１４１號之１０","OBJECTID":14721},"geometry":{"x":178684.41000000015,"y":2561230.7699999996}},{"attributes":{"ID":14722,"DIS_CODE":0,"TOWNNAME":"善化區","LI":"田寮里","LIN":"13鄰","STREET":" ","SECT":" ","MAREA":"六分寮","LANE":" ","ALLEY":" ","HOUSE_NO":"１４１之３號","E_COORD97":178693.39999999999,"N_COORD97":2561206.52,"ADDRESS":"六分寮１４１之３號","OBJECTID":14722},"geometry":{"x":178693.40000000037,"y":2561206.5200000014}},{"attributes":{"ID":14723,"DIS_CODE":0,"TOWNNAME":"善化區","LI":"田寮里","LIN":"13鄰","STREET":" ","SECT":" ","MAREA":"六分寮","LANE":" ","ALLEY":" ","HOUSE_NO":"１４１號之６","E_COORD97":178681.88,"N_COORD97":2561204.02,"ADDRESS":"六分寮１４１號之６","OBJECTID":14723},"geometry":{"x":178681.88000000175,"y":2561204.0200000014}},{"attributes":{"ID":14724,"DIS_CODE":0,"TOWNNAME":"七股區","LI":"七股里","LIN":"14鄰","STREET":" ","SECT":" ","MAREA":"七股","LANE":" ","ALLEY":" ","HOUSE_NO":"１４４號","E_COORD97":161236.04000000001,"N_COORD97":2559405.2400000002,"ADDRESS":"七股１４４號","OBJECTID":14724},"geometry":{"x":161236.04000000097,"y":2559405.2400000039}},{"attributes":{"ID":14725,"DIS_CODE":0,"TOWNNAME":"七股區","LI":"七股里","LIN":"14鄰","STREET":" ","SECT":" ","MAREA":"七股","LANE":" ","ALLEY":" ","HOUSE_NO":"１４５號","E_COORD97":161238.73000000001,"N_COORD97":2559410.4500000002,"ADDRESS":"七股１４５號","OBJECTID":14725},"geometry":{"x":161238.73000000138,"y":2559410.4500000011}},{"attributes":{"ID":14726,"DIS_CODE":0,"TOWNNAME":"七股區","LI":"七股里","LIN":"14鄰","STREET":" ","SECT":" ","MAREA":"七股","LANE":" ","ALLEY":" ","HOUSE_NO":"１４６號","E_COORD97":161240.14000000001,"N_COORD97":2559415.9100000001,"ADDRESS":"七股１４６號","OBJECTID":14726},"geometry":{"x":161240.1400000006,"y":2559415.9100000001}},{"attributes":{"ID":14727,"DIS_CODE":0,"TOWNNAME":"善化區","LI":"六德里","LIN":"13鄰","STREET":" ","SECT":" ","MAREA":"六分寮","LANE":" ","ALLEY":" ","HOUSE_NO":"３０４號之１","E_COORD97":178540.79000000001,"N_COORD97":2561545.52,"ADDRESS":"六分寮３０４號之１","OBJECTID":14727},"geometry":{"x":178540.79000000097,"y":2561545.5200000014}},{"attributes":{"ID":14728,"DIS_CODE":0,"TOWNNAME":"善化區","LI":"田寮里","LIN":"13鄰","STREET":" ","SECT":" ","MAREA":"六分寮","LANE":" ","ALLEY":" ","HOUSE_NO":"１４１之２１號","E_COORD97":178676.89999999999,"N_COORD97":2561279.02,"ADDRESS":"六分寮１４１之２１號","OBJECTID":14728},"geometry":{"x":178676.90000000037,"y":2561279.0199999996}},{"attributes":{"ID":14729,"DIS_CODE":0,"TOWNNAME":"北區","LI":"正覺里","LIN":"24鄰","STREET":"公園路","SECT":" ","MAREA":" ","LANE":"７６９巷","ALLEY":"３２弄","HOUSE_NO":"７號","E_COORD97":169519.10000000001,"N_COORD97":2546478.1099999999,"ADDRESS":"公園路７６９巷３２弄７號","OBJECTID":14729},"geometry":{"x":169519.0999999987,"y":2546478.1100000013}},{"attributes":{"ID":14730,"DIS_CODE":0,"TOWNNAME":"北區","LI":"正覺里","LIN":"24鄰","STREET":"公園路","SECT":" ","MAREA":" ","LANE":"７６９巷","ALLEY":"３２弄","HOUSE_NO":"８號","E_COORD97":169521.76000000001,"N_COORD97":2546488.4700000002,"ADDRESS":"公園路７６９巷３２弄８號","OBJECTID":14730},"geometry":{"x":169521.76000000164,"y":2546488.4700000007}},{"attributes":{"ID":14731,"DIS_CODE":0,"TOWNNAME":"北區","LI":"正覺里","LIN":"24鄰","STREET":"公園路","SECT":" ","MAREA":" ","LANE":"７６９巷","ALLEY":"３２弄","HOUSE_NO":"９號","E_COORD97":169514.91,"N_COORD97":2546479.1499999999,"ADDRESS":"公園路７６９巷３２弄９號","OBJECTID":14731},"geometry":{"x":169514.91000000108,"y":2546479.1500000022}},{"attributes":{"ID":14732,"DIS_CODE":0,"TOWNNAME":"仁德區","LI":"成功里","LIN":"1鄰","STREET":"保生東路","SECT":" ","MAREA":" ","LANE":"１３８巷","ALLEY":"６弄","HOUSE_NO":"１２號","E_COORD97":171203.79791600001,"N_COORD97":2539557.65625,"ADDRESS":"保生東路１３８巷６弄１２號","OBJECTID":14732},"geometry":{"x":171203.79791600071,"y":2539557.656251004}},{"attributes":{"ID":14733,"DIS_CODE":0,"TOWNNAME":"鹽水區","LI":"岸內里","LIN":"24鄰","STREET":"北門路","SECT":" ","MAREA":" ","LANE":"９巷","ALLEY":"６弄","HOUSE_NO":"１１號","E_COORD97":175380.75,"N_COORD97":2580454.4500000002,"ADDRESS":"北門路９巷６弄１１號","OBJECTID":14733},"geometry":{"x":175380.75000000093,"y":2580454.4500000011}},{"attributes":{"ID":14734,"DIS_CODE":0,"TOWNNAME":"鹽水區","LI":"岸內里","LIN":"24鄰","STREET":"北門路","SECT":" ","MAREA":" ","LANE":"９巷","ALLEY":"６弄","HOUSE_NO":"１３號","E_COORD97":175379.01000000001,"N_COORD97":2580462.48,"ADDRESS":"北門路９巷６弄１３號","OBJECTID":14734},"geometry":{"x":175379.01000000071,"y":2580462.4800000023}},{"attributes":{"ID":14735,"DIS_CODE":0,"TOWNNAME":"六甲區","LI":"中社里","LIN":"2鄰","STREET":" ","SECT":" ","MAREA":"中社","LANE":" ","ALLEY":" ","HOUSE_NO":"３４號","E_COORD97":181183.01000000001,"N_COORD97":2570873.52,"ADDRESS":"中社３４號","OBJECTID":14735},"geometry":{"x":181183.01000000164,"y":2570873.5200000014}},{"attributes":{"ID":14736,"DIS_CODE":0,"TOWNNAME":"鹽水區","LI":"岸內里","LIN":"24鄰","STREET":"北門路","SECT":" ","MAREA":" ","LANE":"９巷","ALLEY":"６弄","HOUSE_NO":"１５號","E_COORD97":175379.04999999999,"N_COORD97":2580470.2799999998,"ADDRESS":"北門路９巷６弄１５號","OBJECTID":14736},"geometry":{"x":175379.05000000075,"y":2580470.2799999993}},{"attributes":{"ID":14737,"DIS_CODE":0,"TOWNNAME":"善化區","LI":"小新里","LIN":"13鄰","STREET":" ","SECT":" ","MAREA":"小新營","LANE":" ","ALLEY":" ","HOUSE_NO":"１０６之２５號","E_COORD97":179646.29000000001,"N_COORD97":2558123.52,"ADDRESS":"小新營１０６之２５號","OBJECTID":14737},"geometry":{"x":179646.29000000004,"y":2558123.5199999996}},{"attributes":{"ID":14738,"DIS_CODE":0,"TOWNNAME":"鹽水區","LI":"岸內里","LIN":"24鄰","STREET":"北門路","SECT":" ","MAREA":" ","LANE":"９巷","ALLEY":"６弄","HOUSE_NO":"１７號","E_COORD97":175397.97,"N_COORD97":2580471.5600000001,"ADDRESS":"北門路９巷６弄１７號","OBJECTID":14738},"geometry":{"x":175397.97000000067,"y":2580471.5600000024}},{"attributes":{"ID":14739,"DIS_CODE":0,"TOWNNAME":"善化區","LI":"小新里","LIN":"13鄰","STREET":" ","SECT":" ","MAREA":"小新營","LANE":" ","ALLEY":" ","HOUSE_NO":"１０６之１１號","E_COORD97":179653.48999999999,"N_COORD97":2558098.02,"ADDRESS":"小新營１０６之１１號","OBJECTID":14739},"geometry":{"x":179653.49000000115,"y":2558098.0200000014}},{"attributes":{"ID":14740,"DIS_CODE":0,"TOWNNAME":"善化區","LI":"小新里","LIN":"13鄰","STREET":" ","SECT":" ","MAREA":"小新營","LANE":" ","ALLEY":" ","HOUSE_NO":"１０６之１８號","E_COORD97":179675.98999999999,"N_COORD97":2558110.77,"ADDRESS":"小新營１０６之１８號","OBJECTID":14740},"geometry":{"x":179675.99000000022,"y":2558110.7699999996}},{"attributes":{"ID":14741,"DIS_CODE":0,"TOWNNAME":"善化區","LI":"田寮里","LIN":"13鄰","STREET":" ","SECT":" ","MAREA":"六分寮","LANE":" ","ALLEY":" ","HOUSE_NO":"１４２號之１６","E_COORD97":178789.88,"N_COORD97":2561074.27,"ADDRESS":"六分寮１４２號之１６","OBJECTID":14741},"geometry":{"x":178789.87999999989,"y":2561074.2699999996}},{"attributes":{"ID":14742,"DIS_CODE":0,"TOWNNAME":"善化區","LI":"六德里","LIN":"13鄰","STREET":" ","SECT":" ","MAREA":"六分寮","LANE":" ","ALLEY":" ","HOUSE_NO":"３０５之１號","E_COORD97":178541.89999999999,"N_COORD97":2561520.02,"ADDRESS":"六分寮３０５之１號","OBJECTID":14742},"geometry":{"x":178541.9000000013,"y":2561520.0199999996}},{"attributes":{"ID":14743,"DIS_CODE":0,"TOWNNAME":"鹽水區","LI":"岸內里","LIN":"24鄰","STREET":"北門路","SECT":" ","MAREA":" ","LANE":"９巷","ALLEY":"６弄","HOUSE_NO":"１９號","E_COORD97":175398.38,"N_COORD97":2580463.8199999998,"ADDRESS":"北門路９巷６弄１９號","OBJECTID":14743},"geometry":{"x":175398.38000000082,"y":2580463.8200000022}},{"attributes":{"ID":14744,"DIS_CODE":0,"TOWNNAME":"善化區","LI":"牛庄里","LIN":"13鄰","STREET":" ","SECT":" ","MAREA":"牛庄","LANE":" ","ALLEY":" ","HOUSE_NO":"１之１５號","E_COORD97":180175.59,"N_COORD97":2559504.27,"ADDRESS":"牛庄１之１５號","OBJECTID":14744},"geometry":{"x":180175.59000000171,"y":2559504.2699999996}},{"attributes":{"ID":14745,"DIS_CODE":0,"TOWNNAME":"鹽水區","LI":"岸內里","LIN":"24鄰","STREET":"北門路","SECT":" ","MAREA":" ","LANE":"９巷","ALLEY":"６弄","HOUSE_NO":"１號","E_COORD97":175362.07000000001,"N_COORD97":2580435.6000000001,"ADDRESS":"北門路９巷６弄１號","OBJECTID":14745},"geometry":{"x":175362.07000000123,"y":2580435.5999999978}},{"attributes":{"ID":14746,"DIS_CODE":0,"TOWNNAME":"善化區","LI":"六德里","LIN":"13鄰","STREET":" ","SECT":" ","MAREA":"六分寮","LANE":" ","ALLEY":" ","HOUSE_NO":"３０６號","E_COORD97":178589.29999999999,"N_COORD97":2561503.5,"ADDRESS":"六分寮３０６號","OBJECTID":14746},"geometry":{"x":178589.30000000075,"y":2561503.5}},{"attributes":{"ID":14747,"DIS_CODE":0,"TOWNNAME":"鹽水區","LI":"岸內里","LIN":"24鄰","STREET":"北門路","SECT":" ","MAREA":" ","LANE":"９巷","ALLEY":"６弄","HOUSE_NO":"２１號","E_COORD97":175398.79000000001,"N_COORD97":2580456.0699999998,"ADDRESS":"北門路９巷６弄２１號","OBJECTID":14747},"geometry":{"x":175398.79000000004,"y":2580456.0700000003}},{"attributes":{"ID":14748,"DIS_CODE":0,"TOWNNAME":"善化區","LI":"光文里","LIN":"13鄰","STREET":"仁愛路","SECT":" ","MAREA":" ","LANE":" ","ALLEY":" ","HOUSE_NO":"８１號","E_COORD97":178487.32999999999,"N_COORD97":2559089.7599999998,"ADDRESS":"仁愛路８１號","OBJECTID":14748},"geometry":{"x":178487.33000000194,"y":2559089.7600000016}},{"attributes":{"ID":14749,"DIS_CODE":0,"TOWNNAME":"善化區","LI":"文昌里","LIN":"13鄰","STREET":"文昌路","SECT":" ","MAREA":" ","LANE":" ","ALLEY":" ","HOUSE_NO":"２４號之２","E_COORD97":177481.17999999999,"N_COORD97":2558805.7799999998,"ADDRESS":"文昌路２４號之２","OBJECTID":14749},"geometry":{"x":177481.18000000156,"y":2558805.7799999993}},{"attributes":{"ID":14750,"DIS_CODE":0,"TOWNNAME":"鹽水區","LI":"岸內里","LIN":"24鄰","STREET":"北門路","SECT":" ","MAREA":" ","LANE":"９巷","ALLEY":"６弄","HOUSE_NO":"２３號","E_COORD97":175399.20999999999,"N_COORD97":2580448.3300000001,"ADDRESS":"北門路９巷６弄２３號","OBJECTID":14750},"geometry":{"x":175399.20999999996,"y":2580448.3300000038}},{"attributes":{"ID":14751,"DIS_CODE":0,"TOWNNAME":"鹽水區","LI":"岸內里","LIN":"24鄰","STREET":"北門路","SECT":" ","MAREA":" ","LANE":"９巷","ALLEY":"６弄","HOUSE_NO":"２４號","E_COORD97":175399.20999999999,"N_COORD97":2580412.5899999999,"ADDRESS":"北門路９巷６弄２４號","OBJECTID":14751},"geometry":{"x":175399.20999999996,"y":2580412.5900000036}},{"attributes":{"ID":14752,"DIS_CODE":0,"TOWNNAME":"鹽水區","LI":"岸內里","LIN":"24鄰","STREET":"北門路","SECT":" ","MAREA":" ","LANE":"９巷","ALLEY":"６弄","HOUSE_NO":"２５號","E_COORD97":175397.60999999999,"N_COORD97":2580438.5699999998,"ADDRESS":"北門路９巷６弄２５號","OBJECTID":14752},"geometry":{"x":175397.61000000127,"y":2580438.5700000003}},{"attributes":{"ID":14753,"DIS_CODE":0,"TOWNNAME":"鹽水區","LI":"岸內里","LIN":"24鄰","STREET":"北門路","SECT":" ","MAREA":" ","LANE":"９巷","ALLEY":"６弄","HOUSE_NO":"２７號","E_COORD97":175404.17999999999,"N_COORD97":2580439.21,"ADDRESS":"北門路９巷６弄２７號","OBJECTID":14753},"geometry":{"x":175404.1799999997,"y":2580439.2100000009}},{"attributes":{"ID":14754,"DIS_CODE":0,"TOWNNAME":"鹽水區","LI":"岸內里","LIN":"24鄰","STREET":"北門路","SECT":" ","MAREA":" ","LANE":"９巷","ALLEY":"６弄","HOUSE_NO":"２８號","E_COORD97":175387.57999999999,"N_COORD97":2580418.0299999998,"ADDRESS":"北門路９巷６弄２８號","OBJECTID":14754},"geometry":{"x":175387.58000000101,"y":2580418.0299999993}},{"attributes":{"ID":14755,"DIS_CODE":0,"TOWNNAME":"鹽水區","LI":"岸內里","LIN":"24鄰","STREET":"北門路","SECT":" ","MAREA":" ","LANE":"９巷","ALLEY":"６弄","HOUSE_NO":"２９號","E_COORD97":175382.70000000001,"N_COORD97":2580417.6200000001,"ADDRESS":"北門路９巷６弄２９號","OBJECTID":14755},"geometry":{"x":175382.69999999925,"y":2580417.6200000029}},{"attributes":{"ID":14756,"DIS_CODE":0,"TOWNNAME":"鹽水區","LI":"岸內里","LIN":"24鄰","STREET":"北門路","SECT":" ","MAREA":" ","LANE":"９巷","ALLEY":"６弄","HOUSE_NO":"３０號","E_COORD97":175377.42999999999,"N_COORD97":2580417.2000000002,"ADDRESS":"北門路９巷６弄３０號","OBJECTID":14756},"geometry":{"x":175377.43000000156,"y":2580417.1999999993}},{"attributes":{"ID":14757,"DIS_CODE":0,"TOWNNAME":"鹽水區","LI":"岸內里","LIN":"24鄰","STREET":"北門路","SECT":" ","MAREA":" ","LANE":"９巷","ALLEY":"６弄","HOUSE_NO":"３１號","E_COORD97":175372.95999999999,"N_COORD97":2580416.9900000002,"ADDRESS":"北門路９巷６弄３１號","OBJECTID":14757},"geometry":{"x":175372.96000000089,"y":2580416.9900000039}},{"attributes":{"ID":14758,"DIS_CODE":0,"TOWNNAME":"鹽水區","LI":"岸內里","LIN":"24鄰","STREET":"北門路","SECT":" ","MAREA":" ","LANE":"９巷","ALLEY":"６弄","HOUSE_NO":"３２號","E_COORD97":175367.73999999999,"N_COORD97":2580416.9300000002,"ADDRESS":"北門路９巷６弄３２號","OBJECTID":14758},"geometry":{"x":175367.74000000115,"y":2580416.9300000034}},{"attributes":{"ID":14759,"DIS_CODE":0,"TOWNNAME":"鹽水區","LI":"岸內里","LIN":"24鄰","STREET":"北門路","SECT":" ","MAREA":" ","LANE":"９巷","ALLEY":"６弄","HOUSE_NO":"３３號","E_COORD97":175362.91,"N_COORD97":2580416.27,"ADDRESS":"北門路９巷６弄３３號","OBJECTID":14759},"geometry":{"x":175362.91000000108,"y":2580416.2699999996}},{"attributes":{"ID":14760,"DIS_CODE":0,"TOWNNAME":"鹽水區","LI":"岸內里","LIN":"24鄰","STREET":"北門路","SECT":" ","MAREA":" ","LANE":"９巷","ALLEY":"６弄","HOUSE_NO":"３５號","E_COORD97":175357.69,"N_COORD97":2580416.1699999999,"ADDRESS":"北門路９巷６弄３５號","OBJECTID":14760},"geometry":{"x":175357.69000000227,"y":2580416.1700000018}},{"attributes":{"ID":14761,"DIS_CODE":0,"TOWNNAME":"鹽水區","LI":"岸內里","LIN":"24鄰","STREET":"北門路","SECT":" ","MAREA":" ","LANE":"９巷","ALLEY":"６弄","HOUSE_NO":"３６號","E_COORD97":175352.82999999999,"N_COORD97":2580415.6499999999,"ADDRESS":"北門路９巷６弄３６號","OBJECTID":14761},"geometry":{"x":175352.83000000007,"y":2580415.6500000004}},{"attributes":{"ID":14762,"DIS_CODE":0,"TOWNNAME":"鹽水區","LI":"岸內里","LIN":"24鄰","STREET":"北門路","SECT":" ","MAREA":" ","LANE":"９巷","ALLEY":"６弄","HOUSE_NO":"３７號","E_COORD97":175347.97,"N_COORD97":2580415.6299999999,"ADDRESS":"北門路９巷６弄３７號","OBJECTID":14762},"geometry":{"x":175347.96999999974,"y":2580415.6300000008}},{"attributes":{"ID":14763,"DIS_CODE":0,"TOWNNAME":"鹽水區","LI":"岸內里","LIN":"24鄰","STREET":"北門路","SECT":" ","MAREA":" ","LANE":"９巷","ALLEY":"６弄","HOUSE_NO":"３８號","E_COORD97":175343.06,"N_COORD97":2580415.1099999999,"ADDRESS":"北門路９巷６弄３８號","OBJECTID":14763},"geometry":{"x":175343.06000000052,"y":2580415.1100000031}},{"attributes":{"ID":14764,"DIS_CODE":0,"TOWNNAME":"鹽水區","LI":"岸內里","LIN":"24鄰","STREET":"北門路","SECT":" ","MAREA":" ","LANE":"９巷","ALLEY":"６弄","HOUSE_NO":"３號","E_COORD97":175369.20000000001,"N_COORD97":2580436.4100000001,"ADDRESS":"北門路９巷６弄３號","OBJECTID":14764},"geometry":{"x":175369.20000000205,"y":2580436.4100000001}},{"attributes":{"ID":14765,"DIS_CODE":0,"TOWNNAME":"鹽水區","LI":"岸內里","LIN":"24鄰","STREET":"北門路","SECT":" ","MAREA":" ","LANE":"９巷","ALLEY":"６弄","HOUSE_NO":"５號","E_COORD97":175376.14999999999,"N_COORD97":2580436.8599999999,"ADDRESS":"北門路９巷６弄５號","OBJECTID":14765},"geometry":{"x":175376.15000000037,"y":2580436.8599999994}},{"attributes":{"ID":14766,"DIS_CODE":0,"TOWNNAME":"鹽水區","LI":"岸內里","LIN":"24鄰","STREET":"北門路","SECT":" ","MAREA":" ","LANE":"９巷","ALLEY":"６弄","HOUSE_NO":"７號","E_COORD97":175383.51999999999,"N_COORD97":2580437.1699999999,"ADDRESS":"北門路９巷６弄７號","OBJECTID":14766},"geometry":{"x":175383.52000000048,"y":2580437.1700000018}},{"attributes":{"ID":14767,"DIS_CODE":0,"TOWNNAME":"鹽水區","LI":"岸內里","LIN":"24鄰","STREET":"北門路","SECT":" ","MAREA":" ","LANE":"９巷","ALLEY":"６弄","HOUSE_NO":"９號","E_COORD97":175380.75,"N_COORD97":2580446.54,"ADDRESS":"北門路９巷６弄９號","OBJECTID":14767},"geometry":{"x":175380.75000000093,"y":2580446.540000001}},{"attributes":{"ID":14768,"DIS_CODE":0,"TOWNNAME":"北區","LI":"成功里","LIN":"24鄰","STREET":"北成路","SECT":" ","MAREA":" ","LANE":"１８６巷","ALLEY":"４弄","HOUSE_NO":"１０號","E_COORD97":168856.39999999999,"N_COORD97":2546744.21,"ADDRESS":"北成路１８６巷４弄１０號","OBJECTID":14768},"geometry":{"x":168856.40000000037,"y":2546744.2100000028}},{"attributes":{"ID":14769,"DIS_CODE":0,"TOWNNAME":"北區","LI":"成功里","LIN":"24鄰","STREET":"北成路","SECT":" ","MAREA":" ","LANE":"１８６巷","ALLEY":"４弄","HOUSE_NO":"１１號","E_COORD97":168861.20999999999,"N_COORD97":2546741.96,"ADDRESS":"北成路１８６巷４弄１１號","OBJECTID":14769},"geometry":{"x":168861.21000000183,"y":2546741.9600000028}},{"attributes":{"ID":14770,"DIS_CODE":0,"TOWNNAME":"東區","LI":"裕聖里","LIN":"20鄰","STREET":"裕忠路","SECT":" ","MAREA":" ","LANE":" ","ALLEY":" ","HOUSE_NO":"２９５之１０號","E_COORD97":172318.95999999999,"N_COORD97":2542375.7000000002,"ADDRESS":"裕忠路２９５之１０號","OBJECTID":14770},"geometry":{"x":172318.95999999996,"y":2542375.7000000011}},{"attributes":{"ID":14771,"DIS_CODE":0,"TOWNNAME":"七股區","LI":"七股里","LIN":"14鄰","STREET":" ","SECT":" ","MAREA":"七股","LANE":" ","ALLEY":" ","HOUSE_NO":"１４８號","E_COORD97":161243.04999999999,"N_COORD97":2559424.7599999998,"ADDRESS":"七股１４８號","OBJECTID":14771},"geometry":{"x":161243.04999999981,"y":2559424.7600000035}},{"attributes":{"ID":14772,"DIS_CODE":0,"TOWNNAME":"北區","LI":"成功里","LIN":"24鄰","STREET":"北成路","SECT":" ","MAREA":" ","LANE":"１８６巷","ALLEY":"４弄","HOUSE_NO":"１２號","E_COORD97":168865.06,"N_COORD97":2546739.3999999999,"ADDRESS":"北成路１８６巷４弄１２號","OBJECTID":14772},"geometry":{"x":168865.06000000145,"y":2546739.4000000004}},{"attributes":{"ID":14773,"DIS_CODE":0,"TOWNNAME":"北區","LI":"成功里","LIN":"24鄰","STREET":"北成路","SECT":" ","MAREA":" ","LANE":"１８６巷","ALLEY":"４弄","HOUSE_NO":"１３號","E_COORD97":168869.54999999999,"N_COORD97":2546737.1600000001,"ADDRESS":"北成路１８６巷４弄１３號","OBJECTID":14773},"geometry":{"x":168869.55000000075,"y":2546737.160000002}},{"attributes":{"ID":14774,"DIS_CODE":0,"TOWNNAME":"北區","LI":"成功里","LIN":"24鄰","STREET":"北成路","SECT":" ","MAREA":" ","LANE":"１８６巷","ALLEY":"４弄","HOUSE_NO":"１４號","E_COORD97":168874.03,"N_COORD97":2546735.2400000002,"ADDRESS":"北成路１８６巷４弄１４號","OBJECTID":14774},"geometry":{"x":168874.03000000026,"y":2546735.2400000039}},{"attributes":{"ID":14775,"DIS_CODE":0,"TOWNNAME":"北區","LI":"成功里","LIN":"24鄰","STREET":"北成路","SECT":" ","MAREA":" ","LANE":"１８６巷","ALLEY":"４弄","HOUSE_NO":"１號","E_COORD97":168816.64000000001,"N_COORD97":2546765.6600000001,"ADDRESS":"北成路１８６巷４弄１號","OBJECTID":14775},"geometry":{"x":168816.63999999966,"y":2546765.6600000001}},{"attributes":{"ID":14776,"DIS_CODE":0,"TOWNNAME":"北區","LI":"成功里","LIN":"24鄰","STREET":"北成路","SECT":" ","MAREA":" ","LANE":"１８６巷","ALLEY":"４弄","HOUSE_NO":"２號","E_COORD97":168822.41,"N_COORD97":2546762.46,"ADDRESS":"北成路１８６巷４弄２號","OBJECTID":14776},"geometry":{"x":168822.41000000015,"y":2546762.4600000028}},{"attributes":{"ID":14777,"DIS_CODE":0,"TOWNNAME":"北區","LI":"成功里","LIN":"24鄰","STREET":"北成路","SECT":" ","MAREA":" ","LANE":"１８６巷","ALLEY":"４弄","HOUSE_NO":"３號","E_COORD97":168826.26000000001,"N_COORD97":2546760.54,"ADDRESS":"北成路１８６巷４弄３號","OBJECTID":14777},"geometry":{"x":168826.25999999978,"y":2546760.540000001}},{"attributes":{"ID":14778,"DIS_CODE":0,"TOWNNAME":"北區","LI":"成功里","LIN":"24鄰","STREET":"北成路","SECT":" ","MAREA":" ","LANE":"１８６巷","ALLEY":"４弄","HOUSE_NO":"４號","E_COORD97":168830.42999999999,"N_COORD97":2546758.2999999998,"ADDRESS":"北成路１８６巷４弄４號","OBJECTID":14778},"geometry":{"x":168830.42999999877,"y":2546758.3000000007}},{"attributes":{"ID":14779,"DIS_CODE":0,"TOWNNAME":"北區","LI":"成功里","LIN":"24鄰","STREET":"北成路","SECT":" ","MAREA":" ","LANE":"１８６巷","ALLEY":"４弄","HOUSE_NO":"５號","E_COORD97":168834.60000000001,"N_COORD97":2546756.0600000001,"ADDRESS":"北成路１８６巷４弄５號","OBJECTID":14779},"geometry":{"x":168834.60000000056,"y":2546756.0600000005}},{"attributes":{"ID":14780,"DIS_CODE":0,"TOWNNAME":"北區","LI":"成功里","LIN":"24鄰","STREET":"北成路","SECT":" ","MAREA":" ","LANE":"１８６巷","ALLEY":"４弄","HOUSE_NO":"６號","E_COORD97":168839.07999999999,"N_COORD97":2546752.8500000001,"ADDRESS":"北成路１８６巷４弄６號","OBJECTID":14780},"geometry":{"x":168839.08000000101,"y":2546752.8499999996}},{"attributes":{"ID":14781,"DIS_CODE":0,"TOWNNAME":"北區","LI":"成功里","LIN":"24鄰","STREET":"北成路","SECT":" ","MAREA":" ","LANE":"１８６巷","ALLEY":"４弄","HOUSE_NO":"７號","E_COORD97":168844.20999999999,"N_COORD97":2546751.25,"ADDRESS":"北成路１８６巷４弄７號","OBJECTID":14781},"geometry":{"x":168844.21000000183,"y":2546751.25}},{"attributes":{"ID":14782,"DIS_CODE":0,"TOWNNAME":"北區","LI":"三德里","LIN":"5鄰","STREET":"裕民街","SECT":" ","MAREA":" ","LANE":" ","ALLEY":" ","HOUSE_NO":"６８號","E_COORD97":168491.37,"N_COORD97":2544491.1400000001,"ADDRESS":"裕民街６８號","OBJECTID":14782},"geometry":{"x":168491.37000000104,"y":2544491.1400000006}},{"attributes":{"ID":14783,"DIS_CODE":0,"TOWNNAME":"北區","LI":"成功里","LIN":"24鄰","STREET":"北成路","SECT":" ","MAREA":" ","LANE":"１８６巷","ALLEY":"４弄","HOUSE_NO":"８號","E_COORD97":168848.06,"N_COORD97":2546748.6899999999,"ADDRESS":"北成路１８６巷４弄８號","OBJECTID":14783},"geometry":{"x":168848.05999999866,"y":2546748.6900000013}},{"attributes":{"ID":14784,"DIS_CODE":0,"TOWNNAME":"北區","LI":"成功里","LIN":"24鄰","STREET":"北成路","SECT":" ","MAREA":" ","LANE":"１８６巷","ALLEY":"４弄","HOUSE_NO":"９號","E_COORD97":168851.91,"N_COORD97":2546746.4500000002,"ADDRESS":"北成路１８６巷４弄９號","OBJECTID":14784},"geometry":{"x":168851.91000000108,"y":2546746.450000003}},{"attributes":{"ID":14785,"DIS_CODE":0,"TOWNNAME":"歸仁區","LI":"南保里","LIN":"24鄰","STREET":"文化街","SECT":"三段","MAREA":" ","LANE":"１０５巷","ALLEY":"１９弄","HOUSE_NO":"９號","E_COORD97":176810.48999999999,"N_COORD97":2541144.3300000001,"ADDRESS":"文化街三段１０５巷１９弄９號","OBJECTID":14785},"geometry":{"x":176810.49000000115,"y":2541144.3300000019}},{"attributes":{"ID":14786,"DIS_CODE":0,"TOWNNAME":"歸仁區","LI":"歸南里","LIN":"24鄰","STREET":"民生八街","SECT":" ","MAREA":" ","LANE":"２１巷","ALLEY":"１弄","HOUSE_NO":"１７號","E_COORD97":176156.16,"N_COORD97":2540310.25,"ADDRESS":"民生八街２１巷１弄１７號","OBJECTID":14786},"geometry":{"x":176156.16000000201,"y":2540310.2500000037}},{"attributes":{"ID":14787,"DIS_CODE":0,"TOWNNAME":"七股區","LI":"七股里","LIN":"14鄰","STREET":" ","SECT":" ","MAREA":"七股","LANE":" ","ALLEY":" ","HOUSE_NO":"１４９號","E_COORD97":161245.14000000001,"N_COORD97":2559428.46,"ADDRESS":"七股１４９號","OBJECTID":14787},"geometry":{"x":161245.1400000006,"y":2559428.4600000028}},{"attributes":{"ID":14788,"DIS_CODE":0,"TOWNNAME":"七股區","LI":"七股里","LIN":"14鄰","STREET":" ","SECT":" ","MAREA":"七股","LANE":" ","ALLEY":" ","HOUSE_NO":"１５０號之２","E_COORD97":161249.66,"N_COORD97":2559438.8500000001,"ADDRESS":"七股１５０號之２","OBJECTID":14788},"geometry":{"x":161249.66000000015,"y":2559438.8500000015}},{"attributes":{"ID":14789,"DIS_CODE":0,"TOWNNAME":"七股區","LI":"七股里","LIN":"14鄰","STREET":" ","SECT":" ","MAREA":"七股","LANE":" ","ALLEY":" ","HOUSE_NO":"１５０號","E_COORD97":161246.72,"N_COORD97":2559431.4399999999,"ADDRESS":"七股１５０號","OBJECTID":14789},"geometry":{"x":161246.72000000067,"y":2559431.4400000013}},{"attributes":{"ID":14790,"DIS_CODE":0,"TOWNNAME":"七股區","LI":"七股里","LIN":"14鄰","STREET":" ","SECT":" ","MAREA":"七股","LANE":" ","ALLEY":" ","HOUSE_NO":"１５３號","E_COORD97":161253.37,"N_COORD97":2559442.2200000002,"ADDRESS":"七股１５３號","OBJECTID":14790},"geometry":{"x":161253.37000000011,"y":2559442.2200000007}},{"attributes":{"ID":14791,"DIS_CODE":0,"TOWNNAME":"七股區","LI":"七股里","LIN":"14鄰","STREET":" ","SECT":" ","MAREA":"七股","LANE":" ","ALLEY":" ","HOUSE_NO":"１５４號之１","E_COORD97":161261.48000000001,"N_COORD97":2559331.0099999998,"ADDRESS":"七股１５４號之１","OBJECTID":14791},"geometry":{"x":161261.48000000045,"y":2559331.0099999998}},{"attributes":{"ID":14792,"DIS_CODE":0,"TOWNNAME":"佳里區","LI":"子龍里","LIN":"14鄰","STREET":" ","SECT":" ","MAREA":"子良廟","LANE":" ","ALLEY":" ","HOUSE_NO":"１５０號","E_COORD97":169012.78,"N_COORD97":2563811.77,"ADDRESS":"子良廟１５０號","OBJECTID":14792},"geometry":{"x":169012.78000000026,"y":2563811.7700000033}},{"attributes":{"ID":14793,"DIS_CODE":0,"TOWNNAME":"佳里區","LI":"子龍里","LIN":"14鄰","STREET":" ","SECT":" ","MAREA":"子良廟","LANE":" ","ALLEY":" ","HOUSE_NO":"１５１號之１","E_COORD97":169057.63,"N_COORD97":2563712.5099999998,"ADDRESS":"子良廟１５１號之１","OBJECTID":14793},"geometry":{"x":169057.62999999989,"y":2563712.5100000016}},{"attributes":{"ID":14794,"DIS_CODE":0,"TOWNNAME":"佳里區","LI":"子龍里","LIN":"14鄰","STREET":" ","SECT":" ","MAREA":"子良廟","LANE":" ","ALLEY":" ","HOUSE_NO":"１５１號之３","E_COORD97":169024.48999999999,"N_COORD97":2563713.0499999998,"ADDRESS":"子良廟１５１號之３","OBJECTID":14794},"geometry":{"x":169024.49000000115,"y":2563713.0500000026}},{"attributes":{"ID":14795,"DIS_CODE":0,"TOWNNAME":"佳里區","LI":"子龍里","LIN":"14鄰","STREET":" ","SECT":" ","MAREA":"子良廟","LANE":" ","ALLEY":" ","HOUSE_NO":"１５２號","E_COORD97":169072.66,"N_COORD97":2563712.46,"ADDRESS":"子良廟１５２號","OBJECTID":14795},"geometry":{"x":169072.66000000108,"y":2563712.4600000009}},{"attributes":{"ID":14796,"DIS_CODE":0,"TOWNNAME":"新市區","LI":"潭頂里","LIN":"14鄰","STREET":" ","SECT":" ","MAREA":"潭頂","LANE":" ","ALLEY":" ","HOUSE_NO":"５３７之８號","E_COORD97":180185.28,"N_COORD97":2552854.5499999998,"ADDRESS":"潭頂５３７之８號","OBJECTID":14796},"geometry":{"x":180185.28000000119,"y":2552854.5500000026}},{"attributes":{"ID":14797,"DIS_CODE":0,"TOWNNAME":"新市區","LI":"潭頂里","LIN":"14鄰","STREET":" ","SECT":" ","MAREA":"潭頂","LANE":" ","ALLEY":" ","HOUSE_NO":"５４９之５號","E_COORD97":180085.82999999999,"N_COORD97":2552950.7999999998,"ADDRESS":"潭頂５４９之５號","OBJECTID":14797},"geometry":{"x":180085.82999999914,"y":2552950.8000000026}},{"attributes":{"ID":14798,"DIS_CODE":0,"TOWNNAME":"歸仁區","LI":"許厝里","LIN":"24鄰","STREET":"大仁街","SECT":" ","MAREA":" ","LANE":"１２６巷","ALLEY":"１７弄","HOUSE_NO":"３號","E_COORD97":178236.88,"N_COORD97":2540941.25,"ADDRESS":"大仁街１２６巷１７弄３號","OBJECTID":14798},"geometry":{"x":178236.87999999989,"y":2540941.2500000019}},{"attributes":{"ID":14799,"DIS_CODE":0,"TOWNNAME":"歸仁區","LI":"許厝里","LIN":"24鄰","STREET":"大仁街","SECT":" ","MAREA":" ","LANE":"１２６巷","ALLEY":"１７弄","HOUSE_NO":"６號","E_COORD97":178206.32000000001,"N_COORD97":2540949.1099999999,"ADDRESS":"大仁街１２６巷１７弄６號","OBJECTID":14799},"geometry":{"x":178206.32000000216,"y":2540949.1100000013}},{"attributes":{"ID":14800,"DIS_CODE":0,"TOWNNAME":"歸仁區","LI":"許厝里","LIN":"24鄰","STREET":"大仁街","SECT":" ","MAREA":" ","LANE":"１２６巷","ALLEY":"１７弄","HOUSE_NO":"８號","E_COORD97":178211.42000000001,"N_COORD97":2540951.1099999999,"ADDRESS":"大仁街１２６巷１７弄８號","OBJECTID":14800},"geometry":{"x":178211.41999999993,"y":2540951.1100000031}}]}