{"displayFieldName":"TOWNNAME","fieldAliases":{"ID":"ID","DIS_CODE":"DIS_CODE","TOWNNAME":"TOWNNAME","LI":"LI","LIN":"LIN","STREET":"STREET","SECT":"SECT","MAREA":"MAREA","LANE":"LANE","ALLEY":"ALLEY","HOUSE_NO":"HOUSE_NO","E_COORD97":"E_COORD97","N_COORD97":"N_COORD97","ADDRESS":"ADDRESS","OBJECTID":"OBJECTID"},"geometryType":"esriGeometryPoint","spatialReference":{"wkid":102443,"latestWkid":3826},"fields":[{"name":"ID","type":"esriFieldTypeDouble","alias":"ID"},{"name":"DIS_CODE","type":"esriFieldTypeInteger","alias":"DIS_CODE"},{"name":"TOWNNAME","type":"esriFieldTypeString","alias":"TOWNNAME","length":8},{"name":"LI","type":"esriFieldTypeString","alias":"LI","length":8},{"name":"LIN","type":"esriFieldTypeString","alias":"LIN","length":12},{"name":"STREET","type":"esriFieldTypeString","alias":"STREET","length":20},{"name":"SECT","type":"esriFieldTypeString","alias":"SECT","length":8},{"name":"MAREA","type":"esriFieldTypeString","alias":"MAREA","length":12},{"name":"LANE","type":"esriFieldTypeString","alias":"LANE","length":10},{"name":"ALLEY","type":"esriFieldTypeString","alias":"ALLEY","length":10},{"name":"HOUSE_NO","type":"esriFieldTypeString","alias":"HOUSE_NO","length":20},{"name":"E_COORD97","type":"esriFieldTypeDouble","alias":"E_COORD97"},{"name":"N_COORD97","type":"esriFieldTypeDouble","alias":"N_COORD97"},{"name":"ADDRESS","type":"esriFieldTypeString","alias":"ADDRESS","length":50},{"name":"OBJECTID","type":"esriFieldTypeOID","alias":"OBJECTID"}],"features":[{"attributes":{"ID":148402,"DIS_CODE":0,"TOWNNAME":"東區","LI":"大智里","LIN":"30鄰","STREET":"德東街","SECT":" ","MAREA":" ","LANE":"１５１巷","ALLEY":"３７弄","HOUSE_NO":"２６號","E_COORD97":171139.32000000001,"N_COORD97":2540401.6499999999,"ADDRESS":"德東街１５１巷３７弄２６號","OBJECTID":148401},"geometry":{"x":171139.32000000123,"y":2540401.6500000004}},{"attributes":{"ID":148403,"DIS_CODE":0,"TOWNNAME":"南區","LI":"府南里","LIN":" ","STREET":"金華路","SECT":"一段","MAREA":" ","LANE":" ","ALLEY":" ","HOUSE_NO":"５４８號","E_COORD97":167056.03,"N_COORD97":2541699.52,"ADDRESS":"金華路一段５４８號","OBJECTID":148402},"geometry":{"x":167056.03000000119,"y":2541699.5200000014}},{"attributes":{"ID":148404,"DIS_CODE":0,"TOWNNAME":"東區","LI":"大智里","LIN":"30鄰","STREET":"德東街","SECT":" ","MAREA":" ","LANE":"１５１巷","ALLEY":"３７弄","HOUSE_NO":"２８號","E_COORD97":171138.98999999999,"N_COORD97":2540393.2799999998,"ADDRESS":"德東街１５１巷３７弄２８號","OBJECTID":148403},"geometry":{"x":171138.99000000022,"y":2540393.2799999993}},{"attributes":{"ID":148405,"DIS_CODE":0,"TOWNNAME":"東區","LI":"大智里","LIN":"30鄰","STREET":"德東街","SECT":" ","MAREA":" ","LANE":"１５１巷","ALLEY":"３７弄","HOUSE_NO":"３０號","E_COORD97":171125.09,"N_COORD97":2540391.6099999999,"ADDRESS":"德東街１５１巷３７弄３０號","OBJECTID":148404},"geometry":{"x":171125.09000000078,"y":2540391.6099999975}},{"attributes":{"ID":148406,"DIS_CODE":0,"TOWNNAME":"官田區","LI":"西庄里","LIN":"3鄰","STREET":" ","SECT":" ","MAREA":"西庄","LANE":" ","ALLEY":" ","HOUSE_NO":"２０號之１","E_COORD97":177789.19,"N_COORD97":2565062.6099999999,"ADDRESS":"西庄２０號之１","OBJECTID":148405},"geometry":{"x":177789.19000000134,"y":2565062.6099999994}},{"attributes":{"ID":148407,"DIS_CODE":0,"TOWNNAME":"仁德區","LI":"保安里","LIN":"19鄰","STREET":"中正路","SECT":"一段","MAREA":" ","LANE":" ","ALLEY":" ","HOUSE_NO":"２６２號","E_COORD97":171750.39999999999,"N_COORD97":2535913.77,"ADDRESS":"中正路一段２６２號","OBJECTID":148406},"geometry":{"x":171750.40000000037,"y":2535913.7700000014}},{"attributes":{"ID":148408,"DIS_CODE":0,"TOWNNAME":"東區","LI":"大智里","LIN":"30鄰","STREET":"德東街","SECT":" ","MAREA":" ","LANE":"１５１巷","ALLEY":"３７弄","HOUSE_NO":"８號","E_COORD97":171154.89000000001,"N_COORD97":2540394.96,"ADDRESS":"德東街１５１巷３７弄８號","OBJECTID":148407},"geometry":{"x":171154.89000000153,"y":2540394.9600000028}},{"attributes":{"ID":148409,"DIS_CODE":0,"TOWNNAME":"仁德區","LI":"後壁里","LIN":"19鄰","STREET":"中正路","SECT":"二段","MAREA":" ","LANE":" ","ALLEY":" ","HOUSE_NO":"１８６號","E_COORD97":173228.82000000001,"N_COORD97":2538708.27,"ADDRESS":"中正路二段１８６號","OBJECTID":148408},"geometry":{"x":173228.8200000003,"y":2538708.2699999996}},{"attributes":{"ID":148410,"DIS_CODE":0,"TOWNNAME":"東區","LI":"莊敬里","LIN":"3鄰","STREET":"小東路","SECT":" ","MAREA":" ","LANE":"２５４巷","ALLEY":"３６弄","HOUSE_NO":"８號","E_COORD97":171153.82999999999,"N_COORD97":2544261.6499999999,"ADDRESS":"小東路２５４巷３６弄８號","OBJECTID":148409},"geometry":{"x":171153.83000000007,"y":2544261.6500000022}},{"attributes":{"ID":148411,"DIS_CODE":0,"TOWNNAME":"東區","LI":"龍山里","LIN":"3鄰","STREET":"富德街","SECT":" ","MAREA":" ","LANE":"２５巷","ALLEY":"１弄","HOUSE_NO":"１０號","E_COORD97":170311.38,"N_COORD97":2542812.6400000001,"ADDRESS":"富德街２５巷１弄１０號","OBJECTID":148410},"geometry":{"x":170311.38000000082,"y":2542812.6400000006}},{"attributes":{"ID":148412,"DIS_CODE":0,"TOWNNAME":"東區","LI":"龍山里","LIN":"3鄰","STREET":"富德街","SECT":" ","MAREA":" ","LANE":"２５巷","ALLEY":"１弄","HOUSE_NO":"１１號","E_COORD97":170346.97,"N_COORD97":2542782.3199999998,"ADDRESS":"富德街２５巷１弄１１號","OBJECTID":148411},"geometry":{"x":170346.96999999974,"y":2542782.3200000022}},{"attributes":{"ID":148413,"DIS_CODE":0,"TOWNNAME":"仁德區","LI":"保安里","LIN":"19鄰","STREET":"中正路","SECT":"一段","MAREA":" ","LANE":" ","ALLEY":" ","HOUSE_NO":"２６８號","E_COORD97":171780.38,"N_COORD97":2535934.02,"ADDRESS":"中正路一段２６８號","OBJECTID":148412},"geometry":{"x":171780.37999999989,"y":2535934.0199999977}},{"attributes":{"ID":148414,"DIS_CODE":0,"TOWNNAME":"東區","LI":"龍山里","LIN":"3鄰","STREET":"富德街","SECT":" ","MAREA":" ","LANE":"２５巷","ALLEY":"１弄","HOUSE_NO":"２號","E_COORD97":170344.70999999999,"N_COORD97":2542805.1600000001,"ADDRESS":"富德街２５巷１弄２號","OBJECTID":148413},"geometry":{"x":170344.71000000089,"y":2542805.1600000001}},{"attributes":{"ID":148415,"DIS_CODE":0,"TOWNNAME":"官田區","LI":"西庄里","LIN":"7鄰","STREET":" ","SECT":" ","MAREA":"西庄","LANE":" ","ALLEY":" ","HOUSE_NO":"４９號之１","E_COORD97":177905.20999999999,"N_COORD97":2565160.5800000001,"ADDRESS":"西庄４９號之１","OBJECTID":148414},"geometry":{"x":177905.21000000089,"y":2565160.5800000019}},{"attributes":{"ID":148416,"DIS_CODE":0,"TOWNNAME":"官田區","LI":"西庄里","LIN":"7鄰","STREET":" ","SECT":" ","MAREA":"西庄","LANE":" ","ALLEY":" ","HOUSE_NO":"４９號","E_COORD97":177903.35000000001,"N_COORD97":2565156.5899999999,"ADDRESS":"西庄４９號","OBJECTID":148415},"geometry":{"x":177903.34999999963,"y":2565156.5900000017}},{"attributes":{"ID":148417,"DIS_CODE":0,"TOWNNAME":"官田區","LI":"西庄里","LIN":"7鄰","STREET":" ","SECT":" ","MAREA":"西庄","LANE":" ","ALLEY":" ","HOUSE_NO":"５０號","E_COORD97":177903.97,"N_COORD97":2565149.2999999998,"ADDRESS":"西庄５０號","OBJECTID":148416},"geometry":{"x":177903.96999999974,"y":2565149.3000000026}},{"attributes":{"ID":148418,"DIS_CODE":0,"TOWNNAME":"官田區","LI":"西庄里","LIN":"1鄰","STREET":" ","SECT":" ","MAREA":"西庄","LANE":" ","ALLEY":" ","HOUSE_NO":"４號之１０","E_COORD97":177603.10999999999,"N_COORD97":2565033.8399999999,"ADDRESS":"西庄４號之１０","OBJECTID":148417},"geometry":{"x":177603.11000000127,"y":2565033.8399999999}},{"attributes":{"ID":148419,"DIS_CODE":0,"TOWNNAME":"東區","LI":"龍山里","LIN":"3鄰","STREET":"富德街","SECT":" ","MAREA":" ","LANE":"２５巷","ALLEY":"１弄","HOUSE_NO":"３號","E_COORD97":170355.79999999999,"N_COORD97":2542792.9500000002,"ADDRESS":"富德街２５巷１弄３號","OBJECTID":148418},"geometry":{"x":170355.80000000075,"y":2542792.9499999974}},{"attributes":{"ID":148420,"DIS_CODE":0,"TOWNNAME":"東區","LI":"龍山里","LIN":"3鄰","STREET":"富德街","SECT":" ","MAREA":" ","LANE":"２５巷","ALLEY":"１弄","HOUSE_NO":"１號","E_COORD97":170357.29999999999,"N_COORD97":2542795.3900000001,"ADDRESS":"富德街２５巷１弄１號","OBJECTID":148419},"geometry":{"x":170357.30000000168,"y":2542795.3900000025}},{"attributes":{"ID":148421,"DIS_CODE":0,"TOWNNAME":"東區","LI":"龍山里","LIN":"3鄰","STREET":"富德街","SECT":" ","MAREA":" ","LANE":"２５巷","ALLEY":"１弄","HOUSE_NO":"４號","E_COORD97":170344.04000000001,"N_COORD97":2542802.2000000002,"ADDRESS":"富德街２５巷１弄４號","OBJECTID":148420},"geometry":{"x":170344.0400000019,"y":2542802.2000000011}},{"attributes":{"ID":148422,"DIS_CODE":0,"TOWNNAME":"東區","LI":"龍山里","LIN":"3鄰","STREET":"富德街","SECT":" ","MAREA":" ","LANE":"２５巷","ALLEY":"１弄","HOUSE_NO":"５號","E_COORD97":170354.44,"N_COORD97":2542790.46,"ADDRESS":"富德街２５巷１弄５號","OBJECTID":148421},"geometry":{"x":170354.44000000041,"y":2542790.4600000009}},{"attributes":{"ID":148423,"DIS_CODE":0,"TOWNNAME":"東區","LI":"龍山里","LIN":"3鄰","STREET":"富德街","SECT":" ","MAREA":" ","LANE":"２５巷","ALLEY":"１弄","HOUSE_NO":"６號","E_COORD97":170341.09,"N_COORD97":2542799.2799999998,"ADDRESS":"富德街２５巷１弄６號","OBJECTID":148422},"geometry":{"x":170341.08999999985,"y":2542799.2800000012}},{"attributes":{"ID":148424,"DIS_CODE":0,"TOWNNAME":"東區","LI":"龍山里","LIN":"3鄰","STREET":"富德街","SECT":" ","MAREA":" ","LANE":"２５巷","ALLEY":"１弄","HOUSE_NO":"７號","E_COORD97":170353.31,"N_COORD97":2542787.0699999998,"ADDRESS":"富德街２５巷１弄７號","OBJECTID":148423},"geometry":{"x":170353.30999999959,"y":2542787.0700000022}},{"attributes":{"ID":148425,"DIS_CODE":0,"TOWNNAME":"官田區","LI":"官田里","LIN":"3鄰","STREET":" ","SECT":" ","MAREA":"官田","LANE":" ","ALLEY":" ","HOUSE_NO":"２１號","E_COORD97":182584.31,"N_COORD97":2565245.2400000002,"ADDRESS":"官田２１號","OBJECTID":148424},"geometry":{"x":182584.31000000145,"y":2565245.2400000002}},{"attributes":{"ID":148426,"DIS_CODE":0,"TOWNNAME":"仁德區","LI":"三甲里","LIN":"4鄰","STREET":" ","SECT":" ","MAREA":"三甲子","LANE":" ","ALLEY":" ","HOUSE_NO":"３７號之５","E_COORD97":171753.17999999999,"N_COORD97":2536830.79,"ADDRESS":"三甲子３７號之５","OBJECTID":148425},"geometry":{"x":171753.18000000063,"y":2536830.790000001}},{"attributes":{"ID":148427,"DIS_CODE":0,"TOWNNAME":"官田區","LI":"官田里","LIN":"18鄰","STREET":" ","SECT":" ","MAREA":"官田","LANE":" ","ALLEY":" ","HOUSE_NO":"２２７號","E_COORD97":182399.76999999999,"N_COORD97":2564496.3500000001,"ADDRESS":"官田２２７號","OBJECTID":148426},"geometry":{"x":182399.77000000142,"y":2564496.3500000015}},{"attributes":{"ID":148428,"DIS_CODE":0,"TOWNNAME":"仁德區","LI":"仁和里","LIN":"26鄰","STREET":" ","SECT":" ","MAREA":"仁和","LANE":" ","ALLEY":" ","HOUSE_NO":"５３３號","E_COORD97":170462.13047999999,"N_COORD97":2539772.25,"ADDRESS":"仁和５３３號","OBJECTID":148427},"geometry":{"x":170462.13048000075,"y":2539772.2500000019}},{"attributes":{"ID":148429,"DIS_CODE":0,"TOWNNAME":"仁德區","LI":"仁和里","LIN":"26鄰","STREET":" ","SECT":" ","MAREA":"仁和","LANE":" ","ALLEY":" ","HOUSE_NO":"５２６號","E_COORD97":170471.34703100001,"N_COORD97":2539781.25,"ADDRESS":"仁和５２６號","OBJECTID":148428},"geometry":{"x":170471.347031001,"y":2539781.2500000037}},{"attributes":{"ID":148430,"DIS_CODE":0,"TOWNNAME":"仁德區","LI":"中生里","LIN":"4鄰","STREET":" ","SECT":" ","MAREA":"中洲","LANE":" ","ALLEY":" ","HOUSE_NO":"１１２號","E_COORD97":172991.98000000001,"N_COORD97":2534272.7400000002,"ADDRESS":"中洲１１２號","OBJECTID":148429},"geometry":{"x":172991.98000000045,"y":2534272.7400000021}},{"attributes":{"ID":148431,"DIS_CODE":0,"TOWNNAME":"仁德區","LI":"中生里","LIN":"5鄰","STREET":" ","SECT":" ","MAREA":"中洲","LANE":" ","ALLEY":" ","HOUSE_NO":"１２４號","E_COORD97":172964.17999999999,"N_COORD97":2534317.5,"ADDRESS":"中洲１２４號","OBJECTID":148430},"geometry":{"x":172964.18000000063,"y":2534317.5000000037}},{"attributes":{"ID":148432,"DIS_CODE":0,"TOWNNAME":"仁德區","LI":"中生里","LIN":"4鄰","STREET":" ","SECT":" ","MAREA":"中洲","LANE":" ","ALLEY":" ","HOUSE_NO":"１１８之３號","E_COORD97":172941.16,"N_COORD97":2534279.54,"ADDRESS":"中洲１１８之３號","OBJECTID":148431},"geometry":{"x":172941.16000000015,"y":2534279.540000001}},{"attributes":{"ID":148433,"DIS_CODE":0,"TOWNNAME":"東區","LI":"龍山里","LIN":"3鄰","STREET":"富德街","SECT":" ","MAREA":" ","LANE":"２５巷","ALLEY":"１弄","HOUSE_NO":"９號","E_COORD97":170349.69,"N_COORD97":2542784.1299999999,"ADDRESS":"富德街２５巷１弄９號","OBJECTID":148432},"geometry":{"x":170349.69000000041,"y":2542784.129999999}},{"attributes":{"ID":148434,"DIS_CODE":0,"TOWNNAME":"東區","LI":"龍山里","LIN":"3鄰","STREET":"富德街","SECT":" ","MAREA":" ","LANE":"２５巷","ALLEY":"１弄","HOUSE_NO":"１６號","E_COORD97":170301.48999999999,"N_COORD97":2542818.96,"ADDRESS":"富德街２５巷１弄１６號","OBJECTID":148433},"geometry":{"x":170301.49000000022,"y":2542818.9600000028}},{"attributes":{"ID":148435,"DIS_CODE":0,"TOWNNAME":"官田區","LI":"隆本里","LIN":"19鄰","STREET":"興隆街","SECT":" ","MAREA":" ","LANE":" ","ALLEY":" ","HOUSE_NO":"７號","E_COORD97":180047.23000000001,"N_COORD97":2566399.02,"ADDRESS":"興隆街７號","OBJECTID":148434},"geometry":{"x":180047.23000000045,"y":2566399.0199999996}},{"attributes":{"ID":148436,"DIS_CODE":0,"TOWNNAME":"東區","LI":"龍山里","LIN":"3鄰","STREET":"富德街","SECT":" ","MAREA":" ","LANE":"２５巷","ALLEY":"１弄","HOUSE_NO":"１８號","E_COORD97":170296.73000000001,"N_COORD97":2542820.54,"ADDRESS":"富德街２５巷１弄１８號","OBJECTID":148435},"geometry":{"x":170296.73000000045,"y":2542820.540000001}},{"attributes":{"ID":148437,"DIS_CODE":0,"TOWNNAME":"東區","LI":"大德里","LIN":"14鄰","STREET":"立德十路","SECT":" ","MAREA":" ","LANE":" ","ALLEY":" ","HOUSE_NO":"６７號","E_COORD97":169563.23999999999,"N_COORD97":2542077.02,"ADDRESS":"立德十路６７號","OBJECTID":148436},"geometry":{"x":169563.24000000115,"y":2542077.0199999996}},{"attributes":{"ID":148438,"DIS_CODE":0,"TOWNNAME":"東區","LI":"龍山里","LIN":"3鄰","STREET":"富德街","SECT":" ","MAREA":" ","LANE":"２５巷","ALLEY":"１弄","HOUSE_NO":"３３號","E_COORD97":170292.45000000001,"N_COORD97":2542811.0299999998,"ADDRESS":"富德街２５巷１弄３３號","OBJECTID":148437},"geometry":{"x":170292.45000000112,"y":2542811.0300000012}},{"attributes":{"ID":148439,"DIS_CODE":0,"TOWNNAME":"官田區","LI":"隆本里","LIN":"19鄰","STREET":"興隆街","SECT":" ","MAREA":" ","LANE":" ","ALLEY":" ","HOUSE_NO":"９號","E_COORD97":180043.60000000001,"N_COORD97":2566398.1499999999,"ADDRESS":"興隆街９號","OBJECTID":148438},"geometry":{"x":180043.60000000056,"y":2566398.1500000022}},{"attributes":{"ID":148440,"DIS_CODE":0,"TOWNNAME":"永康區","LI":"西橋里","LIN":"3鄰","STREET":"中山南路","SECT":" ","MAREA":" ","LANE":"４３巷","ALLEY":"７弄","HOUSE_NO":"４０號","E_COORD97":170689.60000000001,"N_COORD97":2545826,"ADDRESS":"中山南路４３巷７弄４０號","OBJECTID":148439},"geometry":{"x":170689.60000000056,"y":2545826.0000000019}},{"attributes":{"ID":148441,"DIS_CODE":0,"TOWNNAME":"永康區","LI":"西橋里","LIN":"3鄰","STREET":"中山南路","SECT":" ","MAREA":" ","LANE":"４３巷","ALLEY":"３７弄","HOUSE_NO":"１號","E_COORD97":170668.60000000001,"N_COORD97":2545922.75,"ADDRESS":"中山南路４３巷３７弄１號","OBJECTID":148440},"geometry":{"x":170668.60000000149,"y":2545922.7500000019}},{"attributes":{"ID":148442,"DIS_CODE":0,"TOWNNAME":"永康區","LI":"西橋里","LIN":"3鄰","STREET":"中山南路","SECT":" ","MAREA":" ","LANE":"４３巷","ALLEY":"７弄","HOUSE_NO":"１６號","E_COORD97":170696.45999999999,"N_COORD97":2545856.2400000002,"ADDRESS":"中山南路４３巷７弄１６號","OBJECTID":148441},"geometry":{"x":170696.45999999996,"y":2545856.2400000002}},{"attributes":{"ID":148443,"DIS_CODE":0,"TOWNNAME":"永康區","LI":"甲頂里","LIN":"3鄰","STREET":"中正南路","SECT":" ","MAREA":" ","LANE":"１６８巷","ALLEY":"２弄","HOUSE_NO":"１４號","E_COORD97":169853.63,"N_COORD97":2546969,"ADDRESS":"中正南路１６８巷２弄１４號","OBJECTID":148442},"geometry":{"x":169853.63000000082,"y":2546969}},{"attributes":{"ID":148444,"DIS_CODE":0,"TOWNNAME":"永康區","LI":"西橋里","LIN":"3鄰","STREET":"中山南路","SECT":" ","MAREA":" ","LANE":"４３巷","ALLEY":"７弄","HOUSE_NO":"２６號","E_COORD97":170681.69,"N_COORD97":2545849.7400000002,"ADDRESS":"中山南路４３巷７弄２６號","OBJECTID":148443},"geometry":{"x":170681.69000000041,"y":2545849.7400000002}},{"attributes":{"ID":148445,"DIS_CODE":0,"TOWNNAME":"永康區","LI":"西橋里","LIN":"3鄰","STREET":"中山南路","SECT":" ","MAREA":" ","LANE":"４３巷","ALLEY":"３７弄","HOUSE_NO":"３號","E_COORD97":170663.44,"N_COORD97":2545919.75,"ADDRESS":"中山南路４３巷３７弄３號","OBJECTID":148444},"geometry":{"x":170663.44000000041,"y":2545919.75}},{"attributes":{"ID":148446,"DIS_CODE":0,"TOWNNAME":"永康區","LI":"西橋里","LIN":"3鄰","STREET":"中山南路","SECT":" ","MAREA":" ","LANE":"４３巷","ALLEY":"７弄","HOUSE_NO":"６號","E_COORD97":170712.81,"N_COORD97":2545845.2400000002,"ADDRESS":"中山南路４３巷７弄６號","OBJECTID":148445},"geometry":{"x":170712.81000000145,"y":2545845.2400000002}},{"attributes":{"ID":148447,"DIS_CODE":0,"TOWNNAME":"官田區","LI":"二鎮里","LIN":"19鄰","STREET":"工業路","SECT":" ","MAREA":" ","LANE":" ","ALLEY":" ","HOUSE_NO":"５７號","E_COORD97":180774.10000000001,"N_COORD97":2568545.52,"ADDRESS":"工業路５７號","OBJECTID":148446},"geometry":{"x":180774.10000000056,"y":2568545.5199999996}},{"attributes":{"ID":148448,"DIS_CODE":0,"TOWNNAME":"永康區","LI":"西橋里","LIN":"3鄰","STREET":"中山南路","SECT":" ","MAREA":" ","LANE":"４３巷","ALLEY":"７弄","HOUSE_NO":"１０號","E_COORD97":170706.01000000001,"N_COORD97":2545840.2400000002,"ADDRESS":"中山南路４３巷７弄１０號","OBJECTID":148447},"geometry":{"x":170706.00999999978,"y":2545840.2400000039}},{"attributes":{"ID":148449,"DIS_CODE":0,"TOWNNAME":"永康區","LI":"西橋里","LIN":"3鄰","STREET":"中山南路","SECT":" ","MAREA":" ","LANE":"４３巷","ALLEY":"７弄","HOUSE_NO":"２２號","E_COORD97":170685.31,"N_COORD97":2545857.7400000002,"ADDRESS":"中山南路４３巷７弄２２號","OBJECTID":148448},"geometry":{"x":170685.30999999959,"y":2545857.7400000021}},{"attributes":{"ID":148450,"DIS_CODE":0,"TOWNNAME":"新市區","LI":"新和里","LIN":"19鄰","STREET":"永福街","SECT":" ","MAREA":" ","LANE":" ","ALLEY":" ","HOUSE_NO":"１０５號","E_COORD97":177499.87,"N_COORD97":2552725.5,"ADDRESS":"永福街１０５號","OBJECTID":148449},"geometry":{"x":177499.87000000011,"y":2552725.5000000019}},{"attributes":{"ID":148451,"DIS_CODE":0,"TOWNNAME":"新市區","LI":"新和里","LIN":"19鄰","STREET":"永福街","SECT":" ","MAREA":" ","LANE":" ","ALLEY":" ","HOUSE_NO":"９１號","E_COORD97":177531.62,"N_COORD97":2552722,"ADDRESS":"永福街９１號","OBJECTID":148450},"geometry":{"x":177531.62000000104,"y":2552722.0000000019}},{"attributes":{"ID":148452,"DIS_CODE":0,"TOWNNAME":"安南區","LI":"城南里","LIN":"3鄰","STREET":"城西街","SECT":"一段","MAREA":" ","LANE":"６１巷","ALLEY":"１１２弄","HOUSE_NO":"１２號","E_COORD97":160663.13,"N_COORD97":2551261.96,"ADDRESS":"城西街一段６１巷１１２弄１２號","OBJECTID":148451},"geometry":{"x":160663.12999999989,"y":2551261.9600000028}},{"attributes":{"ID":148453,"DIS_CODE":0,"TOWNNAME":"仁德區","LI":"仁愛里","LIN":"28鄰","STREET":"大同路","SECT":"三段","MAREA":" ","LANE":"３５８巷","ALLEY":" ","HOUSE_NO":"９６號","E_COORD97":169719.45499999999,"N_COORD97":2539335.2519999999,"ADDRESS":"大同路三段３５８巷９６號","OBJECTID":148452},"geometry":{"x":169719.45500000101,"y":2539335.2520000041}},{"attributes":{"ID":148454,"DIS_CODE":0,"TOWNNAME":"新市區","LI":"新和里","LIN":"19鄰","STREET":"永福街","SECT":" ","MAREA":" ","LANE":" ","ALLEY":" ","HOUSE_NO":"１１３號","E_COORD97":177441.01000000001,"N_COORD97":2552730.5,"ADDRESS":"永福街１１３號","OBJECTID":148453},"geometry":{"x":177441.00999999978,"y":2552730.4999999981}},{"attributes":{"ID":148455,"DIS_CODE":0,"TOWNNAME":"新市區","LI":"新和里","LIN":"19鄰","STREET":"永福街","SECT":" ","MAREA":" ","LANE":" ","ALLEY":" ","HOUSE_NO":"１０９號","E_COORD97":177492.01000000001,"N_COORD97":2552726.25,"ADDRESS":"永福街１０９號","OBJECTID":148454},"geometry":{"x":177492.00999999978,"y":2552726.2500000019}},{"attributes":{"ID":148456,"DIS_CODE":0,"TOWNNAME":"新市區","LI":"新和里","LIN":"19鄰","STREET":"永福街","SECT":" ","MAREA":" ","LANE":" ","ALLEY":" ","HOUSE_NO":"９５號","E_COORD97":177523.70999999999,"N_COORD97":2552722.75,"ADDRESS":"永福街９５號","OBJECTID":148455},"geometry":{"x":177523.71000000089,"y":2552722.7500000019}},{"attributes":{"ID":148457,"DIS_CODE":0,"TOWNNAME":"新市區","LI":"新和里","LIN":"19鄰","STREET":"永福街","SECT":" ","MAREA":" ","LANE":" ","ALLEY":" ","HOUSE_NO":"８５號","E_COORD97":177548.76000000001,"N_COORD97":2552720,"ADDRESS":"永福街８５號","OBJECTID":148456},"geometry":{"x":177548.76000000071,"y":2552720}},{"attributes":{"ID":148458,"DIS_CODE":0,"TOWNNAME":"新市區","LI":"新和里","LIN":"19鄰","STREET":"永福街","SECT":" ","MAREA":" ","LANE":" ","ALLEY":" ","HOUSE_NO":"８１號","E_COORD97":177557.01000000001,"N_COORD97":2552719.25,"ADDRESS":"永福街８１號","OBJECTID":148457},"geometry":{"x":177557.01000000164,"y":2552719.2500000019}},{"attributes":{"ID":148459,"DIS_CODE":0,"TOWNNAME":"安定區","LI":"海寮里","LIN":"19鄰","STREET":" ","SECT":" ","MAREA":"海寮","LANE":" ","ALLEY":" ","HOUSE_NO":"１８４號","E_COORD97":169450.44,"N_COORD97":2555452.25,"ADDRESS":"海寮１８４號","OBJECTID":148458},"geometry":{"x":169450.44000000134,"y":2555452.2500000019}},{"attributes":{"ID":148460,"DIS_CODE":0,"TOWNNAME":"仁德區","LI":"中生里","LIN":"5鄰","STREET":" ","SECT":" ","MAREA":"中洲","LANE":" ","ALLEY":" ","HOUSE_NO":"１２９號之１２","E_COORD97":172781.53,"N_COORD97":2534233.0499999998,"ADDRESS":"中洲１２９號之１２","OBJECTID":148459},"geometry":{"x":172781.53000000026,"y":2534233.0499999989}},{"attributes":{"ID":148461,"DIS_CODE":0,"TOWNNAME":"仁德區","LI":"中生里","LIN":"14鄰","STREET":" ","SECT":" ","MAREA":"中洲","LANE":" ","ALLEY":" ","HOUSE_NO":"２２７號","E_COORD97":173123.12,"N_COORD97":2533985.5,"ADDRESS":"中洲２２７號","OBJECTID":148460},"geometry":{"x":173123.12000000011,"y":2533985.5000000037}},{"attributes":{"ID":148462,"DIS_CODE":0,"TOWNNAME":"官田區","LI":"隆田里","LIN":"2鄰","STREET":"新生街","SECT":" ","MAREA":" ","LANE":" ","ALLEY":" ","HOUSE_NO":"２號","E_COORD97":180269.88971399999,"N_COORD97":2565754.63589,"ADDRESS":"新生街２號","OBJECTID":148461},"geometry":{"x":180269.88971400075,"y":2565754.6358890012}},{"attributes":{"ID":148463,"DIS_CODE":0,"TOWNNAME":"仁德區","LI":"仁和里","LIN":"26鄰","STREET":" ","SECT":" ","MAREA":"仁和","LANE":" ","ALLEY":" ","HOUSE_NO":"５３７號","E_COORD97":170475.10780600001,"N_COORD97":2539755.5914400001,"ADDRESS":"仁和５３７號","OBJECTID":148462},"geometry":{"x":170475.10780600086,"y":2539755.5914440025}},{"attributes":{"ID":148464,"DIS_CODE":0,"TOWNNAME":"仁德區","LI":"中生里","LIN":"5鄰","STREET":" ","SECT":" ","MAREA":"中洲","LANE":" ","ALLEY":" ","HOUSE_NO":"１２９號之３","E_COORD97":172746.20000000001,"N_COORD97":2534246.79,"ADDRESS":"中洲１２９號之３","OBJECTID":148463},"geometry":{"x":172746.20000000019,"y":2534246.7900000028}},{"attributes":{"ID":148465,"DIS_CODE":0,"TOWNNAME":"仁德區","LI":"仁和里","LIN":"24鄰","STREET":" ","SECT":" ","MAREA":"仁和","LANE":" ","ALLEY":" ","HOUSE_NO":"４８４號","E_COORD97":170384.74327000001,"N_COORD97":2539781.1499999999,"ADDRESS":"仁和４８４號","OBJECTID":148464},"geometry":{"x":170384.74327000231,"y":2539781.1500000004}},{"attributes":{"ID":148466,"DIS_CODE":0,"TOWNNAME":"仁德區","LI":"中生里","LIN":"14鄰","STREET":" ","SECT":" ","MAREA":"中洲","LANE":" ","ALLEY":" ","HOUSE_NO":"２３２號之１","E_COORD97":173105.37,"N_COORD97":2533917.7999999998,"ADDRESS":"中洲２３２號之１","OBJECTID":148465},"geometry":{"x":173105.37000000104,"y":2533917.8000000026}},{"attributes":{"ID":148467,"DIS_CODE":0,"TOWNNAME":"仁德區","LI":"仁和里","LIN":"24鄰","STREET":" ","SECT":" ","MAREA":"仁和","LANE":" ","ALLEY":" ","HOUSE_NO":"４８０號","E_COORD97":170403.17636000001,"N_COORD97":2539808.5499999998,"ADDRESS":"仁和４８０號","OBJECTID":148466},"geometry":{"x":170403.17635999992,"y":2539808.5500000026}},{"attributes":{"ID":148468,"DIS_CODE":0,"TOWNNAME":"東區","LI":"大學里","LIN":"19鄰","STREET":"林森路","SECT":"二段","MAREA":" ","LANE":" ","ALLEY":" ","HOUSE_NO":"２５２號","E_COORD97":170470.45999999999,"N_COORD97":2543612.5899999999,"ADDRESS":"林森路二段２５２號","OBJECTID":148467},"geometry":{"x":170470.46000000089,"y":2543612.5899999999}},{"attributes":{"ID":148469,"DIS_CODE":0,"TOWNNAME":"東區","LI":"大學里","LIN":"19鄰","STREET":"林森路","SECT":"二段","MAREA":" ","LANE":" ","ALLEY":" ","HOUSE_NO":"２５６號","E_COORD97":170481.59,"N_COORD97":2543666.29,"ADDRESS":"林森路二段２５６號","OBJECTID":148468},"geometry":{"x":170481.58999999985,"y":2543666.290000001}},{"attributes":{"ID":148470,"DIS_CODE":0,"TOWNNAME":"東區","LI":"大學里","LIN":"19鄰","STREET":"林森路","SECT":"二段","MAREA":" ","LANE":" ","ALLEY":" ","HOUSE_NO":"２５０號","E_COORD97":170457.17000000001,"N_COORD97":2543577.6499999999,"ADDRESS":"林森路二段２５０號","OBJECTID":148469},"geometry":{"x":170457.17000000086,"y":2543577.6500000022}},{"attributes":{"ID":148471,"DIS_CODE":0,"TOWNNAME":"東區","LI":"崇學里","LIN":"19鄰","STREET":"中華東路","SECT":"三段","MAREA":" ","LANE":" ","ALLEY":" ","HOUSE_NO":"２３６號","E_COORD97":170520.17999999999,"N_COORD97":2541863.5499999998,"ADDRESS":"中華東路三段２３６號","OBJECTID":148470},"geometry":{"x":170520.1799999997,"y":2541863.5500000007}},{"attributes":{"ID":148472,"DIS_CODE":0,"TOWNNAME":"東區","LI":"大德里","LIN":"8鄰","STREET":"立德十一路","SECT":" ","MAREA":" ","LANE":" ","ALLEY":" ","HOUSE_NO":"３號","E_COORD97":169393.98999999999,"N_COORD97":2542093.1200000001,"ADDRESS":"立德十一路３號","OBJECTID":148471},"geometry":{"x":169393.99000000115,"y":2542093.1200000029}},{"attributes":{"ID":148473,"DIS_CODE":0,"TOWNNAME":"東區","LI":"大福里","LIN":"12鄰","STREET":"立德四路","SECT":" ","MAREA":" ","LANE":" ","ALLEY":" ","HOUSE_NO":"２５號","E_COORD97":169592.51000000001,"N_COORD97":2541823.0600000001,"ADDRESS":"立德四路２５號","OBJECTID":148472},"geometry":{"x":169592.50999999978,"y":2541823.0600000005}},{"attributes":{"ID":148474,"DIS_CODE":0,"TOWNNAME":"東區","LI":"大福里","LIN":"12鄰","STREET":"立德四路","SECT":" ","MAREA":" ","LANE":" ","ALLEY":" ","HOUSE_NO":"２７號","E_COORD97":169597.75,"N_COORD97":2541823.4100000001,"ADDRESS":"立德四路２７號","OBJECTID":148473},"geometry":{"x":169597.75,"y":2541823.4100000001}},{"attributes":{"ID":148475,"DIS_CODE":0,"TOWNNAME":"東區","LI":"大福里","LIN":" ","STREET":"榮譽街","SECT":" ","MAREA":" ","LANE":" ","ALLEY":" ","HOUSE_NO":"７４號之２","E_COORD97":169721.23000000001,"N_COORD97":2541579.0899999999,"ADDRESS":"榮譽街７４號之２","OBJECTID":148474},"geometry":{"x":169721.23000000138,"y":2541579.0900000036}},{"attributes":{"ID":148476,"DIS_CODE":0,"TOWNNAME":"東區","LI":"小東里","LIN":" ","STREET":"光明街","SECT":" ","MAREA":" ","LANE":" ","ALLEY":" ","HOUSE_NO":"１２１號","E_COORD97":170911.14000000001,"N_COORD97":2544306.71,"ADDRESS":"光明街１２１號","OBJECTID":148475},"geometry":{"x":170911.1400000006,"y":2544306.7100000028}},{"attributes":{"ID":148477,"DIS_CODE":0,"TOWNNAME":"安南區","LI":"城南里","LIN":"3鄰","STREET":"城西街","SECT":"一段","MAREA":" ","LANE":"６１巷","ALLEY":"１１２弄","HOUSE_NO":"１６號","E_COORD97":160657.41,"N_COORD97":2551268.1600000001,"ADDRESS":"城西街一段６１巷１１２弄１６號","OBJECTID":148476},"geometry":{"x":160657.41000000108,"y":2551268.1600000001}},{"attributes":{"ID":148478,"DIS_CODE":0,"TOWNNAME":"安南區","LI":"城南里","LIN":"3鄰","STREET":"城西街","SECT":"一段","MAREA":" ","LANE":"６１巷","ALLEY":"１１２弄","HOUSE_NO":"１８號","E_COORD97":160656.92000000001,"N_COORD97":2551272.8799999999,"ADDRESS":"城西街一段６１巷１１２弄１８號","OBJECTID":148477},"geometry":{"x":160656.92000000086,"y":2551272.8800000008}},{"attributes":{"ID":148479,"DIS_CODE":0,"TOWNNAME":"安南區","LI":"城南里","LIN":"3鄰","STREET":"城西街","SECT":"一段","MAREA":" ","LANE":"６１巷","ALLEY":"１１２弄","HOUSE_NO":"６號","E_COORD97":160679.79000000001,"N_COORD97":2551238.1299999999,"ADDRESS":"城西街一段６１巷１１２弄６號","OBJECTID":148478},"geometry":{"x":160679.79000000097,"y":2551238.1300000008}},{"attributes":{"ID":148480,"DIS_CODE":0,"TOWNNAME":"安南區","LI":"城南里","LIN":"3鄰","STREET":"城西街","SECT":"一段","MAREA":" ","LANE":"６１巷","ALLEY":"２８弄","HOUSE_NO":"１９號","E_COORD97":160691.95999999999,"N_COORD97":2551311.8300000001,"ADDRESS":"城西街一段６１巷２８弄１９號","OBJECTID":148479},"geometry":{"x":160691.96000000183,"y":2551311.8300000019}},{"attributes":{"ID":148481,"DIS_CODE":0,"TOWNNAME":"安南區","LI":"城南里","LIN":"3鄰","STREET":"城西街","SECT":"一段","MAREA":" ","LANE":"６１巷","ALLEY":"２８弄","HOUSE_NO":"２５號","E_COORD97":160676.04999999999,"N_COORD97":2551313.3199999998,"ADDRESS":"城西街一段６１巷２８弄２５號","OBJECTID":148480},"geometry":{"x":160676.05000000168,"y":2551313.3200000022}},{"attributes":{"ID":148482,"DIS_CODE":0,"TOWNNAME":"安南區","LI":"城南里","LIN":"3鄰","STREET":"城西街","SECT":"一段","MAREA":" ","LANE":"６１巷","ALLEY":"２８弄","HOUSE_NO":"３１號","E_COORD97":160662.62,"N_COORD97":2551305.3700000001,"ADDRESS":"城西街一段６１巷２８弄３１號","OBJECTID":148481},"geometry":{"x":160662.62000000104,"y":2551305.3700000048}},{"attributes":{"ID":148483,"DIS_CODE":0,"TOWNNAME":"安南區","LI":"城南里","LIN":"3鄰","STREET":"城西街","SECT":"一段","MAREA":" ","LANE":"６１巷","ALLEY":"２８弄","HOUSE_NO":"３２號","E_COORD97":160647.70000000001,"N_COORD97":2551324.46,"ADDRESS":"城西街一段６１巷２８弄３２號","OBJECTID":148482},"geometry":{"x":160647.70000000019,"y":2551324.4600000009}},{"attributes":{"ID":148484,"DIS_CODE":0,"TOWNNAME":"安南區","LI":"城南里","LIN":"3鄰","STREET":"城西街","SECT":"一段","MAREA":" ","LANE":"６１巷","ALLEY":"２８弄","HOUSE_NO":"３３號","E_COORD97":160658.64000000001,"N_COORD97":2551302.8900000001,"ADDRESS":"城西街一段６１巷２８弄３３號","OBJECTID":148483},"geometry":{"x":160658.6400000006,"y":2551302.8900000025}},{"attributes":{"ID":148485,"DIS_CODE":0,"TOWNNAME":"安南區","LI":"城南里","LIN":"3鄰","STREET":"城西街","SECT":"一段","MAREA":" ","LANE":"６１巷","ALLEY":"２８弄","HOUSE_NO":"３４號","E_COORD97":160641.48999999999,"N_COORD97":2551318,"ADDRESS":"城西街一段６１巷２８弄３４號","OBJECTID":148484},"geometry":{"x":160641.49000000115,"y":2551318.0000000019}},{"attributes":{"ID":148486,"DIS_CODE":0,"TOWNNAME":"安南區","LI":"城南里","LIN":"3鄰","STREET":"城西街","SECT":"一段","MAREA":" ","LANE":"６１巷","ALLEY":"２８弄","HOUSE_NO":"４３號","E_COORD97":160648.20999999999,"N_COORD97":2551282.3100000001,"ADDRESS":"城西街一段６１巷２８弄４３號","OBJECTID":148485},"geometry":{"x":160648.21000000089,"y":2551282.3100000024}},{"attributes":{"ID":148487,"DIS_CODE":0,"TOWNNAME":"安南區","LI":"城南里","LIN":"3鄰","STREET":"城西街","SECT":"一段","MAREA":" ","LANE":"６１巷","ALLEY":"２８弄","HOUSE_NO":"４５號","E_COORD97":160644.23999999999,"N_COORD97":2551279.0899999999,"ADDRESS":"城西街一段６１巷２８弄４５號","OBJECTID":148486},"geometry":{"x":160644.24000000022,"y":2551279.0900000036}},{"attributes":{"ID":148488,"DIS_CODE":0,"TOWNNAME":"安南區","LI":"城南里","LIN":"3鄰","STREET":"城西街","SECT":"一段","MAREA":" ","LANE":"６１巷","ALLEY":"５８弄","HOUSE_NO":"１３號","E_COORD97":160719.57000000001,"N_COORD97":2551260.2200000002,"ADDRESS":"城西街一段６１巷５８弄１３號","OBJECTID":148487},"geometry":{"x":160719.5700000003,"y":2551260.2200000025}},{"attributes":{"ID":148489,"DIS_CODE":0,"TOWNNAME":"東區","LI":"小東里","LIN":"6鄰","STREET":"光明街","SECT":" ","MAREA":" ","LANE":" ","ALLEY":" ","HOUSE_NO":"９１號","E_COORD97":170907.54000000001,"N_COORD97":2544356.3799999999,"ADDRESS":"光明街９１號","OBJECTID":148488},"geometry":{"x":170907.54000000097,"y":2544356.3800000027}},{"attributes":{"ID":148490,"DIS_CODE":0,"TOWNNAME":"東區","LI":"大學里","LIN":" ","STREET":"東寧路","SECT":" ","MAREA":" ","LANE":" ","ALLEY":" ","HOUSE_NO":"７５號","E_COORD97":170279.35999999999,"N_COORD97":2543622.1800000002,"ADDRESS":"東寧路７５號","OBJECTID":148489},"geometry":{"x":170279.3600000022,"y":2543622.1799999997}},{"attributes":{"ID":148491,"DIS_CODE":0,"TOWNNAME":"佳里區","LI":"子龍里","LIN":"19鄰","STREET":" ","SECT":" ","MAREA":"子良廟","LANE":" ","ALLEY":" ","HOUSE_NO":"２０１號之１","E_COORD97":168886.23999999999,"N_COORD97":2563658.2599999998,"ADDRESS":"子良廟２０１號之１","OBJECTID":148490},"geometry":{"x":168886.24000000022,"y":2563658.2599999998}},{"attributes":{"ID":148492,"DIS_CODE":0,"TOWNNAME":"佳里區","LI":"子龍里","LIN":"19鄰","STREET":" ","SECT":" ","MAREA":"子良廟","LANE":" ","ALLEY":" ","HOUSE_NO":"２０１號","E_COORD97":168877.01999999999,"N_COORD97":2563657.6200000001,"ADDRESS":"子良廟２０１號","OBJECTID":148491},"geometry":{"x":168877.01999999955,"y":2563657.620000001}},{"attributes":{"ID":148493,"DIS_CODE":0,"TOWNNAME":"佳里區","LI":"子龍里","LIN":"19鄰","STREET":" ","SECT":" ","MAREA":"子良廟","LANE":" ","ALLEY":" ","HOUSE_NO":"２０２號","E_COORD97":168852.84,"N_COORD97":2563657.0800000001,"ADDRESS":"子良廟２０２號","OBJECTID":148492},"geometry":{"x":168852.83999999985,"y":2563657.0800000001}},{"attributes":{"ID":148494,"DIS_CODE":0,"TOWNNAME":"佳里區","LI":"子龍里","LIN":"19鄰","STREET":" ","SECT":" ","MAREA":"子良廟","LANE":" ","ALLEY":" ","HOUSE_NO":"２０３號","E_COORD97":168862.44,"N_COORD97":2563664.2799999998,"ADDRESS":"子良廟２０３號","OBJECTID":148493},"geometry":{"x":168862.44000000134,"y":2563664.2799999993}},{"attributes":{"ID":148495,"DIS_CODE":0,"TOWNNAME":"佳里區","LI":"子龍里","LIN":"19鄰","STREET":" ","SECT":" ","MAREA":"子良廟","LANE":" ","ALLEY":" ","HOUSE_NO":"２０４號","E_COORD97":168843.48000000001,"N_COORD97":2563664.04,"ADDRESS":"子良廟２０４號","OBJECTID":148494},"geometry":{"x":168843.48000000138,"y":2563664.040000001}},{"attributes":{"ID":148496,"DIS_CODE":0,"TOWNNAME":"仁德區","LI":"中生里","LIN":"4鄰","STREET":" ","SECT":" ","MAREA":"中洲","LANE":" ","ALLEY":" ","HOUSE_NO":"１１４之５號","E_COORD97":172993.35000000001,"N_COORD97":2534301.0499999998,"ADDRESS":"中洲１１４之５號","OBJECTID":148495},"geometry":{"x":172993.35000000056,"y":2534301.0500000045}},{"attributes":{"ID":148497,"DIS_CODE":0,"TOWNNAME":"仁德區","LI":"仁和里","LIN":"24鄰","STREET":" ","SECT":" ","MAREA":"仁和","LANE":" ","ALLEY":" ","HOUSE_NO":"４７７號","E_COORD97":170389.13965999999,"N_COORD97":2539808.5499999998,"ADDRESS":"仁和４７７號","OBJECTID":148496},"geometry":{"x":170389.13965999987,"y":2539808.5500000026}},{"attributes":{"ID":148498,"DIS_CODE":0,"TOWNNAME":"仁德區","LI":"仁和里","LIN":"26鄰","STREET":" ","SECT":" ","MAREA":"仁和","LANE":" ","ALLEY":" ","HOUSE_NO":"５１８號","E_COORD97":170446.822541,"N_COORD97":2539781.25,"ADDRESS":"仁和５１８號","OBJECTID":148497},"geometry":{"x":170446.82254100125,"y":2539781.2500000037}},{"attributes":{"ID":148499,"DIS_CODE":0,"TOWNNAME":"仁德區","LI":"仁和里","LIN":"25鄰","STREET":" ","SECT":" ","MAREA":"仁和","LANE":" ","ALLEY":" ","HOUSE_NO":"４９８號","E_COORD97":170412.28697399999,"N_COORD97":2539781.1499999999,"ADDRESS":"仁和４９８號","OBJECTID":148498},"geometry":{"x":170412.28697399981,"y":2539781.1500000004}},{"attributes":{"ID":148500,"DIS_CODE":0,"TOWNNAME":"仁德區","LI":"中生里","LIN":"5鄰","STREET":" ","SECT":" ","MAREA":"中洲","LANE":" ","ALLEY":" ","HOUSE_NO":"１２９號之１１","E_COORD97":172785.89999999999,"N_COORD97":2534234.04,"ADDRESS":"中洲１２９號之１１","OBJECTID":148499},"geometry":{"x":172785.90000000037,"y":2534234.0399999991}},{"attributes":{"ID":148501,"DIS_CODE":0,"TOWNNAME":"仁德區","LI":"中生里","LIN":"5鄰","STREET":" ","SECT":" ","MAREA":"中洲","LANE":" ","ALLEY":" ","HOUSE_NO":"１３０號之２０","E_COORD97":172805.64999999999,"N_COORD97":2534413.0499999998,"ADDRESS":"中洲１３０號之２０","OBJECTID":148500},"geometry":{"x":172805.6500000013,"y":2534413.0500000045}},{"attributes":{"ID":148502,"DIS_CODE":0,"TOWNNAME":"仁德區","LI":"仁和里","LIN":"25鄰","STREET":" ","SECT":" ","MAREA":"仁和","LANE":" ","ALLEY":" ","HOUSE_NO":"５１６號","E_COORD97":170437.76490000001,"N_COORD97":2539772.25,"ADDRESS":"仁和５１６號","OBJECTID":148501},"geometry":{"x":170437.76489999983,"y":2539772.2500000019}},{"attributes":{"ID":148503,"DIS_CODE":0,"TOWNNAME":"官田區","LI":"官田里","LIN":"20鄰","STREET":" ","SECT":" ","MAREA":"官田","LANE":" ","ALLEY":" ","HOUSE_NO":"２８９號","E_COORD97":182182.69,"N_COORD97":2564817.29,"ADDRESS":"官田２８９號","OBJECTID":148502},"geometry":{"x":182182.69000000134,"y":2564817.2899999991}},{"attributes":{"ID":148504,"DIS_CODE":0,"TOWNNAME":"仁德區","LI":"中生里","LIN":"13鄰","STREET":" ","SECT":" ","MAREA":"中洲","LANE":" ","ALLEY":" ","HOUSE_NO":"２２６號之１","E_COORD97":173026.51000000001,"N_COORD97":2534007.7999999998,"ADDRESS":"中洲２２６號之１","OBJECTID":148503},"geometry":{"x":173026.50999999978,"y":2534007.8000000045}},{"attributes":{"ID":148505,"DIS_CODE":0,"TOWNNAME":"佳里區","LI":"鎮山里","LIN":"19鄰","STREET":"中興街","SECT":" ","MAREA":" ","LANE":" ","ALLEY":" ","HOUSE_NO":"１１０號","E_COORD97":166176,"N_COORD97":2561270.5899999999,"ADDRESS":"中興街１１０號","OBJECTID":148504},"geometry":{"x":166176.00000000093,"y":2561270.5900000036}},{"attributes":{"ID":148506,"DIS_CODE":0,"TOWNNAME":"佳里區","LI":"鎮山里","LIN":"19鄰","STREET":"中興街","SECT":" ","MAREA":" ","LANE":" ","ALLEY":" ","HOUSE_NO":"１１號","E_COORD97":166254.98999999999,"N_COORD97":2561152.6400000001,"ADDRESS":"中興街１１號","OBJECTID":148505},"geometry":{"x":166254.99000000022,"y":2561152.6400000025}},{"attributes":{"ID":148507,"DIS_CODE":0,"TOWNNAME":"佳里區","LI":"鎮山里","LIN":"19鄰","STREET":"中興街","SECT":" ","MAREA":" ","LANE":" ","ALLEY":" ","HOUSE_NO":"１３號","E_COORD97":166244.17000000001,"N_COORD97":2561137.6299999999,"ADDRESS":"中興街１３號","OBJECTID":148506},"geometry":{"x":166244.17000000086,"y":2561137.6300000008}},{"attributes":{"ID":148508,"DIS_CODE":0,"TOWNNAME":"佳里區","LI":"鎮山里","LIN":"19鄰","STREET":"中興街","SECT":" ","MAREA":" ","LANE":" ","ALLEY":" ","HOUSE_NO":"１５號","E_COORD97":166241.53,"N_COORD97":2561134.5800000001,"ADDRESS":"中興街１５號","OBJECTID":148507},"geometry":{"x":166241.53000000026,"y":2561134.5800000001}},{"attributes":{"ID":148509,"DIS_CODE":0,"TOWNNAME":"安南區","LI":"城南里","LIN":"3鄰","STREET":"城西街","SECT":"一段","MAREA":" ","LANE":"６１巷","ALLEY":"５８弄","HOUSE_NO":"２０號","E_COORD97":160686.01000000001,"N_COORD97":2551283.0600000001,"ADDRESS":"城西街一段６１巷５８弄２０號","OBJECTID":148508},"geometry":{"x":160686.00999999978,"y":2551283.0600000042}},{"attributes":{"ID":148510,"DIS_CODE":0,"TOWNNAME":"安南區","LI":"城南里","LIN":"3鄰","STREET":"城西街","SECT":"一段","MAREA":" ","LANE":"６１巷","ALLEY":"５８弄","HOUSE_NO":"２４號","E_COORD97":160692.97,"N_COORD97":2551270.1499999999,"ADDRESS":"城西街一段６１巷５８弄２４號","OBJECTID":148509},"geometry":{"x":160692.96999999974,"y":2551270.1500000022}},{"attributes":{"ID":148511,"DIS_CODE":0,"TOWNNAME":"安南區","LI":"城南里","LIN":"3鄰","STREET":"城西街","SECT":"一段","MAREA":" ","LANE":"６１巷","ALLEY":"５８弄","HOUSE_NO":"３６號","E_COORD97":160668.85000000001,"N_COORD97":2551255.75,"ADDRESS":"城西街一段６１巷５８弄３６號","OBJECTID":148510},"geometry":{"x":160668.85000000056,"y":2551255.7500000019}},{"attributes":{"ID":148512,"DIS_CODE":0,"TOWNNAME":"安南區","LI":"城南里","LIN":"3鄰","STREET":"城西街","SECT":"一段","MAREA":" ","LANE":"６１巷","ALLEY":"５８弄","HOUSE_NO":"３８號","E_COORD97":160664.13,"N_COORD97":2551254.5099999998,"ADDRESS":"城西街一段６１巷５８弄３８號","OBJECTID":148511},"geometry":{"x":160664.13000000082,"y":2551254.5099999998}},{"attributes":{"ID":148513,"DIS_CODE":0,"TOWNNAME":"安南區","LI":"城西里","LIN":"3鄰","STREET":"城西街","SECT":"三段","MAREA":" ","LANE":"５１０巷","ALLEY":"２５５弄","HOUSE_NO":"５０號","E_COORD97":157186.54000000001,"N_COORD97":2551309.0800000001,"ADDRESS":"城西街三段５１０巷２５５弄５０號","OBJECTID":148512},"geometry":{"x":157186.54000000097,"y":2551309.0800000001}},{"attributes":{"ID":148514,"DIS_CODE":0,"TOWNNAME":"安南區","LI":"城西里","LIN":"3鄰","STREET":"城西街","SECT":"三段","MAREA":" ","LANE":"５１０巷","ALLEY":"２７９弄","HOUSE_NO":"１７４號","E_COORD97":157022.78,"N_COORD97":2551460.2000000002,"ADDRESS":"城西街三段５１０巷２７９弄１７４號","OBJECTID":148513},"geometry":{"x":157022.78000000026,"y":2551460.1999999993}},{"attributes":{"ID":148515,"DIS_CODE":0,"TOWNNAME":"仁德區","LI":"太子里","LIN":"44鄰","STREET":"太子路","SECT":" ","MAREA":" ","LANE":"１０１巷","ALLEY":" ","HOUSE_NO":"１８之２號","E_COORD97":174898.38375000001,"N_COORD97":2543428.5436200001,"ADDRESS":"太子路１０１巷１８之２號","OBJECTID":148514},"geometry":{"x":174898.38375000097,"y":2543428.5436199997}},{"attributes":{"ID":148516,"DIS_CODE":0,"TOWNNAME":"新化區","LI":"東榮里","LIN":"19鄰","STREET":"中興路","SECT":" ","MAREA":" ","LANE":"７１９巷","ALLEY":" ","HOUSE_NO":"３５號","E_COORD97":179471.45999999999,"N_COORD97":2548047.25,"ADDRESS":"中興路７１９巷３５號","OBJECTID":148515},"geometry":{"x":179471.46000000089,"y":2548047.2500000019}},{"attributes":{"ID":148517,"DIS_CODE":0,"TOWNNAME":"佳里區","LI":"鎮山里","LIN":"19鄰","STREET":"中興街","SECT":" ","MAREA":" ","LANE":" ","ALLEY":" ","HOUSE_NO":"１７號","E_COORD97":166238.92999999999,"N_COORD97":2561130.8900000001,"ADDRESS":"中興街１７號","OBJECTID":148516},"geometry":{"x":166238.93000000063,"y":2561130.8900000025}},{"attributes":{"ID":148518,"DIS_CODE":0,"TOWNNAME":"仁德區","LI":"中生里","LIN":"4鄰","STREET":" ","SECT":" ","MAREA":"中洲","LANE":" ","ALLEY":" ","HOUSE_NO":"１１１號","E_COORD97":172998.26000000001,"N_COORD97":2534260.4900000002,"ADDRESS":"中洲１１１號","OBJECTID":148517},"geometry":{"x":172998.25999999978,"y":2534260.4900000039}},{"attributes":{"ID":148519,"DIS_CODE":0,"TOWNNAME":"仁德區","LI":"仁和里","LIN":"25鄰","STREET":" ","SECT":" ","MAREA":"仁和","LANE":" ","ALLEY":" ","HOUSE_NO":"５１０號","E_COORD97":170418.802119,"N_COORD97":2539772.25,"ADDRESS":"仁和５１０號","OBJECTID":148518},"geometry":{"x":170418.80211900081,"y":2539772.2500000019}},{"attributes":{"ID":148520,"DIS_CODE":0,"TOWNNAME":"仁德區","LI":"中生里","LIN":"4鄰","STREET":" ","SECT":" ","MAREA":"中洲","LANE":" ","ALLEY":" ","HOUSE_NO":"１１０號","E_COORD97":173004.26000000001,"N_COORD97":2534240.4900000002,"ADDRESS":"中洲１１０號","OBJECTID":148519},"geometry":{"x":173004.26000000071,"y":2534240.4900000021}},{"attributes":{"ID":148521,"DIS_CODE":0,"TOWNNAME":"官田區","LI":"官田里","LIN":"1鄰","STREET":" ","SECT":" ","MAREA":"官田","LANE":" ","ALLEY":" ","HOUSE_NO":"２號之１","E_COORD97":182501.34,"N_COORD97":2565340.9500000002,"ADDRESS":"官田２號之１","OBJECTID":148520},"geometry":{"x":182501.34000000171,"y":2565340.9499999993}},{"attributes":{"ID":148522,"DIS_CODE":0,"TOWNNAME":"仁德區","LI":"仁和里","LIN":"22鄰","STREET":" ","SECT":" ","MAREA":"仁和","LANE":" ","ALLEY":" ","HOUSE_NO":"４５０號","E_COORD97":170430.61413,"N_COORD97":2539808.5499999998,"ADDRESS":"仁和４５０號","OBJECTID":148521},"geometry":{"x":170430.61413000152,"y":2539808.5500000026}},{"attributes":{"ID":148523,"DIS_CODE":0,"TOWNNAME":"仁德區","LI":"中生里","LIN":"3鄰","STREET":" ","SECT":" ","MAREA":"中洲","LANE":" ","ALLEY":" ","HOUSE_NO":"９３號之１３","E_COORD97":173038.45999999999,"N_COORD97":2534384.04,"ADDRESS":"中洲９３號之１３","OBJECTID":148522},"geometry":{"x":173038.46000000089,"y":2534384.0399999972}},{"attributes":{"ID":148524,"DIS_CODE":0,"TOWNNAME":"官田區","LI":"官田里","LIN":"3鄰","STREET":" ","SECT":" ","MAREA":"官田","LANE":" ","ALLEY":" ","HOUSE_NO":"２７號","E_COORD97":182542.70999999999,"N_COORD97":2565275.21,"ADDRESS":"官田２７號","OBJECTID":148523},"geometry":{"x":182542.70999999996,"y":2565275.2100000028}},{"attributes":{"ID":148525,"DIS_CODE":0,"TOWNNAME":"官田區","LI":"官田里","LIN":"3鄰","STREET":" ","SECT":" ","MAREA":"官田","LANE":" ","ALLEY":" ","HOUSE_NO":"２９號","E_COORD97":182516.95999999999,"N_COORD97":2565291.4900000002,"ADDRESS":"官田２９號","OBJECTID":148524},"geometry":{"x":182516.95999999996,"y":2565291.4900000002}},{"attributes":{"ID":148526,"DIS_CODE":0,"TOWNNAME":"官田區","LI":"官田里","LIN":"4鄰","STREET":" ","SECT":" ","MAREA":"官田","LANE":" ","ALLEY":" ","HOUSE_NO":"３０號","E_COORD97":182491.26999999999,"N_COORD97":2565290.8799999999,"ADDRESS":"官田３０號","OBJECTID":148525},"geometry":{"x":182491.27000000142,"y":2565290.879999999}},{"attributes":{"ID":148527,"DIS_CODE":0,"TOWNNAME":"官田區","LI":"官田里","LIN":"4鄰","STREET":" ","SECT":" ","MAREA":"官田","LANE":" ","ALLEY":" ","HOUSE_NO":"３１號","E_COORD97":182478.19,"N_COORD97":2565301.4900000002,"ADDRESS":"官田３１號","OBJECTID":148526},"geometry":{"x":182478.19000000134,"y":2565301.4900000002}},{"attributes":{"ID":148528,"DIS_CODE":0,"TOWNNAME":"官田區","LI":"官田里","LIN":"4鄰","STREET":" ","SECT":" ","MAREA":"官田","LANE":" ","ALLEY":" ","HOUSE_NO":"３２號","E_COORD97":182488.59,"N_COORD97":2565280.9900000002,"ADDRESS":"官田３２號","OBJECTID":148527},"geometry":{"x":182488.58999999985,"y":2565280.9900000002}},{"attributes":{"ID":148529,"DIS_CODE":0,"TOWNNAME":"安南區","LI":"長安里","LIN":"19鄰","STREET":"公學路","SECT":"二段","MAREA":" ","LANE":" ","ALLEY":" ","HOUSE_NO":"２１８號","E_COORD97":167497.91,"N_COORD97":2552145.0099999998,"ADDRESS":"公學路二段２１８號","OBJECTID":148528},"geometry":{"x":167497.91000000015,"y":2552145.0100000016}},{"attributes":{"ID":148530,"DIS_CODE":0,"TOWNNAME":"安南區","LI":"長安里","LIN":"19鄰","STREET":"公學路","SECT":"二段","MAREA":" ","LANE":" ","ALLEY":" ","HOUSE_NO":"８２號","E_COORD97":167717.20999999999,"N_COORD97":2552405.5099999998,"ADDRESS":"公學路二段８２號","OBJECTID":148529},"geometry":{"x":167717.21000000089,"y":2552405.5100000016}},{"attributes":{"ID":148531,"DIS_CODE":0,"TOWNNAME":"永康區","LI":"東橋里","LIN":"19鄰","STREET":"中山南路","SECT":" ","MAREA":" ","LANE":" ","ALLEY":" ","HOUSE_NO":"４７３號","E_COORD97":172981.29999999999,"N_COORD97":2546955.2400000002,"ADDRESS":"中山南路４７３號","OBJECTID":148530},"geometry":{"x":172981.30000000168,"y":2546955.2400000002}},{"attributes":{"ID":148532,"DIS_CODE":0,"TOWNNAME":"永康區","LI":"西橋里","LIN":"19鄰","STREET":"大橋三街","SECT":" ","MAREA":" ","LANE":" ","ALLEY":" ","HOUSE_NO":"３號","E_COORD97":170443.26000000001,"N_COORD97":2546344.25,"ADDRESS":"大橋三街３號","OBJECTID":148531},"geometry":{"x":170443.25999999978,"y":2546344.25}},{"attributes":{"ID":148533,"DIS_CODE":0,"TOWNNAME":"安南區","LI":"城西里","LIN":"3鄰","STREET":"城西街","SECT":"三段","MAREA":" ","LANE":"５１０巷","ALLEY":"２７９弄","HOUSE_NO":"４０號","E_COORD97":157316.45000000001,"N_COORD97":2551343.3900000001,"ADDRESS":"城西街三段５１０巷２７９弄４０號","OBJECTID":148532},"geometry":{"x":157316.45000000019,"y":2551343.3900000025}},{"attributes":{"ID":148534,"DIS_CODE":0,"TOWNNAME":"安南區","LI":"青草里","LIN":"3鄰","STREET":"青砂街","SECT":"二段","MAREA":" ","LANE":"３７２巷","ALLEY":"１３９弄","HOUSE_NO":"６號","E_COORD97":158932.17000000001,"N_COORD97":2553103.52,"ADDRESS":"青砂街二段３７２巷１３９弄６號","OBJECTID":148533},"geometry":{"x":158932.16999999993,"y":2553103.5200000014}},{"attributes":{"ID":148535,"DIS_CODE":0,"TOWNNAME":"安南區","LI":"青草里","LIN":"3鄰","STREET":"青砂街","SECT":"二段","MAREA":" ","LANE":"３７２巷","ALLEY":"１３９弄","HOUSE_NO":"７號","E_COORD97":158949.45999999999,"N_COORD97":2553100.8999999999,"ADDRESS":"青砂街二段３７２巷１３９弄７號","OBJECTID":148534},"geometry":{"x":158949.46000000183,"y":2553100.9000000004}},{"attributes":{"ID":148536,"DIS_CODE":0,"TOWNNAME":"安南區","LI":"砂崙里","LIN":"3鄰","STREET":"城北路","SECT":" ","MAREA":" ","LANE":"８７１巷","ALLEY":"１４０弄","HOUSE_NO":"２０號","E_COORD97":160546.23999999999,"N_COORD97":2553310.71,"ADDRESS":"城北路８７１巷１４０弄２０號","OBJECTID":148535},"geometry":{"x":160546.24000000209,"y":2553310.7100000028}},{"attributes":{"ID":148537,"DIS_CODE":0,"TOWNNAME":"安南區","LI":"砂崙里","LIN":"3鄰","STREET":"城北路","SECT":" ","MAREA":" ","LANE":"８７１巷","ALLEY":"１４０弄","HOUSE_NO":"４０號","E_COORD97":160560.85999999999,"N_COORD97":2553357.6099999999,"ADDRESS":"城北路８７１巷１４０弄４０號","OBJECTID":148536},"geometry":{"x":160560.8600000022,"y":2553357.6100000013}},{"attributes":{"ID":148538,"DIS_CODE":0,"TOWNNAME":"官田區","LI":"官田里","LIN":"8鄰","STREET":" ","SECT":" ","MAREA":"官田","LANE":" ","ALLEY":" ","HOUSE_NO":"６７號之３","E_COORD97":182426.44,"N_COORD97":2565130.7400000002,"ADDRESS":"官田６７號之３","OBJECTID":148537},"geometry":{"x":182426.44000000041,"y":2565130.7400000002}},{"attributes":{"ID":148539,"DIS_CODE":0,"TOWNNAME":"安南區","LI":"砂崙里","LIN":"3鄰","STREET":"城北路","SECT":" ","MAREA":" ","LANE":"８７１巷","ALLEY":"１４０弄","HOUSE_NO":"５０號","E_COORD97":160570.67999999999,"N_COORD97":2553379.4399999999,"ADDRESS":"城北路８７１巷１４０弄５０號","OBJECTID":148538},"geometry":{"x":160570.68000000063,"y":2553379.4400000013}},{"attributes":{"ID":148540,"DIS_CODE":0,"TOWNNAME":"安南區","LI":"砂崙里","LIN":"3鄰","STREET":"城北路","SECT":" ","MAREA":" ","LANE":"８７１巷","ALLEY":"１４０弄","HOUSE_NO":"５８號","E_COORD97":160579.06,"N_COORD97":2553406.3900000001,"ADDRESS":"城北路８７１巷１４０弄５８號","OBJECTID":148539},"geometry":{"x":160579.06000000145,"y":2553406.3900000006}},{"attributes":{"ID":148541,"DIS_CODE":0,"TOWNNAME":"安南區","LI":"砂崙里","LIN":"3鄰","STREET":"城北路","SECT":" ","MAREA":" ","LANE":"８７１巷","ALLEY":"１４０弄","HOUSE_NO":"２１號","E_COORD97":160526.89000000001,"N_COORD97":2553315.7200000002,"ADDRESS":"城北路８７１巷１４０弄２１號","OBJECTID":148540},"geometry":{"x":160526.88999999966,"y":2553315.7200000007}},{"attributes":{"ID":148542,"DIS_CODE":0,"TOWNNAME":"安南區","LI":"砂崙里","LIN":"3鄰","STREET":"城北路","SECT":" ","MAREA":" ","LANE":"８７１巷","ALLEY":"１４０弄","HOUSE_NO":"３１號","E_COORD97":160533.98000000001,"N_COORD97":2553350.2000000002,"ADDRESS":"城北路８７１巷１４０弄３１號","OBJECTID":148541},"geometry":{"x":160533.98000000045,"y":2553350.2000000011}},{"attributes":{"ID":148543,"DIS_CODE":0,"TOWNNAME":"安南區","LI":"砂崙里","LIN":"3鄰","STREET":"城北路","SECT":" ","MAREA":" ","LANE":"８７１巷","ALLEY":"１４０弄","HOUSE_NO":"４１號","E_COORD97":160545.95999999999,"N_COORD97":2553380.9900000002,"ADDRESS":"城北路８７１巷１４０弄４１號","OBJECTID":148542},"geometry":{"x":160545.95999999996,"y":2553380.9900000002}},{"attributes":{"ID":148544,"DIS_CODE":0,"TOWNNAME":"安南區","LI":"砂崙里","LIN":"3鄰","STREET":"城北路","SECT":" ","MAREA":" ","LANE":"８７１巷","ALLEY":"１４０弄","HOUSE_NO":"５１號","E_COORD97":160557.17000000001,"N_COORD97":2553411.1000000001,"ADDRESS":"城北路８７１巷１４０弄５１號","OBJECTID":148543},"geometry":{"x":160557.17000000086,"y":2553411.1000000034}},{"attributes":{"ID":148545,"DIS_CODE":0,"TOWNNAME":"安南區","LI":"砂崙里","LIN":"3鄰","STREET":"城北路","SECT":" ","MAREA":" ","LANE":"８７１巷","ALLEY":"１５４弄","HOUSE_NO":"１６號","E_COORD97":160500.79999999999,"N_COORD97":2553298.54,"ADDRESS":"城北路８７１巷１５４弄１６號","OBJECTID":148544},"geometry":{"x":160500.79999999981,"y":2553298.5399999991}},{"attributes":{"ID":148546,"DIS_CODE":0,"TOWNNAME":"安南區","LI":"砂崙里","LIN":"3鄰","STREET":"城北路","SECT":" ","MAREA":" ","LANE":"８７１巷","ALLEY":"１５４弄","HOUSE_NO":"２８號","E_COORD97":160507.12,"N_COORD97":2553318.8799999999,"ADDRESS":"城北路８７１巷１５４弄２８號","OBJECTID":148545},"geometry":{"x":160507.12000000104,"y":2553318.879999999}},{"attributes":{"ID":148547,"DIS_CODE":0,"TOWNNAME":"安南區","LI":"砂崙里","LIN":"3鄰","STREET":"城北路","SECT":" ","MAREA":" ","LANE":"８７１巷","ALLEY":"１５４弄","HOUSE_NO":"３８號","E_COORD97":160519.82999999999,"N_COORD97":2553356.5099999998,"ADDRESS":"城北路８７１巷１５４弄３８號","OBJECTID":148546},"geometry":{"x":160519.83000000007,"y":2553356.5099999998}},{"attributes":{"ID":148548,"DIS_CODE":0,"TOWNNAME":"安南區","LI":"砂崙里","LIN":"3鄰","STREET":"城北路","SECT":" ","MAREA":" ","LANE":"８７１巷","ALLEY":"１５４弄","HOUSE_NO":"４６號","E_COORD97":160526.17000000001,"N_COORD97":2553374.6099999999,"ADDRESS":"城北路８７１巷１５４弄４６號","OBJECTID":148547},"geometry":{"x":160526.17000000179,"y":2553374.6100000013}},{"attributes":{"ID":148549,"DIS_CODE":0,"TOWNNAME":"安南區","LI":"砂崙里","LIN":"3鄰","STREET":"城北路","SECT":" ","MAREA":" ","LANE":"８７１巷","ALLEY":"１５４弄","HOUSE_NO":"５６號","E_COORD97":160532.84,"N_COORD97":2553395.3700000001,"ADDRESS":"城北路８７１巷１５４弄５６號","OBJECTID":148548},"geometry":{"x":160532.83999999985,"y":2553395.3700000029}},{"attributes":{"ID":148550,"DIS_CODE":0,"TOWNNAME":"安南區","LI":"砂崙里","LIN":"3鄰","STREET":"城北路","SECT":" ","MAREA":" ","LANE":"８７１巷","ALLEY":"１５４弄","HOUSE_NO":"６４號","E_COORD97":160537.91,"N_COORD97":2553413.23,"ADDRESS":"城北路８７１巷１５４弄６４號","OBJECTID":148549},"geometry":{"x":160537.91000000015,"y":2553413.2300000004}},{"attributes":{"ID":148551,"DIS_CODE":0,"TOWNNAME":"安南區","LI":"佃西里","LIN":"3鄰","STREET":"公學路","SECT":"四段","MAREA":" ","LANE":"２３４巷","ALLEY":"２６弄","HOUSE_NO":"５號","E_COORD97":165393.88,"N_COORD97":2551900.8999999999,"ADDRESS":"公學路四段２３４巷２６弄５號","OBJECTID":148550},"geometry":{"x":165393.88000000082,"y":2551900.8999999985}},{"attributes":{"ID":148552,"DIS_CODE":0,"TOWNNAME":"南區","LI":"郡南里","LIN":"7鄰","STREET":"永成路","SECT":"三段","MAREA":" ","LANE":"１７７巷","ALLEY":" ","HOUSE_NO":"６號","E_COORD97":167468.791593,"N_COORD97":2540848.9730600002,"ADDRESS":"永成路三段１７７巷６號","OBJECTID":148551},"geometry":{"x":167468.79159300029,"y":2540848.9730600026}},{"attributes":{"ID":148553,"DIS_CODE":0,"TOWNNAME":"官田區","LI":"官田里","LIN":"4鄰","STREET":" ","SECT":" ","MAREA":"官田","LANE":" ","ALLEY":" ","HOUSE_NO":"３３號","E_COORD97":182485.10999999999,"N_COORD97":2565273.7200000002,"ADDRESS":"官田３３號","OBJECTID":148552},"geometry":{"x":182485.11000000127,"y":2565273.7200000007}},{"attributes":{"ID":148554,"DIS_CODE":0,"TOWNNAME":"官田區","LI":"官田里","LIN":"4鄰","STREET":" ","SECT":" ","MAREA":"官田","LANE":" ","ALLEY":" ","HOUSE_NO":"３４號","E_COORD97":182482.23000000001,"N_COORD97":2565257.77,"ADDRESS":"官田３４號","OBJECTID":148553},"geometry":{"x":182482.22999999952,"y":2565257.7699999996}},{"attributes":{"ID":148555,"DIS_CODE":0,"TOWNNAME":"官田區","LI":"官田里","LIN":"4鄰","STREET":" ","SECT":" ","MAREA":"官田","LANE":" ","ALLEY":" ","HOUSE_NO":"３５號","E_COORD97":182482.82000000001,"N_COORD97":2565242.3599999999,"ADDRESS":"官田３５號","OBJECTID":148554},"geometry":{"x":182482.8200000003,"y":2565242.3600000013}},{"attributes":{"ID":148556,"DIS_CODE":0,"TOWNNAME":"官田區","LI":"官田里","LIN":"4鄰","STREET":" ","SECT":" ","MAREA":"官田","LANE":" ","ALLEY":" ","HOUSE_NO":"３６號之１","E_COORD97":182455.26000000001,"N_COORD97":2565225.4100000001,"ADDRESS":"官田３６號之１","OBJECTID":148555},"geometry":{"x":182455.25999999978,"y":2565225.410000002}},{"attributes":{"ID":148557,"DIS_CODE":0,"TOWNNAME":"官田區","LI":"官田里","LIN":"4鄰","STREET":" ","SECT":" ","MAREA":"官田","LANE":" ","ALLEY":" ","HOUSE_NO":"３６號之２","E_COORD97":182458.57000000001,"N_COORD97":2565230.46,"ADDRESS":"官田３６號之２","OBJECTID":148556},"geometry":{"x":182458.57000000123,"y":2565230.4600000028}},{"attributes":{"ID":148558,"DIS_CODE":0,"TOWNNAME":"官田區","LI":"官田里","LIN":"4鄰","STREET":" ","SECT":" ","MAREA":"官田","LANE":" ","ALLEY":" ","HOUSE_NO":"３６號之３","E_COORD97":182461.42000000001,"N_COORD97":2565236.4900000002,"ADDRESS":"官田３６號之３","OBJECTID":148557},"geometry":{"x":182461.41999999993,"y":2565236.4900000002}},{"attributes":{"ID":148559,"DIS_CODE":0,"TOWNNAME":"官田區","LI":"官田里","LIN":"4鄰","STREET":" ","SECT":" ","MAREA":"官田","LANE":" ","ALLEY":" ","HOUSE_NO":"３６號之４","E_COORD97":182464.53,"N_COORD97":2565242.8199999998,"ADDRESS":"官田３６號之４","OBJECTID":148558},"geometry":{"x":182464.53000000026,"y":2565242.820000004}},{"attributes":{"ID":148560,"DIS_CODE":0,"TOWNNAME":"官田區","LI":"官田里","LIN":"4鄰","STREET":" ","SECT":" ","MAREA":"官田","LANE":" ","ALLEY":" ","HOUSE_NO":"３６號之５","E_COORD97":182466.47,"N_COORD97":2565248.8500000001,"ADDRESS":"官田３６號之５","OBJECTID":148559},"geometry":{"x":182466.4700000016,"y":2565248.8500000034}},{"attributes":{"ID":148561,"DIS_CODE":0,"TOWNNAME":"官田區","LI":"官田里","LIN":"4鄰","STREET":" ","SECT":" ","MAREA":"官田","LANE":" ","ALLEY":" ","HOUSE_NO":"３６號之６","E_COORD97":182451.72,"N_COORD97":2565249.9399999999,"ADDRESS":"官田３６號之６","OBJECTID":148560},"geometry":{"x":182451.72000000067,"y":2565249.9399999995}},{"attributes":{"ID":148562,"DIS_CODE":0,"TOWNNAME":"安南區","LI":"佃西里","LIN":"3鄰","STREET":"公學路","SECT":"四段","MAREA":" ","LANE":"２３４巷","ALLEY":"２６弄","HOUSE_NO":"７號","E_COORD97":165395.89000000001,"N_COORD97":2551892.9700000002,"ADDRESS":"公學路四段２３４巷２６弄７號","OBJECTID":148561},"geometry":{"x":165395.88999999966,"y":2551892.9700000007}},{"attributes":{"ID":148563,"DIS_CODE":0,"TOWNNAME":"永康區","LI":"西橋里","LIN":"19鄰","STREET":"大橋三街","SECT":" ","MAREA":" ","LANE":" ","ALLEY":" ","HOUSE_NO":"２１號","E_COORD97":170477.23999999999,"N_COORD97":2546355.2400000002,"ADDRESS":"大橋三街２１號","OBJECTID":148562},"geometry":{"x":170477.24000000115,"y":2546355.2399999984}},{"attributes":{"ID":148564,"DIS_CODE":0,"TOWNNAME":"永康區","LI":"西橋里","LIN":"19鄰","STREET":"大橋三街","SECT":" ","MAREA":" ","LANE":" ","ALLEY":" ","HOUSE_NO":"１７號","E_COORD97":170472.09,"N_COORD97":2546347.5,"ADDRESS":"大橋三街１７號","OBJECTID":148563},"geometry":{"x":170472.08999999892,"y":2546347.5000000019}},{"attributes":{"ID":148565,"DIS_CODE":0,"TOWNNAME":"安南區","LI":"安東里","LIN":"3鄰","STREET":"安和路","SECT":"一段","MAREA":" ","LANE":"２８８巷","ALLEY":"９７弄","HOUSE_NO":"３號","E_COORD97":169511.57999999999,"N_COORD97":2548256.8399999999,"ADDRESS":"安和路一段２８８巷９７弄３號","OBJECTID":148564},"geometry":{"x":169511.58000000101,"y":2548256.8400000017}},{"attributes":{"ID":148566,"DIS_CODE":0,"TOWNNAME":"永康區","LI":"西橋里","LIN":"19鄰","STREET":"大橋三街","SECT":" ","MAREA":" ","LANE":" ","ALLEY":" ","HOUSE_NO":"２３號","E_COORD97":170479.79000000001,"N_COORD97":2546358.4900000002,"ADDRESS":"大橋三街２３號","OBJECTID":148565},"geometry":{"x":170479.79000000097,"y":2546358.4900000021}},{"attributes":{"ID":148567,"DIS_CODE":0,"TOWNNAME":"安南區","LI":"溪頂里","LIN":"19鄰","STREET":"賢安街","SECT":" ","MAREA":" ","LANE":" ","ALLEY":" ","HOUSE_NO":"８號","E_COORD97":168704.81,"N_COORD97":2547442.0699999998,"ADDRESS":"賢安街８號","OBJECTID":148566},"geometry":{"x":168704.81000000052,"y":2547442.0700000022}},{"attributes":{"ID":148568,"DIS_CODE":0,"TOWNNAME":"永康區","LI":"東橋里","LIN":"19鄰","STREET":"中山南路","SECT":" ","MAREA":" ","LANE":" ","ALLEY":" ","HOUSE_NO":"４５９號之１","E_COORD97":172933.26000000001,"N_COORD97":2546871.3599999999,"ADDRESS":"中山南路４５９號之１","OBJECTID":148567},"geometry":{"x":172933.25999999978,"y":2546871.3599999994}},{"attributes":{"ID":148569,"DIS_CODE":0,"TOWNNAME":"安南區","LI":"海南里","LIN":"3鄰","STREET":"府安路","SECT":"六段","MAREA":" ","LANE":"１０３巷","ALLEY":"８７弄","HOUSE_NO":"１０號","E_COORD97":166648.07999999999,"N_COORD97":2546707.1000000001,"ADDRESS":"府安路六段１０３巷８７弄１０號","OBJECTID":148568},"geometry":{"x":166648.07999999914,"y":2546707.0999999996}},{"attributes":{"ID":148570,"DIS_CODE":0,"TOWNNAME":"安南區","LI":"海南里","LIN":"3鄰","STREET":"府安路","SECT":"六段","MAREA":" ","LANE":"１０３巷","ALLEY":"８７弄","HOUSE_NO":"１１號","E_COORD97":166643.38,"N_COORD97":2546691.7200000002,"ADDRESS":"府安路六段１０３巷８７弄１１號","OBJECTID":148569},"geometry":{"x":166643.38000000082,"y":2546691.7200000044}},{"attributes":{"ID":148571,"DIS_CODE":0,"TOWNNAME":"官田區","LI":"官田里","LIN":"8鄰","STREET":" ","SECT":" ","MAREA":"官田","LANE":" ","ALLEY":" ","HOUSE_NO":"６７號","E_COORD97":182465.76000000001,"N_COORD97":2565144.6400000001,"ADDRESS":"官田６７號","OBJECTID":148570},"geometry":{"x":182465.75999999978,"y":2565144.6400000006}},{"attributes":{"ID":148572,"DIS_CODE":0,"TOWNNAME":"安南區","LI":"海南里","LIN":"3鄰","STREET":"府安路","SECT":"六段","MAREA":" ","LANE":"１０３巷","ALLEY":"８７弄","HOUSE_NO":"１２號","E_COORD97":166640.64000000001,"N_COORD97":2546705.2200000002,"ADDRESS":"府安路六段１０３巷８７弄１２號","OBJECTID":148571},"geometry":{"x":166640.64000000153,"y":2546705.2200000044}},{"attributes":{"ID":148573,"DIS_CODE":0,"TOWNNAME":"安南區","LI":"海南里","LIN":"3鄰","STREET":"府安路","SECT":"六段","MAREA":" ","LANE":"１０３巷","ALLEY":"８７弄","HOUSE_NO":"１３號","E_COORD97":166636.82000000001,"N_COORD97":2546690.3300000001,"ADDRESS":"府安路六段１０３巷８７弄１３號","OBJECTID":148572},"geometry":{"x":166636.82000000123,"y":2546690.3300000038}},{"attributes":{"ID":148574,"DIS_CODE":0,"TOWNNAME":"安南區","LI":"海南里","LIN":"3鄰","STREET":"府安路","SECT":"六段","MAREA":" ","LANE":"１０３巷","ALLEY":"８７弄","HOUSE_NO":"１４號","E_COORD97":166634.82999999999,"N_COORD97":2546704.8799999999,"ADDRESS":"府安路六段１０３巷８７弄１４號","OBJECTID":148573},"geometry":{"x":166634.83000000101,"y":2546704.879999999}},{"attributes":{"ID":148575,"DIS_CODE":0,"TOWNNAME":"安南區","LI":"海南里","LIN":"3鄰","STREET":"府安路","SECT":"六段","MAREA":" ","LANE":"１０３巷","ALLEY":"８７弄","HOUSE_NO":"１５號","E_COORD97":166630.14999999999,"N_COORD97":2546688.7999999998,"ADDRESS":"府安路六段１０３巷８７弄１５號","OBJECTID":148574},"geometry":{"x":166630.1500000013,"y":2546688.8000000026}},{"attributes":{"ID":148576,"DIS_CODE":0,"TOWNNAME":"安南區","LI":"海南里","LIN":"3鄰","STREET":"府安路","SECT":"六段","MAREA":" ","LANE":"１０３巷","ALLEY":"８７弄","HOUSE_NO":"１６號","E_COORD97":166627.56,"N_COORD97":2546703.0800000001,"ADDRESS":"府安路六段１０３巷８７弄１６號","OBJECTID":148575},"geometry":{"x":166627.56000000145,"y":2546703.0800000019}},{"attributes":{"ID":148577,"DIS_CODE":0,"TOWNNAME":"安南區","LI":"海南里","LIN":"3鄰","STREET":"府安路","SECT":"六段","MAREA":" ","LANE":"１０３巷","ALLEY":"８７弄","HOUSE_NO":"１７號","E_COORD97":166623.48999999999,"N_COORD97":2546686.8300000001,"ADDRESS":"府安路六段１０３巷８７弄１７號","OBJECTID":148576},"geometry":{"x":166623.49000000209,"y":2546686.8300000038}},{"attributes":{"ID":148578,"DIS_CODE":0,"TOWNNAME":"官田區","LI":"官田里","LIN":"4鄰","STREET":" ","SECT":" ","MAREA":"官田","LANE":" ","ALLEY":" ","HOUSE_NO":"３６號之７","E_COORD97":182448.67999999999,"N_COORD97":2565244.0299999998,"ADDRESS":"官田３６號之７","OBJECTID":148577},"geometry":{"x":182448.68000000063,"y":2565244.0300000012}},{"attributes":{"ID":148579,"DIS_CODE":0,"TOWNNAME":"安南區","LI":"海南里","LIN":"3鄰","STREET":"府安路","SECT":"六段","MAREA":" ","LANE":"１０３巷","ALLEY":"８７弄","HOUSE_NO":"１８號","E_COORD97":166620.06,"N_COORD97":2546702.98,"ADDRESS":"府安路六段１０３巷８７弄１８號","OBJECTID":148578},"geometry":{"x":166620.05999999959,"y":2546702.9800000004}},{"attributes":{"ID":148580,"DIS_CODE":0,"TOWNNAME":"官田區","LI":"官田里","LIN":"4鄰","STREET":" ","SECT":" ","MAREA":"官田","LANE":" ","ALLEY":" ","HOUSE_NO":"３６號之８","E_COORD97":182446.39999999999,"N_COORD97":2565238.29,"ADDRESS":"官田３６號之８","OBJECTID":148579},"geometry":{"x":182446.40000000037,"y":2565238.2900000028}},{"attributes":{"ID":148581,"DIS_CODE":0,"TOWNNAME":"官田區","LI":"官田里","LIN":"4鄰","STREET":" ","SECT":" ","MAREA":"官田","LANE":" ","ALLEY":" ","HOUSE_NO":"３６號之９","E_COORD97":182443,"N_COORD97":2565231.4700000002,"ADDRESS":"官田３６號之９","OBJECTID":148580},"geometry":{"x":182443.00000000093,"y":2565231.4700000007}},{"attributes":{"ID":148582,"DIS_CODE":0,"TOWNNAME":"官田區","LI":"官田里","LIN":"4鄰","STREET":" ","SECT":" ","MAREA":"官田","LANE":" ","ALLEY":" ","HOUSE_NO":"３６號","E_COORD97":182477.01999999999,"N_COORD97":2565229.1600000001,"ADDRESS":"官田３６號","OBJECTID":148581},"geometry":{"x":182477.01999999955,"y":2565229.1600000001}},{"attributes":{"ID":148583,"DIS_CODE":0,"TOWNNAME":"永康區","LI":"復國里","LIN":"19鄰","STREET":"復華五街","SECT":" ","MAREA":" ","LANE":" ","ALLEY":" ","HOUSE_NO":"４６號","E_COORD97":172783,"N_COORD97":2545714.1600000001,"ADDRESS":"復華五街４６號","OBJECTID":148582},"geometry":{"x":172783,"y":2545714.1600000001}},{"attributes":{"ID":148584,"DIS_CODE":0,"TOWNNAME":"官田區","LI":"官田里","LIN":"4鄰","STREET":" ","SECT":" ","MAREA":"官田","LANE":" ","ALLEY":" ","HOUSE_NO":"３７號之１","E_COORD97":182497.13,"N_COORD97":2565205.5699999998,"ADDRESS":"官田３７號之１","OBJECTID":148583},"geometry":{"x":182497.12999999989,"y":2565205.5700000003}},{"attributes":{"ID":148585,"DIS_CODE":0,"TOWNNAME":"官田區","LI":"官田里","LIN":"4鄰","STREET":" ","SECT":" ","MAREA":"官田","LANE":" ","ALLEY":" ","HOUSE_NO":"３７號之２","E_COORD97":182493.03,"N_COORD97":2565207.1699999999,"ADDRESS":"官田３７號之２","OBJECTID":148584},"geometry":{"x":182493.03000000026,"y":2565207.1700000018}},{"attributes":{"ID":148586,"DIS_CODE":0,"TOWNNAME":"官田區","LI":"官田里","LIN":"4鄰","STREET":" ","SECT":" ","MAREA":"官田","LANE":" ","ALLEY":" ","HOUSE_NO":"３７號之３","E_COORD97":182488.82000000001,"N_COORD97":2565209.02,"ADDRESS":"官田３７號之３","OBJECTID":148585},"geometry":{"x":182488.82000000123,"y":2565209.0199999996}},{"attributes":{"ID":148587,"DIS_CODE":0,"TOWNNAME":"官田區","LI":"官田里","LIN":"4鄰","STREET":" ","SECT":" ","MAREA":"官田","LANE":" ","ALLEY":" ","HOUSE_NO":"３９號之１","E_COORD97":182522.79000000001,"N_COORD97":2565211.46,"ADDRESS":"官田３９號之１","OBJECTID":148586},"geometry":{"x":182522.79000000097,"y":2565211.4600000009}},{"attributes":{"ID":148588,"DIS_CODE":0,"TOWNNAME":"官田區","LI":"官田里","LIN":"4鄰","STREET":" ","SECT":" ","MAREA":"官田","LANE":" ","ALLEY":" ","HOUSE_NO":"３９號之２","E_COORD97":182532,"N_COORD97":2565230.6000000001,"ADDRESS":"官田３９號之２","OBJECTID":148587},"geometry":{"x":182532,"y":2565230.6000000015}},{"attributes":{"ID":148589,"DIS_CODE":0,"TOWNNAME":"官田區","LI":"官田里","LIN":"25鄰","STREET":" ","SECT":" ","MAREA":"官田","LANE":" ","ALLEY":" ","HOUSE_NO":"４０１號之１１","E_COORD97":182366.28,"N_COORD97":2565422.3799999999,"ADDRESS":"官田４０１號之１１","OBJECTID":148588},"geometry":{"x":182366.28000000026,"y":2565422.379999999}},{"attributes":{"ID":148590,"DIS_CODE":0,"TOWNNAME":"官田區","LI":"官田里","LIN":"25鄰","STREET":" ","SECT":" ","MAREA":"官田","LANE":" ","ALLEY":" ","HOUSE_NO":"４０１號之１２","E_COORD97":182362.57000000001,"N_COORD97":2565424,"ADDRESS":"官田４０１號之１２","OBJECTID":148589},"geometry":{"x":182362.5700000003,"y":2565424}},{"attributes":{"ID":148591,"DIS_CODE":0,"TOWNNAME":"官田區","LI":"官田里","LIN":"25鄰","STREET":" ","SECT":" ","MAREA":"官田","LANE":" ","ALLEY":" ","HOUSE_NO":"４０１號之１３","E_COORD97":182358.85000000001,"N_COORD97":2565425.6099999999,"ADDRESS":"官田４０１號之１３","OBJECTID":148590},"geometry":{"x":182358.85000000056,"y":2565425.6099999994}},{"attributes":{"ID":148592,"DIS_CODE":0,"TOWNNAME":"官田區","LI":"官田里","LIN":"25鄰","STREET":" ","SECT":" ","MAREA":"官田","LANE":" ","ALLEY":" ","HOUSE_NO":"４０１號之１４","E_COORD97":182355.14000000001,"N_COORD97":2565427.23,"ADDRESS":"官田４０１號之１４","OBJECTID":148591},"geometry":{"x":182355.1400000006,"y":2565427.2300000023}},{"attributes":{"ID":148593,"DIS_CODE":0,"TOWNNAME":"官田區","LI":"官田里","LIN":"25鄰","STREET":" ","SECT":" ","MAREA":"官田","LANE":" ","ALLEY":" ","HOUSE_NO":"４０１號之１５","E_COORD97":182351.42999999999,"N_COORD97":2565428.8399999999,"ADDRESS":"官田４０１號之１５","OBJECTID":148592},"geometry":{"x":182351.43000000156,"y":2565428.8400000036}},{"attributes":{"ID":148594,"DIS_CODE":0,"TOWNNAME":"安南區","LI":"海南里","LIN":"3鄰","STREET":"府安路","SECT":"六段","MAREA":" ","LANE":"１０３巷","ALLEY":"８７弄","HOUSE_NO":"１９號","E_COORD97":166617.07000000001,"N_COORD97":2546686.0600000001,"ADDRESS":"府安路六段１０３巷８７弄１９號","OBJECTID":148593},"geometry":{"x":166617.07000000123,"y":2546686.0600000042}},{"attributes":{"ID":148595,"DIS_CODE":0,"TOWNNAME":"新營區","LI":"新東里","LIN":"26鄰","STREET":"東興五街","SECT":" ","MAREA":" ","LANE":" ","ALLEY":" ","HOUSE_NO":"４７號","E_COORD97":180617.12601000001,"N_COORD97":2579511.1085000001,"ADDRESS":"東興五街４７號","OBJECTID":148594},"geometry":{"x":180617.12601000164,"y":2579511.1084990017}},{"attributes":{"ID":148596,"DIS_CODE":0,"TOWNNAME":"西港區","LI":"南海里","LIN":"4鄰","STREET":" ","SECT":" ","MAREA":"南海埔","LANE":" ","ALLEY":" ","HOUSE_NO":"３５號","E_COORD97":167726.20999999999,"N_COORD97":2557561.1099999999,"ADDRESS":"南海埔３５號","OBJECTID":148595},"geometry":{"x":167726.20999999996,"y":2557561.1100000013}},{"attributes":{"ID":148597,"DIS_CODE":0,"TOWNNAME":"西港區","LI":"南海里","LIN":"18鄰","STREET":" ","SECT":" ","MAREA":"中港","LANE":" ","ALLEY":" ","HOUSE_NO":"３號","E_COORD97":167231.45999999999,"N_COORD97":2556477.8799999999,"ADDRESS":"中港３號","OBJECTID":148596},"geometry":{"x":167231.45999999996,"y":2556477.8800000008}},{"attributes":{"ID":148598,"DIS_CODE":0,"TOWNNAME":"官田區","LI":"官田里","LIN":"25鄰","STREET":" ","SECT":" ","MAREA":"官田","LANE":" ","ALLEY":" ","HOUSE_NO":"４０１號之１６","E_COORD97":182336.14000000001,"N_COORD97":2565424.9900000002,"ADDRESS":"官田４０１號之１６","OBJECTID":148597},"geometry":{"x":182336.13999999966,"y":2565424.9900000021}},{"attributes":{"ID":148599,"DIS_CODE":0,"TOWNNAME":"官田區","LI":"官田里","LIN":"26鄰","STREET":" ","SECT":" ","MAREA":"官田","LANE":" ","ALLEY":" ","HOUSE_NO":"４０４號之１２","E_COORD97":182323.07999999999,"N_COORD97":2565440.6600000001,"ADDRESS":"官田４０４號之１２","OBJECTID":148598},"geometry":{"x":182323.08000000007,"y":2565440.660000002}},{"attributes":{"ID":148600,"DIS_CODE":0,"TOWNNAME":"官田區","LI":"官田里","LIN":"26鄰","STREET":" ","SECT":" ","MAREA":"官田","LANE":" ","ALLEY":" ","HOUSE_NO":"４０４號之１３","E_COORD97":182319.07000000001,"N_COORD97":2565442.3900000001,"ADDRESS":"官田４０４號之１３","OBJECTID":148599},"geometry":{"x":182319.07000000123,"y":2565442.3899999987}},{"attributes":{"ID":148601,"DIS_CODE":0,"TOWNNAME":"仁德區","LI":"保安里","LIN":"19鄰","STREET":"中正路","SECT":"一段","MAREA":" ","LANE":" ","ALLEY":" ","HOUSE_NO":"３６０號","E_COORD97":172113.42999999999,"N_COORD97":2536196.52,"ADDRESS":"中正路一段３６０號","OBJECTID":148600},"geometry":{"x":172113.4299999997,"y":2536196.5200000014}}]}