{"displayFieldName":"TOWNNAME","fieldAliases":{"ID":"ID","DIS_CODE":"DIS_CODE","TOWNNAME":"TOWNNAME","LI":"LI","LIN":"LIN","STREET":"STREET","SECT":"SECT","MAREA":"MAREA","LANE":"LANE","ALLEY":"ALLEY","HOUSE_NO":"HOUSE_NO","E_COORD97":"E_COORD97","N_COORD97":"N_COORD97","ADDRESS":"ADDRESS","OBJECTID":"OBJECTID"},"geometryType":"esriGeometryPoint","spatialReference":{"wkid":102443,"latestWkid":3826},"fields":[{"name":"ID","type":"esriFieldTypeDouble","alias":"ID"},{"name":"DIS_CODE","type":"esriFieldTypeInteger","alias":"DIS_CODE"},{"name":"TOWNNAME","type":"esriFieldTypeString","alias":"TOWNNAME","length":8},{"name":"LI","type":"esriFieldTypeString","alias":"LI","length":8},{"name":"LIN","type":"esriFieldTypeString","alias":"LIN","length":12},{"name":"STREET","type":"esriFieldTypeString","alias":"STREET","length":20},{"name":"SECT","type":"esriFieldTypeString","alias":"SECT","length":8},{"name":"MAREA","type":"esriFieldTypeString","alias":"MAREA","length":12},{"name":"LANE","type":"esriFieldTypeString","alias":"LANE","length":10},{"name":"ALLEY","type":"esriFieldTypeString","alias":"ALLEY","length":10},{"name":"HOUSE_NO","type":"esriFieldTypeString","alias":"HOUSE_NO","length":20},{"name":"E_COORD97","type":"esriFieldTypeDouble","alias":"E_COORD97"},{"name":"N_COORD97","type":"esriFieldTypeDouble","alias":"N_COORD97"},{"name":"ADDRESS","type":"esriFieldTypeString","alias":"ADDRESS","length":50},{"name":"OBJECTID","type":"esriFieldTypeOID","alias":"OBJECTID"}],"features":[{"attributes":{"ID":295609,"DIS_CODE":0,"TOWNNAME":"歸仁區","LI":"六甲里","LIN":"17鄰","STREET":"六甲路","SECT":" ","MAREA":" ","LANE":"３２１巷","ALLEY":" ","HOUSE_NO":"４６號","E_COORD97":175680.321004,"N_COORD97":2539138.68487,"ADDRESS":"六甲路３２１巷４６號","OBJECTID":295601},"geometry":{"x":175680.32100400049,"y":2539138.6848750021}},{"attributes":{"ID":295610,"DIS_CODE":0,"TOWNNAME":"歸仁區","LI":"六甲里","LIN":"17鄰","STREET":"六甲路","SECT":" ","MAREA":" ","LANE":"３４１巷","ALLEY":" ","HOUSE_NO":"１７號","E_COORD97":175697.51999999999,"N_COORD97":2539167.25,"ADDRESS":"六甲路３４１巷１７號","OBJECTID":295602},"geometry":{"x":175697.52000000048,"y":2539167.25}},{"attributes":{"ID":295611,"DIS_CODE":0,"TOWNNAME":"玉井區","LI":"玉井里","LIN":"17鄰","STREET":"民主街","SECT":" ","MAREA":" ","LANE":"３９巷","ALLEY":" ","HOUSE_NO":"５號","E_COORD97":194847.63,"N_COORD97":2558088.2799999998,"ADDRESS":"民主街３９巷５號","OBJECTID":295603},"geometry":{"x":194847.63000000082,"y":2558088.2800000031}},{"attributes":{"ID":295612,"DIS_CODE":0,"TOWNNAME":"歸仁區","LI":"六甲里","LIN":"17鄰","STREET":"六甲路","SECT":" ","MAREA":" ","LANE":"３２１巷","ALLEY":" ","HOUSE_NO":"１６號","E_COORD97":175716.73203700001,"N_COORD97":2539180.8227200001,"ADDRESS":"六甲路３２１巷１６號","OBJECTID":295604},"geometry":{"x":175716.73203700129,"y":2539180.8227249999}},{"attributes":{"ID":295613,"DIS_CODE":0,"TOWNNAME":"玉井區","LI":"玉井里","LIN":"17鄰","STREET":"民主街","SECT":" ","MAREA":" ","LANE":"３５巷","ALLEY":" ","HOUSE_NO":"２號","E_COORD97":194828.42999999999,"N_COORD97":2558070.2799999998,"ADDRESS":"民主街３５巷２號","OBJECTID":295605},"geometry":{"x":194828.43000000063,"y":2558070.2799999993}},{"attributes":{"ID":295614,"DIS_CODE":0,"TOWNNAME":"玉井區","LI":"玉井里","LIN":"17鄰","STREET":"民主街","SECT":" ","MAREA":" ","LANE":"３５巷","ALLEY":" ","HOUSE_NO":"１號","E_COORD97":194840.54000000001,"N_COORD97":2558078.2799999998,"ADDRESS":"民主街３５巷１號","OBJECTID":295606},"geometry":{"x":194840.54000000004,"y":2558078.2800000031}},{"attributes":{"ID":295615,"DIS_CODE":0,"TOWNNAME":"玉井區","LI":"玉井里","LIN":"17鄰","STREET":"民主街","SECT":" ","MAREA":" ","LANE":"３９巷","ALLEY":" ","HOUSE_NO":"９號","E_COORD97":194847.04000000001,"N_COORD97":2558101.2799999998,"ADDRESS":"民主街３９巷９號","OBJECTID":295607},"geometry":{"x":194847.04000000004,"y":2558101.2799999993}},{"attributes":{"ID":295616,"DIS_CODE":0,"TOWNNAME":"北區","LI":"中樓里","LIN":"17鄰","STREET":"東豐路","SECT":" ","MAREA":" ","LANE":"１３３巷","ALLEY":" ","HOUSE_NO":"３０號","E_COORD97":169803.38,"N_COORD97":2544958.46,"ADDRESS":"東豐路１３３巷３０號","OBJECTID":295608},"geometry":{"x":169803.37999999989,"y":2544958.4600000028}},{"attributes":{"ID":295617,"DIS_CODE":0,"TOWNNAME":"北區","LI":"中樓里","LIN":"17鄰","STREET":"東豐路","SECT":" ","MAREA":" ","LANE":"１３３巷","ALLEY":" ","HOUSE_NO":"３２號","E_COORD97":169812.97,"N_COORD97":2544962.8799999999,"ADDRESS":"東豐路１３３巷３２號","OBJECTID":295609},"geometry":{"x":169812.96999999974,"y":2544962.8799999971}},{"attributes":{"ID":295618,"DIS_CODE":0,"TOWNNAME":"北區","LI":"中樓里","LIN":"17鄰","STREET":"東豐路","SECT":" ","MAREA":" ","LANE":"１３３巷","ALLEY":" ","HOUSE_NO":"３４號","E_COORD97":169814.76000000001,"N_COORD97":2544956.0299999998,"ADDRESS":"東豐路１３３巷３４號","OBJECTID":295610},"geometry":{"x":169814.75999999978,"y":2544956.0300000012}},{"attributes":{"ID":295619,"DIS_CODE":0,"TOWNNAME":"北區","LI":"中樓里","LIN":"17鄰","STREET":"東豐路","SECT":" ","MAREA":" ","LANE":"１３３巷","ALLEY":" ","HOUSE_NO":"３６號","E_COORD97":169823.41,"N_COORD97":2544969.02,"ADDRESS":"東豐路１３３巷３６號","OBJECTID":295611},"geometry":{"x":169823.41000000108,"y":2544969.0199999996}},{"attributes":{"ID":295620,"DIS_CODE":0,"TOWNNAME":"北區","LI":"中樓里","LIN":"17鄰","STREET":"東豐路","SECT":" ","MAREA":" ","LANE":"１３３巷","ALLEY":" ","HOUSE_NO":"３８號","E_COORD97":169822.07999999999,"N_COORD97":2544974.8100000001,"ADDRESS":"東豐路１３３巷３８號","OBJECTID":295612},"geometry":{"x":169822.08000000101,"y":2544974.8100000005}},{"attributes":{"ID":295621,"DIS_CODE":0,"TOWNNAME":"北區","LI":"中樓里","LIN":"17鄰","STREET":"東豐路","SECT":" ","MAREA":" ","LANE":"１３３巷","ALLEY":" ","HOUSE_NO":"４０號","E_COORD97":169819.64999999999,"N_COORD97":2544980.3900000001,"ADDRESS":"東豐路１３３巷４０號","OBJECTID":295613},"geometry":{"x":169819.64999999944,"y":2544980.3900000006}},{"attributes":{"ID":295622,"DIS_CODE":0,"TOWNNAME":"北區","LI":"中樓里","LIN":"17鄰","STREET":"東豐路","SECT":" ","MAREA":" ","LANE":"１３３巷","ALLEY":" ","HOUSE_NO":"４２號","E_COORD97":169819.01999999999,"N_COORD97":2544988.9199999999,"ADDRESS":"東豐路１３３巷４２號","OBJECTID":295614},"geometry":{"x":169819.01999999955,"y":2544988.9200000018}},{"attributes":{"ID":295623,"DIS_CODE":0,"TOWNNAME":"北區","LI":"中樓里","LIN":"17鄰","STREET":"東豐路","SECT":" ","MAREA":" ","LANE":"１３３巷","ALLEY":" ","HOUSE_NO":"４６號","E_COORD97":169810.17000000001,"N_COORD97":2544987.0299999998,"ADDRESS":"東豐路１３３巷４６號","OBJECTID":295615},"geometry":{"x":169810.16999999993,"y":2544987.0300000012}},{"attributes":{"ID":295624,"DIS_CODE":0,"TOWNNAME":"北區","LI":"中樓里","LIN":"17鄰","STREET":"東豐路","SECT":" ","MAREA":" ","LANE":"１３３巷","ALLEY":" ","HOUSE_NO":"４８號","E_COORD97":169812.06,"N_COORD97":2544974.0699999998,"ADDRESS":"東豐路１３３巷４８號","OBJECTID":295616},"geometry":{"x":169812.05999999959,"y":2544974.0700000022}},{"attributes":{"ID":295625,"DIS_CODE":0,"TOWNNAME":"北區","LI":"中樓里","LIN":"17鄰","STREET":"東豐路","SECT":" ","MAREA":" ","LANE":"１３３巷","ALLEY":" ","HOUSE_NO":"５０號","E_COORD97":169796.25,"N_COORD97":2544969.6299999999,"ADDRESS":"東豐路１３３巷５０號","OBJECTID":295617},"geometry":{"x":169796.25,"y":2544969.6300000008}},{"attributes":{"ID":295626,"DIS_CODE":0,"TOWNNAME":"北區","LI":"中樓里","LIN":"17鄰","STREET":"東豐路","SECT":" ","MAREA":" ","LANE":"１３３巷","ALLEY":" ","HOUSE_NO":"５２號","E_COORD97":169786.13,"N_COORD97":2544968.48,"ADDRESS":"東豐路１３３巷５２號","OBJECTID":295618},"geometry":{"x":169786.13000000082,"y":2544968.4800000023}},{"attributes":{"ID":295627,"DIS_CODE":0,"TOWNNAME":"北區","LI":"中樓里","LIN":"17鄰","STREET":"東豐路","SECT":" ","MAREA":" ","LANE":"１３３巷","ALLEY":" ","HOUSE_NO":"５６號","E_COORD97":169785.28,"N_COORD97":2544976.3799999999,"ADDRESS":"東豐路１３３巷５６號","OBJECTID":295619},"geometry":{"x":169785.28000000119,"y":2544976.379999999}},{"attributes":{"ID":295628,"DIS_CODE":0,"TOWNNAME":"北區","LI":"中樓里","LIN":"17鄰","STREET":"東豐路","SECT":" ","MAREA":" ","LANE":"１３３巷","ALLEY":" ","HOUSE_NO":"５８號","E_COORD97":169798.28,"N_COORD97":2544989.0899999999,"ADDRESS":"東豐路１３３巷５８號","OBJECTID":295620},"geometry":{"x":169798.27999999933,"y":2544989.0899999999}},{"attributes":{"ID":295629,"DIS_CODE":0,"TOWNNAME":"北區","LI":"中樓里","LIN":"17鄰","STREET":"東豐路","SECT":" ","MAREA":" ","LANE":"１３３巷","ALLEY":" ","HOUSE_NO":"６０號","E_COORD97":169799.25,"N_COORD97":2544995.4199999999,"ADDRESS":"東豐路１３３巷６０號","OBJECTID":295621},"geometry":{"x":169799.25,"y":2544995.4200000018}},{"attributes":{"ID":295630,"DIS_CODE":0,"TOWNNAME":"北區","LI":"中樓里","LIN":"17鄰","STREET":"東豐路","SECT":" ","MAREA":" ","LANE":"１３３巷","ALLEY":" ","HOUSE_NO":"６２號","E_COORD97":169779.62,"N_COORD97":2544991.4399999999,"ADDRESS":"東豐路１３３巷６２號","OBJECTID":295622},"geometry":{"x":169779.62000000104,"y":2544991.4400000013}},{"attributes":{"ID":295631,"DIS_CODE":0,"TOWNNAME":"七股區","LI":"竹橋里","LIN":"4鄰","STREET":" ","SECT":" ","MAREA":"竹橋","LANE":" ","ALLEY":" ","HOUSE_NO":"５０號","E_COORD97":164223.25,"N_COORD97":2555971.9399999999,"ADDRESS":"竹橋５０號","OBJECTID":295623},"geometry":{"x":164223.25000000093,"y":2555971.9400000032}},{"attributes":{"ID":295632,"DIS_CODE":0,"TOWNNAME":"北區","LI":"中樓里","LIN":"17鄰","STREET":"東豐路","SECT":" ","MAREA":" ","LANE":"１３３巷","ALLEY":" ","HOUSE_NO":"１０號","E_COORD97":169796.10000000001,"N_COORD97":2544927.0299999998,"ADDRESS":"東豐路１３３巷１０號","OBJECTID":295624},"geometry":{"x":169796.10000000056,"y":2544927.0299999993}},{"attributes":{"ID":295633,"DIS_CODE":0,"TOWNNAME":"北區","LI":"中樓里","LIN":"17鄰","STREET":"東豐路","SECT":" ","MAREA":" ","LANE":"１３３巷","ALLEY":" ","HOUSE_NO":"１２號","E_COORD97":169794.31,"N_COORD97":2544931.4500000002,"ADDRESS":"東豐路１３３巷１２號","OBJECTID":295625},"geometry":{"x":169794.31000000052,"y":2544931.4499999993}},{"attributes":{"ID":295634,"DIS_CODE":0,"TOWNNAME":"北區","LI":"中樓里","LIN":"17鄰","STREET":"東豐路","SECT":" ","MAREA":" ","LANE":"１３３巷","ALLEY":" ","HOUSE_NO":"１４號","E_COORD97":169793.35999999999,"N_COORD97":2544936.5099999998,"ADDRESS":"東豐路１３３巷１４號","OBJECTID":295626},"geometry":{"x":169793.36000000127,"y":2544936.5100000016}},{"attributes":{"ID":295635,"DIS_CODE":0,"TOWNNAME":"北區","LI":"中樓里","LIN":"17鄰","STREET":"東豐路","SECT":" ","MAREA":" ","LANE":"１３３巷","ALLEY":" ","HOUSE_NO":"１６號","E_COORD97":169810.64999999999,"N_COORD97":2544946.0299999998,"ADDRESS":"東豐路１３３巷１６號","OBJECTID":295627},"geometry":{"x":169810.65000000037,"y":2544946.0300000012}},{"attributes":{"ID":295636,"DIS_CODE":0,"TOWNNAME":"北區","LI":"中樓里","LIN":"17鄰","STREET":"東豐路","SECT":" ","MAREA":" ","LANE":"１３３巷","ALLEY":" ","HOUSE_NO":"２０號","E_COORD97":169791.98999999999,"N_COORD97":2544942.8300000001,"ADDRESS":"東豐路１３３巷２０號","OBJECTID":295628},"geometry":{"x":169791.99000000115,"y":2544942.8300000001}},{"attributes":{"ID":295637,"DIS_CODE":0,"TOWNNAME":"北區","LI":"中樓里","LIN":"17鄰","STREET":"東豐路","SECT":" ","MAREA":" ","LANE":"１３３巷","ALLEY":" ","HOUSE_NO":"２２號","E_COORD97":169790.94,"N_COORD97":2544946.4100000001,"ADDRESS":"東豐路１３３巷２２號","OBJECTID":295629},"geometry":{"x":169790.94000000134,"y":2544946.4100000001}},{"attributes":{"ID":295638,"DIS_CODE":0,"TOWNNAME":"六甲區","LI":"甲南里","LIN":"17鄰","STREET":"永安街","SECT":" ","MAREA":" ","LANE":"１巷","ALLEY":" ","HOUSE_NO":"１號","E_COORD97":183963.22,"N_COORD97":2569835.4300000002,"ADDRESS":"永安街１巷１號","OBJECTID":295630},"geometry":{"x":183963.2200000016,"y":2569835.4300000034}},{"attributes":{"ID":295639,"DIS_CODE":0,"TOWNNAME":"六甲區","LI":"甲南里","LIN":"17鄰","STREET":"永安街","SECT":" ","MAREA":" ","LANE":"３巷","ALLEY":" ","HOUSE_NO":"２號","E_COORD97":183941.26999999999,"N_COORD97":2569835.7000000002,"ADDRESS":"永安街３巷２號","OBJECTID":295631},"geometry":{"x":183941.27000000048,"y":2569835.6999999993}},{"attributes":{"ID":295640,"DIS_CODE":0,"TOWNNAME":"六甲區","LI":"六甲里","LIN":"17鄰","STREET":"復興街","SECT":" ","MAREA":" ","LANE":"７８巷","ALLEY":" ","HOUSE_NO":"２之１號","E_COORD97":183781.60000000001,"N_COORD97":2569973.7999999998,"ADDRESS":"復興街７８巷２之１號","OBJECTID":295632},"geometry":{"x":183781.60000000056,"y":2569973.8000000026}},{"attributes":{"ID":295641,"DIS_CODE":0,"TOWNNAME":"六甲區","LI":"六甲里","LIN":"17鄰","STREET":"復興街","SECT":" ","MAREA":" ","LANE":"７８巷","ALLEY":" ","HOUSE_NO":"６號","E_COORD97":183788.20999999999,"N_COORD97":2569986.02,"ADDRESS":"復興街７８巷６號","OBJECTID":295633},"geometry":{"x":183788.20999999996,"y":2569986.0199999996}},{"attributes":{"ID":295642,"DIS_CODE":0,"TOWNNAME":"六甲區","LI":"六甲里","LIN":"17鄰","STREET":"復興街","SECT":" ","MAREA":" ","LANE":"７８巷","ALLEY":" ","HOUSE_NO":"８號","E_COORD97":183788.88,"N_COORD97":2569989.7200000002,"ADDRESS":"復興街７８巷８號","OBJECTID":295634},"geometry":{"x":183788.87999999989,"y":2569989.7200000007}},{"attributes":{"ID":295643,"DIS_CODE":0,"TOWNNAME":"六甲區","LI":"甲東里","LIN":"17鄰","STREET":"裕農街","SECT":" ","MAREA":" ","LANE":"２５巷","ALLEY":" ","HOUSE_NO":"１號","E_COORD97":184022.47,"N_COORD97":2569675.3700000001,"ADDRESS":"裕農街２５巷１號","OBJECTID":295635},"geometry":{"x":184022.46999999881,"y":2569675.3700000029}},{"attributes":{"ID":295644,"DIS_CODE":0,"TOWNNAME":"六甲區","LI":"甲東里","LIN":"17鄰","STREET":"裕農街","SECT":" ","MAREA":" ","LANE":"２５巷","ALLEY":" ","HOUSE_NO":"３號","E_COORD97":184017.01000000001,"N_COORD97":2569674.0600000001,"ADDRESS":"裕農街２５巷３號","OBJECTID":295636},"geometry":{"x":184017.00999999978,"y":2569674.0600000024}},{"attributes":{"ID":295645,"DIS_CODE":0,"TOWNNAME":"六甲區","LI":"甲東里","LIN":"17鄰","STREET":"裕農街","SECT":" ","MAREA":" ","LANE":"２５巷","ALLEY":" ","HOUSE_NO":"５號","E_COORD97":184011.45999999999,"N_COORD97":2569672.54,"ADDRESS":"裕農街２５巷５號","OBJECTID":295637},"geometry":{"x":184011.46000000089,"y":2569672.540000001}},{"attributes":{"ID":295646,"DIS_CODE":0,"TOWNNAME":"六甲區","LI":"甲東里","LIN":"17鄰","STREET":"裕農街","SECT":" ","MAREA":" ","LANE":"２５巷","ALLEY":" ","HOUSE_NO":"６號","E_COORD97":184001.20999999999,"N_COORD97":2569717.8599999999,"ADDRESS":"裕農街２５巷６號","OBJECTID":295638},"geometry":{"x":184001.21000000089,"y":2569717.8600000013}},{"attributes":{"ID":295647,"DIS_CODE":0,"TOWNNAME":"六甲區","LI":"甲東里","LIN":"17鄰","STREET":"裕農街","SECT":" ","MAREA":" ","LANE":"２５巷","ALLEY":" ","HOUSE_NO":"７號","E_COORD97":183990.56,"N_COORD97":2569689.2000000002,"ADDRESS":"裕農街２５巷７號","OBJECTID":295639},"geometry":{"x":183990.55999999959,"y":2569689.1999999993}},{"attributes":{"ID":295648,"DIS_CODE":0,"TOWNNAME":"六甲區","LI":"甲東里","LIN":"17鄰","STREET":"裕農街","SECT":" ","MAREA":" ","LANE":"２５巷","ALLEY":" ","HOUSE_NO":"９號","E_COORD97":184002.13,"N_COORD97":2569689.7200000002,"ADDRESS":"裕農街２５巷９號","OBJECTID":295640},"geometry":{"x":184002.13000000082,"y":2569689.7200000025}},{"attributes":{"ID":295649,"DIS_CODE":0,"TOWNNAME":"新營區","LI":"南興里","LIN":"17鄰","STREET":"興農街","SECT":" ","MAREA":" ","LANE":"１４０巷","ALLEY":" ","HOUSE_NO":"１５之１號","E_COORD97":179194.39000000001,"N_COORD97":2577525.6299999999,"ADDRESS":"興農街１４０巷１５之１號","OBJECTID":295641},"geometry":{"x":179194.38999999966,"y":2577525.629999999}},{"attributes":{"ID":295650,"DIS_CODE":0,"TOWNNAME":"新營區","LI":"南興里","LIN":"17鄰","STREET":"興農街","SECT":" ","MAREA":" ","LANE":"１４０巷","ALLEY":" ","HOUSE_NO":"１７之２號","E_COORD97":179183.14000000001,"N_COORD97":2577525.6899999999,"ADDRESS":"興農街１４０巷１７之２號","OBJECTID":295642},"geometry":{"x":179183.13999999873,"y":2577525.6899999995}},{"attributes":{"ID":295651,"DIS_CODE":0,"TOWNNAME":"新營區","LI":"興業里","LIN":"17鄰","STREET":"中興路","SECT":" ","MAREA":" ","LANE":"１５巷","ALLEY":" ","HOUSE_NO":"２２之３號","E_COORD97":180250.95000000001,"N_COORD97":2577917.0899999999,"ADDRESS":"中興路１５巷２２之３號","OBJECTID":295643},"geometry":{"x":180250.95000000019,"y":2577917.0900000036}},{"attributes":{"ID":295652,"DIS_CODE":0,"TOWNNAME":"新營區","LI":"興業里","LIN":"17鄰","STREET":"中興路","SECT":" ","MAREA":" ","LANE":"１５巷","ALLEY":" ","HOUSE_NO":"２４號","E_COORD97":180257.64000000001,"N_COORD97":2577915.8900000001,"ADDRESS":"中興路１５巷２４號","OBJECTID":295644},"geometry":{"x":180257.63999999966,"y":2577915.8900000043}},{"attributes":{"ID":295653,"DIS_CODE":0,"TOWNNAME":"新營區","LI":"興業里","LIN":"17鄰","STREET":"中興路","SECT":" ","MAREA":" ","LANE":"１５巷","ALLEY":" ","HOUSE_NO":"２４之４號","E_COORD97":180260.14000000001,"N_COORD97":2577915.9399999999,"ADDRESS":"中興路１５巷２４之４號","OBJECTID":295645},"geometry":{"x":180260.1400000006,"y":2577915.9400000013}},{"attributes":{"ID":295654,"DIS_CODE":0,"TOWNNAME":"新營區","LI":"興業里","LIN":"17鄰","STREET":"中興路","SECT":" ","MAREA":" ","LANE":"１５巷","ALLEY":" ","HOUSE_NO":"１６之４號","E_COORD97":180219.16,"N_COORD97":2577917.2400000002,"ADDRESS":"中興路１５巷１６之４號","OBJECTID":295646},"geometry":{"x":180219.16000000015,"y":2577917.2400000021}},{"attributes":{"ID":295655,"DIS_CODE":0,"TOWNNAME":"歸仁區","LI":"大廟里","LIN":"17鄰","STREET":"保大路","SECT":"三段","MAREA":" ","LANE":"３６６巷","ALLEY":" ","HOUSE_NO":"８８號","E_COORD97":176059.72,"N_COORD97":2545374.2799999998,"ADDRESS":"保大路三段３６６巷８８號","OBJECTID":295647},"geometry":{"x":176059.71999999974,"y":2545374.2800000031}},{"attributes":{"ID":295656,"DIS_CODE":0,"TOWNNAME":"新營區","LI":"土庫里","LIN":"1鄰","STREET":" ","SECT":" ","MAREA":"土庫","LANE":" ","ALLEY":" ","HOUSE_NO":"１之２號","E_COORD97":183099.818012,"N_COORD97":2579902.7627500002,"ADDRESS":"土庫１之２號","OBJECTID":295648},"geometry":{"x":183099.81801200099,"y":2579902.7627540007}},{"attributes":{"ID":295657,"DIS_CODE":0,"TOWNNAME":"七股區","LI":"竹橋里","LIN":"4鄰","STREET":" ","SECT":" ","MAREA":"竹橋","LANE":" ","ALLEY":" ","HOUSE_NO":"５１號","E_COORD97":164197.13,"N_COORD97":2555964.1400000001,"ADDRESS":"竹橋５１號","OBJECTID":295649},"geometry":{"x":164197.13000000082,"y":2555964.1400000006}},{"attributes":{"ID":295658,"DIS_CODE":0,"TOWNNAME":"柳營區","LI":"光福里","LIN":"17鄰","STREET":"建業路","SECT":" ","MAREA":" ","LANE":"１０１巷","ALLEY":" ","HOUSE_NO":"３１號","E_COORD97":180124.92000000001,"N_COORD97":2575746.0899999999,"ADDRESS":"建業路１０１巷３１號","OBJECTID":295650},"geometry":{"x":180124.92000000086,"y":2575746.0899999999}},{"attributes":{"ID":295659,"DIS_CODE":0,"TOWNNAME":"柳營區","LI":"光福里","LIN":"17鄰","STREET":"建業路","SECT":" ","MAREA":" ","LANE":"１０１巷","ALLEY":" ","HOUSE_NO":"３５號","E_COORD97":180111.01999999999,"N_COORD97":2575737.4900000002,"ADDRESS":"建業路１０１巷３５號","OBJECTID":295651},"geometry":{"x":180111.01999999955,"y":2575737.4900000002}},{"attributes":{"ID":295660,"DIS_CODE":0,"TOWNNAME":"柳營區","LI":"光福里","LIN":"17鄰","STREET":"建業路","SECT":" ","MAREA":" ","LANE":"１０１巷","ALLEY":" ","HOUSE_NO":"１１７號","E_COORD97":179964.42000000001,"N_COORD97":2575730.0099999998,"ADDRESS":"建業路１０１巷１１７號","OBJECTID":295652},"geometry":{"x":179964.41999999993,"y":2575730.0099999998}},{"attributes":{"ID":295661,"DIS_CODE":0,"TOWNNAME":"柳營區","LI":"光福里","LIN":"17鄰","STREET":"建業路","SECT":" ","MAREA":" ","LANE":"１０１巷","ALLEY":" ","HOUSE_NO":"１３１號","E_COORD97":179918.19,"N_COORD97":2575740.2799999998,"ADDRESS":"建業路１０１巷１３１號","OBJECTID":295653},"geometry":{"x":179918.19000000134,"y":2575740.2800000012}},{"attributes":{"ID":295662,"DIS_CODE":0,"TOWNNAME":"新化區","LI":"協興里","LIN":"8鄰","STREET":"太平街","SECT":" ","MAREA":" ","LANE":"９２巷","ALLEY":" ","HOUSE_NO":"１號","E_COORD97":178698.17000000001,"N_COORD97":2549109.25,"ADDRESS":"太平街９２巷１號","OBJECTID":295654},"geometry":{"x":178698.16999999993,"y":2549109.2500000019}},{"attributes":{"ID":295663,"DIS_CODE":0,"TOWNNAME":"柳營區","LI":"光福里","LIN":"17鄰","STREET":"建業路","SECT":" ","MAREA":" ","LANE":"１０１巷","ALLEY":" ","HOUSE_NO":"１３５號","E_COORD97":179907.10000000001,"N_COORD97":2575737.7599999998,"ADDRESS":"建業路１０１巷１３５號","OBJECTID":295655},"geometry":{"x":179907.09999999963,"y":2575737.7599999998}},{"attributes":{"ID":295664,"DIS_CODE":0,"TOWNNAME":"歸仁區","LI":"大廟里","LIN":"17鄰","STREET":"保吉路","SECT":" ","MAREA":" ","LANE":"７３巷","ALLEY":" ","HOUSE_NO":"３５號","E_COORD97":175814.97,"N_COORD97":2545145.25,"ADDRESS":"保吉路７３巷３５號","OBJECTID":295656},"geometry":{"x":175814.97000000067,"y":2545145.2500000019}},{"attributes":{"ID":295665,"DIS_CODE":0,"TOWNNAME":"歸仁區","LI":"六甲里","LIN":"17鄰","STREET":"六甲路","SECT":" ","MAREA":" ","LANE":"３２１巷","ALLEY":" ","HOUSE_NO":"３４號","E_COORD97":175702.355216,"N_COORD97":2539147.0457000001,"ADDRESS":"六甲路３２１巷３４號","OBJECTID":295657},"geometry":{"x":175702.3552159993,"y":2539147.0457040016}},{"attributes":{"ID":295666,"DIS_CODE":0,"TOWNNAME":"歸仁區","LI":"六甲里","LIN":"17鄰","STREET":"六甲路","SECT":" ","MAREA":" ","LANE":"３４１巷","ALLEY":" ","HOUSE_NO":"１５號","E_COORD97":175698.62,"N_COORD97":2539172.25,"ADDRESS":"六甲路３４１巷１５號","OBJECTID":295658},"geometry":{"x":175698.62000000197,"y":2539172.2500000019}},{"attributes":{"ID":295667,"DIS_CODE":0,"TOWNNAME":"歸仁區","LI":"六甲里","LIN":"17鄰","STREET":"六甲路","SECT":" ","MAREA":" ","LANE":"３４１巷","ALLEY":" ","HOUSE_NO":"５號","E_COORD97":175695.37,"N_COORD97":2539196.25,"ADDRESS":"六甲路３４１巷５號","OBJECTID":295659},"geometry":{"x":175695.37000000104,"y":2539196.2500000019}},{"attributes":{"ID":295668,"DIS_CODE":0,"TOWNNAME":"歸仁區","LI":"六甲里","LIN":"17鄰","STREET":"六甲路","SECT":" ","MAREA":" ","LANE":"３２１巷","ALLEY":" ","HOUSE_NO":"２３號","E_COORD97":175732.440389,"N_COORD97":2539164.50819,"ADDRESS":"六甲路３２１巷２３號","OBJECTID":295660},"geometry":{"x":175732.44038899988,"y":2539164.5081940014}},{"attributes":{"ID":295669,"DIS_CODE":0,"TOWNNAME":"七股區","LI":"竹橋里","LIN":"4鄰","STREET":" ","SECT":" ","MAREA":"竹橋","LANE":" ","ALLEY":" ","HOUSE_NO":"４９號","E_COORD97":164218.38,"N_COORD97":2555945.52,"ADDRESS":"竹橋４９號","OBJECTID":295661},"geometry":{"x":164218.38000000175,"y":2555945.5200000014}},{"attributes":{"ID":295670,"DIS_CODE":0,"TOWNNAME":"安南區","LI":"州南里","LIN":"20鄰","STREET":"安和路","SECT":"四段","MAREA":" ","LANE":"５３３巷","ALLEY":" ","HOUSE_NO":"６３號","E_COORD97":169821.91,"N_COORD97":2551264.7200000002,"ADDRESS":"安和路四段５３３巷６３號","OBJECTID":295662},"geometry":{"x":169821.91000000108,"y":2551264.7200000007}},{"attributes":{"ID":295671,"DIS_CODE":0,"TOWNNAME":"安南區","LI":"州南里","LIN":"20鄰","STREET":"安和路","SECT":"四段","MAREA":" ","LANE":"５３３巷","ALLEY":" ","HOUSE_NO":"６３之１號","E_COORD97":169815.29999999999,"N_COORD97":2551263.4500000002,"ADDRESS":"安和路四段５３３巷６３之１號","OBJECTID":295663},"geometry":{"x":169815.30000000075,"y":2551263.4500000011}},{"attributes":{"ID":295672,"DIS_CODE":0,"TOWNNAME":"安南區","LI":"長安里","LIN":"4鄰","STREET":"長溪路","SECT":"三段","MAREA":" ","LANE":"３７３巷","ALLEY":" ","HOUSE_NO":"１３６號","E_COORD97":167474.67000000001,"N_COORD97":2551896.8199999998,"ADDRESS":"長溪路三段３７３巷１３６號","OBJECTID":295664},"geometry":{"x":167474.67000000179,"y":2551896.8200000003}},{"attributes":{"ID":295673,"DIS_CODE":0,"TOWNNAME":"安南區","LI":"長安里","LIN":"4鄰","STREET":"長溪路","SECT":"三段","MAREA":" ","LANE":"３７３巷","ALLEY":" ","HOUSE_NO":"１３８號","E_COORD97":167472.38,"N_COORD97":2551903.8100000001,"ADDRESS":"長溪路三段３７３巷１３８號","OBJECTID":295665},"geometry":{"x":167472.37999999989,"y":2551903.8100000005}},{"attributes":{"ID":295674,"DIS_CODE":0,"TOWNNAME":"安南區","LI":"長安里","LIN":"20鄰","STREET":"長和路","SECT":"四段","MAREA":" ","LANE":"４２２巷","ALLEY":" ","HOUSE_NO":"２號","E_COORD97":167949.42000000001,"N_COORD97":2551978.4500000002,"ADDRESS":"長和路四段４２２巷２號","OBJECTID":295666},"geometry":{"x":167949.42000000179,"y":2551978.4500000011}},{"attributes":{"ID":295675,"DIS_CODE":0,"TOWNNAME":"安南區","LI":"安富里","LIN":"30鄰","STREET":"府安路","SECT":"五段","MAREA":" ","LANE":"２１８巷","ALLEY":" ","HOUSE_NO":"５２號","E_COORD97":167521.26000000001,"N_COORD97":2547104.2400000002,"ADDRESS":"府安路五段２１８巷５２號","OBJECTID":295667},"geometry":{"x":167521.25999999885,"y":2547104.2400000002}},{"attributes":{"ID":295676,"DIS_CODE":0,"TOWNNAME":"安南區","LI":" ","LIN":" ","STREET":"安和路","SECT":"五段","MAREA":" ","LANE":"３３６巷","ALLEY":" ","HOUSE_NO":"２９號","E_COORD97":169744.66,"N_COORD97":2552230.6600000001,"ADDRESS":"安和路五段３３６巷２９號","OBJECTID":295668},"geometry":{"x":169744.66000000015,"y":2552230.6600000001}},{"attributes":{"ID":295677,"DIS_CODE":0,"TOWNNAME":"安南區","LI":"州北里","LIN":"7鄰","STREET":"安和路","SECT":"五段","MAREA":" ","LANE":"３３６巷","ALLEY":" ","HOUSE_NO":"３１號","E_COORD97":169750.70999999999,"N_COORD97":2552230.21,"ADDRESS":"安和路五段３３６巷３１號","OBJECTID":295669},"geometry":{"x":169750.70999999996,"y":2552230.2100000009}},{"attributes":{"ID":295678,"DIS_CODE":0,"TOWNNAME":"歸仁區","LI":"大潭里","LIN":"17鄰","STREET":"中正南路","SECT":"三段","MAREA":" ","LANE":"２５０巷","ALLEY":" ","HOUSE_NO":"４５號","E_COORD97":175073,"N_COORD97":2534780.2799999998,"ADDRESS":"中正南路三段２５０巷４５號","OBJECTID":295670},"geometry":{"x":175073,"y":2534780.2800000012}},{"attributes":{"ID":295679,"DIS_CODE":0,"TOWNNAME":"歸仁區","LI":"大潭里","LIN":"17鄰","STREET":"中正南路","SECT":"三段","MAREA":" ","LANE":"２５０巷","ALLEY":" ","HOUSE_NO":"３１號","E_COORD97":175100.60000000001,"N_COORD97":2534770.2799999998,"ADDRESS":"中正南路三段２５０巷３１號","OBJECTID":295671},"geometry":{"x":175100.60000000056,"y":2534770.2800000012}},{"attributes":{"ID":295680,"DIS_CODE":0,"TOWNNAME":"歸仁區","LI":"六甲里","LIN":"17鄰","STREET":"六甲路","SECT":" ","MAREA":" ","LANE":"３２１巷","ALLEY":" ","HOUSE_NO":"３０號","E_COORD97":175710.82991199999,"N_COORD97":2539148.3157000002,"ADDRESS":"六甲路３２１巷３０號","OBJECTID":295672},"geometry":{"x":175710.82991200034,"y":2539148.3157030009}},{"attributes":{"ID":295681,"DIS_CODE":0,"TOWNNAME":"北區","LI":"文元里","LIN":"14鄰","STREET":"文賢路","SECT":" ","MAREA":" ","LANE":" ","ALLEY":" ","HOUSE_NO":"１０７６號","E_COORD97":167361.26000000001,"N_COORD97":2546182.6499999999,"ADDRESS":"文賢路１０７６號","OBJECTID":295673},"geometry":{"x":167361.25999999978,"y":2546182.6500000004}},{"attributes":{"ID":295682,"DIS_CODE":0,"TOWNNAME":"北區","LI":"文元里","LIN":"14鄰","STREET":"文賢路","SECT":" ","MAREA":" ","LANE":" ","ALLEY":" ","HOUSE_NO":"１０７８號","E_COORD97":167360.53,"N_COORD97":2546186.8199999998,"ADDRESS":"文賢路１０７８號","OBJECTID":295674},"geometry":{"x":167360.53000000026,"y":2546186.8200000022}},{"attributes":{"ID":295683,"DIS_CODE":0,"TOWNNAME":"北區","LI":"實踐里","LIN":"14鄰","STREET":"大武街","SECT":" ","MAREA":" ","LANE":" ","ALLEY":" ","HOUSE_NO":"２０３號之７","E_COORD97":169618,"N_COORD97":2546070.5299999998,"ADDRESS":"大武街２０３號之７","OBJECTID":295675},"geometry":{"x":169618,"y":2546070.5299999993}},{"attributes":{"ID":295684,"DIS_CODE":0,"TOWNNAME":"北區","LI":"實踐里","LIN":"14鄰","STREET":"大武街","SECT":" ","MAREA":" ","LANE":" ","ALLEY":" ","HOUSE_NO":"２０３號之４","E_COORD97":169626.45999999999,"N_COORD97":2546067.7200000002,"ADDRESS":"大武街２０３號之４","OBJECTID":295676},"geometry":{"x":169626.46000000089,"y":2546067.7199999988}},{"attributes":{"ID":295685,"DIS_CODE":0,"TOWNNAME":"北區","LI":"實踐里","LIN":"14鄰","STREET":"大武街","SECT":" ","MAREA":" ","LANE":" ","ALLEY":" ","HOUSE_NO":"２０３號之３","E_COORD97":169625.87,"N_COORD97":2546064.1800000002,"ADDRESS":"大武街２０３號之３","OBJECTID":295677},"geometry":{"x":169625.87000000011,"y":2546064.1800000016}},{"attributes":{"ID":295686,"DIS_CODE":0,"TOWNNAME":"北區","LI":"實踐里","LIN":"14鄰","STREET":"大武街","SECT":" ","MAREA":" ","LANE":" ","ALLEY":" ","HOUSE_NO":"２０３號之２","E_COORD97":169626.45999999999,"N_COORD97":2546059.8500000001,"ADDRESS":"大武街２０３號之２","OBJECTID":295678},"geometry":{"x":169626.46000000089,"y":2546059.8500000015}},{"attributes":{"ID":295687,"DIS_CODE":0,"TOWNNAME":"北區","LI":"實踐里","LIN":"14鄰","STREET":"大武街","SECT":" ","MAREA":" ","LANE":" ","ALLEY":" ","HOUSE_NO":"２０３號之１","E_COORD97":169624.88,"N_COORD97":2546055.5299999998,"ADDRESS":"大武街２０３號之１","OBJECTID":295679},"geometry":{"x":169624.88000000082,"y":2546055.5300000012}},{"attributes":{"ID":295688,"DIS_CODE":0,"TOWNNAME":"北區","LI":"實踐里","LIN":"14鄰","STREET":"大武街","SECT":" ","MAREA":" ","LANE":" ","ALLEY":" ","HOUSE_NO":"２０３號","E_COORD97":169624.48999999999,"N_COORD97":2546052.29,"ADDRESS":"大武街２０３號","OBJECTID":295680},"geometry":{"x":169624.49000000115,"y":2546052.2900000028}},{"attributes":{"ID":295689,"DIS_CODE":0,"TOWNNAME":"北區","LI":"實踐里","LIN":"14鄰","STREET":"大武街","SECT":" ","MAREA":" ","LANE":" ","ALLEY":" ","HOUSE_NO":"１８９號","E_COORD97":169622.23000000001,"N_COORD97":2545997.3799999999,"ADDRESS":"大武街１８９號","OBJECTID":295681},"geometry":{"x":169622.23000000045,"y":2545997.3800000027}},{"attributes":{"ID":295690,"DIS_CODE":0,"TOWNNAME":"七股區","LI":"竹橋里","LIN":"4鄰","STREET":" ","SECT":" ","MAREA":"竹橋","LANE":" ","ALLEY":" ","HOUSE_NO":"５４號","E_COORD97":164157.04000000001,"N_COORD97":2555946.9700000002,"ADDRESS":"竹橋５４號","OBJECTID":295682},"geometry":{"x":164157.04000000097,"y":2555946.9700000025}},{"attributes":{"ID":295691,"DIS_CODE":0,"TOWNNAME":"安南區","LI":"州南里","LIN":"8鄰","STREET":"長和路","SECT":"三段","MAREA":" ","LANE":"９４巷","ALLEY":" ","HOUSE_NO":"５號","E_COORD97":169705,"N_COORD97":2551561.0699999998,"ADDRESS":"長和路三段９４巷５號","OBJECTID":295683},"geometry":{"x":169704.99999999907,"y":2551561.070000004}},{"attributes":{"ID":295692,"DIS_CODE":0,"TOWNNAME":"七股區","LI":"竹橋里","LIN":"4鄰","STREET":" ","SECT":" ","MAREA":"竹橋","LANE":" ","ALLEY":" ","HOUSE_NO":"５５號","E_COORD97":164146.94,"N_COORD97":2555932.04,"ADDRESS":"竹橋５５號","OBJECTID":295684},"geometry":{"x":164146.94000000041,"y":2555932.0399999991}},{"attributes":{"ID":295693,"DIS_CODE":0,"TOWNNAME":"安南區","LI":"理想里","LIN":"15鄰","STREET":"大安街","SECT":" ","MAREA":" ","LANE":"１５９巷","ALLEY":" ","HOUSE_NO":"１號","E_COORD97":167307.82999999999,"N_COORD97":2548226.9399999999,"ADDRESS":"大安街１５９巷１號","OBJECTID":295685},"geometry":{"x":167307.83000000101,"y":2548226.9399999995}},{"attributes":{"ID":295694,"DIS_CODE":0,"TOWNNAME":"安南區","LI":"理想里","LIN":"8鄰","STREET":"海佃路","SECT":"二段","MAREA":" ","LANE":"１５０巷","ALLEY":" ","HOUSE_NO":"１７８號","E_COORD97":167244.73000000001,"N_COORD97":2548503.25,"ADDRESS":"海佃路二段１５０巷１７８號","OBJECTID":295686},"geometry":{"x":167244.73000000138,"y":2548503.25}},{"attributes":{"ID":295695,"DIS_CODE":0,"TOWNNAME":"安南區","LI":"理想里","LIN":"8鄰","STREET":"海佃路","SECT":"二段","MAREA":" ","LANE":"１５０巷","ALLEY":" ","HOUSE_NO":"１８０號","E_COORD97":167246.48000000001,"N_COORD97":2548506.4199999999,"ADDRESS":"海佃路二段１５０巷１８０號","OBJECTID":295687},"geometry":{"x":167246.48000000138,"y":2548506.4199999999}},{"attributes":{"ID":295696,"DIS_CODE":0,"TOWNNAME":"歸仁區","LI":"六甲里","LIN":"17鄰","STREET":"六甲路","SECT":" ","MAREA":" ","LANE":"３４１巷","ALLEY":" ","HOUSE_NO":"１號","E_COORD97":175693.37,"N_COORD97":2539203.25,"ADDRESS":"六甲路３４１巷１號","OBJECTID":295688},"geometry":{"x":175693.36999999918,"y":2539203.25}},{"attributes":{"ID":295697,"DIS_CODE":0,"TOWNNAME":"南區","LI":"金華里","LIN":"17鄰","STREET":"金華路","SECT":"二段","MAREA":" ","LANE":"６３巷","ALLEY":" ","HOUSE_NO":"８６號","E_COORD97":166718.88,"N_COORD97":2542180.3399999999,"ADDRESS":"金華路二段６３巷８６號","OBJECTID":295689},"geometry":{"x":166718.88000000175,"y":2542180.3399999999}},{"attributes":{"ID":295698,"DIS_CODE":0,"TOWNNAME":"南區","LI":"金華里","LIN":"17鄰","STREET":"惠南街","SECT":" ","MAREA":" ","LANE":"５４巷","ALLEY":" ","HOUSE_NO":"１０號","E_COORD97":166792.35000000001,"N_COORD97":2542197.3999999999,"ADDRESS":"惠南街５４巷１０號","OBJECTID":295690},"geometry":{"x":166792.35000000056,"y":2542197.4000000004}},{"attributes":{"ID":295699,"DIS_CODE":0,"TOWNNAME":"南區","LI":"金華里","LIN":"17鄰","STREET":"惠南街","SECT":" ","MAREA":" ","LANE":"５４巷","ALLEY":" ","HOUSE_NO":"１２號","E_COORD97":166797.84,"N_COORD97":2542199.5899999999,"ADDRESS":"惠南街５４巷１２號","OBJECTID":295691},"geometry":{"x":166797.84000000078,"y":2542199.5900000036}},{"attributes":{"ID":295700,"DIS_CODE":0,"TOWNNAME":"北區","LI":"實踐里","LIN":"14鄰","STREET":"大武街","SECT":" ","MAREA":" ","LANE":" ","ALLEY":" ","HOUSE_NO":"１８９號之１","E_COORD97":169622.42000000001,"N_COORD97":2546004.75,"ADDRESS":"大武街１８９號之１","OBJECTID":295692},"geometry":{"x":169622.42000000179,"y":2546004.75}},{"attributes":{"ID":295701,"DIS_CODE":0,"TOWNNAME":"北區","LI":"實踐里","LIN":"14鄰","STREET":"大武街","SECT":" ","MAREA":" ","LANE":" ","ALLEY":" ","HOUSE_NO":"１８９號之２","E_COORD97":169622.42999999999,"N_COORD97":2546016.25,"ADDRESS":"大武街１８９號之２","OBJECTID":295693},"geometry":{"x":169622.43000000063,"y":2546016.2500000037}},{"attributes":{"ID":295702,"DIS_CODE":0,"TOWNNAME":"北區","LI":"實踐里","LIN":"14鄰","STREET":"大武街","SECT":" ","MAREA":" ","LANE":" ","ALLEY":" ","HOUSE_NO":"１６１號","E_COORD97":169613.13,"N_COORD97":2545983.0600000001,"ADDRESS":"大武街１６１號","OBJECTID":295694},"geometry":{"x":169613.13000000082,"y":2545983.0600000005}},{"attributes":{"ID":295703,"DIS_CODE":0,"TOWNNAME":"北區","LI":"實踐里","LIN":"14鄰","STREET":"大武街","SECT":" ","MAREA":" ","LANE":" ","ALLEY":" ","HOUSE_NO":"１５９號之２","E_COORD97":169594.54000000001,"N_COORD97":2545970.1600000001,"ADDRESS":"大武街１５９號之２","OBJECTID":295695},"geometry":{"x":169594.53999999911,"y":2545970.160000002}},{"attributes":{"ID":295704,"DIS_CODE":0,"TOWNNAME":"北區","LI":"實踐里","LIN":"14鄰","STREET":"大武街","SECT":" ","MAREA":" ","LANE":" ","ALLEY":" ","HOUSE_NO":"１５９號之１","E_COORD97":169605.45999999999,"N_COORD97":2545969.4700000002,"ADDRESS":"大武街１５９號之１","OBJECTID":295696},"geometry":{"x":169605.46000000089,"y":2545969.4700000025}},{"attributes":{"ID":295705,"DIS_CODE":0,"TOWNNAME":"安南區","LI":"理想里","LIN":"21鄰","STREET":"海佃路","SECT":"二段","MAREA":" ","LANE":"１５０巷","ALLEY":" ","HOUSE_NO":"１２２之４９號","E_COORD97":167293.23999999999,"N_COORD97":2548622.98,"ADDRESS":"海佃路二段１５０巷１２２之４９號","OBJECTID":295697},"geometry":{"x":167293.24000000209,"y":2548622.9800000023}},{"attributes":{"ID":295706,"DIS_CODE":0,"TOWNNAME":"安南區","LI":"理想里","LIN":"16鄰","STREET":"大安街","SECT":" ","MAREA":" ","LANE":"１８７巷","ALLEY":" ","HOUSE_NO":"２號之１","E_COORD97":167355.97,"N_COORD97":2548307.7400000002,"ADDRESS":"大安街１８７巷２號之１","OBJECTID":295698},"geometry":{"x":167355.97000000067,"y":2548307.7400000002}},{"attributes":{"ID":295707,"DIS_CODE":0,"TOWNNAME":"安南區","LI":"理想里","LIN":"16鄰","STREET":"大安街","SECT":" ","MAREA":" ","LANE":"１８７巷","ALLEY":" ","HOUSE_NO":"１８號","E_COORD97":167329.98999999999,"N_COORD97":2548324.1299999999,"ADDRESS":"大安街１８７巷１８號","OBJECTID":295699},"geometry":{"x":167329.99000000022,"y":2548324.129999999}},{"attributes":{"ID":295708,"DIS_CODE":0,"TOWNNAME":"安南區","LI":"理想里","LIN":"16鄰","STREET":"大安街","SECT":" ","MAREA":" ","LANE":"２０１巷","ALLEY":" ","HOUSE_NO":"１１號","E_COORD97":167348.78,"N_COORD97":2548335.8599999999,"ADDRESS":"大安街２０１巷１１號","OBJECTID":295700},"geometry":{"x":167348.78000000212,"y":2548335.8599999994}},{"attributes":{"ID":295709,"DIS_CODE":0,"TOWNNAME":"安南區","LI":"安慶里","LIN":"5鄰","STREET":"怡安路","SECT":"一段","MAREA":" ","LANE":"２６２巷","ALLEY":" ","HOUSE_NO":"３９號","E_COORD97":169020.88,"N_COORD97":2549249.2000000002,"ADDRESS":"怡安路一段２６２巷３９號","OBJECTID":295701},"geometry":{"x":169020.88000000175,"y":2549249.1999999993}},{"attributes":{"ID":295710,"DIS_CODE":0,"TOWNNAME":"安南區","LI":"安慶里","LIN":"5鄰","STREET":"怡安路","SECT":"一段","MAREA":" ","LANE":"２６２巷","ALLEY":" ","HOUSE_NO":"４１號","E_COORD97":169020.25,"N_COORD97":2549253.3300000001,"ADDRESS":"怡安路一段２６２巷４１號","OBJECTID":295702},"geometry":{"x":169020.25000000186,"y":2549253.3300000038}},{"attributes":{"ID":295711,"DIS_CODE":0,"TOWNNAME":"安南區","LI":"安慶里","LIN":"5鄰","STREET":"怡安路","SECT":"一段","MAREA":" ","LANE":"２６２巷","ALLEY":" ","HOUSE_NO":"４３號","E_COORD97":169019.92999999999,"N_COORD97":2549257.46,"ADDRESS":"怡安路一段２６２巷４３號","OBJECTID":295703},"geometry":{"x":169019.9299999997,"y":2549257.4600000028}},{"attributes":{"ID":295712,"DIS_CODE":0,"TOWNNAME":"安南區","LI":"佃西里","LIN":"13鄰","STREET":"海佃路","SECT":"四段","MAREA":" ","LANE":"５３１巷","ALLEY":" ","HOUSE_NO":"２號","E_COORD97":165189.98999999999,"N_COORD97":2551647.8300000001,"ADDRESS":"海佃路四段５３１巷２號","OBJECTID":295704},"geometry":{"x":165189.99000000115,"y":2551647.8300000019}},{"attributes":{"ID":295713,"DIS_CODE":0,"TOWNNAME":"安南區","LI":"安慶里","LIN":"13鄰","STREET":"安和路","SECT":"二段","MAREA":" ","LANE":"７３巷","ALLEY":" ","HOUSE_NO":"１２號","E_COORD97":169444.45000000001,"N_COORD97":2548723.25,"ADDRESS":"安和路二段７３巷１２號","OBJECTID":295705},"geometry":{"x":169444.44999999925,"y":2548723.2500000019}},{"attributes":{"ID":295714,"DIS_CODE":0,"TOWNNAME":"安南區","LI":"安慶里","LIN":"32鄰","STREET":"怡安路","SECT":"一段","MAREA":" ","LANE":"３１６巷","ALLEY":" ","HOUSE_NO":"２５號","E_COORD97":168931.19,"N_COORD97":2549158.5600000001,"ADDRESS":"怡安路一段３１６巷２５號","OBJECTID":295706},"geometry":{"x":168931.19000000227,"y":2549158.5600000024}},{"attributes":{"ID":295715,"DIS_CODE":0,"TOWNNAME":"安南區","LI":"佃西里","LIN":"4鄰","STREET":"公學路","SECT":"四段","MAREA":" ","LANE":"１２６巷","ALLEY":" ","HOUSE_NO":"１０２號","E_COORD97":165345.42000000001,"N_COORD97":2551928.1499999999,"ADDRESS":"公學路四段１２６巷１０２號","OBJECTID":295707},"geometry":{"x":165345.41999999899,"y":2551928.1500000022}},{"attributes":{"ID":295716,"DIS_CODE":0,"TOWNNAME":"安南區","LI":"公親里","LIN":"8鄰","STREET":"公學路","SECT":"一段","MAREA":" ","LANE":"１７３巷","ALLEY":" ","HOUSE_NO":"３之６號","E_COORD97":168098.79000000001,"N_COORD97":2553009.9900000002,"ADDRESS":"公學路一段１７３巷３之６號","OBJECTID":295708},"geometry":{"x":168098.79000000004,"y":2553009.9900000021}},{"attributes":{"ID":295717,"DIS_CODE":0,"TOWNNAME":"南區","LI":"金華里","LIN":"17鄰","STREET":"惠南街","SECT":" ","MAREA":" ","LANE":"５４巷","ALLEY":" ","HOUSE_NO":"２號","E_COORD97":166774.14000000001,"N_COORD97":2542199.2599999998,"ADDRESS":"惠南街５４巷２號","OBJECTID":295709},"geometry":{"x":166774.13999999966,"y":2542199.2600000016}},{"attributes":{"ID":295718,"DIS_CODE":0,"TOWNNAME":"北區","LI":"實踐里","LIN":"14鄰","STREET":"大武街","SECT":" ","MAREA":" ","LANE":" ","ALLEY":" ","HOUSE_NO":"１５９號","E_COORD97":169616.87,"N_COORD97":2545966.23,"ADDRESS":"大武街１５９號","OBJECTID":295710},"geometry":{"x":169616.87000000104,"y":2545966.2300000023}},{"attributes":{"ID":295719,"DIS_CODE":0,"TOWNNAME":"北區","LI":"實踐里","LIN":"14鄰","STREET":"大武街","SECT":" ","MAREA":" ","LANE":" ","ALLEY":" ","HOUSE_NO":"１５７號之１","E_COORD97":169619.53,"N_COORD97":2545957.3799999999,"ADDRESS":"大武街１５７號之１","OBJECTID":295711},"geometry":{"x":169619.53000000119,"y":2545957.3800000008}},{"attributes":{"ID":295720,"DIS_CODE":0,"TOWNNAME":"新營區","LI":"三仙里","LIN":"14鄰","STREET":"武昌街","SECT":" ","MAREA":" ","LANE":" ","ALLEY":" ","HOUSE_NO":"８３號","E_COORD97":179492.22,"N_COORD97":2578282.75,"ADDRESS":"武昌街８３號","OBJECTID":295712},"geometry":{"x":179492.21999999974,"y":2578282.7500000019}},{"attributes":{"ID":295721,"DIS_CODE":0,"TOWNNAME":"新營區","LI":"嘉芳里","LIN":"14鄰","STREET":"新工路","SECT":" ","MAREA":" ","LANE":" ","ALLEY":" ","HOUSE_NO":"１１號","E_COORD97":176569.41,"N_COORD97":2578414.3500000001,"ADDRESS":"新工路１１號","OBJECTID":295713},"geometry":{"x":176569.41000000015,"y":2578414.3500000015}},{"attributes":{"ID":295722,"DIS_CODE":0,"TOWNNAME":"新營區","LI":"王公里","LIN":"14鄰","STREET":"中正路","SECT":" ","MAREA":" ","LANE":" ","ALLEY":" ","HOUSE_NO":"１００號","E_COORD97":180109.04000000001,"N_COORD97":2579340.77,"ADDRESS":"中正路１００號","OBJECTID":295714},"geometry":{"x":180109.04000000097,"y":2579340.7700000014}},{"attributes":{"ID":295723,"DIS_CODE":0,"TOWNNAME":"新營區","LI":"嘉芳里","LIN":"14鄰","STREET":"新工路","SECT":" ","MAREA":" ","LANE":" ","ALLEY":" ","HOUSE_NO":"２３號","E_COORD97":176548.64000000001,"N_COORD97":2578130.9399999999,"ADDRESS":"新工路２３號","OBJECTID":295715},"geometry":{"x":176548.63999999966,"y":2578130.9399999995}},{"attributes":{"ID":295724,"DIS_CODE":0,"TOWNNAME":"新營區","LI":"中營里","LIN":"14鄰","STREET":"東山路","SECT":" ","MAREA":" ","LANE":" ","ALLEY":" ","HOUSE_NO":"１０１號","E_COORD97":181492.29999999999,"N_COORD97":2578770.6200000001,"ADDRESS":"東山路１０１號","OBJECTID":295716},"geometry":{"x":181492.29999999981,"y":2578770.6200000029}},{"attributes":{"ID":295725,"DIS_CODE":0,"TOWNNAME":"新營區","LI":"南紙里","LIN":"14鄰","STREET":"南紙街","SECT":" ","MAREA":" ","LANE":" ","ALLEY":" ","HOUSE_NO":"１５２號","E_COORD97":177787.92999999999,"N_COORD97":2577376.2200000002,"ADDRESS":"南紙街１５２號","OBJECTID":295717},"geometry":{"x":177787.93000000156,"y":2577376.2200000025}},{"attributes":{"ID":295726,"DIS_CODE":0,"TOWNNAME":"新營區","LI":"中營里","LIN":"14鄰","STREET":"東山路","SECT":" ","MAREA":" ","LANE":" ","ALLEY":" ","HOUSE_NO":"１０３號","E_COORD97":181485.92000000001,"N_COORD97":2578718.6000000001,"ADDRESS":"東山路１０３號","OBJECTID":295718},"geometry":{"x":181485.92000000086,"y":2578718.6000000015}},{"attributes":{"ID":295727,"DIS_CODE":0,"TOWNNAME":"新營區","LI":"中營里","LIN":"14鄰","STREET":"東山三路","SECT":" ","MAREA":" ","LANE":" ","ALLEY":" ","HOUSE_NO":"６９號","E_COORD97":181606.57000000001,"N_COORD97":2578976.0699999998,"ADDRESS":"東山三路６９號","OBJECTID":295719},"geometry":{"x":181606.5700000003,"y":2578976.0700000022}},{"attributes":{"ID":295728,"DIS_CODE":0,"TOWNNAME":"新營區","LI":"中營里","LIN":"14鄰","STREET":"東山三路","SECT":" ","MAREA":" ","LANE":" ","ALLEY":" ","HOUSE_NO":"１２２號","E_COORD97":181796.76000000001,"N_COORD97":2579141.3199999998,"ADDRESS":"東山三路１２２號","OBJECTID":295720},"geometry":{"x":181796.76000000071,"y":2579141.3200000022}},{"attributes":{"ID":295729,"DIS_CODE":0,"TOWNNAME":"新營區","LI":"中營里","LIN":"14鄰","STREET":"東山路","SECT":" ","MAREA":" ","LANE":" ","ALLEY":" ","HOUSE_NO":"１２５號","E_COORD97":181536.03,"N_COORD97":2578717.2599999998,"ADDRESS":"東山路１２５號","OBJECTID":295721},"geometry":{"x":181536.03000000119,"y":2578717.2600000016}},{"attributes":{"ID":295730,"DIS_CODE":0,"TOWNNAME":"新營區","LI":"中營里","LIN":"14鄰","STREET":"東山三路","SECT":" ","MAREA":" ","LANE":" ","ALLEY":" ","HOUSE_NO":"８５號","E_COORD97":181579.79999999999,"N_COORD97":2579146.75,"ADDRESS":"東山三路８５號","OBJECTID":295722},"geometry":{"x":181579.80000000075,"y":2579146.7500000037}},{"attributes":{"ID":295731,"DIS_CODE":0,"TOWNNAME":"新營區","LI":"中營里","LIN":"14鄰","STREET":"東山路","SECT":" ","MAREA":" ","LANE":" ","ALLEY":" ","HOUSE_NO":"１６５號","E_COORD97":181663.92000000001,"N_COORD97":2578724.4300000002,"ADDRESS":"東山路１６５號","OBJECTID":295723},"geometry":{"x":181663.92000000086,"y":2578724.4299999997}},{"attributes":{"ID":295732,"DIS_CODE":0,"TOWNNAME":"安南區","LI":"佃西里","LIN":"7鄰","STREET":"海佃路","SECT":"四段","MAREA":" ","LANE":"３８８巷","ALLEY":" ","HOUSE_NO":"１０３號","E_COORD97":165585.67999999999,"N_COORD97":2551855.9100000001,"ADDRESS":"海佃路四段３８８巷１０３號","OBJECTID":295724},"geometry":{"x":165585.6799999997,"y":2551855.9100000001}},{"attributes":{"ID":295733,"DIS_CODE":0,"TOWNNAME":"北區","LI":"華興里","LIN":"17鄰","STREET":"南園街","SECT":" ","MAREA":" ","LANE":"１２７巷","ALLEY":" ","HOUSE_NO":"３５號","E_COORD97":170715.76000000001,"N_COORD97":2545289.3599999999,"ADDRESS":"南園街１２７巷３５號","OBJECTID":295725},"geometry":{"x":170715.76000000071,"y":2545289.3600000031}},{"attributes":{"ID":295734,"DIS_CODE":0,"TOWNNAME":"新營區","LI":"中營里","LIN":"14鄰","STREET":"東山三路","SECT":" ","MAREA":" ","LANE":" ","ALLEY":" ","HOUSE_NO":"７５號","E_COORD97":181607.01999999999,"N_COORD97":2579069.1000000001,"ADDRESS":"東山三路７５號","OBJECTID":295726},"geometry":{"x":181607.02000000048,"y":2579069.0999999996}},{"attributes":{"ID":295735,"DIS_CODE":0,"TOWNNAME":"新營區","LI":"土庫里","LIN":"1鄰","STREET":" ","SECT":" ","MAREA":"土庫","LANE":" ","ALLEY":" ","HOUSE_NO":"１號之１","E_COORD97":183086.04566800001,"N_COORD97":2579897.4710900001,"ADDRESS":"土庫１號之１","OBJECTID":295727},"geometry":{"x":183086.04566800129,"y":2579897.4710900001}},{"attributes":{"ID":295736,"DIS_CODE":0,"TOWNNAME":"新營區","LI":"埤寮里","LIN":"14鄰","STREET":"中正路","SECT":" ","MAREA":" ","LANE":" ","ALLEY":" ","HOUSE_NO":"３３０之１號","E_COORD97":180079.73999999999,"N_COORD97":2580167.1299999999,"ADDRESS":"中正路３３０之１號","OBJECTID":295728},"geometry":{"x":180079.74000000022,"y":2580167.1300000027}},{"attributes":{"ID":295737,"DIS_CODE":0,"TOWNNAME":"七股區","LI":"西寮里","LIN":"2鄰","STREET":" ","SECT":" ","MAREA":"西寮","LANE":" ","ALLEY":" ","HOUSE_NO":"１５號","E_COORD97":157466.14999999999,"N_COORD97":2563514.8999999999,"ADDRESS":"西寮１５號","OBJECTID":295729},"geometry":{"x":157466.15000000037,"y":2563514.9000000022}},{"attributes":{"ID":295738,"DIS_CODE":0,"TOWNNAME":"七股區","LI":"竹橋里","LIN":"4鄰","STREET":" ","SECT":" ","MAREA":"竹橋","LANE":" ","ALLEY":" ","HOUSE_NO":"４３號之７","E_COORD97":164200.89000000001,"N_COORD97":2555849.6200000001,"ADDRESS":"竹橋４３號之７","OBJECTID":295730},"geometry":{"x":164200.88999999966,"y":2555849.620000001}},{"attributes":{"ID":295739,"DIS_CODE":0,"TOWNNAME":"歸仁區","LI":"看東里","LIN":"15鄰","STREET":"成功路","SECT":"一段","MAREA":" ","LANE":" ","ALLEY":" ","HOUSE_NO":"２６號","E_COORD97":179017.04287500001,"N_COORD97":2540422.9680499998,"ADDRESS":"成功路一段２６號","OBJECTID":295731},"geometry":{"x":179017.04287500028,"y":2540422.9680449981}},{"attributes":{"ID":295740,"DIS_CODE":0,"TOWNNAME":"安南區","LI":"安順里","LIN":"15鄰","STREET":"育安街","SECT":" ","MAREA":" ","LANE":"１８９巷","ALLEY":" ","HOUSE_NO":"５號","E_COORD97":169540.92999999999,"N_COORD97":2550031.0299999998,"ADDRESS":"育安街１８９巷５號","OBJECTID":295732},"geometry":{"x":169540.93000000156,"y":2550031.0300000031}},{"attributes":{"ID":295741,"DIS_CODE":0,"TOWNNAME":"安南區","LI":"安慶里","LIN":"32鄰","STREET":"頂安街","SECT":" ","MAREA":" ","LANE":"３９９巷","ALLEY":" ","HOUSE_NO":"１號","E_COORD97":169032.48999999999,"N_COORD97":2549371.6200000001,"ADDRESS":"頂安街３９９巷１號","OBJECTID":295733},"geometry":{"x":169032.49000000209,"y":2549371.6200000029}},{"attributes":{"ID":295742,"DIS_CODE":0,"TOWNNAME":"安南區","LI":"安慶里","LIN":"32鄰","STREET":"頂安街","SECT":" ","MAREA":" ","LANE":"３９９巷","ALLEY":" ","HOUSE_NO":"３號","E_COORD97":169033.26000000001,"N_COORD97":2549368.0699999998,"ADDRESS":"頂安街３９９巷３號","OBJECTID":295734},"geometry":{"x":169033.25999999978,"y":2549368.0700000022}},{"attributes":{"ID":295743,"DIS_CODE":0,"TOWNNAME":"安南區","LI":"安順里","LIN":"2鄰","STREET":"總安街","SECT":"一段","MAREA":" ","LANE":"５７巷","ALLEY":" ","HOUSE_NO":"２２號","E_COORD97":169860.34,"N_COORD97":2550046.27,"ADDRESS":"總安街一段５７巷２２號","OBJECTID":295735},"geometry":{"x":169860.34000000171,"y":2550046.2699999996}},{"attributes":{"ID":295744,"DIS_CODE":0,"TOWNNAME":"安南區","LI":"安順里","LIN":"2鄰","STREET":"總安街","SECT":"一段","MAREA":" ","LANE":"５７巷","ALLEY":" ","HOUSE_NO":"１８號","E_COORD97":169842.07999999999,"N_COORD97":2550055.4700000002,"ADDRESS":"總安街一段５７巷１８號","OBJECTID":295736},"geometry":{"x":169842.08000000101,"y":2550055.4700000007}},{"attributes":{"ID":295745,"DIS_CODE":0,"TOWNNAME":"新化區","LI":"太平里","LIN":"14鄰","STREET":"太平街","SECT":" ","MAREA":" ","LANE":" ","ALLEY":" ","HOUSE_NO":"６４號","E_COORD97":178760.37,"N_COORD97":2548779.25,"ADDRESS":"太平街６４號","OBJECTID":295737},"geometry":{"x":178760.37000000104,"y":2548779.2500000037}},{"attributes":{"ID":295746,"DIS_CODE":0,"TOWNNAME":"安南區","LI":"安順里","LIN":"2鄰","STREET":"總安街","SECT":"一段","MAREA":" ","LANE":"５７巷","ALLEY":" ","HOUSE_NO":"２０號","E_COORD97":169850.66,"N_COORD97":2550051.0299999998,"ADDRESS":"總安街一段５７巷２０號","OBJECTID":295738},"geometry":{"x":169850.66000000108,"y":2550051.0299999993}},{"attributes":{"ID":295747,"DIS_CODE":0,"TOWNNAME":"北區","LI":"華興里","LIN":"17鄰","STREET":"南園街","SECT":" ","MAREA":" ","LANE":"１２７巷","ALLEY":" ","HOUSE_NO":"３７號","E_COORD97":170719,"N_COORD97":2545286.9199999999,"ADDRESS":"南園街１２７巷３７號","OBJECTID":295739},"geometry":{"x":170719.00000000093,"y":2545286.9200000018}},{"attributes":{"ID":295748,"DIS_CODE":0,"TOWNNAME":"北區","LI":"華興里","LIN":"17鄰","STREET":"南園街","SECT":" ","MAREA":" ","LANE":"１２７巷","ALLEY":" ","HOUSE_NO":"３９號","E_COORD97":170723.26000000001,"N_COORD97":2545288.6499999999,"ADDRESS":"南園街１２７巷３９號","OBJECTID":295740},"geometry":{"x":170723.25999999978,"y":2545288.6500000022}},{"attributes":{"ID":295749,"DIS_CODE":0,"TOWNNAME":"北區","LI":"華興里","LIN":"17鄰","STREET":"南園街","SECT":" ","MAREA":" ","LANE":"１２７巷","ALLEY":" ","HOUSE_NO":"４１號","E_COORD97":170727.14000000001,"N_COORD97":2545286.4300000002,"ADDRESS":"南園街１２７巷４１號","OBJECTID":295741},"geometry":{"x":170727.13999999966,"y":2545286.4300000016}},{"attributes":{"ID":295750,"DIS_CODE":0,"TOWNNAME":"北區","LI":"華興里","LIN":"17鄰","STREET":"南園街","SECT":" ","MAREA":" ","LANE":"１２７巷","ALLEY":" ","HOUSE_NO":"４５號","E_COORD97":170734.72,"N_COORD97":2545285.7200000002,"ADDRESS":"南園街１２７巷４５號","OBJECTID":295742},"geometry":{"x":170734.72000000067,"y":2545285.7200000025}},{"attributes":{"ID":295751,"DIS_CODE":0,"TOWNNAME":"北區","LI":"華興里","LIN":"17鄰","STREET":"南園街","SECT":" ","MAREA":" ","LANE":"１２７巷","ALLEY":" ","HOUSE_NO":"４７號","E_COORD97":170738.92000000001,"N_COORD97":2545287.2999999998,"ADDRESS":"南園街１２７巷４７號","OBJECTID":295743},"geometry":{"x":170738.91999999993,"y":2545287.3000000007}},{"attributes":{"ID":295752,"DIS_CODE":0,"TOWNNAME":"北區","LI":"華興里","LIN":"17鄰","STREET":"南園街","SECT":" ","MAREA":" ","LANE":"１２７巷","ALLEY":" ","HOUSE_NO":"４９號","E_COORD97":170742.32999999999,"N_COORD97":2545285.1600000001,"ADDRESS":"南園街１２７巷４９號","OBJECTID":295744},"geometry":{"x":170742.33000000101,"y":2545285.160000002}},{"attributes":{"ID":295753,"DIS_CODE":0,"TOWNNAME":"北區","LI":"華興里","LIN":"17鄰","STREET":"南園街","SECT":" ","MAREA":" ","LANE":"１２７巷","ALLEY":" ","HOUSE_NO":"５１號","E_COORD97":170746.42999999999,"N_COORD97":2545286.6600000001,"ADDRESS":"南園街１２７巷５１號","OBJECTID":295745},"geometry":{"x":170746.43000000063,"y":2545286.6600000001}},{"attributes":{"ID":295754,"DIS_CODE":0,"TOWNNAME":"北區","LI":"華興里","LIN":"17鄰","STREET":"南園街","SECT":" ","MAREA":" ","LANE":"１２７巷","ALLEY":" ","HOUSE_NO":"５３號","E_COORD97":170754.01000000001,"N_COORD97":2545283.8999999999,"ADDRESS":"南園街１２７巷５３號","OBJECTID":295746},"geometry":{"x":170754.00999999885,"y":2545283.9000000022}},{"attributes":{"ID":295755,"DIS_CODE":0,"TOWNNAME":"北區","LI":"華興里","LIN":"17鄰","STREET":"南園街","SECT":" ","MAREA":" ","LANE":"１２７巷","ALLEY":" ","HOUSE_NO":"５５號","E_COORD97":170757.95999999999,"N_COORD97":2545281.8500000001,"ADDRESS":"南園街１２７巷５５號","OBJECTID":295747},"geometry":{"x":170757.96000000183,"y":2545281.8499999996}},{"attributes":{"ID":295756,"DIS_CODE":0,"TOWNNAME":"北區","LI":"華興里","LIN":"17鄰","STREET":"南園街","SECT":" ","MAREA":" ","LANE":"１２７巷","ALLEY":" ","HOUSE_NO":"５７號","E_COORD97":170762.38,"N_COORD97":2545283.8199999998,"ADDRESS":"南園街１２７巷５７號","OBJECTID":295748},"geometry":{"x":170762.38000000082,"y":2545283.820000004}},{"attributes":{"ID":295757,"DIS_CODE":0,"TOWNNAME":"新營區","LI":"中營里","LIN":"14鄰","STREET":"東信街","SECT":" ","MAREA":" ","LANE":" ","ALLEY":" ","HOUSE_NO":"７號","E_COORD97":181340.25,"N_COORD97":2578937.4399999999,"ADDRESS":"東信街７號","OBJECTID":295749},"geometry":{"x":181340.25,"y":2578937.4399999995}},{"attributes":{"ID":295758,"DIS_CODE":0,"TOWNNAME":"新營區","LI":"中營里","LIN":"14鄰","STREET":"東山一路","SECT":" ","MAREA":" ","LANE":" ","ALLEY":" ","HOUSE_NO":"５１號","E_COORD97":181361.56,"N_COORD97":2578585.3700000001,"ADDRESS":"東山一路５１號","OBJECTID":295750},"geometry":{"x":181361.55999999959,"y":2578585.3700000029}},{"attributes":{"ID":295759,"DIS_CODE":0,"TOWNNAME":"新營區","LI":"中營里","LIN":"14鄰","STREET":"東山中路","SECT":" ","MAREA":" ","LANE":" ","ALLEY":" ","HOUSE_NO":"３５號","E_COORD97":181807.14000000001,"N_COORD97":2579059.4700000002,"ADDRESS":"東山中路３５號","OBJECTID":295751},"geometry":{"x":181807.13999999966,"y":2579059.4700000025}},{"attributes":{"ID":295760,"DIS_CODE":0,"TOWNNAME":"新營區","LI":"中營里","LIN":"14鄰","STREET":"東平街","SECT":" ","MAREA":" ","LANE":" ","ALLEY":" ","HOUSE_NO":"２８號","E_COORD97":181605.73999999999,"N_COORD97":2578815.6400000001,"ADDRESS":"東平街２８號","OBJECTID":295752},"geometry":{"x":181605.74000000115,"y":2578815.6400000006}},{"attributes":{"ID":295761,"DIS_CODE":0,"TOWNNAME":"新營區","LI":"嘉芳里","LIN":"14鄰","STREET":"復興路","SECT":" ","MAREA":" ","LANE":" ","ALLEY":" ","HOUSE_NO":"１０７７號","E_COORD97":176540.32000000001,"N_COORD97":2578751.8500000001,"ADDRESS":"復興路１０７７號","OBJECTID":295753},"geometry":{"x":176540.32000000123,"y":2578751.8499999996}},{"attributes":{"ID":295762,"DIS_CODE":0,"TOWNNAME":"新營區","LI":"嘉芳里","LIN":"14鄰","STREET":"八德路","SECT":" ","MAREA":" ","LANE":" ","ALLEY":" ","HOUSE_NO":"５號","E_COORD97":176787.35999999999,"N_COORD97":2578058.8799999999,"ADDRESS":"八德路５號","OBJECTID":295754},"geometry":{"x":176787.36000000127,"y":2578058.879999999}},{"attributes":{"ID":295763,"DIS_CODE":0,"TOWNNAME":"新營區","LI":"民權里","LIN":"14鄰","STREET":"仁愛街","SECT":" ","MAREA":" ","LANE":" ","ALLEY":" ","HOUSE_NO":"５０號","E_COORD97":179789.38,"N_COORD97":2578404.27,"ADDRESS":"仁愛街５０號","OBJECTID":295755},"geometry":{"x":179789.38000000082,"y":2578404.2700000014}},{"attributes":{"ID":295764,"DIS_CODE":0,"TOWNNAME":"新營區","LI":"永生里","LIN":"14鄰","STREET":"永安街","SECT":" ","MAREA":" ","LANE":" ","ALLEY":" ","HOUSE_NO":"２５號","E_COORD97":179893.69,"N_COORD97":2577906.4300000002,"ADDRESS":"永安街２５號","OBJECTID":295756},"geometry":{"x":179893.69000000041,"y":2577906.4299999997}},{"attributes":{"ID":295765,"DIS_CODE":0,"TOWNNAME":"歸仁區","LI":"後市里","LIN":"13鄰","STREET":"中山路","SECT":"二段","MAREA":" ","LANE":" ","ALLEY":" ","HOUSE_NO":"２４２號","E_COORD97":176993.21119,"N_COORD97":2540875.3832299998,"ADDRESS":"中山路二段２４２號","OBJECTID":295757},"geometry":{"x":176993.21119000018,"y":2540875.3832320031}},{"attributes":{"ID":295766,"DIS_CODE":0,"TOWNNAME":"七股區","LI":"竹橋里","LIN":"4鄰","STREET":" ","SECT":" ","MAREA":"竹橋","LANE":" ","ALLEY":" ","HOUSE_NO":"５２號","E_COORD97":164180.64999999999,"N_COORD97":2555956.6699999999,"ADDRESS":"竹橋５２號","OBJECTID":295758},"geometry":{"x":164180.6500000013,"y":2555956.6699999999}},{"attributes":{"ID":295767,"DIS_CODE":0,"TOWNNAME":"安南區","LI":"總頭里","LIN":"8鄰","STREET":"長溪路","SECT":"二段","MAREA":" ","LANE":" ","ALLEY":" ","HOUSE_NO":"６１２號之１","E_COORD97":168233.47,"N_COORD97":2550760.0299999998,"ADDRESS":"長溪路二段６１２號之１","OBJECTID":295759},"geometry":{"x":168233.46999999881,"y":2550760.0300000031}},{"attributes":{"ID":295768,"DIS_CODE":0,"TOWNNAME":"安南區","LI":"淵西里","LIN":"8鄰","STREET":"安中路","SECT":"四段","MAREA":" ","LANE":"３０６巷","ALLEY":" ","HOUSE_NO":"７２之１０號","E_COORD97":164722.57999999999,"N_COORD97":2550315.0600000001,"ADDRESS":"安中路四段３０６巷７２之１０號","OBJECTID":295760},"geometry":{"x":164722.58000000194,"y":2550315.0600000024}},{"attributes":{"ID":295769,"DIS_CODE":0,"TOWNNAME":"北區","LI":"華興里","LIN":"17鄰","STREET":"南園街","SECT":" ","MAREA":" ","LANE":"１２７巷","ALLEY":" ","HOUSE_NO":"５９號","E_COORD97":170765.62,"N_COORD97":2545281.6099999999,"ADDRESS":"南園街１２７巷５９號","OBJECTID":295761},"geometry":{"x":170765.62000000197,"y":2545281.6100000013}},{"attributes":{"ID":295770,"DIS_CODE":0,"TOWNNAME":"北區","LI":"華興里","LIN":"17鄰","STREET":"南園街","SECT":" ","MAREA":" ","LANE":"１２７巷","ALLEY":" ","HOUSE_NO":"６１號","E_COORD97":170770.12,"N_COORD97":2545283.1099999999,"ADDRESS":"南園街１２７巷６１號","OBJECTID":295762},"geometry":{"x":170770.12000000011,"y":2545283.1099999994}},{"attributes":{"ID":295771,"DIS_CODE":0,"TOWNNAME":"北區","LI":"華興里","LIN":"17鄰","STREET":"南園街","SECT":" ","MAREA":" ","LANE":"１２７巷","ALLEY":" ","HOUSE_NO":"６３號","E_COORD97":170773.44,"N_COORD97":2545281.1400000001,"ADDRESS":"南園街１２７巷６３號","OBJECTID":295763},"geometry":{"x":170773.44000000041,"y":2545281.1400000006}},{"attributes":{"ID":295772,"DIS_CODE":0,"TOWNNAME":"北區","LI":"長榮里","LIN":"17鄰","STREET":"開元路","SECT":" ","MAREA":" ","LANE":"２４９巷","ALLEY":" ","HOUSE_NO":"４０號","E_COORD97":169877.14999999999,"N_COORD97":2545530.23,"ADDRESS":"開元路２４９巷４０號","OBJECTID":295764},"geometry":{"x":169877.15000000037,"y":2545530.2300000004}},{"attributes":{"ID":295773,"DIS_CODE":0,"TOWNNAME":"新營區","LI":"南興里","LIN":"17鄰","STREET":"興農街","SECT":" ","MAREA":" ","LANE":"１４０巷","ALLEY":" ","HOUSE_NO":"２５之３號","E_COORD97":179155.59,"N_COORD97":2577526.9300000002,"ADDRESS":"興農街１４０巷２５之３號","OBJECTID":295765},"geometry":{"x":179155.59000000078,"y":2577526.9299999997}},{"attributes":{"ID":295774,"DIS_CODE":0,"TOWNNAME":"新營區","LI":"南興里","LIN":"17鄰","STREET":"興農街","SECT":" ","MAREA":" ","LANE":"１４０巷","ALLEY":" ","HOUSE_NO":"１５之４號","E_COORD97":179194.39000000001,"N_COORD97":2577525.6299999999,"ADDRESS":"興農街１４０巷１５之４號","OBJECTID":295766},"geometry":{"x":179194.38999999966,"y":2577525.629999999}},{"attributes":{"ID":295775,"DIS_CODE":0,"TOWNNAME":"新營區","LI":"南紙里","LIN":"17鄰","STREET":"南紙街","SECT":" ","MAREA":" ","LANE":"１６２巷","ALLEY":" ","HOUSE_NO":"７７號","E_COORD97":177928.57000000001,"N_COORD97":2577306.8599999999,"ADDRESS":"南紙街１６２巷７７號","OBJECTID":295767},"geometry":{"x":177928.57000000123,"y":2577306.8599999994}},{"attributes":{"ID":295776,"DIS_CODE":0,"TOWNNAME":"新營區","LI":"南紙里","LIN":"17鄰","STREET":"南紙街","SECT":" ","MAREA":" ","LANE":"１６２巷","ALLEY":" ","HOUSE_NO":"６７號","E_COORD97":177888.63,"N_COORD97":2577303.7400000002,"ADDRESS":"南紙街１６２巷６７號","OBJECTID":295768},"geometry":{"x":177888.63000000082,"y":2577303.7400000021}},{"attributes":{"ID":295777,"DIS_CODE":0,"TOWNNAME":"新營區","LI":"南紙里","LIN":"17鄰","STREET":"南紙街","SECT":" ","MAREA":" ","LANE":"１６２巷","ALLEY":" ","HOUSE_NO":"５７號","E_COORD97":177869.17999999999,"N_COORD97":2577299.3999999999,"ADDRESS":"南紙街１６２巷５７號","OBJECTID":295769},"geometry":{"x":177869.17999999877,"y":2577299.4000000022}},{"attributes":{"ID":295778,"DIS_CODE":0,"TOWNNAME":"新化區","LI":"東榮里","LIN":"14鄰","STREET":"中興路","SECT":" ","MAREA":" ","LANE":" ","ALLEY":" ","HOUSE_NO":"５８３號","E_COORD97":179870.91,"N_COORD97":2547936.25,"ADDRESS":"中興路５８３號","OBJECTID":295770},"geometry":{"x":179870.91000000108,"y":2547936.2500000019}},{"attributes":{"ID":295779,"DIS_CODE":0,"TOWNNAME":"新化區","LI":"太平里","LIN":"14鄰","STREET":"太平街","SECT":" ","MAREA":" ","LANE":" ","ALLEY":" ","HOUSE_NO":"５４號","E_COORD97":178801.87,"N_COORD97":2548788.25,"ADDRESS":"太平街５４號","OBJECTID":295771},"geometry":{"x":178801.87000000011,"y":2548788.25}},{"attributes":{"ID":295780,"DIS_CODE":0,"TOWNNAME":"安南區","LI":"溪北里","LIN":"4鄰","STREET":"文安街","SECT":" ","MAREA":" ","LANE":"１１０巷","ALLEY":" ","HOUSE_NO":"９號","E_COORD97":169165.35999999999,"N_COORD97":2547468.9300000002,"ADDRESS":"文安街１１０巷９號","OBJECTID":295772},"geometry":{"x":169165.36000000034,"y":2547468.9300000034}},{"attributes":{"ID":295781,"DIS_CODE":0,"TOWNNAME":"安南區","LI":"海東里","LIN":"4鄰","STREET":"海中街","SECT":" ","MAREA":" ","LANE":"１６４巷","ALLEY":" ","HOUSE_NO":"８號","E_COORD97":166326.42999999999,"N_COORD97":2549209.0699999998,"ADDRESS":"海中街１６４巷８號","OBJECTID":295773},"geometry":{"x":166326.4299999997,"y":2549209.0700000022}},{"attributes":{"ID":295782,"DIS_CODE":0,"TOWNNAME":"安南區","LI":"海東里","LIN":"4鄰","STREET":"海中街","SECT":" ","MAREA":" ","LANE":"１６４巷","ALLEY":" ","HOUSE_NO":"１０號","E_COORD97":166329.60999999999,"N_COORD97":2549211.3500000001,"ADDRESS":"海中街１６４巷１０號","OBJECTID":295774},"geometry":{"x":166329.6100000022,"y":2549211.3499999996}},{"attributes":{"ID":295783,"DIS_CODE":0,"TOWNNAME":"安南區","LI":"海東里","LIN":"4鄰","STREET":"海中街","SECT":" ","MAREA":" ","LANE":"１６４巷","ALLEY":" ","HOUSE_NO":"２號","E_COORD97":166312.59,"N_COORD97":2549205.1299999999,"ADDRESS":"海中街１６４巷２號","OBJECTID":295775},"geometry":{"x":166312.59000000078,"y":2549205.129999999}},{"attributes":{"ID":295784,"DIS_CODE":0,"TOWNNAME":"安南區","LI":"\u25A0田里","LIN":"7鄰","STREET":"\u25A0田路","SECT":" ","MAREA":" ","LANE":"３０巷","ALLEY":" ","HOUSE_NO":"６９號","E_COORD97":162471.01999999999,"N_COORD97":2548344.04,"ADDRESS":"\u25A0田路３０巷６９號","OBJECTID":295776},"geometry":{"x":162471.01999999862,"y":2548344.040000001}},{"attributes":{"ID":295785,"DIS_CODE":0,"TOWNNAME":"新營區","LI":"新東里","LIN":"17鄰","STREET":"東興二街","SECT":" ","MAREA":" ","LANE":"３５巷","ALLEY":" ","HOUSE_NO":"６號","E_COORD97":180903.01999999999,"N_COORD97":2579057.96,"ADDRESS":"東興二街３５巷６號","OBJECTID":295777},"geometry":{"x":180903.02000000048,"y":2579057.9600000009}},{"attributes":{"ID":295786,"DIS_CODE":0,"TOWNNAME":"新營區","LI":"南紙里","LIN":"17鄰","STREET":"南紙街","SECT":" ","MAREA":" ","LANE":"１６２巷","ALLEY":" ","HOUSE_NO":"５５號","E_COORD97":177865.09,"N_COORD97":2577298.3100000001,"ADDRESS":"南紙街１６２巷５５號","OBJECTID":295778},"geometry":{"x":177865.09000000078,"y":2577298.3100000005}},{"attributes":{"ID":295787,"DIS_CODE":0,"TOWNNAME":"新營區","LI":"南紙里","LIN":"17鄰","STREET":"南紙街","SECT":" ","MAREA":" ","LANE":"１６２巷","ALLEY":" ","HOUSE_NO":"６１號","E_COORD97":177877.37,"N_COORD97":2577301.5800000001,"ADDRESS":"南紙街１６２巷６１號","OBJECTID":295779},"geometry":{"x":177877.37000000104,"y":2577301.5800000019}},{"attributes":{"ID":295788,"DIS_CODE":0,"TOWNNAME":"新營區","LI":"南紙里","LIN":"17鄰","STREET":"南紙街","SECT":" ","MAREA":" ","LANE":"１６２巷","ALLEY":" ","HOUSE_NO":"７９號","E_COORD97":177929.60999999999,"N_COORD97":2577310.1800000002,"ADDRESS":"南紙街１６２巷７９號","OBJECTID":295780},"geometry":{"x":177929.6099999994,"y":2577310.1800000016}},{"attributes":{"ID":295789,"DIS_CODE":0,"TOWNNAME":"新營區","LI":"興業里","LIN":"17鄰","STREET":"中興路","SECT":" ","MAREA":" ","LANE":"１５巷","ALLEY":" ","HOUSE_NO":"１８號","E_COORD97":180227.91,"N_COORD97":2577917.1400000001,"ADDRESS":"中興路１５巷１８號","OBJECTID":295781},"geometry":{"x":180227.91000000201,"y":2577917.1400000006}},{"attributes":{"ID":295790,"DIS_CODE":0,"TOWNNAME":"新營區","LI":"南興里","LIN":"17鄰","STREET":"興農街","SECT":" ","MAREA":" ","LANE":"１４０巷","ALLEY":" ","HOUSE_NO":"１３之４號","E_COORD97":179197.45999999999,"N_COORD97":2577525.6200000001,"ADDRESS":"興農街１４０巷１３之４號","OBJECTID":295782},"geometry":{"x":179197.46000000089,"y":2577525.6200000029}},{"attributes":{"ID":295791,"DIS_CODE":0,"TOWNNAME":"北區","LI":"實踐里","LIN":"8鄰","STREET":"長榮路","SECT":"五段","MAREA":" ","LANE":"２９８巷","ALLEY":" ","HOUSE_NO":"１號","E_COORD97":169727.39000000001,"N_COORD97":2545940.8100000001,"ADDRESS":"長榮路五段２９８巷１號","OBJECTID":295783},"geometry":{"x":169727.38999999873,"y":2545940.8100000005}},{"attributes":{"ID":295792,"DIS_CODE":0,"TOWNNAME":"北區","LI":"實踐里","LIN":"8鄰","STREET":"長榮路","SECT":"五段","MAREA":" ","LANE":"２９８巷","ALLEY":" ","HOUSE_NO":"３號","E_COORD97":169729.01000000001,"N_COORD97":2545946.02,"ADDRESS":"長榮路五段２９８巷３號","OBJECTID":295784},"geometry":{"x":169729.01000000071,"y":2545946.0200000033}},{"attributes":{"ID":295793,"DIS_CODE":0,"TOWNNAME":"北區","LI":"實踐里","LIN":"8鄰","STREET":"長榮路","SECT":"五段","MAREA":" ","LANE":"２９８巷","ALLEY":" ","HOUSE_NO":"５號","E_COORD97":169731.44,"N_COORD97":2545952.27,"ADDRESS":"長榮路五段２９８巷５號","OBJECTID":295785},"geometry":{"x":169731.44000000227,"y":2545952.2700000014}},{"attributes":{"ID":295794,"DIS_CODE":0,"TOWNNAME":"北區","LI":"實踐里","LIN":"8鄰","STREET":"長榮路","SECT":"五段","MAREA":" ","LANE":"２９８巷","ALLEY":" ","HOUSE_NO":"７號","E_COORD97":169732.60000000001,"N_COORD97":2545958.98,"ADDRESS":"長榮路五段２９８巷７號","OBJECTID":295786},"geometry":{"x":169732.59999999963,"y":2545958.9800000023}},{"attributes":{"ID":295795,"DIS_CODE":0,"TOWNNAME":"北區","LI":"實踐里","LIN":"8鄰","STREET":"長榮路","SECT":"五段","MAREA":" ","LANE":"２９８巷","ALLEY":" ","HOUSE_NO":"９號","E_COORD97":169733.98999999999,"N_COORD97":2545965.46,"ADDRESS":"長榮路五段２９８巷９號","OBJECTID":295787},"geometry":{"x":169733.99000000022,"y":2545965.4600000028}},{"attributes":{"ID":295796,"DIS_CODE":0,"TOWNNAME":"北區","LI":"成功里","LIN":"17鄰","STREET":"北成路","SECT":" ","MAREA":" ","LANE":"１２８巷","ALLEY":" ","HOUSE_NO":"７０號","E_COORD97":169019.85999999999,"N_COORD97":2546869.6699999999,"ADDRESS":"北成路１２８巷７０號","OBJECTID":295788},"geometry":{"x":169019.8600000022,"y":2546869.6699999999}},{"attributes":{"ID":295797,"DIS_CODE":0,"TOWNNAME":"新化區","LI":"武安里","LIN":"14鄰","STREET":"健康路","SECT":" ","MAREA":" ","LANE":" ","ALLEY":" ","HOUSE_NO":"７０號","E_COORD97":178857.07999999999,"N_COORD97":2548109.2599999998,"ADDRESS":"健康路７０號","OBJECTID":295789},"geometry":{"x":178857.08000000101,"y":2548109.2600000016}},{"attributes":{"ID":295798,"DIS_CODE":0,"TOWNNAME":"新化區","LI":"武安里","LIN":"14鄰","STREET":"健康路","SECT":" ","MAREA":" ","LANE":" ","ALLEY":" ","HOUSE_NO":"９２號","E_COORD97":178826.57999999999,"N_COORD97":2548139.2599999998,"ADDRESS":"健康路９２號","OBJECTID":295790},"geometry":{"x":178826.58000000101,"y":2548139.2600000016}},{"attributes":{"ID":295799,"DIS_CODE":0,"TOWNNAME":"新化區","LI":"武安里","LIN":"14鄰","STREET":"健康路","SECT":" ","MAREA":" ","LANE":" ","ALLEY":" ","HOUSE_NO":"１２２號","E_COORD97":178810.23000000001,"N_COORD97":2548192.2599999998,"ADDRESS":"健康路１２２號","OBJECTID":295791},"geometry":{"x":178810.23000000045,"y":2548192.2599999979}},{"attributes":{"ID":295800,"DIS_CODE":0,"TOWNNAME":"新化區","LI":"武安里","LIN":"14鄰","STREET":"健康路","SECT":" ","MAREA":" ","LANE":" ","ALLEY":" ","HOUSE_NO":"９７號","E_COORD97":178797.67999999999,"N_COORD97":2548151.2599999998,"ADDRESS":"健康路９７號","OBJECTID":295792},"geometry":{"x":178797.6799999997,"y":2548151.2599999998}},{"attributes":{"ID":295801,"DIS_CODE":0,"TOWNNAME":"新化區","LI":"武安里","LIN":"14鄰","STREET":"健康路","SECT":" ","MAREA":" ","LANE":" ","ALLEY":" ","HOUSE_NO":"８８號","E_COORD97":178831.78,"N_COORD97":2548133.2599999998,"ADDRESS":"健康路８８號","OBJECTID":295793},"geometry":{"x":178831.78000000026,"y":2548133.2599999998}},{"attributes":{"ID":295802,"DIS_CODE":0,"TOWNNAME":"新化區","LI":"武安里","LIN":"14鄰","STREET":"健康路","SECT":" ","MAREA":" ","LANE":" ","ALLEY":" ","HOUSE_NO":"７９號","E_COORD97":178825.28,"N_COORD97":2548120.2599999998,"ADDRESS":"健康路７９號","OBJECTID":295794},"geometry":{"x":178825.28000000212,"y":2548120.2599999998}},{"attributes":{"ID":295803,"DIS_CODE":0,"TOWNNAME":"鹽水區","LI":"水正里","LIN":"17鄰","STREET":"中正路","SECT":" ","MAREA":" ","LANE":"１４２巷","ALLEY":" ","HOUSE_NO":"３號","E_COORD97":175037.41,"N_COORD97":2579704.5899999999,"ADDRESS":"中正路１４２巷３號","OBJECTID":295795},"geometry":{"x":175037.41000000108,"y":2579704.5900000017}},{"attributes":{"ID":295804,"DIS_CODE":0,"TOWNNAME":"七股區","LI":"竹橋里","LIN":"4鄰","STREET":" ","SECT":" ","MAREA":"竹橋","LANE":" ","ALLEY":" ","HOUSE_NO":"４５號","E_COORD97":164154.39999999999,"N_COORD97":2555905.71,"ADDRESS":"竹橋４５號","OBJECTID":295796},"geometry":{"x":164154.40000000224,"y":2555905.7100000009}},{"attributes":{"ID":295805,"DIS_CODE":0,"TOWNNAME":"七股區","LI":"竹橋里","LIN":"4鄰","STREET":" ","SECT":" ","MAREA":"竹橋","LANE":" ","ALLEY":" ","HOUSE_NO":"４６號","E_COORD97":164165.28,"N_COORD97":2555912.0899999999,"ADDRESS":"竹橋４６號","OBJECTID":295797},"geometry":{"x":164165.28000000212,"y":2555912.0899999999}},{"attributes":{"ID":295806,"DIS_CODE":0,"TOWNNAME":"七股區","LI":"竹橋里","LIN":"4鄰","STREET":" ","SECT":" ","MAREA":"竹橋","LANE":" ","ALLEY":" ","HOUSE_NO":"５０號之１","E_COORD97":164213.98000000001,"N_COORD97":2555969.9300000002,"ADDRESS":"竹橋５０號之１","OBJECTID":295798},"geometry":{"x":164213.98000000138,"y":2555969.9300000016}},{"attributes":{"ID":295807,"DIS_CODE":0,"TOWNNAME":"七股區","LI":"竹橋里","LIN":"5鄰","STREET":" ","SECT":" ","MAREA":"竹橋","LANE":" ","ALLEY":" ","HOUSE_NO":"６２號","E_COORD97":164110.54999999999,"N_COORD97":2555801.8199999998,"ADDRESS":"竹橋６２號","OBJECTID":295799},"geometry":{"x":164110.55000000075,"y":2555801.8200000022}},{"attributes":{"ID":295808,"DIS_CODE":0,"TOWNNAME":"七股區","LI":"竹港里","LIN":"8鄰","STREET":" ","SECT":" ","MAREA":"竹港","LANE":" ","ALLEY":" ","HOUSE_NO":"７４號之１８","E_COORD97":165032.89999999999,"N_COORD97":2556516.3399999999,"ADDRESS":"竹港７４號之１８","OBJECTID":295800},"geometry":{"x":165032.9000000013,"y":2556516.3400000017}}]}