{"displayFieldName":"TOWNNAME","fieldAliases":{"ID":"ID","DIS_CODE":"DIS_CODE","TOWNNAME":"TOWNNAME","LI":"LI","LIN":"LIN","STREET":"STREET","SECT":"SECT","MAREA":"MAREA","LANE":"LANE","ALLEY":"ALLEY","HOUSE_NO":"HOUSE_NO","E_COORD97":"E_COORD97","N_COORD97":"N_COORD97","ADDRESS":"ADDRESS","OBJECTID":"OBJECTID"},"geometryType":"esriGeometryPoint","spatialReference":{"wkid":102443,"latestWkid":3826},"fields":[{"name":"ID","type":"esriFieldTypeDouble","alias":"ID"},{"name":"DIS_CODE","type":"esriFieldTypeInteger","alias":"DIS_CODE"},{"name":"TOWNNAME","type":"esriFieldTypeString","alias":"TOWNNAME","length":8},{"name":"LI","type":"esriFieldTypeString","alias":"LI","length":8},{"name":"LIN","type":"esriFieldTypeString","alias":"LIN","length":12},{"name":"STREET","type":"esriFieldTypeString","alias":"STREET","length":20},{"name":"SECT","type":"esriFieldTypeString","alias":"SECT","length":8},{"name":"MAREA","type":"esriFieldTypeString","alias":"MAREA","length":12},{"name":"LANE","type":"esriFieldTypeString","alias":"LANE","length":10},{"name":"ALLEY","type":"esriFieldTypeString","alias":"ALLEY","length":10},{"name":"HOUSE_NO","type":"esriFieldTypeString","alias":"HOUSE_NO","length":20},{"name":"E_COORD97","type":"esriFieldTypeDouble","alias":"E_COORD97"},{"name":"N_COORD97","type":"esriFieldTypeDouble","alias":"N_COORD97"},{"name":"ADDRESS","type":"esriFieldTypeString","alias":"ADDRESS","length":50},{"name":"OBJECTID","type":"esriFieldTypeOID","alias":"OBJECTID"}],"features":[{"attributes":{"ID":197002,"DIS_CODE":0,"TOWNNAME":"左鎮區","LI":"澄山里","LIN":"2鄰","STREET":" ","SECT":" ","MAREA":"澄山","LANE":" ","ALLEY":" ","HOUSE_NO":"１３號","E_COORD97":188198.69,"N_COORD97":2548299.25,"ADDRESS":"澄山１３號","OBJECTID":197001},"geometry":{"x":188198.69000000227,"y":2548299.2500000019}},{"attributes":{"ID":197003,"DIS_CODE":0,"TOWNNAME":"白河區","LI":"河東里","LIN":"3鄰","STREET":" ","SECT":" ","MAREA":"糞箕湖","LANE":" ","ALLEY":" ","HOUSE_NO":"３４之３號","E_COORD97":192077.42999999999,"N_COORD97":2582256.9399999999,"ADDRESS":"糞箕湖３４之３號","OBJECTID":197002},"geometry":{"x":192077.43000000063,"y":2582256.9399999995}},{"attributes":{"ID":197004,"DIS_CODE":0,"TOWNNAME":"白河區","LI":"河東里","LIN":"3鄰","STREET":" ","SECT":" ","MAREA":"糞箕湖","LANE":" ","ALLEY":" ","HOUSE_NO":"３４之６號","E_COORD97":192091.32999999999,"N_COORD97":2582318.48,"ADDRESS":"糞箕湖３４之６號","OBJECTID":197003},"geometry":{"x":192091.33000000194,"y":2582318.4800000004}},{"attributes":{"ID":197005,"DIS_CODE":0,"TOWNNAME":"白河區","LI":"河東里","LIN":"3鄰","STREET":" ","SECT":" ","MAREA":"糞箕湖","LANE":" ","ALLEY":" ","HOUSE_NO":"３４號","E_COORD97":192109.42000000001,"N_COORD97":2582382.6499999999,"ADDRESS":"糞箕湖３４號","OBJECTID":197004},"geometry":{"x":192109.42000000086,"y":2582382.6500000022}},{"attributes":{"ID":197006,"DIS_CODE":0,"TOWNNAME":"白河區","LI":"河東里","LIN":"3鄰","STREET":" ","SECT":" ","MAREA":"糞箕湖","LANE":" ","ALLEY":" ","HOUSE_NO":"３５之１號","E_COORD97":191994.84,"N_COORD97":2582355.04,"ADDRESS":"糞箕湖３５之１號","OBJECTID":197005},"geometry":{"x":191994.84000000078,"y":2582355.040000001}},{"attributes":{"ID":197007,"DIS_CODE":0,"TOWNNAME":"白河區","LI":"河東里","LIN":"3鄰","STREET":" ","SECT":" ","MAREA":"糞箕湖","LANE":" ","ALLEY":" ","HOUSE_NO":"３５之２１號","E_COORD97":191898.45000000001,"N_COORD97":2582323.8700000001,"ADDRESS":"糞箕湖３５之２１號","OBJECTID":197006},"geometry":{"x":191898.45000000019,"y":2582323.8700000048}},{"attributes":{"ID":197008,"DIS_CODE":0,"TOWNNAME":"白河區","LI":"河東里","LIN":"3鄰","STREET":" ","SECT":" ","MAREA":"糞箕湖","LANE":" ","ALLEY":" ","HOUSE_NO":"３５之３號","E_COORD97":192061.09,"N_COORD97":2582347.3700000001,"ADDRESS":"糞箕湖３５之３號","OBJECTID":197007},"geometry":{"x":192061.09000000078,"y":2582347.370000001}},{"attributes":{"ID":197009,"DIS_CODE":0,"TOWNNAME":"白河區","LI":"河東里","LIN":"3鄰","STREET":" ","SECT":" ","MAREA":"糞箕湖","LANE":" ","ALLEY":" ","HOUSE_NO":"３５之５號","E_COORD97":192062.48000000001,"N_COORD97":2582326.9199999999,"ADDRESS":"糞箕湖３５之５號","OBJECTID":197008},"geometry":{"x":192062.48000000138,"y":2582326.9200000018}},{"attributes":{"ID":197010,"DIS_CODE":0,"TOWNNAME":"白河區","LI":"河東里","LIN":"3鄰","STREET":" ","SECT":" ","MAREA":"糞箕湖","LANE":" ","ALLEY":" ","HOUSE_NO":"３５號","E_COORD97":192047.20999999999,"N_COORD97":2582348.3100000001,"ADDRESS":"糞箕湖３５號","OBJECTID":197009},"geometry":{"x":192047.20999999996,"y":2582348.3100000024}},{"attributes":{"ID":197011,"DIS_CODE":0,"TOWNNAME":"西港區","LI":"南海里","LIN":"21鄰","STREET":" ","SECT":" ","MAREA":"中港","LANE":" ","ALLEY":" ","HOUSE_NO":"３８號之６","E_COORD97":167721.72,"N_COORD97":2556492.04,"ADDRESS":"中港３８號之６","OBJECTID":197010},"geometry":{"x":167721.7200000016,"y":2556492.0399999991}},{"attributes":{"ID":197012,"DIS_CODE":0,"TOWNNAME":"西港區","LI":"南海里","LIN":"21鄰","STREET":" ","SECT":" ","MAREA":"中港","LANE":" ","ALLEY":" ","HOUSE_NO":"３８號","E_COORD97":167567.42000000001,"N_COORD97":2556514.71,"ADDRESS":"中港３８號","OBJECTID":197011},"geometry":{"x":167567.41999999993,"y":2556514.7100000028}},{"attributes":{"ID":197013,"DIS_CODE":0,"TOWNNAME":"西港區","LI":"南海里","LIN":"21鄰","STREET":" ","SECT":" ","MAREA":"中港","LANE":" ","ALLEY":" ","HOUSE_NO":"３９號之１","E_COORD97":167605.47,"N_COORD97":2556531.29,"ADDRESS":"中港３９號之１","OBJECTID":197012},"geometry":{"x":167605.47000000067,"y":2556531.2899999991}},{"attributes":{"ID":197014,"DIS_CODE":0,"TOWNNAME":"西港區","LI":"南海里","LIN":"21鄰","STREET":" ","SECT":" ","MAREA":"中港","LANE":" ","ALLEY":" ","HOUSE_NO":"３９號","E_COORD97":167589.23000000001,"N_COORD97":2556512.48,"ADDRESS":"中港３９號","OBJECTID":197013},"geometry":{"x":167589.23000000138,"y":2556512.4800000023}},{"attributes":{"ID":197015,"DIS_CODE":0,"TOWNNAME":"西港區","LI":"南海里","LIN":"21鄰","STREET":" ","SECT":" ","MAREA":"中港","LANE":" ","ALLEY":" ","HOUSE_NO":"４１號","E_COORD97":167212.01999999999,"N_COORD97":2554787.3399999999,"ADDRESS":"中港４１號","OBJECTID":197014},"geometry":{"x":167212.01999999955,"y":2554787.3400000017}},{"attributes":{"ID":197016,"DIS_CODE":0,"TOWNNAME":"西港區","LI":"南海里","LIN":"21鄰","STREET":" ","SECT":" ","MAREA":"中港","LANE":" ","ALLEY":" ","HOUSE_NO":"４３號之１","E_COORD97":167687.32000000001,"N_COORD97":2556533.46,"ADDRESS":"中港４３號之１","OBJECTID":197015},"geometry":{"x":167687.3200000003,"y":2556533.4600000028}},{"attributes":{"ID":197017,"DIS_CODE":0,"TOWNNAME":"西港區","LI":"南海里","LIN":"21鄰","STREET":" ","SECT":" ","MAREA":"中港","LANE":" ","ALLEY":" ","HOUSE_NO":"４４號之１","E_COORD97":167646.73000000001,"N_COORD97":2556568.9399999999,"ADDRESS":"中港４４號之１","OBJECTID":197016},"geometry":{"x":167646.73000000138,"y":2556568.9400000013}},{"attributes":{"ID":197018,"DIS_CODE":0,"TOWNNAME":"西港區","LI":"南海里","LIN":"21鄰","STREET":" ","SECT":" ","MAREA":"中港","LANE":" ","ALLEY":" ","HOUSE_NO":"４４號之２","E_COORD97":167680.37,"N_COORD97":2556560.2000000002,"ADDRESS":"中港４４號之２","OBJECTID":197017},"geometry":{"x":167680.37000000197,"y":2556560.2000000011}},{"attributes":{"ID":197019,"DIS_CODE":0,"TOWNNAME":"西港區","LI":"南海里","LIN":"21鄰","STREET":" ","SECT":" ","MAREA":"中港","LANE":" ","ALLEY":" ","HOUSE_NO":"４４號之３","E_COORD97":167659.29999999999,"N_COORD97":2556601.3399999999,"ADDRESS":"中港４４號之３","OBJECTID":197018},"geometry":{"x":167659.29999999981,"y":2556601.3400000017}},{"attributes":{"ID":197020,"DIS_CODE":0,"TOWNNAME":"西港區","LI":"南海里","LIN":"21鄰","STREET":" ","SECT":" ","MAREA":"中港","LANE":" ","ALLEY":" ","HOUSE_NO":"４４號","E_COORD97":167664.29999999999,"N_COORD97":2556549,"ADDRESS":"中港４４號","OBJECTID":197019},"geometry":{"x":167664.30000000075,"y":2556549.0000000019}},{"attributes":{"ID":197021,"DIS_CODE":0,"TOWNNAME":"西港區","LI":"南海里","LIN":"21鄰","STREET":" ","SECT":" ","MAREA":"中港","LANE":" ","ALLEY":" ","HOUSE_NO":"４５號","E_COORD97":167642.79000000001,"N_COORD97":2556528.3999999999,"ADDRESS":"中港４５號","OBJECTID":197020},"geometry":{"x":167642.79000000004,"y":2556528.4000000004}},{"attributes":{"ID":197022,"DIS_CODE":0,"TOWNNAME":"西港區","LI":"南海里","LIN":"21鄰","STREET":" ","SECT":" ","MAREA":"中港","LANE":" ","ALLEY":" ","HOUSE_NO":"４７號之１","E_COORD97":167786.23999999999,"N_COORD97":2556649.2599999998,"ADDRESS":"中港４７號之１","OBJECTID":197021},"geometry":{"x":167786.24000000022,"y":2556649.2600000016}},{"attributes":{"ID":197023,"DIS_CODE":0,"TOWNNAME":"西港區","LI":"南海里","LIN":"21鄰","STREET":" ","SECT":" ","MAREA":"中港","LANE":" ","ALLEY":" ","HOUSE_NO":"４７號之２","E_COORD97":167800.64000000001,"N_COORD97":2556726.46,"ADDRESS":"中港４７號之２","OBJECTID":197022},"geometry":{"x":167800.6400000006,"y":2556726.4600000028}},{"attributes":{"ID":197024,"DIS_CODE":0,"TOWNNAME":"西港區","LI":"南海里","LIN":"21鄰","STREET":" ","SECT":" ","MAREA":"中港","LANE":" ","ALLEY":" ","HOUSE_NO":"４７號之３","E_COORD97":167730.79000000001,"N_COORD97":2556670.4500000002,"ADDRESS":"中港４７號之３","OBJECTID":197023},"geometry":{"x":167730.79000000004,"y":2556670.4500000011}},{"attributes":{"ID":197025,"DIS_CODE":0,"TOWNNAME":"西港區","LI":"南海里","LIN":"21鄰","STREET":" ","SECT":" ","MAREA":"中港","LANE":" ","ALLEY":" ","HOUSE_NO":"４７之６號","E_COORD97":167710.23999999999,"N_COORD97":2556694.2999999998,"ADDRESS":"中港４７之６號","OBJECTID":197024},"geometry":{"x":167710.24000000209,"y":2556694.3000000026}},{"attributes":{"ID":197026,"DIS_CODE":0,"TOWNNAME":"北區","LI":"文成里","LIN":"18鄰","STREET":"文賢路","SECT":" ","MAREA":" ","LANE":"２１８巷","ALLEY":"２８弄","HOUSE_NO":"３號之６","E_COORD97":167493.10000000001,"N_COORD97":2544934.8999999999,"ADDRESS":"文賢路２１８巷２８弄３號之６","OBJECTID":197025},"geometry":{"x":167493.09999999963,"y":2544934.9000000022}},{"attributes":{"ID":197027,"DIS_CODE":0,"TOWNNAME":"北區","LI":"文成里","LIN":"18鄰","STREET":"文賢路","SECT":" ","MAREA":" ","LANE":"２１８巷","ALLEY":"２８弄","HOUSE_NO":"３號之７","E_COORD97":167497.03,"N_COORD97":2544936.3799999999,"ADDRESS":"文賢路２１８巷２８弄３號之７","OBJECTID":197026},"geometry":{"x":167497.03000000119,"y":2544936.3800000008}},{"attributes":{"ID":197028,"DIS_CODE":0,"TOWNNAME":"北區","LI":"文成里","LIN":"18鄰","STREET":"文賢路","SECT":" ","MAREA":" ","LANE":"２１８巷","ALLEY":"２８弄","HOUSE_NO":"３號之８","E_COORD97":167500.95999999999,"N_COORD97":2544937.8500000001,"ADDRESS":"文賢路２１８巷２８弄３號之８","OBJECTID":197027},"geometry":{"x":167500.95999999996,"y":2544937.8500000015}},{"attributes":{"ID":197029,"DIS_CODE":0,"TOWNNAME":"北區","LI":"成功里","LIN":"18鄰","STREET":"北成路","SECT":" ","MAREA":" ","LANE":"１２８巷","ALLEY":"４５弄","HOUSE_NO":"１１號","E_COORD97":168921.29000000001,"N_COORD97":2546812.1699999999,"ADDRESS":"北成路１２８巷４５弄１１號","OBJECTID":197028},"geometry":{"x":168921.29000000004,"y":2546812.1699999999}},{"attributes":{"ID":197030,"DIS_CODE":0,"TOWNNAME":"永康區","LI":"崑山里","LIN":"18鄰","STREET":"大灣路","SECT":" ","MAREA":" ","LANE":"９４２巷","ALLEY":"３４弄","HOUSE_NO":"１８號五樓","E_COORD97":173696.57000000001,"N_COORD97":2544517.9199999999,"ADDRESS":"大灣路９４２巷３４弄１８號五樓","OBJECTID":197029},"geometry":{"x":173696.5700000003,"y":2544517.9200000018}},{"attributes":{"ID":197031,"DIS_CODE":0,"TOWNNAME":"永康區","LI":"崑山里","LIN":"18鄰","STREET":"大灣路","SECT":" ","MAREA":" ","LANE":"９４２巷","ALLEY":"３４弄","HOUSE_NO":"１號三樓","E_COORD97":173659.26999999999,"N_COORD97":2544546.5099999998,"ADDRESS":"大灣路９４２巷３４弄１號三樓","OBJECTID":197030},"geometry":{"x":173659.27000000142,"y":2544546.5100000016}},{"attributes":{"ID":197032,"DIS_CODE":0,"TOWNNAME":"永康區","LI":"西勢里","LIN":"18鄰","STREET":"富強路","SECT":"一段","MAREA":" ","LANE":"２巷","ALLEY":"８弄","HOUSE_NO":"４５號二樓","E_COORD97":175479.13,"N_COORD97":2546022.6099999999,"ADDRESS":"富強路一段２巷８弄４５號二樓","OBJECTID":197031},"geometry":{"x":175479.12999999989,"y":2546022.6099999994}},{"attributes":{"ID":197033,"DIS_CODE":0,"TOWNNAME":"新市區","LI":"大社里","LIN":"21鄰","STREET":" ","SECT":" ","MAREA":"大社","LANE":" ","ALLEY":" ","HOUSE_NO":"８３４號","E_COORD97":179793.45000000001,"N_COORD97":2554138.5,"ADDRESS":"大社８３４號","OBJECTID":197032},"geometry":{"x":179793.45000000019,"y":2554138.5000000019}},{"attributes":{"ID":197034,"DIS_CODE":0,"TOWNNAME":"新市區","LI":"大社里","LIN":"21鄰","STREET":" ","SECT":" ","MAREA":"大社","LANE":" ","ALLEY":" ","HOUSE_NO":"８０１號","E_COORD97":179848.98000000001,"N_COORD97":2554154.75,"ADDRESS":"大社８０１號","OBJECTID":197033},"geometry":{"x":179848.98000000045,"y":2554154.75}},{"attributes":{"ID":197035,"DIS_CODE":0,"TOWNNAME":"新市區","LI":"大社里","LIN":"21鄰","STREET":" ","SECT":" ","MAREA":"大社","LANE":" ","ALLEY":" ","HOUSE_NO":"８１３號","E_COORD97":179823.32000000001,"N_COORD97":2554118.75,"ADDRESS":"大社８１３號","OBJECTID":197034},"geometry":{"x":179823.3200000003,"y":2554118.75}},{"attributes":{"ID":197036,"DIS_CODE":0,"TOWNNAME":"新市區","LI":"大社里","LIN":"21鄰","STREET":" ","SECT":" ","MAREA":"大社","LANE":" ","ALLEY":" ","HOUSE_NO":"８１２號","E_COORD97":179835.37,"N_COORD97":2554118.25,"ADDRESS":"大社８１２號","OBJECTID":197035},"geometry":{"x":179835.37000000104,"y":2554118.25}},{"attributes":{"ID":197037,"DIS_CODE":0,"TOWNNAME":"東區","LI":"崇德里","LIN":"21鄰","STREET":"崇德路","SECT":" ","MAREA":" ","LANE":" ","ALLEY":" ","HOUSE_NO":"３９４號","E_COORD97":170547.04000000001,"N_COORD97":2541778.04,"ADDRESS":"崇德路３９４號","OBJECTID":197036},"geometry":{"x":170547.04000000004,"y":2541778.0399999991}},{"attributes":{"ID":197038,"DIS_CODE":0,"TOWNNAME":"東區","LI":"自強里","LIN":"18鄰","STREET":"中華東路","SECT":"二段","MAREA":" ","LANE":"２０３巷","ALLEY":"１９弄","HOUSE_NO":"３７號七樓","E_COORD97":171408.28,"N_COORD97":2542645.1200000001,"ADDRESS":"中華東路二段２０３巷１９弄３７號七樓","OBJECTID":197037},"geometry":{"x":171408.28000000026,"y":2542645.1200000029}},{"attributes":{"ID":197039,"DIS_CODE":0,"TOWNNAME":"東區","LI":"自強里","LIN":"18鄰","STREET":"中華東路","SECT":"二段","MAREA":" ","LANE":"２０３巷","ALLEY":"１９弄","HOUSE_NO":"３７號七樓之１","E_COORD97":171408.28,"N_COORD97":2542645.1200000001,"ADDRESS":"中華東路二段２０３巷１９弄３７號七樓之１","OBJECTID":197038},"geometry":{"x":171408.28000000026,"y":2542645.1200000029}},{"attributes":{"ID":197040,"DIS_CODE":0,"TOWNNAME":"東區","LI":"自強里","LIN":"18鄰","STREET":"中華東路","SECT":"二段","MAREA":" ","LANE":"２０３巷","ALLEY":"１９弄","HOUSE_NO":"３７號七樓之２","E_COORD97":171408.28,"N_COORD97":2542645.1200000001,"ADDRESS":"中華東路二段２０３巷１９弄３７號七樓之２","OBJECTID":197039},"geometry":{"x":171408.28000000026,"y":2542645.1200000029}},{"attributes":{"ID":197041,"DIS_CODE":0,"TOWNNAME":"東區","LI":"自強里","LIN":"18鄰","STREET":"中華東路","SECT":"二段","MAREA":" ","LANE":"２０３巷","ALLEY":"１９弄","HOUSE_NO":"３７號九樓","E_COORD97":171408.28,"N_COORD97":2542645.1200000001,"ADDRESS":"中華東路二段２０３巷１９弄３７號九樓","OBJECTID":197040},"geometry":{"x":171408.28000000026,"y":2542645.1200000029}},{"attributes":{"ID":197042,"DIS_CODE":0,"TOWNNAME":"新市區","LI":"新市里","LIN":"21鄰","STREET":"和平街","SECT":" ","MAREA":" ","LANE":"５０巷","ALLEY":" ","HOUSE_NO":"３號","E_COORD97":177667.45999999999,"N_COORD97":2553472.2400000002,"ADDRESS":"和平街５０巷３號","OBJECTID":197041},"geometry":{"x":177667.45999999996,"y":2553472.2400000021}},{"attributes":{"ID":197043,"DIS_CODE":0,"TOWNNAME":"新市區","LI":"大營里","LIN":"21鄰","STREET":" ","SECT":" ","MAREA":"豐榮","LANE":" ","ALLEY":" ","HOUSE_NO":"１４１號","E_COORD97":178887.45000000001,"N_COORD97":2554201.25,"ADDRESS":"豐榮１４１號","OBJECTID":197042},"geometry":{"x":178887.45000000112,"y":2554201.2500000019}},{"attributes":{"ID":197044,"DIS_CODE":0,"TOWNNAME":"新市區","LI":"大營里","LIN":"21鄰","STREET":" ","SECT":" ","MAREA":"豐榮","LANE":" ","ALLEY":" ","HOUSE_NO":"１６３號","E_COORD97":178962.79000000001,"N_COORD97":2553967.75,"ADDRESS":"豐榮１６３號","OBJECTID":197043},"geometry":{"x":178962.79000000097,"y":2553967.7500000019}},{"attributes":{"ID":197045,"DIS_CODE":0,"TOWNNAME":"新市區","LI":"大營里","LIN":"21鄰","STREET":" ","SECT":" ","MAREA":"豐榮","LANE":" ","ALLEY":" ","HOUSE_NO":"９０號","E_COORD97":178833.64999999999,"N_COORD97":2554263.75,"ADDRESS":"豐榮９０號","OBJECTID":197044},"geometry":{"x":178833.6500000013,"y":2554263.75}},{"attributes":{"ID":197046,"DIS_CODE":0,"TOWNNAME":"新市區","LI":"大營里","LIN":"21鄰","STREET":" ","SECT":" ","MAREA":"豐榮","LANE":" ","ALLEY":" ","HOUSE_NO":"１３６號","E_COORD97":178859.06,"N_COORD97":2554191,"ADDRESS":"豐榮１３６號","OBJECTID":197045},"geometry":{"x":178859.06000000052,"y":2554191}},{"attributes":{"ID":197047,"DIS_CODE":0,"TOWNNAME":"新市區","LI":"大營里","LIN":"21鄰","STREET":" ","SECT":" ","MAREA":"豐榮","LANE":" ","ALLEY":" ","HOUSE_NO":"８７號","E_COORD97":178841.98999999999,"N_COORD97":2554271.2400000002,"ADDRESS":"豐榮８７號","OBJECTID":197046},"geometry":{"x":178841.99000000022,"y":2554271.2400000002}},{"attributes":{"ID":197048,"DIS_CODE":0,"TOWNNAME":"新市區","LI":"社內里","LIN":"21鄰","STREET":" ","SECT":" ","MAREA":"社內","LANE":" ","ALLEY":" ","HOUSE_NO":"２１４號","E_COORD97":175586.87,"N_COORD97":2553096,"ADDRESS":"社內２１４號","OBJECTID":197047},"geometry":{"x":175586.87000000104,"y":2553096}},{"attributes":{"ID":197049,"DIS_CODE":0,"TOWNNAME":"新市區","LI":"大營里","LIN":"21鄰","STREET":" ","SECT":" ","MAREA":"豐榮","LANE":" ","ALLEY":" ","HOUSE_NO":"１００號","E_COORD97":178830.64999999999,"N_COORD97":2554269,"ADDRESS":"豐榮１００號","OBJECTID":197048},"geometry":{"x":178830.65000000037,"y":2554269}},{"attributes":{"ID":197050,"DIS_CODE":0,"TOWNNAME":"新市區","LI":"大營里","LIN":"21鄰","STREET":" ","SECT":" ","MAREA":"豐榮","LANE":" ","ALLEY":" ","HOUSE_NO":"１０６號","E_COORD97":178846.73999999999,"N_COORD97":2554284,"ADDRESS":"豐榮１０６號","OBJECTID":197049},"geometry":{"x":178846.74000000022,"y":2554284.0000000019}},{"attributes":{"ID":197051,"DIS_CODE":0,"TOWNNAME":"新市區","LI":"大營里","LIN":"21鄰","STREET":" ","SECT":" ","MAREA":"豐榮","LANE":" ","ALLEY":" ","HOUSE_NO":"９５號","E_COORD97":178820.45000000001,"N_COORD97":2554251.75,"ADDRESS":"豐榮９５號","OBJECTID":197050},"geometry":{"x":178820.45000000019,"y":2554251.7500000019}},{"attributes":{"ID":197052,"DIS_CODE":0,"TOWNNAME":"新市區","LI":"大營里","LIN":"21鄰","STREET":" ","SECT":" ","MAREA":"豐榮","LANE":" ","ALLEY":" ","HOUSE_NO":"９７號","E_COORD97":178821.29000000001,"N_COORD97":2554261.5,"ADDRESS":"豐榮９７號","OBJECTID":197051},"geometry":{"x":178821.29000000004,"y":2554261.5}},{"attributes":{"ID":197053,"DIS_CODE":0,"TOWNNAME":"新市區","LI":"大營里","LIN":"21鄰","STREET":" ","SECT":" ","MAREA":"豐榮","LANE":" ","ALLEY":" ","HOUSE_NO":"９９號","E_COORD97":178826.45000000001,"N_COORD97":2554266.5,"ADDRESS":"豐榮９９號","OBJECTID":197052},"geometry":{"x":178826.45000000112,"y":2554266.5000000037}},{"attributes":{"ID":197054,"DIS_CODE":0,"TOWNNAME":"東區","LI":"自強里","LIN":"18鄰","STREET":"中華東路","SECT":"二段","MAREA":" ","LANE":"２０３巷","ALLEY":"１９弄","HOUSE_NO":"３７號二樓","E_COORD97":171408.28,"N_COORD97":2542645.1200000001,"ADDRESS":"中華東路二段２０３巷１９弄３７號二樓","OBJECTID":197053},"geometry":{"x":171408.28000000026,"y":2542645.1200000029}},{"attributes":{"ID":197055,"DIS_CODE":0,"TOWNNAME":"北區","LI":"成德里","LIN":"24鄰","STREET":"海安路","SECT":"三段","MAREA":" ","LANE":" ","ALLEY":" ","HOUSE_NO":"７６０號","E_COORD97":168084.03,"N_COORD97":2546204.6699999999,"ADDRESS":"海安路三段７６０號","OBJECTID":197054},"geometry":{"x":168084.03000000026,"y":2546204.6700000018}},{"attributes":{"ID":197056,"DIS_CODE":0,"TOWNNAME":"安南區","LI":"淵東里","LIN":"4鄰","STREET":"智安二街","SECT":" ","MAREA":" ","LANE":" ","ALLEY":" ","HOUSE_NO":"４６號","E_COORD97":165732.82999999999,"N_COORD97":2550201.1400000001,"ADDRESS":"智安二街４６號","OBJECTID":197055},"geometry":{"x":165732.83000000194,"y":2550201.1400000043}},{"attributes":{"ID":197057,"DIS_CODE":0,"TOWNNAME":"安南區","LI":"淵東里","LIN":"4鄰","STREET":"智安二街","SECT":" ","MAREA":" ","LANE":" ","ALLEY":" ","HOUSE_NO":"４８號","E_COORD97":165731.07999999999,"N_COORD97":2550205.2200000002,"ADDRESS":"智安二街４８號","OBJECTID":197056},"geometry":{"x":165731.08000000194,"y":2550205.2200000025}},{"attributes":{"ID":197058,"DIS_CODE":0,"TOWNNAME":"安南區","LI":"淵東里","LIN":"4鄰","STREET":"智安二街","SECT":" ","MAREA":" ","LANE":" ","ALLEY":" ","HOUSE_NO":"５２號","E_COORD97":165721.12,"N_COORD97":2550231.5699999998,"ADDRESS":"智安二街５２號","OBJECTID":197057},"geometry":{"x":165721.12000000104,"y":2550231.5700000003}},{"attributes":{"ID":197059,"DIS_CODE":0,"TOWNNAME":"東區","LI":"自強里","LIN":"18鄰","STREET":"中華東路","SECT":"二段","MAREA":" ","LANE":"２０３巷","ALLEY":"１９弄","HOUSE_NO":"３７號二樓之１","E_COORD97":171408.28,"N_COORD97":2542645.1200000001,"ADDRESS":"中華東路二段２０３巷１９弄３７號二樓之１","OBJECTID":197058},"geometry":{"x":171408.28000000026,"y":2542645.1200000029}},{"attributes":{"ID":197060,"DIS_CODE":0,"TOWNNAME":"東區","LI":"自強里","LIN":"18鄰","STREET":"中華東路","SECT":"二段","MAREA":" ","LANE":"２０３巷","ALLEY":"１９弄","HOUSE_NO":"３７號二樓之２","E_COORD97":171408.28,"N_COORD97":2542645.1200000001,"ADDRESS":"中華東路二段２０３巷１９弄３７號二樓之２","OBJECTID":197059},"geometry":{"x":171408.28000000026,"y":2542645.1200000029}},{"attributes":{"ID":197061,"DIS_CODE":0,"TOWNNAME":"東區","LI":"自強里","LIN":"18鄰","STREET":"中華東路","SECT":"二段","MAREA":" ","LANE":"２０３巷","ALLEY":"１９弄","HOUSE_NO":"３７號八樓","E_COORD97":171408.28,"N_COORD97":2542645.1200000001,"ADDRESS":"中華東路二段２０３巷１９弄３７號八樓","OBJECTID":197060},"geometry":{"x":171408.28000000026,"y":2542645.1200000029}},{"attributes":{"ID":197062,"DIS_CODE":0,"TOWNNAME":"東區","LI":"自強里","LIN":"18鄰","STREET":"中華東路","SECT":"二段","MAREA":" ","LANE":"２０３巷","ALLEY":"１９弄","HOUSE_NO":"３７號八樓之１","E_COORD97":171408.28,"N_COORD97":2542645.1200000001,"ADDRESS":"中華東路二段２０３巷１９弄３７號八樓之１","OBJECTID":197061},"geometry":{"x":171408.28000000026,"y":2542645.1200000029}},{"attributes":{"ID":197063,"DIS_CODE":0,"TOWNNAME":"東區","LI":"自強里","LIN":"18鄰","STREET":"中華東路","SECT":"二段","MAREA":" ","LANE":"２０３巷","ALLEY":"１９弄","HOUSE_NO":"３７號三樓","E_COORD97":171408.28,"N_COORD97":2542645.1200000001,"ADDRESS":"中華東路二段２０３巷１９弄３７號三樓","OBJECTID":197062},"geometry":{"x":171408.28000000026,"y":2542645.1200000029}},{"attributes":{"ID":197064,"DIS_CODE":0,"TOWNNAME":"東區","LI":"自強里","LIN":"18鄰","STREET":"中華東路","SECT":"二段","MAREA":" ","LANE":"２０３巷","ALLEY":"１９弄","HOUSE_NO":"３７號三樓之１","E_COORD97":171408.28,"N_COORD97":2542645.1200000001,"ADDRESS":"中華東路二段２０３巷１９弄３７號三樓之１","OBJECTID":197063},"geometry":{"x":171408.28000000026,"y":2542645.1200000029}},{"attributes":{"ID":197065,"DIS_CODE":0,"TOWNNAME":"東區","LI":"自強里","LIN":"18鄰","STREET":"中華東路","SECT":"二段","MAREA":" ","LANE":"２０３巷","ALLEY":"１９弄","HOUSE_NO":"３７號三樓之２","E_COORD97":171408.28,"N_COORD97":2542645.1200000001,"ADDRESS":"中華東路二段２０３巷１９弄３７號三樓之２","OBJECTID":197064},"geometry":{"x":171408.28000000026,"y":2542645.1200000029}},{"attributes":{"ID":197066,"DIS_CODE":0,"TOWNNAME":"東區","LI":"自強里","LIN":"18鄰","STREET":"中華東路","SECT":"二段","MAREA":" ","LANE":"２０３巷","ALLEY":"１９弄","HOUSE_NO":"３７號五樓","E_COORD97":171408.28,"N_COORD97":2542645.1200000001,"ADDRESS":"中華東路二段２０３巷１９弄３７號五樓","OBJECTID":197065},"geometry":{"x":171408.28000000026,"y":2542645.1200000029}},{"attributes":{"ID":197067,"DIS_CODE":0,"TOWNNAME":"東區","LI":"自強里","LIN":"18鄰","STREET":"中華東路","SECT":"二段","MAREA":" ","LANE":"２０３巷","ALLEY":"１９弄","HOUSE_NO":"３７號五樓之１","E_COORD97":171408.28,"N_COORD97":2542645.1200000001,"ADDRESS":"中華東路二段２０３巷１９弄３７號五樓之１","OBJECTID":197066},"geometry":{"x":171408.28000000026,"y":2542645.1200000029}},{"attributes":{"ID":197068,"DIS_CODE":0,"TOWNNAME":"東區","LI":"自強里","LIN":"18鄰","STREET":"中華東路","SECT":"二段","MAREA":" ","LANE":"２０３巷","ALLEY":"１９弄","HOUSE_NO":"３７號五樓之２","E_COORD97":171408.28,"N_COORD97":2542645.1200000001,"ADDRESS":"中華東路二段２０３巷１９弄３７號五樓之２","OBJECTID":197067},"geometry":{"x":171408.28000000026,"y":2542645.1200000029}},{"attributes":{"ID":197069,"DIS_CODE":0,"TOWNNAME":"東區","LI":"自強里","LIN":"18鄰","STREET":"中華東路","SECT":"二段","MAREA":" ","LANE":"２０３巷","ALLEY":"１９弄","HOUSE_NO":"３７號六樓","E_COORD97":171408.28,"N_COORD97":2542645.1200000001,"ADDRESS":"中華東路二段２０３巷１９弄３７號六樓","OBJECTID":197068},"geometry":{"x":171408.28000000026,"y":2542645.1200000029}},{"attributes":{"ID":197070,"DIS_CODE":0,"TOWNNAME":"東區","LI":"自強里","LIN":"18鄰","STREET":"中華東路","SECT":"二段","MAREA":" ","LANE":"２０３巷","ALLEY":"１９弄","HOUSE_NO":"３７號六樓之１","E_COORD97":171408.28,"N_COORD97":2542645.1200000001,"ADDRESS":"中華東路二段２０３巷１９弄３７號六樓之１","OBJECTID":197069},"geometry":{"x":171408.28000000026,"y":2542645.1200000029}},{"attributes":{"ID":197071,"DIS_CODE":0,"TOWNNAME":"東區","LI":"自強里","LIN":"18鄰","STREET":"中華東路","SECT":"二段","MAREA":" ","LANE":"２０３巷","ALLEY":"１９弄","HOUSE_NO":"３７號六樓之２","E_COORD97":171408.28,"N_COORD97":2542645.1200000001,"ADDRESS":"中華東路二段２０３巷１９弄３７號六樓之２","OBJECTID":197070},"geometry":{"x":171408.28000000026,"y":2542645.1200000029}},{"attributes":{"ID":197072,"DIS_CODE":0,"TOWNNAME":"東區","LI":"自強里","LIN":"18鄰","STREET":"中華東路","SECT":"二段","MAREA":" ","LANE":"２０３巷","ALLEY":"１９弄","HOUSE_NO":"３７號四樓","E_COORD97":171408.28,"N_COORD97":2542645.1200000001,"ADDRESS":"中華東路二段２０３巷１９弄３７號四樓","OBJECTID":197071},"geometry":{"x":171408.28000000026,"y":2542645.1200000029}},{"attributes":{"ID":197073,"DIS_CODE":0,"TOWNNAME":"東區","LI":"自強里","LIN":"18鄰","STREET":"中華東路","SECT":"二段","MAREA":" ","LANE":"２０３巷","ALLEY":"１９弄","HOUSE_NO":"３７號四樓之１","E_COORD97":171408.28,"N_COORD97":2542645.1200000001,"ADDRESS":"中華東路二段２０３巷１９弄３７號四樓之１","OBJECTID":197072},"geometry":{"x":171408.28000000026,"y":2542645.1200000029}},{"attributes":{"ID":197074,"DIS_CODE":0,"TOWNNAME":"東區","LI":"自強里","LIN":"18鄰","STREET":"中華東路","SECT":"二段","MAREA":" ","LANE":"２０３巷","ALLEY":"１９弄","HOUSE_NO":"３７號四樓之２","E_COORD97":171408.28,"N_COORD97":2542645.1200000001,"ADDRESS":"中華東路二段２０３巷１９弄３７號四樓之２","OBJECTID":197073},"geometry":{"x":171408.28000000026,"y":2542645.1200000029}},{"attributes":{"ID":197075,"DIS_CODE":0,"TOWNNAME":"東區","LI":"自強里","LIN":"18鄰","STREET":"中華東路","SECT":"二段","MAREA":" ","LANE":"２０３巷","ALLEY":"１９弄","HOUSE_NO":"３９號七樓","E_COORD97":171413.69,"N_COORD97":2542647.6299999999,"ADDRESS":"中華東路二段２０３巷１９弄３９號七樓","OBJECTID":197074},"geometry":{"x":171413.69000000134,"y":2542647.629999999}},{"attributes":{"ID":197076,"DIS_CODE":0,"TOWNNAME":"東區","LI":"自強里","LIN":"18鄰","STREET":"中華東路","SECT":"二段","MAREA":" ","LANE":"２０３巷","ALLEY":"１９弄","HOUSE_NO":"３９號九樓","E_COORD97":171413.69,"N_COORD97":2542647.6299999999,"ADDRESS":"中華東路二段２０３巷１９弄３９號九樓","OBJECTID":197075},"geometry":{"x":171413.69000000134,"y":2542647.629999999}},{"attributes":{"ID":197077,"DIS_CODE":0,"TOWNNAME":"東區","LI":"自強里","LIN":"18鄰","STREET":"中華東路","SECT":"二段","MAREA":" ","LANE":"２０３巷","ALLEY":"１９弄","HOUSE_NO":"３９號二樓","E_COORD97":171413.69,"N_COORD97":2542647.6299999999,"ADDRESS":"中華東路二段２０３巷１９弄３９號二樓","OBJECTID":197076},"geometry":{"x":171413.69000000134,"y":2542647.629999999}},{"attributes":{"ID":197078,"DIS_CODE":0,"TOWNNAME":"東區","LI":"自強里","LIN":"18鄰","STREET":"中華東路","SECT":"二段","MAREA":" ","LANE":"２０３巷","ALLEY":"１９弄","HOUSE_NO":"３９號八樓","E_COORD97":171413.69,"N_COORD97":2542647.6299999999,"ADDRESS":"中華東路二段２０３巷１９弄３９號八樓","OBJECTID":197077},"geometry":{"x":171413.69000000134,"y":2542647.629999999}},{"attributes":{"ID":197079,"DIS_CODE":0,"TOWNNAME":"東區","LI":"自強里","LIN":"18鄰","STREET":"中華東路","SECT":"二段","MAREA":" ","LANE":"２０３巷","ALLEY":"１９弄","HOUSE_NO":"３９號三樓","E_COORD97":171413.69,"N_COORD97":2542647.6299999999,"ADDRESS":"中華東路二段２０３巷１９弄３９號三樓","OBJECTID":197078},"geometry":{"x":171413.69000000134,"y":2542647.629999999}},{"attributes":{"ID":197080,"DIS_CODE":0,"TOWNNAME":"東區","LI":"自強里","LIN":"18鄰","STREET":"中華東路","SECT":"二段","MAREA":" ","LANE":"２０３巷","ALLEY":"１９弄","HOUSE_NO":"３９號五樓","E_COORD97":171413.69,"N_COORD97":2542647.6299999999,"ADDRESS":"中華東路二段２０３巷１９弄３９號五樓","OBJECTID":197079},"geometry":{"x":171413.69000000134,"y":2542647.629999999}},{"attributes":{"ID":197081,"DIS_CODE":0,"TOWNNAME":"安南區","LI":"淵東里","LIN":"4鄰","STREET":"智安二街","SECT":" ","MAREA":" ","LANE":" ","ALLEY":" ","HOUSE_NO":"５４號","E_COORD97":165716.48999999999,"N_COORD97":2550242.3100000001,"ADDRESS":"智安二街５４號","OBJECTID":197080},"geometry":{"x":165716.48999999929,"y":2550242.3100000024}},{"attributes":{"ID":197082,"DIS_CODE":0,"TOWNNAME":"東區","LI":"自強里","LIN":"18鄰","STREET":"中華東路","SECT":"二段","MAREA":" ","LANE":"２０３巷","ALLEY":"１９弄","HOUSE_NO":"３９號六樓","E_COORD97":171413.69,"N_COORD97":2542647.6299999999,"ADDRESS":"中華東路二段２０３巷１９弄３９號六樓","OBJECTID":197081},"geometry":{"x":171413.69000000134,"y":2542647.629999999}},{"attributes":{"ID":197083,"DIS_CODE":0,"TOWNNAME":"東區","LI":"自強里","LIN":"18鄰","STREET":"中華東路","SECT":"二段","MAREA":" ","LANE":"２０３巷","ALLEY":"１９弄","HOUSE_NO":"３９號四樓","E_COORD97":171413.69,"N_COORD97":2542647.6299999999,"ADDRESS":"中華東路二段２０３巷１９弄３９號四樓","OBJECTID":197082},"geometry":{"x":171413.69000000134,"y":2542647.629999999}},{"attributes":{"ID":197084,"DIS_CODE":0,"TOWNNAME":"東區","LI":"自強里","LIN":"18鄰","STREET":"中華東路","SECT":"二段","MAREA":" ","LANE":"２０３巷","ALLEY":"１９弄","HOUSE_NO":"４３號七樓","E_COORD97":171433.23999999999,"N_COORD97":2542648.3999999999,"ADDRESS":"中華東路二段２０３巷１９弄４３號七樓","OBJECTID":197083},"geometry":{"x":171433.24000000115,"y":2542648.4000000004}},{"attributes":{"ID":197085,"DIS_CODE":0,"TOWNNAME":"東區","LI":"自強里","LIN":"18鄰","STREET":"中華東路","SECT":"二段","MAREA":" ","LANE":"２０３巷","ALLEY":"１９弄","HOUSE_NO":"４３號九樓","E_COORD97":171433.23999999999,"N_COORD97":2542648.3999999999,"ADDRESS":"中華東路二段２０３巷１９弄４３號九樓","OBJECTID":197084},"geometry":{"x":171433.24000000115,"y":2542648.4000000004}},{"attributes":{"ID":197086,"DIS_CODE":0,"TOWNNAME":"白河區","LI":"河東里","LIN":"3鄰","STREET":" ","SECT":" ","MAREA":"糞箕湖","LANE":" ","ALLEY":" ","HOUSE_NO":"４２號","E_COORD97":192153.45999999999,"N_COORD97":2582385.02,"ADDRESS":"糞箕湖４２號","OBJECTID":197085},"geometry":{"x":192153.46000000089,"y":2582385.0199999996}},{"attributes":{"ID":197087,"DIS_CODE":0,"TOWNNAME":"白河區","LI":"河東里","LIN":"3鄰","STREET":" ","SECT":" ","MAREA":"糞箕湖","LANE":" ","ALLEY":" ","HOUSE_NO":"３６之１０號","E_COORD97":191768.35000000001,"N_COORD97":2582497.2200000002,"ADDRESS":"糞箕湖３６之１０號","OBJECTID":197086},"geometry":{"x":191768.34999999963,"y":2582497.2199999988}},{"attributes":{"ID":197088,"DIS_CODE":0,"TOWNNAME":"白河區","LI":"河東里","LIN":"3鄰","STREET":" ","SECT":" ","MAREA":"糞箕湖","LANE":" ","ALLEY":" ","HOUSE_NO":"３６之１２號","E_COORD97":191723.76999999999,"N_COORD97":2582504.3199999998,"ADDRESS":"糞箕湖３６之１２號","OBJECTID":197087},"geometry":{"x":191723.77000000048,"y":2582504.3200000022}},{"attributes":{"ID":197089,"DIS_CODE":0,"TOWNNAME":"白河區","LI":"河東里","LIN":"3鄰","STREET":" ","SECT":" ","MAREA":"糞箕湖","LANE":" ","ALLEY":" ","HOUSE_NO":"３６之１４號","E_COORD97":191887.23000000001,"N_COORD97":2582429.2999999998,"ADDRESS":"糞箕湖３６之１４號","OBJECTID":197088},"geometry":{"x":191887.23000000231,"y":2582429.3000000045}},{"attributes":{"ID":197090,"DIS_CODE":0,"TOWNNAME":"白河區","LI":"河東里","LIN":"3鄰","STREET":" ","SECT":" ","MAREA":"糞箕湖","LANE":" ","ALLEY":" ","HOUSE_NO":"３６之１號","E_COORD97":192017.29999999999,"N_COORD97":2582421.8199999998,"ADDRESS":"糞箕湖３６之１號","OBJECTID":197089},"geometry":{"x":192017.30000000075,"y":2582421.820000004}},{"attributes":{"ID":197091,"DIS_CODE":0,"TOWNNAME":"白河區","LI":"河東里","LIN":"3鄰","STREET":" ","SECT":" ","MAREA":"糞箕湖","LANE":" ","ALLEY":" ","HOUSE_NO":"３６之２號","E_COORD97":191804.39000000001,"N_COORD97":2582473.0800000001,"ADDRESS":"糞箕湖３６之２號","OBJECTID":197090},"geometry":{"x":191804.3900000006,"y":2582473.0800000001}},{"attributes":{"ID":197092,"DIS_CODE":0,"TOWNNAME":"東區","LI":"自強里","LIN":"18鄰","STREET":"中華東路","SECT":"二段","MAREA":" ","LANE":"２０３巷","ALLEY":"１９弄","HOUSE_NO":"４３號二樓","E_COORD97":171433.23999999999,"N_COORD97":2542648.3999999999,"ADDRESS":"中華東路二段２０３巷１９弄４３號二樓","OBJECTID":197091},"geometry":{"x":171433.24000000115,"y":2542648.4000000004}},{"attributes":{"ID":197093,"DIS_CODE":0,"TOWNNAME":"東區","LI":"自強里","LIN":"18鄰","STREET":"中華東路","SECT":"二段","MAREA":" ","LANE":"２０３巷","ALLEY":"１９弄","HOUSE_NO":"４３號三樓","E_COORD97":171433.23999999999,"N_COORD97":2542648.3999999999,"ADDRESS":"中華東路二段２０３巷１９弄４３號三樓","OBJECTID":197092},"geometry":{"x":171433.24000000115,"y":2542648.4000000004}},{"attributes":{"ID":197094,"DIS_CODE":0,"TOWNNAME":"永康區","LI":"埔園里","LIN":"21鄰","STREET":"四維街","SECT":" ","MAREA":" ","LANE":" ","ALLEY":" ","HOUSE_NO":"７４號","E_COORD97":173404.94,"N_COORD97":2548102.0600000001,"ADDRESS":"四維街７４號","OBJECTID":197093},"geometry":{"x":173404.94000000227,"y":2548102.0600000005}},{"attributes":{"ID":197095,"DIS_CODE":0,"TOWNNAME":"東區","LI":"自強里","LIN":"18鄰","STREET":"中華東路","SECT":"二段","MAREA":" ","LANE":"２０３巷","ALLEY":"１９弄","HOUSE_NO":"４３號五樓","E_COORD97":171433.23999999999,"N_COORD97":2542648.3999999999,"ADDRESS":"中華東路二段２０３巷１９弄４３號五樓","OBJECTID":197094},"geometry":{"x":171433.24000000115,"y":2542648.4000000004}},{"attributes":{"ID":197096,"DIS_CODE":0,"TOWNNAME":"東區","LI":"自強里","LIN":"18鄰","STREET":"中華東路","SECT":"二段","MAREA":" ","LANE":"２０３巷","ALLEY":"１９弄","HOUSE_NO":"４３號六樓","E_COORD97":171433.23999999999,"N_COORD97":2542648.3999999999,"ADDRESS":"中華東路二段２０３巷１９弄４３號六樓","OBJECTID":197095},"geometry":{"x":171433.24000000115,"y":2542648.4000000004}},{"attributes":{"ID":197097,"DIS_CODE":0,"TOWNNAME":"東區","LI":"自強里","LIN":"18鄰","STREET":"中華東路","SECT":"二段","MAREA":" ","LANE":"２０３巷","ALLEY":"１９弄","HOUSE_NO":"４３號四樓","E_COORD97":171433.23999999999,"N_COORD97":2542648.3999999999,"ADDRESS":"中華東路二段２０３巷１９弄４３號四樓","OBJECTID":197096},"geometry":{"x":171433.24000000115,"y":2542648.4000000004}},{"attributes":{"ID":197098,"DIS_CODE":0,"TOWNNAME":"東區","LI":"自強里","LIN":"18鄰","STREET":"中華東路","SECT":"二段","MAREA":" ","LANE":"２０３巷","ALLEY":"１９弄","HOUSE_NO":"４５號七樓","E_COORD97":171439.23999999999,"N_COORD97":2542645.5,"ADDRESS":"中華東路二段２０３巷１９弄４５號七樓","OBJECTID":197097},"geometry":{"x":171439.24000000022,"y":2542645.5000000019}},{"attributes":{"ID":197099,"DIS_CODE":0,"TOWNNAME":"東區","LI":"自強里","LIN":"18鄰","STREET":"中華東路","SECT":"二段","MAREA":" ","LANE":"２０３巷","ALLEY":"１９弄","HOUSE_NO":"４５號九樓","E_COORD97":171439.23999999999,"N_COORD97":2542645.5,"ADDRESS":"中華東路二段２０３巷１９弄４５號九樓","OBJECTID":197098},"geometry":{"x":171439.24000000022,"y":2542645.5000000019}},{"attributes":{"ID":197100,"DIS_CODE":0,"TOWNNAME":"東區","LI":"自強里","LIN":"18鄰","STREET":"中華東路","SECT":"二段","MAREA":" ","LANE":"２０３巷","ALLEY":"１９弄","HOUSE_NO":"４５號二樓","E_COORD97":171439.23999999999,"N_COORD97":2542645.5,"ADDRESS":"中華東路二段２０３巷１９弄４５號二樓","OBJECTID":197099},"geometry":{"x":171439.24000000022,"y":2542645.5000000019}},{"attributes":{"ID":197101,"DIS_CODE":0,"TOWNNAME":"東區","LI":"自強里","LIN":"18鄰","STREET":"中華東路","SECT":"二段","MAREA":" ","LANE":"２０３巷","ALLEY":"１９弄","HOUSE_NO":"４５號二樓之１","E_COORD97":171439.23999999999,"N_COORD97":2542645.5,"ADDRESS":"中華東路二段２０３巷１９弄４５號二樓之１","OBJECTID":197100},"geometry":{"x":171439.24000000022,"y":2542645.5000000019}},{"attributes":{"ID":197102,"DIS_CODE":0,"TOWNNAME":"東區","LI":"自強里","LIN":"18鄰","STREET":"中華東路","SECT":"二段","MAREA":" ","LANE":"２０３巷","ALLEY":"１９弄","HOUSE_NO":"４５號八樓","E_COORD97":171439.23999999999,"N_COORD97":2542645.5,"ADDRESS":"中華東路二段２０３巷１９弄４５號八樓","OBJECTID":197101},"geometry":{"x":171439.24000000022,"y":2542645.5000000019}},{"attributes":{"ID":197103,"DIS_CODE":0,"TOWNNAME":"東區","LI":"自強里","LIN":"18鄰","STREET":"中華東路","SECT":"二段","MAREA":" ","LANE":"２０３巷","ALLEY":"１９弄","HOUSE_NO":"４５號三樓","E_COORD97":171439.23999999999,"N_COORD97":2542645.5,"ADDRESS":"中華東路二段２０３巷１９弄４５號三樓","OBJECTID":197102},"geometry":{"x":171439.24000000022,"y":2542645.5000000019}},{"attributes":{"ID":197104,"DIS_CODE":0,"TOWNNAME":"東區","LI":"自強里","LIN":"18鄰","STREET":"中華東路","SECT":"二段","MAREA":" ","LANE":"２０３巷","ALLEY":"１９弄","HOUSE_NO":"４５號五樓","E_COORD97":171439.23999999999,"N_COORD97":2542645.5,"ADDRESS":"中華東路二段２０３巷１９弄４５號五樓","OBJECTID":197103},"geometry":{"x":171439.24000000022,"y":2542645.5000000019}},{"attributes":{"ID":197105,"DIS_CODE":0,"TOWNNAME":"東區","LI":"自強里","LIN":"18鄰","STREET":"中華東路","SECT":"二段","MAREA":" ","LANE":"２０３巷","ALLEY":"１９弄","HOUSE_NO":"４５號五樓之１","E_COORD97":171439.23999999999,"N_COORD97":2542645.5,"ADDRESS":"中華東路二段２０３巷１９弄４５號五樓之１","OBJECTID":197104},"geometry":{"x":171439.24000000022,"y":2542645.5000000019}},{"attributes":{"ID":197106,"DIS_CODE":0,"TOWNNAME":"安南區","LI":"安東里","LIN":"21鄰","STREET":"安和路","SECT":"一段","MAREA":" ","LANE":"４９６巷","ALLEY":" ","HOUSE_NO":"２５號之２","E_COORD97":169548.07000000001,"N_COORD97":2548428.9300000002,"ADDRESS":"安和路一段４９６巷２５號之２","OBJECTID":197105},"geometry":{"x":169548.07000000123,"y":2548428.9300000016}},{"attributes":{"ID":197107,"DIS_CODE":0,"TOWNNAME":"歸仁區","LI":"南興里","LIN":"40鄰","STREET":"中山路","SECT":"三段","MAREA":" ","LANE":" ","ALLEY":" ","HOUSE_NO":"３５５之１２號","E_COORD97":175905.06,"N_COORD97":2540537.2599999998,"ADDRESS":"中山路三段３５５之１２號","OBJECTID":197106},"geometry":{"x":175905.05999999959,"y":2540537.2600000016}},{"attributes":{"ID":197108,"DIS_CODE":0,"TOWNNAME":"歸仁區","LI":"辜厝里","LIN":"40鄰","STREET":"中正南路","SECT":"一段","MAREA":" ","LANE":" ","ALLEY":" ","HOUSE_NO":"２８６號","E_COORD97":177229.23999999999,"N_COORD97":2540276.9500000002,"ADDRESS":"中正南路一段２８６號","OBJECTID":197107},"geometry":{"x":177229.24000000115,"y":2540276.9499999993}},{"attributes":{"ID":197109,"DIS_CODE":0,"TOWNNAME":"歸仁區","LI":"南保里","LIN":"40鄰","STREET":"保興街","SECT":" ","MAREA":" ","LANE":" ","ALLEY":" ","HOUSE_NO":"４６號","E_COORD97":176507.17999999999,"N_COORD97":2541083.25,"ADDRESS":"保興街４６號","OBJECTID":197108},"geometry":{"x":176507.1799999997,"y":2541083.2500000037}},{"attributes":{"ID":197110,"DIS_CODE":0,"TOWNNAME":"東區","LI":"自強里","LIN":"18鄰","STREET":"中華東路","SECT":"二段","MAREA":" ","LANE":"２０３巷","ALLEY":"１９弄","HOUSE_NO":"４５號六樓","E_COORD97":171439.23999999999,"N_COORD97":2542645.5,"ADDRESS":"中華東路二段２０３巷１９弄４５號六樓","OBJECTID":197109},"geometry":{"x":171439.24000000022,"y":2542645.5000000019}},{"attributes":{"ID":197111,"DIS_CODE":0,"TOWNNAME":"東區","LI":"自強里","LIN":"18鄰","STREET":"中華東路","SECT":"二段","MAREA":" ","LANE":"２０３巷","ALLEY":"１９弄","HOUSE_NO":"４５號四樓","E_COORD97":171439.23999999999,"N_COORD97":2542645.5,"ADDRESS":"中華東路二段２０３巷１９弄４５號四樓","OBJECTID":197110},"geometry":{"x":171439.24000000022,"y":2542645.5000000019}},{"attributes":{"ID":197112,"DIS_CODE":0,"TOWNNAME":"安平區","LI":"建平里","LIN":"18鄰","STREET":"怡平路","SECT":" ","MAREA":" ","LANE":"１４０巷","ALLEY":"３７弄","HOUSE_NO":"３號二樓之１","E_COORD97":165890.59,"N_COORD97":2543893.2400000002,"ADDRESS":"怡平路１４０巷３７弄３號二樓之１","OBJECTID":197111},"geometry":{"x":165890.59000000078,"y":2543893.2400000002}},{"attributes":{"ID":197113,"DIS_CODE":0,"TOWNNAME":"安平區","LI":"建平里","LIN":"18鄰","STREET":"怡平路","SECT":" ","MAREA":" ","LANE":"１４０巷","ALLEY":"３７弄","HOUSE_NO":"３號二樓之２","E_COORD97":165890.59,"N_COORD97":2543893.2400000002,"ADDRESS":"怡平路１４０巷３７弄３號二樓之２","OBJECTID":197112},"geometry":{"x":165890.59000000078,"y":2543893.2400000002}},{"attributes":{"ID":197114,"DIS_CODE":0,"TOWNNAME":"東區","LI":"崇信里","LIN":"18鄰","STREET":"崇善一街","SECT":" ","MAREA":" ","LANE":"３巷","ALLEY":"６弄","HOUSE_NO":"１６號","E_COORD97":170684.54000000001,"N_COORD97":2542202.79,"ADDRESS":"崇善一街３巷６弄１６號","OBJECTID":197113},"geometry":{"x":170684.53999999911,"y":2542202.7899999991}},{"attributes":{"ID":197115,"DIS_CODE":0,"TOWNNAME":"安平區","LI":"建平里","LIN":"18鄰","STREET":"怡平路","SECT":" ","MAREA":" ","LANE":"１４０巷","ALLEY":"３７弄","HOUSE_NO":"３號二樓之３","E_COORD97":165890.59,"N_COORD97":2543893.2400000002,"ADDRESS":"怡平路１４０巷３７弄３號二樓之３","OBJECTID":197114},"geometry":{"x":165890.59000000078,"y":2543893.2400000002}},{"attributes":{"ID":197116,"DIS_CODE":0,"TOWNNAME":"安平區","LI":"建平里","LIN":"18鄰","STREET":"怡平路","SECT":" ","MAREA":" ","LANE":"１４０巷","ALLEY":"３７弄","HOUSE_NO":"３號二樓之４","E_COORD97":165890.59,"N_COORD97":2543893.2400000002,"ADDRESS":"怡平路１４０巷３７弄３號二樓之４","OBJECTID":197115},"geometry":{"x":165890.59000000078,"y":2543893.2400000002}},{"attributes":{"ID":197117,"DIS_CODE":0,"TOWNNAME":"安平區","LI":"建平里","LIN":"18鄰","STREET":"怡平路","SECT":" ","MAREA":" ","LANE":"１４０巷","ALLEY":"３７弄","HOUSE_NO":"３號三樓之１","E_COORD97":165890.59,"N_COORD97":2543893.2400000002,"ADDRESS":"怡平路１４０巷３７弄３號三樓之１","OBJECTID":197116},"geometry":{"x":165890.59000000078,"y":2543893.2400000002}},{"attributes":{"ID":197118,"DIS_CODE":0,"TOWNNAME":"安平區","LI":"建平里","LIN":"18鄰","STREET":"怡平路","SECT":" ","MAREA":" ","LANE":"１４０巷","ALLEY":"３７弄","HOUSE_NO":"３號三樓之２","E_COORD97":165890.59,"N_COORD97":2543893.2400000002,"ADDRESS":"怡平路１４０巷３７弄３號三樓之２","OBJECTID":197117},"geometry":{"x":165890.59000000078,"y":2543893.2400000002}},{"attributes":{"ID":197119,"DIS_CODE":0,"TOWNNAME":"安平區","LI":"建平里","LIN":"18鄰","STREET":"怡平路","SECT":" ","MAREA":" ","LANE":"１４０巷","ALLEY":"３７弄","HOUSE_NO":"３號三樓之３","E_COORD97":165890.59,"N_COORD97":2543893.2400000002,"ADDRESS":"怡平路１４０巷３７弄３號三樓之３","OBJECTID":197118},"geometry":{"x":165890.59000000078,"y":2543893.2400000002}},{"attributes":{"ID":197120,"DIS_CODE":0,"TOWNNAME":"安平區","LI":"建平里","LIN":"18鄰","STREET":"怡平路","SECT":" ","MAREA":" ","LANE":"１４０巷","ALLEY":"３７弄","HOUSE_NO":"３號三樓之４","E_COORD97":165890.59,"N_COORD97":2543893.2400000002,"ADDRESS":"怡平路１４０巷３７弄３號三樓之４","OBJECTID":197119},"geometry":{"x":165890.59000000078,"y":2543893.2400000002}},{"attributes":{"ID":197121,"DIS_CODE":0,"TOWNNAME":"永康區","LI":"埔園里","LIN":"21鄰","STREET":"四維街","SECT":" ","MAREA":" ","LANE":" ","ALLEY":" ","HOUSE_NO":"９６號","E_COORD97":173381.72,"N_COORD97":2548171.5299999998,"ADDRESS":"四維街９６號","OBJECTID":197120},"geometry":{"x":173381.71999999974,"y":2548171.5299999993}},{"attributes":{"ID":197122,"DIS_CODE":0,"TOWNNAME":"永康區","LI":"埔園里","LIN":"21鄰","STREET":"四維街","SECT":" ","MAREA":" ","LANE":" ","ALLEY":" ","HOUSE_NO":"１００號之６","E_COORD97":173373.42999999999,"N_COORD97":2548201.7200000002,"ADDRESS":"四維街１００號之６","OBJECTID":197121},"geometry":{"x":173373.4299999997,"y":2548201.7200000025}},{"attributes":{"ID":197123,"DIS_CODE":0,"TOWNNAME":"安平區","LI":"建平里","LIN":"18鄰","STREET":"怡平路","SECT":" ","MAREA":" ","LANE":"１４０巷","ALLEY":"３７弄","HOUSE_NO":"３號五樓之１","E_COORD97":165890.59,"N_COORD97":2543893.2400000002,"ADDRESS":"怡平路１４０巷３７弄３號五樓之１","OBJECTID":197122},"geometry":{"x":165890.59000000078,"y":2543893.2400000002}},{"attributes":{"ID":197124,"DIS_CODE":0,"TOWNNAME":"永康區","LI":"埔園里","LIN":"21鄰","STREET":"四維街","SECT":" ","MAREA":" ","LANE":" ","ALLEY":" ","HOUSE_NO":"９２號","E_COORD97":173387.85000000001,"N_COORD97":2548148.6800000002,"ADDRESS":"四維街９２號","OBJECTID":197123},"geometry":{"x":173387.85000000056,"y":2548148.6800000034}},{"attributes":{"ID":197125,"DIS_CODE":0,"TOWNNAME":"永康區","LI":"埔園里","LIN":"21鄰","STREET":"四維街","SECT":" ","MAREA":" ","LANE":" ","ALLEY":" ","HOUSE_NO":"１００號之７","E_COORD97":173394.07000000001,"N_COORD97":2548202.5499999998,"ADDRESS":"四維街１００號之７","OBJECTID":197124},"geometry":{"x":173394.07000000123,"y":2548202.5500000026}},{"attributes":{"ID":197126,"DIS_CODE":0,"TOWNNAME":"永康區","LI":"埔園里","LIN":"21鄰","STREET":"四維街","SECT":" ","MAREA":" ","LANE":" ","ALLEY":" ","HOUSE_NO":"９８號","E_COORD97":173380.41,"N_COORD97":2548176.2799999998,"ADDRESS":"四維街９８號","OBJECTID":197125},"geometry":{"x":173380.41000000015,"y":2548176.2800000012}},{"attributes":{"ID":197127,"DIS_CODE":0,"TOWNNAME":"山上區","LI":"明和里","LIN":"21鄰","STREET":" ","SECT":" ","MAREA":"北勢洲","LANE":" ","ALLEY":" ","HOUSE_NO":"２０號","E_COORD97":182339.84,"N_COORD97":2557226.29,"ADDRESS":"北勢洲２０號","OBJECTID":197126},"geometry":{"x":182339.83999999985,"y":2557226.2899999991}},{"attributes":{"ID":197128,"DIS_CODE":0,"TOWNNAME":"永康區","LI":"埔園里","LIN":"21鄰","STREET":"四維街","SECT":" ","MAREA":" ","LANE":" ","ALLEY":" ","HOUSE_NO":"１０８號","E_COORD97":173361.60000000001,"N_COORD97":2548221.4900000002,"ADDRESS":"四維街１０８號","OBJECTID":197127},"geometry":{"x":173361.59999999963,"y":2548221.4900000002}},{"attributes":{"ID":197129,"DIS_CODE":0,"TOWNNAME":"白河區","LI":"河東里","LIN":"3鄰","STREET":" ","SECT":" ","MAREA":"糞箕湖","LANE":" ","ALLEY":" ","HOUSE_NO":"３６之３號","E_COORD97":191830.53,"N_COORD97":2582473.1800000002,"ADDRESS":"糞箕湖３６之３號","OBJECTID":197128},"geometry":{"x":191830.53000000026,"y":2582473.1800000034}},{"attributes":{"ID":197130,"DIS_CODE":0,"TOWNNAME":"白河區","LI":"河東里","LIN":"3鄰","STREET":" ","SECT":" ","MAREA":"糞箕湖","LANE":" ","ALLEY":" ","HOUSE_NO":"３６之５號","E_COORD97":191854.14000000001,"N_COORD97":2582473.79,"ADDRESS":"糞箕湖３６之５號","OBJECTID":197129},"geometry":{"x":191854.13999999966,"y":2582473.7899999991}},{"attributes":{"ID":197131,"DIS_CODE":0,"TOWNNAME":"白河區","LI":"河東里","LIN":"3鄰","STREET":" ","SECT":" ","MAREA":"糞箕湖","LANE":" ","ALLEY":" ","HOUSE_NO":"３６之６號","E_COORD97":191973.07999999999,"N_COORD97":2582442.23,"ADDRESS":"糞箕湖３６之６號","OBJECTID":197130},"geometry":{"x":191973.08000000101,"y":2582442.2300000004}},{"attributes":{"ID":197132,"DIS_CODE":0,"TOWNNAME":"白河區","LI":"河東里","LIN":"3鄰","STREET":" ","SECT":" ","MAREA":"糞箕湖","LANE":" ","ALLEY":" ","HOUSE_NO":"３６之７號","E_COORD97":191875.01999999999,"N_COORD97":2582471.1299999999,"ADDRESS":"糞箕湖３６之７號","OBJECTID":197131},"geometry":{"x":191875.01999999955,"y":2582471.129999999}},{"attributes":{"ID":197133,"DIS_CODE":0,"TOWNNAME":"白河區","LI":"河東里","LIN":"3鄰","STREET":" ","SECT":" ","MAREA":"糞箕湖","LANE":" ","ALLEY":" ","HOUSE_NO":"３６之８號","E_COORD97":191901.04000000001,"N_COORD97":2582465.4500000002,"ADDRESS":"糞箕湖３６之８號","OBJECTID":197132},"geometry":{"x":191901.04000000004,"y":2582465.4500000011}},{"attributes":{"ID":197134,"DIS_CODE":0,"TOWNNAME":"白河區","LI":"河東里","LIN":"3鄰","STREET":" ","SECT":" ","MAREA":"糞箕湖","LANE":" ","ALLEY":" ","HOUSE_NO":"３６號","E_COORD97":192023.04999999999,"N_COORD97":2582378.8700000001,"ADDRESS":"糞箕湖３６號","OBJECTID":197133},"geometry":{"x":192023.04999999981,"y":2582378.8700000029}},{"attributes":{"ID":197135,"DIS_CODE":0,"TOWNNAME":"白河區","LI":"河東里","LIN":"3鄰","STREET":" ","SECT":" ","MAREA":"糞箕湖","LANE":" ","ALLEY":" ","HOUSE_NO":"３７之１０號","E_COORD97":192025.92000000001,"N_COORD97":2582409.9399999999,"ADDRESS":"糞箕湖３７之１０號","OBJECTID":197134},"geometry":{"x":192025.91999999993,"y":2582409.9400000032}},{"attributes":{"ID":197136,"DIS_CODE":0,"TOWNNAME":"白河區","LI":"河東里","LIN":"3鄰","STREET":" ","SECT":" ","MAREA":"糞箕湖","LANE":" ","ALLEY":" ","HOUSE_NO":"３７之２號","E_COORD97":192044.14999999999,"N_COORD97":2582384.5699999998,"ADDRESS":"糞箕湖３７之２號","OBJECTID":197135},"geometry":{"x":192044.1500000013,"y":2582384.5700000003}},{"attributes":{"ID":197137,"DIS_CODE":0,"TOWNNAME":"白河區","LI":"河東里","LIN":"3鄰","STREET":" ","SECT":" ","MAREA":"糞箕湖","LANE":" ","ALLEY":" ","HOUSE_NO":"３７之３號","E_COORD97":192041.82999999999,"N_COORD97":2582400.8900000001,"ADDRESS":"糞箕湖３７之３號","OBJECTID":197136},"geometry":{"x":192041.83000000007,"y":2582400.8900000006}},{"attributes":{"ID":197138,"DIS_CODE":0,"TOWNNAME":"白河區","LI":"河東里","LIN":"3鄰","STREET":" ","SECT":" ","MAREA":"糞箕湖","LANE":" ","ALLEY":" ","HOUSE_NO":"３７之５號","E_COORD97":192038.41,"N_COORD97":2582425.9300000002,"ADDRESS":"糞箕湖３７之５號","OBJECTID":197137},"geometry":{"x":192038.41000000108,"y":2582425.9299999997}},{"attributes":{"ID":197139,"DIS_CODE":0,"TOWNNAME":"白河區","LI":"河東里","LIN":"3鄰","STREET":" ","SECT":" ","MAREA":"糞箕湖","LANE":" ","ALLEY":" ","HOUSE_NO":"３７之７號","E_COORD97":192063.62,"N_COORD97":2582377.1699999999,"ADDRESS":"糞箕湖３７之７號","OBJECTID":197138},"geometry":{"x":192063.62000000011,"y":2582377.1699999999}},{"attributes":{"ID":197140,"DIS_CODE":0,"TOWNNAME":"新市區","LI":"社內里","LIN":"21鄰","STREET":" ","SECT":" ","MAREA":"社內","LANE":" ","ALLEY":" ","HOUSE_NO":"３００號","E_COORD97":176031,"N_COORD97":2553854,"ADDRESS":"社內３００號","OBJECTID":197139},"geometry":{"x":176031,"y":2553854.0000000019}},{"attributes":{"ID":197141,"DIS_CODE":0,"TOWNNAME":"新市區","LI":"大營里","LIN":"21鄰","STREET":" ","SECT":" ","MAREA":"豐榮","LANE":" ","ALLEY":" ","HOUSE_NO":"１１２號","E_COORD97":178885.85000000001,"N_COORD97":2554285.25,"ADDRESS":"豐榮１１２號","OBJECTID":197140},"geometry":{"x":178885.85000000056,"y":2554285.2500000037}},{"attributes":{"ID":197142,"DIS_CODE":0,"TOWNNAME":"安平區","LI":"建平里","LIN":"18鄰","STREET":"怡平路","SECT":" ","MAREA":" ","LANE":"１４０巷","ALLEY":"３７弄","HOUSE_NO":"３號五樓之２","E_COORD97":165890.59,"N_COORD97":2543893.2400000002,"ADDRESS":"怡平路１４０巷３７弄３號五樓之２","OBJECTID":197141},"geometry":{"x":165890.59000000078,"y":2543893.2400000002}},{"attributes":{"ID":197143,"DIS_CODE":0,"TOWNNAME":"安平區","LI":"建平里","LIN":"18鄰","STREET":"怡平路","SECT":" ","MAREA":" ","LANE":"１４０巷","ALLEY":"３７弄","HOUSE_NO":"３號五樓之３","E_COORD97":165890.59,"N_COORD97":2543893.2400000002,"ADDRESS":"怡平路１４０巷３７弄３號五樓之３","OBJECTID":197142},"geometry":{"x":165890.59000000078,"y":2543893.2400000002}},{"attributes":{"ID":197144,"DIS_CODE":0,"TOWNNAME":"新市區","LI":"大營里","LIN":"21鄰","STREET":" ","SECT":" ","MAREA":"豐榮","LANE":" ","ALLEY":" ","HOUSE_NO":"１３８號","E_COORD97":178878.14999999999,"N_COORD97":2554190.25,"ADDRESS":"豐榮１３８號","OBJECTID":197143},"geometry":{"x":178878.15000000037,"y":2554190.2500000037}},{"attributes":{"ID":197145,"DIS_CODE":0,"TOWNNAME":"山上區","LI":"明和里","LIN":"21鄰","STREET":" ","SECT":" ","MAREA":"北勢洲","LANE":" ","ALLEY":" ","HOUSE_NO":"２１之８號","E_COORD97":181898.34,"N_COORD97":2557082.2999999998,"ADDRESS":"北勢洲２１之８號","OBJECTID":197144},"geometry":{"x":181898.34000000078,"y":2557082.3000000007}},{"attributes":{"ID":197146,"DIS_CODE":0,"TOWNNAME":"山上區","LI":"明和里","LIN":"21鄰","STREET":" ","SECT":" ","MAREA":"北勢洲","LANE":" ","ALLEY":" ","HOUSE_NO":"２１號","E_COORD97":182343.14000000001,"N_COORD97":2557166.29,"ADDRESS":"北勢洲２１號","OBJECTID":197145},"geometry":{"x":182343.14000000153,"y":2557166.290000001}},{"attributes":{"ID":197147,"DIS_CODE":0,"TOWNNAME":"安平區","LI":"建平里","LIN":"18鄰","STREET":"怡平路","SECT":" ","MAREA":" ","LANE":"１４０巷","ALLEY":"３７弄","HOUSE_NO":"３號五樓之４","E_COORD97":165890.59,"N_COORD97":2543893.2400000002,"ADDRESS":"怡平路１４０巷３７弄３號五樓之４","OBJECTID":197146},"geometry":{"x":165890.59000000078,"y":2543893.2400000002}},{"attributes":{"ID":197148,"DIS_CODE":0,"TOWNNAME":"山上區","LI":"明和里","LIN":"21鄰","STREET":" ","SECT":" ","MAREA":"北勢洲","LANE":" ","ALLEY":" ","HOUSE_NO":"９號之１","E_COORD97":182381.53,"N_COORD97":2557305.2999999998,"ADDRESS":"北勢洲９號之１","OBJECTID":197147},"geometry":{"x":182381.53000000026,"y":2557305.3000000007}},{"attributes":{"ID":197149,"DIS_CODE":0,"TOWNNAME":"安平區","LI":"建平里","LIN":"18鄰","STREET":"怡平路","SECT":" ","MAREA":" ","LANE":"１４０巷","ALLEY":"３７弄","HOUSE_NO":"３號六樓之１","E_COORD97":165890.59,"N_COORD97":2543893.2400000002,"ADDRESS":"怡平路１４０巷３７弄３號六樓之１","OBJECTID":197148},"geometry":{"x":165890.59000000078,"y":2543893.2400000002}},{"attributes":{"ID":197150,"DIS_CODE":0,"TOWNNAME":"山上區","LI":"明和里","LIN":"21鄰","STREET":" ","SECT":" ","MAREA":"北勢洲","LANE":" ","ALLEY":" ","HOUSE_NO":"１７號之１","E_COORD97":182345.07999999999,"N_COORD97":2557268.2999999998,"ADDRESS":"北勢洲１７號之１","OBJECTID":197149},"geometry":{"x":182345.08000000007,"y":2557268.3000000007}},{"attributes":{"ID":197151,"DIS_CODE":0,"TOWNNAME":"山上區","LI":"明和里","LIN":"21鄰","STREET":" ","SECT":" ","MAREA":"北勢洲","LANE":" ","ALLEY":" ","HOUSE_NO":"７號之１","E_COORD97":182431.42999999999,"N_COORD97":2557264.2999999998,"ADDRESS":"北勢洲７號之１","OBJECTID":197150},"geometry":{"x":182431.43000000063,"y":2557264.3000000007}},{"attributes":{"ID":197152,"DIS_CODE":0,"TOWNNAME":"山上區","LI":"明和里","LIN":"21鄰","STREET":" ","SECT":" ","MAREA":"北勢洲","LANE":" ","ALLEY":" ","HOUSE_NO":"２３號","E_COORD97":182469.64000000001,"N_COORD97":2557073.29,"ADDRESS":"北勢洲２３號","OBJECTID":197151},"geometry":{"x":182469.63999999966,"y":2557073.2899999991}},{"attributes":{"ID":197153,"DIS_CODE":0,"TOWNNAME":"安平區","LI":"建平里","LIN":"18鄰","STREET":"怡平路","SECT":" ","MAREA":" ","LANE":"１４０巷","ALLEY":"３７弄","HOUSE_NO":"３號六樓之２","E_COORD97":165890.59,"N_COORD97":2543893.2400000002,"ADDRESS":"怡平路１４０巷３７弄３號六樓之２","OBJECTID":197152},"geometry":{"x":165890.59000000078,"y":2543893.2400000002}},{"attributes":{"ID":197154,"DIS_CODE":0,"TOWNNAME":"安平區","LI":"建平里","LIN":"18鄰","STREET":"怡平路","SECT":" ","MAREA":" ","LANE":"１４０巷","ALLEY":"３７弄","HOUSE_NO":"３號六樓之３","E_COORD97":165890.59,"N_COORD97":2543893.2400000002,"ADDRESS":"怡平路１４０巷３７弄３號六樓之３","OBJECTID":197153},"geometry":{"x":165890.59000000078,"y":2543893.2400000002}},{"attributes":{"ID":197155,"DIS_CODE":0,"TOWNNAME":"安平區","LI":"建平里","LIN":"18鄰","STREET":"怡平路","SECT":" ","MAREA":" ","LANE":"１４０巷","ALLEY":"３７弄","HOUSE_NO":"３號六樓之４","E_COORD97":165890.59,"N_COORD97":2543893.2400000002,"ADDRESS":"怡平路１４０巷３７弄３號六樓之４","OBJECTID":197154},"geometry":{"x":165890.59000000078,"y":2543893.2400000002}},{"attributes":{"ID":197156,"DIS_CODE":0,"TOWNNAME":"山上區","LI":"明和里","LIN":"21鄰","STREET":" ","SECT":" ","MAREA":"北勢洲","LANE":" ","ALLEY":" ","HOUSE_NO":"４號","E_COORD97":182419.98999999999,"N_COORD97":2557223.29,"ADDRESS":"北勢洲４號","OBJECTID":197155},"geometry":{"x":182419.99000000115,"y":2557223.2899999972}},{"attributes":{"ID":197157,"DIS_CODE":0,"TOWNNAME":"山上區","LI":"明和里","LIN":"21鄰","STREET":" ","SECT":" ","MAREA":"北勢洲","LANE":" ","ALLEY":" ","HOUSE_NO":"１７之２號","E_COORD97":182350.54000000001,"N_COORD97":2557283.2999999998,"ADDRESS":"北勢洲１７之２號","OBJECTID":197156},"geometry":{"x":182350.54000000004,"y":2557283.3000000026}},{"attributes":{"ID":197158,"DIS_CODE":0,"TOWNNAME":"山上區","LI":"明和里","LIN":"21鄰","STREET":" ","SECT":" ","MAREA":"北勢洲","LANE":" ","ALLEY":" ","HOUSE_NO":"２１之１０號","E_COORD97":181971.19,"N_COORD97":2557065.2999999998,"ADDRESS":"北勢洲２１之１０號","OBJECTID":197157},"geometry":{"x":181971.19000000134,"y":2557065.3000000007}},{"attributes":{"ID":197159,"DIS_CODE":0,"TOWNNAME":"山上區","LI":"明和里","LIN":"21鄰","STREET":" ","SECT":" ","MAREA":"北勢洲","LANE":" ","ALLEY":" ","HOUSE_NO":"９號","E_COORD97":182389.48999999999,"N_COORD97":2557289.29,"ADDRESS":"北勢洲９號","OBJECTID":197158},"geometry":{"x":182389.49000000115,"y":2557289.290000001}},{"attributes":{"ID":197160,"DIS_CODE":0,"TOWNNAME":"山上區","LI":"明和里","LIN":"21鄰","STREET":" ","SECT":" ","MAREA":"北勢洲","LANE":" ","ALLEY":" ","HOUSE_NO":"１６號","E_COORD97":182331.73999999999,"N_COORD97":2557315.29,"ADDRESS":"北勢洲１６號","OBJECTID":197159},"geometry":{"x":182331.74000000115,"y":2557315.290000001}},{"attributes":{"ID":197161,"DIS_CODE":0,"TOWNNAME":"白河區","LI":"河東里","LIN":"3鄰","STREET":" ","SECT":" ","MAREA":"糞箕湖","LANE":" ","ALLEY":" ","HOUSE_NO":"３７之９號","E_COORD97":192055.53,"N_COORD97":2582377.7799999998,"ADDRESS":"糞箕湖３７之９號","OBJECTID":197160},"geometry":{"x":192055.53000000026,"y":2582377.7800000012}},{"attributes":{"ID":197162,"DIS_CODE":0,"TOWNNAME":"山上區","LI":"明和里","LIN":"21鄰","STREET":" ","SECT":" ","MAREA":"北勢洲","LANE":" ","ALLEY":" ","HOUSE_NO":"１６之２號","E_COORD97":182295.44,"N_COORD97":2557417.2999999998,"ADDRESS":"北勢洲１６之２號","OBJECTID":197161},"geometry":{"x":182295.44000000041,"y":2557417.3000000007}},{"attributes":{"ID":197163,"DIS_CODE":0,"TOWNNAME":"山上區","LI":"明和里","LIN":"21鄰","STREET":" ","SECT":" ","MAREA":"北勢洲","LANE":" ","ALLEY":" ","HOUSE_NO":"１６之１號","E_COORD97":182321.94,"N_COORD97":2557356.2999999998,"ADDRESS":"北勢洲１６之１號","OBJECTID":197162},"geometry":{"x":182321.94000000134,"y":2557356.3000000007}},{"attributes":{"ID":197164,"DIS_CODE":0,"TOWNNAME":"安平區","LI":"建平里","LIN":"18鄰","STREET":"怡平路","SECT":" ","MAREA":" ","LANE":"１４０巷","ALLEY":"３７弄","HOUSE_NO":"３號四樓之１","E_COORD97":165890.59,"N_COORD97":2543893.2400000002,"ADDRESS":"怡平路１４０巷３７弄３號四樓之１","OBJECTID":197163},"geometry":{"x":165890.59000000078,"y":2543893.2400000002}},{"attributes":{"ID":197165,"DIS_CODE":0,"TOWNNAME":"安平區","LI":"建平里","LIN":"18鄰","STREET":"怡平路","SECT":" ","MAREA":" ","LANE":"１４０巷","ALLEY":"３７弄","HOUSE_NO":"３號四樓之２","E_COORD97":165890.59,"N_COORD97":2543893.2400000002,"ADDRESS":"怡平路１４０巷３７弄３號四樓之２","OBJECTID":197164},"geometry":{"x":165890.59000000078,"y":2543893.2400000002}},{"attributes":{"ID":197166,"DIS_CODE":0,"TOWNNAME":"山上區","LI":"明和里","LIN":"21鄰","STREET":" ","SECT":" ","MAREA":"北勢洲","LANE":" ","ALLEY":" ","HOUSE_NO":"１８號","E_COORD97":182323.73999999999,"N_COORD97":2557261.29,"ADDRESS":"北勢洲１８號","OBJECTID":197165},"geometry":{"x":182323.74000000022,"y":2557261.290000001}},{"attributes":{"ID":197167,"DIS_CODE":0,"TOWNNAME":"山上區","LI":"明和里","LIN":"21鄰","STREET":" ","SECT":" ","MAREA":"北勢洲","LANE":" ","ALLEY":" ","HOUSE_NO":"２４號","E_COORD97":182248.94,"N_COORD97":2556880.29,"ADDRESS":"北勢洲２４號","OBJECTID":197166},"geometry":{"x":182248.94000000134,"y":2556880.2899999991}},{"attributes":{"ID":197168,"DIS_CODE":0,"TOWNNAME":"安平區","LI":"建平里","LIN":"18鄰","STREET":"怡平路","SECT":" ","MAREA":" ","LANE":"１４０巷","ALLEY":"３７弄","HOUSE_NO":"３號四樓之３","E_COORD97":165890.59,"N_COORD97":2543893.2400000002,"ADDRESS":"怡平路１４０巷３７弄３號四樓之３","OBJECTID":197167},"geometry":{"x":165890.59000000078,"y":2543893.2400000002}},{"attributes":{"ID":197169,"DIS_CODE":0,"TOWNNAME":"仁德區","LI":"後壁里","LIN":"33鄰","STREET":"德洋二街","SECT":" ","MAREA":" ","LANE":"３９巷","ALLEY":"１６弄","HOUSE_NO":"２３號","E_COORD97":172222.59,"N_COORD97":2539488.77,"ADDRESS":"德洋二街３９巷１６弄２３號","OBJECTID":197168},"geometry":{"x":172222.58999999985,"y":2539488.7699999977}},{"attributes":{"ID":197170,"DIS_CODE":0,"TOWNNAME":"安南區","LI":"長安里","LIN":"18鄰","STREET":"長溪路","SECT":"三段","MAREA":" ","LANE":"３７３巷","ALLEY":"２１弄","HOUSE_NO":"２５號","E_COORD97":167681.35999999999,"N_COORD97":2551870.8999999999,"ADDRESS":"長溪路三段３７３巷２１弄２５號","OBJECTID":197169},"geometry":{"x":167681.36000000127,"y":2551870.9000000041}},{"attributes":{"ID":197171,"DIS_CODE":0,"TOWNNAME":"山上區","LI":"明和里","LIN":"21鄰","STREET":" ","SECT":" ","MAREA":"北勢洲","LANE":" ","ALLEY":" ","HOUSE_NO":"５之１號","E_COORD97":182402.48999999999,"N_COORD97":2557242.2999999998,"ADDRESS":"北勢洲５之１號","OBJECTID":197170},"geometry":{"x":182402.49000000115,"y":2557242.3000000045}},{"attributes":{"ID":197172,"DIS_CODE":0,"TOWNNAME":"山上區","LI":"明和里","LIN":"21鄰","STREET":" ","SECT":" ","MAREA":"北勢洲","LANE":" ","ALLEY":" ","HOUSE_NO":"２１之１號","E_COORD97":182170.84,"N_COORD97":2556937.2999999998,"ADDRESS":"北勢洲２１之１號","OBJECTID":197171},"geometry":{"x":182170.84000000171,"y":2556937.3000000026}},{"attributes":{"ID":197173,"DIS_CODE":0,"TOWNNAME":"山上區","LI":"明和里","LIN":"21鄰","STREET":" ","SECT":" ","MAREA":"北勢洲","LANE":" ","ALLEY":" ","HOUSE_NO":"８號","E_COORD97":182404.98999999999,"N_COORD97":2557283.29,"ADDRESS":"北勢洲８號","OBJECTID":197172},"geometry":{"x":182404.99000000022,"y":2557283.2899999991}},{"attributes":{"ID":197174,"DIS_CODE":0,"TOWNNAME":"山上區","LI":"明和里","LIN":"21鄰","STREET":" ","SECT":" ","MAREA":"北勢洲","LANE":" ","ALLEY":" ","HOUSE_NO":"７之２號","E_COORD97":182464.19,"N_COORD97":2557219.2999999998,"ADDRESS":"北勢洲７之２號","OBJECTID":197173},"geometry":{"x":182464.19000000134,"y":2557219.3000000026}},{"attributes":{"ID":197175,"DIS_CODE":0,"TOWNNAME":"山上區","LI":"明和里","LIN":"21鄰","STREET":" ","SECT":" ","MAREA":"北勢洲","LANE":" ","ALLEY":" ","HOUSE_NO":"１８之１號","E_COORD97":182341.14000000001,"N_COORD97":2557242.2999999998,"ADDRESS":"北勢洲１８之１號","OBJECTID":197174},"geometry":{"x":182341.13999999966,"y":2557242.3000000045}},{"attributes":{"ID":197176,"DIS_CODE":0,"TOWNNAME":"山上區","LI":"明和里","LIN":"21鄰","STREET":" ","SECT":" ","MAREA":"北勢洲","LANE":" ","ALLEY":" ","HOUSE_NO":"３號","E_COORD97":182414.39000000001,"N_COORD97":2557210.29,"ADDRESS":"北勢洲３號","OBJECTID":197175},"geometry":{"x":182414.39000000153,"y":2557210.290000001}},{"attributes":{"ID":197177,"DIS_CODE":0,"TOWNNAME":"山上區","LI":"明和里","LIN":"21鄰","STREET":" ","SECT":" ","MAREA":"北勢洲","LANE":" ","ALLEY":" ","HOUSE_NO":"７號","E_COORD97":182415.19,"N_COORD97":2557273.29,"ADDRESS":"北勢洲７號","OBJECTID":197176},"geometry":{"x":182415.19000000134,"y":2557273.2899999991}},{"attributes":{"ID":197178,"DIS_CODE":0,"TOWNNAME":"山上區","LI":"明和里","LIN":"21鄰","STREET":" ","SECT":" ","MAREA":"北勢洲","LANE":" ","ALLEY":" ","HOUSE_NO":"２２之２號","E_COORD97":182329.44,"N_COORD97":2556992.2999999998,"ADDRESS":"北勢洲２２之２號","OBJECTID":197177},"geometry":{"x":182329.44000000041,"y":2556992.3000000026}},{"attributes":{"ID":197179,"DIS_CODE":0,"TOWNNAME":"山上區","LI":"明和里","LIN":"21鄰","STREET":" ","SECT":" ","MAREA":"北勢洲","LANE":" ","ALLEY":" ","HOUSE_NO":"２號","E_COORD97":182424.39000000001,"N_COORD97":2557155.29,"ADDRESS":"北勢洲２號","OBJECTID":197178},"geometry":{"x":182424.38999999873,"y":2557155.2899999991}},{"attributes":{"ID":197180,"DIS_CODE":0,"TOWNNAME":"山上區","LI":"明和里","LIN":"21鄰","STREET":" ","SECT":" ","MAREA":"北勢洲","LANE":" ","ALLEY":" ","HOUSE_NO":"２１之４號","E_COORD97":181899.84,"N_COORD97":2557022.2999999998,"ADDRESS":"北勢洲２１之４號","OBJECTID":197179},"geometry":{"x":181899.84000000078,"y":2557022.3000000026}},{"attributes":{"ID":197181,"DIS_CODE":0,"TOWNNAME":"山上區","LI":"明和里","LIN":"21鄰","STREET":" ","SECT":" ","MAREA":"北勢洲","LANE":" ","ALLEY":" ","HOUSE_NO":"２２之３號","E_COORD97":182378.34,"N_COORD97":2557157.2999999998,"ADDRESS":"北勢洲２２之３號","OBJECTID":197180},"geometry":{"x":182378.34000000078,"y":2557157.3000000045}},{"attributes":{"ID":197182,"DIS_CODE":0,"TOWNNAME":"山上區","LI":"明和里","LIN":"21鄰","STREET":" ","SECT":" ","MAREA":"北勢洲","LANE":" ","ALLEY":" ","HOUSE_NO":"１７號","E_COORD97":182340.94,"N_COORD97":2557289.29,"ADDRESS":"北勢洲１７號","OBJECTID":197181},"geometry":{"x":182340.94000000134,"y":2557289.290000001}},{"attributes":{"ID":197183,"DIS_CODE":0,"TOWNNAME":"山上區","LI":"明和里","LIN":"21鄰","STREET":" ","SECT":" ","MAREA":"北勢洲","LANE":" ","ALLEY":" ","HOUSE_NO":"５號","E_COORD97":182417.19,"N_COORD97":2557244.29,"ADDRESS":"北勢洲５號","OBJECTID":197182},"geometry":{"x":182417.19000000134,"y":2557244.290000001}},{"attributes":{"ID":197184,"DIS_CODE":0,"TOWNNAME":"山上區","LI":"明和里","LIN":"21鄰","STREET":" ","SECT":" ","MAREA":"北勢洲","LANE":" ","ALLEY":" ","HOUSE_NO":"６號","E_COORD97":182389.89000000001,"N_COORD97":2557253.29,"ADDRESS":"北勢洲６號","OBJECTID":197183},"geometry":{"x":182389.88999999966,"y":2557253.2899999991}},{"attributes":{"ID":197185,"DIS_CODE":0,"TOWNNAME":"山上區","LI":"明和里","LIN":"21鄰","STREET":" ","SECT":" ","MAREA":"北勢洲","LANE":" ","ALLEY":" ","HOUSE_NO":"２１之２號","E_COORD97":182196.54000000001,"N_COORD97":2556970.2999999998,"ADDRESS":"北勢洲２１之２號","OBJECTID":197184},"geometry":{"x":182196.54000000004,"y":2556970.3000000007}},{"attributes":{"ID":197186,"DIS_CODE":0,"TOWNNAME":"山上區","LI":"明和里","LIN":"21鄰","STREET":" ","SECT":" ","MAREA":"北勢洲","LANE":" ","ALLEY":" ","HOUSE_NO":"２２之１號","E_COORD97":182413.73999999999,"N_COORD97":2557119.2999999998,"ADDRESS":"北勢洲２２之１號","OBJECTID":197185},"geometry":{"x":182413.74000000022,"y":2557119.3000000007}},{"attributes":{"ID":197187,"DIS_CODE":0,"TOWNNAME":"山上區","LI":"明和里","LIN":"21鄰","STREET":" ","SECT":" ","MAREA":"北勢洲","LANE":" ","ALLEY":" ","HOUSE_NO":"２０號","E_COORD97":181940.59,"N_COORD97":2556909.1499999999,"ADDRESS":"北勢洲２０號","OBJECTID":197186},"geometry":{"x":181940.59000000078,"y":2556909.1500000004}},{"attributes":{"ID":197188,"DIS_CODE":0,"TOWNNAME":"山上區","LI":"明和里","LIN":"21鄰","STREET":" ","SECT":" ","MAREA":"北勢洲","LANE":" ","ALLEY":" ","HOUSE_NO":"２１之６號","E_COORD97":181803.39999999999,"N_COORD97":2557072.0899999999,"ADDRESS":"北勢洲２１之６號","OBJECTID":197187},"geometry":{"x":181803.4000000013,"y":2557072.0899999999}},{"attributes":{"ID":197189,"DIS_CODE":0,"TOWNNAME":"西港區","LI":"金砂里","LIN":"3鄰","STREET":" ","SECT":" ","MAREA":"施寮","LANE":" ","ALLEY":" ","HOUSE_NO":"２０號","E_COORD97":169010.81,"N_COORD97":2561289.8900000001,"ADDRESS":"施寮２０號","OBJECTID":197188},"geometry":{"x":169010.80999999866,"y":2561289.8900000025}},{"attributes":{"ID":197190,"DIS_CODE":0,"TOWNNAME":"山上區","LI":"明和里","LIN":"21鄰","STREET":" ","SECT":" ","MAREA":"北勢洲","LANE":" ","ALLEY":" ","HOUSE_NO":"２１之９號","E_COORD97":181875.31,"N_COORD97":2557079.3399999999,"ADDRESS":"北勢洲２１之９號","OBJECTID":197189},"geometry":{"x":181875.30999999959,"y":2557079.3400000017}},{"attributes":{"ID":197191,"DIS_CODE":0,"TOWNNAME":"白河區","LI":"河東里","LIN":"3鄰","STREET":" ","SECT":" ","MAREA":"糞箕湖","LANE":" ","ALLEY":" ","HOUSE_NO":"３８之１０號","E_COORD97":192111.76999999999,"N_COORD97":2582396.4300000002,"ADDRESS":"糞箕湖３８之１０號","OBJECTID":197190},"geometry":{"x":192111.77000000048,"y":2582396.4299999997}},{"attributes":{"ID":197192,"DIS_CODE":0,"TOWNNAME":"白河區","LI":"河東里","LIN":"3鄰","STREET":" ","SECT":" ","MAREA":"糞箕湖","LANE":" ","ALLEY":" ","HOUSE_NO":"３８之２號","E_COORD97":192137.10999999999,"N_COORD97":2582389.1099999999,"ADDRESS":"糞箕湖３８之２號","OBJECTID":197191},"geometry":{"x":192137.1100000022,"y":2582389.1100000013}},{"attributes":{"ID":197193,"DIS_CODE":0,"TOWNNAME":"白河區","LI":"河東里","LIN":"3鄰","STREET":" ","SECT":" ","MAREA":"糞箕湖","LANE":" ","ALLEY":" ","HOUSE_NO":"３８之３號","E_COORD97":192107.85000000001,"N_COORD97":2582397.5099999998,"ADDRESS":"糞箕湖３８之３號","OBJECTID":197192},"geometry":{"x":192107.85000000056,"y":2582397.5100000016}},{"attributes":{"ID":197194,"DIS_CODE":0,"TOWNNAME":"白河區","LI":"河東里","LIN":"3鄰","STREET":" ","SECT":" ","MAREA":"糞箕湖","LANE":" ","ALLEY":" ","HOUSE_NO":"３８之４號","E_COORD97":192103.04999999999,"N_COORD97":2582398.3799999999,"ADDRESS":"糞箕湖３８之４號","OBJECTID":197193},"geometry":{"x":192103.05000000168,"y":2582398.379999999}},{"attributes":{"ID":197195,"DIS_CODE":0,"TOWNNAME":"白河區","LI":"河東里","LIN":"3鄰","STREET":" ","SECT":" ","MAREA":"糞箕湖","LANE":" ","ALLEY":" ","HOUSE_NO":"３８之５號","E_COORD97":192098.10000000001,"N_COORD97":2582401.3399999999,"ADDRESS":"糞箕湖３８之５號","OBJECTID":197194},"geometry":{"x":192098.10000000056,"y":2582401.3400000017}},{"attributes":{"ID":197196,"DIS_CODE":0,"TOWNNAME":"白河區","LI":"河東里","LIN":"3鄰","STREET":" ","SECT":" ","MAREA":"糞箕湖","LANE":" ","ALLEY":" ","HOUSE_NO":"３８之６號","E_COORD97":192093.44,"N_COORD97":2582402.3799999999,"ADDRESS":"糞箕湖３８之６號","OBJECTID":197195},"geometry":{"x":192093.44000000041,"y":2582402.379999999}},{"attributes":{"ID":197197,"DIS_CODE":0,"TOWNNAME":"白河區","LI":"河東里","LIN":"3鄰","STREET":" ","SECT":" ","MAREA":"糞箕湖","LANE":" ","ALLEY":" ","HOUSE_NO":"４０號","E_COORD97":192145.22,"N_COORD97":2582387.46,"ADDRESS":"糞箕湖４０號","OBJECTID":197196},"geometry":{"x":192145.21999999974,"y":2582387.459999999}},{"attributes":{"ID":197198,"DIS_CODE":0,"TOWNNAME":"白河區","LI":"河東里","LIN":"3鄰","STREET":" ","SECT":" ","MAREA":"糞箕湖","LANE":" ","ALLEY":" ","HOUSE_NO":"４１號","E_COORD97":192149.03,"N_COORD97":2582386.3999999999,"ADDRESS":"糞箕湖４１號","OBJECTID":197197},"geometry":{"x":192149.03000000026,"y":2582386.4000000004}},{"attributes":{"ID":197199,"DIS_CODE":0,"TOWNNAME":"白河區","LI":"河東里","LIN":"3鄰","STREET":" ","SECT":" ","MAREA":"糞箕湖","LANE":" ","ALLEY":" ","HOUSE_NO":"４６之１號","E_COORD97":192171.04000000001,"N_COORD97":2582382.6699999999,"ADDRESS":"糞箕湖４６之１號","OBJECTID":197198},"geometry":{"x":192171.04000000004,"y":2582382.6700000018}},{"attributes":{"ID":197200,"DIS_CODE":0,"TOWNNAME":"白河區","LI":"河東里","LIN":"3鄰","STREET":" ","SECT":" ","MAREA":"糞箕湖","LANE":" ","ALLEY":" ","HOUSE_NO":"４６之２號","E_COORD97":192176.97,"N_COORD97":2582381.5800000001,"ADDRESS":"糞箕湖４６之２號","OBJECTID":197199},"geometry":{"x":192176.97000000067,"y":2582381.5800000001}},{"attributes":{"ID":197201,"DIS_CODE":0,"TOWNNAME":"白河區","LI":"河東里","LIN":"3鄰","STREET":" ","SECT":" ","MAREA":"糞箕湖","LANE":" ","ALLEY":" ","HOUSE_NO":"４６之３號","E_COORD97":192181.32999999999,"N_COORD97":2582380.0899999999,"ADDRESS":"糞箕湖４６之３號","OBJECTID":197200},"geometry":{"x":192181.33000000101,"y":2582380.0900000017}}]}