{"displayFieldName":"TOWNNAME","fieldAliases":{"ID":"ID","DIS_CODE":"DIS_CODE","TOWNNAME":"TOWNNAME","LI":"LI","LIN":"LIN","STREET":"STREET","SECT":"SECT","MAREA":"MAREA","LANE":"LANE","ALLEY":"ALLEY","HOUSE_NO":"HOUSE_NO","E_COORD97":"E_COORD97","N_COORD97":"N_COORD97","ADDRESS":"ADDRESS","OBJECTID":"OBJECTID"},"geometryType":"esriGeometryPoint","spatialReference":{"wkid":102443,"latestWkid":3826},"fields":[{"name":"ID","type":"esriFieldTypeDouble","alias":"ID"},{"name":"DIS_CODE","type":"esriFieldTypeInteger","alias":"DIS_CODE"},{"name":"TOWNNAME","type":"esriFieldTypeString","alias":"TOWNNAME","length":8},{"name":"LI","type":"esriFieldTypeString","alias":"LI","length":8},{"name":"LIN","type":"esriFieldTypeString","alias":"LIN","length":12},{"name":"STREET","type":"esriFieldTypeString","alias":"STREET","length":20},{"name":"SECT","type":"esriFieldTypeString","alias":"SECT","length":8},{"name":"MAREA","type":"esriFieldTypeString","alias":"MAREA","length":12},{"name":"LANE","type":"esriFieldTypeString","alias":"LANE","length":10},{"name":"ALLEY","type":"esriFieldTypeString","alias":"ALLEY","length":10},{"name":"HOUSE_NO","type":"esriFieldTypeString","alias":"HOUSE_NO","length":20},{"name":"E_COORD97","type":"esriFieldTypeDouble","alias":"E_COORD97"},{"name":"N_COORD97","type":"esriFieldTypeDouble","alias":"N_COORD97"},{"name":"ADDRESS","type":"esriFieldTypeString","alias":"ADDRESS","length":50},{"name":"OBJECTID","type":"esriFieldTypeOID","alias":"OBJECTID"}],"features":[{"attributes":{"ID":163202,"DIS_CODE":0,"TOWNNAME":"安南區","LI":"顯宮里","LIN":"4鄰","STREET":"顯宮二街","SECT":" ","MAREA":" ","LANE":" ","ALLEY":" ","HOUSE_NO":"３９號","E_COORD97":160666.04999999999,"N_COORD97":2548906.1499999999,"ADDRESS":"顯宮二街３９號","OBJECTID":163201},"geometry":{"x":160666.05000000075,"y":2548906.1500000022}},{"attributes":{"ID":163203,"DIS_CODE":0,"TOWNNAME":"安南區","LI":"砂崙里","LIN":"6鄰","STREET":"青砂街","SECT":"一段","MAREA":" ","LANE":"５７２巷","ALLEY":"１１６弄","HOUSE_NO":"８６號","E_COORD97":160118.85000000001,"N_COORD97":2552920.54,"ADDRESS":"青砂街一段５７２巷１１６弄８６號","OBJECTID":163202},"geometry":{"x":160118.84999999963,"y":2552920.540000001}},{"attributes":{"ID":163204,"DIS_CODE":0,"TOWNNAME":"安南區","LI":"溪心里","LIN":"8鄰","STREET":"海佃路","SECT":"二段","MAREA":" ","LANE":"７６６巷","ALLEY":"１１弄","HOUSE_NO":"１１號","E_COORD97":166490.76999999999,"N_COORD97":2549636.2400000002,"ADDRESS":"海佃路二段７６６巷１１弄１１號","OBJECTID":163203},"geometry":{"x":166490.77000000048,"y":2549636.2400000002}},{"attributes":{"ID":163205,"DIS_CODE":0,"TOWNNAME":"安南區","LI":"溪心里","LIN":"8鄰","STREET":"海佃路","SECT":"二段","MAREA":" ","LANE":"７６６巷","ALLEY":"１１弄","HOUSE_NO":"１３號","E_COORD97":166488.01999999999,"N_COORD97":2549639.6800000002,"ADDRESS":"海佃路二段７６６巷１１弄１３號","OBJECTID":163204},"geometry":{"x":166488.01999999955,"y":2549639.6799999997}},{"attributes":{"ID":163206,"DIS_CODE":0,"TOWNNAME":"安南區","LI":"溪心里","LIN":"8鄰","STREET":"海佃路","SECT":"二段","MAREA":" ","LANE":"７６６巷","ALLEY":"１１弄","HOUSE_NO":"１５號","E_COORD97":166486.5,"N_COORD97":2549644.3599999999,"ADDRESS":"海佃路二段７６６巷１１弄１５號","OBJECTID":163205},"geometry":{"x":166486.50000000093,"y":2549644.3599999994}},{"attributes":{"ID":163207,"DIS_CODE":0,"TOWNNAME":"安南區","LI":"安東里","LIN":"13鄰","STREET":"安和路","SECT":"一段","MAREA":" ","LANE":"２２０巷","ALLEY":"５４弄","HOUSE_NO":"２３號","E_COORD97":169525.45999999999,"N_COORD97":2547950.8900000001,"ADDRESS":"安和路一段２２０巷５４弄２３號","OBJECTID":163206},"geometry":{"x":169525.45999999996,"y":2547950.8900000006}},{"attributes":{"ID":163208,"DIS_CODE":0,"TOWNNAME":"仁德區","LI":"保安里","LIN":"12鄰","STREET":"永德路","SECT":" ","MAREA":" ","LANE":" ","ALLEY":" ","HOUSE_NO":"３４號","E_COORD97":172533.03,"N_COORD97":2535654.52,"ADDRESS":"永德路３４號","OBJECTID":163207},"geometry":{"x":172533.03000000119,"y":2535654.5199999996}},{"attributes":{"ID":163209,"DIS_CODE":0,"TOWNNAME":"東山區","LI":"聖賢里","LIN":"18鄰","STREET":" ","SECT":" ","MAREA":"頂窩","LANE":" ","ALLEY":" ","HOUSE_NO":"４４號之１２","E_COORD97":183112.22,"N_COORD97":2578711.5299999998,"ADDRESS":"頂窩４４號之１２","OBJECTID":163208},"geometry":{"x":183112.2200000016,"y":2578711.5300000012}},{"attributes":{"ID":163210,"DIS_CODE":0,"TOWNNAME":"東山區","LI":"聖賢里","LIN":"18鄰","STREET":" ","SECT":" ","MAREA":"頂窩","LANE":" ","ALLEY":" ","HOUSE_NO":"４４號之１３","E_COORD97":183058.51999999999,"N_COORD97":2578749.5099999998,"ADDRESS":"頂窩４４號之１３","OBJECTID":163209},"geometry":{"x":183058.51999999955,"y":2578749.5100000016}},{"attributes":{"ID":163211,"DIS_CODE":0,"TOWNNAME":"東山區","LI":"聖賢里","LIN":"18鄰","STREET":" ","SECT":" ","MAREA":"頂窩","LANE":" ","ALLEY":" ","HOUSE_NO":"４４號之１","E_COORD97":183090.17000000001,"N_COORD97":2578668.6899999999,"ADDRESS":"頂窩４４號之１","OBJECTID":163210},"geometry":{"x":183090.16999999993,"y":2578668.6900000032}},{"attributes":{"ID":163212,"DIS_CODE":0,"TOWNNAME":"東山區","LI":"聖賢里","LIN":"18鄰","STREET":" ","SECT":" ","MAREA":"頂窩","LANE":" ","ALLEY":" ","HOUSE_NO":"４４號之２０","E_COORD97":183147.35999999999,"N_COORD97":2579059.5800000001,"ADDRESS":"頂窩４４號之２０","OBJECTID":163211},"geometry":{"x":183147.36000000034,"y":2579059.5800000001}},{"attributes":{"ID":163213,"DIS_CODE":0,"TOWNNAME":"東山區","LI":"聖賢里","LIN":"18鄰","STREET":" ","SECT":" ","MAREA":"頂窩","LANE":" ","ALLEY":" ","HOUSE_NO":"４４號之２","E_COORD97":183086.67999999999,"N_COORD97":2578680.5,"ADDRESS":"頂窩４４號之２","OBJECTID":163212},"geometry":{"x":183086.6799999997,"y":2578680.4999999981}},{"attributes":{"ID":163214,"DIS_CODE":0,"TOWNNAME":"東山區","LI":"聖賢里","LIN":"18鄰","STREET":" ","SECT":" ","MAREA":"頂窩","LANE":" ","ALLEY":" ","HOUSE_NO":"４４號之６","E_COORD97":183065.53,"N_COORD97":2578736.3300000001,"ADDRESS":"頂窩４４號之６","OBJECTID":163213},"geometry":{"x":183065.53000000119,"y":2578736.3300000038}},{"attributes":{"ID":163215,"DIS_CODE":0,"TOWNNAME":"東山區","LI":"聖賢里","LIN":"18鄰","STREET":" ","SECT":" ","MAREA":"頂窩","LANE":" ","ALLEY":" ","HOUSE_NO":"４４號之７","E_COORD97":183064.78,"N_COORD97":2578669.9300000002,"ADDRESS":"頂窩４４號之７","OBJECTID":163214},"geometry":{"x":183064.78000000026,"y":2578669.9299999997}},{"attributes":{"ID":163216,"DIS_CODE":0,"TOWNNAME":"東山區","LI":"聖賢里","LIN":"18鄰","STREET":" ","SECT":" ","MAREA":"頂窩","LANE":" ","ALLEY":" ","HOUSE_NO":"４４號之８","E_COORD97":183063.17000000001,"N_COORD97":2578675.48,"ADDRESS":"頂窩４４號之８","OBJECTID":163215},"geometry":{"x":183063.16999999993,"y":2578675.4800000023}},{"attributes":{"ID":163217,"DIS_CODE":0,"TOWNNAME":"東山區","LI":"聖賢里","LIN":"18鄰","STREET":" ","SECT":" ","MAREA":"頂窩","LANE":" ","ALLEY":" ","HOUSE_NO":"４４號之９","E_COORD97":183081.19,"N_COORD97":2578662.2799999998,"ADDRESS":"頂窩４４號之９","OBJECTID":163216},"geometry":{"x":183081.19000000134,"y":2578662.2800000012}},{"attributes":{"ID":163218,"DIS_CODE":0,"TOWNNAME":"安南區","LI":"安東里","LIN":"13鄰","STREET":"安和路","SECT":"一段","MAREA":" ","LANE":"２２０巷","ALLEY":"５４弄","HOUSE_NO":"３３號之１","E_COORD97":169549.78,"N_COORD97":2547947.3300000001,"ADDRESS":"安和路一段２２０巷５４弄３３號之１","OBJECTID":163217},"geometry":{"x":169549.78000000119,"y":2547947.3300000001}},{"attributes":{"ID":163219,"DIS_CODE":0,"TOWNNAME":"安南區","LI":"城南里","LIN":"4鄰","STREET":"城西街","SECT":"一段","MAREA":" ","LANE":"６１巷","ALLEY":"１３２弄","HOUSE_NO":"１０號","E_COORD97":160635.19,"N_COORD97":2551224.6099999999,"ADDRESS":"城西街一段６１巷１３２弄１０號","OBJECTID":163218},"geometry":{"x":160635.19000000134,"y":2551224.6100000013}},{"attributes":{"ID":163220,"DIS_CODE":0,"TOWNNAME":"安南區","LI":"城南里","LIN":"4鄰","STREET":"城西街","SECT":"一段","MAREA":" ","LANE":"６１巷","ALLEY":"１３２弄","HOUSE_NO":"１２號","E_COORD97":160632.95000000001,"N_COORD97":2551229.0800000001,"ADDRESS":"城西街一段６１巷１３２弄１２號","OBJECTID":163219},"geometry":{"x":160632.95000000205,"y":2551229.0800000019}},{"attributes":{"ID":163221,"DIS_CODE":0,"TOWNNAME":"安南區","LI":"城南里","LIN":"4鄰","STREET":"城西街","SECT":"一段","MAREA":" ","LANE":"６１巷","ALLEY":"１３２弄","HOUSE_NO":"１４號","E_COORD97":160631.20999999999,"N_COORD97":2551233.2999999998,"ADDRESS":"城西街一段６１巷１３２弄１４號","OBJECTID":163220},"geometry":{"x":160631.21000000089,"y":2551233.3000000007}},{"attributes":{"ID":163222,"DIS_CODE":0,"TOWNNAME":"安南區","LI":"城南里","LIN":"4鄰","STREET":"城西街","SECT":"一段","MAREA":" ","LANE":"６１巷","ALLEY":"１３２弄","HOUSE_NO":"１６號","E_COORD97":160629.97,"N_COORD97":2551237.77,"ADDRESS":"城西街一段６１巷１３２弄１６號","OBJECTID":163221},"geometry":{"x":160629.96999999974,"y":2551237.7700000014}},{"attributes":{"ID":163223,"DIS_CODE":0,"TOWNNAME":"安南區","LI":"城南里","LIN":"4鄰","STREET":"城西街","SECT":"一段","MAREA":" ","LANE":"６１巷","ALLEY":"１３２弄","HOUSE_NO":"１８號","E_COORD97":160625.5,"N_COORD97":2551240.0099999998,"ADDRESS":"城西街一段６１巷１３２弄１８號","OBJECTID":163222},"geometry":{"x":160625.49999999907,"y":2551240.0100000016}},{"attributes":{"ID":163224,"DIS_CODE":0,"TOWNNAME":"安南區","LI":"城南里","LIN":"4鄰","STREET":"城西街","SECT":"一段","MAREA":" ","LANE":"６１巷","ALLEY":"１３２弄","HOUSE_NO":"２０號","E_COORD97":160621.51999999999,"N_COORD97":2551243.48,"ADDRESS":"城西街一段６１巷１３２弄２０號","OBJECTID":163223},"geometry":{"x":160621.51999999862,"y":2551243.4800000023}},{"attributes":{"ID":163225,"DIS_CODE":0,"TOWNNAME":"安南區","LI":"城南里","LIN":"4鄰","STREET":"城西街","SECT":"一段","MAREA":" ","LANE":"６１巷","ALLEY":"１３２弄","HOUSE_NO":"２２號","E_COORD97":160620.03,"N_COORD97":2551246.71,"ADDRESS":"城西街一段６１巷１３２弄２２號","OBJECTID":163224},"geometry":{"x":160620.03000000026,"y":2551246.7100000028}},{"attributes":{"ID":163226,"DIS_CODE":0,"TOWNNAME":"安南區","LI":"城南里","LIN":"4鄰","STREET":"城西街","SECT":"一段","MAREA":" ","LANE":"６１巷","ALLEY":"１３２弄","HOUSE_NO":"２４號","E_COORD97":160616.54999999999,"N_COORD97":2551249.6899999999,"ADDRESS":"城西街一段６１巷１３２弄２４號","OBJECTID":163225},"geometry":{"x":160616.54999999888,"y":2551249.6899999995}},{"attributes":{"ID":163227,"DIS_CODE":0,"TOWNNAME":"安南區","LI":"城南里","LIN":"4鄰","STREET":"城西街","SECT":"一段","MAREA":" ","LANE":"６１巷","ALLEY":"１３２弄","HOUSE_NO":"２６號","E_COORD97":160613.31,"N_COORD97":2551253.9100000001,"ADDRESS":"城西街一段６１巷１３２弄２６號","OBJECTID":163226},"geometry":{"x":160613.31000000052,"y":2551253.910000002}},{"attributes":{"ID":163228,"DIS_CODE":0,"TOWNNAME":"安南區","LI":"城南里","LIN":"4鄰","STREET":"城西街","SECT":"一段","MAREA":" ","LANE":"６１巷","ALLEY":"１３２弄","HOUSE_NO":"８號","E_COORD97":160637.42999999999,"N_COORD97":2551221.1400000001,"ADDRESS":"城西街一段６１巷１３２弄８號","OBJECTID":163227},"geometry":{"x":160637.4299999997,"y":2551221.1400000006}},{"attributes":{"ID":163229,"DIS_CODE":0,"TOWNNAME":"安南區","LI":"溪心里","LIN":"7鄰","STREET":"本原街","SECT":"二段","MAREA":" ","LANE":"１０６巷","ALLEY":"２３弄","HOUSE_NO":"１０號","E_COORD97":166793.66,"N_COORD97":2550866.1400000001,"ADDRESS":"本原街二段１０６巷２３弄１０號","OBJECTID":163228},"geometry":{"x":166793.66000000108,"y":2550866.1400000025}},{"attributes":{"ID":163230,"DIS_CODE":0,"TOWNNAME":"安南區","LI":"幸福里","LIN":"13鄰","STREET":"府安路","SECT":"六段","MAREA":" ","LANE":"７１巷","ALLEY":"９弄","HOUSE_NO":"２６號","E_COORD97":166807.54999999999,"N_COORD97":2546687.2599999998,"ADDRESS":"府安路六段７１巷９弄２６號","OBJECTID":163229},"geometry":{"x":166807.55000000168,"y":2546687.2600000035}},{"attributes":{"ID":163231,"DIS_CODE":0,"TOWNNAME":"安南區","LI":"幸福里","LIN":"13鄰","STREET":"府安路","SECT":"六段","MAREA":" ","LANE":"７１巷","ALLEY":"９弄","HOUSE_NO":"２８號","E_COORD97":166806.79000000001,"N_COORD97":2546692.1000000001,"ADDRESS":"府安路六段７１巷９弄２８號","OBJECTID":163230},"geometry":{"x":166806.79000000097,"y":2546692.1000000015}},{"attributes":{"ID":163232,"DIS_CODE":0,"TOWNNAME":"安南區","LI":"城東里","LIN":"4鄰","STREET":"城北路","SECT":" ","MAREA":" ","LANE":"１７２巷","ALLEY":"３５弄","HOUSE_NO":"２５號","E_COORD97":161070.78,"N_COORD97":2551817.5899999999,"ADDRESS":"城北路１７２巷３５弄２５號","OBJECTID":163231},"geometry":{"x":161070.78000000026,"y":2551817.5899999999}},{"attributes":{"ID":163233,"DIS_CODE":0,"TOWNNAME":"安南區","LI":"淵東里","LIN":"1鄰","STREET":"本原街","SECT":"三段","MAREA":" ","LANE":"１３４巷","ALLEY":"２０弄","HOUSE_NO":"２７號","E_COORD97":165614.64000000001,"N_COORD97":2550513.8999999999,"ADDRESS":"本原街三段１３４巷２０弄２７號","OBJECTID":163232},"geometry":{"x":165614.63999999966,"y":2550513.9000000004}},{"attributes":{"ID":163234,"DIS_CODE":0,"TOWNNAME":"東區","LI":"崇德里","LIN":"6鄰","STREET":"崇德五街","SECT":" ","MAREA":" ","LANE":"２巷","ALLEY":"１１弄","HOUSE_NO":"１１號","E_COORD97":170689.76999999999,"N_COORD97":2541794.6299999999,"ADDRESS":"崇德五街２巷１１弄１１號","OBJECTID":163233},"geometry":{"x":170689.77000000048,"y":2541794.6299999971}},{"attributes":{"ID":163235,"DIS_CODE":0,"TOWNNAME":"東區","LI":"富強里","LIN":"26鄰","STREET":"東門路","SECT":"二段","MAREA":" ","LANE":"３０１巷","ALLEY":"１２０弄","HOUSE_NO":"９號","E_COORD97":171047.79999999999,"N_COORD97":2542708.9100000001,"ADDRESS":"東門路二段３０１巷１２０弄９號","OBJECTID":163234},"geometry":{"x":171047.80000000075,"y":2542708.9100000001}},{"attributes":{"ID":163236,"DIS_CODE":0,"TOWNNAME":"東區","LI":"泉南里","LIN":"31鄰","STREET":"府連路","SECT":" ","MAREA":" ","LANE":"３４４巷","ALLEY":"１弄","HOUSE_NO":"２號","E_COORD97":169635.59,"N_COORD97":2542765.02,"ADDRESS":"府連路３４４巷１弄２號","OBJECTID":163235},"geometry":{"x":169635.59000000078,"y":2542765.0199999996}},{"attributes":{"ID":163237,"DIS_CODE":0,"TOWNNAME":"東區","LI":"泉南里","LIN":"31鄰","STREET":"府連路","SECT":" ","MAREA":" ","LANE":"３４４巷","ALLEY":"１弄","HOUSE_NO":"４號","E_COORD97":169636.51000000001,"N_COORD97":2542760.4100000001,"ADDRESS":"府連路３４４巷１弄４號","OBJECTID":163236},"geometry":{"x":169636.50999999978,"y":2542760.4100000039}},{"attributes":{"ID":163238,"DIS_CODE":0,"TOWNNAME":"東區","LI":"泉南里","LIN":"31鄰","STREET":"府連路","SECT":" ","MAREA":" ","LANE":"３４４巷","ALLEY":"１弄","HOUSE_NO":"６號","E_COORD97":169636.51000000001,"N_COORD97":2542756.1800000002,"ADDRESS":"府連路３４４巷１弄６號","OBJECTID":163237},"geometry":{"x":169636.50999999978,"y":2542756.1800000016}},{"attributes":{"ID":163239,"DIS_CODE":0,"TOWNNAME":"東區","LI":"泉南里","LIN":"31鄰","STREET":"府連路","SECT":" ","MAREA":" ","LANE":"３４４巷","ALLEY":"１弄","HOUSE_NO":"８號","E_COORD97":169636.14999999999,"N_COORD97":2542751.7599999998,"ADDRESS":"府連路３４４巷１弄８號","OBJECTID":163238},"geometry":{"x":169636.15000000037,"y":2542751.7600000016}},{"attributes":{"ID":163240,"DIS_CODE":0,"TOWNNAME":"永康區","LI":"埔園里","LIN":"16鄰","STREET":"八德街","SECT":" ","MAREA":" ","LANE":" ","ALLEY":" ","HOUSE_NO":"３９０號","E_COORD97":173449.07999999999,"N_COORD97":2548562.6499999999,"ADDRESS":"八德街３９０號","OBJECTID":163239},"geometry":{"x":173449.08000000007,"y":2548562.6500000004}},{"attributes":{"ID":163241,"DIS_CODE":0,"TOWNNAME":"善化區","LI":"光文里","LIN":"12鄰","STREET":"民生路","SECT":" ","MAREA":" ","LANE":" ","ALLEY":" ","HOUSE_NO":"９０號","E_COORD97":178710.76999999999,"N_COORD97":2559012.3500000001,"ADDRESS":"民生路９０號","OBJECTID":163240},"geometry":{"x":178710.76999999955,"y":2559012.3499999996}},{"attributes":{"ID":163242,"DIS_CODE":0,"TOWNNAME":"東區","LI":"泉南里","LIN":"31鄰","STREET":"府連路","SECT":" ","MAREA":" ","LANE":"３４４巷","ALLEY":"１弄","HOUSE_NO":"１０號","E_COORD97":169636.14999999999,"N_COORD97":2542746.6000000001,"ADDRESS":"府連路３４４巷１弄１０號","OBJECTID":163241},"geometry":{"x":169636.15000000037,"y":2542746.6000000015}},{"attributes":{"ID":163243,"DIS_CODE":0,"TOWNNAME":"東區","LI":"泉南里","LIN":"31鄰","STREET":"府連路","SECT":" ","MAREA":" ","LANE":"３４４巷","ALLEY":"１弄","HOUSE_NO":"１２號","E_COORD97":169635.04000000001,"N_COORD97":2542742.9199999999,"ADDRESS":"府連路３４４巷１弄１２號","OBJECTID":163242},"geometry":{"x":169635.04000000004,"y":2542742.9199999981}},{"attributes":{"ID":163244,"DIS_CODE":0,"TOWNNAME":"善化區","LI":"西關里","LIN":"12鄰","STREET":"復興街","SECT":" ","MAREA":" ","LANE":" ","ALLEY":" ","HOUSE_NO":"７８號","E_COORD97":176848.45999999999,"N_COORD97":2559027.8300000001,"ADDRESS":"復興街７８號","OBJECTID":163243},"geometry":{"x":176848.45999999996,"y":2559027.8300000038}},{"attributes":{"ID":163245,"DIS_CODE":0,"TOWNNAME":"善化區","LI":"嘉北里","LIN":"12鄰","STREET":" ","SECT":" ","MAREA":"茄拔","LANE":" ","ALLEY":" ","HOUSE_NO":"２７１號之１２","E_COORD97":180799.82999999999,"N_COORD97":2559863.1600000001,"ADDRESS":"茄拔２７１號之１２","OBJECTID":163244},"geometry":{"x":180799.83000000101,"y":2559863.1600000039}},{"attributes":{"ID":163246,"DIS_CODE":0,"TOWNNAME":"東山區","LI":"聖賢里","LIN":"18鄰","STREET":" ","SECT":" ","MAREA":"頂窩","LANE":" ","ALLEY":" ","HOUSE_NO":"６５號","E_COORD97":182454.32000000001,"N_COORD97":2578410.8199999998,"ADDRESS":"頂窩６５號","OBJECTID":163245},"geometry":{"x":182454.31999999937,"y":2578410.8199999984}},{"attributes":{"ID":163247,"DIS_CODE":0,"TOWNNAME":"東區","LI":"泉南里","LIN":"31鄰","STREET":"府連路","SECT":" ","MAREA":" ","LANE":"３４４巷","ALLEY":"１弄","HOUSE_NO":"１４號","E_COORD97":169635.95999999999,"N_COORD97":2542737.9500000002,"ADDRESS":"府連路３４４巷１弄１４號","OBJECTID":163246},"geometry":{"x":169635.96000000089,"y":2542737.9499999993}},{"attributes":{"ID":163248,"DIS_CODE":0,"TOWNNAME":"東區","LI":"泉南里","LIN":"31鄰","STREET":"府連路","SECT":" ","MAREA":" ","LANE":"３４４巷","ALLEY":"１弄","HOUSE_NO":"１６號","E_COORD97":169634.67000000001,"N_COORD97":2542733.71,"ADDRESS":"府連路３４４巷１弄１６號","OBJECTID":163247},"geometry":{"x":169634.67000000086,"y":2542733.7100000028}},{"attributes":{"ID":163249,"DIS_CODE":0,"TOWNNAME":"東區","LI":"泉南里","LIN":"31鄰","STREET":"府連路","SECT":" ","MAREA":" ","LANE":"３４４巷","ALLEY":"１弄","HOUSE_NO":"１８號","E_COORD97":169633.75,"N_COORD97":2542729.1099999999,"ADDRESS":"府連路３４４巷１弄１８號","OBJECTID":163248},"geometry":{"x":169633.74999999907,"y":2542729.1100000013}},{"attributes":{"ID":163250,"DIS_CODE":0,"TOWNNAME":"佳里區","LI":"營頂里","LIN":"10鄰","STREET":" ","SECT":" ","MAREA":"營頂","LANE":" ","ALLEY":" ","HOUSE_NO":"１０５號","E_COORD97":167324.32999999999,"N_COORD97":2566915.6800000002,"ADDRESS":"營頂１０５號","OBJECTID":163249},"geometry":{"x":167324.33000000007,"y":2566915.6800000016}},{"attributes":{"ID":163251,"DIS_CODE":0,"TOWNNAME":"東區","LI":"泉南里","LIN":"31鄰","STREET":"府連路","SECT":" ","MAREA":" ","LANE":"３４４巷","ALLEY":"１弄","HOUSE_NO":"２０號","E_COORD97":169634.67000000001,"N_COORD97":2542724.8799999999,"ADDRESS":"府連路３４４巷１弄２０號","OBJECTID":163250},"geometry":{"x":169634.67000000086,"y":2542724.879999999}},{"attributes":{"ID":163252,"DIS_CODE":0,"TOWNNAME":"東區","LI":"東光里","LIN":"25鄰","STREET":"東安路","SECT":" ","MAREA":" ","LANE":"１７６巷","ALLEY":"１弄","HOUSE_NO":"１２號","E_COORD97":170826.32999999999,"N_COORD97":2543948.3999999999,"ADDRESS":"東安路１７６巷１弄１２號","OBJECTID":163251},"geometry":{"x":170826.33000000007,"y":2543948.4000000022}},{"attributes":{"ID":163253,"DIS_CODE":0,"TOWNNAME":"東區","LI":"東光里","LIN":"25鄰","STREET":"東安路","SECT":" ","MAREA":" ","LANE":"１７６巷","ALLEY":"１弄","HOUSE_NO":"１３號","E_COORD97":170834.88,"N_COORD97":2543969.1499999999,"ADDRESS":"東安路１７６巷１弄１３號","OBJECTID":163252},"geometry":{"x":170834.88000000175,"y":2543969.1499999985}},{"attributes":{"ID":163254,"DIS_CODE":0,"TOWNNAME":"東區","LI":"東光里","LIN":"25鄰","STREET":"東安路","SECT":" ","MAREA":" ","LANE":"１７６巷","ALLEY":"１弄","HOUSE_NO":"１４號","E_COORD97":170834.23000000001,"N_COORD97":2543948.6200000001,"ADDRESS":"東安路１７６巷１弄１４號","OBJECTID":163253},"geometry":{"x":170834.23000000045,"y":2543948.620000001}},{"attributes":{"ID":163255,"DIS_CODE":0,"TOWNNAME":"東區","LI":"東光里","LIN":"25鄰","STREET":"東安路","SECT":" ","MAREA":" ","LANE":"１７６巷","ALLEY":"１弄","HOUSE_NO":"１５號","E_COORD97":170841.66,"N_COORD97":2543968.77,"ADDRESS":"東安路１７６巷１弄１５號","OBJECTID":163254},"geometry":{"x":170841.66000000201,"y":2543968.7700000014}},{"attributes":{"ID":163256,"DIS_CODE":0,"TOWNNAME":"東區","LI":"東明里","LIN":"25鄰","STREET":"東安路","SECT":" ","MAREA":" ","LANE":"３０巷","ALLEY":"１０弄","HOUSE_NO":"２２號","E_COORD97":170748.32999999999,"N_COORD97":2543500.0299999998,"ADDRESS":"東安路３０巷１０弄２２號","OBJECTID":163255},"geometry":{"x":170748.33000000007,"y":2543500.0299999993}},{"attributes":{"ID":163257,"DIS_CODE":0,"TOWNNAME":"東區","LI":"富強里","LIN":"26鄰","STREET":"中華東路","SECT":"二段","MAREA":" ","LANE":"２２６巷","ALLEY":"２７弄","HOUSE_NO":"３６號","E_COORD97":171071.78,"N_COORD97":2542724.1899999999,"ADDRESS":"中華東路二段２２６巷２７弄３６號","OBJECTID":163256},"geometry":{"x":171071.78000000119,"y":2542724.1900000013}},{"attributes":{"ID":163258,"DIS_CODE":0,"TOWNNAME":"新市區","LI":"新和里","LIN":"46鄰","STREET":"和平街","SECT":" ","MAREA":" ","LANE":"２０８巷","ALLEY":"１３弄","HOUSE_NO":"７號","E_COORD97":177332.82000000001,"N_COORD97":2553269,"ADDRESS":"和平街２０８巷１３弄７號","OBJECTID":163257},"geometry":{"x":177332.8200000003,"y":2553269}},{"attributes":{"ID":163259,"DIS_CODE":0,"TOWNNAME":"新市區","LI":"新和里","LIN":"26鄰","STREET":"永福街","SECT":" ","MAREA":" ","LANE":"１６巷","ALLEY":"１８弄","HOUSE_NO":"１３號","E_COORD97":177842.03,"N_COORD97":2552724.25,"ADDRESS":"永福街１６巷１８弄１３號","OBJECTID":163258},"geometry":{"x":177842.03000000212,"y":2552724.25}},{"attributes":{"ID":163260,"DIS_CODE":0,"TOWNNAME":"新市區","LI":"新和里","LIN":"26鄰","STREET":"永福街","SECT":" ","MAREA":" ","LANE":"１６巷","ALLEY":"１８弄","HOUSE_NO":"８號","E_COORD97":177823.26000000001,"N_COORD97":2552712.25,"ADDRESS":"永福街１６巷１８弄８號","OBJECTID":163259},"geometry":{"x":177823.26000000071,"y":2552712.2500000037}},{"attributes":{"ID":163261,"DIS_CODE":0,"TOWNNAME":"新市區","LI":"新和里","LIN":"41鄰","STREET":"信義街","SECT":" ","MAREA":" ","LANE":"２５巷","ALLEY":"１１弄","HOUSE_NO":"８號","E_COORD97":177168.57000000001,"N_COORD97":2552776.27,"ADDRESS":"信義街２５巷１１弄８號","OBJECTID":163260},"geometry":{"x":177168.5700000003,"y":2552776.2700000014}},{"attributes":{"ID":163262,"DIS_CODE":0,"TOWNNAME":"新市區","LI":"新市里","LIN":"26鄰","STREET":"復興路","SECT":" ","MAREA":" ","LANE":"６巷","ALLEY":"１９弄","HOUSE_NO":"１２之３號","E_COORD97":177916.34,"N_COORD97":2553412.7999999998,"ADDRESS":"復興路６巷１９弄１２之３號","OBJECTID":163261},"geometry":{"x":177916.34000000078,"y":2553412.8000000007}},{"attributes":{"ID":163263,"DIS_CODE":0,"TOWNNAME":"新市區","LI":"新市里","LIN":"13鄰","STREET":"中正路","SECT":" ","MAREA":" ","LANE":"３０１巷","ALLEY":"１５弄","HOUSE_NO":"１２號","E_COORD97":177534.76000000001,"N_COORD97":2553312.5,"ADDRESS":"中正路３０１巷１５弄１２號","OBJECTID":163262},"geometry":{"x":177534.75999999885,"y":2553312.5}},{"attributes":{"ID":163264,"DIS_CODE":0,"TOWNNAME":"新市區","LI":"新市里","LIN":"13鄰","STREET":"中正路","SECT":" ","MAREA":" ","LANE":"３０１巷","ALLEY":"１５弄","HOUSE_NO":"８號","E_COORD97":177550.45000000001,"N_COORD97":2553289.5,"ADDRESS":"中正路３０１巷１５弄８號","OBJECTID":163263},"geometry":{"x":177550.45000000019,"y":2553289.5}},{"attributes":{"ID":163265,"DIS_CODE":0,"TOWNNAME":"仁德區","LI":"成功里","LIN":"18鄰","STREET":"全福路","SECT":" ","MAREA":" ","LANE":"７５巷","ALLEY":"１４弄","HOUSE_NO":"６號","E_COORD97":171065.39999999999,"N_COORD97":2539339.4900000002,"ADDRESS":"全福路７５巷１４弄６號","OBJECTID":163264},"geometry":{"x":171065.40000000037,"y":2539339.4900000021}},{"attributes":{"ID":163266,"DIS_CODE":0,"TOWNNAME":"善化區","LI":"溪美里","LIN":"12鄰","STREET":" ","SECT":" ","MAREA":"溪尾","LANE":" ","ALLEY":" ","HOUSE_NO":"１１４之７號","E_COORD97":176743.67999999999,"N_COORD97":2561533.27,"ADDRESS":"溪尾１１４之７號","OBJECTID":163265},"geometry":{"x":176743.68000000156,"y":2561533.2700000033}},{"attributes":{"ID":163267,"DIS_CODE":0,"TOWNNAME":"善化區","LI":"胡厝里","LIN":"12鄰","STREET":" ","SECT":" ","MAREA":"百二甲","LANE":" ","ALLEY":" ","HOUSE_NO":"２２之９號","E_COORD97":175151.64000000001,"N_COORD97":2559819.27,"ADDRESS":"百二甲２２之９號","OBJECTID":163266},"geometry":{"x":175151.63999999966,"y":2559819.2700000014}},{"attributes":{"ID":163268,"DIS_CODE":0,"TOWNNAME":"善化區","LI":"溪美里","LIN":"12鄰","STREET":" ","SECT":" ","MAREA":"溪尾","LANE":" ","ALLEY":" ","HOUSE_NO":"１１３之３０號","E_COORD97":175333.98000000001,"N_COORD97":2562601.52,"ADDRESS":"溪尾１１３之３０號","OBJECTID":163267},"geometry":{"x":175333.98000000138,"y":2562601.5199999996}},{"attributes":{"ID":163269,"DIS_CODE":0,"TOWNNAME":"善化區","LI":"嘉南里","LIN":"12鄰","STREET":" ","SECT":" ","MAREA":"茄拔","LANE":" ","ALLEY":" ","HOUSE_NO":"３５０號之５","E_COORD97":180566.28,"N_COORD97":2559637.77,"ADDRESS":"茄拔３５０號之５","OBJECTID":163268},"geometry":{"x":180566.28000000212,"y":2559637.7699999977}},{"attributes":{"ID":163270,"DIS_CODE":0,"TOWNNAME":"善化區","LI":"嘉南里","LIN":"12鄰","STREET":" ","SECT":" ","MAREA":"茄拔","LANE":" ","ALLEY":" ","HOUSE_NO":"３５０號之４","E_COORD97":180544.14000000001,"N_COORD97":2559650.02,"ADDRESS":"茄拔３５０號之４","OBJECTID":163269},"geometry":{"x":180544.13999999966,"y":2559650.0200000033}},{"attributes":{"ID":163271,"DIS_CODE":0,"TOWNNAME":"善化區","LI":"六德里","LIN":"12鄰","STREET":" ","SECT":" ","MAREA":"六分寮","LANE":" ","ALLEY":" ","HOUSE_NO":"２９７之１２號","E_COORD97":178387.29999999999,"N_COORD97":2561546.3199999998,"ADDRESS":"六分寮２９７之１２號","OBJECTID":163270},"geometry":{"x":178387.30000000168,"y":2561546.3200000003}},{"attributes":{"ID":163272,"DIS_CODE":0,"TOWNNAME":"善化區","LI":"嘉北里","LIN":"12鄰","STREET":" ","SECT":" ","MAREA":"茄拔","LANE":" ","ALLEY":" ","HOUSE_NO":"２７１號之１","E_COORD97":180811.60000000001,"N_COORD97":2559873.5099999998,"ADDRESS":"茄拔２７１號之１","OBJECTID":163271},"geometry":{"x":180811.60000000056,"y":2559873.5099999998}},{"attributes":{"ID":163273,"DIS_CODE":0,"TOWNNAME":"善化區","LI":"嘉北里","LIN":"12鄰","STREET":" ","SECT":" ","MAREA":"茄拔","LANE":" ","ALLEY":" ","HOUSE_NO":"２７１號之２","E_COORD97":180804.75,"N_COORD97":2559873.4199999999,"ADDRESS":"茄拔２７１號之２","OBJECTID":163272},"geometry":{"x":180804.75,"y":2559873.4199999999}},{"attributes":{"ID":163274,"DIS_CODE":0,"TOWNNAME":"善化區","LI":"嘉北里","LIN":"12鄰","STREET":" ","SECT":" ","MAREA":"茄拔","LANE":" ","ALLEY":" ","HOUSE_NO":"２７１號之３","E_COORD97":180798.76999999999,"N_COORD97":2559873.2599999998,"ADDRESS":"茄拔２７１號之３","OBJECTID":163273},"geometry":{"x":180798.76999999955,"y":2559873.2600000016}},{"attributes":{"ID":163275,"DIS_CODE":0,"TOWNNAME":"善化區","LI":"嘉北里","LIN":"12鄰","STREET":" ","SECT":" ","MAREA":"茄拔","LANE":" ","ALLEY":" ","HOUSE_NO":"２９０號之７","E_COORD97":180927.64999999999,"N_COORD97":2559800.2799999998,"ADDRESS":"茄拔２９０號之７","OBJECTID":163274},"geometry":{"x":180927.65000000037,"y":2559800.2799999975}},{"attributes":{"ID":163276,"DIS_CODE":0,"TOWNNAME":"善化區","LI":"嘉北里","LIN":"12鄰","STREET":" ","SECT":" ","MAREA":"茄拔","LANE":" ","ALLEY":" ","HOUSE_NO":"２９０號之１１","E_COORD97":180944.51000000001,"N_COORD97":2559801.4900000002,"ADDRESS":"茄拔２９０號之１１","OBJECTID":163275},"geometry":{"x":180944.51000000071,"y":2559801.4900000021}},{"attributes":{"ID":163277,"DIS_CODE":0,"TOWNNAME":"東山區","LI":"聖賢里","LIN":"18鄰","STREET":" ","SECT":" ","MAREA":"頂窩","LANE":" ","ALLEY":" ","HOUSE_NO":"６６號","E_COORD97":182668.89999999999,"N_COORD97":2578475.3799999999,"ADDRESS":"頂窩６６號","OBJECTID":163276},"geometry":{"x":182668.90000000037,"y":2578475.379999999}},{"attributes":{"ID":163278,"DIS_CODE":0,"TOWNNAME":"新市區","LI":"豐華里","LIN":"18鄰","STREET":" ","SECT":" ","MAREA":"豐華","LANE":" ","ALLEY":" ","HOUSE_NO":"２７之１３號","E_COORD97":173785.67999999999,"N_COORD97":2554062.46,"ADDRESS":"豐華２７之１３號","OBJECTID":163277},"geometry":{"x":173785.68000000156,"y":2554062.4600000028}},{"attributes":{"ID":163279,"DIS_CODE":0,"TOWNNAME":"新市區","LI":"豐華里","LIN":"18鄰","STREET":" ","SECT":" ","MAREA":"豐華","LANE":" ","ALLEY":" ","HOUSE_NO":"２７之１５號","E_COORD97":173789.87,"N_COORD97":2554062.7000000002,"ADDRESS":"豐華２７之１５號","OBJECTID":163278},"geometry":{"x":173789.87000000197,"y":2554062.7000000011}},{"attributes":{"ID":163280,"DIS_CODE":0,"TOWNNAME":"新市區","LI":"豐華里","LIN":"18鄰","STREET":" ","SECT":" ","MAREA":"豐華","LANE":" ","ALLEY":" ","HOUSE_NO":"２７之１６號","E_COORD97":173794.26000000001,"N_COORD97":2554063.4300000002,"ADDRESS":"豐華２７之１６號","OBJECTID":163279},"geometry":{"x":173794.26000000071,"y":2554063.4300000034}},{"attributes":{"ID":163281,"DIS_CODE":0,"TOWNNAME":"新市區","LI":"豐華里","LIN":"18鄰","STREET":" ","SECT":" ","MAREA":"豐華","LANE":" ","ALLEY":" ","HOUSE_NO":"２７之１７號","E_COORD97":173802.32999999999,"N_COORD97":2554063.9300000002,"ADDRESS":"豐華２７之１７號","OBJECTID":163280},"geometry":{"x":173802.33000000101,"y":2554063.9300000016}},{"attributes":{"ID":163282,"DIS_CODE":0,"TOWNNAME":"新市區","LI":"豐華里","LIN":"18鄰","STREET":" ","SECT":" ","MAREA":"豐華","LANE":" ","ALLEY":" ","HOUSE_NO":"２７之１８號","E_COORD97":173803,"N_COORD97":2554059.02,"ADDRESS":"豐華２７之１８號","OBJECTID":163281},"geometry":{"x":173803.00000000093,"y":2554059.0199999977}},{"attributes":{"ID":163283,"DIS_CODE":0,"TOWNNAME":"新市區","LI":"豐華里","LIN":"18鄰","STREET":" ","SECT":" ","MAREA":"豐華","LANE":" ","ALLEY":" ","HOUSE_NO":"２７之９號","E_COORD97":173794.85000000001,"N_COORD97":2554068.1000000001,"ADDRESS":"豐華２７之９號","OBJECTID":163282},"geometry":{"x":173794.85000000056,"y":2554068.0999999996}},{"attributes":{"ID":163284,"DIS_CODE":0,"TOWNNAME":"新市區","LI":"豐華里","LIN":"18鄰","STREET":" ","SECT":" ","MAREA":"豐華","LANE":" ","ALLEY":" ","HOUSE_NO":"２７之８號","E_COORD97":173790.73000000001,"N_COORD97":2554067.1099999999,"ADDRESS":"豐華２７之８號","OBJECTID":163283},"geometry":{"x":173790.73000000045,"y":2554067.1099999994}},{"attributes":{"ID":163285,"DIS_CODE":0,"TOWNNAME":"新市區","LI":"豐華里","LIN":"18鄰","STREET":" ","SECT":" ","MAREA":"豐華","LANE":" ","ALLEY":" ","HOUSE_NO":"２７之９號","E_COORD97":173786.37,"N_COORD97":2554066.4300000002,"ADDRESS":"豐華２７之９號","OBJECTID":163284},"geometry":{"x":173786.37000000197,"y":2554066.4299999997}},{"attributes":{"ID":163286,"DIS_CODE":0,"TOWNNAME":"新市區","LI":"豐華里","LIN":"18鄰","STREET":" ","SECT":" ","MAREA":"豐華","LANE":" ","ALLEY":" ","HOUSE_NO":"２８之１０號","E_COORD97":173754.39999999999,"N_COORD97":2554049.29,"ADDRESS":"豐華２８之１０號","OBJECTID":163285},"geometry":{"x":173754.4000000013,"y":2554049.2899999991}},{"attributes":{"ID":163287,"DIS_CODE":0,"TOWNNAME":"新市區","LI":"豐華里","LIN":"18鄰","STREET":" ","SECT":" ","MAREA":"豐華","LANE":" ","ALLEY":" ","HOUSE_NO":"２８之１１號","E_COORD97":173755.73000000001,"N_COORD97":2554044.21,"ADDRESS":"豐華２８之１１號","OBJECTID":163286},"geometry":{"x":173755.73000000138,"y":2554044.2100000009}},{"attributes":{"ID":163288,"DIS_CODE":0,"TOWNNAME":"新市區","LI":"豐華里","LIN":"18鄰","STREET":" ","SECT":" ","MAREA":"豐華","LANE":" ","ALLEY":" ","HOUSE_NO":"２８之１２號","E_COORD97":173756.42999999999,"N_COORD97":2554039.4900000002,"ADDRESS":"豐華２８之１２號","OBJECTID":163287},"geometry":{"x":173756.4299999997,"y":2554039.4899999984}},{"attributes":{"ID":163289,"DIS_CODE":0,"TOWNNAME":"新市區","LI":"豐華里","LIN":"18鄰","STREET":" ","SECT":" ","MAREA":"豐華","LANE":" ","ALLEY":" ","HOUSE_NO":"２８之１號","E_COORD97":173745.91,"N_COORD97":2554091.8199999998,"ADDRESS":"豐華２８之１號","OBJECTID":163288},"geometry":{"x":173745.91000000108,"y":2554091.820000004}},{"attributes":{"ID":163290,"DIS_CODE":0,"TOWNNAME":"新市區","LI":"豐華里","LIN":"18鄰","STREET":" ","SECT":" ","MAREA":"豐華","LANE":" ","ALLEY":" ","HOUSE_NO":"２８之３號","E_COORD97":173746.84,"N_COORD97":2554086.9399999999,"ADDRESS":"豐華２８之３號","OBJECTID":163289},"geometry":{"x":173746.83999999985,"y":2554086.9400000032}},{"attributes":{"ID":163291,"DIS_CODE":0,"TOWNNAME":"新市區","LI":"豐華里","LIN":"18鄰","STREET":" ","SECT":" ","MAREA":"豐華","LANE":" ","ALLEY":" ","HOUSE_NO":"２８之５號","E_COORD97":173747.76000000001,"N_COORD97":2554082.3199999998,"ADDRESS":"豐華２８之５號","OBJECTID":163290},"geometry":{"x":173747.76000000164,"y":2554082.3200000022}},{"attributes":{"ID":163292,"DIS_CODE":0,"TOWNNAME":"新市區","LI":"豐華里","LIN":"18鄰","STREET":" ","SECT":" ","MAREA":"豐華","LANE":" ","ALLEY":" ","HOUSE_NO":"２８之７號","E_COORD97":173751.29999999999,"N_COORD97":2554063.1200000001,"ADDRESS":"豐華２８之７號","OBJECTID":163291},"geometry":{"x":173751.30000000075,"y":2554063.120000001}},{"attributes":{"ID":163293,"DIS_CODE":0,"TOWNNAME":"仁德區","LI":"仁德里","LIN":"43鄰","STREET":"中山路","SECT":" ","MAREA":" ","LANE":"９１０巷","ALLEY":"１１弄","HOUSE_NO":"１６號","E_COORD97":171972.45999999999,"N_COORD97":2541762.5,"ADDRESS":"中山路９１０巷１１弄１６號","OBJECTID":163292},"geometry":{"x":171972.46000000089,"y":2541762.5}},{"attributes":{"ID":163294,"DIS_CODE":0,"TOWNNAME":"仁德區","LI":"仁德里","LIN":"26鄰","STREET":"淨修街","SECT":" ","MAREA":" ","LANE":"１７５巷","ALLEY":"３０弄","HOUSE_NO":"２０號","E_COORD97":171978.17000000001,"N_COORD97":2541191.9300000002,"ADDRESS":"淨修街１７５巷３０弄２０號","OBJECTID":163293},"geometry":{"x":171978.16999999993,"y":2541191.9299999997}},{"attributes":{"ID":163295,"DIS_CODE":0,"TOWNNAME":"仁德區","LI":"新田里","LIN":"4鄰","STREET":"勝利路","SECT":" ","MAREA":" ","LANE":"１３２巷","ALLEY":"１０弄","HOUSE_NO":"９號","E_COORD97":174295.73999999999,"N_COORD97":2539498.1600000001,"ADDRESS":"勝利路１３２巷１０弄９號","OBJECTID":163294},"geometry":{"x":174295.74000000022,"y":2539498.160000002}},{"attributes":{"ID":163296,"DIS_CODE":0,"TOWNNAME":"仁德區","LI":"成功里","LIN":"18鄰","STREET":"全福路","SECT":" ","MAREA":" ","LANE":"７５巷","ALLEY":"１４弄","HOUSE_NO":"２號","E_COORD97":171056.38,"N_COORD97":2539339.9900000002,"ADDRESS":"全福路７５巷１４弄２號","OBJECTID":163295},"geometry":{"x":171056.37999999989,"y":2539339.9900000021}},{"attributes":{"ID":163297,"DIS_CODE":0,"TOWNNAME":"仁德區","LI":"仁德里","LIN":"18鄰","STREET":"文華路","SECT":"三段","MAREA":" ","LANE":"１８９巷","ALLEY":"９２弄","HOUSE_NO":"２８號","E_COORD97":172108.87,"N_COORD97":2540539.54,"ADDRESS":"文華路三段１８９巷９２弄２８號","OBJECTID":163296},"geometry":{"x":172108.87000000104,"y":2540539.5399999991}},{"attributes":{"ID":163298,"DIS_CODE":0,"TOWNNAME":"仁德區","LI":"成功里","LIN":"4鄰","STREET":"成功三街","SECT":" ","MAREA":" ","LANE":"８６巷","ALLEY":"１弄","HOUSE_NO":"８號","E_COORD97":171150.82999999999,"N_COORD97":2539807.71,"ADDRESS":"成功三街８６巷１弄８號","OBJECTID":163297},"geometry":{"x":171150.83000000101,"y":2539807.7100000028}},{"attributes":{"ID":163299,"DIS_CODE":0,"TOWNNAME":"仁德區","LI":"仁德里","LIN":"26鄰","STREET":"淨修街","SECT":" ","MAREA":" ","LANE":"１７５巷","ALLEY":"３０弄","HOUSE_NO":"６號","E_COORD97":171975.56,"N_COORD97":2541226.9399999999,"ADDRESS":"淨修街１７５巷３０弄６號","OBJECTID":163298},"geometry":{"x":171975.55999999959,"y":2541226.9400000032}},{"attributes":{"ID":163300,"DIS_CODE":0,"TOWNNAME":"仁德區","LI":"仁德里","LIN":"18鄰","STREET":"文華路","SECT":"三段","MAREA":" ","LANE":"１８９巷","ALLEY":"２７弄","HOUSE_NO":"５６號","E_COORD97":172080.88,"N_COORD97":2540334.7400000002,"ADDRESS":"文華路三段１８９巷２７弄５６號","OBJECTID":163299},"geometry":{"x":172080.88000000082,"y":2540334.7400000021}},{"attributes":{"ID":163301,"DIS_CODE":0,"TOWNNAME":"仁德區","LI":"仁德里","LIN":"18鄰","STREET":"文華路","SECT":"三段","MAREA":" ","LANE":"１８９巷","ALLEY":"３０弄","HOUSE_NO":"２７號","E_COORD97":172156.78,"N_COORD97":2540540.04,"ADDRESS":"文華路三段１８９巷３０弄２７號","OBJECTID":163300},"geometry":{"x":172156.78000000119,"y":2540540.0399999991}},{"attributes":{"ID":163302,"DIS_CODE":0,"TOWNNAME":"仁德區","LI":"成功里","LIN":"4鄰","STREET":"成功三街","SECT":" ","MAREA":" ","LANE":"８６巷","ALLEY":"１弄","HOUSE_NO":"１０號","E_COORD97":171152.06,"N_COORD97":2539800.96,"ADDRESS":"成功三街８６巷１弄１０號","OBJECTID":163301},"geometry":{"x":171152.06000000052,"y":2539800.9600000046}},{"attributes":{"ID":163303,"DIS_CODE":0,"TOWNNAME":"仁德區","LI":"新田里","LIN":"4鄰","STREET":"勝利路","SECT":" ","MAREA":" ","LANE":"１３２巷","ALLEY":"１０弄","HOUSE_NO":"１６號","E_COORD97":174307.5,"N_COORD97":2539481.6600000001,"ADDRESS":"勝利路１３２巷１０弄１６號","OBJECTID":163302},"geometry":{"x":174307.50000000186,"y":2539481.660000002}},{"attributes":{"ID":163304,"DIS_CODE":0,"TOWNNAME":"新市區","LI":"豐華里","LIN":"18鄰","STREET":" ","SECT":" ","MAREA":"豐華","LANE":" ","ALLEY":" ","HOUSE_NO":"２８之８號","E_COORD97":173751.64999999999,"N_COORD97":2554058.1600000001,"ADDRESS":"豐華２８之８號","OBJECTID":163303},"geometry":{"x":173751.6500000013,"y":2554058.1600000001}},{"attributes":{"ID":163305,"DIS_CODE":0,"TOWNNAME":"安定區","LI":"新吉里","LIN":"18鄰","STREET":" ","SECT":" ","MAREA":"新吉","LANE":" ","ALLEY":" ","HOUSE_NO":"２８１之１０號","E_COORD97":168688.67000000001,"N_COORD97":2554232.2999999998,"ADDRESS":"新吉２８１之１０號","OBJECTID":163304},"geometry":{"x":168688.67000000086,"y":2554232.3000000026}},{"attributes":{"ID":163306,"DIS_CODE":0,"TOWNNAME":"安定區","LI":"新吉里","LIN":"18鄰","STREET":" ","SECT":" ","MAREA":"新吉","LANE":" ","ALLEY":" ","HOUSE_NO":"２８４之１號","E_COORD97":168562.72,"N_COORD97":2554362.2999999998,"ADDRESS":"新吉２８４之１號","OBJECTID":163305},"geometry":{"x":168562.72000000067,"y":2554362.3000000007}},{"attributes":{"ID":163307,"DIS_CODE":0,"TOWNNAME":"安定區","LI":"新吉里","LIN":"18鄰","STREET":" ","SECT":" ","MAREA":"新吉","LANE":" ","ALLEY":" ","HOUSE_NO":"２８１之３號","E_COORD97":168501.92000000001,"N_COORD97":2554178.2999999998,"ADDRESS":"新吉２８１之３號","OBJECTID":163306},"geometry":{"x":168501.92000000179,"y":2554178.3000000026}},{"attributes":{"ID":163308,"DIS_CODE":0,"TOWNNAME":"安定區","LI":"港南里","LIN":"18鄰","STREET":" ","SECT":" ","MAREA":"港口","LANE":" ","ALLEY":" ","HOUSE_NO":"２３８之７號","E_COORD97":171620.09,"N_COORD97":2554503.2999999998,"ADDRESS":"港口２３８之７號","OBJECTID":163307},"geometry":{"x":171620.09000000078,"y":2554503.3000000026}},{"attributes":{"ID":163309,"DIS_CODE":0,"TOWNNAME":"安定區","LI":"新吉里","LIN":"18鄰","STREET":" ","SECT":" ","MAREA":"新吉","LANE":" ","ALLEY":" ","HOUSE_NO":"２６５號","E_COORD97":168983.92000000001,"N_COORD97":2554051.25,"ADDRESS":"新吉２６５號","OBJECTID":163308},"geometry":{"x":168983.92000000086,"y":2554051.2500000037}},{"attributes":{"ID":163310,"DIS_CODE":0,"TOWNNAME":"安定區","LI":"港口里","LIN":"18鄰","STREET":" ","SECT":" ","MAREA":"港口","LANE":" ","ALLEY":" ","HOUSE_NO":"３８１之１號","E_COORD97":171405.39000000001,"N_COORD97":2554991.2999999998,"ADDRESS":"港口３８１之１號","OBJECTID":163309},"geometry":{"x":171405.38999999966,"y":2554991.3000000026}},{"attributes":{"ID":163311,"DIS_CODE":0,"TOWNNAME":"安定區","LI":"港南里","LIN":"18鄰","STREET":" ","SECT":" ","MAREA":"港口","LANE":" ","ALLEY":" ","HOUSE_NO":"２４２之１５號","E_COORD97":171692.54000000001,"N_COORD97":2554581.2999999998,"ADDRESS":"港口２４２之１５號","OBJECTID":163310},"geometry":{"x":171692.54000000004,"y":2554581.3000000026}},{"attributes":{"ID":163312,"DIS_CODE":0,"TOWNNAME":"安定區","LI":"港南里","LIN":"18鄰","STREET":" ","SECT":" ","MAREA":"港口","LANE":" ","ALLEY":" ","HOUSE_NO":"２４０之７號","E_COORD97":172501.96374400001,"N_COORD97":2554372.7581000002,"ADDRESS":"港口２４０之７號","OBJECTID":163311},"geometry":{"x":172501.9637439996,"y":2554372.7580970004}},{"attributes":{"ID":163313,"DIS_CODE":0,"TOWNNAME":"安定區","LI":"蘇厝里","LIN":"18鄰","STREET":" ","SECT":" ","MAREA":"蘇厝","LANE":" ","ALLEY":" ","HOUSE_NO":"４５３之２號","E_COORD97":173260.00636699999,"N_COORD97":2558791.9094400001,"ADDRESS":"蘇厝４５３之２號","OBJECTID":163312},"geometry":{"x":173260.00636700075,"y":2558791.9094440024}},{"attributes":{"ID":163314,"DIS_CODE":0,"TOWNNAME":"安定區","LI":"港南里","LIN":"18鄰","STREET":" ","SECT":" ","MAREA":"港口","LANE":" ","ALLEY":" ","HOUSE_NO":"２４０之２０號","E_COORD97":172031.23999999999,"N_COORD97":2554383.2999999998,"ADDRESS":"港口２４０之２０號","OBJECTID":163313},"geometry":{"x":172031.24000000209,"y":2554383.3000000007}},{"attributes":{"ID":163315,"DIS_CODE":0,"TOWNNAME":"安定區","LI":"港南里","LIN":"18鄰","STREET":" ","SECT":" ","MAREA":"港口","LANE":" ","ALLEY":" ","HOUSE_NO":"２３９號之１０","E_COORD97":171812.13,"N_COORD97":2554290.2999999998,"ADDRESS":"港口２３９號之１０","OBJECTID":163314},"geometry":{"x":171812.12999999989,"y":2554290.3000000026}},{"attributes":{"ID":163316,"DIS_CODE":0,"TOWNNAME":"安定區","LI":"蘇厝里","LIN":"18鄰","STREET":" ","SECT":" ","MAREA":"蘇厝","LANE":" ","ALLEY":" ","HOUSE_NO":"４５０之１號","E_COORD97":173238.92000000001,"N_COORD97":2558760.2999999998,"ADDRESS":"蘇厝４５０之１號","OBJECTID":163315},"geometry":{"x":173238.92000000086,"y":2558760.3000000007}},{"attributes":{"ID":163317,"DIS_CODE":0,"TOWNNAME":"安定區","LI":"港南里","LIN":"18鄰","STREET":" ","SECT":" ","MAREA":"港口","LANE":" ","ALLEY":" ","HOUSE_NO":"２３９之１５號","E_COORD97":171788.94,"N_COORD97":2554347.2999999998,"ADDRESS":"港口２３９之１５號","OBJECTID":163316},"geometry":{"x":171788.94000000041,"y":2554347.3000000026}},{"attributes":{"ID":163318,"DIS_CODE":0,"TOWNNAME":"安定區","LI":"港口里","LIN":"18鄰","STREET":" ","SECT":" ","MAREA":"港口","LANE":" ","ALLEY":" ","HOUSE_NO":"３８０號之１１","E_COORD97":171408.28,"N_COORD97":2555041.2999999998,"ADDRESS":"港口３８０號之１１","OBJECTID":163317},"geometry":{"x":171408.28000000026,"y":2555041.3000000007}},{"attributes":{"ID":163319,"DIS_CODE":0,"TOWNNAME":"安定區","LI":"港口里","LIN":"18鄰","STREET":" ","SECT":" ","MAREA":"港口","LANE":" ","ALLEY":" ","HOUSE_NO":"３８０之８號","E_COORD97":171402.39000000001,"N_COORD97":2555029.2999999998,"ADDRESS":"港口３８０之８號","OBJECTID":163318},"geometry":{"x":171402.39000000153,"y":2555029.3000000026}},{"attributes":{"ID":163320,"DIS_CODE":0,"TOWNNAME":"安定區","LI":"港口里","LIN":"18鄰","STREET":" ","SECT":" ","MAREA":"港口","LANE":" ","ALLEY":" ","HOUSE_NO":"３７２號之１７","E_COORD97":171365.95000000001,"N_COORD97":2554946.2999999998,"ADDRESS":"港口３７２號之１７","OBJECTID":163319},"geometry":{"x":171365.95000000112,"y":2554946.3000000007}},{"attributes":{"ID":163321,"DIS_CODE":0,"TOWNNAME":"安定區","LI":"港口里","LIN":"18鄰","STREET":" ","SECT":" ","MAREA":"港口","LANE":" ","ALLEY":" ","HOUSE_NO":"３７２號之７","E_COORD97":171407.29999999999,"N_COORD97":2554953.2999999998,"ADDRESS":"港口３７２號之７","OBJECTID":163320},"geometry":{"x":171407.30000000075,"y":2554953.3000000007}},{"attributes":{"ID":163322,"DIS_CODE":0,"TOWNNAME":"仁德區","LI":"仁德里","LIN":"18鄰","STREET":"文華路","SECT":"三段","MAREA":" ","LANE":"１８９巷","ALLEY":"２７弄","HOUSE_NO":"５２號","E_COORD97":172067.54999999999,"N_COORD97":2540357.48,"ADDRESS":"文華路三段１８９巷２７弄５２號","OBJECTID":163321},"geometry":{"x":172067.54999999888,"y":2540357.4800000023}},{"attributes":{"ID":163323,"DIS_CODE":0,"TOWNNAME":"仁德區","LI":"太子里","LIN":"26鄰","STREET":"長興五街","SECT":" ","MAREA":" ","LANE":"１４巷","ALLEY":"２弄","HOUSE_NO":"３號","E_COORD97":173628.29000000001,"N_COORD97":2543580.25,"ADDRESS":"長興五街１４巷２弄３號","OBJECTID":163322},"geometry":{"x":173628.29000000097,"y":2543580.25}},{"attributes":{"ID":163324,"DIS_CODE":0,"TOWNNAME":"仁德區","LI":"成功里","LIN":"43鄰","STREET":"虎山一街","SECT":" ","MAREA":" ","LANE":"９巷","ALLEY":"１弄","HOUSE_NO":"９號","E_COORD97":170963.44,"N_COORD97":2538009.2599999998,"ADDRESS":"虎山一街９巷１弄９號","OBJECTID":163323},"geometry":{"x":170963.44000000041,"y":2538009.2600000016}},{"attributes":{"ID":163325,"DIS_CODE":0,"TOWNNAME":"仁德區","LI":"成功里","LIN":"4鄰","STREET":"成功三街","SECT":" ","MAREA":" ","LANE":"８６巷","ALLEY":"１弄","HOUSE_NO":"１６號","E_COORD97":171151.62,"N_COORD97":2539780.21,"ADDRESS":"成功三街８６巷１弄１６號","OBJECTID":163324},"geometry":{"x":171151.62000000011,"y":2539780.2100000028}},{"attributes":{"ID":163326,"DIS_CODE":0,"TOWNNAME":"仁德區","LI":"仁德里","LIN":"26鄰","STREET":"淨修街","SECT":" ","MAREA":" ","LANE":"１７５巷","ALLEY":"３０弄","HOUSE_NO":"２６號","E_COORD97":171979.67999999999,"N_COORD97":2541175.9300000002,"ADDRESS":"淨修街１７５巷３０弄２６號","OBJECTID":163325},"geometry":{"x":171979.6799999997,"y":2541175.9299999997}},{"attributes":{"ID":163327,"DIS_CODE":0,"TOWNNAME":"仁德區","LI":"太子里","LIN":"26鄰","STREET":"長興五街","SECT":" ","MAREA":" ","LANE":"１４巷","ALLEY":"２弄","HOUSE_NO":"４號","E_COORD97":173610.89999999999,"N_COORD97":2543580,"ADDRESS":"長興五街１４巷２弄４號","OBJECTID":163326},"geometry":{"x":173610.9000000013,"y":2543580.0000000037}},{"attributes":{"ID":163328,"DIS_CODE":0,"TOWNNAME":"永康區","LI":"北灣里","LIN":"20鄰","STREET":"北興路","SECT":" ","MAREA":" ","LANE":"３２巷","ALLEY":"８弄","HOUSE_NO":"８號","E_COORD97":174647.51000000001,"N_COORD97":2546000.0699999998,"ADDRESS":"北興路３２巷８弄８號","OBJECTID":163327},"geometry":{"x":174647.50999999978,"y":2546000.0700000003}},{"attributes":{"ID":163329,"DIS_CODE":0,"TOWNNAME":"仁德區","LI":"仁德里","LIN":"26鄰","STREET":"淨修街","SECT":" ","MAREA":" ","LANE":"１７５巷","ALLEY":"３０弄","HOUSE_NO":"２２號","E_COORD97":171979,"N_COORD97":2541186.6800000002,"ADDRESS":"淨修街１７５巷３０弄２２號","OBJECTID":163328},"geometry":{"x":171979.00000000093,"y":2541186.6799999997}},{"attributes":{"ID":163330,"DIS_CODE":0,"TOWNNAME":"仁德區","LI":"仁德里","LIN":"26鄰","STREET":"淨修街","SECT":" ","MAREA":" ","LANE":"１７５巷","ALLEY":"３０弄","HOUSE_NO":"８號","E_COORD97":171975.07999999999,"N_COORD97":2541221.9300000002,"ADDRESS":"淨修街１７５巷３０弄８號","OBJECTID":163329},"geometry":{"x":171975.08000000101,"y":2541221.9300000016}},{"attributes":{"ID":163331,"DIS_CODE":0,"TOWNNAME":"仁德區","LI":"新田里","LIN":"4鄰","STREET":"勝利路","SECT":" ","MAREA":" ","LANE":"１３２巷","ALLEY":"１０弄","HOUSE_NO":"１１號","E_COORD97":174303.73000000001,"N_COORD97":2539497.1600000001,"ADDRESS":"勝利路１３２巷１０弄１１號","OBJECTID":163330},"geometry":{"x":174303.73000000138,"y":2539497.1600000039}},{"attributes":{"ID":163332,"DIS_CODE":0,"TOWNNAME":"仁德區","LI":"成功里","LIN":"38鄰","STREET":"保華路","SECT":" ","MAREA":" ","LANE":"２巷","ALLEY":"５弄","HOUSE_NO":"１１號","E_COORD97":170730.60000000001,"N_COORD97":2540026.25,"ADDRESS":"保華路２巷５弄１１號","OBJECTID":163331},"geometry":{"x":170730.59999999963,"y":2540026.2500000019}},{"attributes":{"ID":163333,"DIS_CODE":0,"TOWNNAME":"仁德區","LI":"新田里","LIN":"4鄰","STREET":"勝利路","SECT":" ","MAREA":" ","LANE":"１３２巷","ALLEY":"１０弄","HOUSE_NO":"４號","E_COORD97":174265.23000000001,"N_COORD97":2539488.6600000001,"ADDRESS":"勝利路１３２巷１０弄４號","OBJECTID":163332},"geometry":{"x":174265.23000000045,"y":2539488.660000002}},{"attributes":{"ID":163334,"DIS_CODE":0,"TOWNNAME":"仁德區","LI":"新田里","LIN":"4鄰","STREET":"勝利路","SECT":" ","MAREA":" ","LANE":"１３２巷","ALLEY":"１０弄","HOUSE_NO":"１７號","E_COORD97":174324.78,"N_COORD97":2539493.4100000001,"ADDRESS":"勝利路１３２巷１０弄１７號","OBJECTID":163333},"geometry":{"x":174324.78000000119,"y":2539493.410000002}},{"attributes":{"ID":163335,"DIS_CODE":0,"TOWNNAME":"仁德區","LI":"太子里","LIN":"26鄰","STREET":"長興五街","SECT":" ","MAREA":" ","LANE":"１４巷","ALLEY":"６弄","HOUSE_NO":"４號","E_COORD97":173653.42999999999,"N_COORD97":2543580,"ADDRESS":"長興五街１４巷６弄４號","OBJECTID":163334},"geometry":{"x":173653.43000000156,"y":2543580.0000000037}},{"attributes":{"ID":163336,"DIS_CODE":0,"TOWNNAME":"仁德區","LI":"仁德里","LIN":"26鄰","STREET":"淨修街","SECT":" ","MAREA":" ","LANE":"１７５巷","ALLEY":"３０弄","HOUSE_NO":"１４號","E_COORD97":171977.53,"N_COORD97":2541207.1800000002,"ADDRESS":"淨修街１７５巷３０弄１４號","OBJECTID":163335},"geometry":{"x":171977.53000000119,"y":2541207.1799999997}},{"attributes":{"ID":163337,"DIS_CODE":0,"TOWNNAME":"安定區","LI":"港口里","LIN":"18鄰","STREET":" ","SECT":" ","MAREA":"港口","LANE":" ","ALLEY":" ","HOUSE_NO":"３８２之５號","E_COORD97":171422.09,"N_COORD97":2555046.2999999998,"ADDRESS":"港口３８２之５號","OBJECTID":163336},"geometry":{"x":171422.09000000078,"y":2555046.3000000026}},{"attributes":{"ID":163338,"DIS_CODE":0,"TOWNNAME":"新市區","LI":"潭頂里","LIN":"12鄰","STREET":" ","SECT":" ","MAREA":"潭頂","LANE":" ","ALLEY":" ","HOUSE_NO":"３９２號","E_COORD97":180496.69,"N_COORD97":2552923.5,"ADDRESS":"潭頂３９２號","OBJECTID":163337},"geometry":{"x":180496.69000000041,"y":2552923.5}},{"attributes":{"ID":163339,"DIS_CODE":0,"TOWNNAME":"安定區","LI":"港口里","LIN":"18鄰","STREET":" ","SECT":" ","MAREA":"港口","LANE":" ","ALLEY":" ","HOUSE_NO":"３７２號之１０","E_COORD97":171396.63,"N_COORD97":2554957.2999999998,"ADDRESS":"港口３７２號之１０","OBJECTID":163338},"geometry":{"x":171396.63000000082,"y":2554957.3000000026}},{"attributes":{"ID":163340,"DIS_CODE":0,"TOWNNAME":"安定區","LI":"海寮里","LIN":"18鄰","STREET":" ","SECT":" ","MAREA":"海寮","LANE":" ","ALLEY":" ","HOUSE_NO":"１７３之６號","E_COORD97":169360.23999999999,"N_COORD97":2555519.2999999998,"ADDRESS":"海寮１７３之６號","OBJECTID":163339},"geometry":{"x":169360.24000000115,"y":2555519.3000000007}},{"attributes":{"ID":163341,"DIS_CODE":0,"TOWNNAME":"安定區","LI":"港口里","LIN":"18鄰","STREET":" ","SECT":" ","MAREA":"港口","LANE":" ","ALLEY":" ","HOUSE_NO":"３７２號之３","E_COORD97":171423.01999999999,"N_COORD97":2554947.2999999998,"ADDRESS":"港口３７２號之３","OBJECTID":163340},"geometry":{"x":171423.01999999955,"y":2554947.3000000026}},{"attributes":{"ID":163342,"DIS_CODE":0,"TOWNNAME":"安定區","LI":"港口里","LIN":"18鄰","STREET":" ","SECT":" ","MAREA":"港口","LANE":" ","ALLEY":" ","HOUSE_NO":"３７７號","E_COORD97":171358.89000000001,"N_COORD97":2555013.25,"ADDRESS":"港口３７７號","OBJECTID":163341},"geometry":{"x":171358.8900000006,"y":2555013.25}},{"attributes":{"ID":163343,"DIS_CODE":0,"TOWNNAME":"安定區","LI":"港口里","LIN":"18鄰","STREET":" ","SECT":" ","MAREA":"港口","LANE":" ","ALLEY":" ","HOUSE_NO":"３８１之６號","E_COORD97":171412.39000000001,"N_COORD97":2555022.2999999998,"ADDRESS":"港口３８１之６號","OBJECTID":163342},"geometry":{"x":171412.38999999873,"y":2555022.3000000026}},{"attributes":{"ID":163344,"DIS_CODE":0,"TOWNNAME":"安定區","LI":"港口里","LIN":"18鄰","STREET":" ","SECT":" ","MAREA":"港口","LANE":" ","ALLEY":" ","HOUSE_NO":"３８０號之７","E_COORD97":171400.39999999999,"N_COORD97":2555025.2999999998,"ADDRESS":"港口３８０號之７","OBJECTID":163343},"geometry":{"x":171400.4000000013,"y":2555025.3000000026}},{"attributes":{"ID":163345,"DIS_CODE":0,"TOWNNAME":"安定區","LI":"港口里","LIN":"18鄰","STREET":" ","SECT":" ","MAREA":"港口","LANE":" ","ALLEY":" ","HOUSE_NO":"３８０之１２號","E_COORD97":171409.84,"N_COORD97":2555046.2999999998,"ADDRESS":"港口３８０之１２號","OBJECTID":163344},"geometry":{"x":171409.84000000078,"y":2555046.3000000026}},{"attributes":{"ID":163346,"DIS_CODE":0,"TOWNNAME":"安定區","LI":"港口里","LIN":"18鄰","STREET":" ","SECT":" ","MAREA":"港口","LANE":" ","ALLEY":" ","HOUSE_NO":"３７７號之１","E_COORD97":171351.13,"N_COORD97":2555015.2999999998,"ADDRESS":"港口３７７號之１","OBJECTID":163345},"geometry":{"x":171351.12999999989,"y":2555015.3000000026}},{"attributes":{"ID":163347,"DIS_CODE":0,"TOWNNAME":"安定區","LI":"港口里","LIN":"18鄰","STREET":" ","SECT":" ","MAREA":"港口","LANE":" ","ALLEY":" ","HOUSE_NO":"３８２號","E_COORD97":171411.48999999999,"N_COORD97":2555026.25,"ADDRESS":"港口３８２號","OBJECTID":163346},"geometry":{"x":171411.49000000115,"y":2555026.25}},{"attributes":{"ID":163348,"DIS_CODE":0,"TOWNNAME":"安定區","LI":"港口里","LIN":"18鄰","STREET":" ","SECT":" ","MAREA":"港口","LANE":" ","ALLEY":" ","HOUSE_NO":"３７４號之１","E_COORD97":171368.03,"N_COORD97":2554914.2999999998,"ADDRESS":"港口３７４號之１","OBJECTID":163347},"geometry":{"x":171368.02999999933,"y":2554914.3000000026}},{"attributes":{"ID":163349,"DIS_CODE":0,"TOWNNAME":"安定區","LI":"港口里","LIN":"18鄰","STREET":" ","SECT":" ","MAREA":"港口","LANE":" ","ALLEY":" ","HOUSE_NO":"３８１號之３","E_COORD97":171406.92000000001,"N_COORD97":2555010.2999999998,"ADDRESS":"港口３８１號之３","OBJECTID":163348},"geometry":{"x":171406.91999999993,"y":2555010.3000000007}},{"attributes":{"ID":163350,"DIS_CODE":0,"TOWNNAME":"安定區","LI":"港口里","LIN":"18鄰","STREET":" ","SECT":" ","MAREA":"港口","LANE":" ","ALLEY":" ","HOUSE_NO":"３７２之４號","E_COORD97":171419.19,"N_COORD97":2554949.29,"ADDRESS":"港口３７２之４號","OBJECTID":163349},"geometry":{"x":171419.19000000041,"y":2554949.290000001}},{"attributes":{"ID":163351,"DIS_CODE":0,"TOWNNAME":"安定區","LI":"海寮里","LIN":"18鄰","STREET":" ","SECT":" ","MAREA":"海寮","LANE":" ","ALLEY":" ","HOUSE_NO":"１７３之４號","E_COORD97":169352.44,"N_COORD97":2555518.2999999998,"ADDRESS":"海寮１７３之４號","OBJECTID":163350},"geometry":{"x":169352.44000000134,"y":2555518.3000000007}},{"attributes":{"ID":163352,"DIS_CODE":0,"TOWNNAME":"安定區","LI":"港口里","LIN":"18鄰","STREET":" ","SECT":" ","MAREA":"港口","LANE":" ","ALLEY":" ","HOUSE_NO":"３８０之１５號","E_COORD97":171414.64000000001,"N_COORD97":2555057.2999999998,"ADDRESS":"港口３８０之１５號","OBJECTID":163351},"geometry":{"x":171414.6400000006,"y":2555057.3000000007}},{"attributes":{"ID":163353,"DIS_CODE":0,"TOWNNAME":"安定區","LI":"港口里","LIN":"18鄰","STREET":" ","SECT":" ","MAREA":"港口","LANE":" ","ALLEY":" ","HOUSE_NO":"３７２號之１４","E_COORD97":171376.10000000001,"N_COORD97":2554939.2999999998,"ADDRESS":"港口３７２號之１４","OBJECTID":163352},"geometry":{"x":171376.10000000056,"y":2554939.3000000007}},{"attributes":{"ID":163354,"DIS_CODE":0,"TOWNNAME":"仁德區","LI":"新田里","LIN":"4鄰","STREET":"勝利路","SECT":" ","MAREA":" ","LANE":"１３２巷","ALLEY":"１０弄","HOUSE_NO":"６號","E_COORD97":174271.91,"N_COORD97":2539487.6600000001,"ADDRESS":"勝利路１３２巷１０弄６號","OBJECTID":163353},"geometry":{"x":174271.91000000015,"y":2539487.660000002}},{"attributes":{"ID":163355,"DIS_CODE":0,"TOWNNAME":"仁德區","LI":"新田里","LIN":"4鄰","STREET":"勝利路","SECT":" ","MAREA":" ","LANE":"１３２巷","ALLEY":"１０弄","HOUSE_NO":"１２號","E_COORD97":174293.47,"N_COORD97":2539484.1600000001,"ADDRESS":"勝利路１３２巷１０弄１２號","OBJECTID":163354},"geometry":{"x":174293.46999999974,"y":2539484.160000002}},{"attributes":{"ID":163356,"DIS_CODE":0,"TOWNNAME":"仁德區","LI":"後壁里","LIN":"32鄰","STREET":"德洋路","SECT":" ","MAREA":" ","LANE":"２０５巷","ALLEY":"３０弄","HOUSE_NO":"７號","E_COORD97":172413.84,"N_COORD97":2539541.5099999998,"ADDRESS":"德洋路２０５巷３０弄７號","OBJECTID":163355},"geometry":{"x":172413.84000000078,"y":2539541.5099999998}},{"attributes":{"ID":163357,"DIS_CODE":0,"TOWNNAME":"仁德區","LI":"新田里","LIN":"4鄰","STREET":"勝利路","SECT":" ","MAREA":" ","LANE":"１３２巷","ALLEY":"１０弄","HOUSE_NO":"３號","E_COORD97":174274.94,"N_COORD97":2539501.4100000001,"ADDRESS":"勝利路１３２巷１０弄３號","OBJECTID":163356},"geometry":{"x":174274.94000000134,"y":2539501.4100000001}},{"attributes":{"ID":163358,"DIS_CODE":0,"TOWNNAME":"仁德區","LI":"成功里","LIN":"38鄰","STREET":"保華路","SECT":" ","MAREA":" ","LANE":"２巷","ALLEY":"５弄","HOUSE_NO":"２８號","E_COORD97":170699.10000000001,"N_COORD97":2540045.9900000002,"ADDRESS":"保華路２巷５弄２８號","OBJECTID":163357},"geometry":{"x":170699.10000000149,"y":2540045.9900000002}},{"attributes":{"ID":163359,"DIS_CODE":0,"TOWNNAME":"仁德區","LI":"太子里","LIN":"26鄰","STREET":"長興五街","SECT":" ","MAREA":" ","LANE":"１４巷","ALLEY":"２弄","HOUSE_NO":"８號","E_COORD97":173611.07000000001,"N_COORD97":2543567.75,"ADDRESS":"長興五街１４巷２弄８號","OBJECTID":163358},"geometry":{"x":173611.07000000123,"y":2543567.75}},{"attributes":{"ID":163360,"DIS_CODE":0,"TOWNNAME":"仁德區","LI":"太子里","LIN":"25鄰","STREET":"長興五街","SECT":" ","MAREA":" ","LANE":"１４巷","ALLEY":"９弄","HOUSE_NO":"１３號","E_COORD97":173639.49150100001,"N_COORD97":2543633.95285,"ADDRESS":"長興五街１４巷９弄１３號","OBJECTID":163359},"geometry":{"x":173639.49150099978,"y":2543633.9528490007}},{"attributes":{"ID":163361,"DIS_CODE":0,"TOWNNAME":"仁德區","LI":"新田里","LIN":"4鄰","STREET":"勝利路","SECT":" ","MAREA":" ","LANE":"１３２巷","ALLEY":"１０弄","HOUSE_NO":"１８號","E_COORD97":174314.53,"N_COORD97":2539480.6600000001,"ADDRESS":"勝利路１３２巷１０弄１８號","OBJECTID":163360},"geometry":{"x":174314.53000000119,"y":2539480.660000002}},{"attributes":{"ID":163362,"DIS_CODE":0,"TOWNNAME":"仁德區","LI":"新田里","LIN":"4鄰","STREET":"勝利路","SECT":" ","MAREA":" ","LANE":"１３２巷","ALLEY":"１０弄","HOUSE_NO":"２１號","E_COORD97":174338.53,"N_COORD97":2539491.4100000001,"ADDRESS":"勝利路１３２巷１０弄２１號","OBJECTID":163361},"geometry":{"x":174338.53000000119,"y":2539491.4100000001}},{"attributes":{"ID":163363,"DIS_CODE":0,"TOWNNAME":"仁德區","LI":"成功里","LIN":"38鄰","STREET":"保華路","SECT":" ","MAREA":" ","LANE":"２巷","ALLEY":"５弄","HOUSE_NO":"２２號","E_COORD97":170711.39999999999,"N_COORD97":2540044.7400000002,"ADDRESS":"保華路２巷５弄２２號","OBJECTID":163362},"geometry":{"x":170711.40000000224,"y":2540044.7400000002}},{"attributes":{"ID":163364,"DIS_CODE":0,"TOWNNAME":"仁德區","LI":"成功里","LIN":"38鄰","STREET":"保華路","SECT":" ","MAREA":" ","LANE":"２巷","ALLEY":"５弄","HOUSE_NO":"２０號","E_COORD97":170715.17999999999,"N_COORD97":2540044.2400000002,"ADDRESS":"保華路２巷５弄２０號","OBJECTID":163363},"geometry":{"x":170715.1799999997,"y":2540044.2400000021}},{"attributes":{"ID":163365,"DIS_CODE":0,"TOWNNAME":"仁德區","LI":"成功里","LIN":"38鄰","STREET":"保華路","SECT":" ","MAREA":" ","LANE":"２巷","ALLEY":"５弄","HOUSE_NO":"１８號","E_COORD97":170719.17999999999,"N_COORD97":2540043.7400000002,"ADDRESS":"保華路２巷５弄１８號","OBJECTID":163364},"geometry":{"x":170719.18000000063,"y":2540043.7400000021}},{"attributes":{"ID":163366,"DIS_CODE":0,"TOWNNAME":"仁德區","LI":"成功里","LIN":"20鄰","STREET":"保生路","SECT":" ","MAREA":" ","LANE":"１２３巷","ALLEY":"６弄","HOUSE_NO":"１０號","E_COORD97":170595.67999999999,"N_COORD97":2539800.75,"ADDRESS":"保生路１２３巷６弄１０號","OBJECTID":163365},"geometry":{"x":170595.68000000063,"y":2539800.75}},{"attributes":{"ID":163367,"DIS_CODE":0,"TOWNNAME":"仁德區","LI":"太子里","LIN":"26鄰","STREET":"長興五街","SECT":" ","MAREA":" ","LANE":"１４巷","ALLEY":"６弄","HOUSE_NO":"２號","E_COORD97":173653.45000000001,"N_COORD97":2543586.25,"ADDRESS":"長興五街１４巷６弄２號","OBJECTID":163366},"geometry":{"x":173653.45000000019,"y":2543586.2500000019}},{"attributes":{"ID":163368,"DIS_CODE":0,"TOWNNAME":"仁德區","LI":"成功里","LIN":"32鄰","STREET":"成功一街","SECT":" ","MAREA":" ","LANE":"３５巷","ALLEY":"１弄","HOUSE_NO":"１４號","E_COORD97":170595.44,"N_COORD97":2540160.7599999998,"ADDRESS":"成功一街３５巷１弄１４號","OBJECTID":163367},"geometry":{"x":170595.44000000041,"y":2540160.7600000035}},{"attributes":{"ID":163369,"DIS_CODE":0,"TOWNNAME":"新市區","LI":"潭頂里","LIN":"12鄰","STREET":" ","SECT":" ","MAREA":"潭頂","LANE":" ","ALLEY":" ","HOUSE_NO":"３８９號","E_COORD97":180538.12,"N_COORD97":2552917.25,"ADDRESS":"潭頂３８９號","OBJECTID":163368},"geometry":{"x":180538.12000000011,"y":2552917.25}},{"attributes":{"ID":163370,"DIS_CODE":0,"TOWNNAME":"新市區","LI":"大社里","LIN":"12鄰","STREET":" ","SECT":" ","MAREA":"大社","LANE":" ","ALLEY":" ","HOUSE_NO":"４０２之４２號","E_COORD97":180349.45000000001,"N_COORD97":2554643.0499999998,"ADDRESS":"大社４０２之４２號","OBJECTID":163369},"geometry":{"x":180349.45000000019,"y":2554643.0500000007}},{"attributes":{"ID":163371,"DIS_CODE":0,"TOWNNAME":"仁德區","LI":"新田里","LIN":"4鄰","STREET":"勝利路","SECT":" ","MAREA":" ","LANE":"１３２巷","ALLEY":"１０弄","HOUSE_NO":"１號","E_COORD97":174266.07000000001,"N_COORD97":2539502.4100000001,"ADDRESS":"勝利路１３２巷１０弄１號","OBJECTID":163370},"geometry":{"x":174266.0700000003,"y":2539502.4100000039}},{"attributes":{"ID":163372,"DIS_CODE":0,"TOWNNAME":"北門區","LI":"東壁里","LIN":"12鄰","STREET":" ","SECT":" ","MAREA":"蚵寮","LANE":" ","ALLEY":" ","HOUSE_NO":"７１５之１號","E_COORD97":161777.81,"N_COORD97":2576322.6600000001,"ADDRESS":"蚵寮７１５之１號","OBJECTID":163371},"geometry":{"x":161777.81000000052,"y":2576322.6600000001}},{"attributes":{"ID":163373,"DIS_CODE":0,"TOWNNAME":"北門區","LI":"東壁里","LIN":"12鄰","STREET":" ","SECT":" ","MAREA":"蚵寮","LANE":" ","ALLEY":" ","HOUSE_NO":"７１５號之１","E_COORD97":161777.81,"N_COORD97":2576322.6600000001,"ADDRESS":"蚵寮７１５號之１","OBJECTID":163372},"geometry":{"x":161777.81000000052,"y":2576322.6600000001}},{"attributes":{"ID":163374,"DIS_CODE":0,"TOWNNAME":"北門區","LI":"東壁里","LIN":"12鄰","STREET":" ","SECT":" ","MAREA":"蚵寮","LANE":" ","ALLEY":" ","HOUSE_NO":"７１５之２號","E_COORD97":161774.03,"N_COORD97":2576321.4900000002,"ADDRESS":"蚵寮７１５之２號","OBJECTID":163373},"geometry":{"x":161774.03000000119,"y":2576321.4900000039}},{"attributes":{"ID":163375,"DIS_CODE":0,"TOWNNAME":"北門區","LI":"東壁里","LIN":"12鄰","STREET":" ","SECT":" ","MAREA":"蚵寮","LANE":" ","ALLEY":" ","HOUSE_NO":"７１５號之２","E_COORD97":161774.03,"N_COORD97":2576321.4900000002,"ADDRESS":"蚵寮７１５號之２","OBJECTID":163374},"geometry":{"x":161774.03000000119,"y":2576321.4900000039}},{"attributes":{"ID":163376,"DIS_CODE":0,"TOWNNAME":"北門區","LI":"東壁里","LIN":"12鄰","STREET":" ","SECT":" ","MAREA":"蚵寮","LANE":" ","ALLEY":" ","HOUSE_NO":"７１８號","E_COORD97":161769.79999999999,"N_COORD97":2576316.1299999999,"ADDRESS":"蚵寮７１８號","OBJECTID":163375},"geometry":{"x":161769.80000000075,"y":2576316.1300000008}},{"attributes":{"ID":163377,"DIS_CODE":0,"TOWNNAME":"北門區","LI":"東壁里","LIN":"12鄰","STREET":" ","SECT":" ","MAREA":"蚵寮","LANE":" ","ALLEY":" ","HOUSE_NO":"７１９號","E_COORD97":161749.76000000001,"N_COORD97":2576310.98,"ADDRESS":"蚵寮７１９號","OBJECTID":163376},"geometry":{"x":161749.76000000071,"y":2576310.9800000004}},{"attributes":{"ID":163378,"DIS_CODE":0,"TOWNNAME":"新市區","LI":"大營里","LIN":"12鄰","STREET":" ","SECT":" ","MAREA":"大營","LANE":" ","ALLEY":" ","HOUSE_NO":"２４４號","E_COORD97":179198.59,"N_COORD97":2555554.5,"ADDRESS":"大營２４４號","OBJECTID":163377},"geometry":{"x":179198.58999999985,"y":2555554.5}},{"attributes":{"ID":163379,"DIS_CODE":0,"TOWNNAME":"新市區","LI":"大社里","LIN":"12鄰","STREET":" ","SECT":" ","MAREA":"大社","LANE":" ","ALLEY":" ","HOUSE_NO":"３０１之２號","E_COORD97":180230.04000000001,"N_COORD97":2554603.0499999998,"ADDRESS":"大社３０１之２號","OBJECTID":163378},"geometry":{"x":180230.04000000004,"y":2554603.0500000026}},{"attributes":{"ID":163380,"DIS_CODE":0,"TOWNNAME":"新市區","LI":"大營里","LIN":"12鄰","STREET":" ","SECT":" ","MAREA":"大營","LANE":" ","ALLEY":" ","HOUSE_NO":"２４７號","E_COORD97":179190.39999999999,"N_COORD97":2555581.75,"ADDRESS":"大營２４７號","OBJECTID":163379},"geometry":{"x":179190.40000000037,"y":2555581.7500000019}},{"attributes":{"ID":163381,"DIS_CODE":0,"TOWNNAME":"新市區","LI":"潭頂里","LIN":"12鄰","STREET":" ","SECT":" ","MAREA":"潭頂","LANE":" ","ALLEY":" ","HOUSE_NO":"４５５號","E_COORD97":180501.69,"N_COORD97":2552894.25,"ADDRESS":"潭頂４５５號","OBJECTID":163380},"geometry":{"x":180501.69000000134,"y":2552894.25}},{"attributes":{"ID":163382,"DIS_CODE":0,"TOWNNAME":"新市區","LI":"豐華里","LIN":"12鄰","STREET":" ","SECT":" ","MAREA":"豐華","LANE":" ","ALLEY":" ","HOUSE_NO":"４７之１２１號","E_COORD97":174223.60000000001,"N_COORD97":2554491.7999999998,"ADDRESS":"豐華４７之１２１號","OBJECTID":163381},"geometry":{"x":174223.60000000056,"y":2554491.8000000007}},{"attributes":{"ID":163383,"DIS_CODE":0,"TOWNNAME":"新市區","LI":"豐華里","LIN":"12鄰","STREET":" ","SECT":" ","MAREA":"豐華","LANE":" ","ALLEY":" ","HOUSE_NO":"４７之１２０號","E_COORD97":174222.45000000001,"N_COORD97":2554487.5499999998,"ADDRESS":"豐華４７之１２０號","OBJECTID":163382},"geometry":{"x":174222.45000000019,"y":2554487.5500000045}},{"attributes":{"ID":163384,"DIS_CODE":0,"TOWNNAME":"佳里區","LI":"營頂里","LIN":"10鄰","STREET":" ","SECT":" ","MAREA":"營頂","LANE":" ","ALLEY":" ","HOUSE_NO":"１０６號","E_COORD97":167335.03,"N_COORD97":2566925.8100000001,"ADDRESS":"營頂１０６號","OBJECTID":163383},"geometry":{"x":167335.03000000026,"y":2566925.8100000024}},{"attributes":{"ID":163385,"DIS_CODE":0,"TOWNNAME":"安定區","LI":"港口里","LIN":"18鄰","STREET":" ","SECT":" ","MAREA":"港口","LANE":" ","ALLEY":" ","HOUSE_NO":"３７２號之１６","E_COORD97":171369.48000000001,"N_COORD97":2554943.2999999998,"ADDRESS":"港口３７２號之１６","OBJECTID":163384},"geometry":{"x":171369.48000000138,"y":2554943.3000000045}},{"attributes":{"ID":163386,"DIS_CODE":0,"TOWNNAME":"安定區","LI":"港口里","LIN":"18鄰","STREET":" ","SECT":" ","MAREA":"港口","LANE":" ","ALLEY":" ","HOUSE_NO":"３８０號之１","E_COORD97":171384.92999999999,"N_COORD97":2554998.2999999998,"ADDRESS":"港口３８０號之１","OBJECTID":163385},"geometry":{"x":171384.9299999997,"y":2554998.3000000026}},{"attributes":{"ID":163387,"DIS_CODE":0,"TOWNNAME":"安定區","LI":"港口里","LIN":"18鄰","STREET":" ","SECT":" ","MAREA":"港口","LANE":" ","ALLEY":" ","HOUSE_NO":"３８２號之２","E_COORD97":171417.45999999999,"N_COORD97":2555034.2999999998,"ADDRESS":"港口３８２號之２","OBJECTID":163386},"geometry":{"x":171417.46000000183,"y":2555034.3000000007}},{"attributes":{"ID":163388,"DIS_CODE":0,"TOWNNAME":"安定區","LI":"海寮里","LIN":"18鄰","STREET":" ","SECT":" ","MAREA":"海寮","LANE":" ","ALLEY":" ","HOUSE_NO":"１７３之７號","E_COORD97":169365.14000000001,"N_COORD97":2555519.2999999998,"ADDRESS":"海寮１７３之７號","OBJECTID":163387},"geometry":{"x":169365.1400000006,"y":2555519.3000000007}},{"attributes":{"ID":163389,"DIS_CODE":0,"TOWNNAME":"安定區","LI":"海寮里","LIN":"18鄰","STREET":" ","SECT":" ","MAREA":"海寮","LANE":" ","ALLEY":" ","HOUSE_NO":"１７３之９號","E_COORD97":169364.54000000001,"N_COORD97":2555496.2999999998,"ADDRESS":"海寮１７３之９號","OBJECTID":163388},"geometry":{"x":169364.54000000097,"y":2555496.3000000045}},{"attributes":{"ID":163390,"DIS_CODE":0,"TOWNNAME":"安定區","LI":"海寮里","LIN":"18鄰","STREET":" ","SECT":" ","MAREA":"海寮","LANE":" ","ALLEY":" ","HOUSE_NO":"１８０號之４","E_COORD97":169417.39999999999,"N_COORD97":2555483.2999999998,"ADDRESS":"海寮１８０號之４","OBJECTID":163389},"geometry":{"x":169417.40000000037,"y":2555483.3000000026}},{"attributes":{"ID":163391,"DIS_CODE":0,"TOWNNAME":"安定區","LI":"海寮里","LIN":"18鄰","STREET":" ","SECT":" ","MAREA":"海寮","LANE":" ","ALLEY":" ","HOUSE_NO":"１７７之３號","E_COORD97":169380.28,"N_COORD97":2555448.2999999998,"ADDRESS":"海寮１７７號之３","OBJECTID":163390},"geometry":{"x":169380.28000000119,"y":2555448.3000000007}},{"attributes":{"ID":163392,"DIS_CODE":0,"TOWNNAME":"東區","LI":"崇善里","LIN":"12鄰","STREET":"崇善九街","SECT":" ","MAREA":" ","LANE":" ","ALLEY":" ","HOUSE_NO":"２１號","E_COORD97":171142.35000000001,"N_COORD97":2541346.79,"ADDRESS":"崇善九街２１號","OBJECTID":163391},"geometry":{"x":171142.35000000056,"y":2541346.790000001}},{"attributes":{"ID":163393,"DIS_CODE":0,"TOWNNAME":"東區","LI":"崇善里","LIN":"12鄰","STREET":"崇善九街","SECT":" ","MAREA":" ","LANE":" ","ALLEY":" ","HOUSE_NO":"２３號","E_COORD97":171148.35999999999,"N_COORD97":2541349.2999999998,"ADDRESS":"崇善九街２３號","OBJECTID":163392},"geometry":{"x":171148.36000000034,"y":2541349.3000000026}},{"attributes":{"ID":163394,"DIS_CODE":0,"TOWNNAME":"東區","LI":"崇善里","LIN":"12鄰","STREET":"崇善九街","SECT":" ","MAREA":" ","LANE":" ","ALLEY":" ","HOUSE_NO":"２５號","E_COORD97":171152.87,"N_COORD97":2541350.6299999999,"ADDRESS":"崇善九街２５號","OBJECTID":163393},"geometry":{"x":171152.87000000104,"y":2541350.6300000027}},{"attributes":{"ID":163395,"DIS_CODE":0,"TOWNNAME":"仁德區","LI":"太子里","LIN":"26鄰","STREET":"長興五街","SECT":" ","MAREA":" ","LANE":"１４巷","ALLEY":"２弄","HOUSE_NO":"５號","E_COORD97":173628.53,"N_COORD97":2543574.25,"ADDRESS":"長興五街１４巷２弄５號","OBJECTID":163394},"geometry":{"x":173628.53000000119,"y":2543574.25}},{"attributes":{"ID":163396,"DIS_CODE":0,"TOWNNAME":"仁德區","LI":"後壁里","LIN":"32鄰","STREET":"德洋路","SECT":" ","MAREA":" ","LANE":"２０５巷","ALLEY":"３０弄","HOUSE_NO":"８號","E_COORD97":172426.51000000001,"N_COORD97":2539541.2599999998,"ADDRESS":"德洋路２０５巷３０弄８號","OBJECTID":163395},"geometry":{"x":172426.50999999978,"y":2539541.2600000016}},{"attributes":{"ID":163397,"DIS_CODE":0,"TOWNNAME":"新化區","LI":"全興里","LIN":"18鄰","STREET":" ","SECT":" ","MAREA":"竹子\u25A0","LANE":" ","ALLEY":" ","HOUSE_NO":"２４７號之８８","E_COORD97":178420.94,"N_COORD97":2546759.2599999998,"ADDRESS":"竹子\u25A0２４７號之８８","OBJECTID":163396},"geometry":{"x":178420.94000000227,"y":2546759.2600000016}},{"attributes":{"ID":163398,"DIS_CODE":0,"TOWNNAME":"新化區","LI":"全興里","LIN":"18鄰","STREET":" ","SECT":" ","MAREA":"竹子\u25A0","LANE":" ","ALLEY":" ","HOUSE_NO":"２４７號之８６","E_COORD97":178411.73000000001,"N_COORD97":2546759.2599999998,"ADDRESS":"竹子\u25A0２４７號之８６","OBJECTID":163397},"geometry":{"x":178411.73000000045,"y":2546759.2600000016}},{"attributes":{"ID":163399,"DIS_CODE":0,"TOWNNAME":"新化區","LI":"全興里","LIN":"18鄰","STREET":" ","SECT":" ","MAREA":"竹子\u25A0","LANE":" ","ALLEY":" ","HOUSE_NO":"２４７號之２２５","E_COORD97":178374.98999999999,"N_COORD97":2546743.2599999998,"ADDRESS":"竹子\u25A0２４７號之２２５","OBJECTID":163398},"geometry":{"x":178374.99000000115,"y":2546743.2599999998}},{"attributes":{"ID":163400,"DIS_CODE":0,"TOWNNAME":"新化區","LI":"全興里","LIN":"18鄰","STREET":" ","SECT":" ","MAREA":"竹子\u25A0","LANE":" ","ALLEY":" ","HOUSE_NO":"２４７號之９６","E_COORD97":178495.03,"N_COORD97":2546755.2599999998,"ADDRESS":"竹子\u25A0２４７號之９６","OBJECTID":163399},"geometry":{"x":178495.03000000119,"y":2546755.2600000016}},{"attributes":{"ID":163401,"DIS_CODE":0,"TOWNNAME":"新化區","LI":"全興里","LIN":"18鄰","STREET":" ","SECT":" ","MAREA":"竹子\u25A0","LANE":" ","ALLEY":" ","HOUSE_NO":"２４７號之９８","E_COORD97":178504.34,"N_COORD97":2546755.2599999998,"ADDRESS":"竹子\u25A0２４７號之９８","OBJECTID":163400},"geometry":{"x":178504.34000000078,"y":2546755.2600000016}}]}