{"displayFieldName":"TOWNNAME","fieldAliases":{"ID":"ID","DIS_CODE":"DIS_CODE","TOWNNAME":"TOWNNAME","LI":"LI","LIN":"LIN","STREET":"STREET","SECT":"SECT","MAREA":"MAREA","LANE":"LANE","ALLEY":"ALLEY","HOUSE_NO":"HOUSE_NO","E_COORD97":"E_COORD97","N_COORD97":"N_COORD97","ADDRESS":"ADDRESS","OBJECTID":"OBJECTID"},"geometryType":"esriGeometryPoint","spatialReference":{"wkid":102443,"latestWkid":3826},"fields":[{"name":"ID","type":"esriFieldTypeDouble","alias":"ID"},{"name":"DIS_CODE","type":"esriFieldTypeInteger","alias":"DIS_CODE"},{"name":"TOWNNAME","type":"esriFieldTypeString","alias":"TOWNNAME","length":8},{"name":"LI","type":"esriFieldTypeString","alias":"LI","length":8},{"name":"LIN","type":"esriFieldTypeString","alias":"LIN","length":12},{"name":"STREET","type":"esriFieldTypeString","alias":"STREET","length":20},{"name":"SECT","type":"esriFieldTypeString","alias":"SECT","length":8},{"name":"MAREA","type":"esriFieldTypeString","alias":"MAREA","length":12},{"name":"LANE","type":"esriFieldTypeString","alias":"LANE","length":10},{"name":"ALLEY","type":"esriFieldTypeString","alias":"ALLEY","length":10},{"name":"HOUSE_NO","type":"esriFieldTypeString","alias":"HOUSE_NO","length":20},{"name":"E_COORD97","type":"esriFieldTypeDouble","alias":"E_COORD97"},{"name":"N_COORD97","type":"esriFieldTypeDouble","alias":"N_COORD97"},{"name":"ADDRESS","type":"esriFieldTypeString","alias":"ADDRESS","length":50},{"name":"OBJECTID","type":"esriFieldTypeOID","alias":"OBJECTID"}],"features":[{"attributes":{"ID":128001,"DIS_CODE":0,"TOWNNAME":"中西區","LI":"郡西里","LIN":"6鄰","STREET":"大勇街","SECT":" ","MAREA":" ","LANE":" ","ALLEY":" ","HOUSE_NO":"５５號","E_COORD97":167358.23000000001,"N_COORD97":2543366.1299999999,"ADDRESS":"大勇街５５號","OBJECTID":128001},"geometry":{"x":167358.23000000138,"y":2543366.1300000008}},{"attributes":{"ID":128002,"DIS_CODE":0,"TOWNNAME":"中西區","LI":"郡西里","LIN":"6鄰","STREET":"大勇街","SECT":" ","MAREA":" ","LANE":" ","ALLEY":" ","HOUSE_NO":"５７號","E_COORD97":167351.85999999999,"N_COORD97":2543367.6400000001,"ADDRESS":"大勇街５７號","OBJECTID":128002},"geometry":{"x":167351.8600000022,"y":2543367.6400000025}},{"attributes":{"ID":128003,"DIS_CODE":0,"TOWNNAME":"中西區","LI":"郡西里","LIN":"6鄰","STREET":"大勇街","SECT":" ","MAREA":" ","LANE":" ","ALLEY":" ","HOUSE_NO":"５９號","E_COORD97":167347.94,"N_COORD97":2543368.1800000002,"ADDRESS":"大勇街５９號","OBJECTID":128003},"geometry":{"x":167347.94000000227,"y":2543368.1799999978}},{"attributes":{"ID":128004,"DIS_CODE":0,"TOWNNAME":"中西區","LI":"郡西里","LIN":"6鄰","STREET":"大勇街","SECT":" ","MAREA":" ","LANE":" ","ALLEY":" ","HOUSE_NO":"６１號","E_COORD97":167344.54999999999,"N_COORD97":2543368.71,"ADDRESS":"大勇街６１號","OBJECTID":128004},"geometry":{"x":167344.54999999981,"y":2543368.7100000009}},{"attributes":{"ID":128005,"DIS_CODE":0,"TOWNNAME":"中西區","LI":"郡西里","LIN":"6鄰","STREET":"大勇街","SECT":" ","MAREA":" ","LANE":" ","ALLEY":" ","HOUSE_NO":"６３號","E_COORD97":167339.73999999999,"N_COORD97":2543369.5099999998,"ADDRESS":"大勇街６３號","OBJECTID":128005},"geometry":{"x":167339.74000000022,"y":2543369.5100000035}},{"attributes":{"ID":128006,"DIS_CODE":0,"TOWNNAME":"白河區","LI":"汴頭里","LIN":"4鄰","STREET":" ","SECT":" ","MAREA":"林子內","LANE":" ","ALLEY":" ","HOUSE_NO":"４０之２號","E_COORD97":194852.57000000001,"N_COORD97":2585124.1699999999,"ADDRESS":"林子內４０之２號","OBJECTID":128006},"geometry":{"x":194852.5700000003,"y":2585124.1699999999}},{"attributes":{"ID":128007,"DIS_CODE":0,"TOWNNAME":"白河區","LI":"汴頭里","LIN":"4鄰","STREET":" ","SECT":" ","MAREA":"林子內","LANE":" ","ALLEY":" ","HOUSE_NO":"４０之６號","E_COORD97":194798.20000000001,"N_COORD97":2585189.3100000001,"ADDRESS":"林子內４０之６號","OBJECTID":128007},"geometry":{"x":194798.20000000112,"y":2585189.3100000024}},{"attributes":{"ID":128008,"DIS_CODE":0,"TOWNNAME":"白河區","LI":"汴頭里","LIN":"1鄰","STREET":" ","SECT":" ","MAREA":"林子內","LANE":" ","ALLEY":" ","HOUSE_NO":"６號","E_COORD97":195152.19,"N_COORD97":2584478.0099999998,"ADDRESS":"林子內６號","OBJECTID":128008},"geometry":{"x":195152.19000000041,"y":2584478.0100000035}},{"attributes":{"ID":128009,"DIS_CODE":0,"TOWNNAME":"白河區","LI":"汴頭里","LIN":"1鄰","STREET":" ","SECT":" ","MAREA":"林子內","LANE":" ","ALLEY":" ","HOUSE_NO":"７之２號","E_COORD97":195163.01999999999,"N_COORD97":2584507.9100000001,"ADDRESS":"林子內７之２號","OBJECTID":128009},"geometry":{"x":195163.02000000048,"y":2584507.9100000001}},{"attributes":{"ID":128010,"DIS_CODE":0,"TOWNNAME":"白河區","LI":"汴頭里","LIN":"1鄰","STREET":" ","SECT":" ","MAREA":"林子內","LANE":" ","ALLEY":" ","HOUSE_NO":"７之５號","E_COORD97":195138,"N_COORD97":2584447.3700000001,"ADDRESS":"林子內７之５號","OBJECTID":128010},"geometry":{"x":195138.00000000186,"y":2584447.3700000029}},{"attributes":{"ID":128011,"DIS_CODE":0,"TOWNNAME":"白河區","LI":"汴頭里","LIN":"1鄰","STREET":" ","SECT":" ","MAREA":"林子內","LANE":" ","ALLEY":" ","HOUSE_NO":"７號","E_COORD97":195160.04000000001,"N_COORD97":2584519.8399999999,"ADDRESS":"林子內７號","OBJECTID":128011},"geometry":{"x":195160.04000000097,"y":2584519.8400000036}},{"attributes":{"ID":128012,"DIS_CODE":0,"TOWNNAME":"白河區","LI":"汴頭里","LIN":"1鄰","STREET":" ","SECT":" ","MAREA":"林子內","LANE":" ","ALLEY":" ","HOUSE_NO":"８之１號","E_COORD97":195068.13,"N_COORD97":2584536.5600000001,"ADDRESS":"林子內８之１號","OBJECTID":128012},"geometry":{"x":195068.13000000082,"y":2584536.5600000024}},{"attributes":{"ID":128013,"DIS_CODE":0,"TOWNNAME":"白河區","LI":"汴頭里","LIN":"1鄰","STREET":" ","SECT":" ","MAREA":"林子內","LANE":" ","ALLEY":" ","HOUSE_NO":"８之２號","E_COORD97":195039.53,"N_COORD97":2584532.23,"ADDRESS":"林子內８之２號","OBJECTID":128013},"geometry":{"x":195039.53000000026,"y":2584532.2300000023}},{"attributes":{"ID":128014,"DIS_CODE":0,"TOWNNAME":"白河區","LI":"汴頭里","LIN":"1鄰","STREET":" ","SECT":" ","MAREA":"林子內","LANE":" ","ALLEY":" ","HOUSE_NO":"８號","E_COORD97":195097.76000000001,"N_COORD97":2584518.8799999999,"ADDRESS":"林子內８號","OBJECTID":128014},"geometry":{"x":195097.76000000071,"y":2584518.8800000027}},{"attributes":{"ID":128015,"DIS_CODE":0,"TOWNNAME":"白河區","LI":"汴頭里","LIN":"1鄰","STREET":" ","SECT":" ","MAREA":"林子內","LANE":" ","ALLEY":" ","HOUSE_NO":"９號","E_COORD97":195080.81,"N_COORD97":2584705.4199999999,"ADDRESS":"林子內９號","OBJECTID":128015},"geometry":{"x":195080.80999999959,"y":2584705.4199999999}},{"attributes":{"ID":128016,"DIS_CODE":0,"TOWNNAME":"白河區","LI":"仙草里","LIN":"11鄰","STREET":" ","SECT":" ","MAREA":"羌仔崙","LANE":" ","ALLEY":" ","HOUSE_NO":"１０號","E_COORD97":197902.81,"N_COORD97":2582632.0600000001,"ADDRESS":"羌仔崙１０號","OBJECTID":128016},"geometry":{"x":197902.81000000052,"y":2582632.0600000024}},{"attributes":{"ID":128017,"DIS_CODE":0,"TOWNNAME":"白河區","LI":"仙草里","LIN":"11鄰","STREET":" ","SECT":" ","MAREA":"羌仔崙","LANE":" ","ALLEY":" ","HOUSE_NO":"１３號","E_COORD97":198049.57000000001,"N_COORD97":2582603.7000000002,"ADDRESS":"羌仔崙１３號","OBJECTID":128017},"geometry":{"x":198049.5700000003,"y":2582603.6999999993}},{"attributes":{"ID":128018,"DIS_CODE":0,"TOWNNAME":"白河區","LI":"仙草里","LIN":"11鄰","STREET":" ","SECT":" ","MAREA":"羌仔崙","LANE":" ","ALLEY":" ","HOUSE_NO":"１５號","E_COORD97":198140.98999999999,"N_COORD97":2582624.3399999999,"ADDRESS":"羌仔崙１５號","OBJECTID":128018},"geometry":{"x":198140.99000000115,"y":2582624.3399999999}},{"attributes":{"ID":128019,"DIS_CODE":0,"TOWNNAME":"白河區","LI":"仙草里","LIN":"11鄰","STREET":" ","SECT":" ","MAREA":"羌仔崙","LANE":" ","ALLEY":" ","HOUSE_NO":"１６號","E_COORD97":198157.57000000001,"N_COORD97":2582662.9199999999,"ADDRESS":"羌仔崙１６號","OBJECTID":128019},"geometry":{"x":198157.57000000123,"y":2582662.9200000018}},{"attributes":{"ID":128020,"DIS_CODE":0,"TOWNNAME":"白河區","LI":"仙草里","LIN":"11鄰","STREET":" ","SECT":" ","MAREA":"羌仔崙","LANE":" ","ALLEY":" ","HOUSE_NO":"１７號","E_COORD97":198111.45000000001,"N_COORD97":2582696.6000000001,"ADDRESS":"羌仔崙１７號","OBJECTID":128020},"geometry":{"x":198111.45000000019,"y":2582696.5999999996}},{"attributes":{"ID":128021,"DIS_CODE":0,"TOWNNAME":"白河區","LI":"仙草里","LIN":"11鄰","STREET":" ","SECT":" ","MAREA":"羌仔崙","LANE":" ","ALLEY":" ","HOUSE_NO":"１９號","E_COORD97":198224.95999999999,"N_COORD97":2582524.0899999999,"ADDRESS":"羌仔崙１９號","OBJECTID":128021},"geometry":{"x":198224.95999999996,"y":2582524.0899999999}},{"attributes":{"ID":128022,"DIS_CODE":0,"TOWNNAME":"白河區","LI":"仙草里","LIN":"11鄰","STREET":" ","SECT":" ","MAREA":"羌仔崙","LANE":" ","ALLEY":" ","HOUSE_NO":"２７號","E_COORD97":198543.85000000001,"N_COORD97":2582603.73,"ADDRESS":"羌仔崙２７號","OBJECTID":128022},"geometry":{"x":198543.84999999963,"y":2582603.7300000023}},{"attributes":{"ID":128023,"DIS_CODE":0,"TOWNNAME":"白河區","LI":"仙草里","LIN":"11鄰","STREET":" ","SECT":" ","MAREA":"羌仔崙","LANE":" ","ALLEY":" ","HOUSE_NO":"２８號","E_COORD97":198624.64000000001,"N_COORD97":2582711.8599999999,"ADDRESS":"羌仔崙２８號","OBJECTID":128023},"geometry":{"x":198624.63999999966,"y":2582711.8599999994}},{"attributes":{"ID":128024,"DIS_CODE":0,"TOWNNAME":"白河區","LI":"仙草里","LIN":"11鄰","STREET":" ","SECT":" ","MAREA":"羌仔崙","LANE":" ","ALLEY":" ","HOUSE_NO":"２９號","E_COORD97":198667.04000000001,"N_COORD97":2582723.9900000002,"ADDRESS":"羌仔崙２９號","OBJECTID":128024},"geometry":{"x":198667.03999999911,"y":2582723.9900000021}},{"attributes":{"ID":128025,"DIS_CODE":0,"TOWNNAME":"白河區","LI":"仙草里","LIN":"11鄰","STREET":" ","SECT":" ","MAREA":"羌仔崙","LANE":" ","ALLEY":" ","HOUSE_NO":"２號","E_COORD97":197475.81,"N_COORD97":2582604.6200000001,"ADDRESS":"羌仔崙２號","OBJECTID":128025},"geometry":{"x":197475.80999999959,"y":2582604.6200000029}},{"attributes":{"ID":128026,"DIS_CODE":0,"TOWNNAME":"北區","LI":"力行里","LIN":"11鄰","STREET":"開南街","SECT":" ","MAREA":" ","LANE":"２７５巷","ALLEY":"２２弄","HOUSE_NO":"２５號","E_COORD97":171051.98999999999,"N_COORD97":2545237.4399999999,"ADDRESS":"開南街２７５巷２２弄２５號","OBJECTID":128026},"geometry":{"x":171051.99000000115,"y":2545237.4399999995}},{"attributes":{"ID":128027,"DIS_CODE":0,"TOWNNAME":"北區","LI":"力行里","LIN":"11鄰","STREET":"開南街","SECT":" ","MAREA":" ","LANE":"２７５巷","ALLEY":"２２弄","HOUSE_NO":"２６號","E_COORD97":171054.35999999999,"N_COORD97":2545247.8199999998,"ADDRESS":"開南街２７５巷２２弄２６號","OBJECTID":128027},"geometry":{"x":171054.36000000127,"y":2545247.8200000022}},{"attributes":{"ID":128028,"DIS_CODE":0,"TOWNNAME":"北區","LI":"力行里","LIN":"11鄰","STREET":"開南街","SECT":" ","MAREA":" ","LANE":"２７５巷","ALLEY":"２２弄","HOUSE_NO":"２７號","E_COORD97":171057.63,"N_COORD97":2545236.3999999999,"ADDRESS":"開南街２７５巷２２弄２７號","OBJECTID":128028},"geometry":{"x":171057.63000000082,"y":2545236.4000000022}},{"attributes":{"ID":128029,"DIS_CODE":0,"TOWNNAME":"北區","LI":"力行里","LIN":"11鄰","STREET":"開南街","SECT":" ","MAREA":" ","LANE":"２７５巷","ALLEY":"２２弄","HOUSE_NO":"２號","E_COORD97":170998.10999999999,"N_COORD97":2545249.8900000001,"ADDRESS":"開南街２７５巷２２弄２號","OBJECTID":128029},"geometry":{"x":170998.1100000022,"y":2545249.8900000025}},{"attributes":{"ID":128030,"DIS_CODE":0,"TOWNNAME":"北區","LI":"力行里","LIN":"11鄰","STREET":"開南街","SECT":" ","MAREA":" ","LANE":"２７５巷","ALLEY":"２２弄","HOUSE_NO":"３號","E_COORD97":171001.97,"N_COORD97":2545240.4100000001,"ADDRESS":"開南街２７５巷２２弄３號","OBJECTID":128030},"geometry":{"x":171001.97000000067,"y":2545240.410000002}},{"attributes":{"ID":128031,"DIS_CODE":0,"TOWNNAME":"北區","LI":"力行里","LIN":"11鄰","STREET":"開南街","SECT":" ","MAREA":" ","LANE":"２７５巷","ALLEY":"２２弄","HOUSE_NO":"４號","E_COORD97":171002.72,"N_COORD97":2545249.6000000001,"ADDRESS":"開南街２７５巷２２弄４號","OBJECTID":128031},"geometry":{"x":171002.71999999974,"y":2545249.5999999996}},{"attributes":{"ID":128032,"DIS_CODE":0,"TOWNNAME":"北區","LI":"力行里","LIN":"11鄰","STREET":"開南街","SECT":" ","MAREA":" ","LANE":"２７５巷","ALLEY":"２２弄","HOUSE_NO":"５號","E_COORD97":171006.72,"N_COORD97":2545240.2599999998,"ADDRESS":"開南街２７５巷２２弄５號","OBJECTID":128032},"geometry":{"x":171006.71999999974,"y":2545240.2600000016}},{"attributes":{"ID":128033,"DIS_CODE":0,"TOWNNAME":"中西區","LI":"郡西里","LIN":"6鄰","STREET":"大勇街","SECT":" ","MAREA":" ","LANE":" ","ALLEY":" ","HOUSE_NO":"６７號","E_COORD97":167331.35999999999,"N_COORD97":2543371.2999999998,"ADDRESS":"大勇街６７號","OBJECTID":128033},"geometry":{"x":167331.3600000022,"y":2543371.3000000007}},{"attributes":{"ID":128034,"DIS_CODE":0,"TOWNNAME":"白河區","LI":"仙草里","LIN":"11鄰","STREET":" ","SECT":" ","MAREA":"羌仔崙","LANE":" ","ALLEY":" ","HOUSE_NO":"６號","E_COORD97":197725.14999999999,"N_COORD97":2582652.75,"ADDRESS":"羌仔崙６號","OBJECTID":128034},"geometry":{"x":197725.15000000037,"y":2582652.7500000037}},{"attributes":{"ID":128035,"DIS_CODE":0,"TOWNNAME":"白河區","LI":"關嶺里","LIN":"8鄰","STREET":" ","SECT":" ","MAREA":"南寮","LANE":" ","ALLEY":" ","HOUSE_NO":"３號","E_COORD97":198934.57000000001,"N_COORD97":2580300.46,"ADDRESS":"南寮３號","OBJECTID":128035},"geometry":{"x":198934.5700000003,"y":2580300.4600000028}},{"attributes":{"ID":128036,"DIS_CODE":0,"TOWNNAME":"白河區","LI":"關嶺里","LIN":"8鄰","STREET":" ","SECT":" ","MAREA":"南寮","LANE":" ","ALLEY":" ","HOUSE_NO":"７號","E_COORD97":198732.67999999999,"N_COORD97":2580328.77,"ADDRESS":"南寮７號","OBJECTID":128036},"geometry":{"x":198732.68000000063,"y":2580328.7699999996}},{"attributes":{"ID":128037,"DIS_CODE":0,"TOWNNAME":"白河區","LI":"庄內里","LIN":"4鄰","STREET":" ","SECT":" ","MAREA":"客庄內","LANE":" ","ALLEY":" ","HOUSE_NO":"４１號","E_COORD97":190899.04000000001,"N_COORD97":2583435.8599999999,"ADDRESS":"客庄內４１號","OBJECTID":128037},"geometry":{"x":190899.04000000004,"y":2583435.8600000013}},{"attributes":{"ID":128038,"DIS_CODE":0,"TOWNNAME":"北區","LI":"力行里","LIN":"11鄰","STREET":"開南街","SECT":" ","MAREA":" ","LANE":"２７５巷","ALLEY":"２２弄","HOUSE_NO":"６號","E_COORD97":171007.47,"N_COORD97":2545249.1499999999,"ADDRESS":"開南街２７５巷２２弄６號","OBJECTID":128038},"geometry":{"x":171007.47000000067,"y":2545249.1500000022}},{"attributes":{"ID":128039,"DIS_CODE":0,"TOWNNAME":"北區","LI":"力行里","LIN":"11鄰","STREET":"開南街","SECT":" ","MAREA":" ","LANE":"２７５巷","ALLEY":"２２弄","HOUSE_NO":"７號","E_COORD97":171011.47,"N_COORD97":2545239.96,"ADDRESS":"開南街２７５巷２２弄７號","OBJECTID":128039},"geometry":{"x":171011.46999999974,"y":2545239.9600000028}},{"attributes":{"ID":128040,"DIS_CODE":0,"TOWNNAME":"北區","LI":"力行里","LIN":"11鄰","STREET":"開南街","SECT":" ","MAREA":" ","LANE":"２７５巷","ALLEY":"２２弄","HOUSE_NO":"８號","E_COORD97":171011.47,"N_COORD97":2545249,"ADDRESS":"開南街２７５巷２２弄８號","OBJECTID":128040},"geometry":{"x":171011.46999999974,"y":2545249.0000000019}},{"attributes":{"ID":128041,"DIS_CODE":0,"TOWNNAME":"北區","LI":"力行里","LIN":"11鄰","STREET":"開南街","SECT":" ","MAREA":" ","LANE":"２７５巷","ALLEY":"２２弄","HOUSE_NO":"９號","E_COORD97":171015.32999999999,"N_COORD97":2545239.6699999999,"ADDRESS":"開南街２７５巷２２弄９號","OBJECTID":128041},"geometry":{"x":171015.33000000101,"y":2545239.6699999999}},{"attributes":{"ID":128042,"DIS_CODE":0,"TOWNNAME":"北區","LI":"力行里","LIN":"11鄰","STREET":"開南街","SECT":" ","MAREA":" ","LANE":"２７５巷","ALLEY":"２４弄","HOUSE_NO":"１０號","E_COORD97":171036.10999999999,"N_COORD97":2545279.6800000002,"ADDRESS":"開南街２７５巷２４弄１０號","OBJECTID":128042},"geometry":{"x":171036.11000000127,"y":2545279.6799999997}},{"attributes":{"ID":128043,"DIS_CODE":0,"TOWNNAME":"北區","LI":"力行里","LIN":"11鄰","STREET":"開南街","SECT":" ","MAREA":" ","LANE":"２７５巷","ALLEY":"２４弄","HOUSE_NO":"１１號","E_COORD97":171022.89999999999,"N_COORD97":2545269.8999999999,"ADDRESS":"開南街２７５巷２４弄１１號","OBJECTID":128043},"geometry":{"x":171022.90000000037,"y":2545269.9000000022}},{"attributes":{"ID":128044,"DIS_CODE":0,"TOWNNAME":"北區","LI":"力行里","LIN":"11鄰","STREET":"開南街","SECT":" ","MAREA":" ","LANE":"２７５巷","ALLEY":"２４弄","HOUSE_NO":"１２號","E_COORD97":171040.12,"N_COORD97":2545279.54,"ADDRESS":"開南街２７５巷２４弄１２號","OBJECTID":128044},"geometry":{"x":171040.12000000197,"y":2545279.5399999991}},{"attributes":{"ID":128045,"DIS_CODE":0,"TOWNNAME":"新市區","LI":"港墘里","LIN":"6鄰","STREET":"國際路","SECT":" ","MAREA":" ","LANE":" ","ALLEY":" ","HOUSE_NO":"８號","E_COORD97":178307.84,"N_COORD97":2553177.75,"ADDRESS":"國際路８號","OBJECTID":128045},"geometry":{"x":178307.84000000078,"y":2553177.7500000019}},{"attributes":{"ID":128046,"DIS_CODE":0,"TOWNNAME":"新市區","LI":"新和里","LIN":"6鄰","STREET":"富強路","SECT":" ","MAREA":" ","LANE":" ","ALLEY":" ","HOUSE_NO":"３７號","E_COORD97":177307.45999999999,"N_COORD97":2552432.75,"ADDRESS":"富強路３７號","OBJECTID":128046},"geometry":{"x":177307.45999999996,"y":2552432.75}},{"attributes":{"ID":128047,"DIS_CODE":0,"TOWNNAME":"北區","LI":"力行里","LIN":"11鄰","STREET":"開南街","SECT":" ","MAREA":" ","LANE":"２７５巷","ALLEY":"２４弄","HOUSE_NO":"１３號","E_COORD97":171028.10000000001,"N_COORD97":2545269.3100000001,"ADDRESS":"開南街２７５巷２４弄１３號","OBJECTID":128047},"geometry":{"x":171028.10000000056,"y":2545269.3100000005}},{"attributes":{"ID":128048,"DIS_CODE":0,"TOWNNAME":"北區","LI":"力行里","LIN":"11鄰","STREET":"開南街","SECT":" ","MAREA":" ","LANE":"２７５巷","ALLEY":"２４弄","HOUSE_NO":"１４號","E_COORD97":171044.57000000001,"N_COORD97":2545279.3900000001,"ADDRESS":"開南街２７５巷２４弄１４號","OBJECTID":128048},"geometry":{"x":171044.57000000123,"y":2545279.3900000006}},{"attributes":{"ID":128049,"DIS_CODE":0,"TOWNNAME":"北區","LI":"力行里","LIN":"11鄰","STREET":"開南街","SECT":" ","MAREA":" ","LANE":"２７５巷","ALLEY":"２４弄","HOUSE_NO":"１５號","E_COORD97":171031.95000000001,"N_COORD97":2545269.3100000001,"ADDRESS":"開南街２７５巷２４弄１５號","OBJECTID":128049},"geometry":{"x":171031.95000000112,"y":2545269.3100000005}},{"attributes":{"ID":128050,"DIS_CODE":0,"TOWNNAME":"六甲區","LI":"中社里","LIN":"1鄰","STREET":" ","SECT":" ","MAREA":"中社","LANE":" ","ALLEY":" ","HOUSE_NO":"１４號","E_COORD97":181283.32000000001,"N_COORD97":2570817.2999999998,"ADDRESS":"中社１４號","OBJECTID":128050},"geometry":{"x":181283.32000000123,"y":2570817.3000000045}},{"attributes":{"ID":128051,"DIS_CODE":0,"TOWNNAME":"北區","LI":"力行里","LIN":"11鄰","STREET":"開南街","SECT":" ","MAREA":" ","LANE":"２７５巷","ALLEY":"２４弄","HOUSE_NO":"１６號","E_COORD97":171049.17000000001,"N_COORD97":2545279.54,"ADDRESS":"開南街２７５巷２４弄１６號","OBJECTID":128051},"geometry":{"x":171049.16999999993,"y":2545279.5399999991}},{"attributes":{"ID":128052,"DIS_CODE":0,"TOWNNAME":"北區","LI":"力行里","LIN":"11鄰","STREET":"開南街","SECT":" ","MAREA":" ","LANE":"２７５巷","ALLEY":"２４弄","HOUSE_NO":"１７號","E_COORD97":171036.54999999999,"N_COORD97":2545268.8599999999,"ADDRESS":"開南街２７５巷２４弄１７號","OBJECTID":128052},"geometry":{"x":171036.54999999981,"y":2545268.8600000031}},{"attributes":{"ID":128053,"DIS_CODE":0,"TOWNNAME":"北區","LI":"力行里","LIN":"11鄰","STREET":"開南街","SECT":" ","MAREA":" ","LANE":"２７５巷","ALLEY":"２４弄","HOUSE_NO":"１９號","E_COORD97":171041.45000000001,"N_COORD97":2545268.7200000002,"ADDRESS":"開南街２７５巷２４弄１９號","OBJECTID":128053},"geometry":{"x":171041.45000000205,"y":2545268.7200000025}},{"attributes":{"ID":128054,"DIS_CODE":0,"TOWNNAME":"新市區","LI":"新市里","LIN":"6鄰","STREET":"中興街","SECT":" ","MAREA":" ","LANE":" ","ALLEY":" ","HOUSE_NO":"９７號","E_COORD97":177574.57000000001,"N_COORD97":2553098.25,"ADDRESS":"中興街９７號","OBJECTID":128054},"geometry":{"x":177574.57000000123,"y":2553098.25}},{"attributes":{"ID":128055,"DIS_CODE":0,"TOWNNAME":"新市區","LI":"永就里","LIN":"6鄰","STREET":" ","SECT":" ","MAREA":"永就","LANE":" ","ALLEY":" ","HOUSE_NO":"６３號","E_COORD97":177701.60999999999,"N_COORD97":2551456.5,"ADDRESS":"永就６３號","OBJECTID":128055},"geometry":{"x":177701.61000000127,"y":2551456.5000000019}},{"attributes":{"ID":128056,"DIS_CODE":0,"TOWNNAME":"新市區","LI":"大營里","LIN":"6鄰","STREET":" ","SECT":" ","MAREA":"大營","LANE":" ","ALLEY":" ","HOUSE_NO":"８６號","E_COORD97":179596.23999999999,"N_COORD97":2555351.5,"ADDRESS":"大營８６號","OBJECTID":128056},"geometry":{"x":179596.24000000022,"y":2555351.5000000037}},{"attributes":{"ID":128057,"DIS_CODE":0,"TOWNNAME":"新市區","LI":"豐華里","LIN":"6鄰","STREET":" ","SECT":" ","MAREA":"豐華","LANE":" ","ALLEY":" ","HOUSE_NO":"５３之３號","E_COORD97":174867.92999999999,"N_COORD97":2554336.0499999998,"ADDRESS":"豐華５３之３號","OBJECTID":128057},"geometry":{"x":174867.9299999997,"y":2554336.0500000026}},{"attributes":{"ID":128058,"DIS_CODE":0,"TOWNNAME":"新市區","LI":"潭頂里","LIN":"6鄰","STREET":" ","SECT":" ","MAREA":"潭頂","LANE":" ","ALLEY":" ","HOUSE_NO":"２４９號","E_COORD97":180758.81,"N_COORD97":2552909.5,"ADDRESS":"潭頂２４９號","OBJECTID":128058},"geometry":{"x":180758.81000000052,"y":2552909.5}},{"attributes":{"ID":128059,"DIS_CODE":0,"TOWNNAME":"北門區","LI":"仁里里","LIN":"6鄰","STREET":" ","SECT":" ","MAREA":"二重港","LANE":" ","ALLEY":" ","HOUSE_NO":"１０８號","E_COORD97":161434.37,"N_COORD97":2571294.2200000002,"ADDRESS":"二重港１０８號","OBJECTID":128059},"geometry":{"x":161434.37000000104,"y":2571294.2200000007}},{"attributes":{"ID":128060,"DIS_CODE":0,"TOWNNAME":"北門區","LI":"仁里里","LIN":"6鄰","STREET":" ","SECT":" ","MAREA":"二重港","LANE":" ","ALLEY":" ","HOUSE_NO":"１１３號","E_COORD97":161320.79999999999,"N_COORD97":2571285.5899999999,"ADDRESS":"二重港１１３號","OBJECTID":128060},"geometry":{"x":161320.80000000075,"y":2571285.5900000036}},{"attributes":{"ID":128061,"DIS_CODE":0,"TOWNNAME":"北門區","LI":"仁里里","LIN":"6鄰","STREET":" ","SECT":" ","MAREA":"二重港","LANE":" ","ALLEY":" ","HOUSE_NO":"１１４號","E_COORD97":161317.37,"N_COORD97":2571285.77,"ADDRESS":"二重港１１４號","OBJECTID":128061},"geometry":{"x":161317.37000000104,"y":2571285.7699999996}},{"attributes":{"ID":128062,"DIS_CODE":0,"TOWNNAME":"北門區","LI":"保吉里","LIN":"6鄰","STREET":" ","SECT":" ","MAREA":"蚵寮","LANE":" ","ALLEY":" ","HOUSE_NO":"１８３號","E_COORD97":161581.66,"N_COORD97":2576085.5899999999,"ADDRESS":"蚵寮１８３號","OBJECTID":128062},"geometry":{"x":161581.66000000015,"y":2576085.5899999999}},{"attributes":{"ID":128063,"DIS_CODE":0,"TOWNNAME":"北門區","LI":"保吉里","LIN":"6鄰","STREET":" ","SECT":" ","MAREA":"蚵寮","LANE":" ","ALLEY":" ","HOUSE_NO":"１８６號","E_COORD97":161588.88,"N_COORD97":2576072.25,"ADDRESS":"蚵寮１８６號","OBJECTID":128063},"geometry":{"x":161588.87999999989,"y":2576072.2500000019}},{"attributes":{"ID":128064,"DIS_CODE":0,"TOWNNAME":"新市區","LI":"大洲里","LIN":"6鄰","STREET":" ","SECT":" ","MAREA":"大洲","LANE":" ","ALLEY":" ","HOUSE_NO":"５２號之２","E_COORD97":174115.73000000001,"N_COORD97":2552258.0499999998,"ADDRESS":"大洲５２號之２","OBJECTID":128064},"geometry":{"x":174115.73000000045,"y":2552258.0500000026}},{"attributes":{"ID":128065,"DIS_CODE":0,"TOWNNAME":"新市區","LI":"大洲里","LIN":"6鄰","STREET":" ","SECT":" ","MAREA":"大洲","LANE":" ","ALLEY":" ","HOUSE_NO":"５３號","E_COORD97":174102.26000000001,"N_COORD97":2552268.25,"ADDRESS":"大洲５３號","OBJECTID":128065},"geometry":{"x":174102.26000000071,"y":2552268.2500000019}},{"attributes":{"ID":128066,"DIS_CODE":0,"TOWNNAME":"新市區","LI":"三舍里","LIN":"6鄰","STREET":" ","SECT":" ","MAREA":"三舍","LANE":" ","ALLEY":" ","HOUSE_NO":"１４５號","E_COORD97":177772.14000000001,"N_COORD97":2554492.75,"ADDRESS":"三舍１４５號","OBJECTID":128066},"geometry":{"x":177772.13999999966,"y":2554492.7500000019}},{"attributes":{"ID":128067,"DIS_CODE":0,"TOWNNAME":"新市區","LI":"大營里","LIN":"6鄰","STREET":" ","SECT":" ","MAREA":"大營","LANE":" ","ALLEY":" ","HOUSE_NO":"１０９號","E_COORD97":179698.38,"N_COORD97":2555120.25,"ADDRESS":"大營１０９號","OBJECTID":128067},"geometry":{"x":179698.37999999989,"y":2555120.2500000019}},{"attributes":{"ID":128068,"DIS_CODE":0,"TOWNNAME":"新市區","LI":"大營里","LIN":"6鄰","STREET":" ","SECT":" ","MAREA":"大營","LANE":" ","ALLEY":" ","HOUSE_NO":"１２９之２號","E_COORD97":179265.63,"N_COORD97":2554668.0499999998,"ADDRESS":"大營１２９之２號","OBJECTID":128068},"geometry":{"x":179265.63000000082,"y":2554668.0500000026}},{"attributes":{"ID":128069,"DIS_CODE":0,"TOWNNAME":"新市區","LI":"大社里","LIN":"6鄰","STREET":" ","SECT":" ","MAREA":"大社","LANE":" ","ALLEY":" ","HOUSE_NO":"２５０之２號","E_COORD97":180224.37,"N_COORD97":2554460.5499999998,"ADDRESS":"大社２５０之２號","OBJECTID":128069},"geometry":{"x":180224.37000000011,"y":2554460.5500000045}},{"attributes":{"ID":128070,"DIS_CODE":0,"TOWNNAME":"新市區","LI":"港墘里","LIN":"6鄰","STREET":"興業路","SECT":" ","MAREA":" ","LANE":" ","ALLEY":" ","HOUSE_NO":"１２號","E_COORD97":178244.62,"N_COORD97":2553384.75,"ADDRESS":"興業路１２號","OBJECTID":128070},"geometry":{"x":178244.61999999918,"y":2553384.7500000019}},{"attributes":{"ID":128071,"DIS_CODE":0,"TOWNNAME":"北區","LI":"力行里","LIN":"11鄰","STREET":"開南街","SECT":" ","MAREA":" ","LANE":"２７５巷","ALLEY":"２４弄","HOUSE_NO":"１號","E_COORD97":171001.07999999999,"N_COORD97":2545271.6800000002,"ADDRESS":"開南街２７５巷２４弄１號","OBJECTID":128071},"geometry":{"x":171001.08000000007,"y":2545271.6800000016}},{"attributes":{"ID":128072,"DIS_CODE":0,"TOWNNAME":"北區","LI":"力行里","LIN":"11鄰","STREET":"開南街","SECT":" ","MAREA":" ","LANE":"２７５巷","ALLEY":"２４弄","HOUSE_NO":"２１號","E_COORD97":171045.91,"N_COORD97":2545267.98,"ADDRESS":"開南街２７５巷２４弄２１號","OBJECTID":128072},"geometry":{"x":171045.91000000015,"y":2545267.9800000004}},{"attributes":{"ID":128073,"DIS_CODE":0,"TOWNNAME":"新市區","LI":"港墘里","LIN":"6鄰","STREET":"興業路","SECT":" ","MAREA":" ","LANE":" ","ALLEY":" ","HOUSE_NO":"１２號之３","E_COORD97":178308.60000000001,"N_COORD97":2553482.5499999998,"ADDRESS":"興業路１２號之３","OBJECTID":128073},"geometry":{"x":178308.59999999963,"y":2553482.5500000007}},{"attributes":{"ID":128074,"DIS_CODE":0,"TOWNNAME":"新市區","LI":"港墘里","LIN":"6鄰","STREET":"興業路","SECT":" ","MAREA":" ","LANE":" ","ALLEY":" ","HOUSE_NO":"１４號","E_COORD97":178201.59,"N_COORD97":2553404.5,"ADDRESS":"興業路１４號","OBJECTID":128074},"geometry":{"x":178201.58999999985,"y":2553404.5}},{"attributes":{"ID":128075,"DIS_CODE":0,"TOWNNAME":"新市區","LI":"港墘里","LIN":"6鄰","STREET":"興業路","SECT":" ","MAREA":" ","LANE":" ","ALLEY":" ","HOUSE_NO":"１６號","E_COORD97":178164.20999999999,"N_COORD97":2553414.75,"ADDRESS":"興業路１６號","OBJECTID":128075},"geometry":{"x":178164.20999999903,"y":2553414.7500000019}},{"attributes":{"ID":128076,"DIS_CODE":0,"TOWNNAME":"新市區","LI":"大社里","LIN":"6鄰","STREET":" ","SECT":" ","MAREA":"大社","LANE":" ","ALLEY":" ","HOUSE_NO":"２４２號","E_COORD97":180192.62,"N_COORD97":2554480,"ADDRESS":"大社２４２號","OBJECTID":128076},"geometry":{"x":180192.62000000197,"y":2554479.9999999981}},{"attributes":{"ID":128077,"DIS_CODE":0,"TOWNNAME":"新市區","LI":"大營里","LIN":"6鄰","STREET":" ","SECT":" ","MAREA":"大營","LANE":" ","ALLEY":" ","HOUSE_NO":"１２２號","E_COORD97":179711.09,"N_COORD97":2555042.75,"ADDRESS":"大營１２２號","OBJECTID":128077},"geometry":{"x":179711.09000000171,"y":2555042.7500000019}},{"attributes":{"ID":128078,"DIS_CODE":0,"TOWNNAME":"新市區","LI":"大營里","LIN":"6鄰","STREET":" ","SECT":" ","MAREA":"大營","LANE":" ","ALLEY":" ","HOUSE_NO":"１１７號","E_COORD97":179728.57000000001,"N_COORD97":2555063,"ADDRESS":"大營１１７號","OBJECTID":128078},"geometry":{"x":179728.57000000216,"y":2555063}},{"attributes":{"ID":128079,"DIS_CODE":0,"TOWNNAME":"白河區","LI":"庄內里","LIN":"4鄰","STREET":" ","SECT":" ","MAREA":"客庄內","LANE":" ","ALLEY":" ","HOUSE_NO":"４５號","E_COORD97":190846.38,"N_COORD97":2583448,"ADDRESS":"客庄內４５號","OBJECTID":128079},"geometry":{"x":190846.37999999896,"y":2583448.0000000019}},{"attributes":{"ID":128080,"DIS_CODE":0,"TOWNNAME":"白河區","LI":"庄內里","LIN":"4鄰","STREET":" ","SECT":" ","MAREA":"客庄內","LANE":" ","ALLEY":" ","HOUSE_NO":"４７之１號","E_COORD97":190809.84,"N_COORD97":2583444.52,"ADDRESS":"客庄內４７之１號","OBJECTID":128080},"geometry":{"x":190809.84000000078,"y":2583444.5200000014}},{"attributes":{"ID":128081,"DIS_CODE":0,"TOWNNAME":"白河區","LI":"庄內里","LIN":"4鄰","STREET":" ","SECT":" ","MAREA":"客庄內","LANE":" ","ALLEY":" ","HOUSE_NO":"４７之２號","E_COORD97":190812.70999999999,"N_COORD97":2583450.1400000001,"ADDRESS":"客庄內４７之２號","OBJECTID":128081},"geometry":{"x":190812.71000000089,"y":2583450.1400000006}},{"attributes":{"ID":128082,"DIS_CODE":0,"TOWNNAME":"白河區","LI":"庄內里","LIN":"4鄰","STREET":" ","SECT":" ","MAREA":"客庄內","LANE":" ","ALLEY":" ","HOUSE_NO":"４７之３號","E_COORD97":190830.20000000001,"N_COORD97":2583437.71,"ADDRESS":"客庄內４７之３號","OBJECTID":128082},"geometry":{"x":190830.20000000112,"y":2583437.7100000028}},{"attributes":{"ID":128083,"DIS_CODE":0,"TOWNNAME":"白河區","LI":"庄內里","LIN":"4鄰","STREET":" ","SECT":" ","MAREA":"客庄內","LANE":" ","ALLEY":" ","HOUSE_NO":"４７號","E_COORD97":190826.07999999999,"N_COORD97":2583438.7400000002,"ADDRESS":"客庄內４７號","OBJECTID":128083},"geometry":{"x":190826.08000000007,"y":2583438.7400000002}},{"attributes":{"ID":128084,"DIS_CODE":0,"TOWNNAME":"白河區","LI":"庄內里","LIN":"4鄰","STREET":" ","SECT":" ","MAREA":"客庄內","LANE":" ","ALLEY":" ","HOUSE_NO":"４８之１號","E_COORD97":190837.91,"N_COORD97":2583422.6000000001,"ADDRESS":"客庄內４８之１號","OBJECTID":128084},"geometry":{"x":190837.91000000015,"y":2583422.5999999978}},{"attributes":{"ID":128085,"DIS_CODE":0,"TOWNNAME":"白河區","LI":"庄內里","LIN":"4鄰","STREET":" ","SECT":" ","MAREA":"客庄內","LANE":" ","ALLEY":" ","HOUSE_NO":"４８號","E_COORD97":190828.29999999999,"N_COORD97":2583425.0299999998,"ADDRESS":"客庄內４８號","OBJECTID":128085},"geometry":{"x":190828.30000000168,"y":2583425.0299999993}},{"attributes":{"ID":128086,"DIS_CODE":0,"TOWNNAME":"白河區","LI":"庄內里","LIN":"4鄰","STREET":" ","SECT":" ","MAREA":"客庄內","LANE":" ","ALLEY":" ","HOUSE_NO":"５１號","E_COORD97":190806.26000000001,"N_COORD97":2583432.0699999998,"ADDRESS":"客庄內５１號","OBJECTID":128086},"geometry":{"x":190806.25999999978,"y":2583432.0700000022}},{"attributes":{"ID":128087,"DIS_CODE":0,"TOWNNAME":"白河區","LI":"外角里","LIN":"8鄰","STREET":" ","SECT":" ","MAREA":"客庄內","LANE":" ","ALLEY":" ","HOUSE_NO":"２號","E_COORD97":190743.87,"N_COORD97":2583391.2799999998,"ADDRESS":"客庄內２號","OBJECTID":128087},"geometry":{"x":190743.87000000104,"y":2583391.2800000012}},{"attributes":{"ID":128088,"DIS_CODE":0,"TOWNNAME":"白河區","LI":"庄內里","LIN":"1鄰","STREET":" ","SECT":" ","MAREA":"客庄內","LANE":" ","ALLEY":" ","HOUSE_NO":"１６２號","E_COORD97":191095.22,"N_COORD97":2583515.0499999998,"ADDRESS":"客庄內１６２號","OBJECTID":128088},"geometry":{"x":191095.22000000067,"y":2583515.0500000007}},{"attributes":{"ID":128089,"DIS_CODE":0,"TOWNNAME":"白河區","LI":"庄內里","LIN":"1鄰","STREET":" ","SECT":" ","MAREA":"客庄內","LANE":" ","ALLEY":" ","HOUSE_NO":"１６３號","E_COORD97":191095.42000000001,"N_COORD97":2583510.77,"ADDRESS":"客庄內１６３號","OBJECTID":128089},"geometry":{"x":191095.42000000179,"y":2583510.7700000014}},{"attributes":{"ID":128090,"DIS_CODE":0,"TOWNNAME":"白河區","LI":"庄內里","LIN":"5鄰","STREET":" ","SECT":" ","MAREA":"客庄內","LANE":" ","ALLEY":" ","HOUSE_NO":"５９號","E_COORD97":190727.98999999999,"N_COORD97":2583474.02,"ADDRESS":"客庄內５９號","OBJECTID":128090},"geometry":{"x":190727.99000000115,"y":2583474.0200000033}},{"attributes":{"ID":128091,"DIS_CODE":0,"TOWNNAME":"白河區","LI":"庄內里","LIN":"13鄰","STREET":" ","SECT":" ","MAREA":"客庄內","LANE":" ","ALLEY":" ","HOUSE_NO":"８２之１號","E_COORD97":190746.44,"N_COORD97":2583628.1699999999,"ADDRESS":"客庄內８２之１號","OBJECTID":128091},"geometry":{"x":190746.44000000041,"y":2583628.1699999999}},{"attributes":{"ID":128092,"DIS_CODE":0,"TOWNNAME":"白河區","LI":"庄內里","LIN":"13鄰","STREET":" ","SECT":" ","MAREA":"客庄內","LANE":" ","ALLEY":" ","HOUSE_NO":"８２之２號","E_COORD97":190754.88,"N_COORD97":2583637.1099999999,"ADDRESS":"客庄內８２之２號","OBJECTID":128092},"geometry":{"x":190754.88000000175,"y":2583637.1100000013}},{"attributes":{"ID":128093,"DIS_CODE":0,"TOWNNAME":"白河區","LI":"庄內里","LIN":"13鄰","STREET":" ","SECT":" ","MAREA":"客庄內","LANE":" ","ALLEY":" ","HOUSE_NO":"８２號","E_COORD97":190738.72,"N_COORD97":2583638.21,"ADDRESS":"客庄內８２號","OBJECTID":128093},"geometry":{"x":190738.71999999974,"y":2583638.2100000028}},{"attributes":{"ID":128094,"DIS_CODE":0,"TOWNNAME":"白河區","LI":"庄內里","LIN":"13鄰","STREET":" ","SECT":" ","MAREA":"客庄內","LANE":" ","ALLEY":" ","HOUSE_NO":"８３號","E_COORD97":190781.48000000001,"N_COORD97":2583660.0099999998,"ADDRESS":"客庄內８３號","OBJECTID":128094},"geometry":{"x":190781.48000000045,"y":2583660.0099999998}},{"attributes":{"ID":128095,"DIS_CODE":0,"TOWNNAME":"白河區","LI":"庄內里","LIN":"13鄰","STREET":" ","SECT":" ","MAREA":"客庄內","LANE":" ","ALLEY":" ","HOUSE_NO":"８４之１２號","E_COORD97":190772.48000000001,"N_COORD97":2583671.3199999998,"ADDRESS":"客庄內８４之１２號","OBJECTID":128095},"geometry":{"x":190772.48000000138,"y":2583671.3200000003}},{"attributes":{"ID":128096,"DIS_CODE":0,"TOWNNAME":"白河區","LI":"庄內里","LIN":"13鄰","STREET":" ","SECT":" ","MAREA":"客庄內","LANE":" ","ALLEY":" ","HOUSE_NO":"８４之１號","E_COORD97":190788.12,"N_COORD97":2583679.7000000002,"ADDRESS":"客庄內８４之１號","OBJECTID":128096},"geometry":{"x":190788.12000000104,"y":2583679.7000000011}},{"attributes":{"ID":128097,"DIS_CODE":0,"TOWNNAME":"白河區","LI":"庄內里","LIN":"13鄰","STREET":" ","SECT":" ","MAREA":"客庄內","LANE":" ","ALLEY":" ","HOUSE_NO":"８４之２號","E_COORD97":190829.5,"N_COORD97":2583666.25,"ADDRESS":"客庄內８４之２號","OBJECTID":128097},"geometry":{"x":190829.50000000093,"y":2583666.2500000037}},{"attributes":{"ID":128098,"DIS_CODE":0,"TOWNNAME":"後壁區","LI":"福安里","LIN":"6鄰","STREET":" ","SECT":" ","MAREA":"下寮","LANE":" ","ALLEY":" ","HOUSE_NO":"５７號","E_COORD97":184329.59,"N_COORD97":2580884.7400000002,"ADDRESS":"下寮５７號","OBJECTID":128098},"geometry":{"x":184329.58999999985,"y":2580884.7400000021}},{"attributes":{"ID":128099,"DIS_CODE":0,"TOWNNAME":"白河區","LI":"庄內里","LIN":"13鄰","STREET":" ","SECT":" ","MAREA":"客庄內","LANE":" ","ALLEY":" ","HOUSE_NO":"８４之４號","E_COORD97":190751.91,"N_COORD97":2583673.4100000001,"ADDRESS":"客庄內８４之４號","OBJECTID":128099},"geometry":{"x":190751.91000000108,"y":2583673.410000002}},{"attributes":{"ID":128100,"DIS_CODE":0,"TOWNNAME":"白河區","LI":"庄內里","LIN":"13鄰","STREET":" ","SECT":" ","MAREA":"客庄內","LANE":" ","ALLEY":" ","HOUSE_NO":"８４之５號","E_COORD97":190744.22,"N_COORD97":2583688.46,"ADDRESS":"客庄內８４之５號","OBJECTID":128100},"geometry":{"x":190744.22000000067,"y":2583688.4600000009}},{"attributes":{"ID":128101,"DIS_CODE":0,"TOWNNAME":"白河區","LI":"庄內里","LIN":"7鄰","STREET":" ","SECT":" ","MAREA":"客庄內","LANE":" ","ALLEY":" ","HOUSE_NO":"８８號","E_COORD97":191003.10000000001,"N_COORD97":2584120.9500000002,"ADDRESS":"客庄內８８號","OBJECTID":128101},"geometry":{"x":191003.10000000056,"y":2584120.9499999993}},{"attributes":{"ID":128102,"DIS_CODE":0,"TOWNNAME":"白河區","LI":"崁頭里","LIN":"4鄰","STREET":" ","SECT":" ","MAREA":"崁子頭","LANE":" ","ALLEY":" ","HOUSE_NO":"３５之１號","E_COORD97":191217.72,"N_COORD97":2580930.4399999999,"ADDRESS":"崁子頭３５之１號","OBJECTID":128102},"geometry":{"x":191217.72000000067,"y":2580930.4399999995}},{"attributes":{"ID":128103,"DIS_CODE":0,"TOWNNAME":"白河區","LI":"崁頭里","LIN":"4鄰","STREET":" ","SECT":" ","MAREA":"崁子頭","LANE":" ","ALLEY":" ","HOUSE_NO":"３５號","E_COORD97":191234.42999999999,"N_COORD97":2580925.7999999998,"ADDRESS":"崁子頭３５號","OBJECTID":128103},"geometry":{"x":191234.43000000063,"y":2580925.8000000007}},{"attributes":{"ID":128104,"DIS_CODE":0,"TOWNNAME":"白河區","LI":"崁頭里","LIN":"4鄰","STREET":" ","SECT":" ","MAREA":"崁子頭","LANE":" ","ALLEY":" ","HOUSE_NO":"３６號","E_COORD97":191253.45000000001,"N_COORD97":2580942.0600000001,"ADDRESS":"崁子頭３６號","OBJECTID":128104},"geometry":{"x":191253.45000000112,"y":2580942.0599999987}},{"attributes":{"ID":128105,"DIS_CODE":0,"TOWNNAME":"白河區","LI":"崁頭里","LIN":"4鄰","STREET":" ","SECT":" ","MAREA":"崁子頭","LANE":" ","ALLEY":" ","HOUSE_NO":"３７號","E_COORD97":191273.95999999999,"N_COORD97":2580933.8500000001,"ADDRESS":"崁子頭３７號","OBJECTID":128105},"geometry":{"x":191273.96000000089,"y":2580933.8500000015}},{"attributes":{"ID":128106,"DIS_CODE":0,"TOWNNAME":"白河區","LI":"崁頭里","LIN":"4鄰","STREET":" ","SECT":" ","MAREA":"崁子頭","LANE":" ","ALLEY":" ","HOUSE_NO":"３８號","E_COORD97":191276.67000000001,"N_COORD97":2580910.27,"ADDRESS":"崁子頭３８號","OBJECTID":128106},"geometry":{"x":191276.66999999993,"y":2580910.2700000014}},{"attributes":{"ID":128107,"DIS_CODE":0,"TOWNNAME":"白河區","LI":"崁頭里","LIN":"4鄰","STREET":" ","SECT":" ","MAREA":"崁子頭","LANE":" ","ALLEY":" ","HOUSE_NO":"３９號","E_COORD97":191294.03,"N_COORD97":2580937.0699999998,"ADDRESS":"崁子頭３９號","OBJECTID":128107},"geometry":{"x":191294.03000000119,"y":2580937.0700000003}},{"attributes":{"ID":128108,"DIS_CODE":0,"TOWNNAME":"白河區","LI":"崁頭里","LIN":"4鄰","STREET":" ","SECT":" ","MAREA":"崁子頭","LANE":" ","ALLEY":" ","HOUSE_NO":"４０之１號","E_COORD97":191307.06,"N_COORD97":2580961.5600000001,"ADDRESS":"崁子頭４０之１號","OBJECTID":128108},"geometry":{"x":191307.05999999959,"y":2580961.5600000005}},{"attributes":{"ID":128109,"DIS_CODE":0,"TOWNNAME":"白河區","LI":"崁頭里","LIN":"4鄰","STREET":" ","SECT":" ","MAREA":"崁子頭","LANE":" ","ALLEY":" ","HOUSE_NO":"４０之２號","E_COORD97":191302.06,"N_COORD97":2580984.3399999999,"ADDRESS":"崁子頭４０之２號","OBJECTID":128109},"geometry":{"x":191302.05999999959,"y":2580984.3400000017}},{"attributes":{"ID":128110,"DIS_CODE":0,"TOWNNAME":"關廟區","LI":"香洋里","LIN":"15鄰","STREET":"香洋路","SECT":" ","MAREA":" ","LANE":" ","ALLEY":" ","HOUSE_NO":"６６號","E_COORD97":181378.29000000001,"N_COORD97":2540094.25,"ADDRESS":"香洋路６６號","OBJECTID":128110},"geometry":{"x":181378.29000000097,"y":2540094.2500000019}},{"attributes":{"ID":128111,"DIS_CODE":0,"TOWNNAME":"白河區","LI":"崁頭里","LIN":"4鄰","STREET":" ","SECT":" ","MAREA":"崁子頭","LANE":" ","ALLEY":" ","HOUSE_NO":"４０之３號","E_COORD97":191280.57999999999,"N_COORD97":2580981.6899999999,"ADDRESS":"崁子頭４０之３號","OBJECTID":128111},"geometry":{"x":191280.58000000007,"y":2580981.6900000013}},{"attributes":{"ID":128112,"DIS_CODE":0,"TOWNNAME":"白河區","LI":"崁頭里","LIN":"4鄰","STREET":" ","SECT":" ","MAREA":"崁子頭","LANE":" ","ALLEY":" ","HOUSE_NO":"４０號","E_COORD97":191320.20000000001,"N_COORD97":2580937.9900000002,"ADDRESS":"崁子頭４０號","OBJECTID":128112},"geometry":{"x":191320.20000000019,"y":2580937.9900000002}},{"attributes":{"ID":128113,"DIS_CODE":0,"TOWNNAME":"白河區","LI":"崁頭里","LIN":"4鄰","STREET":" ","SECT":" ","MAREA":"崁子頭","LANE":" ","ALLEY":" ","HOUSE_NO":"４１號","E_COORD97":191335.07000000001,"N_COORD97":2580981.04,"ADDRESS":"崁子頭４１號","OBJECTID":128113},"geometry":{"x":191335.0700000003,"y":2580981.0399999991}},{"attributes":{"ID":128114,"DIS_CODE":0,"TOWNNAME":"白河區","LI":"崁頭里","LIN":"1鄰","STREET":" ","SECT":" ","MAREA":"崁子頭","LANE":" ","ALLEY":" ","HOUSE_NO":"３號","E_COORD97":190346.13,"N_COORD97":2580766.1000000001,"ADDRESS":"崁子頭３號","OBJECTID":128114},"geometry":{"x":190346.12999999989,"y":2580766.1000000015}},{"attributes":{"ID":128115,"DIS_CODE":0,"TOWNNAME":"白河區","LI":"崁頭里","LIN":"1鄰","STREET":" ","SECT":" ","MAREA":"崁子頭","LANE":" ","ALLEY":" ","HOUSE_NO":"５之１號","E_COORD97":190361.54999999999,"N_COORD97":2580764.8100000001,"ADDRESS":"崁子頭５之１號","OBJECTID":128115},"geometry":{"x":190361.54999999981,"y":2580764.8100000024}},{"attributes":{"ID":128116,"DIS_CODE":0,"TOWNNAME":"新市區","LI":"三舍里","LIN":"6鄰","STREET":" ","SECT":" ","MAREA":"三舍","LANE":" ","ALLEY":" ","HOUSE_NO":"１５８之１號","E_COORD97":177857.29000000001,"N_COORD97":2554751.0499999998,"ADDRESS":"三舍１５８之１號","OBJECTID":128116},"geometry":{"x":177857.29000000097,"y":2554751.0500000007}},{"attributes":{"ID":128117,"DIS_CODE":0,"TOWNNAME":"新市區","LI":"三舍里","LIN":"6鄰","STREET":" ","SECT":" ","MAREA":"三舍","LANE":" ","ALLEY":" ","HOUSE_NO":"１６３之１號","E_COORD97":177953.54000000001,"N_COORD97":2554718.7999999998,"ADDRESS":"三舍１６３之１號","OBJECTID":128117},"geometry":{"x":177953.53999999911,"y":2554718.8000000007}},{"attributes":{"ID":128118,"DIS_CODE":0,"TOWNNAME":"新市區","LI":"三舍里","LIN":"6鄰","STREET":" ","SECT":" ","MAREA":"三舍","LANE":" ","ALLEY":" ","HOUSE_NO":"１６１之４號","E_COORD97":177903.51000000001,"N_COORD97":2554646.2999999998,"ADDRESS":"三舍１６１之４號","OBJECTID":128118},"geometry":{"x":177903.51000000071,"y":2554646.3000000026}},{"attributes":{"ID":128119,"DIS_CODE":0,"TOWNNAME":"新市區","LI":"三舍里","LIN":"6鄰","STREET":" ","SECT":" ","MAREA":"三舍","LANE":" ","ALLEY":" ","HOUSE_NO":"１５９之４０號","E_COORD97":177808.89999999999,"N_COORD97":2555127.2999999998,"ADDRESS":"三舍１５９之４０號","OBJECTID":128119},"geometry":{"x":177808.90000000037,"y":2555127.3000000026}},{"attributes":{"ID":128120,"DIS_CODE":0,"TOWNNAME":"白河區","LI":"崁頭里","LIN":"1鄰","STREET":" ","SECT":" ","MAREA":"崁子頭","LANE":" ","ALLEY":" ","HOUSE_NO":"５號","E_COORD97":190358.97,"N_COORD97":2580786.9500000002,"ADDRESS":"崁子頭５號","OBJECTID":128120},"geometry":{"x":190358.96999999974,"y":2580786.9500000011}},{"attributes":{"ID":128121,"DIS_CODE":0,"TOWNNAME":"東區","LI":"東智里","LIN":"6鄰","STREET":"德東街","SECT":" ","MAREA":" ","LANE":" ","ALLEY":" ","HOUSE_NO":"７７號","E_COORD97":170994.39999999999,"N_COORD97":2540257.98,"ADDRESS":"德東街７７號","OBJECTID":128121},"geometry":{"x":170994.39999999944,"y":2540257.9799999986}},{"attributes":{"ID":128122,"DIS_CODE":0,"TOWNNAME":"東區","LI":"東智里","LIN":"6鄰","STREET":"德東街","SECT":" ","MAREA":" ","LANE":" ","ALLEY":" ","HOUSE_NO":"７８號","E_COORD97":170990.92000000001,"N_COORD97":2540235.9300000002,"ADDRESS":"德東街７８號","OBJECTID":128122},"geometry":{"x":170990.92000000086,"y":2540235.9299999997}},{"attributes":{"ID":128123,"DIS_CODE":0,"TOWNNAME":"東區","LI":"東智里","LIN":"6鄰","STREET":"德東街","SECT":" ","MAREA":" ","LANE":" ","ALLEY":" ","HOUSE_NO":"７號","E_COORD97":170819.17999999999,"N_COORD97":2540252.48,"ADDRESS":"德東街７號","OBJECTID":128123},"geometry":{"x":170819.18000000063,"y":2540252.4800000023}},{"attributes":{"ID":128124,"DIS_CODE":0,"TOWNNAME":"白河區","LI":"崁頭里","LIN":"6鄰","STREET":" ","SECT":" ","MAREA":"崁子頭","LANE":" ","ALLEY":" ","HOUSE_NO":"５４之１號","E_COORD97":191158.45000000001,"N_COORD97":2580339.8999999999,"ADDRESS":"崁子頭５４之１號","OBJECTID":128124},"geometry":{"x":191158.45000000112,"y":2580339.9000000041}},{"attributes":{"ID":128125,"DIS_CODE":0,"TOWNNAME":"東區","LI":"東智里","LIN":"6鄰","STREET":"德東街","SECT":" ","MAREA":" ","LANE":" ","ALLEY":" ","HOUSE_NO":"８０號","E_COORD97":170995.03,"N_COORD97":2540236.4100000001,"ADDRESS":"德東街８０號","OBJECTID":128125},"geometry":{"x":170995.03000000026,"y":2540236.4100000001}},{"attributes":{"ID":128126,"DIS_CODE":0,"TOWNNAME":"白河區","LI":"崁頭里","LIN":"6鄰","STREET":" ","SECT":" ","MAREA":"崁子頭","LANE":" ","ALLEY":" ","HOUSE_NO":"５４之２號","E_COORD97":191205,"N_COORD97":2580348.4300000002,"ADDRESS":"崁子頭５４之２號","OBJECTID":128126},"geometry":{"x":191205,"y":2580348.4299999997}},{"attributes":{"ID":128127,"DIS_CODE":0,"TOWNNAME":"東區","LI":"東智里","LIN":"6鄰","STREET":"德東街","SECT":" ","MAREA":" ","LANE":" ","ALLEY":" ","HOUSE_NO":"８１號","E_COORD97":171004.04000000001,"N_COORD97":2540257.3500000001,"ADDRESS":"德東街８１號","OBJECTID":128127},"geometry":{"x":171004.04000000097,"y":2540257.3499999996}},{"attributes":{"ID":128128,"DIS_CODE":0,"TOWNNAME":"東區","LI":"東智里","LIN":"6鄰","STREET":"德東街","SECT":" ","MAREA":" ","LANE":" ","ALLEY":" ","HOUSE_NO":"８２號","E_COORD97":170999.92999999999,"N_COORD97":2540236.4100000001,"ADDRESS":"德東街８２號","OBJECTID":128128},"geometry":{"x":170999.9299999997,"y":2540236.4100000001}},{"attributes":{"ID":128129,"DIS_CODE":0,"TOWNNAME":"白河區","LI":"崁頭里","LIN":"6鄰","STREET":" ","SECT":" ","MAREA":"崁子頭","LANE":" ","ALLEY":" ","HOUSE_NO":"５４之３號","E_COORD97":191173.64999999999,"N_COORD97":2580369.8599999999,"ADDRESS":"崁子頭５４之３號","OBJECTID":128129},"geometry":{"x":191173.65000000037,"y":2580369.8600000013}},{"attributes":{"ID":128130,"DIS_CODE":0,"TOWNNAME":"北區","LI":"力行里","LIN":"11鄰","STREET":"開南街","SECT":" ","MAREA":" ","LANE":"２７５巷","ALLEY":"２４弄","HOUSE_NO":"２３號","E_COORD97":171052.73000000001,"N_COORD97":2545267.3799999999,"ADDRESS":"開南街２７５巷２４弄２３號","OBJECTID":128130},"geometry":{"x":171052.73000000045,"y":2545267.379999999}},{"attributes":{"ID":128131,"DIS_CODE":0,"TOWNNAME":"北區","LI":"力行里","LIN":"11鄰","STREET":"開南街","SECT":" ","MAREA":" ","LANE":"２７５巷","ALLEY":"２４弄","HOUSE_NO":"２號","E_COORD97":171017.26000000001,"N_COORD97":2545281.46,"ADDRESS":"開南街２７５巷２４弄２號","OBJECTID":128131},"geometry":{"x":171017.26000000071,"y":2545281.4600000028}},{"attributes":{"ID":128132,"DIS_CODE":0,"TOWNNAME":"白河區","LI":"崁頭里","LIN":"6鄰","STREET":" ","SECT":" ","MAREA":"崁子頭","LANE":" ","ALLEY":" ","HOUSE_NO":"５４之４號","E_COORD97":191166.88,"N_COORD97":2580361.4700000002,"ADDRESS":"崁子頭５４之４號","OBJECTID":128132},"geometry":{"x":191166.88000000175,"y":2580361.4700000025}},{"attributes":{"ID":128133,"DIS_CODE":0,"TOWNNAME":"白河區","LI":"崁頭里","LIN":"6鄰","STREET":" ","SECT":" ","MAREA":"崁子頭","LANE":" ","ALLEY":" ","HOUSE_NO":"５４之５號","E_COORD97":191159.10999999999,"N_COORD97":2580356.1499999999,"ADDRESS":"崁子頭５４之５號","OBJECTID":128133},"geometry":{"x":191159.1100000022,"y":2580356.1500000022}},{"attributes":{"ID":128134,"DIS_CODE":0,"TOWNNAME":"北區","LI":"力行里","LIN":"11鄰","STREET":"開南街","SECT":" ","MAREA":" ","LANE":"２７５巷","ALLEY":"２４弄","HOUSE_NO":"３號","E_COORD97":171004.94,"N_COORD97":2545271.0899999999,"ADDRESS":"開南街２７５巷２４弄３號","OBJECTID":128134},"geometry":{"x":171004.94000000134,"y":2545271.0900000036}},{"attributes":{"ID":128135,"DIS_CODE":0,"TOWNNAME":"白河區","LI":"崁頭里","LIN":"6鄰","STREET":" ","SECT":" ","MAREA":"崁子頭","LANE":" ","ALLEY":" ","HOUSE_NO":"５４之６號","E_COORD97":191183.39999999999,"N_COORD97":2580350.2599999998,"ADDRESS":"崁子頭５４之６號","OBJECTID":128135},"geometry":{"x":191183.40000000037,"y":2580350.2600000035}},{"attributes":{"ID":128136,"DIS_CODE":0,"TOWNNAME":"北區","LI":"力行里","LIN":"11鄰","STREET":"開南街","SECT":" ","MAREA":" ","LANE":"２７５巷","ALLEY":"２４弄","HOUSE_NO":"５號","E_COORD97":171009.25,"N_COORD97":2545270.9399999999,"ADDRESS":"開南街２７５巷２４弄５號","OBJECTID":128136},"geometry":{"x":171009.25000000093,"y":2545270.9399999995}},{"attributes":{"ID":128137,"DIS_CODE":0,"TOWNNAME":"北區","LI":"力行里","LIN":"11鄰","STREET":"開南街","SECT":" ","MAREA":" ","LANE":"２７５巷","ALLEY":"２４弄","HOUSE_NO":"６號","E_COORD97":171026.45999999999,"N_COORD97":2545280.7200000002,"ADDRESS":"開南街２７５巷２４弄６號","OBJECTID":128137},"geometry":{"x":171026.46000000089,"y":2545280.7200000007}},{"attributes":{"ID":128138,"DIS_CODE":0,"TOWNNAME":"北區","LI":"力行里","LIN":"11鄰","STREET":"開南街","SECT":" ","MAREA":" ","LANE":"２７５巷","ALLEY":"２４弄","HOUSE_NO":"７號","E_COORD97":171013.85000000001,"N_COORD97":2545270.2000000002,"ADDRESS":"開南街２７５巷２４弄７號","OBJECTID":128138},"geometry":{"x":171013.84999999963,"y":2545270.2000000011}},{"attributes":{"ID":128139,"DIS_CODE":0,"TOWNNAME":"白河區","LI":"崁頭里","LIN":"6鄰","STREET":" ","SECT":" ","MAREA":"崁子頭","LANE":" ","ALLEY":" ","HOUSE_NO":"５４號","E_COORD97":191169.85000000001,"N_COORD97":2580368.52,"ADDRESS":"崁子頭５４號","OBJECTID":128139},"geometry":{"x":191169.84999999963,"y":2580368.5200000033}},{"attributes":{"ID":128140,"DIS_CODE":0,"TOWNNAME":"白河區","LI":"崁頭里","LIN":"6鄰","STREET":" ","SECT":" ","MAREA":"崁子頭","LANE":" ","ALLEY":" ","HOUSE_NO":"５５號","E_COORD97":191183.59,"N_COORD97":2580377.1899999999,"ADDRESS":"崁子頭５５號","OBJECTID":128140},"geometry":{"x":191183.58999999985,"y":2580377.1899999976}},{"attributes":{"ID":128141,"DIS_CODE":0,"TOWNNAME":"東區","LI":"東智里","LIN":"6鄰","STREET":"德東街","SECT":" ","MAREA":" ","LANE":" ","ALLEY":" ","HOUSE_NO":"８４號","E_COORD97":171004.19,"N_COORD97":2540237.2000000002,"ADDRESS":"德東街８４號","OBJECTID":128141},"geometry":{"x":171004.19000000041,"y":2540237.1999999993}},{"attributes":{"ID":128142,"DIS_CODE":0,"TOWNNAME":"白河區","LI":"崁頭里","LIN":"6鄰","STREET":" ","SECT":" ","MAREA":"崁子頭","LANE":" ","ALLEY":" ","HOUSE_NO":"５６之１號","E_COORD97":191156.17999999999,"N_COORD97":2580417.7799999998,"ADDRESS":"崁子頭５６之１號","OBJECTID":128142},"geometry":{"x":191156.18000000156,"y":2580417.7800000012}},{"attributes":{"ID":128143,"DIS_CODE":0,"TOWNNAME":"白河區","LI":"草店里","LIN":"10鄰","STREET":" ","SECT":" ","MAREA":"草店","LANE":" ","ALLEY":" ","HOUSE_NO":"１１５號","E_COORD97":191461.92999999999,"N_COORD97":2588269.1600000001,"ADDRESS":"草店１１５號","OBJECTID":128143},"geometry":{"x":191461.93000000063,"y":2588269.160000002}},{"attributes":{"ID":128144,"DIS_CODE":0,"TOWNNAME":"白河區","LI":"草店里","LIN":"4鄰","STREET":" ","SECT":" ","MAREA":"草店","LANE":" ","ALLEY":" ","HOUSE_NO":"２９之３號","E_COORD97":192201.12,"N_COORD97":2587769.6299999999,"ADDRESS":"草店２９之３號","OBJECTID":128144},"geometry":{"x":192201.11999999918,"y":2587769.6300000008}},{"attributes":{"ID":128145,"DIS_CODE":0,"TOWNNAME":"白河區","LI":"草店里","LIN":"4鄰","STREET":" ","SECT":" ","MAREA":"草店","LANE":" ","ALLEY":" ","HOUSE_NO":"３０號","E_COORD97":192242.20999999999,"N_COORD97":2587733.7799999998,"ADDRESS":"草店３０號","OBJECTID":128145},"geometry":{"x":192242.20999999996,"y":2587733.7800000031}},{"attributes":{"ID":128146,"DIS_CODE":0,"TOWNNAME":"白河區","LI":"草店里","LIN":"4鄰","STREET":" ","SECT":" ","MAREA":"草店","LANE":" ","ALLEY":" ","HOUSE_NO":"３１號","E_COORD97":192267.35999999999,"N_COORD97":2587727.1099999999,"ADDRESS":"草店３１號","OBJECTID":128146},"geometry":{"x":192267.36000000034,"y":2587727.1099999994}},{"attributes":{"ID":128147,"DIS_CODE":0,"TOWNNAME":"北區","LI":"力行里","LIN":"11鄰","STREET":"開南街","SECT":" ","MAREA":" ","LANE":"２７５巷","ALLEY":"２４弄","HOUSE_NO":"８號","E_COORD97":171031.20999999999,"N_COORD97":2545279.98,"ADDRESS":"開南街２７５巷２４弄８號","OBJECTID":128147},"geometry":{"x":171031.21000000089,"y":2545279.9800000023}},{"attributes":{"ID":128148,"DIS_CODE":0,"TOWNNAME":"北區","LI":"力行里","LIN":"11鄰","STREET":"開南街","SECT":" ","MAREA":" ","LANE":"２７５巷","ALLEY":"２４弄","HOUSE_NO":"９號","E_COORD97":171019.48999999999,"N_COORD97":2545270.3500000001,"ADDRESS":"開南街２７５巷２４弄９號","OBJECTID":128148},"geometry":{"x":171019.49000000115,"y":2545270.3500000015}},{"attributes":{"ID":128149,"DIS_CODE":0,"TOWNNAME":"北區","LI":"力行里","LIN":"11鄰","STREET":"開南街","SECT":" ","MAREA":" ","LANE":"２７５巷","ALLEY":"３８弄","HOUSE_NO":"１０號","E_COORD97":171039.59,"N_COORD97":2545305.4500000002,"ADDRESS":"開南街２７５巷３８弄１０號","OBJECTID":128149},"geometry":{"x":171039.58999999985,"y":2545305.450000003}},{"attributes":{"ID":128150,"DIS_CODE":0,"TOWNNAME":"永康區","LI":"王行里","LIN":"6鄰","STREET":"育樂街","SECT":" ","MAREA":" ","LANE":" ","ALLEY":" ","HOUSE_NO":"１５２號","E_COORD97":175168.29999999999,"N_COORD97":2548387.02,"ADDRESS":"育樂街１５２號","OBJECTID":128150},"geometry":{"x":175168.30000000075,"y":2548387.0200000033}},{"attributes":{"ID":128151,"DIS_CODE":0,"TOWNNAME":"北區","LI":"力行里","LIN":"11鄰","STREET":"開南街","SECT":" ","MAREA":" ","LANE":"２７５巷","ALLEY":"３８弄","HOUSE_NO":"１２號","E_COORD97":171046.54999999999,"N_COORD97":2545305.71,"ADDRESS":"開南街２７５巷３８弄１２號","OBJECTID":128151},"geometry":{"x":171046.54999999981,"y":2545305.7100000028}},{"attributes":{"ID":128152,"DIS_CODE":0,"TOWNNAME":"永康區","LI":"王行里","LIN":"6鄰","STREET":"育樂街","SECT":" ","MAREA":" ","LANE":" ","ALLEY":" ","HOUSE_NO":"１４９號","E_COORD97":175059.95000000001,"N_COORD97":2548311.0600000001,"ADDRESS":"育樂街１４９號","OBJECTID":128152},"geometry":{"x":175059.95000000019,"y":2548311.0600000024}},{"attributes":{"ID":128153,"DIS_CODE":0,"TOWNNAME":"永康區","LI":"王行里","LIN":"6鄰","STREET":"育樂街","SECT":" ","MAREA":" ","LANE":" ","ALLEY":" ","HOUSE_NO":"１５７號","E_COORD97":175022.81,"N_COORD97":2548332.1499999999,"ADDRESS":"育樂街１５７號","OBJECTID":128153},"geometry":{"x":175022.81000000052,"y":2548332.1500000004}},{"attributes":{"ID":128154,"DIS_CODE":0,"TOWNNAME":"永康區","LI":"王行里","LIN":"6鄰","STREET":"育樂街","SECT":" ","MAREA":" ","LANE":" ","ALLEY":" ","HOUSE_NO":"１４２號","E_COORD97":175234.84,"N_COORD97":2548371.1499999999,"ADDRESS":"育樂街１４２號","OBJECTID":128154},"geometry":{"x":175234.84000000078,"y":2548371.1500000022}},{"attributes":{"ID":128155,"DIS_CODE":0,"TOWNNAME":"南區","LI":"日新里","LIN":"7鄰","STREET":"金華路","SECT":"一段","MAREA":" ","LANE":" ","ALLEY":" ","HOUSE_NO":"４７１號","E_COORD97":167000.06,"N_COORD97":2541403.9500000002,"ADDRESS":"金華路一段４７１號","OBJECTID":128155},"geometry":{"x":167000.05999999959,"y":2541403.9500000011}},{"attributes":{"ID":128156,"DIS_CODE":0,"TOWNNAME":"關廟區","LI":"南花里","LIN":"15鄰","STREET":"中正路","SECT":" ","MAREA":" ","LANE":" ","ALLEY":" ","HOUSE_NO":"８６５號","E_COORD97":181505.76000000001,"N_COORD97":2540230.25,"ADDRESS":"中正路８６５號","OBJECTID":128156},"geometry":{"x":181505.76000000071,"y":2540230.2500000019}},{"attributes":{"ID":128157,"DIS_CODE":0,"TOWNNAME":"北區","LI":"力行里","LIN":"11鄰","STREET":"開南街","SECT":" ","MAREA":" ","LANE":"２７５巷","ALLEY":"３８弄","HOUSE_NO":"１４號","E_COORD97":171050.94,"N_COORD97":2545305.71,"ADDRESS":"開南街２７５巷３８弄１４號","OBJECTID":128157},"geometry":{"x":171050.94000000134,"y":2545305.7100000028}},{"attributes":{"ID":128158,"DIS_CODE":0,"TOWNNAME":"北區","LI":"力行里","LIN":"11鄰","STREET":"開南街","SECT":" ","MAREA":" ","LANE":"２７５巷","ALLEY":"３８弄","HOUSE_NO":"２號","E_COORD97":171020.26000000001,"N_COORD97":2545305.5800000001,"ADDRESS":"開南街２７５巷３８弄２號","OBJECTID":128158},"geometry":{"x":171020.26000000164,"y":2545305.5800000038}},{"attributes":{"ID":128159,"DIS_CODE":0,"TOWNNAME":"北區","LI":"力行里","LIN":"11鄰","STREET":"開南街","SECT":" ","MAREA":" ","LANE":"２７５巷","ALLEY":"３８弄","HOUSE_NO":"４號","E_COORD97":171024.26000000001,"N_COORD97":2545305.5800000001,"ADDRESS":"開南街２７５巷３８弄４號","OBJECTID":128159},"geometry":{"x":171024.26000000071,"y":2545305.5800000038}},{"attributes":{"ID":128160,"DIS_CODE":0,"TOWNNAME":"北區","LI":"力行里","LIN":"11鄰","STREET":"開南街","SECT":" ","MAREA":" ","LANE":"２７５巷","ALLEY":"３８弄","HOUSE_NO":"６號","E_COORD97":171028.25,"N_COORD97":2545305.3300000001,"ADDRESS":"開南街２７５巷３８弄６號","OBJECTID":128160},"geometry":{"x":171028.25,"y":2545305.3300000019}},{"attributes":{"ID":128161,"DIS_CODE":0,"TOWNNAME":"北區","LI":"力行里","LIN":"11鄰","STREET":"開南街","SECT":" ","MAREA":" ","LANE":"２７５巷","ALLEY":"３８弄","HOUSE_NO":"８號","E_COORD97":171033.41,"N_COORD97":2545306.1000000001,"ADDRESS":"開南街２７５巷３８弄８號","OBJECTID":128161},"geometry":{"x":171033.41000000108,"y":2545306.1000000015}},{"attributes":{"ID":128162,"DIS_CODE":0,"TOWNNAME":"北區","LI":"大仁里","LIN":"11鄰","STREET":"北門路","SECT":"二段","MAREA":" ","LANE":"２３７巷","ALLEY":"３１弄","HOUSE_NO":"７號","E_COORD97":169399.10000000001,"N_COORD97":2545266.8199999998,"ADDRESS":"北門路二段２３７巷３１弄７號","OBJECTID":128162},"geometry":{"x":169399.10000000056,"y":2545266.820000004}},{"attributes":{"ID":128163,"DIS_CODE":0,"TOWNNAME":"北區","LI":"大仁里","LIN":"11鄰","STREET":"北門路","SECT":"二段","MAREA":" ","LANE":"２３７巷","ALLEY":"３１弄","HOUSE_NO":"９號","E_COORD97":169395.70999999999,"N_COORD97":2545267.5,"ADDRESS":"北門路二段２３７巷３１弄９號","OBJECTID":128163},"geometry":{"x":169395.71000000089,"y":2545267.5}},{"attributes":{"ID":128164,"DIS_CODE":0,"TOWNNAME":"北區","LI":"大仁里","LIN":"11鄰","STREET":"北門路","SECT":"二段","MAREA":" ","LANE":"２３７巷","ALLEY":"４１弄","HOUSE_NO":"１０號","E_COORD97":169373,"N_COORD97":2545289.04,"ADDRESS":"北門路二段２３７巷４１弄１０號","OBJECTID":128164},"geometry":{"x":169373.00000000093,"y":2545289.040000001}},{"attributes":{"ID":128165,"DIS_CODE":0,"TOWNNAME":"北區","LI":"大仁里","LIN":"11鄰","STREET":"北門路","SECT":"二段","MAREA":" ","LANE":"２３７巷","ALLEY":"４１弄","HOUSE_NO":"１１號","E_COORD97":169377.89000000001,"N_COORD97":2545260.21,"ADDRESS":"北門路二段２３７巷４１弄１１號","OBJECTID":128165},"geometry":{"x":169377.88999999966,"y":2545260.2100000009}},{"attributes":{"ID":128166,"DIS_CODE":0,"TOWNNAME":"北區","LI":"大仁里","LIN":"11鄰","STREET":"北門路","SECT":"二段","MAREA":" ","LANE":"２３７巷","ALLEY":"４１弄","HOUSE_NO":"１２號","E_COORD97":169359.79000000001,"N_COORD97":2545288.02,"ADDRESS":"北門路二段２３７巷４１弄１２號","OBJECTID":128166},"geometry":{"x":169359.79000000097,"y":2545288.0199999977}},{"attributes":{"ID":128167,"DIS_CODE":0,"TOWNNAME":"北區","LI":"大仁里","LIN":"11鄰","STREET":"北門路","SECT":"二段","MAREA":" ","LANE":"２３７巷","ALLEY":"４１弄","HOUSE_NO":"１２號之１","E_COORD97":169355.75,"N_COORD97":2545287.4700000002,"ADDRESS":"北門路二段２３７巷４１弄１２號之１","OBJECTID":128167},"geometry":{"x":169355.74999999907,"y":2545287.4700000025}},{"attributes":{"ID":128168,"DIS_CODE":0,"TOWNNAME":"北區","LI":"大仁里","LIN":"11鄰","STREET":"北門路","SECT":"二段","MAREA":" ","LANE":"２３７巷","ALLEY":"４１弄","HOUSE_NO":"１４號","E_COORD97":169372.79000000001,"N_COORD97":2545278.5899999999,"ADDRESS":"北門路二段２３７巷４１弄１４號","OBJECTID":128168},"geometry":{"x":169372.79000000097,"y":2545278.5900000017}},{"attributes":{"ID":128169,"DIS_CODE":0,"TOWNNAME":"南區","LI":"日新里","LIN":" ","STREET":"鹽埕路","SECT":" ","MAREA":" ","LANE":" ","ALLEY":" ","HOUSE_NO":"２４５號","E_COORD97":166898.10999999999,"N_COORD97":2541220.6499999999,"ADDRESS":"鹽埕路２４５號","OBJECTID":128169},"geometry":{"x":166898.11000000127,"y":2541220.6500000022}},{"attributes":{"ID":128170,"DIS_CODE":0,"TOWNNAME":"官田區","LI":"南\u25A0里","LIN":"6鄰","STREET":" ","SECT":" ","MAREA":"南\u25A0","LANE":" ","ALLEY":" ","HOUSE_NO":"６９號","E_COORD97":178903.01999999999,"N_COORD97":2568026.3500000001,"ADDRESS":"南\u25A0６９號","OBJECTID":128170},"geometry":{"x":178903.02000000048,"y":2568026.3500000015}},{"attributes":{"ID":128171,"DIS_CODE":0,"TOWNNAME":"白河區","LI":"草店里","LIN":"4鄰","STREET":" ","SECT":" ","MAREA":"草店","LANE":" ","ALLEY":" ","HOUSE_NO":"３５號","E_COORD97":192268.06,"N_COORD97":2587678.5099999998,"ADDRESS":"草店３５號","OBJECTID":128171},"geometry":{"x":192268.05999999959,"y":2587678.5100000035}},{"attributes":{"ID":128172,"DIS_CODE":0,"TOWNNAME":"白河區","LI":"草店里","LIN":"4鄰","STREET":" ","SECT":" ","MAREA":"草店","LANE":" ","ALLEY":" ","HOUSE_NO":"３６之３號","E_COORD97":192267.38,"N_COORD97":2587636.46,"ADDRESS":"草店３６之３號","OBJECTID":128172},"geometry":{"x":192267.38000000082,"y":2587636.4600000028}},{"attributes":{"ID":128173,"DIS_CODE":0,"TOWNNAME":"白河區","LI":"草店里","LIN":"1鄰","STREET":" ","SECT":" ","MAREA":"草店","LANE":" ","ALLEY":" ","HOUSE_NO":"３之１號","E_COORD97":192683.17999999999,"N_COORD97":2587925.0299999998,"ADDRESS":"草店３之１號","OBJECTID":128173},"geometry":{"x":192683.1799999997,"y":2587925.0299999993}},{"attributes":{"ID":128174,"DIS_CODE":0,"TOWNNAME":"白河區","LI":"草店里","LIN":"1鄰","STREET":" ","SECT":" ","MAREA":"草店","LANE":" ","ALLEY":" ","HOUSE_NO":"３之２號","E_COORD97":192673.47,"N_COORD97":2587919.4100000001,"ADDRESS":"草店３之２號","OBJECTID":128174},"geometry":{"x":192673.47000000067,"y":2587919.4100000001}},{"attributes":{"ID":128175,"DIS_CODE":0,"TOWNNAME":"白河區","LI":"草店里","LIN":"10鄰","STREET":" ","SECT":" ","MAREA":"草店","LANE":" ","ALLEY":" ","HOUSE_NO":"２１０號","E_COORD97":191577.62,"N_COORD97":2588805.1400000001,"ADDRESS":"草店２１０號","OBJECTID":128175},"geometry":{"x":191577.62000000104,"y":2588805.1400000025}},{"attributes":{"ID":128176,"DIS_CODE":0,"TOWNNAME":"白河區","LI":"草店里","LIN":"3鄰","STREET":" ","SECT":" ","MAREA":"草店","LANE":" ","ALLEY":" ","HOUSE_NO":"２１之１號","E_COORD97":192225.45000000001,"N_COORD97":2587948.5699999998,"ADDRESS":"草店２１之１號","OBJECTID":128176},"geometry":{"x":192225.45000000019,"y":2587948.5700000003}},{"attributes":{"ID":128177,"DIS_CODE":0,"TOWNNAME":"白河區","LI":"草店里","LIN":"3鄰","STREET":" ","SECT":" ","MAREA":"草店","LANE":" ","ALLEY":" ","HOUSE_NO":"２１號","E_COORD97":192247.89999999999,"N_COORD97":2587933.7400000002,"ADDRESS":"草店２１號","OBJECTID":128177},"geometry":{"x":192247.9000000013,"y":2587933.7400000002}},{"attributes":{"ID":128178,"DIS_CODE":0,"TOWNNAME":"白河區","LI":"草店里","LIN":"3鄰","STREET":" ","SECT":" ","MAREA":"草店","LANE":" ","ALLEY":" ","HOUSE_NO":"２２之１號","E_COORD97":192233.64000000001,"N_COORD97":2588021.1000000001,"ADDRESS":"草店２２之１號","OBJECTID":128178},"geometry":{"x":192233.6400000006,"y":2588021.1000000015}},{"attributes":{"ID":128179,"DIS_CODE":0,"TOWNNAME":"白河區","LI":"草店里","LIN":"3鄰","STREET":" ","SECT":" ","MAREA":"草店","LANE":" ","ALLEY":" ","HOUSE_NO":"２２號","E_COORD97":192202.42000000001,"N_COORD97":2587976.1899999999,"ADDRESS":"草店２２號","OBJECTID":128179},"geometry":{"x":192202.42000000179,"y":2587976.1900000013}},{"attributes":{"ID":128180,"DIS_CODE":0,"TOWNNAME":"官田區","LI":"南\u25A0里","LIN":"6鄰","STREET":" ","SECT":" ","MAREA":"南\u25A0","LANE":" ","ALLEY":" ","HOUSE_NO":"７０號","E_COORD97":178873.76999999999,"N_COORD97":2568034.1000000001,"ADDRESS":"南\u25A0７０號","OBJECTID":128180},"geometry":{"x":178873.77000000142,"y":2568034.1000000034}},{"attributes":{"ID":128181,"DIS_CODE":0,"TOWNNAME":"官田區","LI":"南\u25A0里","LIN":"6鄰","STREET":" ","SECT":" ","MAREA":"南\u25A0","LANE":" ","ALLEY":" ","HOUSE_NO":"７４號","E_COORD97":178829.42999999999,"N_COORD97":2567995.5099999998,"ADDRESS":"南\u25A0７４號","OBJECTID":128181},"geometry":{"x":178829.43000000063,"y":2567995.5100000016}},{"attributes":{"ID":128182,"DIS_CODE":0,"TOWNNAME":"官田區","LI":"南\u25A0里","LIN":"6鄰","STREET":" ","SECT":" ","MAREA":"南\u25A0","LANE":" ","ALLEY":" ","HOUSE_NO":"７１號之１","E_COORD97":178881.51000000001,"N_COORD97":2568023.7200000002,"ADDRESS":"南\u25A0７１號之１","OBJECTID":128182},"geometry":{"x":178881.51000000071,"y":2568023.7199999988}},{"attributes":{"ID":128183,"DIS_CODE":0,"TOWNNAME":"官田區","LI":"南\u25A0里","LIN":"6鄰","STREET":" ","SECT":" ","MAREA":"南\u25A0","LANE":" ","ALLEY":" ","HOUSE_NO":"７２號","E_COORD97":178867.59,"N_COORD97":2567985.5600000001,"ADDRESS":"南\u25A0７２號","OBJECTID":128183},"geometry":{"x":178867.59000000078,"y":2567985.5600000024}},{"attributes":{"ID":128184,"DIS_CODE":0,"TOWNNAME":"北區","LI":"大仁里","LIN":"11鄰","STREET":"北門路","SECT":"二段","MAREA":" ","LANE":"２３７巷","ALLEY":"４１弄","HOUSE_NO":"１６號","E_COORD97":169368.10999999999,"N_COORD97":2545267.3500000001,"ADDRESS":"北門路二段２３７巷４１弄１６號","OBJECTID":128184},"geometry":{"x":169368.11000000127,"y":2545267.3500000015}},{"attributes":{"ID":128185,"DIS_CODE":0,"TOWNNAME":"永康區","LI":"勝利里","LIN":"6鄰","STREET":"勝學路","SECT":" ","MAREA":" ","LANE":" ","ALLEY":" ","HOUSE_NO":"２０號","E_COORD97":171165.42999999999,"N_COORD97":2544612.25,"ADDRESS":"勝學路２０號","OBJECTID":128185},"geometry":{"x":171165.43000000063,"y":2544612.2499999981}},{"attributes":{"ID":128186,"DIS_CODE":0,"TOWNNAME":"北區","LI":"大仁里","LIN":"11鄰","STREET":"北門路","SECT":"二段","MAREA":" ","LANE":"２３７巷","ALLEY":"４１弄","HOUSE_NO":"１８號","E_COORD97":169362.32000000001,"N_COORD97":2545268.3999999999,"ADDRESS":"北門路二段２３７巷４１弄１８號","OBJECTID":128186},"geometry":{"x":169362.3200000003,"y":2545268.4000000004}},{"attributes":{"ID":128187,"DIS_CODE":0,"TOWNNAME":"官田區","LI":"南\u25A0里","LIN":"6鄰","STREET":" ","SECT":" ","MAREA":"南\u25A0","LANE":" ","ALLEY":" ","HOUSE_NO":"７３號","E_COORD97":178850.38,"N_COORD97":2567976.1600000001,"ADDRESS":"南\u25A0７３號","OBJECTID":128187},"geometry":{"x":178850.38000000082,"y":2567976.1599999983}},{"attributes":{"ID":128188,"DIS_CODE":0,"TOWNNAME":"北區","LI":"大仁里","LIN":"11鄰","STREET":"北門路","SECT":"二段","MAREA":" ","LANE":"２３７巷","ALLEY":"４１弄","HOUSE_NO":"２號","E_COORD97":169373.91,"N_COORD97":2545312.5099999998,"ADDRESS":"北門路二段２３７巷４１弄２號","OBJECTID":128188},"geometry":{"x":169373.91000000108,"y":2545312.5100000035}},{"attributes":{"ID":128189,"DIS_CODE":0,"TOWNNAME":"北區","LI":"大仁里","LIN":"11鄰","STREET":"北門路","SECT":"二段","MAREA":" ","LANE":"２３７巷","ALLEY":"３１弄","HOUSE_NO":"３號","E_COORD97":169409.31,"N_COORD97":2545284.79,"ADDRESS":"北門路二段２３７巷３１弄３號","OBJECTID":128189},"geometry":{"x":169409.31000000145,"y":2545284.7899999991}},{"attributes":{"ID":128190,"DIS_CODE":0,"TOWNNAME":"北區","LI":"大仁里","LIN":"11鄰","STREET":"北門路","SECT":"二段","MAREA":" ","LANE":"２３７巷","ALLEY":"３１弄","HOUSE_NO":"３號之１","E_COORD97":169408.07999999999,"N_COORD97":2545279.7999999998,"ADDRESS":"北門路二段２３７巷３１弄３號之１","OBJECTID":128190},"geometry":{"x":169408.08000000194,"y":2545279.8000000007}},{"attributes":{"ID":128191,"DIS_CODE":0,"TOWNNAME":"白河區","LI":"大竹里","LIN":"6鄰","STREET":" ","SECT":" ","MAREA":"大排竹","LANE":" ","ALLEY":" ","HOUSE_NO":"１００之１號","E_COORD97":189673.73999999999,"N_COORD97":2585351.7000000002,"ADDRESS":"大排竹１００之１號","OBJECTID":128191},"geometry":{"x":189673.74000000115,"y":2585351.7000000011}},{"attributes":{"ID":128192,"DIS_CODE":0,"TOWNNAME":"白河區","LI":"大竹里","LIN":"6鄰","STREET":" ","SECT":" ","MAREA":"大排竹","LANE":" ","ALLEY":" ","HOUSE_NO":"１００號","E_COORD97":189674.67000000001,"N_COORD97":2585355.8300000001,"ADDRESS":"大排竹１００號","OBJECTID":128192},"geometry":{"x":189674.66999999993,"y":2585355.8300000019}},{"attributes":{"ID":128193,"DIS_CODE":0,"TOWNNAME":"白河區","LI":"大竹里","LIN":"6鄰","STREET":" ","SECT":" ","MAREA":"大排竹","LANE":" ","ALLEY":" ","HOUSE_NO":"１０１之１０號","E_COORD97":189636.45999999999,"N_COORD97":2585309.8900000001,"ADDRESS":"大排竹１０１之１０號","OBJECTID":128193},"geometry":{"x":189636.46000000089,"y":2585309.8900000006}},{"attributes":{"ID":128194,"DIS_CODE":0,"TOWNNAME":"北區","LI":"大仁里","LIN":"11鄰","STREET":"北門路","SECT":"二段","MAREA":" ","LANE":"２３７巷","ALLEY":"３１弄","HOUSE_NO":"５號","E_COORD97":169406.98999999999,"N_COORD97":2545274,"ADDRESS":"北門路二段２３７巷３１弄５號","OBJECTID":128194},"geometry":{"x":169406.99000000209,"y":2545274}},{"attributes":{"ID":128195,"DIS_CODE":0,"TOWNNAME":"關廟區","LI":"關廟里","LIN":"11鄰","STREET":"大富街","SECT":" ","MAREA":" ","LANE":"３０１巷","ALLEY":"７弄","HOUSE_NO":"５號","E_COORD97":181014.44,"N_COORD97":2539702.1499999999,"ADDRESS":"大富街３０１巷７弄５號","OBJECTID":128195},"geometry":{"x":181014.43999999948,"y":2539702.1500000022}},{"attributes":{"ID":128196,"DIS_CODE":0,"TOWNNAME":"北區","LI":"大仁里","LIN":"11鄰","STREET":"北門路","SECT":"二段","MAREA":" ","LANE":"２３７巷","ALLEY":"３１弄","HOUSE_NO":"５號之１","E_COORD97":169405.48000000001,"N_COORD97":2545268.9500000002,"ADDRESS":"北門路二段２３７巷３１弄５號之１","OBJECTID":128196},"geometry":{"x":169405.48000000045,"y":2545268.9500000011}},{"attributes":{"ID":128197,"DIS_CODE":0,"TOWNNAME":"安平區","LI":"平安里","LIN":"11鄰","STREET":"安平路","SECT":" ","MAREA":" ","LANE":"５００巷","ALLEY":"１７弄","HOUSE_NO":"１０號","E_COORD97":165104.72,"N_COORD97":2544412.1800000002,"ADDRESS":"安平路５００巷１７弄１０號","OBJECTID":128197},"geometry":{"x":165104.72000000067,"y":2544412.1799999997}},{"attributes":{"ID":128198,"DIS_CODE":0,"TOWNNAME":"永康區","LI":"勝利里","LIN":"6鄰","STREET":"勝學路","SECT":" ","MAREA":" ","LANE":" ","ALLEY":" ","HOUSE_NO":"１號","E_COORD97":171160.67000000001,"N_COORD97":2544577.7599999998,"ADDRESS":"勝學路１號","OBJECTID":128198},"geometry":{"x":171160.67000000086,"y":2544577.7599999998}},{"attributes":{"ID":128199,"DIS_CODE":0,"TOWNNAME":"白河區","LI":"白河里","LIN":"6鄰","STREET":"中山路","SECT":" ","MAREA":" ","LANE":" ","ALLEY":" ","HOUSE_NO":"３４號","E_COORD97":190169.26000000001,"N_COORD97":2583008.7999999998,"ADDRESS":"中山路３４號","OBJECTID":128199},"geometry":{"x":190169.26000000071,"y":2583008.7999999989}},{"attributes":{"ID":128200,"DIS_CODE":0,"TOWNNAME":"白河區","LI":"大竹里","LIN":"6鄰","STREET":" ","SECT":" ","MAREA":"大排竹","LANE":" ","ALLEY":" ","HOUSE_NO":"９９之５號","E_COORD97":189673.19,"N_COORD97":2585294.0800000001,"ADDRESS":"大排竹９９之５號","OBJECTID":128200},"geometry":{"x":189673.19000000041,"y":2585294.0800000001}}]}