{"displayFieldName":"TOWNNAME","fieldAliases":{"ID":"ID","DIS_CODE":"DIS_CODE","TOWNNAME":"TOWNNAME","LI":"LI","LIN":"LIN","STREET":"STREET","SECT":"SECT","MAREA":"MAREA","LANE":"LANE","ALLEY":"ALLEY","HOUSE_NO":"HOUSE_NO","E_COORD97":"E_COORD97","N_COORD97":"N_COORD97","ADDRESS":"ADDRESS","OBJECTID":"OBJECTID"},"geometryType":"esriGeometryPoint","spatialReference":{"wkid":102443,"latestWkid":3826},"fields":[{"name":"ID","type":"esriFieldTypeDouble","alias":"ID"},{"name":"DIS_CODE","type":"esriFieldTypeInteger","alias":"DIS_CODE"},{"name":"TOWNNAME","type":"esriFieldTypeString","alias":"TOWNNAME","length":8},{"name":"LI","type":"esriFieldTypeString","alias":"LI","length":8},{"name":"LIN","type":"esriFieldTypeString","alias":"LIN","length":12},{"name":"STREET","type":"esriFieldTypeString","alias":"STREET","length":20},{"name":"SECT","type":"esriFieldTypeString","alias":"SECT","length":8},{"name":"MAREA","type":"esriFieldTypeString","alias":"MAREA","length":12},{"name":"LANE","type":"esriFieldTypeString","alias":"LANE","length":10},{"name":"ALLEY","type":"esriFieldTypeString","alias":"ALLEY","length":10},{"name":"HOUSE_NO","type":"esriFieldTypeString","alias":"HOUSE_NO","length":20},{"name":"E_COORD97","type":"esriFieldTypeDouble","alias":"E_COORD97"},{"name":"N_COORD97","type":"esriFieldTypeDouble","alias":"N_COORD97"},{"name":"ADDRESS","type":"esriFieldTypeString","alias":"ADDRESS","length":50},{"name":"OBJECTID","type":"esriFieldTypeOID","alias":"OBJECTID"}],"features":[{"attributes":{"ID":279607,"DIS_CODE":0,"TOWNNAME":"中西區","LI":"普濟里","LIN":"15鄰","STREET":"成功路","SECT":" ","MAREA":" ","LANE":" ","ALLEY":" ","HOUSE_NO":"３４３號底層","E_COORD97":167966.85999999999,"N_COORD97":2544514.5,"ADDRESS":"成功路３４３號底層","OBJECTID":279601},"geometry":{"x":167966.86000000034,"y":2544514.5}},{"attributes":{"ID":279608,"DIS_CODE":0,"TOWNNAME":"中西區","LI":"普濟里","LIN":"15鄰","STREET":"成功路","SECT":" ","MAREA":" ","LANE":" ","ALLEY":" ","HOUSE_NO":"３４５號","E_COORD97":167959.01999999999,"N_COORD97":2544517.1499999999,"ADDRESS":"成功路３４５號","OBJECTID":279602},"geometry":{"x":167959.02000000048,"y":2544517.1500000004}},{"attributes":{"ID":279609,"DIS_CODE":0,"TOWNNAME":"北區","LI":"光武里","LIN":"6鄰","STREET":"北門路","SECT":"二段","MAREA":" ","LANE":"５４７巷","ALLEY":" ","HOUSE_NO":"３８號","E_COORD97":169589.17999999999,"N_COORD97":2545726.9300000002,"ADDRESS":"北門路二段５４７巷３８號","OBJECTID":279603},"geometry":{"x":169589.1799999997,"y":2545726.9300000016}},{"attributes":{"ID":279610,"DIS_CODE":0,"TOWNNAME":"北區","LI":"成德里","LIN":"6鄰","STREET":"民德路","SECT":" ","MAREA":" ","LANE":"５８巷","ALLEY":" ","HOUSE_NO":"６７號","E_COORD97":168354.44,"N_COORD97":2545449.4199999999,"ADDRESS":"民德路５８巷６７號","OBJECTID":279604},"geometry":{"x":168354.44000000041,"y":2545449.4200000018}},{"attributes":{"ID":279611,"DIS_CODE":0,"TOWNNAME":"安平區","LI":"文平里","LIN":"6鄰","STREET":"建平六街","SECT":" ","MAREA":" ","LANE":"９０巷","ALLEY":" ","HOUSE_NO":"８號","E_COORD97":166287.45999999999,"N_COORD97":2543144.6200000001,"ADDRESS":"建平六街９０巷８號","OBJECTID":279605},"geometry":{"x":166287.45999999996,"y":2543144.6200000029}},{"attributes":{"ID":279612,"DIS_CODE":0,"TOWNNAME":"北區","LI":"正風里","LIN":"6鄰","STREET":"公園路","SECT":" ","MAREA":" ","LANE":"９１８巷","ALLEY":" ","HOUSE_NO":"２９號","E_COORD97":169499.12,"N_COORD97":2546165.5899999999,"ADDRESS":"公園路９１８巷２９號","OBJECTID":279606},"geometry":{"x":169499.11999999918,"y":2546165.5899999999}},{"attributes":{"ID":279613,"DIS_CODE":0,"TOWNNAME":"北區","LI":"興南里","LIN":"6鄰","STREET":"公園路","SECT":" ","MAREA":" ","LANE":"３２１巷","ALLEY":" ","HOUSE_NO":"１６號","E_COORD97":168949.03,"N_COORD97":2544978.0299999998,"ADDRESS":"公園路３２１巷１６號","OBJECTID":279607},"geometry":{"x":168949.03000000212,"y":2544978.0299999993}},{"attributes":{"ID":279614,"DIS_CODE":0,"TOWNNAME":"北區","LI":"興南里","LIN":"6鄰","STREET":"公園路","SECT":" ","MAREA":" ","LANE":"３２１巷","ALLEY":" ","HOUSE_NO":"１６號之１","E_COORD97":168957.07000000001,"N_COORD97":2544983.8799999999,"ADDRESS":"公園路３２１巷１６號之１","OBJECTID":279608},"geometry":{"x":168957.0700000003,"y":2544983.8800000008}},{"attributes":{"ID":279615,"DIS_CODE":0,"TOWNNAME":"北區","LI":"興南里","LIN":"6鄰","STREET":"公園路","SECT":" ","MAREA":" ","LANE":"３２１巷","ALLEY":" ","HOUSE_NO":"１８號","E_COORD97":168945.20999999999,"N_COORD97":2544992.8700000001,"ADDRESS":"公園路３２１巷１８號","OBJECTID":279609},"geometry":{"x":168945.20999999996,"y":2544992.8700000029}},{"attributes":{"ID":279616,"DIS_CODE":0,"TOWNNAME":"北區","LI":"長榮里","LIN":"6鄰","STREET":"長榮路","SECT":"五段","MAREA":" ","LANE":"４１巷","ALLEY":" ","HOUSE_NO":"２０號","E_COORD97":169989.37,"N_COORD97":2545569.0099999998,"ADDRESS":"長榮路五段４１巷２０號","OBJECTID":279610},"geometry":{"x":169989.37000000104,"y":2545569.0099999998}},{"attributes":{"ID":279617,"DIS_CODE":0,"TOWNNAME":"北區","LI":"長榮里","LIN":"6鄰","STREET":"長榮路","SECT":"五段","MAREA":" ","LANE":"４１巷","ALLEY":" ","HOUSE_NO":"２２號","E_COORD97":169979.04999999999,"N_COORD97":2545576.6299999999,"ADDRESS":"長榮路五段４１巷２２號","OBJECTID":279611},"geometry":{"x":169979.04999999888,"y":2545576.6300000008}},{"attributes":{"ID":279618,"DIS_CODE":0,"TOWNNAME":"南區","LI":"金華里","LIN":"6鄰","STREET":"金華路","SECT":"二段","MAREA":" ","LANE":"１４７巷","ALLEY":" ","HOUSE_NO":"１１號","E_COORD97":167019.82000000001,"N_COORD97":2542368.2599999998,"ADDRESS":"金華路二段１４７巷１１號","OBJECTID":279612},"geometry":{"x":167019.82000000216,"y":2542368.2600000016}},{"attributes":{"ID":279619,"DIS_CODE":0,"TOWNNAME":"南區","LI":"金華里","LIN":"6鄰","STREET":"金華路","SECT":"二段","MAREA":" ","LANE":"１４７巷","ALLEY":" ","HOUSE_NO":"１２號","E_COORD97":167013.5,"N_COORD97":2542397.9500000002,"ADDRESS":"金華路二段１４７巷１２號","OBJECTID":279613},"geometry":{"x":167013.50000000093,"y":2542397.9500000011}},{"attributes":{"ID":279620,"DIS_CODE":0,"TOWNNAME":"南區","LI":"金華里","LIN":"6鄰","STREET":"金華路","SECT":"二段","MAREA":" ","LANE":"１４７巷","ALLEY":" ","HOUSE_NO":"１３號","E_COORD97":167015.60999999999,"N_COORD97":2542369.3100000001,"ADDRESS":"金華路二段１４７巷１３號","OBJECTID":279614},"geometry":{"x":167015.61000000034,"y":2542369.3100000024}},{"attributes":{"ID":279621,"DIS_CODE":0,"TOWNNAME":"南區","LI":"金華里","LIN":"6鄰","STREET":"金華路","SECT":"二段","MAREA":" ","LANE":"１４７巷","ALLEY":" ","HOUSE_NO":"１４號","E_COORD97":167008.5,"N_COORD97":2542398.48,"ADDRESS":"金華路二段１４７巷１４號","OBJECTID":279615},"geometry":{"x":167008.50000000093,"y":2542398.4800000023}},{"attributes":{"ID":279622,"DIS_CODE":0,"TOWNNAME":"新營區","LI":"新北里","LIN":"6鄰","STREET":"三興街","SECT":" ","MAREA":" ","LANE":"２０５巷","ALLEY":" ","HOUSE_NO":"３５號","E_COORD97":179216.19,"N_COORD97":2579594.1899999999,"ADDRESS":"三興街２０５巷３５號","OBJECTID":279616},"geometry":{"x":179216.19000000134,"y":2579594.1900000032}},{"attributes":{"ID":279623,"DIS_CODE":0,"TOWNNAME":"新營區","LI":"南紙里","LIN":"6鄰","STREET":"南紙街","SECT":" ","MAREA":" ","LANE":"１４３巷","ALLEY":" ","HOUSE_NO":"９號","E_COORD97":177839.60999999999,"N_COORD97":2577374.8500000001,"ADDRESS":"南紙街１４３巷９號","OBJECTID":279617},"geometry":{"x":177839.61000000034,"y":2577374.8499999996}},{"attributes":{"ID":279624,"DIS_CODE":0,"TOWNNAME":"北區","LI":"安民里","LIN":"6鄰","STREET":"康樂街","SECT":" ","MAREA":" ","LANE":"４０６巷","ALLEY":" ","HOUSE_NO":"１２號","E_COORD97":167824.84,"N_COORD97":2544712.3300000001,"ADDRESS":"康樂街４０６巷１２號","OBJECTID":279618},"geometry":{"x":167824.84000000078,"y":2544712.3300000001}},{"attributes":{"ID":279625,"DIS_CODE":0,"TOWNNAME":"北區","LI":"安民里","LIN":"6鄰","STREET":"康樂街","SECT":" ","MAREA":" ","LANE":"４０６巷","ALLEY":" ","HOUSE_NO":"１４號","E_COORD97":167828.92000000001,"N_COORD97":2544711.9399999999,"ADDRESS":"康樂街４０６巷１４號","OBJECTID":279619},"geometry":{"x":167828.92000000179,"y":2544711.9399999995}},{"attributes":{"ID":279626,"DIS_CODE":0,"TOWNNAME":"永康區","LI":"三合里","LIN":"6鄰","STREET":"南工街","SECT":" ","MAREA":" ","LANE":"１１４巷","ALLEY":" ","HOUSE_NO":"７號","E_COORD97":172131.73000000001,"N_COORD97":2545762.0699999998,"ADDRESS":"南工街１１４巷７號","OBJECTID":279620},"geometry":{"x":172131.73000000138,"y":2545762.0700000003}},{"attributes":{"ID":279627,"DIS_CODE":0,"TOWNNAME":"北區","LI":"安民里","LIN":"6鄰","STREET":"康樂街","SECT":" ","MAREA":" ","LANE":"４０６巷","ALLEY":" ","HOUSE_NO":"１６號","E_COORD97":167833.98000000001,"N_COORD97":2544709.6099999999,"ADDRESS":"康樂街４０６巷１６號","OBJECTID":279621},"geometry":{"x":167833.98000000045,"y":2544709.6099999994}},{"attributes":{"ID":279628,"DIS_CODE":0,"TOWNNAME":"北區","LI":"安民里","LIN":"6鄰","STREET":"康樂街","SECT":" ","MAREA":" ","LANE":"４０６巷","ALLEY":" ","HOUSE_NO":"１８號","E_COORD97":167837.09,"N_COORD97":2544708.6400000001,"ADDRESS":"康樂街４０６巷１８號","OBJECTID":279622},"geometry":{"x":167837.08999999985,"y":2544708.6399999987}},{"attributes":{"ID":279629,"DIS_CODE":0,"TOWNNAME":"仁德區","LI":"新田里","LIN":"12鄰","STREET":"民安路","SECT":"一段","MAREA":" ","LANE":" ","ALLEY":" ","HOUSE_NO":"４４３號","E_COORD97":173172.17000000001,"N_COORD97":2539362.3199999998,"ADDRESS":"民安路一段４４３號","OBJECTID":279623},"geometry":{"x":173172.17000000179,"y":2539362.3200000003}},{"attributes":{"ID":279630,"DIS_CODE":0,"TOWNNAME":"仁德區","LI":"後壁里","LIN":"11鄰","STREET":"德善路","SECT":" ","MAREA":" ","LANE":" ","ALLEY":" ","HOUSE_NO":"２１３號之５","E_COORD97":173771.73999999999,"N_COORD97":2538785.79,"ADDRESS":"德善路２１３號之５","OBJECTID":279624},"geometry":{"x":173771.74000000022,"y":2538785.7899999991}},{"attributes":{"ID":279631,"DIS_CODE":0,"TOWNNAME":"仁德區","LI":"新田里","LIN":"11鄰","STREET":"北保路","SECT":" ","MAREA":" ","LANE":" ","ALLEY":" ","HOUSE_NO":"８２號","E_COORD97":173203.04000000001,"N_COORD97":2539531.7400000002,"ADDRESS":"北保路８２號","OBJECTID":279625},"geometry":{"x":173203.04000000004,"y":2539531.7400000021}},{"attributes":{"ID":279632,"DIS_CODE":0,"TOWNNAME":"北區","LI":"安民里","LIN":"6鄰","STREET":"康樂街","SECT":" ","MAREA":" ","LANE":"４０６巷","ALLEY":" ","HOUSE_NO":"２０號","E_COORD97":167844.09,"N_COORD97":2544706.1200000001,"ADDRESS":"康樂街４０６巷２０號","OBJECTID":279626},"geometry":{"x":167844.08999999985,"y":2544706.1200000048}},{"attributes":{"ID":279633,"DIS_CODE":0,"TOWNNAME":"北區","LI":"安民里","LIN":"6鄰","STREET":"康樂街","SECT":" ","MAREA":" ","LANE":"４０６巷","ALLEY":" ","HOUSE_NO":"２２號","E_COORD97":167840.01000000001,"N_COORD97":2544707.8700000001,"ADDRESS":"康樂街４０６巷２２號","OBJECTID":279627},"geometry":{"x":167840.01000000164,"y":2544707.8700000048}},{"attributes":{"ID":279634,"DIS_CODE":0,"TOWNNAME":"鹽水區","LI":"武廟里","LIN":"6鄰","STREET":"文武街","SECT":" ","MAREA":" ","LANE":"７２巷","ALLEY":" ","HOUSE_NO":"１３號","E_COORD97":175019.64999999999,"N_COORD97":2580227.54,"ADDRESS":"文武街７２巷１３號","OBJECTID":279628},"geometry":{"x":175019.6500000013,"y":2580227.5399999991}},{"attributes":{"ID":279635,"DIS_CODE":0,"TOWNNAME":"安平區","LI":"西門里","LIN":"6鄰","STREET":"國勝路","SECT":" ","MAREA":" ","LANE":"３５巷","ALLEY":" ","HOUSE_NO":"２０號之１","E_COORD97":163808.37,"N_COORD97":2544686.2000000002,"ADDRESS":"國勝路３５巷２０號之１","OBJECTID":279629},"geometry":{"x":163808.36999999918,"y":2544686.1999999993}},{"attributes":{"ID":279636,"DIS_CODE":0,"TOWNNAME":"安平區","LI":"西門里","LIN":"6鄰","STREET":"國勝路","SECT":" ","MAREA":" ","LANE":"３５巷","ALLEY":" ","HOUSE_NO":"２２號","E_COORD97":163804.25,"N_COORD97":2544688.2000000002,"ADDRESS":"國勝路３５巷２２號","OBJECTID":279630},"geometry":{"x":163804.25000000186,"y":2544688.2000000011}},{"attributes":{"ID":279637,"DIS_CODE":0,"TOWNNAME":"安平區","LI":"西門里","LIN":"6鄰","STREET":"國勝路","SECT":" ","MAREA":" ","LANE":"３５巷","ALLEY":" ","HOUSE_NO":"２２號之１","E_COORD97":163802.38,"N_COORD97":2544692.7200000002,"ADDRESS":"國勝路３５巷２２號之１","OBJECTID":279631},"geometry":{"x":163802.37999999989,"y":2544692.7200000025}},{"attributes":{"ID":279638,"DIS_CODE":0,"TOWNNAME":"安平區","LI":"西門里","LIN":"6鄰","STREET":"國勝路","SECT":" ","MAREA":" ","LANE":"３５巷","ALLEY":" ","HOUSE_NO":"２４號","E_COORD97":163797.14000000001,"N_COORD97":2544702.6699999999,"ADDRESS":"國勝路３５巷２４號","OBJECTID":279632},"geometry":{"x":163797.13999999966,"y":2544702.6700000018}},{"attributes":{"ID":279639,"DIS_CODE":0,"TOWNNAME":"北區","LI":"大和里","LIN":"6鄰","STREET":"大興街","SECT":" ","MAREA":" ","LANE":"１３２巷","ALLEY":" ","HOUSE_NO":"４９號","E_COORD97":167010.85000000001,"N_COORD97":2545879.8399999999,"ADDRESS":"大興街１３２巷４９號","OBJECTID":279633},"geometry":{"x":167010.85000000056,"y":2545879.8400000036}},{"attributes":{"ID":279640,"DIS_CODE":0,"TOWNNAME":"北區","LI":"大和里","LIN":"6鄰","STREET":"大興街","SECT":" ","MAREA":" ","LANE":"１３２巷","ALLEY":" ","HOUSE_NO":"５１號","E_COORD97":167010.51999999999,"N_COORD97":2545884.3199999998,"ADDRESS":"大興街１３２巷５１號","OBJECTID":279634},"geometry":{"x":167010.51999999955,"y":2545884.3200000022}},{"attributes":{"ID":279641,"DIS_CODE":0,"TOWNNAME":"東區","LI":"大智里","LIN":"4鄰","STREET":"生產路","SECT":" ","MAREA":" ","LANE":" ","ALLEY":" ","HOUSE_NO":"５２２號","E_COORD97":171055.17000000001,"N_COORD97":2540634.96,"ADDRESS":"生產路５２２號","OBJECTID":279635},"geometry":{"x":171055.17000000086,"y":2540634.9600000046}},{"attributes":{"ID":279642,"DIS_CODE":0,"TOWNNAME":"東區","LI":"小東里","LIN":"13鄰","STREET":"光明街","SECT":" ","MAREA":" ","LANE":" ","ALLEY":" ","HOUSE_NO":"３８號之５","E_COORD97":170876.85000000001,"N_COORD97":2544359.75,"ADDRESS":"光明街３８號之５","OBJECTID":279636},"geometry":{"x":170876.84999999963,"y":2544359.7500000019}},{"attributes":{"ID":279643,"DIS_CODE":0,"TOWNNAME":"新市區","LI":"大營里","LIN":"2鄰","STREET":" ","SECT":" ","MAREA":"大營","LANE":" ","ALLEY":" ","HOUSE_NO":"２６號","E_COORD97":179649.48000000001,"N_COORD97":2555633.5,"ADDRESS":"大營２６號","OBJECTID":279637},"geometry":{"x":179649.48000000045,"y":2555633.5000000019}},{"attributes":{"ID":279644,"DIS_CODE":0,"TOWNNAME":"安定區","LI":"港尾里","LIN":"2鄰","STREET":" ","SECT":" ","MAREA":"下洲子","LANE":" ","ALLEY":" ","HOUSE_NO":"１７之２２號","E_COORD97":172394.28,"N_COORD97":2556660,"ADDRESS":"下洲子１７之２２號","OBJECTID":279638},"geometry":{"x":172394.28000000119,"y":2556659.9999999981}},{"attributes":{"ID":279645,"DIS_CODE":0,"TOWNNAME":"北區","LI":"大和里","LIN":"6鄰","STREET":"大興街","SECT":" ","MAREA":" ","LANE":"１３２巷","ALLEY":" ","HOUSE_NO":"５３號","E_COORD97":167010.51999999999,"N_COORD97":2545888.8700000001,"ADDRESS":"大興街１３２巷５３號","OBJECTID":279639},"geometry":{"x":167010.51999999955,"y":2545888.8700000029}},{"attributes":{"ID":279646,"DIS_CODE":0,"TOWNNAME":"安定區","LI":"港尾里","LIN":"2鄰","STREET":" ","SECT":" ","MAREA":"下洲子","LANE":" ","ALLEY":" ","HOUSE_NO":"１７之２３號","E_COORD97":172395.04999999999,"N_COORD97":2556655.9199999999,"ADDRESS":"下洲子１７之２３號","OBJECTID":279640},"geometry":{"x":172395.05000000075,"y":2556655.9199999999}},{"attributes":{"ID":279647,"DIS_CODE":0,"TOWNNAME":"安定區","LI":"港尾里","LIN":"2鄰","STREET":" ","SECT":" ","MAREA":"下洲子","LANE":" ","ALLEY":" ","HOUSE_NO":"１７之２５號","E_COORD97":172396.35000000001,"N_COORD97":2556651.9199999999,"ADDRESS":"下洲子１７之２５號","OBJECTID":279641},"geometry":{"x":172396.35000000056,"y":2556651.9200000018}},{"attributes":{"ID":279648,"DIS_CODE":0,"TOWNNAME":"安定區","LI":"港尾里","LIN":"2鄰","STREET":" ","SECT":" ","MAREA":"下洲子","LANE":" ","ALLEY":" ","HOUSE_NO":"１７之２６號","E_COORD97":172397.01000000001,"N_COORD97":2556647.8900000001,"ADDRESS":"下洲子１７之２６號","OBJECTID":279642},"geometry":{"x":172397.01000000071,"y":2556647.8900000043}},{"attributes":{"ID":279649,"DIS_CODE":0,"TOWNNAME":"安定區","LI":"港尾里","LIN":"2鄰","STREET":" ","SECT":" ","MAREA":"下洲子","LANE":" ","ALLEY":" ","HOUSE_NO":"１７之２７號","E_COORD97":172397.54000000001,"N_COORD97":2556643.7599999998,"ADDRESS":"下洲子１７之２７號","OBJECTID":279643},"geometry":{"x":172397.54000000097,"y":2556643.7599999998}},{"attributes":{"ID":279650,"DIS_CODE":0,"TOWNNAME":"仁德區","LI":"新田里","LIN":"4鄰","STREET":"勝利路","SECT":" ","MAREA":" ","LANE":" ","ALLEY":" ","HOUSE_NO":"９４號","E_COORD97":173980.04000000001,"N_COORD97":2539709.7599999998,"ADDRESS":"勝利路９４號","OBJECTID":279644},"geometry":{"x":173980.0400000019,"y":2539709.7600000035}},{"attributes":{"ID":279651,"DIS_CODE":0,"TOWNNAME":"仁德區","LI":"後壁里","LIN":"41鄰","STREET":"德善路","SECT":" ","MAREA":" ","LANE":" ","ALLEY":" ","HOUSE_NO":"２６９號","E_COORD97":173904.19,"N_COORD97":2538652.52,"ADDRESS":"德善路２６９號","OBJECTID":279645},"geometry":{"x":173904.19000000041,"y":2538652.5199999996}},{"attributes":{"ID":279652,"DIS_CODE":0,"TOWNNAME":"安定區","LI":"中榮里","LIN":"2鄰","STREET":" ","SECT":" ","MAREA":"許中營","LANE":" ","ALLEY":" ","HOUSE_NO":"２５之２２號","E_COORD97":172557.39461700001,"N_COORD97":2554930.78945,"ADDRESS":"許中營２５之２２號","OBJECTID":279646},"geometry":{"x":172557.39461699966,"y":2554930.7894550022}},{"attributes":{"ID":279653,"DIS_CODE":0,"TOWNNAME":"北區","LI":"大和里","LIN":"6鄰","STREET":"大興街","SECT":" ","MAREA":" ","LANE":"１３２巷","ALLEY":" ","HOUSE_NO":"５號","E_COORD97":167021.54000000001,"N_COORD97":2545772.23,"ADDRESS":"大興街１３２巷５號","OBJECTID":279647},"geometry":{"x":167021.54000000097,"y":2545772.2300000004}},{"attributes":{"ID":279654,"DIS_CODE":0,"TOWNNAME":"安定區","LI":"中榮里","LIN":"2鄰","STREET":" ","SECT":" ","MAREA":"許中營","LANE":" ","ALLEY":" ","HOUSE_NO":"２５之２３號","E_COORD97":172562.161116,"N_COORD97":2554931.0540399998,"ADDRESS":"許中營２５之２３號","OBJECTID":279648},"geometry":{"x":172562.1611160012,"y":2554931.0540380012}},{"attributes":{"ID":279655,"DIS_CODE":0,"TOWNNAME":"仁德區","LI":"新田里","LIN":"15鄰","STREET":"中正路","SECT":"二段","MAREA":" ","LANE":" ","ALLEY":" ","HOUSE_NO":"４６２號","E_COORD97":173321.32999999999,"N_COORD97":2539376.0299999998,"ADDRESS":"中正路二段４６２號","OBJECTID":279649},"geometry":{"x":173321.33000000007,"y":2539376.0300000012}},{"attributes":{"ID":279656,"DIS_CODE":0,"TOWNNAME":"北區","LI":"大和里","LIN":"6鄰","STREET":"大興街","SECT":" ","MAREA":" ","LANE":"１３２巷","ALLEY":" ","HOUSE_NO":"６５號","E_COORD97":167008.51000000001,"N_COORD97":2545912.0899999999,"ADDRESS":"大興街１３２巷６５號","OBJECTID":279650},"geometry":{"x":167008.51000000071,"y":2545912.0900000036}},{"attributes":{"ID":279657,"DIS_CODE":0,"TOWNNAME":"北區","LI":"大和里","LIN":"6鄰","STREET":"大興街","SECT":" ","MAREA":" ","LANE":"１３２巷","ALLEY":" ","HOUSE_NO":"６７號","E_COORD97":167008.09,"N_COORD97":2545916.3799999999,"ADDRESS":"大興街１３２巷６７號","OBJECTID":279651},"geometry":{"x":167008.09000000078,"y":2545916.3800000008}},{"attributes":{"ID":279658,"DIS_CODE":0,"TOWNNAME":"北區","LI":"大和里","LIN":"6鄰","STREET":"大興街","SECT":" ","MAREA":" ","LANE":"１３２巷","ALLEY":" ","HOUSE_NO":"６９號","E_COORD97":167007.84,"N_COORD97":2545920.9399999999,"ADDRESS":"大興街１３２巷６９號","OBJECTID":279652},"geometry":{"x":167007.84000000078,"y":2545920.9400000013}},{"attributes":{"ID":279659,"DIS_CODE":0,"TOWNNAME":"仁德區","LI":"仁德里","LIN":"4鄰","STREET":"中正路","SECT":"二段","MAREA":" ","LANE":" ","ALLEY":" ","HOUSE_NO":"８５９號","E_COORD97":173431.03825400001,"N_COORD97":2540550.31745,"ADDRESS":"中正路二段８５９號","OBJECTID":279653},"geometry":{"x":173431.03825400118,"y":2540550.3174489997}},{"attributes":{"ID":279660,"DIS_CODE":0,"TOWNNAME":"安定區","LI":"中榮里","LIN":"2鄰","STREET":" ","SECT":" ","MAREA":"許中營","LANE":" ","ALLEY":" ","HOUSE_NO":"２５之２５號","E_COORD97":172567.24538199999,"N_COORD97":2554931.0011200001,"ADDRESS":"許中營２５之２５號","OBJECTID":279654},"geometry":{"x":172567.24538199976,"y":2554931.0011220034}},{"attributes":{"ID":279661,"DIS_CODE":0,"TOWNNAME":"六甲區","LI":"中社里","LIN":"2鄰","STREET":" ","SECT":" ","MAREA":"中社","LANE":" ","ALLEY":" ","HOUSE_NO":"２５號","E_COORD97":181214.92999999999,"N_COORD97":2570925.9199999999,"ADDRESS":"中社２５號","OBJECTID":279655},"geometry":{"x":181214.9299999997,"y":2570925.9199999999}},{"attributes":{"ID":279662,"DIS_CODE":0,"TOWNNAME":"安定區","LI":"中榮里","LIN":"2鄰","STREET":" ","SECT":" ","MAREA":"許中營","LANE":" ","ALLEY":" ","HOUSE_NO":"２５之２６號","E_COORD97":172571.905959,"N_COORD97":2554931.2657099999,"ADDRESS":"許中營２５之２６號","OBJECTID":279656},"geometry":{"x":172571.90595900081,"y":2554931.2657050025}},{"attributes":{"ID":279663,"DIS_CODE":0,"TOWNNAME":"安定區","LI":"中榮里","LIN":"2鄰","STREET":" ","SECT":" ","MAREA":"許中營","LANE":" ","ALLEY":" ","HOUSE_NO":"２５之２７號","E_COORD97":172576.99022499999,"N_COORD97":2554931.5302900001,"ADDRESS":"許中營２５之２７號","OBJECTID":279657},"geometry":{"x":172576.99022500031,"y":2554931.5302880015}},{"attributes":{"ID":279664,"DIS_CODE":0,"TOWNNAME":"安定區","LI":"港南里","LIN":"2鄰","STREET":" ","SECT":" ","MAREA":"港口","LANE":" ","ALLEY":" ","HOUSE_NO":"１６之１號","E_COORD97":171405.09431300001,"N_COORD97":2554212.5538599999,"ADDRESS":"港口１６之１號","OBJECTID":279658},"geometry":{"x":171405.09431300126,"y":2554212.5538550019}},{"attributes":{"ID":279665,"DIS_CODE":0,"TOWNNAME":"仁德區","LI":"仁愛里","LIN":"28鄰","STREET":"機場路","SECT":" ","MAREA":" ","LANE":" ","ALLEY":" ","HOUSE_NO":"１３８０號","E_COORD97":169692.51999999999,"N_COORD97":2539455.6200000001,"ADDRESS":"機場路１３８０號","OBJECTID":279659},"geometry":{"x":169692.51999999862,"y":2539455.6200000029}},{"attributes":{"ID":279666,"DIS_CODE":0,"TOWNNAME":"仁德區","LI":"新田里","LIN":"15鄰","STREET":"中正路","SECT":"二段","MAREA":" ","LANE":" ","ALLEY":" ","HOUSE_NO":"４５８號","E_COORD97":173317.32000000001,"N_COORD97":2539367.7799999998,"ADDRESS":"中正路二段４５８號","OBJECTID":279660},"geometry":{"x":173317.32000000216,"y":2539367.7800000012}},{"attributes":{"ID":279667,"DIS_CODE":0,"TOWNNAME":"仁德區","LI":"後壁里","LIN":"19鄰","STREET":"德崙路","SECT":" ","MAREA":" ","LANE":" ","ALLEY":" ","HOUSE_NO":"１號","E_COORD97":173223.04000000001,"N_COORD97":2538644.27,"ADDRESS":"德崙路１號","OBJECTID":279661},"geometry":{"x":173223.04000000097,"y":2538644.2699999996}},{"attributes":{"ID":279668,"DIS_CODE":0,"TOWNNAME":"仁德區","LI":"仁愛里","LIN":"27鄰","STREET":"大同路","SECT":"三段","MAREA":" ","LANE":" ","ALLEY":" ","HOUSE_NO":"２４７號","E_COORD97":169788.65566600001,"N_COORD97":2539569.61167,"ADDRESS":"大同路三段２４７號","OBJECTID":279662},"geometry":{"x":169788.65566600114,"y":2539569.611668}},{"attributes":{"ID":279669,"DIS_CODE":0,"TOWNNAME":"歸仁區","LI":"歸南里","LIN":"6鄰","STREET":"中正十二街","SECT":" ","MAREA":" ","LANE":"２巷","ALLEY":" ","HOUSE_NO":"２０號","E_COORD97":176747.14999999999,"N_COORD97":2540008.4399999999,"ADDRESS":"中正十二街２巷２０號","OBJECTID":279663},"geometry":{"x":176747.15000000037,"y":2540008.4399999995}},{"attributes":{"ID":279670,"DIS_CODE":0,"TOWNNAME":"安定區","LI":"港南里","LIN":"2鄰","STREET":" ","SECT":" ","MAREA":"港口","LANE":" ","ALLEY":" ","HOUSE_NO":"１６之２０號","E_COORD97":171406.36537499999,"N_COORD97":2554200.8063599998,"ADDRESS":"港口１６之２０號","OBJECTID":279664},"geometry":{"x":171406.36537500098,"y":2554200.8063610028}},{"attributes":{"ID":279671,"DIS_CODE":0,"TOWNNAME":"安定區","LI":"中榮里","LIN":"2鄰","STREET":" ","SECT":" ","MAREA":"許中營","LANE":" ","ALLEY":" ","HOUSE_NO":"１６之１號","E_COORD97":172508.05792299999,"N_COORD97":2554812.7343600001,"ADDRESS":"許中營１６之１號","OBJECTID":279665},"geometry":{"x":172508.05792300031,"y":2554812.7343640011}},{"attributes":{"ID":279672,"DIS_CODE":0,"TOWNNAME":"安定區","LI":"中榮里","LIN":"2鄰","STREET":" ","SECT":" ","MAREA":"許中營","LANE":" ","ALLEY":" ","HOUSE_NO":"１６之２號","E_COORD97":172513.67177799999,"N_COORD97":2554815.6976999999,"ADDRESS":"許中營１６之２號","OBJECTID":279666},"geometry":{"x":172513.67177800089,"y":2554815.6976960022}},{"attributes":{"ID":279673,"DIS_CODE":0,"TOWNNAME":"安定區","LI":"中榮里","LIN":"2鄰","STREET":" ","SECT":" ","MAREA":"許中營","LANE":" ","ALLEY":" ","HOUSE_NO":"１６之３號","E_COORD97":172515.154683,"N_COORD97":2554820.7776899999,"ADDRESS":"許中營１６之３號","OBJECTID":279667},"geometry":{"x":172515.15468300041,"y":2554820.7776930016}},{"attributes":{"ID":279674,"DIS_CODE":0,"TOWNNAME":"安定區","LI":"中榮里","LIN":"2鄰","STREET":" ","SECT":" ","MAREA":"許中營","LANE":" ","ALLEY":" ","HOUSE_NO":"１６之５號","E_COORD97":172519.07378899999,"N_COORD97":2554823.1060299999,"ADDRESS":"許中營１６之５號","OBJECTID":279668},"geometry":{"x":172519.07378900144,"y":2554823.1060249992}},{"attributes":{"ID":279675,"DIS_CODE":0,"TOWNNAME":"歸仁區","LI":"歸南里","LIN":"6鄰","STREET":"中正十二街","SECT":" ","MAREA":" ","LANE":"２巷","ALLEY":" ","HOUSE_NO":"１２號","E_COORD97":176746.04999999999,"N_COORD97":2539991.4399999999,"ADDRESS":"中正十二街２巷１２號","OBJECTID":279669},"geometry":{"x":176746.04999999981,"y":2539991.4399999995}},{"attributes":{"ID":279676,"DIS_CODE":0,"TOWNNAME":"安定區","LI":"中榮里","LIN":"2鄰","STREET":" ","SECT":" ","MAREA":"許中營","LANE":" ","ALLEY":" ","HOUSE_NO":"１６之６號","E_COORD97":172522.46328699999,"N_COORD97":2554825.0110200001,"ADDRESS":"許中營１６之６號","OBJECTID":279670},"geometry":{"x":172522.46328700148,"y":2554825.0110240001}},{"attributes":{"ID":279677,"DIS_CODE":0,"TOWNNAME":"安定區","LI":"中榮里","LIN":"2鄰","STREET":" ","SECT":" ","MAREA":"許中營","LANE":" ","ALLEY":" ","HOUSE_NO":"１６之７號","E_COORD97":172526.170549,"N_COORD97":2554827.4451899999,"ADDRESS":"許中營１６之７號","OBJECTID":279671},"geometry":{"x":172526.17054900061,"y":2554827.4451900031}},{"attributes":{"ID":279678,"DIS_CODE":0,"TOWNNAME":"新營區","LI":"新北里","LIN":"6鄰","STREET":"三興街","SECT":" ","MAREA":" ","LANE":"２０５巷","ALLEY":" ","HOUSE_NO":"１３號","E_COORD97":179320.60000000001,"N_COORD97":2579630.2400000002,"ADDRESS":"三興街２０５巷１３號","OBJECTID":279672},"geometry":{"x":179320.59999999963,"y":2579630.2400000021}},{"attributes":{"ID":279679,"DIS_CODE":0,"TOWNNAME":"安定區","LI":"中榮里","LIN":"2鄰","STREET":" ","SECT":" ","MAREA":"許中營","LANE":" ","ALLEY":" ","HOUSE_NO":"１６之８號","E_COORD97":172529.98373400001,"N_COORD97":2554829.2443599999,"ADDRESS":"許中營１６之８號","OBJECTID":279673},"geometry":{"x":172529.98373400141,"y":2554829.2443550024}},{"attributes":{"ID":279680,"DIS_CODE":0,"TOWNNAME":"新營區","LI":"南紙里","LIN":"6鄰","STREET":"南紙街","SECT":" ","MAREA":" ","LANE":"１４３巷","ALLEY":" ","HOUSE_NO":"７號","E_COORD97":177834.56,"N_COORD97":2577375.98,"ADDRESS":"南紙街１４３巷７號","OBJECTID":279674},"geometry":{"x":177834.56000000052,"y":2577375.9800000042}},{"attributes":{"ID":279681,"DIS_CODE":0,"TOWNNAME":"北區","LI":"成功里","LIN":"6鄰","STREET":"北安路","SECT":"一段","MAREA":" ","LANE":"２１２巷","ALLEY":" ","HOUSE_NO":"１２號","E_COORD97":168848.31,"N_COORD97":2546559.5899999999,"ADDRESS":"北安路一段２１２巷１２號","OBJECTID":279675},"geometry":{"x":168848.31000000052,"y":2546559.5900000036}},{"attributes":{"ID":279682,"DIS_CODE":0,"TOWNNAME":"東區","LI":"成大里","LIN":"2鄰","STREET":"育樂街","SECT":" ","MAREA":" ","LANE":" ","ALLEY":" ","HOUSE_NO":"２０１號之４","E_COORD97":169499.92999999999,"N_COORD97":2543734.6600000001,"ADDRESS":"育樂街２０１號之４","OBJECTID":279676},"geometry":{"x":169499.9299999997,"y":2543734.6600000001}},{"attributes":{"ID":279683,"DIS_CODE":0,"TOWNNAME":"東區","LI":"成大里","LIN":"2鄰","STREET":"育樂街","SECT":" ","MAREA":" ","LANE":" ","ALLEY":" ","HOUSE_NO":"２０１號之５","E_COORD97":169505.89000000001,"N_COORD97":2543733.1299999999,"ADDRESS":"育樂街２０１號之５","OBJECTID":279677},"geometry":{"x":169505.8900000006,"y":2543733.129999999}},{"attributes":{"ID":279684,"DIS_CODE":0,"TOWNNAME":"東區","LI":"成大里","LIN":"2鄰","STREET":"育樂街","SECT":" ","MAREA":" ","LANE":" ","ALLEY":" ","HOUSE_NO":"２０１號之６","E_COORD97":169510.5,"N_COORD97":2543731.5899999999,"ADDRESS":"育樂街２０１號之６","OBJECTID":279678},"geometry":{"x":169510.50000000093,"y":2543731.5899999999}},{"attributes":{"ID":279685,"DIS_CODE":0,"TOWNNAME":"東區","LI":"成大里","LIN":"2鄰","STREET":"育樂街","SECT":" ","MAREA":" ","LANE":" ","ALLEY":" ","HOUSE_NO":"２０１號之７","E_COORD97":169515.48999999999,"N_COORD97":2543729.8700000001,"ADDRESS":"育樂街２０１號之７","OBJECTID":279679},"geometry":{"x":169515.49000000209,"y":2543729.870000001}},{"attributes":{"ID":279686,"DIS_CODE":0,"TOWNNAME":"北區","LI":"成功里","LIN":"6鄰","STREET":"北安路","SECT":"一段","MAREA":" ","LANE":"２１２巷","ALLEY":" ","HOUSE_NO":"１０號","E_COORD97":168845.76999999999,"N_COORD97":2546555.4700000002,"ADDRESS":"北安路一段２１２巷１０號","OBJECTID":279680},"geometry":{"x":168845.77000000048,"y":2546555.4700000025}},{"attributes":{"ID":279687,"DIS_CODE":0,"TOWNNAME":"北區","LI":"成功里","LIN":"6鄰","STREET":"北安路","SECT":"一段","MAREA":" ","LANE":"２１２巷","ALLEY":" ","HOUSE_NO":"８號","E_COORD97":168842.75,"N_COORD97":2546550.2400000002,"ADDRESS":"北安路一段２１２巷８號","OBJECTID":279681},"geometry":{"x":168842.75000000093,"y":2546550.2400000021}},{"attributes":{"ID":279688,"DIS_CODE":0,"TOWNNAME":"北區","LI":"成功里","LIN":"6鄰","STREET":"北安路","SECT":"一段","MAREA":" ","LANE":"２１２巷","ALLEY":" ","HOUSE_NO":"６號","E_COORD97":168839.89000000001,"N_COORD97":2546545.79,"ADDRESS":"北安路一段２１２巷６號","OBJECTID":279682},"geometry":{"x":168839.8900000006,"y":2546545.7899999991}},{"attributes":{"ID":279689,"DIS_CODE":0,"TOWNNAME":"新營區","LI":"新北里","LIN":"6鄰","STREET":"三興街","SECT":" ","MAREA":" ","LANE":"２０５巷","ALLEY":" ","HOUSE_NO":"３３號","E_COORD97":179223.35999999999,"N_COORD97":2579596.3700000001,"ADDRESS":"三興街２０５巷３３號","OBJECTID":279683},"geometry":{"x":179223.36000000127,"y":2579596.3700000029}},{"attributes":{"ID":279690,"DIS_CODE":0,"TOWNNAME":"新化區","LI":"東榮里","LIN":"6鄰","STREET":"信義路","SECT":" ","MAREA":" ","LANE":"１１７巷","ALLEY":" ","HOUSE_NO":"５１號","E_COORD97":179835.88,"N_COORD97":2548362.25,"ADDRESS":"信義路１１７巷５１號","OBJECTID":279684},"geometry":{"x":179835.87999999989,"y":2548362.2500000037}},{"attributes":{"ID":279691,"DIS_CODE":0,"TOWNNAME":"仁德區","LI":"二行里","LIN":"6鄰","STREET":"二仁路","SECT":"一段","MAREA":" ","LANE":"６３巷","ALLEY":" ","HOUSE_NO":"５號","E_COORD97":170535.79999999999,"N_COORD97":2535375.77,"ADDRESS":"二仁路一段６３巷５號","OBJECTID":279685},"geometry":{"x":170535.80000000075,"y":2535375.7699999996}},{"attributes":{"ID":279692,"DIS_CODE":0,"TOWNNAME":"永康區","LI":"蔦松里","LIN":"6鄰","STREET":"蔦松一街","SECT":" ","MAREA":" ","LANE":"７４巷","ALLEY":" ","HOUSE_NO":"３５號","E_COORD97":173925.54000000001,"N_COORD97":2549564.2400000002,"ADDRESS":"蔦松一街７４巷３５號","OBJECTID":279686},"geometry":{"x":173925.54000000004,"y":2549564.2400000021}},{"attributes":{"ID":279693,"DIS_CODE":0,"TOWNNAME":"永康區","LI":"蔦松里","LIN":"6鄰","STREET":"蔦松三街","SECT":" ","MAREA":" ","LANE":"１４７巷","ALLEY":" ","HOUSE_NO":"１８號","E_COORD97":173984.72,"N_COORD97":2549848.8799999999,"ADDRESS":"蔦松三街１４７巷１８號","OBJECTID":279687},"geometry":{"x":173984.71999999974,"y":2549848.8800000027}},{"attributes":{"ID":279694,"DIS_CODE":0,"TOWNNAME":"中西區","LI":"永福里","LIN":"6鄰","STREET":"永福路","SECT":"二段","MAREA":" ","LANE":"５４巷","ALLEY":" ","HOUSE_NO":"３１號","E_COORD97":168131.54000000001,"N_COORD97":2543576.04,"ADDRESS":"永福路二段５４巷３１號","OBJECTID":279688},"geometry":{"x":168131.54000000004,"y":2543576.040000001}},{"attributes":{"ID":279695,"DIS_CODE":0,"TOWNNAME":"六甲區","LI":"中社里","LIN":"2鄰","STREET":" ","SECT":" ","MAREA":"中社","LANE":" ","ALLEY":" ","HOUSE_NO":"２６號","E_COORD97":181212.01999999999,"N_COORD97":2570895.1099999999,"ADDRESS":"中社２６號","OBJECTID":279689},"geometry":{"x":181212.02000000048,"y":2570895.1100000031}},{"attributes":{"ID":279696,"DIS_CODE":0,"TOWNNAME":"中西區","LI":"永福里","LIN":"6鄰","STREET":"永福路","SECT":"二段","MAREA":" ","LANE":"５４巷","ALLEY":" ","HOUSE_NO":"３３號","E_COORD97":168135.57999999999,"N_COORD97":2543574.6200000001,"ADDRESS":"永福路二段５４巷３３號","OBJECTID":279690},"geometry":{"x":168135.58000000101,"y":2543574.6200000029}},{"attributes":{"ID":279697,"DIS_CODE":0,"TOWNNAME":"中西區","LI":"永福里","LIN":"6鄰","STREET":"永福路","SECT":"二段","MAREA":" ","LANE":"５４巷","ALLEY":" ","HOUSE_NO":"３５號","E_COORD97":168139.73000000001,"N_COORD97":2543574.5899999999,"ADDRESS":"永福路二段５４巷３５號","OBJECTID":279691},"geometry":{"x":168139.73000000138,"y":2543574.5899999999}},{"attributes":{"ID":279698,"DIS_CODE":0,"TOWNNAME":"中西區","LI":"永福里","LIN":"6鄰","STREET":"永福路","SECT":"二段","MAREA":" ","LANE":"５４巷","ALLEY":" ","HOUSE_NO":"３７號","E_COORD97":168145.98999999999,"N_COORD97":2543572.4100000001,"ADDRESS":"永福路二段５４巷３７號","OBJECTID":279692},"geometry":{"x":168145.99000000115,"y":2543572.4100000001}},{"attributes":{"ID":279699,"DIS_CODE":0,"TOWNNAME":"安南區","LI":"安慶里","LIN":"6鄰","STREET":"怡安路","SECT":"一段","MAREA":" ","LANE":"２９１巷","ALLEY":" ","HOUSE_NO":"２６號","E_COORD97":168965.66,"N_COORD97":2549036.3700000001,"ADDRESS":"怡安路一段２９１巷２６號","OBJECTID":279693},"geometry":{"x":168965.66000000108,"y":2549036.370000001}},{"attributes":{"ID":279700,"DIS_CODE":0,"TOWNNAME":"安南區","LI":"州北里","LIN":"6鄰","STREET":"安和路","SECT":"五段","MAREA":" ","LANE":"１７１巷","ALLEY":" ","HOUSE_NO":"６５號","E_COORD97":169691.32999999999,"N_COORD97":2551770.3300000001,"ADDRESS":"安和路五段１７１巷６５號","OBJECTID":279694},"geometry":{"x":169691.33000000101,"y":2551770.3300000019}},{"attributes":{"ID":279701,"DIS_CODE":0,"TOWNNAME":"安南區","LI":"幸福里","LIN":"6鄰","STREET":"國安街","SECT":" ","MAREA":" ","LANE":"１５５巷","ALLEY":" ","HOUSE_NO":"９號","E_COORD97":166761.37,"N_COORD97":2546920.8900000001,"ADDRESS":"國安街１５５巷９號","OBJECTID":279695},"geometry":{"x":166761.37000000011,"y":2546920.8900000043}},{"attributes":{"ID":279702,"DIS_CODE":0,"TOWNNAME":"新市區","LI":"潭頂里","LIN":"2鄰","STREET":" ","SECT":" ","MAREA":"潭頂","LANE":" ","ALLEY":" ","HOUSE_NO":"９０之３０號","E_COORD97":181722.92000000001,"N_COORD97":2553480.5499999998,"ADDRESS":"潭頂９０之３０號","OBJECTID":279696},"geometry":{"x":181722.92000000086,"y":2553480.5500000045}},{"attributes":{"ID":279703,"DIS_CODE":0,"TOWNNAME":"新市區","LI":"大社里","LIN":"2鄰","STREET":" ","SECT":" ","MAREA":"大社","LANE":" ","ALLEY":" ","HOUSE_NO":"１１７之２號","E_COORD97":180354.10000000001,"N_COORD97":2554326.7999999998,"ADDRESS":"大社１１７之２號","OBJECTID":279697},"geometry":{"x":180354.09999999963,"y":2554326.8000000026}},{"attributes":{"ID":279704,"DIS_CODE":0,"TOWNNAME":"新市區","LI":"大社里","LIN":"2鄰","STREET":" ","SECT":" ","MAREA":"大社","LANE":" ","ALLEY":" ","HOUSE_NO":"１２１號","E_COORD97":180280.13,"N_COORD97":2554323.75,"ADDRESS":"大社１２１號","OBJECTID":279698},"geometry":{"x":180280.12999999989,"y":2554323.7500000019}},{"attributes":{"ID":279705,"DIS_CODE":0,"TOWNNAME":"永康區","LI":"六合里","LIN":"2鄰","STREET":"新興街","SECT":" ","MAREA":" ","LANE":" ","ALLEY":" ","HOUSE_NO":"５號","E_COORD97":170840.91,"N_COORD97":2545777.4900000002,"ADDRESS":"新興街５號","OBJECTID":279699},"geometry":{"x":170840.91000000015,"y":2545777.4900000039}},{"attributes":{"ID":279706,"DIS_CODE":0,"TOWNNAME":"安南區","LI":"幸福里","LIN":"6鄰","STREET":"國安街","SECT":" ","MAREA":" ","LANE":"１５５巷","ALLEY":" ","HOUSE_NO":"１號","E_COORD97":166758.76999999999,"N_COORD97":2546939.4100000001,"ADDRESS":"國安街１５５巷１號","OBJECTID":279700},"geometry":{"x":166758.77000000048,"y":2546939.4100000001}},{"attributes":{"ID":279707,"DIS_CODE":0,"TOWNNAME":"安南區","LI":"幸福里","LIN":"6鄰","STREET":"國安街","SECT":" ","MAREA":" ","LANE":"１５５巷","ALLEY":" ","HOUSE_NO":"１９號","E_COORD97":166766.42000000001,"N_COORD97":2546897.1099999999,"ADDRESS":"國安街１５５巷１９號","OBJECTID":279701},"geometry":{"x":166766.42000000086,"y":2546897.1099999994}},{"attributes":{"ID":279708,"DIS_CODE":0,"TOWNNAME":"安南區","LI":"幸福里","LIN":"6鄰","STREET":"國安街","SECT":" ","MAREA":" ","LANE":"１３９巷","ALLEY":" ","HOUSE_NO":"４號","E_COORD97":166777.19,"N_COORD97":2546936.75,"ADDRESS":"國安街１３９巷４號","OBJECTID":279702},"geometry":{"x":166777.19000000134,"y":2546936.75}},{"attributes":{"ID":279709,"DIS_CODE":0,"TOWNNAME":"安南區","LI":"長安里","LIN":"6鄰","STREET":"長溪路","SECT":"三段","MAREA":" ","LANE":"４０５巷","ALLEY":" ","HOUSE_NO":"８８號","E_COORD97":167485.14999999999,"N_COORD97":2551942.6000000001,"ADDRESS":"長溪路三段４０５巷８８號","OBJECTID":279703},"geometry":{"x":167485.15000000037,"y":2551942.5999999996}},{"attributes":{"ID":279710,"DIS_CODE":0,"TOWNNAME":"安南區","LI":"城北里","LIN":"6鄰","STREET":"安中路","SECT":"六段","MAREA":" ","LANE":"５００巷","ALLEY":" ","HOUSE_NO":"２８號","E_COORD97":161055.35999999999,"N_COORD97":2551417.1499999999,"ADDRESS":"安中路六段５００巷２８號","OBJECTID":279704},"geometry":{"x":161055.36000000034,"y":2551417.1500000004}},{"attributes":{"ID":279711,"DIS_CODE":0,"TOWNNAME":"安南區","LI":"國安里","LIN":"6鄰","STREET":"國安街","SECT":" ","MAREA":" ","LANE":"２１０巷","ALLEY":" ","HOUSE_NO":"２號","E_COORD97":166616.76999999999,"N_COORD97":2546975.7999999998,"ADDRESS":"國安街２１０巷２號","OBJECTID":279705},"geometry":{"x":166616.76999999955,"y":2546975.7999999989}},{"attributes":{"ID":279712,"DIS_CODE":0,"TOWNNAME":"安南區","LI":"溪東里","LIN":"6鄰","STREET":"府安路","SECT":"五段","MAREA":" ","LANE":"５６巷","ALLEY":" ","HOUSE_NO":"４４號","E_COORD97":168279.81,"N_COORD97":2547298.8999999999,"ADDRESS":"府安路五段５６巷４４號","OBJECTID":279706},"geometry":{"x":168279.80999999959,"y":2547298.9000000004}},{"attributes":{"ID":279713,"DIS_CODE":0,"TOWNNAME":"中西區","LI":"光賢里","LIN":"6鄰","STREET":"武聖路","SECT":" ","MAREA":" ","LANE":"６９巷","ALLEY":" ","HOUSE_NO":"６３號","E_COORD97":167092.32000000001,"N_COORD97":2544987.52,"ADDRESS":"武聖路６９巷６３號","OBJECTID":279707},"geometry":{"x":167092.3200000003,"y":2544987.5200000014}},{"attributes":{"ID":279714,"DIS_CODE":0,"TOWNNAME":"中西區","LI":"光賢里","LIN":"6鄰","STREET":"武聖路","SECT":" ","MAREA":" ","LANE":"６９巷","ALLEY":" ","HOUSE_NO":"６９號","E_COORD97":167083.22,"N_COORD97":2544972.4900000002,"ADDRESS":"武聖路６９巷６９號","OBJECTID":279708},"geometry":{"x":167083.22000000067,"y":2544972.4900000002}},{"attributes":{"ID":279715,"DIS_CODE":0,"TOWNNAME":"永康區","LI":"中華里","LIN":"6鄰","STREET":"小東路","SECT":" ","MAREA":" ","LANE":"６８５巷","ALLEY":" ","HOUSE_NO":"３５號","E_COORD97":172026.39000000001,"N_COORD97":2544497.8100000001,"ADDRESS":"小東路６８５巷３５號","OBJECTID":279709},"geometry":{"x":172026.3900000006,"y":2544497.8100000024}},{"attributes":{"ID":279716,"DIS_CODE":0,"TOWNNAME":"永康區","LI":"中華里","LIN":"6鄰","STREET":"小東路","SECT":" ","MAREA":" ","LANE":"６８５巷","ALLEY":" ","HOUSE_NO":"４９號","E_COORD97":172024.69,"N_COORD97":2544542.3199999998,"ADDRESS":"小東路６８５巷４９號","OBJECTID":279710},"geometry":{"x":172024.69000000041,"y":2544542.3200000022}},{"attributes":{"ID":279717,"DIS_CODE":0,"TOWNNAME":"永康區","LI":"中華里","LIN":"6鄰","STREET":"小東路","SECT":" ","MAREA":" ","LANE":"６８５巷","ALLEY":" ","HOUSE_NO":"３３號","E_COORD97":172026.54000000001,"N_COORD97":2544493.7200000002,"ADDRESS":"小東路６８５巷３３號","OBJECTID":279711},"geometry":{"x":172026.54000000004,"y":2544493.7200000007}},{"attributes":{"ID":279718,"DIS_CODE":0,"TOWNNAME":"永康區","LI":"中華里","LIN":"6鄰","STREET":"小東路","SECT":" ","MAREA":" ","LANE":"６４７巷","ALLEY":" ","HOUSE_NO":"４６號","E_COORD97":171948.87,"N_COORD97":2544532.6400000001,"ADDRESS":"小東路６４７巷４６號","OBJECTID":279712},"geometry":{"x":171948.87000000197,"y":2544532.6400000043}},{"attributes":{"ID":279719,"DIS_CODE":0,"TOWNNAME":"永康區","LI":"中華里","LIN":"6鄰","STREET":"小東路","SECT":" ","MAREA":" ","LANE":"６８５巷","ALLEY":" ","HOUSE_NO":"３１號","E_COORD97":172026.98000000001,"N_COORD97":2544488.4700000002,"ADDRESS":"小東路６８５巷３１號","OBJECTID":279713},"geometry":{"x":172026.98000000138,"y":2544488.4700000007}},{"attributes":{"ID":279720,"DIS_CODE":0,"TOWNNAME":"永康區","LI":"中華里","LIN":"6鄰","STREET":"小東路","SECT":" ","MAREA":" ","LANE":"６４７巷","ALLEY":" ","HOUSE_NO":"５０號","E_COORD97":171948.57999999999,"N_COORD97":2544541.7000000002,"ADDRESS":"小東路６４７巷５０號","OBJECTID":279714},"geometry":{"x":171948.58000000007,"y":2544541.7000000011}},{"attributes":{"ID":279721,"DIS_CODE":0,"TOWNNAME":"永康區","LI":"二王里","LIN":"6鄰","STREET":"永二街","SECT":" ","MAREA":" ","LANE":"３７６巷","ALLEY":" ","HOUSE_NO":"２５號","E_COORD97":172848.82999999999,"N_COORD97":2546767.0800000001,"ADDRESS":"永二街３７６巷２５號","OBJECTID":279715},"geometry":{"x":172848.83000000007,"y":2546767.0800000019}},{"attributes":{"ID":279722,"DIS_CODE":0,"TOWNNAME":"永康區","LI":"二王里","LIN":"6鄰","STREET":"永二街","SECT":" ","MAREA":" ","LANE":"３７６巷","ALLEY":" ","HOUSE_NO":"１０號","E_COORD97":172874.41,"N_COORD97":2546719.02,"ADDRESS":"永二街３７６巷１０號","OBJECTID":279716},"geometry":{"x":172874.41000000108,"y":2546719.0200000033}},{"attributes":{"ID":279723,"DIS_CODE":0,"TOWNNAME":"永康區","LI":"二王里","LIN":"6鄰","STREET":"永二街","SECT":" ","MAREA":" ","LANE":"３６６巷","ALLEY":" ","HOUSE_NO":"２號","E_COORD97":172883.5,"N_COORD97":2546676.3399999999,"ADDRESS":"永二街３６６巷２號","OBJECTID":279717},"geometry":{"x":172883.50000000186,"y":2546676.3400000036}},{"attributes":{"ID":279724,"DIS_CODE":0,"TOWNNAME":"永康區","LI":"大灣里","LIN":"6鄰","STREET":"大灣路","SECT":" ","MAREA":" ","LANE":"２１８巷","ALLEY":" ","HOUSE_NO":"３８號","E_COORD97":174863.38,"N_COORD97":2545566.3300000001,"ADDRESS":"大灣路２１８巷３８號","OBJECTID":279718},"geometry":{"x":174863.37999999989,"y":2545566.3300000019}},{"attributes":{"ID":279725,"DIS_CODE":0,"TOWNNAME":"永康區","LI":"二王里","LIN":"6鄰","STREET":"永二街","SECT":" ","MAREA":" ","LANE":"３７６巷","ALLEY":" ","HOUSE_NO":"１４號","E_COORD97":172873.66,"N_COORD97":2546735.71,"ADDRESS":"永二街３７６巷１４號","OBJECTID":279719},"geometry":{"x":172873.66000000015,"y":2546735.7100000009}},{"attributes":{"ID":279726,"DIS_CODE":0,"TOWNNAME":"仁德區","LI":"後壁里","LIN":"29鄰","STREET":"德洋一街","SECT":" ","MAREA":" ","LANE":" ","ALLEY":" ","HOUSE_NO":"１４號","E_COORD97":173096.73999999999,"N_COORD97":2539124.7599999998,"ADDRESS":"德洋一街１４號","OBJECTID":279720},"geometry":{"x":173096.74000000022,"y":2539124.7600000016}},{"attributes":{"ID":279727,"DIS_CODE":0,"TOWNNAME":"永康區","LI":"二王里","LIN":"6鄰","STREET":"永二街","SECT":" ","MAREA":" ","LANE":"３７６巷","ALLEY":" ","HOUSE_NO":"８號","E_COORD97":172881.70999999999,"N_COORD97":2546700.02,"ADDRESS":"永二街３７６巷８號","OBJECTID":279721},"geometry":{"x":172881.70999999996,"y":2546700.0200000014}},{"attributes":{"ID":279728,"DIS_CODE":0,"TOWNNAME":"永康區","LI":"二王里","LIN":"6鄰","STREET":"永二街","SECT":" ","MAREA":" ","LANE":"３７６巷","ALLEY":" ","HOUSE_NO":"５號","E_COORD97":172867.26000000001,"N_COORD97":2546694.1699999999,"ADDRESS":"永二街３７６巷５號","OBJECTID":279722},"geometry":{"x":172867.25999999978,"y":2546694.1699999999}},{"attributes":{"ID":279729,"DIS_CODE":0,"TOWNNAME":"仁德區","LI":"成功里","LIN":"6鄰","STREET":"成功三街","SECT":" ","MAREA":" ","LANE":"５７巷","ALLEY":" ","HOUSE_NO":"１號","E_COORD97":171215.04000000001,"N_COORD97":2539908.27,"ADDRESS":"成功三街５７巷１號","OBJECTID":279723},"geometry":{"x":171215.04000000004,"y":2539908.2699999996}},{"attributes":{"ID":279730,"DIS_CODE":0,"TOWNNAME":"仁德區","LI":"仁德里","LIN":"6鄰","STREET":"仁德三街","SECT":" ","MAREA":" ","LANE":"９巷","ALLEY":" ","HOUSE_NO":"１１號","E_COORD97":173322.31,"N_COORD97":2540951.27,"ADDRESS":"仁德三街９巷１１號","OBJECTID":279724},"geometry":{"x":173322.31000000052,"y":2540951.2700000014}},{"attributes":{"ID":279731,"DIS_CODE":0,"TOWNNAME":"仁德區","LI":"田厝里","LIN":"6鄰","STREET":"田厝三街","SECT":" ","MAREA":" ","LANE":"７０巷","ALLEY":" ","HOUSE_NO":"１３號","E_COORD97":172550.78,"N_COORD97":2537371.4900000002,"ADDRESS":"田厝三街７０巷１３號","OBJECTID":279725},"geometry":{"x":172550.78000000026,"y":2537371.4900000002}},{"attributes":{"ID":279732,"DIS_CODE":0,"TOWNNAME":"東區","LI":"崇德里","LIN":"6鄰","STREET":"崇德五街","SECT":" ","MAREA":" ","LANE":"２巷","ALLEY":" ","HOUSE_NO":"１９號","E_COORD97":170704.32000000001,"N_COORD97":2541760.8199999998,"ADDRESS":"崇德五街２巷１９號","OBJECTID":279726},"geometry":{"x":170704.3200000003,"y":2541760.8199999984}},{"attributes":{"ID":279733,"DIS_CODE":0,"TOWNNAME":"安南區","LI":"國安里","LIN":"6鄰","STREET":"國安街","SECT":" ","MAREA":" ","LANE":"２１０巷","ALLEY":" ","HOUSE_NO":"３８號","E_COORD97":166602.14000000001,"N_COORD97":2547055.0299999998,"ADDRESS":"國安街２１０巷３８號","OBJECTID":279727},"geometry":{"x":166602.1400000006,"y":2547055.0300000012}},{"attributes":{"ID":279734,"DIS_CODE":0,"TOWNNAME":"善化區","LI":"南關里","LIN":"6鄰","STREET":"永福路","SECT":" ","MAREA":" ","LANE":"１６２巷","ALLEY":" ","HOUSE_NO":"１號","E_COORD97":177151.07999999999,"N_COORD97":2558781.25,"ADDRESS":"永福路１６２巷１號","OBJECTID":279728},"geometry":{"x":177151.08000000007,"y":2558781.2500000019}},{"attributes":{"ID":279735,"DIS_CODE":0,"TOWNNAME":"善化區","LI":"南關里","LIN":"6鄰","STREET":"文昌路","SECT":" ","MAREA":" ","LANE":"１０７巷","ALLEY":" ","HOUSE_NO":"３０號","E_COORD97":177131.64999999999,"N_COORD97":2558479.2799999998,"ADDRESS":"文昌路１０７巷３０號","OBJECTID":279729},"geometry":{"x":177131.6500000013,"y":2558479.2800000012}},{"attributes":{"ID":279736,"DIS_CODE":0,"TOWNNAME":"永康區","LI":"復國里","LIN":"6鄰","STREET":"復國一路","SECT":" ","MAREA":" ","LANE":"１２０巷","ALLEY":" ","HOUSE_NO":"１６號","E_COORD97":172767.95999999999,"N_COORD97":2544992.7799999998,"ADDRESS":"復國一路１２０巷１６號","OBJECTID":279730},"geometry":{"x":172767.95999999996,"y":2544992.7800000012}},{"attributes":{"ID":279737,"DIS_CODE":0,"TOWNNAME":"永康區","LI":"勝利里","LIN":"6鄰","STREET":"勝學路","SECT":" ","MAREA":" ","LANE":"３０巷","ALLEY":" ","HOUSE_NO":"６號","E_COORD97":171184.12,"N_COORD97":2544624.75,"ADDRESS":"勝學路３０巷６號","OBJECTID":279731},"geometry":{"x":171184.12000000011,"y":2544624.75}},{"attributes":{"ID":279738,"DIS_CODE":0,"TOWNNAME":"永康區","LI":"復國里","LIN":"6鄰","STREET":"復國一路","SECT":" ","MAREA":" ","LANE":"１２０巷","ALLEY":" ","HOUSE_NO":"１４號","E_COORD97":172763.81,"N_COORD97":2544992.7799999998,"ADDRESS":"復國一路１２０巷１４號","OBJECTID":279732},"geometry":{"x":172763.80999999959,"y":2544992.7800000012}},{"attributes":{"ID":279739,"DIS_CODE":0,"TOWNNAME":"永康區","LI":"新樹里","LIN":"6鄰","STREET":"西勢路","SECT":" ","MAREA":" ","LANE":"２２８巷","ALLEY":" ","HOUSE_NO":"２０號","E_COORD97":175790.37,"N_COORD97":2546852.8300000001,"ADDRESS":"西勢路２２８巷２０號","OBJECTID":279733},"geometry":{"x":175790.37000000104,"y":2546852.8299999982}},{"attributes":{"ID":279740,"DIS_CODE":0,"TOWNNAME":"永康區","LI":"蔦松里","LIN":"6鄰","STREET":"蔦松一街","SECT":" ","MAREA":" ","LANE":"７４巷","ALLEY":" ","HOUSE_NO":"１９號之１","E_COORD97":173887.85000000001,"N_COORD97":2549563.79,"ADDRESS":"蔦松一街７４巷１９號之１","OBJECTID":279734},"geometry":{"x":173887.85000000149,"y":2549563.7899999991}},{"attributes":{"ID":279741,"DIS_CODE":0,"TOWNNAME":"永康區","LI":"新樹里","LIN":"6鄰","STREET":"西勢路","SECT":" ","MAREA":" ","LANE":"２２８巷","ALLEY":" ","HOUSE_NO":"１８號","E_COORD97":175805.64000000001,"N_COORD97":2546840.1800000002,"ADDRESS":"西勢路２２８巷１８號","OBJECTID":279735},"geometry":{"x":175805.63999999966,"y":2546840.1800000034}},{"attributes":{"ID":279742,"DIS_CODE":0,"TOWNNAME":"善化區","LI":"南關里","LIN":"6鄰","STREET":"永福路","SECT":" ","MAREA":" ","LANE":"１６２巷","ALLEY":" ","HOUSE_NO":"３號","E_COORD97":177183.98999999999,"N_COORD97":2558776.75,"ADDRESS":"永福路１６２巷３號","OBJECTID":279736},"geometry":{"x":177183.99000000022,"y":2558776.75}},{"attributes":{"ID":279743,"DIS_CODE":0,"TOWNNAME":"善化區","LI":"坐駕里","LIN":"6鄰","STREET":"青年路","SECT":" ","MAREA":" ","LANE":"１６６巷","ALLEY":" ","HOUSE_NO":"６號","E_COORD97":177879.04999999999,"N_COORD97":2558898.75,"ADDRESS":"青年路１６６巷６號","OBJECTID":279737},"geometry":{"x":177879.05000000075,"y":2558898.75}},{"attributes":{"ID":279744,"DIS_CODE":0,"TOWNNAME":"善化區","LI":"南關里","LIN":"6鄰","STREET":"永福路","SECT":" ","MAREA":" ","LANE":"１６２巷","ALLEY":" ","HOUSE_NO":"７號","E_COORD97":177176.19,"N_COORD97":2558828,"ADDRESS":"永福路１６２巷７號","OBJECTID":279738},"geometry":{"x":177176.19000000041,"y":2558828.0000000019}},{"attributes":{"ID":279745,"DIS_CODE":0,"TOWNNAME":"善化區","LI":"坐駕里","LIN":"6鄰","STREET":"青年路","SECT":" ","MAREA":" ","LANE":"１６６巷","ALLEY":" ","HOUSE_NO":"８號","E_COORD97":177885.39000000001,"N_COORD97":2558899.5,"ADDRESS":"青年路１６６巷８號","OBJECTID":279739},"geometry":{"x":177885.3900000006,"y":2558899.5000000019}},{"attributes":{"ID":279746,"DIS_CODE":0,"TOWNNAME":"善化區","LI":"東關里","LIN":"6鄰","STREET":"中山路","SECT":" ","MAREA":" ","LANE":"４６８巷","ALLEY":" ","HOUSE_NO":"１號","E_COORD97":177290.89000000001,"N_COORD97":2559135.6200000001,"ADDRESS":"中山路４６８巷１號","OBJECTID":279740},"geometry":{"x":177290.88999999966,"y":2559135.6200000048}},{"attributes":{"ID":279747,"DIS_CODE":0,"TOWNNAME":"安南區","LI":"海佃里","LIN":"6鄰","STREET":"國安街","SECT":" ","MAREA":" ","LANE":"５６巷","ALLEY":" ","HOUSE_NO":"１５號","E_COORD97":166976.13,"N_COORD97":2547077.4900000002,"ADDRESS":"國安街５６巷１５號","OBJECTID":279741},"geometry":{"x":166976.12999999989,"y":2547077.4900000021}},{"attributes":{"ID":279748,"DIS_CODE":0,"TOWNNAME":"安南區","LI":"海佃里","LIN":"6鄰","STREET":"國安街","SECT":" ","MAREA":" ","LANE":"５６巷","ALLEY":" ","HOUSE_NO":"１９號","E_COORD97":166969.48000000001,"N_COORD97":2547089.46,"ADDRESS":"國安街５６巷１９號","OBJECTID":279742},"geometry":{"x":166969.48000000045,"y":2547089.4600000009}},{"attributes":{"ID":279749,"DIS_CODE":0,"TOWNNAME":"安南區","LI":"海佃里","LIN":"6鄰","STREET":"國安街","SECT":" ","MAREA":" ","LANE":"５６巷","ALLEY":" ","HOUSE_NO":"２１號","E_COORD97":166969.48000000001,"N_COORD97":2547096.7599999998,"ADDRESS":"國安街５６巷２１號","OBJECTID":279743},"geometry":{"x":166969.48000000045,"y":2547096.7599999998}},{"attributes":{"ID":279750,"DIS_CODE":0,"TOWNNAME":"安南區","LI":"幸福里","LIN":"6鄰","STREET":"國安街","SECT":" ","MAREA":" ","LANE":"１５５巷","ALLEY":" ","HOUSE_NO":"１１號","E_COORD97":166762.19,"N_COORD97":2546916.3999999999,"ADDRESS":"國安街１５５巷１１號","OBJECTID":279744},"geometry":{"x":166762.19000000134,"y":2546916.4000000004}},{"attributes":{"ID":279751,"DIS_CODE":0,"TOWNNAME":"安南區","LI":"幸福里","LIN":"6鄰","STREET":"國安街","SECT":" ","MAREA":" ","LANE":"１５５巷","ALLEY":" ","HOUSE_NO":"１３號","E_COORD97":166763.10999999999,"N_COORD97":2546911.1800000002,"ADDRESS":"國安街１５５巷１３號","OBJECTID":279745},"geometry":{"x":166763.11000000034,"y":2546911.1800000034}},{"attributes":{"ID":279752,"DIS_CODE":0,"TOWNNAME":"安南區","LI":"幸福里","LIN":"6鄰","STREET":"國安街","SECT":" ","MAREA":" ","LANE":"１５５巷","ALLEY":" ","HOUSE_NO":"１５號","E_COORD97":166764.57999999999,"N_COORD97":2546906.4100000001,"ADDRESS":"國安街１５５巷１５號","OBJECTID":279746},"geometry":{"x":166764.58000000007,"y":2546906.4100000001}},{"attributes":{"ID":279753,"DIS_CODE":0,"TOWNNAME":"安南區","LI":"幸福里","LIN":"6鄰","STREET":"國安街","SECT":" ","MAREA":" ","LANE":"１５５巷","ALLEY":" ","HOUSE_NO":"１７號","E_COORD97":166765.39999999999,"N_COORD97":2546902.3799999999,"ADDRESS":"國安街１５５巷１７號","OBJECTID":279747},"geometry":{"x":166765.4000000013,"y":2546902.3800000027}},{"attributes":{"ID":279754,"DIS_CODE":0,"TOWNNAME":"安南區","LI":"幸福里","LIN":"6鄰","STREET":"國安街","SECT":" ","MAREA":" ","LANE":"１５５巷","ALLEY":" ","HOUSE_NO":"２１號","E_COORD97":166767.14999999999,"N_COORD97":2546892.4399999999,"ADDRESS":"國安街１５５巷２１號","OBJECTID":279748},"geometry":{"x":166767.1500000013,"y":2546892.4400000032}},{"attributes":{"ID":279755,"DIS_CODE":0,"TOWNNAME":"安南區","LI":"幸福里","LIN":"6鄰","STREET":"國安街","SECT":" ","MAREA":" ","LANE":"１５５巷","ALLEY":" ","HOUSE_NO":"２５號","E_COORD97":166768.81,"N_COORD97":2546882.9100000001,"ADDRESS":"國安街１５５巷２５號","OBJECTID":279749},"geometry":{"x":166768.81000000052,"y":2546882.9099999983}},{"attributes":{"ID":279756,"DIS_CODE":0,"TOWNNAME":"安南區","LI":"幸福里","LIN":"6鄰","STREET":"國安街","SECT":" ","MAREA":" ","LANE":"１５５巷","ALLEY":" ","HOUSE_NO":"２７號","E_COORD97":166770.10000000001,"N_COORD97":2546878.9100000001,"ADDRESS":"國安街１５５巷２７號","OBJECTID":279750},"geometry":{"x":166770.10000000056,"y":2546878.9100000001}},{"attributes":{"ID":279757,"DIS_CODE":0,"TOWNNAME":"安南區","LI":"幸福里","LIN":"6鄰","STREET":"國安街","SECT":" ","MAREA":" ","LANE":"１５５巷","ALLEY":" ","HOUSE_NO":"２９號","E_COORD97":166771.01000000001,"N_COORD97":2546873.3199999998,"ADDRESS":"國安街１５５巷２９號","OBJECTID":279751},"geometry":{"x":166771.01000000071,"y":2546873.3200000003}},{"attributes":{"ID":279758,"DIS_CODE":0,"TOWNNAME":"安南區","LI":"幸福里","LIN":"6鄰","STREET":"國安街","SECT":" ","MAREA":" ","LANE":"１５５巷","ALLEY":" ","HOUSE_NO":"３３號","E_COORD97":166772.67000000001,"N_COORD97":2546863.98,"ADDRESS":"國安街１５５巷３３號","OBJECTID":279752},"geometry":{"x":166772.66999999993,"y":2546863.9800000023}},{"attributes":{"ID":279759,"DIS_CODE":0,"TOWNNAME":"安南區","LI":"幸福里","LIN":"6鄰","STREET":"國安街","SECT":" ","MAREA":" ","LANE":"１５５巷","ALLEY":" ","HOUSE_NO":"３５號","E_COORD97":166773.85999999999,"N_COORD97":2546859.3100000001,"ADDRESS":"國安街１５５巷３５號","OBJECTID":279753},"geometry":{"x":166773.86000000127,"y":2546859.3100000005}},{"attributes":{"ID":279760,"DIS_CODE":0,"TOWNNAME":"仁德區","LI":"新田里","LIN":"4鄰","STREET":"新田路","SECT":" ","MAREA":" ","LANE":" ","ALLEY":" ","HOUSE_NO":"１８３號","E_COORD97":174492.32000000001,"N_COORD97":2539446.7400000002,"ADDRESS":"新田路１８３號","OBJECTID":279754},"geometry":{"x":174492.32000000123,"y":2539446.7400000021}},{"attributes":{"ID":279761,"DIS_CODE":0,"TOWNNAME":"安南區","LI":"溪北里","LIN":"2鄰","STREET":"安和路","SECT":"一段","MAREA":" ","LANE":" ","ALLEY":" ","HOUSE_NO":"９５號","E_COORD97":169480.89000000001,"N_COORD97":2547600.9399999999,"ADDRESS":"安和路一段９５號","OBJECTID":279755},"geometry":{"x":169480.88999999966,"y":2547600.9400000032}},{"attributes":{"ID":279762,"DIS_CODE":0,"TOWNNAME":"安南區","LI":"溪北里","LIN":"2鄰","STREET":"安和路","SECT":"一段","MAREA":" ","LANE":" ","ALLEY":" ","HOUSE_NO":"９７號","E_COORD97":169478.09,"N_COORD97":2547605.1400000001,"ADDRESS":"安和路一段９７號","OBJECTID":279756},"geometry":{"x":169478.08999999985,"y":2547605.1400000025}},{"attributes":{"ID":279763,"DIS_CODE":0,"TOWNNAME":"安南區","LI":"幸福里","LIN":"6鄰","STREET":"國安街","SECT":" ","MAREA":" ","LANE":"１５５巷","ALLEY":" ","HOUSE_NO":"３號","E_COORD97":166759.87,"N_COORD97":2546930.1600000001,"ADDRESS":"國安街１５５巷３號","OBJECTID":279757},"geometry":{"x":166759.87000000197,"y":2546930.160000002}},{"attributes":{"ID":279764,"DIS_CODE":0,"TOWNNAME":"永康區","LI":"三民里","LIN":"6鄰","STREET":"三民街","SECT":" ","MAREA":" ","LANE":"１８巷","ALLEY":" ","HOUSE_NO":"２１號","E_COORD97":173376.70000000001,"N_COORD97":2550192.2799999998,"ADDRESS":"三民街１８巷２１號","OBJECTID":279758},"geometry":{"x":173376.70000000019,"y":2550192.2800000031}},{"attributes":{"ID":279765,"DIS_CODE":0,"TOWNNAME":"永康區","LI":"三合里","LIN":"6鄰","STREET":"南工街","SECT":" ","MAREA":" ","LANE":"１１４巷","ALLEY":" ","HOUSE_NO":"６號","E_COORD97":172127.35999999999,"N_COORD97":2545748.4500000002,"ADDRESS":"南工街１１４巷６號","OBJECTID":279759},"geometry":{"x":172127.36000000127,"y":2545748.4499999993}},{"attributes":{"ID":279766,"DIS_CODE":0,"TOWNNAME":"永康區","LI":"西灣里","LIN":"6鄰","STREET":"大灣五街","SECT":" ","MAREA":" ","LANE":"９３巷","ALLEY":" ","HOUSE_NO":"３５號","E_COORD97":174591.37,"N_COORD97":2545240.4900000002,"ADDRESS":"大灣五街９３巷３５號","OBJECTID":279760},"geometry":{"x":174591.37000000011,"y":2545240.4900000002}},{"attributes":{"ID":279767,"DIS_CODE":0,"TOWNNAME":"永康區","LI":"安康里","LIN":"6鄰","STREET":"中華路","SECT":" ","MAREA":" ","LANE":"７２７巷","ALLEY":" ","HOUSE_NO":"７２號","E_COORD97":170686.76999999999,"N_COORD97":2546342.0299999998,"ADDRESS":"中華路７２７巷７２號","OBJECTID":279761},"geometry":{"x":170686.77000000048,"y":2546342.0299999993}},{"attributes":{"ID":279768,"DIS_CODE":0,"TOWNNAME":"永康區","LI":"三民里","LIN":"6鄰","STREET":"三民街","SECT":" ","MAREA":" ","LANE":"１１２巷","ALLEY":" ","HOUSE_NO":"９０號","E_COORD97":172944.84,"N_COORD97":2550536.2799999998,"ADDRESS":"三民街１１２巷９０號","OBJECTID":279762},"geometry":{"x":172944.83999999985,"y":2550536.2799999993}},{"attributes":{"ID":279769,"DIS_CODE":0,"TOWNNAME":"永康區","LI":"三合里","LIN":"6鄰","STREET":"南工街","SECT":" ","MAREA":" ","LANE":"１３０巷","ALLEY":" ","HOUSE_NO":"１３號","E_COORD97":172149.57000000001,"N_COORD97":2545796.5600000001,"ADDRESS":"南工街１３０巷１３號","OBJECTID":279763},"geometry":{"x":172149.57000000123,"y":2545796.5600000005}},{"attributes":{"ID":279770,"DIS_CODE":0,"TOWNNAME":"永康區","LI":"三合里","LIN":"6鄰","STREET":"南工街","SECT":" ","MAREA":" ","LANE":"１３０巷","ALLEY":" ","HOUSE_NO":"４號","E_COORD97":172123.35999999999,"N_COORD97":2545783.04,"ADDRESS":"南工街１３０巷４號","OBJECTID":279764},"geometry":{"x":172123.36000000034,"y":2545783.040000001}},{"attributes":{"ID":279771,"DIS_CODE":0,"TOWNNAME":"永康區","LI":"三民里","LIN":"6鄰","STREET":"三民街","SECT":" ","MAREA":" ","LANE":"１８巷","ALLEY":" ","HOUSE_NO":"１２號","E_COORD97":173291.56,"N_COORD97":2550156.04,"ADDRESS":"三民街１８巷１２號","OBJECTID":279765},"geometry":{"x":173291.56000000052,"y":2550156.0399999972}},{"attributes":{"ID":279772,"DIS_CODE":0,"TOWNNAME":"永康區","LI":"二王里","LIN":"6鄰","STREET":"永二街","SECT":" ","MAREA":" ","LANE":"３７６巷","ALLEY":" ","HOUSE_NO":"１６號","E_COORD97":172873.98000000001,"N_COORD97":2546744.21,"ADDRESS":"永二街３７６巷１６號","OBJECTID":279766},"geometry":{"x":172873.98000000231,"y":2546744.2100000028}},{"attributes":{"ID":279773,"DIS_CODE":0,"TOWNNAME":"永康區","LI":"三民里","LIN":"6鄰","STREET":"三民街","SECT":" ","MAREA":" ","LANE":"１８巷","ALLEY":" ","HOUSE_NO":"１７號","E_COORD97":173365.73000000001,"N_COORD97":2550190.2799999998,"ADDRESS":"三民街１８巷１７號","OBJECTID":279767},"geometry":{"x":173365.73000000138,"y":2550190.2800000012}},{"attributes":{"ID":279774,"DIS_CODE":0,"TOWNNAME":"永康區","LI":"三合里","LIN":"6鄰","STREET":"南工街","SECT":" ","MAREA":" ","LANE":"１３０巷","ALLEY":" ","HOUSE_NO":"９號","E_COORD97":172138.51999999999,"N_COORD97":2545796.5600000001,"ADDRESS":"南工街１３０巷９號","OBJECTID":279768},"geometry":{"x":172138.51999999955,"y":2545796.5600000005}},{"attributes":{"ID":279775,"DIS_CODE":0,"TOWNNAME":"永康區","LI":"三合里","LIN":"6鄰","STREET":"南工街","SECT":" ","MAREA":" ","LANE":"１１４巷","ALLEY":" ","HOUSE_NO":"４號","E_COORD97":172123.03,"N_COORD97":2545748.4500000002,"ADDRESS":"南工街１１４巷４號","OBJECTID":279769},"geometry":{"x":172123.03000000119,"y":2545748.4499999993}},{"attributes":{"ID":279776,"DIS_CODE":0,"TOWNNAME":"永康區","LI":"二王里","LIN":"6鄰","STREET":"永二街","SECT":" ","MAREA":" ","LANE":"３７６巷","ALLEY":" ","HOUSE_NO":"１３號","E_COORD97":172858.78,"N_COORD97":2546728.25,"ADDRESS":"永二街３７６巷１３號","OBJECTID":279770},"geometry":{"x":172858.78000000119,"y":2546728.2500000037}},{"attributes":{"ID":279777,"DIS_CODE":0,"TOWNNAME":"永康區","LI":"三民里","LIN":"6鄰","STREET":"三民街","SECT":" ","MAREA":" ","LANE":"１８巷","ALLEY":" ","HOUSE_NO":"１６號","E_COORD97":173304.89999999999,"N_COORD97":2550159.54,"ADDRESS":"三民街１８巷１６號","OBJECTID":279771},"geometry":{"x":173304.89999999944,"y":2550159.5400000028}},{"attributes":{"ID":279778,"DIS_CODE":0,"TOWNNAME":"永康區","LI":"三合里","LIN":"6鄰","STREET":"南工街","SECT":" ","MAREA":" ","LANE":"１３０巷","ALLEY":" ","HOUSE_NO":"２號","E_COORD97":172118.56,"N_COORD97":2545783.29,"ADDRESS":"南工街１３０巷２號","OBJECTID":279772},"geometry":{"x":172118.56000000052,"y":2545783.2899999991}},{"attributes":{"ID":279779,"DIS_CODE":0,"TOWNNAME":"永康區","LI":"三民里","LIN":"6鄰","STREET":"三民街","SECT":" ","MAREA":" ","LANE":"１８巷","ALLEY":" ","HOUSE_NO":"１５號","E_COORD97":173352.20000000001,"N_COORD97":2550188.2799999998,"ADDRESS":"三民街１８巷１５號","OBJECTID":279773},"geometry":{"x":173352.20000000112,"y":2550188.2799999993}},{"attributes":{"ID":279780,"DIS_CODE":0,"TOWNNAME":"永康區","LI":"三民里","LIN":"6鄰","STREET":"三民街","SECT":" ","MAREA":" ","LANE":"１８巷","ALLEY":" ","HOUSE_NO":"５號","E_COORD97":173285.79999999999,"N_COORD97":2550175.79,"ADDRESS":"三民街１８巷５號","OBJECTID":279774},"geometry":{"x":173285.79999999981,"y":2550175.790000001}},{"attributes":{"ID":279781,"DIS_CODE":0,"TOWNNAME":"永康區","LI":"三民里","LIN":"6鄰","STREET":"三民街","SECT":" ","MAREA":" ","LANE":"１８巷","ALLEY":" ","HOUSE_NO":"４２號","E_COORD97":173401.14000000001,"N_COORD97":2550181.04,"ADDRESS":"三民街１８巷４２號","OBJECTID":279775},"geometry":{"x":173401.1400000006,"y":2550181.040000001}},{"attributes":{"ID":279782,"DIS_CODE":0,"TOWNNAME":"永康區","LI":"三合里","LIN":"6鄰","STREET":"南工街","SECT":" ","MAREA":" ","LANE":"１４６巷","ALLEY":" ","HOUSE_NO":"１２號","E_COORD97":172146.73000000001,"N_COORD97":2545816.3700000001,"ADDRESS":"南工街１４６巷１２號","OBJECTID":279776},"geometry":{"x":172146.73000000231,"y":2545816.3700000048}},{"attributes":{"ID":279783,"DIS_CODE":0,"TOWNNAME":"永康區","LI":"三民里","LIN":"6鄰","STREET":"三民街","SECT":" ","MAREA":" ","LANE":"１８巷","ALLEY":" ","HOUSE_NO":"２７號","E_COORD97":173392.91,"N_COORD97":2550196.0299999998,"ADDRESS":"三民街１８巷２７號","OBJECTID":279777},"geometry":{"x":173392.91000000201,"y":2550196.0299999993}},{"attributes":{"ID":279784,"DIS_CODE":0,"TOWNNAME":"永康區","LI":"三民里","LIN":"6鄰","STREET":"三民街","SECT":" ","MAREA":" ","LANE":"１８巷","ALLEY":" ","HOUSE_NO":"３６號","E_COORD97":173385.64999999999,"N_COORD97":2550177.79,"ADDRESS":"三民街１８巷３６號","OBJECTID":279778},"geometry":{"x":173385.65000000037,"y":2550177.7899999991}},{"attributes":{"ID":279785,"DIS_CODE":0,"TOWNNAME":"永康區","LI":"三民里","LIN":"6鄰","STREET":"三民街","SECT":" ","MAREA":" ","LANE":"１８巷","ALLEY":" ","HOUSE_NO":"３８號","E_COORD97":173390.67999999999,"N_COORD97":2550178.79,"ADDRESS":"三民街１８巷３８號","OBJECTID":279779},"geometry":{"x":173390.68000000156,"y":2550178.790000001}},{"attributes":{"ID":279786,"DIS_CODE":0,"TOWNNAME":"永康區","LI":"三民里","LIN":"6鄰","STREET":"三民街","SECT":" ","MAREA":" ","LANE":"１８巷","ALLEY":" ","HOUSE_NO":"２９號","E_COORD97":173398.76000000001,"N_COORD97":2550196.2799999998,"ADDRESS":"三民街１８巷２９號","OBJECTID":279780},"geometry":{"x":173398.76000000071,"y":2550196.2800000012}},{"attributes":{"ID":279787,"DIS_CODE":0,"TOWNNAME":"永康區","LI":"甲頂里","LIN":"6鄰","STREET":"中正南路","SECT":" ","MAREA":" ","LANE":"１６８巷","ALLEY":" ","HOUSE_NO":"５５號","E_COORD97":169948.06,"N_COORD97":2546816.1800000002,"ADDRESS":"中正南路１６８巷５５號","OBJECTID":279781},"geometry":{"x":169948.05999999959,"y":2546816.1799999978}},{"attributes":{"ID":279788,"DIS_CODE":0,"TOWNNAME":"永康區","LI":"西灣里","LIN":"6鄰","STREET":"大灣五街","SECT":" ","MAREA":" ","LANE":"９３巷","ALLEY":" ","HOUSE_NO":"６１號","E_COORD97":174586.26000000001,"N_COORD97":2545197.5,"ADDRESS":"大灣五街９３巷６１號","OBJECTID":279782},"geometry":{"x":174586.25999999978,"y":2545197.5000000037}},{"attributes":{"ID":279789,"DIS_CODE":0,"TOWNNAME":"安南區","LI":"溪北里","LIN":"2鄰","STREET":"安和路","SECT":"一段","MAREA":" ","LANE":" ","ALLEY":" ","HOUSE_NO":"９９號","E_COORD97":169476.85000000001,"N_COORD97":2547609.02,"ADDRESS":"安和路一段９９號","OBJECTID":279783},"geometry":{"x":169476.85000000149,"y":2547609.0199999996}},{"attributes":{"ID":279790,"DIS_CODE":0,"TOWNNAME":"永康區","LI":"埔園里","LIN":"6鄰","STREET":"中山路","SECT":" ","MAREA":" ","LANE":"１６８巷","ALLEY":" ","HOUSE_NO":"３號","E_COORD97":173788.07999999999,"N_COORD97":2547839.7400000002,"ADDRESS":"中山路１６８巷３號","OBJECTID":279784},"geometry":{"x":173788.08000000007,"y":2547839.7400000002}},{"attributes":{"ID":279791,"DIS_CODE":0,"TOWNNAME":"永康區","LI":"\u25A0洲里","LIN":"6鄰","STREET":"\u25A0洲二街","SECT":" ","MAREA":" ","LANE":"２２１巷","ALLEY":" ","HOUSE_NO":"８號","E_COORD97":171831.76999999999,"N_COORD97":2549544.5,"ADDRESS":"\u25A0洲二街２２１巷８號","OBJECTID":279785},"geometry":{"x":171831.76999999955,"y":2549544.5000000019}},{"attributes":{"ID":279792,"DIS_CODE":0,"TOWNNAME":"永康區","LI":"安康里","LIN":"6鄰","STREET":"中華路","SECT":" ","MAREA":" ","LANE":"７２７巷","ALLEY":" ","HOUSE_NO":"４８號","E_COORD97":170730.31,"N_COORD97":2546368.0600000001,"ADDRESS":"中華路７２７巷４８號","OBJECTID":279786},"geometry":{"x":170730.31000000052,"y":2546368.0600000024}},{"attributes":{"ID":279793,"DIS_CODE":0,"TOWNNAME":"永康區","LI":"三民里","LIN":"6鄰","STREET":"三民街","SECT":" ","MAREA":" ","LANE":"１８巷","ALLEY":" ","HOUSE_NO":"２６號","E_COORD97":173355.89000000001,"N_COORD97":2550167.79,"ADDRESS":"三民街１８巷２６號","OBJECTID":279787},"geometry":{"x":173355.8900000006,"y":2550167.7899999991}},{"attributes":{"ID":279794,"DIS_CODE":0,"TOWNNAME":"安南區","LI":"安慶里","LIN":"6鄰","STREET":"怡安路","SECT":"一段","MAREA":" ","LANE":"２９１巷","ALLEY":" ","HOUSE_NO":"１８號","E_COORD97":168959.09,"N_COORD97":2549054.6800000002,"ADDRESS":"怡安路一段２９１巷１８號","OBJECTID":279788},"geometry":{"x":168959.09000000078,"y":2549054.6800000016}},{"attributes":{"ID":279795,"DIS_CODE":0,"TOWNNAME":"安南區","LI":"安慶里","LIN":"6鄰","STREET":"怡安路","SECT":"一段","MAREA":" ","LANE":"２９１巷","ALLEY":" ","HOUSE_NO":"２７號","E_COORD97":168983.53,"N_COORD97":2549045.0499999998,"ADDRESS":"怡安路一段２９１巷２７號","OBJECTID":279789},"geometry":{"x":168983.53000000119,"y":2549045.0500000007}},{"attributes":{"ID":279796,"DIS_CODE":0,"TOWNNAME":"安南區","LI":"安慶里","LIN":"6鄰","STREET":"怡安路","SECT":"一段","MAREA":" ","LANE":"２９１巷","ALLEY":" ","HOUSE_NO":"２８號","E_COORD97":168955.42000000001,"N_COORD97":2549033.0600000001,"ADDRESS":"怡安路一段２９１巷２８號","OBJECTID":279790},"geometry":{"x":168955.41999999993,"y":2549033.0600000024}},{"attributes":{"ID":279797,"DIS_CODE":0,"TOWNNAME":"安南區","LI":"安慶里","LIN":"6鄰","STREET":"怡安路","SECT":"一段","MAREA":" ","LANE":"２９１巷","ALLEY":" ","HOUSE_NO":"３６號","E_COORD97":168984.29000000001,"N_COORD97":2549003.71,"ADDRESS":"怡安路一段２９１巷３６號","OBJECTID":279791},"geometry":{"x":168984.28999999911,"y":2549003.7100000009}},{"attributes":{"ID":279798,"DIS_CODE":0,"TOWNNAME":"安南區","LI":"安慶里","LIN":"6鄰","STREET":"怡安路","SECT":"一段","MAREA":" ","LANE":"２９１巷","ALLEY":" ","HOUSE_NO":"８號","E_COORD97":168952.75,"N_COORD97":2549066.0499999998,"ADDRESS":"怡安路一段２９１巷８號","OBJECTID":279792},"geometry":{"x":168952.75000000093,"y":2549066.0499999989}},{"attributes":{"ID":279799,"DIS_CODE":0,"TOWNNAME":"安南區","LI":"安慶里","LIN":"6鄰","STREET":"怡安路","SECT":"一段","MAREA":" ","LANE":"３０３巷","ALLEY":" ","HOUSE_NO":"１７號","E_COORD97":168935.01999999999,"N_COORD97":2549063.8300000001,"ADDRESS":"怡安路一段３０３巷１７號","OBJECTID":279793},"geometry":{"x":168935.02000000048,"y":2549063.8300000038}},{"attributes":{"ID":279800,"DIS_CODE":0,"TOWNNAME":"安南區","LI":"安慶里","LIN":"6鄰","STREET":"怡安路","SECT":"一段","MAREA":" ","LANE":"２９１巷","ALLEY":" ","HOUSE_NO":"４０號","E_COORD97":168974.35000000001,"N_COORD97":2549002.0099999998,"ADDRESS":"怡安路一段２９１巷４０號","OBJECTID":279794},"geometry":{"x":168974.34999999963,"y":2549002.0100000016}},{"attributes":{"ID":279801,"DIS_CODE":0,"TOWNNAME":"仁德區","LI":"仁愛里","LIN":"1鄰","STREET":" ","SECT":" ","MAREA":"仁愛","LANE":" ","ALLEY":" ","HOUSE_NO":"３號","E_COORD97":170314.97,"N_COORD97":2540210.5299999998,"ADDRESS":"仁愛３號","OBJECTID":279795},"geometry":{"x":170314.96999999974,"y":2540210.5300000012}},{"attributes":{"ID":279802,"DIS_CODE":0,"TOWNNAME":"下營區","LI":"西連里","LIN":"2鄰","STREET":" ","SECT":" ","MAREA":"連表","LANE":" ","ALLEY":" ","HOUSE_NO":"１６號之１","E_COORD97":174978.48000000001,"N_COORD97":2567814.25,"ADDRESS":"連表１６號之１","OBJECTID":279796},"geometry":{"x":174978.48000000138,"y":2567814.2500000019}},{"attributes":{"ID":279803,"DIS_CODE":0,"TOWNNAME":"下營區","LI":"西連里","LIN":"2鄰","STREET":" ","SECT":" ","MAREA":"連表","LANE":" ","ALLEY":" ","HOUSE_NO":"１６號之２","E_COORD97":174980.07000000001,"N_COORD97":2567799.0299999998,"ADDRESS":"連表１６號之２","OBJECTID":279797},"geometry":{"x":174980.0700000003,"y":2567799.0299999993}},{"attributes":{"ID":279804,"DIS_CODE":0,"TOWNNAME":"下營區","LI":"西連里","LIN":"2鄰","STREET":" ","SECT":" ","MAREA":"連表","LANE":" ","ALLEY":" ","HOUSE_NO":"１６號","E_COORD97":174953.76999999999,"N_COORD97":2567817.3700000001,"ADDRESS":"連表１６號","OBJECTID":279798},"geometry":{"x":174953.76999999955,"y":2567817.3700000029}},{"attributes":{"ID":279805,"DIS_CODE":0,"TOWNNAME":"下營區","LI":"西連里","LIN":"2鄰","STREET":" ","SECT":" ","MAREA":"連表","LANE":" ","ALLEY":" ","HOUSE_NO":"１７號","E_COORD97":175003.26000000001,"N_COORD97":2567845.1699999999,"ADDRESS":"連表１７號","OBJECTID":279799},"geometry":{"x":175003.25999999978,"y":2567845.1700000018}},{"attributes":{"ID":279806,"DIS_CODE":0,"TOWNNAME":"下營區","LI":"西連里","LIN":"2鄰","STREET":" ","SECT":" ","MAREA":"連表","LANE":" ","ALLEY":" ","HOUSE_NO":"１８號之１０","E_COORD97":175344.54999999999,"N_COORD97":2568018.73,"ADDRESS":"連表１８號之１０","OBJECTID":279800},"geometry":{"x":175344.55000000168,"y":2568018.7300000004}}]}