{"displayFieldName":"TOWNNAME","fieldAliases":{"ID":"ID","DIS_CODE":"DIS_CODE","TOWNNAME":"TOWNNAME","LI":"LI","LIN":"LIN","STREET":"STREET","SECT":"SECT","MAREA":"MAREA","LANE":"LANE","ALLEY":"ALLEY","HOUSE_NO":"HOUSE_NO","E_COORD97":"E_COORD97","N_COORD97":"N_COORD97","ADDRESS":"ADDRESS","OBJECTID":"OBJECTID"},"geometryType":"esriGeometryPoint","spatialReference":{"wkid":102443,"latestWkid":3826},"fields":[{"name":"ID","type":"esriFieldTypeDouble","alias":"ID"},{"name":"DIS_CODE","type":"esriFieldTypeInteger","alias":"DIS_CODE"},{"name":"TOWNNAME","type":"esriFieldTypeString","alias":"TOWNNAME","length":8},{"name":"LI","type":"esriFieldTypeString","alias":"LI","length":8},{"name":"LIN","type":"esriFieldTypeString","alias":"LIN","length":12},{"name":"STREET","type":"esriFieldTypeString","alias":"STREET","length":20},{"name":"SECT","type":"esriFieldTypeString","alias":"SECT","length":8},{"name":"MAREA","type":"esriFieldTypeString","alias":"MAREA","length":12},{"name":"LANE","type":"esriFieldTypeString","alias":"LANE","length":10},{"name":"ALLEY","type":"esriFieldTypeString","alias":"ALLEY","length":10},{"name":"HOUSE_NO","type":"esriFieldTypeString","alias":"HOUSE_NO","length":20},{"name":"E_COORD97","type":"esriFieldTypeDouble","alias":"E_COORD97"},{"name":"N_COORD97","type":"esriFieldTypeDouble","alias":"N_COORD97"},{"name":"ADDRESS","type":"esriFieldTypeString","alias":"ADDRESS","length":50},{"name":"OBJECTID","type":"esriFieldTypeOID","alias":"OBJECTID"}],"features":[{"attributes":{"ID":22601,"DIS_CODE":0,"TOWNNAME":"大內區","LI":"石湖里","LIN":"17鄰","STREET":" ","SECT":" ","MAREA":"新厝子","LANE":" ","ALLEY":" ","HOUSE_NO":"７１號","E_COORD97":183451.01999999999,"N_COORD97":2560991.25,"ADDRESS":"新厝子７１號","OBJECTID":22601},"geometry":{"x":183451.02000000048,"y":2560991.2499999981}},{"attributes":{"ID":22602,"DIS_CODE":0,"TOWNNAME":"大內區","LI":"石湖里","LIN":"17鄰","STREET":" ","SECT":" ","MAREA":"新厝子","LANE":" ","ALLEY":" ","HOUSE_NO":"６４號","E_COORD97":183455.32000000001,"N_COORD97":2560958.25,"ADDRESS":"新厝子６４號","OBJECTID":22602},"geometry":{"x":183455.32000000123,"y":2560958.2500000019}},{"attributes":{"ID":22603,"DIS_CODE":0,"TOWNNAME":"大內區","LI":"頭社里","LIN":"17鄰","STREET":" ","SECT":" ","MAREA":"頭社","LANE":" ","ALLEY":" ","HOUSE_NO":"２１４號","E_COORD97":187620.29000000001,"N_COORD97":2559559.25,"ADDRESS":"頭社２１４號","OBJECTID":22603},"geometry":{"x":187620.29000000097,"y":2559559.25}},{"attributes":{"ID":22604,"DIS_CODE":0,"TOWNNAME":"麻豆區","LI":"南勢里","LIN":"17鄰","STREET":" ","SECT":" ","MAREA":"南勢","LANE":" ","ALLEY":" ","HOUSE_NO":"３６號之１３８","E_COORD97":174455.51999999999,"N_COORD97":2564612.5499999998,"ADDRESS":"南勢３６號之１３８","OBJECTID":22604},"geometry":{"x":174455.51999999955,"y":2564612.5500000026}},{"attributes":{"ID":22605,"DIS_CODE":0,"TOWNNAME":"麻豆區","LI":"南勢里","LIN":"17鄰","STREET":" ","SECT":" ","MAREA":"南勢","LANE":" ","ALLEY":" ","HOUSE_NO":"３６號之１３９","E_COORD97":174460.01999999999,"N_COORD97":2564612.3900000001,"ADDRESS":"南勢３６號之１３９","OBJECTID":22605},"geometry":{"x":174460.02000000048,"y":2564612.3900000025}},{"attributes":{"ID":22606,"DIS_CODE":0,"TOWNNAME":"安南區","LI":"長安里","LIN":"14鄰","STREET":"長溪路","SECT":"三段","MAREA":" ","LANE":"３８０巷","ALLEY":"１２５弄","HOUSE_NO":"５０號","E_COORD97":167953.48999999999,"N_COORD97":2552291.23,"ADDRESS":"長溪路三段３８０巷１２５弄５０號","OBJECTID":22606},"geometry":{"x":167953.49000000022,"y":2552291.2300000004}},{"attributes":{"ID":22607,"DIS_CODE":0,"TOWNNAME":"安南區","LI":"長安里","LIN":"14鄰","STREET":"長溪路","SECT":"三段","MAREA":" ","LANE":"３８０巷","ALLEY":"１２５弄","HOUSE_NO":"５２號","E_COORD97":167956.67000000001,"N_COORD97":2552293.6899999999,"ADDRESS":"長溪路三段３８０巷１２５弄５２號","OBJECTID":22607},"geometry":{"x":167956.67000000086,"y":2552293.6899999995}},{"attributes":{"ID":22608,"DIS_CODE":0,"TOWNNAME":"安南區","LI":"長安里","LIN":"14鄰","STREET":"長溪路","SECT":"三段","MAREA":" ","LANE":"３８０巷","ALLEY":"１２５弄","HOUSE_NO":"５４號","E_COORD97":167960.04999999999,"N_COORD97":2552296.3500000001,"ADDRESS":"長溪路三段３８０巷１２５弄５４號","OBJECTID":22608},"geometry":{"x":167960.04999999888,"y":2552296.3499999996}},{"attributes":{"ID":22609,"DIS_CODE":0,"TOWNNAME":"麻豆區","LI":"南勢里","LIN":"17鄰","STREET":" ","SECT":" ","MAREA":"南勢","LANE":" ","ALLEY":" ","HOUSE_NO":"３６號之１４０","E_COORD97":174465.63,"N_COORD97":2564599.1099999999,"ADDRESS":"南勢３６號之１４０","OBJECTID":22609},"geometry":{"x":174465.62999999989,"y":2564599.1100000031}},{"attributes":{"ID":22610,"DIS_CODE":0,"TOWNNAME":"麻豆區","LI":"南勢里","LIN":"17鄰","STREET":" ","SECT":" ","MAREA":"南勢","LANE":" ","ALLEY":" ","HOUSE_NO":"３６號之１４１","E_COORD97":174460.91,"N_COORD97":2564599.0899999999,"ADDRESS":"南勢３６號之１４１","OBJECTID":22610},"geometry":{"x":174460.91000000201,"y":2564599.0899999999}},{"attributes":{"ID":22611,"DIS_CODE":0,"TOWNNAME":"麻豆區","LI":"南勢里","LIN":"17鄰","STREET":" ","SECT":" ","MAREA":"南勢","LANE":" ","ALLEY":" ","HOUSE_NO":"３６號之１４２","E_COORD97":174456.20000000001,"N_COORD97":2564599.0699999998,"ADDRESS":"南勢３６號之１４２","OBJECTID":22611},"geometry":{"x":174456.20000000112,"y":2564599.0700000003}},{"attributes":{"ID":22612,"DIS_CODE":0,"TOWNNAME":"安南區","LI":"長安里","LIN":"14鄰","STREET":"長溪路","SECT":"三段","MAREA":" ","LANE":"３８０巷","ALLEY":"１２５弄","HOUSE_NO":"５６號","E_COORD97":167964.34,"N_COORD97":2552297.79,"ADDRESS":"長溪路三段３８０巷１２５弄５６號","OBJECTID":22612},"geometry":{"x":167964.33999999985,"y":2552297.790000001}},{"attributes":{"ID":22613,"DIS_CODE":0,"TOWNNAME":"安南區","LI":"長安里","LIN":"14鄰","STREET":"長溪路","SECT":"三段","MAREA":" ","LANE":"３８０巷","ALLEY":"１２５弄","HOUSE_NO":"５８號","E_COORD97":167953.38,"N_COORD97":2552313.4199999999,"ADDRESS":"長溪路三段３８０巷１２５弄５８號","OBJECTID":22613},"geometry":{"x":167953.38000000082,"y":2552313.4199999999}},{"attributes":{"ID":22614,"DIS_CODE":0,"TOWNNAME":"安南區","LI":"長安里","LIN":"14鄰","STREET":"長溪路","SECT":"三段","MAREA":" ","LANE":"３８０巷","ALLEY":"１２５弄","HOUSE_NO":"６０號","E_COORD97":167950.01000000001,"N_COORD97":2552311.3599999999,"ADDRESS":"長溪路三段３８０巷１２５弄６０號","OBJECTID":22614},"geometry":{"x":167950.00999999978,"y":2552311.3600000013}},{"attributes":{"ID":22615,"DIS_CODE":0,"TOWNNAME":"安南區","LI":"長安里","LIN":"14鄰","STREET":"長溪路","SECT":"三段","MAREA":" ","LANE":"３８０巷","ALLEY":"１２５弄","HOUSE_NO":"６２號","E_COORD97":167947.10999999999,"N_COORD97":2552308.1299999999,"ADDRESS":"長溪路三段３８０巷１２５弄６２號","OBJECTID":22615},"geometry":{"x":167947.11000000127,"y":2552308.1299999971}},{"attributes":{"ID":22616,"DIS_CODE":0,"TOWNNAME":"官田區","LI":"隆田里","LIN":"24鄰","STREET":"隆西街","SECT":" ","MAREA":" ","LANE":" ","ALLEY":" ","HOUSE_NO":"１６號","E_COORD97":179095.12,"N_COORD97":2565887.0299999998,"ADDRESS":"隆西街１６號","OBJECTID":22616},"geometry":{"x":179095.12000000011,"y":2565887.0299999993}},{"attributes":{"ID":22617,"DIS_CODE":0,"TOWNNAME":"官田區","LI":"隆田里","LIN":"24鄰","STREET":"隆西街","SECT":" ","MAREA":" ","LANE":" ","ALLEY":" ","HOUSE_NO":"１８號","E_COORD97":179088.26000000001,"N_COORD97":2565887.4199999999,"ADDRESS":"隆西街１８號","OBJECTID":22617},"geometry":{"x":179088.26000000071,"y":2565887.4200000018}},{"attributes":{"ID":22618,"DIS_CODE":0,"TOWNNAME":"官田區","LI":"隆田里","LIN":"24鄰","STREET":"隆西街","SECT":" ","MAREA":" ","LANE":" ","ALLEY":" ","HOUSE_NO":"２０號","E_COORD97":179081.22,"N_COORD97":2565887.6600000001,"ADDRESS":"隆西街２０號","OBJECTID":22618},"geometry":{"x":179081.2200000016,"y":2565887.6599999983}},{"attributes":{"ID":22619,"DIS_CODE":0,"TOWNNAME":"官田區","LI":"隆田里","LIN":"24鄰","STREET":"隆西街","SECT":" ","MAREA":" ","LANE":" ","ALLEY":" ","HOUSE_NO":"２２號","E_COORD97":179074.37,"N_COORD97":2565887.71,"ADDRESS":"隆西街２２號","OBJECTID":22619},"geometry":{"x":179074.37000000104,"y":2565887.7100000009}},{"attributes":{"ID":22620,"DIS_CODE":0,"TOWNNAME":"官田區","LI":"隆田里","LIN":"24鄰","STREET":"隆西街","SECT":" ","MAREA":" ","LANE":" ","ALLEY":" ","HOUSE_NO":"２４號","E_COORD97":179067.78,"N_COORD97":2565887.8199999998,"ADDRESS":"隆西街２４號","OBJECTID":22620},"geometry":{"x":179067.78000000212,"y":2565887.8200000022}},{"attributes":{"ID":22621,"DIS_CODE":0,"TOWNNAME":"官田區","LI":"隆田里","LIN":"24鄰","STREET":"隆西街","SECT":" ","MAREA":" ","LANE":" ","ALLEY":" ","HOUSE_NO":"２６號","E_COORD97":179060.92000000001,"N_COORD97":2565887.8500000001,"ADDRESS":"隆西街２６號","OBJECTID":22621},"geometry":{"x":179060.91999999993,"y":2565887.8499999996}},{"attributes":{"ID":22622,"DIS_CODE":0,"TOWNNAME":"官田區","LI":"隆田里","LIN":"24鄰","STREET":"隆西街","SECT":" ","MAREA":" ","LANE":" ","ALLEY":" ","HOUSE_NO":"２８號","E_COORD97":179054.44,"N_COORD97":2565887.8100000001,"ADDRESS":"隆西街２８號","OBJECTID":22622},"geometry":{"x":179054.44000000041,"y":2565887.8100000024}},{"attributes":{"ID":22623,"DIS_CODE":0,"TOWNNAME":"官田區","LI":"隆田里","LIN":"24鄰","STREET":"隆西街","SECT":" ","MAREA":" ","LANE":" ","ALLEY":" ","HOUSE_NO":"３０號","E_COORD97":179047.10999999999,"N_COORD97":2565887.9700000002,"ADDRESS":"隆西街３０號","OBJECTID":22623},"geometry":{"x":179047.11000000127,"y":2565887.9700000025}},{"attributes":{"ID":22624,"DIS_CODE":0,"TOWNNAME":"官田區","LI":"隆田里","LIN":"24鄰","STREET":"隆西街","SECT":" ","MAREA":" ","LANE":" ","ALLEY":" ","HOUSE_NO":"３２號","E_COORD97":179040.79999999999,"N_COORD97":2565887.73,"ADDRESS":"隆西街３２號","OBJECTID":22624},"geometry":{"x":179040.79999999981,"y":2565887.7300000042}},{"attributes":{"ID":22625,"DIS_CODE":0,"TOWNNAME":"安南區","LI":"長安里","LIN":"14鄰","STREET":"長溪路","SECT":"三段","MAREA":" ","LANE":"３８０巷","ALLEY":"１２５弄","HOUSE_NO":"６４號","E_COORD97":167943.76999999999,"N_COORD97":2552305.77,"ADDRESS":"長溪路三段３８０巷１２５弄６４號","OBJECTID":22625},"geometry":{"x":167943.77000000048,"y":2552305.7700000014}},{"attributes":{"ID":22626,"DIS_CODE":0,"TOWNNAME":"安南區","LI":"長安里","LIN":"14鄰","STREET":"長溪路","SECT":"三段","MAREA":" ","LANE":"３８０巷","ALLEY":"１２５弄","HOUSE_NO":"６６號","E_COORD97":167940.22,"N_COORD97":2552303.5099999998,"ADDRESS":"長溪路三段３８０巷１２５弄６６號","OBJECTID":22626},"geometry":{"x":167940.21999999881,"y":2552303.5100000035}},{"attributes":{"ID":22627,"DIS_CODE":0,"TOWNNAME":"安南區","LI":"長安里","LIN":"14鄰","STREET":"長溪路","SECT":"三段","MAREA":" ","LANE":"３８０巷","ALLEY":"１２５弄","HOUSE_NO":"６８號","E_COORD97":167937.10000000001,"N_COORD97":2552301.25,"ADDRESS":"長溪路三段３８０巷１２５弄６８號","OBJECTID":22627},"geometry":{"x":167937.09999999963,"y":2552301.25}},{"attributes":{"ID":22628,"DIS_CODE":0,"TOWNNAME":"安南區","LI":"長安里","LIN":"14鄰","STREET":"長溪路","SECT":"三段","MAREA":" ","LANE":"３８０巷","ALLEY":"１２５弄","HOUSE_NO":"６號","E_COORD97":167969.60999999999,"N_COORD97":2552242.3700000001,"ADDRESS":"長溪路三段３８０巷１２５弄６號","OBJECTID":22628},"geometry":{"x":167969.61000000127,"y":2552242.3700000029}},{"attributes":{"ID":22629,"DIS_CODE":0,"TOWNNAME":"安南區","LI":"長安里","LIN":"14鄰","STREET":"長溪路","SECT":"三段","MAREA":" ","LANE":"３８０巷","ALLEY":"１２５弄","HOUSE_NO":"７０號","E_COORD97":167933.22,"N_COORD97":2552299,"ADDRESS":"長溪路三段３８０巷１２５弄７０號","OBJECTID":22629},"geometry":{"x":167933.21999999974,"y":2552299}},{"attributes":{"ID":22630,"DIS_CODE":0,"TOWNNAME":"麻豆區","LI":"南勢里","LIN":"17鄰","STREET":" ","SECT":" ","MAREA":"南勢","LANE":" ","ALLEY":" ","HOUSE_NO":"３６號之１４３","E_COORD97":174451.48000000001,"N_COORD97":2564599.04,"ADDRESS":"南勢３６號之１４３","OBJECTID":22630},"geometry":{"x":174451.48000000045,"y":2564599.0399999972}},{"attributes":{"ID":22631,"DIS_CODE":0,"TOWNNAME":"新市區","LI":"新和里","LIN":"24鄰","STREET":"永福街","SECT":" ","MAREA":" ","LANE":" ","ALLEY":" ","HOUSE_NO":"１２８號","E_COORD97":177443.87,"N_COORD97":2552742.25,"ADDRESS":"永福街１２８號","OBJECTID":22631},"geometry":{"x":177443.87000000011,"y":2552742.25}},{"attributes":{"ID":22632,"DIS_CODE":0,"TOWNNAME":"新市區","LI":"新和里","LIN":"24鄰","STREET":"永福街","SECT":" ","MAREA":" ","LANE":" ","ALLEY":" ","HOUSE_NO":"８２號","E_COORD97":177557.87,"N_COORD97":2552729.75,"ADDRESS":"永福街８２號","OBJECTID":22632},"geometry":{"x":177557.87000000011,"y":2552729.7500000019}},{"attributes":{"ID":22633,"DIS_CODE":0,"TOWNNAME":"麻豆區","LI":"南勢里","LIN":"17鄰","STREET":" ","SECT":" ","MAREA":"南勢","LANE":" ","ALLEY":" ","HOUSE_NO":"３６號之１４４","E_COORD97":174446.76000000001,"N_COORD97":2564599.02,"ADDRESS":"南勢３６號之１４４","OBJECTID":22633},"geometry":{"x":174446.76000000071,"y":2564599.0199999996}},{"attributes":{"ID":22634,"DIS_CODE":0,"TOWNNAME":"新市區","LI":"新和里","LIN":"24鄰","STREET":"永福街","SECT":" ","MAREA":" ","LANE":" ","ALLEY":" ","HOUSE_NO":"１２４號","E_COORD97":177452.87,"N_COORD97":2552741,"ADDRESS":"永福街１２４號","OBJECTID":22634},"geometry":{"x":177452.87000000011,"y":2552741.0000000037}},{"attributes":{"ID":22635,"DIS_CODE":0,"TOWNNAME":"麻豆區","LI":"南勢里","LIN":"17鄰","STREET":" ","SECT":" ","MAREA":"南勢","LANE":" ","ALLEY":" ","HOUSE_NO":"３６號之１４５","E_COORD97":174442.04999999999,"N_COORD97":2564599,"ADDRESS":"南勢３６號之１４５","OBJECTID":22635},"geometry":{"x":174442.04999999981,"y":2564599}},{"attributes":{"ID":22636,"DIS_CODE":0,"TOWNNAME":"麻豆區","LI":"南勢里","LIN":"17鄰","STREET":" ","SECT":" ","MAREA":"南勢","LANE":" ","ALLEY":" ","HOUSE_NO":"３６號之１４６","E_COORD97":174437.32999999999,"N_COORD97":2564598.98,"ADDRESS":"南勢３６號之１４６","OBJECTID":22636},"geometry":{"x":174437.33000000007,"y":2564598.9800000023}},{"attributes":{"ID":22637,"DIS_CODE":0,"TOWNNAME":"麻豆區","LI":"南勢里","LIN":"17鄰","STREET":" ","SECT":" ","MAREA":"南勢","LANE":" ","ALLEY":" ","HOUSE_NO":"３６號之１４７","E_COORD97":174432.60999999999,"N_COORD97":2564598.96,"ADDRESS":"南勢３６號之１４７","OBJECTID":22637},"geometry":{"x":174432.6100000022,"y":2564598.9600000028}},{"attributes":{"ID":22638,"DIS_CODE":0,"TOWNNAME":"麻豆區","LI":"南勢里","LIN":"17鄰","STREET":" ","SECT":" ","MAREA":"南勢","LANE":" ","ALLEY":" ","HOUSE_NO":"３６號之１４８","E_COORD97":174427.89999999999,"N_COORD97":2564598.9399999999,"ADDRESS":"南勢３６號之１４８","OBJECTID":22638},"geometry":{"x":174427.9000000013,"y":2564598.9399999995}},{"attributes":{"ID":22639,"DIS_CODE":0,"TOWNNAME":"麻豆區","LI":"南勢里","LIN":"17鄰","STREET":" ","SECT":" ","MAREA":"南勢","LANE":" ","ALLEY":" ","HOUSE_NO":"３６號之１４９","E_COORD97":174423.17999999999,"N_COORD97":2564598.9199999999,"ADDRESS":"南勢３６號之１４９","OBJECTID":22639},"geometry":{"x":174423.18000000063,"y":2564598.9200000018}},{"attributes":{"ID":22640,"DIS_CODE":0,"TOWNNAME":"麻豆區","LI":"南勢里","LIN":"17鄰","STREET":" ","SECT":" ","MAREA":"南勢","LANE":" ","ALLEY":" ","HOUSE_NO":"３６號之１５０","E_COORD97":174418.45999999999,"N_COORD97":2564598.8999999999,"ADDRESS":"南勢３６號之１５０","OBJECTID":22640},"geometry":{"x":174418.46000000089,"y":2564598.9000000022}},{"attributes":{"ID":22641,"DIS_CODE":0,"TOWNNAME":"麻豆區","LI":"南勢里","LIN":"17鄰","STREET":" ","SECT":" ","MAREA":"南勢","LANE":" ","ALLEY":" ","HOUSE_NO":"３６號之１５１","E_COORD97":174413.75,"N_COORD97":2564598.8700000001,"ADDRESS":"南勢３６號之１５１","OBJECTID":22641},"geometry":{"x":174413.75,"y":2564598.8699999992}},{"attributes":{"ID":22642,"DIS_CODE":0,"TOWNNAME":"麻豆區","LI":"南勢里","LIN":"17鄰","STREET":" ","SECT":" ","MAREA":"南勢","LANE":" ","ALLEY":" ","HOUSE_NO":"３６號之１５２","E_COORD97":174409.03,"N_COORD97":2564598.8500000001,"ADDRESS":"南勢３６號之１５２","OBJECTID":22642},"geometry":{"x":174409.03000000026,"y":2564598.8500000015}},{"attributes":{"ID":22643,"DIS_CODE":0,"TOWNNAME":"麻豆區","LI":"南勢里","LIN":"17鄰","STREET":" ","SECT":" ","MAREA":"南勢","LANE":" ","ALLEY":" ","HOUSE_NO":"３６號之１５３","E_COORD97":174404.31,"N_COORD97":2564598.8300000001,"ADDRESS":"南勢３６號之１５３","OBJECTID":22643},"geometry":{"x":174404.30999999959,"y":2564598.8300000019}},{"attributes":{"ID":22644,"DIS_CODE":0,"TOWNNAME":"麻豆區","LI":"南勢里","LIN":"17鄰","STREET":" ","SECT":" ","MAREA":"南勢","LANE":" ","ALLEY":" ","HOUSE_NO":"３６號之１５４","E_COORD97":174390.73000000001,"N_COORD97":2564589.5099999998,"ADDRESS":"南勢３６號之１５４","OBJECTID":22644},"geometry":{"x":174390.73000000045,"y":2564589.5099999998}},{"attributes":{"ID":22645,"DIS_CODE":0,"TOWNNAME":"麻豆區","LI":"南勢里","LIN":"17鄰","STREET":" ","SECT":" ","MAREA":"南勢","LANE":" ","ALLEY":" ","HOUSE_NO":"３６號之１５５","E_COORD97":174385.17000000001,"N_COORD97":2564589.6400000001,"ADDRESS":"南勢３６號之１５５","OBJECTID":22645},"geometry":{"x":174385.16999999993,"y":2564589.6400000006}},{"attributes":{"ID":22646,"DIS_CODE":0,"TOWNNAME":"麻豆區","LI":"南勢里","LIN":"17鄰","STREET":" ","SECT":" ","MAREA":"南勢","LANE":" ","ALLEY":" ","HOUSE_NO":"３６號之１５６","E_COORD97":174379.87,"N_COORD97":2564589.79,"ADDRESS":"南勢３６號之１５６","OBJECTID":22646},"geometry":{"x":174379.87000000104,"y":2564589.7899999991}},{"attributes":{"ID":22647,"DIS_CODE":0,"TOWNNAME":"麻豆區","LI":"南勢里","LIN":"17鄰","STREET":" ","SECT":" ","MAREA":"南勢","LANE":" ","ALLEY":" ","HOUSE_NO":"３６號之１５７","E_COORD97":174374.53,"N_COORD97":2564589.73,"ADDRESS":"南勢３６號之１５７","OBJECTID":22647},"geometry":{"x":174374.53000000119,"y":2564589.7300000023}},{"attributes":{"ID":22648,"DIS_CODE":0,"TOWNNAME":"麻豆區","LI":"南勢里","LIN":"17鄰","STREET":" ","SECT":" ","MAREA":"南勢","LANE":" ","ALLEY":" ","HOUSE_NO":"３６號之１５８","E_COORD97":174369.12,"N_COORD97":2564589.8700000001,"ADDRESS":"南勢３６號之１５８","OBJECTID":22648},"geometry":{"x":174369.12000000011,"y":2564589.8700000029}},{"attributes":{"ID":22649,"DIS_CODE":0,"TOWNNAME":"麻豆區","LI":"南勢里","LIN":"17鄰","STREET":" ","SECT":" ","MAREA":"南勢","LANE":" ","ALLEY":" ","HOUSE_NO":"３６號之１５９","E_COORD97":174363.89999999999,"N_COORD97":2564589.6600000001,"ADDRESS":"南勢３６號之１５９","OBJECTID":22649},"geometry":{"x":174363.90000000037,"y":2564589.660000002}},{"attributes":{"ID":22650,"DIS_CODE":0,"TOWNNAME":"麻豆區","LI":"南勢里","LIN":"17鄰","STREET":" ","SECT":" ","MAREA":"南勢","LANE":" ","ALLEY":" ","HOUSE_NO":"３６號之１６０","E_COORD97":174364.53,"N_COORD97":2564582.1699999999,"ADDRESS":"南勢３６號之１６０","OBJECTID":22650},"geometry":{"x":174364.53000000026,"y":2564582.1700000037}},{"attributes":{"ID":22651,"DIS_CODE":0,"TOWNNAME":"麻豆區","LI":"南勢里","LIN":"17鄰","STREET":" ","SECT":" ","MAREA":"南勢","LANE":" ","ALLEY":" ","HOUSE_NO":"３６號之１６１","E_COORD97":174369.56,"N_COORD97":2564581.8900000001,"ADDRESS":"南勢３６號之１６１","OBJECTID":22651},"geometry":{"x":174369.56000000052,"y":2564581.8900000025}},{"attributes":{"ID":22652,"DIS_CODE":0,"TOWNNAME":"麻豆區","LI":"南勢里","LIN":"17鄰","STREET":" ","SECT":" ","MAREA":"南勢","LANE":" ","ALLEY":" ","HOUSE_NO":"３６號之１６２","E_COORD97":174374.69,"N_COORD97":2564582.0899999999,"ADDRESS":"南勢３６號之１６２","OBJECTID":22652},"geometry":{"x":174374.69000000134,"y":2564582.0899999999}},{"attributes":{"ID":22653,"DIS_CODE":0,"TOWNNAME":"麻豆區","LI":"南勢里","LIN":"17鄰","STREET":" ","SECT":" ","MAREA":"南勢","LANE":" ","ALLEY":" ","HOUSE_NO":"３６號之１６３","E_COORD97":174380.60000000001,"N_COORD97":2564582.0699999998,"ADDRESS":"南勢３６號之１６３","OBJECTID":22653},"geometry":{"x":174380.59999999963,"y":2564582.0700000003}},{"attributes":{"ID":22654,"DIS_CODE":0,"TOWNNAME":"麻豆區","LI":"南勢里","LIN":"17鄰","STREET":" ","SECT":" ","MAREA":"南勢","LANE":" ","ALLEY":" ","HOUSE_NO":"３６號之１６４","E_COORD97":174385.91,"N_COORD97":2564582.1400000001,"ADDRESS":"南勢３６號之１６４","OBJECTID":22654},"geometry":{"x":174385.91000000015,"y":2564582.1400000006}},{"attributes":{"ID":22655,"DIS_CODE":0,"TOWNNAME":"麻豆區","LI":"南勢里","LIN":"17鄰","STREET":" ","SECT":" ","MAREA":"南勢","LANE":" ","ALLEY":" ","HOUSE_NO":"３６號之１６５","E_COORD97":174391.14999999999,"N_COORD97":2564582.4399999999,"ADDRESS":"南勢３６號之１６５","OBJECTID":22655},"geometry":{"x":174391.15000000037,"y":2564582.4399999995}},{"attributes":{"ID":22656,"DIS_CODE":0,"TOWNNAME":"新市區","LI":"新和里","LIN":"24鄰","STREET":"永福街","SECT":" ","MAREA":" ","LANE":" ","ALLEY":" ","HOUSE_NO":"９２號","E_COORD97":177536.70999999999,"N_COORD97":2552732.25,"ADDRESS":"永福街９２號","OBJECTID":22656},"geometry":{"x":177536.70999999996,"y":2552732.2499999981}},{"attributes":{"ID":22657,"DIS_CODE":0,"TOWNNAME":"新市區","LI":"新市里","LIN":"24鄰","STREET":"中正路","SECT":" ","MAREA":" ","LANE":" ","ALLEY":" ","HOUSE_NO":"３２５號","E_COORD97":177707.25,"N_COORD97":2553291.5,"ADDRESS":"中正路３２５號","OBJECTID":22657},"geometry":{"x":177707.25,"y":2553291.5000000019}},{"attributes":{"ID":22658,"DIS_CODE":0,"TOWNNAME":"麻豆區","LI":"南勢里","LIN":"17鄰","STREET":" ","SECT":" ","MAREA":"南勢","LANE":" ","ALLEY":" ","HOUSE_NO":"３６號之１６６","E_COORD97":174404.29999999999,"N_COORD97":2564582.25,"ADDRESS":"南勢３６號之１６６","OBJECTID":22658},"geometry":{"x":174404.30000000075,"y":2564582.2500000019}},{"attributes":{"ID":22659,"DIS_CODE":0,"TOWNNAME":"麻豆區","LI":"南勢里","LIN":"17鄰","STREET":" ","SECT":" ","MAREA":"南勢","LANE":" ","ALLEY":" ","HOUSE_NO":"３６號之１６７","E_COORD97":174408.92999999999,"N_COORD97":2564582.3100000001,"ADDRESS":"南勢３６號之１６７","OBJECTID":22659},"geometry":{"x":174408.9299999997,"y":2564582.3100000024}},{"attributes":{"ID":22660,"DIS_CODE":0,"TOWNNAME":"麻豆區","LI":"南勢里","LIN":"17鄰","STREET":" ","SECT":" ","MAREA":"南勢","LANE":" ","ALLEY":" ","HOUSE_NO":"３６號之１６８","E_COORD97":174413.60000000001,"N_COORD97":2564582.4700000002,"ADDRESS":"南勢３６號之１６８","OBJECTID":22660},"geometry":{"x":174413.60000000056,"y":2564582.4700000025}},{"attributes":{"ID":22661,"DIS_CODE":0,"TOWNNAME":"麻豆區","LI":"南勢里","LIN":"17鄰","STREET":" ","SECT":" ","MAREA":"南勢","LANE":" ","ALLEY":" ","HOUSE_NO":"３６號之１６９","E_COORD97":174418.72,"N_COORD97":2564582.7400000002,"ADDRESS":"南勢３６號之１６９","OBJECTID":22661},"geometry":{"x":174418.71999999974,"y":2564582.7400000021}},{"attributes":{"ID":22662,"DIS_CODE":0,"TOWNNAME":"麻豆區","LI":"南勢里","LIN":"17鄰","STREET":" ","SECT":" ","MAREA":"南勢","LANE":" ","ALLEY":" ","HOUSE_NO":"３６號之１７０","E_COORD97":174423.60999999999,"N_COORD97":2564582.8300000001,"ADDRESS":"南勢３６號之１７０","OBJECTID":22662},"geometry":{"x":174423.61000000034,"y":2564582.8300000019}},{"attributes":{"ID":22663,"DIS_CODE":0,"TOWNNAME":"麻豆區","LI":"南勢里","LIN":"17鄰","STREET":" ","SECT":" ","MAREA":"南勢","LANE":" ","ALLEY":" ","HOUSE_NO":"３６號之１７１","E_COORD97":174427.85000000001,"N_COORD97":2564582.6299999999,"ADDRESS":"南勢３６號之１７１","OBJECTID":22663},"geometry":{"x":174427.84999999963,"y":2564582.6300000008}},{"attributes":{"ID":22664,"DIS_CODE":0,"TOWNNAME":"麻豆區","LI":"南勢里","LIN":"17鄰","STREET":" ","SECT":" ","MAREA":"南勢","LANE":" ","ALLEY":" ","HOUSE_NO":"３６號之１７２","E_COORD97":174432.75,"N_COORD97":2564582.2200000002,"ADDRESS":"南勢３６號之１７２","OBJECTID":22664},"geometry":{"x":174432.75,"y":2564582.2200000007}},{"attributes":{"ID":22665,"DIS_CODE":0,"TOWNNAME":"麻豆區","LI":"南勢里","LIN":"17鄰","STREET":" ","SECT":" ","MAREA":"南勢","LANE":" ","ALLEY":" ","HOUSE_NO":"３６號之１７３","E_COORD97":174437.42999999999,"N_COORD97":2564582.2799999998,"ADDRESS":"南勢３６號之１７３","OBJECTID":22665},"geometry":{"x":174437.4299999997,"y":2564582.2800000012}},{"attributes":{"ID":22666,"DIS_CODE":0,"TOWNNAME":"麻豆區","LI":"南勢里","LIN":"17鄰","STREET":" ","SECT":" ","MAREA":"南勢","LANE":" ","ALLEY":" ","HOUSE_NO":"３６號之１７４","E_COORD97":174442.32999999999,"N_COORD97":2564582.25,"ADDRESS":"南勢３６號之１７４","OBJECTID":22666},"geometry":{"x":174442.33000000007,"y":2564582.2500000019}},{"attributes":{"ID":22667,"DIS_CODE":0,"TOWNNAME":"麻豆區","LI":"南勢里","LIN":"17鄰","STREET":" ","SECT":" ","MAREA":"南勢","LANE":" ","ALLEY":" ","HOUSE_NO":"３６號之１７５","E_COORD97":174447.10000000001,"N_COORD97":2564582.3500000001,"ADDRESS":"南勢３６號之１７５","OBJECTID":22667},"geometry":{"x":174447.10000000149,"y":2564582.3500000015}},{"attributes":{"ID":22668,"DIS_CODE":0,"TOWNNAME":"麻豆區","LI":"南勢里","LIN":"17鄰","STREET":" ","SECT":" ","MAREA":"南勢","LANE":" ","ALLEY":" ","HOUSE_NO":"３６號之１７６","E_COORD97":174451.64999999999,"N_COORD97":2564582.3900000001,"ADDRESS":"南勢３６號之１７６","OBJECTID":22668},"geometry":{"x":174451.6500000013,"y":2564582.3900000025}},{"attributes":{"ID":22669,"DIS_CODE":0,"TOWNNAME":"麻豆區","LI":"南勢里","LIN":"17鄰","STREET":" ","SECT":" ","MAREA":"南勢","LANE":" ","ALLEY":" ","HOUSE_NO":"３６號之１７７","E_COORD97":174456.26000000001,"N_COORD97":2564582.3100000001,"ADDRESS":"南勢３６號之１７７","OBJECTID":22669},"geometry":{"x":174456.25999999885,"y":2564582.3100000024}},{"attributes":{"ID":22670,"DIS_CODE":0,"TOWNNAME":"麻豆區","LI":"南勢里","LIN":"17鄰","STREET":" ","SECT":" ","MAREA":"南勢","LANE":" ","ALLEY":" ","HOUSE_NO":"３６號之１７８","E_COORD97":174461.01999999999,"N_COORD97":2564582.3199999998,"ADDRESS":"南勢３６號之１７８","OBJECTID":22670},"geometry":{"x":174461.01999999955,"y":2564582.3200000022}},{"attributes":{"ID":22671,"DIS_CODE":0,"TOWNNAME":"麻豆區","LI":"南勢里","LIN":"17鄰","STREET":" ","SECT":" ","MAREA":"南勢","LANE":" ","ALLEY":" ","HOUSE_NO":"３６號之１７９","E_COORD97":174466.67999999999,"N_COORD97":2564582.0699999998,"ADDRESS":"南勢３６號之１７９","OBJECTID":22671},"geometry":{"x":174466.6799999997,"y":2564582.0700000003}},{"attributes":{"ID":22672,"DIS_CODE":0,"TOWNNAME":"麻豆區","LI":"南勢里","LIN":"17鄰","STREET":" ","SECT":" ","MAREA":"南勢","LANE":" ","ALLEY":" ","HOUSE_NO":"３６號之１８７","E_COORD97":174422.89999999999,"N_COORD97":2564568.3999999999,"ADDRESS":"南勢３６號之１８７","OBJECTID":22672},"geometry":{"x":174422.9000000013,"y":2564568.4000000022}},{"attributes":{"ID":22673,"DIS_CODE":0,"TOWNNAME":"麻豆區","LI":"南勢里","LIN":"17鄰","STREET":" ","SECT":" ","MAREA":"南勢","LANE":" ","ALLEY":" ","HOUSE_NO":"３６號之１８８","E_COORD97":174415.41,"N_COORD97":2564568.6000000001,"ADDRESS":"南勢３６號之１８８","OBJECTID":22673},"geometry":{"x":174415.41000000108,"y":2564568.5999999978}},{"attributes":{"ID":22674,"DIS_CODE":0,"TOWNNAME":"麻豆區","LI":"南勢里","LIN":"17鄰","STREET":" ","SECT":" ","MAREA":"南勢","LANE":" ","ALLEY":" ","HOUSE_NO":"３６號之１８９","E_COORD97":174408.98000000001,"N_COORD97":2564568.2999999998,"ADDRESS":"南勢３６號之１８９","OBJECTID":22674},"geometry":{"x":174408.98000000138,"y":2564568.3000000007}},{"attributes":{"ID":22675,"DIS_CODE":0,"TOWNNAME":"麻豆區","LI":"南勢里","LIN":"17鄰","STREET":" ","SECT":" ","MAREA":"南勢","LANE":" ","ALLEY":" ","HOUSE_NO":"３６號之１９０","E_COORD97":174402.78,"N_COORD97":2564568.2999999998,"ADDRESS":"南勢３６號之１９０","OBJECTID":22675},"geometry":{"x":174402.78000000119,"y":2564568.3000000007}},{"attributes":{"ID":22676,"DIS_CODE":0,"TOWNNAME":"麻豆區","LI":"南勢里","LIN":"17鄰","STREET":" ","SECT":" ","MAREA":"南勢","LANE":" ","ALLEY":" ","HOUSE_NO":"３６號之１９１","E_COORD97":174386.88,"N_COORD97":2564568.0299999998,"ADDRESS":"南勢３６號之１９１","OBJECTID":22676},"geometry":{"x":174386.88000000082,"y":2564568.0299999993}},{"attributes":{"ID":22677,"DIS_CODE":0,"TOWNNAME":"麻豆區","LI":"南勢里","LIN":"17鄰","STREET":" ","SECT":" ","MAREA":"南勢","LANE":" ","ALLEY":" ","HOUSE_NO":"３６號之１９２","E_COORD97":174380.75,"N_COORD97":2564568.0800000001,"ADDRESS":"南勢３６號之１９２","OBJECTID":22677},"geometry":{"x":174380.75000000093,"y":2564568.0800000001}},{"attributes":{"ID":22678,"DIS_CODE":0,"TOWNNAME":"麻豆區","LI":"南勢里","LIN":"17鄰","STREET":" ","SECT":" ","MAREA":"南勢","LANE":" ","ALLEY":" ","HOUSE_NO":"３６號之１９３","E_COORD97":174375.10000000001,"N_COORD97":2564568.1000000001,"ADDRESS":"南勢３６號之１９３","OBJECTID":22678},"geometry":{"x":174375.09999999963,"y":2564568.0999999996}},{"attributes":{"ID":22679,"DIS_CODE":0,"TOWNNAME":"麻豆區","LI":"南勢里","LIN":"17鄰","STREET":" ","SECT":" ","MAREA":"南勢","LANE":" ","ALLEY":" ","HOUSE_NO":"３６號之１９４","E_COORD97":174370.22,"N_COORD97":2564567.8999999999,"ADDRESS":"南勢３６號之１９４","OBJECTID":22679},"geometry":{"x":174370.2200000016,"y":2564567.9000000022}},{"attributes":{"ID":22680,"DIS_CODE":0,"TOWNNAME":"麻豆區","LI":"南勢里","LIN":"17鄰","STREET":" ","SECT":" ","MAREA":"南勢","LANE":" ","ALLEY":" ","HOUSE_NO":"３６號之１９５","E_COORD97":174364.95999999999,"N_COORD97":2564567.9300000002,"ADDRESS":"南勢３６號之１９５","OBJECTID":22680},"geometry":{"x":174364.95999999996,"y":2564567.9300000016}},{"attributes":{"ID":22681,"DIS_CODE":0,"TOWNNAME":"麻豆區","LI":"南勢里","LIN":"17鄰","STREET":" ","SECT":" ","MAREA":"南勢","LANE":" ","ALLEY":" ","HOUSE_NO":"３６號之１９６","E_COORD97":174365,"N_COORD97":2564552.1800000002,"ADDRESS":"南勢３６號之１９６","OBJECTID":22681},"geometry":{"x":174365,"y":2564552.1800000016}},{"attributes":{"ID":22682,"DIS_CODE":0,"TOWNNAME":"麻豆區","LI":"南勢里","LIN":"17鄰","STREET":" ","SECT":" ","MAREA":"南勢","LANE":" ","ALLEY":" ","HOUSE_NO":"３６號之１９７","E_COORD97":174370.20000000001,"N_COORD97":2564552.0099999998,"ADDRESS":"南勢３６號之１９７","OBJECTID":22682},"geometry":{"x":174370.20000000019,"y":2564552.0099999998}},{"attributes":{"ID":22683,"DIS_CODE":0,"TOWNNAME":"西港區","LI":"西港里","LIN":"13鄰","STREET":" ","SECT":" ","MAREA":"西港","LANE":" ","ALLEY":" ","HOUSE_NO":"５０號之１６二樓五","E_COORD97":168633.66,"N_COORD97":2557895.8999999999,"ADDRESS":"西港５０號之１６二樓五","OBJECTID":22683},"geometry":{"x":168633.66000000015,"y":2557895.9000000022}},{"attributes":{"ID":22684,"DIS_CODE":0,"TOWNNAME":"西港區","LI":"西港里","LIN":"13鄰","STREET":" ","SECT":" ","MAREA":"西港","LANE":" ","ALLEY":" ","HOUSE_NO":"５０號之１６三樓１","E_COORD97":168633.66,"N_COORD97":2557895.8999999999,"ADDRESS":"西港５０號之１６三樓１","OBJECTID":22684},"geometry":{"x":168633.66000000015,"y":2557895.9000000022}},{"attributes":{"ID":22685,"DIS_CODE":0,"TOWNNAME":"西港區","LI":"西港里","LIN":"13鄰","STREET":" ","SECT":" ","MAREA":"西港","LANE":" ","ALLEY":" ","HOUSE_NO":"５０號之１６三樓２","E_COORD97":168633.66,"N_COORD97":2557895.8999999999,"ADDRESS":"西港５０號之１６三樓２","OBJECTID":22685},"geometry":{"x":168633.66000000015,"y":2557895.9000000022}},{"attributes":{"ID":22686,"DIS_CODE":0,"TOWNNAME":"西港區","LI":"西港里","LIN":"13鄰","STREET":" ","SECT":" ","MAREA":"西港","LANE":" ","ALLEY":" ","HOUSE_NO":"５０號之１６五樓１","E_COORD97":168633.66,"N_COORD97":2557895.8999999999,"ADDRESS":"西港５０號之１６五樓１","OBJECTID":22686},"geometry":{"x":168633.66000000015,"y":2557895.9000000022}},{"attributes":{"ID":22687,"DIS_CODE":0,"TOWNNAME":"西港區","LI":"西港里","LIN":"13鄰","STREET":" ","SECT":" ","MAREA":"西港","LANE":" ","ALLEY":" ","HOUSE_NO":"５０號之１６五樓２","E_COORD97":168633.66,"N_COORD97":2557895.8999999999,"ADDRESS":"西港５０號之１６五樓２","OBJECTID":22687},"geometry":{"x":168633.66000000015,"y":2557895.9000000022}},{"attributes":{"ID":22688,"DIS_CODE":0,"TOWNNAME":"西港區","LI":"西港里","LIN":"13鄰","STREET":" ","SECT":" ","MAREA":"西港","LANE":" ","ALLEY":" ","HOUSE_NO":"５０號之１６五樓３","E_COORD97":168633.66,"N_COORD97":2557895.8999999999,"ADDRESS":"西港５０號之１６五樓３","OBJECTID":22688},"geometry":{"x":168633.66000000015,"y":2557895.9000000022}},{"attributes":{"ID":22689,"DIS_CODE":0,"TOWNNAME":"西港區","LI":"西港里","LIN":"13鄰","STREET":" ","SECT":" ","MAREA":"西港","LANE":" ","ALLEY":" ","HOUSE_NO":"５０號之１６五樓５","E_COORD97":168633.66,"N_COORD97":2557895.8999999999,"ADDRESS":"西港５０號之１６五樓５","OBJECTID":22689},"geometry":{"x":168633.66000000015,"y":2557895.9000000022}},{"attributes":{"ID":22690,"DIS_CODE":0,"TOWNNAME":"鹽水區","LI":"河南里","LIN":"13鄰","STREET":" ","SECT":" ","MAREA":"?頭港","LANE":" ","ALLEY":" ","HOUSE_NO":"１０８號之２","E_COORD97":172687.04999999999,"N_COORD97":2572532.29,"ADDRESS":"?頭港１０８號之２","OBJECTID":22690},"geometry":{"x":172687.05000000075,"y":2572532.290000001}},{"attributes":{"ID":22691,"DIS_CODE":0,"TOWNNAME":"鹽水區","LI":"河南里","LIN":"13鄰","STREET":" ","SECT":" ","MAREA":"?頭港","LANE":" ","ALLEY":" ","HOUSE_NO":"１０８號之３","E_COORD97":172685.88,"N_COORD97":2572527.5,"ADDRESS":"?頭港１０８號之３","OBJECTID":22691},"geometry":{"x":172685.88000000175,"y":2572527.5000000019}},{"attributes":{"ID":22692,"DIS_CODE":0,"TOWNNAME":"安南區","LI":"長安里","LIN":"14鄰","STREET":"長溪路","SECT":"三段","MAREA":" ","LANE":"３８０巷","ALLEY":"１２５弄","HOUSE_NO":"７２號","E_COORD97":167929.57000000001,"N_COORD97":2552297.71,"ADDRESS":"長溪路三段３８０巷１２５弄７２號","OBJECTID":22692},"geometry":{"x":167929.5700000003,"y":2552297.7100000028}},{"attributes":{"ID":22693,"DIS_CODE":0,"TOWNNAME":"安南區","LI":"長安里","LIN":"14鄰","STREET":"長溪路","SECT":"三段","MAREA":" ","LANE":"３８０巷","ALLEY":"１２５弄","HOUSE_NO":"８號","E_COORD97":167965.89999999999,"N_COORD97":2552239.5899999999,"ADDRESS":"長溪路三段３８０巷１２５弄８號","OBJECTID":22693},"geometry":{"x":167965.9000000013,"y":2552239.5900000017}},{"attributes":{"ID":22694,"DIS_CODE":0,"TOWNNAME":"安南區","LI":"長安里","LIN":"14鄰","STREET":"長溪路","SECT":"三段","MAREA":" ","LANE":"３８０巷","ALLEY":"１２５弄","HOUSE_NO":"２１號","E_COORD97":167941.59,"N_COORD97":2552190.8100000001,"ADDRESS":"長溪路三段３８０巷１２５弄２１號","OBJECTID":22694},"geometry":{"x":167941.59000000078,"y":2552190.8100000024}},{"attributes":{"ID":22695,"DIS_CODE":0,"TOWNNAME":"佳里區","LI":"忠仁里","LIN":"14鄰","STREET":"佳東路","SECT":" ","MAREA":" ","LANE":"２３７巷","ALLEY":"１２弄","HOUSE_NO":"２號","E_COORD97":166346.13,"N_COORD97":2562016.2200000002,"ADDRESS":"佳東路２３７巷１２弄２號","OBJECTID":22695},"geometry":{"x":166346.13000000082,"y":2562016.2200000044}},{"attributes":{"ID":22696,"DIS_CODE":0,"TOWNNAME":"北區","LI":"成德里","LIN":" ","STREET":"西門路","SECT":"四段","MAREA":" ","LANE":" ","ALLEY":" ","HOUSE_NO":"１１０號","E_COORD97":168631.35000000001,"N_COORD97":2545451.5600000001,"ADDRESS":"西門路四段１１０號","OBJECTID":22696},"geometry":{"x":168631.35000000056,"y":2545451.5599999987}},{"attributes":{"ID":22697,"DIS_CODE":0,"TOWNNAME":"北區","LI":"成德里","LIN":" ","STREET":"西門路","SECT":"四段","MAREA":" ","LANE":" ","ALLEY":" ","HOUSE_NO":"３１號","E_COORD97":168623.37,"N_COORD97":2545285.8300000001,"ADDRESS":"西門路四段３１號","OBJECTID":22697},"geometry":{"x":168623.37000000104,"y":2545285.8300000001}},{"attributes":{"ID":22698,"DIS_CODE":0,"TOWNNAME":"北區","LI":"國姓里","LIN":" ","STREET":"公園路","SECT":" ","MAREA":" ","LANE":" ","ALLEY":" ","HOUSE_NO":"３８５號","E_COORD97":169016.70999999999,"N_COORD97":2545222.52,"ADDRESS":"公園路３８５號","OBJECTID":22698},"geometry":{"x":169016.70999999996,"y":2545222.5199999996}},{"attributes":{"ID":22699,"DIS_CODE":0,"TOWNNAME":"北區","LI":"和順里","LIN":" ","STREET":"海安路","SECT":"三段","MAREA":" ","LANE":" ","ALLEY":" ","HOUSE_NO":"１３４號","E_COORD97":168021.09,"N_COORD97":2545011.7000000002,"ADDRESS":"海安路三段１３４號","OBJECTID":22699},"geometry":{"x":168021.09000000171,"y":2545011.6999999993}},{"attributes":{"ID":22700,"DIS_CODE":0,"TOWNNAME":"北區","LI":"延平里","LIN":" ","STREET":"公園路","SECT":" ","MAREA":" ","LANE":" ","ALLEY":" ","HOUSE_NO":"８２２號","E_COORD97":169176.23999999999,"N_COORD97":2545842.6600000001,"ADDRESS":"公園路８２２號","OBJECTID":22700},"geometry":{"x":169176.24000000022,"y":2545842.6600000001}},{"attributes":{"ID":22701,"DIS_CODE":0,"TOWNNAME":"鹽水區","LI":"河南里","LIN":"13鄰","STREET":" ","SECT":" ","MAREA":"?頭港","LANE":" ","ALLEY":" ","HOUSE_NO":"１０８號","E_COORD97":172695.51000000001,"N_COORD97":2572553.8500000001,"ADDRESS":"?頭港１０８號","OBJECTID":22701},"geometry":{"x":172695.51000000071,"y":2572553.8499999996}},{"attributes":{"ID":22702,"DIS_CODE":0,"TOWNNAME":"鹽水區","LI":"河南里","LIN":"13鄰","STREET":" ","SECT":" ","MAREA":"?頭港","LANE":" ","ALLEY":" ","HOUSE_NO":"１１１號之３","E_COORD97":172569.14999999999,"N_COORD97":2572467.3999999999,"ADDRESS":"?頭港１１１號之３","OBJECTID":22702},"geometry":{"x":172569.15000000037,"y":2572467.4000000041}},{"attributes":{"ID":22703,"DIS_CODE":0,"TOWNNAME":"鹽水區","LI":"河南里","LIN":"13鄰","STREET":" ","SECT":" ","MAREA":"?頭港","LANE":" ","ALLEY":" ","HOUSE_NO":"１１１號之５","E_COORD97":172535.09,"N_COORD97":2572454.6800000002,"ADDRESS":"?頭港１１１號之５","OBJECTID":22703},"geometry":{"x":172535.08999999985,"y":2572454.6800000034}},{"attributes":{"ID":22704,"DIS_CODE":0,"TOWNNAME":"佳里區","LI":"忠仁里","LIN":"14鄰","STREET":"佳東路","SECT":" ","MAREA":" ","LANE":"２３７巷","ALLEY":"１２弄","HOUSE_NO":"６號","E_COORD97":166346.10999999999,"N_COORD97":2562023.4100000001,"ADDRESS":"佳東路２３７巷１２弄６號","OBJECTID":22704},"geometry":{"x":166346.11000000034,"y":2562023.4100000001}},{"attributes":{"ID":22705,"DIS_CODE":0,"TOWNNAME":"佳里區","LI":"忠仁里","LIN":"14鄰","STREET":"佳東路","SECT":" ","MAREA":" ","LANE":"２３７巷","ALLEY":"１２弄","HOUSE_NO":"８號","E_COORD97":166346.29999999999,"N_COORD97":2562029.9100000001,"ADDRESS":"佳東路２３７巷１２弄８號","OBJECTID":22705},"geometry":{"x":166346.30000000168,"y":2562029.9100000001}},{"attributes":{"ID":22706,"DIS_CODE":0,"TOWNNAME":"歸仁區","LI":"歸南里","LIN":"24鄰","STREET":"民生八街","SECT":" ","MAREA":" ","LANE":"２１巷","ALLEY":"１弄","HOUSE_NO":"１號","E_COORD97":176121.10999999999,"N_COORD97":2540309.25,"ADDRESS":"民生八街２１巷１弄１號","OBJECTID":22706},"geometry":{"x":176121.11000000127,"y":2540309.25}},{"attributes":{"ID":22707,"DIS_CODE":0,"TOWNNAME":"南區","LI":"田寮里","LIN":"23鄰","STREET":"西門路","SECT":"一段","MAREA":" ","LANE":"３３３巷","ALLEY":"３１弄","HOUSE_NO":"１號","E_COORD97":167608.26999999999,"N_COORD97":2541995.9700000002,"ADDRESS":"西門路一段３３３巷３１弄１號","OBJECTID":22707},"geometry":{"x":167608.27000000048,"y":2541995.9700000025}},{"attributes":{"ID":22708,"DIS_CODE":0,"TOWNNAME":"南區","LI":"田寮里","LIN":"23鄰","STREET":"西門路","SECT":"一段","MAREA":" ","LANE":"３３３巷","ALLEY":"３１弄","HOUSE_NO":"３號","E_COORD97":167605.85999999999,"N_COORD97":2542003.6299999999,"ADDRESS":"西門路一段３３３巷３１弄３號","OBJECTID":22708},"geometry":{"x":167605.86000000034,"y":2542003.629999999}},{"attributes":{"ID":22709,"DIS_CODE":0,"TOWNNAME":"南區","LI":"文南里","LIN":"4鄰","STREET":"金華路","SECT":"二段","MAREA":" ","LANE":"２８９巷","ALLEY":"５弄","HOUSE_NO":"１２號","E_COORD97":167063.82999999999,"N_COORD97":2542738.8799999999,"ADDRESS":"金華路二段２８９巷５弄１２號","OBJECTID":22709},"geometry":{"x":167063.83000000101,"y":2542738.8800000027}},{"attributes":{"ID":22710,"DIS_CODE":0,"TOWNNAME":"南區","LI":"文南里","LIN":"4鄰","STREET":"金華路","SECT":"二段","MAREA":" ","LANE":"２８９巷","ALLEY":"５弄","HOUSE_NO":"１６號","E_COORD97":167062.57000000001,"N_COORD97":2542727.23,"ADDRESS":"金華路二段２８９巷５弄１６號","OBJECTID":22710},"geometry":{"x":167062.57000000123,"y":2542727.2300000004}},{"attributes":{"ID":22711,"DIS_CODE":0,"TOWNNAME":"永康區","LI":"烏竹里","LIN":"14鄰","STREET":"竹園二街","SECT":" ","MAREA":" ","LANE":"１６０巷","ALLEY":"２３弄","HOUSE_NO":"１８號","E_COORD97":174625.31,"N_COORD97":2549238.1800000002,"ADDRESS":"竹園二街１６０巷２３弄１８號","OBJECTID":22711},"geometry":{"x":174625.31000000145,"y":2549238.1800000016}},{"attributes":{"ID":22712,"DIS_CODE":0,"TOWNNAME":"永康區","LI":"崑山里","LIN":"14鄰","STREET":"大灣路","SECT":" ","MAREA":" ","LANE":"９４２巷","ALLEY":"７１弄","HOUSE_NO":"１１１號","E_COORD97":173566.98999999999,"N_COORD97":2544554.25,"ADDRESS":"大灣路９４２巷７１弄１１１號","OBJECTID":22712},"geometry":{"x":173566.99000000209,"y":2544554.25}},{"attributes":{"ID":22713,"DIS_CODE":0,"TOWNNAME":"永康區","LI":"崑山里","LIN":"14鄰","STREET":"大灣路","SECT":" ","MAREA":" ","LANE":"９４２巷","ALLEY":"７１弄","HOUSE_NO":"１０１號","E_COORD97":173578.44,"N_COORD97":2544572.25,"ADDRESS":"大灣路９４２巷７１弄１０１號","OBJECTID":22713},"geometry":{"x":173578.44000000134,"y":2544572.2500000019}},{"attributes":{"ID":22714,"DIS_CODE":0,"TOWNNAME":"中西區","LI":"西賢里","LIN":"24鄰","STREET":"西賢二街","SECT":" ","MAREA":" ","LANE":" ","ALLEY":" ","HOUSE_NO":"１２９號","E_COORD97":165564.04999999999,"N_COORD97":2544647.9399999999,"ADDRESS":"西賢二街１２９號","OBJECTID":22714},"geometry":{"x":165564.04999999981,"y":2544647.9400000032}},{"attributes":{"ID":22715,"DIS_CODE":0,"TOWNNAME":"中西區","LI":"西賢里","LIN":"24鄰","STREET":"西賢二街","SECT":" ","MAREA":" ","LANE":" ","ALLEY":" ","HOUSE_NO":"１３１號","E_COORD97":165563.73000000001,"N_COORD97":2544653.4500000002,"ADDRESS":"西賢二街１３１號","OBJECTID":22715},"geometry":{"x":165563.73000000045,"y":2544653.4499999993}},{"attributes":{"ID":22716,"DIS_CODE":0,"TOWNNAME":"中西區","LI":"西賢里","LIN":"24鄰","STREET":"西賢二街","SECT":" ","MAREA":" ","LANE":" ","ALLEY":" ","HOUSE_NO":"１３３號","E_COORD97":165563.04000000001,"N_COORD97":2544659.52,"ADDRESS":"西賢二街１３３號","OBJECTID":22716},"geometry":{"x":165563.04000000004,"y":2544659.5199999996}},{"attributes":{"ID":22717,"DIS_CODE":0,"TOWNNAME":"中西區","LI":"西賢里","LIN":"24鄰","STREET":"西賢二街","SECT":" ","MAREA":" ","LANE":" ","ALLEY":" ","HOUSE_NO":"１３５號","E_COORD97":165562.82000000001,"N_COORD97":2544664.0099999998,"ADDRESS":"西賢二街１３５號","OBJECTID":22717},"geometry":{"x":165562.8200000003,"y":2544664.0099999998}},{"attributes":{"ID":22718,"DIS_CODE":0,"TOWNNAME":"中西區","LI":"西賢里","LIN":"24鄰","STREET":"西賢二街","SECT":" ","MAREA":" ","LANE":" ","ALLEY":" ","HOUSE_NO":"１３７號","E_COORD97":165562.14000000001,"N_COORD97":2544668.9500000002,"ADDRESS":"西賢二街１３７號","OBJECTID":22718},"geometry":{"x":165562.13999999966,"y":2544668.9500000011}},{"attributes":{"ID":22719,"DIS_CODE":0,"TOWNNAME":"鹽水區","LI":"河南里","LIN":"13鄰","STREET":" ","SECT":" ","MAREA":"?頭港","LANE":" ","ALLEY":" ","HOUSE_NO":"１１１號之６","E_COORD97":172625.57999999999,"N_COORD97":2572497.0899999999,"ADDRESS":"?頭港１１１號之６","OBJECTID":22719},"geometry":{"x":172625.58000000101,"y":2572497.0900000017}},{"attributes":{"ID":22720,"DIS_CODE":0,"TOWNNAME":"鹽水區","LI":"河南里","LIN":"13鄰","STREET":" ","SECT":" ","MAREA":"?頭港","LANE":" ","ALLEY":" ","HOUSE_NO":"１１１號","E_COORD97":172627.82999999999,"N_COORD97":2572483.75,"ADDRESS":"?頭港１１１號","OBJECTID":22720},"geometry":{"x":172627.83000000101,"y":2572483.75}},{"attributes":{"ID":22721,"DIS_CODE":0,"TOWNNAME":"鹽水區","LI":"河南里","LIN":"13鄰","STREET":" ","SECT":" ","MAREA":"?頭港","LANE":" ","ALLEY":" ","HOUSE_NO":"１１２號之１０","E_COORD97":172654.64000000001,"N_COORD97":2572436.1099999999,"ADDRESS":"?頭港１１２號之１０","OBJECTID":22721},"geometry":{"x":172654.63999999966,"y":2572436.1099999994}},{"attributes":{"ID":22722,"DIS_CODE":0,"TOWNNAME":"中西區","LI":"西賢里","LIN":"24鄰","STREET":"西賢二街","SECT":" ","MAREA":" ","LANE":" ","ALLEY":" ","HOUSE_NO":"１３９號","E_COORD97":165561.13,"N_COORD97":2544673.79,"ADDRESS":"西賢二街１３９號","OBJECTID":22722},"geometry":{"x":165561.13000000175,"y":2544673.790000001}},{"attributes":{"ID":22723,"DIS_CODE":0,"TOWNNAME":"鹽水區","LI":"河南里","LIN":"13鄰","STREET":" ","SECT":" ","MAREA":"?頭港","LANE":" ","ALLEY":" ","HOUSE_NO":"１１２號之１１","E_COORD97":172650.85000000001,"N_COORD97":2572435.8700000001,"ADDRESS":"?頭港１１２號之１１","OBJECTID":22723},"geometry":{"x":172650.85000000056,"y":2572435.8700000029}},{"attributes":{"ID":22724,"DIS_CODE":0,"TOWNNAME":"鹽水區","LI":"河南里","LIN":"13鄰","STREET":" ","SECT":" ","MAREA":"?頭港","LANE":" ","ALLEY":" ","HOUSE_NO":"１１２號之１","E_COORD97":172652.45000000001,"N_COORD97":2572492.8100000001,"ADDRESS":"?頭港１１２號之１","OBJECTID":22724},"geometry":{"x":172652.45000000112,"y":2572492.8100000024}},{"attributes":{"ID":22725,"DIS_CODE":0,"TOWNNAME":"永康區","LI":"網寮里","LIN":"24鄰","STREET":"永華路","SECT":" ","MAREA":" ","LANE":" ","ALLEY":" ","HOUSE_NO":"３８３號","E_COORD97":173875.47,"N_COORD97":2546399.2799999998,"ADDRESS":"永華路３８３號","OBJECTID":22725},"geometry":{"x":173875.47000000067,"y":2546399.2800000012}},{"attributes":{"ID":22726,"DIS_CODE":0,"TOWNNAME":"永康區","LI":"永康里","LIN":"24鄰","STREET":"永正路","SECT":" ","MAREA":" ","LANE":" ","ALLEY":" ","HOUSE_NO":"５３號","E_COORD97":173546.87,"N_COORD97":2547380,"ADDRESS":"永正路５３號","OBJECTID":22726},"geometry":{"x":173546.87000000011,"y":2547380}},{"attributes":{"ID":22727,"DIS_CODE":0,"TOWNNAME":"永康區","LI":"西灣里","LIN":"24鄰","STREET":"國光八街","SECT":" ","MAREA":" ","LANE":" ","ALLEY":" ","HOUSE_NO":"３號","E_COORD97":174429.63,"N_COORD97":2545741.9900000002,"ADDRESS":"國光八街３號","OBJECTID":22727},"geometry":{"x":174429.62999999989,"y":2545741.9900000002}},{"attributes":{"ID":22728,"DIS_CODE":0,"TOWNNAME":"北區","LI":"延平里","LIN":" ","STREET":"公園路","SECT":" ","MAREA":" ","LANE":" ","ALLEY":" ","HOUSE_NO":"６９６號","E_COORD97":169038.73999999999,"N_COORD97":2545438.9399999999,"ADDRESS":"公園路６９６號","OBJECTID":22728},"geometry":{"x":169038.74000000022,"y":2545438.9400000013}},{"attributes":{"ID":22729,"DIS_CODE":0,"TOWNNAME":"安南區","LI":"海西里","LIN":"14鄰","STREET":"海環街","SECT":" ","MAREA":" ","LANE":"４３７巷","ALLEY":"３３弄","HOUSE_NO":"３６號","E_COORD97":166009.09,"N_COORD97":2549055.9700000002,"ADDRESS":"海環街４３７巷３３弄３６號","OBJECTID":22729},"geometry":{"x":166009.09000000078,"y":2549055.9700000007}},{"attributes":{"ID":22730,"DIS_CODE":0,"TOWNNAME":"佳里區","LI":"忠仁里","LIN":"14鄰","STREET":"信義一街","SECT":" ","MAREA":" ","LANE":"２７１巷","ALLEY":"３１弄","HOUSE_NO":"１０號","E_COORD97":166104.14999999999,"N_COORD97":2562171.1499999999,"ADDRESS":"信義一街２７１巷３１弄１０號","OBJECTID":22730},"geometry":{"x":166104.1500000013,"y":2562171.1500000004}},{"attributes":{"ID":22731,"DIS_CODE":0,"TOWNNAME":"左鎮區","LI":"岡林里","LIN":"8鄰","STREET":" ","SECT":" ","MAREA":"岡林","LANE":" ","ALLEY":" ","HOUSE_NO":"８４號","E_COORD97":189442.35999999999,"N_COORD97":2547031.25,"ADDRESS":"岡林８４號","OBJECTID":22731},"geometry":{"x":189442.36000000127,"y":2547031.2500000019}},{"attributes":{"ID":22732,"DIS_CODE":0,"TOWNNAME":"北區","LI":"延平里","LIN":" ","STREET":"公園路","SECT":" ","MAREA":" ","LANE":" ","ALLEY":" ","HOUSE_NO":"６８８號","E_COORD97":169058,"N_COORD97":2545438.02,"ADDRESS":"公園路６８８號","OBJECTID":22732},"geometry":{"x":169058.00000000093,"y":2545438.0200000014}},{"attributes":{"ID":22733,"DIS_CODE":0,"TOWNNAME":"佳里區","LI":"忠仁里","LIN":"14鄰","STREET":"信義一街","SECT":" ","MAREA":" ","LANE":"２７１巷","ALLEY":"３１弄","HOUSE_NO":"１１號","E_COORD97":166131.10999999999,"N_COORD97":2562166.3999999999,"ADDRESS":"信義一街２７１巷３１弄１１號","OBJECTID":22733},"geometry":{"x":166131.1099999994,"y":2562166.4000000004}},{"attributes":{"ID":22734,"DIS_CODE":0,"TOWNNAME":"北區","LI":"東興里","LIN":" ","STREET":"小東路","SECT":" ","MAREA":" ","LANE":" ","ALLEY":" ","HOUSE_NO":"２１５號","E_COORD97":170843.87,"N_COORD97":2544503.5899999999,"ADDRESS":"小東路２１５號","OBJECTID":22734},"geometry":{"x":170843.87000000104,"y":2544503.5899999999}},{"attributes":{"ID":22735,"DIS_CODE":0,"TOWNNAME":"北區","LI":"振興里","LIN":" ","STREET":"開元路","SECT":" ","MAREA":" ","LANE":" ","ALLEY":" ","HOUSE_NO":"２０２號之２","E_COORD97":170105.32000000001,"N_COORD97":2545308.1400000001,"ADDRESS":"開元路２０２號之２","OBJECTID":22735},"geometry":{"x":170105.32000000123,"y":2545308.1400000006}},{"attributes":{"ID":22736,"DIS_CODE":0,"TOWNNAME":"北區","LI":"振興里","LIN":" ","STREET":"長榮路","SECT":"四段","MAREA":" ","LANE":" ","ALLEY":" ","HOUSE_NO":"１１２號","E_COORD97":170286.25,"N_COORD97":2545125.1499999999,"ADDRESS":"長榮路四段１１２號","OBJECTID":22736},"geometry":{"x":170286.25,"y":2545125.1500000004}},{"attributes":{"ID":22737,"DIS_CODE":0,"TOWNNAME":"佳里區","LI":"忠仁里","LIN":"14鄰","STREET":"信義一街","SECT":" ","MAREA":" ","LANE":"２７１巷","ALLEY":"３１弄","HOUSE_NO":"１２號","E_COORD97":166104.73999999999,"N_COORD97":2562167.0800000001,"ADDRESS":"信義一街２７１巷３１弄１２號","OBJECTID":22737},"geometry":{"x":166104.74000000209,"y":2562167.0800000019}},{"attributes":{"ID":22738,"DIS_CODE":0,"TOWNNAME":"佳里區","LI":"忠仁里","LIN":"14鄰","STREET":"信義一街","SECT":" ","MAREA":" ","LANE":"２７１巷","ALLEY":"３１弄","HOUSE_NO":"１６號","E_COORD97":166105.48999999999,"N_COORD97":2562162.6099999999,"ADDRESS":"信義一街２７１巷３１弄１６號","OBJECTID":22738},"geometry":{"x":166105.49000000115,"y":2562162.6100000013}},{"attributes":{"ID":22739,"DIS_CODE":0,"TOWNNAME":"北區","LI":"振興里","LIN":" ","STREET":"長榮路","SECT":"四段","MAREA":" ","LANE":" ","ALLEY":" ","HOUSE_NO":"１６０號","E_COORD97":170206.10000000001,"N_COORD97":2545246.7799999998,"ADDRESS":"長榮路四段１６０號","OBJECTID":22739},"geometry":{"x":170206.10000000056,"y":2545246.7800000012}},{"attributes":{"ID":22740,"DIS_CODE":0,"TOWNNAME":"鹽水區","LI":"河南里","LIN":"13鄰","STREET":" ","SECT":" ","MAREA":"?頭港","LANE":" ","ALLEY":" ","HOUSE_NO":"１１２號之２","E_COORD97":172659.95000000001,"N_COORD97":2572410.7400000002,"ADDRESS":"?頭港１１２號之２","OBJECTID":22740},"geometry":{"x":172659.95000000019,"y":2572410.7400000039}},{"attributes":{"ID":22741,"DIS_CODE":0,"TOWNNAME":"佳里區","LI":"忠仁里","LIN":"14鄰","STREET":"信義一街","SECT":" ","MAREA":" ","LANE":"２７１巷","ALLEY":"３１弄","HOUSE_NO":"１號","E_COORD97":166128.62,"N_COORD97":2562187.8399999999,"ADDRESS":"信義一街２７１巷３１弄１號","OBJECTID":22741},"geometry":{"x":166128.62000000011,"y":2562187.8400000017}},{"attributes":{"ID":22742,"DIS_CODE":0,"TOWNNAME":"佳里區","LI":"忠仁里","LIN":"14鄰","STREET":"信義一街","SECT":" ","MAREA":" ","LANE":"２７１巷","ALLEY":"３１弄","HOUSE_NO":"２號","E_COORD97":166102.69,"N_COORD97":2562184.6600000001,"ADDRESS":"信義一街２７１巷３１弄２號","OBJECTID":22742},"geometry":{"x":166102.69000000134,"y":2562184.6600000001}},{"attributes":{"ID":22743,"DIS_CODE":0,"TOWNNAME":"鹽水區","LI":"河南里","LIN":"13鄰","STREET":" ","SECT":" ","MAREA":"?頭港","LANE":" ","ALLEY":" ","HOUSE_NO":"１１２之３號","E_COORD97":172678.5,"N_COORD97":2572493.7200000002,"ADDRESS":"?頭港１１２之３號","OBJECTID":22743},"geometry":{"x":172678.50000000186,"y":2572493.7200000025}},{"attributes":{"ID":22744,"DIS_CODE":0,"TOWNNAME":"鹽水區","LI":"河南里","LIN":"13鄰","STREET":" ","SECT":" ","MAREA":"?頭港","LANE":" ","ALLEY":" ","HOUSE_NO":"１１２號之６","E_COORD97":172673.14999999999,"N_COORD97":2572440.75,"ADDRESS":"?頭港１１２號之６","OBJECTID":22744},"geometry":{"x":172673.1500000013,"y":2572440.7500000037}},{"attributes":{"ID":22745,"DIS_CODE":0,"TOWNNAME":"佳里區","LI":"忠仁里","LIN":"14鄰","STREET":"信義一街","SECT":" ","MAREA":" ","LANE":"２７１巷","ALLEY":"３１弄","HOUSE_NO":"３號","E_COORD97":166129.29999999999,"N_COORD97":2562183.5600000001,"ADDRESS":"信義一街２７１巷３１弄３號","OBJECTID":22745},"geometry":{"x":166129.29999999888,"y":2562183.5600000024}},{"attributes":{"ID":22746,"DIS_CODE":0,"TOWNNAME":"佳里區","LI":"忠仁里","LIN":"14鄰","STREET":"信義一街","SECT":" ","MAREA":" ","LANE":"２７１巷","ALLEY":"３１弄","HOUSE_NO":"８號","E_COORD97":166103.85999999999,"N_COORD97":2562175.6400000001,"ADDRESS":"信義一街２７１巷３１弄８號","OBJECTID":22746},"geometry":{"x":166103.86000000034,"y":2562175.6400000006}},{"attributes":{"ID":22747,"DIS_CODE":0,"TOWNNAME":"佳里區","LI":"忠仁里","LIN":"14鄰","STREET":"信義一街","SECT":" ","MAREA":" ","LANE":"２７１巷","ALLEY":"３１弄","HOUSE_NO":"９號","E_COORD97":166130.51000000001,"N_COORD97":2562170.6400000001,"ADDRESS":"信義一街２７１巷３１弄９號","OBJECTID":22747},"geometry":{"x":166130.50999999978,"y":2562170.6400000025}},{"attributes":{"ID":22748,"DIS_CODE":0,"TOWNNAME":"安南區","LI":"州南里","LIN":"14鄰","STREET":"安和路","SECT":"四段","MAREA":" ","LANE":"５３３巷","ALLEY":"１５１弄","HOUSE_NO":"１０號","E_COORD97":169620.63,"N_COORD97":2551172.2000000002,"ADDRESS":"安和路四段５３３巷１５１弄１０號","OBJECTID":22748},"geometry":{"x":169620.62999999989,"y":2551172.1999999974}},{"attributes":{"ID":22749,"DIS_CODE":0,"TOWNNAME":"鹽水區","LI":"河南里","LIN":"13鄰","STREET":" ","SECT":" ","MAREA":"?頭港","LANE":" ","ALLEY":" ","HOUSE_NO":"１１２號之７","E_COORD97":172668.60000000001,"N_COORD97":2572440.5699999998,"ADDRESS":"?頭港１１２號之７","OBJECTID":22749},"geometry":{"x":172668.59999999963,"y":2572440.5700000003}},{"attributes":{"ID":22750,"DIS_CODE":0,"TOWNNAME":"鹽水區","LI":"河南里","LIN":"13鄰","STREET":" ","SECT":" ","MAREA":"?頭港","LANE":" ","ALLEY":" ","HOUSE_NO":"１１２號之８","E_COORD97":172663.01000000001,"N_COORD97":2572436.7599999998,"ADDRESS":"?頭港１１２號之８","OBJECTID":22750},"geometry":{"x":172663.01000000071,"y":2572436.7599999979}},{"attributes":{"ID":22751,"DIS_CODE":0,"TOWNNAME":"永康區","LI":"西勢里","LIN":"24鄰","STREET":"廣興街","SECT":" ","MAREA":" ","LANE":" ","ALLEY":" ","HOUSE_NO":"４２號","E_COORD97":175947.23000000001,"N_COORD97":2546570.48,"ADDRESS":"廣興街４２號","OBJECTID":22751},"geometry":{"x":175947.22999999952,"y":2546570.4800000004}},{"attributes":{"ID":22752,"DIS_CODE":0,"TOWNNAME":"仁德區","LI":"保安里","LIN":"24鄰","STREET":"保學一街","SECT":" ","MAREA":" ","LANE":" ","ALLEY":" ","HOUSE_NO":"３２號","E_COORD97":171558.92999999999,"N_COORD97":2535525.1400000001,"ADDRESS":"保學一街３２號","OBJECTID":22752},"geometry":{"x":171558.9299999997,"y":2535525.1400000025}},{"attributes":{"ID":22753,"DIS_CODE":0,"TOWNNAME":"東區","LI":"仁和里","LIN":"24鄰","STREET":"仁東街","SECT":" ","MAREA":" ","LANE":" ","ALLEY":" ","HOUSE_NO":"４０號","E_COORD97":171611.69,"N_COORD97":2541160.4399999999,"ADDRESS":"仁東街４０號","OBJECTID":22753},"geometry":{"x":171611.69000000134,"y":2541160.4400000013}},{"attributes":{"ID":22754,"DIS_CODE":0,"TOWNNAME":"鹽水區","LI":"河南里","LIN":"13鄰","STREET":" ","SECT":" ","MAREA":"?頭港","LANE":" ","ALLEY":" ","HOUSE_NO":"１１２號之９","E_COORD97":172658.97,"N_COORD97":2572436.4500000002,"ADDRESS":"?頭港１１２號之９","OBJECTID":22754},"geometry":{"x":172658.96999999974,"y":2572436.4500000011}},{"attributes":{"ID":22755,"DIS_CODE":0,"TOWNNAME":"東區","LI":"仁和里","LIN":"24鄰","STREET":"仁東街","SECT":" ","MAREA":" ","LANE":" ","ALLEY":" ","HOUSE_NO":"３２號","E_COORD97":171596.17000000001,"N_COORD97":2541153.6600000001,"ADDRESS":"仁東街３２號","OBJECTID":22755},"geometry":{"x":171596.17000000086,"y":2541153.6600000001}},{"attributes":{"ID":22756,"DIS_CODE":0,"TOWNNAME":"鹽水區","LI":"河南里","LIN":"13鄰","STREET":" ","SECT":" ","MAREA":"?頭港","LANE":" ","ALLEY":" ","HOUSE_NO":"１１２號","E_COORD97":172675.92999999999,"N_COORD97":2572471.3100000001,"ADDRESS":"?頭港１１２號","OBJECTID":22756},"geometry":{"x":172675.93000000063,"y":2572471.3100000042}},{"attributes":{"ID":22757,"DIS_CODE":0,"TOWNNAME":"東區","LI":"仁和里","LIN":"24鄰","STREET":"仁東街","SECT":" ","MAREA":" ","LANE":" ","ALLEY":" ","HOUSE_NO":"３４號","E_COORD97":171599.57000000001,"N_COORD97":2541155.6000000001,"ADDRESS":"仁東街３４號","OBJECTID":22757},"geometry":{"x":171599.5700000003,"y":2541155.6000000015}},{"attributes":{"ID":22758,"DIS_CODE":0,"TOWNNAME":"東區","LI":"仁和里","LIN":"24鄰","STREET":"仁東街","SECT":" ","MAREA":" ","LANE":" ","ALLEY":" ","HOUSE_NO":"３６號","E_COORD97":171603.69,"N_COORD97":2541157.29,"ADDRESS":"仁東街３６號","OBJECTID":22758},"geometry":{"x":171603.69000000041,"y":2541157.290000001}},{"attributes":{"ID":22759,"DIS_CODE":0,"TOWNNAME":"東區","LI":"仁和里","LIN":"24鄰","STREET":"仁東街","SECT":" ","MAREA":" ","LANE":" ","ALLEY":" ","HOUSE_NO":"３８號","E_COORD97":171607.32999999999,"N_COORD97":2541158.7400000002,"ADDRESS":"仁東街３８號","OBJECTID":22759},"geometry":{"x":171607.33000000101,"y":2541158.7400000021}},{"attributes":{"ID":22760,"DIS_CODE":0,"TOWNNAME":"東區","LI":"仁和里","LIN":"24鄰","STREET":"仁東街","SECT":" ","MAREA":" ","LANE":" ","ALLEY":" ","HOUSE_NO":"５０號","E_COORD97":171629.10000000001,"N_COORD97":2541158.7000000002,"ADDRESS":"仁東街５０號","OBJECTID":22760},"geometry":{"x":171629.09999999963,"y":2541158.7000000011}},{"attributes":{"ID":22761,"DIS_CODE":0,"TOWNNAME":"永康區","LI":"西灣里","LIN":"24鄰","STREET":"國光八街","SECT":" ","MAREA":" ","LANE":" ","ALLEY":" ","HOUSE_NO":"５號","E_COORD97":174425.39999999999,"N_COORD97":2545742.2400000002,"ADDRESS":"國光八街５號","OBJECTID":22761},"geometry":{"x":174425.40000000037,"y":2545742.2400000021}},{"attributes":{"ID":22762,"DIS_CODE":0,"TOWNNAME":"安南區","LI":"州南里","LIN":"14鄰","STREET":"安和路","SECT":"四段","MAREA":" ","LANE":"５３３巷","ALLEY":"１５１弄","HOUSE_NO":"１２號","E_COORD97":169621.85999999999,"N_COORD97":2551166.73,"ADDRESS":"安和路四段５３３巷１５１弄１２號","OBJECTID":22762},"geometry":{"x":169621.86000000127,"y":2551166.7300000042}},{"attributes":{"ID":22763,"DIS_CODE":0,"TOWNNAME":"安南區","LI":"州南里","LIN":"14鄰","STREET":"安和路","SECT":"四段","MAREA":" ","LANE":"５３３巷","ALLEY":"１５１弄","HOUSE_NO":"１４號","E_COORD97":169621.51000000001,"N_COORD97":2551159.3100000001,"ADDRESS":"安和路四段５３３巷１５１弄１４號","OBJECTID":22763},"geometry":{"x":169621.50999999978,"y":2551159.3100000042}},{"attributes":{"ID":22764,"DIS_CODE":0,"TOWNNAME":"安南區","LI":"州南里","LIN":"14鄰","STREET":"安和路","SECT":"四段","MAREA":" ","LANE":"５３３巷","ALLEY":"１５１弄","HOUSE_NO":"１６號","E_COORD97":169622.57000000001,"N_COORD97":2551154.1899999999,"ADDRESS":"安和路四段５３３巷１５１弄１６號","OBJECTID":22764},"geometry":{"x":169622.57000000123,"y":2551154.1899999995}},{"attributes":{"ID":22765,"DIS_CODE":0,"TOWNNAME":"安南區","LI":"州南里","LIN":"14鄰","STREET":"安和路","SECT":"四段","MAREA":" ","LANE":"５３３巷","ALLEY":"１５１弄","HOUSE_NO":"１８號","E_COORD97":169613.14000000001,"N_COORD97":2551159.6699999999,"ADDRESS":"安和路四段５３３巷１５１弄１８號","OBJECTID":22765},"geometry":{"x":169613.13999999966,"y":2551159.6700000037}},{"attributes":{"ID":22766,"DIS_CODE":0,"TOWNNAME":"後壁區","LI":"墨林里","LIN":"13鄰","STREET":" ","SECT":" ","MAREA":"菁寮","LANE":" ","ALLEY":" ","HOUSE_NO":"３３９號","E_COORD97":182116.01000000001,"N_COORD97":2586353.9500000002,"ADDRESS":"菁寮３３９號","OBJECTID":22766},"geometry":{"x":182116.01000000071,"y":2586353.9500000011}},{"attributes":{"ID":22767,"DIS_CODE":0,"TOWNNAME":"安南區","LI":"州南里","LIN":"14鄰","STREET":"安和路","SECT":"四段","MAREA":" ","LANE":"５３３巷","ALLEY":"１５１弄","HOUSE_NO":"２０號","E_COORD97":169607.60000000001,"N_COORD97":2551159.6699999999,"ADDRESS":"安和路四段５３３巷１５１弄２０號","OBJECTID":22767},"geometry":{"x":169607.60000000056,"y":2551159.6700000037}},{"attributes":{"ID":22768,"DIS_CODE":0,"TOWNNAME":"安南區","LI":"州南里","LIN":"14鄰","STREET":"安和路","SECT":"四段","MAREA":" ","LANE":"５３３巷","ALLEY":"１５１弄","HOUSE_NO":"２２號","E_COORD97":169608.10999999999,"N_COORD97":2551135.9500000002,"ADDRESS":"安和路四段５３３巷１５１弄２２號","OBJECTID":22768},"geometry":{"x":169608.1100000022,"y":2551135.9499999993}},{"attributes":{"ID":22769,"DIS_CODE":0,"TOWNNAME":"後壁區","LI":"墨林里","LIN":"13鄰","STREET":" ","SECT":" ","MAREA":"菁寮","LANE":" ","ALLEY":" ","HOUSE_NO":"３４０號","E_COORD97":182116.60999999999,"N_COORD97":2586349.79,"ADDRESS":"菁寮３４０號","OBJECTID":22769},"geometry":{"x":182116.61000000034,"y":2586349.7899999991}},{"attributes":{"ID":22770,"DIS_CODE":0,"TOWNNAME":"七股區","LI":"?埕里","LIN":"13鄰","STREET":" ","SECT":" ","MAREA":"?埕","LANE":" ","ALLEY":" ","HOUSE_NO":"２１０號","E_COORD97":156697.32000000001,"N_COORD97":2561190.1400000001,"ADDRESS":"?埕２１０號","OBJECTID":22770},"geometry":{"x":156697.3200000003,"y":2561190.1400000025}},{"attributes":{"ID":22771,"DIS_CODE":0,"TOWNNAME":"七股區","LI":"?埕里","LIN":"13鄰","STREET":" ","SECT":" ","MAREA":"?埕","LANE":" ","ALLEY":" ","HOUSE_NO":"２１１號","E_COORD97":156715.59,"N_COORD97":2561177.6699999999,"ADDRESS":"?埕２１１號","OBJECTID":22771},"geometry":{"x":156715.58999999985,"y":2561177.6699999999}},{"attributes":{"ID":22772,"DIS_CODE":0,"TOWNNAME":"七股區","LI":"?埕里","LIN":"13鄰","STREET":" ","SECT":" ","MAREA":"?埕","LANE":" ","ALLEY":" ","HOUSE_NO":"２１２號","E_COORD97":156693.39000000001,"N_COORD97":2561184.5600000001,"ADDRESS":"?埕２１２號","OBJECTID":22772},"geometry":{"x":156693.3900000006,"y":2561184.5600000024}},{"attributes":{"ID":22773,"DIS_CODE":0,"TOWNNAME":"七股區","LI":"?埕里","LIN":"13鄰","STREET":" ","SECT":" ","MAREA":"?埕","LANE":" ","ALLEY":" ","HOUSE_NO":"２１３號","E_COORD97":156711.32999999999,"N_COORD97":2561171.77,"ADDRESS":"?埕２１３號","OBJECTID":22773},"geometry":{"x":156711.33000000101,"y":2561171.7700000014}},{"attributes":{"ID":22774,"DIS_CODE":0,"TOWNNAME":"七股區","LI":"?埕里","LIN":"13鄰","STREET":" ","SECT":" ","MAREA":"?埕","LANE":" ","ALLEY":" ","HOUSE_NO":"２１４號","E_COORD97":156689.45999999999,"N_COORD97":2561178.9700000002,"ADDRESS":"?埕２１４號","OBJECTID":22774},"geometry":{"x":156689.45999999996,"y":2561178.9700000007}},{"attributes":{"ID":22775,"DIS_CODE":0,"TOWNNAME":"七股區","LI":"?埕里","LIN":"13鄰","STREET":" ","SECT":" ","MAREA":"?埕","LANE":" ","ALLEY":" ","HOUSE_NO":"２１５號","E_COORD97":156707.07999999999,"N_COORD97":2561165.8799999999,"ADDRESS":"?埕２１５號","OBJECTID":22775},"geometry":{"x":156707.08000000007,"y":2561165.8800000027}},{"attributes":{"ID":22776,"DIS_CODE":0,"TOWNNAME":"安南區","LI":"州南里","LIN":"14鄰","STREET":"安和路","SECT":"四段","MAREA":" ","LANE":"５３３巷","ALLEY":"１５１弄","HOUSE_NO":"２４號","E_COORD97":169614.41,"N_COORD97":2551135.4500000002,"ADDRESS":"安和路四段５３３巷１５１弄２４號","OBJECTID":22776},"geometry":{"x":169614.41000000201,"y":2551135.4499999993}},{"attributes":{"ID":22777,"DIS_CODE":0,"TOWNNAME":"安南區","LI":"州南里","LIN":"14鄰","STREET":"安和路","SECT":"四段","MAREA":" ","LANE":"５３３巷","ALLEY":"１５１弄","HOUSE_NO":"２６號","E_COORD97":169623.63,"N_COORD97":2551142.0499999998,"ADDRESS":"安和路四段５３３巷１５１弄２６號","OBJECTID":22777},"geometry":{"x":169623.62999999989,"y":2551142.0500000026}},{"attributes":{"ID":22778,"DIS_CODE":0,"TOWNNAME":"安南區","LI":"州南里","LIN":"14鄰","STREET":"安和路","SECT":"四段","MAREA":" ","LANE":"５３３巷","ALLEY":"１５１弄","HOUSE_NO":"２８號","E_COORD97":169624.51999999999,"N_COORD97":2551136.0499999998,"ADDRESS":"安和路四段５３３巷１５１弄２８號","OBJECTID":22778},"geometry":{"x":169624.51999999955,"y":2551136.0500000007}},{"attributes":{"ID":22779,"DIS_CODE":0,"TOWNNAME":"永康區","LI":"西勢里","LIN":"24鄰","STREET":"廣興街","SECT":" ","MAREA":" ","LANE":" ","ALLEY":" ","HOUSE_NO":"１６號","E_COORD97":175858.5,"N_COORD97":2546572.9900000002,"ADDRESS":"廣興街１６號","OBJECTID":22779},"geometry":{"x":175858.49999999907,"y":2546572.9900000002}},{"attributes":{"ID":22780,"DIS_CODE":0,"TOWNNAME":"永康區","LI":"東灣里","LIN":"24鄰","STREET":"大灣二街","SECT":" ","MAREA":" ","LANE":" ","ALLEY":" ","HOUSE_NO":"８２號","E_COORD97":174850.35999999999,"N_COORD97":2544755.9399999999,"ADDRESS":"大灣二街８２號","OBJECTID":22780},"geometry":{"x":174850.36000000127,"y":2544755.9399999995}},{"attributes":{"ID":22781,"DIS_CODE":0,"TOWNNAME":"中西區","LI":"天后里","LIN":"24鄰","STREET":"郡緯街","SECT":" ","MAREA":" ","LANE":" ","ALLEY":" ","HOUSE_NO":"１２號","E_COORD97":168166.76000000001,"N_COORD97":2544308.4199999999,"ADDRESS":"郡緯街１２號","OBJECTID":22781},"geometry":{"x":168166.75999999978,"y":2544308.4199999999}},{"attributes":{"ID":22782,"DIS_CODE":0,"TOWNNAME":"七股區","LI":"?埕里","LIN":"13鄰","STREET":" ","SECT":" ","MAREA":"?埕","LANE":" ","ALLEY":" ","HOUSE_NO":"２１６號","E_COORD97":156685.53,"N_COORD97":2561173.3799999999,"ADDRESS":"?埕２１６號","OBJECTID":22782},"geometry":{"x":156685.53000000026,"y":2561173.3800000008}},{"attributes":{"ID":22783,"DIS_CODE":0,"TOWNNAME":"七股區","LI":"?埕里","LIN":"13鄰","STREET":" ","SECT":" ","MAREA":"?埕","LANE":" ","ALLEY":" ","HOUSE_NO":"２１７號","E_COORD97":156702.82000000001,"N_COORD97":2561159.98,"ADDRESS":"?埕２１７號","OBJECTID":22783},"geometry":{"x":156702.82000000216,"y":2561159.9800000042}},{"attributes":{"ID":22784,"DIS_CODE":0,"TOWNNAME":"七股區","LI":"?埕里","LIN":"13鄰","STREET":" ","SECT":" ","MAREA":"?埕","LANE":" ","ALLEY":" ","HOUSE_NO":"２１８號","E_COORD97":156681.60000000001,"N_COORD97":2561167.7999999998,"ADDRESS":"?埕２１８號","OBJECTID":22784},"geometry":{"x":156681.60000000149,"y":2561167.8000000007}},{"attributes":{"ID":22785,"DIS_CODE":0,"TOWNNAME":"七股區","LI":"?埕里","LIN":"13鄰","STREET":" ","SECT":" ","MAREA":"?埕","LANE":" ","ALLEY":" ","HOUSE_NO":"２１９號","E_COORD97":156698.57000000001,"N_COORD97":2561154.0800000001,"ADDRESS":"?埕２１９號","OBJECTID":22785},"geometry":{"x":156698.5700000003,"y":2561154.0800000001}},{"attributes":{"ID":22786,"DIS_CODE":0,"TOWNNAME":"七股區","LI":"?埕里","LIN":"13鄰","STREET":" ","SECT":" ","MAREA":"?埕","LANE":" ","ALLEY":" ","HOUSE_NO":"２２０號","E_COORD97":156677.67000000001,"N_COORD97":2561162.21,"ADDRESS":"?埕２２０號","OBJECTID":22786},"geometry":{"x":156677.66999999993,"y":2561162.2100000046}},{"attributes":{"ID":22787,"DIS_CODE":0,"TOWNNAME":"七股區","LI":"?埕里","LIN":"13鄰","STREET":" ","SECT":" ","MAREA":"?埕","LANE":" ","ALLEY":" ","HOUSE_NO":"２２２號","E_COORD97":156723.59,"N_COORD97":2561149.6000000001,"ADDRESS":"?埕２２２號","OBJECTID":22787},"geometry":{"x":156723.58999999985,"y":2561149.6000000015}},{"attributes":{"ID":22788,"DIS_CODE":0,"TOWNNAME":"西港區","LI":"永樂里","LIN":"13鄰","STREET":" ","SECT":" ","MAREA":"大塭寮","LANE":" ","ALLEY":" ","HOUSE_NO":"１１１號之１","E_COORD97":165520.42000000001,"N_COORD97":2556199.3399999999,"ADDRESS":"大塭寮１１１號之１","OBJECTID":22788},"geometry":{"x":165520.42000000086,"y":2556199.3399999999}},{"attributes":{"ID":22789,"DIS_CODE":0,"TOWNNAME":"西港區","LI":"永樂里","LIN":"13鄰","STREET":" ","SECT":" ","MAREA":"大塭寮","LANE":" ","ALLEY":" ","HOUSE_NO":"１１１號之２","E_COORD97":165543.48000000001,"N_COORD97":2556193.2200000002,"ADDRESS":"大塭寮１１１號之２","OBJECTID":22789},"geometry":{"x":165543.48000000045,"y":2556193.2200000025}},{"attributes":{"ID":22790,"DIS_CODE":0,"TOWNNAME":"西港區","LI":"永樂里","LIN":"13鄰","STREET":" ","SECT":" ","MAREA":"大塭寮","LANE":" ","ALLEY":" ","HOUSE_NO":"１１４號","E_COORD97":165616.34,"N_COORD97":2556177.3999999999,"ADDRESS":"大塭寮１１４號","OBJECTID":22790},"geometry":{"x":165616.34000000078,"y":2556177.4000000022}},{"attributes":{"ID":22791,"DIS_CODE":0,"TOWNNAME":"西港區","LI":"永樂里","LIN":"13鄰","STREET":" ","SECT":" ","MAREA":"大塭寮","LANE":" ","ALLEY":" ","HOUSE_NO":"１１６號之１","E_COORD97":165664.57000000001,"N_COORD97":2556179.2799999998,"ADDRESS":"大塭寮１１６號之１","OBJECTID":22791},"geometry":{"x":165664.5700000003,"y":2556179.2799999975}},{"attributes":{"ID":22792,"DIS_CODE":0,"TOWNNAME":"西港區","LI":"永樂里","LIN":"13鄰","STREET":" ","SECT":" ","MAREA":"大塭寮","LANE":" ","ALLEY":" ","HOUSE_NO":"１１６號之２","E_COORD97":165661.42000000001,"N_COORD97":2556155.8700000001,"ADDRESS":"大塭寮１１６號之２","OBJECTID":22792},"geometry":{"x":165661.42000000086,"y":2556155.870000001}},{"attributes":{"ID":22793,"DIS_CODE":0,"TOWNNAME":"西港區","LI":"永樂里","LIN":"13鄰","STREET":" ","SECT":" ","MAREA":"大塭寮","LANE":" ","ALLEY":" ","HOUSE_NO":"１１６號","E_COORD97":165642.48999999999,"N_COORD97":2556191.77,"ADDRESS":"大塭寮１１６號","OBJECTID":22793},"geometry":{"x":165642.49000000115,"y":2556191.7699999996}},{"attributes":{"ID":22794,"DIS_CODE":0,"TOWNNAME":"西港區","LI":"永樂里","LIN":"13鄰","STREET":" ","SECT":" ","MAREA":"大塭寮","LANE":" ","ALLEY":" ","HOUSE_NO":"１１７號之１","E_COORD97":165695.48000000001,"N_COORD97":2556182.5600000001,"ADDRESS":"大塭寮１１７號之１","OBJECTID":22794},"geometry":{"x":165695.48000000138,"y":2556182.5600000042}},{"attributes":{"ID":22795,"DIS_CODE":0,"TOWNNAME":"西港區","LI":"永樂里","LIN":"13鄰","STREET":" ","SECT":" ","MAREA":"大塭寮","LANE":" ","ALLEY":" ","HOUSE_NO":"１１７號","E_COORD97":165717.23999999999,"N_COORD97":2556178.1000000001,"ADDRESS":"大塭寮１１７號","OBJECTID":22795},"geometry":{"x":165717.24000000115,"y":2556178.1000000015}},{"attributes":{"ID":22796,"DIS_CODE":0,"TOWNNAME":"西港區","LI":"永樂里","LIN":"13鄰","STREET":" ","SECT":" ","MAREA":"大塭寮","LANE":" ","ALLEY":" ","HOUSE_NO":"１１９號","E_COORD97":165767.04000000001,"N_COORD97":2556158.7599999998,"ADDRESS":"大塭寮１１９號","OBJECTID":22796},"geometry":{"x":165767.0400000019,"y":2556158.7599999998}},{"attributes":{"ID":22797,"DIS_CODE":0,"TOWNNAME":"西港區","LI":"永樂里","LIN":"13鄰","STREET":" ","SECT":" ","MAREA":"大塭寮","LANE":" ","ALLEY":" ","HOUSE_NO":"１２０號","E_COORD97":165781.54000000001,"N_COORD97":2556161.7200000002,"ADDRESS":"大塭寮１２０號","OBJECTID":22797},"geometry":{"x":165781.54000000004,"y":2556161.7200000025}},{"attributes":{"ID":22798,"DIS_CODE":0,"TOWNNAME":"西港區","LI":"永樂里","LIN":"13鄰","STREET":" ","SECT":" ","MAREA":"大塭寮","LANE":" ","ALLEY":" ","HOUSE_NO":"１２１號","E_COORD97":165808.23000000001,"N_COORD97":2556149.1600000001,"ADDRESS":"大塭寮１２１號","OBJECTID":22798},"geometry":{"x":165808.23000000045,"y":2556149.1600000001}},{"attributes":{"ID":22799,"DIS_CODE":0,"TOWNNAME":"西港區","LI":"永樂里","LIN":"13鄰","STREET":" ","SECT":" ","MAREA":"大塭寮","LANE":" ","ALLEY":" ","HOUSE_NO":"１２２號","E_COORD97":165800.88,"N_COORD97":2556151.02,"ADDRESS":"大塭寮１２２號","OBJECTID":22799},"geometry":{"x":165800.88000000082,"y":2556151.0200000033}},{"attributes":{"ID":22800,"DIS_CODE":0,"TOWNNAME":"西港區","LI":"永樂里","LIN":"13鄰","STREET":" ","SECT":" ","MAREA":"大塭寮","LANE":" ","ALLEY":" ","HOUSE_NO":"１２３號","E_COORD97":165857.35999999999,"N_COORD97":2556138.9700000002,"ADDRESS":"大塭寮１２３號","OBJECTID":22800},"geometry":{"x":165857.36000000127,"y":2556138.9700000044}}]}