{"displayFieldName":"TOWNNAME","fieldAliases":{"ID":"ID","DIS_CODE":"DIS_CODE","TOWNNAME":"TOWNNAME","LI":"LI","LIN":"LIN","STREET":"STREET","SECT":"SECT","MAREA":"MAREA","LANE":"LANE","ALLEY":"ALLEY","HOUSE_NO":"HOUSE_NO","E_COORD97":"E_COORD97","N_COORD97":"N_COORD97","ADDRESS":"ADDRESS","OBJECTID":"OBJECTID"},"geometryType":"esriGeometryPoint","spatialReference":{"wkid":102443,"latestWkid":3826},"fields":[{"name":"ID","type":"esriFieldTypeDouble","alias":"ID"},{"name":"DIS_CODE","type":"esriFieldTypeInteger","alias":"DIS_CODE"},{"name":"TOWNNAME","type":"esriFieldTypeString","alias":"TOWNNAME","length":8},{"name":"LI","type":"esriFieldTypeString","alias":"LI","length":8},{"name":"LIN","type":"esriFieldTypeString","alias":"LIN","length":12},{"name":"STREET","type":"esriFieldTypeString","alias":"STREET","length":20},{"name":"SECT","type":"esriFieldTypeString","alias":"SECT","length":8},{"name":"MAREA","type":"esriFieldTypeString","alias":"MAREA","length":12},{"name":"LANE","type":"esriFieldTypeString","alias":"LANE","length":10},{"name":"ALLEY","type":"esriFieldTypeString","alias":"ALLEY","length":10},{"name":"HOUSE_NO","type":"esriFieldTypeString","alias":"HOUSE_NO","length":20},{"name":"E_COORD97","type":"esriFieldTypeDouble","alias":"E_COORD97"},{"name":"N_COORD97","type":"esriFieldTypeDouble","alias":"N_COORD97"},{"name":"ADDRESS","type":"esriFieldTypeString","alias":"ADDRESS","length":50},{"name":"OBJECTID","type":"esriFieldTypeOID","alias":"OBJECTID"}],"features":[{"attributes":{"ID":363811,"DIS_CODE":0,"TOWNNAME":"仁德區","LI":"後壁里","LIN":"43鄰","STREET":"德崙路","SECT":" ","MAREA":" ","LANE":"２１巷","ALLEY":" ","HOUSE_NO":"２號八樓之１","E_COORD97":173309.54999999999,"N_COORD97":2538624.79,"ADDRESS":"德崙路２１巷２號八樓之１","OBJECTID":363801},"geometry":{"x":173309.54999999981,"y":2538624.790000001}},{"attributes":{"ID":363812,"DIS_CODE":0,"TOWNNAME":"永康區","LI":"龍潭里","LIN":"43鄰","STREET":"永平街","SECT":" ","MAREA":" ","LANE":"６８９巷","ALLEY":" ","HOUSE_NO":"５號","E_COORD97":174610.23000000001,"N_COORD97":2546963.6099999999,"ADDRESS":"永平街６８９巷５號","OBJECTID":363802},"geometry":{"x":174610.23000000138,"y":2546963.6100000013}},{"attributes":{"ID":363813,"DIS_CODE":0,"TOWNNAME":"歸仁區","LI":"大廟里","LIN":"19鄰","STREET":"大廟一街","SECT":" ","MAREA":" ","LANE":"３８巷","ALLEY":" ","HOUSE_NO":"１２之１號","E_COORD97":175806.22,"N_COORD97":2544070.2999999998,"ADDRESS":"大廟一街３８巷１２之１號","OBJECTID":363803},"geometry":{"x":175806.22000000067,"y":2544070.2999999989}},{"attributes":{"ID":363814,"DIS_CODE":0,"TOWNNAME":"中西區","LI":"法華里","LIN":"4鄰","STREET":"大同路","SECT":"一段","MAREA":" ","LANE":"２５０巷","ALLEY":" ","HOUSE_NO":"１８號","E_COORD97":169122.60999999999,"N_COORD97":2542478.9199999999,"ADDRESS":"大同路一段２５０巷１８號","OBJECTID":363804},"geometry":{"x":169122.61000000034,"y":2542478.9200000037}},{"attributes":{"ID":363815,"DIS_CODE":0,"TOWNNAME":"中西區","LI":"法華里","LIN":"4鄰","STREET":"大同路","SECT":"一段","MAREA":" ","LANE":"２５０巷","ALLEY":" ","HOUSE_NO":"２０號","E_COORD97":169118.44,"N_COORD97":2542481.7000000002,"ADDRESS":"大同路一段２５０巷２０號","OBJECTID":363805},"geometry":{"x":169118.44000000134,"y":2542481.6999999993}},{"attributes":{"ID":363816,"DIS_CODE":0,"TOWNNAME":"中西區","LI":"法華里","LIN":"4鄰","STREET":"大同路","SECT":"一段","MAREA":" ","LANE":"２５０巷","ALLEY":" ","HOUSE_NO":"２２號","E_COORD97":169113.32999999999,"N_COORD97":2542479.8500000001,"ADDRESS":"大同路一段２５０巷２２號","OBJECTID":363806},"geometry":{"x":169113.33000000101,"y":2542479.8500000015}},{"attributes":{"ID":363817,"DIS_CODE":0,"TOWNNAME":"中西區","LI":"法華里","LIN":"4鄰","STREET":"大同路","SECT":"一段","MAREA":" ","LANE":"２５０巷","ALLEY":" ","HOUSE_NO":"２４號","E_COORD97":169109.16,"N_COORD97":2542482.6299999999,"ADDRESS":"大同路一段２５０巷２４號","OBJECTID":363807},"geometry":{"x":169109.16000000201,"y":2542482.629999999}},{"attributes":{"ID":363818,"DIS_CODE":0,"TOWNNAME":"中西區","LI":"法華里","LIN":"4鄰","STREET":"大同路","SECT":"一段","MAREA":" ","LANE":"２５０巷","ALLEY":" ","HOUSE_NO":"２６號","E_COORD97":169104.04999999999,"N_COORD97":2542480.77,"ADDRESS":"大同路一段２５０巷２６號","OBJECTID":363808},"geometry":{"x":169104.04999999981,"y":2542480.7700000014}},{"attributes":{"ID":363819,"DIS_CODE":0,"TOWNNAME":"中西區","LI":"大南里","LIN":"5鄰","STREET":"健康路","SECT":"一段","MAREA":" ","LANE":"３１０巷","ALLEY":" ","HOUSE_NO":"１７號","E_COORD97":168253.84,"N_COORD97":2542548.1200000001,"ADDRESS":"健康路一段３１０巷１７號","OBJECTID":363809},"geometry":{"x":168253.84000000078,"y":2542548.120000001}},{"attributes":{"ID":363820,"DIS_CODE":0,"TOWNNAME":"中西區","LI":"大南里","LIN":"5鄰","STREET":"健康路","SECT":"一段","MAREA":" ","LANE":"３１０巷","ALLEY":" ","HOUSE_NO":"１９號","E_COORD97":168261.59,"N_COORD97":2542547.4199999999,"ADDRESS":"健康路一段３１０巷１９號","OBJECTID":363810},"geometry":{"x":168261.58999999892,"y":2542547.4200000018}},{"attributes":{"ID":363821,"DIS_CODE":0,"TOWNNAME":"中西區","LI":"大南里","LIN":"5鄰","STREET":"健康路","SECT":"一段","MAREA":" ","LANE":"３１０巷","ALLEY":" ","HOUSE_NO":"２１號","E_COORD97":168260.53,"N_COORD97":2542550.9399999999,"ADDRESS":"健康路一段３１０巷２１號","OBJECTID":363811},"geometry":{"x":168260.53000000026,"y":2542550.9400000013}},{"attributes":{"ID":363822,"DIS_CODE":0,"TOWNNAME":"中西區","LI":"大南里","LIN":"5鄰","STREET":"健康路","SECT":"一段","MAREA":" ","LANE":"３２８巷","ALLEY":" ","HOUSE_NO":"１０號","E_COORD97":168225.64999999999,"N_COORD97":2542538.27,"ADDRESS":"健康路一段３２８巷１０號","OBJECTID":363812},"geometry":{"x":168225.65000000037,"y":2542538.2700000014}},{"attributes":{"ID":363823,"DIS_CODE":0,"TOWNNAME":"東區","LI":"大福里","LIN":"13鄰","STREET":"立德四路","SECT":" ","MAREA":" ","LANE":" ","ALLEY":" ","HOUSE_NO":"３號","E_COORD97":169510.29999999999,"N_COORD97":2541807.1600000001,"ADDRESS":"立德四路３號","OBJECTID":363813},"geometry":{"x":169510.30000000075,"y":2541807.160000002}},{"attributes":{"ID":363824,"DIS_CODE":0,"TOWNNAME":"中西區","LI":"大南里","LIN":"5鄰","STREET":"健康路","SECT":"一段","MAREA":" ","LANE":"３２８巷","ALLEY":" ","HOUSE_NO":"１２號","E_COORD97":168226.69,"N_COORD97":2542543.4199999999,"ADDRESS":"健康路一段３２８巷１２號","OBJECTID":363814},"geometry":{"x":168226.69000000134,"y":2542543.4200000018}},{"attributes":{"ID":363825,"DIS_CODE":0,"TOWNNAME":"中西區","LI":"大南里","LIN":"5鄰","STREET":"健康路","SECT":"一段","MAREA":" ","LANE":"３２８巷","ALLEY":" ","HOUSE_NO":"１４號","E_COORD97":168233.04999999999,"N_COORD97":2542540.73,"ADDRESS":"健康路一段３２８巷１４號","OBJECTID":363815},"geometry":{"x":168233.05000000168,"y":2542540.7300000004}},{"attributes":{"ID":363826,"DIS_CODE":0,"TOWNNAME":"中西區","LI":"大南里","LIN":"5鄰","STREET":"健康路","SECT":"一段","MAREA":" ","LANE":"３２８巷","ALLEY":" ","HOUSE_NO":"１６號","E_COORD97":168239.04000000001,"N_COORD97":2542540.3799999999,"ADDRESS":"健康路一段３２８巷１６號","OBJECTID":363816},"geometry":{"x":168239.04000000097,"y":2542540.3800000008}},{"attributes":{"ID":363827,"DIS_CODE":0,"TOWNNAME":"中西區","LI":"大南里","LIN":"5鄰","STREET":"健康路","SECT":"一段","MAREA":" ","LANE":"３２８巷","ALLEY":" ","HOUSE_NO":"２０號","E_COORD97":168237.63,"N_COORD97":2542551.6400000001,"ADDRESS":"健康路一段３２８巷２０號","OBJECTID":363817},"geometry":{"x":168237.62999999896,"y":2542551.6400000006}},{"attributes":{"ID":363828,"DIS_CODE":0,"TOWNNAME":"中西區","LI":"大南里","LIN":"5鄰","STREET":"健康路","SECT":"一段","MAREA":" ","LANE":"３２８巷","ALLEY":" ","HOUSE_NO":"２２號","E_COORD97":168233.04999999999,"N_COORD97":2542551.6400000001,"ADDRESS":"健康路一段３２８巷２２號","OBJECTID":363818},"geometry":{"x":168233.05000000168,"y":2542551.6400000006}},{"attributes":{"ID":363829,"DIS_CODE":0,"TOWNNAME":"安南區","LI":"新順里","LIN":"13鄰","STREET":"開安路","SECT":" ","MAREA":" ","LANE":" ","ALLEY":" ","HOUSE_NO":"１８號","E_COORD97":170312.29000000001,"N_COORD97":2549506.1299999999,"ADDRESS":"開安路１８號","OBJECTID":363819},"geometry":{"x":170312.29000000097,"y":2549506.1300000008}},{"attributes":{"ID":363830,"DIS_CODE":0,"TOWNNAME":"安南區","LI":"新順里","LIN":"13鄰","STREET":"安和路","SECT":"三段","MAREA":" ","LANE":" ","ALLEY":" ","HOUSE_NO":"１３２之８號","E_COORD97":169885.23999999999,"N_COORD97":2549704.3799999999,"ADDRESS":"安和路三段１３２之８號","OBJECTID":363820},"geometry":{"x":169885.24000000115,"y":2549704.3800000008}},{"attributes":{"ID":363831,"DIS_CODE":0,"TOWNNAME":"安南區","LI":"新順里","LIN":"13鄰","STREET":"開安路","SECT":" ","MAREA":" ","LANE":" ","ALLEY":" ","HOUSE_NO":"７號","E_COORD97":170250.66,"N_COORD97":2549486.5099999998,"ADDRESS":"開安路７號","OBJECTID":363821},"geometry":{"x":170250.66000000108,"y":2549486.5100000016}},{"attributes":{"ID":363832,"DIS_CODE":0,"TOWNNAME":"安南區","LI":"新順里","LIN":"13鄰","STREET":"開安路","SECT":" ","MAREA":" ","LANE":" ","ALLEY":" ","HOUSE_NO":"９號","E_COORD97":170254.20999999999,"N_COORD97":2549492.2200000002,"ADDRESS":"開安路９號","OBJECTID":363822},"geometry":{"x":170254.20999999996,"y":2549492.2200000044}},{"attributes":{"ID":363833,"DIS_CODE":0,"TOWNNAME":"南區","LI":"同安里","LIN":"13鄰","STREET":"明興路","SECT":" ","MAREA":" ","LANE":" ","ALLEY":" ","HOUSE_NO":"１３１９號","E_COORD97":166397.29999999999,"N_COORD97":2535995.8799999999,"ADDRESS":"明興路１３１９號","OBJECTID":363823},"geometry":{"x":166397.30000000168,"y":2535995.8800000008}},{"attributes":{"ID":363834,"DIS_CODE":0,"TOWNNAME":"南區","LI":"竹溪里","LIN":"13鄰","STREET":"南門路","SECT":" ","MAREA":" ","LANE":" ","ALLEY":" ","HOUSE_NO":"３２９號","E_COORD97":168357.95999999999,"N_COORD97":2541951.27,"ADDRESS":"南門路３２９號","OBJECTID":363824},"geometry":{"x":168357.96000000089,"y":2541951.2700000014}},{"attributes":{"ID":363835,"DIS_CODE":0,"TOWNNAME":"南區","LI":"竹溪里","LIN":"13鄰","STREET":"南門路","SECT":" ","MAREA":" ","LANE":" ","ALLEY":" ","HOUSE_NO":"３４５號","E_COORD97":168364.73999999999,"N_COORD97":2541877.4399999999,"ADDRESS":"南門路３４５號","OBJECTID":363825},"geometry":{"x":168364.74000000115,"y":2541877.4399999995}},{"attributes":{"ID":363836,"DIS_CODE":0,"TOWNNAME":"南區","LI":"佛壇里","LIN":"13鄰","STREET":"灣裡路","SECT":" ","MAREA":" ","LANE":" ","ALLEY":" ","HOUSE_NO":"５１８號","E_COORD97":166254.10999999999,"N_COORD97":2535829,"ADDRESS":"灣裡路５１８號","OBJECTID":363826},"geometry":{"x":166254.11000000127,"y":2535829}},{"attributes":{"ID":363837,"DIS_CODE":0,"TOWNNAME":"南區","LI":"佛壇里","LIN":"13鄰","STREET":"灣裡路","SECT":" ","MAREA":" ","LANE":" ","ALLEY":" ","HOUSE_NO":"５０８號","E_COORD97":166251.76000000001,"N_COORD97":2535862.6200000001,"ADDRESS":"灣裡路５０８號","OBJECTID":363827},"geometry":{"x":166251.76000000164,"y":2535862.620000001}},{"attributes":{"ID":363838,"DIS_CODE":0,"TOWNNAME":"中西區","LI":"仙草里","LIN":"12鄰","STREET":"府緯街","SECT":" ","MAREA":" ","LANE":"４巷","ALLEY":" ","HOUSE_NO":"２７號","E_COORD97":167874.06,"N_COORD97":2542764.48,"ADDRESS":"府緯街４巷２７號","OBJECTID":363828},"geometry":{"x":167874.06000000052,"y":2542764.4800000023}},{"attributes":{"ID":363839,"DIS_CODE":0,"TOWNNAME":"中西區","LI":"仙草里","LIN":"12鄰","STREET":"府緯街","SECT":" ","MAREA":" ","LANE":"４巷","ALLEY":" ","HOUSE_NO":"２９號","E_COORD97":167876.14000000001,"N_COORD97":2542759.2799999998,"ADDRESS":"府緯街４巷２９號","OBJECTID":363829},"geometry":{"x":167876.13999999966,"y":2542759.2799999993}},{"attributes":{"ID":363840,"DIS_CODE":0,"TOWNNAME":"中西區","LI":"仙草里","LIN":"12鄰","STREET":"府緯街","SECT":" ","MAREA":" ","LANE":"４巷","ALLEY":" ","HOUSE_NO":"３１號","E_COORD97":167876.48999999999,"N_COORD97":2542755.1200000001,"ADDRESS":"府緯街４巷３１號","OBJECTID":363830},"geometry":{"x":167876.49000000115,"y":2542755.120000001}},{"attributes":{"ID":363841,"DIS_CODE":0,"TOWNNAME":"中西區","LI":"仙草里","LIN":"12鄰","STREET":"府緯街","SECT":" ","MAREA":" ","LANE":"４巷","ALLEY":" ","HOUSE_NO":"３３號","E_COORD97":167875.97,"N_COORD97":2542750.0899999999,"ADDRESS":"府緯街４巷３３號","OBJECTID":363831},"geometry":{"x":167875.9700000016,"y":2542750.0900000017}},{"attributes":{"ID":363842,"DIS_CODE":0,"TOWNNAME":"中西區","LI":"仙草里","LIN":"11鄰","STREET":"府緯街","SECT":" ","MAREA":" ","LANE":"９巷","ALLEY":" ","HOUSE_NO":"１０號","E_COORD97":167901.73999999999,"N_COORD97":2542692.2000000002,"ADDRESS":"府緯街９巷１０號","OBJECTID":363832},"geometry":{"x":167901.74000000209,"y":2542692.1999999993}},{"attributes":{"ID":363843,"DIS_CODE":0,"TOWNNAME":"中西區","LI":"仙草里","LIN":"11鄰","STREET":"府緯街","SECT":" ","MAREA":" ","LANE":"９巷","ALLEY":" ","HOUSE_NO":"８號","E_COORD97":167910.45000000001,"N_COORD97":2542687.4500000002,"ADDRESS":"府緯街９巷８號","OBJECTID":363833},"geometry":{"x":167910.45000000205,"y":2542687.4499999993}},{"attributes":{"ID":363844,"DIS_CODE":0,"TOWNNAME":"中西區","LI":"仙草里","LIN":"13鄰","STREET":"南寧街","SECT":" ","MAREA":" ","LANE":"８３巷","ALLEY":" ","HOUSE_NO":"１６號之２","E_COORD97":167811.57999999999,"N_COORD97":2542815.5699999998,"ADDRESS":"南寧街８３巷１６號之２","OBJECTID":363834},"geometry":{"x":167811.58000000101,"y":2542815.5700000003}},{"attributes":{"ID":363845,"DIS_CODE":0,"TOWNNAME":"中西區","LI":"仙草里","LIN":"13鄰","STREET":"南寧街","SECT":" ","MAREA":" ","LANE":"８３巷","ALLEY":" ","HOUSE_NO":"１６號之３","E_COORD97":167807.94,"N_COORD97":2542815.5699999998,"ADDRESS":"南寧街８３巷１６號之３","OBJECTID":363835},"geometry":{"x":167807.94000000134,"y":2542815.5700000003}},{"attributes":{"ID":363846,"DIS_CODE":0,"TOWNNAME":"中西區","LI":"仙草里","LIN":"13鄰","STREET":"南寧街","SECT":" ","MAREA":" ","LANE":"８３巷","ALLEY":" ","HOUSE_NO":"１６號之４","E_COORD97":167804.29000000001,"N_COORD97":2542815.7400000002,"ADDRESS":"南寧街８３巷１６號之４","OBJECTID":363836},"geometry":{"x":167804.29000000004,"y":2542815.7399999984}},{"attributes":{"ID":363847,"DIS_CODE":0,"TOWNNAME":"中西區","LI":"仙草里","LIN":"13鄰","STREET":"南寧街","SECT":" ","MAREA":" ","LANE":"８３巷","ALLEY":" ","HOUSE_NO":"１６號之５","E_COORD97":167800.64999999999,"N_COORD97":2542815.5699999998,"ADDRESS":"南寧街８３巷１６號之５","OBJECTID":363837},"geometry":{"x":167800.64999999944,"y":2542815.5700000003}},{"attributes":{"ID":363848,"DIS_CODE":0,"TOWNNAME":"中西區","LI":"仙草里","LIN":"13鄰","STREET":"南寧街","SECT":" ","MAREA":" ","LANE":"８３巷","ALLEY":" ","HOUSE_NO":"１６號之６","E_COORD97":167796.31,"N_COORD97":2542815.5699999998,"ADDRESS":"南寧街８３巷１６號之６","OBJECTID":363838},"geometry":{"x":167796.30999999959,"y":2542815.5700000003}},{"attributes":{"ID":363849,"DIS_CODE":0,"TOWNNAME":"中西區","LI":"仙草里","LIN":"13鄰","STREET":"南寧街","SECT":" ","MAREA":" ","LANE":"８３巷","ALLEY":" ","HOUSE_NO":"１６號底層之１","E_COORD97":167814.88,"N_COORD97":2542815.5699999998,"ADDRESS":"南寧街８３巷１６號底層之１","OBJECTID":363839},"geometry":{"x":167814.87999999989,"y":2542815.5700000003}},{"attributes":{"ID":363850,"DIS_CODE":0,"TOWNNAME":"中西區","LI":"仙草里","LIN":"13鄰","STREET":"南寧街","SECT":" ","MAREA":" ","LANE":"８３巷","ALLEY":" ","HOUSE_NO":"１６號底層之１０","E_COORD97":167814.88,"N_COORD97":2542815.5699999998,"ADDRESS":"南寧街８３巷１６號底層之１０","OBJECTID":363840},"geometry":{"x":167814.87999999989,"y":2542815.5700000003}},{"attributes":{"ID":363851,"DIS_CODE":0,"TOWNNAME":"中西區","LI":"仙草里","LIN":"13鄰","STREET":"南寧街","SECT":" ","MAREA":" ","LANE":"８３巷","ALLEY":" ","HOUSE_NO":"１６號底層之１１","E_COORD97":167814.88,"N_COORD97":2542815.5699999998,"ADDRESS":"南寧街８３巷１６號底層之１１","OBJECTID":363841},"geometry":{"x":167814.87999999989,"y":2542815.5700000003}},{"attributes":{"ID":363852,"DIS_CODE":0,"TOWNNAME":"中西區","LI":"仙草里","LIN":"13鄰","STREET":"南寧街","SECT":" ","MAREA":" ","LANE":"８３巷","ALLEY":" ","HOUSE_NO":"１６號底層之１２","E_COORD97":167814.88,"N_COORD97":2542815.5699999998,"ADDRESS":"南寧街８３巷１６號底層之１２","OBJECTID":363842},"geometry":{"x":167814.87999999989,"y":2542815.5700000003}},{"attributes":{"ID":363853,"DIS_CODE":0,"TOWNNAME":"中西區","LI":"仙草里","LIN":"13鄰","STREET":"南寧街","SECT":" ","MAREA":" ","LANE":"８３巷","ALLEY":" ","HOUSE_NO":"１６號底層之１３","E_COORD97":167814.88,"N_COORD97":2542815.5699999998,"ADDRESS":"南寧街８３巷１６號底層之１３","OBJECTID":363843},"geometry":{"x":167814.87999999989,"y":2542815.5700000003}},{"attributes":{"ID":363854,"DIS_CODE":0,"TOWNNAME":"中西區","LI":"仙草里","LIN":"13鄰","STREET":"南寧街","SECT":" ","MAREA":" ","LANE":"８３巷","ALLEY":" ","HOUSE_NO":"１６號底層之１４","E_COORD97":167814.88,"N_COORD97":2542815.5699999998,"ADDRESS":"南寧街８３巷１６號底層之１４","OBJECTID":363844},"geometry":{"x":167814.87999999989,"y":2542815.5700000003}},{"attributes":{"ID":363855,"DIS_CODE":0,"TOWNNAME":"中西區","LI":"仙草里","LIN":"13鄰","STREET":"南寧街","SECT":" ","MAREA":" ","LANE":"８３巷","ALLEY":" ","HOUSE_NO":"１６號底層之２","E_COORD97":167814.88,"N_COORD97":2542815.5699999998,"ADDRESS":"南寧街８３巷１６號底層之２","OBJECTID":363845},"geometry":{"x":167814.87999999989,"y":2542815.5700000003}},{"attributes":{"ID":363856,"DIS_CODE":0,"TOWNNAME":"東區","LI":"大福里","LIN":"13鄰","STREET":"立德四路","SECT":" ","MAREA":" ","LANE":" ","ALLEY":" ","HOUSE_NO":"５號","E_COORD97":169514.88,"N_COORD97":2541808.2999999998,"ADDRESS":"立德四路５號","OBJECTID":363846},"geometry":{"x":169514.88000000082,"y":2541808.3000000007}},{"attributes":{"ID":363857,"DIS_CODE":0,"TOWNNAME":"中西區","LI":"仙草里","LIN":"13鄰","STREET":"南寧街","SECT":" ","MAREA":" ","LANE":"８３巷","ALLEY":" ","HOUSE_NO":"１６號底層之３","E_COORD97":167814.88,"N_COORD97":2542815.5699999998,"ADDRESS":"南寧街８３巷１６號底層之３","OBJECTID":363847},"geometry":{"x":167814.87999999989,"y":2542815.5700000003}},{"attributes":{"ID":363858,"DIS_CODE":0,"TOWNNAME":"中西區","LI":"仙草里","LIN":"13鄰","STREET":"南寧街","SECT":" ","MAREA":" ","LANE":"８３巷","ALLEY":" ","HOUSE_NO":"１６號底層之４","E_COORD97":167814.88,"N_COORD97":2542815.5699999998,"ADDRESS":"南寧街８３巷１６號底層之４","OBJECTID":363848},"geometry":{"x":167814.87999999989,"y":2542815.5700000003}},{"attributes":{"ID":363859,"DIS_CODE":0,"TOWNNAME":"中西區","LI":"仙草里","LIN":"13鄰","STREET":"南寧街","SECT":" ","MAREA":" ","LANE":"８３巷","ALLEY":" ","HOUSE_NO":"１６號底層之５","E_COORD97":167814.88,"N_COORD97":2542815.5699999998,"ADDRESS":"南寧街８３巷１６號底層之５","OBJECTID":363849},"geometry":{"x":167814.87999999989,"y":2542815.5700000003}},{"attributes":{"ID":363860,"DIS_CODE":0,"TOWNNAME":"中西區","LI":"仙草里","LIN":"13鄰","STREET":"南寧街","SECT":" ","MAREA":" ","LANE":"８３巷","ALLEY":" ","HOUSE_NO":"１６號底層之６","E_COORD97":167814.88,"N_COORD97":2542815.5699999998,"ADDRESS":"南寧街８３巷１６號底層之６","OBJECTID":363850},"geometry":{"x":167814.87999999989,"y":2542815.5700000003}},{"attributes":{"ID":363861,"DIS_CODE":0,"TOWNNAME":"中西區","LI":"仙草里","LIN":"13鄰","STREET":"南寧街","SECT":" ","MAREA":" ","LANE":"８３巷","ALLEY":" ","HOUSE_NO":"１６號底層之７","E_COORD97":167814.88,"N_COORD97":2542815.5699999998,"ADDRESS":"南寧街８３巷１６號底層之７","OBJECTID":363851},"geometry":{"x":167814.87999999989,"y":2542815.5700000003}},{"attributes":{"ID":363862,"DIS_CODE":0,"TOWNNAME":"中西區","LI":"仙草里","LIN":"13鄰","STREET":"南寧街","SECT":" ","MAREA":" ","LANE":"８３巷","ALLEY":" ","HOUSE_NO":"１６號底層之８","E_COORD97":167814.88,"N_COORD97":2542815.5699999998,"ADDRESS":"南寧街８３巷１６號底層之８","OBJECTID":363852},"geometry":{"x":167814.87999999989,"y":2542815.5700000003}},{"attributes":{"ID":363863,"DIS_CODE":0,"TOWNNAME":"中西區","LI":"仙草里","LIN":"13鄰","STREET":"南寧街","SECT":" ","MAREA":" ","LANE":"８３巷","ALLEY":" ","HOUSE_NO":"１６號底層之９","E_COORD97":167814.88,"N_COORD97":2542815.5699999998,"ADDRESS":"南寧街８３巷１６號底層之９","OBJECTID":363853},"geometry":{"x":167814.87999999989,"y":2542815.5700000003}},{"attributes":{"ID":363864,"DIS_CODE":0,"TOWNNAME":"中西區","LI":"仙草里","LIN":"13鄰","STREET":"南寧街","SECT":" ","MAREA":" ","LANE":"８３巷","ALLEY":" ","HOUSE_NO":"４號","E_COORD97":167812.97,"N_COORD97":2542829.96,"ADDRESS":"南寧街８３巷４號","OBJECTID":363854},"geometry":{"x":167812.96999999974,"y":2542829.9600000028}},{"attributes":{"ID":363865,"DIS_CODE":0,"TOWNNAME":"中西區","LI":"仙草里","LIN":"13鄰","STREET":"南寧街","SECT":" ","MAREA":" ","LANE":"８３巷","ALLEY":" ","HOUSE_NO":"６號","E_COORD97":167809.32000000001,"N_COORD97":2542821.98,"ADDRESS":"南寧街８３巷６號","OBJECTID":363855},"geometry":{"x":167809.3200000003,"y":2542821.9800000023}},{"attributes":{"ID":363866,"DIS_CODE":0,"TOWNNAME":"中西區","LI":"小西里","LIN":"14鄰","STREET":"府前路","SECT":"一段","MAREA":" ","LANE":"３５９巷","ALLEY":" ","HOUSE_NO":"３８號","E_COORD97":167921.94,"N_COORD97":2543345.96,"ADDRESS":"府前路一段３５９巷３８號","OBJECTID":363856},"geometry":{"x":167921.94000000041,"y":2543345.9600000009}},{"attributes":{"ID":363867,"DIS_CODE":0,"TOWNNAME":"中西區","LI":"小西里","LIN":"14鄰","STREET":"府前路","SECT":"一段","MAREA":" ","LANE":"３５９巷","ALLEY":" ","HOUSE_NO":"３８號之１","E_COORD97":167918.09,"N_COORD97":2543346.0800000001,"ADDRESS":"府前路一段３５９巷３８號之１","OBJECTID":363857},"geometry":{"x":167918.09000000078,"y":2543346.0800000019}},{"attributes":{"ID":363868,"DIS_CODE":0,"TOWNNAME":"中西區","LI":"小西里","LIN":"14鄰","STREET":"府前路","SECT":"一段","MAREA":" ","LANE":"３５９巷","ALLEY":" ","HOUSE_NO":"３８號之２","E_COORD97":167909.81,"N_COORD97":2543345.96,"ADDRESS":"府前路一段３５９巷３８號之２","OBJECTID":363858},"geometry":{"x":167909.81000000052,"y":2543345.9600000009}},{"attributes":{"ID":363869,"DIS_CODE":0,"TOWNNAME":"中西區","LI":"小西里","LIN":"14鄰","STREET":"府前路","SECT":"一段","MAREA":" ","LANE":"３５９巷","ALLEY":" ","HOUSE_NO":"３８號之３","E_COORD97":167913.78,"N_COORD97":2543346.0800000001,"ADDRESS":"府前路一段３５９巷３８號之３","OBJECTID":363859},"geometry":{"x":167913.78000000119,"y":2543346.0800000019}},{"attributes":{"ID":363870,"DIS_CODE":0,"TOWNNAME":"永康區","LI":"龍潭里","LIN":"43鄰","STREET":"國民路","SECT":" ","MAREA":" ","LANE":"２３１巷","ALLEY":" ","HOUSE_NO":"５１號二樓","E_COORD97":174613.20999999999,"N_COORD97":2547011.0699999998,"ADDRESS":"國民路２３１巷５１號二樓","OBJECTID":363860},"geometry":{"x":174613.21000000089,"y":2547011.070000004}},{"attributes":{"ID":363871,"DIS_CODE":0,"TOWNNAME":"永康區","LI":"龍潭里","LIN":"43鄰","STREET":"國民路","SECT":" ","MAREA":" ","LANE":"２３１巷","ALLEY":" ","HOUSE_NO":"４３號二樓","E_COORD97":174615.57999999999,"N_COORD97":2547034.7599999998,"ADDRESS":"國民路２３１巷４３號二樓","OBJECTID":363861},"geometry":{"x":174615.58000000194,"y":2547034.7599999998}},{"attributes":{"ID":363872,"DIS_CODE":0,"TOWNNAME":"永康區","LI":"龍潭里","LIN":"43鄰","STREET":"國民路","SECT":" ","MAREA":" ","LANE":"２３１巷","ALLEY":" ","HOUSE_NO":"２９號五樓","E_COORD97":174596.67000000001,"N_COORD97":2547024.27,"ADDRESS":"國民路２３１巷２９號五樓","OBJECTID":363862},"geometry":{"x":174596.67000000086,"y":2547024.2699999996}},{"attributes":{"ID":363873,"DIS_CODE":0,"TOWNNAME":"永康區","LI":"龍潭里","LIN":"43鄰","STREET":"國民路","SECT":" ","MAREA":" ","LANE":"２３１巷","ALLEY":" ","HOUSE_NO":"４９號四樓","E_COORD97":174612.10000000001,"N_COORD97":2547019.8199999998,"ADDRESS":"國民路２３１巷４９號四樓","OBJECTID":363863},"geometry":{"x":174612.10000000056,"y":2547019.8200000022}},{"attributes":{"ID":363874,"DIS_CODE":0,"TOWNNAME":"永康區","LI":"龍潭里","LIN":"43鄰","STREET":"國民路","SECT":" ","MAREA":" ","LANE":"２３１巷","ALLEY":" ","HOUSE_NO":"２９號四樓","E_COORD97":174596.67000000001,"N_COORD97":2547024.27,"ADDRESS":"國民路２３１巷２９號四樓","OBJECTID":363864},"geometry":{"x":174596.67000000086,"y":2547024.2699999996}},{"attributes":{"ID":363875,"DIS_CODE":0,"TOWNNAME":"永康區","LI":"龍潭里","LIN":"43鄰","STREET":"國民路","SECT":" ","MAREA":" ","LANE":"２３１巷","ALLEY":" ","HOUSE_NO":"２７號五樓","E_COORD97":174596.57000000001,"N_COORD97":2547019.6200000001,"ADDRESS":"國民路２３１巷２７號五樓","OBJECTID":363865},"geometry":{"x":174596.5700000003,"y":2547019.6200000029}},{"attributes":{"ID":363876,"DIS_CODE":0,"TOWNNAME":"永康區","LI":"龍潭里","LIN":"43鄰","STREET":"國民路","SECT":" ","MAREA":" ","LANE":"２３１巷","ALLEY":" ","HOUSE_NO":"２５號五樓","E_COORD97":174597.48000000001,"N_COORD97":2547010.3700000001,"ADDRESS":"國民路２３１巷２５號五樓","OBJECTID":363866},"geometry":{"x":174597.48000000045,"y":2547010.3700000029}},{"attributes":{"ID":363877,"DIS_CODE":0,"TOWNNAME":"南區","LI":"彰南里","LIN":"18鄰","STREET":"新和一路","SECT":" ","MAREA":" ","LANE":"１巷","ALLEY":" ","HOUSE_NO":"１號","E_COORD97":166045.54000000001,"N_COORD97":2540822.6000000001,"ADDRESS":"新和一路１巷１號","OBJECTID":363867},"geometry":{"x":166045.54000000097,"y":2540822.6000000034}},{"attributes":{"ID":363878,"DIS_CODE":0,"TOWNNAME":"南區","LI":"彰南里","LIN":"18鄰","STREET":"新和一路","SECT":" ","MAREA":" ","LANE":"１巷","ALLEY":" ","HOUSE_NO":"３號","E_COORD97":166098.57000000001,"N_COORD97":2540822.2799999998,"ADDRESS":"新和一路１巷３號","OBJECTID":363868},"geometry":{"x":166098.5700000003,"y":2540822.2800000012}},{"attributes":{"ID":363879,"DIS_CODE":0,"TOWNNAME":"南區","LI":"彰南里","LIN":"18鄰","STREET":"新和一路","SECT":" ","MAREA":" ","LANE":"１巷","ALLEY":" ","HOUSE_NO":"５號","E_COORD97":166128.09,"N_COORD97":2540823.3900000001,"ADDRESS":"新和一路１巷５號","OBJECTID":363869},"geometry":{"x":166128.09000000078,"y":2540823.3900000025}},{"attributes":{"ID":363880,"DIS_CODE":0,"TOWNNAME":"南區","LI":"彰南里","LIN":"18鄰","STREET":"新和一路","SECT":" ","MAREA":" ","LANE":"１巷","ALLEY":" ","HOUSE_NO":"７號","E_COORD97":166164.92000000001,"N_COORD97":2540823.5499999998,"ADDRESS":"新和一路１巷７號","OBJECTID":363870},"geometry":{"x":166164.92000000086,"y":2540823.5500000007}},{"attributes":{"ID":363881,"DIS_CODE":0,"TOWNNAME":"南區","LI":"彰南里","LIN":"18鄰","STREET":"新和一路","SECT":" ","MAREA":" ","LANE":"１巷","ALLEY":" ","HOUSE_NO":"２號","E_COORD97":166049.28,"N_COORD97":2540772.0800000001,"ADDRESS":"新和一路１巷２號","OBJECTID":363871},"geometry":{"x":166049.28000000119,"y":2540772.0800000001}},{"attributes":{"ID":363882,"DIS_CODE":0,"TOWNNAME":"南區","LI":"彰南里","LIN":"18鄰","STREET":"新和一路","SECT":" ","MAREA":" ","LANE":"１巷","ALLEY":" ","HOUSE_NO":"４號","E_COORD97":166091.14000000001,"N_COORD97":2540772.6499999999,"ADDRESS":"新和一路１巷４號","OBJECTID":363872},"geometry":{"x":166091.13999999966,"y":2540772.6500000022}},{"attributes":{"ID":363883,"DIS_CODE":0,"TOWNNAME":"南區","LI":"彰南里","LIN":"18鄰","STREET":"新和一路","SECT":" ","MAREA":" ","LANE":"３巷","ALLEY":" ","HOUSE_NO":"１號","E_COORD97":166046.38,"N_COORD97":2540720.9900000002,"ADDRESS":"新和一路３巷１號","OBJECTID":363873},"geometry":{"x":166046.38000000082,"y":2540720.9900000002}},{"attributes":{"ID":363884,"DIS_CODE":0,"TOWNNAME":"南區","LI":"彰南里","LIN":"18鄰","STREET":"新和一路","SECT":" ","MAREA":" ","LANE":"３巷","ALLEY":" ","HOUSE_NO":"３號","E_COORD97":166096.87,"N_COORD97":2540720.6699999999,"ADDRESS":"新和一路３巷３號","OBJECTID":363874},"geometry":{"x":166096.87000000011,"y":2540720.6700000037}},{"attributes":{"ID":363885,"DIS_CODE":0,"TOWNNAME":"南區","LI":"彰南里","LIN":"18鄰","STREET":"新和一路","SECT":" ","MAREA":" ","LANE":"３巷","ALLEY":" ","HOUSE_NO":"５號","E_COORD97":166127.98000000001,"N_COORD97":2540720.6699999999,"ADDRESS":"新和一路３巷５號","OBJECTID":363875},"geometry":{"x":166127.98000000138,"y":2540720.6700000037}},{"attributes":{"ID":363886,"DIS_CODE":0,"TOWNNAME":"南區","LI":"彰南里","LIN":"18鄰","STREET":"新和一路","SECT":" ","MAREA":" ","LANE":"３巷","ALLEY":" ","HOUSE_NO":"７號","E_COORD97":166167.98999999999,"N_COORD97":2540721.6200000001,"ADDRESS":"新和一路３巷７號","OBJECTID":363876},"geometry":{"x":166167.99000000115,"y":2540721.620000001}},{"attributes":{"ID":363887,"DIS_CODE":0,"TOWNNAME":"南區","LI":"彰南里","LIN":"18鄰","STREET":"新和一路","SECT":" ","MAREA":" ","LANE":"３巷","ALLEY":" ","HOUSE_NO":"２號","E_COORD97":166042.25,"N_COORD97":2540666.6899999999,"ADDRESS":"新和一路３巷２號","OBJECTID":363877},"geometry":{"x":166042.25000000093,"y":2540666.6900000013}},{"attributes":{"ID":363888,"DIS_CODE":0,"TOWNNAME":"南區","LI":"彰南里","LIN":"18鄰","STREET":"新和一路","SECT":" ","MAREA":" ","LANE":"３巷","ALLEY":" ","HOUSE_NO":"８號","E_COORD97":166165.29000000001,"N_COORD97":2540671.6099999999,"ADDRESS":"新和一路３巷８號","OBJECTID":363878},"geometry":{"x":166165.2900000019,"y":2540671.6099999994}},{"attributes":{"ID":363889,"DIS_CODE":0,"TOWNNAME":"南區","LI":"彰南里","LIN":"18鄰","STREET":"新和一路","SECT":" ","MAREA":" ","LANE":"３巷","ALLEY":" ","HOUSE_NO":"４號","E_COORD97":166092.73999999999,"N_COORD97":2540669.71,"ADDRESS":"新和一路３巷４號","OBJECTID":363879},"geometry":{"x":166092.74000000022,"y":2540669.7100000009}},{"attributes":{"ID":363890,"DIS_CODE":0,"TOWNNAME":"仁德區","LI":"太子里","LIN":"44鄰","STREET":"太子一街","SECT":" ","MAREA":" ","LANE":"３４巷","ALLEY":" ","HOUSE_NO":"１６號","E_COORD97":174776.73000000001,"N_COORD97":2543410.2599999998,"ADDRESS":"太子一街３４巷１６號","OBJECTID":363880},"geometry":{"x":174776.73000000138,"y":2543410.2600000016}},{"attributes":{"ID":363891,"DIS_CODE":0,"TOWNNAME":"仁德區","LI":"仁義里","LIN":"44鄰","STREET":"仁義路","SECT":" ","MAREA":" ","LANE":"７０巷","ALLEY":" ","HOUSE_NO":"６號","E_COORD97":173544.28,"N_COORD97":2540917.02,"ADDRESS":"仁義路７０巷６號","OBJECTID":363881},"geometry":{"x":173544.28000000026,"y":2540917.0199999996}},{"attributes":{"ID":363892,"DIS_CODE":0,"TOWNNAME":"仁德區","LI":"仁義里","LIN":"44鄰","STREET":"中正路","SECT":"二段","MAREA":" ","LANE":"１０３４巷","ALLEY":" ","HOUSE_NO":"４３號","E_COORD97":173505.87,"N_COORD97":2540898.5800000001,"ADDRESS":"中正路二段１０３４巷４３號","OBJECTID":363882},"geometry":{"x":173505.87000000011,"y":2540898.5800000019}},{"attributes":{"ID":363893,"DIS_CODE":0,"TOWNNAME":"中西區","LI":"小西里","LIN":"14鄰","STREET":"府前路","SECT":"一段","MAREA":" ","LANE":"３５９巷","ALLEY":" ","HOUSE_NO":"４２號","E_COORD97":167903.73999999999,"N_COORD97":2543338.3900000001,"ADDRESS":"府前路一段３５９巷４２號","OBJECTID":363883},"geometry":{"x":167903.74000000115,"y":2543338.3900000025}},{"attributes":{"ID":363894,"DIS_CODE":0,"TOWNNAME":"仁德區","LI":"仁義里","LIN":"44鄰","STREET":"中正路","SECT":"二段","MAREA":" ","LANE":"１０３４巷","ALLEY":" ","HOUSE_NO":"１１號","E_COORD97":173436.76999999999,"N_COORD97":2540900,"ADDRESS":"中正路二段１０３４巷１１號","OBJECTID":363884},"geometry":{"x":173436.76999999955,"y":2540900.0000000019}},{"attributes":{"ID":363895,"DIS_CODE":0,"TOWNNAME":"新市區","LI":"新和里","LIN":"44鄰","STREET":"富林路","SECT":" ","MAREA":" ","LANE":" ","ALLEY":" ","HOUSE_NO":"２８３號","E_COORD97":177307.76999999999,"N_COORD97":2553302.79,"ADDRESS":"富林路２８３號","OBJECTID":363885},"geometry":{"x":177307.77000000048,"y":2553302.7899999991}},{"attributes":{"ID":363896,"DIS_CODE":0,"TOWNNAME":"南區","LI":"佛壇里","LIN":"13鄰","STREET":"灣裡路","SECT":" ","MAREA":" ","LANE":" ","ALLEY":" ","HOUSE_NO":"５１０號","E_COORD97":166250.22,"N_COORD97":2535858.1299999999,"ADDRESS":"灣裡路５１０號","OBJECTID":363886},"geometry":{"x":166250.2200000016,"y":2535858.1300000027}},{"attributes":{"ID":363897,"DIS_CODE":0,"TOWNNAME":"南區","LI":"佛壇里","LIN":"13鄰","STREET":"灣裡路","SECT":" ","MAREA":" ","LANE":" ","ALLEY":" ","HOUSE_NO":"５１２號","E_COORD97":166252.19,"N_COORD97":2535853.0299999998,"ADDRESS":"灣裡路５１２號","OBJECTID":363887},"geometry":{"x":166252.19000000041,"y":2535853.0300000012}},{"attributes":{"ID":363898,"DIS_CODE":0,"TOWNNAME":"南區","LI":"佛壇里","LIN":"13鄰","STREET":"灣裡路","SECT":" ","MAREA":" ","LANE":" ","ALLEY":" ","HOUSE_NO":"５１４號","E_COORD97":166254.76000000001,"N_COORD97":2535844.3700000001,"ADDRESS":"灣裡路５１４號","OBJECTID":363888},"geometry":{"x":166254.75999999978,"y":2535844.370000001}},{"attributes":{"ID":363899,"DIS_CODE":0,"TOWNNAME":"南區","LI":"佛壇里","LIN":"13鄰","STREET":"灣裡路","SECT":" ","MAREA":" ","LANE":" ","ALLEY":" ","HOUSE_NO":"５１８號之１","E_COORD97":166250.26999999999,"N_COORD97":2535822.3999999999,"ADDRESS":"灣裡路５１８號之１","OBJECTID":363889},"geometry":{"x":166250.27000000048,"y":2535822.4000000004}},{"attributes":{"ID":363900,"DIS_CODE":0,"TOWNNAME":"南區","LI":"佛壇里","LIN":"13鄰","STREET":"灣裡路","SECT":" ","MAREA":" ","LANE":" ","ALLEY":" ","HOUSE_NO":"５２０號","E_COORD97":166260.26999999999,"N_COORD97":2535819.0099999998,"ADDRESS":"灣裡路５２０號","OBJECTID":363890},"geometry":{"x":166260.27000000048,"y":2535819.0099999979}},{"attributes":{"ID":363901,"DIS_CODE":0,"TOWNNAME":"南區","LI":"佛壇里","LIN":"13鄰","STREET":"灣裡路","SECT":" ","MAREA":" ","LANE":" ","ALLEY":" ","HOUSE_NO":"５２４號","E_COORD97":166262.39999999999,"N_COORD97":2535809.4199999999,"ADDRESS":"灣裡路５２４號","OBJECTID":363891},"geometry":{"x":166262.40000000037,"y":2535809.4199999999}},{"attributes":{"ID":363902,"DIS_CODE":0,"TOWNNAME":"南區","LI":"佛壇里","LIN":"13鄰","STREET":"灣裡路","SECT":" ","MAREA":" ","LANE":" ","ALLEY":" ","HOUSE_NO":"５２６號","E_COORD97":166264.75,"N_COORD97":2535804.52,"ADDRESS":"灣裡路５２６號","OBJECTID":363892},"geometry":{"x":166264.75,"y":2535804.5199999996}},{"attributes":{"ID":363903,"DIS_CODE":0,"TOWNNAME":"南區","LI":"佛壇里","LIN":"13鄰","STREET":"灣裡路","SECT":" ","MAREA":" ","LANE":" ","ALLEY":" ","HOUSE_NO":"５２８號","E_COORD97":166264.95999999999,"N_COORD97":2535791.5299999998,"ADDRESS":"灣裡路５２８號","OBJECTID":363893},"geometry":{"x":166264.95999999996,"y":2535791.5300000031}},{"attributes":{"ID":363904,"DIS_CODE":0,"TOWNNAME":"永康區","LI":"二王里","LIN":"43鄰","STREET":"中山南路","SECT":" ","MAREA":" ","LANE":"３１６巷","ALLEY":" ","HOUSE_NO":"４０號","E_COORD97":172071.31,"N_COORD97":2546126.79,"ADDRESS":"中山南路３１６巷４０號","OBJECTID":363894},"geometry":{"x":172071.31000000052,"y":2546126.7900000028}},{"attributes":{"ID":363905,"DIS_CODE":0,"TOWNNAME":"永康區","LI":"二王里","LIN":"43鄰","STREET":"中山南路","SECT":" ","MAREA":" ","LANE":"３１６巷","ALLEY":" ","HOUSE_NO":"７６號","E_COORD97":172154.47,"N_COORD97":2546129.8199999998,"ADDRESS":"中山南路３１６巷７６號","OBJECTID":363895},"geometry":{"x":172154.46999999881,"y":2546129.8200000003}},{"attributes":{"ID":363906,"DIS_CODE":0,"TOWNNAME":"永康區","LI":"二王里","LIN":"43鄰","STREET":"中山南路","SECT":" ","MAREA":" ","LANE":"３１６巷","ALLEY":" ","HOUSE_NO":"４８號","E_COORD97":172087.76000000001,"N_COORD97":2546124.04,"ADDRESS":"中山南路３１６巷４８號","OBJECTID":363896},"geometry":{"x":172087.75999999978,"y":2546124.0399999991}},{"attributes":{"ID":363907,"DIS_CODE":0,"TOWNNAME":"仁德區","LI":"太子里","LIN":"43鄰","STREET":"太子路","SECT":" ","MAREA":" ","LANE":"１０１巷","ALLEY":" ","HOUSE_NO":"１３號","E_COORD97":174933.76999999999,"N_COORD97":2543487,"ADDRESS":"太子路１０１巷１３號","OBJECTID":363897},"geometry":{"x":174933.76999999955,"y":2543487}},{"attributes":{"ID":363908,"DIS_CODE":0,"TOWNNAME":"仁德區","LI":"太子里","LIN":"43鄰","STREET":"太子路","SECT":" ","MAREA":" ","LANE":"３１巷","ALLEY":" ","HOUSE_NO":"１８號","E_COORD97":175279.85000000001,"N_COORD97":2543379.5,"ADDRESS":"太子路３１巷１８號","OBJECTID":363898},"geometry":{"x":175279.85000000056,"y":2543379.5}},{"attributes":{"ID":363909,"DIS_CODE":0,"TOWNNAME":"仁德區","LI":"太子里","LIN":"43鄰","STREET":"太子路","SECT":" ","MAREA":" ","LANE":"１０１巷","ALLEY":" ","HOUSE_NO":"２９號","E_COORD97":174955.73000000001,"N_COORD97":2543483.25,"ADDRESS":"太子路１０１巷２９號","OBJECTID":363899},"geometry":{"x":174955.73000000231,"y":2543483.2499999981}},{"attributes":{"ID":363910,"DIS_CODE":0,"TOWNNAME":"仁德區","LI":"太子里","LIN":"43鄰","STREET":"太子路","SECT":" ","MAREA":" ","LANE":"１０１巷","ALLEY":" ","HOUSE_NO":"２１號","E_COORD97":174958.39999999999,"N_COORD97":2543500.5,"ADDRESS":"太子路１０１巷２１號","OBJECTID":363900},"geometry":{"x":174958.4000000013,"y":2543500.5}},{"attributes":{"ID":363911,"DIS_CODE":0,"TOWNNAME":"仁德區","LI":"太子里","LIN":"43鄰","STREET":"太子路","SECT":" ","MAREA":" ","LANE":"１０１巷","ALLEY":" ","HOUSE_NO":"９號","E_COORD97":174934.14999999999,"N_COORD97":2543496,"ADDRESS":"太子路１０１巷９號","OBJECTID":363901},"geometry":{"x":174934.15000000224,"y":2543496.0000000019}},{"attributes":{"ID":363912,"DIS_CODE":0,"TOWNNAME":"仁德區","LI":"太子里","LIN":"43鄰","STREET":"太子路","SECT":" ","MAREA":" ","LANE":"１０１巷","ALLEY":" ","HOUSE_NO":"２３號","E_COORD97":174958.51000000001,"N_COORD97":2543495.5,"ADDRESS":"太子路１０１巷２３號","OBJECTID":363902},"geometry":{"x":174958.51000000071,"y":2543495.5000000037}},{"attributes":{"ID":363913,"DIS_CODE":0,"TOWNNAME":"仁德區","LI":"太子里","LIN":"43鄰","STREET":"太子路","SECT":" ","MAREA":" ","LANE":"１０１巷","ALLEY":" ","HOUSE_NO":"２５號","E_COORD97":174957.45000000001,"N_COORD97":2543491.25,"ADDRESS":"太子路１０１巷２５號","OBJECTID":363903},"geometry":{"x":174957.45000000112,"y":2543491.2500000019}},{"attributes":{"ID":363914,"DIS_CODE":0,"TOWNNAME":"仁德區","LI":"太子里","LIN":"44鄰","STREET":"太子路","SECT":" ","MAREA":" ","LANE":"１０１巷","ALLEY":" ","HOUSE_NO":"２０號","E_COORD97":174883,"N_COORD97":2543439.0099999998,"ADDRESS":"太子路１０１巷２０號","OBJECTID":363904},"geometry":{"x":174883.00000000093,"y":2543439.0100000016}},{"attributes":{"ID":363915,"DIS_CODE":0,"TOWNNAME":"仁德區","LI":"太子里","LIN":"44鄰","STREET":"太子一街","SECT":" ","MAREA":" ","LANE":"３０巷","ALLEY":" ","HOUSE_NO":"１號","E_COORD97":174815.5,"N_COORD97":2543403.7599999998,"ADDRESS":"太子一街３０巷１號","OBJECTID":363905},"geometry":{"x":174815.5,"y":2543403.7599999998}},{"attributes":{"ID":363916,"DIS_CODE":0,"TOWNNAME":"仁德區","LI":"太子里","LIN":"44鄰","STREET":"太子一街","SECT":" ","MAREA":" ","LANE":"３４巷","ALLEY":" ","HOUSE_NO":"２號","E_COORD97":174791.72,"N_COORD97":2543375.5,"ADDRESS":"太子一街３４巷２號","OBJECTID":363906},"geometry":{"x":174791.71999999974,"y":2543375.5}},{"attributes":{"ID":363917,"DIS_CODE":0,"TOWNNAME":"仁德區","LI":"太子里","LIN":"44鄰","STREET":"太子一街","SECT":" ","MAREA":" ","LANE":"３４巷","ALLEY":" ","HOUSE_NO":"１４號","E_COORD97":174780.10999999999,"N_COORD97":2543404.2599999998,"ADDRESS":"太子一街３４巷１４號","OBJECTID":363907},"geometry":{"x":174780.1100000022,"y":2543404.2599999998}},{"attributes":{"ID":363918,"DIS_CODE":0,"TOWNNAME":"中西區","LI":"仙草里","LIN":"13鄰","STREET":"南寧街","SECT":" ","MAREA":" ","LANE":"８３巷","ALLEY":" ","HOUSE_NO":"３４號","E_COORD97":167808.63,"N_COORD97":2542782.6200000001,"ADDRESS":"南寧街８３巷３４號","OBJECTID":363908},"geometry":{"x":167808.62999999989,"y":2542782.620000001}},{"attributes":{"ID":363919,"DIS_CODE":0,"TOWNNAME":"中西區","LI":"仙草里","LIN":"13鄰","STREET":"南寧街","SECT":" ","MAREA":" ","LANE":"８３巷","ALLEY":" ","HOUSE_NO":"３６號","E_COORD97":167810.01999999999,"N_COORD97":2542777.5899999999,"ADDRESS":"南寧街８３巷３６號","OBJECTID":363909},"geometry":{"x":167810.02000000048,"y":2542777.5899999999}},{"attributes":{"ID":363920,"DIS_CODE":0,"TOWNNAME":"仁德區","LI":"成功里","LIN":"44鄰","STREET":"文賢路","SECT":"一段","MAREA":" ","LANE":"９３巷","ALLEY":" ","HOUSE_NO":"７號","E_COORD97":170332.87,"N_COORD97":2538179.0699999998,"ADDRESS":"文賢路一段９３巷７號","OBJECTID":363910},"geometry":{"x":170332.87000000011,"y":2538179.070000004}},{"attributes":{"ID":363921,"DIS_CODE":0,"TOWNNAME":"仁德區","LI":"太子里","LIN":"44鄰","STREET":"太子一街","SECT":" ","MAREA":" ","LANE":"３０巷","ALLEY":" ","HOUSE_NO":"３號","E_COORD97":174811.69,"N_COORD97":2543401.5099999998,"ADDRESS":"太子一街３０巷３號","OBJECTID":363911},"geometry":{"x":174811.68999999948,"y":2543401.5100000016}},{"attributes":{"ID":363922,"DIS_CODE":0,"TOWNNAME":"仁德區","LI":"成功里","LIN":"44鄰","STREET":"文賢路","SECT":"一段","MAREA":" ","LANE":"８１巷","ALLEY":" ","HOUSE_NO":"５號","E_COORD97":170268.51999999999,"N_COORD97":2538202.8199999998,"ADDRESS":"文賢路一段８１巷５號","OBJECTID":363912},"geometry":{"x":170268.51999999955,"y":2538202.8200000003}},{"attributes":{"ID":363923,"DIS_CODE":0,"TOWNNAME":"佳里區","LI":"安西里","LIN":"44鄰","STREET":"文化路","SECT":" ","MAREA":" ","LANE":"４８３巷","ALLEY":" ","HOUSE_NO":"４號","E_COORD97":164928.20999999999,"N_COORD97":2562545.54,"ADDRESS":"文化路４８３巷４號","OBJECTID":363913},"geometry":{"x":164928.21000000183,"y":2562545.540000001}},{"attributes":{"ID":363924,"DIS_CODE":0,"TOWNNAME":"仁德區","LI":"成功里","LIN":"44鄰","STREET":"文賢路","SECT":"一段","MAREA":" ","LANE":"９３巷","ALLEY":" ","HOUSE_NO":"３號","E_COORD97":170325.84,"N_COORD97":2538174.3199999998,"ADDRESS":"文賢路一段９３巷３號","OBJECTID":363914},"geometry":{"x":170325.83999999985,"y":2538174.3200000022}},{"attributes":{"ID":363925,"DIS_CODE":0,"TOWNNAME":"南區","LI":"佛壇里","LIN":"13鄰","STREET":"灣裡路","SECT":" ","MAREA":" ","LANE":" ","ALLEY":" ","HOUSE_NO":"５３０號","E_COORD97":166264.10999999999,"N_COORD97":2535795.79,"ADDRESS":"灣裡路５３０號","OBJECTID":363915},"geometry":{"x":166264.11000000127,"y":2535795.7899999991}},{"attributes":{"ID":363926,"DIS_CODE":0,"TOWNNAME":"南區","LI":"佛壇里","LIN":"13鄰","STREET":"灣裡路","SECT":" ","MAREA":" ","LANE":" ","ALLEY":" ","HOUSE_NO":"５４６號","E_COORD97":166274.29000000001,"N_COORD97":2535743.02,"ADDRESS":"灣裡路５４６號","OBJECTID":363916},"geometry":{"x":166274.29000000097,"y":2535743.0199999996}},{"attributes":{"ID":363927,"DIS_CODE":0,"TOWNNAME":"南區","LI":"佛壇里","LIN":"13鄰","STREET":"灣裡路","SECT":" ","MAREA":" ","LANE":" ","ALLEY":" ","HOUSE_NO":"５６４號","E_COORD97":166276.85000000001,"N_COORD97":2535718.0899999999,"ADDRESS":"灣裡路５６４號","OBJECTID":363917},"geometry":{"x":166276.85000000056,"y":2535718.0900000017}},{"attributes":{"ID":363928,"DIS_CODE":0,"TOWNNAME":"南區","LI":"佛壇里","LIN":"13鄰","STREET":"灣裡路","SECT":" ","MAREA":" ","LANE":" ","ALLEY":" ","HOUSE_NO":"５８０號","E_COORD97":166314.70999999999,"N_COORD97":2535580.8700000001,"ADDRESS":"灣裡路５８０號","OBJECTID":363918},"geometry":{"x":166314.70999999996,"y":2535580.8700000048}},{"attributes":{"ID":363929,"DIS_CODE":0,"TOWNNAME":"東區","LI":"南聖里","LIN":"13鄰","STREET":"裕孝路","SECT":" ","MAREA":" ","LANE":" ","ALLEY":" ","HOUSE_NO":"４７之１５號","E_COORD97":172505.82000000001,"N_COORD97":2543241.0800000001,"ADDRESS":"裕孝路４７之１５號","OBJECTID":363919},"geometry":{"x":172505.82000000123,"y":2543241.0800000019}},{"attributes":{"ID":363930,"DIS_CODE":0,"TOWNNAME":"東區","LI":"南聖里","LIN":"13鄰","STREET":"裕孝路","SECT":" ","MAREA":" ","LANE":" ","ALLEY":" ","HOUSE_NO":"４７之１６號","E_COORD97":172510.85000000001,"N_COORD97":2543239.3999999999,"ADDRESS":"裕孝路４７之１６號","OBJECTID":363920},"geometry":{"x":172510.84999999963,"y":2543239.4000000022}},{"attributes":{"ID":363931,"DIS_CODE":0,"TOWNNAME":"東區","LI":"南聖里","LIN":"13鄰","STREET":"裕孝路","SECT":" ","MAREA":" ","LANE":" ","ALLEY":" ","HOUSE_NO":"４７之１號","E_COORD97":172443.76000000001,"N_COORD97":2543236.0499999998,"ADDRESS":"裕孝路４７之１號","OBJECTID":363921},"geometry":{"x":172443.75999999978,"y":2543236.0500000026}},{"attributes":{"ID":363932,"DIS_CODE":0,"TOWNNAME":"東區","LI":"南聖里","LIN":"13鄰","STREET":"裕孝路","SECT":" ","MAREA":" ","LANE":" ","ALLEY":" ","HOUSE_NO":"４７之２號","E_COORD97":172448.98000000001,"N_COORD97":2543231.9500000002,"ADDRESS":"裕孝路４７之２號","OBJECTID":363922},"geometry":{"x":172448.98000000138,"y":2543231.9500000011}},{"attributes":{"ID":363933,"DIS_CODE":0,"TOWNNAME":"東區","LI":"南聖里","LIN":"13鄰","STREET":"裕孝路","SECT":" ","MAREA":" ","LANE":" ","ALLEY":" ","HOUSE_NO":"４７之３號","E_COORD97":172453.26000000001,"N_COORD97":2543236.98,"ADDRESS":"裕孝路４７之３號","OBJECTID":363923},"geometry":{"x":172453.26000000071,"y":2543236.9800000004}},{"attributes":{"ID":363934,"DIS_CODE":0,"TOWNNAME":"東區","LI":"南聖里","LIN":"13鄰","STREET":"裕孝路","SECT":" ","MAREA":" ","LANE":" ","ALLEY":" ","HOUSE_NO":"４７之５號","E_COORD97":172459.60000000001,"N_COORD97":2543234.7400000002,"ADDRESS":"裕孝路４７之５號","OBJECTID":363924},"geometry":{"x":172459.59999999963,"y":2543234.7400000002}},{"attributes":{"ID":363935,"DIS_CODE":0,"TOWNNAME":"東區","LI":"南聖里","LIN":"13鄰","STREET":"裕孝路","SECT":" ","MAREA":" ","LANE":" ","ALLEY":" ","HOUSE_NO":"４７之６號","E_COORD97":172464.82000000001,"N_COORD97":2543237.9100000001,"ADDRESS":"裕孝路４７之６號","OBJECTID":363925},"geometry":{"x":172464.82000000123,"y":2543237.9100000001}},{"attributes":{"ID":363936,"DIS_CODE":0,"TOWNNAME":"仁德區","LI":"仁德里","LIN":"43鄰","STREET":"中山路","SECT":" ","MAREA":" ","LANE":"９１０巷","ALLEY":" ","HOUSE_NO":"２８號","E_COORD97":172021.67999999999,"N_COORD97":2541809.4900000002,"ADDRESS":"中山路９１０巷２８號","OBJECTID":363926},"geometry":{"x":172021.68000000063,"y":2541809.4900000002}},{"attributes":{"ID":363937,"DIS_CODE":0,"TOWNNAME":"仁德區","LI":"太子里","LIN":"43鄰","STREET":"太子路","SECT":" ","MAREA":" ","LANE":"１０１巷","ALLEY":" ","HOUSE_NO":"７號","E_COORD97":174934.67999999999,"N_COORD97":2543499.75,"ADDRESS":"太子路１０１巷７號","OBJECTID":363927},"geometry":{"x":174934.6799999997,"y":2543499.75}},{"attributes":{"ID":363938,"DIS_CODE":0,"TOWNNAME":"仁德區","LI":"太子里","LIN":"43鄰","STREET":"太子路","SECT":" ","MAREA":" ","LANE":"３１巷","ALLEY":" ","HOUSE_NO":"１４號","E_COORD97":175294.48000000001,"N_COORD97":2543401.2599999998,"ADDRESS":"太子路３１巷１４號","OBJECTID":363928},"geometry":{"x":175294.48000000045,"y":2543401.2599999998}},{"attributes":{"ID":363939,"DIS_CODE":0,"TOWNNAME":"仁德區","LI":"仁德里","LIN":"43鄰","STREET":"中山路","SECT":" ","MAREA":" ","LANE":"９１０巷","ALLEY":" ","HOUSE_NO":"３４號","E_COORD97":172036.76000000001,"N_COORD97":2541811.9900000002,"ADDRESS":"中山路９１０巷３４號","OBJECTID":363929},"geometry":{"x":172036.75999999978,"y":2541811.9900000021}},{"attributes":{"ID":363940,"DIS_CODE":0,"TOWNNAME":"仁德區","LI":"太子里","LIN":"43鄰","STREET":"太子路","SECT":" ","MAREA":" ","LANE":"３１巷","ALLEY":" ","HOUSE_NO":"５９號","E_COORD97":175254.82999999999,"N_COORD97":2543129.0099999998,"ADDRESS":"太子路３１巷５９號","OBJECTID":363930},"geometry":{"x":175254.83000000101,"y":2543129.0100000035}},{"attributes":{"ID":363941,"DIS_CODE":0,"TOWNNAME":"仁德區","LI":"太子里","LIN":"43鄰","STREET":"太子路","SECT":" ","MAREA":" ","LANE":"１０１巷","ALLEY":" ","HOUSE_NO":"１１號","E_COORD97":174934.57000000001,"N_COORD97":2543491.75,"ADDRESS":"太子路１０１巷１１號","OBJECTID":363931},"geometry":{"x":174934.57000000216,"y":2543491.7500000019}},{"attributes":{"ID":363942,"DIS_CODE":0,"TOWNNAME":"仁德區","LI":"太子里","LIN":"43鄰","STREET":"太子路","SECT":" ","MAREA":" ","LANE":"１０１巷","ALLEY":" ","HOUSE_NO":"２７號","E_COORD97":174956.54000000001,"N_COORD97":2543487.5,"ADDRESS":"太子路１０１巷２７號","OBJECTID":363932},"geometry":{"x":174956.5400000019,"y":2543487.5}},{"attributes":{"ID":363943,"DIS_CODE":0,"TOWNNAME":"仁德區","LI":"仁德里","LIN":"43鄰","STREET":"中山路","SECT":" ","MAREA":" ","LANE":"９１０巷","ALLEY":" ","HOUSE_NO":"３０號","E_COORD97":172026.63,"N_COORD97":2541810.4900000002,"ADDRESS":"中山路９１０巷３０號","OBJECTID":363933},"geometry":{"x":172026.63000000082,"y":2541810.4899999984}},{"attributes":{"ID":363944,"DIS_CODE":0,"TOWNNAME":"仁德區","LI":"仁德里","LIN":"43鄰","STREET":"中山路","SECT":" ","MAREA":" ","LANE":"９１０巷","ALLEY":" ","HOUSE_NO":"１７號","E_COORD97":171991.60000000001,"N_COORD97":2541804.2400000002,"ADDRESS":"中山路９１０巷１７號","OBJECTID":363934},"geometry":{"x":171991.60000000056,"y":2541804.2400000002}},{"attributes":{"ID":363945,"DIS_CODE":0,"TOWNNAME":"仁德區","LI":"仁德里","LIN":"43鄰","STREET":"中山路","SECT":" ","MAREA":" ","LANE":"９１０巷","ALLEY":" ","HOUSE_NO":"３９號","E_COORD97":172023.94,"N_COORD97":2541819.2400000002,"ADDRESS":"中山路９１０巷３９號","OBJECTID":363935},"geometry":{"x":172023.94000000134,"y":2541819.2400000039}},{"attributes":{"ID":363946,"DIS_CODE":0,"TOWNNAME":"仁德區","LI":"太子里","LIN":"43鄰","STREET":"太子路","SECT":" ","MAREA":" ","LANE":"１０１巷","ALLEY":" ","HOUSE_NO":"１號","E_COORD97":174935.95000000001,"N_COORD97":2543511.7599999998,"ADDRESS":"太子路１０１巷１號","OBJECTID":363936},"geometry":{"x":174935.95000000112,"y":2543511.7600000016}},{"attributes":{"ID":363947,"DIS_CODE":0,"TOWNNAME":"仁德區","LI":"成功里","LIN":"44鄰","STREET":"文賢路","SECT":"一段","MAREA":" ","LANE":"８１巷","ALLEY":" ","HOUSE_NO":"３號","E_COORD97":170265.20000000001,"N_COORD97":2538199.5699999998,"ADDRESS":"文賢路一段８１巷３號","OBJECTID":363937},"geometry":{"x":170265.20000000112,"y":2538199.570000004}},{"attributes":{"ID":363948,"DIS_CODE":0,"TOWNNAME":"永康區","LI":"\u25A0行里","LIN":"44鄰","STREET":"\u25A0平街","SECT":" ","MAREA":" ","LANE":"１５８巷","ALLEY":" ","HOUSE_NO":"２５號","E_COORD97":171875.10000000001,"N_COORD97":2548164.4900000002,"ADDRESS":"\u25A0平街１５８巷２５號","OBJECTID":363938},"geometry":{"x":171875.09999999963,"y":2548164.4900000021}},{"attributes":{"ID":363949,"DIS_CODE":0,"TOWNNAME":"仁德區","LI":"成功里","LIN":"44鄰","STREET":"文賢路","SECT":"一段","MAREA":" ","LANE":"８１巷","ALLEY":" ","HOUSE_NO":"１５號","E_COORD97":170290.09,"N_COORD97":2538227.3300000001,"ADDRESS":"文賢路一段８１巷１５號","OBJECTID":363939},"geometry":{"x":170290.08999999985,"y":2538227.3300000001}},{"attributes":{"ID":363950,"DIS_CODE":0,"TOWNNAME":"仁德區","LI":"成功里","LIN":"44鄰","STREET":"文賢路","SECT":"一段","MAREA":" ","LANE":"９３巷","ALLEY":" ","HOUSE_NO":"１號","E_COORD97":170321.73999999999,"N_COORD97":2538171.8199999998,"ADDRESS":"文賢路一段９３巷１號","OBJECTID":363940},"geometry":{"x":170321.74000000022,"y":2538171.8200000022}},{"attributes":{"ID":363951,"DIS_CODE":0,"TOWNNAME":"仁德區","LI":"成功里","LIN":"44鄰","STREET":"文賢路","SECT":"一段","MAREA":" ","LANE":"８１巷","ALLEY":" ","HOUSE_NO":"１號","E_COORD97":170262.95000000001,"N_COORD97":2538195.0699999998,"ADDRESS":"文賢路一段８１巷１號","OBJECTID":363941},"geometry":{"x":170262.95000000019,"y":2538195.0700000003}},{"attributes":{"ID":363952,"DIS_CODE":0,"TOWNNAME":"東區","LI":"南聖里","LIN":"13鄰","STREET":"裕孝路","SECT":" ","MAREA":" ","LANE":" ","ALLEY":" ","HOUSE_NO":"４７之７號","E_COORD97":172470.97,"N_COORD97":2543234.7400000002,"ADDRESS":"裕孝路４７之７號","OBJECTID":363942},"geometry":{"x":172470.96999999974,"y":2543234.7400000002}},{"attributes":{"ID":363953,"DIS_CODE":0,"TOWNNAME":"東區","LI":"南聖里","LIN":"13鄰","STREET":"裕孝路","SECT":" ","MAREA":" ","LANE":" ","ALLEY":" ","HOUSE_NO":"４７之８號","E_COORD97":172475.07000000001,"N_COORD97":2543237.9100000001,"ADDRESS":"裕孝路４７之８號","OBJECTID":363943},"geometry":{"x":172475.07000000123,"y":2543237.9100000001}},{"attributes":{"ID":363954,"DIS_CODE":0,"TOWNNAME":"東區","LI":"南聖里","LIN":"13鄰","STREET":"裕孝路","SECT":" ","MAREA":" ","LANE":" ","ALLEY":" ","HOUSE_NO":"４７之９號","E_COORD97":172480.66,"N_COORD97":2543236.0499999998,"ADDRESS":"裕孝路４７之９號","OBJECTID":363944},"geometry":{"x":172480.66000000015,"y":2543236.0500000026}},{"attributes":{"ID":363955,"DIS_CODE":0,"TOWNNAME":"東區","LI":"南聖里","LIN":"13鄰","STREET":"裕孝路","SECT":" ","MAREA":" ","LANE":" ","ALLEY":" ","HOUSE_NO":"４７號","E_COORD97":172438.72,"N_COORD97":2543233.25,"ADDRESS":"裕孝路４７號","OBJECTID":363945},"geometry":{"x":172438.71999999974,"y":2543233.2500000019}},{"attributes":{"ID":363956,"DIS_CODE":0,"TOWNNAME":"東區","LI":"南聖里","LIN":"13鄰","STREET":"裕孝路","SECT":" ","MAREA":" ","LANE":" ","ALLEY":" ","HOUSE_NO":"４９之１０號","E_COORD97":172488.03,"N_COORD97":2543212.96,"ADDRESS":"裕孝路４９之１０號","OBJECTID":363946},"geometry":{"x":172488.03000000026,"y":2543212.9600000028}},{"attributes":{"ID":363957,"DIS_CODE":0,"TOWNNAME":"東區","LI":"南聖里","LIN":"13鄰","STREET":"裕孝路","SECT":" ","MAREA":" ","LANE":" ","ALLEY":" ","HOUSE_NO":"４９之１１號","E_COORD97":172492.79000000001,"N_COORD97":2543216.3799999999,"ADDRESS":"裕孝路４９之１１號","OBJECTID":363947},"geometry":{"x":172492.79000000004,"y":2543216.379999999}},{"attributes":{"ID":363958,"DIS_CODE":0,"TOWNNAME":"東區","LI":"南聖里","LIN":"13鄰","STREET":"裕孝路","SECT":" ","MAREA":" ","LANE":" ","ALLEY":" ","HOUSE_NO":"４９之１２號","E_COORD97":172498.29000000001,"N_COORD97":2543213.71,"ADDRESS":"裕孝路４９之１２號","OBJECTID":363948},"geometry":{"x":172498.29000000004,"y":2543213.7100000046}},{"attributes":{"ID":363959,"DIS_CODE":0,"TOWNNAME":"東區","LI":"南聖里","LIN":"13鄰","STREET":"裕孝路","SECT":" ","MAREA":" ","LANE":" ","ALLEY":" ","HOUSE_NO":"４９之１３號","E_COORD97":172502.89999999999,"N_COORD97":2543217.1299999999,"ADDRESS":"裕孝路４９之１３號","OBJECTID":363949},"geometry":{"x":172502.90000000037,"y":2543217.129999999}},{"attributes":{"ID":363960,"DIS_CODE":0,"TOWNNAME":"東區","LI":"南聖里","LIN":"13鄰","STREET":"裕孝路","SECT":" ","MAREA":" ","LANE":" ","ALLEY":" ","HOUSE_NO":"４９之１５號","E_COORD97":172508.39999999999,"N_COORD97":2543214.8999999999,"ADDRESS":"裕孝路４９之１５號","OBJECTID":363950},"geometry":{"x":172508.40000000224,"y":2543214.9000000041}},{"attributes":{"ID":363961,"DIS_CODE":0,"TOWNNAME":"東區","LI":"南聖里","LIN":"13鄰","STREET":"裕孝路","SECT":" ","MAREA":" ","LANE":" ","ALLEY":" ","HOUSE_NO":"４９之１６號","E_COORD97":172512.57000000001,"N_COORD97":2543218.1699999999,"ADDRESS":"裕孝路４９之１６號","OBJECTID":363951},"geometry":{"x":172512.57000000123,"y":2543218.1699999999}},{"attributes":{"ID":363962,"DIS_CODE":0,"TOWNNAME":"東區","LI":"南聖里","LIN":"13鄰","STREET":"裕孝路","SECT":" ","MAREA":" ","LANE":" ","ALLEY":" ","HOUSE_NO":"４９之１號","E_COORD97":172446.39000000001,"N_COORD97":2543208.5099999998,"ADDRESS":"裕孝路４９之１號","OBJECTID":363952},"geometry":{"x":172446.38999999966,"y":2543208.5100000016}},{"attributes":{"ID":363963,"DIS_CODE":0,"TOWNNAME":"永康區","LI":"\u25A0行里","LIN":"43鄰","STREET":"中正二街","SECT":" ","MAREA":" ","LANE":"２８５巷","ALLEY":" ","HOUSE_NO":"２３號","E_COORD97":171661.67999999999,"N_COORD97":2547966,"ADDRESS":"中正二街２８５巷２３號","OBJECTID":363953},"geometry":{"x":171661.68000000063,"y":2547966}},{"attributes":{"ID":363964,"DIS_CODE":0,"TOWNNAME":"永康區","LI":"\u25A0行里","LIN":"43鄰","STREET":"\u25A0和街","SECT":" ","MAREA":" ","LANE":"２６３巷","ALLEY":" ","HOUSE_NO":"６號","E_COORD97":171447.79000000001,"N_COORD97":2548439.2400000002,"ADDRESS":"\u25A0和街２６３巷６號","OBJECTID":363954},"geometry":{"x":171447.79000000097,"y":2548439.2400000002}},{"attributes":{"ID":363965,"DIS_CODE":0,"TOWNNAME":"永康區","LI":"崑山里","LIN":"43鄰","STREET":"大灣路","SECT":" ","MAREA":" ","LANE":"９４２巷","ALLEY":" ","HOUSE_NO":"４４３號","E_COORD97":173915.23999999999,"N_COORD97":2545359.04,"ADDRESS":"大灣路９４２巷４４３號","OBJECTID":363955},"geometry":{"x":173915.24000000115,"y":2545359.0400000028}},{"attributes":{"ID":363966,"DIS_CODE":0,"TOWNNAME":"永康區","LI":"崑山里","LIN":"43鄰","STREET":"大灣路","SECT":" ","MAREA":" ","LANE":"９４２巷","ALLEY":" ","HOUSE_NO":"３２９號","E_COORD97":173827.79999999999,"N_COORD97":2545099,"ADDRESS":"大灣路９４２巷３２９號","OBJECTID":363956},"geometry":{"x":173827.80000000075,"y":2545099.0000000037}},{"attributes":{"ID":363967,"DIS_CODE":0,"TOWNNAME":"永康區","LI":"崑山里","LIN":"43鄰","STREET":"大灣路","SECT":" ","MAREA":" ","LANE":"９４２巷","ALLEY":" ","HOUSE_NO":"３４３號","E_COORD97":173837.03,"N_COORD97":2545127.4900000002,"ADDRESS":"大灣路９４２巷３４３號","OBJECTID":363957},"geometry":{"x":173837.03000000119,"y":2545127.4900000021}},{"attributes":{"ID":363968,"DIS_CODE":0,"TOWNNAME":"永康區","LI":"崑山里","LIN":"43鄰","STREET":"大灣路","SECT":" ","MAREA":" ","LANE":"９４２巷","ALLEY":" ","HOUSE_NO":"３４９號","E_COORD97":173842.73999999999,"N_COORD97":2545138.2400000002,"ADDRESS":"大灣路９４２巷３４９號","OBJECTID":363958},"geometry":{"x":173842.74000000022,"y":2545138.2400000039}},{"attributes":{"ID":363969,"DIS_CODE":0,"TOWNNAME":"永康區","LI":"崑山里","LIN":"43鄰","STREET":"大灣路","SECT":" ","MAREA":" ","LANE":"９４２巷","ALLEY":" ","HOUSE_NO":"３５５號","E_COORD97":173846.69,"N_COORD97":2545149.9900000002,"ADDRESS":"大灣路９４２巷３５５號","OBJECTID":363959},"geometry":{"x":173846.69000000041,"y":2545149.9899999984}},{"attributes":{"ID":363970,"DIS_CODE":0,"TOWNNAME":"仁德區","LI":"仁義里","LIN":"44鄰","STREET":"中正路","SECT":"二段","MAREA":" ","LANE":"１０３４巷","ALLEY":" ","HOUSE_NO":"２１號","E_COORD97":173459.97,"N_COORD97":2540911,"ADDRESS":"中正路二段１０３４巷２１號","OBJECTID":363960},"geometry":{"x":173459.9700000016,"y":2540911}},{"attributes":{"ID":363971,"DIS_CODE":0,"TOWNNAME":"歸仁區","LI":"南保里","LIN":"44鄰","STREET":"民權十街","SECT":" ","MAREA":" ","LANE":"６３巷","ALLEY":" ","HOUSE_NO":"１５號","E_COORD97":176779.10999999999,"N_COORD97":2540688.2999999998,"ADDRESS":"民權十街６３巷１５號","OBJECTID":363961},"geometry":{"x":176779.11000000127,"y":2540688.3000000026}},{"attributes":{"ID":363972,"DIS_CODE":0,"TOWNNAME":"歸仁區","LI":"六甲里","LIN":"44鄰","STREET":"民生十二街","SECT":" ","MAREA":" ","LANE":"１１５巷","ALLEY":" ","HOUSE_NO":"５３號","E_COORD97":175785.75,"N_COORD97":2539317.7999999998,"ADDRESS":"民生十二街１１５巷５３號","OBJECTID":363962},"geometry":{"x":175785.75000000186,"y":2539317.8000000026}},{"attributes":{"ID":363973,"DIS_CODE":0,"TOWNNAME":"歸仁區","LI":"六甲里","LIN":"44鄰","STREET":"民生十二街","SECT":" ","MAREA":" ","LANE":"１１５巷","ALLEY":" ","HOUSE_NO":"９１號","E_COORD97":175799.35000000001,"N_COORD97":2539377.7999999998,"ADDRESS":"民生十二街１１５巷９１號","OBJECTID":363963},"geometry":{"x":175799.34999999963,"y":2539377.8000000007}},{"attributes":{"ID":363974,"DIS_CODE":0,"TOWNNAME":"東區","LI":"南聖里","LIN":"13鄰","STREET":"裕孝路","SECT":" ","MAREA":" ","LANE":" ","ALLEY":" ","HOUSE_NO":"４９之２號","E_COORD97":172451.44,"N_COORD97":2543213.1099999999,"ADDRESS":"裕孝路４９之２號","OBJECTID":363964},"geometry":{"x":172451.44000000041,"y":2543213.1100000013}},{"attributes":{"ID":363975,"DIS_CODE":0,"TOWNNAME":"東區","LI":"南聖里","LIN":"13鄰","STREET":"裕孝路","SECT":" ","MAREA":" ","LANE":" ","ALLEY":" ","HOUSE_NO":"４９之３號","E_COORD97":172457.09,"N_COORD97":2543209.6899999999,"ADDRESS":"裕孝路４９之３號","OBJECTID":363965},"geometry":{"x":172457.08999999985,"y":2543209.6900000013}},{"attributes":{"ID":363976,"DIS_CODE":0,"TOWNNAME":"東區","LI":"南聖里","LIN":"13鄰","STREET":"裕孝路","SECT":" ","MAREA":" ","LANE":" ","ALLEY":" ","HOUSE_NO":"４９之５號","E_COORD97":172461.56,"N_COORD97":2543212.96,"ADDRESS":"裕孝路４９之５號","OBJECTID":363966},"geometry":{"x":172461.55999999959,"y":2543212.9600000028}},{"attributes":{"ID":363977,"DIS_CODE":0,"TOWNNAME":"東區","LI":"南聖里","LIN":"13鄰","STREET":"裕孝路","SECT":" ","MAREA":" ","LANE":" ","ALLEY":" ","HOUSE_NO":"４９之６號","E_COORD97":172467.95000000001,"N_COORD97":2543210.7400000002,"ADDRESS":"裕孝路４９之６號","OBJECTID":363967},"geometry":{"x":172467.95000000019,"y":2543210.7400000021}},{"attributes":{"ID":363978,"DIS_CODE":0,"TOWNNAME":"東區","LI":"南聖里","LIN":"13鄰","STREET":"裕孝路","SECT":" ","MAREA":" ","LANE":" ","ALLEY":" ","HOUSE_NO":"４９之７號","E_COORD97":172472.26000000001,"N_COORD97":2543214.1499999999,"ADDRESS":"裕孝路４９之７號","OBJECTID":363968},"geometry":{"x":172472.25999999978,"y":2543214.1500000022}},{"attributes":{"ID":363979,"DIS_CODE":0,"TOWNNAME":"東區","LI":"南聖里","LIN":"13鄰","STREET":"裕孝路","SECT":" ","MAREA":" ","LANE":" ","ALLEY":" ","HOUSE_NO":"４９之８號","E_COORD97":172478.20999999999,"N_COORD97":2543211.9199999999,"ADDRESS":"裕孝路４９之８號","OBJECTID":363969},"geometry":{"x":172478.20999999996,"y":2543211.9200000018}},{"attributes":{"ID":363980,"DIS_CODE":0,"TOWNNAME":"東區","LI":"南聖里","LIN":"13鄰","STREET":"裕孝路","SECT":" ","MAREA":" ","LANE":" ","ALLEY":" ","HOUSE_NO":"４９之９號","E_COORD97":172482.82000000001,"N_COORD97":2543215.9399999999,"ADDRESS":"裕孝路４９之９號","OBJECTID":363970},"geometry":{"x":172482.8200000003,"y":2543215.9399999995}},{"attributes":{"ID":363981,"DIS_CODE":0,"TOWNNAME":"東區","LI":"南聖里","LIN":"13鄰","STREET":"裕孝路","SECT":" ","MAREA":" ","LANE":" ","ALLEY":" ","HOUSE_NO":"４９號","E_COORD97":172440.73000000001,"N_COORD97":2543211.48,"ADDRESS":"裕孝路４９號","OBJECTID":363971},"geometry":{"x":172440.73000000138,"y":2543211.4800000023}},{"attributes":{"ID":363982,"DIS_CODE":0,"TOWNNAME":"東區","LI":"南聖里","LIN":"13鄰","STREET":"裕孝路","SECT":" ","MAREA":" ","LANE":" ","ALLEY":" ","HOUSE_NO":"５１號","E_COORD97":172445,"N_COORD97":2543200.1200000001,"ADDRESS":"裕孝路５１號","OBJECTID":363972},"geometry":{"x":172445.00000000093,"y":2543200.120000001}},{"attributes":{"ID":363983,"DIS_CODE":0,"TOWNNAME":"永康區","LI":"崑山里","LIN":"43鄰","STREET":"大灣路","SECT":" ","MAREA":" ","LANE":"９４２巷","ALLEY":" ","HOUSE_NO":"３６９號","E_COORD97":173856.23000000001,"N_COORD97":2545177.75,"ADDRESS":"大灣路９４２巷３６９號","OBJECTID":363973},"geometry":{"x":173856.23000000138,"y":2545177.75}},{"attributes":{"ID":363984,"DIS_CODE":0,"TOWNNAME":"永康區","LI":"崑山里","LIN":"43鄰","STREET":"大灣路","SECT":" ","MAREA":" ","LANE":"９４２巷","ALLEY":" ","HOUSE_NO":"３３３號","E_COORD97":173830.25,"N_COORD97":2545107,"ADDRESS":"大灣路９４２巷３３３號","OBJECTID":363974},"geometry":{"x":173830.25000000093,"y":2545107.0000000019}},{"attributes":{"ID":363985,"DIS_CODE":0,"TOWNNAME":"永康區","LI":"崑山里","LIN":"43鄰","STREET":"大灣路","SECT":" ","MAREA":" ","LANE":"９４２巷","ALLEY":" ","HOUSE_NO":"４１３號","E_COORD97":173871.67000000001,"N_COORD97":2545301,"ADDRESS":"大灣路９４２巷４１３號","OBJECTID":363975},"geometry":{"x":173871.66999999993,"y":2545301}},{"attributes":{"ID":363986,"DIS_CODE":0,"TOWNNAME":"玉井區","LI":"玉田里","LIN":"43鄰","STREET":"忠孝街","SECT":" ","MAREA":" ","LANE":"９巷","ALLEY":" ","HOUSE_NO":"１９號","E_COORD97":195560.79000000001,"N_COORD97":2557693.2400000002,"ADDRESS":"忠孝街９巷１９號","OBJECTID":363976},"geometry":{"x":195560.79000000004,"y":2557693.2400000021}},{"attributes":{"ID":363987,"DIS_CODE":0,"TOWNNAME":"中西區","LI":"仙草里","LIN":"13鄰","STREET":"南寧街","SECT":" ","MAREA":" ","LANE":"８３巷","ALLEY":" ","HOUSE_NO":"３６號底層之１","E_COORD97":167810.01999999999,"N_COORD97":2542777.5899999999,"ADDRESS":"南寧街８３巷３６號底層之１","OBJECTID":363977},"geometry":{"x":167810.02000000048,"y":2542777.5899999999}},{"attributes":{"ID":363988,"DIS_CODE":0,"TOWNNAME":"中西區","LI":"仙草里","LIN":"13鄰","STREET":"南寧街","SECT":" ","MAREA":" ","LANE":"８３巷","ALLEY":" ","HOUSE_NO":"３６號底層之２","E_COORD97":167810.01999999999,"N_COORD97":2542777.5899999999,"ADDRESS":"南寧街８３巷３６號底層之２","OBJECTID":363978},"geometry":{"x":167810.02000000048,"y":2542777.5899999999}},{"attributes":{"ID":363989,"DIS_CODE":0,"TOWNNAME":"永康區","LI":"正強里","LIN":"44鄰","STREET":"中正路","SECT":" ","MAREA":" ","LANE":"２５６巷","ALLEY":" ","HOUSE_NO":"５號之１６","E_COORD97":173155.19,"N_COORD97":2547982.8799999999,"ADDRESS":"中正路２５６巷５號之１６","OBJECTID":363979},"geometry":{"x":173155.19000000041,"y":2547982.879999999}},{"attributes":{"ID":363990,"DIS_CODE":0,"TOWNNAME":"歸仁區","LI":"六甲里","LIN":"44鄰","STREET":"民生十二街","SECT":" ","MAREA":" ","LANE":"１１５巷","ALLEY":" ","HOUSE_NO":"５７號","E_COORD97":175785.64999999999,"N_COORD97":2539308.79,"ADDRESS":"民生十二街１１５巷５７號","OBJECTID":363980},"geometry":{"x":175785.6500000013,"y":2539308.7900000028}},{"attributes":{"ID":363991,"DIS_CODE":0,"TOWNNAME":"歸仁區","LI":"六甲里","LIN":"44鄰","STREET":"民生十二街","SECT":" ","MAREA":" ","LANE":"１１５巷","ALLEY":" ","HOUSE_NO":"７７號","E_COORD97":175798.14999999999,"N_COORD97":2539345.7999999998,"ADDRESS":"民生十二街１１５巷７７號","OBJECTID":363981},"geometry":{"x":175798.15000000037,"y":2539345.8000000026}},{"attributes":{"ID":363992,"DIS_CODE":0,"TOWNNAME":"歸仁區","LI":"六甲里","LIN":"44鄰","STREET":"民生十二街","SECT":" ","MAREA":" ","LANE":"１１５巷","ALLEY":" ","HOUSE_NO":"８５號","E_COORD97":175798.25,"N_COORD97":2539362.7999999998,"ADDRESS":"民生十二街１１５巷８５號","OBJECTID":363982},"geometry":{"x":175798.25000000093,"y":2539362.8000000026}},{"attributes":{"ID":363993,"DIS_CODE":0,"TOWNNAME":"歸仁區","LI":"六甲里","LIN":"44鄰","STREET":"民生十二街","SECT":" ","MAREA":" ","LANE":"１１５巷","ALLEY":" ","HOUSE_NO":"３３號","E_COORD97":175787.04999999999,"N_COORD97":2539371.7999999998,"ADDRESS":"民生十二街１１５巷３３號","OBJECTID":363983},"geometry":{"x":175787.05000000075,"y":2539371.8000000026}},{"attributes":{"ID":363994,"DIS_CODE":0,"TOWNNAME":"歸仁區","LI":"六甲里","LIN":"44鄰","STREET":"民生十二街","SECT":" ","MAREA":" ","LANE":"１１５巷","ALLEY":" ","HOUSE_NO":"１７號","E_COORD97":175792.35000000001,"N_COORD97":2539409.7999999998,"ADDRESS":"民生十二街１１５巷１７號","OBJECTID":363984},"geometry":{"x":175792.34999999963,"y":2539409.8000000026}},{"attributes":{"ID":363995,"DIS_CODE":0,"TOWNNAME":"歸仁區","LI":"六甲里","LIN":"44鄰","STREET":"民生十二街","SECT":" ","MAREA":" ","LANE":"１１５巷","ALLEY":" ","HOUSE_NO":"８７號","E_COORD97":175786.38,"N_COORD97":2539366.77,"ADDRESS":"民生十二街１１５巷８７號","OBJECTID":363985},"geometry":{"x":175786.38000000175,"y":2539366.7699999977}},{"attributes":{"ID":363996,"DIS_CODE":0,"TOWNNAME":"歸仁區","LI":"六甲里","LIN":"44鄰","STREET":"民生十二街","SECT":" ","MAREA":" ","LANE":"１１５巷","ALLEY":" ","HOUSE_NO":"８１號","E_COORD97":175798.25,"N_COORD97":2539353.7999999998,"ADDRESS":"民生十二街１１５巷８１號","OBJECTID":363986},"geometry":{"x":175798.25000000093,"y":2539353.8000000007}},{"attributes":{"ID":363997,"DIS_CODE":0,"TOWNNAME":"永康區","LI":"正強里","LIN":"44鄰","STREET":"中正路","SECT":" ","MAREA":" ","LANE":"２５６巷","ALLEY":" ","HOUSE_NO":"５號之１５","E_COORD97":173155.23999999999,"N_COORD97":2547982.8799999999,"ADDRESS":"中正路２５６巷５號之１５","OBJECTID":363987},"geometry":{"x":173155.24000000115,"y":2547982.879999999}},{"attributes":{"ID":363998,"DIS_CODE":0,"TOWNNAME":"歸仁區","LI":"六甲里","LIN":"44鄰","STREET":"民生十二街","SECT":" ","MAREA":" ","LANE":"１１５巷","ALLEY":" ","HOUSE_NO":"３７號","E_COORD97":175786.95000000001,"N_COORD97":2539361.7999999998,"ADDRESS":"民生十二街１１５巷３７號","OBJECTID":363988},"geometry":{"x":175786.95000000112,"y":2539361.8000000026}},{"attributes":{"ID":363999,"DIS_CODE":0,"TOWNNAME":"東區","LI":"南聖里","LIN":"13鄰","STREET":"裕孝路","SECT":" ","MAREA":" ","LANE":" ","ALLEY":" ","HOUSE_NO":"５３號","E_COORD97":172445.42000000001,"N_COORD97":2543194.5099999998,"ADDRESS":"裕孝路５３號","OBJECTID":363989},"geometry":{"x":172445.42000000086,"y":2543194.5100000016}},{"attributes":{"ID":364000,"DIS_CODE":0,"TOWNNAME":"東區","LI":"南聖里","LIN":"13鄰","STREET":"裕孝路","SECT":" ","MAREA":" ","LANE":" ","ALLEY":" ","HOUSE_NO":"５５號","E_COORD97":172458.88,"N_COORD97":2543195.2799999998,"ADDRESS":"裕孝路５５號","OBJECTID":363990},"geometry":{"x":172458.88000000175,"y":2543195.2800000012}},{"attributes":{"ID":364001,"DIS_CODE":0,"TOWNNAME":"東區","LI":"南聖里","LIN":"13鄰","STREET":"裕孝路","SECT":" ","MAREA":" ","LANE":" ","ALLEY":" ","HOUSE_NO":"５７號","E_COORD97":172464.53,"N_COORD97":2543199.29,"ADDRESS":"裕孝路５７號","OBJECTID":363991},"geometry":{"x":172464.53000000026,"y":2543199.2899999991}},{"attributes":{"ID":364002,"DIS_CODE":0,"TOWNNAME":"東區","LI":"南聖里","LIN":"13鄰","STREET":"裕孝路","SECT":" ","MAREA":" ","LANE":" ","ALLEY":" ","HOUSE_NO":"５９號","E_COORD97":172470.92999999999,"N_COORD97":2543195.5800000001,"ADDRESS":"裕孝路５９號","OBJECTID":363992},"geometry":{"x":172470.93000000063,"y":2543195.5800000001}},{"attributes":{"ID":364003,"DIS_CODE":0,"TOWNNAME":"東區","LI":"南聖里","LIN":"13鄰","STREET":"裕孝路","SECT":" ","MAREA":" ","LANE":" ","ALLEY":" ","HOUSE_NO":"６１號","E_COORD97":172477.17000000001,"N_COORD97":2543200.3300000001,"ADDRESS":"裕孝路６１號","OBJECTID":363993},"geometry":{"x":172477.17000000179,"y":2543200.3300000001}},{"attributes":{"ID":364004,"DIS_CODE":0,"TOWNNAME":"玉井區","LI":"玉田里","LIN":"43鄰","STREET":"忠孝街","SECT":" ","MAREA":" ","LANE":"９巷","ALLEY":" ","HOUSE_NO":"１５號","E_COORD97":195562.67999999999,"N_COORD97":2557702.25,"ADDRESS":"忠孝街９巷１５號","OBJECTID":363994},"geometry":{"x":195562.68000000063,"y":2557702.25}},{"attributes":{"ID":364005,"DIS_CODE":0,"TOWNNAME":"玉井區","LI":"玉田里","LIN":"43鄰","STREET":"忠孝街","SECT":" ","MAREA":" ","LANE":"９巷","ALLEY":" ","HOUSE_NO":"３號","E_COORD97":195569.13,"N_COORD97":2557731.25,"ADDRESS":"忠孝街９巷３號","OBJECTID":363995},"geometry":{"x":195569.12999999989,"y":2557731.2500000019}},{"attributes":{"ID":364006,"DIS_CODE":0,"TOWNNAME":"玉井區","LI":"玉田里","LIN":"43鄰","STREET":"忠孝街","SECT":" ","MAREA":" ","LANE":"９巷","ALLEY":" ","HOUSE_NO":"３５號","E_COORD97":195535.29000000001,"N_COORD97":2557680.2400000002,"ADDRESS":"忠孝街９巷３５號","OBJECTID":363996},"geometry":{"x":195535.29000000004,"y":2557680.2400000021}},{"attributes":{"ID":364007,"DIS_CODE":0,"TOWNNAME":"玉井區","LI":"玉田里","LIN":"43鄰","STREET":"忠孝街","SECT":" ","MAREA":" ","LANE":"９巷","ALLEY":" ","HOUSE_NO":"６號","E_COORD97":195550.73000000001,"N_COORD97":2557723.25,"ADDRESS":"忠孝街９巷６號","OBJECTID":363997},"geometry":{"x":195550.73000000138,"y":2557723.2500000037}},{"attributes":{"ID":364008,"DIS_CODE":0,"TOWNNAME":"仁德區","LI":"後壁里","LIN":"43鄰","STREET":"德崙路","SECT":" ","MAREA":" ","LANE":"２１巷","ALLEY":" ","HOUSE_NO":"８號七樓之１","E_COORD97":173297.32000000001,"N_COORD97":2538622.29,"ADDRESS":"德崙路２１巷８號七樓之１","OBJECTID":363998},"geometry":{"x":173297.32000000123,"y":2538622.2899999991}},{"attributes":{"ID":364009,"DIS_CODE":0,"TOWNNAME":"仁德區","LI":"後壁里","LIN":"43鄰","STREET":"德崙路","SECT":" ","MAREA":" ","LANE":"２１巷","ALLEY":" ","HOUSE_NO":"８號十一樓之１","E_COORD97":173298.57000000001,"N_COORD97":2538622.29,"ADDRESS":"德崙路２１巷８號十一樓之１","OBJECTID":363999},"geometry":{"x":173298.5700000003,"y":2538622.2899999991}},{"attributes":{"ID":364010,"DIS_CODE":0,"TOWNNAME":"仁德區","LI":"後壁里","LIN":"43鄰","STREET":"德崙路","SECT":" ","MAREA":" ","LANE":"２１巷","ALLEY":" ","HOUSE_NO":"８號七樓之３","E_COORD97":173297.42000000001,"N_COORD97":2538622.29,"ADDRESS":"德崙路２１巷８號七樓之３","OBJECTID":364000},"geometry":{"x":173297.41999999993,"y":2538622.2899999991}}]}