{"displayFieldName":"TOWNNAME","fieldAliases":{"ID":"ID","DIS_CODE":"DIS_CODE","TOWNNAME":"TOWNNAME","LI":"LI","LIN":"LIN","STREET":"STREET","SECT":"SECT","MAREA":"MAREA","LANE":"LANE","ALLEY":"ALLEY","HOUSE_NO":"HOUSE_NO","E_COORD97":"E_COORD97","N_COORD97":"N_COORD97","ADDRESS":"ADDRESS","OBJECTID":"OBJECTID"},"geometryType":"esriGeometryPoint","spatialReference":{"wkid":102443,"latestWkid":3826},"fields":[{"name":"ID","type":"esriFieldTypeDouble","alias":"ID"},{"name":"DIS_CODE","type":"esriFieldTypeInteger","alias":"DIS_CODE"},{"name":"TOWNNAME","type":"esriFieldTypeString","alias":"TOWNNAME","length":8},{"name":"LI","type":"esriFieldTypeString","alias":"LI","length":8},{"name":"LIN","type":"esriFieldTypeString","alias":"LIN","length":12},{"name":"STREET","type":"esriFieldTypeString","alias":"STREET","length":20},{"name":"SECT","type":"esriFieldTypeString","alias":"SECT","length":8},{"name":"MAREA","type":"esriFieldTypeString","alias":"MAREA","length":12},{"name":"LANE","type":"esriFieldTypeString","alias":"LANE","length":10},{"name":"ALLEY","type":"esriFieldTypeString","alias":"ALLEY","length":10},{"name":"HOUSE_NO","type":"esriFieldTypeString","alias":"HOUSE_NO","length":20},{"name":"E_COORD97","type":"esriFieldTypeDouble","alias":"E_COORD97"},{"name":"N_COORD97","type":"esriFieldTypeDouble","alias":"N_COORD97"},{"name":"ADDRESS","type":"esriFieldTypeString","alias":"ADDRESS","length":50},{"name":"OBJECTID","type":"esriFieldTypeOID","alias":"OBJECTID"}],"features":[{"attributes":{"ID":524428,"DIS_CODE":0,"TOWNNAME":"仁德區","LI":"保安里","LIN":"6鄰","STREET":"文賢路","SECT":"一段","MAREA":" ","LANE":" ","ALLEY":" ","HOUSE_NO":"７６５號","E_COORD97":171492.92000000001,"N_COORD97":2536169.5800000001,"ADDRESS":"文賢路一段７６５號","OBJECTID":524401},"geometry":{"x":171492.92000000086,"y":2536169.5800000019}},{"attributes":{"ID":524429,"DIS_CODE":0,"TOWNNAME":"仁德區","LI":"後壁里","LIN":"6鄰","STREET":"德善路","SECT":" ","MAREA":" ","LANE":" ","ALLEY":" ","HOUSE_NO":"１６１號","E_COORD97":173550.92999999999,"N_COORD97":2538828.2599999998,"ADDRESS":"德善路１６１號","OBJECTID":524402},"geometry":{"x":173550.9299999997,"y":2538828.2600000035}},{"attributes":{"ID":524430,"DIS_CODE":0,"TOWNNAME":"仁德區","LI":"新田里","LIN":"6鄰","STREET":"勝利二街","SECT":" ","MAREA":" ","LANE":" ","ALLEY":" ","HOUSE_NO":"２８號","E_COORD97":174858.12,"N_COORD97":2539332.25,"ADDRESS":"勝利二街２８號","OBJECTID":524403},"geometry":{"x":174858.12000000104,"y":2539332.25}},{"attributes":{"ID":524431,"DIS_CODE":0,"TOWNNAME":"仁德區","LI":"保安里","LIN":"6鄰","STREET":"文賢路","SECT":"一段","MAREA":" ","LANE":" ","ALLEY":" ","HOUSE_NO":"７２５之１號","E_COORD97":171444.66,"N_COORD97":2536269.5800000001,"ADDRESS":"文賢路一段７２５之１號","OBJECTID":524404},"geometry":{"x":171444.66000000015,"y":2536269.5800000001}},{"attributes":{"ID":524432,"DIS_CODE":0,"TOWNNAME":"仁德區","LI":"保安里","LIN":"6鄰","STREET":"文賢路","SECT":"一段","MAREA":" ","LANE":" ","ALLEY":" ","HOUSE_NO":"７２１號","E_COORD97":171434.37,"N_COORD97":2536283.0800000001,"ADDRESS":"文賢路一段７２１號","OBJECTID":524405},"geometry":{"x":171434.37000000011,"y":2536283.0800000001}},{"attributes":{"ID":524433,"DIS_CODE":0,"TOWNNAME":"仁德區","LI":"成功里","LIN":"6鄰","STREET":"成功三街","SECT":" ","MAREA":" ","LANE":" ","ALLEY":" ","HOUSE_NO":"１１號","E_COORD97":171166.76999999999,"N_COORD97":2540011.52,"ADDRESS":"成功三街１１號","OBJECTID":524406},"geometry":{"x":171166.76999999955,"y":2540011.5199999996}},{"attributes":{"ID":524434,"DIS_CODE":0,"TOWNNAME":"仁德區","LI":"新田里","LIN":"6鄰","STREET":"勝利二街","SECT":" ","MAREA":" ","LANE":" ","ALLEY":" ","HOUSE_NO":"３４號","E_COORD97":174849.60000000001,"N_COORD97":2539308.5099999998,"ADDRESS":"勝利二街３４號","OBJECTID":524407},"geometry":{"x":174849.60000000056,"y":2539308.5100000016}},{"attributes":{"ID":524435,"DIS_CODE":0,"TOWNNAME":"仁德區","LI":"新田里","LIN":"6鄰","STREET":"勝利二街","SECT":" ","MAREA":" ","LANE":" ","ALLEY":" ","HOUSE_NO":"３８號","E_COORD97":174843.62,"N_COORD97":2539293.0099999998,"ADDRESS":"勝利二街３８號","OBJECTID":524408},"geometry":{"x":174843.62000000011,"y":2539293.0099999998}},{"attributes":{"ID":524436,"DIS_CODE":0,"TOWNNAME":"仁德區","LI":"保安里","LIN":"6鄰","STREET":"文賢路","SECT":"一段","MAREA":" ","LANE":" ","ALLEY":" ","HOUSE_NO":"７２５號","E_COORD97":171438.92999999999,"N_COORD97":2536274.0800000001,"ADDRESS":"文賢路一段７２５號","OBJECTID":524409},"geometry":{"x":171438.9299999997,"y":2536274.0800000019}},{"attributes":{"ID":524437,"DIS_CODE":0,"TOWNNAME":"仁德區","LI":"新田里","LIN":"6鄰","STREET":"勝利二街","SECT":" ","MAREA":" ","LANE":" ","ALLEY":" ","HOUSE_NO":"３２號","E_COORD97":174852.17999999999,"N_COORD97":2539316.5,"ADDRESS":"勝利二街３２號","OBJECTID":524410},"geometry":{"x":174852.18000000063,"y":2539316.5000000019}},{"attributes":{"ID":524438,"DIS_CODE":0,"TOWNNAME":"仁德區","LI":"新田里","LIN":"6鄰","STREET":"勝利二街","SECT":" ","MAREA":" ","LANE":" ","ALLEY":" ","HOUSE_NO":"３６號","E_COORD97":174846.48000000001,"N_COORD97":2539301.0099999998,"ADDRESS":"勝利二街３６號","OBJECTID":524411},"geometry":{"x":174846.48000000045,"y":2539301.0100000035}},{"attributes":{"ID":524439,"DIS_CODE":0,"TOWNNAME":"永康區","LI":"蔦松里","LIN":"6鄰","STREET":"蔦松一街","SECT":" ","MAREA":" ","LANE":" ","ALLEY":" ","HOUSE_NO":"１８２號","E_COORD97":173692.73999999999,"N_COORD97":2549648.9500000002,"ADDRESS":"蔦松一街１８２號","OBJECTID":524412},"geometry":{"x":173692.74000000115,"y":2549648.9500000011}},{"attributes":{"ID":524440,"DIS_CODE":0,"TOWNNAME":"永康區","LI":"蔦松里","LIN":"6鄰","STREET":"蔦松一街","SECT":" ","MAREA":" ","LANE":" ","ALLEY":" ","HOUSE_NO":"１８８號","E_COORD97":173685.22,"N_COORD97":2549657.25,"ADDRESS":"蔦松一街１８８號","OBJECTID":524413},"geometry":{"x":173685.21999999881,"y":2549657.2500000037}},{"attributes":{"ID":524441,"DIS_CODE":0,"TOWNNAME":"永康區","LI":"蔦松里","LIN":"6鄰","STREET":"蔦松三街","SECT":" ","MAREA":" ","LANE":" ","ALLEY":" ","HOUSE_NO":"１２０之１號","E_COORD97":173889.57999999999,"N_COORD97":2549668.54,"ADDRESS":"蔦松三街１２０之１號","OBJECTID":524414},"geometry":{"x":173889.58000000007,"y":2549668.540000001}},{"attributes":{"ID":524442,"DIS_CODE":0,"TOWNNAME":"永康區","LI":"蔦松里","LIN":"6鄰","STREET":"蔦松三街","SECT":" ","MAREA":" ","LANE":" ","ALLEY":" ","HOUSE_NO":"２２號","E_COORD97":173769.09,"N_COORD97":2549583.96,"ADDRESS":"蔦松三街２２號","OBJECTID":524415},"geometry":{"x":173769.08999999985,"y":2549583.9600000028}},{"attributes":{"ID":524443,"DIS_CODE":0,"TOWNNAME":"永康區","LI":"烏竹里","LIN":"6鄰","STREET":"龍橋街","SECT":" ","MAREA":" ","LANE":" ","ALLEY":" ","HOUSE_NO":"４３２之２號","E_COORD97":174434.42000000001,"N_COORD97":2549251.9199999999,"ADDRESS":"龍橋街４３２之２號","OBJECTID":524416},"geometry":{"x":174434.41999999993,"y":2549251.9199999999}},{"attributes":{"ID":524444,"DIS_CODE":0,"TOWNNAME":"永康區","LI":"六合里","LIN":"6鄰","STREET":"六合路","SECT":" ","MAREA":" ","LANE":" ","ALLEY":" ","HOUSE_NO":"８３號之２","E_COORD97":171152.29000000001,"N_COORD97":2545773.79,"ADDRESS":"六合路８３號之２","OBJECTID":524417},"geometry":{"x":171152.29000000004,"y":2545773.7899999991}},{"attributes":{"ID":524445,"DIS_CODE":0,"TOWNNAME":"永康區","LI":"六合里","LIN":"6鄰","STREET":"六合路","SECT":" ","MAREA":" ","LANE":" ","ALLEY":" ","HOUSE_NO":"８３號之３","E_COORD97":171150.03,"N_COORD97":2545778.04,"ADDRESS":"六合路８３號之３","OBJECTID":524418},"geometry":{"x":171150.03000000119,"y":2545778.0399999991}},{"attributes":{"ID":524446,"DIS_CODE":0,"TOWNNAME":"下營區","LI":"新興里","LIN":"6鄰","STREET":"慈惠街","SECT":" ","MAREA":" ","LANE":" ","ALLEY":" ","HOUSE_NO":"４６號","E_COORD97":175114.48999999999,"N_COORD97":2570602.3599999999,"ADDRESS":"慈惠街４６號","OBJECTID":524419},"geometry":{"x":175114.49000000022,"y":2570602.3600000013}},{"attributes":{"ID":524447,"DIS_CODE":0,"TOWNNAME":"新化區","LI":"武安里","LIN":"6鄰","STREET":"信義路","SECT":" ","MAREA":" ","LANE":" ","ALLEY":" ","HOUSE_NO":"２４７號","E_COORD97":179062.53,"N_COORD97":2548309.25,"ADDRESS":"信義路２４７號","OBJECTID":524420},"geometry":{"x":179062.53000000212,"y":2548309.2500000019}},{"attributes":{"ID":524448,"DIS_CODE":0,"TOWNNAME":"新化區","LI":"中央里","LIN":"6鄰","STREET":"信義路","SECT":" ","MAREA":" ","LANE":" ","ALLEY":" ","HOUSE_NO":"２９８號","E_COORD97":178957.23000000001,"N_COORD97":2548314.25,"ADDRESS":"信義路２９８號","OBJECTID":524421},"geometry":{"x":178957.23000000045,"y":2548314.25}},{"attributes":{"ID":524449,"DIS_CODE":0,"TOWNNAME":"新化區","LI":"護國里","LIN":"6鄰","STREET":"建國街","SECT":" ","MAREA":" ","LANE":" ","ALLEY":" ","HOUSE_NO":"４號","E_COORD97":179246.63,"N_COORD97":2548508.2599999998,"ADDRESS":"建國街４號","OBJECTID":524422},"geometry":{"x":179246.63000000082,"y":2548508.2600000016}},{"attributes":{"ID":524450,"DIS_CODE":0,"TOWNNAME":"新化區","LI":"清水里","LIN":"6鄰","STREET":"民權街","SECT":" ","MAREA":" ","LANE":" ","ALLEY":" ","HOUSE_NO":"２３號","E_COORD97":178750.95999999999,"N_COORD97":2548495.25,"ADDRESS":"民權街２３號","OBJECTID":524423},"geometry":{"x":178750.96000000183,"y":2548495.2500000019}},{"attributes":{"ID":524451,"DIS_CODE":0,"TOWNNAME":"新化區","LI":"觀音里","LIN":"6鄰","STREET":"中正路","SECT":" ","MAREA":" ","LANE":" ","ALLEY":" ","HOUSE_NO":"５５３號","E_COORD97":178993.60999999999,"N_COORD97":2548680.25,"ADDRESS":"中正路５５３號","OBJECTID":524424},"geometry":{"x":178993.61000000034,"y":2548680.25}},{"attributes":{"ID":524452,"DIS_CODE":0,"TOWNNAME":"新化區","LI":"太平里","LIN":"6鄰","STREET":"民生路","SECT":" ","MAREA":" ","LANE":" ","ALLEY":" ","HOUSE_NO":"２９４號","E_COORD97":178949.70999999999,"N_COORD97":2549175.2400000002,"ADDRESS":"民生路２９４號","OBJECTID":524425},"geometry":{"x":178949.71000000089,"y":2549175.2400000002}},{"attributes":{"ID":524453,"DIS_CODE":0,"TOWNNAME":"新化區","LI":"太平里","LIN":"6鄰","STREET":"民生路","SECT":" ","MAREA":" ","LANE":" ","ALLEY":" ","HOUSE_NO":"２９６號","E_COORD97":178947.41,"N_COORD97":2549178.25,"ADDRESS":"民生路２９６號","OBJECTID":524426},"geometry":{"x":178947.41000000015,"y":2549178.25}},{"attributes":{"ID":524454,"DIS_CODE":0,"TOWNNAME":"佳里區","LI":"忠仁里","LIN":"6鄰","STREET":"博愛街","SECT":" ","MAREA":" ","LANE":" ","ALLEY":" ","HOUSE_NO":"１０９號","E_COORD97":165825.37,"N_COORD97":2561977.6299999999,"ADDRESS":"博愛街１０９號","OBJECTID":524427},"geometry":{"x":165825.37000000011,"y":2561977.6300000027}},{"attributes":{"ID":524455,"DIS_CODE":0,"TOWNNAME":"佳里區","LI":"忠仁里","LIN":"6鄰","STREET":"博愛街","SECT":" ","MAREA":" ","LANE":" ","ALLEY":" ","HOUSE_NO":"１１１號","E_COORD97":165819.62,"N_COORD97":2561976.6299999999,"ADDRESS":"博愛街１１１號","OBJECTID":524428},"geometry":{"x":165819.62000000104,"y":2561976.629999999}},{"attributes":{"ID":524456,"DIS_CODE":0,"TOWNNAME":"佳里區","LI":"忠仁里","LIN":"6鄰","STREET":"博愛街","SECT":" ","MAREA":" ","LANE":" ","ALLEY":" ","HOUSE_NO":"１１３號","E_COORD97":165815.44,"N_COORD97":2561976.0800000001,"ADDRESS":"博愛街１１３號","OBJECTID":524429},"geometry":{"x":165815.44000000227,"y":2561976.0800000038}},{"attributes":{"ID":524457,"DIS_CODE":0,"TOWNNAME":"佳里區","LI":"忠仁里","LIN":"6鄰","STREET":"博愛街","SECT":" ","MAREA":" ","LANE":" ","ALLEY":" ","HOUSE_NO":"１１５號","E_COORD97":165811.60000000001,"N_COORD97":2561975.54,"ADDRESS":"博愛街１１５號","OBJECTID":524430},"geometry":{"x":165811.59999999963,"y":2561975.540000001}},{"attributes":{"ID":524458,"DIS_CODE":0,"TOWNNAME":"佳里區","LI":"忠仁里","LIN":"6鄰","STREET":"博愛街","SECT":" ","MAREA":" ","LANE":" ","ALLEY":" ","HOUSE_NO":"１１７號","E_COORD97":165807.45999999999,"N_COORD97":2561974.7400000002,"ADDRESS":"博愛街１１７號","OBJECTID":524431},"geometry":{"x":165807.45999999996,"y":2561974.7399999984}},{"attributes":{"ID":524459,"DIS_CODE":0,"TOWNNAME":"佳里區","LI":"忠仁里","LIN":"6鄰","STREET":"博愛街","SECT":" ","MAREA":" ","LANE":" ","ALLEY":" ","HOUSE_NO":"１１９號","E_COORD97":165803.85000000001,"N_COORD97":2561974.2200000002,"ADDRESS":"博愛街１１９號","OBJECTID":524432},"geometry":{"x":165803.85000000056,"y":2561974.2200000007}},{"attributes":{"ID":524460,"DIS_CODE":0,"TOWNNAME":"學甲區","LI":"新達里","LIN":"6鄰","STREET":"中山路","SECT":" ","MAREA":" ","LANE":" ","ALLEY":" ","HOUSE_NO":"５６號","E_COORD97":166420.88,"N_COORD97":2570455.7599999998,"ADDRESS":"中山路５６號","OBJECTID":524433},"geometry":{"x":166420.88000000082,"y":2570455.7599999998}},{"attributes":{"ID":524461,"DIS_CODE":0,"TOWNNAME":"學甲區","LI":"新達里","LIN":"6鄰","STREET":"中山路","SECT":" ","MAREA":" ","LANE":" ","ALLEY":" ","HOUSE_NO":"５８號","E_COORD97":166414.13,"N_COORD97":2570456.3999999999,"ADDRESS":"中山路５８號","OBJECTID":524434},"geometry":{"x":166414.13000000082,"y":2570456.4000000004}},{"attributes":{"ID":524462,"DIS_CODE":0,"TOWNNAME":"學甲區","LI":"新達里","LIN":"6鄰","STREET":"中山路","SECT":" ","MAREA":" ","LANE":" ","ALLEY":" ","HOUSE_NO":"６０號之１","E_COORD97":166411.03,"N_COORD97":2570456.6000000001,"ADDRESS":"中山路６０號之１","OBJECTID":524435},"geometry":{"x":166411.03000000026,"y":2570456.5999999996}},{"attributes":{"ID":524463,"DIS_CODE":0,"TOWNNAME":"學甲區","LI":"新達里","LIN":"6鄰","STREET":"中山路","SECT":" ","MAREA":" ","LANE":" ","ALLEY":" ","HOUSE_NO":"６０號","E_COORD97":166406.73999999999,"N_COORD97":2570457.9700000002,"ADDRESS":"中山路６０號","OBJECTID":524436},"geometry":{"x":166406.74000000115,"y":2570457.9700000025}},{"attributes":{"ID":524464,"DIS_CODE":0,"TOWNNAME":"學甲區","LI":"新達里","LIN":"6鄰","STREET":"中山路","SECT":" ","MAREA":" ","LANE":" ","ALLEY":" ","HOUSE_NO":"６２號之１","E_COORD97":166396.51999999999,"N_COORD97":2570459.3300000001,"ADDRESS":"中山路６２號之１","OBJECTID":524437},"geometry":{"x":166396.51999999955,"y":2570459.3300000001}},{"attributes":{"ID":524465,"DIS_CODE":0,"TOWNNAME":"學甲區","LI":"新達里","LIN":"6鄰","STREET":"中山路","SECT":" ","MAREA":" ","LANE":" ","ALLEY":" ","HOUSE_NO":"６６號","E_COORD97":166386.44,"N_COORD97":2570462.6499999999,"ADDRESS":"中山路６６號","OBJECTID":524438},"geometry":{"x":166386.44000000041,"y":2570462.6500000022}},{"attributes":{"ID":524466,"DIS_CODE":0,"TOWNNAME":"學甲區","LI":"新達里","LIN":"6鄰","STREET":"中山路","SECT":" ","MAREA":" ","LANE":" ","ALLEY":" ","HOUSE_NO":"６８號","E_COORD97":166371.44,"N_COORD97":2570463.5600000001,"ADDRESS":"中山路６８號","OBJECTID":524439},"geometry":{"x":166371.44000000227,"y":2570463.5600000024}},{"attributes":{"ID":524467,"DIS_CODE":0,"TOWNNAME":"學甲區","LI":"新達里","LIN":"6鄰","STREET":"中學路","SECT":" ","MAREA":" ","LANE":" ","ALLEY":" ","HOUSE_NO":"７１號","E_COORD97":166452.47,"N_COORD97":2570712.7200000002,"ADDRESS":"中學路７１號","OBJECTID":524440},"geometry":{"x":166452.47000000067,"y":2570712.7200000044}},{"attributes":{"ID":524468,"DIS_CODE":0,"TOWNNAME":"學甲區","LI":"新達里","LIN":"6鄰","STREET":"中學路","SECT":" ","MAREA":" ","LANE":" ","ALLEY":" ","HOUSE_NO":"７３號","E_COORD97":166447.48999999999,"N_COORD97":2570713.3599999999,"ADDRESS":"中學路７３號","OBJECTID":524441},"geometry":{"x":166447.49000000115,"y":2570713.3599999975}},{"attributes":{"ID":524469,"DIS_CODE":0,"TOWNNAME":"學甲區","LI":"新達里","LIN":"6鄰","STREET":"中學路","SECT":" ","MAREA":" ","LANE":" ","ALLEY":" ","HOUSE_NO":"７５號","E_COORD97":166442.66,"N_COORD97":2570714.1600000001,"ADDRESS":"中學路７５號","OBJECTID":524442},"geometry":{"x":166442.66000000201,"y":2570714.1600000001}},{"attributes":{"ID":524470,"DIS_CODE":0,"TOWNNAME":"學甲區","LI":"新達里","LIN":"6鄰","STREET":"中學路","SECT":" ","MAREA":" ","LANE":" ","ALLEY":" ","HOUSE_NO":"７７號","E_COORD97":166437.44,"N_COORD97":2570715.52,"ADDRESS":"中學路７７號","OBJECTID":524443},"geometry":{"x":166437.44000000041,"y":2570715.5199999996}},{"attributes":{"ID":524471,"DIS_CODE":0,"TOWNNAME":"學甲區","LI":"新榮里","LIN":"6鄰","STREET":"仁安街","SECT":" ","MAREA":" ","LANE":" ","ALLEY":" ","HOUSE_NO":"１０９號","E_COORD97":165862.69,"N_COORD97":2569322.9199999999,"ADDRESS":"仁安街１０９號","OBJECTID":524444},"geometry":{"x":165862.69000000041,"y":2569322.9199999999}},{"attributes":{"ID":524472,"DIS_CODE":0,"TOWNNAME":"學甲區","LI":"新榮里","LIN":"6鄰","STREET":"仁安街","SECT":" ","MAREA":" ","LANE":" ","ALLEY":" ","HOUSE_NO":"１１１號","E_COORD97":165858.56,"N_COORD97":2569325.8999999999,"ADDRESS":"仁安街１１１號","OBJECTID":524445},"geometry":{"x":165858.56000000052,"y":2569325.9000000022}},{"attributes":{"ID":524473,"DIS_CODE":0,"TOWNNAME":"學甲區","LI":"新榮里","LIN":"6鄰","STREET":"仁安街","SECT":" ","MAREA":" ","LANE":" ","ALLEY":" ","HOUSE_NO":"１１７號","E_COORD97":165847.29999999999,"N_COORD97":2569335.7000000002,"ADDRESS":"仁安街１１７號","OBJECTID":524446},"geometry":{"x":165847.29999999981,"y":2569335.7000000011}},{"attributes":{"ID":524474,"DIS_CODE":0,"TOWNNAME":"學甲區","LI":"新榮里","LIN":"6鄰","STREET":"仁安街","SECT":" ","MAREA":" ","LANE":" ","ALLEY":" ","HOUSE_NO":"１１９號","E_COORD97":165843.04000000001,"N_COORD97":2569338.7799999998,"ADDRESS":"仁安街１１９號","OBJECTID":524447},"geometry":{"x":165843.04000000004,"y":2569338.7800000012}},{"attributes":{"ID":524475,"DIS_CODE":0,"TOWNNAME":"學甲區","LI":"新榮里","LIN":"6鄰","STREET":"仁安街","SECT":" ","MAREA":" ","LANE":" ","ALLEY":" ","HOUSE_NO":"１２１號","E_COORD97":165839.04999999999,"N_COORD97":2569341.98,"ADDRESS":"仁安街１２１號","OBJECTID":524448},"geometry":{"x":165839.04999999981,"y":2569341.9800000023}},{"attributes":{"ID":524476,"DIS_CODE":0,"TOWNNAME":"學甲區","LI":"新榮里","LIN":"6鄰","STREET":"仁安街","SECT":" ","MAREA":" ","LANE":" ","ALLEY":" ","HOUSE_NO":"２９號之１","E_COORD97":166063.63,"N_COORD97":2569167.2599999998,"ADDRESS":"仁安街２９號之１","OBJECTID":524449},"geometry":{"x":166063.63000000082,"y":2569167.2599999998}},{"attributes":{"ID":524477,"DIS_CODE":0,"TOWNNAME":"學甲區","LI":"新榮里","LIN":"6鄰","STREET":"仁安街","SECT":" ","MAREA":" ","LANE":" ","ALLEY":" ","HOUSE_NO":"５７號","E_COORD97":165999.48000000001,"N_COORD97":2569211.79,"ADDRESS":"仁安街５７號","OBJECTID":524450},"geometry":{"x":165999.48000000045,"y":2569211.7900000028}},{"attributes":{"ID":524478,"DIS_CODE":0,"TOWNNAME":"學甲區","LI":"新榮里","LIN":"6鄰","STREET":"仁安街","SECT":" ","MAREA":" ","LANE":" ","ALLEY":" ","HOUSE_NO":"５號","E_COORD97":166108.37,"N_COORD97":2569124.6899999999,"ADDRESS":"仁安街５號","OBJECTID":524451},"geometry":{"x":166108.37000000011,"y":2569124.6900000032}},{"attributes":{"ID":524479,"DIS_CODE":0,"TOWNNAME":"學甲區","LI":"新榮里","LIN":"6鄰","STREET":"仁安街","SECT":" ","MAREA":" ","LANE":" ","ALLEY":" ","HOUSE_NO":"６１號","E_COORD97":165991.81,"N_COORD97":2569217.0600000001,"ADDRESS":"仁安街６１號","OBJECTID":524452},"geometry":{"x":165991.81000000145,"y":2569217.0600000005}},{"attributes":{"ID":524480,"DIS_CODE":0,"TOWNNAME":"學甲區","LI":"新榮里","LIN":"6鄰","STREET":"仁安街","SECT":" ","MAREA":" ","LANE":" ","ALLEY":" ","HOUSE_NO":"６３號","E_COORD97":165987.39000000001,"N_COORD97":2569220.23,"ADDRESS":"仁安街６３號","OBJECTID":524453},"geometry":{"x":165987.38999999966,"y":2569220.2299999986}},{"attributes":{"ID":524481,"DIS_CODE":0,"TOWNNAME":"學甲區","LI":"新榮里","LIN":"6鄰","STREET":"仁安街","SECT":" ","MAREA":" ","LANE":" ","ALLEY":" ","HOUSE_NO":"６５號","E_COORD97":165983.76000000001,"N_COORD97":2569223.4399999999,"ADDRESS":"仁安街６５號","OBJECTID":524454},"geometry":{"x":165983.76000000164,"y":2569223.4399999995}},{"attributes":{"ID":524482,"DIS_CODE":0,"TOWNNAME":"學甲區","LI":"新榮里","LIN":"6鄰","STREET":"仁安街","SECT":" ","MAREA":" ","LANE":" ","ALLEY":" ","HOUSE_NO":"６７號","E_COORD97":165979.94,"N_COORD97":2569226.6200000001,"ADDRESS":"仁安街６７號","OBJECTID":524455},"geometry":{"x":165979.94000000227,"y":2569226.6200000029}},{"attributes":{"ID":524483,"DIS_CODE":0,"TOWNNAME":"學甲區","LI":"新榮里","LIN":"6鄰","STREET":"仁安街","SECT":" ","MAREA":" ","LANE":" ","ALLEY":" ","HOUSE_NO":"６９號","E_COORD97":165976.81,"N_COORD97":2569230.8999999999,"ADDRESS":"仁安街６９號","OBJECTID":524456},"geometry":{"x":165976.81000000052,"y":2569230.9000000022}},{"attributes":{"ID":524484,"DIS_CODE":0,"TOWNNAME":"學甲區","LI":"新榮里","LIN":"6鄰","STREET":"仁安街","SECT":" ","MAREA":" ","LANE":" ","ALLEY":" ","HOUSE_NO":"７１號","E_COORD97":165972.5,"N_COORD97":2569233.3599999999,"ADDRESS":"仁安街７１號","OBJECTID":524457},"geometry":{"x":165972.50000000093,"y":2569233.3600000013}},{"attributes":{"ID":524485,"DIS_CODE":0,"TOWNNAME":"學甲區","LI":"新榮里","LIN":"6鄰","STREET":"仁安街","SECT":" ","MAREA":" ","LANE":" ","ALLEY":" ","HOUSE_NO":"７３號","E_COORD97":165968.42999999999,"N_COORD97":2569237.1099999999,"ADDRESS":"仁安街７３號","OBJECTID":524458},"geometry":{"x":165968.4299999997,"y":2569237.1100000031}},{"attributes":{"ID":524486,"DIS_CODE":0,"TOWNNAME":"學甲區","LI":"新榮里","LIN":"6鄰","STREET":"仁安街","SECT":" ","MAREA":" ","LANE":" ","ALLEY":" ","HOUSE_NO":"７５號","E_COORD97":165965.01000000001,"N_COORD97":2569240.1200000001,"ADDRESS":"仁安街７５號","OBJECTID":524459},"geometry":{"x":165965.00999999978,"y":2569240.1200000029}},{"attributes":{"ID":524487,"DIS_CODE":0,"TOWNNAME":"學甲區","LI":"新榮里","LIN":"6鄰","STREET":"仁安街","SECT":" ","MAREA":" ","LANE":" ","ALLEY":" ","HOUSE_NO":"７７號","E_COORD97":165961.20999999999,"N_COORD97":2569243.1099999999,"ADDRESS":"仁安街７７號","OBJECTID":524460},"geometry":{"x":165961.21000000089,"y":2569243.1099999994}},{"attributes":{"ID":524488,"DIS_CODE":0,"TOWNNAME":"學甲區","LI":"新榮里","LIN":"6鄰","STREET":"仁安街","SECT":" ","MAREA":" ","LANE":" ","ALLEY":" ","HOUSE_NO":"７９號","E_COORD97":165957.07000000001,"N_COORD97":2569246.0899999999,"ADDRESS":"仁安街７９號","OBJECTID":524461},"geometry":{"x":165957.07000000123,"y":2569246.0900000017}},{"attributes":{"ID":524489,"DIS_CODE":0,"TOWNNAME":"學甲區","LI":"新榮里","LIN":"6鄰","STREET":"仁安街","SECT":" ","MAREA":" ","LANE":" ","ALLEY":" ","HOUSE_NO":"８１號","E_COORD97":165952.72,"N_COORD97":2569249.2599999998,"ADDRESS":"仁安街８１號","OBJECTID":524462},"geometry":{"x":165952.71999999974,"y":2569249.2599999998}},{"attributes":{"ID":524490,"DIS_CODE":0,"TOWNNAME":"學甲區","LI":"新榮里","LIN":"6鄰","STREET":"仁安街","SECT":" ","MAREA":" ","LANE":" ","ALLEY":" ","HOUSE_NO":"８３號","E_COORD97":165948.88,"N_COORD97":2569252.25,"ADDRESS":"仁安街８３號","OBJECTID":524463},"geometry":{"x":165948.87999999989,"y":2569252.25}},{"attributes":{"ID":524491,"DIS_CODE":0,"TOWNNAME":"學甲區","LI":"新榮里","LIN":"6鄰","STREET":"仁安街","SECT":" ","MAREA":" ","LANE":" ","ALLEY":" ","HOUSE_NO":"８５號","E_COORD97":165944.95000000001,"N_COORD97":2569255.1899999999,"ADDRESS":"仁安街８５號","OBJECTID":524464},"geometry":{"x":165944.95000000019,"y":2569255.1900000013}},{"attributes":{"ID":524492,"DIS_CODE":0,"TOWNNAME":"學甲區","LI":"新榮里","LIN":"6鄰","STREET":"仁安街","SECT":" ","MAREA":" ","LANE":" ","ALLEY":" ","HOUSE_NO":"８７號","E_COORD97":165940.76999999999,"N_COORD97":2569258.2999999998,"ADDRESS":"仁安街８７號","OBJECTID":524465},"geometry":{"x":165940.76999999955,"y":2569258.3000000026}},{"attributes":{"ID":524493,"DIS_CODE":0,"TOWNNAME":"學甲區","LI":"新榮里","LIN":"6鄰","STREET":"仁安街","SECT":" ","MAREA":" ","LANE":" ","ALLEY":" ","HOUSE_NO":"８９號","E_COORD97":165936.67999999999,"N_COORD97":2569261.3900000001,"ADDRESS":"仁安街８９號","OBJECTID":524466},"geometry":{"x":165936.6799999997,"y":2569261.3900000025}},{"attributes":{"ID":524494,"DIS_CODE":0,"TOWNNAME":"學甲區","LI":"新榮里","LIN":"6鄰","STREET":"仁安街","SECT":" ","MAREA":" ","LANE":" ","ALLEY":" ","HOUSE_NO":"９１號","E_COORD97":165932.78,"N_COORD97":2569264.54,"ADDRESS":"仁安街９１號","OBJECTID":524467},"geometry":{"x":165932.78000000026,"y":2569264.5400000028}},{"attributes":{"ID":524495,"DIS_CODE":0,"TOWNNAME":"學甲區","LI":"新榮里","LIN":"6鄰","STREET":"仁安街","SECT":" ","MAREA":" ","LANE":" ","ALLEY":" ","HOUSE_NO":"９３號","E_COORD97":165928.79000000001,"N_COORD97":2569267.71,"ADDRESS":"仁安街９３號","OBJECTID":524468},"geometry":{"x":165928.79000000097,"y":2569267.7100000009}},{"attributes":{"ID":524496,"DIS_CODE":0,"TOWNNAME":"學甲區","LI":"新榮里","LIN":"6鄰","STREET":"仁利街","SECT":" ","MAREA":" ","LANE":" ","ALLEY":" ","HOUSE_NO":"４８號","E_COORD97":165996.76000000001,"N_COORD97":2569114.3399999999,"ADDRESS":"仁利街４８號","OBJECTID":524469},"geometry":{"x":165996.75999999978,"y":2569114.3400000017}},{"attributes":{"ID":524497,"DIS_CODE":0,"TOWNNAME":"學甲區","LI":"新榮里","LIN":"6鄰","STREET":"仁利街","SECT":" ","MAREA":" ","LANE":" ","ALLEY":" ","HOUSE_NO":"５０號","E_COORD97":165992.92999999999,"N_COORD97":2569117.6299999999,"ADDRESS":"仁利街５０號","OBJECTID":524470},"geometry":{"x":165992.93000000063,"y":2569117.6299999971}},{"attributes":{"ID":524498,"DIS_CODE":0,"TOWNNAME":"學甲區","LI":"新榮里","LIN":"6鄰","STREET":"仁利街","SECT":" ","MAREA":" ","LANE":" ","ALLEY":" ","HOUSE_NO":"５２號","E_COORD97":165989.48999999999,"N_COORD97":2569121.4700000002,"ADDRESS":"仁利街５２號","OBJECTID":524471},"geometry":{"x":165989.49000000209,"y":2569121.4700000025}},{"attributes":{"ID":524499,"DIS_CODE":0,"TOWNNAME":"學甲區","LI":"新榮里","LIN":"6鄰","STREET":"仁利街","SECT":" ","MAREA":" ","LANE":" ","ALLEY":" ","HOUSE_NO":"７２號","E_COORD97":165951.70000000001,"N_COORD97":2569152.8399999999,"ADDRESS":"仁利街７２號","OBJECTID":524472},"geometry":{"x":165951.70000000019,"y":2569152.8400000017}},{"attributes":{"ID":524500,"DIS_CODE":0,"TOWNNAME":"學甲區","LI":"新榮里","LIN":"6鄰","STREET":"仁利街","SECT":" ","MAREA":" ","LANE":" ","ALLEY":" ","HOUSE_NO":"８６號","E_COORD97":165932.39999999999,"N_COORD97":2569168.9700000002,"ADDRESS":"仁利街８６號","OBJECTID":524473},"geometry":{"x":165932.40000000037,"y":2569168.9700000025}},{"attributes":{"ID":524501,"DIS_CODE":0,"TOWNNAME":"學甲區","LI":"新榮里","LIN":"6鄰","STREET":"仁和街","SECT":" ","MAREA":" ","LANE":" ","ALLEY":" ","HOUSE_NO":"１００號","E_COORD97":165941.98999999999,"N_COORD97":2569228.7400000002,"ADDRESS":"仁和街１００號","OBJECTID":524474},"geometry":{"x":165941.99000000209,"y":2569228.7400000002}},{"attributes":{"ID":524502,"DIS_CODE":0,"TOWNNAME":"學甲區","LI":"新榮里","LIN":"6鄰","STREET":"仁和街","SECT":" ","MAREA":" ","LANE":" ","ALLEY":" ","HOUSE_NO":"１０２號","E_COORD97":165937.88,"N_COORD97":2569231.9100000001,"ADDRESS":"仁和街１０２號","OBJECTID":524475},"geometry":{"x":165937.88000000082,"y":2569231.9100000001}},{"attributes":{"ID":524503,"DIS_CODE":0,"TOWNNAME":"學甲區","LI":"新榮里","LIN":"6鄰","STREET":"仁和街","SECT":" ","MAREA":" ","LANE":" ","ALLEY":" ","HOUSE_NO":"１０６號","E_COORD97":165933.72,"N_COORD97":2569234.9300000002,"ADDRESS":"仁和街１０６號","OBJECTID":524476},"geometry":{"x":165933.72000000067,"y":2569234.9299999997}},{"attributes":{"ID":524504,"DIS_CODE":0,"TOWNNAME":"學甲區","LI":"新榮里","LIN":"6鄰","STREET":"仁和街","SECT":" ","MAREA":" ","LANE":" ","ALLEY":" ","HOUSE_NO":"１０８號","E_COORD97":165930,"N_COORD97":2569238.04,"ADDRESS":"仁和街１０８號","OBJECTID":524477},"geometry":{"x":165930.00000000186,"y":2569238.040000001}},{"attributes":{"ID":524505,"DIS_CODE":0,"TOWNNAME":"學甲區","LI":"新榮里","LIN":"6鄰","STREET":"仁和街","SECT":" ","MAREA":" ","LANE":" ","ALLEY":" ","HOUSE_NO":"１１０號","E_COORD97":165925.84,"N_COORD97":2569240.9500000002,"ADDRESS":"仁和街１１０號","OBJECTID":524478},"geometry":{"x":165925.84000000171,"y":2569240.9499999993}},{"attributes":{"ID":524506,"DIS_CODE":0,"TOWNNAME":"學甲區","LI":"新榮里","LIN":"6鄰","STREET":"仁和街","SECT":" ","MAREA":" ","LANE":" ","ALLEY":" ","HOUSE_NO":"１１２號","E_COORD97":165921.76000000001,"N_COORD97":2569243.8300000001,"ADDRESS":"仁和街１１２號","OBJECTID":524479},"geometry":{"x":165921.76000000071,"y":2569243.8300000019}},{"attributes":{"ID":524507,"DIS_CODE":0,"TOWNNAME":"學甲區","LI":"新榮里","LIN":"6鄰","STREET":"仁和街","SECT":" ","MAREA":" ","LANE":" ","ALLEY":" ","HOUSE_NO":"１３０號","E_COORD97":165854.64999999999,"N_COORD97":2569298.7599999998,"ADDRESS":"仁和街１３０號","OBJECTID":524480},"geometry":{"x":165854.65000000224,"y":2569298.7600000016}},{"attributes":{"ID":524508,"DIS_CODE":0,"TOWNNAME":"學甲區","LI":"新榮里","LIN":"6鄰","STREET":"仁和街","SECT":" ","MAREA":" ","LANE":" ","ALLEY":" ","HOUSE_NO":"１３２號","E_COORD97":165851.35999999999,"N_COORD97":2569301.1800000002,"ADDRESS":"仁和街１３２號","OBJECTID":524481},"geometry":{"x":165851.36000000034,"y":2569301.1799999978}},{"attributes":{"ID":524509,"DIS_CODE":0,"TOWNNAME":"學甲區","LI":"新榮里","LIN":"6鄰","STREET":"仁和街","SECT":" ","MAREA":" ","LANE":" ","ALLEY":" ","HOUSE_NO":"１３６號","E_COORD97":165847.51999999999,"N_COORD97":2569304.8199999998,"ADDRESS":"仁和街１３６號","OBJECTID":524482},"geometry":{"x":165847.51999999955,"y":2569304.8200000022}},{"attributes":{"ID":524510,"DIS_CODE":0,"TOWNNAME":"學甲區","LI":"新榮里","LIN":"6鄰","STREET":"仁和街","SECT":" ","MAREA":" ","LANE":" ","ALLEY":" ","HOUSE_NO":"１３８號","E_COORD97":165842.82000000001,"N_COORD97":2569307.2000000002,"ADDRESS":"仁和街１３８號","OBJECTID":524483},"geometry":{"x":165842.8200000003,"y":2569307.1999999993}},{"attributes":{"ID":524511,"DIS_CODE":0,"TOWNNAME":"學甲區","LI":"新榮里","LIN":"6鄰","STREET":"仁和街","SECT":" ","MAREA":" ","LANE":" ","ALLEY":" ","HOUSE_NO":"１４２號","E_COORD97":165835.95999999999,"N_COORD97":2569313.5699999998,"ADDRESS":"仁和街１４２號","OBJECTID":524484},"geometry":{"x":165835.96000000089,"y":2569313.5700000022}},{"attributes":{"ID":524512,"DIS_CODE":0,"TOWNNAME":"學甲區","LI":"新榮里","LIN":"6鄰","STREET":"仁和街","SECT":" ","MAREA":" ","LANE":" ","ALLEY":" ","HOUSE_NO":"１４８號","E_COORD97":165828.04000000001,"N_COORD97":2569319.96,"ADDRESS":"仁和街１４８號","OBJECTID":524485},"geometry":{"x":165828.0400000019,"y":2569319.9600000009}},{"attributes":{"ID":524513,"DIS_CODE":0,"TOWNNAME":"學甲區","LI":"新榮里","LIN":"6鄰","STREET":"仁和街","SECT":" ","MAREA":" ","LANE":" ","ALLEY":" ","HOUSE_NO":"１５０號","E_COORD97":165823.97,"N_COORD97":2569323.0699999998,"ADDRESS":"仁和街１５０號","OBJECTID":524486},"geometry":{"x":165823.96999999974,"y":2569323.070000004}},{"attributes":{"ID":524514,"DIS_CODE":0,"TOWNNAME":"學甲區","LI":"新榮里","LIN":"6鄰","STREET":"仁和街","SECT":" ","MAREA":" ","LANE":" ","ALLEY":" ","HOUSE_NO":"１５２號","E_COORD97":165820.14000000001,"N_COORD97":2569326.0499999998,"ADDRESS":"仁和街１５２號","OBJECTID":524487},"geometry":{"x":165820.14000000153,"y":2569326.0500000007}},{"attributes":{"ID":524515,"DIS_CODE":0,"TOWNNAME":"學甲區","LI":"新榮里","LIN":"6鄰","STREET":"仁和街","SECT":" ","MAREA":" ","LANE":" ","ALLEY":" ","HOUSE_NO":"１５６號","E_COORD97":165816.16,"N_COORD97":2569329.52,"ADDRESS":"仁和街１５６號","OBJECTID":524488},"geometry":{"x":165816.16000000108,"y":2569329.5200000033}},{"attributes":{"ID":524516,"DIS_CODE":0,"TOWNNAME":"學甲區","LI":"新榮里","LIN":"6鄰","STREET":"仁和街","SECT":" ","MAREA":" ","LANE":" ","ALLEY":" ","HOUSE_NO":"１５號","E_COORD97":166053.85000000001,"N_COORD97":2569102.6899999999,"ADDRESS":"仁和街１５號","OBJECTID":524489},"geometry":{"x":166053.84999999963,"y":2569102.6900000013}},{"attributes":{"ID":524517,"DIS_CODE":0,"TOWNNAME":"學甲區","LI":"新榮里","LIN":"6鄰","STREET":"仁和街","SECT":" ","MAREA":" ","LANE":" ","ALLEY":" ","HOUSE_NO":"１６０號","E_COORD97":165808.64000000001,"N_COORD97":2569335.8999999999,"ADDRESS":"仁和街１６０號","OBJECTID":524490},"geometry":{"x":165808.6400000006,"y":2569335.9000000022}},{"attributes":{"ID":524518,"DIS_CODE":0,"TOWNNAME":"學甲區","LI":"新榮里","LIN":"6鄰","STREET":"仁和街","SECT":" ","MAREA":" ","LANE":" ","ALLEY":" ","HOUSE_NO":"１６２號","E_COORD97":165804.82000000001,"N_COORD97":2569339.0899999999,"ADDRESS":"仁和街１６２號","OBJECTID":524491},"geometry":{"x":165804.82000000123,"y":2569339.0899999999}},{"attributes":{"ID":524519,"DIS_CODE":0,"TOWNNAME":"學甲區","LI":"新榮里","LIN":"6鄰","STREET":"仁和街","SECT":" ","MAREA":" ","LANE":" ","ALLEY":" ","HOUSE_NO":"１６６號","E_COORD97":165801.03,"N_COORD97":2569341.8999999999,"ADDRESS":"仁和街１６６號","OBJECTID":524492},"geometry":{"x":165801.02999999933,"y":2569341.9000000022}},{"attributes":{"ID":524520,"DIS_CODE":0,"TOWNNAME":"學甲區","LI":"新榮里","LIN":"6鄰","STREET":"仁和街","SECT":" ","MAREA":" ","LANE":" ","ALLEY":" ","HOUSE_NO":"３６號","E_COORD97":166051.44,"N_COORD97":2569141.3999999999,"ADDRESS":"仁和街３６號","OBJECTID":524493},"geometry":{"x":166051.44000000134,"y":2569141.4000000041}},{"attributes":{"ID":524521,"DIS_CODE":0,"TOWNNAME":"學甲區","LI":"新榮里","LIN":"6鄰","STREET":"仁和街","SECT":" ","MAREA":" ","LANE":" ","ALLEY":" ","HOUSE_NO":"５１號","E_COORD97":165979.73999999999,"N_COORD97":2569163.5299999998,"ADDRESS":"仁和街５１號","OBJECTID":524494},"geometry":{"x":165979.74000000115,"y":2569163.5300000012}},{"attributes":{"ID":524522,"DIS_CODE":0,"TOWNNAME":"學甲區","LI":"新榮里","LIN":"6鄰","STREET":"仁和街","SECT":" ","MAREA":" ","LANE":" ","ALLEY":" ","HOUSE_NO":"５８號","E_COORD97":166019.03,"N_COORD97":2569170.9700000002,"ADDRESS":"仁和街５８號","OBJECTID":524495},"geometry":{"x":166019.03000000026,"y":2569170.9700000007}},{"attributes":{"ID":524523,"DIS_CODE":0,"TOWNNAME":"學甲區","LI":"新榮里","LIN":"6鄰","STREET":"仁和街","SECT":" ","MAREA":" ","LANE":" ","ALLEY":" ","HOUSE_NO":"６９號","E_COORD97":165945.14999999999,"N_COORD97":2569191.8100000001,"ADDRESS":"仁和街６９號","OBJECTID":524496},"geometry":{"x":165945.1500000013,"y":2569191.8100000005}},{"attributes":{"ID":524524,"DIS_CODE":0,"TOWNNAME":"學甲區","LI":"新榮里","LIN":"6鄰","STREET":"仁和街","SECT":" ","MAREA":" ","LANE":" ","ALLEY":" ","HOUSE_NO":"７０號","E_COORD97":165989.29999999999,"N_COORD97":2569191.48,"ADDRESS":"仁和街７０號","OBJECTID":524497},"geometry":{"x":165989.30000000075,"y":2569191.4799999986}},{"attributes":{"ID":524525,"DIS_CODE":0,"TOWNNAME":"學甲區","LI":"新榮里","LIN":"6鄰","STREET":"仁和街","SECT":" ","MAREA":" ","LANE":" ","ALLEY":" ","HOUSE_NO":"７１號","E_COORD97":165940.73999999999,"N_COORD97":2569195.1400000001,"ADDRESS":"仁和街７１號","OBJECTID":524498},"geometry":{"x":165940.74000000115,"y":2569195.1400000025}},{"attributes":{"ID":524526,"DIS_CODE":0,"TOWNNAME":"學甲區","LI":"新榮里","LIN":"6鄰","STREET":"仁和街","SECT":" ","MAREA":" ","LANE":" ","ALLEY":" ","HOUSE_NO":"８２號","E_COORD97":165968.29000000001,"N_COORD97":2569206.4500000002,"ADDRESS":"仁和街８２號","OBJECTID":524499},"geometry":{"x":165968.29000000004,"y":2569206.4499999993}},{"attributes":{"ID":524527,"DIS_CODE":0,"TOWNNAME":"學甲區","LI":"新榮里","LIN":"6鄰","STREET":"仁和街","SECT":" ","MAREA":" ","LANE":" ","ALLEY":" ","HOUSE_NO":"８６號","E_COORD97":165964.29999999999,"N_COORD97":2569209.3700000001,"ADDRESS":"仁和街８６號","OBJECTID":524500},"geometry":{"x":165964.29999999981,"y":2569209.370000001}},{"attributes":{"ID":524528,"DIS_CODE":0,"TOWNNAME":"學甲區","LI":"新榮里","LIN":"6鄰","STREET":"仁和街","SECT":" ","MAREA":" ","LANE":" ","ALLEY":" ","HOUSE_NO":"８８號","E_COORD97":165960.28,"N_COORD97":2569212.7799999998,"ADDRESS":"仁和街８８號","OBJECTID":524501},"geometry":{"x":165960.28000000026,"y":2569212.7800000012}},{"attributes":{"ID":524529,"DIS_CODE":0,"TOWNNAME":"學甲區","LI":"新榮里","LIN":"6鄰","STREET":"仁和街","SECT":" ","MAREA":" ","LANE":" ","ALLEY":" ","HOUSE_NO":"８號","E_COORD97":166095.47,"N_COORD97":2569108.7599999998,"ADDRESS":"仁和街８號","OBJECTID":524502},"geometry":{"x":166095.46999999974,"y":2569108.7600000016}},{"attributes":{"ID":524530,"DIS_CODE":0,"TOWNNAME":"學甲區","LI":"新榮里","LIN":"6鄰","STREET":"仁和街","SECT":" ","MAREA":" ","LANE":" ","ALLEY":" ","HOUSE_NO":"９２號","E_COORD97":165953.39999999999,"N_COORD97":2569219.75,"ADDRESS":"仁和街９２號","OBJECTID":524503},"geometry":{"x":165953.4000000013,"y":2569219.7500000037}},{"attributes":{"ID":524531,"DIS_CODE":0,"TOWNNAME":"學甲區","LI":"新榮里","LIN":"6鄰","STREET":"仁和街","SECT":" ","MAREA":" ","LANE":" ","ALLEY":" ","HOUSE_NO":"９６號","E_COORD97":165949.45000000001,"N_COORD97":2569222.6699999999,"ADDRESS":"仁和街９６號","OBJECTID":524504},"geometry":{"x":165949.45000000112,"y":2569222.6699999999}},{"attributes":{"ID":524532,"DIS_CODE":0,"TOWNNAME":"學甲區","LI":"新榮里","LIN":"6鄰","STREET":"仁和街","SECT":" ","MAREA":" ","LANE":" ","ALLEY":" ","HOUSE_NO":"９８號","E_COORD97":165945.62,"N_COORD97":2569225.75,"ADDRESS":"仁和街９８號","OBJECTID":524505},"geometry":{"x":165945.62000000011,"y":2569225.75}},{"attributes":{"ID":524533,"DIS_CODE":0,"TOWNNAME":"歸仁區","LI":"歸南里","LIN":"6鄰","STREET":"中正南路","SECT":"一段","MAREA":" ","LANE":" ","ALLEY":" ","HOUSE_NO":"６０８號","E_COORD97":176670.56,"N_COORD97":2539911.25,"ADDRESS":"中正南路一段６０８號","OBJECTID":524506},"geometry":{"x":176670.56000000052,"y":2539911.2500000019}},{"attributes":{"ID":524534,"DIS_CODE":0,"TOWNNAME":"歸仁區","LI":"歸南里","LIN":"6鄰","STREET":"中正南路","SECT":"一段","MAREA":" ","LANE":" ","ALLEY":" ","HOUSE_NO":"５７２之１號","E_COORD97":176732.95000000001,"N_COORD97":2539937.4500000002,"ADDRESS":"中正南路一段５７２之１號","OBJECTID":524507},"geometry":{"x":176732.95000000112,"y":2539937.4499999993}},{"attributes":{"ID":524535,"DIS_CODE":0,"TOWNNAME":"歸仁區","LI":"歸南里","LIN":"6鄰","STREET":"中正南路","SECT":"一段","MAREA":" ","LANE":" ","ALLEY":" ","HOUSE_NO":"５６２號","E_COORD97":176753.04999999999,"N_COORD97":2539956.4500000002,"ADDRESS":"中正南路一段５６２號","OBJECTID":524508},"geometry":{"x":176753.04999999888,"y":2539956.4500000011}},{"attributes":{"ID":524536,"DIS_CODE":0,"TOWNNAME":"歸仁區","LI":"歸南里","LIN":"6鄰","STREET":"中正南路","SECT":"一段","MAREA":" ","LANE":" ","ALLEY":" ","HOUSE_NO":"５５２號","E_COORD97":176772.64999999999,"N_COORD97":2539969.4500000002,"ADDRESS":"中正南路一段５５２號","OBJECTID":524509},"geometry":{"x":176772.65000000037,"y":2539969.4500000011}},{"attributes":{"ID":524537,"DIS_CODE":0,"TOWNNAME":"歸仁區","LI":"歸南里","LIN":"6鄰","STREET":"中正南路","SECT":"一段","MAREA":" ","LANE":" ","ALLEY":" ","HOUSE_NO":"５８２號","E_COORD97":176717.04999999999,"N_COORD97":2539927.4500000002,"ADDRESS":"中正南路一段５８２號","OBJECTID":524510},"geometry":{"x":176717.04999999981,"y":2539927.4499999993}},{"attributes":{"ID":524538,"DIS_CODE":0,"TOWNNAME":"北區","LI":"中樓里","LIN":"6鄰","STREET":"東豐路","SECT":" ","MAREA":" ","LANE":" ","ALLEY":" ","HOUSE_NO":"８３號","E_COORD97":169645.14999999999,"N_COORD97":2544944.3399999999,"ADDRESS":"東豐路８３號","OBJECTID":524511},"geometry":{"x":169645.15000000224,"y":2544944.3400000017}},{"attributes":{"ID":524539,"DIS_CODE":0,"TOWNNAME":"安平區","LI":"平安里","LIN":"6鄰","STREET":"安平路","SECT":" ","MAREA":" ","LANE":" ","ALLEY":" ","HOUSE_NO":"３４８之１號","E_COORD97":165611.79000000001,"N_COORD97":2544340.7000000002,"ADDRESS":"安平路３４８之１號","OBJECTID":524512},"geometry":{"x":165611.79000000097,"y":2544340.700000003}},{"attributes":{"ID":524540,"DIS_CODE":0,"TOWNNAME":"安平區","LI":"怡平里","LIN":"6鄰","STREET":"慶平路","SECT":" ","MAREA":" ","LANE":" ","ALLEY":" ","HOUSE_NO":"２４２號","E_COORD97":165720.39999999999,"N_COORD97":2544193.79,"ADDRESS":"慶平路２４２號","OBJECTID":524513},"geometry":{"x":165720.40000000037,"y":2544193.7899999991}},{"attributes":{"ID":524541,"DIS_CODE":0,"TOWNNAME":"安平區","LI":"華平里","LIN":"6鄰","STREET":"建平十七街","SECT":" ","MAREA":" ","LANE":" ","ALLEY":" ","HOUSE_NO":"２３７號","E_COORD97":165488.54999999999,"N_COORD97":2544207.4399999999,"ADDRESS":"建平十七街２３７號","OBJECTID":524514},"geometry":{"x":165488.55000000168,"y":2544207.4400000032}},{"attributes":{"ID":524542,"DIS_CODE":0,"TOWNNAME":"安平區","LI":"華平里","LIN":"6鄰","STREET":"建平十七街","SECT":" ","MAREA":" ","LANE":" ","ALLEY":" ","HOUSE_NO":"２５７號","E_COORD97":165424.73999999999,"N_COORD97":2544206.4900000002,"ADDRESS":"建平十七街２５７號","OBJECTID":524515},"geometry":{"x":165424.74000000022,"y":2544206.4900000002}},{"attributes":{"ID":524543,"DIS_CODE":0,"TOWNNAME":"安平區","LI":"華平里","LIN":"6鄰","STREET":"慶平路","SECT":" ","MAREA":" ","LANE":" ","ALLEY":" ","HOUSE_NO":"４４６號","E_COORD97":165413.73999999999,"N_COORD97":2544194.7000000002,"ADDRESS":"慶平路４４６號","OBJECTID":524516},"geometry":{"x":165413.74000000115,"y":2544194.6999999993}},{"attributes":{"ID":524544,"DIS_CODE":0,"TOWNNAME":"安平區","LI":"華平里","LIN":"6鄰","STREET":"建平十七街","SECT":" ","MAREA":" ","LANE":" ","ALLEY":" ","HOUSE_NO":"２３９號","E_COORD97":165481.89000000001,"N_COORD97":2544207.1200000001,"ADDRESS":"建平十七街２３９號","OBJECTID":524517},"geometry":{"x":165481.8900000006,"y":2544207.120000001}},{"attributes":{"ID":524545,"DIS_CODE":0,"TOWNNAME":"安平區","LI":"華平里","LIN":"6鄰","STREET":"建平十七街","SECT":" ","MAREA":" ","LANE":" ","ALLEY":" ","HOUSE_NO":"２４１號","E_COORD97":165478.23999999999,"N_COORD97":2544207.2799999998,"ADDRESS":"建平十七街２４１號","OBJECTID":524518},"geometry":{"x":165478.24000000115,"y":2544207.2799999993}},{"attributes":{"ID":524546,"DIS_CODE":0,"TOWNNAME":"安平區","LI":"華平里","LIN":"6鄰","STREET":"建平十七街","SECT":" ","MAREA":" ","LANE":" ","ALLEY":" ","HOUSE_NO":"２４３號","E_COORD97":165470.92999999999,"N_COORD97":2544210.77,"ADDRESS":"建平十七街２４３號","OBJECTID":524519},"geometry":{"x":165470.93000000063,"y":2544210.7699999996}},{"attributes":{"ID":524547,"DIS_CODE":0,"TOWNNAME":"安平區","LI":"華平里","LIN":"6鄰","STREET":"建平十七街","SECT":" ","MAREA":" ","LANE":" ","ALLEY":" ","HOUSE_NO":"２４５號","E_COORD97":165462.20000000001,"N_COORD97":2544207.2799999998,"ADDRESS":"建平十七街２４５號","OBJECTID":524520},"geometry":{"x":165462.20000000019,"y":2544207.2799999993}},{"attributes":{"ID":524548,"DIS_CODE":0,"TOWNNAME":"安平區","LI":"華平里","LIN":"6鄰","STREET":"建平十七街","SECT":" ","MAREA":" ","LANE":" ","ALLEY":" ","HOUSE_NO":"２４７號","E_COORD97":165457.44,"N_COORD97":2544206.4900000002,"ADDRESS":"建平十七街２４７號","OBJECTID":524521},"geometry":{"x":165457.44000000041,"y":2544206.4900000002}},{"attributes":{"ID":524549,"DIS_CODE":0,"TOWNNAME":"安平區","LI":"華平里","LIN":"6鄰","STREET":"建平十七街","SECT":" ","MAREA":" ","LANE":" ","ALLEY":" ","HOUSE_NO":"２４９號","E_COORD97":165451.72,"N_COORD97":2544207.2799999998,"ADDRESS":"建平十七街２４９號","OBJECTID":524522},"geometry":{"x":165451.7200000016,"y":2544207.2799999993}},{"attributes":{"ID":524550,"DIS_CODE":0,"TOWNNAME":"安平區","LI":"華平里","LIN":"6鄰","STREET":"建平十七街","SECT":" ","MAREA":" ","LANE":" ","ALLEY":" ","HOUSE_NO":"２５１號","E_COORD97":165446.17000000001,"N_COORD97":2544207.9100000001,"ADDRESS":"建平十七街２５１號","OBJECTID":524523},"geometry":{"x":165446.17000000086,"y":2544207.9099999983}},{"attributes":{"ID":524551,"DIS_CODE":0,"TOWNNAME":"安平區","LI":"華平里","LIN":"6鄰","STREET":"建平十七街","SECT":" ","MAREA":" ","LANE":" ","ALLEY":" ","HOUSE_NO":"２５３號","E_COORD97":165439.82000000001,"N_COORD97":2544208.8700000001,"ADDRESS":"建平十七街２５３號","OBJECTID":524524},"geometry":{"x":165439.82000000216,"y":2544208.870000001}},{"attributes":{"ID":524552,"DIS_CODE":0,"TOWNNAME":"安平區","LI":"華平里","LIN":"6鄰","STREET":"建平十七街","SECT":" ","MAREA":" ","LANE":" ","ALLEY":" ","HOUSE_NO":"２５５號","E_COORD97":165433.47,"N_COORD97":2544207.9199999999,"ADDRESS":"建平十七街２５５號","OBJECTID":524525},"geometry":{"x":165433.47000000067,"y":2544207.9200000037}},{"attributes":{"ID":524553,"DIS_CODE":0,"TOWNNAME":"安平區","LI":"華平里","LIN":"6鄰","STREET":"慶平路","SECT":" ","MAREA":" ","LANE":" ","ALLEY":" ","HOUSE_NO":"４１６號","E_COORD97":165479.88,"N_COORD97":2544184.4100000001,"ADDRESS":"慶平路４１６號","OBJECTID":524526},"geometry":{"x":165479.88000000082,"y":2544184.4100000039}},{"attributes":{"ID":524554,"DIS_CODE":0,"TOWNNAME":"安平區","LI":"華平里","LIN":"6鄰","STREET":"慶平路","SECT":" ","MAREA":" ","LANE":" ","ALLEY":" ","HOUSE_NO":"４３０號","E_COORD97":165449,"N_COORD97":2544189.3599999999,"ADDRESS":"慶平路４３０號","OBJECTID":524527},"geometry":{"x":165449.00000000093,"y":2544189.3599999994}},{"attributes":{"ID":524555,"DIS_CODE":0,"TOWNNAME":"安平區","LI":"華平里","LIN":"6鄰","STREET":"慶平路","SECT":" ","MAREA":" ","LANE":" ","ALLEY":" ","HOUSE_NO":"４３２號","E_COORD97":165444.23999999999,"N_COORD97":2544190.5099999998,"ADDRESS":"慶平路４３２號","OBJECTID":524528},"geometry":{"x":165444.24000000115,"y":2544190.5100000016}},{"attributes":{"ID":524556,"DIS_CODE":0,"TOWNNAME":"安平區","LI":"華平里","LIN":"6鄰","STREET":"慶平路","SECT":" ","MAREA":" ","LANE":" ","ALLEY":" ","HOUSE_NO":"４３６號","E_COORD97":165438.14000000001,"N_COORD97":2544191.8399999999,"ADDRESS":"慶平路４３６號","OBJECTID":524529},"geometry":{"x":165438.13999999966,"y":2544191.8400000017}},{"attributes":{"ID":524557,"DIS_CODE":0,"TOWNNAME":"安平區","LI":"華平里","LIN":"6鄰","STREET":"慶平路","SECT":" ","MAREA":" ","LANE":" ","ALLEY":" ","HOUSE_NO":"４３８號","E_COORD97":165432.98999999999,"N_COORD97":2544192.6000000001,"ADDRESS":"慶平路４３８號","OBJECTID":524530},"geometry":{"x":165432.99000000022,"y":2544192.6000000034}},{"attributes":{"ID":524558,"DIS_CODE":0,"TOWNNAME":"安平區","LI":"華平里","LIN":"6鄰","STREET":"慶平路","SECT":" ","MAREA":" ","LANE":" ","ALLEY":" ","HOUSE_NO":"４４０號","E_COORD97":165427.45999999999,"N_COORD97":2544192.79,"ADDRESS":"慶平路４４０號","OBJECTID":524531},"geometry":{"x":165427.46000000089,"y":2544192.7899999991}},{"attributes":{"ID":524559,"DIS_CODE":0,"TOWNNAME":"安平區","LI":"華平里","LIN":"6鄰","STREET":"慶平路","SECT":" ","MAREA":" ","LANE":" ","ALLEY":" ","HOUSE_NO":"４４２號","E_COORD97":165421.56,"N_COORD97":2544193.1699999999,"ADDRESS":"慶平路４４２號","OBJECTID":524532},"geometry":{"x":165421.55999999959,"y":2544193.1700000018}},{"attributes":{"ID":524560,"DIS_CODE":0,"TOWNNAME":"安平區","LI":"華平里","LIN":"6鄰","STREET":"華平路","SECT":" ","MAREA":" ","LANE":" ","ALLEY":" ","HOUSE_NO":"７０１號","E_COORD97":165504.66,"N_COORD97":2544189.7400000002,"ADDRESS":"華平路７０１號","OBJECTID":524533},"geometry":{"x":165504.66000000015,"y":2544189.7400000021}},{"attributes":{"ID":524561,"DIS_CODE":0,"TOWNNAME":"安平區","LI":"華平里","LIN":"6鄰","STREET":"華平路","SECT":" ","MAREA":" ","LANE":" ","ALLEY":" ","HOUSE_NO":"７０３號","E_COORD97":165506.37,"N_COORD97":2544203.2799999998,"ADDRESS":"華平路７０３號","OBJECTID":524534},"geometry":{"x":165506.37000000011,"y":2544203.2799999993}},{"attributes":{"ID":524562,"DIS_CODE":0,"TOWNNAME":"安平區","LI":"億載里","LIN":"6鄰","STREET":"光州七街","SECT":" ","MAREA":" ","LANE":" ","ALLEY":" ","HOUSE_NO":"３號","E_COORD97":164250.59,"N_COORD97":2543743.52,"ADDRESS":"光州七街３號","OBJECTID":524535},"geometry":{"x":164250.58999999985,"y":2543743.5200000014}},{"attributes":{"ID":524563,"DIS_CODE":0,"TOWNNAME":"安平區","LI":"億載里","LIN":"6鄰","STREET":"平豐路","SECT":" ","MAREA":" ","LANE":" ","ALLEY":" ","HOUSE_NO":"２６５號","E_COORD97":164273.78,"N_COORD97":2543728.1299999999,"ADDRESS":"平豐路２６５號","OBJECTID":524536},"geometry":{"x":164273.78000000212,"y":2543728.1300000008}},{"attributes":{"ID":524564,"DIS_CODE":0,"TOWNNAME":"安平區","LI":"國平里","LIN":"6鄰","STREET":"文平路","SECT":" ","MAREA":" ","LANE":" ","ALLEY":" ","HOUSE_NO":"２０７號","E_COORD97":165704,"N_COORD97":2543081.8799999999,"ADDRESS":"文平路２０７號","OBJECTID":524537},"geometry":{"x":165704,"y":2543081.8800000008}},{"attributes":{"ID":524565,"DIS_CODE":0,"TOWNNAME":"安平區","LI":"漁光里","LIN":"6鄰","STREET":"漁光路","SECT":" ","MAREA":" ","LANE":" ","ALLEY":" ","HOUSE_NO":"６４之１號","E_COORD97":163865.73000000001,"N_COORD97":2542056.4399999999,"ADDRESS":"漁光路６４之１號","OBJECTID":524538},"geometry":{"x":163865.73000000231,"y":2542056.4399999995}},{"attributes":{"ID":524566,"DIS_CODE":0,"TOWNNAME":"安平區","LI":"華平里","LIN":"6鄰","STREET":"華平路","SECT":" ","MAREA":" ","LANE":" ","ALLEY":" ","HOUSE_NO":"５８１號","E_COORD97":165481.10000000001,"N_COORD97":2544019.1400000001,"ADDRESS":"華平路５８１號","OBJECTID":524539},"geometry":{"x":165481.09999999963,"y":2544019.1400000006}},{"attributes":{"ID":524567,"DIS_CODE":0,"TOWNNAME":"安平區","LI":"平安里","LIN":"6鄰","STREET":"安平路","SECT":" ","MAREA":" ","LANE":" ","ALLEY":" ","HOUSE_NO":"３７０號","E_COORD97":165540.35000000001,"N_COORD97":2544336.6699999999,"ADDRESS":"安平路３７０號","OBJECTID":524540},"geometry":{"x":165540.34999999963,"y":2544336.6699999999}},{"attributes":{"ID":524568,"DIS_CODE":0,"TOWNNAME":"安平區","LI":"平安里","LIN":"6鄰","STREET":"華平路","SECT":" ","MAREA":" ","LANE":" ","ALLEY":" ","HOUSE_NO":"７２０號","E_COORD97":165534.79999999999,"N_COORD97":2544359.1099999999,"ADDRESS":"華平路７２０號","OBJECTID":524541},"geometry":{"x":165534.80000000075,"y":2544359.1100000013}},{"attributes":{"ID":524569,"DIS_CODE":0,"TOWNNAME":"安平區","LI":"平安里","LIN":"6鄰","STREET":"華平路","SECT":" ","MAREA":" ","LANE":" ","ALLEY":" ","HOUSE_NO":"７２２號","E_COORD97":165534.32000000001,"N_COORD97":2544363.7200000002,"ADDRESS":"華平路７２２號","OBJECTID":524542},"geometry":{"x":165534.3200000003,"y":2544363.7200000025}},{"attributes":{"ID":524570,"DIS_CODE":0,"TOWNNAME":"安平區","LI":"平安里","LIN":"6鄰","STREET":"華平路","SECT":" ","MAREA":" ","LANE":" ","ALLEY":" ","HOUSE_NO":"７２６號","E_COORD97":165534.64000000001,"N_COORD97":2544368.48,"ADDRESS":"華平路７２６號","OBJECTID":524543},"geometry":{"x":165534.63999999966,"y":2544368.4800000023}},{"attributes":{"ID":524571,"DIS_CODE":0,"TOWNNAME":"安平區","LI":"平安里","LIN":"6鄰","STREET":"華平路","SECT":" ","MAREA":" ","LANE":" ","ALLEY":" ","HOUSE_NO":"７２８號","E_COORD97":165536.07000000001,"N_COORD97":2544373.5600000001,"ADDRESS":"華平路７２８號","OBJECTID":524544},"geometry":{"x":165536.0700000003,"y":2544373.5600000042}},{"attributes":{"ID":524572,"DIS_CODE":0,"TOWNNAME":"安平區","LI":"平安里","LIN":"6鄰","STREET":"華平路","SECT":" ","MAREA":" ","LANE":" ","ALLEY":" ","HOUSE_NO":"７２８號","E_COORD97":165533.69,"N_COORD97":2544373.7200000002,"ADDRESS":"華平路７２８號","OBJECTID":524545},"geometry":{"x":165533.69000000041,"y":2544373.7200000025}},{"attributes":{"ID":524573,"DIS_CODE":0,"TOWNNAME":"安平區","LI":"平安里","LIN":"6鄰","STREET":"華平路","SECT":" ","MAREA":" ","LANE":" ","ALLEY":" ","HOUSE_NO":"７３０號","E_COORD97":165533.20999999999,"N_COORD97":2544378.6400000001,"ADDRESS":"華平路７３０號","OBJECTID":524546},"geometry":{"x":165533.20999999996,"y":2544378.6400000006}},{"attributes":{"ID":524574,"DIS_CODE":0,"TOWNNAME":"安平區","LI":"平安里","LIN":"6鄰","STREET":"華平路","SECT":" ","MAREA":" ","LANE":" ","ALLEY":" ","HOUSE_NO":"７３２號","E_COORD97":165534.32000000001,"N_COORD97":2544384.0299999998,"ADDRESS":"華平路７３２號","OBJECTID":524547},"geometry":{"x":165534.3200000003,"y":2544384.0300000012}},{"attributes":{"ID":524575,"DIS_CODE":0,"TOWNNAME":"安平區","LI":"平安里","LIN":"6鄰","STREET":"華平路","SECT":" ","MAREA":" ","LANE":" ","ALLEY":" ","HOUSE_NO":"７３６號","E_COORD97":165533.53,"N_COORD97":2544390.0699999998,"ADDRESS":"華平路７３６號","OBJECTID":524548},"geometry":{"x":165533.53000000119,"y":2544390.0699999984}},{"attributes":{"ID":524576,"DIS_CODE":0,"TOWNNAME":"安平區","LI":"平安里","LIN":"6鄰","STREET":"華平路","SECT":" ","MAREA":" ","LANE":" ","ALLEY":" ","HOUSE_NO":"７３８號","E_COORD97":165534.64000000001,"N_COORD97":2544393.5600000001,"ADDRESS":"華平路７３８號","OBJECTID":524549},"geometry":{"x":165534.63999999966,"y":2544393.5600000005}},{"attributes":{"ID":524577,"DIS_CODE":0,"TOWNNAME":"新營區","LI":"民榮里","LIN":"6鄰","STREET":"和平路","SECT":" ","MAREA":" ","LANE":" ","ALLEY":" ","HOUSE_NO":"２０之２號","E_COORD97":179403.95000000001,"N_COORD97":2577911.1400000001,"ADDRESS":"和平路２０之２號","OBJECTID":524550},"geometry":{"x":179403.95000000112,"y":2577911.1400000025}},{"attributes":{"ID":524578,"DIS_CODE":0,"TOWNNAME":"新營區","LI":"大宏里","LIN":"6鄰","STREET":"同濟街","SECT":" ","MAREA":" ","LANE":" ","ALLEY":" ","HOUSE_NO":"１１０號","E_COORD97":180473.44,"N_COORD97":2578528.4100000001,"ADDRESS":"同濟街１１０號","OBJECTID":524551},"geometry":{"x":180473.44000000041,"y":2578528.4100000001}},{"attributes":{"ID":524579,"DIS_CODE":0,"TOWNNAME":"新營區","LI":"新北里","LIN":"6鄰","STREET":"金華路","SECT":"一段","MAREA":" ","LANE":" ","ALLEY":" ","HOUSE_NO":"２３６號","E_COORD97":179236.54999999999,"N_COORD97":2579337.0600000001,"ADDRESS":"金華路一段２３６號","OBJECTID":524552},"geometry":{"x":179236.55000000168,"y":2579337.0600000005}},{"attributes":{"ID":524580,"DIS_CODE":0,"TOWNNAME":"新營區","LI":"新南里","LIN":"6鄰","STREET":"秦漢街","SECT":" ","MAREA":" ","LANE":" ","ALLEY":" ","HOUSE_NO":"７０號","E_COORD97":178452.20000000001,"N_COORD97":2578766.1699999999,"ADDRESS":"秦漢街７０號","OBJECTID":524553},"geometry":{"x":178452.20000000019,"y":2578766.1699999999}},{"attributes":{"ID":524581,"DIS_CODE":0,"TOWNNAME":"新營區","LI":"三仙里","LIN":"6鄰","STREET":"復興路","SECT":" ","MAREA":" ","LANE":" ","ALLEY":" ","HOUSE_NO":"８０號","E_COORD97":179544.31,"N_COORD97":2578052.1600000001,"ADDRESS":"復興路８０號","OBJECTID":524554},"geometry":{"x":179544.30999999959,"y":2578052.1600000001}},{"attributes":{"ID":524582,"DIS_CODE":0,"TOWNNAME":"新營區","LI":"永生里","LIN":"6鄰","STREET":"富源街","SECT":" ","MAREA":" ","LANE":" ","ALLEY":" ","HOUSE_NO":"２２號","E_COORD97":180012.44,"N_COORD97":2577977.9500000002,"ADDRESS":"富源街２２號","OBJECTID":524555},"geometry":{"x":180012.44000000041,"y":2577977.9499999993}},{"attributes":{"ID":524583,"DIS_CODE":0,"TOWNNAME":"新營區","LI":"民權里","LIN":"6鄰","STREET":"中山路","SECT":" ","MAREA":" ","LANE":" ","ALLEY":" ","HOUSE_NO":"２６６號","E_COORD97":179863.39000000001,"N_COORD97":2577990.8399999999,"ADDRESS":"中山路２６６號","OBJECTID":524556},"geometry":{"x":179863.3900000006,"y":2577990.8400000017}},{"attributes":{"ID":524584,"DIS_CODE":0,"TOWNNAME":"南區","LI":"新昌里","LIN":"6鄰","STREET":"國華街","SECT":"一段","MAREA":" ","LANE":" ","ALLEY":" ","HOUSE_NO":"３０號","E_COORD97":167619.70999999999,"N_COORD97":2542611.7599999998,"ADDRESS":"國華街一段３０號","OBJECTID":524557},"geometry":{"x":167619.70999999996,"y":2542611.7600000035}},{"attributes":{"ID":524585,"DIS_CODE":0,"TOWNNAME":"南區","LI":"新昌里","LIN":"6鄰","STREET":"國華街","SECT":"一段","MAREA":" ","LANE":" ","ALLEY":" ","HOUSE_NO":"３２號","E_COORD97":167631.29000000001,"N_COORD97":2542611.4399999999,"ADDRESS":"國華街一段３２號","OBJECTID":524558},"geometry":{"x":167631.29000000004,"y":2542611.4400000013}},{"attributes":{"ID":524586,"DIS_CODE":0,"TOWNNAME":"南區","LI":"新昌里","LIN":"6鄰","STREET":"國華街","SECT":"一段","MAREA":" ","LANE":" ","ALLEY":" ","HOUSE_NO":"３４號","E_COORD97":167632.25,"N_COORD97":2542614.98,"ADDRESS":"國華街一段３４號","OBJECTID":524559},"geometry":{"x":167632.25000000093,"y":2542614.9800000023}},{"attributes":{"ID":524587,"DIS_CODE":0,"TOWNNAME":"南區","LI":"新昌里","LIN":"6鄰","STREET":"國華街","SECT":"一段","MAREA":" ","LANE":" ","ALLEY":" ","HOUSE_NO":"３６號","E_COORD97":167631.29000000001,"N_COORD97":2542626.54,"ADDRESS":"國華街一段３６號","OBJECTID":524560},"geometry":{"x":167631.29000000004,"y":2542626.540000001}},{"attributes":{"ID":524588,"DIS_CODE":0,"TOWNNAME":"南區","LI":"新昌里","LIN":"6鄰","STREET":"國華街","SECT":"一段","MAREA":" ","LANE":" ","ALLEY":" ","HOUSE_NO":"３８號","E_COORD97":167619.07000000001,"N_COORD97":2542635.8599999999,"ADDRESS":"國華街一段３８號","OBJECTID":524561},"geometry":{"x":167619.0700000003,"y":2542635.8600000013}},{"attributes":{"ID":524589,"DIS_CODE":0,"TOWNNAME":"南區","LI":"新昌里","LIN":"6鄰","STREET":"國華街","SECT":"一段","MAREA":" ","LANE":" ","ALLEY":" ","HOUSE_NO":"４０號","E_COORD97":167620.67000000001,"N_COORD97":2542640.6800000002,"ADDRESS":"國華街一段４０號","OBJECTID":524562},"geometry":{"x":167620.67000000086,"y":2542640.6800000016}},{"attributes":{"ID":524590,"DIS_CODE":0,"TOWNNAME":"南區","LI":"新昌里","LIN":"6鄰","STREET":"國華街","SECT":"一段","MAREA":" ","LANE":" ","ALLEY":" ","HOUSE_NO":"４１號","E_COORD97":167601.14999999999,"N_COORD97":2542611.8399999999,"ADDRESS":"國華街一段４１號","OBJECTID":524563},"geometry":{"x":167601.1500000013,"y":2542611.8400000017}},{"attributes":{"ID":524591,"DIS_CODE":0,"TOWNNAME":"東區","LI":"龍山里","LIN":"20鄰","STREET":"崇善路","SECT":" ","MAREA":" ","LANE":" ","ALLEY":" ","HOUSE_NO":"１７５號","E_COORD97":170359.03,"N_COORD97":2542371.1800000002,"ADDRESS":"崇善路１７５號","OBJECTID":524564},"geometry":{"x":170359.03000000026,"y":2542371.1799999997}},{"attributes":{"ID":524592,"DIS_CODE":0,"TOWNNAME":"東區","LI":"龍山里","LIN":"20鄰","STREET":"崇善路","SECT":" ","MAREA":" ","LANE":" ","ALLEY":" ","HOUSE_NO":"１７９號","E_COORD97":170366.42000000001,"N_COORD97":2542365.1200000001,"ADDRESS":"崇善路１７９號","OBJECTID":524565},"geometry":{"x":170366.41999999993,"y":2542365.120000001}},{"attributes":{"ID":524593,"DIS_CODE":0,"TOWNNAME":"東區","LI":"龍山里","LIN":"20鄰","STREET":"崇善路","SECT":" ","MAREA":" ","LANE":" ","ALLEY":" ","HOUSE_NO":"１８１號","E_COORD97":170370.10999999999,"N_COORD97":2542362.4900000002,"ADDRESS":"崇善路１８１號","OBJECTID":524566},"geometry":{"x":170370.11000000034,"y":2542362.4900000002}},{"attributes":{"ID":524594,"DIS_CODE":0,"TOWNNAME":"東區","LI":"龍山里","LIN":"20鄰","STREET":"崇善路","SECT":" ","MAREA":" ","LANE":" ","ALLEY":" ","HOUSE_NO":"１８３號","E_COORD97":170373.26999999999,"N_COORD97":2542359.8500000001,"ADDRESS":"崇善路１８３號","OBJECTID":524567},"geometry":{"x":170373.26999999955,"y":2542359.8499999996}},{"attributes":{"ID":524595,"DIS_CODE":0,"TOWNNAME":"東區","LI":"龍山里","LIN":"20鄰","STREET":"崇善路","SECT":" ","MAREA":" ","LANE":" ","ALLEY":" ","HOUSE_NO":"１８５號","E_COORD97":170375.91,"N_COORD97":2542356.9500000002,"ADDRESS":"崇善路１８５號","OBJECTID":524568},"geometry":{"x":170375.91000000108,"y":2542356.9500000011}},{"attributes":{"ID":524596,"DIS_CODE":0,"TOWNNAME":"南區","LI":"新昌里","LIN":"6鄰","STREET":"國華街","SECT":"一段","MAREA":" ","LANE":" ","ALLEY":" ","HOUSE_NO":"４３號","E_COORD97":167601.48000000001,"N_COORD97":2542619.9500000002,"ADDRESS":"國華街一段４３號","OBJECTID":524569},"geometry":{"x":167601.48000000045,"y":2542619.9499999974}},{"attributes":{"ID":524597,"DIS_CODE":0,"TOWNNAME":"南區","LI":"新昌里","LIN":"6鄰","STREET":"國華街","SECT":"一段","MAREA":" ","LANE":" ","ALLEY":" ","HOUSE_NO":"４５號","E_COORD97":167601.79999999999,"N_COORD97":2542630.21,"ADDRESS":"國華街一段４５號","OBJECTID":524570},"geometry":{"x":167601.79999999981,"y":2542630.2100000046}},{"attributes":{"ID":524598,"DIS_CODE":0,"TOWNNAME":"南區","LI":"新昌里","LIN":"6鄰","STREET":"國華街","SECT":"一段","MAREA":" ","LANE":" ","ALLEY":" ","HOUSE_NO":"４７號","E_COORD97":167602.60999999999,"N_COORD97":2542635.8799999999,"ADDRESS":"國華街一段４７號","OBJECTID":524571},"geometry":{"x":167602.6100000022,"y":2542635.879999999}},{"attributes":{"ID":524599,"DIS_CODE":0,"TOWNNAME":"南區","LI":"新昌里","LIN":"6鄰","STREET":"國華街","SECT":"一段","MAREA":" ","LANE":" ","ALLEY":" ","HOUSE_NO":"４９號","E_COORD97":167602.45000000001,"N_COORD97":2542641.3999999999,"ADDRESS":"國華街一段４９號","OBJECTID":524572},"geometry":{"x":167602.45000000112,"y":2542641.4000000004}},{"attributes":{"ID":524600,"DIS_CODE":0,"TOWNNAME":"南區","LI":"新昌里","LIN":"6鄰","STREET":"國華街","SECT":"一段","MAREA":" ","LANE":" ","ALLEY":" ","HOUSE_NO":"５１號","E_COORD97":167602.45000000001,"N_COORD97":2542645.4500000002,"ADDRESS":"國華街一段５１號","OBJECTID":524573},"geometry":{"x":167602.45000000112,"y":2542645.4500000011}},{"attributes":{"ID":524601,"DIS_CODE":0,"TOWNNAME":"南區","LI":"新昌里","LIN":"6鄰","STREET":"國華街","SECT":"一段","MAREA":" ","LANE":" ","ALLEY":" ","HOUSE_NO":"５７號","E_COORD97":167603.10000000001,"N_COORD97":2542687.8399999999,"ADDRESS":"國華街一段５７號","OBJECTID":524574},"geometry":{"x":167603.09999999963,"y":2542687.8399999999}},{"attributes":{"ID":524602,"DIS_CODE":0,"TOWNNAME":"南區","LI":"新興里","LIN":"6鄰","STREET":"西門路","SECT":"一段","MAREA":" ","LANE":" ","ALLEY":" ","HOUSE_NO":"４４９號","E_COORD97":167706.51000000001,"N_COORD97":2542424.25,"ADDRESS":"西門路一段４４９號","OBJECTID":524575},"geometry":{"x":167706.51000000071,"y":2542424.25}},{"attributes":{"ID":524603,"DIS_CODE":0,"TOWNNAME":"南區","LI":"新興里","LIN":"6鄰","STREET":"健康路","SECT":"二段","MAREA":" ","LANE":" ","ALLEY":" ","HOUSE_NO":"１７號","E_COORD97":167677.10000000001,"N_COORD97":2542435.1800000002,"ADDRESS":"健康路二段１７號","OBJECTID":524576},"geometry":{"x":167677.10000000056,"y":2542435.1799999997}},{"attributes":{"ID":524604,"DIS_CODE":0,"TOWNNAME":"南區","LI":"新興里","LIN":"6鄰","STREET":"健康路","SECT":"二段","MAREA":" ","LANE":" ","ALLEY":" ","HOUSE_NO":"１９號","E_COORD97":167669.92000000001,"N_COORD97":2542436.2599999998,"ADDRESS":"健康路二段１９號","OBJECTID":524577},"geometry":{"x":167669.92000000086,"y":2542436.2600000016}},{"attributes":{"ID":524605,"DIS_CODE":0,"TOWNNAME":"南區","LI":"新興里","LIN":"6鄰","STREET":"健康路","SECT":"二段","MAREA":" ","LANE":" ","ALLEY":" ","HOUSE_NO":"２１號","E_COORD97":167664.17999999999,"N_COORD97":2542437.6899999999,"ADDRESS":"健康路二段２１號","OBJECTID":524578},"geometry":{"x":167664.18000000156,"y":2542437.6899999995}},{"attributes":{"ID":524606,"DIS_CODE":0,"TOWNNAME":"南區","LI":"新興里","LIN":"6鄰","STREET":"健康路","SECT":"二段","MAREA":" ","LANE":" ","ALLEY":" ","HOUSE_NO":"２３號","E_COORD97":167655.92999999999,"N_COORD97":2542434.1099999999,"ADDRESS":"健康路二段２３號","OBJECTID":524579},"geometry":{"x":167655.93000000063,"y":2542434.1100000013}},{"attributes":{"ID":524607,"DIS_CODE":0,"TOWNNAME":"東區","LI":"德光里","LIN":"18鄰","STREET":"崇善路","SECT":" ","MAREA":" ","LANE":" ","ALLEY":" ","HOUSE_NO":"２號","E_COORD97":170152.98999999999,"N_COORD97":2542489.3599999999,"ADDRESS":"崇善路２號","OBJECTID":524580},"geometry":{"x":170152.99000000209,"y":2542489.3600000013}},{"attributes":{"ID":524608,"DIS_CODE":0,"TOWNNAME":"南區","LI":"新興里","LIN":"6鄰","STREET":"健康路","SECT":"二段","MAREA":" ","LANE":" ","ALLEY":" ","HOUSE_NO":"２５號","E_COORD97":167648.76000000001,"N_COORD97":2542432.6699999999,"ADDRESS":"健康路二段２５號","OBJECTID":524581},"geometry":{"x":167648.76000000071,"y":2542432.6699999981}},{"attributes":{"ID":524609,"DIS_CODE":0,"TOWNNAME":"南區","LI":"新興里","LIN":"6鄰","STREET":"健康路","SECT":"二段","MAREA":" ","LANE":" ","ALLEY":" ","HOUSE_NO":"２９號","E_COORD97":167642.29999999999,"N_COORD97":2542436.2599999998,"ADDRESS":"健康路二段２９號","OBJECTID":524582},"geometry":{"x":167642.30000000075,"y":2542436.2600000016}},{"attributes":{"ID":524610,"DIS_CODE":0,"TOWNNAME":"南區","LI":"新興里","LIN":"6鄰","STREET":"健康路","SECT":"二段","MAREA":" ","LANE":" ","ALLEY":" ","HOUSE_NO":"３１號","E_COORD97":167634.04999999999,"N_COORD97":2542433.75,"ADDRESS":"健康路二段３１號","OBJECTID":524583},"geometry":{"x":167634.04999999981,"y":2542433.7500000019}},{"attributes":{"ID":524611,"DIS_CODE":0,"TOWNNAME":"南區","LI":"新興里","LIN":"6鄰","STREET":"健康路","SECT":"二段","MAREA":" ","LANE":" ","ALLEY":" ","HOUSE_NO":"３３號","E_COORD97":167628.07000000001,"N_COORD97":2542433.73,"ADDRESS":"健康路二段３３號","OBJECTID":524584},"geometry":{"x":167628.0700000003,"y":2542433.7300000023}},{"attributes":{"ID":524612,"DIS_CODE":0,"TOWNNAME":"南區","LI":"新興里","LIN":"6鄰","STREET":"健康路","SECT":"二段","MAREA":" ","LANE":" ","ALLEY":" ","HOUSE_NO":"３５號","E_COORD97":167623.38,"N_COORD97":2542439.3599999999,"ADDRESS":"健康路二段３５號","OBJECTID":524585},"geometry":{"x":167623.37999999989,"y":2542439.3600000013}},{"attributes":{"ID":524613,"DIS_CODE":0,"TOWNNAME":"南區","LI":"新興里","LIN":"6鄰","STREET":"健康路","SECT":"二段","MAREA":" ","LANE":" ","ALLEY":" ","HOUSE_NO":"３７號","E_COORD97":167619.92999999999,"N_COORD97":2542439.27,"ADDRESS":"健康路二段３７號","OBJECTID":524586},"geometry":{"x":167619.9299999997,"y":2542439.2700000014}},{"attributes":{"ID":524614,"DIS_CODE":0,"TOWNNAME":"南區","LI":"新興里","LIN":"6鄰","STREET":"健康路","SECT":"二段","MAREA":" ","LANE":" ","ALLEY":" ","HOUSE_NO":"３９號","E_COORD97":167615.12,"N_COORD97":2542438.6800000002,"ADDRESS":"健康路二段３９號","OBJECTID":524587},"geometry":{"x":167615.12000000011,"y":2542438.6799999997}},{"attributes":{"ID":524615,"DIS_CODE":0,"TOWNNAME":"南區","LI":"新興里","LIN":"6鄰","STREET":"健康路","SECT":"二段","MAREA":" ","LANE":" ","ALLEY":" ","HOUSE_NO":"４１號","E_COORD97":167611.57999999999,"N_COORD97":2542438.2599999998,"ADDRESS":"健康路二段４１號","OBJECTID":524588},"geometry":{"x":167611.58000000101,"y":2542438.2599999998}},{"attributes":{"ID":524616,"DIS_CODE":0,"TOWNNAME":"南區","LI":"新興里","LIN":"6鄰","STREET":"健康路","SECT":"二段","MAREA":" ","LANE":" ","ALLEY":" ","HOUSE_NO":"４３號","E_COORD97":167606.85999999999,"N_COORD97":2542438.0899999999,"ADDRESS":"健康路二段４３號","OBJECTID":524589},"geometry":{"x":167606.86000000127,"y":2542438.0900000017}},{"attributes":{"ID":524617,"DIS_CODE":0,"TOWNNAME":"安平區","LI":"金城里","LIN":"6鄰","STREET":"同平路","SECT":" ","MAREA":" ","LANE":" ","ALLEY":" ","HOUSE_NO":"１０３號","E_COORD97":163191.79000000001,"N_COORD97":2544165.6899999999,"ADDRESS":"同平路１０３號","OBJECTID":524590},"geometry":{"x":163191.78999999911,"y":2544165.6900000013}},{"attributes":{"ID":524618,"DIS_CODE":0,"TOWNNAME":"安平區","LI":"金城里","LIN":"6鄰","STREET":"同平路","SECT":" ","MAREA":" ","LANE":" ","ALLEY":" ","HOUSE_NO":"１０５號","E_COORD97":163192.10000000001,"N_COORD97":2544152.6899999999,"ADDRESS":"同平路１０５號","OBJECTID":524591},"geometry":{"x":163192.09999999963,"y":2544152.6900000013}},{"attributes":{"ID":524619,"DIS_CODE":0,"TOWNNAME":"安平區","LI":"金城里","LIN":"6鄰","STREET":"同平路","SECT":" ","MAREA":" ","LANE":" ","ALLEY":" ","HOUSE_NO":"１０７號","E_COORD97":163194.28,"N_COORD97":2544143.6600000001,"ADDRESS":"同平路１０７號","OBJECTID":524592},"geometry":{"x":163194.28000000119,"y":2544143.660000002}},{"attributes":{"ID":524620,"DIS_CODE":0,"TOWNNAME":"安平區","LI":"金城里","LIN":"6鄰","STREET":"同平路","SECT":" ","MAREA":" ","LANE":" ","ALLEY":" ","HOUSE_NO":"１２１號","E_COORD97":163173.67999999999,"N_COORD97":2544109.6200000001,"ADDRESS":"同平路１２１號","OBJECTID":524593},"geometry":{"x":163173.68000000156,"y":2544109.6200000029}},{"attributes":{"ID":524621,"DIS_CODE":0,"TOWNNAME":"安平區","LI":"金城里","LIN":"6鄰","STREET":"同平路","SECT":" ","MAREA":" ","LANE":" ","ALLEY":" ","HOUSE_NO":"１２３號","E_COORD97":163171.04000000001,"N_COORD97":2544103.9199999999,"ADDRESS":"同平路１２３號","OBJECTID":524594},"geometry":{"x":163171.04000000004,"y":2544103.9200000018}},{"attributes":{"ID":524622,"DIS_CODE":0,"TOWNNAME":"安平區","LI":"金城里","LIN":"6鄰","STREET":"同平路","SECT":" ","MAREA":" ","LANE":" ","ALLEY":" ","HOUSE_NO":"１２５號","E_COORD97":163169.97,"N_COORD97":2544098.2000000002,"ADDRESS":"同平路１２５號","OBJECTID":524595},"geometry":{"x":163169.96999999881,"y":2544098.2000000011}},{"attributes":{"ID":524623,"DIS_CODE":0,"TOWNNAME":"安平區","LI":"金城里","LIN":"6鄰","STREET":"同平路","SECT":" ","MAREA":" ","LANE":" ","ALLEY":" ","HOUSE_NO":"１２９號","E_COORD97":163169.92000000001,"N_COORD97":2544077.6899999999,"ADDRESS":"同平路１２９號","OBJECTID":524596},"geometry":{"x":163169.91999999993,"y":2544077.6900000013}},{"attributes":{"ID":524624,"DIS_CODE":0,"TOWNNAME":"安平區","LI":"金城里","LIN":"6鄰","STREET":"同平路","SECT":" ","MAREA":" ","LANE":" ","ALLEY":" ","HOUSE_NO":"１３１號","E_COORD97":163165.95000000001,"N_COORD97":2544066.9199999999,"ADDRESS":"同平路１３１號","OBJECTID":524597},"geometry":{"x":163165.95000000112,"y":2544066.9200000018}},{"attributes":{"ID":524625,"DIS_CODE":0,"TOWNNAME":"安平區","LI":"金城里","LIN":"6鄰","STREET":"同平路","SECT":" ","MAREA":" ","LANE":" ","ALLEY":" ","HOUSE_NO":"１３３號","E_COORD97":163165.95000000001,"N_COORD97":2544061.7000000002,"ADDRESS":"同平路１３３號","OBJECTID":524598},"geometry":{"x":163165.95000000112,"y":2544061.6999999993}},{"attributes":{"ID":524626,"DIS_CODE":0,"TOWNNAME":"安平區","LI":"金城里","LIN":"6鄰","STREET":"同平路","SECT":" ","MAREA":" ","LANE":" ","ALLEY":" ","HOUSE_NO":"１３７號","E_COORD97":163163.42000000001,"N_COORD97":2544050.25,"ADDRESS":"同平路１３７號","OBJECTID":524599},"geometry":{"x":163163.41999999993,"y":2544050.2500000019}},{"attributes":{"ID":524627,"DIS_CODE":0,"TOWNNAME":"安平區","LI":"金城里","LIN":"6鄰","STREET":"同平路","SECT":" ","MAREA":" ","LANE":" ","ALLEY":" ","HOUSE_NO":"１３９號","E_COORD97":163162.31,"N_COORD97":2544043.6000000001,"ADDRESS":"同平路１３９號","OBJECTID":524600},"geometry":{"x":163162.30999999959,"y":2544043.6000000034}}]}