{"displayFieldName":"TOWNNAME","fieldAliases":{"ID":"ID","DIS_CODE":"DIS_CODE","TOWNNAME":"TOWNNAME","LI":"LI","LIN":"LIN","STREET":"STREET","SECT":"SECT","MAREA":"MAREA","LANE":"LANE","ALLEY":"ALLEY","HOUSE_NO":"HOUSE_NO","E_COORD97":"E_COORD97","N_COORD97":"N_COORD97","ADDRESS":"ADDRESS","OBJECTID":"OBJECTID"},"geometryType":"esriGeometryPoint","spatialReference":{"wkid":102443,"latestWkid":3826},"fields":[{"name":"ID","type":"esriFieldTypeDouble","alias":"ID"},{"name":"DIS_CODE","type":"esriFieldTypeInteger","alias":"DIS_CODE"},{"name":"TOWNNAME","type":"esriFieldTypeString","alias":"TOWNNAME","length":8},{"name":"LI","type":"esriFieldTypeString","alias":"LI","length":8},{"name":"LIN","type":"esriFieldTypeString","alias":"LIN","length":12},{"name":"STREET","type":"esriFieldTypeString","alias":"STREET","length":20},{"name":"SECT","type":"esriFieldTypeString","alias":"SECT","length":8},{"name":"MAREA","type":"esriFieldTypeString","alias":"MAREA","length":12},{"name":"LANE","type":"esriFieldTypeString","alias":"LANE","length":10},{"name":"ALLEY","type":"esriFieldTypeString","alias":"ALLEY","length":10},{"name":"HOUSE_NO","type":"esriFieldTypeString","alias":"HOUSE_NO","length":20},{"name":"E_COORD97","type":"esriFieldTypeDouble","alias":"E_COORD97"},{"name":"N_COORD97","type":"esriFieldTypeDouble","alias":"N_COORD97"},{"name":"ADDRESS","type":"esriFieldTypeString","alias":"ADDRESS","length":50},{"name":"OBJECTID","type":"esriFieldTypeOID","alias":"OBJECTID"}],"features":[{"attributes":{"ID":591228,"DIS_CODE":0,"TOWNNAME":"永康區","LI":"永康里","LIN":"11鄰","STREET":"永平街","SECT":" ","MAREA":" ","LANE":" ","ALLEY":" ","HOUSE_NO":"７３號","E_COORD97":173730.20000000001,"N_COORD97":2547077.2400000002,"ADDRESS":"永平街７３號","OBJECTID":591201},"geometry":{"x":173730.20000000112,"y":2547077.2400000002}},{"attributes":{"ID":591229,"DIS_CODE":0,"TOWNNAME":"永康區","LI":"正強里","LIN":"11鄰","STREET":"正義街","SECT":" ","MAREA":" ","LANE":" ","ALLEY":" ","HOUSE_NO":"１２３號","E_COORD97":173360.69,"N_COORD97":2547522.29,"ADDRESS":"正義街１２３號","OBJECTID":591202},"geometry":{"x":173360.69000000227,"y":2547522.2899999991}},{"attributes":{"ID":591230,"DIS_CODE":0,"TOWNNAME":"永康區","LI":"復國里","LIN":"3鄰","STREET":"復國一路","SECT":" ","MAREA":" ","LANE":" ","ALLEY":" ","HOUSE_NO":"１２號之１","E_COORD97":172727.94,"N_COORD97":2544722.29,"ADDRESS":"復國一路１２號之１","OBJECTID":591203},"geometry":{"x":172727.94000000041,"y":2544722.2899999991}},{"attributes":{"ID":591231,"DIS_CODE":0,"TOWNNAME":"永康區","LI":"崑山里","LIN":"36鄰","STREET":"大仁街","SECT":" ","MAREA":" ","LANE":" ","ALLEY":" ","HOUSE_NO":"１７９號","E_COORD97":173896.29000000001,"N_COORD97":2544989.9500000002,"ADDRESS":"大仁街１７９號","OBJECTID":591204},"geometry":{"x":173896.29000000004,"y":2544989.950000003}},{"attributes":{"ID":591232,"DIS_CODE":0,"TOWNNAME":"永康區","LI":"勝利里","LIN":"6鄰","STREET":"勝學路","SECT":" ","MAREA":" ","LANE":" ","ALLEY":" ","HOUSE_NO":"５號","E_COORD97":171157.76999999999,"N_COORD97":2544585.7599999998,"ADDRESS":"勝學路５號","OBJECTID":591205},"geometry":{"x":171157.77000000048,"y":2544585.7600000016}},{"attributes":{"ID":591233,"DIS_CODE":0,"TOWNNAME":"永康區","LI":"崑山里","LIN":"19鄰","STREET":"大灣路","SECT":" ","MAREA":" ","LANE":" ","ALLEY":" ","HOUSE_NO":"８６８之３號","E_COORD97":173796.48999999999,"N_COORD97":2544468.4100000001,"ADDRESS":"大灣路８６８之３號","OBJECTID":591206},"geometry":{"x":173796.49000000115,"y":2544468.4100000001}},{"attributes":{"ID":591234,"DIS_CODE":0,"TOWNNAME":"永康區","LI":"崑山里","LIN":"29鄰","STREET":"大仁街","SECT":" ","MAREA":" ","LANE":" ","ALLEY":" ","HOUSE_NO":"８９號","E_COORD97":173813.87,"N_COORD97":2544762.8199999998,"ADDRESS":"大仁街８９號","OBJECTID":591207},"geometry":{"x":173813.87000000104,"y":2544762.8200000022}},{"attributes":{"ID":591235,"DIS_CODE":0,"TOWNNAME":"安南區","LI":"新順里","LIN":"11鄰","STREET":"安豐五街","SECT":" ","MAREA":" ","LANE":" ","ALLEY":" ","HOUSE_NO":"１０２號","E_COORD97":169646.10999999999,"N_COORD97":2549784.8999999999,"ADDRESS":"安豐五街１０２號","OBJECTID":591208},"geometry":{"x":169646.11000000127,"y":2549784.9000000004}},{"attributes":{"ID":591236,"DIS_CODE":0,"TOWNNAME":"安南區","LI":"新順里","LIN":"11鄰","STREET":"安豐五街","SECT":" ","MAREA":" ","LANE":" ","ALLEY":" ","HOUSE_NO":"１５６號","E_COORD97":169732.72,"N_COORD97":2549778.2999999998,"ADDRESS":"安豐五街１５６號","OBJECTID":591209},"geometry":{"x":169732.72000000067,"y":2549778.3000000007}},{"attributes":{"ID":591237,"DIS_CODE":0,"TOWNNAME":"安南區","LI":"新順里","LIN":"11鄰","STREET":"安豐五街","SECT":" ","MAREA":" ","LANE":" ","ALLEY":" ","HOUSE_NO":"１６２號","E_COORD97":169749.48999999999,"N_COORD97":2549777.0299999998,"ADDRESS":"安豐五街１６２號","OBJECTID":591210},"geometry":{"x":169749.49000000209,"y":2549777.0300000031}},{"attributes":{"ID":591238,"DIS_CODE":0,"TOWNNAME":"安南區","LI":"新順里","LIN":"11鄰","STREET":"安豐五街","SECT":" ","MAREA":" ","LANE":" ","ALLEY":" ","HOUSE_NO":"１６０號","E_COORD97":169743.51999999999,"N_COORD97":2549777.4100000001,"ADDRESS":"安豐五街１６０號","OBJECTID":591211},"geometry":{"x":169743.52000000142,"y":2549777.4100000001}},{"attributes":{"ID":591239,"DIS_CODE":0,"TOWNNAME":"安南區","LI":"新順里","LIN":"11鄰","STREET":"安豐五街","SECT":" ","MAREA":" ","LANE":" ","ALLEY":" ","HOUSE_NO":"１５８號","E_COORD97":169737.79999999999,"N_COORD97":2549777.79,"ADDRESS":"安豐五街１５８號","OBJECTID":591212},"geometry":{"x":169737.79999999981,"y":2549777.7899999991}},{"attributes":{"ID":591240,"DIS_CODE":0,"TOWNNAME":"安南區","LI":"新順里","LIN":"11鄰","STREET":"育安四街","SECT":" ","MAREA":" ","LANE":" ","ALLEY":" ","HOUSE_NO":"１２６號","E_COORD97":169762.04000000001,"N_COORD97":2549752.0899999999,"ADDRESS":"育安四街１２６號","OBJECTID":591213},"geometry":{"x":169762.04000000004,"y":2549752.0899999999}},{"attributes":{"ID":591241,"DIS_CODE":0,"TOWNNAME":"安南區","LI":"新順里","LIN":"11鄰","STREET":"育安四街","SECT":" ","MAREA":" ","LANE":" ","ALLEY":" ","HOUSE_NO":"１２８號","E_COORD97":169762.98999999999,"N_COORD97":2549755.7400000002,"ADDRESS":"育安四街１２８號","OBJECTID":591214},"geometry":{"x":169762.99000000209,"y":2549755.7399999984}},{"attributes":{"ID":591242,"DIS_CODE":0,"TOWNNAME":"安南區","LI":"新順里","LIN":"11鄰","STREET":"育安四街","SECT":" ","MAREA":" ","LANE":" ","ALLEY":" ","HOUSE_NO":"７０號","E_COORD97":169729.5,"N_COORD97":2549643.3500000001,"ADDRESS":"育安四街７０號","OBJECTID":591215},"geometry":{"x":169729.50000000093,"y":2549643.3500000015}},{"attributes":{"ID":591243,"DIS_CODE":0,"TOWNNAME":"安南區","LI":"新順里","LIN":"11鄰","STREET":"育安四街","SECT":" ","MAREA":" ","LANE":" ","ALLEY":" ","HOUSE_NO":"７２號","E_COORD97":169731.07999999999,"N_COORD97":2549648.1099999999,"ADDRESS":"育安四街７２號","OBJECTID":591216},"geometry":{"x":169731.08000000007,"y":2549648.1100000013}},{"attributes":{"ID":591244,"DIS_CODE":0,"TOWNNAME":"安南區","LI":"新順里","LIN":"11鄰","STREET":"育安四街","SECT":" ","MAREA":" ","LANE":" ","ALLEY":" ","HOUSE_NO":"７６號","E_COORD97":169732.19,"N_COORD97":2549652.0800000001,"ADDRESS":"育安四街７６號","OBJECTID":591217},"geometry":{"x":169732.19000000041,"y":2549652.0800000038}},{"attributes":{"ID":591245,"DIS_CODE":0,"TOWNNAME":"安南區","LI":"新順里","LIN":"11鄰","STREET":"育安四街","SECT":" ","MAREA":" ","LANE":" ","ALLEY":" ","HOUSE_NO":"７８號","E_COORD97":169733.62,"N_COORD97":2549655.5699999998,"ADDRESS":"育安四街７８號","OBJECTID":591218},"geometry":{"x":169733.62000000104,"y":2549655.570000004}},{"attributes":{"ID":591246,"DIS_CODE":0,"TOWNNAME":"安南區","LI":"新順里","LIN":"11鄰","STREET":"育安四街","SECT":" ","MAREA":" ","LANE":" ","ALLEY":" ","HOUSE_NO":"１３０號","E_COORD97":169763.63,"N_COORD97":2549760.1899999999,"ADDRESS":"育安四街１３０號","OBJECTID":591219},"geometry":{"x":169763.63000000082,"y":2549760.1900000013}},{"attributes":{"ID":591247,"DIS_CODE":0,"TOWNNAME":"安南區","LI":"新順里","LIN":"11鄰","STREET":"育安四街","SECT":" ","MAREA":" ","LANE":" ","ALLEY":" ","HOUSE_NO":"１３２號","E_COORD97":169764.42000000001,"N_COORD97":2549764.1600000001,"ADDRESS":"育安四街１３２號","OBJECTID":591220},"geometry":{"x":169764.41999999993,"y":2549764.160000002}},{"attributes":{"ID":591248,"DIS_CODE":0,"TOWNNAME":"安南區","LI":"新順里","LIN":"11鄰","STREET":"育安二街","SECT":" ","MAREA":" ","LANE":" ","ALLEY":" ","HOUSE_NO":"１１號","E_COORD97":169687.26999999999,"N_COORD97":2549756.3799999999,"ADDRESS":"育安二街１１號","OBJECTID":591221},"geometry":{"x":169687.26999999955,"y":2549756.379999999}},{"attributes":{"ID":591249,"DIS_CODE":0,"TOWNNAME":"永康區","LI":"勝利里","LIN":"33鄰","STREET":"中華路","SECT":" ","MAREA":" ","LANE":" ","ALLEY":" ","HOUSE_NO":"１號之５３","E_COORD97":171501.95999999999,"N_COORD97":2544353.0499999998,"ADDRESS":"中華路１號之５３","OBJECTID":591222},"geometry":{"x":171501.95999999996,"y":2544353.0500000007}},{"attributes":{"ID":591250,"DIS_CODE":0,"TOWNNAME":"永康區","LI":"崑山里","LIN":"30鄰","STREET":"大仁街","SECT":" ","MAREA":" ","LANE":" ","ALLEY":" ","HOUSE_NO":"９６號","E_COORD97":173858.5,"N_COORD97":2544807.1800000002,"ADDRESS":"大仁街９６號","OBJECTID":591223},"geometry":{"x":173858.50000000093,"y":2544807.1800000016}},{"attributes":{"ID":591251,"DIS_CODE":0,"TOWNNAME":"永康區","LI":"崑山里","LIN":"19鄰","STREET":"大灣路","SECT":" ","MAREA":" ","LANE":" ","ALLEY":" ","HOUSE_NO":"８４６號","E_COORD97":173873.98000000001,"N_COORD97":2544478.3399999999,"ADDRESS":"大灣路８４６號","OBJECTID":591224},"geometry":{"x":173873.98000000045,"y":2544478.3399999999}},{"attributes":{"ID":591252,"DIS_CODE":0,"TOWNNAME":"永康區","LI":"勝利里","LIN":"21鄰","STREET":"勝利街","SECT":" ","MAREA":" ","LANE":" ","ALLEY":" ","HOUSE_NO":"１４２號","E_COORD97":171383.64000000001,"N_COORD97":2545039.8399999999,"ADDRESS":"勝利街１４２號","OBJECTID":591225},"geometry":{"x":171383.64000000153,"y":2545039.8400000017}},{"attributes":{"ID":591253,"DIS_CODE":0,"TOWNNAME":"永康區","LI":"崑山里","LIN":"37鄰","STREET":"大仁街","SECT":" ","MAREA":" ","LANE":" ","ALLEY":" ","HOUSE_NO":"１５０號","E_COORD97":173913.23000000001,"N_COORD97":2544966.79,"ADDRESS":"大仁街１５０號","OBJECTID":591226},"geometry":{"x":173913.23000000231,"y":2544966.7899999991}},{"attributes":{"ID":591254,"DIS_CODE":0,"TOWNNAME":"永康區","LI":"崑山里","LIN":"37鄰","STREET":"大仁街","SECT":" ","MAREA":" ","LANE":" ","ALLEY":" ","HOUSE_NO":"１９４號","E_COORD97":173945.82000000001,"N_COORD97":2545060.8799999999,"ADDRESS":"大仁街１９４號","OBJECTID":591227},"geometry":{"x":173945.8200000003,"y":2545060.879999999}},{"attributes":{"ID":591255,"DIS_CODE":0,"TOWNNAME":"安南區","LI":"新順里","LIN":"11鄰","STREET":"育安二街","SECT":" ","MAREA":" ","LANE":" ","ALLEY":" ","HOUSE_NO":"２８號","E_COORD97":169702.51000000001,"N_COORD97":2549747.9700000002,"ADDRESS":"育安二街２８號","OBJECTID":591228},"geometry":{"x":169702.50999999978,"y":2549747.9699999988}},{"attributes":{"ID":591256,"DIS_CODE":0,"TOWNNAME":"安南區","LI":"新順里","LIN":"11鄰","STREET":"育安二街","SECT":" ","MAREA":" ","LANE":" ","ALLEY":" ","HOUSE_NO":"３０號","E_COORD97":169703.62,"N_COORD97":2549752.4100000001,"ADDRESS":"育安二街３０號","OBJECTID":591229},"geometry":{"x":169703.62000000011,"y":2549752.410000002}},{"attributes":{"ID":591257,"DIS_CODE":0,"TOWNNAME":"安南區","LI":"新順里","LIN":"11鄰","STREET":"育安二街","SECT":" ","MAREA":" ","LANE":" ","ALLEY":" ","HOUSE_NO":"３２號","E_COORD97":169704.25,"N_COORD97":2549757.0099999998,"ADDRESS":"育安二街３２號","OBJECTID":591230},"geometry":{"x":169704.25,"y":2549757.0100000035}},{"attributes":{"ID":591258,"DIS_CODE":0,"TOWNNAME":"安南區","LI":"新順里","LIN":"11鄰","STREET":"育安二街","SECT":" ","MAREA":" ","LANE":" ","ALLEY":" ","HOUSE_NO":"３６號","E_COORD97":169705.20999999999,"N_COORD97":2549761.2999999998,"ADDRESS":"育安二街３６號","OBJECTID":591231},"geometry":{"x":169705.20999999903,"y":2549761.3000000007}},{"attributes":{"ID":591259,"DIS_CODE":0,"TOWNNAME":"永康區","LI":"復華里","LIN":"14鄰","STREET":"復華六街","SECT":" ","MAREA":" ","LANE":" ","ALLEY":" ","HOUSE_NO":"８號","E_COORD97":172928.78,"N_COORD97":2545849.3599999999,"ADDRESS":"復華六街８號","OBJECTID":591232},"geometry":{"x":172928.78000000026,"y":2545849.3600000013}},{"attributes":{"ID":591260,"DIS_CODE":0,"TOWNNAME":"永康區","LI":"崑山里","LIN":"19鄰","STREET":"大灣路","SECT":" ","MAREA":" ","LANE":" ","ALLEY":" ","HOUSE_NO":"８１６號","E_COORD97":173974.07000000001,"N_COORD97":2544498.8300000001,"ADDRESS":"大灣路８１６號","OBJECTID":591233},"geometry":{"x":173974.07000000123,"y":2544498.8300000001}},{"attributes":{"ID":591261,"DIS_CODE":0,"TOWNNAME":"永康區","LI":"崑山里","LIN":"19鄰","STREET":"大灣路","SECT":" ","MAREA":" ","LANE":" ","ALLEY":" ","HOUSE_NO":"８３８號","E_COORD97":173897.78,"N_COORD97":2544484.0899999999,"ADDRESS":"大灣路８３８號","OBJECTID":591234},"geometry":{"x":173897.78000000119,"y":2544484.0899999999}},{"attributes":{"ID":591262,"DIS_CODE":0,"TOWNNAME":"永康區","LI":"勝利里","LIN":"23鄰","STREET":"勝利街","SECT":" ","MAREA":" ","LANE":" ","ALLEY":" ","HOUSE_NO":"１１８號之６","E_COORD97":171359.44,"N_COORD97":2544915.29,"ADDRESS":"勝利街１１８號之６","OBJECTID":591235},"geometry":{"x":171359.44000000134,"y":2544915.2899999991}},{"attributes":{"ID":591263,"DIS_CODE":0,"TOWNNAME":"安南區","LI":"溪心里","LIN":"11鄰","STREET":"仁安八街","SECT":" ","MAREA":" ","LANE":" ","ALLEY":" ","HOUSE_NO":"８３號","E_COORD97":166351.32999999999,"N_COORD97":2550006.79,"ADDRESS":"仁安八街８３號","OBJECTID":591236},"geometry":{"x":166351.33000000007,"y":2550006.790000001}},{"attributes":{"ID":591264,"DIS_CODE":0,"TOWNNAME":"安南區","LI":"溪心里","LIN":"11鄰","STREET":"仁安八街","SECT":" ","MAREA":" ","LANE":" ","ALLEY":" ","HOUSE_NO":"８５號","E_COORD97":166355.29999999999,"N_COORD97":2550010.4399999999,"ADDRESS":"仁安八街８５號","OBJECTID":591237},"geometry":{"x":166355.30000000075,"y":2550010.4399999995}},{"attributes":{"ID":591265,"DIS_CODE":0,"TOWNNAME":"安南區","LI":"溪心里","LIN":"11鄰","STREET":"仁安八街","SECT":" ","MAREA":" ","LANE":" ","ALLEY":" ","HOUSE_NO":"８７號","E_COORD97":166357.67999999999,"N_COORD97":2550012.6600000001,"ADDRESS":"仁安八街８７號","OBJECTID":591238},"geometry":{"x":166357.68000000063,"y":2550012.6600000001}},{"attributes":{"ID":591266,"DIS_CODE":0,"TOWNNAME":"安南區","LI":"溪心里","LIN":"11鄰","STREET":"仁安八街","SECT":" ","MAREA":" ","LANE":" ","ALLEY":" ","HOUSE_NO":"８９號","E_COORD97":166360.38,"N_COORD97":2550015.52,"ADDRESS":"仁安八街８９號","OBJECTID":591239},"geometry":{"x":166360.37999999989,"y":2550015.5200000014}},{"attributes":{"ID":591267,"DIS_CODE":0,"TOWNNAME":"安南區","LI":"溪心里","LIN":"11鄰","STREET":"仁安八街","SECT":" ","MAREA":" ","LANE":" ","ALLEY":" ","HOUSE_NO":"９１號","E_COORD97":166365.14000000001,"N_COORD97":2550019.0099999998,"ADDRESS":"仁安八街９１號","OBJECTID":591240},"geometry":{"x":166365.13999999966,"y":2550019.0100000016}},{"attributes":{"ID":591268,"DIS_CODE":0,"TOWNNAME":"安南區","LI":"溪心里","LIN":"11鄰","STREET":"仁安八街","SECT":" ","MAREA":" ","LANE":" ","ALLEY":" ","HOUSE_NO":"９３號","E_COORD97":166368.16,"N_COORD97":2550020.9199999999,"ADDRESS":"仁安八街９３號","OBJECTID":591241},"geometry":{"x":166368.16000000108,"y":2550020.9199999999}},{"attributes":{"ID":591269,"DIS_CODE":0,"TOWNNAME":"安南區","LI":"溪心里","LIN":"11鄰","STREET":"功安三街","SECT":" ","MAREA":" ","LANE":" ","ALLEY":" ","HOUSE_NO":"３９之１號","E_COORD97":166215.51000000001,"N_COORD97":2550025.3500000001,"ADDRESS":"功安三街３９之１號","OBJECTID":591242},"geometry":{"x":166215.50999999978,"y":2550025.3499999996}},{"attributes":{"ID":591270,"DIS_CODE":0,"TOWNNAME":"安南區","LI":"溪心里","LIN":"11鄰","STREET":"功安三街","SECT":" ","MAREA":" ","LANE":" ","ALLEY":" ","HOUSE_NO":"３９號","E_COORD97":166218.04999999999,"N_COORD97":2550022.1800000002,"ADDRESS":"功安三街３９號","OBJECTID":591243},"geometry":{"x":166218.05000000075,"y":2550022.1799999997}},{"attributes":{"ID":591271,"DIS_CODE":0,"TOWNNAME":"安南區","LI":"溪心里","LIN":"11鄰","STREET":"功安三街","SECT":" ","MAREA":" ","LANE":" ","ALLEY":" ","HOUSE_NO":"３７號","E_COORD97":166221.22,"N_COORD97":2550018.8399999999,"ADDRESS":"功安三街３７號","OBJECTID":591244},"geometry":{"x":166221.21999999974,"y":2550018.8399999999}},{"attributes":{"ID":591272,"DIS_CODE":0,"TOWNNAME":"安南區","LI":"溪心里","LIN":"11鄰","STREET":"功安三街","SECT":" ","MAREA":" ","LANE":" ","ALLEY":" ","HOUSE_NO":"３５號","E_COORD97":166224.56,"N_COORD97":2550014.0800000001,"ADDRESS":"功安三街３５號","OBJECTID":591245},"geometry":{"x":166224.56000000052,"y":2550014.0800000001}},{"attributes":{"ID":591273,"DIS_CODE":0,"TOWNNAME":"安南區","LI":"溪心里","LIN":"11鄰","STREET":"功安三街","SECT":" ","MAREA":" ","LANE":" ","ALLEY":" ","HOUSE_NO":"３３號","E_COORD97":166227.89000000001,"N_COORD97":2550010.27,"ADDRESS":"功安三街３３號","OBJECTID":591246},"geometry":{"x":166227.88999999966,"y":2550010.2700000014}},{"attributes":{"ID":591274,"DIS_CODE":0,"TOWNNAME":"安南區","LI":"溪心里","LIN":"11鄰","STREET":"功安三街","SECT":" ","MAREA":" ","LANE":" ","ALLEY":" ","HOUSE_NO":"３１號","E_COORD97":166230.42999999999,"N_COORD97":2550007.73,"ADDRESS":"功安三街３１號","OBJECTID":591247},"geometry":{"x":166230.43000000063,"y":2550007.7300000023}},{"attributes":{"ID":591275,"DIS_CODE":0,"TOWNNAME":"安南區","LI":"溪心里","LIN":"11鄰","STREET":"功安三街","SECT":" ","MAREA":" ","LANE":" ","ALLEY":" ","HOUSE_NO":"２９號","E_COORD97":166233.13,"N_COORD97":2550005.0299999998,"ADDRESS":"功安三街２９號","OBJECTID":591248},"geometry":{"x":166233.13000000082,"y":2550005.0300000012}},{"attributes":{"ID":591276,"DIS_CODE":0,"TOWNNAME":"永康區","LI":"崑山里","LIN":"38鄰","STREET":"國光三街","SECT":" ","MAREA":" ","LANE":" ","ALLEY":" ","HOUSE_NO":"５６號","E_COORD97":173967.41,"N_COORD97":2544931.54,"ADDRESS":"國光三街５６號","OBJECTID":591249},"geometry":{"x":173967.40999999922,"y":2544931.5400000028}},{"attributes":{"ID":591277,"DIS_CODE":0,"TOWNNAME":"永康區","LI":"勝利里","LIN":"33鄰","STREET":"中華路","SECT":" ","MAREA":" ","LANE":" ","ALLEY":" ","HOUSE_NO":"１號之３８","E_COORD97":171502.01000000001,"N_COORD97":2544353.0499999998,"ADDRESS":"中華路１號之３８","OBJECTID":591250},"geometry":{"x":171502.01000000071,"y":2544353.0500000007}},{"attributes":{"ID":591278,"DIS_CODE":0,"TOWNNAME":"永康區","LI":"勝利里","LIN":"33鄰","STREET":"中華路","SECT":" ","MAREA":" ","LANE":" ","ALLEY":" ","HOUSE_NO":"１號之３４","E_COORD97":171501.88,"N_COORD97":2544353.0499999998,"ADDRESS":"中華路１號之３４","OBJECTID":591251},"geometry":{"x":171501.87999999989,"y":2544353.0500000007}},{"attributes":{"ID":591279,"DIS_CODE":0,"TOWNNAME":"永康區","LI":"崑山里","LIN":"30鄰","STREET":"國光二街","SECT":" ","MAREA":" ","LANE":" ","ALLEY":" ","HOUSE_NO":"５４號","E_COORD97":173925.73000000001,"N_COORD97":2544722.6899999999,"ADDRESS":"國光二街５４號","OBJECTID":591252},"geometry":{"x":173925.73000000138,"y":2544722.6899999995}},{"attributes":{"ID":591280,"DIS_CODE":0,"TOWNNAME":"永康區","LI":"勝利里","LIN":"21鄰","STREET":"勝利街","SECT":" ","MAREA":" ","LANE":" ","ALLEY":" ","HOUSE_NO":"１３８號","E_COORD97":171384.04999999999,"N_COORD97":2545029.5899999999,"ADDRESS":"勝利街１３８號","OBJECTID":591253},"geometry":{"x":171384.04999999981,"y":2545029.5899999999}},{"attributes":{"ID":591281,"DIS_CODE":0,"TOWNNAME":"永康區","LI":"崑山里","LIN":"37鄰","STREET":"大仁街","SECT":" ","MAREA":" ","LANE":" ","ALLEY":" ","HOUSE_NO":"１５２號","E_COORD97":173914.82000000001,"N_COORD97":2544971.29,"ADDRESS":"大仁街１５２號","OBJECTID":591254},"geometry":{"x":173914.82000000123,"y":2544971.290000001}},{"attributes":{"ID":591282,"DIS_CODE":0,"TOWNNAME":"安南區","LI":"溪心里","LIN":"11鄰","STREET":"功安三街","SECT":" ","MAREA":" ","LANE":" ","ALLEY":" ","HOUSE_NO":"２７號","E_COORD97":166235.51000000001,"N_COORD97":2550001.3799999999,"ADDRESS":"功安三街２７號","OBJECTID":591255},"geometry":{"x":166235.51000000071,"y":2550001.3800000027}},{"attributes":{"ID":591283,"DIS_CODE":0,"TOWNNAME":"安南區","LI":"溪心里","LIN":"11鄰","STREET":"功安三街","SECT":" ","MAREA":" ","LANE":" ","ALLEY":" ","HOUSE_NO":"２５號","E_COORD97":166238.20999999999,"N_COORD97":2549996.9399999999,"ADDRESS":"功安三街２５號","OBJECTID":591256},"geometry":{"x":166238.20999999996,"y":2549996.9399999995}},{"attributes":{"ID":591284,"DIS_CODE":0,"TOWNNAME":"安南區","LI":"溪心里","LIN":"11鄰","STREET":"功安三街","SECT":" ","MAREA":" ","LANE":" ","ALLEY":" ","HOUSE_NO":"２１號","E_COORD97":166241.70000000001,"N_COORD97":2549991.7000000002,"ADDRESS":"功安三街２１號","OBJECTID":591257},"geometry":{"x":166241.70000000019,"y":2549991.6999999993}},{"attributes":{"ID":591285,"DIS_CODE":0,"TOWNNAME":"安南區","LI":"溪心里","LIN":"11鄰","STREET":"功安三街","SECT":" ","MAREA":" ","LANE":" ","ALLEY":" ","HOUSE_NO":"１９號","E_COORD97":166243.76000000001,"N_COORD97":2549988.6800000002,"ADDRESS":"功安三街１９號","OBJECTID":591258},"geometry":{"x":166243.76000000071,"y":2549988.6799999997}},{"attributes":{"ID":591286,"DIS_CODE":0,"TOWNNAME":"安南區","LI":"南興里","LIN":"11鄰","STREET":"公學路","SECT":"五段","MAREA":" ","LANE":" ","ALLEY":" ","HOUSE_NO":"６７５之２５號","E_COORD97":163892.48000000001,"N_COORD97":2552816.7000000002,"ADDRESS":"公學路五段６７５之２５號","OBJECTID":591259},"geometry":{"x":163892.48000000045,"y":2552816.700000003}},{"attributes":{"ID":591287,"DIS_CODE":0,"TOWNNAME":"安南區","LI":"溪心里","LIN":"11鄰","STREET":"仁安六街","SECT":" ","MAREA":" ","LANE":" ","ALLEY":" ","HOUSE_NO":"２２號","E_COORD97":166188.42000000001,"N_COORD97":2550006.8300000001,"ADDRESS":"仁安六街２２號","OBJECTID":591260},"geometry":{"x":166188.42000000086,"y":2550006.8300000019}},{"attributes":{"ID":591288,"DIS_CODE":0,"TOWNNAME":"安南區","LI":"溪心里","LIN":"11鄰","STREET":"安吉路","SECT":"一段","MAREA":" ","LANE":" ","ALLEY":" ","HOUSE_NO":"６７５號","E_COORD97":166951.32460299999,"N_COORD97":2550334.0546200001,"ADDRESS":"安吉路一段６７５號","OBJECTID":591261},"geometry":{"x":166951.32460300066,"y":2550334.0546189994}},{"attributes":{"ID":591289,"DIS_CODE":0,"TOWNNAME":"佳里區","LI":"六安里","LIN":"11鄰","STREET":"佳北路","SECT":" ","MAREA":" ","LANE":" ","ALLEY":" ","HOUSE_NO":"１００號","E_COORD97":166110.01000000001,"N_COORD97":2563386.7000000002,"ADDRESS":"佳北路１００號","OBJECTID":591262},"geometry":{"x":166110.01000000071,"y":2563386.6999999993}},{"attributes":{"ID":591290,"DIS_CODE":0,"TOWNNAME":"佳里區","LI":"六安里","LIN":"11鄰","STREET":"佳北路","SECT":" ","MAREA":" ","LANE":" ","ALLEY":" ","HOUSE_NO":"１０１號","E_COORD97":166088.01999999999,"N_COORD97":2563363.48,"ADDRESS":"佳北路１０１號","OBJECTID":591263},"geometry":{"x":166088.01999999955,"y":2563363.4800000042}},{"attributes":{"ID":591291,"DIS_CODE":0,"TOWNNAME":"佳里區","LI":"六安里","LIN":"11鄰","STREET":"佳北路","SECT":" ","MAREA":" ","LANE":" ","ALLEY":" ","HOUSE_NO":"１０３號","E_COORD97":166083.26000000001,"N_COORD97":2563365.4100000001,"ADDRESS":"佳北路１０３號","OBJECTID":591264},"geometry":{"x":166083.25999999978,"y":2563365.410000002}},{"attributes":{"ID":591292,"DIS_CODE":0,"TOWNNAME":"佳里區","LI":"六安里","LIN":"11鄰","STREET":"佳北路","SECT":" ","MAREA":" ","LANE":" ","ALLEY":" ","HOUSE_NO":"１３８號","E_COORD97":166027.60999999999,"N_COORD97":2563430.5,"ADDRESS":"佳北路１３８號","OBJECTID":591265},"geometry":{"x":166027.61000000034,"y":2563430.5}},{"attributes":{"ID":591293,"DIS_CODE":0,"TOWNNAME":"佳里區","LI":"六安里","LIN":"11鄰","STREET":"佳北路","SECT":" ","MAREA":" ","LANE":" ","ALLEY":" ","HOUSE_NO":"１４０號","E_COORD97":166019.09,"N_COORD97":2563430.7799999998,"ADDRESS":"佳北路１４０號","OBJECTID":591266},"geometry":{"x":166019.09000000171,"y":2563430.7799999993}},{"attributes":{"ID":591294,"DIS_CODE":0,"TOWNNAME":"佳里區","LI":"六安里","LIN":"11鄰","STREET":"佳北路","SECT":" ","MAREA":" ","LANE":" ","ALLEY":" ","HOUSE_NO":"７１號","E_COORD97":166134.76999999999,"N_COORD97":2563315.8100000001,"ADDRESS":"佳北路７１號","OBJECTID":591267},"geometry":{"x":166134.77000000048,"y":2563315.8100000005}},{"attributes":{"ID":591295,"DIS_CODE":0,"TOWNNAME":"佳里區","LI":"六安里","LIN":"11鄰","STREET":"佳北路","SECT":" ","MAREA":" ","LANE":" ","ALLEY":" ","HOUSE_NO":"７３號","E_COORD97":166132.42999999999,"N_COORD97":2563319.3199999998,"ADDRESS":"佳北路７３號","OBJECTID":591268},"geometry":{"x":166132.43000000063,"y":2563319.3200000003}},{"attributes":{"ID":591296,"DIS_CODE":0,"TOWNNAME":"佳里區","LI":"六安里","LIN":"11鄰","STREET":"佳北路","SECT":" ","MAREA":" ","LANE":" ","ALLEY":" ","HOUSE_NO":"７５號","E_COORD97":166129.79000000001,"N_COORD97":2563322.9500000002,"ADDRESS":"佳北路７５號","OBJECTID":591269},"geometry":{"x":166129.7900000019,"y":2563322.9500000011}},{"attributes":{"ID":591297,"DIS_CODE":0,"TOWNNAME":"安南區","LI":"長安里","LIN":"11鄰","STREET":"長和路","SECT":"四段","MAREA":" ","LANE":" ","ALLEY":" ","HOUSE_NO":"３５１號","E_COORD97":168006.92000000001,"N_COORD97":2551896.98,"ADDRESS":"長和路四段３５１號","OBJECTID":591270},"geometry":{"x":168006.92000000179,"y":2551896.9800000004}},{"attributes":{"ID":591298,"DIS_CODE":0,"TOWNNAME":"安南區","LI":"長安里","LIN":"11鄰","STREET":"長和路","SECT":"四段","MAREA":" ","LANE":" ","ALLEY":" ","HOUSE_NO":"４４５號","E_COORD97":167777.47,"N_COORD97":2551973.6299999999,"ADDRESS":"長和路四段４４５號","OBJECTID":591271},"geometry":{"x":167777.46999999881,"y":2551973.6300000008}},{"attributes":{"ID":591299,"DIS_CODE":0,"TOWNNAME":"安南區","LI":"長安里","LIN":"11鄰","STREET":"長溪路","SECT":"三段","MAREA":" ","LANE":" ","ALLEY":" ","HOUSE_NO":"２４６號","E_COORD97":167844.87,"N_COORD97":2551697.2999999998,"ADDRESS":"長溪路三段２４６號","OBJECTID":591272},"geometry":{"x":167844.87000000197,"y":2551697.3000000007}},{"attributes":{"ID":591300,"DIS_CODE":0,"TOWNNAME":"安南區","LI":"長安里","LIN":"11鄰","STREET":"長溪路","SECT":"三段","MAREA":" ","LANE":" ","ALLEY":" ","HOUSE_NO":"２４２號","E_COORD97":167845.76000000001,"N_COORD97":2551695.52,"ADDRESS":"長溪路三段２４２號","OBJECTID":591273},"geometry":{"x":167845.76000000071,"y":2551695.5199999996}},{"attributes":{"ID":591301,"DIS_CODE":0,"TOWNNAME":"安南區","LI":"長安里","LIN":"11鄰","STREET":"長溪路","SECT":"三段","MAREA":" ","LANE":" ","ALLEY":" ","HOUSE_NO":"２４０號","E_COORD97":167845.89000000001,"N_COORD97":2551693.4900000002,"ADDRESS":"長溪路三段２４０號","OBJECTID":591274},"geometry":{"x":167845.89000000153,"y":2551693.4900000039}},{"attributes":{"ID":591302,"DIS_CODE":0,"TOWNNAME":"安南區","LI":"長安里","LIN":"11鄰","STREET":"長溪路","SECT":"三段","MAREA":" ","LANE":" ","ALLEY":" ","HOUSE_NO":"２３８號","E_COORD97":167846.39000000001,"N_COORD97":2551691.9700000002,"ADDRESS":"長溪路三段２３８號","OBJECTID":591275},"geometry":{"x":167846.3900000006,"y":2551691.9700000025}},{"attributes":{"ID":591303,"DIS_CODE":0,"TOWNNAME":"安南區","LI":"長安里","LIN":"11鄰","STREET":"長溪路","SECT":"三段","MAREA":" ","LANE":" ","ALLEY":" ","HOUSE_NO":"２３６號","E_COORD97":167846.89999999999,"N_COORD97":2551690.4399999999,"ADDRESS":"長溪路三段２３６號","OBJECTID":591276},"geometry":{"x":167846.9000000013,"y":2551690.4400000013}},{"attributes":{"ID":591304,"DIS_CODE":0,"TOWNNAME":"安南區","LI":"長安里","LIN":"11鄰","STREET":"長溪路","SECT":"三段","MAREA":" ","LANE":" ","ALLEY":" ","HOUSE_NO":"２３２號","E_COORD97":167847.41,"N_COORD97":2551689.0499999998,"ADDRESS":"長溪路三段２３２號","OBJECTID":591277},"geometry":{"x":167847.41000000015,"y":2551689.0500000007}},{"attributes":{"ID":591305,"DIS_CODE":0,"TOWNNAME":"安南區","LI":"長安里","LIN":"11鄰","STREET":"長溪路","SECT":"三段","MAREA":" ","LANE":" ","ALLEY":" ","HOUSE_NO":"２３０號","E_COORD97":167848.17000000001,"N_COORD97":2551687.52,"ADDRESS":"長溪路三段２３０號","OBJECTID":591278},"geometry":{"x":167848.17000000086,"y":2551687.5200000014}},{"attributes":{"ID":591306,"DIS_CODE":0,"TOWNNAME":"安南區","LI":"長安里","LIN":"11鄰","STREET":"長溪路","SECT":"三段","MAREA":" ","LANE":" ","ALLEY":" ","HOUSE_NO":"２２８號","E_COORD97":167848.81,"N_COORD97":2551685.75,"ADDRESS":"長溪路三段２２８號","OBJECTID":591279},"geometry":{"x":167848.81000000052,"y":2551685.7500000019}},{"attributes":{"ID":591307,"DIS_CODE":0,"TOWNNAME":"安南區","LI":"長安里","LIN":"11鄰","STREET":"長溪路","SECT":"三段","MAREA":" ","LANE":" ","ALLEY":" ","HOUSE_NO":"２２６號","E_COORD97":167849.44,"N_COORD97":2551684.0899999999,"ADDRESS":"長溪路三段２２６號","OBJECTID":591280},"geometry":{"x":167849.44000000041,"y":2551684.0899999999}},{"attributes":{"ID":591308,"DIS_CODE":0,"TOWNNAME":"安南區","LI":"長安里","LIN":"11鄰","STREET":"長溪路","SECT":"三段","MAREA":" ","LANE":" ","ALLEY":" ","HOUSE_NO":"２２２號","E_COORD97":167849.82000000001,"N_COORD97":2551682.8199999998,"ADDRESS":"長溪路三段２２２號","OBJECTID":591281},"geometry":{"x":167849.8200000003,"y":2551682.8200000022}},{"attributes":{"ID":591309,"DIS_CODE":0,"TOWNNAME":"安南區","LI":"長安里","LIN":"11鄰","STREET":"長溪路","SECT":"三段","MAREA":" ","LANE":" ","ALLEY":" ","HOUSE_NO":"２７２號","E_COORD97":167830.76999999999,"N_COORD97":2551781.1200000001,"ADDRESS":"長溪路三段２７２號","OBJECTID":591282},"geometry":{"x":167830.76999999955,"y":2551781.120000001}},{"attributes":{"ID":591310,"DIS_CODE":0,"TOWNNAME":"安南區","LI":"淵東里","LIN":"11鄰","STREET":"智安一街","SECT":" ","MAREA":" ","LANE":" ","ALLEY":" ","HOUSE_NO":"４７號","E_COORD97":165573.56173799999,"N_COORD97":2550139.9098899998,"ADDRESS":"智安一街４７號","OBJECTID":591283},"geometry":{"x":165573.56173800118,"y":2550139.909888003}},{"attributes":{"ID":591311,"DIS_CODE":0,"TOWNNAME":"安南區","LI":"淵東里","LIN":"11鄰","STREET":"智安一街","SECT":" ","MAREA":" ","LANE":" ","ALLEY":" ","HOUSE_NO":"４９號","E_COORD97":165570.5,"N_COORD97":2550143.71,"ADDRESS":"智安一街４９號","OBJECTID":591284},"geometry":{"x":165570.50000000186,"y":2550143.7100000028}},{"attributes":{"ID":591312,"DIS_CODE":0,"TOWNNAME":"安南區","LI":"淵東里","LIN":"11鄰","STREET":"智安一街","SECT":" ","MAREA":" ","LANE":" ","ALLEY":" ","HOUSE_NO":"５１號","E_COORD97":165565.935413,"N_COORD97":2550147.2123799999,"ADDRESS":"智安一街５１號","OBJECTID":591285},"geometry":{"x":165565.93541300017,"y":2550147.2123840041}},{"attributes":{"ID":591313,"DIS_CODE":0,"TOWNNAME":"安南區","LI":"淵東里","LIN":"11鄰","STREET":"智安一街","SECT":" ","MAREA":" ","LANE":" ","ALLEY":" ","HOUSE_NO":"５３號","E_COORD97":165563.18146200001,"N_COORD97":2550151.3398799999,"ADDRESS":"智安一街５３號","OBJECTID":591286},"geometry":{"x":165563.18146200012,"y":2550151.339881001}},{"attributes":{"ID":591314,"DIS_CODE":0,"TOWNNAME":"安南區","LI":"淵東里","LIN":"11鄰","STREET":"智安一街","SECT":" ","MAREA":" ","LANE":" ","ALLEY":" ","HOUSE_NO":"６７號","E_COORD97":165564.91,"N_COORD97":2550157.5499999998,"ADDRESS":"智安一街６７號","OBJECTID":591287},"geometry":{"x":165564.91000000108,"y":2550157.5500000007}},{"attributes":{"ID":591315,"DIS_CODE":0,"TOWNNAME":"安南區","LI":"淵東里","LIN":"11鄰","STREET":"智安一街","SECT":" ","MAREA":" ","LANE":" ","ALLEY":" ","HOUSE_NO":"１１２號","E_COORD97":165575.13731600001,"N_COORD97":2550171.2166900001,"ADDRESS":"智安一街１１２號","OBJECTID":591288},"geometry":{"x":165575.13731600065,"y":2550171.216694003}},{"attributes":{"ID":591316,"DIS_CODE":0,"TOWNNAME":"安南區","LI":"淵東里","LIN":"11鄰","STREET":"智安一街","SECT":" ","MAREA":" ","LANE":" ","ALLEY":" ","HOUSE_NO":"１１６號","E_COORD97":165571.53599500001,"N_COORD97":2550175.66169,"ADDRESS":"智安一街１１６號","OBJECTID":591289},"geometry":{"x":165571.53599500097,"y":2550175.6616910025}},{"attributes":{"ID":591317,"DIS_CODE":0,"TOWNNAME":"安南區","LI":"淵東里","LIN":"11鄰","STREET":"智安一街","SECT":" ","MAREA":" ","LANE":" ","ALLEY":" ","HOUSE_NO":"１１８號","E_COORD97":165568.782045,"N_COORD97":2550178.94252,"ADDRESS":"智安一街１１８號","OBJECTID":591290},"geometry":{"x":165568.78204500023,"y":2550178.9425229989}},{"attributes":{"ID":591318,"DIS_CODE":0,"TOWNNAME":"安南區","LI":"淵東里","LIN":"11鄰","STREET":"智安一街","SECT":" ","MAREA":" ","LANE":" ","ALLEY":" ","HOUSE_NO":"１２０號","E_COORD97":165565.81625100001,"N_COORD97":2550182.7525200001,"ADDRESS":"智安一街１２０號","OBJECTID":591291},"geometry":{"x":165565.81625100039,"y":2550182.7525210027}},{"attributes":{"ID":591319,"DIS_CODE":0,"TOWNNAME":"安南區","LI":"淵東里","LIN":"11鄰","STREET":"智安一街","SECT":" ","MAREA":" ","LANE":" ","ALLEY":" ","HOUSE_NO":"１２２號","E_COORD97":165562.850458,"N_COORD97":2550186.0333500002,"ADDRESS":"智安一街１２２號","OBJECTID":591292},"geometry":{"x":165562.85045800079,"y":2550186.0333520025}},{"attributes":{"ID":591320,"DIS_CODE":0,"TOWNNAME":"安南區","LI":"淵東里","LIN":"11鄰","STREET":"智安一街","SECT":" ","MAREA":" ","LANE":" ","ALLEY":" ","HOUSE_NO":"１２６號","E_COORD97":165559.672823,"N_COORD97":2550189.73752,"ADDRESS":"智安一街１２６號","OBJECTID":591293},"geometry":{"x":165559.67282299977,"y":2550189.7375170011}},{"attributes":{"ID":591321,"DIS_CODE":0,"TOWNNAME":"安南區","LI":"長安里","LIN":"11鄰","STREET":"長溪路","SECT":"三段","MAREA":" ","LANE":" ","ALLEY":" ","HOUSE_NO":"３９４號","E_COORD97":167678,"N_COORD97":2552052.4100000001,"ADDRESS":"長溪路三段３９４號","OBJECTID":591294},"geometry":{"x":167678.00000000093,"y":2552052.4100000001}},{"attributes":{"ID":591322,"DIS_CODE":0,"TOWNNAME":"安南區","LI":"佃西里","LIN":"11鄰","STREET":"公學路","SECT":"五段","MAREA":" ","LANE":" ","ALLEY":" ","HOUSE_NO":"１６０號","E_COORD97":164812.53,"N_COORD97":2552038.8700000001,"ADDRESS":"公學路五段１６０號","OBJECTID":591295},"geometry":{"x":164812.53000000026,"y":2552038.8700000029}},{"attributes":{"ID":591323,"DIS_CODE":0,"TOWNNAME":"安南區","LI":"佃西里","LIN":"11鄰","STREET":"公學路","SECT":"五段","MAREA":" ","LANE":" ","ALLEY":" ","HOUSE_NO":"１７４號","E_COORD97":164772.14000000001,"N_COORD97":2552068.0800000001,"ADDRESS":"公學路五段１７４號","OBJECTID":591296},"geometry":{"x":164772.13999999966,"y":2552068.0800000001}},{"attributes":{"ID":591324,"DIS_CODE":0,"TOWNNAME":"安南區","LI":"學東里","LIN":"11鄰","STREET":"公學路","SECT":"六段","MAREA":" ","LANE":" ","ALLEY":" ","HOUSE_NO":"６５１號","E_COORD97":162248.45999999999,"N_COORD97":2553234.3799999999,"ADDRESS":"公學路六段６５１號","OBJECTID":591297},"geometry":{"x":162248.46000000089,"y":2553234.379999999}},{"attributes":{"ID":591325,"DIS_CODE":0,"TOWNNAME":"安南區","LI":"學東里","LIN":"11鄰","STREET":"公學路","SECT":"六段","MAREA":" ","LANE":" ","ALLEY":" ","HOUSE_NO":"６５５號","E_COORD97":162226.10999999999,"N_COORD97":2553219.1400000001,"ADDRESS":"公學路六段６５５號","OBJECTID":591298},"geometry":{"x":162226.11000000127,"y":2553219.1400000025}},{"attributes":{"ID":591326,"DIS_CODE":0,"TOWNNAME":"安南區","LI":"學東里","LIN":"11鄰","STREET":"公學路","SECT":"六段","MAREA":" ","LANE":" ","ALLEY":" ","HOUSE_NO":"６６５號","E_COORD97":162202.48999999999,"N_COORD97":2553224.98,"ADDRESS":"公學路六段６６５號","OBJECTID":591299},"geometry":{"x":162202.49000000209,"y":2553224.9800000004}},{"attributes":{"ID":591327,"DIS_CODE":0,"TOWNNAME":"安南區","LI":"安順里","LIN":"11鄰","STREET":"安和路","SECT":"四段","MAREA":" ","LANE":" ","ALLEY":" ","HOUSE_NO":"１６０號","E_COORD97":169955.04999999999,"N_COORD97":2550451.79,"ADDRESS":"安和路四段１６０號","OBJECTID":591300},"geometry":{"x":169955.04999999981,"y":2550451.7899999991}},{"attributes":{"ID":591328,"DIS_CODE":0,"TOWNNAME":"安南區","LI":"\u25A0南里","LIN":"11鄰","STREET":"環福街","SECT":" ","MAREA":" ","LANE":" ","ALLEY":" ","HOUSE_NO":"１７９號","E_COORD97":170329.14999999999,"N_COORD97":2552584.7799999998,"ADDRESS":"環福街１７９號","OBJECTID":591301},"geometry":{"x":170329.15000000037,"y":2552584.7799999993}},{"attributes":{"ID":591329,"DIS_CODE":0,"TOWNNAME":"東區","LI":"泉南里","LIN":"11鄰","STREET":"樹林街","SECT":"一段","MAREA":" ","LANE":" ","ALLEY":" ","HOUSE_NO":"４３號","E_COORD97":169605.92000000001,"N_COORD97":2542918.8900000001,"ADDRESS":"樹林街一段４３號","OBJECTID":591302},"geometry":{"x":169605.92000000086,"y":2542918.8900000006}},{"attributes":{"ID":591330,"DIS_CODE":0,"TOWNNAME":"東區","LI":"泉南里","LIN":"11鄰","STREET":"樹林街","SECT":"一段","MAREA":" ","LANE":" ","ALLEY":" ","HOUSE_NO":"４５號","E_COORD97":169600.51000000001,"N_COORD97":2542919.2000000002,"ADDRESS":"樹林街一段４５號","OBJECTID":591303},"geometry":{"x":169600.51000000071,"y":2542919.1999999993}},{"attributes":{"ID":591331,"DIS_CODE":0,"TOWNNAME":"仁德區","LI":"成功里","LIN":"11鄰","STREET":"成功二街","SECT":" ","MAREA":" ","LANE":" ","ALLEY":" ","HOUSE_NO":"４７號","E_COORD97":170918.89999999999,"N_COORD97":2539814.77,"ADDRESS":"成功二街４７號","OBJECTID":591304},"geometry":{"x":170918.9000000013,"y":2539814.7700000014}},{"attributes":{"ID":591332,"DIS_CODE":0,"TOWNNAME":"中西區","LI":"民主里","LIN":"11鄰","STREET":"友愛街","SECT":" ","MAREA":" ","LANE":" ","ALLEY":" ","HOUSE_NO":"３８３號","E_COORD97":167307.01000000001,"N_COORD97":2543693.7400000002,"ADDRESS":"友愛街３８３號","OBJECTID":591305},"geometry":{"x":167307.00999999978,"y":2543693.7399999984}},{"attributes":{"ID":591333,"DIS_CODE":0,"TOWNNAME":"中西區","LI":"永福里","LIN":"11鄰","STREET":"永福路","SECT":"二段","MAREA":" ","LANE":" ","ALLEY":" ","HOUSE_NO":"１４２之１號","E_COORD97":168142.51999999999,"N_COORD97":2543878.9500000002,"ADDRESS":"永福路二段１４２之１號","OBJECTID":591306},"geometry":{"x":168142.51999999955,"y":2543878.9500000011}},{"attributes":{"ID":591334,"DIS_CODE":0,"TOWNNAME":"中西區","LI":"光賢里","LIN":"11鄰","STREET":"中華西路","SECT":"二段","MAREA":" ","LANE":" ","ALLEY":" ","HOUSE_NO":"５９０號","E_COORD97":166666.91,"N_COORD97":2544924.4700000002,"ADDRESS":"中華西路二段５９０號","OBJECTID":591307},"geometry":{"x":166666.91000000108,"y":2544924.4700000025}},{"attributes":{"ID":591335,"DIS_CODE":0,"TOWNNAME":"中西區","LI":"光賢里","LIN":"11鄰","STREET":"中華西路","SECT":"二段","MAREA":" ","LANE":" ","ALLEY":" ","HOUSE_NO":"５９２號","E_COORD97":166665.79999999999,"N_COORD97":2544932.73,"ADDRESS":"中華西路二段５９２號","OBJECTID":591308},"geometry":{"x":166665.80000000075,"y":2544932.7300000023}},{"attributes":{"ID":591336,"DIS_CODE":0,"TOWNNAME":"北區","LI":"成功里","LIN":"11鄰","STREET":"北成路","SECT":" ","MAREA":" ","LANE":" ","ALLEY":" ","HOUSE_NO":"２２號八樓之７","E_COORD97":169170.23000000001,"N_COORD97":2546568.2000000002,"ADDRESS":"北成路２２號八樓之７","OBJECTID":591309},"geometry":{"x":169170.23000000138,"y":2546568.200000003}},{"attributes":{"ID":591337,"DIS_CODE":0,"TOWNNAME":"安南區","LI":"佃西里","LIN":"11鄰","STREET":"公學路","SECT":"五段","MAREA":" ","LANE":" ","ALLEY":" ","HOUSE_NO":"１５８之１號","E_COORD97":164815.89999999999,"N_COORD97":2552031.9100000001,"ADDRESS":"公學路五段１５８之１號","OBJECTID":591310},"geometry":{"x":164815.9000000013,"y":2552031.9100000001}},{"attributes":{"ID":591338,"DIS_CODE":0,"TOWNNAME":"安南區","LI":"州南里","LIN":"11鄰","STREET":"安和路","SECT":"四段","MAREA":" ","LANE":" ","ALLEY":" ","HOUSE_NO":"６２０號","E_COORD97":169959.73999999999,"N_COORD97":2551489.79,"ADDRESS":"安和路四段６２０號","OBJECTID":591311},"geometry":{"x":169959.74000000209,"y":2551489.7899999991}},{"attributes":{"ID":591339,"DIS_CODE":0,"TOWNNAME":"安南區","LI":"州南里","LIN":"11鄰","STREET":"安和路","SECT":"四段","MAREA":" ","LANE":" ","ALLEY":" ","HOUSE_NO":"５９６號","E_COORD97":169964.31,"N_COORD97":2551448.6400000001,"ADDRESS":"安和路四段５９６號","OBJECTID":591312},"geometry":{"x":169964.31000000052,"y":2551448.6399999987}},{"attributes":{"ID":591340,"DIS_CODE":0,"TOWNNAME":"安南區","LI":"州南里","LIN":"11鄰","STREET":"安和路","SECT":"四段","MAREA":" ","LANE":" ","ALLEY":" ","HOUSE_NO":"５９８號","E_COORD97":169957.44,"N_COORD97":2551449.6899999999,"ADDRESS":"安和路四段５９８號","OBJECTID":591313},"geometry":{"x":169957.44000000134,"y":2551449.6899999995}},{"attributes":{"ID":591341,"DIS_CODE":0,"TOWNNAME":"安南區","LI":"州南里","LIN":"11鄰","STREET":"安和路","SECT":"四段","MAREA":" ","LANE":" ","ALLEY":" ","HOUSE_NO":"６００號","E_COORD97":169957.17000000001,"N_COORD97":2551452.8599999999,"ADDRESS":"安和路四段６００號","OBJECTID":591314},"geometry":{"x":169957.17000000086,"y":2551452.8600000031}},{"attributes":{"ID":591342,"DIS_CODE":0,"TOWNNAME":"安南區","LI":"州南里","LIN":"11鄰","STREET":"安和路","SECT":"四段","MAREA":" ","LANE":" ","ALLEY":" ","HOUSE_NO":"６０２號","E_COORD97":169957.31,"N_COORD97":2551456.4300000002,"ADDRESS":"安和路四段６０２號","OBJECTID":591315},"geometry":{"x":169957.31000000052,"y":2551456.4300000016}},{"attributes":{"ID":591343,"DIS_CODE":0,"TOWNNAME":"安南區","LI":"州南里","LIN":"11鄰","STREET":"安和路","SECT":"四段","MAREA":" ","LANE":" ","ALLEY":" ","HOUSE_NO":"６０４號","E_COORD97":169958.10000000001,"N_COORD97":2551461.1800000002,"ADDRESS":"安和路四段６０４號","OBJECTID":591316},"geometry":{"x":169958.09999999963,"y":2551461.1800000034}},{"attributes":{"ID":591344,"DIS_CODE":0,"TOWNNAME":"安南區","LI":"州南里","LIN":"11鄰","STREET":"安和路","SECT":"四段","MAREA":" ","LANE":" ","ALLEY":" ","HOUSE_NO":"６０６號","E_COORD97":169959.57999999999,"N_COORD97":2551464.6400000001,"ADDRESS":"安和路四段６０６號","OBJECTID":591317},"geometry":{"x":169959.58000000101,"y":2551464.6400000006}},{"attributes":{"ID":591345,"DIS_CODE":0,"TOWNNAME":"安南區","LI":"州南里","LIN":"11鄰","STREET":"安和路","SECT":"四段","MAREA":" ","LANE":" ","ALLEY":" ","HOUSE_NO":"６０８號","E_COORD97":169960.67000000001,"N_COORD97":2551467.5899999999,"ADDRESS":"安和路四段６０８號","OBJECTID":591318},"geometry":{"x":169960.66999999993,"y":2551467.5899999999}},{"attributes":{"ID":591346,"DIS_CODE":0,"TOWNNAME":"安南區","LI":"州南里","LIN":"11鄰","STREET":"安和路","SECT":"四段","MAREA":" ","LANE":" ","ALLEY":" ","HOUSE_NO":"６１０號","E_COORD97":169961.14000000001,"N_COORD97":2551471.1600000001,"ADDRESS":"安和路四段６１０號","OBJECTID":591319},"geometry":{"x":169961.13999999966,"y":2551471.1600000001}},{"attributes":{"ID":591347,"DIS_CODE":0,"TOWNNAME":"安南區","LI":"州南里","LIN":"11鄰","STREET":"安和路","SECT":"四段","MAREA":" ","LANE":" ","ALLEY":" ","HOUSE_NO":"６１２號","E_COORD97":169961.45000000001,"N_COORD97":2551475.98,"ADDRESS":"安和路四段６１２號","OBJECTID":591320},"geometry":{"x":169961.44999999925,"y":2551475.9800000004}},{"attributes":{"ID":591348,"DIS_CODE":0,"TOWNNAME":"安南區","LI":"州南里","LIN":"11鄰","STREET":"安和路","SECT":"四段","MAREA":" ","LANE":" ","ALLEY":" ","HOUSE_NO":"６１４號","E_COORD97":169960.98000000001,"N_COORD97":2551480.0099999998,"ADDRESS":"安和路四段６１４號","OBJECTID":591321},"geometry":{"x":169960.98000000045,"y":2551480.0100000016}},{"attributes":{"ID":591349,"DIS_CODE":0,"TOWNNAME":"安南區","LI":"州南里","LIN":"11鄰","STREET":"安和路","SECT":"四段","MAREA":" ","LANE":" ","ALLEY":" ","HOUSE_NO":"６１６號","E_COORD97":169960.98000000001,"N_COORD97":2551482.96,"ADDRESS":"安和路四段６１６號","OBJECTID":591322},"geometry":{"x":169960.98000000045,"y":2551482.9600000009}},{"attributes":{"ID":591350,"DIS_CODE":0,"TOWNNAME":"安南區","LI":"州南里","LIN":"11鄰","STREET":"安和路","SECT":"四段","MAREA":" ","LANE":" ","ALLEY":" ","HOUSE_NO":"６２２號","E_COORD97":169958.5,"N_COORD97":2551494.4500000002,"ADDRESS":"安和路四段６２２號","OBJECTID":591323},"geometry":{"x":169958.50000000093,"y":2551494.4500000011}},{"attributes":{"ID":591351,"DIS_CODE":0,"TOWNNAME":"安南區","LI":"州南里","LIN":"11鄰","STREET":"安和路","SECT":"四段","MAREA":" ","LANE":" ","ALLEY":" ","HOUSE_NO":"６２４號","E_COORD97":169959.42999999999,"N_COORD97":2551498.02,"ADDRESS":"安和路四段６２４號","OBJECTID":591324},"geometry":{"x":169959.42999999877,"y":2551498.0199999996}},{"attributes":{"ID":591352,"DIS_CODE":0,"TOWNNAME":"麻豆區","LI":"保安里","LIN":"11鄰","STREET":"興中路","SECT":" ","MAREA":" ","LANE":" ","ALLEY":" ","HOUSE_NO":"３２號","E_COORD97":173154.39999999999,"N_COORD97":2564806.2999999998,"ADDRESS":"興中路３２號","OBJECTID":591325},"geometry":{"x":173154.4000000013,"y":2564806.3000000026}},{"attributes":{"ID":591353,"DIS_CODE":0,"TOWNNAME":"麻豆區","LI":"保安里","LIN":"11鄰","STREET":"興中路","SECT":" ","MAREA":" ","LANE":" ","ALLEY":" ","HOUSE_NO":"３４號","E_COORD97":173162.95999999999,"N_COORD97":2564806.2200000002,"ADDRESS":"興中路３４號","OBJECTID":591326},"geometry":{"x":173162.95999999996,"y":2564806.2199999988}},{"attributes":{"ID":591354,"DIS_CODE":0,"TOWNNAME":"麻豆區","LI":"保安里","LIN":"11鄰","STREET":"興中路","SECT":" ","MAREA":" ","LANE":" ","ALLEY":" ","HOUSE_NO":"３６號","E_COORD97":173166.5,"N_COORD97":2564805.9900000002,"ADDRESS":"興中路３６號","OBJECTID":591327},"geometry":{"x":173166.5,"y":2564805.9900000002}},{"attributes":{"ID":591355,"DIS_CODE":0,"TOWNNAME":"麻豆區","LI":"保安里","LIN":"11鄰","STREET":"興中路","SECT":" ","MAREA":" ","LANE":" ","ALLEY":" ","HOUSE_NO":"３８號","E_COORD97":173170.75,"N_COORD97":2564806.29,"ADDRESS":"興中路３８號","OBJECTID":591328},"geometry":{"x":173170.75000000093,"y":2564806.2899999991}},{"attributes":{"ID":591356,"DIS_CODE":0,"TOWNNAME":"麻豆區","LI":"保安里","LIN":"11鄰","STREET":"興中路","SECT":" ","MAREA":" ","LANE":" ","ALLEY":" ","HOUSE_NO":"４０號","E_COORD97":173175.41,"N_COORD97":2564806.1800000002,"ADDRESS":"興中路４０號","OBJECTID":591329},"geometry":{"x":173175.41000000015,"y":2564806.1800000016}},{"attributes":{"ID":591357,"DIS_CODE":0,"TOWNNAME":"麻豆區","LI":"保安里","LIN":"11鄰","STREET":"興南路","SECT":" ","MAREA":" ","LANE":" ","ALLEY":" ","HOUSE_NO":"２９號","E_COORD97":173145.22,"N_COORD97":2564761.7000000002,"ADDRESS":"興南路２９號","OBJECTID":591330},"geometry":{"x":173145.22000000067,"y":2564761.7000000011}},{"attributes":{"ID":591358,"DIS_CODE":0,"TOWNNAME":"麻豆區","LI":"保安里","LIN":"11鄰","STREET":"興南路","SECT":" ","MAREA":" ","LANE":" ","ALLEY":" ","HOUSE_NO":"３１號","E_COORD97":173149.82999999999,"N_COORD97":2564761.75,"ADDRESS":"興南路３１號","OBJECTID":591331},"geometry":{"x":173149.83000000101,"y":2564761.7500000037}},{"attributes":{"ID":591359,"DIS_CODE":0,"TOWNNAME":"麻豆區","LI":"保安里","LIN":"11鄰","STREET":"興南路","SECT":" ","MAREA":" ","LANE":" ","ALLEY":" ","HOUSE_NO":"３３號","E_COORD97":173154.07000000001,"N_COORD97":2564761.79,"ADDRESS":"興南路３３號","OBJECTID":591332},"geometry":{"x":173154.0700000003,"y":2564761.790000001}},{"attributes":{"ID":591360,"DIS_CODE":0,"TOWNNAME":"白河區","LI":"庄內里","LIN":"11鄰","STREET":"光華路","SECT":" ","MAREA":" ","LANE":" ","ALLEY":" ","HOUSE_NO":"１０９號","E_COORD97":190698.69,"N_COORD97":2583571.1899999999,"ADDRESS":"光華路１０９號","OBJECTID":591333},"geometry":{"x":190698.69000000041,"y":2583571.1900000032}},{"attributes":{"ID":591361,"DIS_CODE":0,"TOWNNAME":"白河區","LI":"庄內里","LIN":"11鄰","STREET":"光華路","SECT":" ","MAREA":" ","LANE":" ","ALLEY":" ","HOUSE_NO":"１１１號","E_COORD97":190699.47,"N_COORD97":2583575.3599999999,"ADDRESS":"光華路１１１號","OBJECTID":591334},"geometry":{"x":190699.46999999974,"y":2583575.3599999994}},{"attributes":{"ID":591362,"DIS_CODE":0,"TOWNNAME":"白河區","LI":"庄內里","LIN":"11鄰","STREET":"光華路","SECT":" ","MAREA":" ","LANE":" ","ALLEY":" ","HOUSE_NO":"１１３號","E_COORD97":190700.04999999999,"N_COORD97":2583579.3999999999,"ADDRESS":"光華路１１３號","OBJECTID":591335},"geometry":{"x":190700.05000000075,"y":2583579.4000000004}},{"attributes":{"ID":591363,"DIS_CODE":0,"TOWNNAME":"白河區","LI":"庄內里","LIN":"11鄰","STREET":"光華路","SECT":" ","MAREA":" ","LANE":" ","ALLEY":" ","HOUSE_NO":"１１５號","E_COORD97":190700.39999999999,"N_COORD97":2583583.6000000001,"ADDRESS":"光華路１１５號","OBJECTID":591336},"geometry":{"x":190700.40000000037,"y":2583583.6000000015}},{"attributes":{"ID":591364,"DIS_CODE":0,"TOWNNAME":"白河區","LI":"庄內里","LIN":"11鄰","STREET":"光華路","SECT":" ","MAREA":" ","LANE":" ","ALLEY":" ","HOUSE_NO":"１１９號","E_COORD97":190701.66,"N_COORD97":2583594.2200000002,"ADDRESS":"光華路１１９號","OBJECTID":591337},"geometry":{"x":190701.66000000015,"y":2583594.2200000025}},{"attributes":{"ID":591365,"DIS_CODE":0,"TOWNNAME":"白河區","LI":"庄內里","LIN":"11鄰","STREET":"光華路","SECT":" ","MAREA":" ","LANE":" ","ALLEY":" ","HOUSE_NO":"１２７號","E_COORD97":190704.39999999999,"N_COORD97":2583611.9900000002,"ADDRESS":"光華路１２７號","OBJECTID":591338},"geometry":{"x":190704.40000000224,"y":2583611.9900000021}},{"attributes":{"ID":591366,"DIS_CODE":0,"TOWNNAME":"永康區","LI":"永康里","LIN":"11鄰","STREET":"永二街","SECT":" ","MAREA":" ","LANE":" ","ALLEY":" ","HOUSE_NO":"１２號","E_COORD97":173787.13,"N_COORD97":2547143.5899999999,"ADDRESS":"永二街１２號","OBJECTID":591339},"geometry":{"x":173787.12999999989,"y":2547143.5900000017}},{"attributes":{"ID":591367,"DIS_CODE":0,"TOWNNAME":"永康區","LI":"永康里","LIN":"11鄰","STREET":"永平街","SECT":" ","MAREA":" ","LANE":" ","ALLEY":" ","HOUSE_NO":"７５號","E_COORD97":173733.95000000001,"N_COORD97":2547075.5,"ADDRESS":"永平街７５號","OBJECTID":591340},"geometry":{"x":173733.95000000112,"y":2547075.5000000037}},{"attributes":{"ID":591368,"DIS_CODE":0,"TOWNNAME":"永康區","LI":"王行里","LIN":"11鄰","STREET":"王行路","SECT":" ","MAREA":" ","LANE":" ","ALLEY":" ","HOUSE_NO":"１００４號","E_COORD97":175858.25,"N_COORD97":2550085.4900000002,"ADDRESS":"王行路１００４號","OBJECTID":591341},"geometry":{"x":175858.25,"y":2550085.4900000002}},{"attributes":{"ID":591369,"DIS_CODE":0,"TOWNNAME":"永康區","LI":"王行里","LIN":"11鄰","STREET":"王行路","SECT":" ","MAREA":" ","LANE":" ","ALLEY":" ","HOUSE_NO":"５４９號","E_COORD97":175812.38,"N_COORD97":2550031,"ADDRESS":"王行路５４９號","OBJECTID":591342},"geometry":{"x":175812.38000000082,"y":2550031}},{"attributes":{"ID":591370,"DIS_CODE":0,"TOWNNAME":"永康區","LI":"北灣里","LIN":"11鄰","STREET":"信義二街","SECT":" ","MAREA":" ","LANE":" ","ALLEY":" ","HOUSE_NO":"７９號","E_COORD97":174966.59,"N_COORD97":2545706.4199999999,"ADDRESS":"信義二街７９號","OBJECTID":591343},"geometry":{"x":174966.59000000078,"y":2545706.4200000037}},{"attributes":{"ID":591371,"DIS_CODE":0,"TOWNNAME":"北區","LI":"新勝里","LIN":"11鄰","STREET":"長榮路","SECT":"五段","MAREA":" ","LANE":" ","ALLEY":" ","HOUSE_NO":"１２５號二樓之１","E_COORD97":170049.62,"N_COORD97":2545656.0800000001,"ADDRESS":"長榮路五段１２５號二樓之１","OBJECTID":591344},"geometry":{"x":170049.62000000011,"y":2545656.0800000019}},{"attributes":{"ID":591372,"DIS_CODE":0,"TOWNNAME":"北區","LI":"新勝里","LIN":"11鄰","STREET":"長榮路","SECT":"五段","MAREA":" ","LANE":" ","ALLEY":" ","HOUSE_NO":"１２５號二樓之２","E_COORD97":170049.62,"N_COORD97":2545656.0800000001,"ADDRESS":"長榮路五段１２５號二樓之２","OBJECTID":591345},"geometry":{"x":170049.62000000011,"y":2545656.0800000019}},{"attributes":{"ID":591373,"DIS_CODE":0,"TOWNNAME":"北區","LI":"新勝里","LIN":"11鄰","STREET":"長榮路","SECT":"五段","MAREA":" ","LANE":" ","ALLEY":" ","HOUSE_NO":"１２５號三樓之１","E_COORD97":170049.62,"N_COORD97":2545656.0800000001,"ADDRESS":"長榮路五段１２５號三樓之１","OBJECTID":591346},"geometry":{"x":170049.62000000011,"y":2545656.0800000019}},{"attributes":{"ID":591374,"DIS_CODE":0,"TOWNNAME":"北區","LI":"新勝里","LIN":"11鄰","STREET":"長榮路","SECT":"五段","MAREA":" ","LANE":" ","ALLEY":" ","HOUSE_NO":"１２５號三樓之２","E_COORD97":170049.62,"N_COORD97":2545656.0800000001,"ADDRESS":"長榮路五段１２５號三樓之２","OBJECTID":591347},"geometry":{"x":170049.62000000011,"y":2545656.0800000019}},{"attributes":{"ID":591375,"DIS_CODE":0,"TOWNNAME":"北區","LI":"新勝里","LIN":"11鄰","STREET":"長榮路","SECT":"五段","MAREA":" ","LANE":" ","ALLEY":" ","HOUSE_NO":"１２５號三樓之３","E_COORD97":170049.62,"N_COORD97":2545656.0800000001,"ADDRESS":"長榮路五段１２５號三樓之３","OBJECTID":591348},"geometry":{"x":170049.62000000011,"y":2545656.0800000019}},{"attributes":{"ID":591376,"DIS_CODE":0,"TOWNNAME":"北區","LI":"新勝里","LIN":"11鄰","STREET":"長榮路","SECT":"五段","MAREA":" ","LANE":" ","ALLEY":" ","HOUSE_NO":"１２５號三樓之４","E_COORD97":170049.62,"N_COORD97":2545656.0800000001,"ADDRESS":"長榮路五段１２５號三樓之４","OBJECTID":591349},"geometry":{"x":170049.62000000011,"y":2545656.0800000019}},{"attributes":{"ID":591377,"DIS_CODE":0,"TOWNNAME":"北區","LI":"新勝里","LIN":"11鄰","STREET":"長榮路","SECT":"五段","MAREA":" ","LANE":" ","ALLEY":" ","HOUSE_NO":"１２５號四樓之１","E_COORD97":170049.62,"N_COORD97":2545656.0800000001,"ADDRESS":"長榮路五段１２５號四樓之１","OBJECTID":591350},"geometry":{"x":170049.62000000011,"y":2545656.0800000019}},{"attributes":{"ID":591378,"DIS_CODE":0,"TOWNNAME":"北區","LI":"新勝里","LIN":"11鄰","STREET":"長榮路","SECT":"五段","MAREA":" ","LANE":" ","ALLEY":" ","HOUSE_NO":"１２５號四樓之２","E_COORD97":170049.62,"N_COORD97":2545656.0800000001,"ADDRESS":"長榮路五段１２５號四樓之２","OBJECTID":591351},"geometry":{"x":170049.62000000011,"y":2545656.0800000019}},{"attributes":{"ID":591379,"DIS_CODE":0,"TOWNNAME":"北區","LI":"新勝里","LIN":"11鄰","STREET":"長榮路","SECT":"五段","MAREA":" ","LANE":" ","ALLEY":" ","HOUSE_NO":"１２５號四樓之３","E_COORD97":170049.62,"N_COORD97":2545656.0800000001,"ADDRESS":"長榮路五段１２５號四樓之３","OBJECTID":591352},"geometry":{"x":170049.62000000011,"y":2545656.0800000019}},{"attributes":{"ID":591380,"DIS_CODE":0,"TOWNNAME":"北區","LI":"新勝里","LIN":"11鄰","STREET":"長榮路","SECT":"五段","MAREA":" ","LANE":" ","ALLEY":" ","HOUSE_NO":"１２５號四樓之４","E_COORD97":170049.62,"N_COORD97":2545656.0800000001,"ADDRESS":"長榮路五段１２５號四樓之４","OBJECTID":591353},"geometry":{"x":170049.62000000011,"y":2545656.0800000019}},{"attributes":{"ID":591381,"DIS_CODE":0,"TOWNNAME":"北區","LI":"裕民里","LIN":"11鄰","STREET":"成功路","SECT":" ","MAREA":" ","LANE":" ","ALLEY":" ","HOUSE_NO":"６２０號二樓","E_COORD97":167418.63,"N_COORD97":2544852.5499999998,"ADDRESS":"成功路６２０號二樓","OBJECTID":591354},"geometry":{"x":167418.62999999989,"y":2544852.5500000026}},{"attributes":{"ID":591382,"DIS_CODE":0,"TOWNNAME":"北區","LI":"裕民里","LIN":"11鄰","STREET":"成功路","SECT":" ","MAREA":" ","LANE":" ","ALLEY":" ","HOUSE_NO":"６２０號三樓","E_COORD97":167418.63,"N_COORD97":2544852.5499999998,"ADDRESS":"成功路６２０號三樓","OBJECTID":591355},"geometry":{"x":167418.62999999989,"y":2544852.5500000026}},{"attributes":{"ID":591383,"DIS_CODE":0,"TOWNNAME":"北區","LI":"裕民里","LIN":"11鄰","STREET":"成功路","SECT":" ","MAREA":" ","LANE":" ","ALLEY":" ","HOUSE_NO":"６２０號五樓","E_COORD97":167418.63,"N_COORD97":2544852.5499999998,"ADDRESS":"成功路６２０號五樓","OBJECTID":591356},"geometry":{"x":167418.62999999989,"y":2544852.5500000026}},{"attributes":{"ID":591384,"DIS_CODE":0,"TOWNNAME":"北區","LI":"裕民里","LIN":"11鄰","STREET":"成功路","SECT":" ","MAREA":" ","LANE":" ","ALLEY":" ","HOUSE_NO":"６２０號四樓","E_COORD97":167418.63,"N_COORD97":2544852.5499999998,"ADDRESS":"成功路６２０號四樓","OBJECTID":591357},"geometry":{"x":167418.62999999989,"y":2544852.5500000026}},{"attributes":{"ID":591385,"DIS_CODE":0,"TOWNNAME":"安平區","LI":"港仔里","LIN":"11鄰","STREET":"延平街","SECT":" ","MAREA":" ","LANE":" ","ALLEY":" ","HOUSE_NO":"８５號二樓","E_COORD97":164156.38,"N_COORD97":2544601.23,"ADDRESS":"延平街８５號二樓","OBJECTID":591358},"geometry":{"x":164156.38000000082,"y":2544601.2300000004}},{"attributes":{"ID":591386,"DIS_CODE":0,"TOWNNAME":"安平區","LI":"港仔里","LIN":"11鄰","STREET":"延平街","SECT":" ","MAREA":" ","LANE":" ","ALLEY":" ","HOUSE_NO":"８５號三樓","E_COORD97":164156.38,"N_COORD97":2544601.23,"ADDRESS":"延平街８５號三樓","OBJECTID":591359},"geometry":{"x":164156.38000000082,"y":2544601.2300000004}},{"attributes":{"ID":591387,"DIS_CODE":0,"TOWNNAME":"安平區","LI":"港仔里","LIN":"11鄰","STREET":"延平街","SECT":" ","MAREA":" ","LANE":" ","ALLEY":" ","HOUSE_NO":"８５號四樓","E_COORD97":164156.38,"N_COORD97":2544601.23,"ADDRESS":"延平街８５號四樓","OBJECTID":591360},"geometry":{"x":164156.38000000082,"y":2544601.2300000004}},{"attributes":{"ID":591388,"DIS_CODE":0,"TOWNNAME":"安平區","LI":"億載里","LIN":"11鄰","STREET":"郡平路","SECT":" ","MAREA":" ","LANE":" ","ALLEY":" ","HOUSE_NO":"３８８號七樓之１","E_COORD97":164024.29999999999,"N_COORD97":2543382.0600000001,"ADDRESS":"郡平路３８８號七樓之１","OBJECTID":591361},"geometry":{"x":164024.30000000075,"y":2543382.0600000005}},{"attributes":{"ID":591389,"DIS_CODE":0,"TOWNNAME":"安平區","LI":"億載里","LIN":"11鄰","STREET":"郡平路","SECT":" ","MAREA":" ","LANE":" ","ALLEY":" ","HOUSE_NO":"３８８號七樓之２","E_COORD97":164024.29999999999,"N_COORD97":2543382.0600000001,"ADDRESS":"郡平路３８８號七樓之２","OBJECTID":591362},"geometry":{"x":164024.30000000075,"y":2543382.0600000005}},{"attributes":{"ID":591390,"DIS_CODE":0,"TOWNNAME":"安平區","LI":"億載里","LIN":"11鄰","STREET":"郡平路","SECT":" ","MAREA":" ","LANE":" ","ALLEY":" ","HOUSE_NO":"３８８號七樓之３","E_COORD97":164024.29999999999,"N_COORD97":2543382.0600000001,"ADDRESS":"郡平路３８８號七樓之３","OBJECTID":591363},"geometry":{"x":164024.30000000075,"y":2543382.0600000005}},{"attributes":{"ID":591391,"DIS_CODE":0,"TOWNNAME":"安平區","LI":"億載里","LIN":"11鄰","STREET":"郡平路","SECT":" ","MAREA":" ","LANE":" ","ALLEY":" ","HOUSE_NO":"３８８號七樓之５","E_COORD97":164024.29999999999,"N_COORD97":2543382.0600000001,"ADDRESS":"郡平路３８８號七樓之５","OBJECTID":591364},"geometry":{"x":164024.30000000075,"y":2543382.0600000005}},{"attributes":{"ID":591392,"DIS_CODE":0,"TOWNNAME":"安平區","LI":"億載里","LIN":"11鄰","STREET":"郡平路","SECT":" ","MAREA":" ","LANE":" ","ALLEY":" ","HOUSE_NO":"３８８號九樓之１","E_COORD97":164024.29999999999,"N_COORD97":2543382.0600000001,"ADDRESS":"郡平路３８８號九樓之１","OBJECTID":591365},"geometry":{"x":164024.30000000075,"y":2543382.0600000005}},{"attributes":{"ID":591393,"DIS_CODE":0,"TOWNNAME":"北區","LI":"成功里","LIN":"11鄰","STREET":"北成路","SECT":" ","MAREA":" ","LANE":" ","ALLEY":" ","HOUSE_NO":"２２號八樓之８","E_COORD97":169170.23000000001,"N_COORD97":2546568.2000000002,"ADDRESS":"北成路２２號八樓之８","OBJECTID":591366},"geometry":{"x":169170.23000000138,"y":2546568.200000003}},{"attributes":{"ID":591394,"DIS_CODE":0,"TOWNNAME":"安平區","LI":"億載里","LIN":"11鄰","STREET":"郡平路","SECT":" ","MAREA":" ","LANE":" ","ALLEY":" ","HOUSE_NO":"３８８號九樓之２","E_COORD97":164024.29999999999,"N_COORD97":2543382.0600000001,"ADDRESS":"郡平路３８８號九樓之２","OBJECTID":591367},"geometry":{"x":164024.30000000075,"y":2543382.0600000005}},{"attributes":{"ID":591395,"DIS_CODE":0,"TOWNNAME":"安平區","LI":"億載里","LIN":"11鄰","STREET":"郡平路","SECT":" ","MAREA":" ","LANE":" ","ALLEY":" ","HOUSE_NO":"３８８號九樓之３","E_COORD97":164024.29999999999,"N_COORD97":2543382.0600000001,"ADDRESS":"郡平路３８８號九樓之３","OBJECTID":591368},"geometry":{"x":164024.30000000075,"y":2543382.0600000005}},{"attributes":{"ID":591396,"DIS_CODE":0,"TOWNNAME":"安平區","LI":"億載里","LIN":"11鄰","STREET":"郡平路","SECT":" ","MAREA":" ","LANE":" ","ALLEY":" ","HOUSE_NO":"３８８號九樓之４","E_COORD97":164024.29999999999,"N_COORD97":2543382.0600000001,"ADDRESS":"郡平路３８８號九樓之４","OBJECTID":591369},"geometry":{"x":164024.30000000075,"y":2543382.0600000005}},{"attributes":{"ID":591397,"DIS_CODE":0,"TOWNNAME":"安平區","LI":"億載里","LIN":"11鄰","STREET":"郡平路","SECT":" ","MAREA":" ","LANE":" ","ALLEY":" ","HOUSE_NO":"３８８號二樓之１","E_COORD97":164024.29999999999,"N_COORD97":2543382.0600000001,"ADDRESS":"郡平路３８８號二樓之１","OBJECTID":591370},"geometry":{"x":164024.30000000075,"y":2543382.0600000005}},{"attributes":{"ID":591398,"DIS_CODE":0,"TOWNNAME":"安平區","LI":"億載里","LIN":"11鄰","STREET":"郡平路","SECT":" ","MAREA":" ","LANE":" ","ALLEY":" ","HOUSE_NO":"３８８號二樓之３","E_COORD97":164024.29999999999,"N_COORD97":2543382.0600000001,"ADDRESS":"郡平路３８８號二樓之３","OBJECTID":591371},"geometry":{"x":164024.30000000075,"y":2543382.0600000005}},{"attributes":{"ID":591399,"DIS_CODE":0,"TOWNNAME":"安平區","LI":"億載里","LIN":"11鄰","STREET":"郡平路","SECT":" ","MAREA":" ","LANE":" ","ALLEY":" ","HOUSE_NO":"３８８號二樓之４","E_COORD97":164024.29999999999,"N_COORD97":2543382.0600000001,"ADDRESS":"郡平路３８８號二樓之４","OBJECTID":591372},"geometry":{"x":164024.30000000075,"y":2543382.0600000005}},{"attributes":{"ID":591400,"DIS_CODE":0,"TOWNNAME":"安平區","LI":"億載里","LIN":"11鄰","STREET":"郡平路","SECT":" ","MAREA":" ","LANE":" ","ALLEY":" ","HOUSE_NO":"３８８號二樓之５","E_COORD97":164024.29999999999,"N_COORD97":2543382.0600000001,"ADDRESS":"郡平路３８８號二樓之５","OBJECTID":591373},"geometry":{"x":164024.30000000075,"y":2543382.0600000005}},{"attributes":{"ID":591401,"DIS_CODE":0,"TOWNNAME":"安平區","LI":"億載里","LIN":"11鄰","STREET":"郡平路","SECT":" ","MAREA":" ","LANE":" ","ALLEY":" ","HOUSE_NO":"３８８號八樓之２","E_COORD97":164024.29999999999,"N_COORD97":2543382.0600000001,"ADDRESS":"郡平路３８８號八樓之２","OBJECTID":591374},"geometry":{"x":164024.30000000075,"y":2543382.0600000005}},{"attributes":{"ID":591402,"DIS_CODE":0,"TOWNNAME":"安平區","LI":"億載里","LIN":"11鄰","STREET":"郡平路","SECT":" ","MAREA":" ","LANE":" ","ALLEY":" ","HOUSE_NO":"３８８號八樓之３","E_COORD97":164024.29999999999,"N_COORD97":2543382.0600000001,"ADDRESS":"郡平路３８８號八樓之３","OBJECTID":591375},"geometry":{"x":164024.30000000075,"y":2543382.0600000005}},{"attributes":{"ID":591403,"DIS_CODE":0,"TOWNNAME":"安平區","LI":"億載里","LIN":"11鄰","STREET":"郡平路","SECT":" ","MAREA":" ","LANE":" ","ALLEY":" ","HOUSE_NO":"３８８號八樓之４","E_COORD97":164024.29999999999,"N_COORD97":2543382.0600000001,"ADDRESS":"郡平路３８８號八樓之４","OBJECTID":591376},"geometry":{"x":164024.30000000075,"y":2543382.0600000005}},{"attributes":{"ID":591404,"DIS_CODE":0,"TOWNNAME":"安平區","LI":"億載里","LIN":"11鄰","STREET":"郡平路","SECT":" ","MAREA":" ","LANE":" ","ALLEY":" ","HOUSE_NO":"３８８號八樓之５","E_COORD97":164024.29999999999,"N_COORD97":2543382.0600000001,"ADDRESS":"郡平路３８８號八樓之５","OBJECTID":591377},"geometry":{"x":164024.30000000075,"y":2543382.0600000005}},{"attributes":{"ID":591405,"DIS_CODE":0,"TOWNNAME":"安平區","LI":"億載里","LIN":"11鄰","STREET":"郡平路","SECT":" ","MAREA":" ","LANE":" ","ALLEY":" ","HOUSE_NO":"３８８號十一樓之２","E_COORD97":164024.29999999999,"N_COORD97":2543382.0600000001,"ADDRESS":"郡平路３８８號十一樓之２","OBJECTID":591378},"geometry":{"x":164024.30000000075,"y":2543382.0600000005}},{"attributes":{"ID":591406,"DIS_CODE":0,"TOWNNAME":"安平區","LI":"億載里","LIN":"11鄰","STREET":"郡平路","SECT":" ","MAREA":" ","LANE":" ","ALLEY":" ","HOUSE_NO":"３８８號十一樓之３","E_COORD97":164024.29999999999,"N_COORD97":2543382.0600000001,"ADDRESS":"郡平路３８８號十一樓之３","OBJECTID":591379},"geometry":{"x":164024.30000000075,"y":2543382.0600000005}},{"attributes":{"ID":591407,"DIS_CODE":0,"TOWNNAME":"安平區","LI":"億載里","LIN":"11鄰","STREET":"郡平路","SECT":" ","MAREA":" ","LANE":" ","ALLEY":" ","HOUSE_NO":"３８８號十一樓之４","E_COORD97":164024.29999999999,"N_COORD97":2543382.0600000001,"ADDRESS":"郡平路３８８號十一樓之４","OBJECTID":591380},"geometry":{"x":164024.30000000075,"y":2543382.0600000005}},{"attributes":{"ID":591408,"DIS_CODE":0,"TOWNNAME":"安平區","LI":"億載里","LIN":"11鄰","STREET":"郡平路","SECT":" ","MAREA":" ","LANE":" ","ALLEY":" ","HOUSE_NO":"３８８號十一樓之四","E_COORD97":164032.59,"N_COORD97":2543375.21,"ADDRESS":"郡平路３８８號十一樓之四","OBJECTID":591381},"geometry":{"x":164032.59000000078,"y":2543375.2100000009}},{"attributes":{"ID":591409,"DIS_CODE":0,"TOWNNAME":"安平區","LI":"億載里","LIN":"11鄰","STREET":"郡平路","SECT":" ","MAREA":" ","LANE":" ","ALLEY":" ","HOUSE_NO":"３８８號十二樓之１","E_COORD97":164024.29999999999,"N_COORD97":2543382.0600000001,"ADDRESS":"郡平路３８８號十二樓之１","OBJECTID":591382},"geometry":{"x":164024.30000000075,"y":2543382.0600000005}},{"attributes":{"ID":591410,"DIS_CODE":0,"TOWNNAME":"安平區","LI":"億載里","LIN":"11鄰","STREET":"郡平路","SECT":" ","MAREA":" ","LANE":" ","ALLEY":" ","HOUSE_NO":"３８８號十二樓之２","E_COORD97":164024.29999999999,"N_COORD97":2543382.0600000001,"ADDRESS":"郡平路３８８號十二樓之２","OBJECTID":591383},"geometry":{"x":164024.30000000075,"y":2543382.0600000005}},{"attributes":{"ID":591411,"DIS_CODE":0,"TOWNNAME":"安平區","LI":"億載里","LIN":"11鄰","STREET":"郡平路","SECT":" ","MAREA":" ","LANE":" ","ALLEY":" ","HOUSE_NO":"３８８號十二樓之３","E_COORD97":164024.29999999999,"N_COORD97":2543382.0600000001,"ADDRESS":"郡平路３８８號十二樓之３","OBJECTID":591384},"geometry":{"x":164024.30000000075,"y":2543382.0600000005}},{"attributes":{"ID":591412,"DIS_CODE":0,"TOWNNAME":"安平區","LI":"億載里","LIN":"11鄰","STREET":"郡平路","SECT":" ","MAREA":" ","LANE":" ","ALLEY":" ","HOUSE_NO":"３８８號十二樓之４","E_COORD97":164024.29999999999,"N_COORD97":2543382.0600000001,"ADDRESS":"郡平路３８８號十二樓之４","OBJECTID":591385},"geometry":{"x":164024.30000000075,"y":2543382.0600000005}},{"attributes":{"ID":591413,"DIS_CODE":0,"TOWNNAME":"安平區","LI":"億載里","LIN":"11鄰","STREET":"郡平路","SECT":" ","MAREA":" ","LANE":" ","ALLEY":" ","HOUSE_NO":"３８８號十樓之１","E_COORD97":164024.29999999999,"N_COORD97":2543382.0600000001,"ADDRESS":"郡平路３８８號十樓之１","OBJECTID":591386},"geometry":{"x":164024.30000000075,"y":2543382.0600000005}},{"attributes":{"ID":591414,"DIS_CODE":0,"TOWNNAME":"安平區","LI":"億載里","LIN":"11鄰","STREET":"郡平路","SECT":" ","MAREA":" ","LANE":" ","ALLEY":" ","HOUSE_NO":"３８８號十樓之２","E_COORD97":164024.29999999999,"N_COORD97":2543382.0600000001,"ADDRESS":"郡平路３８８號十樓之２","OBJECTID":591387},"geometry":{"x":164024.30000000075,"y":2543382.0600000005}},{"attributes":{"ID":591415,"DIS_CODE":0,"TOWNNAME":"安平區","LI":"億載里","LIN":"11鄰","STREET":"郡平路","SECT":" ","MAREA":" ","LANE":" ","ALLEY":" ","HOUSE_NO":"３８８號十樓之３","E_COORD97":164024.29999999999,"N_COORD97":2543382.0600000001,"ADDRESS":"郡平路３８８號十樓之３","OBJECTID":591388},"geometry":{"x":164024.30000000075,"y":2543382.0600000005}},{"attributes":{"ID":591416,"DIS_CODE":0,"TOWNNAME":"安平區","LI":"億載里","LIN":"11鄰","STREET":"郡平路","SECT":" ","MAREA":" ","LANE":" ","ALLEY":" ","HOUSE_NO":"３８８號十樓之４","E_COORD97":164024.29999999999,"N_COORD97":2543382.0600000001,"ADDRESS":"郡平路３８８號十樓之４","OBJECTID":591389},"geometry":{"x":164024.30000000075,"y":2543382.0600000005}},{"attributes":{"ID":591417,"DIS_CODE":0,"TOWNNAME":"安平區","LI":"億載里","LIN":"11鄰","STREET":"郡平路","SECT":" ","MAREA":" ","LANE":" ","ALLEY":" ","HOUSE_NO":"３８８號三樓之１","E_COORD97":164024.29999999999,"N_COORD97":2543382.0600000001,"ADDRESS":"郡平路３８８號三樓之１","OBJECTID":591390},"geometry":{"x":164024.30000000075,"y":2543382.0600000005}},{"attributes":{"ID":591418,"DIS_CODE":0,"TOWNNAME":"安平區","LI":"億載里","LIN":"11鄰","STREET":"郡平路","SECT":" ","MAREA":" ","LANE":" ","ALLEY":" ","HOUSE_NO":"３８８號三樓之２","E_COORD97":164024.29999999999,"N_COORD97":2543382.0600000001,"ADDRESS":"郡平路３８８號三樓之２","OBJECTID":591391},"geometry":{"x":164024.30000000075,"y":2543382.0600000005}},{"attributes":{"ID":591419,"DIS_CODE":0,"TOWNNAME":"安平區","LI":"億載里","LIN":"11鄰","STREET":"郡平路","SECT":" ","MAREA":" ","LANE":" ","ALLEY":" ","HOUSE_NO":"３８８號三樓之３","E_COORD97":164024.29999999999,"N_COORD97":2543382.0600000001,"ADDRESS":"郡平路３８８號三樓之３","OBJECTID":591392},"geometry":{"x":164024.30000000075,"y":2543382.0600000005}},{"attributes":{"ID":591420,"DIS_CODE":0,"TOWNNAME":"安平區","LI":"億載里","LIN":"11鄰","STREET":"郡平路","SECT":" ","MAREA":" ","LANE":" ","ALLEY":" ","HOUSE_NO":"３８８號三樓之４","E_COORD97":164024.29999999999,"N_COORD97":2543382.0600000001,"ADDRESS":"郡平路３８８號三樓之４","OBJECTID":591393},"geometry":{"x":164024.30000000075,"y":2543382.0600000005}},{"attributes":{"ID":591421,"DIS_CODE":0,"TOWNNAME":"安平區","LI":"億載里","LIN":"11鄰","STREET":"郡平路","SECT":" ","MAREA":" ","LANE":" ","ALLEY":" ","HOUSE_NO":"３８８號三樓之５","E_COORD97":164024.29999999999,"N_COORD97":2543382.0600000001,"ADDRESS":"郡平路３８８號三樓之５","OBJECTID":591394},"geometry":{"x":164024.30000000075,"y":2543382.0600000005}},{"attributes":{"ID":591422,"DIS_CODE":0,"TOWNNAME":"安平區","LI":"億載里","LIN":"11鄰","STREET":"郡平路","SECT":" ","MAREA":" ","LANE":" ","ALLEY":" ","HOUSE_NO":"３８８號五樓之２","E_COORD97":164024.29999999999,"N_COORD97":2543382.0600000001,"ADDRESS":"郡平路３８８號五樓之２","OBJECTID":591395},"geometry":{"x":164024.30000000075,"y":2543382.0600000005}},{"attributes":{"ID":591423,"DIS_CODE":0,"TOWNNAME":"安平區","LI":"億載里","LIN":"11鄰","STREET":"郡平路","SECT":" ","MAREA":" ","LANE":" ","ALLEY":" ","HOUSE_NO":"３８８號五樓之３","E_COORD97":164024.29999999999,"N_COORD97":2543382.0600000001,"ADDRESS":"郡平路３８８號五樓之３","OBJECTID":591396},"geometry":{"x":164024.30000000075,"y":2543382.0600000005}},{"attributes":{"ID":591424,"DIS_CODE":0,"TOWNNAME":"安平區","LI":"億載里","LIN":"11鄰","STREET":"郡平路","SECT":" ","MAREA":" ","LANE":" ","ALLEY":" ","HOUSE_NO":"３８８號五樓之４","E_COORD97":164024.29999999999,"N_COORD97":2543382.0600000001,"ADDRESS":"郡平路３８８號五樓之４","OBJECTID":591397},"geometry":{"x":164024.30000000075,"y":2543382.0600000005}},{"attributes":{"ID":591425,"DIS_CODE":0,"TOWNNAME":"安平區","LI":"億載里","LIN":"11鄰","STREET":"郡平路","SECT":" ","MAREA":" ","LANE":" ","ALLEY":" ","HOUSE_NO":"３８８號六樓之３","E_COORD97":164024.29999999999,"N_COORD97":2543382.0600000001,"ADDRESS":"郡平路３８８號六樓之３","OBJECTID":591398},"geometry":{"x":164024.30000000075,"y":2543382.0600000005}},{"attributes":{"ID":591426,"DIS_CODE":0,"TOWNNAME":"安平區","LI":"億載里","LIN":"11鄰","STREET":"郡平路","SECT":" ","MAREA":" ","LANE":" ","ALLEY":" ","HOUSE_NO":"３８８號六樓之４","E_COORD97":164024.29999999999,"N_COORD97":2543382.0600000001,"ADDRESS":"郡平路３８８號六樓之４","OBJECTID":591399},"geometry":{"x":164024.30000000075,"y":2543382.0600000005}},{"attributes":{"ID":591427,"DIS_CODE":0,"TOWNNAME":"安平區","LI":"億載里","LIN":"11鄰","STREET":"郡平路","SECT":" ","MAREA":" ","LANE":" ","ALLEY":" ","HOUSE_NO":"３８８號六樓之５","E_COORD97":164024.29999999999,"N_COORD97":2543382.0600000001,"ADDRESS":"郡平路３８８號六樓之５","OBJECTID":591400},"geometry":{"x":164024.30000000075,"y":2543382.0600000005}}]}