{"displayFieldName":"TOWNNAME","fieldAliases":{"ID":"ID","DIS_CODE":"DIS_CODE","TOWNNAME":"TOWNNAME","LI":"LI","LIN":"LIN","STREET":"STREET","SECT":"SECT","MAREA":"MAREA","LANE":"LANE","ALLEY":"ALLEY","HOUSE_NO":"HOUSE_NO","E_COORD97":"E_COORD97","N_COORD97":"N_COORD97","ADDRESS":"ADDRESS","OBJECTID":"OBJECTID"},"geometryType":"esriGeometryPoint","spatialReference":{"wkid":102443,"latestWkid":3826},"fields":[{"name":"ID","type":"esriFieldTypeDouble","alias":"ID"},{"name":"DIS_CODE","type":"esriFieldTypeInteger","alias":"DIS_CODE"},{"name":"TOWNNAME","type":"esriFieldTypeString","alias":"TOWNNAME","length":8},{"name":"LI","type":"esriFieldTypeString","alias":"LI","length":8},{"name":"LIN","type":"esriFieldTypeString","alias":"LIN","length":12},{"name":"STREET","type":"esriFieldTypeString","alias":"STREET","length":20},{"name":"SECT","type":"esriFieldTypeString","alias":"SECT","length":8},{"name":"MAREA","type":"esriFieldTypeString","alias":"MAREA","length":12},{"name":"LANE","type":"esriFieldTypeString","alias":"LANE","length":10},{"name":"ALLEY","type":"esriFieldTypeString","alias":"ALLEY","length":10},{"name":"HOUSE_NO","type":"esriFieldTypeString","alias":"HOUSE_NO","length":20},{"name":"E_COORD97","type":"esriFieldTypeDouble","alias":"E_COORD97"},{"name":"N_COORD97","type":"esriFieldTypeDouble","alias":"N_COORD97"},{"name":"ADDRESS","type":"esriFieldTypeString","alias":"ADDRESS","length":50},{"name":"OBJECTID","type":"esriFieldTypeOID","alias":"OBJECTID"}],"features":[{"attributes":{"ID":584828,"DIS_CODE":0,"TOWNNAME":"仁德區","LI":"保安里","LIN":"3鄰","STREET":"保安路","SECT":"一段","MAREA":" ","LANE":" ","ALLEY":" ","HOUSE_NO":"１２５號","E_COORD97":171150.53,"N_COORD97":2536861.0600000001,"ADDRESS":"保安路一段１２５號","OBJECTID":584801},"geometry":{"x":171150.53000000026,"y":2536861.0600000024}},{"attributes":{"ID":584829,"DIS_CODE":0,"TOWNNAME":"仁德區","LI":"仁義里","LIN":"26鄰","STREET":"中山路","SECT":" ","MAREA":" ","LANE":" ","ALLEY":" ","HOUSE_NO":"５５４號","E_COORD97":173363.39999999999,"N_COORD97":2541338,"ADDRESS":"中山路５５４號","OBJECTID":584802},"geometry":{"x":173363.4000000013,"y":2541338}},{"attributes":{"ID":584830,"DIS_CODE":0,"TOWNNAME":"仁德區","LI":"太子里","LIN":"44鄰","STREET":"太子一街","SECT":" ","MAREA":" ","LANE":" ","ALLEY":" ","HOUSE_NO":"７號","E_COORD97":174836.76000000001,"N_COORD97":2543454.75,"ADDRESS":"太子一街７號","OBJECTID":584803},"geometry":{"x":174836.76000000071,"y":2543454.75}},{"attributes":{"ID":584831,"DIS_CODE":0,"TOWNNAME":"永康區","LI":"中華里","LIN":"16鄰","STREET":"小東路","SECT":" ","MAREA":" ","LANE":" ","ALLEY":" ","HOUSE_NO":"５０９號八樓之１","E_COORD97":171649.45999999999,"N_COORD97":2544340.7999999998,"ADDRESS":"小東路５０９號八樓之１","OBJECTID":584804},"geometry":{"x":171649.45999999996,"y":2544340.8000000007}},{"attributes":{"ID":584832,"DIS_CODE":0,"TOWNNAME":"永康區","LI":"中華里","LIN":"16鄰","STREET":"小東路","SECT":" ","MAREA":" ","LANE":" ","ALLEY":" ","HOUSE_NO":"５０９號九樓之１２","E_COORD97":171650.85000000001,"N_COORD97":2544340.7999999998,"ADDRESS":"小東路５０９號九樓之１２","OBJECTID":584805},"geometry":{"x":171650.85000000056,"y":2544340.8000000007}},{"attributes":{"ID":584833,"DIS_CODE":0,"TOWNNAME":"永康區","LI":"中華里","LIN":"16鄰","STREET":"小東路","SECT":" ","MAREA":" ","LANE":" ","ALLEY":" ","HOUSE_NO":"５０９號九樓之３","E_COORD97":171649.56,"N_COORD97":2544340.7999999998,"ADDRESS":"小東路５０９號九樓之３","OBJECTID":584806},"geometry":{"x":171649.55999999959,"y":2544340.8000000007}},{"attributes":{"ID":584834,"DIS_CODE":0,"TOWNNAME":"善化區","LI":"東關里","LIN":"16鄰","STREET":"大信路","SECT":" ","MAREA":" ","LANE":" ","ALLEY":" ","HOUSE_NO":"１６號","E_COORD97":177489.67999999999,"N_COORD97":2558992.25,"ADDRESS":"大信路１６號","OBJECTID":584807},"geometry":{"x":177489.68000000063,"y":2558992.2500000019}},{"attributes":{"ID":584835,"DIS_CODE":0,"TOWNNAME":"永康區","LI":"中華里","LIN":"16鄰","STREET":"小東路","SECT":" ","MAREA":" ","LANE":" ","ALLEY":" ","HOUSE_NO":"５０９號五樓之５","E_COORD97":171649.62,"N_COORD97":2544340.7999999998,"ADDRESS":"小東路５０９號五樓之５","OBJECTID":584808},"geometry":{"x":171649.62000000011,"y":2544340.8000000007}},{"attributes":{"ID":584836,"DIS_CODE":0,"TOWNNAME":"永康區","LI":"中華里","LIN":"16鄰","STREET":"小東路","SECT":" ","MAREA":" ","LANE":" ","ALLEY":" ","HOUSE_NO":"５０９號八樓之５","E_COORD97":171649.62,"N_COORD97":2544340.7999999998,"ADDRESS":"小東路５０９號八樓之５","OBJECTID":584809},"geometry":{"x":171649.62000000011,"y":2544340.8000000007}},{"attributes":{"ID":584837,"DIS_CODE":0,"TOWNNAME":"東區","LI":"大同里","LIN":"16鄰","STREET":"大同路","SECT":"一段","MAREA":" ","LANE":" ","ALLEY":" ","HOUSE_NO":"１７３號十樓","E_COORD97":169144.26999999999,"N_COORD97":2542799.6099999999,"ADDRESS":"大同路一段１７３號十樓","OBJECTID":584810},"geometry":{"x":169144.26999999955,"y":2542799.6100000013}},{"attributes":{"ID":584838,"DIS_CODE":0,"TOWNNAME":"中西區","LI":"文賢里","LIN":"2鄰","STREET":"文和街","SECT":" ","MAREA":" ","LANE":" ","ALLEY":" ","HOUSE_NO":"３４號","E_COORD97":167244.60000000001,"N_COORD97":2544949.75,"ADDRESS":"文和街３４號","OBJECTID":584811},"geometry":{"x":167244.60000000056,"y":2544949.7500000019}},{"attributes":{"ID":584839,"DIS_CODE":0,"TOWNNAME":"仁德區","LI":"仁德里","LIN":"38鄰","STREET":"文宏路","SECT":" ","MAREA":" ","LANE":" ","ALLEY":" ","HOUSE_NO":"７８號","E_COORD97":172409.42999999999,"N_COORD97":2541715.3199999998,"ADDRESS":"文宏路７８號","OBJECTID":584812},"geometry":{"x":172409.43000000063,"y":2541715.3200000003}},{"attributes":{"ID":584840,"DIS_CODE":0,"TOWNNAME":"仁德區","LI":"保安里","LIN":"20鄰","STREET":"文賢路","SECT":"一段","MAREA":" ","LANE":" ","ALLEY":" ","HOUSE_NO":"５７６號","E_COORD97":171113.42000000001,"N_COORD97":2536850.0699999998,"ADDRESS":"文賢路一段５７６號","OBJECTID":584813},"geometry":{"x":171113.41999999993,"y":2536850.070000004}},{"attributes":{"ID":584841,"DIS_CODE":0,"TOWNNAME":"東區","LI":"大同里","LIN":"16鄰","STREET":"大同路","SECT":"一段","MAREA":" ","LANE":" ","ALLEY":" ","HOUSE_NO":"１７３號三樓","E_COORD97":169144.26999999999,"N_COORD97":2542799.6099999999,"ADDRESS":"大同路一段１７３號三樓","OBJECTID":584814},"geometry":{"x":169144.26999999955,"y":2542799.6100000013}},{"attributes":{"ID":584842,"DIS_CODE":0,"TOWNNAME":"東區","LI":"大同里","LIN":"16鄰","STREET":"大同路","SECT":"一段","MAREA":" ","LANE":" ","ALLEY":" ","HOUSE_NO":"１７３號五樓","E_COORD97":169144.26999999999,"N_COORD97":2542799.6099999999,"ADDRESS":"大同路一段１７３號五樓","OBJECTID":584815},"geometry":{"x":169144.26999999955,"y":2542799.6100000013}},{"attributes":{"ID":584843,"DIS_CODE":0,"TOWNNAME":"東區","LI":"大同里","LIN":"16鄰","STREET":"大同路","SECT":"一段","MAREA":" ","LANE":" ","ALLEY":" ","HOUSE_NO":"１７３號五樓之１","E_COORD97":169144.26999999999,"N_COORD97":2542799.6099999999,"ADDRESS":"大同路一段１７３號五樓之１","OBJECTID":584816},"geometry":{"x":169144.26999999955,"y":2542799.6100000013}},{"attributes":{"ID":584844,"DIS_CODE":0,"TOWNNAME":"東區","LI":"大同里","LIN":"16鄰","STREET":"大同路","SECT":"一段","MAREA":" ","LANE":" ","ALLEY":" ","HOUSE_NO":"１７３號五樓之２","E_COORD97":169144.26999999999,"N_COORD97":2542799.6099999999,"ADDRESS":"大同路一段１７３號五樓之２","OBJECTID":584817},"geometry":{"x":169144.26999999955,"y":2542799.6100000013}},{"attributes":{"ID":584845,"DIS_CODE":0,"TOWNNAME":"東區","LI":"大同里","LIN":"16鄰","STREET":"大同路","SECT":"一段","MAREA":" ","LANE":" ","ALLEY":" ","HOUSE_NO":"１７３號五樓之３","E_COORD97":169144.26999999999,"N_COORD97":2542799.6099999999,"ADDRESS":"大同路一段１７３號五樓之３","OBJECTID":584818},"geometry":{"x":169144.26999999955,"y":2542799.6100000013}},{"attributes":{"ID":584846,"DIS_CODE":0,"TOWNNAME":"東區","LI":"大同里","LIN":"16鄰","STREET":"大同路","SECT":"一段","MAREA":" ","LANE":" ","ALLEY":" ","HOUSE_NO":"１７３號五樓之４","E_COORD97":169144.26999999999,"N_COORD97":2542799.6099999999,"ADDRESS":"大同路一段１７３號五樓之４","OBJECTID":584819},"geometry":{"x":169144.26999999955,"y":2542799.6100000013}},{"attributes":{"ID":584847,"DIS_CODE":0,"TOWNNAME":"東區","LI":"大同里","LIN":"16鄰","STREET":"大同路","SECT":"一段","MAREA":" ","LANE":" ","ALLEY":" ","HOUSE_NO":"１７３號五樓之５","E_COORD97":169144.26999999999,"N_COORD97":2542799.6099999999,"ADDRESS":"大同路一段１７３號五樓之５","OBJECTID":584820},"geometry":{"x":169144.26999999955,"y":2542799.6100000013}},{"attributes":{"ID":584848,"DIS_CODE":0,"TOWNNAME":"東區","LI":"大同里","LIN":"16鄰","STREET":"大同路","SECT":"一段","MAREA":" ","LANE":" ","ALLEY":" ","HOUSE_NO":"１７３號五樓之６","E_COORD97":169144.26999999999,"N_COORD97":2542799.6099999999,"ADDRESS":"大同路一段１７３號五樓之６","OBJECTID":584821},"geometry":{"x":169144.26999999955,"y":2542799.6100000013}},{"attributes":{"ID":584849,"DIS_CODE":0,"TOWNNAME":"東區","LI":"大同里","LIN":"16鄰","STREET":"大同路","SECT":"一段","MAREA":" ","LANE":" ","ALLEY":" ","HOUSE_NO":"１７３號六樓","E_COORD97":169144.26999999999,"N_COORD97":2542799.6099999999,"ADDRESS":"大同路一段１７３號六樓","OBJECTID":584822},"geometry":{"x":169144.26999999955,"y":2542799.6100000013}},{"attributes":{"ID":584850,"DIS_CODE":0,"TOWNNAME":"東區","LI":"大同里","LIN":"16鄰","STREET":"大同路","SECT":"一段","MAREA":" ","LANE":" ","ALLEY":" ","HOUSE_NO":"１７３號六樓之１","E_COORD97":169144.26999999999,"N_COORD97":2542799.6099999999,"ADDRESS":"大同路一段１７３號六樓之１","OBJECTID":584823},"geometry":{"x":169144.26999999955,"y":2542799.6100000013}},{"attributes":{"ID":584851,"DIS_CODE":0,"TOWNNAME":"東區","LI":"崇學里","LIN":"16鄰","STREET":"崇學路","SECT":" ","MAREA":" ","LANE":" ","ALLEY":" ","HOUSE_NO":"６號五樓之２","E_COORD97":170084.10000000001,"N_COORD97":2542018.5800000001,"ADDRESS":"崇學路６號五樓之２","OBJECTID":584824},"geometry":{"x":170084.10000000056,"y":2542018.5800000001}},{"attributes":{"ID":584852,"DIS_CODE":0,"TOWNNAME":"東區","LI":"大同里","LIN":"16鄰","STREET":"大同路","SECT":"一段","MAREA":" ","LANE":" ","ALLEY":" ","HOUSE_NO":"１７３號六樓之２","E_COORD97":169144.26999999999,"N_COORD97":2542799.6099999999,"ADDRESS":"大同路一段１７３號六樓之２","OBJECTID":584825},"geometry":{"x":169144.26999999955,"y":2542799.6100000013}},{"attributes":{"ID":584853,"DIS_CODE":0,"TOWNNAME":"東區","LI":"大同里","LIN":"16鄰","STREET":"大同路","SECT":"一段","MAREA":" ","LANE":" ","ALLEY":" ","HOUSE_NO":"１７３號四樓","E_COORD97":169144.26999999999,"N_COORD97":2542799.6099999999,"ADDRESS":"大同路一段１７３號四樓","OBJECTID":584826},"geometry":{"x":169144.26999999955,"y":2542799.6100000013}},{"attributes":{"ID":584854,"DIS_CODE":0,"TOWNNAME":"東區","LI":"大同里","LIN":"16鄰","STREET":"大同路","SECT":"一段","MAREA":" ","LANE":" ","ALLEY":" ","HOUSE_NO":"１７３號四樓之１","E_COORD97":169144.26999999999,"N_COORD97":2542799.6099999999,"ADDRESS":"大同路一段１７３號四樓之１","OBJECTID":584827},"geometry":{"x":169144.26999999955,"y":2542799.6100000013}},{"attributes":{"ID":584855,"DIS_CODE":0,"TOWNNAME":"東區","LI":"大同里","LIN":"16鄰","STREET":"大同路","SECT":"一段","MAREA":" ","LANE":" ","ALLEY":" ","HOUSE_NO":"１７３號四樓之２","E_COORD97":169144.26999999999,"N_COORD97":2542799.6099999999,"ADDRESS":"大同路一段１７３號四樓之２","OBJECTID":584828},"geometry":{"x":169144.26999999955,"y":2542799.6100000013}},{"attributes":{"ID":584856,"DIS_CODE":0,"TOWNNAME":"東區","LI":"大同里","LIN":"16鄰","STREET":"大同路","SECT":"一段","MAREA":" ","LANE":" ","ALLEY":" ","HOUSE_NO":"１７３號四樓之３","E_COORD97":169144.26999999999,"N_COORD97":2542799.6099999999,"ADDRESS":"大同路一段１７３號四樓之３","OBJECTID":584829},"geometry":{"x":169144.26999999955,"y":2542799.6100000013}},{"attributes":{"ID":584857,"DIS_CODE":0,"TOWNNAME":"東區","LI":"大同里","LIN":"16鄰","STREET":"大同路","SECT":"一段","MAREA":" ","LANE":" ","ALLEY":" ","HOUSE_NO":"１７３號四樓之４","E_COORD97":169144.26999999999,"N_COORD97":2542799.6099999999,"ADDRESS":"大同路一段１７３號四樓之４","OBJECTID":584830},"geometry":{"x":169144.26999999955,"y":2542799.6100000013}},{"attributes":{"ID":584858,"DIS_CODE":0,"TOWNNAME":"東區","LI":"大同里","LIN":"16鄰","STREET":"大同路","SECT":"一段","MAREA":" ","LANE":" ","ALLEY":" ","HOUSE_NO":"１７３號四樓之５","E_COORD97":169144.26999999999,"N_COORD97":2542799.6099999999,"ADDRESS":"大同路一段１７３號四樓之５","OBJECTID":584831},"geometry":{"x":169144.26999999955,"y":2542799.6100000013}},{"attributes":{"ID":584859,"DIS_CODE":0,"TOWNNAME":"東區","LI":"大同里","LIN":"16鄰","STREET":"大同路","SECT":"一段","MAREA":" ","LANE":" ","ALLEY":" ","HOUSE_NO":"１７３號四樓之６","E_COORD97":169144.26999999999,"N_COORD97":2542799.6099999999,"ADDRESS":"大同路一段１７３號四樓之６","OBJECTID":584832},"geometry":{"x":169144.26999999955,"y":2542799.6100000013}},{"attributes":{"ID":584860,"DIS_CODE":0,"TOWNNAME":"東區","LI":"大同里","LIN":"16鄰","STREET":"府連路","SECT":" ","MAREA":" ","LANE":" ","ALLEY":" ","HOUSE_NO":"１４９號七樓","E_COORD97":169147.54999999999,"N_COORD97":2542832.4900000002,"ADDRESS":"府連路１４９號七樓","OBJECTID":584833},"geometry":{"x":169147.55000000075,"y":2542832.4900000021}},{"attributes":{"ID":584861,"DIS_CODE":0,"TOWNNAME":"東區","LI":"大同里","LIN":"16鄰","STREET":"府連路","SECT":" ","MAREA":" ","LANE":" ","ALLEY":" ","HOUSE_NO":"１４９號二樓","E_COORD97":169147.54999999999,"N_COORD97":2542832.4900000002,"ADDRESS":"府連路１４９號二樓","OBJECTID":584834},"geometry":{"x":169147.55000000075,"y":2542832.4900000021}},{"attributes":{"ID":584862,"DIS_CODE":0,"TOWNNAME":"東區","LI":"大同里","LIN":"16鄰","STREET":"府連路","SECT":" ","MAREA":" ","LANE":" ","ALLEY":" ","HOUSE_NO":"１４９號三樓","E_COORD97":169147.54999999999,"N_COORD97":2542832.4900000002,"ADDRESS":"府連路１４９號三樓","OBJECTID":584835},"geometry":{"x":169147.55000000075,"y":2542832.4900000021}},{"attributes":{"ID":584863,"DIS_CODE":0,"TOWNNAME":"東區","LI":"大同里","LIN":"16鄰","STREET":"府連路","SECT":" ","MAREA":" ","LANE":" ","ALLEY":" ","HOUSE_NO":"１４９號五樓","E_COORD97":169147.54999999999,"N_COORD97":2542832.4900000002,"ADDRESS":"府連路１４９號五樓","OBJECTID":584836},"geometry":{"x":169147.55000000075,"y":2542832.4900000021}},{"attributes":{"ID":584864,"DIS_CODE":0,"TOWNNAME":"東區","LI":"大同里","LIN":"16鄰","STREET":"府連路","SECT":" ","MAREA":" ","LANE":" ","ALLEY":" ","HOUSE_NO":"１４９號六樓","E_COORD97":169147.54999999999,"N_COORD97":2542832.4900000002,"ADDRESS":"府連路１４９號六樓","OBJECTID":584837},"geometry":{"x":169147.55000000075,"y":2542832.4900000021}},{"attributes":{"ID":584865,"DIS_CODE":0,"TOWNNAME":"關廟區","LI":"南花里","LIN":"11鄰","STREET":"明德街","SECT":" ","MAREA":" ","LANE":" ","ALLEY":" ","HOUSE_NO":"６號","E_COORD97":181829.59,"N_COORD97":2540064.27,"ADDRESS":"明德街６號","OBJECTID":584838},"geometry":{"x":181829.58999999985,"y":2540064.2699999996}},{"attributes":{"ID":584866,"DIS_CODE":0,"TOWNNAME":"東區","LI":"大同里","LIN":"16鄰","STREET":"府連路","SECT":" ","MAREA":" ","LANE":" ","ALLEY":" ","HOUSE_NO":"１４９號四樓","E_COORD97":169147.54999999999,"N_COORD97":2542832.4900000002,"ADDRESS":"府連路１４９號四樓","OBJECTID":584839},"geometry":{"x":169147.55000000075,"y":2542832.4900000021}},{"attributes":{"ID":584867,"DIS_CODE":0,"TOWNNAME":"東區","LI":"東門里","LIN":"16鄰","STREET":"東門路","SECT":"一段","MAREA":" ","LANE":" ","ALLEY":" ","HOUSE_NO":"１４５號七樓","E_COORD97":169491.64000000001,"N_COORD97":2543181.3399999999,"ADDRESS":"東門路一段１４５號七樓","OBJECTID":584840},"geometry":{"x":169491.63999999966,"y":2543181.3400000017}},{"attributes":{"ID":584868,"DIS_CODE":0,"TOWNNAME":"東區","LI":"東門里","LIN":"16鄰","STREET":"東門路","SECT":"一段","MAREA":" ","LANE":" ","ALLEY":" ","HOUSE_NO":"１４５號七樓之１","E_COORD97":169491.64000000001,"N_COORD97":2543181.3399999999,"ADDRESS":"東門路一段１４５號七樓之１","OBJECTID":584841},"geometry":{"x":169491.63999999966,"y":2543181.3400000017}},{"attributes":{"ID":584869,"DIS_CODE":0,"TOWNNAME":"東區","LI":"東門里","LIN":"16鄰","STREET":"東門路","SECT":"一段","MAREA":" ","LANE":" ","ALLEY":" ","HOUSE_NO":"１４５號七樓之２","E_COORD97":169491.64000000001,"N_COORD97":2543181.3399999999,"ADDRESS":"東門路一段１４５號七樓之２","OBJECTID":584842},"geometry":{"x":169491.63999999966,"y":2543181.3400000017}},{"attributes":{"ID":584870,"DIS_CODE":0,"TOWNNAME":"仁德區","LI":"仁義里","LIN":"1鄰","STREET":"義林七街","SECT":" ","MAREA":" ","LANE":" ","ALLEY":" ","HOUSE_NO":"１８６號","E_COORD97":174228.95000000001,"N_COORD97":2541154.77,"ADDRESS":"義林七街１８６號","OBJECTID":584843},"geometry":{"x":174228.95000000112,"y":2541154.7700000014}},{"attributes":{"ID":584871,"DIS_CODE":0,"TOWNNAME":"仁德區","LI":"仁義里","LIN":"1鄰","STREET":"義林一街","SECT":" ","MAREA":" ","LANE":" ","ALLEY":" ","HOUSE_NO":"１５５號","E_COORD97":174291.92999999999,"N_COORD97":2541152.02,"ADDRESS":"義林一街１５５號","OBJECTID":584844},"geometry":{"x":174291.9299999997,"y":2541152.0200000033}},{"attributes":{"ID":584872,"DIS_CODE":0,"TOWNNAME":"東區","LI":"東門里","LIN":"16鄰","STREET":"東門路","SECT":"一段","MAREA":" ","LANE":" ","ALLEY":" ","HOUSE_NO":"１４５號七樓之３","E_COORD97":169491.64000000001,"N_COORD97":2543181.3399999999,"ADDRESS":"東門路一段１４５號七樓之３","OBJECTID":584845},"geometry":{"x":169491.63999999966,"y":2543181.3400000017}},{"attributes":{"ID":584873,"DIS_CODE":0,"TOWNNAME":"東區","LI":"東門里","LIN":"16鄰","STREET":"東門路","SECT":"一段","MAREA":" ","LANE":" ","ALLEY":" ","HOUSE_NO":"１４５號七樓之４","E_COORD97":169491.64000000001,"N_COORD97":2543181.3399999999,"ADDRESS":"東門路一段１４５號七樓之４","OBJECTID":584846},"geometry":{"x":169491.63999999966,"y":2543181.3400000017}},{"attributes":{"ID":584874,"DIS_CODE":0,"TOWNNAME":"東區","LI":"東門里","LIN":"16鄰","STREET":"東門路","SECT":"一段","MAREA":" ","LANE":" ","ALLEY":" ","HOUSE_NO":"１４５號七樓之５","E_COORD97":169491.64000000001,"N_COORD97":2543181.3399999999,"ADDRESS":"東門路一段１４５號七樓之５","OBJECTID":584847},"geometry":{"x":169491.63999999966,"y":2543181.3400000017}},{"attributes":{"ID":584875,"DIS_CODE":0,"TOWNNAME":"東區","LI":"東門里","LIN":"16鄰","STREET":"東門路","SECT":"一段","MAREA":" ","LANE":" ","ALLEY":" ","HOUSE_NO":"１４５號七樓之６","E_COORD97":169491.64000000001,"N_COORD97":2543181.3399999999,"ADDRESS":"東門路一段１４５號七樓之６","OBJECTID":584848},"geometry":{"x":169491.63999999966,"y":2543181.3400000017}},{"attributes":{"ID":584876,"DIS_CODE":0,"TOWNNAME":"東區","LI":"東門里","LIN":"16鄰","STREET":"東門路","SECT":"一段","MAREA":" ","LANE":" ","ALLEY":" ","HOUSE_NO":"１４５號九樓","E_COORD97":169491.64000000001,"N_COORD97":2543181.3399999999,"ADDRESS":"東門路一段１４５號九樓","OBJECTID":584849},"geometry":{"x":169491.63999999966,"y":2543181.3400000017}},{"attributes":{"ID":584877,"DIS_CODE":0,"TOWNNAME":"東區","LI":"東門里","LIN":"16鄰","STREET":"東門路","SECT":"一段","MAREA":" ","LANE":" ","ALLEY":" ","HOUSE_NO":"１４５號九樓之１","E_COORD97":169491.64000000001,"N_COORD97":2543181.3399999999,"ADDRESS":"東門路一段１４５號九樓之１","OBJECTID":584850},"geometry":{"x":169491.63999999966,"y":2543181.3400000017}},{"attributes":{"ID":584878,"DIS_CODE":0,"TOWNNAME":"東區","LI":"東門里","LIN":"16鄰","STREET":"東門路","SECT":"一段","MAREA":" ","LANE":" ","ALLEY":" ","HOUSE_NO":"１４５號九樓之２","E_COORD97":169491.64000000001,"N_COORD97":2543181.3399999999,"ADDRESS":"東門路一段１４５號九樓之２","OBJECTID":584851},"geometry":{"x":169491.63999999966,"y":2543181.3400000017}},{"attributes":{"ID":584879,"DIS_CODE":0,"TOWNNAME":"東區","LI":"東門里","LIN":"16鄰","STREET":"東門路","SECT":"一段","MAREA":" ","LANE":" ","ALLEY":" ","HOUSE_NO":"１４５號八樓","E_COORD97":169491.64000000001,"N_COORD97":2543181.3399999999,"ADDRESS":"東門路一段１４５號八樓","OBJECTID":584852},"geometry":{"x":169491.63999999966,"y":2543181.3400000017}},{"attributes":{"ID":584880,"DIS_CODE":0,"TOWNNAME":"東區","LI":"東門里","LIN":"16鄰","STREET":"東門路","SECT":"一段","MAREA":" ","LANE":" ","ALLEY":" ","HOUSE_NO":"１４５號八樓之１","E_COORD97":169491.64000000001,"N_COORD97":2543181.3399999999,"ADDRESS":"東門路一段１４５號八樓之１","OBJECTID":584853},"geometry":{"x":169491.63999999966,"y":2543181.3400000017}},{"attributes":{"ID":584881,"DIS_CODE":0,"TOWNNAME":"東區","LI":"東門里","LIN":"16鄰","STREET":"東門路","SECT":"一段","MAREA":" ","LANE":" ","ALLEY":" ","HOUSE_NO":"１４５號八樓之２","E_COORD97":169491.64000000001,"N_COORD97":2543181.3399999999,"ADDRESS":"東門路一段１４５號八樓之２","OBJECTID":584854},"geometry":{"x":169491.63999999966,"y":2543181.3400000017}},{"attributes":{"ID":584882,"DIS_CODE":0,"TOWNNAME":"東區","LI":"東門里","LIN":"16鄰","STREET":"東門路","SECT":"一段","MAREA":" ","LANE":" ","ALLEY":" ","HOUSE_NO":"１４５號十一樓","E_COORD97":169491.64000000001,"N_COORD97":2543181.3399999999,"ADDRESS":"東門路一段１４５號十一樓","OBJECTID":584855},"geometry":{"x":169491.63999999966,"y":2543181.3400000017}},{"attributes":{"ID":584883,"DIS_CODE":0,"TOWNNAME":"東區","LI":"東門里","LIN":"16鄰","STREET":"東門路","SECT":"一段","MAREA":" ","LANE":" ","ALLEY":" ","HOUSE_NO":"１４５號十二樓","E_COORD97":169491.64000000001,"N_COORD97":2543181.3399999999,"ADDRESS":"東門路一段１４５號十二樓","OBJECTID":584856},"geometry":{"x":169491.63999999966,"y":2543181.3400000017}},{"attributes":{"ID":584884,"DIS_CODE":0,"TOWNNAME":"東區","LI":"東門里","LIN":"16鄰","STREET":"東門路","SECT":"一段","MAREA":" ","LANE":" ","ALLEY":" ","HOUSE_NO":"１４５號十樓","E_COORD97":169491.64000000001,"N_COORD97":2543181.3399999999,"ADDRESS":"東門路一段１４５號十樓","OBJECTID":584857},"geometry":{"x":169491.63999999966,"y":2543181.3400000017}},{"attributes":{"ID":584885,"DIS_CODE":0,"TOWNNAME":"東區","LI":"東門里","LIN":"16鄰","STREET":"東門路","SECT":"一段","MAREA":" ","LANE":" ","ALLEY":" ","HOUSE_NO":"１４５號十樓之１","E_COORD97":169491.64000000001,"N_COORD97":2543181.3399999999,"ADDRESS":"東門路一段１４５號十樓之１","OBJECTID":584858},"geometry":{"x":169491.63999999966,"y":2543181.3400000017}},{"attributes":{"ID":584886,"DIS_CODE":0,"TOWNNAME":"東區","LI":"東門里","LIN":"16鄰","STREET":"東門路","SECT":"一段","MAREA":" ","LANE":" ","ALLEY":" ","HOUSE_NO":"１４５號十樓之２","E_COORD97":169491.64000000001,"N_COORD97":2543181.3399999999,"ADDRESS":"東門路一段１４５號十樓之２","OBJECTID":584859},"geometry":{"x":169491.63999999966,"y":2543181.3400000017}},{"attributes":{"ID":584887,"DIS_CODE":0,"TOWNNAME":"東區","LI":"東門里","LIN":"16鄰","STREET":"東門路","SECT":"一段","MAREA":" ","LANE":" ","ALLEY":" ","HOUSE_NO":"１４５號三樓","E_COORD97":169491.64000000001,"N_COORD97":2543181.3399999999,"ADDRESS":"東門路一段１４５號三樓","OBJECTID":584860},"geometry":{"x":169491.63999999966,"y":2543181.3400000017}},{"attributes":{"ID":584888,"DIS_CODE":0,"TOWNNAME":"東區","LI":"東門里","LIN":"16鄰","STREET":"東門路","SECT":"一段","MAREA":" ","LANE":" ","ALLEY":" ","HOUSE_NO":"１４５號三樓之１","E_COORD97":169491.64000000001,"N_COORD97":2543181.3399999999,"ADDRESS":"東門路一段１４５號三樓之１","OBJECTID":584861},"geometry":{"x":169491.63999999966,"y":2543181.3400000017}},{"attributes":{"ID":584889,"DIS_CODE":0,"TOWNNAME":"東區","LI":"東門里","LIN":"16鄰","STREET":"東門路","SECT":"一段","MAREA":" ","LANE":" ","ALLEY":" ","HOUSE_NO":"１４５號之１七樓","E_COORD97":169498.39000000001,"N_COORD97":2543217.8900000001,"ADDRESS":"東門路一段１４５號之１七樓","OBJECTID":584862},"geometry":{"x":169498.38999999966,"y":2543217.8900000006}},{"attributes":{"ID":584890,"DIS_CODE":0,"TOWNNAME":"東區","LI":"東門里","LIN":"16鄰","STREET":"東門路","SECT":"一段","MAREA":" ","LANE":" ","ALLEY":" ","HOUSE_NO":"１４５號之１七樓之１","E_COORD97":169498.39000000001,"N_COORD97":2543217.8900000001,"ADDRESS":"東門路一段１４５號之１七樓之１","OBJECTID":584863},"geometry":{"x":169498.38999999966,"y":2543217.8900000006}},{"attributes":{"ID":584891,"DIS_CODE":0,"TOWNNAME":"東區","LI":"東門里","LIN":"16鄰","STREET":"東門路","SECT":"一段","MAREA":" ","LANE":" ","ALLEY":" ","HOUSE_NO":"１４５號之１七樓之２","E_COORD97":169498.39000000001,"N_COORD97":2543217.8900000001,"ADDRESS":"東門路一段１４５號之１七樓之２","OBJECTID":584864},"geometry":{"x":169498.38999999966,"y":2543217.8900000006}},{"attributes":{"ID":584892,"DIS_CODE":0,"TOWNNAME":"東區","LI":"崇文里","LIN":"16鄰","STREET":"崇德十九街","SECT":" ","MAREA":" ","LANE":" ","ALLEY":" ","HOUSE_NO":"６２號八樓","E_COORD97":170971.54999999999,"N_COORD97":2540944.4199999999,"ADDRESS":"崇德十九街６２號八樓","OBJECTID":584865},"geometry":{"x":170971.55000000075,"y":2540944.4200000018}},{"attributes":{"ID":584893,"DIS_CODE":0,"TOWNNAME":"東區","LI":"東門里","LIN":"16鄰","STREET":"東門路","SECT":"一段","MAREA":" ","LANE":" ","ALLEY":" ","HOUSE_NO":"１４５號之１七樓之３","E_COORD97":169498.39000000001,"N_COORD97":2543217.8900000001,"ADDRESS":"東門路一段１４５號之１七樓之３","OBJECTID":584866},"geometry":{"x":169498.38999999966,"y":2543217.8900000006}},{"attributes":{"ID":584894,"DIS_CODE":0,"TOWNNAME":"東區","LI":"東門里","LIN":"16鄰","STREET":"東門路","SECT":"一段","MAREA":" ","LANE":" ","ALLEY":" ","HOUSE_NO":"１４５號之１七樓之４","E_COORD97":169498.39000000001,"N_COORD97":2543217.8900000001,"ADDRESS":"東門路一段１４５號之１七樓之４","OBJECTID":584867},"geometry":{"x":169498.38999999966,"y":2543217.8900000006}},{"attributes":{"ID":584895,"DIS_CODE":0,"TOWNNAME":"東區","LI":"東門里","LIN":"16鄰","STREET":"東門路","SECT":"一段","MAREA":" ","LANE":" ","ALLEY":" ","HOUSE_NO":"１４５號之１七樓之５","E_COORD97":169498.39000000001,"N_COORD97":2543217.8900000001,"ADDRESS":"東門路一段１４５號之１七樓之５","OBJECTID":584868},"geometry":{"x":169498.38999999966,"y":2543217.8900000006}},{"attributes":{"ID":584896,"DIS_CODE":0,"TOWNNAME":"東區","LI":"東門里","LIN":"16鄰","STREET":"東門路","SECT":"一段","MAREA":" ","LANE":" ","ALLEY":" ","HOUSE_NO":"１４５號之１九樓","E_COORD97":169498.39000000001,"N_COORD97":2543217.8900000001,"ADDRESS":"東門路一段１４５號之１九樓","OBJECTID":584869},"geometry":{"x":169498.38999999966,"y":2543217.8900000006}},{"attributes":{"ID":584897,"DIS_CODE":0,"TOWNNAME":"東區","LI":"東門里","LIN":"16鄰","STREET":"東門路","SECT":"一段","MAREA":" ","LANE":" ","ALLEY":" ","HOUSE_NO":"１４５號之１九樓之１","E_COORD97":169498.39000000001,"N_COORD97":2543217.8900000001,"ADDRESS":"東門路一段１４５號之１九樓之１","OBJECTID":584870},"geometry":{"x":169498.38999999966,"y":2543217.8900000006}},{"attributes":{"ID":584898,"DIS_CODE":0,"TOWNNAME":"東區","LI":"東門里","LIN":"16鄰","STREET":"東門路","SECT":"一段","MAREA":" ","LANE":" ","ALLEY":" ","HOUSE_NO":"１４５號之１九樓之２","E_COORD97":169498.39000000001,"N_COORD97":2543217.8900000001,"ADDRESS":"東門路一段１４５號之１九樓之２","OBJECTID":584871},"geometry":{"x":169498.38999999966,"y":2543217.8900000006}},{"attributes":{"ID":584899,"DIS_CODE":0,"TOWNNAME":"東區","LI":"東門里","LIN":"16鄰","STREET":"東門路","SECT":"一段","MAREA":" ","LANE":" ","ALLEY":" ","HOUSE_NO":"１４５號之１九樓之３","E_COORD97":169498.39000000001,"N_COORD97":2543217.8900000001,"ADDRESS":"東門路一段１４５號之１九樓之３","OBJECTID":584872},"geometry":{"x":169498.38999999966,"y":2543217.8900000006}},{"attributes":{"ID":584900,"DIS_CODE":0,"TOWNNAME":"東區","LI":"東門里","LIN":"16鄰","STREET":"東門路","SECT":"一段","MAREA":" ","LANE":" ","ALLEY":" ","HOUSE_NO":"１４５號之１二樓","E_COORD97":169498.39000000001,"N_COORD97":2543217.8900000001,"ADDRESS":"東門路一段１４５號之１二樓","OBJECTID":584873},"geometry":{"x":169498.38999999966,"y":2543217.8900000006}},{"attributes":{"ID":584901,"DIS_CODE":0,"TOWNNAME":"東區","LI":"東門里","LIN":"16鄰","STREET":"東門路","SECT":"一段","MAREA":" ","LANE":" ","ALLEY":" ","HOUSE_NO":"１４５號之１二樓之１","E_COORD97":169498.39000000001,"N_COORD97":2543217.8900000001,"ADDRESS":"東門路一段１４５號之１二樓之１","OBJECTID":584874},"geometry":{"x":169498.38999999966,"y":2543217.8900000006}},{"attributes":{"ID":584902,"DIS_CODE":0,"TOWNNAME":"東區","LI":"東門里","LIN":"16鄰","STREET":"東門路","SECT":"一段","MAREA":" ","LANE":" ","ALLEY":" ","HOUSE_NO":"１４５號之１二樓之２","E_COORD97":169498.39000000001,"N_COORD97":2543217.8900000001,"ADDRESS":"東門路一段１４５號之１二樓之２","OBJECTID":584875},"geometry":{"x":169498.38999999966,"y":2543217.8900000006}},{"attributes":{"ID":584903,"DIS_CODE":0,"TOWNNAME":"東區","LI":"東門里","LIN":"16鄰","STREET":"東門路","SECT":"一段","MAREA":" ","LANE":" ","ALLEY":" ","HOUSE_NO":"１４５號之１八樓","E_COORD97":169498.39000000001,"N_COORD97":2543217.8900000001,"ADDRESS":"東門路一段１４５號之１八樓","OBJECTID":584876},"geometry":{"x":169498.38999999966,"y":2543217.8900000006}},{"attributes":{"ID":584904,"DIS_CODE":0,"TOWNNAME":"東區","LI":"東門里","LIN":"16鄰","STREET":"東門路","SECT":"一段","MAREA":" ","LANE":" ","ALLEY":" ","HOUSE_NO":"１４５號之１八樓之１","E_COORD97":169498.39000000001,"N_COORD97":2543217.8900000001,"ADDRESS":"東門路一段１４５號之１八樓之１","OBJECTID":584877},"geometry":{"x":169498.38999999966,"y":2543217.8900000006}},{"attributes":{"ID":584905,"DIS_CODE":0,"TOWNNAME":"東區","LI":"東門里","LIN":"16鄰","STREET":"東門路","SECT":"一段","MAREA":" ","LANE":" ","ALLEY":" ","HOUSE_NO":"１４５號之１八樓之２","E_COORD97":169498.39000000001,"N_COORD97":2543217.8900000001,"ADDRESS":"東門路一段１４５號之１八樓之２","OBJECTID":584878},"geometry":{"x":169498.38999999966,"y":2543217.8900000006}},{"attributes":{"ID":584906,"DIS_CODE":0,"TOWNNAME":"東區","LI":"東門里","LIN":"16鄰","STREET":"東門路","SECT":"一段","MAREA":" ","LANE":" ","ALLEY":" ","HOUSE_NO":"１４５號之１八樓之３","E_COORD97":169498.39000000001,"N_COORD97":2543217.8900000001,"ADDRESS":"東門路一段１４５號之１八樓之３","OBJECTID":584879},"geometry":{"x":169498.38999999966,"y":2543217.8900000006}},{"attributes":{"ID":584907,"DIS_CODE":0,"TOWNNAME":"東區","LI":"東門里","LIN":"16鄰","STREET":"東門路","SECT":"一段","MAREA":" ","LANE":" ","ALLEY":" ","HOUSE_NO":"１４５號之１八樓之４","E_COORD97":169498.39000000001,"N_COORD97":2543217.8900000001,"ADDRESS":"東門路一段１４５號之１八樓之４","OBJECTID":584880},"geometry":{"x":169498.38999999966,"y":2543217.8900000006}},{"attributes":{"ID":584908,"DIS_CODE":0,"TOWNNAME":"東區","LI":"東門里","LIN":"16鄰","STREET":"東門路","SECT":"一段","MAREA":" ","LANE":" ","ALLEY":" ","HOUSE_NO":"１４５號之１十一樓","E_COORD97":169498.39000000001,"N_COORD97":2543217.8900000001,"ADDRESS":"東門路一段１４５號之１十一樓","OBJECTID":584881},"geometry":{"x":169498.38999999966,"y":2543217.8900000006}},{"attributes":{"ID":584909,"DIS_CODE":0,"TOWNNAME":"東區","LI":"東門里","LIN":"16鄰","STREET":"東門路","SECT":"一段","MAREA":" ","LANE":" ","ALLEY":" ","HOUSE_NO":"１４５號之１十一樓之","E_COORD97":169498.39000000001,"N_COORD97":2543217.8900000001,"ADDRESS":"東門路一段１４５號之１十一樓之１","OBJECTID":584882},"geometry":{"x":169498.38999999966,"y":2543217.8900000006}},{"attributes":{"ID":584910,"DIS_CODE":0,"TOWNNAME":"東區","LI":"東門里","LIN":"16鄰","STREET":"東門路","SECT":"一段","MAREA":" ","LANE":" ","ALLEY":" ","HOUSE_NO":"１４５號之１十一樓之","E_COORD97":169498.39000000001,"N_COORD97":2543217.8900000001,"ADDRESS":"東門路一段１４５號之１十一樓之２","OBJECTID":584883},"geometry":{"x":169498.38999999966,"y":2543217.8900000006}},{"attributes":{"ID":584911,"DIS_CODE":0,"TOWNNAME":"東區","LI":"東門里","LIN":"16鄰","STREET":"東門路","SECT":"一段","MAREA":" ","LANE":" ","ALLEY":" ","HOUSE_NO":"１４５號之１十一樓之","E_COORD97":169498.39000000001,"N_COORD97":2543217.8900000001,"ADDRESS":"東門路一段１４５號之１十一樓之３","OBJECTID":584884},"geometry":{"x":169498.38999999966,"y":2543217.8900000006}},{"attributes":{"ID":584912,"DIS_CODE":0,"TOWNNAME":"東區","LI":"東門里","LIN":"16鄰","STREET":"東門路","SECT":"一段","MAREA":" ","LANE":" ","ALLEY":" ","HOUSE_NO":"１４５號之１十二樓","E_COORD97":169498.39000000001,"N_COORD97":2543217.8900000001,"ADDRESS":"東門路一段１４５號之１十二樓","OBJECTID":584885},"geometry":{"x":169498.38999999966,"y":2543217.8900000006}},{"attributes":{"ID":584913,"DIS_CODE":0,"TOWNNAME":"東區","LI":"東門里","LIN":"16鄰","STREET":"東門路","SECT":"一段","MAREA":" ","LANE":" ","ALLEY":" ","HOUSE_NO":"１４５號之１十二樓之","E_COORD97":169498.39000000001,"N_COORD97":2543217.8900000001,"ADDRESS":"東門路一段１４５號之１十二樓之１","OBJECTID":584886},"geometry":{"x":169498.38999999966,"y":2543217.8900000006}},{"attributes":{"ID":584914,"DIS_CODE":0,"TOWNNAME":"東區","LI":"東門里","LIN":"16鄰","STREET":"東門路","SECT":"一段","MAREA":" ","LANE":" ","ALLEY":" ","HOUSE_NO":"１４５號之１十二樓之","E_COORD97":169498.39000000001,"N_COORD97":2543217.8900000001,"ADDRESS":"東門路一段１４５號之１十二樓之２","OBJECTID":584887},"geometry":{"x":169498.38999999966,"y":2543217.8900000006}},{"attributes":{"ID":584915,"DIS_CODE":0,"TOWNNAME":"東區","LI":"東門里","LIN":"16鄰","STREET":"東門路","SECT":"一段","MAREA":" ","LANE":" ","ALLEY":" ","HOUSE_NO":"１４５號之１十二樓之","E_COORD97":169498.39000000001,"N_COORD97":2543217.8900000001,"ADDRESS":"東門路一段１４５號之１十二樓之３","OBJECTID":584888},"geometry":{"x":169498.38999999966,"y":2543217.8900000006}},{"attributes":{"ID":584916,"DIS_CODE":0,"TOWNNAME":"東區","LI":"東門里","LIN":"16鄰","STREET":"東門路","SECT":"一段","MAREA":" ","LANE":" ","ALLEY":" ","HOUSE_NO":"１４５號之１十三樓","E_COORD97":169498.39000000001,"N_COORD97":2543217.8900000001,"ADDRESS":"東門路一段１４５號之１十三樓","OBJECTID":584889},"geometry":{"x":169498.38999999966,"y":2543217.8900000006}},{"attributes":{"ID":584917,"DIS_CODE":0,"TOWNNAME":"東區","LI":"東門里","LIN":"16鄰","STREET":"東門路","SECT":"一段","MAREA":" ","LANE":" ","ALLEY":" ","HOUSE_NO":"１４５號之１十三樓之","E_COORD97":169498.39000000001,"N_COORD97":2543217.8900000001,"ADDRESS":"東門路一段１４５號之１十三樓之１","OBJECTID":584890},"geometry":{"x":169498.38999999966,"y":2543217.8900000006}},{"attributes":{"ID":584918,"DIS_CODE":0,"TOWNNAME":"東區","LI":"東門里","LIN":"16鄰","STREET":"東門路","SECT":"一段","MAREA":" ","LANE":" ","ALLEY":" ","HOUSE_NO":"１４５號之１十三樓之","E_COORD97":169498.39000000001,"N_COORD97":2543217.8900000001,"ADDRESS":"東門路一段１４５號之１十三樓之３","OBJECTID":584891},"geometry":{"x":169498.38999999966,"y":2543217.8900000006}},{"attributes":{"ID":584919,"DIS_CODE":0,"TOWNNAME":"東區","LI":"東門里","LIN":"16鄰","STREET":"東門路","SECT":"一段","MAREA":" ","LANE":" ","ALLEY":" ","HOUSE_NO":"１４５號之１十三樓之","E_COORD97":169498.39000000001,"N_COORD97":2543217.8900000001,"ADDRESS":"東門路一段１４５號之１十三樓之４","OBJECTID":584892},"geometry":{"x":169498.38999999966,"y":2543217.8900000006}},{"attributes":{"ID":584920,"DIS_CODE":0,"TOWNNAME":"東區","LI":"東門里","LIN":"16鄰","STREET":"東門路","SECT":"一段","MAREA":" ","LANE":" ","ALLEY":" ","HOUSE_NO":"１４５號之１十三樓之","E_COORD97":169498.39000000001,"N_COORD97":2543217.8900000001,"ADDRESS":"東門路一段１４５號之１十三樓之５","OBJECTID":584893},"geometry":{"x":169498.38999999966,"y":2543217.8900000006}},{"attributes":{"ID":584921,"DIS_CODE":0,"TOWNNAME":"東區","LI":"泉南里","LIN":"16鄰","STREET":"府連路","SECT":" ","MAREA":" ","LANE":" ","ALLEY":" ","HOUSE_NO":"３３９號五樓","E_COORD97":169608.79000000001,"N_COORD97":2542842.8199999998,"ADDRESS":"府連路３３９號五樓","OBJECTID":584894},"geometry":{"x":169608.79000000097,"y":2542842.8200000022}},{"attributes":{"ID":584922,"DIS_CODE":0,"TOWNNAME":"東區","LI":"東門里","LIN":"16鄰","STREET":"東門路","SECT":"一段","MAREA":" ","LANE":" ","ALLEY":" ","HOUSE_NO":"１４５號之１十四樓","E_COORD97":169498.39000000001,"N_COORD97":2543217.8900000001,"ADDRESS":"東門路一段１４５號之１十四樓","OBJECTID":584895},"geometry":{"x":169498.38999999966,"y":2543217.8900000006}},{"attributes":{"ID":584923,"DIS_CODE":0,"TOWNNAME":"仁德區","LI":"保安里","LIN":"19鄰","STREET":"文賢路","SECT":"二段","MAREA":" ","LANE":" ","ALLEY":" ","HOUSE_NO":"５０１號","E_COORD97":172372.39000000001,"N_COORD97":2535499.8199999998,"ADDRESS":"文賢路二段５０１號","OBJECTID":584896},"geometry":{"x":172372.3900000006,"y":2535499.8200000022}},{"attributes":{"ID":584924,"DIS_CODE":0,"TOWNNAME":"東區","LI":"東門里","LIN":"16鄰","STREET":"東門路","SECT":"一段","MAREA":" ","LANE":" ","ALLEY":" ","HOUSE_NO":"１４５號之１十四樓之","E_COORD97":169498.39000000001,"N_COORD97":2543217.8900000001,"ADDRESS":"東門路一段１４５號之１十四樓之１","OBJECTID":584897},"geometry":{"x":169498.38999999966,"y":2543217.8900000006}},{"attributes":{"ID":584925,"DIS_CODE":0,"TOWNNAME":"東區","LI":"東門里","LIN":"16鄰","STREET":"東門路","SECT":"一段","MAREA":" ","LANE":" ","ALLEY":" ","HOUSE_NO":"１４５號之１十四樓之","E_COORD97":169498.39000000001,"N_COORD97":2543217.8900000001,"ADDRESS":"東門路一段１４５號之１十四樓之２","OBJECTID":584898},"geometry":{"x":169498.38999999966,"y":2543217.8900000006}},{"attributes":{"ID":584926,"DIS_CODE":0,"TOWNNAME":"東區","LI":"東門里","LIN":"16鄰","STREET":"東門路","SECT":"一段","MAREA":" ","LANE":" ","ALLEY":" ","HOUSE_NO":"１４５號之１十四樓之","E_COORD97":169498.39000000001,"N_COORD97":2543217.8900000001,"ADDRESS":"東門路一段１４５號之１十四樓之３","OBJECTID":584899},"geometry":{"x":169498.38999999966,"y":2543217.8900000006}},{"attributes":{"ID":584927,"DIS_CODE":0,"TOWNNAME":"仁德區","LI":"成功里","LIN":"8鄰","STREET":"保華路","SECT":" ","MAREA":" ","LANE":" ","ALLEY":" ","HOUSE_NO":"１６３號","E_COORD97":171024.04999999999,"N_COORD97":2540029.75,"ADDRESS":"保華路１６３號","OBJECTID":584900},"geometry":{"x":171024.05000000075,"y":2540029.7500000019}},{"attributes":{"ID":584928,"DIS_CODE":0,"TOWNNAME":"東區","LI":"東門里","LIN":"16鄰","STREET":"東門路","SECT":"一段","MAREA":" ","LANE":" ","ALLEY":" ","HOUSE_NO":"１４５號之１十四樓之","E_COORD97":169498.39000000001,"N_COORD97":2543217.8900000001,"ADDRESS":"東門路一段１４５號之１十四樓之４","OBJECTID":584901},"geometry":{"x":169498.38999999966,"y":2543217.8900000006}},{"attributes":{"ID":584929,"DIS_CODE":0,"TOWNNAME":"東區","LI":"東門里","LIN":"16鄰","STREET":"東門路","SECT":"一段","MAREA":" ","LANE":" ","ALLEY":" ","HOUSE_NO":"１４５號之１十四樓之","E_COORD97":169498.39000000001,"N_COORD97":2543217.8900000001,"ADDRESS":"東門路一段１４５號之１十四樓之５","OBJECTID":584902},"geometry":{"x":169498.38999999966,"y":2543217.8900000006}},{"attributes":{"ID":584930,"DIS_CODE":0,"TOWNNAME":"東區","LI":"東門里","LIN":"16鄰","STREET":"東門路","SECT":"一段","MAREA":" ","LANE":" ","ALLEY":" ","HOUSE_NO":"１４５號之１十樓","E_COORD97":169498.39000000001,"N_COORD97":2543217.8900000001,"ADDRESS":"東門路一段１４５號之１十樓","OBJECTID":584903},"geometry":{"x":169498.38999999966,"y":2543217.8900000006}},{"attributes":{"ID":584931,"DIS_CODE":0,"TOWNNAME":"東區","LI":"東門里","LIN":"16鄰","STREET":"東門路","SECT":"一段","MAREA":" ","LANE":" ","ALLEY":" ","HOUSE_NO":"１４５號之１十樓之１","E_COORD97":169498.39000000001,"N_COORD97":2543217.8900000001,"ADDRESS":"東門路一段１４５號之１十樓之１","OBJECTID":584904},"geometry":{"x":169498.38999999966,"y":2543217.8900000006}},{"attributes":{"ID":584932,"DIS_CODE":0,"TOWNNAME":"東區","LI":"東門里","LIN":"16鄰","STREET":"東門路","SECT":"一段","MAREA":" ","LANE":" ","ALLEY":" ","HOUSE_NO":"１４５號之１十樓之２","E_COORD97":169498.39000000001,"N_COORD97":2543217.8900000001,"ADDRESS":"東門路一段１４５號之１十樓之２","OBJECTID":584905},"geometry":{"x":169498.38999999966,"y":2543217.8900000006}},{"attributes":{"ID":584933,"DIS_CODE":0,"TOWNNAME":"東區","LI":"東門里","LIN":"16鄰","STREET":"東門路","SECT":"一段","MAREA":" ","LANE":" ","ALLEY":" ","HOUSE_NO":"１４５號之１十樓之３","E_COORD97":169498.39000000001,"N_COORD97":2543217.8900000001,"ADDRESS":"東門路一段１４５號之１十樓之３","OBJECTID":584906},"geometry":{"x":169498.38999999966,"y":2543217.8900000006}},{"attributes":{"ID":584934,"DIS_CODE":0,"TOWNNAME":"東區","LI":"東門里","LIN":"16鄰","STREET":"東門路","SECT":"一段","MAREA":" ","LANE":" ","ALLEY":" ","HOUSE_NO":"１４５號之１三樓","E_COORD97":169498.39000000001,"N_COORD97":2543217.8900000001,"ADDRESS":"東門路一段１４５號之１三樓","OBJECTID":584907},"geometry":{"x":169498.38999999966,"y":2543217.8900000006}},{"attributes":{"ID":584935,"DIS_CODE":0,"TOWNNAME":"東區","LI":"東門里","LIN":"16鄰","STREET":"東門路","SECT":"一段","MAREA":" ","LANE":" ","ALLEY":" ","HOUSE_NO":"１４５號之１三樓之１","E_COORD97":169498.39000000001,"N_COORD97":2543217.8900000001,"ADDRESS":"東門路一段１４５號之１三樓之１","OBJECTID":584908},"geometry":{"x":169498.38999999966,"y":2543217.8900000006}},{"attributes":{"ID":584936,"DIS_CODE":0,"TOWNNAME":"東區","LI":"東門里","LIN":"16鄰","STREET":"東門路","SECT":"一段","MAREA":" ","LANE":" ","ALLEY":" ","HOUSE_NO":"１４５號之１三樓之２","E_COORD97":169498.39000000001,"N_COORD97":2543217.8900000001,"ADDRESS":"東門路一段１４５號之１三樓之２","OBJECTID":584909},"geometry":{"x":169498.38999999966,"y":2543217.8900000006}},{"attributes":{"ID":584937,"DIS_CODE":0,"TOWNNAME":"東區","LI":"東門里","LIN":"16鄰","STREET":"東門路","SECT":"一段","MAREA":" ","LANE":" ","ALLEY":" ","HOUSE_NO":"１４５號之１三樓之３","E_COORD97":169498.39000000001,"N_COORD97":2543217.8900000001,"ADDRESS":"東門路一段１４５號之１三樓之３","OBJECTID":584910},"geometry":{"x":169498.38999999966,"y":2543217.8900000006}},{"attributes":{"ID":584938,"DIS_CODE":0,"TOWNNAME":"東區","LI":"東門里","LIN":"16鄰","STREET":"東門路","SECT":"一段","MAREA":" ","LANE":" ","ALLEY":" ","HOUSE_NO":"１４５號之１三樓之４","E_COORD97":169498.39000000001,"N_COORD97":2543217.8900000001,"ADDRESS":"東門路一段１４５號之１三樓之４","OBJECTID":584911},"geometry":{"x":169498.38999999966,"y":2543217.8900000006}},{"attributes":{"ID":584939,"DIS_CODE":0,"TOWNNAME":"東區","LI":"東門里","LIN":"16鄰","STREET":"東門路","SECT":"一段","MAREA":" ","LANE":" ","ALLEY":" ","HOUSE_NO":"１４５號之１三樓之５","E_COORD97":169498.39000000001,"N_COORD97":2543217.8900000001,"ADDRESS":"東門路一段１４５號之１三樓之５","OBJECTID":584912},"geometry":{"x":169498.38999999966,"y":2543217.8900000006}},{"attributes":{"ID":584940,"DIS_CODE":0,"TOWNNAME":"東區","LI":"東門里","LIN":"16鄰","STREET":"東門路","SECT":"一段","MAREA":" ","LANE":" ","ALLEY":" ","HOUSE_NO":"１４５號之１五樓","E_COORD97":169498.39000000001,"N_COORD97":2543217.8900000001,"ADDRESS":"東門路一段１４５號之１五樓","OBJECTID":584913},"geometry":{"x":169498.38999999966,"y":2543217.8900000006}},{"attributes":{"ID":584941,"DIS_CODE":0,"TOWNNAME":"東區","LI":"東門里","LIN":"16鄰","STREET":"東門路","SECT":"一段","MAREA":" ","LANE":" ","ALLEY":" ","HOUSE_NO":"１４５號之１五樓之１","E_COORD97":169498.39000000001,"N_COORD97":2543217.8900000001,"ADDRESS":"東門路一段１４５號之１五樓之１","OBJECTID":584914},"geometry":{"x":169498.38999999966,"y":2543217.8900000006}},{"attributes":{"ID":584942,"DIS_CODE":0,"TOWNNAME":"東區","LI":"東門里","LIN":"16鄰","STREET":"東門路","SECT":"一段","MAREA":" ","LANE":" ","ALLEY":" ","HOUSE_NO":"１４５號之１五樓之２","E_COORD97":169498.39000000001,"N_COORD97":2543217.8900000001,"ADDRESS":"東門路一段１４５號之１五樓之２","OBJECTID":584915},"geometry":{"x":169498.38999999966,"y":2543217.8900000006}},{"attributes":{"ID":584943,"DIS_CODE":0,"TOWNNAME":"東區","LI":"東門里","LIN":"16鄰","STREET":"東門路","SECT":"一段","MAREA":" ","LANE":" ","ALLEY":" ","HOUSE_NO":"１４５號之１五樓之３","E_COORD97":169498.39000000001,"N_COORD97":2543217.8900000001,"ADDRESS":"東門路一段１４５號之１五樓之３","OBJECTID":584916},"geometry":{"x":169498.38999999966,"y":2543217.8900000006}},{"attributes":{"ID":584944,"DIS_CODE":0,"TOWNNAME":"東區","LI":"東門里","LIN":"16鄰","STREET":"東門路","SECT":"一段","MAREA":" ","LANE":" ","ALLEY":" ","HOUSE_NO":"１４５號之１五樓之４","E_COORD97":169498.39000000001,"N_COORD97":2543217.8900000001,"ADDRESS":"東門路一段１４５號之１五樓之４","OBJECTID":584917},"geometry":{"x":169498.38999999966,"y":2543217.8900000006}},{"attributes":{"ID":584945,"DIS_CODE":0,"TOWNNAME":"東區","LI":"東門里","LIN":"16鄰","STREET":"東門路","SECT":"一段","MAREA":" ","LANE":" ","ALLEY":" ","HOUSE_NO":"１４５號之１五樓之５","E_COORD97":169498.39000000001,"N_COORD97":2543217.8900000001,"ADDRESS":"東門路一段１４５號之１五樓之５","OBJECTID":584918},"geometry":{"x":169498.38999999966,"y":2543217.8900000006}},{"attributes":{"ID":584946,"DIS_CODE":0,"TOWNNAME":"東區","LI":"東門里","LIN":"16鄰","STREET":"東門路","SECT":"一段","MAREA":" ","LANE":" ","ALLEY":" ","HOUSE_NO":"１４５號之１六樓","E_COORD97":169498.39000000001,"N_COORD97":2543217.8900000001,"ADDRESS":"東門路一段１４５號之１六樓","OBJECTID":584919},"geometry":{"x":169498.38999999966,"y":2543217.8900000006}},{"attributes":{"ID":584947,"DIS_CODE":0,"TOWNNAME":"東區","LI":"東門里","LIN":"16鄰","STREET":"東門路","SECT":"一段","MAREA":" ","LANE":" ","ALLEY":" ","HOUSE_NO":"１４５號之１六樓之１","E_COORD97":169498.39000000001,"N_COORD97":2543217.8900000001,"ADDRESS":"東門路一段１４５號之１六樓之１","OBJECTID":584920},"geometry":{"x":169498.38999999966,"y":2543217.8900000006}},{"attributes":{"ID":584948,"DIS_CODE":0,"TOWNNAME":"善化區","LI":"坐駕里","LIN":"6鄰","STREET":"建國路","SECT":" ","MAREA":" ","LANE":" ","ALLEY":" ","HOUSE_NO":"１６３號","E_COORD97":177952.07000000001,"N_COORD97":2559023.7799999998,"ADDRESS":"建國路１６３號","OBJECTID":584921},"geometry":{"x":177952.07000000216,"y":2559023.7799999993}},{"attributes":{"ID":584949,"DIS_CODE":0,"TOWNNAME":"新營區","LI":"民榮里","LIN":"11鄰","STREET":"興農街","SECT":" ","MAREA":" ","LANE":" ","ALLEY":" ","HOUSE_NO":"８號","E_COORD97":179253.25,"N_COORD97":2577982.6600000001,"ADDRESS":"興農街８號","OBJECTID":584922},"geometry":{"x":179253.25,"y":2577982.660000002}},{"attributes":{"ID":584950,"DIS_CODE":0,"TOWNNAME":"東區","LI":"東門里","LIN":"16鄰","STREET":"東門路","SECT":"一段","MAREA":" ","LANE":" ","ALLEY":" ","HOUSE_NO":"１４５號之１六樓之２","E_COORD97":169498.39000000001,"N_COORD97":2543217.8900000001,"ADDRESS":"東門路一段１４５號之１六樓之２","OBJECTID":584923},"geometry":{"x":169498.38999999966,"y":2543217.8900000006}},{"attributes":{"ID":584951,"DIS_CODE":0,"TOWNNAME":"東區","LI":"東門里","LIN":"16鄰","STREET":"東門路","SECT":"一段","MAREA":" ","LANE":" ","ALLEY":" ","HOUSE_NO":"１４５號之１六樓之３","E_COORD97":169498.39000000001,"N_COORD97":2543217.8900000001,"ADDRESS":"東門路一段１４５號之１六樓之３","OBJECTID":584924},"geometry":{"x":169498.38999999966,"y":2543217.8900000006}},{"attributes":{"ID":584952,"DIS_CODE":0,"TOWNNAME":"東區","LI":"東門里","LIN":"16鄰","STREET":"東門路","SECT":"一段","MAREA":" ","LANE":" ","ALLEY":" ","HOUSE_NO":"１４５號之１六樓之４","E_COORD97":169498.39000000001,"N_COORD97":2543217.8900000001,"ADDRESS":"東門路一段１４５號之１六樓之４","OBJECTID":584925},"geometry":{"x":169498.38999999966,"y":2543217.8900000006}},{"attributes":{"ID":584953,"DIS_CODE":0,"TOWNNAME":"東區","LI":"東門里","LIN":"16鄰","STREET":"東門路","SECT":"一段","MAREA":" ","LANE":" ","ALLEY":" ","HOUSE_NO":"１４５號之１四樓","E_COORD97":169498.39000000001,"N_COORD97":2543217.8900000001,"ADDRESS":"東門路一段１４５號之１四樓","OBJECTID":584926},"geometry":{"x":169498.38999999966,"y":2543217.8900000006}},{"attributes":{"ID":584954,"DIS_CODE":0,"TOWNNAME":"東區","LI":"東門里","LIN":"16鄰","STREET":"東門路","SECT":"一段","MAREA":" ","LANE":" ","ALLEY":" ","HOUSE_NO":"１４５號之１四樓之１","E_COORD97":169498.39000000001,"N_COORD97":2543217.8900000001,"ADDRESS":"東門路一段１４５號之１四樓之１","OBJECTID":584927},"geometry":{"x":169498.38999999966,"y":2543217.8900000006}},{"attributes":{"ID":584955,"DIS_CODE":0,"TOWNNAME":"東區","LI":"東門里","LIN":"16鄰","STREET":"東門路","SECT":"一段","MAREA":" ","LANE":" ","ALLEY":" ","HOUSE_NO":"１４５號之１四樓之２","E_COORD97":169498.39000000001,"N_COORD97":2543217.8900000001,"ADDRESS":"東門路一段１４５號之１四樓之２","OBJECTID":584928},"geometry":{"x":169498.38999999966,"y":2543217.8900000006}},{"attributes":{"ID":584956,"DIS_CODE":0,"TOWNNAME":"東區","LI":"東門里","LIN":"16鄰","STREET":"東門路","SECT":"一段","MAREA":" ","LANE":" ","ALLEY":" ","HOUSE_NO":"１４５號之１四樓之３","E_COORD97":169498.39000000001,"N_COORD97":2543217.8900000001,"ADDRESS":"東門路一段１４５號之１四樓之３","OBJECTID":584929},"geometry":{"x":169498.38999999966,"y":2543217.8900000006}},{"attributes":{"ID":584957,"DIS_CODE":0,"TOWNNAME":"東區","LI":"東門里","LIN":"16鄰","STREET":"東門路","SECT":"一段","MAREA":" ","LANE":" ","ALLEY":" ","HOUSE_NO":"１４５號之１四樓之４","E_COORD97":169498.39000000001,"N_COORD97":2543217.8900000001,"ADDRESS":"東門路一段１４５號之１四樓之４","OBJECTID":584930},"geometry":{"x":169498.38999999966,"y":2543217.8900000006}},{"attributes":{"ID":584958,"DIS_CODE":0,"TOWNNAME":"東區","LI":"東門里","LIN":"16鄰","STREET":"東門路","SECT":"一段","MAREA":" ","LANE":" ","ALLEY":" ","HOUSE_NO":"１４５號之１四樓之５","E_COORD97":169498.39000000001,"N_COORD97":2543217.8900000001,"ADDRESS":"東門路一段１４５號之１四樓之５","OBJECTID":584931},"geometry":{"x":169498.38999999966,"y":2543217.8900000006}},{"attributes":{"ID":584959,"DIS_CODE":0,"TOWNNAME":"東區","LI":"東門里","LIN":"16鄰","STREET":"東門路","SECT":"一段","MAREA":" ","LANE":" ","ALLEY":" ","HOUSE_NO":"１４５號五樓","E_COORD97":169491.64000000001,"N_COORD97":2543181.3399999999,"ADDRESS":"東門路一段１４５號五樓","OBJECTID":584932},"geometry":{"x":169491.63999999966,"y":2543181.3400000017}},{"attributes":{"ID":584960,"DIS_CODE":0,"TOWNNAME":"東區","LI":"東門里","LIN":"16鄰","STREET":"東門路","SECT":"一段","MAREA":" ","LANE":" ","ALLEY":" ","HOUSE_NO":"１４５號五樓之１","E_COORD97":169491.64000000001,"N_COORD97":2543181.3399999999,"ADDRESS":"東門路一段１４５號五樓之１","OBJECTID":584933},"geometry":{"x":169491.63999999966,"y":2543181.3400000017}},{"attributes":{"ID":584961,"DIS_CODE":0,"TOWNNAME":"東區","LI":"東門里","LIN":"16鄰","STREET":"東門路","SECT":"一段","MAREA":" ","LANE":" ","ALLEY":" ","HOUSE_NO":"１４５號五樓之２","E_COORD97":169491.64000000001,"N_COORD97":2543181.3399999999,"ADDRESS":"東門路一段１４５號五樓之２","OBJECTID":584934},"geometry":{"x":169491.63999999966,"y":2543181.3400000017}},{"attributes":{"ID":584962,"DIS_CODE":0,"TOWNNAME":"東區","LI":"東門里","LIN":"16鄰","STREET":"東門路","SECT":"一段","MAREA":" ","LANE":" ","ALLEY":" ","HOUSE_NO":"１４５號五樓之３","E_COORD97":169491.64000000001,"N_COORD97":2543181.3399999999,"ADDRESS":"東門路一段１４５號五樓之３","OBJECTID":584935},"geometry":{"x":169491.63999999966,"y":2543181.3400000017}},{"attributes":{"ID":584963,"DIS_CODE":0,"TOWNNAME":"東區","LI":"東門里","LIN":"16鄰","STREET":"東門路","SECT":"一段","MAREA":" ","LANE":" ","ALLEY":" ","HOUSE_NO":"１４５號五樓之４","E_COORD97":169491.64000000001,"N_COORD97":2543181.3399999999,"ADDRESS":"東門路一段１４５號五樓之４","OBJECTID":584936},"geometry":{"x":169491.63999999966,"y":2543181.3400000017}},{"attributes":{"ID":584964,"DIS_CODE":0,"TOWNNAME":"東區","LI":"東門里","LIN":"16鄰","STREET":"東門路","SECT":"一段","MAREA":" ","LANE":" ","ALLEY":" ","HOUSE_NO":"１４５號五樓之５","E_COORD97":169491.64000000001,"N_COORD97":2543181.3399999999,"ADDRESS":"東門路一段１４５號五樓之５","OBJECTID":584937},"geometry":{"x":169491.63999999966,"y":2543181.3400000017}},{"attributes":{"ID":584965,"DIS_CODE":0,"TOWNNAME":"東區","LI":"東門里","LIN":"16鄰","STREET":"東門路","SECT":"一段","MAREA":" ","LANE":" ","ALLEY":" ","HOUSE_NO":"１４５號五樓之６","E_COORD97":169491.64000000001,"N_COORD97":2543181.3399999999,"ADDRESS":"東門路一段１４５號五樓之６","OBJECTID":584938},"geometry":{"x":169491.63999999966,"y":2543181.3400000017}},{"attributes":{"ID":584966,"DIS_CODE":0,"TOWNNAME":"東區","LI":"東門里","LIN":"16鄰","STREET":"東門路","SECT":"一段","MAREA":" ","LANE":" ","ALLEY":" ","HOUSE_NO":"１４５號六樓","E_COORD97":169491.64000000001,"N_COORD97":2543181.3399999999,"ADDRESS":"東門路一段１４５號六樓","OBJECTID":584939},"geometry":{"x":169491.63999999966,"y":2543181.3400000017}},{"attributes":{"ID":584967,"DIS_CODE":0,"TOWNNAME":"東區","LI":"東門里","LIN":"16鄰","STREET":"東門路","SECT":"一段","MAREA":" ","LANE":" ","ALLEY":" ","HOUSE_NO":"１４５號六樓之１","E_COORD97":169491.64000000001,"N_COORD97":2543181.3399999999,"ADDRESS":"東門路一段１４５號六樓之１","OBJECTID":584940},"geometry":{"x":169491.63999999966,"y":2543181.3400000017}},{"attributes":{"ID":584968,"DIS_CODE":0,"TOWNNAME":"東區","LI":"東門里","LIN":"16鄰","STREET":"東門路","SECT":"一段","MAREA":" ","LANE":" ","ALLEY":" ","HOUSE_NO":"１４５號六樓之２","E_COORD97":169491.64000000001,"N_COORD97":2543181.3399999999,"ADDRESS":"東門路一段１４５號六樓之２","OBJECTID":584941},"geometry":{"x":169491.63999999966,"y":2543181.3400000017}},{"attributes":{"ID":584969,"DIS_CODE":0,"TOWNNAME":"東區","LI":"東門里","LIN":"16鄰","STREET":"東門路","SECT":"一段","MAREA":" ","LANE":" ","ALLEY":" ","HOUSE_NO":"１４５號六樓之３","E_COORD97":169491.64000000001,"N_COORD97":2543181.3399999999,"ADDRESS":"東門路一段１４５號六樓之３","OBJECTID":584942},"geometry":{"x":169491.63999999966,"y":2543181.3400000017}},{"attributes":{"ID":584970,"DIS_CODE":0,"TOWNNAME":"東區","LI":"東門里","LIN":"16鄰","STREET":"東門路","SECT":"一段","MAREA":" ","LANE":" ","ALLEY":" ","HOUSE_NO":"１４５號六樓之４","E_COORD97":169491.64000000001,"N_COORD97":2543181.3399999999,"ADDRESS":"東門路一段１４５號六樓之４","OBJECTID":584943},"geometry":{"x":169491.63999999966,"y":2543181.3400000017}},{"attributes":{"ID":584971,"DIS_CODE":0,"TOWNNAME":"東區","LI":"東門里","LIN":"16鄰","STREET":"東門路","SECT":"一段","MAREA":" ","LANE":" ","ALLEY":" ","HOUSE_NO":"１４５號六樓之５","E_COORD97":169491.64000000001,"N_COORD97":2543181.3399999999,"ADDRESS":"東門路一段１４５號六樓之５","OBJECTID":584944},"geometry":{"x":169491.63999999966,"y":2543181.3400000017}},{"attributes":{"ID":584972,"DIS_CODE":0,"TOWNNAME":"東區","LI":"東門里","LIN":"16鄰","STREET":"東門路","SECT":"一段","MAREA":" ","LANE":" ","ALLEY":" ","HOUSE_NO":"１４５號六樓之６","E_COORD97":169491.64000000001,"N_COORD97":2543181.3399999999,"ADDRESS":"東門路一段１４５號六樓之６","OBJECTID":584945},"geometry":{"x":169491.63999999966,"y":2543181.3400000017}},{"attributes":{"ID":584973,"DIS_CODE":0,"TOWNNAME":"東區","LI":"東門里","LIN":"16鄰","STREET":"東門路","SECT":"一段","MAREA":" ","LANE":" ","ALLEY":" ","HOUSE_NO":"１４５號四樓","E_COORD97":169491.64000000001,"N_COORD97":2543181.3399999999,"ADDRESS":"東門路一段１４５號四樓","OBJECTID":584946},"geometry":{"x":169491.63999999966,"y":2543181.3400000017}},{"attributes":{"ID":584974,"DIS_CODE":0,"TOWNNAME":"東區","LI":"東門里","LIN":"16鄰","STREET":"東門路","SECT":"一段","MAREA":" ","LANE":" ","ALLEY":" ","HOUSE_NO":"１４５號四樓之１","E_COORD97":169491.64000000001,"N_COORD97":2543181.3399999999,"ADDRESS":"東門路一段１４５號四樓之１","OBJECTID":584947},"geometry":{"x":169491.63999999966,"y":2543181.3400000017}},{"attributes":{"ID":584975,"DIS_CODE":0,"TOWNNAME":"東區","LI":"東門里","LIN":"16鄰","STREET":"東門路","SECT":"一段","MAREA":" ","LANE":" ","ALLEY":" ","HOUSE_NO":"１４５號四樓之２","E_COORD97":169491.64000000001,"N_COORD97":2543181.3399999999,"ADDRESS":"東門路一段１４５號四樓之２","OBJECTID":584948},"geometry":{"x":169491.63999999966,"y":2543181.3400000017}},{"attributes":{"ID":584976,"DIS_CODE":0,"TOWNNAME":"東區","LI":"泉南里","LIN":"16鄰","STREET":"府連路","SECT":" ","MAREA":" ","LANE":" ","ALLEY":" ","HOUSE_NO":"３３９號二樓","E_COORD97":169608.79000000001,"N_COORD97":2542842.8199999998,"ADDRESS":"府連路３３９號二樓","OBJECTID":584949},"geometry":{"x":169608.79000000097,"y":2542842.8200000022}},{"attributes":{"ID":584977,"DIS_CODE":0,"TOWNNAME":"東區","LI":"泉南里","LIN":"16鄰","STREET":"府連路","SECT":" ","MAREA":" ","LANE":" ","ALLEY":" ","HOUSE_NO":"３３９號三樓","E_COORD97":169608.79000000001,"N_COORD97":2542842.8199999998,"ADDRESS":"府連路３３９號三樓","OBJECTID":584950},"geometry":{"x":169608.79000000097,"y":2542842.8200000022}},{"attributes":{"ID":584978,"DIS_CODE":0,"TOWNNAME":"東區","LI":"泉南里","LIN":"16鄰","STREET":"府連路","SECT":" ","MAREA":" ","LANE":" ","ALLEY":" ","HOUSE_NO":"３３９號四樓","E_COORD97":169608.79000000001,"N_COORD97":2542842.8199999998,"ADDRESS":"府連路３３９號四樓","OBJECTID":584951},"geometry":{"x":169608.79000000097,"y":2542842.8200000022}},{"attributes":{"ID":584979,"DIS_CODE":0,"TOWNNAME":"中西區","LI":"進學里","LIN":"16鄰","STREET":"樹林街","SECT":"二段","MAREA":" ","LANE":" ","ALLEY":" ","HOUSE_NO":"２６８號二樓","E_COORD97":168217.03,"N_COORD97":2542996.9900000002,"ADDRESS":"樹林街二段２６８號二樓","OBJECTID":584952},"geometry":{"x":168217.03000000119,"y":2542996.9900000002}},{"attributes":{"ID":584980,"DIS_CODE":0,"TOWNNAME":"東區","LI":"崇學里","LIN":"16鄰","STREET":"崇學路","SECT":" ","MAREA":" ","LANE":" ","ALLEY":" ","HOUSE_NO":"６號六樓","E_COORD97":170084.10000000001,"N_COORD97":2542018.5800000001,"ADDRESS":"崇學路６號六樓","OBJECTID":584953},"geometry":{"x":170084.10000000056,"y":2542018.5800000001}},{"attributes":{"ID":584981,"DIS_CODE":0,"TOWNNAME":"仁德區","LI":"仁德里","LIN":"39鄰","STREET":"文山路","SECT":" ","MAREA":" ","LANE":" ","ALLEY":" ","HOUSE_NO":"１６０號","E_COORD97":172702.09,"N_COORD97":2541833.0699999998,"ADDRESS":"文山路１６０號","OBJECTID":584954},"geometry":{"x":172702.09000000078,"y":2541833.0700000003}},{"attributes":{"ID":584982,"DIS_CODE":0,"TOWNNAME":"東區","LI":"崇文里","LIN":"16鄰","STREET":"崇德十九街","SECT":" ","MAREA":" ","LANE":" ","ALLEY":" ","HOUSE_NO":"５６號七樓","E_COORD97":170954.63,"N_COORD97":2540962.23,"ADDRESS":"崇德十九街５６號七樓","OBJECTID":584955},"geometry":{"x":170954.62999999989,"y":2540962.2300000023}},{"attributes":{"ID":584983,"DIS_CODE":0,"TOWNNAME":"東區","LI":"崇文里","LIN":"16鄰","STREET":"崇德十九街","SECT":" ","MAREA":" ","LANE":" ","ALLEY":" ","HOUSE_NO":"５６號三樓","E_COORD97":170954.63,"N_COORD97":2540962.23,"ADDRESS":"崇德十九街５６號三樓","OBJECTID":584956},"geometry":{"x":170954.62999999989,"y":2540962.2300000023}},{"attributes":{"ID":584984,"DIS_CODE":0,"TOWNNAME":"東區","LI":"崇文里","LIN":"16鄰","STREET":"崇德十九街","SECT":" ","MAREA":" ","LANE":" ","ALLEY":" ","HOUSE_NO":"５６號五樓","E_COORD97":170954.63,"N_COORD97":2540962.23,"ADDRESS":"崇德十九街５６號五樓","OBJECTID":584957},"geometry":{"x":170954.62999999989,"y":2540962.2300000023}},{"attributes":{"ID":584985,"DIS_CODE":0,"TOWNNAME":"東區","LI":"崇文里","LIN":"16鄰","STREET":"崇德十九街","SECT":" ","MAREA":" ","LANE":" ","ALLEY":" ","HOUSE_NO":"５６號六樓","E_COORD97":170954.63,"N_COORD97":2540962.23,"ADDRESS":"崇德十九街５６號六樓","OBJECTID":584958},"geometry":{"x":170954.62999999989,"y":2540962.2300000023}},{"attributes":{"ID":584986,"DIS_CODE":0,"TOWNNAME":"東區","LI":"崇文里","LIN":"16鄰","STREET":"崇德十九街","SECT":" ","MAREA":" ","LANE":" ","ALLEY":" ","HOUSE_NO":"５６號四樓","E_COORD97":170954.63,"N_COORD97":2540962.23,"ADDRESS":"崇德十九街５６號四樓","OBJECTID":584959},"geometry":{"x":170954.62999999989,"y":2540962.2300000023}},{"attributes":{"ID":584987,"DIS_CODE":0,"TOWNNAME":"東區","LI":"崇文里","LIN":"16鄰","STREET":"崇德十九街","SECT":" ","MAREA":" ","LANE":" ","ALLEY":" ","HOUSE_NO":"５８號七樓","E_COORD97":170960.01000000001,"N_COORD97":2540961.8300000001,"ADDRESS":"崇德十九街５８號七樓","OBJECTID":584960},"geometry":{"x":170960.01000000071,"y":2540961.8300000019}},{"attributes":{"ID":584988,"DIS_CODE":0,"TOWNNAME":"東區","LI":"崇文里","LIN":"16鄰","STREET":"崇德十九街","SECT":" ","MAREA":" ","LANE":" ","ALLEY":" ","HOUSE_NO":"５８號二樓","E_COORD97":170960.01000000001,"N_COORD97":2540961.8300000001,"ADDRESS":"崇德十九街５８號二樓","OBJECTID":584961},"geometry":{"x":170960.01000000071,"y":2540961.8300000019}},{"attributes":{"ID":584989,"DIS_CODE":0,"TOWNNAME":"仁德區","LI":"仁義里","LIN":"18鄰","STREET":"正義路","SECT":" ","MAREA":" ","LANE":" ","ALLEY":" ","HOUSE_NO":"２２０號","E_COORD97":173981.34,"N_COORD97":2541374.02,"ADDRESS":"正義路２２０號","OBJECTID":584962},"geometry":{"x":173981.34000000171,"y":2541374.0200000014}},{"attributes":{"ID":584990,"DIS_CODE":0,"TOWNNAME":"仁德區","LI":"仁德里","LIN":"35鄰","STREET":"文山路","SECT":" ","MAREA":" ","LANE":" ","ALLEY":" ","HOUSE_NO":"１１１號","E_COORD97":172815.62,"N_COORD97":2541728.0699999998,"ADDRESS":"文山路１１１號","OBJECTID":584963},"geometry":{"x":172815.62000000104,"y":2541728.0700000003}},{"attributes":{"ID":584991,"DIS_CODE":0,"TOWNNAME":"東區","LI":"崇文里","LIN":"16鄰","STREET":"崇德十九街","SECT":" ","MAREA":" ","LANE":" ","ALLEY":" ","HOUSE_NO":"５８號三樓","E_COORD97":170960.01000000001,"N_COORD97":2540961.8300000001,"ADDRESS":"崇德十九街５８號三樓","OBJECTID":584964},"geometry":{"x":170960.01000000071,"y":2540961.8300000019}},{"attributes":{"ID":584992,"DIS_CODE":0,"TOWNNAME":"東區","LI":"崇文里","LIN":"16鄰","STREET":"崇德十九街","SECT":" ","MAREA":" ","LANE":" ","ALLEY":" ","HOUSE_NO":"５８號五樓","E_COORD97":170960.01000000001,"N_COORD97":2540961.8300000001,"ADDRESS":"崇德十九街５８號五樓","OBJECTID":584965},"geometry":{"x":170960.01000000071,"y":2540961.8300000019}},{"attributes":{"ID":584993,"DIS_CODE":0,"TOWNNAME":"東區","LI":"崇文里","LIN":"16鄰","STREET":"崇德十九街","SECT":" ","MAREA":" ","LANE":" ","ALLEY":" ","HOUSE_NO":"５８號六樓","E_COORD97":170960.01000000001,"N_COORD97":2540961.8300000001,"ADDRESS":"崇德十九街５８號六樓","OBJECTID":584966},"geometry":{"x":170960.01000000071,"y":2540961.8300000019}},{"attributes":{"ID":584994,"DIS_CODE":0,"TOWNNAME":"東區","LI":"崇文里","LIN":"16鄰","STREET":"崇德十九街","SECT":" ","MAREA":" ","LANE":" ","ALLEY":" ","HOUSE_NO":"５８號四樓","E_COORD97":170960.01000000001,"N_COORD97":2540961.8300000001,"ADDRESS":"崇德十九街５８號四樓","OBJECTID":584967},"geometry":{"x":170960.01000000071,"y":2540961.8300000019}},{"attributes":{"ID":584995,"DIS_CODE":0,"TOWNNAME":"東區","LI":"崇文里","LIN":"16鄰","STREET":"崇德十九街","SECT":" ","MAREA":" ","LANE":" ","ALLEY":" ","HOUSE_NO":"６０號七樓","E_COORD97":170954.63,"N_COORD97":2540949.6899999999,"ADDRESS":"崇德十九街６０號七樓","OBJECTID":584968},"geometry":{"x":170954.62999999989,"y":2540949.6899999995}},{"attributes":{"ID":584996,"DIS_CODE":0,"TOWNNAME":"東區","LI":"崇文里","LIN":"16鄰","STREET":"崇德十九街","SECT":" ","MAREA":" ","LANE":" ","ALLEY":" ","HOUSE_NO":"６０號二樓","E_COORD97":170954.63,"N_COORD97":2540949.6899999999,"ADDRESS":"崇德十九街６０號二樓","OBJECTID":584969},"geometry":{"x":170954.62999999989,"y":2540949.6899999995}},{"attributes":{"ID":584997,"DIS_CODE":0,"TOWNNAME":"東區","LI":"崇文里","LIN":"16鄰","STREET":"崇德十九街","SECT":" ","MAREA":" ","LANE":" ","ALLEY":" ","HOUSE_NO":"６０號三樓","E_COORD97":170954.63,"N_COORD97":2540949.6899999999,"ADDRESS":"崇德十九街６０號三樓","OBJECTID":584970},"geometry":{"x":170954.62999999989,"y":2540949.6899999995}},{"attributes":{"ID":584998,"DIS_CODE":0,"TOWNNAME":"東區","LI":"崇文里","LIN":"16鄰","STREET":"崇德十九街","SECT":" ","MAREA":" ","LANE":" ","ALLEY":" ","HOUSE_NO":"６０號五樓","E_COORD97":170954.63,"N_COORD97":2540949.6899999999,"ADDRESS":"崇德十九街６０號五樓","OBJECTID":584971},"geometry":{"x":170954.62999999989,"y":2540949.6899999995}},{"attributes":{"ID":584999,"DIS_CODE":0,"TOWNNAME":"東區","LI":"崇文里","LIN":"16鄰","STREET":"崇德十九街","SECT":" ","MAREA":" ","LANE":" ","ALLEY":" ","HOUSE_NO":"６０號六樓","E_COORD97":170954.63,"N_COORD97":2540949.6899999999,"ADDRESS":"崇德十九街６０號六樓","OBJECTID":584972},"geometry":{"x":170954.62999999989,"y":2540949.6899999995}},{"attributes":{"ID":585000,"DIS_CODE":0,"TOWNNAME":"東區","LI":"崇文里","LIN":"16鄰","STREET":"崇德十九街","SECT":" ","MAREA":" ","LANE":" ","ALLEY":" ","HOUSE_NO":"６０號四樓","E_COORD97":170954.63,"N_COORD97":2540949.6899999999,"ADDRESS":"崇德十九街６０號四樓","OBJECTID":584973},"geometry":{"x":170954.62999999989,"y":2540949.6899999995}},{"attributes":{"ID":585001,"DIS_CODE":0,"TOWNNAME":"東區","LI":"崇文里","LIN":"16鄰","STREET":"崇德十九街","SECT":" ","MAREA":" ","LANE":" ","ALLEY":" ","HOUSE_NO":"６２號七樓","E_COORD97":170971.54999999999,"N_COORD97":2540944.4199999999,"ADDRESS":"崇德十九街６２號七樓","OBJECTID":584974},"geometry":{"x":170971.55000000075,"y":2540944.4200000018}},{"attributes":{"ID":585002,"DIS_CODE":0,"TOWNNAME":"東區","LI":"崇文里","LIN":"16鄰","STREET":"崇德十九街","SECT":" ","MAREA":" ","LANE":" ","ALLEY":" ","HOUSE_NO":"６２號七樓之１","E_COORD97":170971.54999999999,"N_COORD97":2540944.4199999999,"ADDRESS":"崇德十九街６２號七樓之１","OBJECTID":584975},"geometry":{"x":170971.55000000075,"y":2540944.4200000018}},{"attributes":{"ID":585003,"DIS_CODE":0,"TOWNNAME":"東區","LI":"崇文里","LIN":"16鄰","STREET":"崇德十九街","SECT":" ","MAREA":" ","LANE":" ","ALLEY":" ","HOUSE_NO":"６２號七樓之２","E_COORD97":170971.54999999999,"N_COORD97":2540944.4199999999,"ADDRESS":"崇德十九街６２號七樓之２","OBJECTID":584976},"geometry":{"x":170971.55000000075,"y":2540944.4200000018}},{"attributes":{"ID":585004,"DIS_CODE":0,"TOWNNAME":"東區","LI":"崇文里","LIN":"16鄰","STREET":"崇德十九街","SECT":" ","MAREA":" ","LANE":" ","ALLEY":" ","HOUSE_NO":"６２號二樓之１","E_COORD97":170971.54999999999,"N_COORD97":2540944.4199999999,"ADDRESS":"崇德十九街６２號二樓之１","OBJECTID":584977},"geometry":{"x":170971.55000000075,"y":2540944.4200000018}},{"attributes":{"ID":585005,"DIS_CODE":0,"TOWNNAME":"東區","LI":"崇文里","LIN":"16鄰","STREET":"崇德十九街","SECT":" ","MAREA":" ","LANE":" ","ALLEY":" ","HOUSE_NO":"６２號八樓之１","E_COORD97":170971.54999999999,"N_COORD97":2540944.4199999999,"ADDRESS":"崇德十九街６２號八樓之１","OBJECTID":584978},"geometry":{"x":170971.55000000075,"y":2540944.4200000018}},{"attributes":{"ID":585006,"DIS_CODE":0,"TOWNNAME":"東區","LI":"崇文里","LIN":"16鄰","STREET":"崇德十九街","SECT":" ","MAREA":" ","LANE":" ","ALLEY":" ","HOUSE_NO":"６２號八樓之２","E_COORD97":170971.54999999999,"N_COORD97":2540944.4199999999,"ADDRESS":"崇德十九街６２號八樓之２","OBJECTID":584979},"geometry":{"x":170971.55000000075,"y":2540944.4200000018}},{"attributes":{"ID":585007,"DIS_CODE":0,"TOWNNAME":"東區","LI":"崇文里","LIN":"16鄰","STREET":"崇德十九街","SECT":" ","MAREA":" ","LANE":" ","ALLEY":" ","HOUSE_NO":"６２號三樓","E_COORD97":170971.54999999999,"N_COORD97":2540944.4199999999,"ADDRESS":"崇德十九街６２號三樓","OBJECTID":584980},"geometry":{"x":170971.55000000075,"y":2540944.4200000018}},{"attributes":{"ID":585008,"DIS_CODE":0,"TOWNNAME":"東區","LI":"崇文里","LIN":"16鄰","STREET":"崇德十九街","SECT":" ","MAREA":" ","LANE":" ","ALLEY":" ","HOUSE_NO":"６２號三樓之１","E_COORD97":170971.54999999999,"N_COORD97":2540944.4199999999,"ADDRESS":"崇德十九街６２號三樓之１","OBJECTID":584981},"geometry":{"x":170971.55000000075,"y":2540944.4200000018}},{"attributes":{"ID":585009,"DIS_CODE":0,"TOWNNAME":"東區","LI":"崇文里","LIN":"16鄰","STREET":"崇德十九街","SECT":" ","MAREA":" ","LANE":" ","ALLEY":" ","HOUSE_NO":"６２號三樓之２","E_COORD97":170971.54999999999,"N_COORD97":2540944.4199999999,"ADDRESS":"崇德十九街６２號三樓之２","OBJECTID":584982},"geometry":{"x":170971.55000000075,"y":2540944.4200000018}},{"attributes":{"ID":585010,"DIS_CODE":0,"TOWNNAME":"東區","LI":"崇文里","LIN":"16鄰","STREET":"崇德十九街","SECT":" ","MAREA":" ","LANE":" ","ALLEY":" ","HOUSE_NO":"６２號五樓","E_COORD97":170971.54999999999,"N_COORD97":2540944.4199999999,"ADDRESS":"崇德十九街６２號五樓","OBJECTID":584983},"geometry":{"x":170971.55000000075,"y":2540944.4200000018}},{"attributes":{"ID":585011,"DIS_CODE":0,"TOWNNAME":"東區","LI":"崇文里","LIN":"16鄰","STREET":"崇德十九街","SECT":" ","MAREA":" ","LANE":" ","ALLEY":" ","HOUSE_NO":"６２號五樓之１","E_COORD97":170971.54999999999,"N_COORD97":2540944.4199999999,"ADDRESS":"崇德十九街６２號五樓之１","OBJECTID":584984},"geometry":{"x":170971.55000000075,"y":2540944.4200000018}},{"attributes":{"ID":585012,"DIS_CODE":0,"TOWNNAME":"東區","LI":"崇文里","LIN":"16鄰","STREET":"崇德十九街","SECT":" ","MAREA":" ","LANE":" ","ALLEY":" ","HOUSE_NO":"６２號五樓之２","E_COORD97":170971.54999999999,"N_COORD97":2540944.4199999999,"ADDRESS":"崇德十九街６２號五樓之２","OBJECTID":584985},"geometry":{"x":170971.55000000075,"y":2540944.4200000018}},{"attributes":{"ID":585013,"DIS_CODE":0,"TOWNNAME":"東區","LI":"崇文里","LIN":"16鄰","STREET":"崇德十九街","SECT":" ","MAREA":" ","LANE":" ","ALLEY":" ","HOUSE_NO":"６２號六樓","E_COORD97":170971.54999999999,"N_COORD97":2540944.4199999999,"ADDRESS":"崇德十九街６２號六樓","OBJECTID":584986},"geometry":{"x":170971.55000000075,"y":2540944.4200000018}},{"attributes":{"ID":585014,"DIS_CODE":0,"TOWNNAME":"東區","LI":"崇文里","LIN":"16鄰","STREET":"崇德十九街","SECT":" ","MAREA":" ","LANE":" ","ALLEY":" ","HOUSE_NO":"６２號六樓之１","E_COORD97":170971.54999999999,"N_COORD97":2540944.4199999999,"ADDRESS":"崇德十九街６２號六樓之１","OBJECTID":584987},"geometry":{"x":170971.55000000075,"y":2540944.4200000018}},{"attributes":{"ID":585015,"DIS_CODE":0,"TOWNNAME":"東區","LI":"崇文里","LIN":"16鄰","STREET":"崇德十九街","SECT":" ","MAREA":" ","LANE":" ","ALLEY":" ","HOUSE_NO":"６２號六樓之２","E_COORD97":170971.54999999999,"N_COORD97":2540944.4199999999,"ADDRESS":"崇德十九街６２號六樓之２","OBJECTID":584988},"geometry":{"x":170971.55000000075,"y":2540944.4200000018}},{"attributes":{"ID":585016,"DIS_CODE":0,"TOWNNAME":"東區","LI":"崇文里","LIN":"16鄰","STREET":"崇德十九街","SECT":" ","MAREA":" ","LANE":" ","ALLEY":" ","HOUSE_NO":"６２號四樓","E_COORD97":170971.54999999999,"N_COORD97":2540944.4199999999,"ADDRESS":"崇德十九街６２號四樓","OBJECTID":584989},"geometry":{"x":170971.55000000075,"y":2540944.4200000018}},{"attributes":{"ID":585017,"DIS_CODE":0,"TOWNNAME":"東區","LI":"崇文里","LIN":"16鄰","STREET":"崇德十九街","SECT":" ","MAREA":" ","LANE":" ","ALLEY":" ","HOUSE_NO":"６２號四樓之１","E_COORD97":170971.54999999999,"N_COORD97":2540944.4199999999,"ADDRESS":"崇德十九街６２號四樓之１","OBJECTID":584990},"geometry":{"x":170971.55000000075,"y":2540944.4200000018}},{"attributes":{"ID":585018,"DIS_CODE":0,"TOWNNAME":"東區","LI":"崇文里","LIN":"16鄰","STREET":"崇德十九街","SECT":" ","MAREA":" ","LANE":" ","ALLEY":" ","HOUSE_NO":"６２號四樓之２","E_COORD97":170971.54999999999,"N_COORD97":2540944.4199999999,"ADDRESS":"崇德十九街６２號四樓之２","OBJECTID":584991},"geometry":{"x":170971.55000000075,"y":2540944.4200000018}},{"attributes":{"ID":585019,"DIS_CODE":0,"TOWNNAME":"中西區","LI":"安海里","LIN":"16鄰","STREET":"民生路","SECT":"二段","MAREA":" ","LANE":" ","ALLEY":" ","HOUSE_NO":"２７９號一樓","E_COORD97":167146.73999999999,"N_COORD97":2544130.2400000002,"ADDRESS":"民生路二段２７９號一樓","OBJECTID":584992},"geometry":{"x":167146.74000000022,"y":2544130.2400000002}},{"attributes":{"ID":585020,"DIS_CODE":0,"TOWNNAME":"中西區","LI":"安海里","LIN":"16鄰","STREET":"民生路","SECT":"二段","MAREA":" ","LANE":" ","ALLEY":" ","HOUSE_NO":"２７９號七樓","E_COORD97":167146.73999999999,"N_COORD97":2544130.2400000002,"ADDRESS":"民生路二段２７９號七樓","OBJECTID":584993},"geometry":{"x":167146.74000000022,"y":2544130.2400000002}},{"attributes":{"ID":585021,"DIS_CODE":0,"TOWNNAME":"中西區","LI":"安海里","LIN":"16鄰","STREET":"民生路","SECT":"二段","MAREA":" ","LANE":" ","ALLEY":" ","HOUSE_NO":"２７９號九樓","E_COORD97":167146.73999999999,"N_COORD97":2544130.2400000002,"ADDRESS":"民生路二段２７９號九樓","OBJECTID":584994},"geometry":{"x":167146.74000000022,"y":2544130.2400000002}},{"attributes":{"ID":585022,"DIS_CODE":0,"TOWNNAME":"中西區","LI":"安海里","LIN":"16鄰","STREET":"民生路","SECT":"二段","MAREA":" ","LANE":" ","ALLEY":" ","HOUSE_NO":"２７９號二樓之１","E_COORD97":167146.73999999999,"N_COORD97":2544130.2400000002,"ADDRESS":"民生路二段２７９號二樓之１","OBJECTID":584995},"geometry":{"x":167146.74000000022,"y":2544130.2400000002}},{"attributes":{"ID":585023,"DIS_CODE":0,"TOWNNAME":"中西區","LI":"安海里","LIN":"16鄰","STREET":"民生路","SECT":"二段","MAREA":" ","LANE":" ","ALLEY":" ","HOUSE_NO":"２７９號八樓","E_COORD97":167146.73999999999,"N_COORD97":2544130.2400000002,"ADDRESS":"民生路二段２７９號八樓","OBJECTID":584996},"geometry":{"x":167146.74000000022,"y":2544130.2400000002}},{"attributes":{"ID":585024,"DIS_CODE":0,"TOWNNAME":"中西區","LI":"安海里","LIN":"16鄰","STREET":"民生路","SECT":"二段","MAREA":" ","LANE":" ","ALLEY":" ","HOUSE_NO":"２７９號十一樓","E_COORD97":167146.73999999999,"N_COORD97":2544130.2400000002,"ADDRESS":"民生路二段２７９號十一樓","OBJECTID":584997},"geometry":{"x":167146.74000000022,"y":2544130.2400000002}},{"attributes":{"ID":585025,"DIS_CODE":0,"TOWNNAME":"中西區","LI":"安海里","LIN":"16鄰","STREET":"民生路","SECT":"二段","MAREA":" ","LANE":" ","ALLEY":" ","HOUSE_NO":"２７９號十七樓","E_COORD97":167146.73999999999,"N_COORD97":2544130.2400000002,"ADDRESS":"民生路二段２７９號十七樓","OBJECTID":584998},"geometry":{"x":167146.74000000022,"y":2544130.2400000002}},{"attributes":{"ID":585026,"DIS_CODE":0,"TOWNNAME":"中西區","LI":"安海里","LIN":"16鄰","STREET":"民生路","SECT":"二段","MAREA":" ","LANE":" ","ALLEY":" ","HOUSE_NO":"２７９號十二樓","E_COORD97":167146.73999999999,"N_COORD97":2544130.2400000002,"ADDRESS":"民生路二段２７９號十二樓","OBJECTID":584999},"geometry":{"x":167146.74000000022,"y":2544130.2400000002}},{"attributes":{"ID":585027,"DIS_CODE":0,"TOWNNAME":"中西區","LI":"安海里","LIN":"16鄰","STREET":"民生路","SECT":"二段","MAREA":" ","LANE":" ","ALLEY":" ","HOUSE_NO":"２７９號十八樓","E_COORD97":167146.73999999999,"N_COORD97":2544130.2400000002,"ADDRESS":"民生路二段２７９號十八樓","OBJECTID":585000},"geometry":{"x":167146.74000000022,"y":2544130.2400000002}}]}