{"displayFieldName":"TOWNNAME","fieldAliases":{"ID":"ID","DIS_CODE":"DIS_CODE","TOWNNAME":"TOWNNAME","LI":"LI","LIN":"LIN","STREET":"STREET","SECT":"SECT","MAREA":"MAREA","LANE":"LANE","ALLEY":"ALLEY","HOUSE_NO":"HOUSE_NO","E_COORD97":"E_COORD97","N_COORD97":"N_COORD97","ADDRESS":"ADDRESS","OBJECTID":"OBJECTID"},"geometryType":"esriGeometryPoint","spatialReference":{"wkid":102443,"latestWkid":3826},"fields":[{"name":"ID","type":"esriFieldTypeDouble","alias":"ID"},{"name":"DIS_CODE","type":"esriFieldTypeInteger","alias":"DIS_CODE"},{"name":"TOWNNAME","type":"esriFieldTypeString","alias":"TOWNNAME","length":8},{"name":"LI","type":"esriFieldTypeString","alias":"LI","length":8},{"name":"LIN","type":"esriFieldTypeString","alias":"LIN","length":12},{"name":"STREET","type":"esriFieldTypeString","alias":"STREET","length":20},{"name":"SECT","type":"esriFieldTypeString","alias":"SECT","length":8},{"name":"MAREA","type":"esriFieldTypeString","alias":"MAREA","length":12},{"name":"LANE","type":"esriFieldTypeString","alias":"LANE","length":10},{"name":"ALLEY","type":"esriFieldTypeString","alias":"ALLEY","length":10},{"name":"HOUSE_NO","type":"esriFieldTypeString","alias":"HOUSE_NO","length":20},{"name":"E_COORD97","type":"esriFieldTypeDouble","alias":"E_COORD97"},{"name":"N_COORD97","type":"esriFieldTypeDouble","alias":"N_COORD97"},{"name":"ADDRESS","type":"esriFieldTypeString","alias":"ADDRESS","length":50},{"name":"OBJECTID","type":"esriFieldTypeOID","alias":"OBJECTID"}],"features":[{"attributes":{"ID":412425,"DIS_CODE":0,"TOWNNAME":"北區","LI":"裕民里","LIN":"3鄰","STREET":"成功路","SECT":" ","MAREA":" ","LANE":"５０４巷","ALLEY":" ","HOUSE_NO":"１０號","E_COORD97":167707.5,"N_COORD97":2544700.75,"ADDRESS":"成功路５０４巷１０號","OBJECTID":412401},"geometry":{"x":167707.5,"y":2544700.7500000037}},{"attributes":{"ID":412426,"DIS_CODE":0,"TOWNNAME":"北區","LI":"裕民里","LIN":"3鄰","STREET":"成功路","SECT":" ","MAREA":" ","LANE":"５０４巷","ALLEY":" ","HOUSE_NO":"６號","E_COORD97":167704.44,"N_COORD97":2544691.9700000002,"ADDRESS":"成功路５０４巷６號","OBJECTID":412402},"geometry":{"x":167704.44000000134,"y":2544691.9700000007}},{"attributes":{"ID":412427,"DIS_CODE":0,"TOWNNAME":"北區","LI":"裕民里","LIN":"3鄰","STREET":"成功路","SECT":" ","MAREA":" ","LANE":"５０４巷","ALLEY":" ","HOUSE_NO":"４號","E_COORD97":167702.72,"N_COORD97":2544685.8500000001,"ADDRESS":"成功路５０４巷４號","OBJECTID":412403},"geometry":{"x":167702.71999999974,"y":2544685.8499999978}},{"attributes":{"ID":412428,"DIS_CODE":0,"TOWNNAME":"新營區","LI":"興業里","LIN":"3鄰","STREET":"新進路","SECT":" ","MAREA":" ","LANE":"２２２巷","ALLEY":" ","HOUSE_NO":"４號","E_COORD97":180410.98000000001,"N_COORD97":2577941.7400000002,"ADDRESS":"新進路２２２巷４號","OBJECTID":412404},"geometry":{"x":180410.98000000138,"y":2577941.7400000021}},{"attributes":{"ID":412429,"DIS_CODE":0,"TOWNNAME":"新營區","LI":"興業里","LIN":"3鄰","STREET":"新進路","SECT":" ","MAREA":" ","LANE":"２２２巷","ALLEY":" ","HOUSE_NO":"２號","E_COORD97":180396.66,"N_COORD97":2577944.0099999998,"ADDRESS":"新進路２２２巷２號","OBJECTID":412405},"geometry":{"x":180396.66000000015,"y":2577944.0099999998}},{"attributes":{"ID":412430,"DIS_CODE":0,"TOWNNAME":"新營區","LI":"興業里","LIN":"3鄰","STREET":"新進路","SECT":" ","MAREA":" ","LANE":"２２２巷","ALLEY":" ","HOUSE_NO":"７號","E_COORD97":180402.79000000001,"N_COORD97":2577950.6400000001,"ADDRESS":"新進路２２２巷７號","OBJECTID":412406},"geometry":{"x":180402.79000000004,"y":2577950.6400000006}},{"attributes":{"ID":412431,"DIS_CODE":0,"TOWNNAME":"新營區","LI":"興業里","LIN":"3鄰","STREET":"新進路","SECT":" ","MAREA":" ","LANE":"２２２巷","ALLEY":" ","HOUSE_NO":"６號","E_COORD97":180394.59,"N_COORD97":2577951.7799999998,"ADDRESS":"新進路２２２巷６號","OBJECTID":412407},"geometry":{"x":180394.59000000078,"y":2577951.7799999993}},{"attributes":{"ID":412432,"DIS_CODE":0,"TOWNNAME":"新營區","LI":"忠政里","LIN":"3鄰","STREET":"中正路","SECT":" ","MAREA":" ","LANE":"３７巷","ALLEY":" ","HOUSE_NO":"１之１號","E_COORD97":180087.59,"N_COORD97":2579129.3999999999,"ADDRESS":"中正路３７巷１之１號","OBJECTID":412408},"geometry":{"x":180087.59000000078,"y":2579129.4000000041}},{"attributes":{"ID":412433,"DIS_CODE":0,"TOWNNAME":"新營區","LI":"興業里","LIN":"3鄰","STREET":"新進路","SECT":" ","MAREA":" ","LANE":"２２２巷","ALLEY":" ","HOUSE_NO":"５號","E_COORD97":180388.47,"N_COORD97":2577952.9199999999,"ADDRESS":"新進路２２２巷５號","OBJECTID":412409},"geometry":{"x":180388.47000000067,"y":2577952.9200000018}},{"attributes":{"ID":412434,"DIS_CODE":0,"TOWNNAME":"新營區","LI":"忠政里","LIN":"3鄰","STREET":"中正路","SECT":" ","MAREA":" ","LANE":"３７巷","ALLEY":" ","HOUSE_NO":"１號","E_COORD97":180090.20999999999,"N_COORD97":2579130.4300000002,"ADDRESS":"中正路３７巷１號","OBJECTID":412410},"geometry":{"x":180090.21000000089,"y":2579130.4299999997}},{"attributes":{"ID":412435,"DIS_CODE":0,"TOWNNAME":"新營區","LI":"忠政里","LIN":"3鄰","STREET":"中正路","SECT":" ","MAREA":" ","LANE":"３５巷","ALLEY":" ","HOUSE_NO":"３號","E_COORD97":180081.94,"N_COORD97":2579093.9300000002,"ADDRESS":"中正路３５巷３號","OBJECTID":412411},"geometry":{"x":180081.94000000041,"y":2579093.9299999997}},{"attributes":{"ID":412436,"DIS_CODE":0,"TOWNNAME":"新營區","LI":"埤寮里","LIN":"3鄰","STREET":"建國路","SECT":" ","MAREA":" ","LANE":"２６巷","ALLEY":" ","HOUSE_NO":"９號","E_COORD97":180024.94,"N_COORD97":2581124.1699999999,"ADDRESS":"建國路２６巷９號","OBJECTID":412412},"geometry":{"x":180024.94000000134,"y":2581124.1700000037}},{"attributes":{"ID":412437,"DIS_CODE":0,"TOWNNAME":"楠西區","LI":"楠西里","LIN":"3鄰","STREET":"民族路","SECT":" ","MAREA":" ","LANE":"１４５巷","ALLEY":" ","HOUSE_NO":"４號","E_COORD97":197110.60000000001,"N_COORD97":2564353.9300000002,"ADDRESS":"民族路１４５巷４號","OBJECTID":412413},"geometry":{"x":197110.60000000056,"y":2564353.9300000016}},{"attributes":{"ID":412438,"DIS_CODE":0,"TOWNNAME":"楠西區","LI":"楠西里","LIN":"3鄰","STREET":"中興路","SECT":" ","MAREA":" ","LANE":"７７巷","ALLEY":" ","HOUSE_NO":"２０號","E_COORD97":197139.45999999999,"N_COORD97":2564418.25,"ADDRESS":"中興路７７巷２０號","OBJECTID":412414},"geometry":{"x":197139.45999999996,"y":2564418.25}},{"attributes":{"ID":412439,"DIS_CODE":0,"TOWNNAME":"楠西區","LI":"楠西里","LIN":"3鄰","STREET":"中興路","SECT":" ","MAREA":" ","LANE":"７７巷","ALLEY":" ","HOUSE_NO":"２１號","E_COORD97":197134.45999999999,"N_COORD97":2564418.25,"ADDRESS":"中興路７７巷２１號","OBJECTID":412415},"geometry":{"x":197134.45999999996,"y":2564418.25}},{"attributes":{"ID":412440,"DIS_CODE":0,"TOWNNAME":"楠西區","LI":"東勢里","LIN":"3鄰","STREET":"民生路","SECT":" ","MAREA":" ","LANE":"１０６巷","ALLEY":" ","HOUSE_NO":"１號","E_COORD97":197400.29000000001,"N_COORD97":2564234.29,"ADDRESS":"民生路１０６巷１號","OBJECTID":412416},"geometry":{"x":197400.29000000004,"y":2564234.2899999991}},{"attributes":{"ID":412441,"DIS_CODE":0,"TOWNNAME":"楠西區","LI":"楠西里","LIN":"3鄰","STREET":"中興路","SECT":" ","MAREA":" ","LANE":"７７巷","ALLEY":" ","HOUSE_NO":"４號","E_COORD97":197175.31,"N_COORD97":2564406.25,"ADDRESS":"中興路７７巷４號","OBJECTID":412417},"geometry":{"x":197175.31000000052,"y":2564406.2500000019}},{"attributes":{"ID":412442,"DIS_CODE":0,"TOWNNAME":"楠西區","LI":"楠西里","LIN":"3鄰","STREET":"中興路","SECT":" ","MAREA":" ","LANE":"７７巷","ALLEY":" ","HOUSE_NO":"２５號","E_COORD97":197110.06,"N_COORD97":2564425.25,"ADDRESS":"中興路７７巷２５號","OBJECTID":412418},"geometry":{"x":197110.05999999959,"y":2564425.25}},{"attributes":{"ID":412443,"DIS_CODE":0,"TOWNNAME":"楠西區","LI":"東勢里","LIN":"3鄰","STREET":"民生路","SECT":" ","MAREA":" ","LANE":"１０６巷","ALLEY":" ","HOUSE_NO":"２３號","E_COORD97":197336.64000000001,"N_COORD97":2564244.29,"ADDRESS":"民生路１０６巷２３號","OBJECTID":412419},"geometry":{"x":197336.63999999966,"y":2564244.2899999991}},{"attributes":{"ID":412444,"DIS_CODE":0,"TOWNNAME":"楠西區","LI":"楠西里","LIN":"3鄰","STREET":"中興路","SECT":" ","MAREA":" ","LANE":"７７巷","ALLEY":" ","HOUSE_NO":"２號","E_COORD97":197178.60999999999,"N_COORD97":2564405.25,"ADDRESS":"中興路７７巷２號","OBJECTID":412420},"geometry":{"x":197178.6100000022,"y":2564405.2499999981}},{"attributes":{"ID":412445,"DIS_CODE":0,"TOWNNAME":"楠西區","LI":"楠西里","LIN":"3鄰","STREET":"中興路","SECT":" ","MAREA":" ","LANE":"７７巷","ALLEY":" ","HOUSE_NO":"２７號","E_COORD97":197115.95999999999,"N_COORD97":2564419.25,"ADDRESS":"中興路７７巷２７號","OBJECTID":412421},"geometry":{"x":197115.95999999996,"y":2564419.2500000037}},{"attributes":{"ID":412446,"DIS_CODE":0,"TOWNNAME":"楠西區","LI":"楠西里","LIN":"3鄰","STREET":"中興路","SECT":" ","MAREA":" ","LANE":"７７巷","ALLEY":" ","HOUSE_NO":"２９號","E_COORD97":197127.06,"N_COORD97":2564416.25,"ADDRESS":"中興路７７巷２９號","OBJECTID":412422},"geometry":{"x":197127.05999999959,"y":2564416.2500000019}},{"attributes":{"ID":412447,"DIS_CODE":0,"TOWNNAME":"楠西區","LI":"楠西里","LIN":"3鄰","STREET":"中興路","SECT":" ","MAREA":" ","LANE":"７７巷","ALLEY":" ","HOUSE_NO":"１６號","E_COORD97":197155.06,"N_COORD97":2564409.25,"ADDRESS":"中興路７７巷１６號","OBJECTID":412423},"geometry":{"x":197155.06000000052,"y":2564409.2500000019}},{"attributes":{"ID":412448,"DIS_CODE":0,"TOWNNAME":"新化區","LI":"協興里","LIN":"3鄰","STREET":"忠孝路","SECT":" ","MAREA":" ","LANE":"２４３巷","ALLEY":" ","HOUSE_NO":"６號","E_COORD97":178482.82000000001,"N_COORD97":2548555.25,"ADDRESS":"忠孝路２４３巷６號","OBJECTID":412424},"geometry":{"x":178482.82000000123,"y":2548555.2499999981}},{"attributes":{"ID":412449,"DIS_CODE":0,"TOWNNAME":"永康區","LI":"北灣里","LIN":"12鄰","STREET":"大民街","SECT":" ","MAREA":" ","LANE":"１４８巷","ALLEY":" ","HOUSE_NO":"７號","E_COORD97":174984.76999999999,"N_COORD97":2545655.7400000002,"ADDRESS":"大民街１４８巷７號","OBJECTID":412425},"geometry":{"x":174984.76999999955,"y":2545655.7400000002}},{"attributes":{"ID":412450,"DIS_CODE":0,"TOWNNAME":"永康區","LI":"五王里","LIN":"29鄰","STREET":"中山東路","SECT":" ","MAREA":" ","LANE":"６８巷","ALLEY":" ","HOUSE_NO":"５號","E_COORD97":171630.54000000001,"N_COORD97":2545975.3599999999,"ADDRESS":"中山東路６８巷５號","OBJECTID":412426},"geometry":{"x":171630.5400000019,"y":2545975.3600000013}},{"attributes":{"ID":412451,"DIS_CODE":0,"TOWNNAME":"新化區","LI":"太平里","LIN":"3鄰","STREET":"太平街","SECT":" ","MAREA":" ","LANE":"１巷","ALLEY":" ","HOUSE_NO":"１６號之４","E_COORD97":179051.60999999999,"N_COORD97":2548793.2599999998,"ADDRESS":"太平街１巷１６號之４","OBJECTID":412427},"geometry":{"x":179051.61000000034,"y":2548793.2600000016}},{"attributes":{"ID":412452,"DIS_CODE":0,"TOWNNAME":"新化區","LI":"護國里","LIN":"3鄰","STREET":"建國街","SECT":" ","MAREA":" ","LANE":"９巷","ALLEY":" ","HOUSE_NO":"８號之４","E_COORD97":179172.66,"N_COORD97":2548539.2599999998,"ADDRESS":"建國街９巷８號之４","OBJECTID":412428},"geometry":{"x":179172.66000000015,"y":2548539.2600000016}},{"attributes":{"ID":412453,"DIS_CODE":0,"TOWNNAME":"新化區","LI":"東榮里","LIN":"3鄰","STREET":"中興路","SECT":" ","MAREA":" ","LANE":"１０４巷","ALLEY":" ","HOUSE_NO":"１０６號之５","E_COORD97":181938.67000000001,"N_COORD97":2547705.2599999998,"ADDRESS":"中興路１０４巷１０６號之５","OBJECTID":412429},"geometry":{"x":181938.67000000086,"y":2547705.2600000016}},{"attributes":{"ID":412454,"DIS_CODE":0,"TOWNNAME":"永康區","LI":"王行里","LIN":"10鄰","STREET":"王行路","SECT":" ","MAREA":" ","LANE":"１０６０巷","ALLEY":" ","HOUSE_NO":"８３號","E_COORD97":175896.47,"N_COORD97":2550269.5,"ADDRESS":"王行路１０６０巷８３號","OBJECTID":412430},"geometry":{"x":175896.47000000067,"y":2550269.5000000037}},{"attributes":{"ID":412455,"DIS_CODE":0,"TOWNNAME":"永康區","LI":"五王里","LIN":"22鄰","STREET":"成功路","SECT":" ","MAREA":" ","LANE":"２２８巷","ALLEY":" ","HOUSE_NO":"４７號","E_COORD97":171454.23000000001,"N_COORD97":2545855.0099999998,"ADDRESS":"成功路２２８巷４７號","OBJECTID":412431},"geometry":{"x":171454.23000000138,"y":2545855.0100000035}},{"attributes":{"ID":412456,"DIS_CODE":0,"TOWNNAME":"新化區","LI":"東榮里","LIN":"3鄰","STREET":"中興路","SECT":" ","MAREA":" ","LANE":"１０４巷","ALLEY":" ","HOUSE_NO":"３０號","E_COORD97":181885.16,"N_COORD97":2547408.25,"ADDRESS":"中興路１０４巷３０號","OBJECTID":412432},"geometry":{"x":181885.16000000015,"y":2547408.25}},{"attributes":{"ID":412457,"DIS_CODE":0,"TOWNNAME":"新化區","LI":"觀音里","LIN":"3鄰","STREET":"仁愛街","SECT":" ","MAREA":" ","LANE":"６５巷","ALLEY":" ","HOUSE_NO":"３６號","E_COORD97":178950.13,"N_COORD97":2548461.25,"ADDRESS":"仁愛街６５巷３６號","OBJECTID":412433},"geometry":{"x":178950.13000000082,"y":2548461.2500000019}},{"attributes":{"ID":412458,"DIS_CODE":0,"TOWNNAME":"新化區","LI":"太平里","LIN":"3鄰","STREET":"太平街","SECT":" ","MAREA":" ","LANE":"１巷","ALLEY":" ","HOUSE_NO":"１４號","E_COORD97":179034.97,"N_COORD97":2548788.25,"ADDRESS":"太平街１巷１４號","OBJECTID":412434},"geometry":{"x":179034.96999999974,"y":2548788.25}},{"attributes":{"ID":412459,"DIS_CODE":0,"TOWNNAME":"新化區","LI":"清水里","LIN":"3鄰","STREET":"民治路","SECT":" ","MAREA":" ","LANE":"１１１巷","ALLEY":" ","HOUSE_NO":"８號","E_COORD97":178645.81,"N_COORD97":2548303.25,"ADDRESS":"民治路１１１巷８號","OBJECTID":412435},"geometry":{"x":178645.80999999959,"y":2548303.25}},{"attributes":{"ID":412460,"DIS_CODE":0,"TOWNNAME":"新化區","LI":"清水里","LIN":"3鄰","STREET":"民治路","SECT":" ","MAREA":" ","LANE":"１１１巷","ALLEY":" ","HOUSE_NO":"２號","E_COORD97":178662.81,"N_COORD97":2548303.25,"ADDRESS":"民治路１１１巷２號","OBJECTID":412436},"geometry":{"x":178662.80999999959,"y":2548303.25}},{"attributes":{"ID":412461,"DIS_CODE":0,"TOWNNAME":"新化區","LI":"觀音里","LIN":"3鄰","STREET":"仁愛街","SECT":" ","MAREA":" ","LANE":"６５巷","ALLEY":" ","HOUSE_NO":"２８號之１","E_COORD97":178963.16,"N_COORD97":2548490.2599999998,"ADDRESS":"仁愛街６５巷２８號之１","OBJECTID":412437},"geometry":{"x":178963.15999999922,"y":2548490.2599999998}},{"attributes":{"ID":412462,"DIS_CODE":0,"TOWNNAME":"新化區","LI":"協興里","LIN":"3鄰","STREET":"正新路","SECT":" ","MAREA":" ","LANE":"２５１巷","ALLEY":" ","HOUSE_NO":"２８號","E_COORD97":178506.07000000001,"N_COORD97":2548521.25,"ADDRESS":"正新路２５１巷２８號","OBJECTID":412438},"geometry":{"x":178506.0700000003,"y":2548521.25}},{"attributes":{"ID":412463,"DIS_CODE":0,"TOWNNAME":"新化區","LI":"東榮里","LIN":"3鄰","STREET":"中興路","SECT":" ","MAREA":" ","LANE":"１０４巷","ALLEY":" ","HOUSE_NO":"４２號","E_COORD97":181909.16,"N_COORD97":2547409.25,"ADDRESS":"中興路１０４巷４２號","OBJECTID":412439},"geometry":{"x":181909.16000000015,"y":2547409.25}},{"attributes":{"ID":412464,"DIS_CODE":0,"TOWNNAME":"新化區","LI":"東榮里","LIN":"3鄰","STREET":"中興路","SECT":" ","MAREA":" ","LANE":"１０４巷","ALLEY":" ","HOUSE_NO":"９４號","E_COORD97":181879.85999999999,"N_COORD97":2547460.25,"ADDRESS":"中興路１０４巷９４號","OBJECTID":412440},"geometry":{"x":181879.86000000127,"y":2547460.2499999981}},{"attributes":{"ID":412465,"DIS_CODE":0,"TOWNNAME":"新化區","LI":"太平里","LIN":"3鄰","STREET":"太平街","SECT":" ","MAREA":" ","LANE":"１巷","ALLEY":" ","HOUSE_NO":"２４號","E_COORD97":179040.47,"N_COORD97":2548768.25,"ADDRESS":"太平街１巷２４號","OBJECTID":412441},"geometry":{"x":179040.4700000016,"y":2548768.25}},{"attributes":{"ID":412466,"DIS_CODE":0,"TOWNNAME":"永康區","LI":"北灣里","LIN":"38鄰","STREET":"大灣路","SECT":" ","MAREA":" ","LANE":"４０巷","ALLEY":" ","HOUSE_NO":"１８５號","E_COORD97":174852.41,"N_COORD97":2546298.1200000001,"ADDRESS":"大灣路４０巷１８５號","OBJECTID":412442},"geometry":{"x":174852.41000000201,"y":2546298.120000001}},{"attributes":{"ID":412467,"DIS_CODE":0,"TOWNNAME":"永康區","LI":"北灣里","LIN":"1鄰","STREET":"大同街","SECT":" ","MAREA":" ","LANE":"９８巷","ALLEY":" ","HOUSE_NO":"２號","E_COORD97":175136.5,"N_COORD97":2545485.3799999999,"ADDRESS":"大同街９８巷２號","OBJECTID":412443},"geometry":{"x":175136.50000000186,"y":2545485.3800000027}},{"attributes":{"ID":412468,"DIS_CODE":0,"TOWNNAME":"新化區","LI":"武安里","LIN":"3鄰","STREET":"中正路","SECT":" ","MAREA":" ","LANE":"３０７巷","ALLEY":" ","HOUSE_NO":"１０號之２","E_COORD97":179052.20999999999,"N_COORD97":2548114.2599999998,"ADDRESS":"中正路３０７巷１０號之２","OBJECTID":412444},"geometry":{"x":179052.20999999996,"y":2548114.2599999979}},{"attributes":{"ID":412469,"DIS_CODE":0,"TOWNNAME":"新化區","LI":"武安里","LIN":"3鄰","STREET":"中正路","SECT":" ","MAREA":" ","LANE":"３０７巷","ALLEY":" ","HOUSE_NO":"６號","E_COORD97":179078.81,"N_COORD97":2548125.25,"ADDRESS":"中正路３０７巷６號","OBJECTID":412445},"geometry":{"x":179078.81000000052,"y":2548125.2500000019}},{"attributes":{"ID":412470,"DIS_CODE":0,"TOWNNAME":"新化區","LI":"東榮里","LIN":"3鄰","STREET":"中興路","SECT":" ","MAREA":" ","LANE":"１０４巷","ALLEY":" ","HOUSE_NO":"７２號","E_COORD97":181923.45999999999,"N_COORD97":2547462.25,"ADDRESS":"中興路１０４巷７２號","OBJECTID":412446},"geometry":{"x":181923.45999999996,"y":2547462.25}},{"attributes":{"ID":412471,"DIS_CODE":0,"TOWNNAME":"新化區","LI":"協興里","LIN":"3鄰","STREET":"中山路","SECT":" ","MAREA":" ","LANE":"５４８巷","ALLEY":" ","HOUSE_NO":"１８號","E_COORD97":178451.16,"N_COORD97":2548544.25,"ADDRESS":"中山路５４８巷１８號","OBJECTID":412447},"geometry":{"x":178451.16000000015,"y":2548544.25}},{"attributes":{"ID":412472,"DIS_CODE":0,"TOWNNAME":"新化區","LI":"武安里","LIN":"3鄰","STREET":"中正路","SECT":" ","MAREA":" ","LANE":"３０７巷","ALLEY":" ","HOUSE_NO":"１６號","E_COORD97":179068.56,"N_COORD97":2548081.25,"ADDRESS":"中正路３０７巷１６號","OBJECTID":412448},"geometry":{"x":179068.56000000145,"y":2548081.2500000019}},{"attributes":{"ID":412473,"DIS_CODE":0,"TOWNNAME":"新化區","LI":"東榮里","LIN":"3鄰","STREET":"中興路","SECT":" ","MAREA":" ","LANE":"１０４巷","ALLEY":" ","HOUSE_NO":"６２號","E_COORD97":181938.45999999999,"N_COORD97":2547463.25,"ADDRESS":"中興路１０４巷６２號","OBJECTID":412449},"geometry":{"x":181938.46000000089,"y":2547463.25}},{"attributes":{"ID":412474,"DIS_CODE":0,"TOWNNAME":"新化區","LI":"清水里","LIN":"3鄰","STREET":"民治路","SECT":" ","MAREA":" ","LANE":"１１１巷","ALLEY":" ","HOUSE_NO":"１８號","E_COORD97":178625.95999999999,"N_COORD97":2548363.25,"ADDRESS":"民治路１１１巷１８號","OBJECTID":412450},"geometry":{"x":178625.96000000089,"y":2548363.2500000019}},{"attributes":{"ID":412475,"DIS_CODE":0,"TOWNNAME":"新化區","LI":"護國里","LIN":"3鄰","STREET":"建國街","SECT":" ","MAREA":" ","LANE":"９巷","ALLEY":" ","HOUSE_NO":"１８號","E_COORD97":179147.28,"N_COORD97":2548581.2599999998,"ADDRESS":"建國街９巷１８號","OBJECTID":412451},"geometry":{"x":179147.28000000212,"y":2548581.2599999998}},{"attributes":{"ID":412476,"DIS_CODE":0,"TOWNNAME":"永康區","LI":"北灣里","LIN":"27鄰","STREET":"文賢街","SECT":" ","MAREA":" ","LANE":"１０８巷","ALLEY":" ","HOUSE_NO":"３號","E_COORD97":175395.03,"N_COORD97":2545465.5699999998,"ADDRESS":"文賢街１０８巷３號","OBJECTID":412452},"geometry":{"x":175395.03000000119,"y":2545465.5700000022}},{"attributes":{"ID":412477,"DIS_CODE":0,"TOWNNAME":"新化區","LI":"武安里","LIN":"3鄰","STREET":"中正路","SECT":" ","MAREA":" ","LANE":"３０７巷","ALLEY":" ","HOUSE_NO":"２０號之１","E_COORD97":179088.48999999999,"N_COORD97":2548051.2599999998,"ADDRESS":"中正路３０７巷２０號之１","OBJECTID":412453},"geometry":{"x":179088.49000000115,"y":2548051.2600000016}},{"attributes":{"ID":412478,"DIS_CODE":0,"TOWNNAME":"新化區","LI":"豐榮里","LIN":"3鄰","STREET":"大智路","SECT":" ","MAREA":" ","LANE":"１６１巷","ALLEY":" ","HOUSE_NO":"５號","E_COORD97":178095.32999999999,"N_COORD97":2548079.25,"ADDRESS":"大智路１６１巷５號","OBJECTID":412454},"geometry":{"x":178095.33000000007,"y":2548079.25}},{"attributes":{"ID":412479,"DIS_CODE":0,"TOWNNAME":"新化區","LI":"東榮里","LIN":"3鄰","STREET":"中興路","SECT":" ","MAREA":" ","LANE":"１０４巷","ALLEY":" ","HOUSE_NO":"９８號","E_COORD97":181871.56,"N_COORD97":2547460.25,"ADDRESS":"中興路１０４巷９８號","OBJECTID":412455},"geometry":{"x":181871.55999999959,"y":2547460.2499999981}},{"attributes":{"ID":412480,"DIS_CODE":0,"TOWNNAME":"新化區","LI":"東榮里","LIN":"3鄰","STREET":"中興路","SECT":" ","MAREA":" ","LANE":"１０４巷","ALLEY":" ","HOUSE_NO":"４０號","E_COORD97":181905.16,"N_COORD97":2547409.25,"ADDRESS":"中興路１０４巷４０號","OBJECTID":412456},"geometry":{"x":181905.16000000108,"y":2547409.25}},{"attributes":{"ID":412481,"DIS_CODE":0,"TOWNNAME":"新化區","LI":"協興里","LIN":"3鄰","STREET":"正新路","SECT":" ","MAREA":" ","LANE":"２５１巷","ALLEY":" ","HOUSE_NO":"１０號","E_COORD97":178535.76999999999,"N_COORD97":2548519.25,"ADDRESS":"正新路２５１巷１０號","OBJECTID":412457},"geometry":{"x":178535.76999999955,"y":2548519.2500000019}},{"attributes":{"ID":412482,"DIS_CODE":0,"TOWNNAME":"新化區","LI":"觀音里","LIN":"3鄰","STREET":"仁愛街","SECT":" ","MAREA":" ","LANE":"６５巷","ALLEY":" ","HOUSE_NO":"４０號","E_COORD97":178915.63,"N_COORD97":2548495.25,"ADDRESS":"仁愛街６５巷４０號","OBJECTID":412458},"geometry":{"x":178915.62999999896,"y":2548495.2500000019}},{"attributes":{"ID":412483,"DIS_CODE":0,"TOWNNAME":"新化區","LI":"中央里","LIN":"3鄰","STREET":"中正路","SECT":" ","MAREA":" ","LANE":"４２７巷","ALLEY":" ","HOUSE_NO":"８號","E_COORD97":179024.41,"N_COORD97":2548381.25,"ADDRESS":"中正路４２７巷８號","OBJECTID":412459},"geometry":{"x":179024.41000000201,"y":2548381.25}},{"attributes":{"ID":412484,"DIS_CODE":0,"TOWNNAME":"新化區","LI":"清水里","LIN":"3鄰","STREET":"民治路","SECT":" ","MAREA":" ","LANE":"１１１巷","ALLEY":" ","HOUSE_NO":"９號","E_COORD97":178641.01000000001,"N_COORD97":2548304.25,"ADDRESS":"民治路１１１巷９號","OBJECTID":412460},"geometry":{"x":178641.00999999978,"y":2548304.25}},{"attributes":{"ID":412485,"DIS_CODE":0,"TOWNNAME":"永康區","LI":"北灣里","LIN":"38鄰","STREET":"大灣路","SECT":" ","MAREA":" ","LANE":"４０巷","ALLEY":" ","HOUSE_NO":"１４９號","E_COORD97":174915.48999999999,"N_COORD97":2546238.27,"ADDRESS":"大灣路４０巷１４９號","OBJECTID":412461},"geometry":{"x":174915.49000000115,"y":2546238.2699999996}},{"attributes":{"ID":412486,"DIS_CODE":0,"TOWNNAME":"永康區","LI":"北灣里","LIN":"41鄰","STREET":"大灣路","SECT":" ","MAREA":" ","LANE":"７４巷","ALLEY":" ","HOUSE_NO":"５號","E_COORD97":175194.32000000001,"N_COORD97":2545777.5,"ADDRESS":"大灣路７４巷５號","OBJECTID":412462},"geometry":{"x":175194.32000000123,"y":2545777.5000000019}},{"attributes":{"ID":412487,"DIS_CODE":0,"TOWNNAME":"永康區","LI":"北灣里","LIN":"21鄰","STREET":"大灣路","SECT":" ","MAREA":" ","LANE":"４０巷","ALLEY":" ","HOUSE_NO":"１１７號","E_COORD97":174950.13,"N_COORD97":2546180.73,"ADDRESS":"大灣路４０巷１１７號","OBJECTID":412463},"geometry":{"x":174950.12999999989,"y":2546180.7300000023}},{"attributes":{"ID":412488,"DIS_CODE":0,"TOWNNAME":"永康區","LI":"王行里","LIN":"9鄰","STREET":"王行路","SECT":" ","MAREA":" ","LANE":"３５１巷","ALLEY":" ","HOUSE_NO":"３８號","E_COORD97":175344.28,"N_COORD97":2548600.5,"ADDRESS":"王行路３５１巷３８號","OBJECTID":412464},"geometry":{"x":175344.28000000026,"y":2548600.5}},{"attributes":{"ID":412489,"DIS_CODE":0,"TOWNNAME":"新化區","LI":"東榮里","LIN":"3鄰","STREET":"中興路","SECT":" ","MAREA":" ","LANE":"１０４巷","ALLEY":" ","HOUSE_NO":"１０６號","E_COORD97":181925.51000000001,"N_COORD97":2547703.25,"ADDRESS":"中興路１０４巷１０６號","OBJECTID":412465},"geometry":{"x":181925.51000000164,"y":2547703.25}},{"attributes":{"ID":412490,"DIS_CODE":0,"TOWNNAME":"新化區","LI":"太平里","LIN":"3鄰","STREET":"太平街","SECT":" ","MAREA":" ","LANE":"１巷","ALLEY":" ","HOUSE_NO":"１０號","E_COORD97":179077.47,"N_COORD97":2548821.25,"ADDRESS":"太平街１巷１０號","OBJECTID":412466},"geometry":{"x":179077.46999999974,"y":2548821.2500000019}},{"attributes":{"ID":412491,"DIS_CODE":0,"TOWNNAME":"新化區","LI":"東榮里","LIN":"3鄰","STREET":"中興路","SECT":" ","MAREA":" ","LANE":"１０４巷","ALLEY":" ","HOUSE_NO":"８４號","E_COORD97":181899.56,"N_COORD97":2547461.25,"ADDRESS":"中興路１０４巷８４號","OBJECTID":412467},"geometry":{"x":181899.56000000052,"y":2547461.2500000019}},{"attributes":{"ID":412492,"DIS_CODE":0,"TOWNNAME":"新化區","LI":"東榮里","LIN":"3鄰","STREET":"中興路","SECT":" ","MAREA":" ","LANE":"１０４巷","ALLEY":" ","HOUSE_NO":"６４號","E_COORD97":181935.76000000001,"N_COORD97":2547463.25,"ADDRESS":"中興路１０４巷６４號","OBJECTID":412468},"geometry":{"x":181935.76000000071,"y":2547463.25}},{"attributes":{"ID":412493,"DIS_CODE":0,"TOWNNAME":"新化區","LI":"東榮里","LIN":"3鄰","STREET":"中興路","SECT":" ","MAREA":" ","LANE":"１０４巷","ALLEY":" ","HOUSE_NO":"３２號","E_COORD97":181888.95999999999,"N_COORD97":2547408.25,"ADDRESS":"中興路１０４巷３２號","OBJECTID":412469},"geometry":{"x":181888.96000000089,"y":2547408.25}},{"attributes":{"ID":412494,"DIS_CODE":0,"TOWNNAME":"新化區","LI":"協興里","LIN":"3鄰","STREET":"忠孝路","SECT":" ","MAREA":" ","LANE":"２４３巷","ALLEY":" ","HOUSE_NO":"８號","E_COORD97":178482.82000000001,"N_COORD97":2548551.25,"ADDRESS":"忠孝路２４３巷８號","OBJECTID":412470},"geometry":{"x":178482.82000000123,"y":2548551.25}},{"attributes":{"ID":412495,"DIS_CODE":0,"TOWNNAME":"新化區","LI":"協興里","LIN":"3鄰","STREET":"忠孝路","SECT":" ","MAREA":" ","LANE":"２４３巷","ALLEY":" ","HOUSE_NO":"５號","E_COORD97":178495.92000000001,"N_COORD97":2548563.25,"ADDRESS":"忠孝路２４３巷５號","OBJECTID":412471},"geometry":{"x":178495.92000000086,"y":2548563.2500000019}},{"attributes":{"ID":412496,"DIS_CODE":0,"TOWNNAME":"新化區","LI":"東榮里","LIN":"3鄰","STREET":"中興路","SECT":" ","MAREA":" ","LANE":"１０４巷","ALLEY":" ","HOUSE_NO":"１０２號","E_COORD97":181914.10999999999,"N_COORD97":2547700.25,"ADDRESS":"中興路１０４巷１０２號","OBJECTID":412472},"geometry":{"x":181914.11000000127,"y":2547700.25}},{"attributes":{"ID":412497,"DIS_CODE":0,"TOWNNAME":"永康區","LI":"正強里","LIN":"48鄰","STREET":"中正路","SECT":" ","MAREA":" ","LANE":"２５６巷","ALLEY":" ","HOUSE_NO":"１３號之２４","E_COORD97":173255.95000000001,"N_COORD97":2548001.6699999999,"ADDRESS":"中正路２５６巷１３號之２４","OBJECTID":412473},"geometry":{"x":173255.95000000112,"y":2548001.6699999999}},{"attributes":{"ID":412498,"DIS_CODE":0,"TOWNNAME":"永康區","LI":"北灣里","LIN":"39鄰","STREET":"大同街","SECT":" ","MAREA":" ","LANE":"７４０巷","ALLEY":" ","HOUSE_NO":"４８號","E_COORD97":174648.69,"N_COORD97":2546648.7200000002,"ADDRESS":"大同街７４０巷４８號","OBJECTID":412474},"geometry":{"x":174648.69000000041,"y":2546648.7200000025}},{"attributes":{"ID":412499,"DIS_CODE":0,"TOWNNAME":"新化區","LI":"清水里","LIN":"3鄰","STREET":"民治路","SECT":" ","MAREA":" ","LANE":"１１１巷","ALLEY":" ","HOUSE_NO":"３號","E_COORD97":178658.70999999999,"N_COORD97":2548303.25,"ADDRESS":"民治路１１１巷３號","OBJECTID":412475},"geometry":{"x":178658.70999999996,"y":2548303.25}},{"attributes":{"ID":412500,"DIS_CODE":0,"TOWNNAME":"新化區","LI":"東榮里","LIN":"3鄰","STREET":"中興路","SECT":" ","MAREA":" ","LANE":"１０４巷","ALLEY":" ","HOUSE_NO":"１０４號之３","E_COORD97":181914.76000000001,"N_COORD97":2547709.2599999998,"ADDRESS":"中興路１０４巷１０４號之３","OBJECTID":412476},"geometry":{"x":181914.75999999978,"y":2547709.2600000016}},{"attributes":{"ID":412501,"DIS_CODE":0,"TOWNNAME":"新化區","LI":"東榮里","LIN":"3鄰","STREET":"中興路","SECT":" ","MAREA":" ","LANE":"１０４巷","ALLEY":" ","HOUSE_NO":"２６號","E_COORD97":181877.35999999999,"N_COORD97":2547407.25,"ADDRESS":"中興路１０４巷２６號","OBJECTID":412477},"geometry":{"x":181877.36000000034,"y":2547407.2500000019}},{"attributes":{"ID":412502,"DIS_CODE":0,"TOWNNAME":"永康區","LI":"北灣里","LIN":"39鄰","STREET":"永大路","SECT":"二段","MAREA":" ","LANE":"９８６巷","ALLEY":" ","HOUSE_NO":"１０號","E_COORD97":174523.91,"N_COORD97":2546350.6000000001,"ADDRESS":"永大路二段９８６巷１０號","OBJECTID":412478},"geometry":{"x":174523.91000000108,"y":2546350.6000000015}},{"attributes":{"ID":412503,"DIS_CODE":0,"TOWNNAME":"永康區","LI":"正強里","LIN":"46鄰","STREET":"中正路","SECT":" ","MAREA":" ","LANE":"２５６巷","ALLEY":" ","HOUSE_NO":"９號之３７","E_COORD97":173207.14000000001,"N_COORD97":2547991.8799999999,"ADDRESS":"中正路２５６巷９號之３７","OBJECTID":412479},"geometry":{"x":173207.13999999966,"y":2547991.8800000008}},{"attributes":{"ID":412504,"DIS_CODE":0,"TOWNNAME":"永康區","LI":"北灣里","LIN":"21鄰","STREET":"大同街","SECT":" ","MAREA":" ","LANE":"３８０巷","ALLEY":" ","HOUSE_NO":"５７號","E_COORD97":174933.63,"N_COORD97":2546048.2400000002,"ADDRESS":"大同街３８０巷５７號","OBJECTID":412480},"geometry":{"x":174933.62999999896,"y":2546048.2400000021}},{"attributes":{"ID":412505,"DIS_CODE":0,"TOWNNAME":"永康區","LI":"北灣里","LIN":"27鄰","STREET":"文賢街","SECT":" ","MAREA":" ","LANE":"１２２巷","ALLEY":" ","HOUSE_NO":"８號","E_COORD97":175407.14000000001,"N_COORD97":2545509.8300000001,"ADDRESS":"文賢街１２２巷８號","OBJECTID":412481},"geometry":{"x":175407.1400000006,"y":2545509.8300000001}},{"attributes":{"ID":412506,"DIS_CODE":0,"TOWNNAME":"新化區","LI":"東榮里","LIN":"3鄰","STREET":"中興路","SECT":" ","MAREA":" ","LANE":"１０４巷","ALLEY":" ","HOUSE_NO":"８２號","E_COORD97":181903.45999999999,"N_COORD97":2547461.25,"ADDRESS":"中興路１０４巷８２號","OBJECTID":412482},"geometry":{"x":181903.45999999996,"y":2547461.2500000019}},{"attributes":{"ID":412507,"DIS_CODE":0,"TOWNNAME":"新化區","LI":"清水里","LIN":"3鄰","STREET":"民治路","SECT":" ","MAREA":" ","LANE":"１１１巷","ALLEY":" ","HOUSE_NO":"１６號","E_COORD97":178631.56,"N_COORD97":2548348.25,"ADDRESS":"民治路１１１巷１６號","OBJECTID":412483},"geometry":{"x":178631.56000000052,"y":2548348.25}},{"attributes":{"ID":412508,"DIS_CODE":0,"TOWNNAME":"新化區","LI":"清水里","LIN":"3鄰","STREET":"民治路","SECT":" ","MAREA":" ","LANE":"１１１巷","ALLEY":" ","HOUSE_NO":"６號","E_COORD97":178653.51000000001,"N_COORD97":2548303.25,"ADDRESS":"民治路１１１巷６號","OBJECTID":412484},"geometry":{"x":178653.50999999978,"y":2548303.25}},{"attributes":{"ID":412509,"DIS_CODE":0,"TOWNNAME":"新化區","LI":"東榮里","LIN":"3鄰","STREET":"中興路","SECT":" ","MAREA":" ","LANE":"１０４巷","ALLEY":" ","HOUSE_NO":"１０４號之１","E_COORD97":181939.04000000001,"N_COORD97":2547714.2599999998,"ADDRESS":"中興路１０４巷１０４號之１","OBJECTID":412485},"geometry":{"x":181939.0400000019,"y":2547714.2600000035}},{"attributes":{"ID":412510,"DIS_CODE":0,"TOWNNAME":"新化區","LI":"東榮里","LIN":"3鄰","STREET":"中興路","SECT":" ","MAREA":" ","LANE":"１０４巷","ALLEY":" ","HOUSE_NO":"７６號","E_COORD97":181915.35999999999,"N_COORD97":2547462.25,"ADDRESS":"中興路１０４巷７６號","OBJECTID":412486},"geometry":{"x":181915.36000000127,"y":2547462.25}},{"attributes":{"ID":412511,"DIS_CODE":0,"TOWNNAME":"新化區","LI":"東榮里","LIN":"3鄰","STREET":"中興路","SECT":" ","MAREA":" ","LANE":"１０４巷","ALLEY":" ","HOUSE_NO":"６６號","E_COORD97":181932.95999999999,"N_COORD97":2547463.25,"ADDRESS":"中興路１０４巷６６號","OBJECTID":412487},"geometry":{"x":181932.96000000089,"y":2547463.25}},{"attributes":{"ID":412512,"DIS_CODE":0,"TOWNNAME":"新化區","LI":"太平里","LIN":"3鄰","STREET":"太平街","SECT":" ","MAREA":" ","LANE":"１巷","ALLEY":" ","HOUSE_NO":"１２號","E_COORD97":179074.76999999999,"N_COORD97":2548806.25,"ADDRESS":"太平街１巷１２號","OBJECTID":412488},"geometry":{"x":179074.76999999955,"y":2548806.2500000037}},{"attributes":{"ID":412513,"DIS_CODE":0,"TOWNNAME":"新化區","LI":"協興里","LIN":"3鄰","STREET":"正新路","SECT":" ","MAREA":" ","LANE":"２５１巷","ALLEY":" ","HOUSE_NO":"１２號","E_COORD97":178531.07000000001,"N_COORD97":2548520.25,"ADDRESS":"正新路２５１巷１２號","OBJECTID":412489},"geometry":{"x":178531.0700000003,"y":2548520.25}},{"attributes":{"ID":412514,"DIS_CODE":0,"TOWNNAME":"新化區","LI":"豐榮里","LIN":"3鄰","STREET":"大智路","SECT":" ","MAREA":" ","LANE":"１６１巷","ALLEY":" ","HOUSE_NO":"１４號","E_COORD97":178087.98000000001,"N_COORD97":2548054.25,"ADDRESS":"大智路１６１巷１４號","OBJECTID":412490},"geometry":{"x":178087.98000000045,"y":2548054.2500000019}},{"attributes":{"ID":412515,"DIS_CODE":0,"TOWNNAME":"永康區","LI":"王行里","LIN":"1鄰","STREET":"王行路","SECT":" ","MAREA":" ","LANE":"２０８巷","ALLEY":" ","HOUSE_NO":"１８號","E_COORD97":175725.92999999999,"N_COORD97":2548135.46,"ADDRESS":"王行路２０８巷１８號","OBJECTID":412491},"geometry":{"x":175725.9299999997,"y":2548135.4600000028}},{"attributes":{"ID":412516,"DIS_CODE":0,"TOWNNAME":"新化區","LI":"東榮里","LIN":"3鄰","STREET":"中興路","SECT":" ","MAREA":" ","LANE":"１０４巷","ALLEY":" ","HOUSE_NO":"１０４號","E_COORD97":181925.20999999999,"N_COORD97":2547711.25,"ADDRESS":"中興路１０４巷１０４號","OBJECTID":412492},"geometry":{"x":181925.20999999996,"y":2547711.2500000037}},{"attributes":{"ID":412517,"DIS_CODE":0,"TOWNNAME":"新化區","LI":"豐榮里","LIN":"3鄰","STREET":"大智路","SECT":" ","MAREA":" ","LANE":"１６１巷","ALLEY":" ","HOUSE_NO":"１１號","E_COORD97":178100.28,"N_COORD97":2548071.25,"ADDRESS":"大智路１６１巷１１號","OBJECTID":412493},"geometry":{"x":178100.28000000119,"y":2548071.2500000019}},{"attributes":{"ID":412518,"DIS_CODE":0,"TOWNNAME":"新化區","LI":"豐榮里","LIN":"3鄰","STREET":"大智路","SECT":" ","MAREA":" ","LANE":"１４５巷","ALLEY":" ","HOUSE_NO":"１０號","E_COORD97":178125.57999999999,"N_COORD97":2548091.25,"ADDRESS":"大智路１４５巷１０號","OBJECTID":412494},"geometry":{"x":178125.58000000007,"y":2548091.2500000037}},{"attributes":{"ID":412519,"DIS_CODE":0,"TOWNNAME":"新化區","LI":"豐榮里","LIN":"3鄰","STREET":"大智路","SECT":" ","MAREA":" ","LANE":"１６１巷","ALLEY":" ","HOUSE_NO":"２０號","E_COORD97":178095.98000000001,"N_COORD97":2548035.25,"ADDRESS":"大智路１６１巷２０號","OBJECTID":412495},"geometry":{"x":178095.98000000138,"y":2548035.25}},{"attributes":{"ID":412520,"DIS_CODE":0,"TOWNNAME":"新化區","LI":"東榮里","LIN":"3鄰","STREET":"中興路","SECT":" ","MAREA":" ","LANE":"１０４巷","ALLEY":" ","HOUSE_NO":"８０號","E_COORD97":181907.45999999999,"N_COORD97":2547462.25,"ADDRESS":"中興路１０４巷８０號","OBJECTID":412496},"geometry":{"x":181907.46000000089,"y":2547462.25}},{"attributes":{"ID":412521,"DIS_CODE":0,"TOWNNAME":"新化區","LI":"豐榮里","LIN":"3鄰","STREET":"大智路","SECT":" ","MAREA":" ","LANE":"１６１巷","ALLEY":" ","HOUSE_NO":"１號","E_COORD97":178088.03,"N_COORD97":2548092.25,"ADDRESS":"大智路１６１巷１號","OBJECTID":412497},"geometry":{"x":178088.03000000119,"y":2548092.2500000019}},{"attributes":{"ID":412522,"DIS_CODE":0,"TOWNNAME":"新化區","LI":"協興里","LIN":"3鄰","STREET":"正新路","SECT":" ","MAREA":" ","LANE":"２５１巷","ALLEY":" ","HOUSE_NO":"２０號","E_COORD97":178518.97,"N_COORD97":2548520.25,"ADDRESS":"正新路２５１巷２０號","OBJECTID":412498},"geometry":{"x":178518.97000000067,"y":2548520.25}},{"attributes":{"ID":412523,"DIS_CODE":0,"TOWNNAME":"永康區","LI":"北灣里","LIN":"18鄰","STREET":"文賢街","SECT":" ","MAREA":" ","LANE":"４２２巷","ALLEY":" ","HOUSE_NO":"１號","E_COORD97":174702.17000000001,"N_COORD97":2545837.3199999998,"ADDRESS":"文賢街４２２巷１號","OBJECTID":412499},"geometry":{"x":174702.16999999993,"y":2545837.3200000022}},{"attributes":{"ID":412524,"DIS_CODE":0,"TOWNNAME":"永康區","LI":"北灣里","LIN":"20鄰","STREET":"大安街","SECT":" ","MAREA":" ","LANE":"４６８巷","ALLEY":" ","HOUSE_NO":"９號","E_COORD97":174629.07000000001,"N_COORD97":2545942.5600000001,"ADDRESS":"大安街４６８巷９號","OBJECTID":412500},"geometry":{"x":174629.0700000003,"y":2545942.5600000005}},{"attributes":{"ID":412525,"DIS_CODE":0,"TOWNNAME":"永康區","LI":"王行里","LIN":"8鄰","STREET":"王行路","SECT":" ","MAREA":" ","LANE":"３５１巷","ALLEY":" ","HOUSE_NO":"３６號","E_COORD97":175347.82000000001,"N_COORD97":2548591,"ADDRESS":"王行路３５１巷３６號","OBJECTID":412501},"geometry":{"x":175347.8200000003,"y":2548591.0000000037}},{"attributes":{"ID":412526,"DIS_CODE":0,"TOWNNAME":"新化區","LI":"協興里","LIN":"3鄰","STREET":"正新路","SECT":" ","MAREA":" ","LANE":"２５１巷","ALLEY":" ","HOUSE_NO":"１６號","E_COORD97":178526.17000000001,"N_COORD97":2548520.25,"ADDRESS":"正新路２５１巷１６號","OBJECTID":412502},"geometry":{"x":178526.17000000086,"y":2548520.25}},{"attributes":{"ID":412527,"DIS_CODE":0,"TOWNNAME":"新化區","LI":"東榮里","LIN":"3鄰","STREET":"中興路","SECT":" ","MAREA":" ","LANE":"１０４巷","ALLEY":" ","HOUSE_NO":"９６號","E_COORD97":181875.76000000001,"N_COORD97":2547460.25,"ADDRESS":"中興路１０４巷９６號","OBJECTID":412503},"geometry":{"x":181875.75999999978,"y":2547460.2499999981}},{"attributes":{"ID":412528,"DIS_CODE":0,"TOWNNAME":"永康區","LI":"王行里","LIN":"3鄰","STREET":"王行路","SECT":" ","MAREA":" ","LANE":"２４６巷","ALLEY":" ","HOUSE_NO":"３２之１號","E_COORD97":175743.67999999999,"N_COORD97":2548246.7000000002,"ADDRESS":"王行路２４６巷３２之１號","OBJECTID":412504},"geometry":{"x":175743.68000000063,"y":2548246.700000003}},{"attributes":{"ID":412529,"DIS_CODE":0,"TOWNNAME":"永康區","LI":"北灣里","LIN":"36鄰","STREET":"大灣路","SECT":" ","MAREA":" ","LANE":"４０巷","ALLEY":" ","HOUSE_NO":"１６８號","E_COORD97":174835.07999999999,"N_COORD97":2546337.1499999999,"ADDRESS":"大灣路４０巷１６８號","OBJECTID":412505},"geometry":{"x":174835.08000000101,"y":2546337.1500000022}},{"attributes":{"ID":412530,"DIS_CODE":0,"TOWNNAME":"永康區","LI":"北灣里","LIN":"8鄰","STREET":"大同街","SECT":" ","MAREA":" ","LANE":"１２８巷","ALLEY":" ","HOUSE_NO":"１７號","E_COORD97":175010.70000000001,"N_COORD97":2545612.6099999999,"ADDRESS":"大同街１２８巷１７號","OBJECTID":412506},"geometry":{"x":175010.70000000112,"y":2545612.6099999994}},{"attributes":{"ID":412531,"DIS_CODE":0,"TOWNNAME":"永康區","LI":"正強里","LIN":"33鄰","STREET":"四維街","SECT":" ","MAREA":" ","LANE":"１４５巷","ALLEY":" ","HOUSE_NO":"１號","E_COORD97":173307.31,"N_COORD97":2548268.5499999998,"ADDRESS":"四維街１４５巷１號","OBJECTID":412507},"geometry":{"x":173307.31000000052,"y":2548268.5500000007}},{"attributes":{"ID":412532,"DIS_CODE":0,"TOWNNAME":"永康區","LI":"北灣里","LIN":"23鄰","STREET":"大灣路","SECT":" ","MAREA":" ","LANE":"１２巷","ALLEY":" ","HOUSE_NO":"２號","E_COORD97":175319.42999999999,"N_COORD97":2545985.6899999999,"ADDRESS":"大灣路１２巷２號","OBJECTID":412508},"geometry":{"x":175319.4299999997,"y":2545985.6900000032}},{"attributes":{"ID":412533,"DIS_CODE":0,"TOWNNAME":"新化區","LI":"觀音里","LIN":"3鄰","STREET":"仁愛街","SECT":" ","MAREA":" ","LANE":"６５巷","ALLEY":" ","HOUSE_NO":"３４號","E_COORD97":178940.73000000001,"N_COORD97":2548478.25,"ADDRESS":"仁愛街６５巷３４號","OBJECTID":412509},"geometry":{"x":178940.73000000045,"y":2548478.2500000019}},{"attributes":{"ID":412534,"DIS_CODE":0,"TOWNNAME":"新化區","LI":"觀音里","LIN":"3鄰","STREET":"仁愛街","SECT":" ","MAREA":" ","LANE":"６５巷","ALLEY":" ","HOUSE_NO":"２６號","E_COORD97":178961.13,"N_COORD97":2548498.25,"ADDRESS":"仁愛街６５巷２６號","OBJECTID":412510},"geometry":{"x":178961.12999999989,"y":2548498.2500000019}},{"attributes":{"ID":412535,"DIS_CODE":0,"TOWNNAME":"新化區","LI":"協興里","LIN":"3鄰","STREET":"忠孝路","SECT":" ","MAREA":" ","LANE":"２４３巷","ALLEY":" ","HOUSE_NO":"１６號","E_COORD97":178482.76999999999,"N_COORD97":2548535.25,"ADDRESS":"忠孝路２４３巷１６號","OBJECTID":412511},"geometry":{"x":178482.77000000048,"y":2548535.2500000037}},{"attributes":{"ID":412536,"DIS_CODE":0,"TOWNNAME":"新化區","LI":"協興里","LIN":"3鄰","STREET":"忠孝路","SECT":" ","MAREA":" ","LANE":"２４３巷","ALLEY":" ","HOUSE_NO":"２號","E_COORD97":178483.01999999999,"N_COORD97":2548563.25,"ADDRESS":"忠孝路２４３巷２號","OBJECTID":412512},"geometry":{"x":178483.01999999955,"y":2548563.2500000019}},{"attributes":{"ID":412537,"DIS_CODE":0,"TOWNNAME":"永康區","LI":"北灣里","LIN":"23鄰","STREET":"大灣路","SECT":" ","MAREA":" ","LANE":"１２巷","ALLEY":" ","HOUSE_NO":"７號","E_COORD97":175276.62,"N_COORD97":2546005.5,"ADDRESS":"大灣路１２巷７號","OBJECTID":412513},"geometry":{"x":175276.62000000104,"y":2546005.5000000019}},{"attributes":{"ID":412538,"DIS_CODE":0,"TOWNNAME":"新化區","LI":"協興里","LIN":"3鄰","STREET":"忠孝路","SECT":" ","MAREA":" ","LANE":"２４３巷","ALLEY":" ","HOUSE_NO":"３號","E_COORD97":178496.22,"N_COORD97":2548567.25,"ADDRESS":"忠孝路２４３巷３號","OBJECTID":412514},"geometry":{"x":178496.2200000016,"y":2548567.2500000019}},{"attributes":{"ID":412539,"DIS_CODE":0,"TOWNNAME":"新化區","LI":"東榮里","LIN":"3鄰","STREET":"中興路","SECT":" ","MAREA":" ","LANE":"１０４巷","ALLEY":" ","HOUSE_NO":"４２號之１","E_COORD97":181913.79000000001,"N_COORD97":2547409.2599999998,"ADDRESS":"中興路１０４巷４２號之１","OBJECTID":412515},"geometry":{"x":181913.79000000097,"y":2547409.2600000035}},{"attributes":{"ID":412540,"DIS_CODE":0,"TOWNNAME":"新化區","LI":"護國里","LIN":"3鄰","STREET":"建國街","SECT":" ","MAREA":" ","LANE":"９巷","ALLEY":" ","HOUSE_NO":"１０號","E_COORD97":179165.88,"N_COORD97":2548559.2599999998,"ADDRESS":"建國街９巷１０號","OBJECTID":412516},"geometry":{"x":179165.87999999989,"y":2548559.2600000016}},{"attributes":{"ID":412541,"DIS_CODE":0,"TOWNNAME":"新化區","LI":"護國里","LIN":"3鄰","STREET":"建國街","SECT":" ","MAREA":" ","LANE":"９巷","ALLEY":" ","HOUSE_NO":"１４號之１","E_COORD97":179162.70999999999,"N_COORD97":2548579.2599999998,"ADDRESS":"建國街９巷１４號之１","OBJECTID":412517},"geometry":{"x":179162.71000000183,"y":2548579.2600000016}},{"attributes":{"ID":412542,"DIS_CODE":0,"TOWNNAME":"新化區","LI":"協興里","LIN":"3鄰","STREET":"正新路","SECT":" ","MAREA":" ","LANE":"２５１巷","ALLEY":" ","HOUSE_NO":"６號","E_COORD97":178543.62,"N_COORD97":2548519.25,"ADDRESS":"正新路２５１巷６號","OBJECTID":412518},"geometry":{"x":178543.62000000104,"y":2548519.2500000019}},{"attributes":{"ID":412543,"DIS_CODE":0,"TOWNNAME":"新化區","LI":"護國里","LIN":"3鄰","STREET":"建國街","SECT":" ","MAREA":" ","LANE":"９巷","ALLEY":" ","HOUSE_NO":"２４號","E_COORD97":179141.98000000001,"N_COORD97":2548527.25,"ADDRESS":"建國街９巷２４號","OBJECTID":412519},"geometry":{"x":179141.98000000045,"y":2548527.25}},{"attributes":{"ID":412544,"DIS_CODE":0,"TOWNNAME":"永康區","LI":"北灣里","LIN":"38鄰","STREET":"大灣路","SECT":" ","MAREA":" ","LANE":"４０巷","ALLEY":" ","HOUSE_NO":"２３７號","E_COORD97":174738.78,"N_COORD97":2546392.8700000001,"ADDRESS":"大灣路４０巷２３７號","OBJECTID":412520},"geometry":{"x":174738.78000000119,"y":2546392.8700000048}},{"attributes":{"ID":412545,"DIS_CODE":0,"TOWNNAME":"永康區","LI":"北灣里","LIN":"1鄰","STREET":"大同街","SECT":" ","MAREA":" ","LANE":"８巷","ALLEY":" ","HOUSE_NO":"５號","E_COORD97":175316.22,"N_COORD97":2545445.77,"ADDRESS":"大同街８巷５號","OBJECTID":412521},"geometry":{"x":175316.22000000067,"y":2545445.7700000033}},{"attributes":{"ID":412546,"DIS_CODE":0,"TOWNNAME":"新化區","LI":"協興里","LIN":"3鄰","STREET":"正新路","SECT":" ","MAREA":" ","LANE":"２５１巷","ALLEY":" ","HOUSE_NO":"２號","E_COORD97":178548.32000000001,"N_COORD97":2548519.25,"ADDRESS":"正新路２５１巷２號","OBJECTID":412522},"geometry":{"x":178548.3200000003,"y":2548519.2500000019}},{"attributes":{"ID":412547,"DIS_CODE":0,"TOWNNAME":"新化區","LI":"護國里","LIN":"3鄰","STREET":"建國街","SECT":" ","MAREA":" ","LANE":"９巷","ALLEY":" ","HOUSE_NO":"２６號","E_COORD97":179135.57999999999,"N_COORD97":2548521.2599999998,"ADDRESS":"建國街９巷２６號","OBJECTID":412523},"geometry":{"x":179135.58000000101,"y":2548521.2600000035}},{"attributes":{"ID":412548,"DIS_CODE":0,"TOWNNAME":"新化區","LI":"協興里","LIN":"3鄰","STREET":"正新路","SECT":" ","MAREA":" ","LANE":"２５１巷","ALLEY":" ","HOUSE_NO":"３０號","E_COORD97":178482.37,"N_COORD97":2548526.25,"ADDRESS":"正新路２５１巷３０號","OBJECTID":412524},"geometry":{"x":178482.37000000104,"y":2548526.2500000019}},{"attributes":{"ID":412549,"DIS_CODE":0,"TOWNNAME":"新化區","LI":"護國里","LIN":"3鄰","STREET":"建國街","SECT":" ","MAREA":" ","LANE":"９巷","ALLEY":" ","HOUSE_NO":"２８號之２","E_COORD97":179123.73000000001,"N_COORD97":2548545.2599999998,"ADDRESS":"建國街９巷２８號之２","OBJECTID":412525},"geometry":{"x":179123.73000000045,"y":2548545.2600000035}},{"attributes":{"ID":412550,"DIS_CODE":0,"TOWNNAME":"新化區","LI":"東榮里","LIN":"3鄰","STREET":"中興路","SECT":" ","MAREA":" ","LANE":"１０４巷","ALLEY":" ","HOUSE_NO":"５２號","E_COORD97":181928.95999999999,"N_COORD97":2547410.25,"ADDRESS":"中興路１０４巷５２號","OBJECTID":412526},"geometry":{"x":181928.95999999996,"y":2547410.2500000019}},{"attributes":{"ID":412551,"DIS_CODE":0,"TOWNNAME":"永康區","LI":"正強里","LIN":"48鄰","STREET":"中正路","SECT":" ","MAREA":" ","LANE":"２５６巷","ALLEY":" ","HOUSE_NO":"１３號之３４","E_COORD97":173255.95000000001,"N_COORD97":2548001.6699999999,"ADDRESS":"中正路２５６巷１３號之３４","OBJECTID":412527},"geometry":{"x":173255.95000000112,"y":2548001.6699999999}},{"attributes":{"ID":412552,"DIS_CODE":0,"TOWNNAME":"永康區","LI":"正強里","LIN":"48鄰","STREET":"中正路","SECT":" ","MAREA":" ","LANE":"２５６巷","ALLEY":" ","HOUSE_NO":"１３號之５３","E_COORD97":173256.03,"N_COORD97":2548001.6699999999,"ADDRESS":"中正路２５６巷１３號之５３","OBJECTID":412528},"geometry":{"x":173256.03000000026,"y":2548001.6699999999}},{"attributes":{"ID":412553,"DIS_CODE":0,"TOWNNAME":"永康區","LI":"北灣里","LIN":"18鄰","STREET":"文賢街","SECT":" ","MAREA":" ","LANE":"４２２巷","ALLEY":" ","HOUSE_NO":"８號","E_COORD97":174721.14000000001,"N_COORD97":2545844.6899999999,"ADDRESS":"文賢街４２２巷８號","OBJECTID":412529},"geometry":{"x":174721.13999999966,"y":2545844.6900000013}},{"attributes":{"ID":412554,"DIS_CODE":0,"TOWNNAME":"新化區","LI":"護國里","LIN":"3鄰","STREET":"建國街","SECT":" ","MAREA":" ","LANE":"９巷","ALLEY":" ","HOUSE_NO":"１６號之１","E_COORD97":179155.81,"N_COORD97":2548541.2599999998,"ADDRESS":"建國街９巷１６號之１","OBJECTID":412530},"geometry":{"x":179155.80999999959,"y":2548541.2599999998}},{"attributes":{"ID":412555,"DIS_CODE":0,"TOWNNAME":"新化區","LI":"護國里","LIN":"3鄰","STREET":"建國街","SECT":" ","MAREA":" ","LANE":"９巷","ALLEY":" ","HOUSE_NO":"１４號之２","E_COORD97":179159.53,"N_COORD97":2548582.2599999998,"ADDRESS":"建國街９巷１４號之２","OBJECTID":412531},"geometry":{"x":179159.53000000119,"y":2548582.2600000035}},{"attributes":{"ID":412556,"DIS_CODE":0,"TOWNNAME":"新化區","LI":"豐榮里","LIN":"3鄰","STREET":"大智路","SECT":" ","MAREA":" ","LANE":"１６１巷","ALLEY":" ","HOUSE_NO":"１８號","E_COORD97":178092.07999999999,"N_COORD97":2548046.25,"ADDRESS":"大智路１６１巷１８號","OBJECTID":412532},"geometry":{"x":178092.08000000007,"y":2548046.25}},{"attributes":{"ID":412557,"DIS_CODE":0,"TOWNNAME":"新化區","LI":"豐榮里","LIN":"3鄰","STREET":"大智路","SECT":" ","MAREA":" ","LANE":"１４５巷","ALLEY":" ","HOUSE_NO":"８號","E_COORD97":178118.73000000001,"N_COORD97":2548098.25,"ADDRESS":"大智路１４５巷８號","OBJECTID":412533},"geometry":{"x":178118.73000000045,"y":2548098.2500000019}},{"attributes":{"ID":412558,"DIS_CODE":0,"TOWNNAME":"新化區","LI":"東榮里","LIN":"3鄰","STREET":"中興路","SECT":" ","MAREA":" ","LANE":"１０４巷","ALLEY":" ","HOUSE_NO":"９８號之６","E_COORD97":181938.73999999999,"N_COORD97":2547508.0699999998,"ADDRESS":"中興路１０４巷９８號之６","OBJECTID":412534},"geometry":{"x":181938.74000000022,"y":2547508.0700000003}},{"attributes":{"ID":412559,"DIS_CODE":0,"TOWNNAME":"北區","LI":"六甲里","LIN":"3鄰","STREET":"公園路","SECT":" ","MAREA":" ","LANE":"４８７巷","ALLEY":" ","HOUSE_NO":"２２號之３","E_COORD97":168954.23999999999,"N_COORD97":2545537.04,"ADDRESS":"公園路４８７巷２２號之３","OBJECTID":412535},"geometry":{"x":168954.24000000022,"y":2545537.0399999991}},{"attributes":{"ID":412560,"DIS_CODE":0,"TOWNNAME":"北區","LI":"文元里","LIN":"3鄰","STREET":"文賢路","SECT":" ","MAREA":" ","LANE":"１１２２巷","ALLEY":" ","HOUSE_NO":"８９號","E_COORD97":167587.70999999999,"N_COORD97":2546401.75,"ADDRESS":"文賢路１１２２巷８９號","OBJECTID":412536},"geometry":{"x":167587.70999999996,"y":2546401.75}},{"attributes":{"ID":412561,"DIS_CODE":0,"TOWNNAME":"永康區","LI":"正強里","LIN":"48鄰","STREET":"中正路","SECT":" ","MAREA":" ","LANE":"２５６巷","ALLEY":" ","HOUSE_NO":"１３號之４５","E_COORD97":173256.07999999999,"N_COORD97":2548001.6699999999,"ADDRESS":"中正路２５６巷１３號之４５","OBJECTID":412537},"geometry":{"x":173256.08000000194,"y":2548001.6699999999}},{"attributes":{"ID":412562,"DIS_CODE":0,"TOWNNAME":"永康區","LI":"北灣里","LIN":"41鄰","STREET":"大灣路","SECT":" ","MAREA":" ","LANE":"７４巷","ALLEY":" ","HOUSE_NO":"１４號","E_COORD97":175156,"N_COORD97":2545789.25,"ADDRESS":"大灣路７４巷１４號","OBJECTID":412538},"geometry":{"x":175156,"y":2545789.2500000019}},{"attributes":{"ID":412563,"DIS_CODE":0,"TOWNNAME":"永康區","LI":"北灣里","LIN":"41鄰","STREET":"大灣路","SECT":" ","MAREA":" ","LANE":"７４巷","ALLEY":" ","HOUSE_NO":"４號","E_COORD97":175220.73000000001,"N_COORD97":2545794.79,"ADDRESS":"大灣路７４巷４號","OBJECTID":412539},"geometry":{"x":175220.73000000138,"y":2545794.790000001}},{"attributes":{"ID":412564,"DIS_CODE":0,"TOWNNAME":"北區","LI":"文元里","LIN":"3鄰","STREET":"中華北路","SECT":"二段","MAREA":" ","LANE":"８０巷","ALLEY":" ","HOUSE_NO":"６５號","E_COORD97":167730.04999999999,"N_COORD97":2546444.1299999999,"ADDRESS":"中華北路二段８０巷６５號","OBJECTID":412540},"geometry":{"x":167730.05000000075,"y":2546444.1300000008}},{"attributes":{"ID":412565,"DIS_CODE":0,"TOWNNAME":"北區","LI":"文元里","LIN":"3鄰","STREET":"中華北路","SECT":"二段","MAREA":" ","LANE":"８０巷","ALLEY":" ","HOUSE_NO":"６１號","E_COORD97":167728.72,"N_COORD97":2546461.4399999999,"ADDRESS":"中華北路二段８０巷６１號","OBJECTID":412541},"geometry":{"x":167728.72000000067,"y":2546461.4399999995}},{"attributes":{"ID":412566,"DIS_CODE":0,"TOWNNAME":"永康區","LI":"永康里","LIN":"39鄰","STREET":"永大路","SECT":"二段","MAREA":" ","LANE":"６７７巷","ALLEY":" ","HOUSE_NO":"５號","E_COORD97":174360.85999999999,"N_COORD97":2546532.7799999998,"ADDRESS":"永大路二段６７７巷５號","OBJECTID":412542},"geometry":{"x":174360.86000000034,"y":2546532.7799999993}},{"attributes":{"ID":412567,"DIS_CODE":0,"TOWNNAME":"永康區","LI":"北灣里","LIN":"10鄰","STREET":"大灣路","SECT":" ","MAREA":" ","LANE":"１１２巷","ALLEY":" ","HOUSE_NO":"６號","E_COORD97":175166.42000000001,"N_COORD97":2545687.3100000001,"ADDRESS":"大灣路１１２巷６號","OBJECTID":412543},"geometry":{"x":175166.42000000086,"y":2545687.3100000042}},{"attributes":{"ID":412568,"DIS_CODE":0,"TOWNNAME":"永康區","LI":"北灣里","LIN":"37鄰","STREET":"大同街","SECT":" ","MAREA":" ","LANE":"３１５巷","ALLEY":" ","HOUSE_NO":"６號","E_COORD97":174727.69,"N_COORD97":2546028.6400000001,"ADDRESS":"大同街３１５巷６號","OBJECTID":412544},"geometry":{"x":174727.69000000134,"y":2546028.6400000025}},{"attributes":{"ID":412569,"DIS_CODE":0,"TOWNNAME":"永康區","LI":"王行里","LIN":"16鄰","STREET":"中山北路","SECT":" ","MAREA":" ","LANE":"８８５巷","ALLEY":" ","HOUSE_NO":"２號","E_COORD97":176248.35000000001,"N_COORD97":2548119.3500000001,"ADDRESS":"中山北路８８５巷２號","OBJECTID":412545},"geometry":{"x":176248.34999999963,"y":2548119.3499999996}},{"attributes":{"ID":412570,"DIS_CODE":0,"TOWNNAME":"永康區","LI":"復華里","LIN":"3鄰","STREET":"復國二路","SECT":" ","MAREA":" ","LANE":"３４２巷","ALLEY":" ","HOUSE_NO":"９號","E_COORD97":173071.42000000001,"N_COORD97":2546194.8500000001,"ADDRESS":"復國二路３４２巷９號","OBJECTID":412546},"geometry":{"x":173071.41999999993,"y":2546194.8500000034}},{"attributes":{"ID":412571,"DIS_CODE":0,"TOWNNAME":"永康區","LI":"復華里","LIN":"3鄰","STREET":"復國二路","SECT":" ","MAREA":" ","LANE":"３４６巷","ALLEY":" ","HOUSE_NO":"１２號","E_COORD97":173089.38,"N_COORD97":2546228.23,"ADDRESS":"復國二路３４６巷１２號","OBJECTID":412547},"geometry":{"x":173089.38000000175,"y":2546228.2300000023}},{"attributes":{"ID":412572,"DIS_CODE":0,"TOWNNAME":"永康區","LI":"復華里","LIN":"3鄰","STREET":"復國二路","SECT":" ","MAREA":" ","LANE":"３４６巷","ALLEY":" ","HOUSE_NO":"１４號","E_COORD97":173094.26999999999,"N_COORD97":2546228.3199999998,"ADDRESS":"復國二路３４６巷１４號","OBJECTID":412548},"geometry":{"x":173094.26999999955,"y":2546228.3200000003}},{"attributes":{"ID":412573,"DIS_CODE":0,"TOWNNAME":"永康區","LI":"復華里","LIN":"3鄰","STREET":"復國二路","SECT":" ","MAREA":" ","LANE":"３４６巷","ALLEY":" ","HOUSE_NO":"２４號","E_COORD97":173114.82000000001,"N_COORD97":2546226.46,"ADDRESS":"復國二路３４６巷２４號","OBJECTID":412549},"geometry":{"x":173114.8200000003,"y":2546226.4600000028}},{"attributes":{"ID":412574,"DIS_CODE":0,"TOWNNAME":"永康區","LI":"復華里","LIN":"3鄰","STREET":"復國二路","SECT":" ","MAREA":" ","LANE":"３４６巷","ALLEY":" ","HOUSE_NO":"７號","E_COORD97":173079.79000000001,"N_COORD97":2546237.9100000001,"ADDRESS":"復國二路３４６巷７號","OBJECTID":412550},"geometry":{"x":173079.79000000004,"y":2546237.9100000001}},{"attributes":{"ID":412575,"DIS_CODE":0,"TOWNNAME":"永康區","LI":"復華里","LIN":"3鄰","STREET":"復國二路","SECT":" ","MAREA":" ","LANE":"３４６巷","ALLEY":" ","HOUSE_NO":"１５號","E_COORD97":173098.87,"N_COORD97":2546238.0099999998,"ADDRESS":"復國二路３４６巷１５號","OBJECTID":412551},"geometry":{"x":173098.87000000104,"y":2546238.0100000035}},{"attributes":{"ID":412576,"DIS_CODE":0,"TOWNNAME":"永康區","LI":"復華里","LIN":"3鄰","STREET":"復國二路","SECT":" ","MAREA":" ","LANE":"３４６巷","ALLEY":" ","HOUSE_NO":"１７號","E_COORD97":173103.85999999999,"N_COORD97":2546238.5,"ADDRESS":"復國二路３４６巷１７號","OBJECTID":412552},"geometry":{"x":173103.86000000127,"y":2546238.5000000019}},{"attributes":{"ID":412577,"DIS_CODE":0,"TOWNNAME":"永康區","LI":"光復里","LIN":"3鄰","STREET":"復國路","SECT":" ","MAREA":" ","LANE":"６１巷","ALLEY":" ","HOUSE_NO":"７１號","E_COORD97":172569.45999999999,"N_COORD97":2544479.0600000001,"ADDRESS":"復國路６１巷７１號","OBJECTID":412553},"geometry":{"x":172569.45999999996,"y":2544479.0600000024}},{"attributes":{"ID":412578,"DIS_CODE":0,"TOWNNAME":"永康區","LI":"光復里","LIN":"3鄰","STREET":"復國路","SECT":" ","MAREA":" ","LANE":"６１巷","ALLEY":" ","HOUSE_NO":"８３號","E_COORD97":172551.67000000001,"N_COORD97":2544477.6800000002,"ADDRESS":"復國路６１巷８３號","OBJECTID":412554},"geometry":{"x":172551.66999999899,"y":2544477.6800000016}},{"attributes":{"ID":412579,"DIS_CODE":0,"TOWNNAME":"安南區","LI":"幸福里","LIN":"3鄰","STREET":"國安街","SECT":" ","MAREA":" ","LANE":"７３巷","ALLEY":" ","HOUSE_NO":"８號","E_COORD97":166944.14000000001,"N_COORD97":2546959.4100000001,"ADDRESS":"國安街７３巷８號","OBJECTID":412555},"geometry":{"x":166944.1400000006,"y":2546959.4100000001}},{"attributes":{"ID":412580,"DIS_CODE":0,"TOWNNAME":"南區","LI":"文華里","LIN":"3鄰","STREET":"文南路","SECT":" ","MAREA":" ","LANE":"３４２巷","ALLEY":" ","HOUSE_NO":"９號","E_COORD97":167022.34,"N_COORD97":2543173.8599999999,"ADDRESS":"文南路３４２巷９號","OBJECTID":412556},"geometry":{"x":167022.33999999985,"y":2543173.8600000013}},{"attributes":{"ID":412581,"DIS_CODE":0,"TOWNNAME":"永康區","LI":"北灣里","LIN":"18鄰","STREET":"大安街","SECT":" ","MAREA":" ","LANE":"４５０巷","ALLEY":" ","HOUSE_NO":"８號","E_COORD97":174656.79000000001,"N_COORD97":2545911.3199999998,"ADDRESS":"大安街４５０巷８號","OBJECTID":412557},"geometry":{"x":174656.79000000097,"y":2545911.3200000022}},{"attributes":{"ID":412582,"DIS_CODE":0,"TOWNNAME":"永康區","LI":"北灣里","LIN":"39鄰","STREET":"永大路","SECT":"二段","MAREA":" ","LANE":"９８６巷","ALLEY":" ","HOUSE_NO":"１６號","E_COORD97":174533.54999999999,"N_COORD97":2546353.0899999999,"ADDRESS":"永大路二段９８６巷１６號","OBJECTID":412558},"geometry":{"x":174533.54999999981,"y":2546353.0900000017}},{"attributes":{"ID":412583,"DIS_CODE":0,"TOWNNAME":"永康區","LI":"正強里","LIN":"47鄰","STREET":"中正路","SECT":" ","MAREA":" ","LANE":"２５６巷","ALLEY":" ","HOUSE_NO":"１１號之４５","E_COORD97":173231.35999999999,"N_COORD97":2547996.2000000002,"ADDRESS":"中正路２５６巷１１號之４５","OBJECTID":412559},"geometry":{"x":173231.36000000127,"y":2547996.2000000011}},{"attributes":{"ID":412584,"DIS_CODE":0,"TOWNNAME":"永康區","LI":"北灣里","LIN":"37鄰","STREET":"大同街","SECT":" ","MAREA":" ","LANE":"３２０巷","ALLEY":" ","HOUSE_NO":"７號","E_COORD97":174809.10999999999,"N_COORD97":2545990.8100000001,"ADDRESS":"大同街３２０巷７號","OBJECTID":412560},"geometry":{"x":174809.11000000127,"y":2545990.8100000024}},{"attributes":{"ID":412585,"DIS_CODE":0,"TOWNNAME":"南區","LI":"文華里","LIN":"3鄰","STREET":"文南路","SECT":" ","MAREA":" ","LANE":"３４２巷","ALLEY":" ","HOUSE_NO":"１１號","E_COORD97":167020.64000000001,"N_COORD97":2543165.5099999998,"ADDRESS":"文南路３４２巷１１號","OBJECTID":412561},"geometry":{"x":167020.6400000006,"y":2543165.5099999998}},{"attributes":{"ID":412586,"DIS_CODE":0,"TOWNNAME":"南區","LI":"文華里","LIN":"3鄰","STREET":"文南路","SECT":" ","MAREA":" ","LANE":"３４２巷","ALLEY":" ","HOUSE_NO":"１３號","E_COORD97":167031.01000000001,"N_COORD97":2543161.8599999999,"ADDRESS":"文南路３４２巷１３號","OBJECTID":412562},"geometry":{"x":167031.00999999978,"y":2543161.8599999994}},{"attributes":{"ID":412587,"DIS_CODE":0,"TOWNNAME":"南區","LI":"文華里","LIN":"3鄰","STREET":"文南路","SECT":" ","MAREA":" ","LANE":"３４２巷","ALLEY":" ","HOUSE_NO":"１５號","E_COORD97":167034.95999999999,"N_COORD97":2543161.1400000001,"ADDRESS":"文南路３４２巷１５號","OBJECTID":412563},"geometry":{"x":167034.95999999996,"y":2543161.1400000006}},{"attributes":{"ID":412588,"DIS_CODE":0,"TOWNNAME":"南區","LI":"文華里","LIN":"3鄰","STREET":"文南路","SECT":" ","MAREA":" ","LANE":"３４２巷","ALLEY":" ","HOUSE_NO":"１７號","E_COORD97":167039.54999999999,"N_COORD97":2543160.1499999999,"ADDRESS":"文南路３４２巷１７號","OBJECTID":412564},"geometry":{"x":167039.54999999981,"y":2543160.1500000022}},{"attributes":{"ID":412589,"DIS_CODE":0,"TOWNNAME":"南區","LI":"文華里","LIN":"3鄰","STREET":"文南路","SECT":" ","MAREA":" ","LANE":"３４２巷","ALLEY":" ","HOUSE_NO":"１９號","E_COORD97":167043.67999999999,"N_COORD97":2543159.1699999999,"ADDRESS":"文南路３４２巷１９號","OBJECTID":412565},"geometry":{"x":167043.67999999877,"y":2543159.1700000018}},{"attributes":{"ID":412590,"DIS_CODE":0,"TOWNNAME":"南區","LI":"文華里","LIN":"3鄰","STREET":"文南路","SECT":" ","MAREA":" ","LANE":"３４２巷","ALLEY":" ","HOUSE_NO":"２１號","E_COORD97":167047.72,"N_COORD97":2543158.4500000002,"ADDRESS":"文南路３４２巷２１號","OBJECTID":412566},"geometry":{"x":167047.72000000067,"y":2543158.4499999993}},{"attributes":{"ID":412591,"DIS_CODE":0,"TOWNNAME":"南區","LI":"文華里","LIN":"3鄰","STREET":"文南路","SECT":" ","MAREA":" ","LANE":"３４２巷","ALLEY":" ","HOUSE_NO":"２３號","E_COORD97":167051.85000000001,"N_COORD97":2543157.73,"ADDRESS":"文南路３４２巷２３號","OBJECTID":412567},"geometry":{"x":167051.85000000056,"y":2543157.7300000004}},{"attributes":{"ID":412592,"DIS_CODE":0,"TOWNNAME":"南區","LI":"文華里","LIN":"3鄰","STREET":"文南路","SECT":" ","MAREA":" ","LANE":"３４２巷","ALLEY":" ","HOUSE_NO":"２５號","E_COORD97":167055.89000000001,"N_COORD97":2543156.5600000001,"ADDRESS":"文南路３４２巷２５號","OBJECTID":412568},"geometry":{"x":167055.89000000153,"y":2543156.5600000042}},{"attributes":{"ID":412593,"DIS_CODE":0,"TOWNNAME":"南區","LI":"文華里","LIN":"3鄰","STREET":"文南路","SECT":" ","MAREA":" ","LANE":"３４２巷","ALLEY":" ","HOUSE_NO":"２７號","E_COORD97":167059.92000000001,"N_COORD97":2543155.73,"ADDRESS":"文南路３４２巷２７號","OBJECTID":412569},"geometry":{"x":167059.92000000086,"y":2543155.7300000023}},{"attributes":{"ID":412594,"DIS_CODE":0,"TOWNNAME":"南區","LI":"文華里","LIN":"3鄰","STREET":"文南路","SECT":" ","MAREA":" ","LANE":"３４２巷","ALLEY":" ","HOUSE_NO":"２９號","E_COORD97":167064.5,"N_COORD97":2543154.4700000002,"ADDRESS":"文南路３４２巷２９號","OBJECTID":412570},"geometry":{"x":167064.50000000093,"y":2543154.4700000025}},{"attributes":{"ID":412595,"DIS_CODE":0,"TOWNNAME":"南區","LI":"文華里","LIN":"3鄰","STREET":"文南路","SECT":" ","MAREA":" ","LANE":"３４２巷","ALLEY":" ","HOUSE_NO":"３１號","E_COORD97":167069.44,"N_COORD97":2543153.6600000001,"ADDRESS":"文南路３４２巷３１號","OBJECTID":412571},"geometry":{"x":167069.44000000041,"y":2543153.660000002}},{"attributes":{"ID":412596,"DIS_CODE":0,"TOWNNAME":"南區","LI":"文華里","LIN":"3鄰","STREET":"文南路","SECT":" ","MAREA":" ","LANE":"３４２巷","ALLEY":" ","HOUSE_NO":"３３號","E_COORD97":167075.37,"N_COORD97":2543152.8599999999,"ADDRESS":"文南路３４２巷３３號","OBJECTID":412572},"geometry":{"x":167075.37000000104,"y":2543152.8599999994}},{"attributes":{"ID":412597,"DIS_CODE":0,"TOWNNAME":"南區","LI":"文華里","LIN":"3鄰","STREET":"文南路","SECT":" ","MAREA":" ","LANE":"３４２巷","ALLEY":" ","HOUSE_NO":"３７號","E_COORD97":167100.42000000001,"N_COORD97":2543148.2799999998,"ADDRESS":"文南路３４２巷３７號","OBJECTID":412573},"geometry":{"x":167100.42000000086,"y":2543148.2800000012}},{"attributes":{"ID":412598,"DIS_CODE":0,"TOWNNAME":"南區","LI":"文華里","LIN":"3鄰","STREET":"文南路","SECT":" ","MAREA":" ","LANE":"３４２巷","ALLEY":" ","HOUSE_NO":"３９號","E_COORD97":167105.54000000001,"N_COORD97":2543146.1299999999,"ADDRESS":"文南路３４２巷３９號","OBJECTID":412574},"geometry":{"x":167105.54000000004,"y":2543146.129999999}},{"attributes":{"ID":412599,"DIS_CODE":0,"TOWNNAME":"東區","LI":"大智里","LIN":"40鄰","STREET":"文東街","SECT":" ","MAREA":" ","LANE":"２巷","ALLEY":" ","HOUSE_NO":"９號","E_COORD97":171351.91,"N_COORD97":2540109.27,"ADDRESS":"文東街２巷９號","OBJECTID":412575},"geometry":{"x":171351.91000000201,"y":2540109.2699999977}},{"attributes":{"ID":412600,"DIS_CODE":0,"TOWNNAME":"南區","LI":"田寮里","LIN":"3鄰","STREET":"新興路","SECT":" ","MAREA":" ","LANE":"２６５巷","ALLEY":" ","HOUSE_NO":"３０號","E_COORD97":167333.29000000001,"N_COORD97":2541823.3100000001,"ADDRESS":"新興路２６５巷３０號","OBJECTID":412576},"geometry":{"x":167333.2900000019,"y":2541823.3100000024}},{"attributes":{"ID":412601,"DIS_CODE":0,"TOWNNAME":"南區","LI":"田寮里","LIN":"3鄰","STREET":"新興路","SECT":" ","MAREA":" ","LANE":"２６５巷","ALLEY":" ","HOUSE_NO":"３２號","E_COORD97":167338.67999999999,"N_COORD97":2541822.7999999998,"ADDRESS":"新興路２６５巷３２號","OBJECTID":412577},"geometry":{"x":167338.68000000156,"y":2541822.8000000045}},{"attributes":{"ID":412602,"DIS_CODE":0,"TOWNNAME":"南區","LI":"田寮里","LIN":"3鄰","STREET":"新興路","SECT":" ","MAREA":" ","LANE":"２６５巷","ALLEY":" ","HOUSE_NO":"３４號","E_COORD97":167343.29999999999,"N_COORD97":2541821,"ADDRESS":"新興路２６５巷３４號","OBJECTID":412578},"geometry":{"x":167343.30000000075,"y":2541821.0000000019}},{"attributes":{"ID":412603,"DIS_CODE":0,"TOWNNAME":"南區","LI":"田寮里","LIN":"3鄰","STREET":"新興路","SECT":" ","MAREA":" ","LANE":"２６５巷","ALLEY":" ","HOUSE_NO":"３６號","E_COORD97":167347.41,"N_COORD97":2541819.46,"ADDRESS":"新興路２６５巷３６號","OBJECTID":412579},"geometry":{"x":167347.41000000015,"y":2541819.4600000028}},{"attributes":{"ID":412604,"DIS_CODE":0,"TOWNNAME":"南區","LI":"田寮里","LIN":"3鄰","STREET":"新興路","SECT":" ","MAREA":" ","LANE":"２６５巷","ALLEY":" ","HOUSE_NO":"３８號","E_COORD97":167351.26000000001,"N_COORD97":2541818.1800000002,"ADDRESS":"新興路２６５巷３８號","OBJECTID":412580},"geometry":{"x":167351.25999999978,"y":2541818.1799999997}},{"attributes":{"ID":412605,"DIS_CODE":0,"TOWNNAME":"南區","LI":"田寮里","LIN":"3鄰","STREET":"新興路","SECT":" ","MAREA":" ","LANE":"２６５巷","ALLEY":" ","HOUSE_NO":"４０號","E_COORD97":167355.10999999999,"N_COORD97":2541817.1600000001,"ADDRESS":"新興路２６５巷４０號","OBJECTID":412581},"geometry":{"x":167355.1100000022,"y":2541817.160000002}},{"attributes":{"ID":412606,"DIS_CODE":0,"TOWNNAME":"南區","LI":"田寮里","LIN":"3鄰","STREET":"新興路","SECT":" ","MAREA":" ","LANE":"２６５巷","ALLEY":" ","HOUSE_NO":"４２號","E_COORD97":167359.22,"N_COORD97":2541815.8700000001,"ADDRESS":"新興路２６５巷４２號","OBJECTID":412582},"geometry":{"x":167359.22000000067,"y":2541815.8700000048}},{"attributes":{"ID":412607,"DIS_CODE":0,"TOWNNAME":"南區","LI":"田寮里","LIN":"3鄰","STREET":"新興路","SECT":" ","MAREA":" ","LANE":"２６５巷","ALLEY":" ","HOUSE_NO":"４６號","E_COORD97":167366.41,"N_COORD97":2541814.3399999999,"ADDRESS":"新興路２６５巷４６號","OBJECTID":412583},"geometry":{"x":167366.41000000201,"y":2541814.3399999999}},{"attributes":{"ID":412608,"DIS_CODE":0,"TOWNNAME":"南區","LI":"田寮里","LIN":"3鄰","STREET":"新興路","SECT":" ","MAREA":" ","LANE":"２６５巷","ALLEY":" ","HOUSE_NO":"４８號","E_COORD97":167369.75,"N_COORD97":2541812.54,"ADDRESS":"新興路２６５巷４８號","OBJECTID":412584},"geometry":{"x":167369.75000000093,"y":2541812.5400000028}},{"attributes":{"ID":412609,"DIS_CODE":0,"TOWNNAME":"南區","LI":"田寮里","LIN":"3鄰","STREET":"新興路","SECT":" ","MAREA":" ","LANE":"２６５巷","ALLEY":" ","HOUSE_NO":"５０號","E_COORD97":167373.60000000001,"N_COORD97":2541811,"ADDRESS":"新興路２６５巷５０號","OBJECTID":412585},"geometry":{"x":167373.60000000056,"y":2541811.0000000019}},{"attributes":{"ID":412610,"DIS_CODE":0,"TOWNNAME":"南區","LI":"田寮里","LIN":"3鄰","STREET":"新興路","SECT":" ","MAREA":" ","LANE":"２６５巷","ALLEY":" ","HOUSE_NO":"５２號","E_COORD97":167378.22,"N_COORD97":2541809.98,"ADDRESS":"新興路２６５巷５２號","OBJECTID":412586},"geometry":{"x":167378.22000000067,"y":2541809.9800000004}},{"attributes":{"ID":412611,"DIS_CODE":0,"TOWNNAME":"永康區","LI":"北灣里","LIN":"41鄰","STREET":"大灣路","SECT":" ","MAREA":" ","LANE":"７４巷","ALLEY":" ","HOUSE_NO":"３４號","E_COORD97":175092.73999999999,"N_COORD97":2545797.25,"ADDRESS":"大灣路７４巷３４號","OBJECTID":412587},"geometry":{"x":175092.74000000209,"y":2545797.2500000019}},{"attributes":{"ID":412612,"DIS_CODE":0,"TOWNNAME":"永康區","LI":"北灣里","LIN":"19鄰","STREET":"大同街","SECT":" ","MAREA":" ","LANE":"２９３巷","ALLEY":" ","HOUSE_NO":"１２號","E_COORD97":174728.89000000001,"N_COORD97":2545938.3300000001,"ADDRESS":"大同街２９３巷１２號","OBJECTID":412588},"geometry":{"x":174728.8900000006,"y":2545938.3300000019}},{"attributes":{"ID":412613,"DIS_CODE":0,"TOWNNAME":"永康區","LI":"北灣里","LIN":"37鄰","STREET":"大同街","SECT":" ","MAREA":" ","LANE":"３２０巷","ALLEY":" ","HOUSE_NO":"１７號","E_COORD97":174800,"N_COORD97":2545991.8100000001,"ADDRESS":"大同街３２０巷１７號","OBJECTID":412589},"geometry":{"x":174800,"y":2545991.8100000005}},{"attributes":{"ID":412614,"DIS_CODE":0,"TOWNNAME":"南區","LI":"田寮里","LIN":"3鄰","STREET":"新興路","SECT":" ","MAREA":" ","LANE":"２６５巷","ALLEY":" ","HOUSE_NO":"５４號","E_COORD97":167382.57000000001,"N_COORD97":2541809.1600000001,"ADDRESS":"新興路２６５巷５４號","OBJECTID":412590},"geometry":{"x":167382.57000000216,"y":2541809.1599999983}},{"attributes":{"ID":412615,"DIS_CODE":0,"TOWNNAME":"南區","LI":"田寮里","LIN":"3鄰","STREET":"新興路","SECT":" ","MAREA":" ","LANE":"２６５巷","ALLEY":" ","HOUSE_NO":"５６號","E_COORD97":167386.48999999999,"N_COORD97":2541808.2799999998,"ADDRESS":"新興路２６５巷５６號","OBJECTID":412591},"geometry":{"x":167386.49000000209,"y":2541808.2800000012}},{"attributes":{"ID":412616,"DIS_CODE":0,"TOWNNAME":"南區","LI":"田寮里","LIN":"3鄰","STREET":"新興路","SECT":" ","MAREA":" ","LANE":"２６５巷","ALLEY":" ","HOUSE_NO":"５８號","E_COORD97":167391.39000000001,"N_COORD97":2541807.5800000001,"ADDRESS":"新興路２６５巷５８號","OBJECTID":412592},"geometry":{"x":167391.38999999966,"y":2541807.5800000019}},{"attributes":{"ID":412617,"DIS_CODE":0,"TOWNNAME":"南區","LI":"田寮里","LIN":"3鄰","STREET":"新興路","SECT":" ","MAREA":" ","LANE":"２６５巷","ALLEY":" ","HOUSE_NO":"６０號","E_COORD97":167395.04000000001,"N_COORD97":2541805.7999999998,"ADDRESS":"新興路２６５巷６０號","OBJECTID":412593},"geometry":{"x":167395.04000000097,"y":2541805.8000000045}},{"attributes":{"ID":412618,"DIS_CODE":0,"TOWNNAME":"南區","LI":"田寮里","LIN":"3鄰","STREET":"新興路","SECT":" ","MAREA":" ","LANE":"２６５巷","ALLEY":" ","HOUSE_NO":"６２號","E_COORD97":167399.85000000001,"N_COORD97":2541805.1000000001,"ADDRESS":"新興路２６５巷６２號","OBJECTID":412594},"geometry":{"x":167399.84999999963,"y":2541805.0999999996}},{"attributes":{"ID":412619,"DIS_CODE":0,"TOWNNAME":"南區","LI":"田寮里","LIN":"3鄰","STREET":"新興路","SECT":" ","MAREA":" ","LANE":"２６５巷","ALLEY":" ","HOUSE_NO":"６４號","E_COORD97":167403.66,"N_COORD97":2541804.02,"ADDRESS":"新興路２６５巷６４號","OBJECTID":412595},"geometry":{"x":167403.65999999922,"y":2541804.0200000014}},{"attributes":{"ID":412620,"DIS_CODE":0,"TOWNNAME":"南區","LI":"田寮里","LIN":"3鄰","STREET":"新興路","SECT":" ","MAREA":" ","LANE":"２６５巷","ALLEY":" ","HOUSE_NO":"６６號","E_COORD97":167407.76999999999,"N_COORD97":2541803.1600000001,"ADDRESS":"新興路２６５巷６６號","OBJECTID":412596},"geometry":{"x":167407.77000000048,"y":2541803.160000002}},{"attributes":{"ID":412621,"DIS_CODE":0,"TOWNNAME":"南區","LI":"田寮里","LIN":"3鄰","STREET":"新興路","SECT":" ","MAREA":" ","LANE":"２６５巷","ALLEY":" ","HOUSE_NO":"６８號","E_COORD97":167411.73000000001,"N_COORD97":2541802.54,"ADDRESS":"新興路２６５巷６８號","OBJECTID":412597},"geometry":{"x":167411.73000000045,"y":2541802.5400000028}},{"attributes":{"ID":412622,"DIS_CODE":0,"TOWNNAME":"南區","LI":"田寮里","LIN":"3鄰","STREET":"新興路","SECT":" ","MAREA":" ","LANE":"２６５巷","ALLEY":" ","HOUSE_NO":"７０號","E_COORD97":167416.07999999999,"N_COORD97":2541801.46,"ADDRESS":"新興路２６５巷７０號","OBJECTID":412598},"geometry":{"x":167416.08000000194,"y":2541801.4600000046}},{"attributes":{"ID":412623,"DIS_CODE":0,"TOWNNAME":"南區","LI":"田寮里","LIN":"3鄰","STREET":"新興路","SECT":" ","MAREA":" ","LANE":"２６５巷","ALLEY":" ","HOUSE_NO":"７２號","E_COORD97":167420.73999999999,"N_COORD97":2541800.0600000001,"ADDRESS":"新興路２６５巷７２號","OBJECTID":412599},"geometry":{"x":167420.74000000115,"y":2541800.0599999987}},{"attributes":{"ID":412624,"DIS_CODE":0,"TOWNNAME":"南區","LI":"田寮里","LIN":"3鄰","STREET":"新興路","SECT":" ","MAREA":" ","LANE":"２６５巷","ALLEY":" ","HOUSE_NO":"７４號","E_COORD97":167423.91,"N_COORD97":2541798.54,"ADDRESS":"新興路２６５巷７４號","OBJECTID":412600},"geometry":{"x":167423.91000000015,"y":2541798.5399999991}}]}