{"displayFieldName":"TOWNNAME","fieldAliases":{"ID":"ID","DIS_CODE":"DIS_CODE","TOWNNAME":"TOWNNAME","LI":"LI","LIN":"LIN","STREET":"STREET","SECT":"SECT","MAREA":"MAREA","LANE":"LANE","ALLEY":"ALLEY","HOUSE_NO":"HOUSE_NO","E_COORD97":"E_COORD97","N_COORD97":"N_COORD97","ADDRESS":"ADDRESS","OBJECTID":"OBJECTID"},"geometryType":"esriGeometryPoint","spatialReference":{"wkid":102443,"latestWkid":3826},"fields":[{"name":"ID","type":"esriFieldTypeDouble","alias":"ID"},{"name":"DIS_CODE","type":"esriFieldTypeInteger","alias":"DIS_CODE"},{"name":"TOWNNAME","type":"esriFieldTypeString","alias":"TOWNNAME","length":8},{"name":"LI","type":"esriFieldTypeString","alias":"LI","length":8},{"name":"LIN","type":"esriFieldTypeString","alias":"LIN","length":12},{"name":"STREET","type":"esriFieldTypeString","alias":"STREET","length":20},{"name":"SECT","type":"esriFieldTypeString","alias":"SECT","length":8},{"name":"MAREA","type":"esriFieldTypeString","alias":"MAREA","length":12},{"name":"LANE","type":"esriFieldTypeString","alias":"LANE","length":10},{"name":"ALLEY","type":"esriFieldTypeString","alias":"ALLEY","length":10},{"name":"HOUSE_NO","type":"esriFieldTypeString","alias":"HOUSE_NO","length":20},{"name":"E_COORD97","type":"esriFieldTypeDouble","alias":"E_COORD97"},{"name":"N_COORD97","type":"esriFieldTypeDouble","alias":"N_COORD97"},{"name":"ADDRESS","type":"esriFieldTypeString","alias":"ADDRESS","length":50},{"name":"OBJECTID","type":"esriFieldTypeOID","alias":"OBJECTID"}],"features":[{"attributes":{"ID":229405,"DIS_CODE":0,"TOWNNAME":"善化區","LI":"溪美里","LIN":"1鄰","STREET":" ","SECT":" ","MAREA":"溪尾","LANE":" ","ALLEY":" ","HOUSE_NO":"９５７號","E_COORD97":177121.98000000001,"N_COORD97":2560171.27,"ADDRESS":"溪尾９５７號","OBJECTID":229401},"geometry":{"x":177121.98000000045,"y":2560171.2700000014}},{"attributes":{"ID":229406,"DIS_CODE":0,"TOWNNAME":"善化區","LI":"坐駕里","LIN":"13鄰","STREET":"信義路","SECT":" ","MAREA":" ","LANE":"７１巷","ALLEY":" ","HOUSE_NO":"３２號","E_COORD97":178202.69,"N_COORD97":2558710.5,"ADDRESS":"信義路７１巷３２號","OBJECTID":229402},"geometry":{"x":178202.69000000134,"y":2558710.5}},{"attributes":{"ID":229407,"DIS_CODE":0,"TOWNNAME":"永康區","LI":"龍潭里","LIN":"23鄰","STREET":"自強路","SECT":" ","MAREA":" ","LANE":"７５０巷","ALLEY":" ","HOUSE_NO":"７６號","E_COORD97":174596.51000000001,"N_COORD97":2548455.4399999999,"ADDRESS":"自強路７５０巷７６號","OBJECTID":229403},"geometry":{"x":174596.50999999978,"y":2548455.4400000032}},{"attributes":{"ID":229408,"DIS_CODE":0,"TOWNNAME":"永康區","LI":"復興里","LIN":"3鄰","STREET":"復興路","SECT":" ","MAREA":" ","LANE":"２７７巷","ALLEY":" ","HOUSE_NO":"７２號","E_COORD97":172348.57000000001,"N_COORD97":2544124.8399999999,"ADDRESS":"復興路２７７巷７２號","OBJECTID":229404},"geometry":{"x":172348.5700000003,"y":2544124.8400000017}},{"attributes":{"ID":229409,"DIS_CODE":0,"TOWNNAME":"善化區","LI":"東昌里","LIN":"1鄰","STREET":" ","SECT":" ","MAREA":"東勢寮","LANE":" ","ALLEY":" ","HOUSE_NO":"１之３號","E_COORD97":181084.56,"N_COORD97":2561920.27,"ADDRESS":"東勢寮１之３號","OBJECTID":229405},"geometry":{"x":181084.56000000052,"y":2561920.2700000014}},{"attributes":{"ID":229410,"DIS_CODE":0,"TOWNNAME":"永康區","LI":"復興里","LIN":"3鄰","STREET":"復興路","SECT":" ","MAREA":" ","LANE":"２７７巷","ALLEY":" ","HOUSE_NO":"９２號","E_COORD97":172356.42999999999,"N_COORD97":2544068.7799999998,"ADDRESS":"復興路２７７巷９２號","OBJECTID":229406},"geometry":{"x":172356.42999999877,"y":2544068.7799999993}},{"attributes":{"ID":229411,"DIS_CODE":0,"TOWNNAME":"善化區","LI":"溪美里","LIN":"1鄰","STREET":" ","SECT":" ","MAREA":"溪尾","LANE":" ","ALLEY":" ","HOUSE_NO":"９４９號之６","E_COORD97":177152.14999999999,"N_COORD97":2560195.77,"ADDRESS":"溪尾９４９號之６","OBJECTID":229407},"geometry":{"x":177152.1500000013,"y":2560195.7699999996}},{"attributes":{"ID":229412,"DIS_CODE":0,"TOWNNAME":"善化區","LI":"嘉南里","LIN":"12鄰","STREET":" ","SECT":" ","MAREA":"茄拔","LANE":" ","ALLEY":" ","HOUSE_NO":"３５５之２０號","E_COORD97":180672.20000000001,"N_COORD97":2559601.27,"ADDRESS":"茄拔３５５之２０號","OBJECTID":229408},"geometry":{"x":180672.20000000112,"y":2559601.2700000014}},{"attributes":{"ID":229413,"DIS_CODE":0,"TOWNNAME":"善化區","LI":"嘉南里","LIN":"12鄰","STREET":" ","SECT":" ","MAREA":"茄拔","LANE":" ","ALLEY":" ","HOUSE_NO":"３５５之５號","E_COORD97":180640.37,"N_COORD97":2559584.27,"ADDRESS":"茄拔３５５之５號","OBJECTID":229409},"geometry":{"x":180640.37000000104,"y":2559584.2700000014}},{"attributes":{"ID":229414,"DIS_CODE":0,"TOWNNAME":"善化區","LI":"嘉南里","LIN":"12鄰","STREET":" ","SECT":" ","MAREA":"茄拔","LANE":" ","ALLEY":" ","HOUSE_NO":"３５０之３號","E_COORD97":180557.37,"N_COORD97":2559640.27,"ADDRESS":"茄拔３５０之３號","OBJECTID":229410},"geometry":{"x":180557.37000000104,"y":2559640.2699999996}},{"attributes":{"ID":229415,"DIS_CODE":0,"TOWNNAME":"善化區","LI":"東昌里","LIN":"11鄰","STREET":" ","SECT":" ","MAREA":"東勢寮","LANE":" ","ALLEY":" ","HOUSE_NO":"９８號","E_COORD97":180135.84,"N_COORD97":2561813.7599999998,"ADDRESS":"東勢寮９８號","OBJECTID":229411},"geometry":{"x":180135.83999999985,"y":2561813.7599999998}},{"attributes":{"ID":229416,"DIS_CODE":0,"TOWNNAME":"善化區","LI":"嘉南里","LIN":"13鄰","STREET":" ","SECT":" ","MAREA":"茄拔","LANE":" ","ALLEY":" ","HOUSE_NO":"３２６號","E_COORD97":180872.63,"N_COORD97":2559515.5099999998,"ADDRESS":"茄拔３２６號","OBJECTID":229412},"geometry":{"x":180872.63000000082,"y":2559515.5100000016}},{"attributes":{"ID":229417,"DIS_CODE":0,"TOWNNAME":"善化區","LI":"溪美里","LIN":"1鄰","STREET":" ","SECT":" ","MAREA":"溪尾","LANE":" ","ALLEY":" ","HOUSE_NO":"１００１之２號","E_COORD97":177155.95999999999,"N_COORD97":2560026.02,"ADDRESS":"溪尾１００１之２號","OBJECTID":229413},"geometry":{"x":177155.96000000089,"y":2560026.0199999977}},{"attributes":{"ID":229418,"DIS_CODE":0,"TOWNNAME":"東區","LI":"崇誨里","LIN":"34鄰","STREET":"東寧路","SECT":" ","MAREA":" ","LANE":" ","ALLEY":" ","HOUSE_NO":"２５６號","E_COORD97":170610.75,"N_COORD97":2543451.1899999999,"ADDRESS":"東寧路２５６號","OBJECTID":229414},"geometry":{"x":170610.75000000093,"y":2543451.1899999995}},{"attributes":{"ID":229419,"DIS_CODE":0,"TOWNNAME":"東區","LI":"崇誨里","LIN":"34鄰","STREET":"東寧路","SECT":" ","MAREA":" ","LANE":" ","ALLEY":" ","HOUSE_NO":"２５８號","E_COORD97":170614.28,"N_COORD97":2543449.8199999998,"ADDRESS":"東寧路２５８號","OBJECTID":229415},"geometry":{"x":170614.28000000119,"y":2543449.8200000022}},{"attributes":{"ID":229420,"DIS_CODE":0,"TOWNNAME":"麻豆區","LI":"南勢里","LIN":"23鄰","STREET":" ","SECT":" ","MAREA":"南勢","LANE":" ","ALLEY":" ","HOUSE_NO":"７２號之１","E_COORD97":174593.98999999999,"N_COORD97":2564782.2799999998,"ADDRESS":"南勢７２號之１","OBJECTID":229416},"geometry":{"x":174593.99000000022,"y":2564782.2800000012}},{"attributes":{"ID":229421,"DIS_CODE":0,"TOWNNAME":"善化區","LI":"坐駕里","LIN":"17鄰","STREET":"興華路","SECT":" ","MAREA":" ","LANE":"３０７巷","ALLEY":" ","HOUSE_NO":"３號","E_COORD97":177787.57999999999,"N_COORD97":2558466.75,"ADDRESS":"興華路３０７巷３號","OBJECTID":229417},"geometry":{"x":177787.58000000101,"y":2558466.7500000019}},{"attributes":{"ID":229422,"DIS_CODE":0,"TOWNNAME":"麻豆區","LI":"南勢里","LIN":"23鄰","STREET":" ","SECT":" ","MAREA":"南勢","LANE":" ","ALLEY":" ","HOUSE_NO":"７２號之２","E_COORD97":174646.22,"N_COORD97":2564794.9399999999,"ADDRESS":"南勢７２號之２","OBJECTID":229418},"geometry":{"x":174646.21999999974,"y":2564794.9400000013}},{"attributes":{"ID":229423,"DIS_CODE":0,"TOWNNAME":"麻豆區","LI":"南勢里","LIN":"23鄰","STREET":" ","SECT":" ","MAREA":"南勢","LANE":" ","ALLEY":" ","HOUSE_NO":"７２號之５","E_COORD97":174555.23000000001,"N_COORD97":2564734.4300000002,"ADDRESS":"南勢７２號之５","OBJECTID":229419},"geometry":{"x":174555.23000000045,"y":2564734.4300000016}},{"attributes":{"ID":229424,"DIS_CODE":0,"TOWNNAME":"麻豆區","LI":"南勢里","LIN":"23鄰","STREET":" ","SECT":" ","MAREA":"南勢","LANE":" ","ALLEY":" ","HOUSE_NO":"７２號之６","E_COORD97":174675.23999999999,"N_COORD97":2564777.2000000002,"ADDRESS":"南勢７２號之６","OBJECTID":229420},"geometry":{"x":174675.24000000022,"y":2564777.1999999993}},{"attributes":{"ID":229425,"DIS_CODE":0,"TOWNNAME":"永康區","LI":"新樹里","LIN":"1鄰","STREET":"富強路","SECT":"二段","MAREA":" ","LANE":"２７５巷","ALLEY":" ","HOUSE_NO":"５號","E_COORD97":175603,"N_COORD97":2547425.27,"ADDRESS":"富強路二段２７５巷５號","OBJECTID":229421},"geometry":{"x":175603.00000000093,"y":2547425.2699999996}},{"attributes":{"ID":229426,"DIS_CODE":0,"TOWNNAME":"永康區","LI":"網寮里","LIN":"21鄰","STREET":"文化路","SECT":" ","MAREA":" ","LANE":"２４２巷","ALLEY":" ","HOUSE_NO":"２８之１號","E_COORD97":173612.07999999999,"N_COORD97":2546182.3300000001,"ADDRESS":"文化路２４２巷２８之１號","OBJECTID":229422},"geometry":{"x":173612.08000000194,"y":2546182.3300000019}},{"attributes":{"ID":229427,"DIS_CODE":0,"TOWNNAME":"東區","LI":"崇誨里","LIN":"34鄰","STREET":"東寧路","SECT":" ","MAREA":" ","LANE":" ","ALLEY":" ","HOUSE_NO":"２６０號","E_COORD97":170618.04000000001,"N_COORD97":2543449.02,"ADDRESS":"東寧路２６０號","OBJECTID":229423},"geometry":{"x":170618.04000000004,"y":2543449.0199999996}},{"attributes":{"ID":229428,"DIS_CODE":0,"TOWNNAME":"東區","LI":"崇誨里","LIN":"34鄰","STREET":"東寧路","SECT":" ","MAREA":" ","LANE":" ","ALLEY":" ","HOUSE_NO":"２６２號","E_COORD97":170621.92000000001,"N_COORD97":2543448,"ADDRESS":"東寧路２６２號","OBJECTID":229424},"geometry":{"x":170621.91999999993,"y":2543448.0000000037}},{"attributes":{"ID":229429,"DIS_CODE":0,"TOWNNAME":"東區","LI":"崇誨里","LIN":"34鄰","STREET":"東寧路","SECT":" ","MAREA":" ","LANE":" ","ALLEY":" ","HOUSE_NO":"２６４號","E_COORD97":170626.14000000001,"N_COORD97":2543447.2000000002,"ADDRESS":"東寧路２６４號","OBJECTID":229425},"geometry":{"x":170626.1400000006,"y":2543447.2000000011}},{"attributes":{"ID":229430,"DIS_CODE":0,"TOWNNAME":"善化區","LI":"東關里","LIN":"13鄰","STREET":"中和街","SECT":" ","MAREA":" ","LANE":" ","ALLEY":" ","HOUSE_NO":"１４號","E_COORD97":177421.48000000001,"N_COORD97":2559060,"ADDRESS":"中和街１４號","OBJECTID":229426},"geometry":{"x":177421.48000000045,"y":2559060}},{"attributes":{"ID":229431,"DIS_CODE":0,"TOWNNAME":"仁德區","LI":"大甲里","LIN":"23鄰","STREET":"二仁路","SECT":"一段","MAREA":" ","LANE":"３１５巷","ALLEY":" ","HOUSE_NO":"５８７號","E_COORD97":169038.59,"N_COORD97":2535873.0299999998,"ADDRESS":"二仁路一段３１５巷５８７號","OBJECTID":229427},"geometry":{"x":169038.59000000078,"y":2535873.0300000031}},{"attributes":{"ID":229432,"DIS_CODE":0,"TOWNNAME":"麻豆區","LI":"南勢里","LIN":"23鄰","STREET":" ","SECT":" ","MAREA":"南勢","LANE":" ","ALLEY":" ","HOUSE_NO":"７３號之６","E_COORD97":174702.5,"N_COORD97":2564872.6699999999,"ADDRESS":"南勢７３號之６","OBJECTID":229428},"geometry":{"x":174702.50000000186,"y":2564872.6699999999}},{"attributes":{"ID":229433,"DIS_CODE":0,"TOWNNAME":"麻豆區","LI":"南勢里","LIN":"23鄰","STREET":" ","SECT":" ","MAREA":"南勢","LANE":" ","ALLEY":" ","HOUSE_NO":"７３號之７","E_COORD97":174774.97,"N_COORD97":2564833.7799999998,"ADDRESS":"南勢７３號之７","OBJECTID":229429},"geometry":{"x":174774.96999999974,"y":2564833.7799999993}},{"attributes":{"ID":229434,"DIS_CODE":0,"TOWNNAME":"仁德區","LI":"土庫里","LIN":"23鄰","STREET":"太子二街","SECT":" ","MAREA":" ","LANE":"１２１巷","ALLEY":" ","HOUSE_NO":"８號","E_COORD97":174479.64000000001,"N_COORD97":2543339.2599999998,"ADDRESS":"太子二街１２１巷８號","OBJECTID":229430},"geometry":{"x":174479.6400000006,"y":2543339.2599999998}},{"attributes":{"ID":229435,"DIS_CODE":0,"TOWNNAME":"麻豆區","LI":"南勢里","LIN":"23鄰","STREET":" ","SECT":" ","MAREA":"南勢","LANE":" ","ALLEY":" ","HOUSE_NO":"７３號","E_COORD97":174729.17999999999,"N_COORD97":2564830.4199999999,"ADDRESS":"南勢７３號","OBJECTID":229431},"geometry":{"x":174729.1799999997,"y":2564830.4199999999}},{"attributes":{"ID":229436,"DIS_CODE":0,"TOWNNAME":"麻豆區","LI":"南勢里","LIN":"23鄰","STREET":" ","SECT":" ","MAREA":"南勢","LANE":" ","ALLEY":" ","HOUSE_NO":"７４號","E_COORD97":174813.13,"N_COORD97":2564795.4199999999,"ADDRESS":"南勢７４號","OBJECTID":229432},"geometry":{"x":174813.12999999989,"y":2564795.4200000018}},{"attributes":{"ID":229437,"DIS_CODE":0,"TOWNNAME":"仁德區","LI":"大甲里","LIN":"23鄰","STREET":"中正西路","SECT":" ","MAREA":" ","LANE":"１０１１巷","ALLEY":" ","HOUSE_NO":"３６０號","E_COORD97":168185.92999999999,"N_COORD97":2535626.7400000002,"ADDRESS":"中正西路１０１１巷３６０號","OBJECTID":229433},"geometry":{"x":168185.9299999997,"y":2535626.7400000002}},{"attributes":{"ID":229438,"DIS_CODE":0,"TOWNNAME":"仁德區","LI":"仁愛里","LIN":"23鄰","STREET":" ","SECT":" ","MAREA":"仁愛","LANE":" ","ALLEY":" ","HOUSE_NO":"４８１號","E_COORD97":170120.20621199999,"N_COORD97":2540085.3981499998,"ADDRESS":"仁愛４８１號","OBJECTID":229434},"geometry":{"x":170120.20621199999,"y":2540085.3981530033}},{"attributes":{"ID":229439,"DIS_CODE":0,"TOWNNAME":"永康區","LI":"復國里","LIN":"3鄰","STREET":"復國一路","SECT":" ","MAREA":" ","LANE":"４４巷","ALLEY":" ","HOUSE_NO":"３２號","E_COORD97":172803.95000000001,"N_COORD97":2544804.0600000001,"ADDRESS":"復國一路４４巷３２號","OBJECTID":229435},"geometry":{"x":172803.95000000019,"y":2544804.0600000042}},{"attributes":{"ID":229440,"DIS_CODE":0,"TOWNNAME":"仁德區","LI":"仁和里","LIN":"23鄰","STREET":" ","SECT":" ","MAREA":"仁和","LANE":" ","ALLEY":" ","HOUSE_NO":"４５５號","E_COORD97":170449.04722499999,"N_COORD97":2539815.75,"ADDRESS":"仁和４５５號","OBJECTID":229436},"geometry":{"x":170449.0472250022,"y":2539815.7500000019}},{"attributes":{"ID":229441,"DIS_CODE":0,"TOWNNAME":"永康區","LI":"復國里","LIN":"3鄰","STREET":"復國一路","SECT":" ","MAREA":" ","LANE":"４４巷","ALLEY":" ","HOUSE_NO":"４３號","E_COORD97":172806.32000000001,"N_COORD97":2544818.77,"ADDRESS":"復國一路４４巷４３號","OBJECTID":229437},"geometry":{"x":172806.3200000003,"y":2544818.7700000033}},{"attributes":{"ID":229442,"DIS_CODE":0,"TOWNNAME":"永康區","LI":"復國里","LIN":"3鄰","STREET":"復國一路","SECT":" ","MAREA":" ","LANE":"４４巷","ALLEY":" ","HOUSE_NO":"４０號","E_COORD97":172824.03,"N_COORD97":2544806.1499999999,"ADDRESS":"復國一路４４巷４０號","OBJECTID":229438},"geometry":{"x":172824.03000000026,"y":2544806.1500000004}},{"attributes":{"ID":229443,"DIS_CODE":0,"TOWNNAME":"仁德區","LI":"仁和里","LIN":"23鄰","STREET":" ","SECT":" ","MAREA":"仁和","LANE":" ","ALLEY":" ","HOUSE_NO":"４５９號","E_COORD97":170460.59439300001,"N_COORD97":2539815.75,"ADDRESS":"仁和４５９號","OBJECTID":229439},"geometry":{"x":170460.59439299908,"y":2539815.7500000019}},{"attributes":{"ID":229444,"DIS_CODE":0,"TOWNNAME":"永康區","LI":"復國里","LIN":"3鄰","STREET":"復國一路","SECT":" ","MAREA":" ","LANE":"４４巷","ALLEY":" ","HOUSE_NO":"３０號","E_COORD97":172798.66,"N_COORD97":2544803.5099999998,"ADDRESS":"復國一路４４巷３０號","OBJECTID":229440},"geometry":{"x":172798.66000000108,"y":2544803.5099999979}},{"attributes":{"ID":229445,"DIS_CODE":0,"TOWNNAME":"永康區","LI":"復國里","LIN":"3鄰","STREET":"復國一路","SECT":" ","MAREA":" ","LANE":"４４巷","ALLEY":" ","HOUSE_NO":"２７號","E_COORD97":172783.82000000001,"N_COORD97":2544819.6299999999,"ADDRESS":"復國一路４４巷２７號","OBJECTID":229441},"geometry":{"x":172783.82000000123,"y":2544819.6300000008}},{"attributes":{"ID":229446,"DIS_CODE":0,"TOWNNAME":"仁德區","LI":"仁和里","LIN":"23鄰","STREET":" ","SECT":" ","MAREA":"仁和","LANE":" ","ALLEY":" ","HOUSE_NO":"４６４號","E_COORD97":170446.239886,"N_COORD97":2539808.5499999998,"ADDRESS":"仁和４６４號","OBJECTID":229442},"geometry":{"x":170446.23988600075,"y":2539808.5500000026}},{"attributes":{"ID":229447,"DIS_CODE":0,"TOWNNAME":"永康區","LI":"復國里","LIN":"3鄰","STREET":"復國一路","SECT":" ","MAREA":" ","LANE":"４４巷","ALLEY":" ","HOUSE_NO":"３１號","E_COORD97":172791.66,"N_COORD97":2544819.8799999999,"ADDRESS":"復國一路４４巷３１號","OBJECTID":229443},"geometry":{"x":172791.66000000108,"y":2544819.879999999}},{"attributes":{"ID":229448,"DIS_CODE":0,"TOWNNAME":"永康區","LI":"崑山里","LIN":"3鄰","STREET":"永大路","SECT":"一段","MAREA":" ","LANE":"２８７巷","ALLEY":" ","HOUSE_NO":"１２８號","E_COORD97":173686.07000000001,"N_COORD97":2544347.98,"ADDRESS":"永大路一段２８７巷１２８號","OBJECTID":229444},"geometry":{"x":173686.0700000003,"y":2544347.9800000023}},{"attributes":{"ID":229449,"DIS_CODE":0,"TOWNNAME":"永康區","LI":"二王里","LIN":"3鄰","STREET":"二王路","SECT":" ","MAREA":" ","LANE":"１３５巷","ALLEY":" ","HOUSE_NO":"１０號","E_COORD97":173049.17999999999,"N_COORD97":2546576.9900000002,"ADDRESS":"二王路１３５巷１０號","OBJECTID":229445},"geometry":{"x":173049.1799999997,"y":2546576.9900000002}},{"attributes":{"ID":229450,"DIS_CODE":0,"TOWNNAME":"東區","LI":"崇誨里","LIN":"34鄰","STREET":"東寧路","SECT":" ","MAREA":" ","LANE":" ","ALLEY":" ","HOUSE_NO":"２４２號","E_COORD97":170579,"N_COORD97":2543463.3399999999,"ADDRESS":"東寧路２４２號","OBJECTID":229446},"geometry":{"x":170579,"y":2543463.3400000017}},{"attributes":{"ID":229451,"DIS_CODE":0,"TOWNNAME":"東區","LI":"中西里","LIN":"34鄰","STREET":"林森路","SECT":"二段","MAREA":" ","LANE":" ","ALLEY":" ","HOUSE_NO":"１０７號之１","E_COORD97":170413.5,"N_COORD97":2543423.71,"ADDRESS":"林森路二段１０７號之１","OBJECTID":229447},"geometry":{"x":170413.5,"y":2543423.7100000046}},{"attributes":{"ID":229452,"DIS_CODE":0,"TOWNNAME":"東區","LI":"中西里","LIN":"34鄰","STREET":"林森路","SECT":"二段","MAREA":" ","LANE":" ","ALLEY":" ","HOUSE_NO":"１０７號之２","E_COORD97":170413.5,"N_COORD97":2543423.71,"ADDRESS":"林森路二段１０７號之２","OBJECTID":229448},"geometry":{"x":170413.5,"y":2543423.7100000046}},{"attributes":{"ID":229453,"DIS_CODE":0,"TOWNNAME":"東區","LI":"中西里","LIN":"34鄰","STREET":"林森路","SECT":"二段","MAREA":" ","LANE":" ","ALLEY":" ","HOUSE_NO":"１０７號之３","E_COORD97":170413.5,"N_COORD97":2543423.71,"ADDRESS":"林森路二段１０７號之３","OBJECTID":229449},"geometry":{"x":170413.5,"y":2543423.7100000046}},{"attributes":{"ID":229454,"DIS_CODE":0,"TOWNNAME":"仁德區","LI":"仁義里","LIN":"23鄰","STREET":"正義路","SECT":" ","MAREA":" ","LANE":"１５７巷","ALLEY":" ","HOUSE_NO":"５號","E_COORD97":173789.56,"N_COORD97":2541430.2599999998,"ADDRESS":"正義路１５７巷５號","OBJECTID":229450},"geometry":{"x":173789.55999999866,"y":2541430.2600000016}},{"attributes":{"ID":229455,"DIS_CODE":0,"TOWNNAME":"仁德區","LI":"仁德里","LIN":"23鄰","STREET":"文心路","SECT":" ","MAREA":" ","LANE":"５８巷","ALLEY":" ","HOUSE_NO":"３號","E_COORD97":172195.64000000001,"N_COORD97":2541392.0699999998,"ADDRESS":"文心路５８巷３號","OBJECTID":229451},"geometry":{"x":172195.64000000153,"y":2541392.0700000003}},{"attributes":{"ID":229456,"DIS_CODE":0,"TOWNNAME":"南區","LI":"郡南里","LIN":"17鄰","STREET":"永成路","SECT":"三段","MAREA":" ","LANE":"２５巷","ALLEY":" ","HOUSE_NO":"１９號","E_COORD97":167446.02588100001,"N_COORD97":2540403.1490500001,"ADDRESS":"永成路三段２５巷１９號","OBJECTID":229452},"geometry":{"x":167446.02588099986,"y":2540403.149054002}},{"attributes":{"ID":229457,"DIS_CODE":0,"TOWNNAME":"仁德區","LI":"太子里","LIN":"23鄰","STREET":"中正路","SECT":"三段","MAREA":" ","LANE":"７０４巷","ALLEY":" ","HOUSE_NO":"４號","E_COORD97":173786.92999999999,"N_COORD97":2543589.52,"ADDRESS":"中正路三段７０４巷４號","OBJECTID":229453},"geometry":{"x":173786.9299999997,"y":2543589.5199999977}},{"attributes":{"ID":229458,"DIS_CODE":0,"TOWNNAME":"永康區","LI":"大橋里","LIN":"3鄰","STREET":"大橋一街","SECT":" ","MAREA":" ","LANE":"７３巷","ALLEY":" ","HOUSE_NO":"８０號","E_COORD97":170730.39999999999,"N_COORD97":2546621.25,"ADDRESS":"大橋一街７３巷８０號","OBJECTID":229454},"geometry":{"x":170730.4000000013,"y":2546621.2500000019}},{"attributes":{"ID":229459,"DIS_CODE":0,"TOWNNAME":"永康區","LI":"二王里","LIN":"3鄰","STREET":"二王路","SECT":" ","MAREA":" ","LANE":"１３５巷","ALLEY":" ","HOUSE_NO":"１６號","E_COORD97":173058.62,"N_COORD97":2546577.2400000002,"ADDRESS":"二王路１３５巷１６號","OBJECTID":229455},"geometry":{"x":173058.62000000011,"y":2546577.2400000021}},{"attributes":{"ID":229460,"DIS_CODE":0,"TOWNNAME":"永康區","LI":"大橋里","LIN":"3鄰","STREET":"大橋一街","SECT":" ","MAREA":" ","LANE":"７３巷","ALLEY":" ","HOUSE_NO":"７８號","E_COORD97":170732.85999999999,"N_COORD97":2546618.5,"ADDRESS":"大橋一街７３巷７８號","OBJECTID":229456},"geometry":{"x":170732.86000000034,"y":2546618.5000000019}},{"attributes":{"ID":229461,"DIS_CODE":0,"TOWNNAME":"東區","LI":"南聖里","LIN":"3鄰","STREET":"裕農路","SECT":" ","MAREA":" ","LANE":"６６８巷","ALLEY":" ","HOUSE_NO":"２６號之２","E_COORD97":171727.48999999999,"N_COORD97":2543130.04,"ADDRESS":"裕農路６６８巷２６號之２","OBJECTID":229457},"geometry":{"x":171727.49000000022,"y":2543130.0399999991}},{"attributes":{"ID":229462,"DIS_CODE":0,"TOWNNAME":"東區","LI":"富強里","LIN":"3鄰","STREET":"中華東路","SECT":"二段","MAREA":" ","LANE":"２２巷","ALLEY":" ","HOUSE_NO":"６號","E_COORD97":171371.5,"N_COORD97":2543111.0699999998,"ADDRESS":"中華東路二段２２巷６號","OBJECTID":229458},"geometry":{"x":171371.50000000186,"y":2543111.0700000003}},{"attributes":{"ID":229463,"DIS_CODE":0,"TOWNNAME":"永康區","LI":"崑山里","LIN":"3鄰","STREET":"永大路","SECT":"一段","MAREA":" ","LANE":"２８７巷","ALLEY":" ","HOUSE_NO":"１５０號","E_COORD97":173645.12,"N_COORD97":2544334.3300000001,"ADDRESS":"永大路一段２８７巷１５０號","OBJECTID":229459},"geometry":{"x":173645.12000000011,"y":2544334.3300000019}},{"attributes":{"ID":229464,"DIS_CODE":0,"TOWNNAME":"仁德區","LI":"後壁里","LIN":"3鄰","STREET":"中正路","SECT":"二段","MAREA":" ","LANE":"３１８巷","ALLEY":" ","HOUSE_NO":"１０號","E_COORD97":173281.38,"N_COORD97":2539009.52,"ADDRESS":"中正路二段３１８巷１０號","OBJECTID":229460},"geometry":{"x":173281.38000000082,"y":2539009.5200000033}},{"attributes":{"ID":229465,"DIS_CODE":0,"TOWNNAME":"東區","LI":"東聖里","LIN":"3鄰","STREET":"中華東路","SECT":"二段","MAREA":" ","LANE":"７巷","ALLEY":" ","HOUSE_NO":"１５號","E_COORD97":171475.89999999999,"N_COORD97":2543129,"ADDRESS":"中華東路二段７巷１５號","OBJECTID":229461},"geometry":{"x":171475.90000000224,"y":2543128.9999999981}},{"attributes":{"ID":229466,"DIS_CODE":0,"TOWNNAME":"東區","LI":"東聖里","LIN":"3鄰","STREET":"中華東路","SECT":"二段","MAREA":" ","LANE":"７巷","ALLEY":" ","HOUSE_NO":"１７號","E_COORD97":171476.98999999999,"N_COORD97":2543124.79,"ADDRESS":"中華東路二段７巷１７號","OBJECTID":229462},"geometry":{"x":171476.99000000115,"y":2543124.7899999991}},{"attributes":{"ID":229467,"DIS_CODE":0,"TOWNNAME":"東區","LI":"東聖里","LIN":"3鄰","STREET":"中華東路","SECT":"二段","MAREA":" ","LANE":"７巷","ALLEY":" ","HOUSE_NO":"１９號","E_COORD97":171475.48999999999,"N_COORD97":2543120.4399999999,"ADDRESS":"中華東路二段７巷１９號","OBJECTID":229463},"geometry":{"x":171475.49000000115,"y":2543120.4400000013}},{"attributes":{"ID":229468,"DIS_CODE":0,"TOWNNAME":"東區","LI":"東聖里","LIN":"3鄰","STREET":"富農街","SECT":"二段","MAREA":" ","LANE":"１０９巷","ALLEY":" ","HOUSE_NO":"１１號","E_COORD97":171590.13,"N_COORD97":2543143.7200000002,"ADDRESS":"富農街二段１０９巷１１號","OBJECTID":229464},"geometry":{"x":171590.12999999989,"y":2543143.7200000007}},{"attributes":{"ID":229469,"DIS_CODE":0,"TOWNNAME":"東區","LI":"東聖里","LIN":"3鄰","STREET":"富農街","SECT":"二段","MAREA":" ","LANE":"１０９巷","ALLEY":" ","HOUSE_NO":"１５號","E_COORD97":171582.26000000001,"N_COORD97":2543144.0099999998,"ADDRESS":"富農街二段１０９巷１５號","OBJECTID":229465},"geometry":{"x":171582.25999999978,"y":2543144.0100000016}},{"attributes":{"ID":229470,"DIS_CODE":0,"TOWNNAME":"東區","LI":"東聖里","LIN":"3鄰","STREET":"富農街","SECT":"二段","MAREA":" ","LANE":"１０９巷","ALLEY":" ","HOUSE_NO":"１９號","E_COORD97":171575.26000000001,"N_COORD97":2543143.8199999998,"ADDRESS":"富農街二段１０９巷１９號","OBJECTID":229466},"geometry":{"x":171575.26000000071,"y":2543143.8200000003}},{"attributes":{"ID":229471,"DIS_CODE":0,"TOWNNAME":"東區","LI":"東聖里","LIN":"3鄰","STREET":"富農街","SECT":"二段","MAREA":" ","LANE":"１０９巷","ALLEY":" ","HOUSE_NO":"１號","E_COORD97":171609.85000000001,"N_COORD97":2543146.73,"ADDRESS":"富農街二段１０９巷１號","OBJECTID":229467},"geometry":{"x":171609.85000000056,"y":2543146.7300000023}},{"attributes":{"ID":229472,"DIS_CODE":0,"TOWNNAME":"東區","LI":"東聖里","LIN":"3鄰","STREET":"富農街","SECT":"二段","MAREA":" ","LANE":"１０９巷","ALLEY":" ","HOUSE_NO":"２１號","E_COORD97":171570.98000000001,"N_COORD97":2543145.3700000001,"ADDRESS":"富農街二段１０９巷２１號","OBJECTID":229468},"geometry":{"x":171570.98000000138,"y":2543145.3700000029}},{"attributes":{"ID":229473,"DIS_CODE":0,"TOWNNAME":"永康區","LI":"三合里","LIN":"3鄰","STREET":"中華二路","SECT":" ","MAREA":" ","LANE":"８８巷","ALLEY":" ","HOUSE_NO":"１２號","E_COORD97":172085.70999999999,"N_COORD97":2545481.25,"ADDRESS":"中華二路８８巷１２號","OBJECTID":229469},"geometry":{"x":172085.71000000089,"y":2545481.2500000019}},{"attributes":{"ID":229474,"DIS_CODE":0,"TOWNNAME":"永康區","LI":"三合里","LIN":"3鄰","STREET":"中華二路","SECT":" ","MAREA":" ","LANE":"８８巷","ALLEY":" ","HOUSE_NO":"８號","E_COORD97":172084.85999999999,"N_COORD97":2545468.7400000002,"ADDRESS":"中華二路８８巷８號","OBJECTID":229470},"geometry":{"x":172084.8600000022,"y":2545468.7400000021}},{"attributes":{"ID":229475,"DIS_CODE":0,"TOWNNAME":"永康區","LI":"三民里","LIN":"3鄰","STREET":"三民街","SECT":" ","MAREA":" ","LANE":"９０巷","ALLEY":" ","HOUSE_NO":"１８號","E_COORD97":172986.95999999999,"N_COORD97":2550295.2799999998,"ADDRESS":"三民街９０巷１８號","OBJECTID":229471},"geometry":{"x":172986.95999999996,"y":2550295.2800000012}},{"attributes":{"ID":229476,"DIS_CODE":0,"TOWNNAME":"永康區","LI":"三合里","LIN":"3鄰","STREET":"中華二路","SECT":" ","MAREA":" ","LANE":"８８巷","ALLEY":" ","HOUSE_NO":"３０號","E_COORD97":172084.79999999999,"N_COORD97":2545521.5,"ADDRESS":"中華二路８８巷３０號","OBJECTID":229472},"geometry":{"x":172084.80000000075,"y":2545521.5}},{"attributes":{"ID":229477,"DIS_CODE":0,"TOWNNAME":"東區","LI":"中西里","LIN":"34鄰","STREET":"林森路","SECT":"二段","MAREA":" ","LANE":" ","ALLEY":" ","HOUSE_NO":"１０７號之４","E_COORD97":170413.5,"N_COORD97":2543423.71,"ADDRESS":"林森路二段１０７號之４","OBJECTID":229473},"geometry":{"x":170413.5,"y":2543423.7100000046}},{"attributes":{"ID":229478,"DIS_CODE":0,"TOWNNAME":"新營區","LI":"新東里","LIN":"15鄰","STREET":"東智街","SECT":" ","MAREA":" ","LANE":" ","ALLEY":" ","HOUSE_NO":"１２號","E_COORD97":181002.88,"N_COORD97":2579590.1899999999,"ADDRESS":"東智街１２號","OBJECTID":229474},"geometry":{"x":181002.88000000082,"y":2579590.1899999995}},{"attributes":{"ID":229479,"DIS_CODE":0,"TOWNNAME":"仁德區","LI":"仁德里","LIN":"23鄰","STREET":"文心路","SECT":" ","MAREA":" ","LANE":" ","ALLEY":" ","HOUSE_NO":"５６號","E_COORD97":172175.5,"N_COORD97":2541381.1699999999,"ADDRESS":"文心路５６號","OBJECTID":229475},"geometry":{"x":172175.50000000093,"y":2541381.1699999999}},{"attributes":{"ID":229480,"DIS_CODE":0,"TOWNNAME":"仁德區","LI":"仁愛里","LIN":"23鄰","STREET":" ","SECT":" ","MAREA":"仁愛","LANE":" ","ALLEY":" ","HOUSE_NO":"４９３號之１","E_COORD97":170067.92614299999,"N_COORD97":2540048.5681699999,"ADDRESS":"仁愛４９３號之１","OBJECTID":229476},"geometry":{"x":170067.9261429999,"y":2540048.5681730006}},{"attributes":{"ID":229481,"DIS_CODE":0,"TOWNNAME":"仁德區","LI":"仁德里","LIN":"23鄰","STREET":"文心路","SECT":" ","MAREA":" ","LANE":"５８巷","ALLEY":" ","HOUSE_NO":"２９號","E_COORD97":172255.78,"N_COORD97":2541376.0800000001,"ADDRESS":"文心路５８巷２９號","OBJECTID":229477},"geometry":{"x":172255.78000000026,"y":2541376.0800000038}},{"attributes":{"ID":229482,"DIS_CODE":0,"TOWNNAME":"仁德區","LI":"仁德里","LIN":"23鄰","STREET":"文心路","SECT":" ","MAREA":" ","LANE":"５８巷","ALLEY":" ","HOUSE_NO":"３０號","E_COORD97":172225.47,"N_COORD97":2541349.8300000001,"ADDRESS":"文心路５８巷３０號","OBJECTID":229478},"geometry":{"x":172225.46999999974,"y":2541349.8300000001}},{"attributes":{"ID":229483,"DIS_CODE":0,"TOWNNAME":"仁德區","LI":"仁德里","LIN":"23鄰","STREET":"文心路","SECT":" ","MAREA":" ","LANE":"５８巷","ALLEY":" ","HOUSE_NO":"６２號","E_COORD97":172256.78,"N_COORD97":2541336.5800000001,"ADDRESS":"文心路５８巷６２號","OBJECTID":229479},"geometry":{"x":172256.78000000119,"y":2541336.5800000019}},{"attributes":{"ID":229484,"DIS_CODE":0,"TOWNNAME":"仁德區","LI":"仁德里","LIN":"23鄰","STREET":"文心路","SECT":" ","MAREA":" ","LANE":"５８巷","ALLEY":" ","HOUSE_NO":"８號","E_COORD97":172195.79000000001,"N_COORD97":2541373.3300000001,"ADDRESS":"文心路５８巷８號","OBJECTID":229480},"geometry":{"x":172195.79000000097,"y":2541373.3300000001}},{"attributes":{"ID":229485,"DIS_CODE":0,"TOWNNAME":"仁德區","LI":"仁德里","LIN":"23鄰","STREET":"文心路","SECT":" ","MAREA":" ","LANE":"５８巷","ALLEY":" ","HOUSE_NO":"１０號","E_COORD97":172201.79000000001,"N_COORD97":2541371.8300000001,"ADDRESS":"文心路５８巷１０號","OBJECTID":229481},"geometry":{"x":172201.7900000019,"y":2541371.8300000019}},{"attributes":{"ID":229486,"DIS_CODE":0,"TOWNNAME":"仁德區","LI":"仁德里","LIN":"23鄰","STREET":"文心路","SECT":" ","MAREA":" ","LANE":"５８巷","ALLEY":" ","HOUSE_NO":"４２號","E_COORD97":172242.48000000001,"N_COORD97":2541361.8300000001,"ADDRESS":"文心路５８巷４２號","OBJECTID":229482},"geometry":{"x":172242.48000000138,"y":2541361.8300000019}},{"attributes":{"ID":229487,"DIS_CODE":0,"TOWNNAME":"仁德區","LI":"仁德里","LIN":"23鄰","STREET":"文心路","SECT":" ","MAREA":" ","LANE":"５８巷","ALLEY":" ","HOUSE_NO":"２５號","E_COORD97":172246.19,"N_COORD97":2541379.0800000001,"ADDRESS":"文心路５８巷２５號","OBJECTID":229483},"geometry":{"x":172246.19000000041,"y":2541379.0799999982}},{"attributes":{"ID":229488,"DIS_CODE":0,"TOWNNAME":"永康區","LI":"復興里","LIN":"4鄰","STREET":"復興路","SECT":" ","MAREA":" ","LANE":"４２３巷","ALLEY":" ","HOUSE_NO":"７６號","E_COORD97":172225.89000000001,"N_COORD97":2544074.52,"ADDRESS":"復興路４２３巷７６號","OBJECTID":229484},"geometry":{"x":172225.88999999966,"y":2544074.5200000033}},{"attributes":{"ID":229489,"DIS_CODE":0,"TOWNNAME":"永康區","LI":"新樹里","LIN":"11鄰","STREET":"富強路","SECT":"二段","MAREA":" ","LANE":"１２８巷","ALLEY":" ","HOUSE_NO":"３３號","E_COORD97":175751.76999999999,"N_COORD97":2547134.6600000001,"ADDRESS":"富強路二段１２８巷３３號","OBJECTID":229485},"geometry":{"x":175751.77000000048,"y":2547134.6600000001}},{"attributes":{"ID":229490,"DIS_CODE":0,"TOWNNAME":"永康區","LI":"新樹里","LIN":"1鄰","STREET":"富強路","SECT":"二段","MAREA":" ","LANE":"２７５巷","ALLEY":" ","HOUSE_NO":"１號","E_COORD97":175598.98000000001,"N_COORD97":2547440.2799999998,"ADDRESS":"富強路二段２７５巷１號","OBJECTID":229486},"geometry":{"x":175598.98000000138,"y":2547440.2800000012}},{"attributes":{"ID":229491,"DIS_CODE":0,"TOWNNAME":"永康區","LI":"大灣里","LIN":"3鄰","STREET":"大同街","SECT":" ","MAREA":" ","LANE":"２１８巷","ALLEY":" ","HOUSE_NO":"３號","E_COORD97":174867.54000000001,"N_COORD97":2545699.7799999998,"ADDRESS":"大同街２１８巷３號","OBJECTID":229487},"geometry":{"x":174867.54000000004,"y":2545699.7800000031}},{"attributes":{"ID":229492,"DIS_CODE":0,"TOWNNAME":"永康區","LI":"大灣里","LIN":"3鄰","STREET":"大同街","SECT":" ","MAREA":" ","LANE":"２１８巷","ALLEY":" ","HOUSE_NO":"１號","E_COORD97":174857.32999999999,"N_COORD97":2545681.4399999999,"ADDRESS":"大同街２１８巷１號","OBJECTID":229488},"geometry":{"x":174857.33000000007,"y":2545681.4399999995}},{"attributes":{"ID":229493,"DIS_CODE":0,"TOWNNAME":"永康區","LI":"大灣里","LIN":"3鄰","STREET":"大同街","SECT":" ","MAREA":" ","LANE":"２１８巷","ALLEY":" ","HOUSE_NO":"１２號","E_COORD97":174864.69,"N_COORD97":2545652.7400000002,"ADDRESS":"大同街２１８巷１２號","OBJECTID":229489},"geometry":{"x":174864.69000000134,"y":2545652.7400000002}},{"attributes":{"ID":229494,"DIS_CODE":0,"TOWNNAME":"永康區","LI":"復國里","LIN":"3鄰","STREET":"復國一路","SECT":" ","MAREA":" ","LANE":"４４巷","ALLEY":" ","HOUSE_NO":"３８號","E_COORD97":172818.85000000001,"N_COORD97":2544805.8100000001,"ADDRESS":"復國一路４４巷３８號","OBJECTID":229490},"geometry":{"x":172818.85000000056,"y":2544805.8100000042}},{"attributes":{"ID":229495,"DIS_CODE":0,"TOWNNAME":"永康區","LI":"復國里","LIN":"3鄰","STREET":"復國一路","SECT":" ","MAREA":" ","LANE":"４４巷","ALLEY":" ","HOUSE_NO":"３９號","E_COORD97":172808.51999999999,"N_COORD97":2544837.27,"ADDRESS":"復國一路４４巷３９號","OBJECTID":229491},"geometry":{"x":172808.52000000048,"y":2544837.2700000014}},{"attributes":{"ID":229496,"DIS_CODE":0,"TOWNNAME":"永康區","LI":"復國里","LIN":"3鄰","STREET":"復國一路","SECT":" ","MAREA":" ","LANE":"４４巷","ALLEY":" ","HOUSE_NO":"５５號","E_COORD97":172830.14999999999,"N_COORD97":2544820.77,"ADDRESS":"復國一路４４巷５５號","OBJECTID":229492},"geometry":{"x":172830.15000000037,"y":2544820.7699999996}},{"attributes":{"ID":229497,"DIS_CODE":0,"TOWNNAME":"永康區","LI":"復華里","LIN":"3鄰","STREET":"復國二路","SECT":" ","MAREA":" ","LANE":"３３８巷","ALLEY":" ","HOUSE_NO":"５號","E_COORD97":173046.45999999999,"N_COORD97":2546129.3999999999,"ADDRESS":"復國二路３３８巷５號","OBJECTID":229493},"geometry":{"x":173046.46000000183,"y":2546129.4000000004}},{"attributes":{"ID":229498,"DIS_CODE":0,"TOWNNAME":"永康區","LI":"復華里","LIN":"3鄰","STREET":"復國二路","SECT":" ","MAREA":" ","LANE":"３４０巷","ALLEY":" ","HOUSE_NO":"６號","E_COORD97":173047.26999999999,"N_COORD97":2546153.0600000001,"ADDRESS":"復國二路３４０巷６號","OBJECTID":229494},"geometry":{"x":173047.26999999862,"y":2546153.0600000005}},{"attributes":{"ID":229499,"DIS_CODE":0,"TOWNNAME":"永康區","LI":"復國里","LIN":"3鄰","STREET":"復國一路","SECT":" ","MAREA":" ","LANE":"４４巷","ALLEY":" ","HOUSE_NO":"１４號","E_COORD97":172766.25,"N_COORD97":2544799.7999999998,"ADDRESS":"復國一路４４巷１４號","OBJECTID":229495},"geometry":{"x":172766.25,"y":2544799.8000000026}},{"attributes":{"ID":229500,"DIS_CODE":0,"TOWNNAME":"東區","LI":"中西里","LIN":"34鄰","STREET":"林森路","SECT":"二段","MAREA":" ","LANE":" ","ALLEY":" ","HOUSE_NO":"１０７號之６","E_COORD97":170413.5,"N_COORD97":2543423.71,"ADDRESS":"林森路二段１０７號之６","OBJECTID":229496},"geometry":{"x":170413.5,"y":2543423.7100000046}},{"attributes":{"ID":229501,"DIS_CODE":0,"TOWNNAME":"東區","LI":"中西里","LIN":"34鄰","STREET":"林森路","SECT":"二段","MAREA":" ","LANE":" ","ALLEY":" ","HOUSE_NO":"１０７號之７","E_COORD97":170413.5,"N_COORD97":2543423.71,"ADDRESS":"林森路二段１０７號之７","OBJECTID":229497},"geometry":{"x":170413.5,"y":2543423.7100000046}},{"attributes":{"ID":229502,"DIS_CODE":0,"TOWNNAME":"東區","LI":"中西里","LIN":"34鄰","STREET":"林森路","SECT":"二段","MAREA":" ","LANE":" ","ALLEY":" ","HOUSE_NO":"１０７號之８","E_COORD97":170413.5,"N_COORD97":2543423.71,"ADDRESS":"林森路二段１０７號之８","OBJECTID":229498},"geometry":{"x":170413.5,"y":2543423.7100000046}},{"attributes":{"ID":229503,"DIS_CODE":0,"TOWNNAME":"東區","LI":"中西里","LIN":"34鄰","STREET":"林森路","SECT":"二段","MAREA":" ","LANE":" ","ALLEY":" ","HOUSE_NO":"１０７號之９","E_COORD97":170413.5,"N_COORD97":2543423.71,"ADDRESS":"林森路二段１０７號之９","OBJECTID":229499},"geometry":{"x":170413.5,"y":2543423.7100000046}},{"attributes":{"ID":229504,"DIS_CODE":0,"TOWNNAME":"東區","LI":"中西里","LIN":"34鄰","STREET":"林森路","SECT":"二段","MAREA":" ","LANE":" ","ALLEY":" ","HOUSE_NO":"１０７號之１０","E_COORD97":170413.5,"N_COORD97":2543423.71,"ADDRESS":"林森路二段１０７號之１０","OBJECTID":229500},"geometry":{"x":170413.5,"y":2543423.7100000046}},{"attributes":{"ID":229505,"DIS_CODE":0,"TOWNNAME":"東區","LI":"中西里","LIN":"34鄰","STREET":"林森路","SECT":"二段","MAREA":" ","LANE":" ","ALLEY":" ","HOUSE_NO":"１０７號之１１","E_COORD97":170413.5,"N_COORD97":2543423.71,"ADDRESS":"林森路二段１０７號之１１","OBJECTID":229501},"geometry":{"x":170413.5,"y":2543423.7100000046}},{"attributes":{"ID":229506,"DIS_CODE":0,"TOWNNAME":"東區","LI":"中西里","LIN":"34鄰","STREET":"林森路","SECT":"二段","MAREA":" ","LANE":" ","ALLEY":" ","HOUSE_NO":"１１１號之１","E_COORD97":170413.5,"N_COORD97":2543423.71,"ADDRESS":"林森路二段１１１號之１","OBJECTID":229502},"geometry":{"x":170413.5,"y":2543423.7100000046}},{"attributes":{"ID":229507,"DIS_CODE":0,"TOWNNAME":"東區","LI":"中西里","LIN":"34鄰","STREET":"林森路","SECT":"二段","MAREA":" ","LANE":" ","ALLEY":" ","HOUSE_NO":"１１１號之２","E_COORD97":170413.5,"N_COORD97":2543423.71,"ADDRESS":"林森路二段１１１號之２","OBJECTID":229503},"geometry":{"x":170413.5,"y":2543423.7100000046}},{"attributes":{"ID":229508,"DIS_CODE":0,"TOWNNAME":"東區","LI":"中西里","LIN":"34鄰","STREET":"林森路","SECT":"二段","MAREA":" ","LANE":" ","ALLEY":" ","HOUSE_NO":"１１１號之３","E_COORD97":170413.5,"N_COORD97":2543423.71,"ADDRESS":"林森路二段１１１號之３","OBJECTID":229504},"geometry":{"x":170413.5,"y":2543423.7100000046}},{"attributes":{"ID":229509,"DIS_CODE":0,"TOWNNAME":"永康區","LI":"復華里","LIN":"32鄰","STREET":"復華十街","SECT":" ","MAREA":" ","LANE":"４５巷","ALLEY":" ","HOUSE_NO":"２５號","E_COORD97":172565.85000000001,"N_COORD97":2546373.3300000001,"ADDRESS":"復華十街４５巷２５號","OBJECTID":229505},"geometry":{"x":172565.85000000056,"y":2546373.3300000001}},{"attributes":{"ID":229510,"DIS_CODE":0,"TOWNNAME":"永康區","LI":"網寮里","LIN":"13鄰","STREET":"永和街","SECT":" ","MAREA":" ","LANE":"２４９巷","ALLEY":" ","HOUSE_NO":"１２號","E_COORD97":173306.45000000001,"N_COORD97":2546567.9300000002,"ADDRESS":"永和街２４９巷１２號","OBJECTID":229506},"geometry":{"x":173306.45000000112,"y":2546567.9300000016}},{"attributes":{"ID":229511,"DIS_CODE":0,"TOWNNAME":"永康區","LI":"復華里","LIN":"24鄰","STREET":"復華八街","SECT":" ","MAREA":" ","LANE":"５６巷","ALLEY":" ","HOUSE_NO":"８號","E_COORD97":172757.59,"N_COORD97":2546260.3999999999,"ADDRESS":"復華八街５６巷８號","OBJECTID":229507},"geometry":{"x":172757.59000000078,"y":2546260.4000000022}},{"attributes":{"ID":229512,"DIS_CODE":0,"TOWNNAME":"永康區","LI":"復華里","LIN":"33鄰","STREET":"復華十街","SECT":" ","MAREA":" ","LANE":"２４巷","ALLEY":" ","HOUSE_NO":"１號","E_COORD97":172523,"N_COORD97":2546116.3500000001,"ADDRESS":"復華十街２４巷１號","OBJECTID":229508},"geometry":{"x":172523.00000000093,"y":2546116.3499999996}},{"attributes":{"ID":229513,"DIS_CODE":0,"TOWNNAME":"永康區","LI":"新樹里","LIN":"12鄰","STREET":"富強路","SECT":"二段","MAREA":" ","LANE":"１２１巷","ALLEY":" ","HOUSE_NO":"７９號","E_COORD97":175580.01000000001,"N_COORD97":2546988.02,"ADDRESS":"富強路二段１２１巷７９號","OBJECTID":229509},"geometry":{"x":175580.00999999978,"y":2546988.0200000014}},{"attributes":{"ID":229514,"DIS_CODE":0,"TOWNNAME":"東區","LI":"小東里","LIN":"23鄰","STREET":"光明街","SECT":" ","MAREA":" ","LANE":"２０１巷","ALLEY":" ","HOUSE_NO":"２５號","E_COORD97":171016.23000000001,"N_COORD97":2544058.75,"ADDRESS":"光明街２０１巷２５號","OBJECTID":229510},"geometry":{"x":171016.23000000138,"y":2544058.75}},{"attributes":{"ID":229515,"DIS_CODE":0,"TOWNNAME":"永康區","LI":"\u25A0行里","LIN":"23鄰","STREET":"中正南路","SECT":" ","MAREA":" ","LANE":"５９２巷","ALLEY":" ","HOUSE_NO":"９６號","E_COORD97":171740.04999999999,"N_COORD97":2548384.3700000001,"ADDRESS":"中正南路５９２巷９６號","OBJECTID":229511},"geometry":{"x":171740.04999999981,"y":2548384.3700000029}},{"attributes":{"ID":229516,"DIS_CODE":0,"TOWNNAME":"永康區","LI":"復國里","LIN":"3鄰","STREET":"復國一路","SECT":" ","MAREA":" ","LANE":"４４巷","ALLEY":" ","HOUSE_NO":"１２號","E_COORD97":172761.64000000001,"N_COORD97":2544797.8100000001,"ADDRESS":"復國一路４４巷１２號","OBJECTID":229512},"geometry":{"x":172761.63999999966,"y":2544797.8100000005}},{"attributes":{"ID":229517,"DIS_CODE":0,"TOWNNAME":"永康區","LI":"復華里","LIN":"3鄰","STREET":"復國二路","SECT":" ","MAREA":" ","LANE":"３４０巷","ALLEY":" ","HOUSE_NO":"１８號","E_COORD97":173073.60999999999,"N_COORD97":2546146.8100000001,"ADDRESS":"復國二路３４０巷１８號","OBJECTID":229513},"geometry":{"x":173073.61000000127,"y":2546146.8100000005}},{"attributes":{"ID":229518,"DIS_CODE":0,"TOWNNAME":"永康區","LI":"復華里","LIN":"3鄰","STREET":"復國二路","SECT":" ","MAREA":" ","LANE":"３４０巷","ALLEY":" ","HOUSE_NO":"１２號","E_COORD97":173060.91,"N_COORD97":2546149.8100000001,"ADDRESS":"復國二路３４０巷１２號","OBJECTID":229514},"geometry":{"x":173060.91000000108,"y":2546149.8100000024}},{"attributes":{"ID":229519,"DIS_CODE":0,"TOWNNAME":"永康區","LI":"復華里","LIN":"3鄰","STREET":"復國二路","SECT":" ","MAREA":" ","LANE":"３４０巷","ALLEY":" ","HOUSE_NO":"３號","E_COORD97":173050.98000000001,"N_COORD97":2546164.1400000001,"ADDRESS":"復國二路３４０巷３號","OBJECTID":229515},"geometry":{"x":173050.98000000138,"y":2546164.1400000025}},{"attributes":{"ID":229520,"DIS_CODE":0,"TOWNNAME":"永康區","LI":"復華里","LIN":"3鄰","STREET":"復國二路","SECT":" ","MAREA":" ","LANE":"３４２巷","ALLEY":" ","HOUSE_NO":"１２號","E_COORD97":173070.59,"N_COORD97":2546182.8500000001,"ADDRESS":"復國二路３４２巷１２號","OBJECTID":229516},"geometry":{"x":173070.58999999985,"y":2546182.8499999996}},{"attributes":{"ID":229521,"DIS_CODE":0,"TOWNNAME":"永康區","LI":"復華里","LIN":"3鄰","STREET":"復國二路","SECT":" ","MAREA":" ","LANE":"３４０巷","ALLEY":" ","HOUSE_NO":"１６號","E_COORD97":173069.37,"N_COORD97":2546147.8100000001,"ADDRESS":"復國二路３４０巷１６號","OBJECTID":229517},"geometry":{"x":173069.37000000197,"y":2546147.8100000005}},{"attributes":{"ID":229522,"DIS_CODE":0,"TOWNNAME":"仁德區","LI":"成功里","LIN":"3鄰","STREET":"保生東路","SECT":" ","MAREA":" ","LANE":"２１８巷","ALLEY":" ","HOUSE_NO":"８２號","E_COORD97":171240.5,"N_COORD97":2539639.5800000001,"ADDRESS":"保生東路２１８巷８２號","OBJECTID":229518},"geometry":{"x":171240.5,"y":2539639.5800000001}},{"attributes":{"ID":229523,"DIS_CODE":0,"TOWNNAME":"安南區","LI":"安富里","LIN":"3鄰","STREET":"郡安路","SECT":"五段","MAREA":" ","LANE":"１８４巷","ALLEY":" ","HOUSE_NO":"２０號","E_COORD97":167471.12128399999,"N_COORD97":2547693.72095,"ADDRESS":"郡安路五段１８４巷２０號","OBJECTID":229519},"geometry":{"x":167471.12128400151,"y":2547693.72095}},{"attributes":{"ID":229524,"DIS_CODE":0,"TOWNNAME":"安南區","LI":"安富里","LIN":"3鄰","STREET":"郡安路","SECT":"五段","MAREA":" ","LANE":"１８４巷","ALLEY":" ","HOUSE_NO":"２８號","E_COORD97":167472.41,"N_COORD97":2547673.8599999999,"ADDRESS":"郡安路五段１８４巷２８號","OBJECTID":229520},"geometry":{"x":167472.41000000108,"y":2547673.8600000013}},{"attributes":{"ID":229525,"DIS_CODE":0,"TOWNNAME":"安南區","LI":"安富里","LIN":"3鄰","STREET":"郡安路","SECT":"五段","MAREA":" ","LANE":"１８４巷","ALLEY":" ","HOUSE_NO":"３０號","E_COORD97":167473.70999999999,"N_COORD97":2547669.1000000001,"ADDRESS":"郡安路五段１８４巷３０號","OBJECTID":229521},"geometry":{"x":167473.70999999996,"y":2547669.1000000015}},{"attributes":{"ID":229526,"DIS_CODE":0,"TOWNNAME":"安南區","LI":"海東里","LIN":"3鄰","STREET":"海中街","SECT":" ","MAREA":" ","LANE":"１３８巷","ALLEY":" ","HOUSE_NO":"１９號","E_COORD97":166397.04000000001,"N_COORD97":2549179.6499999999,"ADDRESS":"海中街１３８巷１９號","OBJECTID":229522},"geometry":{"x":166397.04000000004,"y":2549179.6500000004}},{"attributes":{"ID":229527,"DIS_CODE":0,"TOWNNAME":"安南區","LI":"梅花里","LIN":"3鄰","STREET":"安中路","SECT":"一段","MAREA":" ","LANE":"６９９巷","ALLEY":" ","HOUSE_NO":"３號之１","E_COORD97":167634.48999999999,"N_COORD97":2549189.6400000001,"ADDRESS":"安中路一段６９９巷３號之１","OBJECTID":229523},"geometry":{"x":167634.49000000115,"y":2549189.6400000006}},{"attributes":{"ID":229528,"DIS_CODE":0,"TOWNNAME":"安南區","LI":"梅花里","LIN":"3鄰","STREET":"安中路","SECT":"一段","MAREA":" ","LANE":"６９９巷","ALLEY":" ","HOUSE_NO":"９號之３","E_COORD97":167658.97,"N_COORD97":2549187.29,"ADDRESS":"安中路一段６９９巷９號之３","OBJECTID":229524},"geometry":{"x":167658.9700000016,"y":2549187.2899999991}},{"attributes":{"ID":229529,"DIS_CODE":0,"TOWNNAME":"安南區","LI":"梅花里","LIN":"3鄰","STREET":"安中路","SECT":"一段","MAREA":" ","LANE":"６９９巷","ALLEY":" ","HOUSE_NO":"１０號","E_COORD97":167664.64999999999,"N_COORD97":2549180.4399999999,"ADDRESS":"安中路一段６９９巷１０號","OBJECTID":229525},"geometry":{"x":167664.65000000037,"y":2549180.4399999995}},{"attributes":{"ID":229530,"DIS_CODE":0,"TOWNNAME":"安南區","LI":"梅花里","LIN":"3鄰","STREET":"安中路","SECT":"一段","MAREA":" ","LANE":"６９９巷","ALLEY":" ","HOUSE_NO":"１１號","E_COORD97":167666.01999999999,"N_COORD97":2549168.7000000002,"ADDRESS":"安中路一段６９９巷１１號","OBJECTID":229526},"geometry":{"x":167666.01999999955,"y":2549168.700000003}},{"attributes":{"ID":229531,"DIS_CODE":0,"TOWNNAME":"安南區","LI":"梅花里","LIN":"3鄰","STREET":"安中路","SECT":"一段","MAREA":" ","LANE":"６９９巷","ALLEY":" ","HOUSE_NO":"１２號","E_COORD97":167661.12,"N_COORD97":2549164.2000000002,"ADDRESS":"安中路一段６９９巷１２號","OBJECTID":229527},"geometry":{"x":167661.12000000011,"y":2549164.1999999993}},{"attributes":{"ID":229532,"DIS_CODE":0,"TOWNNAME":"東區","LI":"中西里","LIN":"34鄰","STREET":"林森路","SECT":"二段","MAREA":" ","LANE":" ","ALLEY":" ","HOUSE_NO":"１１１號之４","E_COORD97":170413.5,"N_COORD97":2543423.71,"ADDRESS":"林森路二段１１１號之４","OBJECTID":229528},"geometry":{"x":170413.5,"y":2543423.7100000046}},{"attributes":{"ID":229533,"DIS_CODE":0,"TOWNNAME":"東區","LI":"中西里","LIN":"34鄰","STREET":"林森路","SECT":"二段","MAREA":" ","LANE":" ","ALLEY":" ","HOUSE_NO":"１１１號之５","E_COORD97":170413.5,"N_COORD97":2543423.71,"ADDRESS":"林森路二段１１１號之５","OBJECTID":229529},"geometry":{"x":170413.5,"y":2543423.7100000046}},{"attributes":{"ID":229534,"DIS_CODE":0,"TOWNNAME":"東區","LI":"中西里","LIN":"34鄰","STREET":"林森路","SECT":"二段","MAREA":" ","LANE":" ","ALLEY":" ","HOUSE_NO":"１１１號之６","E_COORD97":170413.5,"N_COORD97":2543423.71,"ADDRESS":"林森路二段１１１號之６","OBJECTID":229530},"geometry":{"x":170413.5,"y":2543423.7100000046}},{"attributes":{"ID":229535,"DIS_CODE":0,"TOWNNAME":"東區","LI":"中西里","LIN":"34鄰","STREET":"林森路","SECT":"二段","MAREA":" ","LANE":" ","ALLEY":" ","HOUSE_NO":"１１１號之７","E_COORD97":170413.5,"N_COORD97":2543423.71,"ADDRESS":"林森路二段１１１號之７","OBJECTID":229531},"geometry":{"x":170413.5,"y":2543423.7100000046}},{"attributes":{"ID":229536,"DIS_CODE":0,"TOWNNAME":"東區","LI":"中西里","LIN":"34鄰","STREET":"林森路","SECT":"二段","MAREA":" ","LANE":" ","ALLEY":" ","HOUSE_NO":"１１１號之８","E_COORD97":170413.5,"N_COORD97":2543423.71,"ADDRESS":"林森路二段１１１號之８","OBJECTID":229532},"geometry":{"x":170413.5,"y":2543423.7100000046}},{"attributes":{"ID":229537,"DIS_CODE":0,"TOWNNAME":"東區","LI":"中西里","LIN":"34鄰","STREET":"林森路","SECT":"二段","MAREA":" ","LANE":" ","ALLEY":" ","HOUSE_NO":"１１１號之９","E_COORD97":170413.5,"N_COORD97":2543423.71,"ADDRESS":"林森路二段１１１號之９","OBJECTID":229533},"geometry":{"x":170413.5,"y":2543423.7100000046}},{"attributes":{"ID":229538,"DIS_CODE":0,"TOWNNAME":"永康區","LI":"\u25A0行里","LIN":"23鄰","STREET":"中正南路","SECT":" ","MAREA":" ","LANE":"５９２巷","ALLEY":" ","HOUSE_NO":"９８號","E_COORD97":171741.64000000001,"N_COORD97":2548387.1200000001,"ADDRESS":"中正南路５９２巷９８號","OBJECTID":229534},"geometry":{"x":171741.6400000006,"y":2548387.120000001}},{"attributes":{"ID":229539,"DIS_CODE":0,"TOWNNAME":"永康區","LI":"\u25A0行里","LIN":"23鄰","STREET":"中正南路","SECT":" ","MAREA":" ","LANE":"５９２巷","ALLEY":" ","HOUSE_NO":"８４號","E_COORD97":171727.25,"N_COORD97":2548417.8500000001,"ADDRESS":"中正南路５９２巷８４號","OBJECTID":229535},"geometry":{"x":171727.25,"y":2548417.8499999996}},{"attributes":{"ID":229540,"DIS_CODE":0,"TOWNNAME":"永康區","LI":"\u25A0洲里","LIN":"23鄰","STREET":"中正南路","SECT":" ","MAREA":" ","LANE":"５３５巷","ALLEY":" ","HOUSE_NO":"２號","E_COORD97":171013.29000000001,"N_COORD97":2548406.25,"ADDRESS":"中正南路５３５巷２號","OBJECTID":229536},"geometry":{"x":171013.29000000004,"y":2548406.2500000037}},{"attributes":{"ID":229541,"DIS_CODE":0,"TOWNNAME":"永康區","LI":"復華里","LIN":"32鄰","STREET":"復華十街","SECT":" ","MAREA":" ","LANE":"３９巷","ALLEY":" ","HOUSE_NO":"１３號","E_COORD97":172599.37,"N_COORD97":2546351.7799999998,"ADDRESS":"復華十街３９巷１３號","OBJECTID":229537},"geometry":{"x":172599.37000000011,"y":2546351.7800000012}},{"attributes":{"ID":229542,"DIS_CODE":0,"TOWNNAME":"永康區","LI":"復興里","LIN":"13鄰","STREET":"復興路","SECT":" ","MAREA":" ","LANE":"２８２巷","ALLEY":" ","HOUSE_NO":"９號","E_COORD97":172367.92000000001,"N_COORD97":2544366.0299999998,"ADDRESS":"復興路２８２巷９號","OBJECTID":229538},"geometry":{"x":172367.91999999993,"y":2544366.0300000031}},{"attributes":{"ID":229543,"DIS_CODE":0,"TOWNNAME":"永康區","LI":"網寮里","LIN":"24鄰","STREET":"永春街","SECT":" ","MAREA":" ","LANE":"４５巷","ALLEY":" ","HOUSE_NO":"１３號","E_COORD97":173717.95999999999,"N_COORD97":2546369.4399999999,"ADDRESS":"永春街４５巷１３號","OBJECTID":229539},"geometry":{"x":173717.96000000089,"y":2546369.4399999995}},{"attributes":{"ID":229544,"DIS_CODE":0,"TOWNNAME":"永康區","LI":"網寮里","LIN":"17鄰","STREET":"永興路","SECT":" ","MAREA":" ","LANE":"４２７巷","ALLEY":" ","HOUSE_NO":"１７號","E_COORD97":173277.28,"N_COORD97":2546822.5,"ADDRESS":"永興路４２７巷１７號","OBJECTID":229540},"geometry":{"x":173277.28000000119,"y":2546822.5000000019}},{"attributes":{"ID":229545,"DIS_CODE":0,"TOWNNAME":"永康區","LI":"復華里","LIN":"33鄰","STREET":"復華十街","SECT":" ","MAREA":" ","LANE":"２４巷","ALLEY":" ","HOUSE_NO":"１８號","E_COORD97":172557.20000000001,"N_COORD97":2546141.5299999998,"ADDRESS":"復華十街２４巷１８號","OBJECTID":229541},"geometry":{"x":172557.20000000112,"y":2546141.5299999993}},{"attributes":{"ID":229546,"DIS_CODE":0,"TOWNNAME":"永康區","LI":"蔦松里","LIN":"9鄰","STREET":"正北一路","SECT":" ","MAREA":" ","LANE":"１３６巷","ALLEY":" ","HOUSE_NO":"２３號","E_COORD97":174311.14999999999,"N_COORD97":2550062.9900000002,"ADDRESS":"正北一路１３６巷２３號","OBJECTID":229542},"geometry":{"x":174311.15000000037,"y":2550062.9900000039}},{"attributes":{"ID":229547,"DIS_CODE":0,"TOWNNAME":"安南區","LI":"\u25A0南里","LIN":"23鄰","STREET":"環福街","SECT":" ","MAREA":" ","LANE":"２２０巷","ALLEY":" ","HOUSE_NO":"４６號","E_COORD97":170349.73000000001,"N_COORD97":2552771.5099999998,"ADDRESS":"環福街２２０巷４６號","OBJECTID":229543},"geometry":{"x":170349.72999999952,"y":2552771.5100000016}},{"attributes":{"ID":229548,"DIS_CODE":0,"TOWNNAME":"安南區","LI":"\u25A0南里","LIN":"23鄰","STREET":"環福街","SECT":" ","MAREA":" ","LANE":"２２０巷","ALLEY":" ","HOUSE_NO":"４８號","E_COORD97":170363.07000000001,"N_COORD97":2552772.0299999998,"ADDRESS":"環福街２２０巷４８號","OBJECTID":229544},"geometry":{"x":170363.07000000123,"y":2552772.0300000012}},{"attributes":{"ID":229549,"DIS_CODE":0,"TOWNNAME":"安南區","LI":"梅花里","LIN":"3鄰","STREET":"安中路","SECT":"一段","MAREA":" ","LANE":"６９９巷","ALLEY":" ","HOUSE_NO":"１３號","E_COORD97":167655.04999999999,"N_COORD97":2549159.1099999999,"ADDRESS":"安中路一段６９９巷１３號","OBJECTID":229545},"geometry":{"x":167655.05000000168,"y":2549159.1099999975}},{"attributes":{"ID":229550,"DIS_CODE":0,"TOWNNAME":"仁德區","LI":"保安里","LIN":"3鄰","STREET":"保安路","SECT":"一段","MAREA":" ","LANE":"８２巷","ALLEY":" ","HOUSE_NO":"１４號","E_COORD97":170759.29000000001,"N_COORD97":2536331.0600000001,"ADDRESS":"保安路一段８２巷１４號","OBJECTID":229546},"geometry":{"x":170759.2900000019,"y":2536331.0600000005}},{"attributes":{"ID":229551,"DIS_CODE":0,"TOWNNAME":"仁德區","LI":"保安里","LIN":"3鄰","STREET":"保安路","SECT":"一段","MAREA":" ","LANE":"７２巷","ALLEY":" ","HOUSE_NO":"９號","E_COORD97":170789.39999999999,"N_COORD97":2536298.3199999998,"ADDRESS":"保安路一段７２巷９號","OBJECTID":229547},"geometry":{"x":170789.40000000224,"y":2536298.3200000003}},{"attributes":{"ID":229552,"DIS_CODE":0,"TOWNNAME":"仁德區","LI":"成功里","LIN":"3鄰","STREET":"保生東路","SECT":" ","MAREA":" ","LANE":"２１８巷","ALLEY":" ","HOUSE_NO":"９２號","E_COORD97":171236.45000000001,"N_COORD97":2539623.8300000001,"ADDRESS":"保生東路２１８巷９２號","OBJECTID":229548},"geometry":{"x":171236.45000000205,"y":2539623.8300000001}},{"attributes":{"ID":229553,"DIS_CODE":0,"TOWNNAME":"仁德區","LI":"後壁里","LIN":"3鄰","STREET":"德善一街","SECT":" ","MAREA":" ","LANE":"２７巷","ALLEY":" ","HOUSE_NO":"４６號","E_COORD97":173314.07000000001,"N_COORD97":2539030.0099999998,"ADDRESS":"德善一街２７巷４６號","OBJECTID":229549},"geometry":{"x":173314.07000000216,"y":2539030.0100000035}},{"attributes":{"ID":229554,"DIS_CODE":0,"TOWNNAME":"仁德區","LI":"新田里","LIN":"3鄰","STREET":"新田二街","SECT":" ","MAREA":" ","LANE":"１１８巷","ALLEY":" ","HOUSE_NO":"４號","E_COORD97":174898.57999999999,"N_COORD97":2539844.4900000002,"ADDRESS":"新田二街１１８巷４號","OBJECTID":229550},"geometry":{"x":174898.57999999914,"y":2539844.4900000021}},{"attributes":{"ID":229555,"DIS_CODE":0,"TOWNNAME":"仁德區","LI":"新田里","LIN":"3鄰","STREET":"新田二街","SECT":" ","MAREA":" ","LANE":"１１８巷","ALLEY":" ","HOUSE_NO":"６號","E_COORD97":174934.45000000001,"N_COORD97":2539840.7400000002,"ADDRESS":"新田二街１１８巷６號","OBJECTID":229551},"geometry":{"x":174934.45000000019,"y":2539840.7400000021}},{"attributes":{"ID":229556,"DIS_CODE":0,"TOWNNAME":"東區","LI":"中西里","LIN":"34鄰","STREET":"林森路","SECT":"二段","MAREA":" ","LANE":" ","ALLEY":" ","HOUSE_NO":"１１１號之１０","E_COORD97":170413.5,"N_COORD97":2543423.71,"ADDRESS":"林森路二段１１１號之１０","OBJECTID":229552},"geometry":{"x":170413.5,"y":2543423.7100000046}},{"attributes":{"ID":229557,"DIS_CODE":0,"TOWNNAME":"東區","LI":"中西里","LIN":"34鄰","STREET":"林森路","SECT":"二段","MAREA":" ","LANE":" ","ALLEY":" ","HOUSE_NO":"１１１號之１１","E_COORD97":170413.5,"N_COORD97":2543423.71,"ADDRESS":"林森路二段１１１號之１１","OBJECTID":229553},"geometry":{"x":170413.5,"y":2543423.7100000046}},{"attributes":{"ID":229558,"DIS_CODE":0,"TOWNNAME":"東區","LI":"中西里","LIN":"34鄰","STREET":"林森路","SECT":"二段","MAREA":" ","LANE":" ","ALLEY":" ","HOUSE_NO":"１１３號之１","E_COORD97":170413.5,"N_COORD97":2543423.71,"ADDRESS":"林森路二段１１３號之１","OBJECTID":229554},"geometry":{"x":170413.5,"y":2543423.7100000046}},{"attributes":{"ID":229559,"DIS_CODE":0,"TOWNNAME":"東區","LI":"中西里","LIN":"34鄰","STREET":"林森路","SECT":"二段","MAREA":" ","LANE":" ","ALLEY":" ","HOUSE_NO":"１１３號之２","E_COORD97":170413.5,"N_COORD97":2543423.71,"ADDRESS":"林森路二段１１３號之２","OBJECTID":229555},"geometry":{"x":170413.5,"y":2543423.7100000046}},{"attributes":{"ID":229560,"DIS_CODE":0,"TOWNNAME":"東區","LI":"中西里","LIN":"34鄰","STREET":"林森路","SECT":"二段","MAREA":" ","LANE":" ","ALLEY":" ","HOUSE_NO":"１１３號之３","E_COORD97":170413.5,"N_COORD97":2543423.71,"ADDRESS":"林森路二段１１３號之３","OBJECTID":229556},"geometry":{"x":170413.5,"y":2543423.7100000046}},{"attributes":{"ID":229561,"DIS_CODE":0,"TOWNNAME":"東區","LI":"中西里","LIN":"34鄰","STREET":"林森路","SECT":"二段","MAREA":" ","LANE":" ","ALLEY":" ","HOUSE_NO":"１１３號之４","E_COORD97":170413.5,"N_COORD97":2543423.71,"ADDRESS":"林森路二段１１３號之４","OBJECTID":229557},"geometry":{"x":170413.5,"y":2543423.7100000046}},{"attributes":{"ID":229562,"DIS_CODE":0,"TOWNNAME":"東區","LI":"中西里","LIN":"34鄰","STREET":"林森路","SECT":"二段","MAREA":" ","LANE":" ","ALLEY":" ","HOUSE_NO":"１１３號之５","E_COORD97":170413.5,"N_COORD97":2543423.71,"ADDRESS":"林森路二段１１３號之５","OBJECTID":229558},"geometry":{"x":170413.5,"y":2543423.7100000046}},{"attributes":{"ID":229563,"DIS_CODE":0,"TOWNNAME":"東區","LI":"中西里","LIN":"34鄰","STREET":"林森路","SECT":"二段","MAREA":" ","LANE":" ","ALLEY":" ","HOUSE_NO":"１１３號之６","E_COORD97":170413.5,"N_COORD97":2543423.71,"ADDRESS":"林森路二段１１３號之６","OBJECTID":229559},"geometry":{"x":170413.5,"y":2543423.7100000046}},{"attributes":{"ID":229564,"DIS_CODE":0,"TOWNNAME":"東區","LI":"中西里","LIN":"34鄰","STREET":"林森路","SECT":"二段","MAREA":" ","LANE":" ","ALLEY":" ","HOUSE_NO":"１１３號之７","E_COORD97":170413.5,"N_COORD97":2543423.71,"ADDRESS":"林森路二段１１３號之７","OBJECTID":229560},"geometry":{"x":170413.5,"y":2543423.7100000046}},{"attributes":{"ID":229565,"DIS_CODE":0,"TOWNNAME":"東區","LI":"中西里","LIN":"34鄰","STREET":"林森路","SECT":"二段","MAREA":" ","LANE":" ","ALLEY":" ","HOUSE_NO":"１１３號之８","E_COORD97":170413.5,"N_COORD97":2543423.71,"ADDRESS":"林森路二段１１３號之８","OBJECTID":229561},"geometry":{"x":170413.5,"y":2543423.7100000046}},{"attributes":{"ID":229566,"DIS_CODE":0,"TOWNNAME":"東區","LI":"中西里","LIN":"34鄰","STREET":"林森路","SECT":"二段","MAREA":" ","LANE":" ","ALLEY":" ","HOUSE_NO":"１１３號之９","E_COORD97":170413.5,"N_COORD97":2543423.71,"ADDRESS":"林森路二段１１３號之９","OBJECTID":229562},"geometry":{"x":170413.5,"y":2543423.7100000046}},{"attributes":{"ID":229567,"DIS_CODE":0,"TOWNNAME":"安南區","LI":"安東里","LIN":"23鄰","STREET":"安和路","SECT":"一段","MAREA":" ","LANE":"４９６巷","ALLEY":" ","HOUSE_NO":"４３號","E_COORD97":169563.01999999999,"N_COORD97":2548387.9500000002,"ADDRESS":"安和路一段４９６巷４３號","OBJECTID":229563},"geometry":{"x":169563.01999999955,"y":2548387.9500000011}},{"attributes":{"ID":229568,"DIS_CODE":0,"TOWNNAME":"安南區","LI":"安東里","LIN":"23鄰","STREET":"安和路","SECT":"一段","MAREA":" ","LANE":"４９６巷","ALLEY":" ","HOUSE_NO":"４５號","E_COORD97":169564.69,"N_COORD97":2548383.6200000001,"ADDRESS":"安和路一段４９６巷４５號","OBJECTID":229564},"geometry":{"x":169564.69000000041,"y":2548383.620000001}},{"attributes":{"ID":229569,"DIS_CODE":0,"TOWNNAME":"永康區","LI":"復華里","LIN":"24鄰","STREET":"復華八街","SECT":" ","MAREA":" ","LANE":"５６巷","ALLEY":" ","HOUSE_NO":"１１號","E_COORD97":172782.26000000001,"N_COORD97":2546278.52,"ADDRESS":"復華八街５６巷１１號","OBJECTID":229565},"geometry":{"x":172782.26000000071,"y":2546278.5200000014}},{"attributes":{"ID":229570,"DIS_CODE":0,"TOWNNAME":"永康區","LI":"網寮里","LIN":"24鄰","STREET":"永春街","SECT":" ","MAREA":" ","LANE":"４５巷","ALLEY":" ","HOUSE_NO":"１４號","E_COORD97":173713.29999999999,"N_COORD97":2546383.1400000001,"ADDRESS":"永春街４５巷１４號","OBJECTID":229566},"geometry":{"x":173713.29999999981,"y":2546383.1400000006}},{"attributes":{"ID":229571,"DIS_CODE":0,"TOWNNAME":"永康區","LI":"復國里","LIN":"14鄰","STREET":"復國二路","SECT":" ","MAREA":" ","LANE":"１８４巷","ALLEY":" ","HOUSE_NO":"１０號","E_COORD97":172959.95000000001,"N_COORD97":2545718.79,"ADDRESS":"復國二路１８４巷１０號","OBJECTID":229567},"geometry":{"x":172959.95000000019,"y":2545718.7899999991}},{"attributes":{"ID":229572,"DIS_CODE":0,"TOWNNAME":"永康區","LI":"復國里","LIN":"15鄰","STREET":"復國二路","SECT":" ","MAREA":" ","LANE":"１７３巷","ALLEY":" ","HOUSE_NO":"９號","E_COORD97":172904.28,"N_COORD97":2545796.7799999998,"ADDRESS":"復國二路１７３巷９號","OBJECTID":229568},"geometry":{"x":172904.28000000119,"y":2545796.7799999993}},{"attributes":{"ID":229573,"DIS_CODE":0,"TOWNNAME":"善化區","LI":"坐駕里","LIN":"23鄰","STREET":" ","SECT":" ","MAREA":"坐駕","LANE":" ","ALLEY":" ","HOUSE_NO":"２０號之２","E_COORD97":178651.85999999999,"N_COORD97":2558106.52,"ADDRESS":"坐駕２０號之２","OBJECTID":229569},"geometry":{"x":178651.8600000022,"y":2558106.5199999996}},{"attributes":{"ID":229574,"DIS_CODE":0,"TOWNNAME":"善化區","LI":"胡厝里","LIN":"23鄰","STREET":" ","SECT":" ","MAREA":"烏橋","LANE":" ","ALLEY":" ","HOUSE_NO":"９號","E_COORD97":175419.17999999999,"N_COORD97":2558911.75,"ADDRESS":"烏橋９號","OBJECTID":229570},"geometry":{"x":175419.1799999997,"y":2558911.75}},{"attributes":{"ID":229575,"DIS_CODE":0,"TOWNNAME":"永康區","LI":"復國里","LIN":"35鄰","STREET":"復國一路","SECT":" ","MAREA":" ","LANE":"６７巷","ALLEY":" ","HOUSE_NO":"１２號","E_COORD97":172660.67000000001,"N_COORD97":2544927.8799999999,"ADDRESS":"復國一路６７巷１２號","OBJECTID":229571},"geometry":{"x":172660.67000000086,"y":2544927.879999999}},{"attributes":{"ID":229576,"DIS_CODE":0,"TOWNNAME":"永康區","LI":"網寮里","LIN":"6鄰","STREET":"永二街","SECT":" ","MAREA":" ","LANE":"１９６巷","ALLEY":" ","HOUSE_NO":"５號","E_COORD97":173347.85999999999,"N_COORD97":2546261.5499999998,"ADDRESS":"永二街１９６巷５號","OBJECTID":229572},"geometry":{"x":173347.86000000127,"y":2546261.5500000007}},{"attributes":{"ID":229577,"DIS_CODE":0,"TOWNNAME":"東區","LI":"中西里","LIN":"34鄰","STREET":"林森路","SECT":"二段","MAREA":" ","LANE":" ","ALLEY":" ","HOUSE_NO":"１１３號之１０","E_COORD97":170413.5,"N_COORD97":2543423.71,"ADDRESS":"林森路二段１１３號之１０","OBJECTID":229573},"geometry":{"x":170413.5,"y":2543423.7100000046}},{"attributes":{"ID":229578,"DIS_CODE":0,"TOWNNAME":"善化區","LI":"坐駕里","LIN":"23鄰","STREET":" ","SECT":" ","MAREA":"坐駕","LANE":" ","ALLEY":" ","HOUSE_NO":"１９號","E_COORD97":178680.07000000001,"N_COORD97":2558072.5,"ADDRESS":"坐駕１９號","OBJECTID":229574},"geometry":{"x":178680.07000000123,"y":2558072.5}},{"attributes":{"ID":229579,"DIS_CODE":0,"TOWNNAME":"南區","LI":"彰南里","LIN":"18鄰","STREET":"新和一路","SECT":" ","MAREA":" ","LANE":"１巷","ALLEY":" ","HOUSE_NO":"２號之２","E_COORD97":166055.21241599999,"N_COORD97":2540772.2832900002,"ADDRESS":"新和一路１巷２號之２","OBJECTID":229575},"geometry":{"x":166055.21241599973,"y":2540772.2832869999}},{"attributes":{"ID":229580,"DIS_CODE":0,"TOWNNAME":"善化區","LI":"坐駕里","LIN":"23鄰","STREET":" ","SECT":" ","MAREA":"坐駕","LANE":" ","ALLEY":" ","HOUSE_NO":"２０號之１","E_COORD97":178598.95999999999,"N_COORD97":2558110.27,"ADDRESS":"坐駕２０號之１","OBJECTID":229576},"geometry":{"x":178598.96000000089,"y":2558110.2700000014}},{"attributes":{"ID":229581,"DIS_CODE":0,"TOWNNAME":"善化區","LI":"溪美里","LIN":"19鄰","STREET":" ","SECT":" ","MAREA":"溪尾","LANE":" ","ALLEY":" ","HOUSE_NO":"２４５號","E_COORD97":177124.01000000001,"N_COORD97":2561421.27,"ADDRESS":"溪尾２４５號","OBJECTID":229577},"geometry":{"x":177124.00999999978,"y":2561421.2700000033}},{"attributes":{"ID":229582,"DIS_CODE":0,"TOWNNAME":"善化區","LI":"胡厝里","LIN":"23鄰","STREET":" ","SECT":" ","MAREA":"烏橋","LANE":" ","ALLEY":" ","HOUSE_NO":"８號","E_COORD97":175419.63,"N_COORD97":2558900.75,"ADDRESS":"烏橋８號","OBJECTID":229578},"geometry":{"x":175419.62999999989,"y":2558900.7500000019}},{"attributes":{"ID":229583,"DIS_CODE":0,"TOWNNAME":"善化區","LI":"坐駕里","LIN":"23鄰","STREET":" ","SECT":" ","MAREA":"坐駕","LANE":" ","ALLEY":" ","HOUSE_NO":"２０號之１７","E_COORD97":178518.85000000001,"N_COORD97":2558311.52,"ADDRESS":"坐駕２０號之１７","OBJECTID":229579},"geometry":{"x":178518.8499999987,"y":2558311.5200000014}},{"attributes":{"ID":229584,"DIS_CODE":0,"TOWNNAME":"善化區","LI":"坐駕里","LIN":"23鄰","STREET":" ","SECT":" ","MAREA":"坐駕","LANE":" ","ALLEY":" ","HOUSE_NO":"２０號之１９","E_COORD97":178397.29999999999,"N_COORD97":2558294.52,"ADDRESS":"坐駕２０號之１９","OBJECTID":229580},"geometry":{"x":178397.29999999981,"y":2558294.5200000014}},{"attributes":{"ID":229585,"DIS_CODE":0,"TOWNNAME":"東區","LI":"中西里","LIN":"34鄰","STREET":"林森路","SECT":"二段","MAREA":" ","LANE":" ","ALLEY":" ","HOUSE_NO":"１１３號之１１","E_COORD97":170413.5,"N_COORD97":2543423.71,"ADDRESS":"林森路二段１１３號之１１","OBJECTID":229581},"geometry":{"x":170413.5,"y":2543423.7100000046}},{"attributes":{"ID":229586,"DIS_CODE":0,"TOWNNAME":"永康區","LI":"\u25A0行里","LIN":"34鄰","STREET":"新行街","SECT":" ","MAREA":" ","LANE":" ","ALLEY":" ","HOUSE_NO":"１６７號","E_COORD97":172325.81,"N_COORD97":2549183.0499999998,"ADDRESS":"新行街１６７號","OBJECTID":229582},"geometry":{"x":172325.81000000052,"y":2549183.0500000026}},{"attributes":{"ID":229587,"DIS_CODE":0,"TOWNNAME":"永康區","LI":"\u25A0行里","LIN":"34鄰","STREET":"新行街","SECT":" ","MAREA":" ","LANE":" ","ALLEY":" ","HOUSE_NO":"１７５號","E_COORD97":172324.23999999999,"N_COORD97":2549204.3100000001,"ADDRESS":"新行街１７５號","OBJECTID":229583},"geometry":{"x":172324.24000000022,"y":2549204.3100000024}},{"attributes":{"ID":229588,"DIS_CODE":0,"TOWNNAME":"永康區","LI":"\u25A0行里","LIN":"34鄰","STREET":"新行街","SECT":" ","MAREA":" ","LANE":" ","ALLEY":" ","HOUSE_NO":"１６５號","E_COORD97":172326,"N_COORD97":2549178.2999999998,"ADDRESS":"新行街１６５號","OBJECTID":229584},"geometry":{"x":172326.00000000093,"y":2549178.3000000007}},{"attributes":{"ID":229589,"DIS_CODE":0,"TOWNNAME":"永康區","LI":"\u25A0行里","LIN":"34鄰","STREET":"新行街","SECT":" ","MAREA":" ","LANE":" ","ALLEY":" ","HOUSE_NO":"１８３號","E_COORD97":172322.85999999999,"N_COORD97":2549225.3100000001,"ADDRESS":"新行街１８３號","OBJECTID":229585},"geometry":{"x":172322.86000000127,"y":2549225.3100000005}},{"attributes":{"ID":229590,"DIS_CODE":0,"TOWNNAME":"永康區","LI":"\u25A0行里","LIN":"34鄰","STREET":"中正七街","SECT":" ","MAREA":" ","LANE":" ","ALLEY":" ","HOUSE_NO":"１０７號","E_COORD97":172142.07000000001,"N_COORD97":2549135.7200000002,"ADDRESS":"中正七街１０７號","OBJECTID":229586},"geometry":{"x":172142.0700000003,"y":2549135.7200000007}},{"attributes":{"ID":229591,"DIS_CODE":0,"TOWNNAME":"永康區","LI":"\u25A0行里","LIN":"34鄰","STREET":"中正七街","SECT":" ","MAREA":" ","LANE":" ","ALLEY":" ","HOUSE_NO":"１０３號","E_COORD97":172142.63,"N_COORD97":2549125.9700000002,"ADDRESS":"中正七街１０３號","OBJECTID":229587},"geometry":{"x":172142.62999999989,"y":2549125.9700000025}},{"attributes":{"ID":229592,"DIS_CODE":0,"TOWNNAME":"新營區","LI":"王公里","LIN":"6鄰","STREET":"民治路","SECT":" ","MAREA":" ","LANE":" ","ALLEY":" ","HOUSE_NO":"８號之１６","E_COORD97":180504.39999999999,"N_COORD97":2578959.1200000001,"ADDRESS":"民治路８號之１６","OBJECTID":229588},"geometry":{"x":180504.39999999944,"y":2578959.1200000048}},{"attributes":{"ID":229593,"DIS_CODE":0,"TOWNNAME":"仁德區","LI":"新田里","LIN":"3鄰","STREET":"新田二街","SECT":" ","MAREA":" ","LANE":"１１６巷","ALLEY":" ","HOUSE_NO":"６號之１","E_COORD97":174882.92000000001,"N_COORD97":2539761.29,"ADDRESS":"新田二街１１６巷６號之１","OBJECTID":229589},"geometry":{"x":174882.92000000086,"y":2539761.290000001}},{"attributes":{"ID":229594,"DIS_CODE":0,"TOWNNAME":"善化區","LI":"坐駕里","LIN":"23鄰","STREET":" ","SECT":" ","MAREA":"坐駕","LANE":" ","ALLEY":" ","HOUSE_NO":"２０號之１８","E_COORD97":178428.12,"N_COORD97":2558314.27,"ADDRESS":"坐駕２０號之１８","OBJECTID":229590},"geometry":{"x":178428.12000000104,"y":2558314.2699999996}},{"attributes":{"ID":229595,"DIS_CODE":0,"TOWNNAME":"善化區","LI":"坐駕里","LIN":"23鄰","STREET":" ","SECT":" ","MAREA":"坐駕","LANE":" ","ALLEY":" ","HOUSE_NO":"２２號之３","E_COORD97":178719.95999999999,"N_COORD97":2558123.02,"ADDRESS":"坐駕２２號之３","OBJECTID":229591},"geometry":{"x":178719.95999999996,"y":2558123.0199999996}},{"attributes":{"ID":229596,"DIS_CODE":0,"TOWNNAME":"安南區","LI":"理想里","LIN":"3鄰","STREET":"大安街","SECT":" ","MAREA":" ","LANE":"６８０巷","ALLEY":" ","HOUSE_NO":"１０號","E_COORD97":167206.34,"N_COORD97":2548946.7400000002,"ADDRESS":"大安街６８０巷１０號","OBJECTID":229592},"geometry":{"x":167206.34000000078,"y":2548946.7400000021}},{"attributes":{"ID":229597,"DIS_CODE":0,"TOWNNAME":"安南區","LI":"頂安里","LIN":"3鄰","STREET":"怡安路","SECT":"一段","MAREA":" ","LANE":"３８５巷","ALLEY":" ","HOUSE_NO":"４１號","E_COORD97":168716.67999999999,"N_COORD97":2549041.98,"ADDRESS":"怡安路一段３８５巷４１號","OBJECTID":229593},"geometry":{"x":168716.6799999997,"y":2549041.9800000004}},{"attributes":{"ID":229598,"DIS_CODE":0,"TOWNNAME":"安南區","LI":"頂安里","LIN":"3鄰","STREET":"怡安路","SECT":"一段","MAREA":" ","LANE":"３８５巷","ALLEY":" ","HOUSE_NO":"４３號","E_COORD97":168722.45999999999,"N_COORD97":2549037.4900000002,"ADDRESS":"怡安路一段３８５巷４３號","OBJECTID":229594},"geometry":{"x":168722.46000000089,"y":2549037.4900000002}},{"attributes":{"ID":229599,"DIS_CODE":0,"TOWNNAME":"善化區","LI":"坐駕里","LIN":"23鄰","STREET":" ","SECT":" ","MAREA":"坐駕","LANE":" ","ALLEY":" ","HOUSE_NO":"２２之７號","E_COORD97":178751.26000000001,"N_COORD97":2558196.52,"ADDRESS":"坐駕２２之７號","OBJECTID":229595},"geometry":{"x":178751.25999999978,"y":2558196.5200000014}},{"attributes":{"ID":229600,"DIS_CODE":0,"TOWNNAME":"永康區","LI":"五王里","LIN":"3鄰","STREET":"中華二路","SECT":" ","MAREA":" ","LANE":"２０６巷","ALLEY":" ","HOUSE_NO":"４７號","E_COORD97":171591.28,"N_COORD97":2545594.2200000002,"ADDRESS":"中華二路２０６巷４７號","OBJECTID":229596},"geometry":{"x":171591.28000000026,"y":2545594.2200000025}},{"attributes":{"ID":229601,"DIS_CODE":0,"TOWNNAME":"永康區","LI":"大橋里","LIN":"3鄰","STREET":"大橋三街","SECT":" ","MAREA":" ","LANE":"１２４巷","ALLEY":" ","HOUSE_NO":"８號","E_COORD97":170774.73999999999,"N_COORD97":2546666.7400000002,"ADDRESS":"大橋三街１２４巷８號","OBJECTID":229597},"geometry":{"x":170774.74000000022,"y":2546666.7400000002}},{"attributes":{"ID":229602,"DIS_CODE":0,"TOWNNAME":"永康區","LI":"大橋里","LIN":"3鄰","STREET":"大橋三街","SECT":" ","MAREA":" ","LANE":"１２４巷","ALLEY":" ","HOUSE_NO":"４號","E_COORD97":170768.79000000001,"N_COORD97":2546673.9900000002,"ADDRESS":"大橋三街１２４巷４號","OBJECTID":229598},"geometry":{"x":170768.79000000004,"y":2546673.9900000021}},{"attributes":{"ID":229603,"DIS_CODE":0,"TOWNNAME":"永康區","LI":"五王里","LIN":"3鄰","STREET":"中華二路","SECT":" ","MAREA":" ","LANE":"２０６巷","ALLEY":" ","HOUSE_NO":"４９號","E_COORD97":171589.70000000001,"N_COORD97":2545598.7200000002,"ADDRESS":"中華二路２０６巷４９號","OBJECTID":229599},"geometry":{"x":171589.70000000112,"y":2545598.7200000007}},{"attributes":{"ID":229604,"DIS_CODE":0,"TOWNNAME":"永康區","LI":"大橋里","LIN":"3鄰","STREET":"大橋三街","SECT":" ","MAREA":" ","LANE":"１２４巷","ALLEY":" ","HOUSE_NO":"１號","E_COORD97":170785.04999999999,"N_COORD97":2546675.9900000002,"ADDRESS":"大橋三街１２４巷１號","OBJECTID":229600},"geometry":{"x":170785.05000000075,"y":2546675.9900000039}}]}