{"displayFieldName":"TOWNNAME","fieldAliases":{"ID":"ID","DIS_CODE":"DIS_CODE","TOWNNAME":"TOWNNAME","LI":"LI","LIN":"LIN","STREET":"STREET","SECT":"SECT","MAREA":"MAREA","LANE":"LANE","ALLEY":"ALLEY","HOUSE_NO":"HOUSE_NO","E_COORD97":"E_COORD97","N_COORD97":"N_COORD97","ADDRESS":"ADDRESS","OBJECTID":"OBJECTID"},"geometryType":"esriGeometryPoint","spatialReference":{"wkid":102443,"latestWkid":3826},"fields":[{"name":"ID","type":"esriFieldTypeDouble","alias":"ID"},{"name":"DIS_CODE","type":"esriFieldTypeInteger","alias":"DIS_CODE"},{"name":"TOWNNAME","type":"esriFieldTypeString","alias":"TOWNNAME","length":8},{"name":"LI","type":"esriFieldTypeString","alias":"LI","length":8},{"name":"LIN","type":"esriFieldTypeString","alias":"LIN","length":12},{"name":"STREET","type":"esriFieldTypeString","alias":"STREET","length":20},{"name":"SECT","type":"esriFieldTypeString","alias":"SECT","length":8},{"name":"MAREA","type":"esriFieldTypeString","alias":"MAREA","length":12},{"name":"LANE","type":"esriFieldTypeString","alias":"LANE","length":10},{"name":"ALLEY","type":"esriFieldTypeString","alias":"ALLEY","length":10},{"name":"HOUSE_NO","type":"esriFieldTypeString","alias":"HOUSE_NO","length":20},{"name":"E_COORD97","type":"esriFieldTypeDouble","alias":"E_COORD97"},{"name":"N_COORD97","type":"esriFieldTypeDouble","alias":"N_COORD97"},{"name":"ADDRESS","type":"esriFieldTypeString","alias":"ADDRESS","length":50},{"name":"OBJECTID","type":"esriFieldTypeOID","alias":"OBJECTID"}],"features":[{"attributes":{"ID":113601,"DIS_CODE":0,"TOWNNAME":"新市區","LI":"新和里","LIN":"28鄰","STREET":"永福街","SECT":" ","MAREA":" ","LANE":"１６巷","ALLEY":"７０弄","HOUSE_NO":"１號","E_COORD97":177809.76999999999,"N_COORD97":2552840.4500000002,"ADDRESS":"永福街１６巷７０弄１號","OBJECTID":113601},"geometry":{"x":177809.77000000048,"y":2552840.4500000011}},{"attributes":{"ID":113602,"DIS_CODE":0,"TOWNNAME":"新市區","LI":"新和里","LIN":"28鄰","STREET":"永福街","SECT":" ","MAREA":" ","LANE":"１６巷","ALLEY":"７０弄","HOUSE_NO":"３號","E_COORD97":177814.56,"N_COORD97":2552842.6299999999,"ADDRESS":"永福街１６巷７０弄３號","OBJECTID":113602},"geometry":{"x":177814.56000000052,"y":2552842.629999999}},{"attributes":{"ID":113603,"DIS_CODE":0,"TOWNNAME":"新市區","LI":"新和里","LIN":"28鄰","STREET":"永福街","SECT":" ","MAREA":" ","LANE":"１６巷","ALLEY":"７０弄","HOUSE_NO":"５號","E_COORD97":177818.42999999999,"N_COORD97":2552847.04,"ADDRESS":"永福街１６巷７０弄５號","OBJECTID":113603},"geometry":{"x":177818.43000000156,"y":2552847.0399999991}},{"attributes":{"ID":113604,"DIS_CODE":0,"TOWNNAME":"新市區","LI":"新和里","LIN":"28鄰","STREET":"永福街","SECT":" ","MAREA":" ","LANE":"１６巷","ALLEY":"７０弄","HOUSE_NO":"７號","E_COORD97":177823.03,"N_COORD97":2552848.2799999998,"ADDRESS":"永福街１６巷７０弄７號","OBJECTID":113604},"geometry":{"x":177823.03000000026,"y":2552848.2800000012}},{"attributes":{"ID":113605,"DIS_CODE":0,"TOWNNAME":"新市區","LI":"新和里","LIN":"28鄰","STREET":"永福街","SECT":" ","MAREA":" ","LANE":"１６巷","ALLEY":"７０弄","HOUSE_NO":"９號","E_COORD97":177827.98000000001,"N_COORD97":2552846.2400000002,"ADDRESS":"永福街１６巷７０弄９號","OBJECTID":113605},"geometry":{"x":177827.98000000138,"y":2552846.2400000021}},{"attributes":{"ID":113606,"DIS_CODE":0,"TOWNNAME":"新市區","LI":"新和里","LIN":"28鄰","STREET":"永福街","SECT":" ","MAREA":" ","LANE":"１６巷","ALLEY":"７０弄","HOUSE_NO":"１１號","E_COORD97":177831.60999999999,"N_COORD97":2552850.5800000001,"ADDRESS":"永福街１６巷７０弄１１號","OBJECTID":113606},"geometry":{"x":177831.61000000127,"y":2552850.5800000019}},{"attributes":{"ID":113607,"DIS_CODE":0,"TOWNNAME":"新市區","LI":"新和里","LIN":"28鄰","STREET":"永福街","SECT":" ","MAREA":" ","LANE":"１６巷","ALLEY":"７０弄","HOUSE_NO":"１３號","E_COORD97":177838.01999999999,"N_COORD97":2552850.3100000001,"ADDRESS":"永福街１６巷７０弄１３號","OBJECTID":113607},"geometry":{"x":177838.02000000142,"y":2552850.3100000005}},{"attributes":{"ID":113608,"DIS_CODE":0,"TOWNNAME":"新市區","LI":"新和里","LIN":"28鄰","STREET":"永福街","SECT":" ","MAREA":" ","LANE":"１６巷","ALLEY":"８８弄","HOUSE_NO":"２號","E_COORD97":177805.75,"N_COORD97":2552860.21,"ADDRESS":"永福街１６巷８８弄２號","OBJECTID":113608},"geometry":{"x":177805.75,"y":2552860.2100000028}},{"attributes":{"ID":113609,"DIS_CODE":0,"TOWNNAME":"新市區","LI":"新和里","LIN":"28鄰","STREET":"永福街","SECT":" ","MAREA":" ","LANE":"１６巷","ALLEY":"８８弄","HOUSE_NO":"６號","E_COORD97":177811.85000000001,"N_COORD97":2552861.8399999999,"ADDRESS":"永福街１６巷８８弄６號","OBJECTID":113609},"geometry":{"x":177811.84999999963,"y":2552861.8400000017}},{"attributes":{"ID":113610,"DIS_CODE":0,"TOWNNAME":"新市區","LI":"新和里","LIN":"28鄰","STREET":"永福街","SECT":" ","MAREA":" ","LANE":"１６巷","ALLEY":"８８弄","HOUSE_NO":"８號","E_COORD97":177815.98000000001,"N_COORD97":2552862.9500000002,"ADDRESS":"永福街１６巷８８弄８號","OBJECTID":113610},"geometry":{"x":177815.98000000138,"y":2552862.9500000011}},{"attributes":{"ID":113611,"DIS_CODE":0,"TOWNNAME":"新市區","LI":"新和里","LIN":"28鄰","STREET":"永福街","SECT":" ","MAREA":" ","LANE":"１６巷","ALLEY":"８８弄","HOUSE_NO":"１０號","E_COORD97":177820.98000000001,"N_COORD97":2552865.71,"ADDRESS":"永福街１６巷８８弄１０號","OBJECTID":113611},"geometry":{"x":177820.98000000138,"y":2552865.709999999}},{"attributes":{"ID":113612,"DIS_CODE":0,"TOWNNAME":"東區","LI":"虎尾里","LIN":"32鄰","STREET":"東成街","SECT":" ","MAREA":" ","LANE":"１８２巷","ALLEY":"４弄","HOUSE_NO":"９號","E_COORD97":171735.84,"N_COORD97":2542202.6400000001,"ADDRESS":"東成街１８２巷４弄９號","OBJECTID":113612},"geometry":{"x":171735.84000000078,"y":2542202.6400000006}},{"attributes":{"ID":113613,"DIS_CODE":0,"TOWNNAME":"新市區","LI":"新和里","LIN":"28鄰","STREET":"永福街","SECT":" ","MAREA":" ","LANE":"１６巷","ALLEY":"８８弄","HOUSE_NO":"１２號","E_COORD97":177825.95999999999,"N_COORD97":2552865.6299999999,"ADDRESS":"永福街１６巷８８弄１２號","OBJECTID":113613},"geometry":{"x":177825.96000000089,"y":2552865.6300000008}},{"attributes":{"ID":113614,"DIS_CODE":0,"TOWNNAME":"新市區","LI":"新和里","LIN":"28鄰","STREET":"永福街","SECT":" ","MAREA":" ","LANE":"１６巷","ALLEY":"８８弄","HOUSE_NO":"１６號","E_COORD97":177833.04999999999,"N_COORD97":2552867.02,"ADDRESS":"永福街１６巷８８弄１６號","OBJECTID":113614},"geometry":{"x":177833.05000000168,"y":2552867.0200000014}},{"attributes":{"ID":113615,"DIS_CODE":0,"TOWNNAME":"新市區","LI":"新和里","LIN":"28鄰","STREET":"永福街","SECT":" ","MAREA":" ","LANE":"１６巷","ALLEY":"８８弄","HOUSE_NO":"１號","E_COORD97":177799.95000000001,"N_COORD97":2552880.71,"ADDRESS":"永福街１６巷８８弄１號","OBJECTID":113615},"geometry":{"x":177799.95000000019,"y":2552880.7100000028}},{"attributes":{"ID":113616,"DIS_CODE":0,"TOWNNAME":"新市區","LI":"新和里","LIN":"28鄰","STREET":"永福街","SECT":" ","MAREA":" ","LANE":"１６巷","ALLEY":"８８弄","HOUSE_NO":"３號","E_COORD97":177805.85000000001,"N_COORD97":2552883.3999999999,"ADDRESS":"永福街１６巷８８弄３號","OBJECTID":113616},"geometry":{"x":177805.85000000056,"y":2552883.4000000004}},{"attributes":{"ID":113617,"DIS_CODE":0,"TOWNNAME":"新市區","LI":"新和里","LIN":"28鄰","STREET":"永福街","SECT":" ","MAREA":" ","LANE":"１６巷","ALLEY":"８８弄","HOUSE_NO":"５號","E_COORD97":177810.88,"N_COORD97":2552886.4100000001,"ADDRESS":"永福街１６巷８８弄５號","OBJECTID":113617},"geometry":{"x":177810.88000000082,"y":2552886.4100000001}},{"attributes":{"ID":113618,"DIS_CODE":0,"TOWNNAME":"新市區","LI":"新和里","LIN":"28鄰","STREET":"永福街","SECT":" ","MAREA":" ","LANE":"１６巷","ALLEY":"８８弄","HOUSE_NO":"７號","E_COORD97":177815.81,"N_COORD97":2552885.0699999998,"ADDRESS":"永福街１６巷８８弄７號","OBJECTID":113618},"geometry":{"x":177815.81000000145,"y":2552885.0700000003}},{"attributes":{"ID":113619,"DIS_CODE":0,"TOWNNAME":"新市區","LI":"新和里","LIN":"28鄰","STREET":"永福街","SECT":" ","MAREA":" ","LANE":"１６巷","ALLEY":"８８弄","HOUSE_NO":"９號","E_COORD97":177820.07000000001,"N_COORD97":2552888.6699999999,"ADDRESS":"永福街１６巷８８弄９號","OBJECTID":113619},"geometry":{"x":177820.07000000123,"y":2552888.6699999981}},{"attributes":{"ID":113620,"DIS_CODE":0,"TOWNNAME":"歸仁區","LI":"看西里","LIN":"8鄰","STREET":"大成路","SECT":" ","MAREA":" ","LANE":" ","ALLEY":" ","HOUSE_NO":"３９９號","E_COORD97":178188.92999999999,"N_COORD97":2540175.25,"ADDRESS":"大成路３９９號","OBJECTID":113620},"geometry":{"x":178188.9299999997,"y":2540175.2500000019}},{"attributes":{"ID":113621,"DIS_CODE":0,"TOWNNAME":"新市區","LI":"新和里","LIN":"28鄰","STREET":"永福街","SECT":" ","MAREA":" ","LANE":"１６巷","ALLEY":"８８弄","HOUSE_NO":"１１號","E_COORD97":177827.60999999999,"N_COORD97":2552887.75,"ADDRESS":"永福街１６巷８８弄１１號","OBJECTID":113621},"geometry":{"x":177827.61000000034,"y":2552887.75}},{"attributes":{"ID":113622,"DIS_CODE":0,"TOWNNAME":"永康區","LI":"二王里","LIN":"28鄰","STREET":"中山南路","SECT":" ","MAREA":" ","LANE":"５４４巷","ALLEY":"５２弄","HOUSE_NO":"９號","E_COORD97":172296.57000000001,"N_COORD97":2546437.25,"ADDRESS":"中山南路５４４巷５２弄９號","OBJECTID":113622},"geometry":{"x":172296.5700000003,"y":2546437.2500000019}},{"attributes":{"ID":113623,"DIS_CODE":0,"TOWNNAME":"西港區","LI":"西港里","LIN":"23鄰","STREET":" ","SECT":" ","MAREA":"堀子頭","LANE":" ","ALLEY":" ","HOUSE_NO":"２４號之１３","E_COORD97":168719.73999999999,"N_COORD97":2557764.0800000001,"ADDRESS":"堀子頭２４號之１３","OBJECTID":113623},"geometry":{"x":168719.74000000022,"y":2557764.0800000001}},{"attributes":{"ID":113624,"DIS_CODE":0,"TOWNNAME":"西港區","LI":"西港里","LIN":"23鄰","STREET":" ","SECT":" ","MAREA":"堀子頭","LANE":" ","ALLEY":" ","HOUSE_NO":"２４號之１４","E_COORD97":168723.92000000001,"N_COORD97":2557764.52,"ADDRESS":"堀子頭２４號之１４","OBJECTID":113624},"geometry":{"x":168723.91999999899,"y":2557764.5199999996}},{"attributes":{"ID":113625,"DIS_CODE":0,"TOWNNAME":"仁德區","LI":"仁愛里","LIN":"23鄰","STREET":" ","SECT":" ","MAREA":"仁愛","LANE":" ","ALLEY":" ","HOUSE_NO":"４７７號","E_COORD97":170079.36737399999,"N_COORD97":2540086.03315,"ADDRESS":"仁愛４７７號","OBJECTID":113625},"geometry":{"x":170079.367374002,"y":2540086.0331530031}},{"attributes":{"ID":113626,"DIS_CODE":0,"TOWNNAME":"官田區","LI":"官田里","LIN":"23鄰","STREET":" ","SECT":" ","MAREA":"官田","LANE":" ","ALLEY":" ","HOUSE_NO":"３５７號","E_COORD97":182307.91,"N_COORD97":2565082.5899999999,"ADDRESS":"官田３５７號","OBJECTID":113626},"geometry":{"x":182307.91000000201,"y":2565082.5900000017}},{"attributes":{"ID":113627,"DIS_CODE":0,"TOWNNAME":"官田區","LI":"官田里","LIN":"23鄰","STREET":" ","SECT":" ","MAREA":"官田","LANE":" ","ALLEY":" ","HOUSE_NO":"３６７號","E_COORD97":182328.41,"N_COORD97":2565117.0800000001,"ADDRESS":"官田３６７號","OBJECTID":113627},"geometry":{"x":182328.41000000108,"y":2565117.0800000001}},{"attributes":{"ID":113628,"DIS_CODE":0,"TOWNNAME":"官田區","LI":"官田里","LIN":"23鄰","STREET":" ","SECT":" ","MAREA":"官田","LANE":" ","ALLEY":" ","HOUSE_NO":"３６８號","E_COORD97":182353.47,"N_COORD97":2565123.5,"ADDRESS":"官田３６８號","OBJECTID":113628},"geometry":{"x":182353.47000000067,"y":2565123.5000000019}},{"attributes":{"ID":113629,"DIS_CODE":0,"TOWNNAME":"官田區","LI":"官田里","LIN":"23鄰","STREET":" ","SECT":" ","MAREA":"官田","LANE":" ","ALLEY":" ","HOUSE_NO":"３６９號","E_COORD97":182344.67999999999,"N_COORD97":2565128.46,"ADDRESS":"官田３６９號","OBJECTID":113629},"geometry":{"x":182344.68000000156,"y":2565128.4600000028}},{"attributes":{"ID":113630,"DIS_CODE":0,"TOWNNAME":"官田區","LI":"官田里","LIN":"23鄰","STREET":" ","SECT":" ","MAREA":"官田","LANE":" ","ALLEY":" ","HOUSE_NO":"３７０號","E_COORD97":182351.73999999999,"N_COORD97":2565137.4900000002,"ADDRESS":"官田３７０號","OBJECTID":113630},"geometry":{"x":182351.74000000115,"y":2565137.4900000021}},{"attributes":{"ID":113631,"DIS_CODE":0,"TOWNNAME":"官田區","LI":"官田里","LIN":"23鄰","STREET":" ","SECT":" ","MAREA":"官田","LANE":" ","ALLEY":" ","HOUSE_NO":"３７１號","E_COORD97":182347.67999999999,"N_COORD97":2565156.25,"ADDRESS":"官田３７１號","OBJECTID":113631},"geometry":{"x":182347.6799999997,"y":2565156.2500000019}},{"attributes":{"ID":113632,"DIS_CODE":0,"TOWNNAME":"南區","LI":"明興里","LIN":"1鄰","STREET":"德興路","SECT":" ","MAREA":" ","LANE":" ","ALLEY":" ","HOUSE_NO":"２號","E_COORD97":167164.20000000001,"N_COORD97":2540858.1800000002,"ADDRESS":"德興路２號","OBJECTID":113632},"geometry":{"x":167164.20000000019,"y":2540858.1799999997}},{"attributes":{"ID":113633,"DIS_CODE":0,"TOWNNAME":"官田區","LI":"官田里","LIN":"23鄰","STREET":" ","SECT":" ","MAREA":"官田","LANE":" ","ALLEY":" ","HOUSE_NO":"３７２號","E_COORD97":182304.72,"N_COORD97":2565125.4399999999,"ADDRESS":"官田３７２號","OBJECTID":113633},"geometry":{"x":182304.71999999974,"y":2565125.4399999995}},{"attributes":{"ID":113634,"DIS_CODE":0,"TOWNNAME":"官田區","LI":"官田里","LIN":"23鄰","STREET":" ","SECT":" ","MAREA":"官田","LANE":" ","ALLEY":" ","HOUSE_NO":"３７３號","E_COORD97":182321.82999999999,"N_COORD97":2565151.6699999999,"ADDRESS":"官田３７３號","OBJECTID":113634},"geometry":{"x":182321.82999999914,"y":2565151.6699999981}},{"attributes":{"ID":113635,"DIS_CODE":0,"TOWNNAME":"官田區","LI":"官田里","LIN":"23鄰","STREET":" ","SECT":" ","MAREA":"官田","LANE":" ","ALLEY":" ","HOUSE_NO":"３７４號之２","E_COORD97":182281.62,"N_COORD97":2565153.48,"ADDRESS":"官田３７４號之２","OBJECTID":113635},"geometry":{"x":182281.62000000104,"y":2565153.4799999986}},{"attributes":{"ID":113636,"DIS_CODE":0,"TOWNNAME":"官田區","LI":"官田里","LIN":"23鄰","STREET":" ","SECT":" ","MAREA":"官田","LANE":" ","ALLEY":" ","HOUSE_NO":"３７４號之３","E_COORD97":182273.66,"N_COORD97":2565169.8799999999,"ADDRESS":"官田３７４號之３","OBJECTID":113636},"geometry":{"x":182273.66000000015,"y":2565169.8800000027}},{"attributes":{"ID":113637,"DIS_CODE":0,"TOWNNAME":"官田區","LI":"官田里","LIN":"23鄰","STREET":" ","SECT":" ","MAREA":"官田","LANE":" ","ALLEY":" ","HOUSE_NO":"３７４號之４","E_COORD97":182272.37,"N_COORD97":2565175.27,"ADDRESS":"官田３７４號之４","OBJECTID":113637},"geometry":{"x":182272.37000000011,"y":2565175.2700000014}},{"attributes":{"ID":113638,"DIS_CODE":0,"TOWNNAME":"官田區","LI":"官田里","LIN":"23鄰","STREET":" ","SECT":" ","MAREA":"官田","LANE":" ","ALLEY":" ","HOUSE_NO":"３７４號之５","E_COORD97":182272.69,"N_COORD97":2565179.9100000001,"ADDRESS":"官田３７４號之５","OBJECTID":113638},"geometry":{"x":182272.69000000134,"y":2565179.9100000001}},{"attributes":{"ID":113639,"DIS_CODE":0,"TOWNNAME":"官田區","LI":"官田里","LIN":"23鄰","STREET":" ","SECT":" ","MAREA":"官田","LANE":" ","ALLEY":" ","HOUSE_NO":"３７４號之６","E_COORD97":182271.29000000001,"N_COORD97":2565183.7599999998,"ADDRESS":"官田３７４號之６","OBJECTID":113639},"geometry":{"x":182271.2900000019,"y":2565183.7599999998}},{"attributes":{"ID":113640,"DIS_CODE":0,"TOWNNAME":"官田區","LI":"官田里","LIN":"23鄰","STREET":" ","SECT":" ","MAREA":"官田","LANE":" ","ALLEY":" ","HOUSE_NO":"３７５號","E_COORD97":182313.89000000001,"N_COORD97":2565167.4700000002,"ADDRESS":"官田３７５號","OBJECTID":113640},"geometry":{"x":182313.88999999966,"y":2565167.4700000044}},{"attributes":{"ID":113641,"DIS_CODE":0,"TOWNNAME":"官田區","LI":"官田里","LIN":"23鄰","STREET":" ","SECT":" ","MAREA":"官田","LANE":" ","ALLEY":" ","HOUSE_NO":"３７６號","E_COORD97":182331.95000000001,"N_COORD97":2565171.1600000001,"ADDRESS":"官田３７６號","OBJECTID":113641},"geometry":{"x":182331.95000000112,"y":2565171.1600000001}},{"attributes":{"ID":113642,"DIS_CODE":0,"TOWNNAME":"官田區","LI":"官田里","LIN":"23鄰","STREET":" ","SECT":" ","MAREA":"官田","LANE":" ","ALLEY":" ","HOUSE_NO":"３７７號","E_COORD97":182346.53,"N_COORD97":2565172.9900000002,"ADDRESS":"官田３７７號","OBJECTID":113642},"geometry":{"x":182346.53000000119,"y":2565172.9900000002}},{"attributes":{"ID":113643,"DIS_CODE":0,"TOWNNAME":"善化區","LI":"牛庄里","LIN":"7鄰","STREET":" ","SECT":" ","MAREA":"牛庄","LANE":" ","ALLEY":" ","HOUSE_NO":"７３號","E_COORD97":180134.94,"N_COORD97":2559955.5,"ADDRESS":"牛庄７３號","OBJECTID":113643},"geometry":{"x":180134.94000000134,"y":2559955.4999999981}},{"attributes":{"ID":113644,"DIS_CODE":0,"TOWNNAME":"西港區","LI":"西港里","LIN":"23鄰","STREET":" ","SECT":" ","MAREA":"堀子頭","LANE":" ","ALLEY":" ","HOUSE_NO":"２４號之１５","E_COORD97":168722.17000000001,"N_COORD97":2557786.3500000001,"ADDRESS":"堀子頭２４號之１５","OBJECTID":113644},"geometry":{"x":168722.16999999993,"y":2557786.3500000034}},{"attributes":{"ID":113645,"DIS_CODE":0,"TOWNNAME":"西港區","LI":"西港里","LIN":"23鄰","STREET":" ","SECT":" ","MAREA":"堀子頭","LANE":" ","ALLEY":" ","HOUSE_NO":"２４號之１６","E_COORD97":168717.48999999999,"N_COORD97":2557785.5499999998,"ADDRESS":"堀子頭２４號之１６","OBJECTID":113645},"geometry":{"x":168717.49000000115,"y":2557785.5500000007}},{"attributes":{"ID":113646,"DIS_CODE":0,"TOWNNAME":"西港區","LI":"西港里","LIN":"23鄰","STREET":" ","SECT":" ","MAREA":"堀子頭","LANE":" ","ALLEY":" ","HOUSE_NO":"２４號之１７","E_COORD97":168713.32000000001,"N_COORD97":2557785.1800000002,"ADDRESS":"堀子頭２４號之１７","OBJECTID":113646},"geometry":{"x":168713.32000000216,"y":2557785.1800000016}},{"attributes":{"ID":113647,"DIS_CODE":0,"TOWNNAME":"西港區","LI":"西港里","LIN":"23鄰","STREET":" ","SECT":" ","MAREA":"堀子頭","LANE":" ","ALLEY":" ","HOUSE_NO":"２４號之１８","E_COORD97":168709.09,"N_COORD97":2557784.77,"ADDRESS":"堀子頭２４號之１８","OBJECTID":113647},"geometry":{"x":168709.08999999892,"y":2557784.7700000014}},{"attributes":{"ID":113648,"DIS_CODE":0,"TOWNNAME":"西港區","LI":"西港里","LIN":"23鄰","STREET":" ","SECT":" ","MAREA":"堀子頭","LANE":" ","ALLEY":" ","HOUSE_NO":"２４號之１９","E_COORD97":168704.95000000001,"N_COORD97":2557784.3799999999,"ADDRESS":"堀子頭２４號之１９","OBJECTID":113648},"geometry":{"x":168704.95000000019,"y":2557784.379999999}},{"attributes":{"ID":113649,"DIS_CODE":0,"TOWNNAME":"西港區","LI":"西港里","LIN":"23鄰","STREET":" ","SECT":" ","MAREA":"堀子頭","LANE":" ","ALLEY":" ","HOUSE_NO":"２４號之２０","E_COORD97":168699.89000000001,"N_COORD97":2557783.5800000001,"ADDRESS":"堀子頭２４號之２０","OBJECTID":113649},"geometry":{"x":168699.88999999966,"y":2557783.5800000019}},{"attributes":{"ID":113650,"DIS_CODE":0,"TOWNNAME":"西港區","LI":"西港里","LIN":"23鄰","STREET":" ","SECT":" ","MAREA":"堀子頭","LANE":" ","ALLEY":" ","HOUSE_NO":"２４號之２１","E_COORD97":168695.92999999999,"N_COORD97":2557782.98,"ADDRESS":"堀子頭２４號之２１","OBJECTID":113650},"geometry":{"x":168695.9299999997,"y":2557782.9800000042}},{"attributes":{"ID":113651,"DIS_CODE":0,"TOWNNAME":"西港區","LI":"西港里","LIN":"23鄰","STREET":" ","SECT":" ","MAREA":"堀子頭","LANE":" ","ALLEY":" ","HOUSE_NO":"２４號之２２","E_COORD97":168691.91,"N_COORD97":2557782.7200000002,"ADDRESS":"堀子頭２４號之２２","OBJECTID":113651},"geometry":{"x":168691.91000000015,"y":2557782.7200000025}},{"attributes":{"ID":113652,"DIS_CODE":0,"TOWNNAME":"北門區","LI":"雙春里","LIN":"8鄰","STREET":" ","SECT":" ","MAREA":"雙春","LANE":" ","ALLEY":" ","HOUSE_NO":"５４號","E_COORD97":160948.44,"N_COORD97":2577777.3199999998,"ADDRESS":"雙春５４號","OBJECTID":113652},"geometry":{"x":160948.43999999948,"y":2577777.3200000022}},{"attributes":{"ID":113653,"DIS_CODE":0,"TOWNNAME":"西港區","LI":"西港里","LIN":"23鄰","STREET":" ","SECT":" ","MAREA":"堀子頭","LANE":" ","ALLEY":" ","HOUSE_NO":"２４號之２３","E_COORD97":168686.89999999999,"N_COORD97":2557782.1299999999,"ADDRESS":"堀子頭２４號之２３","OBJECTID":113653},"geometry":{"x":168686.90000000037,"y":2557782.129999999}},{"attributes":{"ID":113654,"DIS_CODE":0,"TOWNNAME":"西港區","LI":"西港里","LIN":"23鄰","STREET":" ","SECT":" ","MAREA":"堀子頭","LANE":" ","ALLEY":" ","HOUSE_NO":"２４號之２４","E_COORD97":168682.78,"N_COORD97":2557781.4700000002,"ADDRESS":"堀子頭２４號之２４","OBJECTID":113654},"geometry":{"x":168682.78000000026,"y":2557781.4700000025}},{"attributes":{"ID":113655,"DIS_CODE":0,"TOWNNAME":"西港區","LI":"西港里","LIN":"23鄰","STREET":" ","SECT":" ","MAREA":"堀子頭","LANE":" ","ALLEY":" ","HOUSE_NO":"２４號之２５","E_COORD97":168678.04000000001,"N_COORD97":2557780.9199999999,"ADDRESS":"堀子頭２４號之２５","OBJECTID":113655},"geometry":{"x":168678.04000000097,"y":2557780.9200000018}},{"attributes":{"ID":113656,"DIS_CODE":0,"TOWNNAME":"西港區","LI":"金砂里","LIN":"1鄰","STREET":" ","SECT":" ","MAREA":"施寮","LANE":" ","ALLEY":" ","HOUSE_NO":"８號","E_COORD97":168994.10000000001,"N_COORD97":2561058.7799999998,"ADDRESS":"施寮８號","OBJECTID":113656},"geometry":{"x":168994.10000000056,"y":2561058.7800000012}},{"attributes":{"ID":113657,"DIS_CODE":0,"TOWNNAME":"西港區","LI":"西港里","LIN":"23鄰","STREET":" ","SECT":" ","MAREA":"堀子頭","LANE":" ","ALLEY":" ","HOUSE_NO":"２４號之２６","E_COORD97":168673.88,"N_COORD97":2557780.04,"ADDRESS":"堀子頭２４號之２６","OBJECTID":113657},"geometry":{"x":168673.88000000082,"y":2557780.0399999991}},{"attributes":{"ID":113658,"DIS_CODE":0,"TOWNNAME":"西港區","LI":"西港里","LIN":"23鄰","STREET":" ","SECT":" ","MAREA":"堀子頭","LANE":" ","ALLEY":" ","HOUSE_NO":"２４號之２７","E_COORD97":168672.45999999999,"N_COORD97":2557805.6899999999,"ADDRESS":"堀子頭２４號之２７","OBJECTID":113658},"geometry":{"x":168672.45999999996,"y":2557805.6900000013}},{"attributes":{"ID":113659,"DIS_CODE":0,"TOWNNAME":"西港區","LI":"西港里","LIN":"23鄰","STREET":" ","SECT":" ","MAREA":"堀子頭","LANE":" ","ALLEY":" ","HOUSE_NO":"２４號之２８","E_COORD97":168677.07000000001,"N_COORD97":2557806.6899999999,"ADDRESS":"堀子頭２４號之２８","OBJECTID":113659},"geometry":{"x":168677.0700000003,"y":2557806.6899999995}},{"attributes":{"ID":113660,"DIS_CODE":0,"TOWNNAME":"西港區","LI":"西港里","LIN":"23鄰","STREET":" ","SECT":" ","MAREA":"堀子頭","LANE":" ","ALLEY":" ","HOUSE_NO":"２４號之２９","E_COORD97":168682.10999999999,"N_COORD97":2557807.0099999998,"ADDRESS":"堀子頭２４號之２９","OBJECTID":113660},"geometry":{"x":168682.11000000034,"y":2557807.0100000016}},{"attributes":{"ID":113661,"DIS_CODE":0,"TOWNNAME":"西港區","LI":"西港里","LIN":"23鄰","STREET":" ","SECT":" ","MAREA":"堀子頭","LANE":" ","ALLEY":" ","HOUSE_NO":"２４號之３０","E_COORD97":168686.48000000001,"N_COORD97":2557807.8700000001,"ADDRESS":"堀子頭２４號之３０","OBJECTID":113661},"geometry":{"x":168686.48000000045,"y":2557807.8699999992}},{"attributes":{"ID":113662,"DIS_CODE":0,"TOWNNAME":"西港區","LI":"西港里","LIN":"23鄰","STREET":" ","SECT":" ","MAREA":"堀子頭","LANE":" ","ALLEY":" ","HOUSE_NO":"２４號之３１","E_COORD97":168690.98999999999,"N_COORD97":2557808.1499999999,"ADDRESS":"堀子頭２４號之３１","OBJECTID":113662},"geometry":{"x":168690.99000000022,"y":2557808.1500000004}},{"attributes":{"ID":113663,"DIS_CODE":0,"TOWNNAME":"永康區","LI":"尚頂里","LIN":"28鄰","STREET":"南台街","SECT":" ","MAREA":" ","LANE":"５４巷","ALLEY":"４１弄","HOUSE_NO":"１６號","E_COORD97":170259.04999999999,"N_COORD97":2547093.6299999999,"ADDRESS":"南台街５４巷４１弄１６號","OBJECTID":113663},"geometry":{"x":170259.05000000075,"y":2547093.629999999}},{"attributes":{"ID":113664,"DIS_CODE":0,"TOWNNAME":"西港區","LI":"西港里","LIN":"23鄰","STREET":" ","SECT":" ","MAREA":"堀子頭","LANE":" ","ALLEY":" ","HOUSE_NO":"２４號之３２","E_COORD97":168695.98000000001,"N_COORD97":2557808.8900000001,"ADDRESS":"堀子頭２４號之３２","OBJECTID":113664},"geometry":{"x":168695.98000000138,"y":2557808.8900000025}},{"attributes":{"ID":113665,"DIS_CODE":0,"TOWNNAME":"永康區","LI":"東灣里","LIN":"28鄰","STREET":"民族路","SECT":" ","MAREA":" ","LANE":"１８１巷","ALLEY":"１弄","HOUSE_NO":"１號","E_COORD97":175250.79000000001,"N_COORD97":2544852.6000000001,"ADDRESS":"民族路１８１巷１弄１號","OBJECTID":113665},"geometry":{"x":175250.79000000004,"y":2544852.5999999996}},{"attributes":{"ID":113666,"DIS_CODE":0,"TOWNNAME":"永康區","LI":"尚頂里","LIN":"28鄰","STREET":"南台街","SECT":" ","MAREA":" ","LANE":"５４巷","ALLEY":"４１弄","HOUSE_NO":"１４號","E_COORD97":170275.10000000001,"N_COORD97":2547092.7999999998,"ADDRESS":"南台街５４巷４１弄１４號","OBJECTID":113666},"geometry":{"x":170275.09999999963,"y":2547092.8000000026}},{"attributes":{"ID":113667,"DIS_CODE":0,"TOWNNAME":"永康區","LI":"大灣里","LIN":"28鄰","STREET":"民族路","SECT":" ","MAREA":" ","LANE":"１９０巷","ALLEY":"１４弄","HOUSE_NO":"１３號","E_COORD97":175252.70000000001,"N_COORD97":2545001.2999999998,"ADDRESS":"民族路１９０巷１４弄１３號","OBJECTID":113667},"geometry":{"x":175252.70000000112,"y":2545001.3000000007}},{"attributes":{"ID":113668,"DIS_CODE":0,"TOWNNAME":"永康區","LI":"二王里","LIN":"28鄰","STREET":"中山南路","SECT":" ","MAREA":" ","LANE":"５４４巷","ALLEY":"４０弄","HOUSE_NO":"１號","E_COORD97":172293.42999999999,"N_COORD97":2546496.4900000002,"ADDRESS":"中山南路５４４巷４０弄１號","OBJECTID":113668},"geometry":{"x":172293.4299999997,"y":2546496.4900000021}},{"attributes":{"ID":113669,"DIS_CODE":0,"TOWNNAME":"永康區","LI":"二王里","LIN":"28鄰","STREET":"中山南路","SECT":" ","MAREA":" ","LANE":"５４４巷","ALLEY":"５６弄","HOUSE_NO":"４號","E_COORD97":172314.94,"N_COORD97":2546406.75,"ADDRESS":"中山南路５４４巷５６弄４號","OBJECTID":113669},"geometry":{"x":172314.94000000227,"y":2546406.7500000019}},{"attributes":{"ID":113670,"DIS_CODE":0,"TOWNNAME":"永康區","LI":"二王里","LIN":"28鄰","STREET":"中山南路","SECT":" ","MAREA":" ","LANE":"５４４巷","ALLEY":"５２弄","HOUSE_NO":"２１號","E_COORD97":172263.03,"N_COORD97":2546440.75,"ADDRESS":"中山南路５４４巷５２弄２１號","OBJECTID":113670},"geometry":{"x":172263.03000000026,"y":2546440.7500000019}},{"attributes":{"ID":113671,"DIS_CODE":0,"TOWNNAME":"永康區","LI":"二王里","LIN":"28鄰","STREET":"中山南路","SECT":" ","MAREA":" ","LANE":"５４４巷","ALLEY":"５６弄","HOUSE_NO":"１４號","E_COORD97":172282.14000000001,"N_COORD97":2546413.25,"ADDRESS":"中山南路５４４巷５６弄１４號","OBJECTID":113671},"geometry":{"x":172282.14000000153,"y":2546413.2500000019}},{"attributes":{"ID":113672,"DIS_CODE":0,"TOWNNAME":"永康區","LI":"二王里","LIN":"28鄰","STREET":"中山南路","SECT":" ","MAREA":" ","LANE":"５４４巷","ALLEY":"５２弄","HOUSE_NO":"５號","E_COORD97":172308.39000000001,"N_COORD97":2546436.25,"ADDRESS":"中山南路５４４巷５２弄５號","OBJECTID":113672},"geometry":{"x":172308.3900000006,"y":2546436.2499999981}},{"attributes":{"ID":113673,"DIS_CODE":0,"TOWNNAME":"永康區","LI":"大灣里","LIN":"28鄰","STREET":"民族路","SECT":" ","MAREA":" ","LANE":"１９０巷","ALLEY":"１４弄","HOUSE_NO":"４號","E_COORD97":175255.28,"N_COORD97":2545056.2799999998,"ADDRESS":"民族路１９０巷１４弄４號","OBJECTID":113673},"geometry":{"x":175255.28000000212,"y":2545056.2800000012}},{"attributes":{"ID":113674,"DIS_CODE":0,"TOWNNAME":"永康區","LI":"二王里","LIN":"28鄰","STREET":"中山南路","SECT":" ","MAREA":" ","LANE":"５４４巷","ALLEY":"４０弄","HOUSE_NO":"６號","E_COORD97":172280.97,"N_COORD97":2546480.3300000001,"ADDRESS":"中山南路５４４巷４０弄６號","OBJECTID":113674},"geometry":{"x":172280.96999999974,"y":2546480.3300000038}},{"attributes":{"ID":113675,"DIS_CODE":0,"TOWNNAME":"永康區","LI":"二王里","LIN":"28鄰","STREET":"中山南路","SECT":" ","MAREA":" ","LANE":"５４４巷","ALLEY":"５６弄","HOUSE_NO":"３號","E_COORD97":172311.48999999999,"N_COORD97":2546392.1099999999,"ADDRESS":"中山南路５４４巷５６弄３號","OBJECTID":113675},"geometry":{"x":172311.49000000115,"y":2546392.1099999994}},{"attributes":{"ID":113676,"DIS_CODE":0,"TOWNNAME":"永康區","LI":"二王里","LIN":"28鄰","STREET":"中山南路","SECT":" ","MAREA":" ","LANE":"５４４巷","ALLEY":"４０弄","HOUSE_NO":"７號","E_COORD97":172294.12,"N_COORD97":2546476.4900000002,"ADDRESS":"中山南路５４４巷４０弄７號","OBJECTID":113676},"geometry":{"x":172294.12000000011,"y":2546476.4900000021}},{"attributes":{"ID":113677,"DIS_CODE":0,"TOWNNAME":"永康區","LI":"二王里","LIN":"28鄰","STREET":"中山南路","SECT":" ","MAREA":" ","LANE":"５４４巷","ALLEY":"５６弄","HOUSE_NO":"２號","E_COORD97":172322.14999999999,"N_COORD97":2546406.5,"ADDRESS":"中山南路５４４巷５６弄２號","OBJECTID":113677},"geometry":{"x":172322.1500000013,"y":2546406.5}},{"attributes":{"ID":113678,"DIS_CODE":0,"TOWNNAME":"永康區","LI":"二王里","LIN":"28鄰","STREET":"中山南路","SECT":" ","MAREA":" ","LANE":"５４４巷","ALLEY":"５２弄","HOUSE_NO":"１１號","E_COORD97":172292.20999999999,"N_COORD97":2546438,"ADDRESS":"中山南路５４４巷５２弄１１號","OBJECTID":113678},"geometry":{"x":172292.21000000183,"y":2546437.9999999981}},{"attributes":{"ID":113679,"DIS_CODE":0,"TOWNNAME":"永康區","LI":"二王里","LIN":"28鄰","STREET":"中山南路","SECT":" ","MAREA":" ","LANE":"５４４巷","ALLEY":"５２弄","HOUSE_NO":"８號","E_COORD97":172282.95999999999,"N_COORD97":2546457.2400000002,"ADDRESS":"中山南路５４４巷５２弄８號","OBJECTID":113679},"geometry":{"x":172282.95999999996,"y":2546457.2400000039}},{"attributes":{"ID":113680,"DIS_CODE":0,"TOWNNAME":"永康區","LI":"二王里","LIN":"28鄰","STREET":"中山南路","SECT":" ","MAREA":" ","LANE":"５４４巷","ALLEY":"５６弄","HOUSE_NO":"１號","E_COORD97":172317.73999999999,"N_COORD97":2546392.6099999999,"ADDRESS":"中山南路５４４巷５６弄１號","OBJECTID":113680},"geometry":{"x":172317.74000000209,"y":2546392.6100000031}},{"attributes":{"ID":113681,"DIS_CODE":0,"TOWNNAME":"西港區","LI":"營西里","LIN":"1鄰","STREET":" ","SECT":" ","MAREA":"後營","LANE":" ","ALLEY":" ","HOUSE_NO":"１號之２４","E_COORD97":169500.67000000001,"N_COORD97":2559991.0600000001,"ADDRESS":"後營１號之２４","OBJECTID":113681},"geometry":{"x":169500.67000000086,"y":2559991.0600000024}},{"attributes":{"ID":113682,"DIS_CODE":0,"TOWNNAME":"永康區","LI":"二王里","LIN":"28鄰","STREET":"中山南路","SECT":" ","MAREA":" ","LANE":"５４４巷","ALLEY":"５２弄","HOUSE_NO":"１０號","E_COORD97":172278.60000000001,"N_COORD97":2546459.2400000002,"ADDRESS":"中山南路５４４巷５２弄１０號","OBJECTID":113682},"geometry":{"x":172278.59999999963,"y":2546459.2400000002}},{"attributes":{"ID":113683,"DIS_CODE":0,"TOWNNAME":"永康區","LI":"二王里","LIN":"28鄰","STREET":"中山南路","SECT":" ","MAREA":" ","LANE":"５４４巷","ALLEY":"５２弄","HOUSE_NO":"１７號","E_COORD97":172274.73000000001,"N_COORD97":2546440,"ADDRESS":"中山南路５４４巷５２弄１７號","OBJECTID":113683},"geometry":{"x":172274.73000000138,"y":2546440}},{"attributes":{"ID":113684,"DIS_CODE":0,"TOWNNAME":"永康區","LI":"二王里","LIN":"28鄰","STREET":"中山南路","SECT":" ","MAREA":" ","LANE":"５４４巷","ALLEY":"５２弄","HOUSE_NO":"１５號","E_COORD97":172280.41,"N_COORD97":2546439.5,"ADDRESS":"中山南路５４４巷５２弄１５號","OBJECTID":113684},"geometry":{"x":172280.41000000015,"y":2546439.5000000019}},{"attributes":{"ID":113685,"DIS_CODE":0,"TOWNNAME":"永康區","LI":"二王里","LIN":"28鄰","STREET":"中山南路","SECT":" ","MAREA":" ","LANE":"５４４巷","ALLEY":"５２弄","HOUSE_NO":"６號","E_COORD97":172290.07000000001,"N_COORD97":2546456.2400000002,"ADDRESS":"中山南路５４４巷５２弄６號","OBJECTID":113685},"geometry":{"x":172290.07000000216,"y":2546456.2400000002}},{"attributes":{"ID":113686,"DIS_CODE":0,"TOWNNAME":"永康區","LI":"二王里","LIN":"28鄰","STREET":"中山南路","SECT":" ","MAREA":" ","LANE":"５４４巷","ALLEY":"５２弄","HOUSE_NO":"１號","E_COORD97":172320.22,"N_COORD97":2546435.75,"ADDRESS":"中山南路５４４巷５２弄１號","OBJECTID":113686},"geometry":{"x":172320.21999999974,"y":2546435.75}},{"attributes":{"ID":113687,"DIS_CODE":0,"TOWNNAME":"歸仁區","LI":"八甲里","LIN":"8鄰","STREET":"大光一街","SECT":" ","MAREA":" ","LANE":" ","ALLEY":" ","HOUSE_NO":"５６號","E_COORD97":177847.01999999999,"N_COORD97":2541788.6099999999,"ADDRESS":"大光一街５６號","OBJECTID":113687},"geometry":{"x":177847.02000000048,"y":2541788.6100000031}},{"attributes":{"ID":113688,"DIS_CODE":0,"TOWNNAME":"永康區","LI":"二王里","LIN":"28鄰","STREET":"中山南路","SECT":" ","MAREA":" ","LANE":"５４４巷","ALLEY":"４０弄","HOUSE_NO":"２號","E_COORD97":172280.63,"N_COORD97":2546485.5800000001,"ADDRESS":"中山南路５４４巷４０弄２號","OBJECTID":113688},"geometry":{"x":172280.62999999896,"y":2546485.5800000019}},{"attributes":{"ID":113689,"DIS_CODE":0,"TOWNNAME":"永康區","LI":"二王里","LIN":"28鄰","STREET":"中山南路","SECT":" ","MAREA":" ","LANE":"５４４巷","ALLEY":"５２弄","HOUSE_NO":"１２之１號","E_COORD97":172267.34,"N_COORD97":2546459.2400000002,"ADDRESS":"中山南路５４４巷５２弄１２之１號","OBJECTID":113689},"geometry":{"x":172267.33999999892,"y":2546459.2400000002}},{"attributes":{"ID":113690,"DIS_CODE":0,"TOWNNAME":"永康區","LI":"二王里","LIN":"28鄰","STREET":"中山南路","SECT":" ","MAREA":" ","LANE":"５４４巷","ALLEY":"４０弄","HOUSE_NO":"３號","E_COORD97":172293.70000000001,"N_COORD97":2546489.4900000002,"ADDRESS":"中山南路５４４巷４０弄３號","OBJECTID":113690},"geometry":{"x":172293.70000000019,"y":2546489.4900000039}},{"attributes":{"ID":113691,"DIS_CODE":0,"TOWNNAME":"永康區","LI":"二王里","LIN":"28鄰","STREET":"中山南路","SECT":" ","MAREA":" ","LANE":"５４４巷","ALLEY":"５２弄","HOUSE_NO":"２３號","E_COORD97":172257.51000000001,"N_COORD97":2546441.25,"ADDRESS":"中山南路５４４巷５２弄２３號","OBJECTID":113691},"geometry":{"x":172257.50999999978,"y":2546441.2500000019}},{"attributes":{"ID":113692,"DIS_CODE":0,"TOWNNAME":"西港區","LI":"西港里","LIN":"23鄰","STREET":" ","SECT":" ","MAREA":"堀子頭","LANE":" ","ALLEY":" ","HOUSE_NO":"２４號之３３","E_COORD97":168700.60000000001,"N_COORD97":2557809.3700000001,"ADDRESS":"堀子頭２４號之３３","OBJECTID":113692},"geometry":{"x":168700.60000000056,"y":2557809.3700000029}},{"attributes":{"ID":113693,"DIS_CODE":0,"TOWNNAME":"西港區","LI":"西港里","LIN":"23鄰","STREET":" ","SECT":" ","MAREA":"堀子頭","LANE":" ","ALLEY":" ","HOUSE_NO":"２４號之３４","E_COORD97":168705.14000000001,"N_COORD97":2557809.9100000001,"ADDRESS":"堀子頭２４號之３４","OBJECTID":113693},"geometry":{"x":168705.13999999966,"y":2557809.9100000001}},{"attributes":{"ID":113694,"DIS_CODE":0,"TOWNNAME":"西港區","LI":"西港里","LIN":"23鄰","STREET":" ","SECT":" ","MAREA":"堀子頭","LANE":" ","ALLEY":" ","HOUSE_NO":"２４號之３５","E_COORD97":168709.17000000001,"N_COORD97":2557810.6299999999,"ADDRESS":"堀子頭２４號之３５","OBJECTID":113694},"geometry":{"x":168709.17000000086,"y":2557810.629999999}},{"attributes":{"ID":113695,"DIS_CODE":0,"TOWNNAME":"西港區","LI":"西港里","LIN":"23鄰","STREET":" ","SECT":" ","MAREA":"堀子頭","LANE":" ","ALLEY":" ","HOUSE_NO":"２４號之３６","E_COORD97":168714.14999999999,"N_COORD97":2557810.79,"ADDRESS":"堀子頭２４號之３６","OBJECTID":113695},"geometry":{"x":168714.15000000037,"y":2557810.790000001}},{"attributes":{"ID":113696,"DIS_CODE":0,"TOWNNAME":"西港區","LI":"西港里","LIN":"23鄰","STREET":" ","SECT":" ","MAREA":"堀子頭","LANE":" ","ALLEY":" ","HOUSE_NO":"２４號之３７","E_COORD97":168718.64000000001,"N_COORD97":2557811.9100000001,"ADDRESS":"堀子頭２４號之３７","OBJECTID":113696},"geometry":{"x":168718.63999999966,"y":2557811.910000002}},{"attributes":{"ID":113697,"DIS_CODE":0,"TOWNNAME":"西港區","LI":"西港里","LIN":"23鄰","STREET":" ","SECT":" ","MAREA":"堀子頭","LANE":" ","ALLEY":" ","HOUSE_NO":"２４號之３８","E_COORD97":168723.32000000001,"N_COORD97":2557812.5800000001,"ADDRESS":"堀子頭２４號之３８","OBJECTID":113697},"geometry":{"x":168723.31999999937,"y":2557812.5800000038}},{"attributes":{"ID":113698,"DIS_CODE":0,"TOWNNAME":"西港區","LI":"西港里","LIN":"23鄰","STREET":" ","SECT":" ","MAREA":"堀子頭","LANE":" ","ALLEY":" ","HOUSE_NO":"２４號之３","E_COORD97":168675.39000000001,"N_COORD97":2557760.2400000002,"ADDRESS":"堀子頭２４號之３","OBJECTID":113698},"geometry":{"x":168675.3900000006,"y":2557760.2400000002}},{"attributes":{"ID":113699,"DIS_CODE":0,"TOWNNAME":"西港區","LI":"西港里","LIN":"23鄰","STREET":" ","SECT":" ","MAREA":"堀子頭","LANE":" ","ALLEY":" ","HOUSE_NO":"２６號之６","E_COORD97":168807.20999999999,"N_COORD97":2557703.1400000001,"ADDRESS":"堀子頭２６號之６","OBJECTID":113699},"geometry":{"x":168807.21000000089,"y":2557703.1400000006}},{"attributes":{"ID":113700,"DIS_CODE":0,"TOWNNAME":"西港區","LI":"西港里","LIN":"23鄰","STREET":" ","SECT":" ","MAREA":"堀子頭","LANE":" ","ALLEY":" ","HOUSE_NO":"２６號","E_COORD97":168715.73000000001,"N_COORD97":2557714.5800000001,"ADDRESS":"堀子頭２６號","OBJECTID":113700},"geometry":{"x":168715.73000000231,"y":2557714.5800000019}},{"attributes":{"ID":113701,"DIS_CODE":0,"TOWNNAME":"善化區","LI":"坐駕里","LIN":"23鄰","STREET":" ","SECT":" ","MAREA":"坐駕","LANE":" ","ALLEY":" ","HOUSE_NO":"２２號","E_COORD97":178721.34,"N_COORD97":2558149.25,"ADDRESS":"坐駕２２號","OBJECTID":113701},"geometry":{"x":178721.34000000078,"y":2558149.25}},{"attributes":{"ID":113702,"DIS_CODE":0,"TOWNNAME":"善化區","LI":"坐駕里","LIN":"23鄰","STREET":" ","SECT":" ","MAREA":"坐駕","LANE":" ","ALLEY":" ","HOUSE_NO":"２２號之６","E_COORD97":178708.82000000001,"N_COORD97":2558182.52,"ADDRESS":"坐駕２２號之６","OBJECTID":113702},"geometry":{"x":178708.82000000123,"y":2558182.5200000014}},{"attributes":{"ID":113703,"DIS_CODE":0,"TOWNNAME":"善化區","LI":"坐駕里","LIN":"23鄰","STREET":" ","SECT":" ","MAREA":"坐駕","LANE":" ","ALLEY":" ","HOUSE_NO":"２０之７號","E_COORD97":178633.29999999999,"N_COORD97":2558148.27,"ADDRESS":"坐駕２０之７號","OBJECTID":113703},"geometry":{"x":178633.30000000075,"y":2558148.2699999996}},{"attributes":{"ID":113704,"DIS_CODE":0,"TOWNNAME":"善化區","LI":"坐駕里","LIN":"23鄰","STREET":" ","SECT":" ","MAREA":"坐駕","LANE":" ","ALLEY":" ","HOUSE_NO":"２０之３號","E_COORD97":178610.45999999999,"N_COORD97":2558078.77,"ADDRESS":"坐駕２０之３號","OBJECTID":113704},"geometry":{"x":178610.46000000089,"y":2558078.7700000014}},{"attributes":{"ID":113705,"DIS_CODE":0,"TOWNNAME":"善化區","LI":"坐駕里","LIN":"23鄰","STREET":" ","SECT":" ","MAREA":"坐駕","LANE":" ","ALLEY":" ","HOUSE_NO":"２０號之６","E_COORD97":178620.62,"N_COORD97":2558145.77,"ADDRESS":"坐駕２０號之６","OBJECTID":113705},"geometry":{"x":178620.62000000011,"y":2558145.7699999996}},{"attributes":{"ID":113706,"DIS_CODE":0,"TOWNNAME":"善化區","LI":"胡厝里","LIN":"23鄰","STREET":" ","SECT":" ","MAREA":"烏橋","LANE":" ","ALLEY":" ","HOUSE_NO":"７號","E_COORD97":175420.29000000001,"N_COORD97":2558893.25,"ADDRESS":"烏橋７號","OBJECTID":113706},"geometry":{"x":175420.29000000004,"y":2558893.2500000019}},{"attributes":{"ID":113707,"DIS_CODE":0,"TOWNNAME":"永康區","LI":"二王里","LIN":"28鄰","STREET":"中山南路","SECT":" ","MAREA":" ","LANE":"５４４巷","ALLEY":"５６弄","HOUSE_NO":"１２號","E_COORD97":172289.59,"N_COORD97":2546412.25,"ADDRESS":"中山南路５４４巷５６弄１２號","OBJECTID":113707},"geometry":{"x":172289.59000000171,"y":2546412.25}},{"attributes":{"ID":113708,"DIS_CODE":0,"TOWNNAME":"永康區","LI":"二王里","LIN":"28鄰","STREET":"中山南路","SECT":" ","MAREA":" ","LANE":"５４４巷","ALLEY":"５２弄","HOUSE_NO":"７號","E_COORD97":172302.42999999999,"N_COORD97":2546436.75,"ADDRESS":"中山南路５４４巷５２弄７號","OBJECTID":113708},"geometry":{"x":172302.43000000063,"y":2546436.7500000037}},{"attributes":{"ID":113709,"DIS_CODE":0,"TOWNNAME":"永康區","LI":"二王里","LIN":"28鄰","STREET":"中山南路","SECT":" ","MAREA":" ","LANE":"５４４巷","ALLEY":"５２弄","HOUSE_NO":"３號","E_COORD97":172314.45999999999,"N_COORD97":2546435.75,"ADDRESS":"中山南路５４４巷５２弄３號","OBJECTID":113709},"geometry":{"x":172314.46000000089,"y":2546435.75}},{"attributes":{"ID":113710,"DIS_CODE":0,"TOWNNAME":"永康區","LI":"二王里","LIN":"28鄰","STREET":"中山南路","SECT":" ","MAREA":" ","LANE":"５４４巷","ALLEY":"５２弄","HOUSE_NO":"２號","E_COORD97":172302.17999999999,"N_COORD97":2546455,"ADDRESS":"中山南路５４４巷５２弄２號","OBJECTID":113710},"geometry":{"x":172302.17999999877,"y":2546454.9999999981}},{"attributes":{"ID":113711,"DIS_CODE":0,"TOWNNAME":"永康區","LI":"二王里","LIN":"28鄰","STREET":"中山南路","SECT":" ","MAREA":" ","LANE":"５４４巷","ALLEY":"４０弄","HOUSE_NO":"５號","E_COORD97":172294.07000000001,"N_COORD97":2546483.9900000002,"ADDRESS":"中山南路５４４巷４０弄５號","OBJECTID":113711},"geometry":{"x":172294.07000000123,"y":2546483.9900000021}},{"attributes":{"ID":113712,"DIS_CODE":0,"TOWNNAME":"永康區","LI":"正強里","LIN":"28鄰","STREET":"中正路","SECT":" ","MAREA":" ","LANE":"１５５巷","ALLEY":"８弄","HOUSE_NO":"８號","E_COORD97":173212.09,"N_COORD97":2547794.25,"ADDRESS":"中正路１５５巷８弄８號","OBJECTID":113712},"geometry":{"x":173212.09000000078,"y":2547794.2500000019}},{"attributes":{"ID":113713,"DIS_CODE":0,"TOWNNAME":"永康區","LI":"東灣里","LIN":"28鄰","STREET":"民族路","SECT":" ","MAREA":" ","LANE":"１８１巷","ALLEY":"１弄","HOUSE_NO":"２１號","E_COORD97":175281.48999999999,"N_COORD97":2544817.5899999999,"ADDRESS":"民族路１８１巷１弄２１號","OBJECTID":113713},"geometry":{"x":175281.49000000115,"y":2544817.5900000017}},{"attributes":{"ID":113714,"DIS_CODE":0,"TOWNNAME":"善化區","LI":"嘉南里","LIN":"12鄰","STREET":" ","SECT":" ","MAREA":"茄拔","LANE":" ","ALLEY":" ","HOUSE_NO":"３５４號","E_COORD97":180650.14000000001,"N_COORD97":2559612.0099999998,"ADDRESS":"茄拔３５４號","OBJECTID":113714},"geometry":{"x":180650.1400000006,"y":2559612.0099999998}},{"attributes":{"ID":113715,"DIS_CODE":0,"TOWNNAME":"永康區","LI":"二王里","LIN":"28鄰","STREET":"中山南路","SECT":" ","MAREA":" ","LANE":"５４４巷","ALLEY":"５２弄","HOUSE_NO":"４號","E_COORD97":172295.38,"N_COORD97":2546456.4900000002,"ADDRESS":"中山南路５４４巷５２弄４號","OBJECTID":113715},"geometry":{"x":172295.37999999989,"y":2546456.4900000021}},{"attributes":{"ID":113716,"DIS_CODE":0,"TOWNNAME":"永康區","LI":"二王里","LIN":"28鄰","STREET":"中山南路","SECT":" ","MAREA":" ","LANE":"５４４巷","ALLEY":"５６弄","HOUSE_NO":"６號","E_COORD97":172308.98999999999,"N_COORD97":2546407.75,"ADDRESS":"中山南路５４４巷５６弄６號","OBJECTID":113716},"geometry":{"x":172308.99000000022,"y":2546407.75}},{"attributes":{"ID":113717,"DIS_CODE":0,"TOWNNAME":"永康區","LI":"二王里","LIN":"28鄰","STREET":"中山南路","SECT":" ","MAREA":" ","LANE":"５４４巷","ALLEY":"５６弄","HOUSE_NO":"８號","E_COORD97":172302.64999999999,"N_COORD97":2546407.5,"ADDRESS":"中山南路５４４巷５６弄８號","OBJECTID":113717},"geometry":{"x":172302.65000000037,"y":2546407.4999999981}},{"attributes":{"ID":113718,"DIS_CODE":0,"TOWNNAME":"永康區","LI":"二王里","LIN":"28鄰","STREET":"中山南路","SECT":" ","MAREA":" ","LANE":"５４４巷","ALLEY":"５２弄","HOUSE_NO":"１３號","E_COORD97":172286.42999999999,"N_COORD97":2546438.5,"ADDRESS":"中山南路５４４巷５２弄１３號","OBJECTID":113718},"geometry":{"x":172286.4299999997,"y":2546438.5000000019}},{"attributes":{"ID":113719,"DIS_CODE":0,"TOWNNAME":"永康區","LI":"二王里","LIN":"28鄰","STREET":"中山南路","SECT":" ","MAREA":" ","LANE":"５４４巷","ALLEY":"５６弄","HOUSE_NO":"５號","E_COORD97":172306.19,"N_COORD97":2546391.8599999999,"ADDRESS":"中山南路５４４巷５６弄５號","OBJECTID":113719},"geometry":{"x":172306.19000000041,"y":2546391.8600000013}},{"attributes":{"ID":113720,"DIS_CODE":0,"TOWNNAME":"仁德區","LI":"成功里","LIN":"28鄰","STREET":"成功一街","SECT":" ","MAREA":" ","LANE":"２巷","ALLEY":"１７弄","HOUSE_NO":"３號","E_COORD97":170487.44,"N_COORD97":2540232.77,"ADDRESS":"成功一街２巷１７弄３號","OBJECTID":113720},"geometry":{"x":170487.44000000227,"y":2540232.7700000014}},{"attributes":{"ID":113721,"DIS_CODE":0,"TOWNNAME":"仁德區","LI":"成功里","LIN":"28鄰","STREET":"成功一街","SECT":" ","MAREA":" ","LANE":"２巷","ALLEY":"１７弄","HOUSE_NO":"２號","E_COORD97":170483.13,"N_COORD97":2540242.5099999998,"ADDRESS":"成功一街２巷１７弄２號","OBJECTID":113721},"geometry":{"x":170483.12999999989,"y":2540242.5099999998}},{"attributes":{"ID":113722,"DIS_CODE":0,"TOWNNAME":"南區","LI":"佛壇里","LIN":"4鄰","STREET":"興南街","SECT":" ","MAREA":" ","LANE":" ","ALLEY":" ","HOUSE_NO":"１４４號","E_COORD97":166133.67999999999,"N_COORD97":2535901.9199999999,"ADDRESS":"興南街１４４號","OBJECTID":113722},"geometry":{"x":166133.68000000063,"y":2535901.9200000018}},{"attributes":{"ID":113723,"DIS_CODE":0,"TOWNNAME":"南區","LI":"佛壇里","LIN":"4鄰","STREET":"興南街","SECT":" ","MAREA":" ","LANE":" ","ALLEY":" ","HOUSE_NO":"１４６號","E_COORD97":166139.92999999999,"N_COORD97":2535894.9399999999,"ADDRESS":"興南街１４６號","OBJECTID":113723},"geometry":{"x":166139.9299999997,"y":2535894.9400000013}},{"attributes":{"ID":113724,"DIS_CODE":0,"TOWNNAME":"東區","LI":"德光里","LIN":"4鄰","STREET":"崇德路","SECT":" ","MAREA":" ","LANE":" ","ALLEY":" ","HOUSE_NO":"６４號","E_COORD97":169806.54999999999,"N_COORD97":2542365.3999999999,"ADDRESS":"崇德路６４號","OBJECTID":113724},"geometry":{"x":169806.55000000075,"y":2542365.4000000022}},{"attributes":{"ID":113725,"DIS_CODE":0,"TOWNNAME":"南區","LI":"佛壇里","LIN":"12鄰","STREET":"灣裡路","SECT":" ","MAREA":" ","LANE":" ","ALLEY":" ","HOUSE_NO":"５００號","E_COORD97":166245.23999999999,"N_COORD97":2535881.3599999999,"ADDRESS":"灣裡路５００號","OBJECTID":113725},"geometry":{"x":166245.24000000022,"y":2535881.3600000013}},{"attributes":{"ID":113726,"DIS_CODE":0,"TOWNNAME":"南區","LI":"佛壇里","LIN":" ","STREET":"灣裡路","SECT":" ","MAREA":" ","LANE":" ","ALLEY":" ","HOUSE_NO":"５２６之１號","E_COORD97":166265.60999999999,"N_COORD97":2535801.3100000001,"ADDRESS":"灣裡路５２６之１號","OBJECTID":113726},"geometry":{"x":166265.61000000127,"y":2535801.3100000024}},{"attributes":{"ID":113727,"DIS_CODE":0,"TOWNNAME":"仁德區","LI":"成功里","LIN":"28鄰","STREET":"成功一街","SECT":" ","MAREA":" ","LANE":"２巷","ALLEY":"１７弄","HOUSE_NO":"１號","E_COORD97":170488.62,"N_COORD97":2540239.77,"ADDRESS":"成功一街２巷１７弄１號","OBJECTID":113727},"geometry":{"x":170488.62000000011,"y":2540239.7700000014}},{"attributes":{"ID":113728,"DIS_CODE":0,"TOWNNAME":"永康區","LI":"正強里","LIN":"28鄰","STREET":"中正路","SECT":" ","MAREA":" ","LANE":"１５５巷","ALLEY":"６弄","HOUSE_NO":"３號","E_COORD97":173216.41,"N_COORD97":2547822.2400000002,"ADDRESS":"中正路１５５巷６弄３號","OBJECTID":113728},"geometry":{"x":173216.41000000015,"y":2547822.2400000002}},{"attributes":{"ID":113729,"DIS_CODE":0,"TOWNNAME":"永康區","LI":"正強里","LIN":"28鄰","STREET":"中正路","SECT":" ","MAREA":" ","LANE":"１５５巷","ALLEY":"６弄","HOUSE_NO":"１７號","E_COORD97":173179.51000000001,"N_COORD97":2547818.7400000002,"ADDRESS":"中正路１５５巷６弄１７號","OBJECTID":113729},"geometry":{"x":173179.50999999978,"y":2547818.7400000002}},{"attributes":{"ID":113730,"DIS_CODE":0,"TOWNNAME":"永康區","LI":"北灣里","LIN":"28鄰","STREET":"文賢街","SECT":" ","MAREA":" ","LANE":"７８巷","ALLEY":"１９弄","HOUSE_NO":"８０號","E_COORD97":175468.56,"N_COORD97":2545471.1499999999,"ADDRESS":"文賢街７８巷１９弄８０號","OBJECTID":113730},"geometry":{"x":175468.56000000052,"y":2545471.1499999985}},{"attributes":{"ID":113731,"DIS_CODE":0,"TOWNNAME":"永康區","LI":"北灣里","LIN":"28鄰","STREET":"文賢街","SECT":" ","MAREA":" ","LANE":"７８巷","ALLEY":"１９弄","HOUSE_NO":"９６號","E_COORD97":175469.60999999999,"N_COORD97":2545496.6600000001,"ADDRESS":"文賢街７８巷１９弄９６號","OBJECTID":113731},"geometry":{"x":175469.61000000034,"y":2545496.6600000001}},{"attributes":{"ID":113732,"DIS_CODE":0,"TOWNNAME":"永康區","LI":"正強里","LIN":"28鄰","STREET":"中正路","SECT":" ","MAREA":" ","LANE":"１５５巷","ALLEY":"６弄","HOUSE_NO":"９號","E_COORD97":173200.16,"N_COORD97":2547820.7400000002,"ADDRESS":"中正路１５５巷６弄９號","OBJECTID":113732},"geometry":{"x":173200.16000000108,"y":2547820.7400000021}},{"attributes":{"ID":113733,"DIS_CODE":0,"TOWNNAME":"永康區","LI":"北灣里","LIN":"28鄰","STREET":"文賢街","SECT":" ","MAREA":" ","LANE":"７８巷","ALLEY":"１９弄","HOUSE_NO":"８２號","E_COORD97":175468.75,"N_COORD97":2545474.9100000001,"ADDRESS":"文賢街７８巷１９弄８２號","OBJECTID":113733},"geometry":{"x":175468.75000000186,"y":2545474.9100000001}},{"attributes":{"ID":113734,"DIS_CODE":0,"TOWNNAME":"永康區","LI":"正強里","LIN":"28鄰","STREET":"中正路","SECT":" ","MAREA":" ","LANE":"１５５巷","ALLEY":"６弄","HOUSE_NO":"２３號","E_COORD97":173163.81,"N_COORD97":2547817.2400000002,"ADDRESS":"中正路１５５巷６弄２３號","OBJECTID":113734},"geometry":{"x":173163.80999999959,"y":2547817.2400000021}},{"attributes":{"ID":113735,"DIS_CODE":0,"TOWNNAME":"永康區","LI":"正強里","LIN":"28鄰","STREET":"中正路","SECT":" ","MAREA":" ","LANE":"１５５巷","ALLEY":"６弄","HOUSE_NO":"１號","E_COORD97":173221.76000000001,"N_COORD97":2547822.4900000002,"ADDRESS":"中正路１５５巷６弄１號","OBJECTID":113735},"geometry":{"x":173221.75999999978,"y":2547822.4900000021}},{"attributes":{"ID":113736,"DIS_CODE":0,"TOWNNAME":"永康區","LI":"北灣里","LIN":"28鄰","STREET":"文賢街","SECT":" ","MAREA":" ","LANE":"７８巷","ALLEY":"１９弄","HOUSE_NO":"７８號","E_COORD97":175467.25,"N_COORD97":2545465.6499999999,"ADDRESS":"文賢街７８巷１９弄７８號","OBJECTID":113736},"geometry":{"x":175467.25000000093,"y":2545465.6500000022}},{"attributes":{"ID":113737,"DIS_CODE":0,"TOWNNAME":"永康區","LI":"正強里","LIN":"28鄰","STREET":"中正路","SECT":" ","MAREA":" ","LANE":"１５５巷","ALLEY":"８弄","HOUSE_NO":"２６號","E_COORD97":173176.45999999999,"N_COORD97":2547790.25,"ADDRESS":"中正路１５５巷８弄２６號","OBJECTID":113737},"geometry":{"x":173176.45999999996,"y":2547790.2500000019}},{"attributes":{"ID":113738,"DIS_CODE":0,"TOWNNAME":"永康區","LI":"北灣里","LIN":"28鄰","STREET":"文賢街","SECT":" ","MAREA":" ","LANE":"７８巷","ALLEY":"１９弄","HOUSE_NO":"９８號","E_COORD97":175469.60999999999,"N_COORD97":2545499.9100000001,"ADDRESS":"文賢街７８巷１９弄９８號","OBJECTID":113738},"geometry":{"x":175469.61000000034,"y":2545499.9100000039}},{"attributes":{"ID":113739,"DIS_CODE":0,"TOWNNAME":"永康區","LI":"正強里","LIN":"28鄰","STREET":"中正路","SECT":" ","MAREA":" ","LANE":"１５５巷","ALLEY":"６弄","HOUSE_NO":"１３號","E_COORD97":173191.04999999999,"N_COORD97":2547819.7400000002,"ADDRESS":"中正路１５５巷６弄１３號","OBJECTID":113739},"geometry":{"x":173191.04999999981,"y":2547819.7400000002}},{"attributes":{"ID":113740,"DIS_CODE":0,"TOWNNAME":"永康區","LI":"正強里","LIN":"28鄰","STREET":"中正路","SECT":" ","MAREA":" ","LANE":"１５５巷","ALLEY":"６弄","HOUSE_NO":"１１號","E_COORD97":173195.79999999999,"N_COORD97":2547820.2400000002,"ADDRESS":"中正路１５５巷６弄１１號","OBJECTID":113740},"geometry":{"x":173195.79999999981,"y":2547820.2400000039}},{"attributes":{"ID":113741,"DIS_CODE":0,"TOWNNAME":"永康區","LI":"北灣里","LIN":"28鄰","STREET":"文賢街","SECT":" ","MAREA":" ","LANE":"７８巷","ALLEY":"１９弄","HOUSE_NO":"１０２號","E_COORD97":175474.89999999999,"N_COORD97":2545508.9100000001,"ADDRESS":"文賢街７８巷１９弄１０２號","OBJECTID":113741},"geometry":{"x":175474.90000000224,"y":2545508.9100000001}},{"attributes":{"ID":113742,"DIS_CODE":0,"TOWNNAME":"永康區","LI":"正強里","LIN":"28鄰","STREET":"中正路","SECT":" ","MAREA":" ","LANE":"１５５巷","ALLEY":"８弄","HOUSE_NO":"３８號","E_COORD97":173152.66,"N_COORD97":2547787.75,"ADDRESS":"中正路１５５巷８弄３８號","OBJECTID":113742},"geometry":{"x":173152.66000000108,"y":2547787.75}},{"attributes":{"ID":113743,"DIS_CODE":0,"TOWNNAME":"永康區","LI":"永康里","LIN":"28鄰","STREET":"永大路","SECT":"二段","MAREA":" ","LANE":"８３１巷","ALLEY":"５８弄","HOUSE_NO":"３號","E_COORD97":174154.89999999999,"N_COORD97":2546979.3100000001,"ADDRESS":"永大路二段８３１巷５８弄３號","OBJECTID":113743},"geometry":{"x":174154.9000000013,"y":2546979.3100000042}},{"attributes":{"ID":113744,"DIS_CODE":0,"TOWNNAME":"永康區","LI":"永康里","LIN":"28鄰","STREET":"永大路","SECT":"二段","MAREA":" ","LANE":"８３１巷","ALLEY":"５８弄","HOUSE_NO":"１２號","E_COORD97":174164.75,"N_COORD97":2546966.9199999999,"ADDRESS":"永大路二段８３１巷５８弄１２號","OBJECTID":113744},"geometry":{"x":174164.75,"y":2546966.9199999999}},{"attributes":{"ID":113745,"DIS_CODE":0,"TOWNNAME":"永康區","LI":"正強里","LIN":"28鄰","STREET":"中正路","SECT":" ","MAREA":" ","LANE":"１５５巷","ALLEY":"６弄","HOUSE_NO":"２９號","E_COORD97":173148.12,"N_COORD97":2547815.9900000002,"ADDRESS":"中正路１５５巷６弄２９號","OBJECTID":113745},"geometry":{"x":173148.12000000104,"y":2547815.9900000021}},{"attributes":{"ID":113746,"DIS_CODE":0,"TOWNNAME":"善化區","LI":"嘉南里","LIN":"4鄰","STREET":" ","SECT":" ","MAREA":"茄拔","LANE":" ","ALLEY":" ","HOUSE_NO":"８５號","E_COORD97":181011.73000000001,"N_COORD97":2559452.2599999998,"ADDRESS":"茄拔８５號","OBJECTID":113746},"geometry":{"x":181011.73000000138,"y":2559452.2600000016}},{"attributes":{"ID":113747,"DIS_CODE":0,"TOWNNAME":"新市區","LI":"新和里","LIN":"28鄰","STREET":"永福街","SECT":" ","MAREA":" ","LANE":"１６巷","ALLEY":"３２弄","HOUSE_NO":"６號","E_COORD97":177829.70999999999,"N_COORD97":2552755,"ADDRESS":"永福街１６巷３２弄６號","OBJECTID":113747},"geometry":{"x":177829.70999999996,"y":2552755.0000000019}},{"attributes":{"ID":113748,"DIS_CODE":0,"TOWNNAME":"新市區","LI":"新和里","LIN":"28鄰","STREET":"永福街","SECT":" ","MAREA":" ","LANE":"１６巷","ALLEY":"３２弄","HOUSE_NO":"８號","E_COORD97":177834.01000000001,"N_COORD97":2552753.75,"ADDRESS":"永福街１６巷３２弄８號","OBJECTID":113748},"geometry":{"x":177834.01000000071,"y":2552753.7500000019}},{"attributes":{"ID":113749,"DIS_CODE":0,"TOWNNAME":"新市區","LI":"新和里","LIN":"28鄰","STREET":"永福街","SECT":" ","MAREA":" ","LANE":"１６巷","ALLEY":"３２弄","HOUSE_NO":"４號","E_COORD97":177825.17000000001,"N_COORD97":2552756,"ADDRESS":"永福街１６巷３２弄４號","OBJECTID":113749},"geometry":{"x":177825.16999999993,"y":2552756.0000000019}},{"attributes":{"ID":113750,"DIS_CODE":0,"TOWNNAME":"新市區","LI":"新和里","LIN":"28鄰","STREET":"永福街","SECT":" ","MAREA":" ","LANE":"１６巷","ALLEY":"３２弄","HOUSE_NO":"９號","E_COORD97":177837.76000000001,"N_COORD97":2552766,"ADDRESS":"永福街１６巷３２弄９號","OBJECTID":113750},"geometry":{"x":177837.75999999978,"y":2552766.0000000019}},{"attributes":{"ID":113751,"DIS_CODE":0,"TOWNNAME":"新市區","LI":"新和里","LIN":"28鄰","STREET":"永福街","SECT":" ","MAREA":" ","LANE":"１６巷","ALLEY":"３２弄","HOUSE_NO":"２號","E_COORD97":177820.42000000001,"N_COORD97":2552756.75,"ADDRESS":"永福街１６巷３２弄２號","OBJECTID":113751},"geometry":{"x":177820.42000000179,"y":2552756.7500000019}},{"attributes":{"ID":113752,"DIS_CODE":0,"TOWNNAME":"新市區","LI":"新和里","LIN":"28鄰","STREET":"永福街","SECT":" ","MAREA":" ","LANE":"１６巷","ALLEY":"３２弄","HOUSE_NO":"１０號","E_COORD97":177839.95000000001,"N_COORD97":2552752.75,"ADDRESS":"永福街１６巷３２弄１０號","OBJECTID":113752},"geometry":{"x":177839.95000000112,"y":2552752.7500000037}},{"attributes":{"ID":113753,"DIS_CODE":0,"TOWNNAME":"永康區","LI":"尚頂里","LIN":"28鄰","STREET":"南台街","SECT":" ","MAREA":" ","LANE":"５４巷","ALLEY":"４１弄","HOUSE_NO":"５２號","E_COORD97":170320.16,"N_COORD97":2547069.6400000001,"ADDRESS":"南台街５４巷４１弄５２號","OBJECTID":113753},"geometry":{"x":170320.16000000108,"y":2547069.6400000025}},{"attributes":{"ID":113754,"DIS_CODE":0,"TOWNNAME":"南區","LI":"府南里","LIN":"17鄰","STREET":"大成路","SECT":"二段","MAREA":" ","LANE":" ","ALLEY":" ","HOUSE_NO":"１４５號","E_COORD97":167311.09,"N_COORD97":2541723.52,"ADDRESS":"大成路二段１４５號","OBJECTID":113754},"geometry":{"x":167311.09000000078,"y":2541723.5199999996}},{"attributes":{"ID":113755,"DIS_CODE":0,"TOWNNAME":"永康區","LI":"西灣里","LIN":"28鄰","STREET":"公園路","SECT":" ","MAREA":" ","LANE":"７巷","ALLEY":"３０弄","HOUSE_NO":"２５號","E_COORD97":174390.17000000001,"N_COORD97":2545891.0499999998,"ADDRESS":"公園路７巷３０弄２５號","OBJECTID":113755},"geometry":{"x":174390.17000000086,"y":2545891.0500000026}},{"attributes":{"ID":113756,"DIS_CODE":0,"TOWNNAME":"新化區","LI":"知義里","LIN":"1鄰","STREET":" ","SECT":" ","MAREA":"知母義","LANE":" ","ALLEY":" ","HOUSE_NO":"１６３號","E_COORD97":179714.42000000001,"N_COORD97":2547089.25,"ADDRESS":"知母義１６３號","OBJECTID":113756},"geometry":{"x":179714.42000000086,"y":2547089.25}},{"attributes":{"ID":113757,"DIS_CODE":0,"TOWNNAME":"永康區","LI":"西灣里","LIN":"28鄰","STREET":"公園路","SECT":" ","MAREA":" ","LANE":"７巷","ALLEY":"３０弄","HOUSE_NO":"２７號","E_COORD97":174385.75,"N_COORD97":2545890.3799999999,"ADDRESS":"公園路７巷３０弄２７號","OBJECTID":113757},"geometry":{"x":174385.75000000093,"y":2545890.379999999}},{"attributes":{"ID":113758,"DIS_CODE":0,"TOWNNAME":"新化區","LI":"\u25A0拔里","LIN":"1鄰","STREET":" ","SECT":" ","MAREA":"\u25A0拔林","LANE":" ","ALLEY":" ","HOUSE_NO":"４１號","E_COORD97":183139.07000000001,"N_COORD97":2551996.25,"ADDRESS":"\u25A0拔林４１號","OBJECTID":113758},"geometry":{"x":183139.0700000003,"y":2551996.25}},{"attributes":{"ID":113759,"DIS_CODE":0,"TOWNNAME":"新化區","LI":"\u25A0拔里","LIN":"1鄰","STREET":" ","SECT":" ","MAREA":"\u25A0拔林","LANE":" ","ALLEY":" ","HOUSE_NO":"２６號之２","E_COORD97":183104.32999999999,"N_COORD97":2551906.2599999998,"ADDRESS":"\u25A0拔林２６號之２","OBJECTID":113759},"geometry":{"x":183104.33000000007,"y":2551906.2600000016}},{"attributes":{"ID":113760,"DIS_CODE":0,"TOWNNAME":"新化區","LI":"\u25A0拔里","LIN":"1鄰","STREET":" ","SECT":" ","MAREA":"\u25A0拔林","LANE":" ","ALLEY":" ","HOUSE_NO":"２１號之８","E_COORD97":183150.82999999999,"N_COORD97":2551829.2599999998,"ADDRESS":"\u25A0拔林２１號之８","OBJECTID":113760},"geometry":{"x":183150.83000000194,"y":2551829.2599999998}},{"attributes":{"ID":113761,"DIS_CODE":0,"TOWNNAME":"新化區","LI":"\u25A0拔里","LIN":"1鄰","STREET":" ","SECT":" ","MAREA":"\u25A0拔林","LANE":" ","ALLEY":" ","HOUSE_NO":"４２號之２","E_COORD97":183192.63,"N_COORD97":2552077.2599999998,"ADDRESS":"\u25A0拔林４２號之２","OBJECTID":113761},"geometry":{"x":183192.63000000175,"y":2552077.2599999998}},{"attributes":{"ID":113762,"DIS_CODE":0,"TOWNNAME":"新化區","LI":"\u25A0拔里","LIN":"1鄰","STREET":" ","SECT":" ","MAREA":"\u25A0拔林","LANE":" ","ALLEY":" ","HOUSE_NO":"３６號之１８","E_COORD97":183040.48000000001,"N_COORD97":2552057.2599999998,"ADDRESS":"\u25A0拔林３６號之１８","OBJECTID":113762},"geometry":{"x":183040.48000000138,"y":2552057.2599999979}},{"attributes":{"ID":113763,"DIS_CODE":0,"TOWNNAME":"新化區","LI":"\u25A0拔里","LIN":"1鄰","STREET":" ","SECT":" ","MAREA":"\u25A0拔林","LANE":" ","ALLEY":" ","HOUSE_NO":"１８號之１","E_COORD97":183243.89999999999,"N_COORD97":2551899.2599999998,"ADDRESS":"\u25A0拔林１８號之１","OBJECTID":113763},"geometry":{"x":183243.90000000224,"y":2551899.2600000016}},{"attributes":{"ID":113764,"DIS_CODE":0,"TOWNNAME":"新化區","LI":"知義里","LIN":"1鄰","STREET":" ","SECT":" ","MAREA":"知母義","LANE":" ","ALLEY":" ","HOUSE_NO":"１６７號之５","E_COORD97":179677.07999999999,"N_COORD97":2547044.2599999998,"ADDRESS":"知母義１６７號之５","OBJECTID":113764},"geometry":{"x":179677.08000000007,"y":2547044.2600000016}},{"attributes":{"ID":113765,"DIS_CODE":0,"TOWNNAME":"新化區","LI":"知義里","LIN":"1鄰","STREET":" ","SECT":" ","MAREA":"知母義","LANE":" ","ALLEY":" ","HOUSE_NO":"１８１號","E_COORD97":179662.62,"N_COORD97":2547198.25,"ADDRESS":"知母義１８１號","OBJECTID":113765},"geometry":{"x":179662.62000000104,"y":2547198.25}},{"attributes":{"ID":113766,"DIS_CODE":0,"TOWNNAME":"新化區","LI":"礁坑里","LIN":"1鄰","STREET":" ","SECT":" ","MAREA":"三十六崙","LANE":" ","ALLEY":" ","HOUSE_NO":"１１５號","E_COORD97":185209.67000000001,"N_COORD97":2549899.25,"ADDRESS":"三十六崙１１５號","OBJECTID":113766},"geometry":{"x":185209.67000000179,"y":2549899.2500000019}},{"attributes":{"ID":113767,"DIS_CODE":0,"TOWNNAME":"永康區","LI":"西灣里","LIN":"28鄰","STREET":"公園路","SECT":" ","MAREA":" ","LANE":"７巷","ALLEY":"３０弄","HOUSE_NO":"２９號","E_COORD97":174381.75,"N_COORD97":2545889.77,"ADDRESS":"公園路７巷３０弄２９號","OBJECTID":113767},"geometry":{"x":174381.75,"y":2545889.7699999977}},{"attributes":{"ID":113768,"DIS_CODE":0,"TOWNNAME":"新化區","LI":"\u25A0拔里","LIN":"1鄰","STREET":" ","SECT":" ","MAREA":"\u25A0拔林","LANE":" ","ALLEY":" ","HOUSE_NO":"２１號之４","E_COORD97":183169.51000000001,"N_COORD97":2551836.2599999998,"ADDRESS":"\u25A0拔林２１號之４","OBJECTID":113768},"geometry":{"x":183169.50999999978,"y":2551836.2599999998}},{"attributes":{"ID":113769,"DIS_CODE":0,"TOWNNAME":"新化區","LI":"知義里","LIN":"1鄰","STREET":" ","SECT":" ","MAREA":"知母義","LANE":" ","ALLEY":" ","HOUSE_NO":"１７５號","E_COORD97":179652.51999999999,"N_COORD97":2547145.25,"ADDRESS":"知母義１７５號","OBJECTID":113769},"geometry":{"x":179652.52000000048,"y":2547145.2500000037}},{"attributes":{"ID":113770,"DIS_CODE":0,"TOWNNAME":"新化區","LI":"礁坑里","LIN":"1鄰","STREET":" ","SECT":" ","MAREA":"三十六崙","LANE":" ","ALLEY":" ","HOUSE_NO":"１２８號","E_COORD97":185261.76999999999,"N_COORD97":2549784.25,"ADDRESS":"三十六崙１２８號","OBJECTID":113770},"geometry":{"x":185261.77000000048,"y":2549784.2500000019}},{"attributes":{"ID":113771,"DIS_CODE":0,"TOWNNAME":"新化區","LI":"知義里","LIN":"1鄰","STREET":" ","SECT":" ","MAREA":"知母義","LANE":" ","ALLEY":" ","HOUSE_NO":"３９號","E_COORD97":179665.76999999999,"N_COORD97":2546973.25,"ADDRESS":"知母義３９號","OBJECTID":113771},"geometry":{"x":179665.77000000048,"y":2546973.2500000019}},{"attributes":{"ID":113772,"DIS_CODE":0,"TOWNNAME":"南區","LI":"郡南里","LIN":"1鄰","STREET":"新都路","SECT":" ","MAREA":" ","LANE":"４５７巷","ALLEY":" ","HOUSE_NO":"３３號","E_COORD97":167273.54999999999,"N_COORD97":2540753.5800000001,"ADDRESS":"新都路４５７巷３３號","OBJECTID":113772},"geometry":{"x":167273.54999999888,"y":2540753.5800000019}},{"attributes":{"ID":113773,"DIS_CODE":0,"TOWNNAME":"楠西區","LI":"楠西里","LIN":"15鄰","STREET":"中興南路","SECT":" ","MAREA":" ","LANE":" ","ALLEY":" ","HOUSE_NO":"９９號","E_COORD97":197149.45999999999,"N_COORD97":2564046.25,"ADDRESS":"中興南路９９號","OBJECTID":113773},"geometry":{"x":197149.46000000089,"y":2564046.2500000037}},{"attributes":{"ID":113774,"DIS_CODE":0,"TOWNNAME":"新化區","LI":"知義里","LIN":"1鄰","STREET":" ","SECT":" ","MAREA":"知母義","LANE":" ","ALLEY":" ","HOUSE_NO":"１６３號之１","E_COORD97":179709.54999999999,"N_COORD97":2547088.2599999998,"ADDRESS":"知母義１６３號之１","OBJECTID":113774},"geometry":{"x":179709.55000000168,"y":2547088.2600000016}},{"attributes":{"ID":113775,"DIS_CODE":0,"TOWNNAME":"新化區","LI":"\u25A0拔里","LIN":"1鄰","STREET":" ","SECT":" ","MAREA":"\u25A0拔林","LANE":" ","ALLEY":" ","HOUSE_NO":"５１號之３","E_COORD97":183332.22,"N_COORD97":2551950.2599999998,"ADDRESS":"\u25A0拔林５１號之３","OBJECTID":113775},"geometry":{"x":183332.21999999974,"y":2551950.2600000016}},{"attributes":{"ID":113776,"DIS_CODE":0,"TOWNNAME":"新化區","LI":"\u25A0拔里","LIN":"1鄰","STREET":" ","SECT":" ","MAREA":"\u25A0拔林","LANE":" ","ALLEY":" ","HOUSE_NO":"６４號","E_COORD97":183437.76999999999,"N_COORD97":2551974.25,"ADDRESS":"\u25A0拔林６４號","OBJECTID":113776},"geometry":{"x":183437.77000000048,"y":2551974.2500000019}},{"attributes":{"ID":113777,"DIS_CODE":0,"TOWNNAME":"新化區","LI":"礁坑里","LIN":"1鄰","STREET":" ","SECT":" ","MAREA":"三十六崙","LANE":" ","ALLEY":" ","HOUSE_NO":"１２３號","E_COORD97":185178.17000000001,"N_COORD97":2549854.25,"ADDRESS":"三十六崙１２３號","OBJECTID":113777},"geometry":{"x":185178.17000000086,"y":2549854.2500000037}},{"attributes":{"ID":113778,"DIS_CODE":0,"TOWNNAME":"永康區","LI":"北灣里","LIN":"28鄰","STREET":"文賢街","SECT":" ","MAREA":" ","LANE":"７８巷","ALLEY":"１９弄","HOUSE_NO":"４８號","E_COORD97":175459.20000000001,"N_COORD97":2545409.8300000001,"ADDRESS":"文賢街７８巷１９弄４８號","OBJECTID":113778},"geometry":{"x":175459.20000000205,"y":2545409.8300000019}},{"attributes":{"ID":113779,"DIS_CODE":0,"TOWNNAME":"新化區","LI":"\u25A0拔里","LIN":"1鄰","STREET":" ","SECT":" ","MAREA":"\u25A0拔林","LANE":" ","ALLEY":" ","HOUSE_NO":"３１號","E_COORD97":183184.47,"N_COORD97":2551919.25,"ADDRESS":"\u25A0拔林３１號","OBJECTID":113779},"geometry":{"x":183184.46999999974,"y":2551919.2500000019}},{"attributes":{"ID":113780,"DIS_CODE":0,"TOWNNAME":"永康區","LI":"北灣里","LIN":"28鄰","STREET":"文賢街","SECT":" ","MAREA":" ","LANE":"７８巷","ALLEY":"１９弄","HOUSE_NO":"４２號","E_COORD97":175454.67000000001,"N_COORD97":2545392.3300000001,"ADDRESS":"文賢街７８巷１９弄４２號","OBJECTID":113780},"geometry":{"x":175454.67000000086,"y":2545392.3300000019}},{"attributes":{"ID":113781,"DIS_CODE":0,"TOWNNAME":"永康區","LI":"正強里","LIN":"28鄰","STREET":"中正路","SECT":" ","MAREA":" ","LANE":"１５５巷","ALLEY":"８弄","HOUSE_NO":"１０號","E_COORD97":173209.26999999999,"N_COORD97":2547793.75,"ADDRESS":"中正路１５５巷８弄１０號","OBJECTID":113781},"geometry":{"x":173209.26999999955,"y":2547793.7500000019}},{"attributes":{"ID":113782,"DIS_CODE":0,"TOWNNAME":"新化區","LI":"\u25A0拔里","LIN":"1鄰","STREET":" ","SECT":" ","MAREA":"\u25A0拔林","LANE":" ","ALLEY":" ","HOUSE_NO":"４２號之５","E_COORD97":183170.32999999999,"N_COORD97":2552091.2599999998,"ADDRESS":"\u25A0拔林４２號之５","OBJECTID":113782},"geometry":{"x":183170.33000000101,"y":2552091.2600000035}},{"attributes":{"ID":113783,"DIS_CODE":0,"TOWNNAME":"新化區","LI":"知義里","LIN":"1鄰","STREET":" ","SECT":" ","MAREA":"知母義","LANE":" ","ALLEY":" ","HOUSE_NO":"４０號","E_COORD97":179637.87,"N_COORD97":2546984.25,"ADDRESS":"知母義４０號","OBJECTID":113783},"geometry":{"x":179637.87000000011,"y":2546984.25}},{"attributes":{"ID":113784,"DIS_CODE":0,"TOWNNAME":"新化區","LI":"知義里","LIN":"1鄰","STREET":" ","SECT":" ","MAREA":"知母義","LANE":" ","ALLEY":" ","HOUSE_NO":"１７１號之１","E_COORD97":179707.85000000001,"N_COORD97":2547101.2599999998,"ADDRESS":"知母義１７１號之１","OBJECTID":113784},"geometry":{"x":179707.85000000056,"y":2547101.2600000016}},{"attributes":{"ID":113785,"DIS_CODE":0,"TOWNNAME":"新化區","LI":"\u25A0拔里","LIN":"1鄰","STREET":" ","SECT":" ","MAREA":"\u25A0拔林","LANE":" ","ALLEY":" ","HOUSE_NO":"１２號之６","E_COORD97":183032.92000000001,"N_COORD97":2551867.2599999998,"ADDRESS":"\u25A0拔林１２號之６","OBJECTID":113785},"geometry":{"x":183032.91999999993,"y":2551867.2599999998}},{"attributes":{"ID":113786,"DIS_CODE":0,"TOWNNAME":"新化區","LI":"知義里","LIN":"1鄰","STREET":" ","SECT":" ","MAREA":"知母義","LANE":" ","ALLEY":" ","HOUSE_NO":"３５號","E_COORD97":179660.97,"N_COORD97":2546989.25,"ADDRESS":"知母義３５號","OBJECTID":113786},"geometry":{"x":179660.9700000016,"y":2546989.2500000037}},{"attributes":{"ID":113787,"DIS_CODE":0,"TOWNNAME":"新化區","LI":"知義里","LIN":"1鄰","STREET":" ","SECT":" ","MAREA":"知母義","LANE":" ","ALLEY":" ","HOUSE_NO":"１６０號","E_COORD97":179720.62,"N_COORD97":2547033.25,"ADDRESS":"知母義１６０號","OBJECTID":113787},"geometry":{"x":179720.62000000011,"y":2547033.2500000037}},{"attributes":{"ID":113788,"DIS_CODE":0,"TOWNNAME":"新化區","LI":"\u25A0拔里","LIN":"1鄰","STREET":" ","SECT":" ","MAREA":"\u25A0拔林","LANE":" ","ALLEY":" ","HOUSE_NO":"１３號之６","E_COORD97":183092.42000000001,"N_COORD97":2551878.2599999998,"ADDRESS":"\u25A0拔林１３號之６","OBJECTID":113788},"geometry":{"x":183092.42000000179,"y":2551878.2600000016}},{"attributes":{"ID":113789,"DIS_CODE":0,"TOWNNAME":"永康區","LI":"尚頂里","LIN":"28鄰","STREET":"南台街","SECT":" ","MAREA":" ","LANE":"５４巷","ALLEY":"４１弄","HOUSE_NO":"１３號","E_COORD97":170280.47,"N_COORD97":2547092.5899999999,"ADDRESS":"南台街５４巷４１弄１３號","OBJECTID":113789},"geometry":{"x":170280.47000000067,"y":2547092.5900000017}},{"attributes":{"ID":113790,"DIS_CODE":0,"TOWNNAME":"新化區","LI":"知義里","LIN":"1鄰","STREET":" ","SECT":" ","MAREA":"知母義","LANE":" ","ALLEY":" ","HOUSE_NO":"１６７號之３","E_COORD97":179686.47,"N_COORD97":2547025.2599999998,"ADDRESS":"知母義１６７號之３","OBJECTID":113790},"geometry":{"x":179686.47000000067,"y":2547025.2599999998}},{"attributes":{"ID":113791,"DIS_CODE":0,"TOWNNAME":"新化區","LI":"\u25A0拔里","LIN":"1鄰","STREET":" ","SECT":" ","MAREA":"\u25A0拔林","LANE":" ","ALLEY":" ","HOUSE_NO":"４３號","E_COORD97":183160.17000000001,"N_COORD97":2552029.25,"ADDRESS":"\u25A0拔林４３號","OBJECTID":113791},"geometry":{"x":183160.16999999899,"y":2552029.25}},{"attributes":{"ID":113792,"DIS_CODE":0,"TOWNNAME":"新化區","LI":"\u25A0拔里","LIN":"1鄰","STREET":" ","SECT":" ","MAREA":"\u25A0拔林","LANE":" ","ALLEY":" ","HOUSE_NO":"２８號之２","E_COORD97":183100.63,"N_COORD97":2551976.2599999998,"ADDRESS":"\u25A0拔林２８號之２","OBJECTID":113792},"geometry":{"x":183100.62999999989,"y":2551976.2600000035}},{"attributes":{"ID":113793,"DIS_CODE":0,"TOWNNAME":"善化區","LI":"坐駕里","LIN":"23鄰","STREET":" ","SECT":" ","MAREA":"坐駕","LANE":" ","ALLEY":" ","HOUSE_NO":"１９號之１","E_COORD97":178684.97,"N_COORD97":2558061.27,"ADDRESS":"坐駕１９號之１","OBJECTID":113793},"geometry":{"x":178684.97000000067,"y":2558061.2699999977}},{"attributes":{"ID":113794,"DIS_CODE":0,"TOWNNAME":"善化區","LI":"坐駕里","LIN":"23鄰","STREET":" ","SECT":" ","MAREA":"坐駕","LANE":" ","ALLEY":" ","HOUSE_NO":"１７號","E_COORD97":178658.45999999999,"N_COORD97":2558024.25,"ADDRESS":"坐駕１７號","OBJECTID":113794},"geometry":{"x":178658.45999999996,"y":2558024.25}},{"attributes":{"ID":113795,"DIS_CODE":0,"TOWNNAME":"善化區","LI":"坐駕里","LIN":"23鄰","STREET":" ","SECT":" ","MAREA":"坐駕","LANE":" ","ALLEY":" ","HOUSE_NO":"２０號之８","E_COORD97":178644.38,"N_COORD97":2558163.02,"ADDRESS":"坐駕２０號之８","OBJECTID":113795},"geometry":{"x":178644.37999999896,"y":2558163.0200000014}},{"attributes":{"ID":113796,"DIS_CODE":0,"TOWNNAME":"善化區","LI":"坐駕里","LIN":"23鄰","STREET":" ","SECT":" ","MAREA":"坐駕","LANE":" ","ALLEY":" ","HOUSE_NO":"１８之１號","E_COORD97":178668.85000000001,"N_COORD97":2558064.02,"ADDRESS":"坐駕１８之１號","OBJECTID":113796},"geometry":{"x":178668.85000000056,"y":2558064.0200000014}},{"attributes":{"ID":113797,"DIS_CODE":0,"TOWNNAME":"善化區","LI":"胡家里","LIN":"16鄰","STREET":" ","SECT":" ","MAREA":"胡厝寮","LANE":" ","ALLEY":" ","HOUSE_NO":"１４６號","E_COORD97":175304.29999999999,"N_COORD97":2560770.25,"ADDRESS":"胡厝寮１４６號","OBJECTID":113797},"geometry":{"x":175304.30000000075,"y":2560770.25}},{"attributes":{"ID":113798,"DIS_CODE":0,"TOWNNAME":"善化區","LI":"胡厝里","LIN":"7鄰","STREET":" ","SECT":" ","MAREA":"胡厝寮","LANE":" ","ALLEY":" ","HOUSE_NO":"２０２號之６","E_COORD97":175231.45999999999,"N_COORD97":2560412.02,"ADDRESS":"胡厝寮２０２號之６","OBJECTID":113798},"geometry":{"x":175231.45999999996,"y":2560412.0199999996}},{"attributes":{"ID":113799,"DIS_CODE":0,"TOWNNAME":"新化區","LI":"知義里","LIN":"1鄰","STREET":" ","SECT":" ","MAREA":"知母義","LANE":" ","ALLEY":" ","HOUSE_NO":"１７６號","E_COORD97":179673.12,"N_COORD97":2547171.25,"ADDRESS":"知母義１７６號","OBJECTID":113799},"geometry":{"x":179673.12000000011,"y":2547171.25}},{"attributes":{"ID":113800,"DIS_CODE":0,"TOWNNAME":"新化區","LI":"\u25A0拔里","LIN":"1鄰","STREET":" ","SECT":" ","MAREA":"\u25A0拔林","LANE":" ","ALLEY":" ","HOUSE_NO":"３１號之４","E_COORD97":183205.41,"N_COORD97":2551925.2599999998,"ADDRESS":"\u25A0拔林３１號之４","OBJECTID":113800},"geometry":{"x":183205.41000000108,"y":2551925.2600000035}}]}