{"displayFieldName":"TOWNNAME","fieldAliases":{"ID":"ID","DIS_CODE":"DIS_CODE","TOWNNAME":"TOWNNAME","LI":"LI","LIN":"LIN","STREET":"STREET","SECT":"SECT","MAREA":"MAREA","LANE":"LANE","ALLEY":"ALLEY","HOUSE_NO":"HOUSE_NO","E_COORD97":"E_COORD97","N_COORD97":"N_COORD97","ADDRESS":"ADDRESS","OBJECTID":"OBJECTID"},"geometryType":"esriGeometryPoint","spatialReference":{"wkid":102443,"latestWkid":3826},"fields":[{"name":"ID","type":"esriFieldTypeDouble","alias":"ID"},{"name":"DIS_CODE","type":"esriFieldTypeInteger","alias":"DIS_CODE"},{"name":"TOWNNAME","type":"esriFieldTypeString","alias":"TOWNNAME","length":8},{"name":"LI","type":"esriFieldTypeString","alias":"LI","length":8},{"name":"LIN","type":"esriFieldTypeString","alias":"LIN","length":12},{"name":"STREET","type":"esriFieldTypeString","alias":"STREET","length":20},{"name":"SECT","type":"esriFieldTypeString","alias":"SECT","length":8},{"name":"MAREA","type":"esriFieldTypeString","alias":"MAREA","length":12},{"name":"LANE","type":"esriFieldTypeString","alias":"LANE","length":10},{"name":"ALLEY","type":"esriFieldTypeString","alias":"ALLEY","length":10},{"name":"HOUSE_NO","type":"esriFieldTypeString","alias":"HOUSE_NO","length":20},{"name":"E_COORD97","type":"esriFieldTypeDouble","alias":"E_COORD97"},{"name":"N_COORD97","type":"esriFieldTypeDouble","alias":"N_COORD97"},{"name":"ADDRESS","type":"esriFieldTypeString","alias":"ADDRESS","length":50},{"name":"OBJECTID","type":"esriFieldTypeOID","alias":"OBJECTID"}],"features":[{"attributes":{"ID":508228,"DIS_CODE":0,"TOWNNAME":"新營區","LI":"中營里","LIN":"15鄰","STREET":"東山三路","SECT":" ","MAREA":" ","LANE":" ","ALLEY":" ","HOUSE_NO":"１２１號","E_COORD97":181514.79999999999,"N_COORD97":2579213.4900000002,"ADDRESS":"東山三路１２１號","OBJECTID":508201},"geometry":{"x":181514.79999999888,"y":2579213.4900000039}},{"attributes":{"ID":508229,"DIS_CODE":0,"TOWNNAME":"新營區","LI":"埤寮里","LIN":"15鄰","STREET":"中正路","SECT":" ","MAREA":" ","LANE":" ","ALLEY":" ","HOUSE_NO":"２９８之２號","E_COORD97":180084.32000000001,"N_COORD97":2580058.5800000001,"ADDRESS":"中正路２９８之２號","OBJECTID":508202},"geometry":{"x":180084.3200000003,"y":2580058.5800000001}},{"attributes":{"ID":508230,"DIS_CODE":0,"TOWNNAME":"新營區","LI":"大宏里","LIN":"15鄰","STREET":"大同路","SECT":" ","MAREA":" ","LANE":" ","ALLEY":" ","HOUSE_NO":"４５之３號","E_COORD97":180695.28,"N_COORD97":2578874.0600000001,"ADDRESS":"大同路４５之３號","OBJECTID":508203},"geometry":{"x":180695.28000000119,"y":2578874.0600000042}},{"attributes":{"ID":508231,"DIS_CODE":0,"TOWNNAME":"新營區","LI":"三仙里","LIN":"15鄰","STREET":"三民路","SECT":" ","MAREA":" ","LANE":" ","ALLEY":" ","HOUSE_NO":"９９號之１","E_COORD97":179635,"N_COORD97":2578411.71,"ADDRESS":"三民路９９號之１","OBJECTID":508204},"geometry":{"x":179635,"y":2578411.7100000009}},{"attributes":{"ID":508232,"DIS_CODE":0,"TOWNNAME":"新營區","LI":"三仙里","LIN":"15鄰","STREET":"三民路","SECT":" ","MAREA":" ","LANE":" ","ALLEY":" ","HOUSE_NO":"９９之９號","E_COORD97":179617.85000000001,"N_COORD97":2578387.4300000002,"ADDRESS":"三民路９９之９號","OBJECTID":508205},"geometry":{"x":179617.85000000056,"y":2578387.4300000016}},{"attributes":{"ID":508233,"DIS_CODE":0,"TOWNNAME":"新營區","LI":"王公里","LIN":"15鄰","STREET":"大勇街","SECT":" ","MAREA":" ","LANE":" ","ALLEY":" ","HOUSE_NO":"５４號","E_COORD97":180306.64999999999,"N_COORD97":2579429.54,"ADDRESS":"大勇街５４號","OBJECTID":508206},"geometry":{"x":180306.6500000013,"y":2579429.540000001}},{"attributes":{"ID":508234,"DIS_CODE":0,"TOWNNAME":"新營區","LI":"新南里","LIN":"15鄰","STREET":"隋唐街","SECT":" ","MAREA":" ","LANE":" ","ALLEY":" ","HOUSE_NO":"２００號","E_COORD97":178531.70000000001,"N_COORD97":2578564.77,"ADDRESS":"隋唐街２００號","OBJECTID":508207},"geometry":{"x":178531.70000000019,"y":2578564.7700000014}},{"attributes":{"ID":508235,"DIS_CODE":0,"TOWNNAME":"楠西區","LI":"東勢里","LIN":"15鄰","STREET":"中正路","SECT":" ","MAREA":" ","LANE":" ","ALLEY":" ","HOUSE_NO":"３５９號","E_COORD97":197577.85999999999,"N_COORD97":2563273.25,"ADDRESS":"中正路３５９號","OBJECTID":508208},"geometry":{"x":197577.86000000034,"y":2563273.2500000037}},{"attributes":{"ID":508236,"DIS_CODE":0,"TOWNNAME":"楠西區","LI":"楠西里","LIN":"15鄰","STREET":"中正路","SECT":" ","MAREA":" ","LANE":" ","ALLEY":" ","HOUSE_NO":"２４號","E_COORD97":197101.10999999999,"N_COORD97":2564120.25,"ADDRESS":"中正路２４號","OBJECTID":508209},"geometry":{"x":197101.11000000127,"y":2564120.25}},{"attributes":{"ID":508237,"DIS_CODE":0,"TOWNNAME":"楠西區","LI":"東勢里","LIN":"15鄰","STREET":"中正路","SECT":" ","MAREA":" ","LANE":" ","ALLEY":" ","HOUSE_NO":"３４７號","E_COORD97":197559.45999999999,"N_COORD97":2563317.25,"ADDRESS":"中正路３４７號","OBJECTID":508210},"geometry":{"x":197559.46000000089,"y":2563317.2500000037}},{"attributes":{"ID":508238,"DIS_CODE":0,"TOWNNAME":"楠西區","LI":"楠西里","LIN":"15鄰","STREET":"中興南路","SECT":" ","MAREA":" ","LANE":" ","ALLEY":" ","HOUSE_NO":"９５號","E_COORD97":197149.76000000001,"N_COORD97":2564036.25,"ADDRESS":"中興南路９５號","OBJECTID":508211},"geometry":{"x":197149.75999999885,"y":2564036.2500000019}},{"attributes":{"ID":508239,"DIS_CODE":0,"TOWNNAME":"楠西區","LI":"東勢里","LIN":"15鄰","STREET":"中正路","SECT":" ","MAREA":" ","LANE":" ","ALLEY":" ","HOUSE_NO":"２５７號","E_COORD97":197429.85999999999,"N_COORD97":2563675.25,"ADDRESS":"中正路２５７號","OBJECTID":508212},"geometry":{"x":197429.86000000127,"y":2563675.25}},{"attributes":{"ID":508240,"DIS_CODE":0,"TOWNNAME":"楠西區","LI":"東勢里","LIN":"15鄰","STREET":"中正路","SECT":" ","MAREA":" ","LANE":" ","ALLEY":" ","HOUSE_NO":"２３１號","E_COORD97":197408.76000000001,"N_COORD97":2563726.25,"ADDRESS":"中正路２３１號","OBJECTID":508213},"geometry":{"x":197408.75999999978,"y":2563726.25}},{"attributes":{"ID":508241,"DIS_CODE":0,"TOWNNAME":"楠西區","LI":"東勢里","LIN":"15鄰","STREET":"中正路","SECT":" ","MAREA":" ","LANE":" ","ALLEY":" ","HOUSE_NO":"２３７號","E_COORD97":197414.45999999999,"N_COORD97":2563710.25,"ADDRESS":"中正路２３７號","OBJECTID":508214},"geometry":{"x":197414.45999999996,"y":2563710.2499999981}},{"attributes":{"ID":508242,"DIS_CODE":0,"TOWNNAME":"楠西區","LI":"東勢里","LIN":"15鄰","STREET":"中正路","SECT":" ","MAREA":" ","LANE":" ","ALLEY":" ","HOUSE_NO":"２２１號","E_COORD97":197401.56,"N_COORD97":2563746.25,"ADDRESS":"中正路２２１號","OBJECTID":508215},"geometry":{"x":197401.55999999959,"y":2563746.25}},{"attributes":{"ID":508243,"DIS_CODE":0,"TOWNNAME":"楠西區","LI":"楠西里","LIN":"15鄰","STREET":"中興南路","SECT":" ","MAREA":" ","LANE":" ","ALLEY":" ","HOUSE_NO":"１０７號","E_COORD97":197155.60999999999,"N_COORD97":2564069.25,"ADDRESS":"中興南路１０７號","OBJECTID":508216},"geometry":{"x":197155.61000000127,"y":2564069.25}},{"attributes":{"ID":508244,"DIS_CODE":0,"TOWNNAME":"楠西區","LI":"東勢里","LIN":"15鄰","STREET":"中正路","SECT":" ","MAREA":" ","LANE":" ","ALLEY":" ","HOUSE_NO":"２３３號","E_COORD97":197410.76000000001,"N_COORD97":2563722.25,"ADDRESS":"中正路２３３號","OBJECTID":508217},"geometry":{"x":197410.75999999978,"y":2563722.2500000019}},{"attributes":{"ID":508245,"DIS_CODE":0,"TOWNNAME":"楠西區","LI":"東勢里","LIN":"15鄰","STREET":"中正路","SECT":" ","MAREA":" ","LANE":" ","ALLEY":" ","HOUSE_NO":"３０１號之１","E_COORD97":197474.70000000001,"N_COORD97":2563544.2999999998,"ADDRESS":"中正路３０１號之１","OBJECTID":508218},"geometry":{"x":197474.70000000112,"y":2563544.3000000007}},{"attributes":{"ID":508246,"DIS_CODE":0,"TOWNNAME":"楠西區","LI":"東勢里","LIN":"15鄰","STREET":"中正路","SECT":" ","MAREA":" ","LANE":" ","ALLEY":" ","HOUSE_NO":"２７９號","E_COORD97":197451.16,"N_COORD97":2563606.25,"ADDRESS":"中正路２７９號","OBJECTID":508219},"geometry":{"x":197451.16000000108,"y":2563606.2500000019}},{"attributes":{"ID":508247,"DIS_CODE":0,"TOWNNAME":"新化區","LI":"太平里","LIN":"15鄰","STREET":"太平街","SECT":" ","MAREA":" ","LANE":" ","ALLEY":" ","HOUSE_NO":"３１號","E_COORD97":178932.26999999999,"N_COORD97":2548800.25,"ADDRESS":"太平街３１號","OBJECTID":508220},"geometry":{"x":178932.26999999955,"y":2548800.2500000019}},{"attributes":{"ID":508248,"DIS_CODE":0,"TOWNNAME":"新化區","LI":"太平里","LIN":"15鄰","STREET":"太平街","SECT":" ","MAREA":" ","LANE":" ","ALLEY":" ","HOUSE_NO":"４１號","E_COORD97":178915.97,"N_COORD97":2548796.25,"ADDRESS":"太平街４１號","OBJECTID":508221},"geometry":{"x":178915.96999999974,"y":2548796.2500000037}},{"attributes":{"ID":508249,"DIS_CODE":0,"TOWNNAME":"新化區","LI":"太平里","LIN":"15鄰","STREET":"中正路","SECT":" ","MAREA":" ","LANE":" ","ALLEY":" ","HOUSE_NO":"５９９號","E_COORD97":178938.60999999999,"N_COORD97":2548775.25,"ADDRESS":"中正路５９９號","OBJECTID":508222},"geometry":{"x":178938.61000000127,"y":2548775.25}},{"attributes":{"ID":508250,"DIS_CODE":0,"TOWNNAME":"新化區","LI":"知義里","LIN":"15鄰","STREET":"中興路","SECT":" ","MAREA":" ","LANE":" ","ALLEY":" ","HOUSE_NO":"４１９號","E_COORD97":180616.91,"N_COORD97":2547503.25,"ADDRESS":"中興路４１９號","OBJECTID":508223},"geometry":{"x":180616.91000000108,"y":2547503.25}},{"attributes":{"ID":508251,"DIS_CODE":0,"TOWNNAME":"新化區","LI":"東榮里","LIN":"15鄰","STREET":"中興路","SECT":" ","MAREA":" ","LANE":" ","ALLEY":" ","HOUSE_NO":"６５０號","E_COORD97":179686.60999999999,"N_COORD97":2548072.25,"ADDRESS":"中興路６５０號","OBJECTID":508224},"geometry":{"x":179686.61000000127,"y":2548072.2500000019}},{"attributes":{"ID":508252,"DIS_CODE":0,"TOWNNAME":"新化區","LI":"東榮里","LIN":"15鄰","STREET":"中興路","SECT":" ","MAREA":" ","LANE":" ","ALLEY":" ","HOUSE_NO":"６２６號","E_COORD97":179743.70999999999,"N_COORD97":2548054.25,"ADDRESS":"中興路６２６號","OBJECTID":508225},"geometry":{"x":179743.70999999996,"y":2548054.2500000019}},{"attributes":{"ID":508253,"DIS_CODE":0,"TOWNNAME":"新化區","LI":"協興里","LIN":"15鄰","STREET":"大新路","SECT":" ","MAREA":" ","LANE":" ","ALLEY":" ","HOUSE_NO":"９１號","E_COORD97":178065.88,"N_COORD97":2548728.25,"ADDRESS":"大新路９１號","OBJECTID":508226},"geometry":{"x":178065.87999999989,"y":2548728.2499999981}},{"attributes":{"ID":508254,"DIS_CODE":0,"TOWNNAME":"新化區","LI":"太平里","LIN":"15鄰","STREET":"太平街","SECT":" ","MAREA":" ","LANE":" ","ALLEY":" ","HOUSE_NO":"３３號","E_COORD97":178928.47,"N_COORD97":2548799.25,"ADDRESS":"太平街３３號","OBJECTID":508227},"geometry":{"x":178928.4700000016,"y":2548799.25}},{"attributes":{"ID":508255,"DIS_CODE":0,"TOWNNAME":"新化區","LI":"太平里","LIN":"15鄰","STREET":"太平街","SECT":" ","MAREA":" ","LANE":" ","ALLEY":" ","HOUSE_NO":"４９號之１","E_COORD97":178875.60000000001,"N_COORD97":2548789.2599999998,"ADDRESS":"太平街４９號之１","OBJECTID":508228},"geometry":{"x":178875.60000000056,"y":2548789.2600000035}},{"attributes":{"ID":508256,"DIS_CODE":0,"TOWNNAME":"新化區","LI":"太平里","LIN":"15鄰","STREET":"中正路","SECT":" ","MAREA":" ","LANE":" ","ALLEY":" ","HOUSE_NO":"６０３號","E_COORD97":178961.01000000001,"N_COORD97":2548793.25,"ADDRESS":"中正路６０３號","OBJECTID":508229},"geometry":{"x":178961.01000000071,"y":2548793.2500000019}},{"attributes":{"ID":508257,"DIS_CODE":0,"TOWNNAME":"新化區","LI":"協興里","LIN":"15鄰","STREET":"大新路","SECT":" ","MAREA":" ","LANE":" ","ALLEY":" ","HOUSE_NO":"１２９號","E_COORD97":178007.13,"N_COORD97":2548789.25,"ADDRESS":"大新路１２９號","OBJECTID":508230},"geometry":{"x":178007.13000000175,"y":2548789.2499999981}},{"attributes":{"ID":508258,"DIS_CODE":0,"TOWNNAME":"東區","LI":"仁和里","LIN":"15鄰","STREET":"自由路","SECT":"一段","MAREA":" ","LANE":" ","ALLEY":" ","HOUSE_NO":"２６６號","E_COORD97":171844.73999999999,"N_COORD97":2541129.5499999998,"ADDRESS":"自由路一段２６６號","OBJECTID":508231},"geometry":{"x":171844.74000000209,"y":2541129.5500000045}},{"attributes":{"ID":508259,"DIS_CODE":0,"TOWNNAME":"東區","LI":"仁和里","LIN":"15鄰","STREET":"自由路","SECT":"一段","MAREA":" ","LANE":" ","ALLEY":" ","HOUSE_NO":"２６８號","E_COORD97":171844.32000000001,"N_COORD97":2541135.6800000002,"ADDRESS":"自由路一段２６８號","OBJECTID":508232},"geometry":{"x":171844.32000000216,"y":2541135.6800000016}},{"attributes":{"ID":508260,"DIS_CODE":0,"TOWNNAME":"東區","LI":"仁和里","LIN":"15鄰","STREET":"自由路","SECT":"一段","MAREA":" ","LANE":" ","ALLEY":" ","HOUSE_NO":"２７２號","E_COORD97":171843.89000000001,"N_COORD97":2541144.79,"ADDRESS":"自由路一段２７２號","OBJECTID":508233},"geometry":{"x":171843.8900000006,"y":2541144.7899999991}},{"attributes":{"ID":508261,"DIS_CODE":0,"TOWNNAME":"東區","LI":"仁和里","LIN":"15鄰","STREET":"自由路","SECT":"一段","MAREA":" ","LANE":" ","ALLEY":" ","HOUSE_NO":"２７６號","E_COORD97":171843.67999999999,"N_COORD97":2541149.6499999999,"ADDRESS":"自由路一段２７６號","OBJECTID":508234},"geometry":{"x":171843.68000000063,"y":2541149.6500000022}},{"attributes":{"ID":508262,"DIS_CODE":0,"TOWNNAME":"東區","LI":"仁和里","LIN":"15鄰","STREET":"自由路","SECT":"一段","MAREA":" ","LANE":" ","ALLEY":" ","HOUSE_NO":"２８２號","E_COORD97":171842.41,"N_COORD97":2541163.8399999999,"ADDRESS":"自由路一段２８２號","OBJECTID":508235},"geometry":{"x":171842.41000000108,"y":2541163.8400000036}},{"attributes":{"ID":508263,"DIS_CODE":0,"TOWNNAME":"東區","LI":"仁和里","LIN":"15鄰","STREET":"自由路","SECT":"一段","MAREA":" ","LANE":" ","ALLEY":" ","HOUSE_NO":"２８６號","E_COORD97":171841.56,"N_COORD97":2541169.5499999998,"ADDRESS":"自由路一段２８６號","OBJECTID":508236},"geometry":{"x":171841.55999999959,"y":2541169.5500000007}},{"attributes":{"ID":508264,"DIS_CODE":0,"TOWNNAME":"東區","LI":"仁和里","LIN":"15鄰","STREET":"自由路","SECT":"一段","MAREA":" ","LANE":" ","ALLEY":" ","HOUSE_NO":"２８８號","E_COORD97":171842.20000000001,"N_COORD97":2541174.8399999999,"ADDRESS":"自由路一段２８８號","OBJECTID":508237},"geometry":{"x":171842.20000000112,"y":2541174.8400000017}},{"attributes":{"ID":508265,"DIS_CODE":0,"TOWNNAME":"東區","LI":"仁和里","LIN":"15鄰","STREET":"自由路","SECT":"一段","MAREA":" ","LANE":" ","ALLEY":" ","HOUSE_NO":"２９０號","E_COORD97":171841.78,"N_COORD97":2541180.3500000001,"ADDRESS":"自由路一段２９０號","OBJECTID":508238},"geometry":{"x":171841.78000000119,"y":2541180.3500000034}},{"attributes":{"ID":508266,"DIS_CODE":0,"TOWNNAME":"東區","LI":"仁和里","LIN":"15鄰","STREET":"自由路","SECT":"一段","MAREA":" ","LANE":" ","ALLEY":" ","HOUSE_NO":"２９２號","E_COORD97":171841.35000000001,"N_COORD97":2541185.21,"ADDRESS":"自由路一段２９２號","OBJECTID":508239},"geometry":{"x":171841.34999999963,"y":2541185.2100000009}},{"attributes":{"ID":508267,"DIS_CODE":0,"TOWNNAME":"東區","LI":"仁和里","LIN":"15鄰","STREET":"自由路","SECT":"一段","MAREA":" ","LANE":" ","ALLEY":" ","HOUSE_NO":"３００號","E_COORD97":171841.14000000001,"N_COORD97":2541196.8599999999,"ADDRESS":"自由路一段３００號","OBJECTID":508240},"geometry":{"x":171841.13999999966,"y":2541196.8600000031}},{"attributes":{"ID":508268,"DIS_CODE":0,"TOWNNAME":"東區","LI":"仁和里","LIN":"15鄰","STREET":"自由路","SECT":"一段","MAREA":" ","LANE":" ","ALLEY":" ","HOUSE_NO":"３０２號","E_COORD97":171840.92999999999,"N_COORD97":2541200.8799999999,"ADDRESS":"自由路一段３０２號","OBJECTID":508241},"geometry":{"x":171840.9299999997,"y":2541200.8800000008}},{"attributes":{"ID":508269,"DIS_CODE":0,"TOWNNAME":"東區","LI":"仁和里","LIN":"15鄰","STREET":"自由路","SECT":"一段","MAREA":" ","LANE":" ","ALLEY":" ","HOUSE_NO":"３０８號","E_COORD97":171839.66,"N_COORD97":2541207.02,"ADDRESS":"自由路一段３０８號","OBJECTID":508242},"geometry":{"x":171839.66000000015,"y":2541207.0200000014}},{"attributes":{"ID":508270,"DIS_CODE":0,"TOWNNAME":"東區","LI":"仁和里","LIN":"15鄰","STREET":"自由路","SECT":"一段","MAREA":" ","LANE":" ","ALLEY":" ","HOUSE_NO":"３１０號","E_COORD97":171839.41,"N_COORD97":2541211.27,"ADDRESS":"自由路一段３１０號","OBJECTID":508243},"geometry":{"x":171839.41000000015,"y":2541211.2700000033}},{"attributes":{"ID":508271,"DIS_CODE":0,"TOWNNAME":"東區","LI":"仁和里","LIN":"15鄰","STREET":"自由路","SECT":"一段","MAREA":" ","LANE":" ","ALLEY":" ","HOUSE_NO":"３１８號","E_COORD97":171838.78,"N_COORD97":2541222.2799999998,"ADDRESS":"自由路一段３１８號","OBJECTID":508244},"geometry":{"x":171838.78000000026,"y":2541222.2800000012}},{"attributes":{"ID":508272,"DIS_CODE":0,"TOWNNAME":"東區","LI":"仁和里","LIN":"15鄰","STREET":"自由路","SECT":"一段","MAREA":" ","LANE":" ","ALLEY":" ","HOUSE_NO":"３２２號","E_COORD97":171838.78,"N_COORD97":2541226.2999999998,"ADDRESS":"自由路一段３２２號","OBJECTID":508245},"geometry":{"x":171838.78000000026,"y":2541226.3000000026}},{"attributes":{"ID":508273,"DIS_CODE":0,"TOWNNAME":"歸仁區","LI":"許厝里","LIN":"15鄰","STREET":"中山路","SECT":"一段","MAREA":" ","LANE":" ","ALLEY":" ","HOUSE_NO":"３６８號","E_COORD97":178250.17999999999,"N_COORD97":2540711.98,"ADDRESS":"中山路一段３６８號","OBJECTID":508246},"geometry":{"x":178250.1799999997,"y":2540711.9800000004}},{"attributes":{"ID":508274,"DIS_CODE":0,"TOWNNAME":"歸仁區","LI":"許厝里","LIN":"15鄰","STREET":"中山路","SECT":"一段","MAREA":" ","LANE":" ","ALLEY":" ","HOUSE_NO":"３７２號","E_COORD97":178246.79000000001,"N_COORD97":2540712.6099999999,"ADDRESS":"中山路一段３７２號","OBJECTID":508247},"geometry":{"x":178246.78999999911,"y":2540712.6099999994}},{"attributes":{"ID":508275,"DIS_CODE":0,"TOWNNAME":"歸仁區","LI":"許厝里","LIN":"15鄰","STREET":"中山路","SECT":"一段","MAREA":" ","LANE":" ","ALLEY":" ","HOUSE_NO":"４０２號","E_COORD97":178170.31,"N_COORD97":2540721.5,"ADDRESS":"中山路一段４０２號","OBJECTID":508248},"geometry":{"x":178170.31000000052,"y":2540721.5}},{"attributes":{"ID":508276,"DIS_CODE":0,"TOWNNAME":"歸仁區","LI":"大廟里","LIN":"15鄰","STREET":"大廟五街","SECT":" ","MAREA":" ","LANE":" ","ALLEY":" ","HOUSE_NO":"１６２之１號","E_COORD97":176140.01000000001,"N_COORD97":2544585.8900000001,"ADDRESS":"大廟五街１６２之１號","OBJECTID":508249},"geometry":{"x":176140.01000000071,"y":2544585.8900000025}},{"attributes":{"ID":508277,"DIS_CODE":0,"TOWNNAME":"玉井區","LI":"玉井里","LIN":"15鄰","STREET":"中華路","SECT":" ","MAREA":" ","LANE":" ","ALLEY":" ","HOUSE_NO":"２號","E_COORD97":194912.06,"N_COORD97":2558178.2400000002,"ADDRESS":"中華路２號","OBJECTID":508250},"geometry":{"x":194912.06000000052,"y":2558178.2400000021}},{"attributes":{"ID":508278,"DIS_CODE":0,"TOWNNAME":"玉井區","LI":"玉田里","LIN":"15鄰","STREET":"\u25A0吧哖西路","SECT":" ","MAREA":" ","LANE":" ","ALLEY":" ","HOUSE_NO":"１００號","E_COORD97":194196.5,"N_COORD97":2557836.25,"ADDRESS":"\u25A0吧哖西路１００號","OBJECTID":508251},"geometry":{"x":194196.5,"y":2557836.2500000019}},{"attributes":{"ID":508279,"DIS_CODE":0,"TOWNNAME":"楠西區","LI":"東勢里","LIN":"15鄰","STREET":"中正路","SECT":" ","MAREA":" ","LANE":" ","ALLEY":" ","HOUSE_NO":"２９７號","E_COORD97":197468.66,"N_COORD97":2563555.25,"ADDRESS":"中正路２９７號","OBJECTID":508252},"geometry":{"x":197468.66000000108,"y":2563555.2500000019}},{"attributes":{"ID":508280,"DIS_CODE":0,"TOWNNAME":"玉井區","LI":"玉田里","LIN":"15鄰","STREET":"\u25A0吧哖西路","SECT":" ","MAREA":" ","LANE":" ","ALLEY":" ","HOUSE_NO":"１００之１號","E_COORD97":194267.59,"N_COORD97":2557786.29,"ADDRESS":"\u25A0吧哖西路１００之１號","OBJECTID":508253},"geometry":{"x":194267.59000000171,"y":2557786.2900000028}},{"attributes":{"ID":508281,"DIS_CODE":0,"TOWNNAME":"楠西區","LI":"楠西里","LIN":"15鄰","STREET":"中正路","SECT":" ","MAREA":" ","LANE":" ","ALLEY":" ","HOUSE_NO":"２３２號","E_COORD97":197401.45999999999,"N_COORD97":2563637.25,"ADDRESS":"中正路２３２號","OBJECTID":508254},"geometry":{"x":197401.46000000089,"y":2563637.2500000019}},{"attributes":{"ID":508282,"DIS_CODE":0,"TOWNNAME":"東區","LI":"龍山里","LIN":"15鄰","STREET":"崇學路","SECT":" ","MAREA":" ","LANE":" ","ALLEY":" ","HOUSE_NO":"２５９號之１","E_COORD97":170524.20000000001,"N_COORD97":2542480.54,"ADDRESS":"崇學路２５９號之１","OBJECTID":508255},"geometry":{"x":170524.20000000019,"y":2542480.5400000028}},{"attributes":{"ID":508283,"DIS_CODE":0,"TOWNNAME":"東區","LI":"龍山里","LIN":"15鄰","STREET":"崇學路","SECT":" ","MAREA":" ","LANE":" ","ALLEY":" ","HOUSE_NO":"２５９號之２","E_COORD97":170529.64999999999,"N_COORD97":2542484.3599999999,"ADDRESS":"崇學路２５９號之２","OBJECTID":508256},"geometry":{"x":170529.65000000037,"y":2542484.3599999994}},{"attributes":{"ID":508284,"DIS_CODE":0,"TOWNNAME":"東區","LI":"龍山里","LIN":"15鄰","STREET":"崇學路","SECT":" ","MAREA":" ","LANE":" ","ALLEY":" ","HOUSE_NO":"２５９號之３","E_COORD97":170533.73999999999,"N_COORD97":2542486.54,"ADDRESS":"崇學路２５９號之３","OBJECTID":508257},"geometry":{"x":170533.74000000022,"y":2542486.5399999991}},{"attributes":{"ID":508285,"DIS_CODE":0,"TOWNNAME":"東區","LI":"龍山里","LIN":"15鄰","STREET":"崇學路","SECT":" ","MAREA":" ","LANE":" ","ALLEY":" ","HOUSE_NO":"２５９號之４","E_COORD97":170537.01999999999,"N_COORD97":2542490.0800000001,"ADDRESS":"崇學路２５９號之４","OBJECTID":508258},"geometry":{"x":170537.02000000048,"y":2542490.0800000001}},{"attributes":{"ID":508286,"DIS_CODE":0,"TOWNNAME":"東區","LI":"龍山里","LIN":"15鄰","STREET":"崇學路","SECT":" ","MAREA":" ","LANE":" ","ALLEY":" ","HOUSE_NO":"２５９號之５","E_COORD97":170537.56,"N_COORD97":2542494.98,"ADDRESS":"崇學路２５９號之５","OBJECTID":508259},"geometry":{"x":170537.55999999959,"y":2542494.9800000004}},{"attributes":{"ID":508287,"DIS_CODE":0,"TOWNNAME":"東區","LI":"龍山里","LIN":"15鄰","STREET":"崇學路","SECT":" ","MAREA":" ","LANE":" ","ALLEY":" ","HOUSE_NO":"２５９號之６","E_COORD97":170540.01999999999,"N_COORD97":2542499.0699999998,"ADDRESS":"崇學路２５９號之６","OBJECTID":508260},"geometry":{"x":170540.01999999955,"y":2542499.0700000022}},{"attributes":{"ID":508288,"DIS_CODE":0,"TOWNNAME":"東區","LI":"龍山里","LIN":"15鄰","STREET":"崇學路","SECT":" ","MAREA":" ","LANE":" ","ALLEY":" ","HOUSE_NO":"２５９號之７","E_COORD97":170542.47,"N_COORD97":2542502.8900000001,"ADDRESS":"崇學路２５９號之７","OBJECTID":508261},"geometry":{"x":170542.4700000016,"y":2542502.8900000006}},{"attributes":{"ID":508289,"DIS_CODE":0,"TOWNNAME":"東區","LI":"龍山里","LIN":"15鄰","STREET":"崇學路","SECT":" ","MAREA":" ","LANE":" ","ALLEY":" ","HOUSE_NO":"２５９號之８","E_COORD97":170544.38,"N_COORD97":2542507.52,"ADDRESS":"崇學路２５９號之８","OBJECTID":508262},"geometry":{"x":170544.37999999989,"y":2542507.5199999996}},{"attributes":{"ID":508290,"DIS_CODE":0,"TOWNNAME":"安南區","LI":"安東里","LIN":"15鄰","STREET":"安和路","SECT":"一段","MAREA":" ","LANE":" ","ALLEY":" ","HOUSE_NO":"２０２號","E_COORD97":169371.16,"N_COORD97":2547880.8700000001,"ADDRESS":"安和路一段２０２號","OBJECTID":508263},"geometry":{"x":169371.16000000015,"y":2547880.8699999992}},{"attributes":{"ID":508291,"DIS_CODE":0,"TOWNNAME":"安南區","LI":"安順里","LIN":"15鄰","STREET":"育安一街","SECT":" ","MAREA":" ","LANE":" ","ALLEY":" ","HOUSE_NO":"１５１號","E_COORD97":169484.26999999999,"N_COORD97":2550076.7400000002,"ADDRESS":"育安一街１５１號","OBJECTID":508264},"geometry":{"x":169484.27000000048,"y":2550076.7400000002}},{"attributes":{"ID":508292,"DIS_CODE":0,"TOWNNAME":"安南區","LI":"新順里","LIN":"15鄰","STREET":"安豐四街","SECT":" ","MAREA":" ","LANE":" ","ALLEY":" ","HOUSE_NO":"１２號","E_COORD97":169431.17000000001,"N_COORD97":2549751.9500000002,"ADDRESS":"安豐四街１２號","OBJECTID":508265},"geometry":{"x":169431.17000000086,"y":2549751.9499999993}},{"attributes":{"ID":508293,"DIS_CODE":0,"TOWNNAME":"安南區","LI":"新順里","LIN":"15鄰","STREET":"安豐四街","SECT":" ","MAREA":" ","LANE":" ","ALLEY":" ","HOUSE_NO":"１４號","E_COORD97":169434.20000000001,"N_COORD97":2549754.2999999998,"ADDRESS":"安豐四街１４號","OBJECTID":508266},"geometry":{"x":169434.20000000019,"y":2549754.3000000026}},{"attributes":{"ID":508294,"DIS_CODE":0,"TOWNNAME":"安南區","LI":"新順里","LIN":"15鄰","STREET":"安豐四街","SECT":" ","MAREA":" ","LANE":" ","ALLEY":" ","HOUSE_NO":"１６號","E_COORD97":169438.23999999999,"N_COORD97":2549756.3199999998,"ADDRESS":"安豐四街１６號","OBJECTID":508267},"geometry":{"x":169438.24000000115,"y":2549756.3200000022}},{"attributes":{"ID":508295,"DIS_CODE":0,"TOWNNAME":"安南區","LI":"新順里","LIN":"15鄰","STREET":"安豐四街","SECT":" ","MAREA":" ","LANE":" ","ALLEY":" ","HOUSE_NO":"１８號","E_COORD97":169441.95000000001,"N_COORD97":2549759.3500000001,"ADDRESS":"安豐四街１８號","OBJECTID":508268},"geometry":{"x":169441.95000000112,"y":2549759.3500000015}},{"attributes":{"ID":508296,"DIS_CODE":0,"TOWNNAME":"安南區","LI":"新順里","LIN":"15鄰","STREET":"安豐四街","SECT":" ","MAREA":" ","LANE":" ","ALLEY":" ","HOUSE_NO":"２０號","E_COORD97":169445.64999999999,"N_COORD97":2549761.71,"ADDRESS":"安豐四街２０號","OBJECTID":508269},"geometry":{"x":169445.6500000013,"y":2549761.7100000028}},{"attributes":{"ID":508297,"DIS_CODE":0,"TOWNNAME":"安南區","LI":"新順里","LIN":"15鄰","STREET":"安豐四街","SECT":" ","MAREA":" ","LANE":" ","ALLEY":" ","HOUSE_NO":"２２號","E_COORD97":169449.35999999999,"N_COORD97":2549764.0600000001,"ADDRESS":"安豐四街２２號","OBJECTID":508270},"geometry":{"x":169449.36000000127,"y":2549764.0599999987}},{"attributes":{"ID":508298,"DIS_CODE":0,"TOWNNAME":"安南區","LI":"新順里","LIN":"15鄰","STREET":"安豐四街","SECT":" ","MAREA":" ","LANE":" ","ALLEY":" ","HOUSE_NO":"２４號","E_COORD97":169453.07000000001,"N_COORD97":2549766.0800000001,"ADDRESS":"安豐四街２４號","OBJECTID":508271},"geometry":{"x":169453.07000000123,"y":2549766.0800000001}},{"attributes":{"ID":508299,"DIS_CODE":0,"TOWNNAME":"安南區","LI":"新順里","LIN":"15鄰","STREET":"育安一街","SECT":" ","MAREA":" ","LANE":" ","ALLEY":" ","HOUSE_NO":"１００號","E_COORD97":169414.73999999999,"N_COORD97":2549885.6000000001,"ADDRESS":"育安一街１００號","OBJECTID":508272},"geometry":{"x":169414.74000000022,"y":2549885.6000000015}},{"attributes":{"ID":508300,"DIS_CODE":0,"TOWNNAME":"安南區","LI":"新順里","LIN":"15鄰","STREET":"育安一街","SECT":" ","MAREA":" ","LANE":" ","ALLEY":" ","HOUSE_NO":"８６號","E_COORD97":169389.88,"N_COORD97":2549868.2200000002,"ADDRESS":"育安一街８６號","OBJECTID":508273},"geometry":{"x":169389.87999999989,"y":2549868.2199999988}},{"attributes":{"ID":508301,"DIS_CODE":0,"TOWNNAME":"安南區","LI":"新順里","LIN":"15鄰","STREET":"育安一街","SECT":" ","MAREA":" ","LANE":" ","ALLEY":" ","HOUSE_NO":"８８號","E_COORD97":169394.07000000001,"N_COORD97":2549870.7000000002,"ADDRESS":"育安一街８８號","OBJECTID":508274},"geometry":{"x":169394.0700000003,"y":2549870.700000003}},{"attributes":{"ID":508302,"DIS_CODE":0,"TOWNNAME":"安南區","LI":"新順里","LIN":"15鄰","STREET":"育安一街","SECT":" ","MAREA":" ","LANE":" ","ALLEY":" ","HOUSE_NO":"９０號","E_COORD97":169397.64000000001,"N_COORD97":2549873.0299999998,"ADDRESS":"育安一街９０號","OBJECTID":508275},"geometry":{"x":169397.6400000006,"y":2549873.0300000012}},{"attributes":{"ID":508303,"DIS_CODE":0,"TOWNNAME":"安南區","LI":"新順里","LIN":"15鄰","STREET":"育安一街","SECT":" ","MAREA":" ","LANE":" ","ALLEY":" ","HOUSE_NO":"９２號","E_COORD97":169401.06,"N_COORD97":2549875.8199999998,"ADDRESS":"育安一街９２號","OBJECTID":508276},"geometry":{"x":169401.06000000052,"y":2549875.8200000022}},{"attributes":{"ID":508304,"DIS_CODE":0,"TOWNNAME":"安南區","LI":"新順里","LIN":"15鄰","STREET":"育安一街","SECT":" ","MAREA":" ","LANE":" ","ALLEY":" ","HOUSE_NO":"９４號","E_COORD97":169404.32999999999,"N_COORD97":2549878,"ADDRESS":"育安一街９４號","OBJECTID":508277},"geometry":{"x":169404.33000000007,"y":2549878}},{"attributes":{"ID":508305,"DIS_CODE":0,"TOWNNAME":"安南區","LI":"新順里","LIN":"15鄰","STREET":"育安一街","SECT":" ","MAREA":" ","LANE":" ","ALLEY":" ","HOUSE_NO":"９６號","E_COORD97":169408.51999999999,"N_COORD97":2549880.3199999998,"ADDRESS":"育安一街９６號","OBJECTID":508278},"geometry":{"x":169408.52000000048,"y":2549880.3200000003}},{"attributes":{"ID":508306,"DIS_CODE":0,"TOWNNAME":"安南區","LI":"新順里","LIN":"15鄰","STREET":"育安一街","SECT":" ","MAREA":" ","LANE":" ","ALLEY":" ","HOUSE_NO":"９８號","E_COORD97":169411.32000000001,"N_COORD97":2549882.6499999999,"ADDRESS":"育安一街９８號","OBJECTID":508279},"geometry":{"x":169411.3200000003,"y":2549882.6500000022}},{"attributes":{"ID":508307,"DIS_CODE":0,"TOWNNAME":"安南區","LI":"新順里","LIN":"15鄰","STREET":"培安四街","SECT":" ","MAREA":" ","LANE":" ","ALLEY":" ","HOUSE_NO":"５６號","E_COORD97":169420.64000000001,"N_COORD97":2549871.6299999999,"ADDRESS":"培安四街５６號","OBJECTID":508280},"geometry":{"x":169420.64000000153,"y":2549871.6300000008}},{"attributes":{"ID":508308,"DIS_CODE":0,"TOWNNAME":"新化區","LI":"協興里","LIN":"15鄰","STREET":"大新路","SECT":" ","MAREA":" ","LANE":" ","ALLEY":" ","HOUSE_NO":"１２３號","E_COORD97":178019.03,"N_COORD97":2548780.25,"ADDRESS":"大新路１２３號","OBJECTID":508281},"geometry":{"x":178019.03000000119,"y":2548780.2500000019}},{"attributes":{"ID":508309,"DIS_CODE":0,"TOWNNAME":"新化區","LI":"協興里","LIN":"15鄰","STREET":"大新路","SECT":" ","MAREA":" ","LANE":" ","ALLEY":" ","HOUSE_NO":"１２７號","E_COORD97":178013.03,"N_COORD97":2548786.25,"ADDRESS":"大新路１２７號","OBJECTID":508282},"geometry":{"x":178013.03000000026,"y":2548786.2500000037}},{"attributes":{"ID":508310,"DIS_CODE":0,"TOWNNAME":"新化區","LI":"太平里","LIN":"15鄰","STREET":"太平街","SECT":" ","MAREA":" ","LANE":" ","ALLEY":" ","HOUSE_NO":"４９號","E_COORD97":178884.57000000001,"N_COORD97":2548784.25,"ADDRESS":"太平街４９號","OBJECTID":508283},"geometry":{"x":178884.57000000123,"y":2548784.2500000019}},{"attributes":{"ID":508311,"DIS_CODE":0,"TOWNNAME":"新化區","LI":"知義里","LIN":"15鄰","STREET":"中興路","SECT":" ","MAREA":" ","LANE":" ","ALLEY":" ","HOUSE_NO":"４１１號","E_COORD97":180634.01000000001,"N_COORD97":2547496.25,"ADDRESS":"中興路４１１號","OBJECTID":508284},"geometry":{"x":180634.01000000071,"y":2547496.25}},{"attributes":{"ID":508312,"DIS_CODE":0,"TOWNNAME":"新化區","LI":"協興里","LIN":"15鄰","STREET":"大新路","SECT":" ","MAREA":" ","LANE":" ","ALLEY":" ","HOUSE_NO":"１２５號","E_COORD97":178016.03,"N_COORD97":2548783.25,"ADDRESS":"大新路１２５號","OBJECTID":508285},"geometry":{"x":178016.03000000026,"y":2548783.2500000019}},{"attributes":{"ID":508313,"DIS_CODE":0,"TOWNNAME":"新化區","LI":"太平里","LIN":"15鄰","STREET":"太平街","SECT":" ","MAREA":" ","LANE":" ","ALLEY":" ","HOUSE_NO":"６９號","E_COORD97":178792.97,"N_COORD97":2548762.25,"ADDRESS":"太平街６９號","OBJECTID":508286},"geometry":{"x":178792.9700000016,"y":2548762.2500000037}},{"attributes":{"ID":508314,"DIS_CODE":0,"TOWNNAME":"新化區","LI":"太平里","LIN":"15鄰","STREET":"中正路","SECT":" ","MAREA":" ","LANE":" ","ALLEY":" ","HOUSE_NO":"５９５號","E_COORD97":178963.10999999999,"N_COORD97":2548783.25,"ADDRESS":"中正路５９５號","OBJECTID":508287},"geometry":{"x":178963.11000000034,"y":2548783.2500000019}},{"attributes":{"ID":508315,"DIS_CODE":0,"TOWNNAME":"新化區","LI":"太平里","LIN":"15鄰","STREET":"太平街","SECT":" ","MAREA":" ","LANE":" ","ALLEY":" ","HOUSE_NO":"４３號","E_COORD97":178911.97,"N_COORD97":2548795.25,"ADDRESS":"太平街４３號","OBJECTID":508288},"geometry":{"x":178911.97000000067,"y":2548795.25}},{"attributes":{"ID":508316,"DIS_CODE":0,"TOWNNAME":"新化區","LI":"協興里","LIN":"15鄰","STREET":"大新路","SECT":" ","MAREA":" ","LANE":" ","ALLEY":" ","HOUSE_NO":"１１５號","E_COORD97":178031.13,"N_COORD97":2548765.25,"ADDRESS":"大新路１１５號","OBJECTID":508289},"geometry":{"x":178031.13000000082,"y":2548765.25}},{"attributes":{"ID":508317,"DIS_CODE":0,"TOWNNAME":"新化區","LI":"協興里","LIN":"15鄰","STREET":"大新路","SECT":" ","MAREA":" ","LANE":" ","ALLEY":" ","HOUSE_NO":"１２１號","E_COORD97":178022.23000000001,"N_COORD97":2548776.25,"ADDRESS":"大新路１２１號","OBJECTID":508290},"geometry":{"x":178022.23000000231,"y":2548776.2500000019}},{"attributes":{"ID":508318,"DIS_CODE":0,"TOWNNAME":"新化區","LI":"協興里","LIN":"15鄰","STREET":"大新路","SECT":" ","MAREA":" ","LANE":" ","ALLEY":" ","HOUSE_NO":"１１９號","E_COORD97":178024.53,"N_COORD97":2548773.25,"ADDRESS":"大新路１１９號","OBJECTID":508291},"geometry":{"x":178024.53000000026,"y":2548773.2500000019}},{"attributes":{"ID":508319,"DIS_CODE":0,"TOWNNAME":"新化區","LI":"太平里","LIN":"15鄰","STREET":"中正路","SECT":" ","MAREA":" ","LANE":" ","ALLEY":" ","HOUSE_NO":"５９３號","E_COORD97":178964.31,"N_COORD97":2548779.25,"ADDRESS":"中正路５９３號","OBJECTID":508292},"geometry":{"x":178964.30999999959,"y":2548779.2500000037}},{"attributes":{"ID":508320,"DIS_CODE":0,"TOWNNAME":"新化區","LI":"知義里","LIN":"15鄰","STREET":"中興路","SECT":" ","MAREA":" ","LANE":" ","ALLEY":" ","HOUSE_NO":"４１３號","E_COORD97":180629.81,"N_COORD97":2547498.25,"ADDRESS":"中興路４１３號","OBJECTID":508293},"geometry":{"x":180629.81000000145,"y":2547498.2500000019}},{"attributes":{"ID":508321,"DIS_CODE":0,"TOWNNAME":"新化區","LI":"太平里","LIN":"15鄰","STREET":"太平街","SECT":" ","MAREA":" ","LANE":" ","ALLEY":" ","HOUSE_NO":"３７號","E_COORD97":178922.57000000001,"N_COORD97":2548797.25,"ADDRESS":"太平街３７號","OBJECTID":508294},"geometry":{"x":178922.5700000003,"y":2548797.2500000019}},{"attributes":{"ID":508322,"DIS_CODE":0,"TOWNNAME":"安南區","LI":"新順里","LIN":"15鄰","STREET":"安豐三街","SECT":" ","MAREA":" ","LANE":" ","ALLEY":" ","HOUSE_NO":"２６號","E_COORD97":169403.79999999999,"N_COORD97":2549808.3599999999,"ADDRESS":"安豐三街２６號","OBJECTID":508295},"geometry":{"x":169403.79999999981,"y":2549808.3599999975}},{"attributes":{"ID":508323,"DIS_CODE":0,"TOWNNAME":"南區","LI":"同安里","LIN":"15鄰","STREET":"明興路","SECT":" ","MAREA":" ","LANE":" ","ALLEY":" ","HOUSE_NO":"１４０１號","E_COORD97":166373.73999999999,"N_COORD97":2535818.3799999999,"ADDRESS":"明興路１４０１號","OBJECTID":508296},"geometry":{"x":166373.74000000022,"y":2535818.379999999}},{"attributes":{"ID":508324,"DIS_CODE":0,"TOWNNAME":"南區","LI":"同安里","LIN":"15鄰","STREET":"明興路","SECT":" ","MAREA":" ","LANE":" ","ALLEY":" ","HOUSE_NO":"１４０３號","E_COORD97":166371.32000000001,"N_COORD97":2535814.3199999998,"ADDRESS":"明興路１４０３號","OBJECTID":508297},"geometry":{"x":166371.32000000123,"y":2535814.320000004}},{"attributes":{"ID":508325,"DIS_CODE":0,"TOWNNAME":"南區","LI":"同安里","LIN":"15鄰","STREET":"明興路","SECT":" ","MAREA":" ","LANE":" ","ALLEY":" ","HOUSE_NO":"１４０５號","E_COORD97":166372.17999999999,"N_COORD97":2535810.7799999998,"ADDRESS":"明興路１４０５號","OBJECTID":508298},"geometry":{"x":166372.1799999997,"y":2535810.7800000012}},{"attributes":{"ID":508326,"DIS_CODE":0,"TOWNNAME":"南區","LI":"同安里","LIN":"15鄰","STREET":"明興路","SECT":" ","MAREA":" ","LANE":" ","ALLEY":" ","HOUSE_NO":"１４０７號","E_COORD97":166370.97,"N_COORD97":2535807.4100000001,"ADDRESS":"明興路１４０７號","OBJECTID":508299},"geometry":{"x":166370.97000000067,"y":2535807.410000002}},{"attributes":{"ID":508327,"DIS_CODE":0,"TOWNNAME":"南區","LI":"同安里","LIN":"15鄰","STREET":"明興路","SECT":" ","MAREA":" ","LANE":" ","ALLEY":" ","HOUSE_NO":"１４０９號","E_COORD97":166370.28,"N_COORD97":2535803.0899999999,"ADDRESS":"明興路１４０９號","OBJECTID":508300},"geometry":{"x":166370.28000000026,"y":2535803.0900000017}},{"attributes":{"ID":508328,"DIS_CODE":0,"TOWNNAME":"南區","LI":"同安里","LIN":"15鄰","STREET":"明興路","SECT":" ","MAREA":" ","LANE":" ","ALLEY":" ","HOUSE_NO":"１４１１號","E_COORD97":166369.41,"N_COORD97":2535799.8900000001,"ADDRESS":"明興路１４１１號","OBJECTID":508301},"geometry":{"x":166369.41000000015,"y":2535799.8900000006}},{"attributes":{"ID":508329,"DIS_CODE":0,"TOWNNAME":"南區","LI":"同安里","LIN":"15鄰","STREET":"明興路","SECT":" ","MAREA":" ","LANE":" ","ALLEY":" ","HOUSE_NO":"１４１３號","E_COORD97":166368.54999999999,"N_COORD97":2535794.1899999999,"ADDRESS":"明興路１４１３號","OBJECTID":508302},"geometry":{"x":166368.55000000075,"y":2535794.1900000032}},{"attributes":{"ID":508330,"DIS_CODE":0,"TOWNNAME":"南區","LI":"同安里","LIN":"15鄰","STREET":"明興路","SECT":" ","MAREA":" ","LANE":" ","ALLEY":" ","HOUSE_NO":"１４１５號","E_COORD97":166368.45999999999,"N_COORD97":2535790.6400000001,"ADDRESS":"明興路１４１５號","OBJECTID":508303},"geometry":{"x":166368.45999999996,"y":2535790.6400000006}},{"attributes":{"ID":508331,"DIS_CODE":0,"TOWNNAME":"南區","LI":"同安里","LIN":"15鄰","STREET":"明興路","SECT":" ","MAREA":" ","LANE":" ","ALLEY":" ","HOUSE_NO":"１４２３號","E_COORD97":166363.26999999999,"N_COORD97":2535774.52,"ADDRESS":"明興路１４２３號","OBJECTID":508304},"geometry":{"x":166363.27000000142,"y":2535774.5199999996}},{"attributes":{"ID":508332,"DIS_CODE":0,"TOWNNAME":"南區","LI":"佛壇里","LIN":"15鄰","STREET":"興南街","SECT":" ","MAREA":" ","LANE":" ","ALLEY":" ","HOUSE_NO":"２４９號","E_COORD97":166006.32999999999,"N_COORD97":2535651,"ADDRESS":"興南街２４９號","OBJECTID":508305},"geometry":{"x":166006.33000000101,"y":2535651.0000000019}},{"attributes":{"ID":508333,"DIS_CODE":0,"TOWNNAME":"南區","LI":"佛壇里","LIN":"15鄰","STREET":"興南街","SECT":" ","MAREA":" ","LANE":" ","ALLEY":" ","HOUSE_NO":"２４９號之１","E_COORD97":166028.14000000001,"N_COORD97":2535645.7999999998,"ADDRESS":"興南街２４９號之１","OBJECTID":508306},"geometry":{"x":166028.13999999966,"y":2535645.8000000026}},{"attributes":{"ID":508334,"DIS_CODE":0,"TOWNNAME":"南區","LI":"佛壇里","LIN":"15鄰","STREET":"興南街","SECT":" ","MAREA":" ","LANE":" ","ALLEY":" ","HOUSE_NO":"２４９號之２","E_COORD97":166028.22,"N_COORD97":2535642.2400000002,"ADDRESS":"興南街２４９號之２","OBJECTID":508307},"geometry":{"x":166028.2200000016,"y":2535642.2400000021}},{"attributes":{"ID":508335,"DIS_CODE":0,"TOWNNAME":"南區","LI":"佛壇里","LIN":"15鄰","STREET":"興南街","SECT":" ","MAREA":" ","LANE":" ","ALLEY":" ","HOUSE_NO":"２５９號","E_COORD97":166041.01000000001,"N_COORD97":2535572.9300000002,"ADDRESS":"興南街２５９號","OBJECTID":508308},"geometry":{"x":166041.00999999978,"y":2535572.9300000016}},{"attributes":{"ID":508336,"DIS_CODE":0,"TOWNNAME":"東區","LI":"德光里","LIN":"15鄰","STREET":"崇德二街","SECT":" ","MAREA":" ","LANE":" ","ALLEY":" ","HOUSE_NO":"５０號","E_COORD97":170121.89000000001,"N_COORD97":2542330.7000000002,"ADDRESS":"崇德二街５０號","OBJECTID":508309},"geometry":{"x":170121.88999999966,"y":2542330.7000000011}},{"attributes":{"ID":508337,"DIS_CODE":0,"TOWNNAME":"東區","LI":"德光里","LIN":"15鄰","STREET":"崇德二街","SECT":" ","MAREA":" ","LANE":" ","ALLEY":" ","HOUSE_NO":"５２號","E_COORD97":170127.82000000001,"N_COORD97":2542326.4399999999,"ADDRESS":"崇德二街５２號","OBJECTID":508310},"geometry":{"x":170127.82000000123,"y":2542326.4400000013}},{"attributes":{"ID":508338,"DIS_CODE":0,"TOWNNAME":"東區","LI":"德光里","LIN":"15鄰","STREET":"崇德二街","SECT":" ","MAREA":" ","LANE":" ","ALLEY":" ","HOUSE_NO":"５４號","E_COORD97":170134.67999999999,"N_COORD97":2542322.3700000001,"ADDRESS":"崇德二街５４號","OBJECTID":508311},"geometry":{"x":170134.68000000063,"y":2542322.3700000029}},{"attributes":{"ID":508339,"DIS_CODE":0,"TOWNNAME":"東區","LI":"德光里","LIN":"15鄰","STREET":"崇德二街","SECT":" ","MAREA":" ","LANE":" ","ALLEY":" ","HOUSE_NO":"５６號","E_COORD97":170144.51000000001,"N_COORD97":2542334.21,"ADDRESS":"崇德二街５６號","OBJECTID":508312},"geometry":{"x":170144.51000000071,"y":2542334.2100000009}},{"attributes":{"ID":508340,"DIS_CODE":0,"TOWNNAME":"東區","LI":"德光里","LIN":"15鄰","STREET":"崇德二街","SECT":" ","MAREA":" ","LANE":" ","ALLEY":" ","HOUSE_NO":"５８號","E_COORD97":170138.39000000001,"N_COORD97":2542339.77,"ADDRESS":"崇德二街５８號","OBJECTID":508313},"geometry":{"x":170138.3900000006,"y":2542339.7699999996}},{"attributes":{"ID":508341,"DIS_CODE":0,"TOWNNAME":"東區","LI":"德光里","LIN":"15鄰","STREET":"崇德二街","SECT":" ","MAREA":" ","LANE":" ","ALLEY":" ","HOUSE_NO":"６０號","E_COORD97":170131.89999999999,"N_COORD97":2542344.21,"ADDRESS":"崇德二街６０號","OBJECTID":508314},"geometry":{"x":170131.9000000013,"y":2542344.2100000009}},{"attributes":{"ID":508342,"DIS_CODE":0,"TOWNNAME":"東區","LI":"德光里","LIN":"15鄰","STREET":"崇德二街","SECT":" ","MAREA":" ","LANE":" ","ALLEY":" ","HOUSE_NO":"６２號","E_COORD97":170126.70999999999,"N_COORD97":2542347.9100000001,"ADDRESS":"崇德二街６２號","OBJECTID":508315},"geometry":{"x":170126.70999999996,"y":2542347.910000002}},{"attributes":{"ID":508343,"DIS_CODE":0,"TOWNNAME":"東區","LI":"德光里","LIN":"15鄰","STREET":"崇德二街","SECT":" ","MAREA":" ","LANE":" ","ALLEY":" ","HOUSE_NO":"６４號","E_COORD97":170120.78,"N_COORD97":2542352.54,"ADDRESS":"崇德二街６４號","OBJECTID":508316},"geometry":{"x":170120.78000000119,"y":2542352.540000001}},{"attributes":{"ID":508344,"DIS_CODE":0,"TOWNNAME":"東區","LI":"德光里","LIN":"15鄰","STREET":"崇德二街","SECT":" ","MAREA":" ","LANE":" ","ALLEY":" ","HOUSE_NO":"６６號","E_COORD97":170114.66,"N_COORD97":2542357.3599999999,"ADDRESS":"崇德二街６６號","OBJECTID":508317},"geometry":{"x":170114.66000000108,"y":2542357.3600000013}},{"attributes":{"ID":508345,"DIS_CODE":0,"TOWNNAME":"東區","LI":"德光里","LIN":"15鄰","STREET":"崇德二街","SECT":" ","MAREA":" ","LANE":" ","ALLEY":" ","HOUSE_NO":"６８號","E_COORD97":170123.82999999999,"N_COORD97":2542364.6400000001,"ADDRESS":"崇德二街６８號","OBJECTID":508318},"geometry":{"x":170123.83000000101,"y":2542364.6400000006}},{"attributes":{"ID":508346,"DIS_CODE":0,"TOWNNAME":"東區","LI":"關聖里","LIN":"15鄰","STREET":"裕平一街","SECT":" ","MAREA":" ","LANE":" ","ALLEY":" ","HOUSE_NO":"８０號","E_COORD97":172392.41,"N_COORD97":2543047.3300000001,"ADDRESS":"裕平一街８０號","OBJECTID":508319},"geometry":{"x":172392.41000000015,"y":2543047.3300000019}},{"attributes":{"ID":508347,"DIS_CODE":0,"TOWNNAME":"東區","LI":"文聖里","LIN":"15鄰","STREET":"裕孝路","SECT":" ","MAREA":" ","LANE":" ","ALLEY":" ","HOUSE_NO":"１９１之７號","E_COORD97":172492.72,"N_COORD97":2542714.0299999998,"ADDRESS":"裕孝路１９１之７號","OBJECTID":508320},"geometry":{"x":172492.72000000067,"y":2542714.0299999993}},{"attributes":{"ID":508348,"DIS_CODE":0,"TOWNNAME":"東區","LI":"文聖里","LIN":"15鄰","STREET":"裕孝路","SECT":" ","MAREA":" ","LANE":" ","ALLEY":" ","HOUSE_NO":"１９１之８號","E_COORD97":172498.76000000001,"N_COORD97":2542710.8199999998,"ADDRESS":"裕孝路１９１之８號","OBJECTID":508321},"geometry":{"x":172498.76000000071,"y":2542710.8200000022}},{"attributes":{"ID":508349,"DIS_CODE":0,"TOWNNAME":"東區","LI":"文聖里","LIN":"15鄰","STREET":"裕孝路","SECT":" ","MAREA":" ","LANE":" ","ALLEY":" ","HOUSE_NO":"１９１之９號","E_COORD97":172503.45999999999,"N_COORD97":2542713.77,"ADDRESS":"裕孝路１９１之９號","OBJECTID":508322},"geometry":{"x":172503.45999999996,"y":2542713.7700000014}},{"attributes":{"ID":508350,"DIS_CODE":0,"TOWNNAME":"東區","LI":"文聖里","LIN":"15鄰","STREET":"裕孝路","SECT":" ","MAREA":" ","LANE":" ","ALLEY":" ","HOUSE_NO":"１９１號","E_COORD97":172451.67999999999,"N_COORD97":2542711.1200000001,"ADDRESS":"裕孝路１９１號","OBJECTID":508323},"geometry":{"x":172451.68000000063,"y":2542711.120000001}},{"attributes":{"ID":508351,"DIS_CODE":0,"TOWNNAME":"東區","LI":"文聖里","LIN":"15鄰","STREET":"裕孝路","SECT":" ","MAREA":" ","LANE":" ","ALLEY":" ","HOUSE_NO":"１９３之１０號","E_COORD97":172514.19,"N_COORD97":2542698.75,"ADDRESS":"裕孝路１９３之１０號","OBJECTID":508324},"geometry":{"x":172514.19000000041,"y":2542698.75}},{"attributes":{"ID":508352,"DIS_CODE":0,"TOWNNAME":"東區","LI":"文聖里","LIN":"15鄰","STREET":"裕孝路","SECT":" ","MAREA":" ","LANE":" ","ALLEY":" ","HOUSE_NO":"１９３之１號","E_COORD97":172465.62,"N_COORD97":2542698.6200000001,"ADDRESS":"裕孝路１９３之１號","OBJECTID":508325},"geometry":{"x":172465.62000000011,"y":2542698.620000001}},{"attributes":{"ID":508353,"DIS_CODE":0,"TOWNNAME":"東區","LI":"文聖里","LIN":"15鄰","STREET":"裕孝路","SECT":" ","MAREA":" ","LANE":" ","ALLEY":" ","HOUSE_NO":"１９３之２號","E_COORD97":172470.59,"N_COORD97":2542701.9700000002,"ADDRESS":"裕孝路１９３之２號","OBJECTID":508326},"geometry":{"x":172470.58999999985,"y":2542701.9700000007}},{"attributes":{"ID":508354,"DIS_CODE":0,"TOWNNAME":"東區","LI":"文聖里","LIN":"15鄰","STREET":"裕孝路","SECT":" ","MAREA":" ","LANE":" ","ALLEY":" ","HOUSE_NO":"１９３之３號","E_COORD97":172475.95000000001,"N_COORD97":2542698.75,"ADDRESS":"裕孝路１９３之３號","OBJECTID":508327},"geometry":{"x":172475.95000000112,"y":2542698.75}},{"attributes":{"ID":508355,"DIS_CODE":0,"TOWNNAME":"東區","LI":"文聖里","LIN":"15鄰","STREET":"裕孝路","SECT":" ","MAREA":" ","LANE":" ","ALLEY":" ","HOUSE_NO":"１９３之５號","E_COORD97":172481.72,"N_COORD97":2542701.9700000002,"ADDRESS":"裕孝路１９３之５號","OBJECTID":508328},"geometry":{"x":172481.7200000016,"y":2542701.9700000007}},{"attributes":{"ID":508356,"DIS_CODE":0,"TOWNNAME":"東區","LI":"文聖里","LIN":"15鄰","STREET":"裕孝路","SECT":" ","MAREA":" ","LANE":" ","ALLEY":" ","HOUSE_NO":"１９３之６號","E_COORD97":172492.72,"N_COORD97":2542698.0800000001,"ADDRESS":"裕孝路１９３之６號","OBJECTID":508329},"geometry":{"x":172492.72000000067,"y":2542698.0800000038}},{"attributes":{"ID":508357,"DIS_CODE":0,"TOWNNAME":"東區","LI":"文聖里","LIN":"15鄰","STREET":"裕孝路","SECT":" ","MAREA":" ","LANE":" ","ALLEY":" ","HOUSE_NO":"１９３之７號","E_COORD97":172497.82000000001,"N_COORD97":2542701.7000000002,"ADDRESS":"裕孝路１９３之７號","OBJECTID":508330},"geometry":{"x":172497.8200000003,"y":2542701.6999999993}},{"attributes":{"ID":508358,"DIS_CODE":0,"TOWNNAME":"東區","LI":"關聖里","LIN":"15鄰","STREET":"裕英街","SECT":" ","MAREA":" ","LANE":" ","ALLEY":" ","HOUSE_NO":"６７號","E_COORD97":172290.35000000001,"N_COORD97":2543032.5800000001,"ADDRESS":"裕英街６７號","OBJECTID":508331},"geometry":{"x":172290.34999999963,"y":2543032.5800000001}},{"attributes":{"ID":508359,"DIS_CODE":0,"TOWNNAME":"東區","LI":"文聖里","LIN":"15鄰","STREET":"裕孝路","SECT":" ","MAREA":" ","LANE":" ","ALLEY":" ","HOUSE_NO":"１９３之８號","E_COORD97":172504.13,"N_COORD97":2542698.6200000001,"ADDRESS":"裕孝路１９３之８號","OBJECTID":508332},"geometry":{"x":172504.12999999989,"y":2542698.620000001}},{"attributes":{"ID":508360,"DIS_CODE":0,"TOWNNAME":"東區","LI":"文聖里","LIN":"15鄰","STREET":"裕孝路","SECT":" ","MAREA":" ","LANE":" ","ALLEY":" ","HOUSE_NO":"１９３之９號","E_COORD97":172508.54999999999,"N_COORD97":2542701.7000000002,"ADDRESS":"裕孝路１９３之９號","OBJECTID":508333},"geometry":{"x":172508.55000000075,"y":2542701.6999999993}},{"attributes":{"ID":508361,"DIS_CODE":0,"TOWNNAME":"東區","LI":"文聖里","LIN":"15鄰","STREET":"裕孝路","SECT":" ","MAREA":" ","LANE":" ","ALLEY":" ","HOUSE_NO":"１９３號","E_COORD97":172452.35999999999,"N_COORD97":2542700.8900000001,"ADDRESS":"裕孝路１９３號","OBJECTID":508334},"geometry":{"x":172452.36000000034,"y":2542700.8900000025}},{"attributes":{"ID":508362,"DIS_CODE":0,"TOWNNAME":"東區","LI":"文聖里","LIN":"15鄰","STREET":"裕孝路","SECT":" ","MAREA":" ","LANE":" ","ALLEY":" ","HOUSE_NO":"１９５號","E_COORD97":172452.76999999999,"N_COORD97":2542696.3900000001,"ADDRESS":"裕孝路１９５號","OBJECTID":508335},"geometry":{"x":172452.77000000048,"y":2542696.3899999987}},{"attributes":{"ID":508363,"DIS_CODE":0,"TOWNNAME":"東區","LI":"文聖里","LIN":"15鄰","STREET":"裕孝路","SECT":" ","MAREA":" ","LANE":" ","ALLEY":" ","HOUSE_NO":"１９７號","E_COORD97":172451.53,"N_COORD97":2542692.0499999998,"ADDRESS":"裕孝路１９７號","OBJECTID":508336},"geometry":{"x":172451.53000000119,"y":2542692.0499999989}},{"attributes":{"ID":508364,"DIS_CODE":0,"TOWNNAME":"東區","LI":"文聖里","LIN":"15鄰","STREET":"裕孝路","SECT":" ","MAREA":" ","LANE":" ","ALLEY":" ","HOUSE_NO":"１９９之１號","E_COORD97":172465.48999999999,"N_COORD97":2542686.5499999998,"ADDRESS":"裕孝路１９９之１號","OBJECTID":508337},"geometry":{"x":172465.49000000115,"y":2542686.5500000026}},{"attributes":{"ID":508365,"DIS_CODE":0,"TOWNNAME":"東區","LI":"文聖里","LIN":"15鄰","STREET":"裕孝路","SECT":" ","MAREA":" ","LANE":" ","ALLEY":" ","HOUSE_NO":"１９９之２號","E_COORD97":172470.57999999999,"N_COORD97":2542689.8999999999,"ADDRESS":"裕孝路１９９之２號","OBJECTID":508338},"geometry":{"x":172470.58000000007,"y":2542689.9000000022}},{"attributes":{"ID":508366,"DIS_CODE":0,"TOWNNAME":"東區","LI":"文聖里","LIN":"15鄰","STREET":"裕孝路","SECT":" ","MAREA":" ","LANE":" ","ALLEY":" ","HOUSE_NO":"１９９之３號","E_COORD97":172476.22,"N_COORD97":2542687.8900000001,"ADDRESS":"裕孝路１９９之３號","OBJECTID":508339},"geometry":{"x":172476.21999999974,"y":2542687.8900000025}},{"attributes":{"ID":508367,"DIS_CODE":0,"TOWNNAME":"東區","LI":"文聖里","LIN":"15鄰","STREET":"裕孝路","SECT":" ","MAREA":" ","LANE":" ","ALLEY":" ","HOUSE_NO":"１９９之５號","E_COORD97":172481.59,"N_COORD97":2542690.3100000001,"ADDRESS":"裕孝路１９９之５號","OBJECTID":508340},"geometry":{"x":172481.59000000078,"y":2542690.3100000042}},{"attributes":{"ID":508368,"DIS_CODE":0,"TOWNNAME":"東區","LI":"文聖里","LIN":"15鄰","STREET":"裕孝路","SECT":" ","MAREA":" ","LANE":" ","ALLEY":" ","HOUSE_NO":"１９９之６號","E_COORD97":172492.32000000001,"N_COORD97":2542689.23,"ADDRESS":"裕孝路１９９之６號","OBJECTID":508341},"geometry":{"x":172492.32000000123,"y":2542689.2300000004}},{"attributes":{"ID":508369,"DIS_CODE":0,"TOWNNAME":"東區","LI":"文聖里","LIN":"15鄰","STREET":"裕孝路","SECT":" ","MAREA":" ","LANE":" ","ALLEY":" ","HOUSE_NO":"１９９之７號","E_COORD97":172498.09,"N_COORD97":2542687.2200000002,"ADDRESS":"裕孝路１９９之７號","OBJECTID":508342},"geometry":{"x":172498.09000000171,"y":2542687.2200000007}},{"attributes":{"ID":508370,"DIS_CODE":0,"TOWNNAME":"東區","LI":"文聖里","LIN":"15鄰","STREET":"裕孝路","SECT":" ","MAREA":" ","LANE":" ","ALLEY":" ","HOUSE_NO":"１９９之８號","E_COORD97":172503.45999999999,"N_COORD97":2542690.3100000001,"ADDRESS":"裕孝路１９９之８號","OBJECTID":508343},"geometry":{"x":172503.45999999996,"y":2542690.3100000042}},{"attributes":{"ID":508371,"DIS_CODE":0,"TOWNNAME":"東區","LI":"文聖里","LIN":"15鄰","STREET":"裕孝路","SECT":" ","MAREA":" ","LANE":" ","ALLEY":" ","HOUSE_NO":"１９９之９號","E_COORD97":172509.48999999999,"N_COORD97":2542686.9500000002,"ADDRESS":"裕孝路１９９之９號","OBJECTID":508344},"geometry":{"x":172509.49000000115,"y":2542686.9499999993}},{"attributes":{"ID":508372,"DIS_CODE":0,"TOWNNAME":"東區","LI":"文聖里","LIN":"15鄰","STREET":"裕孝路","SECT":" ","MAREA":" ","LANE":" ","ALLEY":" ","HOUSE_NO":"１９９號","E_COORD97":172451.53,"N_COORD97":2542688.0299999998,"ADDRESS":"裕孝路１９９號","OBJECTID":508345},"geometry":{"x":172451.53000000119,"y":2542688.0300000012}},{"attributes":{"ID":508373,"DIS_CODE":0,"TOWNNAME":"東區","LI":"文聖里","LIN":"15鄰","STREET":"裕孝路","SECT":" ","MAREA":" ","LANE":" ","ALLEY":" ","HOUSE_NO":"２０１之１０號","E_COORD97":172511.10000000001,"N_COORD97":2542677.2999999998,"ADDRESS":"裕孝路２０１之１０號","OBJECTID":508346},"geometry":{"x":172511.0999999987,"y":2542677.3000000026}},{"attributes":{"ID":508374,"DIS_CODE":0,"TOWNNAME":"東區","LI":"文聖里","LIN":"15鄰","STREET":"裕孝路","SECT":" ","MAREA":" ","LANE":" ","ALLEY":" ","HOUSE_NO":"２０１之１號","E_COORD97":172465.62,"N_COORD97":2542675.96,"ADDRESS":"裕孝路２０１之１號","OBJECTID":508347},"geometry":{"x":172465.62000000011,"y":2542675.9600000046}},{"attributes":{"ID":508375,"DIS_CODE":0,"TOWNNAME":"東區","LI":"文聖里","LIN":"15鄰","STREET":"裕孝路","SECT":" ","MAREA":" ","LANE":" ","ALLEY":" ","HOUSE_NO":"２０１之２號","E_COORD97":172470.17999999999,"N_COORD97":2542678.9100000001,"ADDRESS":"裕孝路２０１之２號","OBJECTID":508348},"geometry":{"x":172470.18000000156,"y":2542678.9100000039}},{"attributes":{"ID":508376,"DIS_CODE":0,"TOWNNAME":"東區","LI":"文聖里","LIN":"15鄰","STREET":"裕孝路","SECT":" ","MAREA":" ","LANE":" ","ALLEY":" ","HOUSE_NO":"２０１之３號","E_COORD97":172475.67999999999,"N_COORD97":2542675.8300000001,"ADDRESS":"裕孝路２０１之３號","OBJECTID":508349},"geometry":{"x":172475.68000000063,"y":2542675.8300000001}},{"attributes":{"ID":508377,"DIS_CODE":0,"TOWNNAME":"東區","LI":"文聖里","LIN":"15鄰","STREET":"裕孝路","SECT":" ","MAREA":" ","LANE":" ","ALLEY":" ","HOUSE_NO":"２０１之５號","E_COORD97":172481.72,"N_COORD97":2542678.6400000001,"ADDRESS":"裕孝路２０１之５號","OBJECTID":508350},"geometry":{"x":172481.7200000016,"y":2542678.6400000025}},{"attributes":{"ID":508378,"DIS_CODE":0,"TOWNNAME":"東區","LI":"文聖里","LIN":"15鄰","STREET":"裕孝路","SECT":" ","MAREA":" ","LANE":" ","ALLEY":" ","HOUSE_NO":"２０１之６號","E_COORD97":172487.35999999999,"N_COORD97":2542675.5600000001,"ADDRESS":"裕孝路２０１之６號","OBJECTID":508351},"geometry":{"x":172487.36000000034,"y":2542675.5600000024}},{"attributes":{"ID":508379,"DIS_CODE":0,"TOWNNAME":"東區","LI":"文聖里","LIN":"15鄰","STREET":"裕孝路","SECT":" ","MAREA":" ","LANE":" ","ALLEY":" ","HOUSE_NO":"２０１之７號","E_COORD97":172492.72,"N_COORD97":2542678.9100000001,"ADDRESS":"裕孝路２０１之７號","OBJECTID":508352},"geometry":{"x":172492.72000000067,"y":2542678.9100000039}},{"attributes":{"ID":508380,"DIS_CODE":0,"TOWNNAME":"東區","LI":"文聖里","LIN":"15鄰","STREET":"裕孝路","SECT":" ","MAREA":" ","LANE":" ","ALLEY":" ","HOUSE_NO":"２０１之８號","E_COORD97":172498.09,"N_COORD97":2542675.8300000001,"ADDRESS":"裕孝路２０１之８號","OBJECTID":508353},"geometry":{"x":172498.09000000171,"y":2542675.8300000001}},{"attributes":{"ID":508381,"DIS_CODE":0,"TOWNNAME":"東區","LI":"文聖里","LIN":"15鄰","STREET":"裕孝路","SECT":" ","MAREA":" ","LANE":" ","ALLEY":" ","HOUSE_NO":"２０１之９號","E_COORD97":172503.19,"N_COORD97":2542678.9100000001,"ADDRESS":"裕孝路２０１之９號","OBJECTID":508354},"geometry":{"x":172503.19000000134,"y":2542678.9100000039}},{"attributes":{"ID":508382,"DIS_CODE":0,"TOWNNAME":"東區","LI":"關聖里","LIN":"15鄰","STREET":"裕孝路","SECT":" ","MAREA":" ","LANE":" ","ALLEY":" ","HOUSE_NO":"８２號","E_COORD97":172424.17999999999,"N_COORD97":2543100.6299999999,"ADDRESS":"裕孝路８２號","OBJECTID":508355},"geometry":{"x":172424.17999999877,"y":2543100.6300000008}},{"attributes":{"ID":508383,"DIS_CODE":0,"TOWNNAME":"東區","LI":"關聖里","LIN":"15鄰","STREET":"裕忠路","SECT":" ","MAREA":" ","LANE":" ","ALLEY":" ","HOUSE_NO":"６３之１號","E_COORD97":172288.59,"N_COORD97":2543091.5800000001,"ADDRESS":"裕忠路６３之１號","OBJECTID":508356},"geometry":{"x":172288.59000000078,"y":2543091.5800000038}},{"attributes":{"ID":508384,"DIS_CODE":0,"TOWNNAME":"東區","LI":"關聖里","LIN":"15鄰","STREET":"裕忠路","SECT":" ","MAREA":" ","LANE":" ","ALLEY":" ","HOUSE_NO":"６３之２號","E_COORD97":172293.54000000001,"N_COORD97":2543094.23,"ADDRESS":"裕忠路６３之２號","OBJECTID":508357},"geometry":{"x":172293.54000000097,"y":2543094.2300000042}},{"attributes":{"ID":508385,"DIS_CODE":0,"TOWNNAME":"東區","LI":"關聖里","LIN":"15鄰","STREET":"裕忠路","SECT":" ","MAREA":" ","LANE":" ","ALLEY":" ","HOUSE_NO":"６３之３號","E_COORD97":172297.95999999999,"N_COORD97":2543092.1099999999,"ADDRESS":"裕忠路６３之３號","OBJECTID":508358},"geometry":{"x":172297.96000000089,"y":2543092.1100000013}},{"attributes":{"ID":508386,"DIS_CODE":0,"TOWNNAME":"東區","LI":"關聖里","LIN":"15鄰","STREET":"裕忠路","SECT":" ","MAREA":" ","LANE":" ","ALLEY":" ","HOUSE_NO":"６３之５號","E_COORD97":172302.73000000001,"N_COORD97":2543095.1099999999,"ADDRESS":"裕忠路６３之５號","OBJECTID":508359},"geometry":{"x":172302.73000000231,"y":2543095.1100000013}},{"attributes":{"ID":508387,"DIS_CODE":0,"TOWNNAME":"東區","LI":"關聖里","LIN":"15鄰","STREET":"裕忠路","SECT":" ","MAREA":" ","LANE":" ","ALLEY":" ","HOUSE_NO":"６３之６號","E_COORD97":172308.03,"N_COORD97":2543092.1099999999,"ADDRESS":"裕忠路６３之６號","OBJECTID":508360},"geometry":{"x":172308.03000000119,"y":2543092.1100000013}},{"attributes":{"ID":508388,"DIS_CODE":0,"TOWNNAME":"東區","LI":"關聖里","LIN":"15鄰","STREET":"裕忠路","SECT":" ","MAREA":" ","LANE":" ","ALLEY":" ","HOUSE_NO":"６３之７號","E_COORD97":172312.45000000001,"N_COORD97":2543095.1099999999,"ADDRESS":"裕忠路６３之７號","OBJECTID":508361},"geometry":{"x":172312.45000000019,"y":2543095.1100000013}},{"attributes":{"ID":508389,"DIS_CODE":0,"TOWNNAME":"東區","LI":"關聖里","LIN":"15鄰","STREET":"裕忠路","SECT":" ","MAREA":" ","LANE":" ","ALLEY":" ","HOUSE_NO":"６３之８號","E_COORD97":172316.87,"N_COORD97":2543091.7599999998,"ADDRESS":"裕忠路６３之８號","OBJECTID":508362},"geometry":{"x":172316.87000000104,"y":2543091.7599999998}},{"attributes":{"ID":508390,"DIS_CODE":0,"TOWNNAME":"東區","LI":"關聖里","LIN":"15鄰","STREET":"裕忠路","SECT":" ","MAREA":" ","LANE":" ","ALLEY":" ","HOUSE_NO":"６３之９號","E_COORD97":172321.82000000001,"N_COORD97":2543094.7599999998,"ADDRESS":"裕忠路６３之９號","OBJECTID":508363},"geometry":{"x":172321.8200000003,"y":2543094.7600000016}},{"attributes":{"ID":508391,"DIS_CODE":0,"TOWNNAME":"東區","LI":"關聖里","LIN":"15鄰","STREET":"裕忠路","SECT":" ","MAREA":" ","LANE":" ","ALLEY":" ","HOUSE_NO":"６３號","E_COORD97":172276.39000000001,"N_COORD97":2543092.4700000002,"ADDRESS":"裕忠路６３號","OBJECTID":508364},"geometry":{"x":172276.38999999966,"y":2543092.4700000007}},{"attributes":{"ID":508392,"DIS_CODE":0,"TOWNNAME":"東區","LI":"關聖里","LIN":"15鄰","STREET":"裕忠路","SECT":" ","MAREA":" ","LANE":" ","ALLEY":" ","HOUSE_NO":"６５之１號","E_COORD97":172288.41,"N_COORD97":2543078.3300000001,"ADDRESS":"裕忠路６５之１號","OBJECTID":508365},"geometry":{"x":172288.41000000108,"y":2543078.3300000001}},{"attributes":{"ID":508393,"DIS_CODE":0,"TOWNNAME":"東區","LI":"關聖里","LIN":"15鄰","STREET":"裕忠路","SECT":" ","MAREA":" ","LANE":" ","ALLEY":" ","HOUSE_NO":"６５之２號","E_COORD97":172292.82999999999,"N_COORD97":2543080.98,"ADDRESS":"裕忠路６５之２號","OBJECTID":508366},"geometry":{"x":172292.83000000007,"y":2543080.9800000004}},{"attributes":{"ID":508394,"DIS_CODE":0,"TOWNNAME":"東區","LI":"關聖里","LIN":"15鄰","STREET":"裕忠路","SECT":" ","MAREA":" ","LANE":" ","ALLEY":" ","HOUSE_NO":"６５之３號","E_COORD97":172297.78,"N_COORD97":2543078.3300000001,"ADDRESS":"裕忠路６５之３號","OBJECTID":508367},"geometry":{"x":172297.78000000119,"y":2543078.3300000001}},{"attributes":{"ID":508395,"DIS_CODE":0,"TOWNNAME":"東區","LI":"關聖里","LIN":"15鄰","STREET":"裕忠路","SECT":" ","MAREA":" ","LANE":" ","ALLEY":" ","HOUSE_NO":"６５之５號","E_COORD97":172303.26000000001,"N_COORD97":2543080.98,"ADDRESS":"裕忠路６５之５號","OBJECTID":508368},"geometry":{"x":172303.25999999978,"y":2543080.9800000004}},{"attributes":{"ID":508396,"DIS_CODE":0,"TOWNNAME":"東區","LI":"關聖里","LIN":"15鄰","STREET":"裕忠路","SECT":" ","MAREA":" ","LANE":" ","ALLEY":" ","HOUSE_NO":"６５之６號","E_COORD97":172308.03,"N_COORD97":2543078.3300000001,"ADDRESS":"裕忠路６５之６號","OBJECTID":508369},"geometry":{"x":172308.03000000119,"y":2543078.3300000001}},{"attributes":{"ID":508397,"DIS_CODE":0,"TOWNNAME":"東區","LI":"關聖里","LIN":"15鄰","STREET":"裕忠路","SECT":" ","MAREA":" ","LANE":" ","ALLEY":" ","HOUSE_NO":"６５之７號","E_COORD97":172312.45000000001,"N_COORD97":2543082.2200000002,"ADDRESS":"裕忠路６５之７號","OBJECTID":508370},"geometry":{"x":172312.45000000019,"y":2543082.2200000025}},{"attributes":{"ID":508398,"DIS_CODE":0,"TOWNNAME":"東區","LI":"關聖里","LIN":"15鄰","STREET":"裕忠路","SECT":" ","MAREA":" ","LANE":" ","ALLEY":" ","HOUSE_NO":"６５之８號","E_COORD97":172317.04999999999,"N_COORD97":2543078.3300000001,"ADDRESS":"裕忠路６５之８號","OBJECTID":508371},"geometry":{"x":172317.05000000075,"y":2543078.3300000001}},{"attributes":{"ID":508399,"DIS_CODE":0,"TOWNNAME":"東區","LI":"關聖里","LIN":"15鄰","STREET":"裕忠路","SECT":" ","MAREA":" ","LANE":" ","ALLEY":" ","HOUSE_NO":"６５之９號","E_COORD97":172321.82000000001,"N_COORD97":2543080.98,"ADDRESS":"裕忠路６５之９號","OBJECTID":508372},"geometry":{"x":172321.8200000003,"y":2543080.9800000004}},{"attributes":{"ID":508400,"DIS_CODE":0,"TOWNNAME":"東區","LI":"關聖里","LIN":"15鄰","STREET":"裕忠路","SECT":" ","MAREA":" ","LANE":" ","ALLEY":" ","HOUSE_NO":"６５號","E_COORD97":172276.57000000001,"N_COORD97":2543080.6299999999,"ADDRESS":"裕忠路６５號","OBJECTID":508373},"geometry":{"x":172276.57000000216,"y":2543080.6300000008}},{"attributes":{"ID":508401,"DIS_CODE":0,"TOWNNAME":"東區","LI":"關聖里","LIN":"15鄰","STREET":"裕忠路","SECT":" ","MAREA":" ","LANE":" ","ALLEY":" ","HOUSE_NO":"６７號","E_COORD97":172276.39000000001,"N_COORD97":2543076.04,"ADDRESS":"裕忠路６７號","OBJECTID":508374},"geometry":{"x":172276.38999999966,"y":2543076.0399999991}},{"attributes":{"ID":508402,"DIS_CODE":0,"TOWNNAME":"東區","LI":"關聖里","LIN":"15鄰","STREET":"裕忠路","SECT":" ","MAREA":" ","LANE":" ","ALLEY":" ","HOUSE_NO":"７９號","E_COORD97":172276.39000000001,"N_COORD97":2543046.0099999998,"ADDRESS":"裕忠路７９號","OBJECTID":508375},"geometry":{"x":172276.38999999966,"y":2543046.0099999998}},{"attributes":{"ID":508403,"DIS_CODE":0,"TOWNNAME":"東區","LI":"關聖里","LIN":"15鄰","STREET":"裕忠路","SECT":" ","MAREA":" ","LANE":" ","ALLEY":" ","HOUSE_NO":"８１號","E_COORD97":172276.03,"N_COORD97":2543040.8900000001,"ADDRESS":"裕忠路８１號","OBJECTID":508376},"geometry":{"x":172276.03000000026,"y":2543040.8900000006}},{"attributes":{"ID":508404,"DIS_CODE":0,"TOWNNAME":"東區","LI":"關聖里","LIN":"15鄰","STREET":"裕忠路","SECT":" ","MAREA":" ","LANE":" ","ALLEY":" ","HOUSE_NO":"８３號","E_COORD97":172276.56,"N_COORD97":2543035.9399999999,"ADDRESS":"裕忠路８３號","OBJECTID":508377},"geometry":{"x":172276.56000000052,"y":2543035.9399999995}},{"attributes":{"ID":508405,"DIS_CODE":0,"TOWNNAME":"東區","LI":"關聖里","LIN":"15鄰","STREET":"裕忠路","SECT":" ","MAREA":" ","LANE":" ","ALLEY":" ","HOUSE_NO":"８５號","E_COORD97":172276.56,"N_COORD97":2543031.52,"ADDRESS":"裕忠路８５號","OBJECTID":508378},"geometry":{"x":172276.56000000052,"y":2543031.5200000014}},{"attributes":{"ID":508406,"DIS_CODE":0,"TOWNNAME":"東區","LI":"關聖里","LIN":"15鄰","STREET":"裕忠路","SECT":" ","MAREA":" ","LANE":" ","ALLEY":" ","HOUSE_NO":"８７號","E_COORD97":172276.92000000001,"N_COORD97":2543024.8100000001,"ADDRESS":"裕忠路８７號","OBJECTID":508379},"geometry":{"x":172276.91999999993,"y":2543024.8100000005}},{"attributes":{"ID":508407,"DIS_CODE":0,"TOWNNAME":"東區","LI":"南聖里","LIN":"15鄰","STREET":"裕信路","SECT":" ","MAREA":" ","LANE":" ","ALLEY":" ","HOUSE_NO":"１２６號","E_COORD97":172589.84,"N_COORD97":2543199.73,"ADDRESS":"裕信路１２６號","OBJECTID":508380},"geometry":{"x":172589.84000000078,"y":2543199.7300000023}},{"attributes":{"ID":508408,"DIS_CODE":0,"TOWNNAME":"東區","LI":"文聖里","LIN":"15鄰","STREET":"裕信路","SECT":" ","MAREA":" ","LANE":" ","ALLEY":" ","HOUSE_NO":"２８６號","E_COORD97":172579.42999999999,"N_COORD97":2542693.96,"ADDRESS":"裕信路２８６號","OBJECTID":508381},"geometry":{"x":172579.4299999997,"y":2542693.9600000028}},{"attributes":{"ID":508409,"DIS_CODE":0,"TOWNNAME":"東區","LI":"文聖里","LIN":"15鄰","STREET":"裕信路","SECT":" ","MAREA":" ","LANE":" ","ALLEY":" ","HOUSE_NO":"２８８之１０號","E_COORD97":172530.5,"N_COORD97":2542692.2799999998,"ADDRESS":"裕信路２８８之１０號","OBJECTID":508382},"geometry":{"x":172530.5,"y":2542692.2799999993}},{"attributes":{"ID":508410,"DIS_CODE":0,"TOWNNAME":"東區","LI":"文聖里","LIN":"15鄰","STREET":"裕信路","SECT":" ","MAREA":" ","LANE":" ","ALLEY":" ","HOUSE_NO":"２８８之１１號","E_COORD97":172525.12,"N_COORD97":2542689.2599999998,"ADDRESS":"裕信路２８８之１１號","OBJECTID":508383},"geometry":{"x":172525.12000000197,"y":2542689.2599999998}},{"attributes":{"ID":508411,"DIS_CODE":0,"TOWNNAME":"東區","LI":"文聖里","LIN":"15鄰","STREET":"裕信路","SECT":" ","MAREA":" ","LANE":" ","ALLEY":" ","HOUSE_NO":"２８８之１２號","E_COORD97":172519.85999999999,"N_COORD97":2542692.2799999998,"ADDRESS":"裕信路２８８之１２號","OBJECTID":508384},"geometry":{"x":172519.86000000034,"y":2542692.2799999993}},{"attributes":{"ID":508412,"DIS_CODE":0,"TOWNNAME":"東區","LI":"文聖里","LIN":"15鄰","STREET":"裕信路","SECT":" ","MAREA":" ","LANE":" ","ALLEY":" ","HOUSE_NO":"２８８之１號","E_COORD97":172570.47,"N_COORD97":2542692.2799999998,"ADDRESS":"裕信路２８８之１號","OBJECTID":508385},"geometry":{"x":172570.47000000067,"y":2542692.2799999993}},{"attributes":{"ID":508413,"DIS_CODE":0,"TOWNNAME":"東區","LI":"文聖里","LIN":"15鄰","STREET":"裕信路","SECT":" ","MAREA":" ","LANE":" ","ALLEY":" ","HOUSE_NO":"２８８之２號","E_COORD97":172566.32999999999,"N_COORD97":2542688.48,"ADDRESS":"裕信路２８８之２號","OBJECTID":508386},"geometry":{"x":172566.33000000101,"y":2542688.4800000004}},{"attributes":{"ID":508414,"DIS_CODE":0,"TOWNNAME":"東區","LI":"文聖里","LIN":"15鄰","STREET":"裕信路","SECT":" ","MAREA":" ","LANE":" ","ALLEY":" ","HOUSE_NO":"２８８之３號","E_COORD97":172560.73000000001,"N_COORD97":2542692.6200000001,"ADDRESS":"裕信路２８８之３號","OBJECTID":508387},"geometry":{"x":172560.73000000138,"y":2542692.6200000029}},{"attributes":{"ID":508415,"DIS_CODE":0,"TOWNNAME":"東區","LI":"文聖里","LIN":"15鄰","STREET":"裕信路","SECT":" ","MAREA":" ","LANE":" ","ALLEY":" ","HOUSE_NO":"２８８之５號","E_COORD97":172555.13,"N_COORD97":2542689.5899999999,"ADDRESS":"裕信路２８８之５號","OBJECTID":508388},"geometry":{"x":172555.12999999989,"y":2542689.5899999999}},{"attributes":{"ID":508416,"DIS_CODE":0,"TOWNNAME":"東區","LI":"文聖里","LIN":"15鄰","STREET":"裕信路","SECT":" ","MAREA":" ","LANE":" ","ALLEY":" ","HOUSE_NO":"２８８之６號","E_COORD97":172550.32000000001,"N_COORD97":2542692.6200000001,"ADDRESS":"裕信路２８８之６號","OBJECTID":508389},"geometry":{"x":172550.3200000003,"y":2542692.6200000029}},{"attributes":{"ID":508417,"DIS_CODE":0,"TOWNNAME":"東區","LI":"文聖里","LIN":"15鄰","STREET":"裕信路","SECT":" ","MAREA":" ","LANE":" ","ALLEY":" ","HOUSE_NO":"２８８之７號","E_COORD97":172545.28,"N_COORD97":2542690.3799999999,"ADDRESS":"裕信路２８８之７號","OBJECTID":508390},"geometry":{"x":172545.28000000119,"y":2542690.379999999}},{"attributes":{"ID":508418,"DIS_CODE":0,"TOWNNAME":"東區","LI":"文聖里","LIN":"15鄰","STREET":"裕信路","SECT":" ","MAREA":" ","LANE":" ","ALLEY":" ","HOUSE_NO":"２８８之８號","E_COORD97":172540.79999999999,"N_COORD97":2542693.1800000002,"ADDRESS":"裕信路２８８之８號","OBJECTID":508391},"geometry":{"x":172540.80000000075,"y":2542693.1799999997}},{"attributes":{"ID":508419,"DIS_CODE":0,"TOWNNAME":"東區","LI":"文聖里","LIN":"15鄰","STREET":"裕信路","SECT":" ","MAREA":" ","LANE":" ","ALLEY":" ","HOUSE_NO":"２８８之９號","E_COORD97":172535.20000000001,"N_COORD97":2542689.5899999999,"ADDRESS":"裕信路２８８之９號","OBJECTID":508392},"geometry":{"x":172535.20000000112,"y":2542689.5899999999}},{"attributes":{"ID":508420,"DIS_CODE":0,"TOWNNAME":"東區","LI":"文聖里","LIN":"15鄰","STREET":"裕信路","SECT":" ","MAREA":" ","LANE":" ","ALLEY":" ","HOUSE_NO":"２８８號","E_COORD97":172579.76999999999,"N_COORD97":2542689.48,"ADDRESS":"裕信路２８８號","OBJECTID":508393},"geometry":{"x":172579.77000000048,"y":2542689.4800000023}},{"attributes":{"ID":508421,"DIS_CODE":0,"TOWNNAME":"東區","LI":"文聖里","LIN":"15鄰","STREET":"裕信路","SECT":" ","MAREA":" ","LANE":" ","ALLEY":" ","HOUSE_NO":"２９０之１０號","E_COORD97":172529.94,"N_COORD97":2542677.3999999999,"ADDRESS":"裕信路２９０之１０號","OBJECTID":508394},"geometry":{"x":172529.94000000041,"y":2542677.4000000022}},{"attributes":{"ID":508422,"DIS_CODE":0,"TOWNNAME":"東區","LI":"南聖里","LIN":"15鄰","STREET":"裕信路","SECT":" ","MAREA":" ","LANE":" ","ALLEY":" ","HOUSE_NO":"６０號","E_COORD97":172569.79999999999,"N_COORD97":2543214.7599999998,"ADDRESS":"裕信路６０號","OBJECTID":508395},"geometry":{"x":172569.80000000075,"y":2543214.7599999998}},{"attributes":{"ID":508423,"DIS_CODE":0,"TOWNNAME":"東區","LI":"關聖里","LIN":"15鄰","STREET":"裕英街","SECT":" ","MAREA":" ","LANE":" ","ALLEY":" ","HOUSE_NO":"６９號","E_COORD97":172295.66,"N_COORD97":2543037.3500000001,"ADDRESS":"裕英街６９號","OBJECTID":508396},"geometry":{"x":172295.66000000015,"y":2543037.3499999996}},{"attributes":{"ID":508424,"DIS_CODE":0,"TOWNNAME":"東區","LI":"文聖里","LIN":"15鄰","STREET":"裕信路","SECT":" ","MAREA":" ","LANE":" ","ALLEY":" ","HOUSE_NO":"２９０之１１號","E_COORD97":172525.45999999999,"N_COORD97":2542679.9700000002,"ADDRESS":"裕信路２９０之１１號","OBJECTID":508397},"geometry":{"x":172525.45999999996,"y":2542679.9700000025}},{"attributes":{"ID":508425,"DIS_CODE":0,"TOWNNAME":"東區","LI":"文聖里","LIN":"15鄰","STREET":"裕信路","SECT":" ","MAREA":" ","LANE":" ","ALLEY":" ","HOUSE_NO":"２９０之１２號","E_COORD97":172520.20000000001,"N_COORD97":2542677.5099999998,"ADDRESS":"裕信路２９０之１２號","OBJECTID":508398},"geometry":{"x":172520.20000000112,"y":2542677.5099999998}},{"attributes":{"ID":508426,"DIS_CODE":0,"TOWNNAME":"東區","LI":"文聖里","LIN":"15鄰","STREET":"裕信路","SECT":" ","MAREA":" ","LANE":" ","ALLEY":" ","HOUSE_NO":"２９０之１號","E_COORD97":172571.59,"N_COORD97":2542678.4100000001,"ADDRESS":"裕信路２９０之１號","OBJECTID":508399},"geometry":{"x":172571.59000000078,"y":2542678.4100000001}},{"attributes":{"ID":508427,"DIS_CODE":0,"TOWNNAME":"東區","LI":"文聖里","LIN":"15鄰","STREET":"裕信路","SECT":" ","MAREA":" ","LANE":" ","ALLEY":" ","HOUSE_NO":"２９０之２號","E_COORD97":172566.10999999999,"N_COORD97":2542679.75,"ADDRESS":"裕信路２９０之２號","OBJECTID":508400},"geometry":{"x":172566.1100000022,"y":2542679.7499999981}}]}