{"displayFieldName":"TOWNNAME","fieldAliases":{"ID":"ID","DIS_CODE":"DIS_CODE","TOWNNAME":"TOWNNAME","LI":"LI","LIN":"LIN","STREET":"STREET","SECT":"SECT","MAREA":"MAREA","LANE":"LANE","ALLEY":"ALLEY","HOUSE_NO":"HOUSE_NO","E_COORD97":"E_COORD97","N_COORD97":"N_COORD97","ADDRESS":"ADDRESS","OBJECTID":"OBJECTID"},"geometryType":"esriGeometryPoint","spatialReference":{"wkid":102443,"latestWkid":3826},"fields":[{"name":"ID","type":"esriFieldTypeDouble","alias":"ID"},{"name":"DIS_CODE","type":"esriFieldTypeInteger","alias":"DIS_CODE"},{"name":"TOWNNAME","type":"esriFieldTypeString","alias":"TOWNNAME","length":8},{"name":"LI","type":"esriFieldTypeString","alias":"LI","length":8},{"name":"LIN","type":"esriFieldTypeString","alias":"LIN","length":12},{"name":"STREET","type":"esriFieldTypeString","alias":"STREET","length":20},{"name":"SECT","type":"esriFieldTypeString","alias":"SECT","length":8},{"name":"MAREA","type":"esriFieldTypeString","alias":"MAREA","length":12},{"name":"LANE","type":"esriFieldTypeString","alias":"LANE","length":10},{"name":"ALLEY","type":"esriFieldTypeString","alias":"ALLEY","length":10},{"name":"HOUSE_NO","type":"esriFieldTypeString","alias":"HOUSE_NO","length":20},{"name":"E_COORD97","type":"esriFieldTypeDouble","alias":"E_COORD97"},{"name":"N_COORD97","type":"esriFieldTypeDouble","alias":"N_COORD97"},{"name":"ADDRESS","type":"esriFieldTypeString","alias":"ADDRESS","length":50},{"name":"OBJECTID","type":"esriFieldTypeOID","alias":"OBJECTID"}],"features":[{"attributes":{"ID":107801,"DIS_CODE":0,"TOWNNAME":"南區","LI":"白雪里","LIN":" ","STREET":"鹽埕路","SECT":" ","MAREA":" ","LANE":" ","ALLEY":" ","HOUSE_NO":"２０號","E_COORD97":166904.41,"N_COORD97":2540738,"ADDRESS":"鹽埕路２０號","OBJECTID":107801},"geometry":{"x":166904.41000000108,"y":2540738}},{"attributes":{"ID":107802,"DIS_CODE":0,"TOWNNAME":"南區","LI":"白雪里","LIN":" ","STREET":"鹽埕路","SECT":" ","MAREA":" ","LANE":" ","ALLEY":" ","HOUSE_NO":"２４號","E_COORD97":166901.35999999999,"N_COORD97":2540744.1099999999,"ADDRESS":"鹽埕路２４號","OBJECTID":107802},"geometry":{"x":166901.36000000127,"y":2540744.1099999975}},{"attributes":{"ID":107803,"DIS_CODE":0,"TOWNNAME":"六甲區","LI":"中社里","LIN":"9鄰","STREET":" ","SECT":" ","MAREA":"中社","LANE":" ","ALLEY":" ","HOUSE_NO":"４１５號","E_COORD97":180922.07999999999,"N_COORD97":2570815.6600000001,"ADDRESS":"中社４１５號","OBJECTID":107803},"geometry":{"x":180922.08000000101,"y":2570815.660000002}},{"attributes":{"ID":107804,"DIS_CODE":0,"TOWNNAME":"六甲區","LI":"王爺里","LIN":"9鄰","STREET":" ","SECT":" ","MAREA":"王爺宮","LANE":" ","ALLEY":" ","HOUSE_NO":"１６號","E_COORD97":188532.53,"N_COORD97":2568960.9500000002,"ADDRESS":"王爺宮１６號","OBJECTID":107804},"geometry":{"x":188532.53000000119,"y":2568960.9500000011}},{"attributes":{"ID":107805,"DIS_CODE":0,"TOWNNAME":"六甲區","LI":"王爺里","LIN":"9鄰","STREET":" ","SECT":" ","MAREA":"王爺宮","LANE":" ","ALLEY":" ","HOUSE_NO":"１７號","E_COORD97":188510.48999999999,"N_COORD97":2568956.71,"ADDRESS":"王爺宮１７號","OBJECTID":107805},"geometry":{"x":188510.49000000115,"y":2568956.7100000046}},{"attributes":{"ID":107806,"DIS_CODE":0,"TOWNNAME":"北區","LI":"開元里","LIN":"9鄰","STREET":"北園街","SECT":" ","MAREA":" ","LANE":"１２８巷","ALLEY":"２２弄","HOUSE_NO":"８號","E_COORD97":170324.10999999999,"N_COORD97":2546103.5899999999,"ADDRESS":"北園街１２８巷２２弄８號","OBJECTID":107806},"geometry":{"x":170324.11000000127,"y":2546103.5899999999}},{"attributes":{"ID":107807,"DIS_CODE":0,"TOWNNAME":"北區","LI":"開元里","LIN":"9鄰","STREET":"北園街","SECT":" ","MAREA":" ","LANE":"１２８巷","ALLEY":"２２弄","HOUSE_NO":"９號","E_COORD97":170302.79000000001,"N_COORD97":2546108.77,"ADDRESS":"北園街１２８巷２２弄９號","OBJECTID":107807},"geometry":{"x":170302.79000000004,"y":2546108.7699999996}},{"attributes":{"ID":107808,"DIS_CODE":0,"TOWNNAME":"安南區","LI":"梅花里","LIN":"1鄰","STREET":"北安路","SECT":"二段","MAREA":" ","LANE":" ","ALLEY":" ","HOUSE_NO":"３５５號之１","E_COORD97":168355.85000000001,"N_COORD97":2548391.9199999999,"ADDRESS":"北安路二段３５５號之１","OBJECTID":107808},"geometry":{"x":168355.84999999963,"y":2548391.9200000018}},{"attributes":{"ID":107809,"DIS_CODE":0,"TOWNNAME":"安南區","LI":"新順里","LIN":"1鄰","STREET":"安豐五街","SECT":" ","MAREA":" ","LANE":" ","ALLEY":" ","HOUSE_NO":"１１號","E_COORD97":169463.51000000001,"N_COORD97":2549723,"ADDRESS":"安豐五街１１號","OBJECTID":107809},"geometry":{"x":169463.50999999978,"y":2549723}},{"attributes":{"ID":107810,"DIS_CODE":0,"TOWNNAME":"安南區","LI":"梅花里","LIN":"1鄰","STREET":"北安路","SECT":"二段","MAREA":" ","LANE":" ","ALLEY":" ","HOUSE_NO":"３２５號之２","E_COORD97":168381.07999999999,"N_COORD97":2548294.6400000001,"ADDRESS":"北安路二段３２５號之２","OBJECTID":107810},"geometry":{"x":168381.08000000101,"y":2548294.6400000006}},{"attributes":{"ID":107811,"DIS_CODE":0,"TOWNNAME":"安南區","LI":"梅花里","LIN":"1鄰","STREET":"北安路","SECT":"二段","MAREA":" ","LANE":" ","ALLEY":" ","HOUSE_NO":"３２５號之１","E_COORD97":168387.45000000001,"N_COORD97":2548268.2999999998,"ADDRESS":"北安路二段３２５號之１","OBJECTID":107811},"geometry":{"x":168387.45000000112,"y":2548268.3000000026}},{"attributes":{"ID":107812,"DIS_CODE":0,"TOWNNAME":"南區","LI":"白雪里","LIN":" ","STREET":"鹽埕路","SECT":" ","MAREA":" ","LANE":" ","ALLEY":" ","HOUSE_NO":"２６號","E_COORD97":166899.41,"N_COORD97":2540748,"ADDRESS":"鹽埕路２６號","OBJECTID":107812},"geometry":{"x":166899.41000000108,"y":2540748}},{"attributes":{"ID":107813,"DIS_CODE":0,"TOWNNAME":"南區","LI":"白雪里","LIN":" ","STREET":"鹽埕路","SECT":" ","MAREA":" ","LANE":" ","ALLEY":" ","HOUSE_NO":"２８號","E_COORD97":166898.57000000001,"N_COORD97":2540751.6800000002,"ADDRESS":"鹽埕路２８號","OBJECTID":107813},"geometry":{"x":166898.5700000003,"y":2540751.6800000016}},{"attributes":{"ID":107814,"DIS_CODE":0,"TOWNNAME":"南區","LI":"白雪里","LIN":" ","STREET":"鹽埕路","SECT":" ","MAREA":" ","LANE":" ","ALLEY":" ","HOUSE_NO":"３０號","E_COORD97":166898.29000000001,"N_COORD97":2540756.6800000002,"ADDRESS":"鹽埕路３０號","OBJECTID":107814},"geometry":{"x":166898.29000000097,"y":2540756.6799999997}},{"attributes":{"ID":107815,"DIS_CODE":0,"TOWNNAME":"南區","LI":"白雪里","LIN":" ","STREET":"鹽埕路","SECT":" ","MAREA":" ","LANE":" ","ALLEY":" ","HOUSE_NO":"３２號","E_COORD97":166896.07000000001,"N_COORD97":2540761.3999999999,"ADDRESS":"鹽埕路３２號","OBJECTID":107815},"geometry":{"x":166896.07000000216,"y":2540761.4000000022}},{"attributes":{"ID":107816,"DIS_CODE":0,"TOWNNAME":"南區","LI":"白雪里","LIN":" ","STREET":"鹽埕路","SECT":" ","MAREA":" ","LANE":" ","ALLEY":" ","HOUSE_NO":"５２號","E_COORD97":166893.29000000001,"N_COORD97":2540763.6200000001,"ADDRESS":"鹽埕路５２號","OBJECTID":107816},"geometry":{"x":166893.29000000097,"y":2540763.6200000029}},{"attributes":{"ID":107817,"DIS_CODE":0,"TOWNNAME":"南區","LI":"白雪里","LIN":" ","STREET":"鹽埕路","SECT":" ","MAREA":" ","LANE":" ","ALLEY":" ","HOUSE_NO":"５６號","E_COORD97":166891.62,"N_COORD97":2540766.9500000002,"ADDRESS":"鹽埕路５６號","OBJECTID":107817},"geometry":{"x":166891.62000000011,"y":2540766.9500000011}},{"attributes":{"ID":107818,"DIS_CODE":0,"TOWNNAME":"新營區","LI":"新東里","LIN":"9鄰","STREET":"東仁街","SECT":" ","MAREA":" ","LANE":"４３巷","ALLEY":"１６弄","HOUSE_NO":"３３號","E_COORD97":181175.26000000001,"N_COORD97":2579689.0600000001,"ADDRESS":"東仁街４３巷１６弄３３號","OBJECTID":107818},"geometry":{"x":181175.26000000071,"y":2579689.0600000024}},{"attributes":{"ID":107819,"DIS_CODE":0,"TOWNNAME":"北區","LI":"成德里","LIN":"9鄰","STREET":"西門路","SECT":"四段","MAREA":" ","LANE":"１７１巷","ALLEY":"１９弄","HOUSE_NO":"２號","E_COORD97":168708.12,"N_COORD97":2545664.8700000001,"ADDRESS":"西門路四段１７１巷１９弄２號","OBJECTID":107819},"geometry":{"x":168708.12000000104,"y":2545664.8700000029}},{"attributes":{"ID":107820,"DIS_CODE":0,"TOWNNAME":"北區","LI":"成德里","LIN":"9鄰","STREET":"西門路","SECT":"四段","MAREA":" ","LANE":"１７１巷","ALLEY":"１９弄","HOUSE_NO":"４號","E_COORD97":168706.31,"N_COORD97":2545659,"ADDRESS":"西門路四段１７１巷１９弄４號","OBJECTID":107820},"geometry":{"x":168706.31000000052,"y":2545659.0000000019}},{"attributes":{"ID":107821,"DIS_CODE":0,"TOWNNAME":"北區","LI":"成德里","LIN":"9鄰","STREET":"西門路","SECT":"四段","MAREA":" ","LANE":"１７１巷","ALLEY":"１９弄","HOUSE_NO":"４號之１","E_COORD97":168696.82999999999,"N_COORD97":2545664.7200000002,"ADDRESS":"西門路四段１７１巷１９弄４號之１","OBJECTID":107821},"geometry":{"x":168696.83000000007,"y":2545664.7200000025}},{"attributes":{"ID":107822,"DIS_CODE":0,"TOWNNAME":"南區","LI":"白雪里","LIN":" ","STREET":"鹽埕路","SECT":" ","MAREA":" ","LANE":" ","ALLEY":" ","HOUSE_NO":"６０號","E_COORD97":166888.84,"N_COORD97":2540771.1200000001,"ADDRESS":"鹽埕路６０號","OBJECTID":107822},"geometry":{"x":166888.84000000078,"y":2540771.1200000029}},{"attributes":{"ID":107823,"DIS_CODE":0,"TOWNNAME":"北區","LI":"成德里","LIN":"9鄰","STREET":"西門路","SECT":"四段","MAREA":" ","LANE":"１７１巷","ALLEY":"１９弄","HOUSE_NO":"４號之１０","E_COORD97":168647.73000000001,"N_COORD97":2545680.6699999999,"ADDRESS":"西門路四段１７１巷１９弄４號之１０","OBJECTID":107823},"geometry":{"x":168647.73000000045,"y":2545680.6699999981}},{"attributes":{"ID":107824,"DIS_CODE":0,"TOWNNAME":"北區","LI":"成德里","LIN":"9鄰","STREET":"西門路","SECT":"四段","MAREA":" ","LANE":"１７１巷","ALLEY":"１９弄","HOUSE_NO":"４號之１１","E_COORD97":168642.91,"N_COORD97":2545682.4700000002,"ADDRESS":"西門路四段１７１巷１９弄４號之１１","OBJECTID":107824},"geometry":{"x":168642.91000000201,"y":2545682.4700000007}},{"attributes":{"ID":107825,"DIS_CODE":0,"TOWNNAME":"北區","LI":"成德里","LIN":"9鄰","STREET":"西門路","SECT":"四段","MAREA":" ","LANE":"１７１巷","ALLEY":"１９弄","HOUSE_NO":"４號之１２","E_COORD97":168636.13,"N_COORD97":2545684.73,"ADDRESS":"西門路四段１７１巷１９弄４號之１２","OBJECTID":107825},"geometry":{"x":168636.13000000175,"y":2545684.7300000023}},{"attributes":{"ID":107826,"DIS_CODE":0,"TOWNNAME":"北區","LI":"成德里","LIN":"9鄰","STREET":"西門路","SECT":"四段","MAREA":" ","LANE":"１７１巷","ALLEY":"１９弄","HOUSE_NO":"４號之１６","E_COORD97":168679.66,"N_COORD97":2545670.4399999999,"ADDRESS":"西門路四段１７１巷１９弄４號之１６","OBJECTID":107826},"geometry":{"x":168679.66000000015,"y":2545670.4399999995}},{"attributes":{"ID":107827,"DIS_CODE":0,"TOWNNAME":"北區","LI":"成德里","LIN":"9鄰","STREET":"西門路","SECT":"四段","MAREA":" ","LANE":"１７１巷","ALLEY":"１９弄","HOUSE_NO":"４號之２","E_COORD97":168690.64999999999,"N_COORD97":2545666.5299999998,"ADDRESS":"西門路四段１７１巷１９弄４號之２","OBJECTID":107827},"geometry":{"x":168690.64999999944,"y":2545666.5299999993}},{"attributes":{"ID":107828,"DIS_CODE":0,"TOWNNAME":"北區","LI":"成德里","LIN":"9鄰","STREET":"西門路","SECT":"四段","MAREA":" ","LANE":"１７１巷","ALLEY":"１９弄","HOUSE_NO":"４號之３","E_COORD97":168685.38,"N_COORD97":2545668.6299999999,"ADDRESS":"西門路四段１７１巷１９弄４號之３","OBJECTID":107828},"geometry":{"x":168685.38000000175,"y":2545668.629999999}},{"attributes":{"ID":107829,"DIS_CODE":0,"TOWNNAME":"北區","LI":"成德里","LIN":"9鄰","STREET":"西門路","SECT":"四段","MAREA":" ","LANE":"１７１巷","ALLEY":"１９弄","HOUSE_NO":"４號之５","E_COORD97":168674.23999999999,"N_COORD97":2545672.0899999999,"ADDRESS":"西門路四段１７１巷１９弄４號之５","OBJECTID":107829},"geometry":{"x":168674.24000000022,"y":2545672.0900000017}},{"attributes":{"ID":107830,"DIS_CODE":0,"TOWNNAME":"南區","LI":"白雪里","LIN":" ","STREET":"鹽埕路","SECT":" ","MAREA":" ","LANE":" ","ALLEY":" ","HOUSE_NO":"６２號","E_COORD97":166887.17000000001,"N_COORD97":2540775.2799999998,"ADDRESS":"鹽埕路６２號","OBJECTID":107830},"geometry":{"x":166887.17000000086,"y":2540775.2800000012}},{"attributes":{"ID":107831,"DIS_CODE":0,"TOWNNAME":"南區","LI":"白雪里","LIN":" ","STREET":"鹽埕路","SECT":" ","MAREA":" ","LANE":" ","ALLEY":" ","HOUSE_NO":"６４號","E_COORD97":166885.5,"N_COORD97":2540779.1699999999,"ADDRESS":"鹽埕路６４號","OBJECTID":107831},"geometry":{"x":166885.5,"y":2540779.1700000018}},{"attributes":{"ID":107832,"DIS_CODE":0,"TOWNNAME":"南區","LI":"白雪里","LIN":" ","STREET":"鹽埕路","SECT":" ","MAREA":" ","LANE":" ","ALLEY":" ","HOUSE_NO":"６６號","E_COORD97":166883.84,"N_COORD97":2540783.6099999999,"ADDRESS":"鹽埕路６６號","OBJECTID":107832},"geometry":{"x":166883.84000000078,"y":2540783.6099999994}},{"attributes":{"ID":107833,"DIS_CODE":0,"TOWNNAME":"南區","LI":"白雪里","LIN":" ","STREET":"鹽埕路","SECT":" ","MAREA":" ","LANE":" ","ALLEY":" ","HOUSE_NO":"６８號","E_COORD97":166881.60999999999,"N_COORD97":2540788.8799999999,"ADDRESS":"鹽埕路６８號","OBJECTID":107833},"geometry":{"x":166881.61000000034,"y":2540788.879999999}},{"attributes":{"ID":107834,"DIS_CODE":0,"TOWNNAME":"南區","LI":"白雪里","LIN":" ","STREET":"鹽埕路","SECT":" ","MAREA":" ","LANE":" ","ALLEY":" ","HOUSE_NO":"７２號之３","E_COORD97":166821.12,"N_COORD97":2540886.3100000001,"ADDRESS":"鹽埕路７２號之３","OBJECTID":107834},"geometry":{"x":166821.12000000104,"y":2540886.3100000005}},{"attributes":{"ID":107835,"DIS_CODE":0,"TOWNNAME":"六甲區","LI":"王爺里","LIN":"9鄰","STREET":" ","SECT":" ","MAREA":"王爺宮","LANE":" ","ALLEY":" ","HOUSE_NO":"１８號","E_COORD97":188535.51999999999,"N_COORD97":2569026.71,"ADDRESS":"王爺宮１８號","OBJECTID":107835},"geometry":{"x":188535.51999999955,"y":2569026.7100000009}},{"attributes":{"ID":107836,"DIS_CODE":0,"TOWNNAME":"六甲區","LI":"王爺里","LIN":"9鄰","STREET":" ","SECT":" ","MAREA":"王爺宮","LANE":" ","ALLEY":" ","HOUSE_NO":"１９號之１","E_COORD97":188549.14000000001,"N_COORD97":2569036.2599999998,"ADDRESS":"王爺宮１９號之１","OBJECTID":107836},"geometry":{"x":188549.14000000153,"y":2569036.2599999979}},{"attributes":{"ID":107837,"DIS_CODE":0,"TOWNNAME":"六甲區","LI":"王爺里","LIN":"9鄰","STREET":" ","SECT":" ","MAREA":"王爺宮","LANE":" ","ALLEY":" ","HOUSE_NO":"１９號","E_COORD97":188524.94,"N_COORD97":2569034.6499999999,"ADDRESS":"王爺宮１９號","OBJECTID":107837},"geometry":{"x":188524.94000000134,"y":2569034.6500000041}},{"attributes":{"ID":107838,"DIS_CODE":0,"TOWNNAME":"六甲區","LI":"王爺里","LIN":"9鄰","STREET":" ","SECT":" ","MAREA":"王爺宮","LANE":" ","ALLEY":" ","HOUSE_NO":"１之１號","E_COORD97":188486.17000000001,"N_COORD97":2569009.4300000002,"ADDRESS":"王爺宮１之１號","OBJECTID":107838},"geometry":{"x":188486.16999999993,"y":2569009.4300000016}},{"attributes":{"ID":107839,"DIS_CODE":0,"TOWNNAME":"六甲區","LI":"王爺里","LIN":"9鄰","STREET":" ","SECT":" ","MAREA":"王爺宮","LANE":" ","ALLEY":" ","HOUSE_NO":"２０號之１","E_COORD97":188477.37,"N_COORD97":2568993.5699999998,"ADDRESS":"王爺宮２０號之１","OBJECTID":107839},"geometry":{"x":188477.37000000104,"y":2568993.5700000003}},{"attributes":{"ID":107840,"DIS_CODE":0,"TOWNNAME":"六甲區","LI":"王爺里","LIN":"9鄰","STREET":" ","SECT":" ","MAREA":"王爺宮","LANE":" ","ALLEY":" ","HOUSE_NO":"２０號","E_COORD97":188508.45999999999,"N_COORD97":2569017.3500000001,"ADDRESS":"王爺宮２０號","OBJECTID":107840},"geometry":{"x":188508.46000000183,"y":2569017.3499999996}},{"attributes":{"ID":107841,"DIS_CODE":0,"TOWNNAME":"北區","LI":"成德里","LIN":"9鄰","STREET":"西門路","SECT":"四段","MAREA":" ","LANE":"１７１巷","ALLEY":"１９弄","HOUSE_NO":"４號之６","E_COORD97":168669.12,"N_COORD97":2545673.6000000001,"ADDRESS":"西門路四段１７１巷１９弄４號之６","OBJECTID":107841},"geometry":{"x":168669.12000000104,"y":2545673.5999999996}},{"attributes":{"ID":107842,"DIS_CODE":0,"TOWNNAME":"六甲區","LI":"王爺里","LIN":"9鄰","STREET":" ","SECT":" ","MAREA":"王爺宮","LANE":" ","ALLEY":" ","HOUSE_NO":"２１號","E_COORD97":188568.95000000001,"N_COORD97":2568984.8900000001,"ADDRESS":"王爺宮２１號","OBJECTID":107842},"geometry":{"x":188568.95000000019,"y":2568984.8900000006}},{"attributes":{"ID":107843,"DIS_CODE":0,"TOWNNAME":"六甲區","LI":"王爺里","LIN":"9鄰","STREET":" ","SECT":" ","MAREA":"王爺宮","LANE":" ","ALLEY":" ","HOUSE_NO":"２４號","E_COORD97":188638.39999999999,"N_COORD97":2569018.3100000001,"ADDRESS":"王爺宮２４號","OBJECTID":107843},"geometry":{"x":188638.4000000013,"y":2569018.3100000005}},{"attributes":{"ID":107844,"DIS_CODE":0,"TOWNNAME":"六甲區","LI":"王爺里","LIN":"9鄰","STREET":" ","SECT":" ","MAREA":"王爺宮","LANE":" ","ALLEY":" ","HOUSE_NO":"２號之１","E_COORD97":188333.25,"N_COORD97":2569103.1200000001,"ADDRESS":"王爺宮２號之１","OBJECTID":107844},"geometry":{"x":188333.25,"y":2569103.1200000048}},{"attributes":{"ID":107845,"DIS_CODE":0,"TOWNNAME":"北區","LI":"成德里","LIN":"9鄰","STREET":"西門路","SECT":"四段","MAREA":" ","LANE":"１７１巷","ALLEY":"１９弄","HOUSE_NO":"４號之７","E_COORD97":168663.84,"N_COORD97":2545675.25,"ADDRESS":"西門路四段１７１巷１９弄４號之７","OBJECTID":107845},"geometry":{"x":168663.84000000078,"y":2545675.2500000019}},{"attributes":{"ID":107846,"DIS_CODE":0,"TOWNNAME":"北區","LI":"成德里","LIN":"9鄰","STREET":"西門路","SECT":"四段","MAREA":" ","LANE":"１７１巷","ALLEY":"１９弄","HOUSE_NO":"４號之８","E_COORD97":168658.57000000001,"N_COORD97":2545676.7599999998,"ADDRESS":"西門路四段１７１巷１９弄４號之８","OBJECTID":107846},"geometry":{"x":168658.5700000003,"y":2545676.7600000035}},{"attributes":{"ID":107847,"DIS_CODE":0,"TOWNNAME":"北區","LI":"成德里","LIN":"9鄰","STREET":"西門路","SECT":"四段","MAREA":" ","LANE":"１７１巷","ALLEY":"１９弄","HOUSE_NO":"４號之９","E_COORD97":168652.85000000001,"N_COORD97":2545678.5600000001,"ADDRESS":"西門路四段１７１巷１９弄４號之９","OBJECTID":107847},"geometry":{"x":168652.8499999987,"y":2545678.5600000005}},{"attributes":{"ID":107848,"DIS_CODE":0,"TOWNNAME":"北區","LI":"成德里","LIN":"9鄰","STREET":"西門路","SECT":"四段","MAREA":" ","LANE":"１７１巷","ALLEY":"１９弄","HOUSE_NO":"６號","E_COORD97":168700.59,"N_COORD97":2545647.5099999998,"ADDRESS":"西門路四段１７１巷１９弄６號","OBJECTID":107848},"geometry":{"x":168700.58999999985,"y":2545647.5099999998}},{"attributes":{"ID":107849,"DIS_CODE":0,"TOWNNAME":"北區","LI":"成德里","LIN":"9鄰","STREET":"西門路","SECT":"四段","MAREA":" ","LANE":"１７１巷","ALLEY":"１９弄","HOUSE_NO":"６號之１","E_COORD97":168690.35000000001,"N_COORD97":2545647.21,"ADDRESS":"西門路四段１７１巷１９弄６號之１","OBJECTID":107849},"geometry":{"x":168690.35000000149,"y":2545647.2100000009}},{"attributes":{"ID":107850,"DIS_CODE":0,"TOWNNAME":"北區","LI":"成德里","LIN":"9鄰","STREET":"西門路","SECT":"四段","MAREA":" ","LANE":"１７１巷","ALLEY":"１９弄","HOUSE_NO":"６號之１０","E_COORD97":168631.92000000001,"N_COORD97":2545661.6499999999,"ADDRESS":"西門路四段１７１巷１９弄６號之１０","OBJECTID":107850},"geometry":{"x":168631.91999999993,"y":2545661.6500000022}},{"attributes":{"ID":107851,"DIS_CODE":0,"TOWNNAME":"北區","LI":"成德里","LIN":"9鄰","STREET":"西門路","SECT":"四段","MAREA":" ","LANE":"１７１巷","ALLEY":"１９弄","HOUSE_NO":"６號之２","E_COORD97":168684.92999999999,"N_COORD97":2545648.4100000001,"ADDRESS":"西門路四段１７１巷１９弄６號之２","OBJECTID":107851},"geometry":{"x":168684.93000000063,"y":2545648.4100000001}},{"attributes":{"ID":107852,"DIS_CODE":0,"TOWNNAME":"北區","LI":"成德里","LIN":"9鄰","STREET":"西門路","SECT":"四段","MAREA":" ","LANE":"１７１巷","ALLEY":"１９弄","HOUSE_NO":"６號之３","E_COORD97":168678,"N_COORD97":2545649.02,"ADDRESS":"西門路四段１７１巷１９弄６號之３","OBJECTID":107852},"geometry":{"x":168678.00000000093,"y":2545649.0200000014}},{"attributes":{"ID":107853,"DIS_CODE":0,"TOWNNAME":"北區","LI":"成德里","LIN":"9鄰","STREET":"西門路","SECT":"四段","MAREA":" ","LANE":"１７１巷","ALLEY":"１９弄","HOUSE_NO":"６號之４","E_COORD97":168671.82999999999,"N_COORD97":2545650.8199999998,"ADDRESS":"西門路四段１７１巷１９弄６號之４","OBJECTID":107853},"geometry":{"x":168671.83000000007,"y":2545650.8200000022}},{"attributes":{"ID":107854,"DIS_CODE":0,"TOWNNAME":"北區","LI":"成德里","LIN":"9鄰","STREET":"西門路","SECT":"四段","MAREA":" ","LANE":"１７１巷","ALLEY":"１９弄","HOUSE_NO":"６號之５","E_COORD97":168665.79999999999,"N_COORD97":2545653.5299999998,"ADDRESS":"西門路四段１７１巷１９弄６號之５","OBJECTID":107854},"geometry":{"x":168665.80000000075,"y":2545653.5299999993}},{"attributes":{"ID":107855,"DIS_CODE":0,"TOWNNAME":"北區","LI":"成德里","LIN":"9鄰","STREET":"西門路","SECT":"四段","MAREA":" ","LANE":"１７１巷","ALLEY":"１９弄","HOUSE_NO":"６號之６","E_COORD97":168659.17999999999,"N_COORD97":2545655.3300000001,"ADDRESS":"西門路四段１７１巷１９弄６號之６","OBJECTID":107855},"geometry":{"x":168659.17999999877,"y":2545655.3300000001}},{"attributes":{"ID":107856,"DIS_CODE":0,"TOWNNAME":"北區","LI":"成德里","LIN":"9鄰","STREET":"西門路","SECT":"四段","MAREA":" ","LANE":"１７１巷","ALLEY":"１９弄","HOUSE_NO":"６號之７","E_COORD97":168651.34,"N_COORD97":2545656.9900000002,"ADDRESS":"西門路四段１７１巷１９弄６號之７","OBJECTID":107856},"geometry":{"x":168651.33999999985,"y":2545656.9900000021}},{"attributes":{"ID":107857,"DIS_CODE":0,"TOWNNAME":"北區","LI":"成德里","LIN":"9鄰","STREET":"西門路","SECT":"四段","MAREA":" ","LANE":"１７１巷","ALLEY":"１９弄","HOUSE_NO":"６號之８","E_COORD97":168645.17000000001,"N_COORD97":2545658.6400000001,"ADDRESS":"西門路四段１７１巷１９弄６號之８","OBJECTID":107857},"geometry":{"x":168645.17000000086,"y":2545658.6400000025}},{"attributes":{"ID":107858,"DIS_CODE":0,"TOWNNAME":"北區","LI":"成德里","LIN":"9鄰","STREET":"西門路","SECT":"四段","MAREA":" ","LANE":"１７１巷","ALLEY":"１９弄","HOUSE_NO":"６號之９","E_COORD97":168638.39000000001,"N_COORD97":2545659.3999999999,"ADDRESS":"西門路四段１７１巷１９弄６號之９","OBJECTID":107858},"geometry":{"x":168638.38999999966,"y":2545659.4000000041}},{"attributes":{"ID":107859,"DIS_CODE":0,"TOWNNAME":"北區","LI":"成德里","LIN":"9鄰","STREET":"西門路","SECT":"四段","MAREA":" ","LANE":"１７１巷","ALLEY":"１９弄","HOUSE_NO":"８號","E_COORD97":168699.54000000001,"N_COORD97":2545641.9500000002,"ADDRESS":"西門路四段１７１巷１９弄８號","OBJECTID":107859},"geometry":{"x":168699.5400000019,"y":2545641.9500000011}},{"attributes":{"ID":107860,"DIS_CODE":0,"TOWNNAME":"關廟區","LI":"田中里","LIN":"9鄰","STREET":"官崙街","SECT":" ","MAREA":" ","LANE":"８１巷","ALLEY":"１１弄","HOUSE_NO":"１２號","E_COORD97":183628.64000000001,"N_COORD97":2533348.25,"ADDRESS":"官崙街８１巷１１弄１２號","OBJECTID":107860},"geometry":{"x":183628.6400000006,"y":2533348.25}},{"attributes":{"ID":107861,"DIS_CODE":0,"TOWNNAME":"六甲區","LI":"王爺里","LIN":"9鄰","STREET":" ","SECT":" ","MAREA":"王爺宮","LANE":" ","ALLEY":" ","HOUSE_NO":"２之２號","E_COORD97":188336.67999999999,"N_COORD97":2569075.8199999998,"ADDRESS":"王爺宮２之２號","OBJECTID":107861},"geometry":{"x":188336.6799999997,"y":2569075.8200000003}},{"attributes":{"ID":107862,"DIS_CODE":0,"TOWNNAME":"關廟區","LI":"南花里","LIN":"9鄰","STREET":"花園一街","SECT":" ","MAREA":" ","LANE":"１２１巷","ALLEY":"１弄","HOUSE_NO":"１號","E_COORD97":181809.35698499999,"N_COORD97":2540155.8523400002,"ADDRESS":"花園一街１２１巷１弄１號","OBJECTID":107862},"geometry":{"x":181809.35698500089,"y":2540155.8523410019}},{"attributes":{"ID":107863,"DIS_CODE":0,"TOWNNAME":"關廟區","LI":"東勢里","LIN":"9鄰","STREET":"旺萊路","SECT":" ","MAREA":" ","LANE":"３５６巷","ALLEY":"７弄","HOUSE_NO":"１號","E_COORD97":182116.14000000001,"N_COORD97":2539491.25,"ADDRESS":"旺萊路３５６巷７弄１號","OBJECTID":107863},"geometry":{"x":182116.1400000006,"y":2539491.2500000019}},{"attributes":{"ID":107864,"DIS_CODE":0,"TOWNNAME":"關廟區","LI":"埤頭里","LIN":"9鄰","STREET":"關新路","SECT":"二段","MAREA":" ","LANE":"５１巷","ALLEY":"５１弄","HOUSE_NO":"３號","E_COORD97":178911.67173100001,"N_COORD97":2544144.7866099998,"ADDRESS":"關新路二段５１巷５１弄３號","OBJECTID":107864},"geometry":{"x":178911.6717310017,"y":2544144.7866080031}},{"attributes":{"ID":107865,"DIS_CODE":0,"TOWNNAME":"關廟區","LI":"南花里","LIN":"9鄰","STREET":"花園一街","SECT":" ","MAREA":" ","LANE":"１２１巷","ALLEY":"１弄","HOUSE_NO":"２號","E_COORD97":181814.01968299999,"N_COORD97":2540156.2756699999,"ADDRESS":"花園一街１２１巷１弄２號","OBJECTID":107865},"geometry":{"x":181814.01968300063,"y":2540156.2756740004}},{"attributes":{"ID":107866,"DIS_CODE":0,"TOWNNAME":"關廟區","LI":"深坑里","LIN":"9鄰","STREET":"深坑三街","SECT":" ","MAREA":" ","LANE":"２５巷","ALLEY":"３弄","HOUSE_NO":"１８號","E_COORD97":181789.17000000001,"N_COORD97":2537862.2999999998,"ADDRESS":"深坑三街２５巷３弄１８號","OBJECTID":107866},"geometry":{"x":181789.17000000086,"y":2537862.3000000007}},{"attributes":{"ID":107867,"DIS_CODE":0,"TOWNNAME":"六甲區","LI":"王爺里","LIN":"9鄰","STREET":" ","SECT":" ","MAREA":"王爺宮","LANE":" ","ALLEY":" ","HOUSE_NO":"２之３號","E_COORD97":188346.92000000001,"N_COORD97":2569014.75,"ADDRESS":"王爺宮２之３號","OBJECTID":107867},"geometry":{"x":188346.91999999993,"y":2569014.75}},{"attributes":{"ID":107868,"DIS_CODE":0,"TOWNNAME":"安平區","LI":"石門里","LIN":"8鄰","STREET":"安北路","SECT":" ","MAREA":" ","LANE":" ","ALLEY":" ","HOUSE_NO":"５４號","E_COORD97":164560.06,"N_COORD97":2544624.8700000001,"ADDRESS":"安北路５４號","OBJECTID":107868},"geometry":{"x":164560.06000000052,"y":2544624.870000001}},{"attributes":{"ID":107869,"DIS_CODE":0,"TOWNNAME":"安平區","LI":"石門里","LIN":"8鄰","STREET":"安北路","SECT":" ","MAREA":" ","LANE":" ","ALLEY":" ","HOUSE_NO":"５６號","E_COORD97":164556.70999999999,"N_COORD97":2544628.48,"ADDRESS":"安北路５６號","OBJECTID":107869},"geometry":{"x":164556.70999999996,"y":2544628.4800000042}},{"attributes":{"ID":107870,"DIS_CODE":0,"TOWNNAME":"安南區","LI":"梅花里","LIN":"1鄰","STREET":"北安路","SECT":"二段","MAREA":" ","LANE":" ","ALLEY":" ","HOUSE_NO":"３６３號之５","E_COORD97":168310.29843,"N_COORD97":2548522.3532699998,"ADDRESS":"北安路二段３６３號之５","OBJECTID":107870},"geometry":{"x":168310.29843000136,"y":2548522.3532660007}},{"attributes":{"ID":107871,"DIS_CODE":0,"TOWNNAME":"安南區","LI":"州南里","LIN":"1鄰","STREET":"安和路","SECT":"四段","MAREA":" ","LANE":" ","ALLEY":" ","HOUSE_NO":"３６４號","E_COORD97":169955.04000000001,"N_COORD97":2550947.6299999999,"ADDRESS":"安和路四段３６４號","OBJECTID":107871},"geometry":{"x":169955.04000000004,"y":2550947.629999999}},{"attributes":{"ID":107872,"DIS_CODE":0,"TOWNNAME":"關廟區","LI":"深坑里","LIN":"9鄰","STREET":"深坑三街","SECT":" ","MAREA":" ","LANE":"２５巷","ALLEY":"６０弄","HOUSE_NO":"１０號","E_COORD97":181870.76999999999,"N_COORD97":2537916.2799999998,"ADDRESS":"深坑三街２５巷６０弄１０號","OBJECTID":107872},"geometry":{"x":181870.77000000142,"y":2537916.2800000012}},{"attributes":{"ID":107873,"DIS_CODE":0,"TOWNNAME":"北區","LI":"力行里","LIN":"9鄰","STREET":"開南街","SECT":" ","MAREA":" ","LANE":"２７５巷","ALLEY":"１４弄","HOUSE_NO":"１０號","E_COORD97":171010.89999999999,"N_COORD97":2545133.8999999999,"ADDRESS":"開南街２７５巷１４弄１０號","OBJECTID":107873},"geometry":{"x":171010.90000000037,"y":2545133.9000000041}},{"attributes":{"ID":107874,"DIS_CODE":0,"TOWNNAME":"北區","LI":"力行里","LIN":"9鄰","STREET":"開南街","SECT":" ","MAREA":" ","LANE":"２７５巷","ALLEY":"１４弄","HOUSE_NO":"１１號","E_COORD97":171010.70999999999,"N_COORD97":2545146.21,"ADDRESS":"開南街２７５巷１４弄１１號","OBJECTID":107874},"geometry":{"x":171010.71000000183,"y":2545146.2100000046}},{"attributes":{"ID":107875,"DIS_CODE":0,"TOWNNAME":"北區","LI":"力行里","LIN":"9鄰","STREET":"開南街","SECT":" ","MAREA":" ","LANE":"２７５巷","ALLEY":"１４弄","HOUSE_NO":"１２號","E_COORD97":171015.45000000001,"N_COORD97":2545133.52,"ADDRESS":"開南街２７５巷１４弄１２號","OBJECTID":107875},"geometry":{"x":171015.45000000019,"y":2545133.5200000014}},{"attributes":{"ID":107876,"DIS_CODE":0,"TOWNNAME":"北區","LI":"力行里","LIN":"9鄰","STREET":"開南街","SECT":" ","MAREA":" ","LANE":"２７５巷","ALLEY":"１４弄","HOUSE_NO":"１３號","E_COORD97":171015.82999999999,"N_COORD97":2545145.8300000001,"ADDRESS":"開南街２７５巷１４弄１３號","OBJECTID":107876},"geometry":{"x":171015.83000000101,"y":2545145.8300000019}},{"attributes":{"ID":107877,"DIS_CODE":0,"TOWNNAME":"北區","LI":"力行里","LIN":"9鄰","STREET":"開南街","SECT":" ","MAREA":" ","LANE":"２７５巷","ALLEY":"１４弄","HOUSE_NO":"１４號","E_COORD97":171021.51999999999,"N_COORD97":2545133.1400000001,"ADDRESS":"開南街２７５巷１４弄１４號","OBJECTID":107877},"geometry":{"x":171021.51999999862,"y":2545133.1400000025}},{"attributes":{"ID":107878,"DIS_CODE":0,"TOWNNAME":"北區","LI":"力行里","LIN":"9鄰","STREET":"開南街","SECT":" ","MAREA":" ","LANE":"２７５巷","ALLEY":"１４弄","HOUSE_NO":"１５號","E_COORD97":171020.95000000001,"N_COORD97":2545145.6400000001,"ADDRESS":"開南街２７５巷１４弄１５號","OBJECTID":107878},"geometry":{"x":171020.94999999925,"y":2545145.6400000006}},{"attributes":{"ID":107879,"DIS_CODE":0,"TOWNNAME":"北區","LI":"力行里","LIN":"9鄰","STREET":"開南街","SECT":" ","MAREA":" ","LANE":"２７５巷","ALLEY":"１４弄","HOUSE_NO":"１６號","E_COORD97":171028.72,"N_COORD97":2545132.0099999998,"ADDRESS":"開南街２７５巷１４弄１６號","OBJECTID":107879},"geometry":{"x":171028.71999999974,"y":2545132.0099999998}},{"attributes":{"ID":107880,"DIS_CODE":0,"TOWNNAME":"柳營區","LI":"旭山里","LIN":"9鄰","STREET":" ","SECT":" ","MAREA":"尖山","LANE":" ","ALLEY":" ","HOUSE_NO":"１６號","E_COORD97":188810.92000000001,"N_COORD97":2570607.0800000001,"ADDRESS":"尖山１６號","OBJECTID":107880},"geometry":{"x":188810.92000000086,"y":2570607.0800000001}},{"attributes":{"ID":107881,"DIS_CODE":0,"TOWNNAME":"柳營區","LI":"旭山里","LIN":"9鄰","STREET":" ","SECT":" ","MAREA":"尖山","LANE":" ","ALLEY":" ","HOUSE_NO":"１７號","E_COORD97":188822.76999999999,"N_COORD97":2570630.5299999998,"ADDRESS":"尖山１７號","OBJECTID":107881},"geometry":{"x":188822.77000000142,"y":2570630.5299999993}},{"attributes":{"ID":107882,"DIS_CODE":0,"TOWNNAME":"安南區","LI":"新順里","LIN":"1鄰","STREET":"安豐五街","SECT":" ","MAREA":" ","LANE":" ","ALLEY":" ","HOUSE_NO":"１號","E_COORD97":169458.12,"N_COORD97":2549706.5099999998,"ADDRESS":"安豐五街１號","OBJECTID":107882},"geometry":{"x":169458.12000000011,"y":2549706.5100000016}},{"attributes":{"ID":107883,"DIS_CODE":0,"TOWNNAME":"安南區","LI":"梅花里","LIN":"1鄰","STREET":"安中路","SECT":"一段","MAREA":" ","LANE":" ","ALLEY":" ","HOUSE_NO":"６３１號","E_COORD97":167778.23999999999,"N_COORD97":2549115.9399999999,"ADDRESS":"安中路一段６３１號","OBJECTID":107883},"geometry":{"x":167778.24000000115,"y":2549115.9399999995}},{"attributes":{"ID":107884,"DIS_CODE":0,"TOWNNAME":"柳營區","LI":"旭山里","LIN":"9鄰","STREET":" ","SECT":" ","MAREA":"尖山","LANE":" ","ALLEY":" ","HOUSE_NO":"１８號","E_COORD97":188835.44,"N_COORD97":2570677.6400000001,"ADDRESS":"尖山１８號","OBJECTID":107884},"geometry":{"x":188835.44000000041,"y":2570677.6400000006}},{"attributes":{"ID":107885,"DIS_CODE":0,"TOWNNAME":"柳營區","LI":"旭山里","LIN":"9鄰","STREET":" ","SECT":" ","MAREA":"尖山","LANE":" ","ALLEY":" ","HOUSE_NO":"２０號之１","E_COORD97":188808.12,"N_COORD97":2570694.0499999998,"ADDRESS":"尖山２０號之１","OBJECTID":107885},"geometry":{"x":188808.12000000104,"y":2570694.0500000026}},{"attributes":{"ID":107886,"DIS_CODE":0,"TOWNNAME":"安南區","LI":"梅花里","LIN":"1鄰","STREET":"安中路","SECT":"一段","MAREA":" ","LANE":" ","ALLEY":" ","HOUSE_NO":"６３３號","E_COORD97":167773.92999999999,"N_COORD97":2549118.6800000002,"ADDRESS":"安中路一段６３３號","OBJECTID":107886},"geometry":{"x":167773.9299999997,"y":2549118.6800000034}},{"attributes":{"ID":107887,"DIS_CODE":0,"TOWNNAME":"柳營區","LI":"旭山里","LIN":"9鄰","STREET":" ","SECT":" ","MAREA":"尖山","LANE":" ","ALLEY":" ","HOUSE_NO":"２０號之３","E_COORD97":188817.5,"N_COORD97":2570697.96,"ADDRESS":"尖山２０號之３","OBJECTID":107887},"geometry":{"x":188817.5,"y":2570697.9600000028}},{"attributes":{"ID":107888,"DIS_CODE":0,"TOWNNAME":"柳營區","LI":"旭山里","LIN":"9鄰","STREET":" ","SECT":" ","MAREA":"尖山","LANE":" ","ALLEY":" ","HOUSE_NO":"２０號","E_COORD97":188838.17000000001,"N_COORD97":2570688.4399999999,"ADDRESS":"尖山２０號","OBJECTID":107888},"geometry":{"x":188838.17000000086,"y":2570688.4399999995}},{"attributes":{"ID":107889,"DIS_CODE":0,"TOWNNAME":"柳營區","LI":"果毅里","LIN":"9鄰","STREET":" ","SECT":" ","MAREA":"果毅後","LANE":" ","ALLEY":" ","HOUSE_NO":"１１７號","E_COORD97":185674.79999999999,"N_COORD97":2572821.27,"ADDRESS":"果毅後１１７號","OBJECTID":107889},"geometry":{"x":185674.79999999888,"y":2572821.2700000014}},{"attributes":{"ID":107890,"DIS_CODE":0,"TOWNNAME":"柳營區","LI":"神農里","LIN":"9鄰","STREET":" ","SECT":" ","MAREA":"果毅後","LANE":" ","ALLEY":" ","HOUSE_NO":"３１７號","E_COORD97":185407.07000000001,"N_COORD97":2572965.9199999999,"ADDRESS":"果毅後３１７號","OBJECTID":107890},"geometry":{"x":185407.0700000003,"y":2572965.9200000018}},{"attributes":{"ID":107891,"DIS_CODE":0,"TOWNNAME":"柳營區","LI":"神農里","LIN":"9鄰","STREET":" ","SECT":" ","MAREA":"果毅後","LANE":" ","ALLEY":" ","HOUSE_NO":"３１８號","E_COORD97":185402.23000000001,"N_COORD97":2572976.1099999999,"ADDRESS":"果毅後３１８號","OBJECTID":107891},"geometry":{"x":185402.23000000138,"y":2572976.1099999994}},{"attributes":{"ID":107892,"DIS_CODE":0,"TOWNNAME":"柳營區","LI":"神農里","LIN":"9鄰","STREET":" ","SECT":" ","MAREA":"果毅後","LANE":" ","ALLEY":" ","HOUSE_NO":"３１９號","E_COORD97":185410.69,"N_COORD97":2572998.2400000002,"ADDRESS":"果毅後３１９號","OBJECTID":107892},"geometry":{"x":185410.69000000134,"y":2572998.2400000021}},{"attributes":{"ID":107893,"DIS_CODE":0,"TOWNNAME":"柳營區","LI":"神農里","LIN":"9鄰","STREET":" ","SECT":" ","MAREA":"果毅後","LANE":" ","ALLEY":" ","HOUSE_NO":"３２０號之１","E_COORD97":185386.16,"N_COORD97":2572971.5699999998,"ADDRESS":"果毅後３２０號之１","OBJECTID":107893},"geometry":{"x":185386.16000000015,"y":2572971.5700000022}},{"attributes":{"ID":107894,"DIS_CODE":0,"TOWNNAME":"柳營區","LI":"神農里","LIN":"9鄰","STREET":" ","SECT":" ","MAREA":"果毅後","LANE":" ","ALLEY":" ","HOUSE_NO":"３２０號","E_COORD97":185392.82999999999,"N_COORD97":2572969.6899999999,"ADDRESS":"果毅後３２０號","OBJECTID":107894},"geometry":{"x":185392.83000000007,"y":2572969.6900000032}},{"attributes":{"ID":107895,"DIS_CODE":0,"TOWNNAME":"柳營區","LI":"神農里","LIN":"9鄰","STREET":" ","SECT":" ","MAREA":"果毅後","LANE":" ","ALLEY":" ","HOUSE_NO":"３２１號","E_COORD97":185381.47,"N_COORD97":2572986.8700000001,"ADDRESS":"果毅後３２１號","OBJECTID":107895},"geometry":{"x":185381.46999999974,"y":2572986.8700000048}},{"attributes":{"ID":107896,"DIS_CODE":0,"TOWNNAME":"柳營區","LI":"神農里","LIN":"9鄰","STREET":" ","SECT":" ","MAREA":"果毅後","LANE":" ","ALLEY":" ","HOUSE_NO":"３２３號","E_COORD97":185392.29999999999,"N_COORD97":2572991.8599999999,"ADDRESS":"果毅後３２３號","OBJECTID":107896},"geometry":{"x":185392.30000000075,"y":2572991.8600000031}},{"attributes":{"ID":107897,"DIS_CODE":0,"TOWNNAME":"柳營區","LI":"神農里","LIN":"9鄰","STREET":" ","SECT":" ","MAREA":"果毅後","LANE":" ","ALLEY":" ","HOUSE_NO":"３２４號之４","E_COORD97":185416.45999999999,"N_COORD97":2573016.0800000001,"ADDRESS":"果毅後３２４號之４","OBJECTID":107897},"geometry":{"x":185416.46000000089,"y":2573016.0800000019}},{"attributes":{"ID":107898,"DIS_CODE":0,"TOWNNAME":"柳營區","LI":"神農里","LIN":"9鄰","STREET":" ","SECT":" ","MAREA":"果毅後","LANE":" ","ALLEY":" ","HOUSE_NO":"３２４號","E_COORD97":185399.26999999999,"N_COORD97":2572990.79,"ADDRESS":"果毅後３２４號","OBJECTID":107898},"geometry":{"x":185399.27000000048,"y":2572990.7899999991}},{"attributes":{"ID":107899,"DIS_CODE":0,"TOWNNAME":"柳營區","LI":"太康里","LIN":"9鄰","STREET":" ","SECT":" ","MAREA":"太康","LANE":" ","ALLEY":" ","HOUSE_NO":"８２號","E_COORD97":181563.67000000001,"N_COORD97":2576377.27,"ADDRESS":"太康８２號","OBJECTID":107899},"geometry":{"x":181563.67000000086,"y":2576377.2700000014}},{"attributes":{"ID":107900,"DIS_CODE":0,"TOWNNAME":"柳營區","LI":"太康里","LIN":"9鄰","STREET":" ","SECT":" ","MAREA":"太康","LANE":" ","ALLEY":" ","HOUSE_NO":"８３號","E_COORD97":181553.72,"N_COORD97":2576432.0600000001,"ADDRESS":"太康８３號","OBJECTID":107900},"geometry":{"x":181553.71999999974,"y":2576432.0600000005}},{"attributes":{"ID":107901,"DIS_CODE":0,"TOWNNAME":"柳營區","LI":"太康里","LIN":"9鄰","STREET":" ","SECT":" ","MAREA":"太康","LANE":" ","ALLEY":" ","HOUSE_NO":"８４之３號","E_COORD97":181596.23000000001,"N_COORD97":2576466.7400000002,"ADDRESS":"太康８４之３號","OBJECTID":107901},"geometry":{"x":181596.23000000138,"y":2576466.7400000021}},{"attributes":{"ID":107902,"DIS_CODE":0,"TOWNNAME":"柳營區","LI":"太康里","LIN":"9鄰","STREET":" ","SECT":" ","MAREA":"太康","LANE":" ","ALLEY":" ","HOUSE_NO":"８４號","E_COORD97":181567.63,"N_COORD97":2576434.2000000002,"ADDRESS":"太康８４號","OBJECTID":107902},"geometry":{"x":181567.63000000082,"y":2576434.200000003}},{"attributes":{"ID":107903,"DIS_CODE":0,"TOWNNAME":"柳營區","LI":"太康里","LIN":"9鄰","STREET":" ","SECT":" ","MAREA":"太康","LANE":" ","ALLEY":" ","HOUSE_NO":"８５號之１","E_COORD97":181555.69,"N_COORD97":2576409.2599999998,"ADDRESS":"太康８５號之１","OBJECTID":107903},"geometry":{"x":181555.69000000134,"y":2576409.2599999998}},{"attributes":{"ID":107904,"DIS_CODE":0,"TOWNNAME":"佳里區","LI":"禮化里","LIN":"1鄰","STREET":" ","SECT":" ","MAREA":"佳里興","LANE":" ","ALLEY":" ","HOUSE_NO":"２２１號之１","E_COORD97":167163.35999999999,"N_COORD97":2565531.2599999998,"ADDRESS":"佳里興２２１號之１","OBJECTID":107904},"geometry":{"x":167163.36000000034,"y":2565531.2600000016}},{"attributes":{"ID":107905,"DIS_CODE":0,"TOWNNAME":"北區","LI":"力行里","LIN":"9鄰","STREET":"開南街","SECT":" ","MAREA":" ","LANE":"２７５巷","ALLEY":"１４弄","HOUSE_NO":"１７號","E_COORD97":171025.12,"N_COORD97":2545144.8799999999,"ADDRESS":"開南街２７５巷１４弄１７號","OBJECTID":107905},"geometry":{"x":171025.12000000104,"y":2545144.879999999}},{"attributes":{"ID":107906,"DIS_CODE":0,"TOWNNAME":"佳里區","LI":"禮化里","LIN":"1鄰","STREET":" ","SECT":" ","MAREA":"佳里興","LANE":" ","ALLEY":" ","HOUSE_NO":"２２１號","E_COORD97":167171.51999999999,"N_COORD97":2565522.6200000001,"ADDRESS":"佳里興２２１號","OBJECTID":107906},"geometry":{"x":167171.51999999955,"y":2565522.620000001}},{"attributes":{"ID":107907,"DIS_CODE":0,"TOWNNAME":"柳營區","LI":"太康里","LIN":"9鄰","STREET":" ","SECT":" ","MAREA":"太康","LANE":" ","ALLEY":" ","HOUSE_NO":"８５號","E_COORD97":181574.95000000001,"N_COORD97":2576399.5299999998,"ADDRESS":"太康８５號","OBJECTID":107907},"geometry":{"x":181574.95000000019,"y":2576399.5300000012}},{"attributes":{"ID":107908,"DIS_CODE":0,"TOWNNAME":"柳營區","LI":"太康里","LIN":"9鄰","STREET":" ","SECT":" ","MAREA":"太康","LANE":" ","ALLEY":" ","HOUSE_NO":"８８號之５","E_COORD97":181617.23999999999,"N_COORD97":2576346.0699999998,"ADDRESS":"太康８８號之５","OBJECTID":107908},"geometry":{"x":181617.24000000022,"y":2576346.0700000022}},{"attributes":{"ID":107909,"DIS_CODE":0,"TOWNNAME":"柳營區","LI":"太康里","LIN":"9鄰","STREET":" ","SECT":" ","MAREA":"太康","LANE":" ","ALLEY":" ","HOUSE_NO":"８９之５號","E_COORD97":181637.37,"N_COORD97":2576348.9199999999,"ADDRESS":"太康８９之５號","OBJECTID":107909},"geometry":{"x":181637.37000000104,"y":2576348.9200000018}},{"attributes":{"ID":107910,"DIS_CODE":0,"TOWNNAME":"柳營區","LI":"太康里","LIN":"9鄰","STREET":" ","SECT":" ","MAREA":"太康","LANE":" ","ALLEY":" ","HOUSE_NO":"８９之６號","E_COORD97":181633.20999999999,"N_COORD97":2576348.1200000001,"ADDRESS":"太康８９之６號","OBJECTID":107910},"geometry":{"x":181633.21000000089,"y":2576348.120000001}},{"attributes":{"ID":107911,"DIS_CODE":0,"TOWNNAME":"柳營區","LI":"太康里","LIN":"9鄰","STREET":" ","SECT":" ","MAREA":"太康","LANE":" ","ALLEY":" ","HOUSE_NO":"８９號","E_COORD97":181648.78,"N_COORD97":2576361.5,"ADDRESS":"太康８９號","OBJECTID":107911},"geometry":{"x":181648.78000000026,"y":2576361.4999999981}},{"attributes":{"ID":107912,"DIS_CODE":0,"TOWNNAME":"柳營區","LI":"太康里","LIN":"9鄰","STREET":" ","SECT":" ","MAREA":"太康","LANE":" ","ALLEY":" ","HOUSE_NO":"９１號","E_COORD97":181634.14999999999,"N_COORD97":2576385.5499999998,"ADDRESS":"太康９１號","OBJECTID":107912},"geometry":{"x":181634.1500000013,"y":2576385.5500000007}},{"attributes":{"ID":107913,"DIS_CODE":0,"TOWNNAME":"柳營區","LI":"旭山里","LIN":"9鄰","STREET":" ","SECT":" ","MAREA":"尖山","LANE":" ","ALLEY":" ","HOUSE_NO":"２４號之１","E_COORD97":188741.82000000001,"N_COORD97":2570727.7000000002,"ADDRESS":"尖山２４號之１","OBJECTID":107913},"geometry":{"x":188741.82000000216,"y":2570727.6999999993}},{"attributes":{"ID":107914,"DIS_CODE":0,"TOWNNAME":"柳營區","LI":"果毅里","LIN":"9鄰","STREET":" ","SECT":" ","MAREA":"果毅後","LANE":" ","ALLEY":" ","HOUSE_NO":"１０３號","E_COORD97":185574.82999999999,"N_COORD97":2572814.7400000002,"ADDRESS":"果毅後１０３號","OBJECTID":107914},"geometry":{"x":185574.83000000007,"y":2572814.7400000021}},{"attributes":{"ID":107915,"DIS_CODE":0,"TOWNNAME":"柳營區","LI":"果毅里","LIN":"9鄰","STREET":" ","SECT":" ","MAREA":"果毅後","LANE":" ","ALLEY":" ","HOUSE_NO":"１０４號","E_COORD97":185578.79999999999,"N_COORD97":2572813.96,"ADDRESS":"果毅後１０４號","OBJECTID":107915},"geometry":{"x":185578.80000000075,"y":2572813.9600000028}},{"attributes":{"ID":107916,"DIS_CODE":0,"TOWNNAME":"柳營區","LI":"果毅里","LIN":"9鄰","STREET":" ","SECT":" ","MAREA":"果毅後","LANE":" ","ALLEY":" ","HOUSE_NO":"１０５號","E_COORD97":185582.48000000001,"N_COORD97":2572813.2799999998,"ADDRESS":"果毅後１０５號","OBJECTID":107916},"geometry":{"x":185582.48000000045,"y":2572813.2800000012}},{"attributes":{"ID":107917,"DIS_CODE":0,"TOWNNAME":"柳營區","LI":"果毅里","LIN":"9鄰","STREET":" ","SECT":" ","MAREA":"果毅後","LANE":" ","ALLEY":" ","HOUSE_NO":"１０７號","E_COORD97":185594.82999999999,"N_COORD97":2572814.75,"ADDRESS":"果毅後１０７號","OBJECTID":107917},"geometry":{"x":185594.83000000007,"y":2572814.7500000019}},{"attributes":{"ID":107918,"DIS_CODE":0,"TOWNNAME":"柳營區","LI":"果毅里","LIN":"9鄰","STREET":" ","SECT":" ","MAREA":"果毅後","LANE":" ","ALLEY":" ","HOUSE_NO":"１０８號","E_COORD97":185597.60999999999,"N_COORD97":2572809.1099999999,"ADDRESS":"果毅後１０８號","OBJECTID":107918},"geometry":{"x":185597.61000000127,"y":2572809.1099999994}},{"attributes":{"ID":107919,"DIS_CODE":0,"TOWNNAME":"柳營區","LI":"果毅里","LIN":"9鄰","STREET":" ","SECT":" ","MAREA":"果毅後","LANE":" ","ALLEY":" ","HOUSE_NO":"１０９之１號","E_COORD97":185607.48999999999,"N_COORD97":2572810.7000000002,"ADDRESS":"果毅後１０９之１號","OBJECTID":107919},"geometry":{"x":185607.49000000022,"y":2572810.7000000011}},{"attributes":{"ID":107920,"DIS_CODE":0,"TOWNNAME":"柳營區","LI":"果毅里","LIN":"9鄰","STREET":" ","SECT":" ","MAREA":"果毅後","LANE":" ","ALLEY":" ","HOUSE_NO":"１０９號","E_COORD97":185603.44,"N_COORD97":2572812.2999999998,"ADDRESS":"果毅後１０９號","OBJECTID":107920},"geometry":{"x":185603.44000000227,"y":2572812.3000000026}},{"attributes":{"ID":107921,"DIS_CODE":0,"TOWNNAME":"柳營區","LI":"果毅里","LIN":"9鄰","STREET":" ","SECT":" ","MAREA":"果毅後","LANE":" ","ALLEY":" ","HOUSE_NO":"１１０號之１","E_COORD97":185611.95999999999,"N_COORD97":2572809.48,"ADDRESS":"果毅後１１０號之１","OBJECTID":107921},"geometry":{"x":185611.96000000089,"y":2572809.4800000023}},{"attributes":{"ID":107922,"DIS_CODE":0,"TOWNNAME":"北區","LI":"力行里","LIN":"9鄰","STREET":"開南街","SECT":" ","MAREA":" ","LANE":"２７５巷","ALLEY":"１４弄","HOUSE_NO":"１８號","E_COORD97":171034.22,"N_COORD97":2545132.2000000002,"ADDRESS":"開南街２７５巷１４弄１８號","OBJECTID":107922},"geometry":{"x":171034.22000000067,"y":2545132.2000000011}},{"attributes":{"ID":107923,"DIS_CODE":0,"TOWNNAME":"柳營區","LI":"果毅里","LIN":"9鄰","STREET":" ","SECT":" ","MAREA":"果毅後","LANE":" ","ALLEY":" ","HOUSE_NO":"１１０之２號","E_COORD97":185676.13,"N_COORD97":2572798.21,"ADDRESS":"果毅後１１０之２號","OBJECTID":107923},"geometry":{"x":185676.13000000175,"y":2572798.2100000028}},{"attributes":{"ID":107924,"DIS_CODE":0,"TOWNNAME":"柳營區","LI":"果毅里","LIN":"9鄰","STREET":" ","SECT":" ","MAREA":"果毅後","LANE":" ","ALLEY":" ","HOUSE_NO":"１１０號","E_COORD97":185622.63,"N_COORD97":2572805.4300000002,"ADDRESS":"果毅後１１０號","OBJECTID":107924},"geometry":{"x":185622.63000000082,"y":2572805.4300000034}},{"attributes":{"ID":107925,"DIS_CODE":0,"TOWNNAME":"柳營區","LI":"果毅里","LIN":"9鄰","STREET":" ","SECT":" ","MAREA":"果毅後","LANE":" ","ALLEY":" ","HOUSE_NO":"１１１號","E_COORD97":185655.20999999999,"N_COORD97":2572796.7599999998,"ADDRESS":"果毅後１１１號","OBJECTID":107925},"geometry":{"x":185655.20999999903,"y":2572796.7600000016}},{"attributes":{"ID":107926,"DIS_CODE":0,"TOWNNAME":"玉井區","LI":"豐里里","LIN":"9鄰","STREET":" ","SECT":" ","MAREA":"豐里","LANE":" ","ALLEY":" ","HOUSE_NO":"８９號之３","E_COORD97":192457.48999999999,"N_COORD97":2559706.2999999998,"ADDRESS":"豐里８９號之３","OBJECTID":107926},"geometry":{"x":192457.49000000022,"y":2559706.3000000007}},{"attributes":{"ID":107927,"DIS_CODE":0,"TOWNNAME":"玉井區","LI":"豐里里","LIN":"9鄰","STREET":" ","SECT":" ","MAREA":"豐里","LANE":" ","ALLEY":" ","HOUSE_NO":"９０號之１","E_COORD97":192515.89000000001,"N_COORD97":2559639.29,"ADDRESS":"豐里９０號之１","OBJECTID":107927},"geometry":{"x":192515.89000000153,"y":2559639.2899999991}},{"attributes":{"ID":107928,"DIS_CODE":0,"TOWNNAME":"玉井區","LI":"層林里","LIN":"9鄰","STREET":" ","SECT":" ","MAREA":"層林","LANE":" ","ALLEY":" ","HOUSE_NO":"９６號","E_COORD97":191494.16,"N_COORD97":2552828.25,"ADDRESS":"層林９６號","OBJECTID":107928},"geometry":{"x":191494.16000000201,"y":2552828.2500000019}},{"attributes":{"ID":107929,"DIS_CODE":0,"TOWNNAME":"玉井區","LI":"豐里里","LIN":"9鄰","STREET":" ","SECT":" ","MAREA":"豐里","LANE":" ","ALLEY":" ","HOUSE_NO":"９３號之１","E_COORD97":192820,"N_COORD97":2559998.2999999998,"ADDRESS":"豐里９３號之１","OBJECTID":107929},"geometry":{"x":192820,"y":2559998.2999999989}},{"attributes":{"ID":107930,"DIS_CODE":0,"TOWNNAME":"玉井區","LI":"望明里","LIN":"9鄰","STREET":" ","SECT":" ","MAREA":"劉陳","LANE":" ","ALLEY":" ","HOUSE_NO":"３４號","E_COORD97":193438.89999999999,"N_COORD97":2556041.25,"ADDRESS":"劉陳３４號","OBJECTID":107930},"geometry":{"x":193438.90000000224,"y":2556041.2499999981}},{"attributes":{"ID":107931,"DIS_CODE":0,"TOWNNAME":"玉井區","LI":"望明里","LIN":"9鄰","STREET":" ","SECT":" ","MAREA":"劉陳","LANE":" ","ALLEY":" ","HOUSE_NO":"８號","E_COORD97":193415.76000000001,"N_COORD97":2555985.2400000002,"ADDRESS":"劉陳８號","OBJECTID":107931},"geometry":{"x":193415.76000000071,"y":2555985.2400000021}},{"attributes":{"ID":107932,"DIS_CODE":0,"TOWNNAME":"玉井區","LI":"望明里","LIN":"9鄰","STREET":" ","SECT":" ","MAREA":"劉陳","LANE":" ","ALLEY":" ","HOUSE_NO":"１８號","E_COORD97":193423.89999999999,"N_COORD97":2556003.2400000002,"ADDRESS":"劉陳１８號","OBJECTID":107932},"geometry":{"x":193423.9000000013,"y":2556003.2400000002}},{"attributes":{"ID":107933,"DIS_CODE":0,"TOWNNAME":"玉井區","LI":"望明里","LIN":"9鄰","STREET":" ","SECT":" ","MAREA":"劉陳","LANE":" ","ALLEY":" ","HOUSE_NO":"２２號","E_COORD97":193425.89999999999,"N_COORD97":2556010.2400000002,"ADDRESS":"劉陳２２號","OBJECTID":107933},"geometry":{"x":193425.9000000013,"y":2556010.2400000002}},{"attributes":{"ID":107934,"DIS_CODE":0,"TOWNNAME":"北區","LI":"力行里","LIN":"9鄰","STREET":"開南街","SECT":" ","MAREA":" ","LANE":"２７５巷","ALLEY":"１４弄","HOUSE_NO":"１９號","E_COORD97":171028.72,"N_COORD97":2545145.0699999998,"ADDRESS":"開南街２７５巷１４弄１９號","OBJECTID":107934},"geometry":{"x":171028.71999999974,"y":2545145.0700000003}},{"attributes":{"ID":107935,"DIS_CODE":0,"TOWNNAME":"北區","LI":"力行里","LIN":"9鄰","STREET":"開南街","SECT":" ","MAREA":" ","LANE":"２７５巷","ALLEY":"１４弄","HOUSE_NO":"１號","E_COORD97":170987.57999999999,"N_COORD97":2545147.1600000001,"ADDRESS":"開南街２７５巷１４弄１號","OBJECTID":107935},"geometry":{"x":170987.58000000007,"y":2545147.160000002}},{"attributes":{"ID":107936,"DIS_CODE":0,"TOWNNAME":"佳里區","LI":"佳化里","LIN":"1鄰","STREET":" ","SECT":" ","MAREA":"佳里興","LANE":" ","ALLEY":" ","HOUSE_NO":"４號之６","E_COORD97":167736.84,"N_COORD97":2565363.5600000001,"ADDRESS":"佳里興４號之６","OBJECTID":107936},"geometry":{"x":167736.84000000078,"y":2565363.5600000042}},{"attributes":{"ID":107937,"DIS_CODE":0,"TOWNNAME":"佳里區","LI":"佳化里","LIN":"1鄰","STREET":" ","SECT":" ","MAREA":"佳里興","LANE":" ","ALLEY":" ","HOUSE_NO":"４號之７","E_COORD97":167741.28,"N_COORD97":2565363.98,"ADDRESS":"佳里興４號之７","OBJECTID":107937},"geometry":{"x":167741.28000000026,"y":2565363.9800000042}},{"attributes":{"ID":107938,"DIS_CODE":0,"TOWNNAME":"佳里區","LI":"佳化里","LIN":"1鄰","STREET":" ","SECT":" ","MAREA":"佳里興","LANE":" ","ALLEY":" ","HOUSE_NO":"４號之８","E_COORD97":167725.76000000001,"N_COORD97":2565342.8900000001,"ADDRESS":"佳里興４號之８","OBJECTID":107938},"geometry":{"x":167725.75999999978,"y":2565342.8900000006}},{"attributes":{"ID":107939,"DIS_CODE":0,"TOWNNAME":"佳里區","LI":"佳化里","LIN":"1鄰","STREET":" ","SECT":" ","MAREA":"佳里興","LANE":" ","ALLEY":" ","HOUSE_NO":"４號之９","E_COORD97":167730.59,"N_COORD97":2565342.9399999999,"ADDRESS":"佳里興４號之９","OBJECTID":107939},"geometry":{"x":167730.58999999985,"y":2565342.9400000032}},{"attributes":{"ID":107940,"DIS_CODE":0,"TOWNNAME":"佳里區","LI":"佳化里","LIN":"1鄰","STREET":" ","SECT":" ","MAREA":"佳里興","LANE":" ","ALLEY":" ","HOUSE_NO":"７號","E_COORD97":167838.48999999999,"N_COORD97":2565354.9100000001,"ADDRESS":"佳里興７號","OBJECTID":107940},"geometry":{"x":167838.49000000022,"y":2565354.910000002}},{"attributes":{"ID":107941,"DIS_CODE":0,"TOWNNAME":"佳里區","LI":"佳化里","LIN":"1鄰","STREET":" ","SECT":" ","MAREA":"佳里興","LANE":" ","ALLEY":" ","HOUSE_NO":"８號之１","E_COORD97":167797.54999999999,"N_COORD97":2565371.1099999999,"ADDRESS":"佳里興８號之１","OBJECTID":107941},"geometry":{"x":167797.55000000168,"y":2565371.1099999994}},{"attributes":{"ID":107942,"DIS_CODE":0,"TOWNNAME":"佳里區","LI":"佳化里","LIN":"1鄰","STREET":" ","SECT":" ","MAREA":"佳里興","LANE":" ","ALLEY":" ","HOUSE_NO":"８號之２","E_COORD97":167800.95000000001,"N_COORD97":2565358.8199999998,"ADDRESS":"佳里興８號之２","OBJECTID":107942},"geometry":{"x":167800.95000000112,"y":2565358.8200000022}},{"attributes":{"ID":107943,"DIS_CODE":0,"TOWNNAME":"佳里區","LI":"佳化里","LIN":"1鄰","STREET":" ","SECT":" ","MAREA":"佳里興","LANE":" ","ALLEY":" ","HOUSE_NO":"８號之３","E_COORD97":167803.92999999999,"N_COORD97":2565355.3199999998,"ADDRESS":"佳里興８號之３","OBJECTID":107943},"geometry":{"x":167803.93000000063,"y":2565355.3200000022}},{"attributes":{"ID":107944,"DIS_CODE":0,"TOWNNAME":"佳里區","LI":"佳化里","LIN":"1鄰","STREET":" ","SECT":" ","MAREA":"佳里興","LANE":" ","ALLEY":" ","HOUSE_NO":"８號之４","E_COORD97":167794.64999999999,"N_COORD97":2565343.8999999999,"ADDRESS":"佳里興８號之４","OBJECTID":107944},"geometry":{"x":167794.6500000013,"y":2565343.9000000041}},{"attributes":{"ID":107945,"DIS_CODE":0,"TOWNNAME":"佳里區","LI":"佳化里","LIN":"1鄰","STREET":" ","SECT":" ","MAREA":"佳里興","LANE":" ","ALLEY":" ","HOUSE_NO":"８號之５","E_COORD97":167775.48000000001,"N_COORD97":2565344.75,"ADDRESS":"佳里興８號之５","OBJECTID":107945},"geometry":{"x":167775.48000000138,"y":2565344.7500000037}},{"attributes":{"ID":107946,"DIS_CODE":0,"TOWNNAME":"佳里區","LI":"佳化里","LIN":"1鄰","STREET":" ","SECT":" ","MAREA":"佳里興","LANE":" ","ALLEY":" ","HOUSE_NO":"８號之６","E_COORD97":167769.95000000001,"N_COORD97":2565344.4900000002,"ADDRESS":"佳里興８號之６","OBJECTID":107946},"geometry":{"x":167769.95000000112,"y":2565344.4900000021}},{"attributes":{"ID":107947,"DIS_CODE":0,"TOWNNAME":"佳里區","LI":"佳化里","LIN":"1鄰","STREET":" ","SECT":" ","MAREA":"佳里興","LANE":" ","ALLEY":" ","HOUSE_NO":"８號之７","E_COORD97":167939.01000000001,"N_COORD97":2565389.9700000002,"ADDRESS":"佳里興８號之７","OBJECTID":107947},"geometry":{"x":167939.01000000071,"y":2565389.9700000007}},{"attributes":{"ID":107948,"DIS_CODE":0,"TOWNNAME":"佳里區","LI":"佳化里","LIN":"1鄰","STREET":" ","SECT":" ","MAREA":"佳里興","LANE":" ","ALLEY":" ","HOUSE_NO":"８號","E_COORD97":167814.98000000001,"N_COORD97":2565350.9900000002,"ADDRESS":"佳里興８號","OBJECTID":107948},"geometry":{"x":167814.98000000045,"y":2565350.9900000021}},{"attributes":{"ID":107949,"DIS_CODE":0,"TOWNNAME":"玉井區","LI":"望明里","LIN":"9鄰","STREET":" ","SECT":" ","MAREA":"劉陳","LANE":" ","ALLEY":" ","HOUSE_NO":"７６號","E_COORD97":193466.60999999999,"N_COORD97":2556126.2400000002,"ADDRESS":"劉陳７６號","OBJECTID":107949},"geometry":{"x":193466.61000000127,"y":2556126.2399999984}},{"attributes":{"ID":107950,"DIS_CODE":0,"TOWNNAME":"玉井區","LI":"望明里","LIN":"9鄰","STREET":" ","SECT":" ","MAREA":"劉陳","LANE":" ","ALLEY":" ","HOUSE_NO":"６號","E_COORD97":193414.06,"N_COORD97":2555980.25,"ADDRESS":"劉陳６號","OBJECTID":107950},"geometry":{"x":193414.05999999959,"y":2555980.2499999981}},{"attributes":{"ID":107951,"DIS_CODE":0,"TOWNNAME":"玉井區","LI":"望明里","LIN":"9鄰","STREET":" ","SECT":" ","MAREA":"劉陳","LANE":" ","ALLEY":" ","HOUSE_NO":"５６號","E_COORD97":193454.60000000001,"N_COORD97":2556084.25,"ADDRESS":"劉陳５６號","OBJECTID":107951},"geometry":{"x":193454.59999999963,"y":2556084.25}},{"attributes":{"ID":107952,"DIS_CODE":0,"TOWNNAME":"玉井區","LI":"豐里里","LIN":"9鄰","STREET":" ","SECT":" ","MAREA":"豐里","LANE":" ","ALLEY":" ","HOUSE_NO":"９１號之２","E_COORD97":192615.42999999999,"N_COORD97":2559660.29,"ADDRESS":"豐里９１號之２","OBJECTID":107952},"geometry":{"x":192615.4299999997,"y":2559660.2899999991}},{"attributes":{"ID":107953,"DIS_CODE":0,"TOWNNAME":"玉井區","LI":"望明里","LIN":"9鄰","STREET":" ","SECT":" ","MAREA":"劉陳","LANE":" ","ALLEY":" ","HOUSE_NO":"１２２號","E_COORD97":193508.45000000001,"N_COORD97":2556225.2400000002,"ADDRESS":"劉陳１２２號","OBJECTID":107953},"geometry":{"x":193508.45000000112,"y":2556225.2400000021}},{"attributes":{"ID":107954,"DIS_CODE":0,"TOWNNAME":"玉井區","LI":"望明里","LIN":"9鄰","STREET":" ","SECT":" ","MAREA":"劉陳","LANE":" ","ALLEY":" ","HOUSE_NO":"２０號","E_COORD97":193424.51000000001,"N_COORD97":2556006.2400000002,"ADDRESS":"劉陳２０號","OBJECTID":107954},"geometry":{"x":193424.51000000071,"y":2556006.2400000002}},{"attributes":{"ID":107955,"DIS_CODE":0,"TOWNNAME":"玉井區","LI":"望明里","LIN":"9鄰","STREET":" ","SECT":" ","MAREA":"劉陳","LANE":" ","ALLEY":" ","HOUSE_NO":"１４號","E_COORD97":193421.60000000001,"N_COORD97":2555996.2400000002,"ADDRESS":"劉陳１４號","OBJECTID":107955},"geometry":{"x":193421.60000000056,"y":2555996.2400000002}},{"attributes":{"ID":107956,"DIS_CODE":0,"TOWNNAME":"玉井區","LI":"望明里","LIN":"9鄰","STREET":" ","SECT":" ","MAREA":"劉陳","LANE":" ","ALLEY":" ","HOUSE_NO":"１２６號","E_COORD97":193526.35000000001,"N_COORD97":2556227.2400000002,"ADDRESS":"劉陳１２６號","OBJECTID":107956},"geometry":{"x":193526.34999999963,"y":2556227.2400000002}},{"attributes":{"ID":107957,"DIS_CODE":0,"TOWNNAME":"玉井區","LI":"豐里里","LIN":"9鄰","STREET":" ","SECT":" ","MAREA":"豐里","LANE":" ","ALLEY":" ","HOUSE_NO":"８９之６號","E_COORD97":192242.07000000001,"N_COORD97":2559546.29,"ADDRESS":"豐里８９之６號","OBJECTID":107957},"geometry":{"x":192242.0700000003,"y":2559546.290000001}},{"attributes":{"ID":107958,"DIS_CODE":0,"TOWNNAME":"北區","LI":"力行里","LIN":"9鄰","STREET":"開南街","SECT":" ","MAREA":" ","LANE":"２７５巷","ALLEY":"１４弄","HOUSE_NO":"２０號","E_COORD97":171039.72,"N_COORD97":2545132.0099999998,"ADDRESS":"開南街２７５巷１４弄２０號","OBJECTID":107958},"geometry":{"x":171039.72000000067,"y":2545132.0099999998}},{"attributes":{"ID":107959,"DIS_CODE":0,"TOWNNAME":"北區","LI":"力行里","LIN":"9鄰","STREET":"開南街","SECT":" ","MAREA":" ","LANE":"２７５巷","ALLEY":"１４弄","HOUSE_NO":"２１號","E_COORD97":171034.79000000001,"N_COORD97":2545145.4500000002,"ADDRESS":"開南街２７５巷１４弄２１號","OBJECTID":107959},"geometry":{"x":171034.79000000004,"y":2545145.4499999993}},{"attributes":{"ID":107960,"DIS_CODE":0,"TOWNNAME":"北區","LI":"力行里","LIN":"9鄰","STREET":"開南街","SECT":" ","MAREA":" ","LANE":"２７５巷","ALLEY":"１４弄","HOUSE_NO":"２２號","E_COORD97":171057.91,"N_COORD97":2545131.3500000001,"ADDRESS":"開南街２７５巷１４弄２２號","OBJECTID":107960},"geometry":{"x":171057.91000000015,"y":2545131.3500000015}},{"attributes":{"ID":107961,"DIS_CODE":0,"TOWNNAME":"北區","LI":"力行里","LIN":"9鄰","STREET":"開南街","SECT":" ","MAREA":" ","LANE":"２７５巷","ALLEY":"１４弄","HOUSE_NO":"２３號","E_COORD97":171039.72,"N_COORD97":2545144.6899999999,"ADDRESS":"開南街２７５巷１４弄２３號","OBJECTID":107961},"geometry":{"x":171039.72000000067,"y":2545144.6900000032}},{"attributes":{"ID":107962,"DIS_CODE":0,"TOWNNAME":"北區","LI":"力行里","LIN":"9鄰","STREET":"開南街","SECT":" ","MAREA":" ","LANE":"２７５巷","ALLEY":"１４弄","HOUSE_NO":"２４號","E_COORD97":171057.14999999999,"N_COORD97":2545127.75,"ADDRESS":"開南街２７５巷１４弄２４號","OBJECTID":107962},"geometry":{"x":171057.15000000224,"y":2545127.7500000037}},{"attributes":{"ID":107963,"DIS_CODE":0,"TOWNNAME":"北區","LI":"力行里","LIN":"9鄰","STREET":"開南街","SECT":" ","MAREA":" ","LANE":"２７５巷","ALLEY":"１４弄","HOUSE_NO":"２５號","E_COORD97":171059.42999999999,"N_COORD97":2545142.52,"ADDRESS":"開南街２７５巷１４弄２５號","OBJECTID":107963},"geometry":{"x":171059.4299999997,"y":2545142.5200000033}},{"attributes":{"ID":107964,"DIS_CODE":0,"TOWNNAME":"北區","LI":"力行里","LIN":"9鄰","STREET":"開南街","SECT":" ","MAREA":" ","LANE":"２７５巷","ALLEY":"１４弄","HOUSE_NO":"２６號","E_COORD97":171056.95999999999,"N_COORD97":2545124.9100000001,"ADDRESS":"開南街２７５巷１４弄２６號","OBJECTID":107964},"geometry":{"x":171056.96000000089,"y":2545124.910000002}},{"attributes":{"ID":107965,"DIS_CODE":0,"TOWNNAME":"北區","LI":"力行里","LIN":"9鄰","STREET":"開南街","SECT":" ","MAREA":" ","LANE":"２７５巷","ALLEY":"１４弄","HOUSE_NO":"２７號","E_COORD97":171060,"N_COORD97":2545147.0600000001,"ADDRESS":"開南街２７５巷１４弄２７號","OBJECTID":107965},"geometry":{"x":171060.00000000093,"y":2545147.0600000024}},{"attributes":{"ID":107966,"DIS_CODE":0,"TOWNNAME":"玉井區","LI":"豐里里","LIN":"9鄰","STREET":" ","SECT":" ","MAREA":"豐里","LANE":" ","ALLEY":" ","HOUSE_NO":"８９之８號","E_COORD97":192118.17000000001,"N_COORD97":2559710.2999999998,"ADDRESS":"豐里８９之８號","OBJECTID":107966},"geometry":{"x":192118.17000000086,"y":2559710.3000000045}},{"attributes":{"ID":107967,"DIS_CODE":0,"TOWNNAME":"北區","LI":"力行里","LIN":"9鄰","STREET":"開南街","SECT":" ","MAREA":" ","LANE":"２７５巷","ALLEY":"１４弄","HOUSE_NO":"２８號","E_COORD97":171056.20000000001,"N_COORD97":2545120.1699999999,"ADDRESS":"開南街２７５巷１４弄２８號","OBJECTID":107967},"geometry":{"x":171056.20000000019,"y":2545120.1699999999}},{"attributes":{"ID":107968,"DIS_CODE":0,"TOWNNAME":"北區","LI":"力行里","LIN":"9鄰","STREET":"開南街","SECT":" ","MAREA":" ","LANE":"２７５巷","ALLEY":"１４弄","HOUSE_NO":"２９號","E_COORD97":171060.57999999999,"N_COORD97":2545151.5099999998,"ADDRESS":"開南街２７５巷１４弄２９號","OBJECTID":107968},"geometry":{"x":171060.58000000007,"y":2545151.5099999998}},{"attributes":{"ID":107969,"DIS_CODE":0,"TOWNNAME":"北區","LI":"力行里","LIN":"9鄰","STREET":"開南街","SECT":" ","MAREA":" ","LANE":"２７５巷","ALLEY":"１４弄","HOUSE_NO":"２號","E_COORD97":170986.82000000001,"N_COORD97":2545135.4100000001,"ADDRESS":"開南街２７５巷１４弄２號","OBJECTID":107969},"geometry":{"x":170986.82000000123,"y":2545135.4100000001}},{"attributes":{"ID":107970,"DIS_CODE":0,"TOWNNAME":"下營區","LI":"仁里里","LIN":"1鄰","STREET":"仁南街","SECT":" ","MAREA":" ","LANE":" ","ALLEY":" ","HOUSE_NO":"２號","E_COORD97":174650.60999999999,"N_COORD97":2569713.7799999998,"ADDRESS":"仁南街２號","OBJECTID":107970},"geometry":{"x":174650.61000000034,"y":2569713.7799999975}},{"attributes":{"ID":107971,"DIS_CODE":0,"TOWNNAME":"玉井區","LI":"望明里","LIN":"9鄰","STREET":" ","SECT":" ","MAREA":"劉陳","LANE":" ","ALLEY":" ","HOUSE_NO":"１０號","E_COORD97":193419.39999999999,"N_COORD97":2555990.2400000002,"ADDRESS":"劉陳１０號","OBJECTID":107971},"geometry":{"x":193419.40000000037,"y":2555990.2400000002}},{"attributes":{"ID":107972,"DIS_CODE":0,"TOWNNAME":"玉井區","LI":"三和里","LIN":"9鄰","STREET":" ","SECT":" ","MAREA":"三和","LANE":" ","ALLEY":" ","HOUSE_NO":"１１２號","E_COORD97":196006.69,"N_COORD97":2555042.25,"ADDRESS":"三和１１２號","OBJECTID":107972},"geometry":{"x":196006.68999999948,"y":2555042.2500000019}},{"attributes":{"ID":107973,"DIS_CODE":0,"TOWNNAME":"玉井區","LI":"三和里","LIN":"9鄰","STREET":" ","SECT":" ","MAREA":"三和","LANE":" ","ALLEY":" ","HOUSE_NO":"１１１號","E_COORD97":196025.17999999999,"N_COORD97":2555055.2400000002,"ADDRESS":"三和１１１號","OBJECTID":107973},"geometry":{"x":196025.18000000063,"y":2555055.2400000039}},{"attributes":{"ID":107974,"DIS_CODE":0,"TOWNNAME":"玉井區","LI":"三和里","LIN":"9鄰","STREET":" ","SECT":" ","MAREA":"三和","LANE":" ","ALLEY":" ","HOUSE_NO":"１０６號","E_COORD97":196009.79999999999,"N_COORD97":2555088.2400000002,"ADDRESS":"三和１０６號","OBJECTID":107974},"geometry":{"x":196009.79999999981,"y":2555088.2400000002}},{"attributes":{"ID":107975,"DIS_CODE":0,"TOWNNAME":"玉井區","LI":"三和里","LIN":"9鄰","STREET":" ","SECT":" ","MAREA":"三和","LANE":" ","ALLEY":" ","HOUSE_NO":"１１３號","E_COORD97":195977.79000000001,"N_COORD97":2555048.25,"ADDRESS":"三和１１３號","OBJECTID":107975},"geometry":{"x":195977.79000000004,"y":2555048.2500000037}},{"attributes":{"ID":107976,"DIS_CODE":0,"TOWNNAME":"玉井區","LI":"中正里","LIN":"9鄰","STREET":" ","SECT":" ","MAREA":"中正","LANE":" ","ALLEY":" ","HOUSE_NO":"９７之３號","E_COORD97":195417.85000000001,"N_COORD97":2559508.29,"ADDRESS":"中正９７之３號","OBJECTID":107976},"geometry":{"x":195417.84999999963,"y":2559508.2899999991}},{"attributes":{"ID":107977,"DIS_CODE":0,"TOWNNAME":"玉井區","LI":"三和里","LIN":"9鄰","STREET":" ","SECT":" ","MAREA":"三和","LANE":" ","ALLEY":" ","HOUSE_NO":"１１４號","E_COORD97":195992.79999999999,"N_COORD97":2555048.25,"ADDRESS":"三和１１４號","OBJECTID":107977},"geometry":{"x":195992.79999999981,"y":2555048.2500000037}},{"attributes":{"ID":107978,"DIS_CODE":0,"TOWNNAME":"玉井區","LI":"中正里","LIN":"9鄰","STREET":" ","SECT":" ","MAREA":"中正","LANE":" ","ALLEY":" ","HOUSE_NO":"９７之２３號","E_COORD97":194826.60000000001,"N_COORD97":2559341.29,"ADDRESS":"中正９７之２３號","OBJECTID":107978},"geometry":{"x":194826.5999999987,"y":2559341.2899999991}},{"attributes":{"ID":107979,"DIS_CODE":0,"TOWNNAME":"玉井區","LI":"三埔里","LIN":"9鄰","STREET":" ","SECT":" ","MAREA":"三埔","LANE":" ","ALLEY":" ","HOUSE_NO":"１０１號","E_COORD97":198651.09,"N_COORD97":2555018.25,"ADDRESS":"三埔１０１號","OBJECTID":107979},"geometry":{"x":198651.08999999985,"y":2555018.2500000019}},{"attributes":{"ID":107980,"DIS_CODE":0,"TOWNNAME":"玉井區","LI":"豐里里","LIN":"9鄰","STREET":" ","SECT":" ","MAREA":"豐里","LANE":" ","ALLEY":" ","HOUSE_NO":"９１之５號","E_COORD97":192628.98000000001,"N_COORD97":2559673.2799999998,"ADDRESS":"豐里９１之５號","OBJECTID":107980},"geometry":{"x":192628.98000000045,"y":2559673.2800000012}},{"attributes":{"ID":107981,"DIS_CODE":0,"TOWNNAME":"玉井區","LI":"豐里里","LIN":"9鄰","STREET":" ","SECT":" ","MAREA":"豐里","LANE":" ","ALLEY":" ","HOUSE_NO":"９３之３號","E_COORD97":192791.10000000001,"N_COORD97":2559592.3999999999,"ADDRESS":"豐里９３之３號","OBJECTID":107981},"geometry":{"x":192791.10000000056,"y":2559592.4000000004}},{"attributes":{"ID":107982,"DIS_CODE":0,"TOWNNAME":"六甲區","LI":"菁埔里","LIN":"9鄰","STREET":" ","SECT":" ","MAREA":"菁埔寮","LANE":" ","ALLEY":" ","HOUSE_NO":"４２號","E_COORD97":177518.85000000001,"N_COORD97":2569996.9399999999,"ADDRESS":"菁埔寮４２號","OBJECTID":107982},"geometry":{"x":177518.85000000149,"y":2569996.9399999995}},{"attributes":{"ID":107983,"DIS_CODE":0,"TOWNNAME":"六甲區","LI":"菁埔里","LIN":"9鄰","STREET":" ","SECT":" ","MAREA":"菁埔寮","LANE":" ","ALLEY":" ","HOUSE_NO":"４３號","E_COORD97":177488.17999999999,"N_COORD97":2569970.02,"ADDRESS":"菁埔寮４３號","OBJECTID":107983},"geometry":{"x":177488.18000000063,"y":2569970.0199999977}},{"attributes":{"ID":107984,"DIS_CODE":0,"TOWNNAME":"六甲區","LI":"菁埔里","LIN":"9鄰","STREET":" ","SECT":" ","MAREA":"菁埔寮","LANE":" ","ALLEY":" ","HOUSE_NO":"４５號","E_COORD97":177461.78,"N_COORD97":2569965.1899999999,"ADDRESS":"菁埔寮４５號","OBJECTID":107984},"geometry":{"x":177461.78000000026,"y":2569965.1899999995}},{"attributes":{"ID":107985,"DIS_CODE":0,"TOWNNAME":"六甲區","LI":"菁埔里","LIN":"9鄰","STREET":" ","SECT":" ","MAREA":"菁埔寮","LANE":" ","ALLEY":" ","HOUSE_NO":"５０號","E_COORD97":177482.79999999999,"N_COORD97":2570025.8799999999,"ADDRESS":"菁埔寮５０號","OBJECTID":107985},"geometry":{"x":177482.80000000075,"y":2570025.8800000008}},{"attributes":{"ID":107986,"DIS_CODE":0,"TOWNNAME":"六甲區","LI":"菁埔里","LIN":"9鄰","STREET":" ","SECT":" ","MAREA":"菁埔寮","LANE":" ","ALLEY":" ","HOUSE_NO":"５２號","E_COORD97":177464.85000000001,"N_COORD97":2570018.8599999999,"ADDRESS":"菁埔寮５２號","OBJECTID":107986},"geometry":{"x":177464.85000000056,"y":2570018.8600000031}},{"attributes":{"ID":107987,"DIS_CODE":0,"TOWNNAME":"六甲區","LI":"菁埔里","LIN":"9鄰","STREET":" ","SECT":" ","MAREA":"菁埔寮","LANE":" ","ALLEY":" ","HOUSE_NO":"５８號","E_COORD97":177465.79000000001,"N_COORD97":2570045.4300000002,"ADDRESS":"菁埔寮５８號","OBJECTID":107987},"geometry":{"x":177465.79000000097,"y":2570045.4300000034}},{"attributes":{"ID":107988,"DIS_CODE":0,"TOWNNAME":"六甲區","LI":"菁埔里","LIN":"9鄰","STREET":" ","SECT":" ","MAREA":"菁埔寮","LANE":" ","ALLEY":" ","HOUSE_NO":"６０號","E_COORD97":177463.70000000001,"N_COORD97":2570051.1099999999,"ADDRESS":"菁埔寮６０號","OBJECTID":107988},"geometry":{"x":177463.70000000019,"y":2570051.1100000013}},{"attributes":{"ID":107989,"DIS_CODE":0,"TOWNNAME":"六甲區","LI":"菁埔里","LIN":"9鄰","STREET":" ","SECT":" ","MAREA":"菁埔寮","LANE":" ","ALLEY":" ","HOUSE_NO":"７０號","E_COORD97":177460.79000000001,"N_COORD97":2570058.0899999999,"ADDRESS":"菁埔寮７０號","OBJECTID":107989},"geometry":{"x":177460.79000000097,"y":2570058.0900000036}},{"attributes":{"ID":107990,"DIS_CODE":0,"TOWNNAME":"麻豆區","LI":"安業里","LIN":"9鄰","STREET":" ","SECT":" ","MAREA":"安業","LANE":" ","ALLEY":" ","HOUSE_NO":"１６１號","E_COORD97":172545.39000000001,"N_COORD97":2562099.6299999999,"ADDRESS":"安業１６１號","OBJECTID":107990},"geometry":{"x":172545.3900000006,"y":2562099.6300000027}},{"attributes":{"ID":107991,"DIS_CODE":0,"TOWNNAME":"麻豆區","LI":"安業里","LIN":"9鄰","STREET":" ","SECT":" ","MAREA":"安業","LANE":" ","ALLEY":" ","HOUSE_NO":"１６２號","E_COORD97":172548.01999999999,"N_COORD97":2562083.8199999998,"ADDRESS":"安業１６２號","OBJECTID":107991},"geometry":{"x":172548.02000000048,"y":2562083.8200000022}},{"attributes":{"ID":107992,"DIS_CODE":0,"TOWNNAME":"麻豆區","LI":"安業里","LIN":"9鄰","STREET":" ","SECT":" ","MAREA":"安業","LANE":" ","ALLEY":" ","HOUSE_NO":"１６３號","E_COORD97":172531.01999999999,"N_COORD97":2562100.1600000001,"ADDRESS":"安業１６３號","OBJECTID":107992},"geometry":{"x":172531.02000000048,"y":2562100.1600000001}},{"attributes":{"ID":107993,"DIS_CODE":0,"TOWNNAME":"麻豆區","LI":"安業里","LIN":"9鄰","STREET":" ","SECT":" ","MAREA":"安業","LANE":" ","ALLEY":" ","HOUSE_NO":"１６４號","E_COORD97":172529.41,"N_COORD97":2562057.4399999999,"ADDRESS":"安業１６４號","OBJECTID":107993},"geometry":{"x":172529.41000000015,"y":2562057.4400000032}},{"attributes":{"ID":107994,"DIS_CODE":0,"TOWNNAME":"麻豆區","LI":"安業里","LIN":"9鄰","STREET":" ","SECT":" ","MAREA":"安業","LANE":" ","ALLEY":" ","HOUSE_NO":"１６６號","E_COORD97":172585.53,"N_COORD97":2562045.2200000002,"ADDRESS":"安業１６６號","OBJECTID":107994},"geometry":{"x":172585.53000000119,"y":2562045.2200000007}},{"attributes":{"ID":107995,"DIS_CODE":0,"TOWNNAME":"麻豆區","LI":"安業里","LIN":"9鄰","STREET":" ","SECT":" ","MAREA":"安業","LANE":" ","ALLEY":" ","HOUSE_NO":"１６７號","E_COORD97":172571.5,"N_COORD97":2562055.48,"ADDRESS":"安業１６７號","OBJECTID":107995},"geometry":{"x":172571.49999999907,"y":2562055.4800000023}},{"attributes":{"ID":107996,"DIS_CODE":0,"TOWNNAME":"麻豆區","LI":"安業里","LIN":"9鄰","STREET":" ","SECT":" ","MAREA":"安業","LANE":" ","ALLEY":" ","HOUSE_NO":"１６８號","E_COORD97":172542.60999999999,"N_COORD97":2562040.5899999999,"ADDRESS":"安業１６８號","OBJECTID":107996},"geometry":{"x":172542.61000000127,"y":2562040.5900000017}},{"attributes":{"ID":107997,"DIS_CODE":0,"TOWNNAME":"麻豆區","LI":"安業里","LIN":"9鄰","STREET":" ","SECT":" ","MAREA":"安業","LANE":" ","ALLEY":" ","HOUSE_NO":"１６９號","E_COORD97":172584.51000000001,"N_COORD97":2562058.25,"ADDRESS":"安業１６９號","OBJECTID":107997},"geometry":{"x":172584.50999999978,"y":2562058.25}},{"attributes":{"ID":107998,"DIS_CODE":0,"TOWNNAME":"麻豆區","LI":"安業里","LIN":"9鄰","STREET":" ","SECT":" ","MAREA":"安業","LANE":" ","ALLEY":" ","HOUSE_NO":"１７０號","E_COORD97":172565.03,"N_COORD97":2562027.1099999999,"ADDRESS":"安業１７０號","OBJECTID":107998},"geometry":{"x":172565.03000000212,"y":2562027.1100000013}},{"attributes":{"ID":107999,"DIS_CODE":0,"TOWNNAME":"麻豆區","LI":"安業里","LIN":"9鄰","STREET":" ","SECT":" ","MAREA":"安業","LANE":" ","ALLEY":" ","HOUSE_NO":"１７２號","E_COORD97":172570.42000000001,"N_COORD97":2562010.3999999999,"ADDRESS":"安業１７２號","OBJECTID":107999},"geometry":{"x":172570.42000000179,"y":2562010.4000000004}},{"attributes":{"ID":108000,"DIS_CODE":0,"TOWNNAME":"麻豆區","LI":"安業里","LIN":"9鄰","STREET":" ","SECT":" ","MAREA":"安業","LANE":" ","ALLEY":" ","HOUSE_NO":"１７３號之１","E_COORD97":172595.23999999999,"N_COORD97":2562004.6499999999,"ADDRESS":"安業１７３號之１","OBJECTID":108000},"geometry":{"x":172595.24000000022,"y":2562004.6500000004}}]}