{"displayFieldName":"TOWNNAME","fieldAliases":{"ID":"ID","DIS_CODE":"DIS_CODE","TOWNNAME":"TOWNNAME","LI":"LI","LIN":"LIN","STREET":"STREET","SECT":"SECT","MAREA":"MAREA","LANE":"LANE","ALLEY":"ALLEY","HOUSE_NO":"HOUSE_NO","E_COORD97":"E_COORD97","N_COORD97":"N_COORD97","ADDRESS":"ADDRESS","OBJECTID":"OBJECTID"},"geometryType":"esriGeometryPoint","spatialReference":{"wkid":102443,"latestWkid":3826},"fields":[{"name":"ID","type":"esriFieldTypeDouble","alias":"ID"},{"name":"DIS_CODE","type":"esriFieldTypeInteger","alias":"DIS_CODE"},{"name":"TOWNNAME","type":"esriFieldTypeString","alias":"TOWNNAME","length":8},{"name":"LI","type":"esriFieldTypeString","alias":"LI","length":8},{"name":"LIN","type":"esriFieldTypeString","alias":"LIN","length":12},{"name":"STREET","type":"esriFieldTypeString","alias":"STREET","length":20},{"name":"SECT","type":"esriFieldTypeString","alias":"SECT","length":8},{"name":"MAREA","type":"esriFieldTypeString","alias":"MAREA","length":12},{"name":"LANE","type":"esriFieldTypeString","alias":"LANE","length":10},{"name":"ALLEY","type":"esriFieldTypeString","alias":"ALLEY","length":10},{"name":"HOUSE_NO","type":"esriFieldTypeString","alias":"HOUSE_NO","length":20},{"name":"E_COORD97","type":"esriFieldTypeDouble","alias":"E_COORD97"},{"name":"N_COORD97","type":"esriFieldTypeDouble","alias":"N_COORD97"},{"name":"ADDRESS","type":"esriFieldTypeString","alias":"ADDRESS","length":50},{"name":"OBJECTID","type":"esriFieldTypeOID","alias":"OBJECTID"}],"features":[{"attributes":{"ID":302009,"DIS_CODE":0,"TOWNNAME":"安平區","LI":"怡平里","LIN":"8鄰","STREET":"慶平路","SECT":" ","MAREA":" ","LANE":"１９３巷","ALLEY":" ","HOUSE_NO":"６號三樓之１","E_COORD97":165789.95999999999,"N_COORD97":2544149.1499999999,"ADDRESS":"慶平路１９３巷６號三樓之１","OBJECTID":302001},"geometry":{"x":165789.96000000089,"y":2544149.1500000041}},{"attributes":{"ID":302010,"DIS_CODE":0,"TOWNNAME":"東區","LI":"裕農里","LIN":"14鄰","STREET":"裕豐街","SECT":" ","MAREA":" ","LANE":" ","ALLEY":" ","HOUSE_NO":"２４４號","E_COORD97":170807.10000000001,"N_COORD97":2543259.8900000001,"ADDRESS":"裕豐街２４４號","OBJECTID":302002},"geometry":{"x":170807.09999999963,"y":2543259.8900000025}},{"attributes":{"ID":302011,"DIS_CODE":0,"TOWNNAME":"北門區","LI":"永華里","LIN":"5鄰","STREET":" ","SECT":" ","MAREA":"井子\u25A0","LANE":" ","ALLEY":" ","HOUSE_NO":"４３號","E_COORD97":159775.69,"N_COORD97":2572863.6200000001,"ADDRESS":"井子\u25A0４３號","OBJECTID":302003},"geometry":{"x":159775.69000000134,"y":2572863.6200000029}},{"attributes":{"ID":302012,"DIS_CODE":0,"TOWNNAME":"北門區","LI":"永隆里","LIN":"1鄰","STREET":" ","SECT":" ","MAREA":"北門","LANE":" ","ALLEY":" ","HOUSE_NO":"１０號","E_COORD97":160334.95999999999,"N_COORD97":2574331.5499999998,"ADDRESS":"北門１０號","OBJECTID":302004},"geometry":{"x":160334.96000000089,"y":2574331.5500000045}},{"attributes":{"ID":302013,"DIS_CODE":0,"TOWNNAME":"北門區","LI":"北門里","LIN":"4鄰","STREET":" ","SECT":" ","MAREA":"北門","LANE":" ","ALLEY":" ","HOUSE_NO":"１７８號","E_COORD97":160188.78,"N_COORD97":2574351.8999999999,"ADDRESS":"北門１７８號","OBJECTID":302005},"geometry":{"x":160188.78000000119,"y":2574351.9000000004}},{"attributes":{"ID":302014,"DIS_CODE":0,"TOWNNAME":"北門區","LI":"北門里","LIN":"4鄰","STREET":" ","SECT":" ","MAREA":"北門","LANE":" ","ALLEY":" ","HOUSE_NO":"１７９號","E_COORD97":160178.48000000001,"N_COORD97":2574360.0099999998,"ADDRESS":"北門１７９號","OBJECTID":302006},"geometry":{"x":160178.48000000045,"y":2574360.0099999998}},{"attributes":{"ID":302015,"DIS_CODE":0,"TOWNNAME":"北門區","LI":"北門里","LIN":"4鄰","STREET":" ","SECT":" ","MAREA":"北門","LANE":" ","ALLEY":" ","HOUSE_NO":"１８０號","E_COORD97":160174.742639,"N_COORD97":2574371.1568999998,"ADDRESS":"北門１８０號","OBJECTID":302007},"geometry":{"x":160174.7426389996,"y":2574371.1568989996}},{"attributes":{"ID":302016,"DIS_CODE":0,"TOWNNAME":"南區","LI":"府南里","LIN":"10鄰","STREET":"永成路","SECT":"三段","MAREA":" ","LANE":"３５７巷","ALLEY":" ","HOUSE_NO":"３６號","E_COORD97":167432.04879299999,"N_COORD97":2541301.39445,"ADDRESS":"永成路三段３５７巷３６號","OBJECTID":302008},"geometry":{"x":167432.04879299924,"y":2541301.3944510017}},{"attributes":{"ID":302017,"DIS_CODE":0,"TOWNNAME":"安南區","LI":"布袋里","LIN":"2鄰","STREET":"長和路","SECT":"四段","MAREA":" ","LANE":"１８４巷","ALLEY":" ","HOUSE_NO":"２４號","E_COORD97":168859.89999999999,"N_COORD97":2551767.7000000002,"ADDRESS":"長和路四段１８４巷２４號","OBJECTID":302009},"geometry":{"x":168859.90000000037,"y":2551767.6999999993}},{"attributes":{"ID":302018,"DIS_CODE":0,"TOWNNAME":"南區","LI":"府南里","LIN":"10鄰","STREET":"永成路","SECT":"三段","MAREA":" ","LANE":"３５７巷","ALLEY":" ","HOUSE_NO":"３８號","E_COORD97":167432.26056699999,"N_COORD97":2541306.4744500001,"ADDRESS":"永成路三段３５７巷３８號","OBJECTID":302010},"geometry":{"x":167432.26056700014,"y":2541306.474448001}},{"attributes":{"ID":302019,"DIS_CODE":0,"TOWNNAME":"永康區","LI":"龍潭里","LIN":"10鄰","STREET":"龍潭街","SECT":" ","MAREA":" ","LANE":"１５１巷","ALLEY":" ","HOUSE_NO":"１６號","E_COORD97":174824.76156300001,"N_COORD97":2548272.0598800001,"ADDRESS":"龍潭街１５１巷１６號","OBJECTID":302011},"geometry":{"x":174824.76156300027,"y":2548272.0598840006}},{"attributes":{"ID":302020,"DIS_CODE":0,"TOWNNAME":"南區","LI":"府南里","LIN":"10鄰","STREET":"永成路","SECT":"三段","MAREA":" ","LANE":"３５７巷","ALLEY":" ","HOUSE_NO":"３８號","E_COORD97":167432.04879299999,"N_COORD97":2541307.1094499999,"ADDRESS":"永成路三段３５７巷３８號","OBJECTID":302012},"geometry":{"x":167432.04879299924,"y":2541307.1094480008}},{"attributes":{"ID":302021,"DIS_CODE":0,"TOWNNAME":"南區","LI":"府南里","LIN":"10鄰","STREET":"永成路","SECT":"三段","MAREA":" ","LANE":"３５７巷","ALLEY":" ","HOUSE_NO":"４０號","E_COORD97":167432.68411599999,"N_COORD97":2541311.3427800001,"ADDRESS":"永成路三段３５７巷４０號","OBJECTID":302013},"geometry":{"x":167432.68411600124,"y":2541311.3427789994}},{"attributes":{"ID":302022,"DIS_CODE":0,"TOWNNAME":"關廟區","LI":"新光里","LIN":"5鄰","STREET":"北寮街","SECT":" ","MAREA":" ","LANE":" ","ALLEY":" ","HOUSE_NO":"３２號","E_COORD97":184089.099368,"N_COORD97":2541838.85402,"ADDRESS":"北寮街３２號","OBJECTID":302014},"geometry":{"x":184089.09936800227,"y":2541838.8540210016}},{"attributes":{"ID":302023,"DIS_CODE":0,"TOWNNAME":"關廟區","LI":"新光里","LIN":"5鄰","STREET":"北寮街","SECT":" ","MAREA":" ","LANE":" ","ALLEY":" ","HOUSE_NO":"５５號","E_COORD97":184115.00075199999,"N_COORD97":2541858.7242200002,"ADDRESS":"北寮街５５號","OBJECTID":302015},"geometry":{"x":184115.000752002,"y":2541858.7242190018}},{"attributes":{"ID":302024,"DIS_CODE":0,"TOWNNAME":"關廟區","LI":"新光里","LIN":"7鄰","STREET":"北寮街","SECT":" ","MAREA":" ","LANE":" ","ALLEY":" ","HOUSE_NO":"１１３號","E_COORD97":184254.30676199999,"N_COORD97":2541935.0564700002,"ADDRESS":"北寮街１１３號","OBJECTID":302016},"geometry":{"x":184254.30676200148,"y":2541935.0564690009}},{"attributes":{"ID":302025,"DIS_CODE":0,"TOWNNAME":"南區","LI":"府南里","LIN":"10鄰","STREET":"永成路","SECT":"三段","MAREA":" ","LANE":" ","ALLEY":" ","HOUSE_NO":"３５５號","E_COORD97":167485.62763,"N_COORD97":2541279.9103000001,"ADDRESS":"永成路三段３５５號","OBJECTID":302017},"geometry":{"x":167485.62763,"y":2541279.9102960024}},{"attributes":{"ID":302026,"DIS_CODE":0,"TOWNNAME":"南區","LI":"府南里","LIN":"10鄰","STREET":"永成路","SECT":"三段","MAREA":" ","LANE":" ","ALLEY":" ","HOUSE_NO":"３５３號","E_COORD97":167485.839404,"N_COORD97":2541275.0419600001,"ADDRESS":"永成路三段３５３號","OBJECTID":302018},"geometry":{"x":167485.8394040009,"y":2541275.0419650003}},{"attributes":{"ID":302027,"DIS_CODE":0,"TOWNNAME":"關廟區","LI":"新光里","LIN":"8鄰","STREET":"北寮街","SECT":" ","MAREA":" ","LANE":" ","ALLEY":" ","HOUSE_NO":"１３８號","E_COORD97":184309.89937,"N_COORD97":2541924.4210100002,"ADDRESS":"北寮街１３８號","OBJECTID":302019},"geometry":{"x":184309.89937000163,"y":2541924.4210110009}},{"attributes":{"ID":302028,"DIS_CODE":0,"TOWNNAME":"南區","LI":"府南里","LIN":"10鄰","STREET":"永成路","SECT":"三段","MAREA":" ","LANE":" ","ALLEY":" ","HOUSE_NO":"３５１號","E_COORD97":167486.051179,"N_COORD97":2541270.27947,"ADDRESS":"永成路三段３５１號","OBJECTID":302020},"geometry":{"x":167486.05117900111,"y":2541270.2794680037}},{"attributes":{"ID":302029,"DIS_CODE":0,"TOWNNAME":"南區","LI":"府南里","LIN":"10鄰","STREET":"永成路","SECT":"三段","MAREA":" ","LANE":" ","ALLEY":" ","HOUSE_NO":"３４９號","E_COORD97":167487.533597,"N_COORD97":2541265.1994699999,"ADDRESS":"永成路三段３４９號","OBJECTID":302021},"geometry":{"x":167487.53359700087,"y":2541265.1994700003}},{"attributes":{"ID":302030,"DIS_CODE":0,"TOWNNAME":"南區","LI":"府南里","LIN":"10鄰","STREET":"永成路","SECT":"三段","MAREA":" ","LANE":" ","ALLEY":" ","HOUSE_NO":"３３９號","E_COORD97":167486.262953,"N_COORD97":2541238.31782,"ADDRESS":"永成路三段３３９號","OBJECTID":302022},"geometry":{"x":167486.26295300107,"y":2541238.3178180028}},{"attributes":{"ID":302031,"DIS_CODE":0,"TOWNNAME":"南區","LI":"府南里","LIN":"10鄰","STREET":"永成路","SECT":"三段","MAREA":" ","LANE":" ","ALLEY":" ","HOUSE_NO":"３３５號","E_COORD97":167486.47472699999,"N_COORD97":2541232.39115,"ADDRESS":"永成路三段３３５號","OBJECTID":302023},"geometry":{"x":167486.47472700011,"y":2541232.3911550026}},{"attributes":{"ID":302032,"DIS_CODE":0,"TOWNNAME":"新營區","LI":"南興里","LIN":"1鄰","STREET":"延平路","SECT":" ","MAREA":" ","LANE":" ","ALLEY":" ","HOUSE_NO":"１１６號之２","E_COORD97":179722.62874399999,"N_COORD97":2577628.8552999999,"ADDRESS":"延平路１１６號之２","OBJECTID":302024},"geometry":{"x":179722.6287440015,"y":2577628.8553000018}},{"attributes":{"ID":302033,"DIS_CODE":0,"TOWNNAME":"新營區","LI":"南興里","LIN":"1鄰","STREET":"延平路","SECT":" ","MAREA":" ","LANE":" ","ALLEY":" ","HOUSE_NO":"１１６號之１","E_COORD97":179719.55645199999,"N_COORD97":2577633.2473800001,"ADDRESS":"延平路１１６號之１","OBJECTID":302025},"geometry":{"x":179719.55645199958,"y":2577633.2473799996}},{"attributes":{"ID":302034,"DIS_CODE":0,"TOWNNAME":"仁德區","LI":"保安里","LIN":"20鄰","STREET":"保安路","SECT":"一段","MAREA":" ","LANE":" ","ALLEY":" ","HOUSE_NO":"８７號","E_COORD97":171113.35611399999,"N_COORD97":2535557.8031100002,"ADDRESS":"保安路一段８７號","OBJECTID":302026},"geometry":{"x":171113.35611400008,"y":2535557.8031130023}},{"attributes":{"ID":302035,"DIS_CODE":0,"TOWNNAME":"安平區","LI":"怡平里","LIN":"8鄰","STREET":"慶平路","SECT":" ","MAREA":" ","LANE":"１９３巷","ALLEY":" ","HOUSE_NO":"６號三樓之１０","E_COORD97":165789.95999999999,"N_COORD97":2544149.1499999999,"ADDRESS":"慶平路１９３巷６號三樓之１０","OBJECTID":302027},"geometry":{"x":165789.96000000089,"y":2544149.1500000041}},{"attributes":{"ID":302036,"DIS_CODE":0,"TOWNNAME":"安平區","LI":"怡平里","LIN":"8鄰","STREET":"慶平路","SECT":" ","MAREA":" ","LANE":"１９３巷","ALLEY":" ","HOUSE_NO":"６號三樓之１１","E_COORD97":165789.95999999999,"N_COORD97":2544149.1499999999,"ADDRESS":"慶平路１９３巷６號三樓之１１","OBJECTID":302028},"geometry":{"x":165789.96000000089,"y":2544149.1500000041}},{"attributes":{"ID":302037,"DIS_CODE":0,"TOWNNAME":"新市區","LI":"大營里","LIN":"5鄰","STREET":" ","SECT":" ","MAREA":"大營","LANE":" ","ALLEY":" ","HOUSE_NO":"６５之１號","E_COORD97":179492.48000000001,"N_COORD97":2555620.5499999998,"ADDRESS":"大營６５之１號","OBJECTID":302029},"geometry":{"x":179492.48000000138,"y":2555620.5500000026}},{"attributes":{"ID":302038,"DIS_CODE":0,"TOWNNAME":"安平區","LI":"怡平里","LIN":"8鄰","STREET":"慶平路","SECT":" ","MAREA":" ","LANE":"１９３巷","ALLEY":" ","HOUSE_NO":"６號三樓之１２","E_COORD97":165789.95999999999,"N_COORD97":2544149.1499999999,"ADDRESS":"慶平路１９３巷６號三樓之１２","OBJECTID":302030},"geometry":{"x":165789.96000000089,"y":2544149.1500000041}},{"attributes":{"ID":302039,"DIS_CODE":0,"TOWNNAME":"安平區","LI":"怡平里","LIN":"8鄰","STREET":"慶平路","SECT":" ","MAREA":" ","LANE":"１９３巷","ALLEY":" ","HOUSE_NO":"６號三樓之１３","E_COORD97":165789.95999999999,"N_COORD97":2544149.1499999999,"ADDRESS":"慶平路１９３巷６號三樓之１３","OBJECTID":302031},"geometry":{"x":165789.96000000089,"y":2544149.1500000041}},{"attributes":{"ID":302040,"DIS_CODE":0,"TOWNNAME":"仁德區","LI":"保安里","LIN":"18鄰","STREET":"中正路","SECT":"一段","MAREA":" ","LANE":" ","ALLEY":" ","HOUSE_NO":"９３之１號","E_COORD97":171163.82852000001,"N_COORD97":2535568.38644,"ADDRESS":"中正路一段９３之１號","OBJECTID":302032},"geometry":{"x":171163.82852000091,"y":2535568.3864399996}},{"attributes":{"ID":302041,"DIS_CODE":0,"TOWNNAME":"安平區","LI":"怡平里","LIN":"8鄰","STREET":"慶平路","SECT":" ","MAREA":" ","LANE":"１９３巷","ALLEY":" ","HOUSE_NO":"６號三樓之２","E_COORD97":165789.95999999999,"N_COORD97":2544149.1499999999,"ADDRESS":"慶平路１９３巷６號三樓之２","OBJECTID":302033},"geometry":{"x":165789.96000000089,"y":2544149.1500000041}},{"attributes":{"ID":302042,"DIS_CODE":0,"TOWNNAME":"安平區","LI":"怡平里","LIN":"8鄰","STREET":"慶平路","SECT":" ","MAREA":" ","LANE":"１９３巷","ALLEY":" ","HOUSE_NO":"６號三樓之３","E_COORD97":165789.95999999999,"N_COORD97":2544149.1499999999,"ADDRESS":"慶平路１９３巷６號三樓之３","OBJECTID":302034},"geometry":{"x":165789.96000000089,"y":2544149.1500000041}},{"attributes":{"ID":302043,"DIS_CODE":0,"TOWNNAME":"安平區","LI":"怡平里","LIN":"8鄰","STREET":"慶平路","SECT":" ","MAREA":" ","LANE":"１９３巷","ALLEY":" ","HOUSE_NO":"６號三樓之４","E_COORD97":165789.95999999999,"N_COORD97":2544149.1499999999,"ADDRESS":"慶平路１９３巷６號三樓之４","OBJECTID":302035},"geometry":{"x":165789.96000000089,"y":2544149.1500000041}},{"attributes":{"ID":302044,"DIS_CODE":0,"TOWNNAME":"安平區","LI":"怡平里","LIN":"8鄰","STREET":"慶平路","SECT":" ","MAREA":" ","LANE":"１９３巷","ALLEY":" ","HOUSE_NO":"６號三樓之５","E_COORD97":165789.95999999999,"N_COORD97":2544149.1499999999,"ADDRESS":"慶平路１９３巷６號三樓之５","OBJECTID":302036},"geometry":{"x":165789.96000000089,"y":2544149.1500000041}},{"attributes":{"ID":302045,"DIS_CODE":0,"TOWNNAME":"安平區","LI":"怡平里","LIN":"8鄰","STREET":"慶平路","SECT":" ","MAREA":" ","LANE":"１９３巷","ALLEY":" ","HOUSE_NO":"６號三樓之６","E_COORD97":165789.95999999999,"N_COORD97":2544149.1499999999,"ADDRESS":"慶平路１９３巷６號三樓之６","OBJECTID":302037},"geometry":{"x":165789.96000000089,"y":2544149.1500000041}},{"attributes":{"ID":302046,"DIS_CODE":0,"TOWNNAME":"安平區","LI":"怡平里","LIN":"8鄰","STREET":"慶平路","SECT":" ","MAREA":" ","LANE":"１９３巷","ALLEY":" ","HOUSE_NO":"６號三樓之７","E_COORD97":165789.95999999999,"N_COORD97":2544149.1499999999,"ADDRESS":"慶平路１９３巷６號三樓之７","OBJECTID":302038},"geometry":{"x":165789.96000000089,"y":2544149.1500000041}},{"attributes":{"ID":302047,"DIS_CODE":0,"TOWNNAME":"安平區","LI":"怡平里","LIN":"8鄰","STREET":"慶平路","SECT":" ","MAREA":" ","LANE":"１９３巷","ALLEY":" ","HOUSE_NO":"６號三樓之８","E_COORD97":165789.95999999999,"N_COORD97":2544149.1499999999,"ADDRESS":"慶平路１９３巷６號三樓之８","OBJECTID":302039},"geometry":{"x":165789.96000000089,"y":2544149.1500000041}},{"attributes":{"ID":302048,"DIS_CODE":0,"TOWNNAME":"安平區","LI":"怡平里","LIN":"8鄰","STREET":"慶平路","SECT":" ","MAREA":" ","LANE":"１９３巷","ALLEY":" ","HOUSE_NO":"６號三樓之９","E_COORD97":165789.95999999999,"N_COORD97":2544149.1499999999,"ADDRESS":"慶平路１９３巷６號三樓之９","OBJECTID":302040},"geometry":{"x":165789.96000000089,"y":2544149.1500000041}},{"attributes":{"ID":302049,"DIS_CODE":0,"TOWNNAME":"北門區","LI":"永隆里","LIN":"2鄰","STREET":" ","SECT":" ","MAREA":"北門","LANE":" ","ALLEY":" ","HOUSE_NO":"２５號","E_COORD97":160344.10000000001,"N_COORD97":2574381.2400000002,"ADDRESS":"北門２５號","OBJECTID":302041},"geometry":{"x":160344.09999999963,"y":2574381.2400000021}},{"attributes":{"ID":302050,"DIS_CODE":0,"TOWNNAME":"山上區","LI":"明和里","LIN":"23鄰","STREET":" ","SECT":" ","MAREA":"北勢洲","LANE":" ","ALLEY":" ","HOUSE_NO":"５８之６號","E_COORD97":182150.212891,"N_COORD97":2556611.3934599999,"ADDRESS":"北勢洲５８之６號","OBJECTID":302042},"geometry":{"x":182150.21289099939,"y":2556611.3934570011}},{"attributes":{"ID":302051,"DIS_CODE":0,"TOWNNAME":"仁德區","LI":"保安里","LIN":"16鄰","STREET":"中正路","SECT":"一段","MAREA":" ","LANE":"１２５巷","ALLEY":" ","HOUSE_NO":"１６２號","E_COORD97":171191.78956999999,"N_COORD97":2535667.8697199998,"ADDRESS":"中正路一段１２５巷１６２號","OBJECTID":302043},"geometry":{"x":171191.78957000002,"y":2535667.8697200026}},{"attributes":{"ID":302052,"DIS_CODE":0,"TOWNNAME":"仁德區","LI":"太子里","LIN":"27鄰","STREET":"太子四街","SECT":" ","MAREA":" ","LANE":"５巷","ALLEY":" ","HOUSE_NO":"２號","E_COORD97":173191.54066,"N_COORD97":2543319.6279500001,"ADDRESS":"太子四街５巷２號","OBJECTID":302044},"geometry":{"x":173191.54066000041,"y":2543319.6279499996}},{"attributes":{"ID":302053,"DIS_CODE":0,"TOWNNAME":"仁德區","LI":"太子里","LIN":"27鄰","STREET":"太子四街","SECT":" ","MAREA":" ","LANE":"５巷","ALLEY":" ","HOUSE_NO":"９號","E_COORD97":173210.60014600001,"N_COORD97":2543344.0754499999,"ADDRESS":"太子四街５巷９號","OBJECTID":302045},"geometry":{"x":173210.6001460012,"y":2543344.0754460003}},{"attributes":{"ID":302054,"DIS_CODE":0,"TOWNNAME":"仁德區","LI":"太子里","LIN":"27鄰","STREET":"太子四街","SECT":" ","MAREA":" ","LANE":"５巷","ALLEY":" ","HOUSE_NO":"１號","E_COORD97":173166.98000000001,"N_COORD97":2543341.7599999998,"ADDRESS":"太子四街５巷１號","OBJECTID":302046},"geometry":{"x":173166.98000000045,"y":2543341.7600000016}},{"attributes":{"ID":302055,"DIS_CODE":0,"TOWNNAME":"山上區","LI":"明和里","LIN":"21鄰","STREET":" ","SECT":" ","MAREA":"北勢洲","LANE":" ","ALLEY":" ","HOUSE_NO":"１６之３號","E_COORD97":182320.91464,"N_COORD97":2557466.8969299998,"ADDRESS":"北勢洲１６之３號","OBJECTID":302047},"geometry":{"x":182320.91464000195,"y":2557466.896927001}},{"attributes":{"ID":302056,"DIS_CODE":0,"TOWNNAME":"北門區","LI":"永隆里","LIN":"4鄰","STREET":" ","SECT":" ","MAREA":"北門","LANE":" ","ALLEY":" ","HOUSE_NO":"５０號","E_COORD97":160272.89000000001,"N_COORD97":2574395.9700000002,"ADDRESS":"北門５０號","OBJECTID":302048},"geometry":{"x":160272.88999999966,"y":2574395.9699999988}},{"attributes":{"ID":302057,"DIS_CODE":0,"TOWNNAME":"北門區","LI":"永隆里","LIN":"4鄰","STREET":" ","SECT":" ","MAREA":"北門","LANE":" ","ALLEY":" ","HOUSE_NO":"５１號","E_COORD97":160267.01999999999,"N_COORD97":2574404.2999999998,"ADDRESS":"北門５１號","OBJECTID":302049},"geometry":{"x":160267.01999999955,"y":2574404.3000000045}},{"attributes":{"ID":302058,"DIS_CODE":0,"TOWNNAME":"北門區","LI":"永隆里","LIN":"4鄰","STREET":" ","SECT":" ","MAREA":"北門","LANE":" ","ALLEY":" ","HOUSE_NO":"５２號","E_COORD97":160291,"N_COORD97":2574412.29,"ADDRESS":"北門５２號","OBJECTID":302050},"geometry":{"x":160291,"y":2574412.2899999991}},{"attributes":{"ID":302059,"DIS_CODE":0,"TOWNNAME":"北門區","LI":"永隆里","LIN":"4鄰","STREET":" ","SECT":" ","MAREA":"北門","LANE":" ","ALLEY":" ","HOUSE_NO":"５３號","E_COORD97":160282.35999999999,"N_COORD97":2574422.4199999999,"ADDRESS":"北門５３號","OBJECTID":302051},"geometry":{"x":160282.36000000034,"y":2574422.4199999999}},{"attributes":{"ID":302060,"DIS_CODE":0,"TOWNNAME":"北門區","LI":"永隆里","LIN":"4鄰","STREET":" ","SECT":" ","MAREA":"北門","LANE":" ","ALLEY":" ","HOUSE_NO":"５４號","E_COORD97":160292.54999999999,"N_COORD97":2574431.21,"ADDRESS":"北門５４號","OBJECTID":302052},"geometry":{"x":160292.54999999981,"y":2574431.2100000009}},{"attributes":{"ID":302061,"DIS_CODE":0,"TOWNNAME":"永康區","LI":"復華里","LIN":"31鄰","STREET":"復國一路","SECT":" ","MAREA":" ","LANE":"５８６巷","ALLEY":" ","HOUSE_NO":"７號","E_COORD97":172499.52703,"N_COORD97":2546360.81073,"ADDRESS":"復國一路５８６巷７號","OBJECTID":302053},"geometry":{"x":172499.52703000046,"y":2546360.8107320033}},{"attributes":{"ID":302062,"DIS_CODE":0,"TOWNNAME":"仁德區","LI":"太子里","LIN":"27鄰","STREET":"大發路","SECT":" ","MAREA":" ","LANE":" ","ALLEY":" ","HOUSE_NO":"４３０號","E_COORD97":173294.26000000001,"N_COORD97":2543411.52,"ADDRESS":"大發路４３０號","OBJECTID":302054},"geometry":{"x":173294.26000000071,"y":2543411.5200000014}},{"attributes":{"ID":302063,"DIS_CODE":0,"TOWNNAME":"仁德區","LI":"太子里","LIN":"27鄰","STREET":"大吉路","SECT":" ","MAREA":" ","LANE":" ","ALLEY":" ","HOUSE_NO":"３９號","E_COORD97":173668.23942900001,"N_COORD97":2543295.6831800002,"ADDRESS":"大吉路３９號","OBJECTID":302055},"geometry":{"x":173668.23942900077,"y":2543295.6831800025}},{"attributes":{"ID":302064,"DIS_CODE":0,"TOWNNAME":"下營區","LI":"營前里","LIN":"24鄰","STREET":"民權二街","SECT":" ","MAREA":" ","LANE":" ","ALLEY":" ","HOUSE_NO":"５６號","E_COORD97":174604.41053600001,"N_COORD97":2570098.0614200002,"ADDRESS":"民權二街５６號","OBJECTID":302056},"geometry":{"x":174604.41053599957,"y":2570098.0614240021}},{"attributes":{"ID":302065,"DIS_CODE":0,"TOWNNAME":"仁德區","LI":"大甲里","LIN":"12鄰","STREET":"行大一街","SECT":" ","MAREA":" ","LANE":" ","ALLEY":" ","HOUSE_NO":"３４３號","E_COORD97":169529.493261,"N_COORD97":2535031.2118299999,"ADDRESS":"行大一街３４３號","OBJECTID":302057},"geometry":{"x":169529.49326100014,"y":2535031.2118300013}},{"attributes":{"ID":302066,"DIS_CODE":0,"TOWNNAME":"安平區","LI":"怡平里","LIN":"8鄰","STREET":"慶平路","SECT":" ","MAREA":" ","LANE":"１９３巷","ALLEY":" ","HOUSE_NO":"６號五樓之１","E_COORD97":165789.95999999999,"N_COORD97":2544149.1499999999,"ADDRESS":"慶平路１９３巷６號五樓之１","OBJECTID":302058},"geometry":{"x":165789.96000000089,"y":2544149.1500000041}},{"attributes":{"ID":302067,"DIS_CODE":0,"TOWNNAME":"安平區","LI":"怡平里","LIN":"8鄰","STREET":"慶平路","SECT":" ","MAREA":" ","LANE":"１９３巷","ALLEY":" ","HOUSE_NO":"６號五樓之１０","E_COORD97":165789.95999999999,"N_COORD97":2544149.1499999999,"ADDRESS":"慶平路１９３巷６號五樓之１０","OBJECTID":302059},"geometry":{"x":165789.96000000089,"y":2544149.1500000041}},{"attributes":{"ID":302068,"DIS_CODE":0,"TOWNNAME":"安平區","LI":"怡平里","LIN":"8鄰","STREET":"慶平路","SECT":" ","MAREA":" ","LANE":"１９３巷","ALLEY":" ","HOUSE_NO":"６號五樓之１１","E_COORD97":165789.95999999999,"N_COORD97":2544149.1499999999,"ADDRESS":"慶平路１９３巷６號五樓之１１","OBJECTID":302060},"geometry":{"x":165789.96000000089,"y":2544149.1500000041}},{"attributes":{"ID":302069,"DIS_CODE":0,"TOWNNAME":"安平區","LI":"怡平里","LIN":"8鄰","STREET":"慶平路","SECT":" ","MAREA":" ","LANE":"１９３巷","ALLEY":" ","HOUSE_NO":"６號五樓之１２","E_COORD97":165789.95999999999,"N_COORD97":2544149.1499999999,"ADDRESS":"慶平路１９３巷６號五樓之１２","OBJECTID":302061},"geometry":{"x":165789.96000000089,"y":2544149.1500000041}},{"attributes":{"ID":302070,"DIS_CODE":0,"TOWNNAME":"安平區","LI":"怡平里","LIN":"8鄰","STREET":"慶平路","SECT":" ","MAREA":" ","LANE":"１９３巷","ALLEY":" ","HOUSE_NO":"６號五樓之１３","E_COORD97":165789.95999999999,"N_COORD97":2544149.1499999999,"ADDRESS":"慶平路１９３巷６號五樓之１３","OBJECTID":302062},"geometry":{"x":165789.96000000089,"y":2544149.1500000041}},{"attributes":{"ID":302071,"DIS_CODE":0,"TOWNNAME":"安平區","LI":"怡平里","LIN":"8鄰","STREET":"慶平路","SECT":" ","MAREA":" ","LANE":"１９３巷","ALLEY":" ","HOUSE_NO":"６號五樓之２","E_COORD97":165789.95999999999,"N_COORD97":2544149.1499999999,"ADDRESS":"慶平路１９３巷６號五樓之２","OBJECTID":302063},"geometry":{"x":165789.96000000089,"y":2544149.1500000041}},{"attributes":{"ID":302072,"DIS_CODE":0,"TOWNNAME":"安平區","LI":"怡平里","LIN":"8鄰","STREET":"慶平路","SECT":" ","MAREA":" ","LANE":"１９３巷","ALLEY":" ","HOUSE_NO":"６號五樓之３","E_COORD97":165789.95999999999,"N_COORD97":2544149.1499999999,"ADDRESS":"慶平路１９３巷６號五樓之３","OBJECTID":302064},"geometry":{"x":165789.96000000089,"y":2544149.1500000041}},{"attributes":{"ID":302073,"DIS_CODE":0,"TOWNNAME":"安平區","LI":"怡平里","LIN":"8鄰","STREET":"慶平路","SECT":" ","MAREA":" ","LANE":"１９３巷","ALLEY":" ","HOUSE_NO":"６號五樓之４","E_COORD97":165789.95999999999,"N_COORD97":2544149.1499999999,"ADDRESS":"慶平路１９３巷６號五樓之４","OBJECTID":302065},"geometry":{"x":165789.96000000089,"y":2544149.1500000041}},{"attributes":{"ID":302074,"DIS_CODE":0,"TOWNNAME":"安南區","LI":"幸福里","LIN":"23鄰","STREET":"府安路","SECT":"六段","MAREA":" ","LANE":" ","ALLEY":" ","HOUSE_NO":"２３號之１","E_COORD97":167080.098058,"N_COORD97":2546702.02746,"ADDRESS":"府安路六段２３號之１","OBJECTID":302066},"geometry":{"x":167080.09805800021,"y":2546702.0274640005}},{"attributes":{"ID":302075,"DIS_CODE":0,"TOWNNAME":"安平區","LI":"怡平里","LIN":"8鄰","STREET":"慶平路","SECT":" ","MAREA":" ","LANE":"１９３巷","ALLEY":" ","HOUSE_NO":"６號五樓之５","E_COORD97":165789.95999999999,"N_COORD97":2544149.1499999999,"ADDRESS":"慶平路１９３巷６號五樓之５","OBJECTID":302067},"geometry":{"x":165789.96000000089,"y":2544149.1500000041}},{"attributes":{"ID":302076,"DIS_CODE":0,"TOWNNAME":"安平區","LI":"怡平里","LIN":"8鄰","STREET":"慶平路","SECT":" ","MAREA":" ","LANE":"１９３巷","ALLEY":" ","HOUSE_NO":"６號五樓之６","E_COORD97":165789.95999999999,"N_COORD97":2544149.1499999999,"ADDRESS":"慶平路１９３巷６號五樓之６","OBJECTID":302068},"geometry":{"x":165789.96000000089,"y":2544149.1500000041}},{"attributes":{"ID":302077,"DIS_CODE":0,"TOWNNAME":"永康區","LI":"復華里","LIN":"31鄰","STREET":"復國一路","SECT":" ","MAREA":" ","LANE":"５８６巷","ALLEY":" ","HOUSE_NO":"８號","E_COORD97":172496.13662,"N_COORD97":2546390.5498799998,"ADDRESS":"復國一路５８６巷８號","OBJECTID":302069},"geometry":{"x":172496.13662000094,"y":2546390.5498830006}},{"attributes":{"ID":302078,"DIS_CODE":0,"TOWNNAME":"安南區","LI":"州南里","LIN":"3鄰","STREET":"北安路","SECT":"四段","MAREA":" ","LANE":"１０５巷","ALLEY":" ","HOUSE_NO":"７２號","E_COORD97":169301.46427900001,"N_COORD97":2551095.7109900001,"ADDRESS":"北安路四段１０５巷７２號","OBJECTID":302070},"geometry":{"x":169301.46427900158,"y":2551095.7109880038}},{"attributes":{"ID":302079,"DIS_CODE":0,"TOWNNAME":"新營區","LI":"南興里","LIN":"2鄰","STREET":"建業路","SECT":" ","MAREA":" ","LANE":" ","ALLEY":" ","HOUSE_NO":"２之２附１號","E_COORD97":179701.08130600001,"N_COORD97":2577595.3590699998,"ADDRESS":"建業路２之２附１號","OBJECTID":302071},"geometry":{"x":179701.08130600117,"y":2577595.3590680026}},{"attributes":{"ID":302080,"DIS_CODE":0,"TOWNNAME":"仁德區","LI":"太子里","LIN":"27鄰","STREET":"太子路","SECT":" ","MAREA":" ","LANE":" ","ALLEY":" ","HOUSE_NO":"４７０號","E_COORD97":173320.61569800001,"N_COORD97":2543556.42992,"ADDRESS":"太子路４７０號","OBJECTID":302072},"geometry":{"x":173320.61569800042,"y":2543556.4299149998}},{"attributes":{"ID":302081,"DIS_CODE":0,"TOWNNAME":"仁德區","LI":"太子里","LIN":"27鄰","STREET":"太子路","SECT":" ","MAREA":" ","LANE":" ","ALLEY":" ","HOUSE_NO":"４６６號","E_COORD97":173344.96947700001,"N_COORD97":2543575.6915699998,"ADDRESS":"太子路４６６號","OBJECTID":302073},"geometry":{"x":173344.96947699971,"y":2543575.6915710028}},{"attributes":{"ID":302082,"DIS_CODE":0,"TOWNNAME":"仁德區","LI":"仁德里","LIN":"33鄰","STREET":"文德路","SECT":" ","MAREA":" ","LANE":" ","ALLEY":" ","HOUSE_NO":"１７號","E_COORD97":172900.12770899999,"N_COORD97":2541538.1507700002,"ADDRESS":"文德路１７號","OBJECTID":302074},"geometry":{"x":172900.1277090013,"y":2541538.1507719997}},{"attributes":{"ID":302083,"DIS_CODE":0,"TOWNNAME":"安南區","LI":"州南里","LIN":"3鄰","STREET":"北安路","SECT":"四段","MAREA":" ","LANE":" ","ALLEY":" ","HOUSE_NO":"１７１之３２號","E_COORD97":169448.84604400001,"N_COORD97":2551405.7870900002,"ADDRESS":"北安路四段１７１之３２號","OBJECTID":302075},"geometry":{"x":169448.84604400024,"y":2551405.7870890014}},{"attributes":{"ID":302084,"DIS_CODE":0,"TOWNNAME":"仁德區","LI":"太子里","LIN":"27鄰","STREET":"太子路","SECT":" ","MAREA":" ","LANE":" ","ALLEY":" ","HOUSE_NO":"４５８號","E_COORD97":173406.38335600001,"N_COORD97":2543556.5357499998,"ADDRESS":"太子路４５８號","OBJECTID":302076},"geometry":{"x":173406.38335600216,"y":2543556.5357480012}},{"attributes":{"ID":302085,"DIS_CODE":0,"TOWNNAME":"安南區","LI":"州南里","LIN":"3鄰","STREET":"北安路","SECT":"四段","MAREA":" ","LANE":" ","ALLEY":" ","HOUSE_NO":"１７１之３３號","E_COORD97":169449.48139,"N_COORD97":2551412.9837500001,"ADDRESS":"北安路四段１７１之３３號","OBJECTID":302077},"geometry":{"x":169449.48139000125,"y":2551412.9837520011}},{"attributes":{"ID":302086,"DIS_CODE":0,"TOWNNAME":"安平區","LI":"怡平里","LIN":"8鄰","STREET":"慶平路","SECT":" ","MAREA":" ","LANE":"１９３巷","ALLEY":" ","HOUSE_NO":"６號五樓之７","E_COORD97":165789.95999999999,"N_COORD97":2544149.1499999999,"ADDRESS":"慶平路１９３巷６號五樓之７","OBJECTID":302078},"geometry":{"x":165789.96000000089,"y":2544149.1500000041}},{"attributes":{"ID":302087,"DIS_CODE":0,"TOWNNAME":"安平區","LI":"怡平里","LIN":"8鄰","STREET":"慶平路","SECT":" ","MAREA":" ","LANE":"１９３巷","ALLEY":" ","HOUSE_NO":"６號五樓之８","E_COORD97":165789.95999999999,"N_COORD97":2544149.1499999999,"ADDRESS":"慶平路１９３巷６號五樓之８","OBJECTID":302079},"geometry":{"x":165789.96000000089,"y":2544149.1500000041}},{"attributes":{"ID":302088,"DIS_CODE":0,"TOWNNAME":"北門區","LI":"永隆里","LIN":"7鄰","STREET":" ","SECT":" ","MAREA":"北門","LANE":" ","ALLEY":" ","HOUSE_NO":"８０號","E_COORD97":160201.64999999999,"N_COORD97":2574469.04,"ADDRESS":"北門８０號","OBJECTID":302080},"geometry":{"x":160201.6500000013,"y":2574469.040000001}},{"attributes":{"ID":302089,"DIS_CODE":0,"TOWNNAME":"北門區","LI":"永隆里","LIN":"7鄰","STREET":" ","SECT":" ","MAREA":"北門","LANE":" ","ALLEY":" ","HOUSE_NO":"８１號","E_COORD97":160192.87,"N_COORD97":2574472.6899999999,"ADDRESS":"北門８１號","OBJECTID":302081},"geometry":{"x":160192.87000000104,"y":2574472.6900000013}},{"attributes":{"ID":302090,"DIS_CODE":0,"TOWNNAME":"北門區","LI":"永隆里","LIN":"7鄰","STREET":" ","SECT":" ","MAREA":"北門","LANE":" ","ALLEY":" ","HOUSE_NO":"８２號","E_COORD97":160179.22,"N_COORD97":2574487.1899999999,"ADDRESS":"北門８２號","OBJECTID":302082},"geometry":{"x":160179.21999999974,"y":2574487.1899999995}},{"attributes":{"ID":302091,"DIS_CODE":0,"TOWNNAME":"北門區","LI":"永隆里","LIN":"7鄰","STREET":" ","SECT":" ","MAREA":"北門","LANE":" ","ALLEY":" ","HOUSE_NO":"８３號","E_COORD97":160176.26000000001,"N_COORD97":2574489.7999999998,"ADDRESS":"北門８３號","OBJECTID":302083},"geometry":{"x":160176.26000000071,"y":2574489.8000000026}},{"attributes":{"ID":302092,"DIS_CODE":0,"TOWNNAME":"北門區","LI":"永隆里","LIN":"7鄰","STREET":" ","SECT":" ","MAREA":"北門","LANE":" ","ALLEY":" ","HOUSE_NO":"８４號","E_COORD97":160176.69,"N_COORD97":2574499.3500000001,"ADDRESS":"北門８４號","OBJECTID":302084},"geometry":{"x":160176.69000000041,"y":2574499.3499999996}},{"attributes":{"ID":302093,"DIS_CODE":0,"TOWNNAME":"北門區","LI":"永隆里","LIN":"7鄰","STREET":" ","SECT":" ","MAREA":"北門","LANE":" ","ALLEY":" ","HOUSE_NO":"８５號","E_COORD97":160174.76999999999,"N_COORD97":2574511.23,"ADDRESS":"北門８５號","OBJECTID":302085},"geometry":{"x":160174.77000000048,"y":2574511.2300000004}},{"attributes":{"ID":302094,"DIS_CODE":0,"TOWNNAME":"北門區","LI":"永隆里","LIN":"7鄰","STREET":" ","SECT":" ","MAREA":"北門","LANE":" ","ALLEY":" ","HOUSE_NO":"８７號","E_COORD97":160198.62,"N_COORD97":2574452.9199999999,"ADDRESS":"北門８７號","OBJECTID":302086},"geometry":{"x":160198.62000000011,"y":2574452.9199999999}},{"attributes":{"ID":302095,"DIS_CODE":0,"TOWNNAME":"北門區","LI":"永隆里","LIN":"7鄰","STREET":" ","SECT":" ","MAREA":"北門","LANE":" ","ALLEY":" ","HOUSE_NO":"８８號","E_COORD97":160191.14000000001,"N_COORD97":2574459.7599999998,"ADDRESS":"北門８８號","OBJECTID":302087},"geometry":{"x":160191.1400000006,"y":2574459.7599999998}},{"attributes":{"ID":302096,"DIS_CODE":0,"TOWNNAME":"安平區","LI":"怡平里","LIN":"8鄰","STREET":"慶平路","SECT":" ","MAREA":" ","LANE":"１９３巷","ALLEY":" ","HOUSE_NO":"６號五樓之９","E_COORD97":165789.95999999999,"N_COORD97":2544149.1499999999,"ADDRESS":"慶平路１９３巷６號五樓之９","OBJECTID":302088},"geometry":{"x":165789.96000000089,"y":2544149.1500000041}},{"attributes":{"ID":302097,"DIS_CODE":0,"TOWNNAME":"安平區","LI":"怡平里","LIN":"8鄰","STREET":"慶平路","SECT":" ","MAREA":" ","LANE":"１９３巷","ALLEY":" ","HOUSE_NO":"６號六樓之１","E_COORD97":165789.95999999999,"N_COORD97":2544149.1499999999,"ADDRESS":"慶平路１９３巷６號六樓之１","OBJECTID":302089},"geometry":{"x":165789.96000000089,"y":2544149.1500000041}},{"attributes":{"ID":302098,"DIS_CODE":0,"TOWNNAME":"安平區","LI":"怡平里","LIN":"8鄰","STREET":"慶平路","SECT":" ","MAREA":" ","LANE":"１９３巷","ALLEY":" ","HOUSE_NO":"６號六樓之１０","E_COORD97":165789.95999999999,"N_COORD97":2544149.1499999999,"ADDRESS":"慶平路１９３巷６號六樓之１０","OBJECTID":302090},"geometry":{"x":165789.96000000089,"y":2544149.1500000041}},{"attributes":{"ID":302099,"DIS_CODE":0,"TOWNNAME":"安平區","LI":"怡平里","LIN":"8鄰","STREET":"慶平路","SECT":" ","MAREA":" ","LANE":"１９３巷","ALLEY":" ","HOUSE_NO":"６號六樓之２","E_COORD97":165789.95999999999,"N_COORD97":2544149.1499999999,"ADDRESS":"慶平路１９３巷６號六樓之２","OBJECTID":302091},"geometry":{"x":165789.96000000089,"y":2544149.1500000041}},{"attributes":{"ID":302100,"DIS_CODE":0,"TOWNNAME":"安平區","LI":"怡平里","LIN":"8鄰","STREET":"慶平路","SECT":" ","MAREA":" ","LANE":"１９３巷","ALLEY":" ","HOUSE_NO":"６號六樓之３","E_COORD97":165789.95999999999,"N_COORD97":2544149.1499999999,"ADDRESS":"慶平路１９３巷６號六樓之３","OBJECTID":302092},"geometry":{"x":165789.96000000089,"y":2544149.1500000041}},{"attributes":{"ID":302101,"DIS_CODE":0,"TOWNNAME":"安平區","LI":"怡平里","LIN":"8鄰","STREET":"慶平路","SECT":" ","MAREA":" ","LANE":"１９３巷","ALLEY":" ","HOUSE_NO":"６號六樓之４","E_COORD97":165789.95999999999,"N_COORD97":2544149.1499999999,"ADDRESS":"慶平路１９３巷６號六樓之４","OBJECTID":302093},"geometry":{"x":165789.96000000089,"y":2544149.1500000041}},{"attributes":{"ID":302102,"DIS_CODE":0,"TOWNNAME":"安平區","LI":"怡平里","LIN":"8鄰","STREET":"慶平路","SECT":" ","MAREA":" ","LANE":"１９３巷","ALLEY":" ","HOUSE_NO":"６號六樓之５","E_COORD97":165789.95999999999,"N_COORD97":2544149.1499999999,"ADDRESS":"慶平路１９３巷６號六樓之５","OBJECTID":302094},"geometry":{"x":165789.96000000089,"y":2544149.1500000041}},{"attributes":{"ID":302103,"DIS_CODE":0,"TOWNNAME":"東區","LI":"裕農里","LIN":"14鄰","STREET":"裕豐街","SECT":" ","MAREA":" ","LANE":" ","ALLEY":" ","HOUSE_NO":"２４６號","E_COORD97":170809.76000000001,"N_COORD97":2543270.27,"ADDRESS":"裕豐街２４６號","OBJECTID":302095},"geometry":{"x":170809.75999999978,"y":2543270.2700000014}},{"attributes":{"ID":302104,"DIS_CODE":0,"TOWNNAME":"安南區","LI":"州南里","LIN":"3鄰","STREET":"北安路","SECT":"四段","MAREA":" ","LANE":"１７５巷","ALLEY":" ","HOUSE_NO":"６１號","E_COORD97":169282.27957000001,"N_COORD97":2551327.8937900001,"ADDRESS":"北安路四段１７５巷６１號","OBJECTID":302096},"geometry":{"x":169282.27957000211,"y":2551327.8937899992}},{"attributes":{"ID":302105,"DIS_CODE":0,"TOWNNAME":"安南區","LI":"州南里","LIN":"7鄰","STREET":"北安路","SECT":"四段","MAREA":" ","LANE":"３０２巷","ALLEY":" ","HOUSE_NO":"５１號","E_COORD97":169535.994301,"N_COORD97":2551324.7187999999,"ADDRESS":"北安路四段３０２巷５１號","OBJECTID":302097},"geometry":{"x":169535.99430100154,"y":2551324.7188000027}},{"attributes":{"ID":302106,"DIS_CODE":0,"TOWNNAME":"新營區","LI":"南紙里","LIN":"2鄰","STREET":"太子路","SECT":" ","MAREA":" ","LANE":"１３９巷","ALLEY":" ","HOUSE_NO":"２４號","E_COORD97":177976.559993,"N_COORD97":2577797.4512399998,"ADDRESS":"太子路１３９巷２４號","OBJECTID":302098},"geometry":{"x":177976.55999299977,"y":2577797.4512410015}},{"attributes":{"ID":302107,"DIS_CODE":0,"TOWNNAME":"安南區","LI":"安東里","LIN":"12鄰","STREET":"安和路","SECT":"一段","MAREA":" ","LANE":"２２０巷","ALLEY":" ","HOUSE_NO":"１４１號","E_COORD97":169640.80738700001,"N_COORD97":2548117.54098,"ADDRESS":"安和路一段２２０巷１４１號","OBJECTID":302099},"geometry":{"x":169640.80738699995,"y":2548117.540984001}},{"attributes":{"ID":302108,"DIS_CODE":0,"TOWNNAME":"安平區","LI":"怡平里","LIN":"8鄰","STREET":"慶平路","SECT":" ","MAREA":" ","LANE":"１９３巷","ALLEY":" ","HOUSE_NO":"６號六樓之６","E_COORD97":165789.95999999999,"N_COORD97":2544149.1499999999,"ADDRESS":"慶平路１９３巷６號六樓之６","OBJECTID":302100},"geometry":{"x":165789.96000000089,"y":2544149.1500000041}},{"attributes":{"ID":302109,"DIS_CODE":0,"TOWNNAME":"安平區","LI":"怡平里","LIN":"8鄰","STREET":"慶平路","SECT":" ","MAREA":" ","LANE":"１９３巷","ALLEY":" ","HOUSE_NO":"６號六樓之７","E_COORD97":165789.95999999999,"N_COORD97":2544149.1499999999,"ADDRESS":"慶平路１９３巷６號六樓之７","OBJECTID":302101},"geometry":{"x":165789.96000000089,"y":2544149.1500000041}},{"attributes":{"ID":302110,"DIS_CODE":0,"TOWNNAME":"安平區","LI":"怡平里","LIN":"8鄰","STREET":"慶平路","SECT":" ","MAREA":" ","LANE":"１９３巷","ALLEY":" ","HOUSE_NO":"６號六樓之８","E_COORD97":165789.95999999999,"N_COORD97":2544149.1499999999,"ADDRESS":"慶平路１９３巷６號六樓之８","OBJECTID":302102},"geometry":{"x":165789.96000000089,"y":2544149.1500000041}},{"attributes":{"ID":302111,"DIS_CODE":0,"TOWNNAME":"安平區","LI":"怡平里","LIN":"8鄰","STREET":"慶平路","SECT":" ","MAREA":" ","LANE":"１９３巷","ALLEY":" ","HOUSE_NO":"６號六樓之９","E_COORD97":165789.95999999999,"N_COORD97":2544149.1499999999,"ADDRESS":"慶平路１９３巷６號六樓之９","OBJECTID":302103},"geometry":{"x":165789.96000000089,"y":2544149.1500000041}},{"attributes":{"ID":302112,"DIS_CODE":0,"TOWNNAME":"安平區","LI":"怡平里","LIN":"8鄰","STREET":"慶平路","SECT":" ","MAREA":" ","LANE":"１９３巷","ALLEY":" ","HOUSE_NO":"６號四樓之１","E_COORD97":165789.95999999999,"N_COORD97":2544149.1499999999,"ADDRESS":"慶平路１９３巷６號四樓之１","OBJECTID":302104},"geometry":{"x":165789.96000000089,"y":2544149.1500000041}},{"attributes":{"ID":302113,"DIS_CODE":0,"TOWNNAME":"安平區","LI":"怡平里","LIN":"8鄰","STREET":"慶平路","SECT":" ","MAREA":" ","LANE":"１９３巷","ALLEY":" ","HOUSE_NO":"６號四樓之１０","E_COORD97":165789.95999999999,"N_COORD97":2544149.1499999999,"ADDRESS":"慶平路１９３巷６號四樓之１０","OBJECTID":302105},"geometry":{"x":165789.96000000089,"y":2544149.1500000041}},{"attributes":{"ID":302114,"DIS_CODE":0,"TOWNNAME":"安平區","LI":"怡平里","LIN":"8鄰","STREET":"慶平路","SECT":" ","MAREA":" ","LANE":"１９３巷","ALLEY":" ","HOUSE_NO":"６號四樓之１１","E_COORD97":165789.95999999999,"N_COORD97":2544149.1499999999,"ADDRESS":"慶平路１９３巷６號四樓之１１","OBJECTID":302106},"geometry":{"x":165789.96000000089,"y":2544149.1500000041}},{"attributes":{"ID":302115,"DIS_CODE":0,"TOWNNAME":"安平區","LI":"怡平里","LIN":"8鄰","STREET":"慶平路","SECT":" ","MAREA":" ","LANE":"１９３巷","ALLEY":" ","HOUSE_NO":"６號四樓之２","E_COORD97":165789.95999999999,"N_COORD97":2544149.1499999999,"ADDRESS":"慶平路１９３巷６號四樓之２","OBJECTID":302107},"geometry":{"x":165789.96000000089,"y":2544149.1500000041}},{"attributes":{"ID":302116,"DIS_CODE":0,"TOWNNAME":"安平區","LI":"怡平里","LIN":"8鄰","STREET":"慶平路","SECT":" ","MAREA":" ","LANE":"１９３巷","ALLEY":" ","HOUSE_NO":"６號四樓之３","E_COORD97":165789.95999999999,"N_COORD97":2544149.1499999999,"ADDRESS":"慶平路１９３巷６號四樓之３","OBJECTID":302108},"geometry":{"x":165789.96000000089,"y":2544149.1500000041}},{"attributes":{"ID":302117,"DIS_CODE":0,"TOWNNAME":"安平區","LI":"怡平里","LIN":"8鄰","STREET":"慶平路","SECT":" ","MAREA":" ","LANE":"１９３巷","ALLEY":" ","HOUSE_NO":"６號四樓之４","E_COORD97":165789.95999999999,"N_COORD97":2544149.1499999999,"ADDRESS":"慶平路１９３巷６號四樓之４","OBJECTID":302109},"geometry":{"x":165789.96000000089,"y":2544149.1500000041}},{"attributes":{"ID":302118,"DIS_CODE":0,"TOWNNAME":"北門區","LI":"玉港里","LIN":"20鄰","STREET":" ","SECT":" ","MAREA":"西埔內","LANE":" ","ALLEY":" ","HOUSE_NO":"４９號","E_COORD97":162091.81,"N_COORD97":2574048.98,"ADDRESS":"西埔內４９號","OBJECTID":302110},"geometry":{"x":162091.81000000052,"y":2574048.9800000004}},{"attributes":{"ID":302119,"DIS_CODE":0,"TOWNNAME":"北門區","LI":"玉港里","LIN":"20鄰","STREET":" ","SECT":" ","MAREA":"西埔內","LANE":" ","ALLEY":" ","HOUSE_NO":"５０號","E_COORD97":162066.72,"N_COORD97":2574076.3599999999,"ADDRESS":"西埔內５０號","OBJECTID":302111},"geometry":{"x":162066.72000000067,"y":2574076.3599999994}},{"attributes":{"ID":302120,"DIS_CODE":0,"TOWNNAME":"北門區","LI":"玉港里","LIN":"20鄰","STREET":" ","SECT":" ","MAREA":"西埔內","LANE":" ","ALLEY":" ","HOUSE_NO":"５１號","E_COORD97":162073.29999999999,"N_COORD97":2574064.8100000001,"ADDRESS":"西埔內５１號","OBJECTID":302112},"geometry":{"x":162073.30000000075,"y":2574064.8100000042}},{"attributes":{"ID":302121,"DIS_CODE":0,"TOWNNAME":"仁德區","LI":"仁德里","LIN":"33鄰","STREET":"文德路","SECT":" ","MAREA":" ","LANE":" ","ALLEY":" ","HOUSE_NO":"６８號","E_COORD97":172953.23824800001,"N_COORD97":2541568.51523,"ADDRESS":"文德路６８號","OBJECTID":302113},"geometry":{"x":172953.23824799899,"y":2541568.51523}},{"attributes":{"ID":302122,"DIS_CODE":0,"TOWNNAME":"安平區","LI":"怡平里","LIN":"8鄰","STREET":"慶平路","SECT":" ","MAREA":" ","LANE":"１９３巷","ALLEY":" ","HOUSE_NO":"６號四樓之５","E_COORD97":165789.95999999999,"N_COORD97":2544149.1499999999,"ADDRESS":"慶平路１９３巷６號四樓之５","OBJECTID":302114},"geometry":{"x":165789.96000000089,"y":2544149.1500000041}},{"attributes":{"ID":302123,"DIS_CODE":0,"TOWNNAME":"安平區","LI":"怡平里","LIN":"8鄰","STREET":"慶平路","SECT":" ","MAREA":" ","LANE":"１９３巷","ALLEY":" ","HOUSE_NO":"６號四樓之６","E_COORD97":165789.95999999999,"N_COORD97":2544149.1499999999,"ADDRESS":"慶平路１９３巷６號四樓之６","OBJECTID":302115},"geometry":{"x":165789.96000000089,"y":2544149.1500000041}},{"attributes":{"ID":302124,"DIS_CODE":0,"TOWNNAME":"安平區","LI":"怡平里","LIN":"8鄰","STREET":"慶平路","SECT":" ","MAREA":" ","LANE":"１９３巷","ALLEY":" ","HOUSE_NO":"６號四樓之７","E_COORD97":165789.95999999999,"N_COORD97":2544149.1499999999,"ADDRESS":"慶平路１９３巷６號四樓之７","OBJECTID":302116},"geometry":{"x":165789.96000000089,"y":2544149.1500000041}},{"attributes":{"ID":302125,"DIS_CODE":0,"TOWNNAME":"安平區","LI":"怡平里","LIN":"8鄰","STREET":"慶平路","SECT":" ","MAREA":" ","LANE":"１９３巷","ALLEY":" ","HOUSE_NO":"６號四樓之８","E_COORD97":165789.95999999999,"N_COORD97":2544149.1499999999,"ADDRESS":"慶平路１９３巷６號四樓之８","OBJECTID":302117},"geometry":{"x":165789.96000000089,"y":2544149.1500000041}},{"attributes":{"ID":302126,"DIS_CODE":0,"TOWNNAME":"安平區","LI":"怡平里","LIN":"8鄰","STREET":"慶平路","SECT":" ","MAREA":" ","LANE":"１９３巷","ALLEY":" ","HOUSE_NO":"６號四樓之９","E_COORD97":165789.95999999999,"N_COORD97":2544149.1499999999,"ADDRESS":"慶平路１９３巷６號四樓之９","OBJECTID":302118},"geometry":{"x":165789.96000000089,"y":2544149.1500000041}},{"attributes":{"ID":302127,"DIS_CODE":0,"TOWNNAME":"新營區","LI":"南興里","LIN":"8鄰","STREET":"建業路","SECT":" ","MAREA":" ","LANE":"７８巷","ALLEY":" ","HOUSE_NO":"２１號十二樓之３","E_COORD97":179333.06,"N_COORD97":2577544.9199999999,"ADDRESS":"建業路７８巷２１號十二樓之３","OBJECTID":302119},"geometry":{"x":179333.06000000052,"y":2577544.9199999999}},{"attributes":{"ID":302128,"DIS_CODE":0,"TOWNNAME":"新營區","LI":"南興里","LIN":"8鄰","STREET":"建業路","SECT":" ","MAREA":" ","LANE":"７８巷","ALLEY":" ","HOUSE_NO":"２１號四樓之２","E_COORD97":179331.85000000001,"N_COORD97":2577544.9199999999,"ADDRESS":"建業路７８巷２１號四樓之２","OBJECTID":302120},"geometry":{"x":179331.84999999963,"y":2577544.9199999999}},{"attributes":{"ID":302129,"DIS_CODE":0,"TOWNNAME":"南區","LI":"再興里","LIN":"8鄰","STREET":"三官路","SECT":" ","MAREA":" ","LANE":"７０巷","ALLEY":" ","HOUSE_NO":"２１號之１三樓","E_COORD97":167272.48000000001,"N_COORD97":2542240.0299999998,"ADDRESS":"三官路７０巷２１號之１三樓","OBJECTID":302121},"geometry":{"x":167272.48000000045,"y":2542240.0300000031}},{"attributes":{"ID":302130,"DIS_CODE":0,"TOWNNAME":"新營區","LI":"南興里","LIN":"8鄰","STREET":"建業路","SECT":" ","MAREA":" ","LANE":"７８巷","ALLEY":" ","HOUSE_NO":"２１號六樓之１","E_COORD97":179331.70999999999,"N_COORD97":2577544.9199999999,"ADDRESS":"建業路７８巷２１號六樓之１","OBJECTID":302122},"geometry":{"x":179331.70999999996,"y":2577544.9199999999}},{"attributes":{"ID":302131,"DIS_CODE":0,"TOWNNAME":"新營區","LI":"南興里","LIN":"8鄰","STREET":"建業路","SECT":" ","MAREA":" ","LANE":"７８巷","ALLEY":" ","HOUSE_NO":"２１號五樓之２","E_COORD97":179331.85000000001,"N_COORD97":2577544.9199999999,"ADDRESS":"建業路７８巷２１號五樓之２","OBJECTID":302123},"geometry":{"x":179331.84999999963,"y":2577544.9199999999}},{"attributes":{"ID":302132,"DIS_CODE":0,"TOWNNAME":"新營區","LI":"南興里","LIN":"8鄰","STREET":"建業路","SECT":" ","MAREA":" ","LANE":"７８巷","ALLEY":" ","HOUSE_NO":"１１號三樓之１","E_COORD97":179329.5,"N_COORD97":2577522.7799999998,"ADDRESS":"建業路７８巷１１號三樓之１","OBJECTID":302124},"geometry":{"x":179329.50000000093,"y":2577522.7800000012}},{"attributes":{"ID":302133,"DIS_CODE":0,"TOWNNAME":"新營區","LI":"永生里","LIN":"2鄰","STREET":"富源街","SECT":" ","MAREA":" ","LANE":" ","ALLEY":" ","HOUSE_NO":"８號","E_COORD97":180092.805219,"N_COORD97":2578019.9803900002,"ADDRESS":"富源街８號","OBJECTID":302125},"geometry":{"x":180092.80521900114,"y":2578019.9803880025}},{"attributes":{"ID":302134,"DIS_CODE":0,"TOWNNAME":"新營區","LI":"永生里","LIN":"3鄰","STREET":"富源街","SECT":" ","MAREA":" ","LANE":" ","ALLEY":" ","HOUSE_NO":"１０之１號","E_COORD97":180039.83466399999,"N_COORD97":2578047.9203699999,"ADDRESS":"富源街１０之１號","OBJECTID":302126},"geometry":{"x":180039.8346640002,"y":2578047.9203730021}},{"attributes":{"ID":302135,"DIS_CODE":0,"TOWNNAME":"新營區","LI":"永生里","LIN":"3鄰","STREET":"中山路","SECT":" ","MAREA":" ","LANE":" ","ALLEY":" ","HOUSE_NO":"１６９之１號","E_COORD97":180007.58717399999,"N_COORD97":2578067.28786,"ADDRESS":"中山路１６９之１號","OBJECTID":302127},"geometry":{"x":180007.58717400022,"y":2578067.2878630012}},{"attributes":{"ID":302136,"DIS_CODE":0,"TOWNNAME":"新營區","LI":"永生里","LIN":"3鄰","STREET":"中山路","SECT":" ","MAREA":" ","LANE":" ","ALLEY":" ","HOUSE_NO":"１７１號","E_COORD97":180005.04458700001,"N_COORD97":2578061.3612000002,"ADDRESS":"中山路１７１號","OBJECTID":302128},"geometry":{"x":180005.0445870012,"y":2578061.3611990009}},{"attributes":{"ID":302137,"DIS_CODE":0,"TOWNNAME":"仁德區","LI":"保安里","LIN":"18鄰","STREET":"中正路","SECT":"一段","MAREA":" ","LANE":" ","ALLEY":" ","HOUSE_NO":"７５號","E_COORD97":171050.077923,"N_COORD97":2535576.4297699998,"ADDRESS":"中正路一段７５號","OBJECTID":302129},"geometry":{"x":171050.07792299986,"y":2535576.4297690019}},{"attributes":{"ID":302138,"DIS_CODE":0,"TOWNNAME":"仁德區","LI":"保安里","LIN":"18鄰","STREET":"中正路","SECT":"一段","MAREA":" ","LANE":" ","ALLEY":" ","HOUSE_NO":"７７號","E_COORD97":171107.270965,"N_COORD97":2535593.3630900001,"ADDRESS":"中正路一段７７號","OBJECTID":302130},"geometry":{"x":171107.27096500061,"y":2535593.3630940001}},{"attributes":{"ID":302139,"DIS_CODE":0,"TOWNNAME":"新營區","LI":"永生里","LIN":"3鄰","STREET":"光明街","SECT":" ","MAREA":" ","LANE":" ","ALLEY":" ","HOUSE_NO":"１７號","E_COORD97":180015.42681599999,"N_COORD97":2578019.6628899998,"ADDRESS":"光明街１７號","OBJECTID":302131},"geometry":{"x":180015.42681599967,"y":2578019.6628880017}},{"attributes":{"ID":302140,"DIS_CODE":0,"TOWNNAME":"麻豆區","LI":"埤頭里","LIN":"16鄰","STREET":" ","SECT":" ","MAREA":"埤頭","LANE":" ","ALLEY":" ","HOUSE_NO":"１５０號之４","E_COORD97":170821.20070399999,"N_COORD97":2567320.1260299999,"ADDRESS":"埤頭１５０號之４","OBJECTID":302132},"geometry":{"x":170821.20070399996,"y":2567320.1260330025}},{"attributes":{"ID":302141,"DIS_CODE":0,"TOWNNAME":"北門區","LI":"鯤江里","LIN":"8鄰","STREET":" ","SECT":" ","MAREA":"蚵寮","LANE":" ","ALLEY":" ","HOUSE_NO":"１０２２號","E_COORD97":162284.45000000001,"N_COORD97":2575668.8300000001,"ADDRESS":"蚵寮１０２２號","OBJECTID":302133},"geometry":{"x":162284.45000000112,"y":2575668.8300000019}},{"attributes":{"ID":302142,"DIS_CODE":0,"TOWNNAME":"新營區","LI":"南興里","LIN":"8鄰","STREET":"建業路","SECT":" ","MAREA":" ","LANE":"７８巷","ALLEY":" ","HOUSE_NO":"２１號七樓之３","E_COORD97":179331.81,"N_COORD97":2577544.9199999999,"ADDRESS":"建業路７８巷２１號七樓之３","OBJECTID":302134},"geometry":{"x":179331.81000000052,"y":2577544.9199999999}},{"attributes":{"ID":302143,"DIS_CODE":0,"TOWNNAME":"新營區","LI":"南興里","LIN":"8鄰","STREET":"建業路","SECT":" ","MAREA":" ","LANE":"７８巷","ALLEY":" ","HOUSE_NO":"２１號十一樓之２","E_COORD97":179333.10000000001,"N_COORD97":2577544.9199999999,"ADDRESS":"建業路７８巷２１號十一樓之２","OBJECTID":302135},"geometry":{"x":179333.10000000056,"y":2577544.9199999999}},{"attributes":{"ID":302144,"DIS_CODE":0,"TOWNNAME":"新營區","LI":"南興里","LIN":"8鄰","STREET":"建業路","SECT":" ","MAREA":" ","LANE":"７８巷","ALLEY":" ","HOUSE_NO":"１１號十一樓之２","E_COORD97":179330.88,"N_COORD97":2577522.7799999998,"ADDRESS":"建業路７８巷１１號十一樓之２","OBJECTID":302136},"geometry":{"x":179330.87999999989,"y":2577522.7800000012}},{"attributes":{"ID":302145,"DIS_CODE":0,"TOWNNAME":"新營區","LI":"南興里","LIN":"8鄰","STREET":"建業路","SECT":" ","MAREA":" ","LANE":"７８巷","ALLEY":" ","HOUSE_NO":"２１號五樓之１","E_COORD97":179331.70999999999,"N_COORD97":2577544.9199999999,"ADDRESS":"建業路７８巷２１號五樓之１","OBJECTID":302137},"geometry":{"x":179331.70999999996,"y":2577544.9199999999}},{"attributes":{"ID":302146,"DIS_CODE":0,"TOWNNAME":"新營區","LI":"南興里","LIN":"8鄰","STREET":"建業路","SECT":" ","MAREA":" ","LANE":"７８巷","ALLEY":" ","HOUSE_NO":"２１號七樓之１","E_COORD97":179331.70999999999,"N_COORD97":2577544.9199999999,"ADDRESS":"建業路７８巷２１號七樓之１","OBJECTID":302138},"geometry":{"x":179331.70999999996,"y":2577544.9199999999}},{"attributes":{"ID":302147,"DIS_CODE":0,"TOWNNAME":"新營區","LI":"南興里","LIN":"8鄰","STREET":"建業路","SECT":" ","MAREA":" ","LANE":"７８巷","ALLEY":" ","HOUSE_NO":"２１號七樓之２","E_COORD97":179331.85000000001,"N_COORD97":2577544.9199999999,"ADDRESS":"建業路７８巷２１號七樓之２","OBJECTID":302139},"geometry":{"x":179331.84999999963,"y":2577544.9199999999}},{"attributes":{"ID":302148,"DIS_CODE":0,"TOWNNAME":"新營區","LI":"南興里","LIN":"8鄰","STREET":"建業路","SECT":" ","MAREA":" ","LANE":"７８巷","ALLEY":" ","HOUSE_NO":"１１號四樓之１","E_COORD97":179329.5,"N_COORD97":2577522.7799999998,"ADDRESS":"建業路７８巷１１號四樓之１","OBJECTID":302140},"geometry":{"x":179329.50000000093,"y":2577522.7800000012}},{"attributes":{"ID":302149,"DIS_CODE":0,"TOWNNAME":"新營區","LI":"南興里","LIN":"8鄰","STREET":"建業路","SECT":" ","MAREA":" ","LANE":"７８巷","ALLEY":" ","HOUSE_NO":"２１號十樓之３","E_COORD97":179331.81,"N_COORD97":2577544.9199999999,"ADDRESS":"建業路７８巷２１號十樓之３","OBJECTID":302141},"geometry":{"x":179331.81000000052,"y":2577544.9199999999}},{"attributes":{"ID":302150,"DIS_CODE":0,"TOWNNAME":"新營區","LI":"南興里","LIN":"8鄰","STREET":"建業路","SECT":" ","MAREA":" ","LANE":"７８巷","ALLEY":" ","HOUSE_NO":"２１號九樓之１","E_COORD97":179331.70999999999,"N_COORD97":2577544.9199999999,"ADDRESS":"建業路７８巷２１號九樓之１","OBJECTID":302142},"geometry":{"x":179331.70999999996,"y":2577544.9199999999}},{"attributes":{"ID":302151,"DIS_CODE":0,"TOWNNAME":"新營區","LI":"南興里","LIN":"8鄰","STREET":"建業路","SECT":" ","MAREA":" ","LANE":"７８巷","ALLEY":" ","HOUSE_NO":"２１號三樓之２","E_COORD97":179331.85000000001,"N_COORD97":2577544.9199999999,"ADDRESS":"建業路７８巷２１號三樓之２","OBJECTID":302143},"geometry":{"x":179331.84999999963,"y":2577544.9199999999}},{"attributes":{"ID":302152,"DIS_CODE":0,"TOWNNAME":"南區","LI":"再興里","LIN":"8鄰","STREET":"三官路","SECT":" ","MAREA":" ","LANE":"７０巷","ALLEY":" ","HOUSE_NO":"２１號之１二樓","E_COORD97":167272.48000000001,"N_COORD97":2542240.0299999998,"ADDRESS":"三官路７０巷２１號之１二樓","OBJECTID":302144},"geometry":{"x":167272.48000000045,"y":2542240.0300000031}},{"attributes":{"ID":302153,"DIS_CODE":0,"TOWNNAME":"南區","LI":"再興里","LIN":"8鄰","STREET":"三官路","SECT":" ","MAREA":" ","LANE":"７０巷","ALLEY":" ","HOUSE_NO":"２１號之１四樓","E_COORD97":167272.48000000001,"N_COORD97":2542240.0299999998,"ADDRESS":"三官路７０巷２１號之１四樓","OBJECTID":302145},"geometry":{"x":167272.48000000045,"y":2542240.0300000031}},{"attributes":{"ID":302154,"DIS_CODE":0,"TOWNNAME":"新營區","LI":"永生里","LIN":"5鄰","STREET":"仁壽街","SECT":" ","MAREA":" ","LANE":" ","ALLEY":" ","HOUSE_NO":"３號","E_COORD97":179966.27014099999,"N_COORD97":2578010.6670599999,"ADDRESS":"仁壽街３號","OBJECTID":302146},"geometry":{"x":179966.27014100086,"y":2578010.6670600008}},{"attributes":{"ID":302155,"DIS_CODE":0,"TOWNNAME":"下營區","LI":"大埤里","LIN":"10鄰","STREET":" ","SECT":" ","MAREA":"大埤寮","LANE":" ","ALLEY":" ","HOUSE_NO":"１００號","E_COORD97":171878.941437,"N_COORD97":2568395.1197199998,"ADDRESS":"大埤寮１００號","OBJECTID":302147},"geometry":{"x":171878.94143700227,"y":2568395.1197240036}},{"attributes":{"ID":302156,"DIS_CODE":0,"TOWNNAME":"北門區","LI":"鯤江里","LIN":"7鄰","STREET":" ","SECT":" ","MAREA":"蚵寮","LANE":" ","ALLEY":" ","HOUSE_NO":"１０１４號","E_COORD97":162173.07000000001,"N_COORD97":2575672.5499999998,"ADDRESS":"蚵寮１０１４號","OBJECTID":302148},"geometry":{"x":162173.06999999937,"y":2575672.5500000007}},{"attributes":{"ID":302157,"DIS_CODE":0,"TOWNNAME":"北門區","LI":"鯤江里","LIN":"7鄰","STREET":" ","SECT":" ","MAREA":"蚵寮","LANE":" ","ALLEY":" ","HOUSE_NO":"１０１６號","E_COORD97":162197.82000000001,"N_COORD97":2575668.04,"ADDRESS":"蚵寮１０１６號","OBJECTID":302149},"geometry":{"x":162197.8200000003,"y":2575668.0399999991}},{"attributes":{"ID":302158,"DIS_CODE":0,"TOWNNAME":"北門區","LI":"保吉里","LIN":"6鄰","STREET":" ","SECT":" ","MAREA":"蚵寮","LANE":" ","ALLEY":" ","HOUSE_NO":"１６１號","E_COORD97":161566.32000000001,"N_COORD97":2576061.3300000001,"ADDRESS":"蚵寮１６１號","OBJECTID":302150},"geometry":{"x":161566.32000000216,"y":2576061.3300000038}},{"attributes":{"ID":302159,"DIS_CODE":0,"TOWNNAME":"北門區","LI":"保吉里","LIN":"6鄰","STREET":" ","SECT":" ","MAREA":"蚵寮","LANE":" ","ALLEY":" ","HOUSE_NO":"１６２號","E_COORD97":161564.53,"N_COORD97":2576065.5899999999,"ADDRESS":"蚵寮１６２號","OBJECTID":302151},"geometry":{"x":161564.53000000026,"y":2576065.5899999999}},{"attributes":{"ID":302160,"DIS_CODE":0,"TOWNNAME":"關廟區","LI":"龜洞里","LIN":"4鄰","STREET":"南雄南路","SECT":" ","MAREA":" ","LANE":" ","ALLEY":" ","HOUSE_NO":"８９６號","E_COORD97":182506.74425600001,"N_COORD97":2533023.5406999998,"ADDRESS":"南雄南路８９６號","OBJECTID":302152},"geometry":{"x":182506.74425600003,"y":2533023.5407000016}},{"attributes":{"ID":302161,"DIS_CODE":0,"TOWNNAME":"新營區","LI":"永生里","LIN":"5鄰","STREET":"仁壽街","SECT":" ","MAREA":" ","LANE":" ","ALLEY":" ","HOUSE_NO":"５之１號","E_COORD97":179971.779079,"N_COORD97":2578000.7187299998,"ADDRESS":"仁壽街５之１號","OBJECTID":302153},"geometry":{"x":179971.77907900047,"y":2578000.7187319994}},{"attributes":{"ID":302162,"DIS_CODE":0,"TOWNNAME":"新營區","LI":"永生里","LIN":"5鄰","STREET":"光明街","SECT":" ","MAREA":" ","LANE":" ","ALLEY":" ","HOUSE_NO":"１０號","E_COORD97":179999.11188499999,"N_COORD97":2578020.6153899999,"ADDRESS":"光明街１０號","OBJECTID":302154},"geometry":{"x":179999.11188500002,"y":2578020.6153880022}},{"attributes":{"ID":302163,"DIS_CODE":0,"TOWNNAME":"新營區","LI":"永生里","LIN":"5鄰","STREET":"光明街","SECT":" ","MAREA":" ","LANE":" ","ALLEY":" ","HOUSE_NO":"１２號","E_COORD97":180002.078236,"N_COORD97":2578016.1703900001,"ADDRESS":"光明街１２號","OBJECTID":302155},"geometry":{"x":180002.07823599968,"y":2578016.1703900043}},{"attributes":{"ID":302164,"DIS_CODE":0,"TOWNNAME":"關廟區","LI":"龜洞里","LIN":"4鄰","STREET":"南雄南路","SECT":" ","MAREA":" ","LANE":" ","ALLEY":" ","HOUSE_NO":"９０６號","E_COORD97":182400.808127,"N_COORD97":2533056.2431800002,"ADDRESS":"南雄南路９０６號","OBJECTID":302156},"geometry":{"x":182400.808127,"y":2533056.2431820016}},{"attributes":{"ID":302165,"DIS_CODE":0,"TOWNNAME":"新營區","LI":"永生里","LIN":"5鄰","STREET":"光明街","SECT":" ","MAREA":" ","LANE":" ","ALLEY":" ","HOUSE_NO":"６號","E_COORD97":179992.11977200001,"N_COORD97":2578028.8703800002,"ADDRESS":"光明街６號","OBJECTID":302157},"geometry":{"x":179992.1197720021,"y":2578028.8703830019}},{"attributes":{"ID":302166,"DIS_CODE":0,"TOWNNAME":"歸仁區","LI":"武東里","LIN":"8鄰","STREET":"武東一街","SECT":" ","MAREA":" ","LANE":"４９巷","ALLEY":" ","HOUSE_NO":"７０號四樓之３","E_COORD97":175800.22,"N_COORD97":2535538.2999999998,"ADDRESS":"武東一街４９巷７０號四樓之３","OBJECTID":302158},"geometry":{"x":175800.21999999974,"y":2535538.3000000026}},{"attributes":{"ID":302167,"DIS_CODE":0,"TOWNNAME":"歸仁區","LI":"武東里","LIN":"8鄰","STREET":"武東一街","SECT":" ","MAREA":" ","LANE":"４９巷","ALLEY":" ","HOUSE_NO":"７０號六樓之１","E_COORD97":175800.13,"N_COORD97":2535538.2999999998,"ADDRESS":"武東一街４９巷７０號六樓之１","OBJECTID":302159},"geometry":{"x":175800.13000000082,"y":2535538.3000000026}},{"attributes":{"ID":302168,"DIS_CODE":0,"TOWNNAME":"歸仁區","LI":"武東里","LIN":"8鄰","STREET":"武東一街","SECT":" ","MAREA":" ","LANE":"４９巷","ALLEY":" ","HOUSE_NO":"６８號四樓之３","E_COORD97":175800.22,"N_COORD97":2535538.2999999998,"ADDRESS":"武東一街４９巷６８號四樓之３","OBJECTID":302160},"geometry":{"x":175800.21999999974,"y":2535538.3000000026}},{"attributes":{"ID":302169,"DIS_CODE":0,"TOWNNAME":"歸仁區","LI":"武東里","LIN":"8鄰","STREET":"武東一街","SECT":" ","MAREA":" ","LANE":"４９巷","ALLEY":" ","HOUSE_NO":"７０號三樓之３","E_COORD97":175800.22,"N_COORD97":2535538.2999999998,"ADDRESS":"武東一街４９巷７０號三樓之３","OBJECTID":302161},"geometry":{"x":175800.21999999974,"y":2535538.3000000026}},{"attributes":{"ID":302170,"DIS_CODE":0,"TOWNNAME":"歸仁區","LI":"武東里","LIN":"8鄰","STREET":"武東一街","SECT":" ","MAREA":" ","LANE":"４９巷","ALLEY":" ","HOUSE_NO":"７０號五樓之２","E_COORD97":175800.26000000001,"N_COORD97":2535538.2999999998,"ADDRESS":"武東一街４９巷７０號五樓之２","OBJECTID":302162},"geometry":{"x":175800.25999999978,"y":2535538.3000000026}},{"attributes":{"ID":302171,"DIS_CODE":0,"TOWNNAME":"歸仁區","LI":"武東里","LIN":"8鄰","STREET":"武東一街","SECT":" ","MAREA":" ","LANE":"４９巷","ALLEY":" ","HOUSE_NO":"７０號五樓之３","E_COORD97":175800.22,"N_COORD97":2535538.2999999998,"ADDRESS":"武東一街４９巷７０號五樓之３","OBJECTID":302163},"geometry":{"x":175800.21999999974,"y":2535538.3000000026}},{"attributes":{"ID":302172,"DIS_CODE":0,"TOWNNAME":"歸仁區","LI":"武東里","LIN":"8鄰","STREET":"武東一街","SECT":" ","MAREA":" ","LANE":"４９巷","ALLEY":" ","HOUSE_NO":"６８號四樓之４","E_COORD97":175800.14999999999,"N_COORD97":2535538.2999999998,"ADDRESS":"武東一街４９巷６８號四樓之４","OBJECTID":302164},"geometry":{"x":175800.15000000037,"y":2535538.3000000026}},{"attributes":{"ID":302173,"DIS_CODE":0,"TOWNNAME":"歸仁區","LI":"武東里","LIN":"8鄰","STREET":"武東一街","SECT":" ","MAREA":" ","LANE":"４９巷","ALLEY":" ","HOUSE_NO":"７０號三樓之１","E_COORD97":175800.13,"N_COORD97":2535538.2999999998,"ADDRESS":"武東一街４９巷７０號三樓之１","OBJECTID":302165},"geometry":{"x":175800.13000000082,"y":2535538.3000000026}},{"attributes":{"ID":302174,"DIS_CODE":0,"TOWNNAME":"歸仁區","LI":"武東里","LIN":"8鄰","STREET":"武東一街","SECT":" ","MAREA":" ","LANE":"４９巷","ALLEY":" ","HOUSE_NO":"７０號二樓之２","E_COORD97":175800.26000000001,"N_COORD97":2535538.2999999998,"ADDRESS":"武東一街４９巷７０號二樓之２","OBJECTID":302166},"geometry":{"x":175800.25999999978,"y":2535538.3000000026}},{"attributes":{"ID":302175,"DIS_CODE":0,"TOWNNAME":"歸仁區","LI":"武東里","LIN":"8鄰","STREET":"武東一街","SECT":" ","MAREA":" ","LANE":"４９巷","ALLEY":" ","HOUSE_NO":"７０號四樓之６","E_COORD97":175800.23000000001,"N_COORD97":2535538.2999999998,"ADDRESS":"武東一街４９巷７０號四樓之６","OBJECTID":302167},"geometry":{"x":175800.23000000138,"y":2535538.3000000026}},{"attributes":{"ID":302176,"DIS_CODE":0,"TOWNNAME":"歸仁區","LI":"武東里","LIN":"8鄰","STREET":"武東一街","SECT":" ","MAREA":" ","LANE":"４９巷","ALLEY":" ","HOUSE_NO":"７０號三樓之７","E_COORD97":175800.20000000001,"N_COORD97":2535538.2999999998,"ADDRESS":"武東一街４９巷７０號三樓之７","OBJECTID":302168},"geometry":{"x":175800.20000000112,"y":2535538.3000000026}},{"attributes":{"ID":302177,"DIS_CODE":0,"TOWNNAME":"歸仁區","LI":"武東里","LIN":"8鄰","STREET":"武東一街","SECT":" ","MAREA":" ","LANE":"４９巷","ALLEY":" ","HOUSE_NO":"６８號四樓之１","E_COORD97":175800.13,"N_COORD97":2535538.2999999998,"ADDRESS":"武東一街４９巷６８號四樓之１","OBJECTID":302169},"geometry":{"x":175800.13000000082,"y":2535538.3000000026}},{"attributes":{"ID":302178,"DIS_CODE":0,"TOWNNAME":"歸仁區","LI":"武東里","LIN":"8鄰","STREET":"武東一街","SECT":" ","MAREA":" ","LANE":"４９巷","ALLEY":" ","HOUSE_NO":"７０號二樓之１","E_COORD97":175800.13,"N_COORD97":2535538.2999999998,"ADDRESS":"武東一街４９巷７０號二樓之１","OBJECTID":302170},"geometry":{"x":175800.13000000082,"y":2535538.3000000026}},{"attributes":{"ID":302179,"DIS_CODE":0,"TOWNNAME":"歸仁區","LI":"武東里","LIN":"8鄰","STREET":"武東一街","SECT":" ","MAREA":" ","LANE":"４９巷","ALLEY":" ","HOUSE_NO":"７０號六樓之３","E_COORD97":175800.22,"N_COORD97":2535538.2999999998,"ADDRESS":"武東一街４９巷７０號六樓之３","OBJECTID":302171},"geometry":{"x":175800.21999999974,"y":2535538.3000000026}},{"attributes":{"ID":302180,"DIS_CODE":0,"TOWNNAME":"歸仁區","LI":"武東里","LIN":"8鄰","STREET":"武東一街","SECT":" ","MAREA":" ","LANE":"４９巷","ALLEY":" ","HOUSE_NO":"７０號四樓之２","E_COORD97":175800.26000000001,"N_COORD97":2535538.2999999998,"ADDRESS":"武東一街４９巷７０號四樓之２","OBJECTID":302172},"geometry":{"x":175800.25999999978,"y":2535538.3000000026}},{"attributes":{"ID":302181,"DIS_CODE":0,"TOWNNAME":"歸仁區","LI":"武東里","LIN":"8鄰","STREET":"武東一街","SECT":" ","MAREA":" ","LANE":"４９巷","ALLEY":" ","HOUSE_NO":"６８號五樓之６","E_COORD97":175800.23000000001,"N_COORD97":2535538.2999999998,"ADDRESS":"武東一街４９巷６８號五樓之６","OBJECTID":302173},"geometry":{"x":175800.23000000138,"y":2535538.3000000026}},{"attributes":{"ID":302182,"DIS_CODE":0,"TOWNNAME":"歸仁區","LI":"武東里","LIN":"8鄰","STREET":"武東一街","SECT":" ","MAREA":" ","LANE":"４９巷","ALLEY":" ","HOUSE_NO":"７０號三樓之２","E_COORD97":175800.26000000001,"N_COORD97":2535538.2999999998,"ADDRESS":"武東一街４９巷７０號三樓之２","OBJECTID":302174},"geometry":{"x":175800.25999999978,"y":2535538.3000000026}},{"attributes":{"ID":302183,"DIS_CODE":0,"TOWNNAME":"歸仁區","LI":"武東里","LIN":"8鄰","STREET":"武東一街","SECT":" ","MAREA":" ","LANE":"４９巷","ALLEY":" ","HOUSE_NO":"６８號六樓之４","E_COORD97":175800.14999999999,"N_COORD97":2535538.2999999998,"ADDRESS":"武東一街４９巷６８號六樓之４","OBJECTID":302175},"geometry":{"x":175800.15000000037,"y":2535538.3000000026}},{"attributes":{"ID":302184,"DIS_CODE":0,"TOWNNAME":"歸仁區","LI":"武東里","LIN":"8鄰","STREET":"武東一街","SECT":" ","MAREA":" ","LANE":"４９巷","ALLEY":" ","HOUSE_NO":"６８號六樓之２","E_COORD97":175800.26000000001,"N_COORD97":2535538.2999999998,"ADDRESS":"武東一街４９巷６８號六樓之２","OBJECTID":302176},"geometry":{"x":175800.25999999978,"y":2535538.3000000026}},{"attributes":{"ID":302185,"DIS_CODE":0,"TOWNNAME":"歸仁區","LI":"武東里","LIN":"8鄰","STREET":"武東一街","SECT":" ","MAREA":" ","LANE":"４９巷","ALLEY":" ","HOUSE_NO":"７０號六樓之２","E_COORD97":175800.26000000001,"N_COORD97":2535538.2999999998,"ADDRESS":"武東一街４９巷７０號六樓之２","OBJECTID":302177},"geometry":{"x":175800.25999999978,"y":2535538.3000000026}},{"attributes":{"ID":302186,"DIS_CODE":0,"TOWNNAME":"歸仁區","LI":"武東里","LIN":"8鄰","STREET":"武東一街","SECT":" ","MAREA":" ","LANE":"４９巷","ALLEY":" ","HOUSE_NO":"６８號六樓之１","E_COORD97":175800.13,"N_COORD97":2535538.2999999998,"ADDRESS":"武東一街４９巷６８號六樓之１","OBJECTID":302178},"geometry":{"x":175800.13000000082,"y":2535538.3000000026}},{"attributes":{"ID":302187,"DIS_CODE":0,"TOWNNAME":"歸仁區","LI":"武東里","LIN":"8鄰","STREET":"武東一街","SECT":" ","MAREA":" ","LANE":"４９巷","ALLEY":" ","HOUSE_NO":"６８號五樓之１","E_COORD97":175800.13,"N_COORD97":2535538.2999999998,"ADDRESS":"武東一街４９巷６８號五樓之１","OBJECTID":302179},"geometry":{"x":175800.13000000082,"y":2535538.3000000026}},{"attributes":{"ID":302188,"DIS_CODE":0,"TOWNNAME":"歸仁區","LI":"武東里","LIN":"8鄰","STREET":"武東一街","SECT":" ","MAREA":" ","LANE":"４９巷","ALLEY":" ","HOUSE_NO":"６８號二樓之３","E_COORD97":175800.22,"N_COORD97":2535538.2999999998,"ADDRESS":"武東一街４９巷６８號二樓之３","OBJECTID":302180},"geometry":{"x":175800.21999999974,"y":2535538.3000000026}},{"attributes":{"ID":302189,"DIS_CODE":0,"TOWNNAME":"歸仁區","LI":"武東里","LIN":"8鄰","STREET":"武東一街","SECT":" ","MAREA":" ","LANE":"４９巷","ALLEY":" ","HOUSE_NO":"７０號二樓之５","E_COORD97":175800.28,"N_COORD97":2535538.2999999998,"ADDRESS":"武東一街４９巷７０號二樓之５","OBJECTID":302181},"geometry":{"x":175800.28000000026,"y":2535538.3000000026}},{"attributes":{"ID":302190,"DIS_CODE":0,"TOWNNAME":"歸仁區","LI":"武東里","LIN":"8鄰","STREET":"武東一街","SECT":" ","MAREA":" ","LANE":"４９巷","ALLEY":" ","HOUSE_NO":"７０號三樓之６","E_COORD97":175800.23000000001,"N_COORD97":2535538.2999999998,"ADDRESS":"武東一街４９巷７０號三樓之６","OBJECTID":302182},"geometry":{"x":175800.23000000138,"y":2535538.3000000026}},{"attributes":{"ID":302191,"DIS_CODE":0,"TOWNNAME":"歸仁區","LI":"武東里","LIN":"8鄰","STREET":"武東一街","SECT":" ","MAREA":" ","LANE":"４９巷","ALLEY":" ","HOUSE_NO":"６８號六樓之６","E_COORD97":175800.23000000001,"N_COORD97":2535538.2999999998,"ADDRESS":"武東一街４９巷６８號六樓之６","OBJECTID":302183},"geometry":{"x":175800.23000000138,"y":2535538.3000000026}},{"attributes":{"ID":302192,"DIS_CODE":0,"TOWNNAME":"新營區","LI":"新南里","LIN":"1鄰","STREET":"民治路","SECT":" ","MAREA":" ","LANE":" ","ALLEY":" ","HOUSE_NO":"２１６號","E_COORD97":178876.12629799999,"N_COORD97":2578586.0788799999,"ADDRESS":"民治路２１６號","OBJECTID":302184},"geometry":{"x":178876.1262980001,"y":2578586.0788819995}},{"attributes":{"ID":302193,"DIS_CODE":0,"TOWNNAME":"安南區","LI":"顯宮里","LIN":"7鄰","STREET":"顯宮二街","SECT":" ","MAREA":" ","LANE":" ","ALLEY":" ","HOUSE_NO":"５３號","E_COORD97":160447.13639,"N_COORD97":2548783.2423700001,"ADDRESS":"顯宮二街５３號","OBJECTID":302185},"geometry":{"x":160447.13638999965,"y":2548783.242366001}},{"attributes":{"ID":302194,"DIS_CODE":0,"TOWNNAME":"永康區","LI":"復華里","LIN":"40鄰","STREET":"復華六街","SECT":" ","MAREA":" ","LANE":" ","ALLEY":" ","HOUSE_NO":"７４號","E_COORD97":172683.11231600001,"N_COORD97":2545856.4098200002,"ADDRESS":"復華六街７４號","OBJECTID":302186},"geometry":{"x":172683.11231600028,"y":2545856.4098210018}},{"attributes":{"ID":302195,"DIS_CODE":0,"TOWNNAME":"下營區","LI":"營前里","LIN":"9鄰","STREET":"健康路","SECT":" ","MAREA":" ","LANE":" ","ALLEY":" ","HOUSE_NO":"２５號","E_COORD97":174555.716976,"N_COORD97":2570179.9763799999,"ADDRESS":"健康路２５號","OBJECTID":302187},"geometry":{"x":174555.716976,"y":2570179.9763790015}},{"attributes":{"ID":302196,"DIS_CODE":0,"TOWNNAME":"中西區","LI":"赤嵌里","LIN":"19鄰","STREET":"赤崁東街","SECT":" ","MAREA":" ","LANE":" ","ALLEY":" ","HOUSE_NO":"４８號","E_COORD97":168335.057115,"N_COORD97":2544190.43175,"ADDRESS":"赤崁東街４８號","OBJECTID":302188},"geometry":{"x":168335.05711499974,"y":2544190.4317490011}},{"attributes":{"ID":302197,"DIS_CODE":0,"TOWNNAME":"下營區","LI":"營前里","LIN":"9鄰","STREET":"健康路","SECT":" ","MAREA":" ","LANE":" ","ALLEY":" ","HOUSE_NO":"２７號","E_COORD97":174559.95544399999,"N_COORD97":2570163.8897199999,"ADDRESS":"健康路２７號","OBJECTID":302189},"geometry":{"x":174559.95544400066,"y":2570163.8897210024}},{"attributes":{"ID":302198,"DIS_CODE":0,"TOWNNAME":"中西區","LI":"赤嵌里","LIN":"19鄰","STREET":"赤崁東街","SECT":" ","MAREA":" ","LANE":" ","ALLEY":" ","HOUSE_NO":"５０號","E_COORD97":168335.480885,"N_COORD97":2544192.7600799999,"ADDRESS":"赤崁東街５０號","OBJECTID":302190},"geometry":{"x":168335.4808850009,"y":2544192.7600810044}},{"attributes":{"ID":302199,"DIS_CODE":0,"TOWNNAME":"下營區","LI":"營前里","LIN":"9鄰","STREET":"健康路","SECT":" ","MAREA":" ","LANE":" ","ALLEY":" ","HOUSE_NO":"１３號","E_COORD97":174545.968502,"N_COORD97":2570169.3930500001,"ADDRESS":"健康路１３號","OBJECTID":302191},"geometry":{"x":174545.96850199997,"y":2570169.3930520006}},{"attributes":{"ID":302200,"DIS_CODE":0,"TOWNNAME":"中西區","LI":"赤嵌里","LIN":"17鄰","STREET":"赤崁東街","SECT":" ","MAREA":" ","LANE":" ","ALLEY":" ","HOUSE_NO":"５６號","E_COORD97":168337.38784700001,"N_COORD97":2544198.7925800001,"ADDRESS":"赤崁東街５６號","OBJECTID":302192},"geometry":{"x":168337.3878469998,"y":2544198.7925780006}},{"attributes":{"ID":302201,"DIS_CODE":0,"TOWNNAME":"仁德區","LI":"仁德里","LIN":"39鄰","STREET":"文宏路","SECT":" ","MAREA":" ","LANE":" ","ALLEY":" ","HOUSE_NO":"１６８號","E_COORD97":172445.837975,"N_COORD97":2541854.9962200001,"ADDRESS":"文宏路１６８號","OBJECTID":302193},"geometry":{"x":172445.83797500003,"y":2541854.9962159991}},{"attributes":{"ID":302202,"DIS_CODE":0,"TOWNNAME":"仁德區","LI":"仁德里","LIN":"39鄰","STREET":"文宏路","SECT":" ","MAREA":" ","LANE":" ","ALLEY":" ","HOUSE_NO":"１７０號","E_COORD97":172450.07449599999,"N_COORD97":2541854.9962200001,"ADDRESS":"文宏路１７０號","OBJECTID":302194},"geometry":{"x":172450.07449600194,"y":2541854.9962159991}},{"attributes":{"ID":302203,"DIS_CODE":0,"TOWNNAME":"仁德區","LI":"仁德里","LIN":"39鄰","STREET":"文宏路","SECT":" ","MAREA":" ","LANE":" ","ALLEY":" ","HOUSE_NO":"１８０號","E_COORD97":172466.38510399999,"N_COORD97":2541852.4562200001,"ADDRESS":"文宏路１８０號","OBJECTID":302195},"geometry":{"x":172466.38510399964,"y":2541852.4562170003}},{"attributes":{"ID":302204,"DIS_CODE":0,"TOWNNAME":"仁德區","LI":"仁德里","LIN":"39鄰","STREET":"文宏路","SECT":" ","MAREA":" ","LANE":" ","ALLEY":" ","HOUSE_NO":"１８２號","E_COORD97":172468.715191,"N_COORD97":2541871.2945400001,"ADDRESS":"文宏路１８２號","OBJECTID":302196},"geometry":{"x":172468.71519100014,"y":2541871.2945399992}},{"attributes":{"ID":302205,"DIS_CODE":0,"TOWNNAME":"仁德區","LI":"仁德里","LIN":"39鄰","STREET":"文宏路","SECT":" ","MAREA":" ","LANE":" ","ALLEY":" ","HOUSE_NO":"１８６號","E_COORD97":172465.32597400001,"N_COORD97":2541871.9295399999,"ADDRESS":"文宏路１８６號","OBJECTID":302197},"geometry":{"x":172465.32597399969,"y":2541871.9295400046}},{"attributes":{"ID":302206,"DIS_CODE":0,"TOWNNAME":"安南區","LI":"顯宮里","LIN":"7鄰","STREET":"媽祖宮二街","SECT":" ","MAREA":" ","LANE":" ","ALLEY":" ","HOUSE_NO":"１３８號","E_COORD97":160436.969729,"N_COORD97":2548830.8673399999,"ADDRESS":"媽祖宮二街１３８號","OBJECTID":302198},"geometry":{"x":160436.96972899977,"y":2548830.8673400022}},{"attributes":{"ID":302207,"DIS_CODE":0,"TOWNNAME":"仁德區","LI":"仁德里","LIN":"39鄰","STREET":"文宏路","SECT":" ","MAREA":" ","LANE":" ","ALLEY":" ","HOUSE_NO":"１８８號","E_COORD97":172461.08945199999,"N_COORD97":2541872.7762099998,"ADDRESS":"文宏路１８８號","OBJECTID":302199},"geometry":{"x":172461.08945200127,"y":2541872.7762060016}},{"attributes":{"ID":302208,"DIS_CODE":0,"TOWNNAME":"仁德區","LI":"仁德里","LIN":"39鄰","STREET":"文宏路","SECT":" ","MAREA":" ","LANE":" ","ALLEY":" ","HOUSE_NO":"１９０號","E_COORD97":172456.64110499999,"N_COORD97":2541873.41121,"ADDRESS":"文宏路１９０號","OBJECTID":302200},"geometry":{"x":172456.64110500179,"y":2541873.4112060014}}]}