{"displayFieldName":"TOWNNAME","fieldAliases":{"ID":"ID","DIS_CODE":"DIS_CODE","TOWNNAME":"TOWNNAME","LI":"LI","LIN":"LIN","STREET":"STREET","SECT":"SECT","MAREA":"MAREA","LANE":"LANE","ALLEY":"ALLEY","HOUSE_NO":"HOUSE_NO","E_COORD97":"E_COORD97","N_COORD97":"N_COORD97","ADDRESS":"ADDRESS","OBJECTID":"OBJECTID"},"geometryType":"esriGeometryPoint","spatialReference":{"wkid":102443,"latestWkid":3826},"fields":[{"name":"ID","type":"esriFieldTypeDouble","alias":"ID"},{"name":"DIS_CODE","type":"esriFieldTypeInteger","alias":"DIS_CODE"},{"name":"TOWNNAME","type":"esriFieldTypeString","alias":"TOWNNAME","length":8},{"name":"LI","type":"esriFieldTypeString","alias":"LI","length":8},{"name":"LIN","type":"esriFieldTypeString","alias":"LIN","length":12},{"name":"STREET","type":"esriFieldTypeString","alias":"STREET","length":20},{"name":"SECT","type":"esriFieldTypeString","alias":"SECT","length":8},{"name":"MAREA","type":"esriFieldTypeString","alias":"MAREA","length":12},{"name":"LANE","type":"esriFieldTypeString","alias":"LANE","length":10},{"name":"ALLEY","type":"esriFieldTypeString","alias":"ALLEY","length":10},{"name":"HOUSE_NO","type":"esriFieldTypeString","alias":"HOUSE_NO","length":20},{"name":"E_COORD97","type":"esriFieldTypeDouble","alias":"E_COORD97"},{"name":"N_COORD97","type":"esriFieldTypeDouble","alias":"N_COORD97"},{"name":"ADDRESS","type":"esriFieldTypeString","alias":"ADDRESS","length":50},{"name":"OBJECTID","type":"esriFieldTypeOID","alias":"OBJECTID"}],"features":[{"attributes":{"ID":175402,"DIS_CODE":0,"TOWNNAME":"七股區","LI":"義合里","LIN":"10鄰","STREET":" ","SECT":" ","MAREA":"義合","LANE":" ","ALLEY":" ","HOUSE_NO":"７８號之５","E_COORD97":161830.89000000001,"N_COORD97":2555679.5499999998,"ADDRESS":"義合７８號之５","OBJECTID":175401},"geometry":{"x":161830.88999999966,"y":2555679.5500000007}},{"attributes":{"ID":175403,"DIS_CODE":0,"TOWNNAME":"北區","LI":"大港里","LIN":"8鄰","STREET":"大興街","SECT":" ","MAREA":" ","LANE":"２４６巷","ALLEY":"３８弄","HOUSE_NO":"２５號","E_COORD97":166666.54999999999,"N_COORD97":2545852.1899999999,"ADDRESS":"大興街２４６巷３８弄２５號","OBJECTID":175402},"geometry":{"x":166666.54999999981,"y":2545852.1899999995}},{"attributes":{"ID":175404,"DIS_CODE":0,"TOWNNAME":"北區","LI":"大港里","LIN":"8鄰","STREET":"大興街","SECT":" ","MAREA":" ","LANE":"２４６巷","ALLEY":"３８弄","HOUSE_NO":"２７號","E_COORD97":166660.76000000001,"N_COORD97":2545856.8199999998,"ADDRESS":"大興街２４６巷３８弄２７號","OBJECTID":175403},"geometry":{"x":166660.76000000071,"y":2545856.820000004}},{"attributes":{"ID":175405,"DIS_CODE":0,"TOWNNAME":"北區","LI":"大港里","LIN":"8鄰","STREET":"大興街","SECT":" ","MAREA":" ","LANE":"２４６巷","ALLEY":"３８弄","HOUSE_NO":"３１號","E_COORD97":166684.39000000001,"N_COORD97":2545855.6299999999,"ADDRESS":"大興街２４６巷３８弄３１號","OBJECTID":175404},"geometry":{"x":166684.38999999966,"y":2545855.629999999}},{"attributes":{"ID":175406,"DIS_CODE":0,"TOWNNAME":"北區","LI":"大港里","LIN":"8鄰","STREET":"大興街","SECT":" ","MAREA":" ","LANE":"２４６巷","ALLEY":"３８弄","HOUSE_NO":"３３號","E_COORD97":166681.57000000001,"N_COORD97":2545860.9399999999,"ADDRESS":"大興街２４６巷３８弄３３號","OBJECTID":175405},"geometry":{"x":166681.5700000003,"y":2545860.9399999995}},{"attributes":{"ID":175407,"DIS_CODE":0,"TOWNNAME":"北區","LI":"大港里","LIN":"8鄰","STREET":"大興街","SECT":" ","MAREA":" ","LANE":"２４６巷","ALLEY":"３８弄","HOUSE_NO":"３５號","E_COORD97":166677.97,"N_COORD97":2545864.3799999999,"ADDRESS":"大興街２４６巷３８弄３５號","OBJECTID":175406},"geometry":{"x":166677.97000000067,"y":2545864.379999999}},{"attributes":{"ID":175408,"DIS_CODE":0,"TOWNNAME":"將軍區","LI":"仁和里","LIN":"10鄰","STREET":" ","SECT":" ","MAREA":"仁巷","LANE":" ","ALLEY":" ","HOUSE_NO":"１００之６號","E_COORD97":164041.62,"N_COORD97":2569107.1499999999,"ADDRESS":"仁巷１００之６號","OBJECTID":175407},"geometry":{"x":164041.62000000011,"y":2569107.1500000022}},{"attributes":{"ID":175409,"DIS_CODE":0,"TOWNNAME":"將軍區","LI":"仁和里","LIN":"10鄰","STREET":" ","SECT":" ","MAREA":"仁巷","LANE":" ","ALLEY":" ","HOUSE_NO":"１００號","E_COORD97":163952.98999999999,"N_COORD97":2569119.8199999998,"ADDRESS":"仁巷１００號","OBJECTID":175408},"geometry":{"x":163952.99000000022,"y":2569119.8200000003}},{"attributes":{"ID":175410,"DIS_CODE":0,"TOWNNAME":"將軍區","LI":"仁和里","LIN":"10鄰","STREET":" ","SECT":" ","MAREA":"仁巷","LANE":" ","ALLEY":" ","HOUSE_NO":"１０１號","E_COORD97":163931.12,"N_COORD97":2569121.23,"ADDRESS":"仁巷１０１號","OBJECTID":175409},"geometry":{"x":163931.12000000104,"y":2569121.2300000004}},{"attributes":{"ID":175411,"DIS_CODE":0,"TOWNNAME":"將軍區","LI":"仁和里","LIN":"10鄰","STREET":" ","SECT":" ","MAREA":"仁巷","LANE":" ","ALLEY":" ","HOUSE_NO":"１０２號","E_COORD97":163903.29000000001,"N_COORD97":2569124.0699999998,"ADDRESS":"仁巷１０２號","OBJECTID":175410},"geometry":{"x":163903.29000000004,"y":2569124.0700000022}},{"attributes":{"ID":175412,"DIS_CODE":0,"TOWNNAME":"將軍區","LI":"仁和里","LIN":"10鄰","STREET":" ","SECT":" ","MAREA":"仁巷","LANE":" ","ALLEY":" ","HOUSE_NO":"１０４號","E_COORD97":163912.45000000001,"N_COORD97":2569089.5,"ADDRESS":"仁巷１０４號","OBJECTID":175411},"geometry":{"x":163912.45000000019,"y":2569089.5000000037}},{"attributes":{"ID":175413,"DIS_CODE":0,"TOWNNAME":"官田區","LI":"隆田里","LIN":"10鄰","STREET":"中山路","SECT":"一段","MAREA":" ","LANE":" ","ALLEY":" ","HOUSE_NO":"６６號","E_COORD97":180160.56,"N_COORD97":2565808.3900000001,"ADDRESS":"中山路一段６６號","OBJECTID":175412},"geometry":{"x":180160.56000000052,"y":2565808.3900000006}},{"attributes":{"ID":175414,"DIS_CODE":0,"TOWNNAME":"北區","LI":"大港里","LIN":"8鄰","STREET":"大興街","SECT":" ","MAREA":" ","LANE":"２４６巷","ALLEY":"３８弄","HOUSE_NO":"３７號","E_COORD97":166675.31,"N_COORD97":2545867.8199999998,"ADDRESS":"大興街２４６巷３８弄３７號","OBJECTID":175413},"geometry":{"x":166675.31000000052,"y":2545867.8200000022}},{"attributes":{"ID":175415,"DIS_CODE":0,"TOWNNAME":"官田區","LI":"隆田里","LIN":"10鄰","STREET":"中山路","SECT":"一段","MAREA":" ","LANE":" ","ALLEY":" ","HOUSE_NO":"６８號","E_COORD97":180154.48000000001,"N_COORD97":2565808.4100000001,"ADDRESS":"中山路一段６８號","OBJECTID":175414},"geometry":{"x":180154.48000000045,"y":2565808.4100000039}},{"attributes":{"ID":175416,"DIS_CODE":0,"TOWNNAME":"北區","LI":"大港里","LIN":"20鄰","STREET":"中華北路","SECT":"一段","MAREA":" ","LANE":"３６２巷","ALLEY":"１弄","HOUSE_NO":"１號","E_COORD97":166664.10000000001,"N_COORD97":2546046.54,"ADDRESS":"中華北路一段３６２巷１弄１號","OBJECTID":175415},"geometry":{"x":166664.09999999963,"y":2546046.5399999991}},{"attributes":{"ID":175417,"DIS_CODE":0,"TOWNNAME":"北區","LI":"大港里","LIN":"20鄰","STREET":"中華北路","SECT":"一段","MAREA":" ","LANE":"３６２巷","ALLEY":"１弄","HOUSE_NO":"２０號","E_COORD97":166734.82000000001,"N_COORD97":2546087.8300000001,"ADDRESS":"中華北路一段３６２巷１弄２０號","OBJECTID":175416},"geometry":{"x":166734.81999999937,"y":2546087.8300000019}},{"attributes":{"ID":175418,"DIS_CODE":0,"TOWNNAME":"北區","LI":"大港里","LIN":"20鄰","STREET":"中華北路","SECT":"一段","MAREA":" ","LANE":"３６２巷","ALLEY":"１弄","HOUSE_NO":"２１號","E_COORD97":166699.85999999999,"N_COORD97":2546073.5699999998,"ADDRESS":"中華北路一段３６２巷１弄２１號","OBJECTID":175417},"geometry":{"x":166699.86000000127,"y":2546073.5700000022}},{"attributes":{"ID":175419,"DIS_CODE":0,"TOWNNAME":"北區","LI":"大港里","LIN":"20鄰","STREET":"中華北路","SECT":"一段","MAREA":" ","LANE":"３６２巷","ALLEY":"１弄","HOUSE_NO":"２３號","E_COORD97":166703.53,"N_COORD97":2546076.4100000001,"ADDRESS":"中華北路一段３６２巷１弄２３號","OBJECTID":175418},"geometry":{"x":166703.53000000119,"y":2546076.4100000039}},{"attributes":{"ID":175420,"DIS_CODE":0,"TOWNNAME":"北區","LI":"大港里","LIN":"20鄰","STREET":"中華北路","SECT":"一段","MAREA":" ","LANE":"３６２巷","ALLEY":"１弄","HOUSE_NO":"２５號","E_COORD97":166707.07999999999,"N_COORD97":2546079.4900000002,"ADDRESS":"中華北路一段３６２巷１弄２５號","OBJECTID":175419},"geometry":{"x":166707.08000000007,"y":2546079.4900000021}},{"attributes":{"ID":175421,"DIS_CODE":0,"TOWNNAME":"北區","LI":"大港里","LIN":"20鄰","STREET":"中華北路","SECT":"一段","MAREA":" ","LANE":"３６２巷","ALLEY":"１弄","HOUSE_NO":"２７號","E_COORD97":166710.76000000001,"N_COORD97":2546081.9900000002,"ADDRESS":"中華北路一段３６２巷１弄２７號","OBJECTID":175420},"geometry":{"x":166710.75999999978,"y":2546081.9900000002}},{"attributes":{"ID":175422,"DIS_CODE":0,"TOWNNAME":"官田區","LI":"隆田里","LIN":"10鄰","STREET":"中山路","SECT":"一段","MAREA":" ","LANE":" ","ALLEY":" ","HOUSE_NO":"７０號","E_COORD97":180150.07999999999,"N_COORD97":2565808.5,"ADDRESS":"中山路一段７０號","OBJECTID":175421},"geometry":{"x":180150.08000000007,"y":2565808.5000000019}},{"attributes":{"ID":175423,"DIS_CODE":0,"TOWNNAME":"北區","LI":"大港里","LIN":"20鄰","STREET":"中華北路","SECT":"一段","MAREA":" ","LANE":"３６２巷","ALLEY":"１弄","HOUSE_NO":"２９號","E_COORD97":166714.76999999999,"N_COORD97":2546085,"ADDRESS":"中華北路一段３６２巷１弄２９號","OBJECTID":175422},"geometry":{"x":166714.77000000048,"y":2546085}},{"attributes":{"ID":175424,"DIS_CODE":0,"TOWNNAME":"北區","LI":"大港里","LIN":"20鄰","STREET":"中華北路","SECT":"一段","MAREA":" ","LANE":"３６２巷","ALLEY":"１弄","HOUSE_NO":"２號","E_COORD97":166701.57000000001,"N_COORD97":2546063.1400000001,"ADDRESS":"中華北路一段３６２巷１弄２號","OBJECTID":175423},"geometry":{"x":166701.57000000123,"y":2546063.1400000025}},{"attributes":{"ID":175425,"DIS_CODE":0,"TOWNNAME":"北區","LI":"大港里","LIN":"20鄰","STREET":"中華北路","SECT":"一段","MAREA":" ","LANE":"３６２巷","ALLEY":"１弄","HOUSE_NO":"３１號","E_COORD97":166717.94,"N_COORD97":2546087.3300000001,"ADDRESS":"中華北路一段３６２巷１弄３１號","OBJECTID":175424},"geometry":{"x":166717.94000000134,"y":2546087.3300000019}},{"attributes":{"ID":175426,"DIS_CODE":0,"TOWNNAME":"北區","LI":"大港里","LIN":"20鄰","STREET":"中華北路","SECT":"一段","MAREA":" ","LANE":"３６２巷","ALLEY":"１弄","HOUSE_NO":"３３號","E_COORD97":166721.78,"N_COORD97":2546090.1699999999,"ADDRESS":"中華北路一段３６２巷１弄３３號","OBJECTID":175425},"geometry":{"x":166721.78000000119,"y":2546090.1699999999}},{"attributes":{"ID":175427,"DIS_CODE":0,"TOWNNAME":"北區","LI":"大港里","LIN":"20鄰","STREET":"中華北路","SECT":"一段","MAREA":" ","LANE":"３６２巷","ALLEY":"１弄","HOUSE_NO":"３５號","E_COORD97":166724.95999999999,"N_COORD97":2546092.6699999999,"ADDRESS":"中華北路一段３６２巷１弄３５號","OBJECTID":175426},"geometry":{"x":166724.95999999996,"y":2546092.6700000018}},{"attributes":{"ID":175428,"DIS_CODE":0,"TOWNNAME":"北區","LI":"大港里","LIN":"19鄰","STREET":"中華北路","SECT":"一段","MAREA":" ","LANE":"３６２巷","ALLEY":"３弄","HOUSE_NO":"１１號","E_COORD97":166695.89999999999,"N_COORD97":2546039.3300000001,"ADDRESS":"中華北路一段３６２巷３弄１１號","OBJECTID":175427},"geometry":{"x":166695.9000000013,"y":2546039.3300000038}},{"attributes":{"ID":175429,"DIS_CODE":0,"TOWNNAME":"北區","LI":"大港里","LIN":"19鄰","STREET":"中華北路","SECT":"一段","MAREA":" ","LANE":"３６２巷","ALLEY":"３弄","HOUSE_NO":"１３號","E_COORD97":166699.91,"N_COORD97":2546041,"ADDRESS":"中華北路一段３６２巷３弄１３號","OBJECTID":175428},"geometry":{"x":166699.91000000015,"y":2546041}},{"attributes":{"ID":175430,"DIS_CODE":0,"TOWNNAME":"北區","LI":"大港里","LIN":"19鄰","STREET":"中華北路","SECT":"一段","MAREA":" ","LANE":"３６２巷","ALLEY":"３弄","HOUSE_NO":"１５號","E_COORD97":166703.92000000001,"N_COORD97":2546042.6699999999,"ADDRESS":"中華北路一段３６２巷３弄１５號","OBJECTID":175429},"geometry":{"x":166703.92000000086,"y":2546042.6699999999}},{"attributes":{"ID":175431,"DIS_CODE":0,"TOWNNAME":"北區","LI":"大港里","LIN":"19鄰","STREET":"中華北路","SECT":"一段","MAREA":" ","LANE":"３６２巷","ALLEY":"３弄","HOUSE_NO":"７號","E_COORD97":166687.72,"N_COORD97":2546036.3300000001,"ADDRESS":"中華北路一段３６２巷３弄７號","OBJECTID":175430},"geometry":{"x":166687.72000000067,"y":2546036.3300000019}},{"attributes":{"ID":175432,"DIS_CODE":0,"TOWNNAME":"北區","LI":"大港里","LIN":"19鄰","STREET":"中華北路","SECT":"一段","MAREA":" ","LANE":"３６２巷","ALLEY":"３弄","HOUSE_NO":"９號","E_COORD97":166691.39000000001,"N_COORD97":2546038.3300000001,"ADDRESS":"中華北路一段３６２巷３弄９號","OBJECTID":175431},"geometry":{"x":166691.39000000153,"y":2546038.3300000001}},{"attributes":{"ID":175433,"DIS_CODE":0,"TOWNNAME":"北區","LI":"大港里","LIN":"14鄰","STREET":"大興街","SECT":" ","MAREA":" ","LANE":"２８０巷","ALLEY":"３４弄","HOUSE_NO":"１０號","E_COORD97":166630.62,"N_COORD97":2545773.5299999998,"ADDRESS":"大興街２８０巷３４弄１０號","OBJECTID":175432},"geometry":{"x":166630.62000000011,"y":2545773.5300000012}},{"attributes":{"ID":175434,"DIS_CODE":0,"TOWNNAME":"北區","LI":"大和里","LIN":"17鄰","STREET":"文賢路","SECT":" ","MAREA":" ","LANE":"８３３巷","ALLEY":"２２弄","HOUSE_NO":"１３號","E_COORD97":167207.85000000001,"N_COORD97":2546415.4100000001,"ADDRESS":"文賢路８３３巷２２弄１３號","OBJECTID":175433},"geometry":{"x":167207.84999999963,"y":2546415.4100000039}},{"attributes":{"ID":175435,"DIS_CODE":0,"TOWNNAME":"北區","LI":"大和里","LIN":"17鄰","STREET":"文賢路","SECT":" ","MAREA":" ","LANE":"８３３巷","ALLEY":"２２弄","HOUSE_NO":"１４號","E_COORD97":167227.12,"N_COORD97":2546418.96,"ADDRESS":"文賢路８３３巷２２弄１４號","OBJECTID":175434},"geometry":{"x":167227.12000000011,"y":2546418.9600000046}},{"attributes":{"ID":175436,"DIS_CODE":0,"TOWNNAME":"北區","LI":"大和里","LIN":"17鄰","STREET":"文賢路","SECT":" ","MAREA":" ","LANE":"８３３巷","ALLEY":"２２弄","HOUSE_NO":"１５號","E_COORD97":167207.26000000001,"N_COORD97":2546419.75,"ADDRESS":"文賢路８３３巷２２弄１５號","OBJECTID":175435},"geometry":{"x":167207.25999999978,"y":2546419.7500000037}},{"attributes":{"ID":175437,"DIS_CODE":0,"TOWNNAME":"北區","LI":"大和里","LIN":"17鄰","STREET":"文賢路","SECT":" ","MAREA":" ","LANE":"８３３巷","ALLEY":"２２弄","HOUSE_NO":"１６號","E_COORD97":167226.48999999999,"N_COORD97":2546423.3199999998,"ADDRESS":"文賢路８３３巷２２弄１６號","OBJECTID":175436},"geometry":{"x":167226.49000000022,"y":2546423.3200000022}},{"attributes":{"ID":175438,"DIS_CODE":0,"TOWNNAME":"北區","LI":"大和里","LIN":"17鄰","STREET":"文賢路","SECT":" ","MAREA":" ","LANE":"８３３巷","ALLEY":"２２弄","HOUSE_NO":"１８號","E_COORD97":167225.51000000001,"N_COORD97":2546427.3199999998,"ADDRESS":"文賢路８３３巷２２弄１８號","OBJECTID":175437},"geometry":{"x":167225.51000000071,"y":2546427.3200000022}},{"attributes":{"ID":175439,"DIS_CODE":0,"TOWNNAME":"永康區","LI":"永康里","LIN":"10鄰","STREET":"永康街","SECT":" ","MAREA":" ","LANE":" ","ALLEY":" ","HOUSE_NO":"２６號","E_COORD97":173769.56,"N_COORD97":2547272.5299999998,"ADDRESS":"永康街２６號","OBJECTID":175438},"geometry":{"x":173769.56000000052,"y":2547272.5300000012}},{"attributes":{"ID":175440,"DIS_CODE":0,"TOWNNAME":"安南區","LI":"新順里","LIN":"10鄰","STREET":"景安街","SECT":" ","MAREA":" ","LANE":" ","ALLEY":" ","HOUSE_NO":"８５號","E_COORD97":169538.54000000001,"N_COORD97":2549136.25,"ADDRESS":"景安街８５號","OBJECTID":175439},"geometry":{"x":169538.54000000004,"y":2549136.2500000019}},{"attributes":{"ID":175441,"DIS_CODE":0,"TOWNNAME":"麻豆區","LI":"保安里","LIN":"10鄰","STREET":"興中路","SECT":" ","MAREA":" ","LANE":" ","ALLEY":" ","HOUSE_NO":"４號","E_COORD97":173086.92999999999,"N_COORD97":2564809.9700000002,"ADDRESS":"興中路４號","OBJECTID":175440},"geometry":{"x":173086.9299999997,"y":2564809.9700000007}},{"attributes":{"ID":175442,"DIS_CODE":0,"TOWNNAME":"麻豆區","LI":"保安里","LIN":"10鄰","STREET":"興中路","SECT":" ","MAREA":" ","LANE":" ","ALLEY":" ","HOUSE_NO":"６號","E_COORD97":173100.57000000001,"N_COORD97":2564809.4399999999,"ADDRESS":"興中路６號","OBJECTID":175441},"geometry":{"x":173100.57000000123,"y":2564809.4399999995}},{"attributes":{"ID":175443,"DIS_CODE":0,"TOWNNAME":"白河區","LI":"竹門里","LIN":"10鄰","STREET":" ","SECT":" ","MAREA":"竹子門","LANE":" ","ALLEY":" ","HOUSE_NO":"１１４之１０號","E_COORD97":193430.48000000001,"N_COORD97":2585996.5099999998,"ADDRESS":"竹子門１１４之１０號","OBJECTID":175442},"geometry":{"x":193430.48000000138,"y":2585996.5099999998}},{"attributes":{"ID":175444,"DIS_CODE":0,"TOWNNAME":"白河區","LI":"竹門里","LIN":"10鄰","STREET":" ","SECT":" ","MAREA":"竹子門","LANE":" ","ALLEY":" ","HOUSE_NO":"１１４之１２號","E_COORD97":193425.16,"N_COORD97":2585962.1400000001,"ADDRESS":"竹子門１１４之１２號","OBJECTID":175443},"geometry":{"x":193425.16000000108,"y":2585962.1400000006}},{"attributes":{"ID":175445,"DIS_CODE":0,"TOWNNAME":"白河區","LI":"竹門里","LIN":"10鄰","STREET":" ","SECT":" ","MAREA":"竹子門","LANE":" ","ALLEY":" ","HOUSE_NO":"１１４之１號","E_COORD97":193386.28,"N_COORD97":2586112.3199999998,"ADDRESS":"竹子門１１４之１號","OBJECTID":175444},"geometry":{"x":193386.28000000026,"y":2586112.3200000003}},{"attributes":{"ID":175446,"DIS_CODE":0,"TOWNNAME":"白河區","LI":"竹門里","LIN":"10鄰","STREET":" ","SECT":" ","MAREA":"竹子門","LANE":" ","ALLEY":" ","HOUSE_NO":"１１４之３號","E_COORD97":193389.56,"N_COORD97":2586104.46,"ADDRESS":"竹子門１１４之３號","OBJECTID":175445},"geometry":{"x":193389.56000000052,"y":2586104.4600000028}},{"attributes":{"ID":175447,"DIS_CODE":0,"TOWNNAME":"白河區","LI":"竹門里","LIN":"10鄰","STREET":" ","SECT":" ","MAREA":"竹子門","LANE":" ","ALLEY":" ","HOUSE_NO":"１１５之２號","E_COORD97":193350.60000000001,"N_COORD97":2586093.5,"ADDRESS":"竹子門１１５之２號","OBJECTID":175446},"geometry":{"x":193350.60000000056,"y":2586093.5000000019}},{"attributes":{"ID":175448,"DIS_CODE":0,"TOWNNAME":"北區","LI":"大和里","LIN":"17鄰","STREET":"文賢路","SECT":" ","MAREA":" ","LANE":"８３３巷","ALLEY":"２２弄","HOUSE_NO":"１號","E_COORD97":167213.29999999999,"N_COORD97":2546390.6600000001,"ADDRESS":"文賢路８３３巷２２弄１號","OBJECTID":175447},"geometry":{"x":167213.30000000075,"y":2546390.660000002}},{"attributes":{"ID":175449,"DIS_CODE":0,"TOWNNAME":"白河區","LI":"竹門里","LIN":"10鄰","STREET":" ","SECT":" ","MAREA":"竹子門","LANE":" ","ALLEY":" ","HOUSE_NO":"１１５之４號","E_COORD97":193355.45000000001,"N_COORD97":2586113.9700000002,"ADDRESS":"竹子門１１５之４號","OBJECTID":175448},"geometry":{"x":193355.45000000112,"y":2586113.9700000025}},{"attributes":{"ID":175450,"DIS_CODE":0,"TOWNNAME":"北區","LI":"大和里","LIN":"17鄰","STREET":"文賢路","SECT":" ","MAREA":" ","LANE":"８３３巷","ALLEY":"２２弄","HOUSE_NO":"２０號","E_COORD97":167224.81,"N_COORD97":2546431.7400000002,"ADDRESS":"文賢路８３３巷２２弄２０號","OBJECTID":175449},"geometry":{"x":167224.81000000052,"y":2546431.7400000002}},{"attributes":{"ID":175451,"DIS_CODE":0,"TOWNNAME":"北區","LI":"大和里","LIN":"17鄰","STREET":"文賢路","SECT":" ","MAREA":" ","LANE":"８３３巷","ALLEY":"２２弄","HOUSE_NO":"２號","E_COORD97":167232.39000000001,"N_COORD97":2546394.29,"ADDRESS":"文賢路８３３巷２２弄２號","OBJECTID":175450},"geometry":{"x":167232.3900000006,"y":2546394.2899999991}},{"attributes":{"ID":175452,"DIS_CODE":0,"TOWNNAME":"北區","LI":"大和里","LIN":"17鄰","STREET":"文賢路","SECT":" ","MAREA":" ","LANE":"８３３巷","ALLEY":"２２弄","HOUSE_NO":"３號","E_COORD97":167213.01000000001,"N_COORD97":2546395,"ADDRESS":"文賢路８３３巷２２弄３號","OBJECTID":175451},"geometry":{"x":167213.01000000071,"y":2546395.0000000019}},{"attributes":{"ID":175453,"DIS_CODE":0,"TOWNNAME":"北區","LI":"大和里","LIN":"17鄰","STREET":"文賢路","SECT":" ","MAREA":" ","LANE":"８３３巷","ALLEY":"２２弄","HOUSE_NO":"４號","E_COORD97":167231.54999999999,"N_COORD97":2546398.6400000001,"ADDRESS":"文賢路８３３巷２２弄４號","OBJECTID":175452},"geometry":{"x":167231.55000000075,"y":2546398.6400000025}},{"attributes":{"ID":175454,"DIS_CODE":0,"TOWNNAME":"北區","LI":"大和里","LIN":"17鄰","STREET":"文賢路","SECT":" ","MAREA":" ","LANE":"８３３巷","ALLEY":"２２弄","HOUSE_NO":"５號","E_COORD97":167211.39000000001,"N_COORD97":2546399.2200000002,"ADDRESS":"文賢路８３３巷２２弄５號","OBJECTID":175453},"geometry":{"x":167211.38999999966,"y":2546399.2200000007}},{"attributes":{"ID":175455,"DIS_CODE":0,"TOWNNAME":"北區","LI":"大和里","LIN":"17鄰","STREET":"文賢路","SECT":" ","MAREA":" ","LANE":"８３３巷","ALLEY":"２２弄","HOUSE_NO":"６號","E_COORD97":167230.42999999999,"N_COORD97":2546403.29,"ADDRESS":"文賢路８３３巷２２弄６號","OBJECTID":175454},"geometry":{"x":167230.43000000063,"y":2546403.2899999991}},{"attributes":{"ID":175456,"DIS_CODE":0,"TOWNNAME":"北區","LI":"大和里","LIN":"17鄰","STREET":"文賢路","SECT":" ","MAREA":" ","LANE":"８３３巷","ALLEY":"２２弄","HOUSE_NO":"７號","E_COORD97":167210.87,"N_COORD97":2546403.5600000001,"ADDRESS":"文賢路８３３巷２２弄７號","OBJECTID":175455},"geometry":{"x":167210.87000000197,"y":2546403.5600000005}},{"attributes":{"ID":175457,"DIS_CODE":0,"TOWNNAME":"北區","LI":"大和里","LIN":"17鄰","STREET":"文賢路","SECT":" ","MAREA":" ","LANE":"８３３巷","ALLEY":"２２弄","HOUSE_NO":"８號","E_COORD97":167229.94,"N_COORD97":2546407,"ADDRESS":"文賢路８３３巷２２弄８號","OBJECTID":175456},"geometry":{"x":167229.94000000134,"y":2546407}},{"attributes":{"ID":175458,"DIS_CODE":0,"TOWNNAME":"北區","LI":"大和里","LIN":"17鄰","STREET":"文賢路","SECT":" ","MAREA":" ","LANE":"８３３巷","ALLEY":"２２弄","HOUSE_NO":"９號","E_COORD97":167210.13,"N_COORD97":2546407.3900000001,"ADDRESS":"文賢路８３３巷２２弄９號","OBJECTID":175457},"geometry":{"x":167210.12999999989,"y":2546407.3900000006}},{"attributes":{"ID":175459,"DIS_CODE":0,"TOWNNAME":"歸仁區","LI":"看東里","LIN":"16鄰","STREET":"成功路","SECT":"一段","MAREA":" ","LANE":"２７巷","ALLEY":"６０弄","HOUSE_NO":"３７１號","E_COORD97":179077.106895,"N_COORD97":2538905.5003499999,"ADDRESS":"成功路一段２７巷６０弄３７１號","OBJECTID":175458},"geometry":{"x":179077.10689499974,"y":2538905.500349002}},{"attributes":{"ID":175460,"DIS_CODE":0,"TOWNNAME":"白河區","LI":"竹門里","LIN":"10鄰","STREET":" ","SECT":" ","MAREA":"竹子門","LANE":" ","ALLEY":" ","HOUSE_NO":"１１５之６號","E_COORD97":193340.35000000001,"N_COORD97":2586114.2400000002,"ADDRESS":"竹子門１１５之６號","OBJECTID":175459},"geometry":{"x":193340.35000000056,"y":2586114.2399999984}},{"attributes":{"ID":175461,"DIS_CODE":0,"TOWNNAME":"歸仁區","LI":"看東里","LIN":"16鄰","STREET":"成功路","SECT":"一段","MAREA":" ","LANE":"２７巷","ALLEY":"６０弄","HOUSE_NO":"３７５號","E_COORD97":179471.699387,"N_COORD97":2538579.95719,"ADDRESS":"成功路一段２７巷６０弄３７５號","OBJECTID":175460},"geometry":{"x":179471.69938699994,"y":2538579.957192}},{"attributes":{"ID":175462,"DIS_CODE":0,"TOWNNAME":"歸仁區","LI":"看東里","LIN":"16鄰","STREET":"成功路","SECT":"一段","MAREA":" ","LANE":"２７巷","ALLEY":"６０弄","HOUSE_NO":"６７５號","E_COORD97":180073.12446399999,"N_COORD97":2538949.10366,"ADDRESS":"成功路一段２７巷６０弄６７５號","OBJECTID":175461},"geometry":{"x":180073.12446400058,"y":2538949.1036590021}},{"attributes":{"ID":175463,"DIS_CODE":0,"TOWNNAME":"歸仁區","LI":"看東里","LIN":"16鄰","STREET":"成功路","SECT":"一段","MAREA":" ","LANE":"２７巷","ALLEY":"６０弄","HOUSE_NO":"１７５號","E_COORD97":179220.36389000001,"N_COORD97":2539610.7733,"ADDRESS":"成功路一段２７巷６０弄１７５號","OBJECTID":175462},"geometry":{"x":179220.36388999969,"y":2539610.773302}},{"attributes":{"ID":175464,"DIS_CODE":0,"TOWNNAME":"北區","LI":"大港里","LIN":"34鄰","STREET":"大興街","SECT":" ","MAREA":" ","LANE":"５２８巷","ALLEY":"１３弄","HOUSE_NO":"６６號","E_COORD97":165896.48999999999,"N_COORD97":2545469.8700000001,"ADDRESS":"大興街５２８巷１３弄６６號","OBJECTID":175463},"geometry":{"x":165896.49000000115,"y":2545469.870000001}},{"attributes":{"ID":175465,"DIS_CODE":0,"TOWNNAME":"白河區","LI":"竹門里","LIN":"10鄰","STREET":" ","SECT":" ","MAREA":"竹子門","LANE":" ","ALLEY":" ","HOUSE_NO":"１１５號","E_COORD97":193363.67000000001,"N_COORD97":2586116.3599999999,"ADDRESS":"竹子門１１５號","OBJECTID":175464},"geometry":{"x":193363.67000000179,"y":2586116.3600000031}},{"attributes":{"ID":175466,"DIS_CODE":0,"TOWNNAME":"白河區","LI":"竹門里","LIN":"10鄰","STREET":" ","SECT":" ","MAREA":"竹子門","LANE":" ","ALLEY":" ","HOUSE_NO":"１１６號","E_COORD97":193373.73999999999,"N_COORD97":2586034.2000000002,"ADDRESS":"竹子門１１６號","OBJECTID":175465},"geometry":{"x":193373.74000000209,"y":2586034.1999999993}},{"attributes":{"ID":175467,"DIS_CODE":0,"TOWNNAME":"北區","LI":"大港里","LIN":"34鄰","STREET":"大興街","SECT":" ","MAREA":" ","LANE":"５２８巷","ALLEY":"４９弄","HOUSE_NO":"１６號","E_COORD97":165947.12,"N_COORD97":2545519.5299999998,"ADDRESS":"大興街５２８巷４９弄１６號","OBJECTID":175466},"geometry":{"x":165947.12000000011,"y":2545519.5300000012}},{"attributes":{"ID":175468,"DIS_CODE":0,"TOWNNAME":"北區","LI":"大港里","LIN":"35鄰","STREET":"大興街","SECT":" ","MAREA":" ","LANE":"６０２巷","ALLEY":"１弄","HOUSE_NO":"１５號","E_COORD97":165810.98000000001,"N_COORD97":2545400,"ADDRESS":"大興街６０２巷１弄１５號","OBJECTID":175467},"geometry":{"x":165810.98000000138,"y":2545400}},{"attributes":{"ID":175469,"DIS_CODE":0,"TOWNNAME":"北區","LI":"大港里","LIN":"35鄰","STREET":"大興街","SECT":" ","MAREA":" ","LANE":"６０２巷","ALLEY":"１弄","HOUSE_NO":"１７號","E_COORD97":165806.63,"N_COORD97":2545398.0099999998,"ADDRESS":"大興街６０２巷１弄１７號","OBJECTID":175468},"geometry":{"x":165806.62999999989,"y":2545398.0100000016}},{"attributes":{"ID":175470,"DIS_CODE":0,"TOWNNAME":"北區","LI":"大港里","LIN":"35鄰","STREET":"大興街","SECT":" ","MAREA":" ","LANE":"６０２巷","ALLEY":"１弄","HOUSE_NO":"１９號","E_COORD97":165803.57999999999,"N_COORD97":2545396.5899999999,"ADDRESS":"大興街６０２巷１弄１９號","OBJECTID":175469},"geometry":{"x":165803.58000000007,"y":2545396.5900000036}},{"attributes":{"ID":175471,"DIS_CODE":0,"TOWNNAME":"北區","LI":"大港里","LIN":"35鄰","STREET":"大興街","SECT":" ","MAREA":" ","LANE":"６０２巷","ALLEY":"１弄","HOUSE_NO":"１號","E_COORD97":165839.53,"N_COORD97":2545413.48,"ADDRESS":"大興街６０２巷１弄１號","OBJECTID":175470},"geometry":{"x":165839.53000000026,"y":2545413.4800000004}},{"attributes":{"ID":175472,"DIS_CODE":0,"TOWNNAME":"北區","LI":"大港里","LIN":"35鄰","STREET":"大興街","SECT":" ","MAREA":" ","LANE":"６０２巷","ALLEY":"１弄","HOUSE_NO":"２１號","E_COORD97":165799.09,"N_COORD97":2545394.75,"ADDRESS":"大興街６０２巷１弄２１號","OBJECTID":175471},"geometry":{"x":165799.09000000078,"y":2545394.75}},{"attributes":{"ID":175473,"DIS_CODE":0,"TOWNNAME":"北區","LI":"大港里","LIN":"35鄰","STREET":"大興街","SECT":" ","MAREA":" ","LANE":"６０２巷","ALLEY":"１弄","HOUSE_NO":"２３號","E_COORD97":165795.42000000001,"N_COORD97":2545392.8700000001,"ADDRESS":"大興街６０２巷１弄２３號","OBJECTID":175472},"geometry":{"x":165795.42000000086,"y":2545392.8700000029}},{"attributes":{"ID":175474,"DIS_CODE":0,"TOWNNAME":"北區","LI":"大港里","LIN":"35鄰","STREET":"大興街","SECT":" ","MAREA":" ","LANE":"６０２巷","ALLEY":"１弄","HOUSE_NO":"２５號","E_COORD97":165791.07999999999,"N_COORD97":2545391.5899999999,"ADDRESS":"大興街６０２巷１弄２５號","OBJECTID":175473},"geometry":{"x":165791.08000000101,"y":2545391.5899999999}},{"attributes":{"ID":175475,"DIS_CODE":0,"TOWNNAME":"北區","LI":"大港里","LIN":"35鄰","STREET":"大興街","SECT":" ","MAREA":" ","LANE":"６０２巷","ALLEY":"１弄","HOUSE_NO":"２７號","E_COORD97":165787.16,"N_COORD97":2545389.6099999999,"ADDRESS":"大興街６０２巷１弄２７號","OBJECTID":175474},"geometry":{"x":165787.16000000108,"y":2545389.6100000013}},{"attributes":{"ID":175476,"DIS_CODE":0,"TOWNNAME":"北區","LI":"大港里","LIN":"35鄰","STREET":"大興街","SECT":" ","MAREA":" ","LANE":"６０２巷","ALLEY":"１弄","HOUSE_NO":"２９號","E_COORD97":165783.23999999999,"N_COORD97":2545387.1899999999,"ADDRESS":"大興街６０２巷１弄２９號","OBJECTID":175475},"geometry":{"x":165783.24000000115,"y":2545387.1899999995}},{"attributes":{"ID":175477,"DIS_CODE":0,"TOWNNAME":"安南區","LI":"\u25A0田里","LIN":"1鄰","STREET":"大眾路","SECT":" ","MAREA":" ","LANE":"１０１巷","ALLEY":"１２３弄","HOUSE_NO":"８號","E_COORD97":161979.719431,"N_COORD97":2547447.5297300001,"ADDRESS":"大眾路１０１巷１２３弄８號","OBJECTID":175476},"geometry":{"x":161979.71943100076,"y":2547447.5297300015}},{"attributes":{"ID":175478,"DIS_CODE":0,"TOWNNAME":"北區","LI":"大港里","LIN":"35鄰","STREET":"大興街","SECT":" ","MAREA":" ","LANE":"６０２巷","ALLEY":"１弄","HOUSE_NO":"３１號","E_COORD97":165778.89999999999,"N_COORD97":2545385.9199999999,"ADDRESS":"大興街６０２巷１弄３１號","OBJECTID":175477},"geometry":{"x":165778.9000000013,"y":2545385.9200000018}},{"attributes":{"ID":175479,"DIS_CODE":0,"TOWNNAME":"北區","LI":"大港里","LIN":"35鄰","STREET":"大興街","SECT":" ","MAREA":" ","LANE":"６０２巷","ALLEY":"１弄","HOUSE_NO":"３３號","E_COORD97":165775.56,"N_COORD97":2545383.6499999999,"ADDRESS":"大興街６０２巷１弄３３號","OBJECTID":175478},"geometry":{"x":165775.56000000052,"y":2545383.6500000022}},{"attributes":{"ID":175480,"DIS_CODE":0,"TOWNNAME":"北區","LI":"大港里","LIN":"35鄰","STREET":"大興街","SECT":" ","MAREA":" ","LANE":"６０２巷","ALLEY":"１弄","HOUSE_NO":"３５號","E_COORD97":165771.22,"N_COORD97":2545382.0899999999,"ADDRESS":"大興街６０２巷１弄３５號","OBJECTID":175479},"geometry":{"x":165771.22000000067,"y":2545382.0899999999}},{"attributes":{"ID":175481,"DIS_CODE":0,"TOWNNAME":"北區","LI":"大港里","LIN":"35鄰","STREET":"大興街","SECT":" ","MAREA":" ","LANE":"６０２巷","ALLEY":"１弄","HOUSE_NO":"３７號","E_COORD97":165767.59,"N_COORD97":2545380.3799999999,"ADDRESS":"大興街６０２巷１弄３７號","OBJECTID":175480},"geometry":{"x":165767.58999999985,"y":2545380.3800000027}},{"attributes":{"ID":175482,"DIS_CODE":0,"TOWNNAME":"北區","LI":"大港里","LIN":"35鄰","STREET":"大興街","SECT":" ","MAREA":" ","LANE":"６０２巷","ALLEY":"１弄","HOUSE_NO":"３９號","E_COORD97":165763.67999999999,"N_COORD97":2545378.3999999999,"ADDRESS":"大興街６０２巷１弄３９號","OBJECTID":175481},"geometry":{"x":165763.6799999997,"y":2545378.4000000022}},{"attributes":{"ID":175483,"DIS_CODE":0,"TOWNNAME":"北區","LI":"大港里","LIN":"35鄰","STREET":"大興街","SECT":" ","MAREA":" ","LANE":"６０２巷","ALLEY":"１弄","HOUSE_NO":"３號","E_COORD97":165835.62,"N_COORD97":2545411.3500000001,"ADDRESS":"大興街６０２巷１弄３號","OBJECTID":175482},"geometry":{"x":165835.62000000011,"y":2545411.3499999978}},{"attributes":{"ID":175484,"DIS_CODE":0,"TOWNNAME":"北區","LI":"大港里","LIN":"35鄰","STREET":"大興街","SECT":" ","MAREA":" ","LANE":"６０２巷","ALLEY":"１弄","HOUSE_NO":"７號","E_COORD97":165826.48999999999,"N_COORD97":2545407.3799999999,"ADDRESS":"大興街６０２巷１弄７號","OBJECTID":175483},"geometry":{"x":165826.49000000022,"y":2545407.3800000027}},{"attributes":{"ID":175485,"DIS_CODE":0,"TOWNNAME":"北區","LI":"大港里","LIN":"35鄰","STREET":"大興街","SECT":" ","MAREA":" ","LANE":"６０２巷","ALLEY":"１弄","HOUSE_NO":"９號","E_COORD97":165822,"N_COORD97":2545405.5299999998,"ADDRESS":"大興街６０２巷１弄９號","OBJECTID":175484},"geometry":{"x":165822.00000000093,"y":2545405.5299999993}},{"attributes":{"ID":175486,"DIS_CODE":0,"TOWNNAME":"北區","LI":"大和里","LIN":"21鄰","STREET":"大港街","SECT":" ","MAREA":" ","LANE":"３８巷","ALLEY":"１５弄","HOUSE_NO":"１０號","E_COORD97":167119.42999999999,"N_COORD97":2546137.2799999998,"ADDRESS":"大港街３８巷１５弄１０號","OBJECTID":175485},"geometry":{"x":167119.4299999997,"y":2546137.2800000031}},{"attributes":{"ID":175487,"DIS_CODE":0,"TOWNNAME":"北區","LI":"大和里","LIN":"21鄰","STREET":"大港街","SECT":" ","MAREA":" ","LANE":"３８巷","ALLEY":"１５弄","HOUSE_NO":"１１號","E_COORD97":167127.70999999999,"N_COORD97":2546120.96,"ADDRESS":"大港街３８巷１５弄１１號","OBJECTID":175486},"geometry":{"x":167127.71000000089,"y":2546120.9600000046}},{"attributes":{"ID":175488,"DIS_CODE":0,"TOWNNAME":"北區","LI":"大和里","LIN":"21鄰","STREET":"大港街","SECT":" ","MAREA":" ","LANE":"３８巷","ALLEY":"１５弄","HOUSE_NO":"１３號","E_COORD97":167101.51999999999,"N_COORD97":2546110.5099999998,"ADDRESS":"大港街３８巷１５弄１３號","OBJECTID":175487},"geometry":{"x":167101.51999999955,"y":2546110.5100000016}},{"attributes":{"ID":175489,"DIS_CODE":0,"TOWNNAME":"北區","LI":"大和里","LIN":"21鄰","STREET":"大港街","SECT":" ","MAREA":" ","LANE":"３８巷","ALLEY":"１５弄","HOUSE_NO":"１５號","E_COORD97":167097.29000000001,"N_COORD97":2546108.4300000002,"ADDRESS":"大港街３８巷１５弄１５號","OBJECTID":175488},"geometry":{"x":167097.29000000004,"y":2546108.4299999997}},{"attributes":{"ID":175490,"DIS_CODE":0,"TOWNNAME":"關廟區","LI":"五甲里","LIN":"14鄰","STREET":"光復街","SECT":" ","MAREA":" ","LANE":"３７巷","ALLEY":"１０弄","HOUSE_NO":"１０號","E_COORD97":181424.98999999999,"N_COORD97":2539278.2799999998,"ADDRESS":"光復街３７巷１０弄１０號","OBJECTID":175489},"geometry":{"x":181424.99000000115,"y":2539278.2799999975}},{"attributes":{"ID":175491,"DIS_CODE":0,"TOWNNAME":"關廟區","LI":"五甲里","LIN":"13鄰","STREET":"光復街","SECT":" ","MAREA":" ","LANE":"６３巷","ALLEY":"２弄","HOUSE_NO":"７號","E_COORD97":181493.48999999999,"N_COORD97":2539324.2799999998,"ADDRESS":"光復街６３巷２弄７號","OBJECTID":175490},"geometry":{"x":181493.49000000022,"y":2539324.2799999993}},{"attributes":{"ID":175492,"DIS_CODE":0,"TOWNNAME":"關廟區","LI":"關廟里","LIN":"14鄰","STREET":"民生街","SECT":" ","MAREA":" ","LANE":"１１５巷","ALLEY":"２２弄","HOUSE_NO":"１１號","E_COORD97":180599.79000000001,"N_COORD97":2539681.29,"ADDRESS":"民生街１１５巷２２弄１１號","OBJECTID":175491},"geometry":{"x":180599.7900000019,"y":2539681.2899999991}},{"attributes":{"ID":175493,"DIS_CODE":0,"TOWNNAME":"關廟區","LI":"北花里","LIN":"18鄰","STREET":"中正路","SECT":" ","MAREA":" ","LANE":"５６７巷","ALLEY":"８弄","HOUSE_NO":"５號","E_COORD97":182338.10999999999,"N_COORD97":2540403.0699999998,"ADDRESS":"中正路５６７巷８弄５號","OBJECTID":175492},"geometry":{"x":182338.11000000034,"y":2540403.070000004}},{"attributes":{"ID":175494,"DIS_CODE":0,"TOWNNAME":"關廟區","LI":"北勢里","LIN":"18鄰","STREET":"成功路","SECT":" ","MAREA":" ","LANE":"３５３巷","ALLEY":"２弄","HOUSE_NO":"１２號","E_COORD97":181241.92000000001,"N_COORD97":2540480.27,"ADDRESS":"成功路３５３巷２弄１２號","OBJECTID":175493},"geometry":{"x":181241.92000000086,"y":2540480.2700000014}},{"attributes":{"ID":175495,"DIS_CODE":0,"TOWNNAME":"關廟區","LI":"布袋里","LIN":"4鄰","STREET":"長文街","SECT":" ","MAREA":" ","LANE":"２２５巷","ALLEY":"１６弄","HOUSE_NO":"１１號","E_COORD97":182538.44,"N_COORD97":2535157.2999999998,"ADDRESS":"長文街２２５巷１６弄１１號","OBJECTID":175494},"geometry":{"x":182538.44000000227,"y":2535157.3000000045}},{"attributes":{"ID":175496,"DIS_CODE":0,"TOWNNAME":"關廟區","LI":"松腳里","LIN":"18鄰","STREET":"中山路","SECT":"一段","MAREA":" ","LANE":"８９巷","ALLEY":"３７弄","HOUSE_NO":"９號","E_COORD97":181963.95999999999,"N_COORD97":2539877.2799999998,"ADDRESS":"中山路一段８９巷３７弄９號","OBJECTID":175495},"geometry":{"x":181963.96000000089,"y":2539877.2799999993}},{"attributes":{"ID":175497,"DIS_CODE":0,"TOWNNAME":"關廟區","LI":"松腳里","LIN":"18鄰","STREET":"中山路","SECT":"一段","MAREA":" ","LANE":"８９巷","ALLEY":"３７弄","HOUSE_NO":"３２號","E_COORD97":181984.01000000001,"N_COORD97":2539871.2799999998,"ADDRESS":"中山路一段８９巷３７弄３２號","OBJECTID":175496},"geometry":{"x":181984.00999999978,"y":2539871.2799999993}},{"attributes":{"ID":175498,"DIS_CODE":0,"TOWNNAME":"關廟區","LI":"松腳里","LIN":"18鄰","STREET":"中山路","SECT":"一段","MAREA":" ","LANE":"８９巷","ALLEY":"３７弄","HOUSE_NO":"２５號","E_COORD97":181977.10999999999,"N_COORD97":2539901.2799999998,"ADDRESS":"中山路一段８９巷３７弄２５號","OBJECTID":175497},"geometry":{"x":181977.11000000034,"y":2539901.2799999993}},{"attributes":{"ID":175499,"DIS_CODE":0,"TOWNNAME":"關廟區","LI":"北花里","LIN":"18鄰","STREET":"中正路","SECT":" ","MAREA":" ","LANE":"５６７巷","ALLEY":"８弄","HOUSE_NO":"１號","E_COORD97":182340.87,"N_COORD97":2540408.29,"ADDRESS":"中正路５６７巷８弄１號","OBJECTID":175498},"geometry":{"x":182340.87000000104,"y":2540408.290000001}},{"attributes":{"ID":175500,"DIS_CODE":0,"TOWNNAME":"關廟區","LI":"北花里","LIN":"20鄰","STREET":"中正路","SECT":" ","MAREA":" ","LANE":"７３巷","ALLEY":"３２弄","HOUSE_NO":"２０號","E_COORD97":183645.29000000001,"N_COORD97":2540845.8799999999,"ADDRESS":"中正路７３巷３２弄２０號","OBJECTID":175499},"geometry":{"x":183645.29000000004,"y":2540845.879999999}},{"attributes":{"ID":175501,"DIS_CODE":0,"TOWNNAME":"永康區","LI":"二王里","LIN":"5鄰","STREET":"二王路","SECT":" ","MAREA":" ","LANE":"４０巷","ALLEY":"３弄","HOUSE_NO":"２８號","E_COORD97":172943.54147699999,"N_COORD97":2546709.36576,"ADDRESS":"二王路４０巷３弄２８號","OBJECTID":175500},"geometry":{"x":172943.54147700127,"y":2546709.3657620009}},{"attributes":{"ID":175502,"DIS_CODE":0,"TOWNNAME":"關廟區","LI":"北花里","LIN":"18鄰","STREET":"中正路","SECT":" ","MAREA":" ","LANE":"５６７巷","ALLEY":"８弄","HOUSE_NO":"３號","E_COORD97":182340.01000000001,"N_COORD97":2540406.0699999998,"ADDRESS":"中正路５６７巷８弄３號","OBJECTID":175501},"geometry":{"x":182340.00999999978,"y":2540406.0700000003}},{"attributes":{"ID":175503,"DIS_CODE":0,"TOWNNAME":"關廟區","LI":"五甲里","LIN":"14鄰","STREET":"光復街","SECT":" ","MAREA":" ","LANE":"３７巷","ALLEY":"１０弄","HOUSE_NO":"１號","E_COORD97":181411.84,"N_COORD97":2539268.2799999998,"ADDRESS":"光復街３７巷１０弄１號","OBJECTID":175502},"geometry":{"x":181411.84000000078,"y":2539268.2800000031}},{"attributes":{"ID":175504,"DIS_CODE":0,"TOWNNAME":"關廟區","LI":"南花里","LIN":"4鄰","STREET":"花園一街","SECT":" ","MAREA":" ","LANE":"８９巷","ALLEY":"１７弄","HOUSE_NO":"１０號","E_COORD97":181960.14000000001,"N_COORD97":2540080.25,"ADDRESS":"花園一街８９巷１７弄１０號","OBJECTID":175503},"geometry":{"x":181960.1400000006,"y":2540080.2500000019}},{"attributes":{"ID":175505,"DIS_CODE":0,"TOWNNAME":"關廟區","LI":"南花里","LIN":"4鄰","STREET":"花園一街","SECT":" ","MAREA":" ","LANE":"８９巷","ALLEY":"７弄","HOUSE_NO":"１５號","E_COORD97":181967.69,"N_COORD97":2540134.25,"ADDRESS":"花園一街８９巷７弄１５號","OBJECTID":175504},"geometry":{"x":181967.69000000134,"y":2540134.2500000019}},{"attributes":{"ID":175506,"DIS_CODE":0,"TOWNNAME":"關廟區","LI":"南花里","LIN":"4鄰","STREET":"花園一街","SECT":" ","MAREA":" ","LANE":"８９巷","ALLEY":"７弄","HOUSE_NO":"９號","E_COORD97":181954.23999999999,"N_COORD97":2540149.25,"ADDRESS":"花園一街８９巷７弄９號","OBJECTID":175505},"geometry":{"x":181954.24000000022,"y":2540149.25}},{"attributes":{"ID":175507,"DIS_CODE":0,"TOWNNAME":"關廟區","LI":"埤頭里","LIN":"13鄰","STREET":"關新路","SECT":"二段","MAREA":" ","LANE":"４６２巷","ALLEY":"３６弄","HOUSE_NO":"１８號","E_COORD97":179288.16013500001,"N_COORD97":2545074.53186,"ADDRESS":"關新路二段４６２巷３６弄１８號","OBJECTID":175506},"geometry":{"x":179288.16013500001,"y":2545074.5318640005}},{"attributes":{"ID":175508,"DIS_CODE":0,"TOWNNAME":"關廟區","LI":"北花里","LIN":"20鄰","STREET":"中正路","SECT":" ","MAREA":" ","LANE":"７３巷","ALLEY":"３２弄","HOUSE_NO":"２１號","E_COORD97":183636.89000000001,"N_COORD97":2540834.8799999999,"ADDRESS":"中正路７３巷３２弄２１號","OBJECTID":175507},"geometry":{"x":183636.8900000006,"y":2540834.8800000008}},{"attributes":{"ID":175509,"DIS_CODE":0,"TOWNNAME":"關廟區","LI":"關廟里","LIN":"14鄰","STREET":"民生街","SECT":" ","MAREA":" ","LANE":"１１５巷","ALLEY":"２２弄","HOUSE_NO":"９號","E_COORD97":180615.73999999999,"N_COORD97":2539683.29,"ADDRESS":"民生街１１５巷２２弄９號","OBJECTID":175508},"geometry":{"x":180615.74000000209,"y":2539683.290000001}},{"attributes":{"ID":175510,"DIS_CODE":0,"TOWNNAME":"關廟區","LI":"北花里","LIN":"20鄰","STREET":"中正路","SECT":" ","MAREA":" ","LANE":"７３巷","ALLEY":"３２弄","HOUSE_NO":"１７號","E_COORD97":183646.48999999999,"N_COORD97":2540835.8799999999,"ADDRESS":"中正路７３巷３２弄１７號","OBJECTID":175509},"geometry":{"x":183646.48999999929,"y":2540835.879999999}},{"attributes":{"ID":175511,"DIS_CODE":0,"TOWNNAME":"關廟區","LI":"南花里","LIN":"4鄰","STREET":"花園一街","SECT":" ","MAREA":" ","LANE":"８９巷","ALLEY":"７弄","HOUSE_NO":"１６號","E_COORD97":181970.39000000001,"N_COORD97":2540118.25,"ADDRESS":"花園一街８９巷７弄１６號","OBJECTID":175510},"geometry":{"x":181970.3900000006,"y":2540118.2500000019}},{"attributes":{"ID":175512,"DIS_CODE":0,"TOWNNAME":"關廟區","LI":"松腳里","LIN":"18鄰","STREET":"中山路","SECT":"一段","MAREA":" ","LANE":"８９巷","ALLEY":"３７弄","HOUSE_NO":"１９號","E_COORD97":181977.41,"N_COORD97":2539888.2799999998,"ADDRESS":"中山路一段８９巷３７弄１９號","OBJECTID":175511},"geometry":{"x":181977.41000000201,"y":2539888.2799999993}},{"attributes":{"ID":175513,"DIS_CODE":0,"TOWNNAME":"關廟區","LI":"北花里","LIN":"20鄰","STREET":"中正路","SECT":" ","MAREA":" ","LANE":"７３巷","ALLEY":"３２弄","HOUSE_NO":"１３號","E_COORD97":183654.48999999999,"N_COORD97":2540836.8799999999,"ADDRESS":"中正路７３巷３２弄１３號","OBJECTID":175512},"geometry":{"x":183654.49000000022,"y":2540836.8800000027}},{"attributes":{"ID":175514,"DIS_CODE":0,"TOWNNAME":"關廟區","LI":"五甲里","LIN":"13鄰","STREET":"光復街","SECT":" ","MAREA":" ","LANE":"６３巷","ALLEY":"２弄","HOUSE_NO":"６號","E_COORD97":181497.69,"N_COORD97":2539301.2799999998,"ADDRESS":"光復街６３巷２弄６號","OBJECTID":175513},"geometry":{"x":181497.69000000227,"y":2539301.2799999993}},{"attributes":{"ID":175515,"DIS_CODE":0,"TOWNNAME":"關廟區","LI":"埤頭里","LIN":"13鄰","STREET":"關新路","SECT":"二段","MAREA":" ","LANE":"４６２巷","ALLEY":"１６弄","HOUSE_NO":"２１號","E_COORD97":179243.87984499999,"N_COORD97":2545054.3177100001,"ADDRESS":"關新路二段４６２巷１６弄２１號","OBJECTID":175514},"geometry":{"x":179243.8798450008,"y":2545054.3177080005}},{"attributes":{"ID":175516,"DIS_CODE":0,"TOWNNAME":"關廟區","LI":"五甲里","LIN":"20鄰","STREET":"五慧街","SECT":" ","MAREA":" ","LANE":"１５巷","ALLEY":"１０弄","HOUSE_NO":"６號","E_COORD97":181214.57000000001,"N_COORD97":2539230.25,"ADDRESS":"五慧街１５巷１０弄６號","OBJECTID":175515},"geometry":{"x":181214.5700000003,"y":2539230.2500000019}},{"attributes":{"ID":175517,"DIS_CODE":0,"TOWNNAME":"歸仁區","LI":"歸仁里","LIN":"3鄰","STREET":"文化街","SECT":"一段","MAREA":" ","LANE":"１７５巷","ALLEY":"１０弄","HOUSE_NO":"６號","E_COORD97":177731.05299,"N_COORD97":2541069.6485899999,"ADDRESS":"文化街一段１７５巷１０弄６號","OBJECTID":175516},"geometry":{"x":177731.05299000163,"y":2541069.6485880017}},{"attributes":{"ID":175518,"DIS_CODE":0,"TOWNNAME":"關廟區","LI":"香洋里","LIN":"20鄰","STREET":"中央路","SECT":" ","MAREA":" ","LANE":"５１巷","ALLEY":"１０弄","HOUSE_NO":"１１號","E_COORD97":181504.31,"N_COORD97":2539918.3199999998,"ADDRESS":"中央路５１巷１０弄１１號","OBJECTID":175517},"geometry":{"x":181504.30999999866,"y":2539918.3200000022}},{"attributes":{"ID":175519,"DIS_CODE":0,"TOWNNAME":"關廟區","LI":"香洋里","LIN":"20鄰","STREET":"中央路","SECT":" ","MAREA":" ","LANE":"５１巷","ALLEY":"１０弄","HOUSE_NO":"１２號","E_COORD97":181492.41,"N_COORD97":2539931.3199999998,"ADDRESS":"中央路５１巷１０弄１２號","OBJECTID":175518},"geometry":{"x":181492.40999999922,"y":2539931.3200000022}},{"attributes":{"ID":175520,"DIS_CODE":0,"TOWNNAME":"歸仁區","LI":"歸仁里","LIN":"3鄰","STREET":"文化街","SECT":"一段","MAREA":" ","LANE":"１７５巷","ALLEY":"１０弄","HOUSE_NO":"８號","E_COORD97":177724.27323200001,"N_COORD97":2541061.7110899999,"ADDRESS":"文化街一段１７５巷１０弄８號","OBJECTID":175519},"geometry":{"x":177724.27323200088,"y":2541061.7110920008}},{"attributes":{"ID":175521,"DIS_CODE":0,"TOWNNAME":"關廟區","LI":"香洋里","LIN":"17鄰","STREET":"中央路","SECT":" ","MAREA":" ","LANE":"２２巷","ALLEY":"５弄","HOUSE_NO":"２號","E_COORD97":181603.60999999999,"N_COORD97":2540023.3199999998,"ADDRESS":"中央路２２巷５弄２號","OBJECTID":175520},"geometry":{"x":181603.61000000127,"y":2540023.3200000022}},{"attributes":{"ID":175522,"DIS_CODE":0,"TOWNNAME":"安南區","LI":"淵中里","LIN":"3鄰","STREET":"本淵路","SECT":" ","MAREA":" ","LANE":"５７巷","ALLEY":"４８弄","HOUSE_NO":"５號","E_COORD97":165148.39651799999,"N_COORD97":2549885.1471199999,"ADDRESS":"本淵路５７巷４８弄５號","OBJECTID":175521},"geometry":{"x":165148.39651800133,"y":2549885.1471149996}},{"attributes":{"ID":175523,"DIS_CODE":0,"TOWNNAME":"歸仁區","LI":"歸仁里","LIN":"3鄰","STREET":"文化街","SECT":"一段","MAREA":" ","LANE":"１７５巷","ALLEY":"１２弄","HOUSE_NO":"６號","E_COORD97":177740.057355,"N_COORD97":2541055.1494300002,"ADDRESS":"文化街一段１７５巷１２弄６號","OBJECTID":175522},"geometry":{"x":177740.05735500064,"y":2541055.1494289991}},{"attributes":{"ID":175524,"DIS_CODE":0,"TOWNNAME":"新營區","LI":"新東里","LIN":"4鄰","STREET":"東大街","SECT":" ","MAREA":" ","LANE":"５２巷","ALLEY":"２弄","HOUSE_NO":"１５號","E_COORD97":181095.76999999999,"N_COORD97":2579111.3300000001,"ADDRESS":"東大街５２巷２弄１５號","OBJECTID":175523},"geometry":{"x":181095.76999999955,"y":2579111.3300000001}},{"attributes":{"ID":175525,"DIS_CODE":0,"TOWNNAME":"新營區","LI":"南紙里","LIN":"13鄰","STREET":"太子路","SECT":" ","MAREA":" ","LANE":"２００巷","ALLEY":"１７弄","HOUSE_NO":"４２號","E_COORD97":177792.39999999999,"N_COORD97":2577904.4500000002,"ADDRESS":"太子路２００巷１７弄４２號","OBJECTID":175524},"geometry":{"x":177792.4000000013,"y":2577904.4500000011}},{"attributes":{"ID":175526,"DIS_CODE":0,"TOWNNAME":"仁德區","LI":"仁和里","LIN":"1鄰","STREET":"成功一街","SECT":" ","MAREA":" ","LANE":"２巷","ALLEY":"３５弄","HOUSE_NO":"６號","E_COORD97":170435.827521,"N_COORD97":2540245.8865999999,"ADDRESS":"成功一街２巷３５弄６號","OBJECTID":175525},"geometry":{"x":170435.82752100006,"y":2540245.8866039999}},{"attributes":{"ID":175527,"DIS_CODE":0,"TOWNNAME":"新營區","LI":"忠政里","LIN":"26鄰","STREET":"府西路","SECT":" ","MAREA":" ","LANE":"１３７巷","ALLEY":"２６弄","HOUSE_NO":"４號","E_COORD97":179721.07000000001,"N_COORD97":2579349.25,"ADDRESS":"府西路１３７巷２６弄４號","OBJECTID":175526},"geometry":{"x":179721.0700000003,"y":2579349.25}},{"attributes":{"ID":175528,"DIS_CODE":0,"TOWNNAME":"新營區","LI":"新北里","LIN":"13鄰","STREET":"周武街","SECT":" ","MAREA":" ","LANE":"７９巷","ALLEY":"２１弄","HOUSE_NO":"１７號","E_COORD97":179252.09,"N_COORD97":2578992.6699999999,"ADDRESS":"周武街７９巷２１弄１７號","OBJECTID":175527},"geometry":{"x":179252.09000000078,"y":2578992.6700000018}},{"attributes":{"ID":175529,"DIS_CODE":0,"TOWNNAME":"新營區","LI":"南紙里","LIN":"13鄰","STREET":"太子路","SECT":" ","MAREA":" ","LANE":"２００巷","ALLEY":"１７弄","HOUSE_NO":"６號","E_COORD97":177853.57000000001,"N_COORD97":2577924.0800000001,"ADDRESS":"太子路２００巷１７弄６號","OBJECTID":175528},"geometry":{"x":177853.56999999937,"y":2577924.0800000038}},{"attributes":{"ID":175530,"DIS_CODE":0,"TOWNNAME":"東區","LI":"裕聖里","LIN":"7鄰","STREET":"裕敬五街","SECT":" ","MAREA":" ","LANE":" ","ALLEY":" ","HOUSE_NO":"２號","E_COORD97":172821.01999999999,"N_COORD97":2542231.1299999999,"ADDRESS":"裕敬五街２號","OBJECTID":175529},"geometry":{"x":172821.02000000048,"y":2542231.129999999}},{"attributes":{"ID":175531,"DIS_CODE":0,"TOWNNAME":"北門區","LI":"永隆里","LIN":"10鄰","STREET":" ","SECT":" ","MAREA":"北門","LANE":" ","ALLEY":" ","HOUSE_NO":"１３５號","E_COORD97":160206.72,"N_COORD97":2574385.3700000001,"ADDRESS":"北門１３５號","OBJECTID":175530},"geometry":{"x":160206.71999999881,"y":2574385.3700000029}},{"attributes":{"ID":175532,"DIS_CODE":0,"TOWNNAME":"新營區","LI":"民榮里","LIN":"38鄰","STREET":"太子路","SECT":" ","MAREA":" ","LANE":"５３巷","ALLEY":"６弄","HOUSE_NO":"３號之４","E_COORD97":178333.73000000001,"N_COORD97":2577968.3100000001,"ADDRESS":"太子路５３巷６弄３號之４","OBJECTID":175531},"geometry":{"x":178333.73000000045,"y":2577968.3100000024}},{"attributes":{"ID":175533,"DIS_CODE":0,"TOWNNAME":"東區","LI":"和平里","LIN":"20鄰","STREET":"文化路","SECT":" ","MAREA":" ","LANE":" ","ALLEY":" ","HOUSE_NO":"２０號","E_COORD97":171156.42000000001,"N_COORD97":2541915.02,"ADDRESS":"文化路２０號","OBJECTID":175532},"geometry":{"x":171156.41999999993,"y":2541915.0200000033}},{"attributes":{"ID":175534,"DIS_CODE":0,"TOWNNAME":"西港區","LI":"新復里","LIN":"8鄰","STREET":" ","SECT":" ","MAREA":"溪埔寮","LANE":" ","ALLEY":" ","HOUSE_NO":"４號之２","E_COORD97":166519.39000000001,"N_COORD97":2554121.52,"ADDRESS":"溪埔寮４號之２","OBJECTID":175533},"geometry":{"x":166519.38999999966,"y":2554121.5200000014}},{"attributes":{"ID":175535,"DIS_CODE":0,"TOWNNAME":"新營區","LI":"民榮里","LIN":"39鄰","STREET":"太子路","SECT":" ","MAREA":" ","LANE":"５３巷","ALLEY":"８弄","HOUSE_NO":"１８號","E_COORD97":178331.26000000001,"N_COORD97":2577877.46,"ADDRESS":"太子路５３巷８弄１８號","OBJECTID":175534},"geometry":{"x":178331.25999999978,"y":2577877.4600000009}},{"attributes":{"ID":175536,"DIS_CODE":0,"TOWNNAME":"新營區","LI":"南紙里","LIN":"5鄰","STREET":"南紙街","SECT":" ","MAREA":" ","LANE":"２９巷","ALLEY":"６弄","HOUSE_NO":"１８號","E_COORD97":177886.34,"N_COORD97":2577674.7400000002,"ADDRESS":"南紙街２９巷６弄１８號","OBJECTID":175535},"geometry":{"x":177886.33999999985,"y":2577674.7400000002}},{"attributes":{"ID":175537,"DIS_CODE":0,"TOWNNAME":"新化區","LI":"\u25A0拔里","LIN":"10鄰","STREET":" ","SECT":" ","MAREA":"牧場","LANE":" ","ALLEY":" ","HOUSE_NO":"７０號之１二樓之８","E_COORD97":182084.79000000001,"N_COORD97":2551276.2599999998,"ADDRESS":"牧場７０號之１二樓之８","OBJECTID":175536},"geometry":{"x":182084.7900000019,"y":2551276.2599999998}},{"attributes":{"ID":175538,"DIS_CODE":0,"TOWNNAME":"新營區","LI":"忠政里","LIN":"17鄰","STREET":"府西路","SECT":" ","MAREA":" ","LANE":"２５８巷","ALLEY":"１４弄","HOUSE_NO":"６號","E_COORD97":179833.20000000001,"N_COORD97":2579716.3900000001,"ADDRESS":"府西路２５８巷１４弄６號","OBJECTID":175537},"geometry":{"x":179833.20000000112,"y":2579716.3900000043}},{"attributes":{"ID":175539,"DIS_CODE":0,"TOWNNAME":"仁德區","LI":"仁和里","LIN":"1鄰","STREET":"成功一街","SECT":" ","MAREA":" ","LANE":"２巷","ALLEY":"３５弄","HOUSE_NO":"８號","E_COORD97":170434.55593500001,"N_COORD97":2540239.3249400002,"ADDRESS":"成功一街２巷３５弄８號","OBJECTID":175538},"geometry":{"x":170434.555935001,"y":2540239.3249410037}},{"attributes":{"ID":175540,"DIS_CODE":0,"TOWNNAME":"新營區","LI":"南紙里","LIN":"13鄰","STREET":"太子路","SECT":" ","MAREA":" ","LANE":"２００巷","ALLEY":"１７弄","HOUSE_NO":"８號","E_COORD97":177849.54000000001,"N_COORD97":2577922.9900000002,"ADDRESS":"太子路２００巷１７弄８號","OBJECTID":175539},"geometry":{"x":177849.54000000004,"y":2577922.9900000021}},{"attributes":{"ID":175541,"DIS_CODE":0,"TOWNNAME":"新營區","LI":"新北里","LIN":" ","STREET":"新北六街","SECT":" ","MAREA":" ","LANE":"５巷","ALLEY":"８弄","HOUSE_NO":"５０號","E_COORD97":178778.98999999999,"N_COORD97":2579085.75,"ADDRESS":"新北六街５巷８弄５０號","OBJECTID":175540},"geometry":{"x":178778.99000000022,"y":2579085.7500000037}},{"attributes":{"ID":175542,"DIS_CODE":0,"TOWNNAME":"新營區","LI":"新南里","LIN":"25鄰","STREET":"復興路","SECT":" ","MAREA":" ","LANE":"６２０巷","ALLEY":"６４弄","HOUSE_NO":"１４號","E_COORD97":178084.94,"N_COORD97":2578550.8799999999,"ADDRESS":"復興路６２０巷６４弄１４號","OBJECTID":175541},"geometry":{"x":178084.94000000041,"y":2578550.879999999}},{"attributes":{"ID":175543,"DIS_CODE":0,"TOWNNAME":"新營區","LI":"新東里","LIN":"4鄰","STREET":"東大街","SECT":" ","MAREA":" ","LANE":"５２巷","ALLEY":"２弄","HOUSE_NO":"１９號","E_COORD97":181104.98999999999,"N_COORD97":2579112.3999999999,"ADDRESS":"東大街５２巷２弄１９號","OBJECTID":175542},"geometry":{"x":181104.99000000022,"y":2579112.4000000041}},{"attributes":{"ID":175544,"DIS_CODE":0,"TOWNNAME":"新營區","LI":"新南里","LIN":"26鄰","STREET":"復興路","SECT":" ","MAREA":" ","LANE":"６２０巷","ALLEY":"３９弄","HOUSE_NO":"２號","E_COORD97":178018.98000000001,"N_COORD97":2578479.21,"ADDRESS":"復興路６２０巷３９弄２號","OBJECTID":175543},"geometry":{"x":178018.98000000231,"y":2578479.2100000009}},{"attributes":{"ID":175545,"DIS_CODE":0,"TOWNNAME":"仁德區","LI":"仁和里","LIN":"1鄰","STREET":"成功一街","SECT":" ","MAREA":" ","LANE":"２巷","ALLEY":"３５弄","HOUSE_NO":"１０號","E_COORD97":170434.76786600001,"N_COORD97":2540232.9749400001,"ADDRESS":"成功一街２巷３５弄１０號","OBJECTID":175544},"geometry":{"x":170434.76786600053,"y":2540232.9749439992}},{"attributes":{"ID":175546,"DIS_CODE":0,"TOWNNAME":"新營區","LI":"民榮里","LIN":"38鄰","STREET":"太子路","SECT":" ","MAREA":" ","LANE":"５３巷","ALLEY":"６弄","HOUSE_NO":"１９號之１","E_COORD97":178279.51999999999,"N_COORD97":2577946.4399999999,"ADDRESS":"太子路５３巷６弄１９號之１","OBJECTID":175545},"geometry":{"x":178279.52000000048,"y":2577946.4400000013}},{"attributes":{"ID":175547,"DIS_CODE":0,"TOWNNAME":"新營區","LI":"新南里","LIN":"18鄰","STREET":"隋唐街","SECT":" ","MAREA":" ","LANE":"３１巷","ALLEY":"２８弄","HOUSE_NO":"１０號","E_COORD97":178656.98999999999,"N_COORD97":2578395.2799999998,"ADDRESS":"隋唐街３１巷２８弄１０號","OBJECTID":175546},"geometry":{"x":178656.99000000022,"y":2578395.2799999993}},{"attributes":{"ID":175548,"DIS_CODE":0,"TOWNNAME":"新營區","LI":"新南里","LIN":"25鄰","STREET":"復興路","SECT":" ","MAREA":" ","LANE":"６２０巷","ALLEY":"３８弄","HOUSE_NO":"５號","E_COORD97":178061.88,"N_COORD97":2578476.79,"ADDRESS":"復興路６２０巷３８弄５號","OBJECTID":175547},"geometry":{"x":178061.88000000082,"y":2578476.7899999991}},{"attributes":{"ID":175549,"DIS_CODE":0,"TOWNNAME":"新營區","LI":"南興里","LIN":"31鄰","STREET":"建業路","SECT":" ","MAREA":" ","LANE":"１６７巷","ALLEY":"３弄","HOUSE_NO":"８號","E_COORD97":178342.19,"N_COORD97":2577418.9199999999,"ADDRESS":"建業路１６７巷３弄８號","OBJECTID":175548},"geometry":{"x":178342.19000000041,"y":2577418.9199999999}},{"attributes":{"ID":175550,"DIS_CODE":0,"TOWNNAME":"佳里區","LI":"安西里","LIN":"15鄰","STREET":"和平街","SECT":" ","MAREA":" ","LANE":" ","ALLEY":" ","HOUSE_NO":"２８９號","E_COORD97":165208.03,"N_COORD97":2562462.7200000002,"ADDRESS":"和平街２８９號","OBJECTID":175549},"geometry":{"x":165208.03000000119,"y":2562462.7200000007}},{"attributes":{"ID":175551,"DIS_CODE":0,"TOWNNAME":"西港區","LI":"新復里","LIN":"8鄰","STREET":" ","SECT":" ","MAREA":"溪埔寮","LANE":" ","ALLEY":" ","HOUSE_NO":"４號之３","E_COORD97":166525.48999999999,"N_COORD97":2554121.0600000001,"ADDRESS":"溪埔寮４號之３","OBJECTID":175550},"geometry":{"x":166525.49000000115,"y":2554121.0600000042}},{"attributes":{"ID":175552,"DIS_CODE":0,"TOWNNAME":"新化區","LI":"\u25A0拔里","LIN":"10鄰","STREET":" ","SECT":" ","MAREA":"牧場","LANE":" ","ALLEY":" ","HOUSE_NO":"７０號之１一樓之５","E_COORD97":182084.79000000001,"N_COORD97":2551276.2599999998,"ADDRESS":"牧場７０號之１一樓之５","OBJECTID":175551},"geometry":{"x":182084.7900000019,"y":2551276.2599999998}},{"attributes":{"ID":175553,"DIS_CODE":0,"TOWNNAME":"新化區","LI":"\u25A0拔里","LIN":"10鄰","STREET":" ","SECT":" ","MAREA":"牧場","LANE":" ","ALLEY":" ","HOUSE_NO":"７０號之７一樓","E_COORD97":182187.82999999999,"N_COORD97":2551324.25,"ADDRESS":"牧場７０號之７一樓","OBJECTID":175552},"geometry":{"x":182187.83000000007,"y":2551324.25}},{"attributes":{"ID":175554,"DIS_CODE":0,"TOWNNAME":"新化區","LI":"\u25A0拔里","LIN":"10鄰","STREET":" ","SECT":" ","MAREA":"牧場","LANE":" ","ALLEY":" ","HOUSE_NO":"７０號之１三樓之７","E_COORD97":182084.78,"N_COORD97":2551276.2599999998,"ADDRESS":"牧場７０號之１三樓之７","OBJECTID":175553},"geometry":{"x":182084.78000000026,"y":2551276.2599999998}},{"attributes":{"ID":175555,"DIS_CODE":0,"TOWNNAME":"新營區","LI":"新南里","LIN":"25鄰","STREET":"復興路","SECT":" ","MAREA":" ","LANE":"６２０巷","ALLEY":"３８弄","HOUSE_NO":"３號","E_COORD97":178057.85999999999,"N_COORD97":2578476.8100000001,"ADDRESS":"復興路６２０巷３８弄３號","OBJECTID":175554},"geometry":{"x":178057.86000000034,"y":2578476.8100000024}},{"attributes":{"ID":175556,"DIS_CODE":0,"TOWNNAME":"新營區","LI":"新南里","LIN":"25鄰","STREET":"復興路","SECT":" ","MAREA":" ","LANE":"６２０巷","ALLEY":"３８弄","HOUSE_NO":"１１號","E_COORD97":178077.42000000001,"N_COORD97":2578475.6099999999,"ADDRESS":"復興路６２０巷３８弄１１號","OBJECTID":175555},"geometry":{"x":178077.41999999993,"y":2578475.6099999994}},{"attributes":{"ID":175557,"DIS_CODE":0,"TOWNNAME":"新營區","LI":"新南里","LIN":"25鄰","STREET":"復興路","SECT":" ","MAREA":" ","LANE":"６２０巷","ALLEY":"３８弄","HOUSE_NO":"２７號","E_COORD97":178117.37,"N_COORD97":2578473.2000000002,"ADDRESS":"復興路６２０巷３８弄２７號","OBJECTID":175556},"geometry":{"x":178117.37000000011,"y":2578473.2000000011}},{"attributes":{"ID":175558,"DIS_CODE":0,"TOWNNAME":"新營區","LI":"新南里","LIN":"24鄰","STREET":"隋唐街","SECT":" ","MAREA":" ","LANE":"２９５巷","ALLEY":"４１弄","HOUSE_NO":"７號","E_COORD97":178183.62,"N_COORD97":2578480.6299999999,"ADDRESS":"隋唐街２９５巷４１弄７號","OBJECTID":175557},"geometry":{"x":178183.61999999918,"y":2578480.629999999}},{"attributes":{"ID":175559,"DIS_CODE":0,"TOWNNAME":"新營區","LI":"新南里","LIN":"25鄰","STREET":"復興路","SECT":" ","MAREA":" ","LANE":"６２０巷","ALLEY":"６４弄","HOUSE_NO":"６號","E_COORD97":178074.42999999999,"N_COORD97":2578536.5299999998,"ADDRESS":"復興路６２０巷６４弄６號","OBJECTID":175558},"geometry":{"x":178074.43000000156,"y":2578536.5299999993}},{"attributes":{"ID":175560,"DIS_CODE":0,"TOWNNAME":"新營區","LI":"新東里","LIN":"20鄰","STREET":"東學路","SECT":" ","MAREA":" ","LANE":"４７巷","ALLEY":"１弄","HOUSE_NO":"５號","E_COORD97":180863.69,"N_COORD97":2579395.9199999999,"ADDRESS":"東學路４７巷１弄５號","OBJECTID":175559},"geometry":{"x":180863.69000000227,"y":2579395.9199999999}},{"attributes":{"ID":175561,"DIS_CODE":0,"TOWNNAME":"新營區","LI":"新北里","LIN":"13鄰","STREET":"周武街","SECT":" ","MAREA":" ","LANE":"７９巷","ALLEY":"２２弄","HOUSE_NO":"１號","E_COORD97":179328.60000000001,"N_COORD97":2578997.8399999999,"ADDRESS":"周武街７９巷２２弄１號","OBJECTID":175560},"geometry":{"x":179328.59999999963,"y":2578997.8400000017}},{"attributes":{"ID":175562,"DIS_CODE":0,"TOWNNAME":"新營區","LI":"新南里","LIN":"25鄰","STREET":"復興路","SECT":" ","MAREA":" ","LANE":"６２０巷","ALLEY":"３８弄","HOUSE_NO":"３３號","E_COORD97":178135.82000000001,"N_COORD97":2578478.6499999999,"ADDRESS":"復興路６２０巷３８弄３３號","OBJECTID":175561},"geometry":{"x":178135.82000000123,"y":2578478.6500000004}},{"attributes":{"ID":175563,"DIS_CODE":0,"TOWNNAME":"新營區","LI":"忠政里","LIN":"20鄰","STREET":"府西路","SECT":" ","MAREA":" ","LANE":"２５７巷","ALLEY":"１１弄","HOUSE_NO":"５號","E_COORD97":179757.17000000001,"N_COORD97":2579641.4399999999,"ADDRESS":"府西路２５７巷１１弄５號","OBJECTID":175562},"geometry":{"x":179757.16999999993,"y":2579641.4400000013}},{"attributes":{"ID":175564,"DIS_CODE":0,"TOWNNAME":"新營區","LI":"民榮里","LIN":" ","STREET":"太子路","SECT":" ","MAREA":" ","LANE":"５３巷","ALLEY":"６弄","HOUSE_NO":"１１之３號","E_COORD97":178307.51999999999,"N_COORD97":2577950.73,"ADDRESS":"太子路５３巷６弄１１之３號","OBJECTID":175563},"geometry":{"x":178307.52000000142,"y":2577950.7300000042}},{"attributes":{"ID":175565,"DIS_CODE":0,"TOWNNAME":"新營區","LI":"民榮里","LIN":"38鄰","STREET":"太子路","SECT":" ","MAREA":" ","LANE":"５３巷","ALLEY":"６弄","HOUSE_NO":"２１之５號","E_COORD97":178275.82000000001,"N_COORD97":2577937.6000000001,"ADDRESS":"太子路５３巷６弄２１之５號","OBJECTID":175564},"geometry":{"x":178275.82000000216,"y":2577937.6000000015}},{"attributes":{"ID":175566,"DIS_CODE":0,"TOWNNAME":"新營區","LI":"民榮里","LIN":"38鄰","STREET":"太子路","SECT":" ","MAREA":" ","LANE":"５３巷","ALLEY":"６弄","HOUSE_NO":"１３之１號","E_COORD97":178299.35999999999,"N_COORD97":2577954.0899999999,"ADDRESS":"太子路５３巷６弄１３之１號","OBJECTID":175565},"geometry":{"x":178299.3600000022,"y":2577954.0899999999}},{"attributes":{"ID":175567,"DIS_CODE":0,"TOWNNAME":"新營區","LI":"民榮里","LIN":" ","STREET":"太子路","SECT":" ","MAREA":" ","LANE":"３３巷","ALLEY":"１弄","HOUSE_NO":"２０號","E_COORD97":178328.07999999999,"N_COORD97":2578051.3500000001,"ADDRESS":"太子路３３巷１弄２０號","OBJECTID":175566},"geometry":{"x":178328.08000000194,"y":2578051.3500000015}},{"attributes":{"ID":175568,"DIS_CODE":0,"TOWNNAME":"南區","LI":"佛壇里","LIN":"14鄰","STREET":"興南街","SECT":" ","MAREA":" ","LANE":"１０１巷","ALLEY":"１９弄","HOUSE_NO":"１０號","E_COORD97":166226.98999999999,"N_COORD97":2535760.9199999999,"ADDRESS":"興南街１０１巷１９弄１０號","OBJECTID":175567},"geometry":{"x":166226.99000000115,"y":2535760.9199999999}},{"attributes":{"ID":175569,"DIS_CODE":0,"TOWNNAME":"新化區","LI":"\u25A0拔里","LIN":"10鄰","STREET":" ","SECT":" ","MAREA":"牧場","LANE":" ","ALLEY":" ","HOUSE_NO":"７０號之１四樓之５","E_COORD97":182084.79000000001,"N_COORD97":2551276.2599999998,"ADDRESS":"牧場７０號之１四樓之５","OBJECTID":175568},"geometry":{"x":182084.7900000019,"y":2551276.2599999998}},{"attributes":{"ID":175570,"DIS_CODE":0,"TOWNNAME":"新化區","LI":"\u25A0拔里","LIN":"10鄰","STREET":" ","SECT":" ","MAREA":"牧場","LANE":" ","ALLEY":" ","HOUSE_NO":"７０號之５一樓","E_COORD97":182149.82999999999,"N_COORD97":2551324.25,"ADDRESS":"牧場７０號之５一樓","OBJECTID":175569},"geometry":{"x":182149.83000000101,"y":2551324.25}},{"attributes":{"ID":175571,"DIS_CODE":0,"TOWNNAME":"南區","LI":"佛壇里","LIN":"15鄰","STREET":"興南街","SECT":" ","MAREA":" ","LANE":"１０１巷","ALLEY":"８弄","HOUSE_NO":"１６號","E_COORD97":166150.76000000001,"N_COORD97":2535800.6000000001,"ADDRESS":"興南街１０１巷８弄１６號","OBJECTID":175570},"geometry":{"x":166150.76000000071,"y":2535800.5999999996}},{"attributes":{"ID":175572,"DIS_CODE":0,"TOWNNAME":"南區","LI":"佛壇里","LIN":"15鄰","STREET":"興南街","SECT":" ","MAREA":" ","LANE":"１０１巷","ALLEY":"８弄","HOUSE_NO":"２號","E_COORD97":166173.94,"N_COORD97":2535812.9100000001,"ADDRESS":"興南街１０１巷８弄２號","OBJECTID":175571},"geometry":{"x":166173.94000000134,"y":2535812.9100000001}},{"attributes":{"ID":175573,"DIS_CODE":0,"TOWNNAME":"南區","LI":"光明里","LIN":"9鄰","STREET":"鹽埕路","SECT":" ","MAREA":" ","LANE":"２９１巷","ALLEY":"３２弄","HOUSE_NO":"５０號","E_COORD97":166623.23000000001,"N_COORD97":2541425.8799999999,"ADDRESS":"鹽埕路２９１巷３２弄５０號","OBJECTID":175572},"geometry":{"x":166623.23000000045,"y":2541425.879999999}},{"attributes":{"ID":175574,"DIS_CODE":0,"TOWNNAME":"新化區","LI":"\u25A0拔里","LIN":"10鄰","STREET":" ","SECT":" ","MAREA":"牧場","LANE":" ","ALLEY":" ","HOUSE_NO":"７０號之１二樓之１","E_COORD97":182084.76000000001,"N_COORD97":2551276.2599999998,"ADDRESS":"牧場７０號之１二樓之１","OBJECTID":175573},"geometry":{"x":182084.76000000164,"y":2551276.2599999998}},{"attributes":{"ID":175575,"DIS_CODE":0,"TOWNNAME":"南區","LI":"光明里","LIN":"9鄰","STREET":"鹽埕路","SECT":" ","MAREA":" ","LANE":"２９１巷","ALLEY":"３２弄","HOUSE_NO":"５２號","E_COORD97":166619.67000000001,"N_COORD97":2541425.02,"ADDRESS":"鹽埕路２９１巷３２弄５２號","OBJECTID":175574},"geometry":{"x":166619.66999999993,"y":2541425.0199999996}},{"attributes":{"ID":175576,"DIS_CODE":0,"TOWNNAME":"南區","LI":"興農里","LIN":"13鄰","STREET":"萬年路","SECT":" ","MAREA":" ","LANE":"４０６巷","ALLEY":"２９５弄","HOUSE_NO":"５５號","E_COORD97":166980.98999999999,"N_COORD97":2536954.23,"ADDRESS":"萬年路４０６巷２９５弄５５號","OBJECTID":175575},"geometry":{"x":166980.99000000022,"y":2536954.2300000042}},{"attributes":{"ID":175577,"DIS_CODE":0,"TOWNNAME":"南區","LI":"文南里","LIN":"4鄰","STREET":"金華路","SECT":"二段","MAREA":" ","LANE":"２８９巷","ALLEY":"５弄","HOUSE_NO":"１２之１號","E_COORD97":167062.85000000001,"N_COORD97":2542731.9700000002,"ADDRESS":"金華路二段２８９巷５弄１２之１號","OBJECTID":175576},"geometry":{"x":167062.85000000149,"y":2542731.9700000007}},{"attributes":{"ID":175578,"DIS_CODE":0,"TOWNNAME":"南區","LI":"明亮里","LIN":"7鄰","STREET":"金華路","SECT":"一段","MAREA":" ","LANE":"３５２巷","ALLEY":"１０２弄","HOUSE_NO":"９號","E_COORD97":167243.5,"N_COORD97":2541047.9700000002,"ADDRESS":"金華路一段３５２巷１０２弄９號","OBJECTID":175577},"geometry":{"x":167243.5,"y":2541047.9700000007}},{"attributes":{"ID":175579,"DIS_CODE":0,"TOWNNAME":"歸仁區","LI":"七甲里","LIN":"4鄰","STREET":"中正北路","SECT":"二段","MAREA":" ","LANE":"５１６巷","ALLEY":"５２弄","HOUSE_NO":"１２號","E_COORD97":177552.82000000001,"N_COORD97":2543188.2599999998,"ADDRESS":"中正北路二段５１６巷５２弄１２號","OBJECTID":175578},"geometry":{"x":177552.8200000003,"y":2543188.2600000035}},{"attributes":{"ID":175580,"DIS_CODE":0,"TOWNNAME":"歸仁區","LI":"七甲里","LIN":"18鄰","STREET":"南潭三街","SECT":" ","MAREA":" ","LANE":"１６２巷","ALLEY":"７弄","HOUSE_NO":"１０號","E_COORD97":176463.92999999999,"N_COORD97":2543143.0299999998,"ADDRESS":"南潭三街１６２巷７弄１０號","OBJECTID":175579},"geometry":{"x":176463.93000000156,"y":2543143.0300000012}},{"attributes":{"ID":175581,"DIS_CODE":0,"TOWNNAME":"歸仁區","LI":"西埔里","LIN":"5鄰","STREET":"保大路","SECT":"二段","MAREA":" ","LANE":"１２２巷","ALLEY":"２３弄","HOUSE_NO":"２號","E_COORD97":177025.42000000001,"N_COORD97":2544217.2799999998,"ADDRESS":"保大路二段１２２巷２３弄２號","OBJECTID":175580},"geometry":{"x":177025.42000000179,"y":2544217.2799999993}},{"attributes":{"ID":175582,"DIS_CODE":0,"TOWNNAME":"歸仁區","LI":"六甲里","LIN":"38鄰","STREET":"六甲八街","SECT":" ","MAREA":" ","LANE":"１４９巷","ALLEY":"５０弄","HOUSE_NO":"１６號","E_COORD97":175274.79999999999,"N_COORD97":2539783.73,"ADDRESS":"六甲八街１４９巷５０弄１６號","OBJECTID":175581},"geometry":{"x":175274.79999999888,"y":2539783.7300000004}},{"attributes":{"ID":175583,"DIS_CODE":0,"TOWNNAME":"歸仁區","LI":"後市里","LIN":"46鄰","STREET":"文化街","SECT":"二段","MAREA":" ","LANE":"１２１巷","ALLEY":"７弄","HOUSE_NO":"２０號","E_COORD97":177221.59,"N_COORD97":2541125.7599999998,"ADDRESS":"文化街二段１２１巷７弄２０號","OBJECTID":175582},"geometry":{"x":177221.59000000078,"y":2541125.7599999998}},{"attributes":{"ID":175584,"DIS_CODE":0,"TOWNNAME":"歸仁區","LI":"南保里","LIN":"59鄰","STREET":"中山路","SECT":"三段","MAREA":" ","LANE":"８１巷","ALLEY":"２３弄","HOUSE_NO":"３１號","E_COORD97":176873.57000000001,"N_COORD97":2540806.3300000001,"ADDRESS":"中山路三段８１巷２３弄３１號","OBJECTID":175583},"geometry":{"x":176873.5700000003,"y":2540806.3300000001}},{"attributes":{"ID":175585,"DIS_CODE":0,"TOWNNAME":"新化區","LI":"\u25A0拔里","LIN":"10鄰","STREET":" ","SECT":" ","MAREA":"牧場","LANE":" ","ALLEY":" ","HOUSE_NO":"７０號之１一樓之３","E_COORD97":182084.78,"N_COORD97":2551276.2599999998,"ADDRESS":"牧場７０號之１一樓之３","OBJECTID":175584},"geometry":{"x":182084.78000000026,"y":2551276.2599999998}},{"attributes":{"ID":175586,"DIS_CODE":0,"TOWNNAME":"歸仁區","LI":"媽廟里","LIN":"26鄰","STREET":"保大路","SECT":"一段","MAREA":" ","LANE":"２６０巷","ALLEY":"６４弄","HOUSE_NO":"２６號","E_COORD97":177498.84,"N_COORD97":2544325.7000000002,"ADDRESS":"保大路一段２６０巷６４弄２６號","OBJECTID":175585},"geometry":{"x":177498.84000000171,"y":2544325.6999999993}},{"attributes":{"ID":175587,"DIS_CODE":0,"TOWNNAME":"南區","LI":"南都里","LIN":"13鄰","STREET":"中華南路","SECT":"二段","MAREA":" ","LANE":"２４９巷","ALLEY":"３２弄","HOUSE_NO":"６８號","E_COORD97":166534.16,"N_COORD97":2540079.3300000001,"ADDRESS":"中華南路二段２４９巷３２弄６８號","OBJECTID":175586},"geometry":{"x":166534.16000000201,"y":2540079.3300000038}},{"attributes":{"ID":175588,"DIS_CODE":0,"TOWNNAME":"南區","LI":"金華里","LIN":"12鄰","STREET":"中華南路","SECT":"二段","MAREA":" ","LANE":"２４９巷","ALLEY":"３２弄","HOUSE_NO":"２２號","E_COORD97":166582.57999999999,"N_COORD97":2540154.4199999999,"ADDRESS":"中華南路二段２４９巷３２弄２２號","OBJECTID":175587},"geometry":{"x":166582.58000000101,"y":2540154.4200000018}},{"attributes":{"ID":175589,"DIS_CODE":0,"TOWNNAME":"東區","LI":"和平里","LIN":"20鄰","STREET":"文化路","SECT":" ","MAREA":" ","LANE":" ","ALLEY":" ","HOUSE_NO":"１號","E_COORD97":171109.34,"N_COORD97":2541931.0699999998,"ADDRESS":"文化路１號","OBJECTID":175588},"geometry":{"x":171109.33999999985,"y":2541931.0700000003}},{"attributes":{"ID":175590,"DIS_CODE":0,"TOWNNAME":"新化區","LI":"\u25A0拔里","LIN":"10鄰","STREET":" ","SECT":" ","MAREA":"牧場","LANE":" ","ALLEY":" ","HOUSE_NO":"７０號之１三樓之６","E_COORD97":182084.78,"N_COORD97":2551276.2599999998,"ADDRESS":"牧場７０號之１三樓之６","OBJECTID":175589},"geometry":{"x":182084.78000000026,"y":2551276.2599999998}},{"attributes":{"ID":175591,"DIS_CODE":0,"TOWNNAME":"新化區","LI":"\u25A0拔里","LIN":"10鄰","STREET":" ","SECT":" ","MAREA":"牧場","LANE":" ","ALLEY":" ","HOUSE_NO":"７０號之１二樓之９","E_COORD97":182084.78,"N_COORD97":2551276.2599999998,"ADDRESS":"牧場７０號之１二樓之９","OBJECTID":175590},"geometry":{"x":182084.78000000026,"y":2551276.2599999998}},{"attributes":{"ID":175592,"DIS_CODE":0,"TOWNNAME":"新化區","LI":"\u25A0拔里","LIN":"10鄰","STREET":" ","SECT":" ","MAREA":"牧場","LANE":" ","ALLEY":" ","HOUSE_NO":"７０號之１三樓之２","E_COORD97":182084.79000000001,"N_COORD97":2551276.2599999998,"ADDRESS":"牧場７０號之１三樓之２","OBJECTID":175591},"geometry":{"x":182084.7900000019,"y":2551276.2599999998}},{"attributes":{"ID":175593,"DIS_CODE":0,"TOWNNAME":"新化區","LI":"\u25A0拔里","LIN":"10鄰","STREET":" ","SECT":" ","MAREA":"牧場","LANE":" ","ALLEY":" ","HOUSE_NO":"７０號之１三樓之１","E_COORD97":182084.76000000001,"N_COORD97":2551276.2599999998,"ADDRESS":"牧場７０號之１三樓之１","OBJECTID":175592},"geometry":{"x":182084.76000000164,"y":2551276.2599999998}},{"attributes":{"ID":175594,"DIS_CODE":0,"TOWNNAME":"新化區","LI":"\u25A0拔里","LIN":"10鄰","STREET":" ","SECT":" ","MAREA":"牧場","LANE":" ","ALLEY":" ","HOUSE_NO":"７０號之１一樓之６","E_COORD97":182084.78,"N_COORD97":2551276.2599999998,"ADDRESS":"牧場７０號之１一樓之６","OBJECTID":175593},"geometry":{"x":182084.78000000026,"y":2551276.2599999998}},{"attributes":{"ID":175595,"DIS_CODE":0,"TOWNNAME":"後壁區","LI":"仕安里","LIN":"10鄰","STREET":" ","SECT":" ","MAREA":"下長","LANE":" ","ALLEY":" ","HOUSE_NO":"７８號之６","E_COORD97":180457.82999999999,"N_COORD97":2583629.0600000001,"ADDRESS":"下長７８號之６","OBJECTID":175594},"geometry":{"x":180457.83000000101,"y":2583629.0600000024}},{"attributes":{"ID":175596,"DIS_CODE":0,"TOWNNAME":"新化區","LI":"\u25A0拔里","LIN":"10鄰","STREET":" ","SECT":" ","MAREA":"牧場","LANE":" ","ALLEY":" ","HOUSE_NO":"７０號之１四樓之９","E_COORD97":182084.78,"N_COORD97":2551276.2599999998,"ADDRESS":"牧場７０號之１四樓之９","OBJECTID":175595},"geometry":{"x":182084.78000000026,"y":2551276.2599999998}},{"attributes":{"ID":175597,"DIS_CODE":0,"TOWNNAME":"南區","LI":"南都里","LIN":"13鄰","STREET":"中華南路","SECT":"二段","MAREA":" ","LANE":"２４９巷","ALLEY":"３２弄","HOUSE_NO":"２６號","E_COORD97":166585.28,"N_COORD97":2540150.77,"ADDRESS":"中華南路二段２４９巷３２弄２６號","OBJECTID":175596},"geometry":{"x":166585.28000000026,"y":2540150.7700000014}},{"attributes":{"ID":175598,"DIS_CODE":0,"TOWNNAME":"南區","LI":"光明里","LIN":"8鄰","STREET":"新興路","SECT":" ","MAREA":" ","LANE":"５３３巷","ALLEY":"３３弄","HOUSE_NO":"３８號","E_COORD97":166759.82000000001,"N_COORD97":2541581.8900000001,"ADDRESS":"新興路５３３巷３３弄３８號","OBJECTID":175597},"geometry":{"x":166759.8200000003,"y":2541581.8900000025}},{"attributes":{"ID":175599,"DIS_CODE":0,"TOWNNAME":"南區","LI":"興農里","LIN":"7鄰","STREET":"灣裡路","SECT":" ","MAREA":" ","LANE":"２６３巷","ALLEY":"７３弄","HOUSE_NO":"２號","E_COORD97":166343.70000000001,"N_COORD97":2536395.5099999998,"ADDRESS":"灣裡路２６３巷７３弄２號","OBJECTID":175598},"geometry":{"x":166343.70000000019,"y":2536395.5100000035}},{"attributes":{"ID":175600,"DIS_CODE":0,"TOWNNAME":"南區","LI":"興農里","LIN":"7鄰","STREET":"灣裡路","SECT":" ","MAREA":" ","LANE":"２６３巷","ALLEY":"７３弄","HOUSE_NO":"２號之１","E_COORD97":166348.64999999999,"N_COORD97":2536397.3700000001,"ADDRESS":"灣裡路２６３巷７３弄２號之１","OBJECTID":175599},"geometry":{"x":166348.6500000013,"y":2536397.370000001}},{"attributes":{"ID":175601,"DIS_CODE":0,"TOWNNAME":"南區","LI":"田寮里","LIN":"8鄰","STREET":"新興路","SECT":" ","MAREA":" ","LANE":"１８３巷","ALLEY":"１６弄","HOUSE_NO":"２號","E_COORD97":167408.06,"N_COORD97":2541976.46,"ADDRESS":"新興路１８３巷１６弄２號","OBJECTID":175600},"geometry":{"x":167408.06000000052,"y":2541976.4600000009}}]}