{"displayFieldName":"TOWNNAME","fieldAliases":{"ID":"ID","DIS_CODE":"DIS_CODE","TOWNNAME":"TOWNNAME","LI":"LI","LIN":"LIN","STREET":"STREET","SECT":"SECT","MAREA":"MAREA","LANE":"LANE","ALLEY":"ALLEY","HOUSE_NO":"HOUSE_NO","E_COORD97":"E_COORD97","N_COORD97":"N_COORD97","ADDRESS":"ADDRESS","OBJECTID":"OBJECTID"},"geometryType":"esriGeometryPoint","spatialReference":{"wkid":102443,"latestWkid":3826},"fields":[{"name":"ID","type":"esriFieldTypeDouble","alias":"ID"},{"name":"DIS_CODE","type":"esriFieldTypeInteger","alias":"DIS_CODE"},{"name":"TOWNNAME","type":"esriFieldTypeString","alias":"TOWNNAME","length":8},{"name":"LI","type":"esriFieldTypeString","alias":"LI","length":8},{"name":"LIN","type":"esriFieldTypeString","alias":"LIN","length":12},{"name":"STREET","type":"esriFieldTypeString","alias":"STREET","length":20},{"name":"SECT","type":"esriFieldTypeString","alias":"SECT","length":8},{"name":"MAREA","type":"esriFieldTypeString","alias":"MAREA","length":12},{"name":"LANE","type":"esriFieldTypeString","alias":"LANE","length":10},{"name":"ALLEY","type":"esriFieldTypeString","alias":"ALLEY","length":10},{"name":"HOUSE_NO","type":"esriFieldTypeString","alias":"HOUSE_NO","length":20},{"name":"E_COORD97","type":"esriFieldTypeDouble","alias":"E_COORD97"},{"name":"N_COORD97","type":"esriFieldTypeDouble","alias":"N_COORD97"},{"name":"ADDRESS","type":"esriFieldTypeString","alias":"ADDRESS","length":50},{"name":"OBJECTID","type":"esriFieldTypeOID","alias":"OBJECTID"}],"features":[{"attributes":{"ID":564428,"DIS_CODE":0,"TOWNNAME":"關廟區","LI":"香洋里","LIN":"9鄰","STREET":"巡府路","SECT":" ","MAREA":" ","LANE":" ","ALLEY":" ","HOUSE_NO":"６９號","E_COORD97":181045.22,"N_COORD97":2540062.25,"ADDRESS":"巡府路６９號","OBJECTID":564401},"geometry":{"x":181045.21999999974,"y":2540062.25}},{"attributes":{"ID":564429,"DIS_CODE":0,"TOWNNAME":"關廟區","LI":"北花里","LIN":"9鄰","STREET":"四維街","SECT":" ","MAREA":" ","LANE":" ","ALLEY":" ","HOUSE_NO":"２９９號","E_COORD97":181870.06,"N_COORD97":2540339.25,"ADDRESS":"四維街２９９號","OBJECTID":564402},"geometry":{"x":181870.05999999959,"y":2540339.25}},{"attributes":{"ID":564430,"DIS_CODE":0,"TOWNNAME":"關廟區","LI":"香洋里","LIN":"9鄰","STREET":"巡府路","SECT":" ","MAREA":" ","LANE":" ","ALLEY":" ","HOUSE_NO":"６７號","E_COORD97":181049.42000000001,"N_COORD97":2540060.25,"ADDRESS":"巡府路６７號","OBJECTID":564403},"geometry":{"x":181049.41999999993,"y":2540060.2500000019}},{"attributes":{"ID":564431,"DIS_CODE":0,"TOWNNAME":"關廟區","LI":"香洋里","LIN":"9鄰","STREET":"巡府路","SECT":" ","MAREA":" ","LANE":" ","ALLEY":" ","HOUSE_NO":"６５號","E_COORD97":181052.82000000001,"N_COORD97":2540060.25,"ADDRESS":"巡府路６５號","OBJECTID":564404},"geometry":{"x":181052.82000000123,"y":2540060.2500000019}},{"attributes":{"ID":564432,"DIS_CODE":0,"TOWNNAME":"關廟區","LI":"南花里","LIN":"9鄰","STREET":"花園一街","SECT":" ","MAREA":" ","LANE":" ","ALLEY":" ","HOUSE_NO":"１１７號","E_COORD97":181819.19,"N_COORD97":2540184.25,"ADDRESS":"花園一街１１７號","OBJECTID":564405},"geometry":{"x":181819.19000000041,"y":2540184.25}},{"attributes":{"ID":564433,"DIS_CODE":0,"TOWNNAME":"關廟區","LI":"香洋里","LIN":"9鄰","STREET":"中山路","SECT":"二段","MAREA":" ","LANE":" ","ALLEY":" ","HOUSE_NO":"１６號","E_COORD97":181051.81,"N_COORD97":2540016.2799999998,"ADDRESS":"中山路二段１６號","OBJECTID":564406},"geometry":{"x":181051.81000000145,"y":2540016.2799999993}},{"attributes":{"ID":564434,"DIS_CODE":0,"TOWNNAME":"關廟區","LI":"南花里","LIN":"9鄰","STREET":"花園一街","SECT":" ","MAREA":" ","LANE":" ","ALLEY":" ","HOUSE_NO":"１２３號","E_COORD97":181804.98999999999,"N_COORD97":2540185.25,"ADDRESS":"花園一街１２３號","OBJECTID":564407},"geometry":{"x":181804.99000000022,"y":2540185.2500000019}},{"attributes":{"ID":564435,"DIS_CODE":0,"TOWNNAME":"關廟區","LI":"南花里","LIN":"9鄰","STREET":"花園一街","SECT":" ","MAREA":" ","LANE":" ","ALLEY":" ","HOUSE_NO":"１３６號","E_COORD97":181806.89000000001,"N_COORD97":2540199.25,"ADDRESS":"花園一街１３６號","OBJECTID":564408},"geometry":{"x":181806.88999999966,"y":2540199.2500000019}},{"attributes":{"ID":564436,"DIS_CODE":0,"TOWNNAME":"關廟區","LI":"香洋里","LIN":"9鄰","STREET":"南雄路","SECT":"二段","MAREA":" ","LANE":" ","ALLEY":" ","HOUSE_NO":"１號","E_COORD97":181074.39000000001,"N_COORD97":2540032.2799999998,"ADDRESS":"南雄路二段１號","OBJECTID":564409},"geometry":{"x":181074.38999999966,"y":2540032.2800000012}},{"attributes":{"ID":564437,"DIS_CODE":0,"TOWNNAME":"關廟區","LI":"南花里","LIN":"9鄰","STREET":"花園一街","SECT":" ","MAREA":" ","LANE":" ","ALLEY":" ","HOUSE_NO":"１２９號","E_COORD97":181791.89000000001,"N_COORD97":2540183.25,"ADDRESS":"花園一街１２９號","OBJECTID":564410},"geometry":{"x":181791.88999999966,"y":2540183.25}},{"attributes":{"ID":564438,"DIS_CODE":0,"TOWNNAME":"關廟區","LI":"松腳里","LIN":"9鄰","STREET":"勝利街","SECT":" ","MAREA":" ","LANE":" ","ALLEY":" ","HOUSE_NO":"１３號","E_COORD97":181829.01999999999,"N_COORD97":2539734.2599999998,"ADDRESS":"勝利街１３號","OBJECTID":564411},"geometry":{"x":181829.02000000048,"y":2539734.2600000016}},{"attributes":{"ID":564439,"DIS_CODE":0,"TOWNNAME":"關廟區","LI":"北花里","LIN":"9鄰","STREET":"四維街","SECT":" ","MAREA":" ","LANE":" ","ALLEY":" ","HOUSE_NO":"３０３號","E_COORD97":181871.56,"N_COORD97":2540349.25,"ADDRESS":"四維街３０３號","OBJECTID":564412},"geometry":{"x":181871.55999999959,"y":2540349.25}},{"attributes":{"ID":564440,"DIS_CODE":0,"TOWNNAME":"關廟區","LI":"香洋里","LIN":"9鄰","STREET":"巡府路","SECT":" ","MAREA":" ","LANE":" ","ALLEY":" ","HOUSE_NO":"８９號","E_COORD97":180984.12,"N_COORD97":2540082.25,"ADDRESS":"巡府路８９號","OBJECTID":564413},"geometry":{"x":180984.12000000197,"y":2540082.25}},{"attributes":{"ID":564441,"DIS_CODE":0,"TOWNNAME":"關廟區","LI":"南花里","LIN":"9鄰","STREET":"花園一街","SECT":" ","MAREA":" ","LANE":" ","ALLEY":" ","HOUSE_NO":"１３３號","E_COORD97":181786.59,"N_COORD97":2540182.25,"ADDRESS":"花園一街１３３號","OBJECTID":564414},"geometry":{"x":181786.59000000078,"y":2540182.2500000019}},{"attributes":{"ID":564442,"DIS_CODE":0,"TOWNNAME":"關廟區","LI":"香洋里","LIN":"9鄰","STREET":"中山路","SECT":"二段","MAREA":" ","LANE":" ","ALLEY":" ","HOUSE_NO":"２號","E_COORD97":181067.85999999999,"N_COORD97":2540013.2799999998,"ADDRESS":"中山路二段２號","OBJECTID":564415},"geometry":{"x":181067.86000000127,"y":2540013.2799999993}},{"attributes":{"ID":564443,"DIS_CODE":0,"TOWNNAME":"關廟區","LI":"香洋里","LIN":"9鄰","STREET":"忠孝街","SECT":" ","MAREA":" ","LANE":" ","ALLEY":" ","HOUSE_NO":"１０號","E_COORD97":180952.69,"N_COORD97":2540059.25,"ADDRESS":"忠孝街１０號","OBJECTID":564416},"geometry":{"x":180952.69000000041,"y":2540059.2500000037}},{"attributes":{"ID":564444,"DIS_CODE":0,"TOWNNAME":"關廟區","LI":"香洋里","LIN":"9鄰","STREET":"中山路","SECT":"二段","MAREA":" ","LANE":" ","ALLEY":" ","HOUSE_NO":"３６號","E_COORD97":181006.91,"N_COORD97":2540026.2799999998,"ADDRESS":"中山路二段３６號","OBJECTID":564417},"geometry":{"x":181006.91000000015,"y":2540026.2799999993}},{"attributes":{"ID":564445,"DIS_CODE":0,"TOWNNAME":"關廟區","LI":"香洋里","LIN":"9鄰","STREET":"忠孝街","SECT":" ","MAREA":" ","LANE":" ","ALLEY":" ","HOUSE_NO":"２８號","E_COORD97":180961.09,"N_COORD97":2540083.25,"ADDRESS":"忠孝街２８號","OBJECTID":564418},"geometry":{"x":180961.09000000078,"y":2540083.2500000019}},{"attributes":{"ID":564446,"DIS_CODE":0,"TOWNNAME":"關廟區","LI":"南花里","LIN":"9鄰","STREET":"花園一街","SECT":" ","MAREA":" ","LANE":" ","ALLEY":" ","HOUSE_NO":"１０９號","E_COORD97":181835.29000000001,"N_COORD97":2540184.25,"ADDRESS":"花園一街１０９號","OBJECTID":564419},"geometry":{"x":181835.29000000004,"y":2540184.25}},{"attributes":{"ID":564447,"DIS_CODE":0,"TOWNNAME":"關廟區","LI":"南花里","LIN":"9鄰","STREET":"花園一街","SECT":" ","MAREA":" ","LANE":" ","ALLEY":" ","HOUSE_NO":"１２２號","E_COORD97":181840.69,"N_COORD97":2540198.25,"ADDRESS":"花園一街１２２號","OBJECTID":564420},"geometry":{"x":181840.69000000134,"y":2540198.2500000037}},{"attributes":{"ID":564448,"DIS_CODE":0,"TOWNNAME":"關廟區","LI":"南花里","LIN":"9鄰","STREET":"花園一街","SECT":" ","MAREA":" ","LANE":" ","ALLEY":" ","HOUSE_NO":"１１１號","E_COORD97":181831.09,"N_COORD97":2540184.25,"ADDRESS":"花園一街１１１號","OBJECTID":564421},"geometry":{"x":181831.08999999985,"y":2540184.25}},{"attributes":{"ID":564449,"DIS_CODE":0,"TOWNNAME":"關廟區","LI":"東勢里","LIN":"9鄰","STREET":"旺萊路","SECT":" ","MAREA":" ","LANE":" ","ALLEY":" ","HOUSE_NO":"３６０號","E_COORD97":182099.34,"N_COORD97":2539520.25,"ADDRESS":"旺萊路３６０號","OBJECTID":564422},"geometry":{"x":182099.33999999985,"y":2539520.2500000037}},{"attributes":{"ID":564450,"DIS_CODE":0,"TOWNNAME":"關廟區","LI":"香洋里","LIN":"9鄰","STREET":"中山路","SECT":"二段","MAREA":" ","LANE":" ","ALLEY":" ","HOUSE_NO":"４２號","E_COORD97":180992.31,"N_COORD97":2540028.2799999998,"ADDRESS":"中山路二段４２號","OBJECTID":564423},"geometry":{"x":180992.30999999959,"y":2540028.2800000012}},{"attributes":{"ID":564451,"DIS_CODE":0,"TOWNNAME":"關廟區","LI":"香洋里","LIN":"9鄰","STREET":"巡府路","SECT":" ","MAREA":" ","LANE":" ","ALLEY":" ","HOUSE_NO":"８７號","E_COORD97":180989.92000000001,"N_COORD97":2540080.25,"ADDRESS":"巡府路８７號","OBJECTID":564424},"geometry":{"x":180989.91999999993,"y":2540080.2500000019}},{"attributes":{"ID":564452,"DIS_CODE":0,"TOWNNAME":"關廟區","LI":"香洋里","LIN":"9鄰","STREET":"忠孝街","SECT":" ","MAREA":" ","LANE":" ","ALLEY":" ","HOUSE_NO":"６號","E_COORD97":180948.34,"N_COORD97":2540048.25,"ADDRESS":"忠孝街６號","OBJECTID":564425},"geometry":{"x":180948.33999999985,"y":2540048.25}},{"attributes":{"ID":564453,"DIS_CODE":0,"TOWNNAME":"關廟區","LI":"香洋里","LIN":"9鄰","STREET":"巡府路","SECT":" ","MAREA":" ","LANE":" ","ALLEY":" ","HOUSE_NO":"７０號","E_COORD97":181048.62,"N_COORD97":2540107.25,"ADDRESS":"巡府路７０號","OBJECTID":564426},"geometry":{"x":181048.62000000197,"y":2540107.2500000019}},{"attributes":{"ID":564454,"DIS_CODE":0,"TOWNNAME":"關廟區","LI":"南花里","LIN":"9鄰","STREET":"花園一街","SECT":" ","MAREA":" ","LANE":" ","ALLEY":" ","HOUSE_NO":"１２８號","E_COORD97":181825.29000000001,"N_COORD97":2540199.25,"ADDRESS":"花園一街１２８號","OBJECTID":564427},"geometry":{"x":181825.29000000004,"y":2540199.2500000019}},{"attributes":{"ID":564455,"DIS_CODE":0,"TOWNNAME":"關廟區","LI":"南花里","LIN":"9鄰","STREET":"花園一街","SECT":" ","MAREA":" ","LANE":" ","ALLEY":" ","HOUSE_NO":"１１９號","E_COORD97":181814.98999999999,"N_COORD97":2540184.25,"ADDRESS":"花園一街１１９號","OBJECTID":564428},"geometry":{"x":181814.99000000022,"y":2540184.25}},{"attributes":{"ID":564456,"DIS_CODE":0,"TOWNNAME":"關廟區","LI":"北花里","LIN":"9鄰","STREET":"中正路","SECT":" ","MAREA":" ","LANE":" ","ALLEY":" ","HOUSE_NO":"７１３號","E_COORD97":181917.26000000001,"N_COORD97":2540387.25,"ADDRESS":"中正路７１３號","OBJECTID":564429},"geometry":{"x":181917.26000000071,"y":2540387.25}},{"attributes":{"ID":564457,"DIS_CODE":0,"TOWNNAME":"關廟區","LI":"深坑里","LIN":"9鄰","STREET":"深坑三街","SECT":" ","MAREA":" ","LANE":" ","ALLEY":" ","HOUSE_NO":"１５號","E_COORD97":181777.47,"N_COORD97":2537841.2799999998,"ADDRESS":"深坑三街１５號","OBJECTID":564430},"geometry":{"x":181777.46999999974,"y":2537841.2800000012}},{"attributes":{"ID":564458,"DIS_CODE":0,"TOWNNAME":"關廟區","LI":"南花里","LIN":"9鄰","STREET":"花園一街","SECT":" ","MAREA":" ","LANE":" ","ALLEY":" ","HOUSE_NO":"１３７號","E_COORD97":181777.39000000001,"N_COORD97":2540179.25,"ADDRESS":"花園一街１３７號","OBJECTID":564431},"geometry":{"x":181777.3900000006,"y":2540179.2500000019}},{"attributes":{"ID":564459,"DIS_CODE":0,"TOWNNAME":"關廟區","LI":"五甲里","LIN":"9鄰","STREET":"南雄路","SECT":"一段","MAREA":" ","LANE":" ","ALLEY":" ","HOUSE_NO":"５２９號","E_COORD97":181603.09,"N_COORD97":2538363.2799999998,"ADDRESS":"南雄路一段５２９號","OBJECTID":564432},"geometry":{"x":181603.09000000078,"y":2538363.2800000031}},{"attributes":{"ID":564460,"DIS_CODE":0,"TOWNNAME":"關廟區","LI":"五甲里","LIN":"9鄰","STREET":"南雄路","SECT":"一段","MAREA":" ","LANE":" ","ALLEY":" ","HOUSE_NO":"５０８號","E_COORD97":181690.98999999999,"N_COORD97":2538234.2799999998,"ADDRESS":"南雄路一段５０８號","OBJECTID":564433},"geometry":{"x":181690.99000000115,"y":2538234.2800000031}},{"attributes":{"ID":564461,"DIS_CODE":0,"TOWNNAME":"關廟區","LI":"田中里","LIN":"9鄰","STREET":"南雄南路","SECT":" ","MAREA":" ","LANE":" ","ALLEY":" ","HOUSE_NO":"６７１號","E_COORD97":183444.34,"N_COORD97":2533500.25,"ADDRESS":"南雄南路６７１號","OBJECTID":564434},"geometry":{"x":183444.34000000078,"y":2533500.2500000019}},{"attributes":{"ID":564462,"DIS_CODE":0,"TOWNNAME":"關廟區","LI":"五甲里","LIN":"9鄰","STREET":"南雄路","SECT":"一段","MAREA":" ","LANE":" ","ALLEY":" ","HOUSE_NO":"５２７號","E_COORD97":181605.39000000001,"N_COORD97":2538356.2799999998,"ADDRESS":"南雄路一段５２７號","OBJECTID":564435},"geometry":{"x":181605.38999999966,"y":2538356.2800000031}},{"attributes":{"ID":564463,"DIS_CODE":0,"TOWNNAME":"關廟區","LI":"五甲里","LIN":"9鄰","STREET":"南雄路","SECT":"一段","MAREA":" ","LANE":" ","ALLEY":" ","HOUSE_NO":"５８６號","E_COORD97":181619.29000000001,"N_COORD97":2538472.2799999998,"ADDRESS":"南雄路一段５８６號","OBJECTID":564436},"geometry":{"x":181619.29000000097,"y":2538472.2800000012}},{"attributes":{"ID":564464,"DIS_CODE":0,"TOWNNAME":"關廟區","LI":"五甲里","LIN":"9鄰","STREET":"南雄路","SECT":"一段","MAREA":" ","LANE":" ","ALLEY":" ","HOUSE_NO":"５８２號","E_COORD97":181625.39000000001,"N_COORD97":2538457.2799999998,"ADDRESS":"南雄路一段５８２號","OBJECTID":564437},"geometry":{"x":181625.38999999966,"y":2538457.2799999993}},{"attributes":{"ID":564465,"DIS_CODE":0,"TOWNNAME":"北區","LI":"大山里","LIN":"9鄰","STREET":"精忠街","SECT":" ","MAREA":" ","LANE":" ","ALLEY":" ","HOUSE_NO":"１２３號","E_COORD97":169309.37,"N_COORD97":2545534.3700000001,"ADDRESS":"精忠街１２３號","OBJECTID":564438},"geometry":{"x":169309.37000000197,"y":2545534.370000001}},{"attributes":{"ID":564466,"DIS_CODE":0,"TOWNNAME":"北區","LI":"大山里","LIN":"9鄰","STREET":"精忠街","SECT":" ","MAREA":" ","LANE":" ","ALLEY":" ","HOUSE_NO":"１２５號","E_COORD97":169301.64000000001,"N_COORD97":2545537.8700000001,"ADDRESS":"精忠街１２５號","OBJECTID":564439},"geometry":{"x":169301.63999999966,"y":2545537.870000001}},{"attributes":{"ID":564467,"DIS_CODE":0,"TOWNNAME":"北區","LI":"大山里","LIN":"9鄰","STREET":"精忠街","SECT":" ","MAREA":" ","LANE":" ","ALLEY":" ","HOUSE_NO":"１２７號","E_COORD97":169294.95999999999,"N_COORD97":2545542.4100000001,"ADDRESS":"精忠街１２７號","OBJECTID":564440},"geometry":{"x":169294.95999999903,"y":2545542.4100000001}},{"attributes":{"ID":564468,"DIS_CODE":0,"TOWNNAME":"北區","LI":"大山里","LIN":"9鄰","STREET":"精忠街","SECT":" ","MAREA":" ","LANE":" ","ALLEY":" ","HOUSE_NO":"１４５之１號","E_COORD97":169272.41,"N_COORD97":2545545.6200000001,"ADDRESS":"精忠街１４５之１號","OBJECTID":564441},"geometry":{"x":169272.41000000108,"y":2545545.620000001}},{"attributes":{"ID":564469,"DIS_CODE":0,"TOWNNAME":"北區","LI":"大山里","LIN":"9鄰","STREET":"精忠街","SECT":" ","MAREA":" ","LANE":" ","ALLEY":" ","HOUSE_NO":"１４５號","E_COORD97":169270.41,"N_COORD97":2545550,"ADDRESS":"精忠街１４５號","OBJECTID":564442},"geometry":{"x":169270.41000000108,"y":2545550.0000000037}},{"attributes":{"ID":564470,"DIS_CODE":0,"TOWNNAME":"北區","LI":"大山里","LIN":"9鄰","STREET":"精忠街","SECT":" ","MAREA":" ","LANE":" ","ALLEY":" ","HOUSE_NO":"１４７號","E_COORD97":169261.94,"N_COORD97":2545548.1600000001,"ADDRESS":"精忠街１４７號","OBJECTID":564443},"geometry":{"x":169261.94000000134,"y":2545548.1600000001}},{"attributes":{"ID":564471,"DIS_CODE":0,"TOWNNAME":"北區","LI":"大山里","LIN":"9鄰","STREET":"精忠街","SECT":" ","MAREA":" ","LANE":" ","ALLEY":" ","HOUSE_NO":"１４７號之１","E_COORD97":169256.94,"N_COORD97":2545542.2400000002,"ADDRESS":"精忠街１４７號之１","OBJECTID":564444},"geometry":{"x":169256.94000000134,"y":2545542.2400000021}},{"attributes":{"ID":564472,"DIS_CODE":0,"TOWNNAME":"北區","LI":"大仁里","LIN":"9鄰","STREET":"北門路","SECT":"二段","MAREA":" ","LANE":" ","ALLEY":" ","HOUSE_NO":"１９３號","E_COORD97":169484.89000000001,"N_COORD97":2545228,"ADDRESS":"北門路二段１９３號","OBJECTID":564445},"geometry":{"x":169484.88999999966,"y":2545228.0000000037}},{"attributes":{"ID":564473,"DIS_CODE":0,"TOWNNAME":"北區","LI":"大仁里","LIN":"9鄰","STREET":"北門路","SECT":"二段","MAREA":" ","LANE":" ","ALLEY":" ","HOUSE_NO":"１９５號","E_COORD97":169486.54000000001,"N_COORD97":2545231.3799999999,"ADDRESS":"北門路二段１９５號","OBJECTID":564446},"geometry":{"x":169486.54000000097,"y":2545231.3800000008}},{"attributes":{"ID":564474,"DIS_CODE":0,"TOWNNAME":"北區","LI":"大仁里","LIN":"9鄰","STREET":"北門路","SECT":"二段","MAREA":" ","LANE":" ","ALLEY":" ","HOUSE_NO":"１９７號","E_COORD97":169487.89999999999,"N_COORD97":2545234.6099999999,"ADDRESS":"北門路二段１９７號","OBJECTID":564447},"geometry":{"x":169487.9000000013,"y":2545234.6100000013}},{"attributes":{"ID":564475,"DIS_CODE":0,"TOWNNAME":"北區","LI":"大仁里","LIN":"9鄰","STREET":"北門路","SECT":"二段","MAREA":" ","LANE":" ","ALLEY":" ","HOUSE_NO":"１９９號","E_COORD97":169489.32000000001,"N_COORD97":2545238.1400000001,"ADDRESS":"北門路二段１９９號","OBJECTID":564448},"geometry":{"x":169489.3200000003,"y":2545238.1400000025}},{"attributes":{"ID":564476,"DIS_CODE":0,"TOWNNAME":"北區","LI":"大仁里","LIN":"9鄰","STREET":"北門路","SECT":"二段","MAREA":" ","LANE":" ","ALLEY":" ","HOUSE_NO":"２０１號","E_COORD97":169491.13,"N_COORD97":2545241.1499999999,"ADDRESS":"北門路二段２０１號","OBJECTID":564449},"geometry":{"x":169491.13000000082,"y":2545241.1500000022}},{"attributes":{"ID":564477,"DIS_CODE":0,"TOWNNAME":"北區","LI":"大仁里","LIN":"9鄰","STREET":"北門路","SECT":"二段","MAREA":" ","LANE":" ","ALLEY":" ","HOUSE_NO":"２０３號","E_COORD97":169493.45999999999,"N_COORD97":2545245.4300000002,"ADDRESS":"北門路二段２０３號","OBJECTID":564450},"geometry":{"x":169493.46000000183,"y":2545245.4300000016}},{"attributes":{"ID":564478,"DIS_CODE":0,"TOWNNAME":"北區","LI":"大仁里","LIN":"9鄰","STREET":"北門路","SECT":"二段","MAREA":" ","LANE":" ","ALLEY":" ","HOUSE_NO":"２０５號","E_COORD97":169495.48999999999,"N_COORD97":2545248.8900000001,"ADDRESS":"北門路二段２０５號","OBJECTID":564451},"geometry":{"x":169495.49000000115,"y":2545248.8900000006}},{"attributes":{"ID":564479,"DIS_CODE":0,"TOWNNAME":"北區","LI":"大仁里","LIN":"9鄰","STREET":"北門路","SECT":"二段","MAREA":" ","LANE":" ","ALLEY":" ","HOUSE_NO":"２０７號","E_COORD97":169497.07000000001,"N_COORD97":2545251.7400000002,"ADDRESS":"北門路二段２０７號","OBJECTID":564452},"geometry":{"x":169497.07000000123,"y":2545251.7400000021}},{"attributes":{"ID":564480,"DIS_CODE":0,"TOWNNAME":"北區","LI":"大仁里","LIN":"9鄰","STREET":"北門路","SECT":"二段","MAREA":" ","LANE":" ","ALLEY":" ","HOUSE_NO":"２０９號","E_COORD97":169498.13,"N_COORD97":2545254.9399999999,"ADDRESS":"北門路二段２０９號","OBJECTID":564453},"geometry":{"x":169498.12999999989,"y":2545254.9400000032}},{"attributes":{"ID":564481,"DIS_CODE":0,"TOWNNAME":"北區","LI":"大仁里","LIN":"9鄰","STREET":"北門路","SECT":"二段","MAREA":" ","LANE":" ","ALLEY":" ","HOUSE_NO":"２１１號","E_COORD97":169500.01000000001,"N_COORD97":2545258.5499999998,"ADDRESS":"北門路二段２１１號","OBJECTID":564454},"geometry":{"x":169500.01000000071,"y":2545258.5499999989}},{"attributes":{"ID":564482,"DIS_CODE":0,"TOWNNAME":"北區","LI":"大仁里","LIN":"9鄰","STREET":"北門路","SECT":"二段","MAREA":" ","LANE":" ","ALLEY":" ","HOUSE_NO":"２１３號","E_COORD97":169500.91,"N_COORD97":2545261.5600000001,"ADDRESS":"北門路二段２１３號","OBJECTID":564455},"geometry":{"x":169500.91000000108,"y":2545261.5600000005}},{"attributes":{"ID":564483,"DIS_CODE":0,"TOWNNAME":"北區","LI":"大仁里","LIN":"9鄰","STREET":"北門路","SECT":"二段","MAREA":" ","LANE":" ","ALLEY":" ","HOUSE_NO":"２１５號","E_COORD97":169502.72,"N_COORD97":2545265.1600000001,"ADDRESS":"北門路二段２１５號","OBJECTID":564456},"geometry":{"x":169502.71999999974,"y":2545265.160000002}},{"attributes":{"ID":564484,"DIS_CODE":0,"TOWNNAME":"麻豆區","LI":"油車里","LIN":"9鄰","STREET":"新生北路","SECT":" ","MAREA":" ","LANE":" ","ALLEY":" ","HOUSE_NO":"３７７號","E_COORD97":172580,"N_COORD97":2565583.8399999999,"ADDRESS":"新生北路３７７號","OBJECTID":564457},"geometry":{"x":172579.99999999907,"y":2565583.8399999999}},{"attributes":{"ID":564485,"DIS_CODE":0,"TOWNNAME":"麻豆區","LI":"油車里","LIN":"9鄰","STREET":"新生北路","SECT":" ","MAREA":" ","LANE":" ","ALLEY":" ","HOUSE_NO":"３８１號","E_COORD97":172606.91,"N_COORD97":2565578.71,"ADDRESS":"新生北路３８１號","OBJECTID":564458},"geometry":{"x":172606.91000000108,"y":2565578.7100000009}},{"attributes":{"ID":564486,"DIS_CODE":0,"TOWNNAME":"麻豆區","LI":"油車里","LIN":"9鄰","STREET":"新生北路","SECT":" ","MAREA":" ","LANE":" ","ALLEY":" ","HOUSE_NO":"３９７號","E_COORD97":172687.14000000001,"N_COORD97":2565577.2799999998,"ADDRESS":"新生北路３９７號","OBJECTID":564459},"geometry":{"x":172687.13999999966,"y":2565577.2799999993}},{"attributes":{"ID":564487,"DIS_CODE":0,"TOWNNAME":"麻豆區","LI":"油車里","LIN":"9鄰","STREET":"新生北路","SECT":" ","MAREA":" ","LANE":" ","ALLEY":" ","HOUSE_NO":"４１９號","E_COORD97":172729.85000000001,"N_COORD97":2565571.8199999998,"ADDRESS":"新生北路４１９號","OBJECTID":564460},"geometry":{"x":172729.85000000149,"y":2565571.820000004}},{"attributes":{"ID":564488,"DIS_CODE":0,"TOWNNAME":"麻豆區","LI":"油車里","LIN":"9鄰","STREET":"新生北路","SECT":" ","MAREA":" ","LANE":" ","ALLEY":" ","HOUSE_NO":"４２１號","E_COORD97":172735.03,"N_COORD97":2565572,"ADDRESS":"新生北路４２１號","OBJECTID":564461},"geometry":{"x":172735.03000000119,"y":2565572}},{"attributes":{"ID":564489,"DIS_CODE":0,"TOWNNAME":"麻豆區","LI":"油車里","LIN":"9鄰","STREET":"新生北路","SECT":" ","MAREA":" ","LANE":" ","ALLEY":" ","HOUSE_NO":"４２３號","E_COORD97":172739.89999999999,"N_COORD97":2565572.3199999998,"ADDRESS":"新生北路４２３號","OBJECTID":564462},"geometry":{"x":172739.90000000037,"y":2565572.3200000022}},{"attributes":{"ID":564490,"DIS_CODE":0,"TOWNNAME":"麻豆區","LI":"油車里","LIN":"9鄰","STREET":"新生北路","SECT":" ","MAREA":" ","LANE":" ","ALLEY":" ","HOUSE_NO":"４２５號","E_COORD97":172746.31,"N_COORD97":2565566.52,"ADDRESS":"新生北路４２５號","OBJECTID":564463},"geometry":{"x":172746.30999999959,"y":2565566.5200000014}},{"attributes":{"ID":564491,"DIS_CODE":0,"TOWNNAME":"麻豆區","LI":"大埕里","LIN":"9鄰","STREET":"新生北路","SECT":" ","MAREA":" ","LANE":" ","ALLEY":" ","HOUSE_NO":"６００號","E_COORD97":173089.59,"N_COORD97":2565490.52,"ADDRESS":"新生北路６００號","OBJECTID":564464},"geometry":{"x":173089.59000000171,"y":2565490.5199999996}},{"attributes":{"ID":564492,"DIS_CODE":0,"TOWNNAME":"麻豆區","LI":"大埕里","LIN":"9鄰","STREET":"新生北路","SECT":" ","MAREA":" ","LANE":" ","ALLEY":" ","HOUSE_NO":"６０２號","E_COORD97":173095.64000000001,"N_COORD97":2565490.25,"ADDRESS":"新生北路６０２號","OBJECTID":564465},"geometry":{"x":173095.63999999966,"y":2565490.2499999981}},{"attributes":{"ID":564493,"DIS_CODE":0,"TOWNNAME":"麻豆區","LI":"大埕里","LIN":"9鄰","STREET":"新生北路","SECT":" ","MAREA":" ","LANE":" ","ALLEY":" ","HOUSE_NO":"６０４號","E_COORD97":173100.62,"N_COORD97":2565490.25,"ADDRESS":"新生北路６０４號","OBJECTID":564466},"geometry":{"x":173100.62000000104,"y":2565490.2499999981}},{"attributes":{"ID":564494,"DIS_CODE":0,"TOWNNAME":"麻豆區","LI":"大埕里","LIN":"9鄰","STREET":"新生北路","SECT":" ","MAREA":" ","LANE":" ","ALLEY":" ","HOUSE_NO":"６０６號","E_COORD97":173105.44,"N_COORD97":2565490.04,"ADDRESS":"新生北路６０６號","OBJECTID":564467},"geometry":{"x":173105.44000000134,"y":2565490.0399999991}},{"attributes":{"ID":564495,"DIS_CODE":0,"TOWNNAME":"麻豆區","LI":"大埕里","LIN":"9鄰","STREET":"新生北路","SECT":" ","MAREA":" ","LANE":" ","ALLEY":" ","HOUSE_NO":"６０８號","E_COORD97":173110.25,"N_COORD97":2565489.8799999999,"ADDRESS":"新生北路６０８號","OBJECTID":564468},"geometry":{"x":173110.25,"y":2565489.8800000008}},{"attributes":{"ID":564496,"DIS_CODE":0,"TOWNNAME":"麻豆區","LI":"大埕里","LIN":"9鄰","STREET":"新生北路","SECT":" ","MAREA":" ","LANE":" ","ALLEY":" ","HOUSE_NO":"６１０號","E_COORD97":173114.95000000001,"N_COORD97":2565490.04,"ADDRESS":"新生北路６１０號","OBJECTID":564469},"geometry":{"x":173114.95000000112,"y":2565490.0399999991}},{"attributes":{"ID":564497,"DIS_CODE":0,"TOWNNAME":"麻豆區","LI":"大埕里","LIN":"9鄰","STREET":"新生北路","SECT":" ","MAREA":" ","LANE":" ","ALLEY":" ","HOUSE_NO":"６１２號","E_COORD97":173119.72,"N_COORD97":2565489.9300000002,"ADDRESS":"新生北路６１２號","OBJECTID":564470},"geometry":{"x":173119.72000000067,"y":2565489.9300000016}},{"attributes":{"ID":564498,"DIS_CODE":0,"TOWNNAME":"麻豆區","LI":"大埕里","LIN":"9鄰","STREET":"新生北路","SECT":" ","MAREA":" ","LANE":" ","ALLEY":" ","HOUSE_NO":"６１６號","E_COORD97":173128.66,"N_COORD97":2565489.8300000001,"ADDRESS":"新生北路６１６號","OBJECTID":564471},"geometry":{"x":173128.66000000108,"y":2565489.8300000038}},{"attributes":{"ID":564499,"DIS_CODE":0,"TOWNNAME":"麻豆區","LI":"大埕里","LIN":"9鄰","STREET":"新生北路","SECT":" ","MAREA":" ","LANE":" ","ALLEY":" ","HOUSE_NO":"６１８號","E_COORD97":173132.84,"N_COORD97":2565489.77,"ADDRESS":"新生北路６１８號","OBJECTID":564472},"geometry":{"x":173132.83999999985,"y":2565489.7700000033}},{"attributes":{"ID":564500,"DIS_CODE":0,"TOWNNAME":"麻豆區","LI":"大埕里","LIN":"9鄰","STREET":"新生北路","SECT":" ","MAREA":" ","LANE":" ","ALLEY":" ","HOUSE_NO":"６２０號","E_COORD97":173137.31,"N_COORD97":2565489.71,"ADDRESS":"新生北路６２０號","OBJECTID":564473},"geometry":{"x":173137.31000000052,"y":2565489.7100000028}},{"attributes":{"ID":564501,"DIS_CODE":0,"TOWNNAME":"麻豆區","LI":"大埕里","LIN":"9鄰","STREET":"新生北路","SECT":" ","MAREA":" ","LANE":" ","ALLEY":" ","HOUSE_NO":"６２２號","E_COORD97":173141.54999999999,"N_COORD97":2565489.6000000001,"ADDRESS":"新生北路６２２號","OBJECTID":564474},"geometry":{"x":173141.54999999981,"y":2565489.5999999996}},{"attributes":{"ID":564502,"DIS_CODE":0,"TOWNNAME":"麻豆區","LI":"大埕里","LIN":"9鄰","STREET":"新生北路","SECT":" ","MAREA":" ","LANE":" ","ALLEY":" ","HOUSE_NO":"６２４號","E_COORD97":173146.25,"N_COORD97":2565489.54,"ADDRESS":"新生北路６２４號","OBJECTID":564475},"geometry":{"x":173146.25000000186,"y":2565489.5399999991}},{"attributes":{"ID":564503,"DIS_CODE":0,"TOWNNAME":"麻豆區","LI":"大埕里","LIN":"9鄰","STREET":"新生北路","SECT":" ","MAREA":" ","LANE":" ","ALLEY":" ","HOUSE_NO":"６２６號","E_COORD97":173150.42999999999,"N_COORD97":2565489.48,"ADDRESS":"新生北路６２６號","OBJECTID":564476},"geometry":{"x":173150.43000000063,"y":2565489.4800000042}},{"attributes":{"ID":564504,"DIS_CODE":0,"TOWNNAME":"麻豆區","LI":"大埕里","LIN":"9鄰","STREET":"新生北路","SECT":" ","MAREA":" ","LANE":" ","ALLEY":" ","HOUSE_NO":"６２８號","E_COORD97":173154.59,"N_COORD97":2565489.6899999999,"ADDRESS":"新生北路６２８號","OBJECTID":564477},"geometry":{"x":173154.59000000078,"y":2565489.6899999995}},{"attributes":{"ID":564505,"DIS_CODE":0,"TOWNNAME":"麻豆區","LI":"大埕里","LIN":"9鄰","STREET":"新生北路","SECT":" ","MAREA":" ","LANE":" ","ALLEY":" ","HOUSE_NO":"６３０號","E_COORD97":173159.26000000001,"N_COORD97":2565489.7999999998,"ADDRESS":"新生北路６３０號","OBJECTID":564478},"geometry":{"x":173159.25999999978,"y":2565489.8000000007}},{"attributes":{"ID":564506,"DIS_CODE":0,"TOWNNAME":"麻豆區","LI":"大埕里","LIN":"9鄰","STREET":"新生北路","SECT":" ","MAREA":" ","LANE":" ","ALLEY":" ","HOUSE_NO":"６６０號","E_COORD97":173200.51000000001,"N_COORD97":2565487.48,"ADDRESS":"新生北路６６０號","OBJECTID":564479},"geometry":{"x":173200.51000000071,"y":2565487.4800000023}},{"attributes":{"ID":564507,"DIS_CODE":0,"TOWNNAME":"麻豆區","LI":"興農里","LIN":"9鄰","STREET":"新生南路","SECT":" ","MAREA":" ","LANE":" ","ALLEY":" ","HOUSE_NO":"１７８號","E_COORD97":172310.82999999999,"N_COORD97":2564515.71,"ADDRESS":"新生南路１７８號","OBJECTID":564480},"geometry":{"x":172310.83000000101,"y":2564515.7100000028}},{"attributes":{"ID":564508,"DIS_CODE":0,"TOWNNAME":"麻豆區","LI":"興農里","LIN":"9鄰","STREET":"新生南路","SECT":" ","MAREA":" ","LANE":" ","ALLEY":" ","HOUSE_NO":"１８６號","E_COORD97":172318.42999999999,"N_COORD97":2564490.2000000002,"ADDRESS":"新生南路１８６號","OBJECTID":564481},"geometry":{"x":172318.4299999997,"y":2564490.2000000011}},{"attributes":{"ID":564509,"DIS_CODE":0,"TOWNNAME":"麻豆區","LI":"興農里","LIN":"9鄰","STREET":"新生南路","SECT":" ","MAREA":" ","LANE":" ","ALLEY":" ","HOUSE_NO":"１９６號","E_COORD97":172285.60000000001,"N_COORD97":2564507.1200000001,"ADDRESS":"新生南路１９６號","OBJECTID":564482},"geometry":{"x":172285.59999999963,"y":2564507.1200000029}},{"attributes":{"ID":564510,"DIS_CODE":0,"TOWNNAME":"麻豆區","LI":"興農里","LIN":"9鄰","STREET":"新生南路","SECT":" ","MAREA":" ","LANE":" ","ALLEY":" ","HOUSE_NO":"１９８號","E_COORD97":172246.89000000001,"N_COORD97":2564514.27,"ADDRESS":"新生南路１９８號","OBJECTID":564483},"geometry":{"x":172246.8900000006,"y":2564514.2700000014}},{"attributes":{"ID":564511,"DIS_CODE":0,"TOWNNAME":"麻豆區","LI":"興農里","LIN":"9鄰","STREET":"新生南路","SECT":" ","MAREA":" ","LANE":" ","ALLEY":" ","HOUSE_NO":"２０６號","E_COORD97":172312.82999999999,"N_COORD97":2564443.2999999998,"ADDRESS":"新生南路２０６號","OBJECTID":564484},"geometry":{"x":172312.83000000007,"y":2564443.3000000045}},{"attributes":{"ID":564512,"DIS_CODE":0,"TOWNNAME":"麻豆區","LI":"巷口里","LIN":"9鄰","STREET":"新生南路","SECT":" ","MAREA":" ","LANE":" ","ALLEY":" ","HOUSE_NO":"５２７號","E_COORD97":173193.91,"N_COORD97":2564092.4500000002,"ADDRESS":"新生南路５２７號","OBJECTID":564485},"geometry":{"x":173193.91000000015,"y":2564092.4500000011}},{"attributes":{"ID":564513,"DIS_CODE":0,"TOWNNAME":"麻豆區","LI":"巷口里","LIN":"9鄰","STREET":"新生南路","SECT":" ","MAREA":" ","LANE":" ","ALLEY":" ","HOUSE_NO":"５２９號","E_COORD97":173182.41,"N_COORD97":2564107.73,"ADDRESS":"新生南路５２９號","OBJECTID":564486},"geometry":{"x":173182.41000000015,"y":2564107.7300000042}},{"attributes":{"ID":564514,"DIS_CODE":0,"TOWNNAME":"歸仁區","LI":"南保里","LIN":"9鄰","STREET":"文化八街","SECT":" ","MAREA":" ","LANE":" ","ALLEY":" ","HOUSE_NO":"３０號","E_COORD97":176757.34,"N_COORD97":2541293.3300000001,"ADDRESS":"文化八街３０號","OBJECTID":564487},"geometry":{"x":176757.33999999985,"y":2541293.3300000019}},{"attributes":{"ID":564515,"DIS_CODE":0,"TOWNNAME":"麻豆區","LI":"巷口里","LIN":"9鄰","STREET":"新生南路","SECT":" ","MAREA":" ","LANE":" ","ALLEY":" ","HOUSE_NO":"６７２號","E_COORD97":173170.01000000001,"N_COORD97":2564047.7999999998,"ADDRESS":"新生南路６７２號","OBJECTID":564488},"geometry":{"x":173170.01000000071,"y":2564047.8000000026}},{"attributes":{"ID":564516,"DIS_CODE":0,"TOWNNAME":"麻豆區","LI":"巷口里","LIN":"9鄰","STREET":"新生南路","SECT":" ","MAREA":" ","LANE":" ","ALLEY":" ","HOUSE_NO":"６７４號","E_COORD97":173179.98000000001,"N_COORD97":2564048.1299999999,"ADDRESS":"新生南路６７４號","OBJECTID":564489},"geometry":{"x":173179.98000000045,"y":2564048.129999999}},{"attributes":{"ID":564517,"DIS_CODE":0,"TOWNNAME":"麻豆區","LI":"巷口里","LIN":"9鄰","STREET":"新生南路","SECT":" ","MAREA":" ","LANE":" ","ALLEY":" ","HOUSE_NO":"７００號","E_COORD97":173238.89000000001,"N_COORD97":2564040.7200000002,"ADDRESS":"新生南路７００號","OBJECTID":564490},"geometry":{"x":173238.8900000006,"y":2564040.7200000025}},{"attributes":{"ID":564518,"DIS_CODE":0,"TOWNNAME":"麻豆區","LI":"巷口里","LIN":"9鄰","STREET":"新生南路","SECT":" ","MAREA":" ","LANE":" ","ALLEY":" ","HOUSE_NO":"７０２號","E_COORD97":173247.76000000001,"N_COORD97":2564040.8999999999,"ADDRESS":"新生南路７０２號","OBJECTID":564491},"geometry":{"x":173247.76000000164,"y":2564040.9000000004}},{"attributes":{"ID":564519,"DIS_CODE":0,"TOWNNAME":"麻豆區","LI":"巷口里","LIN":"9鄰","STREET":"新生南路","SECT":" ","MAREA":" ","LANE":" ","ALLEY":" ","HOUSE_NO":"７０６號","E_COORD97":173253.54999999999,"N_COORD97":2564040.6099999999,"ADDRESS":"新生南路７０６號","OBJECTID":564492},"geometry":{"x":173253.54999999981,"y":2564040.6100000013}},{"attributes":{"ID":564520,"DIS_CODE":0,"TOWNNAME":"麻豆區","LI":"巷口里","LIN":"9鄰","STREET":"新生南路","SECT":" ","MAREA":" ","LANE":" ","ALLEY":" ","HOUSE_NO":"７０８號","E_COORD97":173259.10000000001,"N_COORD97":2564056.1899999999,"ADDRESS":"新生南路７０８號","OBJECTID":564493},"geometry":{"x":173259.10000000056,"y":2564056.1900000032}},{"attributes":{"ID":564521,"DIS_CODE":0,"TOWNNAME":"歸仁區","LI":"南保里","LIN":"9鄰","STREET":"文化八街","SECT":" ","MAREA":" ","LANE":" ","ALLEY":" ","HOUSE_NO":"２６號","E_COORD97":176757.34,"N_COORD97":2541286.3300000001,"ADDRESS":"文化八街２６號","OBJECTID":564494},"geometry":{"x":176757.33999999985,"y":2541286.3300000019}},{"attributes":{"ID":564522,"DIS_CODE":0,"TOWNNAME":"歸仁區","LI":"南興里","LIN":"9鄰","STREET":"文化十六街","SECT":" ","MAREA":" ","LANE":" ","ALLEY":" ","HOUSE_NO":"１２號","E_COORD97":175993.39000000001,"N_COORD97":2541235.3300000001,"ADDRESS":"文化十六街１２號","OBJECTID":564495},"geometry":{"x":175993.3900000006,"y":2541235.3300000038}},{"attributes":{"ID":564523,"DIS_CODE":0,"TOWNNAME":"歸仁區","LI":"南保里","LIN":"9鄰","STREET":"文化八街","SECT":" ","MAREA":" ","LANE":" ","ALLEY":" ","HOUSE_NO":"３４號","E_COORD97":176757.34,"N_COORD97":2541301.3300000001,"ADDRESS":"文化八街３４號","OBJECTID":564496},"geometry":{"x":176757.33999999985,"y":2541301.3300000001}},{"attributes":{"ID":564524,"DIS_CODE":0,"TOWNNAME":"歸仁區","LI":"後市里","LIN":"9鄰","STREET":"民權七街","SECT":" ","MAREA":" ","LANE":" ","ALLEY":" ","HOUSE_NO":"１４號","E_COORD97":177070.98999999999,"N_COORD97":2540714.25,"ADDRESS":"民權七街１４號","OBJECTID":564497},"geometry":{"x":177070.99000000209,"y":2540714.2500000019}},{"attributes":{"ID":564525,"DIS_CODE":0,"TOWNNAME":"歸仁區","LI":"南興里","LIN":"9鄰","STREET":"文化十六街","SECT":" ","MAREA":" ","LANE":" ","ALLEY":" ","HOUSE_NO":"２２號","E_COORD97":176026.19,"N_COORD97":2541233.3300000001,"ADDRESS":"文化十六街２２號","OBJECTID":564498},"geometry":{"x":176026.19000000134,"y":2541233.3300000019}},{"attributes":{"ID":564526,"DIS_CODE":0,"TOWNNAME":"歸仁區","LI":"歸仁里","LIN":"9鄰","STREET":"大仁街","SECT":" ","MAREA":" ","LANE":" ","ALLEY":" ","HOUSE_NO":"３３號","E_COORD97":177918.85000000001,"N_COORD97":2540809.1699999999,"ADDRESS":"大仁街３３號","OBJECTID":564499},"geometry":{"x":177918.85000000149,"y":2540809.1700000037}},{"attributes":{"ID":564527,"DIS_CODE":0,"TOWNNAME":"歸仁區","LI":"歸仁里","LIN":"9鄰","STREET":"大仁街","SECT":" ","MAREA":" ","LANE":" ","ALLEY":" ","HOUSE_NO":"３號","E_COORD97":177858.89999999999,"N_COORD97":2540768.1699999999,"ADDRESS":"大仁街３號","OBJECTID":564500},"geometry":{"x":177858.9000000013,"y":2540768.1700000037}},{"attributes":{"ID":564528,"DIS_CODE":0,"TOWNNAME":"歸仁區","LI":"新厝里","LIN":"9鄰","STREET":"和平南街","SECT":" ","MAREA":" ","LANE":" ","ALLEY":" ","HOUSE_NO":"１３６號","E_COORD97":177793.22,"N_COORD97":2540457.5,"ADDRESS":"和平南街１３６號","OBJECTID":564501},"geometry":{"x":177793.22000000067,"y":2540457.5000000037}},{"attributes":{"ID":564529,"DIS_CODE":0,"TOWNNAME":"歸仁區","LI":"歸仁里","LIN":"9鄰","STREET":"大仁街","SECT":" ","MAREA":" ","LANE":" ","ALLEY":" ","HOUSE_NO":"５號","E_COORD97":177862,"N_COORD97":2540770.1699999999,"ADDRESS":"大仁街５號","OBJECTID":564502},"geometry":{"x":177862,"y":2540770.1699999999}},{"attributes":{"ID":564530,"DIS_CODE":0,"TOWNNAME":"歸仁區","LI":"新厝里","LIN":"9鄰","STREET":"和平南街","SECT":" ","MAREA":" ","LANE":" ","ALLEY":" ","HOUSE_NO":"１３２號","E_COORD97":177794.22,"N_COORD97":2540465.5,"ADDRESS":"和平南街１３２號","OBJECTID":564503},"geometry":{"x":177794.21999999974,"y":2540465.5000000019}},{"attributes":{"ID":564531,"DIS_CODE":0,"TOWNNAME":"歸仁區","LI":"新厝里","LIN":"9鄰","STREET":"公園路","SECT":" ","MAREA":" ","LANE":" ","ALLEY":" ","HOUSE_NO":"１８６號","E_COORD97":177762.07999999999,"N_COORD97":2540438.5,"ADDRESS":"公園路１８６號","OBJECTID":564504},"geometry":{"x":177762.08000000101,"y":2540438.5000000019}},{"attributes":{"ID":564532,"DIS_CODE":0,"TOWNNAME":"永康區","LI":"\u25A0行里","LIN":"7鄰","STREET":"中正五街","SECT":" ","MAREA":" ","LANE":" ","ALLEY":" ","HOUSE_NO":"２６號","E_COORD97":172560.29000000001,"N_COORD97":2548512.75,"ADDRESS":"中正五街２６號","OBJECTID":564505},"geometry":{"x":172560.29000000097,"y":2548512.7500000019}},{"attributes":{"ID":564533,"DIS_CODE":0,"TOWNNAME":"歸仁區","LI":"歸仁里","LIN":"9鄰","STREET":"大仁街","SECT":" ","MAREA":" ","LANE":" ","ALLEY":" ","HOUSE_NO":"５３號","E_COORD97":177961.04999999999,"N_COORD97":2540837.1699999999,"ADDRESS":"大仁街５３號","OBJECTID":564506},"geometry":{"x":177961.04999999981,"y":2540837.1700000018}},{"attributes":{"ID":564534,"DIS_CODE":0,"TOWNNAME":"歸仁區","LI":"歸仁里","LIN":"9鄰","STREET":"大仁街","SECT":" ","MAREA":" ","LANE":" ","ALLEY":" ","HOUSE_NO":"１１號","E_COORD97":177877.75,"N_COORD97":2540781.1699999999,"ADDRESS":"大仁街１１號","OBJECTID":564507},"geometry":{"x":177877.75000000093,"y":2540781.1699999999}},{"attributes":{"ID":564535,"DIS_CODE":0,"TOWNNAME":"歸仁區","LI":"歸仁里","LIN":"9鄰","STREET":"大仁街","SECT":" ","MAREA":" ","LANE":" ","ALLEY":" ","HOUSE_NO":"９號","E_COORD97":177873.39999999999,"N_COORD97":2540777.1699999999,"ADDRESS":"大仁街９號","OBJECTID":564508},"geometry":{"x":177873.40000000037,"y":2540777.1699999999}},{"attributes":{"ID":564536,"DIS_CODE":0,"TOWNNAME":"歸仁區","LI":"新厝里","LIN":"9鄰","STREET":"和平南街","SECT":" ","MAREA":" ","LANE":" ","ALLEY":" ","HOUSE_NO":"１１６號","E_COORD97":177798.26999999999,"N_COORD97":2540502.27,"ADDRESS":"和平南街１１６號","OBJECTID":564509},"geometry":{"x":177798.26999999955,"y":2540502.2699999996}},{"attributes":{"ID":564537,"DIS_CODE":0,"TOWNNAME":"歸仁區","LI":"歸仁里","LIN":"9鄰","STREET":"大仁街","SECT":" ","MAREA":" ","LANE":" ","ALLEY":" ","HOUSE_NO":"３９號","E_COORD97":177929.14999999999,"N_COORD97":2540815.1699999999,"ADDRESS":"大仁街３９號","OBJECTID":564510},"geometry":{"x":177929.15000000037,"y":2540815.1699999999}},{"attributes":{"ID":564538,"DIS_CODE":0,"TOWNNAME":"歸仁區","LI":"媽廟里","LIN":"9鄰","STREET":"和順路","SECT":"一段","MAREA":" ","LANE":" ","ALLEY":" ","HOUSE_NO":"２９６號","E_COORD97":176766.82000000001,"N_COORD97":2543709.25,"ADDRESS":"和順路一段２９６號","OBJECTID":564511},"geometry":{"x":176766.8200000003,"y":2543709.25}},{"attributes":{"ID":564539,"DIS_CODE":0,"TOWNNAME":"歸仁區","LI":"新厝里","LIN":"9鄰","STREET":"公園路","SECT":" ","MAREA":" ","LANE":" ","ALLEY":" ","HOUSE_NO":"１８８號","E_COORD97":177757.98000000001,"N_COORD97":2540436.5,"ADDRESS":"公園路１８８號","OBJECTID":564512},"geometry":{"x":177757.98000000138,"y":2540436.5}},{"attributes":{"ID":564540,"DIS_CODE":0,"TOWNNAME":"歸仁區","LI":"歸仁里","LIN":"9鄰","STREET":"大仁街","SECT":" ","MAREA":" ","LANE":" ","ALLEY":" ","HOUSE_NO":"７號","E_COORD97":177868.20000000001,"N_COORD97":2540774.1699999999,"ADDRESS":"大仁街７號","OBJECTID":564513},"geometry":{"x":177868.20000000112,"y":2540774.1699999999}},{"attributes":{"ID":564541,"DIS_CODE":0,"TOWNNAME":"歸仁區","LI":"媽廟里","LIN":"9鄰","STREET":"和順路","SECT":"一段","MAREA":" ","LANE":" ","ALLEY":" ","HOUSE_NO":"２００號","E_COORD97":176907.42000000001,"N_COORD97":2543746.25,"ADDRESS":"和順路一段２００號","OBJECTID":564514},"geometry":{"x":176907.42000000086,"y":2543746.25}},{"attributes":{"ID":564542,"DIS_CODE":0,"TOWNNAME":"歸仁區","LI":"歸仁里","LIN":"9鄰","STREET":"大仁街","SECT":" ","MAREA":" ","LANE":" ","ALLEY":" ","HOUSE_NO":"４１號","E_COORD97":177934.35000000001,"N_COORD97":2540818.1699999999,"ADDRESS":"大仁街４１號","OBJECTID":564515},"geometry":{"x":177934.35000000056,"y":2540818.1699999999}},{"attributes":{"ID":564543,"DIS_CODE":0,"TOWNNAME":"歸仁區","LI":"新厝里","LIN":"9鄰","STREET":"和平南街","SECT":" ","MAREA":" ","LANE":" ","ALLEY":" ","HOUSE_NO":"１１２之１號","E_COORD97":177798.26999999999,"N_COORD97":2540505.27,"ADDRESS":"和平南街１１２之１號","OBJECTID":564516},"geometry":{"x":177798.26999999955,"y":2540505.2699999996}},{"attributes":{"ID":564544,"DIS_CODE":0,"TOWNNAME":"永康區","LI":"二王里","LIN":" ","STREET":"南工街","SECT":" ","MAREA":" ","LANE":" ","ALLEY":" ","HOUSE_NO":"２８６號","E_COORD97":171967.12,"N_COORD97":2546100.3799999999,"ADDRESS":"南工街２８６號","OBJECTID":564517},"geometry":{"x":171967.12000000011,"y":2546100.3800000008}},{"attributes":{"ID":564545,"DIS_CODE":0,"TOWNNAME":"永康區","LI":"\u25A0行里","LIN":"26鄰","STREET":"中正南路","SECT":" ","MAREA":" ","LANE":" ","ALLEY":" ","HOUSE_NO":"４７６號","E_COORD97":171238.76000000001,"N_COORD97":2548488.0600000001,"ADDRESS":"中正南路４７６號","OBJECTID":564518},"geometry":{"x":171238.75999999978,"y":2548488.0600000005}},{"attributes":{"ID":564546,"DIS_CODE":0,"TOWNNAME":"永康區","LI":"\u25A0行里","LIN":"46鄰","STREET":"新行街","SECT":" ","MAREA":" ","LANE":" ","ALLEY":" ","HOUSE_NO":"１２５號","E_COORD97":172318.63,"N_COORD97":2549035.25,"ADDRESS":"新行街１２５號","OBJECTID":564519},"geometry":{"x":172318.63000000082,"y":2549035.25}},{"attributes":{"ID":564547,"DIS_CODE":0,"TOWNNAME":"永康區","LI":"\u25A0行里","LIN":"8鄰","STREET":"中正五街","SECT":" ","MAREA":" ","LANE":" ","ALLEY":" ","HOUSE_NO":"７１號","E_COORD97":172809.53,"N_COORD97":2548484.5,"ADDRESS":"中正五街７１號","OBJECTID":564520},"geometry":{"x":172809.53000000119,"y":2548484.5}},{"attributes":{"ID":564548,"DIS_CODE":0,"TOWNNAME":"永康區","LI":"\u25A0行里","LIN":"8鄰","STREET":"中正五街","SECT":" ","MAREA":" ","LANE":" ","ALLEY":" ","HOUSE_NO":"９０號","E_COORD97":172860.19,"N_COORD97":2548458.3100000001,"ADDRESS":"中正五街９０號","OBJECTID":564521},"geometry":{"x":172860.19000000041,"y":2548458.3100000024}},{"attributes":{"ID":564549,"DIS_CODE":0,"TOWNNAME":"永康區","LI":"\u25A0行里","LIN":"7鄰","STREET":"中正五街","SECT":" ","MAREA":" ","LANE":" ","ALLEY":" ","HOUSE_NO":"２７號","E_COORD97":172583.98999999999,"N_COORD97":2548526.5,"ADDRESS":"中正五街２７號","OBJECTID":564522},"geometry":{"x":172583.99000000115,"y":2548526.4999999981}},{"attributes":{"ID":564550,"DIS_CODE":0,"TOWNNAME":"永康區","LI":"\u25A0行里","LIN":"7鄰","STREET":"中正五街","SECT":" ","MAREA":" ","LANE":" ","ALLEY":" ","HOUSE_NO":"１６號","E_COORD97":172507.28,"N_COORD97":2548569.7400000002,"ADDRESS":"中正五街１６號","OBJECTID":564523},"geometry":{"x":172507.28000000212,"y":2548569.7400000021}},{"attributes":{"ID":564551,"DIS_CODE":0,"TOWNNAME":"歸仁區","LI":"新厝里","LIN":"9鄰","STREET":"公園路","SECT":" ","MAREA":" ","LANE":" ","ALLEY":" ","HOUSE_NO":"１９４號","E_COORD97":177747.67999999999,"N_COORD97":2540432.5,"ADDRESS":"公園路１９４號","OBJECTID":564524},"geometry":{"x":177747.68000000063,"y":2540432.5}},{"attributes":{"ID":564552,"DIS_CODE":0,"TOWNNAME":"歸仁區","LI":"新厝里","LIN":"9鄰","STREET":"公園路","SECT":" ","MAREA":" ","LANE":" ","ALLEY":" ","HOUSE_NO":"２００號","E_COORD97":177735.38,"N_COORD97":2540427.5,"ADDRESS":"公園路２００號","OBJECTID":564525},"geometry":{"x":177735.37999999989,"y":2540427.5000000019}},{"attributes":{"ID":564553,"DIS_CODE":0,"TOWNNAME":"歸仁區","LI":"歸仁里","LIN":"9鄰","STREET":"大仁街","SECT":" ","MAREA":" ","LANE":" ","ALLEY":" ","HOUSE_NO":"４９號","E_COORD97":177951.75,"N_COORD97":2540830.1699999999,"ADDRESS":"大仁街４９號","OBJECTID":564526},"geometry":{"x":177951.75,"y":2540830.1700000018}},{"attributes":{"ID":564554,"DIS_CODE":0,"TOWNNAME":"歸仁區","LI":"新厝里","LIN":"9鄰","STREET":"公園路","SECT":" ","MAREA":" ","LANE":" ","ALLEY":" ","HOUSE_NO":"１７６號","E_COORD97":177781.57999999999,"N_COORD97":2540445.5,"ADDRESS":"公園路１７６號","OBJECTID":564527},"geometry":{"x":177781.58000000007,"y":2540445.5000000019}},{"attributes":{"ID":564555,"DIS_CODE":0,"TOWNNAME":"歸仁區","LI":"媽廟里","LIN":"9鄰","STREET":"和順路","SECT":"一段","MAREA":" ","LANE":" ","ALLEY":" ","HOUSE_NO":"１２４號","E_COORD97":177208.22,"N_COORD97":2543713.7200000002,"ADDRESS":"和順路一段１２４號","OBJECTID":564528},"geometry":{"x":177208.22000000067,"y":2543713.7200000007}},{"attributes":{"ID":564556,"DIS_CODE":0,"TOWNNAME":"歸仁區","LI":"新厝里","LIN":"9鄰","STREET":"公園路","SECT":" ","MAREA":" ","LANE":" ","ALLEY":" ","HOUSE_NO":"１９８號","E_COORD97":177739.48000000001,"N_COORD97":2540429.5,"ADDRESS":"公園路１９８號","OBJECTID":564529},"geometry":{"x":177739.48000000138,"y":2540429.5}},{"attributes":{"ID":564557,"DIS_CODE":0,"TOWNNAME":"歸仁區","LI":"歸仁里","LIN":"9鄰","STREET":"大仁街","SECT":" ","MAREA":" ","LANE":" ","ALLEY":" ","HOUSE_NO":"１９號","E_COORD97":177892.14999999999,"N_COORD97":2540791.1699999999,"ADDRESS":"大仁街１９號","OBJECTID":564530},"geometry":{"x":177892.15000000224,"y":2540791.1699999999}},{"attributes":{"ID":564558,"DIS_CODE":0,"TOWNNAME":"歸仁區","LI":"媽廟里","LIN":"9鄰","STREET":"和順路","SECT":"一段","MAREA":" ","LANE":" ","ALLEY":" ","HOUSE_NO":"１９２號","E_COORD97":177013.54000000001,"N_COORD97":2543706.2799999998,"ADDRESS":"和順路一段１９２號","OBJECTID":564531},"geometry":{"x":177013.54000000097,"y":2543706.2800000031}},{"attributes":{"ID":564559,"DIS_CODE":0,"TOWNNAME":"永康區","LI":"\u25A0行里","LIN":"28鄰","STREET":"中正五街","SECT":" ","MAREA":" ","LANE":" ","ALLEY":" ","HOUSE_NO":"５９號","E_COORD97":172721.17999999999,"N_COORD97":2548483,"ADDRESS":"中正五街５９號","OBJECTID":564532},"geometry":{"x":172721.18000000063,"y":2548483.0000000019}},{"attributes":{"ID":564560,"DIS_CODE":0,"TOWNNAME":"歸仁區","LI":"歸仁里","LIN":"9鄰","STREET":"大仁街","SECT":" ","MAREA":" ","LANE":" ","ALLEY":" ","HOUSE_NO":"３７號","E_COORD97":177925.04999999999,"N_COORD97":2540813.1699999999,"ADDRESS":"大仁街３７號","OBJECTID":564533},"geometry":{"x":177925.05000000075,"y":2540813.1700000018}},{"attributes":{"ID":564561,"DIS_CODE":0,"TOWNNAME":"歸仁區","LI":"歸南里","LIN":"9鄰","STREET":"民生九街","SECT":" ","MAREA":" ","LANE":" ","ALLEY":" ","HOUSE_NO":"６１號","E_COORD97":176218.91,"N_COORD97":2540170.25,"ADDRESS":"民生九街６１號","OBJECTID":564534},"geometry":{"x":176218.91000000108,"y":2540170.25}},{"attributes":{"ID":564562,"DIS_CODE":0,"TOWNNAME":"歸仁區","LI":"媽廟里","LIN":"9鄰","STREET":"和順路","SECT":"一段","MAREA":" ","LANE":" ","ALLEY":" ","HOUSE_NO":"３１０號","E_COORD97":176717.42000000001,"N_COORD97":2543680.2400000002,"ADDRESS":"和順路一段３１０號","OBJECTID":564535},"geometry":{"x":176717.42000000086,"y":2543680.2399999984}},{"attributes":{"ID":564563,"DIS_CODE":0,"TOWNNAME":"歸仁區","LI":"歸仁里","LIN":"9鄰","STREET":"大仁街","SECT":" ","MAREA":" ","LANE":" ","ALLEY":" ","HOUSE_NO":"２３號","E_COORD97":177898.35000000001,"N_COORD97":2540795.1699999999,"ADDRESS":"大仁街２３號","OBJECTID":564536},"geometry":{"x":177898.34999999963,"y":2540795.1699999981}},{"attributes":{"ID":564564,"DIS_CODE":0,"TOWNNAME":"歸仁區","LI":"歸仁里","LIN":"9鄰","STREET":"大仁街","SECT":" ","MAREA":" ","LANE":" ","ALLEY":" ","HOUSE_NO":"２１號","E_COORD97":177895.25,"N_COORD97":2540793.1699999999,"ADDRESS":"大仁街２１號","OBJECTID":564537},"geometry":{"x":177895.25000000093,"y":2540793.1700000018}},{"attributes":{"ID":564565,"DIS_CODE":0,"TOWNNAME":"歸仁區","LI":"歸南里","LIN":"9鄰","STREET":"民生九街","SECT":" ","MAREA":" ","LANE":" ","ALLEY":" ","HOUSE_NO":"７３號","E_COORD97":176216.70999999999,"N_COORD97":2540144.25,"ADDRESS":"民生九街７３號","OBJECTID":564538},"geometry":{"x":176216.71000000089,"y":2540144.2500000019}},{"attributes":{"ID":564566,"DIS_CODE":0,"TOWNNAME":"歸仁區","LI":"歸仁里","LIN":"9鄰","STREET":"大仁街","SECT":" ","MAREA":" ","LANE":" ","ALLEY":" ","HOUSE_NO":"２５號","E_COORD97":177902.45000000001,"N_COORD97":2540797.1699999999,"ADDRESS":"大仁街２５號","OBJECTID":564539},"geometry":{"x":177902.45000000112,"y":2540797.1699999999}},{"attributes":{"ID":564567,"DIS_CODE":0,"TOWNNAME":"歸仁區","LI":"歸南里","LIN":"9鄰","STREET":"民生九街","SECT":" ","MAREA":" ","LANE":" ","ALLEY":" ","HOUSE_NO":"７７號","E_COORD97":176215.60999999999,"N_COORD97":2540137.2400000002,"ADDRESS":"民生九街７７號","OBJECTID":564540},"geometry":{"x":176215.61000000034,"y":2540137.2399999984}},{"attributes":{"ID":564568,"DIS_CODE":0,"TOWNNAME":"歸仁區","LI":"新厝里","LIN":"9鄰","STREET":"和平南街","SECT":" ","MAREA":" ","LANE":" ","ALLEY":" ","HOUSE_NO":"１２０號","E_COORD97":177798.26999999999,"N_COORD97":2540494.27,"ADDRESS":"和平南街１２０號","OBJECTID":564541},"geometry":{"x":177798.26999999955,"y":2540494.2699999996}},{"attributes":{"ID":564569,"DIS_CODE":0,"TOWNNAME":"歸仁區","LI":"新厝里","LIN":"9鄰","STREET":"和平南街","SECT":" ","MAREA":" ","LANE":" ","ALLEY":" ","HOUSE_NO":"１２２號","E_COORD97":177798.26999999999,"N_COORD97":2540490.27,"ADDRESS":"和平南街１２２號","OBJECTID":564542},"geometry":{"x":177798.26999999955,"y":2540490.2700000014}},{"attributes":{"ID":564570,"DIS_CODE":0,"TOWNNAME":"歸仁區","LI":"新厝里","LIN":"9鄰","STREET":"和平南街","SECT":" ","MAREA":" ","LANE":" ","ALLEY":" ","HOUSE_NO":"１２８號","E_COORD97":177795.32000000001,"N_COORD97":2540472.5,"ADDRESS":"和平南街１２８號","OBJECTID":564543},"geometry":{"x":177795.3200000003,"y":2540472.5000000019}},{"attributes":{"ID":564571,"DIS_CODE":0,"TOWNNAME":"歸仁區","LI":"歸仁里","LIN":"9鄰","STREET":"大仁街","SECT":" ","MAREA":" ","LANE":" ","ALLEY":" ","HOUSE_NO":"３１號","E_COORD97":177912.64999999999,"N_COORD97":2540804.1699999999,"ADDRESS":"大仁街３１號","OBJECTID":564544},"geometry":{"x":177912.65000000224,"y":2540804.1699999999}},{"attributes":{"ID":564572,"DIS_CODE":0,"TOWNNAME":"歸仁區","LI":"西埔里","LIN":"9鄰","STREET":"西埔一街","SECT":" ","MAREA":" ","LANE":" ","ALLEY":" ","HOUSE_NO":"１４７號","E_COORD97":177046.10999999999,"N_COORD97":2544571.25,"ADDRESS":"西埔一街１４７號","OBJECTID":564545},"geometry":{"x":177046.11000000034,"y":2544571.25}},{"attributes":{"ID":564573,"DIS_CODE":0,"TOWNNAME":"歸仁區","LI":"媽廟里","LIN":"9鄰","STREET":"和順路","SECT":"一段","MAREA":" ","LANE":" ","ALLEY":" ","HOUSE_NO":"２３０號","E_COORD97":176850.82000000001,"N_COORD97":2543705.25,"ADDRESS":"和順路一段２３０號","OBJECTID":564546},"geometry":{"x":176850.82000000123,"y":2543705.2500000019}},{"attributes":{"ID":564574,"DIS_CODE":0,"TOWNNAME":"歸仁區","LI":"七甲里","LIN":"9鄰","STREET":"七甲一街","SECT":" ","MAREA":" ","LANE":" ","ALLEY":" ","HOUSE_NO":"９２號","E_COORD97":177627.48999999999,"N_COORD97":2542550.6600000001,"ADDRESS":"七甲一街９２號","OBJECTID":564547},"geometry":{"x":177627.49000000115,"y":2542550.6600000001}},{"attributes":{"ID":564575,"DIS_CODE":0,"TOWNNAME":"佳里區","LI":"忠仁里","LIN":"14鄰","STREET":"平等街","SECT":" ","MAREA":" ","LANE":" ","ALLEY":" ","HOUSE_NO":"４號","E_COORD97":166304.78,"N_COORD97":2561967.3700000001,"ADDRESS":"平等街４號","OBJECTID":564548},"geometry":{"x":166304.78000000119,"y":2561967.370000001}},{"attributes":{"ID":564576,"DIS_CODE":0,"TOWNNAME":"歸仁區","LI":"新厝里","LIN":"9鄰","STREET":"和平南街","SECT":" ","MAREA":" ","LANE":" ","ALLEY":" ","HOUSE_NO":"１３０號","E_COORD97":177794.22,"N_COORD97":2540468.5,"ADDRESS":"和平南街１３０號","OBJECTID":564549},"geometry":{"x":177794.21999999974,"y":2540468.5000000019}},{"attributes":{"ID":564577,"DIS_CODE":0,"TOWNNAME":"歸仁區","LI":"歸仁里","LIN":"9鄰","STREET":"大仁街","SECT":" ","MAREA":" ","LANE":" ","ALLEY":" ","HOUSE_NO":"１７號","E_COORD97":177889.04999999999,"N_COORD97":2540787.1699999999,"ADDRESS":"大仁街１７號","OBJECTID":564550},"geometry":{"x":177889.05000000075,"y":2540787.1699999999}},{"attributes":{"ID":564578,"DIS_CODE":0,"TOWNNAME":"歸仁區","LI":"新厝里","LIN":"9鄰","STREET":"和平南街","SECT":" ","MAREA":" ","LANE":" ","ALLEY":" ","HOUSE_NO":"１３４號","E_COORD97":177793.22,"N_COORD97":2540461.5,"ADDRESS":"和平南街１３４號","OBJECTID":564551},"geometry":{"x":177793.22000000067,"y":2540461.5000000019}},{"attributes":{"ID":564579,"DIS_CODE":0,"TOWNNAME":"歸仁區","LI":"看東里","LIN":"9鄰","STREET":"成功一街","SECT":" ","MAREA":" ","LANE":" ","ALLEY":" ","HOUSE_NO":"９號","E_COORD97":178630.44,"N_COORD97":2540180.25,"ADDRESS":"成功一街９號","OBJECTID":564552},"geometry":{"x":178630.44000000041,"y":2540180.25}},{"attributes":{"ID":564580,"DIS_CODE":0,"TOWNNAME":"歸仁區","LI":"崙頂里","LIN":"9鄰","STREET":"崙頂五街","SECT":" ","MAREA":" ","LANE":" ","ALLEY":" ","HOUSE_NO":"７６號","E_COORD97":178060.13,"N_COORD97":2539842.25,"ADDRESS":"崙頂五街７６號","OBJECTID":564553},"geometry":{"x":178060.13000000082,"y":2539842.2500000037}},{"attributes":{"ID":564581,"DIS_CODE":0,"TOWNNAME":"歸仁區","LI":"辜厝里","LIN":"9鄰","STREET":"中正南路","SECT":"一段","MAREA":" ","LANE":" ","ALLEY":" ","HOUSE_NO":"９２號","E_COORD97":177536.20000000001,"N_COORD97":2540552.5899999999,"ADDRESS":"中正南路一段９２號","OBJECTID":564554},"geometry":{"x":177536.20000000112,"y":2540552.5900000017}},{"attributes":{"ID":564582,"DIS_CODE":0,"TOWNNAME":"歸仁區","LI":"崙頂里","LIN":"9鄰","STREET":"成功路","SECT":"二段","MAREA":" ","LANE":" ","ALLEY":" ","HOUSE_NO":"８２號","E_COORD97":178092.92000000001,"N_COORD97":2539819.3599999999,"ADDRESS":"成功路二段８２號","OBJECTID":564555},"geometry":{"x":178092.91999999993,"y":2539819.3599999994}},{"attributes":{"ID":564583,"DIS_CODE":0,"TOWNNAME":"歸仁區","LI":"看西里","LIN":"9鄰","STREET":"仁愛南街","SECT":" ","MAREA":" ","LANE":" ","ALLEY":" ","HOUSE_NO":"１４９號","E_COORD97":178295.67999999999,"N_COORD97":2540289.2000000002,"ADDRESS":"仁愛南街１４９號","OBJECTID":564556},"geometry":{"x":178295.6799999997,"y":2540289.200000003}},{"attributes":{"ID":564584,"DIS_CODE":0,"TOWNNAME":"歸仁區","LI":"看東里","LIN":"9鄰","STREET":"成功一街","SECT":" ","MAREA":" ","LANE":" ","ALLEY":" ","HOUSE_NO":"５號","E_COORD97":178628.44,"N_COORD97":2540188.25,"ADDRESS":"成功一街５號","OBJECTID":564557},"geometry":{"x":178628.44000000134,"y":2540188.2500000037}},{"attributes":{"ID":564585,"DIS_CODE":0,"TOWNNAME":"歸仁區","LI":"看東里","LIN":"9鄰","STREET":"成功一街","SECT":" ","MAREA":" ","LANE":" ","ALLEY":" ","HOUSE_NO":"１１號","E_COORD97":178630.69,"N_COORD97":2540176.25,"ADDRESS":"成功一街１１號","OBJECTID":564558},"geometry":{"x":178630.69000000041,"y":2540176.25}},{"attributes":{"ID":564586,"DIS_CODE":0,"TOWNNAME":"歸仁區","LI":"看西里","LIN":"9鄰","STREET":"仁愛五街","SECT":" ","MAREA":" ","LANE":" ","ALLEY":" ","HOUSE_NO":"１６號","E_COORD97":178335.63,"N_COORD97":2540313.2000000002,"ADDRESS":"仁愛五街１６號","OBJECTID":564559},"geometry":{"x":178335.62999999989,"y":2540313.200000003}},{"attributes":{"ID":564587,"DIS_CODE":0,"TOWNNAME":"歸仁區","LI":"南興里","LIN":"9鄰","STREET":"文化十六街","SECT":" ","MAREA":" ","LANE":" ","ALLEY":" ","HOUSE_NO":"２０號","E_COORD97":176019.98999999999,"N_COORD97":2541233.3300000001,"ADDRESS":"文化十六街２０號","OBJECTID":564560},"geometry":{"x":176019.99000000209,"y":2541233.3300000019}},{"attributes":{"ID":564588,"DIS_CODE":0,"TOWNNAME":"歸仁區","LI":"後市里","LIN":"9鄰","STREET":"民權七街","SECT":" ","MAREA":" ","LANE":" ","ALLEY":" ","HOUSE_NO":"１８號","E_COORD97":177079.19,"N_COORD97":2540714.25,"ADDRESS":"民權七街１８號","OBJECTID":564561},"geometry":{"x":177079.19000000041,"y":2540714.2500000019}},{"attributes":{"ID":564589,"DIS_CODE":0,"TOWNNAME":"歸仁區","LI":"看東里","LIN":"9鄰","STREET":"成功路","SECT":"一段","MAREA":" ","LANE":" ","ALLEY":" ","HOUSE_NO":"１３１號","E_COORD97":178629.29000000001,"N_COORD97":2540215.25,"ADDRESS":"成功路一段１３１號","OBJECTID":564562},"geometry":{"x":178629.29000000004,"y":2540215.2500000037}},{"attributes":{"ID":564590,"DIS_CODE":0,"TOWNNAME":"歸仁區","LI":"南保里","LIN":"9鄰","STREET":"文化八街","SECT":" ","MAREA":" ","LANE":" ","ALLEY":" ","HOUSE_NO":"３８號","E_COORD97":176758.44,"N_COORD97":2541309.3300000001,"ADDRESS":"文化八街３８號","OBJECTID":564563},"geometry":{"x":176758.44000000134,"y":2541309.3300000001}},{"attributes":{"ID":564591,"DIS_CODE":0,"TOWNNAME":"歸仁區","LI":"南興里","LIN":"9鄰","STREET":"文化街","SECT":"三段","MAREA":" ","LANE":" ","ALLEY":" ","HOUSE_NO":"４３６號","E_COORD97":175968.84,"N_COORD97":2541213.3300000001,"ADDRESS":"文化街三段４３６號","OBJECTID":564564},"geometry":{"x":175968.84000000078,"y":2541213.3300000001}},{"attributes":{"ID":564592,"DIS_CODE":0,"TOWNNAME":"歸仁區","LI":"看東里","LIN":"9鄰","STREET":"成功路","SECT":"一段","MAREA":" ","LANE":" ","ALLEY":" ","HOUSE_NO":"１２５號","E_COORD97":178639.59,"N_COORD97":2540220.25,"ADDRESS":"成功路一段１２５號","OBJECTID":564565},"geometry":{"x":178639.59000000171,"y":2540220.25}},{"attributes":{"ID":564593,"DIS_CODE":0,"TOWNNAME":"歸仁區","LI":"看東里","LIN":"9鄰","STREET":"成功路","SECT":"一段","MAREA":" ","LANE":" ","ALLEY":" ","HOUSE_NO":"５１號","E_COORD97":178855.38,"N_COORD97":2540321.25,"ADDRESS":"成功路一段５１號","OBJECTID":564566},"geometry":{"x":178855.38000000082,"y":2540321.2500000019}},{"attributes":{"ID":564594,"DIS_CODE":0,"TOWNNAME":"歸仁區","LI":"看東里","LIN":"9鄰","STREET":"成功路","SECT":"一段","MAREA":" ","LANE":" ","ALLEY":" ","HOUSE_NO":"１１５號","E_COORD97":178659.09,"N_COORD97":2540228.25,"ADDRESS":"成功路一段１１５號","OBJECTID":564567},"geometry":{"x":178659.09000000078,"y":2540228.25}},{"attributes":{"ID":564595,"DIS_CODE":0,"TOWNNAME":"歸仁區","LI":"後市里","LIN":"9鄰","STREET":"大順六街","SECT":" ","MAREA":" ","LANE":" ","ALLEY":" ","HOUSE_NO":"５０號","E_COORD97":177043.20999999999,"N_COORD97":2540708.25,"ADDRESS":"大順六街５０號","OBJECTID":564568},"geometry":{"x":177043.20999999996,"y":2540708.2500000019}},{"attributes":{"ID":564596,"DIS_CODE":0,"TOWNNAME":"歸仁區","LI":"後市里","LIN":"9鄰","STREET":"大順街","SECT":" ","MAREA":" ","LANE":" ","ALLEY":" ","HOUSE_NO":"１５２號","E_COORD97":177052.01000000001,"N_COORD97":2540612.25,"ADDRESS":"大順街１５２號","OBJECTID":564569},"geometry":{"x":177052.01000000071,"y":2540612.2500000019}},{"attributes":{"ID":564597,"DIS_CODE":0,"TOWNNAME":"歸仁區","LI":"南保里","LIN":"9鄰","STREET":"文化八街","SECT":" ","MAREA":" ","LANE":" ","ALLEY":" ","HOUSE_NO":"２２號","E_COORD97":176757.23999999999,"N_COORD97":2541277.3300000001,"ADDRESS":"文化八街２２號","OBJECTID":564570},"geometry":{"x":176757.23999999929,"y":2541277.3300000019}},{"attributes":{"ID":564598,"DIS_CODE":0,"TOWNNAME":"歸仁區","LI":"後市里","LIN":"9鄰","STREET":"大順街","SECT":" ","MAREA":" ","LANE":" ","ALLEY":" ","HOUSE_NO":"１５４號","E_COORD97":177046.91,"N_COORD97":2540613.25,"ADDRESS":"大順街１５４號","OBJECTID":564571},"geometry":{"x":177046.91000000015,"y":2540613.2500000019}},{"attributes":{"ID":564599,"DIS_CODE":0,"TOWNNAME":"歸仁區","LI":"南興里","LIN":"9鄰","STREET":"文化街","SECT":"三段","MAREA":" ","LANE":" ","ALLEY":" ","HOUSE_NO":"４１６號","E_COORD97":176031.34,"N_COORD97":2541208.3300000001,"ADDRESS":"文化街三段４１６號","OBJECTID":564572},"geometry":{"x":176031.34000000078,"y":2541208.3300000038}},{"attributes":{"ID":564600,"DIS_CODE":0,"TOWNNAME":"歸仁區","LI":"後市里","LIN":"9鄰","STREET":"民權七街","SECT":" ","MAREA":" ","LANE":" ","ALLEY":" ","HOUSE_NO":"１０號","E_COORD97":177062.69,"N_COORD97":2540715.25,"ADDRESS":"民權七街１０號","OBJECTID":564573},"geometry":{"x":177062.69000000041,"y":2540715.25}},{"attributes":{"ID":564601,"DIS_CODE":0,"TOWNNAME":"歸仁區","LI":"六甲里","LIN":"9鄰","STREET":"中正南路","SECT":"一段","MAREA":" ","LANE":" ","ALLEY":" ","HOUSE_NO":"９８９號","E_COORD97":176109.51999999999,"N_COORD97":2539252.2799999998,"ADDRESS":"中正南路一段９８９號","OBJECTID":564574},"geometry":{"x":176109.52000000048,"y":2539252.2800000012}},{"attributes":{"ID":564602,"DIS_CODE":0,"TOWNNAME":"麻豆區","LI":"穀興里","LIN":"4鄰","STREET":"振興街","SECT":" ","MAREA":" ","LANE":" ","ALLEY":" ","HOUSE_NO":"１１號","E_COORD97":172835.81,"N_COORD97":2564961.2000000002,"ADDRESS":"振興街１１號","OBJECTID":564575},"geometry":{"x":172835.81000000052,"y":2564961.200000003}},{"attributes":{"ID":564603,"DIS_CODE":0,"TOWNNAME":"麻豆區","LI":"大埕里","LIN":"18鄰","STREET":"振興街","SECT":" ","MAREA":" ","LANE":" ","ALLEY":" ","HOUSE_NO":"２２號之１０","E_COORD97":172927.5,"N_COORD97":2564980.02,"ADDRESS":"振興街２２號之１０","OBJECTID":564576},"geometry":{"x":172927.49999999907,"y":2564980.0200000014}},{"attributes":{"ID":564604,"DIS_CODE":0,"TOWNNAME":"歸仁區","LI":"看東里","LIN":"9鄰","STREET":"成功路","SECT":"一段","MAREA":" ","LANE":" ","ALLEY":" ","HOUSE_NO":"３５號","E_COORD97":178920.07999999999,"N_COORD97":2540347.25,"ADDRESS":"成功路一段３５號","OBJECTID":564577},"geometry":{"x":178920.08000000101,"y":2540347.2500000037}},{"attributes":{"ID":564605,"DIS_CODE":0,"TOWNNAME":"歸仁區","LI":"南保里","LIN":"9鄰","STREET":"文化八街","SECT":" ","MAREA":" ","LANE":" ","ALLEY":" ","HOUSE_NO":"４６號","E_COORD97":176759.54000000001,"N_COORD97":2541321.3300000001,"ADDRESS":"文化八街４６號","OBJECTID":564578},"geometry":{"x":176759.54000000004,"y":2541321.3300000019}},{"attributes":{"ID":564606,"DIS_CODE":0,"TOWNNAME":"歸仁區","LI":"西埔里","LIN":"9鄰","STREET":"西埔一街","SECT":" ","MAREA":" ","LANE":" ","ALLEY":" ","HOUSE_NO":"１５４號","E_COORD97":177084.91,"N_COORD97":2544545.25,"ADDRESS":"西埔一街１５４號","OBJECTID":564579},"geometry":{"x":177084.90999999922,"y":2544545.2500000019}},{"attributes":{"ID":564607,"DIS_CODE":0,"TOWNNAME":"歸仁區","LI":"西埔里","LIN":"9鄰","STREET":"西埔一街","SECT":" ","MAREA":" ","LANE":" ","ALLEY":" ","HOUSE_NO":"１７５號","E_COORD97":177008.69,"N_COORD97":2544652.25,"ADDRESS":"西埔一街１７５號","OBJECTID":564580},"geometry":{"x":177008.68999999948,"y":2544652.25}},{"attributes":{"ID":564608,"DIS_CODE":0,"TOWNNAME":"歸仁區","LI":"文化里","LIN":"9鄰","STREET":"民權一街","SECT":" ","MAREA":" ","LANE":" ","ALLEY":" ","HOUSE_NO":"１５號","E_COORD97":177106.25,"N_COORD97":2541361.3300000001,"ADDRESS":"民權一街１５號","OBJECTID":564581},"geometry":{"x":177106.25000000186,"y":2541361.3300000019}},{"attributes":{"ID":564609,"DIS_CODE":0,"TOWNNAME":"歸仁區","LI":"西埔里","LIN":"9鄰","STREET":"西埔一街","SECT":" ","MAREA":" ","LANE":" ","ALLEY":" ","HOUSE_NO":"１５６號","E_COORD97":177083.91,"N_COORD97":2544551.25,"ADDRESS":"西埔一街１５６號","OBJECTID":564582},"geometry":{"x":177083.91000000108,"y":2544551.2499999981}},{"attributes":{"ID":564610,"DIS_CODE":0,"TOWNNAME":"歸仁區","LI":"大潭里","LIN":"9鄰","STREET":"長榮路","SECT":"一段","MAREA":" ","LANE":" ","ALLEY":" ","HOUSE_NO":"５８０號","E_COORD97":175990.07000000001,"N_COORD97":2534460.2799999998,"ADDRESS":"長榮路一段５８０號","OBJECTID":564583},"geometry":{"x":175990.0700000003,"y":2534460.2799999993}},{"attributes":{"ID":564611,"DIS_CODE":0,"TOWNNAME":"歸仁區","LI":"大潭里","LIN":"9鄰","STREET":"長榮路","SECT":"一段","MAREA":" ","LANE":" ","ALLEY":" ","HOUSE_NO":"７２號","E_COORD97":174800.01999999999,"N_COORD97":2534507.2799999998,"ADDRESS":"長榮路一段７２號","OBJECTID":564584},"geometry":{"x":174800.01999999955,"y":2534507.2799999993}},{"attributes":{"ID":564612,"DIS_CODE":0,"TOWNNAME":"歸仁區","LI":"看東里","LIN":"9鄰","STREET":"成功路","SECT":"一段","MAREA":" ","LANE":" ","ALLEY":" ","HOUSE_NO":"１１９號","E_COORD97":178651.89000000001,"N_COORD97":2540226.25,"ADDRESS":"成功路一段１１９號","OBJECTID":564585},"geometry":{"x":178651.88999999966,"y":2540226.2500000019}},{"attributes":{"ID":564613,"DIS_CODE":0,"TOWNNAME":"歸仁區","LI":"南保里","LIN":"9鄰","STREET":"文化八街","SECT":" ","MAREA":" ","LANE":" ","ALLEY":" ","HOUSE_NO":"２４號","E_COORD97":176757.23999999999,"N_COORD97":2541281.3300000001,"ADDRESS":"文化八街２４號","OBJECTID":564586},"geometry":{"x":176757.23999999929,"y":2541281.3300000001}},{"attributes":{"ID":564614,"DIS_CODE":0,"TOWNNAME":"歸仁區","LI":"崙頂里","LIN":"9鄰","STREET":"崙頂五街","SECT":" ","MAREA":" ","LANE":" ","ALLEY":" ","HOUSE_NO":"８４號","E_COORD97":178075.53,"N_COORD97":2539851.25,"ADDRESS":"崙頂五街８４號","OBJECTID":564587},"geometry":{"x":178075.53000000026,"y":2539851.25}},{"attributes":{"ID":564615,"DIS_CODE":0,"TOWNNAME":"新營區","LI":"新南里","LIN":"9鄰","STREET":"新北五街","SECT":" ","MAREA":" ","LANE":" ","ALLEY":" ","HOUSE_NO":"１４１號","E_COORD97":178570.87,"N_COORD97":2579154.3199999998,"ADDRESS":"新北五街１４１號","OBJECTID":564588},"geometry":{"x":178570.87000000104,"y":2579154.3200000022}},{"attributes":{"ID":564616,"DIS_CODE":0,"TOWNNAME":"新營區","LI":"新北里","LIN":"9鄰","STREET":"三興街","SECT":" ","MAREA":" ","LANE":" ","ALLEY":" ","HOUSE_NO":"３１３號","E_COORD97":179297.94,"N_COORD97":2579746.6299999999,"ADDRESS":"三興街３１３號","OBJECTID":564589},"geometry":{"x":179297.94000000134,"y":2579746.6300000027}},{"attributes":{"ID":564617,"DIS_CODE":0,"TOWNNAME":"新營區","LI":"民權里","LIN":"9鄰","STREET":"仁愛街","SECT":" ","MAREA":" ","LANE":" ","ALLEY":" ","HOUSE_NO":"１０號","E_COORD97":179855.82000000001,"N_COORD97":2578184.6800000002,"ADDRESS":"仁愛街１０號","OBJECTID":564590},"geometry":{"x":179855.82000000216,"y":2578184.6800000016}},{"attributes":{"ID":564618,"DIS_CODE":0,"TOWNNAME":"新營區","LI":"新北里","LIN":"9鄰","STREET":"三興街","SECT":" ","MAREA":" ","LANE":" ","ALLEY":" ","HOUSE_NO":"３１９號","E_COORD97":179299.04999999999,"N_COORD97":2579763.25,"ADDRESS":"三興街３１９號","OBJECTID":564591},"geometry":{"x":179299.04999999981,"y":2579763.25}},{"attributes":{"ID":564619,"DIS_CODE":0,"TOWNNAME":"新營區","LI":"王公里","LIN":"9鄰","STREET":"義和街","SECT":" ","MAREA":" ","LANE":" ","ALLEY":" ","HOUSE_NO":"３８號","E_COORD97":180333.59,"N_COORD97":2579052.8900000001,"ADDRESS":"義和街３８號","OBJECTID":564592},"geometry":{"x":180333.59000000078,"y":2579052.8900000025}},{"attributes":{"ID":564620,"DIS_CODE":0,"TOWNNAME":"新營區","LI":"王公里","LIN":"9鄰","STREET":"義和街","SECT":" ","MAREA":" ","LANE":" ","ALLEY":" ","HOUSE_NO":"３６號","E_COORD97":180348.04999999999,"N_COORD97":2579082.7200000002,"ADDRESS":"義和街３６號","OBJECTID":564593},"geometry":{"x":180348.04999999981,"y":2579082.7200000007}},{"attributes":{"ID":564621,"DIS_CODE":0,"TOWNNAME":"歸仁區","LI":"西埔里","LIN":"9鄰","STREET":"西埔一街","SECT":" ","MAREA":" ","LANE":" ","ALLEY":" ","HOUSE_NO":"１７１號","E_COORD97":177017.89000000001,"N_COORD97":2544643.25,"ADDRESS":"西埔一街１７１號","OBJECTID":564594},"geometry":{"x":177017.88999999966,"y":2544643.2500000037}},{"attributes":{"ID":564622,"DIS_CODE":0,"TOWNNAME":"歸仁區","LI":"六甲里","LIN":"9鄰","STREET":"中正南路","SECT":"一段","MAREA":" ","LANE":" ","ALLEY":" ","HOUSE_NO":"１００３號","E_COORD97":176093.26999999999,"N_COORD97":2539226.2799999998,"ADDRESS":"中正南路一段１００３號","OBJECTID":564595},"geometry":{"x":176093.26999999955,"y":2539226.2799999993}},{"attributes":{"ID":564623,"DIS_CODE":0,"TOWNNAME":"歸仁區","LI":"看東里","LIN":"9鄰","STREET":"成功路","SECT":"一段","MAREA":" ","LANE":" ","ALLEY":" ","HOUSE_NO":"１２９號","E_COORD97":178632.39000000001,"N_COORD97":2540217.25,"ADDRESS":"成功路一段１２９號","OBJECTID":564596},"geometry":{"x":178632.39000000153,"y":2540217.25}},{"attributes":{"ID":564624,"DIS_CODE":0,"TOWNNAME":"關廟區","LI":"布袋里","LIN":"9鄰","STREET":"長文街","SECT":" ","MAREA":" ","LANE":" ","ALLEY":" ","HOUSE_NO":"３７７號","E_COORD97":182193.34,"N_COORD97":2534788.2999999998,"ADDRESS":"長文街３７７號","OBJECTID":564597},"geometry":{"x":182193.34000000078,"y":2534788.3000000026}},{"attributes":{"ID":564625,"DIS_CODE":0,"TOWNNAME":"關廟區","LI":"北勢里","LIN":"9鄰","STREET":"北安三街","SECT":" ","MAREA":" ","LANE":" ","ALLEY":" ","HOUSE_NO":"４９號","E_COORD97":181649.09,"N_COORD97":2540528.3199999998,"ADDRESS":"北安三街４９號","OBJECTID":564598},"geometry":{"x":181649.09000000078,"y":2540528.3200000022}},{"attributes":{"ID":564626,"DIS_CODE":0,"TOWNNAME":"關廟區","LI":"南花里","LIN":"9鄰","STREET":"花園一街","SECT":" ","MAREA":" ","LANE":" ","ALLEY":" ","HOUSE_NO":"１３２號","E_COORD97":181817.29000000001,"N_COORD97":2540200.25,"ADDRESS":"花園一街１３２號","OBJECTID":564599},"geometry":{"x":181817.29000000097,"y":2540200.25}},{"attributes":{"ID":564627,"DIS_CODE":0,"TOWNNAME":"關廟區","LI":"五甲里","LIN":"9鄰","STREET":"南雄路","SECT":"一段","MAREA":" ","LANE":" ","ALLEY":" ","HOUSE_NO":"５９０號","E_COORD97":181606.98999999999,"N_COORD97":2538495.2799999998,"ADDRESS":"南雄路一段５９０號","OBJECTID":564600},"geometry":{"x":181606.99000000022,"y":2538495.2800000031}}]}