{"displayFieldName":"TOWNNAME","fieldAliases":{"ID":"ID","DIS_CODE":"DIS_CODE","TOWNNAME":"TOWNNAME","LI":"LI","LIN":"LIN","STREET":"STREET","SECT":"SECT","MAREA":"MAREA","LANE":"LANE","ALLEY":"ALLEY","HOUSE_NO":"HOUSE_NO","E_COORD97":"E_COORD97","N_COORD97":"N_COORD97","ADDRESS":"ADDRESS","OBJECTID":"OBJECTID"},"geometryType":"esriGeometryPoint","spatialReference":{"wkid":102443,"latestWkid":3826},"fields":[{"name":"ID","type":"esriFieldTypeDouble","alias":"ID"},{"name":"DIS_CODE","type":"esriFieldTypeInteger","alias":"DIS_CODE"},{"name":"TOWNNAME","type":"esriFieldTypeString","alias":"TOWNNAME","length":8},{"name":"LI","type":"esriFieldTypeString","alias":"LI","length":8},{"name":"LIN","type":"esriFieldTypeString","alias":"LIN","length":12},{"name":"STREET","type":"esriFieldTypeString","alias":"STREET","length":20},{"name":"SECT","type":"esriFieldTypeString","alias":"SECT","length":8},{"name":"MAREA","type":"esriFieldTypeString","alias":"MAREA","length":12},{"name":"LANE","type":"esriFieldTypeString","alias":"LANE","length":10},{"name":"ALLEY","type":"esriFieldTypeString","alias":"ALLEY","length":10},{"name":"HOUSE_NO","type":"esriFieldTypeString","alias":"HOUSE_NO","length":20},{"name":"E_COORD97","type":"esriFieldTypeDouble","alias":"E_COORD97"},{"name":"N_COORD97","type":"esriFieldTypeDouble","alias":"N_COORD97"},{"name":"ADDRESS","type":"esriFieldTypeString","alias":"ADDRESS","length":50},{"name":"OBJECTID","type":"esriFieldTypeOID","alias":"OBJECTID"}],"features":[{"attributes":{"ID":488026,"DIS_CODE":0,"TOWNNAME":"永康區","LI":"正強里","LIN":"41鄰","STREET":"正強街","SECT":" ","MAREA":" ","LANE":" ","ALLEY":" ","HOUSE_NO":"２９８號七樓之２","E_COORD97":173292.29999999999,"N_COORD97":2547971.0499999998,"ADDRESS":"正強街２９８號七樓之２","OBJECTID":488001},"geometry":{"x":173292.30000000075,"y":2547971.0500000045}},{"attributes":{"ID":488027,"DIS_CODE":0,"TOWNNAME":"永康區","LI":"北灣里","LIN":"41鄰","STREET":"信義二街","SECT":" ","MAREA":" ","LANE":" ","ALLEY":" ","HOUSE_NO":"７０號","E_COORD97":175052.60000000001,"N_COORD97":2545746.2400000002,"ADDRESS":"信義二街７０號","OBJECTID":488002},"geometry":{"x":175052.60000000056,"y":2545746.2400000021}},{"attributes":{"ID":488028,"DIS_CODE":0,"TOWNNAME":"佳里區","LI":"安西里","LIN":"41鄰","STREET":"佳西路","SECT":" ","MAREA":" ","LANE":" ","ALLEY":" ","HOUSE_NO":"１０８號","E_COORD97":164786.41,"N_COORD97":2562405.3700000001,"ADDRESS":"佳西路１０８號","OBJECTID":488003},"geometry":{"x":164786.41000000201,"y":2562405.3700000048}},{"attributes":{"ID":488029,"DIS_CODE":0,"TOWNNAME":"佳里區","LI":"安西里","LIN":"41鄰","STREET":"佳西路","SECT":" ","MAREA":" ","LANE":" ","ALLEY":" ","HOUSE_NO":"１１０號","E_COORD97":164786.51999999999,"N_COORD97":2562409.48,"ADDRESS":"佳西路１１０號","OBJECTID":488004},"geometry":{"x":164786.51999999955,"y":2562409.4800000004}},{"attributes":{"ID":488030,"DIS_CODE":0,"TOWNNAME":"佳里區","LI":"安西里","LIN":"41鄰","STREET":"佳西路","SECT":" ","MAREA":" ","LANE":" ","ALLEY":" ","HOUSE_NO":"１１２號","E_COORD97":164786.35000000001,"N_COORD97":2562414.0899999999,"ADDRESS":"佳西路１１２號","OBJECTID":488005},"geometry":{"x":164786.35000000149,"y":2562414.0900000017}},{"attributes":{"ID":488031,"DIS_CODE":0,"TOWNNAME":"佳里區","LI":"安西里","LIN":"41鄰","STREET":"佳西路","SECT":" ","MAREA":" ","LANE":" ","ALLEY":" ","HOUSE_NO":"１１６號","E_COORD97":164786.64999999999,"N_COORD97":2562418.3900000001,"ADDRESS":"佳西路１１６號","OBJECTID":488006},"geometry":{"x":164786.65000000224,"y":2562418.3900000043}},{"attributes":{"ID":488032,"DIS_CODE":0,"TOWNNAME":"佳里區","LI":"安西里","LIN":"41鄰","STREET":"佳西路","SECT":" ","MAREA":" ","LANE":" ","ALLEY":" ","HOUSE_NO":"１１８號","E_COORD97":164786.67999999999,"N_COORD97":2562423.4500000002,"ADDRESS":"佳西路１１８號","OBJECTID":488007},"geometry":{"x":164786.6799999997,"y":2562423.450000003}},{"attributes":{"ID":488033,"DIS_CODE":0,"TOWNNAME":"佳里區","LI":"安西里","LIN":"41鄰","STREET":"佳西路","SECT":" ","MAREA":" ","LANE":" ","ALLEY":" ","HOUSE_NO":"１２０號","E_COORD97":164786.70999999999,"N_COORD97":2562427.8199999998,"ADDRESS":"佳西路１２０號","OBJECTID":488008},"geometry":{"x":164786.70999999996,"y":2562427.8200000003}},{"attributes":{"ID":488034,"DIS_CODE":0,"TOWNNAME":"佳里區","LI":"安西里","LIN":"41鄰","STREET":"佳西路","SECT":" ","MAREA":" ","LANE":" ","ALLEY":" ","HOUSE_NO":"１２２號","E_COORD97":164786.75,"N_COORD97":2562432.0899999999,"ADDRESS":"佳西路１２２號","OBJECTID":488009},"geometry":{"x":164786.75,"y":2562432.0899999999}},{"attributes":{"ID":488035,"DIS_CODE":0,"TOWNNAME":"佳里區","LI":"安西里","LIN":"41鄰","STREET":"佳西路","SECT":" ","MAREA":" ","LANE":" ","ALLEY":" ","HOUSE_NO":"１２６號","E_COORD97":164786.67000000001,"N_COORD97":2562436.3799999999,"ADDRESS":"佳西路１２６號","OBJECTID":488010},"geometry":{"x":164786.67000000086,"y":2562436.379999999}},{"attributes":{"ID":488036,"DIS_CODE":0,"TOWNNAME":"佳里區","LI":"安西里","LIN":"41鄰","STREET":"佳西路","SECT":" ","MAREA":" ","LANE":" ","ALLEY":" ","HOUSE_NO":"１２８號","E_COORD97":164786.82000000001,"N_COORD97":2562440.5800000001,"ADDRESS":"佳西路１２８號","OBJECTID":488011},"geometry":{"x":164786.8200000003,"y":2562440.5800000038}},{"attributes":{"ID":488037,"DIS_CODE":0,"TOWNNAME":"佳里區","LI":"安西里","LIN":"41鄰","STREET":"佳西路","SECT":" ","MAREA":" ","LANE":" ","ALLEY":" ","HOUSE_NO":"１３８號","E_COORD97":164788.07999999999,"N_COORD97":2562469.4199999999,"ADDRESS":"佳西路１３８號","OBJECTID":488012},"geometry":{"x":164788.08000000007,"y":2562469.4200000018}},{"attributes":{"ID":488038,"DIS_CODE":0,"TOWNNAME":"佳里區","LI":"安西里","LIN":"41鄰","STREET":"佳西路","SECT":" ","MAREA":" ","LANE":" ","ALLEY":" ","HOUSE_NO":"１４０號","E_COORD97":164788.48999999999,"N_COORD97":2562473.5,"ADDRESS":"佳西路１４０號","OBJECTID":488013},"geometry":{"x":164788.49000000022,"y":2562473.5}},{"attributes":{"ID":488039,"DIS_CODE":0,"TOWNNAME":"佳里區","LI":"安西里","LIN":"41鄰","STREET":"佳西路","SECT":" ","MAREA":" ","LANE":" ","ALLEY":" ","HOUSE_NO":"１４２號","E_COORD97":164788.51999999999,"N_COORD97":2562477.98,"ADDRESS":"佳西路１４２號","OBJECTID":488014},"geometry":{"x":164788.52000000142,"y":2562477.9800000004}},{"attributes":{"ID":488040,"DIS_CODE":0,"TOWNNAME":"佳里區","LI":"安西里","LIN":"41鄰","STREET":"佳西路","SECT":" ","MAREA":" ","LANE":" ","ALLEY":" ","HOUSE_NO":"１４６號","E_COORD97":164788.48000000001,"N_COORD97":2562482.5600000001,"ADDRESS":"佳西路１４６號","OBJECTID":488015},"geometry":{"x":164788.48000000138,"y":2562482.5600000024}},{"attributes":{"ID":488041,"DIS_CODE":0,"TOWNNAME":"佳里區","LI":"安西里","LIN":"41鄰","STREET":"佳西路","SECT":" ","MAREA":" ","LANE":" ","ALLEY":" ","HOUSE_NO":"１５０號","E_COORD97":164789.14000000001,"N_COORD97":2562492.23,"ADDRESS":"佳西路１５０號","OBJECTID":488016},"geometry":{"x":164789.13999999966,"y":2562492.2300000023}},{"attributes":{"ID":488042,"DIS_CODE":0,"TOWNNAME":"佳里區","LI":"安西里","LIN":"41鄰","STREET":"佳西路","SECT":" ","MAREA":" ","LANE":" ","ALLEY":" ","HOUSE_NO":"１５２號","E_COORD97":164789.38,"N_COORD97":2562496.1499999999,"ADDRESS":"佳西路１５２號","OBJECTID":488017},"geometry":{"x":164789.37999999989,"y":2562496.1500000004}},{"attributes":{"ID":488043,"DIS_CODE":0,"TOWNNAME":"佳里區","LI":"安西里","LIN":"41鄰","STREET":"佳西路","SECT":" ","MAREA":" ","LANE":" ","ALLEY":" ","HOUSE_NO":"１５６號","E_COORD97":164789.76000000001,"N_COORD97":2562500.3599999999,"ADDRESS":"佳西路１５６號","OBJECTID":488018},"geometry":{"x":164789.75999999978,"y":2562500.3600000013}},{"attributes":{"ID":488044,"DIS_CODE":0,"TOWNNAME":"佳里區","LI":"安西里","LIN":"41鄰","STREET":"佳西路","SECT":" ","MAREA":" ","LANE":" ","ALLEY":" ","HOUSE_NO":"１５８號","E_COORD97":164789.73999999999,"N_COORD97":2562505.6000000001,"ADDRESS":"佳西路１５８號","OBJECTID":488019},"geometry":{"x":164789.74000000115,"y":2562505.6000000015}},{"attributes":{"ID":488045,"DIS_CODE":0,"TOWNNAME":"佳里區","LI":"安西里","LIN":"41鄰","STREET":"佳西路","SECT":" ","MAREA":" ","LANE":" ","ALLEY":" ","HOUSE_NO":"１８１號","E_COORD97":164757.73000000001,"N_COORD97":2562450.73,"ADDRESS":"佳西路１８１號","OBJECTID":488020},"geometry":{"x":164757.73000000138,"y":2562450.7300000023}},{"attributes":{"ID":488046,"DIS_CODE":0,"TOWNNAME":"佳里區","LI":"安西里","LIN":"41鄰","STREET":"佳西路","SECT":" ","MAREA":" ","LANE":" ","ALLEY":" ","HOUSE_NO":"１８９號","E_COORD97":164754.10000000001,"N_COORD97":2562484.6299999999,"ADDRESS":"佳西路１８９號","OBJECTID":488021},"geometry":{"x":164754.10000000149,"y":2562484.629999999}},{"attributes":{"ID":488047,"DIS_CODE":0,"TOWNNAME":"佳里區","LI":"安西里","LIN":"41鄰","STREET":"佳西路","SECT":" ","MAREA":" ","LANE":" ","ALLEY":" ","HOUSE_NO":"１９１號","E_COORD97":164754.01999999999,"N_COORD97":2562490.0800000001,"ADDRESS":"佳西路１９１號","OBJECTID":488022},"geometry":{"x":164754.01999999955,"y":2562490.0800000001}},{"attributes":{"ID":488048,"DIS_CODE":0,"TOWNNAME":"佳里區","LI":"安西里","LIN":"41鄰","STREET":"佳西路","SECT":" ","MAREA":" ","LANE":" ","ALLEY":" ","HOUSE_NO":"１９３號","E_COORD97":164754.28,"N_COORD97":2562494.3999999999,"ADDRESS":"佳西路１９３號","OBJECTID":488023},"geometry":{"x":164754.28000000119,"y":2562494.4000000022}},{"attributes":{"ID":488049,"DIS_CODE":0,"TOWNNAME":"佳里區","LI":"安西里","LIN":"41鄰","STREET":"佳西路","SECT":" ","MAREA":" ","LANE":" ","ALLEY":" ","HOUSE_NO":"１９５號","E_COORD97":164754.34,"N_COORD97":2562499.5600000001,"ADDRESS":"佳西路１９５號","OBJECTID":488024},"geometry":{"x":164754.34000000171,"y":2562499.5600000024}},{"attributes":{"ID":488050,"DIS_CODE":0,"TOWNNAME":"佳里區","LI":"安西里","LIN":"41鄰","STREET":"佳西路","SECT":" ","MAREA":" ","LANE":" ","ALLEY":" ","HOUSE_NO":"２０１號","E_COORD97":164755.01000000001,"N_COORD97":2562514.3999999999,"ADDRESS":"佳西路２０１號","OBJECTID":488025},"geometry":{"x":164755.01000000071,"y":2562514.4000000022}},{"attributes":{"ID":488051,"DIS_CODE":0,"TOWNNAME":"佳里區","LI":"安西里","LIN":"41鄰","STREET":"佳西路","SECT":" ","MAREA":" ","LANE":" ","ALLEY":" ","HOUSE_NO":"２０３號","E_COORD97":164754.78,"N_COORD97":2562518.9900000002,"ADDRESS":"佳西路２０３號","OBJECTID":488026},"geometry":{"x":164754.78000000026,"y":2562518.9900000039}},{"attributes":{"ID":488052,"DIS_CODE":0,"TOWNNAME":"佳里區","LI":"安西里","LIN":"41鄰","STREET":"佳西路","SECT":" ","MAREA":" ","LANE":" ","ALLEY":" ","HOUSE_NO":"８６號","E_COORD97":164785.70999999999,"N_COORD97":2562366.0800000001,"ADDRESS":"佳西路８６號","OBJECTID":488027},"geometry":{"x":164785.70999999996,"y":2562366.0800000019}},{"attributes":{"ID":488053,"DIS_CODE":0,"TOWNNAME":"佳里區","LI":"安西里","LIN":"41鄰","STREET":"佳西路","SECT":" ","MAREA":" ","LANE":" ","ALLEY":" ","HOUSE_NO":"９０號","E_COORD97":164786.17999999999,"N_COORD97":2562374.73,"ADDRESS":"佳西路９０號","OBJECTID":488028},"geometry":{"x":164786.18000000063,"y":2562374.7300000004}},{"attributes":{"ID":488054,"DIS_CODE":0,"TOWNNAME":"佳里區","LI":"安西里","LIN":"41鄰","STREET":"佳西路","SECT":" ","MAREA":" ","LANE":" ","ALLEY":" ","HOUSE_NO":"９２號","E_COORD97":164786.25,"N_COORD97":2562378.77,"ADDRESS":"佳西路９２號","OBJECTID":488029},"geometry":{"x":164786.25000000093,"y":2562378.7700000014}},{"attributes":{"ID":488055,"DIS_CODE":0,"TOWNNAME":"佳里區","LI":"安西里","LIN":"41鄰","STREET":"佳西路","SECT":" ","MAREA":" ","LANE":" ","ALLEY":" ","HOUSE_NO":"９６號","E_COORD97":164786.09,"N_COORD97":2562383.75,"ADDRESS":"佳西路９６號","OBJECTID":488030},"geometry":{"x":164786.08999999985,"y":2562383.75}},{"attributes":{"ID":488056,"DIS_CODE":0,"TOWNNAME":"佳里區","LI":"安西里","LIN":"41鄰","STREET":"佳西路","SECT":" ","MAREA":" ","LANE":" ","ALLEY":" ","HOUSE_NO":"９８號","E_COORD97":164786.16,"N_COORD97":2562387.7400000002,"ADDRESS":"佳西路９８號","OBJECTID":488031},"geometry":{"x":164786.16000000015,"y":2562387.7400000002}},{"attributes":{"ID":488057,"DIS_CODE":0,"TOWNNAME":"永康區","LI":"崑山里","LIN":"41鄰","STREET":"國光五街","SECT":" ","MAREA":" ","LANE":" ","ALLEY":" ","HOUSE_NO":"２５號","E_COORD97":174089.17000000001,"N_COORD97":2545093.8799999999,"ADDRESS":"國光五街２５號","OBJECTID":488032},"geometry":{"x":174089.16999999899,"y":2545093.879999999}},{"attributes":{"ID":488058,"DIS_CODE":0,"TOWNNAME":"永康區","LI":"崑山里","LIN":"41鄰","STREET":"國光五街","SECT":" ","MAREA":" ","LANE":" ","ALLEY":" ","HOUSE_NO":"４７號","E_COORD97":174040.07999999999,"N_COORD97":2545110.3700000001,"ADDRESS":"國光五街４７號","OBJECTID":488033},"geometry":{"x":174040.08000000007,"y":2545110.370000001}},{"attributes":{"ID":488059,"DIS_CODE":0,"TOWNNAME":"永康區","LI":"勝利里","LIN":"41鄰","STREET":"中華路","SECT":" ","MAREA":" ","LANE":" ","ALLEY":" ","HOUSE_NO":"１８５號","E_COORD97":171591.54999999999,"N_COORD97":2544971.25,"ADDRESS":"中華路１８５號","OBJECTID":488034},"geometry":{"x":171591.55000000075,"y":2544971.25}},{"attributes":{"ID":488060,"DIS_CODE":0,"TOWNNAME":"永康區","LI":"勝利里","LIN":"41鄰","STREET":"中華路","SECT":" ","MAREA":" ","LANE":" ","ALLEY":" ","HOUSE_NO":"１９１號","E_COORD97":171593.66,"N_COORD97":2544985.75,"ADDRESS":"中華路１９１號","OBJECTID":488035},"geometry":{"x":171593.66000000015,"y":2544985.7500000019}},{"attributes":{"ID":488061,"DIS_CODE":0,"TOWNNAME":"新市區","LI":"新和里","LIN":"41鄰","STREET":"西寧街","SECT":" ","MAREA":" ","LANE":" ","ALLEY":" ","HOUSE_NO":"１０號","E_COORD97":177138.20000000001,"N_COORD97":2552912.5,"ADDRESS":"西寧街１０號","OBJECTID":488036},"geometry":{"x":177138.20000000019,"y":2552912.5}},{"attributes":{"ID":488062,"DIS_CODE":0,"TOWNNAME":"永康區","LI":"永康里","LIN":"41鄰","STREET":"永福街","SECT":" ","MAREA":" ","LANE":" ","ALLEY":" ","HOUSE_NO":"８９號","E_COORD97":174274.5,"N_COORD97":2546608.9900000002,"ADDRESS":"永福街８９號","OBJECTID":488037},"geometry":{"x":174274.5,"y":2546608.9900000021}},{"attributes":{"ID":488063,"DIS_CODE":0,"TOWNNAME":"歸仁區","LI":"後市里","LIN":"41鄰","STREET":"國光街","SECT":" ","MAREA":" ","LANE":" ","ALLEY":" ","HOUSE_NO":"５２號","E_COORD97":177113.09,"N_COORD97":2540945.7400000002,"ADDRESS":"國光街５２號","OBJECTID":488038},"geometry":{"x":177113.09000000078,"y":2540945.7400000021}},{"attributes":{"ID":488064,"DIS_CODE":0,"TOWNNAME":"歸仁區","LI":"南興里","LIN":"41鄰","STREET":"中山路","SECT":"三段","MAREA":" ","LANE":" ","ALLEY":" ","HOUSE_NO":"３５９號","E_COORD97":175999.60999999999,"N_COORD97":2540949.25,"ADDRESS":"中山路三段３５９號","OBJECTID":488039},"geometry":{"x":175999.61000000127,"y":2540949.25}},{"attributes":{"ID":488065,"DIS_CODE":0,"TOWNNAME":"歸仁區","LI":"南保里","LIN":"41鄰","STREET":"保興街","SECT":" ","MAREA":" ","LANE":" ","ALLEY":" ","HOUSE_NO":"３０號","E_COORD97":176507.72,"N_COORD97":2541035.25,"ADDRESS":"保興街３０號","OBJECTID":488040},"geometry":{"x":176507.71999999881,"y":2541035.25}},{"attributes":{"ID":488066,"DIS_CODE":0,"TOWNNAME":"歸仁區","LI":"南興里","LIN":"41鄰","STREET":"中山路","SECT":"三段","MAREA":" ","LANE":" ","ALLEY":" ","HOUSE_NO":"４２５號","E_COORD97":175775.95999999999,"N_COORD97":2541000.2799999998,"ADDRESS":"中山路三段４２５號","OBJECTID":488041},"geometry":{"x":175775.96000000089,"y":2541000.2799999993}},{"attributes":{"ID":488067,"DIS_CODE":0,"TOWNNAME":"玉井區","LI":"玉田里","LIN":"41鄰","STREET":"民族路","SECT":" ","MAREA":" ","LANE":" ","ALLEY":" ","HOUSE_NO":"１６５號","E_COORD97":195407.17999999999,"N_COORD97":2558099.2799999998,"ADDRESS":"民族路１６５號","OBJECTID":488042},"geometry":{"x":195407.1799999997,"y":2558099.2800000012}},{"attributes":{"ID":488068,"DIS_CODE":0,"TOWNNAME":"玉井區","LI":"玉田里","LIN":"41鄰","STREET":"民族路","SECT":" ","MAREA":" ","LANE":" ","ALLEY":" ","HOUSE_NO":"１６７號","E_COORD97":195411.67999999999,"N_COORD97":2558100.2799999998,"ADDRESS":"民族路１６７號","OBJECTID":488043},"geometry":{"x":195411.68000000063,"y":2558100.2799999993}},{"attributes":{"ID":488069,"DIS_CODE":0,"TOWNNAME":"玉井區","LI":"玉田里","LIN":"41鄰","STREET":"民族路","SECT":" ","MAREA":" ","LANE":" ","ALLEY":" ","HOUSE_NO":"１５９號","E_COORD97":195394.38,"N_COORD97":2558099.2799999998,"ADDRESS":"民族路１５９號","OBJECTID":488044},"geometry":{"x":195394.37999999989,"y":2558099.2800000012}},{"attributes":{"ID":488070,"DIS_CODE":0,"TOWNNAME":"玉井區","LI":"玉田里","LIN":"41鄰","STREET":"民族路","SECT":" ","MAREA":" ","LANE":" ","ALLEY":" ","HOUSE_NO":"１６３號","E_COORD97":195403,"N_COORD97":2558099.2799999998,"ADDRESS":"民族路１６３號","OBJECTID":488045},"geometry":{"x":195403.00000000093,"y":2558099.2800000012}},{"attributes":{"ID":488071,"DIS_CODE":0,"TOWNNAME":"歸仁區","LI":"六甲里","LIN":"41鄰","STREET":"民生十二街","SECT":" ","MAREA":" ","LANE":" ","ALLEY":" ","HOUSE_NO":"５８號","E_COORD97":175985.73999999999,"N_COORD97":2539492.29,"ADDRESS":"民生十二街５８號","OBJECTID":488046},"geometry":{"x":175985.74000000022,"y":2539492.290000001}},{"attributes":{"ID":488072,"DIS_CODE":0,"TOWNNAME":"歸仁區","LI":"六甲里","LIN":"41鄰","STREET":"民生十二街","SECT":" ","MAREA":" ","LANE":" ","ALLEY":" ","HOUSE_NO":"１１號","E_COORD97":176085.39000000001,"N_COORD97":2539426.2400000002,"ADDRESS":"民生十二街１１號","OBJECTID":488047},"geometry":{"x":176085.38999999966,"y":2539426.2400000021}},{"attributes":{"ID":488073,"DIS_CODE":0,"TOWNNAME":"歸仁區","LI":"六甲里","LIN":"41鄰","STREET":"民生十二街","SECT":" ","MAREA":" ","LANE":" ","ALLEY":" ","HOUSE_NO":"５１號","E_COORD97":175974.23999999999,"N_COORD97":2539442.29,"ADDRESS":"民生十二街５１號","OBJECTID":488048},"geometry":{"x":175974.24000000209,"y":2539442.290000001}},{"attributes":{"ID":488074,"DIS_CODE":0,"TOWNNAME":"歸仁區","LI":"六甲里","LIN":"41鄰","STREET":"民生十二街","SECT":" ","MAREA":" ","LANE":" ","ALLEY":" ","HOUSE_NO":"４５號","E_COORD97":175990.64000000001,"N_COORD97":2539443.29,"ADDRESS":"民生十二街４５號","OBJECTID":488049},"geometry":{"x":175990.63999999966,"y":2539443.2899999991}},{"attributes":{"ID":488075,"DIS_CODE":0,"TOWNNAME":"歸仁區","LI":"六甲里","LIN":"41鄰","STREET":"民生十二街","SECT":" ","MAREA":" ","LANE":" ","ALLEY":" ","HOUSE_NO":"３５號","E_COORD97":176022.95000000001,"N_COORD97":2539443.29,"ADDRESS":"民生十二街３５號","OBJECTID":488050},"geometry":{"x":176022.95000000019,"y":2539443.2899999991}},{"attributes":{"ID":488076,"DIS_CODE":0,"TOWNNAME":"歸仁區","LI":"六甲里","LIN":"41鄰","STREET":"民生十二街","SECT":" ","MAREA":" ","LANE":" ","ALLEY":" ","HOUSE_NO":"３３號","E_COORD97":176035.19,"N_COORD97":2539437.2400000002,"ADDRESS":"民生十二街３３號","OBJECTID":488051},"geometry":{"x":176035.19000000041,"y":2539437.2400000021}},{"attributes":{"ID":488077,"DIS_CODE":0,"TOWNNAME":"北區","LI":"成德里","LIN":"41鄰","STREET":"育德三街","SECT":" ","MAREA":" ","LANE":" ","ALLEY":" ","HOUSE_NO":"９８號","E_COORD97":168181.01999999999,"N_COORD97":2546102.1699999999,"ADDRESS":"育德三街９８號","OBJECTID":488052},"geometry":{"x":168181.02000000048,"y":2546102.1700000018}},{"attributes":{"ID":488078,"DIS_CODE":0,"TOWNNAME":"北區","LI":"成德里","LIN":"41鄰","STREET":"文成二路","SECT":" ","MAREA":" ","LANE":" ","ALLEY":" ","HOUSE_NO":"３２０號","E_COORD97":168240.95000000001,"N_COORD97":2546179.8100000001,"ADDRESS":"文成二路３２０號","OBJECTID":488053},"geometry":{"x":168240.95000000205,"y":2546179.8100000024}},{"attributes":{"ID":488079,"DIS_CODE":0,"TOWNNAME":"北區","LI":"成德里","LIN":"41鄰","STREET":"育德三街","SECT":" ","MAREA":" ","LANE":" ","ALLEY":" ","HOUSE_NO":"１０２號","E_COORD97":168180.32000000001,"N_COORD97":2546115.4700000002,"ADDRESS":"育德三街１０２號","OBJECTID":488054},"geometry":{"x":168180.3200000003,"y":2546115.4700000007}},{"attributes":{"ID":488080,"DIS_CODE":0,"TOWNNAME":"北區","LI":"成德里","LIN":"41鄰","STREET":"育德三街","SECT":" ","MAREA":" ","LANE":" ","ALLEY":" ","HOUSE_NO":"１０８號","E_COORD97":168179.35000000001,"N_COORD97":2546125.6600000001,"ADDRESS":"育德三街１０８號","OBJECTID":488055},"geometry":{"x":168179.34999999963,"y":2546125.660000002}},{"attributes":{"ID":488081,"DIS_CODE":0,"TOWNNAME":"北區","LI":"成德里","LIN":"41鄰","STREET":"育德三街","SECT":" ","MAREA":" ","LANE":" ","ALLEY":" ","HOUSE_NO":"１１０號","E_COORD97":168178.70000000001,"N_COORD97":2546129.8700000001,"ADDRESS":"育德三街１１０號","OBJECTID":488056},"geometry":{"x":168178.70000000112,"y":2546129.8700000029}},{"attributes":{"ID":488082,"DIS_CODE":0,"TOWNNAME":"北區","LI":"成德里","LIN":"41鄰","STREET":"育德三街","SECT":" ","MAREA":" ","LANE":" ","ALLEY":" ","HOUSE_NO":"１１２號","E_COORD97":168178.38,"N_COORD97":2546133.9100000001,"ADDRESS":"育德三街１１２號","OBJECTID":488057},"geometry":{"x":168178.38000000175,"y":2546133.9100000039}},{"attributes":{"ID":488083,"DIS_CODE":0,"TOWNNAME":"北區","LI":"成德里","LIN":"41鄰","STREET":"育德三街","SECT":" ","MAREA":" ","LANE":" ","ALLEY":" ","HOUSE_NO":"１１６號","E_COORD97":168179.51000000001,"N_COORD97":2546138.1099999999,"ADDRESS":"育德三街１１６號","OBJECTID":488058},"geometry":{"x":168179.51000000071,"y":2546138.1099999994}},{"attributes":{"ID":488084,"DIS_CODE":0,"TOWNNAME":"北區","LI":"成德里","LIN":"41鄰","STREET":"育德三街","SECT":" ","MAREA":" ","LANE":" ","ALLEY":" ","HOUSE_NO":"１１８號","E_COORD97":168178.70000000001,"N_COORD97":2546141.8300000001,"ADDRESS":"育德三街１１８號","OBJECTID":488059},"geometry":{"x":168178.70000000112,"y":2546141.8300000019}},{"attributes":{"ID":488085,"DIS_CODE":0,"TOWNNAME":"北區","LI":"成德里","LIN":"41鄰","STREET":"育德三街","SECT":" ","MAREA":" ","LANE":" ","ALLEY":" ","HOUSE_NO":"１２０號","E_COORD97":168177.73000000001,"N_COORD97":2546146.3599999999,"ADDRESS":"育德三街１２０號","OBJECTID":488060},"geometry":{"x":168177.73000000045,"y":2546146.3599999994}},{"attributes":{"ID":488086,"DIS_CODE":0,"TOWNNAME":"北區","LI":"成德里","LIN":"41鄰","STREET":"育德三街","SECT":" ","MAREA":" ","LANE":" ","ALLEY":" ","HOUSE_NO":"１２２號","E_COORD97":168177.89000000001,"N_COORD97":2546150.2400000002,"ADDRESS":"育德三街１２２號","OBJECTID":488061},"geometry":{"x":168177.88999999966,"y":2546150.2400000021}},{"attributes":{"ID":488087,"DIS_CODE":0,"TOWNNAME":"北區","LI":"成德里","LIN":"41鄰","STREET":"育德三街","SECT":" ","MAREA":" ","LANE":" ","ALLEY":" ","HOUSE_NO":"１２６號","E_COORD97":168177.23999999999,"N_COORD97":2546154.6099999999,"ADDRESS":"育德三街１２６號","OBJECTID":488062},"geometry":{"x":168177.24000000022,"y":2546154.6099999994}},{"attributes":{"ID":488088,"DIS_CODE":0,"TOWNNAME":"歸仁區","LI":"南保里","LIN":"41鄰","STREET":"保興街","SECT":" ","MAREA":" ","LANE":" ","ALLEY":" ","HOUSE_NO":"２２號","E_COORD97":176506.62,"N_COORD97":2541020.25,"ADDRESS":"保興街２２號","OBJECTID":488063},"geometry":{"x":176506.62000000011,"y":2541020.2500000019}},{"attributes":{"ID":488089,"DIS_CODE":0,"TOWNNAME":"歸仁區","LI":"南興里","LIN":"41鄰","STREET":"中山十一街","SECT":" ","MAREA":" ","LANE":" ","ALLEY":" ","HOUSE_NO":"５號","E_COORD97":175814.35999999999,"N_COORD97":2540968.25,"ADDRESS":"中山十一街５號","OBJECTID":488064},"geometry":{"x":175814.36000000127,"y":2540968.2500000019}},{"attributes":{"ID":488090,"DIS_CODE":0,"TOWNNAME":"歸仁區","LI":"南保里","LIN":"41鄰","STREET":"保興街","SECT":" ","MAREA":" ","LANE":" ","ALLEY":" ","HOUSE_NO":"２４號","E_COORD97":176507.72,"N_COORD97":2541024.25,"ADDRESS":"保興街２４號","OBJECTID":488065},"geometry":{"x":176507.71999999881,"y":2541024.25}},{"attributes":{"ID":488091,"DIS_CODE":0,"TOWNNAME":"歸仁區","LI":"南興里","LIN":"41鄰","STREET":"中山路","SECT":"三段","MAREA":" ","LANE":" ","ALLEY":" ","HOUSE_NO":"４１５號","E_COORD97":175799.56,"N_COORD97":2540997.2799999998,"ADDRESS":"中山路三段４１５號","OBJECTID":488066},"geometry":{"x":175799.55999999959,"y":2540997.2799999975}},{"attributes":{"ID":488092,"DIS_CODE":0,"TOWNNAME":"歸仁區","LI":"南興里","LIN":"41鄰","STREET":"中山路","SECT":"三段","MAREA":" ","LANE":" ","ALLEY":" ","HOUSE_NO":"４７１號","E_COORD97":175609.85999999999,"N_COORD97":2541001.2799999998,"ADDRESS":"中山路三段４７１號","OBJECTID":488067},"geometry":{"x":175609.86000000127,"y":2541001.2800000012}},{"attributes":{"ID":488093,"DIS_CODE":0,"TOWNNAME":"歸仁區","LI":"南保里","LIN":"41鄰","STREET":"保興二街","SECT":" ","MAREA":" ","LANE":" ","ALLEY":" ","HOUSE_NO":"７號","E_COORD97":176543.42000000001,"N_COORD97":2541003.25,"ADDRESS":"保興二街７號","OBJECTID":488068},"geometry":{"x":176543.41999999993,"y":2541003.2500000019}},{"attributes":{"ID":488094,"DIS_CODE":0,"TOWNNAME":"歸仁區","LI":"南興里","LIN":"41鄰","STREET":"中山十一街","SECT":" ","MAREA":" ","LANE":" ","ALLEY":" ","HOUSE_NO":"１２號","E_COORD97":175801.20999999999,"N_COORD97":2540963.25,"ADDRESS":"中山十一街１２號","OBJECTID":488069},"geometry":{"x":175801.21000000183,"y":2540963.25}},{"attributes":{"ID":488095,"DIS_CODE":0,"TOWNNAME":"歸仁區","LI":"南興里","LIN":"41鄰","STREET":"中山十一街","SECT":" ","MAREA":" ","LANE":" ","ALLEY":" ","HOUSE_NO":"３０號","E_COORD97":175789.06,"N_COORD97":2540925.25,"ADDRESS":"中山十一街３０號","OBJECTID":488070},"geometry":{"x":175789.06000000052,"y":2540925.2500000019}},{"attributes":{"ID":488096,"DIS_CODE":0,"TOWNNAME":"歸仁區","LI":"後市里","LIN":"41鄰","STREET":"國光街","SECT":" ","MAREA":" ","LANE":" ","ALLEY":" ","HOUSE_NO":"５０號","E_COORD97":177109.98999999999,"N_COORD97":2540945.7400000002,"ADDRESS":"國光街５０號","OBJECTID":488071},"geometry":{"x":177109.99000000209,"y":2540945.7400000021}},{"attributes":{"ID":488097,"DIS_CODE":0,"TOWNNAME":"歸仁區","LI":"南興里","LIN":"41鄰","STREET":"中山十一街","SECT":" ","MAREA":" ","LANE":" ","ALLEY":" ","HOUSE_NO":"１０號","E_COORD97":175801.20999999999,"N_COORD97":2540966.2400000002,"ADDRESS":"中山十一街１０號","OBJECTID":488072},"geometry":{"x":175801.21000000183,"y":2540966.2400000021}},{"attributes":{"ID":488098,"DIS_CODE":0,"TOWNNAME":"歸仁區","LI":"南興里","LIN":"41鄰","STREET":"中山十一街","SECT":" ","MAREA":" ","LANE":" ","ALLEY":" ","HOUSE_NO":"７號","E_COORD97":175813.26000000001,"N_COORD97":2540957.25,"ADDRESS":"中山十一街７號","OBJECTID":488073},"geometry":{"x":175813.26000000071,"y":2540957.25}},{"attributes":{"ID":488099,"DIS_CODE":0,"TOWNNAME":"楠西區","LI":"東勢里","LIN":"9鄰","STREET":"水庫路","SECT":" ","MAREA":" ","LANE":" ","ALLEY":" ","HOUSE_NO":"２２４號","E_COORD97":197719.76999999999,"N_COORD97":2564203.25,"ADDRESS":"水庫路２２４號","OBJECTID":488074},"geometry":{"x":197719.77000000048,"y":2564203.2500000019}},{"attributes":{"ID":488100,"DIS_CODE":0,"TOWNNAME":"歸仁區","LI":"南保里","LIN":"41鄰","STREET":"保興街","SECT":" ","MAREA":" ","LANE":" ","ALLEY":" ","HOUSE_NO":"１８號","E_COORD97":176505.51999999999,"N_COORD97":2541011.25,"ADDRESS":"保興街１８號","OBJECTID":488075},"geometry":{"x":176505.52000000142,"y":2541011.25}},{"attributes":{"ID":488101,"DIS_CODE":0,"TOWNNAME":"歸仁區","LI":"南興里","LIN":"41鄰","STREET":"中山十一街","SECT":" ","MAREA":" ","LANE":" ","ALLEY":" ","HOUSE_NO":"２２號","E_COORD97":175799.01000000001,"N_COORD97":2540943.25,"ADDRESS":"中山十一街２２號","OBJECTID":488076},"geometry":{"x":175799.01000000164,"y":2540943.25}},{"attributes":{"ID":488102,"DIS_CODE":0,"TOWNNAME":"歸仁區","LI":"南興里","LIN":"41鄰","STREET":"中山路","SECT":"三段","MAREA":" ","LANE":" ","ALLEY":" ","HOUSE_NO":"４１９號","E_COORD97":175788.26000000001,"N_COORD97":2540998.2799999998,"ADDRESS":"中山路三段４１９號","OBJECTID":488077},"geometry":{"x":175788.25999999978,"y":2540998.2800000012}},{"attributes":{"ID":488103,"DIS_CODE":0,"TOWNNAME":"歸仁區","LI":"南興里","LIN":"41鄰","STREET":"中山十一街","SECT":" ","MAREA":" ","LANE":" ","ALLEY":" ","HOUSE_NO":"２０號","E_COORD97":175799.10999999999,"N_COORD97":2540947.25,"ADDRESS":"中山十一街２０號","OBJECTID":488078},"geometry":{"x":175799.11000000127,"y":2540947.2499999981}},{"attributes":{"ID":488104,"DIS_CODE":0,"TOWNNAME":"歸仁區","LI":"南保里","LIN":"41鄰","STREET":"保興二街","SECT":" ","MAREA":" ","LANE":" ","ALLEY":" ","HOUSE_NO":"５號","E_COORD97":176539.32000000001,"N_COORD97":2541003.25,"ADDRESS":"保興二街５號","OBJECTID":488079},"geometry":{"x":176539.3200000003,"y":2541003.2500000019}},{"attributes":{"ID":488105,"DIS_CODE":0,"TOWNNAME":"歸仁區","LI":"六甲里","LIN":"41鄰","STREET":"民生十二街","SECT":" ","MAREA":" ","LANE":" ","ALLEY":" ","HOUSE_NO":"２５號","E_COORD97":176051.59,"N_COORD97":2539429.2400000002,"ADDRESS":"民生十二街２５號","OBJECTID":488080},"geometry":{"x":176051.59000000078,"y":2539429.2400000021}},{"attributes":{"ID":488106,"DIS_CODE":0,"TOWNNAME":"歸仁區","LI":"南興里","LIN":"41鄰","STREET":"中山十一街","SECT":" ","MAREA":" ","LANE":" ","ALLEY":" ","HOUSE_NO":"１４號","E_COORD97":175801.20999999999,"N_COORD97":2540959.25,"ADDRESS":"中山十一街１４號","OBJECTID":488081},"geometry":{"x":175801.21000000183,"y":2540959.2500000019}},{"attributes":{"ID":488107,"DIS_CODE":0,"TOWNNAME":"北區","LI":"成德里","LIN":"41鄰","STREET":"育德二路","SECT":" ","MAREA":" ","LANE":" ","ALLEY":" ","HOUSE_NO":"３０９號","E_COORD97":168324.34,"N_COORD97":2546100.3799999999,"ADDRESS":"育德二路３０９號","OBJECTID":488082},"geometry":{"x":168324.33999999892,"y":2546100.3800000008}},{"attributes":{"ID":488108,"DIS_CODE":0,"TOWNNAME":"北區","LI":"成德里","LIN":"41鄰","STREET":"育德二路","SECT":" ","MAREA":" ","LANE":" ","ALLEY":" ","HOUSE_NO":"３０１號","E_COORD97":168333.82000000001,"N_COORD97":2546083.3900000001,"ADDRESS":"育德二路３０１號","OBJECTID":488083},"geometry":{"x":168333.82000000123,"y":2546083.3899999987}},{"attributes":{"ID":488109,"DIS_CODE":0,"TOWNNAME":"北區","LI":"成德里","LIN":"41鄰","STREET":"育德二路","SECT":" ","MAREA":" ","LANE":" ","ALLEY":" ","HOUSE_NO":"３０３號","E_COORD97":168328.39000000001,"N_COORD97":2546087.29,"ADDRESS":"育德二路３０３號","OBJECTID":488084},"geometry":{"x":168328.38999999966,"y":2546087.290000001}},{"attributes":{"ID":488110,"DIS_CODE":0,"TOWNNAME":"北區","LI":"成德里","LIN":"41鄰","STREET":"育德二路","SECT":" ","MAREA":" ","LANE":" ","ALLEY":" ","HOUSE_NO":"３０５號","E_COORD97":168327.82999999999,"N_COORD97":2546091.75,"ADDRESS":"育德二路３０５號","OBJECTID":488085},"geometry":{"x":168327.83000000007,"y":2546091.7500000019}},{"attributes":{"ID":488111,"DIS_CODE":0,"TOWNNAME":"北區","LI":"成德里","LIN":"41鄰","STREET":"育德二路","SECT":" ","MAREA":" ","LANE":" ","ALLEY":" ","HOUSE_NO":"３０７號","E_COORD97":168326.01999999999,"N_COORD97":2546096.0600000001,"ADDRESS":"育德二路３０７號","OBJECTID":488086},"geometry":{"x":168326.01999999955,"y":2546096.0600000042}},{"attributes":{"ID":488112,"DIS_CODE":0,"TOWNNAME":"北區","LI":"成德里","LIN":"41鄰","STREET":"育德二路","SECT":" ","MAREA":" ","LANE":" ","ALLEY":" ","HOUSE_NO":"３１１號","E_COORD97":168323.64999999999,"N_COORD97":2546104.4199999999,"ADDRESS":"育德二路３１１號","OBJECTID":488087},"geometry":{"x":168323.6500000013,"y":2546104.4200000018}},{"attributes":{"ID":488113,"DIS_CODE":0,"TOWNNAME":"北區","LI":"成德里","LIN":"41鄰","STREET":"育德二路","SECT":" ","MAREA":" ","LANE":" ","ALLEY":" ","HOUSE_NO":"３１３號","E_COORD97":168322.53,"N_COORD97":2546109.1499999999,"ADDRESS":"育德二路３１３號","OBJECTID":488088},"geometry":{"x":168322.53000000119,"y":2546109.1500000022}},{"attributes":{"ID":488114,"DIS_CODE":0,"TOWNNAME":"北區","LI":"成德里","LIN":"41鄰","STREET":"育德二路","SECT":" ","MAREA":" ","LANE":" ","ALLEY":" ","HOUSE_NO":"３１５號","E_COORD97":168321.82999999999,"N_COORD97":2546113.75,"ADDRESS":"育德二路３１５號","OBJECTID":488089},"geometry":{"x":168321.83000000101,"y":2546113.75}},{"attributes":{"ID":488115,"DIS_CODE":0,"TOWNNAME":"北區","LI":"成德里","LIN":"41鄰","STREET":"文成一路","SECT":" ","MAREA":" ","LANE":" ","ALLEY":" ","HOUSE_NO":"１８２號","E_COORD97":168343.57999999999,"N_COORD97":2546071.4199999999,"ADDRESS":"文成一路１８２號","OBJECTID":488090},"geometry":{"x":168343.58000000101,"y":2546071.4199999999}},{"attributes":{"ID":488116,"DIS_CODE":0,"TOWNNAME":"北區","LI":"成德里","LIN":"41鄰","STREET":"文成一路","SECT":" ","MAREA":" ","LANE":" ","ALLEY":" ","HOUSE_NO":"１８６號","E_COORD97":168337.59,"N_COORD97":2546071.8300000001,"ADDRESS":"文成一路１８６號","OBJECTID":488091},"geometry":{"x":168337.58999999985,"y":2546071.8300000001}},{"attributes":{"ID":488117,"DIS_CODE":0,"TOWNNAME":"北區","LI":"成德里","LIN":"41鄰","STREET":"文成一路","SECT":" ","MAREA":" ","LANE":" ","ALLEY":" ","HOUSE_NO":"１８８號","E_COORD97":168332.98999999999,"N_COORD97":2546071.7000000002,"ADDRESS":"文成一路１８８號","OBJECTID":488092},"geometry":{"x":168332.99000000115,"y":2546071.6999999993}},{"attributes":{"ID":488118,"DIS_CODE":0,"TOWNNAME":"北區","LI":"成德里","LIN":"41鄰","STREET":"文成一路","SECT":" ","MAREA":" ","LANE":" ","ALLEY":" ","HOUSE_NO":"１９０號","E_COORD97":168328.25,"N_COORD97":2546071,"ADDRESS":"文成一路１９０號","OBJECTID":488093},"geometry":{"x":168328.25,"y":2546071}},{"attributes":{"ID":488119,"DIS_CODE":0,"TOWNNAME":"北區","LI":"成德里","LIN":"41鄰","STREET":"文成一路","SECT":" ","MAREA":" ","LANE":" ","ALLEY":" ","HOUSE_NO":"１９２號","E_COORD97":168323.92000000001,"N_COORD97":2546073.0899999999,"ADDRESS":"文成一路１９２號","OBJECTID":488094},"geometry":{"x":168323.92000000179,"y":2546073.0899999999}},{"attributes":{"ID":488120,"DIS_CODE":0,"TOWNNAME":"北區","LI":"成德里","LIN":"41鄰","STREET":"文成一路","SECT":" ","MAREA":" ","LANE":" ","ALLEY":" ","HOUSE_NO":"１９６號","E_COORD97":168319.60000000001,"N_COORD97":2546072.6699999999,"ADDRESS":"文成一路１９６號","OBJECTID":488095},"geometry":{"x":168319.60000000056,"y":2546072.6699999999}},{"attributes":{"ID":488121,"DIS_CODE":0,"TOWNNAME":"永康區","LI":"正強里","LIN":"41鄰","STREET":"正強街","SECT":" ","MAREA":" ","LANE":" ","ALLEY":" ","HOUSE_NO":"２９０號十三樓之２","E_COORD97":173304.29000000001,"N_COORD97":2547926.29,"ADDRESS":"正強街２９０號十三樓之２","OBJECTID":488096},"geometry":{"x":173304.29000000097,"y":2547926.2899999991}},{"attributes":{"ID":488122,"DIS_CODE":0,"TOWNNAME":"北區","LI":"成德里","LIN":"41鄰","STREET":"育德二路","SECT":" ","MAREA":" ","LANE":" ","ALLEY":" ","HOUSE_NO":"３１９號","E_COORD97":168319.14000000001,"N_COORD97":2546122.8700000001,"ADDRESS":"育德二路３１９號","OBJECTID":488097},"geometry":{"x":168319.1400000006,"y":2546122.8700000029}},{"attributes":{"ID":488123,"DIS_CODE":0,"TOWNNAME":"歸仁區","LI":"六甲里","LIN":"41鄰","STREET":"民生十二街","SECT":" ","MAREA":" ","LANE":" ","ALLEY":" ","HOUSE_NO":"３１號","E_COORD97":176039.29000000001,"N_COORD97":2539435.2400000002,"ADDRESS":"民生十二街３１號","OBJECTID":488098},"geometry":{"x":176039.29000000004,"y":2539435.2400000002}},{"attributes":{"ID":488124,"DIS_CODE":0,"TOWNNAME":"歸仁區","LI":"六甲里","LIN":"41鄰","STREET":"民生十二街","SECT":" ","MAREA":" ","LANE":" ","ALLEY":" ","HOUSE_NO":"４１號","E_COORD97":175978.14000000001,"N_COORD97":2539415.29,"ADDRESS":"民生十二街４１號","OBJECTID":488099},"geometry":{"x":175978.1400000006,"y":2539415.290000001}},{"attributes":{"ID":488125,"DIS_CODE":0,"TOWNNAME":"歸仁區","LI":"南興里","LIN":"41鄰","STREET":"中山路","SECT":"三段","MAREA":" ","LANE":" ","ALLEY":" ","HOUSE_NO":"３９７號","E_COORD97":175838.81,"N_COORD97":2540990.25,"ADDRESS":"中山路三段３９７號","OBJECTID":488100},"geometry":{"x":175838.80999999959,"y":2540990.25}},{"attributes":{"ID":488126,"DIS_CODE":0,"TOWNNAME":"歸仁區","LI":"南興里","LIN":"41鄰","STREET":"中山路","SECT":"三段","MAREA":" ","LANE":" ","ALLEY":" ","HOUSE_NO":"４７５號","E_COORD97":175574.31,"N_COORD97":2541000.25,"ADDRESS":"中山路三段４７５號","OBJECTID":488101},"geometry":{"x":175574.30999999959,"y":2541000.25}},{"attributes":{"ID":488127,"DIS_CODE":0,"TOWNNAME":"歸仁區","LI":"南興里","LIN":"41鄰","STREET":"中山路","SECT":"三段","MAREA":" ","LANE":" ","ALLEY":" ","HOUSE_NO":"４８７號","E_COORD97":175508.81,"N_COORD97":2541026.25,"ADDRESS":"中山路三段４８７號","OBJECTID":488102},"geometry":{"x":175508.81000000052,"y":2541026.2500000019}},{"attributes":{"ID":488128,"DIS_CODE":0,"TOWNNAME":"歸仁區","LI":"南興里","LIN":"41鄰","STREET":"中山路","SECT":"三段","MAREA":" ","LANE":" ","ALLEY":" ","HOUSE_NO":"４４７號","E_COORD97":175726.10999999999,"N_COORD97":2541001.25,"ADDRESS":"中山路三段４４７號","OBJECTID":488103},"geometry":{"x":175726.1100000022,"y":2541001.25}},{"attributes":{"ID":488129,"DIS_CODE":0,"TOWNNAME":"北區","LI":"成德里","LIN":"34鄰","STREET":"育德三街","SECT":" ","MAREA":" ","LANE":" ","ALLEY":" ","HOUSE_NO":"７９號","E_COORD97":168123.73000000001,"N_COORD97":2545960.8999999999,"ADDRESS":"育德三街７９號","OBJECTID":488104},"geometry":{"x":168123.73000000045,"y":2545960.9000000004}},{"attributes":{"ID":488130,"DIS_CODE":0,"TOWNNAME":"歸仁區","LI":"南興里","LIN":"41鄰","STREET":"中山路","SECT":"三段","MAREA":" ","LANE":" ","ALLEY":" ","HOUSE_NO":"４８１號","E_COORD97":175549.81,"N_COORD97":2541024.25,"ADDRESS":"中山路三段４８１號","OBJECTID":488105},"geometry":{"x":175549.81000000052,"y":2541024.25}},{"attributes":{"ID":488131,"DIS_CODE":0,"TOWNNAME":"仁德區","LI":"仁義里","LIN":"13鄰","STREET":"中山路","SECT":" ","MAREA":" ","LANE":" ","ALLEY":" ","HOUSE_NO":"６８號","E_COORD97":174803.29000000001,"N_COORD97":2541153.25,"ADDRESS":"中山路６８號","OBJECTID":488106},"geometry":{"x":174803.29000000004,"y":2541153.25}},{"attributes":{"ID":488132,"DIS_CODE":0,"TOWNNAME":"歸仁區","LI":"南興里","LIN":"41鄰","STREET":"中山路","SECT":"三段","MAREA":" ","LANE":" ","ALLEY":" ","HOUSE_NO":"４０１號","E_COORD97":175828.60999999999,"N_COORD97":2540990.25,"ADDRESS":"中山路三段４０１號","OBJECTID":488107},"geometry":{"x":175828.61000000034,"y":2540990.25}},{"attributes":{"ID":488133,"DIS_CODE":0,"TOWNNAME":"歸仁區","LI":"南興里","LIN":"41鄰","STREET":"中山路","SECT":"三段","MAREA":" ","LANE":" ","ALLEY":" ","HOUSE_NO":"３７１號","E_COORD97":175932.91,"N_COORD97":2540938.25,"ADDRESS":"中山路三段３７１號","OBJECTID":488108},"geometry":{"x":175932.91000000108,"y":2540938.2500000019}},{"attributes":{"ID":488134,"DIS_CODE":0,"TOWNNAME":"歸仁區","LI":"南興里","LIN":"41鄰","STREET":"中山路","SECT":"三段","MAREA":" ","LANE":" ","ALLEY":" ","HOUSE_NO":"３８７號","E_COORD97":175878.70999999999,"N_COORD97":2540953.25,"ADDRESS":"中山路三段３８７號","OBJECTID":488109},"geometry":{"x":175878.70999999996,"y":2540953.25}},{"attributes":{"ID":488135,"DIS_CODE":0,"TOWNNAME":"北區","LI":"成德里","LIN":"41鄰","STREET":"文成二路","SECT":" ","MAREA":" ","LANE":" ","ALLEY":" ","HOUSE_NO":"２１３號","E_COORD97":168277.55116100001,"N_COORD97":2546163.4105799999,"ADDRESS":"文成二路２１３號","OBJECTID":488110},"geometry":{"x":168277.55116099957,"y":2546163.4105840009}},{"attributes":{"ID":488136,"DIS_CODE":0,"TOWNNAME":"永康區","LI":"北灣里","LIN":"41鄰","STREET":"大灣七街","SECT":" ","MAREA":" ","LANE":" ","ALLEY":" ","HOUSE_NO":"８２號","E_COORD97":175086.07000000001,"N_COORD97":2545775.1699999999,"ADDRESS":"大灣七街８２號","OBJECTID":488111},"geometry":{"x":175086.07000000123,"y":2545775.1699999999}},{"attributes":{"ID":488137,"DIS_CODE":0,"TOWNNAME":"永康區","LI":"北灣里","LIN":"41鄰","STREET":"大灣七街","SECT":" ","MAREA":" ","LANE":" ","ALLEY":" ","HOUSE_NO":"８６號","E_COORD97":175080.29000000001,"N_COORD97":2545780.1899999999,"ADDRESS":"大灣七街８６號","OBJECTID":488112},"geometry":{"x":175080.2900000019,"y":2545780.1900000013}},{"attributes":{"ID":488138,"DIS_CODE":0,"TOWNNAME":"仁德區","LI":"後壁里","LIN":"41鄰","STREET":"德善路","SECT":" ","MAREA":" ","LANE":" ","ALLEY":" ","HOUSE_NO":"２６５號","E_COORD97":173897.26999999999,"N_COORD97":2538656.52,"ADDRESS":"德善路２６５號","OBJECTID":488113},"geometry":{"x":173897.27000000048,"y":2538656.5199999977}},{"attributes":{"ID":488139,"DIS_CODE":0,"TOWNNAME":"仁德區","LI":"後壁里","LIN":"41鄰","STREET":"德善路","SECT":" ","MAREA":" ","LANE":" ","ALLEY":" ","HOUSE_NO":"２７１號","E_COORD97":173907.89999999999,"N_COORD97":2538650.27,"ADDRESS":"德善路２７１號","OBJECTID":488114},"geometry":{"x":173907.90000000037,"y":2538650.2699999996}},{"attributes":{"ID":488140,"DIS_CODE":0,"TOWNNAME":"仁德區","LI":"後壁里","LIN":"41鄰","STREET":"德善路","SECT":" ","MAREA":" ","LANE":" ","ALLEY":" ","HOUSE_NO":"２４７之１號","E_COORD97":173828.29000000001,"N_COORD97":2538704.54,"ADDRESS":"德善路２４７之１號","OBJECTID":488115},"geometry":{"x":173828.29000000097,"y":2538704.540000001}},{"attributes":{"ID":488141,"DIS_CODE":0,"TOWNNAME":"仁德區","LI":"後壁里","LIN":"41鄰","STREET":"德善路","SECT":" ","MAREA":" ","LANE":" ","ALLEY":" ","HOUSE_NO":"２５５號","E_COORD97":173873.76000000001,"N_COORD97":2538671.52,"ADDRESS":"德善路２５５號","OBJECTID":488116},"geometry":{"x":173873.76000000071,"y":2538671.5200000014}},{"attributes":{"ID":488142,"DIS_CODE":0,"TOWNNAME":"仁德區","LI":"仁義里","LIN":"41鄰","STREET":"中正路","SECT":"二段","MAREA":" ","LANE":" ","ALLEY":" ","HOUSE_NO":"９１６號","E_COORD97":173449.81,"N_COORD97":2540626.7799999998,"ADDRESS":"中正路二段９１６號","OBJECTID":488117},"geometry":{"x":173449.80999999959,"y":2540626.7799999993}},{"attributes":{"ID":488143,"DIS_CODE":0,"TOWNNAME":"仁德區","LI":"仁義里","LIN":"41鄰","STREET":"中正路","SECT":"二段","MAREA":" ","LANE":" ","ALLEY":" ","HOUSE_NO":"９００號","E_COORD97":173453.17999999999,"N_COORD97":2540590.77,"ADDRESS":"中正路二段９００號","OBJECTID":488118},"geometry":{"x":173453.17999999877,"y":2540590.7700000033}},{"attributes":{"ID":488144,"DIS_CODE":0,"TOWNNAME":"仁德區","LI":"仁義里","LIN":"41鄰","STREET":"中正路","SECT":"二段","MAREA":" ","LANE":" ","ALLEY":" ","HOUSE_NO":"８９８號","E_COORD97":173453.95000000001,"N_COORD97":2540586.02,"ADDRESS":"中正路二段８９８號","OBJECTID":488119},"geometry":{"x":173453.95000000112,"y":2540586.0200000033}},{"attributes":{"ID":488145,"DIS_CODE":0,"TOWNNAME":"仁德區","LI":"後壁里","LIN":"41鄰","STREET":"德善路","SECT":" ","MAREA":" ","LANE":" ","ALLEY":" ","HOUSE_NO":"２４７之６號","E_COORD97":173845.94,"N_COORD97":2538693.29,"ADDRESS":"德善路２４７之６號","OBJECTID":488120},"geometry":{"x":173845.94000000134,"y":2538693.290000001}},{"attributes":{"ID":488146,"DIS_CODE":0,"TOWNNAME":"永康區","LI":"北灣里","LIN":"41鄰","STREET":"大灣七街","SECT":" ","MAREA":" ","LANE":" ","ALLEY":" ","HOUSE_NO":"９２號","E_COORD97":175075.67000000001,"N_COORD97":2545805.0299999998,"ADDRESS":"大灣七街９２號","OBJECTID":488121},"geometry":{"x":175075.66999999993,"y":2545805.0299999993}},{"attributes":{"ID":488147,"DIS_CODE":0,"TOWNNAME":"永康區","LI":"勝利里","LIN":"41鄰","STREET":"中華路","SECT":" ","MAREA":" ","LANE":" ","ALLEY":" ","HOUSE_NO":"２０７號","E_COORD97":171599.19,"N_COORD97":2545027.9500000002,"ADDRESS":"中華路２０７號","OBJECTID":488122},"geometry":{"x":171599.19000000041,"y":2545027.9500000011}},{"attributes":{"ID":488148,"DIS_CODE":0,"TOWNNAME":"永康區","LI":"西灣里","LIN":"41鄰","STREET":"永華路","SECT":" ","MAREA":" ","LANE":" ","ALLEY":" ","HOUSE_NO":"１０３號","E_COORD97":174088.82999999999,"N_COORD97":2545407.25,"ADDRESS":"永華路１０３號","OBJECTID":488123},"geometry":{"x":174088.83000000101,"y":2545407.2500000019}},{"attributes":{"ID":488149,"DIS_CODE":0,"TOWNNAME":"永康區","LI":"永康里","LIN":"41鄰","STREET":"永大三路","SECT":" ","MAREA":" ","LANE":" ","ALLEY":" ","HOUSE_NO":"３９號","E_COORD97":174242.82999999999,"N_COORD97":2546652.3700000001,"ADDRESS":"永大三路３９號","OBJECTID":488124},"geometry":{"x":174242.83000000101,"y":2546652.370000001}},{"attributes":{"ID":488150,"DIS_CODE":0,"TOWNNAME":"永康區","LI":"北灣里","LIN":"41鄰","STREET":"大灣七街","SECT":" ","MAREA":" ","LANE":" ","ALLEY":" ","HOUSE_NO":"９８號","E_COORD97":175075.87,"N_COORD97":2545813.0299999998,"ADDRESS":"大灣七街９８號","OBJECTID":488125},"geometry":{"x":175075.87000000011,"y":2545813.0299999993}},{"attributes":{"ID":488151,"DIS_CODE":0,"TOWNNAME":"永康區","LI":"勝利里","LIN":"41鄰","STREET":"中華路","SECT":" ","MAREA":" ","LANE":" ","ALLEY":" ","HOUSE_NO":"２３３號","E_COORD97":171595.98999999999,"N_COORD97":2545092.75,"ADDRESS":"中華路２３３號","OBJECTID":488126},"geometry":{"x":171595.99000000115,"y":2545092.75}},{"attributes":{"ID":488152,"DIS_CODE":0,"TOWNNAME":"永康區","LI":"勝利里","LIN":"41鄰","STREET":"中華路","SECT":" ","MAREA":" ","LANE":" ","ALLEY":" ","HOUSE_NO":"２２５號","E_COORD97":171599.66,"N_COORD97":2545073,"ADDRESS":"中華路２２５號","OBJECTID":488127},"geometry":{"x":171599.66000000108,"y":2545073.0000000019}},{"attributes":{"ID":488153,"DIS_CODE":0,"TOWNNAME":"永康區","LI":"勝利里","LIN":"41鄰","STREET":"中華路","SECT":" ","MAREA":" ","LANE":" ","ALLEY":" ","HOUSE_NO":"２２７號","E_COORD97":171599.79000000001,"N_COORD97":2545077.75,"ADDRESS":"中華路２２７號","OBJECTID":488128},"geometry":{"x":171599.79000000004,"y":2545077.7500000019}},{"attributes":{"ID":488154,"DIS_CODE":0,"TOWNNAME":"仁德區","LI":"仁義里","LIN":"41鄰","STREET":"中正路","SECT":"二段","MAREA":" ","LANE":" ","ALLEY":" ","HOUSE_NO":"８７４號","E_COORD97":173458.67000000001,"N_COORD97":2540531.7799999998,"ADDRESS":"中正路二段８７４號","OBJECTID":488129},"geometry":{"x":173458.67000000179,"y":2540531.7799999993}},{"attributes":{"ID":488155,"DIS_CODE":0,"TOWNNAME":"永康區","LI":"\u25A0行里","LIN":"41鄰","STREET":"永安一街","SECT":" ","MAREA":" ","LANE":" ","ALLEY":" ","HOUSE_NO":"１０２號","E_COORD97":172427.01000000001,"N_COORD97":2549396.3100000001,"ADDRESS":"永安一街１０２號","OBJECTID":488130},"geometry":{"x":172427.00999999978,"y":2549396.3100000042}},{"attributes":{"ID":488156,"DIS_CODE":0,"TOWNNAME":"永康區","LI":"\u25A0行里","LIN":"41鄰","STREET":"永安一街","SECT":" ","MAREA":" ","LANE":" ","ALLEY":" ","HOUSE_NO":"７２之１號","E_COORD97":172476.01000000001,"N_COORD97":2549397.8100000001,"ADDRESS":"永安一街７２之１號","OBJECTID":488131},"geometry":{"x":172476.00999999978,"y":2549397.8100000024}},{"attributes":{"ID":488157,"DIS_CODE":0,"TOWNNAME":"永康區","LI":"西灣里","LIN":"41鄰","STREET":"國光六街","SECT":" ","MAREA":" ","LANE":" ","ALLEY":" ","HOUSE_NO":"８４號","E_COORD97":174048.82000000001,"N_COORD97":2545347.1800000002,"ADDRESS":"國光六街８４號","OBJECTID":488132},"geometry":{"x":174048.82000000123,"y":2545347.1799999997}},{"attributes":{"ID":488158,"DIS_CODE":0,"TOWNNAME":"永康區","LI":"\u25A0行里","LIN":"41鄰","STREET":"永安路","SECT":" ","MAREA":" ","LANE":" ","ALLEY":" ","HOUSE_NO":"１９９號","E_COORD97":172517.32999999999,"N_COORD97":2549563.0099999998,"ADDRESS":"永安路１９９號","OBJECTID":488133},"geometry":{"x":172517.33000000101,"y":2549563.0099999998}},{"attributes":{"ID":488159,"DIS_CODE":0,"TOWNNAME":"永康區","LI":"\u25A0行里","LIN":"41鄰","STREET":"永安一街","SECT":" ","MAREA":" ","LANE":" ","ALLEY":" ","HOUSE_NO":"１１０號","E_COORD97":172412.75,"N_COORD97":2549395.8100000001,"ADDRESS":"永安一街１１０號","OBJECTID":488134},"geometry":{"x":172412.75000000093,"y":2549395.8100000005}},{"attributes":{"ID":488160,"DIS_CODE":0,"TOWNNAME":"永康區","LI":"\u25A0行里","LIN":"41鄰","STREET":"永安一街","SECT":" ","MAREA":" ","LANE":" ","ALLEY":" ","HOUSE_NO":"７８號","E_COORD97":172464.64999999999,"N_COORD97":2549397.3100000001,"ADDRESS":"永安一街７８號","OBJECTID":488135},"geometry":{"x":172464.6500000013,"y":2549397.3100000024}},{"attributes":{"ID":488161,"DIS_CODE":0,"TOWNNAME":"永康區","LI":"\u25A0行里","LIN":"41鄰","STREET":"永安路","SECT":" ","MAREA":" ","LANE":" ","ALLEY":" ","HOUSE_NO":"１９５號","E_COORD97":172522.87,"N_COORD97":2549556.0299999998,"ADDRESS":"永安路１９５號","OBJECTID":488136},"geometry":{"x":172522.87000000011,"y":2549556.0299999993}},{"attributes":{"ID":488162,"DIS_CODE":0,"TOWNNAME":"永康區","LI":"\u25A0行里","LIN":"41鄰","STREET":"永安路","SECT":" ","MAREA":" ","LANE":" ","ALLEY":" ","HOUSE_NO":"１７３號","E_COORD97":172553.88,"N_COORD97":2549520.5299999998,"ADDRESS":"永安路１７３號","OBJECTID":488137},"geometry":{"x":172553.88000000082,"y":2549520.5300000012}},{"attributes":{"ID":488163,"DIS_CODE":0,"TOWNNAME":"仁德區","LI":"仁義里","LIN":"41鄰","STREET":"中正路","SECT":"二段","MAREA":" ","LANE":" ","ALLEY":" ","HOUSE_NO":"９０８號","E_COORD97":173452.60000000001,"N_COORD97":2540607.7799999998,"ADDRESS":"中正路二段９０８號","OBJECTID":488138},"geometry":{"x":173452.60000000056,"y":2540607.7800000031}},{"attributes":{"ID":488164,"DIS_CODE":0,"TOWNNAME":"仁德區","LI":"仁義里","LIN":"41鄰","STREET":"中正路","SECT":"二段","MAREA":" ","LANE":" ","ALLEY":" ","HOUSE_NO":"８７６號","E_COORD97":173458.39000000001,"N_COORD97":2540535.7799999998,"ADDRESS":"中正路二段８７６號","OBJECTID":488139},"geometry":{"x":173458.38999999966,"y":2540535.7799999993}},{"attributes":{"ID":488165,"DIS_CODE":0,"TOWNNAME":"仁德區","LI":"仁義里","LIN":"41鄰","STREET":"中正路","SECT":"二段","MAREA":" ","LANE":" ","ALLEY":" ","HOUSE_NO":"８８０號","E_COORD97":173457.35999999999,"N_COORD97":2540544.2799999998,"ADDRESS":"中正路二段８８０號","OBJECTID":488140},"geometry":{"x":173457.36000000034,"y":2540544.2800000012}},{"attributes":{"ID":488166,"DIS_CODE":0,"TOWNNAME":"仁德區","LI":"仁義里","LIN":"41鄰","STREET":"中正路","SECT":"二段","MAREA":" ","LANE":" ","ALLEY":" ","HOUSE_NO":"８７０號","E_COORD97":173459.17999999999,"N_COORD97":2540523.0299999998,"ADDRESS":"中正路二段８７０號","OBJECTID":488141},"geometry":{"x":173459.18000000063,"y":2540523.0299999993}},{"attributes":{"ID":488167,"DIS_CODE":0,"TOWNNAME":"仁德區","LI":"仁義里","LIN":"41鄰","STREET":"中正路","SECT":"二段","MAREA":" ","LANE":" ","ALLEY":" ","HOUSE_NO":"８７８號","E_COORD97":173458.01000000001,"N_COORD97":2540539.7799999998,"ADDRESS":"中正路二段８７８號","OBJECTID":488142},"geometry":{"x":173458.01000000164,"y":2540539.7800000031}},{"attributes":{"ID":488168,"DIS_CODE":0,"TOWNNAME":"仁德區","LI":"仁義里","LIN":"41鄰","STREET":"中正路","SECT":"二段","MAREA":" ","LANE":" ","ALLEY":" ","HOUSE_NO":"８６８號","E_COORD97":173459.70999999999,"N_COORD97":2540518.7799999998,"ADDRESS":"中正路二段８６８號","OBJECTID":488143},"geometry":{"x":173459.70999999996,"y":2540518.7799999993}},{"attributes":{"ID":488169,"DIS_CODE":0,"TOWNNAME":"永康區","LI":"\u25A0行里","LIN":"41鄰","STREET":"永安路","SECT":" ","MAREA":" ","LANE":" ","ALLEY":" ","HOUSE_NO":"２０１號","E_COORD97":172514.67999999999,"N_COORD97":2549566.27,"ADDRESS":"永安路２０１號","OBJECTID":488144},"geometry":{"x":172514.68000000063,"y":2549566.2700000014}},{"attributes":{"ID":488170,"DIS_CODE":0,"TOWNNAME":"永康區","LI":"\u25A0行里","LIN":"41鄰","STREET":"永安路","SECT":" ","MAREA":" ","LANE":" ","ALLEY":" ","HOUSE_NO":"１８１號","E_COORD97":172542.53,"N_COORD97":2549533.2799999998,"ADDRESS":"永安路１８１號","OBJECTID":488145},"geometry":{"x":172542.53000000026,"y":2549533.2799999993}},{"attributes":{"ID":488171,"DIS_CODE":0,"TOWNNAME":"永康區","LI":"\u25A0行里","LIN":"41鄰","STREET":"永安路","SECT":" ","MAREA":" ","LANE":" ","ALLEY":" ","HOUSE_NO":"１６９號","E_COORD97":172558.97,"N_COORD97":2549513.7799999998,"ADDRESS":"永安路１６９號","OBJECTID":488146},"geometry":{"x":172558.96999999974,"y":2549513.7799999993}},{"attributes":{"ID":488172,"DIS_CODE":0,"TOWNNAME":"永康區","LI":"\u25A0行里","LIN":"41鄰","STREET":"永安路","SECT":" ","MAREA":" ","LANE":" ","ALLEY":" ","HOUSE_NO":"１７７號","E_COORD97":172548.38,"N_COORD97":2549526.7799999998,"ADDRESS":"永安路１７７號","OBJECTID":488147},"geometry":{"x":172548.37999999989,"y":2549526.7799999993}},{"attributes":{"ID":488173,"DIS_CODE":0,"TOWNNAME":"永康區","LI":"\u25A0行里","LIN":"41鄰","STREET":"永安一街","SECT":" ","MAREA":" ","LANE":" ","ALLEY":" ","HOUSE_NO":"９６號","E_COORD97":172438.56,"N_COORD97":2549396.5600000001,"ADDRESS":"永安一街９６號","OBJECTID":488148},"geometry":{"x":172438.56000000145,"y":2549396.5600000005}},{"attributes":{"ID":488174,"DIS_CODE":0,"TOWNNAME":"永康區","LI":"\u25A0行里","LIN":"41鄰","STREET":"永安路","SECT":" ","MAREA":" ","LANE":" ","ALLEY":" ","HOUSE_NO":"１６７號","E_COORD97":172563.13,"N_COORD97":2549509.52,"ADDRESS":"永安路１６７號","OBJECTID":488149},"geometry":{"x":172563.12999999989,"y":2549509.5200000033}},{"attributes":{"ID":488175,"DIS_CODE":0,"TOWNNAME":"永康區","LI":"\u25A0行里","LIN":"41鄰","STREET":"永安路","SECT":" ","MAREA":" ","LANE":" ","ALLEY":" ","HOUSE_NO":"１８７號","E_COORD97":172533.88,"N_COORD97":2549543.0299999998,"ADDRESS":"永安路１８７號","OBJECTID":488150},"geometry":{"x":172533.88000000082,"y":2549543.0300000031}},{"attributes":{"ID":488176,"DIS_CODE":0,"TOWNNAME":"永康區","LI":"\u25A0行里","LIN":"41鄰","STREET":"永安路","SECT":" ","MAREA":" ","LANE":" ","ALLEY":" ","HOUSE_NO":"１９１號","E_COORD97":172528.32999999999,"N_COORD97":2549549.2799999998,"ADDRESS":"永安路１９１號","OBJECTID":488151},"geometry":{"x":172528.33000000007,"y":2549549.2800000012}},{"attributes":{"ID":488177,"DIS_CODE":0,"TOWNNAME":"永康區","LI":"\u25A0行里","LIN":"41鄰","STREET":"永安路","SECT":" ","MAREA":" ","LANE":" ","ALLEY":" ","HOUSE_NO":"１７１號","E_COORD97":172556.38,"N_COORD97":2549517.0299999998,"ADDRESS":"永安路１７１號","OBJECTID":488152},"geometry":{"x":172556.37999999989,"y":2549517.0300000012}},{"attributes":{"ID":488178,"DIS_CODE":0,"TOWNNAME":"永康區","LI":"\u25A0行里","LIN":"41鄰","STREET":"永安一街","SECT":" ","MAREA":" ","LANE":" ","ALLEY":" ","HOUSE_NO":"１０８號","E_COORD97":172417.31,"N_COORD97":2549396.0600000001,"ADDRESS":"永安一街１０８號","OBJECTID":488153},"geometry":{"x":172417.31000000052,"y":2549396.0600000024}},{"attributes":{"ID":488179,"DIS_CODE":0,"TOWNNAME":"永康區","LI":"\u25A0行里","LIN":"41鄰","STREET":"永安一街","SECT":" ","MAREA":" ","LANE":" ","ALLEY":" ","HOUSE_NO":"８０號","E_COORD97":172460.06,"N_COORD97":2549397.3100000001,"ADDRESS":"永安一街８０號","OBJECTID":488154},"geometry":{"x":172460.05999999959,"y":2549397.3100000024}},{"attributes":{"ID":488180,"DIS_CODE":0,"TOWNNAME":"永康區","LI":"\u25A0行里","LIN":"41鄰","STREET":"永安路","SECT":" ","MAREA":" ","LANE":" ","ALLEY":" ","HOUSE_NO":"１８５號","E_COORD97":172536.69,"N_COORD97":2549539.7799999998,"ADDRESS":"永安路１８５號","OBJECTID":488155},"geometry":{"x":172536.69000000041,"y":2549539.7799999993}},{"attributes":{"ID":488181,"DIS_CODE":0,"TOWNNAME":"永康區","LI":"\u25A0行里","LIN":"41鄰","STREET":"永安路","SECT":" ","MAREA":" ","LANE":" ","ALLEY":" ","HOUSE_NO":"１７５號","E_COORD97":172550.88,"N_COORD97":2549523.0299999998,"ADDRESS":"永安路１７５號","OBJECTID":488156},"geometry":{"x":172550.88000000082,"y":2549523.0300000012}},{"attributes":{"ID":488182,"DIS_CODE":0,"TOWNNAME":"永康區","LI":"\u25A0行里","LIN":"41鄰","STREET":"永安路","SECT":" ","MAREA":" ","LANE":" ","ALLEY":" ","HOUSE_NO":"１９３號","E_COORD97":172525.63,"N_COORD97":2549552.5299999998,"ADDRESS":"永安路１９３號","OBJECTID":488157},"geometry":{"x":172525.63000000082,"y":2549552.5299999993}},{"attributes":{"ID":488183,"DIS_CODE":0,"TOWNNAME":"永康區","LI":"\u25A0行里","LIN":"41鄰","STREET":"永安路","SECT":" ","MAREA":" ","LANE":" ","ALLEY":" ","HOUSE_NO":"２０３號","E_COORD97":172511.92000000001,"N_COORD97":2549569.77,"ADDRESS":"永安路２０３號","OBJECTID":488158},"geometry":{"x":172511.91999999993,"y":2549569.7700000014}},{"attributes":{"ID":488184,"DIS_CODE":0,"TOWNNAME":"歸仁區","LI":"辜厝里","LIN":"41鄰","STREET":"大吉街","SECT":" ","MAREA":" ","LANE":" ","ALLEY":" ","HOUSE_NO":"１２８號","E_COORD97":177195.54000000001,"N_COORD97":2540513.6800000002,"ADDRESS":"大吉街１２８號","OBJECTID":488159},"geometry":{"x":177195.54000000004,"y":2540513.6800000034}},{"attributes":{"ID":488185,"DIS_CODE":0,"TOWNNAME":"歸仁區","LI":"後市里","LIN":"41鄰","STREET":"國光街","SECT":" ","MAREA":" ","LANE":" ","ALLEY":" ","HOUSE_NO":"７２號","E_COORD97":177167.39000000001,"N_COORD97":2540930.7400000002,"ADDRESS":"國光街７２號","OBJECTID":488160},"geometry":{"x":177167.38999999966,"y":2540930.7400000039}},{"attributes":{"ID":488186,"DIS_CODE":0,"TOWNNAME":"歸仁區","LI":"南保里","LIN":"41鄰","STREET":"保興二街","SECT":" ","MAREA":" ","LANE":" ","ALLEY":" ","HOUSE_NO":"１９號","E_COORD97":176576.47,"N_COORD97":2541000.25,"ADDRESS":"保興二街１９號","OBJECTID":488161},"geometry":{"x":176576.46999999974,"y":2541000.25}},{"attributes":{"ID":488187,"DIS_CODE":0,"TOWNNAME":"歸仁區","LI":"南興里","LIN":"41鄰","STREET":"中山路","SECT":"三段","MAREA":" ","LANE":" ","ALLEY":" ","HOUSE_NO":"４６５號","E_COORD97":175633.45999999999,"N_COORD97":2541011.2799999998,"ADDRESS":"中山路三段４６５號","OBJECTID":488162},"geometry":{"x":175633.46000000183,"y":2541011.2800000012}},{"attributes":{"ID":488188,"DIS_CODE":0,"TOWNNAME":"北區","LI":"成德里","LIN":"41鄰","STREET":"育德二路","SECT":" ","MAREA":" ","LANE":" ","ALLEY":" ","HOUSE_NO":"３５１號","E_COORD97":168277.20999999999,"N_COORD97":2546233.1200000001,"ADDRESS":"育德二路３５１號","OBJECTID":488163},"geometry":{"x":168277.20999999996,"y":2546233.1200000029}},{"attributes":{"ID":488189,"DIS_CODE":0,"TOWNNAME":"北區","LI":"成德里","LIN":"34鄰","STREET":"和緯路","SECT":"二段","MAREA":" ","LANE":" ","ALLEY":" ","HOUSE_NO":"２８８號","E_COORD97":168581.22,"N_COORD97":2545885.2200000002,"ADDRESS":"和緯路二段２８８號","OBJECTID":488164},"geometry":{"x":168581.2200000016,"y":2545885.2200000025}},{"attributes":{"ID":488190,"DIS_CODE":0,"TOWNNAME":"北區","LI":"成德里","LIN":"34鄰","STREET":"文成路","SECT":" ","MAREA":" ","LANE":" ","ALLEY":" ","HOUSE_NO":"３１３號","E_COORD97":168268.39999999999,"N_COORD97":2545932.5099999998,"ADDRESS":"文成路３１３號","OBJECTID":488165},"geometry":{"x":168268.40000000037,"y":2545932.5099999979}},{"attributes":{"ID":488191,"DIS_CODE":0,"TOWNNAME":"北區","LI":"成德里","LIN":"34鄰","STREET":"育德三街","SECT":" ","MAREA":" ","LANE":" ","ALLEY":" ","HOUSE_NO":"７１號","E_COORD97":168154.37,"N_COORD97":2545948.8399999999,"ADDRESS":"育德三街７１號","OBJECTID":488166},"geometry":{"x":168154.37000000011,"y":2545948.8400000017}},{"attributes":{"ID":488192,"DIS_CODE":0,"TOWNNAME":"北區","LI":"成德里","LIN":"34鄰","STREET":"和緯路","SECT":"二段","MAREA":" ","LANE":" ","ALLEY":" ","HOUSE_NO":"３８２之１號","E_COORD97":168391.07999999999,"N_COORD97":2545902.8700000001,"ADDRESS":"和緯路二段３８２之１號","OBJECTID":488167},"geometry":{"x":168391.08000000101,"y":2545902.870000001}},{"attributes":{"ID":488193,"DIS_CODE":0,"TOWNNAME":"北區","LI":"成德里","LIN":"34鄰","STREET":"和緯路","SECT":"二段","MAREA":" ","LANE":" ","ALLEY":" ","HOUSE_NO":"３８２號","E_COORD97":168396.48000000001,"N_COORD97":2545903.02,"ADDRESS":"和緯路二段３８２號","OBJECTID":488168},"geometry":{"x":168396.48000000045,"y":2545903.0200000014}},{"attributes":{"ID":488194,"DIS_CODE":0,"TOWNNAME":"北區","LI":"成德里","LIN":"34鄰","STREET":"和緯路","SECT":"二段","MAREA":" ","LANE":" ","ALLEY":" ","HOUSE_NO":"３８０號","E_COORD97":168401.07999999999,"N_COORD97":2545902.8599999999,"ADDRESS":"和緯路二段３８０號","OBJECTID":488169},"geometry":{"x":168401.08000000194,"y":2545902.8600000031}},{"attributes":{"ID":488195,"DIS_CODE":0,"TOWNNAME":"北區","LI":"成德里","LIN":"34鄰","STREET":"和緯路","SECT":"二段","MAREA":" ","LANE":" ","ALLEY":" ","HOUSE_NO":"３７８號","E_COORD97":168406.16,"N_COORD97":2545903.02,"ADDRESS":"和緯路二段３７８號","OBJECTID":488170},"geometry":{"x":168406.16000000108,"y":2545903.0200000014}},{"attributes":{"ID":488196,"DIS_CODE":0,"TOWNNAME":"北區","LI":"成德里","LIN":"34鄰","STREET":"和緯路","SECT":"二段","MAREA":" ","LANE":" ","ALLEY":" ","HOUSE_NO":"３７６號","E_COORD97":168409.97,"N_COORD97":2545903.02,"ADDRESS":"和緯路二段３７６號","OBJECTID":488171},"geometry":{"x":168409.9700000016,"y":2545903.0200000014}},{"attributes":{"ID":488197,"DIS_CODE":0,"TOWNNAME":"南區","LI":"金華里","LIN":"34鄰","STREET":"中華西路","SECT":"一段","MAREA":" ","LANE":" ","ALLEY":" ","HOUSE_NO":"２４４號","E_COORD97":166507.67999999999,"N_COORD97":2542355.75,"ADDRESS":"中華西路一段２４４號","OBJECTID":488172},"geometry":{"x":166507.6799999997,"y":2542355.7500000019}},{"attributes":{"ID":488198,"DIS_CODE":0,"TOWNNAME":"北區","LI":"成德里","LIN":"34鄰","STREET":"育德三街","SECT":" ","MAREA":" ","LANE":" ","ALLEY":" ","HOUSE_NO":"７７號","E_COORD97":168125,"N_COORD97":2545946.1400000001,"ADDRESS":"育德三街７７號","OBJECTID":488173},"geometry":{"x":168125,"y":2545946.1400000043}},{"attributes":{"ID":488199,"DIS_CODE":0,"TOWNNAME":"北區","LI":"成德里","LIN":"34鄰","STREET":"育德三街","SECT":" ","MAREA":" ","LANE":" ","ALLEY":" ","HOUSE_NO":"７５號","E_COORD97":168134.51999999999,"N_COORD97":2545947.0899999999,"ADDRESS":"育德三街７５號","OBJECTID":488174},"geometry":{"x":168134.51999999955,"y":2545947.0900000017}},{"attributes":{"ID":488200,"DIS_CODE":0,"TOWNNAME":"北區","LI":"成德里","LIN":"34鄰","STREET":"育德三街","SECT":" ","MAREA":" ","LANE":" ","ALLEY":" ","HOUSE_NO":"７３號","E_COORD97":168144.53,"N_COORD97":2545948.04,"ADDRESS":"育德三街７３號","OBJECTID":488175},"geometry":{"x":168144.53000000119,"y":2545948.0399999991}},{"attributes":{"ID":488201,"DIS_CODE":0,"TOWNNAME":"北區","LI":"成德里","LIN":"34鄰","STREET":"育德三街","SECT":" ","MAREA":" ","LANE":" ","ALLEY":" ","HOUSE_NO":"８１號","E_COORD97":168132.78,"N_COORD97":2545961.3799999999,"ADDRESS":"育德三街８１號","OBJECTID":488176},"geometry":{"x":168132.78000000119,"y":2545961.3800000008}},{"attributes":{"ID":488202,"DIS_CODE":0,"TOWNNAME":"北區","LI":"成德里","LIN":"34鄰","STREET":"育德三街","SECT":" ","MAREA":" ","LANE":" ","ALLEY":" ","HOUSE_NO":"８３號","E_COORD97":168142.29999999999,"N_COORD97":2545962.1699999999,"ADDRESS":"育德三街８３號","OBJECTID":488177},"geometry":{"x":168142.30000000075,"y":2545962.1699999981}},{"attributes":{"ID":488203,"DIS_CODE":0,"TOWNNAME":"北區","LI":"成德里","LIN":"34鄰","STREET":"育德三街","SECT":" ","MAREA":" ","LANE":" ","ALLEY":" ","HOUSE_NO":"８５號","E_COORD97":168152.29999999999,"N_COORD97":2545962.9700000002,"ADDRESS":"育德三街８５號","OBJECTID":488178},"geometry":{"x":168152.30000000075,"y":2545962.9700000007}},{"attributes":{"ID":488204,"DIS_CODE":0,"TOWNNAME":"北區","LI":"成德里","LIN":"34鄰","STREET":"育德三街","SECT":" ","MAREA":" ","LANE":" ","ALLEY":" ","HOUSE_NO":"８７號","E_COORD97":168163.89000000001,"N_COORD97":2545963.6000000001,"ADDRESS":"育德三街８７號","OBJECTID":488179},"geometry":{"x":168163.88999999966,"y":2545963.6000000015}},{"attributes":{"ID":488205,"DIS_CODE":0,"TOWNNAME":"歸仁區","LI":"南保里","LIN":"63鄰","STREET":"中山七街","SECT":" ","MAREA":" ","LANE":" ","ALLEY":" ","HOUSE_NO":"７９號","E_COORD97":176598.35999999999,"N_COORD97":2540667.2599999998,"ADDRESS":"中山七街７９號","OBJECTID":488180},"geometry":{"x":176598.36000000034,"y":2540667.2600000016}},{"attributes":{"ID":488206,"DIS_CODE":0,"TOWNNAME":"歸仁區","LI":"南保里","LIN":"63鄰","STREET":"大順街","SECT":" ","MAREA":" ","LANE":" ","ALLEY":" ","HOUSE_NO":"２８６號","E_COORD97":176634.07000000001,"N_COORD97":2540614.25,"ADDRESS":"大順街２８６號","OBJECTID":488181},"geometry":{"x":176634.0700000003,"y":2540614.25}},{"attributes":{"ID":488207,"DIS_CODE":0,"TOWNNAME":"歸仁區","LI":"南保里","LIN":"63鄰","STREET":"中山七街","SECT":" ","MAREA":" ","LANE":" ","ALLEY":" ","HOUSE_NO":"８３號","E_COORD97":176601.35999999999,"N_COORD97":2540657.2599999998,"ADDRESS":"中山七街８３號","OBJECTID":488182},"geometry":{"x":176601.36000000127,"y":2540657.2600000016}},{"attributes":{"ID":488208,"DIS_CODE":0,"TOWNNAME":"歸仁區","LI":"南保里","LIN":"63鄰","STREET":"大順街","SECT":" ","MAREA":" ","LANE":" ","ALLEY":" ","HOUSE_NO":"２７８號","E_COORD97":176658.67000000001,"N_COORD97":2540615.25,"ADDRESS":"大順街２７８號","OBJECTID":488183},"geometry":{"x":176658.66999999993,"y":2540615.2500000037}},{"attributes":{"ID":488209,"DIS_CODE":0,"TOWNNAME":"歸仁區","LI":"南保里","LIN":"63鄰","STREET":"大順街","SECT":" ","MAREA":" ","LANE":" ","ALLEY":" ","HOUSE_NO":"２８４號","E_COORD97":176640.26999999999,"N_COORD97":2540614.25,"ADDRESS":"大順街２８４號","OBJECTID":488184},"geometry":{"x":176640.27000000048,"y":2540614.25}},{"attributes":{"ID":488210,"DIS_CODE":0,"TOWNNAME":"歸仁區","LI":"南保里","LIN":"63鄰","STREET":"大順街","SECT":" ","MAREA":" ","LANE":" ","ALLEY":" ","HOUSE_NO":"２９２號","E_COORD97":176619.76999999999,"N_COORD97":2540616.25,"ADDRESS":"大順街２９２號","OBJECTID":488185},"geometry":{"x":176619.77000000048,"y":2540616.2500000019}},{"attributes":{"ID":488211,"DIS_CODE":0,"TOWNNAME":"歸仁區","LI":"南保里","LIN":"63鄰","STREET":"大順街","SECT":" ","MAREA":" ","LANE":" ","ALLEY":" ","HOUSE_NO":"２９６號","E_COORD97":176597.17000000001,"N_COORD97":2540616.25,"ADDRESS":"大順街２９６號","OBJECTID":488186},"geometry":{"x":176597.17000000086,"y":2540616.2500000019}},{"attributes":{"ID":488212,"DIS_CODE":0,"TOWNNAME":"歸仁區","LI":"南保里","LIN":"63鄰","STREET":"大順街","SECT":" ","MAREA":" ","LANE":" ","ALLEY":" ","HOUSE_NO":"２８２號","E_COORD97":176646.37,"N_COORD97":2540614.25,"ADDRESS":"大順街２８２號","OBJECTID":488187},"geometry":{"x":176646.37000000104,"y":2540614.25}},{"attributes":{"ID":488213,"DIS_CODE":0,"TOWNNAME":"歸仁區","LI":"南保里","LIN":"63鄰","STREET":"大順街","SECT":" ","MAREA":" ","LANE":" ","ALLEY":" ","HOUSE_NO":"２８０號","E_COORD97":176652.57000000001,"N_COORD97":2540615.25,"ADDRESS":"大順街２８０號","OBJECTID":488188},"geometry":{"x":176652.57000000123,"y":2540615.2500000037}},{"attributes":{"ID":488214,"DIS_CODE":0,"TOWNNAME":"歸仁區","LI":"南保里","LIN":"63鄰","STREET":"大順街","SECT":" ","MAREA":" ","LANE":" ","ALLEY":" ","HOUSE_NO":"２７６號","E_COORD97":176665.87,"N_COORD97":2540615.25,"ADDRESS":"大順街２７６號","OBJECTID":488189},"geometry":{"x":176665.87000000011,"y":2540615.2500000037}},{"attributes":{"ID":488215,"DIS_CODE":0,"TOWNNAME":"歸仁區","LI":"南保里","LIN":"63鄰","STREET":"中山七街","SECT":" ","MAREA":" ","LANE":" ","ALLEY":" ","HOUSE_NO":"９５號","E_COORD97":176603.63,"N_COORD97":2540622,"ADDRESS":"中山七街９５號","OBJECTID":488190},"geometry":{"x":176603.63000000082,"y":2540622.0000000019}},{"attributes":{"ID":488216,"DIS_CODE":0,"TOWNNAME":"歸仁區","LI":"南保里","LIN":"63鄰","STREET":"中山七街","SECT":" ","MAREA":" ","LANE":" ","ALLEY":" ","HOUSE_NO":"９３號","E_COORD97":176601.26000000001,"N_COORD97":2540629.2599999998,"ADDRESS":"中山七街９３號","OBJECTID":488191},"geometry":{"x":176601.26000000071,"y":2540629.2600000016}},{"attributes":{"ID":488217,"DIS_CODE":0,"TOWNNAME":"歸仁區","LI":"南保里","LIN":"63鄰","STREET":"中山七街","SECT":" ","MAREA":" ","LANE":" ","ALLEY":" ","HOUSE_NO":"８７號","E_COORD97":176602.35999999999,"N_COORD97":2540646.2599999998,"ADDRESS":"中山七街８７號","OBJECTID":488192},"geometry":{"x":176602.3600000022,"y":2540646.2600000016}},{"attributes":{"ID":488218,"DIS_CODE":0,"TOWNNAME":"永康區","LI":"網寮里","LIN":"13鄰","STREET":"永勝街","SECT":" ","MAREA":" ","LANE":" ","ALLEY":" ","HOUSE_NO":"１７９號","E_COORD97":173327.13,"N_COORD97":2546535.3700000001,"ADDRESS":"永勝街１７９號","OBJECTID":488193},"geometry":{"x":173327.13000000082,"y":2546535.3700000048}},{"attributes":{"ID":488219,"DIS_CODE":0,"TOWNNAME":"楠西區","LI":"東勢里","LIN":"20鄰","STREET":"忠孝路","SECT":" ","MAREA":" ","LANE":" ","ALLEY":" ","HOUSE_NO":"７９號","E_COORD97":197595.79000000001,"N_COORD97":2564183.25,"ADDRESS":"忠孝路７９號","OBJECTID":488194},"geometry":{"x":197595.7900000019,"y":2564183.2500000019}},{"attributes":{"ID":488220,"DIS_CODE":0,"TOWNNAME":"中西區","LI":"法華里","LIN":"13鄰","STREET":"法華街","SECT":" ","MAREA":" ","LANE":" ","ALLEY":" ","HOUSE_NO":"１３１號","E_COORD97":168880.23000000001,"N_COORD97":2542554.5899999999,"ADDRESS":"法華街１３１號","OBJECTID":488195},"geometry":{"x":168880.23000000231,"y":2542554.5899999999}},{"attributes":{"ID":488221,"DIS_CODE":0,"TOWNNAME":"中西區","LI":"法華里","LIN":"13鄰","STREET":"法華街","SECT":" ","MAREA":" ","LANE":" ","ALLEY":" ","HOUSE_NO":"１３３號","E_COORD97":168874.32999999999,"N_COORD97":2542549.0800000001,"ADDRESS":"法華街１３３號","OBJECTID":488196},"geometry":{"x":168874.33000000101,"y":2542549.0800000038}},{"attributes":{"ID":488222,"DIS_CODE":0,"TOWNNAME":"中西區","LI":"法華里","LIN":"13鄰","STREET":"法華街","SECT":" ","MAREA":" ","LANE":" ","ALLEY":" ","HOUSE_NO":"１３５號","E_COORD97":168876.29000000001,"N_COORD97":2542543.1899999999,"ADDRESS":"法華街１３５號","OBJECTID":488197},"geometry":{"x":168876.29000000097,"y":2542543.1899999995}},{"attributes":{"ID":488223,"DIS_CODE":0,"TOWNNAME":"中西區","LI":"法華里","LIN":"13鄰","STREET":"法華街","SECT":" ","MAREA":" ","LANE":" ","ALLEY":" ","HOUSE_NO":"１３７號","E_COORD97":168877.48000000001,"N_COORD97":2542539.2599999998,"ADDRESS":"法華街１３７號","OBJECTID":488198},"geometry":{"x":168877.48000000138,"y":2542539.2599999998}},{"attributes":{"ID":488224,"DIS_CODE":0,"TOWNNAME":"中西區","LI":"法華里","LIN":"13鄰","STREET":"法華街","SECT":" ","MAREA":" ","LANE":" ","ALLEY":" ","HOUSE_NO":"１３９號","E_COORD97":168874.32999999999,"N_COORD97":2542530.6099999999,"ADDRESS":"法華街１３９號","OBJECTID":488199},"geometry":{"x":168874.33000000101,"y":2542530.6099999994}},{"attributes":{"ID":488225,"DIS_CODE":0,"TOWNNAME":"中西區","LI":"法華里","LIN":"13鄰","STREET":"法華街","SECT":" ","MAREA":" ","LANE":" ","ALLEY":" ","HOUSE_NO":"１４９號","E_COORD97":168876.29000000001,"N_COORD97":2542509.1000000001,"ADDRESS":"法華街１４９號","OBJECTID":488200},"geometry":{"x":168876.29000000097,"y":2542509.1000000015}}]}