{"displayFieldName":"TOWNNAME","fieldAliases":{"ID":"ID","DIS_CODE":"DIS_CODE","TOWNNAME":"TOWNNAME","LI":"LI","LIN":"LIN","STREET":"STREET","SECT":"SECT","MAREA":"MAREA","LANE":"LANE","ALLEY":"ALLEY","HOUSE_NO":"HOUSE_NO","E_COORD97":"E_COORD97","N_COORD97":"N_COORD97","ADDRESS":"ADDRESS","OBJECTID":"OBJECTID"},"geometryType":"esriGeometryPoint","spatialReference":{"wkid":102443,"latestWkid":3826},"fields":[{"name":"ID","type":"esriFieldTypeDouble","alias":"ID"},{"name":"DIS_CODE","type":"esriFieldTypeInteger","alias":"DIS_CODE"},{"name":"TOWNNAME","type":"esriFieldTypeString","alias":"TOWNNAME","length":8},{"name":"LI","type":"esriFieldTypeString","alias":"LI","length":8},{"name":"LIN","type":"esriFieldTypeString","alias":"LIN","length":12},{"name":"STREET","type":"esriFieldTypeString","alias":"STREET","length":20},{"name":"SECT","type":"esriFieldTypeString","alias":"SECT","length":8},{"name":"MAREA","type":"esriFieldTypeString","alias":"MAREA","length":12},{"name":"LANE","type":"esriFieldTypeString","alias":"LANE","length":10},{"name":"ALLEY","type":"esriFieldTypeString","alias":"ALLEY","length":10},{"name":"HOUSE_NO","type":"esriFieldTypeString","alias":"HOUSE_NO","length":20},{"name":"E_COORD97","type":"esriFieldTypeDouble","alias":"E_COORD97"},{"name":"N_COORD97","type":"esriFieldTypeDouble","alias":"N_COORD97"},{"name":"ADDRESS","type":"esriFieldTypeString","alias":"ADDRESS","length":50},{"name":"OBJECTID","type":"esriFieldTypeOID","alias":"OBJECTID"}],"features":[{"attributes":{"ID":356210,"DIS_CODE":0,"TOWNNAME":"仁德區","LI":"仁德里","LIN":"1鄰","STREET":"中正路","SECT":"二段","MAREA":" ","LANE":"６７９巷","ALLEY":" ","HOUSE_NO":"５３號","E_COORD97":173326.07000000001,"N_COORD97":2540069.5600000001,"ADDRESS":"中正路二段６７９巷５３號","OBJECTID":356201},"geometry":{"x":173326.07000000123,"y":2540069.5600000005}},{"attributes":{"ID":356211,"DIS_CODE":0,"TOWNNAME":"東區","LI":"東光里","LIN":"33鄰","STREET":"東平路","SECT":" ","MAREA":" ","LANE":"９９巷","ALLEY":" ","HOUSE_NO":"１６號之５四樓之２","E_COORD97":171093.19,"N_COORD97":2543893.52,"ADDRESS":"東平路９９巷１６號之５四樓之２","OBJECTID":356202},"geometry":{"x":171093.19000000134,"y":2543893.5199999996}},{"attributes":{"ID":356212,"DIS_CODE":0,"TOWNNAME":"東區","LI":"東光里","LIN":"33鄰","STREET":"東平路","SECT":" ","MAREA":" ","LANE":"９９巷","ALLEY":" ","HOUSE_NO":"１６號之５四樓之３","E_COORD97":171093.19,"N_COORD97":2543893.52,"ADDRESS":"東平路９９巷１６號之５四樓之３","OBJECTID":356203},"geometry":{"x":171093.19000000134,"y":2543893.5199999996}},{"attributes":{"ID":356213,"DIS_CODE":0,"TOWNNAME":"東區","LI":"東光里","LIN":"33鄰","STREET":"東平路","SECT":" ","MAREA":" ","LANE":"９９巷","ALLEY":" ","HOUSE_NO":"１６號之５四樓之４","E_COORD97":171093.19,"N_COORD97":2543893.52,"ADDRESS":"東平路９９巷１６號之５四樓之４","OBJECTID":356204},"geometry":{"x":171093.19000000134,"y":2543893.5199999996}},{"attributes":{"ID":356214,"DIS_CODE":0,"TOWNNAME":"東區","LI":"東光里","LIN":"33鄰","STREET":"東平路","SECT":" ","MAREA":" ","LANE":"９９巷","ALLEY":" ","HOUSE_NO":"１６號之５四樓之５","E_COORD97":171093.19,"N_COORD97":2543893.52,"ADDRESS":"東平路９９巷１６號之５四樓之５","OBJECTID":356205},"geometry":{"x":171093.19000000134,"y":2543893.5199999996}},{"attributes":{"ID":356215,"DIS_CODE":0,"TOWNNAME":"東區","LI":"東光里","LIN":"33鄰","STREET":"東平路","SECT":" ","MAREA":" ","LANE":"９９巷","ALLEY":" ","HOUSE_NO":"１６號之５四樓之６","E_COORD97":171093.19,"N_COORD97":2543893.52,"ADDRESS":"東平路９９巷１６號之５四樓之６","OBJECTID":356206},"geometry":{"x":171093.19000000134,"y":2543893.5199999996}},{"attributes":{"ID":356216,"DIS_CODE":0,"TOWNNAME":"東區","LI":"自強里","LIN":"8鄰","STREET":"東門路","SECT":"三段","MAREA":" ","LANE":" ","ALLEY":" ","HOUSE_NO":"１３號十六樓之１","E_COORD97":171098.26000000001,"N_COORD97":2542396.1299999999,"ADDRESS":"東門路三段１３號十六樓之１","OBJECTID":356207},"geometry":{"x":171098.26000000164,"y":2542396.1300000008}},{"attributes":{"ID":356217,"DIS_CODE":0,"TOWNNAME":"東區","LI":"自強里","LIN":"8鄰","STREET":"東門路","SECT":"三段","MAREA":" ","LANE":" ","ALLEY":" ","HOUSE_NO":"１３號十六樓之２","E_COORD97":171098.26000000001,"N_COORD97":2542396.1299999999,"ADDRESS":"東門路三段１３號十六樓之２","OBJECTID":356208},"geometry":{"x":171098.26000000164,"y":2542396.1300000008}},{"attributes":{"ID":356218,"DIS_CODE":0,"TOWNNAME":"學甲區","LI":"三慶里","LIN":"26鄰","STREET":" ","SECT":" ","MAREA":"新芳","LANE":" ","ALLEY":" ","HOUSE_NO":"１２號之１","E_COORD97":167453.39000000001,"N_COORD97":2575219.27,"ADDRESS":"新芳１２號之１","OBJECTID":356209},"geometry":{"x":167453.3900000006,"y":2575219.2699999996}},{"attributes":{"ID":356219,"DIS_CODE":0,"TOWNNAME":"學甲區","LI":"三慶里","LIN":"26鄰","STREET":" ","SECT":" ","MAREA":"新芳","LANE":" ","ALLEY":" ","HOUSE_NO":"１２號","E_COORD97":167470.75,"N_COORD97":2575223.0499999998,"ADDRESS":"新芳１２號","OBJECTID":356210},"geometry":{"x":167470.75000000186,"y":2575223.0500000045}},{"attributes":{"ID":356220,"DIS_CODE":0,"TOWNNAME":"學甲區","LI":"三慶里","LIN":"26鄰","STREET":" ","SECT":" ","MAREA":"新芳","LANE":" ","ALLEY":" ","HOUSE_NO":"１３號","E_COORD97":167424.44,"N_COORD97":2575202.1600000001,"ADDRESS":"新芳１３號","OBJECTID":356211},"geometry":{"x":167424.44000000134,"y":2575202.160000002}},{"attributes":{"ID":356221,"DIS_CODE":0,"TOWNNAME":"東區","LI":"東光里","LIN":"33鄰","STREET":"東平路","SECT":" ","MAREA":" ","LANE":"９９巷","ALLEY":" ","HOUSE_NO":"１６號之５四樓之７","E_COORD97":171093.19,"N_COORD97":2543893.52,"ADDRESS":"東平路９９巷１６號之５四樓之７","OBJECTID":356212},"geometry":{"x":171093.19000000134,"y":2543893.5199999996}},{"attributes":{"ID":356222,"DIS_CODE":0,"TOWNNAME":"仁德區","LI":"後壁里","LIN":"34鄰","STREET":"德洋二街","SECT":" ","MAREA":" ","LANE":"５巷","ALLEY":" ","HOUSE_NO":"７號","E_COORD97":172504.29000000001,"N_COORD97":2539356.0099999998,"ADDRESS":"德洋二街５巷７號","OBJECTID":356213},"geometry":{"x":172504.29000000097,"y":2539356.0100000016}},{"attributes":{"ID":356223,"DIS_CODE":0,"TOWNNAME":"學甲區","LI":"三慶里","LIN":"26鄰","STREET":" ","SECT":" ","MAREA":"新芳","LANE":" ","ALLEY":" ","HOUSE_NO":"１５號之５","E_COORD97":167411.82999999999,"N_COORD97":2575336.5699999998,"ADDRESS":"新芳１５號之５","OBJECTID":356214},"geometry":{"x":167411.83000000101,"y":2575336.5700000003}},{"attributes":{"ID":356224,"DIS_CODE":0,"TOWNNAME":"學甲區","LI":"三慶里","LIN":"26鄰","STREET":" ","SECT":" ","MAREA":"新芳","LANE":" ","ALLEY":" ","HOUSE_NO":"１６號","E_COORD97":167387.75,"N_COORD97":2575216.7999999998,"ADDRESS":"新芳１６號","OBJECTID":356215},"geometry":{"x":167387.75000000186,"y":2575216.8000000007}},{"attributes":{"ID":356225,"DIS_CODE":0,"TOWNNAME":"東區","LI":"東明里","LIN":"33鄰","STREET":"怡東路","SECT":" ","MAREA":" ","LANE":"５８巷","ALLEY":" ","HOUSE_NO":"２號七樓之３","E_COORD97":170852.37,"N_COORD97":2543577.71,"ADDRESS":"怡東路５８巷２號七樓之３","OBJECTID":356216},"geometry":{"x":170852.37000000104,"y":2543577.7100000028}},{"attributes":{"ID":356226,"DIS_CODE":0,"TOWNNAME":"東區","LI":"東明里","LIN":"33鄰","STREET":"怡東路","SECT":" ","MAREA":" ","LANE":"５８巷","ALLEY":" ","HOUSE_NO":"２號九樓","E_COORD97":170852.37,"N_COORD97":2543577.71,"ADDRESS":"怡東路５８巷２號九樓","OBJECTID":356217},"geometry":{"x":170852.37000000104,"y":2543577.7100000028}},{"attributes":{"ID":356227,"DIS_CODE":0,"TOWNNAME":"東區","LI":"東明里","LIN":"33鄰","STREET":"怡東路","SECT":" ","MAREA":" ","LANE":"５８巷","ALLEY":" ","HOUSE_NO":"２號九樓之１","E_COORD97":170852.37,"N_COORD97":2543577.71,"ADDRESS":"怡東路５８巷２號九樓之１","OBJECTID":356218},"geometry":{"x":170852.37000000104,"y":2543577.7100000028}},{"attributes":{"ID":356228,"DIS_CODE":0,"TOWNNAME":"東區","LI":"東明里","LIN":"33鄰","STREET":"怡東路","SECT":" ","MAREA":" ","LANE":"５８巷","ALLEY":" ","HOUSE_NO":"２號九樓之２","E_COORD97":170852.37,"N_COORD97":2543577.71,"ADDRESS":"怡東路５８巷２號九樓之２","OBJECTID":356219},"geometry":{"x":170852.37000000104,"y":2543577.7100000028}},{"attributes":{"ID":356229,"DIS_CODE":0,"TOWNNAME":"學甲區","LI":"三慶里","LIN":"26鄰","STREET":" ","SECT":" ","MAREA":"新芳","LANE":" ","ALLEY":" ","HOUSE_NO":"１７號","E_COORD97":167378.95000000001,"N_COORD97":2575205.2400000002,"ADDRESS":"新芳１７號","OBJECTID":356220},"geometry":{"x":167378.95000000112,"y":2575205.2400000021}},{"attributes":{"ID":356230,"DIS_CODE":0,"TOWNNAME":"學甲區","LI":"三慶里","LIN":"26鄰","STREET":" ","SECT":" ","MAREA":"新芳","LANE":" ","ALLEY":" ","HOUSE_NO":"１８號","E_COORD97":167401.03,"N_COORD97":2575202.6699999999,"ADDRESS":"新芳１８號","OBJECTID":356221},"geometry":{"x":167401.03000000026,"y":2575202.6699999999}},{"attributes":{"ID":356231,"DIS_CODE":0,"TOWNNAME":"學甲區","LI":"三慶里","LIN":"26鄰","STREET":" ","SECT":" ","MAREA":"新芳","LANE":" ","ALLEY":" ","HOUSE_NO":"１９號","E_COORD97":167412.85000000001,"N_COORD97":2575184.0299999998,"ADDRESS":"新芳１９號","OBJECTID":356222},"geometry":{"x":167412.85000000056,"y":2575184.0299999993}},{"attributes":{"ID":356232,"DIS_CODE":0,"TOWNNAME":"學甲區","LI":"光華里","LIN":"26鄰","STREET":" ","SECT":" ","MAREA":"新頭港子","LANE":" ","ALLEY":" ","HOUSE_NO":"１６號","E_COORD97":164124.59,"N_COORD97":2573305.5099999998,"ADDRESS":"新頭港子１６號","OBJECTID":356223},"geometry":{"x":164124.58999999985,"y":2573305.5099999998}},{"attributes":{"ID":356233,"DIS_CODE":0,"TOWNNAME":"學甲區","LI":"光華里","LIN":"26鄰","STREET":" ","SECT":" ","MAREA":"新頭港子","LANE":" ","ALLEY":" ","HOUSE_NO":"１７號","E_COORD97":164124.73999999999,"N_COORD97":2573335.5800000001,"ADDRESS":"新頭港子１７號","OBJECTID":356224},"geometry":{"x":164124.73999999929,"y":2573335.5800000001}},{"attributes":{"ID":356234,"DIS_CODE":0,"TOWNNAME":"學甲區","LI":"光華里","LIN":"26鄰","STREET":" ","SECT":" ","MAREA":"新頭港子","LANE":" ","ALLEY":" ","HOUSE_NO":"２０號","E_COORD97":164079.69,"N_COORD97":2573449.9300000002,"ADDRESS":"新頭港子２０號","OBJECTID":356225},"geometry":{"x":164079.69000000227,"y":2573449.9300000016}},{"attributes":{"ID":356235,"DIS_CODE":0,"TOWNNAME":"學甲區","LI":"光華里","LIN":"26鄰","STREET":" ","SECT":" ","MAREA":"新頭港子","LANE":" ","ALLEY":" ","HOUSE_NO":"２２號","E_COORD97":164086.10000000001,"N_COORD97":2573409.3900000001,"ADDRESS":"新頭港子２２號","OBJECTID":356226},"geometry":{"x":164086.10000000149,"y":2573409.3900000006}},{"attributes":{"ID":356236,"DIS_CODE":0,"TOWNNAME":"學甲區","LI":"光華里","LIN":"26鄰","STREET":" ","SECT":" ","MAREA":"新頭港子","LANE":" ","ALLEY":" ","HOUSE_NO":"２６號","E_COORD97":164093.92999999999,"N_COORD97":2573332.7799999998,"ADDRESS":"新頭港子２６號","OBJECTID":356227},"geometry":{"x":164093.9299999997,"y":2573332.7800000012}},{"attributes":{"ID":356237,"DIS_CODE":0,"TOWNNAME":"學甲區","LI":"光華里","LIN":"26鄰","STREET":" ","SECT":" ","MAREA":"新頭港子","LANE":" ","ALLEY":" ","HOUSE_NO":"２７號","E_COORD97":164062.57000000001,"N_COORD97":2573329.8799999999,"ADDRESS":"新頭港子２７號","OBJECTID":356228},"geometry":{"x":164062.5700000003,"y":2573329.879999999}},{"attributes":{"ID":356238,"DIS_CODE":0,"TOWNNAME":"學甲區","LI":"秀昌里","LIN":"26鄰","STREET":" ","SECT":" ","MAREA":"煥昌","LANE":" ","ALLEY":" ","HOUSE_NO":"３４號","E_COORD97":166246,"N_COORD97":2570911.1499999999,"ADDRESS":"煥昌３４號","OBJECTID":356229},"geometry":{"x":166246.00000000093,"y":2570911.1500000004}},{"attributes":{"ID":356239,"DIS_CODE":0,"TOWNNAME":"東區","LI":"東明里","LIN":"33鄰","STREET":"怡東路","SECT":" ","MAREA":" ","LANE":"５８巷","ALLEY":" ","HOUSE_NO":"２號九樓之３","E_COORD97":170852.37,"N_COORD97":2543577.71,"ADDRESS":"怡東路５８巷２號九樓之３","OBJECTID":356230},"geometry":{"x":170852.37000000104,"y":2543577.7100000028}},{"attributes":{"ID":356240,"DIS_CODE":0,"TOWNNAME":"東區","LI":"東明里","LIN":"33鄰","STREET":"怡東路","SECT":" ","MAREA":" ","LANE":"５８巷","ALLEY":" ","HOUSE_NO":"２號八樓","E_COORD97":170852.37,"N_COORD97":2543577.71,"ADDRESS":"怡東路５８巷２號八樓","OBJECTID":356231},"geometry":{"x":170852.37000000104,"y":2543577.7100000028}},{"attributes":{"ID":356241,"DIS_CODE":0,"TOWNNAME":"東區","LI":"東明里","LIN":"33鄰","STREET":"怡東路","SECT":" ","MAREA":" ","LANE":"５８巷","ALLEY":" ","HOUSE_NO":"２號八樓之１","E_COORD97":170852.37,"N_COORD97":2543577.71,"ADDRESS":"怡東路５８巷２號八樓之１","OBJECTID":356232},"geometry":{"x":170852.37000000104,"y":2543577.7100000028}},{"attributes":{"ID":356242,"DIS_CODE":0,"TOWNNAME":"東區","LI":"東明里","LIN":"33鄰","STREET":"怡東路","SECT":" ","MAREA":" ","LANE":"５８巷","ALLEY":" ","HOUSE_NO":"２號八樓之２","E_COORD97":170852.37,"N_COORD97":2543577.71,"ADDRESS":"怡東路５８巷２號八樓之２","OBJECTID":356233},"geometry":{"x":170852.37000000104,"y":2543577.7100000028}},{"attributes":{"ID":356243,"DIS_CODE":0,"TOWNNAME":"東區","LI":"東明里","LIN":"33鄰","STREET":"怡東路","SECT":" ","MAREA":" ","LANE":"５８巷","ALLEY":" ","HOUSE_NO":"２號三樓之１","E_COORD97":170852.37,"N_COORD97":2543577.71,"ADDRESS":"怡東路５８巷２號三樓之１","OBJECTID":356234},"geometry":{"x":170852.37000000104,"y":2543577.7100000028}},{"attributes":{"ID":356244,"DIS_CODE":0,"TOWNNAME":"東區","LI":"東明里","LIN":"33鄰","STREET":"怡東路","SECT":" ","MAREA":" ","LANE":"５８巷","ALLEY":" ","HOUSE_NO":"２號三樓之２","E_COORD97":170852.37,"N_COORD97":2543577.71,"ADDRESS":"怡東路５８巷２號三樓之２","OBJECTID":356235},"geometry":{"x":170852.37000000104,"y":2543577.7100000028}},{"attributes":{"ID":356245,"DIS_CODE":0,"TOWNNAME":"東區","LI":"東明里","LIN":"33鄰","STREET":"怡東路","SECT":" ","MAREA":" ","LANE":"５８巷","ALLEY":" ","HOUSE_NO":"２號五樓","E_COORD97":170852.37,"N_COORD97":2543577.71,"ADDRESS":"怡東路５８巷２號五樓","OBJECTID":356236},"geometry":{"x":170852.37000000104,"y":2543577.7100000028}},{"attributes":{"ID":356246,"DIS_CODE":0,"TOWNNAME":"東區","LI":"東明里","LIN":"33鄰","STREET":"怡東路","SECT":" ","MAREA":" ","LANE":"５８巷","ALLEY":" ","HOUSE_NO":"２號五樓之１","E_COORD97":170852.37,"N_COORD97":2543577.71,"ADDRESS":"怡東路５８巷２號五樓之１","OBJECTID":356237},"geometry":{"x":170852.37000000104,"y":2543577.7100000028}},{"attributes":{"ID":356247,"DIS_CODE":0,"TOWNNAME":"仁德區","LI":"仁德里","LIN":"25鄰","STREET":"淨修街","SECT":" ","MAREA":" ","LANE":"１５７巷","ALLEY":" ","HOUSE_NO":"８號","E_COORD97":171906.98000000001,"N_COORD97":2541304.7400000002,"ADDRESS":"淨修街１５７巷８號","OBJECTID":356238},"geometry":{"x":171906.98000000045,"y":2541304.7400000021}},{"attributes":{"ID":356248,"DIS_CODE":0,"TOWNNAME":"東區","LI":"東明里","LIN":"33鄰","STREET":"怡東路","SECT":" ","MAREA":" ","LANE":"５８巷","ALLEY":" ","HOUSE_NO":"２號五樓之２","E_COORD97":170852.37,"N_COORD97":2543577.71,"ADDRESS":"怡東路５８巷２號五樓之２","OBJECTID":356239},"geometry":{"x":170852.37000000104,"y":2543577.7100000028}},{"attributes":{"ID":356249,"DIS_CODE":0,"TOWNNAME":"東區","LI":"東明里","LIN":"33鄰","STREET":"怡東路","SECT":" ","MAREA":" ","LANE":"５８巷","ALLEY":" ","HOUSE_NO":"２號五樓之３","E_COORD97":170852.37,"N_COORD97":2543577.71,"ADDRESS":"怡東路５８巷２號五樓之３","OBJECTID":356240},"geometry":{"x":170852.37000000104,"y":2543577.7100000028}},{"attributes":{"ID":356250,"DIS_CODE":0,"TOWNNAME":"東區","LI":"東明里","LIN":"33鄰","STREET":"怡東路","SECT":" ","MAREA":" ","LANE":"５８巷","ALLEY":" ","HOUSE_NO":"２號六樓","E_COORD97":170852.37,"N_COORD97":2543577.71,"ADDRESS":"怡東路５８巷２號六樓","OBJECTID":356241},"geometry":{"x":170852.37000000104,"y":2543577.7100000028}},{"attributes":{"ID":356251,"DIS_CODE":0,"TOWNNAME":"東區","LI":"東明里","LIN":"33鄰","STREET":"怡東路","SECT":" ","MAREA":" ","LANE":"５８巷","ALLEY":" ","HOUSE_NO":"２號六樓之１","E_COORD97":170852.37,"N_COORD97":2543577.71,"ADDRESS":"怡東路５８巷２號六樓之１","OBJECTID":356242},"geometry":{"x":170852.37000000104,"y":2543577.7100000028}},{"attributes":{"ID":356252,"DIS_CODE":0,"TOWNNAME":"東區","LI":"東明里","LIN":"33鄰","STREET":"怡東路","SECT":" ","MAREA":" ","LANE":"５８巷","ALLEY":" ","HOUSE_NO":"２號四樓","E_COORD97":170852.37,"N_COORD97":2543577.71,"ADDRESS":"怡東路５８巷２號四樓","OBJECTID":356243},"geometry":{"x":170852.37000000104,"y":2543577.7100000028}},{"attributes":{"ID":356253,"DIS_CODE":0,"TOWNNAME":"東區","LI":"東明里","LIN":"33鄰","STREET":"怡東路","SECT":" ","MAREA":" ","LANE":"５８巷","ALLEY":" ","HOUSE_NO":"２號四樓之１","E_COORD97":170852.37,"N_COORD97":2543577.71,"ADDRESS":"怡東路５８巷２號四樓之１","OBJECTID":356244},"geometry":{"x":170852.37000000104,"y":2543577.7100000028}},{"attributes":{"ID":356254,"DIS_CODE":0,"TOWNNAME":"東區","LI":"東明里","LIN":"33鄰","STREET":"怡東路","SECT":" ","MAREA":" ","LANE":"５８巷","ALLEY":" ","HOUSE_NO":"２號四樓之２","E_COORD97":170852.37,"N_COORD97":2543577.71,"ADDRESS":"怡東路５８巷２號四樓之２","OBJECTID":356245},"geometry":{"x":170852.37000000104,"y":2543577.7100000028}},{"attributes":{"ID":356255,"DIS_CODE":0,"TOWNNAME":"東區","LI":"東明里","LIN":"33鄰","STREET":"怡東路","SECT":" ","MAREA":" ","LANE":"５８巷","ALLEY":" ","HOUSE_NO":"２號四樓之３","E_COORD97":170852.37,"N_COORD97":2543577.71,"ADDRESS":"怡東路５８巷２號四樓之３","OBJECTID":356246},"geometry":{"x":170852.37000000104,"y":2543577.7100000028}},{"attributes":{"ID":356256,"DIS_CODE":0,"TOWNNAME":"歸仁區","LI":"南興里","LIN":"33鄰","STREET":"民生北街","SECT":" ","MAREA":" ","LANE":"７４巷","ALLEY":" ","HOUSE_NO":"１７號五樓","E_COORD97":176344.34,"N_COORD97":2541129.29,"ADDRESS":"民生北街７４巷１７號五樓","OBJECTID":356247},"geometry":{"x":176344.34000000171,"y":2541129.2900000028}},{"attributes":{"ID":356257,"DIS_CODE":0,"TOWNNAME":"歸仁區","LI":"南興里","LIN":"33鄰","STREET":"民生北街","SECT":" ","MAREA":" ","LANE":"７４巷","ALLEY":" ","HOUSE_NO":"１７號四樓","E_COORD97":176344.34,"N_COORD97":2541129.29,"ADDRESS":"民生北街７４巷１７號四樓","OBJECTID":356248},"geometry":{"x":176344.34000000171,"y":2541129.2900000028}},{"attributes":{"ID":356258,"DIS_CODE":0,"TOWNNAME":"永康區","LI":"南灣里","LIN":"1鄰","STREET":"大灣二街","SECT":" ","MAREA":" ","LANE":" ","ALLEY":" ","HOUSE_NO":"１０５號","E_COORD97":174754.23000000001,"N_COORD97":2544774.5800000001,"ADDRESS":"大灣二街１０５號","OBJECTID":356249},"geometry":{"x":174754.23000000138,"y":2544774.5800000019}},{"attributes":{"ID":356259,"DIS_CODE":0,"TOWNNAME":"北區","LI":"文元里","LIN":"26鄰","STREET":"文賢二街","SECT":" ","MAREA":" ","LANE":"４６２巷","ALLEY":" ","HOUSE_NO":"３０號","E_COORD97":167744.56,"N_COORD97":2546124.96,"ADDRESS":"文賢二街４６２巷３０號","OBJECTID":356250},"geometry":{"x":167744.56000000145,"y":2546124.9600000028}},{"attributes":{"ID":356260,"DIS_CODE":0,"TOWNNAME":"北區","LI":"大港里","LIN":"26鄰","STREET":"賢北街","SECT":" ","MAREA":" ","LANE":"１７０巷","ALLEY":" ","HOUSE_NO":"１０１號","E_COORD97":166315.41,"N_COORD97":2545786.9300000002,"ADDRESS":"賢北街１７０巷１０１號","OBJECTID":356251},"geometry":{"x":166315.41000000201,"y":2545786.9299999997}},{"attributes":{"ID":356261,"DIS_CODE":0,"TOWNNAME":"北區","LI":"大港里","LIN":"26鄰","STREET":"賢北街","SECT":" ","MAREA":" ","LANE":"１７０巷","ALLEY":" ","HOUSE_NO":"１０３號","E_COORD97":166319.35999999999,"N_COORD97":2545783.29,"ADDRESS":"賢北街１７０巷１０３號","OBJECTID":356252},"geometry":{"x":166319.3600000022,"y":2545783.2899999991}},{"attributes":{"ID":356262,"DIS_CODE":0,"TOWNNAME":"北區","LI":"大港里","LIN":"26鄰","STREET":"賢北街","SECT":" ","MAREA":" ","LANE":"１７０巷","ALLEY":" ","HOUSE_NO":"１１號","E_COORD97":166206.82999999999,"N_COORD97":2545698.2400000002,"ADDRESS":"賢北街１７０巷１１號","OBJECTID":356253},"geometry":{"x":166206.83000000007,"y":2545698.2400000021}},{"attributes":{"ID":356263,"DIS_CODE":0,"TOWNNAME":"北區","LI":"大港里","LIN":"26鄰","STREET":"賢北街","SECT":" ","MAREA":" ","LANE":"１７０巷","ALLEY":" ","HOUSE_NO":"１３號","E_COORD97":166211.45999999999,"N_COORD97":2545700.8100000001,"ADDRESS":"賢北街１７０巷１３號","OBJECTID":356254},"geometry":{"x":166211.46000000183,"y":2545700.8100000042}},{"attributes":{"ID":356264,"DIS_CODE":0,"TOWNNAME":"北區","LI":"大港里","LIN":"26鄰","STREET":"賢北街","SECT":" ","MAREA":" ","LANE":"１７０巷","ALLEY":" ","HOUSE_NO":"１５號","E_COORD97":166215.53,"N_COORD97":2545704.3500000001,"ADDRESS":"賢北街１７０巷１５號","OBJECTID":356255},"geometry":{"x":166215.53000000119,"y":2545704.3500000015}},{"attributes":{"ID":356265,"DIS_CODE":0,"TOWNNAME":"北區","LI":"大港里","LIN":"26鄰","STREET":"賢北街","SECT":" ","MAREA":" ","LANE":"１７０巷","ALLEY":" ","HOUSE_NO":"１７號","E_COORD97":166219.26000000001,"N_COORD97":2545708.1400000001,"ADDRESS":"賢北街１７０巷１７號","OBJECTID":356256},"geometry":{"x":166219.25999999978,"y":2545708.1400000006}},{"attributes":{"ID":356266,"DIS_CODE":0,"TOWNNAME":"北區","LI":"大港里","LIN":"26鄰","STREET":"賢北街","SECT":" ","MAREA":" ","LANE":"１７０巷","ALLEY":" ","HOUSE_NO":"１９號","E_COORD97":166222.82000000001,"N_COORD97":2545710.5499999998,"ADDRESS":"賢北街１７０巷１９號","OBJECTID":356257},"geometry":{"x":166222.8200000003,"y":2545710.5500000026}},{"attributes":{"ID":356267,"DIS_CODE":0,"TOWNNAME":"北區","LI":"大港里","LIN":"26鄰","STREET":"賢北街","SECT":" ","MAREA":" ","LANE":"１７０巷","ALLEY":" ","HOUSE_NO":"１號","E_COORD97":166186.07000000001,"N_COORD97":2545682.0699999998,"ADDRESS":"賢北街１７０巷１號","OBJECTID":356258},"geometry":{"x":166186.07000000123,"y":2545682.070000004}},{"attributes":{"ID":356268,"DIS_CODE":0,"TOWNNAME":"永康區","LI":"南灣里","LIN":" ","STREET":"大灣路","SECT":" ","MAREA":" ","LANE":" ","ALLEY":" ","HOUSE_NO":"６４０號","E_COORD97":174474.91,"N_COORD97":2544601.25,"ADDRESS":"大灣路６４０號","OBJECTID":356259},"geometry":{"x":174474.91000000108,"y":2544601.25}},{"attributes":{"ID":356269,"DIS_CODE":0,"TOWNNAME":"安南區","LI":"學東里","LIN":"4鄰","STREET":"公學路","SECT":"六段","MAREA":" ","LANE":" ","ALLEY":" ","HOUSE_NO":"４９１號","E_COORD97":162640.09,"N_COORD97":2553185.9300000002,"ADDRESS":"公學路六段４９１號","OBJECTID":356260},"geometry":{"x":162640.08999999985,"y":2553185.9300000016}},{"attributes":{"ID":356270,"DIS_CODE":0,"TOWNNAME":"安南區","LI":"學東里","LIN":"4鄰","STREET":"公學路","SECT":"六段","MAREA":" ","LANE":" ","ALLEY":" ","HOUSE_NO":"４９５號","E_COORD97":162629.10999999999,"N_COORD97":2553183.9399999999,"ADDRESS":"公學路六段４９５號","OBJECTID":356261},"geometry":{"x":162629.11000000127,"y":2553183.9399999995}},{"attributes":{"ID":356271,"DIS_CODE":0,"TOWNNAME":"安南區","LI":"學東里","LIN":"4鄰","STREET":"公學路","SECT":"六段","MAREA":" ","LANE":" ","ALLEY":" ","HOUSE_NO":"５０１號","E_COORD97":162604.16,"N_COORD97":2553187.1800000002,"ADDRESS":"公學路六段５０１號","OBJECTID":356262},"geometry":{"x":162604.16000000015,"y":2553187.1800000016}},{"attributes":{"ID":356272,"DIS_CODE":0,"TOWNNAME":"安南區","LI":"學東里","LIN":"4鄰","STREET":"公學路","SECT":"六段","MAREA":" ","LANE":" ","ALLEY":" ","HOUSE_NO":"５０９號","E_COORD97":162575.72,"N_COORD97":2553172.2200000002,"ADDRESS":"公學路六段５０９號","OBJECTID":356263},"geometry":{"x":162575.72000000067,"y":2553172.2200000025}},{"attributes":{"ID":356273,"DIS_CODE":0,"TOWNNAME":"安南區","LI":"安富里","LIN":" ","STREET":"安富街","SECT":" ","MAREA":" ","LANE":" ","ALLEY":" ","HOUSE_NO":"２２７號","E_COORD97":167631.29000000001,"N_COORD97":2547453.1099999999,"ADDRESS":"安富街２２７號","OBJECTID":356264},"geometry":{"x":167631.29000000004,"y":2547453.1099999994}},{"attributes":{"ID":356274,"DIS_CODE":0,"TOWNNAME":"安南區","LI":"\u25A0南里","LIN":"4鄰","STREET":"安昌街","SECT":" ","MAREA":" ","LANE":" ","ALLEY":" ","HOUSE_NO":"１９２號","E_COORD97":170127.56,"N_COORD97":2552481.3900000001,"ADDRESS":"安昌街１９２號","OBJECTID":356265},"geometry":{"x":170127.55999999959,"y":2552481.3900000043}},{"attributes":{"ID":356275,"DIS_CODE":0,"TOWNNAME":"安南區","LI":"\u25A0南里","LIN":"4鄰","STREET":"安昌街","SECT":" ","MAREA":" ","LANE":" ","ALLEY":" ","HOUSE_NO":"１９４號","E_COORD97":170129.82999999999,"N_COORD97":2552486.7799999998,"ADDRESS":"安昌街１９４號","OBJECTID":356266},"geometry":{"x":170129.83000000007,"y":2552486.7799999993}},{"attributes":{"ID":356276,"DIS_CODE":0,"TOWNNAME":"安南區","LI":"\u25A0南里","LIN":"4鄰","STREET":"安昌街","SECT":" ","MAREA":" ","LANE":" ","ALLEY":" ","HOUSE_NO":"１９８號","E_COORD97":170135.13,"N_COORD97":2552498.7599999998,"ADDRESS":"安昌街１９８號","OBJECTID":356267},"geometry":{"x":170135.13000000082,"y":2552498.7600000016}},{"attributes":{"ID":356277,"DIS_CODE":0,"TOWNNAME":"安南區","LI":"\u25A0南里","LIN":"4鄰","STREET":"安昌街","SECT":" ","MAREA":" ","LANE":" ","ALLEY":" ","HOUSE_NO":"２００號","E_COORD97":170135.14999999999,"N_COORD97":2552502.6400000001,"ADDRESS":"安昌街２００號","OBJECTID":356268},"geometry":{"x":170135.15000000224,"y":2552502.6400000006}},{"attributes":{"ID":356278,"DIS_CODE":0,"TOWNNAME":"安南區","LI":"\u25A0南里","LIN":"4鄰","STREET":"安昌街","SECT":" ","MAREA":" ","LANE":" ","ALLEY":" ","HOUSE_NO":"２０２號","E_COORD97":170134.63,"N_COORD97":2552506.3999999999,"ADDRESS":"安昌街２０２號","OBJECTID":356269},"geometry":{"x":170134.63000000175,"y":2552506.4000000004}},{"attributes":{"ID":356279,"DIS_CODE":0,"TOWNNAME":"歸仁區","LI":"南興里","LIN":"33鄰","STREET":"民生北街","SECT":" ","MAREA":" ","LANE":"７４巷","ALLEY":" ","HOUSE_NO":"１７號三樓","E_COORD97":176344.34,"N_COORD97":2541129.29,"ADDRESS":"民生北街７４巷１７號三樓","OBJECTID":356270},"geometry":{"x":176344.34000000171,"y":2541129.2900000028}},{"attributes":{"ID":356280,"DIS_CODE":0,"TOWNNAME":"歸仁區","LI":"後市里","LIN":"33鄰","STREET":"文化街","SECT":"二段","MAREA":" ","LANE":"５３巷","ALLEY":" ","HOUSE_NO":"７號六樓","E_COORD97":177407.39000000001,"N_COORD97":2541070.7599999998,"ADDRESS":"文化街二段５３巷７號六樓","OBJECTID":356271},"geometry":{"x":177407.3900000006,"y":2541070.7600000016}},{"attributes":{"ID":356281,"DIS_CODE":0,"TOWNNAME":"仁德區","LI":"仁德里","LIN":"14鄰","STREET":"四維街","SECT":" ","MAREA":" ","LANE":"８巷","ALLEY":" ","HOUSE_NO":"１２號","E_COORD97":173321.88,"N_COORD97":2541578.25,"ADDRESS":"四維街８巷１２號","OBJECTID":356272},"geometry":{"x":173321.88000000082,"y":2541578.2500000037}},{"attributes":{"ID":356282,"DIS_CODE":0,"TOWNNAME":"歸仁區","LI":"後市里","LIN":"33鄰","STREET":"文化街","SECT":"二段","MAREA":" ","LANE":"５３巷","ALLEY":" ","HOUSE_NO":"５號四樓","E_COORD97":177407.48999999999,"N_COORD97":2541073.7599999998,"ADDRESS":"文化街二段５３巷５號四樓","OBJECTID":356273},"geometry":{"x":177407.49000000022,"y":2541073.7600000016}},{"attributes":{"ID":356283,"DIS_CODE":0,"TOWNNAME":"永康區","LI":"永康里","LIN":"33鄰","STREET":"永大路","SECT":"二段","MAREA":" ","LANE":"１３１０巷","ALLEY":" ","HOUSE_NO":"２３號","E_COORD97":174332.26000000001,"N_COORD97":2546965.3100000001,"ADDRESS":"永大路二段１３１０巷２３號","OBJECTID":356274},"geometry":{"x":174332.25999999978,"y":2546965.3099999987}},{"attributes":{"ID":356284,"DIS_CODE":0,"TOWNNAME":"永康區","LI":"永康里","LIN":"33鄰","STREET":"永大路","SECT":"二段","MAREA":" ","LANE":"１３１０巷","ALLEY":" ","HOUSE_NO":"５號","E_COORD97":174331.66,"N_COORD97":2546923.5600000001,"ADDRESS":"永大路二段１３１０巷５號","OBJECTID":356275},"geometry":{"x":174331.66000000015,"y":2546923.5600000024}},{"attributes":{"ID":356285,"DIS_CODE":0,"TOWNNAME":"永康區","LI":"永康里","LIN":"33鄰","STREET":"永大路","SECT":"二段","MAREA":" ","LANE":"１３１０巷","ALLEY":" ","HOUSE_NO":"３號","E_COORD97":174332.01999999999,"N_COORD97":2546919.0499999998,"ADDRESS":"永大路二段１３１０巷３號","OBJECTID":356276},"geometry":{"x":174332.01999999955,"y":2546919.0500000007}},{"attributes":{"ID":356286,"DIS_CODE":0,"TOWNNAME":"東區","LI":"崇文里","LIN":"33鄰","STREET":"生產路","SECT":" ","MAREA":" ","LANE":"３３３巷","ALLEY":" ","HOUSE_NO":"１０號","E_COORD97":171086.66,"N_COORD97":2540727.98,"ADDRESS":"生產路３３３巷１０號","OBJECTID":356277},"geometry":{"x":171086.66000000015,"y":2540727.9800000004}},{"attributes":{"ID":356287,"DIS_CODE":0,"TOWNNAME":"東區","LI":"崇文里","LIN":"33鄰","STREET":"生產路","SECT":" ","MAREA":" ","LANE":"３３３巷","ALLEY":" ","HOUSE_NO":"１１號","E_COORD97":171062.07999999999,"N_COORD97":2540720.1299999999,"ADDRESS":"生產路３３３巷１１號","OBJECTID":356278},"geometry":{"x":171062.08000000007,"y":2540720.1300000027}},{"attributes":{"ID":356288,"DIS_CODE":0,"TOWNNAME":"東區","LI":"崇文里","LIN":"33鄰","STREET":"生產路","SECT":" ","MAREA":" ","LANE":"３３３巷","ALLEY":" ","HOUSE_NO":"１２號","E_COORD97":171085.66,"N_COORD97":2540734.25,"ADDRESS":"生產路３３３巷１２號","OBJECTID":356279},"geometry":{"x":171085.66000000201,"y":2540734.2500000019}},{"attributes":{"ID":356289,"DIS_CODE":0,"TOWNNAME":"東區","LI":"崇文里","LIN":"33鄰","STREET":"生產路","SECT":" ","MAREA":" ","LANE":"３３３巷","ALLEY":" ","HOUSE_NO":"１５號","E_COORD97":171059.79000000001,"N_COORD97":2540734.5499999998,"ADDRESS":"生產路３３３巷１５號","OBJECTID":356280},"geometry":{"x":171059.79000000097,"y":2540734.5500000007}},{"attributes":{"ID":356290,"DIS_CODE":0,"TOWNNAME":"東區","LI":"崇文里","LIN":"33鄰","STREET":"生產路","SECT":" ","MAREA":" ","LANE":"３３３巷","ALLEY":" ","HOUSE_NO":"１６號","E_COORD97":171082.07999999999,"N_COORD97":2540744.96,"ADDRESS":"生產路３３３巷１６號","OBJECTID":356281},"geometry":{"x":171082.08000000007,"y":2540744.9600000028}},{"attributes":{"ID":356291,"DIS_CODE":0,"TOWNNAME":"東區","LI":"崇文里","LIN":"33鄰","STREET":"生產路","SECT":" ","MAREA":" ","LANE":"３３３巷","ALLEY":" ","HOUSE_NO":"１７號","E_COORD97":171059.29000000001,"N_COORD97":2540739.3300000001,"ADDRESS":"生產路３３３巷１７號","OBJECTID":356282},"geometry":{"x":171059.2900000019,"y":2540739.3300000001}},{"attributes":{"ID":356292,"DIS_CODE":0,"TOWNNAME":"東區","LI":"崇文里","LIN":"33鄰","STREET":"生產路","SECT":" ","MAREA":" ","LANE":"３３３巷","ALLEY":" ","HOUSE_NO":"１８號","E_COORD97":171081.09,"N_COORD97":2540750.1299999999,"ADDRESS":"生產路３３３巷１８號","OBJECTID":356283},"geometry":{"x":171081.09000000078,"y":2540750.129999999}},{"attributes":{"ID":356293,"DIS_CODE":0,"TOWNNAME":"東區","LI":"崇文里","LIN":"33鄰","STREET":"生產路","SECT":" ","MAREA":" ","LANE":"３３３巷","ALLEY":" ","HOUSE_NO":"１９號","E_COORD97":171058.48999999999,"N_COORD97":2540743.6099999999,"ADDRESS":"生產路３３３巷１９號","OBJECTID":356284},"geometry":{"x":171058.49000000115,"y":2540743.6099999994}},{"attributes":{"ID":356294,"DIS_CODE":0,"TOWNNAME":"東區","LI":"崇文里","LIN":"33鄰","STREET":"生產路","SECT":" ","MAREA":" ","LANE":"３３３巷","ALLEY":" ","HOUSE_NO":"１號","E_COORD97":171064.97,"N_COORD97":2540699.4199999999,"ADDRESS":"生產路３３３巷１號","OBJECTID":356285},"geometry":{"x":171064.97000000067,"y":2540699.4200000018}},{"attributes":{"ID":356295,"DIS_CODE":0,"TOWNNAME":"東區","LI":"崇文里","LIN":"33鄰","STREET":"生產路","SECT":" ","MAREA":" ","LANE":"３３３巷","ALLEY":" ","HOUSE_NO":"２０號","E_COORD97":171092.63,"N_COORD97":2540746.02,"ADDRESS":"生產路３３３巷２０號","OBJECTID":356286},"geometry":{"x":171092.63000000082,"y":2540746.0200000014}},{"attributes":{"ID":356296,"DIS_CODE":0,"TOWNNAME":"東區","LI":"崇文里","LIN":"33鄰","STREET":"生產路","SECT":" ","MAREA":" ","LANE":"３３３巷","ALLEY":" ","HOUSE_NO":"２號","E_COORD97":171087.95000000001,"N_COORD97":2540708.3300000001,"ADDRESS":"生產路３３３巷２號","OBJECTID":356287},"geometry":{"x":171087.95000000112,"y":2540708.3300000001}},{"attributes":{"ID":356297,"DIS_CODE":0,"TOWNNAME":"東區","LI":"崇文里","LIN":"33鄰","STREET":"生產路","SECT":" ","MAREA":" ","LANE":"３３３巷","ALLEY":" ","HOUSE_NO":"３０號","E_COORD97":171095.41,"N_COORD97":2540765.9399999999,"ADDRESS":"生產路３３３巷３０號","OBJECTID":356288},"geometry":{"x":171095.41000000015,"y":2540765.9400000032}},{"attributes":{"ID":356298,"DIS_CODE":0,"TOWNNAME":"東區","LI":"崇文里","LIN":"33鄰","STREET":"生產路","SECT":" ","MAREA":" ","LANE":"３３３巷","ALLEY":" ","HOUSE_NO":"３２號","E_COORD97":171083.37,"N_COORD97":2540761.0699999998,"ADDRESS":"生產路３３３巷３２號","OBJECTID":356289},"geometry":{"x":171083.37000000104,"y":2540761.0700000003}},{"attributes":{"ID":356299,"DIS_CODE":0,"TOWNNAME":"東區","LI":"崇文里","LIN":"33鄰","STREET":"生產路","SECT":" ","MAREA":" ","LANE":"３３３巷","ALLEY":" ","HOUSE_NO":"３４號","E_COORD97":171083.26999999999,"N_COORD97":2540764.6499999999,"ADDRESS":"生產路３３３巷３４號","OBJECTID":356290},"geometry":{"x":171083.27000000048,"y":2540764.6500000004}},{"attributes":{"ID":356300,"DIS_CODE":0,"TOWNNAME":"東區","LI":"崇文里","LIN":"33鄰","STREET":"生產路","SECT":" ","MAREA":" ","LANE":"３３３巷","ALLEY":" ","HOUSE_NO":"３６號","E_COORD97":171083.26999999999,"N_COORD97":2540768.4300000002,"ADDRESS":"生產路３３３巷３６號","OBJECTID":356291},"geometry":{"x":171083.27000000048,"y":2540768.4299999997}},{"attributes":{"ID":356301,"DIS_CODE":0,"TOWNNAME":"東區","LI":"崇文里","LIN":"33鄰","STREET":"生產路","SECT":" ","MAREA":" ","LANE":"３３３巷","ALLEY":" ","HOUSE_NO":"３８號","E_COORD97":171083.26999999999,"N_COORD97":2540772.5,"ADDRESS":"生產路３３３巷３８號","OBJECTID":356292},"geometry":{"x":171083.27000000048,"y":2540772.5}},{"attributes":{"ID":356302,"DIS_CODE":0,"TOWNNAME":"東區","LI":"崇文里","LIN":"33鄰","STREET":"生產路","SECT":" ","MAREA":" ","LANE":"３３３巷","ALLEY":" ","HOUSE_NO":"３號","E_COORD97":171064.37,"N_COORD97":2540703.6000000001,"ADDRESS":"生產路３３３巷３號","OBJECTID":356293},"geometry":{"x":171064.37000000104,"y":2540703.5999999996}},{"attributes":{"ID":356303,"DIS_CODE":0,"TOWNNAME":"東區","LI":"崇文里","LIN":"33鄰","STREET":"生產路","SECT":" ","MAREA":" ","LANE":"３３３巷","ALLEY":" ","HOUSE_NO":"４０號","E_COORD97":171083.26999999999,"N_COORD97":2540776.1800000002,"ADDRESS":"生產路３３３巷４０號","OBJECTID":356294},"geometry":{"x":171083.27000000048,"y":2540776.1800000016}},{"attributes":{"ID":356304,"DIS_CODE":0,"TOWNNAME":"東區","LI":"崇文里","LIN":"33鄰","STREET":"生產路","SECT":" ","MAREA":" ","LANE":"３３３巷","ALLEY":" ","HOUSE_NO":"４２號","E_COORD97":171083.26999999999,"N_COORD97":2540780.3599999999,"ADDRESS":"生產路３３３巷４２號","OBJECTID":356295},"geometry":{"x":171083.27000000048,"y":2540780.3600000013}},{"attributes":{"ID":356305,"DIS_CODE":0,"TOWNNAME":"東區","LI":"崇文里","LIN":"33鄰","STREET":"生產路","SECT":" ","MAREA":" ","LANE":"３３３巷","ALLEY":" ","HOUSE_NO":"４６號","E_COORD97":171083.26999999999,"N_COORD97":2540784.6400000001,"ADDRESS":"生產路３３３巷４６號","OBJECTID":356296},"geometry":{"x":171083.27000000048,"y":2540784.6400000006}},{"attributes":{"ID":356306,"DIS_CODE":0,"TOWNNAME":"東區","LI":"崇文里","LIN":"33鄰","STREET":"生產路","SECT":" ","MAREA":" ","LANE":"３３３巷","ALLEY":" ","HOUSE_NO":"５號","E_COORD97":171063.26999999999,"N_COORD97":2540707.3999999999,"ADDRESS":"生產路３３３巷５號","OBJECTID":356297},"geometry":{"x":171063.26999999955,"y":2540707.4000000022}},{"attributes":{"ID":356307,"DIS_CODE":0,"TOWNNAME":"東區","LI":"崇文里","LIN":"33鄰","STREET":"生產路","SECT":" ","MAREA":" ","LANE":"３３３巷","ALLEY":" ","HOUSE_NO":"７號","E_COORD97":171062.78,"N_COORD97":2540711.48,"ADDRESS":"生產路３３３巷７號","OBJECTID":356298},"geometry":{"x":171062.78000000026,"y":2540711.4800000004}},{"attributes":{"ID":356308,"DIS_CODE":0,"TOWNNAME":"東區","LI":"崇文里","LIN":"33鄰","STREET":"生產路","SECT":" ","MAREA":" ","LANE":"３３３巷","ALLEY":" ","HOUSE_NO":"８號","E_COORD97":171084.37,"N_COORD97":2540722.5600000001,"ADDRESS":"生產路３３３巷８號","OBJECTID":356299},"geometry":{"x":171084.37000000197,"y":2540722.5600000024}},{"attributes":{"ID":356309,"DIS_CODE":0,"TOWNNAME":"東區","LI":"崇文里","LIN":"33鄰","STREET":"生產路","SECT":" ","MAREA":" ","LANE":"３３３巷","ALLEY":" ","HOUSE_NO":"９號","E_COORD97":171062.48000000001,"N_COORD97":2540715.46,"ADDRESS":"生產路３３３巷９號","OBJECTID":356300},"geometry":{"x":171062.48000000138,"y":2540715.4600000009}},{"attributes":{"ID":356310,"DIS_CODE":0,"TOWNNAME":"佳里區","LI":"建南里","LIN":"33鄰","STREET":"佳南路","SECT":" ","MAREA":" ","LANE":"３２３巷","ALLEY":" ","HOUSE_NO":"１０號","E_COORD97":165783.95000000001,"N_COORD97":2560875.1200000001,"ADDRESS":"佳南路３２３巷１０號","OBJECTID":356301},"geometry":{"x":165783.95000000019,"y":2560875.1200000029}},{"attributes":{"ID":356311,"DIS_CODE":0,"TOWNNAME":"佳里區","LI":"建南里","LIN":"33鄰","STREET":"佳南路","SECT":" ","MAREA":" ","LANE":"３２３巷","ALLEY":" ","HOUSE_NO":"２號","E_COORD97":165782.73000000001,"N_COORD97":2560904.1899999999,"ADDRESS":"佳南路３２３巷２號","OBJECTID":356302},"geometry":{"x":165782.73000000045,"y":2560904.1900000013}},{"attributes":{"ID":356312,"DIS_CODE":0,"TOWNNAME":"佳里區","LI":"建南里","LIN":"33鄰","STREET":"佳南路","SECT":" ","MAREA":" ","LANE":"３２３巷","ALLEY":" ","HOUSE_NO":"６號","E_COORD97":165782.78,"N_COORD97":2560894.9700000002,"ADDRESS":"佳南路３２３巷６號","OBJECTID":356303},"geometry":{"x":165782.78000000119,"y":2560894.9700000007}},{"attributes":{"ID":356313,"DIS_CODE":0,"TOWNNAME":"佳里區","LI":"建南里","LIN":"33鄰","STREET":"佳南路","SECT":" ","MAREA":" ","LANE":"３２３巷","ALLEY":" ","HOUSE_NO":"８號","E_COORD97":165783.26000000001,"N_COORD97":2560885.71,"ADDRESS":"佳南路３２３巷８號","OBJECTID":356304},"geometry":{"x":165783.25999999978,"y":2560885.7100000028}},{"attributes":{"ID":356314,"DIS_CODE":0,"TOWNNAME":"仁德區","LI":"仁義里","LIN":"46鄰","STREET":"仁義路","SECT":" ","MAREA":" ","LANE":"９８巷","ALLEY":" ","HOUSE_NO":"２３號","E_COORD97":173629.03,"N_COORD97":2540890.2599999998,"ADDRESS":"仁義路９８巷２３號","OBJECTID":356305},"geometry":{"x":173629.03000000026,"y":2540890.2600000016}},{"attributes":{"ID":356315,"DIS_CODE":0,"TOWNNAME":"永康區","LI":"復國里","LIN":"33鄰","STREET":"復華一街","SECT":" ","MAREA":" ","LANE":"６６巷","ALLEY":" ","HOUSE_NO":"３０號","E_COORD97":172549.26000000001,"N_COORD97":2545191.5299999998,"ADDRESS":"復華一街６６巷３０號","OBJECTID":356306},"geometry":{"x":172549.26000000164,"y":2545191.5299999993}},{"attributes":{"ID":356316,"DIS_CODE":0,"TOWNNAME":"永康區","LI":"復國里","LIN":"33鄰","STREET":"復華一街","SECT":" ","MAREA":" ","LANE":"６６巷","ALLEY":" ","HOUSE_NO":"２０號","E_COORD97":172548.64999999999,"N_COORD97":2545163.0299999998,"ADDRESS":"復華一街６６巷２０號","OBJECTID":356307},"geometry":{"x":172548.65000000037,"y":2545163.0300000012}},{"attributes":{"ID":356317,"DIS_CODE":0,"TOWNNAME":"永康區","LI":"勝利里","LIN":"33鄰","STREET":"中華路","SECT":" ","MAREA":" ","LANE":"７巷","ALLEY":" ","HOUSE_NO":"３２號","E_COORD97":171462.89999999999,"N_COORD97":2544396.7400000002,"ADDRESS":"中華路７巷３２號","OBJECTID":356308},"geometry":{"x":171462.9000000013,"y":2544396.7400000021}},{"attributes":{"ID":356318,"DIS_CODE":0,"TOWNNAME":"永康區","LI":"龍潭里","LIN":"33鄰","STREET":"龍國街","SECT":" ","MAREA":" ","LANE":"３２０巷","ALLEY":" ","HOUSE_NO":"６號","E_COORD97":174619.57999999999,"N_COORD97":2548005.9500000002,"ADDRESS":"龍國街３２０巷６號","OBJECTID":356309},"geometry":{"x":174619.58000000101,"y":2548005.9499999993}},{"attributes":{"ID":356319,"DIS_CODE":0,"TOWNNAME":"永康區","LI":"復國里","LIN":"33鄰","STREET":"復華一街","SECT":" ","MAREA":" ","LANE":"６６巷","ALLEY":" ","HOUSE_NO":"２５號","E_COORD97":172516.45000000001,"N_COORD97":2545146.02,"ADDRESS":"復華一街６６巷２５號","OBJECTID":356310},"geometry":{"x":172516.45000000112,"y":2545146.0200000033}},{"attributes":{"ID":356320,"DIS_CODE":0,"TOWNNAME":"永康區","LI":"崑山里","LIN":"33鄰","STREET":"國光二街","SECT":" ","MAREA":" ","LANE":"７０巷","ALLEY":" ","HOUSE_NO":"４７號","E_COORD97":173916.23999999999,"N_COORD97":2544884.2999999998,"ADDRESS":"國光二街７０巷４７號","OBJECTID":356311},"geometry":{"x":173916.24000000209,"y":2544884.3000000045}},{"attributes":{"ID":356321,"DIS_CODE":0,"TOWNNAME":"永康區","LI":"崑山里","LIN":"33鄰","STREET":"國光二街","SECT":" ","MAREA":" ","LANE":"７０巷","ALLEY":" ","HOUSE_NO":"３７號","E_COORD97":173908.23999999999,"N_COORD97":2544861.2999999998,"ADDRESS":"國光二街７０巷３７號","OBJECTID":356312},"geometry":{"x":173908.24000000115,"y":2544861.3000000026}},{"attributes":{"ID":356322,"DIS_CODE":0,"TOWNNAME":"永康區","LI":"龍潭里","LIN":"33鄰","STREET":"龍國街","SECT":" ","MAREA":" ","LANE":"３２０巷","ALLEY":" ","HOUSE_NO":"３６號","E_COORD97":174613.73999999999,"N_COORD97":2547942.6299999999,"ADDRESS":"龍國街３２０巷３６號","OBJECTID":356313},"geometry":{"x":174613.74000000115,"y":2547942.6300000008}},{"attributes":{"ID":356323,"DIS_CODE":0,"TOWNNAME":"永康區","LI":"龍潭里","LIN":"33鄰","STREET":"龍國街","SECT":" ","MAREA":" ","LANE":"３２０巷","ALLEY":" ","HOUSE_NO":"１８號","E_COORD97":174618.25,"N_COORD97":2547981.9500000002,"ADDRESS":"龍國街３２０巷１８號","OBJECTID":356314},"geometry":{"x":174618.25000000093,"y":2547981.9500000011}},{"attributes":{"ID":356324,"DIS_CODE":0,"TOWNNAME":"永康區","LI":"復華里","LIN":"33鄰","STREET":"復華十街","SECT":" ","MAREA":" ","LANE":"１１巷","ALLEY":" ","HOUSE_NO":"３號","E_COORD97":172504.44,"N_COORD97":2546189.1499999999,"ADDRESS":"復華十街１１巷３號","OBJECTID":356315},"geometry":{"x":172504.44000000041,"y":2546189.1500000004}},{"attributes":{"ID":356325,"DIS_CODE":0,"TOWNNAME":"永康區","LI":"東灣里","LIN":"33鄰","STREET":"大灣一街","SECT":" ","MAREA":" ","LANE":"３５８巷","ALLEY":" ","HOUSE_NO":"２５號","E_COORD97":175158.53,"N_COORD97":2544735.54,"ADDRESS":"大灣一街３５８巷２５號","OBJECTID":356316},"geometry":{"x":175158.53000000212,"y":2544735.540000001}},{"attributes":{"ID":356326,"DIS_CODE":0,"TOWNNAME":"永康區","LI":"東灣里","LIN":"33鄰","STREET":"大灣一街","SECT":" ","MAREA":" ","LANE":"３５８巷","ALLEY":" ","HOUSE_NO":"１９號","E_COORD97":175150.62,"N_COORD97":2544746.29,"ADDRESS":"大灣一街３５８巷１９號","OBJECTID":356317},"geometry":{"x":175150.62000000011,"y":2544746.2899999991}},{"attributes":{"ID":356327,"DIS_CODE":0,"TOWNNAME":"永康區","LI":"復國里","LIN":"33鄰","STREET":"復華一街","SECT":" ","MAREA":" ","LANE":"６６巷","ALLEY":" ","HOUSE_NO":"３３號","E_COORD97":172507.63,"N_COORD97":2545161.27,"ADDRESS":"復華一街６６巷３３號","OBJECTID":356318},"geometry":{"x":172507.62999999989,"y":2545161.2700000033}},{"attributes":{"ID":356328,"DIS_CODE":0,"TOWNNAME":"佳里區","LI":"建南里","LIN":"33鄰","STREET":"南勢街","SECT":" ","MAREA":" ","LANE":"１８０巷","ALLEY":" ","HOUSE_NO":"１０號","E_COORD97":165797.38,"N_COORD97":2560780.1000000001,"ADDRESS":"南勢街１８０巷１０號","OBJECTID":356319},"geometry":{"x":165797.38000000082,"y":2560780.1000000015}},{"attributes":{"ID":356329,"DIS_CODE":0,"TOWNNAME":"佳里區","LI":"建南里","LIN":"33鄰","STREET":"南勢街","SECT":" ","MAREA":" ","LANE":"１８０巷","ALLEY":" ","HOUSE_NO":"１１號","E_COORD97":165781.88,"N_COORD97":2560772.0800000001,"ADDRESS":"南勢街１８０巷１１號","OBJECTID":356320},"geometry":{"x":165781.88000000082,"y":2560772.0799999982}},{"attributes":{"ID":356330,"DIS_CODE":0,"TOWNNAME":"佳里區","LI":"建南里","LIN":"33鄰","STREET":"南勢街","SECT":" ","MAREA":" ","LANE":"１８０巷","ALLEY":" ","HOUSE_NO":"１２號","E_COORD97":165796.95000000001,"N_COORD97":2560789.5800000001,"ADDRESS":"南勢街１８０巷１２號","OBJECTID":356321},"geometry":{"x":165796.95000000112,"y":2560789.5800000019}},{"attributes":{"ID":356331,"DIS_CODE":0,"TOWNNAME":"仁德區","LI":"仁德里","LIN":"14鄰","STREET":"四維街","SECT":" ","MAREA":" ","LANE":"８巷","ALLEY":" ","HOUSE_NO":"６號","E_COORD97":173321.04000000001,"N_COORD97":2541565.5,"ADDRESS":"四維街８巷６號","OBJECTID":356322},"geometry":{"x":173321.04000000097,"y":2541565.5}},{"attributes":{"ID":356332,"DIS_CODE":0,"TOWNNAME":"佳里區","LI":"建南里","LIN":"33鄰","STREET":"南勢街","SECT":" ","MAREA":" ","LANE":"１８０巷","ALLEY":" ","HOUSE_NO":"１３號","E_COORD97":165781.64000000001,"N_COORD97":2560776.8900000001,"ADDRESS":"南勢街１８０巷１３號","OBJECTID":356323},"geometry":{"x":165781.6400000006,"y":2560776.8900000006}},{"attributes":{"ID":356333,"DIS_CODE":0,"TOWNNAME":"佳里區","LI":"建南里","LIN":"33鄰","STREET":"南勢街","SECT":" ","MAREA":" ","LANE":"１８０巷","ALLEY":" ","HOUSE_NO":"１５號","E_COORD97":165781.48000000001,"N_COORD97":2560781.4900000002,"ADDRESS":"南勢街１８０巷１５號","OBJECTID":356324},"geometry":{"x":165781.48000000138,"y":2560781.4900000021}},{"attributes":{"ID":356334,"DIS_CODE":0,"TOWNNAME":"佳里區","LI":"建南里","LIN":"33鄰","STREET":"南勢街","SECT":" ","MAREA":" ","LANE":"１８０巷","ALLEY":" ","HOUSE_NO":"１７號","E_COORD97":165781.45000000001,"N_COORD97":2560786.2000000002,"ADDRESS":"南勢街１８０巷１７號","OBJECTID":356325},"geometry":{"x":165781.45000000112,"y":2560786.1999999993}},{"attributes":{"ID":356335,"DIS_CODE":0,"TOWNNAME":"佳里區","LI":"建南里","LIN":"33鄰","STREET":"南勢街","SECT":" ","MAREA":" ","LANE":"１８０巷","ALLEY":" ","HOUSE_NO":"６號","E_COORD97":165799.89999999999,"N_COORD97":2560762.0600000001,"ADDRESS":"南勢街１８０巷６號","OBJECTID":356326},"geometry":{"x":165799.90000000037,"y":2560762.0600000005}},{"attributes":{"ID":356336,"DIS_CODE":0,"TOWNNAME":"佳里區","LI":"建南里","LIN":"33鄰","STREET":"南勢街","SECT":" ","MAREA":" ","LANE":"１８０巷","ALLEY":" ","HOUSE_NO":"８號","E_COORD97":165798.39999999999,"N_COORD97":2560771.1000000001,"ADDRESS":"南勢街１８０巷８號","OBJECTID":356327},"geometry":{"x":165798.40000000037,"y":2560771.0999999996}},{"attributes":{"ID":356337,"DIS_CODE":0,"TOWNNAME":"佳里區","LI":"建南里","LIN":"33鄰","STREET":"南勢街","SECT":" ","MAREA":" ","LANE":"１８０巷","ALLEY":" ","HOUSE_NO":"９號","E_COORD97":165782.25,"N_COORD97":2560767.4300000002,"ADDRESS":"南勢街１８０巷９號","OBJECTID":356328},"geometry":{"x":165782.25,"y":2560767.4300000016}},{"attributes":{"ID":356338,"DIS_CODE":0,"TOWNNAME":"永康區","LI":"勝利里","LIN":"33鄰","STREET":"小東路","SECT":" ","MAREA":" ","LANE":"４４９巷","ALLEY":" ","HOUSE_NO":"１３號","E_COORD97":171444.76000000001,"N_COORD97":2544437.25,"ADDRESS":"小東路４４９巷１３號","OBJECTID":356329},"geometry":{"x":171444.76000000071,"y":2544437.2500000019}},{"attributes":{"ID":356339,"DIS_CODE":0,"TOWNNAME":"永康區","LI":"成功里","LIN":"33鄰","STREET":"忠孝路","SECT":" ","MAREA":" ","LANE":"２０７巷","ALLEY":" ","HOUSE_NO":"３４號","E_COORD97":171916.62,"N_COORD97":2544922.4700000002,"ADDRESS":"忠孝路２０７巷３４號","OBJECTID":356330},"geometry":{"x":171916.62000000197,"y":2544922.4700000007}},{"attributes":{"ID":356340,"DIS_CODE":0,"TOWNNAME":"新營區","LI":"王公里","LIN":"33鄰","STREET":"長榮路","SECT":"一段","MAREA":" ","LANE":"５１５巷","ALLEY":" ","HOUSE_NO":"３１號","E_COORD97":180308.26999999999,"N_COORD97":2579757.3500000001,"ADDRESS":"長榮路一段５１５巷３１號","OBJECTID":356331},"geometry":{"x":180308.27000000048,"y":2579757.3500000015}},{"attributes":{"ID":356341,"DIS_CODE":0,"TOWNNAME":"新營區","LI":"新北里","LIN":"33鄰","STREET":"新北八街","SECT":" ","MAREA":" ","LANE":"７６巷","ALLEY":" ","HOUSE_NO":"２２號","E_COORD97":178746.66,"N_COORD97":2579157.8900000001,"ADDRESS":"新北八街７６巷２２號","OBJECTID":356332},"geometry":{"x":178746.66000000108,"y":2579157.8900000025}},{"attributes":{"ID":356342,"DIS_CODE":0,"TOWNNAME":"新營區","LI":"王公里","LIN":"33鄰","STREET":"民族路","SECT":" ","MAREA":" ","LANE":"３０８巷","ALLEY":" ","HOUSE_NO":"７號","E_COORD97":180426.64999999999,"N_COORD97":2579762.3199999998,"ADDRESS":"民族路３０８巷７號","OBJECTID":356333},"geometry":{"x":180426.65000000224,"y":2579762.3200000003}},{"attributes":{"ID":356343,"DIS_CODE":0,"TOWNNAME":"安平區","LI":"華平里","LIN":"33鄰","STREET":"國平路","SECT":" ","MAREA":" ","LANE":"５５２巷","ALLEY":" ","HOUSE_NO":"４２號","E_COORD97":165200.20999999999,"N_COORD97":2544133.1899999999,"ADDRESS":"國平路５５２巷４２號","OBJECTID":356334},"geometry":{"x":165200.21000000089,"y":2544133.1899999995}},{"attributes":{"ID":356344,"DIS_CODE":0,"TOWNNAME":"仁德區","LI":"仁德里","LIN":"7鄰","STREET":"仁德三街","SECT":" ","MAREA":" ","LANE":"２６巷","ALLEY":" ","HOUSE_NO":"１號","E_COORD97":173272.10000000001,"N_COORD97":2541047.77,"ADDRESS":"仁德三街２６巷１號","OBJECTID":356335},"geometry":{"x":173272.09999999963,"y":2541047.7699999996}},{"attributes":{"ID":356345,"DIS_CODE":0,"TOWNNAME":"新營區","LI":"三仙里","LIN":"21鄰","STREET":"健康路","SECT":" ","MAREA":" ","LANE":"２１３巷","ALLEY":" ","HOUSE_NO":"１５號","E_COORD97":179586.10999999999,"N_COORD97":2579544.7999999998,"ADDRESS":"健康路２１３巷１５號","OBJECTID":356336},"geometry":{"x":179586.11000000127,"y":2579544.8000000026}},{"attributes":{"ID":356346,"DIS_CODE":0,"TOWNNAME":"新營區","LI":"三仙里","LIN":"21鄰","STREET":"健康路","SECT":" ","MAREA":" ","LANE":"２１３巷","ALLEY":" ","HOUSE_NO":"１４號","E_COORD97":179571.81,"N_COORD97":2579547.0800000001,"ADDRESS":"健康路２１３巷１４號","OBJECTID":356337},"geometry":{"x":179571.80999999866,"y":2579547.0800000001}},{"attributes":{"ID":356347,"DIS_CODE":0,"TOWNNAME":"新營區","LI":"王公里","LIN":"33鄰","STREET":"民族路","SECT":" ","MAREA":" ","LANE":"３０８巷","ALLEY":" ","HOUSE_NO":"１號","E_COORD97":180413.32000000001,"N_COORD97":2579762.3799999999,"ADDRESS":"民族路３０８巷１號","OBJECTID":356338},"geometry":{"x":180413.31999999937,"y":2579762.3800000008}},{"attributes":{"ID":356348,"DIS_CODE":0,"TOWNNAME":"新營區","LI":"王公里","LIN":"33鄰","STREET":"民族路","SECT":" ","MAREA":" ","LANE":"３０８巷","ALLEY":" ","HOUSE_NO":"１１號","E_COORD97":180436.06,"N_COORD97":2579763.3900000001,"ADDRESS":"民族路３０８巷１１號","OBJECTID":356339},"geometry":{"x":180436.05999999959,"y":2579763.3899999987}},{"attributes":{"ID":356349,"DIS_CODE":0,"TOWNNAME":"新營區","LI":"王公里","LIN":"33鄰","STREET":"民族路","SECT":" ","MAREA":" ","LANE":"３３０巷","ALLEY":" ","HOUSE_NO":"１０號","E_COORD97":180426.98000000001,"N_COORD97":2579790.0099999998,"ADDRESS":"民族路３３０巷１０號","OBJECTID":356340},"geometry":{"x":180426.98000000045,"y":2579790.0100000016}},{"attributes":{"ID":356350,"DIS_CODE":0,"TOWNNAME":"新營區","LI":"王公里","LIN":"33鄰","STREET":"民族路","SECT":" ","MAREA":" ","LANE":"３０８巷","ALLEY":" ","HOUSE_NO":"３號","E_COORD97":180417.5,"N_COORD97":2579762.3700000001,"ADDRESS":"民族路３０８巷３號","OBJECTID":356341},"geometry":{"x":180417.50000000093,"y":2579762.3700000029}},{"attributes":{"ID":356351,"DIS_CODE":0,"TOWNNAME":"新營區","LI":"王公里","LIN":"33鄰","STREET":"民族路","SECT":" ","MAREA":" ","LANE":"３３０巷","ALLEY":" ","HOUSE_NO":"１６號","E_COORD97":180435.16,"N_COORD97":2579791.0800000001,"ADDRESS":"民族路３３０巷１６號","OBJECTID":356342},"geometry":{"x":180435.16000000108,"y":2579791.0800000001}},{"attributes":{"ID":356352,"DIS_CODE":0,"TOWNNAME":"新營區","LI":"三仙里","LIN":"21鄰","STREET":"健康路","SECT":" ","MAREA":" ","LANE":"２１３巷","ALLEY":" ","HOUSE_NO":"１８號","E_COORD97":179571.75,"N_COORD97":2579536.0099999998,"ADDRESS":"健康路２１３巷１８號","OBJECTID":356343},"geometry":{"x":179571.75000000093,"y":2579536.0100000016}},{"attributes":{"ID":356353,"DIS_CODE":0,"TOWNNAME":"新營區","LI":"三仙里","LIN":"21鄰","STREET":"健康路","SECT":" ","MAREA":" ","LANE":"２１３巷","ALLEY":" ","HOUSE_NO":"１７號","E_COORD97":179586.07999999999,"N_COORD97":2579537.0499999998,"ADDRESS":"健康路２１３巷１７號","OBJECTID":356344},"geometry":{"x":179586.08000000101,"y":2579537.0500000026}},{"attributes":{"ID":356354,"DIS_CODE":0,"TOWNNAME":"新營區","LI":"三仙里","LIN":"21鄰","STREET":"健康路","SECT":" ","MAREA":" ","LANE":"２１３巷","ALLEY":" ","HOUSE_NO":"１９號","E_COORD97":179586.04999999999,"N_COORD97":2579532.6200000001,"ADDRESS":"健康路２１３巷１９號","OBJECTID":356345},"geometry":{"x":179586.05000000075,"y":2579532.6200000029}},{"attributes":{"ID":356355,"DIS_CODE":0,"TOWNNAME":"新營區","LI":"王公里","LIN":"33鄰","STREET":"民族路","SECT":" ","MAREA":" ","LANE":"３０８巷","ALLEY":" ","HOUSE_NO":"９號","E_COORD97":180430.67999999999,"N_COORD97":2579762.2999999998,"ADDRESS":"民族路３０８巷９號","OBJECTID":356346},"geometry":{"x":180430.68000000156,"y":2579762.3000000026}},{"attributes":{"ID":356356,"DIS_CODE":0,"TOWNNAME":"新營區","LI":"王公里","LIN":"33鄰","STREET":"民族路","SECT":" ","MAREA":" ","LANE":"３３０巷","ALLEY":" ","HOUSE_NO":"８號","E_COORD97":180420.67999999999,"N_COORD97":2579790.0299999998,"ADDRESS":"民族路３３０巷８號","OBJECTID":356347},"geometry":{"x":180420.68000000063,"y":2579790.0300000012}},{"attributes":{"ID":356357,"DIS_CODE":0,"TOWNNAME":"新營區","LI":"新北里","LIN":"33鄰","STREET":"新北八街","SECT":" ","MAREA":" ","LANE":"７６巷","ALLEY":" ","HOUSE_NO":"１４號","E_COORD97":178762.95000000001,"N_COORD97":2579157.8199999998,"ADDRESS":"新北八街７６巷１４號","OBJECTID":356348},"geometry":{"x":178762.95000000205,"y":2579157.8200000022}},{"attributes":{"ID":356358,"DIS_CODE":0,"TOWNNAME":"新營區","LI":"新北里","LIN":"33鄰","STREET":"新北八街","SECT":" ","MAREA":" ","LANE":"７６巷","ALLEY":" ","HOUSE_NO":"２０號","E_COORD97":178750.75,"N_COORD97":2579157.8700000001,"ADDRESS":"新北八街７６巷２０號","OBJECTID":356349},"geometry":{"x":178750.75000000093,"y":2579157.8700000029}},{"attributes":{"ID":356359,"DIS_CODE":0,"TOWNNAME":"新營區","LI":"新北里","LIN":"33鄰","STREET":"新北八街","SECT":" ","MAREA":" ","LANE":"２９巷","ALLEY":" ","HOUSE_NO":"６號","E_COORD97":178680.20000000001,"N_COORD97":2579223.54,"ADDRESS":"新北八街２９巷６號","OBJECTID":356350},"geometry":{"x":178680.20000000112,"y":2579223.540000001}},{"attributes":{"ID":356360,"DIS_CODE":0,"TOWNNAME":"新營區","LI":"王公里","LIN":"33鄰","STREET":"民族路","SECT":" ","MAREA":" ","LANE":"３０８巷","ALLEY":" ","HOUSE_NO":"５號","E_COORD97":180421.51999999999,"N_COORD97":2579762.3500000001,"ADDRESS":"民族路３０８巷５號","OBJECTID":356351},"geometry":{"x":180421.52000000142,"y":2579762.3499999996}},{"attributes":{"ID":356361,"DIS_CODE":0,"TOWNNAME":"新營區","LI":"新北里","LIN":"33鄰","STREET":"新北八街","SECT":" ","MAREA":" ","LANE":"２９巷","ALLEY":" ","HOUSE_NO":"２號","E_COORD97":178681.25,"N_COORD97":2579216.8900000001,"ADDRESS":"新北八街２９巷２號","OBJECTID":356352},"geometry":{"x":178681.25000000093,"y":2579216.8900000006}},{"attributes":{"ID":356362,"DIS_CODE":0,"TOWNNAME":"新營區","LI":"王公里","LIN":"33鄰","STREET":"民族路","SECT":" ","MAREA":" ","LANE":"３３０巷","ALLEY":" ","HOUSE_NO":"２號","E_COORD97":180411.48000000001,"N_COORD97":2579790.0800000001,"ADDRESS":"民族路３３０巷２號","OBJECTID":356353},"geometry":{"x":180411.48000000138,"y":2579790.0800000019}},{"attributes":{"ID":356363,"DIS_CODE":0,"TOWNNAME":"新營區","LI":"新北里","LIN":"33鄰","STREET":"新北八街","SECT":" ","MAREA":" ","LANE":"７６巷","ALLEY":" ","HOUSE_NO":"１２號","E_COORD97":178768.07000000001,"N_COORD97":2579157.79,"ADDRESS":"新北八街７６巷１２號","OBJECTID":356354},"geometry":{"x":178768.07000000123,"y":2579157.7899999991}},{"attributes":{"ID":356364,"DIS_CODE":0,"TOWNNAME":"新營區","LI":"王公里","LIN":"33鄰","STREET":"長榮路","SECT":"一段","MAREA":" ","LANE":"５１５巷","ALLEY":" ","HOUSE_NO":"２５號","E_COORD97":180308.29999999999,"N_COORD97":2579768.4199999999,"ADDRESS":"長榮路一段５１５巷２５號","OBJECTID":356355},"geometry":{"x":180308.30000000075,"y":2579768.4199999999}},{"attributes":{"ID":356365,"DIS_CODE":0,"TOWNNAME":"新營區","LI":"王公里","LIN":"33鄰","STREET":"長榮路","SECT":"一段","MAREA":" ","LANE":"５１５巷","ALLEY":" ","HOUSE_NO":"１９號","E_COORD97":180307.26999999999,"N_COORD97":2579780.6099999999,"ADDRESS":"長榮路一段５１５巷１９號","OBJECTID":356356},"geometry":{"x":180307.26999999955,"y":2579780.6099999994}},{"attributes":{"ID":356366,"DIS_CODE":0,"TOWNNAME":"歸仁區","LI":"許厝里","LIN":"33鄰","STREET":"公園八街","SECT":" ","MAREA":" ","LANE":"２０巷","ALLEY":" ","HOUSE_NO":"３號","E_COORD97":177889.34,"N_COORD97":2540550.0899999999,"ADDRESS":"公園八街２０巷３號","OBJECTID":356357},"geometry":{"x":177889.34000000078,"y":2540550.0899999999}},{"attributes":{"ID":356367,"DIS_CODE":0,"TOWNNAME":"歸仁區","LI":"辜厝里","LIN":"33鄰","STREET":"大吉二街","SECT":" ","MAREA":" ","LANE":"２６巷","ALLEY":" ","HOUSE_NO":"３５號","E_COORD97":177282.29000000001,"N_COORD97":2540481.6800000002,"ADDRESS":"大吉二街２６巷３５號","OBJECTID":356358},"geometry":{"x":177282.2900000019,"y":2540481.6799999997}},{"attributes":{"ID":356368,"DIS_CODE":0,"TOWNNAME":"歸仁區","LI":"辜厝里","LIN":"33鄰","STREET":"大吉二街","SECT":" ","MAREA":" ","LANE":"２６巷","ALLEY":" ","HOUSE_NO":"５５號","E_COORD97":177281.98999999999,"N_COORD97":2540419.6800000002,"ADDRESS":"大吉二街２６巷５５號","OBJECTID":356359},"geometry":{"x":177281.99000000115,"y":2540419.6800000016}},{"attributes":{"ID":356369,"DIS_CODE":0,"TOWNNAME":"歸仁區","LI":"南保里","LIN":"33鄰","STREET":"民權八街","SECT":" ","MAREA":" ","LANE":"５３巷","ALLEY":" ","HOUSE_NO":"１２號","E_COORD97":176795.66,"N_COORD97":2540963.25,"ADDRESS":"民權八街５３巷１２號","OBJECTID":356360},"geometry":{"x":176795.66000000108,"y":2540963.25}},{"attributes":{"ID":356370,"DIS_CODE":0,"TOWNNAME":"歸仁區","LI":"南保里","LIN":"33鄰","STREET":"中山路","SECT":"三段","MAREA":" ","LANE":"１００巷","ALLEY":" ","HOUSE_NO":"６號","E_COORD97":176780.06,"N_COORD97":2540956.2799999998,"ADDRESS":"中山路三段１００巷６號","OBJECTID":356361},"geometry":{"x":176780.06000000145,"y":2540956.2799999993}},{"attributes":{"ID":356371,"DIS_CODE":0,"TOWNNAME":"歸仁區","LI":"南興里","LIN":"33鄰","STREET":"民生北街","SECT":" ","MAREA":" ","LANE":"７４巷","ALLEY":" ","HOUSE_NO":"１３號","E_COORD97":176332.64000000001,"N_COORD97":2541132.29,"ADDRESS":"民生北街７４巷１３號","OBJECTID":356362},"geometry":{"x":176332.6400000006,"y":2541132.2899999991}},{"attributes":{"ID":356372,"DIS_CODE":0,"TOWNNAME":"歸仁區","LI":"南興里","LIN":"33鄰","STREET":"民生北街","SECT":" ","MAREA":" ","LANE":"７４巷","ALLEY":" ","HOUSE_NO":"１５號","E_COORD97":176336.73999999999,"N_COORD97":2541132.29,"ADDRESS":"民生北街７４巷１５號","OBJECTID":356363},"geometry":{"x":176336.74000000022,"y":2541132.2899999991}},{"attributes":{"ID":356373,"DIS_CODE":0,"TOWNNAME":"歸仁區","LI":"南興里","LIN":"33鄰","STREET":"民生北街","SECT":" ","MAREA":" ","LANE":"７４巷","ALLEY":" ","HOUSE_NO":"７號","E_COORD97":176318.09,"N_COORD97":2541132.29,"ADDRESS":"民生北街７４巷７號","OBJECTID":356364},"geometry":{"x":176318.08999999985,"y":2541132.2899999991}},{"attributes":{"ID":356374,"DIS_CODE":0,"TOWNNAME":"歸仁區","LI":"南興里","LIN":"33鄰","STREET":"民生北街","SECT":" ","MAREA":" ","LANE":"７４巷","ALLEY":" ","HOUSE_NO":"１７號","E_COORD97":176341.84,"N_COORD97":2541129.29,"ADDRESS":"民生北街７４巷１７號","OBJECTID":356365},"geometry":{"x":176341.83999999985,"y":2541129.2900000028}},{"attributes":{"ID":356375,"DIS_CODE":0,"TOWNNAME":"歸仁區","LI":"南興里","LIN":"33鄰","STREET":"民生北街","SECT":" ","MAREA":" ","LANE":"７４巷","ALLEY":" ","HOUSE_NO":"５號","E_COORD97":176314.98999999999,"N_COORD97":2541132.29,"ADDRESS":"民生北街７４巷５號","OBJECTID":356366},"geometry":{"x":176314.99000000209,"y":2541132.2899999991}},{"attributes":{"ID":356376,"DIS_CODE":0,"TOWNNAME":"永康區","LI":"東灣里","LIN":"1鄰","STREET":"南灣街","SECT":" ","MAREA":" ","LANE":" ","ALLEY":" ","HOUSE_NO":"４０號","E_COORD97":174577.98000000001,"N_COORD97":2544910.6600000001,"ADDRESS":"南灣街４０號","OBJECTID":356367},"geometry":{"x":174577.98000000138,"y":2544910.6600000001}},{"attributes":{"ID":356377,"DIS_CODE":0,"TOWNNAME":"玉井區","LI":"玉田里","LIN":"33鄰","STREET":"民族路","SECT":" ","MAREA":" ","LANE":"２２９巷","ALLEY":" ","HOUSE_NO":"１５號","E_COORD97":195546.63,"N_COORD97":2558127.29,"ADDRESS":"民族路２２９巷１５號","OBJECTID":356368},"geometry":{"x":195546.62999999989,"y":2558127.2899999991}},{"attributes":{"ID":356378,"DIS_CODE":0,"TOWNNAME":"玉井區","LI":"玉田里","LIN":"33鄰","STREET":"忠孝街","SECT":" ","MAREA":" ","LANE":"１９１巷","ALLEY":" ","HOUSE_NO":"８號","E_COORD97":195475.14000000001,"N_COORD97":2558148.25,"ADDRESS":"忠孝街１９１巷８號","OBJECTID":356369},"geometry":{"x":195475.13999999966,"y":2558148.2500000019}},{"attributes":{"ID":356379,"DIS_CODE":0,"TOWNNAME":"玉井區","LI":"玉田里","LIN":"33鄰","STREET":"忠孝街","SECT":" ","MAREA":" ","LANE":"１９１巷","ALLEY":" ","HOUSE_NO":"３號","E_COORD97":195493.22,"N_COORD97":2558131.25,"ADDRESS":"忠孝街１９１巷３號","OBJECTID":356370},"geometry":{"x":195493.21999999974,"y":2558131.2500000019}},{"attributes":{"ID":356380,"DIS_CODE":0,"TOWNNAME":"玉井區","LI":"玉田里","LIN":"33鄰","STREET":"民族路","SECT":" ","MAREA":" ","LANE":"２２９巷","ALLEY":" ","HOUSE_NO":"９號","E_COORD97":195557.38,"N_COORD97":2558126.29,"ADDRESS":"民族路２２９巷９號","OBJECTID":356371},"geometry":{"x":195557.38000000175,"y":2558126.290000001}},{"attributes":{"ID":356381,"DIS_CODE":0,"TOWNNAME":"玉井區","LI":"玉田里","LIN":"33鄰","STREET":"民族路","SECT":" ","MAREA":" ","LANE":"２２９巷","ALLEY":" ","HOUSE_NO":"１１號","E_COORD97":195554.54000000001,"N_COORD97":2558126.29,"ADDRESS":"民族路２２９巷１１號","OBJECTID":356372},"geometry":{"x":195554.54000000004,"y":2558126.290000001}},{"attributes":{"ID":356382,"DIS_CODE":0,"TOWNNAME":"新營區","LI":"新北里","LIN":"33鄰","STREET":"新北八街","SECT":" ","MAREA":" ","LANE":"７６巷","ALLEY":" ","HOUSE_NO":"２６號","E_COORD97":178737.45000000001,"N_COORD97":2579157.9399999999,"ADDRESS":"新北八街７６巷２６號","OBJECTID":356373},"geometry":{"x":178737.44999999925,"y":2579157.9399999995}},{"attributes":{"ID":356383,"DIS_CODE":0,"TOWNNAME":"新營區","LI":"新北里","LIN":"33鄰","STREET":"新北八街","SECT":" ","MAREA":" ","LANE":"７６巷","ALLEY":" ","HOUSE_NO":"６號","E_COORD97":178780.13,"N_COORD97":2579158.8300000001,"ADDRESS":"新北八街７６巷６號","OBJECTID":356374},"geometry":{"x":178780.13000000175,"y":2579158.8300000001}},{"attributes":{"ID":356384,"DIS_CODE":0,"TOWNNAME":"新營區","LI":"新北里","LIN":"33鄰","STREET":"新北八街","SECT":" ","MAREA":" ","LANE":"７６巷","ALLEY":" ","HOUSE_NO":"２８號","E_COORD97":178733.35999999999,"N_COORD97":2579157.96,"ADDRESS":"新北八街７６巷２８號","OBJECTID":356375},"geometry":{"x":178733.3600000022,"y":2579157.9600000028}},{"attributes":{"ID":356385,"DIS_CODE":0,"TOWNNAME":"新營區","LI":"王公里","LIN":"33鄰","STREET":"長榮路","SECT":"一段","MAREA":" ","LANE":"５１５巷","ALLEY":" ","HOUSE_NO":"１號","E_COORD97":180302.19,"N_COORD97":2579837.1000000001,"ADDRESS":"長榮路一段５１５巷１號","OBJECTID":356376},"geometry":{"x":180302.19000000041,"y":2579837.1000000015}},{"attributes":{"ID":356386,"DIS_CODE":0,"TOWNNAME":"新營區","LI":"新北里","LIN":"33鄰","STREET":"新北八街","SECT":" ","MAREA":" ","LANE":"２９巷","ALLEY":" ","HOUSE_NO":"１８號","E_COORD97":178679.57000000001,"N_COORD97":2579260.1000000001,"ADDRESS":"新北八街２９巷１８號","OBJECTID":356377},"geometry":{"x":178679.57000000123,"y":2579260.1000000015}},{"attributes":{"ID":356387,"DIS_CODE":0,"TOWNNAME":"新營區","LI":"新北里","LIN":"33鄰","STREET":"新北八街","SECT":" ","MAREA":" ","LANE":"７６巷","ALLEY":" ","HOUSE_NO":"１８號","E_COORD97":178754.76999999999,"N_COORD97":2579157.8599999999,"ADDRESS":"新北八街７６巷１８號","OBJECTID":356378},"geometry":{"x":178754.76999999955,"y":2579157.8599999994}},{"attributes":{"ID":356388,"DIS_CODE":0,"TOWNNAME":"新營區","LI":"王公里","LIN":"33鄰","STREET":"長榮路","SECT":"一段","MAREA":" ","LANE":"５１５巷","ALLEY":" ","HOUSE_NO":"２１號","E_COORD97":180307.32000000001,"N_COORD97":2579777.2799999998,"ADDRESS":"長榮路一段５１５巷２１號","OBJECTID":356379},"geometry":{"x":180307.32000000123,"y":2579777.2800000012}},{"attributes":{"ID":356389,"DIS_CODE":0,"TOWNNAME":"新營區","LI":"王公里","LIN":"33鄰","STREET":"長榮路","SECT":"一段","MAREA":" ","LANE":"５１５巷","ALLEY":" ","HOUSE_NO":"２９號","E_COORD97":180308.26000000001,"N_COORD97":2579760.6699999999,"ADDRESS":"長榮路一段５１５巷２９號","OBJECTID":356380},"geometry":{"x":180308.26000000164,"y":2579760.6699999999}},{"attributes":{"ID":356390,"DIS_CODE":0,"TOWNNAME":"新營區","LI":"新北里","LIN":"33鄰","STREET":"新北八街","SECT":" ","MAREA":" ","LANE":"７６巷","ALLEY":" ","HOUSE_NO":"１０號","E_COORD97":178772.16,"N_COORD97":2579157.77,"ADDRESS":"新北八街７６巷１０號","OBJECTID":356381},"geometry":{"x":178772.16000000108,"y":2579157.7700000014}},{"attributes":{"ID":356391,"DIS_CODE":0,"TOWNNAME":"歸仁區","LI":"南興里","LIN":"33鄰","STREET":"民生北街","SECT":" ","MAREA":" ","LANE":"７４巷","ALLEY":" ","HOUSE_NO":"３號","E_COORD97":176309.89000000001,"N_COORD97":2541132.29,"ADDRESS":"民生北街７４巷３號","OBJECTID":356382},"geometry":{"x":176309.89000000153,"y":2541132.2899999991}},{"attributes":{"ID":356392,"DIS_CODE":0,"TOWNNAME":"歸仁區","LI":"六甲里","LIN":"33鄰","STREET":"六甲路","SECT":" ","MAREA":" ","LANE":"３０６巷","ALLEY":" ","HOUSE_NO":"１３號","E_COORD97":175685.405822,"N_COORD97":2539286.11063,"ADDRESS":"六甲路３０６巷１３號","OBJECTID":356383},"geometry":{"x":175685.40582200047,"y":2539286.1106289998}},{"attributes":{"ID":356393,"DIS_CODE":0,"TOWNNAME":"歸仁區","LI":"六甲里","LIN":"33鄰","STREET":"六甲路","SECT":" ","MAREA":" ","LANE":"３０６巷","ALLEY":" ","HOUSE_NO":"９號","E_COORD97":175673.75311399999,"N_COORD97":2539258.27648,"ADDRESS":"六甲路３０６巷９號","OBJECTID":356384},"geometry":{"x":175673.75311399996,"y":2539258.2764770016}},{"attributes":{"ID":356394,"DIS_CODE":0,"TOWNNAME":"歸仁區","LI":"南興里","LIN":"33鄰","STREET":"民生北街","SECT":" ","MAREA":" ","LANE":"７４巷","ALLEY":" ","HOUSE_NO":"１１號","E_COORD97":176328.54000000001,"N_COORD97":2541132.29,"ADDRESS":"民生北街７４巷１１號","OBJECTID":356385},"geometry":{"x":176328.54000000097,"y":2541132.2899999991}},{"attributes":{"ID":356395,"DIS_CODE":0,"TOWNNAME":"北區","LI":"成德里","LIN":"33鄰","STREET":"育成路","SECT":" ","MAREA":" ","LANE":"１９１巷","ALLEY":" ","HOUSE_NO":"１７號","E_COORD97":168618.16,"N_COORD97":2546534.6400000001,"ADDRESS":"育成路１９１巷１７號","OBJECTID":356386},"geometry":{"x":168618.16000000108,"y":2546534.6400000006}},{"attributes":{"ID":356396,"DIS_CODE":0,"TOWNNAME":"仁德區","LI":"土庫里","LIN":"4鄰","STREET":"中正路","SECT":"三段","MAREA":" ","LANE":"５２３巷","ALLEY":" ","HOUSE_NO":"８８號","E_COORD97":173727.62,"N_COORD97":2543073.52,"ADDRESS":"中正路三段５２３巷８８號","OBJECTID":356387},"geometry":{"x":173727.62000000104,"y":2543073.5199999996}},{"attributes":{"ID":356397,"DIS_CODE":0,"TOWNNAME":"仁德區","LI":"仁義里","LIN":"53鄰","STREET":"仁義三街","SECT":" ","MAREA":" ","LANE":"３４巷","ALLEY":" ","HOUSE_NO":"５號","E_COORD97":173440.39999999999,"N_COORD97":2541096.5099999998,"ADDRESS":"仁義三街３４巷５號","OBJECTID":356388},"geometry":{"x":173440.40000000037,"y":2541096.5099999998}},{"attributes":{"ID":356398,"DIS_CODE":0,"TOWNNAME":"南區","LI":"金華里","LIN":"33鄰","STREET":"新孝路","SECT":" ","MAREA":" ","LANE":"１７２巷","ALLEY":" ","HOUSE_NO":"１１號","E_COORD97":166457.32000000001,"N_COORD97":2542115.3599999999,"ADDRESS":"新孝路１７２巷１１號","OBJECTID":356389},"geometry":{"x":166457.32000000123,"y":2542115.3599999994}},{"attributes":{"ID":356399,"DIS_CODE":0,"TOWNNAME":"南區","LI":"金華里","LIN":"33鄰","STREET":"新孝路","SECT":" ","MAREA":" ","LANE":"１７２巷","ALLEY":" ","HOUSE_NO":"２１號","E_COORD97":166465.04999999999,"N_COORD97":2542138.7000000002,"ADDRESS":"新孝路１７２巷２１號","OBJECTID":356390},"geometry":{"x":166465.05000000168,"y":2542138.7000000011}},{"attributes":{"ID":356400,"DIS_CODE":0,"TOWNNAME":"南區","LI":"金華里","LIN":"33鄰","STREET":"新孝路","SECT":" ","MAREA":" ","LANE":"１７２巷","ALLEY":" ","HOUSE_NO":"２３號","E_COORD97":166467.51999999999,"N_COORD97":2542144.29,"ADDRESS":"新孝路１７２巷２３號","OBJECTID":356391},"geometry":{"x":166467.51999999955,"y":2542144.290000001}},{"attributes":{"ID":356401,"DIS_CODE":0,"TOWNNAME":"南區","LI":"新興里","LIN":"18鄰","STREET":"仁慈街","SECT":" ","MAREA":" ","LANE":" ","ALLEY":" ","HOUSE_NO":"１０號","E_COORD97":167410.57000000001,"N_COORD97":2542108.79,"ADDRESS":"仁慈街１０號","OBJECTID":356392},"geometry":{"x":167410.5700000003,"y":2542108.7899999991}},{"attributes":{"ID":356402,"DIS_CODE":0,"TOWNNAME":"南區","LI":"金華里","LIN":"33鄰","STREET":"新孝路","SECT":" ","MAREA":" ","LANE":"１７２巷","ALLEY":" ","HOUSE_NO":"２５號","E_COORD97":166468.59,"N_COORD97":2542150,"ADDRESS":"新孝路１７２巷２５號","OBJECTID":356393},"geometry":{"x":166468.59000000078,"y":2542150.0000000019}},{"attributes":{"ID":356403,"DIS_CODE":0,"TOWNNAME":"南區","LI":"金華里","LIN":"33鄰","STREET":"新孝路","SECT":" ","MAREA":" ","LANE":"１７２巷","ALLEY":" ","HOUSE_NO":"２７號","E_COORD97":166470.48999999999,"N_COORD97":2542155.8300000001,"ADDRESS":"新孝路１７２巷２７號","OBJECTID":356394},"geometry":{"x":166470.49000000022,"y":2542155.8300000001}},{"attributes":{"ID":356404,"DIS_CODE":0,"TOWNNAME":"南區","LI":"金華里","LIN":"33鄰","STREET":"新孝路","SECT":" ","MAREA":" ","LANE":"１７２巷","ALLEY":" ","HOUSE_NO":"２９號","E_COORD97":166471.64000000001,"N_COORD97":2542160.77,"ADDRESS":"新孝路１７２巷２９號","OBJECTID":356395},"geometry":{"x":166471.6400000006,"y":2542160.7700000033}},{"attributes":{"ID":356405,"DIS_CODE":0,"TOWNNAME":"南區","LI":"金華里","LIN":"33鄰","STREET":"新孝路","SECT":" ","MAREA":" ","LANE":"１７２巷","ALLEY":" ","HOUSE_NO":"３１號","E_COORD97":166476.32999999999,"N_COORD97":2542171,"ADDRESS":"新孝路１７２巷３１號","OBJECTID":356396},"geometry":{"x":166476.33000000007,"y":2542171.0000000019}},{"attributes":{"ID":356406,"DIS_CODE":0,"TOWNNAME":"南區","LI":"金華里","LIN":"33鄰","STREET":"新孝路","SECT":" ","MAREA":" ","LANE":"１７２巷","ALLEY":" ","HOUSE_NO":"３３號","E_COORD97":166476.98999999999,"N_COORD97":2542176.75,"ADDRESS":"新孝路１７２巷３３號","OBJECTID":356397},"geometry":{"x":166476.99000000022,"y":2542176.75}},{"attributes":{"ID":356407,"DIS_CODE":0,"TOWNNAME":"南區","LI":"金華里","LIN":"33鄰","STREET":"新孝路","SECT":" ","MAREA":" ","LANE":"１７２巷","ALLEY":" ","HOUSE_NO":"３７號","E_COORD97":166490.73000000001,"N_COORD97":2542213.4399999999,"ADDRESS":"新孝路１７２巷３７號","OBJECTID":356398},"geometry":{"x":166490.73000000138,"y":2542213.4399999976}},{"attributes":{"ID":356408,"DIS_CODE":0,"TOWNNAME":"南區","LI":"金華里","LIN":"33鄰","STREET":"新孝路","SECT":" ","MAREA":" ","LANE":"１７２巷","ALLEY":" ","HOUSE_NO":"３９號","E_COORD97":166490.73000000001,"N_COORD97":2542217.96,"ADDRESS":"新孝路１７２巷３９號","OBJECTID":356399},"geometry":{"x":166490.73000000138,"y":2542217.9600000009}},{"attributes":{"ID":356409,"DIS_CODE":0,"TOWNNAME":"南區","LI":"金華里","LIN":"33鄰","STREET":"新孝路","SECT":" ","MAREA":" ","LANE":"１７２巷","ALLEY":" ","HOUSE_NO":"３號","E_COORD97":166451.31,"N_COORD97":2542098.23,"ADDRESS":"新孝路１７２巷３號","OBJECTID":356400},"geometry":{"x":166451.31000000052,"y":2542098.2300000023}}]}