{"displayFieldName":"TOWNNAME","fieldAliases":{"ID":"ID","DIS_CODE":"DIS_CODE","TOWNNAME":"TOWNNAME","LI":"LI","LIN":"LIN","STREET":"STREET","SECT":"SECT","MAREA":"MAREA","LANE":"LANE","ALLEY":"ALLEY","HOUSE_NO":"HOUSE_NO","E_COORD97":"E_COORD97","N_COORD97":"N_COORD97","ADDRESS":"ADDRESS","OBJECTID":"OBJECTID"},"geometryType":"esriGeometryPoint","spatialReference":{"wkid":102443,"latestWkid":3826},"fields":[{"name":"ID","type":"esriFieldTypeDouble","alias":"ID"},{"name":"DIS_CODE","type":"esriFieldTypeInteger","alias":"DIS_CODE"},{"name":"TOWNNAME","type":"esriFieldTypeString","alias":"TOWNNAME","length":8},{"name":"LI","type":"esriFieldTypeString","alias":"LI","length":8},{"name":"LIN","type":"esriFieldTypeString","alias":"LIN","length":12},{"name":"STREET","type":"esriFieldTypeString","alias":"STREET","length":20},{"name":"SECT","type":"esriFieldTypeString","alias":"SECT","length":8},{"name":"MAREA","type":"esriFieldTypeString","alias":"MAREA","length":12},{"name":"LANE","type":"esriFieldTypeString","alias":"LANE","length":10},{"name":"ALLEY","type":"esriFieldTypeString","alias":"ALLEY","length":10},{"name":"HOUSE_NO","type":"esriFieldTypeString","alias":"HOUSE_NO","length":20},{"name":"E_COORD97","type":"esriFieldTypeDouble","alias":"E_COORD97"},{"name":"N_COORD97","type":"esriFieldTypeDouble","alias":"N_COORD97"},{"name":"ADDRESS","type":"esriFieldTypeString","alias":"ADDRESS","length":50},{"name":"OBJECTID","type":"esriFieldTypeOID","alias":"OBJECTID"}],"features":[{"attributes":{"ID":71401,"DIS_CODE":0,"TOWNNAME":"佳里區","LI":"蚶寮里","LIN":"7鄰","STREET":" ","SECT":" ","MAREA":"蚶寮","LANE":" ","ALLEY":" ","HOUSE_NO":"７１號","E_COORD97":163368.35999999999,"N_COORD97":2558746.3199999998,"ADDRESS":"蚶寮７１號","OBJECTID":71401},"geometry":{"x":163368.36000000127,"y":2558746.3200000003}},{"attributes":{"ID":71402,"DIS_CODE":0,"TOWNNAME":"佳里區","LI":"蚶寮里","LIN":"7鄰","STREET":" ","SECT":" ","MAREA":"蚶寮","LANE":" ","ALLEY":" ","HOUSE_NO":"７２號","E_COORD97":163354.04000000001,"N_COORD97":2558736.2400000002,"ADDRESS":"蚶寮７２號","OBJECTID":71402},"geometry":{"x":163354.04000000004,"y":2558736.2400000002}},{"attributes":{"ID":71403,"DIS_CODE":0,"TOWNNAME":"仁德區","LI":"後壁里","LIN":"33鄰","STREET":"德洋二街","SECT":" ","MAREA":" ","LANE":"３９巷","ALLEY":"６３弄","HOUSE_NO":"２號四樓之２","E_COORD97":172206.70999999999,"N_COORD97":2539404.9100000001,"ADDRESS":"德洋二街３９巷６３弄２號四樓之２","OBJECTID":71403},"geometry":{"x":172206.70999999996,"y":2539404.910000002}},{"attributes":{"ID":71404,"DIS_CODE":0,"TOWNNAME":"永康區","LI":"二王里","LIN":"33鄰","STREET":"中山南路","SECT":" ","MAREA":" ","LANE":"４９０巷","ALLEY":"２弄","HOUSE_NO":"６號五樓之３","E_COORD97":172073.19,"N_COORD97":2546425.52,"ADDRESS":"中山南路４９０巷２弄６號五樓之３","OBJECTID":71404},"geometry":{"x":172073.19000000134,"y":2546425.5200000014}},{"attributes":{"ID":71405,"DIS_CODE":0,"TOWNNAME":"永康區","LI":"二王里","LIN":"33鄰","STREET":"中山南路","SECT":" ","MAREA":" ","LANE":"４９０巷","ALLEY":"２弄","HOUSE_NO":"６號五樓之１","E_COORD97":172073.09,"N_COORD97":2546425.52,"ADDRESS":"中山南路４９０巷２弄６號五樓之１","OBJECTID":71405},"geometry":{"x":172073.09000000078,"y":2546425.5200000014}},{"attributes":{"ID":71406,"DIS_CODE":0,"TOWNNAME":"永康區","LI":"二王里","LIN":"33鄰","STREET":"中山南路","SECT":" ","MAREA":" ","LANE":"４９０巷","ALLEY":"２弄","HOUSE_NO":"８號七樓之２","E_COORD97":172058.06,"N_COORD97":2546410.6000000001,"ADDRESS":"中山南路４９０巷２弄８號七樓之２","OBJECTID":71406},"geometry":{"x":172058.05999999959,"y":2546410.6000000015}},{"attributes":{"ID":71407,"DIS_CODE":0,"TOWNNAME":"佳里區","LI":"頂\u25A0里","LIN":"7鄰","STREET":" ","SECT":" ","MAREA":"頂\u25A0","LANE":" ","ALLEY":" ","HOUSE_NO":"７２號","E_COORD97":163127.41,"N_COORD97":2563719.25,"ADDRESS":"頂\u25A0７２號","OBJECTID":71407},"geometry":{"x":163127.41000000108,"y":2563719.25}},{"attributes":{"ID":71408,"DIS_CODE":0,"TOWNNAME":"佳里區","LI":"頂\u25A0里","LIN":"7鄰","STREET":" ","SECT":" ","MAREA":"頂\u25A0","LANE":" ","ALLEY":" ","HOUSE_NO":"７３號","E_COORD97":163106.14000000001,"N_COORD97":2563711.3100000001,"ADDRESS":"頂\u25A0７３號","OBJECTID":71408},"geometry":{"x":163106.14000000153,"y":2563711.3100000024}},{"attributes":{"ID":71409,"DIS_CODE":0,"TOWNNAME":"佳里區","LI":"頂\u25A0里","LIN":"7鄰","STREET":" ","SECT":" ","MAREA":"頂\u25A0","LANE":" ","ALLEY":" ","HOUSE_NO":"７４號之１","E_COORD97":163077.89000000001,"N_COORD97":2563722.8199999998,"ADDRESS":"頂\u25A0７４號之１","OBJECTID":71409},"geometry":{"x":163077.8900000006,"y":2563722.8200000003}},{"attributes":{"ID":71410,"DIS_CODE":0,"TOWNNAME":"永康區","LI":"二王里","LIN":"33鄰","STREET":"中山南路","SECT":" ","MAREA":" ","LANE":"４９０巷","ALLEY":"２弄","HOUSE_NO":"８號八樓之２","E_COORD97":172058.06,"N_COORD97":2546410.6000000001,"ADDRESS":"中山南路４９０巷２弄８號八樓之２","OBJECTID":71410},"geometry":{"x":172058.05999999959,"y":2546410.6000000015}},{"attributes":{"ID":71411,"DIS_CODE":0,"TOWNNAME":"永康區","LI":"二王里","LIN":"33鄰","STREET":"中山南路","SECT":" ","MAREA":" ","LANE":"４９０巷","ALLEY":"２弄","HOUSE_NO":"８號四樓之２","E_COORD97":172058.06,"N_COORD97":2546410.6000000001,"ADDRESS":"中山南路４９０巷２弄８號四樓之２","OBJECTID":71411},"geometry":{"x":172058.05999999959,"y":2546410.6000000015}},{"attributes":{"ID":71412,"DIS_CODE":0,"TOWNNAME":"永康區","LI":"勝利里","LIN":"33鄰","STREET":"中華路","SECT":" ","MAREA":" ","LANE":"７巷","ALLEY":"２０弄","HOUSE_NO":"３８號五樓之２","E_COORD97":171531.62,"N_COORD97":2544441.0499999998,"ADDRESS":"中華路７巷２０弄３８號五樓之２","OBJECTID":71412},"geometry":{"x":171531.62000000011,"y":2544441.0500000007}},{"attributes":{"ID":71413,"DIS_CODE":0,"TOWNNAME":"永康區","LI":"勝利里","LIN":"33鄰","STREET":"中華路","SECT":" ","MAREA":" ","LANE":"７巷","ALLEY":"２０弄","HOUSE_NO":"３８號十四樓之２","E_COORD97":171532.87,"N_COORD97":2544441.0499999998,"ADDRESS":"中華路７巷２０弄３８號十四樓之２","OBJECTID":71413},"geometry":{"x":171532.87000000011,"y":2544441.0500000007}},{"attributes":{"ID":71414,"DIS_CODE":0,"TOWNNAME":"永康區","LI":"勝利里","LIN":"33鄰","STREET":"中華路","SECT":" ","MAREA":" ","LANE":"７巷","ALLEY":"２０弄","HOUSE_NO":"３８號十三樓之３","E_COORD97":171532.84,"N_COORD97":2544441.0499999998,"ADDRESS":"中華路７巷２０弄３８號十三樓之３","OBJECTID":71414},"geometry":{"x":171532.83999999985,"y":2544441.0500000007}},{"attributes":{"ID":71415,"DIS_CODE":0,"TOWNNAME":"永康區","LI":"勝利里","LIN":"33鄰","STREET":"中華路","SECT":" ","MAREA":" ","LANE":"７巷","ALLEY":"２０弄","HOUSE_NO":"３８號六樓之１","E_COORD97":171531.48999999999,"N_COORD97":2544441.0499999998,"ADDRESS":"中華路７巷２０弄３８號六樓之１","OBJECTID":71415},"geometry":{"x":171531.49000000115,"y":2544441.0500000007}},{"attributes":{"ID":71416,"DIS_CODE":0,"TOWNNAME":"永康區","LI":"勝利里","LIN":"33鄰","STREET":"中華路","SECT":" ","MAREA":" ","LANE":"７巷","ALLEY":"２０弄","HOUSE_NO":"３８號十五樓之３","E_COORD97":171532.84,"N_COORD97":2544441.0499999998,"ADDRESS":"中華路７巷２０弄３８號十五樓之３","OBJECTID":71416},"geometry":{"x":171532.83999999985,"y":2544441.0500000007}},{"attributes":{"ID":71417,"DIS_CODE":0,"TOWNNAME":"永康區","LI":"勝利里","LIN":"33鄰","STREET":"中華路","SECT":" ","MAREA":" ","LANE":"７巷","ALLEY":"２０弄","HOUSE_NO":"３６號五樓之４","E_COORD97":171533.10000000001,"N_COORD97":2544457.7999999998,"ADDRESS":"中華路７巷２０弄３６號五樓之４","OBJECTID":71417},"geometry":{"x":171533.10000000149,"y":2544457.8000000026}},{"attributes":{"ID":71418,"DIS_CODE":0,"TOWNNAME":"永康區","LI":"勝利里","LIN":"33鄰","STREET":"中華路","SECT":" ","MAREA":" ","LANE":"７巷","ALLEY":"２０弄","HOUSE_NO":"３８號九樓之２","E_COORD97":171531.62,"N_COORD97":2544441.0499999998,"ADDRESS":"中華路７巷２０弄３８號九樓之２","OBJECTID":71418},"geometry":{"x":171531.62000000011,"y":2544441.0500000007}},{"attributes":{"ID":71419,"DIS_CODE":0,"TOWNNAME":"永康區","LI":"勝利里","LIN":"33鄰","STREET":"中華路","SECT":" ","MAREA":" ","LANE":"７巷","ALLEY":"２０弄","HOUSE_NO":"３６號十七樓之３","E_COORD97":171534.42999999999,"N_COORD97":2544457.7999999998,"ADDRESS":"中華路７巷２０弄３６號十七樓之３","OBJECTID":71419},"geometry":{"x":171534.43000000156,"y":2544457.8000000026}},{"attributes":{"ID":71420,"DIS_CODE":0,"TOWNNAME":"永康區","LI":"勝利里","LIN":"33鄰","STREET":"中華路","SECT":" ","MAREA":" ","LANE":"７巷","ALLEY":"２０弄","HOUSE_NO":"３８號八樓之１","E_COORD97":171531.48999999999,"N_COORD97":2544441.0499999998,"ADDRESS":"中華路７巷２０弄３８號八樓之１","OBJECTID":71420},"geometry":{"x":171531.49000000115,"y":2544441.0500000007}},{"attributes":{"ID":71421,"DIS_CODE":0,"TOWNNAME":"永康區","LI":"勝利里","LIN":"33鄰","STREET":"中華路","SECT":" ","MAREA":" ","LANE":"７巷","ALLEY":"２０弄","HOUSE_NO":"３８號十四樓之５","E_COORD97":171532.89000000001,"N_COORD97":2544441.0499999998,"ADDRESS":"中華路７巷２０弄３８號十四樓之５","OBJECTID":71421},"geometry":{"x":171532.89000000153,"y":2544441.0500000007}},{"attributes":{"ID":71422,"DIS_CODE":0,"TOWNNAME":"永康區","LI":"勝利里","LIN":"33鄰","STREET":"中華路","SECT":" ","MAREA":" ","LANE":"７巷","ALLEY":"２０弄","HOUSE_NO":"３６號五樓之２","E_COORD97":171533.20999999999,"N_COORD97":2544457.7999999998,"ADDRESS":"中華路７巷２０弄３６號五樓之２","OBJECTID":71422},"geometry":{"x":171533.21000000089,"y":2544457.8000000026}},{"attributes":{"ID":71423,"DIS_CODE":0,"TOWNNAME":"永康區","LI":"勝利里","LIN":"33鄰","STREET":"中華路","SECT":" ","MAREA":" ","LANE":"７巷","ALLEY":"２０弄","HOUSE_NO":"３６號十六樓之３","E_COORD97":171534.42999999999,"N_COORD97":2544457.7999999998,"ADDRESS":"中華路７巷２０弄３６號十六樓之３","OBJECTID":71423},"geometry":{"x":171534.43000000156,"y":2544457.8000000026}},{"attributes":{"ID":71424,"DIS_CODE":0,"TOWNNAME":"永康區","LI":"勝利里","LIN":"33鄰","STREET":"中華路","SECT":" ","MAREA":" ","LANE":"７巷","ALLEY":"２０弄","HOUSE_NO":"３８號五樓之５","E_COORD97":171531.64000000001,"N_COORD97":2544441.0499999998,"ADDRESS":"中華路７巷２０弄３８號五樓之５","OBJECTID":71424},"geometry":{"x":171531.6400000006,"y":2544441.0500000007}},{"attributes":{"ID":71425,"DIS_CODE":0,"TOWNNAME":"永康區","LI":"勝利里","LIN":"33鄰","STREET":"中華路","SECT":" ","MAREA":" ","LANE":"７巷","ALLEY":"２０弄","HOUSE_NO":"３８號五樓之４","E_COORD97":171531.51000000001,"N_COORD97":2544441.0499999998,"ADDRESS":"中華路７巷２０弄３８號五樓之４","OBJECTID":71425},"geometry":{"x":171531.50999999978,"y":2544441.0500000007}},{"attributes":{"ID":71426,"DIS_CODE":0,"TOWNNAME":"永康區","LI":"勝利里","LIN":"33鄰","STREET":"中華路","SECT":" ","MAREA":" ","LANE":"７巷","ALLEY":"２０弄","HOUSE_NO":"３６號五樓之５","E_COORD97":171533.23000000001,"N_COORD97":2544457.7999999998,"ADDRESS":"中華路７巷２０弄３６號五樓之５","OBJECTID":71426},"geometry":{"x":171533.23000000138,"y":2544457.8000000026}},{"attributes":{"ID":71427,"DIS_CODE":0,"TOWNNAME":"永康區","LI":"勝利里","LIN":"33鄰","STREET":"中華路","SECT":" ","MAREA":" ","LANE":"７巷","ALLEY":"２０弄","HOUSE_NO":"３８號九樓之４","E_COORD97":171531.51000000001,"N_COORD97":2544441.0499999998,"ADDRESS":"中華路７巷２０弄３８號九樓之４","OBJECTID":71427},"geometry":{"x":171531.50999999978,"y":2544441.0500000007}},{"attributes":{"ID":71428,"DIS_CODE":0,"TOWNNAME":"永康區","LI":"勝利里","LIN":"33鄰","STREET":"中華路","SECT":" ","MAREA":" ","LANE":"７巷","ALLEY":"２０弄","HOUSE_NO":"３６號十二樓之１","E_COORD97":171534.32999999999,"N_COORD97":2544457.7999999998,"ADDRESS":"中華路７巷２０弄３６號十二樓之１","OBJECTID":71428},"geometry":{"x":171534.33000000101,"y":2544457.8000000026}},{"attributes":{"ID":71429,"DIS_CODE":0,"TOWNNAME":"永康區","LI":"勝利里","LIN":"33鄰","STREET":"中華路","SECT":" ","MAREA":" ","LANE":"７巷","ALLEY":"２０弄","HOUSE_NO":"３８號六樓之６","E_COORD97":171531.51000000001,"N_COORD97":2544441.0499999998,"ADDRESS":"中華路７巷２０弄３８號六樓之６","OBJECTID":71429},"geometry":{"x":171531.50999999978,"y":2544441.0500000007}},{"attributes":{"ID":71430,"DIS_CODE":0,"TOWNNAME":"永康區","LI":"勝利里","LIN":"33鄰","STREET":"中華路","SECT":" ","MAREA":" ","LANE":"７巷","ALLEY":"２０弄","HOUSE_NO":"３８號十六樓之５","E_COORD97":171532.89000000001,"N_COORD97":2544441.0499999998,"ADDRESS":"中華路７巷２０弄３８號十六樓之５","OBJECTID":71430},"geometry":{"x":171532.89000000153,"y":2544441.0500000007}},{"attributes":{"ID":71431,"DIS_CODE":0,"TOWNNAME":"永康區","LI":"勝利里","LIN":"33鄰","STREET":"中華路","SECT":" ","MAREA":" ","LANE":"７巷","ALLEY":"２０弄","HOUSE_NO":"３８號十六樓之１","E_COORD97":171532.73999999999,"N_COORD97":2544441.0499999998,"ADDRESS":"中華路７巷２０弄３８號十六樓之１","OBJECTID":71431},"geometry":{"x":171532.74000000209,"y":2544441.0500000007}},{"attributes":{"ID":71432,"DIS_CODE":0,"TOWNNAME":"永康區","LI":"勝利里","LIN":"33鄰","STREET":"中華路","SECT":" ","MAREA":" ","LANE":"７巷","ALLEY":"２０弄","HOUSE_NO":"３８號八樓之４","E_COORD97":171531.51000000001,"N_COORD97":2544441.0499999998,"ADDRESS":"中華路７巷２０弄３８號八樓之４","OBJECTID":71432},"geometry":{"x":171531.50999999978,"y":2544441.0500000007}},{"attributes":{"ID":71433,"DIS_CODE":0,"TOWNNAME":"永康區","LI":"勝利里","LIN":"33鄰","STREET":"中華路","SECT":" ","MAREA":" ","LANE":"７巷","ALLEY":"２０弄","HOUSE_NO":"３８號八樓之５","E_COORD97":171531.64000000001,"N_COORD97":2544441.0499999998,"ADDRESS":"中華路７巷２０弄３８號八樓之５","OBJECTID":71433},"geometry":{"x":171531.6400000006,"y":2544441.0500000007}},{"attributes":{"ID":71434,"DIS_CODE":0,"TOWNNAME":"永康區","LI":"勝利里","LIN":"33鄰","STREET":"中華路","SECT":" ","MAREA":" ","LANE":"７巷","ALLEY":"２０弄","HOUSE_NO":"３８號四樓之５","E_COORD97":171531.64000000001,"N_COORD97":2544441.0499999998,"ADDRESS":"中華路７巷２０弄３８號四樓之５","OBJECTID":71434},"geometry":{"x":171531.6400000006,"y":2544441.0500000007}},{"attributes":{"ID":71435,"DIS_CODE":0,"TOWNNAME":"永康區","LI":"勝利里","LIN":"33鄰","STREET":"中華路","SECT":" ","MAREA":" ","LANE":"７巷","ALLEY":"２０弄","HOUSE_NO":"３６號十樓之４","E_COORD97":171533.10000000001,"N_COORD97":2544457.7999999998,"ADDRESS":"中華路７巷２０弄３６號十樓之４","OBJECTID":71435},"geometry":{"x":171533.10000000149,"y":2544457.8000000026}},{"attributes":{"ID":71436,"DIS_CODE":0,"TOWNNAME":"永康區","LI":"勝利里","LIN":"33鄰","STREET":"中華路","SECT":" ","MAREA":" ","LANE":"７巷","ALLEY":"２０弄","HOUSE_NO":"３６號六樓之５","E_COORD97":171533.23000000001,"N_COORD97":2544457.7999999998,"ADDRESS":"中華路７巷２０弄３６號六樓之５","OBJECTID":71436},"geometry":{"x":171533.23000000138,"y":2544457.8000000026}},{"attributes":{"ID":71437,"DIS_CODE":0,"TOWNNAME":"永康區","LI":"勝利里","LIN":"33鄰","STREET":"中華路","SECT":" ","MAREA":" ","LANE":"７巷","ALLEY":"２０弄","HOUSE_NO":"３８號十一樓之３","E_COORD97":171532.84,"N_COORD97":2544441.0499999998,"ADDRESS":"中華路７巷２０弄３８號十一樓之３","OBJECTID":71437},"geometry":{"x":171532.83999999985,"y":2544441.0500000007}},{"attributes":{"ID":71438,"DIS_CODE":0,"TOWNNAME":"南化區","LI":"小崙里","LIN":"6鄰","STREET":" ","SECT":" ","MAREA":"小崙","LANE":" ","ALLEY":" ","HOUSE_NO":"７１號","E_COORD97":197631.26999999999,"N_COORD97":2549939.75,"ADDRESS":"小崙７１號","OBJECTID":71438},"geometry":{"x":197631.27000000048,"y":2549939.7500000019}},{"attributes":{"ID":71439,"DIS_CODE":0,"TOWNNAME":"永康區","LI":"勝利里","LIN":"33鄰","STREET":"中華路","SECT":" ","MAREA":" ","LANE":"７巷","ALLEY":"２０弄","HOUSE_NO":"３６號十一樓之３","E_COORD97":171534.42999999999,"N_COORD97":2544457.7999999998,"ADDRESS":"中華路７巷２０弄３６號十一樓之３","OBJECTID":71439},"geometry":{"x":171534.43000000156,"y":2544457.8000000026}},{"attributes":{"ID":71440,"DIS_CODE":0,"TOWNNAME":"永康區","LI":"勝利里","LIN":"33鄰","STREET":"中華路","SECT":" ","MAREA":" ","LANE":"７巷","ALLEY":"２０弄","HOUSE_NO":"３６號四樓之１","E_COORD97":171533.07999999999,"N_COORD97":2544457.7999999998,"ADDRESS":"中華路７巷２０弄３６號四樓之１","OBJECTID":71440},"geometry":{"x":171533.08000000007,"y":2544457.8000000026}},{"attributes":{"ID":71441,"DIS_CODE":0,"TOWNNAME":"永康區","LI":"勝利里","LIN":"33鄰","STREET":"中華路","SECT":" ","MAREA":" ","LANE":"７巷","ALLEY":"２０弄","HOUSE_NO":"３６號八樓之２","E_COORD97":171533.20999999999,"N_COORD97":2544457.7999999998,"ADDRESS":"中華路７巷２０弄３６號八樓之２","OBJECTID":71441},"geometry":{"x":171533.21000000089,"y":2544457.8000000026}},{"attributes":{"ID":71442,"DIS_CODE":0,"TOWNNAME":"東山區","LI":"科里里","LIN":"6鄰","STREET":" ","SECT":" ","MAREA":"科里","LANE":" ","ALLEY":" ","HOUSE_NO":"１７號","E_COORD97":189866.67999999999,"N_COORD97":2578332.6400000001,"ADDRESS":"科里１７號","OBJECTID":71442},"geometry":{"x":189866.68000000063,"y":2578332.6400000025}},{"attributes":{"ID":71443,"DIS_CODE":0,"TOWNNAME":"永康區","LI":"勝利里","LIN":"33鄰","STREET":"中華路","SECT":" ","MAREA":" ","LANE":"７巷","ALLEY":"２０弄","HOUSE_NO":"３６號十五樓之３","E_COORD97":171534.42999999999,"N_COORD97":2544457.7999999998,"ADDRESS":"中華路７巷２０弄３６號十五樓之３","OBJECTID":71443},"geometry":{"x":171534.43000000156,"y":2544457.8000000026}},{"attributes":{"ID":71444,"DIS_CODE":0,"TOWNNAME":"永康區","LI":"勝利里","LIN":"33鄰","STREET":"中華路","SECT":" ","MAREA":" ","LANE":"７巷","ALLEY":"２０弄","HOUSE_NO":"３６號十二樓之５","E_COORD97":171534.48000000001,"N_COORD97":2544457.7999999998,"ADDRESS":"中華路７巷２０弄３６號十二樓之５","OBJECTID":71444},"geometry":{"x":171534.48000000045,"y":2544457.8000000026}},{"attributes":{"ID":71445,"DIS_CODE":0,"TOWNNAME":"永康區","LI":"勝利里","LIN":"33鄰","STREET":"中華路","SECT":" ","MAREA":" ","LANE":"７巷","ALLEY":"２０弄","HOUSE_NO":"３６號六樓之１","E_COORD97":171533.07999999999,"N_COORD97":2544457.7999999998,"ADDRESS":"中華路７巷２０弄３６號六樓之１","OBJECTID":71445},"geometry":{"x":171533.08000000007,"y":2544457.8000000026}},{"attributes":{"ID":71446,"DIS_CODE":0,"TOWNNAME":"永康區","LI":"勝利里","LIN":"33鄰","STREET":"中華路","SECT":" ","MAREA":" ","LANE":"７巷","ALLEY":"２０弄","HOUSE_NO":"３８號十一樓之４","E_COORD97":171532.76000000001,"N_COORD97":2544441.0499999998,"ADDRESS":"中華路７巷２０弄３８號十一樓之４","OBJECTID":71446},"geometry":{"x":171532.76000000071,"y":2544441.0500000007}},{"attributes":{"ID":71447,"DIS_CODE":0,"TOWNNAME":"永康區","LI":"勝利里","LIN":"33鄰","STREET":"中華路","SECT":" ","MAREA":" ","LANE":"７巷","ALLEY":"２０弄","HOUSE_NO":"３８號十二樓之２","E_COORD97":171532.87,"N_COORD97":2544441.0499999998,"ADDRESS":"中華路７巷２０弄３８號十二樓之２","OBJECTID":71447},"geometry":{"x":171532.87000000011,"y":2544441.0500000007}},{"attributes":{"ID":71448,"DIS_CODE":0,"TOWNNAME":"永康區","LI":"勝利里","LIN":"33鄰","STREET":"中華路","SECT":" ","MAREA":" ","LANE":"７巷","ALLEY":"２０弄","HOUSE_NO":"３８號六樓之２","E_COORD97":171531.62,"N_COORD97":2544441.0499999998,"ADDRESS":"中華路７巷２０弄３８號六樓之２","OBJECTID":71448},"geometry":{"x":171531.62000000011,"y":2544441.0500000007}},{"attributes":{"ID":71449,"DIS_CODE":0,"TOWNNAME":"永康區","LI":"勝利里","LIN":"33鄰","STREET":"中華路","SECT":" ","MAREA":" ","LANE":"７巷","ALLEY":"２０弄","HOUSE_NO":"３８號十五樓之５","E_COORD97":171532.89000000001,"N_COORD97":2544441.0499999998,"ADDRESS":"中華路７巷２０弄３８號十五樓之５","OBJECTID":71449},"geometry":{"x":171532.89000000153,"y":2544441.0500000007}},{"attributes":{"ID":71450,"DIS_CODE":0,"TOWNNAME":"東區","LI":"路東里","LIN":"7鄰","STREET":"大同路","SECT":"二段","MAREA":" ","LANE":"６１巷","ALLEY":" ","HOUSE_NO":"７號","E_COORD97":169363.92000000001,"N_COORD97":2542255.3399999999,"ADDRESS":"大同路二段６１巷７號","OBJECTID":71450},"geometry":{"x":169363.92000000086,"y":2542255.3400000036}},{"attributes":{"ID":71451,"DIS_CODE":0,"TOWNNAME":"麻豆區","LI":"中興里","LIN":"8鄰","STREET":"和平路","SECT":" ","MAREA":" ","LANE":" ","ALLEY":" ","HOUSE_NO":"１２號之３２","E_COORD97":172889.07000000001,"N_COORD97":2564394.8100000001,"ADDRESS":"和平路１２號之３２","OBJECTID":71451},"geometry":{"x":172889.07000000123,"y":2564394.8100000005}},{"attributes":{"ID":71452,"DIS_CODE":0,"TOWNNAME":"麻豆區","LI":"中興里","LIN":"8鄰","STREET":"和平路","SECT":" ","MAREA":" ","LANE":" ","ALLEY":" ","HOUSE_NO":"１２號之３３","E_COORD97":172893.92999999999,"N_COORD97":2564395.4399999999,"ADDRESS":"和平路１２號之３３","OBJECTID":71452},"geometry":{"x":172893.93000000156,"y":2564395.4399999995}},{"attributes":{"ID":71453,"DIS_CODE":0,"TOWNNAME":"學甲區","LI":"大灣里","LIN":"7鄰","STREET":" ","SECT":" ","MAREA":"大灣","LANE":" ","ALLEY":" ","HOUSE_NO":"７４號","E_COORD97":166955.59,"N_COORD97":2567733.6400000001,"ADDRESS":"大灣７４號","OBJECTID":71453},"geometry":{"x":166955.58999999985,"y":2567733.6400000025}},{"attributes":{"ID":71454,"DIS_CODE":0,"TOWNNAME":"學甲區","LI":"大灣里","LIN":"7鄰","STREET":" ","SECT":" ","MAREA":"大灣","LANE":" ","ALLEY":" ","HOUSE_NO":"７５號","E_COORD97":166942,"N_COORD97":2567761.5299999998,"ADDRESS":"大灣７５號","OBJECTID":71454},"geometry":{"x":166942.00000000186,"y":2567761.5299999993}},{"attributes":{"ID":71455,"DIS_CODE":0,"TOWNNAME":"學甲區","LI":"大灣里","LIN":"7鄰","STREET":" ","SECT":" ","MAREA":"大灣","LANE":" ","ALLEY":" ","HOUSE_NO":"７６號","E_COORD97":166916.76000000001,"N_COORD97":2567760.3700000001,"ADDRESS":"大灣７６號","OBJECTID":71455},"geometry":{"x":166916.76000000071,"y":2567760.3700000029}},{"attributes":{"ID":71456,"DIS_CODE":0,"TOWNNAME":"學甲區","LI":"大灣里","LIN":"7鄰","STREET":" ","SECT":" ","MAREA":"大灣","LANE":" ","ALLEY":" ","HOUSE_NO":"７７號","E_COORD97":166924.29999999999,"N_COORD97":2567728.2000000002,"ADDRESS":"大灣７７號","OBJECTID":71456},"geometry":{"x":166924.29999999888,"y":2567728.2000000011}},{"attributes":{"ID":71457,"DIS_CODE":0,"TOWNNAME":"學甲區","LI":"中洲里","LIN":"7鄰","STREET":" ","SECT":" ","MAREA":"中洲","LANE":" ","ALLEY":" ","HOUSE_NO":"７１號","E_COORD97":163861.88,"N_COORD97":2571425.8300000001,"ADDRESS":"中洲７１號","OBJECTID":71457},"geometry":{"x":163861.87999999989,"y":2571425.8300000001}},{"attributes":{"ID":71458,"DIS_CODE":0,"TOWNNAME":"學甲區","LI":"中洲里","LIN":"7鄰","STREET":" ","SECT":" ","MAREA":"中洲","LANE":" ","ALLEY":" ","HOUSE_NO":"７３號","E_COORD97":163883.34,"N_COORD97":2571423.7400000002,"ADDRESS":"中洲７３號","OBJECTID":71458},"geometry":{"x":163883.34000000078,"y":2571423.7399999984}},{"attributes":{"ID":71459,"DIS_CODE":0,"TOWNNAME":"永康區","LI":"勝利里","LIN":"33鄰","STREET":"中華路","SECT":" ","MAREA":" ","LANE":"７巷","ALLEY":"２０弄","HOUSE_NO":"３６號六樓之３","E_COORD97":171533.17999999999,"N_COORD97":2544457.7999999998,"ADDRESS":"中華路７巷２０弄３６號六樓之３","OBJECTID":71459},"geometry":{"x":171533.18000000063,"y":2544457.8000000026}},{"attributes":{"ID":71460,"DIS_CODE":0,"TOWNNAME":"學甲區","LI":"中洲里","LIN":"7鄰","STREET":" ","SECT":" ","MAREA":"中洲","LANE":" ","ALLEY":" ","HOUSE_NO":"７４號","E_COORD97":163884.06,"N_COORD97":2571389.9100000001,"ADDRESS":"中洲７４號","OBJECTID":71460},"geometry":{"x":163884.05999999959,"y":2571389.910000002}},{"attributes":{"ID":71461,"DIS_CODE":0,"TOWNNAME":"學甲區","LI":"中洲里","LIN":"7鄰","STREET":" ","SECT":" ","MAREA":"中洲","LANE":" ","ALLEY":" ","HOUSE_NO":"７５號","E_COORD97":163872.82999999999,"N_COORD97":2571398.46,"ADDRESS":"中洲７５號","OBJECTID":71461},"geometry":{"x":163872.83000000007,"y":2571398.4600000009}},{"attributes":{"ID":71462,"DIS_CODE":0,"TOWNNAME":"學甲區","LI":"中洲里","LIN":"7鄰","STREET":" ","SECT":" ","MAREA":"中洲","LANE":" ","ALLEY":" ","HOUSE_NO":"７６號之１","E_COORD97":163853.23000000001,"N_COORD97":2571364.0299999998,"ADDRESS":"中洲７６號之１","OBJECTID":71462},"geometry":{"x":163853.23000000045,"y":2571364.0300000012}},{"attributes":{"ID":71463,"DIS_CODE":0,"TOWNNAME":"學甲區","LI":"中洲里","LIN":"7鄰","STREET":" ","SECT":" ","MAREA":"中洲","LANE":" ","ALLEY":" ","HOUSE_NO":"７６號之２","E_COORD97":163882.39999999999,"N_COORD97":2571366.1000000001,"ADDRESS":"中洲７６號之２","OBJECTID":71463},"geometry":{"x":163882.40000000037,"y":2571366.0999999996}},{"attributes":{"ID":71464,"DIS_CODE":0,"TOWNNAME":"永康區","LI":"勝利里","LIN":"33鄰","STREET":"中華路","SECT":" ","MAREA":" ","LANE":"７巷","ALLEY":"２０弄","HOUSE_NO":"３６號四樓之６","E_COORD97":171533.17999999999,"N_COORD97":2544457.7999999998,"ADDRESS":"中華路７巷２０弄３６號四樓之６","OBJECTID":71464},"geometry":{"x":171533.18000000063,"y":2544457.8000000026}},{"attributes":{"ID":71465,"DIS_CODE":0,"TOWNNAME":"將軍區","LI":"長榮里","LIN":"6鄰","STREET":" ","SECT":" ","MAREA":"長榮","LANE":" ","ALLEY":" ","HOUSE_NO":"６５之８０號","E_COORD97":165275.53,"N_COORD97":2566283.5499999998,"ADDRESS":"長榮６５之８０號","OBJECTID":71465},"geometry":{"x":165275.52999999933,"y":2566283.5500000026}},{"attributes":{"ID":71466,"DIS_CODE":0,"TOWNNAME":"將軍區","LI":"長榮里","LIN":"6鄰","STREET":" ","SECT":" ","MAREA":"長榮","LANE":" ","ALLEY":" ","HOUSE_NO":"６６之１０號","E_COORD97":164225.19,"N_COORD97":2566098.8900000001,"ADDRESS":"長榮６６之１０號","OBJECTID":71466},"geometry":{"x":164225.19000000041,"y":2566098.8900000006}},{"attributes":{"ID":71467,"DIS_CODE":0,"TOWNNAME":"將軍區","LI":"長榮里","LIN":"6鄰","STREET":" ","SECT":" ","MAREA":"長榮","LANE":" ","ALLEY":" ","HOUSE_NO":"６６之２號","E_COORD97":164153.57000000001,"N_COORD97":2566200.79,"ADDRESS":"長榮６６之２號","OBJECTID":71467},"geometry":{"x":164153.57000000123,"y":2566200.7899999991}},{"attributes":{"ID":71468,"DIS_CODE":0,"TOWNNAME":"將軍區","LI":"長榮里","LIN":"6鄰","STREET":" ","SECT":" ","MAREA":"長榮","LANE":" ","ALLEY":" ","HOUSE_NO":"６６之８號","E_COORD97":164102.03,"N_COORD97":2566246.2999999998,"ADDRESS":"長榮６６之８號","OBJECTID":71468},"geometry":{"x":164102.03000000026,"y":2566246.3000000007}},{"attributes":{"ID":71469,"DIS_CODE":0,"TOWNNAME":"永康區","LI":"勝利里","LIN":"33鄰","STREET":"中華路","SECT":" ","MAREA":" ","LANE":"７巷","ALLEY":"２０弄","HOUSE_NO":"３６號四樓之２","E_COORD97":171533.20999999999,"N_COORD97":2544457.7999999998,"ADDRESS":"中華路７巷２０弄３６號四樓之２","OBJECTID":71469},"geometry":{"x":171533.21000000089,"y":2544457.8000000026}},{"attributes":{"ID":71470,"DIS_CODE":0,"TOWNNAME":"將軍區","LI":"長榮里","LIN":"6鄰","STREET":" ","SECT":" ","MAREA":"長榮","LANE":" ","ALLEY":" ","HOUSE_NO":"６７之１號","E_COORD97":164076.54000000001,"N_COORD97":2566211.5600000001,"ADDRESS":"長榮６７之１號","OBJECTID":71470},"geometry":{"x":164076.54000000004,"y":2566211.5600000024}},{"attributes":{"ID":71471,"DIS_CODE":0,"TOWNNAME":"將軍區","LI":"苓和里","LIN":"6鄰","STREET":" ","SECT":" ","MAREA":"苓和","LANE":" ","ALLEY":" ","HOUSE_NO":"６１之１號","E_COORD97":164570.97,"N_COORD97":2568929.75,"ADDRESS":"苓和６１之１號","OBJECTID":71471},"geometry":{"x":164570.97000000067,"y":2568929.7500000019}},{"attributes":{"ID":71472,"DIS_CODE":0,"TOWNNAME":"永康區","LI":"勝利里","LIN":"33鄰","STREET":"中華路","SECT":" ","MAREA":" ","LANE":"７巷","ALLEY":"２０弄","HOUSE_NO":"３８號八樓之２","E_COORD97":171531.62,"N_COORD97":2544441.0499999998,"ADDRESS":"中華路７巷２０弄３８號八樓之２","OBJECTID":71472},"geometry":{"x":171531.62000000011,"y":2544441.0500000007}},{"attributes":{"ID":71473,"DIS_CODE":0,"TOWNNAME":"將軍區","LI":"長榮里","LIN":"6鄰","STREET":" ","SECT":" ","MAREA":"長榮","LANE":" ","ALLEY":" ","HOUSE_NO":"６７之２１號","E_COORD97":164416.12,"N_COORD97":2566118.8599999999,"ADDRESS":"長榮６７之２１號","OBJECTID":71473},"geometry":{"x":164416.12000000104,"y":2566118.8599999994}},{"attributes":{"ID":71474,"DIS_CODE":0,"TOWNNAME":"將軍區","LI":"長榮里","LIN":"6鄰","STREET":" ","SECT":" ","MAREA":"長榮","LANE":" ","ALLEY":" ","HOUSE_NO":"６７之２２號","E_COORD97":164412.03,"N_COORD97":2566119,"ADDRESS":"長榮６７之２２號","OBJECTID":71474},"geometry":{"x":164412.03000000026,"y":2566119}},{"attributes":{"ID":71475,"DIS_CODE":0,"TOWNNAME":"將軍區","LI":"長榮里","LIN":"6鄰","STREET":" ","SECT":" ","MAREA":"長榮","LANE":" ","ALLEY":" ","HOUSE_NO":"６７之２３號","E_COORD97":164407.76000000001,"N_COORD97":2566119.8599999999,"ADDRESS":"長榮６７之２３號","OBJECTID":71475},"geometry":{"x":164407.76000000071,"y":2566119.8600000031}},{"attributes":{"ID":71476,"DIS_CODE":0,"TOWNNAME":"將軍區","LI":"長榮里","LIN":"6鄰","STREET":" ","SECT":" ","MAREA":"長榮","LANE":" ","ALLEY":" ","HOUSE_NO":"６７之２４號","E_COORD97":164403.48999999999,"N_COORD97":2566120.02,"ADDRESS":"長榮６７之２４號","OBJECTID":71476},"geometry":{"x":164403.49000000115,"y":2566120.0200000014}},{"attributes":{"ID":71477,"DIS_CODE":0,"TOWNNAME":"將軍區","LI":"長榮里","LIN":"6鄰","STREET":" ","SECT":" ","MAREA":"長榮","LANE":" ","ALLEY":" ","HOUSE_NO":"６７之２５號","E_COORD97":164408.89999999999,"N_COORD97":2566100.5899999999,"ADDRESS":"長榮６７之２５號","OBJECTID":71477},"geometry":{"x":164408.9000000013,"y":2566100.5899999999}},{"attributes":{"ID":71478,"DIS_CODE":0,"TOWNNAME":"將軍區","LI":"長榮里","LIN":"6鄰","STREET":" ","SECT":" ","MAREA":"長榮","LANE":" ","ALLEY":" ","HOUSE_NO":"６７之２６號","E_COORD97":164408.39999999999,"N_COORD97":2566095.46,"ADDRESS":"長榮６７之２６號","OBJECTID":71478},"geometry":{"x":164408.40000000037,"y":2566095.4600000009}},{"attributes":{"ID":71479,"DIS_CODE":0,"TOWNNAME":"學甲區","LI":"新達里","LIN":"7鄰","STREET":"中正路","SECT":" ","MAREA":" ","LANE":" ","ALLEY":" ","HOUSE_NO":"４８４號","E_COORD97":166821.67999999999,"N_COORD97":2571247.0899999999,"ADDRESS":"中正路４８４號","OBJECTID":71479},"geometry":{"x":166821.68000000156,"y":2571247.0899999999}},{"attributes":{"ID":71480,"DIS_CODE":0,"TOWNNAME":"歸仁區","LI":"崙頂里","LIN":"7鄰","STREET":"崙頂三街","SECT":" ","MAREA":" ","LANE":" ","ALLEY":" ","HOUSE_NO":"９３號","E_COORD97":178046.37,"N_COORD97":2539943.6800000002,"ADDRESS":"崙頂三街９３號","OBJECTID":71480},"geometry":{"x":178046.37000000197,"y":2539943.6799999997}},{"attributes":{"ID":71481,"DIS_CODE":0,"TOWNNAME":"將軍區","LI":"長榮里","LIN":"6鄰","STREET":" ","SECT":" ","MAREA":"長榮","LANE":" ","ALLEY":" ","HOUSE_NO":"６７之２７號","E_COORD97":164409.85999999999,"N_COORD97":2566089.8300000001,"ADDRESS":"長榮６７之２７號","OBJECTID":71481},"geometry":{"x":164409.86000000034,"y":2566089.8299999982}},{"attributes":{"ID":71482,"DIS_CODE":0,"TOWNNAME":"永康區","LI":"勝利里","LIN":"33鄰","STREET":"中華路","SECT":" ","MAREA":" ","LANE":"７巷","ALLEY":"２０弄","HOUSE_NO":"３８號十七樓之３","E_COORD97":171532.84,"N_COORD97":2544441.0499999998,"ADDRESS":"中華路７巷２０弄３８號十七樓之３","OBJECTID":71482},"geometry":{"x":171532.83999999985,"y":2544441.0500000007}},{"attributes":{"ID":71483,"DIS_CODE":0,"TOWNNAME":"永康區","LI":"勝利里","LIN":"33鄰","STREET":"中華路","SECT":" ","MAREA":" ","LANE":"７巷","ALLEY":"２０弄","HOUSE_NO":"３６號十一樓之２","E_COORD97":171534.45999999999,"N_COORD97":2544457.7999999998,"ADDRESS":"中華路７巷２０弄３６號十一樓之２","OBJECTID":71483},"geometry":{"x":171534.46000000183,"y":2544457.8000000026}},{"attributes":{"ID":71484,"DIS_CODE":0,"TOWNNAME":"將軍區","LI":"長榮里","LIN":"6鄰","STREET":" ","SECT":" ","MAREA":"長榮","LANE":" ","ALLEY":" ","HOUSE_NO":"６７之２８號","E_COORD97":164409.14000000001,"N_COORD97":2566083.1400000001,"ADDRESS":"長榮６７之２８號","OBJECTID":71484},"geometry":{"x":164409.13999999966,"y":2566083.1400000025}},{"attributes":{"ID":71485,"DIS_CODE":0,"TOWNNAME":"將軍區","LI":"長榮里","LIN":"6鄰","STREET":" ","SECT":" ","MAREA":"長榮","LANE":" ","ALLEY":" ","HOUSE_NO":"６７之２９號","E_COORD97":164420.25,"N_COORD97":2566067.7000000002,"ADDRESS":"長榮６７之２９號","OBJECTID":71485},"geometry":{"x":164420.25000000093,"y":2566067.7000000011}},{"attributes":{"ID":71486,"DIS_CODE":0,"TOWNNAME":"將軍區","LI":"長榮里","LIN":"6鄰","STREET":" ","SECT":" ","MAREA":"長榮","LANE":" ","ALLEY":" ","HOUSE_NO":"６７之２號","E_COORD97":164085.34,"N_COORD97":2566204.75,"ADDRESS":"長榮６７之２號","OBJECTID":71486},"geometry":{"x":164085.34000000078,"y":2566204.75}},{"attributes":{"ID":71487,"DIS_CODE":0,"TOWNNAME":"將軍區","LI":"長榮里","LIN":"6鄰","STREET":" ","SECT":" ","MAREA":"長榮","LANE":" ","ALLEY":" ","HOUSE_NO":"６７之８號","E_COORD97":164650.97,"N_COORD97":2566070.9399999999,"ADDRESS":"長榮６７之８號","OBJECTID":71487},"geometry":{"x":164650.96999999974,"y":2566070.9399999995}},{"attributes":{"ID":71488,"DIS_CODE":0,"TOWNNAME":"將軍區","LI":"長榮里","LIN":"6鄰","STREET":" ","SECT":" ","MAREA":"長榮","LANE":" ","ALLEY":" ","HOUSE_NO":"６８之１１號","E_COORD97":164037.70000000001,"N_COORD97":2566136.1600000001,"ADDRESS":"長榮６８之１１號","OBJECTID":71488},"geometry":{"x":164037.70000000112,"y":2566136.160000002}},{"attributes":{"ID":71489,"DIS_CODE":0,"TOWNNAME":"將軍區","LI":"長榮里","LIN":"6鄰","STREET":" ","SECT":" ","MAREA":"長榮","LANE":" ","ALLEY":" ","HOUSE_NO":"６８之１２號","E_COORD97":164038.14000000001,"N_COORD97":2566140.29,"ADDRESS":"長榮６８之１２號","OBJECTID":71489},"geometry":{"x":164038.13999999966,"y":2566140.2900000028}},{"attributes":{"ID":71490,"DIS_CODE":0,"TOWNNAME":"將軍區","LI":"長榮里","LIN":"6鄰","STREET":" ","SECT":" ","MAREA":"長榮","LANE":" ","ALLEY":" ","HOUSE_NO":"６８之１３號","E_COORD97":164038.54999999999,"N_COORD97":2566144.4100000001,"ADDRESS":"長榮６８之１３號","OBJECTID":71490},"geometry":{"x":164038.54999999981,"y":2566144.410000002}},{"attributes":{"ID":71491,"DIS_CODE":0,"TOWNNAME":"將軍區","LI":"長榮里","LIN":"6鄰","STREET":" ","SECT":" ","MAREA":"長榮","LANE":" ","ALLEY":" ","HOUSE_NO":"６８之１４號","E_COORD97":164039.25,"N_COORD97":2566148.1499999999,"ADDRESS":"長榮６８之１４號","OBJECTID":71491},"geometry":{"x":164039.25,"y":2566148.1500000004}},{"attributes":{"ID":71492,"DIS_CODE":0,"TOWNNAME":"將軍區","LI":"長榮里","LIN":"6鄰","STREET":" ","SECT":" ","MAREA":"長榮","LANE":" ","ALLEY":" ","HOUSE_NO":"６８之１５號","E_COORD97":164040.19,"N_COORD97":2566152.2599999998,"ADDRESS":"長榮６８之１５號","OBJECTID":71492},"geometry":{"x":164040.19000000041,"y":2566152.2600000016}},{"attributes":{"ID":71493,"DIS_CODE":0,"TOWNNAME":"將軍區","LI":"長榮里","LIN":"6鄰","STREET":" ","SECT":" ","MAREA":"長榮","LANE":" ","ALLEY":" ","HOUSE_NO":"６８之１６號","E_COORD97":164040.78,"N_COORD97":2566156.5299999998,"ADDRESS":"長榮６８之１６號","OBJECTID":71493},"geometry":{"x":164040.78000000026,"y":2566156.5300000012}},{"attributes":{"ID":71494,"DIS_CODE":0,"TOWNNAME":"將軍區","LI":"保源里","LIN":"6鄰","STREET":" ","SECT":" ","MAREA":"苓保","LANE":" ","ALLEY":" ","HOUSE_NO":"６０號","E_COORD97":164627.39000000001,"N_COORD97":2568643.7599999998,"ADDRESS":"苓保６０號","OBJECTID":71494},"geometry":{"x":164627.3900000006,"y":2568643.7600000016}},{"attributes":{"ID":71495,"DIS_CODE":0,"TOWNNAME":"將軍區","LI":"長榮里","LIN":"6鄰","STREET":" ","SECT":" ","MAREA":"長榮","LANE":" ","ALLEY":" ","HOUSE_NO":"６８之１７號","E_COORD97":164041.01000000001,"N_COORD97":2566161.1099999999,"ADDRESS":"長榮６８之１７號","OBJECTID":71495},"geometry":{"x":164041.00999999885,"y":2566161.1099999994}},{"attributes":{"ID":71496,"DIS_CODE":0,"TOWNNAME":"將軍區","LI":"長榮里","LIN":"6鄰","STREET":" ","SECT":" ","MAREA":"長榮","LANE":" ","ALLEY":" ","HOUSE_NO":"６８之１８號","E_COORD97":164042.16,"N_COORD97":2566165.0499999998,"ADDRESS":"長榮６８之１８號","OBJECTID":71496},"geometry":{"x":164042.16000000201,"y":2566165.0500000026}},{"attributes":{"ID":71497,"DIS_CODE":0,"TOWNNAME":"將軍區","LI":"長榮里","LIN":"6鄰","STREET":" ","SECT":" ","MAREA":"長榮","LANE":" ","ALLEY":" ","HOUSE_NO":"６８之１號","E_COORD97":164075.10000000001,"N_COORD97":2566172.73,"ADDRESS":"長榮６８之１號","OBJECTID":71497},"geometry":{"x":164075.10000000056,"y":2566172.7300000042}},{"attributes":{"ID":71498,"DIS_CODE":0,"TOWNNAME":"永康區","LI":"勝利里","LIN":"33鄰","STREET":"中華路","SECT":" ","MAREA":" ","LANE":"７巷","ALLEY":"２０弄","HOUSE_NO":"３６號十四樓之４","E_COORD97":171534.35000000001,"N_COORD97":2544457.7999999998,"ADDRESS":"中華路７巷２０弄３６號十四樓之４","OBJECTID":71498},"geometry":{"x":171534.34999999963,"y":2544457.8000000026}},{"attributes":{"ID":71499,"DIS_CODE":0,"TOWNNAME":"將軍區","LI":"長榮里","LIN":"6鄰","STREET":" ","SECT":" ","MAREA":"長榮","LANE":" ","ALLEY":" ","HOUSE_NO":"６８之２６號","E_COORD97":164023.34,"N_COORD97":2566168.1699999999,"ADDRESS":"長榮６８之２６號","OBJECTID":71499},"geometry":{"x":164023.33999999985,"y":2566168.1699999999}},{"attributes":{"ID":71500,"DIS_CODE":0,"TOWNNAME":"將軍區","LI":"長榮里","LIN":"6鄰","STREET":" ","SECT":" ","MAREA":"長榮","LANE":" ","ALLEY":" ","HOUSE_NO":"６８之２７號","E_COORD97":164022.85999999999,"N_COORD97":2566164.1400000001,"ADDRESS":"長榮６８之２７號","OBJECTID":71500},"geometry":{"x":164022.86000000127,"y":2566164.1400000025}},{"attributes":{"ID":71501,"DIS_CODE":0,"TOWNNAME":"將軍區","LI":"長榮里","LIN":"6鄰","STREET":" ","SECT":" ","MAREA":"長榮","LANE":" ","ALLEY":" ","HOUSE_NO":"６８之２８號","E_COORD97":164022.38,"N_COORD97":2566160.1099999999,"ADDRESS":"長榮６８之２８號","OBJECTID":71501},"geometry":{"x":164022.38000000082,"y":2566160.1100000013}},{"attributes":{"ID":71502,"DIS_CODE":0,"TOWNNAME":"將軍區","LI":"長榮里","LIN":"6鄰","STREET":" ","SECT":" ","MAREA":"長榮","LANE":" ","ALLEY":" ","HOUSE_NO":"６８之２９號","E_COORD97":164021.91,"N_COORD97":2566156.0699999998,"ADDRESS":"長榮６８之２９號","OBJECTID":71502},"geometry":{"x":164021.91000000201,"y":2566156.0700000003}},{"attributes":{"ID":71503,"DIS_CODE":0,"TOWNNAME":"將軍區","LI":"長榮里","LIN":"6鄰","STREET":" ","SECT":" ","MAREA":"長榮","LANE":" ","ALLEY":" ","HOUSE_NO":"６８之２號","E_COORD97":164070.94,"N_COORD97":2566173.3900000001,"ADDRESS":"長榮６８之２號","OBJECTID":71503},"geometry":{"x":164070.94000000041,"y":2566173.3900000006}},{"attributes":{"ID":71504,"DIS_CODE":0,"TOWNNAME":"將軍區","LI":"長榮里","LIN":"6鄰","STREET":" ","SECT":" ","MAREA":"長榮","LANE":" ","ALLEY":" ","HOUSE_NO":"６８之３０號","E_COORD97":164021.42999999999,"N_COORD97":2566152.04,"ADDRESS":"長榮６８之３０號","OBJECTID":71504},"geometry":{"x":164021.43000000063,"y":2566152.0400000028}},{"attributes":{"ID":71505,"DIS_CODE":0,"TOWNNAME":"將軍區","LI":"長榮里","LIN":"6鄰","STREET":" ","SECT":" ","MAREA":"長榮","LANE":" ","ALLEY":" ","HOUSE_NO":"６８之３１號","E_COORD97":164020.95000000001,"N_COORD97":2566148.0099999998,"ADDRESS":"長榮６８之３１號","OBJECTID":71505},"geometry":{"x":164020.95000000019,"y":2566148.0099999998}},{"attributes":{"ID":71506,"DIS_CODE":0,"TOWNNAME":"將軍區","LI":"長榮里","LIN":"6鄰","STREET":" ","SECT":" ","MAREA":"長榮","LANE":" ","ALLEY":" ","HOUSE_NO":"６８之３２號","E_COORD97":164020.47,"N_COORD97":2566143.98,"ADDRESS":"長榮６８之３２號","OBJECTID":71506},"geometry":{"x":164020.46999999974,"y":2566143.9800000023}},{"attributes":{"ID":71507,"DIS_CODE":0,"TOWNNAME":"將軍區","LI":"長榮里","LIN":"6鄰","STREET":" ","SECT":" ","MAREA":"長榮","LANE":" ","ALLEY":" ","HOUSE_NO":"６８之３３號","E_COORD97":164019.98999999999,"N_COORD97":2566139.9399999999,"ADDRESS":"長榮６８之３３號","OBJECTID":71507},"geometry":{"x":164019.99000000115,"y":2566139.9400000013}},{"attributes":{"ID":71508,"DIS_CODE":0,"TOWNNAME":"將軍區","LI":"長榮里","LIN":"6鄰","STREET":" ","SECT":" ","MAREA":"長榮","LANE":" ","ALLEY":" ","HOUSE_NO":"６８之３４號","E_COORD97":164019.51999999999,"N_COORD97":2566135.8999999999,"ADDRESS":"長榮６８之３４號","OBJECTID":71508},"geometry":{"x":164019.52000000048,"y":2566135.9000000004}},{"attributes":{"ID":71509,"DIS_CODE":0,"TOWNNAME":"將軍區","LI":"長榮里","LIN":"6鄰","STREET":" ","SECT":" ","MAREA":"長榮","LANE":" ","ALLEY":" ","HOUSE_NO":"６８之３號","E_COORD97":164066.63,"N_COORD97":2566173.9700000002,"ADDRESS":"長榮６８之３號","OBJECTID":71509},"geometry":{"x":164066.63000000082,"y":2566173.9700000007}},{"attributes":{"ID":71510,"DIS_CODE":0,"TOWNNAME":"歸仁區","LI":"辜厝里","LIN":"7鄰","STREET":"大順二街","SECT":" ","MAREA":" ","LANE":" ","ALLEY":" ","HOUSE_NO":"１１號","E_COORD97":177487.72,"N_COORD97":2540580.5899999999,"ADDRESS":"大順二街１１號","OBJECTID":71510},"geometry":{"x":177487.7200000016,"y":2540580.5899999999}},{"attributes":{"ID":71511,"DIS_CODE":0,"TOWNNAME":"歸仁區","LI":"看西里","LIN":"7鄰","STREET":"信義南路","SECT":" ","MAREA":" ","LANE":" ","ALLEY":" ","HOUSE_NO":"１８３號","E_COORD97":178133.85999999999,"N_COORD97":2540247.4900000002,"ADDRESS":"信義南路１８３號","OBJECTID":71511},"geometry":{"x":178133.86000000127,"y":2540247.4899999984}},{"attributes":{"ID":71512,"DIS_CODE":0,"TOWNNAME":"歸仁區","LI":"看西里","LIN":"7鄰","STREET":"信義南路","SECT":" ","MAREA":" ","LANE":" ","ALLEY":" ","HOUSE_NO":"１７１號","E_COORD97":178134.95999999999,"N_COORD97":2540270.4900000002,"ADDRESS":"信義南路１７１號","OBJECTID":71512},"geometry":{"x":178134.95999999996,"y":2540270.4900000002}},{"attributes":{"ID":71513,"DIS_CODE":0,"TOWNNAME":"安平區","LI":"石門里","LIN":"8鄰","STREET":"安北路","SECT":" ","MAREA":" ","LANE":" ","ALLEY":" ","HOUSE_NO":"１０２號","E_COORD97":164426.23999999999,"N_COORD97":2544745.52,"ADDRESS":"安北路１０２號","OBJECTID":71513},"geometry":{"x":164426.24000000022,"y":2544745.5199999977}},{"attributes":{"ID":71514,"DIS_CODE":0,"TOWNNAME":"永康區","LI":"勝利里","LIN":"33鄰","STREET":"中華路","SECT":" ","MAREA":" ","LANE":"７巷","ALLEY":"２０弄","HOUSE_NO":"３６號十三樓之４","E_COORD97":171534.35000000001,"N_COORD97":2544457.7999999998,"ADDRESS":"中華路７巷２０弄３６號十三樓之４","OBJECTID":71514},"geometry":{"x":171534.34999999963,"y":2544457.8000000026}},{"attributes":{"ID":71515,"DIS_CODE":0,"TOWNNAME":"永康區","LI":"勝利里","LIN":"33鄰","STREET":"中華路","SECT":" ","MAREA":" ","LANE":"７巷","ALLEY":"２０弄","HOUSE_NO":"３６號四樓之３","E_COORD97":171533.17999999999,"N_COORD97":2544457.7999999998,"ADDRESS":"中華路７巷２０弄３６號四樓之３","OBJECTID":71515},"geometry":{"x":171533.18000000063,"y":2544457.8000000026}},{"attributes":{"ID":71516,"DIS_CODE":0,"TOWNNAME":"永康區","LI":"勝利里","LIN":"33鄰","STREET":"中華路","SECT":" ","MAREA":" ","LANE":"７巷","ALLEY":"２０弄","HOUSE_NO":"３６號八樓之３","E_COORD97":171533.17999999999,"N_COORD97":2544457.7999999998,"ADDRESS":"中華路７巷２０弄３６號八樓之３","OBJECTID":71516},"geometry":{"x":171533.18000000063,"y":2544457.8000000026}},{"attributes":{"ID":71517,"DIS_CODE":0,"TOWNNAME":"永康區","LI":"勝利里","LIN":"33鄰","STREET":"中華路","SECT":" ","MAREA":" ","LANE":"７巷","ALLEY":"２０弄","HOUSE_NO":"３６號六樓之４","E_COORD97":171533.10000000001,"N_COORD97":2544457.7999999998,"ADDRESS":"中華路７巷２０弄３６號六樓之４","OBJECTID":71517},"geometry":{"x":171533.10000000149,"y":2544457.8000000026}},{"attributes":{"ID":71518,"DIS_CODE":0,"TOWNNAME":"永康區","LI":"勝利里","LIN":"33鄰","STREET":"中華路","SECT":" ","MAREA":" ","LANE":"７巷","ALLEY":"２０弄","HOUSE_NO":"３６號十六樓之５","E_COORD97":171534.48000000001,"N_COORD97":2544457.7999999998,"ADDRESS":"中華路７巷２０弄３６號十六樓之５","OBJECTID":71518},"geometry":{"x":171534.48000000045,"y":2544457.8000000026}},{"attributes":{"ID":71519,"DIS_CODE":0,"TOWNNAME":"永康區","LI":"勝利里","LIN":"33鄰","STREET":"中華路","SECT":" ","MAREA":" ","LANE":"７巷","ALLEY":"２０弄","HOUSE_NO":"３６號八樓之５","E_COORD97":171533.23000000001,"N_COORD97":2544457.7999999998,"ADDRESS":"中華路７巷２０弄３６號八樓之５","OBJECTID":71519},"geometry":{"x":171533.23000000138,"y":2544457.8000000026}},{"attributes":{"ID":71520,"DIS_CODE":0,"TOWNNAME":"永康區","LI":"勝利里","LIN":"33鄰","STREET":"中華路","SECT":" ","MAREA":" ","LANE":"７巷","ALLEY":"２０弄","HOUSE_NO":"３８號十四樓之１","E_COORD97":171532.73999999999,"N_COORD97":2544441.0499999998,"ADDRESS":"中華路７巷２０弄３８號十四樓之１","OBJECTID":71520},"geometry":{"x":171532.74000000209,"y":2544441.0500000007}},{"attributes":{"ID":71521,"DIS_CODE":0,"TOWNNAME":"永康區","LI":"勝利里","LIN":"33鄰","STREET":"中華路","SECT":" ","MAREA":" ","LANE":"７巷","ALLEY":"２０弄","HOUSE_NO":"３８號七樓之５","E_COORD97":171531.64000000001,"N_COORD97":2544441.0499999998,"ADDRESS":"中華路７巷２０弄３８號七樓之５","OBJECTID":71521},"geometry":{"x":171531.6400000006,"y":2544441.0500000007}},{"attributes":{"ID":71522,"DIS_CODE":0,"TOWNNAME":"永康區","LI":"勝利里","LIN":"33鄰","STREET":"中華路","SECT":" ","MAREA":" ","LANE":"７巷","ALLEY":"２０弄","HOUSE_NO":"３６號七樓之１","E_COORD97":171533.07999999999,"N_COORD97":2544457.7999999998,"ADDRESS":"中華路７巷２０弄３６號七樓之１","OBJECTID":71522},"geometry":{"x":171533.08000000007,"y":2544457.8000000026}},{"attributes":{"ID":71523,"DIS_CODE":0,"TOWNNAME":"永康區","LI":"勝利里","LIN":"33鄰","STREET":"中華路","SECT":" ","MAREA":" ","LANE":"７巷","ALLEY":"２０弄","HOUSE_NO":"３６號十七樓之５","E_COORD97":171534.48000000001,"N_COORD97":2544457.7999999998,"ADDRESS":"中華路７巷２０弄３６號十七樓之５","OBJECTID":71523},"geometry":{"x":171534.48000000045,"y":2544457.8000000026}},{"attributes":{"ID":71524,"DIS_CODE":0,"TOWNNAME":"永康區","LI":"勝利里","LIN":"33鄰","STREET":"中華路","SECT":" ","MAREA":" ","LANE":"７巷","ALLEY":"２０弄","HOUSE_NO":"３６號十六樓之２","E_COORD97":171534.45999999999,"N_COORD97":2544457.7999999998,"ADDRESS":"中華路７巷２０弄３６號十六樓之２","OBJECTID":71524},"geometry":{"x":171534.46000000183,"y":2544457.8000000026}},{"attributes":{"ID":71525,"DIS_CODE":0,"TOWNNAME":"仁德區","LI":"仁義里","LIN":" ","STREET":"中正路","SECT":"二段","MAREA":" ","LANE":" ","ALLEY":" ","HOUSE_NO":"１１０８號","E_COORD97":173342.98000000001,"N_COORD97":2541092.52,"ADDRESS":"中正路二段１１０８號","OBJECTID":71525},"geometry":{"x":173342.98000000045,"y":2541092.5200000014}},{"attributes":{"ID":71526,"DIS_CODE":0,"TOWNNAME":"仁德區","LI":"新田里","LIN":" ","STREET":"新田路","SECT":" ","MAREA":" ","LANE":" ","ALLEY":" ","HOUSE_NO":"１２之１號","E_COORD97":174464.17000000001,"N_COORD97":2538922.04,"ADDRESS":"新田路１２之１號","OBJECTID":71526},"geometry":{"x":174464.17000000086,"y":2538922.040000001}},{"attributes":{"ID":71527,"DIS_CODE":0,"TOWNNAME":"仁德區","LI":"二行里","LIN":" ","STREET":"二仁路","SECT":"一段","MAREA":" ","LANE":" ","ALLEY":" ","HOUSE_NO":"１４８號","E_COORD97":170398.34,"N_COORD97":2536052.0299999998,"ADDRESS":"二仁路一段１４８號","OBJECTID":71527},"geometry":{"x":170398.34000000078,"y":2536052.0299999993}},{"attributes":{"ID":71528,"DIS_CODE":0,"TOWNNAME":"仁德區","LI":"保安里","LIN":" ","STREET":"二行路","SECT":"一段","MAREA":" ","LANE":" ","ALLEY":" ","HOUSE_NO":"２號","E_COORD97":170845.01000000001,"N_COORD97":2535711.02,"ADDRESS":"二行路一段２號","OBJECTID":71528},"geometry":{"x":170845.00999999978,"y":2535711.0200000014}},{"attributes":{"ID":71529,"DIS_CODE":0,"TOWNNAME":"仁德區","LI":"後壁里","LIN":" ","STREET":"德洋路","SECT":" ","MAREA":" ","LANE":" ","ALLEY":" ","HOUSE_NO":"６１號","E_COORD97":173053.64999999999,"N_COORD97":2539063.02,"ADDRESS":"德洋路６１號","OBJECTID":71529},"geometry":{"x":173053.65000000037,"y":2539063.0199999996}},{"attributes":{"ID":71530,"DIS_CODE":0,"TOWNNAME":"仁德區","LI":"一甲里","LIN":" ","STREET":"忠義路","SECT":" ","MAREA":" ","LANE":" ","ALLEY":" ","HOUSE_NO":"２０４號","E_COORD97":173774.04999999999,"N_COORD97":2541868.02,"ADDRESS":"忠義路２０４號","OBJECTID":71530},"geometry":{"x":173774.04999999981,"y":2541868.0200000014}},{"attributes":{"ID":71531,"DIS_CODE":0,"TOWNNAME":"仁德區","LI":"後壁里","LIN":" ","STREET":"中正路","SECT":"二段","MAREA":" ","LANE":" ","ALLEY":" ","HOUSE_NO":"２８５號","E_COORD97":173236.63,"N_COORD97":2539041.27,"ADDRESS":"中正路二段２８５號","OBJECTID":71531},"geometry":{"x":173236.62999999989,"y":2539041.2699999977}},{"attributes":{"ID":71532,"DIS_CODE":0,"TOWNNAME":"仁德區","LI":"後壁里","LIN":" ","STREET":"中正路","SECT":"二段","MAREA":" ","LANE":" ","ALLEY":" ","HOUSE_NO":"８７號","E_COORD97":173118.76000000001,"N_COORD97":2538484.77,"ADDRESS":"中正路二段８７號","OBJECTID":71532},"geometry":{"x":173118.75999999885,"y":2538484.7699999996}},{"attributes":{"ID":71533,"DIS_CODE":0,"TOWNNAME":"仁德區","LI":"後壁里","LIN":" ","STREET":"民安路","SECT":"一段","MAREA":" ","LANE":" ","ALLEY":" ","HOUSE_NO":"２８０號","E_COORD97":172760.20999999999,"N_COORD97":2539600.0699999998,"ADDRESS":"民安路一段２８０號","OBJECTID":71533},"geometry":{"x":172760.21000000089,"y":2539600.0700000022}},{"attributes":{"ID":71534,"DIS_CODE":0,"TOWNNAME":"仁德區","LI":"後壁里","LIN":" ","STREET":"德善路","SECT":" ","MAREA":" ","LANE":" ","ALLEY":" ","HOUSE_NO":"６號","E_COORD97":173266.04000000001,"N_COORD97":2538926.0099999998,"ADDRESS":"德善路６號","OBJECTID":71534},"geometry":{"x":173266.04000000004,"y":2538926.0100000016}},{"attributes":{"ID":71535,"DIS_CODE":0,"TOWNNAME":"北區","LI":"小康里","LIN":"7鄰","STREET":"實踐街","SECT":" ","MAREA":" ","LANE":" ","ALLEY":" ","HOUSE_NO":"３７號之３","E_COORD97":169879.29000000001,"N_COORD97":2546052.2000000002,"ADDRESS":"實踐街３７號之３","OBJECTID":71535},"geometry":{"x":169879.29000000004,"y":2546052.1999999993}},{"attributes":{"ID":71536,"DIS_CODE":0,"TOWNNAME":"永康區","LI":"勝利里","LIN":"33鄰","STREET":"中華路","SECT":" ","MAREA":" ","LANE":"７巷","ALLEY":"２０弄","HOUSE_NO":"３８號七樓之４","E_COORD97":171531.51000000001,"N_COORD97":2544441.0499999998,"ADDRESS":"中華路７巷２０弄３８號七樓之４","OBJECTID":71536},"geometry":{"x":171531.50999999978,"y":2544441.0500000007}},{"attributes":{"ID":71537,"DIS_CODE":0,"TOWNNAME":"永康區","LI":"勝利里","LIN":"33鄰","STREET":"中華路","SECT":" ","MAREA":" ","LANE":"７巷","ALLEY":"２０弄","HOUSE_NO":"３８號十二樓之３","E_COORD97":171532.84,"N_COORD97":2544441.0499999998,"ADDRESS":"中華路７巷２０弄３８號十二樓之３","OBJECTID":71537},"geometry":{"x":171532.83999999985,"y":2544441.0500000007}},{"attributes":{"ID":71538,"DIS_CODE":0,"TOWNNAME":"永康區","LI":"勝利里","LIN":"33鄰","STREET":"中華路","SECT":" ","MAREA":" ","LANE":"７巷","ALLEY":"２０弄","HOUSE_NO":"３６號九樓之５","E_COORD97":171533.23000000001,"N_COORD97":2544457.7999999998,"ADDRESS":"中華路７巷２０弄３６號九樓之５","OBJECTID":71538},"geometry":{"x":171533.23000000138,"y":2544457.8000000026}},{"attributes":{"ID":71539,"DIS_CODE":0,"TOWNNAME":"永康區","LI":"勝利里","LIN":"33鄰","STREET":"中華路","SECT":" ","MAREA":" ","LANE":"７巷","ALLEY":"２０弄","HOUSE_NO":"３８號十二樓之４","E_COORD97":171532.76000000001,"N_COORD97":2544441.0499999998,"ADDRESS":"中華路７巷２０弄３８號十二樓之４","OBJECTID":71539},"geometry":{"x":171532.76000000071,"y":2544441.0500000007}},{"attributes":{"ID":71540,"DIS_CODE":0,"TOWNNAME":"永康區","LI":"勝利里","LIN":"33鄰","STREET":"中華路","SECT":" ","MAREA":" ","LANE":"７巷","ALLEY":"２０弄","HOUSE_NO":"３８號十七樓之１","E_COORD97":171532.73999999999,"N_COORD97":2544441.0499999998,"ADDRESS":"中華路７巷２０弄３８號十七樓之１","OBJECTID":71540},"geometry":{"x":171532.74000000209,"y":2544441.0500000007}},{"attributes":{"ID":71541,"DIS_CODE":0,"TOWNNAME":"永康區","LI":"勝利里","LIN":"33鄰","STREET":"中華路","SECT":" ","MAREA":" ","LANE":"７巷","ALLEY":"２０弄","HOUSE_NO":"３６號五樓之３","E_COORD97":171533.17999999999,"N_COORD97":2544457.7999999998,"ADDRESS":"中華路７巷２０弄３６號五樓之３","OBJECTID":71541},"geometry":{"x":171533.18000000063,"y":2544457.8000000026}},{"attributes":{"ID":71542,"DIS_CODE":0,"TOWNNAME":"永康區","LI":"勝利里","LIN":"33鄰","STREET":"中華路","SECT":" ","MAREA":" ","LANE":"７巷","ALLEY":"２０弄","HOUSE_NO":"３８號七樓之３","E_COORD97":171531.59,"N_COORD97":2544441.0499999998,"ADDRESS":"中華路７巷２０弄３８號七樓之３","OBJECTID":71542},"geometry":{"x":171531.58999999892,"y":2544441.0500000007}},{"attributes":{"ID":71543,"DIS_CODE":0,"TOWNNAME":"北區","LI":"延平里","LIN":"7鄰","STREET":"公園路","SECT":" ","MAREA":" ","LANE":" ","ALLEY":" ","HOUSE_NO":"７７８號","E_COORD97":169139.62,"N_COORD97":2545753.1499999999,"ADDRESS":"公園路７７８號","OBJECTID":71543},"geometry":{"x":169139.62000000011,"y":2545753.1500000022}},{"attributes":{"ID":71544,"DIS_CODE":0,"TOWNNAME":"將軍區","LI":"長榮里","LIN":"6鄰","STREET":" ","SECT":" ","MAREA":"長榮","LANE":" ","ALLEY":" ","HOUSE_NO":"６８之４號","E_COORD97":164062.29000000001,"N_COORD97":2566174.6699999999,"ADDRESS":"長榮６８之４號","OBJECTID":71544},"geometry":{"x":164062.29000000097,"y":2566174.6699999999}},{"attributes":{"ID":71545,"DIS_CODE":0,"TOWNNAME":"仁德區","LI":"土庫里","LIN":" ","STREET":"太乙路","SECT":" ","MAREA":" ","LANE":" ","ALLEY":" ","HOUSE_NO":"９８號","E_COORD97":173086.97,"N_COORD97":2542786.2599999998,"ADDRESS":"太乙路９８號","OBJECTID":71545},"geometry":{"x":173086.9700000016,"y":2542786.2600000016}},{"attributes":{"ID":71546,"DIS_CODE":0,"TOWNNAME":"仁德區","LI":"新田里","LIN":" ","STREET":"中正路","SECT":"二段","MAREA":" ","LANE":" ","ALLEY":" ","HOUSE_NO":"４９９號","E_COORD97":173349.09,"N_COORD97":2539607.0299999998,"ADDRESS":"中正路二段４９９號","OBJECTID":71546},"geometry":{"x":173349.09000000171,"y":2539607.0300000012}},{"attributes":{"ID":71547,"DIS_CODE":0,"TOWNNAME":"仁德區","LI":"仁義里","LIN":" ","STREET":"中正路","SECT":"二段","MAREA":" ","LANE":" ","ALLEY":" ","HOUSE_NO":"９８０號","E_COORD97":173432.35000000001,"N_COORD97":2540760.27,"ADDRESS":"中正路二段９８０號","OBJECTID":71547},"geometry":{"x":173432.35000000056,"y":2540760.2700000033}},{"attributes":{"ID":71548,"DIS_CODE":0,"TOWNNAME":"仁德區","LI":"保安里","LIN":" ","STREET":"文賢路","SECT":"一段","MAREA":" ","LANE":" ","ALLEY":" ","HOUSE_NO":"７２１之１號","E_COORD97":171359.87,"N_COORD97":2536389.8300000001,"ADDRESS":"文賢路一段７２１之１號","OBJECTID":71548},"geometry":{"x":171359.87000000011,"y":2536389.8300000001}},{"attributes":{"ID":71549,"DIS_CODE":0,"TOWNNAME":"仁德區","LI":"一甲里","LIN":" ","STREET":"忠義三街","SECT":" ","MAREA":" ","LANE":" ","ALLEY":" ","HOUSE_NO":"３２號","E_COORD97":173629.62,"N_COORD97":2541761.52,"ADDRESS":"忠義三街３２號","OBJECTID":71549},"geometry":{"x":173629.62000000011,"y":2541761.5199999996}},{"attributes":{"ID":71550,"DIS_CODE":0,"TOWNNAME":"仁德區","LI":"二行里","LIN":" ","STREET":"二行一路","SECT":" ","MAREA":" ","LANE":" ","ALLEY":" ","HOUSE_NO":"１２８號","E_COORD97":170530.67999999999,"N_COORD97":2535579.7400000002,"ADDRESS":"二行一路１２８號","OBJECTID":71550},"geometry":{"x":170530.67999999877,"y":2535579.7400000002}},{"attributes":{"ID":71551,"DIS_CODE":0,"TOWNNAME":"仁德區","LI":"仁義里","LIN":" ","STREET":"義林路","SECT":" ","MAREA":" ","LANE":" ","ALLEY":" ","HOUSE_NO":"２３５號","E_COORD97":174607.82000000001,"N_COORD97":2541340.77,"ADDRESS":"義林路２３５號","OBJECTID":71551},"geometry":{"x":174607.82000000123,"y":2541340.7700000014}},{"attributes":{"ID":71552,"DIS_CODE":0,"TOWNNAME":"仁德區","LI":"保安里","LIN":" ","STREET":"文賢二街","SECT":" ","MAREA":" ","LANE":" ","ALLEY":" ","HOUSE_NO":"４５號","E_COORD97":171739.66,"N_COORD97":2536144.8199999998,"ADDRESS":"文賢二街４５號","OBJECTID":71552},"geometry":{"x":171739.66000000015,"y":2536144.8200000022}},{"attributes":{"ID":71553,"DIS_CODE":0,"TOWNNAME":"仁德區","LI":"仁義里","LIN":" ","STREET":"正義二街","SECT":" ","MAREA":" ","LANE":" ","ALLEY":" ","HOUSE_NO":"８８之２號","E_COORD97":173623.95999999999,"N_COORD97":2541567.2999999998,"ADDRESS":"正義二街８８之２號","OBJECTID":71553},"geometry":{"x":173623.95999999996,"y":2541567.3000000007}},{"attributes":{"ID":71554,"DIS_CODE":0,"TOWNNAME":"仁德區","LI":"大甲里","LIN":" ","STREET":"行大街","SECT":" ","MAREA":" ","LANE":" ","ALLEY":" ","HOUSE_NO":"２８３號","E_COORD97":169759.29000000001,"N_COORD97":2535139.25,"ADDRESS":"行大街２８３號","OBJECTID":71554},"geometry":{"x":169759.29000000097,"y":2535139.25}},{"attributes":{"ID":71555,"DIS_CODE":0,"TOWNNAME":"仁德區","LI":"仁義里","LIN":" ","STREET":"仁義一街","SECT":" ","MAREA":" ","LANE":" ","ALLEY":" ","HOUSE_NO":"１１０號","E_COORD97":173560.35000000001,"N_COORD97":2541180.0099999998,"ADDRESS":"仁義一街１１０號","OBJECTID":71555},"geometry":{"x":173560.34999999963,"y":2541180.0100000016}},{"attributes":{"ID":71556,"DIS_CODE":0,"TOWNNAME":"永康區","LI":"勝利里","LIN":"33鄰","STREET":"中華路","SECT":" ","MAREA":" ","LANE":"７巷","ALLEY":"２０弄","HOUSE_NO":"３６號十五樓之５","E_COORD97":171534.48000000001,"N_COORD97":2544457.7999999998,"ADDRESS":"中華路７巷２０弄３６號十五樓之５","OBJECTID":71556},"geometry":{"x":171534.48000000045,"y":2544457.8000000026}},{"attributes":{"ID":71557,"DIS_CODE":0,"TOWNNAME":"永康區","LI":"勝利里","LIN":"33鄰","STREET":"中華路","SECT":" ","MAREA":" ","LANE":"７巷","ALLEY":"２０弄","HOUSE_NO":"３８號十樓之４","E_COORD97":171531.51000000001,"N_COORD97":2544441.0499999998,"ADDRESS":"中華路７巷２０弄３８號十樓之４","OBJECTID":71557},"geometry":{"x":171531.50999999978,"y":2544441.0500000007}},{"attributes":{"ID":71558,"DIS_CODE":0,"TOWNNAME":"永康區","LI":"勝利里","LIN":"33鄰","STREET":"中華路","SECT":" ","MAREA":" ","LANE":"７巷","ALLEY":"２０弄","HOUSE_NO":"３８號九樓之３","E_COORD97":171531.59,"N_COORD97":2544441.0499999998,"ADDRESS":"中華路７巷２０弄３８號九樓之３","OBJECTID":71558},"geometry":{"x":171531.58999999892,"y":2544441.0500000007}},{"attributes":{"ID":71559,"DIS_CODE":0,"TOWNNAME":"永康區","LI":"勝利里","LIN":"33鄰","STREET":"中華路","SECT":" ","MAREA":" ","LANE":"７巷","ALLEY":"２０弄","HOUSE_NO":"３８號十五樓之４","E_COORD97":171532.76000000001,"N_COORD97":2544441.0499999998,"ADDRESS":"中華路７巷２０弄３８號十五樓之４","OBJECTID":71559},"geometry":{"x":171532.76000000071,"y":2544441.0500000007}},{"attributes":{"ID":71560,"DIS_CODE":0,"TOWNNAME":"永康區","LI":"勝利里","LIN":"33鄰","STREET":"中華路","SECT":" ","MAREA":" ","LANE":"７巷","ALLEY":"２０弄","HOUSE_NO":"３６號十五樓之１","E_COORD97":171534.32999999999,"N_COORD97":2544457.7999999998,"ADDRESS":"中華路７巷２０弄３６號十五樓之１","OBJECTID":71560},"geometry":{"x":171534.33000000101,"y":2544457.8000000026}},{"attributes":{"ID":71561,"DIS_CODE":0,"TOWNNAME":"永康區","LI":"勝利里","LIN":"33鄰","STREET":"中華路","SECT":" ","MAREA":" ","LANE":"７巷","ALLEY":"２０弄","HOUSE_NO":"３８號十三樓之５","E_COORD97":171532.89000000001,"N_COORD97":2544441.0499999998,"ADDRESS":"中華路７巷２０弄３８號十三樓之５","OBJECTID":71561},"geometry":{"x":171532.89000000153,"y":2544441.0500000007}},{"attributes":{"ID":71562,"DIS_CODE":0,"TOWNNAME":"永康區","LI":"勝利里","LIN":"33鄰","STREET":"中華路","SECT":" ","MAREA":" ","LANE":"７巷","ALLEY":"２０弄","HOUSE_NO":"３６號十六樓之１","E_COORD97":171534.32999999999,"N_COORD97":2544457.7999999998,"ADDRESS":"中華路７巷２０弄３６號十六樓之１","OBJECTID":71562},"geometry":{"x":171534.33000000101,"y":2544457.8000000026}},{"attributes":{"ID":71563,"DIS_CODE":0,"TOWNNAME":"永康區","LI":"勝利里","LIN":"33鄰","STREET":"中華路","SECT":" ","MAREA":" ","LANE":"７巷","ALLEY":"２０弄","HOUSE_NO":"３８號十三樓之４","E_COORD97":171532.76000000001,"N_COORD97":2544441.0499999998,"ADDRESS":"中華路７巷２０弄３８號十三樓之４","OBJECTID":71563},"geometry":{"x":171532.76000000071,"y":2544441.0500000007}},{"attributes":{"ID":71564,"DIS_CODE":0,"TOWNNAME":"永康區","LI":"勝利里","LIN":"33鄰","STREET":"中華路","SECT":" ","MAREA":" ","LANE":"７巷","ALLEY":"２０弄","HOUSE_NO":"３６號十三樓之５","E_COORD97":171534.48000000001,"N_COORD97":2544457.7999999998,"ADDRESS":"中華路７巷２０弄３６號十三樓之５","OBJECTID":71564},"geometry":{"x":171534.48000000045,"y":2544457.8000000026}},{"attributes":{"ID":71565,"DIS_CODE":0,"TOWNNAME":"永康區","LI":"勝利里","LIN":"33鄰","STREET":"中華路","SECT":" ","MAREA":" ","LANE":"７巷","ALLEY":"２０弄","HOUSE_NO":"３６號十一樓之１","E_COORD97":171534.32999999999,"N_COORD97":2544457.7999999998,"ADDRESS":"中華路７巷２０弄３６號十一樓之１","OBJECTID":71565},"geometry":{"x":171534.33000000101,"y":2544457.8000000026}},{"attributes":{"ID":71566,"DIS_CODE":0,"TOWNNAME":"永康區","LI":"勝利里","LIN":"33鄰","STREET":"中華路","SECT":" ","MAREA":" ","LANE":"７巷","ALLEY":"２０弄","HOUSE_NO":"３８號十一樓之５","E_COORD97":171532.89000000001,"N_COORD97":2544441.0499999998,"ADDRESS":"中華路７巷２０弄３８號十一樓之５","OBJECTID":71566},"geometry":{"x":171532.89000000153,"y":2544441.0500000007}},{"attributes":{"ID":71567,"DIS_CODE":0,"TOWNNAME":"仁德區","LI":"後壁里","LIN":"41鄰","STREET":"德善路","SECT":" ","MAREA":" ","LANE":"２７３巷","ALLEY":"６弄","HOUSE_NO":"１５號","E_COORD97":173971.70999999999,"N_COORD97":2538700.5499999998,"ADDRESS":"德善路２７３巷６弄１５號","OBJECTID":71567},"geometry":{"x":173971.70999999996,"y":2538700.5500000007}},{"attributes":{"ID":71568,"DIS_CODE":0,"TOWNNAME":"仁德區","LI":"仁德里","LIN":"35鄰","STREET":"中山路","SECT":" ","MAREA":" ","LANE":"７５８巷","ALLEY":"２弄","HOUSE_NO":"２１號","E_COORD97":172747.48000000001,"N_COORD97":2541538.8799999999,"ADDRESS":"中山路７５８巷２弄２１號","OBJECTID":71568},"geometry":{"x":172747.48000000138,"y":2541538.8800000027}},{"attributes":{"ID":71569,"DIS_CODE":0,"TOWNNAME":"仁德區","LI":"新田里","LIN":"4鄰","STREET":"勝利路","SECT":" ","MAREA":" ","LANE":"１５０巷","ALLEY":"３弄","HOUSE_NO":"１號","E_COORD97":174400.04000000001,"N_COORD97":2539521.7599999998,"ADDRESS":"勝利路１５０巷３弄１號","OBJECTID":71569},"geometry":{"x":174400.04000000004,"y":2539521.7599999998}},{"attributes":{"ID":71570,"DIS_CODE":0,"TOWNNAME":"仁德區","LI":"後壁里","LIN":"33鄰","STREET":"德洋二街","SECT":" ","MAREA":" ","LANE":"３９巷","ALLEY":"６３弄","HOUSE_NO":"２號二樓之２","E_COORD97":172206.70999999999,"N_COORD97":2539404.9100000001,"ADDRESS":"德洋二街３９巷６３弄２號二樓之２","OBJECTID":71570},"geometry":{"x":172206.70999999996,"y":2539404.910000002}},{"attributes":{"ID":71571,"DIS_CODE":0,"TOWNNAME":"仁德區","LI":"後壁里","LIN":"33鄰","STREET":"德洋二街","SECT":" ","MAREA":" ","LANE":"３９巷","ALLEY":"６３弄","HOUSE_NO":"２號三樓之５","E_COORD97":172206.73999999999,"N_COORD97":2539404.9100000001,"ADDRESS":"德洋二街３９巷６３弄２號三樓之５","OBJECTID":71571},"geometry":{"x":172206.74000000022,"y":2539404.910000002}},{"attributes":{"ID":71572,"DIS_CODE":0,"TOWNNAME":"仁德區","LI":"後壁里","LIN":"33鄰","STREET":"德洋二街","SECT":" ","MAREA":" ","LANE":"３９巷","ALLEY":"６３弄","HOUSE_NO":"２號二樓之５","E_COORD97":172206.73999999999,"N_COORD97":2539404.9100000001,"ADDRESS":"德洋二街３９巷６３弄２號二樓之５","OBJECTID":71572},"geometry":{"x":172206.74000000022,"y":2539404.910000002}},{"attributes":{"ID":71573,"DIS_CODE":0,"TOWNNAME":"仁德區","LI":"後壁里","LIN":"33鄰","STREET":"德洋二街","SECT":" ","MAREA":" ","LANE":"３９巷","ALLEY":"６３弄","HOUSE_NO":"２號五樓之４","E_COORD97":172206.60999999999,"N_COORD97":2539404.9100000001,"ADDRESS":"德洋二街３９巷６３弄２號五樓之４","OBJECTID":71573},"geometry":{"x":172206.61000000034,"y":2539404.910000002}},{"attributes":{"ID":71574,"DIS_CODE":0,"TOWNNAME":"仁德區","LI":"後壁里","LIN":"33鄰","STREET":"德洋二街","SECT":" ","MAREA":" ","LANE":"３９巷","ALLEY":"６３弄","HOUSE_NO":"２號三樓之１","E_COORD97":172206.57999999999,"N_COORD97":2539404.9100000001,"ADDRESS":"德洋二街３９巷６３弄２號三樓之１","OBJECTID":71574},"geometry":{"x":172206.57999999914,"y":2539404.910000002}},{"attributes":{"ID":71575,"DIS_CODE":0,"TOWNNAME":"永康區","LI":"成功里","LIN":"33鄰","STREET":"忠孝路","SECT":" ","MAREA":" ","LANE":"２０７巷","ALLEY":"３２弄","HOUSE_NO":"８號五樓之５","E_COORD97":171905.48999999999,"N_COORD97":2544948.9900000002,"ADDRESS":"忠孝路２０７巷３２弄８號五樓之５","OBJECTID":71575},"geometry":{"x":171905.49000000022,"y":2544948.9900000002}},{"attributes":{"ID":71576,"DIS_CODE":0,"TOWNNAME":"永康區","LI":"成功里","LIN":"33鄰","STREET":"忠孝路","SECT":" ","MAREA":" ","LANE":"２０７巷","ALLEY":"３２弄","HOUSE_NO":"４號四樓之１","E_COORD97":171933.25,"N_COORD97":2544940.04,"ADDRESS":"忠孝路２０７巷３２弄４號四樓之１","OBJECTID":71576},"geometry":{"x":171933.25000000093,"y":2544940.040000001}},{"attributes":{"ID":71577,"DIS_CODE":0,"TOWNNAME":"永康區","LI":"成功里","LIN":"33鄰","STREET":"忠孝路","SECT":" ","MAREA":" ","LANE":"２０７巷","ALLEY":"３２弄","HOUSE_NO":"８號五樓之７","E_COORD97":171905.41,"N_COORD97":2544948.9900000002,"ADDRESS":"忠孝路２０７巷３２弄８號五樓之７","OBJECTID":71577},"geometry":{"x":171905.41000000015,"y":2544948.9900000002}},{"attributes":{"ID":71578,"DIS_CODE":0,"TOWNNAME":"仁德區","LI":"後壁里","LIN":"33鄰","STREET":"德洋二街","SECT":" ","MAREA":" ","LANE":"３９巷","ALLEY":"６３弄","HOUSE_NO":"２號五樓之１","E_COORD97":172206.57999999999,"N_COORD97":2539404.9100000001,"ADDRESS":"德洋二街３９巷６３弄２號五樓之１","OBJECTID":71578},"geometry":{"x":172206.57999999914,"y":2539404.910000002}},{"attributes":{"ID":71579,"DIS_CODE":0,"TOWNNAME":"仁德區","LI":"後壁里","LIN":"33鄰","STREET":"德洋二街","SECT":" ","MAREA":" ","LANE":"３９巷","ALLEY":"６３弄","HOUSE_NO":"２號二樓之１","E_COORD97":172206.57999999999,"N_COORD97":2539404.9100000001,"ADDRESS":"德洋二街３９巷６３弄２號二樓之１","OBJECTID":71579},"geometry":{"x":172206.57999999914,"y":2539404.910000002}},{"attributes":{"ID":71580,"DIS_CODE":0,"TOWNNAME":"永康區","LI":"成功里","LIN":"33鄰","STREET":"忠孝路","SECT":" ","MAREA":" ","LANE":"２０７巷","ALLEY":"３２弄","HOUSE_NO":"８號三樓之２","E_COORD97":171905.45999999999,"N_COORD97":2544948.9900000002,"ADDRESS":"忠孝路２０７巷３２弄８號三樓之２","OBJECTID":71580},"geometry":{"x":171905.45999999996,"y":2544948.9900000002}},{"attributes":{"ID":71581,"DIS_CODE":0,"TOWNNAME":"仁德區","LI":"一甲里","LIN":"18鄰","STREET":"中清路","SECT":" ","MAREA":" ","LANE":"２４８巷","ALLEY":"７弄","HOUSE_NO":"１９號","E_COORD97":173797.69,"N_COORD97":2541779.1899999999,"ADDRESS":"中清路２４８巷７弄１９號","OBJECTID":71581},"geometry":{"x":173797.69000000041,"y":2541779.1900000013}},{"attributes":{"ID":71582,"DIS_CODE":0,"TOWNNAME":"永康區","LI":"勝利里","LIN":"33鄰","STREET":"中華路","SECT":" ","MAREA":" ","LANE":"７巷","ALLEY":"２０弄","HOUSE_NO":"３８號五樓之３","E_COORD97":171531.59,"N_COORD97":2544441.0499999998,"ADDRESS":"中華路７巷２０弄３８號五樓之３","OBJECTID":71582},"geometry":{"x":171531.58999999892,"y":2544441.0500000007}},{"attributes":{"ID":71583,"DIS_CODE":0,"TOWNNAME":"永康區","LI":"勝利里","LIN":"33鄰","STREET":"中華路","SECT":" ","MAREA":" ","LANE":"７巷","ALLEY":"２０弄","HOUSE_NO":"３８號十一樓之１","E_COORD97":171532.73999999999,"N_COORD97":2544441.0499999998,"ADDRESS":"中華路７巷２０弄３８號十一樓之１","OBJECTID":71583},"geometry":{"x":171532.74000000209,"y":2544441.0500000007}},{"attributes":{"ID":71584,"DIS_CODE":0,"TOWNNAME":"北區","LI":"永祥里","LIN":"7鄰","STREET":"實踐街","SECT":" ","MAREA":" ","LANE":"３９巷","ALLEY":" ","HOUSE_NO":"８號","E_COORD97":169905.42999999999,"N_COORD97":2546082.9700000002,"ADDRESS":"實踐街３９巷８號","OBJECTID":71584},"geometry":{"x":169905.43000000063,"y":2546082.9699999988}},{"attributes":{"ID":71585,"DIS_CODE":0,"TOWNNAME":"北區","LI":"小康里","LIN":"7鄰","STREET":"實踐街","SECT":" ","MAREA":" ","LANE":" ","ALLEY":" ","HOUSE_NO":"３３號","E_COORD97":169857.13,"N_COORD97":2546062.04,"ADDRESS":"實踐街３３號","OBJECTID":71585},"geometry":{"x":169857.13000000082,"y":2546062.040000001}},{"attributes":{"ID":71586,"DIS_CODE":0,"TOWNNAME":"北區","LI":"小康里","LIN":"7鄰","STREET":"實踐街","SECT":" ","MAREA":" ","LANE":" ","ALLEY":" ","HOUSE_NO":"３５號","E_COORD97":169862.81,"N_COORD97":2546060.1400000001,"ADDRESS":"實踐街３５號","OBJECTID":71586},"geometry":{"x":169862.80999999959,"y":2546060.1400000006}},{"attributes":{"ID":71587,"DIS_CODE":0,"TOWNNAME":"北區","LI":"小康里","LIN":"7鄰","STREET":"實踐街","SECT":" ","MAREA":" ","LANE":" ","ALLEY":" ","HOUSE_NO":"３７號","E_COORD97":169866.98000000001,"N_COORD97":2546058.6299999999,"ADDRESS":"實踐街３７號","OBJECTID":71587},"geometry":{"x":169866.98000000138,"y":2546058.629999999}},{"attributes":{"ID":71588,"DIS_CODE":0,"TOWNNAME":"北區","LI":"小康里","LIN":"7鄰","STREET":"實踐街","SECT":" ","MAREA":" ","LANE":" ","ALLEY":" ","HOUSE_NO":"３７號之１","E_COORD97":169871.32999999999,"N_COORD97":2546057.3100000001,"ADDRESS":"實踐街３７號之１","OBJECTID":71588},"geometry":{"x":169871.33000000101,"y":2546057.3100000024}},{"attributes":{"ID":71589,"DIS_CODE":0,"TOWNNAME":"北區","LI":"小康里","LIN":"7鄰","STREET":"實踐街","SECT":" ","MAREA":" ","LANE":" ","ALLEY":" ","HOUSE_NO":"３７號之２","E_COORD97":169875.88,"N_COORD97":2546054.8500000001,"ADDRESS":"實踐街３７號之２","OBJECTID":71589},"geometry":{"x":169875.88000000082,"y":2546054.8499999996}},{"attributes":{"ID":71590,"DIS_CODE":0,"TOWNNAME":"將軍區","LI":"長榮里","LIN":"6鄰","STREET":" ","SECT":" ","MAREA":"長榮","LANE":" ","ALLEY":" ","HOUSE_NO":"６８之５號","E_COORD97":164065.10999999999,"N_COORD97":2566160.9399999999,"ADDRESS":"長榮６８之５號","OBJECTID":71590},"geometry":{"x":164065.11000000127,"y":2566160.9400000013}},{"attributes":{"ID":71591,"DIS_CODE":0,"TOWNNAME":"將軍區","LI":"長榮里","LIN":"6鄰","STREET":" ","SECT":" ","MAREA":"長榮","LANE":" ","ALLEY":" ","HOUSE_NO":"６８之６號","E_COORD97":164064.45000000001,"N_COORD97":2566156.4399999999,"ADDRESS":"長榮６８之６號","OBJECTID":71591},"geometry":{"x":164064.45000000112,"y":2566156.4400000032}},{"attributes":{"ID":71592,"DIS_CODE":0,"TOWNNAME":"將軍區","LI":"長榮里","LIN":"6鄰","STREET":" ","SECT":" ","MAREA":"長榮","LANE":" ","ALLEY":" ","HOUSE_NO":"６８之７號","E_COORD97":164063.76000000001,"N_COORD97":2566151.8500000001,"ADDRESS":"長榮６８之７號","OBJECTID":71592},"geometry":{"x":164063.76000000071,"y":2566151.8500000015}},{"attributes":{"ID":71593,"DIS_CODE":0,"TOWNNAME":"將軍區","LI":"長榮里","LIN":"6鄰","STREET":" ","SECT":" ","MAREA":"長榮","LANE":" ","ALLEY":" ","HOUSE_NO":"６８之８號","E_COORD97":164062.95000000001,"N_COORD97":2566147.29,"ADDRESS":"長榮６８之８號","OBJECTID":71593},"geometry":{"x":164062.95000000112,"y":2566147.290000001}},{"attributes":{"ID":71594,"DIS_CODE":0,"TOWNNAME":"將軍區","LI":"長榮里","LIN":"6鄰","STREET":" ","SECT":" ","MAREA":"長榮","LANE":" ","ALLEY":" ","HOUSE_NO":"６８號","E_COORD97":164053.20999999999,"N_COORD97":2566220.0800000001,"ADDRESS":"長榮６８號","OBJECTID":71594},"geometry":{"x":164053.20999999996,"y":2566220.0800000001}},{"attributes":{"ID":71595,"DIS_CODE":0,"TOWNNAME":"將軍區","LI":"苓和里","LIN":"6鄰","STREET":" ","SECT":" ","MAREA":"苓和","LANE":" ","ALLEY":" ","HOUSE_NO":"５８之１號","E_COORD97":164547.92999999999,"N_COORD97":2568953.4199999999,"ADDRESS":"苓和５８之１號","OBJECTID":71595},"geometry":{"x":164547.9299999997,"y":2568953.4199999999}},{"attributes":{"ID":71596,"DIS_CODE":0,"TOWNNAME":"安平區","LI":"建平里","LIN":"7鄰","STREET":"府前四街","SECT":" ","MAREA":" ","LANE":" ","ALLEY":" ","HOUSE_NO":"１１６號","E_COORD97":166470.69,"N_COORD97":2544022.4300000002,"ADDRESS":"府前四街１１６號","OBJECTID":71596},"geometry":{"x":166470.69000000041,"y":2544022.4300000016}},{"attributes":{"ID":71597,"DIS_CODE":0,"TOWNNAME":"安平區","LI":"國平里","LIN":"7鄰","STREET":"華平路","SECT":" ","MAREA":" ","LANE":" ","ALLEY":" ","HOUSE_NO":"１０８號","E_COORD97":165358.88,"N_COORD97":2542951.8999999999,"ADDRESS":"華平路１０８號","OBJECTID":71597},"geometry":{"x":165358.87999999989,"y":2542951.9000000022}},{"attributes":{"ID":71598,"DIS_CODE":0,"TOWNNAME":"安平區","LI":"建平里","LIN":"7鄰","STREET":"府前路","SECT":"二段","MAREA":" ","LANE":" ","ALLEY":" ","HOUSE_NO":"６２６號","E_COORD97":166335.57000000001,"N_COORD97":2543784.1099999999,"ADDRESS":"府前路二段６２６號","OBJECTID":71598},"geometry":{"x":166335.57000000123,"y":2543784.1099999994}},{"attributes":{"ID":71599,"DIS_CODE":0,"TOWNNAME":"歸仁區","LI":"歸南里","LIN":"15鄰","STREET":"民生十一街","SECT":" ","MAREA":" ","LANE":" ","ALLEY":" ","HOUSE_NO":"３２號","E_COORD97":176185.16,"N_COORD97":2539726.25,"ADDRESS":"民生十一街３２號","OBJECTID":71599},"geometry":{"x":176185.16000000108,"y":2539726.25}},{"attributes":{"ID":71600,"DIS_CODE":0,"TOWNNAME":"歸仁區","LI":"新厝里","LIN":"15鄰","STREET":"中正南路","SECT":"一段","MAREA":" ","LANE":" ","ALLEY":" ","HOUSE_NO":"１０９號","E_COORD97":177527.95000000001,"N_COORD97":2540482.5899999999,"ADDRESS":"中正南路一段１０９號","OBJECTID":71600},"geometry":{"x":177527.95000000112,"y":2540482.5899999999}}]}