{"displayFieldName":"TOWNNAME","fieldAliases":{"ID":"ID","DIS_CODE":"DIS_CODE","TOWNNAME":"TOWNNAME","LI":"LI","LIN":"LIN","STREET":"STREET","SECT":"SECT","MAREA":"MAREA","LANE":"LANE","ALLEY":"ALLEY","HOUSE_NO":"HOUSE_NO","E_COORD97":"E_COORD97","N_COORD97":"N_COORD97","ADDRESS":"ADDRESS","OBJECTID":"OBJECTID"},"geometryType":"esriGeometryPoint","spatialReference":{"wkid":102443,"latestWkid":3826},"fields":[{"name":"ID","type":"esriFieldTypeDouble","alias":"ID"},{"name":"DIS_CODE","type":"esriFieldTypeInteger","alias":"DIS_CODE"},{"name":"TOWNNAME","type":"esriFieldTypeString","alias":"TOWNNAME","length":8},{"name":"LI","type":"esriFieldTypeString","alias":"LI","length":8},{"name":"LIN","type":"esriFieldTypeString","alias":"LIN","length":12},{"name":"STREET","type":"esriFieldTypeString","alias":"STREET","length":20},{"name":"SECT","type":"esriFieldTypeString","alias":"SECT","length":8},{"name":"MAREA","type":"esriFieldTypeString","alias":"MAREA","length":12},{"name":"LANE","type":"esriFieldTypeString","alias":"LANE","length":10},{"name":"ALLEY","type":"esriFieldTypeString","alias":"ALLEY","length":10},{"name":"HOUSE_NO","type":"esriFieldTypeString","alias":"HOUSE_NO","length":20},{"name":"E_COORD97","type":"esriFieldTypeDouble","alias":"E_COORD97"},{"name":"N_COORD97","type":"esriFieldTypeDouble","alias":"N_COORD97"},{"name":"ADDRESS","type":"esriFieldTypeString","alias":"ADDRESS","length":50},{"name":"OBJECTID","type":"esriFieldTypeOID","alias":"OBJECTID"}],"features":[{"attributes":{"ID":312409,"DIS_CODE":0,"TOWNNAME":"中西區","LI":"保安里","LIN":"7鄰","STREET":"府前路","SECT":"二段","MAREA":" ","LANE":"４０巷","ALLEY":" ","HOUSE_NO":"１９號","E_COORD97":167624.29999999999,"N_COORD97":2543545.54,"ADDRESS":"府前路二段４０巷１９號","OBJECTID":312401},"geometry":{"x":167624.29999999981,"y":2543545.540000001}},{"attributes":{"ID":312410,"DIS_CODE":0,"TOWNNAME":"中西區","LI":"保安里","LIN":"7鄰","STREET":"府前路","SECT":"二段","MAREA":" ","LANE":"８４巷","ALLEY":" ","HOUSE_NO":"２號","E_COORD97":167567.17000000001,"N_COORD97":2543523.5899999999,"ADDRESS":"府前路二段８４巷２號","OBJECTID":312402},"geometry":{"x":167567.16999999993,"y":2543523.5899999999}},{"attributes":{"ID":312411,"DIS_CODE":0,"TOWNNAME":"中西區","LI":"保安里","LIN":"7鄰","STREET":"府前路","SECT":"二段","MAREA":" ","LANE":"８４巷","ALLEY":" ","HOUSE_NO":"６號","E_COORD97":167560.70999999999,"N_COORD97":2543529.1499999999,"ADDRESS":"府前路二段８４巷６號","OBJECTID":312403},"geometry":{"x":167560.70999999996,"y":2543529.1500000022}},{"attributes":{"ID":312412,"DIS_CODE":0,"TOWNNAME":"中西區","LI":"郡西里","LIN":"7鄰","STREET":"建安街","SECT":" ","MAREA":" ","LANE":"７４巷","ALLEY":" ","HOUSE_NO":"８號","E_COORD97":167414.26999999999,"N_COORD97":2543278.8199999998,"ADDRESS":"建安街７４巷８號","OBJECTID":312404},"geometry":{"x":167414.27000000142,"y":2543278.8200000003}},{"attributes":{"ID":312413,"DIS_CODE":0,"TOWNNAME":"下營區","LI":"新興里","LIN":"7鄰","STREET":"自由街","SECT":" ","MAREA":" ","LANE":"２１巷","ALLEY":" ","HOUSE_NO":"１號","E_COORD97":174761.32999999999,"N_COORD97":2570672.9300000002,"ADDRESS":"自由街２１巷１號","OBJECTID":312405},"geometry":{"x":174761.33000000194,"y":2570672.9300000034}},{"attributes":{"ID":312414,"DIS_CODE":0,"TOWNNAME":"下營區","LI":"新興里","LIN":"7鄰","STREET":"自由街","SECT":" ","MAREA":" ","LANE":"２１巷","ALLEY":" ","HOUSE_NO":"５號","E_COORD97":174748.79999999999,"N_COORD97":2570670.8399999999,"ADDRESS":"自由街２１巷５號","OBJECTID":312406},"geometry":{"x":174748.79999999981,"y":2570670.8400000017}},{"attributes":{"ID":312415,"DIS_CODE":0,"TOWNNAME":"歸仁區","LI":"歸南里","LIN":"1鄰","STREET":"民權南路","SECT":" ","MAREA":" ","LANE":"１９６巷","ALLEY":" ","HOUSE_NO":"３１號","E_COORD97":176900.45999999999,"N_COORD97":2540293.5,"ADDRESS":"民權南路１９６巷３１號","OBJECTID":312407},"geometry":{"x":176900.46000000089,"y":2540293.5}},{"attributes":{"ID":312416,"DIS_CODE":0,"TOWNNAME":"歸仁區","LI":"媽廟里","LIN":"4鄰","STREET":"和順路","SECT":"一段","MAREA":" ","LANE":"１１巷","ALLEY":" ","HOUSE_NO":"８０號","E_COORD97":177495.22,"N_COORD97":2543603.7200000002,"ADDRESS":"和順路一段１１巷８０號","OBJECTID":312408},"geometry":{"x":177495.22000000067,"y":2543603.7200000025}},{"attributes":{"ID":312417,"DIS_CODE":0,"TOWNNAME":"永康區","LI":"永康里","LIN":"7鄰","STREET":"中山南路","SECT":" ","MAREA":" ","LANE":"１１１６巷","ALLEY":" ","HOUSE_NO":"３３號","E_COORD97":173940.10000000001,"N_COORD97":2547286.2400000002,"ADDRESS":"中山南路１１１６巷３３號","OBJECTID":312409},"geometry":{"x":173940.09999999963,"y":2547286.2400000002}},{"attributes":{"ID":312418,"DIS_CODE":0,"TOWNNAME":"永康區","LI":"神洲里","LIN":"7鄰","STREET":"忠孝路","SECT":" ","MAREA":" ","LANE":"５４巷","ALLEY":" ","HOUSE_NO":"２１號","E_COORD97":172171.85999999999,"N_COORD97":2544765.75,"ADDRESS":"忠孝路５４巷２１號","OBJECTID":312410},"geometry":{"x":172171.86000000127,"y":2544765.7500000019}},{"attributes":{"ID":312419,"DIS_CODE":0,"TOWNNAME":"中西區","LI":"水仙里","LIN":"17鄰","STREET":"普濟街","SECT":" ","MAREA":" ","LANE":" ","ALLEY":" ","HOUSE_NO":"６號","E_COORD97":167804.94,"N_COORD97":2544183.9199999999,"ADDRESS":"普濟街６號","OBJECTID":312411},"geometry":{"x":167804.94000000041,"y":2544183.9199999981}},{"attributes":{"ID":312420,"DIS_CODE":0,"TOWNNAME":"中西區","LI":"水仙里","LIN":"17鄰","STREET":"普濟街","SECT":" ","MAREA":" ","LANE":" ","ALLEY":" ","HOUSE_NO":"８號","E_COORD97":167808,"N_COORD97":2544189.8999999999,"ADDRESS":"普濟街８號","OBJECTID":312412},"geometry":{"x":167808,"y":2544189.9000000004}},{"attributes":{"ID":312421,"DIS_CODE":0,"TOWNNAME":"安南區","LI":"州南里","LIN":"17鄰","STREET":"安和路","SECT":"四段","MAREA":" ","LANE":" ","ALLEY":" ","HOUSE_NO":"３７１號之１","E_COORD97":169911.57999999999,"N_COORD97":2550987.8900000001,"ADDRESS":"安和路四段３７１號之１","OBJECTID":312413},"geometry":{"x":169911.58000000101,"y":2550987.8900000006}},{"attributes":{"ID":312422,"DIS_CODE":0,"TOWNNAME":"安南區","LI":"梅花里","LIN":"17鄰","STREET":"安中路","SECT":"一段","MAREA":" ","LANE":" ","ALLEY":" ","HOUSE_NO":"７５９號","E_COORD97":167426.70999999999,"N_COORD97":2549336.0499999998,"ADDRESS":"安中路一段７５９號","OBJECTID":312414},"geometry":{"x":167426.70999999996,"y":2549336.0500000007}},{"attributes":{"ID":312423,"DIS_CODE":0,"TOWNNAME":"安南區","LI":"梅花里","LIN":"17鄰","STREET":"安中路","SECT":"一段","MAREA":" ","LANE":" ","ALLEY":" ","HOUSE_NO":"７６１號","E_COORD97":167423.09,"N_COORD97":2549338.1800000002,"ADDRESS":"安中路一段７６１號","OBJECTID":312415},"geometry":{"x":167423.09000000078,"y":2549338.1799999997}},{"attributes":{"ID":312424,"DIS_CODE":0,"TOWNNAME":"安南區","LI":"梅花里","LIN":"17鄰","STREET":"安中路","SECT":"一段","MAREA":" ","LANE":" ","ALLEY":" ","HOUSE_NO":"７６５號","E_COORD97":167415.42999999999,"N_COORD97":2549342.4300000002,"ADDRESS":"安中路一段７６５號","OBJECTID":312416},"geometry":{"x":167415.43000000063,"y":2549342.4299999997}},{"attributes":{"ID":312425,"DIS_CODE":0,"TOWNNAME":"安南區","LI":"梅花里","LIN":"17鄰","STREET":"安中路","SECT":"一段","MAREA":" ","LANE":" ","ALLEY":" ","HOUSE_NO":"７６７號","E_COORD97":167411.39000000001,"N_COORD97":2549344.3399999999,"ADDRESS":"安中路一段７６７號","OBJECTID":312417},"geometry":{"x":167411.38999999966,"y":2549344.3399999999}},{"attributes":{"ID":312426,"DIS_CODE":0,"TOWNNAME":"六甲區","LI":"六甲里","LIN":"24鄰","STREET":"中山路","SECT":" ","MAREA":" ","LANE":"４３巷","ALLEY":" ","HOUSE_NO":"５２之１０號","E_COORD97":183450.06,"N_COORD97":2569823.3900000001,"ADDRESS":"中山路４３巷５２之１０號","OBJECTID":312418},"geometry":{"x":183450.05999999959,"y":2569823.3900000025}},{"attributes":{"ID":312427,"DIS_CODE":0,"TOWNNAME":"六甲區","LI":"六甲里","LIN":"24鄰","STREET":"中山路","SECT":" ","MAREA":" ","LANE":"４３巷","ALLEY":" ","HOUSE_NO":"５２之１１號","E_COORD97":183445.56,"N_COORD97":2569825.46,"ADDRESS":"中山路４３巷５２之１１號","OBJECTID":312419},"geometry":{"x":183445.56000000145,"y":2569825.4600000009}},{"attributes":{"ID":312428,"DIS_CODE":0,"TOWNNAME":"六甲區","LI":"中社里","LIN":"8鄰","STREET":" ","SECT":" ","MAREA":"中社","LANE":" ","ALLEY":" ","HOUSE_NO":"３３８號","E_COORD97":180864.56,"N_COORD97":2570893.5499999998,"ADDRESS":"中社３３８號","OBJECTID":312420},"geometry":{"x":180864.55999999959,"y":2570893.5500000045}},{"attributes":{"ID":312429,"DIS_CODE":0,"TOWNNAME":"六甲區","LI":"大丘里","LIN":"1鄰","STREET":" ","SECT":" ","MAREA":"中坑","LANE":" ","ALLEY":" ","HOUSE_NO":"３號","E_COORD97":194498.47,"N_COORD97":2569359.4700000002,"ADDRESS":"中坑３號","OBJECTID":312421},"geometry":{"x":194498.46999999974,"y":2569359.4700000025}},{"attributes":{"ID":312430,"DIS_CODE":0,"TOWNNAME":"六甲區","LI":"中社里","LIN":"3鄰","STREET":" ","SECT":" ","MAREA":"中社","LANE":" ","ALLEY":" ","HOUSE_NO":"３３號","E_COORD97":181247.09,"N_COORD97":2570642.73,"ADDRESS":"中社３３號","OBJECTID":312422},"geometry":{"x":181247.09000000078,"y":2570642.7300000004}},{"attributes":{"ID":312431,"DIS_CODE":0,"TOWNNAME":"六甲區","LI":"六甲里","LIN":"24鄰","STREET":"中山路","SECT":" ","MAREA":" ","LANE":"４３巷","ALLEY":" ","HOUSE_NO":"５２之１２號","E_COORD97":183441.26000000001,"N_COORD97":2569827.48,"ADDRESS":"中山路４３巷５２之１２號","OBJECTID":312423},"geometry":{"x":183441.26000000071,"y":2569827.4800000004}},{"attributes":{"ID":312432,"DIS_CODE":0,"TOWNNAME":"六甲區","LI":"六甲里","LIN":"24鄰","STREET":"中山路","SECT":" ","MAREA":" ","LANE":"４３巷","ALLEY":" ","HOUSE_NO":"５２之１號","E_COORD97":183466.89999999999,"N_COORD97":2569836.8300000001,"ADDRESS":"中山路４３巷５２之１號","OBJECTID":312424},"geometry":{"x":183466.90000000037,"y":2569836.8300000019}},{"attributes":{"ID":312433,"DIS_CODE":0,"TOWNNAME":"麻豆區","LI":"安東里","LIN":"1鄰","STREET":" ","SECT":" ","MAREA":"安業","LANE":" ","ALLEY":" ","HOUSE_NO":"６號","E_COORD97":172868.17000000001,"N_COORD97":2562972.5699999998,"ADDRESS":"安業６號","OBJECTID":312425},"geometry":{"x":172868.16999999993,"y":2562972.5700000003}},{"attributes":{"ID":312434,"DIS_CODE":0,"TOWNNAME":"永康區","LI":"龍潭里","LIN":"7鄰","STREET":"龍潭街","SECT":" ","MAREA":" ","LANE":"１３９巷","ALLEY":" ","HOUSE_NO":"１１號","E_COORD97":174820.89999999999,"N_COORD97":2548234.5600000001,"ADDRESS":"龍潭街１３９巷１１號","OBJECTID":312426},"geometry":{"x":174820.9000000013,"y":2548234.5600000005}},{"attributes":{"ID":312435,"DIS_CODE":0,"TOWNNAME":"歸仁區","LI":"歸南里","LIN":"16鄰","STREET":"民生十一街","SECT":" ","MAREA":" ","LANE":"３１巷","ALLEY":" ","HOUSE_NO":"２２號","E_COORD97":176173.01000000001,"N_COORD97":2539807.25,"ADDRESS":"民生十一街３１巷２２號","OBJECTID":312427},"geometry":{"x":176173.00999999978,"y":2539807.25}},{"attributes":{"ID":312436,"DIS_CODE":0,"TOWNNAME":"歸仁區","LI":"歸南里","LIN":"26鄰","STREET":"民生十街","SECT":" ","MAREA":" ","LANE":"１８巷","ALLEY":" ","HOUSE_NO":"９號","E_COORD97":176060.81,"N_COORD97":2540249.25,"ADDRESS":"民生十街１８巷９號","OBJECTID":312428},"geometry":{"x":176060.80999999959,"y":2540249.2500000037}},{"attributes":{"ID":312437,"DIS_CODE":0,"TOWNNAME":"歸仁區","LI":"新厝里","LIN":"28鄰","STREET":"中正南路","SECT":"一段","MAREA":" ","LANE":"４５３巷","ALLEY":" ","HOUSE_NO":"１號","E_COORD97":176957.92000000001,"N_COORD97":2540054.79,"ADDRESS":"中正南路一段４５３巷１號","OBJECTID":312429},"geometry":{"x":176957.92000000086,"y":2540054.7900000028}},{"attributes":{"ID":312438,"DIS_CODE":0,"TOWNNAME":"佳里區","LI":"忠仁里","LIN":"7鄰","STREET":"忠仁街","SECT":" ","MAREA":" ","LANE":"５１巷","ALLEY":" ","HOUSE_NO":"１０號","E_COORD97":166009.35999999999,"N_COORD97":2562062.75,"ADDRESS":"忠仁街５１巷１０號","OBJECTID":312430},"geometry":{"x":166009.36000000127,"y":2562062.7500000037}},{"attributes":{"ID":312439,"DIS_CODE":0,"TOWNNAME":"佳里區","LI":"忠仁里","LIN":"7鄰","STREET":"忠仁街","SECT":" ","MAREA":" ","LANE":"５１巷","ALLEY":" ","HOUSE_NO":"１１號","E_COORD97":166007.60000000001,"N_COORD97":2562050.8300000001,"ADDRESS":"忠仁街５１巷１１號","OBJECTID":312431},"geometry":{"x":166007.60000000056,"y":2562050.8300000001}},{"attributes":{"ID":312440,"DIS_CODE":0,"TOWNNAME":"佳里區","LI":"忠仁里","LIN":"7鄰","STREET":"忠仁街","SECT":" ","MAREA":" ","LANE":"５１巷","ALLEY":" ","HOUSE_NO":"１２號","E_COORD97":166005.01000000001,"N_COORD97":2562061.4399999999,"ADDRESS":"忠仁街５１巷１２號","OBJECTID":312432},"geometry":{"x":166005.01000000071,"y":2562061.4400000013}},{"attributes":{"ID":312441,"DIS_CODE":0,"TOWNNAME":"佳里區","LI":"忠仁里","LIN":"7鄰","STREET":"忠仁街","SECT":" ","MAREA":" ","LANE":"５１巷","ALLEY":" ","HOUSE_NO":"１３號","E_COORD97":166003.04999999999,"N_COORD97":2562049.8399999999,"ADDRESS":"忠仁街５１巷１３號","OBJECTID":312433},"geometry":{"x":166003.05000000075,"y":2562049.8400000017}},{"attributes":{"ID":312442,"DIS_CODE":0,"TOWNNAME":"佳里區","LI":"忠仁里","LIN":"7鄰","STREET":"忠仁街","SECT":" ","MAREA":" ","LANE":"５１巷","ALLEY":" ","HOUSE_NO":"１４號","E_COORD97":166000.57999999999,"N_COORD97":2562060.4500000002,"ADDRESS":"忠仁街５１巷１４號","OBJECTID":312434},"geometry":{"x":166000.58000000194,"y":2562060.4499999974}},{"attributes":{"ID":312443,"DIS_CODE":0,"TOWNNAME":"佳里區","LI":"忠仁里","LIN":"7鄰","STREET":"忠仁街","SECT":" ","MAREA":" ","LANE":"５１巷","ALLEY":" ","HOUSE_NO":"１５號","E_COORD97":165998.66,"N_COORD97":2562048.6600000001,"ADDRESS":"忠仁街５１巷１５號","OBJECTID":312435},"geometry":{"x":165998.66000000108,"y":2562048.6600000001}},{"attributes":{"ID":312444,"DIS_CODE":0,"TOWNNAME":"安南區","LI":"梅花里","LIN":"17鄰","STREET":"安中路","SECT":"一段","MAREA":" ","LANE":" ","ALLEY":" ","HOUSE_NO":"７６７之１號","E_COORD97":167407.98999999999,"N_COORD97":2549347.1099999999,"ADDRESS":"安中路一段７６７之１號","OBJECTID":312436},"geometry":{"x":167407.99000000022,"y":2549347.1100000013}},{"attributes":{"ID":312445,"DIS_CODE":0,"TOWNNAME":"安南區","LI":"梅花里","LIN":"17鄰","STREET":"安中路","SECT":"一段","MAREA":" ","LANE":" ","ALLEY":" ","HOUSE_NO":"７６７之２號","E_COORD97":167403.51999999999,"N_COORD97":2549349.02,"ADDRESS":"安中路一段７６７之２號","OBJECTID":312437},"geometry":{"x":167403.51999999955,"y":2549349.0199999996}},{"attributes":{"ID":312446,"DIS_CODE":0,"TOWNNAME":"安南區","LI":"梅花里","LIN":"17鄰","STREET":"安中路","SECT":"一段","MAREA":" ","LANE":" ","ALLEY":" ","HOUSE_NO":"７６７之３號","E_COORD97":167399.69,"N_COORD97":2549351.1499999999,"ADDRESS":"安中路一段７６７之３號","OBJECTID":312438},"geometry":{"x":167399.69000000041,"y":2549351.1500000022}},{"attributes":{"ID":312447,"DIS_CODE":0,"TOWNNAME":"安南區","LI":"梅花里","LIN":"17鄰","STREET":"安中路","SECT":"一段","MAREA":" ","LANE":" ","ALLEY":" ","HOUSE_NO":"７６３號","E_COORD97":167419.04999999999,"N_COORD97":2549340.2999999998,"ADDRESS":"安中路一段７６３號","OBJECTID":312439},"geometry":{"x":167419.04999999981,"y":2549340.3000000026}},{"attributes":{"ID":312448,"DIS_CODE":0,"TOWNNAME":"六甲區","LI":"六甲里","LIN":"4鄰","STREET":"中正路","SECT":" ","MAREA":" ","LANE":"３７３巷","ALLEY":" ","HOUSE_NO":"１１號","E_COORD97":183485.73000000001,"N_COORD97":2569548.6499999999,"ADDRESS":"中正路３７３巷１１號","OBJECTID":312440},"geometry":{"x":183485.73000000045,"y":2569548.6500000004}},{"attributes":{"ID":312449,"DIS_CODE":0,"TOWNNAME":"六甲區","LI":"六甲里","LIN":"4鄰","STREET":"中正路","SECT":" ","MAREA":" ","LANE":"３７３巷","ALLEY":" ","HOUSE_NO":"１３號","E_COORD97":183494.01999999999,"N_COORD97":2569537.1299999999,"ADDRESS":"中正路３７３巷１３號","OBJECTID":312441},"geometry":{"x":183494.01999999955,"y":2569537.129999999}},{"attributes":{"ID":312450,"DIS_CODE":0,"TOWNNAME":"六甲區","LI":"六甲里","LIN":"4鄰","STREET":"中正路","SECT":" ","MAREA":" ","LANE":"３７３巷","ALLEY":" ","HOUSE_NO":"１５號之２","E_COORD97":183461.84,"N_COORD97":2569540.5899999999,"ADDRESS":"中正路３７３巷１５號之２","OBJECTID":312442},"geometry":{"x":183461.83999999985,"y":2569540.5900000017}},{"attributes":{"ID":312451,"DIS_CODE":0,"TOWNNAME":"佳里區","LI":"忠仁里","LIN":"7鄰","STREET":"忠仁街","SECT":" ","MAREA":" ","LANE":"５１巷","ALLEY":" ","HOUSE_NO":"１６號","E_COORD97":165996.03,"N_COORD97":2562059.3199999998,"ADDRESS":"忠仁街５１巷１６號","OBJECTID":312443},"geometry":{"x":165996.03000000212,"y":2562059.320000004}},{"attributes":{"ID":312452,"DIS_CODE":0,"TOWNNAME":"佳里區","LI":"忠仁里","LIN":"7鄰","STREET":"忠仁街","SECT":" ","MAREA":" ","LANE":"５１巷","ALLEY":" ","HOUSE_NO":"１７號","E_COORD97":165994.16,"N_COORD97":2562047.4700000002,"ADDRESS":"忠仁街５１巷１７號","OBJECTID":312444},"geometry":{"x":165994.16000000108,"y":2562047.4700000007}},{"attributes":{"ID":312453,"DIS_CODE":0,"TOWNNAME":"佳里區","LI":"忠仁里","LIN":"7鄰","STREET":"忠仁街","SECT":" ","MAREA":" ","LANE":"５１巷","ALLEY":" ","HOUSE_NO":"１８號","E_COORD97":165991.67000000001,"N_COORD97":2562058.1299999999,"ADDRESS":"忠仁街５１巷１８號","OBJECTID":312445},"geometry":{"x":165991.67000000086,"y":2562058.129999999}},{"attributes":{"ID":312454,"DIS_CODE":0,"TOWNNAME":"佳里區","LI":"忠仁里","LIN":"7鄰","STREET":"忠仁街","SECT":" ","MAREA":" ","LANE":"５１巷","ALLEY":" ","HOUSE_NO":"２０號","E_COORD97":165987.29999999999,"N_COORD97":2562056.98,"ADDRESS":"忠仁街５１巷２０號","OBJECTID":312446},"geometry":{"x":165987.30000000075,"y":2562056.9800000004}},{"attributes":{"ID":312455,"DIS_CODE":0,"TOWNNAME":"佳里區","LI":"忠仁里","LIN":"7鄰","STREET":"忠仁街","SECT":" ","MAREA":" ","LANE":"５１巷","ALLEY":" ","HOUSE_NO":"２號","E_COORD97":166027.14999999999,"N_COORD97":2562069.6299999999,"ADDRESS":"忠仁街５１巷２號","OBJECTID":312447},"geometry":{"x":166027.15000000037,"y":2562069.6300000008}},{"attributes":{"ID":312456,"DIS_CODE":0,"TOWNNAME":"佳里區","LI":"忠仁里","LIN":"7鄰","STREET":"忠仁街","SECT":" ","MAREA":" ","LANE":"５１巷","ALLEY":" ","HOUSE_NO":"３號","E_COORD97":166025.56,"N_COORD97":2562054.1099999999,"ADDRESS":"忠仁街５１巷３號","OBJECTID":312448},"geometry":{"x":166025.55999999866,"y":2562054.1100000013}},{"attributes":{"ID":312457,"DIS_CODE":0,"TOWNNAME":"佳里區","LI":"忠仁里","LIN":"7鄰","STREET":"忠仁街","SECT":" ","MAREA":" ","LANE":"５１巷","ALLEY":" ","HOUSE_NO":"４號","E_COORD97":166022.35999999999,"N_COORD97":2562067.2400000002,"ADDRESS":"忠仁街５１巷４號","OBJECTID":312449},"geometry":{"x":166022.36000000034,"y":2562067.2400000021}},{"attributes":{"ID":312458,"DIS_CODE":0,"TOWNNAME":"佳里區","LI":"忠仁里","LIN":"7鄰","STREET":"忠仁街","SECT":" ","MAREA":" ","LANE":"５１巷","ALLEY":" ","HOUSE_NO":"５號","E_COORD97":166021.23000000001,"N_COORD97":2562052.98,"ADDRESS":"忠仁街５１巷５號","OBJECTID":312450},"geometry":{"x":166021.23000000045,"y":2562052.9800000023}},{"attributes":{"ID":312459,"DIS_CODE":0,"TOWNNAME":"佳里區","LI":"忠仁里","LIN":"7鄰","STREET":"忠仁街","SECT":" ","MAREA":" ","LANE":"５１巷","ALLEY":" ","HOUSE_NO":"６號","E_COORD97":166018.60000000001,"N_COORD97":2562065.0699999998,"ADDRESS":"忠仁街５１巷６號","OBJECTID":312451},"geometry":{"x":166018.60000000149,"y":2562065.0700000022}},{"attributes":{"ID":312460,"DIS_CODE":0,"TOWNNAME":"佳里區","LI":"忠仁里","LIN":"7鄰","STREET":"忠仁街","SECT":" ","MAREA":" ","LANE":"５１巷","ALLEY":" ","HOUSE_NO":"７號","E_COORD97":166016.92000000001,"N_COORD97":2562051.8799999999,"ADDRESS":"忠仁街５１巷７號","OBJECTID":312452},"geometry":{"x":166016.92000000179,"y":2562051.8800000008}},{"attributes":{"ID":312461,"DIS_CODE":0,"TOWNNAME":"佳里區","LI":"忠仁里","LIN":"7鄰","STREET":"忠仁街","SECT":" ","MAREA":" ","LANE":"５１巷","ALLEY":" ","HOUSE_NO":"８號","E_COORD97":166013.75,"N_COORD97":2562063.8100000001,"ADDRESS":"忠仁街５１巷８號","OBJECTID":312453},"geometry":{"x":166013.75000000093,"y":2562063.8100000024}},{"attributes":{"ID":312462,"DIS_CODE":0,"TOWNNAME":"佳里區","LI":"忠仁里","LIN":"7鄰","STREET":"忠仁街","SECT":" ","MAREA":" ","LANE":"５１巷","ALLEY":" ","HOUSE_NO":"９號","E_COORD97":166012.39999999999,"N_COORD97":2562050.8599999999,"ADDRESS":"忠仁街５１巷９號","OBJECTID":312454},"geometry":{"x":166012.40000000224,"y":2562050.8599999994}},{"attributes":{"ID":312463,"DIS_CODE":0,"TOWNNAME":"佳里區","LI":"建南里","LIN":"7鄰","STREET":"建南街","SECT":" ","MAREA":" ","LANE":"１７９巷","ALLEY":" ","HOUSE_NO":"５號","E_COORD97":165665.25,"N_COORD97":2562185.23,"ADDRESS":"建南街１７９巷５號","OBJECTID":312455},"geometry":{"x":165665.25,"y":2562185.2299999986}},{"attributes":{"ID":312464,"DIS_CODE":0,"TOWNNAME":"佳里區","LI":"建南里","LIN":"7鄰","STREET":"建南街","SECT":" ","MAREA":" ","LANE":"１７９巷","ALLEY":" ","HOUSE_NO":"６號","E_COORD97":165675.41,"N_COORD97":2562219.5,"ADDRESS":"建南街１７９巷６號","OBJECTID":312456},"geometry":{"x":165675.41000000108,"y":2562219.5}},{"attributes":{"ID":312465,"DIS_CODE":0,"TOWNNAME":"佳里區","LI":"建南里","LIN":"7鄰","STREET":"建南街","SECT":" ","MAREA":" ","LANE":"１７９巷","ALLEY":" ","HOUSE_NO":"７號","E_COORD97":165663.95999999999,"N_COORD97":2562192.04,"ADDRESS":"建南街１７９巷７號","OBJECTID":312457},"geometry":{"x":165663.96000000183,"y":2562192.0400000028}},{"attributes":{"ID":312466,"DIS_CODE":0,"TOWNNAME":"佳里區","LI":"建南里","LIN":"7鄰","STREET":"建南街","SECT":" ","MAREA":" ","LANE":"１７９巷","ALLEY":" ","HOUSE_NO":"９號","E_COORD97":165662.98000000001,"N_COORD97":2562199.3100000001,"ADDRESS":"建南街１７９巷９號","OBJECTID":312458},"geometry":{"x":165662.98000000138,"y":2562199.3100000024}},{"attributes":{"ID":312467,"DIS_CODE":0,"TOWNNAME":"安南區","LI":"州北里","LIN":"7鄰","STREET":"安和路","SECT":"五段","MAREA":" ","LANE":"３３６巷","ALLEY":" ","HOUSE_NO":"１０號","E_COORD97":169721.94,"N_COORD97":2552192.23,"ADDRESS":"安和路五段３３６巷１０號","OBJECTID":312459},"geometry":{"x":169721.94000000134,"y":2552192.2300000023}},{"attributes":{"ID":312468,"DIS_CODE":0,"TOWNNAME":"安南區","LI":"州北里","LIN":"7鄰","STREET":"安和路","SECT":"五段","MAREA":" ","LANE":"３３６巷","ALLEY":" ","HOUSE_NO":"１１號","E_COORD97":169716.84,"N_COORD97":2552225.77,"ADDRESS":"安和路五段３３６巷１１號","OBJECTID":312460},"geometry":{"x":169716.84000000078,"y":2552225.7699999996}},{"attributes":{"ID":312469,"DIS_CODE":0,"TOWNNAME":"安南區","LI":"州北里","LIN":"7鄰","STREET":"安和路","SECT":"五段","MAREA":" ","LANE":"３３６巷","ALLEY":" ","HOUSE_NO":"１３號","E_COORD97":169720.76000000001,"N_COORD97":2552226.9399999999,"ADDRESS":"安和路五段３３６巷１３號","OBJECTID":312461},"geometry":{"x":169720.76000000071,"y":2552226.9400000013}},{"attributes":{"ID":312470,"DIS_CODE":0,"TOWNNAME":"安南區","LI":"州北里","LIN":"7鄰","STREET":"安和路","SECT":"五段","MAREA":" ","LANE":"３３６巷","ALLEY":" ","HOUSE_NO":"１號","E_COORD97":169688.56,"N_COORD97":2552217.1400000001,"ADDRESS":"安和路五段３３６巷１號","OBJECTID":312462},"geometry":{"x":169688.55999999959,"y":2552217.1400000006}},{"attributes":{"ID":312471,"DIS_CODE":0,"TOWNNAME":"歸仁區","LI":"歸南里","LIN":"26鄰","STREET":"民生十街","SECT":" ","MAREA":" ","LANE":"１８巷","ALLEY":" ","HOUSE_NO":"１２號","E_COORD97":176071.26000000001,"N_COORD97":2540243.25,"ADDRESS":"民生十街１８巷１２號","OBJECTID":312463},"geometry":{"x":176071.25999999978,"y":2540243.2500000019}},{"attributes":{"ID":312472,"DIS_CODE":0,"TOWNNAME":"歸仁區","LI":"文化里","LIN":"26鄰","STREET":"民權北路","SECT":" ","MAREA":" ","LANE":" ","ALLEY":" ","HOUSE_NO":"２１０號","E_COORD97":177037.39999999999,"N_COORD97":2541500.3300000001,"ADDRESS":"民權北路２１０號","OBJECTID":312464},"geometry":{"x":177037.40000000037,"y":2541500.3300000019}},{"attributes":{"ID":312473,"DIS_CODE":0,"TOWNNAME":"歸仁區","LI":"八甲里","LIN":"13鄰","STREET":"大明二街","SECT":" ","MAREA":" ","LANE":" ","ALLEY":" ","HOUSE_NO":"１號","E_COORD97":178050.17000000001,"N_COORD97":2541872.6099999999,"ADDRESS":"大明二街１號","OBJECTID":312465},"geometry":{"x":178050.16999999993,"y":2541872.6099999994}},{"attributes":{"ID":312474,"DIS_CODE":0,"TOWNNAME":"中西區","LI":"建國里","LIN":"17鄰","STREET":"新美街","SECT":" ","MAREA":" ","LANE":" ","ALLEY":" ","HOUSE_NO":"１２號","E_COORD97":168001.57999999999,"N_COORD97":2543901.3900000001,"ADDRESS":"新美街１２號","OBJECTID":312466},"geometry":{"x":168001.58000000101,"y":2543901.3900000025}},{"attributes":{"ID":312475,"DIS_CODE":0,"TOWNNAME":"六甲區","LI":"六甲里","LIN":"9鄰","STREET":"中正路","SECT":" ","MAREA":" ","LANE":"３９４巷","ALLEY":" ","HOUSE_NO":"９之２號","E_COORD97":183585.88,"N_COORD97":2569608.6099999999,"ADDRESS":"中正路３９４巷９之２號","OBJECTID":312467},"geometry":{"x":183585.87999999896,"y":2569608.6099999994}},{"attributes":{"ID":312476,"DIS_CODE":0,"TOWNNAME":"六甲區","LI":"六甲里","LIN":"9鄰","STREET":"中正路","SECT":" ","MAREA":" ","LANE":"３９４巷","ALLEY":" ","HOUSE_NO":"９號","E_COORD97":183597.44,"N_COORD97":2569601.0899999999,"ADDRESS":"中正路３９４巷９號","OBJECTID":312468},"geometry":{"x":183597.44000000041,"y":2569601.0900000017}},{"attributes":{"ID":312477,"DIS_CODE":0,"TOWNNAME":"六甲區","LI":"六甲里","LIN":"25鄰","STREET":"中正路","SECT":" ","MAREA":" ","LANE":"４２３巷","ALLEY":" ","HOUSE_NO":"１３號","E_COORD97":183509.60000000001,"N_COORD97":2569739.23,"ADDRESS":"中正路４２３巷１３號","OBJECTID":312469},"geometry":{"x":183509.60000000149,"y":2569739.2300000042}},{"attributes":{"ID":312478,"DIS_CODE":0,"TOWNNAME":"六甲區","LI":"六甲里","LIN":"24鄰","STREET":"中正路","SECT":" ","MAREA":" ","LANE":"４２３巷","ALLEY":" ","HOUSE_NO":"５６號","E_COORD97":183419.26000000001,"N_COORD97":2569783.9900000002,"ADDRESS":"中正路４２３巷５６號","OBJECTID":312470},"geometry":{"x":183419.26000000071,"y":2569783.9900000002}},{"attributes":{"ID":312479,"DIS_CODE":0,"TOWNNAME":"六甲區","LI":"六甲里","LIN":"26鄰","STREET":"中正路","SECT":" ","MAREA":" ","LANE":"６７３巷","ALLEY":" ","HOUSE_NO":"４８號","E_COORD97":183803.01999999999,"N_COORD97":2570439.8799999999,"ADDRESS":"中正路６７３巷４８號","OBJECTID":312471},"geometry":{"x":183803.01999999955,"y":2570439.8800000008}},{"attributes":{"ID":312480,"DIS_CODE":0,"TOWNNAME":"六甲區","LI":"六甲里","LIN":"26鄰","STREET":"中正路","SECT":" ","MAREA":" ","LANE":"６７３巷","ALLEY":" ","HOUSE_NO":"５０號","E_COORD97":183822.16,"N_COORD97":2570449.1699999999,"ADDRESS":"中正路６７３巷５０號","OBJECTID":312472},"geometry":{"x":183822.16000000108,"y":2570449.1700000018}},{"attributes":{"ID":312481,"DIS_CODE":0,"TOWNNAME":"六甲區","LI":"龍湖里","LIN":"15鄰","STREET":"中正路","SECT":" ","MAREA":" ","LANE":"７４巷","ALLEY":" ","HOUSE_NO":"１號","E_COORD97":183484.42999999999,"N_COORD97":2568740.8199999998,"ADDRESS":"中正路７４巷１號","OBJECTID":312473},"geometry":{"x":183484.43000000063,"y":2568740.8200000003}},{"attributes":{"ID":312482,"DIS_CODE":0,"TOWNNAME":"六甲區","LI":"龍湖里","LIN":"15鄰","STREET":"中正路","SECT":" ","MAREA":" ","LANE":"７４巷","ALLEY":" ","HOUSE_NO":"２號","E_COORD97":183487.38,"N_COORD97":2568717.4300000002,"ADDRESS":"中正路７４巷２號","OBJECTID":312474},"geometry":{"x":183487.37999999989,"y":2568717.4300000016}},{"attributes":{"ID":312483,"DIS_CODE":0,"TOWNNAME":"六甲區","LI":"龍湖里","LIN":"15鄰","STREET":"中正路","SECT":" ","MAREA":" ","LANE":"７４巷","ALLEY":" ","HOUSE_NO":"３號","E_COORD97":183507.20999999999,"N_COORD97":2568734.9500000002,"ADDRESS":"中正路７４巷３號","OBJECTID":312475},"geometry":{"x":183507.20999999996,"y":2568734.9499999993}},{"attributes":{"ID":312484,"DIS_CODE":0,"TOWNNAME":"六甲區","LI":"龍湖里","LIN":"15鄰","STREET":"中正路","SECT":" ","MAREA":" ","LANE":"７４巷","ALLEY":" ","HOUSE_NO":"４號","E_COORD97":183521,"N_COORD97":2568736.5499999998,"ADDRESS":"中正路７４巷４號","OBJECTID":312476},"geometry":{"x":183521.00000000093,"y":2568736.5500000007}},{"attributes":{"ID":312485,"DIS_CODE":0,"TOWNNAME":"六甲區","LI":"龍湖里","LIN":"15鄰","STREET":"中正路","SECT":" ","MAREA":" ","LANE":"７４巷","ALLEY":" ","HOUSE_NO":"５之１號","E_COORD97":183516.04000000001,"N_COORD97":2568762.7799999998,"ADDRESS":"中正路７４巷５之１號","OBJECTID":312477},"geometry":{"x":183516.04000000097,"y":2568762.7800000012}},{"attributes":{"ID":312486,"DIS_CODE":0,"TOWNNAME":"六甲區","LI":"龍湖里","LIN":"15鄰","STREET":"中正路","SECT":" ","MAREA":" ","LANE":"７４巷","ALLEY":" ","HOUSE_NO":"５號","E_COORD97":183515.22,"N_COORD97":2568750.8500000001,"ADDRESS":"中正路７４巷５號","OBJECTID":312478},"geometry":{"x":183515.21999999974,"y":2568750.8500000034}},{"attributes":{"ID":312487,"DIS_CODE":0,"TOWNNAME":"中西區","LI":"建國里","LIN":"17鄰","STREET":"新美街","SECT":" ","MAREA":" ","LANE":" ","ALLEY":" ","HOUSE_NO":"１４號","E_COORD97":168002.92000000001,"N_COORD97":2543905.4199999999,"ADDRESS":"新美街１４號","OBJECTID":312479},"geometry":{"x":168002.91999999993,"y":2543905.4199999999}},{"attributes":{"ID":312488,"DIS_CODE":0,"TOWNNAME":"中西區","LI":"建國里","LIN":"17鄰","STREET":"新美街","SECT":" ","MAREA":" ","LANE":" ","ALLEY":" ","HOUSE_NO":"１６號","E_COORD97":168003.45999999999,"N_COORD97":2543907.0299999998,"ADDRESS":"新美街１６號","OBJECTID":312480},"geometry":{"x":168003.46000000183,"y":2543907.0299999993}},{"attributes":{"ID":312489,"DIS_CODE":0,"TOWNNAME":"中西區","LI":"建國里","LIN":"17鄰","STREET":"新美街","SECT":" ","MAREA":" ","LANE":" ","ALLEY":" ","HOUSE_NO":"１８號","E_COORD97":168003.73000000001,"N_COORD97":2543908.6400000001,"ADDRESS":"新美街１８號","OBJECTID":312481},"geometry":{"x":168003.73000000231,"y":2543908.6400000043}},{"attributes":{"ID":312490,"DIS_CODE":0,"TOWNNAME":"中西區","LI":"建國里","LIN":"17鄰","STREET":"新美街","SECT":" ","MAREA":" ","LANE":" ","ALLEY":" ","HOUSE_NO":"２０號","E_COORD97":168004.79999999999,"N_COORD97":2543912.3900000001,"ADDRESS":"新美街２０號","OBJECTID":312482},"geometry":{"x":168004.80000000075,"y":2543912.3900000006}},{"attributes":{"ID":312491,"DIS_CODE":0,"TOWNNAME":"中西區","LI":"建國里","LIN":"17鄰","STREET":"新美街","SECT":" ","MAREA":" ","LANE":" ","ALLEY":" ","HOUSE_NO":"２２號","E_COORD97":168006.14000000001,"N_COORD97":2543915.8799999999,"ADDRESS":"新美街２２號","OBJECTID":312483},"geometry":{"x":168006.13999999966,"y":2543915.8800000008}},{"attributes":{"ID":312492,"DIS_CODE":0,"TOWNNAME":"中西區","LI":"建國里","LIN":"17鄰","STREET":"新美街","SECT":" ","MAREA":" ","LANE":" ","ALLEY":" ","HOUSE_NO":"２４號","E_COORD97":168007.22,"N_COORD97":2543919.1000000001,"ADDRESS":"新美街２４號","OBJECTID":312484},"geometry":{"x":168007.22000000067,"y":2543919.1000000015}},{"attributes":{"ID":312493,"DIS_CODE":0,"TOWNNAME":"中西區","LI":"建國里","LIN":"17鄰","STREET":"新美街","SECT":" ","MAREA":" ","LANE":" ","ALLEY":" ","HOUSE_NO":"２６號","E_COORD97":168008.29000000001,"N_COORD97":2543921.52,"ADDRESS":"新美街２６號","OBJECTID":312485},"geometry":{"x":168008.29000000097,"y":2543921.5199999996}},{"attributes":{"ID":312494,"DIS_CODE":0,"TOWNNAME":"中西區","LI":"建國里","LIN":"17鄰","STREET":"新美街","SECT":" ","MAREA":" ","LANE":" ","ALLEY":" ","HOUSE_NO":"２８號","E_COORD97":168009.37,"N_COORD97":2543925,"ADDRESS":"新美街２８號","OBJECTID":312486},"geometry":{"x":168009.37000000104,"y":2543925}},{"attributes":{"ID":312495,"DIS_CODE":0,"TOWNNAME":"中西區","LI":"建國里","LIN":"17鄰","STREET":"新美街","SECT":" ","MAREA":" ","LANE":" ","ALLEY":" ","HOUSE_NO":"２號","E_COORD97":167995.66,"N_COORD97":2543881.7999999998,"ADDRESS":"新美街２號","OBJECTID":312487},"geometry":{"x":167995.66000000108,"y":2543881.8000000026}},{"attributes":{"ID":312496,"DIS_CODE":0,"TOWNNAME":"中西區","LI":"建國里","LIN":"17鄰","STREET":"新美街","SECT":" ","MAREA":" ","LANE":" ","ALLEY":" ","HOUSE_NO":"３０號","E_COORD97":168010.17000000001,"N_COORD97":2543928.7599999998,"ADDRESS":"新美街３０號","OBJECTID":312488},"geometry":{"x":168010.16999999993,"y":2543928.7600000016}},{"attributes":{"ID":312497,"DIS_CODE":0,"TOWNNAME":"中西區","LI":"建國里","LIN":"17鄰","STREET":"新美街","SECT":" ","MAREA":" ","LANE":" ","ALLEY":" ","HOUSE_NO":"３２號","E_COORD97":168010.70999999999,"N_COORD97":2543930.6400000001,"ADDRESS":"新美街３２號","OBJECTID":312489},"geometry":{"x":168010.71000000089,"y":2543930.6400000025}},{"attributes":{"ID":312498,"DIS_CODE":0,"TOWNNAME":"中西區","LI":"建國里","LIN":"17鄰","STREET":"新美街","SECT":" ","MAREA":" ","LANE":" ","ALLEY":" ","HOUSE_NO":"３４號","E_COORD97":168011.51999999999,"N_COORD97":2543932.79,"ADDRESS":"新美街３４號","OBJECTID":312490},"geometry":{"x":168011.52000000048,"y":2543932.7899999991}},{"attributes":{"ID":312499,"DIS_CODE":0,"TOWNNAME":"中西區","LI":"建國里","LIN":"17鄰","STREET":"新美街","SECT":" ","MAREA":" ","LANE":" ","ALLEY":" ","HOUSE_NO":"３６號","E_COORD97":168013.13,"N_COORD97":2543937.3500000001,"ADDRESS":"新美街３６號","OBJECTID":312491},"geometry":{"x":168013.12999999989,"y":2543937.3500000015}},{"attributes":{"ID":312500,"DIS_CODE":0,"TOWNNAME":"中西區","LI":"建國里","LIN":"17鄰","STREET":"新美街","SECT":" ","MAREA":" ","LANE":" ","ALLEY":" ","HOUSE_NO":"３８號","E_COORD97":168013.94,"N_COORD97":2543940.8399999999,"ADDRESS":"新美街３８號","OBJECTID":312492},"geometry":{"x":168013.94000000041,"y":2543940.8400000017}},{"attributes":{"ID":312501,"DIS_CODE":0,"TOWNNAME":"六甲區","LI":"中社里","LIN":"4鄰","STREET":" ","SECT":" ","MAREA":"中社","LANE":" ","ALLEY":" ","HOUSE_NO":"１００號","E_COORD97":181043.09,"N_COORD97":2570834.7400000002,"ADDRESS":"中社１００號","OBJECTID":312493},"geometry":{"x":181043.08999999985,"y":2570834.7400000021}},{"attributes":{"ID":312502,"DIS_CODE":0,"TOWNNAME":"六甲區","LI":"中社里","LIN":"4鄰","STREET":" ","SECT":" ","MAREA":"中社","LANE":" ","ALLEY":" ","HOUSE_NO":"１０４號","E_COORD97":181023.39000000001,"N_COORD97":2570883.9399999999,"ADDRESS":"中社１０４號","OBJECTID":312494},"geometry":{"x":181023.3900000006,"y":2570883.9400000013}},{"attributes":{"ID":312503,"DIS_CODE":0,"TOWNNAME":"六甲區","LI":"中社里","LIN":"4鄰","STREET":" ","SECT":" ","MAREA":"中社","LANE":" ","ALLEY":" ","HOUSE_NO":"１１４號","E_COORD97":181026.26999999999,"N_COORD97":2570835.1200000001,"ADDRESS":"中社１１４號","OBJECTID":312495},"geometry":{"x":181026.26999999955,"y":2570835.120000001}},{"attributes":{"ID":312504,"DIS_CODE":0,"TOWNNAME":"六甲區","LI":"中社里","LIN":"4鄰","STREET":" ","SECT":" ","MAREA":"中社","LANE":" ","ALLEY":" ","HOUSE_NO":"１２０號","E_COORD97":181006.60999999999,"N_COORD97":2570835.02,"ADDRESS":"中社１２０號","OBJECTID":312496},"geometry":{"x":181006.6100000022,"y":2570835.0200000033}},{"attributes":{"ID":312505,"DIS_CODE":0,"TOWNNAME":"六甲區","LI":"中社里","LIN":"4鄰","STREET":" ","SECT":" ","MAREA":"中社","LANE":" ","ALLEY":" ","HOUSE_NO":"１２２號","E_COORD97":181005.54999999999,"N_COORD97":2570844.2599999998,"ADDRESS":"中社１２２號","OBJECTID":312497},"geometry":{"x":181005.54999999981,"y":2570844.2600000016}},{"attributes":{"ID":312506,"DIS_CODE":0,"TOWNNAME":"六甲區","LI":"中社里","LIN":"4鄰","STREET":" ","SECT":" ","MAREA":"中社","LANE":" ","ALLEY":" ","HOUSE_NO":"１２６號","E_COORD97":181005.22,"N_COORD97":2570852.21,"ADDRESS":"中社１２６號","OBJECTID":312498},"geometry":{"x":181005.2200000016,"y":2570852.2100000028}},{"attributes":{"ID":312507,"DIS_CODE":0,"TOWNNAME":"歸仁區","LI":"歸南里","LIN":"26鄰","STREET":"民生十街","SECT":" ","MAREA":" ","LANE":"１８巷","ALLEY":" ","HOUSE_NO":"１７號","E_COORD97":176084.66,"N_COORD97":2540255.25,"ADDRESS":"民生十街１８巷１７號","OBJECTID":312499},"geometry":{"x":176084.66000000015,"y":2540255.25}},{"attributes":{"ID":312508,"DIS_CODE":0,"TOWNNAME":"安南區","LI":"州北里","LIN":"7鄰","STREET":"安和路","SECT":"五段","MAREA":" ","LANE":"３３６巷","ALLEY":" ","HOUSE_NO":"２號","E_COORD97":169700.29000000001,"N_COORD97":2552184.6699999999,"ADDRESS":"安和路五段３３６巷２號","OBJECTID":312500},"geometry":{"x":169700.29000000097,"y":2552184.6700000018}},{"attributes":{"ID":312509,"DIS_CODE":0,"TOWNNAME":"安南區","LI":"州北里","LIN":"7鄰","STREET":"安和路","SECT":"五段","MAREA":" ","LANE":"３３６巷","ALLEY":" ","HOUSE_NO":"３號","E_COORD97":169693.67000000001,"N_COORD97":2552217.1400000001,"ADDRESS":"安和路五段３３６巷３號","OBJECTID":312501},"geometry":{"x":169693.67000000179,"y":2552217.1400000006}},{"attributes":{"ID":312510,"DIS_CODE":0,"TOWNNAME":"六甲區","LI":"中社里","LIN":"4鄰","STREET":" ","SECT":" ","MAREA":"中社","LANE":" ","ALLEY":" ","HOUSE_NO":"１３８號","E_COORD97":181009.39999999999,"N_COORD97":2570892.6899999999,"ADDRESS":"中社１３８號","OBJECTID":312502},"geometry":{"x":181009.40000000037,"y":2570892.6900000013}},{"attributes":{"ID":312511,"DIS_CODE":0,"TOWNNAME":"安南區","LI":"佃西里","LIN":"7鄰","STREET":"公學路","SECT":"四段","MAREA":" ","LANE":"２５７巷","ALLEY":" ","HOUSE_NO":"２９號","E_COORD97":165536.84,"N_COORD97":2551846.1200000001,"ADDRESS":"公學路四段２５７巷２９號","OBJECTID":312503},"geometry":{"x":165536.83999999985,"y":2551846.1200000048}},{"attributes":{"ID":312512,"DIS_CODE":0,"TOWNNAME":"安南區","LI":"佃西里","LIN":"7鄰","STREET":"公學路","SECT":"四段","MAREA":" ","LANE":"２５７巷","ALLEY":" ","HOUSE_NO":"３１號","E_COORD97":165553.51999999999,"N_COORD97":2551844,"ADDRESS":"公學路四段２５７巷３１號","OBJECTID":312504},"geometry":{"x":165553.52000000048,"y":2551844.0000000019}},{"attributes":{"ID":312513,"DIS_CODE":0,"TOWNNAME":"安南區","LI":"佃西里","LIN":"7鄰","STREET":"海佃路","SECT":"四段","MAREA":" ","LANE":"３８８巷","ALLEY":" ","HOUSE_NO":"５５號","E_COORD97":165579.60999999999,"N_COORD97":2551691.6499999999,"ADDRESS":"海佃路四段３８８巷５５號","OBJECTID":312505},"geometry":{"x":165579.61000000034,"y":2551691.6500000004}},{"attributes":{"ID":312514,"DIS_CODE":0,"TOWNNAME":"六甲區","LI":"七甲里","LIN":"12鄰","STREET":"中正路","SECT":" ","MAREA":" ","LANE":" ","ALLEY":" ","HOUSE_NO":"７７號","E_COORD97":183387.04999999999,"N_COORD97":2568725.1899999999,"ADDRESS":"中正路７７號","OBJECTID":312506},"geometry":{"x":183387.05000000075,"y":2568725.1900000013}},{"attributes":{"ID":312515,"DIS_CODE":0,"TOWNNAME":"安南區","LI":"佃西里","LIN":"7鄰","STREET":"海佃路","SECT":"四段","MAREA":" ","LANE":"３８８巷","ALLEY":" ","HOUSE_NO":"５７號","E_COORD97":165579.20999999999,"N_COORD97":2551695.8799999999,"ADDRESS":"海佃路四段３８８巷５７號","OBJECTID":312507},"geometry":{"x":165579.21000000183,"y":2551695.879999999}},{"attributes":{"ID":312516,"DIS_CODE":0,"TOWNNAME":"安南區","LI":"佃西里","LIN":"7鄰","STREET":"海佃路","SECT":"四段","MAREA":" ","LANE":"３８８巷","ALLEY":" ","HOUSE_NO":"５９號","E_COORD97":165578.95000000001,"N_COORD97":2551699.71,"ADDRESS":"海佃路四段３８８巷５９號","OBJECTID":312508},"geometry":{"x":165578.95000000019,"y":2551699.7100000046}},{"attributes":{"ID":312517,"DIS_CODE":0,"TOWNNAME":"安南區","LI":"佃西里","LIN":"7鄰","STREET":"海佃路","SECT":"四段","MAREA":" ","LANE":"３８８巷","ALLEY":" ","HOUSE_NO":"５９號之１","E_COORD97":165580.54000000001,"N_COORD97":2551705.1299999999,"ADDRESS":"海佃路四段３８８巷５９號之１","OBJECTID":312509},"geometry":{"x":165580.5400000019,"y":2551705.1300000027}},{"attributes":{"ID":312518,"DIS_CODE":0,"TOWNNAME":"安南區","LI":"佃西里","LIN":"7鄰","STREET":"海佃路","SECT":"四段","MAREA":" ","LANE":"３８８巷","ALLEY":" ","HOUSE_NO":"５９號之２","E_COORD97":165581.32999999999,"N_COORD97":2551708.04,"ADDRESS":"海佃路四段３８８巷５９號之２","OBJECTID":312510},"geometry":{"x":165581.33000000007,"y":2551708.0399999991}},{"attributes":{"ID":312519,"DIS_CODE":0,"TOWNNAME":"安南區","LI":"佃西里","LIN":"7鄰","STREET":"海佃路","SECT":"四段","MAREA":" ","LANE":"３８８巷","ALLEY":" ","HOUSE_NO":"５９號之３","E_COORD97":165580.39999999999,"N_COORD97":2551711.48,"ADDRESS":"海佃路四段３８８巷５９號之３","OBJECTID":312511},"geometry":{"x":165580.4000000013,"y":2551711.4800000023}},{"attributes":{"ID":312520,"DIS_CODE":0,"TOWNNAME":"安南區","LI":"佃西里","LIN":"7鄰","STREET":"海佃路","SECT":"四段","MAREA":" ","LANE":"３８８巷","ALLEY":" ","HOUSE_NO":"６１號","E_COORD97":165581.98999999999,"N_COORD97":2551717.4300000002,"ADDRESS":"海佃路四段３８８巷６１號","OBJECTID":312512},"geometry":{"x":165581.99000000022,"y":2551717.4300000034}},{"attributes":{"ID":312521,"DIS_CODE":0,"TOWNNAME":"六甲區","LI":"中社里","LIN":"7鄰","STREET":" ","SECT":" ","MAREA":"中社","LANE":" ","ALLEY":" ","HOUSE_NO":"１９８之１號","E_COORD97":180974.54000000001,"N_COORD97":2571172.9700000002,"ADDRESS":"中社１９８之１號","OBJECTID":312513},"geometry":{"x":180974.5400000019,"y":2571172.9700000025}},{"attributes":{"ID":312522,"DIS_CODE":0,"TOWNNAME":"六甲區","LI":"中社里","LIN":"7鄰","STREET":" ","SECT":" ","MAREA":"中社","LANE":" ","ALLEY":" ","HOUSE_NO":"１９８號","E_COORD97":180975.81,"N_COORD97":2571178.5099999998,"ADDRESS":"中社１９８號","OBJECTID":312514},"geometry":{"x":180975.81000000052,"y":2571178.5100000016}},{"attributes":{"ID":312523,"DIS_CODE":0,"TOWNNAME":"六甲區","LI":"中社里","LIN":"1鄰","STREET":" ","SECT":" ","MAREA":"中社","LANE":" ","ALLEY":" ","HOUSE_NO":"１號之１５","E_COORD97":182146.88,"N_COORD97":2570402.6099999999,"ADDRESS":"中社１號之１５","OBJECTID":312515},"geometry":{"x":182146.88000000175,"y":2570402.6099999994}},{"attributes":{"ID":312524,"DIS_CODE":0,"TOWNNAME":"六甲區","LI":"中社里","LIN":"6鄰","STREET":" ","SECT":" ","MAREA":"中社","LANE":" ","ALLEY":" ","HOUSE_NO":"１９１號","E_COORD97":181019.88,"N_COORD97":2570787.3399999999,"ADDRESS":"中社１９１號","OBJECTID":312516},"geometry":{"x":181019.88000000082,"y":2570787.3399999999}},{"attributes":{"ID":312525,"DIS_CODE":0,"TOWNNAME":"六甲區","LI":"中社里","LIN":"7鄰","STREET":" ","SECT":" ","MAREA":"中社","LANE":" ","ALLEY":" ","HOUSE_NO":"２００之３號","E_COORD97":180894.26999999999,"N_COORD97":2571231.0600000001,"ADDRESS":"中社２００之３號","OBJECTID":312517},"geometry":{"x":180894.26999999862,"y":2571231.0600000005}},{"attributes":{"ID":312526,"DIS_CODE":0,"TOWNNAME":"六甲區","LI":"中社里","LIN":"8鄰","STREET":" ","SECT":" ","MAREA":"中社","LANE":" ","ALLEY":" ","HOUSE_NO":"３５４號","E_COORD97":180835.16,"N_COORD97":2570896.52,"ADDRESS":"中社３５４號","OBJECTID":312518},"geometry":{"x":180835.16000000108,"y":2570896.5200000014}},{"attributes":{"ID":312527,"DIS_CODE":0,"TOWNNAME":"六甲區","LI":"中社里","LIN":"4鄰","STREET":" ","SECT":" ","MAREA":"中社","LANE":" ","ALLEY":" ","HOUSE_NO":"７０號","E_COORD97":181094.66,"N_COORD97":2570855.8599999999,"ADDRESS":"中社７０號","OBJECTID":312519},"geometry":{"x":181094.66000000108,"y":2570855.8599999975}},{"attributes":{"ID":312528,"DIS_CODE":0,"TOWNNAME":"六甲區","LI":"中社里","LIN":"4鄰","STREET":" ","SECT":" ","MAREA":"中社","LANE":" ","ALLEY":" ","HOUSE_NO":"８６號","E_COORD97":181079.26999999999,"N_COORD97":2570843.8999999999,"ADDRESS":"中社８６號","OBJECTID":312520},"geometry":{"x":181079.27000000142,"y":2570843.9000000022}},{"attributes":{"ID":312529,"DIS_CODE":0,"TOWNNAME":"六甲區","LI":"中社里","LIN":"4鄰","STREET":" ","SECT":" ","MAREA":"中社","LANE":" ","ALLEY":" ","HOUSE_NO":"９０號","E_COORD97":181051.22,"N_COORD97":2570829.9700000002,"ADDRESS":"中社９０號","OBJECTID":312521},"geometry":{"x":181051.22000000067,"y":2570829.9700000025}},{"attributes":{"ID":312530,"DIS_CODE":0,"TOWNNAME":"六甲區","LI":"中社里","LIN":"4鄰","STREET":" ","SECT":" ","MAREA":"中社","LANE":" ","ALLEY":" ","HOUSE_NO":"９２號","E_COORD97":181048.29000000001,"N_COORD97":2570828.8199999998,"ADDRESS":"中社９２號","OBJECTID":312522},"geometry":{"x":181048.29000000004,"y":2570828.8200000003}},{"attributes":{"ID":312531,"DIS_CODE":0,"TOWNNAME":"六甲區","LI":"中社里","LIN":"4鄰","STREET":" ","SECT":" ","MAREA":"中社","LANE":" ","ALLEY":" ","HOUSE_NO":"９４號","E_COORD97":181044.95000000001,"N_COORD97":2570827.6499999999,"ADDRESS":"中社９４號","OBJECTID":312523},"geometry":{"x":181044.95000000112,"y":2570827.6500000004}},{"attributes":{"ID":312532,"DIS_CODE":0,"TOWNNAME":"六甲區","LI":"中社里","LIN":"4鄰","STREET":" ","SECT":" ","MAREA":"中社","LANE":" ","ALLEY":" ","HOUSE_NO":"９６號","E_COORD97":181041.13,"N_COORD97":2570826.4100000001,"ADDRESS":"中社９６號","OBJECTID":312524},"geometry":{"x":181041.12999999989,"y":2570826.410000002}},{"attributes":{"ID":312533,"DIS_CODE":0,"TOWNNAME":"安南區","LI":"佃西里","LIN":"7鄰","STREET":"海佃路","SECT":"四段","MAREA":" ","LANE":"３８８巷","ALLEY":" ","HOUSE_NO":"６３號","E_COORD97":165581.07000000001,"N_COORD97":2551721.6699999999,"ADDRESS":"海佃路四段３８８巷６３號","OBJECTID":312525},"geometry":{"x":165581.07000000123,"y":2551721.6699999999}},{"attributes":{"ID":312534,"DIS_CODE":0,"TOWNNAME":"安南區","LI":"佃西里","LIN":"7鄰","STREET":"海佃路","SECT":"四段","MAREA":" ","LANE":"３８８巷","ALLEY":" ","HOUSE_NO":"６５號","E_COORD97":165580.14000000001,"N_COORD97":2551725.8999999999,"ADDRESS":"海佃路四段３８８巷６５號","OBJECTID":312526},"geometry":{"x":165580.1400000006,"y":2551725.9000000022}},{"attributes":{"ID":312535,"DIS_CODE":0,"TOWNNAME":"安南區","LI":"佃西里","LIN":"7鄰","STREET":"海佃路","SECT":"四段","MAREA":" ","LANE":"３８８巷","ALLEY":" ","HOUSE_NO":"６５號之１","E_COORD97":165578.67999999999,"N_COORD97":2551730.1800000002,"ADDRESS":"海佃路四段３８８巷６５號之１","OBJECTID":312527},"geometry":{"x":165578.6799999997,"y":2551730.1800000016}},{"attributes":{"ID":312536,"DIS_CODE":0,"TOWNNAME":"六甲區","LI":"中社里","LIN":"4鄰","STREET":" ","SECT":" ","MAREA":"中社","LANE":" ","ALLEY":" ","HOUSE_NO":"９８號","E_COORD97":181044.10999999999,"N_COORD97":2570847.9199999999,"ADDRESS":"中社９８號","OBJECTID":312528},"geometry":{"x":181044.11000000127,"y":2570847.9199999999}},{"attributes":{"ID":312537,"DIS_CODE":0,"TOWNNAME":"新營區","LI":"土庫里","LIN":"1鄰","STREET":" ","SECT":" ","MAREA":"土庫","LANE":" ","ALLEY":" ","HOUSE_NO":"５號之２","E_COORD97":182980.98000000001,"N_COORD97":2579996.4500000002,"ADDRESS":"土庫５號之２","OBJECTID":312529},"geometry":{"x":182980.98000000138,"y":2579996.4500000011}},{"attributes":{"ID":312538,"DIS_CODE":0,"TOWNNAME":"安南區","LI":"佃西里","LIN":"7鄰","STREET":"海佃路","SECT":"四段","MAREA":" ","LANE":"３８８巷","ALLEY":" ","HOUSE_NO":"６５號之２","E_COORD97":165577.62,"N_COORD97":2551735.8599999999,"ADDRESS":"海佃路四段３８８巷６５號之２","OBJECTID":312530},"geometry":{"x":165577.62000000011,"y":2551735.8600000013}},{"attributes":{"ID":312539,"DIS_CODE":0,"TOWNNAME":"安南區","LI":"佃西里","LIN":"7鄰","STREET":"海佃路","SECT":"四段","MAREA":" ","LANE":"３８８巷","ALLEY":" ","HOUSE_NO":"６５號之３","E_COORD97":165578.82000000001,"N_COORD97":2551739.04,"ADDRESS":"海佃路四段３８８巷６５號之３","OBJECTID":312531},"geometry":{"x":165578.82000000216,"y":2551739.0399999991}},{"attributes":{"ID":312540,"DIS_CODE":0,"TOWNNAME":"安南區","LI":"佃西里","LIN":"7鄰","STREET":"海佃路","SECT":"四段","MAREA":" ","LANE":"３８８巷","ALLEY":" ","HOUSE_NO":"６５號之４","E_COORD97":165581.07000000001,"N_COORD97":2551742.48,"ADDRESS":"海佃路四段３８８巷６５號之４","OBJECTID":312532},"geometry":{"x":165581.07000000123,"y":2551742.4800000023}},{"attributes":{"ID":312541,"DIS_CODE":0,"TOWNNAME":"安南區","LI":"佃西里","LIN":"7鄰","STREET":"海佃路","SECT":"四段","MAREA":" ","LANE":"３８８巷","ALLEY":" ","HOUSE_NO":"９７號","E_COORD97":165581.45999999999,"N_COORD97":2551835.1099999999,"ADDRESS":"海佃路四段３８８巷９７號","OBJECTID":312533},"geometry":{"x":165581.46000000089,"y":2551835.1100000013}},{"attributes":{"ID":312542,"DIS_CODE":0,"TOWNNAME":"歸仁區","LI":"歸南里","LIN":"15鄰","STREET":"民生十一街","SECT":" ","MAREA":" ","LANE":"３１巷","ALLEY":" ","HOUSE_NO":"９號","E_COORD97":176170.35999999999,"N_COORD97":2539754.25,"ADDRESS":"民生十一街３１巷９號","OBJECTID":312534},"geometry":{"x":176170.36000000127,"y":2539754.2500000037}},{"attributes":{"ID":312543,"DIS_CODE":0,"TOWNNAME":"大內區","LI":"石城里","LIN":"13鄰","STREET":" ","SECT":" ","MAREA":"石子瀨","LANE":" ","ALLEY":" ","HOUSE_NO":"１１７號","E_COORD97":183947.26048699999,"N_COORD97":2558026.3299599998,"ADDRESS":"石子瀨１１７號","OBJECTID":312535},"geometry":{"x":183947.26048699953,"y":2558026.3299550004}},{"attributes":{"ID":312544,"DIS_CODE":0,"TOWNNAME":"歸仁區","LI":"媽廟里","LIN":"4鄰","STREET":"和順路","SECT":"一段","MAREA":" ","LANE":"１１巷","ALLEY":" ","HOUSE_NO":"９８號","E_COORD97":177454.32000000001,"N_COORD97":2543612.7200000002,"ADDRESS":"和順路一段１１巷９８號","OBJECTID":312536},"geometry":{"x":177454.32000000123,"y":2543612.7200000007}},{"attributes":{"ID":312545,"DIS_CODE":0,"TOWNNAME":"安南區","LI":"砂崙里","LIN":"7鄰","STREET":"青砂街","SECT":"一段","MAREA":" ","LANE":"５７２巷","ALLEY":" ","HOUSE_NO":"１號","E_COORD97":160080.48999999999,"N_COORD97":2552610.5499999998,"ADDRESS":"青砂街一段５７２巷１號","OBJECTID":312537},"geometry":{"x":160080.49000000115,"y":2552610.5500000026}},{"attributes":{"ID":312546,"DIS_CODE":0,"TOWNNAME":"安南區","LI":"砂崙里","LIN":"7鄰","STREET":"青砂街","SECT":"一段","MAREA":" ","LANE":"５７２巷","ALLEY":" ","HOUSE_NO":"１１號","E_COORD97":160082.06,"N_COORD97":2552631.6099999999,"ADDRESS":"青砂街一段５７２巷１１號","OBJECTID":312538},"geometry":{"x":160082.05999999959,"y":2552631.6100000013}},{"attributes":{"ID":312547,"DIS_CODE":0,"TOWNNAME":"安南區","LI":"砂崙里","LIN":"7鄰","STREET":"青砂街","SECT":"一段","MAREA":" ","LANE":"５７２巷","ALLEY":" ","HOUSE_NO":"１３號","E_COORD97":160082.70000000001,"N_COORD97":2552635.98,"ADDRESS":"青砂街一段５７２巷１３號","OBJECTID":312539},"geometry":{"x":160082.70000000112,"y":2552635.9800000004}},{"attributes":{"ID":312548,"DIS_CODE":0,"TOWNNAME":"新市區","LI":"永就里","LIN":"6鄰","STREET":" ","SECT":" ","MAREA":"永就","LANE":" ","ALLEY":" ","HOUSE_NO":"６８之５０號","E_COORD97":177476.66153000001,"N_COORD97":2550549.7994599999,"ADDRESS":"永就６８之５０號","OBJECTID":312540},"geometry":{"x":177476.66153000202,"y":2550549.7994600032}},{"attributes":{"ID":312549,"DIS_CODE":0,"TOWNNAME":"安南區","LI":"砂崙里","LIN":"7鄰","STREET":"青砂街","SECT":"一段","MAREA":" ","LANE":"５７２巷","ALLEY":" ","HOUSE_NO":"１５號","E_COORD97":160083.70999999999,"N_COORD97":2552639.8399999999,"ADDRESS":"青砂街一段５７２巷１５號","OBJECTID":312541},"geometry":{"x":160083.71000000089,"y":2552639.8399999999}},{"attributes":{"ID":312550,"DIS_CODE":0,"TOWNNAME":"安南區","LI":"砂崙里","LIN":"7鄰","STREET":"青砂街","SECT":"一段","MAREA":" ","LANE":"５７２巷","ALLEY":" ","HOUSE_NO":"１７號","E_COORD97":160082.79000000001,"N_COORD97":2552644.8900000001,"ADDRESS":"青砂街一段５７２巷１７號","OBJECTID":312542},"geometry":{"x":160082.79000000004,"y":2552644.8900000025}},{"attributes":{"ID":312551,"DIS_CODE":0,"TOWNNAME":"安南區","LI":"砂崙里","LIN":"7鄰","STREET":"青砂街","SECT":"一段","MAREA":" ","LANE":"５７２巷","ALLEY":" ","HOUSE_NO":"１９號","E_COORD97":160083.53,"N_COORD97":2552648.9300000002,"ADDRESS":"青砂街一段５７２巷１９號","OBJECTID":312543},"geometry":{"x":160083.53000000119,"y":2552648.9299999997}},{"attributes":{"ID":312552,"DIS_CODE":0,"TOWNNAME":"大內區","LI":"石城里","LIN":"13鄰","STREET":" ","SECT":" ","MAREA":"石子瀨","LANE":" ","ALLEY":" ","HOUSE_NO":"１１８號","E_COORD97":183929.25351400001,"N_COORD97":2558043.05161,"ADDRESS":"石子瀨１１８號","OBJECTID":312544},"geometry":{"x":183929.25351400021,"y":2558043.0516129993}},{"attributes":{"ID":312553,"DIS_CODE":0,"TOWNNAME":"六甲區","LI":"王爺里","LIN":"4鄰","STREET":" ","SECT":" ","MAREA":"水流東","LANE":" ","ALLEY":" ","HOUSE_NO":"１４號","E_COORD97":189468.95000000001,"N_COORD97":2569695.1200000001,"ADDRESS":"水流東１４號","OBJECTID":312545},"geometry":{"x":189468.95000000112,"y":2569695.120000001}},{"attributes":{"ID":312554,"DIS_CODE":0,"TOWNNAME":"六甲區","LI":"王爺里","LIN":"4鄰","STREET":" ","SECT":" ","MAREA":"水流東","LANE":" ","ALLEY":" ","HOUSE_NO":"１５號","E_COORD97":189484.87,"N_COORD97":2569678.4199999999,"ADDRESS":"水流東１５號","OBJECTID":312546},"geometry":{"x":189484.87000000011,"y":2569678.4199999999}},{"attributes":{"ID":312555,"DIS_CODE":0,"TOWNNAME":"中西區","LI":"建國里","LIN":"17鄰","STREET":"新美街","SECT":" ","MAREA":" ","LANE":" ","ALLEY":" ","HOUSE_NO":"４０號","E_COORD97":168014.47,"N_COORD97":2543942.71,"ADDRESS":"新美街４０號","OBJECTID":312547},"geometry":{"x":168014.46999999974,"y":2543942.7100000028}},{"attributes":{"ID":312556,"DIS_CODE":0,"TOWNNAME":"六甲區","LI":"王爺里","LIN":"4鄰","STREET":" ","SECT":" ","MAREA":"水流東","LANE":" ","ALLEY":" ","HOUSE_NO":"１６號","E_COORD97":189474.35999999999,"N_COORD97":2569708.02,"ADDRESS":"水流東１６號","OBJECTID":312548},"geometry":{"x":189474.36000000127,"y":2569708.0199999996}},{"attributes":{"ID":312557,"DIS_CODE":0,"TOWNNAME":"六甲區","LI":"王爺里","LIN":"4鄰","STREET":" ","SECT":" ","MAREA":"水流東","LANE":" ","ALLEY":" ","HOUSE_NO":"１８號","E_COORD97":189467.89999999999,"N_COORD97":2569733.1499999999,"ADDRESS":"水流東１８號","OBJECTID":312549},"geometry":{"x":189467.90000000037,"y":2569733.1500000022}},{"attributes":{"ID":312558,"DIS_CODE":0,"TOWNNAME":"六甲區","LI":"王爺里","LIN":"4鄰","STREET":" ","SECT":" ","MAREA":"水流東","LANE":" ","ALLEY":" ","HOUSE_NO":"１９之１號","E_COORD97":189486.85999999999,"N_COORD97":2569754.6000000001,"ADDRESS":"水流東１９之１號","OBJECTID":312550},"geometry":{"x":189486.86000000034,"y":2569754.5999999996}},{"attributes":{"ID":312559,"DIS_CODE":0,"TOWNNAME":"六甲區","LI":"王爺里","LIN":"4鄰","STREET":" ","SECT":" ","MAREA":"水流東","LANE":" ","ALLEY":" ","HOUSE_NO":"１９號","E_COORD97":189502.17000000001,"N_COORD97":2569747.77,"ADDRESS":"水流東１９號","OBJECTID":312551},"geometry":{"x":189502.17000000086,"y":2569747.7699999996}},{"attributes":{"ID":312560,"DIS_CODE":0,"TOWNNAME":"六甲區","LI":"王爺里","LIN":"4鄰","STREET":" ","SECT":" ","MAREA":"水流東","LANE":" ","ALLEY":" ","HOUSE_NO":"２０號","E_COORD97":189504.01999999999,"N_COORD97":2569763.4199999999,"ADDRESS":"水流東２０號","OBJECTID":312552},"geometry":{"x":189504.01999999955,"y":2569763.4199999999}},{"attributes":{"ID":312561,"DIS_CODE":0,"TOWNNAME":"六甲區","LI":"王爺里","LIN":"4鄰","STREET":" ","SECT":" ","MAREA":"水流東","LANE":" ","ALLEY":" ","HOUSE_NO":"２１號","E_COORD97":189503.45999999999,"N_COORD97":2569711.8500000001,"ADDRESS":"水流東２１號","OBJECTID":312553},"geometry":{"x":189503.46000000183,"y":2569711.8500000015}},{"attributes":{"ID":312562,"DIS_CODE":0,"TOWNNAME":"六甲區","LI":"大丘里","LIN":"8鄰","STREET":" ","SECT":" ","MAREA":"北勢坑","LANE":" ","ALLEY":" ","HOUSE_NO":"１１號之１","E_COORD97":191402.29999999999,"N_COORD97":2570045.8100000001,"ADDRESS":"北勢坑１１號之１","OBJECTID":312554},"geometry":{"x":191402.29999999981,"y":2570045.8100000005}},{"attributes":{"ID":312563,"DIS_CODE":0,"TOWNNAME":"六甲區","LI":"大丘里","LIN":"8鄰","STREET":" ","SECT":" ","MAREA":"北勢坑","LANE":" ","ALLEY":" ","HOUSE_NO":"１１號","E_COORD97":191382.95999999999,"N_COORD97":2570063.2599999998,"ADDRESS":"北勢坑１１號","OBJECTID":312555},"geometry":{"x":191382.95999999996,"y":2570063.2599999998}},{"attributes":{"ID":312564,"DIS_CODE":0,"TOWNNAME":"六甲區","LI":"大丘里","LIN":"8鄰","STREET":" ","SECT":" ","MAREA":"北勢坑","LANE":" ","ALLEY":" ","HOUSE_NO":"１２號","E_COORD97":191404.47,"N_COORD97":2570073.23,"ADDRESS":"北勢坑１２號","OBJECTID":312556},"geometry":{"x":191404.46999999974,"y":2570073.2300000004}},{"attributes":{"ID":312565,"DIS_CODE":0,"TOWNNAME":"六甲區","LI":"王爺里","LIN":"10鄰","STREET":" ","SECT":" ","MAREA":"王爺宮","LANE":" ","ALLEY":" ","HOUSE_NO":"１１號","E_COORD97":188503.62,"N_COORD97":2568913.8599999999,"ADDRESS":"王爺宮１１號","OBJECTID":312557},"geometry":{"x":188503.62000000011,"y":2568913.8600000013}},{"attributes":{"ID":312566,"DIS_CODE":0,"TOWNNAME":"六甲區","LI":"王爺里","LIN":"10鄰","STREET":" ","SECT":" ","MAREA":"王爺宮","LANE":" ","ALLEY":" ","HOUSE_NO":"１３號之２","E_COORD97":188559.13,"N_COORD97":2568844.9900000002,"ADDRESS":"王爺宮１３號之２","OBJECTID":312558},"geometry":{"x":188559.12999999989,"y":2568844.9900000002}},{"attributes":{"ID":312567,"DIS_CODE":0,"TOWNNAME":"六甲區","LI":"王爺里","LIN":"10鄰","STREET":" ","SECT":" ","MAREA":"王爺宮","LANE":" ","ALLEY":" ","HOUSE_NO":"１３號之３","E_COORD97":188577.31,"N_COORD97":2568812.7400000002,"ADDRESS":"王爺宮１３號之３","OBJECTID":312559},"geometry":{"x":188577.31000000052,"y":2568812.7400000002}},{"attributes":{"ID":312568,"DIS_CODE":0,"TOWNNAME":"六甲區","LI":"王爺里","LIN":"10鄰","STREET":" ","SECT":" ","MAREA":"王爺宮","LANE":" ","ALLEY":" ","HOUSE_NO":"１３號","E_COORD97":188511.41,"N_COORD97":2568864.98,"ADDRESS":"王爺宮１３號","OBJECTID":312560},"geometry":{"x":188511.41000000108,"y":2568864.9800000004}},{"attributes":{"ID":312569,"DIS_CODE":0,"TOWNNAME":"六甲區","LI":"王爺里","LIN":"10鄰","STREET":" ","SECT":" ","MAREA":"王爺宮","LANE":" ","ALLEY":" ","HOUSE_NO":"１４號之１","E_COORD97":188614.44,"N_COORD97":2568855.6000000001,"ADDRESS":"王爺宮１４號之１","OBJECTID":312561},"geometry":{"x":188614.44000000134,"y":2568855.6000000015}},{"attributes":{"ID":312570,"DIS_CODE":0,"TOWNNAME":"安南區","LI":"砂崙里","LIN":"7鄰","STREET":"青砂街","SECT":"一段","MAREA":" ","LANE":"５７２巷","ALLEY":" ","HOUSE_NO":"２１號","E_COORD97":160085.19,"N_COORD97":2552653.6699999999,"ADDRESS":"青砂街一段５７２巷２１號","OBJECTID":312562},"geometry":{"x":160085.19000000041,"y":2552653.6699999999}},{"attributes":{"ID":312571,"DIS_CODE":0,"TOWNNAME":"安南區","LI":"砂崙里","LIN":"7鄰","STREET":"青砂街","SECT":"一段","MAREA":" ","LANE":"５７２巷","ALLEY":" ","HOUSE_NO":"２３號","E_COORD97":160085.82999999999,"N_COORD97":2552657.8900000001,"ADDRESS":"青砂街一段５７２巷２３號","OBJECTID":312563},"geometry":{"x":160085.83000000007,"y":2552657.8900000025}},{"attributes":{"ID":312572,"DIS_CODE":0,"TOWNNAME":"安南區","LI":"砂崙里","LIN":"7鄰","STREET":"青砂街","SECT":"一段","MAREA":" ","LANE":"５７２巷","ALLEY":" ","HOUSE_NO":"２５號","E_COORD97":160086.75,"N_COORD97":2552662.3900000001,"ADDRESS":"青砂街一段５７２巷２５號","OBJECTID":312564},"geometry":{"x":160086.75000000093,"y":2552662.3900000025}},{"attributes":{"ID":312573,"DIS_CODE":0,"TOWNNAME":"六甲區","LI":"甲南里","LIN":"4鄰","STREET":"民生街","SECT":" ","MAREA":" ","LANE":" ","ALLEY":" ","HOUSE_NO":"５４號","E_COORD97":183707.73999999999,"N_COORD97":2569685.3500000001,"ADDRESS":"民生街５４號","OBJECTID":312565},"geometry":{"x":183707.74000000209,"y":2569685.3499999996}},{"attributes":{"ID":312574,"DIS_CODE":0,"TOWNNAME":"新營區","LI":"土庫里","LIN":"4鄰","STREET":" ","SECT":" ","MAREA":"土庫","LANE":" ","ALLEY":" ","HOUSE_NO":"３８號","E_COORD97":183292.54999999999,"N_COORD97":2579949.5800000001,"ADDRESS":"土庫３８號","OBJECTID":312566},"geometry":{"x":183292.54999999981,"y":2579949.5800000019}},{"attributes":{"ID":312575,"DIS_CODE":0,"TOWNNAME":"新營區","LI":"護鎮里","LIN":"4鄰","STREET":" ","SECT":" ","MAREA":"後鎮","LANE":" ","ALLEY":" ","HOUSE_NO":"４５號之４","E_COORD97":179180.13,"N_COORD97":2581157.0499999998,"ADDRESS":"後鎮４５之４號","OBJECTID":312567},"geometry":{"x":179180.13000000175,"y":2581157.0500000026}},{"attributes":{"ID":312576,"DIS_CODE":0,"TOWNNAME":"永康區","LI":"六合里","LIN":"2鄰","STREET":"中山南路","SECT":" ","MAREA":" ","LANE":" ","ALLEY":" ","HOUSE_NO":"２之３號","E_COORD97":170696.82388899999,"N_COORD97":2545743.3226399999,"ADDRESS":"中山南路２之３號","OBJECTID":312568},"geometry":{"x":170696.82388900127,"y":2545743.3226350006}},{"attributes":{"ID":312577,"DIS_CODE":0,"TOWNNAME":"六甲區","LI":"水林里","LIN":"17鄰","STREET":"民族街","SECT":" ","MAREA":" ","LANE":"１１巷","ALLEY":" ","HOUSE_NO":"１４號","E_COORD97":183616.01000000001,"N_COORD97":2570242.4500000002,"ADDRESS":"民族街１１巷１４號","OBJECTID":312569},"geometry":{"x":183616.01000000071,"y":2570242.4500000011}},{"attributes":{"ID":312578,"DIS_CODE":0,"TOWNNAME":"六甲區","LI":"水林里","LIN":"17鄰","STREET":"民族街","SECT":" ","MAREA":" ","LANE":"１１巷","ALLEY":" ","HOUSE_NO":"１５號","E_COORD97":183637.32000000001,"N_COORD97":2570229.2400000002,"ADDRESS":"民族街１１巷１５號","OBJECTID":312570},"geometry":{"x":183637.3200000003,"y":2570229.2400000002}},{"attributes":{"ID":312579,"DIS_CODE":0,"TOWNNAME":"六甲區","LI":"水林里","LIN":"17鄰","STREET":"民族街","SECT":" ","MAREA":" ","LANE":"１１巷","ALLEY":" ","HOUSE_NO":"１６號","E_COORD97":183615.09,"N_COORD97":2570238.54,"ADDRESS":"民族街１１巷１６號","OBJECTID":312571},"geometry":{"x":183615.09000000171,"y":2570238.540000001}},{"attributes":{"ID":312580,"DIS_CODE":0,"TOWNNAME":"六甲區","LI":"水林里","LIN":"17鄰","STREET":"民族街","SECT":" ","MAREA":" ","LANE":"１１巷","ALLEY":" ","HOUSE_NO":"１７號","E_COORD97":183636.04000000001,"N_COORD97":2570225.1200000001,"ADDRESS":"民族街１１巷１７號","OBJECTID":312572},"geometry":{"x":183636.0400000019,"y":2570225.1199999992}},{"attributes":{"ID":312581,"DIS_CODE":0,"TOWNNAME":"六甲區","LI":"水林里","LIN":"8鄰","STREET":"民族街","SECT":" ","MAREA":" ","LANE":"２７５巷","ALLEY":" ","HOUSE_NO":"４０號之１","E_COORD97":183040.39000000001,"N_COORD97":2570231.98,"ADDRESS":"民族街２７５巷４０號之１","OBJECTID":312573},"geometry":{"x":183040.3900000006,"y":2570231.9800000004}},{"attributes":{"ID":312582,"DIS_CODE":0,"TOWNNAME":"安南區","LI":"砂崙里","LIN":"7鄰","STREET":"青砂街","SECT":"一段","MAREA":" ","LANE":"５７２巷","ALLEY":" ","HOUSE_NO":"２７號","E_COORD97":160087.12,"N_COORD97":2552665.7000000002,"ADDRESS":"青砂街一段５７２巷２７號","OBJECTID":312574},"geometry":{"x":160087.12000000011,"y":2552665.7000000011}},{"attributes":{"ID":312583,"DIS_CODE":0,"TOWNNAME":"安南區","LI":"砂崙里","LIN":"7鄰","STREET":"青砂街","SECT":"一段","MAREA":" ","LANE":"５７２巷","ALLEY":" ","HOUSE_NO":"２９號","E_COORD97":160088.22,"N_COORD97":2552669.6499999999,"ADDRESS":"青砂街一段５７２巷２９號","OBJECTID":312575},"geometry":{"x":160088.2200000016,"y":2552669.6500000022}},{"attributes":{"ID":312584,"DIS_CODE":0,"TOWNNAME":"永康區","LI":"建國里","LIN":"25鄰","STREET":" ","SECT":" ","MAREA":"慈光九村","LANE":" ","ALLEY":" ","HOUSE_NO":"９號","E_COORD97":172796.23999999999,"N_COORD97":2544276,"ADDRESS":"慈光九村９號","OBJECTID":312576},"geometry":{"x":172796.24000000115,"y":2544276.0000000019}},{"attributes":{"ID":312585,"DIS_CODE":0,"TOWNNAME":"安南區","LI":"砂崙里","LIN":"7鄰","STREET":"青砂街","SECT":"一段","MAREA":" ","LANE":"５７２巷","ALLEY":" ","HOUSE_NO":"３１號","E_COORD97":160088.78,"N_COORD97":2552674.3999999999,"ADDRESS":"青砂街一段５７２巷３１號","OBJECTID":312577},"geometry":{"x":160088.78000000119,"y":2552674.4000000041}},{"attributes":{"ID":312586,"DIS_CODE":0,"TOWNNAME":"安南區","LI":"砂崙里","LIN":"7鄰","STREET":"青砂街","SECT":"一段","MAREA":" ","LANE":"５７２巷","ALLEY":" ","HOUSE_NO":"３３號","E_COORD97":160089.42000000001,"N_COORD97":2552678.8100000001,"ADDRESS":"青砂街一段５７２巷３３號","OBJECTID":312578},"geometry":{"x":160089.42000000086,"y":2552678.8100000024}},{"attributes":{"ID":312587,"DIS_CODE":0,"TOWNNAME":"安南區","LI":"砂崙里","LIN":"7鄰","STREET":"青砂街","SECT":"一段","MAREA":" ","LANE":"５７２巷","ALLEY":" ","HOUSE_NO":"３５號","E_COORD97":160089.42000000001,"N_COORD97":2552682.6600000001,"ADDRESS":"青砂街一段５７２巷３５號","OBJECTID":312579},"geometry":{"x":160089.42000000086,"y":2552682.660000002}},{"attributes":{"ID":312588,"DIS_CODE":0,"TOWNNAME":"安南區","LI":"砂崙里","LIN":"7鄰","STREET":"青砂街","SECT":"一段","MAREA":" ","LANE":"５７２巷","ALLEY":" ","HOUSE_NO":"３７號","E_COORD97":160090.06,"N_COORD97":2552687.3500000001,"ADDRESS":"青砂街一段５７２巷３７號","OBJECTID":312580},"geometry":{"x":160090.05999999959,"y":2552687.3500000034}},{"attributes":{"ID":312589,"DIS_CODE":0,"TOWNNAME":"安南區","LI":"砂崙里","LIN":"7鄰","STREET":"青砂街","SECT":"一段","MAREA":" ","LANE":"５７２巷","ALLEY":" ","HOUSE_NO":"３號","E_COORD97":160081.04000000001,"N_COORD97":2552614.5899999999,"ADDRESS":"青砂街一段５７２巷３號","OBJECTID":312581},"geometry":{"x":160081.04000000004,"y":2552614.5900000036}},{"attributes":{"ID":312590,"DIS_CODE":0,"TOWNNAME":"安南區","LI":"砂崙里","LIN":"7鄰","STREET":"青砂街","SECT":"一段","MAREA":" ","LANE":"５７２巷","ALLEY":" ","HOUSE_NO":"４１號","E_COORD97":160091.07999999999,"N_COORD97":2552696.1699999999,"ADDRESS":"青砂街一段５７２巷４１號","OBJECTID":312582},"geometry":{"x":160091.07999999914,"y":2552696.1700000018}},{"attributes":{"ID":312591,"DIS_CODE":0,"TOWNNAME":"安南區","LI":"砂崙里","LIN":"7鄰","STREET":"青砂街","SECT":"一段","MAREA":" ","LANE":"５７２巷","ALLEY":" ","HOUSE_NO":"５號","E_COORD97":160081.60000000001,"N_COORD97":2552618.2000000002,"ADDRESS":"青砂街一段５７２巷５號","OBJECTID":312583},"geometry":{"x":160081.59999999963,"y":2552618.2000000011}},{"attributes":{"ID":312592,"DIS_CODE":0,"TOWNNAME":"安南區","LI":"砂崙里","LIN":"7鄰","STREET":"青砂街","SECT":"一段","MAREA":" ","LANE":"５７２巷","ALLEY":" ","HOUSE_NO":"７號","E_COORD97":160081.87,"N_COORD97":2552622.6099999999,"ADDRESS":"青砂街一段５７２巷７號","OBJECTID":312584},"geometry":{"x":160081.87000000011,"y":2552622.6099999994}},{"attributes":{"ID":312593,"DIS_CODE":0,"TOWNNAME":"安南區","LI":"砂崙里","LIN":"7鄰","STREET":"青砂街","SECT":"一段","MAREA":" ","LANE":"５７２巷","ALLEY":" ","HOUSE_NO":"９號","E_COORD97":160082.06,"N_COORD97":2552627.3900000001,"ADDRESS":"青砂街一段５７２巷９號","OBJECTID":312585},"geometry":{"x":160082.05999999959,"y":2552627.3900000025}},{"attributes":{"ID":312594,"DIS_CODE":0,"TOWNNAME":"中西區","LI":"建國里","LIN":"17鄰","STREET":"新美街","SECT":" ","MAREA":" ","LANE":" ","ALLEY":" ","HOUSE_NO":"４２號","E_COORD97":168015.54999999999,"N_COORD97":2543945.6499999999,"ADDRESS":"新美街４２號","OBJECTID":312586},"geometry":{"x":168015.54999999981,"y":2543945.6500000041}},{"attributes":{"ID":312595,"DIS_CODE":0,"TOWNNAME":"中西區","LI":"建國里","LIN":"17鄰","STREET":"新美街","SECT":" ","MAREA":" ","LANE":" ","ALLEY":" ","HOUSE_NO":"４４號","E_COORD97":168016.07999999999,"N_COORD97":2543948.0699999998,"ADDRESS":"新美街４４號","OBJECTID":312587},"geometry":{"x":168016.07999999914,"y":2543948.0700000003}},{"attributes":{"ID":312596,"DIS_CODE":0,"TOWNNAME":"中西區","LI":"建國里","LIN":"17鄰","STREET":"新美街","SECT":" ","MAREA":" ","LANE":" ","ALLEY":" ","HOUSE_NO":"４６號","E_COORD97":168016.89000000001,"N_COORD97":2543950.21,"ADDRESS":"新美街４６號","OBJECTID":312588},"geometry":{"x":168016.88999999966,"y":2543950.2100000028}},{"attributes":{"ID":312597,"DIS_CODE":0,"TOWNNAME":"中西區","LI":"建國里","LIN":"17鄰","STREET":"新美街","SECT":" ","MAREA":" ","LANE":" ","ALLEY":" ","HOUSE_NO":"４８號","E_COORD97":168017.70000000001,"N_COORD97":2543952.3599999999,"ADDRESS":"新美街４８號","OBJECTID":312589},"geometry":{"x":168017.70000000112,"y":2543952.3599999994}},{"attributes":{"ID":312598,"DIS_CODE":0,"TOWNNAME":"中西區","LI":"建國里","LIN":"17鄰","STREET":"新美街","SECT":" ","MAREA":" ","LANE":" ","ALLEY":" ","HOUSE_NO":"４號","E_COORD97":167997.01000000001,"N_COORD97":2543886.1000000001,"ADDRESS":"新美街４號","OBJECTID":312590},"geometry":{"x":167997.00999999978,"y":2543886.0999999996}},{"attributes":{"ID":312599,"DIS_CODE":0,"TOWNNAME":"中西區","LI":"建國里","LIN":"17鄰","STREET":"新美街","SECT":" ","MAREA":" ","LANE":" ","ALLEY":" ","HOUSE_NO":"６號","E_COORD97":167997.81,"N_COORD97":2543889.5800000001,"ADDRESS":"新美街６號","OBJECTID":312591},"geometry":{"x":167997.81000000052,"y":2543889.5800000019}},{"attributes":{"ID":312600,"DIS_CODE":0,"TOWNNAME":"新營區","LI":"王公里","LIN":"4鄰","STREET":"民治路","SECT":" ","MAREA":" ","LANE":" ","ALLEY":" ","HOUSE_NO":"２０號之２","E_COORD97":180319.98000000001,"N_COORD97":2578893.54,"ADDRESS":"民治路２０號之２","OBJECTID":312592},"geometry":{"x":180319.98000000138,"y":2578893.540000001}},{"attributes":{"ID":312601,"DIS_CODE":0,"TOWNNAME":"新營區","LI":"太北里","LIN":"16鄰","STREET":" ","SECT":" ","MAREA":"太子宮","LANE":" ","ALLEY":" ","HOUSE_NO":"１３２號之５","E_COORD97":175903.09294999999,"N_COORD97":2576891.5515000001,"ADDRESS":"太子宮１３２號之５","OBJECTID":312593},"geometry":{"x":175903.09295000043,"y":2576891.5514970012}},{"attributes":{"ID":312602,"DIS_CODE":0,"TOWNNAME":"新營區","LI":"太北里","LIN":"20鄰","STREET":" ","SECT":" ","MAREA":"太子宮","LANE":" ","ALLEY":" ","HOUSE_NO":"１４０之３號","E_COORD97":175861.48999999999,"N_COORD97":2576829.8399999999,"ADDRESS":"太子宮１４０之３號","OBJECTID":312594},"geometry":{"x":175861.49000000022,"y":2576829.8399999999}},{"attributes":{"ID":312603,"DIS_CODE":0,"TOWNNAME":"新營區","LI":"嘉芳里","LIN":"5鄰","STREET":" ","SECT":" ","MAREA":"茄苳腳","LANE":" ","ALLEY":" ","HOUSE_NO":"５７號之２７","E_COORD97":176874.20000000001,"N_COORD97":2578473.8199999998,"ADDRESS":"茄苳腳５７之２７號","OBJECTID":312595},"geometry":{"x":176874.20000000019,"y":2578473.8200000003}},{"attributes":{"ID":312604,"DIS_CODE":0,"TOWNNAME":"新營區","LI":"土庫里","LIN":"8鄰","STREET":" ","SECT":" ","MAREA":"土庫","LANE":" ","ALLEY":" ","HOUSE_NO":"７１號之３２","E_COORD97":182933.92000000001,"N_COORD97":2579890.3599999999,"ADDRESS":"土庫７１號之３２","OBJECTID":312596},"geometry":{"x":182933.92000000086,"y":2579890.3599999994}},{"attributes":{"ID":312605,"DIS_CODE":0,"TOWNNAME":"新營區","LI":"嘉芳里","LIN":" ","STREET":" ","SECT":" ","MAREA":"茄苳腳","LANE":" ","ALLEY":" ","HOUSE_NO":"２９之９號","E_COORD97":177038.98999999999,"N_COORD97":2578324.6000000001,"ADDRESS":"茄苳腳２９之９號","OBJECTID":312597},"geometry":{"x":177038.99000000115,"y":2578324.6000000015}},{"attributes":{"ID":312606,"DIS_CODE":0,"TOWNNAME":"新營區","LI":"新南里","LIN":"20鄰","STREET":"復興路","SECT":" ","MAREA":" ","LANE":"５２０巷","ALLEY":" ","HOUSE_NO":"１８號","E_COORD97":178235.20999999999,"N_COORD97":2578319.8100000001,"ADDRESS":"復興路５２０巷１８號","OBJECTID":312598},"geometry":{"x":178235.20999999996,"y":2578319.8100000042}},{"attributes":{"ID":312607,"DIS_CODE":0,"TOWNNAME":"新營區","LI":"民生里","LIN":"26鄰","STREET":"民生路","SECT":" ","MAREA":" ","LANE":"１３９巷","ALLEY":" ","HOUSE_NO":"３２號","E_COORD97":179145.92000000001,"N_COORD97":2578588.96,"ADDRESS":"民生路１３９巷３２號","OBJECTID":312599},"geometry":{"x":179145.91999999899,"y":2578588.9600000009}},{"attributes":{"ID":312608,"DIS_CODE":0,"TOWNNAME":"新營區","LI":"護鎮里","LIN":"8鄰","STREET":"中正路","SECT":" ","MAREA":" ","LANE":"４３９巷","ALLEY":" ","HOUSE_NO":"１０３號","E_COORD97":179310.26999999999,"N_COORD97":2580203.96,"ADDRESS":"中正路４３９巷１０３號","OBJECTID":312600},"geometry":{"x":179310.26999999955,"y":2580203.959999999}}]}