{"displayFieldName":"TOWNNAME","fieldAliases":{"ID":"ID","DIS_CODE":"DIS_CODE","TOWNNAME":"TOWNNAME","LI":"LI","LIN":"LIN","STREET":"STREET","SECT":"SECT","MAREA":"MAREA","LANE":"LANE","ALLEY":"ALLEY","HOUSE_NO":"HOUSE_NO","E_COORD97":"E_COORD97","N_COORD97":"N_COORD97","ADDRESS":"ADDRESS","OBJECTID":"OBJECTID"},"geometryType":"esriGeometryPoint","spatialReference":{"wkid":102443,"latestWkid":3826},"fields":[{"name":"ID","type":"esriFieldTypeDouble","alias":"ID"},{"name":"DIS_CODE","type":"esriFieldTypeInteger","alias":"DIS_CODE"},{"name":"TOWNNAME","type":"esriFieldTypeString","alias":"TOWNNAME","length":8},{"name":"LI","type":"esriFieldTypeString","alias":"LI","length":8},{"name":"LIN","type":"esriFieldTypeString","alias":"LIN","length":12},{"name":"STREET","type":"esriFieldTypeString","alias":"STREET","length":20},{"name":"SECT","type":"esriFieldTypeString","alias":"SECT","length":8},{"name":"MAREA","type":"esriFieldTypeString","alias":"MAREA","length":12},{"name":"LANE","type":"esriFieldTypeString","alias":"LANE","length":10},{"name":"ALLEY","type":"esriFieldTypeString","alias":"ALLEY","length":10},{"name":"HOUSE_NO","type":"esriFieldTypeString","alias":"HOUSE_NO","length":20},{"name":"E_COORD97","type":"esriFieldTypeDouble","alias":"E_COORD97"},{"name":"N_COORD97","type":"esriFieldTypeDouble","alias":"N_COORD97"},{"name":"ADDRESS","type":"esriFieldTypeString","alias":"ADDRESS","length":50},{"name":"OBJECTID","type":"esriFieldTypeOID","alias":"OBJECTID"}],"features":[{"attributes":{"ID":164002,"DIS_CODE":0,"TOWNNAME":"東區","LI":"崇信里","LIN":"24鄰","STREET":"崇善一街","SECT":" ","MAREA":" ","LANE":" ","ALLEY":" ","HOUSE_NO":"８０號五樓之１","E_COORD97":170834.92000000001,"N_COORD97":2542294.98,"ADDRESS":"崇善一街８０號五樓之１","OBJECTID":164001},"geometry":{"x":170834.92000000086,"y":2542294.9800000004}},{"attributes":{"ID":164003,"DIS_CODE":0,"TOWNNAME":"安南區","LI":"州北里","LIN":"6鄰","STREET":"安和路","SECT":"五段","MAREA":" ","LANE":"１７１巷","ALLEY":"４７弄","HOUSE_NO":"３５號","E_COORD97":169713.88,"N_COORD97":2551744.3900000001,"ADDRESS":"安和路五段１７１巷４７弄３５號","OBJECTID":164002},"geometry":{"x":169713.87999999989,"y":2551744.3900000006}},{"attributes":{"ID":164004,"DIS_CODE":0,"TOWNNAME":"安南區","LI":"州北里","LIN":"6鄰","STREET":"安和路","SECT":"五段","MAREA":" ","LANE":"１７１巷","ALLEY":"４７弄","HOUSE_NO":"３７號","E_COORD97":169709.42999999999,"N_COORD97":2551744.1099999999,"ADDRESS":"安和路五段１７１巷４７弄３７號","OBJECTID":164003},"geometry":{"x":169709.43000000063,"y":2551744.1100000013}},{"attributes":{"ID":164005,"DIS_CODE":0,"TOWNNAME":"安南區","LI":"州北里","LIN":"21鄰","STREET":"安和路","SECT":"五段","MAREA":" ","LANE":"２６９巷","ALLEY":"１４弄","HOUSE_NO":"１號","E_COORD97":169629.79000000001,"N_COORD97":2552011.48,"ADDRESS":"安和路五段２６９巷１４弄１號","OBJECTID":164004},"geometry":{"x":169629.79000000004,"y":2552011.4800000004}},{"attributes":{"ID":164006,"DIS_CODE":0,"TOWNNAME":"安南區","LI":"州北里","LIN":"21鄰","STREET":"安和路","SECT":"五段","MAREA":" ","LANE":"２６９巷","ALLEY":"１４弄","HOUSE_NO":"２號","E_COORD97":169646.92999999999,"N_COORD97":2552018.6800000002,"ADDRESS":"安和路五段２６９巷１４弄２號","OBJECTID":164005},"geometry":{"x":169646.9299999997,"y":2552018.6800000016}},{"attributes":{"ID":164007,"DIS_CODE":0,"TOWNNAME":"安南區","LI":"州北里","LIN":"21鄰","STREET":"安和路","SECT":"五段","MAREA":" ","LANE":"２６９巷","ALLEY":"１４弄","HOUSE_NO":"３號","E_COORD97":169628.69,"N_COORD97":2552017.3900000001,"ADDRESS":"安和路五段２６９巷１４弄３號","OBJECTID":164006},"geometry":{"x":169628.69000000134,"y":2552017.3900000025}},{"attributes":{"ID":164008,"DIS_CODE":0,"TOWNNAME":"安南區","LI":"公親里","LIN":"7鄰","STREET":"公學路","SECT":"一段","MAREA":" ","LANE":"４２巷","ALLEY":"１５弄","HOUSE_NO":"１０號","E_COORD97":168511.45000000001,"N_COORD97":2553120.21,"ADDRESS":"公學路一段４２巷１５弄１０號","OBJECTID":164007},"geometry":{"x":168511.45000000019,"y":2553120.2100000046}},{"attributes":{"ID":164009,"DIS_CODE":0,"TOWNNAME":"安南區","LI":"公親里","LIN":"7鄰","STREET":"公學路","SECT":"一段","MAREA":" ","LANE":"４２巷","ALLEY":"１５弄","HOUSE_NO":"２０號","E_COORD97":168479.03,"N_COORD97":2553124.1000000001,"ADDRESS":"公學路一段４２巷１５弄２０號","OBJECTID":164008},"geometry":{"x":168479.03000000026,"y":2553124.1000000015}},{"attributes":{"ID":164010,"DIS_CODE":0,"TOWNNAME":"永康區","LI":"甲頂里","LIN":"4鄰","STREET":"中正南路","SECT":" ","MAREA":" ","LANE":"１６８巷","ALLEY":"１６弄","HOUSE_NO":"６號","E_COORD97":169877.10000000001,"N_COORD97":2546944.75,"ADDRESS":"中正南路１６８巷１６弄６號","OBJECTID":164009},"geometry":{"x":169877.10000000056,"y":2546944.75}},{"attributes":{"ID":164011,"DIS_CODE":0,"TOWNNAME":"永康區","LI":"尚頂里","LIN":" ","STREET":"南台街","SECT":" ","MAREA":" ","LANE":"１３５巷","ALLEY":"１弄","HOUSE_NO":"４號","E_COORD97":169984.42999999999,"N_COORD97":2546964,"ADDRESS":"南台街１３５巷１弄４號","OBJECTID":164010},"geometry":{"x":169984.4299999997,"y":2546964.0000000019}},{"attributes":{"ID":164012,"DIS_CODE":0,"TOWNNAME":"永康區","LI":"西灣里","LIN":"18鄰","STREET":"大安街","SECT":" ","MAREA":" ","LANE":"２９３巷","ALLEY":"９弄","HOUSE_NO":"２之５號","E_COORD97":174609.92999999999,"N_COORD97":2545520.4500000002,"ADDRESS":"大安街２９３巷９弄２之５號","OBJECTID":164011},"geometry":{"x":174609.93000000063,"y":2545520.4500000011}},{"attributes":{"ID":164013,"DIS_CODE":0,"TOWNNAME":"永康區","LI":"甲頂里","LIN":"5鄰","STREET":"中正南路","SECT":" ","MAREA":" ","LANE":"１６８巷","ALLEY":"２弄","HOUSE_NO":"１０８號","E_COORD97":169854.19,"N_COORD97":2546853.75,"ADDRESS":"中正南路１６８巷２弄１０８號","OBJECTID":164012},"geometry":{"x":169854.19000000134,"y":2546853.7500000037}},{"attributes":{"ID":164014,"DIS_CODE":0,"TOWNNAME":"永康區","LI":"三民里","LIN":"12鄰","STREET":"正北三路","SECT":" ","MAREA":" ","LANE":" ","ALLEY":" ","HOUSE_NO":"１７１號","E_COORD97":174285.01999999999,"N_COORD97":2550241.5299999998,"ADDRESS":"正北三路１７１號","OBJECTID":164013},"geometry":{"x":174285.02000000048,"y":2550241.5300000031}},{"attributes":{"ID":164015,"DIS_CODE":0,"TOWNNAME":"永康區","LI":"三民里","LIN":"12鄰","STREET":"和平東路","SECT":" ","MAREA":" ","LANE":" ","ALLEY":" ","HOUSE_NO":"１６８號","E_COORD97":174535.12,"N_COORD97":2550590.5099999998,"ADDRESS":"和平東路１６８號","OBJECTID":164014},"geometry":{"x":174535.12000000011,"y":2550590.5099999998}},{"attributes":{"ID":164016,"DIS_CODE":0,"TOWNNAME":"永康區","LI":"三民里","LIN":"12鄰","STREET":"和平東路","SECT":" ","MAREA":" ","LANE":" ","ALLEY":" ","HOUSE_NO":"１７０號","E_COORD97":174481.37,"N_COORD97":2550588.2200000002,"ADDRESS":"和平東路１７０號","OBJECTID":164015},"geometry":{"x":174481.37000000197,"y":2550588.2200000025}},{"attributes":{"ID":164017,"DIS_CODE":0,"TOWNNAME":"永康區","LI":"三民里","LIN":"12鄰","STREET":"和平東路","SECT":" ","MAREA":" ","LANE":" ","ALLEY":" ","HOUSE_NO":"１７１號","E_COORD97":174106.57000000001,"N_COORD97":2550535.7999999998,"ADDRESS":"和平東路１７１號","OBJECTID":164016},"geometry":{"x":174106.5700000003,"y":2550535.8000000045}},{"attributes":{"ID":164018,"DIS_CODE":0,"TOWNNAME":"永康區","LI":"三民里","LIN":"12鄰","STREET":"和平路","SECT":" ","MAREA":" ","LANE":" ","ALLEY":" ","HOUSE_NO":"１９１號","E_COORD97":174755.67000000001,"N_COORD97":2550515.2400000002,"ADDRESS":"和平路１９１號","OBJECTID":164017},"geometry":{"x":174755.67000000086,"y":2550515.2399999984}},{"attributes":{"ID":164019,"DIS_CODE":0,"TOWNNAME":"永康區","LI":"尚頂里","LIN":"12鄰","STREET":"尚頂路","SECT":" ","MAREA":" ","LANE":" ","ALLEY":" ","HOUSE_NO":"５號","E_COORD97":171251.62,"N_COORD97":2547407.8399999999,"ADDRESS":"尚頂路５號","OBJECTID":164018},"geometry":{"x":171251.62000000011,"y":2547407.8399999999}},{"attributes":{"ID":164020,"DIS_CODE":0,"TOWNNAME":"東區","LI":"德高里","LIN":"12鄰","STREET":"崇善路","SECT":" ","MAREA":" ","LANE":" ","ALLEY":" ","HOUSE_NO":"８６１號","E_COORD97":171369.85000000001,"N_COORD97":2540785.4199999999,"ADDRESS":"崇善路８６１號","OBJECTID":164019},"geometry":{"x":171369.84999999963,"y":2540785.4199999999}},{"attributes":{"ID":164021,"DIS_CODE":0,"TOWNNAME":"東區","LI":"德高里","LIN":"12鄰","STREET":"崇善路","SECT":" ","MAREA":" ","LANE":" ","ALLEY":" ","HOUSE_NO":"８６３號","E_COORD97":171376.47,"N_COORD97":2540772.77,"ADDRESS":"崇善路８６３號","OBJECTID":164020},"geometry":{"x":171376.4700000016,"y":2540772.7699999996}},{"attributes":{"ID":164022,"DIS_CODE":0,"TOWNNAME":"東區","LI":"德高里","LIN":"12鄰","STREET":"崇善路","SECT":" ","MAREA":" ","LANE":" ","ALLEY":" ","HOUSE_NO":"８９３號","E_COORD97":171389.44,"N_COORD97":2540725.9700000002,"ADDRESS":"崇善路８９３號","OBJECTID":164021},"geometry":{"x":171389.44000000134,"y":2540725.9700000007}},{"attributes":{"ID":164023,"DIS_CODE":0,"TOWNNAME":"安南區","LI":"海西里","LIN":"1鄰","STREET":"海中街","SECT":" ","MAREA":" ","LANE":" ","ALLEY":" ","HOUSE_NO":"２０１號","E_COORD97":166292.57999999999,"N_COORD97":2549193.1299999999,"ADDRESS":"海中街２０１號","OBJECTID":164022},"geometry":{"x":166292.58000000101,"y":2549193.1300000008}},{"attributes":{"ID":164024,"DIS_CODE":0,"TOWNNAME":"安南區","LI":"海西里","LIN":"1鄰","STREET":"海中街","SECT":" ","MAREA":" ","LANE":" ","ALLEY":" ","HOUSE_NO":"２０７號","E_COORD97":166276.92000000001,"N_COORD97":2549206.7599999998,"ADDRESS":"海中街２０７號","OBJECTID":164023},"geometry":{"x":166276.92000000086,"y":2549206.7600000016}},{"attributes":{"ID":164025,"DIS_CODE":0,"TOWNNAME":"安南區","LI":"海西里","LIN":"1鄰","STREET":"海中街","SECT":" ","MAREA":" ","LANE":" ","ALLEY":" ","HOUSE_NO":"２１５號","E_COORD97":166266.07999999999,"N_COORD97":2549218.1899999999,"ADDRESS":"海中街２１５號","OBJECTID":164024},"geometry":{"x":166266.08000000007,"y":2549218.1899999995}},{"attributes":{"ID":164026,"DIS_CODE":0,"TOWNNAME":"安南區","LI":"海西里","LIN":"1鄰","STREET":"海環街","SECT":" ","MAREA":" ","LANE":" ","ALLEY":" ","HOUSE_NO":"５２３號","E_COORD97":166217.57999999999,"N_COORD97":2549213.5800000001,"ADDRESS":"海環街５２３號","OBJECTID":164025},"geometry":{"x":166217.58000000194,"y":2549213.5800000001}},{"attributes":{"ID":164027,"DIS_CODE":0,"TOWNNAME":"安南區","LI":"海西里","LIN":"1鄰","STREET":"海環街","SECT":" ","MAREA":" ","LANE":" ","ALLEY":" ","HOUSE_NO":"５２９號","E_COORD97":166225.10999999999,"N_COORD97":2549225.02,"ADDRESS":"海環街５２９號","OBJECTID":164026},"geometry":{"x":166225.11000000127,"y":2549225.0200000014}},{"attributes":{"ID":164028,"DIS_CODE":0,"TOWNNAME":"官田區","LI":"東庄里","LIN":"18鄰","STREET":" ","SECT":" ","MAREA":"瓦\u25A0","LANE":" ","ALLEY":" ","HOUSE_NO":"５號之１","E_COORD97":179075.64999999999,"N_COORD97":2564924.77,"ADDRESS":"瓦\u25A0５號之１","OBJECTID":164027},"geometry":{"x":179075.6500000013,"y":2564924.7700000014}},{"attributes":{"ID":164029,"DIS_CODE":0,"TOWNNAME":"官田區","LI":"東庄里","LIN":"18鄰","STREET":" ","SECT":" ","MAREA":"瓦\u25A0","LANE":" ","ALLEY":" ","HOUSE_NO":"５號之２","E_COORD97":179074.76999999999,"N_COORD97":2564929.4900000002,"ADDRESS":"瓦\u25A0５號之２","OBJECTID":164028},"geometry":{"x":179074.76999999955,"y":2564929.4900000039}},{"attributes":{"ID":164030,"DIS_CODE":0,"TOWNNAME":"官田區","LI":"東庄里","LIN":"18鄰","STREET":" ","SECT":" ","MAREA":"瓦\u25A0","LANE":" ","ALLEY":" ","HOUSE_NO":"５號","E_COORD97":179075.31,"N_COORD97":2564920.0299999998,"ADDRESS":"瓦\u25A0５號","OBJECTID":164029},"geometry":{"x":179075.31000000145,"y":2564920.0299999993}},{"attributes":{"ID":164031,"DIS_CODE":0,"TOWNNAME":"官田區","LI":"東庄里","LIN":"18鄰","STREET":" ","SECT":" ","MAREA":"瓦\u25A0","LANE":" ","ALLEY":" ","HOUSE_NO":"６號之１","E_COORD97":179078.75,"N_COORD97":2564949.0600000001,"ADDRESS":"瓦\u25A0６號之１","OBJECTID":164030},"geometry":{"x":179078.75,"y":2564949.0600000005}},{"attributes":{"ID":164032,"DIS_CODE":0,"TOWNNAME":"官田區","LI":"東庄里","LIN":"18鄰","STREET":" ","SECT":" ","MAREA":"瓦\u25A0","LANE":" ","ALLEY":" ","HOUSE_NO":"６號之２","E_COORD97":179060.64999999999,"N_COORD97":2564941.1699999999,"ADDRESS":"瓦\u25A0６號之２","OBJECTID":164031},"geometry":{"x":179060.6500000013,"y":2564941.1699999999}},{"attributes":{"ID":164033,"DIS_CODE":0,"TOWNNAME":"官田區","LI":"東庄里","LIN":"18鄰","STREET":" ","SECT":" ","MAREA":"瓦\u25A0","LANE":" ","ALLEY":" ","HOUSE_NO":"６號之３","E_COORD97":179059.51999999999,"N_COORD97":2564945.4199999999,"ADDRESS":"瓦\u25A0６號之３","OBJECTID":164032},"geometry":{"x":179059.51999999955,"y":2564945.4199999999}},{"attributes":{"ID":164034,"DIS_CODE":0,"TOWNNAME":"官田區","LI":"東庄里","LIN":"18鄰","STREET":" ","SECT":" ","MAREA":"瓦\u25A0","LANE":" ","ALLEY":" ","HOUSE_NO":"６號","E_COORD97":179039.17999999999,"N_COORD97":2564946.9300000002,"ADDRESS":"瓦\u25A0６號","OBJECTID":164033},"geometry":{"x":179039.18000000063,"y":2564946.9300000016}},{"attributes":{"ID":164035,"DIS_CODE":0,"TOWNNAME":"官田區","LI":"東庄里","LIN":"18鄰","STREET":" ","SECT":" ","MAREA":"瓦\u25A0","LANE":" ","ALLEY":" ","HOUSE_NO":"７號","E_COORD97":179051.59,"N_COORD97":2564976.6499999999,"ADDRESS":"瓦\u25A0７號","OBJECTID":164034},"geometry":{"x":179051.59000000171,"y":2564976.6500000022}},{"attributes":{"ID":164036,"DIS_CODE":0,"TOWNNAME":"官田區","LI":"東庄里","LIN":"18鄰","STREET":" ","SECT":" ","MAREA":"瓦\u25A0","LANE":" ","ALLEY":" ","HOUSE_NO":"８號之１","E_COORD97":179068.70000000001,"N_COORD97":2564961,"ADDRESS":"瓦\u25A0８號之１","OBJECTID":164035},"geometry":{"x":179068.70000000112,"y":2564961.0000000019}},{"attributes":{"ID":164037,"DIS_CODE":0,"TOWNNAME":"官田區","LI":"東庄里","LIN":"18鄰","STREET":" ","SECT":" ","MAREA":"瓦\u25A0","LANE":" ","ALLEY":" ","HOUSE_NO":"８號","E_COORD97":179073.75,"N_COORD97":2564978.5499999998,"ADDRESS":"瓦\u25A0８號","OBJECTID":164036},"geometry":{"x":179073.75,"y":2564978.5500000026}},{"attributes":{"ID":164038,"DIS_CODE":0,"TOWNNAME":"後壁區","LI":"後壁里","LIN":"12鄰","STREET":" ","SECT":" ","MAREA":"後壁","LANE":" ","ALLEY":" ","HOUSE_NO":"２０１號","E_COORD97":185382.01000000001,"N_COORD97":2585026.3199999998,"ADDRESS":"後壁２０１號","OBJECTID":164037},"geometry":{"x":185382.01000000164,"y":2585026.3200000022}},{"attributes":{"ID":164039,"DIS_CODE":0,"TOWNNAME":"永康區","LI":"正強里","LIN":"20鄰","STREET":"中山南路","SECT":" ","MAREA":" ","LANE":"４７１巷","ALLEY":"２７弄","HOUSE_NO":"１１號","E_COORD97":173133.38,"N_COORD97":2547213.4100000001,"ADDRESS":"中山南路４７１巷２７弄１１號","OBJECTID":164038},"geometry":{"x":173133.38000000175,"y":2547213.410000002}},{"attributes":{"ID":164040,"DIS_CODE":0,"TOWNNAME":"永康區","LI":"永康里","LIN":"26鄰","STREET":"永明街","SECT":" ","MAREA":" ","LANE":"６９巷","ALLEY":"５弄","HOUSE_NO":"８號","E_COORD97":174162.67000000001,"N_COORD97":2547321.4900000002,"ADDRESS":"永明街６９巷５弄８號","OBJECTID":164039},"geometry":{"x":174162.67000000086,"y":2547321.4900000021}},{"attributes":{"ID":164041,"DIS_CODE":0,"TOWNNAME":"永康區","LI":"東灣里","LIN":"25鄰","STREET":"大灣二街","SECT":" ","MAREA":" ","LANE":"７１巷","ALLEY":"１８弄","HOUSE_NO":"１號","E_COORD97":174768.82999999999,"N_COORD97":2544667.6800000002,"ADDRESS":"大灣二街７１巷１８弄１號","OBJECTID":164040},"geometry":{"x":174768.83000000101,"y":2544667.6800000016}},{"attributes":{"ID":164042,"DIS_CODE":0,"TOWNNAME":"後壁區","LI":"後壁里","LIN":"12鄰","STREET":" ","SECT":" ","MAREA":"後壁","LANE":" ","ALLEY":" ","HOUSE_NO":"３２２號","E_COORD97":185908.66,"N_COORD97":2584722.3500000001,"ADDRESS":"後壁３２２號","OBJECTID":164041},"geometry":{"x":185908.66000000108,"y":2584722.3499999996}},{"attributes":{"ID":164043,"DIS_CODE":0,"TOWNNAME":"永康區","LI":"尚頂里","LIN":"26鄰","STREET":"南台街","SECT":" ","MAREA":" ","LANE":"５４巷","ALLEY":"１０弄","HOUSE_NO":"２３號","E_COORD97":170383.92999999999,"N_COORD97":2547065.5,"ADDRESS":"南台街５４巷１０弄２３號","OBJECTID":164042},"geometry":{"x":170383.93000000063,"y":2547065.5000000037}},{"attributes":{"ID":164044,"DIS_CODE":0,"TOWNNAME":"後壁區","LI":"後壁里","LIN":"12鄰","STREET":" ","SECT":" ","MAREA":"後壁","LANE":" ","ALLEY":" ","HOUSE_NO":"３２３號","E_COORD97":185908.22,"N_COORD97":2584726.9500000002,"ADDRESS":"後壁３２３號","OBJECTID":164043},"geometry":{"x":185908.22000000067,"y":2584726.9500000011}},{"attributes":{"ID":164045,"DIS_CODE":0,"TOWNNAME":"官田區","LI":"東庄里","LIN":"18鄰","STREET":" ","SECT":" ","MAREA":"瓦\u25A0","LANE":" ","ALLEY":" ","HOUSE_NO":"９號之１","E_COORD97":179060.67000000001,"N_COORD97":2565039.4500000002,"ADDRESS":"瓦\u25A0９號之１","OBJECTID":164044},"geometry":{"x":179060.66999999993,"y":2565039.4499999993}},{"attributes":{"ID":164046,"DIS_CODE":0,"TOWNNAME":"官田區","LI":"東庄里","LIN":"18鄰","STREET":" ","SECT":" ","MAREA":"瓦\u25A0","LANE":" ","ALLEY":" ","HOUSE_NO":"９號","E_COORD97":179067.51999999999,"N_COORD97":2565020.04,"ADDRESS":"瓦\u25A0９號","OBJECTID":164045},"geometry":{"x":179067.52000000048,"y":2565020.040000001}},{"attributes":{"ID":164047,"DIS_CODE":0,"TOWNNAME":"官田區","LI":"官田里","LIN":"18鄰","STREET":" ","SECT":" ","MAREA":"官田","LANE":" ","ALLEY":" ","HOUSE_NO":"２２８號","E_COORD97":182326.42999999999,"N_COORD97":2564471.6499999999,"ADDRESS":"官田２２８號","OBJECTID":164046},"geometry":{"x":182326.43000000063,"y":2564471.6500000022}},{"attributes":{"ID":164048,"DIS_CODE":0,"TOWNNAME":"官田區","LI":"官田里","LIN":"18鄰","STREET":" ","SECT":" ","MAREA":"官田","LANE":" ","ALLEY":" ","HOUSE_NO":"２２９號","E_COORD97":182332.04999999999,"N_COORD97":2564467.75,"ADDRESS":"官田２２９號","OBJECTID":164047},"geometry":{"x":182332.05000000168,"y":2564467.7500000019}},{"attributes":{"ID":164049,"DIS_CODE":0,"TOWNNAME":"麻豆區","LI":"油車里","LIN":"18鄰","STREET":" ","SECT":" ","MAREA":"油車","LANE":" ","ALLEY":" ","HOUSE_NO":"１３９號之１１","E_COORD97":172103.97,"N_COORD97":2565353.46,"ADDRESS":"油車１３９號之１１","OBJECTID":164048},"geometry":{"x":172103.97000000067,"y":2565353.4600000009}},{"attributes":{"ID":164050,"DIS_CODE":0,"TOWNNAME":"麻豆區","LI":"油車里","LIN":"18鄰","STREET":" ","SECT":" ","MAREA":"油車","LANE":" ","ALLEY":" ","HOUSE_NO":"１３９號之１２","E_COORD97":172103.23999999999,"N_COORD97":2565360.5800000001,"ADDRESS":"油車１３９號之１２","OBJECTID":164049},"geometry":{"x":172103.24000000022,"y":2565360.5800000019}},{"attributes":{"ID":164051,"DIS_CODE":0,"TOWNNAME":"麻豆區","LI":"油車里","LIN":"18鄰","STREET":" ","SECT":" ","MAREA":"油車","LANE":" ","ALLEY":" ","HOUSE_NO":"１３９號之１３","E_COORD97":172115.63,"N_COORD97":2565330.1099999999,"ADDRESS":"油車１３９號之１３","OBJECTID":164050},"geometry":{"x":172115.62999999989,"y":2565330.1099999994}},{"attributes":{"ID":164052,"DIS_CODE":0,"TOWNNAME":"永康區","LI":"正強里","LIN":"20鄰","STREET":"中山南路","SECT":" ","MAREA":" ","LANE":"４７１巷","ALLEY":"３９弄","HOUSE_NO":"１１號","E_COORD97":173160.23000000001,"N_COORD97":2547219.7400000002,"ADDRESS":"中山南路４７１巷３９弄１１號","OBJECTID":164051},"geometry":{"x":173160.23000000045,"y":2547219.7399999984}},{"attributes":{"ID":164053,"DIS_CODE":0,"TOWNNAME":"永康區","LI":"尚頂里","LIN":"26鄰","STREET":"南台街","SECT":" ","MAREA":" ","LANE":"５４巷","ALLEY":"１０弄","HOUSE_NO":"１６號","E_COORD97":170408.97,"N_COORD97":2547032.5,"ADDRESS":"南台街５４巷１０弄１６號","OBJECTID":164052},"geometry":{"x":170408.97000000067,"y":2547032.5000000019}},{"attributes":{"ID":164054,"DIS_CODE":0,"TOWNNAME":"永康區","LI":"二王里","LIN":"20鄰","STREET":"中山南路","SECT":" ","MAREA":" ","LANE":"６４４巷","ALLEY":"３２弄","HOUSE_NO":"６號","E_COORD97":172375.20000000001,"N_COORD97":2546584.29,"ADDRESS":"中山南路６４４巷３２弄６號","OBJECTID":164053},"geometry":{"x":172375.20000000019,"y":2546584.2899999972}},{"attributes":{"ID":164055,"DIS_CODE":0,"TOWNNAME":"麻豆區","LI":"油車里","LIN":"18鄰","STREET":" ","SECT":" ","MAREA":"油車","LANE":" ","ALLEY":" ","HOUSE_NO":"１３９號之１","E_COORD97":171978.91,"N_COORD97":2565495.7400000002,"ADDRESS":"油車１３９號之１","OBJECTID":164054},"geometry":{"x":171978.91000000015,"y":2565495.7400000021}},{"attributes":{"ID":164056,"DIS_CODE":0,"TOWNNAME":"麻豆區","LI":"油車里","LIN":"18鄰","STREET":" ","SECT":" ","MAREA":"油車","LANE":" ","ALLEY":" ","HOUSE_NO":"１３９號之２","E_COORD97":171990.19,"N_COORD97":2565485.6000000001,"ADDRESS":"油車１３９號之２","OBJECTID":164055},"geometry":{"x":171990.19000000041,"y":2565485.6000000015}},{"attributes":{"ID":164057,"DIS_CODE":0,"TOWNNAME":"麻豆區","LI":"油車里","LIN":"18鄰","STREET":" ","SECT":" ","MAREA":"油車","LANE":" ","ALLEY":" ","HOUSE_NO":"１３９號之８","E_COORD97":172031.45999999999,"N_COORD97":2565369.27,"ADDRESS":"油車１３９號之８","OBJECTID":164056},"geometry":{"x":172031.46000000089,"y":2565369.2700000014}},{"attributes":{"ID":164058,"DIS_CODE":0,"TOWNNAME":"麻豆區","LI":"油車里","LIN":"18鄰","STREET":" ","SECT":" ","MAREA":"油車","LANE":" ","ALLEY":" ","HOUSE_NO":"１３９號之９","E_COORD97":172010.72,"N_COORD97":2565372.5899999999,"ADDRESS":"油車１３９號之９","OBJECTID":164057},"geometry":{"x":172010.72000000067,"y":2565372.5900000036}},{"attributes":{"ID":164059,"DIS_CODE":0,"TOWNNAME":"麻豆區","LI":"油車里","LIN":"18鄰","STREET":" ","SECT":" ","MAREA":"油車","LANE":" ","ALLEY":" ","HOUSE_NO":"１３９號","E_COORD97":171977.91,"N_COORD97":2565480.7400000002,"ADDRESS":"油車１３９號","OBJECTID":164058},"geometry":{"x":171977.91000000108,"y":2565480.7400000039}},{"attributes":{"ID":164060,"DIS_CODE":0,"TOWNNAME":"麻豆區","LI":"油車里","LIN":"18鄰","STREET":" ","SECT":" ","MAREA":"油車","LANE":" ","ALLEY":" ","HOUSE_NO":"１４０號之１","E_COORD97":171965,"N_COORD97":2565435.2000000002,"ADDRESS":"油車１４０號之１","OBJECTID":164059},"geometry":{"x":171965.00000000093,"y":2565435.1999999993}},{"attributes":{"ID":164061,"DIS_CODE":0,"TOWNNAME":"麻豆區","LI":"油車里","LIN":"18鄰","STREET":" ","SECT":" ","MAREA":"油車","LANE":" ","ALLEY":" ","HOUSE_NO":"１４０之２號","E_COORD97":171954.44,"N_COORD97":2565445.3199999998,"ADDRESS":"油車１４０之２號","OBJECTID":164060},"geometry":{"x":171954.44000000134,"y":2565445.3200000003}},{"attributes":{"ID":164062,"DIS_CODE":0,"TOWNNAME":"麻豆區","LI":"油車里","LIN":"18鄰","STREET":" ","SECT":" ","MAREA":"油車","LANE":" ","ALLEY":" ","HOUSE_NO":"１４０號","E_COORD97":171951.94,"N_COORD97":2565485.0299999998,"ADDRESS":"油車１４０號","OBJECTID":164061},"geometry":{"x":171951.93999999948,"y":2565485.0300000012}},{"attributes":{"ID":164063,"DIS_CODE":0,"TOWNNAME":"麻豆區","LI":"油車里","LIN":"18鄰","STREET":" ","SECT":" ","MAREA":"油車","LANE":" ","ALLEY":" ","HOUSE_NO":"１４１號之１","E_COORD97":172209.67000000001,"N_COORD97":2565572.3199999998,"ADDRESS":"油車１４１號之１","OBJECTID":164062},"geometry":{"x":172209.67000000086,"y":2565572.3200000022}},{"attributes":{"ID":164064,"DIS_CODE":0,"TOWNNAME":"麻豆區","LI":"油車里","LIN":"18鄰","STREET":" ","SECT":" ","MAREA":"油車","LANE":" ","ALLEY":" ","HOUSE_NO":"１４１號之６","E_COORD97":172174.79000000001,"N_COORD97":2565559.7000000002,"ADDRESS":"油車１４１號之６","OBJECTID":164063},"geometry":{"x":172174.7900000019,"y":2565559.6999999993}},{"attributes":{"ID":164065,"DIS_CODE":0,"TOWNNAME":"麻豆區","LI":"南勢里","LIN":"18鄰","STREET":" ","SECT":" ","MAREA":"南勢","LANE":" ","ALLEY":" ","HOUSE_NO":"３６號之１００","E_COORD97":174441.53,"N_COORD97":2564643.4500000002,"ADDRESS":"南勢３６號之１００","OBJECTID":164064},"geometry":{"x":174441.53000000212,"y":2564643.4499999993}},{"attributes":{"ID":164066,"DIS_CODE":0,"TOWNNAME":"麻豆區","LI":"南勢里","LIN":"18鄰","STREET":" ","SECT":" ","MAREA":"南勢","LANE":" ","ALLEY":" ","HOUSE_NO":"３６號之１０１","E_COORD97":174445.84,"N_COORD97":2564643.2599999998,"ADDRESS":"南勢３６號之１０１","OBJECTID":164065},"geometry":{"x":174445.84000000171,"y":2564643.2600000016}},{"attributes":{"ID":164067,"DIS_CODE":0,"TOWNNAME":"麻豆區","LI":"南勢里","LIN":"18鄰","STREET":" ","SECT":" ","MAREA":"南勢","LANE":" ","ALLEY":" ","HOUSE_NO":"３６號之１０２","E_COORD97":174450.97,"N_COORD97":2564643.3900000001,"ADDRESS":"南勢３６號之１０２","OBJECTID":164066},"geometry":{"x":174450.96999999974,"y":2564643.3900000025}},{"attributes":{"ID":164068,"DIS_CODE":0,"TOWNNAME":"麻豆區","LI":"南勢里","LIN":"18鄰","STREET":" ","SECT":" ","MAREA":"南勢","LANE":" ","ALLEY":" ","HOUSE_NO":"３６號之１０３","E_COORD97":174454.28,"N_COORD97":2564628.6000000001,"ADDRESS":"南勢３６號之１０３","OBJECTID":164067},"geometry":{"x":174454.28000000026,"y":2564628.5999999996}},{"attributes":{"ID":164069,"DIS_CODE":0,"TOWNNAME":"麻豆區","LI":"南勢里","LIN":"18鄰","STREET":" ","SECT":" ","MAREA":"南勢","LANE":" ","ALLEY":" ","HOUSE_NO":"３６號之１０４","E_COORD97":174449.19,"N_COORD97":2564628.8199999998,"ADDRESS":"南勢３６號之１０４","OBJECTID":164068},"geometry":{"x":174449.19000000134,"y":2564628.8200000003}},{"attributes":{"ID":164070,"DIS_CODE":0,"TOWNNAME":"後壁區","LI":"後壁里","LIN":"12鄰","STREET":" ","SECT":" ","MAREA":"後壁","LANE":" ","ALLEY":" ","HOUSE_NO":"３２４號","E_COORD97":185907.94,"N_COORD97":2584731.3700000001,"ADDRESS":"後壁３２４號","OBJECTID":164069},"geometry":{"x":185907.94000000041,"y":2584731.3700000048}},{"attributes":{"ID":164071,"DIS_CODE":0,"TOWNNAME":"永康區","LI":"西勢里","LIN":"20鄰","STREET":"富強路","SECT":"一段","MAREA":" ","LANE":"１８５巷","ALLEY":"２弄","HOUSE_NO":"６號","E_COORD97":175555.54999999999,"N_COORD97":2546428.3799999999,"ADDRESS":"富強路一段１８５巷２弄６號","OBJECTID":164070},"geometry":{"x":175555.54999999981,"y":2546428.3800000008}},{"attributes":{"ID":164072,"DIS_CODE":0,"TOWNNAME":"永康區","LI":"西灣里","LIN":"26鄰","STREET":"國光七街","SECT":" ","MAREA":" ","LANE":"６巷","ALLEY":"１１弄","HOUSE_NO":"１１號","E_COORD97":174357.17000000001,"N_COORD97":2545635.5,"ADDRESS":"國光七街６巷１１弄１１號","OBJECTID":164071},"geometry":{"x":174357.17000000179,"y":2545635.5000000019}},{"attributes":{"ID":164073,"DIS_CODE":0,"TOWNNAME":"永康區","LI":"北灣里","LIN":"39鄰","STREET":"大同街","SECT":" ","MAREA":" ","LANE":"６３９巷","ALLEY":"１弄","HOUSE_NO":"３號","E_COORD97":174550.48000000001,"N_COORD97":2546464.7400000002,"ADDRESS":"大同街６３９巷１弄３號","OBJECTID":164072},"geometry":{"x":174550.48000000231,"y":2546464.7400000021}},{"attributes":{"ID":164074,"DIS_CODE":0,"TOWNNAME":"永康區","LI":"西勢里","LIN":"20鄰","STREET":"富強路","SECT":"一段","MAREA":" ","LANE":"１８５巷","ALLEY":"１０弄","HOUSE_NO":"２６號","E_COORD97":175557.56,"N_COORD97":2546484.8199999998,"ADDRESS":"富強路一段１８５巷１０弄２６號","OBJECTID":164073},"geometry":{"x":175557.55999999959,"y":2546484.8200000022}},{"attributes":{"ID":164075,"DIS_CODE":0,"TOWNNAME":"永康區","LI":"正強里","LIN":"32鄰","STREET":"四維街","SECT":" ","MAREA":" ","LANE":"５１巷","ALLEY":"２８弄","HOUSE_NO":"５號","E_COORD97":173304.13,"N_COORD97":2548060.7400000002,"ADDRESS":"四維街５１巷２８弄５號","OBJECTID":164074},"geometry":{"x":173304.12999999989,"y":2548060.7400000039}},{"attributes":{"ID":164076,"DIS_CODE":0,"TOWNNAME":"永康區","LI":"北灣里","LIN":"13鄰","STREET":"大灣路","SECT":" ","MAREA":" ","LANE":"４４巷","ALLEY":"７弄","HOUSE_NO":"２號","E_COORD97":175230.19,"N_COORD97":2545861.4900000002,"ADDRESS":"大灣路４４巷７弄２號","OBJECTID":164075},"geometry":{"x":175230.19000000041,"y":2545861.4900000002}},{"attributes":{"ID":164077,"DIS_CODE":0,"TOWNNAME":"永康區","LI":"永康里","LIN":"38鄰","STREET":"大同街","SECT":" ","MAREA":" ","LANE":"７１５巷","ALLEY":"２弄","HOUSE_NO":"３號","E_COORD97":174487.54999999999,"N_COORD97":2546693.2400000002,"ADDRESS":"大同街７１５巷２弄３號","OBJECTID":164076},"geometry":{"x":174487.54999999981,"y":2546693.2400000002}},{"attributes":{"ID":164078,"DIS_CODE":0,"TOWNNAME":"永康區","LI":"東灣里","LIN":"25鄰","STREET":"大灣二街","SECT":" ","MAREA":" ","LANE":"７１巷","ALLEY":"１８弄","HOUSE_NO":"１０號","E_COORD97":174771.91,"N_COORD97":2544721.7000000002,"ADDRESS":"大灣二街７１巷１８弄１０號","OBJECTID":164077},"geometry":{"x":174771.91000000108,"y":2544721.7000000011}},{"attributes":{"ID":164079,"DIS_CODE":0,"TOWNNAME":"永康區","LI":"成功里","LIN":"32鄰","STREET":"忠孝路","SECT":" ","MAREA":" ","LANE":"２０３巷","ALLEY":"６４弄","HOUSE_NO":"１１號","E_COORD97":171900.07999999999,"N_COORD97":2544886.75,"ADDRESS":"忠孝路２０３巷６４弄１１號","OBJECTID":164078},"geometry":{"x":171900.08000000101,"y":2544886.75}},{"attributes":{"ID":164080,"DIS_CODE":0,"TOWNNAME":"永康區","LI":"龍潭里","LIN":"38鄰","STREET":"中山北路","SECT":" ","MAREA":" ","LANE":"１６４巷","ALLEY":"７８弄","HOUSE_NO":"９號之１３","E_COORD97":174457.64000000001,"N_COORD97":2547311.04,"ADDRESS":"中山北路１６４巷７８弄９號之１３","OBJECTID":164079},"geometry":{"x":174457.6400000006,"y":2547311.0399999991}},{"attributes":{"ID":164081,"DIS_CODE":0,"TOWNNAME":"永康區","LI":"西勢里","LIN":"20鄰","STREET":"富強路","SECT":"一段","MAREA":" ","LANE":"１８５巷","ALLEY":"１０弄","HOUSE_NO":"４０號","E_COORD97":175569.39000000001,"N_COORD97":2546512.8300000001,"ADDRESS":"富強路一段１８５巷１０弄４０號","OBJECTID":164080},"geometry":{"x":175569.3900000006,"y":2546512.8300000001}},{"attributes":{"ID":164082,"DIS_CODE":0,"TOWNNAME":"後壁區","LI":"後壁里","LIN":"12鄰","STREET":" ","SECT":" ","MAREA":"後壁","LANE":" ","ALLEY":" ","HOUSE_NO":"３２６號","E_COORD97":185907.37,"N_COORD97":2584740.8100000001,"ADDRESS":"後壁３２６號","OBJECTID":164081},"geometry":{"x":185907.37000000104,"y":2584740.8100000005}},{"attributes":{"ID":164083,"DIS_CODE":0,"TOWNNAME":"後壁區","LI":"後壁里","LIN":"12鄰","STREET":" ","SECT":" ","MAREA":"後壁","LANE":" ","ALLEY":" ","HOUSE_NO":"３２７號","E_COORD97":185907.01000000001,"N_COORD97":2584744.9399999999,"ADDRESS":"後壁３２７號","OBJECTID":164082},"geometry":{"x":185907.00999999978,"y":2584744.9399999995}},{"attributes":{"ID":164084,"DIS_CODE":0,"TOWNNAME":"西港區","LI":"港東里","LIN":"12鄰","STREET":" ","SECT":" ","MAREA":"八份","LANE":" ","ALLEY":" ","HOUSE_NO":"４號","E_COORD97":169908.20000000001,"N_COORD97":2558717.25,"ADDRESS":"八份４號","OBJECTID":164083},"geometry":{"x":169908.20000000019,"y":2558717.2500000019}},{"attributes":{"ID":164085,"DIS_CODE":0,"TOWNNAME":"麻豆區","LI":"南勢里","LIN":"18鄰","STREET":" ","SECT":" ","MAREA":"南勢","LANE":" ","ALLEY":" ","HOUSE_NO":"３６號之１０５","E_COORD97":174445.01999999999,"N_COORD97":2564628.8999999999,"ADDRESS":"南勢３６號之１０５","OBJECTID":164084},"geometry":{"x":174445.02000000048,"y":2564628.9000000041}},{"attributes":{"ID":164086,"DIS_CODE":0,"TOWNNAME":"永康區","LI":"西勢里","LIN":"20鄰","STREET":"富強路","SECT":"一段","MAREA":" ","LANE":"１８５巷","ALLEY":"１０弄","HOUSE_NO":"３２號","E_COORD97":175564.07999999999,"N_COORD97":2546496.0699999998,"ADDRESS":"富強路一段１８５巷１０弄３２號","OBJECTID":164085},"geometry":{"x":175564.08000000007,"y":2546496.0700000022}},{"attributes":{"ID":164087,"DIS_CODE":0,"TOWNNAME":"永康區","LI":"北灣里","LIN":"39鄰","STREET":"大同街","SECT":" ","MAREA":" ","LANE":"６３９巷","ALLEY":"１弄","HOUSE_NO":"１０號","E_COORD97":174538.25,"N_COORD97":2546452.7000000002,"ADDRESS":"大同街６３９巷１弄１０號","OBJECTID":164086},"geometry":{"x":174538.25000000093,"y":2546452.6999999993}},{"attributes":{"ID":164088,"DIS_CODE":0,"TOWNNAME":"永康區","LI":"正強里","LIN":"32鄰","STREET":"四維街","SECT":" ","MAREA":" ","LANE":"２９巷","ALLEY":"２６弄","HOUSE_NO":"８號","E_COORD97":173330.53,"N_COORD97":2548008,"ADDRESS":"四維街２９巷２６弄８號","OBJECTID":164087},"geometry":{"x":173330.53000000026,"y":2548008.0000000037}},{"attributes":{"ID":164089,"DIS_CODE":0,"TOWNNAME":"永康區","LI":"二王里","LIN":"20鄰","STREET":"中山南路","SECT":" ","MAREA":" ","LANE":"６４４巷","ALLEY":"３２弄","HOUSE_NO":"１１號","E_COORD97":172349.84,"N_COORD97":2546570.7000000002,"ADDRESS":"中山南路６４４巷３２弄１１號","OBJECTID":164088},"geometry":{"x":172349.83999999985,"y":2546570.6999999993}},{"attributes":{"ID":164090,"DIS_CODE":0,"TOWNNAME":"麻豆區","LI":"南勢里","LIN":"18鄰","STREET":" ","SECT":" ","MAREA":"南勢","LANE":" ","ALLEY":" ","HOUSE_NO":"３６號之１０６","E_COORD97":174440.14999999999,"N_COORD97":2564629.1000000001,"ADDRESS":"南勢３６號之１０６","OBJECTID":164089},"geometry":{"x":174440.15000000037,"y":2564629.0999999996}},{"attributes":{"ID":164091,"DIS_CODE":0,"TOWNNAME":"麻豆區","LI":"南勢里","LIN":"18鄰","STREET":" ","SECT":" ","MAREA":"南勢","LANE":" ","ALLEY":" ","HOUSE_NO":"３６號之１０７","E_COORD97":174435.67999999999,"N_COORD97":2564629.0699999998,"ADDRESS":"南勢３６號之１０７","OBJECTID":164090},"geometry":{"x":174435.6799999997,"y":2564629.0700000022}},{"attributes":{"ID":164092,"DIS_CODE":0,"TOWNNAME":"麻豆區","LI":"南勢里","LIN":"18鄰","STREET":" ","SECT":" ","MAREA":"南勢","LANE":" ","ALLEY":" ","HOUSE_NO":"３６號之１０８","E_COORD97":174431.17000000001,"N_COORD97":2564628.9900000002,"ADDRESS":"南勢３６號之１０８","OBJECTID":164091},"geometry":{"x":174431.16999999993,"y":2564628.9900000021}},{"attributes":{"ID":164093,"DIS_CODE":0,"TOWNNAME":"永康區","LI":"西灣里","LIN":"26鄰","STREET":"國光七街","SECT":" ","MAREA":" ","LANE":"６巷","ALLEY":"１１弄","HOUSE_NO":"６號","E_COORD97":174379.92000000001,"N_COORD97":2545661.8799999999,"ADDRESS":"國光七街６巷１１弄６號","OBJECTID":164092},"geometry":{"x":174379.92000000086,"y":2545661.8800000008}},{"attributes":{"ID":164094,"DIS_CODE":0,"TOWNNAME":"永康區","LI":"西勢里","LIN":"25鄰","STREET":"廣興街","SECT":" ","MAREA":" ","LANE":"２６巷","ALLEY":"２２弄","HOUSE_NO":"３號","E_COORD97":175911.67000000001,"N_COORD97":2546456.2400000002,"ADDRESS":"廣興街２６巷２２弄３號","OBJECTID":164093},"geometry":{"x":175911.67000000179,"y":2546456.2400000002}},{"attributes":{"ID":164095,"DIS_CODE":0,"TOWNNAME":"永康區","LI":"西灣里","LIN":"42鄰","STREET":"大灣路","SECT":" ","MAREA":" ","LANE":"９４２巷","ALLEY":"３７４弄","HOUSE_NO":"１６號","E_COORD97":173993.95000000001,"N_COORD97":2545407.8500000001,"ADDRESS":"大灣路９４２巷３７４弄１６號","OBJECTID":164094},"geometry":{"x":173993.95000000019,"y":2545407.8499999996}},{"attributes":{"ID":164096,"DIS_CODE":0,"TOWNNAME":"永康區","LI":"北灣里","LIN":"20鄰","STREET":"大安街","SECT":" ","MAREA":" ","LANE":"４６８巷","ALLEY":"３弄","HOUSE_NO":"５號","E_COORD97":174593.35000000001,"N_COORD97":2545987.0499999998,"ADDRESS":"大安街４６８巷３弄５號","OBJECTID":164095},"geometry":{"x":174593.35000000056,"y":2545987.0500000007}},{"attributes":{"ID":164097,"DIS_CODE":0,"TOWNNAME":"永康區","LI":"龍潭里","LIN":"26鄰","STREET":"中山北路","SECT":" ","MAREA":" ","LANE":"４６１巷","ALLEY":"８弄","HOUSE_NO":"６２號","E_COORD97":175167.35000000001,"N_COORD97":2547818.7000000002,"ADDRESS":"中山北路４６１巷８弄６２號","OBJECTID":164096},"geometry":{"x":175167.34999999963,"y":2547818.6999999993}},{"attributes":{"ID":164098,"DIS_CODE":0,"TOWNNAME":"永康區","LI":"西灣里","LIN":"50鄰","STREET":"大灣路","SECT":" ","MAREA":" ","LANE":"９４２巷","ALLEY":"５００弄","HOUSE_NO":"３號","E_COORD97":173904,"N_COORD97":2545836.6200000001,"ADDRESS":"大灣路９４２巷５００弄３號","OBJECTID":164097},"geometry":{"x":173904.00000000186,"y":2545836.6200000029}},{"attributes":{"ID":164099,"DIS_CODE":0,"TOWNNAME":"中西區","LI":"公正里","LIN":"12鄰","STREET":"衛民街","SECT":" ","MAREA":" ","LANE":" ","ALLEY":" ","HOUSE_NO":"９８號","E_COORD97":168959.60000000001,"N_COORD97":2543734.9199999999,"ADDRESS":"衛民街９８號","OBJECTID":164098},"geometry":{"x":168959.59999999963,"y":2543734.9199999999}},{"attributes":{"ID":164100,"DIS_CODE":0,"TOWNNAME":"中西區","LI":"福安里","LIN":"12鄰","STREET":"府前路","SECT":"一段","MAREA":" ","LANE":" ","ALLEY":" ","HOUSE_NO":"２７０號","E_COORD97":167979.37,"N_COORD97":2543413.9399999999,"ADDRESS":"府前路一段２７０號","OBJECTID":164099},"geometry":{"x":167979.37000000104,"y":2543413.9400000032}},{"attributes":{"ID":164101,"DIS_CODE":0,"TOWNNAME":"中西區","LI":"福安里","LIN":"12鄰","STREET":"府前路","SECT":"一段","MAREA":" ","LANE":" ","ALLEY":" ","HOUSE_NO":"２７４號","E_COORD97":167971.13,"N_COORD97":2543415.9100000001,"ADDRESS":"府前路一段２７４號","OBJECTID":164100},"geometry":{"x":167971.12999999989,"y":2543415.910000002}},{"attributes":{"ID":164102,"DIS_CODE":0,"TOWNNAME":"中西區","LI":"福安里","LIN":"12鄰","STREET":"府前路","SECT":"一段","MAREA":" ","LANE":" ","ALLEY":" ","HOUSE_NO":"２７６號","E_COORD97":167961.26999999999,"N_COORD97":2543417.7000000002,"ADDRESS":"府前路一段２７６號","OBJECTID":164101},"geometry":{"x":167961.26999999955,"y":2543417.6999999993}},{"attributes":{"ID":164103,"DIS_CODE":0,"TOWNNAME":"中西區","LI":"福安里","LIN":"12鄰","STREET":"府前路","SECT":"一段","MAREA":" ","LANE":" ","ALLEY":" ","HOUSE_NO":"２７８號","E_COORD97":167957.32999999999,"N_COORD97":2543419.1299999999,"ADDRESS":"府前路一段２７８號","OBJECTID":164102},"geometry":{"x":167957.33000000101,"y":2543419.1300000008}},{"attributes":{"ID":164104,"DIS_CODE":0,"TOWNNAME":"中西區","LI":"福安里","LIN":"12鄰","STREET":"府前路","SECT":"一段","MAREA":" ","LANE":" ","ALLEY":" ","HOUSE_NO":"２８０號","E_COORD97":167951.59,"N_COORD97":2543420.0299999998,"ADDRESS":"府前路一段２８０號","OBJECTID":164103},"geometry":{"x":167951.59000000171,"y":2543420.0300000031}},{"attributes":{"ID":164105,"DIS_CODE":0,"TOWNNAME":"中西區","LI":"福安里","LIN":"12鄰","STREET":"府前路","SECT":"一段","MAREA":" ","LANE":" ","ALLEY":" ","HOUSE_NO":"２８２號","E_COORD97":167944.78,"N_COORD97":2543420.75,"ADDRESS":"府前路一段２８２號","OBJECTID":164104},"geometry":{"x":167944.78000000026,"y":2543420.7500000019}},{"attributes":{"ID":164106,"DIS_CODE":0,"TOWNNAME":"永康區","LI":"北灣里","LIN":"38鄰","STREET":"大灣路","SECT":" ","MAREA":" ","LANE":"４０巷","ALLEY":"１８１弄","HOUSE_NO":"１０號","E_COORD97":174838.31,"N_COORD97":2546273.1600000001,"ADDRESS":"大灣路４０巷１８１弄１０號","OBJECTID":164105},"geometry":{"x":174838.30999999959,"y":2546273.1600000001}},{"attributes":{"ID":164107,"DIS_CODE":0,"TOWNNAME":"西港區","LI":"港東里","LIN":"12鄰","STREET":" ","SECT":" ","MAREA":"八份","LANE":" ","ALLEY":" ","HOUSE_NO":"５號","E_COORD97":169912.95000000001,"N_COORD97":2558697.2999999998,"ADDRESS":"八份５號","OBJECTID":164106},"geometry":{"x":169912.95000000112,"y":2558697.3000000026}},{"attributes":{"ID":164108,"DIS_CODE":0,"TOWNNAME":"麻豆區","LI":"南勢里","LIN":"18鄰","STREET":" ","SECT":" ","MAREA":"南勢","LANE":" ","ALLEY":" ","HOUSE_NO":"３６號之１０９","E_COORD97":174426.59,"N_COORD97":2564629.1899999999,"ADDRESS":"南勢３６號之１０９","OBJECTID":164107},"geometry":{"x":174426.58999999985,"y":2564629.1900000032}},{"attributes":{"ID":164109,"DIS_CODE":0,"TOWNNAME":"麻豆區","LI":"南勢里","LIN":"18鄰","STREET":" ","SECT":" ","MAREA":"南勢","LANE":" ","ALLEY":" ","HOUSE_NO":"３６號之１１０","E_COORD97":174422.10999999999,"N_COORD97":2564629.0600000001,"ADDRESS":"南勢３６號之１１０","OBJECTID":164108},"geometry":{"x":174422.11000000034,"y":2564629.0600000024}},{"attributes":{"ID":164110,"DIS_CODE":0,"TOWNNAME":"永康區","LI":"復興里","LIN":"24鄰","STREET":"復興路","SECT":" ","MAREA":" ","LANE":"３５６巷","ALLEY":"８０弄","HOUSE_NO":"２號","E_COORD97":172378.70000000001,"N_COORD97":2544536.77,"ADDRESS":"復興路３５６巷８０弄２號","OBJECTID":164109},"geometry":{"x":172378.70000000019,"y":2544536.7699999996}},{"attributes":{"ID":164111,"DIS_CODE":0,"TOWNNAME":"永康區","LI":"尚頂里","LIN":"18鄰","STREET":"南台街","SECT":" ","MAREA":" ","LANE":"５４巷","ALLEY":"１８弄","HOUSE_NO":"８號","E_COORD97":170358.45999999999,"N_COORD97":2547108.7400000002,"ADDRESS":"南台街５４巷１８弄８號","OBJECTID":164110},"geometry":{"x":170358.46000000089,"y":2547108.7400000021}},{"attributes":{"ID":164112,"DIS_CODE":0,"TOWNNAME":"永康區","LI":"龍潭里","LIN":"26鄰","STREET":"中山北路","SECT":" ","MAREA":" ","LANE":"４６１巷","ALLEY":"８弄","HOUSE_NO":"７６號","E_COORD97":175164.69,"N_COORD97":2547847.2000000002,"ADDRESS":"中山北路４６１巷８弄７６號","OBJECTID":164111},"geometry":{"x":175164.69000000134,"y":2547847.2000000011}},{"attributes":{"ID":164113,"DIS_CODE":0,"TOWNNAME":"永康區","LI":"北灣里","LIN":"39鄰","STREET":"大同街","SECT":" ","MAREA":" ","LANE":"４２５巷","ALLEY":"１弄","HOUSE_NO":"２號","E_COORD97":174580.70999999999,"N_COORD97":2546308.5,"ADDRESS":"大同街４２５巷１弄２號","OBJECTID":164112},"geometry":{"x":174580.71000000183,"y":2546308.5}},{"attributes":{"ID":164114,"DIS_CODE":0,"TOWNNAME":"永康區","LI":"正強里","LIN":"26鄰","STREET":"中正路","SECT":" ","MAREA":" ","LANE":"１５５巷","ALLEY":"１９弄","HOUSE_NO":"１６號","E_COORD97":173269.81,"N_COORD97":2547786.0899999999,"ADDRESS":"中正路１５５巷１９弄１６號","OBJECTID":164113},"geometry":{"x":173269.81000000052,"y":2547786.0899999999}},{"attributes":{"ID":164115,"DIS_CODE":0,"TOWNNAME":"永康區","LI":"西灣里","LIN":"42鄰","STREET":"大灣路","SECT":" ","MAREA":" ","LANE":"９４２巷","ALLEY":"３７４弄","HOUSE_NO":"１０號","E_COORD97":173985.29999999999,"N_COORD97":2545410.8500000001,"ADDRESS":"大灣路９４２巷３７４弄１０號","OBJECTID":164114},"geometry":{"x":173985.30000000075,"y":2545410.8499999996}},{"attributes":{"ID":164116,"DIS_CODE":0,"TOWNNAME":"永康區","LI":"尚頂里","LIN":"13鄰","STREET":"正南一街","SECT":" ","MAREA":" ","LANE":"１０７巷","ALLEY":"１３弄","HOUSE_NO":"６號","E_COORD97":170927.17999999999,"N_COORD97":2547140.75,"ADDRESS":"正南一街１０７巷１３弄６號","OBJECTID":164115},"geometry":{"x":170927.1799999997,"y":2547140.75}},{"attributes":{"ID":164117,"DIS_CODE":0,"TOWNNAME":"永康區","LI":"南灣里","LIN":"5鄰","STREET":"南興路","SECT":" ","MAREA":" ","LANE":"１１２巷","ALLEY":"４０弄","HOUSE_NO":"１８號","E_COORD97":174566.20999999999,"N_COORD97":2544459.7200000002,"ADDRESS":"南興路１１２巷４０弄１８號","OBJECTID":164116},"geometry":{"x":174566.21000000089,"y":2544459.7200000007}},{"attributes":{"ID":164118,"DIS_CODE":0,"TOWNNAME":"永康區","LI":"龍潭里","LIN":"38鄰","STREET":"中山北路","SECT":" ","MAREA":" ","LANE":"１６４巷","ALLEY":"７８弄","HOUSE_NO":"９號之１","E_COORD97":174456.29000000001,"N_COORD97":2547311.04,"ADDRESS":"中山北路１６４巷７８弄９號之１","OBJECTID":164117},"geometry":{"x":174456.29000000004,"y":2547311.0399999991}},{"attributes":{"ID":164119,"DIS_CODE":0,"TOWNNAME":"永康區","LI":"復興里","LIN":"18鄰","STREET":"復興路","SECT":" ","MAREA":" ","LANE":"３５６巷","ALLEY":"７１弄","HOUSE_NO":"２０號","E_COORD97":172326.07000000001,"N_COORD97":2544538.77,"ADDRESS":"復興路３５６巷７１弄２０號","OBJECTID":164118},"geometry":{"x":172326.07000000123,"y":2544538.7700000014}},{"attributes":{"ID":164120,"DIS_CODE":0,"TOWNNAME":"東區","LI":"仁和里","LIN":"28鄰","STREET":"仁和路","SECT":" ","MAREA":" ","LANE":"１３９巷","ALLEY":"５１弄","HOUSE_NO":"１９號之１","E_COORD97":171721.07000000001,"N_COORD97":2541103.5,"ADDRESS":"仁和路１３９巷５１弄１９號之１","OBJECTID":164119},"geometry":{"x":171721.07000000123,"y":2541103.5}},{"attributes":{"ID":164121,"DIS_CODE":0,"TOWNNAME":"東區","LI":"自強里","LIN":"4鄰","STREET":"東門路","SECT":"三段","MAREA":" ","LANE":"３７巷","ALLEY":"２２弄","HOUSE_NO":"１１號","E_COORD97":171351.95000000001,"N_COORD97":2542404.4199999999,"ADDRESS":"東門路三段３７巷２２弄１１號","OBJECTID":164120},"geometry":{"x":171351.95000000112,"y":2542404.4200000018}},{"attributes":{"ID":164122,"DIS_CODE":0,"TOWNNAME":"東區","LI":"自強里","LIN":"4鄰","STREET":"東門路","SECT":"三段","MAREA":" ","LANE":"３７巷","ALLEY":"２２弄","HOUSE_NO":"１３號","E_COORD97":171357.54000000001,"N_COORD97":2542405.8500000001,"ADDRESS":"東門路三段３７巷２２弄１３號","OBJECTID":164121},"geometry":{"x":171357.53999999911,"y":2542405.8500000015}},{"attributes":{"ID":164123,"DIS_CODE":0,"TOWNNAME":"東區","LI":"自強里","LIN":"4鄰","STREET":"東門路","SECT":"三段","MAREA":" ","LANE":"３７巷","ALLEY":"２２弄","HOUSE_NO":"１４號","E_COORD97":171266.60999999999,"N_COORD97":2542415.1600000001,"ADDRESS":"東門路三段３７巷２２弄１４號","OBJECTID":164122},"geometry":{"x":171266.61000000127,"y":2542415.1600000001}},{"attributes":{"ID":164124,"DIS_CODE":0,"TOWNNAME":"麻豆區","LI":"南勢里","LIN":"18鄰","STREET":" ","SECT":" ","MAREA":"南勢","LANE":" ","ALLEY":" ","HOUSE_NO":"３６號之１１１","E_COORD97":174417.66,"N_COORD97":2564629.25,"ADDRESS":"南勢３６號之１１１","OBJECTID":164123},"geometry":{"x":174417.66000000015,"y":2564629.2500000037}},{"attributes":{"ID":164125,"DIS_CODE":0,"TOWNNAME":"麻豆區","LI":"南勢里","LIN":"18鄰","STREET":" ","SECT":" ","MAREA":"南勢","LANE":" ","ALLEY":" ","HOUSE_NO":"３６號之１１２","E_COORD97":174413.17999999999,"N_COORD97":2564629.21,"ADDRESS":"南勢３６號之１１２","OBJECTID":164124},"geometry":{"x":174413.18000000063,"y":2564629.2100000009}},{"attributes":{"ID":164126,"DIS_CODE":0,"TOWNNAME":"麻豆區","LI":"南勢里","LIN":"18鄰","STREET":" ","SECT":" ","MAREA":"南勢","LANE":" ","ALLEY":" ","HOUSE_NO":"３６號之１１３","E_COORD97":174408.76999999999,"N_COORD97":2564629.1600000001,"ADDRESS":"南勢３６號之１１３","OBJECTID":164125},"geometry":{"x":174408.77000000048,"y":2564629.1600000001}},{"attributes":{"ID":164127,"DIS_CODE":0,"TOWNNAME":"麻豆區","LI":"南勢里","LIN":"18鄰","STREET":" ","SECT":" ","MAREA":"南勢","LANE":" ","ALLEY":" ","HOUSE_NO":"３６號之１１４","E_COORD97":174403.98999999999,"N_COORD97":2564629.0600000001,"ADDRESS":"南勢３６號之１１４","OBJECTID":164126},"geometry":{"x":174403.99000000022,"y":2564629.0600000024}},{"attributes":{"ID":164128,"DIS_CODE":0,"TOWNNAME":"麻豆區","LI":"南勢里","LIN":"18鄰","STREET":" ","SECT":" ","MAREA":"南勢","LANE":" ","ALLEY":" ","HOUSE_NO":"３６號之１１５","E_COORD97":174391.17999999999,"N_COORD97":2564621.46,"ADDRESS":"南勢３６號之１１５","OBJECTID":164127},"geometry":{"x":174391.18000000063,"y":2564621.4600000009}},{"attributes":{"ID":164129,"DIS_CODE":0,"TOWNNAME":"麻豆區","LI":"南勢里","LIN":"18鄰","STREET":" ","SECT":" ","MAREA":"南勢","LANE":" ","ALLEY":" ","HOUSE_NO":"３６號之１１６","E_COORD97":174385.70000000001,"N_COORD97":2564621.46,"ADDRESS":"南勢３６號之１１６","OBJECTID":164128},"geometry":{"x":174385.70000000019,"y":2564621.4600000009}},{"attributes":{"ID":164130,"DIS_CODE":0,"TOWNNAME":"白河區","LI":"白河里","LIN":"12鄰","STREET":"中正路","SECT":" ","MAREA":" ","LANE":" ","ALLEY":" ","HOUSE_NO":"２４號","E_COORD97":190263.48999999999,"N_COORD97":2583101.2799999998,"ADDRESS":"中正路２４號","OBJECTID":164129},"geometry":{"x":190263.49000000115,"y":2583101.2799999993}},{"attributes":{"ID":164131,"DIS_CODE":0,"TOWNNAME":"白河區","LI":"白河里","LIN":"12鄰","STREET":"中正路","SECT":" ","MAREA":" ","LANE":" ","ALLEY":" ","HOUSE_NO":"２８號","E_COORD97":190253.85000000001,"N_COORD97":2583103.77,"ADDRESS":"中正路２８號","OBJECTID":164130},"geometry":{"x":190253.85000000056,"y":2583103.7700000014}},{"attributes":{"ID":164132,"DIS_CODE":0,"TOWNNAME":"白河區","LI":"白河里","LIN":"12鄰","STREET":"中正路","SECT":" ","MAREA":" ","LANE":" ","ALLEY":" ","HOUSE_NO":"４０號","E_COORD97":190227.26999999999,"N_COORD97":2583111.4100000001,"ADDRESS":"中正路４０號","OBJECTID":164131},"geometry":{"x":190227.27000000048,"y":2583111.4100000001}},{"attributes":{"ID":164133,"DIS_CODE":0,"TOWNNAME":"安南區","LI":"淵東里","LIN":"12鄰","STREET":"海佃路","SECT":"四段","MAREA":" ","LANE":" ","ALLEY":" ","HOUSE_NO":"８９號","E_COORD97":165643.29999999999,"N_COORD97":2550650.6099999999,"ADDRESS":"海佃路四段８９號","OBJECTID":164132},"geometry":{"x":165643.30000000075,"y":2550650.6099999994}},{"attributes":{"ID":164134,"DIS_CODE":0,"TOWNNAME":"安南區","LI":"淵東里","LIN":"12鄰","STREET":"海佃路","SECT":"四段","MAREA":" ","LANE":" ","ALLEY":" ","HOUSE_NO":"７３號","E_COORD97":165669.14000000001,"N_COORD97":2550627.6800000002,"ADDRESS":"海佃路四段７３號","OBJECTID":164133},"geometry":{"x":165669.13999999873,"y":2550627.6800000016}},{"attributes":{"ID":164135,"DIS_CODE":0,"TOWNNAME":"東區","LI":"自強里","LIN":"4鄰","STREET":"東門路","SECT":"三段","MAREA":" ","LANE":"３７巷","ALLEY":"２２弄","HOUSE_NO":"１５號","E_COORD97":171362.42000000001,"N_COORD97":2542407.7200000002,"ADDRESS":"東門路三段３７巷２２弄１５號","OBJECTID":164134},"geometry":{"x":171362.42000000086,"y":2542407.7200000025}},{"attributes":{"ID":164136,"DIS_CODE":0,"TOWNNAME":"東區","LI":"自強里","LIN":"4鄰","STREET":"東門路","SECT":"三段","MAREA":" ","LANE":"３７巷","ALLEY":"２２弄","HOUSE_NO":"１７號","E_COORD97":171368.01999999999,"N_COORD97":2542406.2799999998,"ADDRESS":"東門路三段３７巷２２弄１７號","OBJECTID":164135},"geometry":{"x":171368.02000000048,"y":2542406.2799999993}},{"attributes":{"ID":164137,"DIS_CODE":0,"TOWNNAME":"東區","LI":"自強里","LIN":"4鄰","STREET":"東門路","SECT":"三段","MAREA":" ","LANE":"３７巷","ALLEY":"２２弄","HOUSE_NO":"１９號","E_COORD97":171372.17999999999,"N_COORD97":2542406.71,"ADDRESS":"東門路三段３７巷２２弄１９號","OBJECTID":164136},"geometry":{"x":171372.18000000063,"y":2542406.7100000046}},{"attributes":{"ID":164138,"DIS_CODE":0,"TOWNNAME":"東區","LI":"自強里","LIN":"4鄰","STREET":"東門路","SECT":"三段","MAREA":" ","LANE":"３７巷","ALLEY":"２２弄","HOUSE_NO":"１號","E_COORD97":171320.38,"N_COORD97":2542400.98,"ADDRESS":"東門路三段３７巷２２弄１號","OBJECTID":164137},"geometry":{"x":171320.38000000082,"y":2542400.9800000042}},{"attributes":{"ID":164139,"DIS_CODE":0,"TOWNNAME":"東區","LI":"自強里","LIN":"4鄰","STREET":"東門路","SECT":"三段","MAREA":" ","LANE":"３７巷","ALLEY":"２２弄","HOUSE_NO":"２１號","E_COORD97":171376.91,"N_COORD97":2542409.29,"ADDRESS":"東門路三段３７巷２２弄２１號","OBJECTID":164138},"geometry":{"x":171376.91000000015,"y":2542409.2899999991}},{"attributes":{"ID":164140,"DIS_CODE":0,"TOWNNAME":"東區","LI":"自強里","LIN":"4鄰","STREET":"東門路","SECT":"三段","MAREA":" ","LANE":"３７巷","ALLEY":"２２弄","HOUSE_NO":"４８號","E_COORD97":171349.09,"N_COORD97":2542394.6299999999,"ADDRESS":"東門路三段３７巷２２弄４８號","OBJECTID":164139},"geometry":{"x":171349.09000000078,"y":2542394.6299999971}},{"attributes":{"ID":164141,"DIS_CODE":0,"TOWNNAME":"七股區","LI":"十份里","LIN":"13鄰","STREET":" ","SECT":" ","MAREA":"十份","LANE":" ","ALLEY":" ","HOUSE_NO":"５９號","E_COORD97":157707.26000000001,"N_COORD97":2554810.7200000002,"ADDRESS":"十份５９號","OBJECTID":164140},"geometry":{"x":157707.25999999978,"y":2554810.7200000007}},{"attributes":{"ID":164142,"DIS_CODE":0,"TOWNNAME":"東區","LI":"自強里","LIN":"4鄰","STREET":"東門路","SECT":"三段","MAREA":" ","LANE":"３７巷","ALLEY":"２２弄","HOUSE_NO":"５０號","E_COORD97":171355.39999999999,"N_COORD97":2542396.21,"ADDRESS":"東門路三段３７巷２２弄５０號","OBJECTID":164141},"geometry":{"x":171355.40000000037,"y":2542396.209999999}},{"attributes":{"ID":164143,"DIS_CODE":0,"TOWNNAME":"東區","LI":"自強里","LIN":"4鄰","STREET":"東門路","SECT":"三段","MAREA":" ","LANE":"３７巷","ALLEY":"２２弄","HOUSE_NO":"５２號","E_COORD97":171359.98999999999,"N_COORD97":2542381.3100000001,"ADDRESS":"東門路三段３７巷２２弄５２號","OBJECTID":164142},"geometry":{"x":171359.99000000209,"y":2542381.3100000005}},{"attributes":{"ID":164144,"DIS_CODE":0,"TOWNNAME":"東區","LI":"自強里","LIN":"4鄰","STREET":"東門路","SECT":"三段","MAREA":" ","LANE":"３７巷","ALLEY":"２２弄","HOUSE_NO":"５４號","E_COORD97":171361.14000000001,"N_COORD97":2542375.8599999999,"ADDRESS":"東門路三段３７巷２２弄５４號","OBJECTID":164143},"geometry":{"x":171361.13999999966,"y":2542375.8599999994}},{"attributes":{"ID":164145,"DIS_CODE":0,"TOWNNAME":"東區","LI":"自強里","LIN":"4鄰","STREET":"東門路","SECT":"三段","MAREA":" ","LANE":"３７巷","ALLEY":"２２弄","HOUSE_NO":"５６號","E_COORD97":171370.32000000001,"N_COORD97":2542377.1499999999,"ADDRESS":"東門路三段３７巷２２弄５６號","OBJECTID":164144},"geometry":{"x":171370.32000000123,"y":2542377.1500000022}},{"attributes":{"ID":164146,"DIS_CODE":0,"TOWNNAME":"東區","LI":"自強里","LIN":"4鄰","STREET":"東門路","SECT":"三段","MAREA":" ","LANE":"３７巷","ALLEY":"２２弄","HOUSE_NO":"５８號","E_COORD97":171368.89000000001,"N_COORD97":2542383.3100000001,"ADDRESS":"東門路三段３７巷２２弄５８號","OBJECTID":164145},"geometry":{"x":171368.8900000006,"y":2542383.3100000024}},{"attributes":{"ID":164147,"DIS_CODE":0,"TOWNNAME":"東區","LI":"自強里","LIN":"4鄰","STREET":"東門路","SECT":"三段","MAREA":" ","LANE":"３７巷","ALLEY":"２２弄","HOUSE_NO":"５號","E_COORD97":171332.57999999999,"N_COORD97":2542401.7000000002,"ADDRESS":"東門路三段３７巷２２弄５號","OBJECTID":164146},"geometry":{"x":171332.58000000101,"y":2542401.700000003}},{"attributes":{"ID":164148,"DIS_CODE":0,"TOWNNAME":"東區","LI":"自強里","LIN":"4鄰","STREET":"東門路","SECT":"三段","MAREA":" ","LANE":"３７巷","ALLEY":"２２弄","HOUSE_NO":"６０號","E_COORD97":171368.17000000001,"N_COORD97":2542397.3599999999,"ADDRESS":"東門路三段３７巷２２弄６０號","OBJECTID":164147},"geometry":{"x":171368.16999999993,"y":2542397.3600000031}},{"attributes":{"ID":164149,"DIS_CODE":0,"TOWNNAME":"東區","LI":"自強里","LIN":"4鄰","STREET":"東門路","SECT":"三段","MAREA":" ","LANE":"３７巷","ALLEY":"２２弄","HOUSE_NO":"６２號","E_COORD97":171375.20000000001,"N_COORD97":2542398.6499999999,"ADDRESS":"東門路三段３７巷２２弄６２號","OBJECTID":164148},"geometry":{"x":171375.20000000019,"y":2542398.6500000004}},{"attributes":{"ID":164150,"DIS_CODE":0,"TOWNNAME":"東區","LI":"自強里","LIN":"4鄰","STREET":"東門路","SECT":"三段","MAREA":" ","LANE":"３７巷","ALLEY":"２２弄","HOUSE_NO":"６４號","E_COORD97":171381.79999999999,"N_COORD97":2542399.79,"ADDRESS":"東門路三段３７巷２２弄６４號","OBJECTID":164149},"geometry":{"x":171381.80000000075,"y":2542399.7899999991}},{"attributes":{"ID":164151,"DIS_CODE":0,"TOWNNAME":"麻豆區","LI":"南勢里","LIN":"18鄰","STREET":" ","SECT":" ","MAREA":"南勢","LANE":" ","ALLEY":" ","HOUSE_NO":"３６號之１１７","E_COORD97":174380.56,"N_COORD97":2564621.1299999999,"ADDRESS":"南勢３６號之１１７","OBJECTID":164150},"geometry":{"x":174380.55999999959,"y":2564621.129999999}},{"attributes":{"ID":164152,"DIS_CODE":0,"TOWNNAME":"麻豆區","LI":"南勢里","LIN":"18鄰","STREET":" ","SECT":" ","MAREA":"南勢","LANE":" ","ALLEY":" ","HOUSE_NO":"３６號之１１８","E_COORD97":174374.95000000001,"N_COORD97":2564621.0299999998,"ADDRESS":"南勢３６號之１１８","OBJECTID":164151},"geometry":{"x":174374.95000000112,"y":2564621.0300000012}},{"attributes":{"ID":164153,"DIS_CODE":0,"TOWNNAME":"麻豆區","LI":"南勢里","LIN":"18鄰","STREET":" ","SECT":" ","MAREA":"南勢","LANE":" ","ALLEY":" ","HOUSE_NO":"３６號之９２","E_COORD97":174404.51999999999,"N_COORD97":2564643.7999999998,"ADDRESS":"南勢３６號之９２","OBJECTID":164152},"geometry":{"x":174404.51999999955,"y":2564643.8000000026}},{"attributes":{"ID":164154,"DIS_CODE":0,"TOWNNAME":"東區","LI":"自強里","LIN":"4鄰","STREET":"東門路","SECT":"三段","MAREA":" ","LANE":"３７巷","ALLEY":"２２弄","HOUSE_NO":"６６號","E_COORD97":171387.54000000001,"N_COORD97":2542400.5099999998,"ADDRESS":"東門路三段３７巷２２弄６６號","OBJECTID":164153},"geometry":{"x":171387.54000000004,"y":2542400.5100000016}},{"attributes":{"ID":164155,"DIS_CODE":0,"TOWNNAME":"麻豆區","LI":"南勢里","LIN":"18鄰","STREET":" ","SECT":" ","MAREA":"南勢","LANE":" ","ALLEY":" ","HOUSE_NO":"３６號之１１９","E_COORD97":174369.92000000001,"N_COORD97":2564621.0800000001,"ADDRESS":"南勢３６號之１１９","OBJECTID":164154},"geometry":{"x":174369.91999999993,"y":2564621.0800000019}},{"attributes":{"ID":164156,"DIS_CODE":0,"TOWNNAME":"麻豆區","LI":"南勢里","LIN":"18鄰","STREET":" ","SECT":" ","MAREA":"南勢","LANE":" ","ALLEY":" ","HOUSE_NO":"３６號之１２０","E_COORD97":174364.54999999999,"N_COORD97":2564620.8399999999,"ADDRESS":"南勢３６號之１２０","OBJECTID":164155},"geometry":{"x":174364.55000000168,"y":2564620.8399999999}},{"attributes":{"ID":164157,"DIS_CODE":0,"TOWNNAME":"麻豆區","LI":"南勢里","LIN":"18鄰","STREET":" ","SECT":" ","MAREA":"南勢","LANE":" ","ALLEY":" ","HOUSE_NO":"３６號之５２","E_COORD97":174401.67999999999,"N_COORD97":2564684.8599999999,"ADDRESS":"南勢３６號之５２","OBJECTID":164156},"geometry":{"x":174401.68000000063,"y":2564684.8599999994}},{"attributes":{"ID":164158,"DIS_CODE":0,"TOWNNAME":"麻豆區","LI":"南勢里","LIN":"18鄰","STREET":" ","SECT":" ","MAREA":"南勢","LANE":" ","ALLEY":" ","HOUSE_NO":"３６號之５３","E_COORD97":174401.42000000001,"N_COORD97":2564690.6600000001,"ADDRESS":"南勢３６號之５３","OBJECTID":164157},"geometry":{"x":174401.42000000086,"y":2564690.6600000001}},{"attributes":{"ID":164159,"DIS_CODE":0,"TOWNNAME":"麻豆區","LI":"南勢里","LIN":"18鄰","STREET":" ","SECT":" ","MAREA":"南勢","LANE":" ","ALLEY":" ","HOUSE_NO":"３６號之５４","E_COORD97":174401.26000000001,"N_COORD97":2564695.2599999998,"ADDRESS":"南勢３６號之５４","OBJECTID":164158},"geometry":{"x":174401.26000000071,"y":2564695.2599999998}},{"attributes":{"ID":164160,"DIS_CODE":0,"TOWNNAME":"麻豆區","LI":"南勢里","LIN":"18鄰","STREET":" ","SECT":" ","MAREA":"南勢","LANE":" ","ALLEY":" ","HOUSE_NO":"３６號之５５","E_COORD97":174401.32000000001,"N_COORD97":2564701.4500000002,"ADDRESS":"南勢３６號之５５","OBJECTID":164159},"geometry":{"x":174401.32000000123,"y":2564701.4499999974}},{"attributes":{"ID":164161,"DIS_CODE":0,"TOWNNAME":"麻豆區","LI":"南勢里","LIN":"18鄰","STREET":" ","SECT":" ","MAREA":"南勢","LANE":" ","ALLEY":" ","HOUSE_NO":"３６號之５６","E_COORD97":174401.79000000001,"N_COORD97":2564706.4900000002,"ADDRESS":"南勢３６號之５６","OBJECTID":164160},"geometry":{"x":174401.79000000004,"y":2564706.4900000021}},{"attributes":{"ID":164162,"DIS_CODE":0,"TOWNNAME":"麻豆區","LI":"南勢里","LIN":"18鄰","STREET":" ","SECT":" ","MAREA":"南勢","LANE":" ","ALLEY":" ","HOUSE_NO":"３６號之５７","E_COORD97":174363.66,"N_COORD97":2564674.79,"ADDRESS":"南勢３６號之５７","OBJECTID":164161},"geometry":{"x":174363.66000000015,"y":2564674.7899999991}},{"attributes":{"ID":164163,"DIS_CODE":0,"TOWNNAME":"東區","LI":"自強里","LIN":"4鄰","STREET":"東門路","SECT":"三段","MAREA":" ","LANE":"３７巷","ALLEY":"２２弄","HOUSE_NO":"６８號","E_COORD97":171390.84,"N_COORD97":2542381.6000000001,"ADDRESS":"東門路三段３７巷２２弄６８號","OBJECTID":164162},"geometry":{"x":171390.83999999985,"y":2542381.5999999996}},{"attributes":{"ID":164164,"DIS_CODE":0,"TOWNNAME":"安南區","LI":"總頭里","LIN":"12鄰","STREET":"長溪路","SECT":"二段","MAREA":" ","LANE":" ","ALLEY":" ","HOUSE_NO":"５１５號","E_COORD97":168239.70999999999,"N_COORD97":2550484.8599999999,"ADDRESS":"長溪路二段５１５號","OBJECTID":164163},"geometry":{"x":168239.71000000089,"y":2550484.8600000013}},{"attributes":{"ID":164165,"DIS_CODE":0,"TOWNNAME":"東區","LI":"自強里","LIN":"4鄰","STREET":"東門路","SECT":"三段","MAREA":" ","LANE":"３７巷","ALLEY":"２２弄","HOUSE_NO":"７０號","E_COORD97":171390.12,"N_COORD97":2542387.04,"ADDRESS":"東門路三段３７巷２２弄７０號","OBJECTID":164164},"geometry":{"x":171390.12000000104,"y":2542387.040000001}},{"attributes":{"ID":164166,"DIS_CODE":0,"TOWNNAME":"永康區","LI":"中華里","LIN":"12鄰","STREET":"忠勇街","SECT":" ","MAREA":" ","LANE":" ","ALLEY":" ","HOUSE_NO":"４７號","E_COORD97":171876.01000000001,"N_COORD97":2544464.1400000001,"ADDRESS":"忠勇街４７號","OBJECTID":164165},"geometry":{"x":171876.00999999978,"y":2544464.1400000006}},{"attributes":{"ID":164167,"DIS_CODE":0,"TOWNNAME":"永康區","LI":"北灣里","LIN":"12鄰","STREET":"信義二街","SECT":" ","MAREA":" ","LANE":" ","ALLEY":" ","HOUSE_NO":"９９號","E_COORD97":174935.62,"N_COORD97":2545720.77,"ADDRESS":"信義二街９９號","OBJECTID":164166},"geometry":{"x":174935.61999999918,"y":2545720.7700000033}},{"attributes":{"ID":164168,"DIS_CODE":0,"TOWNNAME":"永康區","LI":"大橋里","LIN":"12鄰","STREET":"大橋二街","SECT":" ","MAREA":" ","LANE":" ","ALLEY":" ","HOUSE_NO":"２５１號","E_COORD97":171141.17999999999,"N_COORD97":2546826.8999999999,"ADDRESS":"大橋二街２５１號","OBJECTID":164167},"geometry":{"x":171141.18000000156,"y":2546826.9000000022}},{"attributes":{"ID":164169,"DIS_CODE":0,"TOWNNAME":"東區","LI":"自強里","LIN":"4鄰","STREET":"東門路","SECT":"三段","MAREA":" ","LANE":"３７巷","ALLEY":"２２弄","HOUSE_NO":"７號","E_COORD97":171338.89000000001,"N_COORD97":2542402.5600000001,"ADDRESS":"東門路三段３７巷２２弄７號","OBJECTID":164168},"geometry":{"x":171338.88999999966,"y":2542402.5600000005}},{"attributes":{"ID":164170,"DIS_CODE":0,"TOWNNAME":"永康區","LI":"中華里","LIN":"12鄰","STREET":"忠勇街","SECT":" ","MAREA":" ","LANE":" ","ALLEY":" ","HOUSE_NO":"３３號","E_COORD97":171856.35000000001,"N_COORD97":2544431.9500000002,"ADDRESS":"忠勇街３３號","OBJECTID":164169},"geometry":{"x":171856.34999999963,"y":2544431.9500000011}},{"attributes":{"ID":164171,"DIS_CODE":0,"TOWNNAME":"東區","LI":"自強里","LIN":"4鄰","STREET":"東門路","SECT":"三段","MAREA":" ","LANE":"３７巷","ALLEY":"２２弄","HOUSE_NO":"９號","E_COORD97":171346.07000000001,"N_COORD97":2542403.4199999999,"ADDRESS":"東門路三段３７巷２２弄９號","OBJECTID":164170},"geometry":{"x":171346.07000000123,"y":2542403.4199999999}},{"attributes":{"ID":164172,"DIS_CODE":0,"TOWNNAME":"永康區","LI":"東灣里","LIN":"12鄰","STREET":"大灣路","SECT":" ","MAREA":" ","LANE":" ","ALLEY":" ","HOUSE_NO":"３９９之１號","E_COORD97":174738.98000000001,"N_COORD97":2544854.0600000001,"ADDRESS":"大灣路３９９之１號","OBJECTID":164171},"geometry":{"x":174738.98000000138,"y":2544854.0600000005}},{"attributes":{"ID":164173,"DIS_CODE":0,"TOWNNAME":"東區","LI":"自強里","LIN":"11鄰","STREET":"東門路","SECT":"三段","MAREA":" ","LANE":"３７巷","ALLEY":"７５弄","HOUSE_NO":"３７號","E_COORD97":171157.20999999999,"N_COORD97":2542393.96,"ADDRESS":"東門路三段３７巷７５弄３７號","OBJECTID":164172},"geometry":{"x":171157.21000000089,"y":2542393.9600000009}},{"attributes":{"ID":164174,"DIS_CODE":0,"TOWNNAME":"東區","LI":"自強里","LIN":"11鄰","STREET":"東門路","SECT":"三段","MAREA":" ","LANE":"３７巷","ALLEY":"７５弄","HOUSE_NO":"３９號","E_COORD97":171152.79000000001,"N_COORD97":2542394.1200000001,"ADDRESS":"東門路三段３７巷７５弄３９號","OBJECTID":164173},"geometry":{"x":171152.79000000097,"y":2542394.1200000029}},{"attributes":{"ID":164175,"DIS_CODE":0,"TOWNNAME":"東區","LI":"自強里","LIN":"11鄰","STREET":"東門路","SECT":"三段","MAREA":" ","LANE":"３７巷","ALLEY":"７５弄","HOUSE_NO":"３號","E_COORD97":171207.01999999999,"N_COORD97":2542405.48,"ADDRESS":"東門路三段３７巷７５弄３號","OBJECTID":164174},"geometry":{"x":171207.02000000048,"y":2542405.4800000023}},{"attributes":{"ID":164176,"DIS_CODE":0,"TOWNNAME":"東區","LI":"自強里","LIN":"11鄰","STREET":"東門路","SECT":"三段","MAREA":" ","LANE":"３７巷","ALLEY":"７５弄","HOUSE_NO":"４１號","E_COORD97":171148.97,"N_COORD97":2542393.96,"ADDRESS":"東門路三段３７巷７５弄４１號","OBJECTID":164175},"geometry":{"x":171148.96999999974,"y":2542393.9600000009}},{"attributes":{"ID":164177,"DIS_CODE":0,"TOWNNAME":"永康區","LI":"\u25A0行里","LIN":"12鄰","STREET":"中正路","SECT":" ","MAREA":" ","LANE":" ","ALLEY":" ","HOUSE_NO":"６０９號","E_COORD97":171888.94,"N_COORD97":2548986.1499999999,"ADDRESS":"中正路６０９號","OBJECTID":164176},"geometry":{"x":171888.94000000041,"y":2548986.1500000004}},{"attributes":{"ID":164178,"DIS_CODE":0,"TOWNNAME":"東區","LI":"自強里","LIN":"11鄰","STREET":"東門路","SECT":"三段","MAREA":" ","LANE":"３７巷","ALLEY":"７５弄","HOUSE_NO":"４３號","E_COORD97":171168.12,"N_COORD97":2542411.3300000001,"ADDRESS":"東門路三段３７巷７５弄４３號","OBJECTID":164177},"geometry":{"x":171168.12000000104,"y":2542411.3300000001}},{"attributes":{"ID":164179,"DIS_CODE":0,"TOWNNAME":"東區","LI":"自強里","LIN":"11鄰","STREET":"東門路","SECT":"三段","MAREA":" ","LANE":"３７巷","ALLEY":"７５弄","HOUSE_NO":"４５號","E_COORD97":171164.01000000001,"N_COORD97":2542411.3300000001,"ADDRESS":"東門路三段３７巷７５弄４５號","OBJECTID":164178},"geometry":{"x":171164.00999999978,"y":2542411.3300000001}},{"attributes":{"ID":164180,"DIS_CODE":0,"TOWNNAME":"東區","LI":"自強里","LIN":"11鄰","STREET":"東門路","SECT":"三段","MAREA":" ","LANE":"３７巷","ALLEY":"７５弄","HOUSE_NO":"４７號","E_COORD97":171159.42999999999,"N_COORD97":2542411.3300000001,"ADDRESS":"東門路三段３７巷７５弄４７號","OBJECTID":164179},"geometry":{"x":171159.4299999997,"y":2542411.3300000001}},{"attributes":{"ID":164181,"DIS_CODE":0,"TOWNNAME":"東區","LI":"自強里","LIN":"11鄰","STREET":"東門路","SECT":"三段","MAREA":" ","LANE":"３７巷","ALLEY":"７５弄","HOUSE_NO":"４９號","E_COORD97":171155.63,"N_COORD97":2542411.3300000001,"ADDRESS":"東門路三段３７巷７５弄４９號","OBJECTID":164180},"geometry":{"x":171155.63000000082,"y":2542411.3300000001}},{"attributes":{"ID":164182,"DIS_CODE":0,"TOWNNAME":"東區","LI":"自強里","LIN":"11鄰","STREET":"東門路","SECT":"三段","MAREA":" ","LANE":"３７巷","ALLEY":"７５弄","HOUSE_NO":"４號","E_COORD97":171217.14999999999,"N_COORD97":2542424.6800000002,"ADDRESS":"東門路三段３７巷７５弄４號","OBJECTID":164181},"geometry":{"x":171217.1500000013,"y":2542424.6799999997}},{"attributes":{"ID":164183,"DIS_CODE":0,"TOWNNAME":"東區","LI":"自強里","LIN":"11鄰","STREET":"東門路","SECT":"三段","MAREA":" ","LANE":"３７巷","ALLEY":"７５弄","HOUSE_NO":"５１號","E_COORD97":171134.20999999999,"N_COORD97":2542398.54,"ADDRESS":"東門路三段３７巷７５弄５１號","OBJECTID":164182},"geometry":{"x":171134.20999999903,"y":2542398.5399999991}},{"attributes":{"ID":164184,"DIS_CODE":0,"TOWNNAME":"東區","LI":"自強里","LIN":"25鄰","STREET":"中華東路","SECT":"二段","MAREA":" ","LANE":"１３３巷","ALLEY":"７０弄","HOUSE_NO":"２３號","E_COORD97":171494.91,"N_COORD97":2542738.3900000001,"ADDRESS":"中華東路二段１３３巷７０弄２３號","OBJECTID":164183},"geometry":{"x":171494.91000000108,"y":2542738.3900000025}},{"attributes":{"ID":164185,"DIS_CODE":0,"TOWNNAME":"東區","LI":"自強里","LIN":"25鄰","STREET":"中華東路","SECT":"二段","MAREA":" ","LANE":"１３３巷","ALLEY":"７０弄","HOUSE_NO":"３號","E_COORD97":171540.97,"N_COORD97":2542742.4500000002,"ADDRESS":"中華東路二段１３３巷７０弄３號","OBJECTID":164184},"geometry":{"x":171540.9700000016,"y":2542742.450000003}},{"attributes":{"ID":164186,"DIS_CODE":0,"TOWNNAME":"永康區","LI":"尚頂里","LIN":"12鄰","STREET":"正南一街","SECT":" ","MAREA":" ","LANE":" ","ALLEY":" ","HOUSE_NO":"３８號","E_COORD97":171211.67999999999,"N_COORD97":2547371,"ADDRESS":"正南一街３８號","OBJECTID":164185},"geometry":{"x":171211.6799999997,"y":2547371.0000000019}},{"attributes":{"ID":164187,"DIS_CODE":0,"TOWNNAME":"安南區","LI":"海西里","LIN":"1鄰","STREET":"海環街","SECT":" ","MAREA":" ","LANE":" ","ALLEY":" ","HOUSE_NO":"５３１號","E_COORD97":166227.51999999999,"N_COORD97":2549229.23,"ADDRESS":"海環街５３１號","OBJECTID":164186},"geometry":{"x":166227.51999999862,"y":2549229.2300000004}},{"attributes":{"ID":164188,"DIS_CODE":0,"TOWNNAME":"麻豆區","LI":"南勢里","LIN":"18鄰","STREET":" ","SECT":" ","MAREA":"南勢","LANE":" ","ALLEY":" ","HOUSE_NO":"３６號之５８","E_COORD97":174368.76000000001,"N_COORD97":2564675.2000000002,"ADDRESS":"南勢３６號之５８","OBJECTID":164187},"geometry":{"x":174368.76000000071,"y":2564675.1999999993}},{"attributes":{"ID":164189,"DIS_CODE":0,"TOWNNAME":"麻豆區","LI":"南勢里","LIN":"18鄰","STREET":" ","SECT":" ","MAREA":"南勢","LANE":" ","ALLEY":" ","HOUSE_NO":"３６號之５９","E_COORD97":174373.54000000001,"N_COORD97":2564675.1000000001,"ADDRESS":"南勢３６號之５９","OBJECTID":164188},"geometry":{"x":174373.54000000097,"y":2564675.1000000015}},{"attributes":{"ID":164190,"DIS_CODE":0,"TOWNNAME":"麻豆區","LI":"南勢里","LIN":"18鄰","STREET":" ","SECT":" ","MAREA":"南勢","LANE":" ","ALLEY":" ","HOUSE_NO":"３６號之６０","E_COORD97":174378.44,"N_COORD97":2564675.04,"ADDRESS":"南勢３６號之６０","OBJECTID":164189},"geometry":{"x":174378.44000000134,"y":2564675.040000001}},{"attributes":{"ID":164191,"DIS_CODE":0,"TOWNNAME":"麻豆區","LI":"南勢里","LIN":"18鄰","STREET":" ","SECT":" ","MAREA":"南勢","LANE":" ","ALLEY":" ","HOUSE_NO":"３６號之６１","E_COORD97":174383.34,"N_COORD97":2564675.2200000002,"ADDRESS":"南勢３６號之６１","OBJECTID":164190},"geometry":{"x":174383.34000000078,"y":2564675.2200000025}},{"attributes":{"ID":164192,"DIS_CODE":0,"TOWNNAME":"麻豆區","LI":"南勢里","LIN":"18鄰","STREET":" ","SECT":" ","MAREA":"南勢","LANE":" ","ALLEY":" ","HOUSE_NO":"３６號之６２","E_COORD97":174388.03,"N_COORD97":2564675.0600000001,"ADDRESS":"南勢３６號之６２","OBJECTID":164191},"geometry":{"x":174388.03000000119,"y":2564675.0600000042}},{"attributes":{"ID":164193,"DIS_CODE":0,"TOWNNAME":"麻豆區","LI":"南勢里","LIN":"18鄰","STREET":" ","SECT":" ","MAREA":"南勢","LANE":" ","ALLEY":" ","HOUSE_NO":"３６號之６３","E_COORD97":174402.54999999999,"N_COORD97":2564674.8900000001,"ADDRESS":"南勢３６號之６３","OBJECTID":164192},"geometry":{"x":174402.55000000075,"y":2564674.8900000006}},{"attributes":{"ID":164194,"DIS_CODE":0,"TOWNNAME":"麻豆區","LI":"南勢里","LIN":"18鄰","STREET":" ","SECT":" ","MAREA":"南勢","LANE":" ","ALLEY":" ","HOUSE_NO":"３６號之６４","E_COORD97":174407.88,"N_COORD97":2564674.8399999999,"ADDRESS":"南勢３６號之６４","OBJECTID":164193},"geometry":{"x":174407.87999999989,"y":2564674.8399999999}},{"attributes":{"ID":164195,"DIS_CODE":0,"TOWNNAME":"東區","LI":"自強里","LIN":"25鄰","STREET":"中華東路","SECT":"二段","MAREA":" ","LANE":"１３３巷","ALLEY":"７０弄","HOUSE_NO":"４號","E_COORD97":171546.57999999999,"N_COORD97":2542756.3700000001,"ADDRESS":"中華東路二段１３３巷７０弄４號","OBJECTID":164194},"geometry":{"x":171546.58000000007,"y":2542756.3700000029}},{"attributes":{"ID":164196,"DIS_CODE":0,"TOWNNAME":"東區","LI":"自強里","LIN":"25鄰","STREET":"中華東路","SECT":"二段","MAREA":" ","LANE":"１３３巷","ALLEY":"７０弄","HOUSE_NO":"５號","E_COORD97":171535.54999999999,"N_COORD97":2542742.0600000001,"ADDRESS":"中華東路二段１３３巷７０弄５號","OBJECTID":164195},"geometry":{"x":171535.55000000075,"y":2542742.0600000005}},{"attributes":{"ID":164197,"DIS_CODE":0,"TOWNNAME":"東區","LI":"自強里","LIN":"25鄰","STREET":"中華東路","SECT":"二段","MAREA":" ","LANE":"１３３巷","ALLEY":"７０弄","HOUSE_NO":"６號","E_COORD97":171542.13,"N_COORD97":2542755.98,"ADDRESS":"中華東路二段１３３巷７０弄６號","OBJECTID":164196},"geometry":{"x":171542.13000000082,"y":2542755.9800000004}},{"attributes":{"ID":164198,"DIS_CODE":0,"TOWNNAME":"東區","LI":"自強里","LIN":"25鄰","STREET":"中華東路","SECT":"二段","MAREA":" ","LANE":"１３３巷","ALLEY":"７０弄","HOUSE_NO":"７號","E_COORD97":171531.10000000001,"N_COORD97":2542741.48,"ADDRESS":"中華東路二段１３３巷７０弄７號","OBJECTID":164197},"geometry":{"x":171531.09999999963,"y":2542741.4800000023}},{"attributes":{"ID":164199,"DIS_CODE":0,"TOWNNAME":"東區","LI":"自強里","LIN":"25鄰","STREET":"中華東路","SECT":"二段","MAREA":" ","LANE":"１３３巷","ALLEY":"７０弄","HOUSE_NO":"８號","E_COORD97":171537.48999999999,"N_COORD97":2542755.79,"ADDRESS":"中華東路二段１３３巷７０弄８號","OBJECTID":164198},"geometry":{"x":171537.49000000022,"y":2542755.7899999991}},{"attributes":{"ID":164200,"DIS_CODE":0,"TOWNNAME":"東區","LI":"自強里","LIN":"25鄰","STREET":"中華東路","SECT":"二段","MAREA":" ","LANE":"１３３巷","ALLEY":"７０弄","HOUSE_NO":"９號","E_COORD97":171527.04000000001,"N_COORD97":2542740.8999999999,"ADDRESS":"中華東路二段１３３巷７０弄９號","OBJECTID":164199},"geometry":{"x":171527.03999999911,"y":2542740.9000000022}},{"attributes":{"ID":164201,"DIS_CODE":0,"TOWNNAME":"安南區","LI":"海西里","LIN":"1鄰","STREET":"海環街","SECT":" ","MAREA":" ","LANE":" ","ALLEY":" ","HOUSE_NO":"５３３號","E_COORD97":166229.92999999999,"N_COORD97":2549232.54,"ADDRESS":"海環街５３３號","OBJECTID":164200},"geometry":{"x":166229.9299999997,"y":2549232.5399999991}}]}