{"displayFieldName":"TOWNNAME","fieldAliases":{"ID":"ID","DIS_CODE":"DIS_CODE","TOWNNAME":"TOWNNAME","LI":"LI","LIN":"LIN","STREET":"STREET","SECT":"SECT","MAREA":"MAREA","LANE":"LANE","ALLEY":"ALLEY","HOUSE_NO":"HOUSE_NO","E_COORD97":"E_COORD97","N_COORD97":"N_COORD97","ADDRESS":"ADDRESS","OBJECTID":"OBJECTID"},"geometryType":"esriGeometryPoint","spatialReference":{"wkid":102443,"latestWkid":3826},"fields":[{"name":"ID","type":"esriFieldTypeDouble","alias":"ID"},{"name":"DIS_CODE","type":"esriFieldTypeInteger","alias":"DIS_CODE"},{"name":"TOWNNAME","type":"esriFieldTypeString","alias":"TOWNNAME","length":8},{"name":"LI","type":"esriFieldTypeString","alias":"LI","length":8},{"name":"LIN","type":"esriFieldTypeString","alias":"LIN","length":12},{"name":"STREET","type":"esriFieldTypeString","alias":"STREET","length":20},{"name":"SECT","type":"esriFieldTypeString","alias":"SECT","length":8},{"name":"MAREA","type":"esriFieldTypeString","alias":"MAREA","length":12},{"name":"LANE","type":"esriFieldTypeString","alias":"LANE","length":10},{"name":"ALLEY","type":"esriFieldTypeString","alias":"ALLEY","length":10},{"name":"HOUSE_NO","type":"esriFieldTypeString","alias":"HOUSE_NO","length":20},{"name":"E_COORD97","type":"esriFieldTypeDouble","alias":"E_COORD97"},{"name":"N_COORD97","type":"esriFieldTypeDouble","alias":"N_COORD97"},{"name":"ADDRESS","type":"esriFieldTypeString","alias":"ADDRESS","length":50},{"name":"OBJECTID","type":"esriFieldTypeOID","alias":"OBJECTID"}],"features":[{"attributes":{"ID":421626,"DIS_CODE":0,"TOWNNAME":"新市區","LI":"新和里","LIN":"48鄰","STREET":"和平街","SECT":" ","MAREA":" ","LANE":"７６巷","ALLEY":" ","HOUSE_NO":"７號","E_COORD97":177578.59,"N_COORD97":2553439,"ADDRESS":"和平街７６巷７號","OBJECTID":421601},"geometry":{"x":177578.59000000171,"y":2553439}},{"attributes":{"ID":421627,"DIS_CODE":0,"TOWNNAME":"新市區","LI":"新和里","LIN":"48鄰","STREET":"和平街","SECT":" ","MAREA":" ","LANE":"７６巷","ALLEY":" ","HOUSE_NO":"２號","E_COORD97":177600.34,"N_COORD97":2553447,"ADDRESS":"和平街７６巷２號","OBJECTID":421602},"geometry":{"x":177600.33999999985,"y":2553447.0000000019}},{"attributes":{"ID":421628,"DIS_CODE":0,"TOWNNAME":"仁德區","LI":"成功里","LIN":"39鄰","STREET":"文賢路","SECT":"一段","MAREA":" ","LANE":"２９巷","ALLEY":" ","HOUSE_NO":"１１號","E_COORD97":170154.95000000001,"N_COORD97":2538300.3199999998,"ADDRESS":"文賢路一段２９巷１１號","OBJECTID":421603},"geometry":{"x":170154.95000000205,"y":2538300.3200000022}},{"attributes":{"ID":421629,"DIS_CODE":0,"TOWNNAME":"仁德區","LI":"成功里","LIN":"39鄰","STREET":"文賢路","SECT":"一段","MAREA":" ","LANE":"２９巷","ALLEY":" ","HOUSE_NO":"３號","E_COORD97":170157.12,"N_COORD97":2538284.3199999998,"ADDRESS":"文賢路一段２９巷３號","OBJECTID":421604},"geometry":{"x":170157.12000000197,"y":2538284.3200000003}},{"attributes":{"ID":421630,"DIS_CODE":0,"TOWNNAME":"仁德區","LI":"成功里","LIN":"39鄰","STREET":"文賢路","SECT":"一段","MAREA":" ","LANE":"５２巷","ALLEY":" ","HOUSE_NO":"４號","E_COORD97":170174.26000000001,"N_COORD97":2538217.8199999998,"ADDRESS":"文賢路一段５２巷４號","OBJECTID":421605},"geometry":{"x":170174.25999999885,"y":2538217.8199999984}},{"attributes":{"ID":421631,"DIS_CODE":0,"TOWNNAME":"永康區","LI":"西灣里","LIN":"48鄰","STREET":"永華路","SECT":" ","MAREA":" ","LANE":"２７３巷","ALLEY":" ","HOUSE_NO":"２７號","E_COORD97":173990.14999999999,"N_COORD97":2545799.1600000001,"ADDRESS":"永華路２７３巷２７號","OBJECTID":421606},"geometry":{"x":173990.1500000013,"y":2545799.1600000001}},{"attributes":{"ID":421632,"DIS_CODE":0,"TOWNNAME":"永康區","LI":"西灣里","LIN":"48鄰","STREET":"永華路","SECT":" ","MAREA":" ","LANE":"２３３巷","ALLEY":" ","HOUSE_NO":"２４號","E_COORD97":173987.57999999999,"N_COORD97":2545761.8999999999,"ADDRESS":"永華路２３３巷２４號","OBJECTID":421607},"geometry":{"x":173987.58000000007,"y":2545761.9000000022}},{"attributes":{"ID":421633,"DIS_CODE":0,"TOWNNAME":"永康區","LI":"西灣里","LIN":"48鄰","STREET":"永華路","SECT":" ","MAREA":" ","LANE":"２３３巷","ALLEY":" ","HOUSE_NO":"１８號","E_COORD97":173995.63,"N_COORD97":2545741.4900000002,"ADDRESS":"永華路２３３巷１８號","OBJECTID":421608},"geometry":{"x":173995.62999999989,"y":2545741.4900000021}},{"attributes":{"ID":421634,"DIS_CODE":0,"TOWNNAME":"永康區","LI":"\u25A0行里","LIN":"48鄰","STREET":"新民街","SECT":" ","MAREA":" ","LANE":"６６巷","ALLEY":" ","HOUSE_NO":"２號","E_COORD97":172375.56,"N_COORD97":2548980.04,"ADDRESS":"新民街６６巷２號","OBJECTID":421609},"geometry":{"x":172375.55999999959,"y":2548980.040000001}},{"attributes":{"ID":421635,"DIS_CODE":0,"TOWNNAME":"永康區","LI":"西灣里","LIN":"48鄰","STREET":"永華路","SECT":" ","MAREA":" ","LANE":"２３３巷","ALLEY":" ","HOUSE_NO":"２６號","E_COORD97":173986.14999999999,"N_COORD97":2545766.8999999999,"ADDRESS":"永華路２３３巷２６號","OBJECTID":421610},"geometry":{"x":173986.15000000037,"y":2545766.9000000004}},{"attributes":{"ID":421636,"DIS_CODE":0,"TOWNNAME":"安平區","LI":"國平里","LIN":"13鄰","STREET":"建平一街","SECT":" ","MAREA":" ","LANE":" ","ALLEY":" ","HOUSE_NO":"２３５號","E_COORD97":165496.17999999999,"N_COORD97":2542787.9300000002,"ADDRESS":"建平一街２３５號","OBJECTID":421611},"geometry":{"x":165496.18000000156,"y":2542787.9300000016}},{"attributes":{"ID":421637,"DIS_CODE":0,"TOWNNAME":"永康區","LI":"西灣里","LIN":"48鄰","STREET":"永華路","SECT":" ","MAREA":" ","LANE":"２３３巷","ALLEY":" ","HOUSE_NO":"２０號","E_COORD97":173990.04999999999,"N_COORD97":2545752.8999999999,"ADDRESS":"永華路２３３巷２０號","OBJECTID":421612},"geometry":{"x":173990.05000000168,"y":2545752.9000000004}},{"attributes":{"ID":421638,"DIS_CODE":0,"TOWNNAME":"永康區","LI":"西灣里","LIN":"48鄰","STREET":"永華路","SECT":" ","MAREA":" ","LANE":"２３３巷","ALLEY":" ","HOUSE_NO":"２２號","E_COORD97":173988.73999999999,"N_COORD97":2545757.6499999999,"ADDRESS":"永華路２３３巷２２號","OBJECTID":421613},"geometry":{"x":173988.74000000022,"y":2545757.6500000022}},{"attributes":{"ID":421639,"DIS_CODE":0,"TOWNNAME":"永康區","LI":"西灣里","LIN":"48鄰","STREET":"永華路","SECT":" ","MAREA":" ","LANE":"２７３巷","ALLEY":" ","HOUSE_NO":"２９號","E_COORD97":173984.95999999999,"N_COORD97":2545797.6600000001,"ADDRESS":"永華路２７３巷２９號","OBJECTID":421614},"geometry":{"x":173984.95999999996,"y":2545797.660000002}},{"attributes":{"ID":421640,"DIS_CODE":0,"TOWNNAME":"永康區","LI":"\u25A0行里","LIN":"48鄰","STREET":"新民街","SECT":" ","MAREA":" ","LANE":"４７巷","ALLEY":" ","HOUSE_NO":"１號","E_COORD97":172369.53,"N_COORD97":2548932.25,"ADDRESS":"新民街４７巷１號","OBJECTID":421615},"geometry":{"x":172369.53000000026,"y":2548932.2500000019}},{"attributes":{"ID":421641,"DIS_CODE":0,"TOWNNAME":"永康區","LI":"\u25A0行里","LIN":"48鄰","STREET":"新民街","SECT":" ","MAREA":" ","LANE":"４７巷","ALLEY":" ","HOUSE_NO":"７號","E_COORD97":172366.62,"N_COORD97":2548919.25,"ADDRESS":"新民街４７巷７號","OBJECTID":421616},"geometry":{"x":172366.62000000104,"y":2548919.2500000019}},{"attributes":{"ID":421642,"DIS_CODE":0,"TOWNNAME":"永康區","LI":"\u25A0行里","LIN":"48鄰","STREET":"新行街","SECT":" ","MAREA":" ","LANE":"１２２巷","ALLEY":" ","HOUSE_NO":"２２號","E_COORD97":172416.45000000001,"N_COORD97":2549029.0899999999,"ADDRESS":"新行街１２２巷２２號","OBJECTID":421617},"geometry":{"x":172416.45000000112,"y":2549029.0900000017}},{"attributes":{"ID":421643,"DIS_CODE":0,"TOWNNAME":"永康區","LI":"\u25A0行里","LIN":"48鄰","STREET":"新行街","SECT":" ","MAREA":" ","LANE":"１２２巷","ALLEY":" ","HOUSE_NO":"２０號","E_COORD97":172411.09,"N_COORD97":2549029.3399999999,"ADDRESS":"新行街１２２巷２０號","OBJECTID":421618},"geometry":{"x":172411.08999999985,"y":2549029.3400000036}},{"attributes":{"ID":421644,"DIS_CODE":0,"TOWNNAME":"仁德區","LI":"仁義里","LIN":"48鄰","STREET":"仁義路","SECT":" ","MAREA":" ","LANE":"９５巷","ALLEY":" ","HOUSE_NO":"１３號","E_COORD97":173617.32999999999,"N_COORD97":2541020.27,"ADDRESS":"仁義路９５巷１３號","OBJECTID":421619},"geometry":{"x":173617.33000000101,"y":2541020.2699999996}},{"attributes":{"ID":421645,"DIS_CODE":0,"TOWNNAME":"仁德區","LI":"仁義里","LIN":"48鄰","STREET":"仁義路","SECT":" ","MAREA":" ","LANE":"９５巷","ALLEY":" ","HOUSE_NO":"２３號","E_COORD97":173621.10999999999,"N_COORD97":2541041.02,"ADDRESS":"仁義路９５巷２３號","OBJECTID":421620},"geometry":{"x":173621.11000000127,"y":2541041.0200000014}},{"attributes":{"ID":421646,"DIS_CODE":0,"TOWNNAME":"永康區","LI":"\u25A0行里","LIN":"48鄰","STREET":"新民街","SECT":" ","MAREA":" ","LANE":"４７巷","ALLEY":" ","HOUSE_NO":"１０號","E_COORD97":172343.10000000001,"N_COORD97":2548917.27,"ADDRESS":"新民街４７巷１０號","OBJECTID":421621},"geometry":{"x":172343.09999999963,"y":2548917.2699999996}},{"attributes":{"ID":421647,"DIS_CODE":0,"TOWNNAME":"永康區","LI":"\u25A0行里","LIN":"48鄰","STREET":"新行街","SECT":" ","MAREA":" ","LANE":"１２２巷","ALLEY":" ","HOUSE_NO":"１６號","E_COORD97":172396.92999999999,"N_COORD97":2549032.4100000001,"ADDRESS":"新行街１２２巷１６號","OBJECTID":421622},"geometry":{"x":172396.9299999997,"y":2549032.4099999983}},{"attributes":{"ID":421648,"DIS_CODE":0,"TOWNNAME":"永康區","LI":"\u25A0行里","LIN":"48鄰","STREET":"新民街","SECT":" ","MAREA":" ","LANE":"６６巷","ALLEY":" ","HOUSE_NO":"１號","E_COORD97":172359.28,"N_COORD97":2548983.46,"ADDRESS":"新民街６６巷１號","OBJECTID":421623},"geometry":{"x":172359.28000000026,"y":2548983.4600000028}},{"attributes":{"ID":421649,"DIS_CODE":0,"TOWNNAME":"永康區","LI":"\u25A0行里","LIN":"48鄰","STREET":"新民街","SECT":" ","MAREA":" ","LANE":"４７巷","ALLEY":" ","HOUSE_NO":"１２號","E_COORD97":172343.35000000001,"N_COORD97":2548913.27,"ADDRESS":"新民街４７巷１２號","OBJECTID":421624},"geometry":{"x":172343.35000000149,"y":2548913.2699999996}},{"attributes":{"ID":421650,"DIS_CODE":0,"TOWNNAME":"永康區","LI":"\u25A0行里","LIN":"48鄰","STREET":"新民街","SECT":" ","MAREA":" ","LANE":"４７巷","ALLEY":" ","HOUSE_NO":"５號","E_COORD97":172367.67999999999,"N_COORD97":2548923.75,"ADDRESS":"新民街４７巷５號","OBJECTID":421625},"geometry":{"x":172367.6799999997,"y":2548923.75}},{"attributes":{"ID":421651,"DIS_CODE":0,"TOWNNAME":"歸仁區","LI":"辜厝里","LIN":"48鄰","STREET":"中正十街","SECT":" ","MAREA":" ","LANE":"３６巷","ALLEY":" ","HOUSE_NO":"１１號","E_COORD97":177042.32000000001,"N_COORD97":2540257.8599999999,"ADDRESS":"中正十街３６巷１１號","OBJECTID":421626},"geometry":{"x":177042.32000000123,"y":2540257.8600000031}},{"attributes":{"ID":421652,"DIS_CODE":0,"TOWNNAME":"歸仁區","LI":"辜厝里","LIN":"48鄰","STREET":"中正十街","SECT":" ","MAREA":" ","LANE":"３６巷","ALLEY":" ","HOUSE_NO":"１９號","E_COORD97":177058.82000000001,"N_COORD97":2540257.8599999999,"ADDRESS":"中正十街３６巷１９號","OBJECTID":421627},"geometry":{"x":177058.82000000123,"y":2540257.8600000031}},{"attributes":{"ID":421653,"DIS_CODE":0,"TOWNNAME":"永康區","LI":"\u25A0行里","LIN":"48鄰","STREET":"新民街","SECT":" ","MAREA":" ","LANE":"１６巷","ALLEY":" ","HOUSE_NO":"９號","E_COORD97":172466.37,"N_COORD97":2549026.3399999999,"ADDRESS":"新民街１６巷９號","OBJECTID":421628},"geometry":{"x":172466.37000000104,"y":2549026.3400000017}},{"attributes":{"ID":421654,"DIS_CODE":0,"TOWNNAME":"永康區","LI":"\u25A0行里","LIN":"48鄰","STREET":"新民街","SECT":" ","MAREA":" ","LANE":"４７巷","ALLEY":" ","HOUSE_NO":"２號","E_COORD97":172345.70000000001,"N_COORD97":2548930.77,"ADDRESS":"新民街４７巷２號","OBJECTID":421629},"geometry":{"x":172345.70000000112,"y":2548930.7699999996}},{"attributes":{"ID":421655,"DIS_CODE":0,"TOWNNAME":"永康區","LI":"\u25A0行里","LIN":"48鄰","STREET":"新民街","SECT":" ","MAREA":" ","LANE":"４７巷","ALLEY":" ","HOUSE_NO":"３號","E_COORD97":172368.48000000001,"N_COORD97":2548928,"ADDRESS":"新民街４７巷３號","OBJECTID":421630},"geometry":{"x":172368.48000000045,"y":2548928.0000000019}},{"attributes":{"ID":421656,"DIS_CODE":0,"TOWNNAME":"永康區","LI":"\u25A0行里","LIN":"48鄰","STREET":"新民街","SECT":" ","MAREA":" ","LANE":"６６巷","ALLEY":" ","HOUSE_NO":"６號","E_COORD97":172385.01999999999,"N_COORD97":2548982.6000000001,"ADDRESS":"新民街６６巷６號","OBJECTID":421631},"geometry":{"x":172385.02000000048,"y":2548982.5999999996}},{"attributes":{"ID":421657,"DIS_CODE":0,"TOWNNAME":"仁德區","LI":"仁義里","LIN":"48鄰","STREET":"仁義路","SECT":" ","MAREA":" ","LANE":"９５巷","ALLEY":" ","HOUSE_NO":"１５號","E_COORD97":173620.22,"N_COORD97":2541024.27,"ADDRESS":"仁義路９５巷１５號","OBJECTID":421632},"geometry":{"x":173620.21999999974,"y":2541024.2699999996}},{"attributes":{"ID":421658,"DIS_CODE":0,"TOWNNAME":"永康區","LI":"正強里","LIN":"48鄰","STREET":"中正路","SECT":" ","MAREA":" ","LANE":"２５６巷","ALLEY":" ","HOUSE_NO":"１３號之４２","E_COORD97":173256.06,"N_COORD97":2548001.6699999999,"ADDRESS":"中正路２５６巷１３號之４２","OBJECTID":421633},"geometry":{"x":173256.06000000052,"y":2548001.6699999999}},{"attributes":{"ID":421659,"DIS_CODE":0,"TOWNNAME":"中西區","LI":"三合里","LIN":"7鄰","STREET":"信義街","SECT":" ","MAREA":" ","LANE":"４６巷","ALLEY":" ","HOUSE_NO":"４號","E_COORD97":167591.01000000001,"N_COORD97":2544499.75,"ADDRESS":"信義街４６巷４號","OBJECTID":421634},"geometry":{"x":167591.01000000071,"y":2544499.75}},{"attributes":{"ID":421660,"DIS_CODE":0,"TOWNNAME":"永康區","LI":"正強里","LIN":"48鄰","STREET":"中正路","SECT":" ","MAREA":" ","LANE":"２５６巷","ALLEY":" ","HOUSE_NO":"１３號之５","E_COORD97":173254.82999999999,"N_COORD97":2548001.6699999999,"ADDRESS":"中正路２５６巷１３號之５","OBJECTID":421635},"geometry":{"x":173254.83000000101,"y":2548001.6699999999}},{"attributes":{"ID":421661,"DIS_CODE":0,"TOWNNAME":"永康區","LI":"正強里","LIN":"48鄰","STREET":"中正路","SECT":" ","MAREA":" ","LANE":"２５６巷","ALLEY":" ","HOUSE_NO":"１３號之２５","E_COORD97":173256.07999999999,"N_COORD97":2548001.6699999999,"ADDRESS":"中正路２５６巷１３號之２５","OBJECTID":421636},"geometry":{"x":173256.08000000194,"y":2548001.6699999999}},{"attributes":{"ID":421662,"DIS_CODE":0,"TOWNNAME":"永康區","LI":"正強里","LIN":"48鄰","STREET":"中正路","SECT":" ","MAREA":" ","LANE":"２５６巷","ALLEY":" ","HOUSE_NO":"１３號之１３","E_COORD97":173256.03,"N_COORD97":2548001.6699999999,"ADDRESS":"中正路２５６巷１３號之１３","OBJECTID":421637},"geometry":{"x":173256.03000000026,"y":2548001.6699999999}},{"attributes":{"ID":421663,"DIS_CODE":0,"TOWNNAME":"永康區","LI":"正強里","LIN":"48鄰","STREET":"中正路","SECT":" ","MAREA":" ","LANE":"２５６巷","ALLEY":" ","HOUSE_NO":"１３號之３０","E_COORD97":173255.98000000001,"N_COORD97":2548001.6699999999,"ADDRESS":"中正路２５６巷１３號之３０","OBJECTID":421638},"geometry":{"x":173255.98000000138,"y":2548001.6699999999}},{"attributes":{"ID":421664,"DIS_CODE":0,"TOWNNAME":"新市區","LI":"新和里","LIN":"48鄰","STREET":"和平街","SECT":" ","MAREA":" ","LANE":"１５４巷","ALLEY":" ","HOUSE_NO":"１１號","E_COORD97":177448.07000000001,"N_COORD97":2553363.5,"ADDRESS":"和平街１５４巷１１號","OBJECTID":421639},"geometry":{"x":177448.0700000003,"y":2553363.5}},{"attributes":{"ID":421665,"DIS_CODE":0,"TOWNNAME":"新市區","LI":"新和里","LIN":"48鄰","STREET":"和平街","SECT":" ","MAREA":" ","LANE":"１３８巷","ALLEY":" ","HOUSE_NO":"９號","E_COORD97":177485.42000000001,"N_COORD97":2553376.5,"ADDRESS":"和平街１３８巷９號","OBJECTID":421640},"geometry":{"x":177485.42000000086,"y":2553376.5000000019}},{"attributes":{"ID":421666,"DIS_CODE":0,"TOWNNAME":"仁德區","LI":"仁義里","LIN":"48鄰","STREET":"仁義路","SECT":" ","MAREA":" ","LANE":"９５巷","ALLEY":" ","HOUSE_NO":"１號","E_COORD97":173616.95000000001,"N_COORD97":2540988.2599999998,"ADDRESS":"仁義路９５巷１號","OBJECTID":421641},"geometry":{"x":173616.95000000112,"y":2540988.2600000016}},{"attributes":{"ID":421667,"DIS_CODE":0,"TOWNNAME":"仁德區","LI":"仁義里","LIN":"48鄰","STREET":"仁義路","SECT":" ","MAREA":" ","LANE":"９５巷","ALLEY":" ","HOUSE_NO":"７號","E_COORD97":173618.95000000001,"N_COORD97":2541006.5099999998,"ADDRESS":"仁義路９５巷７號","OBJECTID":421642},"geometry":{"x":173618.95000000112,"y":2541006.5100000035}},{"attributes":{"ID":421668,"DIS_CODE":0,"TOWNNAME":"新市區","LI":"新和里","LIN":"48鄰","STREET":"和平街","SECT":" ","MAREA":" ","LANE":"６２巷","ALLEY":" ","HOUSE_NO":"２號","E_COORD97":177633.09,"N_COORD97":2553465.25,"ADDRESS":"和平街６２巷２號","OBJECTID":421643},"geometry":{"x":177633.09000000078,"y":2553465.2500000019}},{"attributes":{"ID":421669,"DIS_CODE":0,"TOWNNAME":"新市區","LI":"新和里","LIN":"48鄰","STREET":"和平街","SECT":" ","MAREA":" ","LANE":"１０６巷","ALLEY":" ","HOUSE_NO":"３號","E_COORD97":177541.81,"N_COORD97":2553401.75,"ADDRESS":"和平街１０６巷３號","OBJECTID":421644},"geometry":{"x":177541.81000000052,"y":2553401.7500000019}},{"attributes":{"ID":421670,"DIS_CODE":0,"TOWNNAME":"永康區","LI":"\u25A0行里","LIN":"48鄰","STREET":"新民街","SECT":" ","MAREA":" ","LANE":"１６巷","ALLEY":" ","HOUSE_NO":"１２號","E_COORD97":172474.70999999999,"N_COORD97":2548971.8599999999,"ADDRESS":"新民街１６巷１２號","OBJECTID":421645},"geometry":{"x":172474.70999999996,"y":2548971.8600000013}},{"attributes":{"ID":421671,"DIS_CODE":0,"TOWNNAME":"永康區","LI":"\u25A0行里","LIN":"48鄰","STREET":"新民街","SECT":" ","MAREA":" ","LANE":"１６巷","ALLEY":" ","HOUSE_NO":"１６號","E_COORD97":172475.5,"N_COORD97":2548976.0099999998,"ADDRESS":"新民街１６巷１６號","OBJECTID":421646},"geometry":{"x":172475.50000000093,"y":2548976.0099999998}},{"attributes":{"ID":421672,"DIS_CODE":0,"TOWNNAME":"永康區","LI":"\u25A0行里","LIN":"48鄰","STREET":"新民街","SECT":" ","MAREA":" ","LANE":"１６巷","ALLEY":" ","HOUSE_NO":"１８號","E_COORD97":172476.29000000001,"N_COORD97":2548980.1600000001,"ADDRESS":"新民街１６巷１８號","OBJECTID":421647},"geometry":{"x":172476.29000000004,"y":2548980.1600000039}},{"attributes":{"ID":421673,"DIS_CODE":0,"TOWNNAME":"永康區","LI":"\u25A0行里","LIN":"48鄰","STREET":"新民街","SECT":" ","MAREA":" ","LANE":"１６巷","ALLEY":" ","HOUSE_NO":"２０號","E_COORD97":172477.09,"N_COORD97":2548984.3100000001,"ADDRESS":"新民街１６巷２０號","OBJECTID":421648},"geometry":{"x":172477.08999999985,"y":2548984.3100000024}},{"attributes":{"ID":421674,"DIS_CODE":0,"TOWNNAME":"永康區","LI":"\u25A0行里","LIN":"48鄰","STREET":"新民街","SECT":" ","MAREA":" ","LANE":"１６巷","ALLEY":" ","HOUSE_NO":"２２號","E_COORD97":172477.88,"N_COORD97":2548988.46,"ADDRESS":"新民街１６巷２２號","OBJECTID":421649},"geometry":{"x":172477.88000000082,"y":2548988.4600000009}},{"attributes":{"ID":421675,"DIS_CODE":0,"TOWNNAME":"永康區","LI":"\u25A0行里","LIN":"48鄰","STREET":"新民街","SECT":" ","MAREA":" ","LANE":"１６巷","ALLEY":" ","HOUSE_NO":"２６號","E_COORD97":172478.67000000001,"N_COORD97":2548992.6099999999,"ADDRESS":"新民街１６巷２６號","OBJECTID":421650},"geometry":{"x":172478.66999999993,"y":2548992.6099999994}},{"attributes":{"ID":421676,"DIS_CODE":0,"TOWNNAME":"永康區","LI":"\u25A0行里","LIN":"48鄰","STREET":"新民街","SECT":" ","MAREA":" ","LANE":"１６巷","ALLEY":" ","HOUSE_NO":"２８號","E_COORD97":172479.47,"N_COORD97":2548996.7599999998,"ADDRESS":"新民街１６巷２８號","OBJECTID":421651},"geometry":{"x":172479.46999999974,"y":2548996.7600000016}},{"attributes":{"ID":421677,"DIS_CODE":0,"TOWNNAME":"永康區","LI":"\u25A0行里","LIN":"48鄰","STREET":"新民街","SECT":" ","MAREA":" ","LANE":"１６巷","ALLEY":" ","HOUSE_NO":"３０號","E_COORD97":172480.26000000001,"N_COORD97":2549000.9100000001,"ADDRESS":"新民街１６巷３０號","OBJECTID":421652},"geometry":{"x":172480.26000000071,"y":2549000.9100000001}},{"attributes":{"ID":421678,"DIS_CODE":0,"TOWNNAME":"永康區","LI":"\u25A0行里","LIN":"48鄰","STREET":"新民街","SECT":" ","MAREA":" ","LANE":"１６巷","ALLEY":" ","HOUSE_NO":"３２號","E_COORD97":172481.06,"N_COORD97":2549005.1099999999,"ADDRESS":"新民街１６巷３２號","OBJECTID":421653},"geometry":{"x":172481.06000000145,"y":2549005.1099999994}},{"attributes":{"ID":421679,"DIS_CODE":0,"TOWNNAME":"永康區","LI":"\u25A0行里","LIN":"48鄰","STREET":"新民街","SECT":" ","MAREA":" ","LANE":"１６巷","ALLEY":" ","HOUSE_NO":"３６號","E_COORD97":172481.87,"N_COORD97":2549009.3399999999,"ADDRESS":"新民街１６巷３６號","OBJECTID":421654},"geometry":{"x":172481.87000000104,"y":2549009.3400000017}},{"attributes":{"ID":421680,"DIS_CODE":0,"TOWNNAME":"永康區","LI":"\u25A0行里","LIN":"48鄰","STREET":"新民街","SECT":" ","MAREA":" ","LANE":"１６巷","ALLEY":" ","HOUSE_NO":"３８號","E_COORD97":172484.56,"N_COORD97":2549017,"ADDRESS":"新民街１６巷３８號","OBJECTID":421655},"geometry":{"x":172484.56000000052,"y":2549017}},{"attributes":{"ID":421681,"DIS_CODE":0,"TOWNNAME":"仁德區","LI":"成功里","LIN":"39鄰","STREET":"文賢路","SECT":"一段","MAREA":" ","LANE":"２９巷","ALLEY":" ","HOUSE_NO":"５號","E_COORD97":170158.12,"N_COORD97":2538288.5699999998,"ADDRESS":"文賢路一段２９巷５號","OBJECTID":421656},"geometry":{"x":170158.12000000011,"y":2538288.5700000022}},{"attributes":{"ID":421682,"DIS_CODE":0,"TOWNNAME":"仁德區","LI":"成功里","LIN":"39鄰","STREET":"二仁路","SECT":"一段","MAREA":" ","LANE":"２００巷","ALLEY":" ","HOUSE_NO":"２１號","E_COORD97":170296.39999999999,"N_COORD97":2536650.02,"ADDRESS":"二仁路一段２００巷２１號","OBJECTID":421657},"geometry":{"x":170296.4000000013,"y":2536650.0200000014}},{"attributes":{"ID":421683,"DIS_CODE":0,"TOWNNAME":"仁德區","LI":"成功里","LIN":"39鄰","STREET":"文賢路","SECT":"一段","MAREA":" ","LANE":"２９巷","ALLEY":" ","HOUSE_NO":"７號","E_COORD97":170162,"N_COORD97":2538298.3199999998,"ADDRESS":"文賢路一段２９巷７號","OBJECTID":421658},"geometry":{"x":170162,"y":2538298.3200000003}},{"attributes":{"ID":421684,"DIS_CODE":0,"TOWNNAME":"仁德區","LI":"成功里","LIN":"39鄰","STREET":"文賢路","SECT":"一段","MAREA":" ","LANE":"２９巷","ALLEY":" ","HOUSE_NO":"９號","E_COORD97":170157.84,"N_COORD97":2538299.3199999998,"ADDRESS":"文賢路一段２９巷９號","OBJECTID":421659},"geometry":{"x":170157.83999999985,"y":2538299.320000004}},{"attributes":{"ID":421685,"DIS_CODE":0,"TOWNNAME":"新市區","LI":"新和里","LIN":"48鄰","STREET":"和平街","SECT":" ","MAREA":" ","LANE":"１５４巷","ALLEY":" ","HOUSE_NO":"２５號","E_COORD97":177429.23000000001,"N_COORD97":2553400.25,"ADDRESS":"和平街１５４巷２５號","OBJECTID":421660},"geometry":{"x":177429.23000000138,"y":2553400.2500000037}},{"attributes":{"ID":421686,"DIS_CODE":0,"TOWNNAME":"新市區","LI":"新和里","LIN":"48鄰","STREET":"和平街","SECT":" ","MAREA":" ","LANE":"１５４巷","ALLEY":" ","HOUSE_NO":"２３號","E_COORD97":177432.53,"N_COORD97":2553396.5,"ADDRESS":"和平街１５４巷２３號","OBJECTID":421661},"geometry":{"x":177432.53000000119,"y":2553396.5000000019}},{"attributes":{"ID":421687,"DIS_CODE":0,"TOWNNAME":"新市區","LI":"新和里","LIN":"48鄰","STREET":"和平街","SECT":" ","MAREA":" ","LANE":"１５４巷","ALLEY":" ","HOUSE_NO":"１９號","E_COORD97":177437.42999999999,"N_COORD97":2553384.75,"ADDRESS":"和平街１５４巷１９號","OBJECTID":421662},"geometry":{"x":177437.43000000063,"y":2553384.7500000019}},{"attributes":{"ID":421688,"DIS_CODE":0,"TOWNNAME":"新市區","LI":"新和里","LIN":"48鄰","STREET":"和平街","SECT":" ","MAREA":" ","LANE":"１５４巷","ALLEY":" ","HOUSE_NO":"１６號","E_COORD97":177447.42999999999,"N_COORD97":2553388.25,"ADDRESS":"和平街１５４巷１６號","OBJECTID":421663},"geometry":{"x":177447.43000000063,"y":2553388.2500000019}},{"attributes":{"ID":421689,"DIS_CODE":0,"TOWNNAME":"新市區","LI":"新和里","LIN":"48鄰","STREET":"和平街","SECT":" ","MAREA":" ","LANE":"１３８巷","ALLEY":" ","HOUSE_NO":"１３號","E_COORD97":177481.45999999999,"N_COORD97":2553383.75,"ADDRESS":"和平街１３８巷１３號","OBJECTID":421664},"geometry":{"x":177481.46000000089,"y":2553383.7500000019}},{"attributes":{"ID":421690,"DIS_CODE":0,"TOWNNAME":"新市區","LI":"新和里","LIN":"48鄰","STREET":"和平街","SECT":" ","MAREA":" ","LANE":"１３８巷","ALLEY":" ","HOUSE_NO":"８號","E_COORD97":177501.92999999999,"N_COORD97":2553377,"ADDRESS":"和平街１３８巷８號","OBJECTID":421665},"geometry":{"x":177501.93000000063,"y":2553377}},{"attributes":{"ID":421691,"DIS_CODE":0,"TOWNNAME":"新市區","LI":"新和里","LIN":"48鄰","STREET":"和平街","SECT":" ","MAREA":" ","LANE":"１５４巷","ALLEY":" ","HOUSE_NO":"７號","E_COORD97":177452.32000000001,"N_COORD97":2553353,"ADDRESS":"和平街１５４巷７號","OBJECTID":421666},"geometry":{"x":177452.32000000123,"y":2553353}},{"attributes":{"ID":421692,"DIS_CODE":0,"TOWNNAME":"新市區","LI":"新和里","LIN":"48鄰","STREET":"和平街","SECT":" ","MAREA":" ","LANE":"１５４巷","ALLEY":" ","HOUSE_NO":"１４號","E_COORD97":177450.53,"N_COORD97":2553379.75,"ADDRESS":"和平街１５４巷１４號","OBJECTID":421667},"geometry":{"x":177450.53000000212,"y":2553379.7499999981}},{"attributes":{"ID":421693,"DIS_CODE":0,"TOWNNAME":"中西區","LI":"三合里","LIN":"7鄰","STREET":"信義街","SECT":" ","MAREA":" ","LANE":"４６巷","ALLEY":" ","HOUSE_NO":"１０號","E_COORD97":167597.76999999999,"N_COORD97":2544510.5800000001,"ADDRESS":"信義街４６巷１０號","OBJECTID":421668},"geometry":{"x":167597.77000000048,"y":2544510.5800000001}},{"attributes":{"ID":421694,"DIS_CODE":0,"TOWNNAME":"新市區","LI":"新和里","LIN":"48鄰","STREET":"和平街","SECT":" ","MAREA":" ","LANE":"１３８巷","ALLEY":" ","HOUSE_NO":"２７號","E_COORD97":177459.70000000001,"N_COORD97":2553408,"ADDRESS":"和平街１３８巷２７號","OBJECTID":421669},"geometry":{"x":177459.70000000112,"y":2553408}},{"attributes":{"ID":421695,"DIS_CODE":0,"TOWNNAME":"新市區","LI":"新和里","LIN":"48鄰","STREET":"和平街","SECT":" ","MAREA":" ","LANE":"１５４巷","ALLEY":" ","HOUSE_NO":"５號","E_COORD97":177455.42999999999,"N_COORD97":2553347.75,"ADDRESS":"和平街１５４巷５號","OBJECTID":421670},"geometry":{"x":177455.4299999997,"y":2553347.7500000019}},{"attributes":{"ID":421696,"DIS_CODE":0,"TOWNNAME":"新市區","LI":"新和里","LIN":"48鄰","STREET":"和平街","SECT":" ","MAREA":" ","LANE":"１３８巷","ALLEY":" ","HOUSE_NO":"２號","E_COORD97":177509.34,"N_COORD97":2553367,"ADDRESS":"和平街１３８巷２號","OBJECTID":421671},"geometry":{"x":177509.34000000078,"y":2553367}},{"attributes":{"ID":421697,"DIS_CODE":0,"TOWNNAME":"永康區","LI":"正強里","LIN":"48鄰","STREET":"中正路","SECT":" ","MAREA":" ","LANE":"２５６巷","ALLEY":" ","HOUSE_NO":"１３號之４９","E_COORD97":173256.01000000001,"N_COORD97":2548001.6699999999,"ADDRESS":"中正路２５６巷１３號之４９","OBJECTID":421672},"geometry":{"x":173256.00999999978,"y":2548001.6699999999}},{"attributes":{"ID":421698,"DIS_CODE":0,"TOWNNAME":"永康區","LI":"正強里","LIN":"48鄰","STREET":"中正路","SECT":" ","MAREA":" ","LANE":"２５６巷","ALLEY":" ","HOUSE_NO":"１３號之９","E_COORD97":173254.76000000001,"N_COORD97":2548001.6699999999,"ADDRESS":"中正路２５６巷１３號之９","OBJECTID":421673},"geometry":{"x":173254.76000000071,"y":2548001.6699999999}},{"attributes":{"ID":421699,"DIS_CODE":0,"TOWNNAME":"永康區","LI":"正強里","LIN":"48鄰","STREET":"中正路","SECT":" ","MAREA":" ","LANE":"２５６巷","ALLEY":" ","HOUSE_NO":"１３號之２２","E_COORD97":173256.06,"N_COORD97":2548001.6699999999,"ADDRESS":"中正路２５６巷１３號之２２","OBJECTID":421674},"geometry":{"x":173256.06000000052,"y":2548001.6699999999}},{"attributes":{"ID":421700,"DIS_CODE":0,"TOWNNAME":"永康區","LI":"正強里","LIN":"48鄰","STREET":"中正路","SECT":" ","MAREA":" ","LANE":"２５６巷","ALLEY":" ","HOUSE_NO":"１３號之３","E_COORD97":173254.78,"N_COORD97":2548001.6699999999,"ADDRESS":"中正路２５６巷１３號之３","OBJECTID":421675},"geometry":{"x":173254.77999999933,"y":2548001.6699999999}},{"attributes":{"ID":421701,"DIS_CODE":0,"TOWNNAME":"永康區","LI":"正強里","LIN":"48鄰","STREET":"中正路","SECT":" ","MAREA":" ","LANE":"２５６巷","ALLEY":" ","HOUSE_NO":"１３號之４０","E_COORD97":173255.98000000001,"N_COORD97":2548001.6699999999,"ADDRESS":"中正路２５６巷１３號之４０","OBJECTID":421676},"geometry":{"x":173255.98000000138,"y":2548001.6699999999}},{"attributes":{"ID":421702,"DIS_CODE":0,"TOWNNAME":"永康區","LI":"正強里","LIN":"48鄰","STREET":"中正路","SECT":" ","MAREA":" ","LANE":"２５６巷","ALLEY":" ","HOUSE_NO":"１３號之８","E_COORD97":173254.82999999999,"N_COORD97":2548001.6699999999,"ADDRESS":"中正路２５６巷１３號之８","OBJECTID":421677},"geometry":{"x":173254.83000000101,"y":2548001.6699999999}},{"attributes":{"ID":421703,"DIS_CODE":0,"TOWNNAME":"永康區","LI":"正強里","LIN":"48鄰","STREET":"中正路","SECT":" ","MAREA":" ","LANE":"２５６巷","ALLEY":" ","HOUSE_NO":"１３號之３７","E_COORD97":173256.01000000001,"N_COORD97":2548001.6699999999,"ADDRESS":"中正路２５６巷１３號之３７","OBJECTID":421678},"geometry":{"x":173256.00999999978,"y":2548001.6699999999}},{"attributes":{"ID":421704,"DIS_CODE":0,"TOWNNAME":"永康區","LI":"正強里","LIN":"48鄰","STREET":"中正路","SECT":" ","MAREA":" ","LANE":"２５６巷","ALLEY":" ","HOUSE_NO":"１３號之１７","E_COORD97":173256.01000000001,"N_COORD97":2548001.6699999999,"ADDRESS":"中正路２５６巷１３號之１７","OBJECTID":421679},"geometry":{"x":173256.00999999978,"y":2548001.6699999999}},{"attributes":{"ID":421705,"DIS_CODE":0,"TOWNNAME":"永康區","LI":"正強里","LIN":"48鄰","STREET":"中正路","SECT":" ","MAREA":" ","LANE":"２５６巷","ALLEY":" ","HOUSE_NO":"１３號之１０","E_COORD97":173255.98000000001,"N_COORD97":2548001.6699999999,"ADDRESS":"中正路２５６巷１３號之１０","OBJECTID":421680},"geometry":{"x":173255.98000000138,"y":2548001.6699999999}},{"attributes":{"ID":421706,"DIS_CODE":0,"TOWNNAME":"永康區","LI":"正強里","LIN":"48鄰","STREET":"中正路","SECT":" ","MAREA":" ","LANE":"２５６巷","ALLEY":" ","HOUSE_NO":"１３號之１９","E_COORD97":173256.01000000001,"N_COORD97":2548001.6699999999,"ADDRESS":"中正路２５６巷１３號之１９","OBJECTID":421681},"geometry":{"x":173256.00999999978,"y":2548001.6699999999}},{"attributes":{"ID":421707,"DIS_CODE":0,"TOWNNAME":"永康區","LI":"正強里","LIN":"48鄰","STREET":"中正路","SECT":" ","MAREA":" ","LANE":"２５６巷","ALLEY":" ","HOUSE_NO":"１３號之５２","E_COORD97":173256.06,"N_COORD97":2548001.6699999999,"ADDRESS":"中正路２５６巷１３號之５２","OBJECTID":421682},"geometry":{"x":173256.06000000052,"y":2548001.6699999999}},{"attributes":{"ID":421708,"DIS_CODE":0,"TOWNNAME":"永康區","LI":"正強里","LIN":"48鄰","STREET":"中正路","SECT":" ","MAREA":" ","LANE":"２５６巷","ALLEY":" ","HOUSE_NO":"１３號之３５","E_COORD97":173256.07999999999,"N_COORD97":2548001.6699999999,"ADDRESS":"中正路２５６巷１３號之３５","OBJECTID":421683},"geometry":{"x":173256.08000000194,"y":2548001.6699999999}},{"attributes":{"ID":421709,"DIS_CODE":0,"TOWNNAME":"永康區","LI":"正強里","LIN":"48鄰","STREET":"中正路","SECT":" ","MAREA":" ","LANE":"２５６巷","ALLEY":" ","HOUSE_NO":"１３號之４３","E_COORD97":173256.03,"N_COORD97":2548001.6699999999,"ADDRESS":"中正路２５６巷１３號之４３","OBJECTID":421684},"geometry":{"x":173256.03000000026,"y":2548001.6699999999}},{"attributes":{"ID":421710,"DIS_CODE":0,"TOWNNAME":"永康區","LI":"正強里","LIN":"48鄰","STREET":"中正路","SECT":" ","MAREA":" ","LANE":"２５６巷","ALLEY":" ","HOUSE_NO":"１３號之５５","E_COORD97":173256.07999999999,"N_COORD97":2548001.6699999999,"ADDRESS":"中正路２５６巷１３號之５５","OBJECTID":421685},"geometry":{"x":173256.08000000194,"y":2548001.6699999999}},{"attributes":{"ID":421711,"DIS_CODE":0,"TOWNNAME":"永康區","LI":"正強里","LIN":"48鄰","STREET":"中正路","SECT":" ","MAREA":" ","LANE":"２５６巷","ALLEY":" ","HOUSE_NO":"１３號之４７","E_COORD97":173256.01000000001,"N_COORD97":2548001.6699999999,"ADDRESS":"中正路２５６巷１３號之４７","OBJECTID":421686},"geometry":{"x":173256.00999999978,"y":2548001.6699999999}},{"attributes":{"ID":421712,"DIS_CODE":0,"TOWNNAME":"永康區","LI":"正強里","LIN":"48鄰","STREET":"中正路","SECT":" ","MAREA":" ","LANE":"２５６巷","ALLEY":" ","HOUSE_NO":"１３號之２７","E_COORD97":173256.01000000001,"N_COORD97":2548001.6699999999,"ADDRESS":"中正路２５６巷１３號之２７","OBJECTID":421687},"geometry":{"x":173256.00999999978,"y":2548001.6699999999}},{"attributes":{"ID":421713,"DIS_CODE":0,"TOWNNAME":"永康區","LI":"正強里","LIN":"48鄰","STREET":"中正路","SECT":" ","MAREA":" ","LANE":"２５６巷","ALLEY":" ","HOUSE_NO":"１３號之３９","E_COORD97":173256.01000000001,"N_COORD97":2548001.6699999999,"ADDRESS":"中正路２５６巷１３號之３９","OBJECTID":421688},"geometry":{"x":173256.00999999978,"y":2548001.6699999999}},{"attributes":{"ID":421714,"DIS_CODE":0,"TOWNNAME":"永康區","LI":"正強里","LIN":"48鄰","STREET":"中正路","SECT":" ","MAREA":" ","LANE":"２５６巷","ALLEY":" ","HOUSE_NO":"１３號之３６","E_COORD97":173256.03,"N_COORD97":2548001.6699999999,"ADDRESS":"中正路２５６巷１３號之３６","OBJECTID":421689},"geometry":{"x":173256.03000000026,"y":2548001.6699999999}},{"attributes":{"ID":421715,"DIS_CODE":0,"TOWNNAME":"永康區","LI":"正強里","LIN":"48鄰","STREET":"中正路","SECT":" ","MAREA":" ","LANE":"２５６巷","ALLEY":" ","HOUSE_NO":"１３號之１４","E_COORD97":173255.95000000001,"N_COORD97":2548001.6699999999,"ADDRESS":"中正路２５６巷１３號之１４","OBJECTID":421690},"geometry":{"x":173255.95000000112,"y":2548001.6699999999}},{"attributes":{"ID":421716,"DIS_CODE":0,"TOWNNAME":"永康區","LI":"正強里","LIN":"48鄰","STREET":"中正路","SECT":" ","MAREA":" ","LANE":"２５６巷","ALLEY":" ","HOUSE_NO":"１３號之５６","E_COORD97":173256.03,"N_COORD97":2548001.6699999999,"ADDRESS":"中正路２５６巷１３號之５６","OBJECTID":421691},"geometry":{"x":173256.03000000026,"y":2548001.6699999999}},{"attributes":{"ID":421717,"DIS_CODE":0,"TOWNNAME":"永康區","LI":"正強里","LIN":"48鄰","STREET":"中正路","SECT":" ","MAREA":" ","LANE":"２５６巷","ALLEY":" ","HOUSE_NO":"１３號之５４","E_COORD97":173255.95000000001,"N_COORD97":2548001.6699999999,"ADDRESS":"中正路２５６巷１３號之５４","OBJECTID":421692},"geometry":{"x":173255.95000000112,"y":2548001.6699999999}},{"attributes":{"ID":421718,"DIS_CODE":0,"TOWNNAME":"永康區","LI":"正強里","LIN":"48鄰","STREET":"中正路","SECT":" ","MAREA":" ","LANE":"２５６巷","ALLEY":" ","HOUSE_NO":"１３號之１２","E_COORD97":173256.06,"N_COORD97":2548001.6699999999,"ADDRESS":"中正路２５６巷１３號之１２","OBJECTID":421693},"geometry":{"x":173256.06000000052,"y":2548001.6699999999}},{"attributes":{"ID":421719,"DIS_CODE":0,"TOWNNAME":"永康區","LI":"正強里","LIN":"48鄰","STREET":"中正路","SECT":" ","MAREA":" ","LANE":"２５６巷","ALLEY":" ","HOUSE_NO":"１３號之７","E_COORD97":173254.76000000001,"N_COORD97":2548001.6699999999,"ADDRESS":"中正路２５６巷１３號之７","OBJECTID":421694},"geometry":{"x":173254.76000000071,"y":2548001.6699999999}},{"attributes":{"ID":421720,"DIS_CODE":0,"TOWNNAME":"永康區","LI":"正強里","LIN":"48鄰","STREET":"中正路","SECT":" ","MAREA":" ","LANE":"２５６巷","ALLEY":" ","HOUSE_NO":"１３號之５０","E_COORD97":173255.98000000001,"N_COORD97":2548001.6699999999,"ADDRESS":"中正路２５６巷１３號之５０","OBJECTID":421695},"geometry":{"x":173255.98000000138,"y":2548001.6699999999}},{"attributes":{"ID":421721,"DIS_CODE":0,"TOWNNAME":"永康區","LI":"正強里","LIN":"48鄰","STREET":"中正路","SECT":" ","MAREA":" ","LANE":"２５６巷","ALLEY":" ","HOUSE_NO":"１３號之４４","E_COORD97":173255.95000000001,"N_COORD97":2548001.6699999999,"ADDRESS":"中正路２５６巷１３號之４４","OBJECTID":421696},"geometry":{"x":173255.95000000112,"y":2548001.6699999999}},{"attributes":{"ID":421722,"DIS_CODE":0,"TOWNNAME":"永康區","LI":"正強里","LIN":"48鄰","STREET":"中正路","SECT":" ","MAREA":" ","LANE":"２５６巷","ALLEY":" ","HOUSE_NO":"１３號之５８","E_COORD97":173256.07999999999,"N_COORD97":2548001.6699999999,"ADDRESS":"中正路２５６巷１３號之５８","OBJECTID":421697},"geometry":{"x":173256.08000000194,"y":2548001.6699999999}},{"attributes":{"ID":421723,"DIS_CODE":0,"TOWNNAME":"永康區","LI":"正強里","LIN":"48鄰","STREET":"中正路","SECT":" ","MAREA":" ","LANE":"２５６巷","ALLEY":" ","HOUSE_NO":"１３號之５１","E_COORD97":173255.92999999999,"N_COORD97":2548001.6699999999,"ADDRESS":"中正路２５６巷１３號之５１","OBJECTID":421698},"geometry":{"x":173255.9299999997,"y":2548001.6699999999}},{"attributes":{"ID":421724,"DIS_CODE":0,"TOWNNAME":"佳里區","LI":"安西里","LIN":"48鄰","STREET":"育善街","SECT":" ","MAREA":" ","LANE":"９７巷","ALLEY":" ","HOUSE_NO":"２７號","E_COORD97":164890.95000000001,"N_COORD97":2562252.46,"ADDRESS":"育善街９７巷２７號","OBJECTID":421699},"geometry":{"x":164890.95000000019,"y":2562252.4600000028}},{"attributes":{"ID":421725,"DIS_CODE":0,"TOWNNAME":"永康區","LI":"正強里","LIN":"48鄰","STREET":"中正路","SECT":" ","MAREA":" ","LANE":"２５６巷","ALLEY":" ","HOUSE_NO":"１３號之２９","E_COORD97":173256.01000000001,"N_COORD97":2548001.6699999999,"ADDRESS":"中正路２５６巷１３號之２９","OBJECTID":421700},"geometry":{"x":173256.00999999978,"y":2548001.6699999999}},{"attributes":{"ID":421726,"DIS_CODE":0,"TOWNNAME":"永康區","LI":"正強里","LIN":"48鄰","STREET":"中正路","SECT":" ","MAREA":" ","LANE":"２５６巷","ALLEY":" ","HOUSE_NO":"１３號之４８","E_COORD97":173256.07999999999,"N_COORD97":2548001.6699999999,"ADDRESS":"中正路２５６巷１３號之４８","OBJECTID":421701},"geometry":{"x":173256.08000000194,"y":2548001.6699999999}},{"attributes":{"ID":421727,"DIS_CODE":0,"TOWNNAME":"永康區","LI":"正強里","LIN":"48鄰","STREET":"中正路","SECT":" ","MAREA":" ","LANE":"２５６巷","ALLEY":" ","HOUSE_NO":"１３號之１","E_COORD97":173254.67999999999,"N_COORD97":2548001.6699999999,"ADDRESS":"中正路２５６巷１３號之１","OBJECTID":421702},"geometry":{"x":173254.6799999997,"y":2548001.6699999999}},{"attributes":{"ID":421728,"DIS_CODE":0,"TOWNNAME":"永康區","LI":"正強里","LIN":"48鄰","STREET":"中正路","SECT":" ","MAREA":" ","LANE":"２５６巷","ALLEY":" ","HOUSE_NO":"１３號之３１","E_COORD97":173255.92999999999,"N_COORD97":2548001.6699999999,"ADDRESS":"中正路２５６巷１３號之３１","OBJECTID":421703},"geometry":{"x":173255.9299999997,"y":2548001.6699999999}},{"attributes":{"ID":421729,"DIS_CODE":0,"TOWNNAME":"永康區","LI":"正強里","LIN":"48鄰","STREET":"中正路","SECT":" ","MAREA":" ","LANE":"２５６巷","ALLEY":" ","HOUSE_NO":"１３號之２","E_COORD97":173254.81,"N_COORD97":2548001.6699999999,"ADDRESS":"中正路２５６巷１３號之２","OBJECTID":421704},"geometry":{"x":173254.80999999959,"y":2548001.6699999999}},{"attributes":{"ID":421730,"DIS_CODE":0,"TOWNNAME":"永康區","LI":"正強里","LIN":"48鄰","STREET":"中正路","SECT":" ","MAREA":" ","LANE":"２５６巷","ALLEY":" ","HOUSE_NO":"１３號之１５","E_COORD97":173256.07999999999,"N_COORD97":2548001.6699999999,"ADDRESS":"中正路２５６巷１３號之１５","OBJECTID":421705},"geometry":{"x":173256.08000000194,"y":2548001.6699999999}},{"attributes":{"ID":421731,"DIS_CODE":0,"TOWNNAME":"永康區","LI":"正強里","LIN":"48鄰","STREET":"中正路","SECT":" ","MAREA":" ","LANE":"２５６巷","ALLEY":" ","HOUSE_NO":"１３號之１１","E_COORD97":173255.92999999999,"N_COORD97":2548001.6699999999,"ADDRESS":"中正路２５６巷１３號之１１","OBJECTID":421706},"geometry":{"x":173255.9299999997,"y":2548001.6699999999}},{"attributes":{"ID":421732,"DIS_CODE":0,"TOWNNAME":"永康區","LI":"正強里","LIN":"48鄰","STREET":"中正路","SECT":" ","MAREA":" ","LANE":"２５６巷","ALLEY":" ","HOUSE_NO":"１３號之３２","E_COORD97":173256.06,"N_COORD97":2548001.6699999999,"ADDRESS":"中正路２５６巷１３號之３２","OBJECTID":421707},"geometry":{"x":173256.06000000052,"y":2548001.6699999999}},{"attributes":{"ID":421733,"DIS_CODE":0,"TOWNNAME":"永康區","LI":"正強里","LIN":"48鄰","STREET":"中正路","SECT":" ","MAREA":" ","LANE":"２５６巷","ALLEY":" ","HOUSE_NO":"１３號之２０","E_COORD97":173255.98000000001,"N_COORD97":2548001.6699999999,"ADDRESS":"中正路２５６巷１３號之２０","OBJECTID":421708},"geometry":{"x":173255.98000000138,"y":2548001.6699999999}},{"attributes":{"ID":421734,"DIS_CODE":0,"TOWNNAME":"新市區","LI":"新和里","LIN":"48鄰","STREET":"和平街","SECT":" ","MAREA":" ","LANE":"１３８巷","ALLEY":" ","HOUSE_NO":"２９號","E_COORD97":177456.73000000001,"N_COORD97":2553414,"ADDRESS":"和平街１３８巷２９號","OBJECTID":421709},"geometry":{"x":177456.73000000138,"y":2553414}},{"attributes":{"ID":421735,"DIS_CODE":0,"TOWNNAME":"新市區","LI":"新和里","LIN":"48鄰","STREET":"和平街","SECT":" ","MAREA":" ","LANE":"１３８巷","ALLEY":" ","HOUSE_NO":"３號","E_COORD97":177493.26000000001,"N_COORD97":2553366.25,"ADDRESS":"和平街１３８巷３號","OBJECTID":421710},"geometry":{"x":177493.26000000071,"y":2553366.2499999981}},{"attributes":{"ID":421736,"DIS_CODE":0,"TOWNNAME":"新市區","LI":"新和里","LIN":"48鄰","STREET":"和平街","SECT":" ","MAREA":" ","LANE":"１３８巷","ALLEY":" ","HOUSE_NO":"１１號","E_COORD97":177484.17000000001,"N_COORD97":2553380.25,"ADDRESS":"和平街１３８巷１１號","OBJECTID":421711},"geometry":{"x":177484.16999999993,"y":2553380.2500000037}},{"attributes":{"ID":421737,"DIS_CODE":0,"TOWNNAME":"新市區","LI":"新和里","LIN":"48鄰","STREET":"和平街","SECT":" ","MAREA":" ","LANE":"１５４巷","ALLEY":" ","HOUSE_NO":"１號","E_COORD97":177462.07000000001,"N_COORD97":2553338,"ADDRESS":"和平街１５４巷１號","OBJECTID":421712},"geometry":{"x":177462.07000000216,"y":2553338.0000000019}},{"attributes":{"ID":421738,"DIS_CODE":0,"TOWNNAME":"永康區","LI":"正強里","LIN":"48鄰","STREET":"中正路","SECT":" ","MAREA":" ","LANE":"２５６巷","ALLEY":" ","HOUSE_NO":"１３號之４１","E_COORD97":173255.92999999999,"N_COORD97":2548001.6699999999,"ADDRESS":"中正路２５６巷１３號之４１","OBJECTID":421713},"geometry":{"x":173255.9299999997,"y":2548001.6699999999}},{"attributes":{"ID":421739,"DIS_CODE":0,"TOWNNAME":"永康區","LI":"崑山里","LIN":"48鄰","STREET":"永華路","SECT":" ","MAREA":" ","LANE":"３２巷","ALLEY":" ","HOUSE_NO":"３號","E_COORD97":174096.03,"N_COORD97":2545220.8900000001,"ADDRESS":"永華路３２巷３號","OBJECTID":421714},"geometry":{"x":174096.03000000119,"y":2545220.8900000006}},{"attributes":{"ID":421740,"DIS_CODE":0,"TOWNNAME":"新市區","LI":"新和里","LIN":"48鄰","STREET":"和平街","SECT":" ","MAREA":" ","LANE":"７６巷","ALLEY":" ","HOUSE_NO":"５號","E_COORD97":177580.89999999999,"N_COORD97":2553435.25,"ADDRESS":"和平街７６巷５號","OBJECTID":421715},"geometry":{"x":177580.9000000013,"y":2553435.2500000019}},{"attributes":{"ID":421741,"DIS_CODE":0,"TOWNNAME":"新市區","LI":"新和里","LIN":"48鄰","STREET":"和平街","SECT":" ","MAREA":" ","LANE":"６２巷","ALLEY":" ","HOUSE_NO":"３號","E_COORD97":177607.07000000001,"N_COORD97":2553460,"ADDRESS":"和平街６２巷３號","OBJECTID":421716},"geometry":{"x":177607.0700000003,"y":2553460.0000000019}},{"attributes":{"ID":421742,"DIS_CODE":0,"TOWNNAME":"新市區","LI":"新和里","LIN":"48鄰","STREET":"和平街","SECT":" ","MAREA":" ","LANE":"７６巷","ALLEY":" ","HOUSE_NO":"１號","E_COORD97":177585.39999999999,"N_COORD97":2553427.25,"ADDRESS":"和平街７６巷１號","OBJECTID":421717},"geometry":{"x":177585.40000000224,"y":2553427.2499999981}},{"attributes":{"ID":421743,"DIS_CODE":0,"TOWNNAME":"新市區","LI":"新和里","LIN":"48鄰","STREET":"和平街","SECT":" ","MAREA":" ","LANE":"７６巷","ALLEY":" ","HOUSE_NO":"６號","E_COORD97":177595.73000000001,"N_COORD97":2553450.5,"ADDRESS":"和平街７６巷６號","OBJECTID":421718},"geometry":{"x":177595.73000000138,"y":2553450.5000000019}},{"attributes":{"ID":421744,"DIS_CODE":0,"TOWNNAME":"永康區","LI":"正強里","LIN":"48鄰","STREET":"中正路","SECT":" ","MAREA":" ","LANE":"２５６巷","ALLEY":" ","HOUSE_NO":"１３號之２８","E_COORD97":173256.07999999999,"N_COORD97":2548001.6699999999,"ADDRESS":"中正路２５６巷１３號之２８","OBJECTID":421719},"geometry":{"x":173256.08000000194,"y":2548001.6699999999}},{"attributes":{"ID":421745,"DIS_CODE":0,"TOWNNAME":"新市區","LI":"新和里","LIN":"48鄰","STREET":"和平街","SECT":" ","MAREA":" ","LANE":"１３８巷","ALLEY":" ","HOUSE_NO":"５號","E_COORD97":177490.70999999999,"N_COORD97":2553369.75,"ADDRESS":"和平街１３８巷５號","OBJECTID":421720},"geometry":{"x":177490.70999999996,"y":2553369.7500000037}},{"attributes":{"ID":421746,"DIS_CODE":0,"TOWNNAME":"新市區","LI":"新和里","LIN":"48鄰","STREET":"富林路","SECT":" ","MAREA":" ","LANE":" ","ALLEY":" ","HOUSE_NO":"２６２號","E_COORD97":177415.78,"N_COORD97":2553447.25,"ADDRESS":"富林路２６２號","OBJECTID":421721},"geometry":{"x":177415.78000000026,"y":2553447.25}},{"attributes":{"ID":421747,"DIS_CODE":0,"TOWNNAME":"新市區","LI":"新和里","LIN":"48鄰","STREET":"和平街","SECT":" ","MAREA":" ","LANE":"１３８巷","ALLEY":" ","HOUSE_NO":"３３號","E_COORD97":177450.51000000001,"N_COORD97":2553425.5,"ADDRESS":"和平街１３８巷３３號","OBJECTID":421722},"geometry":{"x":177450.51000000071,"y":2553425.4999999981}},{"attributes":{"ID":421748,"DIS_CODE":0,"TOWNNAME":"新市區","LI":"新和里","LIN":"48鄰","STREET":"和平街","SECT":" ","MAREA":" ","LANE":"１０６巷","ALLEY":" ","HOUSE_NO":"１號","E_COORD97":177546.06,"N_COORD97":2553395.7400000002,"ADDRESS":"和平街１０６巷１號","OBJECTID":421723},"geometry":{"x":177546.05999999866,"y":2553395.7400000002}},{"attributes":{"ID":421749,"DIS_CODE":0,"TOWNNAME":"佳里區","LI":"安西里","LIN":"48鄰","STREET":"育善街","SECT":" ","MAREA":" ","LANE":"９７巷","ALLEY":" ","HOUSE_NO":"１１號","E_COORD97":164925.16,"N_COORD97":2562252.3199999998,"ADDRESS":"育善街９７巷１１號","OBJECTID":421724},"geometry":{"x":164925.16000000015,"y":2562252.3199999984}},{"attributes":{"ID":421750,"DIS_CODE":0,"TOWNNAME":"佳里區","LI":"安西里","LIN":"48鄰","STREET":"育善街","SECT":" ","MAREA":" ","LANE":"９７巷","ALLEY":" ","HOUSE_NO":"１３號","E_COORD97":164920.88,"N_COORD97":2562252.3900000001,"ADDRESS":"育善街９７巷１３號","OBJECTID":421725},"geometry":{"x":164920.88000000082,"y":2562252.3900000043}},{"attributes":{"ID":421751,"DIS_CODE":0,"TOWNNAME":"佳里區","LI":"安西里","LIN":"48鄰","STREET":"育善街","SECT":" ","MAREA":" ","LANE":"９７巷","ALLEY":" ","HOUSE_NO":"１５號","E_COORD97":164916.60999999999,"N_COORD97":2562252.4500000002,"ADDRESS":"育善街９７巷１５號","OBJECTID":421726},"geometry":{"x":164916.61000000127,"y":2562252.4499999993}},{"attributes":{"ID":421752,"DIS_CODE":0,"TOWNNAME":"佳里區","LI":"安西里","LIN":"48鄰","STREET":"育善街","SECT":" ","MAREA":" ","LANE":"９７巷","ALLEY":" ","HOUSE_NO":"１７號","E_COORD97":164912.03,"N_COORD97":2562252.5,"ADDRESS":"育善街９７巷１７號","OBJECTID":421727},"geometry":{"x":164912.03000000026,"y":2562252.5000000019}},{"attributes":{"ID":421753,"DIS_CODE":0,"TOWNNAME":"佳里區","LI":"安西里","LIN":"48鄰","STREET":"育善街","SECT":" ","MAREA":" ","LANE":"９７巷","ALLEY":" ","HOUSE_NO":"１９號","E_COORD97":164908.10999999999,"N_COORD97":2562252.3100000001,"ADDRESS":"育善街９７巷１９號","OBJECTID":421728},"geometry":{"x":164908.11000000127,"y":2562252.3100000005}},{"attributes":{"ID":421754,"DIS_CODE":0,"TOWNNAME":"佳里區","LI":"安西里","LIN":"48鄰","STREET":"育善街","SECT":" ","MAREA":" ","LANE":"９７巷","ALLEY":" ","HOUSE_NO":"１號","E_COORD97":164946.13,"N_COORD97":2562252.5099999998,"ADDRESS":"育善街９７巷１號","OBJECTID":421729},"geometry":{"x":164946.13000000082,"y":2562252.5099999998}},{"attributes":{"ID":421755,"DIS_CODE":0,"TOWNNAME":"佳里區","LI":"安西里","LIN":"48鄰","STREET":"育善街","SECT":" ","MAREA":" ","LANE":"９７巷","ALLEY":" ","HOUSE_NO":"２１號","E_COORD97":164903.82000000001,"N_COORD97":2562252.3500000001,"ADDRESS":"育善街９７巷２１號","OBJECTID":421730},"geometry":{"x":164903.8200000003,"y":2562252.3500000015}},{"attributes":{"ID":421756,"DIS_CODE":0,"TOWNNAME":"佳里區","LI":"安西里","LIN":"48鄰","STREET":"育善街","SECT":" ","MAREA":" ","LANE":"９７巷","ALLEY":" ","HOUSE_NO":"２３號","E_COORD97":164899.53,"N_COORD97":2562252.3900000001,"ADDRESS":"育善街９７巷２３號","OBJECTID":421731},"geometry":{"x":164899.53000000119,"y":2562252.3900000043}},{"attributes":{"ID":421757,"DIS_CODE":0,"TOWNNAME":"佳里區","LI":"安西里","LIN":"48鄰","STREET":"育善街","SECT":" ","MAREA":" ","LANE":"９７巷","ALLEY":" ","HOUSE_NO":"２５號","E_COORD97":164895.23999999999,"N_COORD97":2562252.4199999999,"ADDRESS":"育善街９７巷２５號","OBJECTID":421732},"geometry":{"x":164895.24000000115,"y":2562252.4200000018}},{"attributes":{"ID":421758,"DIS_CODE":0,"TOWNNAME":"新營區","LI":"土庫里","LIN":"1鄰","STREET":" ","SECT":" ","MAREA":"土庫","LANE":" ","ALLEY":" ","HOUSE_NO":"１號之１０","E_COORD97":182962.00692099999,"N_COORD97":2579932.1636100002,"ADDRESS":"土庫１號之１０","OBJECTID":421733},"geometry":{"x":182962.00692099985,"y":2579932.1636070013}},{"attributes":{"ID":421759,"DIS_CODE":0,"TOWNNAME":"佳里區","LI":"安西里","LIN":"48鄰","STREET":"育善街","SECT":" ","MAREA":" ","LANE":"９７巷","ALLEY":" ","HOUSE_NO":"３號","E_COORD97":164941.60999999999,"N_COORD97":2562252.0699999998,"ADDRESS":"育善街９７巷３號","OBJECTID":421734},"geometry":{"x":164941.61000000127,"y":2562252.0700000022}},{"attributes":{"ID":421760,"DIS_CODE":0,"TOWNNAME":"佳里區","LI":"安西里","LIN":"48鄰","STREET":"育善街","SECT":" ","MAREA":" ","LANE":"９７巷","ALLEY":" ","HOUSE_NO":"５號","E_COORD97":164937.54000000001,"N_COORD97":2562252.1099999999,"ADDRESS":"育善街９７巷５號","OBJECTID":421735},"geometry":{"x":164937.54000000004,"y":2562252.1099999994}},{"attributes":{"ID":421761,"DIS_CODE":0,"TOWNNAME":"佳里區","LI":"安西里","LIN":"48鄰","STREET":"育善街","SECT":" ","MAREA":" ","LANE":"９７巷","ALLEY":" ","HOUSE_NO":"７號","E_COORD97":164933.70999999999,"N_COORD97":2562252.1899999999,"ADDRESS":"育善街９７巷７號","OBJECTID":421736},"geometry":{"x":164933.71000000089,"y":2562252.1899999995}},{"attributes":{"ID":421762,"DIS_CODE":0,"TOWNNAME":"佳里區","LI":"安西里","LIN":"48鄰","STREET":"育善街","SECT":" ","MAREA":" ","LANE":"９７巷","ALLEY":" ","HOUSE_NO":"９號","E_COORD97":164929.42999999999,"N_COORD97":2562252.2599999998,"ADDRESS":"育善街９７巷９號","OBJECTID":421737},"geometry":{"x":164929.4299999997,"y":2562252.2600000035}},{"attributes":{"ID":421763,"DIS_CODE":0,"TOWNNAME":"永康區","LI":"西灣里","LIN":"48鄰","STREET":"永華路","SECT":" ","MAREA":" ","LANE":"２３３巷","ALLEY":" ","HOUSE_NO":"１８號三樓之１","E_COORD97":174000.26999999999,"N_COORD97":2545741.54,"ADDRESS":"永華路２３３巷１８號三樓之１","OBJECTID":421738},"geometry":{"x":174000.27000000048,"y":2545741.5399999991}},{"attributes":{"ID":421764,"DIS_CODE":0,"TOWNNAME":"永康區","LI":"西灣里","LIN":"48鄰","STREET":"永華路","SECT":" ","MAREA":" ","LANE":"２３３巷","ALLEY":" ","HOUSE_NO":"２６號三樓之２","E_COORD97":173990.92000000001,"N_COORD97":2545766.9500000002,"ADDRESS":"永華路２３３巷２６號三樓之２","OBJECTID":421739},"geometry":{"x":173990.92000000179,"y":2545766.9500000011}},{"attributes":{"ID":421765,"DIS_CODE":0,"TOWNNAME":"永康區","LI":"西灣里","LIN":"48鄰","STREET":"永華路","SECT":" ","MAREA":" ","LANE":"２３３巷","ALLEY":" ","HOUSE_NO":"１８號三樓之２","E_COORD97":174000.39999999999,"N_COORD97":2545741.54,"ADDRESS":"永華路２３３巷１８號三樓之２","OBJECTID":421740},"geometry":{"x":174000.4000000013,"y":2545741.5399999991}},{"attributes":{"ID":421766,"DIS_CODE":0,"TOWNNAME":"永康區","LI":"\u25A0行里","LIN":"48鄰","STREET":"新民街","SECT":" ","MAREA":" ","LANE":"４７巷","ALLEY":" ","HOUSE_NO":"１２號九樓之２","E_COORD97":172348.12,"N_COORD97":2548913.3100000001,"ADDRESS":"新民街４７巷１２號九樓之２","OBJECTID":421741},"geometry":{"x":172348.12000000011,"y":2548913.3100000024}},{"attributes":{"ID":421767,"DIS_CODE":0,"TOWNNAME":"永康區","LI":"\u25A0行里","LIN":"48鄰","STREET":"新民街","SECT":" ","MAREA":" ","LANE":"６６巷","ALLEY":" ","HOUSE_NO":"２號九樓之５","E_COORD97":172380.23000000001,"N_COORD97":2548980.0800000001,"ADDRESS":"新民街６６巷２號九樓之５","OBJECTID":421742},"geometry":{"x":172380.23000000045,"y":2548980.0800000001}},{"attributes":{"ID":421768,"DIS_CODE":0,"TOWNNAME":"永康區","LI":"\u25A0行里","LIN":"48鄰","STREET":"新民街","SECT":" ","MAREA":" ","LANE":"６６巷","ALLEY":" ","HOUSE_NO":"６號八樓之１","E_COORD97":172389.66,"N_COORD97":2548982.6400000001,"ADDRESS":"新民街６６巷６號八樓之１","OBJECTID":421743},"geometry":{"x":172389.66000000108,"y":2548982.6400000006}},{"attributes":{"ID":421769,"DIS_CODE":0,"TOWNNAME":"永康區","LI":"\u25A0行里","LIN":"48鄰","STREET":"新民街","SECT":" ","MAREA":" ","LANE":"４７巷","ALLEY":" ","HOUSE_NO":"１２號八樓之７","E_COORD97":172348.09,"N_COORD97":2548913.3100000001,"ADDRESS":"新民街４７巷１２號八樓之７","OBJECTID":421744},"geometry":{"x":172348.08999999985,"y":2548913.3100000024}},{"attributes":{"ID":421770,"DIS_CODE":0,"TOWNNAME":"永康區","LI":"\u25A0行里","LIN":"48鄰","STREET":"新民街","SECT":" ","MAREA":" ","LANE":"６６巷","ALLEY":" ","HOUSE_NO":"２號九樓之２","E_COORD97":172380.32999999999,"N_COORD97":2548980.0800000001,"ADDRESS":"新民街６６巷２號九樓之２","OBJECTID":421745},"geometry":{"x":172380.33000000101,"y":2548980.0800000001}},{"attributes":{"ID":421771,"DIS_CODE":0,"TOWNNAME":"永康區","LI":"\u25A0行里","LIN":"48鄰","STREET":"新民街","SECT":" ","MAREA":" ","LANE":"６６巷","ALLEY":" ","HOUSE_NO":"６號八樓之２","E_COORD97":172389.79000000001,"N_COORD97":2548982.6400000001,"ADDRESS":"新民街６６巷６號八樓之２","OBJECTID":421746},"geometry":{"x":172389.79000000004,"y":2548982.6400000006}},{"attributes":{"ID":421772,"DIS_CODE":0,"TOWNNAME":"永康區","LI":"\u25A0行里","LIN":"48鄰","STREET":"新民街","SECT":" ","MAREA":" ","LANE":"６６巷","ALLEY":" ","HOUSE_NO":"６號四樓之１","E_COORD97":172389.66,"N_COORD97":2548982.6400000001,"ADDRESS":"新民街６６巷６號四樓之１","OBJECTID":421747},"geometry":{"x":172389.66000000108,"y":2548982.6400000006}},{"attributes":{"ID":421773,"DIS_CODE":0,"TOWNNAME":"永康區","LI":"\u25A0行里","LIN":"48鄰","STREET":"新民街","SECT":" ","MAREA":" ","LANE":"６６巷","ALLEY":" ","HOUSE_NO":"６號五樓之３","E_COORD97":172389.76000000001,"N_COORD97":2548982.6400000001,"ADDRESS":"新民街６６巷６號五樓之３","OBJECTID":421748},"geometry":{"x":172389.75999999978,"y":2548982.6400000006}},{"attributes":{"ID":421774,"DIS_CODE":0,"TOWNNAME":"永康區","LI":"\u25A0行里","LIN":"48鄰","STREET":"新民街","SECT":" ","MAREA":" ","LANE":"６６巷","ALLEY":" ","HOUSE_NO":"６號五樓之１","E_COORD97":172389.66,"N_COORD97":2548982.6400000001,"ADDRESS":"新民街６６巷６號五樓之１","OBJECTID":421749},"geometry":{"x":172389.66000000108,"y":2548982.6400000006}},{"attributes":{"ID":421775,"DIS_CODE":0,"TOWNNAME":"永康區","LI":"\u25A0行里","LIN":"48鄰","STREET":"新民街","SECT":" ","MAREA":" ","LANE":"６６巷","ALLEY":" ","HOUSE_NO":"２號三樓之１","E_COORD97":172380.20000000001,"N_COORD97":2548980.0800000001,"ADDRESS":"新民街６６巷２號三樓之１","OBJECTID":421750},"geometry":{"x":172380.20000000019,"y":2548980.0800000001}},{"attributes":{"ID":421776,"DIS_CODE":0,"TOWNNAME":"永康區","LI":"\u25A0行里","LIN":"48鄰","STREET":"新民街","SECT":" ","MAREA":" ","LANE":"６６巷","ALLEY":" ","HOUSE_NO":"６號六樓之２","E_COORD97":172389.79000000001,"N_COORD97":2548982.6400000001,"ADDRESS":"新民街６６巷６號六樓之２","OBJECTID":421751},"geometry":{"x":172389.79000000004,"y":2548982.6400000006}},{"attributes":{"ID":421777,"DIS_CODE":0,"TOWNNAME":"永康區","LI":"\u25A0行里","LIN":"48鄰","STREET":"新民街","SECT":" ","MAREA":" ","LANE":"４７巷","ALLEY":" ","HOUSE_NO":"１２號九樓之１","E_COORD97":172347.98000000001,"N_COORD97":2548913.3100000001,"ADDRESS":"新民街４７巷１２號九樓之１","OBJECTID":421752},"geometry":{"x":172347.98000000045,"y":2548913.3100000024}},{"attributes":{"ID":421778,"DIS_CODE":0,"TOWNNAME":"永康區","LI":"\u25A0行里","LIN":"48鄰","STREET":"新民街","SECT":" ","MAREA":" ","LANE":"６６巷","ALLEY":" ","HOUSE_NO":"２號五樓之２","E_COORD97":172380.32999999999,"N_COORD97":2548980.0800000001,"ADDRESS":"新民街６６巷２號五樓之２","OBJECTID":421753},"geometry":{"x":172380.33000000101,"y":2548980.0800000001}},{"attributes":{"ID":421779,"DIS_CODE":0,"TOWNNAME":"永康區","LI":"\u25A0行里","LIN":"48鄰","STREET":"新民街","SECT":" ","MAREA":" ","LANE":"４７巷","ALLEY":" ","HOUSE_NO":"１２號九樓之５","E_COORD97":172348.01000000001,"N_COORD97":2548913.3100000001,"ADDRESS":"新民街４７巷１２號九樓之５","OBJECTID":421754},"geometry":{"x":172348.01000000071,"y":2548913.3100000024}},{"attributes":{"ID":421780,"DIS_CODE":0,"TOWNNAME":"永康區","LI":"\u25A0行里","LIN":"48鄰","STREET":"新民街","SECT":" ","MAREA":" ","LANE":"６６巷","ALLEY":" ","HOUSE_NO":"２號九樓之３","E_COORD97":172380.29999999999,"N_COORD97":2548980.0800000001,"ADDRESS":"新民街６６巷２號九樓之３","OBJECTID":421755},"geometry":{"x":172380.30000000075,"y":2548980.0800000001}},{"attributes":{"ID":421781,"DIS_CODE":0,"TOWNNAME":"永康區","LI":"\u25A0行里","LIN":"48鄰","STREET":"新民街","SECT":" ","MAREA":" ","LANE":"４７巷","ALLEY":" ","HOUSE_NO":"１２號九樓之３","E_COORD97":172348.07999999999,"N_COORD97":2548913.3100000001,"ADDRESS":"新民街４７巷１２號九樓之３","OBJECTID":421756},"geometry":{"x":172348.08000000101,"y":2548913.3100000024}},{"attributes":{"ID":421782,"DIS_CODE":0,"TOWNNAME":"永康區","LI":"\u25A0行里","LIN":"48鄰","STREET":"新民街","SECT":" ","MAREA":" ","LANE":"４７巷","ALLEY":" ","HOUSE_NO":"１２號八樓之３","E_COORD97":172348.07999999999,"N_COORD97":2548913.3100000001,"ADDRESS":"新民街４７巷１２號八樓之３","OBJECTID":421757},"geometry":{"x":172348.08000000101,"y":2548913.3100000024}},{"attributes":{"ID":421783,"DIS_CODE":0,"TOWNNAME":"永康區","LI":"\u25A0行里","LIN":"48鄰","STREET":"新民街","SECT":" ","MAREA":" ","LANE":"６６巷","ALLEY":" ","HOUSE_NO":"６號八樓之３","E_COORD97":172389.76000000001,"N_COORD97":2548982.6400000001,"ADDRESS":"新民街６６巷６號八樓之３","OBJECTID":421758},"geometry":{"x":172389.75999999978,"y":2548982.6400000006}},{"attributes":{"ID":421784,"DIS_CODE":0,"TOWNNAME":"東區","LI":"東門里","LIN":"14鄰","STREET":"慶東街","SECT":" ","MAREA":" ","LANE":"８７巷","ALLEY":" ","HOUSE_NO":"５號","E_COORD97":169613.39000000001,"N_COORD97":2543219.7400000002,"ADDRESS":"慶東街８７巷５號","OBJECTID":421759},"geometry":{"x":169613.38999999966,"y":2543219.7400000021}},{"attributes":{"ID":421785,"DIS_CODE":0,"TOWNNAME":"永康區","LI":"\u25A0行里","LIN":"48鄰","STREET":"新民街","SECT":" ","MAREA":" ","LANE":"４７巷","ALLEY":" ","HOUSE_NO":"１２號八樓之２","E_COORD97":172348.12,"N_COORD97":2548913.3100000001,"ADDRESS":"新民街４７巷１２號八樓之２","OBJECTID":421760},"geometry":{"x":172348.12000000011,"y":2548913.3100000024}},{"attributes":{"ID":421786,"DIS_CODE":0,"TOWNNAME":"永康區","LI":"西灣里","LIN":"48鄰","STREET":"永華路","SECT":" ","MAREA":" ","LANE":"２３３巷","ALLEY":" ","HOUSE_NO":"２６號四樓之３","E_COORD97":173990.89000000001,"N_COORD97":2545766.9500000002,"ADDRESS":"永華路２３３巷２６號四樓之３","OBJECTID":421761},"geometry":{"x":173990.89000000153,"y":2545766.9500000011}},{"attributes":{"ID":421787,"DIS_CODE":0,"TOWNNAME":"永康區","LI":"西灣里","LIN":"48鄰","STREET":"永華路","SECT":" ","MAREA":" ","LANE":"２３３巷","ALLEY":" ","HOUSE_NO":"２６號五樓之１","E_COORD97":173990.79000000001,"N_COORD97":2545766.9500000002,"ADDRESS":"永華路２３３巷２６號五樓之１","OBJECTID":421762},"geometry":{"x":173990.79000000097,"y":2545766.9500000011}},{"attributes":{"ID":421788,"DIS_CODE":0,"TOWNNAME":"永康區","LI":"西灣里","LIN":"48鄰","STREET":"永華路","SECT":" ","MAREA":" ","LANE":"２３３巷","ALLEY":" ","HOUSE_NO":"２６號七樓之１","E_COORD97":173990.79000000001,"N_COORD97":2545766.9500000002,"ADDRESS":"永華路２３３巷２６號七樓之１","OBJECTID":421763},"geometry":{"x":173990.79000000097,"y":2545766.9500000011}},{"attributes":{"ID":421789,"DIS_CODE":0,"TOWNNAME":"永康區","LI":"西灣里","LIN":"48鄰","STREET":"永華路","SECT":" ","MAREA":" ","LANE":"２３３巷","ALLEY":" ","HOUSE_NO":"１８號五樓之１","E_COORD97":174000.26999999999,"N_COORD97":2545741.54,"ADDRESS":"永華路２３３巷１８號五樓之１","OBJECTID":421764},"geometry":{"x":174000.27000000048,"y":2545741.5399999991}},{"attributes":{"ID":421790,"DIS_CODE":0,"TOWNNAME":"永康區","LI":"西灣里","LIN":"48鄰","STREET":"永華路","SECT":" ","MAREA":" ","LANE":"２３３巷","ALLEY":" ","HOUSE_NO":"２６號四樓之４","E_COORD97":173990.82000000001,"N_COORD97":2545766.9500000002,"ADDRESS":"永華路２３３巷２６號四樓之４","OBJECTID":421765},"geometry":{"x":173990.82000000123,"y":2545766.9500000011}},{"attributes":{"ID":421791,"DIS_CODE":0,"TOWNNAME":"永康區","LI":"西灣里","LIN":"48鄰","STREET":"永華路","SECT":" ","MAREA":" ","LANE":"２３３巷","ALLEY":" ","HOUSE_NO":"１８號二樓之１","E_COORD97":174000.26999999999,"N_COORD97":2545741.54,"ADDRESS":"永華路２３３巷１８號二樓之１","OBJECTID":421766},"geometry":{"x":174000.27000000048,"y":2545741.5399999991}},{"attributes":{"ID":421792,"DIS_CODE":0,"TOWNNAME":"永康區","LI":"西灣里","LIN":"48鄰","STREET":"永華路","SECT":" ","MAREA":" ","LANE":"２３３巷","ALLEY":" ","HOUSE_NO":"１８號四樓之２","E_COORD97":174000.39999999999,"N_COORD97":2545741.54,"ADDRESS":"永華路２３３巷１８號四樓之２","OBJECTID":421767},"geometry":{"x":174000.4000000013,"y":2545741.5399999991}},{"attributes":{"ID":421793,"DIS_CODE":0,"TOWNNAME":"永康區","LI":"西灣里","LIN":"48鄰","STREET":"永華路","SECT":" ","MAREA":" ","LANE":"２３３巷","ALLEY":" ","HOUSE_NO":"２６號五樓之３","E_COORD97":173990.89000000001,"N_COORD97":2545766.9500000002,"ADDRESS":"永華路２３３巷２６號五樓之３","OBJECTID":421768},"geometry":{"x":173990.89000000153,"y":2545766.9500000011}},{"attributes":{"ID":421794,"DIS_CODE":0,"TOWNNAME":"永康區","LI":"西灣里","LIN":"48鄰","STREET":"永華路","SECT":" ","MAREA":" ","LANE":"２３３巷","ALLEY":" ","HOUSE_NO":"２６號三樓之４","E_COORD97":173990.82000000001,"N_COORD97":2545766.9500000002,"ADDRESS":"永華路２３３巷２６號三樓之４","OBJECTID":421769},"geometry":{"x":173990.82000000123,"y":2545766.9500000011}},{"attributes":{"ID":421795,"DIS_CODE":0,"TOWNNAME":"永康區","LI":"西灣里","LIN":"48鄰","STREET":"永華路","SECT":" ","MAREA":" ","LANE":"２３３巷","ALLEY":" ","HOUSE_NO":"２６號九樓之１","E_COORD97":173990.79000000001,"N_COORD97":2545766.9500000002,"ADDRESS":"永華路２３３巷２６號九樓之１","OBJECTID":421770},"geometry":{"x":173990.79000000097,"y":2545766.9500000011}},{"attributes":{"ID":421796,"DIS_CODE":0,"TOWNNAME":"永康區","LI":"西灣里","LIN":"48鄰","STREET":"永華路","SECT":" ","MAREA":" ","LANE":"２３３巷","ALLEY":" ","HOUSE_NO":"２６號六樓之２","E_COORD97":173990.92000000001,"N_COORD97":2545766.9500000002,"ADDRESS":"永華路２３３巷２６號六樓之２","OBJECTID":421771},"geometry":{"x":173990.92000000179,"y":2545766.9500000011}},{"attributes":{"ID":421797,"DIS_CODE":0,"TOWNNAME":"永康區","LI":"西灣里","LIN":"48鄰","STREET":"永華路","SECT":" ","MAREA":" ","LANE":"２３３巷","ALLEY":" ","HOUSE_NO":"２６號三樓之３","E_COORD97":173990.89000000001,"N_COORD97":2545766.9500000002,"ADDRESS":"永華路２３３巷２６號三樓之３","OBJECTID":421772},"geometry":{"x":173990.89000000153,"y":2545766.9500000011}},{"attributes":{"ID":421798,"DIS_CODE":0,"TOWNNAME":"永康區","LI":"西灣里","LIN":"48鄰","STREET":"永華路","SECT":" ","MAREA":" ","LANE":"２３３巷","ALLEY":" ","HOUSE_NO":"１８號五樓之２","E_COORD97":174000.39999999999,"N_COORD97":2545741.54,"ADDRESS":"永華路２３３巷１８號五樓之２","OBJECTID":421773},"geometry":{"x":174000.4000000013,"y":2545741.5399999991}},{"attributes":{"ID":421799,"DIS_CODE":0,"TOWNNAME":"永康區","LI":"西灣里","LIN":"48鄰","STREET":"永華路","SECT":" ","MAREA":" ","LANE":"２３３巷","ALLEY":" ","HOUSE_NO":"１８號四樓之１","E_COORD97":174000.26999999999,"N_COORD97":2545741.54,"ADDRESS":"永華路２３３巷１８號四樓之１","OBJECTID":421774},"geometry":{"x":174000.27000000048,"y":2545741.5399999991}},{"attributes":{"ID":421800,"DIS_CODE":0,"TOWNNAME":"永康區","LI":"西灣里","LIN":"48鄰","STREET":"永華路","SECT":" ","MAREA":" ","LANE":"２３３巷","ALLEY":" ","HOUSE_NO":"２６號六樓之１","E_COORD97":173990.79000000001,"N_COORD97":2545766.9500000002,"ADDRESS":"永華路２３３巷２６號六樓之１","OBJECTID":421775},"geometry":{"x":173990.79000000097,"y":2545766.9500000011}},{"attributes":{"ID":421801,"DIS_CODE":0,"TOWNNAME":"永康區","LI":"西灣里","LIN":"48鄰","STREET":"永華路","SECT":" ","MAREA":" ","LANE":"２３３巷","ALLEY":" ","HOUSE_NO":"２６號五樓之２","E_COORD97":173990.92000000001,"N_COORD97":2545766.9500000002,"ADDRESS":"永華路２３３巷２６號五樓之２","OBJECTID":421776},"geometry":{"x":173990.92000000179,"y":2545766.9500000011}},{"attributes":{"ID":421802,"DIS_CODE":0,"TOWNNAME":"永康區","LI":"\u25A0行里","LIN":"48鄰","STREET":"新民街","SECT":" ","MAREA":" ","LANE":"４７巷","ALLEY":" ","HOUSE_NO":"１２號六樓之１２","E_COORD97":172349.23000000001,"N_COORD97":2548913.3100000001,"ADDRESS":"新民街４７巷１２號六樓之１２","OBJECTID":421777},"geometry":{"x":172349.23000000138,"y":2548913.3100000024}},{"attributes":{"ID":421803,"DIS_CODE":0,"TOWNNAME":"永康區","LI":"\u25A0行里","LIN":"48鄰","STREET":"新民街","SECT":" ","MAREA":" ","LANE":"４７巷","ALLEY":" ","HOUSE_NO":"１２號四樓之２","E_COORD97":172348.12,"N_COORD97":2548913.3100000001,"ADDRESS":"新民街４７巷１２號四樓之２","OBJECTID":421778},"geometry":{"x":172348.12000000011,"y":2548913.3100000024}},{"attributes":{"ID":421804,"DIS_CODE":0,"TOWNNAME":"永康區","LI":"\u25A0行里","LIN":"48鄰","STREET":"新民街","SECT":" ","MAREA":" ","LANE":"４７巷","ALLEY":" ","HOUSE_NO":"１２號七樓之６","E_COORD97":172348.14000000001,"N_COORD97":2548913.3100000001,"ADDRESS":"新民街４７巷１２號七樓之６","OBJECTID":421779},"geometry":{"x":172348.13999999873,"y":2548913.3100000024}},{"attributes":{"ID":421805,"DIS_CODE":0,"TOWNNAME":"永康區","LI":"\u25A0行里","LIN":"48鄰","STREET":"新民街","SECT":" ","MAREA":" ","LANE":"６６巷","ALLEY":" ","HOUSE_NO":"１號八樓之１１","E_COORD97":172365.22,"N_COORD97":2548983.5,"ADDRESS":"新民街６６巷１號八樓之１１","OBJECTID":421780},"geometry":{"x":172365.22000000067,"y":2548983.5}},{"attributes":{"ID":421806,"DIS_CODE":0,"TOWNNAME":"永康區","LI":"\u25A0行里","LIN":"48鄰","STREET":"新民街","SECT":" ","MAREA":" ","LANE":"６６巷","ALLEY":" ","HOUSE_NO":"２號九樓之１","E_COORD97":172380.20000000001,"N_COORD97":2548980.0800000001,"ADDRESS":"新民街６６巷２號九樓之１","OBJECTID":421781},"geometry":{"x":172380.20000000019,"y":2548980.0800000001}},{"attributes":{"ID":421807,"DIS_CODE":0,"TOWNNAME":"永康區","LI":"\u25A0行里","LIN":"48鄰","STREET":"新民街","SECT":" ","MAREA":" ","LANE":"６６巷","ALLEY":" ","HOUSE_NO":"１號七樓之１","E_COORD97":172363.92000000001,"N_COORD97":2548983.5,"ADDRESS":"新民街６６巷１號七樓之１","OBJECTID":421782},"geometry":{"x":172363.92000000086,"y":2548983.5}},{"attributes":{"ID":421808,"DIS_CODE":0,"TOWNNAME":"永康區","LI":"\u25A0行里","LIN":"48鄰","STREET":"新民街","SECT":" ","MAREA":" ","LANE":"４７巷","ALLEY":" ","HOUSE_NO":"１號四樓之１","E_COORD97":172374.16,"N_COORD97":2548932.2999999998,"ADDRESS":"新民街４７巷１號四樓之１","OBJECTID":421783},"geometry":{"x":172374.16000000201,"y":2548932.3000000045}},{"attributes":{"ID":421809,"DIS_CODE":0,"TOWNNAME":"永康區","LI":"\u25A0行里","LIN":"48鄰","STREET":"新民街","SECT":" ","MAREA":" ","LANE":"４７巷","ALLEY":" ","HOUSE_NO":"１號四樓之２","E_COORD97":172374.29999999999,"N_COORD97":2548932.2999999998,"ADDRESS":"新民街４７巷１號四樓之２","OBJECTID":421784},"geometry":{"x":172374.29999999981,"y":2548932.3000000045}},{"attributes":{"ID":421810,"DIS_CODE":0,"TOWNNAME":"永康區","LI":"\u25A0行里","LIN":"48鄰","STREET":"新民街","SECT":" ","MAREA":" ","LANE":"６６巷","ALLEY":" ","HOUSE_NO":"６號四樓之３","E_COORD97":172389.76000000001,"N_COORD97":2548982.6400000001,"ADDRESS":"新民街６６巷６號四樓之３","OBJECTID":421785},"geometry":{"x":172389.75999999978,"y":2548982.6400000006}},{"attributes":{"ID":421811,"DIS_CODE":0,"TOWNNAME":"永康區","LI":"\u25A0行里","LIN":"48鄰","STREET":"新民街","SECT":" ","MAREA":" ","LANE":"６６巷","ALLEY":" ","HOUSE_NO":"６號七樓之２","E_COORD97":172389.79000000001,"N_COORD97":2548982.6400000001,"ADDRESS":"新民街６６巷６號七樓之２","OBJECTID":421786},"geometry":{"x":172389.79000000004,"y":2548982.6400000006}},{"attributes":{"ID":421812,"DIS_CODE":0,"TOWNNAME":"永康區","LI":"\u25A0行里","LIN":"48鄰","STREET":"新民街","SECT":" ","MAREA":" ","LANE":"６６巷","ALLEY":" ","HOUSE_NO":"２號七樓之５","E_COORD97":172380.23000000001,"N_COORD97":2548980.0800000001,"ADDRESS":"新民街６６巷２號七樓之５","OBJECTID":421787},"geometry":{"x":172380.23000000045,"y":2548980.0800000001}},{"attributes":{"ID":421813,"DIS_CODE":0,"TOWNNAME":"永康區","LI":"\u25A0行里","LIN":"48鄰","STREET":"新民街","SECT":" ","MAREA":" ","LANE":"４７巷","ALLEY":" ","HOUSE_NO":"１號六樓之２","E_COORD97":172374.29999999999,"N_COORD97":2548932.2999999998,"ADDRESS":"新民街４７巷１號六樓之２","OBJECTID":421788},"geometry":{"x":172374.29999999981,"y":2548932.3000000045}},{"attributes":{"ID":421814,"DIS_CODE":0,"TOWNNAME":"東區","LI":"東門里","LIN":"14鄰","STREET":"慶東街","SECT":" ","MAREA":" ","LANE":"８７巷","ALLEY":" ","HOUSE_NO":"７號","E_COORD97":169614.51000000001,"N_COORD97":2543228.0699999998,"ADDRESS":"慶東街８７巷７號","OBJECTID":421789},"geometry":{"x":169614.50999999978,"y":2543228.0700000022}},{"attributes":{"ID":421815,"DIS_CODE":0,"TOWNNAME":"永康區","LI":"\u25A0行里","LIN":"48鄰","STREET":"新民街","SECT":" ","MAREA":" ","LANE":"６６巷","ALLEY":" ","HOUSE_NO":"６號九樓之１","E_COORD97":172389.66,"N_COORD97":2548982.6400000001,"ADDRESS":"新民街６６巷６號九樓之１","OBJECTID":421790},"geometry":{"x":172389.66000000108,"y":2548982.6400000006}},{"attributes":{"ID":421816,"DIS_CODE":0,"TOWNNAME":"永康區","LI":"\u25A0行里","LIN":"48鄰","STREET":"新民街","SECT":" ","MAREA":" ","LANE":"６６巷","ALLEY":" ","HOUSE_NO":"２號八樓之５","E_COORD97":172380.23000000001,"N_COORD97":2548980.0800000001,"ADDRESS":"新民街６６巷２號八樓之５","OBJECTID":421791},"geometry":{"x":172380.23000000045,"y":2548980.0800000001}},{"attributes":{"ID":421817,"DIS_CODE":0,"TOWNNAME":"永康區","LI":"\u25A0行里","LIN":"48鄰","STREET":"新民街","SECT":" ","MAREA":" ","LANE":"６６巷","ALLEY":" ","HOUSE_NO":"１號九樓之１１","E_COORD97":172365.22,"N_COORD97":2548983.5,"ADDRESS":"新民街６６巷１號九樓之１１","OBJECTID":421792},"geometry":{"x":172365.22000000067,"y":2548983.5}},{"attributes":{"ID":421818,"DIS_CODE":0,"TOWNNAME":"永康區","LI":"\u25A0行里","LIN":"48鄰","STREET":"新民街","SECT":" ","MAREA":" ","LANE":"６６巷","ALLEY":" ","HOUSE_NO":"１號九樓之５","E_COORD97":172363.94,"N_COORD97":2548983.5,"ADDRESS":"新民街６６巷１號九樓之５","OBJECTID":421793},"geometry":{"x":172363.94000000227,"y":2548983.5}},{"attributes":{"ID":421819,"DIS_CODE":0,"TOWNNAME":"永康區","LI":"\u25A0行里","LIN":"48鄰","STREET":"新民街","SECT":" ","MAREA":" ","LANE":"６６巷","ALLEY":" ","HOUSE_NO":"６號九樓之３","E_COORD97":172389.76000000001,"N_COORD97":2548982.6400000001,"ADDRESS":"新民街６６巷６號九樓之３","OBJECTID":421794},"geometry":{"x":172389.75999999978,"y":2548982.6400000006}},{"attributes":{"ID":421820,"DIS_CODE":0,"TOWNNAME":"永康區","LI":"\u25A0行里","LIN":"48鄰","STREET":"新民街","SECT":" ","MAREA":" ","LANE":"６６巷","ALLEY":" ","HOUSE_NO":"６號五樓之２","E_COORD97":172389.79000000001,"N_COORD97":2548982.6400000001,"ADDRESS":"新民街６６巷６號五樓之２","OBJECTID":421795},"geometry":{"x":172389.79000000004,"y":2548982.6400000006}},{"attributes":{"ID":421821,"DIS_CODE":0,"TOWNNAME":"永康區","LI":"\u25A0行里","LIN":"48鄰","STREET":"新民街","SECT":" ","MAREA":" ","LANE":"６６巷","ALLEY":" ","HOUSE_NO":"２號三樓之２","E_COORD97":172380.32999999999,"N_COORD97":2548980.0800000001,"ADDRESS":"新民街６６巷２號三樓之２","OBJECTID":421796},"geometry":{"x":172380.33000000101,"y":2548980.0800000001}},{"attributes":{"ID":421822,"DIS_CODE":0,"TOWNNAME":"新營區","LI":"土庫里","LIN":"1鄰","STREET":" ","SECT":" ","MAREA":"土庫","LANE":" ","ALLEY":" ","HOUSE_NO":"１號之１１","E_COORD97":182958.40492299999,"N_COORD97":2579933.4336100002,"ADDRESS":"土庫１號之１１","OBJECTID":421797},"geometry":{"x":182958.40492300037,"y":2579933.4336060025}},{"attributes":{"ID":421823,"DIS_CODE":0,"TOWNNAME":"永康區","LI":"\u25A0行里","LIN":"48鄰","STREET":"新民街","SECT":" ","MAREA":" ","LANE":"４７巷","ALLEY":" ","HOUSE_NO":"１２號六樓之２","E_COORD97":172348.12,"N_COORD97":2548913.3100000001,"ADDRESS":"新民街４７巷１２號六樓之２","OBJECTID":421798},"geometry":{"x":172348.12000000011,"y":2548913.3100000024}},{"attributes":{"ID":421824,"DIS_CODE":0,"TOWNNAME":"永康區","LI":"\u25A0行里","LIN":"48鄰","STREET":"新民街","SECT":" ","MAREA":" ","LANE":"６６巷","ALLEY":" ","HOUSE_NO":"２號四樓之３","E_COORD97":172380.29999999999,"N_COORD97":2548980.0800000001,"ADDRESS":"新民街６６巷２號四樓之３","OBJECTID":421799},"geometry":{"x":172380.30000000075,"y":2548980.0800000001}},{"attributes":{"ID":421825,"DIS_CODE":0,"TOWNNAME":"永康區","LI":"\u25A0行里","LIN":"48鄰","STREET":"新民街","SECT":" ","MAREA":" ","LANE":"６６巷","ALLEY":" ","HOUSE_NO":"１號七樓之６","E_COORD97":172364.07000000001,"N_COORD97":2548983.5,"ADDRESS":"新民街６６巷１號七樓之６","OBJECTID":421800},"geometry":{"x":172364.0700000003,"y":2548983.5}}]}