{"displayFieldName":"TOWNNAME","fieldAliases":{"ID":"ID","DIS_CODE":"DIS_CODE","TOWNNAME":"TOWNNAME","LI":"LI","LIN":"LIN","STREET":"STREET","SECT":"SECT","MAREA":"MAREA","LANE":"LANE","ALLEY":"ALLEY","HOUSE_NO":"HOUSE_NO","E_COORD97":"E_COORD97","N_COORD97":"N_COORD97","ADDRESS":"ADDRESS","OBJECTID":"OBJECTID"},"geometryType":"esriGeometryPoint","spatialReference":{"wkid":102443,"latestWkid":3826},"fields":[{"name":"ID","type":"esriFieldTypeDouble","alias":"ID"},{"name":"DIS_CODE","type":"esriFieldTypeInteger","alias":"DIS_CODE"},{"name":"TOWNNAME","type":"esriFieldTypeString","alias":"TOWNNAME","length":8},{"name":"LI","type":"esriFieldTypeString","alias":"LI","length":8},{"name":"LIN","type":"esriFieldTypeString","alias":"LIN","length":12},{"name":"STREET","type":"esriFieldTypeString","alias":"STREET","length":20},{"name":"SECT","type":"esriFieldTypeString","alias":"SECT","length":8},{"name":"MAREA","type":"esriFieldTypeString","alias":"MAREA","length":12},{"name":"LANE","type":"esriFieldTypeString","alias":"LANE","length":10},{"name":"ALLEY","type":"esriFieldTypeString","alias":"ALLEY","length":10},{"name":"HOUSE_NO","type":"esriFieldTypeString","alias":"HOUSE_NO","length":20},{"name":"E_COORD97","type":"esriFieldTypeDouble","alias":"E_COORD97"},{"name":"N_COORD97","type":"esriFieldTypeDouble","alias":"N_COORD97"},{"name":"ADDRESS","type":"esriFieldTypeString","alias":"ADDRESS","length":50},{"name":"OBJECTID","type":"esriFieldTypeOID","alias":"OBJECTID"}],"features":[{"attributes":{"ID":72801,"DIS_CODE":0,"TOWNNAME":"永康區","LI":"西勢里","LIN":"30鄰","STREET":"富強路","SECT":"一段","MAREA":" ","LANE":"２巷","ALLEY":"３１弄","HOUSE_NO":"９號六樓","E_COORD97":175500.78,"N_COORD97":2545936.3799999999,"ADDRESS":"富強路一段２巷３１弄９號六樓","OBJECTID":72801},"geometry":{"x":175500.78000000026,"y":2545936.3800000027}},{"attributes":{"ID":72802,"DIS_CODE":0,"TOWNNAME":"永康區","LI":"西勢里","LIN":"30鄰","STREET":"富強路","SECT":"一段","MAREA":" ","LANE":"２巷","ALLEY":"３１弄","HOUSE_NO":"５號二樓","E_COORD97":175490.13,"N_COORD97":2545927.3799999999,"ADDRESS":"富強路一段２巷３１弄５號二樓","OBJECTID":72802},"geometry":{"x":175490.13000000082,"y":2545927.3800000008}},{"attributes":{"ID":72803,"DIS_CODE":0,"TOWNNAME":"北區","LI":"安民里","LIN":"7鄰","STREET":"海成街","SECT":" ","MAREA":" ","LANE":" ","ALLEY":" ","HOUSE_NO":"５７號","E_COORD97":167839.16,"N_COORD97":2544672.9900000002,"ADDRESS":"海成街５７號","OBJECTID":72803},"geometry":{"x":167839.16000000015,"y":2544672.9900000021}},{"attributes":{"ID":72804,"DIS_CODE":0,"TOWNNAME":"北區","LI":"安民里","LIN":"7鄰","STREET":"海成街","SECT":" ","MAREA":" ","LANE":" ","ALLEY":" ","HOUSE_NO":"６１號","E_COORD97":167824.29999999999,"N_COORD97":2544679.9300000002,"ADDRESS":"海成街６１號","OBJECTID":72804},"geometry":{"x":167824.29999999981,"y":2544679.9300000016}},{"attributes":{"ID":72805,"DIS_CODE":0,"TOWNNAME":"北區","LI":"安民里","LIN":"7鄰","STREET":"海成街","SECT":" ","MAREA":" ","LANE":" ","ALLEY":" ","HOUSE_NO":"６３號","E_COORD97":167817.39999999999,"N_COORD97":2544681.02,"ADDRESS":"海成街６３號","OBJECTID":72805},"geometry":{"x":167817.40000000037,"y":2544681.0199999996}},{"attributes":{"ID":72806,"DIS_CODE":0,"TOWNNAME":"北區","LI":"安民里","LIN":"7鄰","STREET":"海成街","SECT":" ","MAREA":" ","LANE":" ","ALLEY":" ","HOUSE_NO":"６５號","E_COORD97":167812.85000000001,"N_COORD97":2544683.5299999998,"ADDRESS":"海成街６５號","OBJECTID":72806},"geometry":{"x":167812.85000000056,"y":2544683.5299999993}},{"attributes":{"ID":72807,"DIS_CODE":0,"TOWNNAME":"北區","LI":"安民里","LIN":"7鄰","STREET":"海成街","SECT":" ","MAREA":" ","LANE":" ","ALLEY":" ","HOUSE_NO":"６７號","E_COORD97":167807.98999999999,"N_COORD97":2544685.0899999999,"ADDRESS":"海成街６７號","OBJECTID":72807},"geometry":{"x":167807.99000000022,"y":2544685.0900000017}},{"attributes":{"ID":72808,"DIS_CODE":0,"TOWNNAME":"北區","LI":"安民里","LIN":"7鄰","STREET":"海成街","SECT":" ","MAREA":" ","LANE":" ","ALLEY":" ","HOUSE_NO":"６９號","E_COORD97":167802.82000000001,"N_COORD97":2544687.75,"ADDRESS":"海成街６９號","OBJECTID":72808},"geometry":{"x":167802.81999999937,"y":2544687.7500000019}},{"attributes":{"ID":72809,"DIS_CODE":0,"TOWNNAME":"北區","LI":"安民里","LIN":"7鄰","STREET":"海成街","SECT":" ","MAREA":" ","LANE":" ","ALLEY":" ","HOUSE_NO":"７１號","E_COORD97":167796.23000000001,"N_COORD97":2544689.1600000001,"ADDRESS":"海成街７１號","OBJECTID":72809},"geometry":{"x":167796.23000000045,"y":2544689.160000002}},{"attributes":{"ID":72810,"DIS_CODE":0,"TOWNNAME":"北區","LI":"安民里","LIN":"7鄰","STREET":"海成街","SECT":" ","MAREA":" ","LANE":" ","ALLEY":" ","HOUSE_NO":"７９號","E_COORD97":167780.38,"N_COORD97":2544694.6800000002,"ADDRESS":"海成街７９號","OBJECTID":72810},"geometry":{"x":167780.38000000082,"y":2544694.6800000016}},{"attributes":{"ID":72811,"DIS_CODE":0,"TOWNNAME":"麻豆區","LI":"大埕里","LIN":"14鄰","STREET":"新興街","SECT":" ","MAREA":" ","LANE":" ","ALLEY":" ","HOUSE_NO":"１號之３","E_COORD97":172996.5,"N_COORD97":2565175.7599999998,"ADDRESS":"新興街１號之３","OBJECTID":72811},"geometry":{"x":172996.5,"y":2565175.7600000016}},{"attributes":{"ID":72812,"DIS_CODE":0,"TOWNNAME":"永康區","LI":"西勢里","LIN":"30鄰","STREET":"富強路","SECT":"一段","MAREA":" ","LANE":"２巷","ALLEY":"３１弄","HOUSE_NO":"７號三樓","E_COORD97":175497.78,"N_COORD97":2545939.3700000001,"ADDRESS":"富強路一段２巷３１弄７號三樓","OBJECTID":72812},"geometry":{"x":175497.78000000119,"y":2545939.3700000029}},{"attributes":{"ID":72813,"DIS_CODE":0,"TOWNNAME":"佳里區","LI":"佳化里","LIN":"6鄰","STREET":" ","SECT":" ","MAREA":"佳里興","LANE":" ","ALLEY":" ","HOUSE_NO":"５３號之４","E_COORD97":167371.51000000001,"N_COORD97":2565390.3999999999,"ADDRESS":"佳里興５３號之４","OBJECTID":72813},"geometry":{"x":167371.50999999978,"y":2565390.4000000004}},{"attributes":{"ID":72814,"DIS_CODE":0,"TOWNNAME":"佳里區","LI":"佳化里","LIN":"6鄰","STREET":" ","SECT":" ","MAREA":"佳里興","LANE":" ","ALLEY":" ","HOUSE_NO":"５３號之５０","E_COORD97":167378.64000000001,"N_COORD97":2565410.02,"ADDRESS":"佳里興５３號之５０","OBJECTID":72814},"geometry":{"x":167378.6400000006,"y":2565410.0200000033}},{"attributes":{"ID":72815,"DIS_CODE":0,"TOWNNAME":"永康區","LI":"西勢里","LIN":"30鄰","STREET":"富強路","SECT":"一段","MAREA":" ","LANE":"２巷","ALLEY":"３１弄","HOUSE_NO":"１７號二樓","E_COORD97":175525.26999999999,"N_COORD97":2545945.6200000001,"ADDRESS":"富強路一段２巷３１弄１７號二樓","OBJECTID":72815},"geometry":{"x":175525.26999999955,"y":2545945.620000001}},{"attributes":{"ID":72816,"DIS_CODE":0,"TOWNNAME":"佳里區","LI":"佳化里","LIN":"6鄰","STREET":" ","SECT":" ","MAREA":"佳里興","LANE":" ","ALLEY":" ","HOUSE_NO":"５３號之５１","E_COORD97":167382.73000000001,"N_COORD97":2565408.5899999999,"ADDRESS":"佳里興５３號之５１","OBJECTID":72816},"geometry":{"x":167382.73000000045,"y":2565408.5899999999}},{"attributes":{"ID":72817,"DIS_CODE":0,"TOWNNAME":"永康區","LI":"西勢里","LIN":"30鄰","STREET":"富強路","SECT":"一段","MAREA":" ","LANE":"２巷","ALLEY":"３１弄","HOUSE_NO":"５號五樓","E_COORD97":175490.13,"N_COORD97":2545927.3799999999,"ADDRESS":"富強路一段２巷３１弄５號五樓","OBJECTID":72817},"geometry":{"x":175490.13000000082,"y":2545927.3800000008}},{"attributes":{"ID":72818,"DIS_CODE":0,"TOWNNAME":"佳里區","LI":"佳化里","LIN":"6鄰","STREET":" ","SECT":" ","MAREA":"佳里興","LANE":" ","ALLEY":" ","HOUSE_NO":"５３號之５２","E_COORD97":167387.26999999999,"N_COORD97":2565407.54,"ADDRESS":"佳里興５３號之５２","OBJECTID":72818},"geometry":{"x":167387.27000000142,"y":2565407.540000001}},{"attributes":{"ID":72819,"DIS_CODE":0,"TOWNNAME":"佳里區","LI":"佳化里","LIN":"6鄰","STREET":" ","SECT":" ","MAREA":"佳里興","LANE":" ","ALLEY":" ","HOUSE_NO":"５３號之５３","E_COORD97":167391.39999999999,"N_COORD97":2565406.6800000002,"ADDRESS":"佳里興５３號之５３","OBJECTID":72819},"geometry":{"x":167391.40000000037,"y":2565406.6800000016}},{"attributes":{"ID":72820,"DIS_CODE":0,"TOWNNAME":"佳里區","LI":"佳化里","LIN":"6鄰","STREET":" ","SECT":" ","MAREA":"佳里興","LANE":" ","ALLEY":" ","HOUSE_NO":"５３號之５４","E_COORD97":167395.13,"N_COORD97":2565405.5600000001,"ADDRESS":"佳里興５３號之５４","OBJECTID":72820},"geometry":{"x":167395.12999999896,"y":2565405.5600000024}},{"attributes":{"ID":72821,"DIS_CODE":0,"TOWNNAME":"佳里區","LI":"佳化里","LIN":"6鄰","STREET":" ","SECT":" ","MAREA":"佳里興","LANE":" ","ALLEY":" ","HOUSE_NO":"５３號之５","E_COORD97":167370.79000000001,"N_COORD97":2565386.0899999999,"ADDRESS":"佳里興５３號之５","OBJECTID":72821},"geometry":{"x":167370.79000000097,"y":2565386.089999998}},{"attributes":{"ID":72822,"DIS_CODE":0,"TOWNNAME":"佳里區","LI":"佳化里","LIN":"6鄰","STREET":" ","SECT":" ","MAREA":"佳里興","LANE":" ","ALLEY":" ","HOUSE_NO":"５３號之６","E_COORD97":167370.35000000001,"N_COORD97":2565381.7799999998,"ADDRESS":"佳里興５３號之６","OBJECTID":72822},"geometry":{"x":167370.35000000056,"y":2565381.7800000012}},{"attributes":{"ID":72823,"DIS_CODE":0,"TOWNNAME":"永康區","LI":"西勢里","LIN":"30鄰","STREET":"富強路","SECT":"一段","MAREA":" ","LANE":"２巷","ALLEY":"３１弄","HOUSE_NO":"９號三樓","E_COORD97":175500.78,"N_COORD97":2545936.3799999999,"ADDRESS":"富強路一段２巷３１弄９號三樓","OBJECTID":72823},"geometry":{"x":175500.78000000026,"y":2545936.3800000027}},{"attributes":{"ID":72824,"DIS_CODE":0,"TOWNNAME":"永康區","LI":"西勢里","LIN":"30鄰","STREET":"富強路","SECT":"一段","MAREA":" ","LANE":"２巷","ALLEY":"３１弄","HOUSE_NO":"１３號三樓","E_COORD97":175508.13,"N_COORD97":2545930.6299999999,"ADDRESS":"富強路一段２巷３１弄１３號三樓","OBJECTID":72824},"geometry":{"x":175508.12999999989,"y":2545930.629999999}},{"attributes":{"ID":72825,"DIS_CODE":0,"TOWNNAME":"永康區","LI":"西勢里","LIN":"30鄰","STREET":"富強路","SECT":"一段","MAREA":" ","LANE":"２巷","ALLEY":"３１弄","HOUSE_NO":"９號七樓","E_COORD97":175500.78,"N_COORD97":2545936.3799999999,"ADDRESS":"富強路一段２巷３１弄９號七樓","OBJECTID":72825},"geometry":{"x":175500.78000000026,"y":2545936.3800000027}},{"attributes":{"ID":72826,"DIS_CODE":0,"TOWNNAME":"永康區","LI":"西勢里","LIN":"30鄰","STREET":"富強路","SECT":"一段","MAREA":" ","LANE":"２巷","ALLEY":"３１弄","HOUSE_NO":"１５號六樓","E_COORD97":175502.07000000001,"N_COORD97":2545921.2000000002,"ADDRESS":"富強路一段２巷３１弄１５號六樓","OBJECTID":72826},"geometry":{"x":175502.0700000003,"y":2545921.2000000011}},{"attributes":{"ID":72827,"DIS_CODE":0,"TOWNNAME":"永康區","LI":"西勢里","LIN":"30鄰","STREET":"富強路","SECT":"一段","MAREA":" ","LANE":"２巷","ALLEY":"３１弄","HOUSE_NO":"３號六樓","E_COORD97":175484.81,"N_COORD97":2545922.1299999999,"ADDRESS":"富強路一段２巷３１弄３號六樓","OBJECTID":72827},"geometry":{"x":175484.81000000145,"y":2545922.1300000008}},{"attributes":{"ID":72828,"DIS_CODE":0,"TOWNNAME":"永康區","LI":"西勢里","LIN":"30鄰","STREET":"富強路","SECT":"一段","MAREA":" ","LANE":"２巷","ALLEY":"３１弄","HOUSE_NO":"７號六樓","E_COORD97":175497.78,"N_COORD97":2545939.3700000001,"ADDRESS":"富強路一段２巷３１弄７號六樓","OBJECTID":72828},"geometry":{"x":175497.78000000119,"y":2545939.3700000029}},{"attributes":{"ID":72829,"DIS_CODE":0,"TOWNNAME":"永康區","LI":"正強里","LIN":"18鄰","STREET":"自強路","SECT":" ","MAREA":" ","LANE":"１８８巷","ALLEY":"６２弄","HOUSE_NO":"２２號","E_COORD97":173145.66,"N_COORD97":2547274.6400000001,"ADDRESS":"自強路１８８巷６２弄２２號","OBJECTID":72829},"geometry":{"x":173145.66000000108,"y":2547274.6400000006}},{"attributes":{"ID":72830,"DIS_CODE":0,"TOWNNAME":"永康區","LI":"安康里","LIN":"17鄰","STREET":"中華路","SECT":" ","MAREA":" ","LANE":"６１９巷","ALLEY":"２２弄","HOUSE_NO":"３６號","E_COORD97":170961.98000000001,"N_COORD97":2546171.2400000002,"ADDRESS":"中華路６１９巷２２弄３６號","OBJECTID":72830},"geometry":{"x":170961.98000000138,"y":2546171.2400000002}},{"attributes":{"ID":72831,"DIS_CODE":0,"TOWNNAME":"仁德區","LI":"仁德里","LIN":"30鄰","STREET":"淨修街","SECT":" ","MAREA":" ","LANE":"１７５巷","ALLEY":"４９弄","HOUSE_NO":"４號","E_COORD97":172032.10000000001,"N_COORD97":2541199.1800000002,"ADDRESS":"淨修街１７５巷４９弄４號","OBJECTID":72831},"geometry":{"x":172032.10000000056,"y":2541199.1800000016}},{"attributes":{"ID":72832,"DIS_CODE":0,"TOWNNAME":"佳里區","LI":"佳化里","LIN":"6鄰","STREET":" ","SECT":" ","MAREA":"佳里興","LANE":" ","ALLEY":" ","HOUSE_NO":"６１號之４","E_COORD97":167390.89000000001,"N_COORD97":2565254.3399999999,"ADDRESS":"佳里興６１號之４","OBJECTID":72832},"geometry":{"x":167390.88999999966,"y":2565254.3399999999}},{"attributes":{"ID":72833,"DIS_CODE":0,"TOWNNAME":"永康區","LI":"復興里","LIN":"30鄰","STREET":"復興路","SECT":" ","MAREA":" ","LANE":"３５６巷","ALLEY":"８０弄","HOUSE_NO":"１９２號","E_COORD97":172551.92999999999,"N_COORD97":2544610.77,"ADDRESS":"復興路３５６巷８０弄１９２號","OBJECTID":72833},"geometry":{"x":172551.93000000063,"y":2544610.7699999996}},{"attributes":{"ID":72834,"DIS_CODE":0,"TOWNNAME":"善化區","LI":"小新里","LIN":"7鄰","STREET":"成功路","SECT":" ","MAREA":" ","LANE":" ","ALLEY":" ","HOUSE_NO":"１５７號之１二樓","E_COORD97":179754.64000000001,"N_COORD97":2558632.1899999999,"ADDRESS":"成功路１５７號之１二樓","OBJECTID":72834},"geometry":{"x":179754.64000000153,"y":2558632.1900000013}},{"attributes":{"ID":72835,"DIS_CODE":0,"TOWNNAME":"善化區","LI":"小新里","LIN":"7鄰","STREET":"成功路","SECT":" ","MAREA":" ","LANE":" ","ALLEY":" ","HOUSE_NO":"１５７號之１三樓","E_COORD97":179754.64000000001,"N_COORD97":2558632.1899999999,"ADDRESS":"成功路１５７號之１三樓","OBJECTID":72835},"geometry":{"x":179754.64000000153,"y":2558632.1900000013}},{"attributes":{"ID":72836,"DIS_CODE":0,"TOWNNAME":"善化區","LI":"小新里","LIN":"7鄰","STREET":"成功路","SECT":" ","MAREA":" ","LANE":" ","ALLEY":" ","HOUSE_NO":"１５７號之１四樓","E_COORD97":179754.64000000001,"N_COORD97":2558632.1899999999,"ADDRESS":"成功路１５７號之１四樓","OBJECTID":72836},"geometry":{"x":179754.64000000153,"y":2558632.1900000013}},{"attributes":{"ID":72837,"DIS_CODE":0,"TOWNNAME":"佳里區","LI":"佳化里","LIN":"6鄰","STREET":" ","SECT":" ","MAREA":"佳里興","LANE":" ","ALLEY":" ","HOUSE_NO":"５３號之７","E_COORD97":167367.41,"N_COORD97":2565370.4300000002,"ADDRESS":"佳里興５３號之７","OBJECTID":72837},"geometry":{"x":167367.41000000015,"y":2565370.4300000034}},{"attributes":{"ID":72838,"DIS_CODE":0,"TOWNNAME":"佳里區","LI":"佳化里","LIN":"6鄰","STREET":" ","SECT":" ","MAREA":"佳里興","LANE":" ","ALLEY":" ","HOUSE_NO":"５３號之８","E_COORD97":167366.48000000001,"N_COORD97":2565364.98,"ADDRESS":"佳里興５３號之８","OBJECTID":72838},"geometry":{"x":167366.48000000138,"y":2565364.9800000023}},{"attributes":{"ID":72839,"DIS_CODE":0,"TOWNNAME":"善化區","LI":"小新里","LIN":"7鄰","STREET":"成功路","SECT":" ","MAREA":" ","LANE":" ","ALLEY":" ","HOUSE_NO":"１５７號之１五樓","E_COORD97":179754.64000000001,"N_COORD97":2558632.1899999999,"ADDRESS":"成功路１５７號之１五樓","OBJECTID":72839},"geometry":{"x":179754.64000000153,"y":2558632.1900000013}},{"attributes":{"ID":72840,"DIS_CODE":0,"TOWNNAME":"永康區","LI":"復華里","LIN":"7鄰","STREET":"復國二路","SECT":" ","MAREA":" ","LANE":" ","ALLEY":" ","HOUSE_NO":"２１７號五樓之１","E_COORD97":173002.12,"N_COORD97":2546054.54,"ADDRESS":"復國二路２１７號五樓之１","OBJECTID":72840},"geometry":{"x":173002.12000000104,"y":2546054.540000001}},{"attributes":{"ID":72841,"DIS_CODE":0,"TOWNNAME":"永康區","LI":"復華里","LIN":"7鄰","STREET":"復國二路","SECT":" ","MAREA":" ","LANE":" ","ALLEY":" ","HOUSE_NO":"２１７號四樓之２","E_COORD97":173002.25,"N_COORD97":2546054.54,"ADDRESS":"復國二路２１７號四樓之２","OBJECTID":72841},"geometry":{"x":173002.25000000186,"y":2546054.540000001}},{"attributes":{"ID":72842,"DIS_CODE":0,"TOWNNAME":"永康區","LI":"復華里","LIN":"7鄰","STREET":"復國二路","SECT":" ","MAREA":" ","LANE":" ","ALLEY":" ","HOUSE_NO":"２１７號七樓之１","E_COORD97":173002.12,"N_COORD97":2546054.54,"ADDRESS":"復國二路２１７號七樓之１","OBJECTID":72842},"geometry":{"x":173002.12000000104,"y":2546054.540000001}},{"attributes":{"ID":72843,"DIS_CODE":0,"TOWNNAME":"永康區","LI":"復華里","LIN":"7鄰","STREET":"復國二路","SECT":" ","MAREA":" ","LANE":" ","ALLEY":" ","HOUSE_NO":"２１７號九樓之１","E_COORD97":173002.12,"N_COORD97":2546054.54,"ADDRESS":"復國二路２１７號九樓之１","OBJECTID":72843},"geometry":{"x":173002.12000000104,"y":2546054.540000001}},{"attributes":{"ID":72844,"DIS_CODE":0,"TOWNNAME":"永康區","LI":"復興里","LIN":"30鄰","STREET":"復興路","SECT":" ","MAREA":" ","LANE":"３５６巷","ALLEY":"８０弄","HOUSE_NO":"１２１號","E_COORD97":172505.51000000001,"N_COORD97":2544639.27,"ADDRESS":"復興路３５６巷８０弄１２１號","OBJECTID":72844},"geometry":{"x":172505.51000000071,"y":2544639.2700000014}},{"attributes":{"ID":72845,"DIS_CODE":0,"TOWNNAME":"永康區","LI":"復興里","LIN":"30鄰","STREET":"復興路","SECT":" ","MAREA":" ","LANE":"３５６巷","ALLEY":"８０弄","HOUSE_NO":"２０２號","E_COORD97":172572.64999999999,"N_COORD97":2544609.21,"ADDRESS":"復興路３５６巷８０弄２０２號","OBJECTID":72845},"geometry":{"x":172572.65000000224,"y":2544609.2100000009}},{"attributes":{"ID":72846,"DIS_CODE":0,"TOWNNAME":"永康區","LI":"復興里","LIN":"30鄰","STREET":"復興路","SECT":" ","MAREA":" ","LANE":"３５６巷","ALLEY":"８０弄","HOUSE_NO":"１９８號","E_COORD97":172565.37,"N_COORD97":2544614.27,"ADDRESS":"復興路３５６巷８０弄１９８號","OBJECTID":72846},"geometry":{"x":172565.37000000011,"y":2544614.2699999996}},{"attributes":{"ID":72847,"DIS_CODE":0,"TOWNNAME":"永康區","LI":"復興里","LIN":"30鄰","STREET":"復興路","SECT":" ","MAREA":" ","LANE":"３５６巷","ALLEY":"８０弄","HOUSE_NO":"１１７號","E_COORD97":172493.66,"N_COORD97":2544631.77,"ADDRESS":"復興路３５６巷８０弄１１７號","OBJECTID":72847},"geometry":{"x":172493.66000000015,"y":2544631.7699999996}},{"attributes":{"ID":72848,"DIS_CODE":0,"TOWNNAME":"下營區","LI":"西連里","LIN":"6鄰","STREET":" ","SECT":" ","MAREA":"西寮","LANE":" ","ALLEY":" ","HOUSE_NO":"１３號之５","E_COORD97":174577.98000000001,"N_COORD97":2567608.9199999999,"ADDRESS":"西寮１３號之５","OBJECTID":72848},"geometry":{"x":174577.98000000138,"y":2567608.9200000018}},{"attributes":{"ID":72849,"DIS_CODE":0,"TOWNNAME":"永康區","LI":"復興里","LIN":"30鄰","STREET":"復興路","SECT":" ","MAREA":" ","LANE":"３５６巷","ALLEY":"８０弄","HOUSE_NO":"１３３號","E_COORD97":172536.04000000001,"N_COORD97":2544625.27,"ADDRESS":"復興路３５６巷８０弄１３３號","OBJECTID":72849},"geometry":{"x":172536.04000000097,"y":2544625.2699999977}},{"attributes":{"ID":72850,"DIS_CODE":0,"TOWNNAME":"永康區","LI":"復興里","LIN":"30鄰","STREET":"復興路","SECT":" ","MAREA":" ","LANE":"３５６巷","ALLEY":"８０弄","HOUSE_NO":"１２５號之２","E_COORD97":172555.37,"N_COORD97":2544648.7999999998,"ADDRESS":"復興路３５６巷８０弄１２５號之２","OBJECTID":72850},"geometry":{"x":172555.37000000011,"y":2544648.8000000007}},{"attributes":{"ID":72851,"DIS_CODE":0,"TOWNNAME":"仁德區","LI":"大甲里","LIN":" ","STREET":"行大街","SECT":" ","MAREA":" ","LANE":" ","ALLEY":" ","HOUSE_NO":"２２５號","E_COORD97":169884.91,"N_COORD97":2535090.7400000002,"ADDRESS":"行大街２２５號","OBJECTID":72851},"geometry":{"x":169884.91000000015,"y":2535090.7400000021}},{"attributes":{"ID":72852,"DIS_CODE":0,"TOWNNAME":"仁德區","LI":"新田里","LIN":" ","STREET":"中正路","SECT":"二段","MAREA":" ","LANE":" ","ALLEY":" ","HOUSE_NO":"５６９之３號","E_COORD97":173355.04000000001,"N_COORD97":2539771.5299999998,"ADDRESS":"中正路二段５６９之３號","OBJECTID":72852},"geometry":{"x":173355.04000000097,"y":2539771.5299999975}},{"attributes":{"ID":72853,"DIS_CODE":0,"TOWNNAME":"仁德區","LI":"大甲里","LIN":" ","STREET":"行大街","SECT":" ","MAREA":" ","LANE":" ","ALLEY":" ","HOUSE_NO":"３９４號","E_COORD97":169499.57000000001,"N_COORD97":2535261,"ADDRESS":"行大街３９４號","OBJECTID":72853},"geometry":{"x":169499.5700000003,"y":2535261.0000000019}},{"attributes":{"ID":72854,"DIS_CODE":0,"TOWNNAME":"仁德區","LI":"仁義里","LIN":" ","STREET":"義林十二街","SECT":" ","MAREA":" ","LANE":" ","ALLEY":" ","HOUSE_NO":"２９號","E_COORD97":174574.48999999999,"N_COORD97":2541485.0099999998,"ADDRESS":"義林十二街２９號","OBJECTID":72854},"geometry":{"x":174574.49000000115,"y":2541485.0100000016}},{"attributes":{"ID":72855,"DIS_CODE":0,"TOWNNAME":"仁德區","LI":"仁義里","LIN":" ","STREET":"正義二街","SECT":" ","MAREA":" ","LANE":" ","ALLEY":" ","HOUSE_NO":"９０之３號","E_COORD97":173683.51999999999,"N_COORD97":2541570.2999999998,"ADDRESS":"正義二街９０之３號","OBJECTID":72855},"geometry":{"x":173683.52000000048,"y":2541570.3000000007}},{"attributes":{"ID":72856,"DIS_CODE":0,"TOWNNAME":"佳里區","LI":"佳化里","LIN":"6鄰","STREET":" ","SECT":" ","MAREA":"佳里興","LANE":" ","ALLEY":" ","HOUSE_NO":"５３號之９","E_COORD97":167366.34,"N_COORD97":2565359.7999999998,"ADDRESS":"佳里興５３號之９","OBJECTID":72856},"geometry":{"x":167366.33999999985,"y":2565359.8000000026}},{"attributes":{"ID":72857,"DIS_CODE":0,"TOWNNAME":"佳里區","LI":"佳化里","LIN":"6鄰","STREET":" ","SECT":" ","MAREA":"佳里興","LANE":" ","ALLEY":" ","HOUSE_NO":"５３號","E_COORD97":167401.79999999999,"N_COORD97":2565408,"ADDRESS":"佳里興５３號","OBJECTID":72857},"geometry":{"x":167401.79999999981,"y":2565408.0000000019}},{"attributes":{"ID":72858,"DIS_CODE":0,"TOWNNAME":"佳里區","LI":"佳化里","LIN":"6鄰","STREET":" ","SECT":" ","MAREA":"佳里興","LANE":" ","ALLEY":" ","HOUSE_NO":"５４號之１","E_COORD97":167442.81,"N_COORD97":2565396.1899999999,"ADDRESS":"佳里興５４號之１","OBJECTID":72858},"geometry":{"x":167442.81000000145,"y":2565396.1900000013}},{"attributes":{"ID":72859,"DIS_CODE":0,"TOWNNAME":"永康區","LI":"復興里","LIN":"30鄰","STREET":"復興路","SECT":" ","MAREA":" ","LANE":"３５６巷","ALLEY":"８０弄","HOUSE_NO":"１２２號","E_COORD97":172509.54999999999,"N_COORD97":2544580.0800000001,"ADDRESS":"復興路３５６巷８０弄１２２號","OBJECTID":72859},"geometry":{"x":172509.54999999981,"y":2544580.0800000019}},{"attributes":{"ID":72860,"DIS_CODE":0,"TOWNNAME":"永康區","LI":"復興里","LIN":"30鄰","STREET":"復興路","SECT":" ","MAREA":" ","LANE":"３５６巷","ALLEY":"８０弄","HOUSE_NO":"１８６號","E_COORD97":172542.82000000001,"N_COORD97":2544605.27,"ADDRESS":"復興路３５６巷８０弄１８６號","OBJECTID":72860},"geometry":{"x":172542.82000000123,"y":2544605.2700000033}},{"attributes":{"ID":72861,"DIS_CODE":0,"TOWNNAME":"永康區","LI":"復國里","LIN":"30鄰","STREET":"復國一路","SECT":" ","MAREA":" ","LANE":"１７３巷","ALLEY":"６６弄","HOUSE_NO":"８號","E_COORD97":172535.84,"N_COORD97":2545238.52,"ADDRESS":"復國一路１７３巷６６弄８號","OBJECTID":72861},"geometry":{"x":172535.84000000078,"y":2545238.5200000014}},{"attributes":{"ID":72862,"DIS_CODE":0,"TOWNNAME":"永康區","LI":"復國里","LIN":"30鄰","STREET":"復國一路","SECT":" ","MAREA":" ","LANE":"１７３巷","ALLEY":"６６弄","HOUSE_NO":"１５號","E_COORD97":172522.47,"N_COORD97":2545270.6699999999,"ADDRESS":"復國一路１７３巷６６弄１５號","OBJECTID":72862},"geometry":{"x":172522.4700000016,"y":2545270.6700000037}},{"attributes":{"ID":72863,"DIS_CODE":0,"TOWNNAME":"永康區","LI":"復國里","LIN":"30鄰","STREET":"復國一路","SECT":" ","MAREA":" ","LANE":"１７３巷","ALLEY":"３４弄","HOUSE_NO":"２３號","E_COORD97":172650.62,"N_COORD97":2545276.0299999998,"ADDRESS":"復國一路１７３巷３４弄２３號","OBJECTID":72863},"geometry":{"x":172650.62000000197,"y":2545276.0300000012}},{"attributes":{"ID":72864,"DIS_CODE":0,"TOWNNAME":"永康區","LI":"復國里","LIN":"30鄰","STREET":"復國一路","SECT":" ","MAREA":" ","LANE":"１７３巷","ALLEY":"６６弄","HOUSE_NO":"６號","E_COORD97":172535.57999999999,"N_COORD97":2545235.02,"ADDRESS":"復國一路１７３巷６６弄６號","OBJECTID":72864},"geometry":{"x":172535.58000000194,"y":2545235.0200000014}},{"attributes":{"ID":72865,"DIS_CODE":0,"TOWNNAME":"永康區","LI":"復國里","LIN":"30鄰","STREET":"復國一路","SECT":" ","MAREA":" ","LANE":"１７３巷","ALLEY":"６２弄","HOUSE_NO":"１２號","E_COORD97":172554.64000000001,"N_COORD97":2545263.7599999998,"ADDRESS":"復國一路１７３巷６２弄１２號","OBJECTID":72865},"geometry":{"x":172554.63999999966,"y":2545263.7600000016}},{"attributes":{"ID":72866,"DIS_CODE":0,"TOWNNAME":"永康區","LI":"復國里","LIN":"30鄰","STREET":"復國一路","SECT":" ","MAREA":" ","LANE":"１７３巷","ALLEY":"３４弄","HOUSE_NO":"２５號","E_COORD97":172633.04999999999,"N_COORD97":2545279.27,"ADDRESS":"復國一路１７３巷３４弄２５號","OBJECTID":72866},"geometry":{"x":172633.04999999981,"y":2545279.2699999996}},{"attributes":{"ID":72867,"DIS_CODE":0,"TOWNNAME":"永康區","LI":"光復里","LIN":"10鄰","STREET":"復興路","SECT":" ","MAREA":" ","LANE":"３５６巷","ALLEY":"８０弄","HOUSE_NO":"８８號","E_COORD97":172490.59,"N_COORD97":2544572.5299999998,"ADDRESS":"復興路３５６巷８０弄８８號","OBJECTID":72867},"geometry":{"x":172490.58999999985,"y":2544572.5300000031}},{"attributes":{"ID":72868,"DIS_CODE":0,"TOWNNAME":"永康區","LI":"復國里","LIN":"30鄰","STREET":"復國一路","SECT":" ","MAREA":" ","LANE":"１７３巷","ALLEY":"６６弄","HOUSE_NO":"１１號","E_COORD97":172518.76000000001,"N_COORD97":2545261.4100000001,"ADDRESS":"復國一路１７３巷６６弄１１號","OBJECTID":72868},"geometry":{"x":172518.76000000164,"y":2545261.4100000001}},{"attributes":{"ID":72869,"DIS_CODE":0,"TOWNNAME":"永康區","LI":"復國里","LIN":"30鄰","STREET":"復國一路","SECT":" ","MAREA":" ","LANE":"１７３巷","ALLEY":"６６弄","HOUSE_NO":"１８號","E_COORD97":172537.54000000001,"N_COORD97":2545261.02,"ADDRESS":"復國一路１７３巷６６弄１８號","OBJECTID":72869},"geometry":{"x":172537.5400000019,"y":2545261.0200000033}},{"attributes":{"ID":72870,"DIS_CODE":0,"TOWNNAME":"永康區","LI":"復國里","LIN":"30鄰","STREET":"復國一路","SECT":" ","MAREA":" ","LANE":"１７３巷","ALLEY":"６６弄","HOUSE_NO":"１０號","E_COORD97":172537.70000000001,"N_COORD97":2545243.02,"ADDRESS":"復國一路１７３巷６６弄１０號","OBJECTID":72870},"geometry":{"x":172537.70000000019,"y":2545243.0199999996}},{"attributes":{"ID":72871,"DIS_CODE":0,"TOWNNAME":"永康區","LI":"復國里","LIN":"30鄰","STREET":"復國一路","SECT":" ","MAREA":" ","LANE":"１７３巷","ALLEY":"６６弄","HOUSE_NO":"５號","E_COORD97":172516.94,"N_COORD97":2545248.9100000001,"ADDRESS":"復國一路１７３巷６６弄５號","OBJECTID":72871},"geometry":{"x":172516.94000000134,"y":2545248.9100000039}},{"attributes":{"ID":72872,"DIS_CODE":0,"TOWNNAME":"永康區","LI":"復華里","LIN":"7鄰","STREET":"復國二路","SECT":" ","MAREA":" ","LANE":" ","ALLEY":" ","HOUSE_NO":"２１７號六樓之１","E_COORD97":173002.12,"N_COORD97":2546054.54,"ADDRESS":"復國二路２１７號六樓之１","OBJECTID":72872},"geometry":{"x":173002.12000000104,"y":2546054.540000001}},{"attributes":{"ID":72873,"DIS_CODE":0,"TOWNNAME":"仁德區","LI":"新田里","LIN":"7鄰","STREET":"新田路","SECT":" ","MAREA":" ","LANE":" ","ALLEY":" ","HOUSE_NO":"１２號二樓之３","E_COORD97":174467.89000000001,"N_COORD97":2538932.29,"ADDRESS":"新田路１２號二樓之３","OBJECTID":72873},"geometry":{"x":174467.8900000006,"y":2538932.2900000028}},{"attributes":{"ID":72874,"DIS_CODE":0,"TOWNNAME":"仁德區","LI":"新田里","LIN":"7鄰","STREET":"新田路","SECT":" ","MAREA":" ","LANE":" ","ALLEY":" ","HOUSE_NO":"１２號六樓之１","E_COORD97":174467.79000000001,"N_COORD97":2538932.29,"ADDRESS":"新田路１２號六樓之１","OBJECTID":72874},"geometry":{"x":174467.79000000004,"y":2538932.2900000028}},{"attributes":{"ID":72875,"DIS_CODE":0,"TOWNNAME":"永康區","LI":"復國里","LIN":"30鄰","STREET":"復國一路","SECT":" ","MAREA":" ","LANE":"１７３巷","ALLEY":"６６弄","HOUSE_NO":"１２號","E_COORD97":172536.5,"N_COORD97":2545247.77,"ADDRESS":"復國一路１７３巷６６弄１２號","OBJECTID":72875},"geometry":{"x":172536.50000000093,"y":2545247.7699999996}},{"attributes":{"ID":72876,"DIS_CODE":0,"TOWNNAME":"永康區","LI":"復國里","LIN":"30鄰","STREET":"復國一路","SECT":" ","MAREA":" ","LANE":"１７３巷","ALLEY":"６２弄","HOUSE_NO":"８號之３","E_COORD97":172596.59,"N_COORD97":2545257.77,"ADDRESS":"復國一路１７３巷６２弄８號之３","OBJECTID":72876},"geometry":{"x":172596.59000000078,"y":2545257.7699999996}},{"attributes":{"ID":72877,"DIS_CODE":0,"TOWNNAME":"永康區","LI":"大灣里","LIN":"30鄰","STREET":"民族路","SECT":" ","MAREA":" ","LANE":"１２６巷","ALLEY":"１０弄","HOUSE_NO":"１３號","E_COORD97":175368.45999999999,"N_COORD97":2544862.54,"ADDRESS":"民族路１２６巷１０弄１３號","OBJECTID":72877},"geometry":{"x":175368.45999999996,"y":2544862.5399999991}},{"attributes":{"ID":72878,"DIS_CODE":0,"TOWNNAME":"永康區","LI":"大灣里","LIN":"30鄰","STREET":"民族路","SECT":" ","MAREA":" ","LANE":"１２６巷","ALLEY":"１０弄","HOUSE_NO":"１７號","E_COORD97":175372.29999999999,"N_COORD97":2544857.29,"ADDRESS":"民族路１２６巷１０弄１７號","OBJECTID":72878},"geometry":{"x":175372.30000000075,"y":2544857.2899999991}},{"attributes":{"ID":72879,"DIS_CODE":0,"TOWNNAME":"永康區","LI":"大灣里","LIN":"30鄰","STREET":"民族路","SECT":" ","MAREA":" ","LANE":"１２６巷","ALLEY":"１０弄","HOUSE_NO":"１１號","E_COORD97":175361.66,"N_COORD97":2544879.04,"ADDRESS":"民族路１２６巷１０弄１１號","OBJECTID":72879},"geometry":{"x":175361.66000000108,"y":2544879.040000001}},{"attributes":{"ID":72880,"DIS_CODE":0,"TOWNNAME":"永康區","LI":"大灣里","LIN":"30鄰","STREET":"民族路","SECT":" ","MAREA":" ","LANE":"１２６巷","ALLEY":"８０弄","HOUSE_NO":"１號","E_COORD97":175422.92999999999,"N_COORD97":2544950.46,"ADDRESS":"民族路１２６巷８０弄１號","OBJECTID":72880},"geometry":{"x":175422.9299999997,"y":2544950.4600000009}},{"attributes":{"ID":72881,"DIS_CODE":0,"TOWNNAME":"永康區","LI":"大灣里","LIN":"30鄰","STREET":"民族路","SECT":" ","MAREA":" ","LANE":"１２６巷","ALLEY":"８０弄","HOUSE_NO":"５號","E_COORD97":175429.73999999999,"N_COORD97":2544939.46,"ADDRESS":"民族路１２６巷８０弄５號","OBJECTID":72881},"geometry":{"x":175429.74000000022,"y":2544939.4600000009}},{"attributes":{"ID":72882,"DIS_CODE":0,"TOWNNAME":"永康區","LI":"永康里","LIN":"30鄰","STREET":"永華路","SECT":" ","MAREA":" ","LANE":"７０２巷","ALLEY":"３５弄","HOUSE_NO":"３３號","E_COORD97":174166.84,"N_COORD97":2547129.2400000002,"ADDRESS":"永華路７０２巷３５弄３３號","OBJECTID":72882},"geometry":{"x":174166.84000000078,"y":2547129.2400000021}},{"attributes":{"ID":72883,"DIS_CODE":0,"TOWNNAME":"永康區","LI":"大灣里","LIN":"30鄰","STREET":"民族路","SECT":" ","MAREA":" ","LANE":"１２６巷","ALLEY":"８０弄","HOUSE_NO":"７號","E_COORD97":175433.5,"N_COORD97":2544932.21,"ADDRESS":"民族路１２６巷８０弄７號","OBJECTID":72883},"geometry":{"x":175433.50000000093,"y":2544932.209999999}},{"attributes":{"ID":72884,"DIS_CODE":0,"TOWNNAME":"永康區","LI":"大灣里","LIN":"30鄰","STREET":"民族路","SECT":" ","MAREA":" ","LANE":"１２６巷","ALLEY":"１０弄","HOUSE_NO":"７號","E_COORD97":175353.25,"N_COORD97":2544890.04,"ADDRESS":"民族路１２６巷１０弄７號","OBJECTID":72884},"geometry":{"x":175353.25,"y":2544890.0399999991}},{"attributes":{"ID":72885,"DIS_CODE":0,"TOWNNAME":"永康區","LI":"甲頂里","LIN":"26鄰","STREET":"中央路","SECT":" ","MAREA":" ","LANE":"２３巷","ALLEY":"１５弄","HOUSE_NO":"２號","E_COORD97":169593.64000000001,"N_COORD97":2546929.3300000001,"ADDRESS":"中央路２３巷１５弄２號","OBJECTID":72885},"geometry":{"x":169593.64000000153,"y":2546929.3300000019}},{"attributes":{"ID":72886,"DIS_CODE":0,"TOWNNAME":"永康區","LI":"永康里","LIN":"13鄰","STREET":"永康街","SECT":" ","MAREA":" ","LANE":"１３６巷","ALLEY":"１３弄","HOUSE_NO":"１３號","E_COORD97":173952.85000000001,"N_COORD97":2547025.0899999999,"ADDRESS":"永康街１３６巷１３弄１３號","OBJECTID":72886},"geometry":{"x":173952.85000000056,"y":2547025.0900000017}},{"attributes":{"ID":72887,"DIS_CODE":0,"TOWNNAME":"永康區","LI":"甲頂里","LIN":"19鄰","STREET":"中正南路","SECT":" ","MAREA":" ","LANE":"５２巷","ALLEY":"４６弄","HOUSE_NO":"９０號","E_COORD97":169888.54999999999,"N_COORD97":2546540.3399999999,"ADDRESS":"中正南路５２巷４６弄９０號","OBJECTID":72887},"geometry":{"x":169888.54999999981,"y":2546540.3399999999}},{"attributes":{"ID":72888,"DIS_CODE":0,"TOWNNAME":"永康區","LI":"成功里","LIN":"29鄰","STREET":"中華路","SECT":" ","MAREA":" ","LANE":"１３４巷","ALLEY":"５４弄","HOUSE_NO":"７號","E_COORD97":171752.82999999999,"N_COORD97":2544786.5,"ADDRESS":"中華路１３４巷５４弄７號","OBJECTID":72888},"geometry":{"x":171752.83000000101,"y":2544786.5}},{"attributes":{"ID":72889,"DIS_CODE":0,"TOWNNAME":"永康區","LI":"正強里","LIN":"18鄰","STREET":"自強路","SECT":" ","MAREA":" ","LANE":"１８８巷","ALLEY":"７６弄","HOUSE_NO":"１３號","E_COORD97":173158,"N_COORD97":2547234.75,"ADDRESS":"自強路１８８巷７６弄１３號","OBJECTID":72889},"geometry":{"x":173158,"y":2547234.7500000019}},{"attributes":{"ID":72890,"DIS_CODE":0,"TOWNNAME":"永康區","LI":"正強里","LIN":"18鄰","STREET":"自強路","SECT":" ","MAREA":" ","LANE":"１８８巷","ALLEY":"７６弄","HOUSE_NO":"４號","E_COORD97":173200.26000000001,"N_COORD97":2547242.25,"ADDRESS":"自強路１８８巷７６弄４號","OBJECTID":72890},"geometry":{"x":173200.26000000164,"y":2547242.25}},{"attributes":{"ID":72891,"DIS_CODE":0,"TOWNNAME":"永康區","LI":"西勢里","LIN":"31鄰","STREET":"富強路","SECT":"一段","MAREA":" ","LANE":"９３巷","ALLEY":"１０弄","HOUSE_NO":"１７號","E_COORD97":175445.01000000001,"N_COORD97":2546279.9399999999,"ADDRESS":"富強路一段９３巷１０弄１７號","OBJECTID":72891},"geometry":{"x":175445.01000000071,"y":2546279.9400000013}},{"attributes":{"ID":72892,"DIS_CODE":0,"TOWNNAME":"永康區","LI":"正強里","LIN":"18鄰","STREET":"自強路","SECT":" ","MAREA":" ","LANE":"１８８巷","ALLEY":"７６弄","HOUSE_NO":"６號","E_COORD97":173191.42000000001,"N_COORD97":2547241.75,"ADDRESS":"自強路１８８巷７６弄６號","OBJECTID":72892},"geometry":{"x":173191.42000000086,"y":2547241.75}},{"attributes":{"ID":72893,"DIS_CODE":0,"TOWNNAME":"永康區","LI":"安康里","LIN":"6鄰","STREET":"中華路","SECT":" ","MAREA":" ","LANE":"７２７巷","ALLEY":"２８弄","HOUSE_NO":"８號","E_COORD97":170766.48999999999,"N_COORD97":2546407.75,"ADDRESS":"中華路７２７巷２８弄８號","OBJECTID":72893},"geometry":{"x":170766.48999999929,"y":2546407.75}},{"attributes":{"ID":72894,"DIS_CODE":0,"TOWNNAME":"新市區","LI":"新和里","LIN":"30鄰","STREET":"光華街","SECT":" ","MAREA":" ","LANE":"２１４巷","ALLEY":"１５弄","HOUSE_NO":"４號","E_COORD97":177901.26000000001,"N_COORD97":2553034,"ADDRESS":"光華街２１４巷１５弄４號","OBJECTID":72894},"geometry":{"x":177901.26000000071,"y":2553034.0000000019}},{"attributes":{"ID":72895,"DIS_CODE":0,"TOWNNAME":"新市區","LI":"新市里","LIN":"30鄰","STREET":"復興路","SECT":" ","MAREA":" ","LANE":"６巷","ALLEY":"４１弄","HOUSE_NO":"３４號","E_COORD97":177953.87,"N_COORD97":2553464.0299999998,"ADDRESS":"復興路６巷４１弄３４號","OBJECTID":72895},"geometry":{"x":177953.87000000104,"y":2553464.0299999993}},{"attributes":{"ID":72896,"DIS_CODE":0,"TOWNNAME":"新市區","LI":"新市里","LIN":"30鄰","STREET":"復興路","SECT":" ","MAREA":" ","LANE":"６巷","ALLEY":"４１弄","HOUSE_NO":"６號","E_COORD97":177950.03,"N_COORD97":2553384.5299999998,"ADDRESS":"復興路６巷４１弄６號","OBJECTID":72896},"geometry":{"x":177950.03000000026,"y":2553384.5300000012}},{"attributes":{"ID":72897,"DIS_CODE":0,"TOWNNAME":"永康區","LI":"大灣里","LIN":"30鄰","STREET":"民族路","SECT":" ","MAREA":" ","LANE":"１２６巷","ALLEY":"８０弄","HOUSE_NO":"１１號","E_COORD97":175443.59,"N_COORD97":2544918.96,"ADDRESS":"民族路１２６巷８０弄１１號","OBJECTID":72897},"geometry":{"x":175443.58999999985,"y":2544918.9600000009}},{"attributes":{"ID":72898,"DIS_CODE":0,"TOWNNAME":"永康區","LI":"大灣里","LIN":"30鄰","STREET":"民族路","SECT":" ","MAREA":" ","LANE":"１２６巷","ALLEY":"１０弄","HOUSE_NO":"１號","E_COORD97":175343.45999999999,"N_COORD97":2544905.7799999998,"ADDRESS":"民族路１２６巷１０弄１號","OBJECTID":72898},"geometry":{"x":175343.46000000183,"y":2544905.7799999993}},{"attributes":{"ID":72899,"DIS_CODE":0,"TOWNNAME":"永康區","LI":"復國里","LIN":"30鄰","STREET":"復國一路","SECT":" ","MAREA":" ","LANE":"１７３巷","ALLEY":"３４弄","HOUSE_NO":"９號","E_COORD97":172630.85999999999,"N_COORD97":2545242.7599999998,"ADDRESS":"復國一路１７３巷３４弄９號","OBJECTID":72899},"geometry":{"x":172630.86000000127,"y":2545242.7600000035}},{"attributes":{"ID":72900,"DIS_CODE":0,"TOWNNAME":"永康區","LI":"復國里","LIN":"30鄰","STREET":"復國一路","SECT":" ","MAREA":" ","LANE":"１７３巷","ALLEY":"６６弄","HOUSE_NO":"２０號","E_COORD97":172537.70000000001,"N_COORD97":2545265.5299999998,"ADDRESS":"復國一路１７３巷６６弄２０號","OBJECTID":72900},"geometry":{"x":172537.70000000019,"y":2545265.5300000012}},{"attributes":{"ID":72901,"DIS_CODE":0,"TOWNNAME":"永康區","LI":"復國里","LIN":"30鄰","STREET":"復國一路","SECT":" ","MAREA":" ","LANE":"１７３巷","ALLEY":"６６弄","HOUSE_NO":"２２號","E_COORD97":172538.04000000001,"N_COORD97":2545270.5299999998,"ADDRESS":"復國一路１７３巷６６弄２２號","OBJECTID":72901},"geometry":{"x":172538.04000000097,"y":2545270.5299999993}},{"attributes":{"ID":72902,"DIS_CODE":0,"TOWNNAME":"永康區","LI":"二王里","LIN":"7鄰","STREET":"永二街","SECT":" ","MAREA":" ","LANE":" ","ALLEY":" ","HOUSE_NO":"４０６號二樓","E_COORD97":172763.07000000001,"N_COORD97":2546672.0499999998,"ADDRESS":"永二街４０６號二樓","OBJECTID":72902},"geometry":{"x":172763.07000000216,"y":2546672.0500000007}},{"attributes":{"ID":72903,"DIS_CODE":0,"TOWNNAME":"後壁區","LI":"侯伯里","LIN":"15鄰","STREET":" ","SECT":" ","MAREA":"後壁寮","LANE":" ","ALLEY":" ","HOUSE_NO":"１２７號之１","E_COORD97":185185.22,"N_COORD97":2585502.27,"ADDRESS":"後壁寮１２７號之１","OBJECTID":72903},"geometry":{"x":185185.21999999974,"y":2585502.2699999996}},{"attributes":{"ID":72904,"DIS_CODE":0,"TOWNNAME":"永康區","LI":"復國里","LIN":"30鄰","STREET":"復國一路","SECT":" ","MAREA":" ","LANE":"１７３巷","ALLEY":"６２弄","HOUSE_NO":"６號之４","E_COORD97":172596.45999999999,"N_COORD97":2545246.77,"ADDRESS":"復國一路１７３巷６２弄６號之４","OBJECTID":72904},"geometry":{"x":172596.45999999996,"y":2545246.7700000014}},{"attributes":{"ID":72905,"DIS_CODE":0,"TOWNNAME":"永康區","LI":"正強里","LIN":"31鄰","STREET":"自強路","SECT":" ","MAREA":" ","LANE":"２５５巷","ALLEY":"４２弄","HOUSE_NO":"１號之２３","E_COORD97":173121.06,"N_COORD97":2547625.29,"ADDRESS":"自強路２５５巷４２弄１號之２３","OBJECTID":72905},"geometry":{"x":173121.05999999959,"y":2547625.2900000028}},{"attributes":{"ID":72906,"DIS_CODE":0,"TOWNNAME":"永康區","LI":"復國里","LIN":"30鄰","STREET":"復國一路","SECT":" ","MAREA":" ","LANE":"１７３巷","ALLEY":"６２弄","HOUSE_NO":"８號","E_COORD97":172571.23000000001,"N_COORD97":2545259.7599999998,"ADDRESS":"復國一路１７３巷６２弄８號","OBJECTID":72906},"geometry":{"x":172571.23000000138,"y":2545259.7600000035}},{"attributes":{"ID":72907,"DIS_CODE":0,"TOWNNAME":"永康區","LI":"復國里","LIN":"30鄰","STREET":"復國一路","SECT":" ","MAREA":" ","LANE":"１７３巷","ALLEY":"６６弄","HOUSE_NO":"１６號","E_COORD97":172538.04000000001,"N_COORD97":2545256.52,"ADDRESS":"復國一路１７３巷６６弄１６號","OBJECTID":72907},"geometry":{"x":172538.04000000097,"y":2545256.5199999996}},{"attributes":{"ID":72908,"DIS_CODE":0,"TOWNNAME":"永康區","LI":"復國里","LIN":"30鄰","STREET":"復國一路","SECT":" ","MAREA":" ","LANE":"１７３巷","ALLEY":"６６弄","HOUSE_NO":"９號","E_COORD97":172517.22,"N_COORD97":2545256.9100000001,"ADDRESS":"復國一路１７３巷６６弄９號","OBJECTID":72908},"geometry":{"x":172517.21999999881,"y":2545256.910000002}},{"attributes":{"ID":72909,"DIS_CODE":0,"TOWNNAME":"永康區","LI":"復國里","LIN":"30鄰","STREET":"復國一路","SECT":" ","MAREA":" ","LANE":"１７３巷","ALLEY":"６６弄","HOUSE_NO":"３號","E_COORD97":172516.76000000001,"N_COORD97":2545243.9100000001,"ADDRESS":"復國一路１７３巷６６弄３號","OBJECTID":72909},"geometry":{"x":172516.75999999978,"y":2545243.9100000001}},{"attributes":{"ID":72910,"DIS_CODE":0,"TOWNNAME":"永康區","LI":"復國里","LIN":"30鄰","STREET":"復國一路","SECT":" ","MAREA":" ","LANE":"１７３巷","ALLEY":"３４弄","HOUSE_NO":"５號","E_COORD97":172648.54999999999,"N_COORD97":2545238.77,"ADDRESS":"復國一路１７３巷３４弄５號","OBJECTID":72910},"geometry":{"x":172648.54999999981,"y":2545238.7699999996}},{"attributes":{"ID":72911,"DIS_CODE":0,"TOWNNAME":"永康區","LI":"安康里","LIN":"17鄰","STREET":"中華路","SECT":" ","MAREA":" ","LANE":"６１９巷","ALLEY":"２２弄","HOUSE_NO":"４２號","E_COORD97":170956.69,"N_COORD97":2546180.4900000002,"ADDRESS":"中華路６１９巷２２弄４２號","OBJECTID":72911},"geometry":{"x":170956.69000000041,"y":2546180.4900000002}},{"attributes":{"ID":72912,"DIS_CODE":0,"TOWNNAME":"後壁區","LI":"侯伯里","LIN":"15鄰","STREET":" ","SECT":" ","MAREA":"後壁寮","LANE":" ","ALLEY":" ","HOUSE_NO":"１２７號","E_COORD97":185192.47,"N_COORD97":2585492,"ADDRESS":"後壁寮１２７號","OBJECTID":72912},"geometry":{"x":185192.47000000067,"y":2585492.0000000037}},{"attributes":{"ID":72913,"DIS_CODE":0,"TOWNNAME":"佳里區","LI":"佳化里","LIN":"6鄰","STREET":" ","SECT":" ","MAREA":"佳里興","LANE":" ","ALLEY":" ","HOUSE_NO":"５４號之５","E_COORD97":167435.31,"N_COORD97":2565398.1899999999,"ADDRESS":"佳里興５４號之５","OBJECTID":72913},"geometry":{"x":167435.30999999959,"y":2565398.1899999995}},{"attributes":{"ID":72914,"DIS_CODE":0,"TOWNNAME":"佳里區","LI":"佳化里","LIN":"6鄰","STREET":" ","SECT":" ","MAREA":"佳里興","LANE":" ","ALLEY":" ","HOUSE_NO":"５５號","E_COORD97":167434.28,"N_COORD97":2565380.29,"ADDRESS":"佳里興５５號","OBJECTID":72914},"geometry":{"x":167434.28000000119,"y":2565380.2899999991}},{"attributes":{"ID":72915,"DIS_CODE":0,"TOWNNAME":"佳里區","LI":"佳化里","LIN":"6鄰","STREET":" ","SECT":" ","MAREA":"佳里興","LANE":" ","ALLEY":" ","HOUSE_NO":"６０號之１０","E_COORD97":167428.82000000001,"N_COORD97":2565260.5899999999,"ADDRESS":"佳里興６０號之１０","OBJECTID":72915},"geometry":{"x":167428.82000000123,"y":2565260.589999998}},{"attributes":{"ID":72916,"DIS_CODE":0,"TOWNNAME":"佳里區","LI":"佳化里","LIN":"6鄰","STREET":" ","SECT":" ","MAREA":"佳里興","LANE":" ","ALLEY":" ","HOUSE_NO":"５８號之１６","E_COORD97":167373.62,"N_COORD97":2565230.6000000001,"ADDRESS":"佳里興５８號之１６","OBJECTID":72916},"geometry":{"x":167373.62000000197,"y":2565230.6000000015}},{"attributes":{"ID":72917,"DIS_CODE":0,"TOWNNAME":"佳里區","LI":"佳化里","LIN":"6鄰","STREET":" ","SECT":" ","MAREA":"佳里興","LANE":" ","ALLEY":" ","HOUSE_NO":"５８號之１７","E_COORD97":167377.66,"N_COORD97":2565229.6699999999,"ADDRESS":"佳里興５８號之１７","OBJECTID":72917},"geometry":{"x":167377.66000000015,"y":2565229.6699999981}},{"attributes":{"ID":72918,"DIS_CODE":0,"TOWNNAME":"佳里區","LI":"佳化里","LIN":"6鄰","STREET":" ","SECT":" ","MAREA":"佳里興","LANE":" ","ALLEY":" ","HOUSE_NO":"５８號之３","E_COORD97":167360.07999999999,"N_COORD97":2565293.4100000001,"ADDRESS":"佳里興５８號之３","OBJECTID":72918},"geometry":{"x":167360.07999999914,"y":2565293.410000002}},{"attributes":{"ID":72919,"DIS_CODE":0,"TOWNNAME":"佳里區","LI":"佳化里","LIN":"6鄰","STREET":" ","SECT":" ","MAREA":"佳里興","LANE":" ","ALLEY":" ","HOUSE_NO":"５８號之５","E_COORD97":167363.26000000001,"N_COORD97":2565274.8500000001,"ADDRESS":"佳里興５８號之５","OBJECTID":72919},"geometry":{"x":167363.25999999978,"y":2565274.8499999996}},{"attributes":{"ID":72920,"DIS_CODE":0,"TOWNNAME":"佳里區","LI":"佳化里","LIN":"6鄰","STREET":" ","SECT":" ","MAREA":"佳里興","LANE":" ","ALLEY":" ","HOUSE_NO":"５８號之６","E_COORD97":167355.75,"N_COORD97":2565267.9500000002,"ADDRESS":"佳里興５８號之６","OBJECTID":72920},"geometry":{"x":167355.75000000093,"y":2565267.950000003}},{"attributes":{"ID":72921,"DIS_CODE":0,"TOWNNAME":"佳里區","LI":"佳化里","LIN":"6鄰","STREET":" ","SECT":" ","MAREA":"佳里興","LANE":" ","ALLEY":" ","HOUSE_NO":"６０號之１２","E_COORD97":167430.39000000001,"N_COORD97":2565247.0499999998,"ADDRESS":"佳里興６０號之１２","OBJECTID":72921},"geometry":{"x":167430.38999999873,"y":2565247.0500000007}},{"attributes":{"ID":72922,"DIS_CODE":0,"TOWNNAME":"永康區","LI":"永康里","LIN":"30鄰","STREET":"永華路","SECT":" ","MAREA":" ","LANE":"７０２巷","ALLEY":"３５弄","HOUSE_NO":"３９號","E_COORD97":174189.20999999999,"N_COORD97":2547125.9900000002,"ADDRESS":"永華路７０２巷３５弄３９號","OBJECTID":72922},"geometry":{"x":174189.21000000183,"y":2547125.9900000002}},{"attributes":{"ID":72923,"DIS_CODE":0,"TOWNNAME":"安南區","LI":"\u25A0南里","LIN":"30鄰","STREET":"安昌街","SECT":" ","MAREA":" ","LANE":"１７４巷","ALLEY":"１９１弄","HOUSE_NO":"１１號","E_COORD97":170144.85000000001,"N_COORD97":2552057.27,"ADDRESS":"安昌街１７４巷１９１弄１１號","OBJECTID":72923},"geometry":{"x":170144.85000000149,"y":2552057.2700000033}},{"attributes":{"ID":72924,"DIS_CODE":0,"TOWNNAME":"安南區","LI":"\u25A0南里","LIN":"30鄰","STREET":"安昌街","SECT":" ","MAREA":" ","LANE":"１７４巷","ALLEY":"１９１弄","HOUSE_NO":"１３號","E_COORD97":170144.10000000001,"N_COORD97":2552061.3399999999,"ADDRESS":"安昌街１７４巷１９１弄１３號","OBJECTID":72924},"geometry":{"x":170144.09999999963,"y":2552061.3400000017}},{"attributes":{"ID":72925,"DIS_CODE":0,"TOWNNAME":"安南區","LI":"\u25A0南里","LIN":"30鄰","STREET":"安昌街","SECT":" ","MAREA":" ","LANE":"１７４巷","ALLEY":"１９１弄","HOUSE_NO":"１５號","E_COORD97":170144.10000000001,"N_COORD97":2552065.7799999998,"ADDRESS":"安昌街１７４巷１９１弄１５號","OBJECTID":72925},"geometry":{"x":170144.09999999963,"y":2552065.7799999993}},{"attributes":{"ID":72926,"DIS_CODE":0,"TOWNNAME":"安南區","LI":"\u25A0南里","LIN":"30鄰","STREET":"安昌街","SECT":" ","MAREA":" ","LANE":"１７４巷","ALLEY":"１９１弄","HOUSE_NO":"１７號","E_COORD97":170144.29000000001,"N_COORD97":2552070.04,"ADDRESS":"安昌街１７４巷１９１弄１７號","OBJECTID":72926},"geometry":{"x":170144.29000000097,"y":2552070.040000001}},{"attributes":{"ID":72927,"DIS_CODE":0,"TOWNNAME":"安南區","LI":"\u25A0南里","LIN":"30鄰","STREET":"安昌街","SECT":" ","MAREA":" ","LANE":"１７４巷","ALLEY":"１９１弄","HOUSE_NO":"１９號","E_COORD97":170144.10000000001,"N_COORD97":2552074.6699999999,"ADDRESS":"安昌街１７４巷１９１弄１９號","OBJECTID":72927},"geometry":{"x":170144.09999999963,"y":2552074.6699999999}},{"attributes":{"ID":72928,"DIS_CODE":0,"TOWNNAME":"安南區","LI":"\u25A0南里","LIN":"30鄰","STREET":"安昌街","SECT":" ","MAREA":" ","LANE":"１７４巷","ALLEY":"１９１弄","HOUSE_NO":"２１號","E_COORD97":170143.17999999999,"N_COORD97":2552078.3700000001,"ADDRESS":"安昌街１７４巷１９１弄２１號","OBJECTID":72928},"geometry":{"x":170143.18000000063,"y":2552078.3700000048}},{"attributes":{"ID":72929,"DIS_CODE":0,"TOWNNAME":"安南區","LI":"\u25A0南里","LIN":"30鄰","STREET":"安昌街","SECT":" ","MAREA":" ","LANE":"１７４巷","ALLEY":"１９１弄","HOUSE_NO":"２３號","E_COORD97":170142.44,"N_COORD97":2552082.4399999999,"ADDRESS":"安昌街１７４巷１９１弄２３號","OBJECTID":72929},"geometry":{"x":170142.44000000041,"y":2552082.4399999995}},{"attributes":{"ID":72930,"DIS_CODE":0,"TOWNNAME":"佳里區","LI":"佳化里","LIN":"6鄰","STREET":" ","SECT":" ","MAREA":"佳里興","LANE":" ","ALLEY":" ","HOUSE_NO":"６０號之１３","E_COORD97":167429.69,"N_COORD97":2565242.1800000002,"ADDRESS":"佳里興６０號之１３","OBJECTID":72930},"geometry":{"x":167429.69000000134,"y":2565242.1799999997}},{"attributes":{"ID":72931,"DIS_CODE":0,"TOWNNAME":"佳里區","LI":"佳化里","LIN":"6鄰","STREET":" ","SECT":" ","MAREA":"佳里興","LANE":" ","ALLEY":" ","HOUSE_NO":"６０號之１４","E_COORD97":167423.95000000001,"N_COORD97":2565243.3900000001,"ADDRESS":"佳里興６０號之１４","OBJECTID":72931},"geometry":{"x":167423.95000000205,"y":2565243.3900000025}},{"attributes":{"ID":72932,"DIS_CODE":0,"TOWNNAME":"佳里區","LI":"佳化里","LIN":"6鄰","STREET":" ","SECT":" ","MAREA":"佳里興","LANE":" ","ALLEY":" ","HOUSE_NO":"６０號之１５","E_COORD97":167418.41,"N_COORD97":2565244.8100000001,"ADDRESS":"佳里興６０號之１５","OBJECTID":72932},"geometry":{"x":167418.41000000015,"y":2565244.8100000005}},{"attributes":{"ID":72933,"DIS_CODE":0,"TOWNNAME":"佳里區","LI":"佳化里","LIN":"6鄰","STREET":" ","SECT":" ","MAREA":"佳里興","LANE":" ","ALLEY":" ","HOUSE_NO":"６０號之１６","E_COORD97":167412.89000000001,"N_COORD97":2565245.9199999999,"ADDRESS":"佳里興６０號之１６","OBJECTID":72933},"geometry":{"x":167412.88999999966,"y":2565245.9200000018}},{"attributes":{"ID":72934,"DIS_CODE":0,"TOWNNAME":"佳里區","LI":"佳化里","LIN":"6鄰","STREET":" ","SECT":" ","MAREA":"佳里興","LANE":" ","ALLEY":" ","HOUSE_NO":"６０號之１７","E_COORD97":167407.48000000001,"N_COORD97":2565247.0099999998,"ADDRESS":"佳里興６０號之１７","OBJECTID":72934},"geometry":{"x":167407.48000000138,"y":2565247.0099999998}},{"attributes":{"ID":72935,"DIS_CODE":0,"TOWNNAME":"佳里區","LI":"佳化里","LIN":"6鄰","STREET":" ","SECT":" ","MAREA":"佳里興","LANE":" ","ALLEY":" ","HOUSE_NO":"６０號之１８","E_COORD97":167403.97,"N_COORD97":2565232.5800000001,"ADDRESS":"佳里興６０號之１８","OBJECTID":72935},"geometry":{"x":167403.96999999974,"y":2565232.5800000001}},{"attributes":{"ID":72936,"DIS_CODE":0,"TOWNNAME":"佳里區","LI":"佳化里","LIN":"6鄰","STREET":" ","SECT":" ","MAREA":"佳里興","LANE":" ","ALLEY":" ","HOUSE_NO":"６０號之１９","E_COORD97":167409.82000000001,"N_COORD97":2565231.6000000001,"ADDRESS":"佳里興６０號之１９","OBJECTID":72936},"geometry":{"x":167409.82000000123,"y":2565231.6000000015}},{"attributes":{"ID":72937,"DIS_CODE":0,"TOWNNAME":"佳里區","LI":"佳化里","LIN":"6鄰","STREET":" ","SECT":" ","MAREA":"佳里興","LANE":" ","ALLEY":" ","HOUSE_NO":"６０號之１","E_COORD97":167435.94,"N_COORD97":2565299.0499999998,"ADDRESS":"佳里興６０號之１","OBJECTID":72937},"geometry":{"x":167435.93999999948,"y":2565299.0499999989}},{"attributes":{"ID":72938,"DIS_CODE":0,"TOWNNAME":"佳里區","LI":"佳化里","LIN":"6鄰","STREET":" ","SECT":" ","MAREA":"佳里興","LANE":" ","ALLEY":" ","HOUSE_NO":"６０號之２０","E_COORD97":167414.76000000001,"N_COORD97":2565230.3900000001,"ADDRESS":"佳里興６０號之２０","OBJECTID":72938},"geometry":{"x":167414.76000000071,"y":2565230.3900000025}},{"attributes":{"ID":72939,"DIS_CODE":0,"TOWNNAME":"佳里區","LI":"佳化里","LIN":"6鄰","STREET":" ","SECT":" ","MAREA":"佳里興","LANE":" ","ALLEY":" ","HOUSE_NO":"６０號之２１","E_COORD97":167420.45000000001,"N_COORD97":2565229.3100000001,"ADDRESS":"佳里興６０號之２１","OBJECTID":72939},"geometry":{"x":167420.45000000205,"y":2565229.3099999987}},{"attributes":{"ID":72940,"DIS_CODE":0,"TOWNNAME":"佳里區","LI":"佳化里","LIN":"6鄰","STREET":" ","SECT":" ","MAREA":"佳里興","LANE":" ","ALLEY":" ","HOUSE_NO":"６０號之２２","E_COORD97":167427.57999999999,"N_COORD97":2565231.9500000002,"ADDRESS":"佳里興６０號之２２","OBJECTID":72940},"geometry":{"x":167427.58000000007,"y":2565231.9500000011}},{"attributes":{"ID":72941,"DIS_CODE":0,"TOWNNAME":"佳里區","LI":"佳化里","LIN":"6鄰","STREET":" ","SECT":" ","MAREA":"佳里興","LANE":" ","ALLEY":" ","HOUSE_NO":"６０號之２３","E_COORD97":167425.97,"N_COORD97":2565227.1699999999,"ADDRESS":"佳里興６０號之２３","OBJECTID":72941},"geometry":{"x":167425.96999999974,"y":2565227.1700000018}},{"attributes":{"ID":72942,"DIS_CODE":0,"TOWNNAME":"佳里區","LI":"佳化里","LIN":"6鄰","STREET":" ","SECT":" ","MAREA":"佳里興","LANE":" ","ALLEY":" ","HOUSE_NO":"６０號之２４","E_COORD97":167424.92000000001,"N_COORD97":2565222.3300000001,"ADDRESS":"佳里興６０號之２４","OBJECTID":72942},"geometry":{"x":167424.91999999993,"y":2565222.3300000038}},{"attributes":{"ID":72943,"DIS_CODE":0,"TOWNNAME":"佳里區","LI":"佳化里","LIN":"6鄰","STREET":" ","SECT":" ","MAREA":"佳里興","LANE":" ","ALLEY":" ","HOUSE_NO":"６０號之２５","E_COORD97":167423.79999999999,"N_COORD97":2565217.7999999998,"ADDRESS":"佳里興６０號之２５","OBJECTID":72943},"geometry":{"x":167423.79999999981,"y":2565217.8000000026}},{"attributes":{"ID":72944,"DIS_CODE":0,"TOWNNAME":"佳里區","LI":"佳化里","LIN":"6鄰","STREET":" ","SECT":" ","MAREA":"佳里興","LANE":" ","ALLEY":" ","HOUSE_NO":"６０號之２６","E_COORD97":167418.39999999999,"N_COORD97":2565218.4700000002,"ADDRESS":"佳里興６０號之２６","OBJECTID":72944},"geometry":{"x":167418.4000000013,"y":2565218.4700000044}},{"attributes":{"ID":72945,"DIS_CODE":0,"TOWNNAME":"佳里區","LI":"佳化里","LIN":"6鄰","STREET":" ","SECT":" ","MAREA":"佳里興","LANE":" ","ALLEY":" ","HOUSE_NO":"６０號之２７","E_COORD97":167412.97,"N_COORD97":2565219.5600000001,"ADDRESS":"佳里興６０號之２７","OBJECTID":72945},"geometry":{"x":167412.96999999881,"y":2565219.5600000005}},{"attributes":{"ID":72946,"DIS_CODE":0,"TOWNNAME":"佳里區","LI":"佳化里","LIN":"6鄰","STREET":" ","SECT":" ","MAREA":"佳里興","LANE":" ","ALLEY":" ","HOUSE_NO":"６０號之２８","E_COORD97":167407.34,"N_COORD97":2565220.5099999998,"ADDRESS":"佳里興６０號之２８","OBJECTID":72946},"geometry":{"x":167407.34000000171,"y":2565220.5100000035}},{"attributes":{"ID":72947,"DIS_CODE":0,"TOWNNAME":"佳里區","LI":"佳化里","LIN":"6鄰","STREET":" ","SECT":" ","MAREA":"佳里興","LANE":" ","ALLEY":" ","HOUSE_NO":"６０號之２９","E_COORD97":167401.88,"N_COORD97":2565221.6600000001,"ADDRESS":"佳里興６０號之２９","OBJECTID":72947},"geometry":{"x":167401.87999999896,"y":2565221.660000002}},{"attributes":{"ID":72948,"DIS_CODE":0,"TOWNNAME":"佳里區","LI":"佳化里","LIN":"6鄰","STREET":" ","SECT":" ","MAREA":"佳里興","LANE":" ","ALLEY":" ","HOUSE_NO":"６０號之２","E_COORD97":167435.23000000001,"N_COORD97":2565294.9500000002,"ADDRESS":"佳里興６０號之２","OBJECTID":72948},"geometry":{"x":167435.23000000045,"y":2565294.950000003}},{"attributes":{"ID":72949,"DIS_CODE":0,"TOWNNAME":"佳里區","LI":"佳化里","LIN":"6鄰","STREET":" ","SECT":" ","MAREA":"佳里興","LANE":" ","ALLEY":" ","HOUSE_NO":"６０號之３","E_COORD97":167435.23999999999,"N_COORD97":2565290.3599999999,"ADDRESS":"佳里興６０號之３","OBJECTID":72949},"geometry":{"x":167435.24000000022,"y":2565290.3600000013}},{"attributes":{"ID":72950,"DIS_CODE":0,"TOWNNAME":"佳里區","LI":"佳化里","LIN":"6鄰","STREET":" ","SECT":" ","MAREA":"佳里興","LANE":" ","ALLEY":" ","HOUSE_NO":"６０號之４","E_COORD97":167434.07000000001,"N_COORD97":2565286.27,"ADDRESS":"佳里興６０號之４","OBJECTID":72950},"geometry":{"x":167434.07000000123,"y":2565286.2700000033}},{"attributes":{"ID":72951,"DIS_CODE":0,"TOWNNAME":"佳里區","LI":"佳化里","LIN":"6鄰","STREET":" ","SECT":" ","MAREA":"佳里興","LANE":" ","ALLEY":" ","HOUSE_NO":"６０號之５","E_COORD97":167433.64999999999,"N_COORD97":2565282.8500000001,"ADDRESS":"佳里興６０號之５","OBJECTID":72951},"geometry":{"x":167433.6500000013,"y":2565282.8500000015}},{"attributes":{"ID":72952,"DIS_CODE":0,"TOWNNAME":"佳里區","LI":"佳化里","LIN":"6鄰","STREET":" ","SECT":" ","MAREA":"佳里興","LANE":" ","ALLEY":" ","HOUSE_NO":"６０號之６","E_COORD97":167432.82999999999,"N_COORD97":2565278.9500000002,"ADDRESS":"佳里興６０號之６","OBJECTID":72952},"geometry":{"x":167432.83000000007,"y":2565278.9500000011}},{"attributes":{"ID":72953,"DIS_CODE":0,"TOWNNAME":"佳里區","LI":"佳化里","LIN":"6鄰","STREET":" ","SECT":" ","MAREA":"佳里興","LANE":" ","ALLEY":" ","HOUSE_NO":"６０號之７","E_COORD97":167432.04999999999,"N_COORD97":2565274.75,"ADDRESS":"佳里興６０號之７","OBJECTID":72953},"geometry":{"x":167432.05000000075,"y":2565274.7500000019}},{"attributes":{"ID":72954,"DIS_CODE":0,"TOWNNAME":"佳里區","LI":"佳化里","LIN":"6鄰","STREET":" ","SECT":" ","MAREA":"佳里興","LANE":" ","ALLEY":" ","HOUSE_NO":"６０號之８","E_COORD97":167431.70000000001,"N_COORD97":2565270.71,"ADDRESS":"佳里興６０號之８","OBJECTID":72954},"geometry":{"x":167431.70000000019,"y":2565270.7100000009}},{"attributes":{"ID":72955,"DIS_CODE":0,"TOWNNAME":"佳里區","LI":"佳化里","LIN":"6鄰","STREET":" ","SECT":" ","MAREA":"佳里興","LANE":" ","ALLEY":" ","HOUSE_NO":"６０號之９","E_COORD97":167430.67999999999,"N_COORD97":2565266.77,"ADDRESS":"佳里興６０號之９","OBJECTID":72955},"geometry":{"x":167430.68000000063,"y":2565266.7700000014}},{"attributes":{"ID":72956,"DIS_CODE":0,"TOWNNAME":"佳里區","LI":"佳化里","LIN":"6鄰","STREET":" ","SECT":" ","MAREA":"佳里興","LANE":" ","ALLEY":" ","HOUSE_NO":"６１號之１","E_COORD97":167396.28,"N_COORD97":2565226.48,"ADDRESS":"佳里興６１號之１","OBJECTID":72956},"geometry":{"x":167396.28000000212,"y":2565226.4800000023}},{"attributes":{"ID":72957,"DIS_CODE":0,"TOWNNAME":"佳里區","LI":"佳化里","LIN":"6鄰","STREET":" ","SECT":" ","MAREA":"佳里興","LANE":" ","ALLEY":" ","HOUSE_NO":"６１號之２","E_COORD97":167389.32000000001,"N_COORD97":2565245.2799999998,"ADDRESS":"佳里興６１號之２","OBJECTID":72957},"geometry":{"x":167389.32000000216,"y":2565245.2800000031}},{"attributes":{"ID":72958,"DIS_CODE":0,"TOWNNAME":"佳里區","LI":"佳化里","LIN":"6鄰","STREET":" ","SECT":" ","MAREA":"佳里興","LANE":" ","ALLEY":" ","HOUSE_NO":"６１號之３","E_COORD97":167390.10999999999,"N_COORD97":2565249.6899999999,"ADDRESS":"佳里興６１號之３","OBJECTID":72958},"geometry":{"x":167390.11000000034,"y":2565249.6900000032}},{"attributes":{"ID":72959,"DIS_CODE":0,"TOWNNAME":"下營區","LI":"西連里","LIN":"6鄰","STREET":" ","SECT":" ","MAREA":"西寮","LANE":" ","ALLEY":" ","HOUSE_NO":"１３號之１","E_COORD97":174613.04999999999,"N_COORD97":2567731.8300000001,"ADDRESS":"西寮１３號之１","OBJECTID":72959},"geometry":{"x":174613.04999999981,"y":2567731.8300000019}},{"attributes":{"ID":72960,"DIS_CODE":0,"TOWNNAME":"下營區","LI":"西連里","LIN":"6鄰","STREET":" ","SECT":" ","MAREA":"西寮","LANE":" ","ALLEY":" ","HOUSE_NO":"１３號之２１","E_COORD97":172981.75,"N_COORD97":2568067.2200000002,"ADDRESS":"西寮１３號之２１","OBJECTID":72960},"geometry":{"x":172981.74999999907,"y":2568067.2200000007}},{"attributes":{"ID":72961,"DIS_CODE":0,"TOWNNAME":"下營區","LI":"西連里","LIN":"6鄰","STREET":" ","SECT":" ","MAREA":"西寮","LANE":" ","ALLEY":" ","HOUSE_NO":"１３號之２３","E_COORD97":172940.07000000001,"N_COORD97":2567873.6899999999,"ADDRESS":"西寮１３號之２３","OBJECTID":72961},"geometry":{"x":172940.07000000123,"y":2567873.6900000032}},{"attributes":{"ID":72962,"DIS_CODE":0,"TOWNNAME":"下營區","LI":"西連里","LIN":"6鄰","STREET":" ","SECT":" ","MAREA":"西寮","LANE":" ","ALLEY":" ","HOUSE_NO":"１３號之２４","E_COORD97":172840,"N_COORD97":2568079.7599999998,"ADDRESS":"西寮１３號之２４","OBJECTID":72962},"geometry":{"x":172840.00000000093,"y":2568079.7599999998}},{"attributes":{"ID":72963,"DIS_CODE":0,"TOWNNAME":"下營區","LI":"西連里","LIN":"6鄰","STREET":" ","SECT":" ","MAREA":"西寮","LANE":" ","ALLEY":" ","HOUSE_NO":"１３號之２９","E_COORD97":173164.42000000001,"N_COORD97":2567691.0699999998,"ADDRESS":"西寮１３號之２９","OBJECTID":72963},"geometry":{"x":173164.42000000086,"y":2567691.0700000003}},{"attributes":{"ID":72964,"DIS_CODE":0,"TOWNNAME":"下營區","LI":"西連里","LIN":"6鄰","STREET":" ","SECT":" ","MAREA":"西寮","LANE":" ","ALLEY":" ","HOUSE_NO":"１３號之２","E_COORD97":174578.20000000001,"N_COORD97":2567562.04,"ADDRESS":"西寮１３號之２","OBJECTID":72964},"geometry":{"x":174578.20000000112,"y":2567562.0399999991}},{"attributes":{"ID":72965,"DIS_CODE":0,"TOWNNAME":"下營區","LI":"西連里","LIN":"6鄰","STREET":" ","SECT":" ","MAREA":"西寮","LANE":" ","ALLEY":" ","HOUSE_NO":"１３號之３０","E_COORD97":174583.41,"N_COORD97":2567609.5,"ADDRESS":"西寮１３號之３０","OBJECTID":72965},"geometry":{"x":174583.41000000108,"y":2567609.5}},{"attributes":{"ID":72966,"DIS_CODE":0,"TOWNNAME":"下營區","LI":"西連里","LIN":"6鄰","STREET":" ","SECT":" ","MAREA":"西寮","LANE":" ","ALLEY":" ","HOUSE_NO":"１３號之３１","E_COORD97":174541.34,"N_COORD97":2567580.73,"ADDRESS":"西寮１３號之３１","OBJECTID":72966},"geometry":{"x":174541.34000000078,"y":2567580.7300000023}},{"attributes":{"ID":72967,"DIS_CODE":0,"TOWNNAME":"下營區","LI":"西連里","LIN":"6鄰","STREET":" ","SECT":" ","MAREA":"西寮","LANE":" ","ALLEY":" ","HOUSE_NO":"１３號之３５","E_COORD97":174543.42000000001,"N_COORD97":2567615.3700000001,"ADDRESS":"西寮１３號之３５","OBJECTID":72967},"geometry":{"x":174543.41999999993,"y":2567615.370000001}},{"attributes":{"ID":72968,"DIS_CODE":0,"TOWNNAME":"下營區","LI":"西連里","LIN":"6鄰","STREET":" ","SECT":" ","MAREA":"西寮","LANE":" ","ALLEY":" ","HOUSE_NO":"１３號之３６","E_COORD97":174671.31,"N_COORD97":2567659.0699999998,"ADDRESS":"西寮１３號之３６","OBJECTID":72968},"geometry":{"x":174671.31000000052,"y":2567659.0700000022}},{"attributes":{"ID":72969,"DIS_CODE":0,"TOWNNAME":"下營區","LI":"西連里","LIN":"6鄰","STREET":" ","SECT":" ","MAREA":"西寮","LANE":" ","ALLEY":" ","HOUSE_NO":"１３號之３８","E_COORD97":174564.84,"N_COORD97":2567734.7400000002,"ADDRESS":"西寮１３號之３８","OBJECTID":72969},"geometry":{"x":174564.84000000078,"y":2567734.7400000002}},{"attributes":{"ID":72970,"DIS_CODE":0,"TOWNNAME":"下營區","LI":"西連里","LIN":"6鄰","STREET":" ","SECT":" ","MAREA":"西寮","LANE":" ","ALLEY":" ","HOUSE_NO":"１３之３９號","E_COORD97":174598.13,"N_COORD97":2567727.4700000002,"ADDRESS":"西寮１３之３９號","OBJECTID":72970},"geometry":{"x":174598.13000000175,"y":2567727.4700000044}},{"attributes":{"ID":72971,"DIS_CODE":0,"TOWNNAME":"下營區","LI":"西連里","LIN":"6鄰","STREET":" ","SECT":" ","MAREA":"西寮","LANE":" ","ALLEY":" ","HOUSE_NO":"１３號之３","E_COORD97":174557.92000000001,"N_COORD97":2567558.7200000002,"ADDRESS":"西寮１３號之３","OBJECTID":72971},"geometry":{"x":174557.92000000086,"y":2567558.7200000007}},{"attributes":{"ID":72972,"DIS_CODE":0,"TOWNNAME":"下營區","LI":"西連里","LIN":"6鄰","STREET":" ","SECT":" ","MAREA":"西寮","LANE":" ","ALLEY":" ","HOUSE_NO":"１３號之４０","E_COORD97":173143.04999999999,"N_COORD97":2567772.7400000002,"ADDRESS":"西寮１３號之４０","OBJECTID":72972},"geometry":{"x":173143.05000000075,"y":2567772.7400000021}},{"attributes":{"ID":72973,"DIS_CODE":0,"TOWNNAME":"下營區","LI":"西連里","LIN":"6鄰","STREET":" ","SECT":" ","MAREA":"西寮","LANE":" ","ALLEY":" ","HOUSE_NO":"１３號之４１","E_COORD97":173149.34,"N_COORD97":2567902.8300000001,"ADDRESS":"西寮１３號之４１","OBJECTID":72973},"geometry":{"x":173149.34000000078,"y":2567902.8300000001}},{"attributes":{"ID":72974,"DIS_CODE":0,"TOWNNAME":"下營區","LI":"西連里","LIN":"6鄰","STREET":" ","SECT":" ","MAREA":"西寮","LANE":" ","ALLEY":" ","HOUSE_NO":"１３號之４３","E_COORD97":174625.62,"N_COORD97":2568261.4900000002,"ADDRESS":"西寮１３號之４３","OBJECTID":72974},"geometry":{"x":174625.62000000197,"y":2568261.4900000002}},{"attributes":{"ID":72975,"DIS_CODE":0,"TOWNNAME":"下營區","LI":"西連里","LIN":"6鄰","STREET":" ","SECT":" ","MAREA":"西寮","LANE":" ","ALLEY":" ","HOUSE_NO":"１３號之４５","E_COORD97":173830.29999999999,"N_COORD97":2567886.6200000001,"ADDRESS":"西寮１３號之４５","OBJECTID":72975},"geometry":{"x":173830.29999999981,"y":2567886.6200000029}},{"attributes":{"ID":72976,"DIS_CODE":0,"TOWNNAME":"下營區","LI":"西連里","LIN":"6鄰","STREET":" ","SECT":" ","MAREA":"西寮","LANE":" ","ALLEY":" ","HOUSE_NO":"１３號之６","E_COORD97":174614.51999999999,"N_COORD97":2567639.6099999999,"ADDRESS":"西寮１３號之６","OBJECTID":72976},"geometry":{"x":174614.52000000048,"y":2567639.6099999994}},{"attributes":{"ID":72977,"DIS_CODE":0,"TOWNNAME":"下營區","LI":"西連里","LIN":"6鄰","STREET":" ","SECT":" ","MAREA":"西寮","LANE":" ","ALLEY":" ","HOUSE_NO":"１３號之７","E_COORD97":174485.92000000001,"N_COORD97":2567605.8799999999,"ADDRESS":"西寮１３號之７","OBJECTID":72977},"geometry":{"x":174485.92000000179,"y":2567605.879999999}},{"attributes":{"ID":72978,"DIS_CODE":0,"TOWNNAME":"永康區","LI":"永康里","LIN":"14鄰","STREET":"永中街","SECT":" ","MAREA":" ","LANE":"１００巷","ALLEY":"２６弄","HOUSE_NO":"１９號","E_COORD97":174048.45000000001,"N_COORD97":2547089.7400000002,"ADDRESS":"永中街１００巷２６弄１９號","OBJECTID":72978},"geometry":{"x":174048.45000000019,"y":2547089.7400000002}},{"attributes":{"ID":72979,"DIS_CODE":0,"TOWNNAME":"永康區","LI":"西勢里","LIN":"31鄰","STREET":"富強路","SECT":"一段","MAREA":" ","LANE":"９３巷","ALLEY":"１０弄","HOUSE_NO":"４號","E_COORD97":175444.10000000001,"N_COORD97":2546241.2799999998,"ADDRESS":"富強路一段９３巷１０弄４號","OBJECTID":72979},"geometry":{"x":175444.10000000056,"y":2546241.2799999993}},{"attributes":{"ID":72980,"DIS_CODE":0,"TOWNNAME":"安南區","LI":"\u25A0南里","LIN":"30鄰","STREET":"安昌街","SECT":" ","MAREA":" ","LANE":"１７４巷","ALLEY":"１９１弄","HOUSE_NO":"３１號","E_COORD97":170154.70000000001,"N_COORD97":2552104.2999999998,"ADDRESS":"安昌街１７４巷１９１弄３１號","OBJECTID":72980},"geometry":{"x":170154.69999999925,"y":2552104.3000000007}},{"attributes":{"ID":72981,"DIS_CODE":0,"TOWNNAME":"安南區","LI":"\u25A0南里","LIN":"30鄰","STREET":"安昌街","SECT":" ","MAREA":" ","LANE":"１７４巷","ALLEY":"１９１弄","HOUSE_NO":"３３號","E_COORD97":170154.09,"N_COORD97":2552110.5600000001,"ADDRESS":"安昌街１７４巷１９１弄３３號","OBJECTID":72981},"geometry":{"x":170154.09000000078,"y":2552110.5600000042}},{"attributes":{"ID":72982,"DIS_CODE":0,"TOWNNAME":"安南區","LI":"\u25A0南里","LIN":"30鄰","STREET":"安昌街","SECT":" ","MAREA":" ","LANE":"１７４巷","ALLEY":"１９１弄","HOUSE_NO":"３５號","E_COORD97":170153.89000000001,"N_COORD97":2552115.7999999998,"ADDRESS":"安昌街１７４巷１９１弄３５號","OBJECTID":72982},"geometry":{"x":170153.88999999966,"y":2552115.8000000045}},{"attributes":{"ID":72983,"DIS_CODE":0,"TOWNNAME":"安南區","LI":"\u25A0南里","LIN":"30鄰","STREET":"安昌街","SECT":" ","MAREA":" ","LANE":"１７４巷","ALLEY":"１９１弄","HOUSE_NO":"３７號","E_COORD97":170153.89000000001,"N_COORD97":2552121.2599999998,"ADDRESS":"安昌街１７４巷１９１弄３７號","OBJECTID":72983},"geometry":{"x":170153.88999999966,"y":2552121.2599999998}},{"attributes":{"ID":72984,"DIS_CODE":0,"TOWNNAME":"安南區","LI":"\u25A0南里","LIN":"30鄰","STREET":"安昌街","SECT":" ","MAREA":" ","LANE":"１７４巷","ALLEY":"１９１弄","HOUSE_NO":"３９號","E_COORD97":170154.09,"N_COORD97":2552128.73,"ADDRESS":"安昌街１７４巷１９１弄３９號","OBJECTID":72984},"geometry":{"x":170154.09000000078,"y":2552128.7300000004}},{"attributes":{"ID":72985,"DIS_CODE":0,"TOWNNAME":"安南區","LI":"\u25A0南里","LIN":"30鄰","STREET":"安昌街","SECT":" ","MAREA":" ","LANE":"１７４巷","ALLEY":"１９１弄","HOUSE_NO":"３號","E_COORD97":170141.35999999999,"N_COORD97":2552049.8500000001,"ADDRESS":"安昌街１７４巷１９１弄３號","OBJECTID":72985},"geometry":{"x":170141.36000000034,"y":2552049.8500000034}},{"attributes":{"ID":72986,"DIS_CODE":0,"TOWNNAME":"安南區","LI":"\u25A0南里","LIN":"30鄰","STREET":"安昌街","SECT":" ","MAREA":" ","LANE":"１７４巷","ALLEY":"１９１弄","HOUSE_NO":"４１號","E_COORD97":170154.5,"N_COORD97":2552134.7799999998,"ADDRESS":"安昌街１７４巷１９１弄４１號","OBJECTID":72986},"geometry":{"x":170154.50000000093,"y":2552134.7800000031}},{"attributes":{"ID":72987,"DIS_CODE":0,"TOWNNAME":"安南區","LI":"\u25A0南里","LIN":"30鄰","STREET":"安昌街","SECT":" ","MAREA":" ","LANE":"１７４巷","ALLEY":"１９１弄","HOUSE_NO":"４３號","E_COORD97":170154.29999999999,"N_COORD97":2552139.6299999999,"ADDRESS":"安昌街１７４巷１９１弄４３號","OBJECTID":72987},"geometry":{"x":170154.30000000075,"y":2552139.6300000008}},{"attributes":{"ID":72988,"DIS_CODE":0,"TOWNNAME":"安南區","LI":"\u25A0南里","LIN":"30鄰","STREET":"安昌街","SECT":" ","MAREA":" ","LANE":"１７４巷","ALLEY":"１９１弄","HOUSE_NO":"４５號","E_COORD97":170154.09,"N_COORD97":2552146.4900000002,"ADDRESS":"安昌街１７４巷１９１弄４５號","OBJECTID":72988},"geometry":{"x":170154.09000000078,"y":2552146.4900000002}},{"attributes":{"ID":72989,"DIS_CODE":0,"TOWNNAME":"安南區","LI":"\u25A0南里","LIN":"30鄰","STREET":"安昌街","SECT":" ","MAREA":" ","LANE":"１７４巷","ALLEY":"１９１弄","HOUSE_NO":"５號","E_COORD97":170146.82000000001,"N_COORD97":2552050.6499999999,"ADDRESS":"安昌街１７４巷１９１弄５號","OBJECTID":72989},"geometry":{"x":170146.8200000003,"y":2552050.6500000004}},{"attributes":{"ID":72990,"DIS_CODE":0,"TOWNNAME":"安南區","LI":"\u25A0南里","LIN":"30鄰","STREET":"安昌街","SECT":" ","MAREA":" ","LANE":"１７４巷","ALLEY":"１９１弄","HOUSE_NO":"７號","E_COORD97":170150.66,"N_COORD97":2552050.8599999999,"ADDRESS":"安昌街１７４巷１９１弄７號","OBJECTID":72990},"geometry":{"x":170150.66000000108,"y":2552050.8600000013}},{"attributes":{"ID":72991,"DIS_CODE":0,"TOWNNAME":"安南區","LI":"\u25A0南里","LIN":"30鄰","STREET":"安昌街","SECT":" ","MAREA":" ","LANE":"１７４巷","ALLEY":"１９１弄","HOUSE_NO":"９號","E_COORD97":170156.72,"N_COORD97":2552050.4500000002,"ADDRESS":"安昌街１７４巷１９１弄９號","OBJECTID":72991},"geometry":{"x":170156.72000000067,"y":2552050.4500000011}},{"attributes":{"ID":72992,"DIS_CODE":0,"TOWNNAME":"仁德區","LI":"成功里","LIN":"30鄰","STREET":"成功一街","SECT":" ","MAREA":" ","LANE":"１巷","ALLEY":"２４弄","HOUSE_NO":"２號","E_COORD97":170655.76000000001,"N_COORD97":2540204.52,"ADDRESS":"成功一街１巷２４弄２號","OBJECTID":72992},"geometry":{"x":170655.76000000164,"y":2540204.5199999996}},{"attributes":{"ID":72993,"DIS_CODE":0,"TOWNNAME":"仁德區","LI":"成功里","LIN":"30鄰","STREET":"成功一街","SECT":" ","MAREA":" ","LANE":"１巷","ALLEY":"２４弄","HOUSE_NO":"８號","E_COORD97":170653.35000000001,"N_COORD97":2540181.3500000001,"ADDRESS":"成功一街１巷２４弄８號","OBJECTID":72993},"geometry":{"x":170653.35000000149,"y":2540181.3500000015}},{"attributes":{"ID":72994,"DIS_CODE":0,"TOWNNAME":"仁德區","LI":"成功里","LIN":"30鄰","STREET":"成功一街","SECT":" ","MAREA":" ","LANE":"１巷","ALLEY":"２２弄","HOUSE_NO":"１號","E_COORD97":170641.42999999999,"N_COORD97":2540211.27,"ADDRESS":"成功一街１巷２２弄１號","OBJECTID":72994},"geometry":{"x":170641.43000000063,"y":2540211.2700000033}},{"attributes":{"ID":72995,"DIS_CODE":0,"TOWNNAME":"下營區","LI":"西連里","LIN":"6鄰","STREET":" ","SECT":" ","MAREA":"西寮","LANE":" ","ALLEY":" ","HOUSE_NO":"１３號之８","E_COORD97":174451.07999999999,"N_COORD97":2567721.8500000001,"ADDRESS":"西寮１３號之８","OBJECTID":72995},"geometry":{"x":174451.08000000194,"y":2567721.8500000015}},{"attributes":{"ID":72996,"DIS_CODE":0,"TOWNNAME":"下營區","LI":"西連里","LIN":"6鄰","STREET":" ","SECT":" ","MAREA":"西寮","LANE":" ","ALLEY":" ","HOUSE_NO":"１３號之９","E_COORD97":174516.48999999999,"N_COORD97":2567596.2599999998,"ADDRESS":"西寮１３號之９","OBJECTID":72996},"geometry":{"x":174516.49000000115,"y":2567596.2600000016}},{"attributes":{"ID":72997,"DIS_CODE":0,"TOWNNAME":"下營區","LI":"西連里","LIN":"6鄰","STREET":" ","SECT":" ","MAREA":"西寮","LANE":" ","ALLEY":" ","HOUSE_NO":"１３號","E_COORD97":174516.32000000001,"N_COORD97":2567551.46,"ADDRESS":"西寮１３號","OBJECTID":72997},"geometry":{"x":174516.32000000123,"y":2567551.4600000046}},{"attributes":{"ID":72998,"DIS_CODE":0,"TOWNNAME":"下營區","LI":"西連里","LIN":"6鄰","STREET":" ","SECT":" ","MAREA":"西寮","LANE":" ","ALLEY":" ","HOUSE_NO":"１５號","E_COORD97":174572.35999999999,"N_COORD97":2567513,"ADDRESS":"西寮１５號","OBJECTID":72998},"geometry":{"x":174572.36000000127,"y":2567513.0000000037}},{"attributes":{"ID":72999,"DIS_CODE":0,"TOWNNAME":"下營區","LI":"紅厝里","LIN":"6鄰","STREET":" ","SECT":" ","MAREA":"紅毛厝","LANE":" ","ALLEY":" ","HOUSE_NO":"４１號","E_COORD97":174888.10999999999,"N_COORD97":2571782.9100000001,"ADDRESS":"紅毛厝４１號","OBJECTID":72999},"geometry":{"x":174888.11000000034,"y":2571782.910000002}},{"attributes":{"ID":73000,"DIS_CODE":0,"TOWNNAME":"下營區","LI":"茅港里","LIN":"6鄰","STREET":" ","SECT":" ","MAREA":"茅港尾","LANE":" ","ALLEY":" ","HOUSE_NO":"１１１號","E_COORD97":176724.63,"N_COORD97":2568614.4900000002,"ADDRESS":"茅港尾１１１號","OBJECTID":73000},"geometry":{"x":176724.63000000082,"y":2568614.4900000002}}]}