{"displayFieldName":"TOWNNAME","fieldAliases":{"ID":"ID","DIS_CODE":"DIS_CODE","TOWNNAME":"TOWNNAME","LI":"LI","LIN":"LIN","STREET":"STREET","SECT":"SECT","MAREA":"MAREA","LANE":"LANE","ALLEY":"ALLEY","HOUSE_NO":"HOUSE_NO","E_COORD97":"E_COORD97","N_COORD97":"N_COORD97","ADDRESS":"ADDRESS","OBJECTID":"OBJECTID"},"geometryType":"esriGeometryPoint","spatialReference":{"wkid":102443,"latestWkid":3826},"fields":[{"name":"ID","type":"esriFieldTypeDouble","alias":"ID"},{"name":"DIS_CODE","type":"esriFieldTypeInteger","alias":"DIS_CODE"},{"name":"TOWNNAME","type":"esriFieldTypeString","alias":"TOWNNAME","length":8},{"name":"LI","type":"esriFieldTypeString","alias":"LI","length":8},{"name":"LIN","type":"esriFieldTypeString","alias":"LIN","length":12},{"name":"STREET","type":"esriFieldTypeString","alias":"STREET","length":20},{"name":"SECT","type":"esriFieldTypeString","alias":"SECT","length":8},{"name":"MAREA","type":"esriFieldTypeString","alias":"MAREA","length":12},{"name":"LANE","type":"esriFieldTypeString","alias":"LANE","length":10},{"name":"ALLEY","type":"esriFieldTypeString","alias":"ALLEY","length":10},{"name":"HOUSE_NO","type":"esriFieldTypeString","alias":"HOUSE_NO","length":20},{"name":"E_COORD97","type":"esriFieldTypeDouble","alias":"E_COORD97"},{"name":"N_COORD97","type":"esriFieldTypeDouble","alias":"N_COORD97"},{"name":"ADDRESS","type":"esriFieldTypeString","alias":"ADDRESS","length":50},{"name":"OBJECTID","type":"esriFieldTypeOID","alias":"OBJECTID"}],"features":[{"attributes":{"ID":198202,"DIS_CODE":0,"TOWNNAME":"南區","LI":"大忠里","LIN":"18鄰","STREET":"大同路","SECT":"二段","MAREA":" ","LANE":"６４０巷","ALLEY":"６８弄","HOUSE_NO":"８號","E_COORD97":169318.69,"N_COORD97":2541060.6099999999,"ADDRESS":"大同路二段６４０巷６８弄８號","OBJECTID":198201},"geometry":{"x":169318.69000000041,"y":2541060.6100000013}},{"attributes":{"ID":198203,"DIS_CODE":0,"TOWNNAME":"南區","LI":"大忠里","LIN":"18鄰","STREET":"大同路","SECT":"二段","MAREA":" ","LANE":"６４０巷","ALLEY":"６８弄","HOUSE_NO":"９號","E_COORD97":169301.60999999999,"N_COORD97":2541068.4199999999,"ADDRESS":"大同路二段６４０巷６８弄９號","OBJECTID":198202},"geometry":{"x":169301.61000000127,"y":2541068.4200000037}},{"attributes":{"ID":198204,"DIS_CODE":0,"TOWNNAME":"北區","LI":"大豐里","LIN":"18鄰","STREET":"大興街","SECT":" ","MAREA":" ","LANE":"２３３巷","ALLEY":"６弄","HOUSE_NO":"１號","E_COORD97":166834.64999999999,"N_COORD97":2545653.0699999998,"ADDRESS":"大興街２３３巷６弄１號","OBJECTID":198203},"geometry":{"x":166834.6500000013,"y":2545653.0700000022}},{"attributes":{"ID":198205,"DIS_CODE":0,"TOWNNAME":"北區","LI":"大豐里","LIN":"18鄰","STREET":"大興街","SECT":" ","MAREA":" ","LANE":"２３３巷","ALLEY":"６弄","HOUSE_NO":"３號","E_COORD97":166827.87,"N_COORD97":2545652.8799999999,"ADDRESS":"大興街２３３巷６弄３號","OBJECTID":198204},"geometry":{"x":166827.87000000104,"y":2545652.8800000008}},{"attributes":{"ID":198206,"DIS_CODE":0,"TOWNNAME":"北區","LI":"大豐里","LIN":"18鄰","STREET":"大興街","SECT":" ","MAREA":" ","LANE":"２３３巷","ALLEY":"６弄","HOUSE_NO":"５號","E_COORD97":166821.81,"N_COORD97":2545652.75,"ADDRESS":"大興街２３３巷６弄５號","OBJECTID":198205},"geometry":{"x":166821.80999999959,"y":2545652.75}},{"attributes":{"ID":198207,"DIS_CODE":0,"TOWNNAME":"東區","LI":"中西里","LIN":"21鄰","STREET":"長榮路","SECT":"二段","MAREA":" ","LANE":" ","ALLEY":" ","HOUSE_NO":"９０號","E_COORD97":170002.07000000001,"N_COORD97":2543242.5699999998,"ADDRESS":"長榮路二段９０號","OBJECTID":198206},"geometry":{"x":170002.07000000123,"y":2543242.5700000022}},{"attributes":{"ID":198208,"DIS_CODE":0,"TOWNNAME":"大內區","LI":"曲溪里","LIN":"3鄰","STREET":" ","SECT":" ","MAREA":"二重溪","LANE":" ","ALLEY":" ","HOUSE_NO":"２６之１號","E_COORD97":187425.29000000001,"N_COORD97":2557594.3100000001,"ADDRESS":"二重溪２６之１號","OBJECTID":198207},"geometry":{"x":187425.29000000097,"y":2557594.3100000042}},{"attributes":{"ID":198209,"DIS_CODE":0,"TOWNNAME":"大內區","LI":"石林里","LIN":"3鄰","STREET":" ","SECT":" ","MAREA":"石子瀨","LANE":" ","ALLEY":" ","HOUSE_NO":"１４９號","E_COORD97":184095.57000000001,"N_COORD97":2558081.25,"ADDRESS":"石子瀨１４９號","OBJECTID":198208},"geometry":{"x":184095.57000000123,"y":2558081.25}},{"attributes":{"ID":198210,"DIS_CODE":0,"TOWNNAME":"大內區","LI":"環湖里","LIN":"3鄰","STREET":" ","SECT":" ","MAREA":"環湖","LANE":" ","ALLEY":" ","HOUSE_NO":"２３號之１","E_COORD97":190712.07999999999,"N_COORD97":2560538.2999999998,"ADDRESS":"環湖２３號之１","OBJECTID":198209},"geometry":{"x":190712.08000000101,"y":2560538.3000000026}},{"attributes":{"ID":198211,"DIS_CODE":0,"TOWNNAME":"大內區","LI":"頭社里","LIN":"3鄰","STREET":" ","SECT":" ","MAREA":"頭社","LANE":" ","ALLEY":" ","HOUSE_NO":"４１號之５","E_COORD97":187172.23000000001,"N_COORD97":2560432.2999999998,"ADDRESS":"頭社４１號之５","OBJECTID":198210},"geometry":{"x":187172.23000000045,"y":2560432.3000000045}},{"attributes":{"ID":198212,"DIS_CODE":0,"TOWNNAME":"大內區","LI":"石林里","LIN":"3鄰","STREET":" ","SECT":" ","MAREA":"石子瀨","LANE":" ","ALLEY":" ","HOUSE_NO":"１４５號之１","E_COORD97":184068.20000000001,"N_COORD97":2558065.2999999998,"ADDRESS":"石子瀨１４５號之１","OBJECTID":198211},"geometry":{"x":184068.20000000019,"y":2558065.3000000007}},{"attributes":{"ID":198213,"DIS_CODE":0,"TOWNNAME":"大內區","LI":"頭社里","LIN":"3鄰","STREET":" ","SECT":" ","MAREA":"頭社","LANE":" ","ALLEY":" ","HOUSE_NO":"４３號之１","E_COORD97":187173.98000000001,"N_COORD97":2560306.2999999998,"ADDRESS":"頭社４３號之１","OBJECTID":198212},"geometry":{"x":187173.98000000045,"y":2560306.3000000007}},{"attributes":{"ID":198214,"DIS_CODE":0,"TOWNNAME":"大內區","LI":"石城里","LIN":"3鄰","STREET":" ","SECT":" ","MAREA":"石子瀨","LANE":" ","ALLEY":" ","HOUSE_NO":"２８號之１","E_COORD97":184285.75,"N_COORD97":2558002.2999999998,"ADDRESS":"石子瀨２８號之１","OBJECTID":198213},"geometry":{"x":184285.75000000093,"y":2558002.3000000026}},{"attributes":{"ID":198215,"DIS_CODE":0,"TOWNNAME":"大內區","LI":"環湖里","LIN":"3鄰","STREET":" ","SECT":" ","MAREA":"環湖","LANE":" ","ALLEY":" ","HOUSE_NO":"２２號之５","E_COORD97":190688.23000000001,"N_COORD97":2560476.2999999998,"ADDRESS":"環湖２２號之５","OBJECTID":198214},"geometry":{"x":190688.23000000045,"y":2560476.2999999989}},{"attributes":{"ID":198216,"DIS_CODE":0,"TOWNNAME":"大內區","LI":"二溪里","LIN":"3鄰","STREET":" ","SECT":" ","MAREA":"二重溪","LANE":" ","ALLEY":" ","HOUSE_NO":"１５９號","E_COORD97":187738.14000000001,"N_COORD97":2558035.3100000001,"ADDRESS":"二重溪１５９號","OBJECTID":198215},"geometry":{"x":187738.13999999966,"y":2558035.3100000042}},{"attributes":{"ID":198217,"DIS_CODE":0,"TOWNNAME":"大內區","LI":"內郭里","LIN":"3鄰","STREET":" ","SECT":" ","MAREA":"內庄","LANE":" ","ALLEY":" ","HOUSE_NO":"１７２號之６","E_COORD97":184744.12,"N_COORD97":2557410.2999999998,"ADDRESS":"內庄１７２號之６","OBJECTID":198216},"geometry":{"x":184744.12000000197,"y":2557410.3000000007}},{"attributes":{"ID":198218,"DIS_CODE":0,"TOWNNAME":"大內區","LI":"大內里","LIN":"3鄰","STREET":" ","SECT":" ","MAREA":"內庄","LANE":" ","ALLEY":" ","HOUSE_NO":"３４號","E_COORD97":184617.42999999999,"N_COORD97":2557463.25,"ADDRESS":"內庄３４號","OBJECTID":198217},"geometry":{"x":184617.4299999997,"y":2557463.2500000019}},{"attributes":{"ID":198219,"DIS_CODE":0,"TOWNNAME":"大內區","LI":"大內里","LIN":"3鄰","STREET":" ","SECT":" ","MAREA":"內庄","LANE":" ","ALLEY":" ","HOUSE_NO":"２８號","E_COORD97":184587.32999999999,"N_COORD97":2557474.25,"ADDRESS":"內庄２８號","OBJECTID":198218},"geometry":{"x":184587.33000000101,"y":2557474.25}},{"attributes":{"ID":198220,"DIS_CODE":0,"TOWNNAME":"大內區","LI":"大內里","LIN":"3鄰","STREET":" ","SECT":" ","MAREA":"內庄","LANE":" ","ALLEY":" ","HOUSE_NO":"３１號","E_COORD97":184598.73000000001,"N_COORD97":2557464.25,"ADDRESS":"內庄３１號","OBJECTID":198219},"geometry":{"x":184598.73000000138,"y":2557464.25}},{"attributes":{"ID":198221,"DIS_CODE":0,"TOWNNAME":"大內區","LI":"大內里","LIN":"3鄰","STREET":" ","SECT":" ","MAREA":"內庄","LANE":" ","ALLEY":" ","HOUSE_NO":"４０號","E_COORD97":184594.23000000001,"N_COORD97":2557486.25,"ADDRESS":"內庄４０號","OBJECTID":198220},"geometry":{"x":184594.23000000045,"y":2557486.2500000019}},{"attributes":{"ID":198222,"DIS_CODE":0,"TOWNNAME":"大內區","LI":"內江里","LIN":"3鄰","STREET":" ","SECT":" ","MAREA":"內庄","LANE":" ","ALLEY":" ","HOUSE_NO":"２３６號之１","E_COORD97":184711.70999999999,"N_COORD97":2557417.2999999998,"ADDRESS":"內庄２３６號之１","OBJECTID":198221},"geometry":{"x":184711.71000000089,"y":2557417.3000000007}},{"attributes":{"ID":198223,"DIS_CODE":0,"TOWNNAME":"大內區","LI":"大內里","LIN":"3鄰","STREET":" ","SECT":" ","MAREA":"內庄","LANE":" ","ALLEY":" ","HOUSE_NO":"２９號","E_COORD97":184589.73000000001,"N_COORD97":2557471.25,"ADDRESS":"內庄２９號","OBJECTID":198222},"geometry":{"x":184589.73000000138,"y":2557471.25}},{"attributes":{"ID":198224,"DIS_CODE":0,"TOWNNAME":"大內區","LI":"大內里","LIN":"3鄰","STREET":" ","SECT":" ","MAREA":"內庄","LANE":" ","ALLEY":" ","HOUSE_NO":"３４號之１","E_COORD97":184622.06,"N_COORD97":2557460.2999999998,"ADDRESS":"內庄３４號之１","OBJECTID":198223},"geometry":{"x":184622.06000000052,"y":2557460.3000000026}},{"attributes":{"ID":198225,"DIS_CODE":0,"TOWNNAME":"大內區","LI":"大內里","LIN":"3鄰","STREET":" ","SECT":" ","MAREA":"內庄","LANE":" ","ALLEY":" ","HOUSE_NO":"３４號之２","E_COORD97":184625.5,"N_COORD97":2557457.2999999998,"ADDRESS":"內庄３４號之２","OBJECTID":198224},"geometry":{"x":184625.5,"y":2557457.3000000026}},{"attributes":{"ID":198226,"DIS_CODE":0,"TOWNNAME":"麻豆區","LI":"北勢里","LIN":"3鄰","STREET":" ","SECT":" ","MAREA":"加輦邦","LANE":" ","ALLEY":" ","HOUSE_NO":"２７號","E_COORD97":173295.48999999999,"N_COORD97":2566283.4700000002,"ADDRESS":"加輦邦２７號","OBJECTID":198225},"geometry":{"x":173295.49000000022,"y":2566283.4700000025}},{"attributes":{"ID":198227,"DIS_CODE":0,"TOWNNAME":"麻豆區","LI":"北勢里","LIN":"3鄰","STREET":" ","SECT":" ","MAREA":"加輦邦","LANE":" ","ALLEY":" ","HOUSE_NO":"２８號之１","E_COORD97":172965.09,"N_COORD97":2566306.75,"ADDRESS":"加輦邦２８號之１","OBJECTID":198226},"geometry":{"x":172965.08999999985,"y":2566306.75}},{"attributes":{"ID":198228,"DIS_CODE":0,"TOWNNAME":"麻豆區","LI":"北勢里","LIN":"3鄰","STREET":" ","SECT":" ","MAREA":"加輦邦","LANE":" ","ALLEY":" ","HOUSE_NO":"２８號","E_COORD97":172975.67000000001,"N_COORD97":2566323.1099999999,"ADDRESS":"加輦邦２８號","OBJECTID":198227},"geometry":{"x":172975.67000000179,"y":2566323.1099999994}},{"attributes":{"ID":198229,"DIS_CODE":0,"TOWNNAME":"白河區","LI":"昇安里","LIN":"3鄰","STREET":" ","SECT":" ","MAREA":"三間厝","LANE":" ","ALLEY":" ","HOUSE_NO":"３０之１９號","E_COORD97":191559.76000000001,"N_COORD97":2584796.54,"ADDRESS":"三間厝３０之１９號","OBJECTID":198228},"geometry":{"x":191559.76000000071,"y":2584796.540000001}},{"attributes":{"ID":198230,"DIS_CODE":0,"TOWNNAME":"北區","LI":"大豐里","LIN":"18鄰","STREET":"大興街","SECT":" ","MAREA":" ","LANE":"２３３巷","ALLEY":"６弄","HOUSE_NO":"６號","E_COORD97":166821.42000000001,"N_COORD97":2545661.3700000001,"ADDRESS":"大興街２３３巷６弄６號","OBJECTID":198229},"geometry":{"x":166821.41999999993,"y":2545661.3700000029}},{"attributes":{"ID":198231,"DIS_CODE":0,"TOWNNAME":"北區","LI":"大豐里","LIN":"18鄰","STREET":"大興街","SECT":" ","MAREA":" ","LANE":"２３３巷","ALLEY":"６弄","HOUSE_NO":"７號","E_COORD97":166815.09,"N_COORD97":2545652.4300000002,"ADDRESS":"大興街２３３巷６弄７號","OBJECTID":198230},"geometry":{"x":166815.08999999985,"y":2545652.4300000016}},{"attributes":{"ID":198232,"DIS_CODE":0,"TOWNNAME":"白河區","LI":"昇安里","LIN":"3鄰","STREET":" ","SECT":" ","MAREA":"三間厝","LANE":" ","ALLEY":" ","HOUSE_NO":"３０之１號","E_COORD97":191539.64999999999,"N_COORD97":2584788.8100000001,"ADDRESS":"三間厝３０之１號","OBJECTID":198231},"geometry":{"x":191539.65000000037,"y":2584788.8100000042}},{"attributes":{"ID":198233,"DIS_CODE":0,"TOWNNAME":"白河區","LI":"昇安里","LIN":"3鄰","STREET":" ","SECT":" ","MAREA":"三間厝","LANE":" ","ALLEY":" ","HOUSE_NO":"３０之２０號","E_COORD97":191699.45999999999,"N_COORD97":2584848.7599999998,"ADDRESS":"三間厝３０之２０號","OBJECTID":198232},"geometry":{"x":191699.46000000089,"y":2584848.7599999998}},{"attributes":{"ID":198234,"DIS_CODE":0,"TOWNNAME":"白河區","LI":"昇安里","LIN":"3鄰","STREET":" ","SECT":" ","MAREA":"三間厝","LANE":" ","ALLEY":" ","HOUSE_NO":"３０之２１號","E_COORD97":191703.17000000001,"N_COORD97":2584849.48,"ADDRESS":"三間厝３０之２１號","OBJECTID":198233},"geometry":{"x":191703.16999999993,"y":2584849.4800000023}},{"attributes":{"ID":198235,"DIS_CODE":0,"TOWNNAME":"白河區","LI":"昇安里","LIN":"3鄰","STREET":" ","SECT":" ","MAREA":"三間厝","LANE":" ","ALLEY":" ","HOUSE_NO":"３０之２２號","E_COORD97":191706.88,"N_COORD97":2584850.21,"ADDRESS":"三間厝３０之２２號","OBJECTID":198234},"geometry":{"x":191706.87999999989,"y":2584850.2100000009}},{"attributes":{"ID":198236,"DIS_CODE":0,"TOWNNAME":"白河區","LI":"昇安里","LIN":"3鄰","STREET":" ","SECT":" ","MAREA":"三間厝","LANE":" ","ALLEY":" ","HOUSE_NO":"３０之２３號","E_COORD97":191710.59,"N_COORD97":2584850.9300000002,"ADDRESS":"三間厝３０之２３號","OBJECTID":198235},"geometry":{"x":191710.58999999985,"y":2584850.9299999997}},{"attributes":{"ID":198237,"DIS_CODE":0,"TOWNNAME":"白河區","LI":"昇安里","LIN":"3鄰","STREET":" ","SECT":" ","MAREA":"三間厝","LANE":" ","ALLEY":" ","HOUSE_NO":"３０之２４號","E_COORD97":191714.29999999999,"N_COORD97":2584851.6600000001,"ADDRESS":"三間厝３０之２４號","OBJECTID":198236},"geometry":{"x":191714.29999999981,"y":2584851.660000002}},{"attributes":{"ID":198238,"DIS_CODE":0,"TOWNNAME":"白河區","LI":"昇安里","LIN":"3鄰","STREET":" ","SECT":" ","MAREA":"三間厝","LANE":" ","ALLEY":" ","HOUSE_NO":"３０之２５號","E_COORD97":191718.01000000001,"N_COORD97":2584852.3799999999,"ADDRESS":"三間厝３０之２５號","OBJECTID":198237},"geometry":{"x":191718.00999999978,"y":2584852.3800000008}},{"attributes":{"ID":198239,"DIS_CODE":0,"TOWNNAME":"白河區","LI":"昇安里","LIN":"3鄰","STREET":" ","SECT":" ","MAREA":"三間厝","LANE":" ","ALLEY":" ","HOUSE_NO":"３０之２６號","E_COORD97":191721.72,"N_COORD97":2584853.1099999999,"ADDRESS":"三間厝３０之２６號","OBJECTID":198238},"geometry":{"x":191721.71999999974,"y":2584853.1100000031}},{"attributes":{"ID":198240,"DIS_CODE":0,"TOWNNAME":"北區","LI":"大豐里","LIN":"18鄰","STREET":"大興街","SECT":" ","MAREA":" ","LANE":"２３３巷","ALLEY":"６弄","HOUSE_NO":"９號","E_COORD97":166809.41,"N_COORD97":2545652.6200000001,"ADDRESS":"大興街２３３巷６弄９號","OBJECTID":198239},"geometry":{"x":166809.41000000108,"y":2545652.6200000029}},{"attributes":{"ID":198241,"DIS_CODE":0,"TOWNNAME":"北區","LI":"大豐里","LIN":"18鄰","STREET":"大興街","SECT":" ","MAREA":" ","LANE":"２３３巷","ALLEY":"６弄","HOUSE_NO":"１０號","E_COORD97":166809.60999999999,"N_COORD97":2545661.0499999998,"ADDRESS":"大興街２３３巷６弄１０號","OBJECTID":198240},"geometry":{"x":166809.61000000127,"y":2545661.0500000007}},{"attributes":{"ID":198242,"DIS_CODE":0,"TOWNNAME":"北區","LI":"大豐里","LIN":"18鄰","STREET":"大興街","SECT":" ","MAREA":" ","LANE":"２３３巷","ALLEY":"６弄","HOUSE_NO":"１１號","E_COORD97":166802.89000000001,"N_COORD97":2545652.1699999999,"ADDRESS":"大興街２３３巷６弄１１號","OBJECTID":198241},"geometry":{"x":166802.88999999966,"y":2545652.1699999999}},{"attributes":{"ID":198243,"DIS_CODE":0,"TOWNNAME":"北區","LI":"大豐里","LIN":"18鄰","STREET":"大興街","SECT":" ","MAREA":" ","LANE":"２３３巷","ALLEY":"６弄","HOUSE_NO":"１２號","E_COORD97":166803.01999999999,"N_COORD97":2545660.73,"ADDRESS":"大興街２３３巷６弄１２號","OBJECTID":198242},"geometry":{"x":166803.02000000048,"y":2545660.7300000042}},{"attributes":{"ID":198244,"DIS_CODE":0,"TOWNNAME":"北區","LI":"大豐里","LIN":"18鄰","STREET":"大興街","SECT":" ","MAREA":" ","LANE":"２３３巷","ALLEY":"６弄","HOUSE_NO":"１３號","E_COORD97":166796.54999999999,"N_COORD97":2545652.3999999999,"ADDRESS":"大興街２３３巷６弄１３號","OBJECTID":198243},"geometry":{"x":166796.54999999981,"y":2545652.4000000004}},{"attributes":{"ID":198245,"DIS_CODE":0,"TOWNNAME":"北區","LI":"大豐里","LIN":"18鄰","STREET":"大興街","SECT":" ","MAREA":" ","LANE":"２３３巷","ALLEY":"６弄","HOUSE_NO":"１４號","E_COORD97":166796.42000000001,"N_COORD97":2545660.9100000001,"ADDRESS":"大興街２３３巷６弄１４號","OBJECTID":198244},"geometry":{"x":166796.41999999993,"y":2545660.9100000001}},{"attributes":{"ID":198246,"DIS_CODE":0,"TOWNNAME":"安南區","LI":"\u25A0南里","LIN":"21鄰","STREET":"環福街","SECT":" ","MAREA":" ","LANE":"１７０巷","ALLEY":" ","HOUSE_NO":"１１號","E_COORD97":170395.78,"N_COORD97":2552662.8700000001,"ADDRESS":"環福街１７０巷１１號","OBJECTID":198245},"geometry":{"x":170395.78000000119,"y":2552662.8700000029}},{"attributes":{"ID":198247,"DIS_CODE":0,"TOWNNAME":"永康區","LI":"西灣里","LIN":"40鄰","STREET":"國光六街","SECT":" ","MAREA":" ","LANE":" ","ALLEY":" ","HOUSE_NO":"６６號","E_COORD97":174143.76000000001,"N_COORD97":2545316.3500000001,"ADDRESS":"國光六街６６號","OBJECTID":198246},"geometry":{"x":174143.75999999978,"y":2545316.3499999978}},{"attributes":{"ID":198248,"DIS_CODE":0,"TOWNNAME":"永康區","LI":"龍潭里","LIN":"40鄰","STREET":"永平街","SECT":" ","MAREA":" ","LANE":" ","ALLEY":" ","HOUSE_NO":"７９７號","E_COORD97":174623.29000000001,"N_COORD97":2547192.7000000002,"ADDRESS":"永平街７９７號","OBJECTID":198247},"geometry":{"x":174623.29000000097,"y":2547192.7000000011}},{"attributes":{"ID":198249,"DIS_CODE":0,"TOWNNAME":"永康區","LI":"\u25A0洲里","LIN":"40鄰","STREET":"正南六街","SECT":" ","MAREA":" ","LANE":" ","ALLEY":" ","HOUSE_NO":"８７號","E_COORD97":170878.51000000001,"N_COORD97":2548610.0699999998,"ADDRESS":"正南六街８７號","OBJECTID":198248},"geometry":{"x":170878.51000000071,"y":2548610.0700000003}},{"attributes":{"ID":198250,"DIS_CODE":0,"TOWNNAME":"永康區","LI":"\u25A0洲里","LIN":"40鄰","STREET":"洲工街","SECT":" ","MAREA":" ","LANE":" ","ALLEY":" ","HOUSE_NO":"１６１號","E_COORD97":170712.91,"N_COORD97":2548650.52,"ADDRESS":"洲工街１６１號","OBJECTID":198249},"geometry":{"x":170712.91000000201,"y":2548650.5199999996}},{"attributes":{"ID":198251,"DIS_CODE":0,"TOWNNAME":"永康區","LI":"\u25A0洲里","LIN":"40鄰","STREET":"洲工街","SECT":" ","MAREA":" ","LANE":" ","ALLEY":" ","HOUSE_NO":"１６４號","E_COORD97":170743.56,"N_COORD97":2548666.7400000002,"ADDRESS":"洲工街１６４號","OBJECTID":198250},"geometry":{"x":170743.56000000052,"y":2548666.7400000002}},{"attributes":{"ID":198252,"DIS_CODE":0,"TOWNNAME":"永康區","LI":"\u25A0行里","LIN":"40鄰","STREET":"永安路","SECT":" ","MAREA":" ","LANE":" ","ALLEY":" ","HOUSE_NO":"１１３號之３","E_COORD97":172688.04000000001,"N_COORD97":2549372.8100000001,"ADDRESS":"永安路１１３號之３","OBJECTID":198251},"geometry":{"x":172688.04000000004,"y":2549372.8100000042}},{"attributes":{"ID":198253,"DIS_CODE":0,"TOWNNAME":"永康區","LI":"龍潭里","LIN":"40鄰","STREET":"永明街","SECT":" ","MAREA":" ","LANE":" ","ALLEY":" ","HOUSE_NO":"３１６號","E_COORD97":174560.32999999999,"N_COORD97":2547189.3300000001,"ADDRESS":"永明街３１６號","OBJECTID":198252},"geometry":{"x":174560.33000000101,"y":2547189.3300000019}},{"attributes":{"ID":198254,"DIS_CODE":0,"TOWNNAME":"永康區","LI":"龍潭里","LIN":"40鄰","STREET":"永明街","SECT":" ","MAREA":" ","LANE":" ","ALLEY":" ","HOUSE_NO":"３１２號","E_COORD97":174556.84,"N_COORD97":2547189.3300000001,"ADDRESS":"永明街３１２號","OBJECTID":198253},"geometry":{"x":174556.83999999985,"y":2547189.3300000019}},{"attributes":{"ID":198255,"DIS_CODE":0,"TOWNNAME":"永康區","LI":"\u25A0行里","LIN":"40鄰","STREET":"永安路","SECT":" ","MAREA":" ","LANE":" ","ALLEY":" ","HOUSE_NO":"１３５號","E_COORD97":172624.17000000001,"N_COORD97":2549443.8300000001,"ADDRESS":"永安路１３５號","OBJECTID":198254},"geometry":{"x":172624.16999999993,"y":2549443.8300000019}},{"attributes":{"ID":198256,"DIS_CODE":0,"TOWNNAME":"北區","LI":"大豐里","LIN":"18鄰","STREET":"大興街","SECT":" ","MAREA":" ","LANE":"２３３巷","ALLEY":"６弄","HOUSE_NO":"１５號","E_COORD97":166789.84,"N_COORD97":2545652.4700000002,"ADDRESS":"大興街２３３巷６弄１５號","OBJECTID":198255},"geometry":{"x":166789.83999999985,"y":2545652.4700000044}},{"attributes":{"ID":198257,"DIS_CODE":0,"TOWNNAME":"北區","LI":"大豐里","LIN":"18鄰","STREET":"大興街","SECT":" ","MAREA":" ","LANE":"２３３巷","ALLEY":"６弄","HOUSE_NO":"１６號","E_COORD97":166790.54999999999,"N_COORD97":2545660.7200000002,"ADDRESS":"大興街２３３巷６弄１６號","OBJECTID":198256},"geometry":{"x":166790.55000000168,"y":2545660.7200000007}},{"attributes":{"ID":198258,"DIS_CODE":0,"TOWNNAME":"善化區","LI":"溪美里","LIN":"19鄰","STREET":" ","SECT":" ","MAREA":"溪尾","LANE":" ","ALLEY":" ","HOUSE_NO":"２２８號之４","E_COORD97":177262.63,"N_COORD97":2561508.77,"ADDRESS":"溪尾２２８號之４","OBJECTID":198257},"geometry":{"x":177262.62999999989,"y":2561508.7699999996}},{"attributes":{"ID":198259,"DIS_CODE":0,"TOWNNAME":"北區","LI":"大豐里","LIN":"18鄰","STREET":"大興街","SECT":" ","MAREA":" ","LANE":"２３３巷","ALLEY":"６弄","HOUSE_NO":"１７號","E_COORD97":166783.70999999999,"N_COORD97":2545652.3999999999,"ADDRESS":"大興街２３３巷６弄１７號","OBJECTID":198258},"geometry":{"x":166783.70999999996,"y":2545652.4000000004}},{"attributes":{"ID":198260,"DIS_CODE":0,"TOWNNAME":"北區","LI":"大豐里","LIN":"18鄰","STREET":"大興街","SECT":" ","MAREA":" ","LANE":"２３３巷","ALLEY":"６弄","HOUSE_NO":"１８號","E_COORD97":166783.97,"N_COORD97":2545660.7799999998,"ADDRESS":"大興街２３３巷６弄１８號","OBJECTID":198259},"geometry":{"x":166783.96999999974,"y":2545660.7800000012}},{"attributes":{"ID":198261,"DIS_CODE":0,"TOWNNAME":"北區","LI":"大豐里","LIN":"18鄰","STREET":"大興街","SECT":" ","MAREA":" ","LANE":"２３３巷","ALLEY":"６弄","HOUSE_NO":"１９號","E_COORD97":166777.19,"N_COORD97":2545652.27,"ADDRESS":"大興街２３３巷６弄１９號","OBJECTID":198260},"geometry":{"x":166777.19000000134,"y":2545652.2699999996}},{"attributes":{"ID":198262,"DIS_CODE":0,"TOWNNAME":"北區","LI":"大豐里","LIN":"18鄰","STREET":"大興街","SECT":" ","MAREA":" ","LANE":"２３３巷","ALLEY":"６弄","HOUSE_NO":"２０號","E_COORD97":166777.57999999999,"N_COORD97":2545660.7200000002,"ADDRESS":"大興街２３３巷６弄２０號","OBJECTID":198261},"geometry":{"x":166777.58000000101,"y":2545660.7200000007}},{"attributes":{"ID":198263,"DIS_CODE":0,"TOWNNAME":"善化區","LI":"溪美里","LIN":"19鄰","STREET":" ","SECT":" ","MAREA":"溪尾","LANE":" ","ALLEY":" ","HOUSE_NO":"２２８號之３","E_COORD97":177270.20999999999,"N_COORD97":2561509.27,"ADDRESS":"溪尾２２８號之３","OBJECTID":198262},"geometry":{"x":177270.20999999996,"y":2561509.2699999977}},{"attributes":{"ID":198264,"DIS_CODE":0,"TOWNNAME":"善化區","LI":"溪美里","LIN":"19鄰","STREET":" ","SECT":" ","MAREA":"溪尾","LANE":" ","ALLEY":" ","HOUSE_NO":"２２７號之６","E_COORD97":177299.39999999999,"N_COORD97":2561510.27,"ADDRESS":"溪尾２２７號之６","OBJECTID":198263},"geometry":{"x":177299.4000000013,"y":2561510.2700000014}},{"attributes":{"ID":198265,"DIS_CODE":0,"TOWNNAME":"新市區","LI":"社內里","LIN":"21鄰","STREET":" ","SECT":" ","MAREA":"社內","LANE":" ","ALLEY":" ","HOUSE_NO":"２１５號","E_COORD97":175561.85999999999,"N_COORD97":2553125.25,"ADDRESS":"社內２１５號","OBJECTID":198264},"geometry":{"x":175561.86000000127,"y":2553125.25}},{"attributes":{"ID":198266,"DIS_CODE":0,"TOWNNAME":"善化區","LI":"小新里","LIN":"21鄰","STREET":" ","SECT":" ","MAREA":"小新營","LANE":" ","ALLEY":" ","HOUSE_NO":"３１９號","E_COORD97":180188.95999999999,"N_COORD97":2558476.25,"ADDRESS":"小新營３１９號","OBJECTID":198265},"geometry":{"x":180188.96000000089,"y":2558476.2500000019}},{"attributes":{"ID":198267,"DIS_CODE":0,"TOWNNAME":"白河區","LI":"昇安里","LIN":"3鄰","STREET":" ","SECT":" ","MAREA":"三間厝","LANE":" ","ALLEY":" ","HOUSE_NO":"３０之２７號","E_COORD97":191725.42999999999,"N_COORD97":2584853.8300000001,"ADDRESS":"三間厝３０之２７號","OBJECTID":198266},"geometry":{"x":191725.4299999997,"y":2584853.8300000019}},{"attributes":{"ID":198268,"DIS_CODE":0,"TOWNNAME":"白河區","LI":"昇安里","LIN":"3鄰","STREET":" ","SECT":" ","MAREA":"三間厝","LANE":" ","ALLEY":" ","HOUSE_NO":"３０之２８號","E_COORD97":191718.39999999999,"N_COORD97":2584868.6299999999,"ADDRESS":"三間厝３０之２８號","OBJECTID":198267},"geometry":{"x":191718.4000000013,"y":2584868.629999999}},{"attributes":{"ID":198269,"DIS_CODE":0,"TOWNNAME":"白河區","LI":"昇安里","LIN":"3鄰","STREET":" ","SECT":" ","MAREA":"三間厝","LANE":" ","ALLEY":" ","HOUSE_NO":"３０之２號","E_COORD97":191567.67000000001,"N_COORD97":2584791.3100000001,"ADDRESS":"三間厝３０之２號","OBJECTID":198268},"geometry":{"x":191567.66999999993,"y":2584791.3100000005}},{"attributes":{"ID":198270,"DIS_CODE":0,"TOWNNAME":"白河區","LI":"昇安里","LIN":"3鄰","STREET":" ","SECT":" ","MAREA":"三間厝","LANE":" ","ALLEY":" ","HOUSE_NO":"３０之３號","E_COORD97":191535.12,"N_COORD97":2584786.9900000002,"ADDRESS":"三間厝３０之３號","OBJECTID":198269},"geometry":{"x":191535.12000000197,"y":2584786.9900000039}},{"attributes":{"ID":198271,"DIS_CODE":0,"TOWNNAME":"白河區","LI":"昇安里","LIN":"3鄰","STREET":" ","SECT":" ","MAREA":"三間厝","LANE":" ","ALLEY":" ","HOUSE_NO":"３０之４號","E_COORD97":191572.73000000001,"N_COORD97":2584821.48,"ADDRESS":"三間厝３０之４號","OBJECTID":198270},"geometry":{"x":191572.73000000138,"y":2584821.4800000042}},{"attributes":{"ID":198272,"DIS_CODE":0,"TOWNNAME":"白河區","LI":"昇安里","LIN":"3鄰","STREET":" ","SECT":" ","MAREA":"三間厝","LANE":" ","ALLEY":" ","HOUSE_NO":"３０之６號","E_COORD97":191618.22,"N_COORD97":2584833.29,"ADDRESS":"三間厝３０之６號","OBJECTID":198271},"geometry":{"x":191618.21999999974,"y":2584833.2899999991}},{"attributes":{"ID":198273,"DIS_CODE":0,"TOWNNAME":"白河區","LI":"昇安里","LIN":"3鄰","STREET":" ","SECT":" ","MAREA":"三間厝","LANE":" ","ALLEY":" ","HOUSE_NO":"３１之２號","E_COORD97":191603.98999999999,"N_COORD97":2584821.4500000002,"ADDRESS":"三間厝３１之２號","OBJECTID":198272},"geometry":{"x":191603.99000000115,"y":2584821.4500000011}},{"attributes":{"ID":198274,"DIS_CODE":0,"TOWNNAME":"白河區","LI":"昇安里","LIN":"3鄰","STREET":" ","SECT":" ","MAREA":"三間厝","LANE":" ","ALLEY":" ","HOUSE_NO":"３１之３號","E_COORD97":191608.95999999999,"N_COORD97":2584823.5,"ADDRESS":"三間厝３１之３號","OBJECTID":198273},"geometry":{"x":191608.96000000183,"y":2584823.5}},{"attributes":{"ID":198275,"DIS_CODE":0,"TOWNNAME":"白河區","LI":"昇安里","LIN":"3鄰","STREET":" ","SECT":" ","MAREA":"三間厝","LANE":" ","ALLEY":" ","HOUSE_NO":"３１號","E_COORD97":191594.06,"N_COORD97":2584817.3399999999,"ADDRESS":"三間厝３１號","OBJECTID":198274},"geometry":{"x":191594.05999999959,"y":2584817.3399999999}},{"attributes":{"ID":198276,"DIS_CODE":0,"TOWNNAME":"白河區","LI":"昇安里","LIN":"3鄰","STREET":" ","SECT":" ","MAREA":"三間厝","LANE":" ","ALLEY":" ","HOUSE_NO":"３２之１號","E_COORD97":191593.14999999999,"N_COORD97":2584780.9500000002,"ADDRESS":"三間厝３２之１號","OBJECTID":198275},"geometry":{"x":191593.1500000013,"y":2584780.9500000011}},{"attributes":{"ID":198277,"DIS_CODE":0,"TOWNNAME":"白河區","LI":"昇安里","LIN":"3鄰","STREET":" ","SECT":" ","MAREA":"三間厝","LANE":" ","ALLEY":" ","HOUSE_NO":"３２之２號","E_COORD97":191588.76000000001,"N_COORD97":2584778.79,"ADDRESS":"三間厝３２之２號","OBJECTID":198276},"geometry":{"x":191588.76000000071,"y":2584778.7899999991}},{"attributes":{"ID":198278,"DIS_CODE":0,"TOWNNAME":"白河區","LI":"昇安里","LIN":"3鄰","STREET":" ","SECT":" ","MAREA":"三間厝","LANE":" ","ALLEY":" ","HOUSE_NO":"３２之３號","E_COORD97":191584.35999999999,"N_COORD97":2584776.6299999999,"ADDRESS":"三間厝３２之３號","OBJECTID":198277},"geometry":{"x":191584.3599999994,"y":2584776.629999999}},{"attributes":{"ID":198279,"DIS_CODE":0,"TOWNNAME":"白河區","LI":"昇安里","LIN":"3鄰","STREET":" ","SECT":" ","MAREA":"三間厝","LANE":" ","ALLEY":" ","HOUSE_NO":"３２之４號","E_COORD97":191579.97,"N_COORD97":2584774.46,"ADDRESS":"三間厝３２之４號","OBJECTID":198278},"geometry":{"x":191579.97000000067,"y":2584774.4600000046}},{"attributes":{"ID":198280,"DIS_CODE":0,"TOWNNAME":"白河區","LI":"昇安里","LIN":"3鄰","STREET":" ","SECT":" ","MAREA":"三間厝","LANE":" ","ALLEY":" ","HOUSE_NO":"３２號","E_COORD97":191614.51000000001,"N_COORD97":2584777.23,"ADDRESS":"三間厝３２號","OBJECTID":198279},"geometry":{"x":191614.50999999978,"y":2584777.2300000004}},{"attributes":{"ID":198281,"DIS_CODE":0,"TOWNNAME":"白河區","LI":"昇安里","LIN":"3鄰","STREET":" ","SECT":" ","MAREA":"三間厝","LANE":" ","ALLEY":" ","HOUSE_NO":"３３號","E_COORD97":191630.67000000001,"N_COORD97":2584764.5099999998,"ADDRESS":"三間厝３３號","OBJECTID":198280},"geometry":{"x":191630.66999999993,"y":2584764.5099999998}},{"attributes":{"ID":198282,"DIS_CODE":0,"TOWNNAME":"白河區","LI":"昇安里","LIN":"3鄰","STREET":" ","SECT":" ","MAREA":"三間厝","LANE":" ","ALLEY":" ","HOUSE_NO":"３４號","E_COORD97":191626.17999999999,"N_COORD97":2584795.29,"ADDRESS":"三間厝３４號","OBJECTID":198281},"geometry":{"x":191626.18000000063,"y":2584795.290000001}},{"attributes":{"ID":198283,"DIS_CODE":0,"TOWNNAME":"白河區","LI":"昇安里","LIN":"3鄰","STREET":" ","SECT":" ","MAREA":"三間厝","LANE":" ","ALLEY":" ","HOUSE_NO":"３８之１號","E_COORD97":191666.48999999999,"N_COORD97":2584809.4700000002,"ADDRESS":"三間厝３８之１號","OBJECTID":198282},"geometry":{"x":191666.49000000209,"y":2584809.4700000025}},{"attributes":{"ID":198284,"DIS_CODE":0,"TOWNNAME":"白河區","LI":"昇安里","LIN":"3鄰","STREET":" ","SECT":" ","MAREA":"三間厝","LANE":" ","ALLEY":" ","HOUSE_NO":"３８之２號","E_COORD97":191671.28,"N_COORD97":2584810,"ADDRESS":"三間厝３８之２號","OBJECTID":198283},"geometry":{"x":191671.27999999933,"y":2584810}},{"attributes":{"ID":198285,"DIS_CODE":0,"TOWNNAME":"白河區","LI":"昇安里","LIN":"3鄰","STREET":" ","SECT":" ","MAREA":"三間厝","LANE":" ","ALLEY":" ","HOUSE_NO":"３８之３號","E_COORD97":191676.07000000001,"N_COORD97":2584810.54,"ADDRESS":"三間厝３８之３號","OBJECTID":198284},"geometry":{"x":191676.0700000003,"y":2584810.540000001}},{"attributes":{"ID":198286,"DIS_CODE":0,"TOWNNAME":"白河區","LI":"昇安里","LIN":"3鄰","STREET":" ","SECT":" ","MAREA":"三間厝","LANE":" ","ALLEY":" ","HOUSE_NO":"３８之４號","E_COORD97":191680.85999999999,"N_COORD97":2584811.0699999998,"ADDRESS":"三間厝３８之４號","OBJECTID":198285},"geometry":{"x":191680.86000000034,"y":2584811.0700000022}},{"attributes":{"ID":198287,"DIS_CODE":0,"TOWNNAME":"白河區","LI":"昇安里","LIN":"3鄰","STREET":" ","SECT":" ","MAREA":"三間厝","LANE":" ","ALLEY":" ","HOUSE_NO":"３８之５號","E_COORD97":191685.64999999999,"N_COORD97":2584811.6000000001,"ADDRESS":"三間厝３８之５號","OBJECTID":198286},"geometry":{"x":191685.65000000037,"y":2584811.5999999996}},{"attributes":{"ID":198288,"DIS_CODE":0,"TOWNNAME":"白河區","LI":"昇安里","LIN":"3鄰","STREET":" ","SECT":" ","MAREA":"三間厝","LANE":" ","ALLEY":" ","HOUSE_NO":"３８之６號","E_COORD97":191690.44,"N_COORD97":2584812.1400000001,"ADDRESS":"三間厝３８之６號","OBJECTID":198287},"geometry":{"x":191690.44000000041,"y":2584812.1400000006}},{"attributes":{"ID":198289,"DIS_CODE":0,"TOWNNAME":"北區","LI":"大豐里","LIN":"18鄰","STREET":"大興街","SECT":" ","MAREA":" ","LANE":"２３３巷","ALLEY":"６弄","HOUSE_NO":"２１號","E_COORD97":166771.31,"N_COORD97":2545651.7599999998,"ADDRESS":"大興街２３３巷６弄２１號","OBJECTID":198288},"geometry":{"x":166771.30999999959,"y":2545651.7599999998}},{"attributes":{"ID":198290,"DIS_CODE":0,"TOWNNAME":"北區","LI":"大豐里","LIN":"18鄰","STREET":"大興街","SECT":" ","MAREA":" ","LANE":"２３３巷","ALLEY":"６弄","HOUSE_NO":"２２號","E_COORD97":166771.57000000001,"N_COORD97":2545660.27,"ADDRESS":"大興街２３３巷６弄２２號","OBJECTID":198289},"geometry":{"x":166771.5700000003,"y":2545660.2700000014}},{"attributes":{"ID":198291,"DIS_CODE":0,"TOWNNAME":"新營區","LI":"嘉芳里","LIN":"9鄰","STREET":" ","SECT":" ","MAREA":"茄苳腳","LANE":" ","ALLEY":" ","HOUSE_NO":"８６號","E_COORD97":176751.82000000001,"N_COORD97":2578675.9100000001,"ADDRESS":"茄苳腳８６號","OBJECTID":198290},"geometry":{"x":176751.82000000216,"y":2578675.910000002}},{"attributes":{"ID":198292,"DIS_CODE":0,"TOWNNAME":"北區","LI":"大豐里","LIN":"18鄰","STREET":"大興街","SECT":" ","MAREA":" ","LANE":"２３３巷","ALLEY":"６弄","HOUSE_NO":"２３號","E_COORD97":166764.67000000001,"N_COORD97":2545651.2999999998,"ADDRESS":"大興街２３３巷６弄２３號","OBJECTID":198291},"geometry":{"x":166764.67000000086,"y":2545651.3000000026}},{"attributes":{"ID":198293,"DIS_CODE":0,"TOWNNAME":"北區","LI":"大豐里","LIN":"18鄰","STREET":"大興街","SECT":" ","MAREA":" ","LANE":"２３３巷","ALLEY":"６弄","HOUSE_NO":"２４號","E_COORD97":166765.12,"N_COORD97":2545660.0800000001,"ADDRESS":"大興街２３３巷６弄２４號","OBJECTID":198292},"geometry":{"x":166765.12000000104,"y":2545660.0800000001}},{"attributes":{"ID":198294,"DIS_CODE":0,"TOWNNAME":"北區","LI":"大豐里","LIN":"18鄰","STREET":"大興街","SECT":" ","MAREA":" ","LANE":"２３３巷","ALLEY":"６弄","HOUSE_NO":"２５號","E_COORD97":166759.04999999999,"N_COORD97":2545650.8500000001,"ADDRESS":"大興街２３３巷６弄２５號","OBJECTID":198293},"geometry":{"x":166759.05000000075,"y":2545650.8499999996}},{"attributes":{"ID":198295,"DIS_CODE":0,"TOWNNAME":"白河區","LI":"昇安里","LIN":"3鄰","STREET":" ","SECT":" ","MAREA":"三間厝","LANE":" ","ALLEY":" ","HOUSE_NO":"３８號","E_COORD97":191679.01999999999,"N_COORD97":2584758.2599999998,"ADDRESS":"三間厝３８號","OBJECTID":198294},"geometry":{"x":191679.01999999955,"y":2584758.2600000016}},{"attributes":{"ID":198296,"DIS_CODE":0,"TOWNNAME":"麻豆區","LI":"海埔里","LIN":"3鄰","STREET":" ","SECT":" ","MAREA":"海埔","LANE":" ","ALLEY":" ","HOUSE_NO":"４３號之１５","E_COORD97":169834.37,"N_COORD97":2567616.9700000002,"ADDRESS":"海埔４３號之１５","OBJECTID":198295},"geometry":{"x":169834.37000000011,"y":2567616.9700000025}},{"attributes":{"ID":198297,"DIS_CODE":0,"TOWNNAME":"北區","LI":"大豐里","LIN":"18鄰","STREET":"大興街","SECT":" ","MAREA":" ","LANE":"２３３巷","ALLEY":"６弄","HOUSE_NO":"２６號","E_COORD97":166759.82000000001,"N_COORD97":2545660.27,"ADDRESS":"大興街２３３巷６弄２６號","OBJECTID":198296},"geometry":{"x":166759.8200000003,"y":2545660.2700000014}},{"attributes":{"ID":198298,"DIS_CODE":0,"TOWNNAME":"北區","LI":"開元里","LIN":"18鄰","STREET":"北園街","SECT":" ","MAREA":" ","LANE":"８７巷","ALLEY":"１２１弄","HOUSE_NO":"１號","E_COORD97":170146.17000000001,"N_COORD97":2545843.3700000001,"ADDRESS":"北園街８７巷１２１弄１號","OBJECTID":198297},"geometry":{"x":170146.16999999899,"y":2545843.3700000048}},{"attributes":{"ID":198299,"DIS_CODE":0,"TOWNNAME":"北區","LI":"開元里","LIN":"18鄰","STREET":"北園街","SECT":" ","MAREA":" ","LANE":"８７巷","ALLEY":"１２１弄","HOUSE_NO":"２號","E_COORD97":170142.79000000001,"N_COORD97":2545848.4900000002,"ADDRESS":"北園街８７巷１２１弄２號","OBJECTID":198298},"geometry":{"x":170142.79000000097,"y":2545848.4900000039}},{"attributes":{"ID":198300,"DIS_CODE":0,"TOWNNAME":"北區","LI":"和順里","LIN":"26鄰","STREET":"民德路","SECT":" ","MAREA":" ","LANE":"５８巷","ALLEY":"５弄","HOUSE_NO":"７號","E_COORD97":168177.35999999999,"N_COORD97":2545235.8599999999,"ADDRESS":"民德路５８巷５弄７號","OBJECTID":198299},"geometry":{"x":168177.3600000022,"y":2545235.8600000013}},{"attributes":{"ID":198301,"DIS_CODE":0,"TOWNNAME":"北區","LI":"開元里","LIN":"18鄰","STREET":"北園街","SECT":" ","MAREA":" ","LANE":"８７巷","ALLEY":"１２１弄","HOUSE_NO":"３號","E_COORD97":170141.70000000001,"N_COORD97":2545843.9199999999,"ADDRESS":"北園街８７巷１２１弄３號","OBJECTID":198300},"geometry":{"x":170141.70000000112,"y":2545843.9199999999}},{"attributes":{"ID":198302,"DIS_CODE":0,"TOWNNAME":"北區","LI":"開元里","LIN":"18鄰","STREET":"北園街","SECT":" ","MAREA":" ","LANE":"８７巷","ALLEY":"１２１弄","HOUSE_NO":"４號","E_COORD97":170139.95999999999,"N_COORD97":2545848.9199999999,"ADDRESS":"北園街８７巷１２１弄４號","OBJECTID":198301},"geometry":{"x":170139.96000000089,"y":2545848.9200000037}},{"attributes":{"ID":198303,"DIS_CODE":0,"TOWNNAME":"北區","LI":"開元里","LIN":"18鄰","STREET":"北園街","SECT":" ","MAREA":" ","LANE":"８７巷","ALLEY":"１２１弄","HOUSE_NO":"５號","E_COORD97":170135.04999999999,"N_COORD97":2545844.5699999998,"ADDRESS":"北園街８７巷１２１弄５號","OBJECTID":198302},"geometry":{"x":170135.05000000168,"y":2545844.5699999984}},{"attributes":{"ID":198304,"DIS_CODE":0,"TOWNNAME":"北區","LI":"開元里","LIN":"18鄰","STREET":"北園街","SECT":" ","MAREA":" ","LANE":"８７巷","ALLEY":"１２１弄","HOUSE_NO":"６號","E_COORD97":170135.26999999999,"N_COORD97":2545849.6899999999,"ADDRESS":"北園街８７巷１２１弄６號","OBJECTID":198303},"geometry":{"x":170135.27000000048,"y":2545849.6900000032}},{"attributes":{"ID":198305,"DIS_CODE":0,"TOWNNAME":"北區","LI":"開元里","LIN":"18鄰","STREET":"北園街","SECT":" ","MAREA":" ","LANE":"８７巷","ALLEY":"１２１弄","HOUSE_NO":"７號","E_COORD97":170129.82000000001,"N_COORD97":2545844.6800000002,"ADDRESS":"北園街８７巷１２１弄７號","OBJECTID":198304},"geometry":{"x":170129.8200000003,"y":2545844.6800000016}},{"attributes":{"ID":198306,"DIS_CODE":0,"TOWNNAME":"北區","LI":"開元里","LIN":"18鄰","STREET":"北園街","SECT":" ","MAREA":" ","LANE":"８７巷","ALLEY":"１２１弄","HOUSE_NO":"８號","E_COORD97":170128.84,"N_COORD97":2545850.3399999999,"ADDRESS":"北園街８７巷１２１弄８號","OBJECTID":198305},"geometry":{"x":170128.84000000078,"y":2545850.3400000017}},{"attributes":{"ID":198307,"DIS_CODE":0,"TOWNNAME":"北區","LI":"開元里","LIN":"18鄰","STREET":"北園街","SECT":" ","MAREA":" ","LANE":"８７巷","ALLEY":"１２１弄","HOUSE_NO":"９號","E_COORD97":170123.94,"N_COORD97":2545845.2200000002,"ADDRESS":"北園街８７巷１２１弄９號","OBJECTID":198306},"geometry":{"x":170123.94000000041,"y":2545845.2200000025}},{"attributes":{"ID":198308,"DIS_CODE":0,"TOWNNAME":"北區","LI":"開元里","LIN":"18鄰","STREET":"北園街","SECT":" ","MAREA":" ","LANE":"８７巷","ALLEY":"１２１弄","HOUSE_NO":"１０號","E_COORD97":170122.85000000001,"N_COORD97":2545850.4500000002,"ADDRESS":"北園街８７巷１２１弄１０號","OBJECTID":198307},"geometry":{"x":170122.85000000056,"y":2545850.4499999993}},{"attributes":{"ID":198309,"DIS_CODE":0,"TOWNNAME":"北區","LI":"開元里","LIN":"18鄰","STREET":"北園街","SECT":" ","MAREA":" ","LANE":"８７巷","ALLEY":"１２１弄","HOUSE_NO":"１１號","E_COORD97":170118.48999999999,"N_COORD97":2545845.5499999998,"ADDRESS":"北園街８７巷１２１弄１１號","OBJECTID":198308},"geometry":{"x":170118.49000000022,"y":2545845.5500000045}},{"attributes":{"ID":198310,"DIS_CODE":0,"TOWNNAME":"北區","LI":"開元里","LIN":"18鄰","STREET":"北園街","SECT":" ","MAREA":" ","LANE":"８７巷","ALLEY":"１２１弄","HOUSE_NO":"１２號","E_COORD97":170115.32999999999,"N_COORD97":2545850.9900000002,"ADDRESS":"北園街８７巷１２１弄１２號","OBJECTID":198309},"geometry":{"x":170115.33000000101,"y":2545850.9900000002}},{"attributes":{"ID":198311,"DIS_CODE":0,"TOWNNAME":"北區","LI":"開元里","LIN":"18鄰","STREET":"北園街","SECT":" ","MAREA":" ","LANE":"８７巷","ALLEY":"１２１弄","HOUSE_NO":"１３號","E_COORD97":170112.38,"N_COORD97":2545845.8799999999,"ADDRESS":"北園街８７巷１２１弄１３號","OBJECTID":198310},"geometry":{"x":170112.37999999989,"y":2545845.8800000008}},{"attributes":{"ID":198312,"DIS_CODE":0,"TOWNNAME":"北區","LI":"開元里","LIN":"18鄰","STREET":"北園街","SECT":" ","MAREA":" ","LANE":"８７巷","ALLEY":"１２１弄","HOUSE_NO":"１４號","E_COORD97":170109.54999999999,"N_COORD97":2545851.4300000002,"ADDRESS":"北園街８７巷１２１弄１４號","OBJECTID":198311},"geometry":{"x":170109.54999999888,"y":2545851.4299999997}},{"attributes":{"ID":198313,"DIS_CODE":0,"TOWNNAME":"北區","LI":"開元里","LIN":"18鄰","STREET":"北園街","SECT":" ","MAREA":" ","LANE":"８７巷","ALLEY":"１２１弄","HOUSE_NO":"１５號","E_COORD97":170107.26000000001,"N_COORD97":2545846.3100000001,"ADDRESS":"北園街８７巷１２１弄１５號","OBJECTID":198312},"geometry":{"x":170107.26000000071,"y":2545846.3100000005}},{"attributes":{"ID":198314,"DIS_CODE":0,"TOWNNAME":"善化區","LI":"田寮里","LIN":"3鄰","STREET":" ","SECT":" ","MAREA":"六分寮","LANE":" ","ALLEY":" ","HOUSE_NO":"４３號","E_COORD97":178378.01000000001,"N_COORD97":2561231.75,"ADDRESS":"六分寮４３號","OBJECTID":198313},"geometry":{"x":178378.01000000071,"y":2561231.75}},{"attributes":{"ID":198315,"DIS_CODE":0,"TOWNNAME":"北區","LI":"開元里","LIN":"18鄰","STREET":"北園街","SECT":" ","MAREA":" ","LANE":"８７巷","ALLEY":"１２１弄","HOUSE_NO":"１６號","E_COORD97":170104.20999999999,"N_COORD97":2545851.9700000002,"ADDRESS":"北園街８７巷１２１弄１６號","OBJECTID":198314},"geometry":{"x":170104.21000000089,"y":2545851.9700000007}},{"attributes":{"ID":198316,"DIS_CODE":0,"TOWNNAME":"北區","LI":"開元里","LIN":"18鄰","STREET":"北園街","SECT":" ","MAREA":" ","LANE":"８７巷","ALLEY":"１２１弄","HOUSE_NO":"１７號","E_COORD97":170100.29000000001,"N_COORD97":2545846.6400000001,"ADDRESS":"北園街８７巷１２１弄１７號","OBJECTID":198315},"geometry":{"x":170100.29000000097,"y":2545846.6400000006}},{"attributes":{"ID":198317,"DIS_CODE":0,"TOWNNAME":"北區","LI":"開元里","LIN":"18鄰","STREET":"北園街","SECT":" ","MAREA":" ","LANE":"８７巷","ALLEY":"１２１弄","HOUSE_NO":"１８號","E_COORD97":170096.91,"N_COORD97":2545852.73,"ADDRESS":"北園街８７巷１２１弄１８號","OBJECTID":198316},"geometry":{"x":170096.91000000015,"y":2545852.7300000004}},{"attributes":{"ID":198318,"DIS_CODE":0,"TOWNNAME":"麻豆區","LI":"海埔里","LIN":"3鄰","STREET":" ","SECT":" ","MAREA":"海埔","LANE":" ","ALLEY":" ","HOUSE_NO":"４３號之２６","E_COORD97":169914.01000000001,"N_COORD97":2567094.9700000002,"ADDRESS":"海埔４３號之２６","OBJECTID":198317},"geometry":{"x":169914.01000000071,"y":2567094.9700000025}},{"attributes":{"ID":198319,"DIS_CODE":0,"TOWNNAME":"麻豆區","LI":"海埔里","LIN":"3鄰","STREET":" ","SECT":" ","MAREA":"海埔","LANE":" ","ALLEY":" ","HOUSE_NO":"４３號之３","E_COORD97":169718.98000000001,"N_COORD97":2567023.5099999998,"ADDRESS":"海埔４３號之３","OBJECTID":198318},"geometry":{"x":169718.98000000045,"y":2567023.5099999998}},{"attributes":{"ID":198320,"DIS_CODE":0,"TOWNNAME":"麻豆區","LI":"海埔里","LIN":"3鄰","STREET":" ","SECT":" ","MAREA":"海埔","LANE":" ","ALLEY":" ","HOUSE_NO":"４３號之８","E_COORD97":169794.54999999999,"N_COORD97":2567312.02,"ADDRESS":"海埔４３號之８","OBJECTID":198319},"geometry":{"x":169794.55000000075,"y":2567312.0200000033}},{"attributes":{"ID":198321,"DIS_CODE":0,"TOWNNAME":"麻豆區","LI":"海埔里","LIN":"3鄰","STREET":" ","SECT":" ","MAREA":"海埔","LANE":" ","ALLEY":" ","HOUSE_NO":"４３號","E_COORD97":169747.56,"N_COORD97":2567182.46,"ADDRESS":"海埔４３號","OBJECTID":198320},"geometry":{"x":169747.55999999959,"y":2567182.4600000028}},{"attributes":{"ID":198322,"DIS_CODE":0,"TOWNNAME":"北區","LI":"開元里","LIN":"18鄰","STREET":"北園街","SECT":" ","MAREA":" ","LANE":"８７巷","ALLEY":"１２１弄","HOUSE_NO":"１９號","E_COORD97":170095.38,"N_COORD97":2545847.29,"ADDRESS":"北園街８７巷１２１弄１９號","OBJECTID":198321},"geometry":{"x":170095.37999999989,"y":2545847.2899999991}},{"attributes":{"ID":198323,"DIS_CODE":0,"TOWNNAME":"北區","LI":"開元里","LIN":"18鄰","STREET":"北園街","SECT":" ","MAREA":" ","LANE":"８７巷","ALLEY":"１２１弄","HOUSE_NO":"２１號","E_COORD97":170089.06,"N_COORD97":2545847.3999999999,"ADDRESS":"北園街８７巷１２１弄２１號","OBJECTID":198322},"geometry":{"x":170089.06000000145,"y":2545847.4000000022}},{"attributes":{"ID":198324,"DIS_CODE":0,"TOWNNAME":"北區","LI":"開元里","LIN":"18鄰","STREET":"北園街","SECT":" ","MAREA":" ","LANE":"８７巷","ALLEY":"１２１弄","HOUSE_NO":"２２號","E_COORD97":170090.91,"N_COORD97":2545852.8399999999,"ADDRESS":"北園街８７巷１２１弄２２號","OBJECTID":198323},"geometry":{"x":170090.91000000108,"y":2545852.8400000036}},{"attributes":{"ID":198325,"DIS_CODE":0,"TOWNNAME":"佳里區","LI":"安西里","LIN":"18鄰","STREET":"進學路","SECT":" ","MAREA":" ","LANE":"３１６巷","ALLEY":"１弄","HOUSE_NO":"１號","E_COORD97":165456.42000000001,"N_COORD97":2562755.52,"ADDRESS":"進學路３１６巷１弄１號","OBJECTID":198324},"geometry":{"x":165456.42000000086,"y":2562755.5200000033}},{"attributes":{"ID":198326,"DIS_CODE":0,"TOWNNAME":"麻豆區","LI":"海埔里","LIN":"3鄰","STREET":" ","SECT":" ","MAREA":"埤子尾","LANE":" ","ALLEY":" ","HOUSE_NO":"２７號","E_COORD97":169696.73999999999,"N_COORD97":2566703.52,"ADDRESS":"埤子尾２７號","OBJECTID":198325},"geometry":{"x":169696.74000000022,"y":2566703.5200000014}},{"attributes":{"ID":198327,"DIS_CODE":0,"TOWNNAME":"麻豆區","LI":"海埔里","LIN":"3鄰","STREET":" ","SECT":" ","MAREA":"埤子尾","LANE":" ","ALLEY":" ","HOUSE_NO":"２９號","E_COORD97":169705.10999999999,"N_COORD97":2566718.2599999998,"ADDRESS":"埤子尾２９號","OBJECTID":198326},"geometry":{"x":169705.11000000127,"y":2566718.2600000016}},{"attributes":{"ID":198328,"DIS_CODE":0,"TOWNNAME":"麻豆區","LI":"海埔里","LIN":"3鄰","STREET":" ","SECT":" ","MAREA":"埤子尾","LANE":" ","ALLEY":" ","HOUSE_NO":"３０號","E_COORD97":169694.75,"N_COORD97":2566745.4500000002,"ADDRESS":"埤子尾３０號","OBJECTID":198327},"geometry":{"x":169694.75,"y":2566745.4499999993}},{"attributes":{"ID":198329,"DIS_CODE":0,"TOWNNAME":"麻豆區","LI":"海埔里","LIN":"3鄰","STREET":" ","SECT":" ","MAREA":"埤子尾","LANE":" ","ALLEY":" ","HOUSE_NO":"３１號之１０","E_COORD97":169678.85999999999,"N_COORD97":2566820.23,"ADDRESS":"埤子尾３１號之１０","OBJECTID":198328},"geometry":{"x":169678.86000000034,"y":2566820.2300000042}},{"attributes":{"ID":198330,"DIS_CODE":0,"TOWNNAME":"麻豆區","LI":"海埔里","LIN":"3鄰","STREET":" ","SECT":" ","MAREA":"埤子尾","LANE":" ","ALLEY":" ","HOUSE_NO":"３１號之１","E_COORD97":169666.69,"N_COORD97":2566758.9900000002,"ADDRESS":"埤子尾３１號之１","OBJECTID":198329},"geometry":{"x":169666.69000000041,"y":2566758.9900000002}},{"attributes":{"ID":198331,"DIS_CODE":0,"TOWNNAME":"麻豆區","LI":"海埔里","LIN":"3鄰","STREET":" ","SECT":" ","MAREA":"埤子尾","LANE":" ","ALLEY":" ","HOUSE_NO":"３１號之２","E_COORD97":169728.45000000001,"N_COORD97":2566815.3199999998,"ADDRESS":"埤子尾３１號之２","OBJECTID":198330},"geometry":{"x":169728.45000000112,"y":2566815.3200000003}},{"attributes":{"ID":198332,"DIS_CODE":0,"TOWNNAME":"佳里區","LI":"安西里","LIN":"18鄰","STREET":"進學路","SECT":" ","MAREA":" ","LANE":"３１６巷","ALLEY":"１弄","HOUSE_NO":"２號","E_COORD97":165455.47,"N_COORD97":2562739.0299999998,"ADDRESS":"進學路３１６巷１弄２號","OBJECTID":198331},"geometry":{"x":165455.47000000067,"y":2562739.0300000012}},{"attributes":{"ID":198333,"DIS_CODE":0,"TOWNNAME":"佳里區","LI":"安西里","LIN":"18鄰","STREET":"進學路","SECT":" ","MAREA":" ","LANE":"３１６巷","ALLEY":"１弄","HOUSE_NO":"３號","E_COORD97":165460.25,"N_COORD97":2562755.2400000002,"ADDRESS":"進學路３１６巷１弄３號","OBJECTID":198332},"geometry":{"x":165460.25000000186,"y":2562755.2400000021}},{"attributes":{"ID":198334,"DIS_CODE":0,"TOWNNAME":"麻豆區","LI":"海埔里","LIN":"3鄰","STREET":" ","SECT":" ","MAREA":"埤子尾","LANE":" ","ALLEY":" ","HOUSE_NO":"３１號之４","E_COORD97":169705.95999999999,"N_COORD97":2566799.96,"ADDRESS":"埤子尾３１號之４","OBJECTID":198333},"geometry":{"x":169705.96000000089,"y":2566799.9600000028}},{"attributes":{"ID":198335,"DIS_CODE":0,"TOWNNAME":"麻豆區","LI":"海埔里","LIN":"3鄰","STREET":" ","SECT":" ","MAREA":"埤子尾","LANE":" ","ALLEY":" ","HOUSE_NO":"３１號之６","E_COORD97":169693.03,"N_COORD97":2566770.6600000001,"ADDRESS":"埤子尾３１號之６","OBJECTID":198334},"geometry":{"x":169693.03000000026,"y":2566770.660000002}},{"attributes":{"ID":198336,"DIS_CODE":0,"TOWNNAME":"麻豆區","LI":"海埔里","LIN":"3鄰","STREET":" ","SECT":" ","MAREA":"埤子尾","LANE":" ","ALLEY":" ","HOUSE_NO":"３１號","E_COORD97":169666.06,"N_COORD97":2566745.8300000001,"ADDRESS":"埤子尾３１號","OBJECTID":198335},"geometry":{"x":169666.06000000052,"y":2566745.8300000019}},{"attributes":{"ID":198337,"DIS_CODE":0,"TOWNNAME":"新市區","LI":"潭頂里","LIN":"3鄰","STREET":" ","SECT":" ","MAREA":"潭頂","LANE":" ","ALLEY":" ","HOUSE_NO":"１７３號","E_COORD97":180873.37,"N_COORD97":2552861,"ADDRESS":"潭頂１７３號","OBJECTID":198336},"geometry":{"x":180873.37000000011,"y":2552861.0000000019}},{"attributes":{"ID":198338,"DIS_CODE":0,"TOWNNAME":"善化區","LI":"溪美里","LIN":"3鄰","STREET":" ","SECT":" ","MAREA":"溪尾","LANE":" ","ALLEY":" ","HOUSE_NO":"２４之１號","E_COORD97":176810.62,"N_COORD97":2560957.27,"ADDRESS":"溪尾２４之１號","OBJECTID":198337},"geometry":{"x":176810.62000000197,"y":2560957.2700000014}},{"attributes":{"ID":198339,"DIS_CODE":0,"TOWNNAME":"善化區","LI":"胡家里","LIN":"3鄰","STREET":" ","SECT":" ","MAREA":"胡厝寮","LANE":" ","ALLEY":" ","HOUSE_NO":"２６號之６","E_COORD97":175567.14000000001,"N_COORD97":2560538.52,"ADDRESS":"胡厝寮２６號之６","OBJECTID":198338},"geometry":{"x":175567.13999999966,"y":2560538.5200000014}},{"attributes":{"ID":198340,"DIS_CODE":0,"TOWNNAME":"善化區","LI":"胡家里","LIN":"3鄰","STREET":" ","SECT":" ","MAREA":"胡厝寮","LANE":" ","ALLEY":" ","HOUSE_NO":"２４號之１","E_COORD97":175505.64000000001,"N_COORD97":2560536.52,"ADDRESS":"胡厝寮２４號之１","OBJECTID":198339},"geometry":{"x":175505.63999999966,"y":2560536.5199999996}},{"attributes":{"ID":198341,"DIS_CODE":0,"TOWNNAME":"善化區","LI":"田寮里","LIN":"3鄰","STREET":" ","SECT":" ","MAREA":"六分寮","LANE":" ","ALLEY":" ","HOUSE_NO":"３９之６２號","E_COORD97":178199.92999999999,"N_COORD97":2560858.52,"ADDRESS":"六分寮３９之６２號","OBJECTID":198340},"geometry":{"x":178199.93000000156,"y":2560858.5200000014}},{"attributes":{"ID":198342,"DIS_CODE":0,"TOWNNAME":"善化區","LI":"光文里","LIN":"3鄰","STREET":" ","SECT":" ","MAREA":"北子店","LANE":" ","ALLEY":" ","HOUSE_NO":"１４９號之１","E_COORD97":179469.64000000001,"N_COORD97":2559681.02,"ADDRESS":"北子店１４９號之１","OBJECTID":198341},"geometry":{"x":179469.63999999873,"y":2559681.0200000014}},{"attributes":{"ID":198343,"DIS_CODE":0,"TOWNNAME":"佳里區","LI":"安西里","LIN":"18鄰","STREET":"進學路","SECT":" ","MAREA":" ","LANE":"３１６巷","ALLEY":"１弄","HOUSE_NO":"４號","E_COORD97":165459.54000000001,"N_COORD97":2562738.71,"ADDRESS":"進學路３１６巷１弄４號","OBJECTID":198342},"geometry":{"x":165459.54000000004,"y":2562738.7100000046}},{"attributes":{"ID":198344,"DIS_CODE":0,"TOWNNAME":"佳里區","LI":"安西里","LIN":"18鄰","STREET":"進學路","SECT":" ","MAREA":" ","LANE":"３１６巷","ALLEY":"１弄","HOUSE_NO":"５號","E_COORD97":165464.51000000001,"N_COORD97":2562755.1099999999,"ADDRESS":"進學路３１６巷１弄５號","OBJECTID":198343},"geometry":{"x":165464.50999999978,"y":2562755.1100000013}},{"attributes":{"ID":198345,"DIS_CODE":0,"TOWNNAME":"佳里區","LI":"安西里","LIN":"18鄰","STREET":"進學路","SECT":" ","MAREA":" ","LANE":"３１６巷","ALLEY":"１弄","HOUSE_NO":"６號","E_COORD97":165463.53,"N_COORD97":2562738.3999999999,"ADDRESS":"進學路３１６巷１弄６號","OBJECTID":198344},"geometry":{"x":165463.53000000026,"y":2562738.4000000022}},{"attributes":{"ID":198346,"DIS_CODE":0,"TOWNNAME":"佳里區","LI":"安西里","LIN":"18鄰","STREET":"進學路","SECT":" ","MAREA":" ","LANE":"３１６巷","ALLEY":"１弄","HOUSE_NO":"８號","E_COORD97":165467.64999999999,"N_COORD97":2562738.2200000002,"ADDRESS":"進學路３１６巷１弄８號","OBJECTID":198345},"geometry":{"x":165467.65000000037,"y":2562738.2200000044}},{"attributes":{"ID":198347,"DIS_CODE":0,"TOWNNAME":"永康區","LI":"甲頂里","LIN":"18鄰","STREET":"中正南路","SECT":" ","MAREA":" ","LANE":"５２巷","ALLEY":"４６弄","HOUSE_NO":"３７號","E_COORD97":169840.66,"N_COORD97":2546671.5800000001,"ADDRESS":"中正南路５２巷４６弄３７號","OBJECTID":198346},"geometry":{"x":169840.66000000015,"y":2546671.5800000038}},{"attributes":{"ID":198348,"DIS_CODE":0,"TOWNNAME":"善化區","LI":"光文里","LIN":"3鄰","STREET":" ","SECT":" ","MAREA":"北子店","LANE":" ","ALLEY":" ","HOUSE_NO":"１２６號","E_COORD97":179500.10999999999,"N_COORD97":2559645.5,"ADDRESS":"北子店１２６號","OBJECTID":198347},"geometry":{"x":179500.11000000127,"y":2559645.5}},{"attributes":{"ID":198349,"DIS_CODE":0,"TOWNNAME":"永康區","LI":"甲頂里","LIN":"18鄰","STREET":"中正南路","SECT":" ","MAREA":" ","LANE":"５２巷","ALLEY":"４６弄","HOUSE_NO":"３９號","E_COORD97":169837.78,"N_COORD97":2546659.8399999999,"ADDRESS":"中正南路５２巷４６弄３９號","OBJECTID":198348},"geometry":{"x":169837.78000000119,"y":2546659.8400000017}},{"attributes":{"ID":198350,"DIS_CODE":0,"TOWNNAME":"永康區","LI":"甲頂里","LIN":"18鄰","STREET":"中正南路","SECT":" ","MAREA":" ","LANE":"５２巷","ALLEY":"４６弄","HOUSE_NO":"４９號","E_COORD97":169875.13,"N_COORD97":2546640.3900000001,"ADDRESS":"中正南路５２巷４６弄４９號","OBJECTID":198349},"geometry":{"x":169875.12999999989,"y":2546640.3900000025}},{"attributes":{"ID":198351,"DIS_CODE":0,"TOWNNAME":"永康區","LI":"甲頂里","LIN":"18鄰","STREET":"中正南路","SECT":" ","MAREA":" ","LANE":"５２巷","ALLEY":"４６弄","HOUSE_NO":"５０號","E_COORD97":169879.13,"N_COORD97":2546640.6400000001,"ADDRESS":"中正南路５２巷４６弄５０號","OBJECTID":198350},"geometry":{"x":169879.13000000082,"y":2546640.6400000006}},{"attributes":{"ID":198352,"DIS_CODE":0,"TOWNNAME":"永康區","LI":"正強里","LIN":"18鄰","STREET":"自強路","SECT":" ","MAREA":" ","LANE":"１８８巷","ALLEY":"７６弄","HOUSE_NO":"１７號","E_COORD97":173140.34,"N_COORD97":2547232.2400000002,"ADDRESS":"自強路１８８巷７６弄１７號","OBJECTID":198351},"geometry":{"x":173140.33999999892,"y":2547232.2400000002}},{"attributes":{"ID":198353,"DIS_CODE":0,"TOWNNAME":"中西區","LI":"赤嵌里","LIN":"21鄰","STREET":"忠義路","SECT":"二段","MAREA":" ","LANE":" ","ALLEY":" ","HOUSE_NO":"２０１號","E_COORD97":168431.23000000001,"N_COORD97":2544203.1299999999,"ADDRESS":"忠義路二段２０１號","OBJECTID":198352},"geometry":{"x":168431.23000000138,"y":2544203.1300000008}},{"attributes":{"ID":198354,"DIS_CODE":0,"TOWNNAME":"中西區","LI":"赤嵌里","LIN":"21鄰","STREET":"忠義路","SECT":"二段","MAREA":" ","LANE":" ","ALLEY":" ","HOUSE_NO":"２０３號","E_COORD97":168432.14000000001,"N_COORD97":2544207.6699999999,"ADDRESS":"忠義路二段２０３號","OBJECTID":198353},"geometry":{"x":168432.13999999966,"y":2544207.6700000018}},{"attributes":{"ID":198355,"DIS_CODE":0,"TOWNNAME":"善化區","LI":"田寮里","LIN":"3鄰","STREET":" ","SECT":" ","MAREA":"六分寮","LANE":" ","ALLEY":" ","HOUSE_NO":"３７號之８","E_COORD97":178301.17999999999,"N_COORD97":2561135.77,"ADDRESS":"六分寮３７號之８","OBJECTID":198354},"geometry":{"x":178301.1799999997,"y":2561135.7699999996}},{"attributes":{"ID":198356,"DIS_CODE":0,"TOWNNAME":"善化區","LI":"田寮里","LIN":"3鄰","STREET":" ","SECT":" ","MAREA":"六分寮","LANE":" ","ALLEY":" ","HOUSE_NO":"４０號之７","E_COORD97":178389.31,"N_COORD97":2561030.02,"ADDRESS":"六分寮４０號之７","OBJECTID":198355},"geometry":{"x":178389.31000000052,"y":2561030.0200000033}},{"attributes":{"ID":198357,"DIS_CODE":0,"TOWNNAME":"善化區","LI":"光文里","LIN":"3鄰","STREET":" ","SECT":" ","MAREA":"北子店","LANE":" ","ALLEY":" ","HOUSE_NO":"１２２號","E_COORD97":179509.67000000001,"N_COORD97":2559644.75,"ADDRESS":"北子店１２２號","OBJECTID":198356},"geometry":{"x":179509.66999999993,"y":2559644.75}},{"attributes":{"ID":198358,"DIS_CODE":0,"TOWNNAME":"善化區","LI":"田寮里","LIN":"3鄰","STREET":" ","SECT":" ","MAREA":"六分寮","LANE":" ","ALLEY":" ","HOUSE_NO":"３９號之６","E_COORD97":178273.06,"N_COORD97":2561061.77,"ADDRESS":"六分寮３９號之６","OBJECTID":198357},"geometry":{"x":178273.05999999959,"y":2561061.7699999977}},{"attributes":{"ID":198359,"DIS_CODE":0,"TOWNNAME":"善化區","LI":"田寮里","LIN":"3鄰","STREET":" ","SECT":" ","MAREA":"六分寮","LANE":" ","ALLEY":" ","HOUSE_NO":"３９號之６６","E_COORD97":178199.06,"N_COORD97":2560845.02,"ADDRESS":"六分寮３９號之６６","OBJECTID":198358},"geometry":{"x":178199.06000000052,"y":2560845.0199999996}},{"attributes":{"ID":198360,"DIS_CODE":0,"TOWNNAME":"善化區","LI":"田寮里","LIN":"3鄰","STREET":" ","SECT":" ","MAREA":"六分寮","LANE":" ","ALLEY":" ","HOUSE_NO":"３５號之１","E_COORD97":178347.22,"N_COORD97":2561254.02,"ADDRESS":"六分寮３５號之１","OBJECTID":198359},"geometry":{"x":178347.22000000067,"y":2561254.0200000014}},{"attributes":{"ID":198361,"DIS_CODE":0,"TOWNNAME":"善化區","LI":"田寮里","LIN":"3鄰","STREET":" ","SECT":" ","MAREA":"六分寮","LANE":" ","ALLEY":" ","HOUSE_NO":"３７之６號","E_COORD97":178312.57999999999,"N_COORD97":2561156.02,"ADDRESS":"六分寮３７之６號","OBJECTID":198360},"geometry":{"x":178312.58000000007,"y":2561156.0200000014}},{"attributes":{"ID":198362,"DIS_CODE":0,"TOWNNAME":"善化區","LI":"胡家里","LIN":"3鄰","STREET":" ","SECT":" ","MAREA":"胡厝寮","LANE":" ","ALLEY":" ","HOUSE_NO":"２９之３號","E_COORD97":175557.54999999999,"N_COORD97":2560514.77,"ADDRESS":"胡厝寮２９之３號","OBJECTID":198361},"geometry":{"x":175557.54999999981,"y":2560514.7699999996}},{"attributes":{"ID":198363,"DIS_CODE":0,"TOWNNAME":"善化區","LI":"光文里","LIN":"3鄰","STREET":" ","SECT":" ","MAREA":"北子店","LANE":" ","ALLEY":" ","HOUSE_NO":"１５１之１號","E_COORD97":179431.13,"N_COORD97":2559663.02,"ADDRESS":"北子店１５１之１號","OBJECTID":198362},"geometry":{"x":179431.13000000175,"y":2559663.0199999996}},{"attributes":{"ID":198364,"DIS_CODE":0,"TOWNNAME":"善化區","LI":"光文里","LIN":"3鄰","STREET":" ","SECT":" ","MAREA":"北子店","LANE":" ","ALLEY":" ","HOUSE_NO":"１４８號之３","E_COORD97":179459.51999999999,"N_COORD97":2559624.52,"ADDRESS":"北子店１４８號之３","OBJECTID":198363},"geometry":{"x":179459.51999999955,"y":2559624.5199999996}},{"attributes":{"ID":198365,"DIS_CODE":0,"TOWNNAME":"善化區","LI":"胡家里","LIN":"3鄰","STREET":" ","SECT":" ","MAREA":"胡厝寮","LANE":" ","ALLEY":" ","HOUSE_NO":"２９號之４","E_COORD97":175509.57999999999,"N_COORD97":2560481.77,"ADDRESS":"胡厝寮２９號之４","OBJECTID":198364},"geometry":{"x":175509.58000000101,"y":2560481.7699999996}},{"attributes":{"ID":198366,"DIS_CODE":0,"TOWNNAME":"善化區","LI":"田寮里","LIN":"3鄰","STREET":" ","SECT":" ","MAREA":"六分寮","LANE":" ","ALLEY":" ","HOUSE_NO":"４０之１９號","E_COORD97":178374.12,"N_COORD97":2561122.02,"ADDRESS":"六分寮４０之１９號","OBJECTID":198365},"geometry":{"x":178374.12000000104,"y":2561122.0200000014}},{"attributes":{"ID":198367,"DIS_CODE":0,"TOWNNAME":"善化區","LI":"田寮里","LIN":"3鄰","STREET":" ","SECT":" ","MAREA":"六分寮","LANE":" ","ALLEY":" ","HOUSE_NO":"３９號之１１","E_COORD97":178279.07000000001,"N_COORD97":2561083.02,"ADDRESS":"六分寮３９號之１１","OBJECTID":198366},"geometry":{"x":178279.06999999937,"y":2561083.0199999996}},{"attributes":{"ID":198368,"DIS_CODE":0,"TOWNNAME":"善化區","LI":"田寮里","LIN":"3鄰","STREET":" ","SECT":" ","MAREA":"六分寮","LANE":" ","ALLEY":" ","HOUSE_NO":"４０之２６號","E_COORD97":178362.04000000001,"N_COORD97":2561099.02,"ADDRESS":"六分寮４０之２６號","OBJECTID":198367},"geometry":{"x":178362.03999999911,"y":2561099.0200000014}},{"attributes":{"ID":198369,"DIS_CODE":0,"TOWNNAME":"善化區","LI":"田寮里","LIN":"3鄰","STREET":" ","SECT":" ","MAREA":"六分寮","LANE":" ","ALLEY":" ","HOUSE_NO":"３９號之７","E_COORD97":178276.78,"N_COORD97":2561074.77,"ADDRESS":"六分寮３９號之７","OBJECTID":198368},"geometry":{"x":178276.78000000119,"y":2561074.7699999996}},{"attributes":{"ID":198370,"DIS_CODE":0,"TOWNNAME":"善化區","LI":"田寮里","LIN":"3鄰","STREET":" ","SECT":" ","MAREA":"六分寮","LANE":" ","ALLEY":" ","HOUSE_NO":"３９之３０號","E_COORD97":178290.87,"N_COORD97":2560874.77,"ADDRESS":"六分寮３９之３０號","OBJECTID":198369},"geometry":{"x":178290.87000000104,"y":2560874.7699999996}},{"attributes":{"ID":198371,"DIS_CODE":0,"TOWNNAME":"善化區","LI":"田寮里","LIN":"3鄰","STREET":" ","SECT":" ","MAREA":"六分寮","LANE":" ","ALLEY":" ","HOUSE_NO":"３９號之５","E_COORD97":178305.12,"N_COORD97":2561084.02,"ADDRESS":"六分寮３９號之５","OBJECTID":198370},"geometry":{"x":178305.12000000011,"y":2561084.0200000033}},{"attributes":{"ID":198372,"DIS_CODE":0,"TOWNNAME":"善化區","LI":"牛庄里","LIN":"3鄰","STREET":" ","SECT":" ","MAREA":"牛庄","LANE":" ","ALLEY":" ","HOUSE_NO":"３２號","E_COORD97":180315.48999999999,"N_COORD97":2559926.5,"ADDRESS":"牛庄３２號","OBJECTID":198371},"geometry":{"x":180315.48999999929,"y":2559926.5000000019}},{"attributes":{"ID":198373,"DIS_CODE":0,"TOWNNAME":"永康區","LI":"正強里","LIN":"18鄰","STREET":"自強路","SECT":" ","MAREA":" ","LANE":"１８８巷","ALLEY":"６２弄","HOUSE_NO":"３５號","E_COORD97":173136.39000000001,"N_COORD97":2547257.9100000001,"ADDRESS":"自強路１８８巷６２弄３５號","OBJECTID":198372},"geometry":{"x":173136.38999999873,"y":2547257.9100000001}},{"attributes":{"ID":198374,"DIS_CODE":0,"TOWNNAME":"善化區","LI":"田寮里","LIN":"3鄰","STREET":" ","SECT":" ","MAREA":"六分寮","LANE":" ","ALLEY":" ","HOUSE_NO":"３５號之２","E_COORD97":178345.98999999999,"N_COORD97":2561249.52,"ADDRESS":"六分寮３５號之２","OBJECTID":198373},"geometry":{"x":178345.99000000115,"y":2561249.5199999996}},{"attributes":{"ID":198375,"DIS_CODE":0,"TOWNNAME":"善化區","LI":"田寮里","LIN":"3鄰","STREET":" ","SECT":" ","MAREA":"六分寮","LANE":" ","ALLEY":" ","HOUSE_NO":"３９之２６號","E_COORD97":178251.41,"N_COORD97":2560933.02,"ADDRESS":"六分寮３９之２６號","OBJECTID":198374},"geometry":{"x":178251.41000000201,"y":2560933.0200000014}},{"attributes":{"ID":198376,"DIS_CODE":0,"TOWNNAME":"永康區","LI":"甲頂里","LIN":"18鄰","STREET":"中正南路","SECT":" ","MAREA":" ","LANE":"５２巷","ALLEY":"４６弄","HOUSE_NO":"５６號","E_COORD97":169904.48000000001,"N_COORD97":2546625.8399999999,"ADDRESS":"中正南路５２巷４６弄５６號","OBJECTID":198375},"geometry":{"x":169904.48000000138,"y":2546625.8400000036}},{"attributes":{"ID":198377,"DIS_CODE":0,"TOWNNAME":"永康區","LI":"正強里","LIN":"18鄰","STREET":"自強路","SECT":" ","MAREA":" ","LANE":"１８８巷","ALLEY":"６２弄","HOUSE_NO":"２３號","E_COORD97":173162.54999999999,"N_COORD97":2547261.9100000001,"ADDRESS":"自強路１８８巷６２弄２３號","OBJECTID":198376},"geometry":{"x":173162.54999999981,"y":2547261.9100000001}},{"attributes":{"ID":198378,"DIS_CODE":0,"TOWNNAME":"安南區","LI":"安西里","LIN":"18鄰","STREET":"安通路","SECT":"四段","MAREA":" ","LANE":"１１９巷","ALLEY":"２７弄","HOUSE_NO":"１０號","E_COORD97":168680.26000000001,"N_COORD97":2547852.52,"ADDRESS":"安通路四段１１９巷２７弄１０號","OBJECTID":198377},"geometry":{"x":168680.25999999978,"y":2547852.5200000014}},{"attributes":{"ID":198379,"DIS_CODE":0,"TOWNNAME":"安南區","LI":"安西里","LIN":"18鄰","STREET":"安通路","SECT":"四段","MAREA":" ","LANE":"１１９巷","ALLEY":"２７弄","HOUSE_NO":"１１號","E_COORD97":168679.5,"N_COORD97":2547827.8900000001,"ADDRESS":"安通路四段１１９巷２７弄１１號","OBJECTID":198378},"geometry":{"x":168679.50000000186,"y":2547827.8900000025}},{"attributes":{"ID":198380,"DIS_CODE":0,"TOWNNAME":"新化區","LI":"全興里","LIN":"3鄰","STREET":" ","SECT":" ","MAREA":"竹子\u25A0","LANE":" ","ALLEY":" ","HOUSE_NO":"４０號之１","E_COORD97":177614.81,"N_COORD97":2547833.2599999998,"ADDRESS":"竹子\u25A0４０號之１","OBJECTID":198379},"geometry":{"x":177614.81000000052,"y":2547833.2600000035}},{"attributes":{"ID":198381,"DIS_CODE":0,"TOWNNAME":"安南區","LI":"安西里","LIN":"18鄰","STREET":"安通路","SECT":"四段","MAREA":" ","LANE":"１１９巷","ALLEY":"２７弄","HOUSE_NO":"１２號","E_COORD97":168674.04000000001,"N_COORD97":2547852.52,"ADDRESS":"安通路四段１１９巷２７弄１２號","OBJECTID":198380},"geometry":{"x":168674.03999999911,"y":2547852.5200000014}},{"attributes":{"ID":198382,"DIS_CODE":0,"TOWNNAME":"安南區","LI":"安西里","LIN":"18鄰","STREET":"安通路","SECT":"四段","MAREA":" ","LANE":"１１９巷","ALLEY":"２７弄","HOUSE_NO":"１３號","E_COORD97":168674.17000000001,"N_COORD97":2547828.1800000002,"ADDRESS":"安通路四段１１９巷２７弄１３號","OBJECTID":198381},"geometry":{"x":168674.16999999993,"y":2547828.1800000016}},{"attributes":{"ID":198383,"DIS_CODE":0,"TOWNNAME":"安南區","LI":"安西里","LIN":"18鄰","STREET":"安通路","SECT":"四段","MAREA":" ","LANE":"１１９巷","ALLEY":"２７弄","HOUSE_NO":"１４號","E_COORD97":168668.14000000001,"N_COORD97":2547853.1800000002,"ADDRESS":"安通路四段１１９巷２７弄１４號","OBJECTID":198382},"geometry":{"x":168668.14000000153,"y":2547853.1799999997}},{"attributes":{"ID":198384,"DIS_CODE":0,"TOWNNAME":"安南區","LI":"安西里","LIN":"18鄰","STREET":"安通路","SECT":"四段","MAREA":" ","LANE":"１１９巷","ALLEY":"２７弄","HOUSE_NO":"１５號","E_COORD97":168670.03,"N_COORD97":2547828.77,"ADDRESS":"安通路四段１１９巷２７弄１５號","OBJECTID":198383},"geometry":{"x":168670.03000000119,"y":2547828.7699999996}},{"attributes":{"ID":198385,"DIS_CODE":0,"TOWNNAME":"安南區","LI":"安西里","LIN":"18鄰","STREET":"安通路","SECT":"四段","MAREA":" ","LANE":"１１９巷","ALLEY":"２７弄","HOUSE_NO":"１６號","E_COORD97":168662.23999999999,"N_COORD97":2547853.1800000002,"ADDRESS":"安通路四段１１９巷２７弄１６號","OBJECTID":198384},"geometry":{"x":168662.24000000022,"y":2547853.1799999997}},{"attributes":{"ID":198386,"DIS_CODE":0,"TOWNNAME":"安南區","LI":"安西里","LIN":"18鄰","STREET":"安通路","SECT":"四段","MAREA":" ","LANE":"１１９巷","ALLEY":"２７弄","HOUSE_NO":"１７號","E_COORD97":168665.88,"N_COORD97":2547828.48,"ADDRESS":"安通路四段１１９巷２７弄１７號","OBJECTID":198385},"geometry":{"x":168665.87999999989,"y":2547828.4800000004}},{"attributes":{"ID":198387,"DIS_CODE":0,"TOWNNAME":"安南區","LI":"安西里","LIN":"18鄰","STREET":"安通路","SECT":"四段","MAREA":" ","LANE":"１１９巷","ALLEY":"２７弄","HOUSE_NO":"１８號","E_COORD97":168656.01999999999,"N_COORD97":2547853.8300000001,"ADDRESS":"安通路四段１１９巷２７弄１８號","OBJECTID":198386},"geometry":{"x":168656.01999999955,"y":2547853.8300000019}},{"attributes":{"ID":198388,"DIS_CODE":0,"TOWNNAME":"安南區","LI":"安西里","LIN":"18鄰","STREET":"安通路","SECT":"四段","MAREA":" ","LANE":"１１９巷","ALLEY":"２７弄","HOUSE_NO":"１９號","E_COORD97":168662.04000000001,"N_COORD97":2547830.25,"ADDRESS":"安通路四段１１９巷２７弄１９號","OBJECTID":198387},"geometry":{"x":168662.04000000004,"y":2547830.2500000019}},{"attributes":{"ID":198389,"DIS_CODE":0,"TOWNNAME":"安南區","LI":"安西里","LIN":"18鄰","STREET":"安通路","SECT":"四段","MAREA":" ","LANE":"１１９巷","ALLEY":"２７弄","HOUSE_NO":"１號","E_COORD97":168701.69,"N_COORD97":2547827,"ADDRESS":"安通路四段１１９巷２７弄１號","OBJECTID":198388},"geometry":{"x":168701.69000000041,"y":2547827}},{"attributes":{"ID":198390,"DIS_CODE":0,"TOWNNAME":"安南區","LI":"安西里","LIN":"18鄰","STREET":"安通路","SECT":"四段","MAREA":" ","LANE":"１１９巷","ALLEY":"２７弄","HOUSE_NO":"２０號","E_COORD97":168649.79000000001,"N_COORD97":2547853.1800000002,"ADDRESS":"安通路四段１１９巷２７弄２０號","OBJECTID":198389},"geometry":{"x":168649.79000000004,"y":2547853.1799999997}},{"attributes":{"ID":198391,"DIS_CODE":0,"TOWNNAME":"七股區","LI":"後港里","LIN":"3鄰","STREET":" ","SECT":" ","MAREA":"港東","LANE":" ","ALLEY":" ","HOUSE_NO":"２７號","E_COORD97":162978.26999999999,"N_COORD97":2565307.9300000002,"ADDRESS":"港東２７號","OBJECTID":198390},"geometry":{"x":162978.27000000048,"y":2565307.9299999997}},{"attributes":{"ID":198392,"DIS_CODE":0,"TOWNNAME":"安南區","LI":"安西里","LIN":"18鄰","STREET":"安通路","SECT":"四段","MAREA":" ","LANE":"１１９巷","ALLEY":"２７弄","HOUSE_NO":"２１號","E_COORD97":168657.29999999999,"N_COORD97":2547830.5499999998,"ADDRESS":"安通路四段１１９巷２７弄２１號","OBJECTID":198391},"geometry":{"x":168657.30000000075,"y":2547830.5500000007}},{"attributes":{"ID":198393,"DIS_CODE":0,"TOWNNAME":"安南區","LI":"安西里","LIN":"18鄰","STREET":"安通路","SECT":"四段","MAREA":" ","LANE":"１１９巷","ALLEY":"２７弄","HOUSE_NO":"２３號","E_COORD97":168653.45999999999,"N_COORD97":2547830.8399999999,"ADDRESS":"安通路四段１１９巷２７弄２３號","OBJECTID":198392},"geometry":{"x":168653.45999999996,"y":2547830.8400000017}},{"attributes":{"ID":198394,"DIS_CODE":0,"TOWNNAME":"中西區","LI":"大涼里","LIN":"21鄰","STREET":"府前二街","SECT":" ","MAREA":" ","LANE":" ","ALLEY":" ","HOUSE_NO":"１６號","E_COORD97":166710.45000000001,"N_COORD97":2543778.8999999999,"ADDRESS":"府前二街１６號","OBJECTID":198393},"geometry":{"x":166710.45000000112,"y":2543778.9000000022}},{"attributes":{"ID":198395,"DIS_CODE":0,"TOWNNAME":"東區","LI":"龍山里","LIN":"21鄰","STREET":"東門路","SECT":"二段","MAREA":" ","LANE":" ","ALLEY":" ","HOUSE_NO":"２３８號","E_COORD97":170474.29999999999,"N_COORD97":2542790.3399999999,"ADDRESS":"東門路二段２３８號","OBJECTID":198394},"geometry":{"x":170474.30000000075,"y":2542790.3399999999}},{"attributes":{"ID":198396,"DIS_CODE":0,"TOWNNAME":"東區","LI":"龍山里","LIN":"21鄰","STREET":"東門路","SECT":"二段","MAREA":" ","LANE":" ","ALLEY":" ","HOUSE_NO":"２４０號","E_COORD97":170483.51999999999,"N_COORD97":2542788.1400000001,"ADDRESS":"東門路二段２４０號","OBJECTID":198395},"geometry":{"x":170483.51999999955,"y":2542788.1400000006}},{"attributes":{"ID":198397,"DIS_CODE":0,"TOWNNAME":"東區","LI":"龍山里","LIN":"21鄰","STREET":"東門路","SECT":"二段","MAREA":" ","LANE":" ","ALLEY":" ","HOUSE_NO":"２４２號","E_COORD97":170486.69,"N_COORD97":2542783.7400000002,"ADDRESS":"東門路二段２４２號","OBJECTID":198396},"geometry":{"x":170486.69000000041,"y":2542783.7400000002}},{"attributes":{"ID":198398,"DIS_CODE":0,"TOWNNAME":"安南區","LI":"安西里","LIN":"18鄰","STREET":"安通路","SECT":"四段","MAREA":" ","LANE":"１１９巷","ALLEY":"２７弄","HOUSE_NO":"２號","E_COORD97":168704.17999999999,"N_COORD97":2547849.5800000001,"ADDRESS":"安通路四段１１９巷２７弄２號","OBJECTID":198397},"geometry":{"x":168704.18000000063,"y":2547849.5800000019}},{"attributes":{"ID":198399,"DIS_CODE":0,"TOWNNAME":"安南區","LI":"安西里","LIN":"18鄰","STREET":"安通路","SECT":"四段","MAREA":" ","LANE":"１１９巷","ALLEY":"２７弄","HOUSE_NO":"３號","E_COORD97":168697.25,"N_COORD97":2547827,"ADDRESS":"安通路四段１１９巷２７弄３號","OBJECTID":198398},"geometry":{"x":168697.25000000093,"y":2547827}},{"attributes":{"ID":198400,"DIS_CODE":0,"TOWNNAME":"安南區","LI":"安西里","LIN":"18鄰","STREET":"安通路","SECT":"四段","MAREA":" ","LANE":"１１９巷","ALLEY":"２７弄","HOUSE_NO":"４號","E_COORD97":168698.60999999999,"N_COORD97":2547850.5600000001,"ADDRESS":"安通路四段１１９巷２７弄４號","OBJECTID":198399},"geometry":{"x":168698.61000000034,"y":2547850.5600000005}},{"attributes":{"ID":198401,"DIS_CODE":0,"TOWNNAME":"安南區","LI":"安西里","LIN":"18鄰","STREET":"安通路","SECT":"四段","MAREA":" ","LANE":"１１９巷","ALLEY":"２７弄","HOUSE_NO":"５號","E_COORD97":168692.81,"N_COORD97":2547827.8900000001,"ADDRESS":"安通路四段１１９巷２７弄５號","OBJECTID":198400},"geometry":{"x":168692.81000000052,"y":2547827.8900000025}}]}