{"displayFieldName":"TOWNNAME","fieldAliases":{"ID":"ID","DIS_CODE":"DIS_CODE","TOWNNAME":"TOWNNAME","LI":"LI","LIN":"LIN","STREET":"STREET","SECT":"SECT","MAREA":"MAREA","LANE":"LANE","ALLEY":"ALLEY","HOUSE_NO":"HOUSE_NO","E_COORD97":"E_COORD97","N_COORD97":"N_COORD97","ADDRESS":"ADDRESS","OBJECTID":"OBJECTID"},"geometryType":"esriGeometryPoint","spatialReference":{"wkid":102443,"latestWkid":3826},"fields":[{"name":"ID","type":"esriFieldTypeDouble","alias":"ID"},{"name":"DIS_CODE","type":"esriFieldTypeInteger","alias":"DIS_CODE"},{"name":"TOWNNAME","type":"esriFieldTypeString","alias":"TOWNNAME","length":8},{"name":"LI","type":"esriFieldTypeString","alias":"LI","length":8},{"name":"LIN","type":"esriFieldTypeString","alias":"LIN","length":12},{"name":"STREET","type":"esriFieldTypeString","alias":"STREET","length":20},{"name":"SECT","type":"esriFieldTypeString","alias":"SECT","length":8},{"name":"MAREA","type":"esriFieldTypeString","alias":"MAREA","length":12},{"name":"LANE","type":"esriFieldTypeString","alias":"LANE","length":10},{"name":"ALLEY","type":"esriFieldTypeString","alias":"ALLEY","length":10},{"name":"HOUSE_NO","type":"esriFieldTypeString","alias":"HOUSE_NO","length":20},{"name":"E_COORD97","type":"esriFieldTypeDouble","alias":"E_COORD97"},{"name":"N_COORD97","type":"esriFieldTypeDouble","alias":"N_COORD97"},{"name":"ADDRESS","type":"esriFieldTypeString","alias":"ADDRESS","length":50},{"name":"OBJECTID","type":"esriFieldTypeOID","alias":"OBJECTID"}],"features":[{"attributes":{"ID":265805,"DIS_CODE":0,"TOWNNAME":"東區","LI":"崇文里","LIN":"34鄰","STREET":"生產路","SECT":" ","MAREA":" ","LANE":"３４１巷","ALLEY":" ","HOUSE_NO":"２２號","E_COORD97":171139.32000000001,"N_COORD97":2540756.7000000002,"ADDRESS":"生產路３４１巷２２號","OBJECTID":265801},"geometry":{"x":171139.32000000123,"y":2540756.6999999993}},{"attributes":{"ID":265806,"DIS_CODE":0,"TOWNNAME":"永康區","LI":"永康里","LIN":"34鄰","STREET":"永大路","SECT":"二段","MAREA":" ","LANE":"１３１０巷","ALLEY":" ","HOUSE_NO":"１０號之２","E_COORD97":174375.57000000001,"N_COORD97":2546963.0499999998,"ADDRESS":"永大路二段１３１０巷１０號之２","OBJECTID":265802},"geometry":{"x":174375.57000000123,"y":2546963.0500000007}},{"attributes":{"ID":265807,"DIS_CODE":0,"TOWNNAME":"永康區","LI":"永康里","LIN":"34鄰","STREET":"永大路","SECT":"二段","MAREA":" ","LANE":"１３１０巷","ALLEY":" ","HOUSE_NO":"６號之１","E_COORD97":174362.17000000001,"N_COORD97":2546933.5499999998,"ADDRESS":"永大路二段１３１０巷６號之１","OBJECTID":265803},"geometry":{"x":174362.17000000179,"y":2546933.5500000045}},{"attributes":{"ID":265808,"DIS_CODE":0,"TOWNNAME":"永康區","LI":"永康里","LIN":"34鄰","STREET":"永大路","SECT":"二段","MAREA":" ","LANE":"１３１０巷","ALLEY":" ","HOUSE_NO":"１２號之２","E_COORD97":174361.91,"N_COORD97":2546953.5499999998,"ADDRESS":"永大路二段１３１０巷１２號之２","OBJECTID":265804},"geometry":{"x":174361.91000000015,"y":2546953.5500000007}},{"attributes":{"ID":265809,"DIS_CODE":0,"TOWNNAME":"東區","LI":"崇德里","LIN":"15鄰","STREET":"崇明十三街","SECT":" ","MAREA":" ","LANE":" ","ALLEY":" ","HOUSE_NO":"１８號","E_COORD97":170500.10000000001,"N_COORD97":2541602.02,"ADDRESS":"崇明十三街１８號","OBJECTID":265805},"geometry":{"x":170500.09999999963,"y":2541602.0199999996}},{"attributes":{"ID":265810,"DIS_CODE":0,"TOWNNAME":"永康區","LI":"永康里","LIN":"34鄰","STREET":"大同街","SECT":" ","MAREA":" ","LANE":"８０１巷","ALLEY":" ","HOUSE_NO":"４６號","E_COORD97":174352.60999999999,"N_COORD97":2546975.5,"ADDRESS":"大同街８０１巷４６號","OBJECTID":265806},"geometry":{"x":174352.61000000034,"y":2546975.5000000019}},{"attributes":{"ID":265811,"DIS_CODE":0,"TOWNNAME":"歸仁區","LI":"六甲里","LIN":"34鄰","STREET":"六甲六街","SECT":" ","MAREA":" ","LANE":"１１巷","ALLEY":" ","HOUSE_NO":"１４號","E_COORD97":175614.22,"N_COORD97":2539331.25,"ADDRESS":"六甲六街１１巷１４號","OBJECTID":265807},"geometry":{"x":175614.21999999974,"y":2539331.2500000019}},{"attributes":{"ID":265812,"DIS_CODE":0,"TOWNNAME":"永康區","LI":"崑山里","LIN":"34鄰","STREET":"大灣路","SECT":" ","MAREA":" ","LANE":"９４２巷","ALLEY":" ","HOUSE_NO":"１６６號","E_COORD97":173776.76999999999,"N_COORD97":2544912.1099999999,"ADDRESS":"大灣路９４２巷１６６號","OBJECTID":265808},"geometry":{"x":173776.77000000048,"y":2544912.1100000013}},{"attributes":{"ID":265813,"DIS_CODE":0,"TOWNNAME":"永康區","LI":"勝利里","LIN":"34鄰","STREET":"勝利街","SECT":" ","MAREA":" ","LANE":"１巷","ALLEY":" ","HOUSE_NO":"４１號","E_COORD97":170982.60999999999,"N_COORD97":2544659.0099999998,"ADDRESS":"勝利街１巷４１號","OBJECTID":265809},"geometry":{"x":170982.61000000034,"y":2544659.0100000016}},{"attributes":{"ID":265814,"DIS_CODE":0,"TOWNNAME":"永康區","LI":"復華里","LIN":"34鄰","STREET":"復國一路","SECT":" ","MAREA":" ","LANE":"４７５巷","ALLEY":" ","HOUSE_NO":"１２號","E_COORD97":172570.85000000001,"N_COORD97":2546114.4300000002,"ADDRESS":"復國一路４７５巷１２號","OBJECTID":265810},"geometry":{"x":172570.85000000056,"y":2546114.4300000016}},{"attributes":{"ID":265815,"DIS_CODE":0,"TOWNNAME":"永康區","LI":"崑山里","LIN":"34鄰","STREET":"大仁街","SECT":" ","MAREA":" ","LANE":"１２５巷","ALLEY":" ","HOUSE_NO":"３８號","E_COORD97":173766.87,"N_COORD97":2544887.9100000001,"ADDRESS":"大仁街１２５巷３８號","OBJECTID":265811},"geometry":{"x":173766.87000000104,"y":2544887.9100000001}},{"attributes":{"ID":265816,"DIS_CODE":0,"TOWNNAME":"永康區","LI":"崑山里","LIN":"34鄰","STREET":"大仁街","SECT":" ","MAREA":" ","LANE":"１４３巷","ALLEY":" ","HOUSE_NO":"９號","E_COORD97":173832.07000000001,"N_COORD97":2544902.6299999999,"ADDRESS":"大仁街１４３巷９號","OBJECTID":265812},"geometry":{"x":173832.0700000003,"y":2544902.629999999}},{"attributes":{"ID":265817,"DIS_CODE":0,"TOWNNAME":"歸仁區","LI":"六甲里","LIN":"34鄰","STREET":"六甲六街","SECT":" ","MAREA":" ","LANE":"１１巷","ALLEY":" ","HOUSE_NO":"２６號","E_COORD97":175619.51999999999,"N_COORD97":2539369.25,"ADDRESS":"六甲六街１１巷２６號","OBJECTID":265813},"geometry":{"x":175619.52000000048,"y":2539369.2500000019}},{"attributes":{"ID":265818,"DIS_CODE":0,"TOWNNAME":"北區","LI":"成德里","LIN":"34鄰","STREET":"育德一街","SECT":" ","MAREA":" ","LANE":"９２巷","ALLEY":" ","HOUSE_NO":"１８號","E_COORD97":168589.60000000001,"N_COORD97":2545999.9399999999,"ADDRESS":"育德一街９２巷１８號","OBJECTID":265814},"geometry":{"x":168589.59999999963,"y":2545999.9399999995}},{"attributes":{"ID":265819,"DIS_CODE":0,"TOWNNAME":"北區","LI":"成德里","LIN":"34鄰","STREET":"育德一街","SECT":" ","MAREA":" ","LANE":"９２巷","ALLEY":" ","HOUSE_NO":"１６號","E_COORD97":168582.78,"N_COORD97":2546000.2599999998,"ADDRESS":"育德一街９２巷１６號","OBJECTID":265815},"geometry":{"x":168582.78000000026,"y":2546000.2600000016}},{"attributes":{"ID":265820,"DIS_CODE":0,"TOWNNAME":"北區","LI":"成德里","LIN":"34鄰","STREET":"育德一街","SECT":" ","MAREA":" ","LANE":"９２巷","ALLEY":" ","HOUSE_NO":"１２號","E_COORD97":168575.95000000001,"N_COORD97":2546000.73,"ADDRESS":"育德一街９２巷１２號","OBJECTID":265816},"geometry":{"x":168575.95000000019,"y":2546000.7300000023}},{"attributes":{"ID":265821,"DIS_CODE":0,"TOWNNAME":"安平區","LI":"文平里","LIN":"1鄰","STREET":"建平七街","SECT":" ","MAREA":" ","LANE":" ","ALLEY":" ","HOUSE_NO":"１８號","E_COORD97":166470.57000000001,"N_COORD97":2543219.5600000001,"ADDRESS":"建平七街１８號","OBJECTID":265817},"geometry":{"x":166470.57000000216,"y":2543219.5600000005}},{"attributes":{"ID":265822,"DIS_CODE":0,"TOWNNAME":"北區","LI":"成德里","LIN":"34鄰","STREET":"文成路","SECT":" ","MAREA":" ","LANE":"１７１巷","ALLEY":" ","HOUSE_NO":"３號","E_COORD97":168438.13,"N_COORD97":2545940.3199999998,"ADDRESS":"文成路１７１巷３號","OBJECTID":265818},"geometry":{"x":168438.13000000082,"y":2545940.3200000003}},{"attributes":{"ID":265823,"DIS_CODE":0,"TOWNNAME":"北區","LI":"成德里","LIN":"34鄰","STREET":"文成路","SECT":" ","MAREA":" ","LANE":"１７１巷","ALLEY":" ","HOUSE_NO":"５號","E_COORD97":168437.23000000001,"N_COORD97":2545934.1699999999,"ADDRESS":"文成路１７１巷５號","OBJECTID":265819},"geometry":{"x":168437.23000000045,"y":2545934.1699999999}},{"attributes":{"ID":265824,"DIS_CODE":0,"TOWNNAME":"歸仁區","LI":"辜厝里","LIN":"34鄰","STREET":"大吉街","SECT":" ","MAREA":" ","LANE":"１４９巷","ALLEY":" ","HOUSE_NO":"１１號","E_COORD97":177244.29000000001,"N_COORD97":2540467.6800000002,"ADDRESS":"大吉街１４９巷１１號","OBJECTID":265820},"geometry":{"x":177244.29000000004,"y":2540467.6800000016}},{"attributes":{"ID":265825,"DIS_CODE":0,"TOWNNAME":"安平區","LI":"育平里","LIN":"34鄰","STREET":"郡平路","SECT":" ","MAREA":" ","LANE":"２７４巷","ALLEY":" ","HOUSE_NO":"６號","E_COORD97":164433.67000000001,"N_COORD97":2543414.5499999998,"ADDRESS":"郡平路２７４巷６號","OBJECTID":265821},"geometry":{"x":164433.67000000086,"y":2543414.5500000045}},{"attributes":{"ID":265826,"DIS_CODE":0,"TOWNNAME":"北區","LI":"大港里","LIN":"34鄰","STREET":"大興街","SECT":" ","MAREA":" ","LANE":"５２８巷","ALLEY":" ","HOUSE_NO":"２５號","E_COORD97":165971.75,"N_COORD97":2545526.0499999998,"ADDRESS":"大興街５２８巷２５號","OBJECTID":265822},"geometry":{"x":165971.75,"y":2545526.0500000007}},{"attributes":{"ID":265827,"DIS_CODE":0,"TOWNNAME":"北區","LI":"大港里","LIN":"34鄰","STREET":"大興街","SECT":" ","MAREA":" ","LANE":"５２８巷","ALLEY":" ","HOUSE_NO":"２７號","E_COORD97":165968.63,"N_COORD97":2545530.8799999999,"ADDRESS":"大興街５２８巷２７號","OBJECTID":265823},"geometry":{"x":165968.63000000082,"y":2545530.8800000008}},{"attributes":{"ID":265828,"DIS_CODE":0,"TOWNNAME":"北區","LI":"大港里","LIN":"34鄰","STREET":"大興街","SECT":" ","MAREA":" ","LANE":"６０２巷","ALLEY":" ","HOUSE_NO":"１４號","E_COORD97":165829.23000000001,"N_COORD97":2545455.7999999998,"ADDRESS":"大興街６０２巷１４號","OBJECTID":265824},"geometry":{"x":165829.23000000138,"y":2545455.8000000007}},{"attributes":{"ID":265829,"DIS_CODE":0,"TOWNNAME":"北區","LI":"大港里","LIN":"34鄰","STREET":"大興街","SECT":" ","MAREA":" ","LANE":"６０２巷","ALLEY":" ","HOUSE_NO":"１６號","E_COORD97":165826.97,"N_COORD97":2545459.6400000001,"ADDRESS":"大興街６０２巷１６號","OBJECTID":265825},"geometry":{"x":165826.97000000067,"y":2545459.6400000025}},{"attributes":{"ID":265830,"DIS_CODE":0,"TOWNNAME":"北區","LI":"大港里","LIN":"34鄰","STREET":"大興街","SECT":" ","MAREA":" ","LANE":"６０２巷","ALLEY":" ","HOUSE_NO":"１８號","E_COORD97":165825.26999999999,"N_COORD97":2545462.9100000001,"ADDRESS":"大興街６０２巷１８號","OBJECTID":265826},"geometry":{"x":165825.26999999955,"y":2545462.910000002}},{"attributes":{"ID":265831,"DIS_CODE":0,"TOWNNAME":"歸仁區","LI":"後市里","LIN":"34鄰","STREET":"民族北街","SECT":" ","MAREA":" ","LANE":"１７巷","ALLEY":" ","HOUSE_NO":"３５號","E_COORD97":177282.22,"N_COORD97":2540869.6000000001,"ADDRESS":"民族北街１７巷３５號","OBJECTID":265827},"geometry":{"x":177282.21999999974,"y":2540869.5999999996}},{"attributes":{"ID":265832,"DIS_CODE":0,"TOWNNAME":"安平區","LI":"育平里","LIN":"34鄰","STREET":"郡平路","SECT":" ","MAREA":" ","LANE":"２７４巷","ALLEY":" ","HOUSE_NO":"２之１號","E_COORD97":164439.07000000001,"N_COORD97":2543400.4199999999,"ADDRESS":"郡平路２７４巷２之１號","OBJECTID":265828},"geometry":{"x":164439.0700000003,"y":2543400.4199999999}},{"attributes":{"ID":265833,"DIS_CODE":0,"TOWNNAME":"新化區","LI":"東榮里","LIN":"34鄰","STREET":"中正路","SECT":" ","MAREA":" ","LANE":"３８８巷","ALLEY":" ","HOUSE_NO":"３號","E_COORD97":179129.41,"N_COORD97":2548407.25,"ADDRESS":"中正路３８８巷３號","OBJECTID":265829},"geometry":{"x":179129.41000000201,"y":2548407.2500000019}},{"attributes":{"ID":265834,"DIS_CODE":0,"TOWNNAME":"永康區","LI":"埔園里","LIN":"34鄰","STREET":"永大路","SECT":"三段","MAREA":" ","LANE":"５６０巷","ALLEY":" ","HOUSE_NO":"３號","E_COORD97":174139.54999999999,"N_COORD97":2548644.9100000001,"ADDRESS":"永大路三段５６０巷３號","OBJECTID":265830},"geometry":{"x":174139.55000000075,"y":2548644.9100000001}},{"attributes":{"ID":265835,"DIS_CODE":0,"TOWNNAME":"永康區","LI":"埔園里","LIN":"34鄰","STREET":"永大路","SECT":"三段","MAREA":" ","LANE":"５６０巷","ALLEY":" ","HOUSE_NO":"７號","E_COORD97":174148.06,"N_COORD97":2548643.48,"ADDRESS":"永大路三段５６０巷７號","OBJECTID":265831},"geometry":{"x":174148.06000000052,"y":2548643.4800000023}},{"attributes":{"ID":265836,"DIS_CODE":0,"TOWNNAME":"永康區","LI":"埔園里","LIN":"34鄰","STREET":"永大路","SECT":"三段","MAREA":" ","LANE":"５６０巷","ALLEY":" ","HOUSE_NO":"１７號","E_COORD97":174170.5,"N_COORD97":2548641.98,"ADDRESS":"永大路三段５６０巷１７號","OBJECTID":265832},"geometry":{"x":174170.50000000093,"y":2548641.9800000004}},{"attributes":{"ID":265837,"DIS_CODE":0,"TOWNNAME":"永康區","LI":"埔園里","LIN":"34鄰","STREET":"永大路","SECT":"三段","MAREA":" ","LANE":"５６０巷","ALLEY":" ","HOUSE_NO":"１５號","E_COORD97":174165.51000000001,"N_COORD97":2548642.6499999999,"ADDRESS":"永大路三段５６０巷１５號","OBJECTID":265833},"geometry":{"x":174165.51000000071,"y":2548642.6500000022}},{"attributes":{"ID":265838,"DIS_CODE":0,"TOWNNAME":"永康區","LI":"埔園里","LIN":"34鄰","STREET":"永大路","SECT":"三段","MAREA":" ","LANE":"６１８巷","ALLEY":" ","HOUSE_NO":"７０號","E_COORD97":174197.67000000001,"N_COORD97":2548714.1499999999,"ADDRESS":"永大路三段６１８巷７０號","OBJECTID":265834},"geometry":{"x":174197.66999999899,"y":2548714.1500000022}},{"attributes":{"ID":265839,"DIS_CODE":0,"TOWNNAME":"永康區","LI":"埔園里","LIN":"34鄰","STREET":"八德街","SECT":" ","MAREA":" ","LANE":"８８巷","ALLEY":" ","HOUSE_NO":"５５號","E_COORD97":174191.14999999999,"N_COORD97":2548647.7599999998,"ADDRESS":"八德街８８巷５５號","OBJECTID":265835},"geometry":{"x":174191.15000000037,"y":2548647.7600000016}},{"attributes":{"ID":265840,"DIS_CODE":0,"TOWNNAME":"永康區","LI":"埔園里","LIN":"34鄰","STREET":"永大路","SECT":"三段","MAREA":" ","LANE":"６１８巷","ALLEY":" ","HOUSE_NO":"６２號","E_COORD97":174184.78,"N_COORD97":2548714.4199999999,"ADDRESS":"永大路三段６１８巷６２號","OBJECTID":265836},"geometry":{"x":174184.78000000026,"y":2548714.4200000018}},{"attributes":{"ID":265841,"DIS_CODE":0,"TOWNNAME":"永康區","LI":"南灣里","LIN":"34鄰","STREET":"南灣里南灣街","SECT":" ","MAREA":" ","LANE":"９９巷","ALLEY":" ","HOUSE_NO":"９號","E_COORD97":174331.92999999999,"N_COORD97":2544916.5699999998,"ADDRESS":"南灣里南灣街９９巷９號","OBJECTID":265837},"geometry":{"x":174331.93000000063,"y":2544916.5700000022}},{"attributes":{"ID":265842,"DIS_CODE":0,"TOWNNAME":"東區","LI":"德高里","LIN":"8鄰","STREET":"崇善東路","SECT":" ","MAREA":" ","LANE":" ","ALLEY":" ","HOUSE_NO":"１３０號","E_COORD97":171435.48999999999,"N_COORD97":2541125.5,"ADDRESS":"崇善東路１３０號","OBJECTID":265838},"geometry":{"x":171435.49000000022,"y":2541125.5000000037}},{"attributes":{"ID":265843,"DIS_CODE":0,"TOWNNAME":"南區","LI":"建南里","LIN":"23鄰","STREET":"永成路","SECT":"二段","MAREA":" ","LANE":" ","ALLEY":" ","HOUSE_NO":"５３７號","E_COORD97":167479.26000000001,"N_COORD97":2539115.0099999998,"ADDRESS":"永成路二段５３７號","OBJECTID":265839},"geometry":{"x":167479.26000000071,"y":2539115.0100000016}},{"attributes":{"ID":265844,"DIS_CODE":0,"TOWNNAME":"南區","LI":"建南里","LIN":"23鄰","STREET":"永成路","SECT":"二段","MAREA":" ","LANE":" ","ALLEY":" ","HOUSE_NO":"５０５號","E_COORD97":167478.47,"N_COORD97":2539069.7599999998,"ADDRESS":"永成路二段５０５號","OBJECTID":265840},"geometry":{"x":167478.46999999974,"y":2539069.7600000016}},{"attributes":{"ID":265845,"DIS_CODE":0,"TOWNNAME":"永康區","LI":"埔園里","LIN":"34鄰","STREET":"永大路","SECT":"三段","MAREA":" ","LANE":"６１８巷","ALLEY":" ","HOUSE_NO":"６０號","E_COORD97":174179.47,"N_COORD97":2548709.04,"ADDRESS":"永大路三段６１８巷６０號","OBJECTID":265841},"geometry":{"x":174179.46999999974,"y":2548709.040000001}},{"attributes":{"ID":265846,"DIS_CODE":0,"TOWNNAME":"永康區","LI":"埔園里","LIN":"34鄰","STREET":"永大路","SECT":"三段","MAREA":" ","LANE":"６１８巷","ALLEY":" ","HOUSE_NO":"５２號","E_COORD97":174166.39000000001,"N_COORD97":2548712.3900000001,"ADDRESS":"永大路三段６１８巷５２號","OBJECTID":265842},"geometry":{"x":174166.38999999966,"y":2548712.3900000025}},{"attributes":{"ID":265847,"DIS_CODE":0,"TOWNNAME":"永康區","LI":"埔園里","LIN":"34鄰","STREET":"永大路","SECT":"三段","MAREA":" ","LANE":"６１８巷","ALLEY":" ","HOUSE_NO":"７２號","E_COORD97":174202.76999999999,"N_COORD97":2548713.8700000001,"ADDRESS":"永大路三段６１８巷７２號","OBJECTID":265843},"geometry":{"x":174202.76999999955,"y":2548713.870000001}},{"attributes":{"ID":265848,"DIS_CODE":0,"TOWNNAME":"永康區","LI":"崑山里","LIN":"34鄰","STREET":"大灣路","SECT":" ","MAREA":" ","LANE":"９４２巷","ALLEY":" ","HOUSE_NO":"１５６號","E_COORD97":173776.88,"N_COORD97":2544892.8799999999,"ADDRESS":"大灣路９４２巷１５６號","OBJECTID":265844},"geometry":{"x":173776.87999999989,"y":2544892.8800000008}},{"attributes":{"ID":265849,"DIS_CODE":0,"TOWNNAME":"永康區","LI":"埔園里","LIN":"34鄰","STREET":"永大路","SECT":"三段","MAREA":" ","LANE":"５６０巷","ALLEY":" ","HOUSE_NO":"１３號","E_COORD97":174160.67999999999,"N_COORD97":2548641.79,"ADDRESS":"永大路三段５６０巷１３號","OBJECTID":265845},"geometry":{"x":174160.68000000063,"y":2548641.7899999991}},{"attributes":{"ID":265850,"DIS_CODE":0,"TOWNNAME":"南區","LI":"光明里","LIN":"1鄰","STREET":"利南街","SECT":" ","MAREA":" ","LANE":" ","ALLEY":" ","HOUSE_NO":"１５５號","E_COORD97":166821.20999999999,"N_COORD97":2541379.6899999999,"ADDRESS":"利南街１５５號","OBJECTID":265846},"geometry":{"x":166821.20999999996,"y":2541379.6899999995}},{"attributes":{"ID":265851,"DIS_CODE":0,"TOWNNAME":"永康區","LI":"埔園里","LIN":"34鄰","STREET":"永大路","SECT":"三段","MAREA":" ","LANE":"６１８巷","ALLEY":" ","HOUSE_NO":"５６號","E_COORD97":174170.70999999999,"N_COORD97":2548711.79,"ADDRESS":"永大路三段６１８巷５６號","OBJECTID":265847},"geometry":{"x":174170.71000000089,"y":2548711.790000001}},{"attributes":{"ID":265852,"DIS_CODE":0,"TOWNNAME":"永康區","LI":"崑山里","LIN":"34鄰","STREET":"大灣路","SECT":" ","MAREA":" ","LANE":"９４２巷","ALLEY":" ","HOUSE_NO":"１６２號","E_COORD97":173784.13,"N_COORD97":2544904.04,"ADDRESS":"大灣路９４２巷１６２號","OBJECTID":265848},"geometry":{"x":173784.12999999989,"y":2544904.0399999991}},{"attributes":{"ID":265853,"DIS_CODE":0,"TOWNNAME":"永康區","LI":"崑山里","LIN":"34鄰","STREET":"大灣路","SECT":" ","MAREA":" ","LANE":"９４２巷","ALLEY":" ","HOUSE_NO":"１６０號","E_COORD97":173784.66,"N_COORD97":2544899.1600000001,"ADDRESS":"大灣路９４２巷１６０號","OBJECTID":265849},"geometry":{"x":173784.66000000108,"y":2544899.160000002}},{"attributes":{"ID":265854,"DIS_CODE":0,"TOWNNAME":"永康區","LI":"埔園里","LIN":"34鄰","STREET":"永大路","SECT":"三段","MAREA":" ","LANE":"６１８巷","ALLEY":" ","HOUSE_NO":"５０號","E_COORD97":174161.98999999999,"N_COORD97":2548719.1299999999,"ADDRESS":"永大路三段６１８巷５０號","OBJECTID":265850},"geometry":{"x":174161.99000000209,"y":2548719.1300000008}},{"attributes":{"ID":265855,"DIS_CODE":0,"TOWNNAME":"東區","LI":"後甲里","LIN":"34鄰","STREET":"裕農路","SECT":" ","MAREA":" ","LANE":"６２１巷","ALLEY":" ","HOUSE_NO":"１２３號","E_COORD97":171569.44,"N_COORD97":2543523.8300000001,"ADDRESS":"裕農路６２１巷１２３號","OBJECTID":265851},"geometry":{"x":171569.44000000134,"y":2543523.8300000038}},{"attributes":{"ID":265856,"DIS_CODE":0,"TOWNNAME":"永康區","LI":"成功里","LIN":"34鄰","STREET":"中華一路","SECT":" ","MAREA":" ","LANE":"３９巷","ALLEY":" ","HOUSE_NO":"１號","E_COORD97":171871.01000000001,"N_COORD97":2544963.75,"ADDRESS":"中華一路３９巷１號","OBJECTID":265852},"geometry":{"x":171871.00999999978,"y":2544963.75}},{"attributes":{"ID":265857,"DIS_CODE":0,"TOWNNAME":"永康區","LI":"成功里","LIN":"34鄰","STREET":"中華一路","SECT":" ","MAREA":" ","LANE":"３９巷","ALLEY":" ","HOUSE_NO":"１７號","E_COORD97":171874.78,"N_COORD97":2544931.9900000002,"ADDRESS":"中華一路３９巷１７號","OBJECTID":265853},"geometry":{"x":171874.78000000026,"y":2544931.9900000002}},{"attributes":{"ID":265858,"DIS_CODE":0,"TOWNNAME":"永康區","LI":"成功里","LIN":"34鄰","STREET":"中華一路","SECT":" ","MAREA":" ","LANE":"３９巷","ALLEY":" ","HOUSE_NO":"６號","E_COORD97":171859.89999999999,"N_COORD97":2544959.25,"ADDRESS":"中華一路３９巷６號","OBJECTID":265854},"geometry":{"x":171859.90000000037,"y":2544959.2500000019}},{"attributes":{"ID":265859,"DIS_CODE":0,"TOWNNAME":"永康區","LI":"成功里","LIN":"34鄰","STREET":"中華一路","SECT":" ","MAREA":" ","LANE":"３９巷","ALLEY":" ","HOUSE_NO":"２１號","E_COORD97":171875.54999999999,"N_COORD97":2544923.9900000002,"ADDRESS":"中華一路３９巷２１號","OBJECTID":265855},"geometry":{"x":171875.54999999981,"y":2544923.9900000021}},{"attributes":{"ID":265860,"DIS_CODE":0,"TOWNNAME":"永康區","LI":"成功里","LIN":"34鄰","STREET":"中華一路","SECT":" ","MAREA":" ","LANE":"３９巷","ALLEY":" ","HOUSE_NO":"１９號","E_COORD97":171875.25,"N_COORD97":2544928.2400000002,"ADDRESS":"中華一路３９巷１９號","OBJECTID":265856},"geometry":{"x":171875.25000000093,"y":2544928.2400000039}},{"attributes":{"ID":265861,"DIS_CODE":0,"TOWNNAME":"仁德區","LI":"後壁里","LIN":"34鄰","STREET":"德洋二街","SECT":" ","MAREA":" ","LANE":"３９巷","ALLEY":" ","HOUSE_NO":"１７號","E_COORD97":172327.26000000001,"N_COORD97":2539420.7599999998,"ADDRESS":"德洋二街３９巷１７號","OBJECTID":265857},"geometry":{"x":172327.26000000164,"y":2539420.7599999998}},{"attributes":{"ID":265862,"DIS_CODE":0,"TOWNNAME":"仁德區","LI":"後壁里","LIN":"34鄰","STREET":"德洋二街","SECT":" ","MAREA":" ","LANE":"５巷","ALLEY":" ","HOUSE_NO":"１號","E_COORD97":172509.51000000001,"N_COORD97":2539372.27,"ADDRESS":"德洋二街５巷１號","OBJECTID":265858},"geometry":{"x":172509.50999999978,"y":2539372.2699999996}},{"attributes":{"ID":265863,"DIS_CODE":0,"TOWNNAME":"仁德區","LI":"後壁里","LIN":"34鄰","STREET":"德洋二街","SECT":" ","MAREA":" ","LANE":"２５巷","ALLEY":" ","HOUSE_NO":"１１號","E_COORD97":172418.10000000001,"N_COORD97":2539369.02,"ADDRESS":"德洋二街２５巷１１號","OBJECTID":265859},"geometry":{"x":172418.10000000149,"y":2539369.0200000014}},{"attributes":{"ID":265864,"DIS_CODE":0,"TOWNNAME":"仁德區","LI":"成功里","LIN":"34鄰","STREET":"成功一街","SECT":" ","MAREA":" ","LANE":"５７巷","ALLEY":" ","HOUSE_NO":"３號","E_COORD97":170561.95999999999,"N_COORD97":2540083.7599999998,"ADDRESS":"成功一街５７巷３號","OBJECTID":265860},"geometry":{"x":170561.96000000089,"y":2540083.7600000016}},{"attributes":{"ID":265865,"DIS_CODE":0,"TOWNNAME":"仁德區","LI":"後壁里","LIN":"34鄰","STREET":"德洋二街","SECT":" ","MAREA":" ","LANE":"１１巷","ALLEY":" ","HOUSE_NO":"７號","E_COORD97":172475.37,"N_COORD97":2539371.27,"ADDRESS":"德洋二街１１巷７號","OBJECTID":265861},"geometry":{"x":172475.37000000011,"y":2539371.2700000014}},{"attributes":{"ID":265866,"DIS_CODE":0,"TOWNNAME":"永康區","LI":"永康里","LIN":"34鄰","STREET":"大同街","SECT":" ","MAREA":" ","LANE":"７８１巷","ALLEY":" ","HOUSE_NO":"６號","E_COORD97":174412.88,"N_COORD97":2546947.25,"ADDRESS":"大同街７８１巷６號","OBJECTID":265862},"geometry":{"x":174412.87999999989,"y":2546947.25}},{"attributes":{"ID":265867,"DIS_CODE":0,"TOWNNAME":"永康區","LI":"二王里","LIN":"34鄰","STREET":"中山南路","SECT":" ","MAREA":" ","LANE":"４９０巷","ALLEY":" ","HOUSE_NO":"１０號之１２","E_COORD97":172144.51999999999,"N_COORD97":2546357.79,"ADDRESS":"中山南路４９０巷１０號之１２","OBJECTID":265863},"geometry":{"x":172144.52000000048,"y":2546357.790000001}},{"attributes":{"ID":265868,"DIS_CODE":0,"TOWNNAME":"永康區","LI":"埔園里","LIN":"34鄰","STREET":"八德街","SECT":" ","MAREA":" ","LANE":"８８巷","ALLEY":" ","HOUSE_NO":"３３號","E_COORD97":174186.17999999999,"N_COORD97":2548598.8300000001,"ADDRESS":"八德街８８巷３３號","OBJECTID":265864},"geometry":{"x":174186.18000000063,"y":2548598.8299999982}},{"attributes":{"ID":265869,"DIS_CODE":0,"TOWNNAME":"新化區","LI":"東榮里","LIN":"34鄰","STREET":"中正路","SECT":" ","MAREA":" ","LANE":"３８８巷","ALLEY":" ","HOUSE_NO":"１４號","E_COORD97":179142.66,"N_COORD97":2548399.25,"ADDRESS":"中正路３８８巷１４號","OBJECTID":265865},"geometry":{"x":179142.66000000015,"y":2548399.25}},{"attributes":{"ID":265870,"DIS_CODE":0,"TOWNNAME":"新營區","LI":"好平里","LIN":"5鄰","STREET":"南昌街","SECT":" ","MAREA":" ","LANE":"４０巷","ALLEY":" ","HOUSE_NO":"１０號","E_COORD97":179497.84291100001,"N_COORD97":2577688.18793,"ADDRESS":"南昌街４０巷１０號","OBJECTID":265866},"geometry":{"x":179497.84291100129,"y":2577688.1879319996}},{"attributes":{"ID":265871,"DIS_CODE":0,"TOWNNAME":"新市區","LI":"新和里","LIN":"34鄰","STREET":"仁愛街","SECT":" ","MAREA":" ","LANE":"１８９巷","ALLEY":" ","HOUSE_NO":"１８號","E_COORD97":177541.25,"N_COORD97":2552768.7799999998,"ADDRESS":"仁愛街１８９巷１８號","OBJECTID":265867},"geometry":{"x":177541.25,"y":2552768.7800000031}},{"attributes":{"ID":265872,"DIS_CODE":0,"TOWNNAME":"南區","LI":"建南里","LIN":"23鄰","STREET":"永成路","SECT":"二段","MAREA":" ","LANE":" ","ALLEY":" ","HOUSE_NO":"８５２號","E_COORD97":167585.07000000001,"N_COORD97":2539715.6400000001,"ADDRESS":"永成路二段８５２號","OBJECTID":265868},"geometry":{"x":167585.07000000123,"y":2539715.6400000025}},{"attributes":{"ID":265873,"DIS_CODE":0,"TOWNNAME":"東區","LI":"後甲里","LIN":"16鄰","STREET":"裕農路","SECT":" ","MAREA":" ","LANE":" ","ALLEY":" ","HOUSE_NO":"５９７之１號","E_COORD97":171531.28,"N_COORD97":2543236.2000000002,"ADDRESS":"裕農路５９７之１號","OBJECTID":265869},"geometry":{"x":171531.28000000119,"y":2543236.2000000011}},{"attributes":{"ID":265874,"DIS_CODE":0,"TOWNNAME":"南區","LI":"白雪里","LIN":"16鄰","STREET":"金華路","SECT":"一段","MAREA":" ","LANE":" ","ALLEY":" ","HOUSE_NO":"１３１號","E_COORD97":166884.64999999999,"N_COORD97":2540627.8700000001,"ADDRESS":"金華路一段１３１號","OBJECTID":265870},"geometry":{"x":166884.65000000037,"y":2540627.870000001}},{"attributes":{"ID":265875,"DIS_CODE":0,"TOWNNAME":"南區","LI":"建南里","LIN":"23鄰","STREET":"永成路","SECT":"二段","MAREA":" ","LANE":" ","ALLEY":" ","HOUSE_NO":"８５０號","E_COORD97":167596.82000000001,"N_COORD97":2539684.0499999998,"ADDRESS":"永成路二段８５０號","OBJECTID":265871},"geometry":{"x":167596.82000000123,"y":2539684.0500000007}},{"attributes":{"ID":265876,"DIS_CODE":0,"TOWNNAME":"南區","LI":"再興里","LIN":"12鄰","STREET":"三官路","SECT":" ","MAREA":" ","LANE":" ","ALLEY":" ","HOUSE_NO":"１８２號","E_COORD97":167215.48000000001,"N_COORD97":2542008.0699999998,"ADDRESS":"三官路１８２號","OBJECTID":265872},"geometry":{"x":167215.48000000231,"y":2542008.0700000022}},{"attributes":{"ID":265877,"DIS_CODE":0,"TOWNNAME":"新市區","LI":"新和里","LIN":"34鄰","STREET":"仁愛街","SECT":" ","MAREA":" ","LANE":"２０５巷","ALLEY":" ","HOUSE_NO":"３７號","E_COORD97":177506.29000000001,"N_COORD97":2552809.2799999998,"ADDRESS":"仁愛街２０５巷３７號","OBJECTID":265873},"geometry":{"x":177506.29000000097,"y":2552809.2799999975}},{"attributes":{"ID":265878,"DIS_CODE":0,"TOWNNAME":"新市區","LI":"新和里","LIN":"34鄰","STREET":"仁愛街","SECT":" ","MAREA":" ","LANE":"２０５巷","ALLEY":" ","HOUSE_NO":"５號","E_COORD97":177571.45000000001,"N_COORD97":2552806.5299999998,"ADDRESS":"仁愛街２０５巷５號","OBJECTID":265874},"geometry":{"x":177571.45000000112,"y":2552806.5299999993}},{"attributes":{"ID":265879,"DIS_CODE":0,"TOWNNAME":"新市區","LI":"新和里","LIN":"34鄰","STREET":"仁愛街","SECT":" ","MAREA":" ","LANE":"１８９巷","ALLEY":" ","HOUSE_NO":"３２號","E_COORD97":177507.20000000001,"N_COORD97":2552767.7799999998,"ADDRESS":"仁愛街１８９巷３２號","OBJECTID":265875},"geometry":{"x":177507.20000000112,"y":2552767.7799999993}},{"attributes":{"ID":265880,"DIS_CODE":0,"TOWNNAME":"新市區","LI":"新和里","LIN":"34鄰","STREET":"仁愛街","SECT":" ","MAREA":" ","LANE":"２０５巷","ALLEY":" ","HOUSE_NO":"９號","E_COORD97":177563.25,"N_COORD97":2552806.7799999998,"ADDRESS":"仁愛街２０５巷９號","OBJECTID":265876},"geometry":{"x":177563.25,"y":2552806.7800000012}},{"attributes":{"ID":265881,"DIS_CODE":0,"TOWNNAME":"永康區","LI":"埔園里","LIN":"34鄰","STREET":"永大路","SECT":"三段","MAREA":" ","LANE":"６２２巷","ALLEY":" ","HOUSE_NO":"８２號","E_COORD97":174051.63,"N_COORD97":2548926.1699999999,"ADDRESS":"永大路三段６２２巷８２號","OBJECTID":265877},"geometry":{"x":174051.62999999989,"y":2548926.1700000018}},{"attributes":{"ID":265882,"DIS_CODE":0,"TOWNNAME":"新營區","LI":"興業里","LIN":" ","STREET":"中興路","SECT":" ","MAREA":" ","LANE":"１５巷","ALLEY":" ","HOUSE_NO":"２７之３號","E_COORD97":180281.70000000001,"N_COORD97":2577933.5600000001,"ADDRESS":"中興路１５巷２７之３號","OBJECTID":265878},"geometry":{"x":180281.70000000019,"y":2577933.5600000005}},{"attributes":{"ID":265883,"DIS_CODE":0,"TOWNNAME":"永康區","LI":"崑山里","LIN":"34鄰","STREET":"大仁街","SECT":" ","MAREA":" ","LANE":"１４３巷","ALLEY":" ","HOUSE_NO":"３２號","E_COORD97":173803.85000000001,"N_COORD97":2544934.2200000002,"ADDRESS":"大仁街１４３巷３２號","OBJECTID":265879},"geometry":{"x":173803.84999999963,"y":2544934.2200000007}},{"attributes":{"ID":265884,"DIS_CODE":0,"TOWNNAME":"永康區","LI":"崑山里","LIN":"34鄰","STREET":"大仁街","SECT":" ","MAREA":" ","LANE":"１４３巷","ALLEY":" ","HOUSE_NO":"４０號","E_COORD97":173792.26999999999,"N_COORD97":2544937.9700000002,"ADDRESS":"大仁街１４３巷４０號","OBJECTID":265880},"geometry":{"x":173792.27000000048,"y":2544937.9700000025}},{"attributes":{"ID":265885,"DIS_CODE":0,"TOWNNAME":"南區","LI":"喜東里","LIN":"10鄰","STREET":"永成路","SECT":"二段","MAREA":" ","LANE":" ","ALLEY":" ","HOUSE_NO":"１００號","E_COORD97":167774.12,"N_COORD97":2538656.2400000002,"ADDRESS":"永成路二段１００號","OBJECTID":265881},"geometry":{"x":167774.12000000104,"y":2538656.2400000021}},{"attributes":{"ID":265886,"DIS_CODE":0,"TOWNNAME":"永康區","LI":"崑山里","LIN":"34鄰","STREET":"大仁街","SECT":" ","MAREA":" ","LANE":"１４３巷","ALLEY":" ","HOUSE_NO":"３８號","E_COORD97":173795.95000000001,"N_COORD97":2544936.7200000002,"ADDRESS":"大仁街１４３巷３８號","OBJECTID":265882},"geometry":{"x":173795.95000000019,"y":2544936.7200000025}},{"attributes":{"ID":265887,"DIS_CODE":0,"TOWNNAME":"南區","LI":"喜東里","LIN":"10鄰","STREET":"永成路","SECT":"二段","MAREA":" ","LANE":" ","ALLEY":" ","HOUSE_NO":"９８號","E_COORD97":167774.12,"N_COORD97":2538653.8599999999,"ADDRESS":"永成路二段９８號","OBJECTID":265883},"geometry":{"x":167774.12000000104,"y":2538653.8599999994}},{"attributes":{"ID":265888,"DIS_CODE":0,"TOWNNAME":"南區","LI":"喜東里","LIN":"10鄰","STREET":"永成路","SECT":"二段","MAREA":" ","LANE":" ","ALLEY":" ","HOUSE_NO":"９６號","E_COORD97":167773.32000000001,"N_COORD97":2538651.96,"ADDRESS":"永成路二段９６號","OBJECTID":265884},"geometry":{"x":167773.3200000003,"y":2538651.9600000046}},{"attributes":{"ID":265889,"DIS_CODE":0,"TOWNNAME":"南區","LI":"文南里","LIN":"20鄰","STREET":"南功街","SECT":" ","MAREA":" ","LANE":" ","ALLEY":" ","HOUSE_NO":"３７號","E_COORD97":166496.87,"N_COORD97":2542718.2599999998,"ADDRESS":"南功街３７號","OBJECTID":265885},"geometry":{"x":166496.87000000011,"y":2542718.2600000016}},{"attributes":{"ID":265890,"DIS_CODE":0,"TOWNNAME":"南區","LI":"文南里","LIN":"20鄰","STREET":"仁南三街","SECT":" ","MAREA":" ","LANE":" ","ALLEY":" ","HOUSE_NO":"１１號","E_COORD97":166435.91,"N_COORD97":2542724.4500000002,"ADDRESS":"仁南三街１１號","OBJECTID":265886},"geometry":{"x":166435.91000000201,"y":2542724.4499999993}},{"attributes":{"ID":265891,"DIS_CODE":0,"TOWNNAME":"永康區","LI":"南灣里","LIN":"34鄰","STREET":"南灣街","SECT":" ","MAREA":" ","LANE":"９９巷","ALLEY":" ","HOUSE_NO":"１５號之４","E_COORD97":174310.79999999999,"N_COORD97":2544875.8900000001,"ADDRESS":"南灣街９９巷１５號之４","OBJECTID":265887},"geometry":{"x":174310.80000000075,"y":2544875.8900000006}},{"attributes":{"ID":265892,"DIS_CODE":0,"TOWNNAME":"南區","LI":"鯤鯓里","LIN":"5鄰","STREET":"鯤鯓路","SECT":" ","MAREA":" ","LANE":" ","ALLEY":" ","HOUSE_NO":"１２７之１１號","E_COORD97":164873.85999999999,"N_COORD97":2539973.3700000001,"ADDRESS":"鯤鯓路１２７之１１號","OBJECTID":265888},"geometry":{"x":164873.86000000127,"y":2539973.370000001}},{"attributes":{"ID":265893,"DIS_CODE":0,"TOWNNAME":"永康區","LI":"埔園里","LIN":"34鄰","STREET":"八德街","SECT":" ","MAREA":" ","LANE":"８８巷","ALLEY":" ","HOUSE_NO":"１５號","E_COORD97":174181.28,"N_COORD97":2548560.9300000002,"ADDRESS":"八德街８８巷１５號","OBJECTID":265889},"geometry":{"x":174181.28000000119,"y":2548560.9300000034}},{"attributes":{"ID":265894,"DIS_CODE":0,"TOWNNAME":"永康區","LI":"埔園里","LIN":"34鄰","STREET":"永大路","SECT":"三段","MAREA":" ","LANE":"６２２巷","ALLEY":" ","HOUSE_NO":"９６號","E_COORD97":174087.56,"N_COORD97":2548938.8799999999,"ADDRESS":"永大路三段６２２巷９６號","OBJECTID":265890},"geometry":{"x":174087.55999999959,"y":2548938.879999999}},{"attributes":{"ID":265895,"DIS_CODE":0,"TOWNNAME":"永康區","LI":"埔園里","LIN":"34鄰","STREET":"八德街","SECT":" ","MAREA":" ","LANE":"８８巷","ALLEY":" ","HOUSE_NO":"５號","E_COORD97":174177.12,"N_COORD97":2548539.6800000002,"ADDRESS":"八德街８８巷５號","OBJECTID":265891},"geometry":{"x":174177.12000000104,"y":2548539.6800000016}},{"attributes":{"ID":265896,"DIS_CODE":0,"TOWNNAME":"永康區","LI":"埔園里","LIN":"34鄰","STREET":"八德街","SECT":" ","MAREA":" ","LANE":"８８巷","ALLEY":" ","HOUSE_NO":"７號","E_COORD97":174177.78,"N_COORD97":2548544.1800000002,"ADDRESS":"八德街８８巷７號","OBJECTID":265892},"geometry":{"x":174177.78000000119,"y":2548544.1799999997}},{"attributes":{"ID":265897,"DIS_CODE":0,"TOWNNAME":"永康區","LI":"埔園里","LIN":"34鄰","STREET":"八德街","SECT":" ","MAREA":" ","LANE":"８８巷","ALLEY":" ","HOUSE_NO":"１號","E_COORD97":174174.73000000001,"N_COORD97":2548529.7599999998,"ADDRESS":"八德街８８巷１號","OBJECTID":265893},"geometry":{"x":174174.73000000138,"y":2548529.7599999998}},{"attributes":{"ID":265898,"DIS_CODE":0,"TOWNNAME":"永康區","LI":"南灣里","LIN":"34鄰","STREET":"南灣街","SECT":" ","MAREA":" ","LANE":"９９巷","ALLEY":" ","HOUSE_NO":"２９號","E_COORD97":174270.91,"N_COORD97":2544889.7799999998,"ADDRESS":"南灣街９９巷２９號","OBJECTID":265894},"geometry":{"x":174270.90999999922,"y":2544889.7800000031}},{"attributes":{"ID":265899,"DIS_CODE":0,"TOWNNAME":"永康區","LI":"南灣里","LIN":"34鄰","STREET":"南灣街","SECT":" ","MAREA":" ","LANE":"９９巷","ALLEY":" ","HOUSE_NO":"３０號","E_COORD97":174273.60999999999,"N_COORD97":2544919.2599999998,"ADDRESS":"南灣街９９巷３０號","OBJECTID":265895},"geometry":{"x":174273.61000000127,"y":2544919.2599999998}},{"attributes":{"ID":265900,"DIS_CODE":0,"TOWNNAME":"永康區","LI":"南灣里","LIN":"34鄰","STREET":"南灣街","SECT":" ","MAREA":" ","LANE":"９９巷","ALLEY":" ","HOUSE_NO":"１號","E_COORD97":174342.22,"N_COORD97":2544960.0099999998,"ADDRESS":"南灣街９９巷１號","OBJECTID":265896},"geometry":{"x":174342.21999999974,"y":2544960.0100000016}},{"attributes":{"ID":265901,"DIS_CODE":0,"TOWNNAME":"永康區","LI":"埔園里","LIN":"34鄰","STREET":"八德街","SECT":" ","MAREA":" ","LANE":"８８巷","ALLEY":" ","HOUSE_NO":"１７號","E_COORD97":174162.45999999999,"N_COORD97":2548561.8199999998,"ADDRESS":"八德街８８巷１７號","OBJECTID":265897},"geometry":{"x":174162.46000000089,"y":2548561.8200000003}},{"attributes":{"ID":265902,"DIS_CODE":0,"TOWNNAME":"東區","LI":"後甲里","LIN":"34鄰","STREET":"裕農路","SECT":" ","MAREA":" ","LANE":"６２１巷","ALLEY":" ","HOUSE_NO":"１１１號","E_COORD97":171560.69,"N_COORD97":2543506.2999999998,"ADDRESS":"裕農路６２１巷１１１號","OBJECTID":265898},"geometry":{"x":171560.69000000134,"y":2543506.3000000007}},{"attributes":{"ID":265903,"DIS_CODE":0,"TOWNNAME":"南區","LI":"再興里","LIN":"18鄰","STREET":"金華路","SECT":"二段","MAREA":" ","LANE":" ","ALLEY":" ","HOUSE_NO":"１１２之１號","E_COORD97":167095.07000000001,"N_COORD97":2542129.48,"ADDRESS":"金華路二段１１２之１號","OBJECTID":265899},"geometry":{"x":167095.07000000123,"y":2542129.4799999986}},{"attributes":{"ID":265904,"DIS_CODE":0,"TOWNNAME":"東區","LI":"後甲里","LIN":"34鄰","STREET":"裕農路","SECT":" ","MAREA":" ","LANE":"６２１巷","ALLEY":" ","HOUSE_NO":"１１９號","E_COORD97":171593.97,"N_COORD97":2543520.6800000002,"ADDRESS":"裕農路６２１巷１１９號","OBJECTID":265900},"geometry":{"x":171593.97000000067,"y":2543520.6799999978}},{"attributes":{"ID":265905,"DIS_CODE":0,"TOWNNAME":"永康區","LI":"西灣里","LIN":"34鄰","STREET":"永華路","SECT":" ","MAREA":" ","LANE":"３６２巷","ALLEY":" ","HOUSE_NO":"３號","E_COORD97":174097.31,"N_COORD97":2545796.54,"ADDRESS":"永華路３６２巷３號","OBJECTID":265901},"geometry":{"x":174097.31000000052,"y":2545796.540000001}},{"attributes":{"ID":265906,"DIS_CODE":0,"TOWNNAME":"永康區","LI":"龍潭里","LIN":"34鄰","STREET":"龍埔街","SECT":" ","MAREA":" ","LANE":"１８１巷","ALLEY":" ","HOUSE_NO":"１４號","E_COORD97":174449.26000000001,"N_COORD97":2548205.4399999999,"ADDRESS":"龍埔街１８１巷１４號","OBJECTID":265902},"geometry":{"x":174449.25999999978,"y":2548205.4400000013}},{"attributes":{"ID":265907,"DIS_CODE":0,"TOWNNAME":"永康區","LI":"龍潭里","LIN":"34鄰","STREET":"龍埔街","SECT":" ","MAREA":" ","LANE":"１８１巷","ALLEY":" ","HOUSE_NO":"３號","E_COORD97":174460.16,"N_COORD97":2548218.5899999999,"ADDRESS":"龍埔街１８１巷３號","OBJECTID":265903},"geometry":{"x":174460.16000000015,"y":2548218.5900000017}},{"attributes":{"ID":265908,"DIS_CODE":0,"TOWNNAME":"東區","LI":"小東里","LIN":"34鄰","STREET":"東興路","SECT":" ","MAREA":" ","LANE":"３０９巷","ALLEY":" ","HOUSE_NO":"６號","E_COORD97":171033.16,"N_COORD97":2544138.7799999998,"ADDRESS":"東興路３０９巷６號","OBJECTID":265904},"geometry":{"x":171033.16000000201,"y":2544138.7799999993}},{"attributes":{"ID":265909,"DIS_CODE":0,"TOWNNAME":"東區","LI":"小東里","LIN":"34鄰","STREET":"東興路","SECT":" ","MAREA":" ","LANE":"３０９巷","ALLEY":" ","HOUSE_NO":"８號","E_COORD97":171028.45000000001,"N_COORD97":2544138.6200000001,"ADDRESS":"東興路３０９巷８號","OBJECTID":265905},"geometry":{"x":171028.45000000112,"y":2544138.620000001}},{"attributes":{"ID":265910,"DIS_CODE":0,"TOWNNAME":"永康區","LI":"南灣里","LIN":"34鄰","STREET":"南灣街","SECT":" ","MAREA":" ","LANE":"９９巷","ALLEY":" ","HOUSE_NO":"２號","E_COORD97":174318.92999999999,"N_COORD97":2544943.2400000002,"ADDRESS":"南灣街９９巷２號","OBJECTID":265906},"geometry":{"x":174318.9299999997,"y":2544943.2400000021}},{"attributes":{"ID":265911,"DIS_CODE":0,"TOWNNAME":"白河區","LI":"汴頭里","LIN":"9鄰","STREET":" ","SECT":" ","MAREA":"內枋林","LANE":" ","ALLEY":" ","HOUSE_NO":"８９號","E_COORD97":193760.95000000001,"N_COORD97":2585298.8999999999,"ADDRESS":"內枋林８９號","OBJECTID":265907},"geometry":{"x":193760.95000000112,"y":2585298.9000000004}},{"attributes":{"ID":265912,"DIS_CODE":0,"TOWNNAME":"永康區","LI":"永康里","LIN":"34鄰","STREET":"永大路","SECT":"二段","MAREA":" ","LANE":"１３１０巷","ALLEY":" ","HOUSE_NO":"８號之２","E_COORD97":174379.10999999999,"N_COORD97":2546934.5499999998,"ADDRESS":"永大路二段１３１０巷８號之２","OBJECTID":265908},"geometry":{"x":174379.11000000127,"y":2546934.5500000026}},{"attributes":{"ID":265913,"DIS_CODE":0,"TOWNNAME":"永康區","LI":"永康里","LIN":"34鄰","STREET":"永大路","SECT":"二段","MAREA":" ","LANE":"１３１０巷","ALLEY":" ","HOUSE_NO":"１０號之１","E_COORD97":174375.44,"N_COORD97":2546963.0499999998,"ADDRESS":"永大路二段１３１０巷１０號之１","OBJECTID":265909},"geometry":{"x":174375.44000000041,"y":2546963.0500000007}},{"attributes":{"ID":265914,"DIS_CODE":0,"TOWNNAME":"永康區","LI":"崑山里","LIN":"34鄰","STREET":"大仁街","SECT":" ","MAREA":" ","LANE":"１４３巷","ALLEY":" ","HOUSE_NO":"１９號","E_COORD97":173813.07000000001,"N_COORD97":2544909.3799999999,"ADDRESS":"大仁街１４３巷１９號","OBJECTID":265910},"geometry":{"x":173813.07000000123,"y":2544909.3800000008}},{"attributes":{"ID":265915,"DIS_CODE":0,"TOWNNAME":"永康區","LI":"勝利里","LIN":"34鄰","STREET":"勝利街","SECT":" ","MAREA":" ","LANE":"１巷","ALLEY":" ","HOUSE_NO":"３６號","E_COORD97":171002.70999999999,"N_COORD97":2544654.2599999998,"ADDRESS":"勝利街１巷３６號","OBJECTID":265911},"geometry":{"x":171002.71000000089,"y":2544654.2600000016}},{"attributes":{"ID":265916,"DIS_CODE":0,"TOWNNAME":"永康區","LI":"\u25A0行里","LIN":"34鄰","STREET":"中正北路","SECT":" ","MAREA":" ","LANE":"７１巷","ALLEY":" ","HOUSE_NO":"２６號","E_COORD97":172085.37,"N_COORD97":2549217.7799999998,"ADDRESS":"中正北路７１巷２６號","OBJECTID":265912},"geometry":{"x":172085.37000000011,"y":2549217.7799999993}},{"attributes":{"ID":265917,"DIS_CODE":0,"TOWNNAME":"永康區","LI":"勝利里","LIN":"34鄰","STREET":"勝利街","SECT":" ","MAREA":" ","LANE":"１巷","ALLEY":" ","HOUSE_NO":"５６號","E_COORD97":170934.14999999999,"N_COORD97":2544671.2599999998,"ADDRESS":"勝利街１巷５６號","OBJECTID":265913},"geometry":{"x":170934.1500000013,"y":2544671.2600000016}},{"attributes":{"ID":265918,"DIS_CODE":0,"TOWNNAME":"永康區","LI":"\u25A0洲里","LIN":"34鄰","STREET":"洲尾街","SECT":" ","MAREA":" ","LANE":"１９１巷","ALLEY":" ","HOUSE_NO":"１７號","E_COORD97":170789.04000000001,"N_COORD97":2548993.7599999998,"ADDRESS":"洲尾街１９１巷１７號","OBJECTID":265914},"geometry":{"x":170789.04000000004,"y":2548993.7600000016}},{"attributes":{"ID":265919,"DIS_CODE":0,"TOWNNAME":"永康區","LI":"\u25A0洲里","LIN":"34鄰","STREET":"洲尾街","SECT":" ","MAREA":" ","LANE":"１９１巷","ALLEY":" ","HOUSE_NO":"１０號","E_COORD97":170791.35000000001,"N_COORD97":2549008.5099999998,"ADDRESS":"洲尾街１９１巷１０號","OBJECTID":265915},"geometry":{"x":170791.35000000056,"y":2549008.5100000016}},{"attributes":{"ID":265920,"DIS_CODE":0,"TOWNNAME":"仁德區","LI":"太子里","LIN":"47鄰","STREET":"太子路","SECT":" ","MAREA":" ","LANE":"９巷","ALLEY":" ","HOUSE_NO":"３５號","E_COORD97":175484.20000000001,"N_COORD97":2543459,"ADDRESS":"太子路９巷３５號","OBJECTID":265916},"geometry":{"x":175484.20000000019,"y":2543459.0000000019}},{"attributes":{"ID":265921,"DIS_CODE":0,"TOWNNAME":"仁德區","LI":"太子里","LIN":"47鄰","STREET":"太子路","SECT":" ","MAREA":" ","LANE":"９巷","ALLEY":" ","HOUSE_NO":"５８號","E_COORD97":175437.78,"N_COORD97":2543425.7599999998,"ADDRESS":"太子路９巷５８號","OBJECTID":265917},"geometry":{"x":175437.78000000026,"y":2543425.7600000035}},{"attributes":{"ID":265922,"DIS_CODE":0,"TOWNNAME":"仁德區","LI":"太子里","LIN":"47鄰","STREET":"太子路","SECT":" ","MAREA":" ","LANE":"９巷","ALLEY":" ","HOUSE_NO":"４５號","E_COORD97":175482.32000000001,"N_COORD97":2543447.7599999998,"ADDRESS":"太子路９巷４５號","OBJECTID":265918},"geometry":{"x":175482.32000000123,"y":2543447.7599999998}},{"attributes":{"ID":265923,"DIS_CODE":0,"TOWNNAME":"仁德區","LI":"仁義里","LIN":"47鄰","STREET":"仁義路","SECT":" ","MAREA":" ","LANE":"２１巷","ALLEY":" ","HOUSE_NO":"１號","E_COORD97":173434.56,"N_COORD97":2540966.5099999998,"ADDRESS":"仁義路２１巷１號","OBJECTID":265919},"geometry":{"x":173434.55999999959,"y":2540966.5100000016}},{"attributes":{"ID":265924,"DIS_CODE":0,"TOWNNAME":"仁德區","LI":"太子里","LIN":"47鄰","STREET":"太子路","SECT":" ","MAREA":" ","LANE":"９巷","ALLEY":" ","HOUSE_NO":"６號","E_COORD97":175454.64999999999,"N_COORD97":2543521.5099999998,"ADDRESS":"太子路９巷６號","OBJECTID":265920},"geometry":{"x":175454.65000000224,"y":2543521.5099999998}},{"attributes":{"ID":265925,"DIS_CODE":0,"TOWNNAME":"仁德區","LI":"太子里","LIN":"47鄰","STREET":"太子路","SECT":" ","MAREA":" ","LANE":"９巷","ALLEY":" ","HOUSE_NO":"３３號","E_COORD97":175479.89000000001,"N_COORD97":2543459.5,"ADDRESS":"太子路９巷３３號","OBJECTID":265921},"geometry":{"x":175479.8900000006,"y":2543459.5000000019}},{"attributes":{"ID":265926,"DIS_CODE":0,"TOWNNAME":"仁德區","LI":"太子里","LIN":"47鄰","STREET":"太子路","SECT":" ","MAREA":" ","LANE":"９巷","ALLEY":" ","HOUSE_NO":"１５號","E_COORD97":175485.07000000001,"N_COORD97":2543491.5,"ADDRESS":"太子路９巷１５號","OBJECTID":265922},"geometry":{"x":175485.0700000003,"y":2543491.5}},{"attributes":{"ID":265927,"DIS_CODE":0,"TOWNNAME":"永康區","LI":"二王里","LIN":"47鄰","STREET":"南工街","SECT":" ","MAREA":" ","LANE":"２８０巷","ALLEY":" ","HOUSE_NO":"６號","E_COORD97":171915.91,"N_COORD97":2546047.9900000002,"ADDRESS":"南工街２８０巷６號","OBJECTID":265923},"geometry":{"x":171915.91000000015,"y":2546047.9900000002}},{"attributes":{"ID":265928,"DIS_CODE":0,"TOWNNAME":"永康區","LI":"二王里","LIN":"47鄰","STREET":"南工街","SECT":" ","MAREA":" ","LANE":"２８０巷","ALLEY":" ","HOUSE_NO":"８號","E_COORD97":171922.01000000001,"N_COORD97":2546047.2400000002,"ADDRESS":"南工街２８０巷８號","OBJECTID":265924},"geometry":{"x":171922.01000000164,"y":2546047.2400000021}},{"attributes":{"ID":265929,"DIS_CODE":0,"TOWNNAME":"永康區","LI":"二王里","LIN":"47鄰","STREET":"南工街","SECT":" ","MAREA":" ","LANE":"２８０巷","ALLEY":" ","HOUSE_NO":"２號","E_COORD97":171903.88,"N_COORD97":2546049.4900000002,"ADDRESS":"南工街２８０巷２號","OBJECTID":265925},"geometry":{"x":171903.87999999989,"y":2546049.4900000021}},{"attributes":{"ID":265930,"DIS_CODE":0,"TOWNNAME":"永康區","LI":"二王里","LIN":"47鄰","STREET":"南工街","SECT":" ","MAREA":" ","LANE":"２７８巷","ALLEY":" ","HOUSE_NO":"１號","E_COORD97":171900.94,"N_COORD97":2546019.6200000001,"ADDRESS":"南工街２７８巷１號","OBJECTID":265926},"geometry":{"x":171900.94000000041,"y":2546019.6200000029}},{"attributes":{"ID":265931,"DIS_CODE":0,"TOWNNAME":"永康區","LI":"正強里","LIN":"47鄰","STREET":"中正路","SECT":" ","MAREA":" ","LANE":"２５６巷","ALLEY":" ","HOUSE_NO":"１１號之２８","E_COORD97":173231.35999999999,"N_COORD97":2547996.2000000002,"ADDRESS":"中正路２５６巷１１號之２８","OBJECTID":265927},"geometry":{"x":173231.36000000127,"y":2547996.2000000011}},{"attributes":{"ID":265932,"DIS_CODE":0,"TOWNNAME":"永康區","LI":"西灣里","LIN":"47鄰","STREET":"大灣路","SECT":" ","MAREA":" ","LANE":"９４２巷","ALLEY":" ","HOUSE_NO":"６２１號","E_COORD97":173912.57999999999,"N_COORD97":2545746.77,"ADDRESS":"大灣路９４２巷６２１號","OBJECTID":265928},"geometry":{"x":173912.58000000101,"y":2545746.7699999996}},{"attributes":{"ID":265933,"DIS_CODE":0,"TOWNNAME":"新市區","LI":"新和里","LIN":"47鄰","STREET":"和平街","SECT":" ","MAREA":" ","LANE":"１６８巷","ALLEY":" ","HOUSE_NO":"２０號","E_COORD97":177416.98999999999,"N_COORD97":2553352.75,"ADDRESS":"和平街１６８巷２０號","OBJECTID":265929},"geometry":{"x":177416.99000000115,"y":2553352.7500000037}},{"attributes":{"ID":265934,"DIS_CODE":0,"TOWNNAME":"新市區","LI":"新和里","LIN":"47鄰","STREET":"和平街","SECT":" ","MAREA":" ","LANE":"１６８巷","ALLEY":" ","HOUSE_NO":"１１號","E_COORD97":177422.51000000001,"N_COORD97":2553325.75,"ADDRESS":"和平街１６８巷１１號","OBJECTID":265930},"geometry":{"x":177422.50999999978,"y":2553325.7500000037}},{"attributes":{"ID":265935,"DIS_CODE":0,"TOWNNAME":"新市區","LI":"新和里","LIN":"47鄰","STREET":"和平街","SECT":" ","MAREA":" ","LANE":"１６８巷","ALLEY":" ","HOUSE_NO":"３０號","E_COORD97":177400.84,"N_COORD97":2553371.75,"ADDRESS":"和平街１６８巷３０號","OBJECTID":265931},"geometry":{"x":177400.84000000078,"y":2553371.75}},{"attributes":{"ID":265936,"DIS_CODE":0,"TOWNNAME":"新市區","LI":"新和里","LIN":"47鄰","STREET":"和平街","SECT":" ","MAREA":" ","LANE":"１６８巷","ALLEY":" ","HOUSE_NO":"１號","E_COORD97":177433.92999999999,"N_COORD97":2553309.5,"ADDRESS":"和平街１６８巷１號","OBJECTID":265932},"geometry":{"x":177433.93000000063,"y":2553309.5}},{"attributes":{"ID":265937,"DIS_CODE":0,"TOWNNAME":"新市區","LI":"新和里","LIN":"47鄰","STREET":"和平街","SECT":" ","MAREA":" ","LANE":"１６８巷","ALLEY":" ","HOUSE_NO":"７號","E_COORD97":177426.26000000001,"N_COORD97":2553319.25,"ADDRESS":"和平街１６８巷７號","OBJECTID":265933},"geometry":{"x":177426.25999999885,"y":2553319.2500000019}},{"attributes":{"ID":265938,"DIS_CODE":0,"TOWNNAME":"永康區","LI":"正強里","LIN":"47鄰","STREET":"中正路","SECT":" ","MAREA":" ","LANE":"２５６巷","ALLEY":" ","HOUSE_NO":"１１號之５６","E_COORD97":173231.31,"N_COORD97":2547996.2000000002,"ADDRESS":"中正路２５６巷１１號之５６","OBJECTID":265934},"geometry":{"x":173231.30999999959,"y":2547996.2000000011}},{"attributes":{"ID":265939,"DIS_CODE":0,"TOWNNAME":"永康區","LI":"正強里","LIN":"47鄰","STREET":"中正路","SECT":" ","MAREA":" ","LANE":"２５６巷","ALLEY":" ","HOUSE_NO":"１１號之５３","E_COORD97":173231.31,"N_COORD97":2547996.2000000002,"ADDRESS":"中正路２５６巷１１號之５３","OBJECTID":265935},"geometry":{"x":173231.30999999959,"y":2547996.2000000011}},{"attributes":{"ID":265940,"DIS_CODE":0,"TOWNNAME":"新市區","LI":"新和里","LIN":"47鄰","STREET":"和平街","SECT":" ","MAREA":" ","LANE":"１６８巷","ALLEY":" ","HOUSE_NO":"１０號","E_COORD97":177438.20000000001,"N_COORD97":2553327.25,"ADDRESS":"和平街１６８巷１０號","OBJECTID":265936},"geometry":{"x":177438.20000000112,"y":2553327.2500000019}},{"attributes":{"ID":265941,"DIS_CODE":0,"TOWNNAME":"新市區","LI":"新和里","LIN":"47鄰","STREET":"和平街","SECT":" ","MAREA":" ","LANE":"１６８巷","ALLEY":" ","HOUSE_NO":"５號","E_COORD97":177427.76000000001,"N_COORD97":2553315.25,"ADDRESS":"和平街１６８巷５號","OBJECTID":265937},"geometry":{"x":177427.75999999978,"y":2553315.25}},{"attributes":{"ID":265942,"DIS_CODE":0,"TOWNNAME":"新市區","LI":"新和里","LIN":"47鄰","STREET":"和平街","SECT":" ","MAREA":" ","LANE":"１６８巷","ALLEY":" ","HOUSE_NO":"１４號","E_COORD97":177430.54000000001,"N_COORD97":2553337,"ADDRESS":"和平街１６８巷１４號","OBJECTID":265938},"geometry":{"x":177430.54000000097,"y":2553337}},{"attributes":{"ID":265943,"DIS_CODE":0,"TOWNNAME":"新市區","LI":"新和里","LIN":"47鄰","STREET":"和平街","SECT":" ","MAREA":" ","LANE":"１６８巷","ALLEY":" ","HOUSE_NO":"１２號","E_COORD97":177433.29000000001,"N_COORD97":2553331.75,"ADDRESS":"和平街１６８巷１２號","OBJECTID":265939},"geometry":{"x":177433.2900000019,"y":2553331.75}},{"attributes":{"ID":265944,"DIS_CODE":0,"TOWNNAME":"永康區","LI":"西灣里","LIN":"47鄰","STREET":"大灣路","SECT":" ","MAREA":" ","LANE":"９４２巷","ALLEY":" ","HOUSE_NO":"４３２號","E_COORD97":173957.13,"N_COORD97":2545641.9900000002,"ADDRESS":"大灣路９４２巷４３２號","OBJECTID":265940},"geometry":{"x":173957.12999999989,"y":2545641.9900000039}},{"attributes":{"ID":265945,"DIS_CODE":0,"TOWNNAME":"永康區","LI":"西灣里","LIN":"47鄰","STREET":"大灣路","SECT":" ","MAREA":" ","LANE":"９４２巷","ALLEY":" ","HOUSE_NO":"５８５號之１","E_COORD97":173937.76000000001,"N_COORD97":2545663.54,"ADDRESS":"大灣路９４２巷５８５號之１","OBJECTID":265941},"geometry":{"x":173937.76000000164,"y":2545663.5399999991}},{"attributes":{"ID":265946,"DIS_CODE":0,"TOWNNAME":"永康區","LI":"西灣里","LIN":"47鄰","STREET":"大灣路","SECT":" ","MAREA":" ","LANE":"９４２巷","ALLEY":" ","HOUSE_NO":"４４２號","E_COORD97":173950.64999999999,"N_COORD97":2545663.4900000002,"ADDRESS":"大灣路９４２巷４４２號","OBJECTID":265942},"geometry":{"x":173950.65000000037,"y":2545663.4900000021}},{"attributes":{"ID":265947,"DIS_CODE":0,"TOWNNAME":"永康區","LI":"正強里","LIN":"47鄰","STREET":"中正路","SECT":" ","MAREA":" ","LANE":"２５６巷","ALLEY":" ","HOUSE_NO":"１１號之４","E_COORD97":173229.98000000001,"N_COORD97":2547996.2000000002,"ADDRESS":"中正路２５６巷１１號之４","OBJECTID":265943},"geometry":{"x":173229.98000000231,"y":2547996.2000000011}},{"attributes":{"ID":265948,"DIS_CODE":0,"TOWNNAME":"仁德區","LI":"新田里","LIN":"4鄰","STREET":"勝利路","SECT":" ","MAREA":" ","LANE":" ","ALLEY":" ","HOUSE_NO":"１８７號","E_COORD97":174411.71872899999,"N_COORD97":2539576.9390500002,"ADDRESS":"勝利路１８７號","OBJECTID":265944},"geometry":{"x":174411.71872899961,"y":2539576.9390479997}},{"attributes":{"ID":265949,"DIS_CODE":0,"TOWNNAME":"永康區","LI":"正強里","LIN":"47鄰","STREET":"中正路","SECT":" ","MAREA":" ","LANE":"２５６巷","ALLEY":" ","HOUSE_NO":"１１號之２６","E_COORD97":173231.31,"N_COORD97":2547996.2000000002,"ADDRESS":"中正路２５６巷１１號之２６","OBJECTID":265945},"geometry":{"x":173231.30999999959,"y":2547996.2000000011}},{"attributes":{"ID":265950,"DIS_CODE":0,"TOWNNAME":"永康區","LI":"正強里","LIN":"47鄰","STREET":"中正路","SECT":" ","MAREA":" ","LANE":"２５６巷","ALLEY":" ","HOUSE_NO":"１１號之１１","E_COORD97":173231.20999999999,"N_COORD97":2547996.2000000002,"ADDRESS":"中正路２５６巷１１號之１１","OBJECTID":265946},"geometry":{"x":173231.20999999903,"y":2547996.2000000011}},{"attributes":{"ID":265951,"DIS_CODE":0,"TOWNNAME":"六甲區","LI":"中社里","LIN":"2鄰","STREET":" ","SECT":" ","MAREA":"中社","LANE":" ","ALLEY":" ","HOUSE_NO":"６８號","E_COORD97":181114.73000000001,"N_COORD97":2570866.8700000001,"ADDRESS":"中社６８號","OBJECTID":265947},"geometry":{"x":181114.73000000138,"y":2570866.870000001}},{"attributes":{"ID":265952,"DIS_CODE":0,"TOWNNAME":"仁德區","LI":"太子里","LIN":"47鄰","STREET":"太子路","SECT":" ","MAREA":" ","LANE":"９巷","ALLEY":" ","HOUSE_NO":"８４號","E_COORD97":175422.29000000001,"N_COORD97":2543395.75,"ADDRESS":"太子路９巷８４號","OBJECTID":265948},"geometry":{"x":175422.29000000004,"y":2543395.7500000019}},{"attributes":{"ID":265953,"DIS_CODE":0,"TOWNNAME":"新市區","LI":"新和里","LIN":"47鄰","STREET":"和平街","SECT":" ","MAREA":" ","LANE":"１６８巷","ALLEY":" ","HOUSE_NO":"２６號","E_COORD97":177406.54000000001,"N_COORD97":2553364.75,"ADDRESS":"和平街１６８巷２６號","OBJECTID":265949},"geometry":{"x":177406.54000000097,"y":2553364.75}},{"attributes":{"ID":265954,"DIS_CODE":0,"TOWNNAME":"新市區","LI":"新和里","LIN":"47鄰","STREET":"和平街","SECT":" ","MAREA":" ","LANE":"１６８巷","ALLEY":" ","HOUSE_NO":"９號","E_COORD97":177423.76000000001,"N_COORD97":2553322.5,"ADDRESS":"和平街１６８巷９號","OBJECTID":265950},"geometry":{"x":177423.76000000071,"y":2553322.5}},{"attributes":{"ID":265955,"DIS_CODE":0,"TOWNNAME":"新市區","LI":"新和里","LIN":"47鄰","STREET":"和平街","SECT":" ","MAREA":" ","LANE":"１６８巷","ALLEY":" ","HOUSE_NO":"１５號","E_COORD97":177410.62,"N_COORD97":2553332,"ADDRESS":"和平街１６８巷１５號","OBJECTID":265951},"geometry":{"x":177410.61999999918,"y":2553332.0000000019}},{"attributes":{"ID":265956,"DIS_CODE":0,"TOWNNAME":"東區","LI":"關聖里","LIN":"6鄰","STREET":"富農街","SECT":"二段","MAREA":" ","LANE":" ","ALLEY":" ","HOUSE_NO":"１４號","E_COORD97":171652.82000000001,"N_COORD97":2542872.3900000001,"ADDRESS":"富農街二段１４號","OBJECTID":265952},"geometry":{"x":171652.82000000123,"y":2542872.3900000006}},{"attributes":{"ID":265957,"DIS_CODE":0,"TOWNNAME":"東區","LI":"關聖里","LIN":"6鄰","STREET":"富農街","SECT":"二段","MAREA":" ","LANE":" ","ALLEY":" ","HOUSE_NO":"１４之１號","E_COORD97":171655.95000000001,"N_COORD97":2542878.98,"ADDRESS":"富農街二段１４之１號","OBJECTID":265953},"geometry":{"x":171655.95000000019,"y":2542878.9800000042}},{"attributes":{"ID":265958,"DIS_CODE":0,"TOWNNAME":"東區","LI":"東光里","LIN":"12鄰","STREET":"怡東路","SECT":" ","MAREA":" ","LANE":" ","ALLEY":" ","HOUSE_NO":"１７７號","E_COORD97":170901.26999999999,"N_COORD97":2543958.1899999999,"ADDRESS":"怡東路１７７號","OBJECTID":265954},"geometry":{"x":170901.27000000142,"y":2543958.1900000032}},{"attributes":{"ID":265959,"DIS_CODE":0,"TOWNNAME":"東區","LI":"東光里","LIN":"12鄰","STREET":"怡東路","SECT":" ","MAREA":" ","LANE":" ","ALLEY":" ","HOUSE_NO":"１７９號","E_COORD97":170902.04000000001,"N_COORD97":2543970.54,"ADDRESS":"怡東路１７９號","OBJECTID":265955},"geometry":{"x":170902.04000000097,"y":2543970.5399999991}},{"attributes":{"ID":265960,"DIS_CODE":0,"TOWNNAME":"歸仁區","LI":"六甲里","LIN":"3鄰","STREET":"中正南路","SECT":"一段","MAREA":" ","LANE":" ","ALLEY":" ","HOUSE_NO":"６２７號","E_COORD97":176665.09011700001,"N_COORD97":2539863.3291099998,"ADDRESS":"中正南路一段６２７號","OBJECTID":265956},"geometry":{"x":176665.09011700004,"y":2539863.3291060012}},{"attributes":{"ID":265961,"DIS_CODE":0,"TOWNNAME":"永康區","LI":"崑山里","LIN":"47鄰","STREET":"國光五街","SECT":" ","MAREA":" ","LANE":"２２巷","ALLEY":" ","HOUSE_NO":"１８號","E_COORD97":174246.92000000001,"N_COORD97":2545152.7400000002,"ADDRESS":"國光五街２２巷１８號","OBJECTID":265957},"geometry":{"x":174246.92000000179,"y":2545152.7400000021}},{"attributes":{"ID":265962,"DIS_CODE":0,"TOWNNAME":"仁德區","LI":"成功里","LIN":"47鄰","STREET":"文賢路","SECT":"一段","MAREA":" ","LANE":"２９巷","ALLEY":" ","HOUSE_NO":"４號","E_COORD97":170169.62,"N_COORD97":2538290.3199999998,"ADDRESS":"文賢路一段２９巷４號","OBJECTID":265958},"geometry":{"x":170169.62000000104,"y":2538290.3200000022}},{"attributes":{"ID":265963,"DIS_CODE":0,"TOWNNAME":"永康區","LI":"二王里","LIN":"47鄰","STREET":"南工街","SECT":" ","MAREA":" ","LANE":"２２６巷","ALLEY":" ","HOUSE_NO":"２１６號","E_COORD97":172030.32000000001,"N_COORD97":2545958.4900000002,"ADDRESS":"南工街２２６巷２１６號","OBJECTID":265959},"geometry":{"x":172030.3200000003,"y":2545958.4900000021}},{"attributes":{"ID":265964,"DIS_CODE":0,"TOWNNAME":"永康區","LI":"二王里","LIN":"47鄰","STREET":"南工街","SECT":" ","MAREA":" ","LANE":"２２６巷","ALLEY":" ","HOUSE_NO":"２１６號之１","E_COORD97":172028.14999999999,"N_COORD97":2545958.04,"ADDRESS":"南工街２２６巷２１６號之１","OBJECTID":265960},"geometry":{"x":172028.15000000037,"y":2545958.0399999991}},{"attributes":{"ID":265965,"DIS_CODE":0,"TOWNNAME":"永康區","LI":"二王里","LIN":"47鄰","STREET":"南工街","SECT":" ","MAREA":" ","LANE":"２２６巷","ALLEY":" ","HOUSE_NO":"２１８號之１","E_COORD97":172019.89999999999,"N_COORD97":2545958.54,"ADDRESS":"南工街２２６巷２１８號之１","OBJECTID":265961},"geometry":{"x":172019.90000000037,"y":2545958.5399999991}},{"attributes":{"ID":265966,"DIS_CODE":0,"TOWNNAME":"永康區","LI":"二王里","LIN":"47鄰","STREET":"南工街","SECT":" ","MAREA":" ","LANE":"２２６巷","ALLEY":" ","HOUSE_NO":"２２０號","E_COORD97":172013.92999999999,"N_COORD97":2545959.2400000002,"ADDRESS":"南工街２２６巷２２０號","OBJECTID":265962},"geometry":{"x":172013.9299999997,"y":2545959.2400000021}},{"attributes":{"ID":265967,"DIS_CODE":0,"TOWNNAME":"永康區","LI":"正強里","LIN":"47鄰","STREET":"中正路","SECT":" ","MAREA":" ","LANE":"２５６巷","ALLEY":" ","HOUSE_NO":"１１號之２","E_COORD97":173230.09,"N_COORD97":2547996.2000000002,"ADDRESS":"中正路２５６巷１１號之２","OBJECTID":265963},"geometry":{"x":173230.08999999985,"y":2547996.2000000011}},{"attributes":{"ID":265968,"DIS_CODE":0,"TOWNNAME":"永康區","LI":"正強里","LIN":"47鄰","STREET":"中正路","SECT":" ","MAREA":" ","LANE":"２５６巷","ALLEY":" ","HOUSE_NO":"１１號之８","E_COORD97":173230.10999999999,"N_COORD97":2547996.2000000002,"ADDRESS":"中正路２５６巷１１號之８","OBJECTID":265964},"geometry":{"x":173230.11000000034,"y":2547996.2000000011}},{"attributes":{"ID":265969,"DIS_CODE":0,"TOWNNAME":"北區","LI":"正覺里","LIN":"3鄰","STREET":"西門路","SECT":"四段","MAREA":" ","LANE":"３８０巷","ALLEY":" ","HOUSE_NO":"２０號","E_COORD97":169109.89999999999,"N_COORD97":2546086.6499999999,"ADDRESS":"西門路四段３８０巷２０號","OBJECTID":265965},"geometry":{"x":169109.9000000013,"y":2546086.6500000022}},{"attributes":{"ID":265970,"DIS_CODE":0,"TOWNNAME":"歸仁區","LI":"沙崙里","LIN":"3鄰","STREET":" ","SECT":" ","MAREA":"二甲","LANE":" ","ALLEY":" ","HOUSE_NO":"１００號","E_COORD97":178438.82999999999,"N_COORD97":2539215.8900000001,"ADDRESS":"二甲１００號","OBJECTID":265966},"geometry":{"x":178438.83000000101,"y":2539215.8900000025}},{"attributes":{"ID":265971,"DIS_CODE":0,"TOWNNAME":"歸仁區","LI":"八甲里","LIN":"3鄰","STREET":"大光街","SECT":" ","MAREA":" ","LANE":" ","ALLEY":" ","HOUSE_NO":"７６號","E_COORD97":177989.17000000001,"N_COORD97":2541747.6099999999,"ADDRESS":"大光街７６號","OBJECTID":265967},"geometry":{"x":177989.16999999993,"y":2541747.6099999994}},{"attributes":{"ID":265972,"DIS_CODE":0,"TOWNNAME":"歸仁區","LI":"大廟里","LIN":"3鄰","STREET":"大廟二街","SECT":" ","MAREA":" ","LANE":" ","ALLEY":" ","HOUSE_NO":"９１號","E_COORD97":176032.97,"N_COORD97":2543907.25,"ADDRESS":"大廟二街９１號","OBJECTID":265968},"geometry":{"x":176032.96999999974,"y":2543907.2500000037}},{"attributes":{"ID":265973,"DIS_CODE":0,"TOWNNAME":"歸仁區","LI":"西埔里","LIN":"3鄰","STREET":"保大路","SECT":"二段","MAREA":" ","LANE":" ","ALLEY":" ","HOUSE_NO":"９３號","E_COORD97":177076.07999999999,"N_COORD97":2544116.25,"ADDRESS":"保大路二段９３號","OBJECTID":265969},"geometry":{"x":177076.08000000101,"y":2544116.25}},{"attributes":{"ID":265974,"DIS_CODE":0,"TOWNNAME":"歸仁區","LI":"西埔里","LIN":"3鄰","STREET":"保大路","SECT":"二段","MAREA":" ","LANE":" ","ALLEY":" ","HOUSE_NO":"６３號","E_COORD97":177155.98000000001,"N_COORD97":2544108.25,"ADDRESS":"保大路二段６３號","OBJECTID":265970},"geometry":{"x":177155.98000000231,"y":2544108.2500000019}},{"attributes":{"ID":265975,"DIS_CODE":0,"TOWNNAME":"歸仁區","LI":"大廟里","LIN":"3鄰","STREET":"和順路","SECT":"二段","MAREA":" ","LANE":" ","ALLEY":" ","HOUSE_NO":"３２號","E_COORD97":176509.09,"N_COORD97":2543739.2799999998,"ADDRESS":"和順路二段３２號","OBJECTID":265971},"geometry":{"x":176509.09000000078,"y":2543739.2799999993}},{"attributes":{"ID":265976,"DIS_CODE":0,"TOWNNAME":"歸仁區","LI":"大廟里","LIN":"3鄰","STREET":"和順路","SECT":"二段","MAREA":" ","LANE":" ","ALLEY":" ","HOUSE_NO":"９６號","E_COORD97":176257.39000000001,"N_COORD97":2543645.2799999998,"ADDRESS":"和順路二段９６號","OBJECTID":265972},"geometry":{"x":176257.39000000153,"y":2543645.2800000031}},{"attributes":{"ID":265977,"DIS_CODE":0,"TOWNNAME":"永康區","LI":"正強里","LIN":"47鄰","STREET":"中正路","SECT":" ","MAREA":" ","LANE":"２５６巷","ALLEY":" ","HOUSE_NO":"１１號之１０","E_COORD97":173231.26000000001,"N_COORD97":2547996.2000000002,"ADDRESS":"中正路２５６巷１１號之１０","OBJECTID":265973},"geometry":{"x":173231.26000000071,"y":2547996.2000000011}},{"attributes":{"ID":265978,"DIS_CODE":0,"TOWNNAME":"永康區","LI":"正強里","LIN":"47鄰","STREET":"中正路","SECT":" ","MAREA":" ","LANE":"２５６巷","ALLEY":" ","HOUSE_NO":"１１號之２９","E_COORD97":173231.29000000001,"N_COORD97":2547996.2000000002,"ADDRESS":"中正路２５６巷１１號之２９","OBJECTID":265974},"geometry":{"x":173231.29000000097,"y":2547996.2000000011}},{"attributes":{"ID":265979,"DIS_CODE":0,"TOWNNAME":"新市區","LI":"新和里","LIN":"47鄰","STREET":"和平街","SECT":" ","MAREA":" ","LANE":"１６８巷","ALLEY":" ","HOUSE_NO":"１６號","E_COORD97":177426.70000000001,"N_COORD97":2553341.25,"ADDRESS":"和平街１６８巷１６號","OBJECTID":265975},"geometry":{"x":177426.70000000019,"y":2553341.25}},{"attributes":{"ID":265980,"DIS_CODE":0,"TOWNNAME":"歸仁區","LI":"南保里","LIN":"47鄰","STREET":"民權十街","SECT":" ","MAREA":" ","LANE":"１２３巷","ALLEY":" ","HOUSE_NO":"６號","E_COORD97":176748.73999999999,"N_COORD97":2540657.29,"ADDRESS":"民權十街１２３巷６號","OBJECTID":265976},"geometry":{"x":176748.74000000022,"y":2540657.2899999991}},{"attributes":{"ID":265981,"DIS_CODE":0,"TOWNNAME":"歸仁區","LI":"後市里","LIN":"47鄰","STREET":"文化街","SECT":"二段","MAREA":" ","LANE":"１３９巷","ALLEY":" ","HOUSE_NO":"３號","E_COORD97":177161.54000000001,"N_COORD97":2541171.7599999998,"ADDRESS":"文化街二段１３９巷３號","OBJECTID":265977},"geometry":{"x":177161.54000000004,"y":2541171.7600000016}},{"attributes":{"ID":265982,"DIS_CODE":0,"TOWNNAME":"歸仁區","LI":"南保里","LIN":"47鄰","STREET":"民權十街","SECT":" ","MAREA":" ","LANE":"６３巷","ALLEY":" ","HOUSE_NO":"４０號","E_COORD97":176763.51000000001,"N_COORD97":2540639.2999999998,"ADDRESS":"民權十街６３巷４０號","OBJECTID":265978},"geometry":{"x":176763.51000000164,"y":2540639.3000000045}},{"attributes":{"ID":265983,"DIS_CODE":0,"TOWNNAME":"歸仁區","LI":"辜厝里","LIN":"47鄰","STREET":"民權九街","SECT":" ","MAREA":" ","LANE":"５６巷","ALLEY":" ","HOUSE_NO":"７號","E_COORD97":177083.82000000001,"N_COORD97":2540310.0299999998,"ADDRESS":"民權九街５６巷７號","OBJECTID":265979},"geometry":{"x":177083.8200000003,"y":2540310.0299999993}},{"attributes":{"ID":265984,"DIS_CODE":0,"TOWNNAME":"歸仁區","LI":"辜厝里","LIN":"47鄰","STREET":"民權九街","SECT":" ","MAREA":" ","LANE":"５６巷","ALLEY":" ","HOUSE_NO":"３號","E_COORD97":177083.82000000001,"N_COORD97":2540317.0299999998,"ADDRESS":"民權九街５６巷３號","OBJECTID":265980},"geometry":{"x":177083.8200000003,"y":2540317.0299999993}},{"attributes":{"ID":265985,"DIS_CODE":0,"TOWNNAME":"歸仁區","LI":"辜厝里","LIN":"47鄰","STREET":"民權九街","SECT":" ","MAREA":" ","LANE":"５６巷","ALLEY":" ","HOUSE_NO":"５號","E_COORD97":177083.82000000001,"N_COORD97":2540313.0299999998,"ADDRESS":"民權九街５６巷５號","OBJECTID":265981},"geometry":{"x":177083.8200000003,"y":2540313.0299999993}},{"attributes":{"ID":265986,"DIS_CODE":0,"TOWNNAME":"歸仁區","LI":"辜厝里","LIN":"47鄰","STREET":"民權九街","SECT":" ","MAREA":" ","LANE":"５６巷","ALLEY":" ","HOUSE_NO":"１號","E_COORD97":177084.82000000001,"N_COORD97":2540322.0299999998,"ADDRESS":"民權九街５６巷１號","OBJECTID":265982},"geometry":{"x":177084.82000000123,"y":2540322.0300000012}},{"attributes":{"ID":265987,"DIS_CODE":0,"TOWNNAME":"歸仁區","LI":"辜厝里","LIN":"47鄰","STREET":"民權九街","SECT":" ","MAREA":" ","LANE":"５６巷","ALLEY":" ","HOUSE_NO":"１１號","E_COORD97":177083.97,"N_COORD97":2540302.0299999998,"ADDRESS":"民權九街５６巷１１號","OBJECTID":265983},"geometry":{"x":177083.96999999974,"y":2540302.0300000012}},{"attributes":{"ID":265988,"DIS_CODE":0,"TOWNNAME":"歸仁區","LI":"南保里","LIN":"47鄰","STREET":"民權十街","SECT":" ","MAREA":" ","LANE":"６３巷","ALLEY":" ","HOUSE_NO":"４６號","E_COORD97":176764.51000000001,"N_COORD97":2540631.2999999998,"ADDRESS":"民權十街６３巷４６號","OBJECTID":265984},"geometry":{"x":176764.50999999978,"y":2540631.3000000007}},{"attributes":{"ID":265989,"DIS_CODE":0,"TOWNNAME":"歸仁區","LI":"後市里","LIN":"47鄰","STREET":"文化街","SECT":"二段","MAREA":" ","LANE":"１２１巷","ALLEY":" ","HOUSE_NO":"５號","E_COORD97":177195.34,"N_COORD97":2541161.7599999998,"ADDRESS":"文化街二段１２１巷５號","OBJECTID":265985},"geometry":{"x":177195.34000000171,"y":2541161.7600000016}},{"attributes":{"ID":265990,"DIS_CODE":0,"TOWNNAME":"歸仁區","LI":"南保里","LIN":"47鄰","STREET":"民權十街","SECT":" ","MAREA":" ","LANE":"６３巷","ALLEY":" ","HOUSE_NO":"３２號","E_COORD97":176763.60999999999,"N_COORD97":2540656.2999999998,"ADDRESS":"民權十街６３巷３２號","OBJECTID":265986},"geometry":{"x":176763.61000000127,"y":2540656.3000000045}},{"attributes":{"ID":265991,"DIS_CODE":0,"TOWNNAME":"歸仁區","LI":"南保里","LIN":"47鄰","STREET":"民權十街","SECT":" ","MAREA":" ","LANE":"６３巷","ALLEY":" ","HOUSE_NO":"３８號","E_COORD97":176763.51000000001,"N_COORD97":2540643.2999999998,"ADDRESS":"民權十街６３巷３８號","OBJECTID":265987},"geometry":{"x":176763.51000000164,"y":2540643.3000000026}},{"attributes":{"ID":265992,"DIS_CODE":0,"TOWNNAME":"歸仁區","LI":"後市里","LIN":"47鄰","STREET":"文化街","SECT":"二段","MAREA":" ","LANE":"１２１巷","ALLEY":" ","HOUSE_NO":"１號","E_COORD97":177196.44,"N_COORD97":2541168.7599999998,"ADDRESS":"文化街二段１２１巷１號","OBJECTID":265988},"geometry":{"x":177196.44000000041,"y":2541168.7600000016}},{"attributes":{"ID":265993,"DIS_CODE":0,"TOWNNAME":"歸仁區","LI":"南保里","LIN":"47鄰","STREET":"民權十街","SECT":" ","MAREA":" ","LANE":"６３巷","ALLEY":" ","HOUSE_NO":"３０號","E_COORD97":176763.60999999999,"N_COORD97":2540660.2999999998,"ADDRESS":"民權十街６３巷３０號","OBJECTID":265989},"geometry":{"x":176763.61000000127,"y":2540660.3000000026}},{"attributes":{"ID":265994,"DIS_CODE":0,"TOWNNAME":"歸仁區","LI":"大廟里","LIN":"3鄰","STREET":"保大路","SECT":"三段","MAREA":" ","LANE":" ","ALLEY":" ","HOUSE_NO":"１２３號","E_COORD97":176167.47,"N_COORD97":2544071.2799999998,"ADDRESS":"保大路三段１２３號","OBJECTID":265990},"geometry":{"x":176167.47000000067,"y":2544071.2799999993}},{"attributes":{"ID":265995,"DIS_CODE":0,"TOWNNAME":"歸仁區","LI":"南保里","LIN":"47鄰","STREET":"民權十街","SECT":" ","MAREA":" ","LANE":"６３巷","ALLEY":" ","HOUSE_NO":"３４號","E_COORD97":176763.60999999999,"N_COORD97":2540652.2999999998,"ADDRESS":"民權十街６３巷３４號","OBJECTID":265991},"geometry":{"x":176763.61000000127,"y":2540652.3000000007}},{"attributes":{"ID":265996,"DIS_CODE":0,"TOWNNAME":"歸仁區","LI":"後市里","LIN":"47鄰","STREET":"文化街","SECT":"二段","MAREA":" ","LANE":"１３９巷","ALLEY":" ","HOUSE_NO":"５號","E_COORD97":177160.54000000001,"N_COORD97":2541165.7599999998,"ADDRESS":"文化街二段１３９巷５號","OBJECTID":265992},"geometry":{"x":177160.54000000097,"y":2541165.7600000016}},{"attributes":{"ID":265997,"DIS_CODE":0,"TOWNNAME":"永康區","LI":"西灣里","LIN":"47鄰","STREET":"大灣路","SECT":" ","MAREA":" ","LANE":"９４２巷","ALLEY":" ","HOUSE_NO":"５７７號","E_COORD97":173941.70000000001,"N_COORD97":2545643.4900000002,"ADDRESS":"大灣路９４２巷５７７號","OBJECTID":265993},"geometry":{"x":173941.70000000019,"y":2545643.4900000002}},{"attributes":{"ID":265998,"DIS_CODE":0,"TOWNNAME":"仁德區","LI":"太子里","LIN":"47鄰","STREET":"太子路","SECT":" ","MAREA":" ","LANE":"９巷","ALLEY":" ","HOUSE_NO":"２７號","E_COORD97":175481.98000000001,"N_COORD97":2543478.7400000002,"ADDRESS":"太子路９巷２７號","OBJECTID":265994},"geometry":{"x":175481.98000000138,"y":2543478.7400000002}},{"attributes":{"ID":265999,"DIS_CODE":0,"TOWNNAME":"仁德區","LI":"仁義里","LIN":"47鄰","STREET":"仁義路","SECT":" ","MAREA":" ","LANE":"２１巷","ALLEY":" ","HOUSE_NO":"３７號","E_COORD97":173463.70000000001,"N_COORD97":2541042.77,"ADDRESS":"仁義路２１巷３７號","OBJECTID":265995},"geometry":{"x":173463.70000000019,"y":2541042.7700000014}},{"attributes":{"ID":266000,"DIS_CODE":0,"TOWNNAME":"仁德區","LI":"仁義里","LIN":"47鄰","STREET":"仁義路","SECT":" ","MAREA":" ","LANE":"２１巷","ALLEY":" ","HOUSE_NO":"１６號","E_COORD97":173479.87,"N_COORD97":2541010.0099999998,"ADDRESS":"仁義路２１巷１６號","OBJECTID":265996},"geometry":{"x":173479.87000000104,"y":2541010.0100000035}},{"attributes":{"ID":266001,"DIS_CODE":0,"TOWNNAME":"仁德區","LI":"太子里","LIN":"47鄰","STREET":"太子路","SECT":" ","MAREA":" ","LANE":"９巷","ALLEY":" ","HOUSE_NO":"６４號","E_COORD97":175442.82999999999,"N_COORD97":2543403.0099999998,"ADDRESS":"太子路９巷６４號","OBJECTID":265997},"geometry":{"x":175442.83000000194,"y":2543403.0099999998}},{"attributes":{"ID":266002,"DIS_CODE":0,"TOWNNAME":"仁德區","LI":"太子里","LIN":"47鄰","STREET":"太子路","SECT":" ","MAREA":" ","LANE":"９巷","ALLEY":" ","HOUSE_NO":"４８號","E_COORD97":175439.70000000001,"N_COORD97":2543436.7599999998,"ADDRESS":"太子路９巷４８號","OBJECTID":265998},"geometry":{"x":175439.70000000019,"y":2543436.7600000016}},{"attributes":{"ID":266003,"DIS_CODE":0,"TOWNNAME":"仁德區","LI":"太子里","LIN":"47鄰","STREET":"太子路","SECT":" ","MAREA":" ","LANE":"９巷","ALLEY":" ","HOUSE_NO":"６６號","E_COORD97":175438.54999999999,"N_COORD97":2543404.2599999998,"ADDRESS":"太子路９巷６６號","OBJECTID":265999},"geometry":{"x":175438.54999999981,"y":2543404.2599999998}},{"attributes":{"ID":266004,"DIS_CODE":0,"TOWNNAME":"仁德區","LI":"太子里","LIN":"47鄰","STREET":"太子路","SECT":" ","MAREA":" ","LANE":"９巷","ALLEY":" ","HOUSE_NO":"６０號","E_COORD97":175432.23999999999,"N_COORD97":2543427.2599999998,"ADDRESS":"太子路９巷６０號","OBJECTID":266000},"geometry":{"x":175432.24000000115,"y":2543427.2599999998}}]}