{"displayFieldName":"TOWNNAME","fieldAliases":{"ID":"ID","DIS_CODE":"DIS_CODE","TOWNNAME":"TOWNNAME","LI":"LI","LIN":"LIN","STREET":"STREET","SECT":"SECT","MAREA":"MAREA","LANE":"LANE","ALLEY":"ALLEY","HOUSE_NO":"HOUSE_NO","E_COORD97":"E_COORD97","N_COORD97":"N_COORD97","ADDRESS":"ADDRESS","OBJECTID":"OBJECTID"},"geometryType":"esriGeometryPoint","spatialReference":{"wkid":102443,"latestWkid":3826},"fields":[{"name":"ID","type":"esriFieldTypeDouble","alias":"ID"},{"name":"DIS_CODE","type":"esriFieldTypeInteger","alias":"DIS_CODE"},{"name":"TOWNNAME","type":"esriFieldTypeString","alias":"TOWNNAME","length":8},{"name":"LI","type":"esriFieldTypeString","alias":"LI","length":8},{"name":"LIN","type":"esriFieldTypeString","alias":"LIN","length":12},{"name":"STREET","type":"esriFieldTypeString","alias":"STREET","length":20},{"name":"SECT","type":"esriFieldTypeString","alias":"SECT","length":8},{"name":"MAREA","type":"esriFieldTypeString","alias":"MAREA","length":12},{"name":"LANE","type":"esriFieldTypeString","alias":"LANE","length":10},{"name":"ALLEY","type":"esriFieldTypeString","alias":"ALLEY","length":10},{"name":"HOUSE_NO","type":"esriFieldTypeString","alias":"HOUSE_NO","length":20},{"name":"E_COORD97","type":"esriFieldTypeDouble","alias":"E_COORD97"},{"name":"N_COORD97","type":"esriFieldTypeDouble","alias":"N_COORD97"},{"name":"ADDRESS","type":"esriFieldTypeString","alias":"ADDRESS","length":50},{"name":"OBJECTID","type":"esriFieldTypeOID","alias":"OBJECTID"}],"features":[{"attributes":{"ID":477026,"DIS_CODE":0,"TOWNNAME":"下營區","LI":"新興里","LIN":"20鄰","STREET":"中山路","SECT":"一段","MAREA":" ","LANE":" ","ALLEY":" ","HOUSE_NO":"２３８號","E_COORD97":174896.25,"N_COORD97":2570653.6000000001,"ADDRESS":"中山路一段２３８號","OBJECTID":477001},"geometry":{"x":174896.25000000093,"y":2570653.5999999996}},{"attributes":{"ID":477027,"DIS_CODE":0,"TOWNNAME":"下營區","LI":"下營里","LIN":"20鄰","STREET":"中山路","SECT":"一段","MAREA":" ","LANE":" ","ALLEY":" ","HOUSE_NO":"２號","E_COORD97":174395,"N_COORD97":2570457.8999999999,"ADDRESS":"中山路一段２號","OBJECTID":477002},"geometry":{"x":174395,"y":2570457.9000000022}},{"attributes":{"ID":477028,"DIS_CODE":0,"TOWNNAME":"下營區","LI":"下營里","LIN":"20鄰","STREET":"中山路","SECT":"一段","MAREA":" ","LANE":" ","ALLEY":" ","HOUSE_NO":"６號","E_COORD97":174401.35999999999,"N_COORD97":2570460.29,"ADDRESS":"中山路一段６號","OBJECTID":477003},"geometry":{"x":174401.36000000034,"y":2570460.290000001}},{"attributes":{"ID":477029,"DIS_CODE":0,"TOWNNAME":"下營區","LI":"下營里","LIN":"20鄰","STREET":"中山路","SECT":"一段","MAREA":" ","LANE":" ","ALLEY":" ","HOUSE_NO":"８號","E_COORD97":174405.67999999999,"N_COORD97":2570460.4900000002,"ADDRESS":"中山路一段８號","OBJECTID":477004},"geometry":{"x":174405.6799999997,"y":2570460.4900000021}},{"attributes":{"ID":477030,"DIS_CODE":0,"TOWNNAME":"下營區","LI":"下營里","LIN":"20鄰","STREET":"中山路","SECT":"二段","MAREA":" ","LANE":" ","ALLEY":" ","HOUSE_NO":"１１號","E_COORD97":174393.34,"N_COORD97":2570429.73,"ADDRESS":"中山路二段１１號","OBJECTID":477005},"geometry":{"x":174393.34000000078,"y":2570429.7300000004}},{"attributes":{"ID":477031,"DIS_CODE":0,"TOWNNAME":"下營區","LI":"下營里","LIN":"20鄰","STREET":"中山路","SECT":"二段","MAREA":" ","LANE":" ","ALLEY":" ","HOUSE_NO":"１５號","E_COORD97":174394.81,"N_COORD97":2570421.3900000001,"ADDRESS":"中山路二段１５號","OBJECTID":477006},"geometry":{"x":174394.81000000145,"y":2570421.3900000025}},{"attributes":{"ID":477032,"DIS_CODE":0,"TOWNNAME":"下營區","LI":"營前里","LIN":"20鄰","STREET":"中山路","SECT":"二段","MAREA":" ","LANE":" ","ALLEY":" ","HOUSE_NO":"１７９號","E_COORD97":174587.22,"N_COORD97":2569967.5099999998,"ADDRESS":"中山路二段１７９號","OBJECTID":477007},"geometry":{"x":174587.2200000016,"y":2569967.5100000016}},{"attributes":{"ID":477033,"DIS_CODE":0,"TOWNNAME":"下營區","LI":"下營里","LIN":"20鄰","STREET":"中山路","SECT":"二段","MAREA":" ","LANE":" ","ALLEY":" ","HOUSE_NO":"１７號","E_COORD97":174395.12,"N_COORD97":2570419.23,"ADDRESS":"中山路二段１７號","OBJECTID":477008},"geometry":{"x":174395.12000000104,"y":2570419.2300000004}},{"attributes":{"ID":477034,"DIS_CODE":0,"TOWNNAME":"下營區","LI":"營前里","LIN":"20鄰","STREET":"中山路","SECT":"二段","MAREA":" ","LANE":" ","ALLEY":" ","HOUSE_NO":"１８１號","E_COORD97":174589.19,"N_COORD97":2569963.6099999999,"ADDRESS":"中山路二段１８１號","OBJECTID":477009},"geometry":{"x":174589.19000000041,"y":2569963.6100000013}},{"attributes":{"ID":477035,"DIS_CODE":0,"TOWNNAME":"下營區","LI":"營前里","LIN":"20鄰","STREET":"中山路","SECT":"二段","MAREA":" ","LANE":" ","ALLEY":" ","HOUSE_NO":"１８５號","E_COORD97":174601.73000000001,"N_COORD97":2569950.52,"ADDRESS":"中山路二段１８５號","OBJECTID":477010},"geometry":{"x":174601.73000000138,"y":2569950.5200000014}},{"attributes":{"ID":477036,"DIS_CODE":0,"TOWNNAME":"下營區","LI":"下營里","LIN":"20鄰","STREET":"中山路","SECT":"二段","MAREA":" ","LANE":" ","ALLEY":" ","HOUSE_NO":"１號","E_COORD97":174389.03,"N_COORD97":2570456.0699999998,"ADDRESS":"中山路二段１號","OBJECTID":477011},"geometry":{"x":174389.03000000212,"y":2570456.0700000022}},{"attributes":{"ID":477037,"DIS_CODE":0,"TOWNNAME":"下營區","LI":"下營里","LIN":"20鄰","STREET":"中山路","SECT":"二段","MAREA":" ","LANE":" ","ALLEY":" ","HOUSE_NO":"２１號","E_COORD97":174399.98000000001,"N_COORD97":2570413.3199999998,"ADDRESS":"中山路二段２１號","OBJECTID":477012},"geometry":{"x":174399.98000000138,"y":2570413.320000004}},{"attributes":{"ID":477038,"DIS_CODE":0,"TOWNNAME":"下營區","LI":"下營里","LIN":"20鄰","STREET":"中山路","SECT":"二段","MAREA":" ","LANE":" ","ALLEY":" ","HOUSE_NO":"２５號","E_COORD97":174403.41,"N_COORD97":2570400.3599999999,"ADDRESS":"中山路二段２５號","OBJECTID":477013},"geometry":{"x":174403.41000000108,"y":2570400.3599999994}},{"attributes":{"ID":477039,"DIS_CODE":0,"TOWNNAME":"下營區","LI":"下營里","LIN":"20鄰","STREET":"中山路","SECT":"二段","MAREA":" ","LANE":" ","ALLEY":" ","HOUSE_NO":"２７號","E_COORD97":174403.70000000001,"N_COORD97":2570397.2000000002,"ADDRESS":"中山路二段２７號","OBJECTID":477014},"geometry":{"x":174403.70000000112,"y":2570397.2000000011}},{"attributes":{"ID":477040,"DIS_CODE":0,"TOWNNAME":"下營區","LI":"下營里","LIN":"20鄰","STREET":"中山路","SECT":"二段","MAREA":" ","LANE":" ","ALLEY":" ","HOUSE_NO":"３１號","E_COORD97":174403.26000000001,"N_COORD97":2570387.5899999999,"ADDRESS":"中山路二段３１號","OBJECTID":477015},"geometry":{"x":174403.25999999978,"y":2570387.5900000017}},{"attributes":{"ID":477041,"DIS_CODE":0,"TOWNNAME":"下營區","LI":"下營里","LIN":"20鄰","STREET":"中山路","SECT":"二段","MAREA":" ","LANE":" ","ALLEY":" ","HOUSE_NO":"３３號","E_COORD97":174404.56,"N_COORD97":2570381.4900000002,"ADDRESS":"中山路二段３３號","OBJECTID":477016},"geometry":{"x":174404.55999999959,"y":2570381.4900000039}},{"attributes":{"ID":477042,"DIS_CODE":0,"TOWNNAME":"下營區","LI":"下營里","LIN":"20鄰","STREET":"中山路","SECT":"二段","MAREA":" ","LANE":" ","ALLEY":" ","HOUSE_NO":"３７號","E_COORD97":174405.32000000001,"N_COORD97":2570375.8700000001,"ADDRESS":"中山路二段３７號","OBJECTID":477017},"geometry":{"x":174405.3200000003,"y":2570375.870000001}},{"attributes":{"ID":477043,"DIS_CODE":0,"TOWNNAME":"下營區","LI":"下營里","LIN":"20鄰","STREET":"中山路","SECT":"二段","MAREA":" ","LANE":" ","ALLEY":" ","HOUSE_NO":"３９號","E_COORD97":174406.53,"N_COORD97":2570369.7599999998,"ADDRESS":"中山路二段３９號","OBJECTID":477018},"geometry":{"x":174406.53000000119,"y":2570369.7600000016}},{"attributes":{"ID":477044,"DIS_CODE":0,"TOWNNAME":"下營區","LI":"下營里","LIN":"20鄰","STREET":"中山路","SECT":"二段","MAREA":" ","LANE":" ","ALLEY":" ","HOUSE_NO":"３號","E_COORD97":174391.14000000001,"N_COORD97":2570450.71,"ADDRESS":"中山路二段３號","OBJECTID":477019},"geometry":{"x":174391.1400000006,"y":2570450.7100000009}},{"attributes":{"ID":477045,"DIS_CODE":0,"TOWNNAME":"歸仁區","LI":"南保里","LIN":"56鄰","STREET":"民權南路","SECT":" ","MAREA":" ","LANE":" ","ALLEY":" ","HOUSE_NO":"１３０號","E_COORD97":176946.76000000001,"N_COORD97":2540503.25,"ADDRESS":"民權南路１３０號","OBJECTID":477020},"geometry":{"x":176946.76000000071,"y":2540503.2500000037}},{"attributes":{"ID":477046,"DIS_CODE":0,"TOWNNAME":"下營區","LI":"宅內里","LIN":"20鄰","STREET":"中正北路","SECT":" ","MAREA":" ","LANE":" ","ALLEY":" ","HOUSE_NO":"１３７號","E_COORD97":174380.23000000001,"N_COORD97":2570853.0899999999,"ADDRESS":"中正北路１３７號","OBJECTID":477021},"geometry":{"x":174380.23000000045,"y":2570853.0900000017}},{"attributes":{"ID":477047,"DIS_CODE":0,"TOWNNAME":"下營區","LI":"宅內里","LIN":"20鄰","STREET":"中正北路","SECT":" ","MAREA":" ","LANE":" ","ALLEY":" ","HOUSE_NO":"１６９號","E_COORD97":174277.95999999999,"N_COORD97":2571105.25,"ADDRESS":"中正北路１６９號","OBJECTID":477022},"geometry":{"x":174277.96000000089,"y":2571105.2500000019}},{"attributes":{"ID":477048,"DIS_CODE":0,"TOWNNAME":"下營區","LI":"宅內里","LIN":"20鄰","STREET":"中正北路","SECT":" ","MAREA":" ","LANE":" ","ALLEY":" ","HOUSE_NO":"１８９號","E_COORD97":174186.26999999999,"N_COORD97":2571312.7400000002,"ADDRESS":"中正北路１８９號","OBJECTID":477023},"geometry":{"x":174186.26999999955,"y":2571312.7400000021}},{"attributes":{"ID":477049,"DIS_CODE":0,"TOWNNAME":"下營區","LI":"宅內里","LIN":"20鄰","STREET":"中正北路","SECT":" ","MAREA":" ","LANE":" ","ALLEY":" ","HOUSE_NO":"１９５號","E_COORD97":174101.57000000001,"N_COORD97":2571446.8900000001,"ADDRESS":"中正北路１９５號","OBJECTID":477024},"geometry":{"x":174101.5700000003,"y":2571446.8900000043}},{"attributes":{"ID":477050,"DIS_CODE":0,"TOWNNAME":"下營區","LI":"宅內里","LIN":"20鄰","STREET":"中正北路","SECT":" ","MAREA":" ","LANE":" ","ALLEY":" ","HOUSE_NO":"１９９號","E_COORD97":174104.97,"N_COORD97":2571471.2599999998,"ADDRESS":"中正北路１９９號","OBJECTID":477025},"geometry":{"x":174104.96999999974,"y":2571471.2600000016}},{"attributes":{"ID":477051,"DIS_CODE":0,"TOWNNAME":"下營區","LI":"宅內里","LIN":"20鄰","STREET":"中正北路","SECT":" ","MAREA":" ","LANE":" ","ALLEY":" ","HOUSE_NO":"２１１號","E_COORD97":174045.60000000001,"N_COORD97":2571565.0600000001,"ADDRESS":"中正北路２１１號","OBJECTID":477026},"geometry":{"x":174045.60000000056,"y":2571565.0600000024}},{"attributes":{"ID":477052,"DIS_CODE":0,"TOWNNAME":"下營區","LI":"宅內里","LIN":"20鄰","STREET":"中正北路","SECT":" ","MAREA":" ","LANE":" ","ALLEY":" ","HOUSE_NO":"２１５號","E_COORD97":174041.87,"N_COORD97":2571599.1899999999,"ADDRESS":"中正北路２１５號","OBJECTID":477027},"geometry":{"x":174041.87000000011,"y":2571599.1899999995}},{"attributes":{"ID":477053,"DIS_CODE":0,"TOWNNAME":"下營區","LI":"營前里","LIN":"20鄰","STREET":"中正南路","SECT":" ","MAREA":" ","LANE":" ","ALLEY":" ","HOUSE_NO":"１８６號","E_COORD97":174677.85999999999,"N_COORD97":2570054.6800000002,"ADDRESS":"中正南路１８６號","OBJECTID":477028},"geometry":{"x":174677.86000000034,"y":2570054.6800000016}},{"attributes":{"ID":477054,"DIS_CODE":0,"TOWNNAME":"下營區","LI":"營前里","LIN":"20鄰","STREET":"中正南路","SECT":" ","MAREA":" ","LANE":" ","ALLEY":" ","HOUSE_NO":"１８８號","E_COORD97":174679.51999999999,"N_COORD97":2570050.8300000001,"ADDRESS":"中正南路１８８號","OBJECTID":477029},"geometry":{"x":174679.51999999955,"y":2570050.8300000019}},{"attributes":{"ID":477055,"DIS_CODE":0,"TOWNNAME":"下營區","LI":"營前里","LIN":"20鄰","STREET":"中正南路","SECT":" ","MAREA":" ","LANE":" ","ALLEY":" ","HOUSE_NO":"１９０號","E_COORD97":174680.66,"N_COORD97":2570046.3399999999,"ADDRESS":"中正南路１９０號","OBJECTID":477030},"geometry":{"x":174680.66000000015,"y":2570046.3400000036}},{"attributes":{"ID":477056,"DIS_CODE":0,"TOWNNAME":"下營區","LI":"營前里","LIN":"20鄰","STREET":"中正南路","SECT":" ","MAREA":" ","LANE":" ","ALLEY":" ","HOUSE_NO":"１９２號","E_COORD97":174682.29999999999,"N_COORD97":2570042.6699999999,"ADDRESS":"中正南路１９２號","OBJECTID":477031},"geometry":{"x":174682.30000000075,"y":2570042.6699999999}},{"attributes":{"ID":477057,"DIS_CODE":0,"TOWNNAME":"下營區","LI":"營前里","LIN":"20鄰","STREET":"中正南路","SECT":" ","MAREA":" ","LANE":" ","ALLEY":" ","HOUSE_NO":"１９６號","E_COORD97":174683.5,"N_COORD97":2570038.5099999998,"ADDRESS":"中正南路１９６號","OBJECTID":477032},"geometry":{"x":174683.5,"y":2570038.5100000035}},{"attributes":{"ID":477058,"DIS_CODE":0,"TOWNNAME":"下營區","LI":"營前里","LIN":"20鄰","STREET":"中正南路","SECT":" ","MAREA":" ","LANE":" ","ALLEY":" ","HOUSE_NO":"１９８號","E_COORD97":174684.73000000001,"N_COORD97":2570035.2000000002,"ADDRESS":"中正南路１９８號","OBJECTID":477033},"geometry":{"x":174684.73000000138,"y":2570035.1999999993}},{"attributes":{"ID":477059,"DIS_CODE":0,"TOWNNAME":"下營區","LI":"營前里","LIN":"20鄰","STREET":"中正南路","SECT":" ","MAREA":" ","LANE":" ","ALLEY":" ","HOUSE_NO":"２００號","E_COORD97":174686.59,"N_COORD97":2570030.7799999998,"ADDRESS":"中正南路２００號","OBJECTID":477034},"geometry":{"x":174686.59000000171,"y":2570030.7800000012}},{"attributes":{"ID":477060,"DIS_CODE":0,"TOWNNAME":"下營區","LI":"營前里","LIN":"20鄰","STREET":"中正南路","SECT":" ","MAREA":" ","LANE":" ","ALLEY":" ","HOUSE_NO":"２０２號","E_COORD97":174688.17000000001,"N_COORD97":2570027.0800000001,"ADDRESS":"中正南路２０２號","OBJECTID":477035},"geometry":{"x":174688.17000000086,"y":2570027.0800000001}},{"attributes":{"ID":477061,"DIS_CODE":0,"TOWNNAME":"下營區","LI":"營前里","LIN":"20鄰","STREET":"中正南路","SECT":" ","MAREA":" ","LANE":" ","ALLEY":" ","HOUSE_NO":"２０８號","E_COORD97":174691.29999999999,"N_COORD97":2570016.73,"ADDRESS":"中正南路２０８號","OBJECTID":477036},"geometry":{"x":174691.29999999981,"y":2570016.7300000004}},{"attributes":{"ID":477062,"DIS_CODE":0,"TOWNNAME":"安南區","LI":"新順里","LIN":"20鄰","STREET":"慶安路","SECT":" ","MAREA":" ","LANE":" ","ALLEY":" ","HOUSE_NO":"１２７號","E_COORD97":169437.75,"N_COORD97":2549294.9300000002,"ADDRESS":"慶安路１２７號","OBJECTID":477037},"geometry":{"x":169437.75000000093,"y":2549294.9299999997}},{"attributes":{"ID":477063,"DIS_CODE":0,"TOWNNAME":"安南區","LI":"新順里","LIN":"20鄰","STREET":"慶安路","SECT":" ","MAREA":" ","LANE":" ","ALLEY":" ","HOUSE_NO":"１２５號","E_COORD97":169438.81,"N_COORD97":2549288.48,"ADDRESS":"慶安路１２５號","OBJECTID":477038},"geometry":{"x":169438.81000000052,"y":2549288.4800000004}},{"attributes":{"ID":477064,"DIS_CODE":0,"TOWNNAME":"安南區","LI":"新順里","LIN":"20鄰","STREET":"慶安路","SECT":" ","MAREA":" ","LANE":" ","ALLEY":" ","HOUSE_NO":"１２３號","E_COORD97":169439.92000000001,"N_COORD97":2549284.0299999998,"ADDRESS":"慶安路１２３號","OBJECTID":477039},"geometry":{"x":169439.92000000086,"y":2549284.0299999993}},{"attributes":{"ID":477065,"DIS_CODE":0,"TOWNNAME":"安南區","LI":"新順里","LIN":"20鄰","STREET":"慶安路","SECT":" ","MAREA":" ","LANE":" ","ALLEY":" ","HOUSE_NO":"１２１號","E_COORD97":169440.48000000001,"N_COORD97":2549280.5099999998,"ADDRESS":"慶安路１２１號","OBJECTID":477040},"geometry":{"x":169440.48000000045,"y":2549280.5100000016}},{"attributes":{"ID":477066,"DIS_CODE":0,"TOWNNAME":"安南區","LI":"新順里","LIN":"20鄰","STREET":"慶安路","SECT":" ","MAREA":" ","LANE":" ","ALLEY":" ","HOUSE_NO":"１１９號","E_COORD97":169442.14000000001,"N_COORD97":2549275.5099999998,"ADDRESS":"慶安路１１９號","OBJECTID":477041},"geometry":{"x":169442.13999999966,"y":2549275.5100000035}},{"attributes":{"ID":477067,"DIS_CODE":0,"TOWNNAME":"安南區","LI":"新順里","LIN":"20鄰","STREET":"慶安路","SECT":" ","MAREA":" ","LANE":" ","ALLEY":" ","HOUSE_NO":"１８７號","E_COORD97":169419.84,"N_COORD97":2549348.5299999998,"ADDRESS":"慶安路１８７號","OBJECTID":477042},"geometry":{"x":169419.84000000078,"y":2549348.5299999993}},{"attributes":{"ID":477068,"DIS_CODE":0,"TOWNNAME":"佳里區","LI":"建南里","LIN":"20鄰","STREET":"自由街","SECT":" ","MAREA":" ","LANE":" ","ALLEY":" ","HOUSE_NO":"１６１號","E_COORD97":165610.48999999999,"N_COORD97":2561751.8199999998,"ADDRESS":"自由街１６１號","OBJECTID":477043},"geometry":{"x":165610.49000000115,"y":2561751.8200000022}},{"attributes":{"ID":477069,"DIS_CODE":0,"TOWNNAME":"安南區","LI":"新順里","LIN":"20鄰","STREET":"慶安路","SECT":" ","MAREA":" ","LANE":" ","ALLEY":" ","HOUSE_NO":"１８９號","E_COORD97":169419.07999999999,"N_COORD97":2549352.5899999999,"ADDRESS":"慶安路１８９號","OBJECTID":477044},"geometry":{"x":169419.08000000007,"y":2549352.5899999999}},{"attributes":{"ID":477070,"DIS_CODE":0,"TOWNNAME":"安南區","LI":"新順里","LIN":"20鄰","STREET":"慶安路","SECT":" ","MAREA":" ","LANE":" ","ALLEY":" ","HOUSE_NO":"１９１號","E_COORD97":169417.81,"N_COORD97":2549357.1699999999,"ADDRESS":"慶安路１９１號","OBJECTID":477045},"geometry":{"x":169417.81000000145,"y":2549357.1700000018}},{"attributes":{"ID":477071,"DIS_CODE":0,"TOWNNAME":"安南區","LI":"新順里","LIN":"20鄰","STREET":"慶安路","SECT":" ","MAREA":" ","LANE":" ","ALLEY":" ","HOUSE_NO":"１９３號","E_COORD97":169416.28,"N_COORD97":2549361.6099999999,"ADDRESS":"慶安路１９３號","OBJECTID":477046},"geometry":{"x":169416.28000000026,"y":2549361.6099999994}},{"attributes":{"ID":477072,"DIS_CODE":0,"TOWNNAME":"佳里區","LI":"安西里","LIN":"20鄰","STREET":"安西路","SECT":" ","MAREA":" ","LANE":" ","ALLEY":" ","HOUSE_NO":"３９２號之１","E_COORD97":165214.17999999999,"N_COORD97":2562956.8999999999,"ADDRESS":"安西路３９２號之１","OBJECTID":477047},"geometry":{"x":165214.1799999997,"y":2562956.9000000004}},{"attributes":{"ID":477073,"DIS_CODE":0,"TOWNNAME":"佳里區","LI":"建南里","LIN":"20鄰","STREET":"自由街","SECT":" ","MAREA":" ","LANE":" ","ALLEY":" ","HOUSE_NO":"１３５號","E_COORD97":165666.42999999999,"N_COORD97":2561755.3199999998,"ADDRESS":"自由街１３５號","OBJECTID":477048},"geometry":{"x":165666.43000000063,"y":2561755.3200000022}},{"attributes":{"ID":477074,"DIS_CODE":0,"TOWNNAME":"佳里區","LI":"安西里","LIN":"20鄰","STREET":"安西路","SECT":" ","MAREA":" ","LANE":" ","ALLEY":" ","HOUSE_NO":"４０６號","E_COORD97":165239.10999999999,"N_COORD97":2562985.6600000001,"ADDRESS":"安西路４０６號","OBJECTID":477049},"geometry":{"x":165239.11000000034,"y":2562985.6600000039}},{"attributes":{"ID":477075,"DIS_CODE":0,"TOWNNAME":"佳里區","LI":"安西里","LIN":"20鄰","STREET":"安西路","SECT":" ","MAREA":" ","LANE":" ","ALLEY":" ","HOUSE_NO":"４０８號","E_COORD97":165241.03,"N_COORD97":2562989.02,"ADDRESS":"安西路４０８號","OBJECTID":477050},"geometry":{"x":165241.03000000026,"y":2562989.0199999996}},{"attributes":{"ID":477076,"DIS_CODE":0,"TOWNNAME":"佳里區","LI":"安西里","LIN":"20鄰","STREET":"安西路","SECT":" ","MAREA":" ","LANE":" ","ALLEY":" ","HOUSE_NO":"４１０號","E_COORD97":165243.57999999999,"N_COORD97":2562992.6299999999,"ADDRESS":"安西路４１０號","OBJECTID":477051},"geometry":{"x":165243.58000000101,"y":2562992.6300000008}},{"attributes":{"ID":477077,"DIS_CODE":0,"TOWNNAME":"佳里區","LI":"安西里","LIN":"20鄰","STREET":"安西路","SECT":" ","MAREA":" ","LANE":" ","ALLEY":" ","HOUSE_NO":"４１２號","E_COORD97":165245.91,"N_COORD97":2562996.1899999999,"ADDRESS":"安西路４１２號","OBJECTID":477052},"geometry":{"x":165245.91000000201,"y":2562996.1900000013}},{"attributes":{"ID":477078,"DIS_CODE":0,"TOWNNAME":"佳里區","LI":"安西里","LIN":"20鄰","STREET":"安西路","SECT":" ","MAREA":" ","LANE":" ","ALLEY":" ","HOUSE_NO":"４１６號","E_COORD97":165248.42000000001,"N_COORD97":2562999.5899999999,"ADDRESS":"安西路４１６號","OBJECTID":477053},"geometry":{"x":165248.41999999993,"y":2562999.5900000036}},{"attributes":{"ID":477079,"DIS_CODE":0,"TOWNNAME":"佳里區","LI":"安西里","LIN":"20鄰","STREET":"安西路","SECT":" ","MAREA":" ","LANE":" ","ALLEY":" ","HOUSE_NO":"４１８號","E_COORD97":165250.76999999999,"N_COORD97":2563002.8500000001,"ADDRESS":"安西路４１８號","OBJECTID":477054},"geometry":{"x":165250.76999999955,"y":2563002.8499999996}},{"attributes":{"ID":477080,"DIS_CODE":0,"TOWNNAME":"佳里區","LI":"安西里","LIN":"20鄰","STREET":"安西路","SECT":" ","MAREA":" ","LANE":" ","ALLEY":" ","HOUSE_NO":"４２０號","E_COORD97":165254.09,"N_COORD97":2563007.04,"ADDRESS":"安西路４２０號","OBJECTID":477055},"geometry":{"x":165254.08999999985,"y":2563007.040000001}},{"attributes":{"ID":477081,"DIS_CODE":0,"TOWNNAME":"佳里區","LI":"建南里","LIN":"20鄰","STREET":"自由街","SECT":" ","MAREA":" ","LANE":" ","ALLEY":" ","HOUSE_NO":"１０１號","E_COORD97":165758.57999999999,"N_COORD97":2561760.6000000001,"ADDRESS":"自由街１０１號","OBJECTID":477056},"geometry":{"x":165758.58000000101,"y":2561760.5999999996}},{"attributes":{"ID":477082,"DIS_CODE":0,"TOWNNAME":"佳里區","LI":"建南里","LIN":"20鄰","STREET":"自由街","SECT":" ","MAREA":" ","LANE":" ","ALLEY":" ","HOUSE_NO":"１０３號","E_COORD97":165754.23000000001,"N_COORD97":2561760.1600000001,"ADDRESS":"自由街１０３號","OBJECTID":477057},"geometry":{"x":165754.23000000231,"y":2561760.1600000001}},{"attributes":{"ID":477083,"DIS_CODE":0,"TOWNNAME":"佳里區","LI":"建南里","LIN":"20鄰","STREET":"自由街","SECT":" ","MAREA":" ","LANE":" ","ALLEY":" ","HOUSE_NO":"１０５號","E_COORD97":165749.94,"N_COORD97":2561759.75,"ADDRESS":"自由街１０５號","OBJECTID":477058},"geometry":{"x":165749.94000000134,"y":2561759.75}},{"attributes":{"ID":477084,"DIS_CODE":0,"TOWNNAME":"佳里區","LI":"建南里","LIN":"20鄰","STREET":"自由街","SECT":" ","MAREA":" ","LANE":" ","ALLEY":" ","HOUSE_NO":"１０７號","E_COORD97":165745.70000000001,"N_COORD97":2561759.2200000002,"ADDRESS":"自由街１０７號","OBJECTID":477059},"geometry":{"x":165745.70000000205,"y":2561759.2200000025}},{"attributes":{"ID":477085,"DIS_CODE":0,"TOWNNAME":"佳里區","LI":"建南里","LIN":"20鄰","STREET":"自由街","SECT":" ","MAREA":" ","LANE":" ","ALLEY":" ","HOUSE_NO":"１１３號","E_COORD97":165731.5,"N_COORD97":2561757.4900000002,"ADDRESS":"自由街１１３號","OBJECTID":477060},"geometry":{"x":165731.50000000186,"y":2561757.4900000021}},{"attributes":{"ID":477086,"DIS_CODE":0,"TOWNNAME":"佳里區","LI":"建南里","LIN":"20鄰","STREET":"自由街","SECT":" ","MAREA":" ","LANE":" ","ALLEY":" ","HOUSE_NO":"１６３號","E_COORD97":165605.95000000001,"N_COORD97":2561751.48,"ADDRESS":"自由街１６３號","OBJECTID":477061},"geometry":{"x":165605.95000000019,"y":2561751.4800000004}},{"attributes":{"ID":477087,"DIS_CODE":0,"TOWNNAME":"佳里區","LI":"建南里","LIN":"20鄰","STREET":"自由街","SECT":" ","MAREA":" ","LANE":" ","ALLEY":" ","HOUSE_NO":"１２５號","E_COORD97":165693.82999999999,"N_COORD97":2561756.4199999999,"ADDRESS":"自由街１２５號","OBJECTID":477062},"geometry":{"x":165693.83000000194,"y":2561756.4200000037}},{"attributes":{"ID":477088,"DIS_CODE":0,"TOWNNAME":"佳里區","LI":"建南里","LIN":"20鄰","STREET":"自由街","SECT":" ","MAREA":" ","LANE":" ","ALLEY":" ","HOUSE_NO":"１２７號","E_COORD97":165689.25,"N_COORD97":2561756.1299999999,"ADDRESS":"自由街１２７號","OBJECTID":477063},"geometry":{"x":165689.25000000186,"y":2561756.129999999}},{"attributes":{"ID":477089,"DIS_CODE":0,"TOWNNAME":"佳里區","LI":"建南里","LIN":"20鄰","STREET":"自由街","SECT":" ","MAREA":" ","LANE":" ","ALLEY":" ","HOUSE_NO":"１２９號","E_COORD97":165685.14000000001,"N_COORD97":2561755.8799999999,"ADDRESS":"自由街１２９號","OBJECTID":477064},"geometry":{"x":165685.1400000006,"y":2561755.8800000027}},{"attributes":{"ID":477090,"DIS_CODE":0,"TOWNNAME":"佳里區","LI":"建南里","LIN":"20鄰","STREET":"自由街","SECT":" ","MAREA":" ","LANE":" ","ALLEY":" ","HOUSE_NO":"１３１號","E_COORD97":165680.67999999999,"N_COORD97":2561755.5899999999,"ADDRESS":"自由街１３１號","OBJECTID":477065},"geometry":{"x":165680.6799999997,"y":2561755.5900000017}},{"attributes":{"ID":477091,"DIS_CODE":0,"TOWNNAME":"佳里區","LI":"建南里","LIN":"20鄰","STREET":"自由街","SECT":" ","MAREA":" ","LANE":" ","ALLEY":" ","HOUSE_NO":"１３３號","E_COORD97":165673.64999999999,"N_COORD97":2561755.5099999998,"ADDRESS":"自由街１３３號","OBJECTID":477066},"geometry":{"x":165673.6500000013,"y":2561755.5100000035}},{"attributes":{"ID":477092,"DIS_CODE":0,"TOWNNAME":"佳里區","LI":"建南里","LIN":"20鄰","STREET":"自由街","SECT":" ","MAREA":" ","LANE":" ","ALLEY":" ","HOUSE_NO":"１４１號","E_COORD97":165652.60000000001,"N_COORD97":2561754.3700000001,"ADDRESS":"自由街１４１號","OBJECTID":477067},"geometry":{"x":165652.60000000149,"y":2561754.3699999992}},{"attributes":{"ID":477093,"DIS_CODE":0,"TOWNNAME":"佳里區","LI":"建南里","LIN":"20鄰","STREET":"自由街","SECT":" ","MAREA":" ","LANE":" ","ALLEY":" ","HOUSE_NO":"１４３號","E_COORD97":165648.87,"N_COORD97":2561754.1200000001,"ADDRESS":"自由街１４３號","OBJECTID":477068},"geometry":{"x":165648.87000000011,"y":2561754.1200000029}},{"attributes":{"ID":477094,"DIS_CODE":0,"TOWNNAME":"佳里區","LI":"建南里","LIN":"20鄰","STREET":"自由街","SECT":" ","MAREA":" ","LANE":" ","ALLEY":" ","HOUSE_NO":"１４５號","E_COORD97":165645.03,"N_COORD97":2561753.9100000001,"ADDRESS":"自由街１４５號","OBJECTID":477069},"geometry":{"x":165645.02999999933,"y":2561753.910000002}},{"attributes":{"ID":477095,"DIS_CODE":0,"TOWNNAME":"佳里區","LI":"建南里","LIN":"20鄰","STREET":"自由街","SECT":" ","MAREA":" ","LANE":" ","ALLEY":" ","HOUSE_NO":"１４７號","E_COORD97":165641.32999999999,"N_COORD97":2561753.7000000002,"ADDRESS":"自由街１４７號","OBJECTID":477070},"geometry":{"x":165641.33000000194,"y":2561753.700000003}},{"attributes":{"ID":477096,"DIS_CODE":0,"TOWNNAME":"佳里區","LI":"建南里","LIN":"20鄰","STREET":"自由街","SECT":" ","MAREA":" ","LANE":" ","ALLEY":" ","HOUSE_NO":"１４９號","E_COORD97":165637.51999999999,"N_COORD97":2561753.46,"ADDRESS":"自由街１４９號","OBJECTID":477071},"geometry":{"x":165637.51999999955,"y":2561753.4600000009}},{"attributes":{"ID":477097,"DIS_CODE":0,"TOWNNAME":"佳里區","LI":"建南里","LIN":"20鄰","STREET":"自由街","SECT":" ","MAREA":" ","LANE":" ","ALLEY":" ","HOUSE_NO":"１５１號","E_COORD97":165633.70000000001,"N_COORD97":2561753.1000000001,"ADDRESS":"自由街１５１號","OBJECTID":477072},"geometry":{"x":165633.70000000205,"y":2561753.1000000015}},{"attributes":{"ID":477098,"DIS_CODE":0,"TOWNNAME":"歸仁區","LI":"看西里","LIN":"5鄰","STREET":"仁愛十街","SECT":" ","MAREA":" ","LANE":" ","ALLEY":" ","HOUSE_NO":"２２號","E_COORD97":178211.35999999999,"N_COORD97":2540330.2799999998,"ADDRESS":"仁愛十街２２號","OBJECTID":477073},"geometry":{"x":178211.36000000127,"y":2540330.2800000012}},{"attributes":{"ID":477099,"DIS_CODE":0,"TOWNNAME":"佳里區","LI":"建南里","LIN":"20鄰","STREET":"自由街","SECT":" ","MAREA":" ","LANE":" ","ALLEY":" ","HOUSE_NO":"１５５號","E_COORD97":165623.88,"N_COORD97":2561753.0800000001,"ADDRESS":"自由街１５５號","OBJECTID":477074},"geometry":{"x":165623.88000000175,"y":2561753.0800000019}},{"attributes":{"ID":477100,"DIS_CODE":0,"TOWNNAME":"佳里區","LI":"建南里","LIN":"20鄰","STREET":"自由街","SECT":" ","MAREA":" ","LANE":" ","ALLEY":" ","HOUSE_NO":"１５７號","E_COORD97":165619.39000000001,"N_COORD97":2561752.5899999999,"ADDRESS":"自由街１５７號","OBJECTID":477075},"geometry":{"x":165619.38999999966,"y":2561752.5900000017}},{"attributes":{"ID":477101,"DIS_CODE":0,"TOWNNAME":"佳里區","LI":"建南里","LIN":"20鄰","STREET":"自由街","SECT":" ","MAREA":" ","LANE":" ","ALLEY":" ","HOUSE_NO":"１５９號","E_COORD97":165614.95999999999,"N_COORD97":2561752.1800000002,"ADDRESS":"自由街１５９號","OBJECTID":477076},"geometry":{"x":165614.96000000089,"y":2561752.1800000016}},{"attributes":{"ID":477102,"DIS_CODE":0,"TOWNNAME":"佳里區","LI":"建南里","LIN":"20鄰","STREET":"自由街","SECT":" ","MAREA":" ","LANE":" ","ALLEY":" ","HOUSE_NO":"１６５號","E_COORD97":165601.54000000001,"N_COORD97":2561751.3500000001,"ADDRESS":"自由街１６５號","OBJECTID":477077},"geometry":{"x":165601.54000000097,"y":2561751.3500000015}},{"attributes":{"ID":477103,"DIS_CODE":0,"TOWNNAME":"佳里區","LI":"建南里","LIN":"20鄰","STREET":"自由街","SECT":" ","MAREA":" ","LANE":" ","ALLEY":" ","HOUSE_NO":"９５號","E_COORD97":165770.88,"N_COORD97":2561762.4500000002,"ADDRESS":"自由街９５號","OBJECTID":477078},"geometry":{"x":165770.87999999989,"y":2561762.450000003}},{"attributes":{"ID":477104,"DIS_CODE":0,"TOWNNAME":"佳里區","LI":"建南里","LIN":"20鄰","STREET":"自由街","SECT":" ","MAREA":" ","LANE":" ","ALLEY":" ","HOUSE_NO":"９７號","E_COORD97":165766.94,"N_COORD97":2561761.8900000001,"ADDRESS":"自由街９７號","OBJECTID":477079},"geometry":{"x":165766.94000000134,"y":2561761.8900000025}},{"attributes":{"ID":477105,"DIS_CODE":0,"TOWNNAME":"佳里區","LI":"建南里","LIN":"20鄰","STREET":"自由街","SECT":" ","MAREA":" ","LANE":" ","ALLEY":" ","HOUSE_NO":"９９號","E_COORD97":165762.89999999999,"N_COORD97":2561761.1899999999,"ADDRESS":"自由街９９號","OBJECTID":477080},"geometry":{"x":165762.90000000037,"y":2561761.1900000013}},{"attributes":{"ID":477106,"DIS_CODE":0,"TOWNNAME":"歸仁區","LI":"崙頂里","LIN":"5鄰","STREET":"成功八街","SECT":" ","MAREA":" ","LANE":" ","ALLEY":" ","HOUSE_NO":"９５號","E_COORD97":178105.75,"N_COORD97":2540066.6800000002,"ADDRESS":"成功八街９５號","OBJECTID":477081},"geometry":{"x":178105.75,"y":2540066.6800000016}},{"attributes":{"ID":477107,"DIS_CODE":0,"TOWNNAME":"安南區","LI":"長安里","LIN":"20鄰","STREET":"長和路","SECT":"四段","MAREA":" ","LANE":" ","ALLEY":" ","HOUSE_NO":"３５０號","E_COORD97":168149.45999999999,"N_COORD97":2551901.4900000002,"ADDRESS":"長和路四段３５０號","OBJECTID":477082},"geometry":{"x":168149.46000000089,"y":2551901.4900000021}},{"attributes":{"ID":477108,"DIS_CODE":0,"TOWNNAME":"安南區","LI":"州北里","LIN":"20鄰","STREET":"安昌街","SECT":" ","MAREA":" ","LANE":" ","ALLEY":" ","HOUSE_NO":"４７號","E_COORD97":169867.84,"N_COORD97":2552064.4300000002,"ADDRESS":"安昌街４７號","OBJECTID":477083},"geometry":{"x":169867.84000000078,"y":2552064.4300000016}},{"attributes":{"ID":477109,"DIS_CODE":0,"TOWNNAME":"安南區","LI":"州北里","LIN":"20鄰","STREET":"安昌街","SECT":" ","MAREA":" ","LANE":" ","ALLEY":" ","HOUSE_NO":"４５號","E_COORD97":169864.25,"N_COORD97":2552060.5099999998,"ADDRESS":"安昌街４５號","OBJECTID":477084},"geometry":{"x":169864.25,"y":2552060.5100000016}},{"attributes":{"ID":477110,"DIS_CODE":0,"TOWNNAME":"安南區","LI":"安順里","LIN":"20鄰","STREET":"育安街","SECT":" ","MAREA":" ","LANE":" ","ALLEY":" ","HOUSE_NO":"１６３號","E_COORD97":169559.03,"N_COORD97":2549965.1400000001,"ADDRESS":"育安街１６３號","OBJECTID":477085},"geometry":{"x":169559.03000000026,"y":2549965.1400000025}},{"attributes":{"ID":477111,"DIS_CODE":0,"TOWNNAME":"安南區","LI":"安順里","LIN":"20鄰","STREET":"育安街","SECT":" ","MAREA":" ","LANE":" ","ALLEY":" ","HOUSE_NO":"１６５號","E_COORD97":169559.34,"N_COORD97":2549969.1099999999,"ADDRESS":"育安街１６５號","OBJECTID":477086},"geometry":{"x":169559.34000000078,"y":2549969.1099999994}},{"attributes":{"ID":477112,"DIS_CODE":0,"TOWNNAME":"東區","LI":"東門里","LIN":"20鄰","STREET":"勝利路","SECT":" ","MAREA":" ","LANE":" ","ALLEY":" ","HOUSE_NO":"１１號","E_COORD97":169756.88,"N_COORD97":2543130.71,"ADDRESS":"勝利路１１號","OBJECTID":477087},"geometry":{"x":169756.88000000082,"y":2543130.7100000009}},{"attributes":{"ID":477113,"DIS_CODE":0,"TOWNNAME":"東區","LI":"東門里","LIN":"20鄰","STREET":"勝利路","SECT":" ","MAREA":" ","LANE":" ","ALLEY":" ","HOUSE_NO":"１７號","E_COORD97":169752.32000000001,"N_COORD97":2543139.48,"ADDRESS":"勝利路１７號","OBJECTID":477088},"geometry":{"x":169752.32000000216,"y":2543139.4800000004}},{"attributes":{"ID":477114,"DIS_CODE":0,"TOWNNAME":"歸仁區","LI":"許厝里","LIN":"7鄰","STREET":"仁愛八街","SECT":" ","MAREA":" ","LANE":" ","ALLEY":" ","HOUSE_NO":"３５號","E_COORD97":178166.26000000001,"N_COORD97":2540633.4199999999,"ADDRESS":"仁愛八街３５號","OBJECTID":477089},"geometry":{"x":178166.26000000071,"y":2540633.4199999999}},{"attributes":{"ID":477115,"DIS_CODE":0,"TOWNNAME":"中西區","LI":"光賢里","LIN":"20鄰","STREET":"和緯路","SECT":"四段","MAREA":" ","LANE":" ","ALLEY":" ","HOUSE_NO":"２９９之１號","E_COORD97":166754.53,"N_COORD97":2545324.1299999999,"ADDRESS":"和緯路四段２９９之１號","OBJECTID":477090},"geometry":{"x":166754.53000000119,"y":2545324.1300000027}},{"attributes":{"ID":477116,"DIS_CODE":0,"TOWNNAME":"中西區","LI":"光賢里","LIN":"20鄰","STREET":"中華西路","SECT":"二段","MAREA":" ","LANE":" ","ALLEY":" ","HOUSE_NO":"６００之６號","E_COORD97":166651.35000000001,"N_COORD97":2545009.7999999998,"ADDRESS":"中華西路二段６００之６號","OBJECTID":477091},"geometry":{"x":166651.35000000056,"y":2545009.8000000045}},{"attributes":{"ID":477117,"DIS_CODE":0,"TOWNNAME":"中西區","LI":"西賢里","LIN":"20鄰","STREET":"西賢二街","SECT":" ","MAREA":" ","LANE":" ","ALLEY":" ","HOUSE_NO":"９２號","E_COORD97":165575.53,"N_COORD97":2544837.2200000002,"ADDRESS":"西賢二街９２號","OBJECTID":477092},"geometry":{"x":165575.52999999933,"y":2544837.2200000044}},{"attributes":{"ID":477118,"DIS_CODE":0,"TOWNNAME":"中西區","LI":"西賢里","LIN":"20鄰","STREET":"西賢二街","SECT":" ","MAREA":" ","LANE":" ","ALLEY":" ","HOUSE_NO":"９６號","E_COORD97":165580.29000000001,"N_COORD97":2544837.2200000002,"ADDRESS":"西賢二街９６號","OBJECTID":477093},"geometry":{"x":165580.29000000004,"y":2544837.2200000044}},{"attributes":{"ID":477119,"DIS_CODE":0,"TOWNNAME":"中西區","LI":"西賢里","LIN":"20鄰","STREET":"西賢二街","SECT":" ","MAREA":" ","LANE":" ","ALLEY":" ","HOUSE_NO":"９８號","E_COORD97":165585.04999999999,"N_COORD97":2544837.48,"ADDRESS":"西賢二街９８號","OBJECTID":477094},"geometry":{"x":165585.04999999981,"y":2544837.4800000004}},{"attributes":{"ID":477120,"DIS_CODE":0,"TOWNNAME":"中西區","LI":"西賢里","LIN":"20鄰","STREET":"西賢二街","SECT":" ","MAREA":" ","LANE":" ","ALLEY":" ","HOUSE_NO":"１００號","E_COORD97":165589.01999999999,"N_COORD97":2544837.48,"ADDRESS":"西賢二街１００號","OBJECTID":477095},"geometry":{"x":165589.02000000048,"y":2544837.4800000004}},{"attributes":{"ID":477121,"DIS_CODE":0,"TOWNNAME":"中西區","LI":"西賢里","LIN":"20鄰","STREET":"西賢二街","SECT":" ","MAREA":" ","LANE":" ","ALLEY":" ","HOUSE_NO":"１０６號","E_COORD97":165598.28,"N_COORD97":2544837.75,"ADDRESS":"西賢二街１０６號","OBJECTID":477096},"geometry":{"x":165598.28000000119,"y":2544837.7500000019}},{"attributes":{"ID":477122,"DIS_CODE":0,"TOWNNAME":"中西區","LI":"西賢里","LIN":"20鄰","STREET":"西賢二街","SECT":" ","MAREA":" ","LANE":" ","ALLEY":" ","HOUSE_NO":"１０２號","E_COORD97":165593.78,"N_COORD97":2544837.75,"ADDRESS":"西賢二街１０２號","OBJECTID":477097},"geometry":{"x":165593.78000000026,"y":2544837.7500000019}},{"attributes":{"ID":477123,"DIS_CODE":0,"TOWNNAME":"中西區","LI":"西賢里","LIN":"20鄰","STREET":"西賢二街","SECT":" ","MAREA":" ","LANE":" ","ALLEY":" ","HOUSE_NO":"１０８號","E_COORD97":165607.54000000001,"N_COORD97":2544836.96,"ADDRESS":"西賢二街１０８號","OBJECTID":477098},"geometry":{"x":165607.5400000019,"y":2544836.9600000028}},{"attributes":{"ID":477124,"DIS_CODE":0,"TOWNNAME":"中西區","LI":"西賢里","LIN":"20鄰","STREET":"西賢二街","SECT":" ","MAREA":" ","LANE":" ","ALLEY":" ","HOUSE_NO":"１１０號","E_COORD97":165613.89000000001,"N_COORD97":2544837.2200000002,"ADDRESS":"西賢二街１１０號","OBJECTID":477099},"geometry":{"x":165613.8900000006,"y":2544837.2200000044}},{"attributes":{"ID":477125,"DIS_CODE":0,"TOWNNAME":"中西區","LI":"西賢里","LIN":"20鄰","STREET":"西賢二街","SECT":" ","MAREA":" ","LANE":" ","ALLEY":" ","HOUSE_NO":"１１２號","E_COORD97":165621.57000000001,"N_COORD97":2544837.2200000002,"ADDRESS":"西賢二街１１２號","OBJECTID":477100},"geometry":{"x":165621.57000000123,"y":2544837.2200000044}},{"attributes":{"ID":477126,"DIS_CODE":0,"TOWNNAME":"南區","LI":"文南里","LIN":"20鄰","STREET":"仁南二街","SECT":" ","MAREA":" ","LANE":" ","ALLEY":" ","HOUSE_NO":"８號二樓","E_COORD97":166415.88,"N_COORD97":2542663.8300000001,"ADDRESS":"仁南二街８號二樓","OBJECTID":477101},"geometry":{"x":166415.88000000082,"y":2542663.8300000019}},{"attributes":{"ID":477127,"DIS_CODE":0,"TOWNNAME":"中西區","LI":"西賢里","LIN":"20鄰","STREET":"西賢二街","SECT":" ","MAREA":" ","LANE":" ","ALLEY":" ","HOUSE_NO":"１１６號","E_COORD97":165628.17999999999,"N_COORD97":2544837.2200000002,"ADDRESS":"西賢二街１１６號","OBJECTID":477102},"geometry":{"x":165628.17999999877,"y":2544837.2200000044}},{"attributes":{"ID":477128,"DIS_CODE":0,"TOWNNAME":"中西區","LI":"西賢里","LIN":"20鄰","STREET":"西賢二街","SECT":" ","MAREA":" ","LANE":" ","ALLEY":" ","HOUSE_NO":"１１８號","E_COORD97":165639.56,"N_COORD97":2544836.1600000001,"ADDRESS":"西賢二街１１８號","OBJECTID":477103},"geometry":{"x":165639.56000000052,"y":2544836.1600000001}},{"attributes":{"ID":477129,"DIS_CODE":0,"TOWNNAME":"中西區","LI":"西賢里","LIN":"20鄰","STREET":"西賢二街","SECT":" ","MAREA":" ","LANE":" ","ALLEY":" ","HOUSE_NO":"１２０號","E_COORD97":165645.64000000001,"N_COORD97":2544835.8999999999,"ADDRESS":"西賢二街１２０號","OBJECTID":477104},"geometry":{"x":165645.6400000006,"y":2544835.9000000022}},{"attributes":{"ID":477130,"DIS_CODE":0,"TOWNNAME":"中西區","LI":"西賢里","LIN":"20鄰","STREET":"西賢二街","SECT":" ","MAREA":" ","LANE":" ","ALLEY":" ","HOUSE_NO":"１５０號","E_COORD97":165574.20999999999,"N_COORD97":2544860.77,"ADDRESS":"西賢二街１５０號","OBJECTID":477105},"geometry":{"x":165574.21000000183,"y":2544860.7700000014}},{"attributes":{"ID":477131,"DIS_CODE":0,"TOWNNAME":"中西區","LI":"西賢里","LIN":"20鄰","STREET":"西賢二街","SECT":" ","MAREA":" ","LANE":" ","ALLEY":" ","HOUSE_NO":"１４８號","E_COORD97":165580.29000000001,"N_COORD97":2544861.2999999998,"ADDRESS":"西賢二街１４８號","OBJECTID":477106},"geometry":{"x":165580.29000000004,"y":2544861.3000000026}},{"attributes":{"ID":477132,"DIS_CODE":0,"TOWNNAME":"中西區","LI":"西賢里","LIN":"20鄰","STREET":"西賢二街","SECT":" ","MAREA":" ","LANE":" ","ALLEY":" ","HOUSE_NO":"１４６號","E_COORD97":165587.42999999999,"N_COORD97":2544860.77,"ADDRESS":"西賢二街１４６號","OBJECTID":477107},"geometry":{"x":165587.4299999997,"y":2544860.7700000014}},{"attributes":{"ID":477133,"DIS_CODE":0,"TOWNNAME":"中西區","LI":"西賢里","LIN":"20鄰","STREET":"西賢二街","SECT":" ","MAREA":" ","LANE":" ","ALLEY":" ","HOUSE_NO":"１４２號","E_COORD97":165594.31,"N_COORD97":2544861.0299999998,"ADDRESS":"西賢二街１４２號","OBJECTID":477108},"geometry":{"x":165594.30999999959,"y":2544861.0300000031}},{"attributes":{"ID":477134,"DIS_CODE":0,"TOWNNAME":"中西區","LI":"西賢里","LIN":"20鄰","STREET":"西賢二街","SECT":" ","MAREA":" ","LANE":" ","ALLEY":" ","HOUSE_NO":"１４０號","E_COORD97":165601.45999999999,"N_COORD97":2544861.5600000001,"ADDRESS":"西賢二街１４０號","OBJECTID":477109},"geometry":{"x":165601.46000000089,"y":2544861.5599999987}},{"attributes":{"ID":477135,"DIS_CODE":0,"TOWNNAME":"中西區","LI":"西賢里","LIN":"20鄰","STREET":"西賢二街","SECT":" ","MAREA":" ","LANE":" ","ALLEY":" ","HOUSE_NO":"１３８號","E_COORD97":165610.45000000001,"N_COORD97":2544861.8300000001,"ADDRESS":"西賢二街１３８號","OBJECTID":477110},"geometry":{"x":165610.45000000112,"y":2544861.8300000001}},{"attributes":{"ID":477136,"DIS_CODE":0,"TOWNNAME":"中西區","LI":"西賢里","LIN":"20鄰","STREET":"西賢二街","SECT":" ","MAREA":" ","LANE":" ","ALLEY":" ","HOUSE_NO":"１３６號","E_COORD97":165616.79999999999,"N_COORD97":2544862.0899999999,"ADDRESS":"西賢二街１３６號","OBJECTID":477111},"geometry":{"x":165616.79999999981,"y":2544862.0900000017}},{"attributes":{"ID":477137,"DIS_CODE":0,"TOWNNAME":"安南區","LI":"安順里","LIN":"20鄰","STREET":"安豐二街","SECT":" ","MAREA":" ","LANE":" ","ALLEY":" ","HOUSE_NO":"６１號","E_COORD97":169523.01000000001,"N_COORD97":2549975.79,"ADDRESS":"安豐二街６１號","OBJECTID":477112},"geometry":{"x":169523.00999999978,"y":2549975.790000001}},{"attributes":{"ID":477138,"DIS_CODE":0,"TOWNNAME":"安南區","LI":"安順里","LIN":"20鄰","STREET":"安豐二街","SECT":" ","MAREA":" ","LANE":" ","ALLEY":" ","HOUSE_NO":"６３號","E_COORD97":169518.41,"N_COORD97":2549975.9500000002,"ADDRESS":"安豐二街６３號","OBJECTID":477113},"geometry":{"x":169518.41000000108,"y":2549975.9499999993}},{"attributes":{"ID":477139,"DIS_CODE":0,"TOWNNAME":"南區","LI":"建南里","LIN":"20鄰","STREET":"中華南路","SECT":"二段","MAREA":" ","LANE":" ","ALLEY":" ","HOUSE_NO":"５５號三樓","E_COORD97":167347.79000000001,"N_COORD97":2540292.1699999999,"ADDRESS":"中華南路二段５５號三樓","OBJECTID":477114},"geometry":{"x":167347.79000000004,"y":2540292.1699999999}},{"attributes":{"ID":477140,"DIS_CODE":0,"TOWNNAME":"南區","LI":"建南里","LIN":"20鄰","STREET":"中華南路","SECT":"二段","MAREA":" ","LANE":" ","ALLEY":" ","HOUSE_NO":"５５號四樓","E_COORD97":167347.79000000001,"N_COORD97":2540292.1699999999,"ADDRESS":"中華南路二段５５號四樓","OBJECTID":477115},"geometry":{"x":167347.79000000004,"y":2540292.1699999999}},{"attributes":{"ID":477141,"DIS_CODE":0,"TOWNNAME":"歸仁區","LI":"崙頂里","LIN":"13鄰","STREET":"成功路","SECT":"二段","MAREA":" ","LANE":" ","ALLEY":" ","HOUSE_NO":"１７８號","E_COORD97":177923.34,"N_COORD97":2539711.25,"ADDRESS":"成功路二段１７８號","OBJECTID":477116},"geometry":{"x":177923.34000000078,"y":2539711.2500000019}},{"attributes":{"ID":477142,"DIS_CODE":0,"TOWNNAME":"北區","LI":"大港里","LIN":"20鄰","STREET":"中華北路","SECT":"一段","MAREA":" ","LANE":" ","ALLEY":" ","HOUSE_NO":"４２６號二樓","E_COORD97":166761.95000000001,"N_COORD97":2546150.3700000001,"ADDRESS":"中華北路一段４２６號二樓","OBJECTID":477117},"geometry":{"x":166761.95000000019,"y":2546150.370000001}},{"attributes":{"ID":477143,"DIS_CODE":0,"TOWNNAME":"北區","LI":"大港里","LIN":"20鄰","STREET":"中華北路","SECT":"一段","MAREA":" ","LANE":" ","ALLEY":" ","HOUSE_NO":"４２６號三樓","E_COORD97":166761.95000000001,"N_COORD97":2546150.3700000001,"ADDRESS":"中華北路一段４２６號三樓","OBJECTID":477118},"geometry":{"x":166761.95000000019,"y":2546150.370000001}},{"attributes":{"ID":477144,"DIS_CODE":0,"TOWNNAME":"北區","LI":"大港里","LIN":"20鄰","STREET":"中華北路","SECT":"一段","MAREA":" ","LANE":" ","ALLEY":" ","HOUSE_NO":"４２６號五樓","E_COORD97":166761.95000000001,"N_COORD97":2546150.3700000001,"ADDRESS":"中華北路一段４２６號五樓","OBJECTID":477119},"geometry":{"x":166761.95000000019,"y":2546150.370000001}},{"attributes":{"ID":477145,"DIS_CODE":0,"TOWNNAME":"北區","LI":"大港里","LIN":"20鄰","STREET":"中華北路","SECT":"一段","MAREA":" ","LANE":" ","ALLEY":" ","HOUSE_NO":"４２６號四樓","E_COORD97":166761.95000000001,"N_COORD97":2546150.3700000001,"ADDRESS":"中華北路一段４２６號四樓","OBJECTID":477120},"geometry":{"x":166761.95000000019,"y":2546150.370000001}},{"attributes":{"ID":477146,"DIS_CODE":0,"TOWNNAME":"北區","LI":"公園里","LIN":"20鄰","STREET":"公園路","SECT":" ","MAREA":" ","LANE":" ","ALLEY":" ","HOUSE_NO":"１２８號七樓之１","E_COORD97":168771.01999999999,"N_COORD97":2544380.0600000001,"ADDRESS":"公園路１２８號七樓之１","OBJECTID":477121},"geometry":{"x":168771.02000000048,"y":2544380.0600000005}},{"attributes":{"ID":477147,"DIS_CODE":0,"TOWNNAME":"北區","LI":"公園里","LIN":"20鄰","STREET":"公園路","SECT":" ","MAREA":" ","LANE":" ","ALLEY":" ","HOUSE_NO":"１２８號七樓之１０","E_COORD97":168771.01999999999,"N_COORD97":2544380.0600000001,"ADDRESS":"公園路１２８號七樓之１０","OBJECTID":477122},"geometry":{"x":168771.02000000048,"y":2544380.0600000005}},{"attributes":{"ID":477148,"DIS_CODE":0,"TOWNNAME":"北區","LI":"公園里","LIN":"20鄰","STREET":"公園路","SECT":" ","MAREA":" ","LANE":" ","ALLEY":" ","HOUSE_NO":"１２８號七樓之１１","E_COORD97":168771.01999999999,"N_COORD97":2544380.0600000001,"ADDRESS":"公園路１２８號七樓之１１","OBJECTID":477123},"geometry":{"x":168771.02000000048,"y":2544380.0600000005}},{"attributes":{"ID":477149,"DIS_CODE":0,"TOWNNAME":"北區","LI":"公園里","LIN":"20鄰","STREET":"公園路","SECT":" ","MAREA":" ","LANE":" ","ALLEY":" ","HOUSE_NO":"１２８號七樓之１２","E_COORD97":168771.01999999999,"N_COORD97":2544380.0600000001,"ADDRESS":"公園路１２８號七樓之１２","OBJECTID":477124},"geometry":{"x":168771.02000000048,"y":2544380.0600000005}},{"attributes":{"ID":477150,"DIS_CODE":0,"TOWNNAME":"北區","LI":"公園里","LIN":"20鄰","STREET":"公園路","SECT":" ","MAREA":" ","LANE":" ","ALLEY":" ","HOUSE_NO":"１２８號七樓之１３","E_COORD97":168771.01999999999,"N_COORD97":2544380.0600000001,"ADDRESS":"公園路１２８號七樓之１３","OBJECTID":477125},"geometry":{"x":168771.02000000048,"y":2544380.0600000005}},{"attributes":{"ID":477151,"DIS_CODE":0,"TOWNNAME":"北區","LI":"公園里","LIN":"20鄰","STREET":"公園路","SECT":" ","MAREA":" ","LANE":" ","ALLEY":" ","HOUSE_NO":"１２８號七樓之１４","E_COORD97":168771.01999999999,"N_COORD97":2544380.0600000001,"ADDRESS":"公園路１２８號七樓之１４","OBJECTID":477126},"geometry":{"x":168771.02000000048,"y":2544380.0600000005}},{"attributes":{"ID":477152,"DIS_CODE":0,"TOWNNAME":"北區","LI":"公園里","LIN":"20鄰","STREET":"公園路","SECT":" ","MAREA":" ","LANE":" ","ALLEY":" ","HOUSE_NO":"１２８號七樓之１５","E_COORD97":168771.01999999999,"N_COORD97":2544380.0600000001,"ADDRESS":"公園路１２８號七樓之１５","OBJECTID":477127},"geometry":{"x":168771.02000000048,"y":2544380.0600000005}},{"attributes":{"ID":477153,"DIS_CODE":0,"TOWNNAME":"北區","LI":"公園里","LIN":"20鄰","STREET":"公園路","SECT":" ","MAREA":" ","LANE":" ","ALLEY":" ","HOUSE_NO":"１２８號七樓之１６","E_COORD97":168771.01999999999,"N_COORD97":2544380.0600000001,"ADDRESS":"公園路１２８號七樓之１６","OBJECTID":477128},"geometry":{"x":168771.02000000048,"y":2544380.0600000005}},{"attributes":{"ID":477154,"DIS_CODE":0,"TOWNNAME":"北區","LI":"公園里","LIN":"20鄰","STREET":"公園路","SECT":" ","MAREA":" ","LANE":" ","ALLEY":" ","HOUSE_NO":"１２８號七樓之１７","E_COORD97":168771.01999999999,"N_COORD97":2544380.0600000001,"ADDRESS":"公園路１２８號七樓之１７","OBJECTID":477129},"geometry":{"x":168771.02000000048,"y":2544380.0600000005}},{"attributes":{"ID":477155,"DIS_CODE":0,"TOWNNAME":"北區","LI":"公園里","LIN":"20鄰","STREET":"公園路","SECT":" ","MAREA":" ","LANE":" ","ALLEY":" ","HOUSE_NO":"１２８號七樓之１８","E_COORD97":168771.01999999999,"N_COORD97":2544380.0600000001,"ADDRESS":"公園路１２８號七樓之１８","OBJECTID":477130},"geometry":{"x":168771.02000000048,"y":2544380.0600000005}},{"attributes":{"ID":477156,"DIS_CODE":0,"TOWNNAME":"北區","LI":"公園里","LIN":"20鄰","STREET":"公園路","SECT":" ","MAREA":" ","LANE":" ","ALLEY":" ","HOUSE_NO":"１２８號七樓之１９","E_COORD97":168771.01999999999,"N_COORD97":2544380.0600000001,"ADDRESS":"公園路１２８號七樓之１９","OBJECTID":477131},"geometry":{"x":168771.02000000048,"y":2544380.0600000005}},{"attributes":{"ID":477157,"DIS_CODE":0,"TOWNNAME":"北區","LI":"公園里","LIN":"20鄰","STREET":"公園路","SECT":" ","MAREA":" ","LANE":" ","ALLEY":" ","HOUSE_NO":"１２８號七樓之２","E_COORD97":168771.01999999999,"N_COORD97":2544380.0600000001,"ADDRESS":"公園路１２８號七樓之２","OBJECTID":477132},"geometry":{"x":168771.02000000048,"y":2544380.0600000005}},{"attributes":{"ID":477158,"DIS_CODE":0,"TOWNNAME":"北區","LI":"公園里","LIN":"20鄰","STREET":"公園路","SECT":" ","MAREA":" ","LANE":" ","ALLEY":" ","HOUSE_NO":"１２８號七樓之２０","E_COORD97":168771.01999999999,"N_COORD97":2544380.0600000001,"ADDRESS":"公園路１２８號七樓之２０","OBJECTID":477133},"geometry":{"x":168771.02000000048,"y":2544380.0600000005}},{"attributes":{"ID":477159,"DIS_CODE":0,"TOWNNAME":"北區","LI":"公園里","LIN":"20鄰","STREET":"公園路","SECT":" ","MAREA":" ","LANE":" ","ALLEY":" ","HOUSE_NO":"１２８號七樓之２１","E_COORD97":168771.01999999999,"N_COORD97":2544380.0600000001,"ADDRESS":"公園路１２８號七樓之２１","OBJECTID":477134},"geometry":{"x":168771.02000000048,"y":2544380.0600000005}},{"attributes":{"ID":477160,"DIS_CODE":0,"TOWNNAME":"北區","LI":"公園里","LIN":"20鄰","STREET":"公園路","SECT":" ","MAREA":" ","LANE":" ","ALLEY":" ","HOUSE_NO":"１２８號七樓之２２","E_COORD97":168771.01999999999,"N_COORD97":2544380.0600000001,"ADDRESS":"公園路１２８號七樓之２２","OBJECTID":477135},"geometry":{"x":168771.02000000048,"y":2544380.0600000005}},{"attributes":{"ID":477161,"DIS_CODE":0,"TOWNNAME":"北區","LI":"公園里","LIN":"20鄰","STREET":"公園路","SECT":" ","MAREA":" ","LANE":" ","ALLEY":" ","HOUSE_NO":"１２８號七樓之２３","E_COORD97":168771.01999999999,"N_COORD97":2544380.0600000001,"ADDRESS":"公園路１２８號七樓之２３","OBJECTID":477136},"geometry":{"x":168771.02000000048,"y":2544380.0600000005}},{"attributes":{"ID":477162,"DIS_CODE":0,"TOWNNAME":"北區","LI":"公園里","LIN":"20鄰","STREET":"公園路","SECT":" ","MAREA":" ","LANE":" ","ALLEY":" ","HOUSE_NO":"１２８號七樓之２４","E_COORD97":168771.01999999999,"N_COORD97":2544380.0600000001,"ADDRESS":"公園路１２８號七樓之２４","OBJECTID":477137},"geometry":{"x":168771.02000000048,"y":2544380.0600000005}},{"attributes":{"ID":477163,"DIS_CODE":0,"TOWNNAME":"北區","LI":"公園里","LIN":"20鄰","STREET":"公園路","SECT":" ","MAREA":" ","LANE":" ","ALLEY":" ","HOUSE_NO":"１２８號七樓之２５","E_COORD97":168771.01999999999,"N_COORD97":2544380.0600000001,"ADDRESS":"公園路１２８號七樓之２５","OBJECTID":477138},"geometry":{"x":168771.02000000048,"y":2544380.0600000005}},{"attributes":{"ID":477164,"DIS_CODE":0,"TOWNNAME":"北區","LI":"公園里","LIN":"20鄰","STREET":"公園路","SECT":" ","MAREA":" ","LANE":" ","ALLEY":" ","HOUSE_NO":"１２８號七樓之２６","E_COORD97":168771.01999999999,"N_COORD97":2544380.0600000001,"ADDRESS":"公園路１２８號七樓之２６","OBJECTID":477139},"geometry":{"x":168771.02000000048,"y":2544380.0600000005}},{"attributes":{"ID":477165,"DIS_CODE":0,"TOWNNAME":"北區","LI":"公園里","LIN":"20鄰","STREET":"公園路","SECT":" ","MAREA":" ","LANE":" ","ALLEY":" ","HOUSE_NO":"１２８號七樓之２７","E_COORD97":168771.01999999999,"N_COORD97":2544380.0600000001,"ADDRESS":"公園路１２８號七樓之２７","OBJECTID":477140},"geometry":{"x":168771.02000000048,"y":2544380.0600000005}},{"attributes":{"ID":477166,"DIS_CODE":0,"TOWNNAME":"北區","LI":"公園里","LIN":"20鄰","STREET":"公園路","SECT":" ","MAREA":" ","LANE":" ","ALLEY":" ","HOUSE_NO":"１２８號七樓之２８","E_COORD97":168771.01999999999,"N_COORD97":2544380.0600000001,"ADDRESS":"公園路１２８號七樓之２８","OBJECTID":477141},"geometry":{"x":168771.02000000048,"y":2544380.0600000005}},{"attributes":{"ID":477167,"DIS_CODE":0,"TOWNNAME":"北區","LI":"公園里","LIN":"20鄰","STREET":"公園路","SECT":" ","MAREA":" ","LANE":" ","ALLEY":" ","HOUSE_NO":"１２８號七樓之２９","E_COORD97":168771.01999999999,"N_COORD97":2544380.0600000001,"ADDRESS":"公園路１２８號七樓之２９","OBJECTID":477142},"geometry":{"x":168771.02000000048,"y":2544380.0600000005}},{"attributes":{"ID":477168,"DIS_CODE":0,"TOWNNAME":"北區","LI":"公園里","LIN":"20鄰","STREET":"公園路","SECT":" ","MAREA":" ","LANE":" ","ALLEY":" ","HOUSE_NO":"１２８號七樓之３","E_COORD97":168771.01999999999,"N_COORD97":2544380.0600000001,"ADDRESS":"公園路１２８號七樓之３","OBJECTID":477143},"geometry":{"x":168771.02000000048,"y":2544380.0600000005}},{"attributes":{"ID":477169,"DIS_CODE":0,"TOWNNAME":"北區","LI":"公園里","LIN":"20鄰","STREET":"公園路","SECT":" ","MAREA":" ","LANE":" ","ALLEY":" ","HOUSE_NO":"１２８號七樓之３０","E_COORD97":168771.01999999999,"N_COORD97":2544380.0600000001,"ADDRESS":"公園路１２８號七樓之３０","OBJECTID":477144},"geometry":{"x":168771.02000000048,"y":2544380.0600000005}},{"attributes":{"ID":477170,"DIS_CODE":0,"TOWNNAME":"北區","LI":"公園里","LIN":"20鄰","STREET":"公園路","SECT":" ","MAREA":" ","LANE":" ","ALLEY":" ","HOUSE_NO":"１２８號七樓之３１","E_COORD97":168771.01999999999,"N_COORD97":2544380.0600000001,"ADDRESS":"公園路１２８號七樓之３１","OBJECTID":477145},"geometry":{"x":168771.02000000048,"y":2544380.0600000005}},{"attributes":{"ID":477171,"DIS_CODE":0,"TOWNNAME":"北區","LI":"公園里","LIN":"20鄰","STREET":"公園路","SECT":" ","MAREA":" ","LANE":" ","ALLEY":" ","HOUSE_NO":"１２８號七樓之３２","E_COORD97":168771.01999999999,"N_COORD97":2544380.0600000001,"ADDRESS":"公園路１２８號七樓之３２","OBJECTID":477146},"geometry":{"x":168771.02000000048,"y":2544380.0600000005}},{"attributes":{"ID":477172,"DIS_CODE":0,"TOWNNAME":"北區","LI":"公園里","LIN":"20鄰","STREET":"公園路","SECT":" ","MAREA":" ","LANE":" ","ALLEY":" ","HOUSE_NO":"１２８號七樓之３３","E_COORD97":168771.01999999999,"N_COORD97":2544380.0600000001,"ADDRESS":"公園路１２８號七樓之３３","OBJECTID":477147},"geometry":{"x":168771.02000000048,"y":2544380.0600000005}},{"attributes":{"ID":477173,"DIS_CODE":0,"TOWNNAME":"北區","LI":"公園里","LIN":"20鄰","STREET":"公園路","SECT":" ","MAREA":" ","LANE":" ","ALLEY":" ","HOUSE_NO":"１２８號七樓之３４","E_COORD97":168771.01999999999,"N_COORD97":2544380.0600000001,"ADDRESS":"公園路１２８號七樓之３４","OBJECTID":477148},"geometry":{"x":168771.02000000048,"y":2544380.0600000005}},{"attributes":{"ID":477174,"DIS_CODE":0,"TOWNNAME":"北區","LI":"公園里","LIN":"20鄰","STREET":"公園路","SECT":" ","MAREA":" ","LANE":" ","ALLEY":" ","HOUSE_NO":"１２８號七樓之３５","E_COORD97":168771.01999999999,"N_COORD97":2544380.0600000001,"ADDRESS":"公園路１２８號七樓之３５","OBJECTID":477149},"geometry":{"x":168771.02000000048,"y":2544380.0600000005}},{"attributes":{"ID":477175,"DIS_CODE":0,"TOWNNAME":"北區","LI":"公園里","LIN":"20鄰","STREET":"公園路","SECT":" ","MAREA":" ","LANE":" ","ALLEY":" ","HOUSE_NO":"１２８號七樓之３６","E_COORD97":168771.01999999999,"N_COORD97":2544380.0600000001,"ADDRESS":"公園路１２８號七樓之３６","OBJECTID":477150},"geometry":{"x":168771.02000000048,"y":2544380.0600000005}},{"attributes":{"ID":477176,"DIS_CODE":0,"TOWNNAME":"北區","LI":"公園里","LIN":"20鄰","STREET":"公園路","SECT":" ","MAREA":" ","LANE":" ","ALLEY":" ","HOUSE_NO":"１２８號七樓之３７","E_COORD97":168771.01999999999,"N_COORD97":2544380.0600000001,"ADDRESS":"公園路１２８號七樓之３７","OBJECTID":477151},"geometry":{"x":168771.02000000048,"y":2544380.0600000005}},{"attributes":{"ID":477177,"DIS_CODE":0,"TOWNNAME":"北區","LI":"公園里","LIN":"20鄰","STREET":"公園路","SECT":" ","MAREA":" ","LANE":" ","ALLEY":" ","HOUSE_NO":"１２８號七樓之４","E_COORD97":168771.01999999999,"N_COORD97":2544380.0600000001,"ADDRESS":"公園路１２８號七樓之４","OBJECTID":477152},"geometry":{"x":168771.02000000048,"y":2544380.0600000005}},{"attributes":{"ID":477178,"DIS_CODE":0,"TOWNNAME":"北區","LI":"公園里","LIN":"20鄰","STREET":"公園路","SECT":" ","MAREA":" ","LANE":" ","ALLEY":" ","HOUSE_NO":"１２８號七樓之５","E_COORD97":168771.01999999999,"N_COORD97":2544380.0600000001,"ADDRESS":"公園路１２８號七樓之５","OBJECTID":477153},"geometry":{"x":168771.02000000048,"y":2544380.0600000005}},{"attributes":{"ID":477179,"DIS_CODE":0,"TOWNNAME":"北區","LI":"公園里","LIN":"20鄰","STREET":"公園路","SECT":" ","MAREA":" ","LANE":" ","ALLEY":" ","HOUSE_NO":"１２８號七樓之６","E_COORD97":168771.01999999999,"N_COORD97":2544380.0600000001,"ADDRESS":"公園路１２８號七樓之６","OBJECTID":477154},"geometry":{"x":168771.02000000048,"y":2544380.0600000005}},{"attributes":{"ID":477180,"DIS_CODE":0,"TOWNNAME":"北區","LI":"公園里","LIN":"20鄰","STREET":"公園路","SECT":" ","MAREA":" ","LANE":" ","ALLEY":" ","HOUSE_NO":"１２８號七樓之７","E_COORD97":168771.01999999999,"N_COORD97":2544380.0600000001,"ADDRESS":"公園路１２８號七樓之７","OBJECTID":477155},"geometry":{"x":168771.02000000048,"y":2544380.0600000005}},{"attributes":{"ID":477181,"DIS_CODE":0,"TOWNNAME":"北區","LI":"公園里","LIN":"20鄰","STREET":"公園路","SECT":" ","MAREA":" ","LANE":" ","ALLEY":" ","HOUSE_NO":"１２８號七樓之８","E_COORD97":168771.01999999999,"N_COORD97":2544380.0600000001,"ADDRESS":"公園路１２８號七樓之８","OBJECTID":477156},"geometry":{"x":168771.02000000048,"y":2544380.0600000005}},{"attributes":{"ID":477182,"DIS_CODE":0,"TOWNNAME":"北區","LI":"公園里","LIN":"20鄰","STREET":"公園路","SECT":" ","MAREA":" ","LANE":" ","ALLEY":" ","HOUSE_NO":"１２８號七樓之９","E_COORD97":168771.01999999999,"N_COORD97":2544380.0600000001,"ADDRESS":"公園路１２８號七樓之９","OBJECTID":477157},"geometry":{"x":168771.02000000048,"y":2544380.0600000005}},{"attributes":{"ID":477183,"DIS_CODE":0,"TOWNNAME":"北區","LI":"公園里","LIN":"20鄰","STREET":"公園路","SECT":" ","MAREA":" ","LANE":" ","ALLEY":" ","HOUSE_NO":"１２８號八樓","E_COORD97":168771.01999999999,"N_COORD97":2544380.0600000001,"ADDRESS":"公園路１２８號八樓","OBJECTID":477158},"geometry":{"x":168771.02000000048,"y":2544380.0600000005}},{"attributes":{"ID":477184,"DIS_CODE":0,"TOWNNAME":"北區","LI":"公園里","LIN":"20鄰","STREET":"公園路","SECT":" ","MAREA":" ","LANE":" ","ALLEY":" ","HOUSE_NO":"１２８號五樓之１","E_COORD97":168771.01999999999,"N_COORD97":2544380.0600000001,"ADDRESS":"公園路１２８號五樓之１","OBJECTID":477159},"geometry":{"x":168771.02000000048,"y":2544380.0600000005}},{"attributes":{"ID":477185,"DIS_CODE":0,"TOWNNAME":"北區","LI":"公園里","LIN":"20鄰","STREET":"公園路","SECT":" ","MAREA":" ","LANE":" ","ALLEY":" ","HOUSE_NO":"１２８號五樓之１０","E_COORD97":168771.01999999999,"N_COORD97":2544380.0600000001,"ADDRESS":"公園路１２８號五樓之１０","OBJECTID":477160},"geometry":{"x":168771.02000000048,"y":2544380.0600000005}},{"attributes":{"ID":477186,"DIS_CODE":0,"TOWNNAME":"北區","LI":"公園里","LIN":"20鄰","STREET":"公園路","SECT":" ","MAREA":" ","LANE":" ","ALLEY":" ","HOUSE_NO":"１２８號五樓之１１","E_COORD97":168771.01999999999,"N_COORD97":2544380.0600000001,"ADDRESS":"公園路１２８號五樓之１１","OBJECTID":477161},"geometry":{"x":168771.02000000048,"y":2544380.0600000005}},{"attributes":{"ID":477187,"DIS_CODE":0,"TOWNNAME":"北區","LI":"公園里","LIN":"20鄰","STREET":"公園路","SECT":" ","MAREA":" ","LANE":" ","ALLEY":" ","HOUSE_NO":"１２８號五樓之１２","E_COORD97":168771.01999999999,"N_COORD97":2544380.0600000001,"ADDRESS":"公園路１２８號五樓之１２","OBJECTID":477162},"geometry":{"x":168771.02000000048,"y":2544380.0600000005}},{"attributes":{"ID":477188,"DIS_CODE":0,"TOWNNAME":"北區","LI":"公園里","LIN":"20鄰","STREET":"公園路","SECT":" ","MAREA":" ","LANE":" ","ALLEY":" ","HOUSE_NO":"１２８號五樓之１３","E_COORD97":168771.01999999999,"N_COORD97":2544380.0600000001,"ADDRESS":"公園路１２８號五樓之１３","OBJECTID":477163},"geometry":{"x":168771.02000000048,"y":2544380.0600000005}},{"attributes":{"ID":477189,"DIS_CODE":0,"TOWNNAME":"北區","LI":"公園里","LIN":"20鄰","STREET":"公園路","SECT":" ","MAREA":" ","LANE":" ","ALLEY":" ","HOUSE_NO":"１２８號五樓之１４","E_COORD97":168771.01999999999,"N_COORD97":2544380.0600000001,"ADDRESS":"公園路１２８號五樓之１４","OBJECTID":477164},"geometry":{"x":168771.02000000048,"y":2544380.0600000005}},{"attributes":{"ID":477190,"DIS_CODE":0,"TOWNNAME":"北區","LI":"公園里","LIN":"20鄰","STREET":"公園路","SECT":" ","MAREA":" ","LANE":" ","ALLEY":" ","HOUSE_NO":"１２８號五樓之１５","E_COORD97":168771.01999999999,"N_COORD97":2544380.0600000001,"ADDRESS":"公園路１２８號五樓之１５","OBJECTID":477165},"geometry":{"x":168771.02000000048,"y":2544380.0600000005}},{"attributes":{"ID":477191,"DIS_CODE":0,"TOWNNAME":"北區","LI":"公園里","LIN":"20鄰","STREET":"公園路","SECT":" ","MAREA":" ","LANE":" ","ALLEY":" ","HOUSE_NO":"１２８號五樓之１６","E_COORD97":168771.01999999999,"N_COORD97":2544380.0600000001,"ADDRESS":"公園路１２８號五樓之１６","OBJECTID":477166},"geometry":{"x":168771.02000000048,"y":2544380.0600000005}},{"attributes":{"ID":477192,"DIS_CODE":0,"TOWNNAME":"北區","LI":"公園里","LIN":"20鄰","STREET":"公園路","SECT":" ","MAREA":" ","LANE":" ","ALLEY":" ","HOUSE_NO":"１２８號五樓之１７","E_COORD97":168771.01999999999,"N_COORD97":2544380.0600000001,"ADDRESS":"公園路１２８號五樓之１７","OBJECTID":477167},"geometry":{"x":168771.02000000048,"y":2544380.0600000005}},{"attributes":{"ID":477193,"DIS_CODE":0,"TOWNNAME":"北區","LI":"公園里","LIN":"20鄰","STREET":"公園路","SECT":" ","MAREA":" ","LANE":" ","ALLEY":" ","HOUSE_NO":"１２８號五樓之１８","E_COORD97":168771.01999999999,"N_COORD97":2544380.0600000001,"ADDRESS":"公園路１２８號五樓之１８","OBJECTID":477168},"geometry":{"x":168771.02000000048,"y":2544380.0600000005}},{"attributes":{"ID":477194,"DIS_CODE":0,"TOWNNAME":"北區","LI":"公園里","LIN":"20鄰","STREET":"公園路","SECT":" ","MAREA":" ","LANE":" ","ALLEY":" ","HOUSE_NO":"１２８號五樓之１９","E_COORD97":168771.01999999999,"N_COORD97":2544380.0600000001,"ADDRESS":"公園路１２８號五樓之１９","OBJECTID":477169},"geometry":{"x":168771.02000000048,"y":2544380.0600000005}},{"attributes":{"ID":477195,"DIS_CODE":0,"TOWNNAME":"北區","LI":"公園里","LIN":"20鄰","STREET":"公園路","SECT":" ","MAREA":" ","LANE":" ","ALLEY":" ","HOUSE_NO":"１２８號五樓之２","E_COORD97":168771.01999999999,"N_COORD97":2544380.0600000001,"ADDRESS":"公園路１２８號五樓之２","OBJECTID":477170},"geometry":{"x":168771.02000000048,"y":2544380.0600000005}},{"attributes":{"ID":477196,"DIS_CODE":0,"TOWNNAME":"北區","LI":"公園里","LIN":"20鄰","STREET":"公園路","SECT":" ","MAREA":" ","LANE":" ","ALLEY":" ","HOUSE_NO":"１２８號五樓之２０","E_COORD97":168771.01999999999,"N_COORD97":2544380.0600000001,"ADDRESS":"公園路１２８號五樓之２０","OBJECTID":477171},"geometry":{"x":168771.02000000048,"y":2544380.0600000005}},{"attributes":{"ID":477197,"DIS_CODE":0,"TOWNNAME":"北區","LI":"公園里","LIN":"20鄰","STREET":"公園路","SECT":" ","MAREA":" ","LANE":" ","ALLEY":" ","HOUSE_NO":"１２８號五樓之２１","E_COORD97":168771.01999999999,"N_COORD97":2544380.0600000001,"ADDRESS":"公園路１２８號五樓之２１","OBJECTID":477172},"geometry":{"x":168771.02000000048,"y":2544380.0600000005}},{"attributes":{"ID":477198,"DIS_CODE":0,"TOWNNAME":"北區","LI":"公園里","LIN":"20鄰","STREET":"公園路","SECT":" ","MAREA":" ","LANE":" ","ALLEY":" ","HOUSE_NO":"１２８號五樓之２２","E_COORD97":168771.01999999999,"N_COORD97":2544380.0600000001,"ADDRESS":"公園路１２８號五樓之２２","OBJECTID":477173},"geometry":{"x":168771.02000000048,"y":2544380.0600000005}},{"attributes":{"ID":477199,"DIS_CODE":0,"TOWNNAME":"北區","LI":"公園里","LIN":"20鄰","STREET":"公園路","SECT":" ","MAREA":" ","LANE":" ","ALLEY":" ","HOUSE_NO":"１２８號五樓之２３","E_COORD97":168771.01999999999,"N_COORD97":2544380.0600000001,"ADDRESS":"公園路１２８號五樓之２３","OBJECTID":477174},"geometry":{"x":168771.02000000048,"y":2544380.0600000005}},{"attributes":{"ID":477200,"DIS_CODE":0,"TOWNNAME":"北區","LI":"公園里","LIN":"20鄰","STREET":"公園路","SECT":" ","MAREA":" ","LANE":" ","ALLEY":" ","HOUSE_NO":"１２８號五樓之２４","E_COORD97":168771.01999999999,"N_COORD97":2544380.0600000001,"ADDRESS":"公園路１２８號五樓之２４","OBJECTID":477175},"geometry":{"x":168771.02000000048,"y":2544380.0600000005}},{"attributes":{"ID":477201,"DIS_CODE":0,"TOWNNAME":"北區","LI":"公園里","LIN":"20鄰","STREET":"公園路","SECT":" ","MAREA":" ","LANE":" ","ALLEY":" ","HOUSE_NO":"１２８號五樓之２５","E_COORD97":168771.01999999999,"N_COORD97":2544380.0600000001,"ADDRESS":"公園路１２８號五樓之２５","OBJECTID":477176},"geometry":{"x":168771.02000000048,"y":2544380.0600000005}},{"attributes":{"ID":477202,"DIS_CODE":0,"TOWNNAME":"北區","LI":"公園里","LIN":"20鄰","STREET":"公園路","SECT":" ","MAREA":" ","LANE":" ","ALLEY":" ","HOUSE_NO":"１２８號五樓之２６","E_COORD97":168771.01999999999,"N_COORD97":2544380.0600000001,"ADDRESS":"公園路１２８號五樓之２６","OBJECTID":477177},"geometry":{"x":168771.02000000048,"y":2544380.0600000005}},{"attributes":{"ID":477203,"DIS_CODE":0,"TOWNNAME":"北區","LI":"公園里","LIN":"20鄰","STREET":"公園路","SECT":" ","MAREA":" ","LANE":" ","ALLEY":" ","HOUSE_NO":"１２８號五樓之２７","E_COORD97":168771.01999999999,"N_COORD97":2544380.0600000001,"ADDRESS":"公園路１２８號五樓之２７","OBJECTID":477178},"geometry":{"x":168771.02000000048,"y":2544380.0600000005}},{"attributes":{"ID":477204,"DIS_CODE":0,"TOWNNAME":"北區","LI":"公園里","LIN":"20鄰","STREET":"公園路","SECT":" ","MAREA":" ","LANE":" ","ALLEY":" ","HOUSE_NO":"１２８號五樓之２８","E_COORD97":168771.01999999999,"N_COORD97":2544380.0600000001,"ADDRESS":"公園路１２８號五樓之２８","OBJECTID":477179},"geometry":{"x":168771.02000000048,"y":2544380.0600000005}},{"attributes":{"ID":477205,"DIS_CODE":0,"TOWNNAME":"北區","LI":"公園里","LIN":"20鄰","STREET":"公園路","SECT":" ","MAREA":" ","LANE":" ","ALLEY":" ","HOUSE_NO":"１２８號五樓之２９","E_COORD97":168771.01999999999,"N_COORD97":2544380.0600000001,"ADDRESS":"公園路１２８號五樓之２９","OBJECTID":477180},"geometry":{"x":168771.02000000048,"y":2544380.0600000005}},{"attributes":{"ID":477206,"DIS_CODE":0,"TOWNNAME":"北區","LI":"公園里","LIN":"20鄰","STREET":"公園路","SECT":" ","MAREA":" ","LANE":" ","ALLEY":" ","HOUSE_NO":"１２８號五樓之３","E_COORD97":168771.01999999999,"N_COORD97":2544380.0600000001,"ADDRESS":"公園路１２８號五樓之３","OBJECTID":477181},"geometry":{"x":168771.02000000048,"y":2544380.0600000005}},{"attributes":{"ID":477207,"DIS_CODE":0,"TOWNNAME":"北區","LI":"公園里","LIN":"20鄰","STREET":"公園路","SECT":" ","MAREA":" ","LANE":" ","ALLEY":" ","HOUSE_NO":"１２８號五樓之３０","E_COORD97":168771.01999999999,"N_COORD97":2544380.0600000001,"ADDRESS":"公園路１２８號五樓之３０","OBJECTID":477182},"geometry":{"x":168771.02000000048,"y":2544380.0600000005}},{"attributes":{"ID":477208,"DIS_CODE":0,"TOWNNAME":"北區","LI":"公園里","LIN":"20鄰","STREET":"公園路","SECT":" ","MAREA":" ","LANE":" ","ALLEY":" ","HOUSE_NO":"１２８號五樓之３１","E_COORD97":168771.01999999999,"N_COORD97":2544380.0600000001,"ADDRESS":"公園路１２８號五樓之３１","OBJECTID":477183},"geometry":{"x":168771.02000000048,"y":2544380.0600000005}},{"attributes":{"ID":477209,"DIS_CODE":0,"TOWNNAME":"北區","LI":"公園里","LIN":"20鄰","STREET":"公園路","SECT":" ","MAREA":" ","LANE":" ","ALLEY":" ","HOUSE_NO":"１２８號五樓之３２","E_COORD97":168771.01999999999,"N_COORD97":2544380.0600000001,"ADDRESS":"公園路１２８號五樓之３２","OBJECTID":477184},"geometry":{"x":168771.02000000048,"y":2544380.0600000005}},{"attributes":{"ID":477210,"DIS_CODE":0,"TOWNNAME":"北區","LI":"公園里","LIN":"20鄰","STREET":"公園路","SECT":" ","MAREA":" ","LANE":" ","ALLEY":" ","HOUSE_NO":"１２８號五樓之３３","E_COORD97":168771.01999999999,"N_COORD97":2544380.0600000001,"ADDRESS":"公園路１２８號五樓之３３","OBJECTID":477185},"geometry":{"x":168771.02000000048,"y":2544380.0600000005}},{"attributes":{"ID":477211,"DIS_CODE":0,"TOWNNAME":"北區","LI":"公園里","LIN":"20鄰","STREET":"公園路","SECT":" ","MAREA":" ","LANE":" ","ALLEY":" ","HOUSE_NO":"１２８號五樓之３４","E_COORD97":168771.01999999999,"N_COORD97":2544380.0600000001,"ADDRESS":"公園路１２８號五樓之３４","OBJECTID":477186},"geometry":{"x":168771.02000000048,"y":2544380.0600000005}},{"attributes":{"ID":477212,"DIS_CODE":0,"TOWNNAME":"北區","LI":"公園里","LIN":"20鄰","STREET":"公園路","SECT":" ","MAREA":" ","LANE":" ","ALLEY":" ","HOUSE_NO":"１２８號五樓之３５","E_COORD97":168771.01999999999,"N_COORD97":2544380.0600000001,"ADDRESS":"公園路１２８號五樓之３５","OBJECTID":477187},"geometry":{"x":168771.02000000048,"y":2544380.0600000005}},{"attributes":{"ID":477213,"DIS_CODE":0,"TOWNNAME":"北區","LI":"公園里","LIN":"20鄰","STREET":"公園路","SECT":" ","MAREA":" ","LANE":" ","ALLEY":" ","HOUSE_NO":"１２８號五樓之３６","E_COORD97":168771.01999999999,"N_COORD97":2544380.0600000001,"ADDRESS":"公園路１２８號五樓之３６","OBJECTID":477188},"geometry":{"x":168771.02000000048,"y":2544380.0600000005}},{"attributes":{"ID":477214,"DIS_CODE":0,"TOWNNAME":"北區","LI":"公園里","LIN":"20鄰","STREET":"公園路","SECT":" ","MAREA":" ","LANE":" ","ALLEY":" ","HOUSE_NO":"１２８號五樓之３７","E_COORD97":168771.01999999999,"N_COORD97":2544380.0600000001,"ADDRESS":"公園路１２８號五樓之３７","OBJECTID":477189},"geometry":{"x":168771.02000000048,"y":2544380.0600000005}},{"attributes":{"ID":477215,"DIS_CODE":0,"TOWNNAME":"北區","LI":"公園里","LIN":"20鄰","STREET":"公園路","SECT":" ","MAREA":" ","LANE":" ","ALLEY":" ","HOUSE_NO":"１２８號五樓之３８","E_COORD97":168771.01999999999,"N_COORD97":2544380.0600000001,"ADDRESS":"公園路１２８號五樓之３８","OBJECTID":477190},"geometry":{"x":168771.02000000048,"y":2544380.0600000005}},{"attributes":{"ID":477216,"DIS_CODE":0,"TOWNNAME":"北區","LI":"公園里","LIN":"20鄰","STREET":"公園路","SECT":" ","MAREA":" ","LANE":" ","ALLEY":" ","HOUSE_NO":"１２８號五樓之３９","E_COORD97":168771.01999999999,"N_COORD97":2544380.0600000001,"ADDRESS":"公園路１２８號五樓之３９","OBJECTID":477191},"geometry":{"x":168771.02000000048,"y":2544380.0600000005}},{"attributes":{"ID":477217,"DIS_CODE":0,"TOWNNAME":"北區","LI":"公園里","LIN":"20鄰","STREET":"公園路","SECT":" ","MAREA":" ","LANE":" ","ALLEY":" ","HOUSE_NO":"１２８號五樓之４","E_COORD97":168771.01999999999,"N_COORD97":2544380.0600000001,"ADDRESS":"公園路１２８號五樓之４","OBJECTID":477192},"geometry":{"x":168771.02000000048,"y":2544380.0600000005}},{"attributes":{"ID":477218,"DIS_CODE":0,"TOWNNAME":"北區","LI":"公園里","LIN":"20鄰","STREET":"公園路","SECT":" ","MAREA":" ","LANE":" ","ALLEY":" ","HOUSE_NO":"１２８號五樓之５","E_COORD97":168771.01999999999,"N_COORD97":2544380.0600000001,"ADDRESS":"公園路１２８號五樓之５","OBJECTID":477193},"geometry":{"x":168771.02000000048,"y":2544380.0600000005}},{"attributes":{"ID":477219,"DIS_CODE":0,"TOWNNAME":"北區","LI":"公園里","LIN":"20鄰","STREET":"公園路","SECT":" ","MAREA":" ","LANE":" ","ALLEY":" ","HOUSE_NO":"１２８號五樓之６","E_COORD97":168771.01999999999,"N_COORD97":2544380.0600000001,"ADDRESS":"公園路１２８號五樓之６","OBJECTID":477194},"geometry":{"x":168771.02000000048,"y":2544380.0600000005}},{"attributes":{"ID":477220,"DIS_CODE":0,"TOWNNAME":"北區","LI":"公園里","LIN":"20鄰","STREET":"公園路","SECT":" ","MAREA":" ","LANE":" ","ALLEY":" ","HOUSE_NO":"１２８號五樓之７","E_COORD97":168771.01999999999,"N_COORD97":2544380.0600000001,"ADDRESS":"公園路１２８號五樓之７","OBJECTID":477195},"geometry":{"x":168771.02000000048,"y":2544380.0600000005}},{"attributes":{"ID":477221,"DIS_CODE":0,"TOWNNAME":"北區","LI":"公園里","LIN":"20鄰","STREET":"公園路","SECT":" ","MAREA":" ","LANE":" ","ALLEY":" ","HOUSE_NO":"１２８號五樓之８","E_COORD97":168771.01999999999,"N_COORD97":2544380.0600000001,"ADDRESS":"公園路１２８號五樓之８","OBJECTID":477196},"geometry":{"x":168771.02000000048,"y":2544380.0600000005}},{"attributes":{"ID":477222,"DIS_CODE":0,"TOWNNAME":"北區","LI":"公園里","LIN":"20鄰","STREET":"公園路","SECT":" ","MAREA":" ","LANE":" ","ALLEY":" ","HOUSE_NO":"１２８號五樓之９","E_COORD97":168771.01999999999,"N_COORD97":2544380.0600000001,"ADDRESS":"公園路１２８號五樓之９","OBJECTID":477197},"geometry":{"x":168771.02000000048,"y":2544380.0600000005}},{"attributes":{"ID":477223,"DIS_CODE":0,"TOWNNAME":"北區","LI":"公園里","LIN":"20鄰","STREET":"公園路","SECT":" ","MAREA":" ","LANE":" ","ALLEY":" ","HOUSE_NO":"１２８號六樓之１","E_COORD97":168771.01999999999,"N_COORD97":2544380.0600000001,"ADDRESS":"公園路１２８號六樓之１","OBJECTID":477198},"geometry":{"x":168771.02000000048,"y":2544380.0600000005}},{"attributes":{"ID":477224,"DIS_CODE":0,"TOWNNAME":"北區","LI":"公園里","LIN":"20鄰","STREET":"公園路","SECT":" ","MAREA":" ","LANE":" ","ALLEY":" ","HOUSE_NO":"１２８號六樓之１０","E_COORD97":168771.01999999999,"N_COORD97":2544380.0600000001,"ADDRESS":"公園路１２８號六樓之１０","OBJECTID":477199},"geometry":{"x":168771.02000000048,"y":2544380.0600000005}},{"attributes":{"ID":477225,"DIS_CODE":0,"TOWNNAME":"北區","LI":"公園里","LIN":"20鄰","STREET":"公園路","SECT":" ","MAREA":" ","LANE":" ","ALLEY":" ","HOUSE_NO":"１２８號六樓之１１","E_COORD97":168771.01999999999,"N_COORD97":2544380.0600000001,"ADDRESS":"公園路１２８號六樓之１１","OBJECTID":477200},"geometry":{"x":168771.02000000048,"y":2544380.0600000005}}]}