{"displayFieldName":"TOWNNAME","fieldAliases":{"ID":"ID","DIS_CODE":"DIS_CODE","TOWNNAME":"TOWNNAME","LI":"LI","LIN":"LIN","STREET":"STREET","SECT":"SECT","MAREA":"MAREA","LANE":"LANE","ALLEY":"ALLEY","HOUSE_NO":"HOUSE_NO","E_COORD97":"E_COORD97","N_COORD97":"N_COORD97","ADDRESS":"ADDRESS","OBJECTID":"OBJECTID"},"geometryType":"esriGeometryPoint","spatialReference":{"wkid":102443,"latestWkid":3826},"fields":[{"name":"ID","type":"esriFieldTypeDouble","alias":"ID"},{"name":"DIS_CODE","type":"esriFieldTypeInteger","alias":"DIS_CODE"},{"name":"TOWNNAME","type":"esriFieldTypeString","alias":"TOWNNAME","length":8},{"name":"LI","type":"esriFieldTypeString","alias":"LI","length":8},{"name":"LIN","type":"esriFieldTypeString","alias":"LIN","length":12},{"name":"STREET","type":"esriFieldTypeString","alias":"STREET","length":20},{"name":"SECT","type":"esriFieldTypeString","alias":"SECT","length":8},{"name":"MAREA","type":"esriFieldTypeString","alias":"MAREA","length":12},{"name":"LANE","type":"esriFieldTypeString","alias":"LANE","length":10},{"name":"ALLEY","type":"esriFieldTypeString","alias":"ALLEY","length":10},{"name":"HOUSE_NO","type":"esriFieldTypeString","alias":"HOUSE_NO","length":20},{"name":"E_COORD97","type":"esriFieldTypeDouble","alias":"E_COORD97"},{"name":"N_COORD97","type":"esriFieldTypeDouble","alias":"N_COORD97"},{"name":"ADDRESS","type":"esriFieldTypeString","alias":"ADDRESS","length":50},{"name":"OBJECTID","type":"esriFieldTypeOID","alias":"OBJECTID"}],"features":[{"attributes":{"ID":273406,"DIS_CODE":0,"TOWNNAME":"南區","LI":"同安里","LIN":"7鄰","STREET":"興南街","SECT":" ","MAREA":" ","LANE":"２巷","ALLEY":" ","HOUSE_NO":"１２號","E_COORD97":166283.69,"N_COORD97":2536193.0800000001,"ADDRESS":"興南街２巷１２號","OBJECTID":273401},"geometry":{"x":166283.69000000134,"y":2536193.0800000019}},{"attributes":{"ID":273407,"DIS_CODE":0,"TOWNNAME":"南區","LI":"同安里","LIN":"7鄰","STREET":"興南街","SECT":" ","MAREA":" ","LANE":"２巷","ALLEY":" ","HOUSE_NO":"１４號","E_COORD97":166282.23000000001,"N_COORD97":2536197.2599999998,"ADDRESS":"興南街２巷１４號","OBJECTID":273402},"geometry":{"x":166282.23000000138,"y":2536197.2600000035}},{"attributes":{"ID":273408,"DIS_CODE":0,"TOWNNAME":"南區","LI":"同安里","LIN":"7鄰","STREET":"灣裡路","SECT":" ","MAREA":" ","LANE":"３５１巷","ALLEY":" ","HOUSE_NO":"１４號","E_COORD97":166287.25,"N_COORD97":2536204.5699999998,"ADDRESS":"灣裡路３５１巷１４號","OBJECTID":273403},"geometry":{"x":166287.25,"y":2536204.5700000003}},{"attributes":{"ID":273409,"DIS_CODE":0,"TOWNNAME":"南區","LI":"同安里","LIN":"7鄰","STREET":"灣裡路","SECT":" ","MAREA":" ","LANE":"３５１巷","ALLEY":" ","HOUSE_NO":"１６號","E_COORD97":166296.67000000001,"N_COORD97":2536203.1099999999,"ADDRESS":"灣裡路３５１巷１６號","OBJECTID":273404},"geometry":{"x":166296.67000000086,"y":2536203.1099999994}},{"attributes":{"ID":273410,"DIS_CODE":0,"TOWNNAME":"南區","LI":"同安里","LIN":"7鄰","STREET":"灣裡路","SECT":" ","MAREA":" ","LANE":"３５１巷","ALLEY":" ","HOUSE_NO":"１７號","E_COORD97":166270.32999999999,"N_COORD97":2536225.1200000001,"ADDRESS":"灣裡路３５１巷１７號","OBJECTID":273405},"geometry":{"x":166270.33000000101,"y":2536225.120000001}},{"attributes":{"ID":273411,"DIS_CODE":0,"TOWNNAME":"南區","LI":"同安里","LIN":"7鄰","STREET":"灣裡路","SECT":" ","MAREA":" ","LANE":"３５１巷","ALLEY":" ","HOUSE_NO":"１８號","E_COORD97":166248.89999999999,"N_COORD97":2536316.6600000001,"ADDRESS":"灣裡路３５１巷１８號","OBJECTID":273406},"geometry":{"x":166248.90000000037,"y":2536316.6600000001}},{"attributes":{"ID":273412,"DIS_CODE":0,"TOWNNAME":"南區","LI":"同安里","LIN":"7鄰","STREET":"灣裡路","SECT":" ","MAREA":" ","LANE":"３５１巷","ALLEY":" ","HOUSE_NO":"１９號","E_COORD97":166279.64000000001,"N_COORD97":2536229.1299999999,"ADDRESS":"灣裡路３５１巷１９號","OBJECTID":273407},"geometry":{"x":166279.6400000006,"y":2536229.1300000008}},{"attributes":{"ID":273413,"DIS_CODE":0,"TOWNNAME":"南區","LI":"同安里","LIN":"7鄰","STREET":"灣裡路","SECT":" ","MAREA":" ","LANE":"３５１巷","ALLEY":" ","HOUSE_NO":"２０號","E_COORD97":166312.14999999999,"N_COORD97":2536214.6000000001,"ADDRESS":"灣裡路３５１巷２０號","OBJECTID":273408},"geometry":{"x":166312.15000000037,"y":2536214.5999999996}},{"attributes":{"ID":273414,"DIS_CODE":0,"TOWNNAME":"南區","LI":"同安里","LIN":"7鄰","STREET":"灣裡路","SECT":" ","MAREA":" ","LANE":"３５１巷","ALLEY":" ","HOUSE_NO":"２１號","E_COORD97":166296.76000000001,"N_COORD97":2536230.6099999999,"ADDRESS":"灣裡路３５１巷２１號","OBJECTID":273409},"geometry":{"x":166296.75999999978,"y":2536230.6099999994}},{"attributes":{"ID":273415,"DIS_CODE":0,"TOWNNAME":"南區","LI":"同安里","LIN":"7鄰","STREET":"灣裡路","SECT":" ","MAREA":" ","LANE":"３５１巷","ALLEY":" ","HOUSE_NO":"２２號","E_COORD97":166320.54999999999,"N_COORD97":2536215.6299999999,"ADDRESS":"灣裡路３５１巷２２號","OBJECTID":273410},"geometry":{"x":166320.54999999981,"y":2536215.6300000008}},{"attributes":{"ID":273416,"DIS_CODE":0,"TOWNNAME":"歸仁區","LI":"許厝里","LIN":"8鄰","STREET":"仁愛南街","SECT":" ","MAREA":" ","LANE":"５６巷","ALLEY":" ","HOUSE_NO":"２８號","E_COORD97":178180.57999999999,"N_COORD97":2540524.1099999999,"ADDRESS":"仁愛南街５６巷２８號","OBJECTID":273411},"geometry":{"x":178180.58000000194,"y":2540524.1100000031}},{"attributes":{"ID":273417,"DIS_CODE":0,"TOWNNAME":"南區","LI":"同安里","LIN":"7鄰","STREET":"灣裡路","SECT":" ","MAREA":" ","LANE":"３５１巷","ALLEY":" ","HOUSE_NO":"３７號之１","E_COORD97":166317.06,"N_COORD97":2536262.27,"ADDRESS":"灣裡路３５１巷３７號之１","OBJECTID":273412},"geometry":{"x":166317.05999999959,"y":2536262.2700000014}},{"attributes":{"ID":273418,"DIS_CODE":0,"TOWNNAME":"安南區","LI":"城西里","LIN":"7鄰","STREET":"城西街","SECT":"三段","MAREA":" ","LANE":"５０１巷","ALLEY":" ","HOUSE_NO":"２２８號","E_COORD97":157344.26000000001,"N_COORD97":2550119.0699999998,"ADDRESS":"城西街三段５０１巷２２８號","OBJECTID":273413},"geometry":{"x":157344.26000000071,"y":2550119.0700000003}},{"attributes":{"ID":273419,"DIS_CODE":0,"TOWNNAME":"安南區","LI":"城西里","LIN":"7鄰","STREET":"城西街","SECT":"三段","MAREA":" ","LANE":"５０１巷","ALLEY":" ","HOUSE_NO":"３６２之５７號","E_COORD97":157632.67000000001,"N_COORD97":2548955.3300000001,"ADDRESS":"城西街三段５０１巷３６２之５７號","OBJECTID":273414},"geometry":{"x":157632.67000000086,"y":2548955.3300000038}},{"attributes":{"ID":273420,"DIS_CODE":0,"TOWNNAME":"白河區","LI":"永安里","LIN":" ","STREET":"昇平街","SECT":" ","MAREA":" ","LANE":" ","ALLEY":" ","HOUSE_NO":"９號","E_COORD97":190151.60000000001,"N_COORD97":2583182.0299999998,"ADDRESS":"昇平街９號","OBJECTID":273415},"geometry":{"x":190151.60000000056,"y":2583182.0299999975}},{"attributes":{"ID":273421,"DIS_CODE":0,"TOWNNAME":"白河區","LI":"庄內里","LIN":" ","STREET":"長安路","SECT":" ","MAREA":" ","LANE":" ","ALLEY":" ","HOUSE_NO":"３號","E_COORD97":190801.57000000001,"N_COORD97":2583489.6000000001,"ADDRESS":"長安路３號","OBJECTID":273416},"geometry":{"x":190801.57000000216,"y":2583489.5999999996}},{"attributes":{"ID":273422,"DIS_CODE":0,"TOWNNAME":"白河區","LI":"六溪里","LIN":" ","STREET":"南勢路","SECT":" ","MAREA":" ","LANE":" ","ALLEY":" ","HOUSE_NO":"１４號","E_COORD97":195074.23000000001,"N_COORD97":2578603.52,"ADDRESS":"南勢路１４號","OBJECTID":273417},"geometry":{"x":195074.23000000231,"y":2578603.5200000014}},{"attributes":{"ID":273423,"DIS_CODE":0,"TOWNNAME":"安南區","LI":"總頭里","LIN":"7鄰","STREET":"長溪路","SECT":"二段","MAREA":" ","LANE":"５９８巷","ALLEY":" ","HOUSE_NO":"８０號","E_COORD97":168415.436231,"N_COORD97":2550785.3519799998,"ADDRESS":"長溪路二段５９８巷８０號","OBJECTID":273418},"geometry":{"x":168415.43623100035,"y":2550785.3519790024}},{"attributes":{"ID":273424,"DIS_CODE":0,"TOWNNAME":"永康區","LI":"\u25A0洲里","LIN":"3鄰","STREET":"\u25A0行路","SECT":" ","MAREA":" ","LANE":" ","ALLEY":" ","HOUSE_NO":"３４號","E_COORD97":171679.09,"N_COORD97":2549182.6400000001,"ADDRESS":"\u25A0行路３４號","OBJECTID":273419},"geometry":{"x":171679.08999999892,"y":2549182.6400000006}},{"attributes":{"ID":273425,"DIS_CODE":0,"TOWNNAME":"仁德區","LI":"上崙里","LIN":"7鄰","STREET":"德南路","SECT":" ","MAREA":" ","LANE":"３７３巷","ALLEY":" ","HOUSE_NO":"２６號","E_COORD97":173952.14999999999,"N_COORD97":2538331.77,"ADDRESS":"德南路３７３巷２６號","OBJECTID":273420},"geometry":{"x":173952.15000000037,"y":2538331.7699999996}},{"attributes":{"ID":273426,"DIS_CODE":0,"TOWNNAME":"安定區","LI":"港口里","LIN":"3鄰","STREET":" ","SECT":" ","MAREA":"港口","LANE":" ","ALLEY":" ","HOUSE_NO":"２５２號之３","E_COORD97":171524.01999999999,"N_COORD97":2554763.2999999998,"ADDRESS":"港口２５２號之３","OBJECTID":273421},"geometry":{"x":171524.02000000048,"y":2554763.3000000007}},{"attributes":{"ID":273427,"DIS_CODE":0,"TOWNNAME":"仁德區","LI":"上崙里","LIN":"7鄰","STREET":"德南路","SECT":" ","MAREA":" ","LANE":"３９９巷","ALLEY":" ","HOUSE_NO":"２１號","E_COORD97":173984.51999999999,"N_COORD97":2538283.2599999998,"ADDRESS":"德南路３９９巷２１號","OBJECTID":273422},"geometry":{"x":173984.51999999955,"y":2538283.2600000016}},{"attributes":{"ID":273428,"DIS_CODE":0,"TOWNNAME":"永康區","LI":"永康里","LIN":"3鄰","STREET":"中山路","SECT":" ","MAREA":" ","LANE":" ","ALLEY":" ","HOUSE_NO":"４６號","E_COORD97":173849.78,"N_COORD97":2547506.7599999998,"ADDRESS":"中山路４６號","OBJECTID":273423},"geometry":{"x":173849.77999999933,"y":2547506.7599999998}},{"attributes":{"ID":273429,"DIS_CODE":0,"TOWNNAME":"仁德區","LI":"上崙里","LIN":"7鄰","STREET":"德南路","SECT":" ","MAREA":" ","LANE":"３７３巷","ALLEY":" ","HOUSE_NO":"７號","E_COORD97":173909.62,"N_COORD97":2538318.0099999998,"ADDRESS":"德南路３７３巷７號","OBJECTID":273424},"geometry":{"x":173909.62000000011,"y":2538318.0100000035}},{"attributes":{"ID":273430,"DIS_CODE":0,"TOWNNAME":"仁德區","LI":"上崙里","LIN":"7鄰","STREET":"德南路","SECT":" ","MAREA":" ","LANE":"３９９巷","ALLEY":" ","HOUSE_NO":"３８號","E_COORD97":174014.23000000001,"N_COORD97":2538277.5099999998,"ADDRESS":"德南路３９９巷３８號","OBJECTID":273425},"geometry":{"x":174014.23000000045,"y":2538277.5100000035}},{"attributes":{"ID":273431,"DIS_CODE":0,"TOWNNAME":"永康區","LI":"正強里","LIN":"7鄰","STREET":"自強路","SECT":" ","MAREA":" ","LANE":"３６８巷","ALLEY":" ","HOUSE_NO":"１４號","E_COORD97":173535.29000000001,"N_COORD97":2547674.5299999998,"ADDRESS":"自強路３６８巷１４號","OBJECTID":273426},"geometry":{"x":173535.29000000004,"y":2547674.5299999975}},{"attributes":{"ID":273432,"DIS_CODE":0,"TOWNNAME":"永康區","LI":"永康里","LIN":"7鄰","STREET":"中山南路","SECT":" ","MAREA":" ","LANE":"１１１６巷","ALLEY":" ","HOUSE_NO":"３５號","E_COORD97":173931.26000000001,"N_COORD97":2547256,"ADDRESS":"中山南路１１１６巷３５號","OBJECTID":273427},"geometry":{"x":173931.26000000071,"y":2547256.0000000019}},{"attributes":{"ID":273433,"DIS_CODE":0,"TOWNNAME":"永康區","LI":"新樹里","LIN":"7鄰","STREET":"西勢路","SECT":" ","MAREA":" ","LANE":"２２８巷","ALLEY":" ","HOUSE_NO":"４７號","E_COORD97":175742.17000000001,"N_COORD97":2546919.8199999998,"ADDRESS":"西勢路２２８巷４７號","OBJECTID":273428},"geometry":{"x":175742.17000000179,"y":2546919.8200000003}},{"attributes":{"ID":273434,"DIS_CODE":0,"TOWNNAME":"永康區","LI":"西橋里","LIN":"7鄰","STREET":"中華西街","SECT":" ","MAREA":" ","LANE":"６３巷","ALLEY":" ","HOUSE_NO":"１７號","E_COORD97":170697.37,"N_COORD97":2546012.25,"ADDRESS":"中華西街６３巷１７號","OBJECTID":273429},"geometry":{"x":170697.37000000011,"y":2546012.25}},{"attributes":{"ID":273435,"DIS_CODE":0,"TOWNNAME":"永康區","LI":"復國里","LIN":"7鄰","STREET":"復國一路","SECT":" ","MAREA":" ","LANE":"１５０巷","ALLEY":" ","HOUSE_NO":"１４號","E_COORD97":172768.42999999999,"N_COORD97":2545066.9700000002,"ADDRESS":"復國一路１５０巷１４號","OBJECTID":273430},"geometry":{"x":172768.43000000156,"y":2545066.9700000025}},{"attributes":{"ID":273436,"DIS_CODE":0,"TOWNNAME":"永康區","LI":"蔦松里","LIN":"7鄰","STREET":"蔦松一街","SECT":" ","MAREA":" ","LANE":"１４巷","ALLEY":" ","HOUSE_NO":"１２號","E_COORD97":174062.39000000001,"N_COORD97":2549380.0099999998,"ADDRESS":"蔦松一街１４巷１２號","OBJECTID":273431},"geometry":{"x":174062.3900000006,"y":2549380.0099999998}},{"attributes":{"ID":273437,"DIS_CODE":0,"TOWNNAME":"永康區","LI":"六合里","LIN":"3鄰","STREET":"中山南路","SECT":" ","MAREA":" ","LANE":" ","ALLEY":" ","HOUSE_NO":"１３６號","E_COORD97":171110.81,"N_COORD97":2545955.7400000002,"ADDRESS":"中山南路１３６號","OBJECTID":273432},"geometry":{"x":171110.80999999959,"y":2545955.7400000021}},{"attributes":{"ID":273438,"DIS_CODE":0,"TOWNNAME":"永康區","LI":"烏竹里","LIN":"7鄰","STREET":"龍橋街","SECT":" ","MAREA":" ","LANE":"４５９巷","ALLEY":" ","HOUSE_NO":"１７號","E_COORD97":174317.92999999999,"N_COORD97":2549303.2400000002,"ADDRESS":"龍橋街４５９巷１７號","OBJECTID":273433},"geometry":{"x":174317.93000000156,"y":2549303.2400000021}},{"attributes":{"ID":273439,"DIS_CODE":0,"TOWNNAME":"玉井區","LI":"沙田里","LIN":"3鄰","STREET":" ","SECT":" ","MAREA":"沙田","LANE":" ","ALLEY":" ","HOUSE_NO":"２５號之６","E_COORD97":196621.10999999999,"N_COORD97":2557458.29,"ADDRESS":"沙田２５號之６","OBJECTID":273434},"geometry":{"x":196621.11000000127,"y":2557458.290000001}},{"attributes":{"ID":273440,"DIS_CODE":0,"TOWNNAME":"永康區","LI":"烏竹里","LIN":"7鄰","STREET":"龍橋街","SECT":" ","MAREA":" ","LANE":"４５９巷","ALLEY":" ","HOUSE_NO":"２９號","E_COORD97":174292.54999999999,"N_COORD97":2549290.6899999999,"ADDRESS":"龍橋街４５９巷２９號","OBJECTID":273435},"geometry":{"x":174292.55000000075,"y":2549290.6899999995}},{"attributes":{"ID":273441,"DIS_CODE":0,"TOWNNAME":"永康區","LI":"埔園里","LIN":"7鄰","STREET":"中山路","SECT":" ","MAREA":" ","LANE":"８１巷","ALLEY":" ","HOUSE_NO":"７號","E_COORD97":173735.84,"N_COORD97":2547739.4900000002,"ADDRESS":"中山路８１巷７號","OBJECTID":273436},"geometry":{"x":173735.84000000078,"y":2547739.4900000002}},{"attributes":{"ID":273442,"DIS_CODE":0,"TOWNNAME":"永康區","LI":"烏竹里","LIN":"7鄰","STREET":"龍橋街","SECT":" ","MAREA":" ","LANE":"４５９巷","ALLEY":" ","HOUSE_NO":"１１號","E_COORD97":174329.10000000001,"N_COORD97":2549307.1600000001,"ADDRESS":"龍橋街４５９巷１１號","OBJECTID":273437},"geometry":{"x":174329.10000000056,"y":2549307.160000002}},{"attributes":{"ID":273443,"DIS_CODE":0,"TOWNNAME":"玉井區","LI":"沙田里","LIN":"3鄰","STREET":" ","SECT":" ","MAREA":"沙田","LANE":" ","ALLEY":" ","HOUSE_NO":"２２號之５","E_COORD97":196430.95000000001,"N_COORD97":2556965.29,"ADDRESS":"沙田２２號之５","OBJECTID":273438},"geometry":{"x":196430.95000000112,"y":2556965.2899999991}},{"attributes":{"ID":273444,"DIS_CODE":0,"TOWNNAME":"永康區","LI":"烏竹里","LIN":"7鄰","STREET":"龍橋街","SECT":" ","MAREA":" ","LANE":"４５９巷","ALLEY":" ","HOUSE_NO":"１５號","E_COORD97":174320.64999999999,"N_COORD97":2549303.8999999999,"ADDRESS":"龍橋街４５９巷１５號","OBJECTID":273439},"geometry":{"x":174320.6500000013,"y":2549303.8999999985}},{"attributes":{"ID":273445,"DIS_CODE":0,"TOWNNAME":"永康區","LI":"烏竹里","LIN":"7鄰","STREET":"龍橋街","SECT":" ","MAREA":" ","LANE":"４５９巷","ALLEY":" ","HOUSE_NO":"２３號","E_COORD97":174304.35000000001,"N_COORD97":2549297.6499999999,"ADDRESS":"龍橋街４５９巷２３號","OBJECTID":273440},"geometry":{"x":174304.34999999963,"y":2549297.6500000004}},{"attributes":{"ID":273446,"DIS_CODE":0,"TOWNNAME":"玉井區","LI":"望明里","LIN":"3鄰","STREET":" ","SECT":" ","MAREA":"望明","LANE":" ","ALLEY":" ","HOUSE_NO":"３７號","E_COORD97":194427.04000000001,"N_COORD97":2556018.2400000002,"ADDRESS":"望明３７號","OBJECTID":273441},"geometry":{"x":194427.04000000004,"y":2556018.2400000039}},{"attributes":{"ID":273447,"DIS_CODE":0,"TOWNNAME":"楠西區","LI":"照興里","LIN":"3鄰","STREET":" ","SECT":" ","MAREA":"興北","LANE":" ","ALLEY":" ","HOUSE_NO":"２７號","E_COORD97":197153.97,"N_COORD97":2567655.25,"ADDRESS":"興北２７號","OBJECTID":273442},"geometry":{"x":197153.97000000067,"y":2567655.25}},{"attributes":{"ID":273448,"DIS_CODE":0,"TOWNNAME":"永康區","LI":"烏竹里","LIN":"7鄰","STREET":"龍橋街","SECT":" ","MAREA":" ","LANE":"４５９巷","ALLEY":" ","HOUSE_NO":"２５號","E_COORD97":174300.35000000001,"N_COORD97":2549295.6499999999,"ADDRESS":"龍橋街４５９巷２５號","OBJECTID":273443},"geometry":{"x":174300.35000000056,"y":2549295.6500000041}},{"attributes":{"ID":273449,"DIS_CODE":0,"TOWNNAME":"永康區","LI":"烏竹里","LIN":"7鄰","STREET":"龍橋街","SECT":" ","MAREA":" ","LANE":"４５９巷","ALLEY":" ","HOUSE_NO":"２８號","E_COORD97":174296.25,"N_COORD97":2549314.5800000001,"ADDRESS":"龍橋街４５９巷２８號","OBJECTID":273444},"geometry":{"x":174296.25000000093,"y":2549314.5800000001}},{"attributes":{"ID":273450,"DIS_CODE":0,"TOWNNAME":"永康區","LI":"烏竹里","LIN":"7鄰","STREET":"龍橋街","SECT":" ","MAREA":" ","LANE":"４５９巷","ALLEY":" ","HOUSE_NO":"１０號之３","E_COORD97":174341.31,"N_COORD97":2549328.6699999999,"ADDRESS":"龍橋街４５９巷１０號之３","OBJECTID":273445},"geometry":{"x":174341.31000000052,"y":2549328.6699999999}},{"attributes":{"ID":273451,"DIS_CODE":0,"TOWNNAME":"安南區","LI":"州北里","LIN":"7鄰","STREET":"安和路","SECT":"五段","MAREA":" ","LANE":"３３６巷","ALLEY":" ","HOUSE_NO":"１７號","E_COORD97":169731.88,"N_COORD97":2552229.7999999998,"ADDRESS":"安和路五段３３６巷１７號","OBJECTID":273446},"geometry":{"x":169731.88000000082,"y":2552229.8000000007}},{"attributes":{"ID":273452,"DIS_CODE":0,"TOWNNAME":"南區","LI":"明亮里","LIN":"7鄰","STREET":"新都路","SECT":" ","MAREA":" ","LANE":"５０６巷","ALLEY":" ","HOUSE_NO":"１５號","E_COORD97":167155.59,"N_COORD97":2540935.3300000001,"ADDRESS":"新都路５０６巷１５號","OBJECTID":273447},"geometry":{"x":167155.58999999985,"y":2540935.3300000001}},{"attributes":{"ID":273453,"DIS_CODE":0,"TOWNNAME":"南區","LI":"明亮里","LIN":"7鄰","STREET":"新都路","SECT":" ","MAREA":" ","LANE":"５０６巷","ALLEY":" ","HOUSE_NO":"１６號","E_COORD97":167179.23000000001,"N_COORD97":2540933.96,"ADDRESS":"新都路５０６巷１６號","OBJECTID":273448},"geometry":{"x":167179.23000000045,"y":2540933.9600000028}},{"attributes":{"ID":273454,"DIS_CODE":0,"TOWNNAME":"南區","LI":"明亮里","LIN":"7鄰","STREET":"新都路","SECT":" ","MAREA":" ","LANE":"５０６巷","ALLEY":" ","HOUSE_NO":"１７號","E_COORD97":167157.09,"N_COORD97":2540940.21,"ADDRESS":"新都路５０６巷１７號","OBJECTID":273449},"geometry":{"x":167157.09000000078,"y":2540940.2100000028}},{"attributes":{"ID":273455,"DIS_CODE":0,"TOWNNAME":"東區","LI":"莊敬里","LIN":"7鄰","STREET":"東光路","SECT":"二段","MAREA":" ","LANE":"１０９巷","ALLEY":" ","HOUSE_NO":"４２號","E_COORD97":171130.07000000001,"N_COORD97":2544189.9100000001,"ADDRESS":"東光路二段１０９巷４２號","OBJECTID":273450},"geometry":{"x":171130.0700000003,"y":2544189.9100000001}},{"attributes":{"ID":273456,"DIS_CODE":0,"TOWNNAME":"東區","LI":"莊敬里","LIN":"7鄰","STREET":"東光路","SECT":"二段","MAREA":" ","LANE":"１０９巷","ALLEY":" ","HOUSE_NO":"４４號","E_COORD97":171126.04999999999,"N_COORD97":2544191.7999999998,"ADDRESS":"東光路二段１０９巷４４號","OBJECTID":273451},"geometry":{"x":171126.04999999981,"y":2544191.8000000007}},{"attributes":{"ID":273457,"DIS_CODE":0,"TOWNNAME":"東區","LI":"莊敬里","LIN":"7鄰","STREET":"東光路","SECT":"二段","MAREA":" ","LANE":"１０９巷","ALLEY":" ","HOUSE_NO":"４６號","E_COORD97":171122.16,"N_COORD97":2544190.1099999999,"ADDRESS":"東光路二段１０９巷４６號","OBJECTID":273452},"geometry":{"x":171122.16000000108,"y":2544190.1100000013}},{"attributes":{"ID":273458,"DIS_CODE":0,"TOWNNAME":"東區","LI":"莊敬里","LIN":"7鄰","STREET":"東光路","SECT":"二段","MAREA":" ","LANE":"１０９巷","ALLEY":" ","HOUSE_NO":"４８號","E_COORD97":171115.06,"N_COORD97":2544190.6000000001,"ADDRESS":"東光路二段１０９巷４８號","OBJECTID":273453},"geometry":{"x":171115.06000000052,"y":2544190.6000000015}},{"attributes":{"ID":273459,"DIS_CODE":0,"TOWNNAME":"東區","LI":"莊敬里","LIN":"7鄰","STREET":"東光路","SECT":"二段","MAREA":" ","LANE":"１２１巷","ALLEY":" ","HOUSE_NO":"１號","E_COORD97":171206.14000000001,"N_COORD97":2544246.5499999998,"ADDRESS":"東光路二段１２１巷１號","OBJECTID":273454},"geometry":{"x":171206.1400000006,"y":2544246.5500000026}},{"attributes":{"ID":273460,"DIS_CODE":0,"TOWNNAME":"白河區","LI":"永安里","LIN":"15鄰","STREET":"三民路","SECT":" ","MAREA":" ","LANE":" ","ALLEY":" ","HOUSE_NO":"５０３號","E_COORD97":189782.64000000001,"N_COORD97":2583479.6600000001,"ADDRESS":"三民路５０３號","OBJECTID":273455},"geometry":{"x":189782.63999999966,"y":2583479.6600000001}},{"attributes":{"ID":273461,"DIS_CODE":0,"TOWNNAME":"白河區","LI":"永安里","LIN":"15鄰","STREET":"三民路","SECT":" ","MAREA":" ","LANE":" ","ALLEY":" ","HOUSE_NO":"５４６號","E_COORD97":189707.17000000001,"N_COORD97":2583558.2400000002,"ADDRESS":"三民路５４６號","OBJECTID":273456},"geometry":{"x":189707.17000000179,"y":2583558.2400000039}},{"attributes":{"ID":273462,"DIS_CODE":0,"TOWNNAME":"楠西區","LI":"楠西里","LIN":"3鄰","STREET":"民族路","SECT":" ","MAREA":" ","LANE":" ","ALLEY":" ","HOUSE_NO":"１５８號","E_COORD97":197081.09,"N_COORD97":2564414.29,"ADDRESS":"民族路１５８號","OBJECTID":273457},"geometry":{"x":197081.08999999985,"y":2564414.2899999972}},{"attributes":{"ID":273463,"DIS_CODE":0,"TOWNNAME":"楠西區","LI":"東勢里","LIN":"3鄰","STREET":"民權路","SECT":" ","MAREA":" ","LANE":" ","ALLEY":" ","HOUSE_NO":"６２號","E_COORD97":197393.14000000001,"N_COORD97":2564249.29,"ADDRESS":"民權路６２號","OBJECTID":273458},"geometry":{"x":197393.1400000006,"y":2564249.290000001}},{"attributes":{"ID":273464,"DIS_CODE":0,"TOWNNAME":"楠西區","LI":"東勢里","LIN":"3鄰","STREET":"民權路","SECT":" ","MAREA":" ","LANE":" ","ALLEY":" ","HOUSE_NO":"６５號","E_COORD97":197397.84,"N_COORD97":2564265.29,"ADDRESS":"民權路６５號","OBJECTID":273459},"geometry":{"x":197397.83999999985,"y":2564265.2900000028}},{"attributes":{"ID":273465,"DIS_CODE":0,"TOWNNAME":"新營區","LI":"民榮里","LIN":"3鄰","STREET":"新進路","SECT":"二段","MAREA":" ","LANE":" ","ALLEY":" ","HOUSE_NO":"４６６號","E_COORD97":178694.10000000001,"N_COORD97":2577964.3100000001,"ADDRESS":"新進路二段４６６號","OBJECTID":273460},"geometry":{"x":178694.10000000056,"y":2577964.3100000024}},{"attributes":{"ID":273466,"DIS_CODE":0,"TOWNNAME":"新營區","LI":"新北里","LIN":"3鄰","STREET":"周武街","SECT":" ","MAREA":" ","LANE":" ","ALLEY":" ","HOUSE_NO":"７４號","E_COORD97":179375.95000000001,"N_COORD97":2579006.48,"ADDRESS":"周武街７４號","OBJECTID":273461},"geometry":{"x":179375.95000000019,"y":2579006.4800000004}},{"attributes":{"ID":273467,"DIS_CODE":0,"TOWNNAME":"新營區","LI":"埤寮里","LIN":"3鄰","STREET":"建國路","SECT":" ","MAREA":" ","LANE":" ","ALLEY":" ","HOUSE_NO":"２８之２號","E_COORD97":180027.63,"N_COORD97":2581095.4199999999,"ADDRESS":"建國路２８之２號","OBJECTID":273462},"geometry":{"x":180027.62999999989,"y":2581095.4200000018}},{"attributes":{"ID":273468,"DIS_CODE":0,"TOWNNAME":"新營區","LI":"民權里","LIN":"3鄰","STREET":"信義街","SECT":" ","MAREA":" ","LANE":" ","ALLEY":" ","HOUSE_NO":"１４號","E_COORD97":179957.01999999999,"N_COORD97":2578169.7999999998,"ADDRESS":"信義街１４號","OBJECTID":273463},"geometry":{"x":179957.02000000142,"y":2578169.8000000007}},{"attributes":{"ID":273469,"DIS_CODE":0,"TOWNNAME":"新營區","LI":"埤寮里","LIN":"1鄰","STREET":"許丑","SECT":" ","MAREA":" ","LANE":" ","ALLEY":" ","HOUSE_NO":"１號","E_COORD97":180071.508844,"N_COORD97":2580984.49768,"ADDRESS":"許丑１號","OBJECTID":273464},"geometry":{"x":180071.50884400029,"y":2580984.4976780023}},{"attributes":{"ID":273470,"DIS_CODE":0,"TOWNNAME":"東區","LI":"莊敬里","LIN":"7鄰","STREET":"東光路","SECT":"二段","MAREA":" ","LANE":"１２１巷","ALLEY":" ","HOUSE_NO":"３號","E_COORD97":171199.45000000001,"N_COORD97":2544246.1499999999,"ADDRESS":"東光路二段１２１巷３號","OBJECTID":273465},"geometry":{"x":171199.45000000112,"y":2544246.1500000004}},{"attributes":{"ID":273471,"DIS_CODE":0,"TOWNNAME":"東區","LI":"莊敬里","LIN":"7鄰","STREET":"東光路","SECT":"二段","MAREA":" ","LANE":"１２１巷","ALLEY":" ","HOUSE_NO":"５號","E_COORD97":171191.54999999999,"N_COORD97":2544246.0499999998,"ADDRESS":"東光路二段１２１巷５號","OBJECTID":273466},"geometry":{"x":171191.55000000075,"y":2544246.0500000026}},{"attributes":{"ID":273472,"DIS_CODE":0,"TOWNNAME":"東區","LI":"莊敬里","LIN":"7鄰","STREET":"東光路","SECT":"二段","MAREA":" ","LANE":"１２１巷","ALLEY":" ","HOUSE_NO":"７號","E_COORD97":171182.94,"N_COORD97":2544245.7799999998,"ADDRESS":"東光路二段１２１巷７號","OBJECTID":273467},"geometry":{"x":171182.94000000134,"y":2544245.7800000012}},{"attributes":{"ID":273473,"DIS_CODE":0,"TOWNNAME":"東區","LI":"莊敬里","LIN":"7鄰","STREET":"東光路","SECT":"二段","MAREA":" ","LANE":"１２１巷","ALLEY":" ","HOUSE_NO":"９號","E_COORD97":171179.94,"N_COORD97":2544242.7799999998,"ADDRESS":"東光路二段１２１巷９號","OBJECTID":273468},"geometry":{"x":171179.94000000041,"y":2544242.7800000012}},{"attributes":{"ID":273474,"DIS_CODE":0,"TOWNNAME":"東區","LI":"莊敬里","LIN":"7鄰","STREET":"東光路","SECT":"二段","MAREA":" ","LANE":"１２１巷","ALLEY":" ","HOUSE_NO":"１１號","E_COORD97":171177.54999999999,"N_COORD97":2544239.9900000002,"ADDRESS":"東光路二段１２１巷１１號","OBJECTID":273469},"geometry":{"x":171177.54999999888,"y":2544239.9900000002}},{"attributes":{"ID":273475,"DIS_CODE":0,"TOWNNAME":"東區","LI":"莊敬里","LIN":"7鄰","STREET":"東光路","SECT":"二段","MAREA":" ","LANE":"１２１巷","ALLEY":" ","HOUSE_NO":"１５號","E_COORD97":171171.92000000001,"N_COORD97":2544234.4500000002,"ADDRESS":"東光路二段１２１巷１５號","OBJECTID":273470},"geometry":{"x":171171.92000000179,"y":2544234.4500000011}},{"attributes":{"ID":273476,"DIS_CODE":0,"TOWNNAME":"東區","LI":"莊敬里","LIN":"7鄰","STREET":"東光路","SECT":"二段","MAREA":" ","LANE":"１２１巷","ALLEY":" ","HOUSE_NO":"１７號","E_COORD97":171169.22,"N_COORD97":2544231.0600000001,"ADDRESS":"東光路二段１２１巷１７號","OBJECTID":273471},"geometry":{"x":171169.21999999974,"y":2544231.0599999987}},{"attributes":{"ID":273477,"DIS_CODE":0,"TOWNNAME":"新營區","LI":"埤寮里","LIN":"3鄰","STREET":"建國路","SECT":" ","MAREA":" ","LANE":" ","ALLEY":" ","HOUSE_NO":"５４號","E_COORD97":179909.51000000001,"N_COORD97":2581092.6000000001,"ADDRESS":"建國路５４號","OBJECTID":273472},"geometry":{"x":179909.50999999978,"y":2581092.5999999996}},{"attributes":{"ID":273478,"DIS_CODE":0,"TOWNNAME":"新營區","LI":"太南里","LIN":"3鄰","STREET":" ","SECT":" ","MAREA":"太子宮","LANE":" ","ALLEY":" ","HOUSE_NO":"１８４號","E_COORD97":176219.89000000001,"N_COORD97":2576993.0099999998,"ADDRESS":"太子宮１８４號","OBJECTID":273473},"geometry":{"x":176219.88999999966,"y":2576993.0100000016}},{"attributes":{"ID":273479,"DIS_CODE":0,"TOWNNAME":"新營區","LI":"中營里","LIN":"3鄰","STREET":"文昌街","SECT":" ","MAREA":" ","LANE":" ","ALLEY":" ","HOUSE_NO":"１號","E_COORD97":180600.32999999999,"N_COORD97":2578418.1699999999,"ADDRESS":"文昌街１號","OBJECTID":273474},"geometry":{"x":180600.33000000101,"y":2578418.1699999981}},{"attributes":{"ID":273480,"DIS_CODE":0,"TOWNNAME":"新營區","LI":"三仙里","LIN":"3鄰","STREET":"博愛街","SECT":" ","MAREA":" ","LANE":" ","ALLEY":" ","HOUSE_NO":"１１７號","E_COORD97":179691.07000000001,"N_COORD97":2578122.3500000001,"ADDRESS":"博愛街１１７號","OBJECTID":273475},"geometry":{"x":179691.0700000003,"y":2578122.3500000015}},{"attributes":{"ID":273481,"DIS_CODE":0,"TOWNNAME":"新營區","LI":"護鎮里","LIN":"3鄰","STREET":"建國路","SECT":" ","MAREA":" ","LANE":" ","ALLEY":" ","HOUSE_NO":"２９８號","E_COORD97":179234.53,"N_COORD97":2581034.9100000001,"ADDRESS":"建國路２９８號","OBJECTID":273476},"geometry":{"x":179234.53000000119,"y":2581034.910000002}},{"attributes":{"ID":273482,"DIS_CODE":0,"TOWNNAME":"東區","LI":"莊敬里","LIN":"7鄰","STREET":"東光路","SECT":"二段","MAREA":" ","LANE":"１２１巷","ALLEY":" ","HOUSE_NO":"１９號","E_COORD97":171165.92999999999,"N_COORD97":2544228.2599999998,"ADDRESS":"東光路二段１２１巷１９號","OBJECTID":273477},"geometry":{"x":171165.9299999997,"y":2544228.2599999998}},{"attributes":{"ID":273483,"DIS_CODE":0,"TOWNNAME":"東區","LI":"裕農里","LIN":"7鄰","STREET":"裕農路","SECT":" ","MAREA":" ","LANE":"３４５巷","ALLEY":" ","HOUSE_NO":"２０號","E_COORD97":170991.5,"N_COORD97":2543122.2999999998,"ADDRESS":"裕農路３４５巷２０號","OBJECTID":273478},"geometry":{"x":170991.5,"y":2543122.3000000026}},{"attributes":{"ID":273484,"DIS_CODE":0,"TOWNNAME":"新市區","LI":"新市里","LIN":"7鄰","STREET":"中正路","SECT":" ","MAREA":" ","LANE":"２６８巷","ALLEY":" ","HOUSE_NO":"９號","E_COORD97":177503.23999999999,"N_COORD97":2553037,"ADDRESS":"中正路２６８巷９號","OBJECTID":273479},"geometry":{"x":177503.24000000209,"y":2553037.0000000019}},{"attributes":{"ID":273485,"DIS_CODE":0,"TOWNNAME":"新營區","LI":"好平里","LIN":"3鄰","STREET":"新進路","SECT":"二段","MAREA":" ","LANE":" ","ALLEY":" ","HOUSE_NO":"８６號","E_COORD97":179541.84,"N_COORD97":2577747.6200000001,"ADDRESS":"新進路二段８６號","OBJECTID":273480},"geometry":{"x":179541.84000000078,"y":2577747.620000001}},{"attributes":{"ID":273486,"DIS_CODE":0,"TOWNNAME":"中西區","LI":"仙草里","LIN":"7鄰","STREET":"永福路","SECT":"一段","MAREA":" ","LANE":"６１巷","ALLEY":" ","HOUSE_NO":"１８號","E_COORD97":167956.14999999999,"N_COORD97":2542660.5600000001,"ADDRESS":"永福路一段６１巷１８號","OBJECTID":273481},"geometry":{"x":167956.15000000037,"y":2542660.5600000005}},{"attributes":{"ID":273487,"DIS_CODE":0,"TOWNNAME":"中西區","LI":"仙草里","LIN":"7鄰","STREET":"永福路","SECT":"一段","MAREA":" ","LANE":"６１巷","ALLEY":" ","HOUSE_NO":"１號","E_COORD97":167961,"N_COORD97":2542633.0499999998,"ADDRESS":"永福路一段６１巷１號","OBJECTID":273482},"geometry":{"x":167961.00000000093,"y":2542633.0500000007}},{"attributes":{"ID":273488,"DIS_CODE":0,"TOWNNAME":"南區","LI":"文南里","LIN":"3鄰","STREET":"長南街","SECT":" ","MAREA":" ","LANE":" ","ALLEY":" ","HOUSE_NO":"４號","E_COORD97":167075.76000000001,"N_COORD97":2542620.4700000002,"ADDRESS":"長南街４號","OBJECTID":273483},"geometry":{"x":167075.76000000071,"y":2542620.4700000007}},{"attributes":{"ID":273489,"DIS_CODE":0,"TOWNNAME":"安平區","LI":"華平里","LIN":"3鄰","STREET":"育平九街","SECT":" ","MAREA":" ","LANE":" ","ALLEY":" ","HOUSE_NO":"５０號","E_COORD97":165270.16840900001,"N_COORD97":2543978.0329300002,"ADDRESS":"育平九街５０號","OBJECTID":273484},"geometry":{"x":165270.16840900015,"y":2543978.032926999}},{"attributes":{"ID":273490,"DIS_CODE":0,"TOWNNAME":"中西區","LI":"法華里","LIN":"7鄰","STREET":"健康路","SECT":"一段","MAREA":" ","LANE":"５０巷","ALLEY":" ","HOUSE_NO":"１３號","E_COORD97":169017.48000000001,"N_COORD97":2542473.3599999999,"ADDRESS":"健康路一段５０巷１３號","OBJECTID":273485},"geometry":{"x":169017.48000000231,"y":2542473.3600000013}},{"attributes":{"ID":273491,"DIS_CODE":0,"TOWNNAME":"中西區","LI":"法華里","LIN":"7鄰","STREET":"健康路","SECT":"一段","MAREA":" ","LANE":"５０巷","ALLEY":" ","HOUSE_NO":"１５號","E_COORD97":169013.76999999999,"N_COORD97":2542470.1200000001,"ADDRESS":"健康路一段５０巷１５號","OBJECTID":273486},"geometry":{"x":169013.76999999955,"y":2542470.120000001}},{"attributes":{"ID":273492,"DIS_CODE":0,"TOWNNAME":"安南區","LI":"海西里","LIN":"7鄰","STREET":"海中街","SECT":" ","MAREA":" ","LANE":"１０１巷","ALLEY":" ","HOUSE_NO":"２７號","E_COORD97":166336.87,"N_COORD97":2548962.3399999999,"ADDRESS":"海中街１０１巷２７號","OBJECTID":273487},"geometry":{"x":166336.87000000104,"y":2548962.3400000017}},{"attributes":{"ID":273493,"DIS_CODE":0,"TOWNNAME":"安南區","LI":"海西里","LIN":"7鄰","STREET":"海中街","SECT":" ","MAREA":" ","LANE":"１０１巷","ALLEY":" ","HOUSE_NO":"２８號","E_COORD97":166323.04999999999,"N_COORD97":2548989.5299999998,"ADDRESS":"海中街１０１巷２８號","OBJECTID":273488},"geometry":{"x":166323.05000000075,"y":2548989.5299999993}},{"attributes":{"ID":273494,"DIS_CODE":0,"TOWNNAME":"安平區","LI":"華平里","LIN":"3鄰","STREET":"育平九街","SECT":" ","MAREA":" ","LANE":" ","ALLEY":" ","HOUSE_NO":"５２號","E_COORD97":165260.84447800001,"N_COORD97":2543979.3029299998,"ADDRESS":"育平九街５２號","OBJECTID":273489},"geometry":{"x":165260.84447799902,"y":2543979.3029270023}},{"attributes":{"ID":273495,"DIS_CODE":0,"TOWNNAME":"安平區","LI":"金城里","LIN":"3鄰","STREET":"運河路","SECT":" ","MAREA":" ","LANE":" ","ALLEY":" ","HOUSE_NO":"４３號","E_COORD97":163964.76000000001,"N_COORD97":2544351.3100000001,"ADDRESS":"運河路４３號","OBJECTID":273490},"geometry":{"x":163964.75999999885,"y":2544351.3099999987}},{"attributes":{"ID":273496,"DIS_CODE":0,"TOWNNAME":"安平區","LI":"金城里","LIN":"3鄰","STREET":"運河路","SECT":" ","MAREA":" ","LANE":" ","ALLEY":" ","HOUSE_NO":"４５號","E_COORD97":163960.89999999999,"N_COORD97":2544335.79,"ADDRESS":"運河路４５號","OBJECTID":273491},"geometry":{"x":163960.90000000037,"y":2544335.7899999991}},{"attributes":{"ID":273497,"DIS_CODE":0,"TOWNNAME":"南區","LI":"省躬里","LIN":"3鄰","STREET":"灣裡路","SECT":" ","MAREA":" ","LANE":" ","ALLEY":" ","HOUSE_NO":"１２８號","E_COORD97":166005.06,"N_COORD97":2536771.7999999998,"ADDRESS":"灣裡路１２８號","OBJECTID":273492},"geometry":{"x":166005.05999999959,"y":2536771.8000000026}},{"attributes":{"ID":273498,"DIS_CODE":0,"TOWNNAME":"安南區","LI":"海西里","LIN":"7鄰","STREET":"海中街","SECT":" ","MAREA":" ","LANE":"７７巷","ALLEY":" ","HOUSE_NO":"４２號","E_COORD97":166302.94,"N_COORD97":2548915.5,"ADDRESS":"海中街７７巷４２號","OBJECTID":273493},"geometry":{"x":166302.94000000041,"y":2548915.5}},{"attributes":{"ID":273499,"DIS_CODE":0,"TOWNNAME":"安南區","LI":"海西里","LIN":"7鄰","STREET":"海中街","SECT":" ","MAREA":" ","LANE":"７７巷","ALLEY":" ","HOUSE_NO":"４６號","E_COORD97":166301.26000000001,"N_COORD97":2548902.9500000002,"ADDRESS":"海中街７７巷４６號","OBJECTID":273494},"geometry":{"x":166301.26000000071,"y":2548902.9500000011}},{"attributes":{"ID":273500,"DIS_CODE":0,"TOWNNAME":"安南區","LI":"海東里","LIN":"7鄰","STREET":"海佃路","SECT":"二段","MAREA":" ","LANE":"４８３巷","ALLEY":" ","HOUSE_NO":"９４號","E_COORD97":166430.28,"N_COORD97":2549035.52,"ADDRESS":"海佃路二段４８３巷９４號","OBJECTID":273495},"geometry":{"x":166430.28000000119,"y":2549035.5200000014}},{"attributes":{"ID":273501,"DIS_CODE":0,"TOWNNAME":"南區","LI":"喜東里","LIN":"7鄰","STREET":"喜樹路","SECT":" ","MAREA":" ","LANE":"１５１巷","ALLEY":" ","HOUSE_NO":"２１號","E_COORD97":165876.01000000001,"N_COORD97":2537995.02,"ADDRESS":"喜樹路１５１巷２１號","OBJECTID":273496},"geometry":{"x":165876.01000000071,"y":2537995.0199999996}},{"attributes":{"ID":273502,"DIS_CODE":0,"TOWNNAME":"南區","LI":"喜東里","LIN":"7鄰","STREET":"喜樹路","SECT":" ","MAREA":" ","LANE":"１５１巷","ALLEY":" ","HOUSE_NO":"２３號","E_COORD97":165880.73999999999,"N_COORD97":2537994.9100000001,"ADDRESS":"喜樹路１５１巷２３號","OBJECTID":273497},"geometry":{"x":165880.74000000022,"y":2537994.910000002}},{"attributes":{"ID":273503,"DIS_CODE":0,"TOWNNAME":"南區","LI":"喜東里","LIN":"7鄰","STREET":"喜樹路","SECT":" ","MAREA":" ","LANE":"１５１巷","ALLEY":" ","HOUSE_NO":"２５號","E_COORD97":165884.54999999999,"N_COORD97":2537994.8100000001,"ADDRESS":"喜樹路１５１巷２５號","OBJECTID":273498},"geometry":{"x":165884.54999999981,"y":2537994.8100000042}},{"attributes":{"ID":273504,"DIS_CODE":0,"TOWNNAME":"南區","LI":"喜東里","LIN":"7鄰","STREET":"喜樹路","SECT":" ","MAREA":" ","LANE":"１５１巷","ALLEY":" ","HOUSE_NO":"２７號","E_COORD97":165888.76000000001,"N_COORD97":2537994.71,"ADDRESS":"喜樹路１５１巷２７號","OBJECTID":273499},"geometry":{"x":165888.75999999885,"y":2537994.7100000009}},{"attributes":{"ID":273505,"DIS_CODE":0,"TOWNNAME":"南區","LI":"喜東里","LIN":"7鄰","STREET":"喜樹路","SECT":" ","MAREA":" ","LANE":"１５１巷","ALLEY":" ","HOUSE_NO":"２９號","E_COORD97":165893.19,"N_COORD97":2537994.71,"ADDRESS":"喜樹路１５１巷２９號","OBJECTID":273500},"geometry":{"x":165893.19000000041,"y":2537994.7100000009}},{"attributes":{"ID":273506,"DIS_CODE":0,"TOWNNAME":"南區","LI":"喜東里","LIN":"7鄰","STREET":"喜樹路","SECT":" ","MAREA":" ","LANE":"１５１巷","ALLEY":" ","HOUSE_NO":"３１號","E_COORD97":165896.89000000001,"N_COORD97":2537983,"ADDRESS":"喜樹路１５１巷３１號","OBJECTID":273501},"geometry":{"x":165896.8900000006,"y":2537983.0000000019}},{"attributes":{"ID":273507,"DIS_CODE":0,"TOWNNAME":"南區","LI":"文南里","LIN":"3鄰","STREET":"金華路","SECT":"二段","MAREA":" ","LANE":" ","ALLEY":" ","HOUSE_NO":"２２９號","E_COORD97":167099.92999999999,"N_COORD97":2542626.9300000002,"ADDRESS":"金華路二段２２９號","OBJECTID":273502},"geometry":{"x":167099.93000000063,"y":2542626.9299999997}},{"attributes":{"ID":273508,"DIS_CODE":0,"TOWNNAME":"六甲區","LI":"中社里","LIN":"3鄰","STREET":" ","SECT":" ","MAREA":"中社","LANE":" ","ALLEY":" ","HOUSE_NO":"３１號","E_COORD97":181249.44,"N_COORD97":2570618.6299999999,"ADDRESS":"中社３１號","OBJECTID":273503},"geometry":{"x":181249.44000000041,"y":2570618.629999999}},{"attributes":{"ID":273509,"DIS_CODE":0,"TOWNNAME":"新營區","LI":"護鎮里","LIN":"3鄰","STREET":" ","SECT":" ","MAREA":"後鎮","LANE":" ","ALLEY":" ","HOUSE_NO":"３１號","E_COORD97":179225.26000000001,"N_COORD97":2581063.7400000002,"ADDRESS":"後鎮３１號","OBJECTID":273504},"geometry":{"x":179225.26000000071,"y":2581063.7400000021}},{"attributes":{"ID":273510,"DIS_CODE":0,"TOWNNAME":"新營區","LI":"五興里","LIN":"3鄰","STREET":" ","SECT":" ","MAREA":"五間厝","LANE":" ","ALLEY":" ","HOUSE_NO":"３２號","E_COORD97":175750.14999999999,"N_COORD97":2574937.6899999999,"ADDRESS":"五間厝３２號","OBJECTID":273505},"geometry":{"x":175750.1500000013,"y":2574937.6899999995}},{"attributes":{"ID":273511,"DIS_CODE":0,"TOWNNAME":"新營區","LI":"角帶里","LIN":"3鄰","STREET":" ","SECT":" ","MAREA":"角帶圍","LANE":" ","ALLEY":" ","HOUSE_NO":"３７號","E_COORD97":174832,"N_COORD97":2575864.8300000001,"ADDRESS":"角帶圍３７號","OBJECTID":273506},"geometry":{"x":174832.00000000093,"y":2575864.8300000019}},{"attributes":{"ID":273512,"DIS_CODE":0,"TOWNNAME":"北區","LI":"五福里","LIN":"3鄰","STREET":"西門路","SECT":"三段","MAREA":" ","LANE":" ","ALLEY":" ","HOUSE_NO":"１３４號","E_COORD97":168308.98000000001,"N_COORD97":2544716.5299999998,"ADDRESS":"西門路三段１３４號","OBJECTID":273507},"geometry":{"x":168308.98000000138,"y":2544716.5300000012}},{"attributes":{"ID":273513,"DIS_CODE":0,"TOWNNAME":"北區","LI":"五福里","LIN":"3鄰","STREET":"西門路","SECT":"三段","MAREA":" ","LANE":" ","ALLEY":" ","HOUSE_NO":"１３４號地下一層","E_COORD97":168308.98000000001,"N_COORD97":2544716.5299999998,"ADDRESS":"西門路三段１３４號地下一層","OBJECTID":273508},"geometry":{"x":168308.98000000138,"y":2544716.5300000012}},{"attributes":{"ID":273514,"DIS_CODE":0,"TOWNNAME":"南區","LI":"喜東里","LIN":"7鄰","STREET":"喜樹路","SECT":" ","MAREA":" ","LANE":"１５１巷","ALLEY":" ","HOUSE_NO":"３３號","E_COORD97":165901.20999999999,"N_COORD97":2537983,"ADDRESS":"喜樹路１５１巷３３號","OBJECTID":273509},"geometry":{"x":165901.20999999903,"y":2537983.0000000019}},{"attributes":{"ID":273515,"DIS_CODE":0,"TOWNNAME":"新營區","LI":"土庫里","LIN":"3鄰","STREET":" ","SECT":" ","MAREA":"土庫","LANE":" ","ALLEY":" ","HOUSE_NO":"２８號","E_COORD97":183205.44,"N_COORD97":2579915.6400000001,"ADDRESS":"土庫２８號","OBJECTID":273510},"geometry":{"x":183205.44000000134,"y":2579915.6400000025}},{"attributes":{"ID":273516,"DIS_CODE":0,"TOWNNAME":"南區","LI":"喜東里","LIN":"7鄰","STREET":"喜樹路","SECT":" ","MAREA":" ","LANE":"１５１巷","ALLEY":" ","HOUSE_NO":"３５號","E_COORD97":165905.63,"N_COORD97":2537983,"ADDRESS":"喜樹路１５１巷３５號","OBJECTID":273511},"geometry":{"x":165905.63000000082,"y":2537983.0000000019}},{"attributes":{"ID":273517,"DIS_CODE":0,"TOWNNAME":"南區","LI":"喜東里","LIN":"7鄰","STREET":"喜樹路","SECT":" ","MAREA":" ","LANE":"１５１巷","ALLEY":" ","HOUSE_NO":"３７號","E_COORD97":165909.85000000001,"N_COORD97":2537983.2000000002,"ADDRESS":"喜樹路１５１巷３７號","OBJECTID":273512},"geometry":{"x":165909.84999999963,"y":2537983.1999999993}},{"attributes":{"ID":273518,"DIS_CODE":0,"TOWNNAME":"南區","LI":"喜東里","LIN":"7鄰","STREET":"喜樹路","SECT":" ","MAREA":" ","LANE":"１５１巷","ALLEY":" ","HOUSE_NO":"３９號","E_COORD97":165914.17000000001,"N_COORD97":2537983.3100000001,"ADDRESS":"喜樹路１５１巷３９號","OBJECTID":273513},"geometry":{"x":165914.17000000086,"y":2537983.3100000005}},{"attributes":{"ID":273519,"DIS_CODE":0,"TOWNNAME":"新營區","LI":"護鎮里","LIN":"3鄰","STREET":" ","SECT":" ","MAREA":"後鎮","LANE":" ","ALLEY":" ","HOUSE_NO":"２４號之１","E_COORD97":179286.20000000001,"N_COORD97":2581097.8399999999,"ADDRESS":"後鎮２４之１號","OBJECTID":273514},"geometry":{"x":179286.20000000019,"y":2581097.8399999999}},{"attributes":{"ID":273520,"DIS_CODE":0,"TOWNNAME":"永康區","LI":"烏竹里","LIN":"7鄰","STREET":"龍橋街","SECT":" ","MAREA":" ","LANE":"４５９巷","ALLEY":" ","HOUSE_NO":"３０號","E_COORD97":174291.64000000001,"N_COORD97":2549313.8300000001,"ADDRESS":"龍橋街４５９巷３０號","OBJECTID":273515},"geometry":{"x":174291.6400000006,"y":2549313.8300000001}},{"attributes":{"ID":273521,"DIS_CODE":0,"TOWNNAME":"永康區","LI":"烏竹里","LIN":"7鄰","STREET":"龍橋街","SECT":" ","MAREA":" ","LANE":"４５９巷","ALLEY":" ","HOUSE_NO":"１號","E_COORD97":174379.48000000001,"N_COORD97":2549329.2599999998,"ADDRESS":"龍橋街４５９巷１號","OBJECTID":273516},"geometry":{"x":174379.48000000138,"y":2549329.2600000016}},{"attributes":{"ID":273522,"DIS_CODE":0,"TOWNNAME":"北區","LI":"振興里","LIN":"3鄰","STREET":"開元路","SECT":" ","MAREA":" ","LANE":"１６６巷","ALLEY":" ","HOUSE_NO":"２０號","E_COORD97":170067.20999999999,"N_COORD97":2545223.6699999999,"ADDRESS":"開元路１６６巷２０號","OBJECTID":273517},"geometry":{"x":170067.21000000089,"y":2545223.6700000018}},{"attributes":{"ID":273523,"DIS_CODE":0,"TOWNNAME":"北區","LI":"大豐里","LIN":"3鄰","STREET":"武聖路","SECT":" ","MAREA":" ","LANE":" ","ALLEY":" ","HOUSE_NO":"１１２號","E_COORD97":167061.17000000001,"N_COORD97":2545204.5299999998,"ADDRESS":"武聖路１１２號","OBJECTID":273518},"geometry":{"x":167061.17000000179,"y":2545204.5300000012}},{"attributes":{"ID":273524,"DIS_CODE":0,"TOWNNAME":"新營區","LI":"新東里","LIN":"3鄰","STREET":"東大街","SECT":" ","MAREA":" ","LANE":" ","ALLEY":" ","HOUSE_NO":"２５號","E_COORD97":180994.57999999999,"N_COORD97":2579109.5899999999,"ADDRESS":"東大街２５號","OBJECTID":273519},"geometry":{"x":180994.58000000194,"y":2579109.5899999999}},{"attributes":{"ID":273525,"DIS_CODE":0,"TOWNNAME":"永康區","LI":"烏竹里","LIN":"7鄰","STREET":"龍橋街","SECT":" ","MAREA":" ","LANE":"４５９巷","ALLEY":" ","HOUSE_NO":"８之１０號","E_COORD97":174363.81,"N_COORD97":2549368.8999999999,"ADDRESS":"龍橋街４５９巷８之１０號","OBJECTID":273520},"geometry":{"x":174363.80999999959,"y":2549368.9000000022}},{"attributes":{"ID":273526,"DIS_CODE":0,"TOWNNAME":"玉井區","LI":"沙田里","LIN":"3鄰","STREET":" ","SECT":" ","MAREA":"沙田","LANE":" ","ALLEY":" ","HOUSE_NO":"２５之６０號","E_COORD97":197066.56,"N_COORD97":2558742.25,"ADDRESS":"沙田２５之６０號","OBJECTID":273521},"geometry":{"x":197066.56000000052,"y":2558742.25}},{"attributes":{"ID":273527,"DIS_CODE":0,"TOWNNAME":"永康區","LI":"烏竹里","LIN":"7鄰","STREET":"龍橋街","SECT":" ","MAREA":" ","LANE":"４５９巷","ALLEY":" ","HOUSE_NO":"８號","E_COORD97":174366.54999999999,"N_COORD97":2549338.5899999999,"ADDRESS":"龍橋街４５９巷８號","OBJECTID":273522},"geometry":{"x":174366.55000000075,"y":2549338.5899999999}},{"attributes":{"ID":273528,"DIS_CODE":0,"TOWNNAME":"永康區","LI":"烏竹里","LIN":"7鄰","STREET":"龍橋街","SECT":" ","MAREA":" ","LANE":"４５９巷","ALLEY":" ","HOUSE_NO":"８之３號","E_COORD97":174347.39999999999,"N_COORD97":2549351.5299999998,"ADDRESS":"龍橋街４５９巷８之３號","OBJECTID":273523},"geometry":{"x":174347.40000000037,"y":2549351.5299999993}},{"attributes":{"ID":273529,"DIS_CODE":0,"TOWNNAME":"永康區","LI":"烏竹里","LIN":"7鄰","STREET":"龍橋街","SECT":" ","MAREA":" ","LANE":"４５９巷","ALLEY":" ","HOUSE_NO":"１８號","E_COORD97":174317.10999999999,"N_COORD97":2549323.0800000001,"ADDRESS":"龍橋街４５９巷１８號","OBJECTID":273524},"geometry":{"x":174317.11000000034,"y":2549323.0800000038}},{"attributes":{"ID":273530,"DIS_CODE":0,"TOWNNAME":"安南區","LI":"南興里","LIN":"7鄰","STREET":"安興街","SECT":" ","MAREA":" ","LANE":"６２４巷","ALLEY":" ","HOUSE_NO":"３５號","E_COORD97":163594.59,"N_COORD97":2552434.48,"ADDRESS":"安興街６２４巷３５號","OBJECTID":273525},"geometry":{"x":163594.58999999985,"y":2552434.4800000023}},{"attributes":{"ID":273531,"DIS_CODE":0,"TOWNNAME":"安南區","LI":"南興里","LIN":"7鄰","STREET":"安興街","SECT":" ","MAREA":" ","LANE":"６２４巷","ALLEY":" ","HOUSE_NO":"４５號","E_COORD97":163632.67000000001,"N_COORD97":2552447.9399999999,"ADDRESS":"安興街６２４巷４５號","OBJECTID":273526},"geometry":{"x":163632.66999999993,"y":2552447.9399999995}},{"attributes":{"ID":273532,"DIS_CODE":0,"TOWNNAME":"安南區","LI":"南興里","LIN":"7鄰","STREET":"安興街","SECT":" ","MAREA":" ","LANE":"６２４巷","ALLEY":" ","HOUSE_NO":"２７號","E_COORD97":163558.10999999999,"N_COORD97":2552438.9399999999,"ADDRESS":"安興街６２４巷２７號","OBJECTID":273527},"geometry":{"x":163558.11000000127,"y":2552438.9400000032}},{"attributes":{"ID":273533,"DIS_CODE":0,"TOWNNAME":"安南區","LI":"城北里","LIN":"7鄰","STREET":"安中路","SECT":"六段","MAREA":" ","LANE":"５００巷","ALLEY":" ","HOUSE_NO":"１１號","E_COORD97":160984.28,"N_COORD97":2551375.46,"ADDRESS":"安中路六段５００巷１１號","OBJECTID":273528},"geometry":{"x":160984.28000000026,"y":2551375.4600000009}},{"attributes":{"ID":273534,"DIS_CODE":0,"TOWNNAME":"東區","LI":"關聖里","LIN":"7鄰","STREET":"裕農路","SECT":" ","MAREA":" ","LANE":"６６８巷","ALLEY":" ","HOUSE_NO":"４１號","E_COORD97":171759.89999999999,"N_COORD97":2543058.98,"ADDRESS":"裕農路６６８巷４１號","OBJECTID":273529},"geometry":{"x":171759.90000000037,"y":2543058.9800000023}},{"attributes":{"ID":273535,"DIS_CODE":0,"TOWNNAME":"仁德區","LI":"後壁里","LIN":"7鄰","STREET":"德善二街","SECT":" ","MAREA":" ","LANE":"５１巷","ALLEY":" ","HOUSE_NO":"１０號","E_COORD97":173633.48000000001,"N_COORD97":2539014.7599999998,"ADDRESS":"德善二街５１巷１０號","OBJECTID":273530},"geometry":{"x":173633.48000000231,"y":2539014.7600000035}},{"attributes":{"ID":273536,"DIS_CODE":0,"TOWNNAME":"仁德區","LI":"一甲里","LIN":"7鄰","STREET":"中正路","SECT":"三段","MAREA":" ","LANE":"１６２巷","ALLEY":" ","HOUSE_NO":"６５號","E_COORD97":173677.16,"N_COORD97":2541719.0600000001,"ADDRESS":"中正路三段１６２巷６５號","OBJECTID":273531},"geometry":{"x":173677.16000000015,"y":2541719.0600000042}},{"attributes":{"ID":273537,"DIS_CODE":0,"TOWNNAME":"仁德區","LI":"成功里","LIN":"7鄰","STREET":"保華路","SECT":" ","MAREA":" ","LANE":"１２９巷","ALLEY":" ","HOUSE_NO":"７３號","E_COORD97":171142.57000000001,"N_COORD97":2539831.9900000002,"ADDRESS":"保華路１２９巷７３號","OBJECTID":273532},"geometry":{"x":171142.57000000123,"y":2539831.9900000021}},{"attributes":{"ID":273538,"DIS_CODE":0,"TOWNNAME":"仁德區","LI":"一甲里","LIN":"7鄰","STREET":"中正路","SECT":"三段","MAREA":" ","LANE":"１６２巷","ALLEY":" ","HOUSE_NO":"２９號","E_COORD97":173582.79000000001,"N_COORD97":2541765.2799999998,"ADDRESS":"中正路三段１６２巷２９號","OBJECTID":273533},"geometry":{"x":173582.79000000004,"y":2541765.2800000012}},{"attributes":{"ID":273539,"DIS_CODE":0,"TOWNNAME":"麻豆區","LI":"安東里","LIN":"3鄰","STREET":" ","SECT":" ","MAREA":"安業","LANE":" ","ALLEY":" ","HOUSE_NO":"３４號","E_COORD97":173009.10999999999,"N_COORD97":2562888.4700000002,"ADDRESS":"安業３４號","OBJECTID":273534},"geometry":{"x":173009.11000000127,"y":2562888.4700000007}},{"attributes":{"ID":273540,"DIS_CODE":0,"TOWNNAME":"仁德區","LI":"上崙里","LIN":"7鄰","STREET":"德南路","SECT":" ","MAREA":" ","LANE":"３７３巷","ALLEY":" ","HOUSE_NO":"１３號","E_COORD97":173921.89999999999,"N_COORD97":2538325.27,"ADDRESS":"德南路３７３巷１３號","OBJECTID":273535},"geometry":{"x":173921.90000000037,"y":2538325.2699999996}},{"attributes":{"ID":273541,"DIS_CODE":0,"TOWNNAME":"南區","LI":"喜南里","LIN":"7鄰","STREET":"喜樹路","SECT":" ","MAREA":" ","LANE":"３４０巷","ALLEY":" ","HOUSE_NO":"３７號之１","E_COORD97":165535.09,"N_COORD97":2537657.5299999998,"ADDRESS":"喜樹路３４０巷３７號之１","OBJECTID":273536},"geometry":{"x":165535.08999999985,"y":2537657.5300000012}},{"attributes":{"ID":273542,"DIS_CODE":0,"TOWNNAME":"南區","LI":"喜南里","LIN":"7鄰","STREET":"喜樹路","SECT":" ","MAREA":" ","LANE":"３４０巷","ALLEY":" ","HOUSE_NO":"４５之１號","E_COORD97":165526.26000000001,"N_COORD97":2537671.5899999999,"ADDRESS":"喜樹路３４０巷４５之１號","OBJECTID":273537},"geometry":{"x":165526.26000000164,"y":2537671.5900000017}},{"attributes":{"ID":273543,"DIS_CODE":0,"TOWNNAME":"安南區","LI":"大安里","LIN":"7鄰","STREET":"大安街","SECT":" ","MAREA":" ","LANE":"１６６巷","ALLEY":" ","HOUSE_NO":"１６號","E_COORD97":167389.70000000001,"N_COORD97":2548172.1499999999,"ADDRESS":"大安街１６６巷１６號","OBJECTID":273538},"geometry":{"x":167389.70000000019,"y":2548172.1500000004}},{"attributes":{"ID":273544,"DIS_CODE":0,"TOWNNAME":"安南區","LI":"大安里","LIN":"7鄰","STREET":"大安街","SECT":" ","MAREA":" ","LANE":"１６６巷","ALLEY":" ","HOUSE_NO":"１９號","E_COORD97":167409.66,"N_COORD97":2548184.6099999999,"ADDRESS":"大安街１６６巷１９號","OBJECTID":273539},"geometry":{"x":167409.66000000108,"y":2548184.6099999994}},{"attributes":{"ID":273545,"DIS_CODE":0,"TOWNNAME":"新營區","LI":"太南里","LIN":"3鄰","STREET":" ","SECT":" ","MAREA":"太子宮","LANE":" ","ALLEY":" ","HOUSE_NO":"１７１之５號","E_COORD97":176196.12,"N_COORD97":2577058.52,"ADDRESS":"太子宮１７１之５號","OBJECTID":273540},"geometry":{"x":176196.12000000011,"y":2577058.5199999996}},{"attributes":{"ID":273546,"DIS_CODE":0,"TOWNNAME":"新營區","LI":"護鎮里","LIN":"3鄰","STREET":" ","SECT":" ","MAREA":"後鎮","LANE":" ","ALLEY":" ","HOUSE_NO":"３０號","E_COORD97":179232.39000000001,"N_COORD97":2581057.0600000001,"ADDRESS":"後鎮３０號","OBJECTID":273541},"geometry":{"x":179232.39000000153,"y":2581057.0600000005}},{"attributes":{"ID":273547,"DIS_CODE":0,"TOWNNAME":"新營區","LI":"新南里","LIN":"3鄰","STREET":"新北街","SECT":" ","MAREA":" ","LANE":" ","ALLEY":" ","HOUSE_NO":"３９號","E_COORD97":178839.56,"N_COORD97":2578692.3100000001,"ADDRESS":"新北街３９號","OBJECTID":273542},"geometry":{"x":178839.56000000145,"y":2578692.3100000005}},{"attributes":{"ID":273548,"DIS_CODE":0,"TOWNNAME":"安南區","LI":"大安里","LIN":"7鄰","STREET":"大安街","SECT":" ","MAREA":" ","LANE":"１６６巷","ALLEY":" ","HOUSE_NO":"２０號","E_COORD97":167399.67999999999,"N_COORD97":2548165.8199999998,"ADDRESS":"大安街１６６巷２０號","OBJECTID":273543},"geometry":{"x":167399.67999999877,"y":2548165.8200000022}},{"attributes":{"ID":273549,"DIS_CODE":0,"TOWNNAME":"安南區","LI":"大安里","LIN":"7鄰","STREET":"大安街","SECT":" ","MAREA":" ","LANE":"１６６巷","ALLEY":" ","HOUSE_NO":"２１號","E_COORD97":167413.88,"N_COORD97":2548182.5,"ADDRESS":"大安街１６６巷２１號","OBJECTID":273544},"geometry":{"x":167413.88000000175,"y":2548182.5000000019}},{"attributes":{"ID":273550,"DIS_CODE":0,"TOWNNAME":"安南區","LI":"大安里","LIN":"7鄰","STREET":"大安街","SECT":" ","MAREA":" ","LANE":"１６６巷","ALLEY":" ","HOUSE_NO":"２２號","E_COORD97":167404.29000000001,"N_COORD97":2548162.1800000002,"ADDRESS":"大安街１６６巷２２號","OBJECTID":273545},"geometry":{"x":167404.29000000004,"y":2548162.1799999978}},{"attributes":{"ID":273551,"DIS_CODE":0,"TOWNNAME":"東山區","LI":"大客里","LIN":"3鄰","STREET":" ","SECT":" ","MAREA":"大庄","LANE":" ","ALLEY":" ","HOUSE_NO":"１９號之１","E_COORD97":189605.12,"N_COORD97":2578948.1000000001,"ADDRESS":"大庄１９號之１","OBJECTID":273546},"geometry":{"x":189605.12000000011,"y":2578948.1000000015}},{"attributes":{"ID":273552,"DIS_CODE":0,"TOWNNAME":"安南區","LI":"大安里","LIN":"7鄰","STREET":"大安街","SECT":" ","MAREA":" ","LANE":"１６６巷","ALLEY":" ","HOUSE_NO":"２３號","E_COORD97":167418.67999999999,"N_COORD97":2548179.6299999999,"ADDRESS":"大安街１６６巷２３號","OBJECTID":273547},"geometry":{"x":167418.68000000063,"y":2548179.6300000008}},{"attributes":{"ID":273553,"DIS_CODE":0,"TOWNNAME":"安南區","LI":"大安里","LIN":"7鄰","STREET":"大安街","SECT":" ","MAREA":" ","LANE":"１６６巷","ALLEY":" ","HOUSE_NO":"２４號","E_COORD97":167409.47,"N_COORD97":2548159.3100000001,"ADDRESS":"大安街１６６巷２４號","OBJECTID":273548},"geometry":{"x":167409.46999999974,"y":2548159.3100000024}},{"attributes":{"ID":273554,"DIS_CODE":0,"TOWNNAME":"安南區","LI":"大安里","LIN":"7鄰","STREET":"大安街","SECT":" ","MAREA":" ","LANE":"１６６巷","ALLEY":" ","HOUSE_NO":"２５號","E_COORD97":167421.94,"N_COORD97":2548176.3700000001,"ADDRESS":"大安街１６６巷２５號","OBJECTID":273549},"geometry":{"x":167421.94000000041,"y":2548176.3700000029}},{"attributes":{"ID":273555,"DIS_CODE":0,"TOWNNAME":"安南區","LI":"大安里","LIN":"7鄰","STREET":"大安街","SECT":" ","MAREA":" ","LANE":"１６６巷","ALLEY":" ","HOUSE_NO":"２６號","E_COORD97":167415.60999999999,"N_COORD97":2548156.0499999998,"ADDRESS":"大安街１６６巷２６號","OBJECTID":273550},"geometry":{"x":167415.61000000034,"y":2548156.0500000007}},{"attributes":{"ID":273556,"DIS_CODE":0,"TOWNNAME":"安南區","LI":"大安里","LIN":"7鄰","STREET":"大安街","SECT":" ","MAREA":" ","LANE":"１６６巷","ALLEY":" ","HOUSE_NO":"２７號","E_COORD97":167427.32000000001,"N_COORD97":2548173.4900000002,"ADDRESS":"大安街１６６巷２７號","OBJECTID":273551},"geometry":{"x":167427.32000000123,"y":2548173.4900000002}},{"attributes":{"ID":273557,"DIS_CODE":0,"TOWNNAME":"永康區","LI":"南灣里","LIN":"7鄰","STREET":"南興路","SECT":" ","MAREA":" ","LANE":"１１２巷","ALLEY":" ","HOUSE_NO":"４號之１","E_COORD97":174371.88,"N_COORD97":2544387.29,"ADDRESS":"南興路１１２巷４號之１","OBJECTID":273552},"geometry":{"x":174371.87999999989,"y":2544387.2899999972}},{"attributes":{"ID":273558,"DIS_CODE":0,"TOWNNAME":"永康區","LI":"東橋里","LIN":"7鄰","STREET":"大橋一街","SECT":" ","MAREA":" ","LANE":"３２４巷","ALLEY":" ","HOUSE_NO":"８１號","E_COORD97":171460.22,"N_COORD97":2546475.23,"ADDRESS":"大橋一街３２４巷８１號","OBJECTID":273553},"geometry":{"x":171460.22000000067,"y":2546475.2300000023}},{"attributes":{"ID":273559,"DIS_CODE":0,"TOWNNAME":"永康區","LI":"東橋里","LIN":"7鄰","STREET":"大橋一街","SECT":" ","MAREA":" ","LANE":"３２４巷","ALLEY":" ","HOUSE_NO":"８５號","E_COORD97":171481.67999999999,"N_COORD97":2546451.4900000002,"ADDRESS":"大橋一街３２４巷８５號","OBJECTID":273554},"geometry":{"x":171481.67999999877,"y":2546451.4900000002}},{"attributes":{"ID":273560,"DIS_CODE":0,"TOWNNAME":"永康區","LI":"西勢里","LIN":"7鄰","STREET":"富強路","SECT":"一段","MAREA":" ","LANE":"２７９巷","ALLEY":" ","HOUSE_NO":"３號","E_COORD97":175690.13,"N_COORD97":2546595.02,"ADDRESS":"富強路一段２７９巷３號","OBJECTID":273555},"geometry":{"x":175690.13000000082,"y":2546595.0200000014}},{"attributes":{"ID":273561,"DIS_CODE":0,"TOWNNAME":"東山區","LI":"大客里","LIN":"3鄰","STREET":" ","SECT":" ","MAREA":"大庄","LANE":" ","ALLEY":" ","HOUSE_NO":"１９號之２","E_COORD97":189586.35000000001,"N_COORD97":2578960.21,"ADDRESS":"大庄１９號之２","OBJECTID":273556},"geometry":{"x":189586.34999999963,"y":2578960.2100000009}},{"attributes":{"ID":273562,"DIS_CODE":0,"TOWNNAME":"東山區","LI":"大客里","LIN":"3鄰","STREET":" ","SECT":" ","MAREA":"大庄","LANE":" ","ALLEY":" ","HOUSE_NO":"１９號之３","E_COORD97":189081.41,"N_COORD97":2578876.4300000002,"ADDRESS":"大庄１９號之３","OBJECTID":273557},"geometry":{"x":189081.41000000015,"y":2578876.4299999997}},{"attributes":{"ID":273563,"DIS_CODE":0,"TOWNNAME":"東山區","LI":"大客里","LIN":"3鄰","STREET":" ","SECT":" ","MAREA":"大庄","LANE":" ","ALLEY":" ","HOUSE_NO":"１９號之５","E_COORD97":189549.20999999999,"N_COORD97":2579005.0899999999,"ADDRESS":"大庄１９號之５","OBJECTID":273558},"geometry":{"x":189549.21000000183,"y":2579005.0899999999}},{"attributes":{"ID":273564,"DIS_CODE":0,"TOWNNAME":"東山區","LI":"大客里","LIN":"3鄰","STREET":" ","SECT":" ","MAREA":"大庄","LANE":" ","ALLEY":" ","HOUSE_NO":"１９號之７","E_COORD97":189071.20999999999,"N_COORD97":2578882.4500000002,"ADDRESS":"大庄１９號之７","OBJECTID":273559},"geometry":{"x":189071.21000000183,"y":2578882.4499999993}},{"attributes":{"ID":273565,"DIS_CODE":0,"TOWNNAME":"東山區","LI":"大客里","LIN":"3鄰","STREET":" ","SECT":" ","MAREA":"大庄","LANE":" ","ALLEY":" ","HOUSE_NO":"１９號","E_COORD97":189637.75,"N_COORD97":2578911.4500000002,"ADDRESS":"大庄１９號","OBJECTID":273560},"geometry":{"x":189637.75000000093,"y":2578911.4500000011}},{"attributes":{"ID":273566,"DIS_CODE":0,"TOWNNAME":"東山區","LI":"大客里","LIN":"3鄰","STREET":" ","SECT":" ","MAREA":"大庄","LANE":" ","ALLEY":" ","HOUSE_NO":"２０號","E_COORD97":189662.70999999999,"N_COORD97":2578922.4199999999,"ADDRESS":"大庄２０號","OBJECTID":273561},"geometry":{"x":189662.71000000183,"y":2578922.4200000018}},{"attributes":{"ID":273567,"DIS_CODE":0,"TOWNNAME":"永康區","LI":"西橋里","LIN":"7鄰","STREET":"中華西街","SECT":" ","MAREA":" ","LANE":"６３巷","ALLEY":" ","HOUSE_NO":"１９號","E_COORD97":170691.51999999999,"N_COORD97":2546008.75,"ADDRESS":"中華西街６３巷１９號","OBJECTID":273562},"geometry":{"x":170691.52000000048,"y":2546008.75}},{"attributes":{"ID":273568,"DIS_CODE":0,"TOWNNAME":"永康區","LI":"西勢里","LIN":"7鄰","STREET":"富強路","SECT":"一段","MAREA":" ","LANE":"２７９巷","ALLEY":" ","HOUSE_NO":"１４號","E_COORD97":175669.82000000001,"N_COORD97":2546623.7599999998,"ADDRESS":"富強路一段２７９巷１４號","OBJECTID":273563},"geometry":{"x":175669.8200000003,"y":2546623.7600000016}},{"attributes":{"ID":273569,"DIS_CODE":0,"TOWNNAME":"永康區","LI":"西勢里","LIN":"7鄰","STREET":"富強路","SECT":"一段","MAREA":" ","LANE":"２７９巷","ALLEY":" ","HOUSE_NO":"２２號","E_COORD97":175652.07999999999,"N_COORD97":2546637.1699999999,"ADDRESS":"富強路一段２７９巷２２號","OBJECTID":273564},"geometry":{"x":175652.08000000101,"y":2546637.1700000037}},{"attributes":{"ID":273570,"DIS_CODE":0,"TOWNNAME":"中西區","LI":"協和里","LIN":"4鄰","STREET":"文賢路","SECT":" ","MAREA":" ","LANE":" ","ALLEY":" ","HOUSE_NO":"１３號","E_COORD97":167428.60000000001,"N_COORD97":2544465.2599999998,"ADDRESS":"文賢路１３號","OBJECTID":273565},"geometry":{"x":167428.59999999963,"y":2544465.2599999998}},{"attributes":{"ID":273571,"DIS_CODE":0,"TOWNNAME":"東山區","LI":"大客里","LIN":"3鄰","STREET":" ","SECT":" ","MAREA":"大庄","LANE":" ","ALLEY":" ","HOUSE_NO":"２１號之１","E_COORD97":189664.23000000001,"N_COORD97":2578927.7799999998,"ADDRESS":"大庄２１號之１","OBJECTID":273566},"geometry":{"x":189664.23000000045,"y":2578927.7799999993}},{"attributes":{"ID":273572,"DIS_CODE":0,"TOWNNAME":"北區","LI":"長榮里","LIN":"3鄰","STREET":"長勝路","SECT":" ","MAREA":" ","LANE":" ","ALLEY":" ","HOUSE_NO":"６１號","E_COORD97":169919.84,"N_COORD97":2545641.25,"ADDRESS":"長勝路６１號","OBJECTID":273567},"geometry":{"x":169919.84000000078,"y":2545641.2500000019}},{"attributes":{"ID":273573,"DIS_CODE":0,"TOWNNAME":"北區","LI":"長榮里","LIN":"3鄰","STREET":"長勝路","SECT":" ","MAREA":" ","LANE":" ","ALLEY":" ","HOUSE_NO":"６３號","E_COORD97":169915.87,"N_COORD97":2545645.0600000001,"ADDRESS":"長勝路６３號","OBJECTID":273568},"geometry":{"x":169915.87000000011,"y":2545645.0600000042}},{"attributes":{"ID":273574,"DIS_CODE":0,"TOWNNAME":"北區","LI":"長榮里","LIN":"3鄰","STREET":"長勝路","SECT":" ","MAREA":" ","LANE":" ","ALLEY":" ","HOUSE_NO":"６７號","E_COORD97":169908.41,"N_COORD97":2545651.5600000001,"ADDRESS":"長勝路６７號","OBJECTID":273569},"geometry":{"x":169908.41000000108,"y":2545651.5599999987}},{"attributes":{"ID":273575,"DIS_CODE":0,"TOWNNAME":"中西區","LI":"協和里","LIN":"4鄰","STREET":"文賢路","SECT":" ","MAREA":" ","LANE":" ","ALLEY":" ","HOUSE_NO":"１７號","E_COORD97":167421.38,"N_COORD97":2544476.27,"ADDRESS":"文賢路１７號","OBJECTID":273570},"geometry":{"x":167421.38000000082,"y":2544476.2700000033}},{"attributes":{"ID":273576,"DIS_CODE":0,"TOWNNAME":"中西區","LI":"協和里","LIN":"4鄰","STREET":"文賢路","SECT":" ","MAREA":" ","LANE":" ","ALLEY":" ","HOUSE_NO":"１９號之１","E_COORD97":167409.48000000001,"N_COORD97":2544481.25,"ADDRESS":"文賢路１９號之１","OBJECTID":273571},"geometry":{"x":167409.48000000138,"y":2544481.2500000019}},{"attributes":{"ID":273577,"DIS_CODE":0,"TOWNNAME":"新營區","LI":"民榮里","LIN":"3鄰","STREET":"新進路","SECT":"二段","MAREA":" ","LANE":" ","ALLEY":" ","HOUSE_NO":"４９６號","E_COORD97":178671.04999999999,"N_COORD97":2578064.0899999999,"ADDRESS":"新進路二段４９６號","OBJECTID":273572},"geometry":{"x":178671.05000000075,"y":2578064.0900000017}},{"attributes":{"ID":273578,"DIS_CODE":0,"TOWNNAME":"新營區","LI":"民榮里","LIN":"3鄰","STREET":"新進路","SECT":"二段","MAREA":" ","LANE":" ","ALLEY":" ","HOUSE_NO":"５００之３號","E_COORD97":178673.37,"N_COORD97":2578038.6800000002,"ADDRESS":"新進路二段５００之３號","OBJECTID":273573},"geometry":{"x":178673.37000000011,"y":2578038.6800000016}},{"attributes":{"ID":273579,"DIS_CODE":0,"TOWNNAME":"新營區","LI":"新南里","LIN":"3鄰","STREET":"新北街","SECT":" ","MAREA":" ","LANE":" ","ALLEY":" ","HOUSE_NO":"９９之３號","E_COORD97":178709.44,"N_COORD97":2578790.46,"ADDRESS":"新北街９９之３號","OBJECTID":273574},"geometry":{"x":178709.44000000134,"y":2578790.4600000046}},{"attributes":{"ID":273580,"DIS_CODE":0,"TOWNNAME":"官田區","LI":"隆本里","LIN":"9鄰","STREET":"中華路","SECT":"二段","MAREA":" ","LANE":" ","ALLEY":" ","HOUSE_NO":"４１號","E_COORD97":179903.26000000001,"N_COORD97":2566656.7599999998,"ADDRESS":"中華路二段４１號","OBJECTID":273575},"geometry":{"x":179903.26000000071,"y":2566656.7600000016}},{"attributes":{"ID":273581,"DIS_CODE":0,"TOWNNAME":"麻豆區","LI":"東角里","LIN":"2鄰","STREET":"文昌路","SECT":" ","MAREA":" ","LANE":" ","ALLEY":" ","HOUSE_NO":"４號","E_COORD97":173436.23999999999,"N_COORD97":2564867.5800000001,"ADDRESS":"文昌路４號","OBJECTID":273576},"geometry":{"x":173436.24000000022,"y":2564867.5799999982}},{"attributes":{"ID":273582,"DIS_CODE":0,"TOWNNAME":"永康區","LI":"西橋里","LIN":"7鄰","STREET":"中華西街","SECT":" ","MAREA":" ","LANE":"６３巷","ALLEY":" ","HOUSE_NO":"２１號","E_COORD97":170696.85000000001,"N_COORD97":2545996.5,"ADDRESS":"中華西街６３巷２１號","OBJECTID":273577},"geometry":{"x":170696.84999999963,"y":2545996.5}},{"attributes":{"ID":273583,"DIS_CODE":0,"TOWNNAME":"永康區","LI":"西灣里","LIN":"7鄰","STREET":"大灣五街","SECT":" ","MAREA":" ","LANE":"９３巷","ALLEY":" ","HOUSE_NO":"６７號","E_COORD97":174578.39999999999,"N_COORD97":2545193.25,"ADDRESS":"大灣五街９３巷６７號","OBJECTID":273578},"geometry":{"x":174578.4000000013,"y":2545193.2500000019}},{"attributes":{"ID":273584,"DIS_CODE":0,"TOWNNAME":"永康區","LI":"西勢里","LIN":"7鄰","STREET":"富強路","SECT":"一段","MAREA":" ","LANE":"２７９巷","ALLEY":" ","HOUSE_NO":"２８號","E_COORD97":175636.01000000001,"N_COORD97":2546635.7799999998,"ADDRESS":"富強路一段２７９巷２８號","OBJECTID":273579},"geometry":{"x":175636.00999999978,"y":2546635.7800000031}},{"attributes":{"ID":273585,"DIS_CODE":0,"TOWNNAME":"永康區","LI":"西勢里","LIN":"7鄰","STREET":"富強路","SECT":"一段","MAREA":" ","LANE":"２７９巷","ALLEY":" ","HOUSE_NO":"１１號","E_COORD97":175648.29999999999,"N_COORD97":2546603.3700000001,"ADDRESS":"富強路一段２７９巷１１號","OBJECTID":273580},"geometry":{"x":175648.30000000075,"y":2546603.3700000029}},{"attributes":{"ID":273586,"DIS_CODE":0,"TOWNNAME":"官田區","LI":"隆田里","LIN":"19鄰","STREET":"中興路","SECT":" ","MAREA":" ","LANE":" ","ALLEY":" ","HOUSE_NO":"１９號","E_COORD97":180493.17000000001,"N_COORD97":2565787.4199999999,"ADDRESS":"中興路１９號","OBJECTID":273581},"geometry":{"x":180493.16999999993,"y":2565787.4200000037}},{"attributes":{"ID":273587,"DIS_CODE":0,"TOWNNAME":"官田區","LI":"隆田里","LIN":"11鄰","STREET":"文化街","SECT":" ","MAREA":" ","LANE":" ","ALLEY":" ","HOUSE_NO":"６號","E_COORD97":180202.76999999999,"N_COORD97":2565815.96,"ADDRESS":"文化街６號","OBJECTID":273582},"geometry":{"x":180202.77000000142,"y":2565815.9600000028}},{"attributes":{"ID":273588,"DIS_CODE":0,"TOWNNAME":"永康區","LI":"西勢里","LIN":"7鄰","STREET":"富強路","SECT":"一段","MAREA":" ","LANE":"２７９巷","ALLEY":" ","HOUSE_NO":"３６號","E_COORD97":175622.57999999999,"N_COORD97":2546638.0299999998,"ADDRESS":"富強路一段２７９巷３６號","OBJECTID":273583},"geometry":{"x":175622.58000000194,"y":2546638.0300000012}},{"attributes":{"ID":273589,"DIS_CODE":0,"TOWNNAME":"永康區","LI":"西橋里","LIN":"7鄰","STREET":"中華西街","SECT":" ","MAREA":" ","LANE":"６３巷","ALLEY":" ","HOUSE_NO":"１１號","E_COORD97":170717.97,"N_COORD97":2546009,"ADDRESS":"中華西街６３巷１１號","OBJECTID":273584},"geometry":{"x":170717.96999999974,"y":2546009.0000000019}},{"attributes":{"ID":273590,"DIS_CODE":0,"TOWNNAME":"永康區","LI":"西灣里","LIN":"7鄰","STREET":"大灣五街","SECT":" ","MAREA":" ","LANE":"９３巷","ALLEY":" ","HOUSE_NO":"７３號","E_COORD97":174568.75,"N_COORD97":2545183.75,"ADDRESS":"大灣五街９３巷７３號","OBJECTID":273585},"geometry":{"x":174568.75000000093,"y":2545183.7500000019}},{"attributes":{"ID":273591,"DIS_CODE":0,"TOWNNAME":"永康區","LI":"西灣里","LIN":"7鄰","STREET":"大灣路","SECT":" ","MAREA":" ","LANE":"４０６巷","ALLEY":" ","HOUSE_NO":"７８號","E_COORD97":174614.48999999999,"N_COORD97":2545151.5499999998,"ADDRESS":"大灣路４０６巷７８號","OBJECTID":273586},"geometry":{"x":174614.49000000022,"y":2545151.5500000026}},{"attributes":{"ID":273592,"DIS_CODE":0,"TOWNNAME":"永康區","LI":"西勢里","LIN":"7鄰","STREET":"富強路","SECT":"一段","MAREA":" ","LANE":"２７９巷","ALLEY":" ","HOUSE_NO":"３２號","E_COORD97":175626.59,"N_COORD97":2546637.2799999998,"ADDRESS":"富強路一段２７９巷３２號","OBJECTID":273587},"geometry":{"x":175626.58999999985,"y":2546637.2800000012}},{"attributes":{"ID":273593,"DIS_CODE":0,"TOWNNAME":"永康區","LI":"西勢里","LIN":"7鄰","STREET":"富強路","SECT":"一段","MAREA":" ","LANE":"２７９巷","ALLEY":" ","HOUSE_NO":"１２１號之１","E_COORD97":175299.53,"N_COORD97":2546669.9399999999,"ADDRESS":"富強路一段２７９巷１２１號之１","OBJECTID":273588},"geometry":{"x":175299.53000000119,"y":2546669.9400000013}},{"attributes":{"ID":273594,"DIS_CODE":0,"TOWNNAME":"永康區","LI":"西勢里","LIN":"7鄰","STREET":"富強路","SECT":"一段","MAREA":" ","LANE":"２７９巷","ALLEY":" ","HOUSE_NO":"２６號","E_COORD97":175640.73000000001,"N_COORD97":2546634.7799999998,"ADDRESS":"富強路一段２７９巷２６號","OBJECTID":273589},"geometry":{"x":175640.73000000138,"y":2546634.7799999993}},{"attributes":{"ID":273595,"DIS_CODE":0,"TOWNNAME":"永康區","LI":"西勢里","LIN":"7鄰","STREET":"富強路","SECT":"一段","MAREA":" ","LANE":"２７９巷","ALLEY":" ","HOUSE_NO":"２０號","E_COORD97":175657,"N_COORD97":2546626.5099999998,"ADDRESS":"富強路一段２７９巷２０號","OBJECTID":273590},"geometry":{"x":175657.00000000186,"y":2546626.5099999998}},{"attributes":{"ID":273596,"DIS_CODE":0,"TOWNNAME":"永康區","LI":"西勢里","LIN":"7鄰","STREET":"富強路","SECT":"一段","MAREA":" ","LANE":"２７９巷","ALLEY":" ","HOUSE_NO":"３８號","E_COORD97":175618.29000000001,"N_COORD97":2546639.2799999998,"ADDRESS":"富強路一段２７９巷３８號","OBJECTID":273591},"geometry":{"x":175618.29000000097,"y":2546639.2800000031}},{"attributes":{"ID":273597,"DIS_CODE":0,"TOWNNAME":"永康區","LI":"西橋里","LIN":"7鄰","STREET":"中華西街","SECT":" ","MAREA":" ","LANE":"６３巷","ALLEY":" ","HOUSE_NO":"７號","E_COORD97":170726.42000000001,"N_COORD97":2546009.25,"ADDRESS":"中華西街６３巷７號","OBJECTID":273592},"geometry":{"x":170726.42000000086,"y":2546009.2500000037}},{"attributes":{"ID":273598,"DIS_CODE":0,"TOWNNAME":"新營區","LI":"太南里","LIN":"3鄰","STREET":" ","SECT":" ","MAREA":"太子宮","LANE":" ","ALLEY":" ","HOUSE_NO":"１５６號","E_COORD97":176252.91,"N_COORD97":2577049.3199999998,"ADDRESS":"太子宮１５６號","OBJECTID":273593},"geometry":{"x":176252.91000000108,"y":2577049.3200000022}},{"attributes":{"ID":273599,"DIS_CODE":0,"TOWNNAME":"新營區","LI":"嘉芳里","LIN":"3鄰","STREET":" ","SECT":" ","MAREA":"茄苳腳","LANE":" ","ALLEY":" ","HOUSE_NO":"２８之１１號","E_COORD97":177022.32999999999,"N_COORD97":2578425.4700000002,"ADDRESS":"茄苳腳２８之１１號","OBJECTID":273594},"geometry":{"x":177022.33000000007,"y":2578425.4700000025}},{"attributes":{"ID":273600,"DIS_CODE":0,"TOWNNAME":"新營區","LI":"鐵線里","LIN":"3鄰","STREET":" ","SECT":" ","MAREA":"鐵線橋","LANE":" ","ALLEY":" ","HOUSE_NO":"２２號","E_COORD97":175994.42000000001,"N_COORD97":2573865.5600000001,"ADDRESS":"鐵線橋２２號","OBJECTID":273595},"geometry":{"x":175994.41999999993,"y":2573865.5600000005}},{"attributes":{"ID":273601,"DIS_CODE":0,"TOWNNAME":"新營區","LI":"鐵線里","LIN":"3鄰","STREET":" ","SECT":" ","MAREA":"鐵線橋","LANE":" ","ALLEY":" ","HOUSE_NO":"２７號","E_COORD97":175990.14000000001,"N_COORD97":2573827.9199999999,"ADDRESS":"鐵線橋２７號","OBJECTID":273596},"geometry":{"x":175990.1400000006,"y":2573827.9199999999}},{"attributes":{"ID":273602,"DIS_CODE":0,"TOWNNAME":"麻豆區","LI":"龍泉里","LIN":"3鄰","STREET":" ","SECT":" ","MAREA":"溝子墘","LANE":" ","ALLEY":" ","HOUSE_NO":"２６號","E_COORD97":173993.37,"N_COORD97":2564171.4300000002,"ADDRESS":"溝子墘２６號","OBJECTID":273597},"geometry":{"x":173993.37000000104,"y":2564171.4300000016}},{"attributes":{"ID":273603,"DIS_CODE":0,"TOWNNAME":"新營區","LI":"埤寮里","LIN":"3鄰","STREET":"建國路","SECT":" ","MAREA":" ","LANE":" ","ALLEY":" ","HOUSE_NO":"３４號","E_COORD97":179960.79000000001,"N_COORD97":2581110.0800000001,"ADDRESS":"建國路３４號","OBJECTID":273598},"geometry":{"x":179960.7900000019,"y":2581110.0800000001}},{"attributes":{"ID":273604,"DIS_CODE":0,"TOWNNAME":"新營區","LI":"埤寮里","LIN":"3鄰","STREET":"建國路","SECT":" ","MAREA":" ","LANE":" ","ALLEY":" ","HOUSE_NO":"３１號","E_COORD97":180020.94,"N_COORD97":2581068.8199999998,"ADDRESS":"建國路３１號","OBJECTID":273599},"geometry":{"x":180020.94000000041,"y":2581068.8199999984}},{"attributes":{"ID":273605,"DIS_CODE":0,"TOWNNAME":"新營區","LI":"新東里","LIN":"3鄰","STREET":"東大街","SECT":" ","MAREA":" ","LANE":" ","ALLEY":" ","HOUSE_NO":"４６號","E_COORD97":181012.04999999999,"N_COORD97":2579126.1200000001,"ADDRESS":"東大街４６號","OBJECTID":273600},"geometry":{"x":181012.05000000075,"y":2579126.1200000029}}]}