{"displayFieldName":"TOWNNAME","fieldAliases":{"ID":"ID","DIS_CODE":"DIS_CODE","TOWNNAME":"TOWNNAME","LI":"LI","LIN":"LIN","STREET":"STREET","SECT":"SECT","MAREA":"MAREA","LANE":"LANE","ALLEY":"ALLEY","HOUSE_NO":"HOUSE_NO","E_COORD97":"E_COORD97","N_COORD97":"N_COORD97","ADDRESS":"ADDRESS","OBJECTID":"OBJECTID"},"geometryType":"esriGeometryPoint","spatialReference":{"wkid":102443,"latestWkid":3826},"fields":[{"name":"ID","type":"esriFieldTypeDouble","alias":"ID"},{"name":"DIS_CODE","type":"esriFieldTypeInteger","alias":"DIS_CODE"},{"name":"TOWNNAME","type":"esriFieldTypeString","alias":"TOWNNAME","length":8},{"name":"LI","type":"esriFieldTypeString","alias":"LI","length":8},{"name":"LIN","type":"esriFieldTypeString","alias":"LIN","length":12},{"name":"STREET","type":"esriFieldTypeString","alias":"STREET","length":20},{"name":"SECT","type":"esriFieldTypeString","alias":"SECT","length":8},{"name":"MAREA","type":"esriFieldTypeString","alias":"MAREA","length":12},{"name":"LANE","type":"esriFieldTypeString","alias":"LANE","length":10},{"name":"ALLEY","type":"esriFieldTypeString","alias":"ALLEY","length":10},{"name":"HOUSE_NO","type":"esriFieldTypeString","alias":"HOUSE_NO","length":20},{"name":"E_COORD97","type":"esriFieldTypeDouble","alias":"E_COORD97"},{"name":"N_COORD97","type":"esriFieldTypeDouble","alias":"N_COORD97"},{"name":"ADDRESS","type":"esriFieldTypeString","alias":"ADDRESS","length":50},{"name":"OBJECTID","type":"esriFieldTypeOID","alias":"OBJECTID"}],"features":[{"attributes":{"ID":260205,"DIS_CODE":0,"TOWNNAME":"永康區","LI":"西勢里","LIN":"24鄰","STREET":"廣興街","SECT":" ","MAREA":" ","LANE":"３８巷","ALLEY":" ","HOUSE_NO":"１３號","E_COORD97":175979.846005,"N_COORD97":2546500.16022,"ADDRESS":"廣興街３８巷１３號","OBJECTID":260201},"geometry":{"x":175979.84600500111,"y":2546500.1602160037}},{"attributes":{"ID":260206,"DIS_CODE":0,"TOWNNAME":"南區","LI":"郡南里","LIN":"24鄰","STREET":"永成路","SECT":"三段","MAREA":" ","LANE":"２４０巷","ALLEY":" ","HOUSE_NO":"２號","E_COORD97":167527.876555,"N_COORD97":2540728.9184400002,"ADDRESS":"永成路三段２４０巷２號","OBJECTID":260202},"geometry":{"x":167527.87655500229,"y":2540728.9184370022}},{"attributes":{"ID":260207,"DIS_CODE":0,"TOWNNAME":"安南區","LI":"顯宮里","LIN":"1鄰","STREET":"顯宮二街","SECT":" ","MAREA":" ","LANE":"５８巷","ALLEY":" ","HOUSE_NO":"７號","E_COORD97":160529.78980999999,"N_COORD97":2548706.68304,"ADDRESS":"顯宮二街５８巷７號","OBJECTID":260203},"geometry":{"x":160529.78980999999,"y":2548706.6830400005}},{"attributes":{"ID":260208,"DIS_CODE":0,"TOWNNAME":"仁德區","LI":"新田里","LIN":"3鄰","STREET":"新田二街","SECT":" ","MAREA":" ","LANE":"１２０巷","ALLEY":" ","HOUSE_NO":"２０號","E_COORD97":174951.15958100001,"N_COORD97":2539924.4086799999,"ADDRESS":"新田二街１２０巷２０號","OBJECTID":260204},"geometry":{"x":174951.15958100092,"y":2539924.4086819999}},{"attributes":{"ID":260209,"DIS_CODE":0,"TOWNNAME":"南區","LI":"郡南里","LIN":"24鄰","STREET":"永成路","SECT":"三段","MAREA":" ","LANE":"２４０巷","ALLEY":" ","HOUSE_NO":"８號","E_COORD97":167533.80622900001,"N_COORD97":2540728.70677,"ADDRESS":"永成路三段２４０巷８號","OBJECTID":260205},"geometry":{"x":167533.80622900091,"y":2540728.7067709994}},{"attributes":{"ID":260210,"DIS_CODE":0,"TOWNNAME":"東區","LI":"富裕里","LIN":"6鄰","STREET":"裕農路","SECT":" ","MAREA":" ","LANE":"２８８巷","ALLEY":" ","HOUSE_NO":"６４號之１","E_COORD97":170927.37966899999,"N_COORD97":2542937.3583200001,"ADDRESS":"裕農路２８８巷６４號之１","OBJECTID":260206},"geometry":{"x":170927.37966900133,"y":2542937.3583199997}},{"attributes":{"ID":260211,"DIS_CODE":0,"TOWNNAME":"中西區","LI":"協和里","LIN":"2鄰","STREET":"臨安路","SECT":"一段","MAREA":" ","LANE":"２１２巷","ALLEY":" ","HOUSE_NO":"５７號","E_COORD97":167362.61467400001,"N_COORD97":2544638.7584600002,"ADDRESS":"臨安路一段２１２巷５７號","OBJECTID":260207},"geometry":{"x":167362.614674001,"y":2544638.7584620025}},{"attributes":{"ID":260212,"DIS_CODE":0,"TOWNNAME":"仁德區","LI":"仁義里","LIN":"1鄰","STREET":"中山路","SECT":" ","MAREA":" ","LANE":"７７巷","ALLEY":" ","HOUSE_NO":"２７號","E_COORD97":175062.12177200001,"N_COORD97":2540917.57333,"ADDRESS":"中山路７７巷２７號","OBJECTID":260208},"geometry":{"x":175062.12177200057,"y":2540917.5733329989}},{"attributes":{"ID":260213,"DIS_CODE":0,"TOWNNAME":"中西區","LI":"協和里","LIN":"2鄰","STREET":"臨安路","SECT":"一段","MAREA":" ","LANE":"２１２巷","ALLEY":" ","HOUSE_NO":"５９號","E_COORD97":167359.860212,"N_COORD97":2544635.5834599999,"ADDRESS":"臨安路一段２１２巷５９號","OBJECTID":260209},"geometry":{"x":167359.86021200102,"y":2544635.5834630039}},{"attributes":{"ID":260214,"DIS_CODE":0,"TOWNNAME":"中西區","LI":"協和里","LIN":"2鄰","STREET":"臨安路","SECT":"一段","MAREA":" ","LANE":"２１２巷","ALLEY":" ","HOUSE_NO":"６１號","E_COORD97":167357.105751,"N_COORD97":2544632.1968,"ADDRESS":"臨安路一段２１２巷６１號","OBJECTID":260210},"geometry":{"x":167357.10575100128,"y":2544632.1967980023}},{"attributes":{"ID":260215,"DIS_CODE":0,"TOWNNAME":"中西區","LI":"協和里","LIN":"2鄰","STREET":"臨安路","SECT":"一段","MAREA":" ","LANE":"２１２巷","ALLEY":" ","HOUSE_NO":"８５號","E_COORD97":167319.39081400001,"N_COORD97":2544582.66683,"ADDRESS":"臨安路一段２１２巷８５號","OBJECTID":260211},"geometry":{"x":167319.39081400074,"y":2544582.6668250021}},{"attributes":{"ID":260216,"DIS_CODE":0,"TOWNNAME":"南區","LI":"郡南里","LIN":"7鄰","STREET":"永成路","SECT":"三段","MAREA":" ","LANE":"１２１巷","ALLEY":" ","HOUSE_NO":"６號","E_COORD97":167463.39135399999,"N_COORD97":2540706.6974200001,"ADDRESS":"永成路三段１２１巷６號","OBJECTID":260212},"geometry":{"x":167463.39135399926,"y":2540706.6974160019}},{"attributes":{"ID":260217,"DIS_CODE":0,"TOWNNAME":"南區","LI":"郡南里","LIN":"10鄰","STREET":"永成路","SECT":"三段","MAREA":" ","LANE":"１２１巷","ALLEY":" ","HOUSE_NO":"１２號","E_COORD97":167456.08514899999,"N_COORD97":2540707.01492,"ADDRESS":"永成路三段１２１巷１２號","OBJECTID":260213},"geometry":{"x":167456.08514900133,"y":2540707.0149150006}},{"attributes":{"ID":260218,"DIS_CODE":0,"TOWNNAME":"中西區","LI":"協和里","LIN":"6鄰","STREET":"臨安路","SECT":"一段","MAREA":" ","LANE":"２１２巷","ALLEY":" ","HOUSE_NO":"４０號","E_COORD97":167316.0007,"N_COORD97":2544600.8701399998,"ADDRESS":"臨安路一段２１２巷４０號","OBJECTID":260214},"geometry":{"x":167316.00069999974,"y":2544600.8701399993}},{"attributes":{"ID":260219,"DIS_CODE":0,"TOWNNAME":"南區","LI":"郡南里","LIN":"10鄰","STREET":"永成路","SECT":"三段","MAREA":" ","LANE":"１２１巷","ALLEY":" ","HOUSE_NO":"１６號","E_COORD97":167449.62604,"N_COORD97":2540707.22658,"ADDRESS":"永成路三段１２１巷１６號","OBJECTID":260215},"geometry":{"x":167449.62604000233,"y":2540707.2265820019}},{"attributes":{"ID":260220,"DIS_CODE":0,"TOWNNAME":"南區","LI":"郡南里","LIN":"10鄰","STREET":"永成路","SECT":"三段","MAREA":" ","LANE":"１２１巷","ALLEY":" ","HOUSE_NO":"２０號","E_COORD97":167442.21394799999,"N_COORD97":2540707.1207499998,"ADDRESS":"永成路三段１２１巷２０號","OBJECTID":260216},"geometry":{"x":167442.21394800022,"y":2540707.1207490005}},{"attributes":{"ID":260221,"DIS_CODE":0,"TOWNNAME":"南區","LI":"郡南里","LIN":"10鄰","STREET":"永成路","SECT":"三段","MAREA":" ","LANE":"１２１巷","ALLEY":" ","HOUSE_NO":"２２號","E_COORD97":167438.29612799999,"N_COORD97":2540706.9090800001,"ADDRESS":"永成路三段１２１巷２２號","OBJECTID":260217},"geometry":{"x":167438.29612800106,"y":2540706.9090819992}},{"attributes":{"ID":260222,"DIS_CODE":0,"TOWNNAME":"南區","LI":"郡南里","LIN":"10鄰","STREET":"永成路","SECT":"三段","MAREA":" ","LANE":"１２１巷","ALLEY":" ","HOUSE_NO":"２６號","E_COORD97":167432.26056699999,"N_COORD97":2540707.1207499998,"ADDRESS":"永成路三段１２１巷２６號","OBJECTID":260218},"geometry":{"x":167432.26056700014,"y":2540707.1207490005}},{"attributes":{"ID":260223,"DIS_CODE":0,"TOWNNAME":"南區","LI":"郡南里","LIN":"10鄰","STREET":"永成路","SECT":"三段","MAREA":" ","LANE":"１２１巷","ALLEY":" ","HOUSE_NO":"２８號","E_COORD97":167427.60153799999,"N_COORD97":2540707.5440799999,"ADDRESS":"永成路三段１２１巷２８號","OBJECTID":260219},"geometry":{"x":167427.6015379997,"y":2540707.5440820046}},{"attributes":{"ID":260224,"DIS_CODE":0,"TOWNNAME":"南區","LI":"郡南里","LIN":"10鄰","STREET":"永成路","SECT":"三段","MAREA":" ","LANE":"１２１巷","ALLEY":" ","HOUSE_NO":"３０號","E_COORD97":167423.577831,"N_COORD97":2540707.5440799999,"ADDRESS":"永成路三段１２１巷３０號","OBJECTID":260220},"geometry":{"x":167423.57783100102,"y":2540707.5440820046}},{"attributes":{"ID":260225,"DIS_CODE":0,"TOWNNAME":"歸仁區","LI":"大潭里","LIN":"21鄰","STREET":"長榮路","SECT":"三段","MAREA":" ","LANE":"２巷","ALLEY":" ","HOUSE_NO":"１００號","E_COORD97":178399.03510000001,"N_COORD97":2534171.9853300001,"ADDRESS":"長榮路三段２巷１００號","OBJECTID":260221},"geometry":{"x":178399.03509999998,"y":2534171.985328}},{"attributes":{"ID":260226,"DIS_CODE":0,"TOWNNAME":"永康區","LI":"永康里","LIN":"1鄰","STREET":"中山北路","SECT":" ","MAREA":" ","LANE":"７９巷","ALLEY":" ","HOUSE_NO":"８號","E_COORD97":174012.12900399999,"N_COORD97":2547439.5899700001,"ADDRESS":"中山北路７９巷８號","OBJECTID":260222},"geometry":{"x":174012.12900400069,"y":2547439.5899700038}},{"attributes":{"ID":260227,"DIS_CODE":0,"TOWNNAME":"仁德區","LI":"上崙里","LIN":"1鄰","STREET":"德崙路","SECT":" ","MAREA":" ","LANE":"１２７巷","ALLEY":" ","HOUSE_NO":"１３號","E_COORD97":173532.49407399999,"N_COORD97":2538460.93353,"ADDRESS":"德崙路１２７巷１３號","OBJECTID":260223},"geometry":{"x":173532.49407400098,"y":2538460.9335260019}},{"attributes":{"ID":260228,"DIS_CODE":0,"TOWNNAME":"仁德區","LI":"上崙里","LIN":"1鄰","STREET":"德崙路","SECT":" ","MAREA":" ","LANE":"１２７巷","ALLEY":" ","HOUSE_NO":"１５號","E_COORD97":173534.82466899999,"N_COORD97":2538465.80186,"ADDRESS":"德崙路１２７巷１５號","OBJECTID":260224},"geometry":{"x":173534.82466900069,"y":2538465.8018570039}},{"attributes":{"ID":260229,"DIS_CODE":0,"TOWNNAME":"仁德區","LI":"上崙里","LIN":"1鄰","STREET":"德崙路","SECT":" ","MAREA":" ","LANE":"１２７巷","ALLEY":" ","HOUSE_NO":"２號","E_COORD97":173526.77352300001,"N_COORD97":2538432.3585399999,"ADDRESS":"德崙路１２７巷２號","OBJECTID":260225},"geometry":{"x":173526.77352300007,"y":2538432.3585420009}},{"attributes":{"ID":260230,"DIS_CODE":0,"TOWNNAME":"安南區","LI":"佃西里","LIN":"10鄰","STREET":"海佃路","SECT":"四段","MAREA":" ","LANE":"３８８巷","ALLEY":" ","HOUSE_NO":"１３號","E_COORD97":165588.06400899999,"N_COORD97":2551589.7381699998,"ADDRESS":"海佃路四段３８８巷１３號","OBJECTID":260226},"geometry":{"x":165588.06400900055,"y":2551589.7381720021}},{"attributes":{"ID":260231,"DIS_CODE":0,"TOWNNAME":"鹽水區","LI":"橋南里","LIN":"18鄰","STREET":"治水路","SECT":" ","MAREA":" ","LANE":"２６８巷","ALLEY":" ","HOUSE_NO":"１０號","E_COORD97":174675.41834,"N_COORD97":2579840.62359,"ADDRESS":"治水路２６８巷１０號","OBJECTID":260227},"geometry":{"x":174675.41834000032,"y":2579840.6235850025}},{"attributes":{"ID":260232,"DIS_CODE":0,"TOWNNAME":"鹽水區","LI":"橋南里","LIN":"18鄰","STREET":"治水路","SECT":" ","MAREA":" ","LANE":"２６８巷","ALLEY":" ","HOUSE_NO":"１８號","E_COORD97":174670.331129,"N_COORD97":2579819.0336000002,"ADDRESS":"治水路２６８巷１８號","OBJECTID":260228},"geometry":{"x":174670.33112899959,"y":2579819.0335960016}},{"attributes":{"ID":260233,"DIS_CODE":0,"TOWNNAME":"鹽水區","LI":"橋南里","LIN":"18鄰","STREET":"治水路","SECT":" ","MAREA":" ","LANE":"２６８巷","ALLEY":" ","HOUSE_NO":"２０號","E_COORD97":174666.30375399999,"N_COORD97":2579820.0919300001,"ADDRESS":"治水路２６８巷２０號","OBJECTID":260229},"geometry":{"x":174666.30375400092,"y":2579820.0919289999}},{"attributes":{"ID":260234,"DIS_CODE":0,"TOWNNAME":"鹽水區","LI":"橋南里","LIN":"18鄰","STREET":"治水路","SECT":" ","MAREA":" ","LANE":"２６８巷","ALLEY":" ","HOUSE_NO":"８號","E_COORD97":174665.455885,"N_COORD97":2579841.2585800001,"ADDRESS":"治水路２６８巷８號","OBJECTID":260230},"geometry":{"x":174665.45588500053,"y":2579841.258584002}},{"attributes":{"ID":260235,"DIS_CODE":0,"TOWNNAME":"永康區","LI":"中華里","LIN":"17鄰","STREET":"中華路","SECT":" ","MAREA":" ","LANE":"１０巷","ALLEY":" ","HOUSE_NO":"８號","E_COORD97":171607.60890299999,"N_COORD97":2544460.6924200002,"ADDRESS":"中華路１０巷８號","OBJECTID":260231},"geometry":{"x":171607.60890300013,"y":2544460.6924230009}},{"attributes":{"ID":260236,"DIS_CODE":0,"TOWNNAME":"鹽水區","LI":"橋南里","LIN":"6鄰","STREET":"南門路","SECT":" ","MAREA":" ","LANE":"１５４巷","ALLEY":" ","HOUSE_NO":"１０號","E_COORD97":175279.51046600001,"N_COORD97":2579061.7801199998,"ADDRESS":"南門路１５４巷１０號","OBJECTID":260232},"geometry":{"x":175279.510466001,"y":2579061.7801210023}},{"attributes":{"ID":260237,"DIS_CODE":0,"TOWNNAME":"永康區","LI":"西橋里","LIN":"3鄰","STREET":"中山南路","SECT":" ","MAREA":" ","LANE":"４３巷","ALLEY":" ","HOUSE_NO":"１１號","E_COORD97":170722.99158,"N_COORD97":2545877.8605499999,"ADDRESS":"中山南路４３巷１１號","OBJECTID":260233},"geometry":{"x":170722.99158000015,"y":2545877.8605500031}},{"attributes":{"ID":260238,"DIS_CODE":0,"TOWNNAME":"永康區","LI":"西橋里","LIN":"3鄰","STREET":"中山南路","SECT":" ","MAREA":" ","LANE":"４３巷","ALLEY":" ","HOUSE_NO":"１３號","E_COORD97":170720.66104000001,"N_COORD97":2545880.6122099999,"ADDRESS":"中山南路４３巷１３號","OBJECTID":260234},"geometry":{"x":170720.66104000062,"y":2545880.6122100018}},{"attributes":{"ID":260239,"DIS_CODE":0,"TOWNNAME":"永康區","LI":"中華里","LIN":"17鄰","STREET":"中華路","SECT":" ","MAREA":" ","LANE":"１０巷","ALLEY":" ","HOUSE_NO":"２號","E_COORD97":171586.205816,"N_COORD97":2544463.7615899998,"ADDRESS":"中華路１０巷２號","OBJECTID":260235},"geometry":{"x":171586.20581599977,"y":2544463.7615879998}},{"attributes":{"ID":260240,"DIS_CODE":0,"TOWNNAME":"鹽水區","LI":"橋南里","LIN":"18鄰","STREET":"治水路","SECT":" ","MAREA":" ","LANE":"２６８巷","ALLEY":" ","HOUSE_NO":"１２號","E_COORD97":174687.818417,"N_COORD97":2579839.6710899998,"ADDRESS":"治水路２６８巷１２號","OBJECTID":260236},"geometry":{"x":174687.81841699965,"y":2579839.671085}},{"attributes":{"ID":260241,"DIS_CODE":0,"TOWNNAME":"仁德區","LI":"仁義里","LIN":"15鄰","STREET":"義林路","SECT":" ","MAREA":" ","LANE":"１４８巷","ALLEY":" ","HOUSE_NO":"４５號","E_COORD97":174887.141749,"N_COORD97":2540701.34033,"ADDRESS":"義林路１４８巷４５號","OBJECTID":260237},"geometry":{"x":174887.14174900018,"y":2540701.3403340001}},{"attributes":{"ID":260242,"DIS_CODE":0,"TOWNNAME":"仁德區","LI":"仁義里","LIN":"1鄰","STREET":"義林路","SECT":" ","MAREA":" ","LANE":"１４８巷","ALLEY":" ","HOUSE_NO":"４６號","E_COORD97":174929.303365,"N_COORD97":2540593.6020599999,"ADDRESS":"義林路１４８巷４６號","OBJECTID":260238},"geometry":{"x":174929.30336499959,"y":2540593.6020589974}},{"attributes":{"ID":260243,"DIS_CODE":0,"TOWNNAME":"仁德區","LI":"大甲里","LIN":"3鄰","STREET":"行大街","SECT":" ","MAREA":" ","LANE":"２７１巷","ALLEY":" ","HOUSE_NO":"６號","E_COORD97":169766.589515,"N_COORD97":2535086.4462199998,"ADDRESS":"行大街２７１巷６號","OBJECTID":260239},"geometry":{"x":169766.58951500058,"y":2535086.4462170042}},{"attributes":{"ID":260244,"DIS_CODE":0,"TOWNNAME":"歸仁區","LI":"西埔里","LIN":"1鄰","STREET":"西埔三街","SECT":" ","MAREA":" ","LANE":"７３巷","ALLEY":" ","HOUSE_NO":"１１號","E_COORD97":176841.14857600001,"N_COORD97":2543935.9744299999,"ADDRESS":"西埔三街７３巷１１號","OBJECTID":260240},"geometry":{"x":176841.14857599977,"y":2543935.9744300023}},{"attributes":{"ID":260245,"DIS_CODE":0,"TOWNNAME":"仁德區","LI":"大甲里","LIN":"4鄰","STREET":"行大街","SECT":" ","MAREA":" ","LANE":"２８５巷","ALLEY":" ","HOUSE_NO":"１號","E_COORD97":169754.29594000001,"N_COORD97":2535117.3495299998,"ADDRESS":"行大街２８５巷１號","OBJECTID":260241},"geometry":{"x":169754.2959399987,"y":2535117.3495300002}},{"attributes":{"ID":260246,"DIS_CODE":0,"TOWNNAME":"安南區","LI":"海西里","LIN":"5鄰","STREET":"海中街","SECT":" ","MAREA":" ","LANE":"１２１巷","ALLEY":" ","HOUSE_NO":"４６號","E_COORD97":166295.23645600001,"N_COORD97":2548958.7705600001,"ADDRESS":"海中街１２１巷４６號","OBJECTID":260242},"geometry":{"x":166295.23645600118,"y":2548958.770556001}},{"attributes":{"ID":260247,"DIS_CODE":0,"TOWNNAME":"安南區","LI":"海西里","LIN":"5鄰","STREET":"海中街","SECT":" ","MAREA":" ","LANE":"１２１巷","ALLEY":" ","HOUSE_NO":"８６號","E_COORD97":166228.54054700001,"N_COORD97":2548967.0255499999,"ADDRESS":"海中街１２１巷８６號","OBJECTID":260243},"geometry":{"x":166228.54054700118,"y":2548967.0255510006}},{"attributes":{"ID":260248,"DIS_CODE":0,"TOWNNAME":"仁德區","LI":"仁義里","LIN":"1鄰","STREET":"義林路","SECT":" ","MAREA":" ","LANE":"１６８巷","ALLEY":" ","HOUSE_NO":"８７號","E_COORD97":174627.71534600001,"N_COORD97":2540882.0962299998,"ADDRESS":"義林路１６８巷８７號","OBJECTID":260244},"geometry":{"x":174627.71534600109,"y":2540882.0962319989}},{"attributes":{"ID":260249,"DIS_CODE":0,"TOWNNAME":"仁德區","LI":"上崙里","LIN":"20鄰","STREET":"上崙街","SECT":" ","MAREA":" ","LANE":"５６巷","ALLEY":" ","HOUSE_NO":"７號","E_COORD97":173797.16815099999,"N_COORD97":2538000.9365300001,"ADDRESS":"上崙街５６巷７號","OBJECTID":260245},"geometry":{"x":173797.16815099958,"y":2538000.9365260024}},{"attributes":{"ID":260250,"DIS_CODE":0,"TOWNNAME":"仁德區","LI":"上崙里","LIN":"1鄰","STREET":"上崙一街","SECT":" ","MAREA":" ","LANE":"５６巷","ALLEY":" ","HOUSE_NO":"９號","E_COORD97":173791.87134400001,"N_COORD97":2538000.0898600002,"ADDRESS":"上崙一街５６巷９號","OBJECTID":260246},"geometry":{"x":173791.87134400103,"y":2538000.0898599997}},{"attributes":{"ID":260251,"DIS_CODE":0,"TOWNNAME":"仁德區","LI":"上崙里","LIN":"20鄰","STREET":"上崙一街","SECT":" ","MAREA":" ","LANE":"５６巷","ALLEY":" ","HOUSE_NO":"１１號","E_COORD97":173787.84577099999,"N_COORD97":2537999.0315299998,"ADDRESS":"上崙一街５６巷１１號","OBJECTID":260247},"geometry":{"x":173787.84577100072,"y":2537999.0315270014}},{"attributes":{"ID":260252,"DIS_CODE":0,"TOWNNAME":"仁德區","LI":"上崙里","LIN":"20鄰","STREET":"上崙一街","SECT":" ","MAREA":" ","LANE":"５６巷","ALLEY":" ","HOUSE_NO":"１３號","E_COORD97":173782.97270899999,"N_COORD97":2537997.9731899998,"ADDRESS":"上崙一街５６巷１３號","OBJECTID":260248},"geometry":{"x":173782.97270900011,"y":2537997.9731939994}},{"attributes":{"ID":260253,"DIS_CODE":0,"TOWNNAME":"仁德區","LI":"仁愛里","LIN":"25鄰","STREET":"保仁路","SECT":" ","MAREA":" ","LANE":"２９３巷","ALLEY":" ","HOUSE_NO":"２０號","E_COORD97":169827.42608100001,"N_COORD97":2540023.95407,"ADDRESS":"保仁路２９３巷２０號","OBJECTID":260249},"geometry":{"x":169827.4260809999,"y":2540023.9540730007}},{"attributes":{"ID":260254,"DIS_CODE":0,"TOWNNAME":"安南區","LI":"州北里","LIN":"8鄰","STREET":"長和路","SECT":"三段","MAREA":" ","LANE":"１３６巷","ALLEY":" ","HOUSE_NO":"２號","E_COORD97":169542.29353600001,"N_COORD97":2551580.6241299999,"ADDRESS":"長和路三段１３６巷２號","OBJECTID":260250},"geometry":{"x":169542.29353599995,"y":2551580.6241300013}},{"attributes":{"ID":260255,"DIS_CODE":0,"TOWNNAME":"安南區","LI":"州北里","LIN":"8鄰","STREET":"長和路","SECT":"三段","MAREA":" ","LANE":"１３６巷","ALLEY":" ","HOUSE_NO":"６號","E_COORD97":169539.11610499999,"N_COORD97":2551586.3391300002,"ADDRESS":"長和路三段１３６巷６號","OBJECTID":260251},"geometry":{"x":169539.11610500049,"y":2551586.3391270004}},{"attributes":{"ID":260256,"DIS_CODE":0,"TOWNNAME":"安南區","LI":"大安里","LIN":"19鄰","STREET":"安通路","SECT":"五段","MAREA":" ","LANE":"２３０巷","ALLEY":" ","HOUSE_NO":"１１０號之１","E_COORD97":167781.68892799999,"N_COORD97":2548026.45193,"ADDRESS":"安通路五段２３０巷１１０號之１","OBJECTID":260252},"geometry":{"x":167781.6889279997,"y":2548026.4519270044}},{"attributes":{"ID":260257,"DIS_CODE":0,"TOWNNAME":"安南區","LI":"淵東里","LIN":"8鄰","STREET":"本原街","SECT":"三段","MAREA":" ","LANE":"３２１巷","ALLEY":" ","HOUSE_NO":"４７號","E_COORD97":165404.95167000001,"N_COORD97":2550204.26327,"ADDRESS":"本原街三段３２１巷４７號","OBJECTID":260253},"geometry":{"x":165404.95167000033,"y":2550204.2632700037}},{"attributes":{"ID":260258,"DIS_CODE":0,"TOWNNAME":"安南區","LI":"大安里","LIN":"19鄰","STREET":"安通路","SECT":"五段","MAREA":" ","LANE":"２３０巷","ALLEY":" ","HOUSE_NO":"２０５號","E_COORD97":167779.99506300001,"N_COORD97":2548088.25856,"ADDRESS":"安通路五段２３０巷２０５號","OBJECTID":260254},"geometry":{"x":167779.99506300222,"y":2548088.258561004}},{"attributes":{"ID":260259,"DIS_CODE":0,"TOWNNAME":"歸仁區","LI":"歸南里","LIN":"28鄰","STREET":"六甲八街","SECT":" ","MAREA":" ","LANE":"１９０巷","ALLEY":" ","HOUSE_NO":"８０號","E_COORD97":175493.071406,"N_COORD97":2539684.24456,"ADDRESS":"六甲八街１９０巷８０號","OBJECTID":260255},"geometry":{"x":175493.07140599936,"y":2539684.2445589993}},{"attributes":{"ID":260260,"DIS_CODE":0,"TOWNNAME":"六甲區","LI":"甲東里","LIN":"2鄰","STREET":"仁愛街","SECT":" ","MAREA":" ","LANE":"６０巷","ALLEY":" ","HOUSE_NO":"６號","E_COORD97":183981.93356,"N_COORD97":2570005.29207,"ADDRESS":"仁愛街６０巷６號","OBJECTID":260256},"geometry":{"x":183981.93356000166,"y":2570005.2920650002}},{"attributes":{"ID":260261,"DIS_CODE":0,"TOWNNAME":"永康區","LI":"復華里","LIN":"28鄰","STREET":"復華八街","SECT":" ","MAREA":" ","LANE":"４１巷","ALLEY":" ","HOUSE_NO":"２６號","E_COORD97":172677.840283,"N_COORD97":2546291.8803300001,"ADDRESS":"復華八街４１巷２６號","OBJECTID":260257},"geometry":{"x":172677.84028300177,"y":2546291.8803280033}},{"attributes":{"ID":260262,"DIS_CODE":0,"TOWNNAME":"安南區","LI":"淵東里","LIN":"3鄰","STREET":"本原街","SECT":"三段","MAREA":" ","LANE":"２３４巷","ALLEY":" ","HOUSE_NO":"３６號","E_COORD97":165335.92670700001,"N_COORD97":2550369.1515199998,"ADDRESS":"本原街三段２３４巷３６號","OBJECTID":260258},"geometry":{"x":165335.92670700047,"y":2550369.1515149996}},{"attributes":{"ID":260263,"DIS_CODE":0,"TOWNNAME":"新營區","LI":"新南里","LIN":"30鄰","STREET":"明清三街","SECT":" ","MAREA":" ","LANE":"２９巷","ALLEY":" ","HOUSE_NO":"９號","E_COORD97":178256.607265,"N_COORD97":2578804.9640100002,"ADDRESS":"明清三街２９巷９號","OBJECTID":260259},"geometry":{"x":178256.60726500023,"y":2578804.9640140031}},{"attributes":{"ID":260264,"DIS_CODE":0,"TOWNNAME":"關廟區","LI":"新光里","LIN":"3鄰","STREET":"新湖街","SECT":" ","MAREA":" ","LANE":"２１８巷","ALLEY":" ","HOUSE_NO":"９號","E_COORD97":183445.783345,"N_COORD97":2542462.6426900001,"ADDRESS":"新湖街２１８巷９號","OBJECTID":260260},"geometry":{"x":183445.78334499989,"y":2542462.642686002}},{"attributes":{"ID":260265,"DIS_CODE":0,"TOWNNAME":"關廟區","LI":"香洋里","LIN":"12鄰","STREET":"中央路","SECT":" ","MAREA":" ","LANE":"１７３巷","ALLEY":" ","HOUSE_NO":"３號","E_COORD97":181239.65361499999,"N_COORD97":2540026.7804999999,"ADDRESS":"中央路１７３巷３號","OBJECTID":260261},"geometry":{"x":181239.65361499973,"y":2540026.780499002}},{"attributes":{"ID":260266,"DIS_CODE":0,"TOWNNAME":"新營區","LI":"新南里","LIN":"30鄰","STREET":"明清三街","SECT":" ","MAREA":" ","LANE":"２９巷","ALLEY":" ","HOUSE_NO":"１１號","E_COORD97":178256.37222600001,"N_COORD97":2578802.55963,"ADDRESS":"明清三街２９巷１１號","OBJECTID":260262},"geometry":{"x":178256.37222599983,"y":2578802.5596319996}},{"attributes":{"ID":260267,"DIS_CODE":0,"TOWNNAME":"仁德區","LI":"大甲里","LIN":"6鄰","STREET":"行大街","SECT":" ","MAREA":" ","LANE":"３０７巷","ALLEY":" ","HOUSE_NO":"１號","E_COORD97":169715.603011,"N_COORD97":2535142.1145199998,"ADDRESS":"行大街３０７巷１號","OBJECTID":260263},"geometry":{"x":169715.60301099997,"y":2535142.1145200022}},{"attributes":{"ID":260268,"DIS_CODE":0,"TOWNNAME":"新營區","LI":"新南里","LIN":"30鄰","STREET":"明清三街","SECT":" ","MAREA":" ","LANE":"２９巷","ALLEY":" ","HOUSE_NO":"１３號","E_COORD97":178255.52469699999,"N_COORD97":2578800.4429700002,"ADDRESS":"明清三街２９巷１３號","OBJECTID":260264},"geometry":{"x":178255.52469700016,"y":2578800.4429669995}},{"attributes":{"ID":260269,"DIS_CODE":0,"TOWNNAME":"仁德區","LI":"大甲里","LIN":"7鄰","STREET":"行大街","SECT":" ","MAREA":" ","LANE":"３０７巷","ALLEY":" ","HOUSE_NO":"４９號","E_COORD97":169672.57553,"N_COORD97":2535074.1695599998,"ADDRESS":"行大街３０７巷４９號","OBJECTID":260265},"geometry":{"x":169672.57553000096,"y":2535074.1695569996}},{"attributes":{"ID":260270,"DIS_CODE":0,"TOWNNAME":"新市區","LI":"新和里","LIN":"29鄰","STREET":"光華街","SECT":" ","MAREA":" ","LANE":"８９巷","ALLEY":" ","HOUSE_NO":"１號","E_COORD97":177851.60281499999,"N_COORD97":2552822.3768500001,"ADDRESS":"光華街８９巷１號","OBJECTID":260266},"geometry":{"x":177851.60281500127,"y":2552822.3768459987}},{"attributes":{"ID":260271,"DIS_CODE":0,"TOWNNAME":"關廟區","LI":"新光里","LIN":"4鄰","STREET":"新湖街","SECT":" ","MAREA":" ","LANE":"３７巷","ALLEY":" ","HOUSE_NO":"３１號","E_COORD97":183581.01999999999,"N_COORD97":2541550.25,"ADDRESS":"新湖街３７巷３１號","OBJECTID":260267},"geometry":{"x":183581.01999999955,"y":2541550.25}},{"attributes":{"ID":260272,"DIS_CODE":0,"TOWNNAME":"歸仁區","LI":"武東里","LIN":"16鄰","STREET":"中正南路","SECT":"二段","MAREA":" ","LANE":"２巷","ALLEY":" ","HOUSE_NO":"１２號","E_COORD97":175707.030352,"N_COORD97":2536989.8655300001,"ADDRESS":"中正南路二段２巷１２號","OBJECTID":260268},"geometry":{"x":175707.03035200015,"y":2536989.8655259982}},{"attributes":{"ID":260273,"DIS_CODE":0,"TOWNNAME":"仁德區","LI":"大甲里","LIN":"10鄰","STREET":"行大街","SECT":" ","MAREA":" ","LANE":"３０７巷","ALLEY":" ","HOUSE_NO":"７８號","E_COORD97":169659.75206900001,"N_COORD97":2535143.4903500001,"ADDRESS":"行大街３０７巷７８號","OBJECTID":260269},"geometry":{"x":169659.75206900015,"y":2535143.4903530013}},{"attributes":{"ID":260274,"DIS_CODE":0,"TOWNNAME":"關廟區","LI":"新光里","LIN":"4鄰","STREET":"新湖街","SECT":" ","MAREA":" ","LANE":"８６巷","ALLEY":" ","HOUSE_NO":"１２號","E_COORD97":183585.73467400001,"N_COORD97":2541672.5451500001,"ADDRESS":"新湖街８６巷１２號","OBJECTID":260270},"geometry":{"x":183585.73467400018,"y":2541672.5451490022}},{"attributes":{"ID":260275,"DIS_CODE":0,"TOWNNAME":"關廟區","LI":"新光里","LIN":"4鄰","STREET":"新湖街","SECT":" ","MAREA":" ","LANE":"３７巷","ALLEY":" ","HOUSE_NO":"２７號","E_COORD97":183599.082627,"N_COORD97":2541552.53021,"ADDRESS":"新湖街３７巷２７號","OBJECTID":260271},"geometry":{"x":183599.08262700215,"y":2541552.5302140005}},{"attributes":{"ID":260276,"DIS_CODE":0,"TOWNNAME":"仁德區","LI":"大甲里","LIN":"10鄰","STREET":"行大街","SECT":" ","MAREA":" ","LANE":"３０７巷","ALLEY":" ","HOUSE_NO":"６８之１號","E_COORD97":169615.54822200001,"N_COORD97":2535084.1178899999,"ADDRESS":"行大街３０７巷６８之１號","OBJECTID":260272},"geometry":{"x":169615.54822199978,"y":2535084.117885001}},{"attributes":{"ID":260277,"DIS_CODE":0,"TOWNNAME":"仁德區","LI":"仁愛里","LIN":"26鄰","STREET":"大同路","SECT":"三段","MAREA":" ","LANE":"３５８巷","ALLEY":" ","HOUSE_NO":"３５號","E_COORD97":169734.10500000001,"N_COORD97":2539376.7362000002,"ADDRESS":"大同路三段３５８巷３５號","OBJECTID":260273},"geometry":{"x":169734.10500000138,"y":2539376.7362000048}},{"attributes":{"ID":260278,"DIS_CODE":0,"TOWNNAME":"新營區","LI":"新南里","LIN":"23鄰","STREET":"復興路","SECT":" ","MAREA":" ","LANE":"６２０巷","ALLEY":" ","HOUSE_NO":"１７號","E_COORD97":178028.66338799999,"N_COORD97":2578411.52881,"ADDRESS":"復興路６２０巷１７號","OBJECTID":260274},"geometry":{"x":178028.6633880008,"y":2578411.5288100019}},{"attributes":{"ID":260279,"DIS_CODE":0,"TOWNNAME":"新營區","LI":"新南里","LIN":"23鄰","STREET":"復興路","SECT":" ","MAREA":" ","LANE":"６２０巷","ALLEY":" ","HOUSE_NO":"１９號","E_COORD97":178029.510916,"N_COORD97":2578415.3388100001,"ADDRESS":"復興路６２０巷１９號","OBJECTID":260275},"geometry":{"x":178029.51091600116,"y":2578415.338808002}},{"attributes":{"ID":260280,"DIS_CODE":0,"TOWNNAME":"新營區","LI":"新南里","LIN":"23鄰","STREET":"復興路","SECT":" ","MAREA":" ","LANE":"６２０巷","ALLEY":" ","HOUSE_NO":"２１號","E_COORD97":178030.570328,"N_COORD97":2578418.3021399998,"ADDRESS":"復興路６２０巷２１號","OBJECTID":260276},"geometry":{"x":178030.57032800186,"y":2578418.3021399993}},{"attributes":{"ID":260281,"DIS_CODE":0,"TOWNNAME":"關廟區","LI":"新光里","LIN":"4鄰","STREET":"新湖街","SECT":" ","MAREA":" ","LANE":"３７巷","ALLEY":" ","HOUSE_NO":"３５號","E_COORD97":183559.88625899999,"N_COORD97":2541542.1585499998,"ADDRESS":"新湖街３７巷３５號","OBJECTID":260277},"geometry":{"x":183559.88625899982,"y":2541542.1585530005}},{"attributes":{"ID":260282,"DIS_CODE":0,"TOWNNAME":"新營區","LI":"新南里","LIN":"23鄰","STREET":"復興路","SECT":" ","MAREA":" ","LANE":"６２０巷","ALLEY":" ","HOUSE_NO":"２３號","E_COORD97":178032.053503,"N_COORD97":2578421.9004700002,"ADDRESS":"復興路６２０巷２３號","OBJECTID":260278},"geometry":{"x":178032.05350300204,"y":2578421.9004710019}},{"attributes":{"ID":260283,"DIS_CODE":0,"TOWNNAME":"關廟區","LI":"新光里","LIN":"4鄰","STREET":"新湖街","SECT":" ","MAREA":" ","LANE":"３７巷","ALLEY":" ","HOUSE_NO":"１１號","E_COORD97":183667.75205099999,"N_COORD97":2541516.31244,"ADDRESS":"新湖街３７巷１１號","OBJECTID":260279},"geometry":{"x":183667.75205100048,"y":2541516.312442001}},{"attributes":{"ID":260284,"DIS_CODE":0,"TOWNNAME":"仁德區","LI":"太子里","LIN":"14鄰","STREET":"長興路","SECT":" ","MAREA":" ","LANE":"８７巷","ALLEY":" ","HOUSE_NO":"７之７號","E_COORD97":174105.90623600001,"N_COORD97":2543760.6088800002,"ADDRESS":"長興路８７巷７之７號","OBJECTID":260280},"geometry":{"x":174105.90623600129,"y":2543760.6088830009}},{"attributes":{"ID":260285,"DIS_CODE":0,"TOWNNAME":"安南區","LI":"州北里","LIN":"14鄰","STREET":"安和路","SECT":"五段","MAREA":" ","LANE":"１７８巷","ALLEY":" ","HOUSE_NO":"５號之５","E_COORD97":169897.08149099999,"N_COORD97":2551887.93885,"ADDRESS":"安和路五段１７８巷５號之５","OBJECTID":260281},"geometry":{"x":169897.08149100095,"y":2551887.9388510026}},{"attributes":{"ID":260286,"DIS_CODE":0,"TOWNNAME":"下營區","LI":"新興里","LIN":"16鄰","STREET":"寮前一街","SECT":" ","MAREA":" ","LANE":"４６巷","ALLEY":" ","HOUSE_NO":"９號","E_COORD97":175374.67202699999,"N_COORD97":2570390.7361900001,"ADDRESS":"寮前一街４６巷９號","OBJECTID":260282},"geometry":{"x":175374.67202700023,"y":2570390.7361870017}},{"attributes":{"ID":260287,"DIS_CODE":0,"TOWNNAME":"仁德區","LI":"太子里","LIN":"14鄰","STREET":"長興路","SECT":" ","MAREA":" ","LANE":"８７巷","ALLEY":" ","HOUSE_NO":"７號","E_COORD97":174115.64774799999,"N_COORD97":2543801.4605299998,"ADDRESS":"長興路８７巷７號","OBJECTID":260283},"geometry":{"x":174115.64774799906,"y":2543801.4605270009}},{"attributes":{"ID":260288,"DIS_CODE":0,"TOWNNAME":"仁德區","LI":"太子里","LIN":"14鄰","STREET":"長興路","SECT":" ","MAREA":" ","LANE":"８７巷","ALLEY":" ","HOUSE_NO":"７之１號","E_COORD97":174114.37711599999,"N_COORD97":2543796.8038599999,"ADDRESS":"長興路８７巷７之１號","OBJECTID":260284},"geometry":{"x":174114.37711600028,"y":2543796.8038630001}},{"attributes":{"ID":260289,"DIS_CODE":0,"TOWNNAME":"仁德區","LI":"太子里","LIN":"14鄰","STREET":"長興路","SECT":" ","MAREA":" ","LANE":"８７巷","ALLEY":" ","HOUSE_NO":"７之２號","E_COORD97":174113.74179999999,"N_COORD97":2543792.5705300001,"ADDRESS":"長興路８７巷７之２號","OBJECTID":260285},"geometry":{"x":174113.74180000089,"y":2543792.5705320016}},{"attributes":{"ID":260290,"DIS_CODE":0,"TOWNNAME":"仁德區","LI":"太子里","LIN":"14鄰","STREET":"長興路","SECT":" ","MAREA":" ","LANE":"８７巷","ALLEY":" ","HOUSE_NO":"７之３號","E_COORD97":174112.47116799999,"N_COORD97":2543786.2205400001,"ADDRESS":"長興路８７巷７之３號","OBJECTID":260286},"geometry":{"x":174112.47116800025,"y":2543786.2205360029}},{"attributes":{"ID":260291,"DIS_CODE":0,"TOWNNAME":"仁德區","LI":"太子里","LIN":"14鄰","STREET":"長興路","SECT":" ","MAREA":" ","LANE":"８７巷","ALLEY":" ","HOUSE_NO":"７之５號","E_COORD97":174108.65927199999,"N_COORD97":2543770.9805399999,"ADDRESS":"長興路８７巷７之５號","OBJECTID":260287},"geometry":{"x":174108.65927200112,"y":2543770.9805440009}},{"attributes":{"ID":260292,"DIS_CODE":0,"TOWNNAME":"仁德區","LI":"太子里","LIN":"14鄰","STREET":"長興路","SECT":" ","MAREA":" ","LANE":"８７巷","ALLEY":" ","HOUSE_NO":"７之６號","E_COORD97":174106.965096,"N_COORD97":2543765.9005499999,"ADDRESS":"長興路８７巷７之６號","OBJECTID":260288},"geometry":{"x":174106.96509600058,"y":2543765.9005470015}},{"attributes":{"ID":260293,"DIS_CODE":0,"TOWNNAME":"仁德區","LI":"太子里","LIN":"14鄰","STREET":"長興路","SECT":" ","MAREA":" ","LANE":"８７巷","ALLEY":" ","HOUSE_NO":"９號","E_COORD97":174105.48269199999,"N_COORD97":2543805.2705299999,"ADDRESS":"長興路８７巷９號","OBJECTID":260289},"geometry":{"x":174105.48269199952,"y":2543805.270525001}},{"attributes":{"ID":260294,"DIS_CODE":0,"TOWNNAME":"仁德區","LI":"太子里","LIN":"14鄰","STREET":"長興路","SECT":" ","MAREA":" ","LANE":"８７巷","ALLEY":" ","HOUSE_NO":"９之１號","E_COORD97":174104.423832,"N_COORD97":2543798.7088600001,"ADDRESS":"長興路８７巷９之１號","OBJECTID":260290},"geometry":{"x":174104.42383200023,"y":2543798.7088619992}},{"attributes":{"ID":260295,"DIS_CODE":0,"TOWNNAME":"仁德區","LI":"太子里","LIN":"14鄰","STREET":"長興路","SECT":" ","MAREA":" ","LANE":"８７巷","ALLEY":" ","HOUSE_NO":"９之２號","E_COORD97":174103.57674399999,"N_COORD97":2543793.6288600001,"ADDRESS":"長興路８７巷９之２號","OBJECTID":260291},"geometry":{"x":174103.57674400136,"y":2543793.6288649999}},{"attributes":{"ID":260296,"DIS_CODE":0,"TOWNNAME":"仁德區","LI":"太子里","LIN":"14鄰","STREET":"長興路","SECT":" ","MAREA":" ","LANE":"８７巷","ALLEY":" ","HOUSE_NO":"９之３號","E_COORD97":174102.72965600001,"N_COORD97":2543788.7605300001,"ADDRESS":"長興路８７巷９之３號","OBJECTID":260292},"geometry":{"x":174102.72965599969,"y":2543788.7605340034}},{"attributes":{"ID":260297,"DIS_CODE":0,"TOWNNAME":"仁德區","LI":"太子里","LIN":"14鄰","STREET":"長興路","SECT":" ","MAREA":" ","LANE":"８７巷","ALLEY":" ","HOUSE_NO":"９之５號","E_COORD97":174101.45902400001,"N_COORD97":2543783.46887,"ADDRESS":"長興路８７巷９之５號","OBJECTID":260293},"geometry":{"x":174101.45902400091,"y":2543783.4688710012}},{"attributes":{"ID":260298,"DIS_CODE":0,"TOWNNAME":"仁德區","LI":"太子里","LIN":"14鄰","STREET":"長興路","SECT":" ","MAREA":" ","LANE":"８７巷","ALLEY":" ","HOUSE_NO":"９之７號","E_COORD97":174095.10586400001,"N_COORD97":2543763.3605499999,"ADDRESS":"長興路８７巷９之７號","OBJECTID":260294},"geometry":{"x":174095.10586399958,"y":2543763.3605480026}},{"attributes":{"ID":260299,"DIS_CODE":0,"TOWNNAME":"仁德區","LI":"太子里","LIN":"14鄰","STREET":"長興路","SECT":" ","MAREA":" ","LANE":"８７巷","ALLEY":" ","HOUSE_NO":"９之８號","E_COORD97":174094.04700399999,"N_COORD97":2543758.7038799999,"ADDRESS":"長興路８７巷９之８號","OBJECTID":260295},"geometry":{"x":174094.04700400028,"y":2543758.7038840018}},{"attributes":{"ID":260300,"DIS_CODE":0,"TOWNNAME":"仁德區","LI":"太子里","LIN":"14鄰","STREET":"長興路","SECT":" ","MAREA":" ","LANE":"８７巷","ALLEY":" ","HOUSE_NO":"９之９號","E_COORD97":174092.56460000001,"N_COORD97":2543754.0472200001,"ADDRESS":"長興路８７巷９之９號","OBJECTID":260296},"geometry":{"x":174092.56459999923,"y":2543754.047220001}},{"attributes":{"ID":260301,"DIS_CODE":0,"TOWNNAME":"仁德區","LI":"太子里","LIN":"14鄰","STREET":"長興路","SECT":" ","MAREA":" ","LANE":"８７巷","ALLEY":" ","HOUSE_NO":"９之１０號","E_COORD97":174091.717512,"N_COORD97":2543747.9088900001,"ADDRESS":"長興路８７巷９之１０號","OBJECTID":260297},"geometry":{"x":174091.71751200035,"y":2543747.9088899996}},{"attributes":{"ID":260302,"DIS_CODE":0,"TOWNNAME":"安南區","LI":"頂安里","LIN":"18鄰","STREET":"怡安路","SECT":"一段","MAREA":" ","LANE":"４４７巷","ALLEY":" ","HOUSE_NO":"２３號之１","E_COORD97":168523.831405,"N_COORD97":2549157.0065199998,"ADDRESS":"怡安路一段４４７巷２３號之１","OBJECTID":260298},"geometry":{"x":168523.83140500076,"y":2549157.0065150019}},{"attributes":{"ID":260303,"DIS_CODE":0,"TOWNNAME":"安南區","LI":"頂安里","LIN":"7鄰","STREET":"怡安路","SECT":"一段","MAREA":" ","LANE":"３８４巷","ALLEY":" ","HOUSE_NO":"２５號之１","E_COORD97":168719.889386,"N_COORD97":2549228.7614799999,"ADDRESS":"怡安路一段３８４巷２５號之１","OBJECTID":260299},"geometry":{"x":168719.88938600104,"y":2549228.7614759989}},{"attributes":{"ID":260304,"DIS_CODE":0,"TOWNNAME":"安南區","LI":"頂安里","LIN":"4鄰","STREET":"長溪路","SECT":"一段","MAREA":" ","LANE":"４７６巷","ALLEY":" ","HOUSE_NO":"１３號","E_COORD97":168528.45018399999,"N_COORD97":2549073.7157299998,"ADDRESS":"長溪路一段４７６巷１３號","OBJECTID":260300},"geometry":{"x":168528.45018399972,"y":2549073.7157270014}},{"attributes":{"ID":260305,"DIS_CODE":0,"TOWNNAME":"安南區","LI":"頂安里","LIN":"4鄰","STREET":"長溪路","SECT":"一段","MAREA":" ","LANE":"４９０巷","ALLEY":" ","HOUSE_NO":"５號","E_COORD97":168477.36913199999,"N_COORD97":2549113.5090399999,"ADDRESS":"長溪路一段４９０巷５號","OBJECTID":260301},"geometry":{"x":168477.36913200002,"y":2549113.5090379994}},{"attributes":{"ID":260306,"DIS_CODE":0,"TOWNNAME":"中西區","LI":"藥王里","LIN":"3鄰","STREET":"大福街","SECT":" ","MAREA":" ","LANE":"３９巷","ALLEY":" ","HOUSE_NO":"１５號","E_COORD97":167280.82868100001,"N_COORD97":2544423.31311,"ADDRESS":"大福街３９巷１５號","OBJECTID":260302},"geometry":{"x":167280.82868099958,"y":2544423.3131120037}},{"attributes":{"ID":260307,"DIS_CODE":0,"TOWNNAME":"中西區","LI":"藥王里","LIN":"3鄰","STREET":"大福街","SECT":" ","MAREA":" ","LANE":"３９巷","ALLEY":" ","HOUSE_NO":"１３號","E_COORD97":167283.79492700001,"N_COORD97":2544423.31311,"ADDRESS":"大福街３９巷１３號","OBJECTID":260303},"geometry":{"x":167283.794927001,"y":2544423.3131120037}},{"attributes":{"ID":260308,"DIS_CODE":0,"TOWNNAME":"中西區","LI":"藥王里","LIN":"3鄰","STREET":"大福街","SECT":" ","MAREA":" ","LANE":"３９巷","ALLEY":" ","HOUSE_NO":"７號","E_COORD97":167296.50740999999,"N_COORD97":2544415.0581200002,"ADDRESS":"大福街３９巷７號","OBJECTID":260304},"geometry":{"x":167296.50741000101,"y":2544415.0581160001}},{"attributes":{"ID":260309,"DIS_CODE":0,"TOWNNAME":"中西區","LI":"藥王里","LIN":"3鄰","STREET":"大福街","SECT":" ","MAREA":" ","LANE":"３９巷","ALLEY":" ","HOUSE_NO":"５號","E_COORD97":167300.74490399999,"N_COORD97":2544413.9997800002,"ADDRESS":"大福街３９巷５號","OBJECTID":260305},"geometry":{"x":167300.74490400031,"y":2544413.9997830018}},{"attributes":{"ID":260310,"DIS_CODE":0,"TOWNNAME":"安南區","LI":"頂安里","LIN":"20鄰","STREET":"長溪路","SECT":"一段","MAREA":" ","LANE":"４０７巷","ALLEY":" ","HOUSE_NO":"５５號之１","E_COORD97":168540.107686,"N_COORD97":2548764.1533900001,"ADDRESS":"長溪路一段４０７巷５５號之１","OBJECTID":260306},"geometry":{"x":168540.10768599994,"y":2548764.1533940043}},{"attributes":{"ID":260311,"DIS_CODE":0,"TOWNNAME":"安南區","LI":"頂安里","LIN":"1鄰","STREET":"長溪路","SECT":"一段","MAREA":" ","LANE":"４０６巷","ALLEY":" ","HOUSE_NO":"５號之１","E_COORD97":168619.37869700001,"N_COORD97":2548964.81329,"ADDRESS":"長溪路一段４０６巷５號之１","OBJECTID":260307},"geometry":{"x":168619.37869700044,"y":2548964.8132850006}},{"attributes":{"ID":260312,"DIS_CODE":0,"TOWNNAME":"南區","LI":"郡南里","LIN":"10鄰","STREET":"永成路","SECT":"三段","MAREA":" ","LANE":"１２１巷","ALLEY":" ","HOUSE_NO":"６８號","E_COORD97":167352.756612,"N_COORD97":2540692.85971,"ADDRESS":"永成路三段１２１巷６８號","OBJECTID":260308},"geometry":{"x":167352.75661199912,"y":2540692.8597150017}},{"attributes":{"ID":260313,"DIS_CODE":0,"TOWNNAME":"南區","LI":"郡南里","LIN":"10鄰","STREET":"永成路","SECT":"三段","MAREA":" ","LANE":"１２１巷","ALLEY":" ","HOUSE_NO":"７０號","E_COORD97":167352.49189500001,"N_COORD97":2540689.04972,"ADDRESS":"永成路三段１２１巷７０號","OBJECTID":260309},"geometry":{"x":167352.49189500138,"y":2540689.0497170035}},{"attributes":{"ID":260314,"DIS_CODE":0,"TOWNNAME":"南區","LI":"郡南里","LIN":"10鄰","STREET":"永成路","SECT":"三段","MAREA":" ","LANE":"１２１巷","ALLEY":" ","HOUSE_NO":"７２號","E_COORD97":167352.22717699999,"N_COORD97":2540685.2926400001,"ADDRESS":"永成路三段１２１巷７２號","OBJECTID":260310},"geometry":{"x":167352.22717700154,"y":2540685.2926360015}},{"attributes":{"ID":260315,"DIS_CODE":0,"TOWNNAME":"南區","LI":"郡南里","LIN":"10鄰","STREET":"永成路","SECT":"三段","MAREA":" ","LANE":"１２１巷","ALLEY":" ","HOUSE_NO":"７６號","E_COORD97":167352.174233,"N_COORD97":2540681.1651400002,"ADDRESS":"永成路三段１２１巷７６號","OBJECTID":260311},"geometry":{"x":167352.17423299979,"y":2540681.1651380006}},{"attributes":{"ID":260316,"DIS_CODE":0,"TOWNNAME":"六甲區","LI":"中社里","LIN":"22鄰","STREET":" ","SECT":" ","MAREA":"林鳳營","LANE":" ","ALLEY":" ","HOUSE_NO":"２６６號","E_COORD97":180461.34,"N_COORD97":2571099.9199999999,"ADDRESS":"林鳳營２６６號","OBJECTID":260312},"geometry":{"x":180461.33999999985,"y":2571099.9199999999}},{"attributes":{"ID":260317,"DIS_CODE":0,"TOWNNAME":"六甲區","LI":"中社里","LIN":"22鄰","STREET":" ","SECT":" ","MAREA":"林鳳營","LANE":" ","ALLEY":" ","HOUSE_NO":"２６７號","E_COORD97":180461.67999999999,"N_COORD97":2571096.4900000002,"ADDRESS":"林鳳營２６７號","OBJECTID":260313},"geometry":{"x":180461.68000000063,"y":2571096.4899999984}},{"attributes":{"ID":260318,"DIS_CODE":0,"TOWNNAME":"南區","LI":"郡南里","LIN":"10鄰","STREET":"永成路","SECT":"三段","MAREA":" ","LANE":"１２１巷","ALLEY":" ","HOUSE_NO":"７８號","E_COORD97":167352.22717699999,"N_COORD97":2540677.30222,"ADDRESS":"永成路三段１２１巷７８號","OBJECTID":260314},"geometry":{"x":167352.22717700154,"y":2540677.3022230025}},{"attributes":{"ID":260319,"DIS_CODE":0,"TOWNNAME":"南區","LI":"郡南里","LIN":"10鄰","STREET":"永成路","SECT":"三段","MAREA":" ","LANE":"１２１巷","ALLEY":" ","HOUSE_NO":"８０號","E_COORD97":167351.90951600001,"N_COORD97":2540672.3280600002,"ADDRESS":"永成路三段１２１巷８０號","OBJECTID":260315},"geometry":{"x":167351.90951600112,"y":2540672.3280590009}},{"attributes":{"ID":260320,"DIS_CODE":0,"TOWNNAME":"南區","LI":"郡南里","LIN":"10鄰","STREET":"永成路","SECT":"三段","MAREA":" ","LANE":"１２１巷","ALLEY":" ","HOUSE_NO":"８２號","E_COORD97":167351.95752,"N_COORD97":2540667.4512399998,"ADDRESS":"永成路三段１２１巷８２號","OBJECTID":260316},"geometry":{"x":167351.95751999971,"y":2540667.451243002}},{"attributes":{"ID":260321,"DIS_CODE":0,"TOWNNAME":"南區","LI":"郡南里","LIN":"10鄰","STREET":"永成路","SECT":"三段","MAREA":" ","LANE":"１２１巷","ALLEY":" ","HOUSE_NO":"８６號","E_COORD97":167352.01046399999,"N_COORD97":2540663.4295800002,"ADDRESS":"永成路三段１２１巷８６號","OBJECTID":260317},"geometry":{"x":167352.01046400145,"y":2540663.4295790009}},{"attributes":{"ID":260322,"DIS_CODE":0,"TOWNNAME":"南區","LI":"郡南里","LIN":"10鄰","STREET":"永成路","SECT":"三段","MAREA":" ","LANE":"１２１巷","ALLEY":" ","HOUSE_NO":"８８號","E_COORD97":167351.745746,"N_COORD97":2540659.3020799998,"ADDRESS":"永成路三段１２１巷８８號","OBJECTID":260318},"geometry":{"x":167351.74574600067,"y":2540659.3020810001}},{"attributes":{"ID":260323,"DIS_CODE":0,"TOWNNAME":"南區","LI":"郡南里","LIN":"10鄰","STREET":"永成路","SECT":"三段","MAREA":" ","LANE":"１２１巷","ALLEY":" ","HOUSE_NO":"９０號","E_COORD97":167351.69280300001,"N_COORD97":2540655.1745799999,"ADDRESS":"永成路三段１２１巷９０號","OBJECTID":260319},"geometry":{"x":167351.69280300103,"y":2540655.1745829992}},{"attributes":{"ID":260324,"DIS_CODE":0,"TOWNNAME":"南區","LI":"郡南里","LIN":"10鄰","STREET":"永成路","SECT":"三段","MAREA":" ","LANE":"１２１巷","ALLEY":" ","HOUSE_NO":"９２號","E_COORD97":167351.48102800001,"N_COORD97":2540653.0579200001,"ADDRESS":"永成路三段１２１巷９２號","OBJECTID":260320},"geometry":{"x":167351.48102800082,"y":2540653.057918001}},{"attributes":{"ID":260325,"DIS_CODE":0,"TOWNNAME":"南區","LI":"郡南里","LIN":"10鄰","STREET":"永成路","SECT":"三段","MAREA":" ","LANE":"１２１巷","ALLEY":" ","HOUSE_NO":"９６號","E_COORD97":167351.05747999999,"N_COORD97":2540650.7825000002,"ADDRESS":"永成路三段１２１巷９６號","OBJECTID":260321},"geometry":{"x":167351.05747999996,"y":2540650.7825020012}},{"attributes":{"ID":260326,"DIS_CODE":0,"TOWNNAME":"南區","LI":"郡南里","LIN":"9鄰","STREET":"永成路","SECT":"三段","MAREA":" ","LANE":"１３７巷","ALLEY":" ","HOUSE_NO":"３０號","E_COORD97":167421.10175100001,"N_COORD97":2540759.2880699998,"ADDRESS":"永成路三段１３７巷３０號","OBJECTID":260322},"geometry":{"x":167421.10175099969,"y":2540759.2880690023}},{"attributes":{"ID":260327,"DIS_CODE":0,"TOWNNAME":"南區","LI":"郡南里","LIN":"9鄰","STREET":"永成路","SECT":"三段","MAREA":" ","LANE":"１３７巷","ALLEY":" ","HOUSE_NO":"２８號","E_COORD97":167429.46682599999,"N_COORD97":2540758.65307,"ADDRESS":"永成路三段１３７巷２８號","OBJECTID":260323},"geometry":{"x":167429.46682600025,"y":2540758.6530690026}},{"attributes":{"ID":260328,"DIS_CODE":0,"TOWNNAME":"南區","LI":"郡南里","LIN":"9鄰","STREET":"永成路","SECT":"三段","MAREA":" ","LANE":"１３７巷","ALLEY":" ","HOUSE_NO":"３８號","E_COORD97":167408.81885499999,"N_COORD97":2540760.6639,"ADDRESS":"永成路三段１３７巷３８號","OBJECTID":260324},"geometry":{"x":167408.81885499973,"y":2540760.6639010031}},{"attributes":{"ID":260329,"DIS_CODE":0,"TOWNNAME":"南區","LI":"郡南里","LIN":"9鄰","STREET":"永成路","SECT":"三段","MAREA":" ","LANE":"１３７巷","ALLEY":" ","HOUSE_NO":"４０號","E_COORD97":167408.60708099999,"N_COORD97":2540764.26223,"ADDRESS":"永成路三段１３７巷４０號","OBJECTID":260325},"geometry":{"x":167408.60708100069,"y":2540764.2622330002}},{"attributes":{"ID":260330,"DIS_CODE":0,"TOWNNAME":"南區","LI":"郡南里","LIN":"9鄰","STREET":"永成路","SECT":"三段","MAREA":" ","LANE":"１３７巷","ALLEY":" ","HOUSE_NO":"４６號","E_COORD97":167408.28941999999,"N_COORD97":2540773.1522300001,"ADDRESS":"永成路三段１３７巷４６號","OBJECTID":260326},"geometry":{"x":167408.28942000121,"y":2540773.1522279996}},{"attributes":{"ID":260331,"DIS_CODE":0,"TOWNNAME":"佳里區","LI":"鎮山里","LIN":"21鄰","STREET":"鎮山街","SECT":" ","MAREA":" ","LANE":"１３１巷","ALLEY":" ","HOUSE_NO":"３２號","E_COORD97":166296.09301000001,"N_COORD97":2560867.7957799998,"ADDRESS":"鎮山街１３１巷３２號","OBJECTID":260327},"geometry":{"x":166296.09300999995,"y":2560867.7957770005}},{"attributes":{"ID":260332,"DIS_CODE":0,"TOWNNAME":"佳里區","LI":"鎮山里","LIN":"22鄰","STREET":"鎮山街","SECT":" ","MAREA":" ","LANE":"１３１巷","ALLEY":" ","HOUSE_NO":"３號","E_COORD97":166326.082104,"N_COORD97":2560935.63491,"ADDRESS":"鎮山街１３１巷３號","OBJECTID":260328},"geometry":{"x":166326.08210400119,"y":2560935.6349070016}},{"attributes":{"ID":260333,"DIS_CODE":0,"TOWNNAME":"永康區","LI":"永康里","LIN":"31鄰","STREET":"永大路","SECT":"三段","MAREA":" ","LANE":"７８巷","ALLEY":" ","HOUSE_NO":"２１號","E_COORD97":174274.88226799999,"N_COORD97":2547763.7701900001,"ADDRESS":"永大路三段７８巷２１號","OBJECTID":260329},"geometry":{"x":174274.88226800039,"y":2547763.7701929994}},{"attributes":{"ID":260334,"DIS_CODE":0,"TOWNNAME":"佳里區","LI":"鎮山里","LIN":"23鄰","STREET":"佳南路","SECT":" ","MAREA":" ","LANE":"６１巷","ALLEY":" ","HOUSE_NO":"１號","E_COORD97":166412.764364,"N_COORD97":2561236.2014100002,"ADDRESS":"佳南路６１巷１號","OBJECTID":260330},"geometry":{"x":166412.76436400227,"y":2561236.2014119998}},{"attributes":{"ID":260335,"DIS_CODE":0,"TOWNNAME":"南區","LI":"郡南里","LIN":"8鄰","STREET":"永成路","SECT":"三段","MAREA":" ","LANE":"１５７巷","ALLEY":" ","HOUSE_NO":"１０號","E_COORD97":167455.19737400001,"N_COORD97":2540797.5997199998,"ADDRESS":"永成路三段１５７巷１０號","OBJECTID":260331},"geometry":{"x":167455.19737400115,"y":2540797.5997150019}},{"attributes":{"ID":260336,"DIS_CODE":0,"TOWNNAME":"安南區","LI":"東和里","LIN":"5鄰","STREET":"長和路","SECT":"一段","MAREA":" ","LANE":"８２３巷","ALLEY":" ","HOUSE_NO":"２６之１號","E_COORD97":170885.29894199999,"N_COORD97":2551339.4247099999,"ADDRESS":"長和路一段８２３巷２６之１號","OBJECTID":260332},"geometry":{"x":170885.29894200154,"y":2551339.4247090016}},{"attributes":{"ID":260337,"DIS_CODE":0,"TOWNNAME":"安南區","LI":"東和里","LIN":"4鄰","STREET":"長和路","SECT":"一段","MAREA":" ","LANE":"８２３巷","ALLEY":" ","HOUSE_NO":"９１號","E_COORD97":170858.18784699999,"N_COORD97":2551208.4031099998,"ADDRESS":"長和路一段８２３巷９１號","OBJECTID":260333},"geometry":{"x":170858.18784700148,"y":2551208.4031130001}},{"attributes":{"ID":260338,"DIS_CODE":0,"TOWNNAME":"南區","LI":"郡南里","LIN":"8鄰","STREET":"永成路","SECT":"三段","MAREA":" ","LANE":"１７７巷","ALLEY":" ","HOUSE_NO":"４２號","E_COORD97":167400.03023199999,"N_COORD97":2540832.2601100001,"ADDRESS":"永成路三段１７７巷４２號","OBJECTID":260334},"geometry":{"x":167400.0302320011,"y":2540832.2601130009}},{"attributes":{"ID":260339,"DIS_CODE":0,"TOWNNAME":"永康區","LI":"六合里","LIN":"8鄰","STREET":"新興街","SECT":" ","MAREA":" ","LANE":"３４巷","ALLEY":" ","HOUSE_NO":"７４號","E_COORD97":171058.112956,"N_COORD97":2545582.8499199999,"ADDRESS":"新興街３４巷７４號","OBJECTID":260335},"geometry":{"x":171058.11295599956,"y":2545582.8499180041}},{"attributes":{"ID":260340,"DIS_CODE":0,"TOWNNAME":"安南區","LI":"顯宮里","LIN":"2鄰","STREET":"媽祖宮一街","SECT":" ","MAREA":" ","LANE":"２巷","ALLEY":" ","HOUSE_NO":"８號","E_COORD97":160653.554748,"N_COORD97":2548829.6539599998,"ADDRESS":"媽祖宮一街２巷８號","OBJECTID":260336},"geometry":{"x":160653.55474799965,"y":2548829.6539590042}},{"attributes":{"ID":260341,"DIS_CODE":0,"TOWNNAME":"新營區","LI":"王公里","LIN":"27鄰","STREET":"民族路","SECT":" ","MAREA":" ","LANE":"３０８巷","ALLEY":" ","HOUSE_NO":"６０號","E_COORD97":180522.161383,"N_COORD97":2579734.0231599999,"ADDRESS":"民族路３０８巷６０號","OBJECTID":260337},"geometry":{"x":180522.16138299927,"y":2579734.0231619999}},{"attributes":{"ID":260342,"DIS_CODE":0,"TOWNNAME":"新營區","LI":"王公里","LIN":"27鄰","STREET":"民族路","SECT":" ","MAREA":" ","LANE":"３０８巷","ALLEY":" ","HOUSE_NO":"６２號","E_COORD97":180530.63667199999,"N_COORD97":2579740.7964900001,"ADDRESS":"民族路３０８巷６２號","OBJECTID":260338},"geometry":{"x":180530.63667200226,"y":2579740.796492001}},{"attributes":{"ID":260343,"DIS_CODE":0,"TOWNNAME":"新營區","LI":"王公里","LIN":"27鄰","STREET":"民族路","SECT":" ","MAREA":" ","LANE":"３０８巷","ALLEY":" ","HOUSE_NO":"６６號","E_COORD97":180535.086198,"N_COORD97":2579740.1614899999,"ADDRESS":"民族路３０８巷６６號","OBJECTID":260339},"geometry":{"x":180535.0861980021,"y":2579740.1614920013}},{"attributes":{"ID":260344,"DIS_CODE":0,"TOWNNAME":"新營區","LI":"王公里","LIN":"27鄰","STREET":"民族路","SECT":" ","MAREA":" ","LANE":"３０８巷","ALLEY":" ","HOUSE_NO":"６８號","E_COORD97":180539.53572499999,"N_COORD97":2579741.0081600002,"ADDRESS":"民族路３０８巷６８號","OBJECTID":260340},"geometry":{"x":180539.53572500125,"y":2579741.0081580039}},{"attributes":{"ID":260345,"DIS_CODE":0,"TOWNNAME":"新營區","LI":"王公里","LIN":"27鄰","STREET":"民族路","SECT":" ","MAREA":" ","LANE":"３０８巷","ALLEY":" ","HOUSE_NO":"７０號","E_COORD97":180543.13772299999,"N_COORD97":2579741.0081600002,"ADDRESS":"民族路３０８巷７０號","OBJECTID":260341},"geometry":{"x":180543.13772300072,"y":2579741.0081580039}},{"attributes":{"ID":260346,"DIS_CODE":0,"TOWNNAME":"關廟區","LI":"下湖里","LIN":"6鄰","STREET":"下湖二街","SECT":" ","MAREA":" ","LANE":"９６巷","ALLEY":" ","HOUSE_NO":"１１號","E_COORD97":179415.74970499999,"N_COORD97":2543210.73416,"ADDRESS":"下湖二街９６巷１１號","OBJECTID":260342},"geometry":{"x":179415.74970499985,"y":2543210.7341620028}},{"attributes":{"ID":260347,"DIS_CODE":0,"TOWNNAME":"關廟區","LI":"下湖里","LIN":"6鄰","STREET":"下湖二街","SECT":" ","MAREA":" ","LANE":"９６巷","ALLEY":" ","HOUSE_NO":"１７號","E_COORD97":179407.69693400001,"N_COORD97":2543234.6524800002,"ADDRESS":"下湖二街９６巷１７號","OBJECTID":260343},"geometry":{"x":179407.69693400059,"y":2543234.6524820011}},{"attributes":{"ID":260348,"DIS_CODE":0,"TOWNNAME":"六甲區","LI":"六甲里","LIN":"22鄰","STREET":"建國街","SECT":" ","MAREA":" ","LANE":" ","ALLEY":" ","HOUSE_NO":"８７號","E_COORD97":183706.37,"N_COORD97":2570111.8799999999,"ADDRESS":"建國街８７號","OBJECTID":260344},"geometry":{"x":183706.37000000011,"y":2570111.879999999}},{"attributes":{"ID":260349,"DIS_CODE":0,"TOWNNAME":"六甲區","LI":"六甲里","LIN":"22鄰","STREET":"建國街","SECT":" ","MAREA":" ","LANE":" ","ALLEY":" ","HOUSE_NO":"８９號","E_COORD97":183706.51000000001,"N_COORD97":2570115.3300000001,"ADDRESS":"建國街８９號","OBJECTID":260345},"geometry":{"x":183706.50999999978,"y":2570115.3300000019}},{"attributes":{"ID":260350,"DIS_CODE":0,"TOWNNAME":"關廟區","LI":"龜洞里","LIN":"4鄰","STREET":"中崙街","SECT":" ","MAREA":" ","LANE":"１１巷","ALLEY":" ","HOUSE_NO":"４５號","E_COORD97":183223.59935900001,"N_COORD97":2533483.6663199998,"ADDRESS":"中崙街１１巷４５號","OBJECTID":260346},"geometry":{"x":183223.5993590001,"y":2533483.6663240045}},{"attributes":{"ID":260351,"DIS_CODE":0,"TOWNNAME":"新營區","LI":"王公里","LIN":"27鄰","STREET":"民族路","SECT":" ","MAREA":" ","LANE":"２６８巷","ALLEY":" ","HOUSE_NO":"１７號","E_COORD97":180445.03625400001,"N_COORD97":2579602.3897000002,"ADDRESS":"民族路２６８巷１７號","OBJECTID":260347},"geometry":{"x":180445.03625399992,"y":2579602.3896999992}},{"attributes":{"ID":260352,"DIS_CODE":0,"TOWNNAME":"新營區","LI":"王公里","LIN":"30鄰","STREET":"民族路","SECT":" ","MAREA":" ","LANE":"２６８巷","ALLEY":" ","HOUSE_NO":"５號","E_COORD97":180439.95108100001,"N_COORD97":2579573.3913799999,"ADDRESS":"民族路２６８巷５號","OBJECTID":260348},"geometry":{"x":180439.95108100027,"y":2579573.3913820013}},{"attributes":{"ID":260353,"DIS_CODE":0,"TOWNNAME":"新營區","LI":"王公里","LIN":"30鄰","STREET":"民族路","SECT":" ","MAREA":" ","LANE":"２６８巷","ALLEY":" ","HOUSE_NO":"７號","E_COORD97":180446.94319399999,"N_COORD97":2579573.3913799999,"ADDRESS":"民族路２６８巷７號","OBJECTID":260349},"geometry":{"x":180446.94319400005,"y":2579573.3913820013}},{"attributes":{"ID":260354,"DIS_CODE":0,"TOWNNAME":"新營區","LI":"王公里","LIN":"30鄰","STREET":"民族路","SECT":" ","MAREA":" ","LANE":"２６８巷","ALLEY":" ","HOUSE_NO":"９號","E_COORD97":180452.45213200001,"N_COORD97":2579572.9680499998,"ADDRESS":"民族路２６８巷９號","OBJECTID":260350},"geometry":{"x":180452.45213200059,"y":2579572.9680490028}},{"attributes":{"ID":260355,"DIS_CODE":0,"TOWNNAME":"新營區","LI":"王公里","LIN":"30鄰","STREET":"民族路","SECT":" ","MAREA":" ","LANE":"２６８巷","ALLEY":" ","HOUSE_NO":"１１號","E_COORD97":180456.901659,"N_COORD97":2579572.7563800002,"ADDRESS":"民族路２６８巷１１號","OBJECTID":260351},"geometry":{"x":180456.90165899973,"y":2579572.7563830018}},{"attributes":{"ID":260356,"DIS_CODE":0,"TOWNNAME":"新營區","LI":"王公里","LIN":"30鄰","STREET":"民族路","SECT":" ","MAREA":" ","LANE":"２６８巷","ALLEY":" ","HOUSE_NO":"１３號","E_COORD97":180462.198714,"N_COORD97":2579572.2685699998,"ADDRESS":"民族路２６８巷１３號","OBJECTID":260352},"geometry":{"x":180462.1987140011,"y":2579572.2685660031}},{"attributes":{"ID":260357,"DIS_CODE":0,"TOWNNAME":"中西區","LI":"萬昌里","LIN":"23鄰","STREET":"青年路","SECT":" ","MAREA":" ","LANE":"２２６巷","ALLEY":" ","HOUSE_NO":"５５號之２","E_COORD97":169130.09645000001,"N_COORD97":2543458.9524500002,"ADDRESS":"青年路２２６巷５５號之２","OBJECTID":260353},"geometry":{"x":169130.09645000007,"y":2543458.9524499997}},{"attributes":{"ID":260358,"DIS_CODE":0,"TOWNNAME":"關廟區","LI":"龜洞里","LIN":"4鄰","STREET":"中崙街","SECT":" ","MAREA":" ","LANE":"１１巷","ALLEY":" ","HOUSE_NO":"３１號","E_COORD97":183290.935868,"N_COORD97":2533463.0868000002,"ADDRESS":"中崙街１１巷３１號","OBJECTID":260354},"geometry":{"x":183290.93586799968,"y":2533463.0867960043}},{"attributes":{"ID":260359,"DIS_CODE":0,"TOWNNAME":"新營區","LI":"王公里","LIN":"30鄰","STREET":"民族路","SECT":" ","MAREA":" ","LANE":"２６８巷","ALLEY":" ","HOUSE_NO":"１９號","E_COORD97":180449.697663,"N_COORD97":2579601.4785500001,"ADDRESS":"民族路２６８巷１９號","OBJECTID":260355},"geometry":{"x":180449.69766300078,"y":2579601.478550002}},{"attributes":{"ID":260360,"DIS_CODE":0,"TOWNNAME":"新營區","LI":"王公里","LIN":"30鄰","STREET":"民族路","SECT":" ","MAREA":" ","LANE":"２６８巷","ALLEY":" ","HOUSE_NO":"２３號","E_COORD97":180459.86801000001,"N_COORD97":2579599.99688,"ADDRESS":"民族路２６８巷２３號","OBJECTID":260356},"geometry":{"x":180459.86801000219,"y":2579599.9968840014}},{"attributes":{"ID":260361,"DIS_CODE":0,"TOWNNAME":"新營區","LI":"王公里","LIN":"30鄰","STREET":"民族路","SECT":" ","MAREA":" ","LANE":"２６８巷","ALLEY":" ","HOUSE_NO":"２５號","E_COORD97":180465.37694799999,"N_COORD97":2579599.3618899998,"ADDRESS":"民族路２６８巷２５號","OBJECTID":260357},"geometry":{"x":180465.37694799993,"y":2579599.361885}},{"attributes":{"ID":260362,"DIS_CODE":0,"TOWNNAME":"新營區","LI":"王公里","LIN":"30鄰","STREET":"民族路","SECT":" ","MAREA":" ","LANE":"２６８巷","ALLEY":" ","HOUSE_NO":"２７號","E_COORD97":180470.885885,"N_COORD97":2579598.5152199999,"ADDRESS":"民族路２６８巷２７號","OBJECTID":260358},"geometry":{"x":180470.88588500116,"y":2579598.5152189992}},{"attributes":{"ID":260363,"DIS_CODE":0,"TOWNNAME":"新營區","LI":"王公里","LIN":"30鄰","STREET":"民族路","SECT":" ","MAREA":" ","LANE":"２６８巷","ALLEY":" ","HOUSE_NO":"２９號","E_COORD97":180480.42058500001,"N_COORD97":2579596.6102200001,"ADDRESS":"民族路２６８巷２９號","OBJECTID":260359},"geometry":{"x":180480.42058499996,"y":2579596.6102200001}},{"attributes":{"ID":260364,"DIS_CODE":0,"TOWNNAME":"新營區","LI":"王公里","LIN":"30鄰","STREET":"民族路","SECT":" ","MAREA":" ","LANE":"２６８巷","ALLEY":" ","HOUSE_NO":"３１號","E_COORD97":180486.98893399999,"N_COORD97":2579594.91689,"ADDRESS":"民族路２６８巷３１號","OBJECTID":260360},"geometry":{"x":180486.98893400095,"y":2579594.9168870021}},{"attributes":{"ID":260365,"DIS_CODE":0,"TOWNNAME":"新營區","LI":"王公里","LIN":"30鄰","STREET":"民族路","SECT":" ","MAREA":" ","LANE":"２６８巷","ALLEY":" ","HOUSE_NO":"３３號","E_COORD97":180492.70975400001,"N_COORD97":2579595.5518899998,"ADDRESS":"民族路２６８巷３３號","OBJECTID":260361},"geometry":{"x":180492.70975400135,"y":2579595.5518870018}},{"attributes":{"ID":260366,"DIS_CODE":0,"TOWNNAME":"安南區","LI":"城西里","LIN":"7鄰","STREET":"城西街","SECT":"三段","MAREA":" ","LANE":"５０１巷","ALLEY":" ","HOUSE_NO":"３６２號","E_COORD97":157575.85037900001,"N_COORD97":2549466.3834799998,"ADDRESS":"城西街三段５０１巷３６２號","OBJECTID":260362},"geometry":{"x":157575.85037900042,"y":2549466.3834770024}},{"attributes":{"ID":260367,"DIS_CODE":0,"TOWNNAME":"新營區","LI":"王公里","LIN":"27鄰","STREET":"民族路","SECT":" ","MAREA":" ","LANE":"３０２巷","ALLEY":" ","HOUSE_NO":"７號","E_COORD97":180420.24603499999,"N_COORD97":2579693.76517,"ADDRESS":"民族路３０２巷７號","OBJECTID":260363},"geometry":{"x":180420.24603500124,"y":2579693.7651670016}},{"attributes":{"ID":260368,"DIS_CODE":0,"TOWNNAME":"新營區","LI":"王公里","LIN":"27鄰","STREET":"民族路","SECT":" ","MAREA":" ","LANE":"３０２巷","ALLEY":" ","HOUSE_NO":"９號","E_COORD97":180424.695561,"N_COORD97":2579693.9768300001,"ADDRESS":"民族路３０２巷９號","OBJECTID":260364},"geometry":{"x":180424.69556100108,"y":2579693.9768340029}},{"attributes":{"ID":260369,"DIS_CODE":0,"TOWNNAME":"新營區","LI":"王公里","LIN":"27鄰","STREET":"民族路","SECT":" ","MAREA":" ","LANE":"３０２巷","ALLEY":" ","HOUSE_NO":"１１號","E_COORD97":180429.35696999999,"N_COORD97":2579693.9768300001,"ADDRESS":"民族路３０２巷１１號","OBJECTID":260365},"geometry":{"x":180429.35697000008,"y":2579693.9768340029}},{"attributes":{"ID":260370,"DIS_CODE":0,"TOWNNAME":"新營區","LI":"王公里","LIN":"27鄰","STREET":"民族路","SECT":" ","MAREA":" ","LANE":"３０２巷","ALLEY":" ","HOUSE_NO":"２１號","E_COORD97":180452.769956,"N_COORD97":2579695.6172500001,"ADDRESS":"民族路３０２巷２１號","OBJECTID":260366},"geometry":{"x":180452.76995600108,"y":2579695.6172500029}},{"attributes":{"ID":260371,"DIS_CODE":0,"TOWNNAME":"永康區","LI":"龍潭里","LIN":"24鄰","STREET":"中山北路","SECT":" ","MAREA":" ","LANE":"３４４巷","ALLEY":" ","HOUSE_NO":"１９號","E_COORD97":175126.28747499999,"N_COORD97":2547622.6286999998,"ADDRESS":"中山北路３４４巷１９號","OBJECTID":260367},"geometry":{"x":175126.28747500107,"y":2547622.6286970042}},{"attributes":{"ID":260372,"DIS_CODE":0,"TOWNNAME":"中西區","LI":"萬昌里","LIN":"23鄰","STREET":"青年路","SECT":" ","MAREA":" ","LANE":"２２６巷","ALLEY":" ","HOUSE_NO":"５９號之２","E_COORD97":169139.41923999999,"N_COORD97":2543458.9524500002,"ADDRESS":"青年路２２６巷５９號之２","OBJECTID":260368},"geometry":{"x":169139.41924000159,"y":2543458.9524499997}},{"attributes":{"ID":260373,"DIS_CODE":0,"TOWNNAME":"仁德區","LI":"太子里","LIN":"4鄰","STREET":"太子路","SECT":" ","MAREA":" ","LANE":"１９０巷","ALLEY":" ","HOUSE_NO":"１６號三樓","E_COORD97":174327.287446,"N_COORD97":2543643.2661799998,"ADDRESS":"太子路１９０巷１６號三樓","OBJECTID":260369},"geometry":{"x":174327.28744599968,"y":2543643.2661780026}},{"attributes":{"ID":260374,"DIS_CODE":0,"TOWNNAME":"仁德區","LI":"太子里","LIN":"4鄰","STREET":"太子路","SECT":" ","MAREA":" ","LANE":"１９０巷","ALLEY":" ","HOUSE_NO":"１６號四樓","E_COORD97":174327.287446,"N_COORD97":2543643.2661799998,"ADDRESS":"太子路１９０巷１６號四樓","OBJECTID":260370},"geometry":{"x":174327.28744599968,"y":2543643.2661780026}},{"attributes":{"ID":260375,"DIS_CODE":0,"TOWNNAME":"仁德區","LI":"仁義里","LIN":"34鄰","STREET":"正義三街","SECT":" ","MAREA":" ","LANE":" ","ALLEY":" ","HOUSE_NO":"４８號","E_COORD97":173514.62,"N_COORD97":2541595.7599999998,"ADDRESS":"正義三街４８號","OBJECTID":260371},"geometry":{"x":173514.62000000011,"y":2541595.7600000016}},{"attributes":{"ID":260376,"DIS_CODE":0,"TOWNNAME":"仁德區","LI":"仁義里","LIN":"34鄰","STREET":"正義三街","SECT":" ","MAREA":" ","LANE":" ","ALLEY":" ","HOUSE_NO":"５０號","E_COORD97":173518.89999999999,"N_COORD97":2541596.0099999998,"ADDRESS":"正義三街５０號","OBJECTID":260372},"geometry":{"x":173518.9000000013,"y":2541596.0099999998}},{"attributes":{"ID":260377,"DIS_CODE":0,"TOWNNAME":"東區","LI":"新東里","LIN":"22鄰","STREET":"裕農路","SECT":" ","MAREA":" ","LANE":"４３巷","ALLEY":" ","HOUSE_NO":"８號","E_COORD97":170660.64000000001,"N_COORD97":2542953.7200000002,"ADDRESS":"裕農路４３巷８號","OBJECTID":260373},"geometry":{"x":170660.6400000006,"y":2542953.7200000025}},{"attributes":{"ID":260378,"DIS_CODE":0,"TOWNNAME":"新營區","LI":"王公里","LIN":"22鄰","STREET":"大勇街","SECT":" ","MAREA":" ","LANE":" ","ALLEY":" ","HOUSE_NO":"９２號","E_COORD97":180445.70999999999,"N_COORD97":2579429.9900000002,"ADDRESS":"大勇街９２號","OBJECTID":260374},"geometry":{"x":180445.70999999996,"y":2579429.9900000002}},{"attributes":{"ID":260379,"DIS_CODE":0,"TOWNNAME":"永康區","LI":"龍潭里","LIN":"24鄰","STREET":"中山北路","SECT":" ","MAREA":" ","LANE":"３４４巷","ALLEY":" ","HOUSE_NO":"２號","E_COORD97":175134.338437,"N_COORD97":2547621.8878600001,"ADDRESS":"中山北路３４４巷２號","OBJECTID":260375},"geometry":{"x":175134.33843700122,"y":2547621.887864003}},{"attributes":{"ID":260380,"DIS_CODE":0,"TOWNNAME":"關廟區","LI":"下湖里","LIN":"7鄰","STREET":"下湖二街","SECT":" ","MAREA":" ","LANE":"９６巷","ALLEY":" ","HOUSE_NO":"１號","E_COORD97":179355.02315299999,"N_COORD97":2543199.7887200001,"ADDRESS":"下湖二街９６巷１號","OBJECTID":260376},"geometry":{"x":179355.02315299958,"y":2543199.788722001}},{"attributes":{"ID":260381,"DIS_CODE":0,"TOWNNAME":"白河區","LI":"秀祐里","LIN":"5鄰","STREET":"中正路","SECT":" ","MAREA":" ","LANE":"６９１巷","ALLEY":" ","HOUSE_NO":"１號","E_COORD97":188754.71906999999,"N_COORD97":2582949.5303099998,"ADDRESS":"中正路６９１巷１號","OBJECTID":260377},"geometry":{"x":188754.71906999964,"y":2582949.5303109996}},{"attributes":{"ID":260382,"DIS_CODE":0,"TOWNNAME":"永康區","LI":"六合里","LIN":"8鄰","STREET":"六合路","SECT":" ","MAREA":" ","LANE":"４７巷","ALLEY":" ","HOUSE_NO":"１８號","E_COORD97":171126.79609700001,"N_COORD97":2545602.7044700002,"ADDRESS":"六合路４７巷１８號","OBJECTID":260378},"geometry":{"x":171126.79609700013,"y":2545602.7044660002}},{"attributes":{"ID":260383,"DIS_CODE":0,"TOWNNAME":"永康區","LI":"六合里","LIN":"8鄰","STREET":"六合路","SECT":" ","MAREA":" ","LANE":"４７巷","ALLEY":" ","HOUSE_NO":"２０號","E_COORD97":171123.617421,"N_COORD97":2545601.8577999999,"ADDRESS":"六合路４７巷２０號","OBJECTID":260379},"geometry":{"x":171123.61742100026,"y":2545601.8577990048}},{"attributes":{"ID":260384,"DIS_CODE":0,"TOWNNAME":"永康區","LI":"六合里","LIN":"8鄰","STREET":"六合路","SECT":" ","MAREA":" ","LANE":"４７巷","ALLEY":" ","HOUSE_NO":"２２號","E_COORD97":171118.319628,"N_COORD97":2545600.3761300002,"ADDRESS":"六合路４７巷２２號","OBJECTID":260380},"geometry":{"x":171118.31962800119,"y":2545600.3761340026}},{"attributes":{"ID":260385,"DIS_CODE":0,"TOWNNAME":"永康區","LI":"六合里","LIN":"8鄰","STREET":"六合路","SECT":" ","MAREA":" ","LANE":"４７巷","ALLEY":" ","HOUSE_NO":"２６號","E_COORD97":171109.20742200001,"N_COORD97":2545598.47114,"ADDRESS":"六合路４７巷２６號","OBJECTID":260381},"geometry":{"x":171109.20742200222,"y":2545598.4711350035}},{"attributes":{"ID":260386,"DIS_CODE":0,"TOWNNAME":"永康區","LI":"六合里","LIN":"8鄰","STREET":"六合路","SECT":" ","MAREA":" ","LANE":"４７巷","ALLEY":" ","HOUSE_NO":"２８號","E_COORD97":171106.45256999999,"N_COORD97":2545597.4128,"ADDRESS":"六合路４７巷２８號","OBJECTID":260382},"geometry":{"x":171106.45257000159,"y":2545597.4128019996}},{"attributes":{"ID":260387,"DIS_CODE":0,"TOWNNAME":"新營區","LI":"新東里","LIN":"22鄰","STREET":"長榮路","SECT":"一段","MAREA":" ","LANE":" ","ALLEY":" ","HOUSE_NO":"３２７號","E_COORD97":180861.28,"N_COORD97":2579862.1800000002,"ADDRESS":"長榮路一段３２７號","OBJECTID":260383},"geometry":{"x":180861.28000000212,"y":2579862.1799999978}},{"attributes":{"ID":260388,"DIS_CODE":0,"TOWNNAME":"永康區","LI":"六合里","LIN":"8鄰","STREET":"六合路","SECT":" ","MAREA":" ","LANE":"４７巷","ALLEY":" ","HOUSE_NO":"３２號","E_COORD97":171099.03565899999,"N_COORD97":2545596.5661399998,"ADDRESS":"六合路４７巷３２號","OBJECTID":260384},"geometry":{"x":171099.03565900214,"y":2545596.5661360025}},{"attributes":{"ID":260389,"DIS_CODE":0,"TOWNNAME":"永康區","LI":"六合里","LIN":"11鄰","STREET":"六合路","SECT":" ","MAREA":" ","LANE":"６８巷","ALLEY":" ","HOUSE_NO":"３４號","E_COORD97":171262.207704,"N_COORD97":2545695.8377499999,"ADDRESS":"六合路６８巷３４號","OBJECTID":260385},"geometry":{"x":171262.20770400017,"y":2545695.8377490006}},{"attributes":{"ID":260390,"DIS_CODE":0,"TOWNNAME":"永康區","LI":"六合里","LIN":"2鄰","STREET":"中山南路","SECT":" ","MAREA":" ","LANE":"３０巷","ALLEY":" ","HOUSE_NO":"２號","E_COORD97":170828.64623499999,"N_COORD97":2545818.48856,"ADDRESS":"中山南路３０巷２號","OBJECTID":260386},"geometry":{"x":170828.64623500127,"y":2545818.4885610007}},{"attributes":{"ID":260391,"DIS_CODE":0,"TOWNNAME":"永康區","LI":"六合里","LIN":"2鄰","STREET":"中山南路","SECT":" ","MAREA":" ","LANE":"３０巷","ALLEY":" ","HOUSE_NO":"６號","E_COORD97":170830.765353,"N_COORD97":2545813.8319000001,"ADDRESS":"中山南路３０巷６號","OBJECTID":260387},"geometry":{"x":170830.76535300165,"y":2545813.8318969999}},{"attributes":{"ID":260392,"DIS_CODE":0,"TOWNNAME":"永康區","LI":"六合里","LIN":"2鄰","STREET":"中山南路","SECT":" ","MAREA":" ","LANE":"３０巷","ALLEY":" ","HOUSE_NO":"８號","E_COORD97":170831.82491200001,"N_COORD97":2545810.4452300002,"ADDRESS":"中山南路３０巷８號","OBJECTID":260388},"geometry":{"x":170831.82491200045,"y":2545810.4452320021}},{"attributes":{"ID":260393,"DIS_CODE":0,"TOWNNAME":"永康區","LI":"六合里","LIN":"2鄰","STREET":"中山南路","SECT":" ","MAREA":" ","LANE":"３０巷","ALLEY":" ","HOUSE_NO":"１０號","E_COORD97":170835.21549900001,"N_COORD97":2545806.8468999998,"ADDRESS":"中山南路３０巷１０號","OBJECTID":260389},"geometry":{"x":170835.21549900062,"y":2545806.8469009995}},{"attributes":{"ID":260394,"DIS_CODE":0,"TOWNNAME":"永康區","LI":"六合里","LIN":"2鄰","STREET":"中山南路","SECT":" ","MAREA":" ","LANE":"３０巷","ALLEY":" ","HOUSE_NO":"１２號","E_COORD97":170836.698882,"N_COORD97":2545803.0369000002,"ADDRESS":"中山南路３０巷１２號","OBJECTID":260390},"geometry":{"x":170836.69888199959,"y":2545803.0369030014}},{"attributes":{"ID":260395,"DIS_CODE":0,"TOWNNAME":"永康區","LI":"六合里","LIN":"2鄰","STREET":"中山南路","SECT":" ","MAREA":" ","LANE":"３０巷","ALLEY":" ","HOUSE_NO":"１６號","E_COORD97":170838.60608699999,"N_COORD97":2545799.86191,"ADDRESS":"中山南路３０巷１６號","OBJECTID":260391},"geometry":{"x":170838.60608700104,"y":2545799.8619050011}},{"attributes":{"ID":260396,"DIS_CODE":0,"TOWNNAME":"永康區","LI":"六合里","LIN":"2鄰","STREET":"中山南路","SECT":" ","MAREA":" ","LANE":"３０巷","ALLEY":" ","HOUSE_NO":"１８號","E_COORD97":170840.93711699999,"N_COORD97":2545796.0519099999,"ADDRESS":"中山南路３０巷１８號","OBJECTID":260392},"geometry":{"x":170840.93711700104,"y":2545796.0519070011}},{"attributes":{"ID":260397,"DIS_CODE":0,"TOWNNAME":"永康區","LI":"六合里","LIN":"2鄰","STREET":"中山南路","SECT":" ","MAREA":" ","LANE":"３０巷","ALLEY":" ","HOUSE_NO":"２０號","E_COORD97":170843.26814599999,"N_COORD97":2545792.45358,"ADDRESS":"中山南路３０巷２０號","OBJECTID":260393},"geometry":{"x":170843.2681460008,"y":2545792.4535750002}},{"attributes":{"ID":260398,"DIS_CODE":0,"TOWNNAME":"仁德區","LI":"保安里","LIN":"8鄰","STREET":"文賢路","SECT":"一段","MAREA":" ","LANE":"７６３巷","ALLEY":" ","HOUSE_NO":"８之１號","E_COORD97":171543.016217,"N_COORD97":2536150.9117899998,"ADDRESS":"文賢路一段７６３巷８之１號","OBJECTID":260394},"geometry":{"x":171543.01621700078,"y":2536150.9117850009}},{"attributes":{"ID":260399,"DIS_CODE":0,"TOWNNAME":"南區","LI":"郡南里","LIN":"13鄰","STREET":"永成路","SECT":"三段","MAREA":" ","LANE":"７１巷","ALLEY":" ","HOUSE_NO":"１２號","E_COORD97":167473.02707400001,"N_COORD97":2540572.20052,"ADDRESS":"永成路三段７１巷１２號","OBJECTID":260395},"geometry":{"x":167473.02707399987,"y":2540572.2005170044}},{"attributes":{"ID":260400,"DIS_CODE":0,"TOWNNAME":"南區","LI":"郡南里","LIN":"13鄰","STREET":"永成路","SECT":"三段","MAREA":" ","LANE":"７１巷","ALLEY":" ","HOUSE_NO":"１６號","E_COORD97":167464.450224,"N_COORD97":2540573.1530200001,"ADDRESS":"永成路三段７１巷１６號","OBJECTID":260396},"geometry":{"x":167464.45022400096,"y":2540573.153016001}},{"attributes":{"ID":260401,"DIS_CODE":0,"TOWNNAME":"南區","LI":"郡南里","LIN":"13鄰","STREET":"永成路","SECT":"三段","MAREA":" ","LANE":"７１巷","ALLEY":" ","HOUSE_NO":"１８號","E_COORD97":167459.68530799999,"N_COORD97":2540574.1055200002,"ADDRESS":"永成路三段７１巷１８號","OBJECTID":260397},"geometry":{"x":167459.685308001,"y":2540574.1055159997}},{"attributes":{"ID":260402,"DIS_CODE":0,"TOWNNAME":"南區","LI":"郡南里","LIN":"13鄰","STREET":"永成路","SECT":"三段","MAREA":" ","LANE":"７１巷","ALLEY":" ","HOUSE_NO":"２０號","E_COORD97":167453.967409,"N_COORD97":2540574.74052,"ADDRESS":"永成路三段７１巷２０號","OBJECTID":260398},"geometry":{"x":167453.9674089998,"y":2540574.7405159995}},{"attributes":{"ID":260403,"DIS_CODE":0,"TOWNNAME":"中西區","LI":"永福里","LIN":"10鄰","STREET":"民生路","SECT":"一段","MAREA":" ","LANE":" ","ALLEY":" ","HOUSE_NO":"１２７號","E_COORD97":168134.62,"N_COORD97":2543801.8199999998,"ADDRESS":"民生路一段１２７號","OBJECTID":260399},"geometry":{"x":168134.62000000197,"y":2543801.8199999984}},{"attributes":{"ID":260404,"DIS_CODE":0,"TOWNNAME":"中西區","LI":"永福里","LIN":"9鄰","STREET":"永福路","SECT":"二段","MAREA":" ","LANE":"１１４巷","ALLEY":" ","HOUSE_NO":"５號","E_COORD97":168170.64999999999,"N_COORD97":2543754.0800000001,"ADDRESS":"永福路二段１１４巷５號","OBJECTID":260400},"geometry":{"x":168170.6500000013,"y":2543754.0800000019}}]}