{"displayFieldName":"TOWNNAME","fieldAliases":{"ID":"ID","DIS_CODE":"DIS_CODE","TOWNNAME":"TOWNNAME","LI":"LI","LIN":"LIN","STREET":"STREET","SECT":"SECT","MAREA":"MAREA","LANE":"LANE","ALLEY":"ALLEY","HOUSE_NO":"HOUSE_NO","E_COORD97":"E_COORD97","N_COORD97":"N_COORD97","ADDRESS":"ADDRESS","OBJECTID":"OBJECTID"},"geometryType":"esriGeometryPoint","spatialReference":{"wkid":102443,"latestWkid":3826},"fields":[{"name":"ID","type":"esriFieldTypeDouble","alias":"ID"},{"name":"DIS_CODE","type":"esriFieldTypeInteger","alias":"DIS_CODE"},{"name":"TOWNNAME","type":"esriFieldTypeString","alias":"TOWNNAME","length":8},{"name":"LI","type":"esriFieldTypeString","alias":"LI","length":8},{"name":"LIN","type":"esriFieldTypeString","alias":"LIN","length":12},{"name":"STREET","type":"esriFieldTypeString","alias":"STREET","length":20},{"name":"SECT","type":"esriFieldTypeString","alias":"SECT","length":8},{"name":"MAREA","type":"esriFieldTypeString","alias":"MAREA","length":12},{"name":"LANE","type":"esriFieldTypeString","alias":"LANE","length":10},{"name":"ALLEY","type":"esriFieldTypeString","alias":"ALLEY","length":10},{"name":"HOUSE_NO","type":"esriFieldTypeString","alias":"HOUSE_NO","length":20},{"name":"E_COORD97","type":"esriFieldTypeDouble","alias":"E_COORD97"},{"name":"N_COORD97","type":"esriFieldTypeDouble","alias":"N_COORD97"},{"name":"ADDRESS","type":"esriFieldTypeString","alias":"ADDRESS","length":50},{"name":"OBJECTID","type":"esriFieldTypeOID","alias":"OBJECTID"}],"features":[{"attributes":{"ID":39001,"DIS_CODE":0,"TOWNNAME":"東山區","LI":"東河里","LIN":"7鄰","STREET":" ","SECT":" ","MAREA":"吉貝耍","LANE":" ","ALLEY":" ","HOUSE_NO":"５３號之２","E_COORD97":187340.56,"N_COORD97":2577332.2599999998,"ADDRESS":"吉貝耍５３號之２","OBJECTID":39001},"geometry":{"x":187340.55999999959,"y":2577332.2599999998}},{"attributes":{"ID":39002,"DIS_CODE":0,"TOWNNAME":"西港區","LI":"西港里","LIN":"14鄰","STREET":" ","SECT":" ","MAREA":"西港","LANE":" ","ALLEY":" ","HOUSE_NO":"４３號","E_COORD97":168574.48000000001,"N_COORD97":2557906.7200000002,"ADDRESS":"西港４３號","OBJECTID":39002},"geometry":{"x":168574.48000000045,"y":2557906.7200000007}},{"attributes":{"ID":39003,"DIS_CODE":0,"TOWNNAME":"新化區","LI":"全興里","LIN":"14鄰","STREET":" ","SECT":" ","MAREA":"竹子\u25A0","LANE":" ","ALLEY":" ","HOUSE_NO":"２４７號之３７１","E_COORD97":178209.76000000001,"N_COORD97":2546703.2599999998,"ADDRESS":"竹子\u25A0２４７號之３７１","OBJECTID":39003},"geometry":{"x":178209.76000000071,"y":2546703.2599999998}},{"attributes":{"ID":39004,"DIS_CODE":0,"TOWNNAME":"西港區","LI":"\u25A0林里","LIN":"14鄰","STREET":" ","SECT":" ","MAREA":"太西","LANE":" ","ALLEY":" ","HOUSE_NO":"１３號之２","E_COORD97":171091.85999999999,"N_COORD97":2560042.5499999998,"ADDRESS":"太西１３號之２","OBJECTID":39004},"geometry":{"x":171091.86000000127,"y":2560042.5500000007}},{"attributes":{"ID":39005,"DIS_CODE":0,"TOWNNAME":"善化區","LI":"小新里","LIN":"7鄰","STREET":"成功路","SECT":" ","MAREA":" ","LANE":"１６９巷","ALLEY":"９６弄","HOUSE_NO":"１８６號","E_COORD97":179647.870543,"N_COORD97":2558632.1002099998,"ADDRESS":"成功路１６９巷９６弄１８６號","OBJECTID":39005},"geometry":{"x":179647.87054300122,"y":2558632.1002130024}},{"attributes":{"ID":39006,"DIS_CODE":0,"TOWNNAME":"善化區","LI":"小新里","LIN":"7鄰","STREET":"成功路","SECT":" ","MAREA":" ","LANE":"１６９巷","ALLEY":"９６弄","HOUSE_NO":"１９０號","E_COORD97":179657.825747,"N_COORD97":2558628.92521,"ADDRESS":"成功路１６９巷９６弄１９０號","OBJECTID":39006},"geometry":{"x":179657.82574700098,"y":2558628.925215004}},{"attributes":{"ID":39007,"DIS_CODE":0,"TOWNNAME":"西港區","LI":"\u25A0林里","LIN":"14鄰","STREET":" ","SECT":" ","MAREA":"太西","LANE":" ","ALLEY":" ","HOUSE_NO":"１３號","E_COORD97":171100.25,"N_COORD97":2560092.3300000001,"ADDRESS":"太西１３號","OBJECTID":39007},"geometry":{"x":171100.25000000186,"y":2560092.3299999982}},{"attributes":{"ID":39008,"DIS_CODE":0,"TOWNNAME":"西港區","LI":"\u25A0林里","LIN":"14鄰","STREET":" ","SECT":" ","MAREA":"太西","LANE":" ","ALLEY":" ","HOUSE_NO":"１４號","E_COORD97":171084.60000000001,"N_COORD97":2560112.9199999999,"ADDRESS":"太西１４號","OBJECTID":39008},"geometry":{"x":171084.60000000056,"y":2560112.9200000018}},{"attributes":{"ID":39009,"DIS_CODE":0,"TOWNNAME":"西港區","LI":"\u25A0林里","LIN":"14鄰","STREET":" ","SECT":" ","MAREA":"太西","LANE":" ","ALLEY":" ","HOUSE_NO":"１６號","E_COORD97":171082.48999999999,"N_COORD97":2560154.6899999999,"ADDRESS":"太西１６號","OBJECTID":39009},"geometry":{"x":171082.49000000115,"y":2560154.6900000013}},{"attributes":{"ID":39010,"DIS_CODE":0,"TOWNNAME":"西港區","LI":"\u25A0林里","LIN":"14鄰","STREET":" ","SECT":" ","MAREA":"太西","LANE":" ","ALLEY":" ","HOUSE_NO":"１７號之１","E_COORD97":171103.76999999999,"N_COORD97":2560188.0699999998,"ADDRESS":"太西１７號之１","OBJECTID":39010},"geometry":{"x":171103.77000000048,"y":2560188.0700000003}},{"attributes":{"ID":39011,"DIS_CODE":0,"TOWNNAME":"西港區","LI":"\u25A0林里","LIN":"14鄰","STREET":" ","SECT":" ","MAREA":"太西","LANE":" ","ALLEY":" ","HOUSE_NO":"１７號之２","E_COORD97":171099.70000000001,"N_COORD97":2560188.8500000001,"ADDRESS":"太西１７號之２","OBJECTID":39011},"geometry":{"x":171099.70000000112,"y":2560188.8499999996}},{"attributes":{"ID":39012,"DIS_CODE":0,"TOWNNAME":"西港區","LI":"\u25A0林里","LIN":"14鄰","STREET":" ","SECT":" ","MAREA":"太西","LANE":" ","ALLEY":" ","HOUSE_NO":"１７號之３","E_COORD97":171095.63,"N_COORD97":2560189.6400000001,"ADDRESS":"太西１７號之３","OBJECTID":39012},"geometry":{"x":171095.62999999989,"y":2560189.6400000025}},{"attributes":{"ID":39013,"DIS_CODE":0,"TOWNNAME":"西港區","LI":"\u25A0林里","LIN":"14鄰","STREET":" ","SECT":" ","MAREA":"太西","LANE":" ","ALLEY":" ","HOUSE_NO":"１７號之４","E_COORD97":171091.56,"N_COORD97":2560190.4300000002,"ADDRESS":"太西１７號之４","OBJECTID":39013},"geometry":{"x":171091.56000000052,"y":2560190.4300000016}},{"attributes":{"ID":39014,"DIS_CODE":0,"TOWNNAME":"西港區","LI":"\u25A0林里","LIN":"14鄰","STREET":" ","SECT":" ","MAREA":"太西","LANE":" ","ALLEY":" ","HOUSE_NO":"１７號","E_COORD97":171108.54999999999,"N_COORD97":2560167.8599999999,"ADDRESS":"太西１７號","OBJECTID":39014},"geometry":{"x":171108.55000000075,"y":2560167.8599999994}},{"attributes":{"ID":39015,"DIS_CODE":0,"TOWNNAME":"西港區","LI":"\u25A0林里","LIN":"14鄰","STREET":" ","SECT":" ","MAREA":"太西","LANE":" ","ALLEY":" ","HOUSE_NO":"１８號之１","E_COORD97":171046.19,"N_COORD97":2560188.2999999998,"ADDRESS":"太西１８號之１","OBJECTID":39015},"geometry":{"x":171046.19000000041,"y":2560188.3000000045}},{"attributes":{"ID":39016,"DIS_CODE":0,"TOWNNAME":"西港區","LI":"\u25A0林里","LIN":"14鄰","STREET":" ","SECT":" ","MAREA":"太西","LANE":" ","ALLEY":" ","HOUSE_NO":"１８號","E_COORD97":171047.07999999999,"N_COORD97":2560152.8799999999,"ADDRESS":"太西１８號","OBJECTID":39016},"geometry":{"x":171047.07999999914,"y":2560152.8800000008}},{"attributes":{"ID":39017,"DIS_CODE":0,"TOWNNAME":"西港區","LI":"\u25A0林里","LIN":"14鄰","STREET":" ","SECT":" ","MAREA":"太西","LANE":" ","ALLEY":" ","HOUSE_NO":"２０號之１","E_COORD97":171064.84,"N_COORD97":2560089.5499999998,"ADDRESS":"太西２０號之１","OBJECTID":39017},"geometry":{"x":171064.83999999985,"y":2560089.5500000026}},{"attributes":{"ID":39018,"DIS_CODE":0,"TOWNNAME":"西港區","LI":"\u25A0林里","LIN":"14鄰","STREET":" ","SECT":" ","MAREA":"太西","LANE":" ","ALLEY":" ","HOUSE_NO":"２０號","E_COORD97":171060.35000000001,"N_COORD97":2560103.4700000002,"ADDRESS":"太西２０號","OBJECTID":39018},"geometry":{"x":171060.35000000056,"y":2560103.4700000025}},{"attributes":{"ID":39019,"DIS_CODE":0,"TOWNNAME":"西港區","LI":"西港里","LIN":"14鄰","STREET":" ","SECT":" ","MAREA":"西港","LANE":" ","ALLEY":" ","HOUSE_NO":"４４號","E_COORD97":168553.29000000001,"N_COORD97":2557912.48,"ADDRESS":"西港４４號","OBJECTID":39019},"geometry":{"x":168553.29000000004,"y":2557912.4800000023}},{"attributes":{"ID":39020,"DIS_CODE":0,"TOWNNAME":"西港區","LI":"西港里","LIN":"14鄰","STREET":" ","SECT":" ","MAREA":"西港","LANE":" ","ALLEY":" ","HOUSE_NO":"４５號之１","E_COORD97":168563.76999999999,"N_COORD97":2557981.6400000001,"ADDRESS":"西港４５號之１","OBJECTID":39020},"geometry":{"x":168563.77000000048,"y":2557981.6400000006}},{"attributes":{"ID":39021,"DIS_CODE":0,"TOWNNAME":"西港區","LI":"西港里","LIN":"14鄰","STREET":" ","SECT":" ","MAREA":"西港","LANE":" ","ALLEY":" ","HOUSE_NO":"４５號之２","E_COORD97":168567.88,"N_COORD97":2557982.7999999998,"ADDRESS":"西港４５號之２","OBJECTID":39021},"geometry":{"x":168567.87999999989,"y":2557982.8000000026}},{"attributes":{"ID":39022,"DIS_CODE":0,"TOWNNAME":"西港區","LI":"西港里","LIN":"14鄰","STREET":" ","SECT":" ","MAREA":"西港","LANE":" ","ALLEY":" ","HOUSE_NO":"４５號之３","E_COORD97":168572.01999999999,"N_COORD97":2557983.6200000001,"ADDRESS":"西港４５號之３","OBJECTID":39022},"geometry":{"x":168572.02000000142,"y":2557983.6200000029}},{"attributes":{"ID":39023,"DIS_CODE":0,"TOWNNAME":"西港區","LI":"西港里","LIN":"14鄰","STREET":" ","SECT":" ","MAREA":"西港","LANE":" ","ALLEY":" ","HOUSE_NO":"４５號之４","E_COORD97":168575.75,"N_COORD97":2557984.6299999999,"ADDRESS":"西港４５號之４","OBJECTID":39023},"geometry":{"x":168575.75,"y":2557984.6300000008}},{"attributes":{"ID":39024,"DIS_CODE":0,"TOWNNAME":"西港區","LI":"西港里","LIN":"14鄰","STREET":" ","SECT":" ","MAREA":"西港","LANE":" ","ALLEY":" ","HOUSE_NO":"４５號之５","E_COORD97":168580.10999999999,"N_COORD97":2557965.6899999999,"ADDRESS":"西港４５號之５","OBJECTID":39024},"geometry":{"x":168580.11000000034,"y":2557965.6899999995}},{"attributes":{"ID":39025,"DIS_CODE":0,"TOWNNAME":"西港區","LI":"西港里","LIN":"14鄰","STREET":" ","SECT":" ","MAREA":"西港","LANE":" ","ALLEY":" ","HOUSE_NO":"４５號之６","E_COORD97":168575.69,"N_COORD97":2557964.9199999999,"ADDRESS":"西港４５號之６","OBJECTID":39025},"geometry":{"x":168575.69000000134,"y":2557964.9199999999}},{"attributes":{"ID":39026,"DIS_CODE":0,"TOWNNAME":"西港區","LI":"南海里","LIN":"14鄰","STREET":" ","SECT":" ","MAREA":"南海埔","LANE":" ","ALLEY":" ","HOUSE_NO":"１２７號之５","E_COORD97":167422.26999999999,"N_COORD97":2557305.23,"ADDRESS":"南海埔１２７號之５","OBJECTID":39026},"geometry":{"x":167422.26999999955,"y":2557305.2300000004}},{"attributes":{"ID":39027,"DIS_CODE":0,"TOWNNAME":"西港區","LI":"南海里","LIN":"14鄰","STREET":" ","SECT":" ","MAREA":"南海埔","LANE":" ","ALLEY":" ","HOUSE_NO":"１２７號之６","E_COORD97":167421.35000000001,"N_COORD97":2557300.7000000002,"ADDRESS":"南海埔１２７號之６","OBJECTID":39027},"geometry":{"x":167421.35000000056,"y":2557300.6999999993}},{"attributes":{"ID":39028,"DIS_CODE":0,"TOWNNAME":"西港區","LI":"南海里","LIN":"14鄰","STREET":" ","SECT":" ","MAREA":"南海埔","LANE":" ","ALLEY":" ","HOUSE_NO":"１２７號之８","E_COORD97":167420.20999999999,"N_COORD97":2557291.1499999999,"ADDRESS":"南海埔１２７號之８","OBJECTID":39028},"geometry":{"x":167420.21000000183,"y":2557291.1500000022}},{"attributes":{"ID":39029,"DIS_CODE":0,"TOWNNAME":"西港區","LI":"南海里","LIN":"14鄰","STREET":" ","SECT":" ","MAREA":"南海埔","LANE":" ","ALLEY":" ","HOUSE_NO":"１２７號之９","E_COORD97":167419.85000000001,"N_COORD97":2557286.04,"ADDRESS":"南海埔１２７號之９","OBJECTID":39029},"geometry":{"x":167419.84999999963,"y":2557286.0399999972}},{"attributes":{"ID":39030,"DIS_CODE":0,"TOWNNAME":"西港區","LI":"南海里","LIN":"14鄰","STREET":" ","SECT":" ","MAREA":"南海埔","LANE":" ","ALLEY":" ","HOUSE_NO":"１２８號之６","E_COORD97":167207.79000000001,"N_COORD97":2557348.6499999999,"ADDRESS":"南海埔１２８號之６","OBJECTID":39030},"geometry":{"x":167207.7900000019,"y":2557348.6500000022}},{"attributes":{"ID":39031,"DIS_CODE":0,"TOWNNAME":"善化區","LI":"小新里","LIN":"7鄰","STREET":"成功路","SECT":" ","MAREA":" ","LANE":"１６９巷","ALLEY":"９６弄","HOUSE_NO":"１９８號","E_COORD97":179651.89498700001,"N_COORD97":2558608.8168899999,"ADDRESS":"成功路１６９巷９６弄１９８號","OBJECTID":39031},"geometry":{"x":179651.89498700015,"y":2558608.8168919999}},{"attributes":{"ID":39032,"DIS_CODE":0,"TOWNNAME":"善化區","LI":"小新里","LIN":"7鄰","STREET":"成功路","SECT":" ","MAREA":" ","LANE":"１６９巷","ALLEY":"９６弄","HOUSE_NO":"１８８號","E_COORD97":179652.95405100001,"N_COORD97":2558630.4068800001,"ADDRESS":"成功路１６９巷９６弄１８８號","OBJECTID":39032},"geometry":{"x":179652.954051001,"y":2558630.4068800006}},{"attributes":{"ID":39033,"DIS_CODE":0,"TOWNNAME":"善化區","LI":"小新里","LIN":"7鄰","STREET":"成功路","SECT":" ","MAREA":" ","LANE":"１６９巷","ALLEY":"９６弄","HOUSE_NO":"１９６號","E_COORD97":179656.87258900001,"N_COORD97":2558607.1235600002,"ADDRESS":"成功路１６９巷９６弄１９６號","OBJECTID":39033},"geometry":{"x":179656.8725890005,"y":2558607.1235600002}},{"attributes":{"ID":39034,"DIS_CODE":0,"TOWNNAME":"善化區","LI":"小新里","LIN":"7鄰","STREET":"成功路","SECT":" ","MAREA":" ","LANE":"１６９巷","ALLEY":"９６弄","HOUSE_NO":"２０２號","E_COORD97":179642.15159600001,"N_COORD97":2558611.56856,"ADDRESS":"成功路１６９巷９６弄２０２號","OBJECTID":39034},"geometry":{"x":179642.15159600042,"y":2558611.5685569998}},{"attributes":{"ID":39035,"DIS_CODE":0,"TOWNNAME":"善化區","LI":"小新里","LIN":"7鄰","STREET":"成功路","SECT":" ","MAREA":" ","LANE":"１６９巷","ALLEY":"９６弄","HOUSE_NO":"２０６號","E_COORD97":179636.96218199999,"N_COORD97":2558613.0502200001,"ADDRESS":"成功路１６９巷９６弄２０６號","OBJECTID":39035},"geometry":{"x":179636.96218200121,"y":2558613.0502230022}},{"attributes":{"ID":39036,"DIS_CODE":0,"TOWNNAME":"善化區","LI":"小新里","LIN":"7鄰","STREET":"成功路","SECT":" ","MAREA":" ","LANE":"１６９巷","ALLEY":"９６弄","HOUSE_NO":"２０８號","E_COORD97":179632.090486,"N_COORD97":2558614.5318900002,"ADDRESS":"成功路１６９巷９６弄２０８號","OBJECTID":39036},"geometry":{"x":179632.09048600029,"y":2558614.531888999}},{"attributes":{"ID":39037,"DIS_CODE":0,"TOWNNAME":"永康區","LI":"北灣里","LIN":"29鄰","STREET":"文賢街","SECT":" ","MAREA":" ","LANE":"７８巷","ALLEY":"５弄","HOUSE_NO":"８號","E_COORD97":175395.39999999999,"N_COORD97":2545345.5699999998,"ADDRESS":"文賢街７８巷５弄８號","OBJECTID":39037},"geometry":{"x":175395.4000000013,"y":2545345.5700000003}},{"attributes":{"ID":39038,"DIS_CODE":0,"TOWNNAME":"善化區","LI":"小新里","LIN":"7鄰","STREET":"成功路","SECT":" ","MAREA":" ","LANE":"１６９巷","ALLEY":"９６弄","HOUSE_NO":"２１０號","E_COORD97":179627.74832300001,"N_COORD97":2558616.1193900001,"ADDRESS":"成功路１６９巷９６弄２１０號","OBJECTID":39038},"geometry":{"x":179627.74832300004,"y":2558616.119388001}},{"attributes":{"ID":39039,"DIS_CODE":0,"TOWNNAME":"歸仁區","LI":"辜厝里","LIN":"4鄰","STREET":"民族南街","SECT":" ","MAREA":" ","LANE":"１８巷","ALLEY":"２７弄","HOUSE_NO":"１５號","E_COORD97":177362.95172899999,"N_COORD97":2540708.3266699999,"ADDRESS":"民族南街１８巷２７弄１５號","OBJECTID":39039},"geometry":{"x":177362.95172899961,"y":2540708.3266659975}},{"attributes":{"ID":39040,"DIS_CODE":0,"TOWNNAME":"善化區","LI":"小新里","LIN":"7鄰","STREET":"成功路","SECT":" ","MAREA":" ","LANE":"１６９巷","ALLEY":"９６弄","HOUSE_NO":"２１６號","E_COORD97":179619.381716,"N_COORD97":2558618.5535499998,"ADDRESS":"成功路１６９巷９６弄２１６號","OBJECTID":39040},"geometry":{"x":179619.38171599992,"y":2558618.5535530001}},{"attributes":{"ID":39041,"DIS_CODE":0,"TOWNNAME":"善化區","LI":"小新里","LIN":"7鄰","STREET":"成功路","SECT":" ","MAREA":" ","LANE":"１６９巷","ALLEY":"９６弄","HOUSE_NO":"２１８號","E_COORD97":179615.35727199999,"N_COORD97":2558620.03522,"ADDRESS":"成功路１６９巷９６弄２１８號","OBJECTID":39041},"geometry":{"x":179615.35727200098,"y":2558620.0352190007}},{"attributes":{"ID":39042,"DIS_CODE":0,"TOWNNAME":"善化區","LI":"小新里","LIN":"7鄰","STREET":"成功路","SECT":" ","MAREA":" ","LANE":"１６９巷","ALLEY":"９６弄","HOUSE_NO":"２２０號","E_COORD97":179611.33282800001,"N_COORD97":2558621.0935499999,"ADDRESS":"成功路１６９巷９６弄２２０號","OBJECTID":39042},"geometry":{"x":179611.33282800205,"y":2558621.0935520027}},{"attributes":{"ID":39043,"DIS_CODE":0,"TOWNNAME":"東區","LI":"忠孝里","LIN":"14鄰","STREET":"榮譽街","SECT":" ","MAREA":" ","LANE":" ","ALLEY":" ","HOUSE_NO":"９１號","E_COORD97":169804.70000000001,"N_COORD97":2541728.8700000001,"ADDRESS":"榮譽街９１號","OBJECTID":39043},"geometry":{"x":169804.70000000112,"y":2541728.8700000029}},{"attributes":{"ID":39044,"DIS_CODE":0,"TOWNNAME":"東區","LI":"忠孝里","LIN":"14鄰","STREET":"榮譽街","SECT":" ","MAREA":" ","LANE":" ","ALLEY":" ","HOUSE_NO":"９３號","E_COORD97":169814.20000000001,"N_COORD97":2541734.8500000001,"ADDRESS":"榮譽街９３號","OBJECTID":39044},"geometry":{"x":169814.20000000205,"y":2541734.8499999996}},{"attributes":{"ID":39045,"DIS_CODE":0,"TOWNNAME":"東區","LI":"忠孝里","LIN":"14鄰","STREET":"榮譽街","SECT":" ","MAREA":" ","LANE":" ","ALLEY":" ","HOUSE_NO":"９５號","E_COORD97":169822.10999999999,"N_COORD97":2541739.2400000002,"ADDRESS":"榮譽街９５號","OBJECTID":39045},"geometry":{"x":169822.11000000127,"y":2541739.2400000021}},{"attributes":{"ID":39046,"DIS_CODE":0,"TOWNNAME":"東區","LI":"忠孝里","LIN":"14鄰","STREET":"榮譽街","SECT":" ","MAREA":" ","LANE":" ","ALLEY":" ","HOUSE_NO":"１０３號","E_COORD97":169832.66,"N_COORD97":2541744.8599999999,"ADDRESS":"榮譽街１０３號","OBJECTID":39046},"geometry":{"x":169832.66000000015,"y":2541744.8599999994}},{"attributes":{"ID":39047,"DIS_CODE":0,"TOWNNAME":"東區","LI":"忠孝里","LIN":"14鄰","STREET":"榮譽街","SECT":" ","MAREA":" ","LANE":" ","ALLEY":" ","HOUSE_NO":"１０５號","E_COORD97":169835.82999999999,"N_COORD97":2541746.6099999999,"ADDRESS":"榮譽街１０５號","OBJECTID":39047},"geometry":{"x":169835.83000000101,"y":2541746.6099999994}},{"attributes":{"ID":39048,"DIS_CODE":0,"TOWNNAME":"東區","LI":"忠孝里","LIN":"14鄰","STREET":"榮譽街","SECT":" ","MAREA":" ","LANE":" ","ALLEY":" ","HOUSE_NO":"１０９號","E_COORD97":169843.04000000001,"N_COORD97":2541749.77,"ADDRESS":"榮譽街１０９號","OBJECTID":39048},"geometry":{"x":169843.04000000004,"y":2541749.7699999996}},{"attributes":{"ID":39049,"DIS_CODE":0,"TOWNNAME":"東區","LI":"忠孝里","LIN":"14鄰","STREET":"榮譽街","SECT":" ","MAREA":" ","LANE":" ","ALLEY":" ","HOUSE_NO":"１１１號","E_COORD97":169846.38,"N_COORD97":2541751.8799999999,"ADDRESS":"榮譽街１１１號","OBJECTID":39049},"geometry":{"x":169846.37999999896,"y":2541751.879999999}},{"attributes":{"ID":39050,"DIS_CODE":0,"TOWNNAME":"新化區","LI":"唪口里","LIN":"1鄰","STREET":"大德路","SECT":" ","MAREA":" ","LANE":" ","ALLEY":" ","HOUSE_NO":"３８號之２","E_COORD97":178540.42999999999,"N_COORD97":2549423.2599999998,"ADDRESS":"大德路３８號之２","OBJECTID":39050},"geometry":{"x":178540.42999999877,"y":2549423.2600000035}},{"attributes":{"ID":39051,"DIS_CODE":0,"TOWNNAME":"新化區","LI":"觀音里","LIN":"7鄰","STREET":"忠孝路","SECT":" ","MAREA":" ","LANE":" ","ALLEY":" ","HOUSE_NO":"６５號","E_COORD97":178913.57000000001,"N_COORD97":2548676.25,"ADDRESS":"忠孝路６５號","OBJECTID":39051},"geometry":{"x":178913.57000000123,"y":2548676.25}},{"attributes":{"ID":39052,"DIS_CODE":0,"TOWNNAME":"新化區","LI":"清水里","LIN":"7鄰","STREET":"民治路","SECT":" ","MAREA":" ","LANE":" ","ALLEY":" ","HOUSE_NO":"２６２號","E_COORD97":178679.81,"N_COORD97":2548533.25,"ADDRESS":"民治路２６２號","OBJECTID":39052},"geometry":{"x":178679.80999999959,"y":2548533.2500000019}},{"attributes":{"ID":39053,"DIS_CODE":0,"TOWNNAME":"新化區","LI":"豐榮里","LIN":"7鄰","STREET":"大智路","SECT":" ","MAREA":" ","LANE":" ","ALLEY":" ","HOUSE_NO":"２６５號","E_COORD97":177911.03,"N_COORD97":2547938.25,"ADDRESS":"大智路２６５號","OBJECTID":39053},"geometry":{"x":177911.03000000026,"y":2547938.2499999981}},{"attributes":{"ID":39054,"DIS_CODE":0,"TOWNNAME":"新化區","LI":"協興里","LIN":"7鄰","STREET":"太平街","SECT":" ","MAREA":" ","LANE":" ","ALLEY":" ","HOUSE_NO":"１２５號之１","E_COORD97":178347.04999999999,"N_COORD97":2548673.2599999998,"ADDRESS":"太平街１２５號之１","OBJECTID":39054},"geometry":{"x":178347.05000000075,"y":2548673.2599999998}},{"attributes":{"ID":39055,"DIS_CODE":0,"TOWNNAME":"新化區","LI":"護國里","LIN":"7鄰","STREET":"民生路","SECT":" ","MAREA":" ","LANE":" ","ALLEY":" ","HOUSE_NO":"７３號之１","E_COORD97":179385.29000000001,"N_COORD97":2548498.2599999998,"ADDRESS":"民生路７３號之１","OBJECTID":39055},"geometry":{"x":179385.29000000004,"y":2548498.2600000016}},{"attributes":{"ID":39056,"DIS_CODE":0,"TOWNNAME":"善化區","LI":"小新里","LIN":"7鄰","STREET":"成功路","SECT":" ","MAREA":" ","LANE":"１６９巷","ALLEY":"９６弄","HOUSE_NO":"２２２號","E_COORD97":179607.308384,"N_COORD97":2558622.4693800001,"ADDRESS":"成功路１６９巷９６弄２２２號","OBJECTID":39056},"geometry":{"x":179607.30838400032,"y":2558622.4693849999}},{"attributes":{"ID":39057,"DIS_CODE":0,"TOWNNAME":"善化區","LI":"小新里","LIN":"7鄰","STREET":"成功路","SECT":" ","MAREA":" ","LANE":"１６９巷","ALLEY":"９６弄","HOUSE_NO":"２３２號","E_COORD97":179594.811426,"N_COORD97":2558595.1644000001,"ADDRESS":"成功路１６９巷９６弄２３２號","OBJECTID":39057},"geometry":{"x":179594.81142600067,"y":2558595.1643989999}},{"attributes":{"ID":39058,"DIS_CODE":0,"TOWNNAME":"善化區","LI":"小新里","LIN":"7鄰","STREET":"成功路","SECT":" ","MAREA":" ","LANE":"１６９巷","ALLEY":"９６弄","HOUSE_NO":"２３６號","E_COORD97":179598.83587000001,"N_COORD97":2558593.68273,"ADDRESS":"成功路１６９巷９６弄２３６號","OBJECTID":39058},"geometry":{"x":179598.8358699996,"y":2558593.6827340033}},{"attributes":{"ID":39059,"DIS_CODE":0,"TOWNNAME":"善化區","LI":"小新里","LIN":"7鄰","STREET":"成功路","SECT":" ","MAREA":" ","LANE":"１６９巷","ALLEY":"９６弄","HOUSE_NO":"２３８號","E_COORD97":179602.96622100001,"N_COORD97":2558592.20107,"ADDRESS":"成功路１６９巷９６弄２３８號","OBJECTID":39059},"geometry":{"x":179602.96622100007,"y":2558592.2010680009}},{"attributes":{"ID":39060,"DIS_CODE":0,"TOWNNAME":"善化區","LI":"小新里","LIN":"7鄰","STREET":"成功路","SECT":" ","MAREA":" ","LANE":"１６９巷","ALLEY":"９６弄","HOUSE_NO":"２４０號","E_COORD97":179606.99066499999,"N_COORD97":2558590.9310699999,"ADDRESS":"成功路１６９巷９６弄２４０號","OBJECTID":39060},"geometry":{"x":179606.99066500086,"y":2558590.9310680013}},{"attributes":{"ID":39061,"DIS_CODE":0,"TOWNNAME":"善化區","LI":"小新里","LIN":"7鄰","STREET":"成功路","SECT":" ","MAREA":" ","LANE":"１６９巷","ALLEY":"９６弄","HOUSE_NO":"２４２號","E_COORD97":179611.22692099999,"N_COORD97":2558589.87274,"ADDRESS":"成功路１６９巷９６弄２４２號","OBJECTID":39061},"geometry":{"x":179611.22692100052,"y":2558589.8727359995}},{"attributes":{"ID":39062,"DIS_CODE":0,"TOWNNAME":"善化區","LI":"小新里","LIN":"7鄰","STREET":"成功路","SECT":" ","MAREA":" ","LANE":"１６９巷","ALLEY":"９６弄","HOUSE_NO":"２４６號","E_COORD97":179615.03955300001,"N_COORD97":2558588.9202399999,"ADDRESS":"成功路１６９巷９６弄２４６號","OBJECTID":39062},"geometry":{"x":179615.03955300059,"y":2558588.9202360008}},{"attributes":{"ID":39063,"DIS_CODE":0,"TOWNNAME":"善化區","LI":"小新里","LIN":"7鄰","STREET":"成功路","SECT":" ","MAREA":" ","LANE":"１６９巷","ALLEY":"９６弄","HOUSE_NO":"２１２號","E_COORD97":179623.512066,"N_COORD97":2558617.2835499998,"ADDRESS":"成功路１６９巷９６弄２１２號","OBJECTID":39063},"geometry":{"x":179623.51206600014,"y":2558617.2835539989}},{"attributes":{"ID":39064,"DIS_CODE":0,"TOWNNAME":"善化區","LI":"小新里","LIN":"7鄰","STREET":"成功路","SECT":" ","MAREA":" ","LANE":"１６９巷","ALLEY":"９６弄","HOUSE_NO":"２４８號","E_COORD97":179619.27580999999,"N_COORD97":2558587.4385700002,"ADDRESS":"成功路１６９巷９６弄２４８號","OBJECTID":39064},"geometry":{"x":179619.27581000049,"y":2558587.4385700002}},{"attributes":{"ID":39065,"DIS_CODE":0,"TOWNNAME":"善化區","LI":"小新里","LIN":"7鄰","STREET":"成功路","SECT":" ","MAREA":" ","LANE":"１６９巷","ALLEY":"９６弄","HOUSE_NO":"２５０號","E_COORD97":179623.723879,"N_COORD97":2558585.8510699999,"ADDRESS":"成功路１６９巷９６弄２５０號","OBJECTID":39065},"geometry":{"x":179623.7238790011,"y":2558585.851071002}},{"attributes":{"ID":39066,"DIS_CODE":0,"TOWNNAME":"善化區","LI":"小新里","LIN":"7鄰","STREET":"成功路","SECT":" ","MAREA":" ","LANE":"１６９巷","ALLEY":"９６弄","HOUSE_NO":"２５２號","E_COORD97":179628.701481,"N_COORD97":2558584.26357,"ADDRESS":"成功路１６９巷９６弄２５２號","OBJECTID":39066},"geometry":{"x":179628.70148100052,"y":2558584.263572}},{"attributes":{"ID":39067,"DIS_CODE":0,"TOWNNAME":"善化區","LI":"小新里","LIN":"7鄰","STREET":"成功路","SECT":" ","MAREA":" ","LANE":"１６９巷","ALLEY":"９６弄","HOUSE_NO":"２５６號","E_COORD97":179633.57317600001,"N_COORD97":2558582.5702399998,"ADDRESS":"成功路１６９巷９６弄２５６號","OBJECTID":39067},"geometry":{"x":179633.57317600027,"y":2558582.5702400021}},{"attributes":{"ID":39068,"DIS_CODE":0,"TOWNNAME":"新化區","LI":"東榮里","LIN":"20鄰","STREET":"民生路","SECT":" ","MAREA":" ","LANE":" ","ALLEY":" ","HOUSE_NO":"３７號","E_COORD97":179420.16,"N_COORD97":2548334.25,"ADDRESS":"民生路３７號","OBJECTID":39068},"geometry":{"x":179420.16000000015,"y":2548334.25}},{"attributes":{"ID":39069,"DIS_CODE":0,"TOWNNAME":"東區","LI":"裕農里","LIN":"14鄰","STREET":"裕豐街","SECT":" ","MAREA":" ","LANE":" ","ALLEY":" ","HOUSE_NO":"２６６號","E_COORD97":170819.45000000001,"N_COORD97":2543315.04,"ADDRESS":"裕豐街２６６號","OBJECTID":39069},"geometry":{"x":170819.45000000205,"y":2543315.040000001}},{"attributes":{"ID":39070,"DIS_CODE":0,"TOWNNAME":"新化區","LI":"武安里","LIN":"8鄰","STREET":"和平街","SECT":" ","MAREA":" ","LANE":" ","ALLEY":" ","HOUSE_NO":"１２２號","E_COORD97":178923.42000000001,"N_COORD97":2548147.25,"ADDRESS":"和平街１２２號","OBJECTID":39070},"geometry":{"x":178923.41999999993,"y":2548147.25}},{"attributes":{"ID":39071,"DIS_CODE":0,"TOWNNAME":"新化區","LI":"竹林里","LIN":"4鄰","STREET":"民族街","SECT":" ","MAREA":" ","LANE":" ","ALLEY":" ","HOUSE_NO":"１７號","E_COORD97":178890.56,"N_COORD97":2548485.25,"ADDRESS":"民族街１７號","OBJECTID":39071},"geometry":{"x":178890.56000000145,"y":2548485.2500000019}},{"attributes":{"ID":39072,"DIS_CODE":0,"TOWNNAME":"新化區","LI":"武安里","LIN":"4鄰","STREET":"和平街","SECT":" ","MAREA":" ","LANE":" ","ALLEY":" ","HOUSE_NO":"６０號","E_COORD97":179095.67000000001,"N_COORD97":2548161.25,"ADDRESS":"和平街６０號","OBJECTID":39072},"geometry":{"x":179095.67000000086,"y":2548161.25}},{"attributes":{"ID":39073,"DIS_CODE":0,"TOWNNAME":"新化區","LI":"中央里","LIN":"4鄰","STREET":"中山路","SECT":" ","MAREA":" ","LANE":" ","ALLEY":" ","HOUSE_NO":"２８７號","E_COORD97":178995.01000000001,"N_COORD97":2548413.25,"ADDRESS":"中山路２８７號","OBJECTID":39073},"geometry":{"x":178995.01000000071,"y":2548413.2500000037}},{"attributes":{"ID":39074,"DIS_CODE":0,"TOWNNAME":"新化區","LI":"東榮里","LIN":"34鄰","STREET":"中山路","SECT":" ","MAREA":" ","LANE":" ","ALLEY":" ","HOUSE_NO":"２３１號","E_COORD97":179157.70999999999,"N_COORD97":2548438.25,"ADDRESS":"中山路２３１號","OBJECTID":39074},"geometry":{"x":179157.71000000183,"y":2548438.2500000019}},{"attributes":{"ID":39075,"DIS_CODE":0,"TOWNNAME":"新化區","LI":"東榮里","LIN":"20鄰","STREET":"民生路","SECT":" ","MAREA":" ","LANE":" ","ALLEY":" ","HOUSE_NO":"４３號","E_COORD97":179413.66,"N_COORD97":2548350.25,"ADDRESS":"民生路４３號","OBJECTID":39075},"geometry":{"x":179413.66000000015,"y":2548350.2500000019}},{"attributes":{"ID":39076,"DIS_CODE":0,"TOWNNAME":"新化區","LI":"東榮里","LIN":"34鄰","STREET":"中山路","SECT":" ","MAREA":" ","LANE":" ","ALLEY":" ","HOUSE_NO":"２４１號","E_COORD97":179141.20999999999,"N_COORD97":2548433.25,"ADDRESS":"中山路２４１號","OBJECTID":39076},"geometry":{"x":179141.21000000089,"y":2548433.2499999981}},{"attributes":{"ID":39077,"DIS_CODE":0,"TOWNNAME":"新化區","LI":"清水里","LIN":"4鄰","STREET":"民治路","SECT":" ","MAREA":" ","LANE":" ","ALLEY":" ","HOUSE_NO":"２２８號","E_COORD97":178689.51000000001,"N_COORD97":2548450.25,"ADDRESS":"民治路２２８號","OBJECTID":39077},"geometry":{"x":178689.51000000071,"y":2548450.2499999981}},{"attributes":{"ID":39078,"DIS_CODE":0,"TOWNNAME":"新化區","LI":"太平里","LIN":"4鄰","STREET":"民生路","SECT":" ","MAREA":" ","LANE":" ","ALLEY":" ","HOUSE_NO":"２６３號","E_COORD97":179003.10999999999,"N_COORD97":2549059.25,"ADDRESS":"民生路２６３號","OBJECTID":39078},"geometry":{"x":179003.11000000127,"y":2549059.25}},{"attributes":{"ID":39079,"DIS_CODE":0,"TOWNNAME":"西港區","LI":"營西里","LIN":"14鄰","STREET":" ","SECT":" ","MAREA":"後營","LANE":" ","ALLEY":" ","HOUSE_NO":"１０８號之１","E_COORD97":169850.48000000001,"N_COORD97":2560339.6299999999,"ADDRESS":"後營１０８號之１","OBJECTID":39079},"geometry":{"x":169850.48000000138,"y":2560339.629999999}},{"attributes":{"ID":39080,"DIS_CODE":0,"TOWNNAME":"新化區","LI":"中央里","LIN":"4鄰","STREET":"中山路","SECT":" ","MAREA":" ","LANE":" ","ALLEY":" ","HOUSE_NO":"２７７號","E_COORD97":179008.31,"N_COORD97":2548414.25,"ADDRESS":"中山路２７７號","OBJECTID":39080},"geometry":{"x":179008.30999999959,"y":2548414.2500000019}},{"attributes":{"ID":39081,"DIS_CODE":0,"TOWNNAME":"善化區","LI":"小新里","LIN":"7鄰","STREET":"成功路","SECT":" ","MAREA":" ","LANE":"１６９巷","ALLEY":"９６弄","HOUSE_NO":"２５８號","E_COORD97":179638.76259100001,"N_COORD97":2558581.6177400001,"ADDRESS":"成功路１６９巷９６弄２５８號","OBJECTID":39081},"geometry":{"x":179638.76259100065,"y":2558581.6177399997}},{"attributes":{"ID":39082,"DIS_CODE":0,"TOWNNAME":"新市區","LI":"大社里","LIN":"14鄰","STREET":" ","SECT":" ","MAREA":"大社","LANE":" ","ALLEY":" ","HOUSE_NO":"５３０之３１號","E_COORD97":179889.64999999999,"N_COORD97":2554716.0499999998,"ADDRESS":"大社５３０之３１號","OBJECTID":39082},"geometry":{"x":179889.6500000013,"y":2554716.0500000026}},{"attributes":{"ID":39083,"DIS_CODE":0,"TOWNNAME":"善化區","LI":"小新里","LIN":"7鄰","STREET":"成功路","SECT":" ","MAREA":" ","LANE":"１６９巷","ALLEY":"９６弄","HOUSE_NO":"２６０號","E_COORD97":179643.316567,"N_COORD97":2558579.6069100001,"ADDRESS":"成功路１６９巷９６弄２６０號","OBJECTID":39083},"geometry":{"x":179643.316567,"y":2558579.6069080047}},{"attributes":{"ID":39084,"DIS_CODE":0,"TOWNNAME":"善化區","LI":"小新里","LIN":"7鄰","STREET":"成功路","SECT":" ","MAREA":" ","LANE":"１６９巷","ALLEY":"９６弄","HOUSE_NO":"２６２號","E_COORD97":179648.717795,"N_COORD97":2558577.7019099998,"ADDRESS":"成功路１６９巷９６弄２６２號","OBJECTID":39084},"geometry":{"x":179648.71779500041,"y":2558577.7019090001}},{"attributes":{"ID":39085,"DIS_CODE":0,"TOWNNAME":"新市區","LI":"大社里","LIN":"14鄰","STREET":" ","SECT":" ","MAREA":"大社","LANE":" ","ALLEY":" ","HOUSE_NO":"５３３之２號","E_COORD97":179923.38,"N_COORD97":2554728.5499999998,"ADDRESS":"大社５３３之２號","OBJECTID":39085},"geometry":{"x":179923.38000000082,"y":2554728.5500000026}},{"attributes":{"ID":39086,"DIS_CODE":0,"TOWNNAME":"善化區","LI":"小新里","LIN":"7鄰","STREET":"成功路","SECT":" ","MAREA":" ","LANE":"１６９巷","ALLEY":"９６弄","HOUSE_NO":"２６６號","E_COORD97":179643.104754,"N_COORD97":2558558.5460899998,"ADDRESS":"成功路１６９巷９６弄２６６號","OBJECTID":39086},"geometry":{"x":179643.10475400183,"y":2558558.5460860021}},{"attributes":{"ID":39087,"DIS_CODE":0,"TOWNNAME":"新市區","LI":"大社里","LIN":"14鄰","STREET":" ","SECT":" ","MAREA":"大社","LANE":" ","ALLEY":" ","HOUSE_NO":"５４７號","E_COORD97":179986.10000000001,"N_COORD97":2554613.25,"ADDRESS":"大社５４７號","OBJECTID":39087},"geometry":{"x":179986.10000000056,"y":2554613.25}},{"attributes":{"ID":39088,"DIS_CODE":0,"TOWNNAME":"善化區","LI":"小新里","LIN":"7鄰","STREET":"成功路","SECT":" ","MAREA":" ","LANE":"１６９巷","ALLEY":"９６弄","HOUSE_NO":"２６８號","E_COORD97":179637.491714,"N_COORD97":2558560.3452499998,"ADDRESS":"成功路１６９巷９６弄２６８號","OBJECTID":39088},"geometry":{"x":179637.49171399977,"y":2558560.3452520017}},{"attributes":{"ID":39089,"DIS_CODE":0,"TOWNNAME":"新市區","LI":"大營里","LIN":"14鄰","STREET":" ","SECT":" ","MAREA":"大營","LANE":" ","ALLEY":" ","HOUSE_NO":"２６５之６號","E_COORD97":179270.17000000001,"N_COORD97":2555546.0499999998,"ADDRESS":"大營２６５之６號","OBJECTID":39089},"geometry":{"x":179270.17000000086,"y":2555546.0500000026}},{"attributes":{"ID":39090,"DIS_CODE":0,"TOWNNAME":"新市區","LI":"大社里","LIN":"14鄰","STREET":" ","SECT":" ","MAREA":"大社","LANE":" ","ALLEY":" ","HOUSE_NO":"５２０號","E_COORD97":179888.82000000001,"N_COORD97":2554790.75,"ADDRESS":"大社５２０號","OBJECTID":39090},"geometry":{"x":179888.8200000003,"y":2554790.7500000019}},{"attributes":{"ID":39091,"DIS_CODE":0,"TOWNNAME":"善化區","LI":"小新里","LIN":"7鄰","STREET":"成功路","SECT":" ","MAREA":" ","LANE":"１６９巷","ALLEY":"９６弄","HOUSE_NO":"２７０號","E_COORD97":179632.83183099999,"N_COORD97":2558561.6152499998,"ADDRESS":"成功路１６９巷９６弄２７０號","OBJECTID":39091},"geometry":{"x":179632.83183100168,"y":2558561.615251001}},{"attributes":{"ID":39092,"DIS_CODE":0,"TOWNNAME":"善化區","LI":"小新里","LIN":"7鄰","STREET":"成功路","SECT":" ","MAREA":" ","LANE":"１６９巷","ALLEY":"９６弄","HOUSE_NO":"２７２號","E_COORD97":179628.06604199999,"N_COORD97":2558563.30858,"ADDRESS":"成功路１６９巷９６弄２７２號","OBJECTID":39092},"geometry":{"x":179628.06604200136,"y":2558563.3085830007}},{"attributes":{"ID":39093,"DIS_CODE":0,"TOWNNAME":"東區","LI":"關聖里","LIN":"14鄰","STREET":"裕和二街","SECT":" ","MAREA":" ","LANE":" ","ALLEY":" ","HOUSE_NO":"３８號","E_COORD97":172188.87,"N_COORD97":2542994.2599999998,"ADDRESS":"裕和二街３８號","OBJECTID":39093},"geometry":{"x":172188.87000000011,"y":2542994.2599999998}},{"attributes":{"ID":39094,"DIS_CODE":0,"TOWNNAME":"新市區","LI":"大社里","LIN":"14鄰","STREET":" ","SECT":" ","MAREA":"大社","LANE":" ","ALLEY":" ","HOUSE_NO":"５３０號之２","E_COORD97":179835.76000000001,"N_COORD97":2554749.2999999998,"ADDRESS":"大社５３０號之２","OBJECTID":39094},"geometry":{"x":179835.76000000071,"y":2554749.3000000007}},{"attributes":{"ID":39095,"DIS_CODE":0,"TOWNNAME":"新市區","LI":"新市里","LIN":"14鄰","STREET":"中正路","SECT":" ","MAREA":" ","LANE":" ","ALLEY":" ","HOUSE_NO":"３２１號","E_COORD97":177669.04000000001,"N_COORD97":2553277,"ADDRESS":"中正路３２１號","OBJECTID":39095},"geometry":{"x":177669.04000000097,"y":2553277.0000000019}},{"attributes":{"ID":39096,"DIS_CODE":0,"TOWNNAME":"鹽水區","LI":"舊營里","LIN":"7鄰","STREET":" ","SECT":" ","MAREA":"舊營","LANE":" ","ALLEY":" ","HOUSE_NO":"５７號","E_COORD97":174298.82000000001,"N_COORD97":2577597.2000000002,"ADDRESS":"舊營５７號","OBJECTID":39096},"geometry":{"x":174298.82000000216,"y":2577597.200000003}},{"attributes":{"ID":39097,"DIS_CODE":0,"TOWNNAME":"新市區","LI":"新市里","LIN":"14鄰","STREET":"中正路","SECT":" ","MAREA":" ","LANE":" ","ALLEY":" ","HOUSE_NO":"３１９之３號","E_COORD97":177663.70999999999,"N_COORD97":2553273.7999999998,"ADDRESS":"中正路３１９之３號","OBJECTID":39097},"geometry":{"x":177663.70999999996,"y":2553273.8000000007}},{"attributes":{"ID":39098,"DIS_CODE":0,"TOWNNAME":"新市區","LI":"新市里","LIN":"14鄰","STREET":"中正路","SECT":" ","MAREA":" ","LANE":" ","ALLEY":" ","HOUSE_NO":"３１７之１號","E_COORD97":177628.95999999999,"N_COORD97":2553288.2999999998,"ADDRESS":"中正路３１７之１號","OBJECTID":39098},"geometry":{"x":177628.96000000089,"y":2553288.3000000007}},{"attributes":{"ID":39099,"DIS_CODE":0,"TOWNNAME":"新市區","LI":"新市里","LIN":"14鄰","STREET":"中正路","SECT":" ","MAREA":" ","LANE":" ","ALLEY":" ","HOUSE_NO":"３１９之２號","E_COORD97":177658.91,"N_COORD97":2553271.5499999998,"ADDRESS":"中正路３１９之２號","OBJECTID":39099},"geometry":{"x":177658.91000000015,"y":2553271.5500000026}},{"attributes":{"ID":39100,"DIS_CODE":0,"TOWNNAME":"善化區","LI":"小新里","LIN":"7鄰","STREET":"成功路","SECT":" ","MAREA":" ","LANE":"１６９巷","ALLEY":"９６弄","HOUSE_NO":"２７６號","E_COORD97":179622.876628,"N_COORD97":2558564.7902500001,"ADDRESS":"成功路１６９巷９６弄２７６號","OBJECTID":39100},"geometry":{"x":179622.87662800029,"y":2558564.7902490012}},{"attributes":{"ID":39101,"DIS_CODE":0,"TOWNNAME":"善化區","LI":"小新里","LIN":"7鄰","STREET":"成功路","SECT":" ","MAREA":" ","LANE":"１６９巷","ALLEY":"９６弄","HOUSE_NO":"２７８號","E_COORD97":179618.00493200001,"N_COORD97":2558566.4835799998,"ADDRESS":"成功路１６９巷９６弄２７８號","OBJECTID":39101},"geometry":{"x":179618.0049320003,"y":2558566.4835819993}},{"attributes":{"ID":39102,"DIS_CODE":0,"TOWNNAME":"善化區","LI":"小新里","LIN":"7鄰","STREET":"成功路","SECT":" ","MAREA":" ","LANE":"１６９巷","ALLEY":"９６弄","HOUSE_NO":"２８０號","E_COORD97":179613.45095599999,"N_COORD97":2558567.64775,"ADDRESS":"成功路１６９巷９６弄２８０號","OBJECTID":39102},"geometry":{"x":179613.45095600095,"y":2558567.6477480028}},{"attributes":{"ID":39103,"DIS_CODE":0,"TOWNNAME":"新市區","LI":"潭頂里","LIN":"14鄰","STREET":" ","SECT":" ","MAREA":"潭頂","LANE":" ","ALLEY":" ","HOUSE_NO":"５３８號之７","E_COORD97":180164.53,"N_COORD97":2552831.5499999998,"ADDRESS":"潭頂５３８號之７","OBJECTID":39103},"geometry":{"x":180164.53000000212,"y":2552831.5500000007}},{"attributes":{"ID":39104,"DIS_CODE":0,"TOWNNAME":"善化區","LI":"小新里","LIN":"7鄰","STREET":"成功路","SECT":" ","MAREA":" ","LANE":"１６９巷","ALLEY":"９６弄","HOUSE_NO":"２８２號","E_COORD97":179609.42651200001,"N_COORD97":2558568.91775,"ADDRESS":"成功路１６９巷９６弄２８２號","OBJECTID":39104},"geometry":{"x":179609.42651200201,"y":2558568.9177470021}},{"attributes":{"ID":39105,"DIS_CODE":0,"TOWNNAME":"新市區","LI":"潭頂里","LIN":"14鄰","STREET":" ","SECT":" ","MAREA":"潭頂","LANE":" ","ALLEY":" ","HOUSE_NO":"５３８之６號","E_COORD97":180169.67000000001,"N_COORD97":2552831.5499999998,"ADDRESS":"潭頂５３８之６號","OBJECTID":39105},"geometry":{"x":180169.66999999993,"y":2552831.5500000007}},{"attributes":{"ID":39106,"DIS_CODE":0,"TOWNNAME":"新市區","LI":"潭頂里","LIN":"14鄰","STREET":" ","SECT":" ","MAREA":"潭頂","LANE":" ","ALLEY":" ","HOUSE_NO":"５０５號","E_COORD97":180487.22,"N_COORD97":2552931.75,"ADDRESS":"潭頂５０５號","OBJECTID":39106},"geometry":{"x":180487.22000000067,"y":2552931.75}},{"attributes":{"ID":39107,"DIS_CODE":0,"TOWNNAME":"善化區","LI":"小新里","LIN":"7鄰","STREET":"成功路","SECT":" ","MAREA":" ","LANE":"１６９巷","ALLEY":"９６弄","HOUSE_NO":"２８６號","E_COORD97":179605.19025499999,"N_COORD97":2558570.18775,"ADDRESS":"成功路１６９巷９６弄２８６號","OBJECTID":39107},"geometry":{"x":179605.19025500026,"y":2558570.1877460033}},{"attributes":{"ID":39108,"DIS_CODE":0,"TOWNNAME":"善化區","LI":"小新里","LIN":"7鄰","STREET":"成功路","SECT":" ","MAREA":" ","LANE":"１６９巷","ALLEY":"９６弄","HOUSE_NO":"２８８號","E_COORD97":179601.16581100001,"N_COORD97":2558571.5635799998,"ADDRESS":"成功路１６９巷９６弄２８８號","OBJECTID":39108},"geometry":{"x":179601.16581100132,"y":2558571.5635790024}},{"attributes":{"ID":39109,"DIS_CODE":0,"TOWNNAME":"善化區","LI":"小新里","LIN":"7鄰","STREET":"成功路","SECT":" ","MAREA":" ","LANE":"１６９巷","ALLEY":"９６弄","HOUSE_NO":"２９０號","E_COORD97":179596.92955500001,"N_COORD97":2558572.51608,"ADDRESS":"成功路１６９巷９６弄２９０號","OBJECTID":39109},"geometry":{"x":179596.92955500167,"y":2558572.5160780009}},{"attributes":{"ID":39110,"DIS_CODE":0,"TOWNNAME":"善化區","LI":"小新里","LIN":"7鄰","STREET":"成功路","SECT":" ","MAREA":" ","LANE":"１６９巷","ALLEY":"９６弄","HOUSE_NO":"２９２號","E_COORD97":179592.905111,"N_COORD97":2558573.78608,"ADDRESS":"成功路１６９巷９６弄２９２號","OBJECTID":39110},"geometry":{"x":179592.90511099994,"y":2558573.7860780004}},{"attributes":{"ID":39111,"DIS_CODE":0,"TOWNNAME":"善化區","LI":"小新里","LIN":"7鄰","STREET":"成功路","SECT":" ","MAREA":" ","LANE":"１６９巷","ALLEY":"９６弄","HOUSE_NO":"２９６號","E_COORD97":179588.986573,"N_COORD97":2558575.05608,"ADDRESS":"成功路１６９巷９６弄２９６號","OBJECTID":39111},"geometry":{"x":179588.98657300044,"y":2558575.0560769998}},{"attributes":{"ID":39112,"DIS_CODE":0,"TOWNNAME":"善化區","LI":"小新里","LIN":"7鄰","STREET":"成功路","SECT":" ","MAREA":" ","LANE":"１６９巷","ALLEY":"９６弄","HOUSE_NO":"２９８號","E_COORD97":179584.85622300001,"N_COORD97":2558576.4319099998,"ADDRESS":"成功路１６９巷９６弄２９８號","OBJECTID":39112},"geometry":{"x":179584.85622300021,"y":2558576.4319100007}},{"attributes":{"ID":39113,"DIS_CODE":0,"TOWNNAME":"新市區","LI":"新和里","LIN":"7鄰","STREET":"富強路","SECT":" ","MAREA":" ","LANE":"５１巷","ALLEY":"２弄","HOUSE_NO":"１０號","E_COORD97":177261.87,"N_COORD97":2552378.5,"ADDRESS":"富強路５１巷２弄１０號","OBJECTID":39113},"geometry":{"x":177261.87000000104,"y":2552378.5000000019}},{"attributes":{"ID":39114,"DIS_CODE":0,"TOWNNAME":"東區","LI":"東聖里","LIN":"7鄰","STREET":"富農街","SECT":"二段","MAREA":" ","LANE":"６５巷","ALLEY":"１９弄","HOUSE_NO":"１０號","E_COORD97":171551.35999999999,"N_COORD97":2542978.6800000002,"ADDRESS":"富農街二段６５巷１９弄１０號","OBJECTID":39114},"geometry":{"x":171551.36000000127,"y":2542978.6800000034}},{"attributes":{"ID":39115,"DIS_CODE":0,"TOWNNAME":"東區","LI":"東聖里","LIN":"7鄰","STREET":"富農街","SECT":"二段","MAREA":" ","LANE":"６５巷","ALLEY":"１９弄","HOUSE_NO":"１２號","E_COORD97":171549.32000000001,"N_COORD97":2542969.2000000002,"ADDRESS":"富農街二段６５巷１９弄１２號","OBJECTID":39115},"geometry":{"x":171549.32000000216,"y":2542969.2000000011}},{"attributes":{"ID":39116,"DIS_CODE":0,"TOWNNAME":"新市區","LI":"新市里","LIN":"14鄰","STREET":"中正路","SECT":" ","MAREA":" ","LANE":" ","ALLEY":" ","HOUSE_NO":"３０５號","E_COORD97":177614.70999999999,"N_COORD97":2553254.5,"ADDRESS":"中正路３０５號","OBJECTID":39116},"geometry":{"x":177614.70999999996,"y":2553254.5000000019}},{"attributes":{"ID":39117,"DIS_CODE":0,"TOWNNAME":"新市區","LI":"新市里","LIN":"14鄰","STREET":"中正路","SECT":" ","MAREA":" ","LANE":" ","ALLEY":" ","HOUSE_NO":"３１５號","E_COORD97":177636.41,"N_COORD97":2553263.5,"ADDRESS":"中正路３１５號","OBJECTID":39117},"geometry":{"x":177636.41000000108,"y":2553263.5000000019}},{"attributes":{"ID":39118,"DIS_CODE":0,"TOWNNAME":"新市區","LI":"新市里","LIN":"14鄰","STREET":"中正路","SECT":" ","MAREA":" ","LANE":" ","ALLEY":" ","HOUSE_NO":"３０９號","E_COORD97":177623.32000000001,"N_COORD97":2553258,"ADDRESS":"中正路３０９號","OBJECTID":39118},"geometry":{"x":177623.32000000123,"y":2553258}},{"attributes":{"ID":39119,"DIS_CODE":0,"TOWNNAME":"新化區","LI":"武安里","LIN":"13鄰","STREET":"正新南路","SECT":" ","MAREA":" ","LANE":" ","ALLEY":" ","HOUSE_NO":"１００號","E_COORD97":178887.76999999999,"N_COORD97":2547994.25,"ADDRESS":"正新南路１００號","OBJECTID":39119},"geometry":{"x":178887.77000000048,"y":2547994.2500000019}},{"attributes":{"ID":39120,"DIS_CODE":0,"TOWNNAME":"新化區","LI":"豐榮里","LIN":"4鄰","STREET":"中山路","SECT":" ","MAREA":" ","LANE":" ","ALLEY":" ","HOUSE_NO":"６５９號之１","E_COORD97":178138.44,"N_COORD97":2548503.2599999998,"ADDRESS":"中山路６５９號之１","OBJECTID":39120},"geometry":{"x":178138.44000000134,"y":2548503.2599999998}},{"attributes":{"ID":39121,"DIS_CODE":0,"TOWNNAME":"新化區","LI":"東榮里","LIN":"4鄰","STREET":"信義路","SECT":" ","MAREA":" ","LANE":" ","ALLEY":" ","HOUSE_NO":"７９號之３","E_COORD97":179872.82999999999,"N_COORD97":2548692.2599999998,"ADDRESS":"信義路７９號之３","OBJECTID":39121},"geometry":{"x":179872.83000000101,"y":2548692.2600000016}},{"attributes":{"ID":39122,"DIS_CODE":0,"TOWNNAME":"新化區","LI":"東榮里","LIN":"18鄰","STREET":"中興路","SECT":" ","MAREA":" ","LANE":" ","ALLEY":" ","HOUSE_NO":"６９１號","E_COORD97":179560.91,"N_COORD97":2548086.25,"ADDRESS":"中興路６９１號","OBJECTID":39122},"geometry":{"x":179560.91000000015,"y":2548086.25}},{"attributes":{"ID":39123,"DIS_CODE":0,"TOWNNAME":"新化區","LI":"豐榮里","LIN":"13鄰","STREET":"民治路","SECT":" ","MAREA":" ","LANE":" ","ALLEY":" ","HOUSE_NO":"１０號","E_COORD97":178749.45999999999,"N_COORD97":2547986.25,"ADDRESS":"民治路１０號","OBJECTID":39123},"geometry":{"x":178749.46000000089,"y":2547986.2500000019}},{"attributes":{"ID":39124,"DIS_CODE":0,"TOWNNAME":"新化區","LI":"豐榮里","LIN":"13鄰","STREET":"民治路","SECT":" ","MAREA":" ","LANE":" ","ALLEY":" ","HOUSE_NO":"１２號","E_COORD97":178749.06,"N_COORD97":2547990.25,"ADDRESS":"民治路１２號","OBJECTID":39124},"geometry":{"x":178749.05999999959,"y":2547990.2500000019}},{"attributes":{"ID":39125,"DIS_CODE":0,"TOWNNAME":"新化區","LI":"豐榮里","LIN":"13鄰","STREET":"民治路","SECT":" ","MAREA":" ","LANE":" ","ALLEY":" ","HOUSE_NO":"１７號","E_COORD97":178724.06,"N_COORD97":2548006.25,"ADDRESS":"民治路１７號","OBJECTID":39125},"geometry":{"x":178724.05999999959,"y":2548006.2500000037}},{"attributes":{"ID":39126,"DIS_CODE":0,"TOWNNAME":"新化區","LI":"中央里","LIN":"4鄰","STREET":"中山路","SECT":" ","MAREA":" ","LANE":" ","ALLEY":" ","HOUSE_NO":"２８５號","E_COORD97":178997.81,"N_COORD97":2548413.25,"ADDRESS":"中山路２８５號","OBJECTID":39126},"geometry":{"x":178997.81000000052,"y":2548413.2500000037}},{"attributes":{"ID":39127,"DIS_CODE":0,"TOWNNAME":"新化區","LI":"竹林里","LIN":"4鄰","STREET":"中山路","SECT":" ","MAREA":" ","LANE":" ","ALLEY":" ","HOUSE_NO":"３６４號","E_COORD97":178879.81,"N_COORD97":2548428.25,"ADDRESS":"中山路３６４號","OBJECTID":39127},"geometry":{"x":178879.80999999959,"y":2548428.2500000019}},{"attributes":{"ID":39128,"DIS_CODE":0,"TOWNNAME":"新化區","LI":"護國里","LIN":"4鄰","STREET":"中山路","SECT":" ","MAREA":" ","LANE":" ","ALLEY":" ","HOUSE_NO":"２０４號","E_COORD97":179163.81,"N_COORD97":2548466.25,"ADDRESS":"中山路２０４號","OBJECTID":39128},"geometry":{"x":179163.81000000052,"y":2548466.25}},{"attributes":{"ID":39129,"DIS_CODE":0,"TOWNNAME":"新化區","LI":"東榮里","LIN":"18鄰","STREET":"中興路","SECT":" ","MAREA":" ","LANE":" ","ALLEY":" ","HOUSE_NO":"６９９號","E_COORD97":179544.20999999999,"N_COORD97":2548094.25,"ADDRESS":"中興路６９９號","OBJECTID":39129},"geometry":{"x":179544.21000000183,"y":2548094.2499999981}},{"attributes":{"ID":39130,"DIS_CODE":0,"TOWNNAME":"東區","LI":"東聖里","LIN":"7鄰","STREET":"富農街","SECT":"二段","MAREA":" ","LANE":"６５巷","ALLEY":"１９弄","HOUSE_NO":"２號","E_COORD97":171547.64000000001,"N_COORD97":2543007.8599999999,"ADDRESS":"富農街二段６５巷１９弄２號","OBJECTID":39130},"geometry":{"x":171547.63999999966,"y":2543007.8600000013}},{"attributes":{"ID":39131,"DIS_CODE":0,"TOWNNAME":"新化區","LI":"東榮里","LIN":"17鄰","STREET":"中興路","SECT":" ","MAREA":" ","LANE":" ","ALLEY":" ","HOUSE_NO":"６６１號之１","E_COORD97":179658.04000000001,"N_COORD97":2547998.2599999998,"ADDRESS":"中興路６６１號之１","OBJECTID":39131},"geometry":{"x":179658.04000000097,"y":2547998.2599999998}},{"attributes":{"ID":39132,"DIS_CODE":0,"TOWNNAME":"新化區","LI":"護國里","LIN":"7鄰","STREET":"民生路","SECT":" ","MAREA":" ","LANE":" ","ALLEY":" ","HOUSE_NO":"６７號","E_COORD97":179393.56,"N_COORD97":2548477.25,"ADDRESS":"民生路６７號","OBJECTID":39132},"geometry":{"x":179393.55999999959,"y":2548477.2499999981}},{"attributes":{"ID":39133,"DIS_CODE":0,"TOWNNAME":"新化區","LI":"豐榮里","LIN":"13鄰","STREET":"民治路","SECT":" ","MAREA":" ","LANE":" ","ALLEY":" ","HOUSE_NO":"２號","E_COORD97":178753.60999999999,"N_COORD97":2547972.25,"ADDRESS":"民治路２號","OBJECTID":39133},"geometry":{"x":178753.6100000022,"y":2547972.2500000037}},{"attributes":{"ID":39134,"DIS_CODE":0,"TOWNNAME":"東區","LI":"東聖里","LIN":"7鄰","STREET":"富農街","SECT":"二段","MAREA":" ","LANE":"６５巷","ALLEY":"１９弄","HOUSE_NO":"４號","E_COORD97":171548.57000000001,"N_COORD97":2543000.0499999998,"ADDRESS":"富農街二段６５巷１９弄４號","OBJECTID":39134},"geometry":{"x":171548.5700000003,"y":2543000.0500000007}},{"attributes":{"ID":39135,"DIS_CODE":0,"TOWNNAME":"東區","LI":"東聖里","LIN":"7鄰","STREET":"富農街","SECT":"二段","MAREA":" ","LANE":"６５巷","ALLEY":"１９弄","HOUSE_NO":"６號","E_COORD97":171548.94,"N_COORD97":2542993.3599999999,"ADDRESS":"富農街二段６５巷１９弄６號","OBJECTID":39135},"geometry":{"x":171548.94000000134,"y":2542993.3599999994}},{"attributes":{"ID":39136,"DIS_CODE":0,"TOWNNAME":"東區","LI":"東聖里","LIN":"7鄰","STREET":"富農街","SECT":"二段","MAREA":" ","LANE":"６５巷","ALLEY":"１９弄","HOUSE_NO":"８號","E_COORD97":171550.25,"N_COORD97":2542985.5499999998,"ADDRESS":"富農街二段６５巷１９弄８號","OBJECTID":39136},"geometry":{"x":171550.25000000093,"y":2542985.5500000007}},{"attributes":{"ID":39137,"DIS_CODE":0,"TOWNNAME":"永康區","LI":"中興里","LIN":"7鄰","STREET":"中山東路","SECT":" ","MAREA":" ","LANE":"４７２巷","ALLEY":"２弄","HOUSE_NO":"９號","E_COORD97":171924.95999999999,"N_COORD97":2545083.2999999998,"ADDRESS":"中山東路４７２巷２弄９號","OBJECTID":39137},"geometry":{"x":171924.96000000089,"y":2545083.3000000007}},{"attributes":{"ID":39138,"DIS_CODE":0,"TOWNNAME":"永康區","LI":"中興里","LIN":"7鄰","STREET":"中山東路","SECT":" ","MAREA":" ","LANE":"４７２巷","ALLEY":"２弄","HOUSE_NO":"１號","E_COORD97":171927.95999999999,"N_COORD97":2545061.9500000002,"ADDRESS":"中山東路４７２巷２弄１號","OBJECTID":39138},"geometry":{"x":171927.96000000089,"y":2545061.9500000011}},{"attributes":{"ID":39139,"DIS_CODE":0,"TOWNNAME":"永康區","LI":"五王里","LIN":"7鄰","STREET":"中華二路","SECT":" ","MAREA":" ","LANE":"２０６巷","ALLEY":"６８弄","HOUSE_NO":"７８號","E_COORD97":171699.42999999999,"N_COORD97":2545670.5,"ADDRESS":"中華二路２０６巷６８弄７８號","OBJECTID":39139},"geometry":{"x":171699.43000000063,"y":2545670.5}},{"attributes":{"ID":39140,"DIS_CODE":0,"TOWNNAME":"永康區","LI":"五王里","LIN":"7鄰","STREET":"中山東路","SECT":" ","MAREA":" ","LANE":"２１８巷","ALLEY":"２３弄","HOUSE_NO":"３０號","E_COORD97":171705.98000000001,"N_COORD97":2545649.4199999999,"ADDRESS":"中山東路２１８巷２３弄３０號","OBJECTID":39140},"geometry":{"x":171705.98000000231,"y":2545649.4200000018}},{"attributes":{"ID":39141,"DIS_CODE":0,"TOWNNAME":"永康區","LI":"五王里","LIN":"7鄰","STREET":"中華二路","SECT":" ","MAREA":" ","LANE":"２０６巷","ALLEY":"５２弄","HOUSE_NO":"１９號","E_COORD97":171690.14999999999,"N_COORD97":2545638.2400000002,"ADDRESS":"中華二路２０６巷５２弄１９號","OBJECTID":39141},"geometry":{"x":171690.1500000013,"y":2545638.2400000021}},{"attributes":{"ID":39142,"DIS_CODE":0,"TOWNNAME":"永康區","LI":"勝利里","LIN":"7鄰","STREET":"勝利街","SECT":" ","MAREA":" ","LANE":"２２巷","ALLEY":"５弄","HOUSE_NO":"２號","E_COORD97":171241.14999999999,"N_COORD97":2544611,"ADDRESS":"勝利街２２巷５弄２號","OBJECTID":39142},"geometry":{"x":171241.15000000037,"y":2544611.0000000037}},{"attributes":{"ID":39143,"DIS_CODE":0,"TOWNNAME":"永康區","LI":"勝利里","LIN":"7鄰","STREET":"勝利街","SECT":" ","MAREA":" ","LANE":"２２巷","ALLEY":"２３弄","HOUSE_NO":"６號","E_COORD97":171239.70999999999,"N_COORD97":2544647.7599999998,"ADDRESS":"勝利街２２巷２３弄６號","OBJECTID":39143},"geometry":{"x":171239.71000000089,"y":2544647.7600000016}},{"attributes":{"ID":39144,"DIS_CODE":0,"TOWNNAME":"白河區","LI":"庄內里","LIN":"7鄰","STREET":"中山路","SECT":" ","MAREA":" ","LANE":"４４９巷","ALLEY":"１０５弄","HOUSE_NO":"１７號","E_COORD97":190556.14000000001,"N_COORD97":2583986.3999999999,"ADDRESS":"中山路４４９巷１０５弄１７號","OBJECTID":39144},"geometry":{"x":190556.13999999966,"y":2583986.4000000004}},{"attributes":{"ID":39145,"DIS_CODE":0,"TOWNNAME":"新化區","LI":"武安里","LIN":"13鄰","STREET":"正新南路","SECT":" ","MAREA":" ","LANE":" ","ALLEY":" ","HOUSE_NO":"９６號","E_COORD97":178895.01999999999,"N_COORD97":2547992.25,"ADDRESS":"正新南路９６號","OBJECTID":39145},"geometry":{"x":178895.01999999955,"y":2547992.25}},{"attributes":{"ID":39146,"DIS_CODE":0,"TOWNNAME":"白河區","LI":"庄內里","LIN":"7鄰","STREET":"中山路","SECT":" ","MAREA":" ","LANE":"４４９巷","ALLEY":"１０５弄","HOUSE_NO":"１９之１號","E_COORD97":190567.06,"N_COORD97":2583978.6299999999,"ADDRESS":"中山路４４９巷１０５弄１９之１號","OBJECTID":39146},"geometry":{"x":190567.06000000145,"y":2583978.6300000008}},{"attributes":{"ID":39147,"DIS_CODE":0,"TOWNNAME":"白河區","LI":"庄內里","LIN":"7鄰","STREET":"中山路","SECT":" ","MAREA":" ","LANE":"４４９巷","ALLEY":"１０５弄","HOUSE_NO":"１９之２號","E_COORD97":190571.67999999999,"N_COORD97":2583978.5099999998,"ADDRESS":"中山路４４９巷１０５弄１９之２號","OBJECTID":39147},"geometry":{"x":190571.68000000063,"y":2583978.5099999998}},{"attributes":{"ID":39148,"DIS_CODE":0,"TOWNNAME":"南區","LI":"郡南里","LIN":"14鄰","STREET":"永吉街","SECT":" ","MAREA":" ","LANE":" ","ALLEY":" ","HOUSE_NO":"２０號","E_COORD97":167314.75,"N_COORD97":2540575.6600000001,"ADDRESS":"永吉街２０號","OBJECTID":39148},"geometry":{"x":167314.74999999907,"y":2540575.660000002}},{"attributes":{"ID":39149,"DIS_CODE":0,"TOWNNAME":"新化區","LI":"豐榮里","LIN":"13鄰","STREET":"正新南路","SECT":" ","MAREA":" ","LANE":" ","ALLEY":" ","HOUSE_NO":"１７８號","E_COORD97":178764.87,"N_COORD97":2547960.25,"ADDRESS":"正新南路１７８號","OBJECTID":39149},"geometry":{"x":178764.87000000011,"y":2547960.2500000019}},{"attributes":{"ID":39150,"DIS_CODE":0,"TOWNNAME":"新化區","LI":"東榮里","LIN":"20鄰","STREET":"中興路","SECT":" ","MAREA":" ","LANE":" ","ALLEY":" ","HOUSE_NO":"７３８號之１","E_COORD97":179420.84,"N_COORD97":2548201.2599999998,"ADDRESS":"中興路７３８號之１","OBJECTID":39150},"geometry":{"x":179420.83999999985,"y":2548201.2599999998}},{"attributes":{"ID":39151,"DIS_CODE":0,"TOWNNAME":"東山區","LI":"東河里","LIN":"7鄰","STREET":" ","SECT":" ","MAREA":"吉貝耍","LANE":" ","ALLEY":" ","HOUSE_NO":"５３號之３","E_COORD97":187518,"N_COORD97":2577557.4700000002,"ADDRESS":"吉貝耍５３號之３","OBJECTID":39151},"geometry":{"x":187517.99999999907,"y":2577557.4700000025}},{"attributes":{"ID":39152,"DIS_CODE":0,"TOWNNAME":"白河區","LI":"庄內里","LIN":"7鄰","STREET":"中山路","SECT":" ","MAREA":" ","LANE":"４４９巷","ALLEY":"１０５弄","HOUSE_NO":"１９之３號","E_COORD97":190576.31,"N_COORD97":2583978.3999999999,"ADDRESS":"中山路４４９巷１０５弄１９之３號","OBJECTID":39152},"geometry":{"x":190576.30999999959,"y":2583978.4000000022}},{"attributes":{"ID":39153,"DIS_CODE":0,"TOWNNAME":"白河區","LI":"庄內里","LIN":"7鄰","STREET":"中山路","SECT":" ","MAREA":" ","LANE":"４４９巷","ALLEY":"１０５弄","HOUSE_NO":"１９之５號","E_COORD97":190580.92999999999,"N_COORD97":2583978.2799999998,"ADDRESS":"中山路４４９巷１０５弄１９之５號","OBJECTID":39153},"geometry":{"x":190580.9299999997,"y":2583978.2800000012}},{"attributes":{"ID":39154,"DIS_CODE":0,"TOWNNAME":"白河區","LI":"庄內里","LIN":"7鄰","STREET":"中山路","SECT":" ","MAREA":" ","LANE":"４４９巷","ALLEY":"１０５弄","HOUSE_NO":"１９之６號","E_COORD97":190585.56,"N_COORD97":2583978.1699999999,"ADDRESS":"中山路４４９巷１０５弄１９之６號","OBJECTID":39154},"geometry":{"x":190585.56000000145,"y":2583978.1699999999}},{"attributes":{"ID":39155,"DIS_CODE":0,"TOWNNAME":"白河區","LI":"庄內里","LIN":"7鄰","STREET":"中山路","SECT":" ","MAREA":" ","LANE":"４４９巷","ALLEY":"１０５弄","HOUSE_NO":"１９之７號","E_COORD97":190590.17999999999,"N_COORD97":2583978.0499999998,"ADDRESS":"中山路４４９巷１０５弄１９之７號","OBJECTID":39155},"geometry":{"x":190590.18000000063,"y":2583978.0500000026}},{"attributes":{"ID":39156,"DIS_CODE":0,"TOWNNAME":"白河區","LI":"庄內里","LIN":"7鄰","STREET":"中山路","SECT":" ","MAREA":" ","LANE":"４４９巷","ALLEY":"１０５弄","HOUSE_NO":"１９號","E_COORD97":190555.04999999999,"N_COORD97":2583977.4700000002,"ADDRESS":"中山路４４９巷１０５弄１９號","OBJECTID":39156},"geometry":{"x":190555.04999999981,"y":2583977.4700000044}},{"attributes":{"ID":39157,"DIS_CODE":0,"TOWNNAME":"新化區","LI":"東榮里","LIN":"20鄰","STREET":"民生路","SECT":" ","MAREA":" ","LANE":" ","ALLEY":" ","HOUSE_NO":"１５號之７","E_COORD97":179423.51000000001,"N_COORD97":2548263.2599999998,"ADDRESS":"民生路１５號之７","OBJECTID":39157},"geometry":{"x":179423.51000000071,"y":2548263.2599999998}},{"attributes":{"ID":39158,"DIS_CODE":0,"TOWNNAME":"白河區","LI":"庄內里","LIN":"7鄰","STREET":"中山路","SECT":" ","MAREA":" ","LANE":"４４９巷","ALLEY":"１０５弄","HOUSE_NO":"２１之１號","E_COORD97":190565.12,"N_COORD97":2583953.0299999998,"ADDRESS":"中山路４４９巷１０５弄２１之１號","OBJECTID":39158},"geometry":{"x":190565.12000000011,"y":2583953.0300000012}},{"attributes":{"ID":39159,"DIS_CODE":0,"TOWNNAME":"仁德區","LI":"成功里","LIN":"7鄰","STREET":"保華路","SECT":" ","MAREA":" ","LANE":"１２９巷","ALLEY":"６５弄","HOUSE_NO":"９號","E_COORD97":171145.66,"N_COORD97":2539848.9900000002,"ADDRESS":"保華路１２９巷６５弄９號","OBJECTID":39159},"geometry":{"x":171145.66000000108,"y":2539848.9900000021}},{"attributes":{"ID":39160,"DIS_CODE":0,"TOWNNAME":"白河區","LI":"庄內里","LIN":"7鄰","STREET":"中山路","SECT":" ","MAREA":" ","LANE":"４４９巷","ALLEY":"１０５弄","HOUSE_NO":"２１之２號","E_COORD97":190570.14999999999,"N_COORD97":2583952.73,"ADDRESS":"中山路４４９巷１０５弄２１之２號","OBJECTID":39160},"geometry":{"x":190570.15000000037,"y":2583952.7300000023}},{"attributes":{"ID":39161,"DIS_CODE":0,"TOWNNAME":"白河區","LI":"庄內里","LIN":"7鄰","STREET":"中山路","SECT":" ","MAREA":" ","LANE":"４４９巷","ALLEY":"１０５弄","HOUSE_NO":"２１之３號","E_COORD97":190575.19,"N_COORD97":2583952.4300000002,"ADDRESS":"中山路４４９巷１０５弄２１之３號","OBJECTID":39161},"geometry":{"x":190575.19000000041,"y":2583952.4299999997}},{"attributes":{"ID":39162,"DIS_CODE":0,"TOWNNAME":"白河區","LI":"庄內里","LIN":"7鄰","STREET":"中山路","SECT":" ","MAREA":" ","LANE":"４４９巷","ALLEY":"１０５弄","HOUSE_NO":"２１之５號","E_COORD97":190580.23000000001,"N_COORD97":2583952.1299999999,"ADDRESS":"中山路４４９巷１０５弄２１之５號","OBJECTID":39162},"geometry":{"x":190580.23000000231,"y":2583952.1300000008}},{"attributes":{"ID":39163,"DIS_CODE":0,"TOWNNAME":"南區","LI":"郡南里","LIN":"14鄰","STREET":"永吉街","SECT":" ","MAREA":" ","LANE":" ","ALLEY":" ","HOUSE_NO":"２號","E_COORD97":167311.42999999999,"N_COORD97":2540539.0800000001,"ADDRESS":"永吉街２號","OBJECTID":39163},"geometry":{"x":167311.4299999997,"y":2540539.0800000019}},{"attributes":{"ID":39164,"DIS_CODE":0,"TOWNNAME":"南區","LI":"郡南里","LIN":"14鄰","STREET":"永吉街","SECT":" ","MAREA":" ","LANE":" ","ALLEY":" ","HOUSE_NO":"４號","E_COORD97":167312.54000000001,"N_COORD97":2540542.9399999999,"ADDRESS":"永吉街４號","OBJECTID":39164},"geometry":{"x":167312.54000000004,"y":2540542.9400000013}},{"attributes":{"ID":39165,"DIS_CODE":0,"TOWNNAME":"南區","LI":"郡南里","LIN":"14鄰","STREET":"永吉街","SECT":" ","MAREA":" ","LANE":" ","ALLEY":" ","HOUSE_NO":"６號","E_COORD97":167312.89999999999,"N_COORD97":2540546.6200000001,"ADDRESS":"永吉街６號","OBJECTID":39165},"geometry":{"x":167312.9000000013,"y":2540546.6200000029}},{"attributes":{"ID":39166,"DIS_CODE":0,"TOWNNAME":"新化區","LI":"豐榮里","LIN":"13鄰","STREET":"正新南路","SECT":" ","MAREA":" ","LANE":" ","ALLEY":" ","HOUSE_NO":"１９０號","E_COORD97":178728.76999999999,"N_COORD97":2547949.25,"ADDRESS":"正新南路１９０號","OBJECTID":39166},"geometry":{"x":178728.77000000048,"y":2547949.2500000019}},{"attributes":{"ID":39167,"DIS_CODE":0,"TOWNNAME":"東山區","LI":"東河里","LIN":"7鄰","STREET":" ","SECT":" ","MAREA":"吉貝耍","LANE":" ","ALLEY":" ","HOUSE_NO":"５３號之４","E_COORD97":187345.66,"N_COORD97":2577265.21,"ADDRESS":"吉貝耍５３號之４","OBJECTID":39167},"geometry":{"x":187345.66000000015,"y":2577265.2100000009}},{"attributes":{"ID":39168,"DIS_CODE":0,"TOWNNAME":"東山區","LI":"東河里","LIN":"7鄰","STREET":" ","SECT":" ","MAREA":"吉貝耍","LANE":" ","ALLEY":" ","HOUSE_NO":"５３號之６","E_COORD97":187825.01999999999,"N_COORD97":2577779.6099999999,"ADDRESS":"吉貝耍５３號之６","OBJECTID":39168},"geometry":{"x":187825.02000000048,"y":2577779.6099999994}},{"attributes":{"ID":39169,"DIS_CODE":0,"TOWNNAME":"東山區","LI":"東河里","LIN":"7鄰","STREET":" ","SECT":" ","MAREA":"吉貝耍","LANE":" ","ALLEY":" ","HOUSE_NO":"５３號之７","E_COORD97":187216,"N_COORD97":2577199.1600000001,"ADDRESS":"吉貝耍５３號之７","OBJECTID":39169},"geometry":{"x":187216,"y":2577199.160000002}},{"attributes":{"ID":39170,"DIS_CODE":0,"TOWNNAME":"東山區","LI":"東河里","LIN":"7鄰","STREET":" ","SECT":" ","MAREA":"吉貝耍","LANE":" ","ALLEY":" ","HOUSE_NO":"５３號之８","E_COORD97":187387.67000000001,"N_COORD97":2577238.1299999999,"ADDRESS":"吉貝耍５３號之８","OBJECTID":39170},"geometry":{"x":187387.66999999993,"y":2577238.1300000008}},{"attributes":{"ID":39171,"DIS_CODE":0,"TOWNNAME":"東山區","LI":"東河里","LIN":"7鄰","STREET":" ","SECT":" ","MAREA":"吉貝耍","LANE":" ","ALLEY":" ","HOUSE_NO":"５３號之９","E_COORD97":187238.23000000001,"N_COORD97":2577235.29,"ADDRESS":"吉貝耍５３號之９","OBJECTID":39171},"geometry":{"x":187238.23000000045,"y":2577235.2899999991}},{"attributes":{"ID":39172,"DIS_CODE":0,"TOWNNAME":"東山區","LI":"東河里","LIN":"7鄰","STREET":" ","SECT":" ","MAREA":"吉貝耍","LANE":" ","ALLEY":" ","HOUSE_NO":"５４號之１","E_COORD97":187192.14999999999,"N_COORD97":2577258.77,"ADDRESS":"吉貝耍５４號之１","OBJECTID":39172},"geometry":{"x":187192.15000000224,"y":2577258.7700000014}},{"attributes":{"ID":39173,"DIS_CODE":0,"TOWNNAME":"東山區","LI":"東河里","LIN":"7鄰","STREET":" ","SECT":" ","MAREA":"吉貝耍","LANE":" ","ALLEY":" ","HOUSE_NO":"５４號之４","E_COORD97":187204.57000000001,"N_COORD97":2577255.3500000001,"ADDRESS":"吉貝耍５４號之４","OBJECTID":39173},"geometry":{"x":187204.57000000123,"y":2577255.3500000015}},{"attributes":{"ID":39174,"DIS_CODE":0,"TOWNNAME":"東山區","LI":"東河里","LIN":"7鄰","STREET":" ","SECT":" ","MAREA":"吉貝耍","LANE":" ","ALLEY":" ","HOUSE_NO":"５４號之６","E_COORD97":187213.41,"N_COORD97":2577253.0299999998,"ADDRESS":"吉貝耍５４號之６","OBJECTID":39174},"geometry":{"x":187213.41000000015,"y":2577253.0300000012}},{"attributes":{"ID":39175,"DIS_CODE":0,"TOWNNAME":"東山區","LI":"東河里","LIN":"7鄰","STREET":" ","SECT":" ","MAREA":"吉貝耍","LANE":" ","ALLEY":" ","HOUSE_NO":"５５號之１","E_COORD97":187193.04999999999,"N_COORD97":2577194.0499999998,"ADDRESS":"吉貝耍５５號之１","OBJECTID":39175},"geometry":{"x":187193.04999999981,"y":2577194.0500000026}},{"attributes":{"ID":39176,"DIS_CODE":0,"TOWNNAME":"東山區","LI":"東河里","LIN":"7鄰","STREET":" ","SECT":" ","MAREA":"吉貝耍","LANE":" ","ALLEY":" ","HOUSE_NO":"５５號之２","E_COORD97":187185.03,"N_COORD97":2577231.3199999998,"ADDRESS":"吉貝耍５５號之２","OBJECTID":39176},"geometry":{"x":187185.03000000119,"y":2577231.320000004}},{"attributes":{"ID":39177,"DIS_CODE":0,"TOWNNAME":"南區","LI":"郡南里","LIN":"14鄰","STREET":"永吉街","SECT":" ","MAREA":" ","LANE":" ","ALLEY":" ","HOUSE_NO":"８號","E_COORD97":167312.72,"N_COORD97":2540550.2999999998,"ADDRESS":"永吉街８號","OBJECTID":39177},"geometry":{"x":167312.71999999974,"y":2540550.3000000007}},{"attributes":{"ID":39178,"DIS_CODE":0,"TOWNNAME":"南區","LI":"郡南里","LIN":"14鄰","STREET":"永吉街","SECT":" ","MAREA":" ","LANE":" ","ALLEY":" ","HOUSE_NO":"１０號","E_COORD97":167313.64000000001,"N_COORD97":2540553.9700000002,"ADDRESS":"永吉街１０號","OBJECTID":39178},"geometry":{"x":167313.64000000153,"y":2540553.9700000025}},{"attributes":{"ID":39179,"DIS_CODE":0,"TOWNNAME":"南區","LI":"郡南里","LIN":"14鄰","STREET":"永吉街","SECT":" ","MAREA":" ","LANE":" ","ALLEY":" ","HOUSE_NO":"１２號","E_COORD97":167314.19,"N_COORD97":2540558.3799999999,"ADDRESS":"永吉街１２號","OBJECTID":39179},"geometry":{"x":167314.19000000134,"y":2540558.379999999}},{"attributes":{"ID":39180,"DIS_CODE":0,"TOWNNAME":"南區","LI":"郡南里","LIN":"14鄰","STREET":"永吉街","SECT":" ","MAREA":" ","LANE":" ","ALLEY":" ","HOUSE_NO":"２２號","E_COORD97":167314.75,"N_COORD97":2540580.6200000001,"ADDRESS":"永吉街２２號","OBJECTID":39180},"geometry":{"x":167314.74999999907,"y":2540580.6200000029}},{"attributes":{"ID":39181,"DIS_CODE":0,"TOWNNAME":"南區","LI":"郡南里","LIN":"14鄰","STREET":"永興三街","SECT":" ","MAREA":" ","LANE":" ","ALLEY":" ","HOUSE_NO":"４７號","E_COORD97":167372.57000000001,"N_COORD97":2540586.04,"ADDRESS":"永興三街４７號","OBJECTID":39181},"geometry":{"x":167372.57000000123,"y":2540586.040000001}},{"attributes":{"ID":39182,"DIS_CODE":0,"TOWNNAME":"南區","LI":"郡南里","LIN":"14鄰","STREET":"永興三街","SECT":" ","MAREA":" ","LANE":" ","ALLEY":" ","HOUSE_NO":"４９號","E_COORD97":167366.87,"N_COORD97":2540586.04,"ADDRESS":"永興三街４９號","OBJECTID":39182},"geometry":{"x":167366.87000000104,"y":2540586.040000001}},{"attributes":{"ID":39183,"DIS_CODE":0,"TOWNNAME":"南區","LI":"郡南里","LIN":"14鄰","STREET":"永興三街","SECT":" ","MAREA":" ","LANE":" ","ALLEY":" ","HOUSE_NO":"５１號","E_COORD97":167363.23999999999,"N_COORD97":2540586.2999999998,"ADDRESS":"永興三街５１號","OBJECTID":39183},"geometry":{"x":167363.24000000115,"y":2540586.3000000026}},{"attributes":{"ID":39184,"DIS_CODE":0,"TOWNNAME":"南區","LI":"郡南里","LIN":"14鄰","STREET":"永興三街","SECT":" ","MAREA":" ","LANE":" ","ALLEY":" ","HOUSE_NO":"５３號","E_COORD97":167358.82999999999,"N_COORD97":2540586.2999999998,"ADDRESS":"永興三街５３號","OBJECTID":39184},"geometry":{"x":167358.83000000101,"y":2540586.3000000026}},{"attributes":{"ID":39185,"DIS_CODE":0,"TOWNNAME":"南區","LI":"郡南里","LIN":"14鄰","STREET":"永興三街","SECT":" ","MAREA":" ","LANE":" ","ALLEY":" ","HOUSE_NO":"５５號","E_COORD97":167354.67999999999,"N_COORD97":2540585.52,"ADDRESS":"永興三街５５號","OBJECTID":39185},"geometry":{"x":167354.68000000063,"y":2540585.5199999996}},{"attributes":{"ID":39186,"DIS_CODE":0,"TOWNNAME":"白河區","LI":"庄內里","LIN":"7鄰","STREET":"中山路","SECT":" ","MAREA":" ","LANE":"４４９巷","ALLEY":"１０５弄","HOUSE_NO":"２１之６號","E_COORD97":190585.26000000001,"N_COORD97":2583951.8199999998,"ADDRESS":"中山路４４９巷１０５弄２１之６號","OBJECTID":39186},"geometry":{"x":190585.26000000071,"y":2583951.8200000022}},{"attributes":{"ID":39187,"DIS_CODE":0,"TOWNNAME":"白河區","LI":"庄內里","LIN":"7鄰","STREET":"中山路","SECT":" ","MAREA":" ","LANE":"４４９巷","ALLEY":"１０５弄","HOUSE_NO":"２１號","E_COORD97":190554.06,"N_COORD97":2583961.3199999998,"ADDRESS":"中山路４４９巷１０５弄２１號","OBJECTID":39187},"geometry":{"x":190554.06000000052,"y":2583961.320000004}},{"attributes":{"ID":39188,"DIS_CODE":0,"TOWNNAME":"白河區","LI":"庄內里","LIN":"7鄰","STREET":"中山路","SECT":" ","MAREA":" ","LANE":"４４９巷","ALLEY":"１０５弄","HOUSE_NO":"２３號","E_COORD97":190554.17999999999,"N_COORD97":2583953.21,"ADDRESS":"中山路４４９巷１０５弄２３號","OBJECTID":39188},"geometry":{"x":190554.1799999997,"y":2583953.2100000028}},{"attributes":{"ID":39189,"DIS_CODE":0,"TOWNNAME":"白河區","LI":"庄內里","LIN":"7鄰","STREET":"中山路","SECT":" ","MAREA":" ","LANE":"４４９巷","ALLEY":"１０５弄","HOUSE_NO":"２５之１號","E_COORD97":190550.09,"N_COORD97":2583935.27,"ADDRESS":"中山路４４９巷１０５弄２５之１號","OBJECTID":39189},"geometry":{"x":190550.09000000171,"y":2583935.2699999996}},{"attributes":{"ID":39190,"DIS_CODE":0,"TOWNNAME":"白河區","LI":"庄內里","LIN":"7鄰","STREET":"中山路","SECT":" ","MAREA":" ","LANE":"４４９巷","ALLEY":"１０５弄","HOUSE_NO":"２５之２號","E_COORD97":190554.98000000001,"N_COORD97":2583935.02,"ADDRESS":"中山路４４９巷１０５弄２５之２號","OBJECTID":39190},"geometry":{"x":190554.98000000138,"y":2583935.0199999977}},{"attributes":{"ID":39191,"DIS_CODE":0,"TOWNNAME":"新化區","LI":"護國里","LIN":"4鄰","STREET":"中山路","SECT":" ","MAREA":" ","LANE":" ","ALLEY":" ","HOUSE_NO":"２０２號","E_COORD97":179166.01000000001,"N_COORD97":2548466.25,"ADDRESS":"中山路２０２號","OBJECTID":39191},"geometry":{"x":179166.01000000071,"y":2548466.25}},{"attributes":{"ID":39192,"DIS_CODE":0,"TOWNNAME":"白河區","LI":"庄內里","LIN":"7鄰","STREET":"中山路","SECT":" ","MAREA":" ","LANE":"４４９巷","ALLEY":"１０５弄","HOUSE_NO":"２５之３號","E_COORD97":190559.88,"N_COORD97":2583934.77,"ADDRESS":"中山路４４９巷１０５弄２５之３號","OBJECTID":39192},"geometry":{"x":190559.87999999896,"y":2583934.7700000014}},{"attributes":{"ID":39193,"DIS_CODE":0,"TOWNNAME":"白河區","LI":"庄內里","LIN":"7鄰","STREET":"中山路","SECT":" ","MAREA":" ","LANE":"４４９巷","ALLEY":"１０５弄","HOUSE_NO":"２５之５號","E_COORD97":190564.76999999999,"N_COORD97":2583934.52,"ADDRESS":"中山路４４９巷１０５弄２５之５號","OBJECTID":39193},"geometry":{"x":190564.76999999955,"y":2583934.5199999996}},{"attributes":{"ID":39194,"DIS_CODE":0,"TOWNNAME":"白河區","LI":"庄內里","LIN":"7鄰","STREET":"中山路","SECT":" ","MAREA":" ","LANE":"４４９巷","ALLEY":"１０５弄","HOUSE_NO":"２５之６號","E_COORD97":190569.66,"N_COORD97":2583934.27,"ADDRESS":"中山路４４９巷１０５弄２５之６號","OBJECTID":39194},"geometry":{"x":190569.66000000015,"y":2583934.2700000014}},{"attributes":{"ID":39195,"DIS_CODE":0,"TOWNNAME":"白河區","LI":"庄內里","LIN":"7鄰","STREET":"中山路","SECT":" ","MAREA":" ","LANE":"４４９巷","ALLEY":"１０５弄","HOUSE_NO":"２５之７號","E_COORD97":190574.54999999999,"N_COORD97":2583934.02,"ADDRESS":"中山路４４９巷１０５弄２５之７號","OBJECTID":39195},"geometry":{"x":190574.55000000075,"y":2583934.0199999996}},{"attributes":{"ID":39196,"DIS_CODE":0,"TOWNNAME":"白河區","LI":"庄內里","LIN":"7鄰","STREET":"中山路","SECT":" ","MAREA":" ","LANE":"４４９巷","ALLEY":"１０５弄","HOUSE_NO":"２５之８號","E_COORD97":190579.44,"N_COORD97":2583933.77,"ADDRESS":"中山路４４９巷１０５弄２５之８號","OBJECTID":39196},"geometry":{"x":190579.44000000134,"y":2583933.7700000014}},{"attributes":{"ID":39197,"DIS_CODE":0,"TOWNNAME":"東山區","LI":"東河里","LIN":"7鄰","STREET":" ","SECT":" ","MAREA":"吉貝耍","LANE":" ","ALLEY":" ","HOUSE_NO":"５５號之３","E_COORD97":187181.01000000001,"N_COORD97":2577231.96,"ADDRESS":"吉貝耍５５號之３","OBJECTID":39197},"geometry":{"x":187181.01000000071,"y":2577231.9600000028}},{"attributes":{"ID":39198,"DIS_CODE":0,"TOWNNAME":"東山區","LI":"東河里","LIN":"7鄰","STREET":" ","SECT":" ","MAREA":"吉貝耍","LANE":" ","ALLEY":" ","HOUSE_NO":"５５號","E_COORD97":187198.26000000001,"N_COORD97":2577210.52,"ADDRESS":"吉貝耍５５號","OBJECTID":39198},"geometry":{"x":187198.26000000071,"y":2577210.5199999996}},{"attributes":{"ID":39199,"DIS_CODE":0,"TOWNNAME":"東山區","LI":"東河里","LIN":"7鄰","STREET":" ","SECT":" ","MAREA":"吉貝耍","LANE":" ","ALLEY":" ","HOUSE_NO":"５６號之１","E_COORD97":187177.54999999999,"N_COORD97":2577192.7599999998,"ADDRESS":"吉貝耍５６號之１","OBJECTID":39199},"geometry":{"x":187177.55000000075,"y":2577192.7599999998}},{"attributes":{"ID":39200,"DIS_CODE":0,"TOWNNAME":"東山區","LI":"東河里","LIN":"7鄰","STREET":" ","SECT":" ","MAREA":"吉貝耍","LANE":" ","ALLEY":" ","HOUSE_NO":"５６號之２","E_COORD97":187173.48000000001,"N_COORD97":2577193.8199999998,"ADDRESS":"吉貝耍５６號之２","OBJECTID":39200},"geometry":{"x":187173.48000000138,"y":2577193.820000004}}]}