{"displayFieldName":"TOWNNAME","fieldAliases":{"ID":"ID","DIS_CODE":"DIS_CODE","TOWNNAME":"TOWNNAME","LI":"LI","LIN":"LIN","STREET":"STREET","SECT":"SECT","MAREA":"MAREA","LANE":"LANE","ALLEY":"ALLEY","HOUSE_NO":"HOUSE_NO","E_COORD97":"E_COORD97","N_COORD97":"N_COORD97","ADDRESS":"ADDRESS","OBJECTID":"OBJECTID"},"geometryType":"esriGeometryPoint","spatialReference":{"wkid":102443,"latestWkid":3826},"fields":[{"name":"ID","type":"esriFieldTypeDouble","alias":"ID"},{"name":"DIS_CODE","type":"esriFieldTypeInteger","alias":"DIS_CODE"},{"name":"TOWNNAME","type":"esriFieldTypeString","alias":"TOWNNAME","length":8},{"name":"LI","type":"esriFieldTypeString","alias":"LI","length":8},{"name":"LIN","type":"esriFieldTypeString","alias":"LIN","length":12},{"name":"STREET","type":"esriFieldTypeString","alias":"STREET","length":20},{"name":"SECT","type":"esriFieldTypeString","alias":"SECT","length":8},{"name":"MAREA","type":"esriFieldTypeString","alias":"MAREA","length":12},{"name":"LANE","type":"esriFieldTypeString","alias":"LANE","length":10},{"name":"ALLEY","type":"esriFieldTypeString","alias":"ALLEY","length":10},{"name":"HOUSE_NO","type":"esriFieldTypeString","alias":"HOUSE_NO","length":20},{"name":"E_COORD97","type":"esriFieldTypeDouble","alias":"E_COORD97"},{"name":"N_COORD97","type":"esriFieldTypeDouble","alias":"N_COORD97"},{"name":"ADDRESS","type":"esriFieldTypeString","alias":"ADDRESS","length":50},{"name":"OBJECTID","type":"esriFieldTypeOID","alias":"OBJECTID"}],"features":[{"attributes":{"ID":426226,"DIS_CODE":0,"TOWNNAME":"東區","LI":"大同里","LIN":"4鄰","STREET":"大同路","SECT":"一段","MAREA":" ","LANE":"７３巷","ALLEY":" ","HOUSE_NO":"１號之１","E_COORD97":169220.84,"N_COORD97":2543055.4500000002,"ADDRESS":"大同路一段７３巷１號之１","OBJECTID":426201},"geometry":{"x":169220.83999999985,"y":2543055.4500000011}},{"attributes":{"ID":426227,"DIS_CODE":0,"TOWNNAME":"東區","LI":"大同里","LIN":"4鄰","STREET":"大同路","SECT":"一段","MAREA":" ","LANE":"７３巷","ALLEY":" ","HOUSE_NO":"１號之２","E_COORD97":169214.76000000001,"N_COORD97":2543058.8999999999,"ADDRESS":"大同路一段７３巷１號之２","OBJECTID":426202},"geometry":{"x":169214.75999999885,"y":2543058.8999999985}},{"attributes":{"ID":426228,"DIS_CODE":0,"TOWNNAME":"東區","LI":"大同里","LIN":"4鄰","STREET":"大同路","SECT":"一段","MAREA":" ","LANE":"７３巷","ALLEY":" ","HOUSE_NO":"１號之３","E_COORD97":169210.20000000001,"N_COORD97":2543061.25,"ADDRESS":"大同路一段７３巷１號之３","OBJECTID":426203},"geometry":{"x":169210.20000000019,"y":2543061.2500000019}},{"attributes":{"ID":426229,"DIS_CODE":0,"TOWNNAME":"東區","LI":"大同里","LIN":"4鄰","STREET":"大同路","SECT":"一段","MAREA":" ","LANE":"７３巷","ALLEY":" ","HOUSE_NO":"２１號","E_COORD97":169259.29000000001,"N_COORD97":2543048.9199999999,"ADDRESS":"大同路一段７３巷２１號","OBJECTID":426204},"geometry":{"x":169259.29000000097,"y":2543048.9200000018}},{"attributes":{"ID":426230,"DIS_CODE":0,"TOWNNAME":"東區","LI":"大同里","LIN":"4鄰","STREET":"大同路","SECT":"一段","MAREA":" ","LANE":"７３巷","ALLEY":" ","HOUSE_NO":"２３號","E_COORD97":169264.89000000001,"N_COORD97":2543048.9199999999,"ADDRESS":"大同路一段７３巷２３號","OBJECTID":426205},"geometry":{"x":169264.8900000006,"y":2543048.9200000018}},{"attributes":{"ID":426231,"DIS_CODE":0,"TOWNNAME":"東區","LI":"大同里","LIN":"4鄰","STREET":"大同路","SECT":"一段","MAREA":" ","LANE":"７３巷","ALLEY":" ","HOUSE_NO":"２９號","E_COORD97":169272.35999999999,"N_COORD97":2543048.7799999998,"ADDRESS":"大同路一段７３巷２９號","OBJECTID":426206},"geometry":{"x":169272.3600000022,"y":2543048.7800000031}},{"attributes":{"ID":426232,"DIS_CODE":0,"TOWNNAME":"東區","LI":"大同里","LIN":"4鄰","STREET":"大同路","SECT":"一段","MAREA":" ","LANE":"７３巷","ALLEY":" ","HOUSE_NO":"３１號","E_COORD97":169275.95000000001,"N_COORD97":2543051.0800000001,"ADDRESS":"大同路一段７３巷３１號","OBJECTID":426207},"geometry":{"x":169275.95000000019,"y":2543051.0800000019}},{"attributes":{"ID":426233,"DIS_CODE":0,"TOWNNAME":"東區","LI":"大同里","LIN":"4鄰","STREET":"大同路","SECT":"一段","MAREA":" ","LANE":"７３巷","ALLEY":" ","HOUSE_NO":"３３號","E_COORD97":169280.82999999999,"N_COORD97":2543050.2200000002,"ADDRESS":"大同路一段７３巷３３號","OBJECTID":426208},"geometry":{"x":169280.83000000194,"y":2543050.2199999988}},{"attributes":{"ID":426234,"DIS_CODE":0,"TOWNNAME":"永康區","LI":"復興里","LIN":"25鄰","STREET":"復興路","SECT":" ","MAREA":" ","LANE":"４２９巷","ALLEY":" ","HOUSE_NO":"１２４號","E_COORD97":172291.70999999999,"N_COORD97":2543783.4100000001,"ADDRESS":"復興路４２９巷１２４號","OBJECTID":426209},"geometry":{"x":172291.70999999996,"y":2543783.4100000001}},{"attributes":{"ID":426235,"DIS_CODE":0,"TOWNNAME":"東區","LI":"復興里","LIN":"4鄰","STREET":"富農街","SECT":"一段","MAREA":" ","LANE":"２３２巷","ALLEY":" ","HOUSE_NO":"３６號","E_COORD97":171666.85999999999,"N_COORD97":2542581.3199999998,"ADDRESS":"富農街一段２３２巷３６號","OBJECTID":426210},"geometry":{"x":171666.86000000034,"y":2542581.3199999984}},{"attributes":{"ID":426236,"DIS_CODE":0,"TOWNNAME":"東區","LI":"復興里","LIN":"4鄰","STREET":"富農街","SECT":"一段","MAREA":" ","LANE":"２３２巷","ALLEY":" ","HOUSE_NO":"３號","E_COORD97":171601.64999999999,"N_COORD97":2542595.2599999998,"ADDRESS":"富農街一段２３２巷３號","OBJECTID":426211},"geometry":{"x":171601.6500000013,"y":2542595.2600000016}},{"attributes":{"ID":426237,"DIS_CODE":0,"TOWNNAME":"東區","LI":"復興里","LIN":"4鄰","STREET":"富農街","SECT":"一段","MAREA":" ","LANE":"２３２巷","ALLEY":" ","HOUSE_NO":"４號","E_COORD97":171595.04000000001,"N_COORD97":2542575.6499999999,"ADDRESS":"富農街一段２３２巷４號","OBJECTID":426212},"geometry":{"x":171595.0400000019,"y":2542575.6500000004}},{"attributes":{"ID":426238,"DIS_CODE":0,"TOWNNAME":"東區","LI":"復興里","LIN":"4鄰","STREET":"富農街","SECT":"一段","MAREA":" ","LANE":"２３２巷","ALLEY":" ","HOUSE_NO":"５號","E_COORD97":171608.76000000001,"N_COORD97":2542595.6400000001,"ADDRESS":"富農街一段２３２巷５號","OBJECTID":426213},"geometry":{"x":171608.76000000071,"y":2542595.6400000006}},{"attributes":{"ID":426239,"DIS_CODE":0,"TOWNNAME":"東區","LI":"復興里","LIN":"4鄰","STREET":"富農街","SECT":"一段","MAREA":" ","LANE":"２３２巷","ALLEY":" ","HOUSE_NO":"６號","E_COORD97":171599.51999999999,"N_COORD97":2542574.0499999998,"ADDRESS":"富農街一段２３２巷６號","OBJECTID":426214},"geometry":{"x":171599.51999999955,"y":2542574.0500000026}},{"attributes":{"ID":426240,"DIS_CODE":0,"TOWNNAME":"東區","LI":"復興里","LIN":"4鄰","STREET":"富農街","SECT":"一段","MAREA":" ","LANE":"２３２巷","ALLEY":" ","HOUSE_NO":"７號","E_COORD97":171614.75,"N_COORD97":2542596.0099999998,"ADDRESS":"富農街一段２３２巷７號","OBJECTID":426215},"geometry":{"x":171614.75,"y":2542596.0099999998}},{"attributes":{"ID":426241,"DIS_CODE":0,"TOWNNAME":"東區","LI":"復興里","LIN":"4鄰","STREET":"富農街","SECT":"一段","MAREA":" ","LANE":"２３２巷","ALLEY":" ","HOUSE_NO":"８號","E_COORD97":171605.29999999999,"N_COORD97":2542573.4100000001,"ADDRESS":"富農街一段２３２巷８號","OBJECTID":426216},"geometry":{"x":171605.30000000075,"y":2542573.4100000001}},{"attributes":{"ID":426242,"DIS_CODE":0,"TOWNNAME":"東區","LI":"復興里","LIN":"4鄰","STREET":"富農街","SECT":"一段","MAREA":" ","LANE":"２３２巷","ALLEY":" ","HOUSE_NO":"９號","E_COORD97":171620.37,"N_COORD97":2542597.1299999999,"ADDRESS":"富農街一段２３２巷９號","OBJECTID":426217},"geometry":{"x":171620.37000000104,"y":2542597.129999999}},{"attributes":{"ID":426243,"DIS_CODE":0,"TOWNNAME":"東區","LI":"復興里","LIN":"4鄰","STREET":"富農街","SECT":"一段","MAREA":" ","LANE":"２４８巷","ALLEY":" ","HOUSE_NO":"１０號","E_COORD97":171626.35999999999,"N_COORD97":2542608.3500000001,"ADDRESS":"富農街一段２４８巷１０號","OBJECTID":426218},"geometry":{"x":171626.36000000034,"y":2542608.3500000015}},{"attributes":{"ID":426244,"DIS_CODE":0,"TOWNNAME":"東區","LI":"復興里","LIN":"4鄰","STREET":"富農街","SECT":"一段","MAREA":" ","LANE":"２４８巷","ALLEY":" ","HOUSE_NO":"１１號","E_COORD97":171638.41,"N_COORD97":2542628.54,"ADDRESS":"富農街一段２４８巷１１號","OBJECTID":426219},"geometry":{"x":171638.41000000201,"y":2542628.5399999991}},{"attributes":{"ID":426245,"DIS_CODE":0,"TOWNNAME":"東區","LI":"復興里","LIN":"4鄰","STREET":"富農街","SECT":"一段","MAREA":" ","LANE":"２４８巷","ALLEY":" ","HOUSE_NO":"１２號","E_COORD97":171632.26999999999,"N_COORD97":2542610.8399999999,"ADDRESS":"富農街一段２４８巷１２號","OBJECTID":426220},"geometry":{"x":171632.27000000048,"y":2542610.8399999999}},{"attributes":{"ID":426246,"DIS_CODE":0,"TOWNNAME":"東區","LI":"復興里","LIN":"4鄰","STREET":"富農街","SECT":"一段","MAREA":" ","LANE":"２４８巷","ALLEY":" ","HOUSE_NO":"１３號","E_COORD97":171645.57000000001,"N_COORD97":2542629.5600000001,"ADDRESS":"富農街一段２４８巷１３號","OBJECTID":426221},"geometry":{"x":171645.5700000003,"y":2542629.5600000005}},{"attributes":{"ID":426247,"DIS_CODE":0,"TOWNNAME":"東區","LI":"復興里","LIN":"4鄰","STREET":"富農街","SECT":"一段","MAREA":" ","LANE":"２４８巷","ALLEY":" ","HOUSE_NO":"１４號","E_COORD97":171638.75,"N_COORD97":2542609.8199999998,"ADDRESS":"富農街一段２４８巷１４號","OBJECTID":426222},"geometry":{"x":171638.75,"y":2542609.8200000022}},{"attributes":{"ID":426248,"DIS_CODE":0,"TOWNNAME":"東區","LI":"復興里","LIN":"4鄰","STREET":"富農街","SECT":"一段","MAREA":" ","LANE":"２４８巷","ALLEY":" ","HOUSE_NO":"１５號","E_COORD97":171652.38,"N_COORD97":2542630.5800000001,"ADDRESS":"富農街一段２４８巷１５號","OBJECTID":426223},"geometry":{"x":171652.38000000082,"y":2542630.5800000038}},{"attributes":{"ID":426249,"DIS_CODE":0,"TOWNNAME":"東區","LI":"復興里","LIN":"4鄰","STREET":"富農街","SECT":"一段","MAREA":" ","LANE":"２４８巷","ALLEY":" ","HOUSE_NO":"１６號","E_COORD97":171644.88,"N_COORD97":2542610.5,"ADDRESS":"富農街一段２４８巷１６號","OBJECTID":426224},"geometry":{"x":171644.87999999989,"y":2542610.5000000037}},{"attributes":{"ID":426250,"DIS_CODE":0,"TOWNNAME":"東區","LI":"復興里","LIN":"4鄰","STREET":"富農街","SECT":"一段","MAREA":" ","LANE":"２４８巷","ALLEY":" ","HOUSE_NO":"１７號","E_COORD97":171658.85999999999,"N_COORD97":2542630.9199999999,"ADDRESS":"富農街一段２４８巷１７號","OBJECTID":426225},"geometry":{"x":171658.86000000034,"y":2542630.9199999999}},{"attributes":{"ID":426251,"DIS_CODE":0,"TOWNNAME":"東區","LI":"復興里","LIN":"4鄰","STREET":"富農街","SECT":"一段","MAREA":" ","LANE":"２４８巷","ALLEY":" ","HOUSE_NO":"１８號","E_COORD97":171652.04000000001,"N_COORD97":2542610.8399999999,"ADDRESS":"富農街一段２４８巷１８號","OBJECTID":426226},"geometry":{"x":171652.04000000004,"y":2542610.8399999999}},{"attributes":{"ID":426252,"DIS_CODE":0,"TOWNNAME":"東區","LI":"復興里","LIN":"4鄰","STREET":"富農街","SECT":"一段","MAREA":" ","LANE":"２４８巷","ALLEY":" ","HOUSE_NO":"１９號","E_COORD97":171666.35999999999,"N_COORD97":2542631.2599999998,"ADDRESS":"富農街一段２４８巷１９號","OBJECTID":426227},"geometry":{"x":171666.36000000127,"y":2542631.2599999998}},{"attributes":{"ID":426253,"DIS_CODE":0,"TOWNNAME":"東區","LI":"復興里","LIN":"4鄰","STREET":"富農街","SECT":"一段","MAREA":" ","LANE":"２４８巷","ALLEY":" ","HOUSE_NO":"１號","E_COORD97":171602.01999999999,"N_COORD97":2542624.7999999998,"ADDRESS":"富農街一段２４８巷１號","OBJECTID":426228},"geometry":{"x":171602.02000000048,"y":2542624.8000000007}},{"attributes":{"ID":426254,"DIS_CODE":0,"TOWNNAME":"仁德區","LI":"一甲里","LIN":"4鄰","STREET":"中正路","SECT":"三段","MAREA":" ","LANE":"１３６巷","ALLEY":" ","HOUSE_NO":"３６號","E_COORD97":173510.76999999999,"N_COORD97":2541692.6499999999,"ADDRESS":"中正路三段１３６巷３６號","OBJECTID":426229},"geometry":{"x":173510.77000000048,"y":2541692.6500000022}},{"attributes":{"ID":426255,"DIS_CODE":0,"TOWNNAME":"仁德區","LI":"一甲里","LIN":"4鄰","STREET":"中正路","SECT":"三段","MAREA":" ","LANE":"１３６巷","ALLEY":" ","HOUSE_NO":"３７號","E_COORD97":173539.07000000001,"N_COORD97":2541701.5800000001,"ADDRESS":"中正路三段１３６巷３７號","OBJECTID":426230},"geometry":{"x":173539.0700000003,"y":2541701.5800000038}},{"attributes":{"ID":426256,"DIS_CODE":0,"TOWNNAME":"永康區","LI":"復興里","LIN":"5鄰","STREET":"復興路","SECT":" ","MAREA":" ","LANE":"４２３巷","ALLEY":" ","HOUSE_NO":"３５號","E_COORD97":172163.66,"N_COORD97":2544284.77,"ADDRESS":"復興路４２３巷３５號","OBJECTID":426231},"geometry":{"x":172163.66000000015,"y":2544284.7699999996}},{"attributes":{"ID":426257,"DIS_CODE":0,"TOWNNAME":"永康區","LI":"復國里","LIN":"5鄰","STREET":"復國一路","SECT":" ","MAREA":" ","LANE":"９０巷","ALLEY":" ","HOUSE_NO":"２號","E_COORD97":172733.95000000001,"N_COORD97":2544920.77,"ADDRESS":"復國一路９０巷２號","OBJECTID":426232},"geometry":{"x":172733.95000000112,"y":2544920.7700000014}},{"attributes":{"ID":426258,"DIS_CODE":0,"TOWNNAME":"仁德區","LI":"一甲里","LIN":"4鄰","STREET":"中正路","SECT":"三段","MAREA":" ","LANE":"１３６巷","ALLEY":" ","HOUSE_NO":"３９號","E_COORD97":173542.94,"N_COORD97":2541701.0699999998,"ADDRESS":"中正路三段１３６巷３９號","OBJECTID":426233},"geometry":{"x":173542.94000000134,"y":2541701.0700000003}},{"attributes":{"ID":426259,"DIS_CODE":0,"TOWNNAME":"仁德區","LI":"一甲里","LIN":"4鄰","STREET":"中正路","SECT":"三段","MAREA":" ","LANE":"１３６巷","ALLEY":" ","HOUSE_NO":"３號","E_COORD97":173473.35999999999,"N_COORD97":2541709.8399999999,"ADDRESS":"中正路三段１３６巷３號","OBJECTID":426234},"geometry":{"x":173473.36000000127,"y":2541709.8400000017}},{"attributes":{"ID":426260,"DIS_CODE":0,"TOWNNAME":"仁德區","LI":"一甲里","LIN":"4鄰","STREET":"中正路","SECT":"三段","MAREA":" ","LANE":"１３６巷","ALLEY":" ","HOUSE_NO":"５１號","E_COORD97":173565.62,"N_COORD97":2541698.1200000001,"ADDRESS":"中正路三段１３６巷５１號","OBJECTID":426235},"geometry":{"x":173565.62000000011,"y":2541698.120000001}},{"attributes":{"ID":426261,"DIS_CODE":0,"TOWNNAME":"仁德區","LI":"一甲里","LIN":"4鄰","STREET":"中正路","SECT":"三段","MAREA":" ","LANE":"１３６巷","ALLEY":" ","HOUSE_NO":"５２號","E_COORD97":173537.04000000001,"N_COORD97":2541688.7400000002,"ADDRESS":"中正路三段１３６巷５２號","OBJECTID":426236},"geometry":{"x":173537.04000000004,"y":2541688.7400000002}},{"attributes":{"ID":426262,"DIS_CODE":0,"TOWNNAME":"仁德區","LI":"一甲里","LIN":"4鄰","STREET":"中正路","SECT":"三段","MAREA":" ","LANE":"１３６巷","ALLEY":" ","HOUSE_NO":"５６號","E_COORD97":173541.14000000001,"N_COORD97":2541688.3999999999,"ADDRESS":"中正路三段１３６巷５６號","OBJECTID":426237},"geometry":{"x":173541.13999999966,"y":2541688.4000000004}},{"attributes":{"ID":426263,"DIS_CODE":0,"TOWNNAME":"仁德區","LI":"一甲里","LIN":"4鄰","STREET":"中正路","SECT":"三段","MAREA":" ","LANE":"１３６巷","ALLEY":" ","HOUSE_NO":"５８號","E_COORD97":173544.39000000001,"N_COORD97":2541687.7200000002,"ADDRESS":"中正路三段１３６巷５８號","OBJECTID":426238},"geometry":{"x":173544.38999999966,"y":2541687.7200000044}},{"attributes":{"ID":426264,"DIS_CODE":0,"TOWNNAME":"仁德區","LI":"一甲里","LIN":"4鄰","STREET":"中正路","SECT":"三段","MAREA":" ","LANE":"１３６巷","ALLEY":" ","HOUSE_NO":"５號","E_COORD97":173476.67000000001,"N_COORD97":2541709.2200000002,"ADDRESS":"中正路三段１３６巷５號","OBJECTID":426239},"geometry":{"x":173476.66999999993,"y":2541709.2200000025}},{"attributes":{"ID":426265,"DIS_CODE":0,"TOWNNAME":"仁德區","LI":"一甲里","LIN":"4鄰","STREET":"中正路","SECT":"三段","MAREA":" ","LANE":"１３６巷","ALLEY":" ","HOUSE_NO":"６０號","E_COORD97":173548.44,"N_COORD97":2541687.3199999998,"ADDRESS":"中正路三段１３６巷６０號","OBJECTID":426240},"geometry":{"x":173548.44000000041,"y":2541687.3200000022}},{"attributes":{"ID":426266,"DIS_CODE":0,"TOWNNAME":"仁德區","LI":"一甲里","LIN":"4鄰","STREET":"中正路","SECT":"三段","MAREA":" ","LANE":"１３６巷","ALLEY":" ","HOUSE_NO":"６２號","E_COORD97":173552.31,"N_COORD97":2541686.9700000002,"ADDRESS":"中正路三段１３６巷６２號","OBJECTID":426241},"geometry":{"x":173552.31000000145,"y":2541686.9700000025}},{"attributes":{"ID":426267,"DIS_CODE":0,"TOWNNAME":"仁德區","LI":"一甲里","LIN":"4鄰","STREET":"中正路","SECT":"三段","MAREA":" ","LANE":"１３６巷","ALLEY":" ","HOUSE_NO":"６６號","E_COORD97":173555.42999999999,"N_COORD97":2541686.02,"ADDRESS":"中正路三段１３６巷６６號","OBJECTID":426242},"geometry":{"x":173555.43000000063,"y":2541686.0199999996}},{"attributes":{"ID":426268,"DIS_CODE":0,"TOWNNAME":"仁德區","LI":"一甲里","LIN":"4鄰","STREET":"中正路","SECT":"三段","MAREA":" ","LANE":"１３６巷","ALLEY":" ","HOUSE_NO":"６８號","E_COORD97":173559.85999999999,"N_COORD97":2541685.7599999998,"ADDRESS":"中正路三段１３６巷６８號","OBJECTID":426243},"geometry":{"x":173559.86000000127,"y":2541685.7599999998}},{"attributes":{"ID":426269,"DIS_CODE":0,"TOWNNAME":"仁德區","LI":"一甲里","LIN":"4鄰","STREET":"中正路","SECT":"三段","MAREA":" ","LANE":"１３６巷","ALLEY":" ","HOUSE_NO":"７０號","E_COORD97":173563.26999999999,"N_COORD97":2541685.0299999998,"ADDRESS":"中正路三段１３６巷７０號","OBJECTID":426244},"geometry":{"x":173563.27000000048,"y":2541685.0300000012}},{"attributes":{"ID":426270,"DIS_CODE":0,"TOWNNAME":"仁德區","LI":"一甲里","LIN":"4鄰","STREET":"中正路","SECT":"三段","MAREA":" ","LANE":"１３６巷","ALLEY":" ","HOUSE_NO":"７２號","E_COORD97":173567.17000000001,"N_COORD97":2541684.6400000001,"ADDRESS":"中正路三段１３６巷７２號","OBJECTID":426245},"geometry":{"x":173567.17000000179,"y":2541684.6400000043}},{"attributes":{"ID":426271,"DIS_CODE":0,"TOWNNAME":"仁德區","LI":"一甲里","LIN":"4鄰","STREET":"中正路","SECT":"三段","MAREA":" ","LANE":"１３６巷","ALLEY":" ","HOUSE_NO":"７６號","E_COORD97":173571.01000000001,"N_COORD97":2541684.1099999999,"ADDRESS":"中正路三段１３６巷７６號","OBJECTID":426246},"geometry":{"x":173571.00999999978,"y":2541684.1100000013}},{"attributes":{"ID":426272,"DIS_CODE":0,"TOWNNAME":"仁德區","LI":"一甲里","LIN":"4鄰","STREET":"中正路","SECT":"三段","MAREA":" ","LANE":"１３６巷","ALLEY":" ","HOUSE_NO":"７８號","E_COORD97":173574.70999999999,"N_COORD97":2541683.2400000002,"ADDRESS":"中正路三段１３６巷７８號","OBJECTID":426247},"geometry":{"x":173574.70999999996,"y":2541683.2399999984}},{"attributes":{"ID":426273,"DIS_CODE":0,"TOWNNAME":"仁德區","LI":"一甲里","LIN":"4鄰","STREET":"中正路","SECT":"三段","MAREA":" ","LANE":"１３６巷","ALLEY":" ","HOUSE_NO":"７號","E_COORD97":173480.41,"N_COORD97":2541708.8599999999,"ADDRESS":"中正路三段１３６巷７號","OBJECTID":426248},"geometry":{"x":173480.41000000015,"y":2541708.8600000031}},{"attributes":{"ID":426274,"DIS_CODE":0,"TOWNNAME":"仁德區","LI":"一甲里","LIN":"4鄰","STREET":"中正路","SECT":"三段","MAREA":" ","LANE":"１３６巷","ALLEY":" ","HOUSE_NO":"９號","E_COORD97":173484.32000000001,"N_COORD97":2541708.3599999999,"ADDRESS":"中正路三段１３６巷９號","OBJECTID":426249},"geometry":{"x":173484.32000000123,"y":2541708.3599999994}},{"attributes":{"ID":426275,"DIS_CODE":0,"TOWNNAME":"仁德區","LI":"一甲里","LIN":"4鄰","STREET":"忠義三街","SECT":" ","MAREA":" ","LANE":"１１巷","ALLEY":" ","HOUSE_NO":"２２號","E_COORD97":173555.5,"N_COORD97":2541655.6200000001,"ADDRESS":"忠義三街１１巷２２號","OBJECTID":426250},"geometry":{"x":173555.50000000093,"y":2541655.6200000029}},{"attributes":{"ID":426276,"DIS_CODE":0,"TOWNNAME":"仁德區","LI":"一甲里","LIN":"4鄰","STREET":"忠義三街","SECT":" ","MAREA":" ","LANE":"１１巷","ALLEY":" ","HOUSE_NO":"２３號","E_COORD97":173538.26000000001,"N_COORD97":2541645.4100000001,"ADDRESS":"忠義三街１１巷２３號","OBJECTID":426251},"geometry":{"x":173538.26000000071,"y":2541645.410000002}},{"attributes":{"ID":426277,"DIS_CODE":0,"TOWNNAME":"仁德區","LI":"一甲里","LIN":"4鄰","STREET":"忠義三街","SECT":" ","MAREA":" ","LANE":"１１巷","ALLEY":" ","HOUSE_NO":"２５號","E_COORD97":173532.42000000001,"N_COORD97":2541645.02,"ADDRESS":"忠義三街１１巷２５號","OBJECTID":426252},"geometry":{"x":173532.42000000086,"y":2541645.0200000014}},{"attributes":{"ID":426278,"DIS_CODE":0,"TOWNNAME":"仁德區","LI":"一甲里","LIN":"4鄰","STREET":"忠義三街","SECT":" ","MAREA":" ","LANE":"１１巷","ALLEY":" ","HOUSE_NO":"２６號","E_COORD97":173549.73999999999,"N_COORD97":2541655.5099999998,"ADDRESS":"忠義三街１１巷２６號","OBJECTID":426253},"geometry":{"x":173549.74000000022,"y":2541655.5100000016}},{"attributes":{"ID":426279,"DIS_CODE":0,"TOWNNAME":"仁德區","LI":"一甲里","LIN":"4鄰","STREET":"忠義三街","SECT":" ","MAREA":" ","LANE":"１１巷","ALLEY":" ","HOUSE_NO":"２７號","E_COORD97":173526.98000000001,"N_COORD97":2541644.9900000002,"ADDRESS":"忠義三街１１巷２７號","OBJECTID":426254},"geometry":{"x":173526.98000000138,"y":2541644.9900000021}},{"attributes":{"ID":426280,"DIS_CODE":0,"TOWNNAME":"仁德區","LI":"一甲里","LIN":"4鄰","STREET":"忠義三街","SECT":" ","MAREA":" ","LANE":"１１巷","ALLEY":" ","HOUSE_NO":"２８號","E_COORD97":173544.10000000001,"N_COORD97":2541655.3599999999,"ADDRESS":"忠義三街１１巷２８號","OBJECTID":426255},"geometry":{"x":173544.10000000056,"y":2541655.3600000013}},{"attributes":{"ID":426281,"DIS_CODE":0,"TOWNNAME":"仁德區","LI":"一甲里","LIN":"4鄰","STREET":"忠義三街","SECT":" ","MAREA":" ","LANE":"１１巷","ALLEY":" ","HOUSE_NO":"２９號","E_COORD97":173521.13,"N_COORD97":2541644.7400000002,"ADDRESS":"忠義三街１１巷２９號","OBJECTID":426256},"geometry":{"x":173521.12999999989,"y":2541644.7400000002}},{"attributes":{"ID":426282,"DIS_CODE":0,"TOWNNAME":"仁德區","LI":"一甲里","LIN":"4鄰","STREET":"忠義三街","SECT":" ","MAREA":" ","LANE":"１１巷","ALLEY":" ","HOUSE_NO":"２號","E_COORD97":173599.54000000001,"N_COORD97":2541657.1499999999,"ADDRESS":"忠義三街１１巷２號","OBJECTID":426257},"geometry":{"x":173599.54000000004,"y":2541657.1500000041}},{"attributes":{"ID":426283,"DIS_CODE":0,"TOWNNAME":"仁德區","LI":"一甲里","LIN":"4鄰","STREET":"忠義三街","SECT":" ","MAREA":" ","LANE":"１１巷","ALLEY":" ","HOUSE_NO":"３０號","E_COORD97":173538.39000000001,"N_COORD97":2541654.9199999999,"ADDRESS":"忠義三街１１巷３０號","OBJECTID":426258},"geometry":{"x":173538.39000000153,"y":2541654.9200000037}},{"attributes":{"ID":426284,"DIS_CODE":0,"TOWNNAME":"仁德區","LI":"一甲里","LIN":"4鄰","STREET":"忠義三街","SECT":" ","MAREA":" ","LANE":"１１巷","ALLEY":" ","HOUSE_NO":"３１號","E_COORD97":173515.60999999999,"N_COORD97":2541644.3199999998,"ADDRESS":"忠義三街１１巷３１號","OBJECTID":426259},"geometry":{"x":173515.61000000127,"y":2541644.3200000003}},{"attributes":{"ID":426285,"DIS_CODE":0,"TOWNNAME":"安南區","LI":"頂安里","LIN":"4鄰","STREET":"長溪路","SECT":"一段","MAREA":" ","LANE":"４７６巷","ALLEY":" ","HOUSE_NO":"１７號","E_COORD97":168558.32999999999,"N_COORD97":2549072.75,"ADDRESS":"長溪路一段４７６巷１７號","OBJECTID":426260},"geometry":{"x":168558.33000000007,"y":2549072.75}},{"attributes":{"ID":426286,"DIS_CODE":0,"TOWNNAME":"安南區","LI":"頂安里","LIN":"4鄰","STREET":"長溪路","SECT":"一段","MAREA":" ","LANE":"４９０巷","ALLEY":" ","HOUSE_NO":"１號","E_COORD97":168465.35000000001,"N_COORD97":2549130.52,"ADDRESS":"長溪路一段４９０巷１號","OBJECTID":426261},"geometry":{"x":168465.35000000056,"y":2549130.5200000014}},{"attributes":{"ID":426287,"DIS_CODE":0,"TOWNNAME":"安南區","LI":"頂安里","LIN":"4鄰","STREET":"長溪路","SECT":"一段","MAREA":" ","LANE":"４９０巷","ALLEY":" ","HOUSE_NO":"２１號","E_COORD97":168536.41,"N_COORD97":2549114.2000000002,"ADDRESS":"長溪路一段４９０巷２１號","OBJECTID":426262},"geometry":{"x":168536.41000000108,"y":2549114.1999999974}},{"attributes":{"ID":426288,"DIS_CODE":0,"TOWNNAME":"安南區","LI":"頂安里","LIN":"4鄰","STREET":"長溪路","SECT":"一段","MAREA":" ","LANE":"４９０巷","ALLEY":" ","HOUSE_NO":"２３號","E_COORD97":168546.19,"N_COORD97":2549122.96,"ADDRESS":"長溪路一段４９０巷２３號","OBJECTID":426263},"geometry":{"x":168546.19000000041,"y":2549122.9600000009}},{"attributes":{"ID":426289,"DIS_CODE":0,"TOWNNAME":"安南區","LI":"頂安里","LIN":"4鄰","STREET":"長溪路","SECT":"一段","MAREA":" ","LANE":"４９０巷","ALLEY":" ","HOUSE_NO":"２６號","E_COORD97":168569.45999999999,"N_COORD97":2549108.1299999999,"ADDRESS":"長溪路一段４９０巷２６號","OBJECTID":426264},"geometry":{"x":168569.46000000183,"y":2549108.1300000008}},{"attributes":{"ID":426290,"DIS_CODE":0,"TOWNNAME":"安南區","LI":"頂安里","LIN":"4鄰","STREET":"長溪路","SECT":"一段","MAREA":" ","LANE":"４９０巷","ALLEY":" ","HOUSE_NO":"２８號","E_COORD97":168575.20000000001,"N_COORD97":2549108.8100000001,"ADDRESS":"長溪路一段４９０巷２８號","OBJECTID":426265},"geometry":{"x":168575.20000000112,"y":2549108.8100000024}},{"attributes":{"ID":426291,"DIS_CODE":0,"TOWNNAME":"安南區","LI":"頂安里","LIN":"4鄰","STREET":"長溪路","SECT":"一段","MAREA":" ","LANE":"４９０巷","ALLEY":" ","HOUSE_NO":"３號","E_COORD97":168471.76999999999,"N_COORD97":2549115.1299999999,"ADDRESS":"長溪路一段４９０巷３號","OBJECTID":426266},"geometry":{"x":168471.76999999955,"y":2549115.1300000008}},{"attributes":{"ID":426292,"DIS_CODE":0,"TOWNNAME":"安南區","LI":"頂安里","LIN":"4鄰","STREET":"長溪路","SECT":"一段","MAREA":" ","LANE":"４９０巷","ALLEY":" ","HOUSE_NO":"８號","E_COORD97":168528.64999999999,"N_COORD97":2549093.3100000001,"ADDRESS":"長溪路一段４９０巷８號","OBJECTID":426267},"geometry":{"x":168528.6500000013,"y":2549093.3100000005}},{"attributes":{"ID":426293,"DIS_CODE":0,"TOWNNAME":"安南區","LI":"安慶里","LIN":"4鄰","STREET":"長溪路","SECT":"一段","MAREA":" ","LANE":"１６８巷","ALLEY":" ","HOUSE_NO":"１３８號","E_COORD97":169087.70999999999,"N_COORD97":2548869.4199999999,"ADDRESS":"長溪路一段１６８巷１３８號","OBJECTID":426268},"geometry":{"x":169087.70999999996,"y":2548869.4199999981}},{"attributes":{"ID":426294,"DIS_CODE":0,"TOWNNAME":"安南區","LI":"安慶里","LIN":"4鄰","STREET":"長溪路","SECT":"一段","MAREA":" ","LANE":"１６８巷","ALLEY":" ","HOUSE_NO":"７０號","E_COORD97":169082.88,"N_COORD97":2548713.3399999999,"ADDRESS":"長溪路一段１６８巷７０號","OBJECTID":426269},"geometry":{"x":169082.87999999989,"y":2548713.3399999999}},{"attributes":{"ID":426295,"DIS_CODE":0,"TOWNNAME":"安南區","LI":"安慶里","LIN":"4鄰","STREET":"長溪路","SECT":"一段","MAREA":" ","LANE":"１６８巷","ALLEY":" ","HOUSE_NO":"８０號","E_COORD97":169087.70999999999,"N_COORD97":2548740.8199999998,"ADDRESS":"長溪路一段１６８巷８０號","OBJECTID":426270},"geometry":{"x":169087.70999999996,"y":2548740.8200000003}},{"attributes":{"ID":426296,"DIS_CODE":0,"TOWNNAME":"安南區","LI":"安慶里","LIN":"4鄰","STREET":"長溪路","SECT":"一段","MAREA":" ","LANE":"１６８巷","ALLEY":" ","HOUSE_NO":"８６號","E_COORD97":169084.54999999999,"N_COORD97":2548759.2400000002,"ADDRESS":"長溪路一段１６８巷８６號","OBJECTID":426271},"geometry":{"x":169084.55000000075,"y":2548759.2400000039}},{"attributes":{"ID":426297,"DIS_CODE":0,"TOWNNAME":"佳里區","LI":"鎮山里","LIN":"4鄰","STREET":"平等街","SECT":" ","MAREA":" ","LANE":"９７巷","ALLEY":" ","HOUSE_NO":"１８號","E_COORD97":165973.17999999999,"N_COORD97":2561842.8500000001,"ADDRESS":"平等街９７巷１８號","OBJECTID":426272},"geometry":{"x":165973.18000000063,"y":2561842.8500000015}},{"attributes":{"ID":426298,"DIS_CODE":0,"TOWNNAME":"永康區","LI":"勝利里","LIN":"20鄰","STREET":"勝華街","SECT":" ","MAREA":" ","LANE":"１４０巷","ALLEY":" ","HOUSE_NO":"１１號","E_COORD97":171220.23999999999,"N_COORD97":2545268.0099999998,"ADDRESS":"勝華街１４０巷１１號","OBJECTID":426273},"geometry":{"x":171220.24000000022,"y":2545268.0099999979}},{"attributes":{"ID":426299,"DIS_CODE":0,"TOWNNAME":"永康區","LI":"復華里","LIN":"25鄰","STREET":"復華八街","SECT":" ","MAREA":" ","LANE":"４９巷","ALLEY":" ","HOUSE_NO":"１７號","E_COORD97":172747.45999999999,"N_COORD97":2546413.0299999998,"ADDRESS":"復華八街４９巷１７號","OBJECTID":426274},"geometry":{"x":172747.45999999996,"y":2546413.0299999993}},{"attributes":{"ID":426300,"DIS_CODE":0,"TOWNNAME":"永康區","LI":"復國里","LIN":"32鄰","STREET":"復華一街","SECT":" ","MAREA":" ","LANE":"２８巷","ALLEY":" ","HOUSE_NO":"１７號","E_COORD97":172640.62,"N_COORD97":2545120.27,"ADDRESS":"復華一街２８巷１７號","OBJECTID":426275},"geometry":{"x":172640.62000000104,"y":2545120.2699999977}},{"attributes":{"ID":426301,"DIS_CODE":0,"TOWNNAME":"永康區","LI":"復國里","LIN":"32鄰","STREET":"復華一街","SECT":" ","MAREA":" ","LANE":"１９巷","ALLEY":" ","HOUSE_NO":"２７號","E_COORD97":172652.14999999999,"N_COORD97":2544975.5299999998,"ADDRESS":"復華一街１９巷２７號","OBJECTID":426276},"geometry":{"x":172652.15000000037,"y":2544975.5299999993}},{"attributes":{"ID":426302,"DIS_CODE":0,"TOWNNAME":"永康區","LI":"復國里","LIN":"32鄰","STREET":"復華一街","SECT":" ","MAREA":" ","LANE":"２８巷","ALLEY":" ","HOUSE_NO":"１０號","E_COORD97":172659.73999999999,"N_COORD97":2545138.2400000002,"ADDRESS":"復華一街２８巷１０號","OBJECTID":426277},"geometry":{"x":172659.74000000022,"y":2545138.2400000039}},{"attributes":{"ID":426303,"DIS_CODE":0,"TOWNNAME":"永康區","LI":"復國里","LIN":"18鄰","STREET":"復國一路","SECT":" ","MAREA":" ","LANE":"３２２巷","ALLEY":" ","HOUSE_NO":"７號","E_COORD97":172795.79000000001,"N_COORD97":2545631.77,"ADDRESS":"復國一路３２２巷７號","OBJECTID":426278},"geometry":{"x":172795.79000000097,"y":2545631.7699999996}},{"attributes":{"ID":426304,"DIS_CODE":0,"TOWNNAME":"永康區","LI":"勝利里","LIN":"20鄰","STREET":"勝學路","SECT":" ","MAREA":" ","LANE":"２６９巷","ALLEY":" ","HOUSE_NO":"３３號","E_COORD97":171148.60000000001,"N_COORD97":2545216.25,"ADDRESS":"勝學路２６９巷３３號","OBJECTID":426279},"geometry":{"x":171148.60000000056,"y":2545216.2500000019}},{"attributes":{"ID":426305,"DIS_CODE":0,"TOWNNAME":"永康區","LI":"復華里","LIN":"25鄰","STREET":"復華八街","SECT":" ","MAREA":" ","LANE":"４９巷","ALLEY":" ","HOUSE_NO":"３４號","E_COORD97":172719.42999999999,"N_COORD97":2546424.0299999998,"ADDRESS":"復華八街４９巷３４號","OBJECTID":426280},"geometry":{"x":172719.43000000063,"y":2546424.0300000012}},{"attributes":{"ID":426306,"DIS_CODE":0,"TOWNNAME":"永康區","LI":"復國里","LIN":"32鄰","STREET":"復華一街","SECT":" ","MAREA":" ","LANE":"１９巷","ALLEY":" ","HOUSE_NO":"１７號","E_COORD97":172652.66,"N_COORD97":2544995.2799999998,"ADDRESS":"復華一街１９巷１７號","OBJECTID":426281},"geometry":{"x":172652.66000000108,"y":2544995.2800000012}},{"attributes":{"ID":426307,"DIS_CODE":0,"TOWNNAME":"永康區","LI":"復華里","LIN":"13鄰","STREET":"復國二路","SECT":" ","MAREA":" ","LANE":"２０５巷","ALLEY":" ","HOUSE_NO":"５號","E_COORD97":172960.29000000001,"N_COORD97":2545982.02,"ADDRESS":"復國二路２０５巷５號","OBJECTID":426282},"geometry":{"x":172960.29000000097,"y":2545982.0199999996}},{"attributes":{"ID":426308,"DIS_CODE":0,"TOWNNAME":"永康區","LI":"崑山里","LIN":"18鄰","STREET":"大灣路","SECT":" ","MAREA":" ","LANE":"９４２巷","ALLEY":" ","HOUSE_NO":"１２號","E_COORD97":173631.34,"N_COORD97":2544472,"ADDRESS":"大灣路９４２巷１２號","OBJECTID":426283},"geometry":{"x":173631.33999999985,"y":2544472.0000000037}},{"attributes":{"ID":426309,"DIS_CODE":0,"TOWNNAME":"永康區","LI":"復華里","LIN":"25鄰","STREET":"復華八街","SECT":" ","MAREA":" ","LANE":"４７巷","ALLEY":" ","HOUSE_NO":"２４號","E_COORD97":172734.42999999999,"N_COORD97":2546384.77,"ADDRESS":"復華八街４７巷２４號","OBJECTID":426284},"geometry":{"x":172734.42999999877,"y":2546384.7699999977}},{"attributes":{"ID":426310,"DIS_CODE":0,"TOWNNAME":"永康區","LI":"復華里","LIN":"25鄰","STREET":"復華八街","SECT":" ","MAREA":" ","LANE":"５１巷","ALLEY":" ","HOUSE_NO":"３３號","E_COORD97":172707.35999999999,"N_COORD97":2546429.1200000001,"ADDRESS":"復華八街５１巷３３號","OBJECTID":426285},"geometry":{"x":172707.36000000127,"y":2546429.1200000029}},{"attributes":{"ID":426311,"DIS_CODE":0,"TOWNNAME":"關廟區","LI":"埤頭里","LIN":"4鄰","STREET":"保東路","SECT":" ","MAREA":" ","LANE":"１１５巷","ALLEY":" ","HOUSE_NO":"１１號四樓","E_COORD97":178810.82000000001,"N_COORD97":2543980.2999999998,"ADDRESS":"保東路１１５巷１１號四樓","OBJECTID":426286},"geometry":{"x":178810.8200000003,"y":2543980.3000000026}},{"attributes":{"ID":426312,"DIS_CODE":0,"TOWNNAME":"永康區","LI":"復國里","LIN":"5鄰","STREET":"復國一路","SECT":" ","MAREA":" ","LANE":"９０巷","ALLEY":" ","HOUSE_NO":"３６號","E_COORD97":172788.06,"N_COORD97":2544925.27,"ADDRESS":"復國一路９０巷３６號","OBJECTID":426287},"geometry":{"x":172788.06000000052,"y":2544925.2700000014}},{"attributes":{"ID":426313,"DIS_CODE":0,"TOWNNAME":"永康區","LI":"復華里","LIN":"39鄰","STREET":"復華七街","SECT":" ","MAREA":" ","LANE":"３２巷","ALLEY":" ","HOUSE_NO":"３號","E_COORD97":172683.89000000001,"N_COORD97":2545960.77,"ADDRESS":"復華七街３２巷３號","OBJECTID":426288},"geometry":{"x":172683.89000000153,"y":2545960.7699999996}},{"attributes":{"ID":426314,"DIS_CODE":0,"TOWNNAME":"永康區","LI":"勝利里","LIN":"34鄰","STREET":"勝利街","SECT":" ","MAREA":" ","LANE":"１巷","ALLEY":" ","HOUSE_NO":"３８號","E_COORD97":170994.76000000001,"N_COORD97":2544655.7599999998,"ADDRESS":"勝利街１巷３８號","OBJECTID":426289},"geometry":{"x":170994.76000000164,"y":2544655.7599999998}},{"attributes":{"ID":426315,"DIS_CODE":0,"TOWNNAME":"永康區","LI":"崑山里","LIN":"41鄰","STREET":"崑山街","SECT":" ","MAREA":" ","LANE":"２１９巷","ALLEY":" ","HOUSE_NO":"４號","E_COORD97":174075.09,"N_COORD97":2545059.71,"ADDRESS":"崑山街２１９巷４號","OBJECTID":426290},"geometry":{"x":174075.09000000078,"y":2545059.7100000009}},{"attributes":{"ID":426316,"DIS_CODE":0,"TOWNNAME":"永康區","LI":"崑山里","LIN":"41鄰","STREET":"崑山街","SECT":" ","MAREA":" ","LANE":"２１９巷","ALLEY":" ","HOUSE_NO":"１１號","E_COORD97":174048.85999999999,"N_COORD97":2545050.04,"ADDRESS":"崑山街２１９巷１１號","OBJECTID":426291},"geometry":{"x":174048.86000000034,"y":2545050.0399999991}},{"attributes":{"ID":426317,"DIS_CODE":0,"TOWNNAME":"永康區","LI":"崑山里","LIN":"41鄰","STREET":"崑山街","SECT":" ","MAREA":" ","LANE":"２１９巷","ALLEY":" ","HOUSE_NO":"９號","E_COORD97":174053.26999999999,"N_COORD97":2545050.96,"ADDRESS":"崑山街２１９巷９號","OBJECTID":426292},"geometry":{"x":174053.27000000048,"y":2545050.9600000028}},{"attributes":{"ID":426318,"DIS_CODE":0,"TOWNNAME":"永康區","LI":"復國里","LIN":"24鄰","STREET":"復華三街","SECT":" ","MAREA":" ","LANE":"９０巷","ALLEY":" ","HOUSE_NO":"６號","E_COORD97":172616.79999999999,"N_COORD97":2545582.0299999998,"ADDRESS":"復華三街９０巷６號","OBJECTID":426293},"geometry":{"x":172616.79999999888,"y":2545582.0299999993}},{"attributes":{"ID":426319,"DIS_CODE":0,"TOWNNAME":"永康區","LI":"勝利里","LIN":"34鄰","STREET":"勝利街","SECT":" ","MAREA":" ","LANE":"１巷","ALLEY":" ","HOUSE_NO":"５５號","E_COORD97":170938.20000000001,"N_COORD97":2544670.0099999998,"ADDRESS":"勝利街１巷５５號","OBJECTID":426294},"geometry":{"x":170938.20000000112,"y":2544670.0099999998}},{"attributes":{"ID":426320,"DIS_CODE":0,"TOWNNAME":"永康區","LI":"復國里","LIN":"5鄰","STREET":"復國一路","SECT":" ","MAREA":" ","LANE":"９０巷","ALLEY":" ","HOUSE_NO":"６８號","E_COORD97":172830.39999999999,"N_COORD97":2544925.52,"ADDRESS":"復國一路９０巷６８號","OBJECTID":426295},"geometry":{"x":172830.40000000224,"y":2544925.5200000033}},{"attributes":{"ID":426321,"DIS_CODE":0,"TOWNNAME":"永康區","LI":"復華里","LIN":"13鄰","STREET":"復國二路","SECT":" ","MAREA":" ","LANE":"２０５巷","ALLEY":" ","HOUSE_NO":"９號","E_COORD97":172951.48000000001,"N_COORD97":2545984.02,"ADDRESS":"復國二路２０５巷９號","OBJECTID":426296},"geometry":{"x":172951.48000000045,"y":2545984.0200000014}},{"attributes":{"ID":426322,"DIS_CODE":0,"TOWNNAME":"永康區","LI":"崑山里","LIN":"18鄰","STREET":"大灣路","SECT":" ","MAREA":" ","LANE":"９４２巷","ALLEY":" ","HOUSE_NO":"１０號","E_COORD97":173624.39000000001,"N_COORD97":2544462.5,"ADDRESS":"大灣路９４２巷１０號","OBJECTID":426297},"geometry":{"x":173624.38999999966,"y":2544462.5000000019}},{"attributes":{"ID":426323,"DIS_CODE":0,"TOWNNAME":"永康區","LI":"崑山里","LIN":"32鄰","STREET":"大灣路","SECT":" ","MAREA":" ","LANE":"７９８巷","ALLEY":" ","HOUSE_NO":"８６號","E_COORD97":174116.39999999999,"N_COORD97":2544806.6099999999,"ADDRESS":"大灣路７９８巷８６號","OBJECTID":426298},"geometry":{"x":174116.40000000037,"y":2544806.6100000013}},{"attributes":{"ID":426324,"DIS_CODE":0,"TOWNNAME":"永康區","LI":"崑山里","LIN":"41鄰","STREET":"崑山街","SECT":" ","MAREA":" ","LANE":"２１９巷","ALLEY":" ","HOUSE_NO":"３１號","E_COORD97":174010.10000000001,"N_COORD97":2545068.0899999999,"ADDRESS":"崑山街２１９巷３１號","OBJECTID":426299},"geometry":{"x":174010.10000000056,"y":2545068.0900000017}},{"attributes":{"ID":426325,"DIS_CODE":0,"TOWNNAME":"永康區","LI":"崑山里","LIN":"41鄰","STREET":"崑山街","SECT":" ","MAREA":" ","LANE":"２１９巷","ALLEY":" ","HOUSE_NO":"２２號","E_COORD97":174036.57000000001,"N_COORD97":2545073.46,"ADDRESS":"崑山街２１９巷２２號","OBJECTID":426300},"geometry":{"x":174036.57000000123,"y":2545073.4600000028}},{"attributes":{"ID":426326,"DIS_CODE":0,"TOWNNAME":"永康區","LI":"崑山里","LIN":"18鄰","STREET":"大灣路","SECT":" ","MAREA":" ","LANE":"９４２巷","ALLEY":" ","HOUSE_NO":"２２號","E_COORD97":173639.37,"N_COORD97":2544512.3700000001,"ADDRESS":"大灣路９４２巷２２號","OBJECTID":426301},"geometry":{"x":173639.37000000104,"y":2544512.3700000029}},{"attributes":{"ID":426327,"DIS_CODE":0,"TOWNNAME":"永康區","LI":"勝利里","LIN":"20鄰","STREET":"勝利街","SECT":" ","MAREA":" ","LANE":"１９７巷","ALLEY":" ","HOUSE_NO":"４２號之１","E_COORD97":171236.01000000001,"N_COORD97":2545166.02,"ADDRESS":"勝利街１９７巷４２號之１","OBJECTID":426302},"geometry":{"x":171236.01000000071,"y":2545166.0199999977}},{"attributes":{"ID":426328,"DIS_CODE":0,"TOWNNAME":"永康區","LI":"勝利里","LIN":"13鄰","STREET":"勝利街","SECT":" ","MAREA":" ","LANE":"７５巷","ALLEY":" ","HOUSE_NO":"１３號","E_COORD97":171300.25,"N_COORD97":2544741.5,"ADDRESS":"勝利街７５巷１３號","OBJECTID":426303},"geometry":{"x":171300.25000000186,"y":2544741.5}},{"attributes":{"ID":426329,"DIS_CODE":0,"TOWNNAME":"永康區","LI":"崑山里","LIN":"38鄰","STREET":"崑山街","SECT":" ","MAREA":" ","LANE":"２０３巷","ALLEY":" ","HOUSE_NO":"１３號","E_COORD97":174026.09,"N_COORD97":2545000.79,"ADDRESS":"崑山街２０３巷１３號","OBJECTID":426304},"geometry":{"x":174026.09000000078,"y":2545000.7899999991}},{"attributes":{"ID":426330,"DIS_CODE":0,"TOWNNAME":"永康區","LI":"崑山里","LIN":"41鄰","STREET":"崑山街","SECT":" ","MAREA":" ","LANE":"２１９巷","ALLEY":" ","HOUSE_NO":"１號","E_COORD97":174070.20000000001,"N_COORD97":2545042.8500000001,"ADDRESS":"崑山街２１９巷１號","OBJECTID":426305},"geometry":{"x":174070.20000000019,"y":2545042.8500000015}},{"attributes":{"ID":426331,"DIS_CODE":0,"TOWNNAME":"永康區","LI":"崑山里","LIN":"46鄰","STREET":"永華路","SECT":" ","MAREA":" ","LANE":"３２巷","ALLEY":" ","HOUSE_NO":"４２號","E_COORD97":174190.85999999999,"N_COORD97":2545168.3100000001,"ADDRESS":"永華路３２巷４２號","OBJECTID":426306},"geometry":{"x":174190.86000000127,"y":2545168.3100000005}},{"attributes":{"ID":426332,"DIS_CODE":0,"TOWNNAME":"永康區","LI":"復國里","LIN":"17鄰","STREET":"國華街","SECT":" ","MAREA":" ","LANE":"１８巷","ALLEY":" ","HOUSE_NO":"１０號","E_COORD97":172866.38,"N_COORD97":2545603,"ADDRESS":"國華街１８巷１０號","OBJECTID":426307},"geometry":{"x":172866.38000000082,"y":2545603}},{"attributes":{"ID":426333,"DIS_CODE":0,"TOWNNAME":"永康區","LI":"勝利里","LIN":"7鄰","STREET":"勝利街","SECT":" ","MAREA":" ","LANE":"２２巷","ALLEY":" ","HOUSE_NO":"３３號","E_COORD97":171262.95999999999,"N_COORD97":2544659.5099999998,"ADDRESS":"勝利街２２巷３３號","OBJECTID":426308},"geometry":{"x":171262.95999999996,"y":2544659.5100000016}},{"attributes":{"ID":426334,"DIS_CODE":0,"TOWNNAME":"北區","LI":"六甲里","LIN":"4鄰","STREET":"公園路","SECT":" ","MAREA":" ","LANE":"５０９巷","ALLEY":" ","HOUSE_NO":"１９號三樓之５","E_COORD97":168961.48999999999,"N_COORD97":2545547.29,"ADDRESS":"公園路５０９巷１９號三樓之５","OBJECTID":426309},"geometry":{"x":168961.49000000115,"y":2545547.290000001}},{"attributes":{"ID":426335,"DIS_CODE":0,"TOWNNAME":"北區","LI":"六甲里","LIN":"4鄰","STREET":"公園路","SECT":" ","MAREA":" ","LANE":"５０９巷","ALLEY":" ","HOUSE_NO":"１９號四樓之１","E_COORD97":168961.48999999999,"N_COORD97":2545547.29,"ADDRESS":"公園路５０９巷１９號四樓之１","OBJECTID":426310},"geometry":{"x":168961.49000000115,"y":2545547.290000001}},{"attributes":{"ID":426336,"DIS_CODE":0,"TOWNNAME":"北區","LI":"六甲里","LIN":"4鄰","STREET":"公園路","SECT":" ","MAREA":" ","LANE":"５０９巷","ALLEY":" ","HOUSE_NO":"１９號四樓之２","E_COORD97":168961.48999999999,"N_COORD97":2545547.29,"ADDRESS":"公園路５０９巷１９號四樓之２","OBJECTID":426311},"geometry":{"x":168961.49000000115,"y":2545547.290000001}},{"attributes":{"ID":426337,"DIS_CODE":0,"TOWNNAME":"永康區","LI":"二王里","LIN":"18鄰","STREET":"忠孝路","SECT":" ","MAREA":" ","LANE":"４６１巷","ALLEY":" ","HOUSE_NO":"１號","E_COORD97":172448.70000000001,"N_COORD97":2546624.8700000001,"ADDRESS":"忠孝路４６１巷１號","OBJECTID":426312},"geometry":{"x":172448.70000000112,"y":2546624.8700000029}},{"attributes":{"ID":426338,"DIS_CODE":0,"TOWNNAME":"永康區","LI":"二王里","LIN":"25鄰","STREET":"中山南路","SECT":" ","MAREA":" ","LANE":"５４４巷","ALLEY":" ","HOUSE_NO":"７７號","E_COORD97":172340.51000000001,"N_COORD97":2546305.25,"ADDRESS":"中山南路５４４巷７７號","OBJECTID":426313},"geometry":{"x":172340.50999999978,"y":2546305.2500000019}},{"attributes":{"ID":426339,"DIS_CODE":0,"TOWNNAME":"永康區","LI":"二王里","LIN":"25鄰","STREET":"中山南路","SECT":" ","MAREA":" ","LANE":"５４４巷","ALLEY":" ","HOUSE_NO":"８５號","E_COORD97":172335.04999999999,"N_COORD97":2546283.2400000002,"ADDRESS":"中山南路５４４巷８５號","OBJECTID":426314},"geometry":{"x":172335.04999999981,"y":2546283.2400000002}},{"attributes":{"ID":426340,"DIS_CODE":0,"TOWNNAME":"北區","LI":"六甲里","LIN":"4鄰","STREET":"公園路","SECT":" ","MAREA":" ","LANE":"５０９巷","ALLEY":" ","HOUSE_NO":"１９號四樓之３","E_COORD97":168961.48999999999,"N_COORD97":2545547.29,"ADDRESS":"公園路５０９巷１９號四樓之３","OBJECTID":426315},"geometry":{"x":168961.49000000115,"y":2545547.290000001}},{"attributes":{"ID":426341,"DIS_CODE":0,"TOWNNAME":"北區","LI":"六甲里","LIN":"4鄰","STREET":"公園路","SECT":" ","MAREA":" ","LANE":"５０９巷","ALLEY":" ","HOUSE_NO":"１９號四樓之６","E_COORD97":168961.48999999999,"N_COORD97":2545547.29,"ADDRESS":"公園路５０９巷１９號四樓之６","OBJECTID":426316},"geometry":{"x":168961.49000000115,"y":2545547.290000001}},{"attributes":{"ID":426342,"DIS_CODE":0,"TOWNNAME":"永康區","LI":"二王里","LIN":"13鄰","STREET":"永二街","SECT":" ","MAREA":" ","LANE":"４４９巷","ALLEY":" ","HOUSE_NO":"９號","E_COORD97":172676.48000000001,"N_COORD97":2546648.1899999999,"ADDRESS":"永二街４４９巷９號","OBJECTID":426317},"geometry":{"x":172676.48000000138,"y":2546648.1900000013}},{"attributes":{"ID":426343,"DIS_CODE":0,"TOWNNAME":"北區","LI":"六甲里","LIN":"4鄰","STREET":"公園路","SECT":" ","MAREA":" ","LANE":"５０９巷","ALLEY":" ","HOUSE_NO":"１９號四樓之５","E_COORD97":168961.48999999999,"N_COORD97":2545547.29,"ADDRESS":"公園路５０９巷１９號四樓之５","OBJECTID":426318},"geometry":{"x":168961.49000000115,"y":2545547.290000001}},{"attributes":{"ID":426344,"DIS_CODE":0,"TOWNNAME":"北區","LI":"六甲里","LIN":"4鄰","STREET":"公園路","SECT":" ","MAREA":" ","LANE":"５０９巷","ALLEY":" ","HOUSE_NO":"１９號五樓之１","E_COORD97":168961.48999999999,"N_COORD97":2545547.29,"ADDRESS":"公園路５０９巷１９號五樓之１","OBJECTID":426319},"geometry":{"x":168961.49000000115,"y":2545547.290000001}},{"attributes":{"ID":426345,"DIS_CODE":0,"TOWNNAME":"北區","LI":"六甲里","LIN":"4鄰","STREET":"公園路","SECT":" ","MAREA":" ","LANE":"５０９巷","ALLEY":" ","HOUSE_NO":"１９號五樓之２","E_COORD97":168961.48999999999,"N_COORD97":2545547.29,"ADDRESS":"公園路５０９巷１９號五樓之２","OBJECTID":426320},"geometry":{"x":168961.49000000115,"y":2545547.290000001}},{"attributes":{"ID":426346,"DIS_CODE":0,"TOWNNAME":"北區","LI":"六甲里","LIN":"4鄰","STREET":"公園路","SECT":" ","MAREA":" ","LANE":"５０９巷","ALLEY":" ","HOUSE_NO":"１９號五樓之３","E_COORD97":168961.48999999999,"N_COORD97":2545547.29,"ADDRESS":"公園路５０９巷１９號五樓之３","OBJECTID":426321},"geometry":{"x":168961.49000000115,"y":2545547.290000001}},{"attributes":{"ID":426347,"DIS_CODE":0,"TOWNNAME":"北區","LI":"六甲里","LIN":"4鄰","STREET":"公園路","SECT":" ","MAREA":" ","LANE":"５０９巷","ALLEY":" ","HOUSE_NO":"１９號五樓之４","E_COORD97":168961.48999999999,"N_COORD97":2545547.29,"ADDRESS":"公園路５０９巷１９號五樓之４","OBJECTID":426322},"geometry":{"x":168961.49000000115,"y":2545547.290000001}},{"attributes":{"ID":426348,"DIS_CODE":0,"TOWNNAME":"北區","LI":"六甲里","LIN":"4鄰","STREET":"公園路","SECT":" ","MAREA":" ","LANE":"５０９巷","ALLEY":" ","HOUSE_NO":"１９號六樓之１","E_COORD97":168961.48999999999,"N_COORD97":2545547.29,"ADDRESS":"公園路５０９巷１９號六樓之１","OBJECTID":426323},"geometry":{"x":168961.49000000115,"y":2545547.290000001}},{"attributes":{"ID":426349,"DIS_CODE":0,"TOWNNAME":"北區","LI":"六甲里","LIN":"4鄰","STREET":"公園路","SECT":" ","MAREA":" ","LANE":"５０９巷","ALLEY":" ","HOUSE_NO":"１９號六樓之２","E_COORD97":168961.48999999999,"N_COORD97":2545547.29,"ADDRESS":"公園路５０９巷１９號六樓之２","OBJECTID":426324},"geometry":{"x":168961.49000000115,"y":2545547.290000001}},{"attributes":{"ID":426350,"DIS_CODE":0,"TOWNNAME":"北區","LI":"六甲里","LIN":"4鄰","STREET":"公園路","SECT":" ","MAREA":" ","LANE":"５０９巷","ALLEY":" ","HOUSE_NO":"３３號二樓之４","E_COORD97":168972.25,"N_COORD97":2545553.4300000002,"ADDRESS":"公園路５０９巷３３號二樓之４","OBJECTID":426325},"geometry":{"x":168972.25,"y":2545553.4300000034}},{"attributes":{"ID":426351,"DIS_CODE":0,"TOWNNAME":"北區","LI":"六甲里","LIN":"4鄰","STREET":"公園路","SECT":" ","MAREA":" ","LANE":"５０９巷","ALLEY":" ","HOUSE_NO":"３３號三樓之１","E_COORD97":168972.25,"N_COORD97":2545553.4300000002,"ADDRESS":"公園路５０９巷３３號三樓之１","OBJECTID":426326},"geometry":{"x":168972.25,"y":2545553.4300000034}},{"attributes":{"ID":426352,"DIS_CODE":0,"TOWNNAME":"北區","LI":"六甲里","LIN":"4鄰","STREET":"公園路","SECT":" ","MAREA":" ","LANE":"５０９巷","ALLEY":" ","HOUSE_NO":"３３號三樓之２","E_COORD97":168972.25,"N_COORD97":2545553.4300000002,"ADDRESS":"公園路５０９巷３３號三樓之２","OBJECTID":426327},"geometry":{"x":168972.25,"y":2545553.4300000034}},{"attributes":{"ID":426353,"DIS_CODE":0,"TOWNNAME":"北區","LI":"六甲里","LIN":"4鄰","STREET":"公園路","SECT":" ","MAREA":" ","LANE":"５０９巷","ALLEY":" ","HOUSE_NO":"３３號三樓之３","E_COORD97":168972.25,"N_COORD97":2545553.4300000002,"ADDRESS":"公園路５０９巷３３號三樓之３","OBJECTID":426328},"geometry":{"x":168972.25,"y":2545553.4300000034}},{"attributes":{"ID":426354,"DIS_CODE":0,"TOWNNAME":"北區","LI":"六甲里","LIN":"4鄰","STREET":"公園路","SECT":" ","MAREA":" ","LANE":"５０９巷","ALLEY":" ","HOUSE_NO":"３３號三樓之４","E_COORD97":168972.25,"N_COORD97":2545553.4300000002,"ADDRESS":"公園路５０９巷３３號三樓之４","OBJECTID":426329},"geometry":{"x":168972.25,"y":2545553.4300000034}},{"attributes":{"ID":426355,"DIS_CODE":0,"TOWNNAME":"北區","LI":"六甲里","LIN":"4鄰","STREET":"公園路","SECT":" ","MAREA":" ","LANE":"５０９巷","ALLEY":" ","HOUSE_NO":"３３號三樓之５","E_COORD97":168972.25,"N_COORD97":2545553.4300000002,"ADDRESS":"公園路５０９巷３３號三樓之５","OBJECTID":426330},"geometry":{"x":168972.25,"y":2545553.4300000034}},{"attributes":{"ID":426356,"DIS_CODE":0,"TOWNNAME":"北區","LI":"六甲里","LIN":"4鄰","STREET":"公園路","SECT":" ","MAREA":" ","LANE":"５０９巷","ALLEY":" ","HOUSE_NO":"３３號三樓之６","E_COORD97":168972.25,"N_COORD97":2545553.4300000002,"ADDRESS":"公園路５０９巷３３號三樓之６","OBJECTID":426331},"geometry":{"x":168972.25,"y":2545553.4300000034}},{"attributes":{"ID":426357,"DIS_CODE":0,"TOWNNAME":"北區","LI":"六甲里","LIN":"4鄰","STREET":"公園路","SECT":" ","MAREA":" ","LANE":"５０９巷","ALLEY":" ","HOUSE_NO":"３３號三樓之７","E_COORD97":168972.25,"N_COORD97":2545553.4300000002,"ADDRESS":"公園路５０９巷３３號三樓之７","OBJECTID":426332},"geometry":{"x":168972.25,"y":2545553.4300000034}},{"attributes":{"ID":426358,"DIS_CODE":0,"TOWNNAME":"北區","LI":"六甲里","LIN":"4鄰","STREET":"公園路","SECT":" ","MAREA":" ","LANE":"５０９巷","ALLEY":" ","HOUSE_NO":"３３號四樓之１","E_COORD97":168972.25,"N_COORD97":2545553.4300000002,"ADDRESS":"公園路５０９巷３３號四樓之１","OBJECTID":426333},"geometry":{"x":168972.25,"y":2545553.4300000034}},{"attributes":{"ID":426359,"DIS_CODE":0,"TOWNNAME":"北區","LI":"六甲里","LIN":"4鄰","STREET":"公園路","SECT":" ","MAREA":" ","LANE":"５０９巷","ALLEY":" ","HOUSE_NO":"３３號四樓之２","E_COORD97":168972.25,"N_COORD97":2545553.4300000002,"ADDRESS":"公園路５０９巷３３號四樓之２","OBJECTID":426334},"geometry":{"x":168972.25,"y":2545553.4300000034}},{"attributes":{"ID":426360,"DIS_CODE":0,"TOWNNAME":"北區","LI":"六甲里","LIN":"4鄰","STREET":"公園路","SECT":" ","MAREA":" ","LANE":"５０９巷","ALLEY":" ","HOUSE_NO":"３３號四樓之３","E_COORD97":168972.25,"N_COORD97":2545553.4300000002,"ADDRESS":"公園路５０９巷３３號四樓之３","OBJECTID":426335},"geometry":{"x":168972.25,"y":2545553.4300000034}},{"attributes":{"ID":426361,"DIS_CODE":0,"TOWNNAME":"北區","LI":"六甲里","LIN":"4鄰","STREET":"公園路","SECT":" ","MAREA":" ","LANE":"５０９巷","ALLEY":" ","HOUSE_NO":"３３號四樓之５","E_COORD97":168972.25,"N_COORD97":2545553.4300000002,"ADDRESS":"公園路５０９巷３３號四樓之５","OBJECTID":426336},"geometry":{"x":168972.25,"y":2545553.4300000034}},{"attributes":{"ID":426362,"DIS_CODE":0,"TOWNNAME":"北區","LI":"六甲里","LIN":"4鄰","STREET":"公園路","SECT":" ","MAREA":" ","LANE":"５０９巷","ALLEY":" ","HOUSE_NO":"３３號四樓之６","E_COORD97":168972.25,"N_COORD97":2545553.4300000002,"ADDRESS":"公園路５０９巷３３號四樓之６","OBJECTID":426337},"geometry":{"x":168972.25,"y":2545553.4300000034}},{"attributes":{"ID":426363,"DIS_CODE":0,"TOWNNAME":"北區","LI":"六甲里","LIN":"4鄰","STREET":"公園路","SECT":" ","MAREA":" ","LANE":"５０９巷","ALLEY":" ","HOUSE_NO":"３３號四樓之７","E_COORD97":168972.25,"N_COORD97":2545553.4300000002,"ADDRESS":"公園路５０９巷３３號四樓之７","OBJECTID":426338},"geometry":{"x":168972.25,"y":2545553.4300000034}},{"attributes":{"ID":426364,"DIS_CODE":0,"TOWNNAME":"大內區","LI":"環湖里","LIN":"9鄰","STREET":" ","SECT":" ","MAREA":"環湖","LANE":" ","ALLEY":" ","HOUSE_NO":"１３２號","E_COORD97":188725.75815400001,"N_COORD97":2561451.1532600001,"ADDRESS":"環湖１３２號","OBJECTID":426339},"geometry":{"x":188725.75815400016,"y":2561451.1532569993}},{"attributes":{"ID":426365,"DIS_CODE":0,"TOWNNAME":"北區","LI":"六甲里","LIN":"4鄰","STREET":"公園路","SECT":" ","MAREA":" ","LANE":"５０９巷","ALLEY":" ","HOUSE_NO":"３３號五樓之１","E_COORD97":168972.25,"N_COORD97":2545553.4300000002,"ADDRESS":"公園路５０９巷３３號五樓之１","OBJECTID":426340},"geometry":{"x":168972.25,"y":2545553.4300000034}},{"attributes":{"ID":426366,"DIS_CODE":0,"TOWNNAME":"北區","LI":"六甲里","LIN":"4鄰","STREET":"公園路","SECT":" ","MAREA":" ","LANE":"５０９巷","ALLEY":" ","HOUSE_NO":"３３號五樓之２","E_COORD97":168972.25,"N_COORD97":2545553.4300000002,"ADDRESS":"公園路５０９巷３３號五樓之２","OBJECTID":426341},"geometry":{"x":168972.25,"y":2545553.4300000034}},{"attributes":{"ID":426367,"DIS_CODE":0,"TOWNNAME":"北區","LI":"六甲里","LIN":"4鄰","STREET":"公園路","SECT":" ","MAREA":" ","LANE":"５０９巷","ALLEY":" ","HOUSE_NO":"３３號五樓之３","E_COORD97":168972.25,"N_COORD97":2545553.4300000002,"ADDRESS":"公園路５０９巷３３號五樓之３","OBJECTID":426342},"geometry":{"x":168972.25,"y":2545553.4300000034}},{"attributes":{"ID":426368,"DIS_CODE":0,"TOWNNAME":"北區","LI":"六甲里","LIN":"4鄰","STREET":"公園路","SECT":" ","MAREA":" ","LANE":"５０９巷","ALLEY":" ","HOUSE_NO":"３３號五樓之４","E_COORD97":168972.25,"N_COORD97":2545553.4300000002,"ADDRESS":"公園路５０９巷３３號五樓之４","OBJECTID":426343},"geometry":{"x":168972.25,"y":2545553.4300000034}},{"attributes":{"ID":426369,"DIS_CODE":0,"TOWNNAME":"北區","LI":"六甲里","LIN":"4鄰","STREET":"公園路","SECT":" ","MAREA":" ","LANE":"５０９巷","ALLEY":" ","HOUSE_NO":"３３號五樓之５","E_COORD97":168972.25,"N_COORD97":2545553.4300000002,"ADDRESS":"公園路５０９巷３３號五樓之５","OBJECTID":426344},"geometry":{"x":168972.25,"y":2545553.4300000034}},{"attributes":{"ID":426370,"DIS_CODE":0,"TOWNNAME":"永康區","LI":"中興里","LIN":"26鄰","STREET":"中山東路","SECT":" ","MAREA":" ","LANE":"３８６巷","ALLEY":" ","HOUSE_NO":"５號","E_COORD97":171874.22,"N_COORD97":2545240.5299999998,"ADDRESS":"中山東路３８６巷５號","OBJECTID":426345},"geometry":{"x":171874.21999999974,"y":2545240.5300000031}},{"attributes":{"ID":426371,"DIS_CODE":0,"TOWNNAME":"永康區","LI":"三合里","LIN":"25鄰","STREET":"中山東路","SECT":" ","MAREA":" ","LANE":"１０５巷","ALLEY":" ","HOUSE_NO":"６號","E_COORD97":171788.23999999999,"N_COORD97":2545912.96,"ADDRESS":"中山東路１０５巷６號","OBJECTID":426346},"geometry":{"x":171788.24000000022,"y":2545912.9600000009}},{"attributes":{"ID":426372,"DIS_CODE":0,"TOWNNAME":"北區","LI":"六甲里","LIN":"4鄰","STREET":"公園路","SECT":" ","MAREA":" ","LANE":"５０９巷","ALLEY":" ","HOUSE_NO":"３３號五樓之６","E_COORD97":168972.25,"N_COORD97":2545553.4300000002,"ADDRESS":"公園路５０９巷３３號五樓之６","OBJECTID":426347},"geometry":{"x":168972.25,"y":2545553.4300000034}},{"attributes":{"ID":426373,"DIS_CODE":0,"TOWNNAME":"北區","LI":"六甲里","LIN":"4鄰","STREET":"公園路","SECT":" ","MAREA":" ","LANE":"５０９巷","ALLEY":" ","HOUSE_NO":"３３號六樓之１","E_COORD97":168972.25,"N_COORD97":2545553.4300000002,"ADDRESS":"公園路５０９巷３３號六樓之１","OBJECTID":426348},"geometry":{"x":168972.25,"y":2545553.4300000034}},{"attributes":{"ID":426374,"DIS_CODE":0,"TOWNNAME":"北區","LI":"六甲里","LIN":"4鄰","STREET":"公園路","SECT":" ","MAREA":" ","LANE":"５０９巷","ALLEY":" ","HOUSE_NO":"３３號六樓之２","E_COORD97":168972.25,"N_COORD97":2545553.4300000002,"ADDRESS":"公園路５０９巷３３號六樓之２","OBJECTID":426349},"geometry":{"x":168972.25,"y":2545553.4300000034}},{"attributes":{"ID":426375,"DIS_CODE":0,"TOWNNAME":"北區","LI":"六甲里","LIN":"4鄰","STREET":"公園路","SECT":" ","MAREA":" ","LANE":"５０９巷","ALLEY":" ","HOUSE_NO":"３３號六樓之３","E_COORD97":168972.25,"N_COORD97":2545553.4300000002,"ADDRESS":"公園路５０９巷３３號六樓之３","OBJECTID":426350},"geometry":{"x":168972.25,"y":2545553.4300000034}},{"attributes":{"ID":426376,"DIS_CODE":0,"TOWNNAME":"北區","LI":"六甲里","LIN":"4鄰","STREET":"公園路","SECT":" ","MAREA":" ","LANE":"５０９巷","ALLEY":" ","HOUSE_NO":"３３號六樓之４","E_COORD97":168972.25,"N_COORD97":2545553.4300000002,"ADDRESS":"公園路５０９巷３３號六樓之４","OBJECTID":426351},"geometry":{"x":168972.25,"y":2545553.4300000034}},{"attributes":{"ID":426377,"DIS_CODE":0,"TOWNNAME":"北區","LI":"六甲里","LIN":"4鄰","STREET":"公園路","SECT":" ","MAREA":" ","LANE":"５０９巷","ALLEY":" ","HOUSE_NO":"３３號六樓之５","E_COORD97":168972.25,"N_COORD97":2545553.4300000002,"ADDRESS":"公園路５０９巷３３號六樓之５","OBJECTID":426352},"geometry":{"x":168972.25,"y":2545553.4300000034}},{"attributes":{"ID":426378,"DIS_CODE":0,"TOWNNAME":"北區","LI":"六甲里","LIN":"4鄰","STREET":"公園路","SECT":" ","MAREA":" ","LANE":"５０９巷","ALLEY":" ","HOUSE_NO":"３３號六樓之６","E_COORD97":168972.25,"N_COORD97":2545553.4300000002,"ADDRESS":"公園路５０９巷３３號六樓之６","OBJECTID":426353},"geometry":{"x":168972.25,"y":2545553.4300000034}},{"attributes":{"ID":426379,"DIS_CODE":0,"TOWNNAME":"東區","LI":"龍山里","LIN":"4鄰","STREET":"德光街","SECT":" ","MAREA":" ","LANE":"１５巷","ALLEY":" ","HOUSE_NO":"２７號五樓","E_COORD97":170603.54999999999,"N_COORD97":2542625.7400000002,"ADDRESS":"德光街１５巷２７號五樓","OBJECTID":426354},"geometry":{"x":170603.55000000075,"y":2542625.7400000002}},{"attributes":{"ID":426380,"DIS_CODE":0,"TOWNNAME":"東區","LI":"龍山里","LIN":"4鄰","STREET":"德光街","SECT":" ","MAREA":" ","LANE":"１５巷","ALLEY":" ","HOUSE_NO":"２７號五樓之１","E_COORD97":170603.54999999999,"N_COORD97":2542625.7400000002,"ADDRESS":"德光街１５巷２７號五樓之１","OBJECTID":426355},"geometry":{"x":170603.55000000075,"y":2542625.7400000002}},{"attributes":{"ID":426381,"DIS_CODE":0,"TOWNNAME":"東區","LI":"龍山里","LIN":"4鄰","STREET":"德光街","SECT":" ","MAREA":" ","LANE":"１５巷","ALLEY":" ","HOUSE_NO":"２７號六樓","E_COORD97":170603.54999999999,"N_COORD97":2542625.7400000002,"ADDRESS":"德光街１５巷２７號六樓","OBJECTID":426356},"geometry":{"x":170603.55000000075,"y":2542625.7400000002}},{"attributes":{"ID":426382,"DIS_CODE":0,"TOWNNAME":"東區","LI":"龍山里","LIN":"4鄰","STREET":"德光街","SECT":" ","MAREA":" ","LANE":"１５巷","ALLEY":" ","HOUSE_NO":"２７號六樓之１","E_COORD97":170603.54999999999,"N_COORD97":2542625.7400000002,"ADDRESS":"德光街１５巷２７號六樓之１","OBJECTID":426357},"geometry":{"x":170603.55000000075,"y":2542625.7400000002}},{"attributes":{"ID":426383,"DIS_CODE":0,"TOWNNAME":"東區","LI":"龍山里","LIN":"4鄰","STREET":"德光街","SECT":" ","MAREA":" ","LANE":"１５巷","ALLEY":" ","HOUSE_NO":"２７號六樓之２","E_COORD97":170603.54999999999,"N_COORD97":2542625.7400000002,"ADDRESS":"德光街１５巷２７號六樓之２","OBJECTID":426358},"geometry":{"x":170603.55000000075,"y":2542625.7400000002}},{"attributes":{"ID":426384,"DIS_CODE":0,"TOWNNAME":"東區","LI":"龍山里","LIN":"4鄰","STREET":"德光街","SECT":" ","MAREA":" ","LANE":"１５巷","ALLEY":" ","HOUSE_NO":"２７號四樓","E_COORD97":170603.54999999999,"N_COORD97":2542625.7400000002,"ADDRESS":"德光街１５巷２７號四樓","OBJECTID":426359},"geometry":{"x":170603.55000000075,"y":2542625.7400000002}},{"attributes":{"ID":426385,"DIS_CODE":0,"TOWNNAME":"東區","LI":"龍山里","LIN":"4鄰","STREET":"德光街","SECT":" ","MAREA":" ","LANE":"１５巷","ALLEY":" ","HOUSE_NO":"２７號四樓之１","E_COORD97":170603.54999999999,"N_COORD97":2542625.7400000002,"ADDRESS":"德光街１５巷２７號四樓之１","OBJECTID":426360},"geometry":{"x":170603.55000000075,"y":2542625.7400000002}},{"attributes":{"ID":426386,"DIS_CODE":0,"TOWNNAME":"東區","LI":"龍山里","LIN":"4鄰","STREET":"德光街","SECT":" ","MAREA":" ","LANE":"１５巷","ALLEY":" ","HOUSE_NO":"２７號四樓之２","E_COORD97":170603.54999999999,"N_COORD97":2542625.7400000002,"ADDRESS":"德光街１５巷２７號四樓之２","OBJECTID":426361},"geometry":{"x":170603.55000000075,"y":2542625.7400000002}},{"attributes":{"ID":426387,"DIS_CODE":0,"TOWNNAME":"東區","LI":"龍山里","LIN":"4鄰","STREET":"德光街","SECT":" ","MAREA":" ","LANE":"１５巷","ALLEY":" ","HOUSE_NO":"２７號四樓之３","E_COORD97":170603.54999999999,"N_COORD97":2542625.7400000002,"ADDRESS":"德光街１５巷２７號四樓之３","OBJECTID":426362},"geometry":{"x":170603.55000000075,"y":2542625.7400000002}},{"attributes":{"ID":426388,"DIS_CODE":0,"TOWNNAME":"東區","LI":"龍山里","LIN":"4鄰","STREET":"德光街","SECT":" ","MAREA":" ","LANE":"１５巷","ALLEY":" ","HOUSE_NO":"２７號四樓之５","E_COORD97":170603.54999999999,"N_COORD97":2542625.7400000002,"ADDRESS":"德光街１５巷２７號四樓之５","OBJECTID":426363},"geometry":{"x":170603.55000000075,"y":2542625.7400000002}},{"attributes":{"ID":426389,"DIS_CODE":0,"TOWNNAME":"東區","LI":"龍山里","LIN":"4鄰","STREET":"德光街","SECT":" ","MAREA":" ","LANE":"１５巷","ALLEY":" ","HOUSE_NO":"２９號七樓","E_COORD97":170612.48000000001,"N_COORD97":2542619.6299999999,"ADDRESS":"德光街１５巷２９號七樓","OBJECTID":426364},"geometry":{"x":170612.47999999952,"y":2542619.6300000008}},{"attributes":{"ID":426390,"DIS_CODE":0,"TOWNNAME":"東區","LI":"龍山里","LIN":"4鄰","STREET":"德光街","SECT":" ","MAREA":" ","LANE":"１５巷","ALLEY":" ","HOUSE_NO":"２９號二樓","E_COORD97":170612.48000000001,"N_COORD97":2542619.6299999999,"ADDRESS":"德光街１５巷２９號二樓","OBJECTID":426365},"geometry":{"x":170612.47999999952,"y":2542619.6300000008}},{"attributes":{"ID":426391,"DIS_CODE":0,"TOWNNAME":"東區","LI":"龍山里","LIN":"4鄰","STREET":"德光街","SECT":" ","MAREA":" ","LANE":"１５巷","ALLEY":" ","HOUSE_NO":"２９號三樓","E_COORD97":170612.48000000001,"N_COORD97":2542619.6299999999,"ADDRESS":"德光街１５巷２９號三樓","OBJECTID":426366},"geometry":{"x":170612.47999999952,"y":2542619.6300000008}},{"attributes":{"ID":426392,"DIS_CODE":0,"TOWNNAME":"東區","LI":"龍山里","LIN":"4鄰","STREET":"德光街","SECT":" ","MAREA":" ","LANE":"１５巷","ALLEY":" ","HOUSE_NO":"２９號五樓","E_COORD97":170612.48000000001,"N_COORD97":2542619.6299999999,"ADDRESS":"德光街１５巷２９號五樓","OBJECTID":426367},"geometry":{"x":170612.47999999952,"y":2542619.6300000008}},{"attributes":{"ID":426393,"DIS_CODE":0,"TOWNNAME":"東區","LI":"龍山里","LIN":"4鄰","STREET":"德光街","SECT":" ","MAREA":" ","LANE":"１５巷","ALLEY":" ","HOUSE_NO":"２９號六樓","E_COORD97":170612.48000000001,"N_COORD97":2542619.6299999999,"ADDRESS":"德光街１５巷２９號六樓","OBJECTID":426368},"geometry":{"x":170612.47999999952,"y":2542619.6300000008}},{"attributes":{"ID":426394,"DIS_CODE":0,"TOWNNAME":"東區","LI":"龍山里","LIN":"4鄰","STREET":"德光街","SECT":" ","MAREA":" ","LANE":"１５巷","ALLEY":" ","HOUSE_NO":"２９號四樓","E_COORD97":170612.48000000001,"N_COORD97":2542619.6299999999,"ADDRESS":"德光街１５巷２９號四樓","OBJECTID":426369},"geometry":{"x":170612.47999999952,"y":2542619.6300000008}},{"attributes":{"ID":426395,"DIS_CODE":0,"TOWNNAME":"七股區","LI":"樹林里","LIN":"6鄰","STREET":" ","SECT":" ","MAREA":"樹林","LANE":" ","ALLEY":" ","HOUSE_NO":"５８號之９","E_COORD97":163826.75821500001,"N_COORD97":2557103.9364999998,"ADDRESS":"樹林５８號之９","OBJECTID":426370},"geometry":{"x":163826.75821500085,"y":2557103.9365030024}},{"attributes":{"ID":426396,"DIS_CODE":0,"TOWNNAME":"東區","LI":"龍山里","LIN":"4鄰","STREET":"德光街","SECT":" ","MAREA":" ","LANE":"１５巷","ALLEY":" ","HOUSE_NO":"３１號七樓","E_COORD97":170621.32000000001,"N_COORD97":2542614.27,"ADDRESS":"德光街１５巷３１號七樓","OBJECTID":426371},"geometry":{"x":170621.3200000003,"y":2542614.2699999996}},{"attributes":{"ID":426397,"DIS_CODE":0,"TOWNNAME":"東區","LI":"龍山里","LIN":"4鄰","STREET":"德光街","SECT":" ","MAREA":" ","LANE":"１５巷","ALLEY":" ","HOUSE_NO":"３１號二樓","E_COORD97":170621.32000000001,"N_COORD97":2542614.27,"ADDRESS":"德光街１５巷３１號二樓","OBJECTID":426372},"geometry":{"x":170621.3200000003,"y":2542614.2699999996}},{"attributes":{"ID":426398,"DIS_CODE":0,"TOWNNAME":"東區","LI":"龍山里","LIN":"4鄰","STREET":"德光街","SECT":" ","MAREA":" ","LANE":"１５巷","ALLEY":" ","HOUSE_NO":"３１號三樓","E_COORD97":170621.32000000001,"N_COORD97":2542614.27,"ADDRESS":"德光街１５巷３１號三樓","OBJECTID":426373},"geometry":{"x":170621.3200000003,"y":2542614.2699999996}},{"attributes":{"ID":426399,"DIS_CODE":0,"TOWNNAME":"東區","LI":"龍山里","LIN":"4鄰","STREET":"德光街","SECT":" ","MAREA":" ","LANE":"１５巷","ALLEY":" ","HOUSE_NO":"３１號五樓","E_COORD97":170621.32000000001,"N_COORD97":2542614.27,"ADDRESS":"德光街１５巷３１號五樓","OBJECTID":426374},"geometry":{"x":170621.3200000003,"y":2542614.2699999996}},{"attributes":{"ID":426400,"DIS_CODE":0,"TOWNNAME":"東區","LI":"龍山里","LIN":"4鄰","STREET":"德光街","SECT":" ","MAREA":" ","LANE":"１５巷","ALLEY":" ","HOUSE_NO":"３１號六樓","E_COORD97":170621.32000000001,"N_COORD97":2542614.27,"ADDRESS":"德光街１５巷３１號六樓","OBJECTID":426375},"geometry":{"x":170621.3200000003,"y":2542614.2699999996}},{"attributes":{"ID":426401,"DIS_CODE":0,"TOWNNAME":"東區","LI":"龍山里","LIN":"4鄰","STREET":"德光街","SECT":" ","MAREA":" ","LANE":"１５巷","ALLEY":" ","HOUSE_NO":"３１號四樓","E_COORD97":170621.32000000001,"N_COORD97":2542614.27,"ADDRESS":"德光街１５巷３１號四樓","OBJECTID":426376},"geometry":{"x":170621.3200000003,"y":2542614.2699999996}},{"attributes":{"ID":426402,"DIS_CODE":0,"TOWNNAME":"東區","LI":"龍山里","LIN":"4鄰","STREET":"德光街","SECT":" ","MAREA":" ","LANE":"１５巷","ALLEY":" ","HOUSE_NO":"３３號七樓","E_COORD97":170610.79000000001,"N_COORD97":2542599.98,"ADDRESS":"德光街１５巷３３號七樓","OBJECTID":426377},"geometry":{"x":170610.79000000097,"y":2542599.9800000004}},{"attributes":{"ID":426403,"DIS_CODE":0,"TOWNNAME":"永康區","LI":"中興里","LIN":"26鄰","STREET":"中山東路","SECT":" ","MAREA":" ","LANE":"３８６巷","ALLEY":" ","HOUSE_NO":"１３號","E_COORD97":171856.95000000001,"N_COORD97":2545240.0299999998,"ADDRESS":"中山東路３８６巷１３號","OBJECTID":426378},"geometry":{"x":171856.95000000112,"y":2545240.0299999993}},{"attributes":{"ID":426404,"DIS_CODE":0,"TOWNNAME":"永康區","LI":"大橋里","LIN":"24鄰","STREET":"大橋一街","SECT":" ","MAREA":" ","LANE":"２４７巷","ALLEY":" ","HOUSE_NO":"５１號","E_COORD97":171213.87,"N_COORD97":2546771.1699999999,"ADDRESS":"大橋一街２４７巷５１號","OBJECTID":426379},"geometry":{"x":171213.87000000104,"y":2546771.1699999999}},{"attributes":{"ID":426405,"DIS_CODE":0,"TOWNNAME":"東區","LI":"龍山里","LIN":"4鄰","STREET":"德光街","SECT":" ","MAREA":" ","LANE":"１５巷","ALLEY":" ","HOUSE_NO":"３３號二樓","E_COORD97":170610.79000000001,"N_COORD97":2542599.98,"ADDRESS":"德光街１５巷３３號二樓","OBJECTID":426380},"geometry":{"x":170610.79000000097,"y":2542599.9800000004}},{"attributes":{"ID":426406,"DIS_CODE":0,"TOWNNAME":"東區","LI":"龍山里","LIN":"4鄰","STREET":"德光街","SECT":" ","MAREA":" ","LANE":"１５巷","ALLEY":" ","HOUSE_NO":"３３號三樓","E_COORD97":170610.79000000001,"N_COORD97":2542599.98,"ADDRESS":"德光街１５巷３３號三樓","OBJECTID":426381},"geometry":{"x":170610.79000000097,"y":2542599.9800000004}},{"attributes":{"ID":426407,"DIS_CODE":0,"TOWNNAME":"東區","LI":"龍山里","LIN":"4鄰","STREET":"德光街","SECT":" ","MAREA":" ","LANE":"１５巷","ALLEY":" ","HOUSE_NO":"３３號五樓","E_COORD97":170610.79000000001,"N_COORD97":2542599.98,"ADDRESS":"德光街１５巷３３號五樓","OBJECTID":426382},"geometry":{"x":170610.79000000097,"y":2542599.9800000004}},{"attributes":{"ID":426408,"DIS_CODE":0,"TOWNNAME":"東區","LI":"龍山里","LIN":"4鄰","STREET":"德光街","SECT":" ","MAREA":" ","LANE":"１５巷","ALLEY":" ","HOUSE_NO":"３３號六樓","E_COORD97":170610.79000000001,"N_COORD97":2542599.98,"ADDRESS":"德光街１５巷３３號六樓","OBJECTID":426383},"geometry":{"x":170610.79000000097,"y":2542599.9800000004}},{"attributes":{"ID":426409,"DIS_CODE":0,"TOWNNAME":"東區","LI":"龍山里","LIN":"4鄰","STREET":"德光街","SECT":" ","MAREA":" ","LANE":"１５巷","ALLEY":" ","HOUSE_NO":"３３號四樓","E_COORD97":170610.79000000001,"N_COORD97":2542599.98,"ADDRESS":"德光街１５巷３３號四樓","OBJECTID":426384},"geometry":{"x":170610.79000000097,"y":2542599.9800000004}},{"attributes":{"ID":426410,"DIS_CODE":0,"TOWNNAME":"東區","LI":"龍山里","LIN":"4鄰","STREET":"德光街","SECT":" ","MAREA":" ","LANE":"１５巷","ALLEY":" ","HOUSE_NO":"３５號二樓","E_COORD97":170602.98000000001,"N_COORD97":2542604.5,"ADDRESS":"德光街１５巷３５號二樓","OBJECTID":426385},"geometry":{"x":170602.98000000138,"y":2542604.5000000019}},{"attributes":{"ID":426411,"DIS_CODE":0,"TOWNNAME":"東區","LI":"龍山里","LIN":"4鄰","STREET":"德光街","SECT":" ","MAREA":" ","LANE":"１５巷","ALLEY":" ","HOUSE_NO":"３５號八樓","E_COORD97":170602.98000000001,"N_COORD97":2542604.5,"ADDRESS":"德光街１５巷３５號八樓","OBJECTID":426386},"geometry":{"x":170602.98000000138,"y":2542604.5000000019}},{"attributes":{"ID":426412,"DIS_CODE":0,"TOWNNAME":"東區","LI":"龍山里","LIN":"4鄰","STREET":"德光街","SECT":" ","MAREA":" ","LANE":"１５巷","ALLEY":" ","HOUSE_NO":"３５號五樓","E_COORD97":170602.98000000001,"N_COORD97":2542604.5,"ADDRESS":"德光街１５巷３５號五樓","OBJECTID":426387},"geometry":{"x":170602.98000000138,"y":2542604.5000000019}},{"attributes":{"ID":426413,"DIS_CODE":0,"TOWNNAME":"東區","LI":"龍山里","LIN":"4鄰","STREET":"德光街","SECT":" ","MAREA":" ","LANE":"１５巷","ALLEY":" ","HOUSE_NO":"３５號六樓","E_COORD97":170602.98000000001,"N_COORD97":2542604.5,"ADDRESS":"德光街１５巷３５號六樓","OBJECTID":426388},"geometry":{"x":170602.98000000138,"y":2542604.5000000019}},{"attributes":{"ID":426414,"DIS_CODE":0,"TOWNNAME":"東區","LI":"龍山里","LIN":"4鄰","STREET":"德光街","SECT":" ","MAREA":" ","LANE":"１５巷","ALLEY":" ","HOUSE_NO":"３５號六樓之１","E_COORD97":170602.98000000001,"N_COORD97":2542604.5,"ADDRESS":"德光街１５巷３５號六樓之１","OBJECTID":426389},"geometry":{"x":170602.98000000138,"y":2542604.5000000019}},{"attributes":{"ID":426415,"DIS_CODE":0,"TOWNNAME":"東區","LI":"龍山里","LIN":"4鄰","STREET":"德光街","SECT":" ","MAREA":" ","LANE":"１５巷","ALLEY":" ","HOUSE_NO":"３５號四樓","E_COORD97":170602.98000000001,"N_COORD97":2542604.5,"ADDRESS":"德光街１５巷３５號四樓","OBJECTID":426390},"geometry":{"x":170602.98000000138,"y":2542604.5000000019}},{"attributes":{"ID":426416,"DIS_CODE":0,"TOWNNAME":"東區","LI":"龍山里","LIN":"4鄰","STREET":"德光街","SECT":" ","MAREA":" ","LANE":"１５巷","ALLEY":" ","HOUSE_NO":"３９號七樓之１","E_COORD97":170599.5,"N_COORD97":2542582.6899999999,"ADDRESS":"德光街１５巷３９號七樓之１","OBJECTID":426391},"geometry":{"x":170599.5,"y":2542582.6900000013}},{"attributes":{"ID":426417,"DIS_CODE":0,"TOWNNAME":"東區","LI":"龍山里","LIN":"4鄰","STREET":"德光街","SECT":" ","MAREA":" ","LANE":"１５巷","ALLEY":" ","HOUSE_NO":"３９號二樓","E_COORD97":170599.5,"N_COORD97":2542582.6899999999,"ADDRESS":"德光街１５巷３９號二樓","OBJECTID":426392},"geometry":{"x":170599.5,"y":2542582.6900000013}},{"attributes":{"ID":426418,"DIS_CODE":0,"TOWNNAME":"東區","LI":"龍山里","LIN":"4鄰","STREET":"德光街","SECT":" ","MAREA":" ","LANE":"１５巷","ALLEY":" ","HOUSE_NO":"３９號二樓之１","E_COORD97":170599.5,"N_COORD97":2542582.6899999999,"ADDRESS":"德光街１５巷３９號二樓之１","OBJECTID":426393},"geometry":{"x":170599.5,"y":2542582.6900000013}},{"attributes":{"ID":426419,"DIS_CODE":0,"TOWNNAME":"永康區","LI":"三合里","LIN":"24鄰","STREET":"南工街","SECT":" ","MAREA":" ","LANE":"２６７巷","ALLEY":" ","HOUSE_NO":"６８號","E_COORD97":171847.76000000001,"N_COORD97":2545837.2400000002,"ADDRESS":"南工街２６７巷６８號","OBJECTID":426394},"geometry":{"x":171847.76000000071,"y":2545837.2400000021}},{"attributes":{"ID":426420,"DIS_CODE":0,"TOWNNAME":"永康區","LI":"大橋里","LIN":"18鄰","STREET":"大橋二街","SECT":" ","MAREA":" ","LANE":"１４８巷","ALLEY":" ","HOUSE_NO":"６號之１","E_COORD97":171039.48999999999,"N_COORD97":2546691.7000000002,"ADDRESS":"大橋二街１４８巷６號之１","OBJECTID":426395},"geometry":{"x":171039.49000000209,"y":2546691.7000000011}},{"attributes":{"ID":426421,"DIS_CODE":0,"TOWNNAME":"永康區","LI":"二王里","LIN":"39鄰","STREET":"中山南路","SECT":" ","MAREA":" ","LANE":"３１６巷","ALLEY":" ","HOUSE_NO":"５１號","E_COORD97":171945.95999999999,"N_COORD97":2546224.04,"ADDRESS":"中山南路３１６巷５１號","OBJECTID":426396},"geometry":{"x":171945.95999999996,"y":2546224.040000001}},{"attributes":{"ID":426422,"DIS_CODE":0,"TOWNNAME":"永康區","LI":"二王里","LIN":"43鄰","STREET":"中山南路","SECT":" ","MAREA":" ","LANE":"３１６巷","ALLEY":" ","HOUSE_NO":"８０號","E_COORD97":172162.76999999999,"N_COORD97":2546130.3199999998,"ADDRESS":"中山南路３１６巷８０號","OBJECTID":426397},"geometry":{"x":172162.77000000048,"y":2546130.3200000003}},{"attributes":{"ID":426423,"DIS_CODE":0,"TOWNNAME":"中西區","LI":"元安里","LIN":"4鄰","STREET":"西門路","SECT":"一段","MAREA":" ","LANE":"７１５巷","ALLEY":" ","HOUSE_NO":"２３號四樓之２","E_COORD97":167677.79999999999,"N_COORD97":2543259.8100000001,"ADDRESS":"西門路一段７１５巷２３號四樓之２","OBJECTID":426398},"geometry":{"x":167677.80000000075,"y":2543259.8100000042}},{"attributes":{"ID":426424,"DIS_CODE":0,"TOWNNAME":"中西區","LI":"元安里","LIN":"4鄰","STREET":"西門路","SECT":"一段","MAREA":" ","LANE":"７４３巷","ALLEY":" ","HOUSE_NO":"１７號三樓","E_COORD97":167658.98999999999,"N_COORD97":2543306.2000000002,"ADDRESS":"西門路一段７４３巷１７號三樓","OBJECTID":426399},"geometry":{"x":167658.99000000022,"y":2543306.1999999993}},{"attributes":{"ID":426425,"DIS_CODE":0,"TOWNNAME":"南區","LI":"明亮里","LIN":"4鄰","STREET":"新都路","SECT":" ","MAREA":" ","LANE":"５２０巷","ALLEY":" ","HOUSE_NO":"２９號五樓","E_COORD97":167083.01000000001,"N_COORD97":2540954.9199999999,"ADDRESS":"新都路５２０巷２９號五樓","OBJECTID":426400},"geometry":{"x":167083.01000000071,"y":2540954.9199999999}}]}