{"displayFieldName":"TOWNNAME","fieldAliases":{"ID":"ID","DIS_CODE":"DIS_CODE","TOWNNAME":"TOWNNAME","LI":"LI","LIN":"LIN","STREET":"STREET","SECT":"SECT","MAREA":"MAREA","LANE":"LANE","ALLEY":"ALLEY","HOUSE_NO":"HOUSE_NO","E_COORD97":"E_COORD97","N_COORD97":"N_COORD97","ADDRESS":"ADDRESS","OBJECTID":"OBJECTID"},"geometryType":"esriGeometryPoint","spatialReference":{"wkid":102443,"latestWkid":3826},"fields":[{"name":"ID","type":"esriFieldTypeDouble","alias":"ID"},{"name":"DIS_CODE","type":"esriFieldTypeInteger","alias":"DIS_CODE"},{"name":"TOWNNAME","type":"esriFieldTypeString","alias":"TOWNNAME","length":8},{"name":"LI","type":"esriFieldTypeString","alias":"LI","length":8},{"name":"LIN","type":"esriFieldTypeString","alias":"LIN","length":12},{"name":"STREET","type":"esriFieldTypeString","alias":"STREET","length":20},{"name":"SECT","type":"esriFieldTypeString","alias":"SECT","length":8},{"name":"MAREA","type":"esriFieldTypeString","alias":"MAREA","length":12},{"name":"LANE","type":"esriFieldTypeString","alias":"LANE","length":10},{"name":"ALLEY","type":"esriFieldTypeString","alias":"ALLEY","length":10},{"name":"HOUSE_NO","type":"esriFieldTypeString","alias":"HOUSE_NO","length":20},{"name":"E_COORD97","type":"esriFieldTypeDouble","alias":"E_COORD97"},{"name":"N_COORD97","type":"esriFieldTypeDouble","alias":"N_COORD97"},{"name":"ADDRESS","type":"esriFieldTypeString","alias":"ADDRESS","length":50},{"name":"OBJECTID","type":"esriFieldTypeOID","alias":"OBJECTID"}],"features":[{"attributes":{"ID":319209,"DIS_CODE":0,"TOWNNAME":"東區","LI":"崇善里","LIN":"17鄰","STREET":"崇善路","SECT":" ","MAREA":" ","LANE":" ","ALLEY":" ","HOUSE_NO":"８０５號四樓","E_COORD97":171248.20999999999,"N_COORD97":2540941.4300000002,"ADDRESS":"崇善路８０５號四樓","OBJECTID":319201},"geometry":{"x":171248.21000000089,"y":2540941.4299999997}},{"attributes":{"ID":319210,"DIS_CODE":0,"TOWNNAME":"東區","LI":"崇善里","LIN":"17鄰","STREET":"崇善路","SECT":" ","MAREA":" ","LANE":" ","ALLEY":" ","HOUSE_NO":"８０７號七樓","E_COORD97":171248.20999999999,"N_COORD97":2540926.5099999998,"ADDRESS":"崇善路８０７號七樓","OBJECTID":319202},"geometry":{"x":171248.21000000089,"y":2540926.5100000016}},{"attributes":{"ID":319211,"DIS_CODE":0,"TOWNNAME":"東區","LI":"崇善里","LIN":"17鄰","STREET":"崇善路","SECT":" ","MAREA":" ","LANE":" ","ALLEY":" ","HOUSE_NO":"８０７號二樓","E_COORD97":171248.20999999999,"N_COORD97":2540926.5099999998,"ADDRESS":"崇善路８０７號二樓","OBJECTID":319203},"geometry":{"x":171248.21000000089,"y":2540926.5100000016}},{"attributes":{"ID":319212,"DIS_CODE":0,"TOWNNAME":"東區","LI":"崇善里","LIN":"17鄰","STREET":"崇善路","SECT":" ","MAREA":" ","LANE":" ","ALLEY":" ","HOUSE_NO":"８０７號三樓","E_COORD97":171248.20999999999,"N_COORD97":2540926.5099999998,"ADDRESS":"崇善路８０７號三樓","OBJECTID":319204},"geometry":{"x":171248.21000000089,"y":2540926.5100000016}},{"attributes":{"ID":319213,"DIS_CODE":0,"TOWNNAME":"東區","LI":"崇善里","LIN":"17鄰","STREET":"崇善路","SECT":" ","MAREA":" ","LANE":" ","ALLEY":" ","HOUSE_NO":"８０７號五樓","E_COORD97":171248.20999999999,"N_COORD97":2540926.5099999998,"ADDRESS":"崇善路８０７號五樓","OBJECTID":319205},"geometry":{"x":171248.21000000089,"y":2540926.5100000016}},{"attributes":{"ID":319214,"DIS_CODE":0,"TOWNNAME":"東區","LI":"崇善里","LIN":"17鄰","STREET":"崇善路","SECT":" ","MAREA":" ","LANE":" ","ALLEY":" ","HOUSE_NO":"８０７號六樓","E_COORD97":171248.20999999999,"N_COORD97":2540926.5099999998,"ADDRESS":"崇善路８０７號六樓","OBJECTID":319206},"geometry":{"x":171248.21000000089,"y":2540926.5100000016}},{"attributes":{"ID":319215,"DIS_CODE":0,"TOWNNAME":"東區","LI":"崇善里","LIN":"17鄰","STREET":"崇善路","SECT":" ","MAREA":" ","LANE":" ","ALLEY":" ","HOUSE_NO":"８０７號四樓","E_COORD97":171248.20999999999,"N_COORD97":2540926.5099999998,"ADDRESS":"崇善路８０７號四樓","OBJECTID":319207},"geometry":{"x":171248.21000000089,"y":2540926.5100000016}},{"attributes":{"ID":319216,"DIS_CODE":0,"TOWNNAME":"北區","LI":"文元里","LIN":"26鄰","STREET":"文賢二街","SECT":" ","MAREA":" ","LANE":"４０２巷","ALLEY":" ","HOUSE_NO":"２號","E_COORD97":167696.04000000001,"N_COORD97":2546069.5899999999,"ADDRESS":"文賢二街４０２巷２號","OBJECTID":319208},"geometry":{"x":167696.0400000019,"y":2546069.5899999999}},{"attributes":{"ID":319217,"DIS_CODE":0,"TOWNNAME":"北區","LI":"文元里","LIN":"14鄰","STREET":"文賢路","SECT":" ","MAREA":" ","LANE":"１０８０巷","ALLEY":" ","HOUSE_NO":"２號","E_COORD97":167375.57999999999,"N_COORD97":2546188.0099999998,"ADDRESS":"文賢路１０８０巷２號","OBJECTID":319209},"geometry":{"x":167375.58000000101,"y":2546188.0100000016}},{"attributes":{"ID":319218,"DIS_CODE":0,"TOWNNAME":"北區","LI":"文元里","LIN":"14鄰","STREET":"文賢路","SECT":" ","MAREA":" ","LANE":"１０８０巷","ALLEY":" ","HOUSE_NO":"４號","E_COORD97":167380.78,"N_COORD97":2546186.2799999998,"ADDRESS":"文賢路１０８０巷４號","OBJECTID":319210},"geometry":{"x":167380.78000000026,"y":2546186.2800000012}},{"attributes":{"ID":319219,"DIS_CODE":0,"TOWNNAME":"北區","LI":"文元里","LIN":"14鄰","STREET":"文賢路","SECT":" ","MAREA":" ","LANE":"１０８０巷","ALLEY":" ","HOUSE_NO":"６號","E_COORD97":167385.98999999999,"N_COORD97":2546188.7799999998,"ADDRESS":"文賢路１０８０巷６號","OBJECTID":319211},"geometry":{"x":167385.99000000022,"y":2546188.7800000012}},{"attributes":{"ID":319220,"DIS_CODE":0,"TOWNNAME":"北區","LI":"文元里","LIN":"3鄰","STREET":"文賢路","SECT":" ","MAREA":" ","LANE":"１１２２巷","ALLEY":" ","HOUSE_NO":"１４６號","E_COORD97":167686.60999999999,"N_COORD97":2546352.79,"ADDRESS":"文賢路１１２２巷１４６號","OBJECTID":319212},"geometry":{"x":167686.61000000034,"y":2546352.7899999991}},{"attributes":{"ID":319221,"DIS_CODE":0,"TOWNNAME":"北區","LI":"文元里","LIN":"3鄰","STREET":"文賢路","SECT":" ","MAREA":" ","LANE":"１１２２巷","ALLEY":" ","HOUSE_NO":"１４８號","E_COORD97":167691.53,"N_COORD97":2546351.04,"ADDRESS":"文賢路１１２２巷１４８號","OBJECTID":319213},"geometry":{"x":167691.53000000119,"y":2546351.0399999991}},{"attributes":{"ID":319222,"DIS_CODE":0,"TOWNNAME":"北區","LI":"文元里","LIN":"3鄰","STREET":"文賢路","SECT":" ","MAREA":" ","LANE":"１１２２巷","ALLEY":" ","HOUSE_NO":"１５０號","E_COORD97":167695.39999999999,"N_COORD97":2546354.02,"ADDRESS":"文賢路１１２２巷１５０號","OBJECTID":319214},"geometry":{"x":167695.40000000037,"y":2546354.0200000014}},{"attributes":{"ID":319223,"DIS_CODE":0,"TOWNNAME":"佳里區","LI":"鎮山里","LIN":"15鄰","STREET":"仁愛路","SECT":" ","MAREA":" ","LANE":"２５７巷","ALLEY":" ","HOUSE_NO":"６號","E_COORD97":166124.19,"N_COORD97":2561410.7200000002,"ADDRESS":"仁愛路２５７巷６號","OBJECTID":319215},"geometry":{"x":166124.19000000134,"y":2561410.7200000025}},{"attributes":{"ID":319224,"DIS_CODE":0,"TOWNNAME":"北區","LI":"文元里","LIN":"3鄰","STREET":"文賢路","SECT":" ","MAREA":" ","LANE":"１１２２巷","ALLEY":" ","HOUSE_NO":"１５２號","E_COORD97":167701.37,"N_COORD97":2546352.4300000002,"ADDRESS":"文賢路１１２２巷１５２號","OBJECTID":319216},"geometry":{"x":167701.37000000104,"y":2546352.4299999997}},{"attributes":{"ID":319225,"DIS_CODE":0,"TOWNNAME":"仁德區","LI":"新田里","LIN":"15鄰","STREET":"北保東路","SECT":" ","MAREA":" ","LANE":"８巷","ALLEY":" ","HOUSE_NO":"１３號","E_COORD97":173365.06,"N_COORD97":2539369,"ADDRESS":"北保東路８巷１３號","OBJECTID":319217},"geometry":{"x":173365.05999999959,"y":2539368.9999999981}},{"attributes":{"ID":319226,"DIS_CODE":0,"TOWNNAME":"北區","LI":"文元里","LIN":"15鄰","STREET":"文賢路","SECT":" ","MAREA":" ","LANE":" ","ALLEY":" ","HOUSE_NO":"１０００號之１","E_COORD97":167402.42000000001,"N_COORD97":2545998.1400000001,"ADDRESS":"文賢路１０００之１號","OBJECTID":319218},"geometry":{"x":167402.42000000086,"y":2545998.1400000025}},{"attributes":{"ID":319227,"DIS_CODE":0,"TOWNNAME":"北區","LI":"文元里","LIN":"15鄰","STREET":"文賢路","SECT":" ","MAREA":" ","LANE":" ","ALLEY":" ","HOUSE_NO":"１０００號之３","E_COORD97":167400.46338,"N_COORD97":2546007.8044199999,"ADDRESS":"文賢路１０００之３號","OBJECTID":319219},"geometry":{"x":167400.46338000055,"y":2546007.8044160008}},{"attributes":{"ID":319228,"DIS_CODE":0,"TOWNNAME":"北區","LI":"文元里","LIN":" ","STREET":"文賢路","SECT":" ","MAREA":" ","LANE":" ","ALLEY":" ","HOUSE_NO":"１０１０號","E_COORD97":167377.98000000001,"N_COORD97":2546012.2599999998,"ADDRESS":"文賢路１０１０號","OBJECTID":319220},"geometry":{"x":167377.98000000045,"y":2546012.2599999979}},{"attributes":{"ID":319229,"DIS_CODE":0,"TOWNNAME":"北區","LI":"文元里","LIN":" ","STREET":"文賢路","SECT":" ","MAREA":" ","LANE":" ","ALLEY":" ","HOUSE_NO":"１０２２號","E_COORD97":167376.75,"N_COORD97":2546035.46,"ADDRESS":"文賢路１０２２號","OBJECTID":319221},"geometry":{"x":167376.75,"y":2546035.4600000009}},{"attributes":{"ID":319230,"DIS_CODE":0,"TOWNNAME":"北區","LI":"文元里","LIN":"15鄰","STREET":"文成路","SECT":" ","MAREA":" ","LANE":" ","ALLEY":" ","HOUSE_NO":"７８３號","E_COORD97":167433.17000000001,"N_COORD97":2545843.98,"ADDRESS":"文成路７８３號","OBJECTID":319222},"geometry":{"x":167433.16999999993,"y":2545843.9800000004}},{"attributes":{"ID":319231,"DIS_CODE":0,"TOWNNAME":"北區","LI":"文元里","LIN":"15鄰","STREET":"文賢路","SECT":" ","MAREA":" ","LANE":" ","ALLEY":" ","HOUSE_NO":"１００２號","E_COORD97":167378.95000000001,"N_COORD97":2545996.1400000001,"ADDRESS":"文賢路１００２號","OBJECTID":319223},"geometry":{"x":167378.95000000112,"y":2545996.1400000006}},{"attributes":{"ID":319232,"DIS_CODE":0,"TOWNNAME":"北區","LI":"文元里","LIN":"15鄰","STREET":"文賢路","SECT":" ","MAREA":" ","LANE":" ","ALLEY":" ","HOUSE_NO":"１００４號","E_COORD97":167379.20000000001,"N_COORD97":2546000.7799999998,"ADDRESS":"文賢路１００４號","OBJECTID":319224},"geometry":{"x":167379.20000000019,"y":2546000.7799999993}},{"attributes":{"ID":319233,"DIS_CODE":0,"TOWNNAME":"北區","LI":"文元里","LIN":"15鄰","STREET":"文賢路","SECT":" ","MAREA":" ","LANE":" ","ALLEY":" ","HOUSE_NO":"１００６號","E_COORD97":167378.70999999999,"N_COORD97":2546003.96,"ADDRESS":"文賢路１００６號","OBJECTID":319225},"geometry":{"x":167378.70999999996,"y":2546003.9600000009}},{"attributes":{"ID":319234,"DIS_CODE":0,"TOWNNAME":"歸仁區","LI":"看東里","LIN":"11鄰","STREET":"中山一街","SECT":" ","MAREA":" ","LANE":" ","ALLEY":" ","HOUSE_NO":"１０８號","E_COORD97":178644.18734800001,"N_COORD97":2540383.1747300001,"ADDRESS":"中山一街１０８號","OBJECTID":319226},"geometry":{"x":178644.18734800071,"y":2540383.174734002}},{"attributes":{"ID":319235,"DIS_CODE":0,"TOWNNAME":"歸仁區","LI":"看西里","LIN":"17鄰","STREET":"成功五街","SECT":" ","MAREA":" ","LANE":" ","ALLEY":" ","HOUSE_NO":"３７號","E_COORD97":178345.508642,"N_COORD97":2539945.9549500002,"ADDRESS":"成功五街３７號","OBJECTID":319227},"geometry":{"x":178345.50864200015,"y":2539945.9549490009}},{"attributes":{"ID":319236,"DIS_CODE":0,"TOWNNAME":"北區","LI":"文成里","LIN":" ","STREET":"文賢路","SECT":" ","MAREA":" ","LANE":"５０２巷","ALLEY":" ","HOUSE_NO":"４５號","E_COORD97":167479.31,"N_COORD97":2545244.1299999999,"ADDRESS":"文賢路５０２巷４５號","OBJECTID":319228},"geometry":{"x":167479.30999999959,"y":2545244.1300000008}},{"attributes":{"ID":319237,"DIS_CODE":0,"TOWNNAME":"北區","LI":"文成里","LIN":" ","STREET":"文賢路","SECT":" ","MAREA":" ","LANE":"２９２巷","ALLEY":" ","HOUSE_NO":"１號","E_COORD97":167379.28,"N_COORD97":2545131.46,"ADDRESS":"文賢路２９２巷１號","OBJECTID":319229},"geometry":{"x":167379.28000000212,"y":2545131.4600000028}},{"attributes":{"ID":319238,"DIS_CODE":0,"TOWNNAME":"北區","LI":"正風里","LIN":"4鄰","STREET":"公園路","SECT":" ","MAREA":" ","LANE":"９１８巷","ALLEY":" ","HOUSE_NO":"１號之１","E_COORD97":169404.32999999999,"N_COORD97":2546170.3199999998,"ADDRESS":"公園路９１８巷１號之１","OBJECTID":319230},"geometry":{"x":169404.33000000007,"y":2546170.3200000003}},{"attributes":{"ID":319239,"DIS_CODE":0,"TOWNNAME":"北區","LI":"正風里","LIN":"4鄰","STREET":"公園路","SECT":" ","MAREA":" ","LANE":"９１８巷","ALLEY":" ","HOUSE_NO":"１號之２","E_COORD97":169407.78,"N_COORD97":2546168.6400000001,"ADDRESS":"公園路９１８巷１號之２","OBJECTID":319231},"geometry":{"x":169407.78000000026,"y":2546168.6400000006}},{"attributes":{"ID":319240,"DIS_CODE":0,"TOWNNAME":"北區","LI":"正風里","LIN":"4鄰","STREET":"公園路","SECT":" ","MAREA":" ","LANE":"９１８巷","ALLEY":" ","HOUSE_NO":"１號之３","E_COORD97":169411.85999999999,"N_COORD97":2546166.8700000001,"ADDRESS":"公園路９１８巷１號之３","OBJECTID":319232},"geometry":{"x":169411.86000000127,"y":2546166.8700000029}},{"attributes":{"ID":319241,"DIS_CODE":0,"TOWNNAME":"北區","LI":"正風里","LIN":"4鄰","STREET":"公園路","SECT":" ","MAREA":" ","LANE":"９１８巷","ALLEY":" ","HOUSE_NO":"１號之４","E_COORD97":169415.76999999999,"N_COORD97":2546164.8900000001,"ADDRESS":"公園路９１８巷１號之４","OBJECTID":319233},"geometry":{"x":169415.76999999955,"y":2546164.8900000043}},{"attributes":{"ID":319242,"DIS_CODE":0,"TOWNNAME":"北區","LI":"正風里","LIN":"4鄰","STREET":"公園路","SECT":" ","MAREA":" ","LANE":"９１８巷","ALLEY":" ","HOUSE_NO":"３號","E_COORD97":169424.70000000001,"N_COORD97":2546182.9700000002,"ADDRESS":"公園路９１８巷３號","OBJECTID":319234},"geometry":{"x":169424.70000000112,"y":2546182.9700000025}},{"attributes":{"ID":319243,"DIS_CODE":0,"TOWNNAME":"仁德區","LI":"後壁里","LIN":"15鄰","STREET":"德南路","SECT":" ","MAREA":" ","LANE":"１３７巷","ALLEY":" ","HOUSE_NO":"６６之５號","E_COORD97":173636.13,"N_COORD97":2538653.1200000001,"ADDRESS":"德南路１３７巷６６之５號","OBJECTID":319235},"geometry":{"x":173636.12999999989,"y":2538653.120000001}},{"attributes":{"ID":319244,"DIS_CODE":0,"TOWNNAME":"仁德區","LI":"後壁里","LIN":"15鄰","STREET":"德南路","SECT":" ","MAREA":" ","LANE":"１３７巷","ALLEY":" ","HOUSE_NO":"６２號","E_COORD97":173615.87,"N_COORD97":2538665.27,"ADDRESS":"德南路１３７巷６２號","OBJECTID":319236},"geometry":{"x":173615.87000000104,"y":2538665.2700000033}},{"attributes":{"ID":319245,"DIS_CODE":0,"TOWNNAME":"仁德區","LI":"後壁里","LIN":"15鄰","STREET":"德南路","SECT":" ","MAREA":" ","LANE":"１３７巷","ALLEY":" ","HOUSE_NO":"５２號","E_COORD97":173605.10999999999,"N_COORD97":2538651.52,"ADDRESS":"德南路１３７巷５２號","OBJECTID":319237},"geometry":{"x":173605.11000000034,"y":2538651.5200000014}},{"attributes":{"ID":319246,"DIS_CODE":0,"TOWNNAME":"南區","LI":"郡南里","LIN":"18鄰","STREET":"德興路","SECT":" ","MAREA":" ","LANE":"１３９巷","ALLEY":" ","HOUSE_NO":"３０號","E_COORD97":167327.84,"N_COORD97":2540447.3799999999,"ADDRESS":"德興路１３９巷３０號","OBJECTID":319238},"geometry":{"x":167327.84000000078,"y":2540447.3800000027}},{"attributes":{"ID":319247,"DIS_CODE":0,"TOWNNAME":"南區","LI":"郡南里","LIN":"18鄰","STREET":"德興路","SECT":" ","MAREA":" ","LANE":"１３９巷","ALLEY":" ","HOUSE_NO":"２８號","E_COORD97":167325.62,"N_COORD97":2540447.6299999999,"ADDRESS":"德興路１３９巷２８號","OBJECTID":319239},"geometry":{"x":167325.62000000011,"y":2540447.629999999}},{"attributes":{"ID":319248,"DIS_CODE":0,"TOWNNAME":"南區","LI":"郡南里","LIN":"18鄰","STREET":"德興路","SECT":" ","MAREA":" ","LANE":"１３９巷","ALLEY":" ","HOUSE_NO":"３２號","E_COORD97":167329.81,"N_COORD97":2540445.1699999999,"ADDRESS":"德興路１３９巷３２號","OBJECTID":319240},"geometry":{"x":167329.81000000052,"y":2540445.1699999999}},{"attributes":{"ID":319249,"DIS_CODE":0,"TOWNNAME":"南區","LI":"郡南里","LIN":"18鄰","STREET":"德興路","SECT":" ","MAREA":" ","LANE":"１３９巷","ALLEY":" ","HOUSE_NO":"３４號","E_COORD97":167333.97,"N_COORD97":2540440.2799999998,"ADDRESS":"德興路１３９巷３４號","OBJECTID":319241},"geometry":{"x":167333.97000000067,"y":2540440.2799999993}},{"attributes":{"ID":319250,"DIS_CODE":0,"TOWNNAME":"南區","LI":"大林里","LIN":"13鄰","STREET":"國民路","SECT":" ","MAREA":" ","LANE":"５１１巷","ALLEY":" ","HOUSE_NO":"４２號之２","E_COORD97":168536.98000000001,"N_COORD97":2541293.6000000001,"ADDRESS":"國民路５１１巷４２號之２","OBJECTID":319242},"geometry":{"x":168536.98000000045,"y":2541293.5999999996}},{"attributes":{"ID":319251,"DIS_CODE":0,"TOWNNAME":"仁德區","LI":"後壁里","LIN":"15鄰","STREET":"德善路","SECT":" ","MAREA":" ","LANE":"１０６巷","ALLEY":" ","HOUSE_NO":"１之１號","E_COORD97":173418.88,"N_COORD97":2538798.04,"ADDRESS":"德善路１０６巷１之１號","OBJECTID":319243},"geometry":{"x":173418.88000000082,"y":2538798.0399999991}},{"attributes":{"ID":319252,"DIS_CODE":0,"TOWNNAME":"東區","LI":"崇善里","LIN":"17鄰","STREET":"崇善路","SECT":" ","MAREA":" ","LANE":" ","ALLEY":" ","HOUSE_NO":"８０９號二樓","E_COORD97":171251.09,"N_COORD97":2540923.3700000001,"ADDRESS":"崇善路８０９號二樓","OBJECTID":319244},"geometry":{"x":171251.09000000078,"y":2540923.370000001}},{"attributes":{"ID":319253,"DIS_CODE":0,"TOWNNAME":"東區","LI":"崇善里","LIN":"17鄰","STREET":"崇善路","SECT":" ","MAREA":" ","LANE":" ","ALLEY":" ","HOUSE_NO":"８０９號五樓","E_COORD97":171251.09,"N_COORD97":2540923.3700000001,"ADDRESS":"崇善路８０９號五樓","OBJECTID":319245},"geometry":{"x":171251.09000000078,"y":2540923.370000001}},{"attributes":{"ID":319254,"DIS_CODE":0,"TOWNNAME":"東區","LI":"崇善里","LIN":"17鄰","STREET":"崇善路","SECT":" ","MAREA":" ","LANE":" ","ALLEY":" ","HOUSE_NO":"８０９號六樓","E_COORD97":171251.09,"N_COORD97":2540923.3700000001,"ADDRESS":"崇善路８０９號六樓","OBJECTID":319246},"geometry":{"x":171251.09000000078,"y":2540923.370000001}},{"attributes":{"ID":319255,"DIS_CODE":0,"TOWNNAME":"東區","LI":"崇善里","LIN":"17鄰","STREET":"崇善路","SECT":" ","MAREA":" ","LANE":" ","ALLEY":" ","HOUSE_NO":"８０９號四樓","E_COORD97":171251.09,"N_COORD97":2540923.3700000001,"ADDRESS":"崇善路８０９號四樓","OBJECTID":319247},"geometry":{"x":171251.09000000078,"y":2540923.370000001}},{"attributes":{"ID":319256,"DIS_CODE":0,"TOWNNAME":"東區","LI":"崇善里","LIN":"17鄰","STREET":"崇善路","SECT":" ","MAREA":" ","LANE":" ","ALLEY":" ","HOUSE_NO":"８１１號七樓","E_COORD97":171234.59,"N_COORD97":2540910.5499999998,"ADDRESS":"崇善路８１１號七樓","OBJECTID":319248},"geometry":{"x":171234.58999999985,"y":2540910.5500000026}},{"attributes":{"ID":319257,"DIS_CODE":0,"TOWNNAME":"東區","LI":"崇善里","LIN":"17鄰","STREET":"崇善路","SECT":" ","MAREA":" ","LANE":" ","ALLEY":" ","HOUSE_NO":"８１１號三樓","E_COORD97":171234.59,"N_COORD97":2540910.5499999998,"ADDRESS":"崇善路８１１號三樓","OBJECTID":319249},"geometry":{"x":171234.58999999985,"y":2540910.5500000026}},{"attributes":{"ID":319258,"DIS_CODE":0,"TOWNNAME":"東區","LI":"崇善里","LIN":"17鄰","STREET":"崇善路","SECT":" ","MAREA":" ","LANE":" ","ALLEY":" ","HOUSE_NO":"８１１號五樓","E_COORD97":171234.59,"N_COORD97":2540910.5499999998,"ADDRESS":"崇善路８１１號五樓","OBJECTID":319250},"geometry":{"x":171234.58999999985,"y":2540910.5500000026}},{"attributes":{"ID":319259,"DIS_CODE":0,"TOWNNAME":"東區","LI":"崇善里","LIN":"17鄰","STREET":"崇善路","SECT":" ","MAREA":" ","LANE":" ","ALLEY":" ","HOUSE_NO":"８１１號六樓","E_COORD97":171234.59,"N_COORD97":2540910.5499999998,"ADDRESS":"崇善路８１１號六樓","OBJECTID":319251},"geometry":{"x":171234.58999999985,"y":2540910.5500000026}},{"attributes":{"ID":319260,"DIS_CODE":0,"TOWNNAME":"北區","LI":"正風里","LIN":"4鄰","STREET":"公園路","SECT":" ","MAREA":" ","LANE":"９３４巷","ALLEY":" ","HOUSE_NO":"２０號","E_COORD97":169452.01000000001,"N_COORD97":2546182.0899999999,"ADDRESS":"公園路９３４巷２０號","OBJECTID":319252},"geometry":{"x":169452.00999999978,"y":2546182.0899999999}},{"attributes":{"ID":319261,"DIS_CODE":0,"TOWNNAME":"佳里區","LI":"鎮山里","LIN":"15鄰","STREET":"仁愛路","SECT":" ","MAREA":" ","LANE":"２５７巷","ALLEY":" ","HOUSE_NO":"２號","E_COORD97":166124.23999999999,"N_COORD97":2561426.6299999999,"ADDRESS":"仁愛路２５７巷２號","OBJECTID":319253},"geometry":{"x":166124.24000000115,"y":2561426.6300000008}},{"attributes":{"ID":319262,"DIS_CODE":0,"TOWNNAME":"北區","LI":"正風里","LIN":"4鄰","STREET":"公園路","SECT":" ","MAREA":" ","LANE":"９３４巷","ALLEY":" ","HOUSE_NO":"２２號","E_COORD97":169455.91,"N_COORD97":2546180.2400000002,"ADDRESS":"公園路９３４巷２２號","OBJECTID":319254},"geometry":{"x":169455.91000000015,"y":2546180.2400000021}},{"attributes":{"ID":319263,"DIS_CODE":0,"TOWNNAME":"仁德區","LI":"後壁里","LIN":"15鄰","STREET":"德南路","SECT":" ","MAREA":" ","LANE":"１３７巷","ALLEY":" ","HOUSE_NO":"６８之８號","E_COORD97":173652.91,"N_COORD97":2538653.6200000001,"ADDRESS":"德南路１３７巷６８之８號","OBJECTID":319255},"geometry":{"x":173652.91000000108,"y":2538653.620000001}},{"attributes":{"ID":319264,"DIS_CODE":0,"TOWNNAME":"仁德區","LI":"後壁里","LIN":"15鄰","STREET":"德南路","SECT":" ","MAREA":" ","LANE":"１３７巷","ALLEY":" ","HOUSE_NO":"６８號","E_COORD97":173625.42999999999,"N_COORD97":2538678.52,"ADDRESS":"德南路１３７巷６８號","OBJECTID":319256},"geometry":{"x":173625.4299999997,"y":2538678.5200000014}},{"attributes":{"ID":319265,"DIS_CODE":0,"TOWNNAME":"仁德區","LI":"二行里","LIN":"15鄰","STREET":"中正西路","SECT":" ","MAREA":" ","LANE":"３６０巷","ALLEY":" ","HOUSE_NO":"７０號","E_COORD97":169734.29999999999,"N_COORD97":2535543.0899999999,"ADDRESS":"中正西路３６０巷７０號","OBJECTID":319257},"geometry":{"x":169734.29999999981,"y":2535543.0899999999}},{"attributes":{"ID":319266,"DIS_CODE":0,"TOWNNAME":"南區","LI":"郡南里","LIN":"18鄰","STREET":"德興路","SECT":" ","MAREA":" ","LANE":"１３９巷","ALLEY":" ","HOUSE_NO":"３６號","E_COORD97":167339.70999999999,"N_COORD97":2540439.5,"ADDRESS":"德興路１３９巷３６號","OBJECTID":319258},"geometry":{"x":167339.70999999996,"y":2540439.5}},{"attributes":{"ID":319267,"DIS_CODE":0,"TOWNNAME":"南區","LI":"郡南里","LIN":"18鄰","STREET":"德興路","SECT":" ","MAREA":" ","LANE":"１３９巷","ALLEY":" ","HOUSE_NO":"３８號","E_COORD97":167344.57999999999,"N_COORD97":2540440.25,"ADDRESS":"德興路１３９巷３８號","OBJECTID":319259},"geometry":{"x":167344.58000000007,"y":2540440.2500000019}},{"attributes":{"ID":319268,"DIS_CODE":0,"TOWNNAME":"南區","LI":"郡南里","LIN":"18鄰","STREET":"德興路","SECT":" ","MAREA":" ","LANE":"１３９巷","ALLEY":" ","HOUSE_NO":"４０號","E_COORD97":167345.32000000001,"N_COORD97":2540453.04,"ADDRESS":"德興路１３９巷４０號","OBJECTID":319260},"geometry":{"x":167345.32000000216,"y":2540453.0400000028}},{"attributes":{"ID":319269,"DIS_CODE":0,"TOWNNAME":"南區","LI":"建南里","LIN":"18鄰","STREET":"明興路","SECT":" ","MAREA":" ","LANE":"１１９巷","ALLEY":" ","HOUSE_NO":"１１號","E_COORD97":166728.66,"N_COORD97":2539867.02,"ADDRESS":"明興路１１９巷１１號","OBJECTID":319261},"geometry":{"x":166728.66000000015,"y":2539867.0200000033}},{"attributes":{"ID":319270,"DIS_CODE":0,"TOWNNAME":"南區","LI":"建南里","LIN":"18鄰","STREET":"明興路","SECT":" ","MAREA":" ","LANE":"１１９巷","ALLEY":" ","HOUSE_NO":"５號","E_COORD97":166716.78,"N_COORD97":2539868.0800000001,"ADDRESS":"明興路１１９巷５號","OBJECTID":319262},"geometry":{"x":166716.78000000119,"y":2539868.0800000019}},{"attributes":{"ID":319271,"DIS_CODE":0,"TOWNNAME":"下營區","LI":"後街里","LIN":"15鄰","STREET":"人和二街","SECT":" ","MAREA":" ","LANE":"５７巷","ALLEY":" ","HOUSE_NO":"２８號","E_COORD97":174497.87,"N_COORD97":2570748.3399999999,"ADDRESS":"人和二街５７巷２８號","OBJECTID":319263},"geometry":{"x":174497.87000000011,"y":2570748.3400000036}},{"attributes":{"ID":319272,"DIS_CODE":0,"TOWNNAME":"南區","LI":"建南里","LIN":"6鄰","STREET":"德興路","SECT":" ","MAREA":" ","LANE":"３２５巷","ALLEY":" ","HOUSE_NO":"１７號","E_COORD97":167306.73999999999,"N_COORD97":2539858.46,"ADDRESS":"德興路３２５巷１７號","OBJECTID":319264},"geometry":{"x":167306.74000000209,"y":2539858.459999999}},{"attributes":{"ID":319273,"DIS_CODE":0,"TOWNNAME":"南區","LI":"喜東里","LIN":"10鄰","STREET":"明興路","SECT":" ","MAREA":" ","LANE":"６１９巷","ALLEY":" ","HOUSE_NO":"３２６號之２","E_COORD97":166810.03,"N_COORD97":2537909.02,"ADDRESS":"明興路６１９巷３２６號之２","OBJECTID":319265},"geometry":{"x":166810.03000000119,"y":2537909.0200000014}},{"attributes":{"ID":319274,"DIS_CODE":0,"TOWNNAME":"南區","LI":"廣州里","LIN":"5鄰","STREET":"大德街","SECT":" ","MAREA":" ","LANE":"１６０巷","ALLEY":" ","HOUSE_NO":"２號之１","E_COORD97":167523.66,"N_COORD97":2543048.48,"ADDRESS":"大德街１６０巷２號之１","OBJECTID":319266},"geometry":{"x":167523.66000000015,"y":2543048.4800000042}},{"attributes":{"ID":319275,"DIS_CODE":0,"TOWNNAME":"中西區","LI":"赤嵌里","LIN":"15鄰","STREET":"忠義路","SECT":"二段","MAREA":" ","LANE":"２０２巷","ALLEY":" ","HOUSE_NO":"５號","E_COORD97":168474.54000000001,"N_COORD97":2544175.3900000001,"ADDRESS":"忠義路二段２０２巷５號","OBJECTID":319267},"geometry":{"x":168474.54000000097,"y":2544175.3900000025}},{"attributes":{"ID":319276,"DIS_CODE":0,"TOWNNAME":"中西區","LI":"赤嵌里","LIN":"15鄰","STREET":"忠義路","SECT":"二段","MAREA":" ","LANE":"２０２巷","ALLEY":" ","HOUSE_NO":"１２號","E_COORD97":168472.26000000001,"N_COORD97":2544166.0699999998,"ADDRESS":"忠義路二段２０２巷１２號","OBJECTID":319268},"geometry":{"x":168472.25999999885,"y":2544166.0700000003}},{"attributes":{"ID":319277,"DIS_CODE":0,"TOWNNAME":"中西區","LI":"赤嵌里","LIN":"15鄰","STREET":"忠義路","SECT":"二段","MAREA":" ","LANE":"２０２巷","ALLEY":" ","HOUSE_NO":"１４號","E_COORD97":168475.67000000001,"N_COORD97":2544164.71,"ADDRESS":"忠義路二段２０２巷１４號","OBJECTID":319269},"geometry":{"x":168475.67000000086,"y":2544164.7100000009}},{"attributes":{"ID":319278,"DIS_CODE":0,"TOWNNAME":"中西區","LI":"赤嵌里","LIN":"15鄰","STREET":"忠義路","SECT":"二段","MAREA":" ","LANE":"２０２巷","ALLEY":" ","HOUSE_NO":"１６號","E_COORD97":168479.09,"N_COORD97":2544163.7999999998,"ADDRESS":"忠義路二段２０２巷１６號","OBJECTID":319270},"geometry":{"x":168479.09000000078,"y":2544163.8000000007}},{"attributes":{"ID":319279,"DIS_CODE":0,"TOWNNAME":"中西區","LI":"赤嵌里","LIN":"15鄰","STREET":"忠義路","SECT":"二段","MAREA":" ","LANE":"２０２巷","ALLEY":" ","HOUSE_NO":"１８號","E_COORD97":168485.91,"N_COORD97":2544160.8399999999,"ADDRESS":"忠義路二段２０２巷１８號","OBJECTID":319271},"geometry":{"x":168485.91000000108,"y":2544160.8400000036}},{"attributes":{"ID":319280,"DIS_CODE":0,"TOWNNAME":"中西區","LI":"赤嵌里","LIN":"15鄰","STREET":"忠義路","SECT":"二段","MAREA":" ","LANE":"２０２巷","ALLEY":" ","HOUSE_NO":"１號","E_COORD97":168466.57000000001,"N_COORD97":2544177.1899999999,"ADDRESS":"忠義路二段２０２巷１號","OBJECTID":319272},"geometry":{"x":168466.57000000123,"y":2544177.1899999995}},{"attributes":{"ID":319281,"DIS_CODE":0,"TOWNNAME":"中西區","LI":"赤嵌里","LIN":"15鄰","STREET":"忠義路","SECT":"二段","MAREA":" ","LANE":"２０２巷","ALLEY":" ","HOUSE_NO":"２號","E_COORD97":168455.64999999999,"N_COORD97":2544170.1600000001,"ADDRESS":"忠義路二段２０２巷２號","OBJECTID":319273},"geometry":{"x":168455.6500000013,"y":2544170.160000002}},{"attributes":{"ID":319282,"DIS_CODE":0,"TOWNNAME":"中西區","LI":"赤嵌里","LIN":"15鄰","STREET":"忠義路","SECT":"二段","MAREA":" ","LANE":"２０２巷","ALLEY":" ","HOUSE_NO":"３號","E_COORD97":168471.35000000001,"N_COORD97":2544176.29,"ADDRESS":"忠義路二段２０２巷３號","OBJECTID":319274},"geometry":{"x":168471.34999999963,"y":2544176.2899999991}},{"attributes":{"ID":319283,"DIS_CODE":0,"TOWNNAME":"佳里區","LI":"鎮山里","LIN":"15鄰","STREET":"仁愛路","SECT":" ","MAREA":" ","LANE":"２５７巷","ALLEY":" ","HOUSE_NO":"１０號","E_COORD97":166123.82999999999,"N_COORD97":2561393.8700000001,"ADDRESS":"仁愛路２５７巷１０號","OBJECTID":319275},"geometry":{"x":166123.83000000007,"y":2561393.870000001}},{"attributes":{"ID":319284,"DIS_CODE":0,"TOWNNAME":"佳里區","LI":"鎮山里","LIN":"15鄰","STREET":"仁愛路","SECT":" ","MAREA":" ","LANE":"２５７巷","ALLEY":" ","HOUSE_NO":"１１號","E_COORD97":166124.23000000001,"N_COORD97":2561389.9199999999,"ADDRESS":"仁愛路２５７巷１１號","OBJECTID":319276},"geometry":{"x":166124.23000000138,"y":2561389.9199999999}},{"attributes":{"ID":319285,"DIS_CODE":0,"TOWNNAME":"佳里區","LI":"鎮山里","LIN":"15鄰","STREET":"仁愛路","SECT":" ","MAREA":" ","LANE":"２５７巷","ALLEY":" ","HOUSE_NO":"１２號","E_COORD97":166124.03,"N_COORD97":2561386.3599999999,"ADDRESS":"仁愛路２５７巷１２號","OBJECTID":319277},"geometry":{"x":166124.03000000119,"y":2561386.3599999994}},{"attributes":{"ID":319286,"DIS_CODE":0,"TOWNNAME":"佳里區","LI":"鎮山里","LIN":"15鄰","STREET":"仁愛路","SECT":" ","MAREA":" ","LANE":"２５７巷","ALLEY":" ","HOUSE_NO":"１３號之１","E_COORD97":166108.29000000001,"N_COORD97":2561378.2599999998,"ADDRESS":"仁愛路２５７巷１３號之１","OBJECTID":319278},"geometry":{"x":166108.29000000097,"y":2561378.2600000016}},{"attributes":{"ID":319287,"DIS_CODE":0,"TOWNNAME":"佳里區","LI":"鎮山里","LIN":"15鄰","STREET":"仁愛路","SECT":" ","MAREA":" ","LANE":"２５７巷","ALLEY":" ","HOUSE_NO":"１３號之２","E_COORD97":166104.35000000001,"N_COORD97":2561379.96,"ADDRESS":"仁愛路２５７巷１３號之２","OBJECTID":319279},"geometry":{"x":166104.34999999963,"y":2561379.9600000009}},{"attributes":{"ID":319288,"DIS_CODE":0,"TOWNNAME":"東區","LI":"崇善里","LIN":"17鄰","STREET":"崇善路","SECT":" ","MAREA":" ","LANE":" ","ALLEY":" ","HOUSE_NO":"８１１號四樓","E_COORD97":171234.59,"N_COORD97":2540910.5499999998,"ADDRESS":"崇善路８１１號四樓","OBJECTID":319280},"geometry":{"x":171234.58999999985,"y":2540910.5500000026}},{"attributes":{"ID":319289,"DIS_CODE":0,"TOWNNAME":"永康區","LI":"東灣里","LIN":"17鄰","STREET":"大灣三街","SECT":" ","MAREA":" ","LANE":" ","ALLEY":" ","HOUSE_NO":"４３號三樓之３","E_COORD97":174978.92000000001,"N_COORD97":2544922.3799999999,"ADDRESS":"大灣三街４３號三樓之３","OBJECTID":319281},"geometry":{"x":174978.91999999993,"y":2544922.3800000027}},{"attributes":{"ID":319290,"DIS_CODE":0,"TOWNNAME":"新營區","LI":"三仙里","LIN":"31鄰","STREET":"育德十一街","SECT":" ","MAREA":" ","LANE":" ","ALLEY":" ","HOUSE_NO":"５０號","E_COORD97":179465.633673,"N_COORD97":2579245.6008299999,"ADDRESS":"育德十一街５０號","OBJECTID":319282},"geometry":{"x":179465.63367300015,"y":2579245.6008260027}},{"attributes":{"ID":319291,"DIS_CODE":0,"TOWNNAME":"北區","LI":"玉皇里","LIN":" ","STREET":"公園路","SECT":" ","MAREA":" ","LANE":"８８巷","ALLEY":" ","HOUSE_NO":"１３號","E_COORD97":168629.10999999999,"N_COORD97":2544389.98,"ADDRESS":"公園路８８巷１３號","OBJECTID":319283},"geometry":{"x":168629.11000000034,"y":2544389.9800000004}},{"attributes":{"ID":319292,"DIS_CODE":0,"TOWNNAME":"北區","LI":"玉皇里","LIN":" ","STREET":"公園路","SECT":" ","MAREA":" ","LANE":"２３９巷","ALLEY":" ","HOUSE_NO":"２４號","E_COORD97":168794.92999999999,"N_COORD97":2544569.8599999999,"ADDRESS":"公園路２３９巷２４號","OBJECTID":319284},"geometry":{"x":168794.93000000156,"y":2544569.8599999994}},{"attributes":{"ID":319293,"DIS_CODE":0,"TOWNNAME":"北區","LI":"光武里","LIN":" ","STREET":"大武街","SECT":" ","MAREA":" ","LANE":"１４１巷","ALLEY":" ","HOUSE_NO":"２５號","E_COORD97":169571.32000000001,"N_COORD97":2545873.4300000002,"ADDRESS":"大武街１４１巷２５號","OBJECTID":319285},"geometry":{"x":169571.32000000123,"y":2545873.4300000016}},{"attributes":{"ID":319294,"DIS_CODE":0,"TOWNNAME":"北區","LI":"光武里","LIN":" ","STREET":"大武街","SECT":" ","MAREA":" ","LANE":"９１巷","ALLEY":" ","HOUSE_NO":"５２之１號","E_COORD97":169363.82999999999,"N_COORD97":2545796.6400000001,"ADDRESS":"大武街９１巷５２之１號","OBJECTID":319286},"geometry":{"x":169363.83000000194,"y":2545796.6400000006}},{"attributes":{"ID":319295,"DIS_CODE":0,"TOWNNAME":"北區","LI":"安民里","LIN":" ","STREET":"成功路","SECT":" ","MAREA":" ","LANE":"４０１巷","ALLEY":" ","HOUSE_NO":"３號","E_COORD97":167817.48000000001,"N_COORD97":2544628.2400000002,"ADDRESS":"成功路４０１巷３號","OBJECTID":319287},"geometry":{"x":167817.48000000138,"y":2544628.2400000002}},{"attributes":{"ID":319296,"DIS_CODE":0,"TOWNNAME":"北區","LI":"安民里","LIN":" ","STREET":"成功路","SECT":" ","MAREA":" ","LANE":"４０１巷","ALLEY":" ","HOUSE_NO":"５號","E_COORD97":167813.48000000001,"N_COORD97":2544626.77,"ADDRESS":"成功路４０１巷５號","OBJECTID":319288},"geometry":{"x":167813.48000000045,"y":2544626.7700000014}},{"attributes":{"ID":319297,"DIS_CODE":0,"TOWNNAME":"北區","LI":"安民里","LIN":" ","STREET":"成功路","SECT":" ","MAREA":" ","LANE":"４０１巷","ALLEY":" ","HOUSE_NO":"７號","E_COORD97":167806.75,"N_COORD97":2544626.3500000001,"ADDRESS":"成功路４０１巷７號","OBJECTID":319289},"geometry":{"x":167806.75000000093,"y":2544626.3500000015}},{"attributes":{"ID":319298,"DIS_CODE":0,"TOWNNAME":"北區","LI":"正覺里","LIN":"22鄰","STREET":"正覺街","SECT":" ","MAREA":" ","LANE":"１０２巷","ALLEY":" ","HOUSE_NO":"４３號","E_COORD97":169463.57999999999,"N_COORD97":2546481.3300000001,"ADDRESS":"正覺街１０２巷４３號","OBJECTID":319290},"geometry":{"x":169463.58000000007,"y":2546481.3300000019}},{"attributes":{"ID":319299,"DIS_CODE":0,"TOWNNAME":"佳里區","LI":"鎮山里","LIN":"15鄰","STREET":"仁愛路","SECT":" ","MAREA":" ","LANE":"２５７巷","ALLEY":" ","HOUSE_NO":"１３號之３","E_COORD97":166100.81,"N_COORD97":2561381.5899999999,"ADDRESS":"仁愛路２５７巷１３號之３","OBJECTID":319291},"geometry":{"x":166100.81000000052,"y":2561381.5899999999}},{"attributes":{"ID":319300,"DIS_CODE":0,"TOWNNAME":"佳里區","LI":"鎮山里","LIN":"15鄰","STREET":"仁愛路","SECT":" ","MAREA":" ","LANE":"２５７巷","ALLEY":" ","HOUSE_NO":"１３號之４","E_COORD97":166097.06,"N_COORD97":2561383.27,"ADDRESS":"仁愛路２５７巷１３號之４","OBJECTID":319292},"geometry":{"x":166097.06000000052,"y":2561383.2699999996}},{"attributes":{"ID":319301,"DIS_CODE":0,"TOWNNAME":"佳里區","LI":"鎮山里","LIN":"15鄰","STREET":"仁愛路","SECT":" ","MAREA":" ","LANE":"２５７巷","ALLEY":" ","HOUSE_NO":"１３號","E_COORD97":166107.32999999999,"N_COORD97":2561402.2400000002,"ADDRESS":"仁愛路２５７巷１３號","OBJECTID":319293},"geometry":{"x":166107.32999999914,"y":2561402.2400000021}},{"attributes":{"ID":319302,"DIS_CODE":0,"TOWNNAME":"永康區","LI":"東灣里","LIN":"17鄰","STREET":"大灣三街","SECT":" ","MAREA":" ","LANE":" ","ALLEY":" ","HOUSE_NO":"４３號四樓之６","E_COORD97":174978.92999999999,"N_COORD97":2544922.3799999999,"ADDRESS":"大灣三街４３號四樓之６","OBJECTID":319294},"geometry":{"x":174978.93000000156,"y":2544922.3800000027}},{"attributes":{"ID":319303,"DIS_CODE":0,"TOWNNAME":"永康區","LI":"東灣里","LIN":"17鄰","STREET":"大灣三街","SECT":" ","MAREA":" ","LANE":" ","ALLEY":" ","HOUSE_NO":"４３號二樓之２","E_COORD97":174978.95999999999,"N_COORD97":2544922.3799999999,"ADDRESS":"大灣三街４３號二樓之２","OBJECTID":319295},"geometry":{"x":174978.95999999903,"y":2544922.3800000027}},{"attributes":{"ID":319304,"DIS_CODE":0,"TOWNNAME":"永康區","LI":"西橋里","LIN":"17鄰","STREET":"大橋三街","SECT":" ","MAREA":" ","LANE":" ","ALLEY":" ","HOUSE_NO":"３２號四樓","E_COORD97":170571.07000000001,"N_COORD97":2546434.5099999998,"ADDRESS":"大橋三街３２號四樓","OBJECTID":319296},"geometry":{"x":170571.06999999937,"y":2546434.5100000035}},{"attributes":{"ID":319305,"DIS_CODE":0,"TOWNNAME":"南區","LI":"文華里","LIN":"17鄰","STREET":"南樂街","SECT":" ","MAREA":" ","LANE":" ","ALLEY":" ","HOUSE_NO":"１３號四樓","E_COORD97":166836.76999999999,"N_COORD97":2543166.2400000002,"ADDRESS":"南樂街１３號四樓","OBJECTID":319297},"geometry":{"x":166836.77000000048,"y":2543166.2400000021}},{"attributes":{"ID":319306,"DIS_CODE":0,"TOWNNAME":"永康區","LI":"西橋里","LIN":"17鄰","STREET":"大橋三街","SECT":" ","MAREA":" ","LANE":" ","ALLEY":" ","HOUSE_NO":"４０號六樓","E_COORD97":170569.98000000001,"N_COORD97":2546458.75,"ADDRESS":"大橋三街４０號六樓","OBJECTID":319298},"geometry":{"x":170569.98000000045,"y":2546458.75}},{"attributes":{"ID":319307,"DIS_CODE":0,"TOWNNAME":"歸仁區","LI":"辜厝里","LIN":"17鄰","STREET":"大順街","SECT":" ","MAREA":" ","LANE":" ","ALLEY":" ","HOUSE_NO":"１３號十一樓","E_COORD97":177457.92999999999,"N_COORD97":2540505.9500000002,"ADDRESS":"大順街１３號十一樓","OBJECTID":319299},"geometry":{"x":177457.93000000063,"y":2540505.9500000011}},{"attributes":{"ID":319308,"DIS_CODE":0,"TOWNNAME":"歸仁區","LI":"辜厝里","LIN":"17鄰","STREET":"大順街","SECT":" ","MAREA":" ","LANE":" ","ALLEY":" ","HOUSE_NO":"７號十二樓","E_COORD97":177457.67999999999,"N_COORD97":2540505.9500000002,"ADDRESS":"大順街７號十二樓","OBJECTID":319300},"geometry":{"x":177457.68000000063,"y":2540505.9500000011}},{"attributes":{"ID":319309,"DIS_CODE":0,"TOWNNAME":"歸仁區","LI":"辜厝里","LIN":"17鄰","STREET":"大順街","SECT":" ","MAREA":" ","LANE":" ","ALLEY":" ","HOUSE_NO":"１３號五樓","E_COORD97":177457.67999999999,"N_COORD97":2540505.9500000002,"ADDRESS":"大順街１３號五樓","OBJECTID":319301},"geometry":{"x":177457.68000000063,"y":2540505.9500000011}},{"attributes":{"ID":319310,"DIS_CODE":0,"TOWNNAME":"永康區","LI":"光復里","LIN":"3鄰","STREET":"復國路","SECT":" ","MAREA":" ","LANE":"５３巷","ALLEY":" ","HOUSE_NO":"１０８號","E_COORD97":172556.736703,"N_COORD97":2544449.4741000002,"ADDRESS":"復國路５３巷１０８號","OBJECTID":319302},"geometry":{"x":172556.73670300096,"y":2544449.4740960002}},{"attributes":{"ID":319311,"DIS_CODE":0,"TOWNNAME":"將軍區","LI":"長沙里","LIN":"16鄰","STREET":" ","SECT":" ","MAREA":"長沙","LANE":" ","ALLEY":" ","HOUSE_NO":"１３６號","E_COORD97":158667.244504,"N_COORD97":2568656.9800200001,"ADDRESS":"長沙１３６號","OBJECTID":319303},"geometry":{"x":158667.24450400006,"y":2568656.9800190032}},{"attributes":{"ID":319312,"DIS_CODE":0,"TOWNNAME":"北區","LI":"和順里","LIN":" ","STREET":"臨安路","SECT":"二段","MAREA":" ","LANE":"１９５巷","ALLEY":" ","HOUSE_NO":"９０號","E_COORD97":167910.23999999999,"N_COORD97":2545225.25,"ADDRESS":"臨安路二段１９５巷９０號","OBJECTID":319304},"geometry":{"x":167910.24000000209,"y":2545225.25}},{"attributes":{"ID":319313,"DIS_CODE":0,"TOWNNAME":"北區","LI":"延平里","LIN":" ","STREET":"公園路","SECT":" ","MAREA":" ","LANE":"７８８巷","ALLEY":" ","HOUSE_NO":"４１之３號","E_COORD97":169230.28,"N_COORD97":2545742.5600000001,"ADDRESS":"公園路７８８巷４１之３號","OBJECTID":319305},"geometry":{"x":169230.28000000026,"y":2545742.5600000005}},{"attributes":{"ID":319314,"DIS_CODE":0,"TOWNNAME":"北區","LI":"延平里","LIN":" ","STREET":"公園路","SECT":" ","MAREA":" ","LANE":"７８８巷","ALLEY":" ","HOUSE_NO":"４１之２號","E_COORD97":169225.48000000001,"N_COORD97":2545743.5299999998,"ADDRESS":"公園路７８８巷４１之２號","OBJECTID":319306},"geometry":{"x":169225.48000000045,"y":2545743.5300000012}},{"attributes":{"ID":319315,"DIS_CODE":0,"TOWNNAME":"佳里區","LI":"鎮山里","LIN":"15鄰","STREET":"仁愛路","SECT":" ","MAREA":" ","LANE":"２５７巷","ALLEY":" ","HOUSE_NO":"１４號","E_COORD97":166107.13,"N_COORD97":2561406.5,"ADDRESS":"仁愛路２５７巷１４號","OBJECTID":319307},"geometry":{"x":166107.13000000082,"y":2561406.4999999981}},{"attributes":{"ID":319316,"DIS_CODE":0,"TOWNNAME":"佳里區","LI":"鎮山里","LIN":"15鄰","STREET":"仁愛路","SECT":" ","MAREA":" ","LANE":"２５７巷","ALLEY":" ","HOUSE_NO":"１５號","E_COORD97":166107.32999999999,"N_COORD97":2561410.2999999998,"ADDRESS":"仁愛路２５７巷１５號","OBJECTID":319308},"geometry":{"x":166107.32999999914,"y":2561410.3000000026}},{"attributes":{"ID":319317,"DIS_CODE":0,"TOWNNAME":"佳里區","LI":"鎮山里","LIN":"15鄰","STREET":"仁愛路","SECT":" ","MAREA":" ","LANE":"２５７巷","ALLEY":" ","HOUSE_NO":"１６號","E_COORD97":166107.54000000001,"N_COORD97":2561415.25,"ADDRESS":"仁愛路２５７巷１６號","OBJECTID":319309},"geometry":{"x":166107.53999999911,"y":2561415.2500000037}},{"attributes":{"ID":319318,"DIS_CODE":0,"TOWNNAME":"佳里區","LI":"鎮山里","LIN":"15鄰","STREET":"仁愛路","SECT":" ","MAREA":" ","LANE":"２５７巷","ALLEY":" ","HOUSE_NO":"１７號","E_COORD97":166107.88,"N_COORD97":2561419.8100000001,"ADDRESS":"仁愛路２５７巷１７號","OBJECTID":319310},"geometry":{"x":166107.87999999989,"y":2561419.8100000024}},{"attributes":{"ID":319319,"DIS_CODE":0,"TOWNNAME":"佳里區","LI":"鎮山里","LIN":"15鄰","STREET":"仁愛路","SECT":" ","MAREA":" ","LANE":"２５７巷","ALLEY":" ","HOUSE_NO":"１８號","E_COORD97":166107.79000000001,"N_COORD97":2561423.8199999998,"ADDRESS":"仁愛路２５７巷１８號","OBJECTID":319311},"geometry":{"x":166107.79000000097,"y":2561423.8200000003}},{"attributes":{"ID":319320,"DIS_CODE":0,"TOWNNAME":"佳里區","LI":"鎮山里","LIN":"15鄰","STREET":"仁愛路","SECT":" ","MAREA":" ","LANE":"２５７巷","ALLEY":" ","HOUSE_NO":"１９號","E_COORD97":166108.47,"N_COORD97":2561428.0899999999,"ADDRESS":"仁愛路２５７巷１９號","OBJECTID":319312},"geometry":{"x":166108.47000000067,"y":2561428.0899999999}},{"attributes":{"ID":319321,"DIS_CODE":0,"TOWNNAME":"佳里區","LI":"鎮山里","LIN":"15鄰","STREET":"仁愛路","SECT":" ","MAREA":" ","LANE":"２５７巷","ALLEY":" ","HOUSE_NO":"１號","E_COORD97":166124.13,"N_COORD97":2561430.73,"ADDRESS":"仁愛路２５７巷１號","OBJECTID":319313},"geometry":{"x":166124.13000000082,"y":2561430.7300000023}},{"attributes":{"ID":319322,"DIS_CODE":0,"TOWNNAME":"佳里區","LI":"鎮山里","LIN":"15鄰","STREET":"仁愛路","SECT":" ","MAREA":" ","LANE":"２５７巷","ALLEY":" ","HOUSE_NO":"２０號","E_COORD97":166108.89000000001,"N_COORD97":2561432.6000000001,"ADDRESS":"仁愛路２５７巷２０號","OBJECTID":319314},"geometry":{"x":166108.8900000006,"y":2561432.5999999978}},{"attributes":{"ID":319323,"DIS_CODE":0,"TOWNNAME":"佳里區","LI":"鎮山里","LIN":"15鄰","STREET":"仁愛路","SECT":" ","MAREA":" ","LANE":"２５７巷","ALLEY":" ","HOUSE_NO":"２１號","E_COORD97":166109.29000000001,"N_COORD97":2561436.8300000001,"ADDRESS":"仁愛路２５７巷２１號","OBJECTID":319315},"geometry":{"x":166109.2900000019,"y":2561436.8300000001}},{"attributes":{"ID":319324,"DIS_CODE":0,"TOWNNAME":"佳里區","LI":"鎮山里","LIN":"15鄰","STREET":"仁愛路","SECT":" ","MAREA":" ","LANE":"２５７巷","ALLEY":" ","HOUSE_NO":"２２號","E_COORD97":166109.31,"N_COORD97":2561441,"ADDRESS":"仁愛路２５７巷２２號","OBJECTID":319316},"geometry":{"x":166109.31000000052,"y":2561441.0000000019}},{"attributes":{"ID":319325,"DIS_CODE":0,"TOWNNAME":"佳里區","LI":"鎮山里","LIN":"15鄰","STREET":"仁愛路","SECT":" ","MAREA":" ","LANE":"２５７巷","ALLEY":" ","HOUSE_NO":"２３號","E_COORD97":166109.82999999999,"N_COORD97":2561444.8399999999,"ADDRESS":"仁愛路２５７巷２３號","OBJECTID":319317},"geometry":{"x":166109.83000000101,"y":2561444.8400000036}},{"attributes":{"ID":319326,"DIS_CODE":0,"TOWNNAME":"佳里區","LI":"鎮山里","LIN":"15鄰","STREET":"仁愛路","SECT":" ","MAREA":" ","LANE":"２５７巷","ALLEY":" ","HOUSE_NO":"２４號","E_COORD97":166122.26999999999,"N_COORD97":2561434.96,"ADDRESS":"仁愛路２５７巷２４號","OBJECTID":319318},"geometry":{"x":166122.26999999955,"y":2561434.9600000046}},{"attributes":{"ID":319327,"DIS_CODE":0,"TOWNNAME":"中西區","LI":"元安里","LIN":"1鄰","STREET":"永華路","SECT":"一段","MAREA":" ","LANE":" ","ALLEY":" ","HOUSE_NO":"３２號之底一層","E_COORD97":167611.79972800001,"N_COORD97":2543135.3072899999,"ADDRESS":"永華路一段３２號之底一層","OBJECTID":319319},"geometry":{"x":167611.79972799867,"y":2543135.3072859999}},{"attributes":{"ID":319328,"DIS_CODE":0,"TOWNNAME":"佳里區","LI":"鎮山里","LIN":"15鄰","STREET":"仁愛路","SECT":" ","MAREA":" ","LANE":"２５７巷","ALLEY":" ","HOUSE_NO":"３號","E_COORD97":166123.91,"N_COORD97":2561423.0099999998,"ADDRESS":"仁愛路２５７巷３號","OBJECTID":319320},"geometry":{"x":166123.91000000201,"y":2561423.0099999998}},{"attributes":{"ID":319329,"DIS_CODE":0,"TOWNNAME":"佳里區","LI":"鎮山里","LIN":"15鄰","STREET":"仁愛路","SECT":" ","MAREA":" ","LANE":"２５７巷","ALLEY":" ","HOUSE_NO":"４號","E_COORD97":166124.06,"N_COORD97":2561418.7799999998,"ADDRESS":"仁愛路２５７巷４號","OBJECTID":319321},"geometry":{"x":166124.06000000145,"y":2561418.7800000012}},{"attributes":{"ID":319330,"DIS_CODE":0,"TOWNNAME":"歸仁區","LI":"辜厝里","LIN":"17鄰","STREET":"大順街","SECT":" ","MAREA":" ","LANE":" ","ALLEY":" ","HOUSE_NO":"７號十四樓","E_COORD97":177457.67999999999,"N_COORD97":2540505.9500000002,"ADDRESS":"大順街７號十四樓","OBJECTID":319322},"geometry":{"x":177457.68000000063,"y":2540505.9500000011}},{"attributes":{"ID":319331,"DIS_CODE":0,"TOWNNAME":"歸仁區","LI":"辜厝里","LIN":"17鄰","STREET":"大順街","SECT":" ","MAREA":" ","LANE":" ","ALLEY":" ","HOUSE_NO":"７號十一樓","E_COORD97":177457.67999999999,"N_COORD97":2540505.9500000002,"ADDRESS":"大順街７號十一樓","OBJECTID":319323},"geometry":{"x":177457.68000000063,"y":2540505.9500000011}},{"attributes":{"ID":319332,"DIS_CODE":0,"TOWNNAME":"歸仁區","LI":"辜厝里","LIN":"17鄰","STREET":"大順街","SECT":" ","MAREA":" ","LANE":" ","ALLEY":" ","HOUSE_NO":"１３號十二樓","E_COORD97":177457.92999999999,"N_COORD97":2540505.9500000002,"ADDRESS":"大順街１３號十二樓","OBJECTID":319324},"geometry":{"x":177457.93000000063,"y":2540505.9500000011}},{"attributes":{"ID":319333,"DIS_CODE":0,"TOWNNAME":"歸仁區","LI":"辜厝里","LIN":"17鄰","STREET":"大順街","SECT":" ","MAREA":" ","LANE":" ","ALLEY":" ","HOUSE_NO":"１３號八樓","E_COORD97":177457.67999999999,"N_COORD97":2540505.9500000002,"ADDRESS":"大順街１３號八樓","OBJECTID":319325},"geometry":{"x":177457.68000000063,"y":2540505.9500000011}},{"attributes":{"ID":319334,"DIS_CODE":0,"TOWNNAME":"新營區","LI":"民榮里","LIN":"17鄰","STREET":"富強街","SECT":" ","MAREA":" ","LANE":" ","ALLEY":" ","HOUSE_NO":"３４號五樓","E_COORD97":178988.16,"N_COORD97":2577803.4500000002,"ADDRESS":"富強街３４號五樓","OBJECTID":319326},"geometry":{"x":178988.16000000015,"y":2577803.4500000011}},{"attributes":{"ID":319335,"DIS_CODE":0,"TOWNNAME":"歸仁區","LI":"看東里","LIN":"11鄰","STREET":"中山一街","SECT":" ","MAREA":" ","LANE":" ","ALLEY":" ","HOUSE_NO":"１０６號","E_COORD97":178642.49199899999,"N_COORD97":2540388.6780599998,"ADDRESS":"中山一街１０６號","OBJECTID":319327},"geometry":{"x":178642.49199900031,"y":2540388.6780639999}},{"attributes":{"ID":319336,"DIS_CODE":0,"TOWNNAME":"關廟區","LI":"山西里","LIN":"16鄰","STREET":"崇仁街","SECT":" ","MAREA":" ","LANE":" ","ALLEY":" ","HOUSE_NO":"２８號","E_COORD97":180982.81396500001,"N_COORD97":2540424.3165799999,"ADDRESS":"崇仁街２８號","OBJECTID":319328},"geometry":{"x":180982.81396500114,"y":2540424.3165780008}},{"attributes":{"ID":319337,"DIS_CODE":0,"TOWNNAME":"北區","LI":"國姓里","LIN":" ","STREET":"小北路","SECT":" ","MAREA":" ","LANE":"７５巷","ALLEY":" ","HOUSE_NO":"９號","E_COORD97":168855.53,"N_COORD97":2545316.79,"ADDRESS":"小北路７５巷９號","OBJECTID":319329},"geometry":{"x":168855.53000000026,"y":2545316.790000001}},{"attributes":{"ID":319338,"DIS_CODE":0,"TOWNNAME":"北區","LI":"勝安里","LIN":" ","STREET":"開元路","SECT":" ","MAREA":" ","LANE":"７１巷","ALLEY":" ","HOUSE_NO":"２號","E_COORD97":169731.54999999999,"N_COORD97":2545240.4399999999,"ADDRESS":"開元路７１巷２號","OBJECTID":319330},"geometry":{"x":169731.54999999888,"y":2545240.4399999995}},{"attributes":{"ID":319339,"DIS_CODE":0,"TOWNNAME":"北區","LI":"勝安里","LIN":" ","STREET":"開元路","SECT":" ","MAREA":" ","LANE":"７１巷","ALLEY":" ","HOUSE_NO":"３２號","E_COORD97":169720.01999999999,"N_COORD97":2545306.3500000001,"ADDRESS":"開元路７１巷３２號","OBJECTID":319331},"geometry":{"x":169720.02000000048,"y":2545306.3500000034}},{"attributes":{"ID":319340,"DIS_CODE":0,"TOWNNAME":"學甲區","LI":"秀昌里","LIN":"12鄰","STREET":" ","SECT":" ","MAREA":"一秀","LANE":" ","ALLEY":" ","HOUSE_NO":"１３１號","E_COORD97":165752.57000000001,"N_COORD97":2571029.5299999998,"ADDRESS":"一秀１３１號","OBJECTID":319332},"geometry":{"x":165752.57000000123,"y":2571029.5299999993}},{"attributes":{"ID":319341,"DIS_CODE":0,"TOWNNAME":"北區","LI":"華興里","LIN":" ","STREET":"南園街","SECT":" ","MAREA":" ","LANE":"１２７巷","ALLEY":" ","HOUSE_NO":"４３號","E_COORD97":170731.41,"N_COORD97":2545288.0099999998,"ADDRESS":"南園街１２７巷４３號","OBJECTID":319333},"geometry":{"x":170731.41000000201,"y":2545288.0099999998}},{"attributes":{"ID":319342,"DIS_CODE":0,"TOWNNAME":"北區","LI":"國姓里","LIN":" ","STREET":"公園路","SECT":" ","MAREA":" ","LANE":" ","ALLEY":" ","HOUSE_NO":"４４９之１４號","E_COORD97":168980.06,"N_COORD97":2545434.8900000001,"ADDRESS":"公園路４４９之１４號","OBJECTID":319334},"geometry":{"x":168980.05999999959,"y":2545434.8900000006}},{"attributes":{"ID":319343,"DIS_CODE":0,"TOWNNAME":"北區","LI":"華興里","LIN":"1鄰","STREET":"開南街","SECT":" ","MAREA":" ","LANE":"３３巷","ALLEY":" ","HOUSE_NO":"１１號","E_COORD97":170344.07000000001,"N_COORD97":2545391.54,"ADDRESS":"開南街３３巷１１號","OBJECTID":319335},"geometry":{"x":170344.07000000216,"y":2545391.5399999991}},{"attributes":{"ID":319344,"DIS_CODE":0,"TOWNNAME":"北區","LI":"華興里","LIN":"1鄰","STREET":"開南街","SECT":" ","MAREA":" ","LANE":"３３巷","ALLEY":" ","HOUSE_NO":"１３號","E_COORD97":170347.28,"N_COORD97":2545394.1899999999,"ADDRESS":"開南街３３巷１３號","OBJECTID":319336},"geometry":{"x":170347.28000000026,"y":2545394.1899999995}},{"attributes":{"ID":319345,"DIS_CODE":0,"TOWNNAME":"北區","LI":"國姓里","LIN":" ","STREET":"公園路","SECT":" ","MAREA":" ","LANE":" ","ALLEY":" ","HOUSE_NO":"４４９之１５號","E_COORD97":168974.79000000001,"N_COORD97":2545437.1099999999,"ADDRESS":"公園路４４９之１５號","OBJECTID":319337},"geometry":{"x":168974.79000000097,"y":2545437.1100000013}},{"attributes":{"ID":319346,"DIS_CODE":0,"TOWNNAME":"北區","LI":"國姓里","LIN":" ","STREET":"公園路","SECT":" ","MAREA":" ","LANE":" ","ALLEY":" ","HOUSE_NO":"４４９之１７號","E_COORD97":168964.25,"N_COORD97":2545438.77,"ADDRESS":"公園路４４９之１７號","OBJECTID":319338},"geometry":{"x":168964.25000000186,"y":2545438.7699999996}},{"attributes":{"ID":319347,"DIS_CODE":0,"TOWNNAME":"北區","LI":"國姓里","LIN":" ","STREET":"公園路","SECT":" ","MAREA":" ","LANE":" ","ALLEY":" ","HOUSE_NO":"４４９之１８號","E_COORD97":168958.70000000001,"N_COORD97":2545439.0499999998,"ADDRESS":"公園路４４９之１８號","OBJECTID":319339},"geometry":{"x":168958.70000000112,"y":2545439.0500000026}},{"attributes":{"ID":319348,"DIS_CODE":0,"TOWNNAME":"北區","LI":"國姓里","LIN":" ","STREET":"公園路","SECT":" ","MAREA":" ","LANE":" ","ALLEY":" ","HOUSE_NO":"４４９之１９號","E_COORD97":168952.32000000001,"N_COORD97":2545440.71,"ADDRESS":"公園路４４９之１９號","OBJECTID":319340},"geometry":{"x":168952.32000000216,"y":2545440.709999999}},{"attributes":{"ID":319349,"DIS_CODE":0,"TOWNNAME":"北區","LI":"勝安里","LIN":" ","STREET":"開元路","SECT":" ","MAREA":" ","LANE":" ","ALLEY":" ","HOUSE_NO":"７１１４號","E_COORD97":169739.76000000001,"N_COORD97":2545258.25,"ADDRESS":"開元路７１１４號","OBJECTID":319341},"geometry":{"x":169739.75999999978,"y":2545258.2500000019}},{"attributes":{"ID":319350,"DIS_CODE":0,"TOWNNAME":"北區","LI":"勝安里","LIN":" ","STREET":"開元路","SECT":" ","MAREA":" ","LANE":" ","ALLEY":" ","HOUSE_NO":"１０９號之１１","E_COORD97":169788.64000000001,"N_COORD97":2545243.9100000001,"ADDRESS":"開元路１０９號之１１","OBJECTID":319342},"geometry":{"x":169788.64000000153,"y":2545243.9100000001}},{"attributes":{"ID":319351,"DIS_CODE":0,"TOWNNAME":"歸仁區","LI":"看東里","LIN":"11鄰","STREET":"中山一街","SECT":" ","MAREA":" ","LANE":" ","ALLEY":" ","HOUSE_NO":"１０２號","E_COORD97":178641.22048700001,"N_COORD97":2540392.69973,"ADDRESS":"中山一街１０２號","OBJECTID":319343},"geometry":{"x":178641.22048700228,"y":2540392.6997280009}},{"attributes":{"ID":319352,"DIS_CODE":0,"TOWNNAME":"中西區","LI":"西湖里","LIN":"30鄰","STREET":"西湖街","SECT":" ","MAREA":" ","LANE":" ","ALLEY":" ","HOUSE_NO":"２５６號","E_COORD97":166036.793902,"N_COORD97":2544940.69496,"ADDRESS":"西湖街２５６號","OBJECTID":319344},"geometry":{"x":166036.79390200041,"y":2544940.6949589998}},{"attributes":{"ID":319353,"DIS_CODE":0,"TOWNNAME":"北區","LI":"新勝里","LIN":" ","STREET":"北園街","SECT":" ","MAREA":" ","LANE":"５３巷","ALLEY":" ","HOUSE_NO":"１６號","E_COORD97":170314.76999999999,"N_COORD97":2545590.1499999999,"ADDRESS":"北園街５３巷１６號","OBJECTID":319345},"geometry":{"x":170314.77000000142,"y":2545590.1500000041}},{"attributes":{"ID":319354,"DIS_CODE":0,"TOWNNAME":"新營區","LI":"埤寮里","LIN":"7鄰","STREET":" ","SECT":" ","MAREA":"埤寮","LANE":" ","ALLEY":" ","HOUSE_NO":"２７號之１","E_COORD97":180413.54000000001,"N_COORD97":2580952.96,"ADDRESS":"埤寮２７號之１","OBJECTID":319346},"geometry":{"x":180413.54000000097,"y":2580952.9600000009}},{"attributes":{"ID":319355,"DIS_CODE":0,"TOWNNAME":"北區","LI":"新勝里","LIN":" ","STREET":"開元路","SECT":" ","MAREA":" ","LANE":"３３３巷","ALLEY":" ","HOUSE_NO":"２號之１","E_COORD97":170214.92000000001,"N_COORD97":2545446.1800000002,"ADDRESS":"開元路３３３巷２號之１","OBJECTID":319347},"geometry":{"x":170214.92000000086,"y":2545446.1799999997}},{"attributes":{"ID":319356,"DIS_CODE":0,"TOWNNAME":"北區","LI":"興北里","LIN":"4鄰","STREET":"公園北路","SECT":" ","MAREA":" ","LANE":"７８巷","ALLEY":" ","HOUSE_NO":"６號","E_COORD97":169175.97,"N_COORD97":2545012.4300000002,"ADDRESS":"公園北路７８巷６號","OBJECTID":319348},"geometry":{"x":169175.96999999881,"y":2545012.4300000016}},{"attributes":{"ID":319357,"DIS_CODE":0,"TOWNNAME":"佳里區","LI":"鎮山里","LIN":"15鄰","STREET":"仁愛路","SECT":" ","MAREA":" ","LANE":"２５７巷","ALLEY":" ","HOUSE_NO":"５號","E_COORD97":166124.22,"N_COORD97":2561414.7999999998,"ADDRESS":"仁愛路２５７巷５號","OBJECTID":319349},"geometry":{"x":166124.21999999974,"y":2561414.8000000007}},{"attributes":{"ID":319358,"DIS_CODE":0,"TOWNNAME":"白河區","LI":"玉豐里","LIN":" ","STREET":" ","SECT":" ","MAREA":"海豐厝","LANE":" ","ALLEY":" ","HOUSE_NO":"８號","E_COORD97":190509.64999999999,"N_COORD97":2586482.1099999999,"ADDRESS":"海豐厝８號","OBJECTID":319350},"geometry":{"x":190509.6500000013,"y":2586482.1100000013}},{"attributes":{"ID":319359,"DIS_CODE":0,"TOWNNAME":"佳里區","LI":"鎮山里","LIN":"15鄰","STREET":"仁愛路","SECT":" ","MAREA":" ","LANE":"２５７巷","ALLEY":" ","HOUSE_NO":"７號","E_COORD97":166123.97,"N_COORD97":2561406.1299999999,"ADDRESS":"仁愛路２５７巷７號","OBJECTID":319351},"geometry":{"x":166123.96999999974,"y":2561406.1300000008}},{"attributes":{"ID":319360,"DIS_CODE":0,"TOWNNAME":"佳里區","LI":"鎮山里","LIN":"15鄰","STREET":"仁愛路","SECT":" ","MAREA":" ","LANE":"２５７巷","ALLEY":" ","HOUSE_NO":"８號","E_COORD97":166123.95000000001,"N_COORD97":2561402.5299999998,"ADDRESS":"仁愛路２５７巷８號","OBJECTID":319352},"geometry":{"x":166123.95000000112,"y":2561402.5300000031}},{"attributes":{"ID":319361,"DIS_CODE":0,"TOWNNAME":"佳里區","LI":"鎮山里","LIN":"15鄰","STREET":"仁愛路","SECT":" ","MAREA":" ","LANE":"２５７巷","ALLEY":" ","HOUSE_NO":"９號","E_COORD97":166124.34,"N_COORD97":2561398.1699999999,"ADDRESS":"仁愛路２５７巷９號","OBJECTID":319353},"geometry":{"x":166124.34000000078,"y":2561398.1699999999}},{"attributes":{"ID":319362,"DIS_CODE":0,"TOWNNAME":"南區","LI":"開南里","LIN":"17鄰","STREET":"新建路","SECT":" ","MAREA":" ","LANE":"２４巷","ALLEY":" ","HOUSE_NO":"２號","E_COORD97":166424.95999999999,"N_COORD97":2541140.1800000002,"ADDRESS":"新建路２４巷２號","OBJECTID":319354},"geometry":{"x":166424.95999999996,"y":2541140.1799999997}},{"attributes":{"ID":319363,"DIS_CODE":0,"TOWNNAME":"佳里區","LI":"建南里","LIN":"15鄰","STREET":"公園路","SECT":" ","MAREA":" ","LANE":"２５０巷","ALLEY":" ","HOUSE_NO":"１１號","E_COORD97":165331.17999999999,"N_COORD97":2562006.73,"ADDRESS":"公園路２５０巷１１號","OBJECTID":319355},"geometry":{"x":165331.1799999997,"y":2562006.7300000023}},{"attributes":{"ID":319364,"DIS_CODE":0,"TOWNNAME":"佳里區","LI":"建南里","LIN":"15鄰","STREET":"公園路","SECT":" ","MAREA":" ","LANE":"２５０巷","ALLEY":" ","HOUSE_NO":"１３號","E_COORD97":165346.26000000001,"N_COORD97":2562004.7799999998,"ADDRESS":"公園路２５０巷１３號","OBJECTID":319356},"geometry":{"x":165346.25999999978,"y":2562004.7800000012}},{"attributes":{"ID":319365,"DIS_CODE":0,"TOWNNAME":"佳里區","LI":"建南里","LIN":"15鄰","STREET":"公園路","SECT":" ","MAREA":" ","LANE":"２６０巷","ALLEY":" ","HOUSE_NO":"１１號","E_COORD97":165328.25,"N_COORD97":2562066.4900000002,"ADDRESS":"公園路２６０巷１１號","OBJECTID":319357},"geometry":{"x":165328.25000000093,"y":2562066.4900000002}},{"attributes":{"ID":319366,"DIS_CODE":0,"TOWNNAME":"佳里區","LI":"建南里","LIN":"15鄰","STREET":"公園路","SECT":" ","MAREA":" ","LANE":"２６０巷","ALLEY":" ","HOUSE_NO":"１２號","E_COORD97":165330.5,"N_COORD97":2562019.4300000002,"ADDRESS":"公園路２６０巷１２號","OBJECTID":319358},"geometry":{"x":165330.50000000093,"y":2562019.4299999997}},{"attributes":{"ID":319367,"DIS_CODE":0,"TOWNNAME":"佳里區","LI":"建南里","LIN":"15鄰","STREET":"公園路","SECT":" ","MAREA":" ","LANE":"２６０巷","ALLEY":" ","HOUSE_NO":"１３號","E_COORD97":165327.73999999999,"N_COORD97":2562071.2599999998,"ADDRESS":"公園路２６０巷１３號","OBJECTID":319359},"geometry":{"x":165327.74000000022,"y":2562071.2599999998}},{"attributes":{"ID":319368,"DIS_CODE":0,"TOWNNAME":"佳里區","LI":"建南里","LIN":"15鄰","STREET":"公園路","SECT":" ","MAREA":" ","LANE":"２６０巷","ALLEY":" ","HOUSE_NO":"１５號","E_COORD97":165327.19,"N_COORD97":2562076.0800000001,"ADDRESS":"公園路２６０巷１５號","OBJECTID":319360},"geometry":{"x":165327.19000000227,"y":2562076.0800000001}},{"attributes":{"ID":319369,"DIS_CODE":0,"TOWNNAME":"佳里區","LI":"建南里","LIN":"15鄰","STREET":"公園路","SECT":" ","MAREA":" ","LANE":"２６０巷","ALLEY":" ","HOUSE_NO":"１６號","E_COORD97":165344.64000000001,"N_COORD97":2562019.3199999998,"ADDRESS":"公園路２６０巷１６號","OBJECTID":319361},"geometry":{"x":165344.63999999966,"y":2562019.3200000022}},{"attributes":{"ID":319370,"DIS_CODE":0,"TOWNNAME":"佳里區","LI":"建南里","LIN":"15鄰","STREET":"公園路","SECT":" ","MAREA":" ","LANE":"２６０巷","ALLEY":" ","HOUSE_NO":"１７號","E_COORD97":165326.63,"N_COORD97":2562080.9300000002,"ADDRESS":"公園路２６０巷１７號","OBJECTID":319362},"geometry":{"x":165326.62999999989,"y":2562080.9299999997}},{"attributes":{"ID":319371,"DIS_CODE":0,"TOWNNAME":"佳里區","LI":"建南里","LIN":"15鄰","STREET":"公園路","SECT":" ","MAREA":" ","LANE":"２６０巷","ALLEY":" ","HOUSE_NO":"１８號","E_COORD97":165360.39000000001,"N_COORD97":2562023.5499999998,"ADDRESS":"公園路２６０巷１８號","OBJECTID":319363},"geometry":{"x":165360.38999999966,"y":2562023.5500000007}},{"attributes":{"ID":319372,"DIS_CODE":0,"TOWNNAME":"佳里區","LI":"建南里","LIN":"15鄰","STREET":"公園路","SECT":" ","MAREA":" ","LANE":"２６０巷","ALLEY":" ","HOUSE_NO":"１９號之１","E_COORD97":165325.44,"N_COORD97":2562091.54,"ADDRESS":"公園路２６０巷１９號之１","OBJECTID":319364},"geometry":{"x":165325.43999999948,"y":2562091.540000001}},{"attributes":{"ID":319373,"DIS_CODE":0,"TOWNNAME":"佳里區","LI":"建南里","LIN":"15鄰","STREET":"公園路","SECT":" ","MAREA":" ","LANE":"２６０巷","ALLEY":" ","HOUSE_NO":"１９號之２","E_COORD97":165324.84,"N_COORD97":2562096.0099999998,"ADDRESS":"公園路２６０巷１９號之２","OBJECTID":319365},"geometry":{"x":165324.83999999985,"y":2562096.0100000016}},{"attributes":{"ID":319374,"DIS_CODE":0,"TOWNNAME":"佳里區","LI":"建南里","LIN":"15鄰","STREET":"公園路","SECT":" ","MAREA":" ","LANE":"２６０巷","ALLEY":" ","HOUSE_NO":"１９號","E_COORD97":165326.14000000001,"N_COORD97":2562086.2799999998,"ADDRESS":"公園路２６０巷１９號","OBJECTID":319366},"geometry":{"x":165326.13999999966,"y":2562086.2800000012}},{"attributes":{"ID":319375,"DIS_CODE":0,"TOWNNAME":"新營區","LI":"忠政里","LIN":"17鄰","STREET":"府西路","SECT":" ","MAREA":" ","LANE":" ","ALLEY":" ","HOUSE_NO":"２５６號五樓之１","E_COORD97":179806.54999999999,"N_COORD97":2579697.77,"ADDRESS":"府西路２５６號五樓之１","OBJECTID":319367},"geometry":{"x":179806.55000000075,"y":2579697.7699999996}},{"attributes":{"ID":319376,"DIS_CODE":0,"TOWNNAME":"新營區","LI":"民榮里","LIN":"17鄰","STREET":"富強街","SECT":" ","MAREA":" ","LANE":" ","ALLEY":" ","HOUSE_NO":"３６號七樓","E_COORD97":178988.16,"N_COORD97":2577803.4500000002,"ADDRESS":"富強街３６號七樓","OBJECTID":319368},"geometry":{"x":178988.16000000015,"y":2577803.4500000011}},{"attributes":{"ID":319377,"DIS_CODE":0,"TOWNNAME":"新營區","LI":"民榮里","LIN":"17鄰","STREET":"富強街","SECT":" ","MAREA":" ","LANE":" ","ALLEY":" ","HOUSE_NO":"３８號三樓","E_COORD97":178988.16,"N_COORD97":2577803.4500000002,"ADDRESS":"富強街３８號三樓","OBJECTID":319369},"geometry":{"x":178988.16000000015,"y":2577803.4500000011}},{"attributes":{"ID":319378,"DIS_CODE":0,"TOWNNAME":"新營區","LI":"民榮里","LIN":"17鄰","STREET":"富強街","SECT":" ","MAREA":" ","LANE":" ","ALLEY":" ","HOUSE_NO":"３２號三樓","E_COORD97":178988.16,"N_COORD97":2577803.4500000002,"ADDRESS":"富強街３２號三樓","OBJECTID":319370},"geometry":{"x":178988.16000000015,"y":2577803.4500000011}},{"attributes":{"ID":319379,"DIS_CODE":0,"TOWNNAME":"新營區","LI":"大宏里","LIN":"18鄰","STREET":"民族路","SECT":" ","MAREA":" ","LANE":" ","ALLEY":" ","HOUSE_NO":"１８號之７","E_COORD97":180303.10999999999,"N_COORD97":2578584.6400000001,"ADDRESS":"民族路１８號之７","OBJECTID":319371},"geometry":{"x":180303.1100000022,"y":2578584.6400000006}},{"attributes":{"ID":319380,"DIS_CODE":0,"TOWNNAME":"新營區","LI":"南興里","LIN":"3鄰","STREET":"南昌街","SECT":" ","MAREA":" ","LANE":" ","ALLEY":" ","HOUSE_NO":"１９號之１０","E_COORD97":179600.29999999999,"N_COORD97":2577652.1699999999,"ADDRESS":"南昌街１９號之１０","OBJECTID":319372},"geometry":{"x":179600.29999999981,"y":2577652.1700000037}},{"attributes":{"ID":319381,"DIS_CODE":0,"TOWNNAME":"北區","LI":"大和里","LIN":"6鄰","STREET":"大興街","SECT":" ","MAREA":" ","LANE":"１３２巷","ALLEY":" ","HOUSE_NO":"６３號","E_COORD97":167008.64999999999,"N_COORD97":2545907.48,"ADDRESS":"大興街１３２巷６３號","OBJECTID":319373},"geometry":{"x":167008.65000000037,"y":2545907.4800000023}},{"attributes":{"ID":319382,"DIS_CODE":0,"TOWNNAME":"北區","LI":"大和里","LIN":"6鄰","STREET":"大興街","SECT":" ","MAREA":" ","LANE":"１３２巷","ALLEY":" ","HOUSE_NO":"６１號","E_COORD97":167009.14999999999,"N_COORD97":2545902.9100000001,"ADDRESS":"大興街１３２巷６１號","OBJECTID":319374},"geometry":{"x":167009.15000000224,"y":2545902.9100000001}},{"attributes":{"ID":319383,"DIS_CODE":0,"TOWNNAME":"北區","LI":"大和里","LIN":"10鄰","STREET":"文賢路","SECT":" ","MAREA":" ","LANE":"７３５巷","ALLEY":" ","HOUSE_NO":"３９號","E_COORD97":167257.92000000001,"N_COORD97":2546108.8500000001,"ADDRESS":"文賢路７３５巷３９號","OBJECTID":319375},"geometry":{"x":167257.92000000086,"y":2546108.8499999996}},{"attributes":{"ID":319384,"DIS_CODE":0,"TOWNNAME":"北區","LI":"大和里","LIN":"10鄰","STREET":"文賢路","SECT":" ","MAREA":" ","LANE":"７３５巷","ALLEY":" ","HOUSE_NO":"４１號","E_COORD97":167240.89999999999,"N_COORD97":2546103.2599999998,"ADDRESS":"文賢路７３５巷４１號","OBJECTID":319376},"geometry":{"x":167240.90000000037,"y":2546103.2599999998}},{"attributes":{"ID":319385,"DIS_CODE":0,"TOWNNAME":"北區","LI":"大豐里","LIN":"21鄰","STREET":"大興街","SECT":" ","MAREA":" ","LANE":"２７５巷","ALLEY":" ","HOUSE_NO":"５４之１號","E_COORD97":166743.70000000001,"N_COORD97":2545546.2000000002,"ADDRESS":"大興街２７５巷５４之１號","OBJECTID":319377},"geometry":{"x":166743.70000000019,"y":2545546.1999999993}},{"attributes":{"ID":319386,"DIS_CODE":0,"TOWNNAME":"佳里區","LI":"建南里","LIN":"15鄰","STREET":"公園路","SECT":" ","MAREA":" ","LANE":"２６０巷","ALLEY":" ","HOUSE_NO":"１號","E_COORD97":165330.13,"N_COORD97":2562037.8999999999,"ADDRESS":"公園路２６０巷１號","OBJECTID":319378},"geometry":{"x":165330.12999999989,"y":2562037.9000000004}},{"attributes":{"ID":319387,"DIS_CODE":0,"TOWNNAME":"佳里區","LI":"建南里","LIN":"15鄰","STREET":"公園路","SECT":" ","MAREA":" ","LANE":"２６０巷","ALLEY":" ","HOUSE_NO":"２０號","E_COORD97":165360.82999999999,"N_COORD97":2562017.9500000002,"ADDRESS":"公園路２６０巷２０號","OBJECTID":319379},"geometry":{"x":165360.83000000007,"y":2562017.9500000011}},{"attributes":{"ID":319388,"DIS_CODE":0,"TOWNNAME":"佳里區","LI":"建南里","LIN":"15鄰","STREET":"公園路","SECT":" ","MAREA":" ","LANE":"２６０巷","ALLEY":" ","HOUSE_NO":"２１號","E_COORD97":165342.66,"N_COORD97":2562041.3599999999,"ADDRESS":"公園路２６０巷２１號","OBJECTID":319380},"geometry":{"x":165342.66000000108,"y":2562041.3600000013}},{"attributes":{"ID":319389,"DIS_CODE":0,"TOWNNAME":"佳里區","LI":"建南里","LIN":"15鄰","STREET":"公園路","SECT":" ","MAREA":" ","LANE":"２６０巷","ALLEY":" ","HOUSE_NO":"２２號","E_COORD97":165361.39000000001,"N_COORD97":2562012.73,"ADDRESS":"公園路２６０巷２２號","OBJECTID":319381},"geometry":{"x":165361.3900000006,"y":2562012.7300000042}},{"attributes":{"ID":319390,"DIS_CODE":0,"TOWNNAME":"佳里區","LI":"建南里","LIN":"15鄰","STREET":"公園路","SECT":" ","MAREA":" ","LANE":"２６０巷","ALLEY":" ","HOUSE_NO":"２３號","E_COORD97":165347.10999999999,"N_COORD97":2562041.79,"ADDRESS":"公園路２６０巷２３號","OBJECTID":319382},"geometry":{"x":165347.11000000127,"y":2562041.790000001}},{"attributes":{"ID":319391,"DIS_CODE":0,"TOWNNAME":"新營區","LI":"民榮里","LIN":"17鄰","STREET":"富強街","SECT":" ","MAREA":" ","LANE":" ","ALLEY":" ","HOUSE_NO":"２８號七樓","E_COORD97":178988.14000000001,"N_COORD97":2577803.4500000002,"ADDRESS":"富強街２８號七樓","OBJECTID":319383},"geometry":{"x":178988.13999999966,"y":2577803.4500000011}},{"attributes":{"ID":319392,"DIS_CODE":0,"TOWNNAME":"歸仁區","LI":"許厝里","LIN":"17鄰","STREET":"忠孝北路","SECT":" ","MAREA":" ","LANE":" ","ALLEY":" ","HOUSE_NO":"２５號三樓","E_COORD97":178444.22,"N_COORD97":2540724.25,"ADDRESS":"忠孝北路２５號三樓","OBJECTID":319384},"geometry":{"x":178444.22000000067,"y":2540724.2500000019}},{"attributes":{"ID":319393,"DIS_CODE":0,"TOWNNAME":"歸仁區","LI":"許厝里","LIN":"17鄰","STREET":"忠孝北路","SECT":" ","MAREA":" ","LANE":" ","ALLEY":" ","HOUSE_NO":"３１號三樓","E_COORD97":178444.22,"N_COORD97":2540724.25,"ADDRESS":"忠孝北路３１號三樓","OBJECTID":319385},"geometry":{"x":178444.22000000067,"y":2540724.2500000019}},{"attributes":{"ID":319394,"DIS_CODE":0,"TOWNNAME":"歸仁區","LI":"許厝里","LIN":"17鄰","STREET":"忠孝北路","SECT":" ","MAREA":" ","LANE":" ","ALLEY":" ","HOUSE_NO":"１９號五樓","E_COORD97":178444.22,"N_COORD97":2540724.25,"ADDRESS":"忠孝北路１９號五樓","OBJECTID":319386},"geometry":{"x":178444.22000000067,"y":2540724.2500000019}},{"attributes":{"ID":319395,"DIS_CODE":0,"TOWNNAME":"歸仁區","LI":"辜厝里","LIN":"17鄰","STREET":"大順街","SECT":" ","MAREA":" ","LANE":" ","ALLEY":" ","HOUSE_NO":"７號五樓","E_COORD97":177457.42999999999,"N_COORD97":2540505.9500000002,"ADDRESS":"大順街７號五樓","OBJECTID":319387},"geometry":{"x":177457.43000000156,"y":2540505.9500000011}},{"attributes":{"ID":319396,"DIS_CODE":0,"TOWNNAME":"歸仁區","LI":"辜厝里","LIN":"17鄰","STREET":"大順街","SECT":" ","MAREA":" ","LANE":" ","ALLEY":" ","HOUSE_NO":"７號九樓","E_COORD97":177457.42999999999,"N_COORD97":2540505.9500000002,"ADDRESS":"大順街７號九樓","OBJECTID":319388},"geometry":{"x":177457.43000000156,"y":2540505.9500000011}},{"attributes":{"ID":319397,"DIS_CODE":0,"TOWNNAME":"佳里區","LI":"忠仁里","LIN":"17鄰","STREET":"忠仁街","SECT":" ","MAREA":" ","LANE":" ","ALLEY":" ","HOUSE_NO":"９號","E_COORD97":166052.79000000001,"N_COORD97":2561956.75,"ADDRESS":"忠仁街９號","OBJECTID":319389},"geometry":{"x":166052.79000000004,"y":2561956.75}},{"attributes":{"ID":319398,"DIS_CODE":0,"TOWNNAME":"歸仁區","LI":"辜厝里","LIN":"17鄰","STREET":"大順街","SECT":" ","MAREA":" ","LANE":" ","ALLEY":" ","HOUSE_NO":"１３號二樓","E_COORD97":177457.67999999999,"N_COORD97":2540505.9500000002,"ADDRESS":"大順街１３號二樓","OBJECTID":319390},"geometry":{"x":177457.68000000063,"y":2540505.9500000011}},{"attributes":{"ID":319399,"DIS_CODE":0,"TOWNNAME":"東區","LI":"大同里","LIN":"1鄰","STREET":"東門路","SECT":"一段","MAREA":" ","LANE":" ","ALLEY":" ","HOUSE_NO":"２８號","E_COORD97":169254.54999999999,"N_COORD97":2543212.9300000002,"ADDRESS":"東門路一段２８號","OBJECTID":319391},"geometry":{"x":169254.54999999981,"y":2543212.9299999997}},{"attributes":{"ID":319400,"DIS_CODE":0,"TOWNNAME":"山上區","LI":"明和里","LIN":"11鄰","STREET":" ","SECT":" ","MAREA":"明和","LANE":" ","ALLEY":" ","HOUSE_NO":"１９０之１號","E_COORD97":183343.69566299999,"N_COORD97":2556136.7308499999,"ADDRESS":"明和１９０之１號","OBJECTID":319392},"geometry":{"x":183343.69566299953,"y":2556136.7308499999}},{"attributes":{"ID":319401,"DIS_CODE":0,"TOWNNAME":"歸仁區","LI":"大廟里","LIN":"5鄰","STREET":"和順路","SECT":"二段","MAREA":" ","LANE":"２９７巷","ALLEY":" ","HOUSE_NO":"３０號","E_COORD97":175746.32393799999,"N_COORD97":2543506.3251200002,"ADDRESS":"和順路二段２９７巷３０號","OBJECTID":319393},"geometry":{"x":175746.32393800095,"y":2543506.3251180034}},{"attributes":{"ID":319402,"DIS_CODE":0,"TOWNNAME":"新營區","LI":"五興里","LIN":"9鄰","STREET":" ","SECT":" ","MAREA":"五間厝","LANE":" ","ALLEY":" ","HOUSE_NO":"１０２號之２","E_COORD97":175590.70999999999,"N_COORD97":2574853.2799999998,"ADDRESS":"五間厝１０２之２號","OBJECTID":319394},"geometry":{"x":175590.70999999996,"y":2574853.2799999993}},{"attributes":{"ID":319403,"DIS_CODE":0,"TOWNNAME":"新營區","LI":"護鎮里","LIN":" ","STREET":" ","SECT":" ","MAREA":"後鎮","LANE":" ","ALLEY":" ","HOUSE_NO":"６２之８號","E_COORD97":179020.72,"N_COORD97":2581198.7799999998,"ADDRESS":"後鎮６２之８號","OBJECTID":319395},"geometry":{"x":179020.72000000067,"y":2581198.7800000012}},{"attributes":{"ID":319404,"DIS_CODE":0,"TOWNNAME":"新營區","LI":"埤寮里","LIN":"12鄰","STREET":" ","SECT":" ","MAREA":"埤寮","LANE":" ","ALLEY":" ","HOUSE_NO":"９５號之２","E_COORD97":180491,"N_COORD97":2580702.3100000001,"ADDRESS":"埤寮９５號之２","OBJECTID":319396},"geometry":{"x":180491,"y":2580702.3100000005}},{"attributes":{"ID":319405,"DIS_CODE":0,"TOWNNAME":"新營區","LI":"土庫里","LIN":"17鄰","STREET":"卯舍","SECT":" ","MAREA":" ","LANE":" ","ALLEY":" ","HOUSE_NO":"７０之１號","E_COORD97":181267.34623200001,"N_COORD97":2580141.7756400001,"ADDRESS":"卯舍７０之１號","OBJECTID":319397},"geometry":{"x":181267.34623199981,"y":2580141.775642002}},{"attributes":{"ID":319406,"DIS_CODE":0,"TOWNNAME":"新營區","LI":"五興里","LIN":"4鄰","STREET":" ","SECT":" ","MAREA":"五間厝","LANE":" ","ALLEY":" ","HOUSE_NO":"５０號之２","E_COORD97":175768.42000000001,"N_COORD97":2574832.4500000002,"ADDRESS":"五間厝５０之２號","OBJECTID":319398},"geometry":{"x":175768.41999999993,"y":2574832.4500000011}},{"attributes":{"ID":319407,"DIS_CODE":0,"TOWNNAME":"歸仁區","LI":"大廟里","LIN":"5鄰","STREET":"和順路","SECT":"二段","MAREA":" ","LANE":" ","ALLEY":" ","HOUSE_NO":"１６３號","E_COORD97":176122.08463999999,"N_COORD97":2543600.1992299999,"ADDRESS":"和順路二段１６３號","OBJECTID":319399},"geometry":{"x":176122.08464000188,"y":2543600.1992339995}},{"attributes":{"ID":319408,"DIS_CODE":0,"TOWNNAME":"歸仁區","LI":"大廟里","LIN":"6鄰","STREET":"和順路","SECT":"二段","MAREA":" ","LANE":" ","ALLEY":" ","HOUSE_NO":"２１６號","E_COORD97":175937.593337,"N_COORD97":2543629.30339,"ADDRESS":"和順路二段２１６號","OBJECTID":319400},"geometry":{"x":175937.59333700128,"y":2543629.3033850025}}]}