{"displayFieldName":"TOWNNAME","fieldAliases":{"ID":"ID","DIS_CODE":"DIS_CODE","TOWNNAME":"TOWNNAME","LI":"LI","LIN":"LIN","STREET":"STREET","SECT":"SECT","MAREA":"MAREA","LANE":"LANE","ALLEY":"ALLEY","HOUSE_NO":"HOUSE_NO","E_COORD97":"E_COORD97","N_COORD97":"N_COORD97","ADDRESS":"ADDRESS","OBJECTID":"OBJECTID"},"geometryType":"esriGeometryPoint","spatialReference":{"wkid":102443,"latestWkid":3826},"fields":[{"name":"ID","type":"esriFieldTypeDouble","alias":"ID"},{"name":"DIS_CODE","type":"esriFieldTypeInteger","alias":"DIS_CODE"},{"name":"TOWNNAME","type":"esriFieldTypeString","alias":"TOWNNAME","length":8},{"name":"LI","type":"esriFieldTypeString","alias":"LI","length":8},{"name":"LIN","type":"esriFieldTypeString","alias":"LIN","length":12},{"name":"STREET","type":"esriFieldTypeString","alias":"STREET","length":20},{"name":"SECT","type":"esriFieldTypeString","alias":"SECT","length":8},{"name":"MAREA","type":"esriFieldTypeString","alias":"MAREA","length":12},{"name":"LANE","type":"esriFieldTypeString","alias":"LANE","length":10},{"name":"ALLEY","type":"esriFieldTypeString","alias":"ALLEY","length":10},{"name":"HOUSE_NO","type":"esriFieldTypeString","alias":"HOUSE_NO","length":20},{"name":"E_COORD97","type":"esriFieldTypeDouble","alias":"E_COORD97"},{"name":"N_COORD97","type":"esriFieldTypeDouble","alias":"N_COORD97"},{"name":"ADDRESS","type":"esriFieldTypeString","alias":"ADDRESS","length":50},{"name":"OBJECTID","type":"esriFieldTypeOID","alias":"OBJECTID"}],"features":[{"attributes":{"ID":234405,"DIS_CODE":0,"TOWNNAME":"麻豆區","LI":"寮\u25A0里","LIN":"16鄰","STREET":" ","SECT":" ","MAREA":"寮子\u25A0","LANE":" ","ALLEY":" ","HOUSE_NO":"１２８號之１","E_COORD97":176472.72,"N_COORD97":2565311.8300000001,"ADDRESS":"寮子\u25A0１２８號之１","OBJECTID":234401},"geometry":{"x":176472.72000000067,"y":2565311.8300000019}},{"attributes":{"ID":234406,"DIS_CODE":0,"TOWNNAME":"永康區","LI":"\u25A0洲里","LIN":"25鄰","STREET":"國聖街","SECT":" ","MAREA":" ","LANE":"１６７巷","ALLEY":" ","HOUSE_NO":"２２號","E_COORD97":170617.44,"N_COORD97":2548301.5,"ADDRESS":"國聖街１６７巷２２號","OBJECTID":234402},"geometry":{"x":170617.44000000041,"y":2548301.5}},{"attributes":{"ID":234407,"DIS_CODE":0,"TOWNNAME":"永康區","LI":"\u25A0洲里","LIN":"4鄰","STREET":"\u25A0洲二街","SECT":" ","MAREA":" ","LANE":"１１１巷","ALLEY":" ","HOUSE_NO":"１８號","E_COORD97":171591.07000000001,"N_COORD97":2549346.5,"ADDRESS":"\u25A0洲二街１１１巷１８號","OBJECTID":234403},"geometry":{"x":171591.0700000003,"y":2549346.5}},{"attributes":{"ID":234408,"DIS_CODE":0,"TOWNNAME":"麻豆區","LI":"寮\u25A0里","LIN":"16鄰","STREET":" ","SECT":" ","MAREA":"寮子\u25A0","LANE":" ","ALLEY":" ","HOUSE_NO":"１２８號","E_COORD97":176484.85999999999,"N_COORD97":2565324.2400000002,"ADDRESS":"寮子\u25A0１２８號","OBJECTID":234404},"geometry":{"x":176484.86000000034,"y":2565324.2400000002}},{"attributes":{"ID":234409,"DIS_CODE":0,"TOWNNAME":"麻豆區","LI":"寮\u25A0里","LIN":"16鄰","STREET":" ","SECT":" ","MAREA":"寮子\u25A0","LANE":" ","ALLEY":" ","HOUSE_NO":"１２９號","E_COORD97":176474.09,"N_COORD97":2565291.98,"ADDRESS":"寮子\u25A0１２９號","OBJECTID":234405},"geometry":{"x":176474.08999999985,"y":2565291.9800000004}},{"attributes":{"ID":234410,"DIS_CODE":0,"TOWNNAME":"永康區","LI":"\u25A0洲里","LIN":"25鄰","STREET":"國聖街","SECT":" ","MAREA":" ","LANE":"１６７巷","ALLEY":" ","HOUSE_NO":"３２號","E_COORD97":170587.89000000001,"N_COORD97":2548315.25,"ADDRESS":"國聖街１６７巷３２號","OBJECTID":234406},"geometry":{"x":170587.88999999966,"y":2548315.2500000019}},{"attributes":{"ID":234411,"DIS_CODE":0,"TOWNNAME":"佳里區","LI":"鎮山里","LIN":"14鄰","STREET":"安南路","SECT":" ","MAREA":" ","LANE":" ","ALLEY":" ","HOUSE_NO":"２０號","E_COORD97":166014.79000000001,"N_COORD97":2561365.2400000002,"ADDRESS":"安南路２０號","OBJECTID":234407},"geometry":{"x":166014.79000000097,"y":2561365.2400000021}},{"attributes":{"ID":234412,"DIS_CODE":0,"TOWNNAME":"歸仁區","LI":"後市里","LIN":"16鄰","STREET":"民族南街","SECT":" ","MAREA":" ","LANE":"１８巷","ALLEY":" ","HOUSE_NO":"１０號","E_COORD97":177380.54000000001,"N_COORD97":2540749.5499999998,"ADDRESS":"民族南街１８巷１０號","OBJECTID":234408},"geometry":{"x":177380.53999999911,"y":2540749.5500000045}},{"attributes":{"ID":234413,"DIS_CODE":0,"TOWNNAME":"永康區","LI":"新樹里","LIN":" ","STREET":"富強路","SECT":"二段","MAREA":" ","LANE":"５６巷","ALLEY":" ","HOUSE_NO":"８４號","E_COORD97":175784.01000000001,"N_COORD97":2547082.2400000002,"ADDRESS":"富強路二段５６巷８４號","OBJECTID":234409},"geometry":{"x":175784.01000000071,"y":2547082.2400000021}},{"attributes":{"ID":234414,"DIS_CODE":0,"TOWNNAME":"永康區","LI":"\u25A0洲里","LIN":" ","STREET":"洲尾街","SECT":" ","MAREA":" ","LANE":"１４６巷","ALLEY":" ","HOUSE_NO":"２５號","E_COORD97":171017.89999999999,"N_COORD97":2549075.3399999999,"ADDRESS":"洲尾街１４６巷２５號","OBJECTID":234410},"geometry":{"x":171017.90000000037,"y":2549075.3399999999}},{"attributes":{"ID":234415,"DIS_CODE":0,"TOWNNAME":"永康區","LI":"\u25A0洲里","LIN":" ","STREET":"洲尾街","SECT":" ","MAREA":" ","LANE":"１４６巷","ALLEY":" ","HOUSE_NO":"２３號","E_COORD97":171022.04999999999,"N_COORD97":2549075.3399999999,"ADDRESS":"洲尾街１４６巷２３號","OBJECTID":234411},"geometry":{"x":171022.05000000075,"y":2549075.3399999999}},{"attributes":{"ID":234416,"DIS_CODE":0,"TOWNNAME":"永康區","LI":"南灣里","LIN":" ","STREET":"大灣一街","SECT":" ","MAREA":" ","LANE":"１３１巷","ALLEY":" ","HOUSE_NO":"１０號","E_COORD97":174588.17000000001,"N_COORD97":2544690.6499999999,"ADDRESS":"大灣一街１３１巷１０號","OBJECTID":234412},"geometry":{"x":174588.17000000086,"y":2544690.6500000004}},{"attributes":{"ID":234417,"DIS_CODE":0,"TOWNNAME":"永康區","LI":"中華里","LIN":"25鄰","STREET":"忠義街","SECT":" ","MAREA":" ","LANE":"８１巷","ALLEY":" ","HOUSE_NO":"３號","E_COORD97":171702.51999999999,"N_COORD97":2544651.3399999999,"ADDRESS":"忠義街８１巷３號","OBJECTID":234413},"geometry":{"x":171702.51999999955,"y":2544651.3399999999}},{"attributes":{"ID":234418,"DIS_CODE":0,"TOWNNAME":"永康區","LI":"中華里","LIN":"4鄰","STREET":"小東路","SECT":" ","MAREA":" ","LANE":"６４７巷","ALLEY":" ","HOUSE_NO":"２２號","E_COORD97":171951.45000000001,"N_COORD97":2544419.4700000002,"ADDRESS":"小東路６４７巷２２號","OBJECTID":234414},"geometry":{"x":171951.45000000019,"y":2544419.4700000025}},{"attributes":{"ID":234419,"DIS_CODE":0,"TOWNNAME":"永康區","LI":"中華里","LIN":"18鄰","STREET":"中華路","SECT":" ","MAREA":" ","LANE":"１０巷","ALLEY":" ","HOUSE_NO":"３３號","E_COORD97":171678.98999999999,"N_COORD97":2544482.3399999999,"ADDRESS":"中華路１０巷３３號","OBJECTID":234415},"geometry":{"x":171678.99000000115,"y":2544482.3399999999}},{"attributes":{"ID":234420,"DIS_CODE":0,"TOWNNAME":"永康區","LI":"龍潭里","LIN":" ","STREET":"龍橋街","SECT":" ","MAREA":" ","LANE":"３巷","ALLEY":" ","HOUSE_NO":"１８號","E_COORD97":174823.07000000001,"N_COORD97":2548320.1699999999,"ADDRESS":"龍橋街３巷１８號","OBJECTID":234416},"geometry":{"x":174823.07000000123,"y":2548320.1700000018}},{"attributes":{"ID":234421,"DIS_CODE":0,"TOWNNAME":"永康區","LI":"新樹里","LIN":" ","STREET":"中山北路","SECT":" ","MAREA":" ","LANE":"７６４巷","ALLEY":" ","HOUSE_NO":"１９號","E_COORD97":176330.16,"N_COORD97":2547912.8900000001,"ADDRESS":"中山北路７６４巷１９號","OBJECTID":234417},"geometry":{"x":176330.16000000015,"y":2547912.8900000006}},{"attributes":{"ID":234422,"DIS_CODE":0,"TOWNNAME":"永康區","LI":"中華里","LIN":"5鄰","STREET":"忠勇街","SECT":" ","MAREA":" ","LANE":"３２巷","ALLEY":" ","HOUSE_NO":"９號","E_COORD97":171962.51000000001,"N_COORD97":2544433.0699999998,"ADDRESS":"忠勇街３２巷９號","OBJECTID":234418},"geometry":{"x":171962.50999999978,"y":2544433.0700000003}},{"attributes":{"ID":234423,"DIS_CODE":0,"TOWNNAME":"永康區","LI":"\u25A0洲里","LIN":"38鄰","STREET":"\u25A0行路","SECT":" ","MAREA":" ","LANE":"２０４巷","ALLEY":" ","HOUSE_NO":"２８號","E_COORD97":171254.13,"N_COORD97":2549237.3300000001,"ADDRESS":"\u25A0行路２０４巷２８號","OBJECTID":234419},"geometry":{"x":171254.13000000082,"y":2549237.3300000019}},{"attributes":{"ID":234424,"DIS_CODE":0,"TOWNNAME":"永康區","LI":"\u25A0洲里","LIN":"38鄰","STREET":"\u25A0行路","SECT":" ","MAREA":" ","LANE":"１８８巷","ALLEY":" ","HOUSE_NO":"３１號","E_COORD97":171274.54999999999,"N_COORD97":2549269.6000000001,"ADDRESS":"\u25A0行路１８８巷３１號","OBJECTID":234420},"geometry":{"x":171274.55000000075,"y":2549269.6000000015}},{"attributes":{"ID":234425,"DIS_CODE":0,"TOWNNAME":"佳里區","LI":"鎮山里","LIN":"14鄰","STREET":"安南路","SECT":" ","MAREA":" ","LANE":" ","ALLEY":" ","HOUSE_NO":"２２號","E_COORD97":166012.42999999999,"N_COORD97":2561361.5600000001,"ADDRESS":"安南路２２號","OBJECTID":234421},"geometry":{"x":166012.4299999997,"y":2561361.5600000005}},{"attributes":{"ID":234426,"DIS_CODE":0,"TOWNNAME":"歸仁區","LI":"媽廟里","LIN":"16鄰","STREET":"媽廟二街","SECT":" ","MAREA":" ","LANE":"３１巷","ALLEY":" ","HOUSE_NO":"１８號","E_COORD97":177713.17999999999,"N_COORD97":2543763.7200000002,"ADDRESS":"媽廟二街３１巷１８號","OBJECTID":234422},"geometry":{"x":177713.17999999877,"y":2543763.7200000025}},{"attributes":{"ID":234427,"DIS_CODE":0,"TOWNNAME":"歸仁區","LI":"媽廟里","LIN":"16鄰","STREET":"媽廟二街","SECT":" ","MAREA":" ","LANE":"３１巷","ALLEY":" ","HOUSE_NO":"３２號","E_COORD97":177712.28,"N_COORD97":2543796.7200000002,"ADDRESS":"媽廟二街３１巷３２號","OBJECTID":234423},"geometry":{"x":177712.28000000119,"y":2543796.7200000025}},{"attributes":{"ID":234428,"DIS_CODE":0,"TOWNNAME":"歸仁區","LI":"媽廟里","LIN":"16鄰","STREET":"媽廟二街","SECT":" ","MAREA":" ","LANE":"３１巷","ALLEY":" ","HOUSE_NO":"１６號","E_COORD97":177713.07999999999,"N_COORD97":2543758.7200000002,"ADDRESS":"媽廟二街３１巷１６號","OBJECTID":234424},"geometry":{"x":177713.08000000101,"y":2543758.7200000007}},{"attributes":{"ID":234429,"DIS_CODE":0,"TOWNNAME":"永康區","LI":"中華里","LIN":"4鄰","STREET":"小東路","SECT":" ","MAREA":" ","LANE":"６４７巷","ALLEY":" ","HOUSE_NO":"１２之１號","E_COORD97":171953.07999999999,"N_COORD97":2544396.9100000001,"ADDRESS":"小東路６４７巷１２之１號","OBJECTID":234425},"geometry":{"x":171953.08000000101,"y":2544396.9100000001}},{"attributes":{"ID":234430,"DIS_CODE":0,"TOWNNAME":"永康區","LI":"新樹里","LIN":" ","STREET":"富強路","SECT":"二段","MAREA":" ","LANE":"３９８巷","ALLEY":" ","HOUSE_NO":"１４６之４號","E_COORD97":176118.22,"N_COORD97":2547610.3799999999,"ADDRESS":"富強路二段３９８巷１４６之４號","OBJECTID":234426},"geometry":{"x":176118.22000000067,"y":2547610.379999999}},{"attributes":{"ID":234431,"DIS_CODE":0,"TOWNNAME":"永康區","LI":"中華里","LIN":"20鄰","STREET":"小東路","SECT":" ","MAREA":" ","LANE":"４７７巷","ALLEY":" ","HOUSE_NO":"２７號","E_COORD97":171609.97,"N_COORD97":2544442.77,"ADDRESS":"小東路４７７巷２７號","OBJECTID":234427},"geometry":{"x":171609.96999999974,"y":2544442.7700000014}},{"attributes":{"ID":234432,"DIS_CODE":0,"TOWNNAME":"永康區","LI":"中華里","LIN":"4鄰","STREET":"忠勇街","SECT":" ","MAREA":" ","LANE":"３２巷","ALLEY":" ","HOUSE_NO":"１２號","E_COORD97":171967.26000000001,"N_COORD97":2544419.5,"ADDRESS":"忠勇街３２巷１２號","OBJECTID":234428},"geometry":{"x":171967.25999999978,"y":2544419.5}},{"attributes":{"ID":234433,"DIS_CODE":0,"TOWNNAME":"永康區","LI":"西橋里","LIN":" ","STREET":"大橋二街","SECT":" ","MAREA":" ","LANE":"５１巷","ALLEY":" ","HOUSE_NO":"２２號","E_COORD97":170637.01000000001,"N_COORD97":2546506.4900000002,"ADDRESS":"大橋二街５１巷２２號","OBJECTID":234429},"geometry":{"x":170637.00999999885,"y":2546506.4900000039}},{"attributes":{"ID":234434,"DIS_CODE":0,"TOWNNAME":"永康區","LI":"西橋里","LIN":" ","STREET":"大橋二街","SECT":" ","MAREA":" ","LANE":"５１巷","ALLEY":" ","HOUSE_NO":"２６號","E_COORD97":170627.38,"N_COORD97":2546512.6899999999,"ADDRESS":"大橋二街５１巷２６號","OBJECTID":234430},"geometry":{"x":170627.37999999989,"y":2546512.6899999995}},{"attributes":{"ID":234435,"DIS_CODE":0,"TOWNNAME":"永康區","LI":"新樹里","LIN":" ","STREET":"富強路","SECT":"二段","MAREA":" ","LANE":"３９８巷","ALLEY":" ","HOUSE_NO":"１４６之１０號","E_COORD97":176120.63,"N_COORD97":2547554.8900000001,"ADDRESS":"富強路二段３９８巷１４６之１０號","OBJECTID":234431},"geometry":{"x":176120.63000000082,"y":2547554.8900000043}},{"attributes":{"ID":234436,"DIS_CODE":0,"TOWNNAME":"永康區","LI":"中華里","LIN":"5鄰","STREET":"忠勇街","SECT":" ","MAREA":" ","LANE":"３２巷","ALLEY":" ","HOUSE_NO":"１９號","E_COORD97":171984.17999999999,"N_COORD97":2544432.7799999998,"ADDRESS":"忠勇街３２巷１９號","OBJECTID":234432},"geometry":{"x":171984.18000000063,"y":2544432.7800000012}},{"attributes":{"ID":234437,"DIS_CODE":0,"TOWNNAME":"佳里區","LI":"鎮山里","LIN":"14鄰","STREET":"安南路","SECT":" ","MAREA":" ","LANE":" ","ALLEY":" ","HOUSE_NO":"２４號","E_COORD97":166009.17999999999,"N_COORD97":2561357.8999999999,"ADDRESS":"安南路２４號","OBJECTID":234433},"geometry":{"x":166009.1799999997,"y":2561357.9000000022}},{"attributes":{"ID":234438,"DIS_CODE":0,"TOWNNAME":"佳里區","LI":"鎮山里","LIN":"14鄰","STREET":"安南路","SECT":" ","MAREA":" ","LANE":" ","ALLEY":" ","HOUSE_NO":"３０號","E_COORD97":165993.60999999999,"N_COORD97":2561347.9700000002,"ADDRESS":"安南路３０號","OBJECTID":234434},"geometry":{"x":165993.61000000034,"y":2561347.9700000025}},{"attributes":{"ID":234439,"DIS_CODE":0,"TOWNNAME":"佳里區","LI":"鎮山里","LIN":"14鄰","STREET":"安南路","SECT":" ","MAREA":" ","LANE":" ","ALLEY":" ","HOUSE_NO":"３２號","E_COORD97":165989.64999999999,"N_COORD97":2561346.9300000002,"ADDRESS":"安南路３２號","OBJECTID":234435},"geometry":{"x":165989.65000000037,"y":2561346.9300000016}},{"attributes":{"ID":234440,"DIS_CODE":0,"TOWNNAME":"歸仁區","LI":"崙頂里","LIN":"16鄰","STREET":"崙頂街","SECT":" ","MAREA":" ","LANE":"１７巷","ALLEY":" ","HOUSE_NO":"２０號","E_COORD97":177918.03,"N_COORD97":2540043.25,"ADDRESS":"崙頂街１７巷２０號","OBJECTID":234436},"geometry":{"x":177918.03000000026,"y":2540043.2500000019}},{"attributes":{"ID":234441,"DIS_CODE":0,"TOWNNAME":"歸仁區","LI":"南保里","LIN":"16鄰","STREET":"文化十街","SECT":" ","MAREA":" ","LANE":"２８巷","ALLEY":" ","HOUSE_NO":"４３號","E_COORD97":176690.59,"N_COORD97":2541340.3300000001,"ADDRESS":"文化十街２８巷４３號","OBJECTID":234437},"geometry":{"x":176690.59000000078,"y":2541340.3300000038}},{"attributes":{"ID":234442,"DIS_CODE":0,"TOWNNAME":"永康區","LI":"\u25A0洲里","LIN":"38鄰","STREET":"\u25A0行路","SECT":" ","MAREA":" ","LANE":"１８８巷","ALLEY":" ","HOUSE_NO":"２０號","E_COORD97":171286.54000000001,"N_COORD97":2549282.7400000002,"ADDRESS":"\u25A0行路１８８巷２０號","OBJECTID":234438},"geometry":{"x":171286.5400000019,"y":2549282.7400000021}},{"attributes":{"ID":234443,"DIS_CODE":0,"TOWNNAME":"永康區","LI":"南灣里","LIN":" ","STREET":"大灣東路","SECT":" ","MAREA":" ","LANE":"２２巷","ALLEY":" ","HOUSE_NO":"１４０之４號","E_COORD97":173867.92999999999,"N_COORD97":2543863.1800000002,"ADDRESS":"大灣東路２２巷１４０之４號","OBJECTID":234439},"geometry":{"x":173867.9299999997,"y":2543863.1799999978}},{"attributes":{"ID":234444,"DIS_CODE":0,"TOWNNAME":"永康區","LI":"新樹里","LIN":" ","STREET":"富強路","SECT":"二段","MAREA":" ","LANE":"５６巷","ALLEY":" ","HOUSE_NO":"３２之１號","E_COORD97":175804.44,"N_COORD97":2546985.3799999999,"ADDRESS":"富強路二段５６巷３２之１號","OBJECTID":234440},"geometry":{"x":175804.44000000041,"y":2546985.3800000008}},{"attributes":{"ID":234445,"DIS_CODE":0,"TOWNNAME":"佳里區","LI":"鎮山里","LIN":"14鄰","STREET":"安南路","SECT":" ","MAREA":" ","LANE":" ","ALLEY":" ","HOUSE_NO":"３４號","E_COORD97":165985.45000000001,"N_COORD97":2561345.5699999998,"ADDRESS":"安南路３４號","OBJECTID":234441},"geometry":{"x":165985.45000000112,"y":2561345.570000004}},{"attributes":{"ID":234446,"DIS_CODE":0,"TOWNNAME":"佳里區","LI":"鎮山里","LIN":"14鄰","STREET":"安南路","SECT":" ","MAREA":" ","LANE":" ","ALLEY":" ","HOUSE_NO":"３６號","E_COORD97":165980.64000000001,"N_COORD97":2561343.98,"ADDRESS":"安南路３６號","OBJECTID":234442},"geometry":{"x":165980.63999999966,"y":2561343.9800000023}},{"attributes":{"ID":234447,"DIS_CODE":0,"TOWNNAME":"新營區","LI":"新東里","LIN":"16鄰","STREET":"東智街","SECT":" ","MAREA":" ","LANE":"４６巷","ALLEY":" ","HOUSE_NO":"１５號","E_COORD97":181022.89000000001,"N_COORD97":2579714.1299999999,"ADDRESS":"東智街４６巷１５號","OBJECTID":234443},"geometry":{"x":181022.8900000006,"y":2579714.1300000008}},{"attributes":{"ID":234448,"DIS_CODE":0,"TOWNNAME":"新營區","LI":"土庫里","LIN":"16鄰","STREET":" ","SECT":" ","MAREA":"卯舍","LANE":" ","ALLEY":" ","HOUSE_NO":"８號","E_COORD97":181962.73999999999,"N_COORD97":2580174.9100000001,"ADDRESS":"卯舍８號","OBJECTID":234444},"geometry":{"x":181962.74000000022,"y":2580174.910000002}},{"attributes":{"ID":234449,"DIS_CODE":0,"TOWNNAME":"新營區","LI":"新東里","LIN":"16鄰","STREET":"東智街","SECT":" ","MAREA":" ","LANE":"４６巷","ALLEY":" ","HOUSE_NO":"１７號","E_COORD97":181028.01000000001,"N_COORD97":2579714.1000000001,"ADDRESS":"東智街４６巷１７號","OBJECTID":234445},"geometry":{"x":181028.00999999978,"y":2579714.1000000015}},{"attributes":{"ID":234450,"DIS_CODE":0,"TOWNNAME":"新營區","LI":"土庫里","LIN":"16鄰","STREET":" ","SECT":" ","MAREA":"卯舍","LANE":" ","ALLEY":" ","HOUSE_NO":"７之１號","E_COORD97":181833.07000000001,"N_COORD97":2580133.4700000002,"ADDRESS":"卯舍７之１號","OBJECTID":234446},"geometry":{"x":181833.07000000123,"y":2580133.4700000025}},{"attributes":{"ID":234451,"DIS_CODE":0,"TOWNNAME":"新營區","LI":"新東里","LIN":"16鄰","STREET":"東智街","SECT":" ","MAREA":" ","LANE":"４６巷","ALLEY":" ","HOUSE_NO":"２９號","E_COORD97":181054.67999999999,"N_COORD97":2579716.1899999999,"ADDRESS":"東智街４６巷２９號","OBJECTID":234447},"geometry":{"x":181054.68000000063,"y":2579716.1900000032}},{"attributes":{"ID":234452,"DIS_CODE":0,"TOWNNAME":"永康區","LI":"中華里","LIN":"5鄰","STREET":"忠勇街","SECT":" ","MAREA":" ","LANE":"３２巷","ALLEY":" ","HOUSE_NO":"１７號","E_COORD97":171980.25,"N_COORD97":2544432.6299999999,"ADDRESS":"忠勇街３２巷１７號","OBJECTID":234448},"geometry":{"x":171980.25000000093,"y":2544432.6300000027}},{"attributes":{"ID":234453,"DIS_CODE":0,"TOWNNAME":"永康區","LI":"中華里","LIN":"20鄰","STREET":"小東路","SECT":" ","MAREA":" ","LANE":"４７７巷","ALLEY":" ","HOUSE_NO":"７號","E_COORD97":171603.32999999999,"N_COORD97":2544399.96,"ADDRESS":"小東路４７７巷７號","OBJECTID":234449},"geometry":{"x":171603.33000000194,"y":2544399.9600000028}},{"attributes":{"ID":234454,"DIS_CODE":0,"TOWNNAME":"永康區","LI":"中華里","LIN":"25鄰","STREET":"忠義街","SECT":" ","MAREA":" ","LANE":"７１巷","ALLEY":" ","HOUSE_NO":"５號","E_COORD97":171684.54999999999,"N_COORD97":2544612.8199999998,"ADDRESS":"忠義街７１巷５號","OBJECTID":234450},"geometry":{"x":171684.55000000168,"y":2544612.8200000022}},{"attributes":{"ID":234455,"DIS_CODE":0,"TOWNNAME":"永康區","LI":"中華里","LIN":"25鄰","STREET":"忠義街","SECT":" ","MAREA":" ","LANE":"７１巷","ALLEY":" ","HOUSE_NO":"９號","E_COORD97":171676.42999999999,"N_COORD97":2544612.3999999999,"ADDRESS":"忠義街７１巷９號","OBJECTID":234451},"geometry":{"x":171676.4299999997,"y":2544612.4000000022}},{"attributes":{"ID":234456,"DIS_CODE":0,"TOWNNAME":"永康區","LI":"中華里","LIN":"13鄰","STREET":"忠義街","SECT":" ","MAREA":" ","LANE":"４４巷","ALLEY":" ","HOUSE_NO":"２２號","E_COORD97":171790.17000000001,"N_COORD97":2544464,"ADDRESS":"忠義街４４巷２２號","OBJECTID":234452},"geometry":{"x":171790.16999999993,"y":2544464}},{"attributes":{"ID":234457,"DIS_CODE":0,"TOWNNAME":"永康區","LI":"\u25A0洲里","LIN":"5鄰","STREET":"仁愛街","SECT":" ","MAREA":" ","LANE":"１０３巷","ALLEY":" ","HOUSE_NO":"５６號","E_COORD97":171931.09,"N_COORD97":2549540.2799999998,"ADDRESS":"仁愛街１０３巷５６號","OBJECTID":234453},"geometry":{"x":171931.08999999985,"y":2549540.2799999993}},{"attributes":{"ID":234458,"DIS_CODE":0,"TOWNNAME":"永康區","LI":"\u25A0洲里","LIN":"38鄰","STREET":"\u25A0行路","SECT":" ","MAREA":" ","LANE":"２０４巷","ALLEY":" ","HOUSE_NO":"４號","E_COORD97":171286.25,"N_COORD97":2549201.9100000001,"ADDRESS":"\u25A0行路２０４巷４號","OBJECTID":234454},"geometry":{"x":171286.25,"y":2549201.9099999983}},{"attributes":{"ID":234459,"DIS_CODE":0,"TOWNNAME":"永康區","LI":"中華里","LIN":"25鄰","STREET":"忠義街","SECT":" ","MAREA":" ","LANE":"７１巷","ALLEY":" ","HOUSE_NO":"１３號","E_COORD97":171668.98000000001,"N_COORD97":2544612.8199999998,"ADDRESS":"忠義街７１巷１３號","OBJECTID":234455},"geometry":{"x":171668.98000000138,"y":2544612.8200000022}},{"attributes":{"ID":234460,"DIS_CODE":0,"TOWNNAME":"永康區","LI":"中華里","LIN":"8鄰","STREET":"小東路","SECT":" ","MAREA":" ","LANE":"６４７巷","ALLEY":" ","HOUSE_NO":"５３號","E_COORD97":171927.73000000001,"N_COORD97":2544469.1400000001,"ADDRESS":"小東路６４７巷５３號","OBJECTID":234456},"geometry":{"x":171927.73000000045,"y":2544469.1400000025}},{"attributes":{"ID":234461,"DIS_CODE":0,"TOWNNAME":"永康區","LI":"中華里","LIN":"20鄰","STREET":"小東路","SECT":" ","MAREA":" ","LANE":"４７７巷","ALLEY":" ","HOUSE_NO":"２５號","E_COORD97":171609.14999999999,"N_COORD97":2544438.6099999999,"ADDRESS":"小東路４７７巷２５號","OBJECTID":234457},"geometry":{"x":171609.15000000037,"y":2544438.6099999994}},{"attributes":{"ID":234462,"DIS_CODE":0,"TOWNNAME":"永康區","LI":"中華里","LIN":"13鄰","STREET":"忠義街","SECT":" ","MAREA":" ","LANE":"１０巷","ALLEY":" ","HOUSE_NO":"７號之６","E_COORD97":171812,"N_COORD97":2544415.3599999999,"ADDRESS":"忠義街１０巷７號之６","OBJECTID":234458},"geometry":{"x":171812,"y":2544415.3600000013}},{"attributes":{"ID":234463,"DIS_CODE":0,"TOWNNAME":"永康區","LI":"三合里","LIN":"18鄰","STREET":"南工街","SECT":" ","MAREA":" ","LANE":"２６７巷","ALLEY":" ","HOUSE_NO":"２５號","E_COORD97":171884.85000000001,"N_COORD97":2545880.8500000001,"ADDRESS":"南工街２６７巷２５號","OBJECTID":234459},"geometry":{"x":171884.85000000056,"y":2545880.8500000015}},{"attributes":{"ID":234464,"DIS_CODE":0,"TOWNNAME":"永康區","LI":"二王里","LIN":"14鄰","STREET":"永二街","SECT":" ","MAREA":" ","LANE":"４５９巷","ALLEY":" ","HOUSE_NO":"２６號","E_COORD97":172614.44,"N_COORD97":2546611.8999999999,"ADDRESS":"永二街４５９巷２６號","OBJECTID":234460},"geometry":{"x":172614.44000000041,"y":2546611.9000000004}},{"attributes":{"ID":234465,"DIS_CODE":0,"TOWNNAME":"佳里區","LI":"鎮山里","LIN":"14鄰","STREET":"安南路","SECT":" ","MAREA":" ","LANE":" ","ALLEY":" ","HOUSE_NO":"３８號","E_COORD97":165976.42000000001,"N_COORD97":2561343.27,"ADDRESS":"安南路３８號","OBJECTID":234461},"geometry":{"x":165976.42000000086,"y":2561343.2700000033}},{"attributes":{"ID":234466,"DIS_CODE":0,"TOWNNAME":"佳里區","LI":"鎮山里","LIN":"14鄰","STREET":"安南路","SECT":" ","MAREA":" ","LANE":" ","ALLEY":" ","HOUSE_NO":"４０號","E_COORD97":165972.20000000001,"N_COORD97":2561342.5600000001,"ADDRESS":"安南路４０號","OBJECTID":234462},"geometry":{"x":165972.20000000019,"y":2561342.5600000042}},{"attributes":{"ID":234467,"DIS_CODE":0,"TOWNNAME":"佳里區","LI":"鎮山里","LIN":"14鄰","STREET":"安南路","SECT":" ","MAREA":" ","LANE":" ","ALLEY":" ","HOUSE_NO":"４２號","E_COORD97":165968.17999999999,"N_COORD97":2561342.1200000001,"ADDRESS":"安南路４２號","OBJECTID":234463},"geometry":{"x":165968.18000000063,"y":2561342.120000001}},{"attributes":{"ID":234468,"DIS_CODE":0,"TOWNNAME":"佳里區","LI":"鎮山里","LIN":"14鄰","STREET":"安南路","SECT":" ","MAREA":" ","LANE":" ","ALLEY":" ","HOUSE_NO":"４６號","E_COORD97":165963.44,"N_COORD97":2561341.9300000002,"ADDRESS":"安南路４６號","OBJECTID":234464},"geometry":{"x":165963.44000000134,"y":2561341.9299999997}},{"attributes":{"ID":234469,"DIS_CODE":0,"TOWNNAME":"東區","LI":"忠孝里","LIN":"7鄰","STREET":"榮譽街","SECT":" ","MAREA":" ","LANE":"８４巷","ALLEY":" ","HOUSE_NO":"８９號之１","E_COORD97":169829.35000000001,"N_COORD97":2541634.4900000002,"ADDRESS":"榮譽街８４巷８９號之１","OBJECTID":234465},"geometry":{"x":169829.3499999987,"y":2541634.4900000039}},{"attributes":{"ID":234470,"DIS_CODE":0,"TOWNNAME":"新營區","LI":"忠政里","LIN":"16鄰","STREET":"府西路","SECT":" ","MAREA":" ","LANE":"２５９巷","ALLEY":" ","HOUSE_NO":"２３號","E_COORD97":179738.39000000001,"N_COORD97":2579721.27,"ADDRESS":"府西路２５９巷２３號","OBJECTID":234466},"geometry":{"x":179738.3900000006,"y":2579721.2699999996}},{"attributes":{"ID":234471,"DIS_CODE":0,"TOWNNAME":"東山區","LI":"聖賢里","LIN":"16鄰","STREET":" ","SECT":" ","MAREA":"頂窩","LANE":" ","ALLEY":" ","HOUSE_NO":"１２號之１","E_COORD97":183339.07999999999,"N_COORD97":2578579.4100000001,"ADDRESS":"頂窩１２號之１","OBJECTID":234467},"geometry":{"x":183339.08000000194,"y":2578579.4100000001}},{"attributes":{"ID":234472,"DIS_CODE":0,"TOWNNAME":"新營區","LI":"民榮里","LIN":"16鄰","STREET":"太子路","SECT":" ","MAREA":" ","LANE":"１９巷","ALLEY":" ","HOUSE_NO":"３８之１號","E_COORD97":178455.41,"N_COORD97":2578054.1200000001,"ADDRESS":"太子路１９巷３８之１號","OBJECTID":234468},"geometry":{"x":178455.41000000108,"y":2578054.1200000029}},{"attributes":{"ID":234473,"DIS_CODE":0,"TOWNNAME":"新營區","LI":"新南里","LIN":"16鄰","STREET":"隋唐街","SECT":" ","MAREA":" ","LANE":"３１巷","ALLEY":" ","HOUSE_NO":"５１號","E_COORD97":178689.48999999999,"N_COORD97":2578341.9700000002,"ADDRESS":"隋唐街３１巷５１號","OBJECTID":234469},"geometry":{"x":178689.49000000022,"y":2578341.9700000007}},{"attributes":{"ID":234474,"DIS_CODE":0,"TOWNNAME":"永康區","LI":"中興里","LIN":"26鄰","STREET":"中山東路","SECT":" ","MAREA":" ","LANE":"３８６巷","ALLEY":" ","HOUSE_NO":"１５號","E_COORD97":171852.23000000001,"N_COORD97":2545239.48,"ADDRESS":"中山東路３８６巷１５號","OBJECTID":234470},"geometry":{"x":171852.23000000138,"y":2545239.4800000023}},{"attributes":{"ID":234475,"DIS_CODE":0,"TOWNNAME":"東山區","LI":"聖賢里","LIN":"16鄰","STREET":" ","SECT":" ","MAREA":"頂窩","LANE":" ","ALLEY":" ","HOUSE_NO":"１２號之３","E_COORD97":183348.5,"N_COORD97":2578577.8799999999,"ADDRESS":"頂窩１２號之３","OBJECTID":234471},"geometry":{"x":183348.50000000093,"y":2578577.879999999}},{"attributes":{"ID":234476,"DIS_CODE":0,"TOWNNAME":"東山區","LI":"聖賢里","LIN":"16鄰","STREET":" ","SECT":" ","MAREA":"頂窩","LANE":" ","ALLEY":" ","HOUSE_NO":"１３號之１０","E_COORD97":183291.95999999999,"N_COORD97":2578522.4700000002,"ADDRESS":"頂窩１３號之１０","OBJECTID":234472},"geometry":{"x":183291.95999999996,"y":2578522.4700000044}},{"attributes":{"ID":234477,"DIS_CODE":0,"TOWNNAME":"永康區","LI":"三合里","LIN":"18鄰","STREET":"南工街","SECT":" ","MAREA":" ","LANE":"２６７巷","ALLEY":" ","HOUSE_NO":"１９號","E_COORD97":171887.42999999999,"N_COORD97":2545899.6099999999,"ADDRESS":"南工街２６７巷１９號","OBJECTID":234473},"geometry":{"x":171887.43000000063,"y":2545899.6099999994}},{"attributes":{"ID":234478,"DIS_CODE":0,"TOWNNAME":"東山區","LI":"聖賢里","LIN":"16鄰","STREET":" ","SECT":" ","MAREA":"頂窩","LANE":" ","ALLEY":" ","HOUSE_NO":"１３號之１","E_COORD97":183295.73000000001,"N_COORD97":2578520.2000000002,"ADDRESS":"頂窩１３號之１","OBJECTID":234474},"geometry":{"x":183295.73000000045,"y":2578520.2000000011}},{"attributes":{"ID":234479,"DIS_CODE":0,"TOWNNAME":"永康區","LI":"中興里","LIN":"26鄰","STREET":"中山東路","SECT":" ","MAREA":" ","LANE":"３８６巷","ALLEY":" ","HOUSE_NO":"１號","E_COORD97":171884.48000000001,"N_COORD97":2545240.52,"ADDRESS":"中山東路３８６巷１號","OBJECTID":234475},"geometry":{"x":171884.48000000138,"y":2545240.5199999977}},{"attributes":{"ID":234480,"DIS_CODE":0,"TOWNNAME":"東山區","LI":"聖賢里","LIN":"16鄰","STREET":" ","SECT":" ","MAREA":"頂窩","LANE":" ","ALLEY":" ","HOUSE_NO":"１３號之２","E_COORD97":183288.20000000001,"N_COORD97":2578524.7400000002,"ADDRESS":"頂窩１３號之２","OBJECTID":234476},"geometry":{"x":183288.20000000112,"y":2578524.7400000021}},{"attributes":{"ID":234481,"DIS_CODE":0,"TOWNNAME":"東山區","LI":"聖賢里","LIN":"16鄰","STREET":" ","SECT":" ","MAREA":"頂窩","LANE":" ","ALLEY":" ","HOUSE_NO":"１３號之３","E_COORD97":183284.44,"N_COORD97":2578527.0099999998,"ADDRESS":"頂窩１３號之３","OBJECTID":234477},"geometry":{"x":183284.44000000227,"y":2578527.0099999998}},{"attributes":{"ID":234482,"DIS_CODE":0,"TOWNNAME":"永康區","LI":"二王里","LIN":"13鄰","STREET":"永二街","SECT":" ","MAREA":" ","LANE":"４５９巷","ALLEY":" ","HOUSE_NO":"１３號","E_COORD97":172620.75,"N_COORD97":2546642.4199999999,"ADDRESS":"永二街４５９巷１３號","OBJECTID":234478},"geometry":{"x":172620.75000000186,"y":2546642.4200000018}},{"attributes":{"ID":234483,"DIS_CODE":0,"TOWNNAME":"東山區","LI":"聖賢里","LIN":"16鄰","STREET":" ","SECT":" ","MAREA":"頂窩","LANE":" ","ALLEY":" ","HOUSE_NO":"１３號之４","E_COORD97":183280.67999999999,"N_COORD97":2578529.2799999998,"ADDRESS":"頂窩１３號之４","OBJECTID":234479},"geometry":{"x":183280.68000000063,"y":2578529.2800000012}},{"attributes":{"ID":234484,"DIS_CODE":0,"TOWNNAME":"永康區","LI":"三合里","LIN":"24鄰","STREET":"南工街","SECT":" ","MAREA":" ","LANE":"２６７巷","ALLEY":" ","HOUSE_NO":"４８號","E_COORD97":171845.42000000001,"N_COORD97":2545844.4900000002,"ADDRESS":"南工街２６７巷４８號","OBJECTID":234480},"geometry":{"x":171845.42000000086,"y":2545844.4900000002}},{"attributes":{"ID":234485,"DIS_CODE":0,"TOWNNAME":"永康區","LI":"二王里","LIN":"5鄰","STREET":"永二街","SECT":" ","MAREA":" ","LANE":"３５８巷","ALLEY":" ","HOUSE_NO":"１３號之２","E_COORD97":172911.10999999999,"N_COORD97":2546732.5,"ADDRESS":"永二街３５８巷１３號之２","OBJECTID":234481},"geometry":{"x":172911.11000000127,"y":2546732.5}},{"attributes":{"ID":234486,"DIS_CODE":0,"TOWNNAME":"佳里區","LI":"鎮山里","LIN":"14鄰","STREET":"安南路","SECT":" ","MAREA":" ","LANE":" ","ALLEY":" ","HOUSE_NO":"５０號","E_COORD97":165954.73000000001,"N_COORD97":2561341.8999999999,"ADDRESS":"安南路５０號","OBJECTID":234482},"geometry":{"x":165954.73000000138,"y":2561341.9000000004}},{"attributes":{"ID":234487,"DIS_CODE":0,"TOWNNAME":"新營區","LI":"王公里","LIN":"16鄰","STREET":"大仁街","SECT":" ","MAREA":" ","LANE":" ","ALLEY":" ","HOUSE_NO":"５８號","E_COORD97":180310.42999999999,"N_COORD97":2579363.0800000001,"ADDRESS":"大仁街５８號","OBJECTID":234483},"geometry":{"x":180310.43000000156,"y":2579363.0800000019}},{"attributes":{"ID":234488,"DIS_CODE":0,"TOWNNAME":"東山區","LI":"聖賢里","LIN":"16鄰","STREET":" ","SECT":" ","MAREA":"頂窩","LANE":" ","ALLEY":" ","HOUSE_NO":"１３號之５","E_COORD97":183276.92000000001,"N_COORD97":2578531.5499999998,"ADDRESS":"頂窩１３號之５","OBJECTID":234484},"geometry":{"x":183276.91999999993,"y":2578531.5500000007}},{"attributes":{"ID":234489,"DIS_CODE":0,"TOWNNAME":"東山區","LI":"聖賢里","LIN":"16鄰","STREET":" ","SECT":" ","MAREA":"頂窩","LANE":" ","ALLEY":" ","HOUSE_NO":"１３號之６","E_COORD97":183273.16,"N_COORD97":2578533.8199999998,"ADDRESS":"頂窩１３號之６","OBJECTID":234485},"geometry":{"x":183273.16000000108,"y":2578533.8200000022}},{"attributes":{"ID":234490,"DIS_CODE":0,"TOWNNAME":"東山區","LI":"聖賢里","LIN":"16鄰","STREET":" ","SECT":" ","MAREA":"頂窩","LANE":" ","ALLEY":" ","HOUSE_NO":"１３號之７","E_COORD97":183269.39999999999,"N_COORD97":2578536.0899999999,"ADDRESS":"頂窩１３號之７","OBJECTID":234486},"geometry":{"x":183269.40000000224,"y":2578536.0899999999}},{"attributes":{"ID":234491,"DIS_CODE":0,"TOWNNAME":"東山區","LI":"聖賢里","LIN":"16鄰","STREET":" ","SECT":" ","MAREA":"頂窩","LANE":" ","ALLEY":" ","HOUSE_NO":"１３號之８","E_COORD97":183265.64000000001,"N_COORD97":2578538.3599999999,"ADDRESS":"頂窩１３號之８","OBJECTID":234487},"geometry":{"x":183265.6400000006,"y":2578538.3599999975}},{"attributes":{"ID":234492,"DIS_CODE":0,"TOWNNAME":"東山區","LI":"聖賢里","LIN":"16鄰","STREET":" ","SECT":" ","MAREA":"頂窩","LANE":" ","ALLEY":" ","HOUSE_NO":"１３號之９","E_COORD97":183258.84,"N_COORD97":2578537.3199999998,"ADDRESS":"頂窩１３號之９","OBJECTID":234488},"geometry":{"x":183258.83999999985,"y":2578537.3200000022}},{"attributes":{"ID":234493,"DIS_CODE":0,"TOWNNAME":"東山區","LI":"聖賢里","LIN":"16鄰","STREET":" ","SECT":" ","MAREA":"頂窩","LANE":" ","ALLEY":" ","HOUSE_NO":"１３號","E_COORD97":183328.91,"N_COORD97":2578537.2200000002,"ADDRESS":"頂窩１３號","OBJECTID":234489},"geometry":{"x":183328.91000000108,"y":2578537.2200000007}},{"attributes":{"ID":234494,"DIS_CODE":0,"TOWNNAME":"東山區","LI":"聖賢里","LIN":"16鄰","STREET":" ","SECT":" ","MAREA":"頂窩","LANE":" ","ALLEY":" ","HOUSE_NO":"１６號之３","E_COORD97":183289.88,"N_COORD97":2578594.7400000002,"ADDRESS":"頂窩１６號之３","OBJECTID":234490},"geometry":{"x":183289.88000000082,"y":2578594.7400000039}},{"attributes":{"ID":234495,"DIS_CODE":0,"TOWNNAME":"東山區","LI":"聖賢里","LIN":"16鄰","STREET":" ","SECT":" ","MAREA":"頂窩","LANE":" ","ALLEY":" ","HOUSE_NO":"１７號之１","E_COORD97":183300.19,"N_COORD97":2578568.1200000001,"ADDRESS":"頂窩１７號之１","OBJECTID":234491},"geometry":{"x":183300.19000000134,"y":2578568.120000001}},{"attributes":{"ID":234496,"DIS_CODE":0,"TOWNNAME":"東山區","LI":"聖賢里","LIN":"16鄰","STREET":" ","SECT":" ","MAREA":"頂窩","LANE":" ","ALLEY":" ","HOUSE_NO":"１７號之２","E_COORD97":183300.22,"N_COORD97":2578579.0499999998,"ADDRESS":"頂窩１７號之２","OBJECTID":234492},"geometry":{"x":183300.21999999974,"y":2578579.0500000007}},{"attributes":{"ID":234497,"DIS_CODE":0,"TOWNNAME":"東山區","LI":"聖賢里","LIN":"16鄰","STREET":" ","SECT":" ","MAREA":"頂窩","LANE":" ","ALLEY":" ","HOUSE_NO":"１７號","E_COORD97":183284.41,"N_COORD97":2578578.9199999999,"ADDRESS":"頂窩１７號","OBJECTID":234493},"geometry":{"x":183284.41000000201,"y":2578578.9199999999}},{"attributes":{"ID":234498,"DIS_CODE":0,"TOWNNAME":"東山區","LI":"聖賢里","LIN":"16鄰","STREET":" ","SECT":" ","MAREA":"頂窩","LANE":" ","ALLEY":" ","HOUSE_NO":"１８號之１","E_COORD97":183257.62,"N_COORD97":2578567.3399999999,"ADDRESS":"頂窩１８號之１","OBJECTID":234494},"geometry":{"x":183257.62000000104,"y":2578567.3400000017}},{"attributes":{"ID":234499,"DIS_CODE":0,"TOWNNAME":"永康區","LI":"二王里","LIN":"20鄰","STREET":"中山南路","SECT":" ","MAREA":" ","LANE":"６４４巷","ALLEY":" ","HOUSE_NO":"２號","E_COORD97":172394.79000000001,"N_COORD97":2546655.4700000002,"ADDRESS":"中山南路６４４巷２號","OBJECTID":234495},"geometry":{"x":172394.79000000004,"y":2546655.4700000007}},{"attributes":{"ID":234500,"DIS_CODE":0,"TOWNNAME":"東山區","LI":"聖賢里","LIN":"16鄰","STREET":" ","SECT":" ","MAREA":"頂窩","LANE":" ","ALLEY":" ","HOUSE_NO":"１８號","E_COORD97":183266.66,"N_COORD97":2578576.2799999998,"ADDRESS":"頂窩１８號","OBJECTID":234496},"geometry":{"x":183266.66000000015,"y":2578576.2800000031}},{"attributes":{"ID":234501,"DIS_CODE":0,"TOWNNAME":"東山區","LI":"聖賢里","LIN":"16鄰","STREET":" ","SECT":" ","MAREA":"頂窩","LANE":" ","ALLEY":" ","HOUSE_NO":"１９號","E_COORD97":183247.85000000001,"N_COORD97":2578591.98,"ADDRESS":"頂窩１９號","OBJECTID":234497},"geometry":{"x":183247.84999999963,"y":2578591.9800000004}},{"attributes":{"ID":234502,"DIS_CODE":0,"TOWNNAME":"永康區","LI":"三合里","LIN":"20鄰","STREET":"南工街","SECT":" ","MAREA":" ","LANE":"２６７巷","ALLEY":" ","HOUSE_NO":"２號","E_COORD97":171880.95999999999,"N_COORD97":2545962.4900000002,"ADDRESS":"南工街２６７巷２號","OBJECTID":234498},"geometry":{"x":171880.96000000089,"y":2545962.4900000002}},{"attributes":{"ID":234503,"DIS_CODE":0,"TOWNNAME":"東山區","LI":"聖賢里","LIN":"16鄰","STREET":" ","SECT":" ","MAREA":"頂窩","LANE":" ","ALLEY":" ","HOUSE_NO":"２０號之１","E_COORD97":183226.10999999999,"N_COORD97":2578516.2400000002,"ADDRESS":"頂窩２０號之１","OBJECTID":234499},"geometry":{"x":183226.11000000127,"y":2578516.2400000002}},{"attributes":{"ID":234504,"DIS_CODE":0,"TOWNNAME":"東山區","LI":"聖賢里","LIN":"16鄰","STREET":" ","SECT":" ","MAREA":"頂窩","LANE":" ","ALLEY":" ","HOUSE_NO":"２０號","E_COORD97":183232.67000000001,"N_COORD97":2578543.5,"ADDRESS":"頂窩２０號","OBJECTID":234500},"geometry":{"x":183232.66999999993,"y":2578543.5}},{"attributes":{"ID":234505,"DIS_CODE":0,"TOWNNAME":"永康區","LI":"大灣里","LIN":"26鄰","STREET":"民族路","SECT":" ","MAREA":" ","LANE":"１９０巷","ALLEY":" ","HOUSE_NO":"１３號","E_COORD97":175213.10000000001,"N_COORD97":2545119.25,"ADDRESS":"民族路１９０巷１３號","OBJECTID":234501},"geometry":{"x":175213.09999999963,"y":2545119.2500000019}},{"attributes":{"ID":234506,"DIS_CODE":0,"TOWNNAME":"安定區","LI":"新吉里","LIN":"10鄰","STREET":" ","SECT":" ","MAREA":"新吉","LANE":" ","ALLEY":" ","HOUSE_NO":"８４號","E_COORD97":169229.97,"N_COORD97":2553967.25,"ADDRESS":"新吉８４號","OBJECTID":234502},"geometry":{"x":169229.96999999974,"y":2553967.2500000019}},{"attributes":{"ID":234507,"DIS_CODE":0,"TOWNNAME":"關廟區","LI":"松腳里","LIN":"16鄰","STREET":"民族街","SECT":" ","MAREA":" ","LANE":"７６巷","ALLEY":" ","HOUSE_NO":"１３號","E_COORD97":181531.39000000001,"N_COORD97":2539813.29,"ADDRESS":"民族街７６巷１３號","OBJECTID":234503},"geometry":{"x":181531.3900000006,"y":2539813.2899999991}},{"attributes":{"ID":234508,"DIS_CODE":0,"TOWNNAME":"永康區","LI":"二王里","LIN":"13鄰","STREET":"永二街","SECT":" ","MAREA":" ","LANE":"４５９巷","ALLEY":" ","HOUSE_NO":"１５號","E_COORD97":172623.42999999999,"N_COORD97":2546634.4199999999,"ADDRESS":"永二街４５９巷１５號","OBJECTID":234504},"geometry":{"x":172623.43000000063,"y":2546634.4199999999}},{"attributes":{"ID":234509,"DIS_CODE":0,"TOWNNAME":"永康區","LI":"二王里","LIN":"34鄰","STREET":"中山南路","SECT":" ","MAREA":" ","LANE":"４９０巷","ALLEY":" ","HOUSE_NO":"１０號之１５","E_COORD97":172157.14000000001,"N_COORD97":2546351.98,"ADDRESS":"中山南路４９０巷１０號之１５","OBJECTID":234505},"geometry":{"x":172157.1400000006,"y":2546351.9800000023}},{"attributes":{"ID":234510,"DIS_CODE":0,"TOWNNAME":"中西區","LI":"西湖里","LIN":"4鄰","STREET":"頂美一街","SECT":" ","MAREA":" ","LANE":"３６巷","ALLEY":" ","HOUSE_NO":"１５號","E_COORD97":166387.73999999999,"N_COORD97":2544527.6099999999,"ADDRESS":"頂美一街３６巷１５號","OBJECTID":234506},"geometry":{"x":166387.74000000022,"y":2544527.6099999994}},{"attributes":{"ID":234511,"DIS_CODE":0,"TOWNNAME":"中西區","LI":"西湖里","LIN":"4鄰","STREET":"頂美一街","SECT":" ","MAREA":" ","LANE":"３６巷","ALLEY":" ","HOUSE_NO":"１７號","E_COORD97":166396.38,"N_COORD97":2544529.6400000001,"ADDRESS":"頂美一街３６巷１７號","OBJECTID":234507},"geometry":{"x":166396.37999999989,"y":2544529.6400000025}},{"attributes":{"ID":234512,"DIS_CODE":0,"TOWNNAME":"中西區","LI":"西湖里","LIN":"4鄰","STREET":"頂美一街","SECT":" ","MAREA":" ","LANE":"３６巷","ALLEY":" ","HOUSE_NO":"１９號","E_COORD97":166405.26999999999,"N_COORD97":2544530.1499999999,"ADDRESS":"頂美一街３６巷１９號","OBJECTID":234508},"geometry":{"x":166405.26999999955,"y":2544530.1500000022}},{"attributes":{"ID":234513,"DIS_CODE":0,"TOWNNAME":"中西區","LI":"西湖里","LIN":"6鄰","STREET":"頂美一街","SECT":" ","MAREA":" ","LANE":"７０巷","ALLEY":" ","HOUSE_NO":"１３號","E_COORD97":166351.29000000001,"N_COORD97":2544658.9199999999,"ADDRESS":"頂美一街７０巷１３號","OBJECTID":234509},"geometry":{"x":166351.29000000004,"y":2544658.9200000037}},{"attributes":{"ID":234514,"DIS_CODE":0,"TOWNNAME":"安南區","LI":"佃東里","LIN":"14鄰","STREET":"公學路","SECT":"三段","MAREA":" ","LANE":" ","ALLEY":" ","HOUSE_NO":"３５２之６號","E_COORD97":166231.43612999999,"N_COORD97":2552145.10745,"ADDRESS":"公學路三段３５２之６號","OBJECTID":234510},"geometry":{"x":166231.43613000214,"y":2552145.1074550003}},{"attributes":{"ID":234515,"DIS_CODE":0,"TOWNNAME":"中西區","LI":"西湖里","LIN":"6鄰","STREET":"頂美一街","SECT":" ","MAREA":" ","LANE":"７０巷","ALLEY":" ","HOUSE_NO":"１５號","E_COORD97":166357.13,"N_COORD97":2544659.3999999999,"ADDRESS":"頂美一街７０巷１５號","OBJECTID":234511},"geometry":{"x":166357.12999999989,"y":2544659.4000000041}},{"attributes":{"ID":234516,"DIS_CODE":0,"TOWNNAME":"中西區","LI":"西湖里","LIN":"20鄰","STREET":"湖美街","SECT":" ","MAREA":" ","LANE":"１２巷","ALLEY":" ","HOUSE_NO":"２６號","E_COORD97":166021.22,"N_COORD97":2544456.9199999999,"ADDRESS":"湖美街１２巷２６號","OBJECTID":234512},"geometry":{"x":166021.21999999881,"y":2544456.9200000018}},{"attributes":{"ID":234517,"DIS_CODE":0,"TOWNNAME":"中西區","LI":"西湖里","LIN":"20鄰","STREET":"湖美街","SECT":" ","MAREA":" ","LANE":"１２巷","ALLEY":" ","HOUSE_NO":"２７號","E_COORD97":166024.69,"N_COORD97":2544485.77,"ADDRESS":"湖美街１２巷２７號","OBJECTID":234513},"geometry":{"x":166024.69000000134,"y":2544485.7699999996}},{"attributes":{"ID":234518,"DIS_CODE":0,"TOWNNAME":"安南區","LI":"佃東里","LIN":"14鄰","STREET":"公學路","SECT":"三段","MAREA":" ","LANE":" ","ALLEY":" ","HOUSE_NO":"３５３號","E_COORD97":166328.23000000001,"N_COORD97":2552089.1800000002,"ADDRESS":"公學路三段３５３號","OBJECTID":234514},"geometry":{"x":166328.23000000045,"y":2552089.1800000016}},{"attributes":{"ID":234519,"DIS_CODE":0,"TOWNNAME":"關廟區","LI":"松腳里","LIN":"16鄰","STREET":"民族街","SECT":" ","MAREA":" ","LANE":"１６巷","ALLEY":" ","HOUSE_NO":"２２號","E_COORD97":181641.48999999999,"N_COORD97":2539822.29,"ADDRESS":"民族街１６巷２２號","OBJECTID":234515},"geometry":{"x":181641.49000000115,"y":2539822.290000001}},{"attributes":{"ID":234520,"DIS_CODE":0,"TOWNNAME":"仁德區","LI":"太子里","LIN":"32鄰","STREET":"太子三街","SECT":" ","MAREA":" ","LANE":"２３巷","ALLEY":" ","HOUSE_NO":"７號","E_COORD97":174008.70999999999,"N_COORD97":2543405.7599999998,"ADDRESS":"太子三街２３巷７號","OBJECTID":234516},"geometry":{"x":174008.70999999996,"y":2543405.7600000016}},{"attributes":{"ID":234521,"DIS_CODE":0,"TOWNNAME":"仁德區","LI":"太子里","LIN":"32鄰","STREET":"太子三街","SECT":" ","MAREA":" ","LANE":"２３巷","ALLEY":" ","HOUSE_NO":"５號","E_COORD97":174009.57000000001,"N_COORD97":2543413.2599999998,"ADDRESS":"太子三街２３巷５號","OBJECTID":234517},"geometry":{"x":174009.57000000123,"y":2543413.2600000016}},{"attributes":{"ID":234522,"DIS_CODE":0,"TOWNNAME":"仁德區","LI":"仁義里","LIN":"55鄰","STREET":"中正路","SECT":"二段","MAREA":" ","LANE":"１１６０巷","ALLEY":" ","HOUSE_NO":"３５號","E_COORD97":173333.51999999999,"N_COORD97":2541258.2799999998,"ADDRESS":"中正路二段１１６０巷３５號","OBJECTID":234518},"geometry":{"x":173333.51999999955,"y":2541258.2799999975}},{"attributes":{"ID":234523,"DIS_CODE":0,"TOWNNAME":"仁德區","LI":"仁義里","LIN":"8鄰","STREET":"中山路","SECT":" ","MAREA":" ","LANE":"５０９巷","ALLEY":" ","HOUSE_NO":"２３號","E_COORD97":173545.07000000001,"N_COORD97":2541207.7400000002,"ADDRESS":"中山路５０９巷２３號","OBJECTID":234519},"geometry":{"x":173545.07000000123,"y":2541207.7400000002}},{"attributes":{"ID":234524,"DIS_CODE":0,"TOWNNAME":"仁德區","LI":"太子里","LIN":"32鄰","STREET":"太子路","SECT":" ","MAREA":" ","LANE":"４９５巷","ALLEY":" ","HOUSE_NO":"３號","E_COORD97":174025.31,"N_COORD97":2543484,"ADDRESS":"太子路４９５巷３號","OBJECTID":234520},"geometry":{"x":174025.31000000145,"y":2543484}},{"attributes":{"ID":234525,"DIS_CODE":0,"TOWNNAME":"仁德區","LI":"太子里","LIN":"42鄰","STREET":"太子路","SECT":" ","MAREA":" ","LANE":"２８巷","ALLEY":" ","HOUSE_NO":"７號","E_COORD97":175324.88,"N_COORD97":2543612.5099999998,"ADDRESS":"太子路２８巷７號","OBJECTID":234521},"geometry":{"x":175324.87999999989,"y":2543612.5099999998}},{"attributes":{"ID":234526,"DIS_CODE":0,"TOWNNAME":"仁德區","LI":"太子里","LIN":"46鄰","STREET":"太子一街","SECT":" ","MAREA":" ","LANE":"４３巷","ALLEY":" ","HOUSE_NO":"１１號","E_COORD97":174832.64999999999,"N_COORD97":2543311.7599999998,"ADDRESS":"太子一街４３巷１１號","OBJECTID":234522},"geometry":{"x":174832.6500000013,"y":2543311.7600000016}},{"attributes":{"ID":234527,"DIS_CODE":0,"TOWNNAME":"仁德區","LI":"仁義里","LIN":"39鄰","STREET":"仁義五街","SECT":" ","MAREA":" ","LANE":"４４巷","ALLEY":" ","HOUSE_NO":"７號","E_COORD97":173611.03,"N_COORD97":2540412.02,"ADDRESS":"仁義五街４４巷７號","OBJECTID":234523},"geometry":{"x":173611.03000000119,"y":2540412.0199999996}},{"attributes":{"ID":234528,"DIS_CODE":0,"TOWNNAME":"仁德區","LI":"仁義里","LIN":"20鄰","STREET":"中山路","SECT":" ","MAREA":" ","LANE":"３２８巷","ALLEY":" ","HOUSE_NO":"１號","E_COORD97":173943.13,"N_COORD97":2541295.7400000002,"ADDRESS":"中山路３２８巷１號","OBJECTID":234524},"geometry":{"x":173943.12999999989,"y":2541295.7400000002}},{"attributes":{"ID":234529,"DIS_CODE":0,"TOWNNAME":"安南區","LI":"佃東里","LIN":"14鄰","STREET":"公學路","SECT":"三段","MAREA":" ","LANE":" ","ALLEY":" ","HOUSE_NO":"３５７號","E_COORD97":166319.97,"N_COORD97":2552088.5499999998,"ADDRESS":"公學路三段３５７號","OBJECTID":234525},"geometry":{"x":166319.97000000067,"y":2552088.5500000026}},{"attributes":{"ID":234530,"DIS_CODE":0,"TOWNNAME":"關廟區","LI":"香洋里","LIN":"16鄰","STREET":"花園一街","SECT":" ","MAREA":" ","LANE":"２７９巷","ALLEY":" ","HOUSE_NO":"７號","E_COORD97":181466.38,"N_COORD97":2540149.1899999999,"ADDRESS":"花園一街２７９巷７號","OBJECTID":234526},"geometry":{"x":181466.37999999989,"y":2540149.1899999995}},{"attributes":{"ID":234531,"DIS_CODE":0,"TOWNNAME":"新化區","LI":"全興里","LIN":"16鄰","STREET":" ","SECT":" ","MAREA":"竹子\u25A0","LANE":" ","ALLEY":" ","HOUSE_NO":"２４７號之６７５","E_COORD97":178209.19,"N_COORD97":2546609.2599999998,"ADDRESS":"竹子\u25A0２４７號之６７５","OBJECTID":234527},"geometry":{"x":178209.19000000134,"y":2546609.2600000035}},{"attributes":{"ID":234532,"DIS_CODE":0,"TOWNNAME":"新化區","LI":"全興里","LIN":"16鄰","STREET":" ","SECT":" ","MAREA":"竹子\u25A0","LANE":" ","ALLEY":" ","HOUSE_NO":"２４７號之５６２","E_COORD97":178226.48999999999,"N_COORD97":2546636.2599999998,"ADDRESS":"竹子\u25A0２４７號之５６２","OBJECTID":234528},"geometry":{"x":178226.49000000022,"y":2546636.2600000035}},{"attributes":{"ID":234533,"DIS_CODE":0,"TOWNNAME":"關廟區","LI":"香洋里","LIN":"16鄰","STREET":"花園一街","SECT":" ","MAREA":" ","LANE":"２７９巷","ALLEY":" ","HOUSE_NO":"５號","E_COORD97":181467.57999999999,"N_COORD97":2540154.1899999999,"ADDRESS":"花園一街２７９巷５號","OBJECTID":234529},"geometry":{"x":181467.58000000194,"y":2540154.1900000032}},{"attributes":{"ID":234534,"DIS_CODE":0,"TOWNNAME":"仁德區","LI":"仁義里","LIN":"39鄰","STREET":"仁義五街","SECT":" ","MAREA":" ","LANE":"４４巷","ALLEY":" ","HOUSE_NO":"２４號","E_COORD97":173587.35000000001,"N_COORD97":2540379.4199999999,"ADDRESS":"仁義五街４４巷２４號","OBJECTID":234530},"geometry":{"x":173587.34999999963,"y":2540379.4199999999}},{"attributes":{"ID":234535,"DIS_CODE":0,"TOWNNAME":"仁德區","LI":"仁義里","LIN":"39鄰","STREET":"仁義五街","SECT":" ","MAREA":" ","LANE":"４４巷","ALLEY":" ","HOUSE_NO":"１６號","E_COORD97":173590.45999999999,"N_COORD97":2540394.9199999999,"ADDRESS":"仁義五街４４巷１６號","OBJECTID":234531},"geometry":{"x":173590.45999999996,"y":2540394.9200000018}},{"attributes":{"ID":234536,"DIS_CODE":0,"TOWNNAME":"仁德區","LI":"仁義里","LIN":"5鄰","STREET":"中山路","SECT":" ","MAREA":" ","LANE":"３７９巷","ALLEY":" ","HOUSE_NO":"５號","E_COORD97":173888.17999999999,"N_COORD97":2541213.9900000002,"ADDRESS":"中山路３７９巷５號","OBJECTID":234532},"geometry":{"x":173888.1799999997,"y":2541213.9900000039}},{"attributes":{"ID":234537,"DIS_CODE":0,"TOWNNAME":"仁德區","LI":"仁義里","LIN":"18鄰","STREET":"正義路","SECT":" ","MAREA":" ","LANE":"１９１巷","ALLEY":" ","HOUSE_NO":"３號","E_COORD97":173883.70999999999,"N_COORD97":2541411.5099999998,"ADDRESS":"正義路１９１巷３號","OBJECTID":234533},"geometry":{"x":173883.70999999996,"y":2541411.5100000016}},{"attributes":{"ID":234538,"DIS_CODE":0,"TOWNNAME":"仁德區","LI":"仁義里","LIN":"4鄰","STREET":"仁義三街","SECT":" ","MAREA":" ","LANE":"１９８巷","ALLEY":" ","HOUSE_NO":"５號","E_COORD97":173842.53,"N_COORD97":2541086.2599999998,"ADDRESS":"仁義三街１９８巷５號","OBJECTID":234534},"geometry":{"x":173842.53000000026,"y":2541086.2600000035}},{"attributes":{"ID":234539,"DIS_CODE":0,"TOWNNAME":"仁德區","LI":"田厝里","LIN":"4鄰","STREET":"保安路","SECT":"二段","MAREA":" ","LANE":"４８２巷","ALLEY":" ","HOUSE_NO":"５號","E_COORD97":172468.01999999999,"N_COORD97":2537494.0600000001,"ADDRESS":"保安路二段４８２巷５號","OBJECTID":234535},"geometry":{"x":172468.02000000048,"y":2537494.0600000005}},{"attributes":{"ID":234540,"DIS_CODE":0,"TOWNNAME":"仁德區","LI":"保安里","LIN":"5鄰","STREET":"中正路","SECT":"一段","MAREA":" ","LANE":"２００巷","ALLEY":" ","HOUSE_NO":"２０號","E_COORD97":171623.13,"N_COORD97":2535735.52,"ADDRESS":"中正路一段２００巷２０號","OBJECTID":234536},"geometry":{"x":171623.13000000175,"y":2535735.5200000014}},{"attributes":{"ID":234541,"DIS_CODE":0,"TOWNNAME":"仁德區","LI":"仁德里","LIN":"43鄰","STREET":"中山路","SECT":" ","MAREA":" ","LANE":"９１０巷","ALLEY":" ","HOUSE_NO":"２１號","E_COORD97":171981.32000000001,"N_COORD97":2541802.4900000002,"ADDRESS":"中山路９１０巷２１號","OBJECTID":234537},"geometry":{"x":171981.3200000003,"y":2541802.4900000002}},{"attributes":{"ID":234542,"DIS_CODE":0,"TOWNNAME":"仁德區","LI":"仁德里","LIN":"25鄰","STREET":"淨修街","SECT":" ","MAREA":" ","LANE":"１５７巷","ALLEY":" ","HOUSE_NO":"１８號","E_COORD97":171938.70999999999,"N_COORD97":2541307.25,"ADDRESS":"淨修街１５７巷１８號","OBJECTID":234538},"geometry":{"x":171938.71000000089,"y":2541307.2500000019}},{"attributes":{"ID":234543,"DIS_CODE":0,"TOWNNAME":"仁德區","LI":"太子里","LIN":"41鄰","STREET":"太子路","SECT":" ","MAREA":" ","LANE":"４２巷","ALLEY":" ","HOUSE_NO":"５號","E_COORD97":175280.47,"N_COORD97":2543613.5099999998,"ADDRESS":"太子路４２巷５號","OBJECTID":234539},"geometry":{"x":175280.4700000016,"y":2543613.5099999979}},{"attributes":{"ID":234544,"DIS_CODE":0,"TOWNNAME":"仁德區","LI":"仁德里","LIN":"43鄰","STREET":"中山路","SECT":" ","MAREA":" ","LANE":"９１０巷","ALLEY":" ","HOUSE_NO":"１號","E_COORD97":171985.85999999999,"N_COORD97":2541741.9900000002,"ADDRESS":"中山路９１０巷１號","OBJECTID":234540},"geometry":{"x":171985.86000000034,"y":2541741.9900000002}},{"attributes":{"ID":234545,"DIS_CODE":0,"TOWNNAME":"安南區","LI":"城東里","LIN":"14鄰","STREET":"城安路","SECT":" ","MAREA":" ","LANE":" ","ALLEY":" ","HOUSE_NO":"１６０之６號","E_COORD97":160703.44,"N_COORD97":2551939.8700000001,"ADDRESS":"城安路１６０之６號","OBJECTID":234541},"geometry":{"x":160703.44000000134,"y":2551939.8700000029}},{"attributes":{"ID":234546,"DIS_CODE":0,"TOWNNAME":"關廟區","LI":"北花里","LIN":"16鄰","STREET":"中正路","SECT":" ","MAREA":" ","LANE":" ","ALLEY":" ","HOUSE_NO":"１８８號","E_COORD97":183320.26000000001,"N_COORD97":2540902.25,"ADDRESS":"中正路１８８號","OBJECTID":234542},"geometry":{"x":183320.25999999978,"y":2540902.25}},{"attributes":{"ID":234547,"DIS_CODE":0,"TOWNNAME":"新化區","LI":"全興里","LIN":"16鄰","STREET":" ","SECT":" ","MAREA":"竹子\u25A0","LANE":" ","ALLEY":" ","HOUSE_NO":"２４７號之５０１","E_COORD97":178268.85999999999,"N_COORD97":2546665.2599999998,"ADDRESS":"竹子\u25A0２４７號之５０１","OBJECTID":234543},"geometry":{"x":178268.8600000022,"y":2546665.2599999998}},{"attributes":{"ID":234548,"DIS_CODE":0,"TOWNNAME":"新化區","LI":"全興里","LIN":"16鄰","STREET":" ","SECT":" ","MAREA":"竹子\u25A0","LANE":" ","ALLEY":" ","HOUSE_NO":"２４７號之５１１","E_COORD97":178246.16,"N_COORD97":2546665.2599999998,"ADDRESS":"竹子\u25A0２４７號之５１１","OBJECTID":234544},"geometry":{"x":178246.16000000201,"y":2546665.2599999998}},{"attributes":{"ID":234549,"DIS_CODE":0,"TOWNNAME":"新化區","LI":"全興里","LIN":"16鄰","STREET":" ","SECT":" ","MAREA":"竹子\u25A0","LANE":" ","ALLEY":" ","HOUSE_NO":"２４７號之６５７","E_COORD97":178250.48000000001,"N_COORD97":2546608.2599999998,"ADDRESS":"竹子\u25A0２４７號之６５７","OBJECTID":234545},"geometry":{"x":178250.48000000045,"y":2546608.2599999998}},{"attributes":{"ID":234550,"DIS_CODE":0,"TOWNNAME":"鹽水區","LI":"孫厝里","LIN":"16鄰","STREET":" ","SECT":" ","MAREA":"羊稠厝","LANE":" ","ALLEY":" ","HOUSE_NO":"４３號","E_COORD97":169507.10999999999,"N_COORD97":2575767.02,"ADDRESS":"羊稠厝４３號","OBJECTID":234546},"geometry":{"x":169507.11000000127,"y":2575767.0199999996}},{"attributes":{"ID":234551,"DIS_CODE":0,"TOWNNAME":"仁德區","LI":"仁德里","LIN":"43鄰","STREET":"中山路","SECT":" ","MAREA":" ","LANE":"９１０巷","ALLEY":" ","HOUSE_NO":"２３號","E_COORD97":171985.23999999999,"N_COORD97":2541812.4900000002,"ADDRESS":"中山路９１０巷２３號","OBJECTID":234547},"geometry":{"x":171985.24000000022,"y":2541812.4900000002}},{"attributes":{"ID":234552,"DIS_CODE":0,"TOWNNAME":"仁德區","LI":"田厝里","LIN":"4鄰","STREET":"田厝三街","SECT":" ","MAREA":" ","LANE":"９３巷","ALLEY":" ","HOUSE_NO":"４３號","E_COORD97":172490.70000000001,"N_COORD97":2537506.75,"ADDRESS":"田厝三街９３巷４３號","OBJECTID":234548},"geometry":{"x":172490.69999999925,"y":2537506.7500000019}},{"attributes":{"ID":234553,"DIS_CODE":0,"TOWNNAME":"仁德區","LI":"仁德里","LIN":"43鄰","STREET":"中山路","SECT":" ","MAREA":" ","LANE":"９１０巷","ALLEY":" ","HOUSE_NO":"９號","E_COORD97":172005.78,"N_COORD97":2541745,"ADDRESS":"中山路９１０巷９號","OBJECTID":234549},"geometry":{"x":172005.78000000119,"y":2541745}},{"attributes":{"ID":234554,"DIS_CODE":0,"TOWNNAME":"仁德區","LI":"成功里","LIN":"4鄰","STREET":"成功三街","SECT":" ","MAREA":" ","LANE":"９３巷","ALLEY":" ","HOUSE_NO":"１０號","E_COORD97":171218.5,"N_COORD97":2539790.27,"ADDRESS":"成功三街９３巷１０號","OBJECTID":234550},"geometry":{"x":171218.5,"y":2539790.2699999996}},{"attributes":{"ID":234555,"DIS_CODE":0,"TOWNNAME":"仁德區","LI":"仁德里","LIN":"43鄰","STREET":"中山路","SECT":" ","MAREA":" ","LANE":"９１０巷","ALLEY":" ","HOUSE_NO":"２５號","E_COORD97":171990.13,"N_COORD97":2541813.4900000002,"ADDRESS":"中山路９１０巷２５號","OBJECTID":234551},"geometry":{"x":171990.12999999989,"y":2541813.4900000002}},{"attributes":{"ID":234556,"DIS_CODE":0,"TOWNNAME":"仁德區","LI":"保安里","LIN":"20鄰","STREET":"保安路","SECT":"一段","MAREA":" ","LANE":"１９巷","ALLEY":" ","HOUSE_NO":"９號","E_COORD97":170420.95000000001,"N_COORD97":2536239.0600000001,"ADDRESS":"保安路一段１９巷９號","OBJECTID":234552},"geometry":{"x":170420.95000000205,"y":2536239.0600000005}},{"attributes":{"ID":234557,"DIS_CODE":0,"TOWNNAME":"安南區","LI":"溪東里","LIN":"19鄰","STREET":"郡安路","SECT":"五段","MAREA":" ","LANE":"１４巷","ALLEY":" ","HOUSE_NO":"３號","E_COORD97":168348.72,"N_COORD97":2547645.3999999999,"ADDRESS":"郡安路五段１４巷３號","OBJECTID":234553},"geometry":{"x":168348.71999999881,"y":2547645.4000000004}},{"attributes":{"ID":234558,"DIS_CODE":0,"TOWNNAME":"安南區","LI":"國安里","LIN":"2鄰","STREET":"國安街","SECT":" ","MAREA":" ","LANE":"１５６巷","ALLEY":" ","HOUSE_NO":"８９號","E_COORD97":166672.95000000001,"N_COORD97":2547219.7799999998,"ADDRESS":"國安街１５６巷８９號","OBJECTID":234554},"geometry":{"x":166672.95000000205,"y":2547219.7800000012}},{"attributes":{"ID":234559,"DIS_CODE":0,"TOWNNAME":"安南區","LI":"溪東里","LIN":"19鄰","STREET":"郡安路","SECT":"五段","MAREA":" ","LANE":"１４巷","ALLEY":" ","HOUSE_NO":"５號","E_COORD97":168342.39000000001,"N_COORD97":2547644.1600000001,"ADDRESS":"郡安路五段１４巷５號","OBJECTID":234555},"geometry":{"x":168342.38999999966,"y":2547644.1600000039}},{"attributes":{"ID":234560,"DIS_CODE":0,"TOWNNAME":"安南區","LI":"溪東里","LIN":"19鄰","STREET":"郡安路","SECT":"五段","MAREA":" ","LANE":"１４巷","ALLEY":" ","HOUSE_NO":"７號","E_COORD97":168334.39999999999,"N_COORD97":2547641.5600000001,"ADDRESS":"郡安路五段１４巷７號","OBJECTID":234556},"geometry":{"x":168334.40000000037,"y":2547641.5600000005}},{"attributes":{"ID":234561,"DIS_CODE":0,"TOWNNAME":"安南區","LI":"溪東里","LIN":"19鄰","STREET":"郡安路","SECT":"五段","MAREA":" ","LANE":"１４巷","ALLEY":" ","HOUSE_NO":"１７號","E_COORD97":168302.53,"N_COORD97":2547637.1600000001,"ADDRESS":"郡安路五段１４巷１７號","OBJECTID":234557},"geometry":{"x":168302.53000000026,"y":2547637.1600000001}},{"attributes":{"ID":234562,"DIS_CODE":0,"TOWNNAME":"安南區","LI":"溪東里","LIN":"19鄰","STREET":"郡安路","SECT":"五段","MAREA":" ","LANE":"１４巷","ALLEY":" ","HOUSE_NO":"２３號","E_COORD97":168280.03,"N_COORD97":2547635.5699999998,"ADDRESS":"郡安路五段１４巷２３號","OBJECTID":234558},"geometry":{"x":168280.03000000119,"y":2547635.5700000022}},{"attributes":{"ID":234563,"DIS_CODE":0,"TOWNNAME":"東區","LI":"忠孝里","LIN":"23鄰","STREET":"崇明五街","SECT":" ","MAREA":" ","LANE":" ","ALLEY":" ","HOUSE_NO":"６號","E_COORD97":169588.82999999999,"N_COORD97":2542220.7400000002,"ADDRESS":"崇明五街６號","OBJECTID":234559},"geometry":{"x":169588.83000000007,"y":2542220.7400000021}},{"attributes":{"ID":234564,"DIS_CODE":0,"TOWNNAME":"鹽水區","LI":"孫厝里","LIN":"16鄰","STREET":" ","SECT":" ","MAREA":"羊稠厝","LANE":" ","ALLEY":" ","HOUSE_NO":"３４號","E_COORD97":169521.56,"N_COORD97":2575844.9900000002,"ADDRESS":"羊稠厝３４號","OBJECTID":234560},"geometry":{"x":169521.56000000052,"y":2575844.9900000002}},{"attributes":{"ID":234565,"DIS_CODE":0,"TOWNNAME":"北區","LI":"新勝里","LIN":"16鄰","STREET":"長榮路","SECT":"五段","MAREA":" ","LANE":"２１１巷","ALLEY":" ","HOUSE_NO":"８號","E_COORD97":170024.29000000001,"N_COORD97":2545877.98,"ADDRESS":"長榮路五段２１１巷８號","OBJECTID":234561},"geometry":{"x":170024.29000000097,"y":2545877.9800000004}},{"attributes":{"ID":234566,"DIS_CODE":0,"TOWNNAME":"安南區","LI":"溪東里","LIN":"18鄰","STREET":"北安路","SECT":"二段","MAREA":" ","LANE":"１４７巷","ALLEY":" ","HOUSE_NO":"４８號","E_COORD97":168302.97,"N_COORD97":2547588.9399999999,"ADDRESS":"北安路二段１４７巷４８號","OBJECTID":234562},"geometry":{"x":168302.96999999881,"y":2547588.9400000013}},{"attributes":{"ID":234567,"DIS_CODE":0,"TOWNNAME":"安南區","LI":"溪墘里","LIN":"25鄰","STREET":"安寧街","SECT":" ","MAREA":" ","LANE":"９巷","ALLEY":" ","HOUSE_NO":"３號","E_COORD97":167414.64000000001,"N_COORD97":2546874,"ADDRESS":"安寧街９巷３號","OBJECTID":234563},"geometry":{"x":167414.63999999966,"y":2546874}},{"attributes":{"ID":234568,"DIS_CODE":0,"TOWNNAME":"東區","LI":"虎尾里","LIN":"14鄰","STREET":"東成街","SECT":" ","MAREA":" ","LANE":"１１１巷","ALLEY":" ","HOUSE_NO":"１１號","E_COORD97":171586.67000000001,"N_COORD97":2542359.8199999998,"ADDRESS":"東成街１１１巷１１號","OBJECTID":234564},"geometry":{"x":171586.66999999993,"y":2542359.8200000003}},{"attributes":{"ID":234569,"DIS_CODE":0,"TOWNNAME":"東區","LI":"虎尾里","LIN":"14鄰","STREET":"東成街","SECT":" ","MAREA":" ","LANE":"１１１巷","ALLEY":" ","HOUSE_NO":"１３號","E_COORD97":171585.47,"N_COORD97":2542365.02,"ADDRESS":"東成街１１１巷１３號","OBJECTID":234565},"geometry":{"x":171585.47000000067,"y":2542365.0199999996}},{"attributes":{"ID":234570,"DIS_CODE":0,"TOWNNAME":"東區","LI":"虎尾里","LIN":"18鄰","STREET":"富農街","SECT":"一段","MAREA":" ","LANE":"１３８巷","ALLEY":" ","HOUSE_NO":"１１號","E_COORD97":171572.26999999999,"N_COORD97":2542360.6200000001,"ADDRESS":"富農街一段１３８巷１１號","OBJECTID":234566},"geometry":{"x":171572.26999999955,"y":2542360.6200000029}},{"attributes":{"ID":234571,"DIS_CODE":0,"TOWNNAME":"東區","LI":"德高里","LIN":"13鄰","STREET":"崇善路","SECT":" ","MAREA":" ","LANE":"１０８９巷","ALLEY":" ","HOUSE_NO":"１號","E_COORD97":171554.59,"N_COORD97":2540537.6400000001,"ADDRESS":"崇善路１０８９巷１號","OBJECTID":234567},"geometry":{"x":171554.59000000078,"y":2540537.6400000006}},{"attributes":{"ID":234572,"DIS_CODE":0,"TOWNNAME":"東區","LI":"德高里","LIN":"13鄰","STREET":"崇善路","SECT":" ","MAREA":" ","LANE":"１０８９巷","ALLEY":" ","HOUSE_NO":"５號","E_COORD97":171562.45999999999,"N_COORD97":2540543.7799999998,"ADDRESS":"崇善路１０８９巷５號","OBJECTID":234568},"geometry":{"x":171562.45999999996,"y":2540543.7800000012}},{"attributes":{"ID":234573,"DIS_CODE":0,"TOWNNAME":"東區","LI":"新東里","LIN":"14鄰","STREET":"裕豐街","SECT":" ","MAREA":" ","LANE":"１１５巷","ALLEY":" ","HOUSE_NO":"２１號","E_COORD97":170693.60999999999,"N_COORD97":2542995.3999999999,"ADDRESS":"裕豐街１１５巷２１號","OBJECTID":234569},"geometry":{"x":170693.61000000127,"y":2542995.4000000022}},{"attributes":{"ID":234574,"DIS_CODE":0,"TOWNNAME":"東區","LI":"新東里","LIN":"14鄰","STREET":"裕豐街","SECT":" ","MAREA":" ","LANE":"１１５巷","ALLEY":" ","HOUSE_NO":"２３號","E_COORD97":170688.20999999999,"N_COORD97":2542994.2200000002,"ADDRESS":"裕豐街１１５巷２３號","OBJECTID":234570},"geometry":{"x":170688.20999999996,"y":2542994.2200000025}},{"attributes":{"ID":234575,"DIS_CODE":0,"TOWNNAME":"東區","LI":"關聖里","LIN":"4鄰","STREET":"裕農路","SECT":" ","MAREA":" ","LANE":"６６８巷","ALLEY":" ","HOUSE_NO":"６５號","E_COORD97":171763.17999999999,"N_COORD97":2542931.27,"ADDRESS":"裕農路６６８巷６５號","OBJECTID":234571},"geometry":{"x":171763.18000000156,"y":2542931.2700000014}},{"attributes":{"ID":234576,"DIS_CODE":0,"TOWNNAME":"東區","LI":"關聖里","LIN":"4鄰","STREET":"裕農路","SECT":" ","MAREA":" ","LANE":"６６８巷","ALLEY":" ","HOUSE_NO":"５３號","E_COORD97":171761.20999999999,"N_COORD97":2542993.21,"ADDRESS":"裕農路６６８巷５３號","OBJECTID":234572},"geometry":{"x":171761.20999999996,"y":2542993.2100000046}},{"attributes":{"ID":234577,"DIS_CODE":0,"TOWNNAME":"東區","LI":"關聖里","LIN":"4鄰","STREET":"裕農路","SECT":" ","MAREA":" ","LANE":"６６８巷","ALLEY":" ","HOUSE_NO":"５５號","E_COORD97":171760.62,"N_COORD97":2542989.4700000002,"ADDRESS":"裕農路６６８巷５５號","OBJECTID":234573},"geometry":{"x":171760.62000000197,"y":2542989.4700000007}},{"attributes":{"ID":234578,"DIS_CODE":0,"TOWNNAME":"東區","LI":"關聖里","LIN":"4鄰","STREET":"裕農路","SECT":" ","MAREA":" ","LANE":"６６８巷","ALLEY":" ","HOUSE_NO":"５７號","E_COORD97":171760.62,"N_COORD97":2542984.9300000002,"ADDRESS":"裕農路６６８巷５７號","OBJECTID":234574},"geometry":{"x":171760.62000000197,"y":2542984.9300000016}},{"attributes":{"ID":234579,"DIS_CODE":0,"TOWNNAME":"東區","LI":"關聖里","LIN":"4鄰","STREET":"裕農路","SECT":" ","MAREA":" ","LANE":"６６８巷","ALLEY":" ","HOUSE_NO":"５９號","E_COORD97":171761.01000000001,"N_COORD97":2542980.98,"ADDRESS":"裕農路６６８巷５９號","OBJECTID":234575},"geometry":{"x":171761.01000000164,"y":2542980.9800000023}},{"attributes":{"ID":234580,"DIS_CODE":0,"TOWNNAME":"東區","LI":"關聖里","LIN":"4鄰","STREET":"裕農路","SECT":" ","MAREA":" ","LANE":"６６８巷","ALLEY":" ","HOUSE_NO":"６１號","E_COORD97":171761.60000000001,"N_COORD97":2542976.4500000002,"ADDRESS":"裕農路６６８巷６１號","OBJECTID":234576},"geometry":{"x":171761.59999999963,"y":2542976.4500000011}},{"attributes":{"ID":234581,"DIS_CODE":0,"TOWNNAME":"歸仁區","LI":"武東里","LIN":"4鄰","STREET":"武東二街","SECT":" ","MAREA":" ","LANE":"３６巷","ALLEY":" ","HOUSE_NO":"１８號","E_COORD97":175517.59143599999,"N_COORD97":2535288.6218599998,"ADDRESS":"武東二街３６巷１８號","OBJECTID":234577},"geometry":{"x":175517.59143599868,"y":2535288.6218620036}},{"attributes":{"ID":234582,"DIS_CODE":0,"TOWNNAME":"安南區","LI":"城東里","LIN":"14鄰","STREET":"城安路","SECT":" ","MAREA":" ","LANE":" ","ALLEY":" ","HOUSE_NO":"１６０之７號","E_COORD97":160707.41,"N_COORD97":2551940.3500000001,"ADDRESS":"城安路１６０之７號","OBJECTID":234578},"geometry":{"x":160707.41000000015,"y":2551940.3499999996}},{"attributes":{"ID":234583,"DIS_CODE":0,"TOWNNAME":"東區","LI":"關聖里","LIN":"4鄰","STREET":"裕農路","SECT":" ","MAREA":" ","LANE":"６６８巷","ALLEY":" ","HOUSE_NO":"６３號","E_COORD97":171760.62,"N_COORD97":2542972.5,"ADDRESS":"裕農路６６８巷６３號","OBJECTID":234579},"geometry":{"x":171760.62000000197,"y":2542972.5}},{"attributes":{"ID":234584,"DIS_CODE":0,"TOWNNAME":"東區","LI":"關聖里","LIN":"4鄰","STREET":"裕農路","SECT":" ","MAREA":" ","LANE":"６６８巷","ALLEY":" ","HOUSE_NO":"６３號之１","E_COORD97":171762.59,"N_COORD97":2542968.5499999998,"ADDRESS":"裕農路６６８巷６３號之１","OBJECTID":234580},"geometry":{"x":171762.59000000078,"y":2542968.5500000026}},{"attributes":{"ID":234585,"DIS_CODE":0,"TOWNNAME":"東區","LI":"關聖里","LIN":"4鄰","STREET":"裕農路","SECT":" ","MAREA":" ","LANE":"６６８巷","ALLEY":" ","HOUSE_NO":"６３號之２","E_COORD97":171763.17999999999,"N_COORD97":2542964.21,"ADDRESS":"裕農路６６８巷６３號之２","OBJECTID":234581},"geometry":{"x":171763.18000000156,"y":2542964.2100000028}},{"attributes":{"ID":234586,"DIS_CODE":0,"TOWNNAME":"東區","LI":"莊敬里","LIN":"15鄰","STREET":"東光路","SECT":"二段","MAREA":" ","LANE":"５５巷","ALLEY":" ","HOUSE_NO":"４號","E_COORD97":171184.87,"N_COORD97":2544106.29,"ADDRESS":"東光路二段５５巷４號","OBJECTID":234582},"geometry":{"x":171184.87000000104,"y":2544106.2900000028}},{"attributes":{"ID":234587,"DIS_CODE":0,"TOWNNAME":"東區","LI":"莊敬里","LIN":"15鄰","STREET":"東光路","SECT":"二段","MAREA":" ","LANE":"５５巷","ALLEY":" ","HOUSE_NO":"６號","E_COORD97":171180.35000000001,"N_COORD97":2544106.5099999998,"ADDRESS":"東光路二段５５巷６號","OBJECTID":234583},"geometry":{"x":171180.34999999963,"y":2544106.5100000016}},{"attributes":{"ID":234588,"DIS_CODE":0,"TOWNNAME":"東區","LI":"莊敬里","LIN":"15鄰","STREET":"東光路","SECT":"二段","MAREA":" ","LANE":"５５巷","ALLEY":" ","HOUSE_NO":"８號","E_COORD97":171175.69,"N_COORD97":2544106.4300000002,"ADDRESS":"東光路二段５５巷８號","OBJECTID":234584},"geometry":{"x":171175.69000000227,"y":2544106.4300000016}},{"attributes":{"ID":234589,"DIS_CODE":0,"TOWNNAME":"東區","LI":"圍下里","LIN":"9鄰","STREET":"東寧路","SECT":"西段","MAREA":" ","LANE":"２１巷","ALLEY":" ","HOUSE_NO":"１號","E_COORD97":169730,"N_COORD97":2543622.4100000001,"ADDRESS":"東寧路西段２１巷１號","OBJECTID":234585},"geometry":{"x":169730,"y":2543622.410000002}},{"attributes":{"ID":234590,"DIS_CODE":0,"TOWNNAME":"東區","LI":"關聖里","LIN":"4鄰","STREET":"裕農路","SECT":" ","MAREA":" ","LANE":"６６８巷","ALLEY":" ","HOUSE_NO":"６３號之７","E_COORD97":171763.57999999999,"N_COORD97":2542942.5099999998,"ADDRESS":"裕農路６６８巷６３號之７","OBJECTID":234586},"geometry":{"x":171763.58000000007,"y":2542942.5100000035}},{"attributes":{"ID":234591,"DIS_CODE":0,"TOWNNAME":"東區","LI":"關聖里","LIN":"4鄰","STREET":"裕農路","SECT":" ","MAREA":" ","LANE":"６６８巷","ALLEY":" ","HOUSE_NO":"６３號之８","E_COORD97":171764.95999999999,"N_COORD97":2542939.1600000001,"ADDRESS":"裕農路６６８巷６３號之８","OBJECTID":234587},"geometry":{"x":171764.96000000183,"y":2542939.160000002}},{"attributes":{"ID":234592,"DIS_CODE":0,"TOWNNAME":"東區","LI":"關聖里","LIN":"4鄰","STREET":"裕農路","SECT":" ","MAREA":" ","LANE":"６６８巷","ALLEY":" ","HOUSE_NO":"６３號之６","E_COORD97":171763.57999999999,"N_COORD97":2542946.8500000001,"ADDRESS":"裕農路６６８巷６３號之６","OBJECTID":234588},"geometry":{"x":171763.58000000007,"y":2542946.8500000034}},{"attributes":{"ID":234593,"DIS_CODE":0,"TOWNNAME":"東區","LI":"中西里","LIN":"26鄰","STREET":"東寧路","SECT":" ","MAREA":" ","LANE":"１２０巷","ALLEY":" ","HOUSE_NO":"７１號","E_COORD97":170244.07999999999,"N_COORD97":2543485.8300000001,"ADDRESS":"東寧路１２０巷７１號","OBJECTID":234589},"geometry":{"x":170244.08000000101,"y":2543485.8300000001}},{"attributes":{"ID":234594,"DIS_CODE":0,"TOWNNAME":"東區","LI":"大學里","LIN":"11鄰","STREET":"長榮路","SECT":"三段","MAREA":" ","LANE":"６６巷","ALLEY":" ","HOUSE_NO":"３７號","E_COORD97":170340.31,"N_COORD97":2543812.2000000002,"ADDRESS":"長榮路三段６６巷３７號","OBJECTID":234590},"geometry":{"x":170340.31000000052,"y":2543812.2000000011}},{"attributes":{"ID":234595,"DIS_CODE":0,"TOWNNAME":"東區","LI":"大學里","LIN":"11鄰","STREET":"長榮路","SECT":"三段","MAREA":" ","LANE":"６６巷","ALLEY":" ","HOUSE_NO":"３７號之１","E_COORD97":170334.07000000001,"N_COORD97":2543807.73,"ADDRESS":"長榮路三段６６巷３７號之１","OBJECTID":234591},"geometry":{"x":170334.07000000123,"y":2543807.7300000023}},{"attributes":{"ID":234596,"DIS_CODE":0,"TOWNNAME":"東區","LI":"大學里","LIN":"11鄰","STREET":"長榮路","SECT":"三段","MAREA":" ","LANE":"６６巷","ALLEY":" ","HOUSE_NO":"３７號之２","E_COORD97":170323.28,"N_COORD97":2543797.98,"ADDRESS":"長榮路三段６６巷３７號之２","OBJECTID":234592},"geometry":{"x":170323.28000000026,"y":2543797.9800000023}},{"attributes":{"ID":234597,"DIS_CODE":0,"TOWNNAME":"東區","LI":"泉南里","LIN":"33鄰","STREET":"府連路","SECT":" ","MAREA":" ","LANE":"３２６巷","ALLEY":" ","HOUSE_NO":"１７號","E_COORD97":169580.35999999999,"N_COORD97":2542746.6400000001,"ADDRESS":"府連路３２６巷１７號","OBJECTID":234593},"geometry":{"x":169580.36000000034,"y":2542746.6400000025}},{"attributes":{"ID":234598,"DIS_CODE":0,"TOWNNAME":"東區","LI":"泉南里","LIN":"33鄰","STREET":"府連路","SECT":" ","MAREA":" ","LANE":"３２６巷","ALLEY":" ","HOUSE_NO":"１９號","E_COORD97":169579.04000000001,"N_COORD97":2542739.8199999998,"ADDRESS":"府連路３２６巷１９號","OBJECTID":234594},"geometry":{"x":169579.04000000004,"y":2542739.8200000003}},{"attributes":{"ID":234599,"DIS_CODE":0,"TOWNNAME":"東區","LI":"泉南里","LIN":"33鄰","STREET":"府連路","SECT":" ","MAREA":" ","LANE":"３２６巷","ALLEY":" ","HOUSE_NO":"２１號","E_COORD97":169579.70000000001,"N_COORD97":2542735.4199999999,"ADDRESS":"府連路３２６巷２１號","OBJECTID":234595},"geometry":{"x":169579.70000000019,"y":2542735.4199999999}},{"attributes":{"ID":234600,"DIS_CODE":0,"TOWNNAME":"東區","LI":"泉南里","LIN":"33鄰","STREET":"府連路","SECT":" ","MAREA":" ","LANE":"３２６巷","ALLEY":" ","HOUSE_NO":"２３號","E_COORD97":169579.04000000001,"N_COORD97":2542729.0499999998,"ADDRESS":"府連路３２６巷２３號","OBJECTID":234596},"geometry":{"x":169579.04000000004,"y":2542729.0500000007}},{"attributes":{"ID":234601,"DIS_CODE":0,"TOWNNAME":"東區","LI":"崇德里","LIN":"23鄰","STREET":"崇德路","SECT":" ","MAREA":" ","LANE":"５３０巷","ALLEY":" ","HOUSE_NO":"５號","E_COORD97":170753.01000000001,"N_COORD97":2541497.23,"ADDRESS":"崇德路５３０巷５號","OBJECTID":234597},"geometry":{"x":170753.01000000071,"y":2541497.2300000042}},{"attributes":{"ID":234602,"DIS_CODE":0,"TOWNNAME":"安南區","LI":"國安里","LIN":"4鄰","STREET":"國安街","SECT":" ","MAREA":" ","LANE":"１５６巷","ALLEY":" ","HOUSE_NO":"１５９號","E_COORD97":166642.66,"N_COORD97":2547390.9900000002,"ADDRESS":"國安街１５６巷１５９號","OBJECTID":234598},"geometry":{"x":166642.66000000201,"y":2547390.9899999984}},{"attributes":{"ID":234603,"DIS_CODE":0,"TOWNNAME":"安南區","LI":"國安里","LIN":"4鄰","STREET":"國安街","SECT":" ","MAREA":" ","LANE":"１５６巷","ALLEY":" ","HOUSE_NO":"１６１號","E_COORD97":166640.54999999999,"N_COORD97":2547395.3100000001,"ADDRESS":"國安街１５６巷１６１號","OBJECTID":234599},"geometry":{"x":166640.54999999981,"y":2547395.3100000005}},{"attributes":{"ID":234604,"DIS_CODE":0,"TOWNNAME":"安南區","LI":"國安里","LIN":"4鄰","STREET":"國安街","SECT":" ","MAREA":" ","LANE":"１５６巷","ALLEY":" ","HOUSE_NO":"１６３號","E_COORD97":166639.92999999999,"N_COORD97":2547400.1499999999,"ADDRESS":"國安街１５６巷１６３號","OBJECTID":234600},"geometry":{"x":166639.9299999997,"y":2547400.1500000004}}]}