{"displayFieldName":"TOWNNAME","fieldAliases":{"ID":"ID","DIS_CODE":"DIS_CODE","TOWNNAME":"TOWNNAME","LI":"LI","LIN":"LIN","STREET":"STREET","SECT":"SECT","MAREA":"MAREA","LANE":"LANE","ALLEY":"ALLEY","HOUSE_NO":"HOUSE_NO","E_COORD97":"E_COORD97","N_COORD97":"N_COORD97","ADDRESS":"ADDRESS","OBJECTID":"OBJECTID"},"geometryType":"esriGeometryPoint","spatialReference":{"wkid":102443,"latestWkid":3826},"fields":[{"name":"ID","type":"esriFieldTypeDouble","alias":"ID"},{"name":"DIS_CODE","type":"esriFieldTypeInteger","alias":"DIS_CODE"},{"name":"TOWNNAME","type":"esriFieldTypeString","alias":"TOWNNAME","length":8},{"name":"LI","type":"esriFieldTypeString","alias":"LI","length":8},{"name":"LIN","type":"esriFieldTypeString","alias":"LIN","length":12},{"name":"STREET","type":"esriFieldTypeString","alias":"STREET","length":20},{"name":"SECT","type":"esriFieldTypeString","alias":"SECT","length":8},{"name":"MAREA","type":"esriFieldTypeString","alias":"MAREA","length":12},{"name":"LANE","type":"esriFieldTypeString","alias":"LANE","length":10},{"name":"ALLEY","type":"esriFieldTypeString","alias":"ALLEY","length":10},{"name":"HOUSE_NO","type":"esriFieldTypeString","alias":"HOUSE_NO","length":20},{"name":"E_COORD97","type":"esriFieldTypeDouble","alias":"E_COORD97"},{"name":"N_COORD97","type":"esriFieldTypeDouble","alias":"N_COORD97"},{"name":"ADDRESS","type":"esriFieldTypeString","alias":"ADDRESS","length":50},{"name":"OBJECTID","type":"esriFieldTypeOID","alias":"OBJECTID"}],"features":[{"attributes":{"ID":645028,"DIS_CODE":0,"TOWNNAME":"麻豆區","LI":"巷口里","LIN":" ","STREET":"民族路","SECT":" ","MAREA":" ","LANE":" ","ALLEY":" ","HOUSE_NO":"１２之４號","E_COORD97":173163.26999999999,"N_COORD97":2564559.7400000002,"ADDRESS":"民族路１２之４號","OBJECTID":645001},"geometry":{"x":173163.27000000048,"y":2564559.7400000021}},{"attributes":{"ID":645029,"DIS_CODE":0,"TOWNNAME":"麻豆區","LI":"新建里","LIN":" ","STREET":"三民路","SECT":" ","MAREA":" ","LANE":" ","ALLEY":" ","HOUSE_NO":"１０之２號","E_COORD97":172768.70999999999,"N_COORD97":2564862.5099999998,"ADDRESS":"三民路１０之２號","OBJECTID":645002},"geometry":{"x":172768.71000000089,"y":2564862.5100000016}},{"attributes":{"ID":645030,"DIS_CODE":0,"TOWNNAME":"麻豆區","LI":"新建里","LIN":" ","STREET":"三民路","SECT":" ","MAREA":" ","LANE":" ","ALLEY":" ","HOUSE_NO":"１６之１１號","E_COORD97":172768.57000000001,"N_COORD97":2564765.6899999999,"ADDRESS":"三民路１６之１１號","OBJECTID":645003},"geometry":{"x":172768.57000000123,"y":2564765.6900000013}},{"attributes":{"ID":645031,"DIS_CODE":0,"TOWNNAME":"麻豆區","LI":"穀興里","LIN":" ","STREET":"三民路","SECT":" ","MAREA":" ","LANE":" ","ALLEY":" ","HOUSE_NO":"２之４號","E_COORD97":172770.16,"N_COORD97":2564885.6299999999,"ADDRESS":"三民路２之４號","OBJECTID":645004},"geometry":{"x":172770.16000000015,"y":2564885.629999999}},{"attributes":{"ID":645032,"DIS_CODE":0,"TOWNNAME":"麻豆區","LI":"中興里","LIN":" ","STREET":"三民路","SECT":" ","MAREA":" ","LANE":" ","ALLEY":" ","HOUSE_NO":"５１之４號","E_COORD97":172812.42000000001,"N_COORD97":2564416.7200000002,"ADDRESS":"三民路５１之４號","OBJECTID":645005},"geometry":{"x":172812.41999999993,"y":2564416.7200000044}},{"attributes":{"ID":645033,"DIS_CODE":0,"TOWNNAME":"麻豆區","LI":"中興里","LIN":" ","STREET":"三民路","SECT":" ","MAREA":" ","LANE":" ","ALLEY":" ","HOUSE_NO":"６０之１號","E_COORD97":172728.70999999999,"N_COORD97":2564405.1899999999,"ADDRESS":"三民路６０之１號","OBJECTID":645006},"geometry":{"x":172728.70999999996,"y":2564405.1899999976}},{"attributes":{"ID":645034,"DIS_CODE":0,"TOWNNAME":"麻豆區","LI":"中興里","LIN":" ","STREET":"三民路","SECT":" ","MAREA":" ","LANE":" ","ALLEY":" ","HOUSE_NO":"９４號","E_COORD97":172791.35000000001,"N_COORD97":2564349.46,"ADDRESS":"三民路９４號","OBJECTID":645007},"geometry":{"x":172791.35000000056,"y":2564349.4600000009}},{"attributes":{"ID":645035,"DIS_CODE":0,"TOWNNAME":"麻豆區","LI":"大埕里","LIN":" ","STREET":"大同街","SECT":" ","MAREA":" ","LANE":" ","ALLEY":" ","HOUSE_NO":"４４號","E_COORD97":172850.73000000001,"N_COORD97":2565167.6899999999,"ADDRESS":"大同街４４號","OBJECTID":645008},"geometry":{"x":172850.73000000138,"y":2565167.6899999995}},{"attributes":{"ID":645036,"DIS_CODE":0,"TOWNNAME":"麻豆區","LI":"新建里","LIN":" ","STREET":"中山路","SECT":" ","MAREA":" ","LANE":" ","ALLEY":" ","HOUSE_NO":"１３３號","E_COORD97":172710.26999999999,"N_COORD97":2564805.8900000001,"ADDRESS":"中山路１３３號","OBJECTID":645009},"geometry":{"x":172710.27000000048,"y":2564805.8900000025}},{"attributes":{"ID":645037,"DIS_CODE":0,"TOWNNAME":"麻豆區","LI":"新建里","LIN":" ","STREET":"中山路","SECT":" ","MAREA":" ","LANE":" ","ALLEY":" ","HOUSE_NO":"１５１之１號","E_COORD97":172664.29000000001,"N_COORD97":2564811.0299999998,"ADDRESS":"中山路１５１之１號","OBJECTID":645010},"geometry":{"x":172664.29000000004,"y":2564811.0300000012}},{"attributes":{"ID":645038,"DIS_CODE":0,"TOWNNAME":"麻豆區","LI":"新建里","LIN":" ","STREET":"中山路","SECT":" ","MAREA":" ","LANE":" ","ALLEY":" ","HOUSE_NO":"１５３之２號","E_COORD97":172646.87,"N_COORD97":2564811.73,"ADDRESS":"中山路１５３之２號","OBJECTID":645011},"geometry":{"x":172646.87000000011,"y":2564811.7300000004}},{"attributes":{"ID":645039,"DIS_CODE":0,"TOWNNAME":"麻豆區","LI":"穀興里","LIN":" ","STREET":"中山路","SECT":" ","MAREA":" ","LANE":" ","ALLEY":" ","HOUSE_NO":"６４號","E_COORD97":172866.81,"N_COORD97":2564838.4300000002,"ADDRESS":"中山路６４號","OBJECTID":645012},"geometry":{"x":172866.80999999959,"y":2564838.4300000016}},{"attributes":{"ID":645040,"DIS_CODE":0,"TOWNNAME":"麻豆區","LI":"穀興里","LIN":" ","STREET":"中山路","SECT":" ","MAREA":" ","LANE":" ","ALLEY":" ","HOUSE_NO":"９３號","E_COORD97":172801.04000000001,"N_COORD97":2564811.9399999999,"ADDRESS":"中山路９３號","OBJECTID":645013},"geometry":{"x":172801.04000000097,"y":2564811.9400000013}},{"attributes":{"ID":645041,"DIS_CODE":0,"TOWNNAME":"麻豆區","LI":"大埕里","LIN":" ","STREET":"中正路","SECT":" ","MAREA":" ","LANE":" ","ALLEY":" ","HOUSE_NO":"７４之１號","E_COORD97":173112.44,"N_COORD97":2564981.3100000001,"ADDRESS":"中正路７４之１號","OBJECTID":645014},"geometry":{"x":173112.44000000041,"y":2564981.3100000005}},{"attributes":{"ID":645042,"DIS_CODE":0,"TOWNNAME":"麻豆區","LI":"大埕里","LIN":" ","STREET":"中正路","SECT":" ","MAREA":" ","LANE":" ","ALLEY":" ","HOUSE_NO":"８０之４４號","E_COORD97":173262.79999999999,"N_COORD97":2565076.3300000001,"ADDRESS":"中正路８０之４４號","OBJECTID":645015},"geometry":{"x":173262.80000000168,"y":2565076.3300000038}},{"attributes":{"ID":645043,"DIS_CODE":0,"TOWNNAME":"麻豆區","LI":"興農里","LIN":" ","STREET":"中興街","SECT":" ","MAREA":" ","LANE":" ","ALLEY":" ","HOUSE_NO":"２６５號","E_COORD97":172421.41,"N_COORD97":2564523.46,"ADDRESS":"中興街２６５號","OBJECTID":645016},"geometry":{"x":172421.40999999922,"y":2564523.459999999}},{"attributes":{"ID":645044,"DIS_CODE":0,"TOWNNAME":"麻豆區","LI":"興農里","LIN":" ","STREET":"中興街","SECT":" ","MAREA":" ","LANE":" ","ALLEY":" ","HOUSE_NO":"３０２號","E_COORD97":172396.54999999999,"N_COORD97":2564555.6400000001,"ADDRESS":"中興街３０２號","OBJECTID":645017},"geometry":{"x":172396.55000000168,"y":2564555.6400000006}},{"attributes":{"ID":645045,"DIS_CODE":0,"TOWNNAME":"麻豆區","LI":"穀興里","LIN":" ","STREET":"仁愛路","SECT":" ","MAREA":" ","LANE":" ","ALLEY":" ","HOUSE_NO":"１０號","E_COORD97":172854.10999999999,"N_COORD97":2564769.6099999999,"ADDRESS":"仁愛路１０號","OBJECTID":645018},"geometry":{"x":172854.11000000034,"y":2564769.6100000013}},{"attributes":{"ID":645046,"DIS_CODE":0,"TOWNNAME":"麻豆區","LI":"穀興里","LIN":" ","STREET":"仁愛路","SECT":" ","MAREA":" ","LANE":" ","ALLEY":" ","HOUSE_NO":"１２之５號","E_COORD97":172807.07999999999,"N_COORD97":2564761.4399999999,"ADDRESS":"仁愛路１２之５號","OBJECTID":645019},"geometry":{"x":172807.08000000101,"y":2564761.4399999995}},{"attributes":{"ID":645047,"DIS_CODE":0,"TOWNNAME":"麻豆區","LI":"新建里","LIN":"6鄰","STREET":"仁愛路","SECT":" ","MAREA":" ","LANE":" ","ALLEY":" ","HOUSE_NO":"３４號之１０","E_COORD97":172456.56,"N_COORD97":2564763.8999999999,"ADDRESS":"仁愛路３４號之１０","OBJECTID":645020},"geometry":{"x":172456.55999999959,"y":2564763.9000000004}},{"attributes":{"ID":645048,"DIS_CODE":0,"TOWNNAME":"麻豆區","LI":"新建里","LIN":" ","STREET":"仁愛路","SECT":" ","MAREA":" ","LANE":" ","ALLEY":" ","HOUSE_NO":"４０之１號","E_COORD97":172351.41,"N_COORD97":2564748.2599999998,"ADDRESS":"仁愛路４０之１號","OBJECTID":645021},"geometry":{"x":172351.41000000015,"y":2564748.2600000016}},{"attributes":{"ID":645049,"DIS_CODE":0,"TOWNNAME":"麻豆區","LI":"穀興里","LIN":" ","STREET":"光復路","SECT":" ","MAREA":" ","LANE":" ","ALLEY":" ","HOUSE_NO":"１２０號","E_COORD97":172791.60999999999,"N_COORD97":2564928.1400000001,"ADDRESS":"光復路１２０號","OBJECTID":645022},"geometry":{"x":172791.6100000022,"y":2564928.1400000006}},{"attributes":{"ID":645050,"DIS_CODE":0,"TOWNNAME":"麻豆區","LI":"大埕里","LIN":" ","STREET":"平等路","SECT":" ","MAREA":" ","LANE":" ","ALLEY":" ","HOUSE_NO":"５９之３號","E_COORD97":173028.67999999999,"N_COORD97":2565035.9199999999,"ADDRESS":"平等路５９之３號","OBJECTID":645023},"geometry":{"x":173028.6799999997,"y":2565035.9200000018}},{"attributes":{"ID":645051,"DIS_CODE":0,"TOWNNAME":"麻豆區","LI":"東角里","LIN":" ","STREET":"民生路","SECT":" ","MAREA":" ","LANE":" ","ALLEY":" ","HOUSE_NO":"３號","E_COORD97":173604.44,"N_COORD97":2564938.48,"ADDRESS":"民生路３號","OBJECTID":645024},"geometry":{"x":173604.44000000041,"y":2564938.4800000004}},{"attributes":{"ID":645052,"DIS_CODE":0,"TOWNNAME":"麻豆區","LI":"東角里","LIN":" ","STREET":"民生路","SECT":" ","MAREA":" ","LANE":" ","ALLEY":" ","HOUSE_NO":"４之２號","E_COORD97":173546.12,"N_COORD97":2564903.0600000001,"ADDRESS":"民生路４之２號","OBJECTID":645025},"geometry":{"x":173546.12000000104,"y":2564903.0600000024}},{"attributes":{"ID":645053,"DIS_CODE":0,"TOWNNAME":"麻豆區","LI":"巷口里","LIN":" ","STREET":"民族路","SECT":" ","MAREA":" ","LANE":" ","ALLEY":" ","HOUSE_NO":"１１之８號","E_COORD97":173190.62,"N_COORD97":2564699.9900000002,"ADDRESS":"民族路１１之８號","OBJECTID":645026},"geometry":{"x":173190.62000000011,"y":2564699.9900000021}},{"attributes":{"ID":645054,"DIS_CODE":0,"TOWNNAME":"麻豆區","LI":"巷口里","LIN":" ","STREET":"民族路","SECT":" ","MAREA":" ","LANE":" ","ALLEY":" ","HOUSE_NO":"６７號","E_COORD97":173214.37,"N_COORD97":2564273.9500000002,"ADDRESS":"民族路６７號","OBJECTID":645027},"geometry":{"x":173214.37000000011,"y":2564273.9499999993}},{"attributes":{"ID":645055,"DIS_CODE":0,"TOWNNAME":"麻豆區","LI":"保安里","LIN":" ","STREET":"民權路","SECT":" ","MAREA":" ","LANE":" ","ALLEY":" ","HOUSE_NO":"１０號","E_COORD97":173358.62,"N_COORD97":2564759.2599999998,"ADDRESS":"民權路１０號","OBJECTID":645028},"geometry":{"x":173358.62000000011,"y":2564759.2600000016}},{"attributes":{"ID":645056,"DIS_CODE":0,"TOWNNAME":"麻豆區","LI":"穀興里","LIN":" ","STREET":"光復路","SECT":" ","MAREA":" ","LANE":" ","ALLEY":" ","HOUSE_NO":"３０號","E_COORD97":172998.54000000001,"N_COORD97":2564920.1299999999,"ADDRESS":"光復路３０號","OBJECTID":645029},"geometry":{"x":172998.5400000019,"y":2564920.129999999}},{"attributes":{"ID":645057,"DIS_CODE":0,"TOWNNAME":"麻豆區","LI":"興農里","LIN":" ","STREET":"成功街","SECT":" ","MAREA":" ","LANE":" ","ALLEY":" ","HOUSE_NO":"１３號","E_COORD97":172422.73999999999,"N_COORD97":2564499.77,"ADDRESS":"成功街１３號","OBJECTID":645030},"geometry":{"x":172422.74000000209,"y":2564499.7700000033}},{"attributes":{"ID":645058,"DIS_CODE":0,"TOWNNAME":"麻豆區","LI":"中興里","LIN":" ","STREET":"自由路","SECT":" ","MAREA":" ","LANE":" ","ALLEY":" ","HOUSE_NO":"２３之５號","E_COORD97":172621.64000000001,"N_COORD97":2564698.3799999999,"ADDRESS":"自由路２３之５號","OBJECTID":645031},"geometry":{"x":172621.6400000006,"y":2564698.3800000027}},{"attributes":{"ID":645059,"DIS_CODE":0,"TOWNNAME":"麻豆區","LI":"新建里","LIN":" ","STREET":"自由路","SECT":" ","MAREA":" ","LANE":" ","ALLEY":" ","HOUSE_NO":"２８之２號","E_COORD97":172643.39999999999,"N_COORD97":2564800.5499999998,"ADDRESS":"自由路２８之２號","OBJECTID":645032},"geometry":{"x":172643.40000000037,"y":2564800.5500000007}},{"attributes":{"ID":645060,"DIS_CODE":0,"TOWNNAME":"麻豆區","LI":"新建里","LIN":" ","STREET":"自由路","SECT":" ","MAREA":" ","LANE":" ","ALLEY":" ","HOUSE_NO":"３２之７號","E_COORD97":172629.01000000001,"N_COORD97":2564950.1600000001,"ADDRESS":"自由路３２之７號","OBJECTID":645033},"geometry":{"x":172629.01000000164,"y":2564950.160000002}},{"attributes":{"ID":645061,"DIS_CODE":0,"TOWNNAME":"麻豆區","LI":"新建里","LIN":" ","STREET":"自由路","SECT":" ","MAREA":" ","LANE":" ","ALLEY":" ","HOUSE_NO":"３２之８號","E_COORD97":172627.19,"N_COORD97":2564957.79,"ADDRESS":"自由路３２之８號","OBJECTID":645034},"geometry":{"x":172627.19000000134,"y":2564957.790000001}},{"attributes":{"ID":645062,"DIS_CODE":0,"TOWNNAME":"麻豆區","LI":"穀興里","LIN":"10鄰","STREET":"光復路","SECT":" ","MAREA":" ","LANE":" ","ALLEY":" ","HOUSE_NO":"１０６號","E_COORD97":172821.04000000001,"N_COORD97":2564948.79,"ADDRESS":"光復路１０６號","OBJECTID":645035},"geometry":{"x":172821.04000000097,"y":2564948.7899999991}},{"attributes":{"ID":645063,"DIS_CODE":0,"TOWNNAME":"麻豆區","LI":"新建里","LIN":" ","STREET":"自由路","SECT":" ","MAREA":" ","LANE":" ","ALLEY":" ","HOUSE_NO":"３５號","E_COORD97":172610.41,"N_COORD97":2564887.6499999999,"ADDRESS":"自由路３５號","OBJECTID":645036},"geometry":{"x":172610.41000000108,"y":2564887.6500000004}},{"attributes":{"ID":645064,"DIS_CODE":0,"TOWNNAME":"麻豆區","LI":"晉江里","LIN":" ","STREET":"民生路","SECT":" ","MAREA":"\u25A0江里","LANE":" ","ALLEY":" ","HOUSE_NO":"１０號","E_COORD97":173560.92999999999,"N_COORD97":2564766.5800000001,"ADDRESS":"民生路\u25A0江里１０號","OBJECTID":645037},"geometry":{"x":173560.93000000063,"y":2564766.5800000019}},{"attributes":{"ID":645065,"DIS_CODE":0,"TOWNNAME":"麻豆區","LI":"油車里","LIN":" ","STREET":"自由路","SECT":" ","MAREA":" ","LANE":" ","ALLEY":" ","HOUSE_NO":"４３之８號","E_COORD97":172509.79999999999,"N_COORD97":2565058.73,"ADDRESS":"自由路４３之８號","OBJECTID":645038},"geometry":{"x":172509.79999999981,"y":2565058.7300000023}},{"attributes":{"ID":645066,"DIS_CODE":0,"TOWNNAME":"麻豆區","LI":"興農里","LIN":" ","STREET":"和平路","SECT":" ","MAREA":" ","LANE":" ","ALLEY":" ","HOUSE_NO":"２３之１８號","E_COORD97":172405.60000000001,"N_COORD97":2564189.9900000002,"ADDRESS":"和平路２３之１８號","OBJECTID":645039},"geometry":{"x":172405.59999999963,"y":2564189.9900000002}},{"attributes":{"ID":645067,"DIS_CODE":0,"TOWNNAME":"麻豆區","LI":"巷口里","LIN":" ","STREET":"和平路","SECT":" ","MAREA":" ","LANE":" ","ALLEY":" ","HOUSE_NO":"３號","E_COORD97":173081.73000000001,"N_COORD97":2564370.77,"ADDRESS":"和平路３號","OBJECTID":645040},"geometry":{"x":173081.73000000045,"y":2564370.7699999977}},{"attributes":{"ID":645068,"DIS_CODE":0,"TOWNNAME":"麻豆區","LI":"大埕里","LIN":" ","STREET":"忠孝路","SECT":" ","MAREA":" ","LANE":" ","ALLEY":" ","HOUSE_NO":"１０之１號","E_COORD97":173201.10000000001,"N_COORD97":2564976.8999999999,"ADDRESS":"忠孝路１０之１號","OBJECTID":645041},"geometry":{"x":173201.0999999987,"y":2564976.9000000004}},{"attributes":{"ID":645069,"DIS_CODE":0,"TOWNNAME":"麻豆區","LI":"大埕里","LIN":" ","STREET":"忠孝路","SECT":" ","MAREA":" ","LANE":" ","ALLEY":" ","HOUSE_NO":"２３之２３號","E_COORD97":173278.47,"N_COORD97":2565005.6200000001,"ADDRESS":"忠孝路２３之２３號","OBJECTID":645042},"geometry":{"x":173278.4700000016,"y":2565005.6200000029}},{"attributes":{"ID":645070,"DIS_CODE":0,"TOWNNAME":"麻豆區","LI":"大埕里","LIN":" ","STREET":"忠孝路","SECT":" ","MAREA":" ","LANE":" ","ALLEY":" ","HOUSE_NO":"２３之２４號","E_COORD97":173283.73999999999,"N_COORD97":2565005.6400000001,"ADDRESS":"忠孝路２３之２４號","OBJECTID":645043},"geometry":{"x":173283.74000000022,"y":2565005.6400000006}},{"attributes":{"ID":645071,"DIS_CODE":0,"TOWNNAME":"麻豆區","LI":"大埕里","LIN":" ","STREET":"忠孝路","SECT":" ","MAREA":" ","LANE":" ","ALLEY":" ","HOUSE_NO":"２３之２７號","E_COORD97":173297.42999999999,"N_COORD97":2565006.1800000002,"ADDRESS":"忠孝路２３之２７號","OBJECTID":645044},"geometry":{"x":173297.43000000156,"y":2565006.1800000016}},{"attributes":{"ID":645072,"DIS_CODE":0,"TOWNNAME":"麻豆區","LI":"東角里","LIN":" ","STREET":"忠孝路","SECT":" ","MAREA":" ","LANE":" ","ALLEY":" ","HOUSE_NO":"２４２之８號","E_COORD97":174022.64999999999,"N_COORD97":2564915.0800000001,"ADDRESS":"忠孝路２４２之８號","OBJECTID":645045},"geometry":{"x":174022.6500000013,"y":2564915.0799999982}},{"attributes":{"ID":645073,"DIS_CODE":0,"TOWNNAME":"麻豆區","LI":"大埕里","LIN":" ","STREET":"忠孝路","SECT":" ","MAREA":" ","LANE":" ","ALLEY":" ","HOUSE_NO":"２５號","E_COORD97":173295.48000000001,"N_COORD97":2565025.8999999999,"ADDRESS":"忠孝路２５號","OBJECTID":645046},"geometry":{"x":173295.48000000045,"y":2565025.9000000022}},{"attributes":{"ID":645074,"DIS_CODE":0,"TOWNNAME":"麻豆區","LI":"大埕里","LIN":" ","STREET":"忠孝路","SECT":" ","MAREA":" ","LANE":" ","ALLEY":" ","HOUSE_NO":"４之３號","E_COORD97":173085.70000000001,"N_COORD97":2565020.1699999999,"ADDRESS":"忠孝路４之３號","OBJECTID":645047},"geometry":{"x":173085.69999999925,"y":2565020.1700000018}},{"attributes":{"ID":645075,"DIS_CODE":0,"TOWNNAME":"麻豆區","LI":"大埕里","LIN":" ","STREET":"忠孝路","SECT":" ","MAREA":" ","LANE":" ","ALLEY":" ","HOUSE_NO":"４號","E_COORD97":173074.39000000001,"N_COORD97":2565020.7799999998,"ADDRESS":"忠孝路４號","OBJECTID":645048},"geometry":{"x":173074.3900000006,"y":2565020.7799999993}},{"attributes":{"ID":645076,"DIS_CODE":0,"TOWNNAME":"麻豆區","LI":"東角里","LIN":" ","STREET":"忠孝路","SECT":" ","MAREA":" ","LANE":" ","ALLEY":" ","HOUSE_NO":"５３之１號","E_COORD97":173996.14000000001,"N_COORD97":2565027.6800000002,"ADDRESS":"忠孝路５３之１號","OBJECTID":645049},"geometry":{"x":173996.1400000006,"y":2565027.6800000016}},{"attributes":{"ID":645077,"DIS_CODE":0,"TOWNNAME":"麻豆區","LI":"東角里","LIN":" ","STREET":"忠孝路","SECT":" ","MAREA":" ","LANE":" ","ALLEY":" ","HOUSE_NO":"６１之１號","E_COORD97":174103.38,"N_COORD97":2565015.9100000001,"ADDRESS":"忠孝路６１之１號","OBJECTID":645050},"geometry":{"x":174103.38000000082,"y":2565015.910000002}},{"attributes":{"ID":645078,"DIS_CODE":0,"TOWNNAME":"麻豆區","LI":"東角里","LIN":" ","STREET":"忠孝路","SECT":" ","MAREA":" ","LANE":" ","ALLEY":" ","HOUSE_NO":"６５號","E_COORD97":174119.42999999999,"N_COORD97":2565080.1099999999,"ADDRESS":"忠孝路６５號","OBJECTID":645051},"geometry":{"x":174119.42999999877,"y":2565080.1099999994}},{"attributes":{"ID":645079,"DIS_CODE":0,"TOWNNAME":"麻豆區","LI":"巷口里","LIN":" ","STREET":"信義路","SECT":" ","MAREA":" ","LANE":" ","ALLEY":" ","HOUSE_NO":"８之１５號","E_COORD97":173163.56,"N_COORD97":2564611.2000000002,"ADDRESS":"信義路８之１５號","OBJECTID":645052},"geometry":{"x":173163.55999999959,"y":2564611.1999999993}},{"attributes":{"ID":645080,"DIS_CODE":0,"TOWNNAME":"麻豆區","LI":"巷口里","LIN":" ","STREET":"建南街","SECT":" ","MAREA":" ","LANE":" ","ALLEY":" ","HOUSE_NO":"１０８號","E_COORD97":173269.51999999999,"N_COORD97":2564224.8500000001,"ADDRESS":"建南街１０８號","OBJECTID":645053},"geometry":{"x":173269.52000000142,"y":2564224.8500000034}},{"attributes":{"ID":645081,"DIS_CODE":0,"TOWNNAME":"麻豆區","LI":"巷口里","LIN":" ","STREET":"建南街","SECT":" ","MAREA":" ","LANE":" ","ALLEY":" ","HOUSE_NO":"２５號","E_COORD97":173087.45999999999,"N_COORD97":2564265.1899999999,"ADDRESS":"建南街２５號","OBJECTID":645054},"geometry":{"x":173087.46000000089,"y":2564265.1899999995}},{"attributes":{"ID":645082,"DIS_CODE":0,"TOWNNAME":"麻豆區","LI":"巷口里","LIN":" ","STREET":"建南街","SECT":" ","MAREA":" ","LANE":" ","ALLEY":" ","HOUSE_NO":"２７號","E_COORD97":173091.79999999999,"N_COORD97":2564265.77,"ADDRESS":"建南街２７號","OBJECTID":645055},"geometry":{"x":173091.80000000075,"y":2564265.7700000033}},{"attributes":{"ID":645083,"DIS_CODE":0,"TOWNNAME":"麻豆區","LI":"巷口里","LIN":" ","STREET":"建南街","SECT":" ","MAREA":" ","LANE":" ","ALLEY":" ","HOUSE_NO":"６號","E_COORD97":173045.41,"N_COORD97":2564235.8799999999,"ADDRESS":"建南街６號","OBJECTID":645056},"geometry":{"x":173045.41000000201,"y":2564235.879999999}},{"attributes":{"ID":645084,"DIS_CODE":0,"TOWNNAME":"麻豆區","LI":"新建里","LIN":" ","STREET":"麻佳路","SECT":"一段","MAREA":" ","LANE":" ","ALLEY":" ","HOUSE_NO":"４９號","E_COORD97":172233.66,"N_COORD97":2564925.9500000002,"ADDRESS":"麻佳路一段４９號","OBJECTID":645057},"geometry":{"x":172233.66000000108,"y":2564925.9500000011}},{"attributes":{"ID":645085,"DIS_CODE":0,"TOWNNAME":"南區","LI":"大忠里","LIN":"23鄰","STREET":"中華南路","SECT":"一段","MAREA":" ","LANE":" ","ALLEY":" ","HOUSE_NO":"１３９號","E_COORD97":169173.06,"N_COORD97":2541222.02,"ADDRESS":"中華南路一段１３９號","OBJECTID":645058},"geometry":{"x":169173.05999999959,"y":2541222.0199999996}},{"attributes":{"ID":645086,"DIS_CODE":0,"TOWNNAME":"南區","LI":"大忠里","LIN":"12鄰","STREET":"公英三街","SECT":" ","MAREA":" ","LANE":" ","ALLEY":" ","HOUSE_NO":"７號","E_COORD97":169377.41,"N_COORD97":2541177.3500000001,"ADDRESS":"公英三街７號","OBJECTID":645059},"geometry":{"x":169377.41000000108,"y":2541177.3500000015}},{"attributes":{"ID":645087,"DIS_CODE":0,"TOWNNAME":"南區","LI":"大忠里","LIN":"29鄰","STREET":"中華南路","SECT":"一段","MAREA":" ","LANE":" ","ALLEY":" ","HOUSE_NO":"１６２號","E_COORD97":169157.57999999999,"N_COORD97":2541264.2000000002,"ADDRESS":"中華南路一段１６２號","OBJECTID":645060},"geometry":{"x":169157.58000000101,"y":2541264.1999999993}},{"attributes":{"ID":645088,"DIS_CODE":0,"TOWNNAME":"南區","LI":"大忠里","LIN":"4鄰","STREET":"中華南路","SECT":"一段","MAREA":" ","LANE":" ","ALLEY":" ","HOUSE_NO":"３５號","E_COORD97":169389.69,"N_COORD97":2541396.3999999999,"ADDRESS":"中華南路一段３５號","OBJECTID":645061},"geometry":{"x":169389.69000000134,"y":2541396.4000000004}},{"attributes":{"ID":645089,"DIS_CODE":0,"TOWNNAME":"南區","LI":"大忠里","LIN":"6鄰","STREET":"中華南路","SECT":"一段","MAREA":" ","LANE":" ","ALLEY":" ","HOUSE_NO":"４６號","E_COORD97":169359.13,"N_COORD97":2541427.3199999998,"ADDRESS":"中華南路一段４６號","OBJECTID":645062},"geometry":{"x":169359.12999999989,"y":2541427.3200000003}},{"attributes":{"ID":645090,"DIS_CODE":0,"TOWNNAME":"南區","LI":"大忠里","LIN":"6鄰","STREET":"中華南路","SECT":"一段","MAREA":" ","LANE":" ","ALLEY":" ","HOUSE_NO":"４７號","E_COORD97":169368.35000000001,"N_COORD97":2541380.77,"ADDRESS":"中華南路一段４７號","OBJECTID":645063},"geometry":{"x":169368.35000000149,"y":2541380.7700000033}},{"attributes":{"ID":645091,"DIS_CODE":0,"TOWNNAME":"南區","LI":"大忠里","LIN":"6鄰","STREET":"中華南路","SECT":"一段","MAREA":" ","LANE":" ","ALLEY":" ","HOUSE_NO":"４８號","E_COORD97":169355.10000000001,"N_COORD97":2541426.0600000001,"ADDRESS":"中華南路一段４８號","OBJECTID":645064},"geometry":{"x":169355.10000000056,"y":2541426.0600000005}},{"attributes":{"ID":645092,"DIS_CODE":0,"TOWNNAME":"南區","LI":"大忠里","LIN":"6鄰","STREET":"中華南路","SECT":"一段","MAREA":" ","LANE":" ","ALLEY":" ","HOUSE_NO":"４９號","E_COORD97":169364.39999999999,"N_COORD97":2541379.3700000001,"ADDRESS":"中華南路一段４９號","OBJECTID":645065},"geometry":{"x":169364.4000000013,"y":2541379.3700000029}},{"attributes":{"ID":645093,"DIS_CODE":0,"TOWNNAME":"南區","LI":"大忠里","LIN":"6鄰","STREET":"中華南路","SECT":"一段","MAREA":" ","LANE":" ","ALLEY":" ","HOUSE_NO":"５０號","E_COORD97":169350.32000000001,"N_COORD97":2541424.0600000001,"ADDRESS":"中華南路一段５０號","OBJECTID":645066},"geometry":{"x":169350.3200000003,"y":2541424.0600000042}},{"attributes":{"ID":645094,"DIS_CODE":0,"TOWNNAME":"南區","LI":"大忠里","LIN":"6鄰","STREET":"中華南路","SECT":"一段","MAREA":" ","LANE":" ","ALLEY":" ","HOUSE_NO":"５１號","E_COORD97":169359.60000000001,"N_COORD97":2541377.6800000002,"ADDRESS":"中華南路一段５１號","OBJECTID":645067},"geometry":{"x":169359.59999999963,"y":2541377.6799999997}},{"attributes":{"ID":645095,"DIS_CODE":0,"TOWNNAME":"南區","LI":"大忠里","LIN":"4鄰","STREET":"公英一街","SECT":" ","MAREA":" ","LANE":" ","ALLEY":" ","HOUSE_NO":"２８號","E_COORD97":169409.22,"N_COORD97":2541280.8100000001,"ADDRESS":"公英一街２８號","OBJECTID":645068},"geometry":{"x":169409.21999999974,"y":2541280.8100000024}},{"attributes":{"ID":645096,"DIS_CODE":0,"TOWNNAME":"南區","LI":"大忠里","LIN":"4鄰","STREET":"公英一街","SECT":" ","MAREA":" ","LANE":" ","ALLEY":" ","HOUSE_NO":"３１號","E_COORD97":169420.23999999999,"N_COORD97":2541261.77,"ADDRESS":"公英一街３１號","OBJECTID":645069},"geometry":{"x":169420.24000000022,"y":2541261.7699999996}},{"attributes":{"ID":645097,"DIS_CODE":0,"TOWNNAME":"南區","LI":"大忠里","LIN":"4鄰","STREET":"公英一街","SECT":" ","MAREA":" ","LANE":" ","ALLEY":" ","HOUSE_NO":"３３號","E_COORD97":169416.14999999999,"N_COORD97":2541260.7599999998,"ADDRESS":"公英一街３３號","OBJECTID":645070},"geometry":{"x":169416.14999999944,"y":2541260.7600000016}},{"attributes":{"ID":645098,"DIS_CODE":0,"TOWNNAME":"南區","LI":"大忠里","LIN":"4鄰","STREET":"公英一街","SECT":" ","MAREA":" ","LANE":" ","ALLEY":" ","HOUSE_NO":"３５號","E_COORD97":169412.23000000001,"N_COORD97":2541259.7400000002,"ADDRESS":"公英一街３５號","OBJECTID":645071},"geometry":{"x":169412.23000000045,"y":2541259.7400000039}},{"attributes":{"ID":645099,"DIS_CODE":0,"TOWNNAME":"南區","LI":"大忠里","LIN":"24鄰","STREET":"公英一街","SECT":" ","MAREA":" ","LANE":" ","ALLEY":" ","HOUSE_NO":"４０號","E_COORD97":169372.09,"N_COORD97":2541269.6000000001,"ADDRESS":"公英一街４０號","OBJECTID":645072},"geometry":{"x":169372.09000000171,"y":2541269.5999999996}},{"attributes":{"ID":645100,"DIS_CODE":0,"TOWNNAME":"南區","LI":"大忠里","LIN":"24鄰","STREET":"公英一街","SECT":" ","MAREA":" ","LANE":" ","ALLEY":" ","HOUSE_NO":"４２號","E_COORD97":169368.17999999999,"N_COORD97":2541268.8199999998,"ADDRESS":"公英一街４２號","OBJECTID":645073},"geometry":{"x":169368.18000000063,"y":2541268.8200000003}},{"attributes":{"ID":645101,"DIS_CODE":0,"TOWNNAME":"南區","LI":"大忠里","LIN":"24鄰","STREET":"公英一街","SECT":" ","MAREA":" ","LANE":" ","ALLEY":" ","HOUSE_NO":"４４號","E_COORD97":169363.48999999999,"N_COORD97":2541266.4900000002,"ADDRESS":"公英一街４４號","OBJECTID":645074},"geometry":{"x":169363.49000000115,"y":2541266.4900000002}},{"attributes":{"ID":645102,"DIS_CODE":0,"TOWNNAME":"南區","LI":"大忠里","LIN":"24鄰","STREET":"公英一街","SECT":" ","MAREA":" ","LANE":" ","ALLEY":" ","HOUSE_NO":"４６號","E_COORD97":169358.54000000001,"N_COORD97":2541264.9300000002,"ADDRESS":"公英一街４６號","OBJECTID":645075},"geometry":{"x":169358.54000000004,"y":2541264.9300000016}},{"attributes":{"ID":645103,"DIS_CODE":0,"TOWNNAME":"南區","LI":"大忠里","LIN":"24鄰","STREET":"公英一街","SECT":" ","MAREA":" ","LANE":" ","ALLEY":" ","HOUSE_NO":"４８號","E_COORD97":169353.06,"N_COORD97":2541262.5899999999,"ADDRESS":"公英一街４８號","OBJECTID":645076},"geometry":{"x":169353.05999999959,"y":2541262.5899999999}},{"attributes":{"ID":645104,"DIS_CODE":0,"TOWNNAME":"南區","LI":"大忠里","LIN":"16鄰","STREET":"公英七街","SECT":" ","MAREA":" ","LANE":" ","ALLEY":" ","HOUSE_NO":"９號","E_COORD97":169412.37,"N_COORD97":2541062.4900000002,"ADDRESS":"公英七街９號","OBJECTID":645077},"geometry":{"x":169412.37000000011,"y":2541062.4900000021}},{"attributes":{"ID":645105,"DIS_CODE":0,"TOWNNAME":"南區","LI":"大忠里","LIN":"13鄰","STREET":"公英四街","SECT":" ","MAREA":" ","LANE":" ","ALLEY":" ","HOUSE_NO":"１９號","E_COORD97":169346.70999999999,"N_COORD97":2541139.6200000001,"ADDRESS":"公英四街１９號","OBJECTID":645078},"geometry":{"x":169346.71000000089,"y":2541139.6200000029}},{"attributes":{"ID":645106,"DIS_CODE":0,"TOWNNAME":"南區","LI":"大忠里","LIN":"13鄰","STREET":"公英四街","SECT":" ","MAREA":" ","LANE":" ","ALLEY":" ","HOUSE_NO":"２０號","E_COORD97":169350.95000000001,"N_COORD97":2541158.4399999999,"ADDRESS":"公英四街２０號","OBJECTID":645079},"geometry":{"x":169350.95000000019,"y":2541158.4399999995}},{"attributes":{"ID":645107,"DIS_CODE":0,"TOWNNAME":"南區","LI":"大忠里","LIN":"13鄰","STREET":"公英四街","SECT":" ","MAREA":" ","LANE":" ","ALLEY":" ","HOUSE_NO":"２２號","E_COORD97":169347.42999999999,"N_COORD97":2541157.6400000001,"ADDRESS":"公英四街２２號","OBJECTID":645080},"geometry":{"x":169347.42999999877,"y":2541157.6400000006}},{"attributes":{"ID":645108,"DIS_CODE":0,"TOWNNAME":"南區","LI":"大忠里","LIN":"13鄰","STREET":"公英四街","SECT":" ","MAREA":" ","LANE":" ","ALLEY":" ","HOUSE_NO":"２４號","E_COORD97":169343.91,"N_COORD97":2541157.1600000001,"ADDRESS":"公英四街２４號","OBJECTID":645081},"geometry":{"x":169343.91000000108,"y":2541157.1600000001}},{"attributes":{"ID":645109,"DIS_CODE":0,"TOWNNAME":"南區","LI":"大忠里","LIN":"13鄰","STREET":"公英四街","SECT":" ","MAREA":" ","LANE":" ","ALLEY":" ","HOUSE_NO":"２６號","E_COORD97":169340.23000000001,"N_COORD97":2541156.6800000002,"ADDRESS":"公英四街２６號","OBJECTID":645082},"geometry":{"x":169340.23000000138,"y":2541156.6799999997}},{"attributes":{"ID":645110,"DIS_CODE":0,"TOWNNAME":"南區","LI":"大忠里","LIN":"13鄰","STREET":"公英四街","SECT":" ","MAREA":" ","LANE":" ","ALLEY":" ","HOUSE_NO":"２８號","E_COORD97":169336.70000000001,"N_COORD97":2541156.2000000002,"ADDRESS":"公英四街２８號","OBJECTID":645083},"geometry":{"x":169336.70000000112,"y":2541156.1999999993}},{"attributes":{"ID":645111,"DIS_CODE":0,"TOWNNAME":"南區","LI":"大忠里","LIN":"13鄰","STREET":"公英四街","SECT":" ","MAREA":" ","LANE":" ","ALLEY":" ","HOUSE_NO":"２９號","E_COORD97":169341.53,"N_COORD97":2541138.2599999998,"ADDRESS":"公英四街２９號","OBJECTID":645084},"geometry":{"x":169341.53000000026,"y":2541138.2600000016}},{"attributes":{"ID":645112,"DIS_CODE":0,"TOWNNAME":"南區","LI":"大忠里","LIN":"13鄰","STREET":"公英四街","SECT":" ","MAREA":" ","LANE":" ","ALLEY":" ","HOUSE_NO":"２號","E_COORD97":169388.59,"N_COORD97":2541164.6600000001,"ADDRESS":"公英四街２號","OBJECTID":645085},"geometry":{"x":169388.58999999985,"y":2541164.6600000001}},{"attributes":{"ID":645113,"DIS_CODE":0,"TOWNNAME":"南區","LI":"大忠里","LIN":"13鄰","STREET":"公英四街","SECT":" ","MAREA":" ","LANE":" ","ALLEY":" ","HOUSE_NO":"３０號","E_COORD97":169325.01000000001,"N_COORD97":2541154.4500000002,"ADDRESS":"公英四街３０號","OBJECTID":645086},"geometry":{"x":169325.01000000164,"y":2541154.4499999993}},{"attributes":{"ID":645114,"DIS_CODE":0,"TOWNNAME":"歸仁區","LI":"崙頂里","LIN":"18鄰","STREET":"大成一街","SECT":" ","MAREA":" ","LANE":" ","ALLEY":" ","HOUSE_NO":"１０１號","E_COORD97":177902.13,"N_COORD97":2540195.9100000001,"ADDRESS":"大成一街１０１號","OBJECTID":645087},"geometry":{"x":177902.13000000175,"y":2540195.9100000001}},{"attributes":{"ID":645115,"DIS_CODE":0,"TOWNNAME":"歸仁區","LI":"崙頂里","LIN":"20鄰","STREET":"大成一街","SECT":" ","MAREA":" ","LANE":" ","ALLEY":" ","HOUSE_NO":"６號","E_COORD97":177799,"N_COORD97":2540178.2999999998,"ADDRESS":"大成一街６號","OBJECTID":645088},"geometry":{"x":177799,"y":2540178.3000000045}},{"attributes":{"ID":645116,"DIS_CODE":0,"TOWNNAME":"歸仁區","LI":"許厝里","LIN":"26鄰","STREET":"信義北路","SECT":" ","MAREA":" ","LANE":" ","ALLEY":" ","HOUSE_NO":"２８號","E_COORD97":178003.5,"N_COORD97":2540801.9300000002,"ADDRESS":"信義北路２８號","OBJECTID":645089},"geometry":{"x":178003.50000000093,"y":2540801.9299999997}},{"attributes":{"ID":645117,"DIS_CODE":0,"TOWNNAME":"歸仁區","LI":"南保里","LIN":"39鄰","STREET":"中山路","SECT":"三段","MAREA":" ","LANE":" ","ALLEY":" ","HOUSE_NO":"１６６號","E_COORD97":176593.31,"N_COORD97":2540924.0499999998,"ADDRESS":"中山路三段１６６號","OBJECTID":645090},"geometry":{"x":176593.30999999959,"y":2540924.0500000026}},{"attributes":{"ID":645118,"DIS_CODE":0,"TOWNNAME":"歸仁區","LI":"看東里","LIN":"4鄰","STREET":"成功路","SECT":"一段","MAREA":" ","LANE":" ","ALLEY":" ","HOUSE_NO":"２２２號","E_COORD97":178427.70999999999,"N_COORD97":2540143.1200000001,"ADDRESS":"成功路一段２２２號","OBJECTID":645091},"geometry":{"x":178427.71000000089,"y":2540143.1200000029}},{"attributes":{"ID":645119,"DIS_CODE":0,"TOWNNAME":"歸仁區","LI":"辜厝里","LIN":"20鄰","STREET":"中正南路","SECT":"一段","MAREA":" ","LANE":" ","ALLEY":" ","HOUSE_NO":"１５４號","E_COORD97":177436.85999999999,"N_COORD97":2540427.9500000002,"ADDRESS":"中正南路一段１５４號","OBJECTID":645092},"geometry":{"x":177436.86000000127,"y":2540427.9500000011}},{"attributes":{"ID":645120,"DIS_CODE":0,"TOWNNAME":"歸仁區","LI":"辜厝里","LIN":"26鄰","STREET":"大順三街","SECT":" ","MAREA":" ","LANE":" ","ALLEY":" ","HOUSE_NO":"９號","E_COORD97":177373.28,"N_COORD97":2540569.1499999999,"ADDRESS":"大順三街９號","OBJECTID":645093},"geometry":{"x":177373.28000000119,"y":2540569.1500000022}},{"attributes":{"ID":645121,"DIS_CODE":0,"TOWNNAME":"歸仁區","LI":"後市里","LIN":"39鄰","STREET":"國光街","SECT":" ","MAREA":" ","LANE":" ","ALLEY":" ","HOUSE_NO":"１１５號","E_COORD97":177333.54000000001,"N_COORD97":2541098.7400000002,"ADDRESS":"國光街１１５號","OBJECTID":645094},"geometry":{"x":177333.54000000097,"y":2541098.7400000002}},{"attributes":{"ID":645122,"DIS_CODE":0,"TOWNNAME":"歸仁區","LI":"許厝里","LIN":"39鄰","STREET":"公園路","SECT":" ","MAREA":" ","LANE":" ","ALLEY":" ","HOUSE_NO":"１０８號","E_COORD97":177947.48999999999,"N_COORD97":2540505.2799999998,"ADDRESS":"公園路１０８號","OBJECTID":645095},"geometry":{"x":177947.49000000209,"y":2540505.2799999993}},{"attributes":{"ID":645123,"DIS_CODE":0,"TOWNNAME":"歸仁區","LI":"看西里","LIN":"5鄰","STREET":"信義南路","SECT":" ","MAREA":" ","LANE":" ","ALLEY":" ","HOUSE_NO":"１５９號","E_COORD97":178137.39999999999,"N_COORD97":2540307.4900000002,"ADDRESS":"信義南路１５９號","OBJECTID":645096},"geometry":{"x":178137.40000000037,"y":2540307.4900000002}},{"attributes":{"ID":645124,"DIS_CODE":0,"TOWNNAME":"歸仁區","LI":"崙頂里","LIN":"18鄰","STREET":"大成一街","SECT":" ","MAREA":" ","LANE":" ","ALLEY":" ","HOUSE_NO":"１１９號","E_COORD97":177920.53,"N_COORD97":2540193.9100000001,"ADDRESS":"大成一街１１９號","OBJECTID":645097},"geometry":{"x":177920.53000000119,"y":2540193.9100000039}},{"attributes":{"ID":645125,"DIS_CODE":0,"TOWNNAME":"歸仁區","LI":"許厝里","LIN":"26鄰","STREET":"信義北路","SECT":" ","MAREA":" ","LANE":" ","ALLEY":" ","HOUSE_NO":"２號","E_COORD97":178002.95000000001,"N_COORD97":2540748.9300000002,"ADDRESS":"信義北路２號","OBJECTID":645098},"geometry":{"x":178002.95000000019,"y":2540748.9299999997}},{"attributes":{"ID":645126,"DIS_CODE":0,"TOWNNAME":"歸仁區","LI":"許厝里","LIN":"39鄰","STREET":"公園路","SECT":" ","MAREA":" ","LANE":" ","ALLEY":" ","HOUSE_NO":"７２號","E_COORD97":178011.94,"N_COORD97":2540528.2799999998,"ADDRESS":"公園路７２號","OBJECTID":645099},"geometry":{"x":178011.94000000041,"y":2540528.2799999993}},{"attributes":{"ID":645127,"DIS_CODE":0,"TOWNNAME":"歸仁區","LI":"崙頂里","LIN":"5鄰","STREET":"成功八街","SECT":" ","MAREA":" ","LANE":" ","ALLEY":" ","HOUSE_NO":"９７號","E_COORD97":178104.75,"N_COORD97":2540070.6800000002,"ADDRESS":"成功八街９７號","OBJECTID":645100},"geometry":{"x":178104.75000000186,"y":2540070.6800000016}},{"attributes":{"ID":645128,"DIS_CODE":0,"TOWNNAME":"歸仁區","LI":"崙頂里","LIN":"18鄰","STREET":"大成一街","SECT":" ","MAREA":" ","LANE":" ","ALLEY":" ","HOUSE_NO":"６５號","E_COORD97":177891.78,"N_COORD97":2540243.9100000001,"ADDRESS":"大成一街６５號","OBJECTID":645101},"geometry":{"x":177891.78000000119,"y":2540243.9100000001}},{"attributes":{"ID":645129,"DIS_CODE":0,"TOWNNAME":"歸仁區","LI":"看西里","LIN":"18鄰","STREET":"成功五街","SECT":" ","MAREA":" ","LANE":" ","ALLEY":" ","HOUSE_NO":"７３號","E_COORD97":178368.06,"N_COORD97":2539912.3599999999,"ADDRESS":"成功五街７３號","OBJECTID":645102},"geometry":{"x":178368.05999999959,"y":2539912.3600000013}},{"attributes":{"ID":645130,"DIS_CODE":0,"TOWNNAME":"歸仁區","LI":"辜厝里","LIN":"20鄰","STREET":"中正南路","SECT":"一段","MAREA":" ","LANE":" ","ALLEY":" ","HOUSE_NO":"１４６號","E_COORD97":177450.26000000001,"N_COORD97":2540440.9500000002,"ADDRESS":"中正南路一段１４６號","OBJECTID":645103},"geometry":{"x":177450.26000000071,"y":2540440.9500000011}},{"attributes":{"ID":645131,"DIS_CODE":0,"TOWNNAME":"歸仁區","LI":"許厝里","LIN":"26鄰","STREET":"信義北路","SECT":" ","MAREA":" ","LANE":" ","ALLEY":" ","HOUSE_NO":"１６號","E_COORD97":178002.29999999999,"N_COORD97":2540773.9300000002,"ADDRESS":"信義北路１６號","OBJECTID":645104},"geometry":{"x":178002.29999999981,"y":2540773.9300000016}},{"attributes":{"ID":645132,"DIS_CODE":0,"TOWNNAME":"歸仁區","LI":"後市里","LIN":"25鄰","STREET":"民族北街","SECT":" ","MAREA":" ","LANE":" ","ALLEY":" ","HOUSE_NO":"３６號","E_COORD97":177450.48000000001,"N_COORD97":2540952.25,"ADDRESS":"民族北街３６號","OBJECTID":645105},"geometry":{"x":177450.48000000045,"y":2540952.2500000019}},{"attributes":{"ID":645133,"DIS_CODE":0,"TOWNNAME":"歸仁區","LI":"南興里","LIN":"41鄰","STREET":"中山路","SECT":"三段","MAREA":" ","LANE":" ","ALLEY":" ","HOUSE_NO":"４５５號","E_COORD97":175645.01000000001,"N_COORD97":2540987.25,"ADDRESS":"中山路三段４５５號","OBJECTID":645106},"geometry":{"x":175645.01000000071,"y":2540987.25}},{"attributes":{"ID":645134,"DIS_CODE":0,"TOWNNAME":"歸仁區","LI":"看東里","LIN":"4鄰","STREET":"成功路","SECT":"一段","MAREA":" ","LANE":" ","ALLEY":" ","HOUSE_NO":"１７６號","E_COORD97":178510.73000000001,"N_COORD97":2540184.8300000001,"ADDRESS":"成功路一段１７６號","OBJECTID":645107},"geometry":{"x":178510.73000000138,"y":2540184.8300000019}},{"attributes":{"ID":645135,"DIS_CODE":0,"TOWNNAME":"歸仁區","LI":"許厝里","LIN":"36鄰","STREET":"和平南街","SECT":" ","MAREA":" ","LANE":" ","ALLEY":" ","HOUSE_NO":"８７號","E_COORD97":177817.42999999999,"N_COORD97":2540502.8199999998,"ADDRESS":"和平南街８７號","OBJECTID":645108},"geometry":{"x":177817.43000000063,"y":2540502.8200000003}},{"attributes":{"ID":645136,"DIS_CODE":0,"TOWNNAME":"歸仁區","LI":"看東里","LIN":"5鄰","STREET":"成功三街","SECT":" ","MAREA":" ","LANE":" ","ALLEY":" ","HOUSE_NO":"５８號","E_COORD97":178466.14999999999,"N_COORD97":2539990.4500000002,"ADDRESS":"成功三街５８號","OBJECTID":645109},"geometry":{"x":178466.15000000037,"y":2539990.4500000011}},{"attributes":{"ID":645137,"DIS_CODE":0,"TOWNNAME":"歸仁區","LI":"看東里","LIN":"4鄰","STREET":"成功路","SECT":"一段","MAREA":" ","LANE":" ","ALLEY":" ","HOUSE_NO":"１８０號","E_COORD97":178496.42999999999,"N_COORD97":2540189.8300000001,"ADDRESS":"成功路一段１８０號","OBJECTID":645110},"geometry":{"x":178496.43000000156,"y":2540189.8300000001}},{"attributes":{"ID":645138,"DIS_CODE":0,"TOWNNAME":"歸仁區","LI":"看東里","LIN":"4鄰","STREET":"成功路","SECT":"一段","MAREA":" ","LANE":" ","ALLEY":" ","HOUSE_NO":"１８８號","E_COORD97":178481.03,"N_COORD97":2540189.8300000001,"ADDRESS":"成功路一段１８８號","OBJECTID":645111},"geometry":{"x":178481.02999999933,"y":2540189.8300000001}},{"attributes":{"ID":645139,"DIS_CODE":0,"TOWNNAME":"歸仁區","LI":"崙頂里","LIN":"18鄰","STREET":"大成一街","SECT":" ","MAREA":" ","LANE":" ","ALLEY":" ","HOUSE_NO":"７９號","E_COORD97":177898.98000000001,"N_COORD97":2540229.9100000001,"ADDRESS":"大成一街７９號","OBJECTID":645112},"geometry":{"x":177898.98000000138,"y":2540229.9100000001}},{"attributes":{"ID":645140,"DIS_CODE":0,"TOWNNAME":"歸仁區","LI":"辜厝里","LIN":"46鄰","STREET":"中正南路","SECT":"一段","MAREA":" ","LANE":" ","ALLEY":" ","HOUSE_NO":"３２４號","E_COORD97":177153.14000000001,"N_COORD97":2540225.9500000002,"ADDRESS":"中正南路一段３２４號","OBJECTID":645113},"geometry":{"x":177153.1400000006,"y":2540225.9499999993}},{"attributes":{"ID":645141,"DIS_CODE":0,"TOWNNAME":"歸仁區","LI":"看東里","LIN":"5鄰","STREET":"成功三街","SECT":" ","MAREA":" ","LANE":" ","ALLEY":" ","HOUSE_NO":"５２號","E_COORD97":178465.25,"N_COORD97":2540002.4500000002,"ADDRESS":"成功三街５２號","OBJECTID":645114},"geometry":{"x":178465.25,"y":2540002.4499999993}},{"attributes":{"ID":645142,"DIS_CODE":0,"TOWNNAME":"歸仁區","LI":"崙頂里","LIN":"18鄰","STREET":"大成一街","SECT":" ","MAREA":" ","LANE":" ","ALLEY":" ","HOUSE_NO":"６１號","E_COORD97":177882.57999999999,"N_COORD97":2540238.9100000001,"ADDRESS":"大成一街６１號","OBJECTID":645115},"geometry":{"x":177882.58000000101,"y":2540238.910000002}},{"attributes":{"ID":645143,"DIS_CODE":0,"TOWNNAME":"歸仁區","LI":"許厝里","LIN":"26鄰","STREET":"信義北路","SECT":" ","MAREA":" ","LANE":" ","ALLEY":" ","HOUSE_NO":"１８號","E_COORD97":178001.29999999999,"N_COORD97":2540777.9300000002,"ADDRESS":"信義北路１８號","OBJECTID":645116},"geometry":{"x":178001.30000000075,"y":2540777.9300000016}},{"attributes":{"ID":645144,"DIS_CODE":0,"TOWNNAME":"歸仁區","LI":"許厝里","LIN":"14鄰","STREET":"中山路","SECT":"一段","MAREA":" ","LANE":" ","ALLEY":" ","HOUSE_NO":"４１２號","E_COORD97":178152.73999999999,"N_COORD97":2540723.6499999999,"ADDRESS":"中山路一段４１２號","OBJECTID":645117},"geometry":{"x":178152.74000000115,"y":2540723.6500000004}},{"attributes":{"ID":645145,"DIS_CODE":0,"TOWNNAME":"歸仁區","LI":"看西里","LIN":"14鄰","STREET":"仁愛南街","SECT":" ","MAREA":" ","LANE":" ","ALLEY":" ","HOUSE_NO":"２８０號","E_COORD97":178254.16,"N_COORD97":2540133.1200000001,"ADDRESS":"仁愛南街２８０號","OBJECTID":645118},"geometry":{"x":178254.16000000015,"y":2540133.1200000029}},{"attributes":{"ID":645146,"DIS_CODE":0,"TOWNNAME":"歸仁區","LI":"辜厝里","LIN":"50鄰","STREET":"中正南路","SECT":"一段","MAREA":" ","LANE":" ","ALLEY":" ","HOUSE_NO":"３８６號","E_COORD97":177053.26000000001,"N_COORD97":2540162.25,"ADDRESS":"中正南路一段３８６號","OBJECTID":645119},"geometry":{"x":177053.25999999978,"y":2540162.2500000019}},{"attributes":{"ID":645147,"DIS_CODE":0,"TOWNNAME":"歸仁區","LI":"崙頂里","LIN":"18鄰","STREET":"大成一街","SECT":" ","MAREA":" ","LANE":" ","ALLEY":" ","HOUSE_NO":"１０９號","E_COORD97":177920.63,"N_COORD97":2540205.9100000001,"ADDRESS":"大成一街１０９號","OBJECTID":645120},"geometry":{"x":177920.63000000175,"y":2540205.9100000001}},{"attributes":{"ID":645148,"DIS_CODE":0,"TOWNNAME":"歸仁區","LI":"崙頂里","LIN":"20鄰","STREET":"大成一街","SECT":" ","MAREA":" ","LANE":" ","ALLEY":" ","HOUSE_NO":"１６號","E_COORD97":177811.45000000001,"N_COORD97":2540175.2999999998,"ADDRESS":"大成一街１６號","OBJECTID":645121},"geometry":{"x":177811.45000000019,"y":2540175.3000000026}},{"attributes":{"ID":645149,"DIS_CODE":0,"TOWNNAME":"歸仁區","LI":"許厝里","LIN":"26鄰","STREET":"信義北路","SECT":" ","MAREA":" ","LANE":" ","ALLEY":" ","HOUSE_NO":"２２號","E_COORD97":178001.39999999999,"N_COORD97":2540787.9300000002,"ADDRESS":"信義北路２２號","OBJECTID":645122},"geometry":{"x":178001.4000000013,"y":2540787.9300000016}},{"attributes":{"ID":645150,"DIS_CODE":0,"TOWNNAME":"歸仁區","LI":"南興里","LIN":"34鄰","STREET":"文化九街","SECT":" ","MAREA":" ","LANE":" ","ALLEY":" ","HOUSE_NO":"３４號","E_COORD97":176337.22,"N_COORD97":2541096.2599999998,"ADDRESS":"文化九街３４號","OBJECTID":645123},"geometry":{"x":176337.22000000067,"y":2541096.2600000035}},{"attributes":{"ID":645151,"DIS_CODE":0,"TOWNNAME":"歸仁區","LI":"崙頂里","LIN":"18鄰","STREET":"大成一街","SECT":" ","MAREA":" ","LANE":" ","ALLEY":" ","HOUSE_NO":"１１１號","E_COORD97":177900.03,"N_COORD97":2540184.9100000001,"ADDRESS":"大成一街１１１號","OBJECTID":645124},"geometry":{"x":177900.03000000119,"y":2540184.910000002}},{"attributes":{"ID":645152,"DIS_CODE":0,"TOWNNAME":"歸仁區","LI":"辜厝里","LIN":"46鄰","STREET":"中正南路","SECT":"一段","MAREA":" ","LANE":" ","ALLEY":" ","HOUSE_NO":"３３２號","E_COORD97":177138.64000000001,"N_COORD97":2540215.9500000002,"ADDRESS":"中正南路一段３３２號","OBJECTID":645125},"geometry":{"x":177138.63999999966,"y":2540215.9499999993}},{"attributes":{"ID":645153,"DIS_CODE":0,"TOWNNAME":"歸仁區","LI":"後市里","LIN":"43鄰","STREET":"國光街","SECT":" ","MAREA":" ","LANE":" ","ALLEY":" ","HOUSE_NO":"６７號","E_COORD97":177199.29000000001,"N_COORD97":2540955.7400000002,"ADDRESS":"國光街６７號","OBJECTID":645126},"geometry":{"x":177199.2900000019,"y":2540955.7400000021}},{"attributes":{"ID":645154,"DIS_CODE":0,"TOWNNAME":"歸仁區","LI":"崙頂里","LIN":"18鄰","STREET":"大成一街","SECT":" ","MAREA":" ","LANE":" ","ALLEY":" ","HOUSE_NO":"５３號","E_COORD97":177890.88,"N_COORD97":2540268.9100000001,"ADDRESS":"大成一街５３號","OBJECTID":645127},"geometry":{"x":177890.88000000082,"y":2540268.910000002}},{"attributes":{"ID":645155,"DIS_CODE":0,"TOWNNAME":"歸仁區","LI":"許厝里","LIN":"20鄰","STREET":"忠孝北路","SECT":" ","MAREA":" ","LANE":" ","ALLEY":" ","HOUSE_NO":"９７號","E_COORD97":178324.82000000001,"N_COORD97":2540891.25,"ADDRESS":"忠孝北路９７號","OBJECTID":645128},"geometry":{"x":178324.81999999937,"y":2540891.2500000019}},{"attributes":{"ID":645156,"DIS_CODE":0,"TOWNNAME":"歸仁區","LI":"許厝里","LIN":"4鄰","STREET":"仁愛一街","SECT":" ","MAREA":" ","LANE":" ","ALLEY":" ","HOUSE_NO":"３６號","E_COORD97":178397.23999999999,"N_COORD97":2540596.54,"ADDRESS":"仁愛一街３６號","OBJECTID":645129},"geometry":{"x":178397.24000000115,"y":2540596.540000001}},{"attributes":{"ID":645157,"DIS_CODE":0,"TOWNNAME":"歸仁區","LI":"崙頂里","LIN":"18鄰","STREET":"大成一街","SECT":" ","MAREA":" ","LANE":" ","ALLEY":" ","HOUSE_NO":"５７號","E_COORD97":177874.38,"N_COORD97":2540235.9100000001,"ADDRESS":"大成一街５７號","OBJECTID":645130},"geometry":{"x":177874.37999999989,"y":2540235.910000002}},{"attributes":{"ID":645158,"DIS_CODE":0,"TOWNNAME":"歸仁區","LI":"許厝里","LIN":"39鄰","STREET":"公園路","SECT":" ","MAREA":" ","LANE":" ","ALLEY":" ","HOUSE_NO":"９８號","E_COORD97":177964.73999999999,"N_COORD97":2540511.2799999998,"ADDRESS":"公園路９８號","OBJECTID":645131},"geometry":{"x":177964.74000000115,"y":2540511.2799999993}},{"attributes":{"ID":645159,"DIS_CODE":0,"TOWNNAME":"歸仁區","LI":"後市里","LIN":"4鄰","STREET":"大吉街","SECT":" ","MAREA":" ","LANE":" ","ALLEY":" ","HOUSE_NO":"５１號","E_COORD97":177217.26000000001,"N_COORD97":2540685.25,"ADDRESS":"大吉街５１號","OBJECTID":645132},"geometry":{"x":177217.25999999978,"y":2540685.25}},{"attributes":{"ID":645160,"DIS_CODE":0,"TOWNNAME":"歸仁區","LI":"崙頂里","LIN":"18鄰","STREET":"大成一街","SECT":" ","MAREA":" ","LANE":" ","ALLEY":" ","HOUSE_NO":"６７號","E_COORD97":177895.88,"N_COORD97":2540244.9100000001,"ADDRESS":"大成一街６７號","OBJECTID":645133},"geometry":{"x":177895.88000000082,"y":2540244.9100000039}},{"attributes":{"ID":645161,"DIS_CODE":0,"TOWNNAME":"歸仁區","LI":"南保里","LIN":"32鄰","STREET":"民權八街","SECT":" ","MAREA":" ","LANE":" ","ALLEY":" ","HOUSE_NO":"７２號","E_COORD97":176776.70999999999,"N_COORD97":2541001.25,"ADDRESS":"民權八街７２號","OBJECTID":645134},"geometry":{"x":176776.71000000089,"y":2541001.25}},{"attributes":{"ID":645162,"DIS_CODE":0,"TOWNNAME":"歸仁區","LI":"崙頂里","LIN":"18鄰","STREET":"大成一街","SECT":" ","MAREA":" ","LANE":" ","ALLEY":" ","HOUSE_NO":"１０７號","E_COORD97":177915.42999999999,"N_COORD97":2540203.9100000001,"ADDRESS":"大成一街１０７號","OBJECTID":645135},"geometry":{"x":177915.43000000063,"y":2540203.9099999983}},{"attributes":{"ID":645163,"DIS_CODE":0,"TOWNNAME":"歸仁區","LI":"許厝里","LIN":"26鄰","STREET":"信義北路","SECT":" ","MAREA":" ","LANE":" ","ALLEY":" ","HOUSE_NO":"３６號","E_COORD97":178000.73000000001,"N_COORD97":2540822.23,"ADDRESS":"信義北路３６號","OBJECTID":645136},"geometry":{"x":178000.73000000138,"y":2540822.2300000004}},{"attributes":{"ID":645164,"DIS_CODE":0,"TOWNNAME":"歸仁區","LI":"南保里","LIN":"42鄰","STREET":"中山路","SECT":"三段","MAREA":" ","LANE":" ","ALLEY":" ","HOUSE_NO":"１８０號","E_COORD97":176567.60999999999,"N_COORD97":2540928.0499999998,"ADDRESS":"中山路三段１８０號","OBJECTID":645137},"geometry":{"x":176567.61000000127,"y":2540928.0500000007}},{"attributes":{"ID":645165,"DIS_CODE":0,"TOWNNAME":"歸仁區","LI":"南保里","LIN":"43鄰","STREET":"民權南路","SECT":" ","MAREA":" ","LANE":" ","ALLEY":" ","HOUSE_NO":"８４號","E_COORD97":176953.31,"N_COORD97":2540638.25,"ADDRESS":"民權南路８４號","OBJECTID":645138},"geometry":{"x":176953.31000000052,"y":2540638.25}},{"attributes":{"ID":645166,"DIS_CODE":0,"TOWNNAME":"歸仁區","LI":"南保里","LIN":"20鄰","STREET":"文化街","SECT":"三段","MAREA":" ","LANE":" ","ALLEY":" ","HOUSE_NO":"８１號","E_COORD97":176848.67000000001,"N_COORD97":2541204.2599999998,"ADDRESS":"文化街三段８１號","OBJECTID":645139},"geometry":{"x":176848.66999999993,"y":2541204.2599999998}},{"attributes":{"ID":645167,"DIS_CODE":0,"TOWNNAME":"歸仁區","LI":"南興里","LIN":"38鄰","STREET":"中山路","SECT":"三段","MAREA":" ","LANE":" ","ALLEY":" ","HOUSE_NO":"４６８號","E_COORD97":175876.91,"N_COORD97":2541013.25,"ADDRESS":"中山路三段４６８號","OBJECTID":645140},"geometry":{"x":175876.91000000108,"y":2541013.2500000019}},{"attributes":{"ID":645168,"DIS_CODE":0,"TOWNNAME":"歸仁區","LI":"崙頂里","LIN":"18鄰","STREET":"大成一街","SECT":" ","MAREA":" ","LANE":" ","ALLEY":" ","HOUSE_NO":"３９號","E_COORD97":177861.07999999999,"N_COORD97":2540254.9100000001,"ADDRESS":"大成一街３９號","OBJECTID":645141},"geometry":{"x":177861.08000000007,"y":2540254.9100000039}},{"attributes":{"ID":645169,"DIS_CODE":0,"TOWNNAME":"歸仁區","LI":"崙頂里","LIN":"18鄰","STREET":"大成一街","SECT":" ","MAREA":" ","LANE":" ","ALLEY":" ","HOUSE_NO":"８７號","E_COORD97":177891.67999999999,"N_COORD97":2540215.9100000001,"ADDRESS":"大成一街８７號","OBJECTID":645142},"geometry":{"x":177891.68000000063,"y":2540215.910000002}},{"attributes":{"ID":645170,"DIS_CODE":0,"TOWNNAME":"歸仁區","LI":"後市里","LIN":"25鄰","STREET":"民族北街","SECT":" ","MAREA":" ","LANE":" ","ALLEY":" ","HOUSE_NO":"４０號","E_COORD97":177450.48000000001,"N_COORD97":2540961.25,"ADDRESS":"民族北街４０號","OBJECTID":645143},"geometry":{"x":177450.48000000045,"y":2540961.2500000037}},{"attributes":{"ID":645171,"DIS_CODE":0,"TOWNNAME":"歸仁區","LI":"南興里","LIN":"41鄰","STREET":"中山路","SECT":"三段","MAREA":" ","LANE":" ","ALLEY":" ","HOUSE_NO":"４０９號","E_COORD97":175810.10999999999,"N_COORD97":2540992.25,"ADDRESS":"中山路三段４０９號","OBJECTID":645144},"geometry":{"x":175810.11000000034,"y":2540992.2500000019}},{"attributes":{"ID":645172,"DIS_CODE":0,"TOWNNAME":"歸仁區","LI":"南興里","LIN":"38鄰","STREET":"中山路","SECT":"三段","MAREA":" ","LANE":" ","ALLEY":" ","HOUSE_NO":"５１８號","E_COORD97":175789.41,"N_COORD97":2541024.3500000001,"ADDRESS":"中山路三段５１８號","OBJECTID":645145},"geometry":{"x":175789.41000000015,"y":2541024.3500000034}},{"attributes":{"ID":645173,"DIS_CODE":0,"TOWNNAME":"歸仁區","LI":"崙頂里","LIN":"20鄰","STREET":"大成路","SECT":" ","MAREA":" ","LANE":" ","ALLEY":" ","HOUSE_NO":"１８３號","E_COORD97":177787.85000000001,"N_COORD97":2540161.2999999998,"ADDRESS":"大成路１８３號","OBJECTID":645146},"geometry":{"x":177787.84999999963,"y":2540161.3000000045}},{"attributes":{"ID":645174,"DIS_CODE":0,"TOWNNAME":"歸仁區","LI":"南興里","LIN":"41鄰","STREET":"中山路","SECT":"三段","MAREA":" ","LANE":" ","ALLEY":" ","HOUSE_NO":"４２１號","E_COORD97":175774.31,"N_COORD97":2540998.25,"ADDRESS":"中山路三段４２１號","OBJECTID":645147},"geometry":{"x":175774.30999999959,"y":2540998.2500000037}},{"attributes":{"ID":645175,"DIS_CODE":0,"TOWNNAME":"歸仁區","LI":"看西里","LIN":"13鄰","STREET":"仁愛南街","SECT":" ","MAREA":" ","LANE":" ","ALLEY":" ","HOUSE_NO":"２３９號","E_COORD97":178274.76000000001,"N_COORD97":2540144.1200000001,"ADDRESS":"仁愛南街２３９號","OBJECTID":645148},"geometry":{"x":178274.76000000071,"y":2540144.1200000029}},{"attributes":{"ID":645176,"DIS_CODE":0,"TOWNNAME":"歸仁區","LI":"看東里","LIN":"4鄰","STREET":"成功路","SECT":"一段","MAREA":" ","LANE":" ","ALLEY":" ","HOUSE_NO":"１７２號","E_COORD97":178523.03,"N_COORD97":2540185.8300000001,"ADDRESS":"成功路一段１７２號","OBJECTID":645149},"geometry":{"x":178523.03000000026,"y":2540185.8300000019}},{"attributes":{"ID":645177,"DIS_CODE":0,"TOWNNAME":"歸仁區","LI":"看東里","LIN":"4鄰","STREET":"成功六街","SECT":" ","MAREA":" ","LANE":" ","ALLEY":" ","HOUSE_NO":"１０號","E_COORD97":178407.70999999999,"N_COORD97":2540128.1099999999,"ADDRESS":"成功六街１０號","OBJECTID":645150},"geometry":{"x":178407.70999999996,"y":2540128.1100000013}},{"attributes":{"ID":645178,"DIS_CODE":0,"TOWNNAME":"歸仁區","LI":"辜厝里","LIN":"50鄰","STREET":"中正南路","SECT":"一段","MAREA":" ","LANE":" ","ALLEY":" ","HOUSE_NO":"３９２號","E_COORD97":177046.70000000001,"N_COORD97":2540158.6600000001,"ADDRESS":"中正南路一段３９２號","OBJECTID":645151},"geometry":{"x":177046.70000000019,"y":2540158.660000002}},{"attributes":{"ID":645179,"DIS_CODE":0,"TOWNNAME":"歸仁區","LI":"南興里","LIN":"38鄰","STREET":"中山路","SECT":"三段","MAREA":" ","LANE":" ","ALLEY":" ","HOUSE_NO":"５２６號","E_COORD97":175779.20999999999,"N_COORD97":2541027.3500000001,"ADDRESS":"中山路三段５２６號","OBJECTID":645152},"geometry":{"x":175779.21000000183,"y":2541027.3499999996}},{"attributes":{"ID":645180,"DIS_CODE":0,"TOWNNAME":"歸仁區","LI":"南保里","LIN":"20鄰","STREET":"文化街","SECT":"三段","MAREA":" ","LANE":" ","ALLEY":" ","HOUSE_NO":"７５號","E_COORD97":176854.97,"N_COORD97":2541224.2599999998,"ADDRESS":"文化街三段７５號","OBJECTID":645153},"geometry":{"x":176854.96999999974,"y":2541224.2599999998}},{"attributes":{"ID":645181,"DIS_CODE":0,"TOWNNAME":"歸仁區","LI":"南興里","LIN":"34鄰","STREET":"民生北街","SECT":" ","MAREA":" ","LANE":" ","ALLEY":" ","HOUSE_NO":"５２號","E_COORD97":176276.60999999999,"N_COORD97":2541079.25,"ADDRESS":"民生北街５２號","OBJECTID":645154},"geometry":{"x":176276.61000000034,"y":2541079.25}},{"attributes":{"ID":645182,"DIS_CODE":0,"TOWNNAME":"歸仁區","LI":"後市里","LIN":"38鄰","STREET":"中山八街","SECT":" ","MAREA":" ","LANE":" ","ALLEY":" ","HOUSE_NO":"４５號","E_COORD97":177168.85999999999,"N_COORD97":2541016.29,"ADDRESS":"中山八街４５號","OBJECTID":645155},"geometry":{"x":177168.86000000127,"y":2541016.2899999991}},{"attributes":{"ID":645183,"DIS_CODE":0,"TOWNNAME":"歸仁區","LI":"崙頂里","LIN":"20鄰","STREET":"大成一街","SECT":" ","MAREA":" ","LANE":" ","ALLEY":" ","HOUSE_NO":"８號","E_COORD97":177802,"N_COORD97":2540171.2999999998,"ADDRESS":"大成一街８號","OBJECTID":645156},"geometry":{"x":177802.00000000093,"y":2540171.2999999989}},{"attributes":{"ID":645184,"DIS_CODE":0,"TOWNNAME":"歸仁區","LI":"後市里","LIN":"39鄰","STREET":"民權三街","SECT":" ","MAREA":" ","LANE":" ","ALLEY":" ","HOUSE_NO":"６１號","E_COORD97":177306.73000000001,"N_COORD97":2541075.75,"ADDRESS":"民權三街６１號","OBJECTID":645157},"geometry":{"x":177306.73000000045,"y":2541075.75}},{"attributes":{"ID":645185,"DIS_CODE":0,"TOWNNAME":"歸仁區","LI":"崙頂里","LIN":"18鄰","STREET":"大成一街","SECT":" ","MAREA":" ","LANE":" ","ALLEY":" ","HOUSE_NO":"９５號","E_COORD97":177908.17999999999,"N_COORD97":2540222.9100000001,"ADDRESS":"大成一街９５號","OBJECTID":645158},"geometry":{"x":177908.17999999877,"y":2540222.9100000001}},{"attributes":{"ID":645186,"DIS_CODE":0,"TOWNNAME":"歸仁區","LI":"崙頂里","LIN":"20鄰","STREET":"大成一街","SECT":" ","MAREA":" ","LANE":" ","ALLEY":" ","HOUSE_NO":"１０號","E_COORD97":177805.25,"N_COORD97":2540165.2999999998,"ADDRESS":"大成一街１０號","OBJECTID":645159},"geometry":{"x":177805.25000000093,"y":2540165.3000000026}},{"attributes":{"ID":645187,"DIS_CODE":0,"TOWNNAME":"歸仁區","LI":"崙頂里","LIN":"20鄰","STREET":"大成路","SECT":" ","MAREA":" ","LANE":" ","ALLEY":" ","HOUSE_NO":"１８５號","E_COORD97":177788.85000000001,"N_COORD97":2540157.2999999998,"ADDRESS":"大成路１８５號","OBJECTID":645160},"geometry":{"x":177788.85000000056,"y":2540157.3000000007}},{"attributes":{"ID":645188,"DIS_CODE":0,"TOWNNAME":"歸仁區","LI":"許厝里","LIN":"26鄰","STREET":"信義北路","SECT":" ","MAREA":" ","LANE":" ","ALLEY":" ","HOUSE_NO":"１４號","E_COORD97":178001.29999999999,"N_COORD97":2540769.9300000002,"ADDRESS":"信義北路１４號","OBJECTID":645161},"geometry":{"x":178001.30000000075,"y":2540769.9300000016}},{"attributes":{"ID":645189,"DIS_CODE":0,"TOWNNAME":"歸仁區","LI":"南保里","LIN":"25鄰","STREET":"文化街","SECT":"三段","MAREA":" ","LANE":" ","ALLEY":" ","HOUSE_NO":"１８９號","E_COORD97":176551.42000000001,"N_COORD97":2541178.2599999998,"ADDRESS":"文化街三段１８９號","OBJECTID":645162},"geometry":{"x":176551.42000000086,"y":2541178.2600000016}},{"attributes":{"ID":645190,"DIS_CODE":0,"TOWNNAME":"歸仁區","LI":"後市里","LIN":"39鄰","STREET":"國光街","SECT":" ","MAREA":" ","LANE":" ","ALLEY":" ","HOUSE_NO":"１１９號","E_COORD97":177334.54000000001,"N_COORD97":2541106.7400000002,"ADDRESS":"國光街１１９號","OBJECTID":645163},"geometry":{"x":177334.54000000004,"y":2541106.7400000002}},{"attributes":{"ID":645191,"DIS_CODE":0,"TOWNNAME":"歸仁區","LI":"南保里","LIN":"39鄰","STREET":"中山路","SECT":"三段","MAREA":" ","LANE":" ","ALLEY":" ","HOUSE_NO":"１４８號","E_COORD97":176633.20999999999,"N_COORD97":2540918.0499999998,"ADDRESS":"中山路三段１４８號","OBJECTID":645164},"geometry":{"x":176633.20999999996,"y":2540918.0500000007}},{"attributes":{"ID":645192,"DIS_CODE":0,"TOWNNAME":"歸仁區","LI":"後市里","LIN":"38鄰","STREET":"中山八街","SECT":" ","MAREA":" ","LANE":" ","ALLEY":" ","HOUSE_NO":"５４號","E_COORD97":177232.73000000001,"N_COORD97":2541046.7400000002,"ADDRESS":"中山八街５４號","OBJECTID":645165},"geometry":{"x":177232.73000000138,"y":2541046.7400000021}},{"attributes":{"ID":645193,"DIS_CODE":0,"TOWNNAME":"歸仁區","LI":"許厝里","LIN":"20鄰","STREET":"仁愛北街","SECT":" ","MAREA":" ","LANE":" ","ALLEY":" ","HOUSE_NO":"６８號","E_COORD97":178300.92999999999,"N_COORD97":2540880.25,"ADDRESS":"仁愛北街６８號","OBJECTID":645166},"geometry":{"x":178300.9299999997,"y":2540880.2500000019}},{"attributes":{"ID":645194,"DIS_CODE":0,"TOWNNAME":"歸仁區","LI":"許厝里","LIN":"26鄰","STREET":"信義北路","SECT":" ","MAREA":" ","LANE":" ","ALLEY":" ","HOUSE_NO":"３８號","E_COORD97":178000.73000000001,"N_COORD97":2540827.23,"ADDRESS":"信義北路３８號","OBJECTID":645167},"geometry":{"x":178000.73000000138,"y":2540827.2300000023}},{"attributes":{"ID":645195,"DIS_CODE":0,"TOWNNAME":"歸仁區","LI":"許厝里","LIN":"39鄰","STREET":"公園路","SECT":" ","MAREA":" ","LANE":" ","ALLEY":" ","HOUSE_NO":"９４號","E_COORD97":177972.94,"N_COORD97":2540513.2799999998,"ADDRESS":"公園路９４號","OBJECTID":645168},"geometry":{"x":177972.94000000041,"y":2540513.2800000012}},{"attributes":{"ID":645196,"DIS_CODE":0,"TOWNNAME":"歸仁區","LI":"南興里","LIN":"39鄰","STREET":"中山路","SECT":"三段","MAREA":" ","LANE":" ","ALLEY":" ","HOUSE_NO":"６６６號","E_COORD97":175313.31,"N_COORD97":2541097.25,"ADDRESS":"中山路三段６６６號","OBJECTID":645169},"geometry":{"x":175313.30999999959,"y":2541097.2500000019}},{"attributes":{"ID":645197,"DIS_CODE":0,"TOWNNAME":"歸仁區","LI":"看西里","LIN":"4鄰","STREET":"仁愛南街","SECT":" ","MAREA":" ","LANE":" ","ALLEY":" ","HOUSE_NO":"９０號","E_COORD97":178270.60000000001,"N_COORD97":2540423.29,"ADDRESS":"仁愛南街９０號","OBJECTID":645170},"geometry":{"x":178270.60000000056,"y":2540423.2899999991}},{"attributes":{"ID":645198,"DIS_CODE":0,"TOWNNAME":"歸仁區","LI":"許厝里","LIN":"4鄰","STREET":"仁愛一街","SECT":" ","MAREA":" ","LANE":" ","ALLEY":" ","HOUSE_NO":"１８號","E_COORD97":178358.34,"N_COORD97":2540606.54,"ADDRESS":"仁愛一街１８號","OBJECTID":645171},"geometry":{"x":178358.34000000171,"y":2540606.540000001}},{"attributes":{"ID":645199,"DIS_CODE":0,"TOWNNAME":"歸仁區","LI":"許厝里","LIN":"4鄰","STREET":"仁愛一街","SECT":" ","MAREA":" ","LANE":" ","ALLEY":" ","HOUSE_NO":"３４號","E_COORD97":178392.14000000001,"N_COORD97":2540600.54,"ADDRESS":"仁愛一街３４號","OBJECTID":645172},"geometry":{"x":178392.1400000006,"y":2540600.5399999991}},{"attributes":{"ID":645200,"DIS_CODE":0,"TOWNNAME":"歸仁區","LI":"南保里","LIN":"20鄰","STREET":"文化街","SECT":"三段","MAREA":" ","LANE":" ","ALLEY":" ","HOUSE_NO":"７１號","E_COORD97":176864.17000000001,"N_COORD97":2541230.2599999998,"ADDRESS":"文化街三段７１號","OBJECTID":645173},"geometry":{"x":176864.16999999993,"y":2541230.2600000016}},{"attributes":{"ID":645201,"DIS_CODE":0,"TOWNNAME":"歸仁區","LI":"辜厝里","LIN":"20鄰","STREET":"中正南路","SECT":"一段","MAREA":" ","LANE":" ","ALLEY":" ","HOUSE_NO":"１５８號","E_COORD97":177430.66,"N_COORD97":2540420.9500000002,"ADDRESS":"中正南路一段１５８號","OBJECTID":645174},"geometry":{"x":177430.66000000015,"y":2540420.9500000011}},{"attributes":{"ID":645202,"DIS_CODE":0,"TOWNNAME":"歸仁區","LI":"辜厝里","LIN":"20鄰","STREET":"中正南路","SECT":"一段","MAREA":" ","LANE":" ","ALLEY":" ","HOUSE_NO":"１４２號","E_COORD97":177453.35999999999,"N_COORD97":2540443.9500000002,"ADDRESS":"中正南路一段１４２號","OBJECTID":645175},"geometry":{"x":177453.3600000022,"y":2540443.9500000011}},{"attributes":{"ID":645203,"DIS_CODE":0,"TOWNNAME":"歸仁區","LI":"南興里","LIN":"39鄰","STREET":"中山路","SECT":"三段","MAREA":" ","LANE":" ","ALLEY":" ","HOUSE_NO":"６２２號","E_COORD97":175517.20999999999,"N_COORD97":2541060.25,"ADDRESS":"中山路三段６２２號","OBJECTID":645176},"geometry":{"x":175517.21000000089,"y":2541060.2500000019}},{"attributes":{"ID":645204,"DIS_CODE":0,"TOWNNAME":"歸仁區","LI":"後市里","LIN":"38鄰","STREET":"中山八街","SECT":" ","MAREA":" ","LANE":" ","ALLEY":" ","HOUSE_NO":"３１號","E_COORD97":177198.45999999999,"N_COORD97":2541013.5299999998,"ADDRESS":"中山八街３１號","OBJECTID":645177},"geometry":{"x":177198.46000000089,"y":2541013.5300000012}},{"attributes":{"ID":645205,"DIS_CODE":0,"TOWNNAME":"歸仁區","LI":"看東里","LIN":"4鄰","STREET":"成功路","SECT":"一段","MAREA":" ","LANE":" ","ALLEY":" ","HOUSE_NO":"２２４號","E_COORD97":178423.60999999999,"N_COORD97":2540141.1200000001,"ADDRESS":"成功路一段２２４號","OBJECTID":645178},"geometry":{"x":178423.61000000127,"y":2540141.120000001}},{"attributes":{"ID":645206,"DIS_CODE":0,"TOWNNAME":"歸仁區","LI":"許厝里","LIN":"4鄰","STREET":"仁愛一街","SECT":" ","MAREA":" ","LANE":" ","ALLEY":" ","HOUSE_NO":"２０號","E_COORD97":178362.44,"N_COORD97":2540605.54,"ADDRESS":"仁愛一街２０號","OBJECTID":645179},"geometry":{"x":178362.44000000041,"y":2540605.5400000028}},{"attributes":{"ID":645207,"DIS_CODE":0,"TOWNNAME":"歸仁區","LI":"許厝里","LIN":"36鄰","STREET":"公園路","SECT":" ","MAREA":" ","LANE":" ","ALLEY":" ","HOUSE_NO":"１５０號","E_COORD97":177850.03,"N_COORD97":2540469.8199999998,"ADDRESS":"公園路１５０號","OBJECTID":645180},"geometry":{"x":177850.03000000026,"y":2540469.8200000022}},{"attributes":{"ID":645208,"DIS_CODE":0,"TOWNNAME":"歸仁區","LI":"看西里","LIN":"18鄰","STREET":"成功五街","SECT":" ","MAREA":" ","LANE":" ","ALLEY":" ","HOUSE_NO":"８７號","E_COORD97":178394.76000000001,"N_COORD97":2539912.3599999999,"ADDRESS":"成功五街８７號","OBJECTID":645181},"geometry":{"x":178394.76000000071,"y":2539912.3600000013}},{"attributes":{"ID":645209,"DIS_CODE":0,"TOWNNAME":"歸仁區","LI":"辜厝里","LIN":"20鄰","STREET":"中正南路","SECT":"一段","MAREA":" ","LANE":" ","ALLEY":" ","HOUSE_NO":"１５６號","E_COORD97":177433.76000000001,"N_COORD97":2540423.9500000002,"ADDRESS":"中正南路一段１５６號","OBJECTID":645182},"geometry":{"x":177433.76000000071,"y":2540423.9500000011}},{"attributes":{"ID":645210,"DIS_CODE":0,"TOWNNAME":"歸仁區","LI":"許厝里","LIN":"4鄰","STREET":"仁愛一街","SECT":" ","MAREA":" ","LANE":" ","ALLEY":" ","HOUSE_NO":"２４號","E_COORD97":178372.64000000001,"N_COORD97":2540601.54,"ADDRESS":"仁愛一街２４號","OBJECTID":645183},"geometry":{"x":178372.63999999966,"y":2540601.5399999991}},{"attributes":{"ID":645211,"DIS_CODE":0,"TOWNNAME":"歸仁區","LI":"許厝里","LIN":"4鄰","STREET":"仁愛一街","SECT":" ","MAREA":" ","LANE":" ","ALLEY":" ","HOUSE_NO":"３０號","E_COORD97":178384.94,"N_COORD97":2540600.54,"ADDRESS":"仁愛一街３０號","OBJECTID":645184},"geometry":{"x":178384.94000000041,"y":2540600.5399999991}},{"attributes":{"ID":645212,"DIS_CODE":0,"TOWNNAME":"歸仁區","LI":"後市里","LIN":"38鄰","STREET":"中山八街","SECT":" ","MAREA":" ","LANE":" ","ALLEY":" ","HOUSE_NO":"２９號","E_COORD97":177202.39999999999,"N_COORD97":2541013.27,"ADDRESS":"中山八街２９號","OBJECTID":645185},"geometry":{"x":177202.40000000224,"y":2541013.2699999996}},{"attributes":{"ID":645213,"DIS_CODE":0,"TOWNNAME":"歸仁區","LI":"後市里","LIN":"38鄰","STREET":"中山八街","SECT":" ","MAREA":" ","LANE":" ","ALLEY":" ","HOUSE_NO":"５２號","E_COORD97":177235.82999999999,"N_COORD97":2541042.7400000002,"ADDRESS":"中山八街５２號","OBJECTID":645186},"geometry":{"x":177235.83000000007,"y":2541042.7400000039}},{"attributes":{"ID":645214,"DIS_CODE":0,"TOWNNAME":"歸仁區","LI":"後市里","LIN":"20鄰","STREET":"民族北街","SECT":" ","MAREA":" ","LANE":" ","ALLEY":" ","HOUSE_NO":"２８號","E_COORD97":177447.17999999999,"N_COORD97":2540910.25,"ADDRESS":"民族北街２８號","OBJECTID":645187},"geometry":{"x":177447.18000000156,"y":2540910.2500000037}},{"attributes":{"ID":645215,"DIS_CODE":0,"TOWNNAME":"新營區","LI":"忠政里","LIN":"25鄰","STREET":"府西路","SECT":" ","MAREA":" ","LANE":" ","ALLEY":" ","HOUSE_NO":"７０號","E_COORD97":179813.76999999999,"N_COORD97":2579233.6299999999,"ADDRESS":"府西路７０號","OBJECTID":645188},"geometry":{"x":179813.76999999955,"y":2579233.629999999}},{"attributes":{"ID":645216,"DIS_CODE":0,"TOWNNAME":"歸仁區","LI":"南保里","LIN":"43鄰","STREET":"民權南路","SECT":" ","MAREA":" ","LANE":" ","ALLEY":" ","HOUSE_NO":"７８號","E_COORD97":176954.41,"N_COORD97":2540651.25,"ADDRESS":"民權南路７８號","OBJECTID":645189},"geometry":{"x":176954.41000000201,"y":2540651.25}},{"attributes":{"ID":645217,"DIS_CODE":0,"TOWNNAME":"歸仁區","LI":"南興里","LIN":"38鄰","STREET":"中山路","SECT":"三段","MAREA":" ","LANE":" ","ALLEY":" ","HOUSE_NO":"４５８號","E_COORD97":175896.41,"N_COORD97":2541017.25,"ADDRESS":"中山路三段４５８號","OBJECTID":645190},"geometry":{"x":175896.41000000015,"y":2541017.25}},{"attributes":{"ID":645218,"DIS_CODE":0,"TOWNNAME":"歸仁區","LI":"許厝里","LIN":"39鄰","STREET":"公園路","SECT":" ","MAREA":" ","LANE":" ","ALLEY":" ","HOUSE_NO":"８０號","E_COORD97":177997.54000000001,"N_COORD97":2540523.2799999998,"ADDRESS":"公園路８０號","OBJECTID":645191},"geometry":{"x":177997.54000000004,"y":2540523.2800000012}},{"attributes":{"ID":645219,"DIS_CODE":0,"TOWNNAME":"歸仁區","LI":"後市里","LIN":"4鄰","STREET":"大吉街","SECT":" ","MAREA":" ","LANE":" ","ALLEY":" ","HOUSE_NO":"３７號","E_COORD97":177220.45999999999,"N_COORD97":2540713.25,"ADDRESS":"大吉街３７號","OBJECTID":645192},"geometry":{"x":177220.46000000089,"y":2540713.25}},{"attributes":{"ID":645220,"DIS_CODE":0,"TOWNNAME":"歸仁區","LI":"許厝里","LIN":"36鄰","STREET":"公園路","SECT":" ","MAREA":" ","LANE":" ","ALLEY":" ","HOUSE_NO":"１５２號","E_COORD97":177845.92999999999,"N_COORD97":2540469.8199999998,"ADDRESS":"公園路１５２號","OBJECTID":645193},"geometry":{"x":177845.93000000063,"y":2540469.8200000022}},{"attributes":{"ID":645221,"DIS_CODE":0,"TOWNNAME":"歸仁區","LI":"辜厝里","LIN":"50鄰","STREET":"中正南路","SECT":"一段","MAREA":" ","LANE":" ","ALLEY":" ","HOUSE_NO":"３８２號","E_COORD97":177065.82999999999,"N_COORD97":2540168.5499999998,"ADDRESS":"中正南路一段３８２號","OBJECTID":645194},"geometry":{"x":177065.83000000101,"y":2540168.5500000007}},{"attributes":{"ID":645222,"DIS_CODE":0,"TOWNNAME":"歸仁區","LI":"南興里","LIN":"38鄰","STREET":"中山路","SECT":"三段","MAREA":" ","LANE":" ","ALLEY":" ","HOUSE_NO":"４４６號","E_COORD97":175904.60999999999,"N_COORD97":2541009.25,"ADDRESS":"中山路三段４４６號","OBJECTID":645195},"geometry":{"x":175904.61000000127,"y":2541009.2500000019}},{"attributes":{"ID":645223,"DIS_CODE":0,"TOWNNAME":"歸仁區","LI":"南興里","LIN":"38鄰","STREET":"中山路","SECT":"三段","MAREA":" ","LANE":" ","ALLEY":" ","HOUSE_NO":"４５２號","E_COORD97":175879.20999999999,"N_COORD97":2541074.25,"ADDRESS":"中山路三段４５２號","OBJECTID":645196},"geometry":{"x":175879.21000000183,"y":2541074.2500000019}},{"attributes":{"ID":645224,"DIS_CODE":0,"TOWNNAME":"歸仁區","LI":"崙頂里","LIN":"18鄰","STREET":"大成一街","SECT":" ","MAREA":" ","LANE":" ","ALLEY":" ","HOUSE_NO":"４７號","E_COORD97":177877.57999999999,"N_COORD97":2540262.9100000001,"ADDRESS":"大成一街４７號","OBJECTID":645197},"geometry":{"x":177877.58000000101,"y":2540262.910000002}},{"attributes":{"ID":645225,"DIS_CODE":0,"TOWNNAME":"歸仁區","LI":"南保里","LIN":"32鄰","STREET":"民權八街","SECT":" ","MAREA":" ","LANE":" ","ALLEY":" ","HOUSE_NO":"４２號","E_COORD97":176841.20999999999,"N_COORD97":2540990.25,"ADDRESS":"民權八街４２號","OBJECTID":645198},"geometry":{"x":176841.20999999996,"y":2540990.25}},{"attributes":{"ID":645226,"DIS_CODE":0,"TOWNNAME":"歸仁區","LI":"南保里","LIN":"42鄰","STREET":"中山路","SECT":"三段","MAREA":" ","LANE":" ","ALLEY":" ","HOUSE_NO":"１８２號","E_COORD97":176560.51000000001,"N_COORD97":2540932.0499999998,"ADDRESS":"中山路三段１８２號","OBJECTID":645199},"geometry":{"x":176560.51000000071,"y":2540932.0500000007}},{"attributes":{"ID":645227,"DIS_CODE":0,"TOWNNAME":"歸仁區","LI":"南保里","LIN":"25鄰","STREET":"文化街","SECT":"三段","MAREA":" ","LANE":" ","ALLEY":" ","HOUSE_NO":"１７５號","E_COORD97":176581.22,"N_COORD97":2541182.2599999998,"ADDRESS":"文化街三段１７５號","OBJECTID":645200},"geometry":{"x":176581.22000000067,"y":2541182.2600000016}}]}