{"displayFieldName":"TOWNNAME","fieldAliases":{"ID":"ID","DIS_CODE":"DIS_CODE","TOWNNAME":"TOWNNAME","LI":"LI","LIN":"LIN","STREET":"STREET","SECT":"SECT","MAREA":"MAREA","LANE":"LANE","ALLEY":"ALLEY","HOUSE_NO":"HOUSE_NO","E_COORD97":"E_COORD97","N_COORD97":"N_COORD97","ADDRESS":"ADDRESS","OBJECTID":"OBJECTID"},"geometryType":"esriGeometryPoint","spatialReference":{"wkid":102443,"latestWkid":3826},"fields":[{"name":"ID","type":"esriFieldTypeDouble","alias":"ID"},{"name":"DIS_CODE","type":"esriFieldTypeInteger","alias":"DIS_CODE"},{"name":"TOWNNAME","type":"esriFieldTypeString","alias":"TOWNNAME","length":8},{"name":"LI","type":"esriFieldTypeString","alias":"LI","length":8},{"name":"LIN","type":"esriFieldTypeString","alias":"LIN","length":12},{"name":"STREET","type":"esriFieldTypeString","alias":"STREET","length":20},{"name":"SECT","type":"esriFieldTypeString","alias":"SECT","length":8},{"name":"MAREA","type":"esriFieldTypeString","alias":"MAREA","length":12},{"name":"LANE","type":"esriFieldTypeString","alias":"LANE","length":10},{"name":"ALLEY","type":"esriFieldTypeString","alias":"ALLEY","length":10},{"name":"HOUSE_NO","type":"esriFieldTypeString","alias":"HOUSE_NO","length":20},{"name":"E_COORD97","type":"esriFieldTypeDouble","alias":"E_COORD97"},{"name":"N_COORD97","type":"esriFieldTypeDouble","alias":"N_COORD97"},{"name":"ADDRESS","type":"esriFieldTypeString","alias":"ADDRESS","length":50},{"name":"OBJECTID","type":"esriFieldTypeOID","alias":"OBJECTID"}],"features":[{"attributes":{"ID":294009,"DIS_CODE":0,"TOWNNAME":"安平區","LI":"文平里","LIN":"17鄰","STREET":"建平三街","SECT":" ","MAREA":" ","LANE":"６５巷","ALLEY":" ","HOUSE_NO":"１８號六樓之３","E_COORD97":165743.35000000001,"N_COORD97":2542877.1400000001,"ADDRESS":"建平三街６５巷１８號六樓之３","OBJECTID":294001},"geometry":{"x":165743.34999999963,"y":2542877.1400000006}},{"attributes":{"ID":294010,"DIS_CODE":0,"TOWNNAME":"關廟區","LI":"關廟里","LIN":"14鄰","STREET":"大仁街","SECT":" ","MAREA":" ","LANE":" ","ALLEY":" ","HOUSE_NO":"３５６號","E_COORD97":180873.67000000001,"N_COORD97":2539724.25,"ADDRESS":"大仁街３５６號","OBJECTID":294002},"geometry":{"x":180873.67000000086,"y":2539724.2500000019}},{"attributes":{"ID":294011,"DIS_CODE":0,"TOWNNAME":"關廟區","LI":"深坑里","LIN":"14鄰","STREET":"南雄路","SECT":"一段","MAREA":" ","LANE":" ","ALLEY":" ","HOUSE_NO":"３４６號","E_COORD97":181803.76999999999,"N_COORD97":2537548.2999999998,"ADDRESS":"南雄路一段３４６號","OBJECTID":294003},"geometry":{"x":181803.77000000048,"y":2537548.3000000026}},{"attributes":{"ID":294012,"DIS_CODE":0,"TOWNNAME":"關廟區","LI":"松腳里","LIN":"14鄰","STREET":"四維街","SECT":" ","MAREA":" ","LANE":" ","ALLEY":" ","HOUSE_NO":"５９號","E_COORD97":181890.31,"N_COORD97":2539596.25,"ADDRESS":"四維街５９號","OBJECTID":294004},"geometry":{"x":181890.30999999959,"y":2539596.2500000019}},{"attributes":{"ID":294013,"DIS_CODE":0,"TOWNNAME":"關廟區","LI":"南花里","LIN":"14鄰","STREET":"和平路","SECT":" ","MAREA":" ","LANE":" ","ALLEY":" ","HOUSE_NO":"３３８號","E_COORD97":181651.34,"N_COORD97":2540112.25,"ADDRESS":"和平路３３８號","OBJECTID":294005},"geometry":{"x":181651.33999999985,"y":2540112.25}},{"attributes":{"ID":294014,"DIS_CODE":0,"TOWNNAME":"新化區","LI":"太平里","LIN":"14鄰","STREET":"民權街","SECT":" ","MAREA":" ","LANE":" ","ALLEY":" ","HOUSE_NO":"１２１號","E_COORD97":178711.91,"N_COORD97":2548806.25,"ADDRESS":"民權街１２１號","OBJECTID":294006},"geometry":{"x":178711.91000000015,"y":2548806.2500000037}},{"attributes":{"ID":294015,"DIS_CODE":0,"TOWNNAME":"新化區","LI":"知義里","LIN":"14鄰","STREET":"復興路","SECT":" ","MAREA":" ","LANE":" ","ALLEY":" ","HOUSE_NO":"７２號","E_COORD97":179542.17000000001,"N_COORD97":2547549.25,"ADDRESS":"復興路７２號","OBJECTID":294007},"geometry":{"x":179542.16999999993,"y":2547549.2500000019}},{"attributes":{"ID":294016,"DIS_CODE":0,"TOWNNAME":"新化區","LI":"知義里","LIN":"14鄰","STREET":"中正路","SECT":" ","MAREA":" ","LANE":" ","ALLEY":" ","HOUSE_NO":"９２號","E_COORD97":179149.76000000001,"N_COORD97":2547341.25,"ADDRESS":"中正路９２號","OBJECTID":294008},"geometry":{"x":179149.75999999978,"y":2547341.25}},{"attributes":{"ID":294017,"DIS_CODE":0,"TOWNNAME":"南區","LI":"彰南里","LIN":"14鄰","STREET":"中華西路","SECT":"一段","MAREA":" ","LANE":" ","ALLEY":" ","HOUSE_NO":"６７號之１","E_COORD97":166299.45000000001,"N_COORD97":2541645.3900000001,"ADDRESS":"中華西路一段６７號之１","OBJECTID":294009},"geometry":{"x":166299.45000000019,"y":2541645.3899999987}},{"attributes":{"ID":294018,"DIS_CODE":0,"TOWNNAME":"南區","LI":"文南里","LIN":"14鄰","STREET":"永南二街","SECT":" ","MAREA":" ","LANE":" ","ALLEY":" ","HOUSE_NO":"１０號","E_COORD97":166797.62,"N_COORD97":2542622.6000000001,"ADDRESS":"永南二街１０號","OBJECTID":294010},"geometry":{"x":166797.62000000104,"y":2542622.5999999996}},{"attributes":{"ID":294019,"DIS_CODE":0,"TOWNNAME":"南區","LI":"文南里","LIN":"14鄰","STREET":"永南二街","SECT":" ","MAREA":" ","LANE":" ","ALLEY":" ","HOUSE_NO":"１２號","E_COORD97":166793.70999999999,"N_COORD97":2542623.04,"ADDRESS":"永南二街１２號","OBJECTID":294011},"geometry":{"x":166793.71000000089,"y":2542623.0400000028}},{"attributes":{"ID":294020,"DIS_CODE":0,"TOWNNAME":"南區","LI":"文南里","LIN":"14鄰","STREET":"永南二街","SECT":" ","MAREA":" ","LANE":" ","ALLEY":" ","HOUSE_NO":"１４號","E_COORD97":166788.72,"N_COORD97":2542623.8999999999,"ADDRESS":"永南二街１４號","OBJECTID":294012},"geometry":{"x":166788.71999999974,"y":2542623.9000000004}},{"attributes":{"ID":294021,"DIS_CODE":0,"TOWNNAME":"安南區","LI":"溪頂里","LIN":"22鄰","STREET":"郡安路","SECT":"四段","MAREA":" ","LANE":"２４９巷","ALLEY":" ","HOUSE_NO":"１０號","E_COORD97":168721.51000000001,"N_COORD97":2547614.5899999999,"ADDRESS":"郡安路四段２４９巷１０號","OBJECTID":294013},"geometry":{"x":168721.51000000164,"y":2547614.5900000017}},{"attributes":{"ID":294022,"DIS_CODE":0,"TOWNNAME":"安南區","LI":"溪頂里","LIN":"22鄰","STREET":"郡安路","SECT":"四段","MAREA":" ","LANE":"２４９巷","ALLEY":" ","HOUSE_NO":"１１號","E_COORD97":168747.06,"N_COORD97":2547607.8199999998,"ADDRESS":"郡安路四段２４９巷１１號","OBJECTID":294014},"geometry":{"x":168747.06000000052,"y":2547607.8200000003}},{"attributes":{"ID":294023,"DIS_CODE":0,"TOWNNAME":"安平區","LI":"文平里","LIN":"17鄰","STREET":"建平三街","SECT":" ","MAREA":" ","LANE":"６５巷","ALLEY":" ","HOUSE_NO":"２０號二樓之１","E_COORD97":165747.04000000001,"N_COORD97":2542857.3500000001,"ADDRESS":"建平三街６５巷２０號二樓之１","OBJECTID":294015},"geometry":{"x":165747.04000000097,"y":2542857.3499999996}},{"attributes":{"ID":294024,"DIS_CODE":0,"TOWNNAME":"安平區","LI":"文平里","LIN":"17鄰","STREET":"建平三街","SECT":" ","MAREA":" ","LANE":"６５巷","ALLEY":" ","HOUSE_NO":"２０號二樓之２","E_COORD97":165747.04000000001,"N_COORD97":2542857.3500000001,"ADDRESS":"建平三街６５巷２０號二樓之２","OBJECTID":294016},"geometry":{"x":165747.04000000097,"y":2542857.3499999996}},{"attributes":{"ID":294025,"DIS_CODE":0,"TOWNNAME":"安平區","LI":"文平里","LIN":"17鄰","STREET":"建平三街","SECT":" ","MAREA":" ","LANE":"６５巷","ALLEY":" ","HOUSE_NO":"２０號二樓之３","E_COORD97":165747.04000000001,"N_COORD97":2542857.3500000001,"ADDRESS":"建平三街６５巷２０號二樓之３","OBJECTID":294017},"geometry":{"x":165747.04000000097,"y":2542857.3499999996}},{"attributes":{"ID":294026,"DIS_CODE":0,"TOWNNAME":"北區","LI":"新勝里","LIN":"14鄰","STREET":"長榮路","SECT":"五段","MAREA":" ","LANE":" ","ALLEY":" ","HOUSE_NO":"１７１號","E_COORD97":170053.66,"N_COORD97":2545777.46,"ADDRESS":"長榮路五段１７１號","OBJECTID":294018},"geometry":{"x":170053.66000000108,"y":2545777.4600000009}},{"attributes":{"ID":294027,"DIS_CODE":0,"TOWNNAME":"北區","LI":"新勝里","LIN":"14鄰","STREET":"長榮路","SECT":"五段","MAREA":" ","LANE":" ","ALLEY":" ","HOUSE_NO":"１７３號","E_COORD97":170052.81,"N_COORD97":2545782.6099999999,"ADDRESS":"長榮路五段１７３號","OBJECTID":294019},"geometry":{"x":170052.80999999959,"y":2545782.6100000031}},{"attributes":{"ID":294028,"DIS_CODE":0,"TOWNNAME":"南區","LI":"文南里","LIN":"14鄰","STREET":"永南四街","SECT":" ","MAREA":" ","LANE":" ","ALLEY":" ","HOUSE_NO":"１５號","E_COORD97":166786.64999999999,"N_COORD97":2542738.1600000001,"ADDRESS":"永南四街１５號","OBJECTID":294020},"geometry":{"x":166786.65000000037,"y":2542738.1599999983}},{"attributes":{"ID":294029,"DIS_CODE":0,"TOWNNAME":"新營區","LI":"大宏里","LIN":"19鄰","STREET":"三民路","SECT":" ","MAREA":" ","LANE":" ","ALLEY":" ","HOUSE_NO":"３６號之３４","E_COORD97":180455.37886999999,"N_COORD97":2578521.3902599998,"ADDRESS":"三民路３６號之３４","OBJECTID":294021},"geometry":{"x":180455.37887000013,"y":2578521.3902599998}},{"attributes":{"ID":294030,"DIS_CODE":0,"TOWNNAME":"安南區","LI":"溪心里","LIN":"7鄰","STREET":"本原街","SECT":"二段","MAREA":" ","LANE":"１３２巷","ALLEY":" ","HOUSE_NO":"５５號","E_COORD97":166652.73999999999,"N_COORD97":2550790.2599999998,"ADDRESS":"本原街二段１３２巷５５號","OBJECTID":294022},"geometry":{"x":166652.74000000115,"y":2550790.2600000016}},{"attributes":{"ID":294031,"DIS_CODE":0,"TOWNNAME":"安南區","LI":"城北里","LIN":"4鄰","STREET":"安中路","SECT":"六段","MAREA":" ","LANE":"５７８巷","ALLEY":" ","HOUSE_NO":"６６號","E_COORD97":161004.26000000001,"N_COORD97":2551481.3300000001,"ADDRESS":"安中路六段５７８巷６６號","OBJECTID":294023},"geometry":{"x":161004.25999999978,"y":2551481.3300000019}},{"attributes":{"ID":294032,"DIS_CODE":0,"TOWNNAME":"安南區","LI":"州北里","LIN":"25鄰","STREET":"安和路","SECT":"五段","MAREA":" ","LANE":"１７１巷","ALLEY":" ","HOUSE_NO":"１３號","E_COORD97":169807.70000000001,"N_COORD97":2551822.6299999999,"ADDRESS":"安和路五段１７１巷１３號","OBJECTID":294024},"geometry":{"x":169807.70000000112,"y":2551822.629999999}},{"attributes":{"ID":294033,"DIS_CODE":0,"TOWNNAME":"安南區","LI":"\u25A0南里","LIN":"30鄰","STREET":"安昌街","SECT":" ","MAREA":" ","LANE":"１７４巷","ALLEY":" ","HOUSE_NO":"１７０號","E_COORD97":170096.35999999999,"N_COORD97":2552084.71,"ADDRESS":"安昌街１７４巷１７０號","OBJECTID":294025},"geometry":{"x":170096.3600000022,"y":2552084.7100000009}},{"attributes":{"ID":294034,"DIS_CODE":0,"TOWNNAME":"安南區","LI":"\u25A0南里","LIN":"30鄰","STREET":"安昌街","SECT":" ","MAREA":" ","LANE":"１７４巷","ALLEY":" ","HOUSE_NO":"１７４號","E_COORD97":170096.35999999999,"N_COORD97":2552076.23,"ADDRESS":"安昌街１７４巷１７４號","OBJECTID":294026},"geometry":{"x":170096.3600000022,"y":2552076.2300000023}},{"attributes":{"ID":294035,"DIS_CODE":0,"TOWNNAME":"安南區","LI":"\u25A0南里","LIN":"20鄰","STREET":"環福街","SECT":" ","MAREA":" ","LANE":"１５２巷","ALLEY":" ","HOUSE_NO":"１５號","E_COORD97":170411.38,"N_COORD97":2552570.8700000001,"ADDRESS":"環福街１５２巷１５號","OBJECTID":294027},"geometry":{"x":170411.38000000082,"y":2552570.8700000029}},{"attributes":{"ID":294036,"DIS_CODE":0,"TOWNNAME":"安南區","LI":"南興里","LIN":"8鄰","STREET":"安興街","SECT":" ","MAREA":" ","LANE":"６４０巷","ALLEY":" ","HOUSE_NO":"１９號","E_COORD97":163537.12,"N_COORD97":2552508.7799999998,"ADDRESS":"安興街６４０巷１９號","OBJECTID":294028},"geometry":{"x":163537.12000000011,"y":2552508.7800000012}},{"attributes":{"ID":294037,"DIS_CODE":0,"TOWNNAME":"安南區","LI":"城西里","LIN":"4鄰","STREET":"城西街","SECT":"三段","MAREA":" ","LANE":"７６５巷","ALLEY":" ","HOUSE_NO":"１０號之２０","E_COORD97":156640.5,"N_COORD97":2549601.5600000001,"ADDRESS":"城西街三段７６５巷１０號之２０","OBJECTID":294029},"geometry":{"x":156640.50000000093,"y":2549601.5600000042}},{"attributes":{"ID":294038,"DIS_CODE":0,"TOWNNAME":"鹽水區","LI":"水秀里","LIN":"14鄰","STREET":"忠義路","SECT":" ","MAREA":" ","LANE":" ","ALLEY":" ","HOUSE_NO":"１０號","E_COORD97":175274.26999999999,"N_COORD97":2580126.1299999999,"ADDRESS":"忠義路１０號","OBJECTID":294030},"geometry":{"x":175274.26999999955,"y":2580126.129999999}},{"attributes":{"ID":294039,"DIS_CODE":0,"TOWNNAME":"鹽水區","LI":"水秀里","LIN":"14鄰","STREET":"忠義路","SECT":" ","MAREA":" ","LANE":" ","ALLEY":" ","HOUSE_NO":"７號之１","E_COORD97":175266.70999999999,"N_COORD97":2580146.3300000001,"ADDRESS":"忠義路７號之１","OBJECTID":294031},"geometry":{"x":175266.70999999996,"y":2580146.3299999982}},{"attributes":{"ID":294040,"DIS_CODE":0,"TOWNNAME":"鹽水區","LI":"水秀里","LIN":"14鄰","STREET":"忠義路","SECT":" ","MAREA":" ","LANE":" ","ALLEY":" ","HOUSE_NO":"７之２號","E_COORD97":175271.16,"N_COORD97":2580147.71,"ADDRESS":"忠義路７之２號","OBJECTID":294032},"geometry":{"x":175271.16000000201,"y":2580147.7100000009}},{"attributes":{"ID":294041,"DIS_CODE":0,"TOWNNAME":"鹽水區","LI":"水秀里","LIN":"14鄰","STREET":"忠義路","SECT":" ","MAREA":" ","LANE":" ","ALLEY":" ","HOUSE_NO":"７號之２","E_COORD97":175271.16,"N_COORD97":2580147.71,"ADDRESS":"忠義路７號之２","OBJECTID":294033},"geometry":{"x":175271.16000000201,"y":2580147.7100000009}},{"attributes":{"ID":294042,"DIS_CODE":0,"TOWNNAME":"鹽水區","LI":"水秀里","LIN":"14鄰","STREET":"忠義路","SECT":" ","MAREA":" ","LANE":" ","ALLEY":" ","HOUSE_NO":"７之３號","E_COORD97":175275.45999999999,"N_COORD97":2580148.7000000002,"ADDRESS":"忠義路７之３號","OBJECTID":294034},"geometry":{"x":175275.45999999996,"y":2580148.6999999993}},{"attributes":{"ID":294043,"DIS_CODE":0,"TOWNNAME":"鹽水區","LI":"水秀里","LIN":"14鄰","STREET":"忠義路","SECT":" ","MAREA":" ","LANE":" ","ALLEY":" ","HOUSE_NO":"８號之１","E_COORD97":175286.78,"N_COORD97":2580154.98,"ADDRESS":"忠義路８號之１","OBJECTID":294035},"geometry":{"x":175286.78000000026,"y":2580154.9800000004}},{"attributes":{"ID":294044,"DIS_CODE":0,"TOWNNAME":"鹽水區","LI":"水秀里","LIN":"14鄰","STREET":"忠義路","SECT":" ","MAREA":" ","LANE":" ","ALLEY":" ","HOUSE_NO":"８號之２","E_COORD97":175310.07999999999,"N_COORD97":2580154.1200000001,"ADDRESS":"忠義路８號之２","OBJECTID":294036},"geometry":{"x":175310.08000000007,"y":2580154.120000001}},{"attributes":{"ID":294045,"DIS_CODE":0,"TOWNNAME":"鹽水區","LI":"水秀里","LIN":"14鄰","STREET":"忠義路","SECT":" ","MAREA":" ","LANE":" ","ALLEY":" ","HOUSE_NO":"８號之４","E_COORD97":175286.25,"N_COORD97":2580163.4300000002,"ADDRESS":"忠義路８號之４","OBJECTID":294037},"geometry":{"x":175286.25000000093,"y":2580163.4300000016}},{"attributes":{"ID":294046,"DIS_CODE":0,"TOWNNAME":"鹽水區","LI":"水秀里","LIN":"14鄰","STREET":"忠義路","SECT":" ","MAREA":" ","LANE":" ","ALLEY":" ","HOUSE_NO":"８號之５","E_COORD97":175309.89000000001,"N_COORD97":2580181.5499999998,"ADDRESS":"忠義路８號之５","OBJECTID":294038},"geometry":{"x":175309.89000000153,"y":2580181.5500000007}},{"attributes":{"ID":294047,"DIS_CODE":0,"TOWNNAME":"鹽水區","LI":"水秀里","LIN":"14鄰","STREET":"忠義路","SECT":" ","MAREA":" ","LANE":" ","ALLEY":" ","HOUSE_NO":"８號之６","E_COORD97":175257.45000000001,"N_COORD97":2580173.1600000001,"ADDRESS":"忠義路８號之６","OBJECTID":294039},"geometry":{"x":175257.45000000205,"y":2580173.160000002}},{"attributes":{"ID":294048,"DIS_CODE":0,"TOWNNAME":"鹽水區","LI":"水秀里","LIN":"14鄰","STREET":"忠義路","SECT":" ","MAREA":" ","LANE":" ","ALLEY":" ","HOUSE_NO":"８之７號","E_COORD97":175336.64000000001,"N_COORD97":2580179.3399999999,"ADDRESS":"忠義路８之７號","OBJECTID":294040},"geometry":{"x":175336.63999999966,"y":2580179.3399999999}},{"attributes":{"ID":294049,"DIS_CODE":0,"TOWNNAME":"安平區","LI":"文平里","LIN":"17鄰","STREET":"建平三街","SECT":" ","MAREA":" ","LANE":"６５巷","ALLEY":" ","HOUSE_NO":"２０號三樓之１","E_COORD97":165747.04000000001,"N_COORD97":2542857.3500000001,"ADDRESS":"建平三街６５巷２０號三樓之１","OBJECTID":294041},"geometry":{"x":165747.04000000097,"y":2542857.3499999996}},{"attributes":{"ID":294050,"DIS_CODE":0,"TOWNNAME":"安平區","LI":"文平里","LIN":"17鄰","STREET":"建平三街","SECT":" ","MAREA":" ","LANE":"６５巷","ALLEY":" ","HOUSE_NO":"２０號三樓之２","E_COORD97":165747.04000000001,"N_COORD97":2542857.3500000001,"ADDRESS":"建平三街６５巷２０號三樓之２","OBJECTID":294042},"geometry":{"x":165747.04000000097,"y":2542857.3499999996}},{"attributes":{"ID":294051,"DIS_CODE":0,"TOWNNAME":"安平區","LI":"文平里","LIN":"17鄰","STREET":"建平三街","SECT":" ","MAREA":" ","LANE":"６５巷","ALLEY":" ","HOUSE_NO":"２０號三樓之３","E_COORD97":165747.04000000001,"N_COORD97":2542857.3500000001,"ADDRESS":"建平三街６５巷２０號三樓之３","OBJECTID":294043},"geometry":{"x":165747.04000000097,"y":2542857.3499999996}},{"attributes":{"ID":294052,"DIS_CODE":0,"TOWNNAME":"安平區","LI":"文平里","LIN":"17鄰","STREET":"建平三街","SECT":" ","MAREA":" ","LANE":"６５巷","ALLEY":" ","HOUSE_NO":"２０號五樓之１","E_COORD97":165747.04000000001,"N_COORD97":2542857.3500000001,"ADDRESS":"建平三街６５巷２０號五樓之１","OBJECTID":294044},"geometry":{"x":165747.04000000097,"y":2542857.3499999996}},{"attributes":{"ID":294053,"DIS_CODE":0,"TOWNNAME":"中西區","LI":"赤嵌里","LIN":" ","STREET":"成功路","SECT":" ","MAREA":" ","LANE":" ","ALLEY":" ","HOUSE_NO":"５３號","E_COORD97":168925.51999999999,"N_COORD97":2544227.1699999999,"ADDRESS":"成功路５３號","OBJECTID":294045},"geometry":{"x":168925.52000000048,"y":2544227.1700000018}},{"attributes":{"ID":294054,"DIS_CODE":0,"TOWNNAME":"仁德區","LI":"後壁里","LIN":"13鄰","STREET":"德善路","SECT":" ","MAREA":" ","LANE":"１３４巷","ALLEY":" ","HOUSE_NO":"２號","E_COORD97":173520.31,"N_COORD97":2538822.5099999998,"ADDRESS":"德善路１３４巷２號","OBJECTID":294046},"geometry":{"x":173520.31000000052,"y":2538822.5099999998}},{"attributes":{"ID":294055,"DIS_CODE":0,"TOWNNAME":"中西區","LI":"青年里","LIN":"17鄰","STREET":"中山路","SECT":" ","MAREA":" ","LANE":"８巷","ALLEY":" ","HOUSE_NO":"９號","E_COORD97":168609.07999999999,"N_COORD97":2543688.1000000001,"ADDRESS":"中山路８巷９號","OBJECTID":294047},"geometry":{"x":168609.08000000007,"y":2543688.1000000015}},{"attributes":{"ID":294056,"DIS_CODE":0,"TOWNNAME":"中西區","LI":"青年里","LIN":"15鄰","STREET":"青年路","SECT":" ","MAREA":" ","LANE":"４７巷","ALLEY":" ","HOUSE_NO":"１０號","E_COORD97":168659.47,"N_COORD97":2543682.4700000002,"ADDRESS":"青年路４７巷１０號","OBJECTID":294048},"geometry":{"x":168659.47000000067,"y":2543682.4699999988}},{"attributes":{"ID":294057,"DIS_CODE":0,"TOWNNAME":"仁德區","LI":"新田里","LIN":"4鄰","STREET":"新田路","SECT":" ","MAREA":" ","LANE":"２４０巷","ALLEY":" ","HOUSE_NO":"２號","E_COORD97":174517.94,"N_COORD97":2539588.25,"ADDRESS":"新田路２４０巷２號","OBJECTID":294049},"geometry":{"x":174517.94000000041,"y":2539588.2500000019}},{"attributes":{"ID":294058,"DIS_CODE":0,"TOWNNAME":"仁德區","LI":"新田里","LIN":"5鄰","STREET":"勝利二街","SECT":" ","MAREA":" ","LANE":"３９巷","ALLEY":" ","HOUSE_NO":"３號","E_COORD97":174883.09,"N_COORD97":2539286.2599999998,"ADDRESS":"勝利二街３９巷３號","OBJECTID":294050},"geometry":{"x":174883.09000000171,"y":2539286.2600000016}},{"attributes":{"ID":294059,"DIS_CODE":0,"TOWNNAME":"安平區","LI":"文平里","LIN":"17鄰","STREET":"建平三街","SECT":" ","MAREA":" ","LANE":"６５巷","ALLEY":" ","HOUSE_NO":"２０號五樓之２","E_COORD97":165747.04000000001,"N_COORD97":2542857.3500000001,"ADDRESS":"建平三街６５巷２０號五樓之２","OBJECTID":294051},"geometry":{"x":165747.04000000097,"y":2542857.3499999996}},{"attributes":{"ID":294060,"DIS_CODE":0,"TOWNNAME":"安平區","LI":"文平里","LIN":"17鄰","STREET":"建平三街","SECT":" ","MAREA":" ","LANE":"６５巷","ALLEY":" ","HOUSE_NO":"２０號五樓之３","E_COORD97":165747.04000000001,"N_COORD97":2542857.3500000001,"ADDRESS":"建平三街６５巷２０號五樓之３","OBJECTID":294052},"geometry":{"x":165747.04000000097,"y":2542857.3499999996}},{"attributes":{"ID":294061,"DIS_CODE":0,"TOWNNAME":"安平區","LI":"文平里","LIN":"17鄰","STREET":"建平三街","SECT":" ","MAREA":" ","LANE":"６５巷","ALLEY":" ","HOUSE_NO":"２０號六樓之１","E_COORD97":165747.04000000001,"N_COORD97":2542857.3500000001,"ADDRESS":"建平三街６５巷２０號六樓之１","OBJECTID":294053},"geometry":{"x":165747.04000000097,"y":2542857.3499999996}},{"attributes":{"ID":294062,"DIS_CODE":0,"TOWNNAME":"安平區","LI":"文平里","LIN":"17鄰","STREET":"建平三街","SECT":" ","MAREA":" ","LANE":"６５巷","ALLEY":" ","HOUSE_NO":"２０號六樓之２","E_COORD97":165747.04000000001,"N_COORD97":2542857.3500000001,"ADDRESS":"建平三街６５巷２０號六樓之２","OBJECTID":294054},"geometry":{"x":165747.04000000097,"y":2542857.3499999996}},{"attributes":{"ID":294063,"DIS_CODE":0,"TOWNNAME":"安平區","LI":"文平里","LIN":"17鄰","STREET":"建平三街","SECT":" ","MAREA":" ","LANE":"６５巷","ALLEY":" ","HOUSE_NO":"２０號六樓之３","E_COORD97":165747.04000000001,"N_COORD97":2542857.3500000001,"ADDRESS":"建平三街６５巷２０號六樓之３","OBJECTID":294055},"geometry":{"x":165747.04000000097,"y":2542857.3499999996}},{"attributes":{"ID":294064,"DIS_CODE":0,"TOWNNAME":"安平區","LI":"文平里","LIN":"17鄰","STREET":"建平三街","SECT":" ","MAREA":" ","LANE":"６５巷","ALLEY":" ","HOUSE_NO":"２０號四樓之１","E_COORD97":165747.04000000001,"N_COORD97":2542857.3500000001,"ADDRESS":"建平三街６５巷２０號四樓之１","OBJECTID":294056},"geometry":{"x":165747.04000000097,"y":2542857.3499999996}},{"attributes":{"ID":294065,"DIS_CODE":0,"TOWNNAME":"安平區","LI":"文平里","LIN":"17鄰","STREET":"建平三街","SECT":" ","MAREA":" ","LANE":"６５巷","ALLEY":" ","HOUSE_NO":"２０號四樓之２","E_COORD97":165747.04000000001,"N_COORD97":2542857.3500000001,"ADDRESS":"建平三街６５巷２０號四樓之２","OBJECTID":294057},"geometry":{"x":165747.04000000097,"y":2542857.3499999996}},{"attributes":{"ID":294066,"DIS_CODE":0,"TOWNNAME":"鹽水區","LI":"水秀里","LIN":"14鄰","STREET":"忠義路","SECT":" ","MAREA":" ","LANE":" ","ALLEY":" ","HOUSE_NO":"８號之８","E_COORD97":175332,"N_COORD97":2580177.3599999999,"ADDRESS":"忠義路８號之８","OBJECTID":294058},"geometry":{"x":175332.00000000093,"y":2580177.3600000013}},{"attributes":{"ID":294067,"DIS_CODE":0,"TOWNNAME":"鹽水區","LI":"水秀里","LIN":"14鄰","STREET":"忠義路","SECT":" ","MAREA":" ","LANE":" ","ALLEY":" ","HOUSE_NO":"８號之９","E_COORD97":175295.78,"N_COORD97":2580179.0499999998,"ADDRESS":"忠義路８號之９","OBJECTID":294059},"geometry":{"x":175295.77999999933,"y":2580179.0500000007}},{"attributes":{"ID":294068,"DIS_CODE":0,"TOWNNAME":"鹽水區","LI":"水秀里","LIN":"14鄰","STREET":"忠義路","SECT":" ","MAREA":" ","LANE":" ","ALLEY":" ","HOUSE_NO":"９號","E_COORD97":175251.84,"N_COORD97":2580115.6000000001,"ADDRESS":"忠義路９號","OBJECTID":294060},"geometry":{"x":175251.83999999985,"y":2580115.5999999996}},{"attributes":{"ID":294069,"DIS_CODE":0,"TOWNNAME":"安平區","LI":"西門里","LIN":"14鄰","STREET":"古堡街","SECT":" ","MAREA":" ","LANE":" ","ALLEY":" ","HOUSE_NO":"１９６號","E_COORD97":163515.12,"N_COORD97":2544811.7799999998,"ADDRESS":"古堡街１９６號","OBJECTID":294061},"geometry":{"x":163515.11999999918,"y":2544811.7800000031}},{"attributes":{"ID":294070,"DIS_CODE":0,"TOWNNAME":"安平區","LI":"怡平里","LIN":"14鄰","STREET":"建平十一街","SECT":" ","MAREA":" ","LANE":" ","ALLEY":" ","HOUSE_NO":"３０６號","E_COORD97":165602.76000000001,"N_COORD97":2544004.0099999998,"ADDRESS":"建平十一街３０６號","OBJECTID":294062},"geometry":{"x":165602.76000000071,"y":2544004.0100000016}},{"attributes":{"ID":294071,"DIS_CODE":0,"TOWNNAME":"仁德區","LI":"仁愛里","LIN":"26鄰","STREET":"大同路","SECT":"三段","MAREA":" ","LANE":"３５８巷","ALLEY":" ","HOUSE_NO":"３７號","E_COORD97":169734.10500000001,"N_COORD97":2539372.54996,"ADDRESS":"大同路三段３５８巷３７號","OBJECTID":294063},"geometry":{"x":169734.10500000138,"y":2539372.5499569979}},{"attributes":{"ID":294072,"DIS_CODE":0,"TOWNNAME":"仁德區","LI":"後壁里","LIN":"18鄰","STREET":"德南路","SECT":" ","MAREA":" ","LANE":"７０巷","ALLEY":" ","HOUSE_NO":"３１號","E_COORD97":173384.39000000001,"N_COORD97":2538630.0099999998,"ADDRESS":"德南路７０巷３１號","OBJECTID":294064},"geometry":{"x":173384.3900000006,"y":2538630.0100000035}},{"attributes":{"ID":294073,"DIS_CODE":0,"TOWNNAME":"仁德區","LI":"後壁里","LIN":"25鄰","STREET":"德洋一街","SECT":" ","MAREA":" ","LANE":"１０巷","ALLEY":" ","HOUSE_NO":"１４號","E_COORD97":173120.57000000001,"N_COORD97":2539086.27,"ADDRESS":"德洋一街１０巷１４號","OBJECTID":294065},"geometry":{"x":173120.5700000003,"y":2539086.2700000014}},{"attributes":{"ID":294074,"DIS_CODE":0,"TOWNNAME":"仁德區","LI":"後壁里","LIN":"25鄰","STREET":"德糖路","SECT":" ","MAREA":" ","LANE":" ","ALLEY":" ","HOUSE_NO":"５３０號","E_COORD97":173169.04999999999,"N_COORD97":2539069.02,"ADDRESS":"德糖路５３０號","OBJECTID":294066},"geometry":{"x":173169.04999999981,"y":2539069.0199999996}},{"attributes":{"ID":294075,"DIS_CODE":0,"TOWNNAME":"仁德區","LI":"新田里","LIN":"4鄰","STREET":"新田路","SECT":" ","MAREA":" ","LANE":"２４０巷","ALLEY":" ","HOUSE_NO":"１１號","E_COORD97":174536.70999999999,"N_COORD97":2539608.25,"ADDRESS":"新田路２４０巷１１號","OBJECTID":294067},"geometry":{"x":174536.71000000183,"y":2539608.2500000037}},{"attributes":{"ID":294076,"DIS_CODE":0,"TOWNNAME":"仁德區","LI":"新田里","LIN":"4鄰","STREET":"新田路","SECT":" ","MAREA":" ","LANE":"２４０巷","ALLEY":" ","HOUSE_NO":"３號","E_COORD97":174516.84,"N_COORD97":2539605.5,"ADDRESS":"新田路２４０巷３號","OBJECTID":294068},"geometry":{"x":174516.83999999892,"y":2539605.5}},{"attributes":{"ID":294077,"DIS_CODE":0,"TOWNNAME":"仁德區","LI":"後壁里","LIN":"18鄰","STREET":"德南路","SECT":" ","MAREA":" ","LANE":"７０巷","ALLEY":" ","HOUSE_NO":"１２號","E_COORD97":173368.17000000001,"N_COORD97":2538639.02,"ADDRESS":"德南路７０巷１２號","OBJECTID":294069},"geometry":{"x":173368.16999999993,"y":2538639.0199999996}},{"attributes":{"ID":294078,"DIS_CODE":0,"TOWNNAME":"仁德區","LI":"後壁里","LIN":"25鄰","STREET":"德洋一街","SECT":" ","MAREA":" ","LANE":"１０巷","ALLEY":" ","HOUSE_NO":"８號","E_COORD97":173109.70000000001,"N_COORD97":2539094.52,"ADDRESS":"德洋一街１０巷８號","OBJECTID":294070},"geometry":{"x":173109.70000000112,"y":2539094.5200000014}},{"attributes":{"ID":294079,"DIS_CODE":0,"TOWNNAME":"仁德區","LI":"後壁里","LIN":"25鄰","STREET":"德洋一街","SECT":" ","MAREA":" ","LANE":"１０巷","ALLEY":" ","HOUSE_NO":"７號","E_COORD97":173119.87,"N_COORD97":2539102.2599999998,"ADDRESS":"德洋一街１０巷７號","OBJECTID":294071},"geometry":{"x":173119.87000000011,"y":2539102.2599999998}},{"attributes":{"ID":294080,"DIS_CODE":0,"TOWNNAME":"仁德區","LI":"後壁里","LIN":"40鄰","STREET":"德善二街","SECT":" ","MAREA":" ","LANE":"１７巷","ALLEY":" ","HOUSE_NO":"３４號","E_COORD97":173502.54000000001,"N_COORD97":2538972.52,"ADDRESS":"德善二街１７巷３４號","OBJECTID":294072},"geometry":{"x":173502.54000000097,"y":2538972.5200000014}},{"attributes":{"ID":294081,"DIS_CODE":0,"TOWNNAME":"仁德區","LI":"新田里","LIN":"4鄰","STREET":"義林路","SECT":" ","MAREA":" ","LANE":" ","ALLEY":" ","HOUSE_NO":"７０號","E_COORD97":174308.48999999999,"N_COORD97":2539751.5099999998,"ADDRESS":"義林路７０號","OBJECTID":294073},"geometry":{"x":174308.49000000115,"y":2539751.5099999998}},{"attributes":{"ID":294082,"DIS_CODE":0,"TOWNNAME":"仁德區","LI":"後壁里","LIN":"40鄰","STREET":"德善二街","SECT":" ","MAREA":" ","LANE":"１７巷","ALLEY":" ","HOUSE_NO":"１號","E_COORD97":173525.01000000001,"N_COORD97":2538914.2599999998,"ADDRESS":"德善二街１７巷１號","OBJECTID":294074},"geometry":{"x":173525.00999999978,"y":2538914.2600000016}},{"attributes":{"ID":294083,"DIS_CODE":0,"TOWNNAME":"仁德區","LI":"後壁里","LIN":"5鄰","STREET":"德善路","SECT":" ","MAREA":" ","LANE":" ","ALLEY":" ","HOUSE_NO":"１０１號","E_COORD97":173414.70999999999,"N_COORD97":2538907.5099999998,"ADDRESS":"德善路１０１號","OBJECTID":294075},"geometry":{"x":173414.71000000089,"y":2538907.5099999998}},{"attributes":{"ID":294084,"DIS_CODE":0,"TOWNNAME":"仁德區","LI":"後壁里","LIN":"25鄰","STREET":"德洋一街","SECT":" ","MAREA":" ","LANE":" ","ALLEY":" ","HOUSE_NO":"１３號","E_COORD97":173078.26999999999,"N_COORD97":2539121.7599999998,"ADDRESS":"德洋一街１３號","OBJECTID":294076},"geometry":{"x":173078.27000000048,"y":2539121.7599999998}},{"attributes":{"ID":294085,"DIS_CODE":0,"TOWNNAME":"仁德區","LI":"後壁里","LIN":"41鄰","STREET":"德善路","SECT":" ","MAREA":" ","LANE":" ","ALLEY":" ","HOUSE_NO":"２５９號","E_COORD97":173882.85999999999,"N_COORD97":2538666.02,"ADDRESS":"德善路２５９號","OBJECTID":294077},"geometry":{"x":173882.86000000034,"y":2538666.0199999996}},{"attributes":{"ID":294086,"DIS_CODE":0,"TOWNNAME":"仁德區","LI":"後壁里","LIN":"24鄰","STREET":"德洋路","SECT":" ","MAREA":" ","LANE":" ","ALLEY":" ","HOUSE_NO":"２號","E_COORD97":173207.03,"N_COORD97":2538999.0099999998,"ADDRESS":"德洋路２號","OBJECTID":294078},"geometry":{"x":173207.03000000026,"y":2538999.0099999998}},{"attributes":{"ID":294087,"DIS_CODE":0,"TOWNNAME":"仁德區","LI":"新田里","LIN":"4鄰","STREET":"新田路","SECT":" ","MAREA":" ","LANE":" ","ALLEY":" ","HOUSE_NO":"１１７號之２","E_COORD97":174469.20000000001,"N_COORD97":2539268.0499999998,"ADDRESS":"新田路１１７號之２","OBJECTID":294079},"geometry":{"x":174469.20000000205,"y":2539268.0500000045}},{"attributes":{"ID":294088,"DIS_CODE":0,"TOWNNAME":"仁德區","LI":"後壁里","LIN":"36鄰","STREET":"民安路","SECT":"一段","MAREA":" ","LANE":" ","ALLEY":" ","HOUSE_NO":"３０６之６號","E_COORD97":172840.45999999999,"N_COORD97":2539582.5699999998,"ADDRESS":"民安路一段３０６之６號","OBJECTID":294080},"geometry":{"x":172840.46000000089,"y":2539582.570000004}},{"attributes":{"ID":294089,"DIS_CODE":0,"TOWNNAME":"仁德區","LI":"後壁里","LIN":"5鄰","STREET":"德善二街","SECT":" ","MAREA":" ","LANE":" ","ALLEY":" ","HOUSE_NO":"１１號","E_COORD97":173522.73999999999,"N_COORD97":2538889.77,"ADDRESS":"德善二街１１號","OBJECTID":294081},"geometry":{"x":173522.74000000022,"y":2538889.7700000014}},{"attributes":{"ID":294090,"DIS_CODE":0,"TOWNNAME":"仁德區","LI":"後壁里","LIN":"25鄰","STREET":"德洋路","SECT":" ","MAREA":" ","LANE":" ","ALLEY":" ","HOUSE_NO":"４２號","E_COORD97":173090.14000000001,"N_COORD97":2539058.77,"ADDRESS":"德洋路４２號","OBJECTID":294082},"geometry":{"x":173090.13999999966,"y":2539058.7700000014}},{"attributes":{"ID":294091,"DIS_CODE":0,"TOWNNAME":"仁德區","LI":"新田里","LIN":"4鄰","STREET":"新田二街","SECT":" ","MAREA":" ","LANE":" ","ALLEY":" ","HOUSE_NO":"２６號","E_COORD97":174607.34,"N_COORD97":2539760.4900000002,"ADDRESS":"新田二街２６號","OBJECTID":294083},"geometry":{"x":174607.34000000078,"y":2539760.4900000021}},{"attributes":{"ID":294092,"DIS_CODE":0,"TOWNNAME":"仁德區","LI":"土庫里","LIN":"4鄰","STREET":"中正路","SECT":"三段","MAREA":" ","LANE":" ","ALLEY":" ","HOUSE_NO":"４７１號","E_COORD97":173978.67999999999,"N_COORD97":2542880.27,"ADDRESS":"中正路三段４７１號","OBJECTID":294084},"geometry":{"x":173978.67999999877,"y":2542880.2700000014}},{"attributes":{"ID":294093,"DIS_CODE":0,"TOWNNAME":"永康區","LI":"龍潭里","LIN":"13鄰","STREET":"龍橋街","SECT":" ","MAREA":" ","LANE":" ","ALLEY":" ","HOUSE_NO":"８５號","E_COORD97":174734.51000000001,"N_COORD97":2548440.3100000001,"ADDRESS":"龍橋街８５號","OBJECTID":294085},"geometry":{"x":174734.51000000164,"y":2548440.3100000042}},{"attributes":{"ID":294094,"DIS_CODE":0,"TOWNNAME":"永康區","LI":"網寮里","LIN":"24鄰","STREET":"永大一路","SECT":" ","MAREA":" ","LANE":" ","ALLEY":" ","HOUSE_NO":"１８６號","E_COORD97":173808.07000000001,"N_COORD97":2546363.6800000002,"ADDRESS":"永大一路１８６號","OBJECTID":294086},"geometry":{"x":173808.07000000123,"y":2546363.6800000016}},{"attributes":{"ID":294095,"DIS_CODE":0,"TOWNNAME":"永康區","LI":"蔦松里","LIN":"7鄰","STREET":"蔦松一街","SECT":" ","MAREA":" ","LANE":" ","ALLEY":" ","HOUSE_NO":"４６號","E_COORD97":173968.56,"N_COORD97":2549427,"ADDRESS":"蔦松一街４６號","OBJECTID":294087},"geometry":{"x":173968.55999999959,"y":2549427}},{"attributes":{"ID":294096,"DIS_CODE":0,"TOWNNAME":"仁德區","LI":"仁愛里","LIN":"1鄰","STREET":" ","SECT":" ","MAREA":"仁愛","LANE":" ","ALLEY":" ","HOUSE_NO":"９號","E_COORD97":170297.08360000001,"N_COORD97":2540171.3220000002,"ADDRESS":"仁愛９號","OBJECTID":294088},"geometry":{"x":170297.08359999955,"y":2540171.3220000006}},{"attributes":{"ID":294097,"DIS_CODE":0,"TOWNNAME":"仁德區","LI":"中生里","LIN":"5鄰","STREET":" ","SECT":" ","MAREA":"中洲","LANE":" ","ALLEY":" ","HOUSE_NO":"１２９之１５號","E_COORD97":172701.91,"N_COORD97":2534262.0499999998,"ADDRESS":"中洲１２９之１５號","OBJECTID":294089},"geometry":{"x":172701.91000000108,"y":2534262.0500000026}},{"attributes":{"ID":294098,"DIS_CODE":0,"TOWNNAME":"仁德區","LI":"仁愛里","LIN":"25鄰","STREET":"大同路","SECT":"三段","MAREA":" ","LANE":" ","ALLEY":" ","HOUSE_NO":"７５號","E_COORD97":169744.190237,"N_COORD97":2539968.9473000001,"ADDRESS":"大同路三段７５號","OBJECTID":294090},"geometry":{"x":169744.19023699965,"y":2539968.9473030008}},{"attributes":{"ID":294099,"DIS_CODE":0,"TOWNNAME":"仁德區","LI":"仁愛里","LIN":"25鄰","STREET":"大同路","SECT":"三段","MAREA":" ","LANE":" ","ALLEY":" ","HOUSE_NO":"９１號","E_COORD97":169747.15727200001,"N_COORD97":2539940.4781499999,"ADDRESS":"大同路三段９１號","OBJECTID":294091},"geometry":{"x":169747.1572720008,"y":2539940.4781520013}},{"attributes":{"ID":294100,"DIS_CODE":0,"TOWNNAME":"仁德區","LI":"新田里","LIN":"4鄰","STREET":"新田路","SECT":" ","MAREA":" ","LANE":"２４０巷","ALLEY":" ","HOUSE_NO":"１２號","E_COORD97":174550.82000000001,"N_COORD97":2539596.75,"ADDRESS":"新田路２４０巷１２號","OBJECTID":294092},"geometry":{"x":174550.8200000003,"y":2539596.75}},{"attributes":{"ID":294101,"DIS_CODE":0,"TOWNNAME":"仁德區","LI":"後壁里","LIN":"25鄰","STREET":"德洋一街","SECT":" ","MAREA":" ","LANE":"２１巷","ALLEY":" ","HOUSE_NO":"１５號","E_COORD97":173049.12,"N_COORD97":2539161.52,"ADDRESS":"德洋一街２１巷１５號","OBJECTID":294093},"geometry":{"x":173049.12000000104,"y":2539161.5199999996}},{"attributes":{"ID":294102,"DIS_CODE":0,"TOWNNAME":"仁德區","LI":"新田里","LIN":"4鄰","STREET":"新田路","SECT":" ","MAREA":" ","LANE":"２４０巷","ALLEY":" ","HOUSE_NO":"５號","E_COORD97":174521.31,"N_COORD97":2539606.25,"ADDRESS":"新田路２４０巷５號","OBJECTID":294094},"geometry":{"x":174521.30999999959,"y":2539606.2500000019}},{"attributes":{"ID":294103,"DIS_CODE":0,"TOWNNAME":"仁德區","LI":"新田里","LIN":"4鄰","STREET":"新田路","SECT":" ","MAREA":" ","LANE":"２４０巷","ALLEY":" ","HOUSE_NO":"１４號","E_COORD97":174555.45999999999,"N_COORD97":2539598.5,"ADDRESS":"新田路２４０巷１４號","OBJECTID":294095},"geometry":{"x":174555.46000000089,"y":2539598.5}},{"attributes":{"ID":294104,"DIS_CODE":0,"TOWNNAME":"仁德區","LI":"後壁里","LIN":"18鄰","STREET":"德南路","SECT":" ","MAREA":" ","LANE":"７０巷","ALLEY":" ","HOUSE_NO":"３３號","E_COORD97":173381.04000000001,"N_COORD97":2538626.5099999998,"ADDRESS":"德南路７０巷３３號","OBJECTID":294096},"geometry":{"x":173381.04000000004,"y":2538626.5100000035}},{"attributes":{"ID":294105,"DIS_CODE":0,"TOWNNAME":"仁德區","LI":"後壁里","LIN":"25鄰","STREET":"德洋一街","SECT":" ","MAREA":" ","LANE":"１０巷","ALLEY":" ","HOUSE_NO":"９號","E_COORD97":173123.14000000001,"N_COORD97":2539099.52,"ADDRESS":"德洋一街１０巷９號","OBJECTID":294097},"geometry":{"x":173123.1400000006,"y":2539099.5199999996}},{"attributes":{"ID":294106,"DIS_CODE":0,"TOWNNAME":"仁德區","LI":"新田里","LIN":"4鄰","STREET":"新田路","SECT":" ","MAREA":" ","LANE":"２２６巷","ALLEY":" ","HOUSE_NO":"１０號","E_COORD97":174564.57999999999,"N_COORD97":2539558.7400000002,"ADDRESS":"新田路２２６巷１０號","OBJECTID":294098},"geometry":{"x":174564.57999999914,"y":2539558.7400000021}},{"attributes":{"ID":294107,"DIS_CODE":0,"TOWNNAME":"仁德區","LI":"後壁里","LIN":"25鄰","STREET":"德洋一街","SECT":" ","MAREA":" ","LANE":"６巷","ALLEY":" ","HOUSE_NO":"１９號","E_COORD97":173108.48000000001,"N_COORD97":2539061.02,"ADDRESS":"德洋一街６巷１９號","OBJECTID":294099},"geometry":{"x":173108.48000000138,"y":2539061.0200000014}},{"attributes":{"ID":294108,"DIS_CODE":0,"TOWNNAME":"安平區","LI":"怡平里","LIN":"14鄰","STREET":"建平十一街","SECT":" ","MAREA":" ","LANE":" ","ALLEY":" ","HOUSE_NO":"３０８號","E_COORD97":165597.48000000001,"N_COORD97":2544004.6699999999,"ADDRESS":"建平十一街３０８號","OBJECTID":294100},"geometry":{"x":165597.48000000045,"y":2544004.6699999999}},{"attributes":{"ID":294109,"DIS_CODE":0,"TOWNNAME":"安平區","LI":"怡平里","LIN":"14鄰","STREET":"建平十一街","SECT":" ","MAREA":" ","LANE":" ","ALLEY":" ","HOUSE_NO":"３１０號","E_COORD97":165592.03,"N_COORD97":2544005.3300000001,"ADDRESS":"建平十一街３１０號","OBJECTID":294101},"geometry":{"x":165592.03000000026,"y":2544005.3300000038}},{"attributes":{"ID":294110,"DIS_CODE":0,"TOWNNAME":"安平區","LI":"怡平里","LIN":"14鄰","STREET":"建平十一街","SECT":" ","MAREA":" ","LANE":" ","ALLEY":" ","HOUSE_NO":"３１２之１號","E_COORD97":165581.79999999999,"N_COORD97":2544006.8100000001,"ADDRESS":"建平十一街３１２之１號","OBJECTID":294102},"geometry":{"x":165581.80000000168,"y":2544006.8100000024}},{"attributes":{"ID":294111,"DIS_CODE":0,"TOWNNAME":"安平區","LI":"怡平里","LIN":"14鄰","STREET":"建平十一街","SECT":" ","MAREA":" ","LANE":" ","ALLEY":" ","HOUSE_NO":"３１２號","E_COORD97":165587.07999999999,"N_COORD97":2544005.8300000001,"ADDRESS":"建平十一街３１２號","OBJECTID":294103},"geometry":{"x":165587.08000000194,"y":2544005.8300000019}},{"attributes":{"ID":294112,"DIS_CODE":0,"TOWNNAME":"南區","LI":"文華里","LIN":"14鄰","STREET":"美南街","SECT":" ","MAREA":" ","LANE":" ","ALLEY":" ","HOUSE_NO":"２７號","E_COORD97":167043.62,"N_COORD97":2543091.0699999998,"ADDRESS":"美南街２７號","OBJECTID":294104},"geometry":{"x":167043.62000000104,"y":2543091.0700000003}},{"attributes":{"ID":294113,"DIS_CODE":0,"TOWNNAME":"安平區","LI":"億載里","LIN":"14鄰","STREET":"平豐路","SECT":" ","MAREA":" ","LANE":" ","ALLEY":" ","HOUSE_NO":"１１１號","E_COORD97":164307.81,"N_COORD97":2543292.1800000002,"ADDRESS":"平豐路１１１號","OBJECTID":294105},"geometry":{"x":164307.80999999959,"y":2543292.1799999997}},{"attributes":{"ID":294114,"DIS_CODE":0,"TOWNNAME":"安平區","LI":"億載里","LIN":"14鄰","STREET":"平豐路","SECT":" ","MAREA":" ","LANE":" ","ALLEY":" ","HOUSE_NO":"１２３號","E_COORD97":164303.66,"N_COORD97":2543343.4199999999,"ADDRESS":"平豐路１２３號","OBJECTID":294106},"geometry":{"x":164303.66000000108,"y":2543343.4200000037}},{"attributes":{"ID":294115,"DIS_CODE":0,"TOWNNAME":"安平區","LI":"億載里","LIN":"14鄰","STREET":"平豐路","SECT":" ","MAREA":" ","LANE":" ","ALLEY":" ","HOUSE_NO":"１２５號","E_COORD97":164303.76000000001,"N_COORD97":2543348.54,"ADDRESS":"平豐路１２５號","OBJECTID":294107},"geometry":{"x":164303.75999999885,"y":2543348.5400000028}},{"attributes":{"ID":294116,"DIS_CODE":0,"TOWNNAME":"安平區","LI":"億載里","LIN":"14鄰","STREET":"光州三街","SECT":" ","MAREA":" ","LANE":" ","ALLEY":" ","HOUSE_NO":"６２號","E_COORD97":164214.07000000001,"N_COORD97":2543147.1600000001,"ADDRESS":"光州三街６２號","OBJECTID":294108},"geometry":{"x":164214.06999999937,"y":2543147.1600000001}},{"attributes":{"ID":294117,"DIS_CODE":0,"TOWNNAME":"安平區","LI":"億載里","LIN":"14鄰","STREET":"光州三街","SECT":" ","MAREA":" ","LANE":" ","ALLEY":" ","HOUSE_NO":"６４號","E_COORD97":164218.56,"N_COORD97":2543147.1600000001,"ADDRESS":"光州三街６４號","OBJECTID":294109},"geometry":{"x":164218.56000000145,"y":2543147.1600000001}},{"attributes":{"ID":294118,"DIS_CODE":0,"TOWNNAME":"仁德區","LI":"新田里","LIN":"12鄰","STREET":"北保二街","SECT":" ","MAREA":" ","LANE":" ","ALLEY":" ","HOUSE_NO":"３號","E_COORD97":173182.82999999999,"N_COORD97":2539376.25,"ADDRESS":"北保二街３號","OBJECTID":294110},"geometry":{"x":173182.83000000007,"y":2539376.25}},{"attributes":{"ID":294119,"DIS_CODE":0,"TOWNNAME":"仁德區","LI":"三甲里","LIN":"1鄰","STREET":" ","SECT":" ","MAREA":"三甲子","LANE":" ","ALLEY":" ","HOUSE_NO":"６之２１號","E_COORD97":171740.10000000001,"N_COORD97":2537475.27,"ADDRESS":"三甲子６之２１號","OBJECTID":294111},"geometry":{"x":171740.10000000056,"y":2537475.2700000033}},{"attributes":{"ID":294120,"DIS_CODE":0,"TOWNNAME":"仁德區","LI":"三甲里","LIN":"1鄰","STREET":" ","SECT":" ","MAREA":"三甲子","LANE":" ","ALLEY":" ","HOUSE_NO":"６之３６號","E_COORD97":171699.42999999999,"N_COORD97":2537179.1200000001,"ADDRESS":"三甲子６之３６號","OBJECTID":294112},"geometry":{"x":171699.43000000063,"y":2537179.1199999992}},{"attributes":{"ID":294121,"DIS_CODE":0,"TOWNNAME":"仁德區","LI":"保安里","LIN":"13鄰","STREET":"二仁路","SECT":"一段","MAREA":" ","LANE":" ","ALLEY":" ","HOUSE_NO":"１６２之１號","E_COORD97":170294.675647,"N_COORD97":2536225.5092500001,"ADDRESS":"二仁路一段１６２之１號","OBJECTID":294113},"geometry":{"x":170294.67564700078,"y":2536225.5092469994}},{"attributes":{"ID":294122,"DIS_CODE":0,"TOWNNAME":"仁德區","LI":"一甲里","LIN":"1鄰","STREET":"中正路","SECT":"三段","MAREA":" ","LANE":"１４７巷","ALLEY":" ","HOUSE_NO":"６號","E_COORD97":173421.29000000001,"N_COORD97":2541785.0299999998,"ADDRESS":"中正路三段１４７巷６號","OBJECTID":294114},"geometry":{"x":173421.29000000097,"y":2541785.0299999993}},{"attributes":{"ID":294123,"DIS_CODE":0,"TOWNNAME":"仁德區","LI":"大甲里","LIN":"24鄰","STREET":"二仁路","SECT":"一段","MAREA":" ","LANE":"３１５巷","ALLEY":" ","HOUSE_NO":"３５５之７號","E_COORD97":169614.07000000001,"N_COORD97":2535890.2799999998,"ADDRESS":"二仁路一段３１５巷３５５之７號","OBJECTID":294115},"geometry":{"x":169614.07000000123,"y":2535890.2799999993}},{"attributes":{"ID":294124,"DIS_CODE":0,"TOWNNAME":"仁德區","LI":"三甲里","LIN":"1鄰","STREET":" ","SECT":" ","MAREA":"三甲子","LANE":" ","ALLEY":" ","HOUSE_NO":"６之３號","E_COORD97":171739.78,"N_COORD97":2537329.3900000001,"ADDRESS":"三甲子６之３號","OBJECTID":294116},"geometry":{"x":171739.78000000119,"y":2537329.3899999987}},{"attributes":{"ID":294125,"DIS_CODE":0,"TOWNNAME":"仁德區","LI":"三甲里","LIN":"1鄰","STREET":" ","SECT":" ","MAREA":"三甲子","LANE":" ","ALLEY":" ","HOUSE_NO":"６之９號","E_COORD97":171934.64000000001,"N_COORD97":2537480.54,"ADDRESS":"三甲子６之９號","OBJECTID":294117},"geometry":{"x":171934.64000000153,"y":2537480.540000001}},{"attributes":{"ID":294126,"DIS_CODE":0,"TOWNNAME":"仁德區","LI":"一甲里","LIN":"4鄰","STREET":"中正路","SECT":"三段","MAREA":" ","LANE":"１３６巷","ALLEY":" ","HOUSE_NO":"１１號","E_COORD97":173490.10000000001,"N_COORD97":2541708.3500000001,"ADDRESS":"中正路三段１３６巷１１號","OBJECTID":294118},"geometry":{"x":173490.10000000056,"y":2541708.3499999996}},{"attributes":{"ID":294127,"DIS_CODE":0,"TOWNNAME":"安平區","LI":"文平里","LIN":"17鄰","STREET":"建平三街","SECT":" ","MAREA":" ","LANE":"６５巷","ALLEY":" ","HOUSE_NO":"２０號四樓之３","E_COORD97":165747.04000000001,"N_COORD97":2542857.3500000001,"ADDRESS":"建平三街６５巷２０號四樓之３","OBJECTID":294119},"geometry":{"x":165747.04000000097,"y":2542857.3499999996}},{"attributes":{"ID":294128,"DIS_CODE":0,"TOWNNAME":"安平區","LI":"文平里","LIN":"17鄰","STREET":"建平三街","SECT":" ","MAREA":" ","LANE":"６５巷","ALLEY":" ","HOUSE_NO":"２７號七樓之１","E_COORD97":165773.79000000001,"N_COORD97":2542839.4700000002,"ADDRESS":"建平三街６５巷２７號七樓之１","OBJECTID":294120},"geometry":{"x":165773.7900000019,"y":2542839.4700000025}},{"attributes":{"ID":294129,"DIS_CODE":0,"TOWNNAME":"安平區","LI":"文平里","LIN":"17鄰","STREET":"建平三街","SECT":" ","MAREA":" ","LANE":"６５巷","ALLEY":" ","HOUSE_NO":"２７號七樓之２","E_COORD97":165773.79000000001,"N_COORD97":2542839.4700000002,"ADDRESS":"建平三街６５巷２７號七樓之２","OBJECTID":294121},"geometry":{"x":165773.7900000019,"y":2542839.4700000025}},{"attributes":{"ID":294130,"DIS_CODE":0,"TOWNNAME":"安平區","LI":"文平里","LIN":"17鄰","STREET":"建平三街","SECT":" ","MAREA":" ","LANE":"６５巷","ALLEY":" ","HOUSE_NO":"２７號七樓之３","E_COORD97":165773.79000000001,"N_COORD97":2542839.4700000002,"ADDRESS":"建平三街６５巷２７號七樓之３","OBJECTID":294122},"geometry":{"x":165773.7900000019,"y":2542839.4700000025}},{"attributes":{"ID":294131,"DIS_CODE":0,"TOWNNAME":"安平區","LI":"文平里","LIN":"17鄰","STREET":"建平三街","SECT":" ","MAREA":" ","LANE":"６５巷","ALLEY":" ","HOUSE_NO":"２７號七樓之４","E_COORD97":165773.79000000001,"N_COORD97":2542839.4700000002,"ADDRESS":"建平三街６５巷２７號七樓之４","OBJECTID":294123},"geometry":{"x":165773.7900000019,"y":2542839.4700000025}},{"attributes":{"ID":294132,"DIS_CODE":0,"TOWNNAME":"安平區","LI":"文平里","LIN":"17鄰","STREET":"建平三街","SECT":" ","MAREA":" ","LANE":"６５巷","ALLEY":" ","HOUSE_NO":"２７號七樓之５","E_COORD97":165773.79000000001,"N_COORD97":2542839.4700000002,"ADDRESS":"建平三街６５巷２７號七樓之５","OBJECTID":294124},"geometry":{"x":165773.7900000019,"y":2542839.4700000025}},{"attributes":{"ID":294133,"DIS_CODE":0,"TOWNNAME":"安平區","LI":"文平里","LIN":"17鄰","STREET":"建平三街","SECT":" ","MAREA":" ","LANE":"６５巷","ALLEY":" ","HOUSE_NO":"２７號七樓之６","E_COORD97":165773.79000000001,"N_COORD97":2542839.4700000002,"ADDRESS":"建平三街６５巷２７號七樓之６","OBJECTID":294125},"geometry":{"x":165773.7900000019,"y":2542839.4700000025}},{"attributes":{"ID":294134,"DIS_CODE":0,"TOWNNAME":"安平區","LI":"文平里","LIN":"17鄰","STREET":"建平三街","SECT":" ","MAREA":" ","LANE":"６５巷","ALLEY":" ","HOUSE_NO":"２７號七樓之７","E_COORD97":165773.79000000001,"N_COORD97":2542839.4700000002,"ADDRESS":"建平三街６５巷２７號七樓之７","OBJECTID":294126},"geometry":{"x":165773.7900000019,"y":2542839.4700000025}},{"attributes":{"ID":294135,"DIS_CODE":0,"TOWNNAME":"安平區","LI":"怡平里","LIN":"17鄰","STREET":"永華六街","SECT":" ","MAREA":" ","LANE":"１５４巷","ALLEY":" ","HOUSE_NO":"１號六樓之２","E_COORD97":165751,"N_COORD97":2543900.1899999999,"ADDRESS":"永華六街１５４巷１號六樓之２","OBJECTID":294127},"geometry":{"x":165751.00000000093,"y":2543900.1899999976}},{"attributes":{"ID":294136,"DIS_CODE":0,"TOWNNAME":"安平區","LI":"億載里","LIN":"14鄰","STREET":"光州三街","SECT":" ","MAREA":" ","LANE":" ","ALLEY":" ","HOUSE_NO":"６６號","E_COORD97":164222.63,"N_COORD97":2543146.75,"ADDRESS":"光州三街６６號","OBJECTID":294128},"geometry":{"x":164222.63000000082,"y":2543146.75}},{"attributes":{"ID":294137,"DIS_CODE":0,"TOWNNAME":"安平區","LI":"億載里","LIN":"14鄰","STREET":"光州三街","SECT":" ","MAREA":" ","LANE":" ","ALLEY":" ","HOUSE_NO":"６８號","E_COORD97":164226.70999999999,"N_COORD97":2543146.3399999999,"ADDRESS":"光州三街６８號","OBJECTID":294129},"geometry":{"x":164226.71000000089,"y":2543146.3399999999}},{"attributes":{"ID":294138,"DIS_CODE":0,"TOWNNAME":"安平區","LI":"億載里","LIN":"14鄰","STREET":"光州三街","SECT":" ","MAREA":" ","LANE":" ","ALLEY":" ","HOUSE_NO":"６９號","E_COORD97":164197.76000000001,"N_COORD97":2543163.0499999998,"ADDRESS":"光州三街６９號","OBJECTID":294130},"geometry":{"x":164197.76000000071,"y":2543163.0500000007}},{"attributes":{"ID":294139,"DIS_CODE":0,"TOWNNAME":"安平區","LI":"億載里","LIN":"14鄰","STREET":"光州三街","SECT":" ","MAREA":" ","LANE":" ","ALLEY":" ","HOUSE_NO":"７０號","E_COORD97":164229.97,"N_COORD97":2543147.5699999998,"ADDRESS":"光州三街７０號","OBJECTID":294131},"geometry":{"x":164229.97000000067,"y":2543147.5700000022}},{"attributes":{"ID":294140,"DIS_CODE":0,"TOWNNAME":"安平區","LI":"億載里","LIN":"14鄰","STREET":"光州三街","SECT":" ","MAREA":" ","LANE":" ","ALLEY":" ","HOUSE_NO":"７１號","E_COORD97":164210.81,"N_COORD97":2543162.6400000001,"ADDRESS":"光州三街７１號","OBJECTID":294132},"geometry":{"x":164210.81000000052,"y":2543162.6400000043}},{"attributes":{"ID":294141,"DIS_CODE":0,"TOWNNAME":"安平區","LI":"文平里","LIN":"17鄰","STREET":"建平三街","SECT":" ","MAREA":" ","LANE":"６５巷","ALLEY":" ","HOUSE_NO":"２７號七樓之８","E_COORD97":165773.79000000001,"N_COORD97":2542839.4700000002,"ADDRESS":"建平三街６５巷２７號七樓之８","OBJECTID":294133},"geometry":{"x":165773.7900000019,"y":2542839.4700000025}},{"attributes":{"ID":294142,"DIS_CODE":0,"TOWNNAME":"安平區","LI":"文平里","LIN":"17鄰","STREET":"建平三街","SECT":" ","MAREA":" ","LANE":"６５巷","ALLEY":" ","HOUSE_NO":"２７號二樓之１","E_COORD97":165773.79000000001,"N_COORD97":2542839.4700000002,"ADDRESS":"建平三街６５巷２７號二樓之１","OBJECTID":294134},"geometry":{"x":165773.7900000019,"y":2542839.4700000025}},{"attributes":{"ID":294143,"DIS_CODE":0,"TOWNNAME":"安平區","LI":"文平里","LIN":"17鄰","STREET":"建平三街","SECT":" ","MAREA":" ","LANE":"６５巷","ALLEY":" ","HOUSE_NO":"２７號二樓之２","E_COORD97":165773.79000000001,"N_COORD97":2542839.4700000002,"ADDRESS":"建平三街６５巷２７號二樓之２","OBJECTID":294135},"geometry":{"x":165773.7900000019,"y":2542839.4700000025}},{"attributes":{"ID":294144,"DIS_CODE":0,"TOWNNAME":"安平區","LI":"文平里","LIN":"17鄰","STREET":"建平三街","SECT":" ","MAREA":" ","LANE":"６５巷","ALLEY":" ","HOUSE_NO":"２７號二樓之３","E_COORD97":165773.79000000001,"N_COORD97":2542839.4700000002,"ADDRESS":"建平三街６５巷２７號二樓之３","OBJECTID":294136},"geometry":{"x":165773.7900000019,"y":2542839.4700000025}},{"attributes":{"ID":294145,"DIS_CODE":0,"TOWNNAME":"安平區","LI":"文平里","LIN":"17鄰","STREET":"建平三街","SECT":" ","MAREA":" ","LANE":"６５巷","ALLEY":" ","HOUSE_NO":"２７號二樓之４","E_COORD97":165773.79000000001,"N_COORD97":2542839.4700000002,"ADDRESS":"建平三街６５巷２７號二樓之４","OBJECTID":294137},"geometry":{"x":165773.7900000019,"y":2542839.4700000025}},{"attributes":{"ID":294146,"DIS_CODE":0,"TOWNNAME":"安平區","LI":"文平里","LIN":"17鄰","STREET":"建平三街","SECT":" ","MAREA":" ","LANE":"６５巷","ALLEY":" ","HOUSE_NO":"２７號二樓之５","E_COORD97":165773.79000000001,"N_COORD97":2542839.4700000002,"ADDRESS":"建平三街６５巷２７號二樓之５","OBJECTID":294138},"geometry":{"x":165773.7900000019,"y":2542839.4700000025}},{"attributes":{"ID":294147,"DIS_CODE":0,"TOWNNAME":"安平區","LI":"文平里","LIN":"17鄰","STREET":"建平三街","SECT":" ","MAREA":" ","LANE":"６５巷","ALLEY":" ","HOUSE_NO":"２７號二樓之６","E_COORD97":165773.79000000001,"N_COORD97":2542839.4700000002,"ADDRESS":"建平三街６５巷２７號二樓之６","OBJECTID":294139},"geometry":{"x":165773.7900000019,"y":2542839.4700000025}},{"attributes":{"ID":294148,"DIS_CODE":0,"TOWNNAME":"安平區","LI":"文平里","LIN":"17鄰","STREET":"建平三街","SECT":" ","MAREA":" ","LANE":"６５巷","ALLEY":" ","HOUSE_NO":"２７號二樓之７","E_COORD97":165773.79000000001,"N_COORD97":2542839.4700000002,"ADDRESS":"建平三街６５巷２７號二樓之７","OBJECTID":294140},"geometry":{"x":165773.7900000019,"y":2542839.4700000025}},{"attributes":{"ID":294149,"DIS_CODE":0,"TOWNNAME":"安平區","LI":"文平里","LIN":"17鄰","STREET":"建平三街","SECT":" ","MAREA":" ","LANE":"６５巷","ALLEY":" ","HOUSE_NO":"２７號二樓之８","E_COORD97":165773.79000000001,"N_COORD97":2542839.4700000002,"ADDRESS":"建平三街６５巷２７號二樓之８","OBJECTID":294141},"geometry":{"x":165773.7900000019,"y":2542839.4700000025}},{"attributes":{"ID":294150,"DIS_CODE":0,"TOWNNAME":"安平區","LI":"文平里","LIN":"17鄰","STREET":"建平三街","SECT":" ","MAREA":" ","LANE":"６５巷","ALLEY":" ","HOUSE_NO":"２７號八樓之１","E_COORD97":165773.79000000001,"N_COORD97":2542839.4700000002,"ADDRESS":"建平三街６５巷２７號八樓之１","OBJECTID":294142},"geometry":{"x":165773.7900000019,"y":2542839.4700000025}},{"attributes":{"ID":294151,"DIS_CODE":0,"TOWNNAME":"安平區","LI":"文平里","LIN":"17鄰","STREET":"建平三街","SECT":" ","MAREA":" ","LANE":"６５巷","ALLEY":" ","HOUSE_NO":"２７號八樓之２","E_COORD97":165773.79000000001,"N_COORD97":2542839.4700000002,"ADDRESS":"建平三街６５巷２７號八樓之２","OBJECTID":294143},"geometry":{"x":165773.7900000019,"y":2542839.4700000025}},{"attributes":{"ID":294152,"DIS_CODE":0,"TOWNNAME":"安平區","LI":"文平里","LIN":"17鄰","STREET":"建平三街","SECT":" ","MAREA":" ","LANE":"６５巷","ALLEY":" ","HOUSE_NO":"２７號八樓之４","E_COORD97":165773.79000000001,"N_COORD97":2542839.4700000002,"ADDRESS":"建平三街６５巷２７號八樓之４","OBJECTID":294144},"geometry":{"x":165773.7900000019,"y":2542839.4700000025}},{"attributes":{"ID":294153,"DIS_CODE":0,"TOWNNAME":"安平區","LI":"文平里","LIN":"17鄰","STREET":"建平三街","SECT":" ","MAREA":" ","LANE":"６５巷","ALLEY":" ","HOUSE_NO":"２７號八樓之５","E_COORD97":165773.79000000001,"N_COORD97":2542839.4700000002,"ADDRESS":"建平三街６５巷２７號八樓之５","OBJECTID":294145},"geometry":{"x":165773.7900000019,"y":2542839.4700000025}},{"attributes":{"ID":294154,"DIS_CODE":0,"TOWNNAME":"安平區","LI":"文平里","LIN":"17鄰","STREET":"建平三街","SECT":" ","MAREA":" ","LANE":"６５巷","ALLEY":" ","HOUSE_NO":"２７號八樓之６","E_COORD97":165773.79000000001,"N_COORD97":2542839.4700000002,"ADDRESS":"建平三街６５巷２７號八樓之６","OBJECTID":294146},"geometry":{"x":165773.7900000019,"y":2542839.4700000025}},{"attributes":{"ID":294155,"DIS_CODE":0,"TOWNNAME":"安平區","LI":"文平里","LIN":"17鄰","STREET":"建平三街","SECT":" ","MAREA":" ","LANE":"６５巷","ALLEY":" ","HOUSE_NO":"２７號八樓之７","E_COORD97":165773.79000000001,"N_COORD97":2542839.4700000002,"ADDRESS":"建平三街６５巷２７號八樓之７","OBJECTID":294147},"geometry":{"x":165773.7900000019,"y":2542839.4700000025}},{"attributes":{"ID":294156,"DIS_CODE":0,"TOWNNAME":"安平區","LI":"文平里","LIN":"17鄰","STREET":"建平三街","SECT":" ","MAREA":" ","LANE":"６５巷","ALLEY":" ","HOUSE_NO":"２７號八樓之８","E_COORD97":165773.79000000001,"N_COORD97":2542839.4700000002,"ADDRESS":"建平三街６５巷２７號八樓之８","OBJECTID":294148},"geometry":{"x":165773.7900000019,"y":2542839.4700000025}},{"attributes":{"ID":294157,"DIS_CODE":0,"TOWNNAME":"安平區","LI":"文平里","LIN":"17鄰","STREET":"建平三街","SECT":" ","MAREA":" ","LANE":"６５巷","ALLEY":" ","HOUSE_NO":"２７號三樓之１","E_COORD97":165773.79000000001,"N_COORD97":2542839.4700000002,"ADDRESS":"建平三街６５巷２７號三樓之１","OBJECTID":294149},"geometry":{"x":165773.7900000019,"y":2542839.4700000025}},{"attributes":{"ID":294158,"DIS_CODE":0,"TOWNNAME":"安平區","LI":"文平里","LIN":"17鄰","STREET":"建平三街","SECT":" ","MAREA":" ","LANE":"６５巷","ALLEY":" ","HOUSE_NO":"２７號三樓之２","E_COORD97":165773.79000000001,"N_COORD97":2542839.4700000002,"ADDRESS":"建平三街６５巷２７號三樓之２","OBJECTID":294150},"geometry":{"x":165773.7900000019,"y":2542839.4700000025}},{"attributes":{"ID":294159,"DIS_CODE":0,"TOWNNAME":"安平區","LI":"文平里","LIN":"17鄰","STREET":"建平三街","SECT":" ","MAREA":" ","LANE":"６５巷","ALLEY":" ","HOUSE_NO":"２７號三樓之３","E_COORD97":165773.79000000001,"N_COORD97":2542839.4700000002,"ADDRESS":"建平三街６５巷２７號三樓之３","OBJECTID":294151},"geometry":{"x":165773.7900000019,"y":2542839.4700000025}},{"attributes":{"ID":294160,"DIS_CODE":0,"TOWNNAME":"安平區","LI":"文平里","LIN":"17鄰","STREET":"建平三街","SECT":" ","MAREA":" ","LANE":"６５巷","ALLEY":" ","HOUSE_NO":"２７號三樓之４","E_COORD97":165773.79000000001,"N_COORD97":2542839.4700000002,"ADDRESS":"建平三街６５巷２７號三樓之４","OBJECTID":294152},"geometry":{"x":165773.7900000019,"y":2542839.4700000025}},{"attributes":{"ID":294161,"DIS_CODE":0,"TOWNNAME":"下營區","LI":"大屯里","LIN":"4鄰","STREET":" ","SECT":" ","MAREA":"大屯寮","LANE":" ","ALLEY":" ","HOUSE_NO":"３０號","E_COORD97":172034.14000000001,"N_COORD97":2570449.21,"ADDRESS":"大屯寮３０號","OBJECTID":294153},"geometry":{"x":172034.13999999966,"y":2570449.2100000028}},{"attributes":{"ID":294162,"DIS_CODE":0,"TOWNNAME":"安平區","LI":"文平里","LIN":"17鄰","STREET":"建平三街","SECT":" ","MAREA":" ","LANE":"６５巷","ALLEY":" ","HOUSE_NO":"２７號三樓之５","E_COORD97":165773.79000000001,"N_COORD97":2542839.4700000002,"ADDRESS":"建平三街６５巷２７號三樓之５","OBJECTID":294154},"geometry":{"x":165773.7900000019,"y":2542839.4700000025}},{"attributes":{"ID":294163,"DIS_CODE":0,"TOWNNAME":"安平區","LI":"文平里","LIN":"17鄰","STREET":"建平三街","SECT":" ","MAREA":" ","LANE":"６５巷","ALLEY":" ","HOUSE_NO":"２７號三樓之６","E_COORD97":165773.79000000001,"N_COORD97":2542839.4700000002,"ADDRESS":"建平三街６５巷２７號三樓之６","OBJECTID":294155},"geometry":{"x":165773.7900000019,"y":2542839.4700000025}},{"attributes":{"ID":294164,"DIS_CODE":0,"TOWNNAME":"安平區","LI":"文平里","LIN":"17鄰","STREET":"建平三街","SECT":" ","MAREA":" ","LANE":"６５巷","ALLEY":" ","HOUSE_NO":"２７號三樓之７","E_COORD97":165773.79000000001,"N_COORD97":2542839.4700000002,"ADDRESS":"建平三街６５巷２７號三樓之７","OBJECTID":294156},"geometry":{"x":165773.7900000019,"y":2542839.4700000025}},{"attributes":{"ID":294165,"DIS_CODE":0,"TOWNNAME":"安平區","LI":"文平里","LIN":"17鄰","STREET":"建平三街","SECT":" ","MAREA":" ","LANE":"６５巷","ALLEY":" ","HOUSE_NO":"２７號三樓之８","E_COORD97":165773.79000000001,"N_COORD97":2542839.4700000002,"ADDRESS":"建平三街６５巷２７號三樓之８","OBJECTID":294157},"geometry":{"x":165773.7900000019,"y":2542839.4700000025}},{"attributes":{"ID":294166,"DIS_CODE":0,"TOWNNAME":"新營區","LI":"大宏里","LIN":"19鄰","STREET":"三民路","SECT":" ","MAREA":" ","LANE":" ","ALLEY":" ","HOUSE_NO":"３６號之３６","E_COORD97":180454.95483,"N_COORD97":2578525.6236,"ADDRESS":"三民路３６號之３６","OBJECTID":294158},"geometry":{"x":180454.95483000111,"y":2578525.6236000005}},{"attributes":{"ID":294167,"DIS_CODE":0,"TOWNNAME":"仁德區","LI":"一甲里","LIN":"4鄰","STREET":"正義三街","SECT":" ","MAREA":" ","LANE":" ","ALLEY":" ","HOUSE_NO":"４９號","E_COORD97":173529.10999999999,"N_COORD97":2541620.0800000001,"ADDRESS":"正義三街４９號","OBJECTID":294159},"geometry":{"x":173529.1100000022,"y":2541620.0800000038}},{"attributes":{"ID":294168,"DIS_CODE":0,"TOWNNAME":"安平區","LI":"文平里","LIN":"17鄰","STREET":"建平三街","SECT":" ","MAREA":" ","LANE":"６５巷","ALLEY":" ","HOUSE_NO":"２７號五樓之１","E_COORD97":165773.79000000001,"N_COORD97":2542839.4700000002,"ADDRESS":"建平三街６５巷２７號五樓之１","OBJECTID":294160},"geometry":{"x":165773.7900000019,"y":2542839.4700000025}},{"attributes":{"ID":294169,"DIS_CODE":0,"TOWNNAME":"安平區","LI":"文平里","LIN":"17鄰","STREET":"建平三街","SECT":" ","MAREA":" ","LANE":"６５巷","ALLEY":" ","HOUSE_NO":"２７號五樓之２","E_COORD97":165773.79000000001,"N_COORD97":2542839.4700000002,"ADDRESS":"建平三街６５巷２７號五樓之２","OBJECTID":294161},"geometry":{"x":165773.7900000019,"y":2542839.4700000025}},{"attributes":{"ID":294170,"DIS_CODE":0,"TOWNNAME":"安平區","LI":"文平里","LIN":"17鄰","STREET":"建平三街","SECT":" ","MAREA":" ","LANE":"６５巷","ALLEY":" ","HOUSE_NO":"２７號五樓之３","E_COORD97":165773.79000000001,"N_COORD97":2542839.4700000002,"ADDRESS":"建平三街６５巷２７號五樓之３","OBJECTID":294162},"geometry":{"x":165773.7900000019,"y":2542839.4700000025}},{"attributes":{"ID":294171,"DIS_CODE":0,"TOWNNAME":"安平區","LI":"文平里","LIN":"17鄰","STREET":"建平三街","SECT":" ","MAREA":" ","LANE":"６５巷","ALLEY":" ","HOUSE_NO":"２７號五樓之４","E_COORD97":165773.79000000001,"N_COORD97":2542839.4700000002,"ADDRESS":"建平三街６５巷２７號五樓之４","OBJECTID":294163},"geometry":{"x":165773.7900000019,"y":2542839.4700000025}},{"attributes":{"ID":294172,"DIS_CODE":0,"TOWNNAME":"安平區","LI":"文平里","LIN":"17鄰","STREET":"建平三街","SECT":" ","MAREA":" ","LANE":"６５巷","ALLEY":" ","HOUSE_NO":"２７號五樓之５","E_COORD97":165773.79000000001,"N_COORD97":2542839.4700000002,"ADDRESS":"建平三街６５巷２７號五樓之５","OBJECTID":294164},"geometry":{"x":165773.7900000019,"y":2542839.4700000025}},{"attributes":{"ID":294173,"DIS_CODE":0,"TOWNNAME":"安平區","LI":"文平里","LIN":"17鄰","STREET":"建平三街","SECT":" ","MAREA":" ","LANE":"６５巷","ALLEY":" ","HOUSE_NO":"２７號五樓之６","E_COORD97":165773.79000000001,"N_COORD97":2542839.4700000002,"ADDRESS":"建平三街６５巷２７號五樓之６","OBJECTID":294165},"geometry":{"x":165773.7900000019,"y":2542839.4700000025}},{"attributes":{"ID":294174,"DIS_CODE":0,"TOWNNAME":"安平區","LI":"文平里","LIN":"17鄰","STREET":"建平三街","SECT":" ","MAREA":" ","LANE":"６５巷","ALLEY":" ","HOUSE_NO":"２７號五樓之７","E_COORD97":165773.79000000001,"N_COORD97":2542839.4700000002,"ADDRESS":"建平三街６５巷２７號五樓之７","OBJECTID":294166},"geometry":{"x":165773.7900000019,"y":2542839.4700000025}},{"attributes":{"ID":294175,"DIS_CODE":0,"TOWNNAME":"安平區","LI":"文平里","LIN":"17鄰","STREET":"建平三街","SECT":" ","MAREA":" ","LANE":"６５巷","ALLEY":" ","HOUSE_NO":"２７號五樓之８","E_COORD97":165773.79000000001,"N_COORD97":2542839.4700000002,"ADDRESS":"建平三街６５巷２７號五樓之８","OBJECTID":294167},"geometry":{"x":165773.7900000019,"y":2542839.4700000025}},{"attributes":{"ID":294176,"DIS_CODE":0,"TOWNNAME":"安平區","LI":"文平里","LIN":"17鄰","STREET":"建平三街","SECT":" ","MAREA":" ","LANE":"６５巷","ALLEY":" ","HOUSE_NO":"２７號六樓之１","E_COORD97":165773.79000000001,"N_COORD97":2542839.4700000002,"ADDRESS":"建平三街６５巷２７號六樓之１","OBJECTID":294168},"geometry":{"x":165773.7900000019,"y":2542839.4700000025}},{"attributes":{"ID":294177,"DIS_CODE":0,"TOWNNAME":"安平區","LI":"文平里","LIN":"17鄰","STREET":"建平三街","SECT":" ","MAREA":" ","LANE":"６５巷","ALLEY":" ","HOUSE_NO":"２７號六樓之２","E_COORD97":165773.79000000001,"N_COORD97":2542839.4700000002,"ADDRESS":"建平三街６５巷２７號六樓之２","OBJECTID":294169},"geometry":{"x":165773.7900000019,"y":2542839.4700000025}},{"attributes":{"ID":294178,"DIS_CODE":0,"TOWNNAME":"安平區","LI":"文平里","LIN":"17鄰","STREET":"建平三街","SECT":" ","MAREA":" ","LANE":"６５巷","ALLEY":" ","HOUSE_NO":"２７號六樓之３","E_COORD97":165773.79000000001,"N_COORD97":2542839.4700000002,"ADDRESS":"建平三街６５巷２７號六樓之３","OBJECTID":294170},"geometry":{"x":165773.7900000019,"y":2542839.4700000025}},{"attributes":{"ID":294179,"DIS_CODE":0,"TOWNNAME":"安平區","LI":"文平里","LIN":"17鄰","STREET":"建平三街","SECT":" ","MAREA":" ","LANE":"６５巷","ALLEY":" ","HOUSE_NO":"２７號六樓之４","E_COORD97":165773.79000000001,"N_COORD97":2542839.4700000002,"ADDRESS":"建平三街６５巷２７號六樓之４","OBJECTID":294171},"geometry":{"x":165773.7900000019,"y":2542839.4700000025}},{"attributes":{"ID":294180,"DIS_CODE":0,"TOWNNAME":"安平區","LI":"文平里","LIN":"17鄰","STREET":"建平三街","SECT":" ","MAREA":" ","LANE":"６５巷","ALLEY":" ","HOUSE_NO":"２７號六樓之５","E_COORD97":165773.79000000001,"N_COORD97":2542839.4700000002,"ADDRESS":"建平三街６５巷２７號六樓之５","OBJECTID":294172},"geometry":{"x":165773.7900000019,"y":2542839.4700000025}},{"attributes":{"ID":294181,"DIS_CODE":0,"TOWNNAME":"安平區","LI":"文平里","LIN":"17鄰","STREET":"建平三街","SECT":" ","MAREA":" ","LANE":"６５巷","ALLEY":" ","HOUSE_NO":"２７號六樓之６","E_COORD97":165773.79000000001,"N_COORD97":2542839.4700000002,"ADDRESS":"建平三街６５巷２７號六樓之６","OBJECTID":294173},"geometry":{"x":165773.7900000019,"y":2542839.4700000025}},{"attributes":{"ID":294182,"DIS_CODE":0,"TOWNNAME":"安平區","LI":"文平里","LIN":"17鄰","STREET":"建平三街","SECT":" ","MAREA":" ","LANE":"６５巷","ALLEY":" ","HOUSE_NO":"２７號六樓之７","E_COORD97":165773.79000000001,"N_COORD97":2542839.4700000002,"ADDRESS":"建平三街６５巷２７號六樓之７","OBJECTID":294174},"geometry":{"x":165773.7900000019,"y":2542839.4700000025}},{"attributes":{"ID":294183,"DIS_CODE":0,"TOWNNAME":"安平區","LI":"文平里","LIN":"17鄰","STREET":"建平三街","SECT":" ","MAREA":" ","LANE":"６５巷","ALLEY":" ","HOUSE_NO":"２７號六樓之８","E_COORD97":165773.79000000001,"N_COORD97":2542839.4700000002,"ADDRESS":"建平三街６５巷２７號六樓之８","OBJECTID":294175},"geometry":{"x":165773.7900000019,"y":2542839.4700000025}},{"attributes":{"ID":294184,"DIS_CODE":0,"TOWNNAME":"安平區","LI":"文平里","LIN":"17鄰","STREET":"建平三街","SECT":" ","MAREA":" ","LANE":"６５巷","ALLEY":" ","HOUSE_NO":"２７號四樓之１","E_COORD97":165773.79000000001,"N_COORD97":2542839.4700000002,"ADDRESS":"建平三街６５巷２７號四樓之１","OBJECTID":294176},"geometry":{"x":165773.7900000019,"y":2542839.4700000025}},{"attributes":{"ID":294185,"DIS_CODE":0,"TOWNNAME":"安平區","LI":"文平里","LIN":"17鄰","STREET":"建平三街","SECT":" ","MAREA":" ","LANE":"６５巷","ALLEY":" ","HOUSE_NO":"２７號四樓之２","E_COORD97":165773.79000000001,"N_COORD97":2542839.4700000002,"ADDRESS":"建平三街６５巷２７號四樓之２","OBJECTID":294177},"geometry":{"x":165773.7900000019,"y":2542839.4700000025}},{"attributes":{"ID":294186,"DIS_CODE":0,"TOWNNAME":"安平區","LI":"文平里","LIN":"17鄰","STREET":"建平三街","SECT":" ","MAREA":" ","LANE":"６５巷","ALLEY":" ","HOUSE_NO":"２７號四樓之３","E_COORD97":165773.79000000001,"N_COORD97":2542839.4700000002,"ADDRESS":"建平三街６５巷２７號四樓之３","OBJECTID":294178},"geometry":{"x":165773.7900000019,"y":2542839.4700000025}},{"attributes":{"ID":294187,"DIS_CODE":0,"TOWNNAME":"安平區","LI":"文平里","LIN":"17鄰","STREET":"建平三街","SECT":" ","MAREA":" ","LANE":"６５巷","ALLEY":" ","HOUSE_NO":"２７號四樓之５","E_COORD97":165773.79000000001,"N_COORD97":2542839.4700000002,"ADDRESS":"建平三街６５巷２７號四樓之５","OBJECTID":294179},"geometry":{"x":165773.7900000019,"y":2542839.4700000025}},{"attributes":{"ID":294188,"DIS_CODE":0,"TOWNNAME":"安平區","LI":"文平里","LIN":"17鄰","STREET":"建平三街","SECT":" ","MAREA":" ","LANE":"６５巷","ALLEY":" ","HOUSE_NO":"２７號四樓之６","E_COORD97":165773.79000000001,"N_COORD97":2542839.4700000002,"ADDRESS":"建平三街６５巷２７號四樓之６","OBJECTID":294180},"geometry":{"x":165773.7900000019,"y":2542839.4700000025}},{"attributes":{"ID":294189,"DIS_CODE":0,"TOWNNAME":"安平區","LI":"文平里","LIN":"17鄰","STREET":"建平三街","SECT":" ","MAREA":" ","LANE":"６５巷","ALLEY":" ","HOUSE_NO":"２７號四樓之７","E_COORD97":165773.79000000001,"N_COORD97":2542839.4700000002,"ADDRESS":"建平三街６５巷２７號四樓之７","OBJECTID":294181},"geometry":{"x":165773.7900000019,"y":2542839.4700000025}},{"attributes":{"ID":294190,"DIS_CODE":0,"TOWNNAME":"安平區","LI":"文平里","LIN":"17鄰","STREET":"建平三街","SECT":" ","MAREA":" ","LANE":"６５巷","ALLEY":" ","HOUSE_NO":"２７號四樓之８","E_COORD97":165773.79000000001,"N_COORD97":2542839.4700000002,"ADDRESS":"建平三街６５巷２７號四樓之８","OBJECTID":294182},"geometry":{"x":165773.7900000019,"y":2542839.4700000025}},{"attributes":{"ID":294191,"DIS_CODE":0,"TOWNNAME":"安平區","LI":"文平里","LIN":"17鄰","STREET":"建平三街","SECT":" ","MAREA":" ","LANE":"６５巷","ALLEY":" ","HOUSE_NO":"１８號四樓之８","E_COORD97":165743.35000000001,"N_COORD97":2542877.1400000001,"ADDRESS":"建平三街６５巷１８號四樓之８","OBJECTID":294183},"geometry":{"x":165743.34999999963,"y":2542877.1400000006}},{"attributes":{"ID":294192,"DIS_CODE":0,"TOWNNAME":"仁德區","LI":"後壁里","LIN":"39鄰","STREET":"德糖路","SECT":" ","MAREA":" ","LANE":"４０７巷","ALLEY":" ","HOUSE_NO":"３號","E_COORD97":173415.51999999999,"N_COORD97":2539070.3500000001,"ADDRESS":"德糖路４０７巷３號","OBJECTID":294184},"geometry":{"x":173415.52000000048,"y":2539070.3499999996}},{"attributes":{"ID":294193,"DIS_CODE":0,"TOWNNAME":"仁德區","LI":"後壁里","LIN":"5鄰","STREET":"德善路","SECT":" ","MAREA":" ","LANE":"１３９巷","ALLEY":" ","HOUSE_NO":"１２號","E_COORD97":173473.41,"N_COORD97":2538918.29,"ADDRESS":"德善路１３９巷１２號","OBJECTID":294185},"geometry":{"x":173473.41000000015,"y":2538918.2899999991}},{"attributes":{"ID":294194,"DIS_CODE":0,"TOWNNAME":"仁德區","LI":"仁德里","LIN":"18鄰","STREET":"文華路","SECT":"三段","MAREA":" ","LANE":"１８９巷","ALLEY":" ","HOUSE_NO":"１０８號","E_COORD97":172027.17000000001,"N_COORD97":2540522.9500000002,"ADDRESS":"文華路三段１８９巷１０８號","OBJECTID":294186},"geometry":{"x":172027.16999999993,"y":2540522.9500000011}},{"attributes":{"ID":294195,"DIS_CODE":0,"TOWNNAME":"安平區","LI":"怡平里","LIN":"17鄰","STREET":"永華六街","SECT":" ","MAREA":" ","LANE":"１５４巷","ALLEY":" ","HOUSE_NO":"１號二樓之４","E_COORD97":165751,"N_COORD97":2543900.1899999999,"ADDRESS":"永華六街１５４巷１號二樓之４","OBJECTID":294187},"geometry":{"x":165751.00000000093,"y":2543900.1899999976}},{"attributes":{"ID":294196,"DIS_CODE":0,"TOWNNAME":"安平區","LI":"怡平里","LIN":"17鄰","STREET":"永華六街","SECT":" ","MAREA":" ","LANE":"１５４巷","ALLEY":" ","HOUSE_NO":"１號二樓之５","E_COORD97":165751,"N_COORD97":2543900.1899999999,"ADDRESS":"永華六街１５４巷１號二樓之５","OBJECTID":294188},"geometry":{"x":165751.00000000093,"y":2543900.1899999976}},{"attributes":{"ID":294197,"DIS_CODE":0,"TOWNNAME":"安平區","LI":"怡平里","LIN":"17鄰","STREET":"永華六街","SECT":" ","MAREA":" ","LANE":"１５４巷","ALLEY":" ","HOUSE_NO":"１號三樓之１","E_COORD97":165751,"N_COORD97":2543900.1899999999,"ADDRESS":"永華六街１５４巷１號三樓之１","OBJECTID":294189},"geometry":{"x":165751.00000000093,"y":2543900.1899999976}},{"attributes":{"ID":294198,"DIS_CODE":0,"TOWNNAME":"安平區","LI":"怡平里","LIN":"17鄰","STREET":"永華六街","SECT":" ","MAREA":" ","LANE":"１５４巷","ALLEY":" ","HOUSE_NO":"１號三樓之２","E_COORD97":165751,"N_COORD97":2543900.1899999999,"ADDRESS":"永華六街１５４巷１號三樓之２","OBJECTID":294190},"geometry":{"x":165751.00000000093,"y":2543900.1899999976}},{"attributes":{"ID":294199,"DIS_CODE":0,"TOWNNAME":"安平區","LI":"怡平里","LIN":"17鄰","STREET":"永華六街","SECT":" ","MAREA":" ","LANE":"１５４巷","ALLEY":" ","HOUSE_NO":"１號三樓之３","E_COORD97":165751,"N_COORD97":2543900.1899999999,"ADDRESS":"永華六街１５４巷１號三樓之３","OBJECTID":294191},"geometry":{"x":165751.00000000093,"y":2543900.1899999976}},{"attributes":{"ID":294200,"DIS_CODE":0,"TOWNNAME":"安平區","LI":"怡平里","LIN":"17鄰","STREET":"永華六街","SECT":" ","MAREA":" ","LANE":"１５４巷","ALLEY":" ","HOUSE_NO":"１號三樓之４","E_COORD97":165751,"N_COORD97":2543900.1899999999,"ADDRESS":"永華六街１５４巷１號三樓之４","OBJECTID":294192},"geometry":{"x":165751.00000000093,"y":2543900.1899999976}},{"attributes":{"ID":294201,"DIS_CODE":0,"TOWNNAME":"安平區","LI":"怡平里","LIN":"17鄰","STREET":"永華六街","SECT":" ","MAREA":" ","LANE":"１５４巷","ALLEY":" ","HOUSE_NO":"１號三樓之５","E_COORD97":165751,"N_COORD97":2543900.1899999999,"ADDRESS":"永華六街１５４巷１號三樓之５","OBJECTID":294193},"geometry":{"x":165751.00000000093,"y":2543900.1899999976}},{"attributes":{"ID":294202,"DIS_CODE":0,"TOWNNAME":"安平區","LI":"怡平里","LIN":"17鄰","STREET":"永華六街","SECT":" ","MAREA":" ","LANE":"１５４巷","ALLEY":" ","HOUSE_NO":"１號三樓之６","E_COORD97":165751,"N_COORD97":2543900.1899999999,"ADDRESS":"永華六街１５４巷１號三樓之６","OBJECTID":294194},"geometry":{"x":165751.00000000093,"y":2543900.1899999976}},{"attributes":{"ID":294203,"DIS_CODE":0,"TOWNNAME":"安平區","LI":"億載里","LIN":"14鄰","STREET":"光州三街","SECT":" ","MAREA":" ","LANE":" ","ALLEY":" ","HOUSE_NO":"７２號","E_COORD97":164234.04999999999,"N_COORD97":2543148.3799999999,"ADDRESS":"光州三街７２號","OBJECTID":294195},"geometry":{"x":164234.04999999888,"y":2543148.379999999}},{"attributes":{"ID":294204,"DIS_CODE":0,"TOWNNAME":"安平區","LI":"億載里","LIN":"14鄰","STREET":"健康四街","SECT":" ","MAREA":" ","LANE":" ","ALLEY":" ","HOUSE_NO":"１０６號","E_COORD97":164185.88,"N_COORD97":2543229.75,"ADDRESS":"健康四街１０６號","OBJECTID":294196},"geometry":{"x":164185.87999999989,"y":2543229.7500000019}},{"attributes":{"ID":294205,"DIS_CODE":0,"TOWNNAME":"安平區","LI":"億載里","LIN":"14鄰","STREET":"健康四街","SECT":" ","MAREA":" ","LANE":" ","ALLEY":" ","HOUSE_NO":"８０號","E_COORD97":164194.89999999999,"N_COORD97":2543148.79,"ADDRESS":"健康四街８０號","OBJECTID":294197},"geometry":{"x":164194.90000000037,"y":2543148.7899999991}},{"attributes":{"ID":294206,"DIS_CODE":0,"TOWNNAME":"仁德區","LI":"後壁里","LIN":"4鄰","STREET":"德善一街","SECT":" ","MAREA":" ","LANE":" ","ALLEY":" ","HOUSE_NO":"１１號","E_COORD97":173387.14000000001,"N_COORD97":2538936.8799999999,"ADDRESS":"德善一街１１號","OBJECTID":294198},"geometry":{"x":173387.13999999966,"y":2538936.879999999}},{"attributes":{"ID":294207,"DIS_CODE":0,"TOWNNAME":"下營區","LI":"仁里里","LIN":"6鄰","STREET":"九分街","SECT":" ","MAREA":" ","LANE":"７３巷","ALLEY":" ","HOUSE_NO":"１６號","E_COORD97":174063.13,"N_COORD97":2570021.4100000001,"ADDRESS":"九分街７３巷１６號","OBJECTID":294199},"geometry":{"x":174063.13000000082,"y":2570021.4100000001}},{"attributes":{"ID":294208,"DIS_CODE":0,"TOWNNAME":"下營區","LI":"宅內里","LIN":"17鄰","STREET":"人和三街","SECT":" ","MAREA":" ","LANE":"４１巷","ALLEY":" ","HOUSE_NO":"１６號","E_COORD97":174297.66,"N_COORD97":2570675.6499999999,"ADDRESS":"人和三街４１巷１６號","OBJECTID":294200},"geometry":{"x":174297.66000000015,"y":2570675.6500000041}}]}