{"displayFieldName":"TOWNNAME","fieldAliases":{"ID":"ID","DIS_CODE":"DIS_CODE","TOWNNAME":"TOWNNAME","LI":"LI","LIN":"LIN","STREET":"STREET","SECT":"SECT","MAREA":"MAREA","LANE":"LANE","ALLEY":"ALLEY","HOUSE_NO":"HOUSE_NO","E_COORD97":"E_COORD97","N_COORD97":"N_COORD97","ADDRESS":"ADDRESS","OBJECTID":"OBJECTID"},"geometryType":"esriGeometryPoint","spatialReference":{"wkid":102443,"latestWkid":3826},"fields":[{"name":"ID","type":"esriFieldTypeDouble","alias":"ID"},{"name":"DIS_CODE","type":"esriFieldTypeInteger","alias":"DIS_CODE"},{"name":"TOWNNAME","type":"esriFieldTypeString","alias":"TOWNNAME","length":8},{"name":"LI","type":"esriFieldTypeString","alias":"LI","length":8},{"name":"LIN","type":"esriFieldTypeString","alias":"LIN","length":12},{"name":"STREET","type":"esriFieldTypeString","alias":"STREET","length":20},{"name":"SECT","type":"esriFieldTypeString","alias":"SECT","length":8},{"name":"MAREA","type":"esriFieldTypeString","alias":"MAREA","length":12},{"name":"LANE","type":"esriFieldTypeString","alias":"LANE","length":10},{"name":"ALLEY","type":"esriFieldTypeString","alias":"ALLEY","length":10},{"name":"HOUSE_NO","type":"esriFieldTypeString","alias":"HOUSE_NO","length":20},{"name":"E_COORD97","type":"esriFieldTypeDouble","alias":"E_COORD97"},{"name":"N_COORD97","type":"esriFieldTypeDouble","alias":"N_COORD97"},{"name":"ADDRESS","type":"esriFieldTypeString","alias":"ADDRESS","length":50},{"name":"OBJECTID","type":"esriFieldTypeOID","alias":"OBJECTID"}],"features":[{"attributes":{"ID":110201,"DIS_CODE":0,"TOWNNAME":"東山區","LI":"嶺南里","LIN":"1鄰","STREET":" ","SECT":" ","MAREA":"牛稠子","LANE":" ","ALLEY":" ","HOUSE_NO":"６號之１","E_COORD97":193014.64000000001,"N_COORD97":2573199.46,"ADDRESS":"牛稠子６號之１","OBJECTID":110201},"geometry":{"x":193014.6400000006,"y":2573199.459999999}},{"attributes":{"ID":110202,"DIS_CODE":0,"TOWNNAME":"東山區","LI":"嶺南里","LIN":"1鄰","STREET":" ","SECT":" ","MAREA":"牛稠子","LANE":" ","ALLEY":" ","HOUSE_NO":"６號之２","E_COORD97":192928.91,"N_COORD97":2573410.7200000002,"ADDRESS":"牛稠子６號之２","OBJECTID":110202},"geometry":{"x":192928.91000000108,"y":2573410.7200000007}},{"attributes":{"ID":110203,"DIS_CODE":0,"TOWNNAME":"東山區","LI":"嶺南里","LIN":"1鄰","STREET":" ","SECT":" ","MAREA":"牛稠子","LANE":" ","ALLEY":" ","HOUSE_NO":"６號之３","E_COORD97":192753.76999999999,"N_COORD97":2573328.5800000001,"ADDRESS":"牛稠子６號之３","OBJECTID":110203},"geometry":{"x":192753.76999999955,"y":2573328.5800000001}},{"attributes":{"ID":110204,"DIS_CODE":0,"TOWNNAME":"東山區","LI":"東河里","LIN":"1鄰","STREET":" ","SECT":" ","MAREA":"吉貝耍","LANE":" ","ALLEY":" ","HOUSE_NO":"７號之１","E_COORD97":187059.04999999999,"N_COORD97":2576835.3599999999,"ADDRESS":"吉貝耍７號之１","OBJECTID":110204},"geometry":{"x":187059.04999999981,"y":2576835.3599999994}},{"attributes":{"ID":110205,"DIS_CODE":0,"TOWNNAME":"東山區","LI":"東河里","LIN":"1鄰","STREET":" ","SECT":" ","MAREA":"吉貝耍","LANE":" ","ALLEY":" ","HOUSE_NO":"７號之２","E_COORD97":187040.72,"N_COORD97":2576827.0699999998,"ADDRESS":"吉貝耍７號之２","OBJECTID":110205},"geometry":{"x":187040.72000000067,"y":2576827.0700000022}},{"attributes":{"ID":110206,"DIS_CODE":0,"TOWNNAME":"東山區","LI":"東河里","LIN":"1鄰","STREET":" ","SECT":" ","MAREA":"吉貝耍","LANE":" ","ALLEY":" ","HOUSE_NO":"７號之３","E_COORD97":187055.81,"N_COORD97":2576828.2000000002,"ADDRESS":"吉貝耍７號之３","OBJECTID":110206},"geometry":{"x":187055.80999999959,"y":2576828.2000000011}},{"attributes":{"ID":110207,"DIS_CODE":0,"TOWNNAME":"東山區","LI":"青山里","LIN":"1鄰","STREET":" ","SECT":" ","MAREA":"青山","LANE":" ","ALLEY":" ","HOUSE_NO":"５號","E_COORD97":195359.88,"N_COORD97":2575138.3799999999,"ADDRESS":"青山５號","OBJECTID":110207},"geometry":{"x":195359.88000000082,"y":2575138.3800000008}},{"attributes":{"ID":110208,"DIS_CODE":0,"TOWNNAME":"麻豆區","LI":"海埔里","LIN":"1鄰","STREET":" ","SECT":" ","MAREA":"埤子尾","LANE":" ","ALLEY":" ","HOUSE_NO":"３號之１","E_COORD97":169833.67000000001,"N_COORD97":2566605.4100000001,"ADDRESS":"埤子尾３號之１","OBJECTID":110208},"geometry":{"x":169833.66999999993,"y":2566605.410000002}},{"attributes":{"ID":110209,"DIS_CODE":0,"TOWNNAME":"麻豆區","LI":"海埔里","LIN":"1鄰","STREET":" ","SECT":" ","MAREA":"埤子尾","LANE":" ","ALLEY":" ","HOUSE_NO":"３號之２","E_COORD97":169841.73999999999,"N_COORD97":2566587.3300000001,"ADDRESS":"埤子尾３號之２","OBJECTID":110209},"geometry":{"x":169841.74000000115,"y":2566587.3300000001}},{"attributes":{"ID":110210,"DIS_CODE":0,"TOWNNAME":"麻豆區","LI":"海埔里","LIN":"1鄰","STREET":" ","SECT":" ","MAREA":"埤子尾","LANE":" ","ALLEY":" ","HOUSE_NO":"３號","E_COORD97":169864.79000000001,"N_COORD97":2566605.2999999998,"ADDRESS":"埤子尾３號","OBJECTID":110210},"geometry":{"x":169864.79000000097,"y":2566605.3000000007}},{"attributes":{"ID":110211,"DIS_CODE":0,"TOWNNAME":"麻豆區","LI":"海埔里","LIN":"1鄰","STREET":" ","SECT":" ","MAREA":"埤子尾","LANE":" ","ALLEY":" ","HOUSE_NO":"４號","E_COORD97":169869.60999999999,"N_COORD97":2566573.6099999999,"ADDRESS":"埤子尾４號","OBJECTID":110211},"geometry":{"x":169869.61000000127,"y":2566573.6100000013}},{"attributes":{"ID":110212,"DIS_CODE":0,"TOWNNAME":"麻豆區","LI":"海埔里","LIN":"1鄰","STREET":" ","SECT":" ","MAREA":"埤子尾","LANE":" ","ALLEY":" ","HOUSE_NO":"５號","E_COORD97":169865.39000000001,"N_COORD97":2566539.8100000001,"ADDRESS":"埤子尾５號","OBJECTID":110212},"geometry":{"x":169865.3900000006,"y":2566539.8100000024}},{"attributes":{"ID":110213,"DIS_CODE":0,"TOWNNAME":"麻豆區","LI":"海埔里","LIN":"1鄰","STREET":" ","SECT":" ","MAREA":"埤子尾","LANE":" ","ALLEY":" ","HOUSE_NO":"６號","E_COORD97":169858.92000000001,"N_COORD97":2566521.0600000001,"ADDRESS":"埤子尾６號","OBJECTID":110213},"geometry":{"x":169858.92000000086,"y":2566521.0600000024}},{"attributes":{"ID":110214,"DIS_CODE":0,"TOWNNAME":"麻豆區","LI":"海埔里","LIN":"1鄰","STREET":" ","SECT":" ","MAREA":"埤子尾","LANE":" ","ALLEY":" ","HOUSE_NO":"７號","E_COORD97":169869.73000000001,"N_COORD97":2566521.04,"ADDRESS":"埤子尾７號","OBJECTID":110214},"geometry":{"x":169869.73000000045,"y":2566521.0399999991}},{"attributes":{"ID":110215,"DIS_CODE":0,"TOWNNAME":"西港區","LI":"後營里","LIN":"9鄰","STREET":" ","SECT":" ","MAREA":"後營","LANE":" ","ALLEY":" ","HOUSE_NO":"２３１號之１","E_COORD97":169888.37,"N_COORD97":2560256.0499999998,"ADDRESS":"後營２３１號之１","OBJECTID":110215},"geometry":{"x":169888.37000000011,"y":2560256.0500000026}},{"attributes":{"ID":110216,"DIS_CODE":0,"TOWNNAME":"西港區","LI":"後營里","LIN":"9鄰","STREET":" ","SECT":" ","MAREA":"後營","LANE":" ","ALLEY":" ","HOUSE_NO":"２３１號之２","E_COORD97":169888.60000000001,"N_COORD97":2560260.25,"ADDRESS":"後營２３１號之２","OBJECTID":110216},"geometry":{"x":169888.59999999963,"y":2560260.2500000019}},{"attributes":{"ID":110217,"DIS_CODE":0,"TOWNNAME":"西港區","LI":"後營里","LIN":"9鄰","STREET":" ","SECT":" ","MAREA":"後營","LANE":" ","ALLEY":" ","HOUSE_NO":"２３１號之３","E_COORD97":169888.87,"N_COORD97":2560264.9199999999,"ADDRESS":"後營２３１號之３","OBJECTID":110217},"geometry":{"x":169888.87000000011,"y":2560264.9200000018}},{"attributes":{"ID":110218,"DIS_CODE":0,"TOWNNAME":"西港區","LI":"後營里","LIN":"9鄰","STREET":" ","SECT":" ","MAREA":"後營","LANE":" ","ALLEY":" ","HOUSE_NO":"２３１號之４","E_COORD97":169889.32999999999,"N_COORD97":2560269.3399999999,"ADDRESS":"後營２３１號之４","OBJECTID":110218},"geometry":{"x":169889.33000000194,"y":2560269.3400000017}},{"attributes":{"ID":110219,"DIS_CODE":0,"TOWNNAME":"西港區","LI":"後營里","LIN":"9鄰","STREET":" ","SECT":" ","MAREA":"後營","LANE":" ","ALLEY":" ","HOUSE_NO":"２３１號之５","E_COORD97":169890.57999999999,"N_COORD97":2560274.8700000001,"ADDRESS":"後營２３１號之５","OBJECTID":110219},"geometry":{"x":169890.58000000007,"y":2560274.870000001}},{"attributes":{"ID":110220,"DIS_CODE":0,"TOWNNAME":"西港區","LI":"後營里","LIN":"9鄰","STREET":" ","SECT":" ","MAREA":"後營","LANE":" ","ALLEY":" ","HOUSE_NO":"２３１號之６","E_COORD97":169891.34,"N_COORD97":2560281.6600000001,"ADDRESS":"後營２３１號之６","OBJECTID":110220},"geometry":{"x":169891.34000000078,"y":2560281.660000002}},{"attributes":{"ID":110221,"DIS_CODE":0,"TOWNNAME":"西港區","LI":"後營里","LIN":"9鄰","STREET":" ","SECT":" ","MAREA":"後營","LANE":" ","ALLEY":" ","HOUSE_NO":"２３１號之７","E_COORD97":169929.32999999999,"N_COORD97":2560270.3900000001,"ADDRESS":"後營２３１號之７","OBJECTID":110221},"geometry":{"x":169929.33000000007,"y":2560270.3900000025}},{"attributes":{"ID":110222,"DIS_CODE":0,"TOWNNAME":"新市區","LI":"三舍里","LIN":"9鄰","STREET":" ","SECT":" ","MAREA":"三舍","LANE":" ","ALLEY":" ","HOUSE_NO":"２０１之１２號","E_COORD97":177356.98999999999,"N_COORD97":2554964.0499999998,"ADDRESS":"三舍２０１之１２號","OBJECTID":110222},"geometry":{"x":177356.99000000022,"y":2554964.0500000007}},{"attributes":{"ID":110223,"DIS_CODE":0,"TOWNNAME":"新化區","LI":"護國里","LIN":"9鄰","STREET":"中山路","SECT":" ","MAREA":" ","LANE":"１１１巷","ALLEY":"８弄","HOUSE_NO":"４９號","E_COORD97":179719.35999999999,"N_COORD97":2549031.25,"ADDRESS":"中山路１１１巷８弄４９號","OBJECTID":110223},"geometry":{"x":179719.36000000034,"y":2549031.2500000019}},{"attributes":{"ID":110224,"DIS_CODE":0,"TOWNNAME":"新化區","LI":"護國里","LIN":"9鄰","STREET":"中山路","SECT":" ","MAREA":" ","LANE":"１１１巷","ALLEY":"８弄","HOUSE_NO":"１５號","E_COORD97":179717.45999999999,"N_COORD97":2549113.25,"ADDRESS":"中山路１１１巷８弄１５號","OBJECTID":110224},"geometry":{"x":179717.46000000089,"y":2549113.25}},{"attributes":{"ID":110225,"DIS_CODE":0,"TOWNNAME":"新化區","LI":"護國里","LIN":"9鄰","STREET":"中山路","SECT":" ","MAREA":" ","LANE":"１１１巷","ALLEY":"８弄","HOUSE_NO":"２７號","E_COORD97":179718.56,"N_COORD97":2549085.25,"ADDRESS":"中山路１１１巷８弄２７號","OBJECTID":110225},"geometry":{"x":179718.56000000052,"y":2549085.2500000019}},{"attributes":{"ID":110226,"DIS_CODE":0,"TOWNNAME":"新化區","LI":"護國里","LIN":"9鄰","STREET":"中山路","SECT":" ","MAREA":" ","LANE":"１１１巷","ALLEY":"８弄","HOUSE_NO":"２９號","E_COORD97":179718.45999999999,"N_COORD97":2549081.25,"ADDRESS":"中山路１１１巷８弄２９號","OBJECTID":110226},"geometry":{"x":179718.45999999996,"y":2549081.2500000037}},{"attributes":{"ID":110227,"DIS_CODE":0,"TOWNNAME":"安南區","LI":"理想里","LIN":"9鄰","STREET":"海佃路","SECT":"二段","MAREA":" ","LANE":"１５０巷","ALLEY":"８８弄","HOUSE_NO":"１１號","E_COORD97":167185.81,"N_COORD97":2548287.8900000001,"ADDRESS":"海佃路二段１５０巷８８弄１１號","OBJECTID":110227},"geometry":{"x":167185.81000000052,"y":2548287.8900000025}},{"attributes":{"ID":110228,"DIS_CODE":0,"TOWNNAME":"安南區","LI":"理想里","LIN":"9鄰","STREET":"海佃路","SECT":"二段","MAREA":" ","LANE":"１５０巷","ALLEY":"８８弄","HOUSE_NO":"１３號","E_COORD97":167203.70000000001,"N_COORD97":2548277.7999999998,"ADDRESS":"海佃路二段１５０巷８８弄１３號","OBJECTID":110228},"geometry":{"x":167203.70000000112,"y":2548277.8000000045}},{"attributes":{"ID":110229,"DIS_CODE":0,"TOWNNAME":"安南區","LI":"理想里","LIN":"9鄰","STREET":"海佃路","SECT":"二段","MAREA":" ","LANE":"１５０巷","ALLEY":"８８弄","HOUSE_NO":"１４號","E_COORD97":167186.72,"N_COORD97":2548253.7400000002,"ADDRESS":"海佃路二段１５０巷８８弄１４號","OBJECTID":110229},"geometry":{"x":167186.72000000067,"y":2548253.7400000002}},{"attributes":{"ID":110230,"DIS_CODE":0,"TOWNNAME":"安南區","LI":"理想里","LIN":"9鄰","STREET":"海佃路","SECT":"二段","MAREA":" ","LANE":"１５０巷","ALLEY":"８８弄","HOUSE_NO":"１５號","E_COORD97":167214.94,"N_COORD97":2548272.7599999998,"ADDRESS":"海佃路二段１５０巷８８弄１５號","OBJECTID":110230},"geometry":{"x":167214.94000000041,"y":2548272.7599999998}},{"attributes":{"ID":110231,"DIS_CODE":0,"TOWNNAME":"安南區","LI":"理想里","LIN":"9鄰","STREET":"海佃路","SECT":"二段","MAREA":" ","LANE":"１５０巷","ALLEY":"８８弄","HOUSE_NO":"１６號","E_COORD97":167199.57000000001,"N_COORD97":2548248.2400000002,"ADDRESS":"海佃路二段１５０巷８８弄１６號","OBJECTID":110231},"geometry":{"x":167199.57000000123,"y":2548248.2400000021}},{"attributes":{"ID":110232,"DIS_CODE":0,"TOWNNAME":"安南區","LI":"理想里","LIN":"9鄰","STREET":"海佃路","SECT":"二段","MAREA":" ","LANE":"１５０巷","ALLEY":"８８弄","HOUSE_NO":"１７號","E_COORD97":167222.28,"N_COORD97":2548266.5699999998,"ADDRESS":"海佃路二段１５０巷８８弄１７號","OBJECTID":110232},"geometry":{"x":167222.28000000119,"y":2548266.5700000022}},{"attributes":{"ID":110233,"DIS_CODE":0,"TOWNNAME":"麻豆區","LI":"莊禮里","LIN":"1鄰","STREET":" ","SECT":" ","MAREA":"莊禮寮","LANE":" ","ALLEY":" ","HOUSE_NO":"１９號之２","E_COORD97":169247.76000000001,"N_COORD97":2566253.5299999998,"ADDRESS":"莊禮寮１９號之２","OBJECTID":110233},"geometry":{"x":169247.76000000071,"y":2566253.5299999993}},{"attributes":{"ID":110234,"DIS_CODE":0,"TOWNNAME":"麻豆區","LI":"莊禮里","LIN":"1鄰","STREET":" ","SECT":" ","MAREA":"莊禮寮","LANE":" ","ALLEY":" ","HOUSE_NO":"１９號","E_COORD97":169342.42000000001,"N_COORD97":2566269.3399999999,"ADDRESS":"莊禮寮１９號","OBJECTID":110234},"geometry":{"x":169342.41999999993,"y":2566269.3400000036}},{"attributes":{"ID":110235,"DIS_CODE":0,"TOWNNAME":"麻豆區","LI":"莊禮里","LIN":"1鄰","STREET":" ","SECT":" ","MAREA":"莊禮寮","LANE":" ","ALLEY":" ","HOUSE_NO":"２０號","E_COORD97":169370.39000000001,"N_COORD97":2566233.8999999999,"ADDRESS":"莊禮寮２０號","OBJECTID":110235},"geometry":{"x":169370.3900000006,"y":2566233.9000000022}},{"attributes":{"ID":110236,"DIS_CODE":0,"TOWNNAME":"安南區","LI":"理想里","LIN":"9鄰","STREET":"海佃路","SECT":"二段","MAREA":" ","LANE":"１５０巷","ALLEY":"８８弄","HOUSE_NO":"１８號","E_COORD97":167208.51999999999,"N_COORD97":2548243.8799999999,"ADDRESS":"海佃路二段１５０巷８８弄１８號","OBJECTID":110236},"geometry":{"x":167208.51999999955,"y":2548243.879999999}},{"attributes":{"ID":110237,"DIS_CODE":0,"TOWNNAME":"安南區","LI":"理想里","LIN":"9鄰","STREET":"海佃路","SECT":"二段","MAREA":" ","LANE":"１５０巷","ALLEY":"８８弄","HOUSE_NO":"１９號","E_COORD97":167232.79000000001,"N_COORD97":2548260.3599999999,"ADDRESS":"海佃路二段１５０巷８８弄１９號","OBJECTID":110237},"geometry":{"x":167232.79000000004,"y":2548260.3600000013}},{"attributes":{"ID":110238,"DIS_CODE":0,"TOWNNAME":"安南區","LI":"理想里","LIN":"9鄰","STREET":"海佃路","SECT":"二段","MAREA":" ","LANE":"１５０巷","ALLEY":"８８弄","HOUSE_NO":"１號","E_COORD97":167136.29999999999,"N_COORD97":2548318.7400000002,"ADDRESS":"海佃路二段１５０巷８８弄１號","OBJECTID":110238},"geometry":{"x":167136.30000000168,"y":2548318.7400000021}},{"attributes":{"ID":110239,"DIS_CODE":0,"TOWNNAME":"安南區","LI":"理想里","LIN":"9鄰","STREET":"海佃路","SECT":"二段","MAREA":" ","LANE":"１５０巷","ALLEY":"８８弄","HOUSE_NO":"２０號","E_COORD97":167220.20999999999,"N_COORD97":2548237.6899999999,"ADDRESS":"海佃路二段１５０巷８８弄２０號","OBJECTID":110239},"geometry":{"x":167220.21000000183,"y":2548237.6900000013}},{"attributes":{"ID":110240,"DIS_CODE":0,"TOWNNAME":"安南區","LI":"理想里","LIN":"9鄰","STREET":"海佃路","SECT":"二段","MAREA":" ","LANE":"１５０巷","ALLEY":"８８弄","HOUSE_NO":"２１號","E_COORD97":167240.39000000001,"N_COORD97":2548255.2000000002,"ADDRESS":"海佃路二段１５０巷８８弄２１號","OBJECTID":110240},"geometry":{"x":167240.38999999966,"y":2548255.1999999993}},{"attributes":{"ID":110241,"DIS_CODE":0,"TOWNNAME":"安南區","LI":"理想里","LIN":"9鄰","STREET":"海佃路","SECT":"二段","MAREA":" ","LANE":"１５０巷","ALLEY":"８８弄","HOUSE_NO":"２２號","E_COORD97":167230.56,"N_COORD97":2548231.54,"ADDRESS":"海佃路二段１５０巷８８弄２２號","OBJECTID":110241},"geometry":{"x":167230.55999999959,"y":2548231.540000001}},{"attributes":{"ID":110242,"DIS_CODE":0,"TOWNNAME":"安南區","LI":"理想里","LIN":"9鄰","STREET":"海佃路","SECT":"二段","MAREA":" ","LANE":"１５０巷","ALLEY":"８８弄","HOUSE_NO":"２３號","E_COORD97":167250.62,"N_COORD97":2548248.6299999999,"ADDRESS":"海佃路二段１５０巷８８弄２３號","OBJECTID":110242},"geometry":{"x":167250.62000000011,"y":2548248.629999999}},{"attributes":{"ID":110243,"DIS_CODE":0,"TOWNNAME":"安南區","LI":"理想里","LIN":"9鄰","STREET":"海佃路","SECT":"二段","MAREA":" ","LANE":"１５０巷","ALLEY":"８８弄","HOUSE_NO":"２４號","E_COORD97":167238.26000000001,"N_COORD97":2548223.75,"ADDRESS":"海佃路二段１５０巷８８弄２４號","OBJECTID":110243},"geometry":{"x":167238.26000000164,"y":2548223.7500000019}},{"attributes":{"ID":110244,"DIS_CODE":0,"TOWNNAME":"安南區","LI":"理想里","LIN":"9鄰","STREET":"海佃路","SECT":"二段","MAREA":" ","LANE":"１５０巷","ALLEY":"８８弄","HOUSE_NO":"３號","E_COORD97":167146.48999999999,"N_COORD97":2548312.5899999999,"ADDRESS":"海佃路二段１５０巷８８弄３號","OBJECTID":110244},"geometry":{"x":167146.49000000022,"y":2548312.5900000017}},{"attributes":{"ID":110245,"DIS_CODE":0,"TOWNNAME":"麻豆區","LI":"莊禮里","LIN":"1鄰","STREET":" ","SECT":" ","MAREA":"莊禮寮","LANE":" ","ALLEY":" ","HOUSE_NO":"２１號","E_COORD97":169369.12,"N_COORD97":2566173.4700000002,"ADDRESS":"莊禮寮２１號","OBJECTID":110245},"geometry":{"x":169369.12000000104,"y":2566173.4700000007}},{"attributes":{"ID":110246,"DIS_CODE":0,"TOWNNAME":"麻豆區","LI":"莊禮里","LIN":"1鄰","STREET":" ","SECT":" ","MAREA":"莊禮寮","LANE":" ","ALLEY":" ","HOUSE_NO":"２２號","E_COORD97":169334.48000000001,"N_COORD97":2566199.1800000002,"ADDRESS":"莊禮寮２２號","OBJECTID":110246},"geometry":{"x":169334.48000000231,"y":2566199.1800000034}},{"attributes":{"ID":110247,"DIS_CODE":0,"TOWNNAME":"麻豆區","LI":"莊禮里","LIN":"1鄰","STREET":" ","SECT":" ","MAREA":"莊禮寮","LANE":" ","ALLEY":" ","HOUSE_NO":"２３號","E_COORD97":169342.01999999999,"N_COORD97":2566172.79,"ADDRESS":"莊禮寮２３號","OBJECTID":110247},"geometry":{"x":169342.02000000048,"y":2566172.7899999991}},{"attributes":{"ID":110248,"DIS_CODE":0,"TOWNNAME":"麻豆區","LI":"莊禮里","LIN":"1鄰","STREET":" ","SECT":" ","MAREA":"莊禮寮","LANE":" ","ALLEY":" ","HOUSE_NO":"２４號","E_COORD97":169302.75,"N_COORD97":2566214.5899999999,"ADDRESS":"莊禮寮２４號","OBJECTID":110248},"geometry":{"x":169302.75,"y":2566214.5900000017}},{"attributes":{"ID":110249,"DIS_CODE":0,"TOWNNAME":"麻豆區","LI":"莊禮里","LIN":"1鄰","STREET":" ","SECT":" ","MAREA":"莊禮寮","LANE":" ","ALLEY":" ","HOUSE_NO":"２５號","E_COORD97":169300.16,"N_COORD97":2566188.9399999999,"ADDRESS":"莊禮寮２５號","OBJECTID":110249},"geometry":{"x":169300.16000000015,"y":2566188.9399999995}},{"attributes":{"ID":110250,"DIS_CODE":0,"TOWNNAME":"鹽水區","LI":"下中里","LIN":"1鄰","STREET":" ","SECT":" ","MAREA":"二庄","LANE":" ","ALLEY":" ","HOUSE_NO":"３號","E_COORD97":173409.01999999999,"N_COORD97":2580406.0299999998,"ADDRESS":"二庄３號","OBJECTID":110250},"geometry":{"x":173409.02000000048,"y":2580406.0300000012}},{"attributes":{"ID":110251,"DIS_CODE":0,"TOWNNAME":"鹽水區","LI":"下中里","LIN":"1鄰","STREET":" ","SECT":" ","MAREA":"二庄","LANE":" ","ALLEY":" ","HOUSE_NO":"７號","E_COORD97":173351.57000000001,"N_COORD97":2580334.46,"ADDRESS":"二庄７號","OBJECTID":110251},"geometry":{"x":173351.57000000123,"y":2580334.4600000028}},{"attributes":{"ID":110252,"DIS_CODE":0,"TOWNNAME":"新市區","LI":"三舍里","LIN":"9鄰","STREET":" ","SECT":" ","MAREA":"三舍","LANE":" ","ALLEY":" ","HOUSE_NO":"２０１之８號","E_COORD97":177347.06,"N_COORD97":2554961.0499999998,"ADDRESS":"三舍２０１之８號","OBJECTID":110252},"geometry":{"x":177347.05999999959,"y":2554961.0500000007}},{"attributes":{"ID":110253,"DIS_CODE":0,"TOWNNAME":"新市區","LI":"三舍里","LIN":"9鄰","STREET":" ","SECT":" ","MAREA":"三舍","LANE":" ","ALLEY":" ","HOUSE_NO":"１９９號","E_COORD97":177377.48999999999,"N_COORD97":2554950,"ADDRESS":"三舍１９９號","OBJECTID":110253},"geometry":{"x":177377.49000000022,"y":2554950}},{"attributes":{"ID":110254,"DIS_CODE":0,"TOWNNAME":"新市區","LI":"三舍里","LIN":"9鄰","STREET":" ","SECT":" ","MAREA":"三舍","LANE":" ","ALLEY":" ","HOUSE_NO":"２００之１號","E_COORD97":177362.06,"N_COORD97":2554930.7999999998,"ADDRESS":"三舍２００之１號","OBJECTID":110254},"geometry":{"x":177362.06000000052,"y":2554930.8000000026}},{"attributes":{"ID":110255,"DIS_CODE":0,"TOWNNAME":"安南區","LI":"理想里","LIN":"9鄰","STREET":"海佃路","SECT":"二段","MAREA":" ","LANE":"１５０巷","ALLEY":"８８弄","HOUSE_NO":"７號","E_COORD97":167166.42999999999,"N_COORD97":2548301.1600000001,"ADDRESS":"海佃路二段１５０巷８８弄７號","OBJECTID":110255},"geometry":{"x":167166.43000000063,"y":2548301.1600000001}},{"attributes":{"ID":110256,"DIS_CODE":0,"TOWNNAME":"南區","LI":"再興里","LIN":"4鄰","STREET":"新慶街","SECT":" ","MAREA":" ","LANE":" ","ALLEY":" ","HOUSE_NO":"６號","E_COORD97":167300.48000000001,"N_COORD97":2542340.25,"ADDRESS":"新慶街６號","OBJECTID":110256},"geometry":{"x":167300.48000000138,"y":2542340.25}},{"attributes":{"ID":110257,"DIS_CODE":0,"TOWNNAME":"新市區","LI":"三舍里","LIN":"9鄰","STREET":" ","SECT":" ","MAREA":"三舍","LANE":" ","ALLEY":" ","HOUSE_NO":"１９４之２號","E_COORD97":177416.03,"N_COORD97":2555021.5499999998,"ADDRESS":"三舍１９４之２號","OBJECTID":110257},"geometry":{"x":177416.03000000026,"y":2555021.5500000007}},{"attributes":{"ID":110258,"DIS_CODE":0,"TOWNNAME":"新市區","LI":"大社里","LIN":"9鄰","STREET":" ","SECT":" ","MAREA":"大社","LANE":" ","ALLEY":" ","HOUSE_NO":"２９７之１１號","E_COORD97":180301.35000000001,"N_COORD97":2554585.0499999998,"ADDRESS":"大社２９７之１１號","OBJECTID":110258},"geometry":{"x":180301.35000000056,"y":2554585.0500000007}},{"attributes":{"ID":110259,"DIS_CODE":0,"TOWNNAME":"新市區","LI":"大社里","LIN":"9鄰","STREET":" ","SECT":" ","MAREA":"大社","LANE":" ","ALLEY":" ","HOUSE_NO":"２８９號","E_COORD97":180401.35000000001,"N_COORD97":2554585,"ADDRESS":"大社２８９號","OBJECTID":110259},"geometry":{"x":180401.35000000056,"y":2554585}},{"attributes":{"ID":110260,"DIS_CODE":0,"TOWNNAME":"新市區","LI":"大洲里","LIN":"9鄰","STREET":" ","SECT":" ","MAREA":"大洲","LANE":" ","ALLEY":" ","HOUSE_NO":"８９號","E_COORD97":174271.48000000001,"N_COORD97":2551487.25,"ADDRESS":"大洲８９號","OBJECTID":110260},"geometry":{"x":174271.48000000138,"y":2551487.25}},{"attributes":{"ID":110261,"DIS_CODE":0,"TOWNNAME":"新市區","LI":"社內里","LIN":"9鄰","STREET":" ","SECT":" ","MAREA":"社內","LANE":" ","ALLEY":" ","HOUSE_NO":"９９之３５號","E_COORD97":176367.81,"N_COORD97":2553032.5499999998,"ADDRESS":"社內９９之３５號","OBJECTID":110261},"geometry":{"x":176367.80999999959,"y":2553032.5500000007}},{"attributes":{"ID":110262,"DIS_CODE":0,"TOWNNAME":"新市區","LI":"港墘里","LIN":"9鄰","STREET":" ","SECT":" ","MAREA":"崙頂","LANE":" ","ALLEY":" ","HOUSE_NO":"６９號","E_COORD97":178838.35000000001,"N_COORD97":2552726.25,"ADDRESS":"崙頂６９號","OBJECTID":110262},"geometry":{"x":178838.35000000056,"y":2552726.2500000019}},{"attributes":{"ID":110263,"DIS_CODE":0,"TOWNNAME":"新市區","LI":"大社里","LIN":"9鄰","STREET":" ","SECT":" ","MAREA":"大社","LANE":" ","ALLEY":" ","HOUSE_NO":"２９７之３號","E_COORD97":180299.67999999999,"N_COORD97":2554551.7999999998,"ADDRESS":"大社２９７之３號","OBJECTID":110263},"geometry":{"x":180299.6799999997,"y":2554551.8000000026}},{"attributes":{"ID":110264,"DIS_CODE":0,"TOWNNAME":"新市區","LI":"三舍里","LIN":"9鄰","STREET":" ","SECT":" ","MAREA":"三舍","LANE":" ","ALLEY":" ","HOUSE_NO":"２０１之１１號","E_COORD97":177357.23999999999,"N_COORD97":2554981.7999999998,"ADDRESS":"三舍２０１之１１號","OBJECTID":110264},"geometry":{"x":177357.24000000022,"y":2554981.8000000026}},{"attributes":{"ID":110265,"DIS_CODE":0,"TOWNNAME":"新市區","LI":"大社里","LIN":"9鄰","STREET":" ","SECT":" ","MAREA":"大社","LANE":" ","ALLEY":" ","HOUSE_NO":"３２１號","E_COORD97":180180.45999999999,"N_COORD97":2554524,"ADDRESS":"大社３２１號","OBJECTID":110265},"geometry":{"x":180180.46000000089,"y":2554523.9999999981}},{"attributes":{"ID":110266,"DIS_CODE":0,"TOWNNAME":"新市區","LI":"三舍里","LIN":"9鄰","STREET":" ","SECT":" ","MAREA":"三舍","LANE":" ","ALLEY":" ","HOUSE_NO":"２０５號","E_COORD97":177193.64999999999,"N_COORD97":2554978.5,"ADDRESS":"三舍２０５號","OBJECTID":110266},"geometry":{"x":177193.65000000037,"y":2554978.5000000037}},{"attributes":{"ID":110267,"DIS_CODE":0,"TOWNNAME":"新市區","LI":"三舍里","LIN":"9鄰","STREET":" ","SECT":" ","MAREA":"三舍","LANE":" ","ALLEY":" ","HOUSE_NO":"２０１之９號","E_COORD97":177351.92000000001,"N_COORD97":2554980.7999999998,"ADDRESS":"三舍２０１之９號","OBJECTID":110267},"geometry":{"x":177351.91999999993,"y":2554980.8000000045}},{"attributes":{"ID":110268,"DIS_CODE":0,"TOWNNAME":"新市區","LI":"大社里","LIN":"9鄰","STREET":" ","SECT":" ","MAREA":"大社","LANE":" ","ALLEY":" ","HOUSE_NO":"３２４號","E_COORD97":180163.35000000001,"N_COORD97":2554520.5,"ADDRESS":"大社３２４號","OBJECTID":110268},"geometry":{"x":180163.35000000149,"y":2554520.5}},{"attributes":{"ID":110269,"DIS_CODE":0,"TOWNNAME":"新市區","LI":"社內里","LIN":"9鄰","STREET":" ","SECT":" ","MAREA":"社內","LANE":" ","ALLEY":" ","HOUSE_NO":"９９之６０號","E_COORD97":176312.09,"N_COORD97":2553001.5499999998,"ADDRESS":"社內９９之６０號","OBJECTID":110269},"geometry":{"x":176312.09000000171,"y":2553001.5500000007}},{"attributes":{"ID":110270,"DIS_CODE":0,"TOWNNAME":"新市區","LI":"大社里","LIN":"9鄰","STREET":" ","SECT":" ","MAREA":"大社","LANE":" ","ALLEY":" ","HOUSE_NO":"３３６號","E_COORD97":180056.60000000001,"N_COORD97":2554444.75,"ADDRESS":"大社３３６號","OBJECTID":110270},"geometry":{"x":180056.60000000149,"y":2554444.7500000037}},{"attributes":{"ID":110271,"DIS_CODE":0,"TOWNNAME":"新市區","LI":"大營里","LIN":"9鄰","STREET":" ","SECT":" ","MAREA":"大營","LANE":" ","ALLEY":" ","HOUSE_NO":"１９０號","E_COORD97":179381.63,"N_COORD97":2555615.75,"ADDRESS":"大營１９０號","OBJECTID":110271},"geometry":{"x":179381.62999999989,"y":2555615.7500000019}},{"attributes":{"ID":110272,"DIS_CODE":0,"TOWNNAME":"新市區","LI":"三舍里","LIN":"9鄰","STREET":" ","SECT":" ","MAREA":"三舍","LANE":" ","ALLEY":" ","HOUSE_NO":"１９１之３５號","E_COORD97":177422.84,"N_COORD97":2555172.5499999998,"ADDRESS":"三舍１９１之３５號","OBJECTID":110272},"geometry":{"x":177422.84000000078,"y":2555172.5500000026}},{"attributes":{"ID":110273,"DIS_CODE":0,"TOWNNAME":"新市區","LI":"大社里","LIN":"9鄰","STREET":" ","SECT":" ","MAREA":"大社","LANE":" ","ALLEY":" ","HOUSE_NO":"３２８號","E_COORD97":180100.85000000001,"N_COORD97":2554464.25,"ADDRESS":"大社３２８號","OBJECTID":110273},"geometry":{"x":180100.85000000056,"y":2554464.25}},{"attributes":{"ID":110274,"DIS_CODE":0,"TOWNNAME":"新市區","LI":"大社里","LIN":"9鄰","STREET":" ","SECT":" ","MAREA":"大社","LANE":" ","ALLEY":" ","HOUSE_NO":"３２６之５號","E_COORD97":180139.95999999999,"N_COORD97":2554510.0499999998,"ADDRESS":"大社３２６之５號","OBJECTID":110274},"geometry":{"x":180139.96000000089,"y":2554510.0500000007}},{"attributes":{"ID":110275,"DIS_CODE":0,"TOWNNAME":"安南區","LI":"理想里","LIN":"9鄰","STREET":"海佃路","SECT":"二段","MAREA":" ","LANE":"１５０巷","ALLEY":"８８弄","HOUSE_NO":"９號","E_COORD97":167174.60000000001,"N_COORD97":2548295.6099999999,"ADDRESS":"海佃路二段１５０巷８８弄９號","OBJECTID":110275},"geometry":{"x":167174.59999999963,"y":2548295.6100000013}},{"attributes":{"ID":110276,"DIS_CODE":0,"TOWNNAME":"南區","LI":"興農里","LIN":"9鄰","STREET":"灣裡路","SECT":" ","MAREA":" ","LANE":"２６３巷","ALLEY":"７３弄","HOUSE_NO":"１６號","E_COORD97":166428.70000000001,"N_COORD97":2536420.3999999999,"ADDRESS":"灣裡路２６３巷７３弄１６號","OBJECTID":110276},"geometry":{"x":166428.69999999925,"y":2536420.4000000004}},{"attributes":{"ID":110277,"DIS_CODE":0,"TOWNNAME":"南區","LI":"興農里","LIN":"9鄰","STREET":"灣裡路","SECT":" ","MAREA":" ","LANE":"２６３巷","ALLEY":"７３弄","HOUSE_NO":"１８號","E_COORD97":166433.42999999999,"N_COORD97":2536421.8199999998,"ADDRESS":"灣裡路２６３巷７３弄１８號","OBJECTID":110277},"geometry":{"x":166433.42999999877,"y":2536421.8200000022}},{"attributes":{"ID":110278,"DIS_CODE":0,"TOWNNAME":"新市區","LI":"大洲里","LIN":"9鄰","STREET":" ","SECT":" ","MAREA":"大洲","LANE":" ","ALLEY":" ","HOUSE_NO":"８３號","E_COORD97":174395.95999999999,"N_COORD97":2551507.25,"ADDRESS":"大洲８３號","OBJECTID":110278},"geometry":{"x":174395.96000000183,"y":2551507.25}},{"attributes":{"ID":110279,"DIS_CODE":0,"TOWNNAME":"新市區","LI":"大營里","LIN":"9鄰","STREET":" ","SECT":" ","MAREA":"大營","LANE":" ","ALLEY":" ","HOUSE_NO":"１８７號","E_COORD97":179390.51000000001,"N_COORD97":2555635.5,"ADDRESS":"大營１８７號","OBJECTID":110279},"geometry":{"x":179390.50999999978,"y":2555635.5}},{"attributes":{"ID":110280,"DIS_CODE":0,"TOWNNAME":"新市區","LI":"大社里","LIN":"9鄰","STREET":" ","SECT":" ","MAREA":"大社","LANE":" ","ALLEY":" ","HOUSE_NO":"３２７之１號","E_COORD97":180111.39999999999,"N_COORD97":2554477.5499999998,"ADDRESS":"大社３２７之１號","OBJECTID":110280},"geometry":{"x":180111.4000000013,"y":2554477.5500000026}},{"attributes":{"ID":110281,"DIS_CODE":0,"TOWNNAME":"新市區","LI":"大社里","LIN":"9鄰","STREET":" ","SECT":" ","MAREA":"大社","LANE":" ","ALLEY":" ","HOUSE_NO":"３３３號","E_COORD97":180076.35000000001,"N_COORD97":2554448,"ADDRESS":"大社３３３號","OBJECTID":110281},"geometry":{"x":180076.34999999963,"y":2554448}},{"attributes":{"ID":110282,"DIS_CODE":0,"TOWNNAME":"新市區","LI":"大社里","LIN":"9鄰","STREET":" ","SECT":" ","MAREA":"大社","LANE":" ","ALLEY":" ","HOUSE_NO":"３３５號","E_COORD97":180059.76000000001,"N_COORD97":2554438.75,"ADDRESS":"大社３３５號","OBJECTID":110282},"geometry":{"x":180059.76000000071,"y":2554438.7500000019}},{"attributes":{"ID":110283,"DIS_CODE":0,"TOWNNAME":"南區","LI":"興農里","LIN":"9鄰","STREET":"灣裡路","SECT":" ","MAREA":" ","LANE":"２６３巷","ALLEY":"７３弄","HOUSE_NO":"１９號","E_COORD97":166463.59,"N_COORD97":2536416.79,"ADDRESS":"灣裡路２６３巷７３弄１９號","OBJECTID":110283},"geometry":{"x":166463.59000000078,"y":2536416.7900000028}},{"attributes":{"ID":110284,"DIS_CODE":0,"TOWNNAME":"南區","LI":"興農里","LIN":"9鄰","STREET":"灣裡路","SECT":" ","MAREA":" ","LANE":"２６３巷","ALLEY":"７３弄","HOUSE_NO":"２０號","E_COORD97":166446.45000000001,"N_COORD97":2536424.8500000001,"ADDRESS":"灣裡路２６３巷７３弄２０號","OBJECTID":110284},"geometry":{"x":166446.45000000112,"y":2536424.8500000015}},{"attributes":{"ID":110285,"DIS_CODE":0,"TOWNNAME":"南區","LI":"興農里","LIN":"9鄰","STREET":"灣裡路","SECT":" ","MAREA":" ","LANE":"２６３巷","ALLEY":"７３弄","HOUSE_NO":"２２號","E_COORD97":166437.87,"N_COORD97":2536408.73,"ADDRESS":"灣裡路２６３巷７３弄２２號","OBJECTID":110285},"geometry":{"x":166437.87000000197,"y":2536408.7300000023}},{"attributes":{"ID":110286,"DIS_CODE":0,"TOWNNAME":"南區","LI":"興農里","LIN":"9鄰","STREET":"灣裡路","SECT":" ","MAREA":" ","LANE":"２６３巷","ALLEY":"７３弄","HOUSE_NO":"２４號","E_COORD97":166454.76999999999,"N_COORD97":2536410.5,"ADDRESS":"灣裡路２６３巷７３弄２４號","OBJECTID":110286},"geometry":{"x":166454.77000000142,"y":2536410.5000000019}},{"attributes":{"ID":110287,"DIS_CODE":0,"TOWNNAME":"南區","LI":"興農里","LIN":"9鄰","STREET":"灣裡路","SECT":" ","MAREA":" ","LANE":"２６３巷","ALLEY":"９５弄","HOUSE_NO":"２號","E_COORD97":166395.31,"N_COORD97":2536378.7400000002,"ADDRESS":"灣裡路２６３巷９５弄２號","OBJECTID":110287},"geometry":{"x":166395.31000000145,"y":2536378.7400000021}},{"attributes":{"ID":110288,"DIS_CODE":0,"TOWNNAME":"南區","LI":"興農里","LIN":"9鄰","STREET":"灣裡路","SECT":" ","MAREA":" ","LANE":"２６３巷","ALLEY":"９５弄","HOUSE_NO":"３號","E_COORD97":166388.54000000001,"N_COORD97":2536369.3999999999,"ADDRESS":"灣裡路２６３巷９５弄３號","OBJECTID":110288},"geometry":{"x":166388.54000000004,"y":2536369.4000000004}},{"attributes":{"ID":110289,"DIS_CODE":0,"TOWNNAME":"南區","LI":"興農里","LIN":"9鄰","STREET":"灣裡路","SECT":" ","MAREA":" ","LANE":"２６３巷","ALLEY":"９５弄","HOUSE_NO":"４號","E_COORD97":166409.76000000001,"N_COORD97":2536380.6899999999,"ADDRESS":"灣裡路２６３巷９５弄４號","OBJECTID":110289},"geometry":{"x":166409.76000000071,"y":2536380.6900000032}},{"attributes":{"ID":110290,"DIS_CODE":0,"TOWNNAME":"南區","LI":"興農里","LIN":"9鄰","STREET":"灣裡路","SECT":" ","MAREA":" ","LANE":"２６３巷","ALLEY":"９５弄","HOUSE_NO":"６號","E_COORD97":166408.59,"N_COORD97":2536389.4700000002,"ADDRESS":"灣裡路２６３巷９５弄６號","OBJECTID":110290},"geometry":{"x":166408.58999999985,"y":2536389.4700000007}},{"attributes":{"ID":110291,"DIS_CODE":0,"TOWNNAME":"南區","LI":"興農里","LIN":"9鄰","STREET":"灣裡路","SECT":" ","MAREA":" ","LANE":"２６３巷","ALLEY":"９５弄","HOUSE_NO":"１０號","E_COORD97":166435.10000000001,"N_COORD97":2536398.6600000001,"ADDRESS":"灣裡路２６３巷９５弄１０號","OBJECTID":110291},"geometry":{"x":166435.09999999963,"y":2536398.660000002}},{"attributes":{"ID":110292,"DIS_CODE":0,"TOWNNAME":"新市區","LI":"大社里","LIN":"9鄰","STREET":" ","SECT":" ","MAREA":"大社","LANE":" ","ALLEY":" ","HOUSE_NO":"３２６之６號","E_COORD97":180137.85000000001,"N_COORD97":2554515.5499999998,"ADDRESS":"大社３２６之６號","OBJECTID":110292},"geometry":{"x":180137.85000000149,"y":2554515.5500000026}},{"attributes":{"ID":110293,"DIS_CODE":0,"TOWNNAME":"新市區","LI":"社內里","LIN":"9鄰","STREET":" ","SECT":" ","MAREA":"社內","LANE":" ","ALLEY":" ","HOUSE_NO":"９９之２８號","E_COORD97":176331.28,"N_COORD97":2552978.0499999998,"ADDRESS":"社內９９之２８號","OBJECTID":110293},"geometry":{"x":176331.28000000026,"y":2552978.0500000007}},{"attributes":{"ID":110294,"DIS_CODE":0,"TOWNNAME":"新市區","LI":"大社里","LIN":"9鄰","STREET":" ","SECT":" ","MAREA":"大社","LANE":" ","ALLEY":" ","HOUSE_NO":"３０５號之３","E_COORD97":180241.07999999999,"N_COORD97":2554531.7999999998,"ADDRESS":"大社３０５號之３","OBJECTID":110294},"geometry":{"x":180241.08000000007,"y":2554531.8000000007}},{"attributes":{"ID":110295,"DIS_CODE":0,"TOWNNAME":"新市區","LI":"大社里","LIN":"9鄰","STREET":" ","SECT":" ","MAREA":"大社","LANE":" ","ALLEY":" ","HOUSE_NO":"２９７之１號","E_COORD97":180309.73999999999,"N_COORD97":2554553.5499999998,"ADDRESS":"大社２９７之１號","OBJECTID":110295},"geometry":{"x":180309.74000000022,"y":2554553.5500000007}},{"attributes":{"ID":110296,"DIS_CODE":0,"TOWNNAME":"新市區","LI":"港墘里","LIN":"9鄰","STREET":" ","SECT":" ","MAREA":"崙頂","LANE":" ","ALLEY":" ","HOUSE_NO":"８２之１１號","E_COORD97":178690.51999999999,"N_COORD97":2552695.2999999998,"ADDRESS":"崙頂８２之１１號","OBJECTID":110296},"geometry":{"x":178690.51999999955,"y":2552695.3000000007}},{"attributes":{"ID":110297,"DIS_CODE":0,"TOWNNAME":"新市區","LI":"港墘里","LIN":"9鄰","STREET":" ","SECT":" ","MAREA":"崙頂","LANE":" ","ALLEY":" ","HOUSE_NO":"９３號","E_COORD97":178602.26999999999,"N_COORD97":2552690.5,"ADDRESS":"崙頂９３號","OBJECTID":110297},"geometry":{"x":178602.26999999955,"y":2552690.5000000019}},{"attributes":{"ID":110298,"DIS_CODE":0,"TOWNNAME":"新市區","LI":"港墘里","LIN":"9鄰","STREET":" ","SECT":" ","MAREA":"崙頂","LANE":" ","ALLEY":" ","HOUSE_NO":"９２號","E_COORD97":178607.60000000001,"N_COORD97":2552690.75,"ADDRESS":"崙頂９２號","OBJECTID":110298},"geometry":{"x":178607.60000000056,"y":2552690.75}},{"attributes":{"ID":110299,"DIS_CODE":0,"TOWNNAME":"新市區","LI":"港墘里","LIN":"9鄰","STREET":" ","SECT":" ","MAREA":"崙頂","LANE":" ","ALLEY":" ","HOUSE_NO":"８３號","E_COORD97":178669.17000000001,"N_COORD97":2552697.25,"ADDRESS":"崙頂８３號","OBJECTID":110299},"geometry":{"x":178669.16999999993,"y":2552697.25}},{"attributes":{"ID":110300,"DIS_CODE":0,"TOWNNAME":"新市區","LI":"永就里","LIN":"9鄰","STREET":" ","SECT":" ","MAREA":"永就","LANE":" ","ALLEY":" ","HOUSE_NO":"８９號","E_COORD97":177520.39999999999,"N_COORD97":2551521.75,"ADDRESS":"永就８９號","OBJECTID":110300},"geometry":{"x":177520.40000000037,"y":2551521.75}},{"attributes":{"ID":110301,"DIS_CODE":0,"TOWNNAME":"新市區","LI":"永就里","LIN":"9鄰","STREET":" ","SECT":" ","MAREA":"永就","LANE":" ","ALLEY":" ","HOUSE_NO":"９４之１０號","E_COORD97":177472.54000000001,"N_COORD97":2551428.0499999998,"ADDRESS":"永就９４之１０號","OBJECTID":110301},"geometry":{"x":177472.54000000097,"y":2551428.0500000007}},{"attributes":{"ID":110302,"DIS_CODE":0,"TOWNNAME":"新市區","LI":"永就里","LIN":"9鄰","STREET":" ","SECT":" ","MAREA":"永就","LANE":" ","ALLEY":" ","HOUSE_NO":"９７之５號","E_COORD97":177498.70000000001,"N_COORD97":2551493.5499999998,"ADDRESS":"永就９７之５號","OBJECTID":110302},"geometry":{"x":177498.70000000112,"y":2551493.5499999989}},{"attributes":{"ID":110303,"DIS_CODE":0,"TOWNNAME":"南區","LI":"興農里","LIN":"9鄰","STREET":"灣裡路","SECT":" ","MAREA":" ","LANE":"２６３巷","ALLEY":"９５弄","HOUSE_NO":"１０號之１","E_COORD97":166424.23999999999,"N_COORD97":2536396.71,"ADDRESS":"灣裡路２６３巷９５弄１０號之１","OBJECTID":110303},"geometry":{"x":166424.24000000115,"y":2536396.7100000028}},{"attributes":{"ID":110304,"DIS_CODE":0,"TOWNNAME":"新化區","LI":"護國里","LIN":"9鄰","STREET":"中山路","SECT":" ","MAREA":" ","LANE":"１１１巷","ALLEY":"８弄","HOUSE_NO":"３７號","E_COORD97":179718.85999999999,"N_COORD97":2549060.25,"ADDRESS":"中山路１１１巷８弄３７號","OBJECTID":110304},"geometry":{"x":179718.86000000127,"y":2549060.25}},{"attributes":{"ID":110305,"DIS_CODE":0,"TOWNNAME":"新化區","LI":"護國里","LIN":"9鄰","STREET":"中山路","SECT":" ","MAREA":" ","LANE":"１１１巷","ALLEY":"８弄","HOUSE_NO":"４７號","E_COORD97":179719.06,"N_COORD97":2549035.25,"ADDRESS":"中山路１１１巷８弄４７號","OBJECTID":110305},"geometry":{"x":179719.05999999959,"y":2549035.25}},{"attributes":{"ID":110306,"DIS_CODE":0,"TOWNNAME":"新化區","LI":"護國里","LIN":"9鄰","STREET":"中山路","SECT":" ","MAREA":" ","LANE":"１１１巷","ALLEY":"８弄","HOUSE_NO":"３５號","E_COORD97":179718.26000000001,"N_COORD97":2549065.25,"ADDRESS":"中山路１１１巷８弄３５號","OBJECTID":110306},"geometry":{"x":179718.26000000164,"y":2549065.2500000019}},{"attributes":{"ID":110307,"DIS_CODE":0,"TOWNNAME":"新化區","LI":"護國里","LIN":"9鄰","STREET":"中山路","SECT":" ","MAREA":" ","LANE":"１１１巷","ALLEY":"８弄","HOUSE_NO":"５６號","E_COORD97":179702.16,"N_COORD97":2549026.25,"ADDRESS":"中山路１１１巷８弄５６號","OBJECTID":110307},"geometry":{"x":179702.16000000015,"y":2549026.25}},{"attributes":{"ID":110308,"DIS_CODE":0,"TOWNNAME":"永康區","LI":"東橋里","LIN":"9鄰","STREET":"中山南路","SECT":" ","MAREA":" ","LANE":"２３１巷","ALLEY":"２６弄","HOUSE_NO":"１號","E_COORD97":171567.51000000001,"N_COORD97":2546314.5499999998,"ADDRESS":"中山南路２３１巷２６弄１號","OBJECTID":110308},"geometry":{"x":171567.50999999978,"y":2546314.5500000026}},{"attributes":{"ID":110309,"DIS_CODE":0,"TOWNNAME":"永康區","LI":"神洲里","LIN":"9鄰","STREET":"忠孝路","SECT":" ","MAREA":" ","LANE":"６巷","ALLEY":"３１弄","HOUSE_NO":"５號","E_COORD97":172265.87,"N_COORD97":2544573.5,"ADDRESS":"忠孝路６巷３１弄５號","OBJECTID":110309},"geometry":{"x":172265.87000000197,"y":2544573.5000000037}},{"attributes":{"ID":110310,"DIS_CODE":0,"TOWNNAME":"永康區","LI":"西橋里","LIN":"9鄰","STREET":"中華西街","SECT":" ","MAREA":" ","LANE":"１２７巷","ALLEY":"２７弄","HOUSE_NO":"９號","E_COORD97":170591.04999999999,"N_COORD97":2546115.77,"ADDRESS":"中華西街１２７巷２７弄９號","OBJECTID":110310},"geometry":{"x":170591.05000000168,"y":2546115.7699999996}},{"attributes":{"ID":110311,"DIS_CODE":0,"TOWNNAME":"永康區","LI":"西橋里","LIN":"9鄰","STREET":"中華西街","SECT":" ","MAREA":" ","LANE":"８５巷","ALLEY":"１２弄","HOUSE_NO":"１５號","E_COORD97":170622.59,"N_COORD97":2546103.27,"ADDRESS":"中華西街８５巷１２弄１５號","OBJECTID":110311},"geometry":{"x":170622.58999999985,"y":2546103.2699999996}},{"attributes":{"ID":110312,"DIS_CODE":0,"TOWNNAME":"永康區","LI":"西橋里","LIN":"9鄰","STREET":"中華西街","SECT":" ","MAREA":" ","LANE":"８５巷","ALLEY":"１２弄","HOUSE_NO":"１１號","E_COORD97":170640.25,"N_COORD97":2546113.02,"ADDRESS":"中華西街８５巷１２弄１１號","OBJECTID":110312},"geometry":{"x":170640.25,"y":2546113.0200000014}},{"attributes":{"ID":110313,"DIS_CODE":0,"TOWNNAME":"永康區","LI":"西橋里","LIN":"9鄰","STREET":"中華西街","SECT":" ","MAREA":" ","LANE":"８５巷","ALLEY":"１２弄","HOUSE_NO":"２７號","E_COORD97":170621.44,"N_COORD97":2546113.77,"ADDRESS":"中華西街８５巷１２弄２７號","OBJECTID":110313},"geometry":{"x":170621.44000000227,"y":2546113.7700000033}},{"attributes":{"ID":110314,"DIS_CODE":0,"TOWNNAME":"永康區","LI":"西橋里","LIN":"9鄰","STREET":"中華西街","SECT":" ","MAREA":" ","LANE":"８５巷","ALLEY":"１２弄","HOUSE_NO":"１號地下室","E_COORD97":170655.51999999999,"N_COORD97":2546089.0099999998,"ADDRESS":"中華西街８５巷１２弄１號地下室","OBJECTID":110314},"geometry":{"x":170655.52000000142,"y":2546089.0100000016}},{"attributes":{"ID":110315,"DIS_CODE":0,"TOWNNAME":"永康區","LI":"西橋里","LIN":"9鄰","STREET":"中華西街","SECT":" ","MAREA":" ","LANE":"８５巷","ALLEY":"１２弄","HOUSE_NO":"３７號","E_COORD97":170624.37,"N_COORD97":2546137.3199999998,"ADDRESS":"中華西街８５巷１２弄３７號","OBJECTID":110315},"geometry":{"x":170624.37000000011,"y":2546137.3200000003}},{"attributes":{"ID":110316,"DIS_CODE":0,"TOWNNAME":"永康區","LI":"西橋里","LIN":"9鄰","STREET":"中華西街","SECT":" ","MAREA":" ","LANE":"８５巷","ALLEY":"１２弄","HOUSE_NO":"１號","E_COORD97":170651.79000000001,"N_COORD97":2546089.0099999998,"ADDRESS":"中華西街８５巷１２弄１號","OBJECTID":110316},"geometry":{"x":170651.79000000004,"y":2546089.0100000016}},{"attributes":{"ID":110317,"DIS_CODE":0,"TOWNNAME":"永康區","LI":"西橋里","LIN":"9鄰","STREET":"中華西街","SECT":" ","MAREA":" ","LANE":"８５巷","ALLEY":"１２弄","HOUSE_NO":"９號","E_COORD97":170641.14999999999,"N_COORD97":2546109.02,"ADDRESS":"中華西街８５巷１２弄９號","OBJECTID":110317},"geometry":{"x":170641.15000000037,"y":2546109.0200000014}},{"attributes":{"ID":110318,"DIS_CODE":0,"TOWNNAME":"永康區","LI":"西橋里","LIN":"9鄰","STREET":"中華西街","SECT":" ","MAREA":" ","LANE":"８５巷","ALLEY":"１２弄","HOUSE_NO":"３號","E_COORD97":170630.54999999999,"N_COORD97":2546089.5099999998,"ADDRESS":"中華西街８５巷１２弄３號","OBJECTID":110318},"geometry":{"x":170630.55000000075,"y":2546089.5100000016}},{"attributes":{"ID":110319,"DIS_CODE":0,"TOWNNAME":"永康區","LI":"西橋里","LIN":"9鄰","STREET":"中華西街","SECT":" ","MAREA":" ","LANE":"８５巷","ALLEY":"１２弄","HOUSE_NO":"３３號","E_COORD97":170629.47,"N_COORD97":2546129.5699999998,"ADDRESS":"中華西街８５巷１２弄３３號","OBJECTID":110319},"geometry":{"x":170629.47000000067,"y":2546129.570000004}},{"attributes":{"ID":110320,"DIS_CODE":0,"TOWNNAME":"永康區","LI":"西橋里","LIN":"9鄰","STREET":"中華西街","SECT":" ","MAREA":" ","LANE":"８５巷","ALLEY":"１２弄","HOUSE_NO":"３１號","E_COORD97":170631.51000000001,"N_COORD97":2546125.8199999998,"ADDRESS":"中華西街８５巷１２弄３１號","OBJECTID":110320},"geometry":{"x":170631.50999999978,"y":2546125.8200000022}},{"attributes":{"ID":110321,"DIS_CODE":0,"TOWNNAME":"歸仁區","LI":"南保里","LIN":"8鄰","STREET":"文化六街","SECT":" ","MAREA":" ","LANE":" ","ALLEY":" ","HOUSE_NO":"２５號","E_COORD97":176807.64000000001,"N_COORD97":2541310.3300000001,"ADDRESS":"文化六街２５號","OBJECTID":110321},"geometry":{"x":176807.63999999966,"y":2541310.3300000019}},{"attributes":{"ID":110322,"DIS_CODE":0,"TOWNNAME":"永康區","LI":"西橋里","LIN":"9鄰","STREET":"中華西街","SECT":" ","MAREA":" ","LANE":"８５巷","ALLEY":"１２弄","HOUSE_NO":"２５號","E_COORD97":170617.29000000001,"N_COORD97":2546111.27,"ADDRESS":"中華西街８５巷１２弄２５號","OBJECTID":110322},"geometry":{"x":170617.29000000097,"y":2546111.2700000014}},{"attributes":{"ID":110323,"DIS_CODE":0,"TOWNNAME":"永康區","LI":"西橋里","LIN":"9鄰","STREET":"中華西街","SECT":" ","MAREA":" ","LANE":"８５巷","ALLEY":"１２弄","HOUSE_NO":"７號","E_COORD97":170643.64999999999,"N_COORD97":2546104.52,"ADDRESS":"中華西街８５巷１２弄７號","OBJECTID":110323},"geometry":{"x":170643.65000000224,"y":2546104.5199999996}},{"attributes":{"ID":110324,"DIS_CODE":0,"TOWNNAME":"歸仁區","LI":"南興里","LIN":"8鄰","STREET":"文化十六街","SECT":" ","MAREA":" ","LANE":" ","ALLEY":" ","HOUSE_NO":"３６號","E_COORD97":176040.59,"N_COORD97":2541250.3300000001,"ADDRESS":"文化十六街３６號","OBJECTID":110324},"geometry":{"x":176040.58999999985,"y":2541250.3300000019}},{"attributes":{"ID":110325,"DIS_CODE":0,"TOWNNAME":"鹽水區","LI":"下中里","LIN":"1鄰","STREET":" ","SECT":" ","MAREA":"二庄","LANE":" ","ALLEY":" ","HOUSE_NO":"５號","E_COORD97":173398.79000000001,"N_COORD97":2580369.5099999998,"ADDRESS":"二庄５號","OBJECTID":110325},"geometry":{"x":173398.7900000019,"y":2580369.5100000016}},{"attributes":{"ID":110326,"DIS_CODE":0,"TOWNNAME":"鹽水區","LI":"下中里","LIN":"1鄰","STREET":" ","SECT":" ","MAREA":"二庄","LANE":" ","ALLEY":" ","HOUSE_NO":"１０號","E_COORD97":173320.87,"N_COORD97":2580323.6299999999,"ADDRESS":"二庄１０號","OBJECTID":110326},"geometry":{"x":173320.87000000104,"y":2580323.6300000008}},{"attributes":{"ID":110327,"DIS_CODE":0,"TOWNNAME":"鹽水區","LI":"下中里","LIN":"1鄰","STREET":" ","SECT":" ","MAREA":"二庄","LANE":" ","ALLEY":" ","HOUSE_NO":"１１號","E_COORD97":173360.56,"N_COORD97":2580309.3300000001,"ADDRESS":"二庄１１號","OBJECTID":110327},"geometry":{"x":173360.55999999959,"y":2580309.3300000038}},{"attributes":{"ID":110328,"DIS_CODE":0,"TOWNNAME":"鹽水區","LI":"下中里","LIN":"1鄰","STREET":" ","SECT":" ","MAREA":"二庄","LANE":" ","ALLEY":" ","HOUSE_NO":"１２號","E_COORD97":173339.26000000001,"N_COORD97":2580308.4100000001,"ADDRESS":"二庄１２號","OBJECTID":110328},"geometry":{"x":173339.26000000164,"y":2580308.4100000001}},{"attributes":{"ID":110329,"DIS_CODE":0,"TOWNNAME":"鹽水區","LI":"下中里","LIN":"1鄰","STREET":" ","SECT":" ","MAREA":"二庄","LANE":" ","ALLEY":" ","HOUSE_NO":"１之２號","E_COORD97":173448.41,"N_COORD97":2580429.48,"ADDRESS":"二庄１之２號","OBJECTID":110329},"geometry":{"x":173448.41000000015,"y":2580429.4800000004}},{"attributes":{"ID":110330,"DIS_CODE":0,"TOWNNAME":"鹽水區","LI":"下中里","LIN":"1鄰","STREET":" ","SECT":" ","MAREA":"二庄","LANE":" ","ALLEY":" ","HOUSE_NO":"６號之１","E_COORD97":173391.32000000001,"N_COORD97":2580332.5800000001,"ADDRESS":"二庄６號之１","OBJECTID":110330},"geometry":{"x":173391.3200000003,"y":2580332.5800000019}},{"attributes":{"ID":110331,"DIS_CODE":0,"TOWNNAME":"鹽水區","LI":"下中里","LIN":"1鄰","STREET":" ","SECT":" ","MAREA":"二庄","LANE":" ","ALLEY":" ","HOUSE_NO":"６號","E_COORD97":173369.79000000001,"N_COORD97":2580361.3700000001,"ADDRESS":"二庄６號","OBJECTID":110331},"geometry":{"x":173369.7900000019,"y":2580361.3700000029}},{"attributes":{"ID":110332,"DIS_CODE":0,"TOWNNAME":"新市區","LI":"永就里","LIN":"9鄰","STREET":" ","SECT":" ","MAREA":"永就","LANE":" ","ALLEY":" ","HOUSE_NO":"９３之２號","E_COORD97":177572.09,"N_COORD97":2551347.5499999998,"ADDRESS":"永就９３之２號","OBJECTID":110332},"geometry":{"x":177572.09000000078,"y":2551347.5500000007}},{"attributes":{"ID":110333,"DIS_CODE":0,"TOWNNAME":"新市區","LI":"港墘里","LIN":"9鄰","STREET":" ","SECT":" ","MAREA":"崙頂","LANE":" ","ALLEY":" ","HOUSE_NO":"８２之４號","E_COORD97":178696.84,"N_COORD97":2552716.2999999998,"ADDRESS":"崙頂８２之４號","OBJECTID":110333},"geometry":{"x":178696.83999999985,"y":2552716.3000000026}},{"attributes":{"ID":110334,"DIS_CODE":0,"TOWNNAME":"新市區","LI":"社內里","LIN":"9鄰","STREET":" ","SECT":" ","MAREA":"社內","LANE":" ","ALLEY":" ","HOUSE_NO":"９１之２０號","E_COORD97":176391.39000000001,"N_COORD97":2553029.5499999998,"ADDRESS":"社內９１之２０號","OBJECTID":110334},"geometry":{"x":176391.39000000153,"y":2553029.5500000045}},{"attributes":{"ID":110335,"DIS_CODE":0,"TOWNNAME":"新市區","LI":"永就里","LIN":"9鄰","STREET":" ","SECT":" ","MAREA":"永就","LANE":" ","ALLEY":" ","HOUSE_NO":"１０５號","E_COORD97":177482.04000000001,"N_COORD97":2551552.25,"ADDRESS":"永就１０５號","OBJECTID":110335},"geometry":{"x":177482.04000000004,"y":2551552.25}},{"attributes":{"ID":110336,"DIS_CODE":0,"TOWNNAME":"山上區","LI":"南洲里","LIN":"9鄰","STREET":" ","SECT":" ","MAREA":"南洲","LANE":" ","ALLEY":" ","HOUSE_NO":"２０６號","E_COORD97":183762.14000000001,"N_COORD97":2555559.25,"ADDRESS":"南洲２０６號","OBJECTID":110336},"geometry":{"x":183762.1400000006,"y":2555559.25}},{"attributes":{"ID":110337,"DIS_CODE":0,"TOWNNAME":"山上區","LI":"山上里","LIN":"9鄰","STREET":" ","SECT":" ","MAREA":"山上","LANE":" ","ALLEY":" ","HOUSE_NO":"１５７號","E_COORD97":184160.60999999999,"N_COORD97":2555696.25,"ADDRESS":"山上１５７號","OBJECTID":110337},"geometry":{"x":184160.61000000034,"y":2555696.2500000019}},{"attributes":{"ID":110338,"DIS_CODE":0,"TOWNNAME":"山上區","LI":"山上里","LIN":"9鄰","STREET":" ","SECT":" ","MAREA":"山上","LANE":" ","ALLEY":" ","HOUSE_NO":"１５１號","E_COORD97":184194.51000000001,"N_COORD97":2555706.25,"ADDRESS":"山上１５１號","OBJECTID":110338},"geometry":{"x":184194.50999999978,"y":2555706.2500000019}},{"attributes":{"ID":110339,"DIS_CODE":0,"TOWNNAME":"山上區","LI":"新莊里","LIN":"9鄰","STREET":" ","SECT":" ","MAREA":"大庄","LANE":" ","ALLEY":" ","HOUSE_NO":"３１之６號","E_COORD97":183832.85999999999,"N_COORD97":2554884.2999999998,"ADDRESS":"大庄３１之６號","OBJECTID":110339},"geometry":{"x":183832.86000000127,"y":2554884.3000000007}},{"attributes":{"ID":110340,"DIS_CODE":0,"TOWNNAME":"山上區","LI":"山上里","LIN":"9鄰","STREET":" ","SECT":" ","MAREA":"山上","LANE":" ","ALLEY":" ","HOUSE_NO":"１５８之５號","E_COORD97":184139.81,"N_COORD97":2555676.2999999998,"ADDRESS":"山上１５８之５號","OBJECTID":110340},"geometry":{"x":184139.80999999959,"y":2555676.3000000026}},{"attributes":{"ID":110341,"DIS_CODE":0,"TOWNNAME":"山上區","LI":"新莊里","LIN":"9鄰","STREET":" ","SECT":" ","MAREA":"大庄","LANE":" ","ALLEY":" ","HOUSE_NO":"３２之１號","E_COORD97":183883.16,"N_COORD97":2554875.2999999998,"ADDRESS":"大庄３２之１號","OBJECTID":110341},"geometry":{"x":183883.16000000108,"y":2554875.3000000007}},{"attributes":{"ID":110342,"DIS_CODE":0,"TOWNNAME":"山上區","LI":"南洲里","LIN":"9鄰","STREET":" ","SECT":" ","MAREA":"南洲","LANE":" ","ALLEY":" ","HOUSE_NO":"２１１之５號","E_COORD97":183805.73999999999,"N_COORD97":2555510.2999999998,"ADDRESS":"南洲２１１之５號","OBJECTID":110342},"geometry":{"x":183805.74000000022,"y":2555510.3000000026}},{"attributes":{"ID":110343,"DIS_CODE":0,"TOWNNAME":"山上區","LI":"南洲里","LIN":"9鄰","STREET":" ","SECT":" ","MAREA":"南洲","LANE":" ","ALLEY":" ","HOUSE_NO":"２１１之２號","E_COORD97":183817.14000000001,"N_COORD97":2555514.2999999998,"ADDRESS":"南洲２１１之２號","OBJECTID":110343},"geometry":{"x":183817.13999999966,"y":2555514.3000000026}},{"attributes":{"ID":110344,"DIS_CODE":0,"TOWNNAME":"山上區","LI":"南洲里","LIN":"9鄰","STREET":" ","SECT":" ","MAREA":"南洲","LANE":" ","ALLEY":" ","HOUSE_NO":"２１號","E_COORD97":183857.29000000001,"N_COORD97":2555504.25,"ADDRESS":"南洲２１號","OBJECTID":110344},"geometry":{"x":183857.29000000004,"y":2555504.25}},{"attributes":{"ID":110345,"DIS_CODE":0,"TOWNNAME":"山上區","LI":"南洲里","LIN":"9鄰","STREET":" ","SECT":" ","MAREA":"南洲","LANE":" ","ALLEY":" ","HOUSE_NO":"２０３之１號","E_COORD97":183763.44,"N_COORD97":2555585.2999999998,"ADDRESS":"南洲２０３之１號","OBJECTID":110345},"geometry":{"x":183763.44000000041,"y":2555585.3000000026}},{"attributes":{"ID":110346,"DIS_CODE":0,"TOWNNAME":"山上區","LI":"南洲里","LIN":"9鄰","STREET":" ","SECT":" ","MAREA":"南洲","LANE":" ","ALLEY":" ","HOUSE_NO":"２０９號","E_COORD97":183777.23999999999,"N_COORD97":2555535.25,"ADDRESS":"南洲２０９號","OBJECTID":110346},"geometry":{"x":183777.24000000209,"y":2555535.25}},{"attributes":{"ID":110347,"DIS_CODE":0,"TOWNNAME":"山上區","LI":"南洲里","LIN":"9鄰","STREET":" ","SECT":" ","MAREA":"南洲","LANE":" ","ALLEY":" ","HOUSE_NO":"２９號","E_COORD97":183939.59,"N_COORD97":2555231.25,"ADDRESS":"南洲２９號","OBJECTID":110347},"geometry":{"x":183939.59000000078,"y":2555231.2500000037}},{"attributes":{"ID":110348,"DIS_CODE":0,"TOWNNAME":"山上區","LI":"南洲里","LIN":"9鄰","STREET":" ","SECT":" ","MAREA":"南洲","LANE":" ","ALLEY":" ","HOUSE_NO":"２０３號","E_COORD97":183758.23999999999,"N_COORD97":2555594.25,"ADDRESS":"南洲２０３號","OBJECTID":110348},"geometry":{"x":183758.24000000022,"y":2555594.2500000019}},{"attributes":{"ID":110349,"DIS_CODE":0,"TOWNNAME":"山上區","LI":"南洲里","LIN":"9鄰","STREET":" ","SECT":" ","MAREA":"南洲","LANE":" ","ALLEY":" ","HOUSE_NO":"２８號","E_COORD97":183808.98999999999,"N_COORD97":2555329.25,"ADDRESS":"南洲２８號","OBJECTID":110349},"geometry":{"x":183808.99000000022,"y":2555329.2499999981}},{"attributes":{"ID":110350,"DIS_CODE":0,"TOWNNAME":"山上區","LI":"南洲里","LIN":"9鄰","STREET":" ","SECT":" ","MAREA":"南洲","LANE":" ","ALLEY":" ","HOUSE_NO":"２１１號之３","E_COORD97":183813.37,"N_COORD97":2555513.2999999998,"ADDRESS":"南洲２１１號之３","OBJECTID":110350},"geometry":{"x":183813.37000000197,"y":2555513.3000000026}},{"attributes":{"ID":110351,"DIS_CODE":0,"TOWNNAME":"山上區","LI":"南洲里","LIN":"9鄰","STREET":" ","SECT":" ","MAREA":"南洲","LANE":" ","ALLEY":" ","HOUSE_NO":"２７號","E_COORD97":183791.29639100001,"N_COORD97":2555427.2837299998,"ADDRESS":"南洲２７號","OBJECTID":110351},"geometry":{"x":183791.29639100004,"y":2555427.2837279998}},{"attributes":{"ID":110352,"DIS_CODE":0,"TOWNNAME":"山上區","LI":"南洲里","LIN":"9鄰","STREET":" ","SECT":" ","MAREA":"南洲","LANE":" ","ALLEY":" ","HOUSE_NO":"２０８號","E_COORD97":183790.448902,"N_COORD97":2555558.4567399998,"ADDRESS":"南洲２０８號","OBJECTID":110352},"geometry":{"x":183790.44890199974,"y":2555558.456739001}},{"attributes":{"ID":110353,"DIS_CODE":0,"TOWNNAME":"山上區","LI":"南洲里","LIN":"9鄰","STREET":" ","SECT":" ","MAREA":"南洲","LANE":" ","ALLEY":" ","HOUSE_NO":"２１１號","E_COORD97":183817.23999999999,"N_COORD97":2555515.25,"ADDRESS":"南洲２１１號","OBJECTID":110353},"geometry":{"x":183817.24000000022,"y":2555515.25}},{"attributes":{"ID":110354,"DIS_CODE":0,"TOWNNAME":"山上區","LI":"新莊里","LIN":"9鄰","STREET":" ","SECT":" ","MAREA":"大庄","LANE":" ","ALLEY":" ","HOUSE_NO":"４６號","E_COORD97":183817.85999999999,"N_COORD97":2555093.25,"ADDRESS":"大庄４６號","OBJECTID":110354},"geometry":{"x":183817.86000000127,"y":2555093.2500000019}},{"attributes":{"ID":110355,"DIS_CODE":0,"TOWNNAME":"山上區","LI":"南洲里","LIN":"9鄰","STREET":" ","SECT":" ","MAREA":"南洲","LANE":" ","ALLEY":" ","HOUSE_NO":"２１２號","E_COORD97":183783.04000000001,"N_COORD97":2555493.25,"ADDRESS":"南洲２１２號","OBJECTID":110355},"geometry":{"x":183783.04000000004,"y":2555493.2500000019}},{"attributes":{"ID":110356,"DIS_CODE":0,"TOWNNAME":"山上區","LI":"南洲里","LIN":"9鄰","STREET":" ","SECT":" ","MAREA":"南洲","LANE":" ","ALLEY":" ","HOUSE_NO":"２０號","E_COORD97":183859.69,"N_COORD97":2555471.25,"ADDRESS":"南洲２０號","OBJECTID":110356},"geometry":{"x":183859.69000000134,"y":2555471.25}},{"attributes":{"ID":110357,"DIS_CODE":0,"TOWNNAME":"永康區","LI":"尚頂里","LIN":"9鄰","STREET":"正南一街","SECT":" ","MAREA":" ","LANE":"１２９巷","ALLEY":"３８弄","HOUSE_NO":"１３號","E_COORD97":170737.42999999999,"N_COORD97":2547205.04,"ADDRESS":"正南一街１２９巷３８弄１３號","OBJECTID":110357},"geometry":{"x":170737.4299999997,"y":2547205.0399999991}},{"attributes":{"ID":110358,"DIS_CODE":0,"TOWNNAME":"永康區","LI":"尚頂里","LIN":"9鄰","STREET":"正南一街","SECT":" ","MAREA":" ","LANE":"１２９巷","ALLEY":"３８弄","HOUSE_NO":"１８號","E_COORD97":170751.12,"N_COORD97":2547220.2999999998,"ADDRESS":"正南一街１２９巷３８弄１８號","OBJECTID":110358},"geometry":{"x":170751.12000000104,"y":2547220.3000000045}},{"attributes":{"ID":110359,"DIS_CODE":0,"TOWNNAME":"永康區","LI":"西橋里","LIN":"9鄰","STREET":"中華西街","SECT":" ","MAREA":" ","LANE":"１２７巷","ALLEY":"２７弄","HOUSE_NO":"１１號","E_COORD97":170597.75,"N_COORD97":2546119.02,"ADDRESS":"中華西街１２７巷２７弄１１號","OBJECTID":110359},"geometry":{"x":170597.75,"y":2546119.0200000033}},{"attributes":{"ID":110360,"DIS_CODE":0,"TOWNNAME":"南區","LI":"府南里","LIN":"9鄰","STREET":"金華路","SECT":"一段","MAREA":" ","LANE":"４８４巷","ALLEY":"２１７弄","HOUSE_NO":"１號","E_COORD97":167422.37,"N_COORD97":2541158.2799999998,"ADDRESS":"金華路一段４８４巷２１７弄１號","OBJECTID":110360},"geometry":{"x":167422.37000000011,"y":2541158.2800000012}},{"attributes":{"ID":110361,"DIS_CODE":0,"TOWNNAME":"南區","LI":"府南里","LIN":"9鄰","STREET":"金華路","SECT":"一段","MAREA":" ","LANE":"４８４巷","ALLEY":"２１７弄","HOUSE_NO":"３號","E_COORD97":167419.82999999999,"N_COORD97":2541162.8900000001,"ADDRESS":"金華路一段４８４巷２１７弄３號","OBJECTID":110361},"geometry":{"x":167419.83000000101,"y":2541162.8900000006}},{"attributes":{"ID":110362,"DIS_CODE":0,"TOWNNAME":"南區","LI":"府南里","LIN":"9鄰","STREET":"金華路","SECT":"一段","MAREA":" ","LANE":"４８４巷","ALLEY":"２１７弄","HOUSE_NO":"５號","E_COORD97":167418.09,"N_COORD97":2541166.7000000002,"ADDRESS":"金華路一段４８４巷２１７弄５號","OBJECTID":110362},"geometry":{"x":167418.09000000078,"y":2541166.6999999993}},{"attributes":{"ID":110363,"DIS_CODE":0,"TOWNNAME":"南區","LI":"府南里","LIN":"9鄰","STREET":"金華路","SECT":"一段","MAREA":" ","LANE":"４８４巷","ALLEY":"２１７弄","HOUSE_NO":"７號","E_COORD97":167415.85999999999,"N_COORD97":2541170.5099999998,"ADDRESS":"金華路一段４８４巷２１７弄７號","OBJECTID":110363},"geometry":{"x":167415.86000000034,"y":2541170.5100000016}},{"attributes":{"ID":110364,"DIS_CODE":0,"TOWNNAME":"南區","LI":"府南里","LIN":"9鄰","STREET":"金華路","SECT":"一段","MAREA":" ","LANE":"４８４巷","ALLEY":"２１７弄","HOUSE_NO":"９號","E_COORD97":167413.17000000001,"N_COORD97":2541175.1099999999,"ADDRESS":"金華路一段４８４巷２１７弄９號","OBJECTID":110364},"geometry":{"x":167413.16999999993,"y":2541175.1100000031}},{"attributes":{"ID":110365,"DIS_CODE":0,"TOWNNAME":"南區","LI":"府南里","LIN":"9鄰","STREET":"金華路","SECT":"一段","MAREA":" ","LANE":"４８４巷","ALLEY":"２１７弄","HOUSE_NO":"１１號","E_COORD97":167410.31,"N_COORD97":2541179.5600000001,"ADDRESS":"金華路一段４８４巷２１７弄１１號","OBJECTID":110365},"geometry":{"x":167410.30999999959,"y":2541179.5600000005}},{"attributes":{"ID":110366,"DIS_CODE":0,"TOWNNAME":"南區","LI":"府南里","LIN":"9鄰","STREET":"金華路","SECT":"一段","MAREA":" ","LANE":"４８４巷","ALLEY":"２１７弄","HOUSE_NO":"１３號","E_COORD97":167407.60999999999,"N_COORD97":2541184.3199999998,"ADDRESS":"金華路一段４８４巷２１７弄１３號","OBJECTID":110366},"geometry":{"x":167407.6099999994,"y":2541184.3200000003}},{"attributes":{"ID":110367,"DIS_CODE":0,"TOWNNAME":"南區","LI":"府南里","LIN":"9鄰","STREET":"金華路","SECT":"一段","MAREA":" ","LANE":"４８４巷","ALLEY":"２１７弄","HOUSE_NO":"１５號","E_COORD97":167404.91,"N_COORD97":2541190.0299999998,"ADDRESS":"金華路一段４８４巷２１７弄１５號","OBJECTID":110367},"geometry":{"x":167404.91000000015,"y":2541190.0300000012}},{"attributes":{"ID":110368,"DIS_CODE":0,"TOWNNAME":"南區","LI":"府南里","LIN":"9鄰","STREET":"金華路","SECT":"一段","MAREA":" ","LANE":"４８４巷","ALLEY":"２１７弄","HOUSE_NO":"１７號","E_COORD97":167402.20999999999,"N_COORD97":2541195.5899999999,"ADDRESS":"金華路一段４８４巷２１７弄１７號","OBJECTID":110368},"geometry":{"x":167402.21000000089,"y":2541195.5899999999}},{"attributes":{"ID":110369,"DIS_CODE":0,"TOWNNAME":"山上區","LI":"新莊里","LIN":"9鄰","STREET":" ","SECT":" ","MAREA":"大庄","LANE":" ","ALLEY":" ","HOUSE_NO":"４０號","E_COORD97":183842.16,"N_COORD97":2554969.25,"ADDRESS":"大庄４０號","OBJECTID":110369},"geometry":{"x":183842.16000000108,"y":2554969.25}},{"attributes":{"ID":110370,"DIS_CODE":0,"TOWNNAME":"南區","LI":"府南里","LIN":"9鄰","STREET":"金華路","SECT":"一段","MAREA":" ","LANE":"４８４巷","ALLEY":"２１７弄","HOUSE_NO":"１９號","E_COORD97":167419.67000000001,"N_COORD97":2541202.4199999999,"ADDRESS":"金華路一段４８４巷２１７弄１９號","OBJECTID":110370},"geometry":{"x":167419.66999999993,"y":2541202.4199999999}},{"attributes":{"ID":110371,"DIS_CODE":0,"TOWNNAME":"南區","LI":"府南里","LIN":"9鄰","STREET":"金華路","SECT":"一段","MAREA":" ","LANE":"４８４巷","ALLEY":"２１７弄","HOUSE_NO":"２１號","E_COORD97":167420.79000000001,"N_COORD97":2541194.7999999998,"ADDRESS":"金華路一段４８４巷２１７弄２１號","OBJECTID":110371},"geometry":{"x":167420.79000000004,"y":2541194.8000000007}},{"attributes":{"ID":110372,"DIS_CODE":0,"TOWNNAME":"南區","LI":"府南里","LIN":"9鄰","STREET":"金華路","SECT":"一段","MAREA":" ","LANE":"４８４巷","ALLEY":"２１７弄","HOUSE_NO":"２３號","E_COORD97":167423.48000000001,"N_COORD97":2541189.7200000002,"ADDRESS":"金華路一段４８４巷２１７弄２３號","OBJECTID":110372},"geometry":{"x":167423.48000000045,"y":2541189.7200000025}},{"attributes":{"ID":110373,"DIS_CODE":0,"TOWNNAME":"山上區","LI":"新莊里","LIN":"9鄰","STREET":" ","SECT":" ","MAREA":"大庄","LANE":" ","ALLEY":" ","HOUSE_NO":"５０之２號","E_COORD97":183468.66,"N_COORD97":2554816.2999999998,"ADDRESS":"大庄５０之２號","OBJECTID":110373},"geometry":{"x":183468.66000000015,"y":2554816.3000000007}},{"attributes":{"ID":110374,"DIS_CODE":0,"TOWNNAME":"山上區","LI":"新莊里","LIN":"9鄰","STREET":" ","SECT":" ","MAREA":"大庄","LANE":" ","ALLEY":" ","HOUSE_NO":"６６號","E_COORD97":182995.26000000001,"N_COORD97":2554421.25,"ADDRESS":"大庄６６號","OBJECTID":110374},"geometry":{"x":182995.26000000071,"y":2554421.2500000019}},{"attributes":{"ID":110375,"DIS_CODE":0,"TOWNNAME":"山上區","LI":"新莊里","LIN":"9鄰","STREET":" ","SECT":" ","MAREA":"大庄","LANE":" ","ALLEY":" ","HOUSE_NO":"４１號","E_COORD97":183873.45999999999,"N_COORD97":2554961.25,"ADDRESS":"大庄４１號","OBJECTID":110375},"geometry":{"x":183873.45999999996,"y":2554961.2500000019}},{"attributes":{"ID":110376,"DIS_CODE":0,"TOWNNAME":"山上區","LI":"南洲里","LIN":"9鄰","STREET":" ","SECT":" ","MAREA":"南洲","LANE":" ","ALLEY":" ","HOUSE_NO":"２０９之２號","E_COORD97":183774.64000000001,"N_COORD97":2555524.2999999998,"ADDRESS":"南洲２０９之２號","OBJECTID":110376},"geometry":{"x":183774.6400000006,"y":2555524.3000000026}},{"attributes":{"ID":110377,"DIS_CODE":0,"TOWNNAME":"山上區","LI":"南洲里","LIN":"9鄰","STREET":" ","SECT":" ","MAREA":"南洲","LANE":" ","ALLEY":" ","HOUSE_NO":"２０７之２號","E_COORD97":183819.34,"N_COORD97":2555562.2999999998,"ADDRESS":"南洲２０７之２號","OBJECTID":110377},"geometry":{"x":183819.33999999985,"y":2555562.3000000007}},{"attributes":{"ID":110378,"DIS_CODE":0,"TOWNNAME":"山上區","LI":"新莊里","LIN":"9鄰","STREET":" ","SECT":" ","MAREA":"大庄","LANE":" ","ALLEY":" ","HOUSE_NO":"４３之１號","E_COORD97":183394.06,"N_COORD97":2554685.2999999998,"ADDRESS":"大庄４３之１號","OBJECTID":110378},"geometry":{"x":183394.05999999959,"y":2554685.3000000007}},{"attributes":{"ID":110379,"DIS_CODE":0,"TOWNNAME":"山上區","LI":"南洲里","LIN":"9鄰","STREET":" ","SECT":" ","MAREA":"南洲","LANE":" ","ALLEY":" ","HOUSE_NO":"２１１號之６","E_COORD97":183800.88,"N_COORD97":2555509.2999999998,"ADDRESS":"南洲２１１號之６","OBJECTID":110379},"geometry":{"x":183800.87999999989,"y":2555509.3000000007}},{"attributes":{"ID":110380,"DIS_CODE":0,"TOWNNAME":"山上區","LI":"南洲里","LIN":"9鄰","STREET":" ","SECT":" ","MAREA":"南洲","LANE":" ","ALLEY":" ","HOUSE_NO":"１９號","E_COORD97":183867.39000000001,"N_COORD97":2555441.25,"ADDRESS":"南洲１９號","OBJECTID":110380},"geometry":{"x":183867.3900000006,"y":2555441.2500000037}},{"attributes":{"ID":110381,"DIS_CODE":0,"TOWNNAME":"山上區","LI":"新莊里","LIN":"9鄰","STREET":" ","SECT":" ","MAREA":"大庄","LANE":" ","ALLEY":" ","HOUSE_NO":"６５號","E_COORD97":182998.95999999999,"N_COORD97":2554426.25,"ADDRESS":"大庄６５號","OBJECTID":110381},"geometry":{"x":182998.96000000183,"y":2554426.25}},{"attributes":{"ID":110382,"DIS_CODE":0,"TOWNNAME":"山上區","LI":"新莊里","LIN":"9鄰","STREET":" ","SECT":" ","MAREA":"大庄","LANE":" ","ALLEY":" ","HOUSE_NO":"３１之１８號","E_COORD97":183805.41,"N_COORD97":2554947.2999999998,"ADDRESS":"大庄３１之１８號","OBJECTID":110382},"geometry":{"x":183805.41000000108,"y":2554947.3000000026}},{"attributes":{"ID":110383,"DIS_CODE":0,"TOWNNAME":"鹽水區","LI":"下林里","LIN":"1鄰","STREET":" ","SECT":" ","MAREA":"下林","LANE":" ","ALLEY":" ","HOUSE_NO":"４０號","E_COORD97":173317.97,"N_COORD97":2573546.6099999999,"ADDRESS":"下林４０號","OBJECTID":110383},"geometry":{"x":173317.97000000067,"y":2573546.6100000013}},{"attributes":{"ID":110384,"DIS_CODE":0,"TOWNNAME":"鹽水區","LI":"下林里","LIN":"1鄰","STREET":" ","SECT":" ","MAREA":"下林","LANE":" ","ALLEY":" ","HOUSE_NO":"４１號","E_COORD97":173311.95000000001,"N_COORD97":2573563.1600000001,"ADDRESS":"下林４１號","OBJECTID":110384},"geometry":{"x":173311.95000000112,"y":2573563.1600000001}},{"attributes":{"ID":110385,"DIS_CODE":0,"TOWNNAME":"鹽水區","LI":"下林里","LIN":"1鄰","STREET":" ","SECT":" ","MAREA":"下林","LANE":" ","ALLEY":" ","HOUSE_NO":"４３號","E_COORD97":173327.16,"N_COORD97":2573623.2400000002,"ADDRESS":"下林４３號","OBJECTID":110385},"geometry":{"x":173327.16000000108,"y":2573623.2400000002}},{"attributes":{"ID":110386,"DIS_CODE":0,"TOWNNAME":"鹽水區","LI":"大莊里","LIN":"1鄰","STREET":" ","SECT":" ","MAREA":"大莊","LANE":" ","ALLEY":" ","HOUSE_NO":"８４號","E_COORD97":172954.10999999999,"N_COORD97":2576601.9300000002,"ADDRESS":"大莊８４號","OBJECTID":110386},"geometry":{"x":172954.11000000034,"y":2576601.9299999997}},{"attributes":{"ID":110387,"DIS_CODE":0,"TOWNNAME":"鹽水區","LI":"大莊里","LIN":"1鄰","STREET":" ","SECT":" ","MAREA":"大莊","LANE":" ","ALLEY":" ","HOUSE_NO":"８５號","E_COORD97":172952.67000000001,"N_COORD97":2576588.71,"ADDRESS":"大莊８５號","OBJECTID":110387},"geometry":{"x":172952.66999999993,"y":2576588.7100000028}},{"attributes":{"ID":110388,"DIS_CODE":0,"TOWNNAME":"鹽水區","LI":"大豐里","LIN":"1鄰","STREET":" ","SECT":" ","MAREA":"大豐","LANE":" ","ALLEY":" ","HOUSE_NO":"２３號","E_COORD97":170516.82999999999,"N_COORD97":2573801.8599999999,"ADDRESS":"大豐２３號","OBJECTID":110388},"geometry":{"x":170516.83000000101,"y":2573801.8599999994}},{"attributes":{"ID":110389,"DIS_CODE":0,"TOWNNAME":"鹽水區","LI":"大豐里","LIN":"1鄰","STREET":" ","SECT":" ","MAREA":"大豐","LANE":" ","ALLEY":" ","HOUSE_NO":"２９號","E_COORD97":170469.34887300001,"N_COORD97":2573816.6568700001,"ADDRESS":"大豐２９號","OBJECTID":110389},"geometry":{"x":170469.34887299966,"y":2573816.6568659972}},{"attributes":{"ID":110390,"DIS_CODE":0,"TOWNNAME":"鹽水區","LI":"大豐里","LIN":"1鄰","STREET":" ","SECT":" ","MAREA":"大豐","LANE":" ","ALLEY":" ","HOUSE_NO":"３０號","E_COORD97":170458.97,"N_COORD97":2573804.8900000001,"ADDRESS":"大豐３０號","OBJECTID":110390},"geometry":{"x":170458.96999999974,"y":2573804.8900000025}},{"attributes":{"ID":110391,"DIS_CODE":0,"TOWNNAME":"鹽水區","LI":"大豐里","LIN":"1鄰","STREET":" ","SECT":" ","MAREA":"大豐","LANE":" ","ALLEY":" ","HOUSE_NO":"３３號","E_COORD97":170494.70999999999,"N_COORD97":2573788.73,"ADDRESS":"大豐３３號","OBJECTID":110391},"geometry":{"x":170494.70999999996,"y":2573788.7300000023}},{"attributes":{"ID":110392,"DIS_CODE":0,"TOWNNAME":"鹽水區","LI":"大豐里","LIN":"1鄰","STREET":" ","SECT":" ","MAREA":"大豐","LANE":" ","ALLEY":" ","HOUSE_NO":"３４號","E_COORD97":170476.91,"N_COORD97":2573790.4700000002,"ADDRESS":"大豐３４號","OBJECTID":110392},"geometry":{"x":170476.91000000015,"y":2573790.4700000025}},{"attributes":{"ID":110393,"DIS_CODE":0,"TOWNNAME":"鹽水區","LI":"大豐里","LIN":"1鄰","STREET":" ","SECT":" ","MAREA":"大豐","LANE":" ","ALLEY":" ","HOUSE_NO":"３５號","E_COORD97":170464.91,"N_COORD97":2573788.0800000001,"ADDRESS":"大豐３５號","OBJECTID":110393},"geometry":{"x":170464.91000000015,"y":2573788.0800000038}},{"attributes":{"ID":110394,"DIS_CODE":0,"TOWNNAME":"山上區","LI":"新莊里","LIN":"9鄰","STREET":" ","SECT":" ","MAREA":"大庄","LANE":" ","ALLEY":" ","HOUSE_NO":"５０之３號","E_COORD97":183322.35999999999,"N_COORD97":2554691.2999999998,"ADDRESS":"大庄５０之３號","OBJECTID":110394},"geometry":{"x":183322.36000000127,"y":2554691.3000000007}},{"attributes":{"ID":110395,"DIS_CODE":0,"TOWNNAME":"山上區","LI":"明和里","LIN":"9鄰","STREET":" ","SECT":" ","MAREA":"明和","LANE":" ","ALLEY":" ","HOUSE_NO":"１０９號","E_COORD97":183248.84,"N_COORD97":2556309.25,"ADDRESS":"明和１０９號","OBJECTID":110395},"geometry":{"x":183248.84000000171,"y":2556309.2500000037}},{"attributes":{"ID":110396,"DIS_CODE":0,"TOWNNAME":"山上區","LI":"新莊里","LIN":"9鄰","STREET":" ","SECT":" ","MAREA":"大庄","LANE":" ","ALLEY":" ","HOUSE_NO":"３１號之２","E_COORD97":183837.92999999999,"N_COORD97":2554872.2999999998,"ADDRESS":"大庄３１號之２","OBJECTID":110396},"geometry":{"x":183837.92999999877,"y":2554872.3000000045}},{"attributes":{"ID":110397,"DIS_CODE":0,"TOWNNAME":"山上區","LI":"新莊里","LIN":"9鄰","STREET":" ","SECT":" ","MAREA":"大庄","LANE":" ","ALLEY":" ","HOUSE_NO":"３１之５號","E_COORD97":183829.76000000001,"N_COORD97":2554876.2999999998,"ADDRESS":"大庄３１之５號","OBJECTID":110397},"geometry":{"x":183829.76000000071,"y":2554876.3000000026}},{"attributes":{"ID":110398,"DIS_CODE":0,"TOWNNAME":"山上區","LI":"新莊里","LIN":"9鄰","STREET":" ","SECT":" ","MAREA":"大庄","LANE":" ","ALLEY":" ","HOUSE_NO":"３１之７號","E_COORD97":183833.26000000001,"N_COORD97":2554890.2999999998,"ADDRESS":"大庄３１之７號","OBJECTID":110398},"geometry":{"x":183833.26000000071,"y":2554890.3000000026}},{"attributes":{"ID":110399,"DIS_CODE":0,"TOWNNAME":"山上區","LI":"新莊里","LIN":"9鄰","STREET":" ","SECT":" ","MAREA":"大庄","LANE":" ","ALLEY":" ","HOUSE_NO":"３４號","E_COORD97":183894.66,"N_COORD97":2554932.25,"ADDRESS":"大庄３４號","OBJECTID":110399},"geometry":{"x":183894.66000000201,"y":2554932.25}},{"attributes":{"ID":110400,"DIS_CODE":0,"TOWNNAME":"山上區","LI":"新莊里","LIN":"9鄰","STREET":" ","SECT":" ","MAREA":"大庄","LANE":" ","ALLEY":" ","HOUSE_NO":"３５之１號","E_COORD97":183907.95999999999,"N_COORD97":2554932.2999999998,"ADDRESS":"大庄３５之１號","OBJECTID":110400},"geometry":{"x":183907.96000000089,"y":2554932.3000000007}}]}