{"displayFieldName":"TOWNNAME","fieldAliases":{"ID":"ID","DIS_CODE":"DIS_CODE","TOWNNAME":"TOWNNAME","LI":"LI","LIN":"LIN","STREET":"STREET","SECT":"SECT","MAREA":"MAREA","LANE":"LANE","ALLEY":"ALLEY","HOUSE_NO":"HOUSE_NO","E_COORD97":"E_COORD97","N_COORD97":"N_COORD97","ADDRESS":"ADDRESS","OBJECTID":"OBJECTID"},"geometryType":"esriGeometryPoint","spatialReference":{"wkid":102443,"latestWkid":3826},"fields":[{"name":"ID","type":"esriFieldTypeDouble","alias":"ID"},{"name":"DIS_CODE","type":"esriFieldTypeInteger","alias":"DIS_CODE"},{"name":"TOWNNAME","type":"esriFieldTypeString","alias":"TOWNNAME","length":8},{"name":"LI","type":"esriFieldTypeString","alias":"LI","length":8},{"name":"LIN","type":"esriFieldTypeString","alias":"LIN","length":12},{"name":"STREET","type":"esriFieldTypeString","alias":"STREET","length":20},{"name":"SECT","type":"esriFieldTypeString","alias":"SECT","length":8},{"name":"MAREA","type":"esriFieldTypeString","alias":"MAREA","length":12},{"name":"LANE","type":"esriFieldTypeString","alias":"LANE","length":10},{"name":"ALLEY","type":"esriFieldTypeString","alias":"ALLEY","length":10},{"name":"HOUSE_NO","type":"esriFieldTypeString","alias":"HOUSE_NO","length":20},{"name":"E_COORD97","type":"esriFieldTypeDouble","alias":"E_COORD97"},{"name":"N_COORD97","type":"esriFieldTypeDouble","alias":"N_COORD97"},{"name":"ADDRESS","type":"esriFieldTypeString","alias":"ADDRESS","length":50},{"name":"OBJECTID","type":"esriFieldTypeOID","alias":"OBJECTID"}],"features":[{"attributes":{"ID":144001,"DIS_CODE":0,"TOWNNAME":"安定區","LI":"港口里","LIN":"18鄰","STREET":" ","SECT":" ","MAREA":"港口","LANE":" ","ALLEY":" ","HOUSE_NO":"３８１號","E_COORD97":171408.29000000001,"N_COORD97":2554990.25,"ADDRESS":"港口３８１號","OBJECTID":144001},"geometry":{"x":171408.29000000004,"y":2554990.2499999981}},{"attributes":{"ID":144002,"DIS_CODE":0,"TOWNNAME":"安定區","LI":"安加里","LIN":"13鄰","STREET":" ","SECT":" ","MAREA":"安定","LANE":" ","ALLEY":" ","HOUSE_NO":"２９４號","E_COORD97":171685.12,"N_COORD97":2557415.3199999998,"ADDRESS":"安定２９４號","OBJECTID":144002},"geometry":{"x":171685.12000000104,"y":2557415.3200000022}},{"attributes":{"ID":144003,"DIS_CODE":0,"TOWNNAME":"安定區","LI":"港口里","LIN":"13鄰","STREET":" ","SECT":" ","MAREA":"港口","LANE":" ","ALLEY":" ","HOUSE_NO":"３４５之１４號","E_COORD97":171188.54000000001,"N_COORD97":2554696.2999999998,"ADDRESS":"港口３４５之１４號","OBJECTID":144003},"geometry":{"x":171188.54000000097,"y":2554696.3000000026}},{"attributes":{"ID":144004,"DIS_CODE":0,"TOWNNAME":"安定區","LI":"保西里","LIN":"4鄰","STREET":" ","SECT":" ","MAREA":"安定","LANE":" ","ALLEY":" ","HOUSE_NO":"３５８號","E_COORD97":171708.22,"N_COORD97":2557719.3199999998,"ADDRESS":"安定３５８號","OBJECTID":144004},"geometry":{"x":171708.21999999974,"y":2557719.3199999984}},{"attributes":{"ID":144005,"DIS_CODE":0,"TOWNNAME":"安定區","LI":"中沙里","LIN":"4鄰","STREET":" ","SECT":" ","MAREA":"中崙","LANE":" ","ALLEY":" ","HOUSE_NO":"１３１號之２","E_COORD97":169116.48000000001,"N_COORD97":2553198.2999999998,"ADDRESS":"中崙１３１號之２","OBJECTID":144005},"geometry":{"x":169116.48000000138,"y":2553198.3000000026}},{"attributes":{"ID":144006,"DIS_CODE":0,"TOWNNAME":"永康區","LI":"五王里","LIN":"30鄰","STREET":"中山東路","SECT":" ","MAREA":" ","LANE":" ","ALLEY":" ","HOUSE_NO":"１４２號八樓之２","E_COORD97":171732.57999999999,"N_COORD97":2545856.3300000001,"ADDRESS":"中山東路１４２號八樓之２","OBJECTID":144006},"geometry":{"x":171732.58000000101,"y":2545856.3300000038}},{"attributes":{"ID":144007,"DIS_CODE":0,"TOWNNAME":"北區","LI":"正覺里","LIN":"3鄰","STREET":"西門路","SECT":"四段","MAREA":" ","LANE":"３８０巷","ALLEY":"２弄","HOUSE_NO":"５號","E_COORD97":169047.79999999999,"N_COORD97":2546087.1499999999,"ADDRESS":"西門路四段３８０巷２弄５號","OBJECTID":144007},"geometry":{"x":169047.79999999981,"y":2546087.1500000004}},{"attributes":{"ID":144008,"DIS_CODE":0,"TOWNNAME":"永康區","LI":"五王里","LIN":"30鄰","STREET":"中山東路","SECT":" ","MAREA":" ","LANE":" ","ALLEY":" ","HOUSE_NO":"１５８號五樓之１","E_COORD97":171741.81,"N_COORD97":2545814.4100000001,"ADDRESS":"中山東路１５８號五樓之１","OBJECTID":144008},"geometry":{"x":171741.81000000145,"y":2545814.4100000001}},{"attributes":{"ID":144009,"DIS_CODE":0,"TOWNNAME":"永康區","LI":"五王里","LIN":"30鄰","STREET":"中山東路","SECT":" ","MAREA":" ","LANE":" ","ALLEY":" ","HOUSE_NO":"１１６號七樓之６","E_COORD97":171734.70999999999,"N_COORD97":2545932.3300000001,"ADDRESS":"中山東路１１６號七樓之６","OBJECTID":144009},"geometry":{"x":171734.71000000089,"y":2545932.3300000019}},{"attributes":{"ID":144010,"DIS_CODE":0,"TOWNNAME":"永康區","LI":"五王里","LIN":"30鄰","STREET":"中山東路","SECT":" ","MAREA":" ","LANE":" ","ALLEY":" ","HOUSE_NO":"１４６號九樓之６","E_COORD97":171727.26999999999,"N_COORD97":2545875.5699999998,"ADDRESS":"中山東路１４６號九樓之６","OBJECTID":144010},"geometry":{"x":171727.27000000048,"y":2545875.5700000022}},{"attributes":{"ID":144011,"DIS_CODE":0,"TOWNNAME":"永康區","LI":"五王里","LIN":"30鄰","STREET":"中山東路","SECT":" ","MAREA":" ","LANE":" ","ALLEY":" ","HOUSE_NO":"１６０號八樓之５","E_COORD97":171737.57000000001,"N_COORD97":2545835.6499999999,"ADDRESS":"中山東路１６０號八樓之５","OBJECTID":144011},"geometry":{"x":171737.57000000216,"y":2545835.6500000022}},{"attributes":{"ID":144012,"DIS_CODE":0,"TOWNNAME":"永康區","LI":"永康里","LIN":"12鄰","STREET":"永中街","SECT":" ","MAREA":" ","LANE":" ","ALLEY":" ","HOUSE_NO":"２１號","E_COORD97":173865.32999999999,"N_COORD97":2547111.2400000002,"ADDRESS":"永中街２１號","OBJECTID":144012},"geometry":{"x":173865.33000000101,"y":2547111.2399999984}},{"attributes":{"ID":144013,"DIS_CODE":0,"TOWNNAME":"北區","LI":"正覺里","LIN":"3鄰","STREET":"西門路","SECT":"四段","MAREA":" ","LANE":"３８０巷","ALLEY":"２弄","HOUSE_NO":"７號","E_COORD97":169045.06,"N_COORD97":2546081.0800000001,"ADDRESS":"西門路四段３８０巷２弄７號","OBJECTID":144013},"geometry":{"x":169045.06000000052,"y":2546081.0800000001}},{"attributes":{"ID":144014,"DIS_CODE":0,"TOWNNAME":"北區","LI":"正覺里","LIN":"3鄰","STREET":"西門路","SECT":"四段","MAREA":" ","LANE":"３８０巷","ALLEY":"２弄","HOUSE_NO":"８號","E_COORD97":169028.73999999999,"N_COORD97":2546087.2599999998,"ADDRESS":"西門路四段３８０巷２弄８號","OBJECTID":144014},"geometry":{"x":169028.74000000022,"y":2546087.2600000035}},{"attributes":{"ID":144015,"DIS_CODE":0,"TOWNNAME":"歸仁區","LI":"七甲里","LIN":"3鄰","STREET":"中正北路","SECT":"二段","MAREA":" ","LANE":"５１６巷","ALLEY":"５２弄","HOUSE_NO":"１號","E_COORD97":177531.17000000001,"N_COORD97":2543209.2599999998,"ADDRESS":"中正北路二段５１６巷５２弄１號","OBJECTID":144015},"geometry":{"x":177531.17000000086,"y":2543209.2600000016}},{"attributes":{"ID":144016,"DIS_CODE":0,"TOWNNAME":"歸仁區","LI":"大潭里","LIN":"3鄰","STREET":"大潭一街","SECT":" ","MAREA":" ","LANE":"５１巷","ALLEY":"７６弄","HOUSE_NO":"８０號","E_COORD97":175484.47,"N_COORD97":2534725.25,"ADDRESS":"大潭一街５１巷７６弄８０號","OBJECTID":144016},"geometry":{"x":175484.47000000067,"y":2534725.25}},{"attributes":{"ID":144017,"DIS_CODE":0,"TOWNNAME":"永康區","LI":"永康里","LIN":"36鄰","STREET":"永平街","SECT":" ","MAREA":" ","LANE":" ","ALLEY":" ","HOUSE_NO":"６０號","E_COORD97":174366.76999999999,"N_COORD97":2546858.1800000002,"ADDRESS":"永平街６０號","OBJECTID":144017},"geometry":{"x":174366.77000000048,"y":2546858.1800000016}},{"attributes":{"ID":144018,"DIS_CODE":0,"TOWNNAME":"歸仁區","LI":"大潭里","LIN":"3鄰","STREET":"大潭一街","SECT":" ","MAREA":" ","LANE":"５１巷","ALLEY":"７６弄","HOUSE_NO":"１６號","E_COORD97":175377.67000000001,"N_COORD97":2534711.25,"ADDRESS":"大潭一街５１巷７６弄１６號","OBJECTID":144018},"geometry":{"x":175377.67000000179,"y":2534711.25}},{"attributes":{"ID":144019,"DIS_CODE":0,"TOWNNAME":"歸仁區","LI":"大潭里","LIN":"3鄰","STREET":"大潭一街","SECT":" ","MAREA":" ","LANE":"５１巷","ALLEY":"７６弄","HOUSE_NO":"８２號","E_COORD97":175476.37,"N_COORD97":2534752.25,"ADDRESS":"大潭一街５１巷７６弄８２號","OBJECTID":144019},"geometry":{"x":175476.36999999918,"y":2534752.25}},{"attributes":{"ID":144020,"DIS_CODE":0,"TOWNNAME":"歸仁區","LI":"七甲里","LIN":"3鄰","STREET":"中正北路","SECT":"二段","MAREA":" ","LANE":"５１６巷","ALLEY":"５２弄","HOUSE_NO":"１５號","E_COORD97":177561.12,"N_COORD97":2543201.2599999998,"ADDRESS":"中正北路二段５１６巷５２弄１５號","OBJECTID":144020},"geometry":{"x":177561.12000000011,"y":2543201.2599999998}},{"attributes":{"ID":144021,"DIS_CODE":0,"TOWNNAME":"歸仁區","LI":"大潭里","LIN":"3鄰","STREET":"大潭一街","SECT":" ","MAREA":" ","LANE":"５１巷","ALLEY":"７６弄","HOUSE_NO":"１５號","E_COORD97":175371.67000000001,"N_COORD97":2534742.25,"ADDRESS":"大潭一街５１巷７６弄１５號","OBJECTID":144021},"geometry":{"x":175371.67000000086,"y":2534742.25}},{"attributes":{"ID":144022,"DIS_CODE":0,"TOWNNAME":"南區","LI":"大成里","LIN":"3鄰","STREET":"西門路","SECT":"一段","MAREA":" ","LANE":"３８０巷","ALLEY":"２弄","HOUSE_NO":"１１號","E_COORD97":167813.5,"N_COORD97":2542366.4700000002,"ADDRESS":"西門路一段３８０巷２弄１１號","OBJECTID":144022},"geometry":{"x":167813.50000000093,"y":2542366.4700000007}},{"attributes":{"ID":144023,"DIS_CODE":0,"TOWNNAME":"永康區","LI":"永康里","LIN":"25鄰","STREET":"埔聖街","SECT":" ","MAREA":" ","LANE":" ","ALLEY":" ","HOUSE_NO":"１６０號","E_COORD97":174102.82000000001,"N_COORD97":2547621.8900000001,"ADDRESS":"埔聖街１６０號","OBJECTID":144023},"geometry":{"x":174102.82000000123,"y":2547621.8900000006}},{"attributes":{"ID":144024,"DIS_CODE":0,"TOWNNAME":"永康區","LI":"五王里","LIN":"30鄰","STREET":"中山東路","SECT":" ","MAREA":" ","LANE":" ","ALLEY":" ","HOUSE_NO":"１５８號九樓之５","E_COORD97":171741.95999999999,"N_COORD97":2545814.4100000001,"ADDRESS":"中山東路１５８號九樓之５","OBJECTID":144024},"geometry":{"x":171741.96000000089,"y":2545814.4100000001}},{"attributes":{"ID":144025,"DIS_CODE":0,"TOWNNAME":"永康區","LI":"\u25A0行里","LIN":"30鄰","STREET":"新行街","SECT":" ","MAREA":" ","LANE":" ","ALLEY":" ","HOUSE_NO":"１２８號四樓之１","E_COORD97":172350.47,"N_COORD97":2549055.1400000001,"ADDRESS":"新行街１２８號四樓之１","OBJECTID":144025},"geometry":{"x":172350.46999999974,"y":2549055.1400000043}},{"attributes":{"ID":144026,"DIS_CODE":0,"TOWNNAME":"安定區","LI":"六嘉里","LIN":"4鄰","STREET":" ","SECT":" ","MAREA":"六塊寮","LANE":" ","ALLEY":" ","HOUSE_NO":"３０之６號","E_COORD97":169749.35999999999,"N_COORD97":2553275.2999999998,"ADDRESS":"六塊寮３０號之６","OBJECTID":144026},"geometry":{"x":169749.36000000127,"y":2553275.3000000045}},{"attributes":{"ID":144027,"DIS_CODE":0,"TOWNNAME":"安定區","LI":"中沙里","LIN":"4鄰","STREET":" ","SECT":" ","MAREA":"中崙","LANE":" ","ALLEY":" ","HOUSE_NO":"１１５號","E_COORD97":168960.70999999999,"N_COORD97":2553193.25,"ADDRESS":"中崙１１５號","OBJECTID":144027},"geometry":{"x":168960.70999999996,"y":2553193.25}},{"attributes":{"ID":144028,"DIS_CODE":0,"TOWNNAME":"安定區","LI":"港口里","LIN":"20鄰","STREET":" ","SECT":" ","MAREA":"港口","LANE":" ","ALLEY":" ","HOUSE_NO":"３９９之４５號","E_COORD97":171636.94,"N_COORD97":2554984.2999999998,"ADDRESS":"港口３９９之４５號","OBJECTID":144028},"geometry":{"x":171636.94000000134,"y":2554984.3000000045}},{"attributes":{"ID":144029,"DIS_CODE":0,"TOWNNAME":"安定區","LI":"港口里","LIN":"20鄰","STREET":" ","SECT":" ","MAREA":"港口","LANE":" ","ALLEY":" ","HOUSE_NO":"３９９之２０號","E_COORD97":171598.44,"N_COORD97":2554943.2999999998,"ADDRESS":"港口３９９之２０號","OBJECTID":144029},"geometry":{"x":171598.44000000134,"y":2554943.3000000045}},{"attributes":{"ID":144030,"DIS_CODE":0,"TOWNNAME":"安定區","LI":"大同里","LIN":"14鄰","STREET":" ","SECT":" ","MAREA":"牛肉寮","LANE":" ","ALLEY":" ","HOUSE_NO":"６９號","E_COORD97":170897.82000000001,"N_COORD97":2552862.25,"ADDRESS":"牛肉寮６９號","OBJECTID":144030},"geometry":{"x":170897.8200000003,"y":2552862.2500000019}},{"attributes":{"ID":144031,"DIS_CODE":0,"TOWNNAME":"安定區","LI":"港尾里","LIN":"8鄰","STREET":" ","SECT":" ","MAREA":"港子尾","LANE":" ","ALLEY":" ","HOUSE_NO":"５１號","E_COORD97":171621.59,"N_COORD97":2555942.2599999998,"ADDRESS":"港子尾５１號","OBJECTID":144031},"geometry":{"x":171621.59000000171,"y":2555942.2599999998}},{"attributes":{"ID":144032,"DIS_CODE":0,"TOWNNAME":"安定區","LI":"中榮里","LIN":"8鄰","STREET":" ","SECT":" ","MAREA":"許中營","LANE":" ","ALLEY":" ","HOUSE_NO":"７０號","E_COORD97":172302.34,"N_COORD97":2555126.25,"ADDRESS":"許中營７０號","OBJECTID":144032},"geometry":{"x":172302.33999999985,"y":2555126.2500000037}},{"attributes":{"ID":144033,"DIS_CODE":0,"TOWNNAME":"安定區","LI":"港口里","LIN":"15鄰","STREET":" ","SECT":" ","MAREA":"港口","LANE":" ","ALLEY":" ","HOUSE_NO":"３４９號","E_COORD97":171240.39000000001,"N_COORD97":2554743.25,"ADDRESS":"港口３４９號","OBJECTID":144033},"geometry":{"x":171240.3900000006,"y":2554743.2500000019}},{"attributes":{"ID":144034,"DIS_CODE":0,"TOWNNAME":"安定區","LI":"保西里","LIN":"4鄰","STREET":" ","SECT":" ","MAREA":"安定","LANE":" ","ALLEY":" ","HOUSE_NO":"３６２號","E_COORD97":171668.51999999999,"N_COORD97":2557712.3199999998,"ADDRESS":"安定３６２號","OBJECTID":144034},"geometry":{"x":171668.51999999955,"y":2557712.3200000003}},{"attributes":{"ID":144035,"DIS_CODE":0,"TOWNNAME":"安定區","LI":"港尾里","LIN":"4鄰","STREET":" ","SECT":" ","MAREA":"港子尾","LANE":" ","ALLEY":" ","HOUSE_NO":"１０之５號","E_COORD97":171610.48999999999,"N_COORD97":2556125.2999999998,"ADDRESS":"港子尾１０之５號","OBJECTID":144035},"geometry":{"x":171610.49000000022,"y":2556125.3000000007}},{"attributes":{"ID":144036,"DIS_CODE":0,"TOWNNAME":"安定區","LI":"大同里","LIN":"14鄰","STREET":" ","SECT":" ","MAREA":"牛肉寮","LANE":" ","ALLEY":" ","HOUSE_NO":"７０號","E_COORD97":170900.72,"N_COORD97":2552866.25,"ADDRESS":"牛肉寮７０號","OBJECTID":144036},"geometry":{"x":170900.72000000067,"y":2552866.2500000019}},{"attributes":{"ID":144037,"DIS_CODE":0,"TOWNNAME":"安定區","LI":"安定里","LIN":"8鄰","STREET":" ","SECT":" ","MAREA":"安定","LANE":" ","ALLEY":" ","HOUSE_NO":"５８之５２號","E_COORD97":171898.72,"N_COORD97":2558064.3199999998,"ADDRESS":"安定５８之５２號","OBJECTID":144037},"geometry":{"x":171898.72000000067,"y":2558064.3200000003}},{"attributes":{"ID":144038,"DIS_CODE":0,"TOWNNAME":"南區","LI":"大成里","LIN":"3鄰","STREET":"西門路","SECT":"一段","MAREA":" ","LANE":"３８０巷","ALLEY":"２弄","HOUSE_NO":"１３號","E_COORD97":167817.91,"N_COORD97":2542366.29,"ADDRESS":"西門路一段３８０巷２弄１３號","OBJECTID":144038},"geometry":{"x":167817.91000000108,"y":2542366.2899999991}},{"attributes":{"ID":144039,"DIS_CODE":0,"TOWNNAME":"永康區","LI":"西灣里","LIN":"26鄰","STREET":"大勇路","SECT":" ","MAREA":" ","LANE":" ","ALLEY":" ","HOUSE_NO":"１３８號","E_COORD97":174294.60000000001,"N_COORD97":2545667.9199999999,"ADDRESS":"大勇路１３８號","OBJECTID":144039},"geometry":{"x":174294.60000000149,"y":2545667.9199999999}},{"attributes":{"ID":144040,"DIS_CODE":0,"TOWNNAME":"永康區","LI":"永康里","LIN":"35鄰","STREET":"大同街","SECT":" ","MAREA":" ","LANE":" ","ALLEY":" ","HOUSE_NO":"９３２號","E_COORD97":174436.89000000001,"N_COORD97":2547002.9399999999,"ADDRESS":"大同街９３２號","OBJECTID":144040},"geometry":{"x":174436.8900000006,"y":2547002.9399999995}},{"attributes":{"ID":144041,"DIS_CODE":0,"TOWNNAME":"永康區","LI":"西灣里","LIN":"35鄰","STREET":"大勇路","SECT":" ","MAREA":" ","LANE":" ","ALLEY":" ","HOUSE_NO":"１６１號","E_COORD97":174282.69,"N_COORD97":2545704.0899999999,"ADDRESS":"大勇路１６１號","OBJECTID":144041},"geometry":{"x":174282.69000000041,"y":2545704.0899999999}},{"attributes":{"ID":144042,"DIS_CODE":0,"TOWNNAME":"永康區","LI":"永康里","LIN":"11鄰","STREET":"永平街","SECT":" ","MAREA":" ","LANE":" ","ALLEY":" ","HOUSE_NO":"４１號","E_COORD97":173648.03,"N_COORD97":2547119.8900000001,"ADDRESS":"永平街４１號","OBJECTID":144042},"geometry":{"x":173648.02999999933,"y":2547119.8900000006}},{"attributes":{"ID":144043,"DIS_CODE":0,"TOWNNAME":"南區","LI":"大成里","LIN":"3鄰","STREET":"西門路","SECT":"一段","MAREA":" ","LANE":"３８０巷","ALLEY":"２弄","HOUSE_NO":"１５號","E_COORD97":167822.14000000001,"N_COORD97":2542366.1200000001,"ADDRESS":"西門路一段３８０巷２弄１５號","OBJECTID":144043},"geometry":{"x":167822.14000000153,"y":2542366.120000001}},{"attributes":{"ID":144044,"DIS_CODE":0,"TOWNNAME":"南區","LI":"大成里","LIN":"3鄰","STREET":"西門路","SECT":"一段","MAREA":" ","LANE":"３８０巷","ALLEY":"２弄","HOUSE_NO":"１７號","E_COORD97":167826.72,"N_COORD97":2542366.29,"ADDRESS":"西門路一段３８０巷２弄１７號","OBJECTID":144044},"geometry":{"x":167826.7200000016,"y":2542366.2899999991}},{"attributes":{"ID":144045,"DIS_CODE":0,"TOWNNAME":"南區","LI":"大成里","LIN":"3鄰","STREET":"西門路","SECT":"一段","MAREA":" ","LANE":"３８０巷","ALLEY":"２弄","HOUSE_NO":"１９號","E_COORD97":167831.48000000001,"N_COORD97":2542366.29,"ADDRESS":"西門路一段３８０巷２弄１９號","OBJECTID":144045},"geometry":{"x":167831.48000000138,"y":2542366.2899999991}},{"attributes":{"ID":144046,"DIS_CODE":0,"TOWNNAME":"南區","LI":"大成里","LIN":"3鄰","STREET":"西門路","SECT":"一段","MAREA":" ","LANE":"３８０巷","ALLEY":"２弄","HOUSE_NO":"１號","E_COORD97":167790.22,"N_COORD97":2542366.54,"ADDRESS":"西門路一段３８０巷２弄１號","OBJECTID":144046},"geometry":{"x":167790.22000000067,"y":2542366.540000001}},{"attributes":{"ID":144047,"DIS_CODE":0,"TOWNNAME":"安定區","LI":"安定里","LIN":"8鄰","STREET":" ","SECT":" ","MAREA":"安定","LANE":" ","ALLEY":" ","HOUSE_NO":"５８號","E_COORD97":171887.17000000001,"N_COORD97":2557991.3199999998,"ADDRESS":"安定５８號","OBJECTID":144047},"geometry":{"x":171887.16999999899,"y":2557991.3200000022}},{"attributes":{"ID":144048,"DIS_CODE":0,"TOWNNAME":"南區","LI":"大成里","LIN":"3鄰","STREET":"西門路","SECT":"一段","MAREA":" ","LANE":"３８０巷","ALLEY":"２弄","HOUSE_NO":"２１號","E_COORD97":167836.07000000001,"N_COORD97":2542366.1200000001,"ADDRESS":"西門路一段３８０巷２弄２１號","OBJECTID":144048},"geometry":{"x":167836.0700000003,"y":2542366.120000001}},{"attributes":{"ID":144049,"DIS_CODE":0,"TOWNNAME":"南區","LI":"大成里","LIN":"3鄰","STREET":"西門路","SECT":"一段","MAREA":" ","LANE":"３８０巷","ALLEY":"２弄","HOUSE_NO":"２３號","E_COORD97":167840.60999999999,"N_COORD97":2542366.3900000001,"ADDRESS":"西門路一段３８０巷２弄２３號","OBJECTID":144049},"geometry":{"x":167840.61000000127,"y":2542366.3900000006}},{"attributes":{"ID":144050,"DIS_CODE":0,"TOWNNAME":"南區","LI":"大成里","LIN":"3鄰","STREET":"西門路","SECT":"一段","MAREA":" ","LANE":"３８０巷","ALLEY":"２弄","HOUSE_NO":"２８號","E_COORD97":167790.75,"N_COORD97":2542345.3999999999,"ADDRESS":"西門路一段３８０巷２弄２８號","OBJECTID":144050},"geometry":{"x":167790.75,"y":2542345.4000000004}},{"attributes":{"ID":144051,"DIS_CODE":0,"TOWNNAME":"南區","LI":"大成里","LIN":"3鄰","STREET":"西門路","SECT":"一段","MAREA":" ","LANE":"３８０巷","ALLEY":"２弄","HOUSE_NO":"３０號","E_COORD97":167795.35999999999,"N_COORD97":2542345.3999999999,"ADDRESS":"西門路一段３８０巷２弄３０號","OBJECTID":144051},"geometry":{"x":167795.36000000034,"y":2542345.4000000004}},{"attributes":{"ID":144052,"DIS_CODE":0,"TOWNNAME":"南區","LI":"大成里","LIN":"3鄰","STREET":"西門路","SECT":"一段","MAREA":" ","LANE":"３８０巷","ALLEY":"２弄","HOUSE_NO":"３２號","E_COORD97":167800.17000000001,"N_COORD97":2542345.3999999999,"ADDRESS":"西門路一段３８０巷２弄３２號","OBJECTID":144052},"geometry":{"x":167800.17000000179,"y":2542345.4000000004}},{"attributes":{"ID":144053,"DIS_CODE":0,"TOWNNAME":"南區","LI":"大成里","LIN":"3鄰","STREET":"西門路","SECT":"一段","MAREA":" ","LANE":"３８０巷","ALLEY":"２弄","HOUSE_NO":"３４號","E_COORD97":167804.78,"N_COORD97":2542345.3999999999,"ADDRESS":"西門路一段３８０巷２弄３４號","OBJECTID":144053},"geometry":{"x":167804.78000000212,"y":2542345.4000000004}},{"attributes":{"ID":144054,"DIS_CODE":0,"TOWNNAME":"南區","LI":"大成里","LIN":"3鄰","STREET":"西門路","SECT":"一段","MAREA":" ","LANE":"３８０巷","ALLEY":"２弄","HOUSE_NO":"３６號","E_COORD97":167808.85000000001,"N_COORD97":2542345.3999999999,"ADDRESS":"西門路一段３８０巷２弄３６號","OBJECTID":144054},"geometry":{"x":167808.85000000149,"y":2542345.4000000004}},{"attributes":{"ID":144055,"DIS_CODE":0,"TOWNNAME":"南區","LI":"大成里","LIN":"3鄰","STREET":"西門路","SECT":"一段","MAREA":" ","LANE":"３８０巷","ALLEY":"２弄","HOUSE_NO":"３８號","E_COORD97":167813.45999999999,"N_COORD97":2542345.3999999999,"ADDRESS":"西門路一段３８０巷２弄３８號","OBJECTID":144055},"geometry":{"x":167813.46000000183,"y":2542345.4000000004}},{"attributes":{"ID":144056,"DIS_CODE":0,"TOWNNAME":"南區","LI":"大成里","LIN":"3鄰","STREET":"西門路","SECT":"一段","MAREA":" ","LANE":"３８０巷","ALLEY":"２弄","HOUSE_NO":"３號","E_COORD97":167794.81,"N_COORD97":2542366.54,"ADDRESS":"西門路一段３８０巷２弄３號","OBJECTID":144056},"geometry":{"x":167794.80999999959,"y":2542366.540000001}},{"attributes":{"ID":144057,"DIS_CODE":0,"TOWNNAME":"南區","LI":"大成里","LIN":"3鄰","STREET":"西門路","SECT":"一段","MAREA":" ","LANE":"３８０巷","ALLEY":"２弄","HOUSE_NO":"４０號","E_COORD97":167817.89999999999,"N_COORD97":2542345.5800000001,"ADDRESS":"西門路一段３８０巷２弄４０號","OBJECTID":144057},"geometry":{"x":167817.9000000013,"y":2542345.5800000038}},{"attributes":{"ID":144058,"DIS_CODE":0,"TOWNNAME":"南區","LI":"大成里","LIN":"3鄰","STREET":"西門路","SECT":"一段","MAREA":" ","LANE":"３８０巷","ALLEY":"２弄","HOUSE_NO":"４２號","E_COORD97":167822.32999999999,"N_COORD97":2542345.5800000001,"ADDRESS":"西門路一段３８０巷２弄４２號","OBJECTID":144058},"geometry":{"x":167822.33000000007,"y":2542345.5800000038}},{"attributes":{"ID":144059,"DIS_CODE":0,"TOWNNAME":"南區","LI":"大成里","LIN":"3鄰","STREET":"西門路","SECT":"一段","MAREA":" ","LANE":"３８０巷","ALLEY":"２弄","HOUSE_NO":"４４號","E_COORD97":167826.95000000001,"N_COORD97":2542345.21,"ADDRESS":"西門路一段３８０巷２弄４４號","OBJECTID":144059},"geometry":{"x":167826.95000000019,"y":2542345.2100000009}},{"attributes":{"ID":144060,"DIS_CODE":0,"TOWNNAME":"佳里區","LI":"安西里","LIN":" ","STREET":"忠孝路","SECT":" ","MAREA":" ","LANE":" ","ALLEY":" ","HOUSE_NO":"１５４號","E_COORD97":165170.57999999999,"N_COORD97":2563228.8599999999,"ADDRESS":"忠孝路１５４號","OBJECTID":144060},"geometry":{"x":165170.58000000101,"y":2563228.8600000013}},{"attributes":{"ID":144061,"DIS_CODE":0,"TOWNNAME":"永康區","LI":"永康里","LIN":"38鄰","STREET":"永大路","SECT":"二段","MAREA":" ","LANE":" ","ALLEY":" ","HOUSE_NO":"１１７０號","E_COORD97":174381.16,"N_COORD97":2546670.5600000001,"ADDRESS":"永大路二段１１７０號","OBJECTID":144061},"geometry":{"x":174381.16000000201,"y":2546670.5600000024}},{"attributes":{"ID":144062,"DIS_CODE":0,"TOWNNAME":"永康區","LI":"永康里","LIN":"35鄰","STREET":"大同街","SECT":" ","MAREA":" ","LANE":" ","ALLEY":" ","HOUSE_NO":"９１０號","E_COORD97":174455.48999999999,"N_COORD97":2546964.1200000001,"ADDRESS":"大同街９１０號","OBJECTID":144062},"geometry":{"x":174455.49000000115,"y":2546964.1200000048}},{"attributes":{"ID":144063,"DIS_CODE":0,"TOWNNAME":"新化區","LI":"武安里","LIN":"4鄰","STREET":"中正路","SECT":" ","MAREA":" ","LANE":" ","ALLEY":" ","HOUSE_NO":"３２９號之１","E_COORD97":179116.73999999999,"N_COORD97":2548187.2599999998,"ADDRESS":"中正路３２９號之１","OBJECTID":144063},"geometry":{"x":179116.74000000022,"y":2548187.2600000016}},{"attributes":{"ID":144064,"DIS_CODE":0,"TOWNNAME":"安定區","LI":"海寮里","LIN":"8鄰","STREET":" ","SECT":" ","MAREA":"海寮","LANE":" ","ALLEY":" ","HOUSE_NO":"７７之１號","E_COORD97":169334.98999999999,"N_COORD97":2555424.2999999998,"ADDRESS":"海寮７７之１號","OBJECTID":144064},"geometry":{"x":169334.99000000022,"y":2555424.3000000007}},{"attributes":{"ID":144065,"DIS_CODE":0,"TOWNNAME":"安定區","LI":"六嘉里","LIN":"4鄰","STREET":" ","SECT":" ","MAREA":"六塊寮","LANE":" ","ALLEY":" ","HOUSE_NO":"２７之６號","E_COORD97":169946.42000000001,"N_COORD97":2553498.2999999998,"ADDRESS":"六塊寮２７之６號","OBJECTID":144065},"geometry":{"x":169946.42000000086,"y":2553498.3000000007}},{"attributes":{"ID":144066,"DIS_CODE":0,"TOWNNAME":"安定區","LI":"六嘉里","LIN":"4鄰","STREET":" ","SECT":" ","MAREA":"六塊寮","LANE":" ","ALLEY":" ","HOUSE_NO":"２８之６號","E_COORD97":170001.72,"N_COORD97":2553490.2999999998,"ADDRESS":"六塊寮２８之６號","OBJECTID":144066},"geometry":{"x":170001.7200000016,"y":2553490.3000000026}},{"attributes":{"ID":144067,"DIS_CODE":0,"TOWNNAME":"安定區","LI":"六嘉里","LIN":"4鄰","STREET":" ","SECT":" ","MAREA":"六塊寮","LANE":" ","ALLEY":" ","HOUSE_NO":"３０之１５號","E_COORD97":169878.37,"N_COORD97":2553258.2999999998,"ADDRESS":"六塊寮３０之１５號","OBJECTID":144067},"geometry":{"x":169878.37000000011,"y":2553258.3000000045}},{"attributes":{"ID":144068,"DIS_CODE":0,"TOWNNAME":"安定區","LI":"港口里","LIN":"18鄰","STREET":" ","SECT":" ","MAREA":"港口","LANE":" ","ALLEY":" ","HOUSE_NO":"３８２號之４","E_COORD97":171419.95000000001,"N_COORD97":2555042.2999999998,"ADDRESS":"港口３８２號之４","OBJECTID":144068},"geometry":{"x":171419.95000000112,"y":2555042.3000000026}},{"attributes":{"ID":144069,"DIS_CODE":0,"TOWNNAME":"安定區","LI":"海寮里","LIN":"18鄰","STREET":" ","SECT":" ","MAREA":"海寮","LANE":" ","ALLEY":" ","HOUSE_NO":"１７３之２號","E_COORD97":169343.73999999999,"N_COORD97":2555517.2999999998,"ADDRESS":"海寮１７３之２號","OBJECTID":144069},"geometry":{"x":169343.74000000022,"y":2555517.3000000026}},{"attributes":{"ID":144070,"DIS_CODE":0,"TOWNNAME":"南區","LI":"大成里","LIN":"3鄰","STREET":"西門路","SECT":"一段","MAREA":" ","LANE":"３８０巷","ALLEY":"２弄","HOUSE_NO":"４６號","E_COORD97":167831.38,"N_COORD97":2542345.3999999999,"ADDRESS":"西門路一段３８０巷２弄４６號","OBJECTID":144070},"geometry":{"x":167831.38000000082,"y":2542345.4000000004}},{"attributes":{"ID":144071,"DIS_CODE":0,"TOWNNAME":"南區","LI":"大成里","LIN":"3鄰","STREET":"西門路","SECT":"一段","MAREA":" ","LANE":"３８０巷","ALLEY":"２弄","HOUSE_NO":"４８號","E_COORD97":167835.63,"N_COORD97":2542345.3999999999,"ADDRESS":"西門路一段３８０巷２弄４８號","OBJECTID":144071},"geometry":{"x":167835.62999999989,"y":2542345.4000000004}},{"attributes":{"ID":144072,"DIS_CODE":0,"TOWNNAME":"永康區","LI":"崑山里","LIN":"30鄰","STREET":"大仁街","SECT":" ","MAREA":" ","LANE":" ","ALLEY":" ","HOUSE_NO":"９２號","E_COORD97":173850.92000000001,"N_COORD97":2544786.3700000001,"ADDRESS":"大仁街９２號","OBJECTID":144072},"geometry":{"x":173850.92000000086,"y":2544786.3700000029}},{"attributes":{"ID":144073,"DIS_CODE":0,"TOWNNAME":"南區","LI":"大成里","LIN":"3鄰","STREET":"西門路","SECT":"一段","MAREA":" ","LANE":"３８０巷","ALLEY":"２弄","HOUSE_NO":"５０號","E_COORD97":167840.79999999999,"N_COORD97":2542345.3999999999,"ADDRESS":"西門路一段３８０巷２弄５０號","OBJECTID":144073},"geometry":{"x":167840.79999999981,"y":2542345.4000000004}},{"attributes":{"ID":144074,"DIS_CODE":0,"TOWNNAME":"永康區","LI":"大灣里","LIN":"30鄰","STREET":"民族路","SECT":" ","MAREA":" ","LANE":" ","ALLEY":" ","HOUSE_NO":"１０４號","E_COORD97":175322.47,"N_COORD97":2544843.5299999998,"ADDRESS":"民族路１０４號","OBJECTID":144074},"geometry":{"x":175322.46999999974,"y":2544843.5299999993}},{"attributes":{"ID":144075,"DIS_CODE":0,"TOWNNAME":"永康區","LI":"大橋里","LIN":"30鄰","STREET":"大橋一街","SECT":" ","MAREA":" ","LANE":" ","ALLEY":" ","HOUSE_NO":"２７８號","E_COORD97":171145.54000000001,"N_COORD97":2546553.25,"ADDRESS":"大橋一街２７８號","OBJECTID":144075},"geometry":{"x":171145.54000000004,"y":2546553.2500000019}},{"attributes":{"ID":144076,"DIS_CODE":0,"TOWNNAME":"南區","LI":"大成里","LIN":"3鄰","STREET":"西門路","SECT":"一段","MAREA":" ","LANE":"３８０巷","ALLEY":"２弄","HOUSE_NO":"５號","E_COORD97":167799.39000000001,"N_COORD97":2542366.4700000002,"ADDRESS":"西門路一段３８０巷２弄５號","OBJECTID":144076},"geometry":{"x":167799.38999999966,"y":2542366.4700000007}},{"attributes":{"ID":144077,"DIS_CODE":0,"TOWNNAME":"南區","LI":"大成里","LIN":"3鄰","STREET":"西門路","SECT":"一段","MAREA":" ","LANE":"３８０巷","ALLEY":"２弄","HOUSE_NO":"７號","E_COORD97":167804.32999999999,"N_COORD97":2542366.6400000001,"ADDRESS":"西門路一段３８０巷２弄７號","OBJECTID":144077},"geometry":{"x":167804.33000000194,"y":2542366.6400000025}},{"attributes":{"ID":144078,"DIS_CODE":0,"TOWNNAME":"安定區","LI":"港口里","LIN":"18鄰","STREET":" ","SECT":" ","MAREA":"港口","LANE":" ","ALLEY":" ","HOUSE_NO":"３８０號之５","E_COORD97":171397.48000000001,"N_COORD97":2555017.2999999998,"ADDRESS":"港口３８０號之５","OBJECTID":144078},"geometry":{"x":171397.48000000231,"y":2555017.3000000007}},{"attributes":{"ID":144079,"DIS_CODE":0,"TOWNNAME":"永康區","LI":"大橋里","LIN":"30鄰","STREET":"大橋一街","SECT":" ","MAREA":" ","LANE":" ","ALLEY":" ","HOUSE_NO":"２６６號","E_COORD97":171122.20999999999,"N_COORD97":2546509,"ADDRESS":"大橋一街２６６號","OBJECTID":144079},"geometry":{"x":171122.20999999996,"y":2546509}},{"attributes":{"ID":144080,"DIS_CODE":0,"TOWNNAME":"安定區","LI":"港口里","LIN":"20鄰","STREET":" ","SECT":" ","MAREA":"港口","LANE":" ","ALLEY":" ","HOUSE_NO":"３９９之４２號","E_COORD97":171520.54000000001,"N_COORD97":2554895.2999999998,"ADDRESS":"港口３９９之４２號","OBJECTID":144080},"geometry":{"x":171520.54000000097,"y":2554895.3000000007}},{"attributes":{"ID":144081,"DIS_CODE":0,"TOWNNAME":"安定區","LI":"港口里","LIN":"20鄰","STREET":" ","SECT":" ","MAREA":"港口","LANE":" ","ALLEY":" ","HOUSE_NO":"３９３之３２號","E_COORD97":171509.54000000001,"N_COORD97":2555009.2999999998,"ADDRESS":"港口３９３之３２號","OBJECTID":144081},"geometry":{"x":171509.54000000004,"y":2555009.3000000026}},{"attributes":{"ID":144082,"DIS_CODE":0,"TOWNNAME":"永康區","LI":"大橋里","LIN":"30鄰","STREET":"大橋一街","SECT":" ","MAREA":" ","LANE":" ","ALLEY":" ","HOUSE_NO":"３０８號之３","E_COORD97":171210.82999999999,"N_COORD97":2546593.79,"ADDRESS":"大橋一街３０８號之３","OBJECTID":144082},"geometry":{"x":171210.83000000007,"y":2546593.7899999991}},{"attributes":{"ID":144083,"DIS_CODE":0,"TOWNNAME":"安定區","LI":"海寮里","LIN":"13鄰","STREET":" ","SECT":" ","MAREA":"海寮","LANE":" ","ALLEY":" ","HOUSE_NO":"１２５號","E_COORD97":169067.23999999999,"N_COORD97":2555240.25,"ADDRESS":"海寮１２５號","OBJECTID":144083},"geometry":{"x":169067.24000000022,"y":2555240.25}},{"attributes":{"ID":144084,"DIS_CODE":0,"TOWNNAME":"永康區","LI":"大橋里","LIN":"30鄰","STREET":"大橋一街","SECT":" ","MAREA":" ","LANE":" ","ALLEY":" ","HOUSE_NO":"２７６號","E_COORD97":171138,"N_COORD97":2546548.25,"ADDRESS":"大橋一街２７６號","OBJECTID":144084},"geometry":{"x":171138.00000000093,"y":2546548.2500000037}},{"attributes":{"ID":144085,"DIS_CODE":0,"TOWNNAME":"南區","LI":"大成里","LIN":"3鄰","STREET":"西門路","SECT":"一段","MAREA":" ","LANE":"３８０巷","ALLEY":"２弄","HOUSE_NO":"９號","E_COORD97":167808.56,"N_COORD97":2542366.4700000002,"ADDRESS":"西門路一段３８０巷２弄９號","OBJECTID":144085},"geometry":{"x":167808.55999999959,"y":2542366.4700000007}},{"attributes":{"ID":144086,"DIS_CODE":0,"TOWNNAME":"安定區","LI":"港口里","LIN":"8鄰","STREET":" ","SECT":" ","MAREA":"港口","LANE":" ","ALLEY":" ","HOUSE_NO":"２９４之３號","E_COORD97":171385.48999999999,"N_COORD97":2554680.2999999998,"ADDRESS":"港口２９４之３號","OBJECTID":144086},"geometry":{"x":171385.49000000115,"y":2554680.3000000026}},{"attributes":{"ID":144087,"DIS_CODE":0,"TOWNNAME":"南區","LI":"大恩里","LIN":"3鄰","STREET":"國民路","SECT":" ","MAREA":" ","LANE":"１１６巷","ALLEY":"１２弄","HOUSE_NO":"１０號","E_COORD97":169336.64000000001,"N_COORD97":2540957.52,"ADDRESS":"國民路１１６巷１２弄１０號","OBJECTID":144087},"geometry":{"x":169336.6400000006,"y":2540957.5199999996}},{"attributes":{"ID":144088,"DIS_CODE":0,"TOWNNAME":"安定區","LI":"港尾里","LIN":"7鄰","STREET":" ","SECT":" ","MAREA":"港子尾","LANE":" ","ALLEY":" ","HOUSE_NO":"３２號","E_COORD97":171604.69,"N_COORD97":2556033.2599999998,"ADDRESS":"港子尾３２號","OBJECTID":144088},"geometry":{"x":171604.69000000134,"y":2556033.2599999998}},{"attributes":{"ID":144089,"DIS_CODE":0,"TOWNNAME":"永康區","LI":"大灣里","LIN":"30鄰","STREET":"大灣東路","SECT":" ","MAREA":" ","LANE":" ","ALLEY":" ","HOUSE_NO":"６０９號","E_COORD97":175465.31,"N_COORD97":2544879.9199999999,"ADDRESS":"大灣東路６０９號","OBJECTID":144089},"geometry":{"x":175465.31000000052,"y":2544879.9200000018}},{"attributes":{"ID":144090,"DIS_CODE":0,"TOWNNAME":"南區","LI":"大恩里","LIN":"3鄰","STREET":"國民路","SECT":" ","MAREA":" ","LANE":"１１６巷","ALLEY":"１２弄","HOUSE_NO":"１１號","E_COORD97":169343.92000000001,"N_COORD97":2540973.52,"ADDRESS":"國民路１１６巷１２弄１１號","OBJECTID":144090},"geometry":{"x":169343.91999999993,"y":2540973.5200000014}},{"attributes":{"ID":144091,"DIS_CODE":0,"TOWNNAME":"安定區","LI":"六嘉里","LIN":"4鄰","STREET":" ","SECT":" ","MAREA":"六塊寮","LANE":" ","ALLEY":" ","HOUSE_NO":"３０號之１３","E_COORD97":169865.60000000001,"N_COORD97":2553255.2999999998,"ADDRESS":"六塊寮３０號之１３","OBJECTID":144091},"geometry":{"x":169865.60000000056,"y":2553255.3000000026}},{"attributes":{"ID":144092,"DIS_CODE":0,"TOWNNAME":"南區","LI":"大恩里","LIN":"3鄰","STREET":"國民路","SECT":" ","MAREA":" ","LANE":"１１６巷","ALLEY":"１２弄","HOUSE_NO":"１２號","E_COORD97":169342.22,"N_COORD97":2540957.52,"ADDRESS":"國民路１１６巷１２弄１２號","OBJECTID":144092},"geometry":{"x":169342.2200000016,"y":2540957.5199999996}},{"attributes":{"ID":144093,"DIS_CODE":0,"TOWNNAME":"南區","LI":"大恩里","LIN":"3鄰","STREET":"國民路","SECT":" ","MAREA":" ","LANE":"１１６巷","ALLEY":"１２弄","HOUSE_NO":"１３號","E_COORD97":169349.85999999999,"N_COORD97":2540974.8500000001,"ADDRESS":"國民路１１６巷１２弄１３號","OBJECTID":144093},"geometry":{"x":169349.86000000034,"y":2540974.8500000015}},{"attributes":{"ID":144094,"DIS_CODE":0,"TOWNNAME":"永康區","LI":"五王里","LIN":"30鄰","STREET":"中山東路","SECT":" ","MAREA":" ","LANE":" ","ALLEY":" ","HOUSE_NO":"６２號","E_COORD97":171701.84,"N_COORD97":2546027.21,"ADDRESS":"中山東路６２號","OBJECTID":144094},"geometry":{"x":171701.84000000078,"y":2546027.209999999}},{"attributes":{"ID":144095,"DIS_CODE":0,"TOWNNAME":"安定區","LI":"六嘉里","LIN":"4鄰","STREET":" ","SECT":" ","MAREA":"六塊寮","LANE":" ","ALLEY":" ","HOUSE_NO":"２７號","E_COORD97":169970.456771,"N_COORD97":2553515.3326400002,"ADDRESS":"六塊寮２７號","OBJECTID":144095},"geometry":{"x":169970.45677100122,"y":2553515.3326440006}},{"attributes":{"ID":144096,"DIS_CODE":0,"TOWNNAME":"安定區","LI":"中沙里","LIN":"4鄰","STREET":" ","SECT":" ","MAREA":"中崙","LANE":" ","ALLEY":" ","HOUSE_NO":"１３６號","E_COORD97":169146.81,"N_COORD97":2553215.25,"ADDRESS":"中崙１３６號","OBJECTID":144096},"geometry":{"x":169146.81000000052,"y":2553215.2500000019}},{"attributes":{"ID":144097,"DIS_CODE":0,"TOWNNAME":"安定區","LI":"保西里","LIN":"4鄰","STREET":" ","SECT":" ","MAREA":"安定","LANE":" ","ALLEY":" ","HOUSE_NO":"３６６號","E_COORD97":171644.22,"N_COORD97":2557679.3199999998,"ADDRESS":"安定３６６號","OBJECTID":144097},"geometry":{"x":171644.21999999881,"y":2557679.3200000022}},{"attributes":{"ID":144098,"DIS_CODE":0,"TOWNNAME":"安定區","LI":"六嘉里","LIN":"4鄰","STREET":" ","SECT":" ","MAREA":"六塊寮","LANE":" ","ALLEY":" ","HOUSE_NO":"２７之９號","E_COORD97":169942.62,"N_COORD97":2553629.2999999998,"ADDRESS":"六塊寮２７之９號","OBJECTID":144098},"geometry":{"x":169942.62000000011,"y":2553629.3000000026}},{"attributes":{"ID":144099,"DIS_CODE":0,"TOWNNAME":"安定區","LI":"港口里","LIN":"17鄰","STREET":" ","SECT":" ","MAREA":"港口","LANE":" ","ALLEY":" ","HOUSE_NO":"３７０號之２","E_COORD97":171440.35999999999,"N_COORD97":2554893.2999999998,"ADDRESS":"港口３７０號之２","OBJECTID":144099},"geometry":{"x":171440.36000000034,"y":2554893.3000000026}},{"attributes":{"ID":144100,"DIS_CODE":0,"TOWNNAME":"安定區","LI":"六嘉里","LIN":"8鄰","STREET":" ","SECT":" ","MAREA":"六塊寮","LANE":" ","ALLEY":" ","HOUSE_NO":"６９號之５","E_COORD97":170206.718058,"N_COORD97":2553227.8894699998,"ADDRESS":"六塊寮６７號之５","OBJECTID":144100},"geometry":{"x":170206.71805800125,"y":2553227.889465997}},{"attributes":{"ID":144101,"DIS_CODE":0,"TOWNNAME":"安定區","LI":"六嘉里","LIN":"4鄰","STREET":" ","SECT":" ","MAREA":"六塊寮","LANE":" ","ALLEY":" ","HOUSE_NO":"２９之１號","E_COORD97":170027.92000000001,"N_COORD97":2553484.2999999998,"ADDRESS":"六塊寮２９之１號","OBJECTID":144101},"geometry":{"x":170027.92000000086,"y":2553484.3000000007}},{"attributes":{"ID":144102,"DIS_CODE":0,"TOWNNAME":"佳里區","LI":"頂\u25A0里","LIN":" ","STREET":" ","SECT":" ","MAREA":"頂\u25A0","LANE":" ","ALLEY":" ","HOUSE_NO":"４之９號","E_COORD97":163278.14000000001,"N_COORD97":2563804.4900000002,"ADDRESS":"頂\u25A0４之９號","OBJECTID":144102},"geometry":{"x":163278.1400000006,"y":2563804.4900000021}},{"attributes":{"ID":144103,"DIS_CODE":0,"TOWNNAME":"善化區","LI":"溪美里","LIN":"22鄰","STREET":" ","SECT":" ","MAREA":"溪尾","LANE":" ","ALLEY":" ","HOUSE_NO":"６１５號","E_COORD97":177069.23000000001,"N_COORD97":2561070.77,"ADDRESS":"溪尾６１５號","OBJECTID":144103},"geometry":{"x":177069.23000000045,"y":2561070.7699999996}},{"attributes":{"ID":144104,"DIS_CODE":0,"TOWNNAME":"南區","LI":"大恩里","LIN":"3鄰","STREET":"國民路","SECT":" ","MAREA":" ","LANE":"１１６巷","ALLEY":"１２弄","HOUSE_NO":"１４號","E_COORD97":169348.29000000001,"N_COORD97":2540958.25,"ADDRESS":"國民路１１６巷１２弄１４號","OBJECTID":144104},"geometry":{"x":169348.29000000004,"y":2540958.2500000019}},{"attributes":{"ID":144105,"DIS_CODE":0,"TOWNNAME":"善化區","LI":"光文里","LIN":"30鄰","STREET":" ","SECT":" ","MAREA":"北子店","LANE":" ","ALLEY":" ","HOUSE_NO":"５０１號之３５","E_COORD97":179144.88,"N_COORD97":2559762.54,"ADDRESS":"北子店５０１號之３５","OBJECTID":144105},"geometry":{"x":179144.88000000082,"y":2559762.540000001}},{"attributes":{"ID":144106,"DIS_CODE":0,"TOWNNAME":"善化區","LI":"光文里","LIN":"30鄰","STREET":" ","SECT":" ","MAREA":"北子店","LANE":" ","ALLEY":" ","HOUSE_NO":"５０１號之３６","E_COORD97":179144.81,"N_COORD97":2559767.7400000002,"ADDRESS":"北子店５０１號之３６","OBJECTID":144106},"geometry":{"x":179144.81000000145,"y":2559767.7400000039}},{"attributes":{"ID":144107,"DIS_CODE":0,"TOWNNAME":"善化區","LI":"光文里","LIN":"30鄰","STREET":" ","SECT":" ","MAREA":"北子店","LANE":" ","ALLEY":" ","HOUSE_NO":"５０１號之３７","E_COORD97":179144.57000000001,"N_COORD97":2559772.9500000002,"ADDRESS":"北子店５０１號之３７","OBJECTID":144107},"geometry":{"x":179144.57000000123,"y":2559772.9500000011}},{"attributes":{"ID":144108,"DIS_CODE":0,"TOWNNAME":"善化區","LI":"光文里","LIN":"30鄰","STREET":" ","SECT":" ","MAREA":"北子店","LANE":" ","ALLEY":" ","HOUSE_NO":"５０１號之３８","E_COORD97":179144.19,"N_COORD97":2559778.1600000001,"ADDRESS":"北子店５０１號之３８","OBJECTID":144108},"geometry":{"x":179144.19000000041,"y":2559778.1599999983}},{"attributes":{"ID":144109,"DIS_CODE":0,"TOWNNAME":"善化區","LI":"光文里","LIN":"30鄰","STREET":" ","SECT":" ","MAREA":"北子店","LANE":" ","ALLEY":" ","HOUSE_NO":"５０１號之３９","E_COORD97":179143.92000000001,"N_COORD97":2559782.3900000001,"ADDRESS":"北子店５０１號之３９","OBJECTID":144109},"geometry":{"x":179143.91999999993,"y":2559782.3900000025}},{"attributes":{"ID":144110,"DIS_CODE":0,"TOWNNAME":"安定區","LI":"港口里","LIN":"20鄰","STREET":" ","SECT":" ","MAREA":"港口","LANE":" ","ALLEY":" ","HOUSE_NO":"３９９之３１號","E_COORD97":171559.94,"N_COORD97":2554921.2999999998,"ADDRESS":"港口３９９之３１號","OBJECTID":144110},"geometry":{"x":171559.94000000041,"y":2554921.3000000026}},{"attributes":{"ID":144111,"DIS_CODE":0,"TOWNNAME":"安定區","LI":"港口里","LIN":"14鄰","STREET":" ","SECT":" ","MAREA":"港口","LANE":" ","ALLEY":" ","HOUSE_NO":"３３２號之３","E_COORD97":171068.72,"N_COORD97":2554665.2999999998,"ADDRESS":"港口３３２號之３","OBJECTID":144111},"geometry":{"x":171068.72000000067,"y":2554665.3000000045}},{"attributes":{"ID":144112,"DIS_CODE":0,"TOWNNAME":"安定區","LI":"安定里","LIN":"8鄰","STREET":" ","SECT":" ","MAREA":"安定","LANE":" ","ALLEY":" ","HOUSE_NO":"５８之４５號","E_COORD97":171890.51999999999,"N_COORD97":2558076.3199999998,"ADDRESS":"安定５８之４５號","OBJECTID":144112},"geometry":{"x":171890.51999999955,"y":2558076.3200000022}},{"attributes":{"ID":144113,"DIS_CODE":0,"TOWNNAME":"安定區","LI":"海寮里","LIN":"8鄰","STREET":" ","SECT":" ","MAREA":"海寮","LANE":" ","ALLEY":" ","HOUSE_NO":"８３號之５","E_COORD97":169332.48000000001,"N_COORD97":2555274.2999999998,"ADDRESS":"海寮８３號之５","OBJECTID":144113},"geometry":{"x":169332.48000000045,"y":2555274.3000000007}},{"attributes":{"ID":144114,"DIS_CODE":0,"TOWNNAME":"安定區","LI":"六嘉里","LIN":"8鄰","STREET":" ","SECT":" ","MAREA":"六塊寮","LANE":" ","ALLEY":" ","HOUSE_NO":"６７號之９","E_COORD97":170114.64000000001,"N_COORD97":2553310.2999999998,"ADDRESS":"六塊寮６７號之９","OBJECTID":144114},"geometry":{"x":170114.6400000006,"y":2553310.3000000026}},{"attributes":{"ID":144115,"DIS_CODE":0,"TOWNNAME":"安定區","LI":"港口里","LIN":"8鄰","STREET":" ","SECT":" ","MAREA":"港口","LANE":" ","ALLEY":" ","HOUSE_NO":"２９２之４號","E_COORD97":171411.48999999999,"N_COORD97":2554620.2999999998,"ADDRESS":"港口２９２之４號","OBJECTID":144115},"geometry":{"x":171411.49000000115,"y":2554620.3000000007}},{"attributes":{"ID":144116,"DIS_CODE":0,"TOWNNAME":"南區","LI":"大恩里","LIN":"3鄰","STREET":"國民路","SECT":" ","MAREA":" ","LANE":"１１６巷","ALLEY":"１２弄","HOUSE_NO":"１５號","E_COORD97":169356.41,"N_COORD97":2540974.9700000002,"ADDRESS":"國民路１１６巷１２弄１５號","OBJECTID":144116},"geometry":{"x":169356.41000000015,"y":2540974.9700000025}},{"attributes":{"ID":144117,"DIS_CODE":0,"TOWNNAME":"南區","LI":"大恩里","LIN":"3鄰","STREET":"國民路","SECT":" ","MAREA":" ","LANE":"１１６巷","ALLEY":"１２弄","HOUSE_NO":"１６號","E_COORD97":169354.59,"N_COORD97":2540958.8500000001,"ADDRESS":"國民路１１６巷１２弄１６號","OBJECTID":144117},"geometry":{"x":169354.58999999985,"y":2540958.8499999996}},{"attributes":{"ID":144118,"DIS_CODE":0,"TOWNNAME":"南區","LI":"大恩里","LIN":"3鄰","STREET":"國民路","SECT":" ","MAREA":" ","LANE":"１１６巷","ALLEY":"１２弄","HOUSE_NO":"１號","E_COORD97":169314.32999999999,"N_COORD97":2540970.3700000001,"ADDRESS":"國民路１１６巷１２弄１號","OBJECTID":144118},"geometry":{"x":169314.33000000007,"y":2540970.370000001}},{"attributes":{"ID":144119,"DIS_CODE":0,"TOWNNAME":"南區","LI":"大恩里","LIN":"3鄰","STREET":"國民路","SECT":" ","MAREA":" ","LANE":"１１６巷","ALLEY":"１２弄","HOUSE_NO":"２號","E_COORD97":169312.39000000001,"N_COORD97":2540955.3399999999,"ADDRESS":"國民路１１６巷１２弄２號","OBJECTID":144119},"geometry":{"x":169312.3900000006,"y":2540955.3399999999}},{"attributes":{"ID":144120,"DIS_CODE":0,"TOWNNAME":"南區","LI":"大恩里","LIN":"3鄰","STREET":"國民路","SECT":" ","MAREA":" ","LANE":"１１６巷","ALLEY":"１２弄","HOUSE_NO":"３號","E_COORD97":169320.26999999999,"N_COORD97":2540971.2200000002,"ADDRESS":"國民路１１６巷１２弄３號","OBJECTID":144120},"geometry":{"x":169320.27000000048,"y":2540971.2200000007}},{"attributes":{"ID":144121,"DIS_CODE":0,"TOWNNAME":"南區","LI":"大恩里","LIN":"3鄰","STREET":"國民路","SECT":" ","MAREA":" ","LANE":"１１６巷","ALLEY":"１２弄","HOUSE_NO":"４號","E_COORD97":169318.69,"N_COORD97":2540955.2200000002,"ADDRESS":"國民路１１６巷１２弄４號","OBJECTID":144121},"geometry":{"x":169318.69000000041,"y":2540955.2200000044}},{"attributes":{"ID":144122,"DIS_CODE":0,"TOWNNAME":"南區","LI":"大恩里","LIN":"3鄰","STREET":"國民路","SECT":" ","MAREA":" ","LANE":"１１６巷","ALLEY":"１２弄","HOUSE_NO":"５號","E_COORD97":169325.97,"N_COORD97":2540971.5800000001,"ADDRESS":"國民路１１６巷１２弄５號","OBJECTID":144122},"geometry":{"x":169325.97000000067,"y":2540971.5800000001}},{"attributes":{"ID":144123,"DIS_CODE":0,"TOWNNAME":"永康區","LI":"大灣里","LIN":"30鄰","STREET":"民族路","SECT":" ","MAREA":" ","LANE":"１２６巷","ALLEY":" ","HOUSE_NO":"８６號","E_COORD97":175449.48999999999,"N_COORD97":2544947.8599999999,"ADDRESS":"民族路１２６巷８６號","OBJECTID":144123},"geometry":{"x":175449.49000000115,"y":2544947.8600000013}},{"attributes":{"ID":144124,"DIS_CODE":0,"TOWNNAME":"南區","LI":"大忠里","LIN":"15鄰","STREET":"公英六街","SECT":" ","MAREA":" ","LANE":" ","ALLEY":" ","HOUSE_NO":"３５號","E_COORD97":169360.03,"N_COORD97":2541083.73,"ADDRESS":"公英六街３５號","OBJECTID":144124},"geometry":{"x":169360.03000000119,"y":2541083.7300000042}},{"attributes":{"ID":144125,"DIS_CODE":0,"TOWNNAME":"南區","LI":"大忠里","LIN":"15鄰","STREET":"公英六街","SECT":" ","MAREA":" ","LANE":" ","ALLEY":" ","HOUSE_NO":"３６號","E_COORD97":169348.04999999999,"N_COORD97":2541096.2200000002,"ADDRESS":"公英六街３６號","OBJECTID":144125},"geometry":{"x":169348.04999999981,"y":2541096.2200000007}},{"attributes":{"ID":144126,"DIS_CODE":0,"TOWNNAME":"南區","LI":"大忠里","LIN":"15鄰","STREET":"公英六街","SECT":" ","MAREA":" ","LANE":" ","ALLEY":" ","HOUSE_NO":"３７號","E_COORD97":169356.20999999999,"N_COORD97":2541082.9700000002,"ADDRESS":"公英六街３７號","OBJECTID":144126},"geometry":{"x":169356.21000000183,"y":2541082.9700000025}},{"attributes":{"ID":144127,"DIS_CODE":0,"TOWNNAME":"南區","LI":"大忠里","LIN":"15鄰","STREET":"公英六街","SECT":" ","MAREA":" ","LANE":" ","ALLEY":" ","HOUSE_NO":"３８號","E_COORD97":169334.34,"N_COORD97":2541093.75,"ADDRESS":"公英六街３８號","OBJECTID":144127},"geometry":{"x":169334.33999999985,"y":2541093.7500000019}},{"attributes":{"ID":144128,"DIS_CODE":0,"TOWNNAME":"南區","LI":"大恩里","LIN":"3鄰","STREET":"國民路","SECT":" ","MAREA":" ","LANE":"１１６巷","ALLEY":"１２弄","HOUSE_NO":"６號","E_COORD97":169324.64000000001,"N_COORD97":2540956.0699999998,"ADDRESS":"國民路１１６巷１２弄６號","OBJECTID":144128},"geometry":{"x":169324.6400000006,"y":2540956.0700000022}},{"attributes":{"ID":144129,"DIS_CODE":0,"TOWNNAME":"永康區","LI":"永康里","LIN":"9鄰","STREET":"永康街","SECT":" ","MAREA":" ","LANE":" ","ALLEY":" ","HOUSE_NO":"８９號","E_COORD97":173843.95000000001,"N_COORD97":2547171,"ADDRESS":"永康街８９號","OBJECTID":144129},"geometry":{"x":173843.95000000112,"y":2547171.0000000019}},{"attributes":{"ID":144130,"DIS_CODE":0,"TOWNNAME":"南區","LI":"大恩里","LIN":"3鄰","STREET":"國民路","SECT":" ","MAREA":" ","LANE":"１１６巷","ALLEY":"１２弄","HOUSE_NO":"７號","E_COORD97":169332.51999999999,"N_COORD97":2540972.5499999998,"ADDRESS":"國民路１１６巷１２弄７號","OBJECTID":144130},"geometry":{"x":169332.51999999955,"y":2540972.5500000007}},{"attributes":{"ID":144131,"DIS_CODE":0,"TOWNNAME":"永康區","LI":"永康里","LIN":"36鄰","STREET":"永平街","SECT":" ","MAREA":" ","LANE":" ","ALLEY":" ","HOUSE_NO":"６１１號","E_COORD97":174412.04000000001,"N_COORD97":2546891.02,"ADDRESS":"永平街６１１號","OBJECTID":144131},"geometry":{"x":174412.04000000004,"y":2546891.0199999996}},{"attributes":{"ID":144132,"DIS_CODE":0,"TOWNNAME":"南區","LI":"大恩里","LIN":"3鄰","STREET":"國民路","SECT":" ","MAREA":" ","LANE":"１１６巷","ALLEY":"１２弄","HOUSE_NO":"８號","E_COORD97":169330.82000000001,"N_COORD97":2540957.04,"ADDRESS":"國民路１１６巷１２弄８號","OBJECTID":144132},"geometry":{"x":169330.82000000123,"y":2540957.0399999991}},{"attributes":{"ID":144133,"DIS_CODE":0,"TOWNNAME":"善化區","LI":"光文里","LIN":"30鄰","STREET":" ","SECT":" ","MAREA":"北子店","LANE":" ","ALLEY":" ","HOUSE_NO":"５０１號之４０","E_COORD97":179143.51000000001,"N_COORD97":2559787.6499999999,"ADDRESS":"北子店５０１號之４０","OBJECTID":144133},"geometry":{"x":179143.50999999885,"y":2559787.6500000004}},{"attributes":{"ID":144134,"DIS_CODE":0,"TOWNNAME":"南區","LI":"大恩里","LIN":"3鄰","STREET":"國民路","SECT":" ","MAREA":" ","LANE":"１１６巷","ALLEY":"１２弄","HOUSE_NO":"９號","E_COORD97":169338.57999999999,"N_COORD97":2540972.9100000001,"ADDRESS":"國民路１１６巷１２弄９號","OBJECTID":144134},"geometry":{"x":169338.58000000194,"y":2540972.9100000001}},{"attributes":{"ID":144135,"DIS_CODE":0,"TOWNNAME":"南區","LI":"大恩里","LIN":"3鄰","STREET":"國民路","SECT":" ","MAREA":" ","LANE":"１１６巷","ALLEY":"１５弄","HOUSE_NO":"１０號","E_COORD97":169270.03,"N_COORD97":2540991.7799999998,"ADDRESS":"國民路１１６巷１５弄１０號","OBJECTID":144135},"geometry":{"x":169270.03000000119,"y":2540991.7800000012}},{"attributes":{"ID":144136,"DIS_CODE":0,"TOWNNAME":"善化區","LI":"光文里","LIN":"30鄰","STREET":" ","SECT":" ","MAREA":"北子店","LANE":" ","ALLEY":" ","HOUSE_NO":"５０１號之４１","E_COORD97":179143.09,"N_COORD97":2559792.8500000001,"ADDRESS":"北子店５０１號之４１","OBJECTID":144136},"geometry":{"x":179143.09000000171,"y":2559792.8499999996}},{"attributes":{"ID":144137,"DIS_CODE":0,"TOWNNAME":"善化區","LI":"光文里","LIN":"30鄰","STREET":" ","SECT":" ","MAREA":"北子店","LANE":" ","ALLEY":" ","HOUSE_NO":"５０１號之４２","E_COORD97":179143.12,"N_COORD97":2559797.6800000002,"ADDRESS":"北子店５０１號之４２","OBJECTID":144137},"geometry":{"x":179143.12000000197,"y":2559797.6799999997}},{"attributes":{"ID":144138,"DIS_CODE":0,"TOWNNAME":"善化區","LI":"光文里","LIN":"30鄰","STREET":" ","SECT":" ","MAREA":"北子店","LANE":" ","ALLEY":" ","HOUSE_NO":"５０１號之４３","E_COORD97":179143.10000000001,"N_COORD97":2559802.6200000001,"ADDRESS":"北子店５０１號之４３","OBJECTID":144138},"geometry":{"x":179143.10000000056,"y":2559802.620000001}},{"attributes":{"ID":144139,"DIS_CODE":0,"TOWNNAME":"善化區","LI":"光文里","LIN":"30鄰","STREET":" ","SECT":" ","MAREA":"北子店","LANE":" ","ALLEY":" ","HOUSE_NO":"５０１號之４５","E_COORD97":179142.72,"N_COORD97":2559807.48,"ADDRESS":"北子店５０１號之４５","OBJECTID":144139},"geometry":{"x":179142.72000000067,"y":2559807.4800000023}},{"attributes":{"ID":144140,"DIS_CODE":0,"TOWNNAME":"善化區","LI":"光文里","LIN":"30鄰","STREET":" ","SECT":" ","MAREA":"北子店","LANE":" ","ALLEY":" ","HOUSE_NO":"５０１號之４６","E_COORD97":179142.06,"N_COORD97":2559812.5499999998,"ADDRESS":"北子店５０１號之４６","OBJECTID":144140},"geometry":{"x":179142.06000000052,"y":2559812.5500000007}},{"attributes":{"ID":144141,"DIS_CODE":0,"TOWNNAME":"善化區","LI":"光文里","LIN":"30鄰","STREET":" ","SECT":" ","MAREA":"北子店","LANE":" ","ALLEY":" ","HOUSE_NO":"５０１號之４７","E_COORD97":179142.04999999999,"N_COORD97":2559817.9399999999,"ADDRESS":"北子店５０１號之４７","OBJECTID":144141},"geometry":{"x":179142.05000000075,"y":2559817.9400000013}},{"attributes":{"ID":144142,"DIS_CODE":0,"TOWNNAME":"善化區","LI":"光文里","LIN":"30鄰","STREET":" ","SECT":" ","MAREA":"北子店","LANE":" ","ALLEY":" ","HOUSE_NO":"５０１號之４８","E_COORD97":179141.60999999999,"N_COORD97":2559822.4199999999,"ADDRESS":"北子店５０１號之４８","OBJECTID":144142},"geometry":{"x":179141.61000000034,"y":2559822.4199999999}},{"attributes":{"ID":144143,"DIS_CODE":0,"TOWNNAME":"仁德區","LI":"新田里","LIN":"4鄰","STREET":"勝利一街","SECT":" ","MAREA":" ","LANE":" ","ALLEY":" ","HOUSE_NO":"５號","E_COORD97":173948.697128,"N_COORD97":2539663.1005600002,"ADDRESS":"勝利一街５號","OBJECTID":144143},"geometry":{"x":173948.69712800067,"y":2539663.1005640011}},{"attributes":{"ID":144144,"DIS_CODE":0,"TOWNNAME":"善化區","LI":"光文里","LIN":"30鄰","STREET":" ","SECT":" ","MAREA":"北子店","LANE":" ","ALLEY":" ","HOUSE_NO":"５０１號之４９","E_COORD97":179141.13,"N_COORD97":2559827.0099999998,"ADDRESS":"北子店５０１號之４９","OBJECTID":144144},"geometry":{"x":179141.13000000175,"y":2559827.0100000016}},{"attributes":{"ID":144145,"DIS_CODE":0,"TOWNNAME":"善化區","LI":"光文里","LIN":"30鄰","STREET":" ","SECT":" ","MAREA":"北子店","LANE":" ","ALLEY":" ","HOUSE_NO":"５０１號之５０","E_COORD97":179140.95999999999,"N_COORD97":2559831.9300000002,"ADDRESS":"北子店５０１號之５０","OBJECTID":144145},"geometry":{"x":179140.96000000089,"y":2559831.9300000016}},{"attributes":{"ID":144146,"DIS_CODE":0,"TOWNNAME":"中西區","LI":"西湖里","LIN":"30鄰","STREET":"湖美街","SECT":" ","MAREA":" ","LANE":" ","ALLEY":" ","HOUSE_NO":"１０６號之１７","E_COORD97":165992.87,"N_COORD97":2544881.79,"ADDRESS":"湖美街１０６號之１７","OBJECTID":144146},"geometry":{"x":165992.87000000011,"y":2544881.7899999991}},{"attributes":{"ID":144147,"DIS_CODE":0,"TOWNNAME":"南區","LI":"大恩里","LIN":"3鄰","STREET":"國民路","SECT":" ","MAREA":" ","LANE":"１１６巷","ALLEY":"１５弄","HOUSE_NO":"１１號","E_COORD97":169264.20000000001,"N_COORD97":2540973.71,"ADDRESS":"國民路１１６巷１５弄１１號","OBJECTID":144147},"geometry":{"x":169264.20000000019,"y":2540973.7100000028}},{"attributes":{"ID":144148,"DIS_CODE":0,"TOWNNAME":"南區","LI":"大恩里","LIN":"3鄰","STREET":"國民路","SECT":" ","MAREA":" ","LANE":"１１６巷","ALLEY":"１５弄","HOUSE_NO":"１號","E_COORD97":169299.75,"N_COORD97":2540977.48,"ADDRESS":"國民路１１６巷１５弄１號","OBJECTID":144148},"geometry":{"x":169299.75,"y":2540977.4800000023}},{"attributes":{"ID":144149,"DIS_CODE":0,"TOWNNAME":"中西區","LI":"西湖里","LIN":"30鄰","STREET":"湖美街","SECT":" ","MAREA":" ","LANE":" ","ALLEY":" ","HOUSE_NO":"１０６號之１８","E_COORD97":166012.66,"N_COORD97":2544877.7799999998,"ADDRESS":"湖美街１０６號之１８","OBJECTID":144149},"geometry":{"x":166012.66000000108,"y":2544877.7799999993}},{"attributes":{"ID":144150,"DIS_CODE":0,"TOWNNAME":"中西區","LI":"西湖里","LIN":"30鄰","STREET":"湖美街","SECT":" ","MAREA":" ","LANE":" ","ALLEY":" ","HOUSE_NO":"１０６號之１９","E_COORD97":166011.85999999999,"N_COORD97":2544885.79,"ADDRESS":"湖美街１０６號之１９","OBJECTID":144150},"geometry":{"x":166011.86000000034,"y":2544885.7900000028}},{"attributes":{"ID":144151,"DIS_CODE":0,"TOWNNAME":"南區","LI":"大恩里","LIN":"3鄰","STREET":"國民路","SECT":" ","MAREA":" ","LANE":"１１６巷","ALLEY":"１５弄","HOUSE_NO":"２號","E_COORD97":169298.84,"N_COORD97":2540994.6400000001,"ADDRESS":"國民路１１６巷１５弄２號","OBJECTID":144151},"geometry":{"x":169298.83999999985,"y":2540994.6400000006}},{"attributes":{"ID":144152,"DIS_CODE":0,"TOWNNAME":"南區","LI":"大恩里","LIN":"3鄰","STREET":"國民路","SECT":" ","MAREA":" ","LANE":"１１６巷","ALLEY":"１５弄","HOUSE_NO":"３號","E_COORD97":169292.32000000001,"N_COORD97":2540976.1099999999,"ADDRESS":"國民路１１６巷１５弄３號","OBJECTID":144152},"geometry":{"x":169292.3200000003,"y":2540976.1100000013}},{"attributes":{"ID":144153,"DIS_CODE":0,"TOWNNAME":"麻豆區","LI":"麻口里","LIN":"12鄰","STREET":" ","SECT":" ","MAREA":"番子寮","LANE":" ","ALLEY":" ","HOUSE_NO":"３２號之５","E_COORD97":170563.748735,"N_COORD97":2563246.1589000002,"ADDRESS":"番子寮３２號之５","OBJECTID":144153},"geometry":{"x":170563.74873500224,"y":2563246.1589010023}},{"attributes":{"ID":144154,"DIS_CODE":0,"TOWNNAME":"安定區","LI":"中沙里","LIN":"4鄰","STREET":" ","SECT":" ","MAREA":"中崙","LANE":" ","ALLEY":" ","HOUSE_NO":"１１１號","E_COORD97":169034.51000000001,"N_COORD97":2553166.25,"ADDRESS":"中崙１１１號","OBJECTID":144154},"geometry":{"x":169034.50999999978,"y":2553166.2499999981}},{"attributes":{"ID":144155,"DIS_CODE":0,"TOWNNAME":"安定區","LI":"中沙里","LIN":"4鄰","STREET":" ","SECT":" ","MAREA":"中崙","LANE":" ","ALLEY":" ","HOUSE_NO":"１３１號","E_COORD97":169113.60999999999,"N_COORD97":2553207.25,"ADDRESS":"中崙１３１號","OBJECTID":144155},"geometry":{"x":169113.61000000127,"y":2553207.2500000037}},{"attributes":{"ID":144156,"DIS_CODE":0,"TOWNNAME":"安定區","LI":"保西里","LIN":"4鄰","STREET":" ","SECT":" ","MAREA":"安定","LANE":" ","ALLEY":" ","HOUSE_NO":"３５５號","E_COORD97":171732.22,"N_COORD97":2557719.3199999998,"ADDRESS":"安定３５５號","OBJECTID":144156},"geometry":{"x":171732.21999999974,"y":2557719.3199999984}},{"attributes":{"ID":144157,"DIS_CODE":0,"TOWNNAME":"安定區","LI":"安加里","LIN":"13鄰","STREET":" ","SECT":" ","MAREA":"安定","LANE":" ","ALLEY":" ","HOUSE_NO":"２９８號","E_COORD97":171673.51999999999,"N_COORD97":2557467.3199999998,"ADDRESS":"安定２９８號","OBJECTID":144157},"geometry":{"x":171673.51999999955,"y":2557467.3200000003}},{"attributes":{"ID":144158,"DIS_CODE":0,"TOWNNAME":"安定區","LI":"港口里","LIN":"17鄰","STREET":" ","SECT":" ","MAREA":"港口","LANE":" ","ALLEY":" ","HOUSE_NO":"３７１號","E_COORD97":171460.32027699999,"N_COORD97":2554955.6577499998,"ADDRESS":"港口３７１號","OBJECTID":144158},"geometry":{"x":171460.32027700078,"y":2554955.6577500012}},{"attributes":{"ID":144159,"DIS_CODE":0,"TOWNNAME":"安定區","LI":"港口里","LIN":"20鄰","STREET":" ","SECT":" ","MAREA":"港口","LANE":" ","ALLEY":" ","HOUSE_NO":"３９９之３７號","E_COORD97":171541.94,"N_COORD97":2554909.2999999998,"ADDRESS":"港口３９９之３７號","OBJECTID":144159},"geometry":{"x":171541.94000000134,"y":2554909.2999999989}},{"attributes":{"ID":144160,"DIS_CODE":0,"TOWNNAME":"安定區","LI":"海寮里","LIN":"13鄰","STREET":" ","SECT":" ","MAREA":"海寮","LANE":" ","ALLEY":" ","HOUSE_NO":"１２９號","E_COORD97":169046.14000000001,"N_COORD97":2555288.25,"ADDRESS":"海寮１２９號","OBJECTID":144160},"geometry":{"x":169046.14000000153,"y":2555288.25}},{"attributes":{"ID":144161,"DIS_CODE":0,"TOWNNAME":"安定區","LI":"中沙里","LIN":"4鄰","STREET":" ","SECT":" ","MAREA":"中崙","LANE":" ","ALLEY":" ","HOUSE_NO":"１４３號","E_COORD97":169186.81,"N_COORD97":2553216.25,"ADDRESS":"中崙１４３號","OBJECTID":144161},"geometry":{"x":169186.80999999959,"y":2553216.25}},{"attributes":{"ID":144162,"DIS_CODE":0,"TOWNNAME":"安定區","LI":"安定里","LIN":"4鄰","STREET":" ","SECT":" ","MAREA":"安定","LANE":" ","ALLEY":" ","HOUSE_NO":"１４號之２","E_COORD97":172524.73999999999,"N_COORD97":2558228.3199999998,"ADDRESS":"安定１４號之２","OBJECTID":144162},"geometry":{"x":172524.74000000115,"y":2558228.320000004}},{"attributes":{"ID":144163,"DIS_CODE":0,"TOWNNAME":"安定區","LI":"中沙里","LIN":"4鄰","STREET":" ","SECT":" ","MAREA":"中崙","LANE":" ","ALLEY":" ","HOUSE_NO":"１３３號","E_COORD97":169089.41,"N_COORD97":2553217.25,"ADDRESS":"中崙１３３號","OBJECTID":144163},"geometry":{"x":169089.41000000108,"y":2553217.2500000037}},{"attributes":{"ID":144164,"DIS_CODE":0,"TOWNNAME":"安定區","LI":"港口里","LIN":"18鄰","STREET":" ","SECT":" ","MAREA":"港口","LANE":" ","ALLEY":" ","HOUSE_NO":"３７２號之６","E_COORD97":171411.32999999999,"N_COORD97":2554951.2999999998,"ADDRESS":"港口３７２號之６","OBJECTID":144164},"geometry":{"x":171411.33000000007,"y":2554951.3000000026}},{"attributes":{"ID":144165,"DIS_CODE":0,"TOWNNAME":"安定區","LI":"港口里","LIN":"20鄰","STREET":" ","SECT":" ","MAREA":"港口","LANE":" ","ALLEY":" ","HOUSE_NO":"３９９之２３號","E_COORD97":171586.94,"N_COORD97":2554936.2999999998,"ADDRESS":"港口３９９之２３號","OBJECTID":144165},"geometry":{"x":171586.94000000041,"y":2554936.3000000007}},{"attributes":{"ID":144166,"DIS_CODE":0,"TOWNNAME":"安定區","LI":"安加里","LIN":"14鄰","STREET":" ","SECT":" ","MAREA":"安定","LANE":" ","ALLEY":" ","HOUSE_NO":"３０２號","E_COORD97":171716.62,"N_COORD97":2557511.3199999998,"ADDRESS":"安定３０２號","OBJECTID":144166},"geometry":{"x":171716.62000000197,"y":2557511.3200000003}},{"attributes":{"ID":144167,"DIS_CODE":0,"TOWNNAME":"安定區","LI":"海寮里","LIN":"14鄰","STREET":" ","SECT":" ","MAREA":"海寮","LANE":" ","ALLEY":" ","HOUSE_NO":"１３２號之１８","E_COORD97":169020.78,"N_COORD97":2555462.2999999998,"ADDRESS":"海寮１３２號之１８","OBJECTID":144167},"geometry":{"x":169020.78000000119,"y":2555462.3000000045}},{"attributes":{"ID":144168,"DIS_CODE":0,"TOWNNAME":"安定區","LI":"海寮里","LIN":"14鄰","STREET":" ","SECT":" ","MAREA":"海寮","LANE":" ","ALLEY":" ","HOUSE_NO":"１３２之３７號","E_COORD97":169052.09,"N_COORD97":2555422.2999999998,"ADDRESS":"海寮１３２之３７號","OBJECTID":144168},"geometry":{"x":169052.09000000078,"y":2555422.3000000026}},{"attributes":{"ID":144169,"DIS_CODE":0,"TOWNNAME":"安定區","LI":"六嘉里","LIN":"8鄰","STREET":" ","SECT":" ","MAREA":"六塊寮","LANE":" ","ALLEY":" ","HOUSE_NO":"６７號之１５","E_COORD97":169958.45999999999,"N_COORD97":2553039.2999999998,"ADDRESS":"六塊寮６７號之１５","OBJECTID":144169},"geometry":{"x":169958.46000000089,"y":2553039.3000000026}},{"attributes":{"ID":144170,"DIS_CODE":0,"TOWNNAME":"安定區","LI":"中榮里","LIN":"4鄰","STREET":" ","SECT":" ","MAREA":"許中營","LANE":" ","ALLEY":" ","HOUSE_NO":"４６號","E_COORD97":172394.94,"N_COORD97":2555061.25,"ADDRESS":"許中營４６號","OBJECTID":144170},"geometry":{"x":172394.94000000134,"y":2555061.25}},{"attributes":{"ID":144171,"DIS_CODE":0,"TOWNNAME":"南區","LI":"大恩里","LIN":"3鄰","STREET":"國民路","SECT":" ","MAREA":" ","LANE":"１１６巷","ALLEY":"１５弄","HOUSE_NO":"４號","E_COORD97":169292.32000000001,"N_COORD97":2540994.2999999998,"ADDRESS":"國民路１１６巷１５弄４號","OBJECTID":144171},"geometry":{"x":169292.3200000003,"y":2540994.3000000007}},{"attributes":{"ID":144172,"DIS_CODE":0,"TOWNNAME":"安定區","LI":"港口里","LIN":"18鄰","STREET":" ","SECT":" ","MAREA":"港口","LANE":" ","ALLEY":" ","HOUSE_NO":"３８０號之６","E_COORD97":171398.92999999999,"N_COORD97":2555021.2999999998,"ADDRESS":"港口３８０號之６","OBJECTID":144172},"geometry":{"x":171398.93000000063,"y":2555021.3000000045}},{"attributes":{"ID":144173,"DIS_CODE":0,"TOWNNAME":"南區","LI":"大恩里","LIN":"3鄰","STREET":"國民路","SECT":" ","MAREA":" ","LANE":"１１６巷","ALLEY":"１５弄","HOUSE_NO":"５號","E_COORD97":169285.45999999999,"N_COORD97":2540975.4199999999,"ADDRESS":"國民路１１６巷１５弄５號","OBJECTID":144173},"geometry":{"x":169285.46000000089,"y":2540975.4199999999}},{"attributes":{"ID":144174,"DIS_CODE":0,"TOWNNAME":"安定區","LI":"海寮里","LIN":"14鄰","STREET":" ","SECT":" ","MAREA":"海寮","LANE":" ","ALLEY":" ","HOUSE_NO":"１３２之２７號","E_COORD97":169043.89000000001,"N_COORD97":2555462.2999999998,"ADDRESS":"海寮１３２之２７號","OBJECTID":144174},"geometry":{"x":169043.88999999966,"y":2555462.3000000045}},{"attributes":{"ID":144175,"DIS_CODE":0,"TOWNNAME":"安定區","LI":"六嘉里","LIN":"8鄰","STREET":" ","SECT":" ","MAREA":"六塊寮","LANE":" ","ALLEY":" ","HOUSE_NO":"７５號","E_COORD97":170246.82000000001,"N_COORD97":2553345.27,"ADDRESS":"六塊寮７５號","OBJECTID":144175},"geometry":{"x":170246.8200000003,"y":2553345.2699999977}},{"attributes":{"ID":144176,"DIS_CODE":0,"TOWNNAME":"安定區","LI":"中沙里","LIN":"4鄰","STREET":" ","SECT":" ","MAREA":"中崙","LANE":" ","ALLEY":" ","HOUSE_NO":"１６７號","E_COORD97":169164.01000000001,"N_COORD97":2552888.25,"ADDRESS":"中崙１６７號","OBJECTID":144176},"geometry":{"x":169164.01000000164,"y":2552888.2499999981}},{"attributes":{"ID":144177,"DIS_CODE":0,"TOWNNAME":"安定區","LI":"港尾里","LIN":"4鄰","STREET":" ","SECT":" ","MAREA":"港子尾","LANE":" ","ALLEY":" ","HOUSE_NO":"１６之１７號","E_COORD97":172179.34,"N_COORD97":2556364.2999999998,"ADDRESS":"港子尾１６之１７號","OBJECTID":144177},"geometry":{"x":172179.34000000171,"y":2556364.3000000026}},{"attributes":{"ID":144178,"DIS_CODE":0,"TOWNNAME":"安定區","LI":"海寮里","LIN":"18鄰","STREET":" ","SECT":" ","MAREA":"海寮","LANE":" ","ALLEY":" ","HOUSE_NO":"１７７號","E_COORD97":169393.54000000001,"N_COORD97":2555450.25,"ADDRESS":"海寮１７７號","OBJECTID":144178},"geometry":{"x":169393.54000000097,"y":2555450.25}},{"attributes":{"ID":144179,"DIS_CODE":0,"TOWNNAME":"新市區","LI":"大社里","LIN":"30鄰","STREET":" ","SECT":" ","MAREA":"大社","LANE":" ","ALLEY":" ","HOUSE_NO":"９９２之１７號","E_COORD97":180251.26000000001,"N_COORD97":2553685.5499999998,"ADDRESS":"大社９９２之１７號","OBJECTID":144179},"geometry":{"x":180251.26000000071,"y":2553685.5500000026}},{"attributes":{"ID":144180,"DIS_CODE":0,"TOWNNAME":"新市區","LI":"大社里","LIN":"30鄰","STREET":" ","SECT":" ","MAREA":"大社","LANE":" ","ALLEY":" ","HOUSE_NO":"９８８號","E_COORD97":180266.10000000001,"N_COORD97":2553725.25,"ADDRESS":"大社９８８號","OBJECTID":144180},"geometry":{"x":180266.09999999963,"y":2553725.25}},{"attributes":{"ID":144181,"DIS_CODE":0,"TOWNNAME":"新市區","LI":"大社里","LIN":"30鄰","STREET":" ","SECT":" ","MAREA":"大社","LANE":" ","ALLEY":" ","HOUSE_NO":"９８５之８號","E_COORD97":180259.76000000001,"N_COORD97":2553773.5499999998,"ADDRESS":"大社９８５之８號","OBJECTID":144181},"geometry":{"x":180259.76000000071,"y":2553773.5500000026}},{"attributes":{"ID":144182,"DIS_CODE":0,"TOWNNAME":"新市區","LI":"大社里","LIN":"30鄰","STREET":" ","SECT":" ","MAREA":"大社","LANE":" ","ALLEY":" ","HOUSE_NO":"９８５之１５號","E_COORD97":180251.76999999999,"N_COORD97":2553743.5499999998,"ADDRESS":"大社９８５之１５號","OBJECTID":144182},"geometry":{"x":180251.76999999955,"y":2553743.5500000007}},{"attributes":{"ID":144183,"DIS_CODE":0,"TOWNNAME":"新市區","LI":"大社里","LIN":"30鄰","STREET":" ","SECT":" ","MAREA":"大社","LANE":" ","ALLEY":" ","HOUSE_NO":"９９０號","E_COORD97":180268.10000000001,"N_COORD97":2553716.5,"ADDRESS":"大社９９０號","OBJECTID":144183},"geometry":{"x":180268.09999999963,"y":2553716.5}},{"attributes":{"ID":144184,"DIS_CODE":0,"TOWNNAME":"新市區","LI":"大社里","LIN":"30鄰","STREET":" ","SECT":" ","MAREA":"大社","LANE":" ","ALLEY":" ","HOUSE_NO":"９８５之１３號","E_COORD97":180267.45999999999,"N_COORD97":2553750.5499999998,"ADDRESS":"大社９８５之１３號","OBJECTID":144184},"geometry":{"x":180267.45999999996,"y":2553750.5500000007}},{"attributes":{"ID":144185,"DIS_CODE":0,"TOWNNAME":"新市區","LI":"大社里","LIN":"30鄰","STREET":" ","SECT":" ","MAREA":"大社","LANE":" ","ALLEY":" ","HOUSE_NO":"９８５號","E_COORD97":180251.51000000001,"N_COORD97":2553788.75,"ADDRESS":"大社９８５號","OBJECTID":144185},"geometry":{"x":180251.50999999978,"y":2553788.75}},{"attributes":{"ID":144186,"DIS_CODE":0,"TOWNNAME":"新市區","LI":"大社里","LIN":"30鄰","STREET":" ","SECT":" ","MAREA":"大社","LANE":" ","ALLEY":" ","HOUSE_NO":"９８５之６號","E_COORD97":180243.01000000001,"N_COORD97":2553772.5499999998,"ADDRESS":"大社９８５之６號","OBJECTID":144186},"geometry":{"x":180243.00999999978,"y":2553772.5500000026}},{"attributes":{"ID":144187,"DIS_CODE":0,"TOWNNAME":"新市區","LI":"大社里","LIN":"30鄰","STREET":" ","SECT":" ","MAREA":"大社","LANE":" ","ALLEY":" ","HOUSE_NO":"９９２之６號","E_COORD97":180281.87,"N_COORD97":2553691.5499999998,"ADDRESS":"大社９９２之６號","OBJECTID":144187},"geometry":{"x":180281.87000000011,"y":2553691.5500000026}},{"attributes":{"ID":144188,"DIS_CODE":0,"TOWNNAME":"新市區","LI":"大社里","LIN":"30鄰","STREET":" ","SECT":" ","MAREA":"大社","LANE":" ","ALLEY":" ","HOUSE_NO":"９９２之２５號","E_COORD97":180156.01999999999,"N_COORD97":2553703.5499999998,"ADDRESS":"大社９９２之２５號","OBJECTID":144188},"geometry":{"x":180156.02000000048,"y":2553703.5500000007}},{"attributes":{"ID":144189,"DIS_CODE":0,"TOWNNAME":"新市區","LI":"大社里","LIN":"30鄰","STREET":" ","SECT":" ","MAREA":"大社","LANE":" ","ALLEY":" ","HOUSE_NO":"１００５號","E_COORD97":180357.62,"N_COORD97":2553389.75,"ADDRESS":"大社１００５號","OBJECTID":144189},"geometry":{"x":180357.62000000104,"y":2553389.75}},{"attributes":{"ID":144190,"DIS_CODE":0,"TOWNNAME":"新市區","LI":"大社里","LIN":"30鄰","STREET":" ","SECT":" ","MAREA":"大社","LANE":" ","ALLEY":" ","HOUSE_NO":"９９２之１０號","E_COORD97":180287.10000000001,"N_COORD97":2553673.5499999998,"ADDRESS":"大社９９２之１０號","OBJECTID":144190},"geometry":{"x":180287.10000000149,"y":2553673.5499999989}},{"attributes":{"ID":144191,"DIS_CODE":0,"TOWNNAME":"安定區","LI":"港口里","LIN":"20鄰","STREET":" ","SECT":" ","MAREA":"港口","LANE":" ","ALLEY":" ","HOUSE_NO":"３９９之４８號","E_COORD97":171615.04000000001,"N_COORD97":2554966.2999999998,"ADDRESS":"港口３９９之４８號","OBJECTID":144191},"geometry":{"x":171615.04000000004,"y":2554966.3000000007}},{"attributes":{"ID":144192,"DIS_CODE":0,"TOWNNAME":"安定區","LI":"海寮里","LIN":"20鄰","STREET":" ","SECT":" ","MAREA":"海寮","LANE":" ","ALLEY":" ","HOUSE_NO":"１９３號","E_COORD97":169482.23999999999,"N_COORD97":2555558.25,"ADDRESS":"海寮１９３號","OBJECTID":144192},"geometry":{"x":169482.24000000115,"y":2555558.2500000019}},{"attributes":{"ID":144193,"DIS_CODE":0,"TOWNNAME":"安定區","LI":"海寮里","LIN":"14鄰","STREET":" ","SECT":" ","MAREA":"海寮","LANE":" ","ALLEY":" ","HOUSE_NO":"１３３之１５號","E_COORD97":169042.410076,"N_COORD97":2555379.0442400002,"ADDRESS":"海寮１３３之１５號","OBJECTID":144193},"geometry":{"x":169042.41007600166,"y":2555379.0442370009}},{"attributes":{"ID":144194,"DIS_CODE":0,"TOWNNAME":"中西區","LI":"西湖里","LIN":"30鄰","STREET":"湖美街","SECT":" ","MAREA":" ","LANE":" ","ALLEY":" ","HOUSE_NO":"１０６號之８","E_COORD97":165993.67000000001,"N_COORD97":2544859.8900000001,"ADDRESS":"湖美街１０６號之８","OBJECTID":144194},"geometry":{"x":165993.67000000086,"y":2544859.8900000043}},{"attributes":{"ID":144195,"DIS_CODE":0,"TOWNNAME":"南區","LI":"大恩里","LIN":"3鄰","STREET":"國民路","SECT":" ","MAREA":" ","LANE":"１１６巷","ALLEY":"１５弄","HOUSE_NO":"６號","E_COORD97":169284.78,"N_COORD97":2540993.5,"ADDRESS":"國民路１１６巷１５弄６號","OBJECTID":144195},"geometry":{"x":169284.78000000212,"y":2540993.5000000037}},{"attributes":{"ID":144196,"DIS_CODE":0,"TOWNNAME":"南區","LI":"大恩里","LIN":"3鄰","STREET":"國民路","SECT":" ","MAREA":" ","LANE":"１１６巷","ALLEY":"１５弄","HOUSE_NO":"７號","E_COORD97":169278.38,"N_COORD97":2540975.3100000001,"ADDRESS":"國民路１１６巷１５弄７號","OBJECTID":144196},"geometry":{"x":169278.37999999989,"y":2540975.3100000024}},{"attributes":{"ID":144197,"DIS_CODE":0,"TOWNNAME":"安定區","LI":"海寮里","LIN":"14鄰","STREET":" ","SECT":" ","MAREA":"海寮","LANE":" ","ALLEY":" ","HOUSE_NO":"１３２號之３４","E_COORD97":169048.54999999999,"N_COORD97":2555434.2999999998,"ADDRESS":"海寮１３２號之３４","OBJECTID":144197},"geometry":{"x":169048.55000000168,"y":2555434.3000000007}},{"attributes":{"ID":144198,"DIS_CODE":0,"TOWNNAME":"安定區","LI":"港口里","LIN":"17鄰","STREET":" ","SECT":" ","MAREA":"港口","LANE":" ","ALLEY":" ","HOUSE_NO":"３６２號","E_COORD97":171410.52529699999,"N_COORD97":2554817.8628199999,"ADDRESS":"港口３６２號","OBJECTID":144198},"geometry":{"x":171410.52529700194,"y":2554817.8628240041}},{"attributes":{"ID":144199,"DIS_CODE":0,"TOWNNAME":"南區","LI":"大恩里","LIN":"3鄰","STREET":"國民路","SECT":" ","MAREA":" ","LANE":"１１６巷","ALLEY":"１５弄","HOUSE_NO":"８號","E_COORD97":169278.03,"N_COORD97":2540992.8100000001,"ADDRESS":"國民路１１６巷１５弄８號","OBJECTID":144199},"geometry":{"x":169278.03000000212,"y":2540992.8100000024}},{"attributes":{"ID":144200,"DIS_CODE":0,"TOWNNAME":"南區","LI":"大恩里","LIN":"3鄰","STREET":"國民路","SECT":" ","MAREA":" ","LANE":"１１６巷","ALLEY":"１５弄","HOUSE_NO":"９號","E_COORD97":169271.85999999999,"N_COORD97":2540974.2799999998,"ADDRESS":"國民路１１６巷１５弄９號","OBJECTID":144200},"geometry":{"x":169271.86000000034,"y":2540974.2800000012}}]}