{"displayFieldName":"TOWNNAME","fieldAliases":{"ID":"ID","DIS_CODE":"DIS_CODE","TOWNNAME":"TOWNNAME","LI":"LI","LIN":"LIN","STREET":"STREET","SECT":"SECT","MAREA":"MAREA","LANE":"LANE","ALLEY":"ALLEY","HOUSE_NO":"HOUSE_NO","E_COORD97":"E_COORD97","N_COORD97":"N_COORD97","ADDRESS":"ADDRESS","OBJECTID":"OBJECTID"},"geometryType":"esriGeometryPoint","spatialReference":{"wkid":102443,"latestWkid":3826},"fields":[{"name":"ID","type":"esriFieldTypeDouble","alias":"ID"},{"name":"DIS_CODE","type":"esriFieldTypeInteger","alias":"DIS_CODE"},{"name":"TOWNNAME","type":"esriFieldTypeString","alias":"TOWNNAME","length":8},{"name":"LI","type":"esriFieldTypeString","alias":"LI","length":8},{"name":"LIN","type":"esriFieldTypeString","alias":"LIN","length":12},{"name":"STREET","type":"esriFieldTypeString","alias":"STREET","length":20},{"name":"SECT","type":"esriFieldTypeString","alias":"SECT","length":8},{"name":"MAREA","type":"esriFieldTypeString","alias":"MAREA","length":12},{"name":"LANE","type":"esriFieldTypeString","alias":"LANE","length":10},{"name":"ALLEY","type":"esriFieldTypeString","alias":"ALLEY","length":10},{"name":"HOUSE_NO","type":"esriFieldTypeString","alias":"HOUSE_NO","length":20},{"name":"E_COORD97","type":"esriFieldTypeDouble","alias":"E_COORD97"},{"name":"N_COORD97","type":"esriFieldTypeDouble","alias":"N_COORD97"},{"name":"ADDRESS","type":"esriFieldTypeString","alias":"ADDRESS","length":50},{"name":"OBJECTID","type":"esriFieldTypeOID","alias":"OBJECTID"}],"features":[{"attributes":{"ID":471826,"DIS_CODE":0,"TOWNNAME":"東區","LI":"東智里","LIN":"18鄰","STREET":"崇德三十四街","SECT":" ","MAREA":" ","LANE":" ","ALLEY":" ","HOUSE_NO":"１０號","E_COORD97":170837.31,"N_COORD97":2540016.4399999999,"ADDRESS":"崇德三十四街１０號","OBJECTID":471801},"geometry":{"x":170837.31000000052,"y":2540016.4399999976}},{"attributes":{"ID":471827,"DIS_CODE":0,"TOWNNAME":"東區","LI":"東智里","LIN":"18鄰","STREET":"崇德三十四街","SECT":" ","MAREA":" ","LANE":" ","ALLEY":" ","HOUSE_NO":"１１號","E_COORD97":170841.42000000001,"N_COORD97":2540017,"ADDRESS":"崇德三十四街１１號","OBJECTID":471802},"geometry":{"x":170841.42000000179,"y":2540017.0000000037}},{"attributes":{"ID":471828,"DIS_CODE":0,"TOWNNAME":"東區","LI":"東智里","LIN":"18鄰","STREET":"崇德三十四街","SECT":" ","MAREA":" ","LANE":" ","ALLEY":" ","HOUSE_NO":"１２號","E_COORD97":170846.44,"N_COORD97":2540017.6000000001,"ADDRESS":"崇德三十四街１２號","OBJECTID":471803},"geometry":{"x":170846.44000000041,"y":2540017.5999999996}},{"attributes":{"ID":471829,"DIS_CODE":0,"TOWNNAME":"東區","LI":"東智里","LIN":"18鄰","STREET":"崇德三十四街","SECT":" ","MAREA":" ","LANE":" ","ALLEY":" ","HOUSE_NO":"１３號","E_COORD97":170849.42000000001,"N_COORD97":2540017.8900000001,"ADDRESS":"崇德三十四街１３號","OBJECTID":471804},"geometry":{"x":170849.41999999993,"y":2540017.8900000006}},{"attributes":{"ID":471830,"DIS_CODE":0,"TOWNNAME":"東區","LI":"東智里","LIN":"18鄰","STREET":"崇德三十四街","SECT":" ","MAREA":" ","LANE":" ","ALLEY":" ","HOUSE_NO":"１４號","E_COORD97":170854.51999999999,"N_COORD97":2540018.73,"ADDRESS":"崇德三十四街１４號","OBJECTID":471805},"geometry":{"x":170854.52000000048,"y":2540018.7300000004}},{"attributes":{"ID":471831,"DIS_CODE":0,"TOWNNAME":"東區","LI":"東智里","LIN":"18鄰","STREET":"崇德三十四街","SECT":" ","MAREA":" ","LANE":" ","ALLEY":" ","HOUSE_NO":"１５號","E_COORD97":170858.20000000001,"N_COORD97":2540019.02,"ADDRESS":"崇德三十四街１５號","OBJECTID":471806},"geometry":{"x":170858.19999999925,"y":2540019.0199999996}},{"attributes":{"ID":471832,"DIS_CODE":0,"TOWNNAME":"東區","LI":"東智里","LIN":"18鄰","STREET":"崇德三十四街","SECT":" ","MAREA":" ","LANE":" ","ALLEY":" ","HOUSE_NO":"１６號","E_COORD97":170862.01999999999,"N_COORD97":2540019.4399999999,"ADDRESS":"崇德三十四街１６號","OBJECTID":471807},"geometry":{"x":170862.01999999955,"y":2540019.4399999995}},{"attributes":{"ID":471833,"DIS_CODE":0,"TOWNNAME":"東區","LI":"東智里","LIN":"18鄰","STREET":"崇德三十四街","SECT":" ","MAREA":" ","LANE":" ","ALLEY":" ","HOUSE_NO":"１７號","E_COORD97":170865.98000000001,"N_COORD97":2540020.0099999998,"ADDRESS":"崇德三十四街１７號","OBJECTID":471808},"geometry":{"x":170865.98000000138,"y":2540020.0100000035}},{"attributes":{"ID":471834,"DIS_CODE":0,"TOWNNAME":"東區","LI":"東智里","LIN":"18鄰","STREET":"崇德三十四街","SECT":" ","MAREA":" ","LANE":" ","ALLEY":" ","HOUSE_NO":"１８號","E_COORD97":170870.23000000001,"N_COORD97":2540020.71,"ADDRESS":"崇德三十四街１８號","OBJECTID":471809},"geometry":{"x":170870.23000000231,"y":2540020.7100000028}},{"attributes":{"ID":471835,"DIS_CODE":0,"TOWNNAME":"東區","LI":"東智里","LIN":"18鄰","STREET":"崇德三十四街","SECT":" ","MAREA":" ","LANE":" ","ALLEY":" ","HOUSE_NO":"１９號","E_COORD97":170874.62,"N_COORD97":2540021.2799999998,"ADDRESS":"崇德三十四街１９號","OBJECTID":471810},"geometry":{"x":170874.62000000104,"y":2540021.2800000012}},{"attributes":{"ID":471836,"DIS_CODE":0,"TOWNNAME":"東區","LI":"東智里","LIN":"18鄰","STREET":"崇德三十四街","SECT":" ","MAREA":" ","LANE":" ","ALLEY":" ","HOUSE_NO":"１號","E_COORD97":170804.32000000001,"N_COORD97":2540011.9100000001,"ADDRESS":"崇德三十四街１號","OBJECTID":471811},"geometry":{"x":170804.3200000003,"y":2540011.910000002}},{"attributes":{"ID":471837,"DIS_CODE":0,"TOWNNAME":"東區","LI":"東智里","LIN":"18鄰","STREET":"崇德三十四街","SECT":" ","MAREA":" ","LANE":" ","ALLEY":" ","HOUSE_NO":"２０號","E_COORD97":170878.73000000001,"N_COORD97":2540022.27,"ADDRESS":"崇德三十四街２０號","OBJECTID":471812},"geometry":{"x":170878.73000000231,"y":2540022.2700000014}},{"attributes":{"ID":471838,"DIS_CODE":0,"TOWNNAME":"東區","LI":"東智里","LIN":"18鄰","STREET":"崇德三十四街","SECT":" ","MAREA":" ","LANE":" ","ALLEY":" ","HOUSE_NO":"２１號","E_COORD97":170882.98000000001,"N_COORD97":2540022.98,"ADDRESS":"崇德三十四街２１號","OBJECTID":471813},"geometry":{"x":170882.98000000138,"y":2540022.9800000004}},{"attributes":{"ID":471839,"DIS_CODE":0,"TOWNNAME":"東區","LI":"東智里","LIN":"18鄰","STREET":"崇德三十四街","SECT":" ","MAREA":" ","LANE":" ","ALLEY":" ","HOUSE_NO":"２２號","E_COORD97":170886.79999999999,"N_COORD97":2540023.2599999998,"ADDRESS":"崇德三十四街２２號","OBJECTID":471814},"geometry":{"x":170886.80000000075,"y":2540023.2600000016}},{"attributes":{"ID":471840,"DIS_CODE":0,"TOWNNAME":"東區","LI":"東智里","LIN":"18鄰","STREET":"崇德三十四街","SECT":" ","MAREA":" ","LANE":" ","ALLEY":" ","HOUSE_NO":"２３號","E_COORD97":170890.76000000001,"N_COORD97":2540023.6800000002,"ADDRESS":"崇德三十四街２３號","OBJECTID":471815},"geometry":{"x":170890.75999999978,"y":2540023.6800000016}},{"attributes":{"ID":471841,"DIS_CODE":0,"TOWNNAME":"東區","LI":"東智里","LIN":"18鄰","STREET":"崇德三十四街","SECT":" ","MAREA":" ","LANE":" ","ALLEY":" ","HOUSE_NO":"２４號","E_COORD97":170895.01000000001,"N_COORD97":2540023.8199999998,"ADDRESS":"崇德三十四街２４號","OBJECTID":471816},"geometry":{"x":170895.01000000071,"y":2540023.8200000003}},{"attributes":{"ID":471842,"DIS_CODE":0,"TOWNNAME":"東區","LI":"東智里","LIN":"18鄰","STREET":"崇德三十四街","SECT":" ","MAREA":" ","LANE":" ","ALLEY":" ","HOUSE_NO":"２５號","E_COORD97":170898.82999999999,"N_COORD97":2540024.5299999998,"ADDRESS":"崇德三十四街２５號","OBJECTID":471817},"geometry":{"x":170898.83000000101,"y":2540024.5299999993}},{"attributes":{"ID":471843,"DIS_CODE":0,"TOWNNAME":"東區","LI":"東智里","LIN":"18鄰","STREET":"崇德三十四街","SECT":" ","MAREA":" ","LANE":" ","ALLEY":" ","HOUSE_NO":"２６號","E_COORD97":170903.22,"N_COORD97":2540024.96,"ADDRESS":"崇德三十四街２６號","OBJECTID":471818},"geometry":{"x":170903.21999999974,"y":2540024.9600000046}},{"attributes":{"ID":471844,"DIS_CODE":0,"TOWNNAME":"東區","LI":"東智里","LIN":"18鄰","STREET":"崇德三十四街","SECT":" ","MAREA":" ","LANE":" ","ALLEY":" ","HOUSE_NO":"２７號","E_COORD97":170907.89999999999,"N_COORD97":2540025.7999999998,"ADDRESS":"崇德三十四街２７號","OBJECTID":471819},"geometry":{"x":170907.89999999944,"y":2540025.8000000045}},{"attributes":{"ID":471845,"DIS_CODE":0,"TOWNNAME":"東區","LI":"東智里","LIN":"18鄰","STREET":"崇德三十四街","SECT":" ","MAREA":" ","LANE":" ","ALLEY":" ","HOUSE_NO":"２８號","E_COORD97":170911.44,"N_COORD97":2540026.79,"ADDRESS":"崇德三十四街２８號","OBJECTID":471820},"geometry":{"x":170911.44000000134,"y":2540026.7899999991}},{"attributes":{"ID":471846,"DIS_CODE":0,"TOWNNAME":"東區","LI":"東智里","LIN":"18鄰","STREET":"崇德三十四街","SECT":" ","MAREA":" ","LANE":" ","ALLEY":" ","HOUSE_NO":"２９號","E_COORD97":170915.82999999999,"N_COORD97":2540026.9399999999,"ADDRESS":"崇德三十四街２９號","OBJECTID":471821},"geometry":{"x":170915.83000000007,"y":2540026.9400000032}},{"attributes":{"ID":471847,"DIS_CODE":0,"TOWNNAME":"永康區","LI":"正強里","LIN":"5鄰","STREET":"自強路","SECT":" ","MAREA":" ","LANE":" ","ALLEY":" ","HOUSE_NO":"３９０號","E_COORD97":173553.92999999999,"N_COORD97":2547796.6099999999,"ADDRESS":"自強路３９０號","OBJECTID":471822},"geometry":{"x":173553.93000000063,"y":2547796.6100000031}},{"attributes":{"ID":471848,"DIS_CODE":0,"TOWNNAME":"永康區","LI":"永康里","LIN":"38鄰","STREET":"永大路","SECT":"二段","MAREA":" ","LANE":" ","ALLEY":" ","HOUSE_NO":"１１４８號","E_COORD97":174390.95999999999,"N_COORD97":2546633.3199999998,"ADDRESS":"永大路二段１１４８號","OBJECTID":471823},"geometry":{"x":174390.96000000089,"y":2546633.3200000022}},{"attributes":{"ID":471849,"DIS_CODE":0,"TOWNNAME":"永康區","LI":"安康里","LIN":"8鄰","STREET":"中山南路","SECT":" ","MAREA":" ","LANE":" ","ALLEY":" ","HOUSE_NO":"１５３號","E_COORD97":171064.54999999999,"N_COORD97":2545966.9900000002,"ADDRESS":"中山南路１５３號","OBJECTID":471824},"geometry":{"x":171064.55000000075,"y":2545966.9899999984}},{"attributes":{"ID":471850,"DIS_CODE":0,"TOWNNAME":"下營區","LI":"新興里","LIN":"18鄰","STREET":"中華街","SECT":" ","MAREA":" ","LANE":" ","ALLEY":" ","HOUSE_NO":"５７號","E_COORD97":175015.23000000001,"N_COORD97":2570505.8999999999,"ADDRESS":"中華街５７號","OBJECTID":471825},"geometry":{"x":175015.23000000138,"y":2570505.9000000004}},{"attributes":{"ID":471851,"DIS_CODE":0,"TOWNNAME":"下營區","LI":"新興里","LIN":"18鄰","STREET":"中華街","SECT":" ","MAREA":" ","LANE":" ","ALLEY":" ","HOUSE_NO":"５９號","E_COORD97":175019.76999999999,"N_COORD97":2570506.6000000001,"ADDRESS":"中華街５９號","OBJECTID":471826},"geometry":{"x":175019.76999999955,"y":2570506.6000000015}},{"attributes":{"ID":471852,"DIS_CODE":0,"TOWNNAME":"下營區","LI":"仁里里","LIN":"18鄰","STREET":"中山路","SECT":"二段","MAREA":" ","LANE":" ","ALLEY":" ","HOUSE_NO":"２６號","E_COORD97":174358.23000000001,"N_COORD97":2570435.1200000001,"ADDRESS":"中山路二段２６號","OBJECTID":471827},"geometry":{"x":174358.23000000045,"y":2570435.120000001}},{"attributes":{"ID":471853,"DIS_CODE":0,"TOWNNAME":"下營區","LI":"仁里里","LIN":"18鄰","STREET":"中山路","SECT":"二段","MAREA":" ","LANE":" ","ALLEY":" ","HOUSE_NO":"２８號","E_COORD97":174359.01000000001,"N_COORD97":2570430.8199999998,"ADDRESS":"中山路二段２８號","OBJECTID":471828},"geometry":{"x":174359.00999999978,"y":2570430.8200000022}},{"attributes":{"ID":471854,"DIS_CODE":0,"TOWNNAME":"下營區","LI":"仁里里","LIN":"18鄰","STREET":"中山路","SECT":"二段","MAREA":" ","LANE":" ","ALLEY":" ","HOUSE_NO":"３０號","E_COORD97":174359.75,"N_COORD97":2570426.8599999999,"ADDRESS":"中山路二段３０號","OBJECTID":471829},"geometry":{"x":174359.75,"y":2570426.8600000013}},{"attributes":{"ID":471855,"DIS_CODE":0,"TOWNNAME":"下營區","LI":"仁里里","LIN":"18鄰","STREET":"中山路","SECT":"二段","MAREA":" ","LANE":" ","ALLEY":" ","HOUSE_NO":"３２號","E_COORD97":174360.70999999999,"N_COORD97":2570420.1800000002,"ADDRESS":"中山路二段３２號","OBJECTID":471830},"geometry":{"x":174360.71000000089,"y":2570420.1800000034}},{"attributes":{"ID":471856,"DIS_CODE":0,"TOWNNAME":"下營區","LI":"仁里里","LIN":"18鄰","STREET":"中山路","SECT":"二段","MAREA":" ","LANE":" ","ALLEY":" ","HOUSE_NO":"３６號","E_COORD97":174361.42999999999,"N_COORD97":2570416.1299999999,"ADDRESS":"中山路二段３６號","OBJECTID":471831},"geometry":{"x":174361.4299999997,"y":2570416.1299999971}},{"attributes":{"ID":471857,"DIS_CODE":0,"TOWNNAME":"下營區","LI":"仁里里","LIN":"18鄰","STREET":"中山路","SECT":"二段","MAREA":" ","LANE":" ","ALLEY":" ","HOUSE_NO":"３８號","E_COORD97":174362.10999999999,"N_COORD97":2570412.5499999998,"ADDRESS":"中山路二段３８號","OBJECTID":471832},"geometry":{"x":174362.11000000127,"y":2570412.5500000026}},{"attributes":{"ID":471858,"DIS_CODE":0,"TOWNNAME":"下營區","LI":"仁里里","LIN":"18鄰","STREET":"中山路","SECT":"二段","MAREA":" ","LANE":" ","ALLEY":" ","HOUSE_NO":"４０號","E_COORD97":174362.79999999999,"N_COORD97":2570408.8300000001,"ADDRESS":"中山路二段４０號","OBJECTID":471833},"geometry":{"x":174362.79999999888,"y":2570408.8300000001}},{"attributes":{"ID":471859,"DIS_CODE":0,"TOWNNAME":"下營區","LI":"仁里里","LIN":"18鄰","STREET":"中山路","SECT":"二段","MAREA":" ","LANE":" ","ALLEY":" ","HOUSE_NO":"５６號","E_COORD97":174367.19,"N_COORD97":2570390.2799999998,"ADDRESS":"中山路二段５６號","OBJECTID":471834},"geometry":{"x":174367.19000000041,"y":2570390.2800000012}},{"attributes":{"ID":471860,"DIS_CODE":0,"TOWNNAME":"下營區","LI":"仁里里","LIN":"18鄰","STREET":"中山路","SECT":"二段","MAREA":" ","LANE":" ","ALLEY":" ","HOUSE_NO":"５８號","E_COORD97":174368.59,"N_COORD97":2570385.7200000002,"ADDRESS":"中山路二段５８號","OBJECTID":471835},"geometry":{"x":174368.59000000078,"y":2570385.7200000007}},{"attributes":{"ID":471861,"DIS_CODE":0,"TOWNNAME":"下營區","LI":"仁里里","LIN":"18鄰","STREET":"中山路","SECT":"二段","MAREA":" ","LANE":" ","ALLEY":" ","HOUSE_NO":"６０號","E_COORD97":174369.67000000001,"N_COORD97":2570381.27,"ADDRESS":"中山路二段６０號","OBJECTID":471836},"geometry":{"x":174369.67000000086,"y":2570381.2699999996}},{"attributes":{"ID":471862,"DIS_CODE":0,"TOWNNAME":"下營區","LI":"仁里里","LIN":"18鄰","STREET":"中山路","SECT":"二段","MAREA":" ","LANE":" ","ALLEY":" ","HOUSE_NO":"６２號","E_COORD97":174370.48000000001,"N_COORD97":2570377.1000000001,"ADDRESS":"中山路二段６２號","OBJECTID":471837},"geometry":{"x":174370.48000000045,"y":2570377.1000000015}},{"attributes":{"ID":471863,"DIS_CODE":0,"TOWNNAME":"下營區","LI":"仁里里","LIN":"18鄰","STREET":"中山路","SECT":"二段","MAREA":" ","LANE":" ","ALLEY":" ","HOUSE_NO":"６６號","E_COORD97":174375.72,"N_COORD97":2570373.3500000001,"ADDRESS":"中山路二段６６號","OBJECTID":471838},"geometry":{"x":174375.72000000067,"y":2570373.3499999996}},{"attributes":{"ID":471864,"DIS_CODE":0,"TOWNNAME":"下營區","LI":"新興里","LIN":"18鄰","STREET":"中華街","SECT":" ","MAREA":" ","LANE":" ","ALLEY":" ","HOUSE_NO":"１００號","E_COORD97":175048.42000000001,"N_COORD97":2570489.9300000002,"ADDRESS":"中華街１００號","OBJECTID":471839},"geometry":{"x":175048.41999999993,"y":2570489.9300000034}},{"attributes":{"ID":471865,"DIS_CODE":0,"TOWNNAME":"下營區","LI":"新興里","LIN":"18鄰","STREET":"中華街","SECT":" ","MAREA":" ","LANE":" ","ALLEY":" ","HOUSE_NO":"１０２號","E_COORD97":175052.62,"N_COORD97":2570491.4100000001,"ADDRESS":"中華街１０２號","OBJECTID":471840},"geometry":{"x":175052.61999999918,"y":2570491.410000002}},{"attributes":{"ID":471866,"DIS_CODE":0,"TOWNNAME":"下營區","LI":"新興里","LIN":"18鄰","STREET":"中華街","SECT":" ","MAREA":" ","LANE":" ","ALLEY":" ","HOUSE_NO":"１０６號","E_COORD97":175056.89999999999,"N_COORD97":2570492.27,"ADDRESS":"中華街１０６號","OBJECTID":471841},"geometry":{"x":175056.9000000013,"y":2570492.2700000014}},{"attributes":{"ID":471867,"DIS_CODE":0,"TOWNNAME":"下營區","LI":"新興里","LIN":"18鄰","STREET":"中華街","SECT":" ","MAREA":" ","LANE":" ","ALLEY":" ","HOUSE_NO":"１２２號","E_COORD97":175087.73999999999,"N_COORD97":2570521.46,"ADDRESS":"中華街１２２號","OBJECTID":471842},"geometry":{"x":175087.74000000115,"y":2570521.4600000046}},{"attributes":{"ID":471868,"DIS_CODE":0,"TOWNNAME":"下營區","LI":"新興里","LIN":"18鄰","STREET":"中華街","SECT":" ","MAREA":" ","LANE":" ","ALLEY":" ","HOUSE_NO":"１２６號","E_COORD97":175089.67000000001,"N_COORD97":2570524.5499999998,"ADDRESS":"中華街１２６號","OBJECTID":471843},"geometry":{"x":175089.67000000086,"y":2570524.5500000026}},{"attributes":{"ID":471869,"DIS_CODE":0,"TOWNNAME":"下營區","LI":"新興里","LIN":"18鄰","STREET":"中華街","SECT":" ","MAREA":" ","LANE":" ","ALLEY":" ","HOUSE_NO":"１２８號","E_COORD97":175092.26000000001,"N_COORD97":2570527.6099999999,"ADDRESS":"中華街１２８號","OBJECTID":471844},"geometry":{"x":175092.26000000071,"y":2570527.6099999994}},{"attributes":{"ID":471870,"DIS_CODE":0,"TOWNNAME":"下營區","LI":"新興里","LIN":"18鄰","STREET":"中華街","SECT":" ","MAREA":" ","LANE":" ","ALLEY":" ","HOUSE_NO":"１３０號","E_COORD97":175094.51000000001,"N_COORD97":2570530.8900000001,"ADDRESS":"中華街１３０號","OBJECTID":471845},"geometry":{"x":175094.51000000071,"y":2570530.8900000006}},{"attributes":{"ID":471871,"DIS_CODE":0,"TOWNNAME":"下營區","LI":"新興里","LIN":"18鄰","STREET":"中華街","SECT":" ","MAREA":" ","LANE":" ","ALLEY":" ","HOUSE_NO":"１３２號","E_COORD97":175096.64000000001,"N_COORD97":2570534.0299999998,"ADDRESS":"中華街１３２號","OBJECTID":471846},"geometry":{"x":175096.6400000006,"y":2570534.0300000012}},{"attributes":{"ID":471872,"DIS_CODE":0,"TOWNNAME":"下營區","LI":"新興里","LIN":"18鄰","STREET":"中華街","SECT":" ","MAREA":" ","LANE":" ","ALLEY":" ","HOUSE_NO":"１３６號","E_COORD97":175099.12,"N_COORD97":2570537.6400000001,"ADDRESS":"中華街１３６號","OBJECTID":471847},"geometry":{"x":175099.12000000104,"y":2570537.6400000025}},{"attributes":{"ID":471873,"DIS_CODE":0,"TOWNNAME":"下營區","LI":"新興里","LIN":"18鄰","STREET":"中華街","SECT":" ","MAREA":" ","LANE":" ","ALLEY":" ","HOUSE_NO":"１４０號","E_COORD97":175103.37,"N_COORD97":2570546.0600000001,"ADDRESS":"中華街１４０號","OBJECTID":471848},"geometry":{"x":175103.37000000011,"y":2570546.0600000005}},{"attributes":{"ID":471874,"DIS_CODE":0,"TOWNNAME":"下營區","LI":"新興里","LIN":"18鄰","STREET":"中華街","SECT":" ","MAREA":" ","LANE":" ","ALLEY":" ","HOUSE_NO":"１４２號","E_COORD97":175105.25,"N_COORD97":2570549.9100000001,"ADDRESS":"中華街１４２號","OBJECTID":471849},"geometry":{"x":175105.25,"y":2570549.9100000001}},{"attributes":{"ID":471875,"DIS_CODE":0,"TOWNNAME":"下營區","LI":"新興里","LIN":"18鄰","STREET":"中華街","SECT":" ","MAREA":" ","LANE":" ","ALLEY":" ","HOUSE_NO":"１４６號","E_COORD97":175106.53,"N_COORD97":2570553.5899999999,"ADDRESS":"中華街１４６號","OBJECTID":471850},"geometry":{"x":175106.53000000119,"y":2570553.5900000017}},{"attributes":{"ID":471876,"DIS_CODE":0,"TOWNNAME":"下營區","LI":"新興里","LIN":"18鄰","STREET":"中華街","SECT":" ","MAREA":" ","LANE":" ","ALLEY":" ","HOUSE_NO":"１４８號","E_COORD97":175108.34,"N_COORD97":2570557.1800000002,"ADDRESS":"中華街１４８號","OBJECTID":471851},"geometry":{"x":175108.33999999985,"y":2570557.1800000016}},{"attributes":{"ID":471877,"DIS_CODE":0,"TOWNNAME":"下營區","LI":"新興里","LIN":"18鄰","STREET":"中華街","SECT":" ","MAREA":" ","LANE":" ","ALLEY":" ","HOUSE_NO":"１５０號","E_COORD97":175109.67999999999,"N_COORD97":2570560.9500000002,"ADDRESS":"中華街１５０號","OBJECTID":471852},"geometry":{"x":175109.68000000063,"y":2570560.9500000011}},{"attributes":{"ID":471878,"DIS_CODE":0,"TOWNNAME":"下營區","LI":"新興里","LIN":"18鄰","STREET":"中華街","SECT":" ","MAREA":" ","LANE":" ","ALLEY":" ","HOUSE_NO":"１５２號","E_COORD97":175111.01999999999,"N_COORD97":2570564.52,"ADDRESS":"中華街１５２號","OBJECTID":471853},"geometry":{"x":175111.02000000048,"y":2570564.5200000014}},{"attributes":{"ID":471879,"DIS_CODE":0,"TOWNNAME":"下營區","LI":"新興里","LIN":"18鄰","STREET":"中華街","SECT":" ","MAREA":" ","LANE":" ","ALLEY":" ","HOUSE_NO":"１５６號","E_COORD97":175119.79000000001,"N_COORD97":2570571.7799999998,"ADDRESS":"中華街１５６號","OBJECTID":471854},"geometry":{"x":175119.79000000097,"y":2570571.7800000031}},{"attributes":{"ID":471880,"DIS_CODE":0,"TOWNNAME":"下營區","LI":"新興里","LIN":"18鄰","STREET":"中華街","SECT":" ","MAREA":" ","LANE":" ","ALLEY":" ","HOUSE_NO":"６１號","E_COORD97":175024.45999999999,"N_COORD97":2570507.2799999998,"ADDRESS":"中華街６１號","OBJECTID":471855},"geometry":{"x":175024.45999999996,"y":2570507.2800000031}},{"attributes":{"ID":471881,"DIS_CODE":0,"TOWNNAME":"下營區","LI":"新興里","LIN":"18鄰","STREET":"中華街","SECT":" ","MAREA":" ","LANE":" ","ALLEY":" ","HOUSE_NO":"６５號","E_COORD97":175032.73000000001,"N_COORD97":2570508.6400000001,"ADDRESS":"中華街６５號","OBJECTID":471856},"geometry":{"x":175032.73000000138,"y":2570508.6400000006}},{"attributes":{"ID":471882,"DIS_CODE":0,"TOWNNAME":"下營區","LI":"新興里","LIN":"18鄰","STREET":"中華街","SECT":" ","MAREA":" ","LANE":" ","ALLEY":" ","HOUSE_NO":"６７號","E_COORD97":175038.13,"N_COORD97":2570512.5899999999,"ADDRESS":"中華街６７號","OBJECTID":471857},"geometry":{"x":175038.12999999989,"y":2570512.5900000036}},{"attributes":{"ID":471883,"DIS_CODE":0,"TOWNNAME":"下營區","LI":"新興里","LIN":"18鄰","STREET":"中華街","SECT":" ","MAREA":" ","LANE":" ","ALLEY":" ","HOUSE_NO":"７１號","E_COORD97":175041.92999999999,"N_COORD97":2570514.9100000001,"ADDRESS":"中華街７１號","OBJECTID":471858},"geometry":{"x":175041.93000000063,"y":2570514.910000002}},{"attributes":{"ID":471884,"DIS_CODE":0,"TOWNNAME":"下營區","LI":"新興里","LIN":"18鄰","STREET":"中華街","SECT":" ","MAREA":" ","LANE":" ","ALLEY":" ","HOUSE_NO":"７３號","E_COORD97":175045.76000000001,"N_COORD97":2570517.3199999998,"ADDRESS":"中華街７３號","OBJECTID":471859},"geometry":{"x":175045.75999999978,"y":2570517.3200000003}},{"attributes":{"ID":471885,"DIS_CODE":0,"TOWNNAME":"下營區","LI":"新興里","LIN":"18鄰","STREET":"中華街","SECT":" ","MAREA":" ","LANE":" ","ALLEY":" ","HOUSE_NO":"７５號","E_COORD97":175049.16,"N_COORD97":2570519.3399999999,"ADDRESS":"中華街７５號","OBJECTID":471860},"geometry":{"x":175049.16000000201,"y":2570519.3399999999}},{"attributes":{"ID":471886,"DIS_CODE":0,"TOWNNAME":"下營區","LI":"新興里","LIN":"18鄰","STREET":"中華街","SECT":" ","MAREA":" ","LANE":" ","ALLEY":" ","HOUSE_NO":"８２號","E_COORD97":175018.60000000001,"N_COORD97":2570482.5600000001,"ADDRESS":"中華街８２號","OBJECTID":471861},"geometry":{"x":175018.60000000056,"y":2570482.5600000005}},{"attributes":{"ID":471887,"DIS_CODE":0,"TOWNNAME":"下營區","LI":"新興里","LIN":"18鄰","STREET":"中華街","SECT":" ","MAREA":" ","LANE":" ","ALLEY":" ","HOUSE_NO":"８６號","E_COORD97":175023.19,"N_COORD97":2570483.3599999999,"ADDRESS":"中華街８６號","OBJECTID":471862},"geometry":{"x":175023.19000000041,"y":2570483.3600000013}},{"attributes":{"ID":471888,"DIS_CODE":0,"TOWNNAME":"下營區","LI":"新興里","LIN":"18鄰","STREET":"中華街","SECT":" ","MAREA":" ","LANE":" ","ALLEY":" ","HOUSE_NO":"８９號","E_COORD97":175079.54000000001,"N_COORD97":2570542.75,"ADDRESS":"中華街８９號","OBJECTID":471863},"geometry":{"x":175079.54000000004,"y":2570542.7500000019}},{"attributes":{"ID":471889,"DIS_CODE":0,"TOWNNAME":"下營區","LI":"新興里","LIN":"18鄰","STREET":"中華街","SECT":" ","MAREA":" ","LANE":" ","ALLEY":" ","HOUSE_NO":"９０號","E_COORD97":175031.70000000001,"N_COORD97":2570484.8599999999,"ADDRESS":"中華街９０號","OBJECTID":471864},"geometry":{"x":175031.70000000019,"y":2570484.8599999994}},{"attributes":{"ID":471890,"DIS_CODE":0,"TOWNNAME":"下營區","LI":"新興里","LIN":"18鄰","STREET":"中華街","SECT":" ","MAREA":" ","LANE":" ","ALLEY":" ","HOUSE_NO":"９１號","E_COORD97":175083.09,"N_COORD97":2570555.5699999998,"ADDRESS":"中華街９１號","OBJECTID":471865},"geometry":{"x":175083.09000000171,"y":2570555.5700000003}},{"attributes":{"ID":471891,"DIS_CODE":0,"TOWNNAME":"下營區","LI":"新興里","LIN":"18鄰","STREET":"中華街","SECT":" ","MAREA":" ","LANE":" ","ALLEY":" ","HOUSE_NO":"９２號","E_COORD97":175035.64000000001,"N_COORD97":2570486.3799999999,"ADDRESS":"中華街９２號","OBJECTID":471866},"geometry":{"x":175035.6400000006,"y":2570486.3800000008}},{"attributes":{"ID":471892,"DIS_CODE":0,"TOWNNAME":"下營區","LI":"新興里","LIN":"18鄰","STREET":"中華街","SECT":" ","MAREA":" ","LANE":" ","ALLEY":" ","HOUSE_NO":"９３號","E_COORD97":175084.60000000001,"N_COORD97":2570559.6400000001,"ADDRESS":"中華街９３號","OBJECTID":471867},"geometry":{"x":175084.60000000149,"y":2570559.6400000006}},{"attributes":{"ID":471893,"DIS_CODE":0,"TOWNNAME":"下營區","LI":"新興里","LIN":"18鄰","STREET":"中華街","SECT":" ","MAREA":" ","LANE":" ","ALLEY":" ","HOUSE_NO":"９６號","E_COORD97":175039.81,"N_COORD97":2570487.6899999999,"ADDRESS":"中華街９６號","OBJECTID":471868},"geometry":{"x":175039.81000000052,"y":2570487.6900000032}},{"attributes":{"ID":471894,"DIS_CODE":0,"TOWNNAME":"下營區","LI":"新興里","LIN":"18鄰","STREET":"中華街","SECT":" ","MAREA":" ","LANE":" ","ALLEY":" ","HOUSE_NO":"９８號","E_COORD97":175044.06,"N_COORD97":2570488.8100000001,"ADDRESS":"中華街９８號","OBJECTID":471869},"geometry":{"x":175044.06000000145,"y":2570488.8100000024}},{"attributes":{"ID":471895,"DIS_CODE":0,"TOWNNAME":"永康區","LI":"永康里","LIN":"41鄰","STREET":"永福街","SECT":" ","MAREA":" ","LANE":" ","ALLEY":" ","HOUSE_NO":"９３號","E_COORD97":174272.23000000001,"N_COORD97":2546617.5,"ADDRESS":"永福街９３號","OBJECTID":471870},"geometry":{"x":174272.23000000045,"y":2546617.5}},{"attributes":{"ID":471896,"DIS_CODE":0,"TOWNNAME":"安南區","LI":"新順里","LIN":"18鄰","STREET":"育安四街","SECT":" ","MAREA":" ","LANE":" ","ALLEY":" ","HOUSE_NO":"３號","E_COORD97":169665.98999999999,"N_COORD97":2549504.6000000001,"ADDRESS":"育安四街３號","OBJECTID":471871},"geometry":{"x":169665.99000000022,"y":2549504.5999999996}},{"attributes":{"ID":471897,"DIS_CODE":0,"TOWNNAME":"安南區","LI":"新順里","LIN":"18鄰","STREET":"安生街","SECT":" ","MAREA":" ","LANE":" ","ALLEY":" ","HOUSE_NO":"４２號","E_COORD97":169644.38,"N_COORD97":2549496.7400000002,"ADDRESS":"安生街４２號","OBJECTID":471872},"geometry":{"x":169644.37999999989,"y":2549496.7400000002}},{"attributes":{"ID":471898,"DIS_CODE":0,"TOWNNAME":"安南區","LI":"新順里","LIN":"18鄰","STREET":"安生街","SECT":" ","MAREA":" ","LANE":" ","ALLEY":" ","HOUSE_NO":"４２號","E_COORD97":169644.47,"N_COORD97":2549496.6899999999,"ADDRESS":"安生街４２號","OBJECTID":471873},"geometry":{"x":169644.47000000067,"y":2549496.6899999995}},{"attributes":{"ID":471899,"DIS_CODE":0,"TOWNNAME":"安南區","LI":"新順里","LIN":"18鄰","STREET":"安生街","SECT":" ","MAREA":" ","LANE":" ","ALLEY":" ","HOUSE_NO":"３０號","E_COORD97":169663.39000000001,"N_COORD97":2549489.0699999998,"ADDRESS":"安生街３０號","OBJECTID":471874},"geometry":{"x":169663.3900000006,"y":2549489.0700000003}},{"attributes":{"ID":471900,"DIS_CODE":0,"TOWNNAME":"安南區","LI":"新順里","LIN":"18鄰","STREET":"安生街","SECT":" ","MAREA":" ","LANE":" ","ALLEY":" ","HOUSE_NO":"３２號","E_COORD97":169659.45999999999,"N_COORD97":2549490.0899999999,"ADDRESS":"安生街３２號","OBJECTID":471875},"geometry":{"x":169659.45999999903,"y":2549490.0900000017}},{"attributes":{"ID":471901,"DIS_CODE":0,"TOWNNAME":"安南區","LI":"新順里","LIN":"18鄰","STREET":"安生街","SECT":" ","MAREA":" ","LANE":" ","ALLEY":" ","HOUSE_NO":"３６號","E_COORD97":169655.14000000001,"N_COORD97":2549491.3599999999,"ADDRESS":"安生街３６號","OBJECTID":471876},"geometry":{"x":169655.1400000006,"y":2549491.3600000013}},{"attributes":{"ID":471902,"DIS_CODE":0,"TOWNNAME":"安南區","LI":"新順里","LIN":"18鄰","STREET":"安生街","SECT":" ","MAREA":" ","LANE":" ","ALLEY":" ","HOUSE_NO":"３８號","E_COORD97":169651.07000000001,"N_COORD97":2549492.7599999998,"ADDRESS":"安生街３８號","OBJECTID":471877},"geometry":{"x":169651.07000000123,"y":2549492.7599999998}},{"attributes":{"ID":471903,"DIS_CODE":0,"TOWNNAME":"安南區","LI":"新順里","LIN":"18鄰","STREET":"安生街","SECT":" ","MAREA":" ","LANE":" ","ALLEY":" ","HOUSE_NO":"３８之１號","E_COORD97":169646.76000000001,"N_COORD97":2549494.6600000001,"ADDRESS":"安生街３８之１號","OBJECTID":471878},"geometry":{"x":169646.75999999978,"y":2549494.6600000001}},{"attributes":{"ID":471904,"DIS_CODE":0,"TOWNNAME":"安南區","LI":"安順里","LIN":"18鄰","STREET":"安豐三街","SECT":" ","MAREA":" ","LANE":" ","ALLEY":" ","HOUSE_NO":"１５９號","E_COORD97":169617.29000000001,"N_COORD97":2549923.0699999998,"ADDRESS":"安豐三街１５９號","OBJECTID":471879},"geometry":{"x":169617.29000000097,"y":2549923.0700000003}},{"attributes":{"ID":471905,"DIS_CODE":0,"TOWNNAME":"安南區","LI":"安順里","LIN":"18鄰","STREET":"安豐三街","SECT":" ","MAREA":" ","LANE":" ","ALLEY":" ","HOUSE_NO":"１６１號","E_COORD97":169620.62,"N_COORD97":2549922.6000000001,"ADDRESS":"安豐三街１６１號","OBJECTID":471880},"geometry":{"x":169620.62000000011,"y":2549922.6000000034}},{"attributes":{"ID":471906,"DIS_CODE":0,"TOWNNAME":"安南區","LI":"安順里","LIN":"18鄰","STREET":"安豐二街","SECT":" ","MAREA":" ","LANE":" ","ALLEY":" ","HOUSE_NO":"３０號","E_COORD97":169627.13,"N_COORD97":2549981.5,"ADDRESS":"安豐二街３０號","OBJECTID":471881},"geometry":{"x":169627.12999999989,"y":2549981.5000000019}},{"attributes":{"ID":471907,"DIS_CODE":0,"TOWNNAME":"安南區","LI":"安順里","LIN":"18鄰","STREET":"安豐二街","SECT":" ","MAREA":" ","LANE":" ","ALLEY":" ","HOUSE_NO":"３２號","E_COORD97":169620.94,"N_COORD97":2549983.3999999999,"ADDRESS":"安豐二街３２號","OBJECTID":471882},"geometry":{"x":169620.94000000041,"y":2549983.4000000022}},{"attributes":{"ID":471908,"DIS_CODE":0,"TOWNNAME":"安南區","LI":"安順里","LIN":"18鄰","STREET":"安豐二街","SECT":" ","MAREA":" ","LANE":" ","ALLEY":" ","HOUSE_NO":"３６號","E_COORD97":169617.13,"N_COORD97":2549983.2400000002,"ADDRESS":"安豐二街３６號","OBJECTID":471883},"geometry":{"x":169617.12999999989,"y":2549983.2400000039}},{"attributes":{"ID":471909,"DIS_CODE":0,"TOWNNAME":"安南區","LI":"安順里","LIN":"18鄰","STREET":"安豐二街","SECT":" ","MAREA":" ","LANE":" ","ALLEY":" ","HOUSE_NO":"３８號","E_COORD97":169612.37,"N_COORD97":2549983.7200000002,"ADDRESS":"安豐二街３８號","OBJECTID":471884},"geometry":{"x":169612.37000000011,"y":2549983.7200000044}},{"attributes":{"ID":471910,"DIS_CODE":0,"TOWNNAME":"安南區","LI":"安順里","LIN":"18鄰","STREET":"安豐二街","SECT":" ","MAREA":" ","LANE":" ","ALLEY":" ","HOUSE_NO":"３１號","E_COORD97":169626.17999999999,"N_COORD97":2549970.54,"ADDRESS":"安豐二街３１號","OBJECTID":471885},"geometry":{"x":169626.18000000063,"y":2549970.540000001}},{"attributes":{"ID":471911,"DIS_CODE":0,"TOWNNAME":"安南區","LI":"安順里","LIN":"18鄰","STREET":"安豐二街","SECT":" ","MAREA":" ","LANE":" ","ALLEY":" ","HOUSE_NO":"３３號","E_COORD97":169620.94,"N_COORD97":2549970.0600000001,"ADDRESS":"安豐二街３３號","OBJECTID":471886},"geometry":{"x":169620.94000000041,"y":2549970.0600000005}},{"attributes":{"ID":471912,"DIS_CODE":0,"TOWNNAME":"安南區","LI":"安順里","LIN":"18鄰","STREET":"安豐二街","SECT":" ","MAREA":" ","LANE":" ","ALLEY":" ","HOUSE_NO":"３５號","E_COORD97":169616.97,"N_COORD97":2549970.7000000002,"ADDRESS":"安豐二街３５號","OBJECTID":471887},"geometry":{"x":169616.9700000016,"y":2549970.6999999993}},{"attributes":{"ID":471913,"DIS_CODE":0,"TOWNNAME":"安南區","LI":"安順里","LIN":"18鄰","STREET":"安豐二街","SECT":" ","MAREA":" ","LANE":" ","ALLEY":" ","HOUSE_NO":"３７號","E_COORD97":169611.89000000001,"N_COORD97":2549971.02,"ADDRESS":"安豐二街３７號","OBJECTID":471888},"geometry":{"x":169611.88999999966,"y":2549971.0200000014}},{"attributes":{"ID":471914,"DIS_CODE":0,"TOWNNAME":"安南區","LI":"安順里","LIN":"18鄰","STREET":"安豐三街","SECT":" ","MAREA":" ","LANE":" ","ALLEY":" ","HOUSE_NO":"１６３號","E_COORD97":169624.42999999999,"N_COORD97":2549922.4399999999,"ADDRESS":"安豐三街１６３號","OBJECTID":471889},"geometry":{"x":169624.43000000063,"y":2549922.4399999995}},{"attributes":{"ID":471915,"DIS_CODE":0,"TOWNNAME":"安南區","LI":"安順里","LIN":"18鄰","STREET":"安豐三街","SECT":" ","MAREA":" ","LANE":" ","ALLEY":" ","HOUSE_NO":"１６５號","E_COORD97":169629.04000000001,"N_COORD97":2549922.6000000001,"ADDRESS":"安豐三街１６５號","OBJECTID":471890},"geometry":{"x":169629.04000000097,"y":2549922.6000000034}},{"attributes":{"ID":471916,"DIS_CODE":0,"TOWNNAME":"安南區","LI":"安順里","LIN":"18鄰","STREET":"安豐三街","SECT":" ","MAREA":" ","LANE":" ","ALLEY":" ","HOUSE_NO":"１６７號","E_COORD97":169632.53,"N_COORD97":2549922.7599999998,"ADDRESS":"安豐三街１６７號","OBJECTID":471891},"geometry":{"x":169632.53000000119,"y":2549922.7600000016}},{"attributes":{"ID":471917,"DIS_CODE":0,"TOWNNAME":"安南區","LI":"安順里","LIN":"18鄰","STREET":"安豐三街","SECT":" ","MAREA":" ","LANE":" ","ALLEY":" ","HOUSE_NO":"１６９號","E_COORD97":169635.85999999999,"N_COORD97":2549922.6000000001,"ADDRESS":"安豐三街１６９號","OBJECTID":471892},"geometry":{"x":169635.86000000127,"y":2549922.6000000034}},{"attributes":{"ID":471918,"DIS_CODE":0,"TOWNNAME":"安南區","LI":"安順里","LIN":"18鄰","STREET":"安豐三街","SECT":" ","MAREA":" ","LANE":" ","ALLEY":" ","HOUSE_NO":"１７１號","E_COORD97":169639.51000000001,"N_COORD97":2549922.4399999999,"ADDRESS":"安豐三街１７１號","OBJECTID":471893},"geometry":{"x":169639.50999999978,"y":2549922.4399999995}},{"attributes":{"ID":471919,"DIS_CODE":0,"TOWNNAME":"安南區","LI":"安順里","LIN":"18鄰","STREET":"安豐三街","SECT":" ","MAREA":" ","LANE":" ","ALLEY":" ","HOUSE_NO":"１７３號","E_COORD97":169643.16,"N_COORD97":2549922.1200000001,"ADDRESS":"安豐三街１７３號","OBJECTID":471894},"geometry":{"x":169643.16000000201,"y":2549922.120000001}},{"attributes":{"ID":471920,"DIS_CODE":0,"TOWNNAME":"安南區","LI":"安順里","LIN":"18鄰","STREET":"安豐三街","SECT":" ","MAREA":" ","LANE":" ","ALLEY":" ","HOUSE_NO":"１７５號","E_COORD97":169647.29000000001,"N_COORD97":2549921.6499999999,"ADDRESS":"安豐三街１７５號","OBJECTID":471895},"geometry":{"x":169647.2900000019,"y":2549921.6500000004}},{"attributes":{"ID":471921,"DIS_CODE":0,"TOWNNAME":"安南區","LI":"安順里","LIN":"18鄰","STREET":"安豐三街","SECT":" ","MAREA":" ","LANE":" ","ALLEY":" ","HOUSE_NO":"１７７號","E_COORD97":169652.37,"N_COORD97":2549921.6499999999,"ADDRESS":"安豐三街１７７號","OBJECTID":471896},"geometry":{"x":169652.37000000104,"y":2549921.6500000004}},{"attributes":{"ID":471922,"DIS_CODE":0,"TOWNNAME":"安南區","LI":"安順里","LIN":"18鄰","STREET":"育安二街","SECT":" ","MAREA":" ","LANE":" ","ALLEY":" ","HOUSE_NO":"１０５號","E_COORD97":169658.09,"N_COORD97":2549937.52,"ADDRESS":"育安二街１０５號","OBJECTID":471897},"geometry":{"x":169658.08999999985,"y":2549937.5200000014}},{"attributes":{"ID":471923,"DIS_CODE":0,"TOWNNAME":"安南區","LI":"佃東里","LIN":"18鄰","STREET":"公學路","SECT":"三段","MAREA":" ","LANE":" ","ALLEY":" ","HOUSE_NO":"１２號","E_COORD97":166962.19,"N_COORD97":2552130.7799999998,"ADDRESS":"公學路三段１２號","OBJECTID":471898},"geometry":{"x":166962.19000000134,"y":2552130.7799999993}},{"attributes":{"ID":471924,"DIS_CODE":0,"TOWNNAME":"安南區","LI":"頂安里","LIN":"18鄰","STREET":"長溪路","SECT":"一段","MAREA":" ","LANE":" ","ALLEY":" ","HOUSE_NO":"５１６號","E_COORD97":168454.76000000001,"N_COORD97":2549148.3900000001,"ADDRESS":"長溪路一段５１６號","OBJECTID":471899},"geometry":{"x":168454.75999999978,"y":2549148.3900000043}},{"attributes":{"ID":471925,"DIS_CODE":0,"TOWNNAME":"安南區","LI":"頂安里","LIN":"18鄰","STREET":"長溪路","SECT":"一段","MAREA":" ","LANE":" ","ALLEY":" ","HOUSE_NO":"５１８號","E_COORD97":168454.25,"N_COORD97":2549152.2000000002,"ADDRESS":"長溪路一段５１８號","OBJECTID":471900},"geometry":{"x":168454.25000000093,"y":2549152.2000000011}},{"attributes":{"ID":471926,"DIS_CODE":0,"TOWNNAME":"安南區","LI":"溪心里","LIN":"18鄰","STREET":"仁安二街","SECT":" ","MAREA":" ","LANE":" ","ALLEY":" ","HOUSE_NO":"１５號","E_COORD97":165946.17000000001,"N_COORD97":2550110.4300000002,"ADDRESS":"仁安二街１５號","OBJECTID":471901},"geometry":{"x":165946.17000000086,"y":2550110.4300000016}},{"attributes":{"ID":471927,"DIS_CODE":0,"TOWNNAME":"安南區","LI":"溪心里","LIN":"18鄰","STREET":"仁安二街","SECT":" ","MAREA":" ","LANE":" ","ALLEY":" ","HOUSE_NO":"３６號","E_COORD97":165995.70000000001,"N_COORD97":2550123.5099999998,"ADDRESS":"仁安二街３６號","OBJECTID":471902},"geometry":{"x":165995.70000000019,"y":2550123.5100000016}},{"attributes":{"ID":471928,"DIS_CODE":0,"TOWNNAME":"安南區","LI":"溪心里","LIN":"18鄰","STREET":"功安二街","SECT":" ","MAREA":" ","LANE":" ","ALLEY":" ","HOUSE_NO":"１３６號","E_COORD97":165985.79999999999,"N_COORD97":2550117.0299999998,"ADDRESS":"功安二街１３６號","OBJECTID":471903},"geometry":{"x":165985.80000000075,"y":2550117.0300000012}},{"attributes":{"ID":471929,"DIS_CODE":0,"TOWNNAME":"安南區","LI":"溪心里","LIN":"18鄰","STREET":"功安二街","SECT":" ","MAREA":" ","LANE":" ","ALLEY":" ","HOUSE_NO":"１３２號","E_COORD97":165987.19,"N_COORD97":2550114.4900000002,"ADDRESS":"功安二街１３２號","OBJECTID":471904},"geometry":{"x":165987.19000000134,"y":2550114.4900000021}},{"attributes":{"ID":471930,"DIS_CODE":0,"TOWNNAME":"安南區","LI":"溪心里","LIN":"18鄰","STREET":"功安二街","SECT":" ","MAREA":" ","LANE":" ","ALLEY":" ","HOUSE_NO":"１３０號","E_COORD97":165988.72,"N_COORD97":2550112.46,"ADDRESS":"功安二街１３０號","OBJECTID":471905},"geometry":{"x":165988.71999999974,"y":2550112.4600000028}},{"attributes":{"ID":471931,"DIS_CODE":0,"TOWNNAME":"安南區","LI":"溪心里","LIN":"18鄰","STREET":"功安二街","SECT":" ","MAREA":" ","LANE":" ","ALLEY":" ","HOUSE_NO":"１２６號","E_COORD97":165990.48999999999,"N_COORD97":2550109.9199999999,"ADDRESS":"功安二街１２６號","OBJECTID":471906},"geometry":{"x":165990.49000000022,"y":2550109.9199999999}},{"attributes":{"ID":471932,"DIS_CODE":0,"TOWNNAME":"安南區","LI":"溪心里","LIN":"18鄰","STREET":"功安二街","SECT":" ","MAREA":" ","LANE":" ","ALLEY":" ","HOUSE_NO":"１２２號","E_COORD97":165992.26999999999,"N_COORD97":2550107.5099999998,"ADDRESS":"功安二街１２２號","OBJECTID":471907},"geometry":{"x":165992.27000000048,"y":2550107.5100000016}},{"attributes":{"ID":471933,"DIS_CODE":0,"TOWNNAME":"安南區","LI":"溪心里","LIN":"18鄰","STREET":"功安二街","SECT":" ","MAREA":" ","LANE":" ","ALLEY":" ","HOUSE_NO":"１２０號","E_COORD97":165994.04999999999,"N_COORD97":2550105.3500000001,"ADDRESS":"功安二街１２０號","OBJECTID":471908},"geometry":{"x":165994.05000000075,"y":2550105.3500000015}},{"attributes":{"ID":471934,"DIS_CODE":0,"TOWNNAME":"安南區","LI":"溪心里","LIN":"18鄰","STREET":"功安二街","SECT":" ","MAREA":" ","LANE":" ","ALLEY":" ","HOUSE_NO":"１１８號","E_COORD97":165995.70000000001,"N_COORD97":2550103.0600000001,"ADDRESS":"功安二街１１８號","OBJECTID":471909},"geometry":{"x":165995.70000000019,"y":2550103.0600000005}},{"attributes":{"ID":471935,"DIS_CODE":0,"TOWNNAME":"安南區","LI":"溪心里","LIN":"18鄰","STREET":"功安二街","SECT":" ","MAREA":" ","LANE":" ","ALLEY":" ","HOUSE_NO":"１１６號","E_COORD97":165997.35000000001,"N_COORD97":2550101.2799999998,"ADDRESS":"功安二街１１６號","OBJECTID":471910},"geometry":{"x":165997.35000000056,"y":2550101.2800000012}},{"attributes":{"ID":471936,"DIS_CODE":0,"TOWNNAME":"安南區","LI":"溪心里","LIN":"18鄰","STREET":"功安二街","SECT":" ","MAREA":" ","LANE":" ","ALLEY":" ","HOUSE_NO":"１１２號","E_COORD97":165999.13,"N_COORD97":2550099.5099999998,"ADDRESS":"功安二街１１２號","OBJECTID":471911},"geometry":{"x":165999.13000000082,"y":2550099.5100000035}},{"attributes":{"ID":471937,"DIS_CODE":0,"TOWNNAME":"安南區","LI":"溪心里","LIN":"18鄰","STREET":"功安二街","SECT":" ","MAREA":" ","LANE":" ","ALLEY":" ","HOUSE_NO":"１１０號","E_COORD97":166000.39999999999,"N_COORD97":2550097.3500000001,"ADDRESS":"功安二街１１０號","OBJECTID":471912},"geometry":{"x":166000.40000000224,"y":2550097.3500000015}},{"attributes":{"ID":471938,"DIS_CODE":0,"TOWNNAME":"安南區","LI":"溪心里","LIN":"18鄰","STREET":"海佃路","SECT":"三段","MAREA":" ","LANE":" ","ALLEY":" ","HOUSE_NO":"１１５號","E_COORD97":166151.72,"N_COORD97":2549995.75,"ADDRESS":"海佃路三段１１５號","OBJECTID":471913},"geometry":{"x":166151.71999999974,"y":2549995.75}},{"attributes":{"ID":471939,"DIS_CODE":0,"TOWNNAME":"安南區","LI":"溪心里","LIN":"18鄰","STREET":"海佃路","SECT":"三段","MAREA":" ","LANE":" ","ALLEY":" ","HOUSE_NO":"１１７號","E_COORD97":166149.63,"N_COORD97":2549998.98,"ADDRESS":"海佃路三段１１７號","OBJECTID":471914},"geometry":{"x":166149.63000000082,"y":2549998.9800000023}},{"attributes":{"ID":471940,"DIS_CODE":0,"TOWNNAME":"安南區","LI":"溪心里","LIN":"18鄰","STREET":"海佃路","SECT":"三段","MAREA":" ","LANE":" ","ALLEY":" ","HOUSE_NO":"１５９號","E_COORD97":166093.81,"N_COORD97":2550069.8500000001,"ADDRESS":"海佃路三段１５９號","OBJECTID":471915},"geometry":{"x":166093.81000000052,"y":2550069.8500000034}},{"attributes":{"ID":471941,"DIS_CODE":0,"TOWNNAME":"安南區","LI":"溪心里","LIN":"18鄰","STREET":"海佃路","SECT":"三段","MAREA":" ","LANE":" ","ALLEY":" ","HOUSE_NO":"１５７號","E_COORD97":166094.57000000001,"N_COORD97":2550067.9500000002,"ADDRESS":"海佃路三段１５７號","OBJECTID":471916},"geometry":{"x":166094.57000000123,"y":2550067.9499999993}},{"attributes":{"ID":471942,"DIS_CODE":0,"TOWNNAME":"安南區","LI":"溪心里","LIN":"18鄰","STREET":"海佃路","SECT":"三段","MAREA":" ","LANE":" ","ALLEY":" ","HOUSE_NO":"１５５號","E_COORD97":166096.48000000001,"N_COORD97":2550066.04,"ADDRESS":"海佃路三段１５５號","OBJECTID":471917},"geometry":{"x":166096.48000000045,"y":2550066.040000001}},{"attributes":{"ID":471943,"DIS_CODE":0,"TOWNNAME":"安南區","LI":"溪心里","LIN":"18鄰","STREET":"海佃路","SECT":"三段","MAREA":" ","LANE":" ","ALLEY":" ","HOUSE_NO":"１１９號","E_COORD97":166147.14999999999,"N_COORD97":2550002.6000000001,"ADDRESS":"海佃路三段１１９號","OBJECTID":471918},"geometry":{"x":166147.15000000037,"y":2550002.5999999996}},{"attributes":{"ID":471944,"DIS_CODE":0,"TOWNNAME":"安南區","LI":"溪心里","LIN":"18鄰","STREET":"海佃路","SECT":"三段","MAREA":" ","LANE":" ","ALLEY":" ","HOUSE_NO":"１２１號","E_COORD97":166144.29000000001,"N_COORD97":2550006.2200000002,"ADDRESS":"海佃路三段１２１號","OBJECTID":471919},"geometry":{"x":166144.29000000004,"y":2550006.2200000007}},{"attributes":{"ID":471945,"DIS_CODE":0,"TOWNNAME":"北區","LI":"長榮里","LIN":"20鄰","STREET":"開元路","SECT":" ","MAREA":" ","LANE":"３３３巷","ALLEY":" ","HOUSE_NO":"１７號五樓之２","E_COORD97":170163.23000000001,"N_COORD97":2545471.1200000001,"ADDRESS":"開元路３３３巷１７號五樓之２","OBJECTID":471920},"geometry":{"x":170163.23000000045,"y":2545471.120000001}},{"attributes":{"ID":471946,"DIS_CODE":0,"TOWNNAME":"安南區","LI":"溪心里","LIN":"18鄰","STREET":"海佃路","SECT":"三段","MAREA":" ","LANE":" ","ALLEY":" ","HOUSE_NO":"１２３號","E_COORD97":166140.85999999999,"N_COORD97":2550010.2200000002,"ADDRESS":"海佃路三段１２３號","OBJECTID":471921},"geometry":{"x":166140.86000000034,"y":2550010.2200000007}},{"attributes":{"ID":471947,"DIS_CODE":0,"TOWNNAME":"安南區","LI":"溪心里","LIN":"18鄰","STREET":"海佃路","SECT":"三段","MAREA":" ","LANE":" ","ALLEY":" ","HOUSE_NO":"１２５號","E_COORD97":166138.95999999999,"N_COORD97":2550013.8399999999,"ADDRESS":"海佃路三段１２５號","OBJECTID":471922},"geometry":{"x":166138.96000000089,"y":2550013.8400000017}},{"attributes":{"ID":471948,"DIS_CODE":0,"TOWNNAME":"安南區","LI":"溪心里","LIN":"18鄰","STREET":"海佃路","SECT":"三段","MAREA":" ","LANE":" ","ALLEY":" ","HOUSE_NO":"１２７號","E_COORD97":166135.72,"N_COORD97":2550016.7000000002,"ADDRESS":"海佃路三段１２７號","OBJECTID":471923},"geometry":{"x":166135.72000000067,"y":2550016.7000000011}},{"attributes":{"ID":471949,"DIS_CODE":0,"TOWNNAME":"安南區","LI":"溪心里","LIN":"18鄰","STREET":"海佃路","SECT":"三段","MAREA":" ","LANE":" ","ALLEY":" ","HOUSE_NO":"１２９號","E_COORD97":166131.53,"N_COORD97":2550020.5099999998,"ADDRESS":"海佃路三段１２９號","OBJECTID":471924},"geometry":{"x":166131.53000000026,"y":2550020.5099999998}},{"attributes":{"ID":471950,"DIS_CODE":0,"TOWNNAME":"安南區","LI":"溪心里","LIN":"18鄰","STREET":"海佃路","SECT":"三段","MAREA":" ","LANE":" ","ALLEY":" ","HOUSE_NO":"１３１號","E_COORD97":166128.29000000001,"N_COORD97":2550024.7000000002,"ADDRESS":"海佃路三段１３１號","OBJECTID":471925},"geometry":{"x":166128.29000000097,"y":2550024.7000000011}},{"attributes":{"ID":471951,"DIS_CODE":0,"TOWNNAME":"安南區","LI":"溪心里","LIN":"18鄰","STREET":"海佃路","SECT":"三段","MAREA":" ","LANE":" ","ALLEY":" ","HOUSE_NO":"１３３號","E_COORD97":166125.81,"N_COORD97":2550028.5099999998,"ADDRESS":"海佃路三段１３３號","OBJECTID":471926},"geometry":{"x":166125.81000000145,"y":2550028.5100000035}},{"attributes":{"ID":471952,"DIS_CODE":0,"TOWNNAME":"安南區","LI":"溪心里","LIN":"18鄰","STREET":"海佃路","SECT":"三段","MAREA":" ","LANE":" ","ALLEY":" ","HOUSE_NO":"１３５號","E_COORD97":166122.76999999999,"N_COORD97":2550032.5099999998,"ADDRESS":"海佃路三段１３５號","OBJECTID":471927},"geometry":{"x":166122.77000000048,"y":2550032.5100000016}},{"attributes":{"ID":471953,"DIS_CODE":0,"TOWNNAME":"安南區","LI":"溪心里","LIN":"18鄰","STREET":"海佃路","SECT":"三段","MAREA":" ","LANE":" ","ALLEY":" ","HOUSE_NO":"１３７號","E_COORD97":166119.91,"N_COORD97":2550036.5099999998,"ADDRESS":"海佃路三段１３７號","OBJECTID":471928},"geometry":{"x":166119.91000000015,"y":2550036.5100000016}},{"attributes":{"ID":471954,"DIS_CODE":0,"TOWNNAME":"安南區","LI":"溪心里","LIN":"18鄰","STREET":"海佃路","SECT":"三段","MAREA":" ","LANE":" ","ALLEY":" ","HOUSE_NO":"１３９號","E_COORD97":166116.85999999999,"N_COORD97":2550040.8900000001,"ADDRESS":"海佃路三段１３９號","OBJECTID":471929},"geometry":{"x":166116.86000000034,"y":2550040.8900000025}},{"attributes":{"ID":471955,"DIS_CODE":0,"TOWNNAME":"安南區","LI":"溪心里","LIN":"18鄰","STREET":"海佃路","SECT":"三段","MAREA":" ","LANE":" ","ALLEY":" ","HOUSE_NO":"１４１號","E_COORD97":166114.38,"N_COORD97":2550045.2799999998,"ADDRESS":"海佃路三段１４１號","OBJECTID":471930},"geometry":{"x":166114.38000000082,"y":2550045.2799999993}},{"attributes":{"ID":471956,"DIS_CODE":0,"TOWNNAME":"安南區","LI":"溪心里","LIN":"18鄰","STREET":"海佃路","SECT":"三段","MAREA":" ","LANE":" ","ALLEY":" ","HOUSE_NO":"１４３號","E_COORD97":166111.34,"N_COORD97":2550048.5099999998,"ADDRESS":"海佃路三段１４３號","OBJECTID":471931},"geometry":{"x":166111.34000000078,"y":2550048.5100000035}},{"attributes":{"ID":471957,"DIS_CODE":0,"TOWNNAME":"安南區","LI":"溪心里","LIN":"18鄰","STREET":"海佃路","SECT":"三段","MAREA":" ","LANE":" ","ALLEY":" ","HOUSE_NO":"１４５號","E_COORD97":166108.10000000001,"N_COORD97":2550051.5600000001,"ADDRESS":"海佃路三段１４５號","OBJECTID":471932},"geometry":{"x":166108.09999999963,"y":2550051.5600000005}},{"attributes":{"ID":471958,"DIS_CODE":0,"TOWNNAME":"安南區","LI":"溪心里","LIN":"18鄰","STREET":"海佃路","SECT":"三段","MAREA":" ","LANE":" ","ALLEY":" ","HOUSE_NO":"１４７號","E_COORD97":166105.62,"N_COORD97":2550055.3700000001,"ADDRESS":"海佃路三段１４７號","OBJECTID":471933},"geometry":{"x":166105.62000000197,"y":2550055.3700000029}},{"attributes":{"ID":471959,"DIS_CODE":0,"TOWNNAME":"安南區","LI":"溪心里","LIN":"18鄰","STREET":"海佃路","SECT":"三段","MAREA":" ","LANE":" ","ALLEY":" ","HOUSE_NO":"１４９號","E_COORD97":166104.10000000001,"N_COORD97":2550058.6099999999,"ADDRESS":"海佃路三段１４９號","OBJECTID":471934},"geometry":{"x":166104.10000000056,"y":2550058.6100000013}},{"attributes":{"ID":471960,"DIS_CODE":0,"TOWNNAME":"安南區","LI":"溪心里","LIN":"18鄰","STREET":"海佃路","SECT":"三段","MAREA":" ","LANE":" ","ALLEY":" ","HOUSE_NO":"１５１號","E_COORD97":166100.67000000001,"N_COORD97":2550061.4700000002,"ADDRESS":"海佃路三段１５１號","OBJECTID":471935},"geometry":{"x":166100.67000000086,"y":2550061.4700000025}},{"attributes":{"ID":471961,"DIS_CODE":0,"TOWNNAME":"安南區","LI":"溪心里","LIN":"18鄰","STREET":"海佃路","SECT":"三段","MAREA":" ","LANE":" ","ALLEY":" ","HOUSE_NO":"１５３號","E_COORD97":166098.76000000001,"N_COORD97":2550063.9500000002,"ADDRESS":"海佃路三段１５３號","OBJECTID":471936},"geometry":{"x":166098.75999999978,"y":2550063.9499999993}},{"attributes":{"ID":471962,"DIS_CODE":0,"TOWNNAME":"東區","LI":"裕聖里","LIN":"18鄰","STREET":"裕敬五街","SECT":" ","MAREA":" ","LANE":" ","ALLEY":" ","HOUSE_NO":"２７號","E_COORD97":172844.23000000001,"N_COORD97":2542171.5899999999,"ADDRESS":"裕敬五街２７號","OBJECTID":471937},"geometry":{"x":172844.23000000138,"y":2542171.5899999999}},{"attributes":{"ID":471963,"DIS_CODE":0,"TOWNNAME":"東區","LI":"裕聖里","LIN":"18鄰","STREET":"裕敬五街","SECT":" ","MAREA":" ","LANE":" ","ALLEY":" ","HOUSE_NO":"２９號","E_COORD97":172844.23000000001,"N_COORD97":2542166.6699999999,"ADDRESS":"裕敬五街２９號","OBJECTID":471938},"geometry":{"x":172844.23000000138,"y":2542166.6700000018}},{"attributes":{"ID":471964,"DIS_CODE":0,"TOWNNAME":"東區","LI":"裕聖里","LIN":"18鄰","STREET":"裕義路","SECT":" ","MAREA":" ","LANE":" ","ALLEY":" ","HOUSE_NO":"６２６號","E_COORD97":172884.51999999999,"N_COORD97":2542082.46,"ADDRESS":"裕義路６２６號","OBJECTID":471939},"geometry":{"x":172884.51999999862,"y":2542082.4600000009}},{"attributes":{"ID":471965,"DIS_CODE":0,"TOWNNAME":"東區","LI":"成大里","LIN":"18鄰","STREET":"前鋒路","SECT":" ","MAREA":" ","LANE":" ","ALLEY":" ","HOUSE_NO":"１３０號","E_COORD97":169353.62,"N_COORD97":2543899.2000000002,"ADDRESS":"前鋒路１３０號","OBJECTID":471940},"geometry":{"x":169353.62000000104,"y":2543899.1999999993}},{"attributes":{"ID":471966,"DIS_CODE":0,"TOWNNAME":"東區","LI":"成大里","LIN":"18鄰","STREET":"前鋒路","SECT":" ","MAREA":" ","LANE":" ","ALLEY":" ","HOUSE_NO":"１２２號","E_COORD97":169352.94,"N_COORD97":2543886.73,"ADDRESS":"前鋒路１２２號","OBJECTID":471941},"geometry":{"x":169352.94000000041,"y":2543886.7300000004}},{"attributes":{"ID":471967,"DIS_CODE":0,"TOWNNAME":"東區","LI":"成大里","LIN":"18鄰","STREET":"前鋒路","SECT":" ","MAREA":" ","LANE":" ","ALLEY":" ","HOUSE_NO":"１２４號","E_COORD97":169351.69,"N_COORD97":2543889.0600000001,"ADDRESS":"前鋒路１２４號","OBJECTID":471942},"geometry":{"x":169351.69000000227,"y":2543889.0600000024}},{"attributes":{"ID":471968,"DIS_CODE":0,"TOWNNAME":"東區","LI":"成大里","LIN":"18鄰","STREET":"前鋒路","SECT":" ","MAREA":" ","LANE":" ","ALLEY":" ","HOUSE_NO":"１３６號","E_COORD97":169356.67999999999,"N_COORD97":2543923,"ADDRESS":"前鋒路１３６號","OBJECTID":471943},"geometry":{"x":169356.68000000063,"y":2543923.0000000019}},{"attributes":{"ID":471969,"DIS_CODE":0,"TOWNNAME":"東區","LI":"成大里","LIN":"18鄰","STREET":"前鋒路","SECT":" ","MAREA":" ","LANE":" ","ALLEY":" ","HOUSE_NO":"１３８號","E_COORD97":169357.76999999999,"N_COORD97":2543927.98,"ADDRESS":"前鋒路１３８號","OBJECTID":471944},"geometry":{"x":169357.77000000048,"y":2543927.9800000023}},{"attributes":{"ID":471970,"DIS_CODE":0,"TOWNNAME":"東區","LI":"成大里","LIN":"18鄰","STREET":"前鋒路","SECT":" ","MAREA":" ","LANE":" ","ALLEY":" ","HOUSE_NO":"１４０號","E_COORD97":169357.92000000001,"N_COORD97":2543933.73,"ADDRESS":"前鋒路１４０號","OBJECTID":471945},"geometry":{"x":169357.91999999899,"y":2543933.7300000004}},{"attributes":{"ID":471971,"DIS_CODE":0,"TOWNNAME":"東區","LI":"成大里","LIN":"18鄰","STREET":"前鋒路","SECT":" ","MAREA":" ","LANE":" ","ALLEY":" ","HOUSE_NO":"１４２號","E_COORD97":169358.70000000001,"N_COORD97":2543937.7799999998,"ADDRESS":"前鋒路１４２號","OBJECTID":471946},"geometry":{"x":169358.70000000112,"y":2543937.7800000012}},{"attributes":{"ID":471972,"DIS_CODE":0,"TOWNNAME":"東區","LI":"成大里","LIN":"18鄰","STREET":"前鋒路","SECT":" ","MAREA":" ","LANE":" ","ALLEY":" ","HOUSE_NO":"１４３號","E_COORD97":169334.81,"N_COORD97":2543973.1600000001,"ADDRESS":"前鋒路１４３號","OBJECTID":471947},"geometry":{"x":169334.81000000145,"y":2543973.160000002}},{"attributes":{"ID":471973,"DIS_CODE":0,"TOWNNAME":"東區","LI":"成大里","LIN":"18鄰","STREET":"前鋒路","SECT":" ","MAREA":" ","LANE":" ","ALLEY":" ","HOUSE_NO":"１４６號","E_COORD97":169360.73999999999,"N_COORD97":2543947.23,"ADDRESS":"前鋒路１４６號","OBJECTID":471948},"geometry":{"x":169360.74000000022,"y":2543947.2300000004}},{"attributes":{"ID":471974,"DIS_CODE":0,"TOWNNAME":"東區","LI":"成大里","LIN":"18鄰","STREET":"前鋒路","SECT":" ","MAREA":" ","LANE":" ","ALLEY":" ","HOUSE_NO":"１４７號","E_COORD97":169338.42000000001,"N_COORD97":2544006.1800000002,"ADDRESS":"前鋒路１４７號","OBJECTID":471949},"geometry":{"x":169338.42000000086,"y":2544006.1800000016}},{"attributes":{"ID":471975,"DIS_CODE":0,"TOWNNAME":"東區","LI":"成大里","LIN":"18鄰","STREET":"前鋒路","SECT":" ","MAREA":" ","LANE":" ","ALLEY":" ","HOUSE_NO":"１４８號","E_COORD97":169362.29000000001,"N_COORD97":2543952.3599999999,"ADDRESS":"前鋒路１４８號","OBJECTID":471950},"geometry":{"x":169362.28999999911,"y":2543952.3599999994}},{"attributes":{"ID":471976,"DIS_CODE":0,"TOWNNAME":"東區","LI":"成大里","LIN":"18鄰","STREET":"前鋒路","SECT":" ","MAREA":" ","LANE":" ","ALLEY":" ","HOUSE_NO":"１５０號","E_COORD97":169362.76000000001,"N_COORD97":2543957.6499999999,"ADDRESS":"前鋒路１５０號","OBJECTID":471951},"geometry":{"x":169362.76000000071,"y":2543957.6500000004}},{"attributes":{"ID":471977,"DIS_CODE":0,"TOWNNAME":"東區","LI":"成大里","LIN":"18鄰","STREET":"前鋒路","SECT":" ","MAREA":" ","LANE":" ","ALLEY":" ","HOUSE_NO":"１５２號","E_COORD97":169363.07000000001,"N_COORD97":2543962.6200000001,"ADDRESS":"前鋒路１５２號","OBJECTID":471952},"geometry":{"x":169363.07000000123,"y":2543962.620000001}},{"attributes":{"ID":471978,"DIS_CODE":0,"TOWNNAME":"東區","LI":"成大里","LIN":"18鄰","STREET":"前鋒路","SECT":" ","MAREA":" ","LANE":" ","ALLEY":" ","HOUSE_NO":"１５６號","E_COORD97":169364.01000000001,"N_COORD97":2543968.2200000002,"ADDRESS":"前鋒路１５６號","OBJECTID":471953},"geometry":{"x":169364.01000000164,"y":2543968.2200000007}},{"attributes":{"ID":471979,"DIS_CODE":0,"TOWNNAME":"東區","LI":"成大里","LIN":"18鄰","STREET":"前鋒路","SECT":" ","MAREA":" ","LANE":" ","ALLEY":" ","HOUSE_NO":"１５８號","E_COORD97":169364.78,"N_COORD97":2543972.1099999999,"ADDRESS":"前鋒路１５８號","OBJECTID":471954},"geometry":{"x":169364.78000000119,"y":2543972.1100000031}},{"attributes":{"ID":471980,"DIS_CODE":0,"TOWNNAME":"東區","LI":"成大里","LIN":"18鄰","STREET":"前鋒路","SECT":" ","MAREA":" ","LANE":" ","ALLEY":" ","HOUSE_NO":"１６０號","E_COORD97":169365.56,"N_COORD97":2543976.3100000001,"ADDRESS":"前鋒路１６０號","OBJECTID":471955},"geometry":{"x":169365.56000000052,"y":2543976.3100000024}},{"attributes":{"ID":471981,"DIS_CODE":0,"TOWNNAME":"東區","LI":"成大里","LIN":"18鄰","STREET":"前鋒路","SECT":" ","MAREA":" ","LANE":" ","ALLEY":" ","HOUSE_NO":"１６２號","E_COORD97":169365.72,"N_COORD97":2543978.48,"ADDRESS":"前鋒路１６２號","OBJECTID":471956},"geometry":{"x":169365.71999999974,"y":2543978.4800000023}},{"attributes":{"ID":471982,"DIS_CODE":0,"TOWNNAME":"東區","LI":"成大里","LIN":"18鄰","STREET":"前鋒路","SECT":" ","MAREA":" ","LANE":" ","ALLEY":" ","HOUSE_NO":"１６４號","E_COORD97":169366.19,"N_COORD97":2543981.4399999999,"ADDRESS":"前鋒路１６４號","OBJECTID":471957},"geometry":{"x":169366.19000000041,"y":2543981.4400000013}},{"attributes":{"ID":471983,"DIS_CODE":0,"TOWNNAME":"東區","LI":"成大里","LIN":"18鄰","STREET":"前鋒路","SECT":" ","MAREA":" ","LANE":" ","ALLEY":" ","HOUSE_NO":"１６６號","E_COORD97":169366.81,"N_COORD97":2543984.5499999998,"ADDRESS":"前鋒路１６６號","OBJECTID":471958},"geometry":{"x":169366.80999999866,"y":2543984.5500000026}},{"attributes":{"ID":471984,"DIS_CODE":0,"TOWNNAME":"東區","LI":"成大里","LIN":"18鄰","STREET":"前鋒路","SECT":" ","MAREA":" ","LANE":" ","ALLEY":" ","HOUSE_NO":"１６８號","E_COORD97":169367.28,"N_COORD97":2543988.1299999999,"ADDRESS":"前鋒路１６８號","OBJECTID":471959},"geometry":{"x":169367.28000000026,"y":2543988.1299999971}},{"attributes":{"ID":471985,"DIS_CODE":0,"TOWNNAME":"東區","LI":"成大里","LIN":"18鄰","STREET":"前鋒路","SECT":" ","MAREA":" ","LANE":" ","ALLEY":" ","HOUSE_NO":"１７４號","E_COORD97":169370.09,"N_COORD97":2544004.6200000001,"ADDRESS":"前鋒路１７４號","OBJECTID":471960},"geometry":{"x":169370.08999999985,"y":2544004.6200000029}},{"attributes":{"ID":471986,"DIS_CODE":0,"TOWNNAME":"東區","LI":"成大里","LIN":"18鄰","STREET":"大學路","SECT":"西段","MAREA":" ","LANE":" ","ALLEY":" ","HOUSE_NO":"８５號","E_COORD97":169478.29000000001,"N_COORD97":2544125.7599999998,"ADDRESS":"大學路西段８５號","OBJECTID":471961},"geometry":{"x":169478.29000000097,"y":2544125.7599999998}},{"attributes":{"ID":471987,"DIS_CODE":0,"TOWNNAME":"東區","LI":"成大里","LIN":"18鄰","STREET":"大學路","SECT":"西段","MAREA":" ","LANE":" ","ALLEY":" ","HOUSE_NO":"８７號","E_COORD97":169462.85000000001,"N_COORD97":2544126.7799999998,"ADDRESS":"大學路西段８７號","OBJECTID":471962},"geometry":{"x":169462.84999999963,"y":2544126.7800000031}},{"attributes":{"ID":471988,"DIS_CODE":0,"TOWNNAME":"東區","LI":"成大里","LIN":"18鄰","STREET":"大學路","SECT":"西段","MAREA":" ","LANE":" ","ALLEY":" ","HOUSE_NO":"８９號地下一層之１１","E_COORD97":169450.44,"N_COORD97":2544092.3900000001,"ADDRESS":"大學路西段８９號地下一層之１１０","OBJECTID":471963},"geometry":{"x":169450.44000000134,"y":2544092.3900000006}},{"attributes":{"ID":471989,"DIS_CODE":0,"TOWNNAME":"東區","LI":"成大里","LIN":"18鄰","STREET":"大學路","SECT":"西段","MAREA":" ","LANE":" ","ALLEY":" ","HOUSE_NO":"８９號地下一層之１１","E_COORD97":169450.44,"N_COORD97":2544092.3900000001,"ADDRESS":"大學路西段８９號地下一層之１１１","OBJECTID":471964},"geometry":{"x":169450.44000000134,"y":2544092.3900000006}},{"attributes":{"ID":471990,"DIS_CODE":0,"TOWNNAME":"東區","LI":"成大里","LIN":"18鄰","STREET":"大學路","SECT":"西段","MAREA":" ","LANE":" ","ALLEY":" ","HOUSE_NO":"８９號地下一層之１１","E_COORD97":169450.44,"N_COORD97":2544092.3900000001,"ADDRESS":"大學路西段８９號地下一層之１１２","OBJECTID":471965},"geometry":{"x":169450.44000000134,"y":2544092.3900000006}},{"attributes":{"ID":471991,"DIS_CODE":0,"TOWNNAME":"東區","LI":"成大里","LIN":"18鄰","STREET":"大學路","SECT":"西段","MAREA":" ","LANE":" ","ALLEY":" ","HOUSE_NO":"８９號地下一層之１１","E_COORD97":169450.44,"N_COORD97":2544092.3900000001,"ADDRESS":"大學路西段８９號地下一層之１１３","OBJECTID":471966},"geometry":{"x":169450.44000000134,"y":2544092.3900000006}},{"attributes":{"ID":471992,"DIS_CODE":0,"TOWNNAME":"官田區","LI":"二鎮里","LIN":"18鄰","STREET":"工業北路","SECT":" ","MAREA":" ","LANE":" ","ALLEY":" ","HOUSE_NO":"１６８號","E_COORD97":181381.81,"N_COORD97":2568674.5600000001,"ADDRESS":"工業北路１６８號","OBJECTID":471967},"geometry":{"x":181381.80999999959,"y":2568674.5600000005}},{"attributes":{"ID":471993,"DIS_CODE":0,"TOWNNAME":"東區","LI":"成大里","LIN":"18鄰","STREET":"大學路","SECT":"西段","MAREA":" ","LANE":" ","ALLEY":" ","HOUSE_NO":"８９號地下一層之１１","E_COORD97":169450.44,"N_COORD97":2544092.3900000001,"ADDRESS":"大學路西段８９號地下一層之１１４","OBJECTID":471968},"geometry":{"x":169450.44000000134,"y":2544092.3900000006}},{"attributes":{"ID":471994,"DIS_CODE":0,"TOWNNAME":"東區","LI":"成大里","LIN":"18鄰","STREET":"大學路","SECT":"西段","MAREA":" ","LANE":" ","ALLEY":" ","HOUSE_NO":"８９號地下一層之１１","E_COORD97":169450.44,"N_COORD97":2544092.3900000001,"ADDRESS":"大學路西段８９號地下一層之１１５","OBJECTID":471969},"geometry":{"x":169450.44000000134,"y":2544092.3900000006}},{"attributes":{"ID":471995,"DIS_CODE":0,"TOWNNAME":"東區","LI":"成大里","LIN":"18鄰","STREET":"大學路","SECT":"西段","MAREA":" ","LANE":" ","ALLEY":" ","HOUSE_NO":"８９號地下一層之１１","E_COORD97":169450.44,"N_COORD97":2544092.3900000001,"ADDRESS":"大學路西段８９號地下一層之１１６","OBJECTID":471970},"geometry":{"x":169450.44000000134,"y":2544092.3900000006}},{"attributes":{"ID":471996,"DIS_CODE":0,"TOWNNAME":"東區","LI":"成大里","LIN":"18鄰","STREET":"大學路","SECT":"西段","MAREA":" ","LANE":" ","ALLEY":" ","HOUSE_NO":"８９號地下一層之１１","E_COORD97":169450.44,"N_COORD97":2544092.3900000001,"ADDRESS":"大學路西段８９號地下一層之１１７","OBJECTID":471971},"geometry":{"x":169450.44000000134,"y":2544092.3900000006}},{"attributes":{"ID":471997,"DIS_CODE":0,"TOWNNAME":"東區","LI":"成大里","LIN":"18鄰","STREET":"大學路","SECT":"西段","MAREA":" ","LANE":" ","ALLEY":" ","HOUSE_NO":"８９號地下一層之１１","E_COORD97":169450.44,"N_COORD97":2544092.3900000001,"ADDRESS":"大學路西段８９號地下一層之１１８","OBJECTID":471972},"geometry":{"x":169450.44000000134,"y":2544092.3900000006}},{"attributes":{"ID":471998,"DIS_CODE":0,"TOWNNAME":"東區","LI":"成大里","LIN":"18鄰","STREET":"大學路","SECT":"西段","MAREA":" ","LANE":" ","ALLEY":" ","HOUSE_NO":"８９號地下一層之１２","E_COORD97":169450.44,"N_COORD97":2544092.3900000001,"ADDRESS":"大學路西段８９號地下一層之１２","OBJECTID":471973},"geometry":{"x":169450.44000000134,"y":2544092.3900000006}},{"attributes":{"ID":471999,"DIS_CODE":0,"TOWNNAME":"東區","LI":"成大里","LIN":"18鄰","STREET":"大學路","SECT":"西段","MAREA":" ","LANE":" ","ALLEY":" ","HOUSE_NO":"８９號地下一層之１３","E_COORD97":169450.44,"N_COORD97":2544092.3900000001,"ADDRESS":"大學路西段８９號地下一層之１３","OBJECTID":471974},"geometry":{"x":169450.44000000134,"y":2544092.3900000006}},{"attributes":{"ID":472000,"DIS_CODE":0,"TOWNNAME":"東區","LI":"成大里","LIN":"18鄰","STREET":"大學路","SECT":"西段","MAREA":" ","LANE":" ","ALLEY":" ","HOUSE_NO":"８９號地下一層之１４","E_COORD97":169450.44,"N_COORD97":2544092.3900000001,"ADDRESS":"大學路西段８９號地下一層之１４","OBJECTID":471975},"geometry":{"x":169450.44000000134,"y":2544092.3900000006}},{"attributes":{"ID":472001,"DIS_CODE":0,"TOWNNAME":"東區","LI":"成大里","LIN":"18鄰","STREET":"大學路","SECT":"西段","MAREA":" ","LANE":" ","ALLEY":" ","HOUSE_NO":"８９號地下一層之１５","E_COORD97":169450.44,"N_COORD97":2544092.3900000001,"ADDRESS":"大學路西段８９號地下一層之１５","OBJECTID":471976},"geometry":{"x":169450.44000000134,"y":2544092.3900000006}},{"attributes":{"ID":472002,"DIS_CODE":0,"TOWNNAME":"東區","LI":"成大里","LIN":"18鄰","STREET":"大學路","SECT":"西段","MAREA":" ","LANE":" ","ALLEY":" ","HOUSE_NO":"８９號地下一層之１６","E_COORD97":169450.44,"N_COORD97":2544092.3900000001,"ADDRESS":"大學路西段８９號地下一層之１６","OBJECTID":471977},"geometry":{"x":169450.44000000134,"y":2544092.3900000006}},{"attributes":{"ID":472003,"DIS_CODE":0,"TOWNNAME":"東區","LI":"成大里","LIN":"18鄰","STREET":"大學路","SECT":"西段","MAREA":" ","LANE":" ","ALLEY":" ","HOUSE_NO":"８９號地下一層之１７","E_COORD97":169450.44,"N_COORD97":2544092.3900000001,"ADDRESS":"大學路西段８９號地下一層之１７","OBJECTID":471978},"geometry":{"x":169450.44000000134,"y":2544092.3900000006}},{"attributes":{"ID":472004,"DIS_CODE":0,"TOWNNAME":"東區","LI":"成大里","LIN":"18鄰","STREET":"大學路","SECT":"西段","MAREA":" ","LANE":" ","ALLEY":" ","HOUSE_NO":"８９號地下一層之１８","E_COORD97":169450.44,"N_COORD97":2544092.3900000001,"ADDRESS":"大學路西段８９號地下一層之１８","OBJECTID":471979},"geometry":{"x":169450.44000000134,"y":2544092.3900000006}},{"attributes":{"ID":472005,"DIS_CODE":0,"TOWNNAME":"東區","LI":"成大里","LIN":"18鄰","STREET":"大學路","SECT":"西段","MAREA":" ","LANE":" ","ALLEY":" ","HOUSE_NO":"８９號地下一層之１９","E_COORD97":169450.44,"N_COORD97":2544092.3900000001,"ADDRESS":"大學路西段８９號地下一層之１９","OBJECTID":471980},"geometry":{"x":169450.44000000134,"y":2544092.3900000006}},{"attributes":{"ID":472006,"DIS_CODE":0,"TOWNNAME":"東區","LI":"成大里","LIN":"18鄰","STREET":"大學路","SECT":"西段","MAREA":" ","LANE":" ","ALLEY":" ","HOUSE_NO":"８９號地下一層之２","E_COORD97":169450.44,"N_COORD97":2544092.3900000001,"ADDRESS":"大學路西段８９號地下一層之２","OBJECTID":471981},"geometry":{"x":169450.44000000134,"y":2544092.3900000006}},{"attributes":{"ID":472007,"DIS_CODE":0,"TOWNNAME":"東區","LI":"成大里","LIN":"18鄰","STREET":"大學路","SECT":"西段","MAREA":" ","LANE":" ","ALLEY":" ","HOUSE_NO":"８９號地下一層之２０","E_COORD97":169450.44,"N_COORD97":2544092.3900000001,"ADDRESS":"大學路西段８９號地下一層之２０","OBJECTID":471982},"geometry":{"x":169450.44000000134,"y":2544092.3900000006}},{"attributes":{"ID":472008,"DIS_CODE":0,"TOWNNAME":"東區","LI":"成大里","LIN":"18鄰","STREET":"大學路","SECT":"西段","MAREA":" ","LANE":" ","ALLEY":" ","HOUSE_NO":"８９號地下一層之２１","E_COORD97":169450.44,"N_COORD97":2544092.3900000001,"ADDRESS":"大學路西段８９號地下一層之２１","OBJECTID":471983},"geometry":{"x":169450.44000000134,"y":2544092.3900000006}},{"attributes":{"ID":472009,"DIS_CODE":0,"TOWNNAME":"東區","LI":"成大里","LIN":"18鄰","STREET":"大學路","SECT":"西段","MAREA":" ","LANE":" ","ALLEY":" ","HOUSE_NO":"８９號地下一層之２２","E_COORD97":169450.44,"N_COORD97":2544092.3900000001,"ADDRESS":"大學路西段８９號地下一層之２２","OBJECTID":471984},"geometry":{"x":169450.44000000134,"y":2544092.3900000006}},{"attributes":{"ID":472010,"DIS_CODE":0,"TOWNNAME":"東區","LI":"成大里","LIN":"18鄰","STREET":"大學路","SECT":"西段","MAREA":" ","LANE":" ","ALLEY":" ","HOUSE_NO":"８９號地下一層之２３","E_COORD97":169450.44,"N_COORD97":2544092.3900000001,"ADDRESS":"大學路西段８９號地下一層之２３","OBJECTID":471985},"geometry":{"x":169450.44000000134,"y":2544092.3900000006}},{"attributes":{"ID":472011,"DIS_CODE":0,"TOWNNAME":"東區","LI":"成大里","LIN":"18鄰","STREET":"大學路","SECT":"西段","MAREA":" ","LANE":" ","ALLEY":" ","HOUSE_NO":"８９號地下一層之２４","E_COORD97":169450.44,"N_COORD97":2544092.3900000001,"ADDRESS":"大學路西段８９號地下一層之２４","OBJECTID":471986},"geometry":{"x":169450.44000000134,"y":2544092.3900000006}},{"attributes":{"ID":472012,"DIS_CODE":0,"TOWNNAME":"東區","LI":"成大里","LIN":"18鄰","STREET":"大學路","SECT":"西段","MAREA":" ","LANE":" ","ALLEY":" ","HOUSE_NO":"８９號地下一層之２５","E_COORD97":169450.44,"N_COORD97":2544092.3900000001,"ADDRESS":"大學路西段８９號地下一層之２５","OBJECTID":471987},"geometry":{"x":169450.44000000134,"y":2544092.3900000006}},{"attributes":{"ID":472013,"DIS_CODE":0,"TOWNNAME":"東區","LI":"成大里","LIN":"18鄰","STREET":"大學路","SECT":"西段","MAREA":" ","LANE":" ","ALLEY":" ","HOUSE_NO":"８９號地下一層之２６","E_COORD97":169450.44,"N_COORD97":2544092.3900000001,"ADDRESS":"大學路西段８９號地下一層之２６","OBJECTID":471988},"geometry":{"x":169450.44000000134,"y":2544092.3900000006}},{"attributes":{"ID":472014,"DIS_CODE":0,"TOWNNAME":"東區","LI":"成大里","LIN":"18鄰","STREET":"大學路","SECT":"西段","MAREA":" ","LANE":" ","ALLEY":" ","HOUSE_NO":"８９號地下一層之２７","E_COORD97":169450.44,"N_COORD97":2544092.3900000001,"ADDRESS":"大學路西段８９號地下一層之２７","OBJECTID":471989},"geometry":{"x":169450.44000000134,"y":2544092.3900000006}},{"attributes":{"ID":472015,"DIS_CODE":0,"TOWNNAME":"東區","LI":"成大里","LIN":"18鄰","STREET":"大學路","SECT":"西段","MAREA":" ","LANE":" ","ALLEY":" ","HOUSE_NO":"８９號地下一層之２８","E_COORD97":169450.44,"N_COORD97":2544092.3900000001,"ADDRESS":"大學路西段８９號地下一層之２８","OBJECTID":471990},"geometry":{"x":169450.44000000134,"y":2544092.3900000006}},{"attributes":{"ID":472016,"DIS_CODE":0,"TOWNNAME":"東區","LI":"成大里","LIN":"18鄰","STREET":"大學路","SECT":"西段","MAREA":" ","LANE":" ","ALLEY":" ","HOUSE_NO":"８９號地下一層之２９","E_COORD97":169450.44,"N_COORD97":2544092.3900000001,"ADDRESS":"大學路西段８９號地下一層之２９","OBJECTID":471991},"geometry":{"x":169450.44000000134,"y":2544092.3900000006}},{"attributes":{"ID":472017,"DIS_CODE":0,"TOWNNAME":"東區","LI":"成大里","LIN":"18鄰","STREET":"大學路","SECT":"西段","MAREA":" ","LANE":" ","ALLEY":" ","HOUSE_NO":"８９號地下一層之３","E_COORD97":169450.44,"N_COORD97":2544092.3900000001,"ADDRESS":"大學路西段８９號地下一層之３","OBJECTID":471992},"geometry":{"x":169450.44000000134,"y":2544092.3900000006}},{"attributes":{"ID":472018,"DIS_CODE":0,"TOWNNAME":"東區","LI":"成大里","LIN":"18鄰","STREET":"大學路","SECT":"西段","MAREA":" ","LANE":" ","ALLEY":" ","HOUSE_NO":"８９號地下一層之３０","E_COORD97":169450.44,"N_COORD97":2544092.3900000001,"ADDRESS":"大學路西段８９號地下一層之３０","OBJECTID":471993},"geometry":{"x":169450.44000000134,"y":2544092.3900000006}},{"attributes":{"ID":472019,"DIS_CODE":0,"TOWNNAME":"東區","LI":"成大里","LIN":"18鄰","STREET":"大學路","SECT":"西段","MAREA":" ","LANE":" ","ALLEY":" ","HOUSE_NO":"８９號地下一層之３１","E_COORD97":169450.44,"N_COORD97":2544092.3900000001,"ADDRESS":"大學路西段８９號地下一層之３１","OBJECTID":471994},"geometry":{"x":169450.44000000134,"y":2544092.3900000006}},{"attributes":{"ID":472020,"DIS_CODE":0,"TOWNNAME":"東區","LI":"成大里","LIN":"18鄰","STREET":"大學路","SECT":"西段","MAREA":" ","LANE":" ","ALLEY":" ","HOUSE_NO":"８９號地下一層之３２","E_COORD97":169450.44,"N_COORD97":2544092.3900000001,"ADDRESS":"大學路西段８９號地下一層之３２","OBJECTID":471995},"geometry":{"x":169450.44000000134,"y":2544092.3900000006}},{"attributes":{"ID":472021,"DIS_CODE":0,"TOWNNAME":"東區","LI":"成大里","LIN":"18鄰","STREET":"大學路","SECT":"西段","MAREA":" ","LANE":" ","ALLEY":" ","HOUSE_NO":"８９號地下一層之３３","E_COORD97":169450.44,"N_COORD97":2544092.3900000001,"ADDRESS":"大學路西段８９號地下一層之３３","OBJECTID":471996},"geometry":{"x":169450.44000000134,"y":2544092.3900000006}},{"attributes":{"ID":472022,"DIS_CODE":0,"TOWNNAME":"東區","LI":"成大里","LIN":"18鄰","STREET":"大學路","SECT":"西段","MAREA":" ","LANE":" ","ALLEY":" ","HOUSE_NO":"８９號地下一層之３４","E_COORD97":169450.44,"N_COORD97":2544092.3900000001,"ADDRESS":"大學路西段８９號地下一層之３４","OBJECTID":471997},"geometry":{"x":169450.44000000134,"y":2544092.3900000006}},{"attributes":{"ID":472023,"DIS_CODE":0,"TOWNNAME":"東區","LI":"成大里","LIN":"18鄰","STREET":"大學路","SECT":"西段","MAREA":" ","LANE":" ","ALLEY":" ","HOUSE_NO":"８９號地下一層之３５","E_COORD97":169450.44,"N_COORD97":2544092.3900000001,"ADDRESS":"大學路西段８９號地下一層之３５","OBJECTID":471998},"geometry":{"x":169450.44000000134,"y":2544092.3900000006}},{"attributes":{"ID":472024,"DIS_CODE":0,"TOWNNAME":"東區","LI":"成大里","LIN":"18鄰","STREET":"大學路","SECT":"西段","MAREA":" ","LANE":" ","ALLEY":" ","HOUSE_NO":"８９號地下一層之３６","E_COORD97":169450.44,"N_COORD97":2544092.3900000001,"ADDRESS":"大學路西段８９號地下一層之３６","OBJECTID":471999},"geometry":{"x":169450.44000000134,"y":2544092.3900000006}},{"attributes":{"ID":472025,"DIS_CODE":0,"TOWNNAME":"東區","LI":"成大里","LIN":"18鄰","STREET":"大學路","SECT":"西段","MAREA":" ","LANE":" ","ALLEY":" ","HOUSE_NO":"８９號地下一層之３７","E_COORD97":169450.44,"N_COORD97":2544092.3900000001,"ADDRESS":"大學路西段８９號地下一層之３７","OBJECTID":472000},"geometry":{"x":169450.44000000134,"y":2544092.3900000006}}]}