{"displayFieldName":"TOWNNAME","fieldAliases":{"ID":"ID","DIS_CODE":"DIS_CODE","TOWNNAME":"TOWNNAME","LI":"LI","LIN":"LIN","STREET":"STREET","SECT":"SECT","MAREA":"MAREA","LANE":"LANE","ALLEY":"ALLEY","HOUSE_NO":"HOUSE_NO","E_COORD97":"E_COORD97","N_COORD97":"N_COORD97","ADDRESS":"ADDRESS","OBJECTID":"OBJECTID"},"geometryType":"esriGeometryPoint","spatialReference":{"wkid":102443,"latestWkid":3826},"fields":[{"name":"ID","type":"esriFieldTypeDouble","alias":"ID"},{"name":"DIS_CODE","type":"esriFieldTypeInteger","alias":"DIS_CODE"},{"name":"TOWNNAME","type":"esriFieldTypeString","alias":"TOWNNAME","length":8},{"name":"LI","type":"esriFieldTypeString","alias":"LI","length":8},{"name":"LIN","type":"esriFieldTypeString","alias":"LIN","length":12},{"name":"STREET","type":"esriFieldTypeString","alias":"STREET","length":20},{"name":"SECT","type":"esriFieldTypeString","alias":"SECT","length":8},{"name":"MAREA","type":"esriFieldTypeString","alias":"MAREA","length":12},{"name":"LANE","type":"esriFieldTypeString","alias":"LANE","length":10},{"name":"ALLEY","type":"esriFieldTypeString","alias":"ALLEY","length":10},{"name":"HOUSE_NO","type":"esriFieldTypeString","alias":"HOUSE_NO","length":20},{"name":"E_COORD97","type":"esriFieldTypeDouble","alias":"E_COORD97"},{"name":"N_COORD97","type":"esriFieldTypeDouble","alias":"N_COORD97"},{"name":"ADDRESS","type":"esriFieldTypeString","alias":"ADDRESS","length":50},{"name":"OBJECTID","type":"esriFieldTypeOID","alias":"OBJECTID"}],"features":[{"attributes":{"ID":56801,"DIS_CODE":0,"TOWNNAME":"後壁區","LI":"竹新里","LIN":"8鄰","STREET":" ","SECT":" ","MAREA":"竹圍後","LANE":" ","ALLEY":" ","HOUSE_NO":"８０號之１","E_COORD97":178471.85999999999,"N_COORD97":2582287.79,"ADDRESS":"竹圍後８０號之１","OBJECTID":56801},"geometry":{"x":178471.86000000034,"y":2582287.7899999991}},{"attributes":{"ID":56802,"DIS_CODE":0,"TOWNNAME":"後壁區","LI":"竹新里","LIN":"8鄰","STREET":" ","SECT":" ","MAREA":"竹圍後","LANE":" ","ALLEY":" ","HOUSE_NO":"８０號","E_COORD97":178446.87,"N_COORD97":2582289.6099999999,"ADDRESS":"竹圍後８０號","OBJECTID":56802},"geometry":{"x":178446.87000000104,"y":2582289.6099999994}},{"attributes":{"ID":56803,"DIS_CODE":0,"TOWNNAME":"後壁區","LI":"竹新里","LIN":"8鄰","STREET":" ","SECT":" ","MAREA":"竹圍後","LANE":" ","ALLEY":" ","HOUSE_NO":"８１號之１","E_COORD97":178461.60999999999,"N_COORD97":2582253.9700000002,"ADDRESS":"竹圍後８１號之１","OBJECTID":56803},"geometry":{"x":178461.61000000034,"y":2582253.9700000007}},{"attributes":{"ID":56804,"DIS_CODE":0,"TOWNNAME":"後壁區","LI":"竹新里","LIN":"8鄰","STREET":" ","SECT":" ","MAREA":"竹圍後","LANE":" ","ALLEY":" ","HOUSE_NO":"８１號之５","E_COORD97":178468.81,"N_COORD97":2582247.0299999998,"ADDRESS":"竹圍後８１號之５","OBJECTID":56804},"geometry":{"x":178468.81000000052,"y":2582247.0300000012}},{"attributes":{"ID":56805,"DIS_CODE":0,"TOWNNAME":"後壁區","LI":"竹新里","LIN":"8鄰","STREET":" ","SECT":" ","MAREA":"竹圍後","LANE":" ","ALLEY":" ","HOUSE_NO":"８１號","E_COORD97":178447.63,"N_COORD97":2582270.1200000001,"ADDRESS":"竹圍後８１號","OBJECTID":56805},"geometry":{"x":178447.62999999989,"y":2582270.120000001}},{"attributes":{"ID":56806,"DIS_CODE":0,"TOWNNAME":"後壁區","LI":"竹新里","LIN":"8鄰","STREET":" ","SECT":" ","MAREA":"竹圍後","LANE":" ","ALLEY":" ","HOUSE_NO":"９０號之１５","E_COORD97":178383.42999999999,"N_COORD97":2582131.7400000002,"ADDRESS":"竹圍後９０號之１５","OBJECTID":56806},"geometry":{"x":178383.43000000063,"y":2582131.7400000021}},{"attributes":{"ID":56807,"DIS_CODE":0,"TOWNNAME":"後壁區","LI":"竹新里","LIN":"8鄰","STREET":" ","SECT":" ","MAREA":"竹圍後","LANE":" ","ALLEY":" ","HOUSE_NO":"９０號之２０","E_COORD97":178445.60999999999,"N_COORD97":2581954.8700000001,"ADDRESS":"竹圍後９０號之２０","OBJECTID":56807},"geometry":{"x":178445.61000000127,"y":2581954.8700000029}},{"attributes":{"ID":56808,"DIS_CODE":0,"TOWNNAME":"安南區","LI":"溪北里","LIN":"8鄰","STREET":"府安路","SECT":"四段","MAREA":" ","LANE":" ","ALLEY":" ","HOUSE_NO":"２０號","E_COORD97":169454.23000000001,"N_COORD97":2547330.3700000001,"ADDRESS":"府安路四段２０號","OBJECTID":56808},"geometry":{"x":169454.23000000045,"y":2547330.370000001}},{"attributes":{"ID":56809,"DIS_CODE":0,"TOWNNAME":"後壁區","LI":"菁豊里","LIN":"8鄰","STREET":" ","SECT":" ","MAREA":"前菁寮","LANE":" ","ALLEY":" ","HOUSE_NO":"７８號之１","E_COORD97":183264.38,"N_COORD97":2586315.3399999999,"ADDRESS":"前菁寮７８號之１","OBJECTID":56809},"geometry":{"x":183264.38000000082,"y":2586315.3399999999}},{"attributes":{"ID":56810,"DIS_CODE":0,"TOWNNAME":"後壁區","LI":"菁豊里","LIN":"8鄰","STREET":" ","SECT":" ","MAREA":"前菁寮","LANE":" ","ALLEY":" ","HOUSE_NO":"７９號之１","E_COORD97":183269.54000000001,"N_COORD97":2586298.1000000001,"ADDRESS":"前菁寮７９號之１","OBJECTID":56810},"geometry":{"x":183269.54000000004,"y":2586298.1000000015}},{"attributes":{"ID":56811,"DIS_CODE":0,"TOWNNAME":"新營區","LI":"南紙里","LIN":"1鄰","STREET":"建業路","SECT":" ","MAREA":" ","LANE":"１９３巷","ALLEY":"２２弄","HOUSE_NO":"１號","E_COORD97":178188.35999999999,"N_COORD97":2577353.21,"ADDRESS":"建業路１９３巷２２弄１號","OBJECTID":56811},"geometry":{"x":178188.36000000034,"y":2577353.2100000009}},{"attributes":{"ID":56812,"DIS_CODE":0,"TOWNNAME":"新營區","LI":"南紙里","LIN":"1鄰","STREET":"建業路","SECT":" ","MAREA":" ","LANE":"１９３巷","ALLEY":"２０弄","HOUSE_NO":"２８號","E_COORD97":178131.73000000001,"N_COORD97":2577426.5899999999,"ADDRESS":"建業路１９３巷２０弄２８號","OBJECTID":56812},"geometry":{"x":178131.73000000045,"y":2577426.5900000017}},{"attributes":{"ID":56813,"DIS_CODE":0,"TOWNNAME":"新營區","LI":"南紙里","LIN":"1鄰","STREET":"建業路","SECT":" ","MAREA":" ","LANE":"１９３巷","ALLEY":"２０弄","HOUSE_NO":"２０號","E_COORD97":178149.10999999999,"N_COORD97":2577425.3999999999,"ADDRESS":"建業路１９３巷２０弄２０號","OBJECTID":56813},"geometry":{"x":178149.11000000127,"y":2577425.4000000022}},{"attributes":{"ID":56814,"DIS_CODE":0,"TOWNNAME":"新營區","LI":"南紙里","LIN":"1鄰","STREET":"建業路","SECT":" ","MAREA":" ","LANE":"１９３巷","ALLEY":"２０弄","HOUSE_NO":"３１號","E_COORD97":178123.42999999999,"N_COORD97":2577397.8399999999,"ADDRESS":"建業路１９３巷２０弄３１號","OBJECTID":56814},"geometry":{"x":178123.42999999877,"y":2577397.8400000017}},{"attributes":{"ID":56815,"DIS_CODE":0,"TOWNNAME":"新營區","LI":"南紙里","LIN":"1鄰","STREET":"建業路","SECT":" ","MAREA":" ","LANE":"１９３巷","ALLEY":"２０弄","HOUSE_NO":"１０號","E_COORD97":178172.56,"N_COORD97":2577424.1699999999,"ADDRESS":"建業路１９３巷２０弄１０號","OBJECTID":56815},"geometry":{"x":178172.55999999959,"y":2577424.1699999999}},{"attributes":{"ID":56816,"DIS_CODE":0,"TOWNNAME":"新營區","LI":"南紙里","LIN":"1鄰","STREET":"建業路","SECT":" ","MAREA":" ","LANE":"１９３巷","ALLEY":"２０弄","HOUSE_NO":"１３號","E_COORD97":178165.26000000001,"N_COORD97":2577395.4199999999,"ADDRESS":"建業路１９３巷２０弄１３號","OBJECTID":56816},"geometry":{"x":178165.25999999978,"y":2577395.4199999999}},{"attributes":{"ID":56817,"DIS_CODE":0,"TOWNNAME":"新營區","LI":"南紙里","LIN":"1鄰","STREET":"建業路","SECT":" ","MAREA":" ","LANE":"１９３巷","ALLEY":"２２弄","HOUSE_NO":"２７號","E_COORD97":178127.28,"N_COORD97":2577354.6200000001,"ADDRESS":"建業路１９３巷２２弄２７號","OBJECTID":56817},"geometry":{"x":178127.28000000119,"y":2577354.620000001}},{"attributes":{"ID":56818,"DIS_CODE":0,"TOWNNAME":"後壁區","LI":"菁豊里","LIN":"8鄰","STREET":" ","SECT":" ","MAREA":"前菁寮","LANE":" ","ALLEY":" ","HOUSE_NO":"７９號之２","E_COORD97":183277.85000000001,"N_COORD97":2586271.23,"ADDRESS":"前菁寮７９號之２","OBJECTID":56818},"geometry":{"x":183277.85000000056,"y":2586271.2300000023}},{"attributes":{"ID":56819,"DIS_CODE":0,"TOWNNAME":"後壁區","LI":"菁豊里","LIN":"8鄰","STREET":" ","SECT":" ","MAREA":"前菁寮","LANE":" ","ALLEY":" ","HOUSE_NO":"７９號之５","E_COORD97":183290.13,"N_COORD97":2586285.7799999998,"ADDRESS":"前菁寮７９號之５","OBJECTID":56819},"geometry":{"x":183290.13000000082,"y":2586285.7799999993}},{"attributes":{"ID":56820,"DIS_CODE":0,"TOWNNAME":"後壁區","LI":"菁豊里","LIN":"8鄰","STREET":" ","SECT":" ","MAREA":"前菁寮","LANE":" ","ALLEY":" ","HOUSE_NO":"７９號之６","E_COORD97":183286.10999999999,"N_COORD97":2586297.2000000002,"ADDRESS":"前菁寮７９號之６","OBJECTID":56820},"geometry":{"x":183286.11000000034,"y":2586297.2000000011}},{"attributes":{"ID":56821,"DIS_CODE":0,"TOWNNAME":"後壁區","LI":"菁豊里","LIN":"8鄰","STREET":" ","SECT":" ","MAREA":"前菁寮","LANE":" ","ALLEY":" ","HOUSE_NO":"７９號","E_COORD97":183263.88,"N_COORD97":2586277.9300000002,"ADDRESS":"前菁寮７９號","OBJECTID":56821},"geometry":{"x":183263.88000000175,"y":2586277.9299999997}},{"attributes":{"ID":56822,"DIS_CODE":0,"TOWNNAME":"新營區","LI":"南紙里","LIN":"1鄰","STREET":"建業路","SECT":" ","MAREA":" ","LANE":"１９３巷","ALLEY":"２２弄","HOUSE_NO":"２５號","E_COORD97":178132.39999999999,"N_COORD97":2577353.4900000002,"ADDRESS":"建業路１９３巷２２弄２５號","OBJECTID":56822},"geometry":{"x":178132.40000000037,"y":2577353.4900000021}},{"attributes":{"ID":56823,"DIS_CODE":0,"TOWNNAME":"永康區","LI":"\u25A0洲里","LIN":"8鄰","STREET":"中正南路","SECT":" ","MAREA":" ","LANE":" ","ALLEY":" ","HOUSE_NO":"８５５號","E_COORD97":171790.06,"N_COORD97":2549056.9900000002,"ADDRESS":"中正南路８５５號","OBJECTID":56823},"geometry":{"x":171790.06000000052,"y":2549056.9900000021}},{"attributes":{"ID":56824,"DIS_CODE":0,"TOWNNAME":"安平區","LI":"育平里","LIN":"18鄰","STREET":"建平七街","SECT":" ","MAREA":" ","LANE":" ","ALLEY":" ","HOUSE_NO":"７２５號","E_COORD97":164654.47,"N_COORD97":2543441.6200000001,"ADDRESS":"建平七街７２５號","OBJECTID":56824},"geometry":{"x":164654.46999999974,"y":2543441.6200000048}},{"attributes":{"ID":56825,"DIS_CODE":0,"TOWNNAME":"後壁區","LI":"菁豊里","LIN":"8鄰","STREET":" ","SECT":" ","MAREA":"前菁寮","LANE":" ","ALLEY":" ","HOUSE_NO":"８０號之１","E_COORD97":183270.95000000001,"N_COORD97":2586234.98,"ADDRESS":"前菁寮８０號之１","OBJECTID":56825},"geometry":{"x":183270.95000000112,"y":2586234.9800000042}},{"attributes":{"ID":56826,"DIS_CODE":0,"TOWNNAME":"後壁區","LI":"侯伯里","LIN":"8鄰","STREET":" ","SECT":" ","MAREA":"後壁寮","LANE":" ","ALLEY":" ","HOUSE_NO":"５９號之４０","E_COORD97":185245.37,"N_COORD97":2585185.9399999999,"ADDRESS":"後壁寮５９號之４０","OBJECTID":56826},"geometry":{"x":185245.37000000011,"y":2585185.9399999995}},{"attributes":{"ID":56827,"DIS_CODE":0,"TOWNNAME":"安平區","LI":"育平里","LIN":"18鄰","STREET":"建平七街","SECT":" ","MAREA":" ","LANE":" ","ALLEY":" ","HOUSE_NO":"７２７號","E_COORD97":164645.25,"N_COORD97":2543442.77,"ADDRESS":"建平七街７２７號","OBJECTID":56827},"geometry":{"x":164645.25000000093,"y":2543442.7700000014}},{"attributes":{"ID":56828,"DIS_CODE":0,"TOWNNAME":"永康區","LI":"崑山里","LIN":"8鄰","STREET":"崑大路","SECT":" ","MAREA":" ","LANE":" ","ALLEY":" ","HOUSE_NO":"１９５號","E_COORD97":173409.10999999999,"N_COORD97":2544297.48,"ADDRESS":"崑大路１９５號","OBJECTID":56828},"geometry":{"x":173409.11000000127,"y":2544297.4800000023}},{"attributes":{"ID":56829,"DIS_CODE":0,"TOWNNAME":"永康區","LI":"埔園里","LIN":"8鄰","STREET":"中山路","SECT":" ","MAREA":" ","LANE":" ","ALLEY":" ","HOUSE_NO":"８５號","E_COORD97":173752.70999999999,"N_COORD97":2547781.25,"ADDRESS":"中山路８５號","OBJECTID":56829},"geometry":{"x":173752.70999999996,"y":2547781.25}},{"attributes":{"ID":56830,"DIS_CODE":0,"TOWNNAME":"南區","LI":"金華里","LIN":"6鄰","STREET":"聖南街","SECT":" ","MAREA":" ","LANE":" ","ALLEY":" ","HOUSE_NO":"４０號","E_COORD97":167019.26999999999,"N_COORD97":2542305.6499999999,"ADDRESS":"聖南街４０號","OBJECTID":56830},"geometry":{"x":167019.27000000142,"y":2542305.6500000022}},{"attributes":{"ID":56831,"DIS_CODE":0,"TOWNNAME":"後壁區","LI":"崁頂里","LIN":"8鄰","STREET":" ","SECT":" ","MAREA":"崁頂","LANE":" ","ALLEY":" ","HOUSE_NO":"８３號","E_COORD97":182964.12,"N_COORD97":2586540.8700000001,"ADDRESS":"崁頂８３號","OBJECTID":56831},"geometry":{"x":182964.12000000197,"y":2586540.870000001}},{"attributes":{"ID":56832,"DIS_CODE":0,"TOWNNAME":"歸仁區","LI":"歸南里","LIN":"1鄰","STREET":"民權南路","SECT":" ","MAREA":" ","LANE":"１９６巷","ALLEY":"５０弄","HOUSE_NO":"３號","E_COORD97":176872.84,"N_COORD97":2540305.54,"ADDRESS":"民權南路１９６巷５０弄３號","OBJECTID":56832},"geometry":{"x":176872.83999999985,"y":2540305.5399999991}},{"attributes":{"ID":56833,"DIS_CODE":0,"TOWNNAME":"歸仁區","LI":"大廟里","LIN":"1鄰","STREET":"大廟三街","SECT":" ","MAREA":" ","LANE":"２０巷","ALLEY":"１２弄","HOUSE_NO":"７號","E_COORD97":176048.35999999999,"N_COORD97":2544027.8900000001,"ADDRESS":"大廟三街２０巷１２弄７號","OBJECTID":56833},"geometry":{"x":176048.36000000127,"y":2544027.8900000006}},{"attributes":{"ID":56834,"DIS_CODE":0,"TOWNNAME":"後壁區","LI":"崁頂里","LIN":"8鄰","STREET":" ","SECT":" ","MAREA":"崁頂","LANE":" ","ALLEY":" ","HOUSE_NO":"８７號","E_COORD97":182948.32999999999,"N_COORD97":2586709.2000000002,"ADDRESS":"崁頂８７號","OBJECTID":56834},"geometry":{"x":182948.33000000007,"y":2586709.1999999993}},{"attributes":{"ID":56835,"DIS_CODE":0,"TOWNNAME":"關廟區","LI":"五甲里","LIN":"1鄰","STREET":"旺萊路","SECT":" ","MAREA":" ","LANE":"１０１巷","ALLEY":"１６弄","HOUSE_NO":"９號","E_COORD97":181680.19,"N_COORD97":2539325.25,"ADDRESS":"旺萊路１０１巷１６弄９號","OBJECTID":56835},"geometry":{"x":181680.19000000041,"y":2539325.25}},{"attributes":{"ID":56836,"DIS_CODE":0,"TOWNNAME":"關廟區","LI":"五甲里","LIN":"1鄰","STREET":"旺萊路","SECT":" ","MAREA":" ","LANE":"１０１巷","ALLEY":"８弄","HOUSE_NO":"２號","E_COORD97":181659.84,"N_COORD97":2539281.25,"ADDRESS":"旺萊路１０１巷８弄２號","OBJECTID":56836},"geometry":{"x":181659.83999999985,"y":2539281.25}},{"attributes":{"ID":56837,"DIS_CODE":0,"TOWNNAME":"關廟區","LI":"五甲里","LIN":"1鄰","STREET":"旺萊路","SECT":" ","MAREA":" ","LANE":"１０１巷","ALLEY":"８弄","HOUSE_NO":"１號","E_COORD97":181652.94,"N_COORD97":2539287.25,"ADDRESS":"旺萊路１０１巷８弄１號","OBJECTID":56837},"geometry":{"x":181652.94000000041,"y":2539287.2500000019}},{"attributes":{"ID":56838,"DIS_CODE":0,"TOWNNAME":"關廟區","LI":"松腳里","LIN":"1鄰","STREET":"四維街","SECT":" ","MAREA":" ","LANE":"１４２巷","ALLEY":"１７弄","HOUSE_NO":"２號","E_COORD97":181945.41,"N_COORD97":2539731.25,"ADDRESS":"四維街１４２巷１７弄２號","OBJECTID":56838},"geometry":{"x":181945.41000000108,"y":2539731.2500000019}},{"attributes":{"ID":56839,"DIS_CODE":0,"TOWNNAME":"歸仁區","LI":"看東里","LIN":"16鄰","STREET":"成功路","SECT":"一段","MAREA":" ","LANE":"２７巷","ALLEY":"６０弄","HOUSE_NO":"３５８號","E_COORD97":179046.92340199999,"N_COORD97":2538809.7972800001,"ADDRESS":"成功路一段２７巷６０弄３５８號","OBJECTID":56839},"geometry":{"x":179046.92340200022,"y":2538809.797278}},{"attributes":{"ID":56840,"DIS_CODE":0,"TOWNNAME":"佳里區","LI":"佳化里","LIN":"1鄰","STREET":" ","SECT":" ","MAREA":"佳里興","LANE":" ","ALLEY":" ","HOUSE_NO":"４號之１０","E_COORD97":167735.42000000001,"N_COORD97":2565343.2200000002,"ADDRESS":"佳里興４號之１０","OBJECTID":56840},"geometry":{"x":167735.41999999993,"y":2565343.2200000025}},{"attributes":{"ID":56841,"DIS_CODE":0,"TOWNNAME":"北區","LI":"新勝里","LIN":"1鄰","STREET":"開元路","SECT":" ","MAREA":" ","LANE":"３５７巷","ALLEY":"１２弄","HOUSE_NO":"１號","E_COORD97":170320.64000000001,"N_COORD97":2545540.2000000002,"ADDRESS":"開元路３５７巷１２弄１號","OBJECTID":56841},"geometry":{"x":170320.63999999966,"y":2545540.1999999993}},{"attributes":{"ID":56842,"DIS_CODE":0,"TOWNNAME":"後壁區","LI":"後壁里","LIN":"8鄰","STREET":" ","SECT":" ","MAREA":"後壁","LANE":" ","ALLEY":" ","HOUSE_NO":"１４７號之３２","E_COORD97":184830.89000000001,"N_COORD97":2585089.7599999998,"ADDRESS":"後壁１４７號之３２","OBJECTID":56842},"geometry":{"x":184830.88999999966,"y":2585089.7599999979}},{"attributes":{"ID":56843,"DIS_CODE":0,"TOWNNAME":"北區","LI":"新勝里","LIN":"1鄰","STREET":"開元路","SECT":" ","MAREA":" ","LANE":"３５７巷","ALLEY":"１２弄","HOUSE_NO":"２號","E_COORD97":170326.48000000001,"N_COORD97":2545530.9199999999,"ADDRESS":"開元路３５７巷１２弄２號","OBJECTID":56843},"geometry":{"x":170326.48000000138,"y":2545530.9200000018}},{"attributes":{"ID":56844,"DIS_CODE":0,"TOWNNAME":"北區","LI":"新勝里","LIN":"1鄰","STREET":"開元路","SECT":" ","MAREA":" ","LANE":"３５７巷","ALLEY":"１２弄","HOUSE_NO":"３號","E_COORD97":170324.42999999999,"N_COORD97":2545542.25,"ADDRESS":"開元路３５７巷１２弄３號","OBJECTID":56844},"geometry":{"x":170324.43000000063,"y":2545542.2500000019}},{"attributes":{"ID":56845,"DIS_CODE":0,"TOWNNAME":"北區","LI":"新勝里","LIN":"1鄰","STREET":"開元路","SECT":" ","MAREA":" ","LANE":"３５７巷","ALLEY":"１２弄","HOUSE_NO":"４號","E_COORD97":170330.42999999999,"N_COORD97":2545534.79,"ADDRESS":"開元路３５７巷１２弄４號","OBJECTID":56845},"geometry":{"x":170330.4299999997,"y":2545534.790000001}},{"attributes":{"ID":56846,"DIS_CODE":0,"TOWNNAME":"北區","LI":"新勝里","LIN":"1鄰","STREET":"開元路","SECT":" ","MAREA":" ","LANE":"３５７巷","ALLEY":"１２弄","HOUSE_NO":"５號","E_COORD97":170329.25,"N_COORD97":2545543.1200000001,"ADDRESS":"開元路３５７巷１２弄５號","OBJECTID":56846},"geometry":{"x":170329.25000000093,"y":2545543.120000001}},{"attributes":{"ID":56847,"DIS_CODE":0,"TOWNNAME":"北區","LI":"新勝里","LIN":"1鄰","STREET":"開元路","SECT":" ","MAREA":" ","LANE":"３５７巷","ALLEY":"１２弄","HOUSE_NO":"７號","E_COORD97":170333.20000000001,"N_COORD97":2545544.6899999999,"ADDRESS":"開元路３５７巷１２弄７號","OBJECTID":56847},"geometry":{"x":170333.20000000112,"y":2545544.6900000032}},{"attributes":{"ID":56848,"DIS_CODE":0,"TOWNNAME":"新營區","LI":"民榮里","LIN":"36鄰","STREET":"新進路","SECT":"二段","MAREA":" ","LANE":"４４５巷","ALLEY":"２５弄","HOUSE_NO":"２５號","E_COORD97":178524.89000000001,"N_COORD97":2577923.04,"ADDRESS":"新進路二段４４５巷２５弄２５號","OBJECTID":56848},"geometry":{"x":178524.88999999966,"y":2577923.0399999991}},{"attributes":{"ID":56849,"DIS_CODE":0,"TOWNNAME":"北區","LI":"光武里","LIN":"1鄰","STREET":"長榮路","SECT":"五段","MAREA":" ","LANE":"２５３巷","ALLEY":"１１弄","HOUSE_NO":"５號","E_COORD97":169904.23000000001,"N_COORD97":2545858.0299999998,"ADDRESS":"長榮路五段２５３巷１１弄５號","OBJECTID":56849},"geometry":{"x":169904.23000000138,"y":2545858.0300000012}},{"attributes":{"ID":56850,"DIS_CODE":0,"TOWNNAME":"新營區","LI":"民榮里","LIN":"36鄰","STREET":"新進路","SECT":"二段","MAREA":" ","LANE":"４４５巷","ALLEY":"２５弄","HOUSE_NO":"２３號","E_COORD97":178528.98000000001,"N_COORD97":2577924.1299999999,"ADDRESS":"新進路二段４４５巷２５弄２３號","OBJECTID":56850},"geometry":{"x":178528.98000000045,"y":2577924.1300000008}},{"attributes":{"ID":56851,"DIS_CODE":0,"TOWNNAME":"北區","LI":"國姓里","LIN":"1鄰","STREET":"公園路","SECT":" ","MAREA":" ","LANE":"３７７巷","ALLEY":"６弄","HOUSE_NO":"１６號","E_COORD97":168986.09,"N_COORD97":2545255.9700000002,"ADDRESS":"公園路３７７巷６弄１６號","OBJECTID":56851},"geometry":{"x":168986.09000000078,"y":2545255.9700000044}},{"attributes":{"ID":56852,"DIS_CODE":0,"TOWNNAME":"北區","LI":"國姓里","LIN":"1鄰","STREET":"公園路","SECT":" ","MAREA":" ","LANE":"３７７巷","ALLEY":"６弄","HOUSE_NO":"１８號","E_COORD97":168985.32999999999,"N_COORD97":2545261.0499999998,"ADDRESS":"公園路３７７巷６弄１８號","OBJECTID":56852},"geometry":{"x":168985.33000000007,"y":2545261.0500000007}},{"attributes":{"ID":56853,"DIS_CODE":0,"TOWNNAME":"北區","LI":"國姓里","LIN":"1鄰","STREET":"公園路","SECT":" ","MAREA":" ","LANE":"３７７巷","ALLEY":"６弄","HOUSE_NO":"２０號","E_COORD97":168984.57000000001,"N_COORD97":2545265.4900000002,"ADDRESS":"公園路３７７巷６弄２０號","OBJECTID":56853},"geometry":{"x":168984.57000000216,"y":2545265.4900000039}},{"attributes":{"ID":56854,"DIS_CODE":0,"TOWNNAME":"後壁區","LI":"後壁里","LIN":"8鄰","STREET":" ","SECT":" ","MAREA":"後壁","LANE":" ","ALLEY":" ","HOUSE_NO":"１５０號之３７","E_COORD97":185067.59,"N_COORD97":2585146.1200000001,"ADDRESS":"後壁１５０號之３７","OBJECTID":56854},"geometry":{"x":185067.58999999985,"y":2585146.120000001}},{"attributes":{"ID":56855,"DIS_CODE":0,"TOWNNAME":"北區","LI":"國姓里","LIN":"1鄰","STREET":"公園路","SECT":" ","MAREA":" ","LANE":"３７７巷","ALLEY":"６弄","HOUSE_NO":"２２號","E_COORD97":168983.42000000001,"N_COORD97":2545269.9399999999,"ADDRESS":"公園路３７７巷６弄２２號","OBJECTID":56855},"geometry":{"x":168983.42000000179,"y":2545269.9400000013}},{"attributes":{"ID":56856,"DIS_CODE":0,"TOWNNAME":"北區","LI":"國姓里","LIN":"1鄰","STREET":"公園路","SECT":" ","MAREA":" ","LANE":"３７７巷","ALLEY":"６弄","HOUSE_NO":"２６號","E_COORD97":168982.28,"N_COORD97":2545274.3799999999,"ADDRESS":"公園路３７７巷６弄２６號","OBJECTID":56856},"geometry":{"x":168982.28000000026,"y":2545274.379999999}},{"attributes":{"ID":56857,"DIS_CODE":0,"TOWNNAME":"北區","LI":"國姓里","LIN":"1鄰","STREET":"公園路","SECT":" ","MAREA":" ","LANE":"３７７巷","ALLEY":"６弄","HOUSE_NO":"２８號","E_COORD97":168980.88,"N_COORD97":2545278.1899999999,"ADDRESS":"公園路３７７巷６弄２８號","OBJECTID":56857},"geometry":{"x":168980.88000000082,"y":2545278.1900000013}},{"attributes":{"ID":56858,"DIS_CODE":0,"TOWNNAME":"北區","LI":"成德里","LIN":"1鄰","STREET":"民德路","SECT":" ","MAREA":" ","LANE":"５８巷","ALLEY":"２９弄","HOUSE_NO":"１０號","E_COORD97":168280.51999999999,"N_COORD97":2545370.4900000002,"ADDRESS":"民德路５８巷２９弄１０號","OBJECTID":56858},"geometry":{"x":168280.52000000142,"y":2545370.4900000039}},{"attributes":{"ID":56859,"DIS_CODE":0,"TOWNNAME":"後壁區","LI":"後壁里","LIN":"8鄰","STREET":" ","SECT":" ","MAREA":"後壁","LANE":" ","ALLEY":" ","HOUSE_NO":"１５２號之３３","E_COORD97":185000.20000000001,"N_COORD97":2585224.8399999999,"ADDRESS":"後壁１５２號之３３","OBJECTID":56859},"geometry":{"x":185000.20000000112,"y":2585224.839999998}},{"attributes":{"ID":56860,"DIS_CODE":0,"TOWNNAME":"後壁區","LI":"後壁里","LIN":"8鄰","STREET":" ","SECT":" ","MAREA":"後壁","LANE":" ","ALLEY":" ","HOUSE_NO":"１５２號之３４","E_COORD97":184983.73000000001,"N_COORD97":2585233.5800000001,"ADDRESS":"後壁１５２號之３４","OBJECTID":56860},"geometry":{"x":184983.73000000045,"y":2585233.5799999982}},{"attributes":{"ID":56861,"DIS_CODE":0,"TOWNNAME":"後壁區","LI":"後壁里","LIN":"8鄰","STREET":" ","SECT":" ","MAREA":"後壁","LANE":" ","ALLEY":" ","HOUSE_NO":"１５２號之３５","E_COORD97":184986.16,"N_COORD97":2585238.5600000001,"ADDRESS":"後壁１５２號之３５","OBJECTID":56861},"geometry":{"x":184986.15999999922,"y":2585238.5600000024}},{"attributes":{"ID":56862,"DIS_CODE":0,"TOWNNAME":"後壁區","LI":"後壁里","LIN":"8鄰","STREET":" ","SECT":" ","MAREA":"後壁","LANE":" ","ALLEY":" ","HOUSE_NO":"１５２號之３６","E_COORD97":184988.09,"N_COORD97":2585242.0800000001,"ADDRESS":"後壁１５２號之３６","OBJECTID":56862},"geometry":{"x":184988.09000000171,"y":2585242.0800000019}},{"attributes":{"ID":56863,"DIS_CODE":0,"TOWNNAME":"北區","LI":"成德里","LIN":"1鄰","STREET":"民德路","SECT":" ","MAREA":" ","LANE":"５８巷","ALLEY":"２９弄","HOUSE_NO":"２號","E_COORD97":168295.76000000001,"N_COORD97":2545361.0899999999,"ADDRESS":"民德路５８巷２９弄２號","OBJECTID":56863},"geometry":{"x":168295.75999999978,"y":2545361.0899999999}},{"attributes":{"ID":56864,"DIS_CODE":0,"TOWNNAME":"後壁區","LI":"後壁里","LIN":"8鄰","STREET":" ","SECT":" ","MAREA":"後壁","LANE":" ","ALLEY":" ","HOUSE_NO":"１５８號之５","E_COORD97":185072.32000000001,"N_COORD97":2585025.3900000001,"ADDRESS":"後壁１５８號之５","OBJECTID":56864},"geometry":{"x":185072.32000000123,"y":2585025.3900000043}},{"attributes":{"ID":56865,"DIS_CODE":0,"TOWNNAME":"後壁區","LI":"後壁里","LIN":"8鄰","STREET":" ","SECT":" ","MAREA":"後壁","LANE":" ","ALLEY":" ","HOUSE_NO":"１５８號之８","E_COORD97":185027.17999999999,"N_COORD97":2585056.7200000002,"ADDRESS":"後壁１５８號之８","OBJECTID":56865},"geometry":{"x":185027.18000000063,"y":2585056.7200000007}},{"attributes":{"ID":56866,"DIS_CODE":0,"TOWNNAME":"後壁區","LI":"後壁里","LIN":"8鄰","STREET":" ","SECT":" ","MAREA":"後壁","LANE":" ","ALLEY":" ","HOUSE_NO":"１６０號之１","E_COORD97":184998.41,"N_COORD97":2585015.8100000001,"ADDRESS":"後壁１６０號之１","OBJECTID":56866},"geometry":{"x":184998.41000000108,"y":2585015.8100000042}},{"attributes":{"ID":56867,"DIS_CODE":0,"TOWNNAME":"後壁區","LI":"後壁里","LIN":"8鄰","STREET":" ","SECT":" ","MAREA":"後壁","LANE":" ","ALLEY":" ","HOUSE_NO":"１６０號之４","E_COORD97":185033.04999999999,"N_COORD97":2584983.8700000001,"ADDRESS":"後壁１６０號之４","OBJECTID":56867},"geometry":{"x":185033.05000000075,"y":2584983.870000001}},{"attributes":{"ID":56868,"DIS_CODE":0,"TOWNNAME":"白河區","LI":"內角里","LIN":"8鄰","STREET":" ","SECT":" ","MAREA":"內角","LANE":" ","ALLEY":" ","HOUSE_NO":"１０２號","E_COORD97":192169.95000000001,"N_COORD97":2588858.4900000002,"ADDRESS":"內角１０２號","OBJECTID":56868},"geometry":{"x":192169.95000000019,"y":2588858.4900000002}},{"attributes":{"ID":56869,"DIS_CODE":0,"TOWNNAME":"北區","LI":"成德里","LIN":"1鄰","STREET":"民德路","SECT":" ","MAREA":" ","LANE":"５８巷","ALLEY":"２９弄","HOUSE_NO":"６號","E_COORD97":168291.45000000001,"N_COORD97":2545364.27,"ADDRESS":"民德路５８巷２９弄６號","OBJECTID":56869},"geometry":{"x":168291.45000000019,"y":2545364.2699999977}},{"attributes":{"ID":56870,"DIS_CODE":0,"TOWNNAME":"北區","LI":"成德里","LIN":"1鄰","STREET":"民德路","SECT":" ","MAREA":" ","LANE":"５８巷","ALLEY":"２９弄","HOUSE_NO":"８號","E_COORD97":168285.60000000001,"N_COORD97":2545368.0800000001,"ADDRESS":"民德路５８巷２９弄８號","OBJECTID":56870},"geometry":{"x":168285.60000000056,"y":2545368.0800000001}},{"attributes":{"ID":56871,"DIS_CODE":0,"TOWNNAME":"北區","LI":"永祥里","LIN":"1鄰","STREET":"大武街","SECT":" ","MAREA":" ","LANE":"５２５巷","ALLEY":"５弄","HOUSE_NO":"１１之１號","E_COORD97":170051.51999999999,"N_COORD97":2546546.1800000002,"ADDRESS":"大武街５２５巷５弄１１之１號","OBJECTID":56871},"geometry":{"x":170051.51999999955,"y":2546546.1800000016}},{"attributes":{"ID":56872,"DIS_CODE":0,"TOWNNAME":"新營區","LI":"民榮里","LIN":"36鄰","STREET":"新進路","SECT":"二段","MAREA":" ","LANE":"４４５巷","ALLEY":"２５弄","HOUSE_NO":"１２號","E_COORD97":178543.42000000001,"N_COORD97":2577961.71,"ADDRESS":"新進路二段４４５巷２５弄１２號","OBJECTID":56872},"geometry":{"x":178543.41999999993,"y":2577961.7100000046}},{"attributes":{"ID":56873,"DIS_CODE":0,"TOWNNAME":"新營區","LI":"南紙里","LIN":"1鄰","STREET":"建業路","SECT":" ","MAREA":" ","LANE":"１９３巷","ALLEY":"２２弄","HOUSE_NO":"５號","E_COORD97":178178.14999999999,"N_COORD97":2577353.2599999998,"ADDRESS":"建業路１９３巷２２弄５號","OBJECTID":56873},"geometry":{"x":178178.15000000037,"y":2577353.2600000035}},{"attributes":{"ID":56874,"DIS_CODE":0,"TOWNNAME":"新營區","LI":"南紙里","LIN":"1鄰","STREET":"建業路","SECT":" ","MAREA":" ","LANE":"１９３巷","ALLEY":"２２弄","HOUSE_NO":"９號","E_COORD97":178167.85999999999,"N_COORD97":2577351.1000000001,"ADDRESS":"建業路１９３巷２２弄９號","OBJECTID":56874},"geometry":{"x":178167.86000000127,"y":2577351.1000000015}},{"attributes":{"ID":56875,"DIS_CODE":0,"TOWNNAME":"白河區","LI":"內角里","LIN":"8鄰","STREET":" ","SECT":" ","MAREA":"內角","LANE":" ","ALLEY":" ","HOUSE_NO":"１０３號","E_COORD97":192159.57000000001,"N_COORD97":2588873.7000000002,"ADDRESS":"內角１０３號","OBJECTID":56875},"geometry":{"x":192159.57000000123,"y":2588873.7000000011}},{"attributes":{"ID":56876,"DIS_CODE":0,"TOWNNAME":"白河區","LI":"內角里","LIN":"8鄰","STREET":" ","SECT":" ","MAREA":"內角","LANE":" ","ALLEY":" ","HOUSE_NO":"１０４號","E_COORD97":192109.60000000001,"N_COORD97":2588901.3900000001,"ADDRESS":"內角１０４號","OBJECTID":56876},"geometry":{"x":192109.60000000056,"y":2588901.3900000025}},{"attributes":{"ID":56877,"DIS_CODE":0,"TOWNNAME":"白河區","LI":"內角里","LIN":"8鄰","STREET":" ","SECT":" ","MAREA":"內角","LANE":" ","ALLEY":" ","HOUSE_NO":"１０６之４號","E_COORD97":191988.23000000001,"N_COORD97":2588948.2000000002,"ADDRESS":"內角１０６之４號","OBJECTID":56877},"geometry":{"x":191988.23000000045,"y":2588948.200000003}},{"attributes":{"ID":56878,"DIS_CODE":0,"TOWNNAME":"白河區","LI":"內角里","LIN":"8鄰","STREET":" ","SECT":" ","MAREA":"內角","LANE":" ","ALLEY":" ","HOUSE_NO":"９７之１號","E_COORD97":192152.64999999999,"N_COORD97":2588815.04,"ADDRESS":"內角９７之１號","OBJECTID":56878},"geometry":{"x":192152.6500000013,"y":2588815.0399999991}},{"attributes":{"ID":56879,"DIS_CODE":0,"TOWNNAME":"白河區","LI":"內角里","LIN":"8鄰","STREET":" ","SECT":" ","MAREA":"內角","LANE":" ","ALLEY":" ","HOUSE_NO":"９７之５號","E_COORD97":192118.14999999999,"N_COORD97":2588733.6499999999,"ADDRESS":"內角９７之５號","OBJECTID":56879},"geometry":{"x":192118.14999999944,"y":2588733.6500000022}},{"attributes":{"ID":56880,"DIS_CODE":0,"TOWNNAME":"白河區","LI":"內角里","LIN":"8鄰","STREET":" ","SECT":" ","MAREA":"內角","LANE":" ","ALLEY":" ","HOUSE_NO":"９８之１號","E_COORD97":192233.13,"N_COORD97":2588810.3500000001,"ADDRESS":"內角９８之１號","OBJECTID":56880},"geometry":{"x":192233.13000000175,"y":2588810.3499999996}},{"attributes":{"ID":56881,"DIS_CODE":0,"TOWNNAME":"白河區","LI":"內角里","LIN":"8鄰","STREET":" ","SECT":" ","MAREA":"內角","LANE":" ","ALLEY":" ","HOUSE_NO":"９８號","E_COORD97":192236.29000000001,"N_COORD97":2588832.1499999999,"ADDRESS":"內角９８號","OBJECTID":56881},"geometry":{"x":192236.29000000097,"y":2588832.1500000022}},{"attributes":{"ID":56882,"DIS_CODE":0,"TOWNNAME":"白河區","LI":"內角里","LIN":"8鄰","STREET":" ","SECT":" ","MAREA":"內角","LANE":" ","ALLEY":" ","HOUSE_NO":"９９號","E_COORD97":192181.20999999999,"N_COORD97":2588837.48,"ADDRESS":"內角９９號","OBJECTID":56882},"geometry":{"x":192181.20999999996,"y":2588837.4800000004}},{"attributes":{"ID":56883,"DIS_CODE":0,"TOWNNAME":"白河區","LI":"汴頭里","LIN":"8鄰","STREET":" ","SECT":" ","MAREA":"內枋林","LANE":" ","ALLEY":" ","HOUSE_NO":"１０號","E_COORD97":194067.91,"N_COORD97":2585048.73,"ADDRESS":"內枋林１０號","OBJECTID":56883},"geometry":{"x":194067.91000000108,"y":2585048.7300000004}},{"attributes":{"ID":56884,"DIS_CODE":0,"TOWNNAME":"佳里區","LI":"禮化里","LIN":"1鄰","STREET":" ","SECT":" ","MAREA":"佳里興","LANE":" ","ALLEY":" ","HOUSE_NO":"２２７號之８","E_COORD97":167024.64999999999,"N_COORD97":2565619.2599999998,"ADDRESS":"佳里興２２７號之８","OBJECTID":56884},"geometry":{"x":167024.6500000013,"y":2565619.2600000016}},{"attributes":{"ID":56885,"DIS_CODE":0,"TOWNNAME":"佳里區","LI":"禮化里","LIN":"1鄰","STREET":" ","SECT":" ","MAREA":"佳里興","LANE":" ","ALLEY":" ","HOUSE_NO":"２２７號之９","E_COORD97":167026.79000000001,"N_COORD97":2565623.5299999998,"ADDRESS":"佳里興２２７號之９","OBJECTID":56885},"geometry":{"x":167026.79000000097,"y":2565623.5300000031}},{"attributes":{"ID":56886,"DIS_CODE":0,"TOWNNAME":"佳里區","LI":"禮化里","LIN":"1鄰","STREET":" ","SECT":" ","MAREA":"佳里興","LANE":" ","ALLEY":" ","HOUSE_NO":"２２７號","E_COORD97":167025.01000000001,"N_COORD97":2565592.0499999998,"ADDRESS":"佳里興２２７號","OBJECTID":56886},"geometry":{"x":167025.01000000071,"y":2565592.0500000026}},{"attributes":{"ID":56887,"DIS_CODE":0,"TOWNNAME":"佳里區","LI":"禮化里","LIN":"1鄰","STREET":" ","SECT":" ","MAREA":"佳里興","LANE":" ","ALLEY":" ","HOUSE_NO":"２２８號之１","E_COORD97":167006.13,"N_COORD97":2565612.7200000002,"ADDRESS":"佳里興２２８號之１","OBJECTID":56887},"geometry":{"x":167006.13000000082,"y":2565612.7200000007}},{"attributes":{"ID":56888,"DIS_CODE":0,"TOWNNAME":"佳里區","LI":"禮化里","LIN":"1鄰","STREET":" ","SECT":" ","MAREA":"佳里興","LANE":" ","ALLEY":" ","HOUSE_NO":"２２８號之２","E_COORD97":167016.82000000001,"N_COORD97":2565646.1400000001,"ADDRESS":"佳里興２２８號之２","OBJECTID":56888},"geometry":{"x":167016.82000000123,"y":2565646.1400000006}},{"attributes":{"ID":56889,"DIS_CODE":0,"TOWNNAME":"新營區","LI":"南紙里","LIN":"1鄰","STREET":"建業路","SECT":" ","MAREA":" ","LANE":"１９３巷","ALLEY":"２２弄","HOUSE_NO":"４號","E_COORD97":178184.42000000001,"N_COORD97":2577368.73,"ADDRESS":"建業路１９３巷２２弄４號","OBJECTID":56889},"geometry":{"x":178184.41999999993,"y":2577368.7300000023}},{"attributes":{"ID":56890,"DIS_CODE":0,"TOWNNAME":"新營區","LI":"南紙里","LIN":"1鄰","STREET":"建業路","SECT":" ","MAREA":" ","LANE":"１９３巷","ALLEY":"２０弄","HOUSE_NO":"２１號","E_COORD97":178146.92000000001,"N_COORD97":2577396.6200000001,"ADDRESS":"建業路１９３巷２０弄２１號","OBJECTID":56890},"geometry":{"x":178146.91999999993,"y":2577396.6200000029}},{"attributes":{"ID":56891,"DIS_CODE":0,"TOWNNAME":"佳里區","LI":"禮化里","LIN":"1鄰","STREET":" ","SECT":" ","MAREA":"佳里興","LANE":" ","ALLEY":" ","HOUSE_NO":"２２８號","E_COORD97":167009.94,"N_COORD97":2565611.0499999998,"ADDRESS":"佳里興２２８號","OBJECTID":56891},"geometry":{"x":167009.94000000041,"y":2565611.0499999989}},{"attributes":{"ID":56892,"DIS_CODE":0,"TOWNNAME":"佳里區","LI":"禮化里","LIN":"1鄰","STREET":" ","SECT":" ","MAREA":"佳里興","LANE":" ","ALLEY":" ","HOUSE_NO":"２２９號之１","E_COORD97":166977.17999999999,"N_COORD97":2565622.6699999999,"ADDRESS":"佳里興２２９號之１","OBJECTID":56892},"geometry":{"x":166977.1799999997,"y":2565622.6699999999}},{"attributes":{"ID":56893,"DIS_CODE":0,"TOWNNAME":"安南區","LI":"溪心里","LIN":"8鄰","STREET":"安中路","SECT":"二段","MAREA":" ","LANE":" ","ALLEY":" ","HOUSE_NO":"９９號","E_COORD97":166632.10000000001,"N_COORD97":2549664,"ADDRESS":"安中路二段９９號","OBJECTID":56893},"geometry":{"x":166632.09999999963,"y":2549664.0000000019}},{"attributes":{"ID":56894,"DIS_CODE":0,"TOWNNAME":"白河區","LI":"汴頭里","LIN":"8鄰","STREET":" ","SECT":" ","MAREA":"內枋林","LANE":" ","ALLEY":" ","HOUSE_NO":"１１之１號","E_COORD97":194067,"N_COORD97":2585028.6000000001,"ADDRESS":"內枋林１１之１號","OBJECTID":56894},"geometry":{"x":194067.00000000093,"y":2585028.5999999996}},{"attributes":{"ID":56895,"DIS_CODE":0,"TOWNNAME":"白河區","LI":"汴頭里","LIN":"8鄰","STREET":" ","SECT":" ","MAREA":"內枋林","LANE":" ","ALLEY":" ","HOUSE_NO":"１１號","E_COORD97":194057.62,"N_COORD97":2585035.8500000001,"ADDRESS":"內枋林１１號","OBJECTID":56895},"geometry":{"x":194057.62000000104,"y":2585035.8500000015}},{"attributes":{"ID":56896,"DIS_CODE":0,"TOWNNAME":"白河區","LI":"汴頭里","LIN":"8鄰","STREET":" ","SECT":" ","MAREA":"內枋林","LANE":" ","ALLEY":" ","HOUSE_NO":"１２號","E_COORD97":194029.79000000001,"N_COORD97":2585047.5299999998,"ADDRESS":"內枋林１２號","OBJECTID":56896},"geometry":{"x":194029.79000000097,"y":2585047.5300000012}},{"attributes":{"ID":56897,"DIS_CODE":0,"TOWNNAME":"白河區","LI":"汴頭里","LIN":"8鄰","STREET":" ","SECT":" ","MAREA":"內枋林","LANE":" ","ALLEY":" ","HOUSE_NO":"１號","E_COORD97":193994.62,"N_COORD97":2585257.8199999998,"ADDRESS":"內枋林１號","OBJECTID":56897},"geometry":{"x":193994.61999999918,"y":2585257.8200000022}},{"attributes":{"ID":56898,"DIS_CODE":0,"TOWNNAME":"白河區","LI":"汴頭里","LIN":"8鄰","STREET":" ","SECT":" ","MAREA":"內枋林","LANE":" ","ALLEY":" ","HOUSE_NO":"２之１號","E_COORD97":194146.73000000001,"N_COORD97":2585205.0699999998,"ADDRESS":"內枋林２之１號","OBJECTID":56898},"geometry":{"x":194146.73000000045,"y":2585205.0700000022}},{"attributes":{"ID":56899,"DIS_CODE":0,"TOWNNAME":"白河區","LI":"汴頭里","LIN":"8鄰","STREET":" ","SECT":" ","MAREA":"內枋林","LANE":" ","ALLEY":" ","HOUSE_NO":"２號","E_COORD97":194126.57999999999,"N_COORD97":2585219.2200000002,"ADDRESS":"內枋林２號","OBJECTID":56899},"geometry":{"x":194126.58000000007,"y":2585219.2200000007}},{"attributes":{"ID":56900,"DIS_CODE":0,"TOWNNAME":"白河區","LI":"汴頭里","LIN":"8鄰","STREET":" ","SECT":" ","MAREA":"內枋林","LANE":" ","ALLEY":" ","HOUSE_NO":"３之１號","E_COORD97":194155.17000000001,"N_COORD97":2585016.4399999999,"ADDRESS":"內枋林３之１號","OBJECTID":56900},"geometry":{"x":194155.16999999899,"y":2585016.4399999995}},{"attributes":{"ID":56901,"DIS_CODE":0,"TOWNNAME":"白河區","LI":"汴頭里","LIN":"8鄰","STREET":" ","SECT":" ","MAREA":"內枋林","LANE":" ","ALLEY":" ","HOUSE_NO":"３之２號","E_COORD97":194204.5,"N_COORD97":2585027.3900000001,"ADDRESS":"內枋林３之２號","OBJECTID":56901},"geometry":{"x":194204.50000000093,"y":2585027.3900000006}},{"attributes":{"ID":56902,"DIS_CODE":0,"TOWNNAME":"白河區","LI":"汴頭里","LIN":"8鄰","STREET":" ","SECT":" ","MAREA":"內枋林","LANE":" ","ALLEY":" ","HOUSE_NO":"３號","E_COORD97":194185.70000000001,"N_COORD97":2585021.7799999998,"ADDRESS":"內枋林３號","OBJECTID":56902},"geometry":{"x":194185.69999999925,"y":2585021.7800000012}},{"attributes":{"ID":56903,"DIS_CODE":0,"TOWNNAME":"白河區","LI":"汴頭里","LIN":"8鄰","STREET":" ","SECT":" ","MAREA":"內枋林","LANE":" ","ALLEY":" ","HOUSE_NO":"５之１０號","E_COORD97":194457.44,"N_COORD97":2584709.3799999999,"ADDRESS":"內枋林５之１０號","OBJECTID":56903},"geometry":{"x":194457.44000000227,"y":2584709.3800000008}},{"attributes":{"ID":56904,"DIS_CODE":0,"TOWNNAME":"白河區","LI":"汴頭里","LIN":"8鄰","STREET":" ","SECT":" ","MAREA":"內枋林","LANE":" ","ALLEY":" ","HOUSE_NO":"５之１６號","E_COORD97":194487.14000000001,"N_COORD97":2584772.8799999999,"ADDRESS":"內枋林５之１６號","OBJECTID":56904},"geometry":{"x":194487.13999999966,"y":2584772.8800000027}},{"attributes":{"ID":56905,"DIS_CODE":0,"TOWNNAME":"白河區","LI":"汴頭里","LIN":"8鄰","STREET":" ","SECT":" ","MAREA":"內枋林","LANE":" ","ALLEY":" ","HOUSE_NO":"５之２號","E_COORD97":194334.10000000001,"N_COORD97":2584934.4199999999,"ADDRESS":"內枋林５之２號","OBJECTID":56905},"geometry":{"x":194334.10000000056,"y":2584934.4200000018}},{"attributes":{"ID":56906,"DIS_CODE":0,"TOWNNAME":"新營區","LI":"南紙里","LIN":"1鄰","STREET":"建業路","SECT":" ","MAREA":" ","LANE":"１９３巷","ALLEY":"２２弄","HOUSE_NO":"３號","E_COORD97":178183.32999999999,"N_COORD97":2577353.2400000002,"ADDRESS":"建業路１９３巷２２弄３號","OBJECTID":56906},"geometry":{"x":178183.33000000007,"y":2577353.2400000002}},{"attributes":{"ID":56907,"DIS_CODE":0,"TOWNNAME":"新營區","LI":"南紙里","LIN":"1鄰","STREET":"建業路","SECT":" ","MAREA":" ","LANE":"１９３巷","ALLEY":"２２弄","HOUSE_NO":"７號","E_COORD97":178173.04000000001,"N_COORD97":2577353.29,"ADDRESS":"建業路１９３巷２２弄７號","OBJECTID":56907},"geometry":{"x":178173.04000000097,"y":2577353.290000001}},{"attributes":{"ID":56908,"DIS_CODE":0,"TOWNNAME":"新營區","LI":"南紙里","LIN":"1鄰","STREET":"建業路","SECT":" ","MAREA":" ","LANE":"１９３巷","ALLEY":"２２弄","HOUSE_NO":"３１號","E_COORD97":178116.06,"N_COORD97":2577355.7799999998,"ADDRESS":"建業路１９３巷２２弄３１號","OBJECTID":56908},"geometry":{"x":178116.06000000052,"y":2577355.7800000031}},{"attributes":{"ID":56909,"DIS_CODE":0,"TOWNNAME":"新營區","LI":"新南里","LIN":"24鄰","STREET":"隋唐街","SECT":" ","MAREA":" ","LANE":"２９５巷","ALLEY":"２７弄","HOUSE_NO":"６號","E_COORD97":178183.64000000001,"N_COORD97":2578487.27,"ADDRESS":"隋唐街２９５巷２７弄６號","OBJECTID":56909},"geometry":{"x":178183.6400000006,"y":2578487.2699999996}},{"attributes":{"ID":56910,"DIS_CODE":0,"TOWNNAME":"白河區","LI":"外角里","LIN":"8鄰","STREET":"文化街","SECT":" ","MAREA":" ","LANE":" ","ALLEY":" ","HOUSE_NO":"１１號","E_COORD97":190503.57000000001,"N_COORD97":2583412.9399999999,"ADDRESS":"文化街１１號","OBJECTID":56910},"geometry":{"x":190503.57000000123,"y":2583412.9399999995}},{"attributes":{"ID":56911,"DIS_CODE":0,"TOWNNAME":"玉井區","LI":"玉田里","LIN":" ","STREET":"中山路","SECT":" ","MAREA":" ","LANE":" ","ALLEY":" ","HOUSE_NO":"１９３號","E_COORD97":195284.14999999999,"N_COORD97":2558047.25,"ADDRESS":"中山路１９３號","OBJECTID":56911},"geometry":{"x":195284.15000000037,"y":2558047.25}},{"attributes":{"ID":56912,"DIS_CODE":0,"TOWNNAME":"佳里區","LI":"禮化里","LIN":"1鄰","STREET":" ","SECT":" ","MAREA":"佳里興","LANE":" ","ALLEY":" ","HOUSE_NO":"２２９號之２","E_COORD97":166972.95000000001,"N_COORD97":2565624.6200000001,"ADDRESS":"佳里興２２９號之２","OBJECTID":56912},"geometry":{"x":166972.95000000205,"y":2565624.6200000048}},{"attributes":{"ID":56913,"DIS_CODE":0,"TOWNNAME":"新營區","LI":"南紙里","LIN":"1鄰","STREET":"建業路","SECT":" ","MAREA":" ","LANE":"１９３巷","ALLEY":"２２弄","HOUSE_NO":"２０號","E_COORD97":178146.79999999999,"N_COORD97":2577371.1400000001,"ADDRESS":"建業路１９３巷２２弄２０號","OBJECTID":56913},"geometry":{"x":178146.80000000075,"y":2577371.1400000006}},{"attributes":{"ID":56914,"DIS_CODE":0,"TOWNNAME":"新營區","LI":"南紙里","LIN":"1鄰","STREET":"建業路","SECT":" ","MAREA":" ","LANE":"１９３巷","ALLEY":"２２弄","HOUSE_NO":"１９號","E_COORD97":178145.62,"N_COORD97":2577353.4199999999,"ADDRESS":"建業路１９３巷２２弄１９號","OBJECTID":56914},"geometry":{"x":178145.62000000011,"y":2577353.4200000018}},{"attributes":{"ID":56915,"DIS_CODE":0,"TOWNNAME":"新營區","LI":"南紙里","LIN":"1鄰","STREET":"建業路","SECT":" ","MAREA":" ","LANE":"１９３巷","ALLEY":"２２弄","HOUSE_NO":"２號","E_COORD97":178188.5,"N_COORD97":2577367.6099999999,"ADDRESS":"建業路１９３巷２２弄２號","OBJECTID":56915},"geometry":{"x":178188.50000000093,"y":2577367.6100000013}},{"attributes":{"ID":56916,"DIS_CODE":0,"TOWNNAME":"新營區","LI":"新南里","LIN":"24鄰","STREET":"隋唐街","SECT":" ","MAREA":" ","LANE":"２９５巷","ALLEY":"２７弄","HOUSE_NO":"２４號","E_COORD97":178231.01999999999,"N_COORD97":2578497.0099999998,"ADDRESS":"隋唐街２９５巷２７弄２４號","OBJECTID":56916},"geometry":{"x":178231.01999999955,"y":2578497.0099999998}},{"attributes":{"ID":56917,"DIS_CODE":0,"TOWNNAME":"新營區","LI":"新南里","LIN":"25鄰","STREET":"復興路","SECT":" ","MAREA":" ","LANE":"６２０巷","ALLEY":"６４弄","HOUSE_NO":"２２號","E_COORD97":178099.26000000001,"N_COORD97":2578535.3100000001,"ADDRESS":"復興路６２０巷６４弄２２號","OBJECTID":56917},"geometry":{"x":178099.25999999885,"y":2578535.3100000005}},{"attributes":{"ID":56918,"DIS_CODE":0,"TOWNNAME":"南區","LI":"大恩里","LIN":"1鄰","STREET":"大同路","SECT":"二段","MAREA":" ","LANE":"６４０巷","ALLEY":"３９弄","HOUSE_NO":"３之１號","E_COORD97":169371.94,"N_COORD97":2540998.0499999998,"ADDRESS":"大同路二段６４０巷３９弄３之１號","OBJECTID":56918},"geometry":{"x":169371.94000000227,"y":2540998.0500000026}},{"attributes":{"ID":56919,"DIS_CODE":0,"TOWNNAME":"歸仁區","LI":"西埔里","LIN":"1鄰","STREET":"西埔三街","SECT":" ","MAREA":" ","LANE":"５１巷","ALLEY":"９０弄","HOUSE_NO":"２２號","E_COORD97":177017.82000000001,"N_COORD97":2543891.25,"ADDRESS":"西埔三街５１巷９０弄２２號","OBJECTID":56919},"geometry":{"x":177017.8200000003,"y":2543891.2500000019}},{"attributes":{"ID":56920,"DIS_CODE":0,"TOWNNAME":"歸仁區","LI":"西埔里","LIN":"1鄰","STREET":"西埔三街","SECT":" ","MAREA":" ","LANE":"５１巷","ALLEY":"９０弄","HOUSE_NO":"７１號","E_COORD97":177017.72,"N_COORD97":2543864.25,"ADDRESS":"西埔三街５１巷９０弄７１號","OBJECTID":56920},"geometry":{"x":177017.71999999974,"y":2543864.2500000019}},{"attributes":{"ID":56921,"DIS_CODE":0,"TOWNNAME":"歸仁區","LI":"大潭里","LIN":"1鄰","STREET":"中正南路","SECT":"三段","MAREA":" ","LANE":"９５巷","ALLEY":"３０弄","HOUSE_NO":"１１號","E_COORD97":175399.85999999999,"N_COORD97":2534978.2799999998,"ADDRESS":"中正南路三段９５巷３０弄１１號","OBJECTID":56921},"geometry":{"x":175399.86000000034,"y":2534978.2799999993}},{"attributes":{"ID":56922,"DIS_CODE":0,"TOWNNAME":"歸仁區","LI":"西埔里","LIN":"1鄰","STREET":"西埔三街","SECT":" ","MAREA":" ","LANE":"５１巷","ALLEY":"９０弄","HOUSE_NO":"１２號","E_COORD97":177017.01999999999,"N_COORD97":2543939.25,"ADDRESS":"西埔三街５１巷９０弄１２號","OBJECTID":56922},"geometry":{"x":177017.01999999955,"y":2543939.2500000019}},{"attributes":{"ID":56923,"DIS_CODE":0,"TOWNNAME":"永康區","LI":"二王里","LIN":"1鄰","STREET":"二王路","SECT":" ","MAREA":" ","LANE":"２７巷","ALLEY":"２２弄","HOUSE_NO":"３１號","E_COORD97":173098.376005,"N_COORD97":2546726.0391000002,"ADDRESS":"二王路２７巷２２弄３１號","OBJECTID":56923},"geometry":{"x":173098.37600500137,"y":2546726.0391030014}},{"attributes":{"ID":56924,"DIS_CODE":0,"TOWNNAME":"歸仁區","LI":"西埔里","LIN":"1鄰","STREET":"西埔三街","SECT":" ","MAREA":" ","LANE":"５１巷","ALLEY":"９０弄","HOUSE_NO":"２０號","E_COORD97":177020.92000000001,"N_COORD97":2543897.25,"ADDRESS":"西埔三街５１巷９０弄２０號","OBJECTID":56924},"geometry":{"x":177020.92000000086,"y":2543897.2500000037}},{"attributes":{"ID":56925,"DIS_CODE":0,"TOWNNAME":"歸仁區","LI":"西埔里","LIN":"1鄰","STREET":"西埔三街","SECT":" ","MAREA":" ","LANE":"５１巷","ALLEY":"９０弄","HOUSE_NO":"６１號","E_COORD97":177045.32000000001,"N_COORD97":2543853.25,"ADDRESS":"西埔三街５１巷９０弄６１號","OBJECTID":56925},"geometry":{"x":177045.32000000123,"y":2543853.2500000037}},{"attributes":{"ID":56926,"DIS_CODE":0,"TOWNNAME":"歸仁區","LI":"大潭里","LIN":"1鄰","STREET":"中正南路","SECT":"三段","MAREA":" ","LANE":"９５巷","ALLEY":"３０弄","HOUSE_NO":"２９號","E_COORD97":175383.51000000001,"N_COORD97":2534951.98,"ADDRESS":"中正南路三段９５巷３０弄２９號","OBJECTID":56926},"geometry":{"x":175383.50999999978,"y":2534951.9799999986}},{"attributes":{"ID":56927,"DIS_CODE":0,"TOWNNAME":"歸仁區","LI":"大潭里","LIN":"1鄰","STREET":"中正南路","SECT":"三段","MAREA":" ","LANE":"９５巷","ALLEY":"３０弄","HOUSE_NO":"３１號","E_COORD97":175383.31,"N_COORD97":2534948.1099999999,"ADDRESS":"中正南路三段９５巷３０弄３１號","OBJECTID":56927},"geometry":{"x":175383.31000000052,"y":2534948.1100000013}},{"attributes":{"ID":56928,"DIS_CODE":0,"TOWNNAME":"歸仁區","LI":"大潭里","LIN":"1鄰","STREET":"中正南路","SECT":"三段","MAREA":" ","LANE":"９５巷","ALLEY":"３０弄","HOUSE_NO":"３３號","E_COORD97":175383.31,"N_COORD97":2534944.1699999999,"ADDRESS":"中正南路三段９５巷３０弄３３號","OBJECTID":56928},"geometry":{"x":175383.31000000052,"y":2534944.1700000018}},{"attributes":{"ID":56929,"DIS_CODE":0,"TOWNNAME":"歸仁區","LI":"西埔里","LIN":"1鄰","STREET":"西埔三街","SECT":" ","MAREA":" ","LANE":"５１巷","ALLEY":"９０弄","HOUSE_NO":"９之１號","E_COORD97":177052.70000000001,"N_COORD97":2543932.3100000001,"ADDRESS":"西埔三街５１巷９０弄９之１號","OBJECTID":56929},"geometry":{"x":177052.70000000112,"y":2543932.3100000024}},{"attributes":{"ID":56930,"DIS_CODE":0,"TOWNNAME":"南區","LI":"大恩里","LIN":"1鄰","STREET":"大同路","SECT":"二段","MAREA":" ","LANE":"６４０巷","ALLEY":"３９弄","HOUSE_NO":"１０號","E_COORD97":169367.45000000001,"N_COORD97":2540965.52,"ADDRESS":"大同路二段６４０巷３９弄１０號","OBJECTID":56930},"geometry":{"x":169367.45000000019,"y":2540965.5200000033}},{"attributes":{"ID":56931,"DIS_CODE":0,"TOWNNAME":"南區","LI":"大恩里","LIN":"1鄰","STREET":"大同路","SECT":"二段","MAREA":" ","LANE":"６４０巷","ALLEY":"３９弄","HOUSE_NO":"１１號","E_COORD97":169366.97,"N_COORD97":2540959.9500000002,"ADDRESS":"大同路二段６４０巷３９弄１１號","OBJECTID":56931},"geometry":{"x":169366.96999999974,"y":2540959.9500000011}},{"attributes":{"ID":56932,"DIS_CODE":0,"TOWNNAME":"南區","LI":"大恩里","LIN":"1鄰","STREET":"大同路","SECT":"二段","MAREA":" ","LANE":"６４０巷","ALLEY":"３９弄","HOUSE_NO":"１２號","E_COORD97":169366.85000000001,"N_COORD97":2540954.1299999999,"ADDRESS":"大同路二段６４０巷３９弄１２號","OBJECTID":56932},"geometry":{"x":169366.85000000056,"y":2540954.1300000027}},{"attributes":{"ID":56933,"DIS_CODE":0,"TOWNNAME":"南區","LI":"大恩里","LIN":"1鄰","STREET":"大同路","SECT":"二段","MAREA":" ","LANE":"６４０巷","ALLEY":"３９弄","HOUSE_NO":"１號","E_COORD97":169373.70999999999,"N_COORD97":2541014.4199999999,"ADDRESS":"大同路二段６４０巷３９弄１號","OBJECTID":56933},"geometry":{"x":169373.71000000089,"y":2541014.4200000018}},{"attributes":{"ID":56934,"DIS_CODE":0,"TOWNNAME":"南區","LI":"大恩里","LIN":"1鄰","STREET":"大同路","SECT":"二段","MAREA":" ","LANE":"６４０巷","ALLEY":"３９弄","HOUSE_NO":"２號","E_COORD97":169373.37,"N_COORD97":2541008.9100000001,"ADDRESS":"大同路二段６４０巷３９弄２號","OBJECTID":56934},"geometry":{"x":169373.37000000011,"y":2541008.910000002}},{"attributes":{"ID":56935,"DIS_CODE":0,"TOWNNAME":"南區","LI":"大恩里","LIN":"1鄰","STREET":"大同路","SECT":"二段","MAREA":" ","LANE":"６４０巷","ALLEY":"３９弄","HOUSE_NO":"３號","E_COORD97":169372.60000000001,"N_COORD97":2541003.6699999999,"ADDRESS":"大同路二段６４０巷３９弄３號","OBJECTID":56935},"geometry":{"x":169372.59999999963,"y":2541003.6700000018}},{"attributes":{"ID":56936,"DIS_CODE":0,"TOWNNAME":"南區","LI":"大恩里","LIN":"1鄰","STREET":"大同路","SECT":"二段","MAREA":" ","LANE":"６４０巷","ALLEY":"３９弄","HOUSE_NO":"５號","E_COORD97":169371.39000000001,"N_COORD97":2540992.5299999998,"ADDRESS":"大同路二段６４０巷３９弄５號","OBJECTID":56936},"geometry":{"x":169371.38999999873,"y":2540992.5300000031}},{"attributes":{"ID":56937,"DIS_CODE":0,"TOWNNAME":"南區","LI":"大恩里","LIN":"1鄰","STREET":"大同路","SECT":"二段","MAREA":" ","LANE":"６４０巷","ALLEY":"３９弄","HOUSE_NO":"６號","E_COORD97":169370.72,"N_COORD97":2540987.1200000001,"ADDRESS":"大同路二段６４０巷３９弄６號","OBJECTID":56937},"geometry":{"x":169370.71999999974,"y":2540987.1200000029}},{"attributes":{"ID":56938,"DIS_CODE":0,"TOWNNAME":"南區","LI":"大恩里","LIN":"1鄰","STREET":"大同路","SECT":"二段","MAREA":" ","LANE":"６４０巷","ALLEY":"３９弄","HOUSE_NO":"７號","E_COORD97":169370.5,"N_COORD97":2540981.6000000001,"ADDRESS":"大同路二段６４０巷３９弄７號","OBJECTID":56938},"geometry":{"x":169370.5,"y":2540981.5999999996}},{"attributes":{"ID":56939,"DIS_CODE":0,"TOWNNAME":"仁德區","LI":"田厝里","LIN":"8鄰","STREET":"田厝二街","SECT":" ","MAREA":" ","LANE":" ","ALLEY":" ","HOUSE_NO":"２３號","E_COORD97":172444.95999999999,"N_COORD97":2537575.7400000002,"ADDRESS":"田厝二街２３號","OBJECTID":56939},"geometry":{"x":172444.96000000089,"y":2537575.7400000021}},{"attributes":{"ID":56940,"DIS_CODE":0,"TOWNNAME":"永康區","LI":"六合里","LIN":"8鄰","STREET":"六合路","SECT":" ","MAREA":" ","LANE":" ","ALLEY":" ","HOUSE_NO":"４９號","E_COORD97":171155.75,"N_COORD97":2545597.5,"ADDRESS":"六合路４９號","OBJECTID":56940},"geometry":{"x":171155.75,"y":2545597.5000000037}},{"attributes":{"ID":56941,"DIS_CODE":0,"TOWNNAME":"將軍區","LI":"長榮里","LIN":"8鄰","STREET":" ","SECT":" ","MAREA":"長榮","LANE":" ","ALLEY":" ","HOUSE_NO":"７５號","E_COORD97":164014.84,"N_COORD97":2566276.71,"ADDRESS":"長榮７５號","OBJECTID":56941},"geometry":{"x":164014.83999999985,"y":2566276.7100000009}},{"attributes":{"ID":56942,"DIS_CODE":0,"TOWNNAME":"將軍區","LI":"長榮里","LIN":"8鄰","STREET":" ","SECT":" ","MAREA":"長榮","LANE":" ","ALLEY":" ","HOUSE_NO":"７６之１號","E_COORD97":163991.81,"N_COORD97":2566310.9199999999,"ADDRESS":"長榮７６之１號","OBJECTID":56942},"geometry":{"x":163991.81000000052,"y":2566310.9200000018}},{"attributes":{"ID":56943,"DIS_CODE":0,"TOWNNAME":"將軍區","LI":"長榮里","LIN":"8鄰","STREET":" ","SECT":" ","MAREA":"長榮","LANE":" ","ALLEY":" ","HOUSE_NO":"７６之２號","E_COORD97":164009.97,"N_COORD97":2566311.46,"ADDRESS":"長榮７６之２號","OBJECTID":56943},"geometry":{"x":164009.97000000067,"y":2566311.4600000028}},{"attributes":{"ID":56944,"DIS_CODE":0,"TOWNNAME":"將軍區","LI":"長榮里","LIN":"8鄰","STREET":" ","SECT":" ","MAREA":"長榮","LANE":" ","ALLEY":" ","HOUSE_NO":"７６號","E_COORD97":164009.42999999999,"N_COORD97":2566297.7000000002,"ADDRESS":"長榮７６號","OBJECTID":56944},"geometry":{"x":164009.43000000156,"y":2566297.7000000011}},{"attributes":{"ID":56945,"DIS_CODE":0,"TOWNNAME":"將軍區","LI":"長榮里","LIN":"8鄰","STREET":" ","SECT":" ","MAREA":"長榮","LANE":" ","ALLEY":" ","HOUSE_NO":"７７號","E_COORD97":163981.89000000001,"N_COORD97":2566278.3199999998,"ADDRESS":"長榮７７號","OBJECTID":56945},"geometry":{"x":163981.88999999966,"y":2566278.3200000022}},{"attributes":{"ID":56946,"DIS_CODE":0,"TOWNNAME":"南區","LI":"大恩里","LIN":"1鄰","STREET":"大同路","SECT":"二段","MAREA":" ","LANE":"６４０巷","ALLEY":"３９弄","HOUSE_NO":"８號","E_COORD97":169369.95000000001,"N_COORD97":2540976.5299999998,"ADDRESS":"大同路二段６４０巷３９弄８號","OBJECTID":56946},"geometry":{"x":169369.95000000205,"y":2540976.5300000012}},{"attributes":{"ID":56947,"DIS_CODE":0,"TOWNNAME":"將軍區","LI":"長榮里","LIN":"8鄰","STREET":" ","SECT":" ","MAREA":"長榮","LANE":" ","ALLEY":" ","HOUSE_NO":"７８之１０號","E_COORD97":163966.23999999999,"N_COORD97":2566268.7599999998,"ADDRESS":"長榮７８之１０號","OBJECTID":56947},"geometry":{"x":163966.24000000115,"y":2566268.7599999998}},{"attributes":{"ID":56948,"DIS_CODE":0,"TOWNNAME":"南區","LI":"大恩里","LIN":"1鄰","STREET":"大同路","SECT":"二段","MAREA":" ","LANE":"６４０巷","ALLEY":"３９弄","HOUSE_NO":"９號","E_COORD97":169369.14999999999,"N_COORD97":2540970.8500000001,"ADDRESS":"大同路二段６４０巷３９弄９號","OBJECTID":56948},"geometry":{"x":169369.1500000013,"y":2540970.8500000015}},{"attributes":{"ID":56949,"DIS_CODE":0,"TOWNNAME":"永康區","LI":"六合里","LIN":"8鄰","STREET":"六合路","SECT":" ","MAREA":" ","LANE":" ","ALLEY":" ","HOUSE_NO":"５１號","E_COORD97":171156.45000000001,"N_COORD97":2545601.75,"ADDRESS":"六合路５１號","OBJECTID":56949},"geometry":{"x":171156.45000000019,"y":2545601.75}},{"attributes":{"ID":56950,"DIS_CODE":0,"TOWNNAME":"將軍區","LI":"長榮里","LIN":"8鄰","STREET":" ","SECT":" ","MAREA":"長榮","LANE":" ","ALLEY":" ","HOUSE_NO":"７８之１１號","E_COORD97":163962.22,"N_COORD97":2566269.77,"ADDRESS":"長榮７８之１１號","OBJECTID":56950},"geometry":{"x":163962.22000000067,"y":2566269.7700000033}},{"attributes":{"ID":56951,"DIS_CODE":0,"TOWNNAME":"安平區","LI":"平通里","LIN":"24鄰","STREET":"育平八街","SECT":" ","MAREA":" ","LANE":" ","ALLEY":" ","HOUSE_NO":"３２號","E_COORD97":164499.09,"N_COORD97":2543941.6299999999,"ADDRESS":"育平八街３２號","OBJECTID":56951},"geometry":{"x":164499.09000000078,"y":2543941.6300000008}},{"attributes":{"ID":56952,"DIS_CODE":0,"TOWNNAME":"仁德區","LI":"仁愛里","LIN":"8鄰","STREET":" ","SECT":" ","MAREA":"仁愛","LANE":" ","ALLEY":" ","HOUSE_NO":"１５８號","E_COORD97":170276.32947699999,"N_COORD97":2539813.665,"ADDRESS":"仁愛１５８號","OBJECTID":56952},"geometry":{"x":170276.32947700005,"y":2539813.665000001}},{"attributes":{"ID":56953,"DIS_CODE":0,"TOWNNAME":"將軍區","LI":"鯤鯓里","LIN":"8鄰","STREET":" ","SECT":" ","MAREA":"鯤鯓","LANE":" ","ALLEY":" ","HOUSE_NO":"６３號","E_COORD97":156528.06,"N_COORD97":2565583.8199999998,"ADDRESS":"鯤鯓６３號","OBJECTID":56953},"geometry":{"x":156528.06000000052,"y":2565583.8200000003}},{"attributes":{"ID":56954,"DIS_CODE":0,"TOWNNAME":"將軍區","LI":"鯤鯓里","LIN":"8鄰","STREET":" ","SECT":" ","MAREA":"鯤鯓","LANE":" ","ALLEY":" ","HOUSE_NO":"６５號","E_COORD97":156532.98999999999,"N_COORD97":2565564.8300000001,"ADDRESS":"鯤鯓６５號","OBJECTID":56954},"geometry":{"x":156532.99000000022,"y":2565564.8300000019}},{"attributes":{"ID":56955,"DIS_CODE":0,"TOWNNAME":"將軍區","LI":"鯤鯓里","LIN":"8鄰","STREET":" ","SECT":" ","MAREA":"鯤鯓","LANE":" ","ALLEY":" ","HOUSE_NO":"６６號","E_COORD97":156547.17000000001,"N_COORD97":2565558.2200000002,"ADDRESS":"鯤鯓６６號","OBJECTID":56955},"geometry":{"x":156547.16999999993,"y":2565558.2200000007}},{"attributes":{"ID":56956,"DIS_CODE":0,"TOWNNAME":"將軍區","LI":"鯤鯓里","LIN":"8鄰","STREET":" ","SECT":" ","MAREA":"鯤鯓","LANE":" ","ALLEY":" ","HOUSE_NO":"６７號","E_COORD97":156545.53,"N_COORD97":2565565.3999999999,"ADDRESS":"鯤鯓６７號","OBJECTID":56956},"geometry":{"x":156545.53000000119,"y":2565565.4000000022}},{"attributes":{"ID":56957,"DIS_CODE":0,"TOWNNAME":"將軍區","LI":"鯤鯓里","LIN":"8鄰","STREET":" ","SECT":" ","MAREA":"鯤鯓","LANE":" ","ALLEY":" ","HOUSE_NO":"６８號","E_COORD97":156559.67999999999,"N_COORD97":2565571.3799999999,"ADDRESS":"鯤鯓６８號","OBJECTID":56957},"geometry":{"x":156559.68000000063,"y":2565571.3800000008}},{"attributes":{"ID":56958,"DIS_CODE":0,"TOWNNAME":"將軍區","LI":"鯤鯓里","LIN":"8鄰","STREET":" ","SECT":" ","MAREA":"鯤鯓","LANE":" ","ALLEY":" ","HOUSE_NO":"６９號","E_COORD97":156541.16,"N_COORD97":2565586.2799999998,"ADDRESS":"鯤鯓６９號","OBJECTID":56958},"geometry":{"x":156541.16000000108,"y":2565586.2799999993}},{"attributes":{"ID":56959,"DIS_CODE":0,"TOWNNAME":"安平區","LI":"億載里","LIN":"1鄰","STREET":"平豐路","SECT":" ","MAREA":" ","LANE":"３９１巷","ALLEY":"２２弄","HOUSE_NO":"４５號","E_COORD97":164151.75,"N_COORD97":2543866.46,"ADDRESS":"平豐路３９１巷２２弄４５號","OBJECTID":56959},"geometry":{"x":164151.75000000186,"y":2543866.4600000028}},{"attributes":{"ID":56960,"DIS_CODE":0,"TOWNNAME":"安平區","LI":"億載里","LIN":"1鄰","STREET":"平豐路","SECT":" ","MAREA":" ","LANE":"３９１巷","ALLEY":"２２弄","HOUSE_NO":"４７號","E_COORD97":164146.04000000001,"N_COORD97":2543865.04,"ADDRESS":"平豐路３９１巷２２弄４７號","OBJECTID":56960},"geometry":{"x":164146.04000000004,"y":2543865.040000001}},{"attributes":{"ID":56961,"DIS_CODE":0,"TOWNNAME":"龍崎區","LI":"楠坑里","LIN":"8鄰","STREET":" ","SECT":" ","MAREA":"楠坑","LANE":" ","ALLEY":" ","HOUSE_NO":"３４之２號","E_COORD97":184546.29000000001,"N_COORD97":2535084.2999999998,"ADDRESS":"楠坑３４之２號","OBJECTID":56961},"geometry":{"x":184546.2900000019,"y":2535084.3000000007}},{"attributes":{"ID":56962,"DIS_CODE":0,"TOWNNAME":"安平區","LI":"億載里","LIN":"1鄰","STREET":"平豐路","SECT":" ","MAREA":" ","LANE":"３９１巷","ALLEY":"２２弄","HOUSE_NO":"５３號","E_COORD97":164130.35000000001,"N_COORD97":2543862.1600000001,"ADDRESS":"平豐路３９１巷２２弄５３號","OBJECTID":56962},"geometry":{"x":164130.35000000149,"y":2543862.160000002}},{"attributes":{"ID":56963,"DIS_CODE":0,"TOWNNAME":"龍崎區","LI":"崎頂里","LIN":"8鄰","STREET":" ","SECT":" ","MAREA":"新市子","LANE":" ","ALLEY":" ","HOUSE_NO":"２９０號","E_COORD97":184356.87,"N_COORD97":2540590.25,"ADDRESS":"新市子２９０號","OBJECTID":56963},"geometry":{"x":184356.87000000011,"y":2540590.25}},{"attributes":{"ID":56964,"DIS_CODE":0,"TOWNNAME":"龍崎區","LI":"崎頂里","LIN":"8鄰","STREET":" ","SECT":" ","MAREA":"新市子","LANE":" ","ALLEY":" ","HOUSE_NO":"２９３號","E_COORD97":184354.26999999999,"N_COORD97":2540578.25,"ADDRESS":"新市子２９３號","OBJECTID":56964},"geometry":{"x":184354.27000000142,"y":2540578.2500000019}},{"attributes":{"ID":56965,"DIS_CODE":0,"TOWNNAME":"安平區","LI":"億載里","LIN":"1鄰","STREET":"平豐路","SECT":" ","MAREA":" ","LANE":"３９１巷","ALLEY":"２２弄","HOUSE_NO":"５５號","E_COORD97":164123.04999999999,"N_COORD97":2543860.5699999998,"ADDRESS":"平豐路３９１巷２２弄５５號","OBJECTID":56965},"geometry":{"x":164123.05000000075,"y":2543860.5700000003}},{"attributes":{"ID":56966,"DIS_CODE":0,"TOWNNAME":"安平區","LI":"億載里","LIN":"1鄰","STREET":"平豐路","SECT":" ","MAREA":" ","LANE":"３９１巷","ALLEY":"２２弄","HOUSE_NO":"５７號","E_COORD97":164117.5,"N_COORD97":2543857.8700000001,"ADDRESS":"平豐路３９１巷２２弄５７號","OBJECTID":56966},"geometry":{"x":164117.5,"y":2543857.8700000029}},{"attributes":{"ID":56967,"DIS_CODE":0,"TOWNNAME":"安平區","LI":"億載里","LIN":"1鄰","STREET":"平豐路","SECT":" ","MAREA":" ","LANE":"３９１巷","ALLEY":"２２弄","HOUSE_NO":"６８號","E_COORD97":164107.64999999999,"N_COORD97":2543871.21,"ADDRESS":"平豐路３９１巷２２弄６８號","OBJECTID":56967},"geometry":{"x":164107.6500000013,"y":2543871.2100000046}},{"attributes":{"ID":56968,"DIS_CODE":0,"TOWNNAME":"安平區","LI":"億載里","LIN":"1鄰","STREET":"平豐路","SECT":" ","MAREA":" ","LANE":"３９１巷","ALLEY":"２２弄","HOUSE_NO":"６０號","E_COORD97":164128.44,"N_COORD97":2543875.3900000001,"ADDRESS":"平豐路３９１巷２２弄６０號","OBJECTID":56968},"geometry":{"x":164128.44000000041,"y":2543875.3900000006}},{"attributes":{"ID":56969,"DIS_CODE":0,"TOWNNAME":"安平區","LI":"億載里","LIN":"1鄰","STREET":"平豐路","SECT":" ","MAREA":" ","LANE":"３９１巷","ALLEY":"２２弄","HOUSE_NO":"６１號","E_COORD97":164102.26000000001,"N_COORD97":2543854.2200000002,"ADDRESS":"平豐路３９１巷２２弄６１號","OBJECTID":56969},"geometry":{"x":164102.26000000164,"y":2543854.2200000025}},{"attributes":{"ID":56970,"DIS_CODE":0,"TOWNNAME":"新化區","LI":"山\u25A0里","LIN":"8鄰","STREET":" ","SECT":" ","MAREA":"頂山\u25A0","LANE":" ","ALLEY":" ","HOUSE_NO":"１５３號","E_COORD97":179784.63,"N_COORD97":2546814.25,"ADDRESS":"頂山\u25A0１５３號","OBJECTID":56970},"geometry":{"x":179784.62999999989,"y":2546814.2500000019}},{"attributes":{"ID":56971,"DIS_CODE":0,"TOWNNAME":"安定區","LI":"管寮里","LIN":"8鄰","STREET":" ","SECT":" ","MAREA":"管寮","LANE":" ","ALLEY":" ","HOUSE_NO":"７９號","E_COORD97":169836.84,"N_COORD97":2556547.25,"ADDRESS":"管寮７９號","OBJECTID":56971},"geometry":{"x":169836.84000000078,"y":2556547.2500000019}},{"attributes":{"ID":56972,"DIS_CODE":0,"TOWNNAME":"佳里區","LI":"佳化里","LIN":"1鄰","STREET":" ","SECT":" ","MAREA":"佳里興","LANE":" ","ALLEY":" ","HOUSE_NO":"４號之１１","E_COORD97":167740.87,"N_COORD97":2565343.5,"ADDRESS":"佳里興４號之１１","OBJECTID":56972},"geometry":{"x":167740.87000000011,"y":2565343.5000000019}},{"attributes":{"ID":56973,"DIS_CODE":0,"TOWNNAME":"安平區","LI":"億載里","LIN":"1鄰","STREET":"平豐路","SECT":" ","MAREA":" ","LANE":"３９１巷","ALLEY":"２２弄","HOUSE_NO":"６２號","E_COORD97":164123.70000000001,"N_COORD97":2543874.52,"ADDRESS":"平豐路３９１巷２２弄６２號","OBJECTID":56973},"geometry":{"x":164123.70000000112,"y":2543874.5200000033}},{"attributes":{"ID":56974,"DIS_CODE":0,"TOWNNAME":"佳里區","LI":"通興里","LIN":"8鄰","STREET":" ","SECT":" ","MAREA":"埔頂","LANE":" ","ALLEY":" ","HOUSE_NO":"２５號之５","E_COORD97":163417.81,"N_COORD97":2560517.0499999998,"ADDRESS":"埔頂２５號之５","OBJECTID":56974},"geometry":{"x":163417.80999999959,"y":2560517.0500000026}},{"attributes":{"ID":56975,"DIS_CODE":0,"TOWNNAME":"佳里區","LI":"通興里","LIN":"8鄰","STREET":" ","SECT":" ","MAREA":"埔頂","LANE":" ","ALLEY":" ","HOUSE_NO":"２５號之６","E_COORD97":163386.82000000001,"N_COORD97":2560508.52,"ADDRESS":"埔頂２５號之６","OBJECTID":56975},"geometry":{"x":163386.81999999937,"y":2560508.5200000014}},{"attributes":{"ID":56976,"DIS_CODE":0,"TOWNNAME":"佳里區","LI":"通興里","LIN":"8鄰","STREET":" ","SECT":" ","MAREA":"埔頂","LANE":" ","ALLEY":" ","HOUSE_NO":"２５號之７","E_COORD97":163391.76000000001,"N_COORD97":2560505.8399999999,"ADDRESS":"埔頂２５號之７","OBJECTID":56976},"geometry":{"x":163391.75999999885,"y":2560505.8400000036}},{"attributes":{"ID":56977,"DIS_CODE":0,"TOWNNAME":"佳里區","LI":"通興里","LIN":"8鄰","STREET":" ","SECT":" ","MAREA":"埔頂","LANE":" ","ALLEY":" ","HOUSE_NO":"２５號","E_COORD97":163419.95000000001,"N_COORD97":2560572.1899999999,"ADDRESS":"埔頂２５號","OBJECTID":56977},"geometry":{"x":163419.95000000205,"y":2560572.1900000013}},{"attributes":{"ID":56978,"DIS_CODE":0,"TOWNNAME":"佳里區","LI":"蚶寮里","LIN":"8鄰","STREET":" ","SECT":" ","MAREA":"蚶寮","LANE":" ","ALLEY":" ","HOUSE_NO":"７３號之１","E_COORD97":163294.54999999999,"N_COORD97":2558803.6299999999,"ADDRESS":"蚶寮７３號之１","OBJECTID":56978},"geometry":{"x":163294.54999999981,"y":2558803.629999999}},{"attributes":{"ID":56979,"DIS_CODE":0,"TOWNNAME":"佳里區","LI":"蚶寮里","LIN":"8鄰","STREET":" ","SECT":" ","MAREA":"蚶寮","LANE":" ","ALLEY":" ","HOUSE_NO":"７３號之２","E_COORD97":163300.94,"N_COORD97":2558709.3599999999,"ADDRESS":"蚶寮７３號之２","OBJECTID":56979},"geometry":{"x":163300.94000000041,"y":2558709.3600000013}},{"attributes":{"ID":56980,"DIS_CODE":0,"TOWNNAME":"佳里區","LI":"蚶寮里","LIN":"8鄰","STREET":" ","SECT":" ","MAREA":"蚶寮","LANE":" ","ALLEY":" ","HOUSE_NO":"７３號","E_COORD97":163296.60999999999,"N_COORD97":2558766.3300000001,"ADDRESS":"蚶寮７３號","OBJECTID":56980},"geometry":{"x":163296.61000000034,"y":2558766.3300000001}},{"attributes":{"ID":56981,"DIS_CODE":0,"TOWNNAME":"佳里區","LI":"蚶寮里","LIN":"8鄰","STREET":" ","SECT":" ","MAREA":"蚶寮","LANE":" ","ALLEY":" ","HOUSE_NO":"７５號之２","E_COORD97":163280.70999999999,"N_COORD97":2558742.02,"ADDRESS":"蚶寮７５號之２","OBJECTID":56981},"geometry":{"x":163280.71000000089,"y":2558742.0200000014}},{"attributes":{"ID":56982,"DIS_CODE":0,"TOWNNAME":"安平區","LI":"億載里","LIN":"1鄰","STREET":"平豐路","SECT":" ","MAREA":" ","LANE":"３９１巷","ALLEY":"２２弄","HOUSE_NO":"６３號","E_COORD97":164094,"N_COORD97":2543851.8399999999,"ADDRESS":"平豐路３９１巷２２弄６３號","OBJECTID":56982},"geometry":{"x":164094.00000000186,"y":2543851.8399999999}},{"attributes":{"ID":56983,"DIS_CODE":0,"TOWNNAME":"安平區","LI":"億載里","LIN":"1鄰","STREET":"平豐路","SECT":" ","MAREA":" ","LANE":"３９１巷","ALLEY":"２２弄","HOUSE_NO":"６６號","E_COORD97":164115.42999999999,"N_COORD97":2543872.48,"ADDRESS":"平豐路３９１巷２２弄６６號","OBJECTID":56983},"geometry":{"x":164115.4299999997,"y":2543872.4800000042}},{"attributes":{"ID":56984,"DIS_CODE":0,"TOWNNAME":"安平區","LI":"億載里","LIN":"1鄰","STREET":"平豐路","SECT":" ","MAREA":" ","LANE":"３９１巷","ALLEY":"２２弄","HOUSE_NO":"７０號","E_COORD97":164100.67000000001,"N_COORD97":2543869.2999999998,"ADDRESS":"平豐路３９１巷２２弄７０號","OBJECTID":56984},"geometry":{"x":164100.66999999993,"y":2543869.3000000007}},{"attributes":{"ID":56985,"DIS_CODE":0,"TOWNNAME":"安平區","LI":"億載里","LIN":"1鄰","STREET":"平豐路","SECT":" ","MAREA":" ","LANE":"３９１巷","ALLEY":"２２弄","HOUSE_NO":"２６號","E_COORD97":164221.62,"N_COORD97":2543880.3999999999,"ADDRESS":"平豐路３９１巷２２弄２６號","OBJECTID":56985},"geometry":{"x":164221.62000000011,"y":2543880.4000000022}},{"attributes":{"ID":56986,"DIS_CODE":0,"TOWNNAME":"安平區","LI":"億載里","LIN":"1鄰","STREET":"平豐路","SECT":" ","MAREA":" ","LANE":"３９１巷","ALLEY":"２２弄","HOUSE_NO":"２２號","E_COORD97":164222.73000000001,"N_COORD97":2543875.7999999998,"ADDRESS":"平豐路３９１巷２２弄２２號","OBJECTID":56986},"geometry":{"x":164222.73000000045,"y":2543875.8000000007}},{"attributes":{"ID":56987,"DIS_CODE":0,"TOWNNAME":"學甲區","LI":"大灣里","LIN":"8鄰","STREET":" ","SECT":" ","MAREA":"大灣","LANE":" ","ALLEY":" ","HOUSE_NO":"７８號之１","E_COORD97":166962.70999999999,"N_COORD97":2567695.6099999999,"ADDRESS":"大灣７８號之１","OBJECTID":56987},"geometry":{"x":166962.71000000089,"y":2567695.6100000013}},{"attributes":{"ID":56988,"DIS_CODE":0,"TOWNNAME":"學甲區","LI":"大灣里","LIN":"8鄰","STREET":" ","SECT":" ","MAREA":"大灣","LANE":" ","ALLEY":" ","HOUSE_NO":"７８號之２","E_COORD97":166953.75,"N_COORD97":2567686.4100000001,"ADDRESS":"大灣７８號之２","OBJECTID":56988},"geometry":{"x":166953.75000000186,"y":2567686.4100000039}},{"attributes":{"ID":56989,"DIS_CODE":0,"TOWNNAME":"學甲區","LI":"大灣里","LIN":"8鄰","STREET":" ","SECT":" ","MAREA":"大灣","LANE":" ","ALLEY":" ","HOUSE_NO":"７８號","E_COORD97":166960.19,"N_COORD97":2567709.4700000002,"ADDRESS":"大灣７８號","OBJECTID":56989},"geometry":{"x":166960.19000000134,"y":2567709.4700000007}},{"attributes":{"ID":56990,"DIS_CODE":0,"TOWNNAME":"學甲區","LI":"大灣里","LIN":"8鄰","STREET":" ","SECT":" ","MAREA":"大灣","LANE":" ","ALLEY":" ","HOUSE_NO":"７９號","E_COORD97":166931.32999999999,"N_COORD97":2567705.8399999999,"ADDRESS":"大灣７９號","OBJECTID":56990},"geometry":{"x":166931.33000000194,"y":2567705.8399999999}},{"attributes":{"ID":56991,"DIS_CODE":0,"TOWNNAME":"學甲區","LI":"大灣里","LIN":"8鄰","STREET":" ","SECT":" ","MAREA":"大灣","LANE":" ","ALLEY":" ","HOUSE_NO":"８０號","E_COORD97":166908.91,"N_COORD97":2567692.8900000001,"ADDRESS":"大灣８０號","OBJECTID":56991},"geometry":{"x":166908.91000000201,"y":2567692.8900000006}},{"attributes":{"ID":56992,"DIS_CODE":0,"TOWNNAME":"學甲區","LI":"大灣里","LIN":"8鄰","STREET":" ","SECT":" ","MAREA":"大灣","LANE":" ","ALLEY":" ","HOUSE_NO":"８２號","E_COORD97":166925.98000000001,"N_COORD97":2567664.2000000002,"ADDRESS":"大灣８２號","OBJECTID":56992},"geometry":{"x":166925.98000000138,"y":2567664.2000000011}},{"attributes":{"ID":56993,"DIS_CODE":0,"TOWNNAME":"學甲區","LI":"大灣里","LIN":"8鄰","STREET":" ","SECT":" ","MAREA":"大灣","LANE":" ","ALLEY":" ","HOUSE_NO":"８３號","E_COORD97":166917.32999999999,"N_COORD97":2567647.9199999999,"ADDRESS":"大灣８３號","OBJECTID":56993},"geometry":{"x":166917.33000000007,"y":2567647.9199999999}},{"attributes":{"ID":56994,"DIS_CODE":0,"TOWNNAME":"學甲區","LI":"大灣里","LIN":"8鄰","STREET":" ","SECT":" ","MAREA":"大灣","LANE":" ","ALLEY":" ","HOUSE_NO":"８４號之１","E_COORD97":166900.63,"N_COORD97":2567629.1699999999,"ADDRESS":"大灣８４號之１","OBJECTID":56994},"geometry":{"x":166900.63000000082,"y":2567629.1699999999}},{"attributes":{"ID":56995,"DIS_CODE":0,"TOWNNAME":"學甲區","LI":"大灣里","LIN":"8鄰","STREET":" ","SECT":" ","MAREA":"大灣","LANE":" ","ALLEY":" ","HOUSE_NO":"８４號","E_COORD97":166909.60000000001,"N_COORD97":2567630.6699999999,"ADDRESS":"大灣８４號","OBJECTID":56995},"geometry":{"x":166909.59999999963,"y":2567630.6700000018}},{"attributes":{"ID":56996,"DIS_CODE":0,"TOWNNAME":"學甲區","LI":"大灣里","LIN":"8鄰","STREET":" ","SECT":" ","MAREA":"大灣","LANE":" ","ALLEY":" ","HOUSE_NO":"８６號","E_COORD97":166923.97,"N_COORD97":2567619.0600000001,"ADDRESS":"大灣８６號","OBJECTID":56996},"geometry":{"x":166923.97000000067,"y":2567619.0600000024}},{"attributes":{"ID":56997,"DIS_CODE":0,"TOWNNAME":"學甲區","LI":"大灣里","LIN":"8鄰","STREET":" ","SECT":" ","MAREA":"大灣","LANE":" ","ALLEY":" ","HOUSE_NO":"８８號","E_COORD97":166882.32999999999,"N_COORD97":2567625.2599999998,"ADDRESS":"大灣８８號","OBJECTID":56997},"geometry":{"x":166882.33000000101,"y":2567625.2599999998}},{"attributes":{"ID":56998,"DIS_CODE":0,"TOWNNAME":"佳里區","LI":"禮化里","LIN":"1鄰","STREET":" ","SECT":" ","MAREA":"佳里興","LANE":" ","ALLEY":" ","HOUSE_NO":"２２９號之３","E_COORD97":166976.01999999999,"N_COORD97":2565640.75,"ADDRESS":"佳里興２２９號之３","OBJECTID":56998},"geometry":{"x":166976.02000000048,"y":2565640.7500000019}},{"attributes":{"ID":56999,"DIS_CODE":0,"TOWNNAME":"佳里區","LI":"禮化里","LIN":"1鄰","STREET":" ","SECT":" ","MAREA":"佳里興","LANE":" ","ALLEY":" ","HOUSE_NO":"２２９號之４","E_COORD97":166977.59,"N_COORD97":2565644.4199999999,"ADDRESS":"佳里興２２９號之４","OBJECTID":56999},"geometry":{"x":166977.58999999985,"y":2565644.4199999999}},{"attributes":{"ID":57000,"DIS_CODE":0,"TOWNNAME":"佳里區","LI":"禮化里","LIN":"1鄰","STREET":" ","SECT":" ","MAREA":"佳里興","LANE":" ","ALLEY":" ","HOUSE_NO":"２２９號","E_COORD97":166984.14999999999,"N_COORD97":2565651.3100000001,"ADDRESS":"佳里興２２９號","OBJECTID":57000},"geometry":{"x":166984.1500000013,"y":2565651.3100000024}}]}