{"displayFieldName":"TOWNNAME","fieldAliases":{"ID":"ID","DIS_CODE":"DIS_CODE","TOWNNAME":"TOWNNAME","LI":"LI","LIN":"LIN","STREET":"STREET","SECT":"SECT","MAREA":"MAREA","LANE":"LANE","ALLEY":"ALLEY","HOUSE_NO":"HOUSE_NO","E_COORD97":"E_COORD97","N_COORD97":"N_COORD97","ADDRESS":"ADDRESS","OBJECTID":"OBJECTID"},"geometryType":"esriGeometryPoint","spatialReference":{"wkid":102443,"latestWkid":3826},"fields":[{"name":"ID","type":"esriFieldTypeDouble","alias":"ID"},{"name":"DIS_CODE","type":"esriFieldTypeInteger","alias":"DIS_CODE"},{"name":"TOWNNAME","type":"esriFieldTypeString","alias":"TOWNNAME","length":8},{"name":"LI","type":"esriFieldTypeString","alias":"LI","length":8},{"name":"LIN","type":"esriFieldTypeString","alias":"LIN","length":12},{"name":"STREET","type":"esriFieldTypeString","alias":"STREET","length":20},{"name":"SECT","type":"esriFieldTypeString","alias":"SECT","length":8},{"name":"MAREA","type":"esriFieldTypeString","alias":"MAREA","length":12},{"name":"LANE","type":"esriFieldTypeString","alias":"LANE","length":10},{"name":"ALLEY","type":"esriFieldTypeString","alias":"ALLEY","length":10},{"name":"HOUSE_NO","type":"esriFieldTypeString","alias":"HOUSE_NO","length":20},{"name":"E_COORD97","type":"esriFieldTypeDouble","alias":"E_COORD97"},{"name":"N_COORD97","type":"esriFieldTypeDouble","alias":"N_COORD97"},{"name":"ADDRESS","type":"esriFieldTypeString","alias":"ADDRESS","length":50},{"name":"OBJECTID","type":"esriFieldTypeOID","alias":"OBJECTID"}],"features":[{"attributes":{"ID":565628,"DIS_CODE":0,"TOWNNAME":"仁德區","LI":"二行里","LIN":"9鄰","STREET":"中正西路","SECT":" ","MAREA":" ","LANE":" ","ALLEY":" ","HOUSE_NO":"２２５號","E_COORD97":170044.10999999999,"N_COORD97":2535381.9900000002,"ADDRESS":"中正西路２２５號","OBJECTID":565601},"geometry":{"x":170044.11000000127,"y":2535381.9900000002}},{"attributes":{"ID":565629,"DIS_CODE":0,"TOWNNAME":"仁德區","LI":"二行里","LIN":"9鄰","STREET":"行大街","SECT":" ","MAREA":" ","LANE":" ","ALLEY":" ","HOUSE_NO":"１１２號","E_COORD97":170136.44,"N_COORD97":2535128.25,"ADDRESS":"行大街１１２號","OBJECTID":565602},"geometry":{"x":170136.44000000227,"y":2535128.25}},{"attributes":{"ID":565630,"DIS_CODE":0,"TOWNNAME":"善化區","LI":"東關里","LIN":"1鄰","STREET":"中正路","SECT":" ","MAREA":" ","LANE":" ","ALLEY":" ","HOUSE_NO":"５２５號","E_COORD97":177672.89000000001,"N_COORD97":2559124.75,"ADDRESS":"中正路５２５號","OBJECTID":565603},"geometry":{"x":177672.89000000153,"y":2559124.7500000019}},{"attributes":{"ID":565631,"DIS_CODE":0,"TOWNNAME":"善化區","LI":"東關里","LIN":"9鄰","STREET":"中興路","SECT":" ","MAREA":" ","LANE":" ","ALLEY":" ","HOUSE_NO":"１５２號","E_COORD97":177280.12,"N_COORD97":2559055.75,"ADDRESS":"中興路１５２號","OBJECTID":565604},"geometry":{"x":177280.12000000197,"y":2559055.7500000037}},{"attributes":{"ID":565632,"DIS_CODE":0,"TOWNNAME":"新化區","LI":"豐榮里","LIN":"9鄰","STREET":"大智路","SECT":" ","MAREA":" ","LANE":" ","ALLEY":" ","HOUSE_NO":"１９號","E_COORD97":178374.07999999999,"N_COORD97":2548420.25,"ADDRESS":"大智路１９號","OBJECTID":565605},"geometry":{"x":178374.08000000101,"y":2548420.2500000019}},{"attributes":{"ID":565633,"DIS_CODE":0,"TOWNNAME":"新化區","LI":"太平里","LIN":"9鄰","STREET":"中正路","SECT":" ","MAREA":" ","LANE":" ","ALLEY":" ","HOUSE_NO":"７２０號","E_COORD97":178507.91,"N_COORD97":2549802.25,"ADDRESS":"中正路７２０號","OBJECTID":565606},"geometry":{"x":178507.91000000108,"y":2549802.25}},{"attributes":{"ID":565634,"DIS_CODE":0,"TOWNNAME":"新化區","LI":"豐榮里","LIN":"9鄰","STREET":"中山路","SECT":" ","MAREA":" ","LANE":" ","ALLEY":" ","HOUSE_NO":"５４９號之１","E_COORD97":178437.64000000001,"N_COORD97":2548439.2599999998,"ADDRESS":"中山路５４９號之１","OBJECTID":565607},"geometry":{"x":178437.6400000006,"y":2548439.2599999998}},{"attributes":{"ID":565635,"DIS_CODE":0,"TOWNNAME":"新化區","LI":"豐榮里","LIN":"9鄰","STREET":"信義路","SECT":" ","MAREA":" ","LANE":" ","ALLEY":" ","HOUSE_NO":"５００號","E_COORD97":178375.92999999999,"N_COORD97":2548380.25,"ADDRESS":"信義路５００號","OBJECTID":565608},"geometry":{"x":178375.9299999997,"y":2548380.2500000019}},{"attributes":{"ID":565636,"DIS_CODE":0,"TOWNNAME":"新化區","LI":"護國里","LIN":"9鄰","STREET":"中山路","SECT":" ","MAREA":" ","LANE":" ","ALLEY":" ","HOUSE_NO":"１６７號","E_COORD97":179416.10999999999,"N_COORD97":2548738.25,"ADDRESS":"中山路１６７號","OBJECTID":565609},"geometry":{"x":179416.11000000034,"y":2548738.25}},{"attributes":{"ID":565637,"DIS_CODE":0,"TOWNNAME":"新化區","LI":"豐榮里","LIN":"9鄰","STREET":"中山路","SECT":" ","MAREA":" ","LANE":" ","ALLEY":" ","HOUSE_NO":"５６９號","E_COORD97":178409.60999999999,"N_COORD97":2548446.25,"ADDRESS":"中山路５６９號","OBJECTID":565610},"geometry":{"x":178409.6100000022,"y":2548446.25}},{"attributes":{"ID":565638,"DIS_CODE":0,"TOWNNAME":"新化區","LI":"太平里","LIN":"9鄰","STREET":"中正路","SECT":" ","MAREA":" ","LANE":" ","ALLEY":" ","HOUSE_NO":"６９０號之８５","E_COORD97":179188.12,"N_COORD97":2550580.2599999998,"ADDRESS":"中正路６９０號之８５","OBJECTID":565611},"geometry":{"x":179188.12000000011,"y":2550580.2600000016}},{"attributes":{"ID":565639,"DIS_CODE":0,"TOWNNAME":"新化區","LI":"太平里","LIN":"9鄰","STREET":"中正路","SECT":" ","MAREA":" ","LANE":" ","ALLEY":" ","HOUSE_NO":"６９２號之６","E_COORD97":178573.66,"N_COORD97":2549650.2599999998,"ADDRESS":"中正路６９２號之６","OBJECTID":565612},"geometry":{"x":178573.66000000108,"y":2549650.2600000035}},{"attributes":{"ID":565640,"DIS_CODE":0,"TOWNNAME":"新化區","LI":"太平里","LIN":"9鄰","STREET":"中正路","SECT":" ","MAREA":" ","LANE":" ","ALLEY":" ","HOUSE_NO":"９９８號","E_COORD97":178656.60999999999,"N_COORD97":2550140.25,"ADDRESS":"中正路９９８號","OBJECTID":565613},"geometry":{"x":178656.61000000034,"y":2550140.2500000019}},{"attributes":{"ID":565641,"DIS_CODE":0,"TOWNNAME":"新化區","LI":"豐榮里","LIN":"9鄰","STREET":"信義路","SECT":" ","MAREA":" ","LANE":" ","ALLEY":" ","HOUSE_NO":"５１２號","E_COORD97":178395.23000000001,"N_COORD97":2548384.25,"ADDRESS":"信義路５１２號","OBJECTID":565614},"geometry":{"x":178395.23000000231,"y":2548384.2500000019}},{"attributes":{"ID":565642,"DIS_CODE":0,"TOWNNAME":"新化區","LI":"武安里","LIN":"9鄰","STREET":"大同街","SECT":" ","MAREA":" ","LANE":" ","ALLEY":" ","HOUSE_NO":"１０１號","E_COORD97":178986.63,"N_COORD97":2548283.25,"ADDRESS":"大同街１０１號","OBJECTID":565615},"geometry":{"x":178986.62999999989,"y":2548283.25}},{"attributes":{"ID":565643,"DIS_CODE":0,"TOWNNAME":"新化區","LI":"太平里","LIN":"9鄰","STREET":"中正路","SECT":" ","MAREA":" ","LANE":" ","ALLEY":" ","HOUSE_NO":"６９０號之１６","E_COORD97":178874.41,"N_COORD97":2549699.2599999998,"ADDRESS":"中正路６９０號之１６","OBJECTID":565616},"geometry":{"x":178874.41000000015,"y":2549699.2600000016}},{"attributes":{"ID":565644,"DIS_CODE":0,"TOWNNAME":"新化區","LI":"護國里","LIN":"9鄰","STREET":"中山路","SECT":" ","MAREA":" ","LANE":" ","ALLEY":" ","HOUSE_NO":"１１５號","E_COORD97":179683.91,"N_COORD97":2549148.25,"ADDRESS":"中山路１１５號","OBJECTID":565617},"geometry":{"x":179683.91000000108,"y":2549148.25}},{"attributes":{"ID":565645,"DIS_CODE":0,"TOWNNAME":"安南區","LI":"淵東里","LIN":"9鄰","STREET":"安中路","SECT":"三段","MAREA":" ","LANE":" ","ALLEY":" ","HOUSE_NO":"４１２號","E_COORD97":165371.67000000001,"N_COORD97":2550049.2799999998,"ADDRESS":"安中路三段４１２號","OBJECTID":565618},"geometry":{"x":165371.67000000086,"y":2550049.2799999993}},{"attributes":{"ID":565646,"DIS_CODE":0,"TOWNNAME":"安南區","LI":"淵東里","LIN":"9鄰","STREET":"安中路","SECT":"三段","MAREA":" ","LANE":" ","ALLEY":" ","HOUSE_NO":"４１６號","E_COORD97":165364.70000000001,"N_COORD97":2550054.9500000002,"ADDRESS":"安中路三段４１６號","OBJECTID":565619},"geometry":{"x":165364.70000000112,"y":2550054.9499999993}},{"attributes":{"ID":565647,"DIS_CODE":0,"TOWNNAME":"安南區","LI":"淵東里","LIN":"9鄰","STREET":"安中路","SECT":"三段","MAREA":" ","LANE":" ","ALLEY":" ","HOUSE_NO":"４１８號","E_COORD97":165362.82000000001,"N_COORD97":2550057.0299999998,"ADDRESS":"安中路三段４１８號","OBJECTID":565620},"geometry":{"x":165362.8200000003,"y":2550057.0299999993}},{"attributes":{"ID":565648,"DIS_CODE":0,"TOWNNAME":"安南區","LI":"淵東里","LIN":"9鄰","STREET":"安中路","SECT":"三段","MAREA":" ","LANE":" ","ALLEY":" ","HOUSE_NO":"４２０號","E_COORD97":165360.57000000001,"N_COORD97":2550059.0699999998,"ADDRESS":"安中路三段４２０號","OBJECTID":565621},"geometry":{"x":165360.57000000123,"y":2550059.070000004}},{"attributes":{"ID":565649,"DIS_CODE":0,"TOWNNAME":"安南區","LI":"淵東里","LIN":"9鄰","STREET":"安中路","SECT":"三段","MAREA":" ","LANE":" ","ALLEY":" ","HOUSE_NO":"４２２號","E_COORD97":165356.70000000001,"N_COORD97":2550061.6499999999,"ADDRESS":"安中路三段４２２號","OBJECTID":565622},"geometry":{"x":165356.70000000019,"y":2550061.6499999985}},{"attributes":{"ID":565650,"DIS_CODE":0,"TOWNNAME":"安南區","LI":"淵東里","LIN":"9鄰","STREET":"安中路","SECT":"三段","MAREA":" ","LANE":" ","ALLEY":" ","HOUSE_NO":"４２６號","E_COORD97":165352.04999999999,"N_COORD97":2550067.3199999998,"ADDRESS":"安中路三段４２６號","OBJECTID":565623},"geometry":{"x":165352.05000000075,"y":2550067.320000004}},{"attributes":{"ID":565651,"DIS_CODE":0,"TOWNNAME":"安南區","LI":"淵東里","LIN":"9鄰","STREET":"安中路","SECT":"三段","MAREA":" ","LANE":" ","ALLEY":" ","HOUSE_NO":"４２８號","E_COORD97":165348.44,"N_COORD97":2550071.4399999999,"ADDRESS":"安中路三段４２８號","OBJECTID":565624},"geometry":{"x":165348.44000000041,"y":2550071.4399999995}},{"attributes":{"ID":565652,"DIS_CODE":0,"TOWNNAME":"安南區","LI":"淵東里","LIN":"9鄰","STREET":"安中路","SECT":"三段","MAREA":" ","LANE":" ","ALLEY":" ","HOUSE_NO":"４３２號","E_COORD97":165343.57999999999,"N_COORD97":2550075.3300000001,"ADDRESS":"安中路三段４３２號","OBJECTID":565625},"geometry":{"x":165343.58000000101,"y":2550075.3300000019}},{"attributes":{"ID":565653,"DIS_CODE":0,"TOWNNAME":"安南區","LI":"淵東里","LIN":"9鄰","STREET":"安中路","SECT":"三段","MAREA":" ","LANE":" ","ALLEY":" ","HOUSE_NO":"４３６號","E_COORD97":165338.94,"N_COORD97":2550080.7000000002,"ADDRESS":"安中路三段４３６號","OBJECTID":565626},"geometry":{"x":165338.94000000041,"y":2550080.700000003}},{"attributes":{"ID":565654,"DIS_CODE":0,"TOWNNAME":"安南區","LI":"淵東里","LIN":"9鄰","STREET":"安中路","SECT":"三段","MAREA":" ","LANE":" ","ALLEY":" ","HOUSE_NO":"４３８號","E_COORD97":165335.76000000001,"N_COORD97":2550084.8500000001,"ADDRESS":"安中路三段４３８號","OBJECTID":565627},"geometry":{"x":165335.75999999978,"y":2550084.8500000015}},{"attributes":{"ID":565655,"DIS_CODE":0,"TOWNNAME":"安南區","LI":"淵東里","LIN":"9鄰","STREET":"安中路","SECT":"三段","MAREA":" ","LANE":" ","ALLEY":" ","HOUSE_NO":"４４６號","E_COORD97":165329.13,"N_COORD97":2550093.5499999998,"ADDRESS":"安中路三段４４６號","OBJECTID":565628},"geometry":{"x":165329.13000000082,"y":2550093.5500000045}},{"attributes":{"ID":565656,"DIS_CODE":0,"TOWNNAME":"安南區","LI":"淵東里","LIN":"9鄰","STREET":"安中路","SECT":"三段","MAREA":" ","LANE":" ","ALLEY":" ","HOUSE_NO":"４４８號","E_COORD97":165327.04000000001,"N_COORD97":2550099.0299999998,"ADDRESS":"安中路三段４４８號","OBJECTID":565629},"geometry":{"x":165327.04000000004,"y":2550099.0300000031}},{"attributes":{"ID":565657,"DIS_CODE":0,"TOWNNAME":"南區","LI":"新昌里","LIN":"9鄰","STREET":"府緯街","SECT":" ","MAREA":" ","LANE":" ","ALLEY":" ","HOUSE_NO":"８２號","E_COORD97":167677.60999999999,"N_COORD97":2542732.4900000002,"ADDRESS":"府緯街８２號","OBJECTID":565630},"geometry":{"x":167677.61000000127,"y":2542732.4900000002}},{"attributes":{"ID":565658,"DIS_CODE":0,"TOWNNAME":"安南區","LI":"大安里","LIN":"9鄰","STREET":"大安街","SECT":" ","MAREA":" ","LANE":" ","ALLEY":" ","HOUSE_NO":"２１４號","E_COORD97":167414.60000000001,"N_COORD97":2548326.29,"ADDRESS":"大安街２１４號","OBJECTID":565631},"geometry":{"x":167414.60000000056,"y":2548326.2899999991}},{"attributes":{"ID":565659,"DIS_CODE":0,"TOWNNAME":"安南區","LI":"大安里","LIN":"9鄰","STREET":"大安街","SECT":" ","MAREA":" ","LANE":" ","ALLEY":" ","HOUSE_NO":"２１６號","E_COORD97":167416.97,"N_COORD97":2548330.25,"ADDRESS":"大安街２１６號","OBJECTID":565632},"geometry":{"x":167416.97000000067,"y":2548330.25}},{"attributes":{"ID":565660,"DIS_CODE":0,"TOWNNAME":"安南區","LI":"大安里","LIN":"9鄰","STREET":"大安街","SECT":" ","MAREA":" ","LANE":" ","ALLEY":" ","HOUSE_NO":"２２０號","E_COORD97":167422.79000000001,"N_COORD97":2548337.1600000001,"ADDRESS":"大安街２２０號","OBJECTID":565633},"geometry":{"x":167422.79000000004,"y":2548337.160000002}},{"attributes":{"ID":565661,"DIS_CODE":0,"TOWNNAME":"安南區","LI":"大安里","LIN":"9鄰","STREET":"大安街","SECT":" ","MAREA":" ","LANE":" ","ALLEY":" ","HOUSE_NO":"２２４號","E_COORD97":167428.37,"N_COORD97":2548346.52,"ADDRESS":"大安街２２４號","OBJECTID":565634},"geometry":{"x":167428.37000000104,"y":2548346.5200000033}},{"attributes":{"ID":565662,"DIS_CODE":0,"TOWNNAME":"安南區","LI":"大安里","LIN":"9鄰","STREET":"大安街","SECT":" ","MAREA":" ","LANE":" ","ALLEY":" ","HOUSE_NO":"２２８號","E_COORD97":167433.44,"N_COORD97":2548354.8599999999,"ADDRESS":"大安街２２８號","OBJECTID":565635},"geometry":{"x":167433.44000000134,"y":2548354.8600000013}},{"attributes":{"ID":565663,"DIS_CODE":0,"TOWNNAME":"安南區","LI":"大安里","LIN":"9鄰","STREET":"大安街","SECT":" ","MAREA":" ","LANE":" ","ALLEY":" ","HOUSE_NO":"２３０號","E_COORD97":167436.56,"N_COORD97":2548358.8199999998,"ADDRESS":"大安街２３０號","OBJECTID":565636},"geometry":{"x":167436.56000000052,"y":2548358.820000004}},{"attributes":{"ID":565664,"DIS_CODE":0,"TOWNNAME":"安南區","LI":"大安里","LIN":"9鄰","STREET":"大安街","SECT":" ","MAREA":" ","LANE":" ","ALLEY":" ","HOUSE_NO":"２３２號","E_COORD97":167438.5,"N_COORD97":2548362.1099999999,"ADDRESS":"大安街２３２號","OBJECTID":565637},"geometry":{"x":167438.49999999907,"y":2548362.1099999994}},{"attributes":{"ID":565665,"DIS_CODE":0,"TOWNNAME":"安南區","LI":"大安里","LIN":"9鄰","STREET":"大安街","SECT":" ","MAREA":" ","LANE":" ","ALLEY":" ","HOUSE_NO":"２３４號","E_COORD97":167441.79000000001,"N_COORD97":2548365.3100000001,"ADDRESS":"大安街２３４號","OBJECTID":565638},"geometry":{"x":167441.7900000019,"y":2548365.3100000005}},{"attributes":{"ID":565666,"DIS_CODE":0,"TOWNNAME":"安南區","LI":"大安里","LIN":"9鄰","STREET":"理安街","SECT":" ","MAREA":" ","LANE":" ","ALLEY":" ","HOUSE_NO":"１７５號","E_COORD97":167496.82999999999,"N_COORD97":2548262.6000000001,"ADDRESS":"理安街１７５號","OBJECTID":565639},"geometry":{"x":167496.83000000007,"y":2548262.6000000015}},{"attributes":{"ID":565667,"DIS_CODE":0,"TOWNNAME":"安南區","LI":"大安里","LIN":"9鄰","STREET":"理安街","SECT":" ","MAREA":" ","LANE":" ","ALLEY":" ","HOUSE_NO":"１７９號","E_COORD97":167502.97,"N_COORD97":2548269.5099999998,"ADDRESS":"理安街１７９號","OBJECTID":565640},"geometry":{"x":167502.9700000016,"y":2548269.5100000016}},{"attributes":{"ID":565668,"DIS_CODE":0,"TOWNNAME":"安南區","LI":"大安里","LIN":"9鄰","STREET":"理安街","SECT":" ","MAREA":" ","LANE":" ","ALLEY":" ","HOUSE_NO":"１８５號","E_COORD97":167510.26000000001,"N_COORD97":2548280.6299999999,"ADDRESS":"理安街１８５號","OBJECTID":565641},"geometry":{"x":167510.26000000071,"y":2548280.6300000027}},{"attributes":{"ID":565669,"DIS_CODE":0,"TOWNNAME":"安南區","LI":"大安里","LIN":"9鄰","STREET":"理安街","SECT":" ","MAREA":" ","LANE":" ","ALLEY":" ","HOUSE_NO":"１９１號","E_COORD97":167519.57999999999,"N_COORD97":2548294.29,"ADDRESS":"理安街１９１號","OBJECTID":565642},"geometry":{"x":167519.58000000194,"y":2548294.290000001}},{"attributes":{"ID":565670,"DIS_CODE":0,"TOWNNAME":"安南區","LI":"大安里","LIN":"9鄰","STREET":"理安街","SECT":" ","MAREA":" ","LANE":" ","ALLEY":" ","HOUSE_NO":"１９３號","E_COORD97":167522.13,"N_COORD97":2548296.9900000002,"ADDRESS":"理安街１９３號","OBJECTID":565643},"geometry":{"x":167522.12999999989,"y":2548296.9900000021}},{"attributes":{"ID":565671,"DIS_CODE":0,"TOWNNAME":"安南區","LI":"大安里","LIN":"9鄰","STREET":"理安街","SECT":" ","MAREA":" ","LANE":" ","ALLEY":" ","HOUSE_NO":"１９７號","E_COORD97":167525.23000000001,"N_COORD97":2548305.8100000001,"ADDRESS":"理安街１９７號","OBJECTID":565644},"geometry":{"x":167525.23000000045,"y":2548305.8100000024}},{"attributes":{"ID":565672,"DIS_CODE":0,"TOWNNAME":"安南區","LI":"大安里","LIN":"9鄰","STREET":"理安街","SECT":" ","MAREA":" ","LANE":" ","ALLEY":" ","HOUSE_NO":"１９９號","E_COORD97":167528.56,"N_COORD97":2548308.8999999999,"ADDRESS":"理安街１９９號","OBJECTID":565645},"geometry":{"x":167528.55999999959,"y":2548308.9000000022}},{"attributes":{"ID":565673,"DIS_CODE":0,"TOWNNAME":"南區","LI":"新昌里","LIN":"9鄰","STREET":"府緯街","SECT":" ","MAREA":" ","LANE":" ","ALLEY":" ","HOUSE_NO":"７４號","E_COORD97":167700.13,"N_COORD97":2542731.8500000001,"ADDRESS":"府緯街７４號","OBJECTID":565646},"geometry":{"x":167700.12999999989,"y":2542731.8499999996}},{"attributes":{"ID":565674,"DIS_CODE":0,"TOWNNAME":"南區","LI":"新昌里","LIN":"9鄰","STREET":"府緯街","SECT":" ","MAREA":" ","LANE":" ","ALLEY":" ","HOUSE_NO":"７６號","E_COORD97":167694.98000000001,"N_COORD97":2542731.8500000001,"ADDRESS":"府緯街７６號","OBJECTID":565647},"geometry":{"x":167694.98000000045,"y":2542731.8499999996}},{"attributes":{"ID":565675,"DIS_CODE":0,"TOWNNAME":"南區","LI":"新昌里","LIN":"9鄰","STREET":"府緯街","SECT":" ","MAREA":" ","LANE":" ","ALLEY":" ","HOUSE_NO":"７７號","E_COORD97":167666.03,"N_COORD97":2542712.3300000001,"ADDRESS":"府緯街７７號","OBJECTID":565648},"geometry":{"x":167666.03000000119,"y":2542712.3300000001}},{"attributes":{"ID":565676,"DIS_CODE":0,"TOWNNAME":"南區","LI":"新昌里","LIN":"9鄰","STREET":"府緯街","SECT":" ","MAREA":" ","LANE":" ","ALLEY":" ","HOUSE_NO":"７８號","E_COORD97":167687.26000000001,"N_COORD97":2542731.8500000001,"ADDRESS":"府緯街７８號","OBJECTID":565649},"geometry":{"x":167687.25999999978,"y":2542731.8499999996}},{"attributes":{"ID":565677,"DIS_CODE":0,"TOWNNAME":"南區","LI":"新昌里","LIN":"9鄰","STREET":"府緯街","SECT":" ","MAREA":" ","LANE":" ","ALLEY":" ","HOUSE_NO":"７９號","E_COORD97":167661.85000000001,"N_COORD97":2542711.3700000001,"ADDRESS":"府緯街７９號","OBJECTID":565650},"geometry":{"x":167661.85000000056,"y":2542711.3700000029}},{"attributes":{"ID":565678,"DIS_CODE":0,"TOWNNAME":"南區","LI":"新昌里","LIN":"9鄰","STREET":"府緯街","SECT":" ","MAREA":" ","LANE":" ","ALLEY":" ","HOUSE_NO":"８０號","E_COORD97":167682.42999999999,"N_COORD97":2542732.1699999999,"ADDRESS":"府緯街８０號","OBJECTID":565651},"geometry":{"x":167682.4299999997,"y":2542732.1700000018}},{"attributes":{"ID":565679,"DIS_CODE":0,"TOWNNAME":"南區","LI":"新昌里","LIN":"9鄰","STREET":"府緯街","SECT":" ","MAREA":" ","LANE":" ","ALLEY":" ","HOUSE_NO":"８１號","E_COORD97":167657.98999999999,"N_COORD97":2542711.3700000001,"ADDRESS":"府緯街８１號","OBJECTID":565652},"geometry":{"x":167657.99000000115,"y":2542711.3700000029}},{"attributes":{"ID":565680,"DIS_CODE":0,"TOWNNAME":"南區","LI":"新昌里","LIN":"9鄰","STREET":"府緯街","SECT":" ","MAREA":" ","LANE":" ","ALLEY":" ","HOUSE_NO":"９８號","E_COORD97":167649.95000000001,"N_COORD97":2542732.8100000001,"ADDRESS":"府緯街９８號","OBJECTID":565653},"geometry":{"x":167649.95000000112,"y":2542732.8100000005}},{"attributes":{"ID":565681,"DIS_CODE":0,"TOWNNAME":"南區","LI":"新昌里","LIN":"9鄰","STREET":"府緯街","SECT":" ","MAREA":" ","LANE":" ","ALLEY":" ","HOUSE_NO":"９９號","E_COORD97":167591.48000000001,"N_COORD97":2542712.8999999999,"ADDRESS":"府緯街９９號","OBJECTID":565654},"geometry":{"x":167591.48000000045,"y":2542712.9000000004}},{"attributes":{"ID":565682,"DIS_CODE":0,"TOWNNAME":"南區","LI":"新昌里","LIN":"9鄰","STREET":"府緯街","SECT":" ","MAREA":" ","LANE":" ","ALLEY":" ","HOUSE_NO":"１００號","E_COORD97":167643.82999999999,"N_COORD97":2542732.8100000001,"ADDRESS":"府緯街１００號","OBJECTID":565655},"geometry":{"x":167643.83000000101,"y":2542732.8100000005}},{"attributes":{"ID":565683,"DIS_CODE":0,"TOWNNAME":"南區","LI":"新昌里","LIN":"9鄰","STREET":"府緯街","SECT":" ","MAREA":" ","LANE":" ","ALLEY":" ","HOUSE_NO":"１０１號","E_COORD97":167581.67999999999,"N_COORD97":2542712.5099999998,"ADDRESS":"府緯街１０１號","OBJECTID":565656},"geometry":{"x":167581.68000000063,"y":2542712.5100000016}},{"attributes":{"ID":565684,"DIS_CODE":0,"TOWNNAME":"南區","LI":"新昌里","LIN":"9鄰","STREET":"府緯街","SECT":" ","MAREA":" ","LANE":" ","ALLEY":" ","HOUSE_NO":"１０２號","E_COORD97":167637.39999999999,"N_COORD97":2542732.1699999999,"ADDRESS":"府緯街１０２號","OBJECTID":565657},"geometry":{"x":167637.40000000037,"y":2542732.1700000018}},{"attributes":{"ID":565685,"DIS_CODE":0,"TOWNNAME":"南區","LI":"新昌里","LIN":"9鄰","STREET":"府緯街","SECT":" ","MAREA":" ","LANE":" ","ALLEY":" ","HOUSE_NO":"１０４號","E_COORD97":167632.25,"N_COORD97":2542732.1699999999,"ADDRESS":"府緯街１０４號","OBJECTID":565658},"geometry":{"x":167632.25000000093,"y":2542732.1700000018}},{"attributes":{"ID":565686,"DIS_CODE":0,"TOWNNAME":"南區","LI":"新昌里","LIN":"9鄰","STREET":"府緯街","SECT":" ","MAREA":" ","LANE":" ","ALLEY":" ","HOUSE_NO":"１０５號","E_COORD97":167576,"N_COORD97":2542712.6699999999,"ADDRESS":"府緯街１０５號","OBJECTID":565659},"geometry":{"x":167576.00000000186,"y":2542712.6699999999}},{"attributes":{"ID":565687,"DIS_CODE":0,"TOWNNAME":"南區","LI":"新昌里","LIN":"9鄰","STREET":"府緯街","SECT":" ","MAREA":" ","LANE":" ","ALLEY":" ","HOUSE_NO":"１０６號","E_COORD97":167621.34,"N_COORD97":2542736.8300000001,"ADDRESS":"府緯街１０６號","OBJECTID":565660},"geometry":{"x":167621.34000000078,"y":2542736.8300000001}},{"attributes":{"ID":565688,"DIS_CODE":0,"TOWNNAME":"南區","LI":"新昌里","LIN":"9鄰","STREET":"國華街","SECT":"一段","MAREA":" ","LANE":" ","ALLEY":" ","HOUSE_NO":"６７號","E_COORD97":167604.14000000001,"N_COORD97":2542731.5099999998,"ADDRESS":"國華街一段６７號","OBJECTID":565661},"geometry":{"x":167604.1400000006,"y":2542731.5099999998}},{"attributes":{"ID":565689,"DIS_CODE":0,"TOWNNAME":"南區","LI":"新昌里","LIN":"9鄰","STREET":"國華街","SECT":"一段","MAREA":" ","LANE":" ","ALLEY":" ","HOUSE_NO":"７３號","E_COORD97":167598.95000000001,"N_COORD97":2542751.9900000002,"ADDRESS":"國華街一段７３號","OBJECTID":565662},"geometry":{"x":167598.95000000112,"y":2542751.9900000002}},{"attributes":{"ID":565690,"DIS_CODE":0,"TOWNNAME":"白河區","LI":"庄內里","LIN":"9鄰","STREET":"愛國街","SECT":" ","MAREA":" ","LANE":" ","ALLEY":" ","HOUSE_NO":"１６１號","E_COORD97":190985.60000000001,"N_COORD97":2583651.1499999999,"ADDRESS":"愛國街１６１號","OBJECTID":565663},"geometry":{"x":190985.60000000056,"y":2583651.1500000022}},{"attributes":{"ID":565691,"DIS_CODE":0,"TOWNNAME":"白河區","LI":"永安里","LIN":"9鄰","STREET":"新生路","SECT":" ","MAREA":" ","LANE":" ","ALLEY":" ","HOUSE_NO":"１６號","E_COORD97":190106.64000000001,"N_COORD97":2583183.1800000002,"ADDRESS":"新生路１６號","OBJECTID":565664},"geometry":{"x":190106.63999999966,"y":2583183.1800000016}},{"attributes":{"ID":565692,"DIS_CODE":0,"TOWNNAME":"白河區","LI":"永安里","LIN":"9鄰","STREET":"新生路","SECT":" ","MAREA":" ","LANE":" ","ALLEY":" ","HOUSE_NO":"２０號","E_COORD97":190118.72,"N_COORD97":2583194.5699999998,"ADDRESS":"新生路２０號","OBJECTID":565665},"geometry":{"x":190118.72000000067,"y":2583194.5700000022}},{"attributes":{"ID":565693,"DIS_CODE":0,"TOWNNAME":"白河區","LI":"永安里","LIN":"9鄰","STREET":"新生路","SECT":" ","MAREA":" ","LANE":" ","ALLEY":" ","HOUSE_NO":"２２號","E_COORD97":190119.75,"N_COORD97":2583197.6600000001,"ADDRESS":"新生路２２號","OBJECTID":565666},"geometry":{"x":190119.75,"y":2583197.6600000001}},{"attributes":{"ID":565694,"DIS_CODE":0,"TOWNNAME":"白河區","LI":"永安里","LIN":"9鄰","STREET":"新生路","SECT":" ","MAREA":" ","LANE":" ","ALLEY":" ","HOUSE_NO":"２４號","E_COORD97":190115,"N_COORD97":2583204.1699999999,"ADDRESS":"新生路２４號","OBJECTID":565667},"geometry":{"x":190115,"y":2583204.1699999999}},{"attributes":{"ID":565695,"DIS_CODE":0,"TOWNNAME":"白河區","LI":"永安里","LIN":"9鄰","STREET":"新生路","SECT":" ","MAREA":" ","LANE":" ","ALLEY":" ","HOUSE_NO":"２８號","E_COORD97":190117.57999999999,"N_COORD97":2583211.2599999998,"ADDRESS":"新生路２８號","OBJECTID":565668},"geometry":{"x":190117.58000000007,"y":2583211.2599999998}},{"attributes":{"ID":565696,"DIS_CODE":0,"TOWNNAME":"白河區","LI":"永安里","LIN":"9鄰","STREET":"新生路","SECT":" ","MAREA":" ","LANE":" ","ALLEY":" ","HOUSE_NO":"３０號","E_COORD97":190119.26000000001,"N_COORD97":2583215.6400000001,"ADDRESS":"新生路３０號","OBJECTID":565669},"geometry":{"x":190119.25999999978,"y":2583215.6400000006}},{"attributes":{"ID":565697,"DIS_CODE":0,"TOWNNAME":"白河區","LI":"白河里","LIN":"9鄰","STREET":"新起街","SECT":" ","MAREA":" ","LANE":" ","ALLEY":" ","HOUSE_NO":"１１號","E_COORD97":190300.22,"N_COORD97":2582951.0800000001,"ADDRESS":"新起街１１號","OBJECTID":565670},"geometry":{"x":190300.22000000067,"y":2582951.0800000001}},{"attributes":{"ID":565698,"DIS_CODE":0,"TOWNNAME":"白河區","LI":"白河里","LIN":"9鄰","STREET":"新起街","SECT":" ","MAREA":" ","LANE":" ","ALLEY":" ","HOUSE_NO":"１３之１號","E_COORD97":190304.04999999999,"N_COORD97":2582964.4399999999,"ADDRESS":"新起街１３之１號","OBJECTID":565671},"geometry":{"x":190304.04999999981,"y":2582964.4399999995}},{"attributes":{"ID":565699,"DIS_CODE":0,"TOWNNAME":"白河區","LI":"白河里","LIN":"9鄰","STREET":"新起街","SECT":" ","MAREA":" ","LANE":" ","ALLEY":" ","HOUSE_NO":"１３號","E_COORD97":190301.67999999999,"N_COORD97":2582958.25,"ADDRESS":"新起街１３號","OBJECTID":565672},"geometry":{"x":190301.67999999877,"y":2582958.2500000019}},{"attributes":{"ID":565700,"DIS_CODE":0,"TOWNNAME":"白河區","LI":"白河里","LIN":"9鄰","STREET":"新起街","SECT":" ","MAREA":" ","LANE":" ","ALLEY":" ","HOUSE_NO":"１５號","E_COORD97":190304.73000000001,"N_COORD97":2582967.6899999999,"ADDRESS":"新起街１５號","OBJECTID":565673},"geometry":{"x":190304.73000000138,"y":2582967.6900000032}},{"attributes":{"ID":565701,"DIS_CODE":0,"TOWNNAME":"白河區","LI":"白河里","LIN":"9鄰","STREET":"新起街","SECT":" ","MAREA":" ","LANE":" ","ALLEY":" ","HOUSE_NO":"１７號","E_COORD97":190305.88,"N_COORD97":2582972.4300000002,"ADDRESS":"新起街１７號","OBJECTID":565674},"geometry":{"x":190305.88000000082,"y":2582972.4299999997}},{"attributes":{"ID":565702,"DIS_CODE":0,"TOWNNAME":"白河區","LI":"白河里","LIN":"9鄰","STREET":"新起街","SECT":" ","MAREA":" ","LANE":" ","ALLEY":" ","HOUSE_NO":"１９號","E_COORD97":190307,"N_COORD97":2582976.8700000001,"ADDRESS":"新起街１９號","OBJECTID":565675},"geometry":{"x":190307.00000000093,"y":2582976.870000001}},{"attributes":{"ID":565703,"DIS_CODE":0,"TOWNNAME":"白河區","LI":"白河里","LIN":"9鄰","STREET":"新起街","SECT":" ","MAREA":" ","LANE":" ","ALLEY":" ","HOUSE_NO":"２１號","E_COORD97":190305.32999999999,"N_COORD97":2582982.1000000001,"ADDRESS":"新起街２１號","OBJECTID":565676},"geometry":{"x":190305.33000000101,"y":2582982.1000000034}},{"attributes":{"ID":565704,"DIS_CODE":0,"TOWNNAME":"白河區","LI":"白河里","LIN":"9鄰","STREET":"新起街","SECT":" ","MAREA":" ","LANE":" ","ALLEY":" ","HOUSE_NO":"２３號","E_COORD97":190309.87,"N_COORD97":2582992.0499999998,"ADDRESS":"新起街２３號","OBJECTID":565677},"geometry":{"x":190309.87000000104,"y":2582992.0500000007}},{"attributes":{"ID":565705,"DIS_CODE":0,"TOWNNAME":"白河區","LI":"白河里","LIN":"9鄰","STREET":"新起街","SECT":" ","MAREA":" ","LANE":" ","ALLEY":" ","HOUSE_NO":"２５號","E_COORD97":190312.89999999999,"N_COORD97":2582996.3300000001,"ADDRESS":"新起街２５號","OBJECTID":565678},"geometry":{"x":190312.90000000224,"y":2582996.3300000001}},{"attributes":{"ID":565706,"DIS_CODE":0,"TOWNNAME":"白河區","LI":"白河里","LIN":"9鄰","STREET":"新起街","SECT":" ","MAREA":" ","LANE":" ","ALLEY":" ","HOUSE_NO":"２７之１號","E_COORD97":190313.54999999999,"N_COORD97":2583006.5699999998,"ADDRESS":"新起街２７之１號","OBJECTID":565679},"geometry":{"x":190313.55000000075,"y":2583006.570000004}},{"attributes":{"ID":565707,"DIS_CODE":0,"TOWNNAME":"白河區","LI":"白河里","LIN":"9鄰","STREET":"新起街","SECT":" ","MAREA":" ","LANE":" ","ALLEY":" ","HOUSE_NO":"２７號","E_COORD97":190313.75,"N_COORD97":2583000.52,"ADDRESS":"新起街２７號","OBJECTID":565680},"geometry":{"x":190313.75000000093,"y":2583000.5200000014}},{"attributes":{"ID":565708,"DIS_CODE":0,"TOWNNAME":"白河區","LI":"白河里","LIN":"9鄰","STREET":"新起街","SECT":" ","MAREA":" ","LANE":" ","ALLEY":" ","HOUSE_NO":"３１之１號","E_COORD97":190298.09,"N_COORD97":2583023.7799999998,"ADDRESS":"新起街３１之１號","OBJECTID":565681},"geometry":{"x":190298.09000000078,"y":2583023.7799999993}},{"attributes":{"ID":565709,"DIS_CODE":0,"TOWNNAME":"白河區","LI":"白河里","LIN":"9鄰","STREET":"新起街","SECT":" ","MAREA":" ","LANE":" ","ALLEY":" ","HOUSE_NO":"３１之２號","E_COORD97":190298.07999999999,"N_COORD97":2583020.98,"ADDRESS":"新起街３１之２號","OBJECTID":565682},"geometry":{"x":190298.08000000101,"y":2583020.9800000042}},{"attributes":{"ID":565710,"DIS_CODE":0,"TOWNNAME":"白河區","LI":"白河里","LIN":"9鄰","STREET":"新起街","SECT":" ","MAREA":" ","LANE":" ","ALLEY":" ","HOUSE_NO":"３１之６號","E_COORD97":190320.44,"N_COORD97":2583024.9100000001,"ADDRESS":"新起街３１之６號","OBJECTID":565683},"geometry":{"x":190320.44000000041,"y":2583024.910000002}},{"attributes":{"ID":565711,"DIS_CODE":0,"TOWNNAME":"白河區","LI":"白河里","LIN":"9鄰","STREET":"新起街","SECT":" ","MAREA":" ","LANE":" ","ALLEY":" ","HOUSE_NO":"３１之７號","E_COORD97":190321.48000000001,"N_COORD97":2583028.79,"ADDRESS":"新起街３１之７號","OBJECTID":565684},"geometry":{"x":190321.48000000138,"y":2583028.790000001}},{"attributes":{"ID":565712,"DIS_CODE":0,"TOWNNAME":"白河區","LI":"白河里","LIN":"9鄰","STREET":"新起街","SECT":" ","MAREA":" ","LANE":" ","ALLEY":" ","HOUSE_NO":"３１之８號","E_COORD97":190322.5,"N_COORD97":2583033.04,"ADDRESS":"新起街３１之８號","OBJECTID":565685},"geometry":{"x":190322.50000000093,"y":2583033.040000001}},{"attributes":{"ID":565713,"DIS_CODE":0,"TOWNNAME":"白河區","LI":"白河里","LIN":"9鄰","STREET":"新起街","SECT":" ","MAREA":" ","LANE":" ","ALLEY":" ","HOUSE_NO":"３３號","E_COORD97":190315.23000000001,"N_COORD97":2583041.8700000001,"ADDRESS":"新起街３３號","OBJECTID":565686},"geometry":{"x":190315.23000000045,"y":2583041.870000001}},{"attributes":{"ID":565714,"DIS_CODE":0,"TOWNNAME":"白河區","LI":"白河里","LIN":"9鄰","STREET":"新起街","SECT":" ","MAREA":" ","LANE":" ","ALLEY":" ","HOUSE_NO":"３５號","E_COORD97":190329.69,"N_COORD97":2583056.8700000001,"ADDRESS":"新起街３５號","OBJECTID":565687},"geometry":{"x":190329.69000000227,"y":2583056.8700000029}},{"attributes":{"ID":565715,"DIS_CODE":0,"TOWNNAME":"白河區","LI":"白河里","LIN":"9鄰","STREET":"新起街","SECT":" ","MAREA":" ","LANE":" ","ALLEY":" ","HOUSE_NO":"７之２號","E_COORD97":190297.54000000001,"N_COORD97":2582942.9199999999,"ADDRESS":"新起街７之２號","OBJECTID":565688},"geometry":{"x":190297.54000000004,"y":2582942.9200000037}},{"attributes":{"ID":565716,"DIS_CODE":0,"TOWNNAME":"白河區","LI":"白河里","LIN":"9鄰","STREET":"新起街","SECT":" ","MAREA":" ","LANE":" ","ALLEY":" ","HOUSE_NO":"９號","E_COORD97":190299.26999999999,"N_COORD97":2582948.0899999999,"ADDRESS":"新起街９號","OBJECTID":565689},"geometry":{"x":190299.27000000142,"y":2582948.0899999999}},{"attributes":{"ID":565717,"DIS_CODE":0,"TOWNNAME":"白河區","LI":"外角里","LIN":"9鄰","STREET":"新興路","SECT":" ","MAREA":" ","LANE":" ","ALLEY":" ","HOUSE_NO":"２１５號","E_COORD97":191172.03,"N_COORD97":2583351.8799999999,"ADDRESS":"新興路２１５號","OBJECTID":565690},"geometry":{"x":191172.03000000119,"y":2583351.879999999}},{"attributes":{"ID":565718,"DIS_CODE":0,"TOWNNAME":"白河區","LI":"外角里","LIN":"9鄰","STREET":"新興路","SECT":" ","MAREA":" ","LANE":" ","ALLEY":" ","HOUSE_NO":"２１７號","E_COORD97":191166.01999999999,"N_COORD97":2583352.0800000001,"ADDRESS":"新興路２１７號","OBJECTID":565691},"geometry":{"x":191166.02000000048,"y":2583352.0800000038}},{"attributes":{"ID":565719,"DIS_CODE":0,"TOWNNAME":"白河區","LI":"外角里","LIN":"9鄰","STREET":"新興路","SECT":" ","MAREA":" ","LANE":" ","ALLEY":" ","HOUSE_NO":"２３７號","E_COORD97":191115.66,"N_COORD97":2583362.9900000002,"ADDRESS":"新興路２３７號","OBJECTID":565692},"geometry":{"x":191115.66000000015,"y":2583362.9900000039}},{"attributes":{"ID":565720,"DIS_CODE":0,"TOWNNAME":"白河區","LI":"外角里","LIN":"9鄰","STREET":"新興路","SECT":" ","MAREA":" ","LANE":" ","ALLEY":" ","HOUSE_NO":"２６９號","E_COORD97":191052.69,"N_COORD97":2583365.6000000001,"ADDRESS":"新興路２６９號","OBJECTID":565693},"geometry":{"x":191052.69000000041,"y":2583365.6000000015}},{"attributes":{"ID":565721,"DIS_CODE":0,"TOWNNAME":"白河區","LI":"外角里","LIN":"9鄰","STREET":"新興路","SECT":" ","MAREA":" ","LANE":" ","ALLEY":" ","HOUSE_NO":"２７１號","E_COORD97":191046.45000000001,"N_COORD97":2583365.8799999999,"ADDRESS":"新興路２７１號","OBJECTID":565694},"geometry":{"x":191046.45000000205,"y":2583365.8800000027}},{"attributes":{"ID":565722,"DIS_CODE":0,"TOWNNAME":"白河區","LI":"外角里","LIN":"9鄰","STREET":"新興路","SECT":" ","MAREA":" ","LANE":" ","ALLEY":" ","HOUSE_NO":"２７９號","E_COORD97":191021.54000000001,"N_COORD97":2583363.04,"ADDRESS":"新興路２７９號","OBJECTID":565695},"geometry":{"x":191021.54000000004,"y":2583363.040000001}},{"attributes":{"ID":565723,"DIS_CODE":0,"TOWNNAME":"白河區","LI":"外角里","LIN":"9鄰","STREET":"新興路","SECT":" ","MAREA":" ","LANE":" ","ALLEY":" ","HOUSE_NO":"２９３號","E_COORD97":190986.39999999999,"N_COORD97":2583364.0099999998,"ADDRESS":"新興路２９３號","OBJECTID":565696},"geometry":{"x":190986.4000000013,"y":2583364.0100000016}},{"attributes":{"ID":565724,"DIS_CODE":0,"TOWNNAME":"白河區","LI":"外角里","LIN":"9鄰","STREET":"新興路","SECT":" ","MAREA":" ","LANE":" ","ALLEY":" ","HOUSE_NO":"２９５號","E_COORD97":190982.57999999999,"N_COORD97":2583364.4900000002,"ADDRESS":"新興路２９５號","OBJECTID":565697},"geometry":{"x":190982.58000000194,"y":2583364.4900000021}},{"attributes":{"ID":565725,"DIS_CODE":0,"TOWNNAME":"白河區","LI":"外角里","LIN":"9鄰","STREET":"新興路","SECT":" ","MAREA":" ","LANE":" ","ALLEY":" ","HOUSE_NO":"２９７號","E_COORD97":190978.42000000001,"N_COORD97":2583364.5800000001,"ADDRESS":"新興路２９７號","OBJECTID":565698},"geometry":{"x":190978.42000000179,"y":2583364.5800000001}},{"attributes":{"ID":565726,"DIS_CODE":0,"TOWNNAME":"白河區","LI":"外角里","LIN":"9鄰","STREET":"新興路","SECT":" ","MAREA":" ","LANE":" ","ALLEY":" ","HOUSE_NO":"２９９號","E_COORD97":190974.66,"N_COORD97":2583364.71,"ADDRESS":"新興路２９９號","OBJECTID":565699},"geometry":{"x":190974.66000000015,"y":2583364.7100000009}},{"attributes":{"ID":565727,"DIS_CODE":0,"TOWNNAME":"白河區","LI":"外角里","LIN":"9鄰","STREET":"新興路","SECT":" ","MAREA":" ","LANE":" ","ALLEY":" ","HOUSE_NO":"３０１號","E_COORD97":190970.01999999999,"N_COORD97":2583364.52,"ADDRESS":"新興路３０１號","OBJECTID":565700},"geometry":{"x":190970.01999999955,"y":2583364.5199999996}},{"attributes":{"ID":565728,"DIS_CODE":0,"TOWNNAME":"白河區","LI":"外角里","LIN":"9鄰","STREET":"新興路","SECT":" ","MAREA":" ","LANE":" ","ALLEY":" ","HOUSE_NO":"３０３號","E_COORD97":190966.69,"N_COORD97":2583365.2000000002,"ADDRESS":"新興路３０３號","OBJECTID":565701},"geometry":{"x":190966.69000000041,"y":2583365.2000000011}},{"attributes":{"ID":565729,"DIS_CODE":0,"TOWNNAME":"白河區","LI":"外角里","LIN":"9鄰","STREET":"新興路","SECT":" ","MAREA":" ","LANE":" ","ALLEY":" ","HOUSE_NO":"３２１號","E_COORD97":190879.14000000001,"N_COORD97":2583385.5299999998,"ADDRESS":"新興路３２１號","OBJECTID":565702},"geometry":{"x":190879.1400000006,"y":2583385.5300000031}},{"attributes":{"ID":565730,"DIS_CODE":0,"TOWNNAME":"白河區","LI":"外角里","LIN":"9鄰","STREET":"新興路","SECT":" ","MAREA":" ","LANE":" ","ALLEY":" ","HOUSE_NO":"３２３號","E_COORD97":190873.94,"N_COORD97":2583386.71,"ADDRESS":"新興路３２３號","OBJECTID":565703},"geometry":{"x":190873.94000000134,"y":2583386.7100000028}},{"attributes":{"ID":565731,"DIS_CODE":0,"TOWNNAME":"白河區","LI":"庄內里","LIN":"9鄰","STREET":"裕農路","SECT":" ","MAREA":" ","LANE":" ","ALLEY":" ","HOUSE_NO":"１０５號","E_COORD97":190898.29999999999,"N_COORD97":2583675.7200000002,"ADDRESS":"裕農路１０５號","OBJECTID":565704},"geometry":{"x":190898.30000000075,"y":2583675.7200000007}},{"attributes":{"ID":565732,"DIS_CODE":0,"TOWNNAME":"白河區","LI":"庄內里","LIN":"9鄰","STREET":"裕農路","SECT":" ","MAREA":" ","LANE":" ","ALLEY":" ","HOUSE_NO":"７５號","E_COORD97":190977.62,"N_COORD97":2583659.5499999998,"ADDRESS":"裕農路７５號","OBJECTID":565705},"geometry":{"x":190977.62000000104,"y":2583659.5500000026}},{"attributes":{"ID":565733,"DIS_CODE":0,"TOWNNAME":"白河區","LI":"庄內里","LIN":"9鄰","STREET":"裕農路","SECT":" ","MAREA":" ","LANE":" ","ALLEY":" ","HOUSE_NO":"７７號","E_COORD97":190984.62,"N_COORD97":2583658.6499999999,"ADDRESS":"裕農路７７號","OBJECTID":565706},"geometry":{"x":190984.62000000104,"y":2583658.6500000022}},{"attributes":{"ID":565734,"DIS_CODE":0,"TOWNNAME":"西港區","LI":"慶安里","LIN":"9鄰","STREET":"新興街","SECT":" ","MAREA":" ","LANE":" ","ALLEY":" ","HOUSE_NO":"１０８號之２０","E_COORD97":168296.5,"N_COORD97":2558277.3599999999,"ADDRESS":"新興街１０８號之２０","OBJECTID":565707},"geometry":{"x":168296.50000000186,"y":2558277.3599999994}},{"attributes":{"ID":565735,"DIS_CODE":0,"TOWNNAME":"西港區","LI":"慶安里","LIN":"9鄰","STREET":"新興街","SECT":" ","MAREA":" ","LANE":" ","ALLEY":" ","HOUSE_NO":"１０８號之２","E_COORD97":168217.23000000001,"N_COORD97":2558256.9100000001,"ADDRESS":"新興街１０８號之２","OBJECTID":565708},"geometry":{"x":168217.22999999952,"y":2558256.9100000001}},{"attributes":{"ID":565736,"DIS_CODE":0,"TOWNNAME":"西港區","LI":"慶安里","LIN":"9鄰","STREET":"新興街","SECT":" ","MAREA":" ","LANE":" ","ALLEY":" ","HOUSE_NO":"１０８號之３","E_COORD97":168217.87,"N_COORD97":2558260.9399999999,"ADDRESS":"新興街１０８號之３","OBJECTID":565709},"geometry":{"x":168217.87000000104,"y":2558260.9400000013}},{"attributes":{"ID":565737,"DIS_CODE":0,"TOWNNAME":"西港區","LI":"慶安里","LIN":"9鄰","STREET":"新興街","SECT":" ","MAREA":" ","LANE":" ","ALLEY":" ","HOUSE_NO":"１０８號之４","E_COORD97":168218.45000000001,"N_COORD97":2558264.9199999999,"ADDRESS":"新興街１０８號之４","OBJECTID":565710},"geometry":{"x":168218.45000000019,"y":2558264.9200000018}},{"attributes":{"ID":565738,"DIS_CODE":0,"TOWNNAME":"西港區","LI":"慶安里","LIN":"9鄰","STREET":"新興街","SECT":" ","MAREA":" ","LANE":" ","ALLEY":" ","HOUSE_NO":"１０８號之５","E_COORD97":168219.44,"N_COORD97":2558269.1000000001,"ADDRESS":"新興街１０８號之５","OBJECTID":565711},"geometry":{"x":168219.44000000134,"y":2558269.0999999996}},{"attributes":{"ID":565739,"DIS_CODE":0,"TOWNNAME":"西港區","LI":"慶安里","LIN":"9鄰","STREET":"新興街","SECT":" ","MAREA":" ","LANE":" ","ALLEY":" ","HOUSE_NO":"１０８號之７","E_COORD97":168220.51999999999,"N_COORD97":2558277.1200000001,"ADDRESS":"新興街１０８號之７","OBJECTID":565712},"geometry":{"x":168220.51999999955,"y":2558277.120000001}},{"attributes":{"ID":565740,"DIS_CODE":0,"TOWNNAME":"西港區","LI":"慶安里","LIN":"9鄰","STREET":"新興街","SECT":" ","MAREA":" ","LANE":" ","ALLEY":" ","HOUSE_NO":"１０８號之８","E_COORD97":168220.67000000001,"N_COORD97":2558281.3799999999,"ADDRESS":"新興街１０８號之８","OBJECTID":565713},"geometry":{"x":168220.67000000179,"y":2558281.3800000008}},{"attributes":{"ID":565741,"DIS_CODE":0,"TOWNNAME":"西港區","LI":"慶安里","LIN":"9鄰","STREET":"新興街","SECT":" ","MAREA":" ","LANE":" ","ALLEY":" ","HOUSE_NO":"１０８號之９","E_COORD97":168243.89000000001,"N_COORD97":2558273.1499999999,"ADDRESS":"新興街１０８號之９","OBJECTID":565714},"geometry":{"x":168243.88999999966,"y":2558273.1499999985}},{"attributes":{"ID":565742,"DIS_CODE":0,"TOWNNAME":"西港區","LI":"慶安里","LIN":"9鄰","STREET":"新興街","SECT":" ","MAREA":" ","LANE":" ","ALLEY":" ","HOUSE_NO":"１０８號","E_COORD97":168216.01999999999,"N_COORD97":2558248.8300000001,"ADDRESS":"新興街１０８號","OBJECTID":565715},"geometry":{"x":168216.02000000142,"y":2558248.8300000019}},{"attributes":{"ID":565743,"DIS_CODE":0,"TOWNNAME":"西港區","LI":"慶安里","LIN":"9鄰","STREET":"新興街","SECT":" ","MAREA":" ","LANE":" ","ALLEY":" ","HOUSE_NO":"１００號","E_COORD97":168210.60999999999,"N_COORD97":2558206.8300000001,"ADDRESS":"新興街１００號","OBJECTID":565716},"geometry":{"x":168210.61000000034,"y":2558206.8300000001}},{"attributes":{"ID":565744,"DIS_CODE":0,"TOWNNAME":"西港區","LI":"慶安里","LIN":"9鄰","STREET":"新興街","SECT":" ","MAREA":" ","LANE":" ","ALLEY":" ","HOUSE_NO":"１０２號之１","E_COORD97":168215.79999999999,"N_COORD97":2558216.9500000002,"ADDRESS":"新興街１０２號之１","OBJECTID":565717},"geometry":{"x":168215.79999999981,"y":2558216.9500000011}},{"attributes":{"ID":565745,"DIS_CODE":0,"TOWNNAME":"西港區","LI":"慶安里","LIN":"9鄰","STREET":"新興街","SECT":" ","MAREA":" ","LANE":" ","ALLEY":" ","HOUSE_NO":"１０４號之２","E_COORD97":168213.63,"N_COORD97":2558231.1400000001,"ADDRESS":"新興街１０４號之２","OBJECTID":565718},"geometry":{"x":168213.62999999989,"y":2558231.1400000025}},{"attributes":{"ID":565746,"DIS_CODE":0,"TOWNNAME":"西港區","LI":"慶安里","LIN":"9鄰","STREET":"新興街","SECT":" ","MAREA":" ","LANE":" ","ALLEY":" ","HOUSE_NO":"１０４之５號","E_COORD97":168214.82000000001,"N_COORD97":2558238.8599999999,"ADDRESS":"新興街１０４之５號","OBJECTID":565719},"geometry":{"x":168214.82000000216,"y":2558238.8599999994}},{"attributes":{"ID":565747,"DIS_CODE":0,"TOWNNAME":"西港區","LI":"慶安里","LIN":"9鄰","STREET":"新興街","SECT":" ","MAREA":" ","LANE":" ","ALLEY":" ","HOUSE_NO":"１０４號","E_COORD97":168212.44,"N_COORD97":2558223.2200000002,"ADDRESS":"新興街１０４號","OBJECTID":565720},"geometry":{"x":168212.44000000227,"y":2558223.2200000025}},{"attributes":{"ID":565748,"DIS_CODE":0,"TOWNNAME":"西港區","LI":"慶安里","LIN":"9鄰","STREET":"新興街","SECT":" ","MAREA":" ","LANE":" ","ALLEY":" ","HOUSE_NO":"９６號之１","E_COORD97":168209.23999999999,"N_COORD97":2558195.5299999998,"ADDRESS":"新興街９６號之１","OBJECTID":565721},"geometry":{"x":168209.24000000115,"y":2558195.5300000012}},{"attributes":{"ID":565749,"DIS_CODE":0,"TOWNNAME":"西港區","LI":"慶安里","LIN":"9鄰","STREET":"新興街","SECT":" ","MAREA":" ","LANE":" ","ALLEY":" ","HOUSE_NO":"９６號","E_COORD97":168210.32000000001,"N_COORD97":2558199.3999999999,"ADDRESS":"新興街９６號","OBJECTID":565722},"geometry":{"x":168210.32000000123,"y":2558199.4000000004}},{"attributes":{"ID":565750,"DIS_CODE":0,"TOWNNAME":"西港區","LI":"慶安里","LIN":"9鄰","STREET":"新興街","SECT":" ","MAREA":" ","LANE":" ","ALLEY":" ","HOUSE_NO":"９８號","E_COORD97":168239.26000000001,"N_COORD97":2558192.6000000001,"ADDRESS":"新興街９８號","OBJECTID":565723},"geometry":{"x":168239.26000000071,"y":2558192.6000000015}},{"attributes":{"ID":565751,"DIS_CODE":0,"TOWNNAME":"東區","LI":"文聖里","LIN":"9鄰","STREET":"裕農三街","SECT":" ","MAREA":" ","LANE":" ","ALLEY":" ","HOUSE_NO":"９７號","E_COORD97":172077.98999999999,"N_COORD97":2542784.5099999998,"ADDRESS":"裕農三街９７號","OBJECTID":565724},"geometry":{"x":172077.99000000022,"y":2542784.5100000016}},{"attributes":{"ID":565752,"DIS_CODE":0,"TOWNNAME":"永康區","LI":"南灣里","LIN":"9鄰","STREET":"大灣路","SECT":" ","MAREA":" ","LANE":" ","ALLEY":" ","HOUSE_NO":"５９７號","E_COORD97":174270.82000000001,"N_COORD97":2544528.1699999999,"ADDRESS":"大灣路５９７號","OBJECTID":565725},"geometry":{"x":174270.82000000123,"y":2544528.1700000037}},{"attributes":{"ID":565753,"DIS_CODE":0,"TOWNNAME":"永康區","LI":"埔園里","LIN":"9鄰","STREET":"自強路","SECT":" ","MAREA":" ","LANE":" ","ALLEY":" ","HOUSE_NO":"４２８號","E_COORD97":173674.07000000001,"N_COORD97":2547884.7200000002,"ADDRESS":"自強路４２８號","OBJECTID":565726},"geometry":{"x":173674.07000000123,"y":2547884.7200000007}},{"attributes":{"ID":565754,"DIS_CODE":0,"TOWNNAME":"永康區","LI":"西勢里","LIN":"9鄰","STREET":"富強路","SECT":"一段","MAREA":" ","LANE":" ","ALLEY":" ","HOUSE_NO":"３３４號","E_COORD97":175729.29999999999,"N_COORD97":2546721.7799999998,"ADDRESS":"富強路一段３３４號","OBJECTID":565727},"geometry":{"x":175729.30000000168,"y":2546721.7800000012}},{"attributes":{"ID":565755,"DIS_CODE":0,"TOWNNAME":"永康區","LI":"尚頂里","LIN":"9鄰","STREET":"正南一街","SECT":" ","MAREA":" ","LANE":" ","ALLEY":" ","HOUSE_NO":"１４１號","E_COORD97":170795.23999999999,"N_COORD97":2547260.0499999998,"ADDRESS":"正南一街１４１號","OBJECTID":565728},"geometry":{"x":170795.24000000022,"y":2547260.0500000026}},{"attributes":{"ID":565756,"DIS_CODE":0,"TOWNNAME":"東區","LI":"文聖里","LIN":"9鄰","STREET":"裕農三街","SECT":" ","MAREA":" ","LANE":" ","ALLEY":" ","HOUSE_NO":"１０１號","E_COORD97":172087.98999999999,"N_COORD97":2542784.5099999998,"ADDRESS":"裕農三街１０１號","OBJECTID":565729},"geometry":{"x":172087.99000000022,"y":2542784.5100000016}},{"attributes":{"ID":565757,"DIS_CODE":0,"TOWNNAME":"東區","LI":"文聖里","LIN":"9鄰","STREET":"裕農三街","SECT":" ","MAREA":" ","LANE":" ","ALLEY":" ","HOUSE_NO":"１０３號","E_COORD97":172088.57000000001,"N_COORD97":2542773.0699999998,"ADDRESS":"裕農三街１０３號","OBJECTID":565730},"geometry":{"x":172088.57000000123,"y":2542773.070000004}},{"attributes":{"ID":565758,"DIS_CODE":0,"TOWNNAME":"東區","LI":"文聖里","LIN":"9鄰","STREET":"裕農三街","SECT":" ","MAREA":" ","LANE":" ","ALLEY":" ","HOUSE_NO":"１０５號","E_COORD97":172084.07000000001,"N_COORD97":2542772.7799999998,"ADDRESS":"裕農三街１０５號","OBJECTID":565731},"geometry":{"x":172084.07000000123,"y":2542772.7799999993}},{"attributes":{"ID":565759,"DIS_CODE":0,"TOWNNAME":"東區","LI":"文聖里","LIN":"9鄰","STREET":"裕農三街","SECT":" ","MAREA":" ","LANE":" ","ALLEY":" ","HOUSE_NO":"１０９號","E_COORD97":172074.37,"N_COORD97":2542772.6299999999,"ADDRESS":"裕農三街１０９號","OBJECTID":565732},"geometry":{"x":172074.37000000197,"y":2542772.6300000008}},{"attributes":{"ID":565760,"DIS_CODE":0,"TOWNNAME":"東區","LI":"文聖里","LIN":"9鄰","STREET":"裕農三街","SECT":" ","MAREA":" ","LANE":" ","ALLEY":" ","HOUSE_NO":"１１１號","E_COORD97":172069.29999999999,"N_COORD97":2542772.7799999998,"ADDRESS":"裕農三街１１１號","OBJECTID":565733},"geometry":{"x":172069.30000000168,"y":2542772.7799999993}},{"attributes":{"ID":565761,"DIS_CODE":0,"TOWNNAME":"東區","LI":"文聖里","LIN":"9鄰","STREET":"裕農三街","SECT":" ","MAREA":" ","LANE":" ","ALLEY":" ","HOUSE_NO":"１１３號","E_COORD97":172064.37,"N_COORD97":2542773.0699999998,"ADDRESS":"裕農三街１１３號","OBJECTID":565734},"geometry":{"x":172064.37000000104,"y":2542773.070000004}},{"attributes":{"ID":565762,"DIS_CODE":0,"TOWNNAME":"東區","LI":"文聖里","LIN":"9鄰","STREET":"裕農三街","SECT":" ","MAREA":" ","LANE":" ","ALLEY":" ","HOUSE_NO":"１１５號","E_COORD97":172058.87,"N_COORD97":2542773.0699999998,"ADDRESS":"裕農三街１１５號","OBJECTID":565735},"geometry":{"x":172058.86999999918,"y":2542773.070000004}},{"attributes":{"ID":565763,"DIS_CODE":0,"TOWNNAME":"東區","LI":"文聖里","LIN":"9鄰","STREET":"裕農三街","SECT":" ","MAREA":" ","LANE":" ","ALLEY":" ","HOUSE_NO":"１１７號","E_COORD97":172052.5,"N_COORD97":2542773.6499999999,"ADDRESS":"裕農三街１１７號","OBJECTID":565736},"geometry":{"x":172052.5,"y":2542773.6500000022}},{"attributes":{"ID":565764,"DIS_CODE":0,"TOWNNAME":"東區","LI":"文聖里","LIN":"9鄰","STREET":"裕農三街","SECT":" ","MAREA":" ","LANE":" ","ALLEY":" ","HOUSE_NO":"１１９號","E_COORD97":172051.63,"N_COORD97":2542751.6299999999,"ADDRESS":"裕農三街１１９號","OBJECTID":565737},"geometry":{"x":172051.62999999989,"y":2542751.6300000008}},{"attributes":{"ID":565765,"DIS_CODE":0,"TOWNNAME":"東區","LI":"文聖里","LIN":"9鄰","STREET":"裕農三街","SECT":" ","MAREA":" ","LANE":" ","ALLEY":" ","HOUSE_NO":"１２１號","E_COORD97":172051.19,"N_COORD97":2542745.8300000001,"ADDRESS":"裕農三街１２１號","OBJECTID":565738},"geometry":{"x":172051.19000000134,"y":2542745.8300000001}},{"attributes":{"ID":565766,"DIS_CODE":0,"TOWNNAME":"東區","LI":"文聖里","LIN":"9鄰","STREET":"裕農三街","SECT":" ","MAREA":" ","LANE":" ","ALLEY":" ","HOUSE_NO":"１２３號","E_COORD97":172057.57000000001,"N_COORD97":2542747.7200000002,"ADDRESS":"裕農三街１２３號","OBJECTID":565739},"geometry":{"x":172057.5700000003,"y":2542747.7200000007}},{"attributes":{"ID":565767,"DIS_CODE":0,"TOWNNAME":"東區","LI":"文聖里","LIN":"9鄰","STREET":"裕農三街","SECT":" ","MAREA":" ","LANE":" ","ALLEY":" ","HOUSE_NO":"１２５號","E_COORD97":172061.91,"N_COORD97":2542747.7200000002,"ADDRESS":"裕農三街１２５號","OBJECTID":565740},"geometry":{"x":172061.91000000015,"y":2542747.7200000007}},{"attributes":{"ID":565768,"DIS_CODE":0,"TOWNNAME":"東區","LI":"文聖里","LIN":"9鄰","STREET":"裕農三街","SECT":" ","MAREA":" ","LANE":" ","ALLEY":" ","HOUSE_NO":"１２７號","E_COORD97":172066.10999999999,"N_COORD97":2542747.4300000002,"ADDRESS":"裕農三街１２７號","OBJECTID":565741},"geometry":{"x":172066.1100000022,"y":2542747.4300000016}},{"attributes":{"ID":565769,"DIS_CODE":0,"TOWNNAME":"東區","LI":"文聖里","LIN":"9鄰","STREET":"裕農三街","SECT":" ","MAREA":" ","LANE":" ","ALLEY":" ","HOUSE_NO":"１２９號","E_COORD97":172070.89000000001,"N_COORD97":2542747.4300000002,"ADDRESS":"裕農三街１２９號","OBJECTID":565742},"geometry":{"x":172070.8900000006,"y":2542747.4300000016}},{"attributes":{"ID":565770,"DIS_CODE":0,"TOWNNAME":"東區","LI":"文聖里","LIN":"9鄰","STREET":"裕農三街","SECT":" ","MAREA":" ","LANE":" ","ALLEY":" ","HOUSE_NO":"１３１號","E_COORD97":172076.39999999999,"N_COORD97":2542747.1400000001,"ADDRESS":"裕農三街１３１號","OBJECTID":565743},"geometry":{"x":172076.4000000013,"y":2542747.1400000025}},{"attributes":{"ID":565771,"DIS_CODE":0,"TOWNNAME":"東區","LI":"文聖里","LIN":"9鄰","STREET":"裕農三街","SECT":" ","MAREA":" ","LANE":" ","ALLEY":" ","HOUSE_NO":"１３３號","E_COORD97":172081.03,"N_COORD97":2542747.1400000001,"ADDRESS":"裕農三街１３３號","OBJECTID":565744},"geometry":{"x":172081.03000000026,"y":2542747.1400000025}},{"attributes":{"ID":565772,"DIS_CODE":0,"TOWNNAME":"東區","LI":"文聖里","LIN":"9鄰","STREET":"裕農三街","SECT":" ","MAREA":" ","LANE":" ","ALLEY":" ","HOUSE_NO":"１３５號","E_COORD97":172086.10000000001,"N_COORD97":2542746.8500000001,"ADDRESS":"裕農三街１３５號","OBJECTID":565745},"geometry":{"x":172086.10000000056,"y":2542746.8500000034}},{"attributes":{"ID":565773,"DIS_CODE":0,"TOWNNAME":"東區","LI":"文聖里","LIN":"9鄰","STREET":"裕農三街","SECT":" ","MAREA":" ","LANE":" ","ALLEY":" ","HOUSE_NO":"１３７號","E_COORD97":172091.75,"N_COORD97":2542746.8500000001,"ADDRESS":"裕農三街１３７號","OBJECTID":565746},"geometry":{"x":172091.75,"y":2542746.8500000034}},{"attributes":{"ID":565774,"DIS_CODE":0,"TOWNNAME":"東區","LI":"文聖里","LIN":"9鄰","STREET":"裕農三街","SECT":" ","MAREA":" ","LANE":" ","ALLEY":" ","HOUSE_NO":"１４５號","E_COORD97":172115.79999999999,"N_COORD97":2542746.27,"ADDRESS":"裕農三街１４５號","OBJECTID":565747},"geometry":{"x":172115.80000000075,"y":2542746.2699999996}},{"attributes":{"ID":565775,"DIS_CODE":0,"TOWNNAME":"東區","LI":"文聖里","LIN":"9鄰","STREET":"裕農三街","SECT":" ","MAREA":" ","LANE":" ","ALLEY":" ","HOUSE_NO":"１３９號","E_COORD97":172097.39999999999,"N_COORD97":2542746.5600000001,"ADDRESS":"裕農三街１３９號","OBJECTID":565748},"geometry":{"x":172097.40000000037,"y":2542746.5600000024}},{"attributes":{"ID":565776,"DIS_CODE":0,"TOWNNAME":"東區","LI":"文聖里","LIN":"9鄰","STREET":"裕農三街","SECT":" ","MAREA":" ","LANE":" ","ALLEY":" ","HOUSE_NO":"１４１號","E_COORD97":172103.48999999999,"N_COORD97":2542746.7000000002,"ADDRESS":"裕農三街１４１號","OBJECTID":565749},"geometry":{"x":172103.49000000022,"y":2542746.6999999993}},{"attributes":{"ID":565777,"DIS_CODE":0,"TOWNNAME":"東區","LI":"文聖里","LIN":"9鄰","STREET":"裕農三街","SECT":" ","MAREA":" ","LANE":" ","ALLEY":" ","HOUSE_NO":"１４３號","E_COORD97":172109.85999999999,"N_COORD97":2542746.4100000001,"ADDRESS":"裕農三街１４３號","OBJECTID":565750},"geometry":{"x":172109.86000000034,"y":2542746.4100000001}},{"attributes":{"ID":565778,"DIS_CODE":0,"TOWNNAME":"東區","LI":"文聖里","LIN":"9鄰","STREET":"裕農三街","SECT":" ","MAREA":" ","LANE":" ","ALLEY":" ","HOUSE_NO":"１４７號","E_COORD97":172116.23000000001,"N_COORD97":2542736.5600000001,"ADDRESS":"裕農三街１４７號","OBJECTID":565751},"geometry":{"x":172116.23000000231,"y":2542736.5600000024}},{"attributes":{"ID":565779,"DIS_CODE":0,"TOWNNAME":"東區","LI":"文聖里","LIN":"9鄰","STREET":"裕農三街","SECT":" ","MAREA":" ","LANE":" ","ALLEY":" ","HOUSE_NO":"１４９號","E_COORD97":172111.60000000001,"N_COORD97":2542736.71,"ADDRESS":"裕農三街１４９號","OBJECTID":565752},"geometry":{"x":172111.60000000056,"y":2542736.7100000028}},{"attributes":{"ID":565780,"DIS_CODE":0,"TOWNNAME":"東區","LI":"文聖里","LIN":"9鄰","STREET":"裕農三街","SECT":" ","MAREA":" ","LANE":" ","ALLEY":" ","HOUSE_NO":"１５１號","E_COORD97":172106.67000000001,"N_COORD97":2542737,"ADDRESS":"裕農三街１５１號","OBJECTID":565753},"geometry":{"x":172106.67000000086,"y":2542737.0000000019}},{"attributes":{"ID":565781,"DIS_CODE":0,"TOWNNAME":"東區","LI":"文聖里","LIN":"9鄰","STREET":"裕農三街","SECT":" ","MAREA":" ","LANE":" ","ALLEY":" ","HOUSE_NO":"１５３號","E_COORD97":172100.73000000001,"N_COORD97":2542737,"ADDRESS":"裕農三街１５３號","OBJECTID":565754},"geometry":{"x":172100.73000000045,"y":2542737.0000000019}},{"attributes":{"ID":565782,"DIS_CODE":0,"TOWNNAME":"東區","LI":"文聖里","LIN":"9鄰","STREET":"裕農三街","SECT":" ","MAREA":" ","LANE":" ","ALLEY":" ","HOUSE_NO":"１５５號","E_COORD97":172094.07000000001,"N_COORD97":2542736.71,"ADDRESS":"裕農三街１５５號","OBJECTID":565755},"geometry":{"x":172094.07000000123,"y":2542736.7100000028}},{"attributes":{"ID":565783,"DIS_CODE":0,"TOWNNAME":"東區","LI":"文聖里","LIN":"9鄰","STREET":"裕農三街","SECT":" ","MAREA":" ","LANE":" ","ALLEY":" ","HOUSE_NO":"１５７號","E_COORD97":172089,"N_COORD97":2542736.71,"ADDRESS":"裕農三街１５７號","OBJECTID":565756},"geometry":{"x":172089.00000000093,"y":2542736.7100000028}},{"attributes":{"ID":565784,"DIS_CODE":0,"TOWNNAME":"東區","LI":"文聖里","LIN":"9鄰","STREET":"裕農三街","SECT":" ","MAREA":" ","LANE":" ","ALLEY":" ","HOUSE_NO":"１５９號","E_COORD97":172083.92999999999,"N_COORD97":2542737.29,"ADDRESS":"裕農三街１５９號","OBJECTID":565757},"geometry":{"x":172083.93000000063,"y":2542737.290000001}},{"attributes":{"ID":565785,"DIS_CODE":0,"TOWNNAME":"東區","LI":"文聖里","LIN":"9鄰","STREET":"裕農三街","SECT":" ","MAREA":" ","LANE":" ","ALLEY":" ","HOUSE_NO":"１６１號","E_COORD97":172079.01000000001,"N_COORD97":2542737.5800000001,"ADDRESS":"裕農三街１６１號","OBJECTID":565758},"geometry":{"x":172079.00999999978,"y":2542737.5800000001}},{"attributes":{"ID":565786,"DIS_CODE":0,"TOWNNAME":"東區","LI":"文聖里","LIN":"9鄰","STREET":"裕農三街","SECT":" ","MAREA":" ","LANE":" ","ALLEY":" ","HOUSE_NO":"１６３號","E_COORD97":172073.20999999999,"N_COORD97":2542737.29,"ADDRESS":"裕農三街１６３號","OBJECTID":565759},"geometry":{"x":172073.20999999996,"y":2542737.290000001}},{"attributes":{"ID":565787,"DIS_CODE":0,"TOWNNAME":"東區","LI":"文聖里","LIN":"9鄰","STREET":"裕農三街","SECT":" ","MAREA":" ","LANE":" ","ALLEY":" ","HOUSE_NO":"１６５號","E_COORD97":172068,"N_COORD97":2542737.29,"ADDRESS":"裕農三街１６５號","OBJECTID":565760},"geometry":{"x":172068,"y":2542737.290000001}},{"attributes":{"ID":565788,"DIS_CODE":0,"TOWNNAME":"東區","LI":"文聖里","LIN":"9鄰","STREET":"裕農三街","SECT":" ","MAREA":" ","LANE":" ","ALLEY":" ","HOUSE_NO":"１６７號","E_COORD97":172063.35999999999,"N_COORD97":2542737.29,"ADDRESS":"裕農三街１６７號","OBJECTID":565761},"geometry":{"x":172063.36000000127,"y":2542737.290000001}},{"attributes":{"ID":565789,"DIS_CODE":0,"TOWNNAME":"東區","LI":"文聖里","LIN":"9鄰","STREET":"裕農三街","SECT":" ","MAREA":" ","LANE":" ","ALLEY":" ","HOUSE_NO":"１６９號","E_COORD97":172058.73000000001,"N_COORD97":2542737.5800000001,"ADDRESS":"裕農三街１６９號","OBJECTID":565762},"geometry":{"x":172058.73000000231,"y":2542737.5800000001}},{"attributes":{"ID":565790,"DIS_CODE":0,"TOWNNAME":"東區","LI":"文聖里","LIN":"9鄰","STREET":"裕農三街","SECT":" ","MAREA":" ","LANE":" ","ALLEY":" ","HOUSE_NO":"１７１號","E_COORD97":172051.48000000001,"N_COORD97":2542737.5800000001,"ADDRESS":"裕農三街１７１號","OBJECTID":565763},"geometry":{"x":172051.48000000045,"y":2542737.5800000001}},{"attributes":{"ID":565791,"DIS_CODE":0,"TOWNNAME":"東區","LI":"文聖里","LIN":"9鄰","STREET":"裕農三街","SECT":" ","MAREA":" ","LANE":" ","ALLEY":" ","HOUSE_NO":"１７３號","E_COORD97":172051.19,"N_COORD97":2542730.1899999999,"ADDRESS":"裕農三街１７３號","OBJECTID":565764},"geometry":{"x":172051.19000000134,"y":2542730.1899999995}},{"attributes":{"ID":565792,"DIS_CODE":0,"TOWNNAME":"東區","LI":"文聖里","LIN":"9鄰","STREET":"裕農三街","SECT":" ","MAREA":" ","LANE":" ","ALLEY":" ","HOUSE_NO":"１７５號","E_COORD97":172050.89999999999,"N_COORD97":2542713.1000000001,"ADDRESS":"裕農三街１７５號","OBJECTID":565765},"geometry":{"x":172050.9000000013,"y":2542713.0999999996}},{"attributes":{"ID":565793,"DIS_CODE":0,"TOWNNAME":"東區","LI":"文聖里","LIN":"9鄰","STREET":"裕農三街","SECT":" ","MAREA":" ","LANE":" ","ALLEY":" ","HOUSE_NO":"１７５之１０號","E_COORD97":172095.23000000001,"N_COORD97":2542712.52,"ADDRESS":"裕農三街１７５之１０號","OBJECTID":565766},"geometry":{"x":172095.23000000045,"y":2542712.5200000014}},{"attributes":{"ID":565794,"DIS_CODE":0,"TOWNNAME":"東區","LI":"文聖里","LIN":"9鄰","STREET":"裕農三街","SECT":" ","MAREA":" ","LANE":" ","ALLEY":" ","HOUSE_NO":"１７５之１１號","E_COORD97":172101.31,"N_COORD97":2542712.0800000001,"ADDRESS":"裕農三街１７５之１１號","OBJECTID":565767},"geometry":{"x":172101.31000000145,"y":2542712.0800000019}},{"attributes":{"ID":565795,"DIS_CODE":0,"TOWNNAME":"東區","LI":"文聖里","LIN":"9鄰","STREET":"裕農三街","SECT":" ","MAREA":" ","LANE":" ","ALLEY":" ","HOUSE_NO":"１７５之１２號","E_COORD97":172106.67000000001,"N_COORD97":2542712.52,"ADDRESS":"裕農三街１７５之１２號","OBJECTID":565768},"geometry":{"x":172106.67000000086,"y":2542712.5200000014}},{"attributes":{"ID":565796,"DIS_CODE":0,"TOWNNAME":"東區","LI":"文聖里","LIN":"9鄰","STREET":"裕農三街","SECT":" ","MAREA":" ","LANE":" ","ALLEY":" ","HOUSE_NO":"１７５之１３號","E_COORD97":172111.73999999999,"N_COORD97":2542712.3700000001,"ADDRESS":"裕農三街１７５之１３號","OBJECTID":565769},"geometry":{"x":172111.74000000022,"y":2542712.3700000029}},{"attributes":{"ID":565797,"DIS_CODE":0,"TOWNNAME":"東區","LI":"文聖里","LIN":"9鄰","STREET":"裕農三街","SECT":" ","MAREA":" ","LANE":" ","ALLEY":" ","HOUSE_NO":"１７５之１５號","E_COORD97":172117.25,"N_COORD97":2542711.9399999999,"ADDRESS":"裕農三街１７５之１５號","OBJECTID":565770},"geometry":{"x":172117.24999999907,"y":2542711.9400000032}},{"attributes":{"ID":565798,"DIS_CODE":0,"TOWNNAME":"東區","LI":"文聖里","LIN":"9鄰","STREET":"裕農三街","SECT":" ","MAREA":" ","LANE":" ","ALLEY":" ","HOUSE_NO":"１７５之１號","E_COORD97":172054.67000000001,"N_COORD97":2542713.1000000001,"ADDRESS":"裕農三街１７５之１號","OBJECTID":565771},"geometry":{"x":172054.66999999993,"y":2542713.0999999996}},{"attributes":{"ID":565799,"DIS_CODE":0,"TOWNNAME":"東區","LI":"文聖里","LIN":"9鄰","STREET":"裕農三街","SECT":" ","MAREA":" ","LANE":" ","ALLEY":" ","HOUSE_NO":"１７５之２號","E_COORD97":172059.16,"N_COORD97":2542712.9500000002,"ADDRESS":"裕農三街１７５之２號","OBJECTID":565772},"geometry":{"x":172059.16000000108,"y":2542712.9500000011}},{"attributes":{"ID":565800,"DIS_CODE":0,"TOWNNAME":"東區","LI":"文聖里","LIN":"9鄰","STREET":"裕農三街","SECT":" ","MAREA":" ","LANE":" ","ALLEY":" ","HOUSE_NO":"１７５之３號","E_COORD97":172064.23000000001,"N_COORD97":2542712.9500000002,"ADDRESS":"裕農三街１７５之３號","OBJECTID":565773},"geometry":{"x":172064.23000000138,"y":2542712.9500000011}},{"attributes":{"ID":565801,"DIS_CODE":0,"TOWNNAME":"東區","LI":"文聖里","LIN":"9鄰","STREET":"裕農三街","SECT":" ","MAREA":" ","LANE":" ","ALLEY":" ","HOUSE_NO":"１７５之５號","E_COORD97":172069.45000000001,"N_COORD97":2542712.9500000002,"ADDRESS":"裕農三街１７５之５號","OBJECTID":565774},"geometry":{"x":172069.45000000112,"y":2542712.9500000011}},{"attributes":{"ID":565802,"DIS_CODE":0,"TOWNNAME":"東區","LI":"文聖里","LIN":"9鄰","STREET":"裕農三街","SECT":" ","MAREA":" ","LANE":" ","ALLEY":" ","HOUSE_NO":"１７５之６號","E_COORD97":172073.94,"N_COORD97":2542712.9500000002,"ADDRESS":"裕農三街１７５之６號","OBJECTID":565775},"geometry":{"x":172073.94000000041,"y":2542712.9500000011}},{"attributes":{"ID":565803,"DIS_CODE":0,"TOWNNAME":"東區","LI":"文聖里","LIN":"9鄰","STREET":"裕農三街","SECT":" ","MAREA":" ","LANE":" ","ALLEY":" ","HOUSE_NO":"１７５之７號","E_COORD97":172079.14999999999,"N_COORD97":2542712.8100000001,"ADDRESS":"裕農三街１７５之７號","OBJECTID":565776},"geometry":{"x":172079.15000000037,"y":2542712.8100000005}},{"attributes":{"ID":565804,"DIS_CODE":0,"TOWNNAME":"東區","LI":"文聖里","LIN":"9鄰","STREET":"裕農三街","SECT":" ","MAREA":" ","LANE":" ","ALLEY":" ","HOUSE_NO":"１７５之９號","E_COORD97":172089.29000000001,"N_COORD97":2542712.52,"ADDRESS":"裕農三街１７５之９號","OBJECTID":565777},"geometry":{"x":172089.29000000004,"y":2542712.5200000014}},{"attributes":{"ID":565805,"DIS_CODE":0,"TOWNNAME":"東區","LI":"文聖里","LIN":"9鄰","STREET":"裕興街","SECT":" ","MAREA":" ","LANE":" ","ALLEY":" ","HOUSE_NO":"９３號","E_COORD97":172118.60999999999,"N_COORD97":2542662.2000000002,"ADDRESS":"裕興街９３號","OBJECTID":565778},"geometry":{"x":172118.6100000022,"y":2542662.1999999993}},{"attributes":{"ID":565806,"DIS_CODE":0,"TOWNNAME":"東區","LI":"文聖里","LIN":"9鄰","STREET":"裕農三街","SECT":" ","MAREA":" ","LANE":" ","ALLEY":" ","HOUSE_NO":"８７號","E_COORD97":172052.5,"N_COORD97":2542784.3700000001,"ADDRESS":"裕農三街８７號","OBJECTID":565779},"geometry":{"x":172052.5,"y":2542784.370000001}},{"attributes":{"ID":565807,"DIS_CODE":0,"TOWNNAME":"東區","LI":"文聖里","LIN":"9鄰","STREET":"裕農三街","SECT":" ","MAREA":" ","LANE":" ","ALLEY":" ","HOUSE_NO":"８９號","E_COORD97":172056.98999999999,"N_COORD97":2542784.6499999999,"ADDRESS":"裕農三街８９號","OBJECTID":565780},"geometry":{"x":172056.99000000115,"y":2542784.6500000004}},{"attributes":{"ID":565808,"DIS_CODE":0,"TOWNNAME":"東區","LI":"文聖里","LIN":"9鄰","STREET":"裕農三街","SECT":" ","MAREA":" ","LANE":" ","ALLEY":" ","HOUSE_NO":"９１號","E_COORD97":172062.20000000001,"N_COORD97":2542784.6499999999,"ADDRESS":"裕農三街９１號","OBJECTID":565781},"geometry":{"x":172062.20000000112,"y":2542784.6500000004}},{"attributes":{"ID":565809,"DIS_CODE":0,"TOWNNAME":"東區","LI":"文聖里","LIN":"9鄰","STREET":"裕農三街","SECT":" ","MAREA":" ","LANE":" ","ALLEY":" ","HOUSE_NO":"９３號","E_COORD97":172066.84,"N_COORD97":2542784.3700000001,"ADDRESS":"裕農三街９３號","OBJECTID":565782},"geometry":{"x":172066.83999999985,"y":2542784.370000001}},{"attributes":{"ID":565810,"DIS_CODE":0,"TOWNNAME":"東區","LI":"文聖里","LIN":"9鄰","STREET":"裕農三街","SECT":" ","MAREA":" ","LANE":" ","ALLEY":" ","HOUSE_NO":"９５號","E_COORD97":172072.34,"N_COORD97":2542784.6499999999,"ADDRESS":"裕農三街９５號","OBJECTID":565783},"geometry":{"x":172072.33999999985,"y":2542784.6500000004}},{"attributes":{"ID":565811,"DIS_CODE":0,"TOWNNAME":"東區","LI":"文聖里","LIN":"9鄰","STREET":"裕農三街","SECT":" ","MAREA":" ","LANE":" ","ALLEY":" ","HOUSE_NO":"９９號","E_COORD97":172082.76999999999,"N_COORD97":2542784.3700000001,"ADDRESS":"裕農三街９９號","OBJECTID":565784},"geometry":{"x":172082.77000000142,"y":2542784.370000001}},{"attributes":{"ID":565812,"DIS_CODE":0,"TOWNNAME":"東區","LI":"文聖里","LIN":"9鄰","STREET":"裕興街","SECT":" ","MAREA":" ","LANE":" ","ALLEY":" ","HOUSE_NO":"９５號","E_COORD97":172118.25,"N_COORD97":2542666.48,"ADDRESS":"裕興街９５號","OBJECTID":565785},"geometry":{"x":172118.25,"y":2542666.4800000023}},{"attributes":{"ID":565813,"DIS_CODE":0,"TOWNNAME":"東區","LI":"文聖里","LIN":"9鄰","STREET":"裕興街","SECT":" ","MAREA":" ","LANE":" ","ALLEY":" ","HOUSE_NO":"１０１號","E_COORD97":172117.89999999999,"N_COORD97":2542684.2999999998,"ADDRESS":"裕興街１０１號","OBJECTID":565786},"geometry":{"x":172117.90000000037,"y":2542684.3000000026}},{"attributes":{"ID":565814,"DIS_CODE":0,"TOWNNAME":"東區","LI":"文聖里","LIN":"9鄰","STREET":"裕興街","SECT":" ","MAREA":" ","LANE":" ","ALLEY":" ","HOUSE_NO":"１０３號","E_COORD97":172117.89999999999,"N_COORD97":2542689.6499999999,"ADDRESS":"裕興街１０３號","OBJECTID":565787},"geometry":{"x":172117.90000000037,"y":2542689.6500000004}},{"attributes":{"ID":565815,"DIS_CODE":0,"TOWNNAME":"東區","LI":"文聖里","LIN":"9鄰","STREET":"裕興街","SECT":" ","MAREA":" ","LANE":" ","ALLEY":" ","HOUSE_NO":"１０５號","E_COORD97":172117.35999999999,"N_COORD97":2542694.8199999998,"ADDRESS":"裕興街１０５號","OBJECTID":565788},"geometry":{"x":172117.36000000127,"y":2542694.8200000022}},{"attributes":{"ID":565816,"DIS_CODE":0,"TOWNNAME":"東區","LI":"文聖里","LIN":"9鄰","STREET":"裕興街","SECT":" ","MAREA":" ","LANE":" ","ALLEY":" ","HOUSE_NO":"１０７號","E_COORD97":172117.17999999999,"N_COORD97":2542699.1000000001,"ADDRESS":"裕興街１０７號","OBJECTID":565789},"geometry":{"x":172117.1799999997,"y":2542699.1000000015}},{"attributes":{"ID":565817,"DIS_CODE":0,"TOWNNAME":"東區","LI":"文聖里","LIN":"9鄰","STREET":"裕興街","SECT":" ","MAREA":" ","LANE":" ","ALLEY":" ","HOUSE_NO":"８９號","E_COORD97":172101.67000000001,"N_COORD97":2542665.0499999998,"ADDRESS":"裕興街８９號","OBJECTID":565790},"geometry":{"x":172101.67000000086,"y":2542665.0500000045}},{"attributes":{"ID":565818,"DIS_CODE":0,"TOWNNAME":"東區","LI":"文聖里","LIN":"9鄰","STREET":"裕興街","SECT":" ","MAREA":" ","LANE":" ","ALLEY":" ","HOUSE_NO":"９１號","E_COORD97":172106.67000000001,"N_COORD97":2542664.8700000001,"ADDRESS":"裕興街９１號","OBJECTID":565791},"geometry":{"x":172106.67000000086,"y":2542664.8700000029}},{"attributes":{"ID":565819,"DIS_CODE":0,"TOWNNAME":"東區","LI":"文聖里","LIN":"9鄰","STREET":"裕興街","SECT":" ","MAREA":" ","LANE":" ","ALLEY":" ","HOUSE_NO":"９９號","E_COORD97":172118.07000000001,"N_COORD97":2542678.6000000001,"ADDRESS":"裕興街９９號","OBJECTID":565792},"geometry":{"x":172118.0700000003,"y":2542678.6000000015}},{"attributes":{"ID":565820,"DIS_CODE":0,"TOWNNAME":"東區","LI":"文聖里","LIN":"9鄰","STREET":"裕興街","SECT":" ","MAREA":" ","LANE":" ","ALLEY":" ","HOUSE_NO":"７９號","E_COORD97":172074.59,"N_COORD97":2542666.48,"ADDRESS":"裕興街７９號","OBJECTID":565793},"geometry":{"x":172074.59000000078,"y":2542666.4800000023}},{"attributes":{"ID":565821,"DIS_CODE":0,"TOWNNAME":"東區","LI":"文聖里","LIN":"9鄰","STREET":"裕興街","SECT":" ","MAREA":" ","LANE":" ","ALLEY":" ","HOUSE_NO":"８１號","E_COORD97":172079.82999999999,"N_COORD97":2542665.9900000002,"ADDRESS":"裕興街８１號","OBJECTID":565794},"geometry":{"x":172079.83000000101,"y":2542665.9900000021}},{"attributes":{"ID":565822,"DIS_CODE":0,"TOWNNAME":"東區","LI":"文聖里","LIN":"9鄰","STREET":"裕興街","SECT":" ","MAREA":" ","LANE":" ","ALLEY":" ","HOUSE_NO":"８３號","E_COORD97":172084.42000000001,"N_COORD97":2542665.6600000001,"ADDRESS":"裕興街８３號","OBJECTID":565795},"geometry":{"x":172084.42000000086,"y":2542665.6600000001}},{"attributes":{"ID":565823,"DIS_CODE":0,"TOWNNAME":"東區","LI":"南聖里","LIN":"9鄰","STREET":"裕和路","SECT":" ","MAREA":" ","LANE":" ","ALLEY":" ","HOUSE_NO":"６７號","E_COORD97":172117.53,"N_COORD97":2543134.23,"ADDRESS":"裕和路６７號","OBJECTID":565796},"geometry":{"x":172117.53000000212,"y":2543134.2300000004}},{"attributes":{"ID":565824,"DIS_CODE":0,"TOWNNAME":"東區","LI":"南聖里","LIN":"9鄰","STREET":"裕和路","SECT":" ","MAREA":" ","LANE":" ","ALLEY":" ","HOUSE_NO":"８１號","E_COORD97":172112.35000000001,"N_COORD97":2543176.2000000002,"ADDRESS":"裕和路８１號","OBJECTID":565797},"geometry":{"x":172112.34999999963,"y":2543176.2000000011}},{"attributes":{"ID":565825,"DIS_CODE":0,"TOWNNAME":"東區","LI":"崇善里","LIN":"9鄰","STREET":"崇善五街","SECT":" ","MAREA":" ","LANE":" ","ALLEY":" ","HOUSE_NO":"１１號","E_COORD97":171063.09,"N_COORD97":2541590.6000000001,"ADDRESS":"崇善五街１１號","OBJECTID":565798},"geometry":{"x":171063.08999999985,"y":2541590.5999999996}},{"attributes":{"ID":565826,"DIS_CODE":0,"TOWNNAME":"東區","LI":"崇善里","LIN":"9鄰","STREET":"崇善五街","SECT":" ","MAREA":" ","LANE":" ","ALLEY":" ","HOUSE_NO":"１３號","E_COORD97":171068.17000000001,"N_COORD97":2541593.2200000002,"ADDRESS":"崇善五街１３號","OBJECTID":565799},"geometry":{"x":171068.16999999993,"y":2541593.2200000025}},{"attributes":{"ID":565827,"DIS_CODE":0,"TOWNNAME":"東區","LI":"崇善里","LIN":"9鄰","STREET":"崇善五街","SECT":" ","MAREA":" ","LANE":" ","ALLEY":" ","HOUSE_NO":"１５號","E_COORD97":171073.73000000001,"N_COORD97":2541595.8399999999,"ADDRESS":"崇善五街１５號","OBJECTID":565800},"geometry":{"x":171073.73000000231,"y":2541595.8400000017}}]}