{"displayFieldName":"TOWNNAME","fieldAliases":{"ID":"ID","DIS_CODE":"DIS_CODE","TOWNNAME":"TOWNNAME","LI":"LI","LIN":"LIN","STREET":"STREET","SECT":"SECT","MAREA":"MAREA","LANE":"LANE","ALLEY":"ALLEY","HOUSE_NO":"HOUSE_NO","E_COORD97":"E_COORD97","N_COORD97":"N_COORD97","ADDRESS":"ADDRESS","OBJECTID":"OBJECTID"},"geometryType":"esriGeometryPoint","spatialReference":{"wkid":102443,"latestWkid":3826},"fields":[{"name":"ID","type":"esriFieldTypeDouble","alias":"ID"},{"name":"DIS_CODE","type":"esriFieldTypeInteger","alias":"DIS_CODE"},{"name":"TOWNNAME","type":"esriFieldTypeString","alias":"TOWNNAME","length":8},{"name":"LI","type":"esriFieldTypeString","alias":"LI","length":8},{"name":"LIN","type":"esriFieldTypeString","alias":"LIN","length":12},{"name":"STREET","type":"esriFieldTypeString","alias":"STREET","length":20},{"name":"SECT","type":"esriFieldTypeString","alias":"SECT","length":8},{"name":"MAREA","type":"esriFieldTypeString","alias":"MAREA","length":12},{"name":"LANE","type":"esriFieldTypeString","alias":"LANE","length":10},{"name":"ALLEY","type":"esriFieldTypeString","alias":"ALLEY","length":10},{"name":"HOUSE_NO","type":"esriFieldTypeString","alias":"HOUSE_NO","length":20},{"name":"E_COORD97","type":"esriFieldTypeDouble","alias":"E_COORD97"},{"name":"N_COORD97","type":"esriFieldTypeDouble","alias":"N_COORD97"},{"name":"ADDRESS","type":"esriFieldTypeString","alias":"ADDRESS","length":50},{"name":"OBJECTID","type":"esriFieldTypeOID","alias":"OBJECTID"}],"features":[{"attributes":{"ID":524028,"DIS_CODE":0,"TOWNNAME":"東區","LI":"裕農里","LIN":"6鄰","STREET":"裕農路","SECT":" ","MAREA":" ","LANE":" ","ALLEY":" ","HOUSE_NO":"３７５號四樓之５","E_COORD97":171070.95000000001,"N_COORD97":2543109.4100000001,"ADDRESS":"裕農路３７５號四樓之５","OBJECTID":524001},"geometry":{"x":171070.95000000112,"y":2543109.4099999983}},{"attributes":{"ID":524029,"DIS_CODE":0,"TOWNNAME":"東區","LI":"裕農里","LIN":"6鄰","STREET":"裕農路","SECT":" ","MAREA":" ","LANE":" ","ALLEY":" ","HOUSE_NO":"３７５號四樓之６","E_COORD97":171070.95000000001,"N_COORD97":2543109.4100000001,"ADDRESS":"裕農路３７５號四樓之６","OBJECTID":524002},"geometry":{"x":171070.95000000112,"y":2543109.4099999983}},{"attributes":{"ID":524030,"DIS_CODE":0,"TOWNNAME":"東區","LI":"裕農里","LIN":"6鄰","STREET":"裕農路","SECT":" ","MAREA":" ","LANE":" ","ALLEY":" ","HOUSE_NO":"３７５號四樓之７","E_COORD97":171070.95000000001,"N_COORD97":2543109.4100000001,"ADDRESS":"裕農路３７５號四樓之７","OBJECTID":524003},"geometry":{"x":171070.95000000112,"y":2543109.4099999983}},{"attributes":{"ID":524031,"DIS_CODE":0,"TOWNNAME":"東區","LI":"裕農里","LIN":"6鄰","STREET":"裕農路","SECT":" ","MAREA":" ","LANE":" ","ALLEY":" ","HOUSE_NO":"３７５號四樓之８","E_COORD97":171070.95000000001,"N_COORD97":2543109.4100000001,"ADDRESS":"裕農路３７５號四樓之８","OBJECTID":524004},"geometry":{"x":171070.95000000112,"y":2543109.4099999983}},{"attributes":{"ID":524032,"DIS_CODE":0,"TOWNNAME":"東區","LI":"裕農里","LIN":"6鄰","STREET":"裕農路","SECT":" ","MAREA":" ","LANE":" ","ALLEY":" ","HOUSE_NO":"３７５號四樓之９","E_COORD97":171070.95000000001,"N_COORD97":2543109.4100000001,"ADDRESS":"裕農路３７５號四樓之９","OBJECTID":524005},"geometry":{"x":171070.95000000112,"y":2543109.4099999983}},{"attributes":{"ID":524033,"DIS_CODE":0,"TOWNNAME":"東區","LI":"裕農里","LIN":"6鄰","STREET":"裕農路","SECT":" ","MAREA":" ","LANE":" ","ALLEY":" ","HOUSE_NO":"３７５號四樓之１０","E_COORD97":171070.95000000001,"N_COORD97":2543109.4100000001,"ADDRESS":"裕農路３７５號四樓之１０","OBJECTID":524006},"geometry":{"x":171070.95000000112,"y":2543109.4099999983}},{"attributes":{"ID":524034,"DIS_CODE":0,"TOWNNAME":"東區","LI":"裕農里","LIN":"6鄰","STREET":"裕農路","SECT":" ","MAREA":" ","LANE":" ","ALLEY":" ","HOUSE_NO":"３７５號五樓","E_COORD97":171070.95000000001,"N_COORD97":2543109.4100000001,"ADDRESS":"裕農路３７５號五樓","OBJECTID":524007},"geometry":{"x":171070.95000000112,"y":2543109.4099999983}},{"attributes":{"ID":524035,"DIS_CODE":0,"TOWNNAME":"東區","LI":"裕農里","LIN":"6鄰","STREET":"裕農路","SECT":" ","MAREA":" ","LANE":" ","ALLEY":" ","HOUSE_NO":"３７５號五樓之１","E_COORD97":171070.95000000001,"N_COORD97":2543109.4100000001,"ADDRESS":"裕農路３７５號五樓之１","OBJECTID":524008},"geometry":{"x":171070.95000000112,"y":2543109.4099999983}},{"attributes":{"ID":524036,"DIS_CODE":0,"TOWNNAME":"東區","LI":"裕農里","LIN":"6鄰","STREET":"裕農路","SECT":" ","MAREA":" ","LANE":" ","ALLEY":" ","HOUSE_NO":"３７５號六樓","E_COORD97":171070.95000000001,"N_COORD97":2543109.4100000001,"ADDRESS":"裕農路３７５號六樓","OBJECTID":524009},"geometry":{"x":171070.95000000112,"y":2543109.4099999983}},{"attributes":{"ID":524037,"DIS_CODE":0,"TOWNNAME":"東區","LI":"裕農里","LIN":"6鄰","STREET":"裕農路","SECT":" ","MAREA":" ","LANE":" ","ALLEY":" ","HOUSE_NO":"３７５號六樓之１","E_COORD97":171070.95000000001,"N_COORD97":2543109.4100000001,"ADDRESS":"裕農路３７５號六樓之１","OBJECTID":524010},"geometry":{"x":171070.95000000112,"y":2543109.4099999983}},{"attributes":{"ID":524038,"DIS_CODE":0,"TOWNNAME":"東區","LI":"裕農里","LIN":"6鄰","STREET":"裕農路","SECT":" ","MAREA":" ","LANE":" ","ALLEY":" ","HOUSE_NO":"３７５號六樓之２","E_COORD97":171070.95000000001,"N_COORD97":2543109.4100000001,"ADDRESS":"裕農路３７５號六樓之２","OBJECTID":524011},"geometry":{"x":171070.95000000112,"y":2543109.4099999983}},{"attributes":{"ID":524039,"DIS_CODE":0,"TOWNNAME":"東區","LI":"裕農里","LIN":"6鄰","STREET":"裕農路","SECT":" ","MAREA":" ","LANE":" ","ALLEY":" ","HOUSE_NO":"３７５號六樓之３","E_COORD97":171070.95000000001,"N_COORD97":2543109.4100000001,"ADDRESS":"裕農路３７５號六樓之３","OBJECTID":524012},"geometry":{"x":171070.95000000112,"y":2543109.4099999983}},{"attributes":{"ID":524040,"DIS_CODE":0,"TOWNNAME":"東區","LI":"裕農里","LIN":"6鄰","STREET":"裕農路","SECT":" ","MAREA":" ","LANE":" ","ALLEY":" ","HOUSE_NO":"３７５號六樓之４","E_COORD97":171070.95000000001,"N_COORD97":2543109.4100000001,"ADDRESS":"裕農路３７５號六樓之４","OBJECTID":524013},"geometry":{"x":171070.95000000112,"y":2543109.4099999983}},{"attributes":{"ID":524041,"DIS_CODE":0,"TOWNNAME":"東區","LI":"裕農里","LIN":"6鄰","STREET":"裕農路","SECT":" ","MAREA":" ","LANE":" ","ALLEY":" ","HOUSE_NO":"３７５號六樓之５","E_COORD97":171070.95000000001,"N_COORD97":2543109.4100000001,"ADDRESS":"裕農路３７５號六樓之５","OBJECTID":524014},"geometry":{"x":171070.95000000112,"y":2543109.4099999983}},{"attributes":{"ID":524042,"DIS_CODE":0,"TOWNNAME":"東區","LI":"裕農里","LIN":"6鄰","STREET":"裕農路","SECT":" ","MAREA":" ","LANE":" ","ALLEY":" ","HOUSE_NO":"３７５號六樓之６","E_COORD97":171070.95000000001,"N_COORD97":2543109.4100000001,"ADDRESS":"裕農路３７５號六樓之６","OBJECTID":524015},"geometry":{"x":171070.95000000112,"y":2543109.4099999983}},{"attributes":{"ID":524043,"DIS_CODE":0,"TOWNNAME":"東區","LI":"裕農里","LIN":"6鄰","STREET":"裕農路","SECT":" ","MAREA":" ","LANE":" ","ALLEY":" ","HOUSE_NO":"３７５號六樓之７","E_COORD97":171070.95000000001,"N_COORD97":2543109.4100000001,"ADDRESS":"裕農路３７５號六樓之７","OBJECTID":524016},"geometry":{"x":171070.95000000112,"y":2543109.4099999983}},{"attributes":{"ID":524044,"DIS_CODE":0,"TOWNNAME":"東區","LI":"裕農里","LIN":"6鄰","STREET":"裕農路","SECT":" ","MAREA":" ","LANE":" ","ALLEY":" ","HOUSE_NO":"３７５號六樓之８","E_COORD97":171070.95000000001,"N_COORD97":2543109.4100000001,"ADDRESS":"裕農路３７５號六樓之８","OBJECTID":524017},"geometry":{"x":171070.95000000112,"y":2543109.4099999983}},{"attributes":{"ID":524045,"DIS_CODE":0,"TOWNNAME":"東區","LI":"裕農里","LIN":"6鄰","STREET":"裕農路","SECT":" ","MAREA":" ","LANE":" ","ALLEY":" ","HOUSE_NO":"３７５號六樓之９","E_COORD97":171070.95000000001,"N_COORD97":2543109.4100000001,"ADDRESS":"裕農路３７５號六樓之９","OBJECTID":524018},"geometry":{"x":171070.95000000112,"y":2543109.4099999983}},{"attributes":{"ID":524046,"DIS_CODE":0,"TOWNNAME":"東區","LI":"裕農里","LIN":"6鄰","STREET":"裕農路","SECT":" ","MAREA":" ","LANE":" ","ALLEY":" ","HOUSE_NO":"３７５號六樓之１０","E_COORD97":171070.95000000001,"N_COORD97":2543109.4100000001,"ADDRESS":"裕農路３７５號六樓之１０","OBJECTID":524019},"geometry":{"x":171070.95000000112,"y":2543109.4099999983}},{"attributes":{"ID":524047,"DIS_CODE":0,"TOWNNAME":"東區","LI":"裕農里","LIN":"6鄰","STREET":"裕農路","SECT":" ","MAREA":" ","LANE":" ","ALLEY":" ","HOUSE_NO":"３７５號七樓","E_COORD97":171070.95000000001,"N_COORD97":2543109.4100000001,"ADDRESS":"裕農路３７５號七樓","OBJECTID":524020},"geometry":{"x":171070.95000000112,"y":2543109.4099999983}},{"attributes":{"ID":524048,"DIS_CODE":0,"TOWNNAME":"東區","LI":"裕農里","LIN":"6鄰","STREET":"裕農路","SECT":" ","MAREA":" ","LANE":" ","ALLEY":" ","HOUSE_NO":"３７５號七樓之１","E_COORD97":171070.95000000001,"N_COORD97":2543109.4100000001,"ADDRESS":"裕農路３７５號七樓之１","OBJECTID":524021},"geometry":{"x":171070.95000000112,"y":2543109.4099999983}},{"attributes":{"ID":524049,"DIS_CODE":0,"TOWNNAME":"東區","LI":"裕農里","LIN":"6鄰","STREET":"裕農路","SECT":" ","MAREA":" ","LANE":" ","ALLEY":" ","HOUSE_NO":"３７５號八樓","E_COORD97":171070.95000000001,"N_COORD97":2543109.4100000001,"ADDRESS":"裕農路３７５號八樓","OBJECTID":524022},"geometry":{"x":171070.95000000112,"y":2543109.4099999983}},{"attributes":{"ID":524050,"DIS_CODE":0,"TOWNNAME":"東區","LI":"裕農里","LIN":"6鄰","STREET":"裕農路","SECT":" ","MAREA":" ","LANE":" ","ALLEY":" ","HOUSE_NO":"３７５號八樓之１","E_COORD97":171070.95000000001,"N_COORD97":2543109.4100000001,"ADDRESS":"裕農路３７５號八樓之１","OBJECTID":524023},"geometry":{"x":171070.95000000112,"y":2543109.4099999983}},{"attributes":{"ID":524051,"DIS_CODE":0,"TOWNNAME":"仁德區","LI":"太子里","LIN":"10鄰","STREET":"長興路","SECT":" ","MAREA":" ","LANE":" ","ALLEY":" ","HOUSE_NO":"５２號","E_COORD97":174149.89999999999,"N_COORD97":2543712.2599999998,"ADDRESS":"長興路５２號","OBJECTID":524024},"geometry":{"x":174149.9000000013,"y":2543712.2599999998}},{"attributes":{"ID":524052,"DIS_CODE":0,"TOWNNAME":"東區","LI":"裕農里","LIN":"6鄰","STREET":"裕農路","SECT":" ","MAREA":" ","LANE":" ","ALLEY":" ","HOUSE_NO":"３７５號八樓之２","E_COORD97":171070.95000000001,"N_COORD97":2543109.4100000001,"ADDRESS":"裕農路３７５號八樓之２","OBJECTID":524025},"geometry":{"x":171070.95000000112,"y":2543109.4099999983}},{"attributes":{"ID":524053,"DIS_CODE":0,"TOWNNAME":"東區","LI":"裕農里","LIN":"6鄰","STREET":"裕農路","SECT":" ","MAREA":" ","LANE":" ","ALLEY":" ","HOUSE_NO":"３７５號八樓之３","E_COORD97":171070.95000000001,"N_COORD97":2543109.4100000001,"ADDRESS":"裕農路３７５號八樓之３","OBJECTID":524026},"geometry":{"x":171070.95000000112,"y":2543109.4099999983}},{"attributes":{"ID":524054,"DIS_CODE":0,"TOWNNAME":"東區","LI":"裕農里","LIN":"6鄰","STREET":"裕農路","SECT":" ","MAREA":" ","LANE":" ","ALLEY":" ","HOUSE_NO":"３７５號八樓之４","E_COORD97":171070.95000000001,"N_COORD97":2543109.4100000001,"ADDRESS":"裕農路３７５號八樓之４","OBJECTID":524027},"geometry":{"x":171070.95000000112,"y":2543109.4099999983}},{"attributes":{"ID":524055,"DIS_CODE":0,"TOWNNAME":"東區","LI":"裕農里","LIN":"6鄰","STREET":"裕農路","SECT":" ","MAREA":" ","LANE":" ","ALLEY":" ","HOUSE_NO":"３７５號八樓之５","E_COORD97":171070.95000000001,"N_COORD97":2543109.4100000001,"ADDRESS":"裕農路３７５號八樓之５","OBJECTID":524028},"geometry":{"x":171070.95000000112,"y":2543109.4099999983}},{"attributes":{"ID":524056,"DIS_CODE":0,"TOWNNAME":"東區","LI":"裕農里","LIN":"6鄰","STREET":"裕農路","SECT":" ","MAREA":" ","LANE":" ","ALLEY":" ","HOUSE_NO":"３７５號八樓之６","E_COORD97":171070.95000000001,"N_COORD97":2543109.4100000001,"ADDRESS":"裕農路３７５號八樓之６","OBJECTID":524029},"geometry":{"x":171070.95000000112,"y":2543109.4099999983}},{"attributes":{"ID":524057,"DIS_CODE":0,"TOWNNAME":"東區","LI":"裕農里","LIN":"6鄰","STREET":"裕農路","SECT":" ","MAREA":" ","LANE":" ","ALLEY":" ","HOUSE_NO":"３７５號八樓之７","E_COORD97":171070.95000000001,"N_COORD97":2543109.4100000001,"ADDRESS":"裕農路３７５號八樓之７","OBJECTID":524030},"geometry":{"x":171070.95000000112,"y":2543109.4099999983}},{"attributes":{"ID":524058,"DIS_CODE":0,"TOWNNAME":"東區","LI":"裕農里","LIN":"6鄰","STREET":"裕農路","SECT":" ","MAREA":" ","LANE":" ","ALLEY":" ","HOUSE_NO":"３７５號八樓之８","E_COORD97":171070.95000000001,"N_COORD97":2543109.4100000001,"ADDRESS":"裕農路３７５號八樓之８","OBJECTID":524031},"geometry":{"x":171070.95000000112,"y":2543109.4099999983}},{"attributes":{"ID":524059,"DIS_CODE":0,"TOWNNAME":"東區","LI":"裕農里","LIN":"6鄰","STREET":"裕農路","SECT":" ","MAREA":" ","LANE":" ","ALLEY":" ","HOUSE_NO":"３７５號八樓之９","E_COORD97":171070.95000000001,"N_COORD97":2543109.4100000001,"ADDRESS":"裕農路３７５號八樓之９","OBJECTID":524032},"geometry":{"x":171070.95000000112,"y":2543109.4099999983}},{"attributes":{"ID":524060,"DIS_CODE":0,"TOWNNAME":"東區","LI":"裕農里","LIN":"6鄰","STREET":"裕農路","SECT":" ","MAREA":" ","LANE":" ","ALLEY":" ","HOUSE_NO":"３７５號八樓之１０","E_COORD97":171070.95000000001,"N_COORD97":2543109.4100000001,"ADDRESS":"裕農路３７５號八樓之１０","OBJECTID":524033},"geometry":{"x":171070.95000000112,"y":2543109.4099999983}},{"attributes":{"ID":524061,"DIS_CODE":0,"TOWNNAME":"東區","LI":"裕農里","LIN":"6鄰","STREET":"裕農路","SECT":" ","MAREA":" ","LANE":" ","ALLEY":" ","HOUSE_NO":"３７５號九樓","E_COORD97":171070.95000000001,"N_COORD97":2543109.4100000001,"ADDRESS":"裕農路３７５號九樓","OBJECTID":524034},"geometry":{"x":171070.95000000112,"y":2543109.4099999983}},{"attributes":{"ID":524062,"DIS_CODE":0,"TOWNNAME":"東區","LI":"裕農里","LIN":"6鄰","STREET":"裕農路","SECT":" ","MAREA":" ","LANE":" ","ALLEY":" ","HOUSE_NO":"３７５號九樓之１","E_COORD97":171070.95000000001,"N_COORD97":2543109.4100000001,"ADDRESS":"裕農路３７５號九樓之１","OBJECTID":524035},"geometry":{"x":171070.95000000112,"y":2543109.4099999983}},{"attributes":{"ID":524063,"DIS_CODE":0,"TOWNNAME":"東區","LI":"裕農里","LIN":"6鄰","STREET":"裕農路","SECT":" ","MAREA":" ","LANE":" ","ALLEY":" ","HOUSE_NO":"３７５號十樓","E_COORD97":171070.95000000001,"N_COORD97":2543109.4100000001,"ADDRESS":"裕農路３７５號十樓","OBJECTID":524036},"geometry":{"x":171070.95000000112,"y":2543109.4099999983}},{"attributes":{"ID":524064,"DIS_CODE":0,"TOWNNAME":"東區","LI":"裕農里","LIN":"6鄰","STREET":"裕農路","SECT":" ","MAREA":" ","LANE":" ","ALLEY":" ","HOUSE_NO":"３７５號十樓之１","E_COORD97":171070.95000000001,"N_COORD97":2543109.4100000001,"ADDRESS":"裕農路３７５號十樓之１","OBJECTID":524037},"geometry":{"x":171070.95000000112,"y":2543109.4099999983}},{"attributes":{"ID":524065,"DIS_CODE":0,"TOWNNAME":"東區","LI":"裕農里","LIN":"6鄰","STREET":"裕農路","SECT":" ","MAREA":" ","LANE":" ","ALLEY":" ","HOUSE_NO":"３７５號十一樓","E_COORD97":171070.95000000001,"N_COORD97":2543109.4100000001,"ADDRESS":"裕農路３７５號十一樓","OBJECTID":524038},"geometry":{"x":171070.95000000112,"y":2543109.4099999983}},{"attributes":{"ID":524066,"DIS_CODE":0,"TOWNNAME":"東區","LI":"裕農里","LIN":"6鄰","STREET":"裕農路","SECT":" ","MAREA":" ","LANE":" ","ALLEY":" ","HOUSE_NO":"３７５號十一樓之１","E_COORD97":171070.95000000001,"N_COORD97":2543109.4100000001,"ADDRESS":"裕農路３７５號十一樓之１","OBJECTID":524039},"geometry":{"x":171070.95000000112,"y":2543109.4099999983}},{"attributes":{"ID":524067,"DIS_CODE":0,"TOWNNAME":"永康區","LI":"復國里","LIN":"6鄰","STREET":"復國一路","SECT":" ","MAREA":" ","LANE":" ","ALLEY":" ","HOUSE_NO":"１１６號","E_COORD97":172721.79999999999,"N_COORD97":2544988.5299999998,"ADDRESS":"復國一路１１６號","OBJECTID":524040},"geometry":{"x":172721.79999999981,"y":2544988.5299999993}},{"attributes":{"ID":524068,"DIS_CODE":0,"TOWNNAME":"永康區","LI":"勝利里","LIN":"6鄰","STREET":"勝學路","SECT":" ","MAREA":" ","LANE":" ","ALLEY":" ","HOUSE_NO":"２３號","E_COORD97":171144.67000000001,"N_COORD97":2544623.75,"ADDRESS":"勝學路２３號","OBJECTID":524041},"geometry":{"x":171144.66999999899,"y":2544623.7500000019}},{"attributes":{"ID":524069,"DIS_CODE":0,"TOWNNAME":"永康區","LI":"復國里","LIN":"6鄰","STREET":"復國一路","SECT":" ","MAREA":" ","LANE":" ","ALLEY":" ","HOUSE_NO":"１１０號","E_COORD97":172724.63,"N_COORD97":2544975.4700000002,"ADDRESS":"復國一路１１０號","OBJECTID":524042},"geometry":{"x":172724.62999999989,"y":2544975.4700000025}},{"attributes":{"ID":524070,"DIS_CODE":0,"TOWNNAME":"永康區","LI":"勝利里","LIN":"6鄰","STREET":"勝學路","SECT":" ","MAREA":" ","LANE":" ","ALLEY":" ","HOUSE_NO":"４２號","E_COORD97":171153.20999999999,"N_COORD97":2544655.0099999998,"ADDRESS":"勝學路４２號","OBJECTID":524043},"geometry":{"x":171153.21000000089,"y":2544655.0100000016}},{"attributes":{"ID":524071,"DIS_CODE":0,"TOWNNAME":"永康區","LI":"復國里","LIN":"6鄰","STREET":"復國一路","SECT":" ","MAREA":" ","LANE":" ","ALLEY":" ","HOUSE_NO":"９６號","E_COORD97":172718.53,"N_COORD97":2544944.46,"ADDRESS":"復國一路９６號","OBJECTID":524044},"geometry":{"x":172718.53000000026,"y":2544944.4600000046}},{"attributes":{"ID":524072,"DIS_CODE":0,"TOWNNAME":"永康區","LI":"復國里","LIN":"6鄰","STREET":"復國一路","SECT":" ","MAREA":" ","LANE":" ","ALLEY":" ","HOUSE_NO":"１０２號","E_COORD97":172720.63,"N_COORD97":2544958.2200000002,"ADDRESS":"復國一路１０２號","OBJECTID":524045},"geometry":{"x":172720.63000000082,"y":2544958.2200000007}},{"attributes":{"ID":524073,"DIS_CODE":0,"TOWNNAME":"永康區","LI":"勝利里","LIN":"6鄰","STREET":"勝學路","SECT":" ","MAREA":" ","LANE":" ","ALLEY":" ","HOUSE_NO":"３８號","E_COORD97":171152.60000000001,"N_COORD97":2544643,"ADDRESS":"勝學路３８號","OBJECTID":524046},"geometry":{"x":171152.59999999963,"y":2544643}},{"attributes":{"ID":524074,"DIS_CODE":0,"TOWNNAME":"永康區","LI":"勝利里","LIN":"6鄰","STREET":"勝學路","SECT":" ","MAREA":" ","LANE":" ","ALLEY":" ","HOUSE_NO":"４１號","E_COORD97":171139.78,"N_COORD97":2544668.5099999998,"ADDRESS":"勝學路４１號","OBJECTID":524047},"geometry":{"x":171139.78000000119,"y":2544668.5100000016}},{"attributes":{"ID":524075,"DIS_CODE":0,"TOWNNAME":"永康區","LI":"勝利里","LIN":"6鄰","STREET":"勝學路","SECT":" ","MAREA":" ","LANE":" ","ALLEY":" ","HOUSE_NO":"３５號","E_COORD97":171139.32000000001,"N_COORD97":2544654.7599999998,"ADDRESS":"勝學路３５號","OBJECTID":524048},"geometry":{"x":171139.32000000123,"y":2544654.7599999998}},{"attributes":{"ID":524076,"DIS_CODE":0,"TOWNNAME":"永康區","LI":"三合里","LIN":"6鄰","STREET":"南工街","SECT":" ","MAREA":" ","LANE":" ","ALLEY":" ","HOUSE_NO":"１２２號","E_COORD97":172105.13,"N_COORD97":2545772.21,"ADDRESS":"南工街１２２號","OBJECTID":524049},"geometry":{"x":172105.13000000082,"y":2545772.2100000009}},{"attributes":{"ID":524077,"DIS_CODE":0,"TOWNNAME":"永康區","LI":"大橋里","LIN":"6鄰","STREET":"大橋五街","SECT":" ","MAREA":" ","LANE":" ","ALLEY":" ","HOUSE_NO":"８８號","E_COORD97":170918.35999999999,"N_COORD97":2546936.3399999999,"ADDRESS":"大橋五街８８號","OBJECTID":524050},"geometry":{"x":170918.3599999994,"y":2546936.3399999999}},{"attributes":{"ID":524078,"DIS_CODE":0,"TOWNNAME":"永康區","LI":"大橋里","LIN":"6鄰","STREET":"大橋五街","SECT":" ","MAREA":" ","LANE":" ","ALLEY":" ","HOUSE_NO":"６６號","E_COORD97":170887.76000000001,"N_COORD97":2546907.8300000001,"ADDRESS":"大橋五街６６號","OBJECTID":524051},"geometry":{"x":170887.75999999978,"y":2546907.8300000019}},{"attributes":{"ID":524079,"DIS_CODE":0,"TOWNNAME":"永康區","LI":"大橋里","LIN":"6鄰","STREET":"大橋五街","SECT":" ","MAREA":" ","LANE":" ","ALLEY":" ","HOUSE_NO":"５２號","E_COORD97":170862.66,"N_COORD97":2546892.8300000001,"ADDRESS":"大橋五街５２號","OBJECTID":524052},"geometry":{"x":170862.66000000108,"y":2546892.8300000001}},{"attributes":{"ID":524080,"DIS_CODE":0,"TOWNNAME":"永康區","LI":"大橋里","LIN":"6鄰","STREET":"大橋五街","SECT":" ","MAREA":" ","LANE":" ","ALLEY":" ","HOUSE_NO":"６０號","E_COORD97":170879.26999999999,"N_COORD97":2546899.8300000001,"ADDRESS":"大橋五街６０號","OBJECTID":524053},"geometry":{"x":170879.27000000142,"y":2546899.8300000001}},{"attributes":{"ID":524081,"DIS_CODE":0,"TOWNNAME":"東區","LI":"虎尾里","LIN":"6鄰","STREET":"富農街","SECT":"一段","MAREA":" ","LANE":" ","ALLEY":" ","HOUSE_NO":"９２號之１３","E_COORD97":171512.98999999999,"N_COORD97":2542266.52,"ADDRESS":"富農街一段９２號之１３","OBJECTID":524054},"geometry":{"x":171512.99000000115,"y":2542266.5199999996}},{"attributes":{"ID":524082,"DIS_CODE":0,"TOWNNAME":"東區","LI":"虎尾里","LIN":"6鄰","STREET":"富農街","SECT":"一段","MAREA":" ","LANE":" ","ALLEY":" ","HOUSE_NO":"９２號地下層","E_COORD97":171515.67999999999,"N_COORD97":2542250.3900000001,"ADDRESS":"富農街一段９２號地下層","OBJECTID":524055},"geometry":{"x":171515.68000000156,"y":2542250.3900000025}},{"attributes":{"ID":524083,"DIS_CODE":0,"TOWNNAME":"東區","LI":"虎尾里","LIN":"6鄰","STREET":"富農街","SECT":"一段","MAREA":" ","LANE":" ","ALLEY":" ","HOUSE_NO":"９２號","E_COORD97":171515.67999999999,"N_COORD97":2542250.3900000001,"ADDRESS":"富農街一段９２號","OBJECTID":524056},"geometry":{"x":171515.68000000156,"y":2542250.3900000025}},{"attributes":{"ID":524084,"DIS_CODE":0,"TOWNNAME":"東區","LI":"虎尾里","LIN":"6鄰","STREET":"富農街","SECT":"一段","MAREA":" ","LANE":" ","ALLEY":" ","HOUSE_NO":"９２號之１２","E_COORD97":171513.14999999999,"N_COORD97":2542262.5699999998,"ADDRESS":"富農街一段９２號之１２","OBJECTID":524057},"geometry":{"x":171513.15000000224,"y":2542262.5700000022}},{"attributes":{"ID":524085,"DIS_CODE":0,"TOWNNAME":"東區","LI":"虎尾里","LIN":"6鄰","STREET":"富農街","SECT":"一段","MAREA":" ","LANE":" ","ALLEY":" ","HOUSE_NO":"９２號之２","E_COORD97":171528.51000000001,"N_COORD97":2542250.5499999998,"ADDRESS":"富農街一段９２號之２","OBJECTID":524058},"geometry":{"x":171528.50999999978,"y":2542250.5500000007}},{"attributes":{"ID":524086,"DIS_CODE":0,"TOWNNAME":"東區","LI":"虎尾里","LIN":"6鄰","STREET":"富農街","SECT":"一段","MAREA":" ","LANE":" ","ALLEY":" ","HOUSE_NO":"９２號之３","E_COORD97":171533.42000000001,"N_COORD97":2542251.6499999999,"ADDRESS":"富農街一段９２號之３","OBJECTID":524059},"geometry":{"x":171533.42000000086,"y":2542251.6500000022}},{"attributes":{"ID":524087,"DIS_CODE":0,"TOWNNAME":"東區","LI":"虎尾里","LIN":"6鄰","STREET":"富農街","SECT":"一段","MAREA":" ","LANE":" ","ALLEY":" ","HOUSE_NO":"９２號之５","E_COORD97":171544.66,"N_COORD97":2542254.3399999999,"ADDRESS":"富農街一段９２號之５","OBJECTID":524060},"geometry":{"x":171544.66000000015,"y":2542254.3399999999}},{"attributes":{"ID":524088,"DIS_CODE":0,"TOWNNAME":"東區","LI":"虎尾里","LIN":"6鄰","STREET":"富農街","SECT":"一段","MAREA":" ","LANE":" ","ALLEY":" ","HOUSE_NO":"９２號之６","E_COORD97":171548.29999999999,"N_COORD97":2542254.5,"ADDRESS":"富農街一段９２號之６","OBJECTID":524061},"geometry":{"x":171548.29999999981,"y":2542254.5000000037}},{"attributes":{"ID":524089,"DIS_CODE":0,"TOWNNAME":"東區","LI":"虎尾里","LIN":"6鄰","STREET":"富農街","SECT":"一段","MAREA":" ","LANE":" ","ALLEY":" ","HOUSE_NO":"９２號之７","E_COORD97":171552.41,"N_COORD97":2542254.98,"ADDRESS":"富農街一段９２號之７","OBJECTID":524062},"geometry":{"x":171552.41000000108,"y":2542254.9800000042}},{"attributes":{"ID":524090,"DIS_CODE":0,"TOWNNAME":"東區","LI":"虎尾里","LIN":"6鄰","STREET":"富農街","SECT":"一段","MAREA":" ","LANE":" ","ALLEY":" ","HOUSE_NO":"９２號之８","E_COORD97":171537.69,"N_COORD97":2542267.79,"ADDRESS":"富農街一段９２號之８","OBJECTID":524063},"geometry":{"x":171537.69000000041,"y":2542267.7899999991}},{"attributes":{"ID":524091,"DIS_CODE":0,"TOWNNAME":"東區","LI":"虎尾里","LIN":"6鄰","STREET":"富農街","SECT":"一段","MAREA":" ","LANE":" ","ALLEY":" ","HOUSE_NO":"９２號之９","E_COORD97":171533.10000000001,"N_COORD97":2542267.3100000001,"ADDRESS":"富農街一段９２號之９","OBJECTID":524064},"geometry":{"x":171533.10000000149,"y":2542267.3100000024}},{"attributes":{"ID":524092,"DIS_CODE":0,"TOWNNAME":"東區","LI":"虎尾里","LIN":"6鄰","STREET":"富農街","SECT":"一段","MAREA":" ","LANE":" ","ALLEY":" ","HOUSE_NO":"９６號","E_COORD97":171509.35000000001,"N_COORD97":2542277.9900000002,"ADDRESS":"富農街一段９６號","OBJECTID":524065},"geometry":{"x":171509.35000000149,"y":2542277.9900000002}},{"attributes":{"ID":524093,"DIS_CODE":0,"TOWNNAME":"東區","LI":"虎尾里","LIN":"6鄰","STREET":"富農街","SECT":"一段","MAREA":" ","LANE":" ","ALLEY":" ","HOUSE_NO":"９０號","E_COORD97":171516.32000000001,"N_COORD97":2542246.1200000001,"ADDRESS":"富農街一段９０號","OBJECTID":524066},"geometry":{"x":171516.3200000003,"y":2542246.1200000029}},{"attributes":{"ID":524094,"DIS_CODE":0,"TOWNNAME":"東區","LI":"虎尾里","LIN":"6鄰","STREET":"富農街","SECT":"一段","MAREA":" ","LANE":" ","ALLEY":" ","HOUSE_NO":"９２號之４","E_COORD97":171538.64000000001,"N_COORD97":2542252.4399999999,"ADDRESS":"富農街一段９２號之４","OBJECTID":524067},"geometry":{"x":171538.6400000006,"y":2542252.4400000013}},{"attributes":{"ID":524095,"DIS_CODE":0,"TOWNNAME":"東區","LI":"虎尾里","LIN":"6鄰","STREET":"富農街","SECT":"一段","MAREA":" ","LANE":" ","ALLEY":" ","HOUSE_NO":"９８號","E_COORD97":171508.39999999999,"N_COORD97":2542284.1600000001,"ADDRESS":"富農街一段９８號","OBJECTID":524068},"geometry":{"x":171508.4000000013,"y":2542284.1600000039}},{"attributes":{"ID":524096,"DIS_CODE":0,"TOWNNAME":"永康區","LI":"大橋里","LIN":"6鄰","STREET":"大橋五街","SECT":" ","MAREA":" ","LANE":" ","ALLEY":" ","HOUSE_NO":"１３０號","E_COORD97":170984.51000000001,"N_COORD97":2546978,"ADDRESS":"大橋五街１３０號","OBJECTID":524069},"geometry":{"x":170984.50999999885,"y":2546978.0000000019}},{"attributes":{"ID":524097,"DIS_CODE":0,"TOWNNAME":"永康區","LI":"大橋里","LIN":"6鄰","STREET":"大橋五街","SECT":" ","MAREA":" ","LANE":" ","ALLEY":" ","HOUSE_NO":"１２２號","E_COORD97":170975.60999999999,"N_COORD97":2546964.5800000001,"ADDRESS":"大橋五街１２２號","OBJECTID":524070},"geometry":{"x":170975.61000000034,"y":2546964.5800000019}},{"attributes":{"ID":524098,"DIS_CODE":0,"TOWNNAME":"永康區","LI":"大橋里","LIN":"6鄰","STREET":"大橋五街","SECT":" ","MAREA":" ","LANE":" ","ALLEY":" ","HOUSE_NO":"１３２號","E_COORD97":170988.31,"N_COORD97":2546980,"ADDRESS":"大橋五街１３２號","OBJECTID":524071},"geometry":{"x":170988.31000000052,"y":2546980}},{"attributes":{"ID":524099,"DIS_CODE":0,"TOWNNAME":"永康區","LI":"大橋里","LIN":"6鄰","STREET":"大橋五街","SECT":" ","MAREA":" ","LANE":" ","ALLEY":" ","HOUSE_NO":"１１２號","E_COORD97":170952.54999999999,"N_COORD97":2546957.46,"ADDRESS":"大橋五街１１２號","OBJECTID":524072},"geometry":{"x":170952.55000000075,"y":2546957.4600000009}},{"attributes":{"ID":524100,"DIS_CODE":0,"TOWNNAME":"永康區","LI":"大橋里","LIN":"6鄰","STREET":"大橋五街","SECT":" ","MAREA":" ","LANE":" ","ALLEY":" ","HOUSE_NO":"４２號","E_COORD97":170841.45999999999,"N_COORD97":2546886.0800000001,"ADDRESS":"大橋五街４２號","OBJECTID":524073},"geometry":{"x":170841.46000000089,"y":2546886.0800000019}},{"attributes":{"ID":524101,"DIS_CODE":0,"TOWNNAME":"永康區","LI":"大橋里","LIN":"6鄰","STREET":"大橋五街","SECT":" ","MAREA":" ","LANE":" ","ALLEY":" ","HOUSE_NO":"７２號","E_COORD97":170896.72,"N_COORD97":2546905.8300000001,"ADDRESS":"大橋五街７２號","OBJECTID":524074},"geometry":{"x":170896.7200000016,"y":2546905.8300000001}},{"attributes":{"ID":524102,"DIS_CODE":0,"TOWNNAME":"永康區","LI":"大橋里","LIN":"6鄰","STREET":"大橋五街","SECT":" ","MAREA":" ","LANE":" ","ALLEY":" ","HOUSE_NO":"７６號","E_COORD97":170902.10999999999,"N_COORD97":2546911.5800000001,"ADDRESS":"大橋五街７６號","OBJECTID":524075},"geometry":{"x":170902.11000000127,"y":2546911.5800000001}},{"attributes":{"ID":524103,"DIS_CODE":0,"TOWNNAME":"永康區","LI":"大橋里","LIN":"6鄰","STREET":"大橋五街","SECT":" ","MAREA":" ","LANE":" ","ALLEY":" ","HOUSE_NO":"５６號","E_COORD97":170868.07000000001,"N_COORD97":2546896.5800000001,"ADDRESS":"大橋五街５６號","OBJECTID":524076},"geometry":{"x":170868.07000000123,"y":2546896.5800000019}},{"attributes":{"ID":524104,"DIS_CODE":0,"TOWNNAME":"永康區","LI":"勝利里","LIN":"6鄰","STREET":"勝學路","SECT":" ","MAREA":" ","LANE":" ","ALLEY":" ","HOUSE_NO":"２９號","E_COORD97":171138.39999999999,"N_COORD97":2544639,"ADDRESS":"勝學路２９號","OBJECTID":524077},"geometry":{"x":171138.40000000037,"y":2544639.0000000019}},{"attributes":{"ID":524105,"DIS_CODE":0,"TOWNNAME":"永康區","LI":"勝利里","LIN":"6鄰","STREET":"勝學路","SECT":" ","MAREA":" ","LANE":" ","ALLEY":" ","HOUSE_NO":"３２號","E_COORD97":171155.51000000001,"N_COORD97":2544633,"ADDRESS":"勝學路３２號","OBJECTID":524078},"geometry":{"x":171155.50999999978,"y":2544633}},{"attributes":{"ID":524106,"DIS_CODE":0,"TOWNNAME":"仁德區","LI":"成功里","LIN":"6鄰","STREET":"成功三街","SECT":" ","MAREA":" ","LANE":" ","ALLEY":" ","HOUSE_NO":"３７號","E_COORD97":171174.45999999999,"N_COORD97":2539951.2599999998,"ADDRESS":"成功三街３７號","OBJECTID":524079},"geometry":{"x":171174.45999999996,"y":2539951.2600000016}},{"attributes":{"ID":524107,"DIS_CODE":0,"TOWNNAME":"仁德區","LI":"太子里","LIN":"6鄰","STREET":"長興二街","SECT":" ","MAREA":" ","LANE":" ","ALLEY":" ","HOUSE_NO":"４１號","E_COORD97":174293.54000000001,"N_COORD97":2543689,"ADDRESS":"長興二街４１號","OBJECTID":524080},"geometry":{"x":174293.54000000004,"y":2543689.0000000019}},{"attributes":{"ID":524108,"DIS_CODE":0,"TOWNNAME":"仁德區","LI":"成功里","LIN":"6鄰","STREET":"保華路","SECT":" ","MAREA":" ","LANE":" ","ALLEY":" ","HOUSE_NO":"１０７號","E_COORD97":171182.54999999999,"N_COORD97":2540054.2400000002,"ADDRESS":"保華路１０７號","OBJECTID":524081},"geometry":{"x":171182.54999999981,"y":2540054.2400000021}},{"attributes":{"ID":524109,"DIS_CODE":0,"TOWNNAME":"仁德區","LI":"仁義里","LIN":"6鄰","STREET":"仁義一街","SECT":" ","MAREA":" ","LANE":" ","ALLEY":" ","HOUSE_NO":"１６４號","E_COORD97":173683.20999999999,"N_COORD97":2541171.27,"ADDRESS":"仁義一街１６４號","OBJECTID":524082},"geometry":{"x":173683.20999999996,"y":2541171.2700000014}},{"attributes":{"ID":524110,"DIS_CODE":0,"TOWNNAME":"仁德區","LI":"太子里","LIN":"6鄰","STREET":"長興二街","SECT":" ","MAREA":" ","LANE":" ","ALLEY":" ","HOUSE_NO":"６１號","E_COORD97":174252.17000000001,"N_COORD97":2543686.25,"ADDRESS":"長興二街６１號","OBJECTID":524083},"geometry":{"x":174252.17000000086,"y":2543686.25}},{"attributes":{"ID":524111,"DIS_CODE":0,"TOWNNAME":"仁德區","LI":"太子里","LIN":"6鄰","STREET":"長興二街","SECT":" ","MAREA":" ","LANE":" ","ALLEY":" ","HOUSE_NO":"５９號","E_COORD97":174256.35999999999,"N_COORD97":2543686.5,"ADDRESS":"長興二街５９號","OBJECTID":524084},"geometry":{"x":174256.3600000022,"y":2543686.5000000019}},{"attributes":{"ID":524112,"DIS_CODE":0,"TOWNNAME":"仁德區","LI":"仁義里","LIN":"6鄰","STREET":"仁義二街","SECT":" ","MAREA":" ","LANE":" ","ALLEY":" ","HOUSE_NO":"２５號","E_COORD97":173793.34,"N_COORD97":2541181.0099999998,"ADDRESS":"仁義二街２５號","OBJECTID":524085},"geometry":{"x":173793.34000000078,"y":2541181.0100000016}},{"attributes":{"ID":524113,"DIS_CODE":0,"TOWNNAME":"仁德區","LI":"成功里","LIN":"6鄰","STREET":"保華路","SECT":" ","MAREA":" ","LANE":" ","ALLEY":" ","HOUSE_NO":"１０５號","E_COORD97":171187.29000000001,"N_COORD97":2540054.7400000002,"ADDRESS":"保華路１０５號","OBJECTID":524086},"geometry":{"x":171187.29000000004,"y":2540054.7400000002}},{"attributes":{"ID":524114,"DIS_CODE":0,"TOWNNAME":"仁德區","LI":"田厝里","LIN":"6鄰","STREET":"田厝三街","SECT":" ","MAREA":" ","LANE":" ","ALLEY":" ","HOUSE_NO":"９２號","E_COORD97":172616.88,"N_COORD97":2537417.75,"ADDRESS":"田厝三街９２號","OBJECTID":524087},"geometry":{"x":172616.88000000082,"y":2537417.75}},{"attributes":{"ID":524115,"DIS_CODE":0,"TOWNNAME":"仁德區","LI":"成功里","LIN":"6鄰","STREET":"保華路","SECT":" ","MAREA":" ","LANE":" ","ALLEY":" ","HOUSE_NO":"１０９號","E_COORD97":171177.79000000001,"N_COORD97":2540054.2400000002,"ADDRESS":"保華路１０９號","OBJECTID":524088},"geometry":{"x":171177.79000000004,"y":2540054.2400000021}},{"attributes":{"ID":524116,"DIS_CODE":0,"TOWNNAME":"仁德區","LI":"仁義里","LIN":"6鄰","STREET":"仁義二街","SECT":" ","MAREA":" ","LANE":" ","ALLEY":" ","HOUSE_NO":"９號","E_COORD97":173756.97,"N_COORD97":2541171.02,"ADDRESS":"仁義二街９號","OBJECTID":524089},"geometry":{"x":173756.97000000067,"y":2541171.0199999996}},{"attributes":{"ID":524117,"DIS_CODE":0,"TOWNNAME":"中西區","LI":"文賢里","LIN":"6鄰","STREET":"西和路","SECT":" ","MAREA":" ","LANE":" ","ALLEY":" ","HOUSE_NO":"２１５號","E_COORD97":167099.14000000001,"N_COORD97":2544761.5099999998,"ADDRESS":"西和路２１５號","OBJECTID":524090},"geometry":{"x":167099.13999999966,"y":2544761.5099999998}},{"attributes":{"ID":524118,"DIS_CODE":0,"TOWNNAME":"善化區","LI":"坐駕里","LIN":"6鄰","STREET":"建國路","SECT":" ","MAREA":" ","LANE":" ","ALLEY":" ","HOUSE_NO":"１６５號","E_COORD97":177951.32000000001,"N_COORD97":2559028.0299999998,"ADDRESS":"建國路１６５號","OBJECTID":524091},"geometry":{"x":177951.3200000003,"y":2559028.0299999993}},{"attributes":{"ID":524119,"DIS_CODE":0,"TOWNNAME":"善化區","LI":"坐駕里","LIN":"6鄰","STREET":"建國路","SECT":" ","MAREA":" ","LANE":" ","ALLEY":" ","HOUSE_NO":"１２５號","E_COORD97":177968.70000000001,"N_COORD97":2558919.0299999998,"ADDRESS":"建國路１２５號","OBJECTID":524092},"geometry":{"x":177968.70000000112,"y":2558919.0299999993}},{"attributes":{"ID":524120,"DIS_CODE":0,"TOWNNAME":"善化區","LI":"北關里","LIN":"6鄰","STREET":"中山路","SECT":" ","MAREA":" ","LANE":" ","ALLEY":" ","HOUSE_NO":"４９８號之１","E_COORD97":177207.12,"N_COORD97":2559143.3900000001,"ADDRESS":"中山路４９８號之１","OBJECTID":524093},"geometry":{"x":177207.12000000011,"y":2559143.3900000043}},{"attributes":{"ID":524121,"DIS_CODE":0,"TOWNNAME":"善化區","LI":"北關里","LIN":"6鄰","STREET":"中山路","SECT":" ","MAREA":" ","LANE":" ","ALLEY":" ","HOUSE_NO":"４９８號之２","E_COORD97":177211.75,"N_COORD97":2559142.7400000002,"ADDRESS":"中山路４９８號之２","OBJECTID":524094},"geometry":{"x":177211.75000000093,"y":2559142.7400000002}},{"attributes":{"ID":524122,"DIS_CODE":0,"TOWNNAME":"善化區","LI":"坐駕里","LIN":"6鄰","STREET":"民權路","SECT":" ","MAREA":" ","LANE":" ","ALLEY":" ","HOUSE_NO":"２８２號","E_COORD97":177932.32999999999,"N_COORD97":2558971.6800000002,"ADDRESS":"民權路２８２號","OBJECTID":524095},"geometry":{"x":177932.33000000007,"y":2558971.6800000016}},{"attributes":{"ID":524123,"DIS_CODE":0,"TOWNNAME":"善化區","LI":"坐駕里","LIN":"6鄰","STREET":"建國路","SECT":" ","MAREA":" ","LANE":" ","ALLEY":" ","HOUSE_NO":"１１５號","E_COORD97":177961.45000000001,"N_COORD97":2558894.4500000002,"ADDRESS":"建國路１１５號","OBJECTID":524096},"geometry":{"x":177961.45000000112,"y":2558894.4500000011}},{"attributes":{"ID":524124,"DIS_CODE":0,"TOWNNAME":"中西區","LI":"郡西里","LIN":"6鄰","STREET":"大智街","SECT":" ","MAREA":" ","LANE":" ","ALLEY":" ","HOUSE_NO":"１１３號","E_COORD97":167274.79999999999,"N_COORD97":2543342.73,"ADDRESS":"大智街１１３號","OBJECTID":524097},"geometry":{"x":167274.79999999981,"y":2543342.7300000023}},{"attributes":{"ID":524125,"DIS_CODE":0,"TOWNNAME":"中西區","LI":"郡西里","LIN":"6鄰","STREET":"大智街","SECT":" ","MAREA":" ","LANE":" ","ALLEY":" ","HOUSE_NO":"１１５號","E_COORD97":167274,"N_COORD97":2543338.73,"ADDRESS":"大智街１１５號","OBJECTID":524098},"geometry":{"x":167274,"y":2543338.7300000023}},{"attributes":{"ID":524126,"DIS_CODE":0,"TOWNNAME":"中西區","LI":"郡西里","LIN":"6鄰","STREET":"大智街","SECT":" ","MAREA":" ","LANE":" ","ALLEY":" ","HOUSE_NO":"１１７號","E_COORD97":167273.82000000001,"N_COORD97":2543334.3599999999,"ADDRESS":"大智街１１７號","OBJECTID":524099},"geometry":{"x":167273.8200000003,"y":2543334.3600000013}},{"attributes":{"ID":524127,"DIS_CODE":0,"TOWNNAME":"中西區","LI":"郡西里","LIN":"6鄰","STREET":"大智街","SECT":" ","MAREA":" ","LANE":" ","ALLEY":" ","HOUSE_NO":"１１９號","E_COORD97":167271.32999999999,"N_COORD97":2543331.0699999998,"ADDRESS":"大智街１１９號","OBJECTID":524100},"geometry":{"x":167271.33000000007,"y":2543331.0700000003}},{"attributes":{"ID":524128,"DIS_CODE":0,"TOWNNAME":"中西區","LI":"郡西里","LIN":"6鄰","STREET":"大智街","SECT":" ","MAREA":" ","LANE":" ","ALLEY":" ","HOUSE_NO":"１２１號","E_COORD97":167270.70000000001,"N_COORD97":2543327.4199999999,"ADDRESS":"大智街１２１號","OBJECTID":524101},"geometry":{"x":167270.70000000019,"y":2543327.4200000018}},{"attributes":{"ID":524129,"DIS_CODE":0,"TOWNNAME":"中西區","LI":"郡西里","LIN":"6鄰","STREET":"大智街","SECT":" ","MAREA":" ","LANE":" ","ALLEY":" ","HOUSE_NO":"１２３號","E_COORD97":167270.17000000001,"N_COORD97":2543323.1400000001,"ADDRESS":"大智街１２３號","OBJECTID":524102},"geometry":{"x":167270.17000000086,"y":2543323.1400000025}},{"attributes":{"ID":524130,"DIS_CODE":0,"TOWNNAME":"中西區","LI":"郡西里","LIN":"6鄰","STREET":"大智街","SECT":" ","MAREA":" ","LANE":" ","ALLEY":" ","HOUSE_NO":"１２５號","E_COORD97":167269.54000000001,"N_COORD97":2543319.8500000001,"ADDRESS":"大智街１２５號","OBJECTID":524103},"geometry":{"x":167269.54000000097,"y":2543319.8500000034}},{"attributes":{"ID":524131,"DIS_CODE":0,"TOWNNAME":"中西區","LI":"郡西里","LIN":"6鄰","STREET":"大智街","SECT":" ","MAREA":" ","LANE":" ","ALLEY":" ","HOUSE_NO":"１２７號","E_COORD97":167269.19,"N_COORD97":2543316.2000000002,"ADDRESS":"大智街１２７號","OBJECTID":524104},"geometry":{"x":167269.19000000041,"y":2543316.1999999993}},{"attributes":{"ID":524132,"DIS_CODE":0,"TOWNNAME":"中西區","LI":"郡西里","LIN":"6鄰","STREET":"大勇街","SECT":" ","MAREA":" ","LANE":" ","ALLEY":" ","HOUSE_NO":"６９號","E_COORD97":167328.06,"N_COORD97":2543372.3599999999,"ADDRESS":"大勇街６９號","OBJECTID":524105},"geometry":{"x":167328.06000000052,"y":2543372.3599999994}},{"attributes":{"ID":524133,"DIS_CODE":0,"TOWNNAME":"中西區","LI":"郡西里","LIN":"6鄰","STREET":"大勇街","SECT":" ","MAREA":" ","LANE":" ","ALLEY":" ","HOUSE_NO":"７１號","E_COORD97":167322.17999999999,"N_COORD97":2543373.8799999999,"ADDRESS":"大勇街７１號","OBJECTID":524106},"geometry":{"x":167322.18000000063,"y":2543373.8800000008}},{"attributes":{"ID":524134,"DIS_CODE":0,"TOWNNAME":"中西區","LI":"郡西里","LIN":"6鄰","STREET":"大勇街","SECT":" ","MAREA":" ","LANE":" ","ALLEY":" ","HOUSE_NO":"７３號","E_COORD97":167316.48000000001,"N_COORD97":2543375.2999999998,"ADDRESS":"大勇街７３號","OBJECTID":524107},"geometry":{"x":167316.48000000045,"y":2543375.2999999989}},{"attributes":{"ID":524135,"DIS_CODE":0,"TOWNNAME":"中西區","LI":"郡西里","LIN":"6鄰","STREET":"大勇街","SECT":" ","MAREA":" ","LANE":" ","ALLEY":" ","HOUSE_NO":"７７號","E_COORD97":167311.75,"N_COORD97":2543376.1899999999,"ADDRESS":"大勇街７７號","OBJECTID":524108},"geometry":{"x":167311.75000000093,"y":2543376.1900000013}},{"attributes":{"ID":524136,"DIS_CODE":0,"TOWNNAME":"中西區","LI":"郡西里","LIN":"6鄰","STREET":"大勇街","SECT":" ","MAREA":" ","LANE":" ","ALLEY":" ","HOUSE_NO":"７９號","E_COORD97":167306.62,"N_COORD97":2543377.1699999999,"ADDRESS":"大勇街７９號","OBJECTID":524109},"geometry":{"x":167306.62000000011,"y":2543377.1699999999}},{"attributes":{"ID":524137,"DIS_CODE":0,"TOWNNAME":"中西區","LI":"郡西里","LIN":"6鄰","STREET":"大勇街","SECT":" ","MAREA":" ","LANE":" ","ALLEY":" ","HOUSE_NO":"８１號","E_COORD97":167301.35999999999,"N_COORD97":2543377.8900000001,"ADDRESS":"大勇街８１號","OBJECTID":524110},"geometry":{"x":167301.36000000127,"y":2543377.8899999987}},{"attributes":{"ID":524138,"DIS_CODE":0,"TOWNNAME":"中西區","LI":"郡西里","LIN":"6鄰","STREET":"大勇街","SECT":" ","MAREA":" ","LANE":" ","ALLEY":" ","HOUSE_NO":"８３號","E_COORD97":167296.01999999999,"N_COORD97":2543380.3799999999,"ADDRESS":"大勇街８３號","OBJECTID":524111},"geometry":{"x":167296.02000000048,"y":2543380.3800000008}},{"attributes":{"ID":524139,"DIS_CODE":0,"TOWNNAME":"中西區","LI":"郡西里","LIN":"6鄰","STREET":"大勇街","SECT":" ","MAREA":" ","LANE":" ","ALLEY":" ","HOUSE_NO":"８５號","E_COORD97":167292,"N_COORD97":2543380.9100000001,"ADDRESS":"大勇街８５號","OBJECTID":524112},"geometry":{"x":167292,"y":2543380.9100000039}},{"attributes":{"ID":524140,"DIS_CODE":0,"TOWNNAME":"中西區","LI":"郡西里","LIN":"6鄰","STREET":"大勇街","SECT":" ","MAREA":" ","LANE":" ","ALLEY":" ","HOUSE_NO":"８７號","E_COORD97":167288.89000000001,"N_COORD97":2543381.3599999999,"ADDRESS":"大勇街８７號","OBJECTID":524113},"geometry":{"x":167288.8900000006,"y":2543381.3600000013}},{"attributes":{"ID":524141,"DIS_CODE":0,"TOWNNAME":"中西區","LI":"郡西里","LIN":"6鄰","STREET":"大勇街","SECT":" ","MAREA":" ","LANE":" ","ALLEY":" ","HOUSE_NO":"８９號","E_COORD97":167286.92000000001,"N_COORD97":2543381.6299999999,"ADDRESS":"大勇街８９號","OBJECTID":524114},"geometry":{"x":167286.92000000086,"y":2543381.6300000027}},{"attributes":{"ID":524142,"DIS_CODE":0,"TOWNNAME":"中西區","LI":"郡西里","LIN":"6鄰","STREET":"大勇街","SECT":" ","MAREA":" ","LANE":" ","ALLEY":" ","HOUSE_NO":"９３號","E_COORD97":167285.14000000001,"N_COORD97":2543382.0699999998,"ADDRESS":"大勇街９３號","OBJECTID":524115},"geometry":{"x":167285.1400000006,"y":2543382.0700000003}},{"attributes":{"ID":524143,"DIS_CODE":0,"TOWNNAME":"中西區","LI":"郡西里","LIN":"6鄰","STREET":"大智街","SECT":" ","MAREA":" ","LANE":" ","ALLEY":" ","HOUSE_NO":"１０１號之１","E_COORD97":167286.39000000001,"N_COORD97":2543368.7999999998,"ADDRESS":"大智街１０１號之１","OBJECTID":524116},"geometry":{"x":167286.39000000153,"y":2543368.8000000045}},{"attributes":{"ID":524144,"DIS_CODE":0,"TOWNNAME":"中西區","LI":"郡西里","LIN":"6鄰","STREET":"大智街","SECT":" ","MAREA":" ","LANE":" ","ALLEY":" ","HOUSE_NO":"１０１號之４","E_COORD97":167301.45000000001,"N_COORD97":2543366.6699999999,"ADDRESS":"大智街１０１號之４","OBJECTID":524117},"geometry":{"x":167301.45000000019,"y":2543366.6700000018}},{"attributes":{"ID":524145,"DIS_CODE":0,"TOWNNAME":"中西區","LI":"郡西里","LIN":"6鄰","STREET":"大智街","SECT":" ","MAREA":" ","LANE":" ","ALLEY":" ","HOUSE_NO":"１０１號之８","E_COORD97":167290.04000000001,"N_COORD97":2543360.9700000002,"ADDRESS":"大智街１０１號之８","OBJECTID":524118},"geometry":{"x":167290.04000000097,"y":2543360.9700000025}},{"attributes":{"ID":524146,"DIS_CODE":0,"TOWNNAME":"中西區","LI":"郡西里","LIN":"6鄰","STREET":"大智街","SECT":" ","MAREA":" ","LANE":" ","ALLEY":" ","HOUSE_NO":"１０３號","E_COORD97":167277.39000000001,"N_COORD97":2543362.5099999998,"ADDRESS":"大智街１０３號","OBJECTID":524119},"geometry":{"x":167277.38999999966,"y":2543362.5099999998}},{"attributes":{"ID":524147,"DIS_CODE":0,"TOWNNAME":"中西區","LI":"郡西里","LIN":"6鄰","STREET":"大智街","SECT":" ","MAREA":" ","LANE":" ","ALLEY":" ","HOUSE_NO":"９７號","E_COORD97":167278.64000000001,"N_COORD97":2543379.6699999999,"ADDRESS":"大智街９７號","OBJECTID":524120},"geometry":{"x":167278.6400000006,"y":2543379.6700000018}},{"attributes":{"ID":524148,"DIS_CODE":0,"TOWNNAME":"中西區","LI":"郡西里","LIN":"6鄰","STREET":"大智街","SECT":" ","MAREA":" ","LANE":" ","ALLEY":" ","HOUSE_NO":"９９號","E_COORD97":167277.82999999999,"N_COORD97":2543372.1899999999,"ADDRESS":"大智街９９號","OBJECTID":524121},"geometry":{"x":167277.83000000101,"y":2543372.1900000013}},{"attributes":{"ID":524149,"DIS_CODE":0,"TOWNNAME":"中西區","LI":"水仙里","LIN":"6鄰","STREET":"忠明街","SECT":" ","MAREA":" ","LANE":" ","ALLEY":" ","HOUSE_NO":"３號","E_COORD97":167694.37,"N_COORD97":2544062.21,"ADDRESS":"忠明街３號","OBJECTID":524122},"geometry":{"x":167694.37000000104,"y":2544062.2100000028}},{"attributes":{"ID":524150,"DIS_CODE":0,"TOWNNAME":"中西區","LI":"水仙里","LIN":"6鄰","STREET":"忠明街","SECT":" ","MAREA":" ","LANE":" ","ALLEY":" ","HOUSE_NO":"５號","E_COORD97":167699.75,"N_COORD97":2544061.1699999999,"ADDRESS":"忠明街５號","OBJECTID":524123},"geometry":{"x":167699.75000000186,"y":2544061.1700000018}},{"attributes":{"ID":524151,"DIS_CODE":0,"TOWNNAME":"新市區","LI":"港墘里","LIN":"6鄰","STREET":"興業路","SECT":" ","MAREA":" ","LANE":" ","ALLEY":" ","HOUSE_NO":"１１號","E_COORD97":178224.42999999999,"N_COORD97":2553350.75,"ADDRESS":"興業路１１號","OBJECTID":524124},"geometry":{"x":178224.4299999997,"y":2553350.7500000019}},{"attributes":{"ID":524152,"DIS_CODE":0,"TOWNNAME":"白河區","LI":"白河里","LIN":"6鄰","STREET":"中山路","SECT":" ","MAREA":" ","LANE":" ","ALLEY":" ","HOUSE_NO":"５８號","E_COORD97":190246.23999999999,"N_COORD97":2583022.0099999998,"ADDRESS":"中山路５８號","OBJECTID":524125},"geometry":{"x":190246.24000000115,"y":2583022.0099999998}},{"attributes":{"ID":524153,"DIS_CODE":0,"TOWNNAME":"南區","LI":"文華里","LIN":"20鄰","STREET":"文南路","SECT":" ","MAREA":" ","LANE":" ","ALLEY":" ","HOUSE_NO":"２７９號","E_COORD97":166948.72,"N_COORD97":2543022.1499999999,"ADDRESS":"文南路２７９號","OBJECTID":524126},"geometry":{"x":166948.7200000016,"y":2543022.1500000004}},{"attributes":{"ID":524154,"DIS_CODE":0,"TOWNNAME":"南區","LI":"文華里","LIN":"20鄰","STREET":"文南路","SECT":" ","MAREA":" ","LANE":" ","ALLEY":" ","HOUSE_NO":"２８１號","E_COORD97":166948.98999999999,"N_COORD97":2543026.46,"ADDRESS":"文南路２８１號","OBJECTID":524127},"geometry":{"x":166948.99000000209,"y":2543026.4600000028}},{"attributes":{"ID":524155,"DIS_CODE":0,"TOWNNAME":"南區","LI":"文華里","LIN":"20鄰","STREET":"文南路","SECT":" ","MAREA":" ","LANE":" ","ALLEY":" ","HOUSE_NO":"２８３號","E_COORD97":166949.44,"N_COORD97":2543031.0299999998,"ADDRESS":"文南路２８３號","OBJECTID":524128},"geometry":{"x":166949.43999999948,"y":2543031.0300000012}},{"attributes":{"ID":524156,"DIS_CODE":0,"TOWNNAME":"新市區","LI":"港墘里","LIN":"6鄰","STREET":"民族路","SECT":" ","MAREA":" ","LANE":" ","ALLEY":" ","HOUSE_NO":"１３９之１號","E_COORD97":178219.04000000001,"N_COORD97":2553478.0499999998,"ADDRESS":"民族路１３９之１號","OBJECTID":524129},"geometry":{"x":178219.04000000004,"y":2553478.0500000026}},{"attributes":{"ID":524157,"DIS_CODE":0,"TOWNNAME":"新市區","LI":"港墘里","LIN":"6鄰","STREET":"國際路","SECT":" ","MAREA":" ","LANE":" ","ALLEY":" ","HOUSE_NO":"２之１號","E_COORD97":178520.64999999999,"N_COORD97":2553257.7999999998,"ADDRESS":"國際路２之１號","OBJECTID":524130},"geometry":{"x":178520.65000000037,"y":2553257.8000000007}},{"attributes":{"ID":524158,"DIS_CODE":0,"TOWNNAME":"新市區","LI":"永就里","LIN":"6鄰","STREET":"中華路","SECT":" ","MAREA":" ","LANE":" ","ALLEY":" ","HOUSE_NO":"５５號","E_COORD97":177722.95999999999,"N_COORD97":2551587,"ADDRESS":"中華路５５號","OBJECTID":524131},"geometry":{"x":177722.95999999996,"y":2551587}},{"attributes":{"ID":524159,"DIS_CODE":0,"TOWNNAME":"新市區","LI":"永就里","LIN":"6鄰","STREET":"中華路","SECT":" ","MAREA":" ","LANE":" ","ALLEY":" ","HOUSE_NO":"１８０之２號","E_COORD97":177774.84,"N_COORD97":2551414.0499999998,"ADDRESS":"中華路１８０之２號","OBJECTID":524132},"geometry":{"x":177774.83999999985,"y":2551414.0500000007}},{"attributes":{"ID":524160,"DIS_CODE":0,"TOWNNAME":"南區","LI":"文華里","LIN":"24鄰","STREET":"文南二街","SECT":" ","MAREA":" ","LANE":" ","ALLEY":" ","HOUSE_NO":"４２號","E_COORD97":166857.5,"N_COORD97":2542931.6699999999,"ADDRESS":"文南二街４２號","OBJECTID":524133},"geometry":{"x":166857.50000000093,"y":2542931.6700000018}},{"attributes":{"ID":524161,"DIS_CODE":0,"TOWNNAME":"南區","LI":"文華里","LIN":"24鄰","STREET":"文南二街","SECT":" ","MAREA":" ","LANE":" ","ALLEY":" ","HOUSE_NO":"４４號","E_COORD97":166854,"N_COORD97":2542928.8199999998,"ADDRESS":"文南二街４４號","OBJECTID":524134},"geometry":{"x":166854.00000000093,"y":2542928.8200000022}},{"attributes":{"ID":524162,"DIS_CODE":0,"TOWNNAME":"南區","LI":"文華里","LIN":"24鄰","STREET":"文南二街","SECT":" ","MAREA":" ","LANE":" ","ALLEY":" ","HOUSE_NO":"４６號","E_COORD97":166849.69,"N_COORD97":2542926.1299999999,"ADDRESS":"文南二街４６號","OBJECTID":524135},"geometry":{"x":166849.69000000134,"y":2542926.129999999}},{"attributes":{"ID":524163,"DIS_CODE":0,"TOWNNAME":"南區","LI":"文華里","LIN":"24鄰","STREET":"文南二街","SECT":" ","MAREA":" ","LANE":" ","ALLEY":" ","HOUSE_NO":"４８號","E_COORD97":166846.81,"N_COORD97":2542923.2599999998,"ADDRESS":"文南二街４８號","OBJECTID":524136},"geometry":{"x":166846.81000000052,"y":2542923.2599999998}},{"attributes":{"ID":524164,"DIS_CODE":0,"TOWNNAME":"新市區","LI":"港墘里","LIN":"6鄰","STREET":"中山路","SECT":" ","MAREA":" ","LANE":" ","ALLEY":" ","HOUSE_NO":"７６號","E_COORD97":178349.73000000001,"N_COORD97":2552991.25,"ADDRESS":"中山路７６號","OBJECTID":524137},"geometry":{"x":178349.73000000138,"y":2552991.2500000019}},{"attributes":{"ID":524165,"DIS_CODE":0,"TOWNNAME":"新市區","LI":"港墘里","LIN":"6鄰","STREET":"興業路","SECT":" ","MAREA":" ","LANE":" ","ALLEY":" ","HOUSE_NO":"２號","E_COORD97":178461.37,"N_COORD97":2553281.25,"ADDRESS":"興業路２號","OBJECTID":524138},"geometry":{"x":178461.37000000011,"y":2553281.25}},{"attributes":{"ID":524166,"DIS_CODE":0,"TOWNNAME":"東區","LI":"崇善里","LIN":"6鄰","STREET":"崇善六街","SECT":" ","MAREA":" ","LANE":" ","ALLEY":" ","HOUSE_NO":"１２號","E_COORD97":171064.92999999999,"N_COORD97":2541497.6000000001,"ADDRESS":"崇善六街１２號","OBJECTID":524139},"geometry":{"x":171064.93000000063,"y":2541497.6000000034}},{"attributes":{"ID":524167,"DIS_CODE":0,"TOWNNAME":"東區","LI":"崇善里","LIN":"6鄰","STREET":"崇善六街","SECT":" ","MAREA":" ","LANE":" ","ALLEY":" ","HOUSE_NO":"２９號","E_COORD97":171087.64999999999,"N_COORD97":2541534.5099999998,"ADDRESS":"崇善六街２９號","OBJECTID":524140},"geometry":{"x":171087.64999999944,"y":2541534.5099999998}},{"attributes":{"ID":524168,"DIS_CODE":0,"TOWNNAME":"東區","LI":"崇善里","LIN":"6鄰","STREET":"崇善六街","SECT":" ","MAREA":" ","LANE":" ","ALLEY":" ","HOUSE_NO":"３１號","E_COORD97":171092.84,"N_COORD97":2541532.7799999998,"ADDRESS":"崇善六街３１號","OBJECTID":524141},"geometry":{"x":171092.84000000078,"y":2541532.7799999993}},{"attributes":{"ID":524169,"DIS_CODE":0,"TOWNNAME":"東區","LI":"崇善里","LIN":"6鄰","STREET":"崇善六街","SECT":" ","MAREA":" ","LANE":" ","ALLEY":" ","HOUSE_NO":"４２號","E_COORD97":171126.85999999999,"N_COORD97":2541525.8700000001,"ADDRESS":"崇善六街４２號","OBJECTID":524142},"geometry":{"x":171126.8599999994,"y":2541525.870000001}},{"attributes":{"ID":524170,"DIS_CODE":0,"TOWNNAME":"東區","LI":"崇善里","LIN":"6鄰","STREET":"崇善六街","SECT":" ","MAREA":" ","LANE":" ","ALLEY":" ","HOUSE_NO":"４６號","E_COORD97":171130.60999999999,"N_COORD97":2541528.1699999999,"ADDRESS":"崇善六街４６號","OBJECTID":524143},"geometry":{"x":171130.61000000127,"y":2541528.1700000018}},{"attributes":{"ID":524171,"DIS_CODE":0,"TOWNNAME":"東區","LI":"崇善里","LIN":"6鄰","STREET":"崇善六街","SECT":" ","MAREA":" ","LANE":" ","ALLEY":" ","HOUSE_NO":"５０號","E_COORD97":171138.67999999999,"N_COORD97":2541532.2000000002,"ADDRESS":"崇善六街５０號","OBJECTID":524144},"geometry":{"x":171138.6799999997,"y":2541532.1999999993}},{"attributes":{"ID":524172,"DIS_CODE":0,"TOWNNAME":"東區","LI":"崇善里","LIN":"6鄰","STREET":"崇善六街","SECT":" ","MAREA":" ","LANE":" ","ALLEY":" ","HOUSE_NO":"５４號","E_COORD97":171146.75,"N_COORD97":2541536.23,"ADDRESS":"崇善六街５４號","OBJECTID":524145},"geometry":{"x":171146.75000000093,"y":2541536.2300000023}},{"attributes":{"ID":524173,"DIS_CODE":0,"TOWNNAME":"東區","LI":"崇善里","LIN":"6鄰","STREET":"崇善六街","SECT":" ","MAREA":" ","LANE":" ","ALLEY":" ","HOUSE_NO":"５７號","E_COORD97":171161.07999999999,"N_COORD97":2541567.2999999998,"ADDRESS":"崇善六街５７號","OBJECTID":524146},"geometry":{"x":171161.08000000101,"y":2541567.3000000007}},{"attributes":{"ID":524174,"DIS_CODE":0,"TOWNNAME":"東區","LI":"崇善里","LIN":"6鄰","STREET":"崇善六街","SECT":" ","MAREA":" ","LANE":" ","ALLEY":" ","HOUSE_NO":"５８號","E_COORD97":171154.54000000001,"N_COORD97":2541539.6899999999,"ADDRESS":"崇善六街５８號","OBJECTID":524147},"geometry":{"x":171154.54000000097,"y":2541539.6899999995}},{"attributes":{"ID":524175,"DIS_CODE":0,"TOWNNAME":"東區","LI":"崇善里","LIN":"6鄰","STREET":"崇善六街","SECT":" ","MAREA":" ","LANE":" ","ALLEY":" ","HOUSE_NO":"６０號","E_COORD97":171159.14999999999,"N_COORD97":2541542.2799999998,"ADDRESS":"崇善六街６０號","OBJECTID":524148},"geometry":{"x":171159.1500000013,"y":2541542.2799999993}},{"attributes":{"ID":524176,"DIS_CODE":0,"TOWNNAME":"東區","LI":"崇善里","LIN":"6鄰","STREET":"崇善六街","SECT":" ","MAREA":" ","LANE":" ","ALLEY":" ","HOUSE_NO":"６１號","E_COORD97":171171.23000000001,"N_COORD97":2541573.3300000001,"ADDRESS":"崇善六街６１號","OBJECTID":524149},"geometry":{"x":171171.23000000045,"y":2541573.3300000001}},{"attributes":{"ID":524177,"DIS_CODE":0,"TOWNNAME":"東區","LI":"崇善里","LIN":"6鄰","STREET":"崇善六街","SECT":" ","MAREA":" ","LANE":" ","ALLEY":" ","HOUSE_NO":"６２號","E_COORD97":171162.32000000001,"N_COORD97":2541544.2999999998,"ADDRESS":"崇善六街６２號","OBJECTID":524150},"geometry":{"x":171162.3200000003,"y":2541544.3000000007}},{"attributes":{"ID":524178,"DIS_CODE":0,"TOWNNAME":"東區","LI":"崇善里","LIN":"6鄰","STREET":"崇善六街","SECT":" ","MAREA":" ","LANE":" ","ALLEY":" ","HOUSE_NO":"６３號","E_COORD97":171176.17000000001,"N_COORD97":2541576.8900000001,"ADDRESS":"崇善六街６３號","OBJECTID":524151},"geometry":{"x":171176.16999999993,"y":2541576.8900000006}},{"attributes":{"ID":524179,"DIS_CODE":0,"TOWNNAME":"東區","LI":"崇善里","LIN":"6鄰","STREET":"崇善六街","SECT":" ","MAREA":" ","LANE":" ","ALLEY":" ","HOUSE_NO":"６４號","E_COORD97":171166.64999999999,"N_COORD97":2541546.6000000001,"ADDRESS":"崇善六街６４號","OBJECTID":524152},"geometry":{"x":171166.65000000037,"y":2541546.5999999996}},{"attributes":{"ID":524180,"DIS_CODE":0,"TOWNNAME":"東區","LI":"崇善里","LIN":"6鄰","STREET":"崇善六街","SECT":" ","MAREA":" ","LANE":" ","ALLEY":" ","HOUSE_NO":"６５號","E_COORD97":171181.10000000001,"N_COORD97":2541579.3599999999,"ADDRESS":"崇善六街６５號","OBJECTID":524153},"geometry":{"x":171181.10000000056,"y":2541579.3599999994}},{"attributes":{"ID":524181,"DIS_CODE":0,"TOWNNAME":"東區","LI":"崇善里","LIN":"6鄰","STREET":"崇善六街","SECT":" ","MAREA":" ","LANE":" ","ALLEY":" ","HOUSE_NO":"６６號","E_COORD97":171170.39000000001,"N_COORD97":2541548.3300000001,"ADDRESS":"崇善六街６６號","OBJECTID":524154},"geometry":{"x":171170.3900000006,"y":2541548.3300000019}},{"attributes":{"ID":524182,"DIS_CODE":0,"TOWNNAME":"東區","LI":"崇善里","LIN":"6鄰","STREET":"崇善六街","SECT":" ","MAREA":" ","LANE":" ","ALLEY":" ","HOUSE_NO":"６８號","E_COORD97":171174.14000000001,"N_COORD97":2541550.0600000001,"ADDRESS":"崇善六街６８號","OBJECTID":524155},"geometry":{"x":171174.1400000006,"y":2541550.0600000024}},{"attributes":{"ID":524183,"DIS_CODE":0,"TOWNNAME":"東區","LI":"崇善里","LIN":"6鄰","STREET":"崇善六街","SECT":" ","MAREA":" ","LANE":" ","ALLEY":" ","HOUSE_NO":"７０號","E_COORD97":171178.76000000001,"N_COORD97":2541552.0699999998,"ADDRESS":"崇善六街７０號","OBJECTID":524156},"geometry":{"x":171178.75999999978,"y":2541552.0700000003}},{"attributes":{"ID":524184,"DIS_CODE":0,"TOWNNAME":"東區","LI":"崇善里","LIN":"6鄰","STREET":"崇善六街","SECT":" ","MAREA":" ","LANE":" ","ALLEY":" ","HOUSE_NO":"７２號","E_COORD97":171181.92999999999,"N_COORD97":2541554.3799999999,"ADDRESS":"崇善六街７２號","OBJECTID":524157},"geometry":{"x":171181.93000000063,"y":2541554.379999999}},{"attributes":{"ID":524185,"DIS_CODE":0,"TOWNNAME":"東區","LI":"崇善里","LIN":"6鄰","STREET":"崇善六街","SECT":" ","MAREA":" ","LANE":" ","ALLEY":" ","HOUSE_NO":"７６號","E_COORD97":171191.44,"N_COORD97":2541556.9700000002,"ADDRESS":"崇善六街７６號","OBJECTID":524158},"geometry":{"x":171191.44000000134,"y":2541556.9700000044}},{"attributes":{"ID":524186,"DIS_CODE":0,"TOWNNAME":"東區","LI":"崇善里","LIN":"6鄰","STREET":"崇善六街","SECT":" ","MAREA":" ","LANE":" ","ALLEY":" ","HOUSE_NO":"７８號","E_COORD97":171195.76999999999,"N_COORD97":2541558.4100000001,"ADDRESS":"崇善六街７８號","OBJECTID":524159},"geometry":{"x":171195.76999999955,"y":2541558.410000002}},{"attributes":{"ID":524187,"DIS_CODE":0,"TOWNNAME":"東區","LI":"崇善里","LIN":"6鄰","STREET":"崇善六街","SECT":" ","MAREA":" ","LANE":" ","ALLEY":" ","HOUSE_NO":"６號","E_COORD97":171049.39000000001,"N_COORD97":2541484.2400000002,"ADDRESS":"崇善六街６號","OBJECTID":524160},"geometry":{"x":171049.38999999966,"y":2541484.2400000021}},{"attributes":{"ID":524188,"DIS_CODE":0,"TOWNNAME":"東區","LI":"東智里","LIN":"6鄰","STREET":"崇德路","SECT":" ","MAREA":" ","LANE":" ","ALLEY":" ","HOUSE_NO":"９６５號","E_COORD97":170797.04999999999,"N_COORD97":2540270.6400000001,"ADDRESS":"崇德路９６５號","OBJECTID":524161},"geometry":{"x":170797.05000000075,"y":2540270.6399999987}},{"attributes":{"ID":524189,"DIS_CODE":0,"TOWNNAME":"東區","LI":"東智里","LIN":"6鄰","STREET":"崇德路","SECT":" ","MAREA":" ","LANE":" ","ALLEY":" ","HOUSE_NO":"９５９號","E_COORD97":170797.51999999999,"N_COORD97":2540283.7400000002,"ADDRESS":"崇德路９５９號","OBJECTID":524162},"geometry":{"x":170797.51999999955,"y":2540283.7400000021}},{"attributes":{"ID":524190,"DIS_CODE":0,"TOWNNAME":"東區","LI":"東智里","LIN":"6鄰","STREET":"崇德路","SECT":" ","MAREA":" ","LANE":" ","ALLEY":" ","HOUSE_NO":"９６１號","E_COORD97":170798,"N_COORD97":2540278.8399999999,"ADDRESS":"崇德路９６１號","OBJECTID":524163},"geometry":{"x":170798,"y":2540278.8400000036}},{"attributes":{"ID":524191,"DIS_CODE":0,"TOWNNAME":"東區","LI":"東智里","LIN":"6鄰","STREET":"崇德路","SECT":" ","MAREA":" ","LANE":" ","ALLEY":" ","HOUSE_NO":"９６３號","E_COORD97":170797.20999999999,"N_COORD97":2540275.3700000001,"ADDRESS":"崇德路９６３號","OBJECTID":524164},"geometry":{"x":170797.21000000089,"y":2540275.370000001}},{"attributes":{"ID":524192,"DIS_CODE":0,"TOWNNAME":"東區","LI":"東智里","LIN":"6鄰","STREET":"崇德路","SECT":" ","MAREA":" ","LANE":" ","ALLEY":" ","HOUSE_NO":"９６７號","E_COORD97":170796.89000000001,"N_COORD97":2540266.6899999999,"ADDRESS":"崇德路９６７號","OBJECTID":524165},"geometry":{"x":170796.88999999966,"y":2540266.6900000013}},{"attributes":{"ID":524193,"DIS_CODE":0,"TOWNNAME":"東區","LI":"東智里","LIN":"6鄰","STREET":"崇德路","SECT":" ","MAREA":" ","LANE":" ","ALLEY":" ","HOUSE_NO":"９６９號","E_COORD97":170796.73000000001,"N_COORD97":2540263.0600000001,"ADDRESS":"崇德路９６９號","OBJECTID":524166},"geometry":{"x":170796.73000000045,"y":2540263.0600000005}},{"attributes":{"ID":524194,"DIS_CODE":0,"TOWNNAME":"東區","LI":"東智里","LIN":"6鄰","STREET":"崇德路","SECT":" ","MAREA":" ","LANE":" ","ALLEY":" ","HOUSE_NO":"９７１號","E_COORD97":170796.73000000001,"N_COORD97":2540258.1600000001,"ADDRESS":"崇德路９７１號","OBJECTID":524167},"geometry":{"x":170796.73000000045,"y":2540258.160000002}},{"attributes":{"ID":524195,"DIS_CODE":0,"TOWNNAME":"東區","LI":"東智里","LIN":"6鄰","STREET":"德東街","SECT":" ","MAREA":" ","LANE":" ","ALLEY":" ","HOUSE_NO":"１１號","E_COORD97":170823.60000000001,"N_COORD97":2540252.1600000001,"ADDRESS":"德東街１１號","OBJECTID":524168},"geometry":{"x":170823.60000000056,"y":2540252.1600000001}},{"attributes":{"ID":524196,"DIS_CODE":0,"TOWNNAME":"東區","LI":"東智里","LIN":"6鄰","STREET":"德東街","SECT":" ","MAREA":" ","LANE":" ","ALLEY":" ","HOUSE_NO":"１３號","E_COORD97":170829.01000000001,"N_COORD97":2540252.79,"ADDRESS":"德東街１３號","OBJECTID":524169},"geometry":{"x":170829.01000000071,"y":2540252.790000001}},{"attributes":{"ID":524197,"DIS_CODE":0,"TOWNNAME":"東區","LI":"東智里","LIN":"6鄰","STREET":"德東街","SECT":" ","MAREA":" ","LANE":" ","ALLEY":" ","HOUSE_NO":"３３號","E_COORD97":170895.81,"N_COORD97":2540251.98,"ADDRESS":"德東街３３號","OBJECTID":524170},"geometry":{"x":170895.80999999959,"y":2540251.9800000023}},{"attributes":{"ID":524198,"DIS_CODE":0,"TOWNNAME":"東區","LI":"東智里","LIN":"6鄰","STREET":"德東街","SECT":" ","MAREA":" ","LANE":" ","ALLEY":" ","HOUSE_NO":"３５號","E_COORD97":170901.97,"N_COORD97":2540251.1899999999,"ADDRESS":"德東街３５號","OBJECTID":524171},"geometry":{"x":170901.97000000067,"y":2540251.1899999995}},{"attributes":{"ID":524199,"DIS_CODE":0,"TOWNNAME":"東區","LI":"東智里","LIN":"6鄰","STREET":"德東街","SECT":" ","MAREA":" ","LANE":" ","ALLEY":" ","HOUSE_NO":"３７號","E_COORD97":170907.35000000001,"N_COORD97":2540251.1899999999,"ADDRESS":"德東街３７號","OBJECTID":524172},"geometry":{"x":170907.34999999963,"y":2540251.1899999995}},{"attributes":{"ID":524200,"DIS_CODE":0,"TOWNNAME":"東區","LI":"東智里","LIN":"6鄰","STREET":"德東街","SECT":" ","MAREA":" ","LANE":" ","ALLEY":" ","HOUSE_NO":"４號","E_COORD97":170814.59,"N_COORD97":2540235.8100000001,"ADDRESS":"德東街４號","OBJECTID":524173},"geometry":{"x":170814.59000000171,"y":2540235.8100000042}},{"attributes":{"ID":524201,"DIS_CODE":0,"TOWNNAME":"東區","LI":"東智里","LIN":"6鄰","STREET":"德東街","SECT":" ","MAREA":" ","LANE":" ","ALLEY":" ","HOUSE_NO":"６４號","E_COORD97":170955.51000000001,"N_COORD97":2540233.0899999999,"ADDRESS":"德東街６４號","OBJECTID":524174},"geometry":{"x":170955.50999999978,"y":2540233.0900000036}},{"attributes":{"ID":524202,"DIS_CODE":0,"TOWNNAME":"東區","LI":"東智里","LIN":"6鄰","STREET":"德東街","SECT":" ","MAREA":" ","LANE":" ","ALLEY":" ","HOUSE_NO":"６９號","E_COORD97":170976.69,"N_COORD97":2540254.6699999999,"ADDRESS":"德東街６９號","OBJECTID":524175},"geometry":{"x":170976.69000000041,"y":2540254.6699999999}},{"attributes":{"ID":524203,"DIS_CODE":0,"TOWNNAME":"東區","LI":"東智里","LIN":"6鄰","STREET":"德東街","SECT":" ","MAREA":" ","LANE":" ","ALLEY":" ","HOUSE_NO":"６號","E_COORD97":170818.23000000001,"N_COORD97":2540235.9700000002,"ADDRESS":"德東街６號","OBJECTID":524176},"geometry":{"x":170818.23000000138,"y":2540235.9700000025}},{"attributes":{"ID":524204,"DIS_CODE":0,"TOWNNAME":"東區","LI":"東智里","LIN":"6鄰","STREET":"德東街","SECT":" ","MAREA":" ","LANE":" ","ALLEY":" ","HOUSE_NO":"７０號","E_COORD97":170969.26000000001,"N_COORD97":2540234.04,"ADDRESS":"德東街７０號","OBJECTID":524177},"geometry":{"x":170969.25999999885,"y":2540234.040000001}},{"attributes":{"ID":524205,"DIS_CODE":0,"TOWNNAME":"東區","LI":"東智里","LIN":"6鄰","STREET":"德東街","SECT":" ","MAREA":" ","LANE":" ","ALLEY":" ","HOUSE_NO":"７１號","E_COORD97":170981.28,"N_COORD97":2540255.1400000001,"ADDRESS":"德東街７１號","OBJECTID":524178},"geometry":{"x":170981.28000000026,"y":2540255.1400000025}},{"attributes":{"ID":524206,"DIS_CODE":0,"TOWNNAME":"東區","LI":"東智里","LIN":"6鄰","STREET":"德東街","SECT":" ","MAREA":" ","LANE":" ","ALLEY":" ","HOUSE_NO":"７２號","E_COORD97":170974.32000000001,"N_COORD97":2540234.3500000001,"ADDRESS":"德東街７２號","OBJECTID":524179},"geometry":{"x":170974.3200000003,"y":2540234.3500000034}},{"attributes":{"ID":524207,"DIS_CODE":0,"TOWNNAME":"東區","LI":"東智里","LIN":"6鄰","STREET":"德東街","SECT":" ","MAREA":" ","LANE":" ","ALLEY":" ","HOUSE_NO":"７５號","E_COORD97":170989.64999999999,"N_COORD97":2540257.8199999998,"ADDRESS":"德東街７５號","OBJECTID":524180},"geometry":{"x":170989.6500000013,"y":2540257.8200000003}},{"attributes":{"ID":524208,"DIS_CODE":0,"TOWNNAME":"東區","LI":"東智里","LIN":"6鄰","STREET":"德東街","SECT":" ","MAREA":" ","LANE":" ","ALLEY":" ","HOUSE_NO":"７６號","E_COORD97":170986.48999999999,"N_COORD97":2540235.7799999998,"ADDRESS":"德東街７６號","OBJECTID":524181},"geometry":{"x":170986.49000000022,"y":2540235.7800000012}},{"attributes":{"ID":524209,"DIS_CODE":0,"TOWNNAME":"東區","LI":"東智里","LIN":"6鄰","STREET":"德東街","SECT":" ","MAREA":" ","LANE":" ","ALLEY":" ","HOUSE_NO":"８６號","E_COORD97":171009.25,"N_COORD97":2540237.8300000001,"ADDRESS":"德東街８６號","OBJECTID":524182},"geometry":{"x":171009.25000000093,"y":2540237.8300000001}},{"attributes":{"ID":524210,"DIS_CODE":0,"TOWNNAME":"東區","LI":"東智里","LIN":"6鄰","STREET":"德東街","SECT":" ","MAREA":" ","LANE":" ","ALLEY":" ","HOUSE_NO":"８號","E_COORD97":170822.64999999999,"N_COORD97":2540236.29,"ADDRESS":"德東街８號","OBJECTID":524183},"geometry":{"x":170822.65000000037,"y":2540236.2899999991}},{"attributes":{"ID":524211,"DIS_CODE":0,"TOWNNAME":"東區","LI":"東智里","LIN":"6鄰","STREET":"德東街","SECT":" ","MAREA":" ","LANE":" ","ALLEY":" ","HOUSE_NO":"９號","E_COORD97":170820.60000000001,"N_COORD97":2540254.2200000002,"ADDRESS":"德東街９號","OBJECTID":524184},"geometry":{"x":170820.59999999963,"y":2540254.2200000025}},{"attributes":{"ID":524212,"DIS_CODE":0,"TOWNNAME":"永康區","LI":"大橋里","LIN":"6鄰","STREET":"大橋五街","SECT":" ","MAREA":" ","LANE":" ","ALLEY":" ","HOUSE_NO":"７８號","E_COORD97":170905.25,"N_COORD97":2546920.3300000001,"ADDRESS":"大橋五街７８號","OBJECTID":524185},"geometry":{"x":170905.25000000186,"y":2546920.3300000001}},{"attributes":{"ID":524213,"DIS_CODE":0,"TOWNNAME":"永康區","LI":"大橋里","LIN":"6鄰","STREET":"大橋五街","SECT":" ","MAREA":" ","LANE":" ","ALLEY":" ","HOUSE_NO":"８６號","E_COORD97":170914.66,"N_COORD97":2546934.0899999999,"ADDRESS":"大橋五街８６號","OBJECTID":524186},"geometry":{"x":170914.66000000108,"y":2546934.0900000017}},{"attributes":{"ID":524214,"DIS_CODE":0,"TOWNNAME":"永康區","LI":"大橋里","LIN":"6鄰","STREET":"大橋五街","SECT":" ","MAREA":" ","LANE":" ","ALLEY":" ","HOUSE_NO":"２２號","E_COORD97":170813.09,"N_COORD97":2546865.6699999999,"ADDRESS":"大橋五街２２號","OBJECTID":524187},"geometry":{"x":170813.09000000171,"y":2546865.6700000018}},{"attributes":{"ID":524215,"DIS_CODE":0,"TOWNNAME":"永康區","LI":"大橋里","LIN":"6鄰","STREET":"大橋五街","SECT":" ","MAREA":" ","LANE":" ","ALLEY":" ","HOUSE_NO":"６８號","E_COORD97":170888.01999999999,"N_COORD97":2546916.0800000001,"ADDRESS":"大橋五街６８號","OBJECTID":524188},"geometry":{"x":170888.02000000048,"y":2546916.0800000019}},{"attributes":{"ID":524216,"DIS_CODE":0,"TOWNNAME":"永康區","LI":"大橋里","LIN":"6鄰","STREET":"大橋五街","SECT":" ","MAREA":" ","LANE":" ","ALLEY":" ","HOUSE_NO":"１００號","E_COORD97":170935.29999999999,"N_COORD97":2546945.0499999998,"ADDRESS":"大橋五街１００號","OBJECTID":524189},"geometry":{"x":170935.30000000168,"y":2546945.0500000026}},{"attributes":{"ID":524217,"DIS_CODE":0,"TOWNNAME":"永康區","LI":"大橋里","LIN":"6鄰","STREET":"大橋五街","SECT":" ","MAREA":" ","LANE":" ","ALLEY":" ","HOUSE_NO":"４６號","E_COORD97":170845.32000000001,"N_COORD97":2546888.8300000001,"ADDRESS":"大橋五街４６號","OBJECTID":524190},"geometry":{"x":170845.3200000003,"y":2546888.8300000001}},{"attributes":{"ID":524218,"DIS_CODE":0,"TOWNNAME":"永康區","LI":"大橋里","LIN":"6鄰","STREET":"大橋五街","SECT":" ","MAREA":" ","LANE":" ","ALLEY":" ","HOUSE_NO":"１０６號","E_COORD97":170941.60000000001,"N_COORD97":2546950.21,"ADDRESS":"大橋五街１０６號","OBJECTID":524191},"geometry":{"x":170941.60000000149,"y":2546950.2100000028}},{"attributes":{"ID":524219,"DIS_CODE":0,"TOWNNAME":"永康區","LI":"王行里","LIN":"6鄰","STREET":"育樂街","SECT":" ","MAREA":" ","LANE":" ","ALLEY":" ","HOUSE_NO":"１５５號","E_COORD97":175029.81,"N_COORD97":2548332.9199999999,"ADDRESS":"育樂街１５５號","OBJECTID":524192},"geometry":{"x":175029.80999999959,"y":2548332.9199999999}},{"attributes":{"ID":524220,"DIS_CODE":0,"TOWNNAME":"永康區","LI":"王行里","LIN":"6鄰","STREET":"育樂街","SECT":" ","MAREA":" ","LANE":" ","ALLEY":" ","HOUSE_NO":"１７６號","E_COORD97":175084.48999999999,"N_COORD97":2548356.5499999998,"ADDRESS":"育樂街１７６號","OBJECTID":524193},"geometry":{"x":175084.49000000115,"y":2548356.5500000007}},{"attributes":{"ID":524221,"DIS_CODE":0,"TOWNNAME":"永康區","LI":"王行里","LIN":"6鄰","STREET":"育樂街","SECT":" ","MAREA":" ","LANE":" ","ALLEY":" ","HOUSE_NO":"１３３號之１","E_COORD97":175176.04000000001,"N_COORD97":2548334.2799999998,"ADDRESS":"育樂街１３３號之１","OBJECTID":524194},"geometry":{"x":175176.04000000097,"y":2548334.2800000031}},{"attributes":{"ID":524222,"DIS_CODE":0,"TOWNNAME":"永康區","LI":"王行里","LIN":"6鄰","STREET":"育樂街","SECT":" ","MAREA":" ","LANE":" ","ALLEY":" ","HOUSE_NO":"１７２號","E_COORD97":175098.76999999999,"N_COORD97":2548358.8799999999,"ADDRESS":"育樂街１７２號","OBJECTID":524195},"geometry":{"x":175098.77000000048,"y":2548358.879999999}},{"attributes":{"ID":524223,"DIS_CODE":0,"TOWNNAME":"永康區","LI":"王行里","LIN":"6鄰","STREET":"育樂街","SECT":" ","MAREA":" ","LANE":" ","ALLEY":" ","HOUSE_NO":"１７４號","E_COORD97":175088.79000000001,"N_COORD97":2548356.7999999998,"ADDRESS":"育樂街１７４號","OBJECTID":524196},"geometry":{"x":175088.7900000019,"y":2548356.8000000026}},{"attributes":{"ID":524224,"DIS_CODE":0,"TOWNNAME":"永康區","LI":"勝利里","LIN":"6鄰","STREET":"勝學路","SECT":" ","MAREA":" ","LANE":" ","ALLEY":" ","HOUSE_NO":"２６號","E_COORD97":171163.14000000001,"N_COORD97":2544619.75,"ADDRESS":"勝學路２６號","OBJECTID":524197},"geometry":{"x":171163.13999999966,"y":2544619.7500000019}},{"attributes":{"ID":524225,"DIS_CODE":0,"TOWNNAME":"永康區","LI":"勝利里","LIN":"6鄰","STREET":"勝學路","SECT":" ","MAREA":" ","LANE":" ","ALLEY":" ","HOUSE_NO":"１１號","E_COORD97":171154.73999999999,"N_COORD97":2544596.5,"ADDRESS":"勝學路１１號","OBJECTID":524198},"geometry":{"x":171154.74000000209,"y":2544596.5}},{"attributes":{"ID":524226,"DIS_CODE":0,"TOWNNAME":"永康區","LI":"復國里","LIN":"6鄰","STREET":"復國一路","SECT":" ","MAREA":" ","LANE":" ","ALLEY":" ","HOUSE_NO":"１１４號","E_COORD97":172721.60999999999,"N_COORD97":2544984.5299999998,"ADDRESS":"復國一路１１４號","OBJECTID":524199},"geometry":{"x":172721.61000000034,"y":2544984.5299999993}},{"attributes":{"ID":524227,"DIS_CODE":0,"TOWNNAME":"永康區","LI":"勝利里","LIN":"6鄰","STREET":"勝學路","SECT":" ","MAREA":" ","LANE":" ","ALLEY":" ","HOUSE_NO":"１５號","E_COORD97":171151.98999999999,"N_COORD97":2544605,"ADDRESS":"勝學路１５號","OBJECTID":524200},"geometry":{"x":171151.99000000115,"y":2544605.0000000019}}]}