{"displayFieldName":"TOWNNAME","fieldAliases":{"ID":"ID","DIS_CODE":"DIS_CODE","TOWNNAME":"TOWNNAME","LI":"LI","LIN":"LIN","STREET":"STREET","SECT":"SECT","MAREA":"MAREA","LANE":"LANE","ALLEY":"ALLEY","HOUSE_NO":"HOUSE_NO","E_COORD97":"E_COORD97","N_COORD97":"N_COORD97","ADDRESS":"ADDRESS","OBJECTID":"OBJECTID"},"geometryType":"esriGeometryPoint","spatialReference":{"wkid":102443,"latestWkid":3826},"fields":[{"name":"ID","type":"esriFieldTypeDouble","alias":"ID"},{"name":"DIS_CODE","type":"esriFieldTypeInteger","alias":"DIS_CODE"},{"name":"TOWNNAME","type":"esriFieldTypeString","alias":"TOWNNAME","length":8},{"name":"LI","type":"esriFieldTypeString","alias":"LI","length":8},{"name":"LIN","type":"esriFieldTypeString","alias":"LIN","length":12},{"name":"STREET","type":"esriFieldTypeString","alias":"STREET","length":20},{"name":"SECT","type":"esriFieldTypeString","alias":"SECT","length":8},{"name":"MAREA","type":"esriFieldTypeString","alias":"MAREA","length":12},{"name":"LANE","type":"esriFieldTypeString","alias":"LANE","length":10},{"name":"ALLEY","type":"esriFieldTypeString","alias":"ALLEY","length":10},{"name":"HOUSE_NO","type":"esriFieldTypeString","alias":"HOUSE_NO","length":20},{"name":"E_COORD97","type":"esriFieldTypeDouble","alias":"E_COORD97"},{"name":"N_COORD97","type":"esriFieldTypeDouble","alias":"N_COORD97"},{"name":"ADDRESS","type":"esriFieldTypeString","alias":"ADDRESS","length":50},{"name":"OBJECTID","type":"esriFieldTypeOID","alias":"OBJECTID"}],"features":[{"attributes":{"ID":602628,"DIS_CODE":0,"TOWNNAME":"安南區","LI":"溪北里","LIN":"23鄰","STREET":"敦安街","SECT":" ","MAREA":" ","LANE":" ","ALLEY":" ","HOUSE_NO":"５８號","E_COORD97":169219.78,"N_COORD97":2547556.1899999999,"ADDRESS":"敦安街５８號","OBJECTID":602601},"geometry":{"x":169219.78000000026,"y":2547556.1900000013}},{"attributes":{"ID":602629,"DIS_CODE":0,"TOWNNAME":"安南區","LI":"溪北里","LIN":" ","STREET":"郡安路","SECT":"四段","MAREA":" ","LANE":" ","ALLEY":" ","HOUSE_NO":"７６號之８","E_COORD97":169082.95999999999,"N_COORD97":2547587.4100000001,"ADDRESS":"郡安路四段７６號之８","OBJECTID":602602},"geometry":{"x":169082.95999999996,"y":2547587.4100000001}},{"attributes":{"ID":602630,"DIS_CODE":0,"TOWNNAME":"安南區","LI":"溪北里","LIN":" ","STREET":"郡安路","SECT":"四段","MAREA":" ","LANE":" ","ALLEY":" ","HOUSE_NO":"７６號之９","E_COORD97":169089.04999999999,"N_COORD97":2547587.1600000001,"ADDRESS":"郡安路四段７６號之９","OBJECTID":602603},"geometry":{"x":169089.04999999888,"y":2547587.160000002}},{"attributes":{"ID":602631,"DIS_CODE":0,"TOWNNAME":"安南區","LI":"溪北里","LIN":" ","STREET":"敦安街","SECT":" ","MAREA":" ","LANE":" ","ALLEY":" ","HOUSE_NO":"３號","E_COORD97":169317.47,"N_COORD97":2547592.9100000001,"ADDRESS":"敦安街３號","OBJECTID":602604},"geometry":{"x":169317.47000000067,"y":2547592.910000002}},{"attributes":{"ID":602632,"DIS_CODE":0,"TOWNNAME":"安南區","LI":"溪北里","LIN":" ","STREET":"敦安街","SECT":" ","MAREA":" ","LANE":" ","ALLEY":" ","HOUSE_NO":"５號","E_COORD97":169319.14999999999,"N_COORD97":2547584.29,"ADDRESS":"敦安街５號","OBJECTID":602605},"geometry":{"x":169319.15000000037,"y":2547584.2899999991}},{"attributes":{"ID":602633,"DIS_CODE":0,"TOWNNAME":"安南區","LI":"溪北里","LIN":" ","STREET":"敦安街","SECT":" ","MAREA":" ","LANE":" ","ALLEY":" ","HOUSE_NO":"７號","E_COORD97":169321.51999999999,"N_COORD97":2547575.2000000002,"ADDRESS":"敦安街７號","OBJECTID":602606},"geometry":{"x":169321.52000000048,"y":2547575.200000003}},{"attributes":{"ID":602634,"DIS_CODE":0,"TOWNNAME":"東區","LI":"關聖里","LIN":"22鄰","STREET":"裕平路","SECT":" ","MAREA":" ","LANE":" ","ALLEY":" ","HOUSE_NO":"３０１號","E_COORD97":172742.56,"N_COORD97":2542839.2000000002,"ADDRESS":"裕平路３０１號","OBJECTID":602607},"geometry":{"x":172742.56000000052,"y":2542839.2000000011}},{"attributes":{"ID":602635,"DIS_CODE":0,"TOWNNAME":"東區","LI":"關聖里","LIN":"22鄰","STREET":"裕平路","SECT":" ","MAREA":" ","LANE":" ","ALLEY":" ","HOUSE_NO":"３０３號","E_COORD97":172746.84,"N_COORD97":2542838.96,"ADDRESS":"裕平路３０３號","OBJECTID":602608},"geometry":{"x":172746.83999999985,"y":2542838.9600000046}},{"attributes":{"ID":602636,"DIS_CODE":0,"TOWNNAME":"東區","LI":"關聖里","LIN":"22鄰","STREET":"裕平路","SECT":" ","MAREA":" ","LANE":" ","ALLEY":" ","HOUSE_NO":"３０５號","E_COORD97":172751.23000000001,"N_COORD97":2542838.96,"ADDRESS":"裕平路３０５號","OBJECTID":602609},"geometry":{"x":172751.23000000045,"y":2542838.9600000046}},{"attributes":{"ID":602637,"DIS_CODE":0,"TOWNNAME":"東區","LI":"關聖里","LIN":"22鄰","STREET":"裕文一街","SECT":" ","MAREA":" ","LANE":" ","ALLEY":" ","HOUSE_NO":"１１８號","E_COORD97":172742.32000000001,"N_COORD97":2542853.21,"ADDRESS":"裕文一街１１８號","OBJECTID":602610},"geometry":{"x":172742.3200000003,"y":2542853.2100000009}},{"attributes":{"ID":602638,"DIS_CODE":0,"TOWNNAME":"東區","LI":"崇文里","LIN":"22鄰","STREET":"崇德二十一街","SECT":" ","MAREA":" ","LANE":" ","ALLEY":" ","HOUSE_NO":"４２之３號","E_COORD97":170926.92000000001,"N_COORD97":2540850.2000000002,"ADDRESS":"崇德二十一街４２之３號","OBJECTID":602611},"geometry":{"x":170926.91999999993,"y":2540850.2000000011}},{"attributes":{"ID":602639,"DIS_CODE":0,"TOWNNAME":"東區","LI":"崇善里","LIN":"22鄰","STREET":"崇善十二街","SECT":" ","MAREA":" ","LANE":" ","ALLEY":" ","HOUSE_NO":"３１號","E_COORD97":171233.35999999999,"N_COORD97":2541115.1299999999,"ADDRESS":"崇善十二街３１號","OBJECTID":602612},"geometry":{"x":171233.36000000034,"y":2541115.129999999}},{"attributes":{"ID":602640,"DIS_CODE":0,"TOWNNAME":"東區","LI":"中西里","LIN":"22鄰","STREET":"長榮路","SECT":"二段","MAREA":" ","LANE":" ","ALLEY":" ","HOUSE_NO":"１５２號","E_COORD97":170036.60000000001,"N_COORD97":2543319.8700000001,"ADDRESS":"長榮路二段１５２號","OBJECTID":602613},"geometry":{"x":170036.60000000056,"y":2543319.870000001}},{"attributes":{"ID":602641,"DIS_CODE":0,"TOWNNAME":"東區","LI":"中西里","LIN":"22鄰","STREET":"長榮路","SECT":"二段","MAREA":" ","LANE":" ","ALLEY":" ","HOUSE_NO":"１１８號","E_COORD97":170039.54000000001,"N_COORD97":2543277.46,"ADDRESS":"長榮路二段１１８號","OBJECTID":602614},"geometry":{"x":170039.54000000097,"y":2543277.4600000028}},{"attributes":{"ID":602642,"DIS_CODE":0,"TOWNNAME":"東區","LI":"中西里","LIN":"22鄰","STREET":"長榮路","SECT":"二段","MAREA":" ","LANE":" ","ALLEY":" ","HOUSE_NO":"１２０號","E_COORD97":170043.91,"N_COORD97":2543274.8700000001,"ADDRESS":"長榮路二段１２０號","OBJECTID":602615},"geometry":{"x":170043.91000000108,"y":2543274.8700000029}},{"attributes":{"ID":602643,"DIS_CODE":0,"TOWNNAME":"東區","LI":"中西里","LIN":"22鄰","STREET":"長榮路","SECT":"二段","MAREA":" ","LANE":" ","ALLEY":" ","HOUSE_NO":"１２２號","E_COORD97":170048.60000000001,"N_COORD97":2543270.8300000001,"ADDRESS":"長榮路二段１２２號","OBJECTID":602616},"geometry":{"x":170048.60000000056,"y":2543270.8300000019}},{"attributes":{"ID":602644,"DIS_CODE":0,"TOWNNAME":"東區","LI":"中西里","LIN":"22鄰","STREET":"長榮路","SECT":"二段","MAREA":" ","LANE":" ","ALLEY":" ","HOUSE_NO":"１５６號","E_COORD97":170043.16,"N_COORD97":2543328.02,"ADDRESS":"長榮路二段１５６號","OBJECTID":602617},"geometry":{"x":170043.16000000201,"y":2543328.0199999996}},{"attributes":{"ID":602645,"DIS_CODE":0,"TOWNNAME":"東區","LI":"中西里","LIN":"22鄰","STREET":"長榮路","SECT":"二段","MAREA":" ","LANE":" ","ALLEY":" ","HOUSE_NO":"１５８號","E_COORD97":170045.82999999999,"N_COORD97":2543330.8300000001,"ADDRESS":"長榮路二段１５８號","OBJECTID":602618},"geometry":{"x":170045.83000000101,"y":2543330.8300000019}},{"attributes":{"ID":602646,"DIS_CODE":0,"TOWNNAME":"東區","LI":"中西里","LIN":"22鄰","STREET":"長榮路","SECT":"二段","MAREA":" ","LANE":" ","ALLEY":" ","HOUSE_NO":"１６０號","E_COORD97":170048.37,"N_COORD97":2543334.7599999998,"ADDRESS":"長榮路二段１６０號","OBJECTID":602619},"geometry":{"x":170048.36999999918,"y":2543334.7600000016}},{"attributes":{"ID":602647,"DIS_CODE":0,"TOWNNAME":"東區","LI":"中西里","LIN":"22鄰","STREET":"長榮路","SECT":"二段","MAREA":" ","LANE":" ","ALLEY":" ","HOUSE_NO":"１６４號","E_COORD97":170054.84,"N_COORD97":2543342.21,"ADDRESS":"長榮路二段１６４號","OBJECTID":602620},"geometry":{"x":170054.83999999985,"y":2543342.2100000046}},{"attributes":{"ID":602648,"DIS_CODE":0,"TOWNNAME":"東區","LI":"中西里","LIN":"22鄰","STREET":"長榮路","SECT":"二段","MAREA":" ","LANE":" ","ALLEY":" ","HOUSE_NO":"１６８號","E_COORD97":170060.17999999999,"N_COORD97":2543350.7799999998,"ADDRESS":"長榮路二段１６８號","OBJECTID":602621},"geometry":{"x":170060.18000000063,"y":2543350.7800000012}},{"attributes":{"ID":602649,"DIS_CODE":0,"TOWNNAME":"東區","LI":"東安里","LIN":"22鄰","STREET":"林森路","SECT":"二段","MAREA":" ","LANE":" ","ALLEY":" ","HOUSE_NO":"１５號","E_COORD97":170269.66,"N_COORD97":2542940.9199999999,"ADDRESS":"林森路二段１５號","OBJECTID":602622},"geometry":{"x":170269.66000000015,"y":2542940.9200000018}},{"attributes":{"ID":602650,"DIS_CODE":0,"TOWNNAME":"東區","LI":"東安里","LIN":"22鄰","STREET":"林森路","SECT":"二段","MAREA":" ","LANE":" ","ALLEY":" ","HOUSE_NO":"３３號","E_COORD97":170278.14000000001,"N_COORD97":2542957.8300000001,"ADDRESS":"林森路二段３３號","OBJECTID":602623},"geometry":{"x":170278.13999999966,"y":2542957.8300000019}},{"attributes":{"ID":602651,"DIS_CODE":0,"TOWNNAME":"永康區","LI":"安康里","LIN":"22鄰","STREET":"中華西街","SECT":" ","MAREA":" ","LANE":" ","ALLEY":" ","HOUSE_NO":"１５０號","E_COORD97":170673.78,"N_COORD97":2546214.3900000001,"ADDRESS":"中華西街１５０號","OBJECTID":602624},"geometry":{"x":170673.78000000119,"y":2546214.3900000006}},{"attributes":{"ID":602652,"DIS_CODE":0,"TOWNNAME":"永康區","LI":"西勢里","LIN":"22鄰","STREET":"富強路","SECT":"一段","MAREA":" ","LANE":" ","ALLEY":" ","HOUSE_NO":"２０２號","E_COORD97":175614.17999999999,"N_COORD97":2546375.02,"ADDRESS":"富強路一段２０２號","OBJECTID":602625},"geometry":{"x":175614.1799999997,"y":2546375.0199999996}},{"attributes":{"ID":602653,"DIS_CODE":0,"TOWNNAME":"永康區","LI":"西勢里","LIN":"22鄰","STREET":"富強路","SECT":"一段","MAREA":" ","LANE":" ","ALLEY":" ","HOUSE_NO":"２０８號","E_COORD97":175620.62,"N_COORD97":2546387.02,"ADDRESS":"富強路一段２０８號","OBJECTID":602626},"geometry":{"x":175620.62000000197,"y":2546387.0200000014}},{"attributes":{"ID":602654,"DIS_CODE":0,"TOWNNAME":"永康區","LI":"尚頂里","LIN":"22鄰","STREET":"大武街","SECT":" ","MAREA":" ","LANE":" ","ALLEY":" ","HOUSE_NO":"５９號","E_COORD97":170368.13,"N_COORD97":2546806.2400000002,"ADDRESS":"大武街５９號","OBJECTID":602627},"geometry":{"x":170368.12999999989,"y":2546806.2400000039}},{"attributes":{"ID":602655,"DIS_CODE":0,"TOWNNAME":"永康區","LI":"西勢里","LIN":"22鄰","STREET":"富強路","SECT":"一段","MAREA":" ","LANE":" ","ALLEY":" ","HOUSE_NO":"２１８號","E_COORD97":175629.95000000001,"N_COORD97":2546404.7799999998,"ADDRESS":"富強路一段２１８號","OBJECTID":602628},"geometry":{"x":175629.95000000019,"y":2546404.7799999993}},{"attributes":{"ID":602656,"DIS_CODE":0,"TOWNNAME":"永康區","LI":"西勢里","LIN":"22鄰","STREET":"富強路","SECT":"一段","MAREA":" ","LANE":" ","ALLEY":" ","HOUSE_NO":"２１４號","E_COORD97":175630.31,"N_COORD97":2546393.77,"ADDRESS":"富強路一段２１４號","OBJECTID":602629},"geometry":{"x":175630.30999999959,"y":2546393.7699999996}},{"attributes":{"ID":602657,"DIS_CODE":0,"TOWNNAME":"永康區","LI":"龍潭里","LIN":"22鄰","STREET":"自強路","SECT":" ","MAREA":" ","LANE":" ","ALLEY":" ","HOUSE_NO":"８４６號","E_COORD97":174674.07000000001,"N_COORD97":2548680.4700000002,"ADDRESS":"自強路８４６號","OBJECTID":602630},"geometry":{"x":174674.07000000123,"y":2548680.4700000025}},{"attributes":{"ID":602658,"DIS_CODE":0,"TOWNNAME":"永康區","LI":"龍潭里","LIN":"22鄰","STREET":"自強路","SECT":" ","MAREA":" ","LANE":" ","ALLEY":" ","HOUSE_NO":"８５２之１號","E_COORD97":174693.54000000001,"N_COORD97":2548693.02,"ADDRESS":"自強路８５２之１號","OBJECTID":602631},"geometry":{"x":174693.54000000004,"y":2548693.0200000014}},{"attributes":{"ID":602659,"DIS_CODE":0,"TOWNNAME":"新化區","LI":"東榮里","LIN":"22鄰","STREET":"護安街","SECT":" ","MAREA":" ","LANE":" ","ALLEY":" ","HOUSE_NO":"２號之１","E_COORD97":179283.35999999999,"N_COORD97":2548195.2599999998,"ADDRESS":"護安街２號之１","OBJECTID":602632},"geometry":{"x":179283.36000000034,"y":2548195.2599999998}},{"attributes":{"ID":602660,"DIS_CODE":0,"TOWNNAME":"新化區","LI":"東榮里","LIN":"22鄰","STREET":"和平街","SECT":" ","MAREA":" ","LANE":" ","ALLEY":" ","HOUSE_NO":"２３號","E_COORD97":179323.26999999999,"N_COORD97":2548164.25,"ADDRESS":"和平街２３號","OBJECTID":602633},"geometry":{"x":179323.27000000048,"y":2548164.25}},{"attributes":{"ID":602661,"DIS_CODE":0,"TOWNNAME":"新化區","LI":"東榮里","LIN":"22鄰","STREET":"復興路","SECT":" ","MAREA":" ","LANE":" ","ALLEY":" ","HOUSE_NO":"２２５號之１","E_COORD97":179372.75,"N_COORD97":2548134.2599999998,"ADDRESS":"復興路２２５號之１","OBJECTID":602634},"geometry":{"x":179372.75000000186,"y":2548134.2599999998}},{"attributes":{"ID":602662,"DIS_CODE":0,"TOWNNAME":"新化區","LI":"東榮里","LIN":"22鄰","STREET":"和平街","SECT":" ","MAREA":" ","LANE":" ","ALLEY":" ","HOUSE_NO":"２１號","E_COORD97":179330.57000000001,"N_COORD97":2548165.25,"ADDRESS":"和平街２１號","OBJECTID":602635},"geometry":{"x":179330.57000000123,"y":2548165.25}},{"attributes":{"ID":602663,"DIS_CODE":0,"TOWNNAME":"善化區","LI":"光文里","LIN":"22鄰","STREET":"光華路","SECT":" ","MAREA":" ","LANE":" ","ALLEY":" ","HOUSE_NO":"１６６號","E_COORD97":178614.45999999999,"N_COORD97":2559563.5,"ADDRESS":"光華路１６６號","OBJECTID":602636},"geometry":{"x":178614.45999999996,"y":2559563.5000000019}},{"attributes":{"ID":602664,"DIS_CODE":0,"TOWNNAME":"善化區","LI":"光文里","LIN":"22鄰","STREET":"光華路","SECT":" ","MAREA":" ","LANE":" ","ALLEY":" ","HOUSE_NO":"１４２號","E_COORD97":178621.89999999999,"N_COORD97":2559520,"ADDRESS":"光華路１４２號","OBJECTID":602637},"geometry":{"x":178621.9000000013,"y":2559520}},{"attributes":{"ID":602665,"DIS_CODE":0,"TOWNNAME":"善化區","LI":"光文里","LIN":"22鄰","STREET":"光華路","SECT":" ","MAREA":" ","LANE":" ","ALLEY":" ","HOUSE_NO":"１４４號","E_COORD97":178621.31,"N_COORD97":2559524.25,"ADDRESS":"光華路１４４號","OBJECTID":602638},"geometry":{"x":178621.31000000052,"y":2559524.2500000019}},{"attributes":{"ID":602666,"DIS_CODE":0,"TOWNNAME":"善化區","LI":"光文里","LIN":"22鄰","STREET":"光華路","SECT":" ","MAREA":" ","LANE":" ","ALLEY":" ","HOUSE_NO":"１３８號","E_COORD97":178623.01000000001,"N_COORD97":2559512,"ADDRESS":"光華路１３８號","OBJECTID":602639},"geometry":{"x":178623.00999999978,"y":2559512.0000000019}},{"attributes":{"ID":602667,"DIS_CODE":0,"TOWNNAME":"善化區","LI":"光文里","LIN":"22鄰","STREET":"光華路","SECT":" ","MAREA":" ","LANE":" ","ALLEY":" ","HOUSE_NO":"１５８號","E_COORD97":178616.06,"N_COORD97":2559551,"ADDRESS":"光華路１５８號","OBJECTID":602640},"geometry":{"x":178616.06000000052,"y":2559551}},{"attributes":{"ID":602668,"DIS_CODE":0,"TOWNNAME":"善化區","LI":"光文里","LIN":"22鄰","STREET":"光華路","SECT":" ","MAREA":" ","LANE":" ","ALLEY":" ","HOUSE_NO":"１３６號","E_COORD97":178628.34,"N_COORD97":2559509,"ADDRESS":"光華路１３６號","OBJECTID":602641},"geometry":{"x":178628.34000000078,"y":2559509.0000000019}},{"attributes":{"ID":602669,"DIS_CODE":0,"TOWNNAME":"善化區","LI":"光文里","LIN":"22鄰","STREET":"光華路","SECT":" ","MAREA":" ","LANE":" ","ALLEY":" ","HOUSE_NO":"１５２號","E_COORD97":178616.95999999999,"N_COORD97":2559543.25,"ADDRESS":"光華路１５２號","OBJECTID":602642},"geometry":{"x":178616.96000000183,"y":2559543.25}},{"attributes":{"ID":602670,"DIS_CODE":0,"TOWNNAME":"善化區","LI":"光文里","LIN":"22鄰","STREET":"光華路","SECT":" ","MAREA":" ","LANE":" ","ALLEY":" ","HOUSE_NO":"１６２號","E_COORD97":178615.06,"N_COORD97":2559559.75,"ADDRESS":"光華路１６２號","OBJECTID":602643},"geometry":{"x":178615.05999999959,"y":2559559.75}},{"attributes":{"ID":602671,"DIS_CODE":0,"TOWNNAME":"善化區","LI":"光文里","LIN":"22鄰","STREET":"中山路","SECT":" ","MAREA":" ","LANE":" ","ALLEY":" ","HOUSE_NO":"３６號","E_COORD97":178875.60999999999,"N_COORD97":2559236.5,"ADDRESS":"中山路３６號","OBJECTID":602644},"geometry":{"x":178875.6100000022,"y":2559236.5}},{"attributes":{"ID":602672,"DIS_CODE":0,"TOWNNAME":"善化區","LI":"光文里","LIN":"22鄰","STREET":"中山路","SECT":" ","MAREA":" ","LANE":" ","ALLEY":" ","HOUSE_NO":"８８號（半毀）","E_COORD97":178673.37,"N_COORD97":2559246,"ADDRESS":"中山路８８號（半毀）","OBJECTID":602645},"geometry":{"x":178673.37000000011,"y":2559246}},{"attributes":{"ID":602673,"DIS_CODE":0,"TOWNNAME":"善化區","LI":"光文里","LIN":"22鄰","STREET":"中山路","SECT":" ","MAREA":" ","LANE":" ","ALLEY":" ","HOUSE_NO":"９４號","E_COORD97":178672.48000000001,"N_COORD97":2559206.25,"ADDRESS":"中山路９４號","OBJECTID":602646},"geometry":{"x":178672.48000000045,"y":2559206.2500000019}},{"attributes":{"ID":602674,"DIS_CODE":0,"TOWNNAME":"安南區","LI":"溪墘里","LIN":"25鄰","STREET":"府安路","SECT":"五段","MAREA":" ","LANE":" ","ALLEY":" ","HOUSE_NO":"２５９號","E_COORD97":167335.17000000001,"N_COORD97":2546844.0099999998,"ADDRESS":"府安路五段２５９號","OBJECTID":602647},"geometry":{"x":167335.16999999993,"y":2546844.0099999998}},{"attributes":{"ID":602675,"DIS_CODE":0,"TOWNNAME":"善化區","LI":"光文里","LIN":"22鄰","STREET":"中山路","SECT":" ","MAREA":" ","LANE":" ","ALLEY":" ","HOUSE_NO":"６２號","E_COORD97":178743.82999999999,"N_COORD97":2559216.75,"ADDRESS":"中山路６２號","OBJECTID":602648},"geometry":{"x":178743.83000000101,"y":2559216.75}},{"attributes":{"ID":602676,"DIS_CODE":0,"TOWNNAME":"善化區","LI":"光文里","LIN":"22鄰","STREET":"中山路","SECT":" ","MAREA":" ","LANE":" ","ALLEY":" ","HOUSE_NO":"４６號","E_COORD97":178844.20000000001,"N_COORD97":2559231,"ADDRESS":"中山路４６號","OBJECTID":602649},"geometry":{"x":178844.20000000019,"y":2559231.0000000019}},{"attributes":{"ID":602677,"DIS_CODE":0,"TOWNNAME":"善化區","LI":"光文里","LIN":"22鄰","STREET":"中山路","SECT":" ","MAREA":" ","LANE":" ","ALLEY":" ","HOUSE_NO":"１０８號之２","E_COORD97":178610.44,"N_COORD97":2559196.52,"ADDRESS":"中山路１０８號之２","OBJECTID":602650},"geometry":{"x":178610.44000000041,"y":2559196.5200000014}},{"attributes":{"ID":602678,"DIS_CODE":0,"TOWNNAME":"善化區","LI":"光文里","LIN":"22鄰","STREET":"光華路","SECT":" ","MAREA":" ","LANE":" ","ALLEY":" ","HOUSE_NO":"１１６號","E_COORD97":178628.17999999999,"N_COORD97":2559464.75,"ADDRESS":"光華路１１６號","OBJECTID":602651},"geometry":{"x":178628.1799999997,"y":2559464.75}},{"attributes":{"ID":602679,"DIS_CODE":0,"TOWNNAME":"善化區","LI":"光文里","LIN":"22鄰","STREET":"中山路","SECT":" ","MAREA":" ","LANE":" ","ALLEY":" ","HOUSE_NO":"９６號","E_COORD97":178668.75,"N_COORD97":2559205.75,"ADDRESS":"中山路９６號","OBJECTID":602652},"geometry":{"x":178668.75,"y":2559205.7500000019}},{"attributes":{"ID":602680,"DIS_CODE":0,"TOWNNAME":"善化區","LI":"光文里","LIN":"22鄰","STREET":"中山路","SECT":" ","MAREA":" ","LANE":" ","ALLEY":" ","HOUSE_NO":"９０號（半毀）","E_COORD97":178694.06,"N_COORD97":2559218,"ADDRESS":"中山路９０號（半毀）","OBJECTID":602653},"geometry":{"x":178694.06000000052,"y":2559218.0000000019}},{"attributes":{"ID":602681,"DIS_CODE":0,"TOWNNAME":"善化區","LI":"光文里","LIN":"22鄰","STREET":"中山路","SECT":" ","MAREA":" ","LANE":" ","ALLEY":" ","HOUSE_NO":"５４號","E_COORD97":178758.19,"N_COORD97":2559219,"ADDRESS":"中山路５４號","OBJECTID":602654},"geometry":{"x":178758.19000000227,"y":2559219}},{"attributes":{"ID":602682,"DIS_CODE":0,"TOWNNAME":"善化區","LI":"光文里","LIN":"22鄰","STREET":"光華路","SECT":" ","MAREA":" ","LANE":" ","ALLEY":" ","HOUSE_NO":"２５號","E_COORD97":178633.17000000001,"N_COORD97":2559273.5,"ADDRESS":"光華路２５號","OBJECTID":602655},"geometry":{"x":178633.17000000086,"y":2559273.5}},{"attributes":{"ID":602683,"DIS_CODE":0,"TOWNNAME":"善化區","LI":"光文里","LIN":"22鄰","STREET":"中山路","SECT":" ","MAREA":" ","LANE":" ","ALLEY":" ","HOUSE_NO":"６６號","E_COORD97":178737.23000000001,"N_COORD97":2559215,"ADDRESS":"中山路６６號","OBJECTID":602656},"geometry":{"x":178737.23000000045,"y":2559215}},{"attributes":{"ID":602684,"DIS_CODE":0,"TOWNNAME":"善化區","LI":"光文里","LIN":"22鄰","STREET":"光華路","SECT":" ","MAREA":" ","LANE":" ","ALLEY":" ","HOUSE_NO":"４３號","E_COORD97":178626.82000000001,"N_COORD97":2559302.75,"ADDRESS":"光華路４３號","OBJECTID":602657},"geometry":{"x":178626.82000000216,"y":2559302.7499999981}},{"attributes":{"ID":602685,"DIS_CODE":0,"TOWNNAME":"善化區","LI":"光文里","LIN":"22鄰","STREET":"光華路","SECT":" ","MAREA":" ","LANE":" ","ALLEY":" ","HOUSE_NO":"８４號","E_COORD97":178640.29000000001,"N_COORD97":2559394.5,"ADDRESS":"光華路８４號","OBJECTID":602658},"geometry":{"x":178640.2900000019,"y":2559394.5000000019}},{"attributes":{"ID":602686,"DIS_CODE":0,"TOWNNAME":"善化區","LI":"光文里","LIN":"22鄰","STREET":"光華路","SECT":" ","MAREA":" ","LANE":" ","ALLEY":" ","HOUSE_NO":"４９號","E_COORD97":178626.82000000001,"N_COORD97":2559314.75,"ADDRESS":"光華路４９號","OBJECTID":602659},"geometry":{"x":178626.82000000216,"y":2559314.7500000019}},{"attributes":{"ID":602687,"DIS_CODE":0,"TOWNNAME":"善化區","LI":"光文里","LIN":"22鄰","STREET":"光華路","SECT":" ","MAREA":" ","LANE":" ","ALLEY":" ","HOUSE_NO":"７２號","E_COORD97":178641.13,"N_COORD97":2559367.5,"ADDRESS":"光華路７２號","OBJECTID":602660},"geometry":{"x":178641.13000000175,"y":2559367.5}},{"attributes":{"ID":602688,"DIS_CODE":0,"TOWNNAME":"善化區","LI":"光文里","LIN":"22鄰","STREET":"光華路","SECT":" ","MAREA":" ","LANE":" ","ALLEY":" ","HOUSE_NO":"１３號","E_COORD97":178636.62,"N_COORD97":2559247,"ADDRESS":"光華路１３號","OBJECTID":602661},"geometry":{"x":178636.62000000104,"y":2559247.0000000037}},{"attributes":{"ID":602689,"DIS_CODE":0,"TOWNNAME":"善化區","LI":"光文里","LIN":"22鄰","STREET":"中山路","SECT":" ","MAREA":" ","LANE":" ","ALLEY":" ","HOUSE_NO":"７０號","E_COORD97":178731.31,"N_COORD97":2559214,"ADDRESS":"中山路７０號","OBJECTID":602662},"geometry":{"x":178731.31000000052,"y":2559214.0000000019}},{"attributes":{"ID":602690,"DIS_CODE":0,"TOWNNAME":"善化區","LI":"光文里","LIN":"22鄰","STREET":"光華路","SECT":" ","MAREA":" ","LANE":" ","ALLEY":" ","HOUSE_NO":"１３０號","E_COORD97":178628.25,"N_COORD97":2559496,"ADDRESS":"光華路１３０號","OBJECTID":602663},"geometry":{"x":178628.25,"y":2559496.0000000019}},{"attributes":{"ID":602691,"DIS_CODE":0,"TOWNNAME":"東區","LI":"東安里","LIN":"22鄰","STREET":"林森路","SECT":"二段","MAREA":" ","LANE":" ","ALLEY":" ","HOUSE_NO":"１７號","E_COORD97":170270.97,"N_COORD97":2542946.8799999999,"ADDRESS":"林森路二段１７號","OBJECTID":602664},"geometry":{"x":170270.96999999974,"y":2542946.8800000008}},{"attributes":{"ID":602692,"DIS_CODE":0,"TOWNNAME":"東區","LI":"東安里","LIN":"22鄰","STREET":"林森路","SECT":"二段","MAREA":" ","LANE":" ","ALLEY":" ","HOUSE_NO":"１９號","E_COORD97":170272.5,"N_COORD97":2542952.5,"ADDRESS":"林森路二段１９號","OBJECTID":602665},"geometry":{"x":170272.5,"y":2542952.5}},{"attributes":{"ID":602693,"DIS_CODE":0,"TOWNNAME":"東區","LI":"東安里","LIN":"22鄰","STREET":"林森路","SECT":"二段","MAREA":" ","LANE":" ","ALLEY":" ","HOUSE_NO":"３５號","E_COORD97":170280.14000000001,"N_COORD97":2542964.29,"ADDRESS":"林森路二段３５號","OBJECTID":602666},"geometry":{"x":170280.14000000153,"y":2542964.290000001}},{"attributes":{"ID":602694,"DIS_CODE":0,"TOWNNAME":"東區","LI":"中西里","LIN":"22鄰","STREET":"長榮路","SECT":"二段","MAREA":" ","LANE":" ","ALLEY":" ","HOUSE_NO":"９６號","E_COORD97":170015.22,"N_COORD97":2543254.25,"ADDRESS":"長榮路二段９６號","OBJECTID":602667},"geometry":{"x":170015.2200000016,"y":2543254.2500000019}},{"attributes":{"ID":602695,"DIS_CODE":0,"TOWNNAME":"東區","LI":"中西里","LIN":"22鄰","STREET":"長榮路","SECT":"二段","MAREA":" ","LANE":" ","ALLEY":" ","HOUSE_NO":"１２４號","E_COORD97":170052.39999999999,"N_COORD97":2543267.52,"ADDRESS":"長榮路二段１２４號","OBJECTID":602668},"geometry":{"x":170052.4000000013,"y":2543267.5200000033}},{"attributes":{"ID":602696,"DIS_CODE":0,"TOWNNAME":"東區","LI":"中西里","LIN":"22鄰","STREET":"長榮路","SECT":"二段","MAREA":" ","LANE":" ","ALLEY":" ","HOUSE_NO":"１５４號","E_COORD97":170039.98999999999,"N_COORD97":2543323.3399999999,"ADDRESS":"長榮路二段１５４號","OBJECTID":602669},"geometry":{"x":170039.99000000115,"y":2543323.3400000036}},{"attributes":{"ID":602697,"DIS_CODE":0,"TOWNNAME":"東區","LI":"裕農里","LIN":"22鄰","STREET":"裕豐街","SECT":" ","MAREA":" ","LANE":" ","ALLEY":" ","HOUSE_NO":"１５８號","E_COORD97":170808.10999999999,"N_COORD97":2543055.8300000001,"ADDRESS":"裕豐街１５８號","OBJECTID":602670},"geometry":{"x":170808.1099999994,"y":2543055.8300000038}},{"attributes":{"ID":602698,"DIS_CODE":0,"TOWNNAME":"東區","LI":"裕農里","LIN":"22鄰","STREET":"裕豐街","SECT":" ","MAREA":" ","LANE":" ","ALLEY":" ","HOUSE_NO":"１６０號","E_COORD97":170807.42000000001,"N_COORD97":2543062.4300000002,"ADDRESS":"裕豐街１６０號","OBJECTID":602671},"geometry":{"x":170807.42000000179,"y":2543062.4300000016}},{"attributes":{"ID":602699,"DIS_CODE":0,"TOWNNAME":"東區","LI":"裕農里","LIN":"22鄰","STREET":"裕豐街","SECT":" ","MAREA":" ","LANE":" ","ALLEY":" ","HOUSE_NO":"１６２號","E_COORD97":170801.32999999999,"N_COORD97":2543065.3799999999,"ADDRESS":"裕豐街１６２號","OBJECTID":602672},"geometry":{"x":170801.33000000194,"y":2543065.3800000008}},{"attributes":{"ID":602700,"DIS_CODE":0,"TOWNNAME":"東區","LI":"裕農里","LIN":"22鄰","STREET":"裕豐街","SECT":" ","MAREA":" ","LANE":" ","ALLEY":" ","HOUSE_NO":"１６４號","E_COORD97":170790.03,"N_COORD97":2543065.8999999999,"ADDRESS":"裕豐街１６４號","OBJECTID":602673},"geometry":{"x":170790.03000000212,"y":2543065.9000000041}},{"attributes":{"ID":602701,"DIS_CODE":0,"TOWNNAME":"東區","LI":"裕農里","LIN":"22鄰","STREET":"裕豐街","SECT":" ","MAREA":" ","LANE":" ","ALLEY":" ","HOUSE_NO":"１６６號","E_COORD97":170772.98999999999,"N_COORD97":2543065.3599999999,"ADDRESS":"裕豐街１６６號","OBJECTID":602674},"geometry":{"x":170772.99000000022,"y":2543065.3600000031}},{"attributes":{"ID":602702,"DIS_CODE":0,"TOWNNAME":"東區","LI":"裕農里","LIN":"22鄰","STREET":"裕豐街","SECT":" ","MAREA":" ","LANE":" ","ALLEY":" ","HOUSE_NO":"１６８號","E_COORD97":170775.07999999999,"N_COORD97":2543069.3500000001,"ADDRESS":"裕豐街１６８號","OBJECTID":602675},"geometry":{"x":170775.08000000101,"y":2543069.3500000015}},{"attributes":{"ID":602703,"DIS_CODE":0,"TOWNNAME":"永康區","LI":"崑山里","LIN":"44鄰","STREET":"國光六街","SECT":" ","MAREA":" ","LANE":" ","ALLEY":" ","HOUSE_NO":"１２３號","E_COORD97":173959.79000000001,"N_COORD97":2545359.3999999999,"ADDRESS":"國光六街１２３號","OBJECTID":602676},"geometry":{"x":173959.7900000019,"y":2545359.4000000022}},{"attributes":{"ID":602704,"DIS_CODE":0,"TOWNNAME":"永康區","LI":"崑山里","LIN":"45鄰","STREET":"國光五街","SECT":" ","MAREA":" ","LANE":" ","ALLEY":" ","HOUSE_NO":"６８號","E_COORD97":174064.32000000001,"N_COORD97":2545120.23,"ADDRESS":"國光五街６８號","OBJECTID":602677},"geometry":{"x":174064.3200000003,"y":2545120.2300000004}},{"attributes":{"ID":602705,"DIS_CODE":0,"TOWNNAME":"東區","LI":"崇善里","LIN":"22鄰","STREET":"崇善十二街","SECT":" ","MAREA":" ","LANE":" ","ALLEY":" ","HOUSE_NO":"３５號","E_COORD97":171247.66,"N_COORD97":2541113.3500000001,"ADDRESS":"崇善十二街３５號","OBJECTID":602678},"geometry":{"x":171247.66000000015,"y":2541113.3500000015}},{"attributes":{"ID":602706,"DIS_CODE":0,"TOWNNAME":"東區","LI":"崇善里","LIN":"22鄰","STREET":"崇善十二街","SECT":" ","MAREA":" ","LANE":" ","ALLEY":" ","HOUSE_NO":"３３號","E_COORD97":171243.16,"N_COORD97":2541112.0299999998,"ADDRESS":"崇善十二街３３號","OBJECTID":602679},"geometry":{"x":171243.16000000015,"y":2541112.0300000012}},{"attributes":{"ID":602707,"DIS_CODE":0,"TOWNNAME":"永康區","LI":"崑山里","LIN":"30鄰","STREET":"國光二街","SECT":" ","MAREA":" ","LANE":" ","ALLEY":" ","HOUSE_NO":"７８號","E_COORD97":173858.35000000001,"N_COORD97":2544746.8100000001,"ADDRESS":"國光二街７８號","OBJECTID":602680},"geometry":{"x":173858.34999999963,"y":2544746.8100000005}},{"attributes":{"ID":602708,"DIS_CODE":0,"TOWNNAME":"永康區","LI":"崑山里","LIN":"44鄰","STREET":"國光六街","SECT":" ","MAREA":" ","LANE":" ","ALLEY":" ","HOUSE_NO":"１３１號","E_COORD97":173944.38,"N_COORD97":2545364.4300000002,"ADDRESS":"國光六街１３１號","OBJECTID":602681},"geometry":{"x":173944.38000000082,"y":2545364.4300000016}},{"attributes":{"ID":602709,"DIS_CODE":0,"TOWNNAME":"永康區","LI":"崑山里","LIN":"45鄰","STREET":"國光五街","SECT":" ","MAREA":" ","LANE":" ","ALLEY":" ","HOUSE_NO":"７０號","E_COORD97":174058.95999999999,"N_COORD97":2545126.48,"ADDRESS":"國光五街７０號","OBJECTID":602682},"geometry":{"x":174058.96000000089,"y":2545126.4799999986}},{"attributes":{"ID":602710,"DIS_CODE":0,"TOWNNAME":"永康區","LI":"崑山里","LIN":"23鄰","STREET":"國光一街","SECT":" ","MAREA":" ","LANE":" ","ALLEY":" ","HOUSE_NO":"５６號","E_COORD97":173883.26999999999,"N_COORD97":2544628.3199999998,"ADDRESS":"國光一街５６號","OBJECTID":602683},"geometry":{"x":173883.27000000048,"y":2544628.3200000003}},{"attributes":{"ID":602711,"DIS_CODE":0,"TOWNNAME":"東區","LI":"裕農里","LIN":"22鄰","STREET":"裕豐街","SECT":" ","MAREA":" ","LANE":" ","ALLEY":" ","HOUSE_NO":"１４６號","E_COORD97":170767.26000000001,"N_COORD97":2543031.7000000002,"ADDRESS":"裕豐街１４６號","OBJECTID":602684},"geometry":{"x":170767.25999999978,"y":2543031.6999999993}},{"attributes":{"ID":602712,"DIS_CODE":0,"TOWNNAME":"東區","LI":"裕農里","LIN":"22鄰","STREET":"裕豐街","SECT":" ","MAREA":" ","LANE":" ","ALLEY":" ","HOUSE_NO":"１４８號","E_COORD97":170769.69,"N_COORD97":2543036.8999999999,"ADDRESS":"裕豐街１４８號","OBJECTID":602685},"geometry":{"x":170769.69000000041,"y":2543036.9000000022}},{"attributes":{"ID":602713,"DIS_CODE":0,"TOWNNAME":"東區","LI":"裕農里","LIN":"22鄰","STREET":"裕豐街","SECT":" ","MAREA":" ","LANE":" ","ALLEY":" ","HOUSE_NO":"１５０號","E_COORD97":170771.07999999999,"N_COORD97":2543041.5899999999,"ADDRESS":"裕豐街１５０號","OBJECTID":602686},"geometry":{"x":170771.08000000101,"y":2543041.5900000017}},{"attributes":{"ID":602714,"DIS_CODE":0,"TOWNNAME":"東區","LI":"裕農里","LIN":"22鄰","STREET":"裕豐街","SECT":" ","MAREA":" ","LANE":" ","ALLEY":" ","HOUSE_NO":"１５２號","E_COORD97":170772.47,"N_COORD97":2543047.3199999998,"ADDRESS":"裕豐街１５２號","OBJECTID":602687},"geometry":{"x":170772.46999999974,"y":2543047.3200000022}},{"attributes":{"ID":602715,"DIS_CODE":0,"TOWNNAME":"東區","LI":"裕農里","LIN":"22鄰","STREET":"裕豐街","SECT":" ","MAREA":" ","LANE":" ","ALLEY":" ","HOUSE_NO":"１５４號","E_COORD97":170772.82000000001,"N_COORD97":2543050.1000000001,"ADDRESS":"裕豐街１５４號","OBJECTID":602688},"geometry":{"x":170772.82000000216,"y":2543050.1000000034}},{"attributes":{"ID":602716,"DIS_CODE":0,"TOWNNAME":"東區","LI":"裕農里","LIN":"22鄰","STREET":"裕豐街","SECT":" ","MAREA":" ","LANE":" ","ALLEY":" ","HOUSE_NO":"１５６號","E_COORD97":170772.98999999999,"N_COORD97":2543054.4399999999,"ADDRESS":"裕豐街１５６號","OBJECTID":602689},"geometry":{"x":170772.99000000022,"y":2543054.4400000032}},{"attributes":{"ID":602717,"DIS_CODE":0,"TOWNNAME":"永康區","LI":"尚頂里","LIN":"22鄰","STREET":"大武街","SECT":" ","MAREA":" ","LANE":" ","ALLEY":" ","HOUSE_NO":"６９號","E_COORD97":170378.20999999999,"N_COORD97":2546829,"ADDRESS":"大武街６９號","OBJECTID":602690},"geometry":{"x":170378.20999999903,"y":2546829.0000000019}},{"attributes":{"ID":602718,"DIS_CODE":0,"TOWNNAME":"永康區","LI":"龍潭里","LIN":"22鄰","STREET":"龍安街","SECT":" ","MAREA":" ","LANE":" ","ALLEY":" ","HOUSE_NO":"２７０號","E_COORD97":174757.20000000001,"N_COORD97":2548569.8100000001,"ADDRESS":"龍安街２７０號","OBJECTID":602691},"geometry":{"x":174757.19999999925,"y":2548569.8100000024}},{"attributes":{"ID":602719,"DIS_CODE":0,"TOWNNAME":"永康區","LI":"\u25A0洲里","LIN":"22鄰","STREET":"中正南路","SECT":" ","MAREA":" ","LANE":" ","ALLEY":" ","HOUSE_NO":"７２３號","E_COORD97":171574.54000000001,"N_COORD97":2548858.7599999998,"ADDRESS":"中正南路７２３號","OBJECTID":602692},"geometry":{"x":171574.53999999911,"y":2548858.7599999998}},{"attributes":{"ID":602720,"DIS_CODE":0,"TOWNNAME":"永康區","LI":"龍潭里","LIN":"22鄰","STREET":"龍安街","SECT":" ","MAREA":" ","LANE":" ","ALLEY":" ","HOUSE_NO":"２６６號","E_COORD97":174749.39999999999,"N_COORD97":2548566.8100000001,"ADDRESS":"龍安街２６６號","OBJECTID":602693},"geometry":{"x":174749.40000000224,"y":2548566.8100000024}},{"attributes":{"ID":602721,"DIS_CODE":0,"TOWNNAME":"永康區","LI":"\u25A0行里","LIN":"22鄰","STREET":"正南五街","SECT":" ","MAREA":" ","LANE":" ","ALLEY":" ","HOUSE_NO":"４７６號","E_COORD97":171672.84,"N_COORD97":2548745.46,"ADDRESS":"正南五街４７６號","OBJECTID":602694},"geometry":{"x":171672.84000000078,"y":2548745.4600000028}},{"attributes":{"ID":602722,"DIS_CODE":0,"TOWNNAME":"永康區","LI":"\u25A0洲里","LIN":"22鄰","STREET":"中正南路","SECT":" ","MAREA":" ","LANE":" ","ALLEY":" ","HOUSE_NO":"７１５號","E_COORD97":171559.70000000001,"N_COORD97":2548844.5099999998,"ADDRESS":"中正南路７１５號","OBJECTID":602695},"geometry":{"x":171559.70000000019,"y":2548844.5099999998}},{"attributes":{"ID":602723,"DIS_CODE":0,"TOWNNAME":"永康區","LI":"\u25A0洲里","LIN":"22鄰","STREET":"中正南路","SECT":" ","MAREA":" ","LANE":" ","ALLEY":" ","HOUSE_NO":"６９９號","E_COORD97":171525.60000000001,"N_COORD97":2548813,"ADDRESS":"中正南路６９９號","OBJECTID":602696},"geometry":{"x":171525.59999999963,"y":2548813.0000000019}},{"attributes":{"ID":602724,"DIS_CODE":0,"TOWNNAME":"永康區","LI":"\u25A0洲里","LIN":"22鄰","STREET":"中正南路","SECT":" ","MAREA":" ","LANE":" ","ALLEY":" ","HOUSE_NO":"６８１號","E_COORD97":171476.89999999999,"N_COORD97":2548768.7400000002,"ADDRESS":"中正南路６８１號","OBJECTID":602697},"geometry":{"x":171476.90000000037,"y":2548768.7400000002}},{"attributes":{"ID":602725,"DIS_CODE":0,"TOWNNAME":"永康區","LI":"\u25A0洲里","LIN":"22鄰","STREET":"中正南路","SECT":" ","MAREA":" ","LANE":" ","ALLEY":" ","HOUSE_NO":"７０５號","E_COORD97":171536.97,"N_COORD97":2548823.25,"ADDRESS":"中正南路７０５號","OBJECTID":602698},"geometry":{"x":171536.96999999974,"y":2548823.2500000037}},{"attributes":{"ID":602726,"DIS_CODE":0,"TOWNNAME":"永康區","LI":"龍潭里","LIN":"22鄰","STREET":"自強路","SECT":" ","MAREA":" ","LANE":" ","ALLEY":" ","HOUSE_NO":"８６４號","E_COORD97":174712.67000000001,"N_COORD97":2548709.73,"ADDRESS":"自強路８６４號","OBJECTID":602699},"geometry":{"x":174712.66999999993,"y":2548709.7300000023}},{"attributes":{"ID":602727,"DIS_CODE":0,"TOWNNAME":"永康區","LI":"龍潭里","LIN":"22鄰","STREET":"龍安街","SECT":" ","MAREA":" ","LANE":" ","ALLEY":" ","HOUSE_NO":"２４３號","E_COORD97":174751.73000000001,"N_COORD97":2548591.5499999998,"ADDRESS":"龍安街２４３號","OBJECTID":602700},"geometry":{"x":174751.73000000045,"y":2548591.5500000045}},{"attributes":{"ID":602728,"DIS_CODE":0,"TOWNNAME":"永康區","LI":"網寮里","LIN":"22鄰","STREET":"永勝街","SECT":" ","MAREA":" ","LANE":" ","ALLEY":" ","HOUSE_NO":"６６號","E_COORD97":173620.56,"N_COORD97":2546274.6699999999,"ADDRESS":"永勝街６６號","OBJECTID":602701},"geometry":{"x":173620.56000000052,"y":2546274.6700000018}},{"attributes":{"ID":602729,"DIS_CODE":0,"TOWNNAME":"永康區","LI":"龍潭里","LIN":"22鄰","STREET":"龍潭街","SECT":" ","MAREA":" ","LANE":" ","ALLEY":" ","HOUSE_NO":"３３２號","E_COORD97":174814.31,"N_COORD97":2548464.52,"ADDRESS":"龍潭街３３２號","OBJECTID":602702},"geometry":{"x":174814.31000000052,"y":2548464.5199999996}},{"attributes":{"ID":602730,"DIS_CODE":0,"TOWNNAME":"永康區","LI":"龍潭里","LIN":"22鄰","STREET":"自強路","SECT":" ","MAREA":" ","LANE":" ","ALLEY":" ","HOUSE_NO":"８６２號","E_COORD97":174708.37,"N_COORD97":2548706.48,"ADDRESS":"自強路８６２號","OBJECTID":602703},"geometry":{"x":174708.37000000011,"y":2548706.4800000004}},{"attributes":{"ID":602731,"DIS_CODE":0,"TOWNNAME":"永康區","LI":"網寮里","LIN":"22鄰","STREET":"永大一路","SECT":" ","MAREA":" ","LANE":" ","ALLEY":" ","HOUSE_NO":"２３７號","E_COORD97":173690.23000000001,"N_COORD97":2546310.6800000002,"ADDRESS":"永大一路２３７號","OBJECTID":602704},"geometry":{"x":173690.23000000045,"y":2546310.6799999997}},{"attributes":{"ID":602732,"DIS_CODE":0,"TOWNNAME":"永康區","LI":"龍潭里","LIN":"22鄰","STREET":"龍安街","SECT":" ","MAREA":" ","LANE":" ","ALLEY":" ","HOUSE_NO":"２４１號","E_COORD97":174745.04000000001,"N_COORD97":2548589.54,"ADDRESS":"龍安街２４１號","OBJECTID":602705},"geometry":{"x":174745.04000000097,"y":2548589.5399999991}},{"attributes":{"ID":602733,"DIS_CODE":0,"TOWNNAME":"永康區","LI":"龍潭里","LIN":"22鄰","STREET":"龍潭街","SECT":" ","MAREA":" ","LANE":" ","ALLEY":" ","HOUSE_NO":"３３６號","E_COORD97":174796.39000000001,"N_COORD97":2548455.5299999998,"ADDRESS":"龍潭街３３６號","OBJECTID":602706},"geometry":{"x":174796.3900000006,"y":2548455.5300000012}},{"attributes":{"ID":602734,"DIS_CODE":0,"TOWNNAME":"永康區","LI":"龍潭里","LIN":"22鄰","STREET":"自強路","SECT":" ","MAREA":" ","LANE":" ","ALLEY":" ","HOUSE_NO":"８６８號","E_COORD97":174721.35000000001,"N_COORD97":2548716.73,"ADDRESS":"自強路８６８號","OBJECTID":602707},"geometry":{"x":174721.34999999963,"y":2548716.7300000023}},{"attributes":{"ID":602735,"DIS_CODE":0,"TOWNNAME":"永康區","LI":"龍潭里","LIN":"22鄰","STREET":"龍安街","SECT":" ","MAREA":" ","LANE":" ","ALLEY":" ","HOUSE_NO":"２４７號","E_COORD97":174759.89000000001,"N_COORD97":2548597.7999999998,"ADDRESS":"龍安街２４７號","OBJECTID":602708},"geometry":{"x":174759.88999999966,"y":2548597.8000000026}},{"attributes":{"ID":602736,"DIS_CODE":0,"TOWNNAME":"永康區","LI":"網寮里","LIN":"22鄰","STREET":"永大一路","SECT":" ","MAREA":" ","LANE":" ","ALLEY":" ","HOUSE_NO":"２４５號","E_COORD97":173674.01000000001,"N_COORD97":2546306.4300000002,"ADDRESS":"永大一路２４５號","OBJECTID":602709},"geometry":{"x":173674.01000000071,"y":2546306.4300000016}},{"attributes":{"ID":602737,"DIS_CODE":0,"TOWNNAME":"永康區","LI":"龍潭里","LIN":"22鄰","STREET":"自強路","SECT":" ","MAREA":" ","LANE":" ","ALLEY":" ","HOUSE_NO":"８５８號","E_COORD97":174699.60000000001,"N_COORD97":2548699.23,"ADDRESS":"自強路８５８號","OBJECTID":602710},"geometry":{"x":174699.5999999987,"y":2548699.2300000023}},{"attributes":{"ID":602738,"DIS_CODE":0,"TOWNNAME":"永康區","LI":"網寮里","LIN":"22鄰","STREET":"永大一路","SECT":" ","MAREA":" ","LANE":" ","ALLEY":" ","HOUSE_NO":"２３９號","E_COORD97":173686.13,"N_COORD97":2546309.6800000002,"ADDRESS":"永大一路２３９號","OBJECTID":602711},"geometry":{"x":173686.13000000175,"y":2546309.6799999997}},{"attributes":{"ID":602739,"DIS_CODE":0,"TOWNNAME":"永康區","LI":"網寮里","LIN":"22鄰","STREET":"文化路","SECT":" ","MAREA":" ","LANE":" ","ALLEY":" ","HOUSE_NO":"２１８號","E_COORD97":173681.35999999999,"N_COORD97":2546170.4399999999,"ADDRESS":"文化路２１８號","OBJECTID":602712},"geometry":{"x":173681.36000000034,"y":2546170.4400000032}},{"attributes":{"ID":602740,"DIS_CODE":0,"TOWNNAME":"永康區","LI":"龍潭里","LIN":"22鄰","STREET":"龍潭街","SECT":" ","MAREA":" ","LANE":" ","ALLEY":" ","HOUSE_NO":"３３２之２號","E_COORD97":174809.39000000001,"N_COORD97":2548461.1400000001,"ADDRESS":"龍潭街３３２之２號","OBJECTID":602713},"geometry":{"x":174809.38999999966,"y":2548461.1400000006}},{"attributes":{"ID":602741,"DIS_CODE":0,"TOWNNAME":"仁德區","LI":"土庫里","LIN":"22鄰","STREET":"太子路","SECT":" ","MAREA":" ","LANE":" ","ALLEY":" ","HOUSE_NO":"２２３號","E_COORD97":174327.85999999999,"N_COORD97":2543471.75,"ADDRESS":"太子路２２３號","OBJECTID":602714},"geometry":{"x":174327.86000000127,"y":2543471.75}},{"attributes":{"ID":602742,"DIS_CODE":0,"TOWNNAME":"仁德區","LI":"土庫里","LIN":"22鄰","STREET":"太子路","SECT":" ","MAREA":" ","LANE":" ","ALLEY":" ","HOUSE_NO":"２２５號","E_COORD97":174323.47,"N_COORD97":2543470.25,"ADDRESS":"太子路２２５號","OBJECTID":602715},"geometry":{"x":174323.47000000067,"y":2543470.2500000019}},{"attributes":{"ID":602743,"DIS_CODE":0,"TOWNNAME":"仁德區","LI":"土庫里","LIN":"22鄰","STREET":"太子路","SECT":" ","MAREA":" ","LANE":" ","ALLEY":" ","HOUSE_NO":"２２７號","E_COORD97":174319.12,"N_COORD97":2543469,"ADDRESS":"太子路２２７號","OBJECTID":602716},"geometry":{"x":174319.12000000104,"y":2543469.0000000019}},{"attributes":{"ID":602744,"DIS_CODE":0,"TOWNNAME":"仁德區","LI":"土庫里","LIN":"22鄰","STREET":"太子路","SECT":" ","MAREA":" ","LANE":" ","ALLEY":" ","HOUSE_NO":"２１７號","E_COORD97":174332.37,"N_COORD97":2543495,"ADDRESS":"太子路２１７號","OBJECTID":602717},"geometry":{"x":174332.37000000197,"y":2543495}},{"attributes":{"ID":602745,"DIS_CODE":0,"TOWNNAME":"仁德區","LI":"土庫里","LIN":"22鄰","STREET":"太子路","SECT":" ","MAREA":" ","LANE":" ","ALLEY":" ","HOUSE_NO":"２１１之１號","E_COORD97":174357.39999999999,"N_COORD97":2543498.54,"ADDRESS":"太子路２１１之１號","OBJECTID":602718},"geometry":{"x":174357.40000000037,"y":2543498.540000001}},{"attributes":{"ID":602746,"DIS_CODE":0,"TOWNNAME":"仁德區","LI":"土庫里","LIN":"22鄰","STREET":"太子路","SECT":" ","MAREA":" ","LANE":" ","ALLEY":" ","HOUSE_NO":"２０５號","E_COORD97":174367.45999999999,"N_COORD97":2543498.75,"ADDRESS":"太子路２０５號","OBJECTID":602719},"geometry":{"x":174367.46000000089,"y":2543498.75}},{"attributes":{"ID":602747,"DIS_CODE":0,"TOWNNAME":"仁德區","LI":"仁義里","LIN":"22鄰","STREET":"中清路","SECT":" ","MAREA":" ","LANE":" ","ALLEY":" ","HOUSE_NO":"８７號","E_COORD97":173704.14999999999,"N_COORD97":2541321.54,"ADDRESS":"中清路８７號","OBJECTID":602720},"geometry":{"x":173704.1500000013,"y":2541321.540000001}},{"attributes":{"ID":602748,"DIS_CODE":0,"TOWNNAME":"仁德區","LI":"仁義里","LIN":"22鄰","STREET":"中清路","SECT":" ","MAREA":" ","LANE":" ","ALLEY":" ","HOUSE_NO":"１０８號","E_COORD97":173728.70000000001,"N_COORD97":2541353.0499999998,"ADDRESS":"中清路１０８號","OBJECTID":602721},"geometry":{"x":173728.70000000112,"y":2541353.0500000045}},{"attributes":{"ID":602749,"DIS_CODE":0,"TOWNNAME":"仁德區","LI":"仁義里","LIN":"22鄰","STREET":"正義路","SECT":" ","MAREA":" ","LANE":" ","ALLEY":" ","HOUSE_NO":"１１２號","E_COORD97":173678.20999999999,"N_COORD97":2541414.0099999998,"ADDRESS":"正義路１１２號","OBJECTID":602722},"geometry":{"x":173678.20999999996,"y":2541414.0100000016}},{"attributes":{"ID":602750,"DIS_CODE":0,"TOWNNAME":"仁德區","LI":"仁義里","LIN":"22鄰","STREET":"中清路","SECT":" ","MAREA":" ","LANE":" ","ALLEY":" ","HOUSE_NO":"９３號","E_COORD97":173704.01999999999,"N_COORD97":2541333.5499999998,"ADDRESS":"中清路９３號","OBJECTID":602723},"geometry":{"x":173704.02000000048,"y":2541333.5500000026}},{"attributes":{"ID":602751,"DIS_CODE":0,"TOWNNAME":"仁德區","LI":"仁義里","LIN":"22鄰","STREET":"中清路","SECT":" ","MAREA":" ","LANE":" ","ALLEY":" ","HOUSE_NO":"９１號","E_COORD97":173704.12,"N_COORD97":2541329.5499999998,"ADDRESS":"中清路９１號","OBJECTID":602724},"geometry":{"x":173704.12000000104,"y":2541329.5500000045}},{"attributes":{"ID":602752,"DIS_CODE":0,"TOWNNAME":"仁德區","LI":"仁義里","LIN":"22鄰","STREET":"正義路","SECT":" ","MAREA":" ","LANE":" ","ALLEY":" ","HOUSE_NO":"１１８號","E_COORD97":173692.20000000001,"N_COORD97":2541414.5099999998,"ADDRESS":"正義路１１８號","OBJECTID":602725},"geometry":{"x":173692.20000000019,"y":2541414.5100000016}},{"attributes":{"ID":602753,"DIS_CODE":0,"TOWNNAME":"仁德區","LI":"仁義里","LIN":"22鄰","STREET":"中清路","SECT":" ","MAREA":" ","LANE":" ","ALLEY":" ","HOUSE_NO":"９８號","E_COORD97":173726.10999999999,"N_COORD97":2541331.0499999998,"ADDRESS":"中清路９８號","OBJECTID":602726},"geometry":{"x":173726.11000000127,"y":2541331.0500000007}},{"attributes":{"ID":602754,"DIS_CODE":0,"TOWNNAME":"仁德區","LI":"仁義里","LIN":"22鄰","STREET":"中清路","SECT":" ","MAREA":" ","LANE":" ","ALLEY":" ","HOUSE_NO":"１０２號","E_COORD97":173727.92000000001,"N_COORD97":2541339.7999999998,"ADDRESS":"中清路１０２號","OBJECTID":602727},"geometry":{"x":173727.91999999993,"y":2541339.8000000007}},{"attributes":{"ID":602755,"DIS_CODE":0,"TOWNNAME":"仁德區","LI":"仁義里","LIN":"22鄰","STREET":"中清路","SECT":" ","MAREA":" ","LANE":" ","ALLEY":" ","HOUSE_NO":"１３６號","E_COORD97":173733.45999999999,"N_COORD97":2541431.79,"ADDRESS":"中清路１３６號","OBJECTID":602728},"geometry":{"x":173733.46000000089,"y":2541431.790000001}},{"attributes":{"ID":602756,"DIS_CODE":0,"TOWNNAME":"仁德區","LI":"太子里","LIN":"22鄰","STREET":"太子北路","SECT":" ","MAREA":" ","LANE":" ","ALLEY":" ","HOUSE_NO":"２６８號","E_COORD97":173877.57999999999,"N_COORD97":2543610.7599999998,"ADDRESS":"太子北路２６８號","OBJECTID":602729},"geometry":{"x":173877.58000000007,"y":2543610.7599999998}},{"attributes":{"ID":602757,"DIS_CODE":0,"TOWNNAME":"仁德區","LI":"仁義里","LIN":"22鄰","STREET":"中清路","SECT":" ","MAREA":" ","LANE":" ","ALLEY":" ","HOUSE_NO":"９７號","E_COORD97":173705.16,"N_COORD97":2541342.2999999998,"ADDRESS":"中清路９７號","OBJECTID":602730},"geometry":{"x":173705.16000000108,"y":2541342.3000000026}},{"attributes":{"ID":602758,"DIS_CODE":0,"TOWNNAME":"仁德區","LI":"仁義里","LIN":"22鄰","STREET":"正義路","SECT":" ","MAREA":" ","LANE":" ","ALLEY":" ","HOUSE_NO":"１２２號","E_COORD97":173700.62,"N_COORD97":2541413.2599999998,"ADDRESS":"正義路１２２號","OBJECTID":602731},"geometry":{"x":173700.62000000104,"y":2541413.2600000016}},{"attributes":{"ID":602759,"DIS_CODE":0,"TOWNNAME":"仁德區","LI":"仁義里","LIN":"22鄰","STREET":"中清路","SECT":" ","MAREA":" ","LANE":" ","ALLEY":" ","HOUSE_NO":"９６號","E_COORD97":173725.82999999999,"N_COORD97":2541326.54,"ADDRESS":"中清路９６號","OBJECTID":602732},"geometry":{"x":173725.83000000101,"y":2541326.5399999991}},{"attributes":{"ID":602760,"DIS_CODE":0,"TOWNNAME":"仁德區","LI":"仁義里","LIN":"22鄰","STREET":"中清路","SECT":" ","MAREA":" ","LANE":" ","ALLEY":" ","HOUSE_NO":"９４號","E_COORD97":173725.64999999999,"N_COORD97":2541322.29,"ADDRESS":"中清路９４號","OBJECTID":602733},"geometry":{"x":173725.6500000013,"y":2541322.2899999991}},{"attributes":{"ID":602761,"DIS_CODE":0,"TOWNNAME":"仁德區","LI":"仁義里","LIN":"22鄰","STREET":"中清路","SECT":" ","MAREA":" ","LANE":" ","ALLEY":" ","HOUSE_NO":"９２號","E_COORD97":173725.07999999999,"N_COORD97":2541318.04,"ADDRESS":"中清路９２號","OBJECTID":602734},"geometry":{"x":173725.08000000007,"y":2541318.040000001}},{"attributes":{"ID":602762,"DIS_CODE":0,"TOWNNAME":"仁德區","LI":"仁義里","LIN":"22鄰","STREET":"中清路","SECT":" ","MAREA":" ","LANE":" ","ALLEY":" ","HOUSE_NO":"９５號","E_COORD97":173704.45999999999,"N_COORD97":2541337.5499999998,"ADDRESS":"中清路９５號","OBJECTID":602735},"geometry":{"x":173704.46000000089,"y":2541337.5500000026}},{"attributes":{"ID":602763,"DIS_CODE":0,"TOWNNAME":"仁德區","LI":"仁義里","LIN":"22鄰","STREET":"中清路","SECT":" ","MAREA":" ","LANE":" ","ALLEY":" ","HOUSE_NO":"１０６號","E_COORD97":173728.37,"N_COORD97":2541348.7999999998,"ADDRESS":"中清路１０６號","OBJECTID":602736},"geometry":{"x":173728.37000000011,"y":2541348.8000000026}},{"attributes":{"ID":602764,"DIS_CODE":0,"TOWNNAME":"仁德區","LI":"仁義里","LIN":"22鄰","STREET":"正義路","SECT":" ","MAREA":" ","LANE":" ","ALLEY":" ","HOUSE_NO":"１２６號","E_COORD97":173709.67000000001,"N_COORD97":2541411.5099999998,"ADDRESS":"正義路１２６號","OBJECTID":602737},"geometry":{"x":173709.67000000179,"y":2541411.5100000016}},{"attributes":{"ID":602765,"DIS_CODE":0,"TOWNNAME":"仁德區","LI":"仁義里","LIN":"22鄰","STREET":"正義路","SECT":" ","MAREA":" ","LANE":" ","ALLEY":" ","HOUSE_NO":"１４０號","E_COORD97":173771.72,"N_COORD97":2541404.0099999998,"ADDRESS":"正義路１４０號","OBJECTID":602738},"geometry":{"x":173771.7200000016,"y":2541404.0100000016}},{"attributes":{"ID":602766,"DIS_CODE":0,"TOWNNAME":"仁德區","LI":"仁義里","LIN":"22鄰","STREET":"中清路","SECT":" ","MAREA":" ","LANE":" ","ALLEY":" ","HOUSE_NO":"１１６號","E_COORD97":173730.14999999999,"N_COORD97":2541365.0499999998,"ADDRESS":"中清路１１６號","OBJECTID":602739},"geometry":{"x":173730.15000000037,"y":2541365.0500000007}},{"attributes":{"ID":602767,"DIS_CODE":0,"TOWNNAME":"仁德區","LI":"仁義里","LIN":"22鄰","STREET":"正義路","SECT":" ","MAREA":" ","LANE":" ","ALLEY":" ","HOUSE_NO":"１０２號","E_COORD97":173656.57999999999,"N_COORD97":2541419.5099999998,"ADDRESS":"正義路１０２號","OBJECTID":602740},"geometry":{"x":173656.58000000101,"y":2541419.5099999998}},{"attributes":{"ID":602768,"DIS_CODE":0,"TOWNNAME":"東區","LI":"中西里","LIN":"22鄰","STREET":"長榮路","SECT":"二段","MAREA":" ","LANE":" ","ALLEY":" ","HOUSE_NO":"１３２號","E_COORD97":170046.42000000001,"N_COORD97":2543280.8900000001,"ADDRESS":"長榮路二段１３２號","OBJECTID":602741},"geometry":{"x":170046.42000000086,"y":2543280.8900000025}},{"attributes":{"ID":602769,"DIS_CODE":0,"TOWNNAME":"東區","LI":"中西里","LIN":"22鄰","STREET":"長榮路","SECT":"二段","MAREA":" ","LANE":" ","ALLEY":" ","HOUSE_NO":"１６２號","E_COORD97":170051.45999999999,"N_COORD97":2543338.5499999998,"ADDRESS":"長榮路二段１６２號","OBJECTID":602742},"geometry":{"x":170051.46000000089,"y":2543338.5500000007}},{"attributes":{"ID":602770,"DIS_CODE":0,"TOWNNAME":"東區","LI":"中西里","LIN":"22鄰","STREET":"長榮路","SECT":"二段","MAREA":" ","LANE":" ","ALLEY":" ","HOUSE_NO":"１６６號","E_COORD97":170056.81,"N_COORD97":2543346.8399999999,"ADDRESS":"長榮路二段１６６號","OBJECTID":602743},"geometry":{"x":170056.81000000145,"y":2543346.839999998}},{"attributes":{"ID":602771,"DIS_CODE":0,"TOWNNAME":"東區","LI":"中西里","LIN":"22鄰","STREET":"長榮路","SECT":"二段","MAREA":" ","LANE":" ","ALLEY":" ","HOUSE_NO":"１４４號","E_COORD97":170022.48999999999,"N_COORD97":2543300.52,"ADDRESS":"長榮路二段１４４號","OBJECTID":602744},"geometry":{"x":170022.49000000209,"y":2543300.5199999996}},{"attributes":{"ID":602772,"DIS_CODE":0,"TOWNNAME":"東區","LI":"中西里","LIN":"22鄰","STREET":"長榮路","SECT":"二段","MAREA":" ","LANE":" ","ALLEY":" ","HOUSE_NO":"９８號","E_COORD97":170007.60000000001,"N_COORD97":2543259.8399999999,"ADDRESS":"長榮路二段９８號","OBJECTID":602745},"geometry":{"x":170007.60000000056,"y":2543259.8400000017}},{"attributes":{"ID":602773,"DIS_CODE":0,"TOWNNAME":"東區","LI":"忠孝里","LIN":"22鄰","STREET":"崇明七街","SECT":" ","MAREA":" ","LANE":" ","ALLEY":" ","HOUSE_NO":"６７號","E_COORD97":169761.45000000001,"N_COORD97":2542193.0099999998,"ADDRESS":"崇明七街６７號","OBJECTID":602746},"geometry":{"x":169761.44999999925,"y":2542193.0100000035}},{"attributes":{"ID":602774,"DIS_CODE":0,"TOWNNAME":"東區","LI":"忠孝里","LIN":"22鄰","STREET":"崇明七街","SECT":" ","MAREA":" ","LANE":" ","ALLEY":" ","HOUSE_NO":"６９號","E_COORD97":169765.98000000001,"N_COORD97":2542193.2799999998,"ADDRESS":"崇明七街６９號","OBJECTID":602747},"geometry":{"x":169765.98000000045,"y":2542193.2799999993}},{"attributes":{"ID":602775,"DIS_CODE":0,"TOWNNAME":"東區","LI":"忠孝里","LIN":"22鄰","STREET":"崇明七街","SECT":" ","MAREA":" ","LANE":" ","ALLEY":" ","HOUSE_NO":"７１號","E_COORD97":169769.70999999999,"N_COORD97":2542194.6099999999,"ADDRESS":"崇明七街７１號","OBJECTID":602748},"geometry":{"x":169769.71000000183,"y":2542194.6099999994}},{"attributes":{"ID":602776,"DIS_CODE":0,"TOWNNAME":"東區","LI":"忠孝里","LIN":"22鄰","STREET":"崇明七街","SECT":" ","MAREA":" ","LANE":" ","ALLEY":" ","HOUSE_NO":"４５號","E_COORD97":169713.35999999999,"N_COORD97":2542177.1000000001,"ADDRESS":"崇明七街４５號","OBJECTID":602749},"geometry":{"x":169713.36000000127,"y":2542177.1000000015}},{"attributes":{"ID":602777,"DIS_CODE":0,"TOWNNAME":"東區","LI":"忠孝里","LIN":"22鄰","STREET":"崇明七街","SECT":" ","MAREA":" ","LANE":" ","ALLEY":" ","HOUSE_NO":"４７號","E_COORD97":169717.13,"N_COORD97":2542178.5299999998,"ADDRESS":"崇明七街４７號","OBJECTID":602750},"geometry":{"x":169717.12999999989,"y":2542178.5299999993}},{"attributes":{"ID":602778,"DIS_CODE":0,"TOWNNAME":"東區","LI":"忠孝里","LIN":"22鄰","STREET":"崇明七街","SECT":" ","MAREA":" ","LANE":" ","ALLEY":" ","HOUSE_NO":"４９號","E_COORD97":169720.91,"N_COORD97":2542180.1400000001,"ADDRESS":"崇明七街４９號","OBJECTID":602751},"geometry":{"x":169720.91000000015,"y":2542180.1400000025}},{"attributes":{"ID":602779,"DIS_CODE":0,"TOWNNAME":"東區","LI":"忠孝里","LIN":"22鄰","STREET":"崇明七街","SECT":" ","MAREA":" ","LANE":" ","ALLEY":" ","HOUSE_NO":"５１號","E_COORD97":169724.85999999999,"N_COORD97":2542181.04,"ADDRESS":"崇明七街５１號","OBJECTID":602752},"geometry":{"x":169724.86000000034,"y":2542181.0399999991}},{"attributes":{"ID":602780,"DIS_CODE":0,"TOWNNAME":"東區","LI":"忠孝里","LIN":"22鄰","STREET":"崇明七街","SECT":" ","MAREA":" ","LANE":" ","ALLEY":" ","HOUSE_NO":"５３號","E_COORD97":169729.20999999999,"N_COORD97":2542182.6299999999,"ADDRESS":"崇明七街５３號","OBJECTID":602753},"geometry":{"x":169729.21000000089,"y":2542182.6300000008}},{"attributes":{"ID":602781,"DIS_CODE":0,"TOWNNAME":"東區","LI":"忠孝里","LIN":"22鄰","STREET":"崇明七街","SECT":" ","MAREA":" ","LANE":" ","ALLEY":" ","HOUSE_NO":"５５號","E_COORD97":169732.67000000001,"N_COORD97":2542183.7000000002,"ADDRESS":"崇明七街５５號","OBJECTID":602754},"geometry":{"x":169732.67000000179,"y":2542183.6999999993}},{"attributes":{"ID":602782,"DIS_CODE":0,"TOWNNAME":"東區","LI":"忠孝里","LIN":"22鄰","STREET":"崇明七街","SECT":" ","MAREA":" ","LANE":" ","ALLEY":" ","HOUSE_NO":"５７號","E_COORD97":169735.87,"N_COORD97":2542186.6200000001,"ADDRESS":"崇明七街５７號","OBJECTID":602755},"geometry":{"x":169735.87000000011,"y":2542186.620000001}},{"attributes":{"ID":602783,"DIS_CODE":0,"TOWNNAME":"東區","LI":"忠孝里","LIN":"22鄰","STREET":"崇明七街","SECT":" ","MAREA":" ","LANE":" ","ALLEY":" ","HOUSE_NO":"５９號","E_COORD97":169740.39999999999,"N_COORD97":2542187.1600000001,"ADDRESS":"崇明七街５９號","OBJECTID":602756},"geometry":{"x":169740.4000000013,"y":2542187.160000002}},{"attributes":{"ID":602784,"DIS_CODE":0,"TOWNNAME":"東區","LI":"忠孝里","LIN":"22鄰","STREET":"崇明七街","SECT":" ","MAREA":" ","LANE":" ","ALLEY":" ","HOUSE_NO":"６１號","E_COORD97":169745.19,"N_COORD97":2542189.29,"ADDRESS":"崇明七街６１號","OBJECTID":602757},"geometry":{"x":169745.19000000134,"y":2542189.2899999991}},{"attributes":{"ID":602785,"DIS_CODE":0,"TOWNNAME":"永康區","LI":"中華里","LIN":"22鄰","STREET":"華興街","SECT":" ","MAREA":" ","LANE":" ","ALLEY":" ","HOUSE_NO":"１１４號","E_COORD97":171807.57000000001,"N_COORD97":2544583.5299999998,"ADDRESS":"華興街１１４號","OBJECTID":602758},"geometry":{"x":171807.57000000123,"y":2544583.5300000012}},{"attributes":{"ID":602786,"DIS_CODE":0,"TOWNNAME":"永康區","LI":"\u25A0行里","LIN":"22鄰","STREET":"正南五街","SECT":" ","MAREA":" ","LANE":" ","ALLEY":" ","HOUSE_NO":"５０２號","E_COORD97":171611.67000000001,"N_COORD97":2548753.4900000002,"ADDRESS":"正南五街５０２號","OBJECTID":602759},"geometry":{"x":171611.67000000086,"y":2548753.4900000002}},{"attributes":{"ID":602787,"DIS_CODE":0,"TOWNNAME":"永康區","LI":"\u25A0行里","LIN":"22鄰","STREET":"正南五街","SECT":" ","MAREA":" ","LANE":" ","ALLEY":" ","HOUSE_NO":"４９６號","E_COORD97":171620.82999999999,"N_COORD97":2548744.2400000002,"ADDRESS":"正南五街４９６號","OBJECTID":602760},"geometry":{"x":171620.83000000101,"y":2548744.2400000002}},{"attributes":{"ID":602788,"DIS_CODE":0,"TOWNNAME":"永康區","LI":"\u25A0行里","LIN":"22鄰","STREET":"正南五街","SECT":" ","MAREA":" ","LANE":" ","ALLEY":" ","HOUSE_NO":"４８６號","E_COORD97":171638.72,"N_COORD97":2548737.2400000002,"ADDRESS":"正南五街４８６號","OBJECTID":602761},"geometry":{"x":171638.71999999974,"y":2548737.2400000002}},{"attributes":{"ID":602789,"DIS_CODE":0,"TOWNNAME":"永康區","LI":"\u25A0洲里","LIN":"22鄰","STREET":"\u25A0忠街","SECT":" ","MAREA":" ","LANE":" ","ALLEY":" ","HOUSE_NO":"２號之１","E_COORD97":171583.25,"N_COORD97":2548894.75,"ADDRESS":"\u25A0忠街２號之１","OBJECTID":602762},"geometry":{"x":171583.24999999907,"y":2548894.7500000037}},{"attributes":{"ID":602790,"DIS_CODE":0,"TOWNNAME":"永康區","LI":"中華里","LIN":"22鄰","STREET":"華興街","SECT":" ","MAREA":" ","LANE":" ","ALLEY":" ","HOUSE_NO":"１０８號","E_COORD97":171819.48000000001,"N_COORD97":2544583.5299999998,"ADDRESS":"華興街１０８號","OBJECTID":602763},"geometry":{"x":171819.47999999952,"y":2544583.5300000012}},{"attributes":{"ID":602791,"DIS_CODE":0,"TOWNNAME":"永康區","LI":"中華里","LIN":"22鄰","STREET":"華興街","SECT":" ","MAREA":" ","LANE":" ","ALLEY":" ","HOUSE_NO":"１１０號","E_COORD97":171815.98000000001,"N_COORD97":2544583.25,"ADDRESS":"華興街１１０號","OBJECTID":602764},"geometry":{"x":171815.98000000045,"y":2544583.2500000019}},{"attributes":{"ID":602792,"DIS_CODE":0,"TOWNNAME":"永康區","LI":"\u25A0洲里","LIN":"22鄰","STREET":"\u25A0忠街","SECT":" ","MAREA":" ","LANE":" ","ALLEY":" ","HOUSE_NO":"３號","E_COORD97":171563.78,"N_COORD97":2548877.8500000001,"ADDRESS":"\u25A0忠街３號","OBJECTID":602765},"geometry":{"x":171563.78000000119,"y":2548877.8500000015}},{"attributes":{"ID":602793,"DIS_CODE":0,"TOWNNAME":"永康區","LI":"\u25A0洲里","LIN":"22鄰","STREET":"\u25A0忠街","SECT":" ","MAREA":" ","LANE":" ","ALLEY":" ","HOUSE_NO":"７號","E_COORD97":171557.84,"N_COORD97":2548884.1000000001,"ADDRESS":"\u25A0忠街７號","OBJECTID":602766},"geometry":{"x":171557.84000000078,"y":2548884.0999999996}},{"attributes":{"ID":602794,"DIS_CODE":0,"TOWNNAME":"永康區","LI":"\u25A0洲里","LIN":"22鄰","STREET":"\u25A0忠街","SECT":" ","MAREA":" ","LANE":" ","ALLEY":" ","HOUSE_NO":"２１號","E_COORD97":171537.70999999999,"N_COORD97":2548905.6099999999,"ADDRESS":"\u25A0忠街２１號","OBJECTID":602767},"geometry":{"x":171537.70999999903,"y":2548905.6100000013}},{"attributes":{"ID":602795,"DIS_CODE":0,"TOWNNAME":"永康區","LI":"\u25A0洲里","LIN":"22鄰","STREET":"\u25A0忠街","SECT":" ","MAREA":" ","LANE":" ","ALLEY":" ","HOUSE_NO":"２６號","E_COORD97":171550.41,"N_COORD97":2548928.2000000002,"ADDRESS":"\u25A0忠街２６號","OBJECTID":602768},"geometry":{"x":171550.41000000108,"y":2548928.200000003}},{"attributes":{"ID":602796,"DIS_CODE":0,"TOWNNAME":"永康區","LI":"\u25A0洲里","LIN":"22鄰","STREET":"\u25A0忠街","SECT":" ","MAREA":" ","LANE":" ","ALLEY":" ","HOUSE_NO":"３４號","E_COORD97":171538.60000000001,"N_COORD97":2548940.9500000002,"ADDRESS":"\u25A0忠街３４號","OBJECTID":602769},"geometry":{"x":171538.60000000056,"y":2548940.9500000011}},{"attributes":{"ID":602797,"DIS_CODE":0,"TOWNNAME":"永康區","LI":"\u25A0洲里","LIN":"22鄰","STREET":"\u25A0忠街","SECT":" ","MAREA":" ","LANE":" ","ALLEY":" ","HOUSE_NO":"２３號","E_COORD97":171534.91,"N_COORD97":2548908.6099999999,"ADDRESS":"\u25A0忠街２３號","OBJECTID":602770},"geometry":{"x":171534.91000000201,"y":2548908.6100000031}},{"attributes":{"ID":602798,"DIS_CODE":0,"TOWNNAME":"永康區","LI":"中華里","LIN":"22鄰","STREET":"華興街","SECT":" ","MAREA":" ","LANE":" ","ALLEY":" ","HOUSE_NO":"１１６號","E_COORD97":171804.48000000001,"N_COORD97":2544583.25,"ADDRESS":"華興街１１６號","OBJECTID":602771},"geometry":{"x":171804.48000000138,"y":2544583.2500000019}},{"attributes":{"ID":602799,"DIS_CODE":0,"TOWNNAME":"永康區","LI":"中華里","LIN":"22鄰","STREET":"華興街","SECT":" ","MAREA":" ","LANE":" ","ALLEY":" ","HOUSE_NO":"９８號","E_COORD97":171838.60000000001,"N_COORD97":2544582.21,"ADDRESS":"華興街９８號","OBJECTID":602772},"geometry":{"x":171838.60000000056,"y":2544582.2100000009}},{"attributes":{"ID":602800,"DIS_CODE":0,"TOWNNAME":"永康區","LI":"\u25A0行里","LIN":"22鄰","STREET":"正南五街","SECT":" ","MAREA":" ","LANE":" ","ALLEY":" ","HOUSE_NO":"５０８號","E_COORD97":171605.82000000001,"N_COORD97":2548759.7400000002,"ADDRESS":"正南五街５０８號","OBJECTID":602773},"geometry":{"x":171605.82000000123,"y":2548759.7400000021}},{"attributes":{"ID":602801,"DIS_CODE":0,"TOWNNAME":"永康區","LI":"中華里","LIN":"22鄰","STREET":"華興街","SECT":" ","MAREA":" ","LANE":" ","ALLEY":" ","HOUSE_NO":"１１８號","E_COORD97":171797.76000000001,"N_COORD97":2544583.3900000001,"ADDRESS":"華興街１１８號","OBJECTID":602774},"geometry":{"x":171797.75999999978,"y":2544583.3900000006}},{"attributes":{"ID":602802,"DIS_CODE":0,"TOWNNAME":"永康區","LI":"\u25A0洲里","LIN":"22鄰","STREET":"\u25A0忠街","SECT":" ","MAREA":" ","LANE":" ","ALLEY":" ","HOUSE_NO":"３１號","E_COORD97":171522.75,"N_COORD97":2548921.6099999999,"ADDRESS":"\u25A0忠街３１號","OBJECTID":602775},"geometry":{"x":171522.75000000093,"y":2548921.6099999994}},{"attributes":{"ID":602803,"DIS_CODE":0,"TOWNNAME":"永康區","LI":"中華里","LIN":"22鄰","STREET":"華興街","SECT":" ","MAREA":" ","LANE":" ","ALLEY":" ","HOUSE_NO":"１０６號","E_COORD97":171823.79999999999,"N_COORD97":2544581.9199999999,"ADDRESS":"華興街１０６號","OBJECTID":602776},"geometry":{"x":171823.80000000075,"y":2544581.9200000018}},{"attributes":{"ID":602804,"DIS_CODE":0,"TOWNNAME":"永康區","LI":"\u25A0洲里","LIN":"22鄰","STREET":"\u25A0忠街","SECT":" ","MAREA":" ","LANE":" ","ALLEY":" ","HOUSE_NO":"３９號","E_COORD97":171511.01000000001,"N_COORD97":2548934.1099999999,"ADDRESS":"\u25A0忠街３９號","OBJECTID":602777},"geometry":{"x":171511.00999999978,"y":2548934.1099999994}},{"attributes":{"ID":602805,"DIS_CODE":0,"TOWNNAME":"永康區","LI":"\u25A0行里","LIN":"22鄰","STREET":"正南五街","SECT":" ","MAREA":" ","LANE":" ","ALLEY":" ","HOUSE_NO":"５１２號","E_COORD97":171594.17999999999,"N_COORD97":2548773.2400000002,"ADDRESS":"正南五街５１２號","OBJECTID":602778},"geometry":{"x":171594.18000000063,"y":2548773.2400000021}},{"attributes":{"ID":602806,"DIS_CODE":0,"TOWNNAME":"永康區","LI":"\u25A0洲里","LIN":"22鄰","STREET":"\u25A0忠街","SECT":" ","MAREA":" ","LANE":" ","ALLEY":" ","HOUSE_NO":"２７號","E_COORD97":171528.60999999999,"N_COORD97":2548915.1099999999,"ADDRESS":"\u25A0忠街２７號","OBJECTID":602779},"geometry":{"x":171528.6099999994,"y":2548915.1100000031}},{"attributes":{"ID":602807,"DIS_CODE":0,"TOWNNAME":"永康區","LI":"\u25A0洲里","LIN":"22鄰","STREET":"\u25A0忠街","SECT":" ","MAREA":" ","LANE":" ","ALLEY":" ","HOUSE_NO":"３２號","E_COORD97":171541.69,"N_COORD97":2548937.7000000002,"ADDRESS":"\u25A0忠街３２號","OBJECTID":602780},"geometry":{"x":171541.68999999948,"y":2548937.6999999993}},{"attributes":{"ID":602808,"DIS_CODE":0,"TOWNNAME":"永康區","LI":"\u25A0洲里","LIN":"22鄰","STREET":"\u25A0忠街","SECT":" ","MAREA":" ","LANE":" ","ALLEY":" ","HOUSE_NO":"３５號","E_COORD97":171516.45000000001,"N_COORD97":2548928.1099999999,"ADDRESS":"\u25A0忠街３５號","OBJECTID":602781},"geometry":{"x":171516.45000000112,"y":2548928.1099999994}},{"attributes":{"ID":602809,"DIS_CODE":0,"TOWNNAME":"永康區","LI":"\u25A0洲里","LIN":"22鄰","STREET":"\u25A0忠街","SECT":" ","MAREA":" ","LANE":" ","ALLEY":" ","HOUSE_NO":"１７號","E_COORD97":171543.5,"N_COORD97":2548899.3599999999,"ADDRESS":"\u25A0忠街１７號","OBJECTID":602782},"geometry":{"x":171543.50000000093,"y":2548899.3599999994}},{"attributes":{"ID":602810,"DIS_CODE":0,"TOWNNAME":"永康區","LI":"\u25A0洲里","LIN":"22鄰","STREET":"\u25A0忠街","SECT":" ","MAREA":" ","LANE":" ","ALLEY":" ","HOUSE_NO":"２９號","E_COORD97":171525.41,"N_COORD97":2548918.3599999999,"ADDRESS":"\u25A0忠街２９號","OBJECTID":602783},"geometry":{"x":171525.41000000108,"y":2548918.3600000013}},{"attributes":{"ID":602811,"DIS_CODE":0,"TOWNNAME":"永康區","LI":"\u25A0洲里","LIN":"22鄰","STREET":"\u25A0忠街","SECT":" ","MAREA":" ","LANE":" ","ALLEY":" ","HOUSE_NO":"８號","E_COORD97":171575.31,"N_COORD97":2548900.4500000002,"ADDRESS":"\u25A0忠街８號","OBJECTID":602784},"geometry":{"x":171575.30999999959,"y":2548900.4500000011}},{"attributes":{"ID":602812,"DIS_CODE":0,"TOWNNAME":"永康區","LI":"\u25A0洲里","LIN":"22鄰","STREET":"\u25A0忠街","SECT":" ","MAREA":" ","LANE":" ","ALLEY":" ","HOUSE_NO":"１３號","E_COORD97":171549.41,"N_COORD97":2548893.3599999999,"ADDRESS":"\u25A0忠街１３號","OBJECTID":602785},"geometry":{"x":171549.41000000015,"y":2548893.3600000031}},{"attributes":{"ID":602813,"DIS_CODE":0,"TOWNNAME":"永康區","LI":"崑山里","LIN":"31鄰","STREET":"國光二街","SECT":" ","MAREA":" ","LANE":" ","ALLEY":" ","HOUSE_NO":"２２號","E_COORD97":174027.04999999999,"N_COORD97":2544689.3500000001,"ADDRESS":"國光二街２２號","OBJECTID":602786},"geometry":{"x":174027.04999999981,"y":2544689.3500000034}},{"attributes":{"ID":602814,"DIS_CODE":0,"TOWNNAME":"永康區","LI":"埔園里","LIN":"28鄰","STREET":"龍埔街","SECT":" ","MAREA":" ","LANE":" ","ALLEY":" ","HOUSE_NO":"３９７號","E_COORD97":173716.45000000001,"N_COORD97":2548353.4900000002,"ADDRESS":"龍埔街３９７號","OBJECTID":602787},"geometry":{"x":173716.45000000205,"y":2548353.4900000002}},{"attributes":{"ID":602815,"DIS_CODE":0,"TOWNNAME":"永康區","LI":"\u25A0洲里","LIN":"22鄰","STREET":"\u25A0忠街","SECT":" ","MAREA":" ","LANE":" ","ALLEY":" ","HOUSE_NO":"１０號","E_COORD97":171573.70999999999,"N_COORD97":2548903.4500000002,"ADDRESS":"\u25A0忠街１０號","OBJECTID":602788},"geometry":{"x":171573.71000000089,"y":2548903.4500000011}},{"attributes":{"ID":602816,"DIS_CODE":0,"TOWNNAME":"永康區","LI":"\u25A0洲里","LIN":"22鄰","STREET":"\u25A0忠街","SECT":" ","MAREA":" ","LANE":" ","ALLEY":" ","HOUSE_NO":"１５號","E_COORD97":171546.70000000001,"N_COORD97":2548896.3599999999,"ADDRESS":"\u25A0忠街１５號","OBJECTID":602789},"geometry":{"x":171546.70000000205,"y":2548896.3599999975}},{"attributes":{"ID":602817,"DIS_CODE":0,"TOWNNAME":"永康區","LI":"\u25A0洲里","LIN":"22鄰","STREET":"\u25A0忠街","SECT":" ","MAREA":" ","LANE":" ","ALLEY":" ","HOUSE_NO":"１８號","E_COORD97":171562.10000000001,"N_COORD97":2548916.4500000002,"ADDRESS":"\u25A0忠街１８號","OBJECTID":602790},"geometry":{"x":171562.10000000056,"y":2548916.4500000011}},{"attributes":{"ID":602818,"DIS_CODE":0,"TOWNNAME":"永康區","LI":"\u25A0洲里","LIN":"22鄰","STREET":"中正南路","SECT":" ","MAREA":" ","LANE":" ","ALLEY":" ","HOUSE_NO":"７３９號","E_COORD97":171612.06,"N_COORD97":2548892,"ADDRESS":"中正南路７３９號","OBJECTID":602791},"geometry":{"x":171612.06000000052,"y":2548892}},{"attributes":{"ID":602819,"DIS_CODE":0,"TOWNNAME":"永康區","LI":"\u25A0洲里","LIN":"22鄰","STREET":"\u25A0忠街","SECT":" ","MAREA":" ","LANE":" ","ALLEY":" ","HOUSE_NO":"１１號","E_COORD97":171552.31,"N_COORD97":2548890.8599999999,"ADDRESS":"\u25A0忠街１１號","OBJECTID":602792},"geometry":{"x":171552.31000000052,"y":2548890.8600000013}},{"attributes":{"ID":602820,"DIS_CODE":0,"TOWNNAME":"永康區","LI":"\u25A0洲里","LIN":"22鄰","STREET":"\u25A0忠街","SECT":" ","MAREA":" ","LANE":" ","ALLEY":" ","HOUSE_NO":"３３號","E_COORD97":171519.31,"N_COORD97":2548925.1099999999,"ADDRESS":"\u25A0忠街３３號","OBJECTID":602793},"geometry":{"x":171519.30999999959,"y":2548925.1099999975}},{"attributes":{"ID":602821,"DIS_CODE":0,"TOWNNAME":"永康區","LI":"\u25A0洲里","LIN":"22鄰","STREET":"\u25A0忠街","SECT":" ","MAREA":" ","LANE":" ","ALLEY":" ","HOUSE_NO":"２５號","E_COORD97":171531.60999999999,"N_COORD97":2548912.1099999999,"ADDRESS":"\u25A0忠街２５號","OBJECTID":602794},"geometry":{"x":171531.61000000034,"y":2548912.1100000013}},{"attributes":{"ID":602822,"DIS_CODE":0,"TOWNNAME":"永康區","LI":"\u25A0洲里","LIN":"22鄰","STREET":"\u25A0忠街","SECT":" ","MAREA":" ","LANE":" ","ALLEY":" ","HOUSE_NO":"５號","E_COORD97":171560.98999999999,"N_COORD97":2548881.1000000001,"ADDRESS":"\u25A0忠街５號","OBJECTID":602795},"geometry":{"x":171560.99000000022,"y":2548881.0999999996}},{"attributes":{"ID":602823,"DIS_CODE":0,"TOWNNAME":"永康區","LI":"\u25A0洲里","LIN":"22鄰","STREET":"\u25A0忠街","SECT":" ","MAREA":" ","LANE":" ","ALLEY":" ","HOUSE_NO":"２４號","E_COORD97":171553.41,"N_COORD97":2548924.9500000002,"ADDRESS":"\u25A0忠街２４號","OBJECTID":602796},"geometry":{"x":171553.41000000015,"y":2548924.9499999993}},{"attributes":{"ID":602824,"DIS_CODE":0,"TOWNNAME":"永康區","LI":"\u25A0洲里","LIN":"22鄰","STREET":"\u25A0忠街","SECT":" ","MAREA":" ","LANE":" ","ALLEY":" ","HOUSE_NO":"３０號","E_COORD97":171544.91,"N_COORD97":2548934.4500000002,"ADDRESS":"\u25A0忠街３０號","OBJECTID":602797},"geometry":{"x":171544.91000000015,"y":2548934.4500000011}},{"attributes":{"ID":602825,"DIS_CODE":0,"TOWNNAME":"永康區","LI":"\u25A0洲里","LIN":"22鄰","STREET":"\u25A0忠街","SECT":" ","MAREA":" ","LANE":" ","ALLEY":" ","HOUSE_NO":"６號","E_COORD97":171577.95000000001,"N_COORD97":2548897.7000000002,"ADDRESS":"\u25A0忠街６號","OBJECTID":602798},"geometry":{"x":171577.95000000019,"y":2548897.700000003}},{"attributes":{"ID":602826,"DIS_CODE":0,"TOWNNAME":"永康區","LI":"\u25A0洲里","LIN":"22鄰","STREET":"\u25A0忠街","SECT":" ","MAREA":" ","LANE":" ","ALLEY":" ","HOUSE_NO":"３７號","E_COORD97":171513.85999999999,"N_COORD97":2548930.8599999999,"ADDRESS":"\u25A0忠街３７號","OBJECTID":602799},"geometry":{"x":171513.86000000127,"y":2548930.8600000013}},{"attributes":{"ID":602827,"DIS_CODE":0,"TOWNNAME":"永康區","LI":"勝利里","LIN":"17鄰","STREET":"中華一路","SECT":" ","MAREA":" ","LANE":" ","ALLEY":" ","HOUSE_NO":"３０１號","E_COORD97":171208.95999999999,"N_COORD97":2544979.5,"ADDRESS":"中華一路３０１號","OBJECTID":602800},"geometry":{"x":171208.96000000183,"y":2544979.5}}]}