{"displayFieldName":"TOWNNAME","fieldAliases":{"ID":"ID","DIS_CODE":"DIS_CODE","TOWNNAME":"TOWNNAME","LI":"LI","LIN":"LIN","STREET":"STREET","SECT":"SECT","MAREA":"MAREA","LANE":"LANE","ALLEY":"ALLEY","HOUSE_NO":"HOUSE_NO","E_COORD97":"E_COORD97","N_COORD97":"N_COORD97","ADDRESS":"ADDRESS","OBJECTID":"OBJECTID"},"geometryType":"esriGeometryPoint","spatialReference":{"wkid":102443,"latestWkid":3826},"fields":[{"name":"ID","type":"esriFieldTypeDouble","alias":"ID"},{"name":"DIS_CODE","type":"esriFieldTypeInteger","alias":"DIS_CODE"},{"name":"TOWNNAME","type":"esriFieldTypeString","alias":"TOWNNAME","length":8},{"name":"LI","type":"esriFieldTypeString","alias":"LI","length":8},{"name":"LIN","type":"esriFieldTypeString","alias":"LIN","length":12},{"name":"STREET","type":"esriFieldTypeString","alias":"STREET","length":20},{"name":"SECT","type":"esriFieldTypeString","alias":"SECT","length":8},{"name":"MAREA","type":"esriFieldTypeString","alias":"MAREA","length":12},{"name":"LANE","type":"esriFieldTypeString","alias":"LANE","length":10},{"name":"ALLEY","type":"esriFieldTypeString","alias":"ALLEY","length":10},{"name":"HOUSE_NO","type":"esriFieldTypeString","alias":"HOUSE_NO","length":20},{"name":"E_COORD97","type":"esriFieldTypeDouble","alias":"E_COORD97"},{"name":"N_COORD97","type":"esriFieldTypeDouble","alias":"N_COORD97"},{"name":"ADDRESS","type":"esriFieldTypeString","alias":"ADDRESS","length":50},{"name":"OBJECTID","type":"esriFieldTypeOID","alias":"OBJECTID"}],"features":[{"attributes":{"ID":181602,"DIS_CODE":0,"TOWNNAME":"安定區","LI":"中榮里","LIN":"11鄰","STREET":" ","SECT":" ","MAREA":"許中營","LANE":" ","ALLEY":" ","HOUSE_NO":"８８號之２","E_COORD97":172179.60999999999,"N_COORD97":2555079.2999999998,"ADDRESS":"許中營８８號之２","OBJECTID":181601},"geometry":{"x":172179.6100000022,"y":2555079.3000000026}},{"attributes":{"ID":181603,"DIS_CODE":0,"TOWNNAME":"永康區","LI":"北灣里","LIN":" ","STREET":"大灣路","SECT":" ","MAREA":" ","LANE":"３７巷","ALLEY":"６弄","HOUSE_NO":"１８號","E_COORD97":175341.84,"N_COORD97":2545807.5,"ADDRESS":"大灣路３７巷６弄１８號","OBJECTID":181602},"geometry":{"x":175341.83999999985,"y":2545807.5000000037}},{"attributes":{"ID":181604,"DIS_CODE":0,"TOWNNAME":"永康區","LI":"建國里","LIN":" ","STREET":"復興路","SECT":" ","MAREA":" ","LANE":"１巷","ALLEY":"３０弄","HOUSE_NO":"１４０之１號","E_COORD97":173056.89000000001,"N_COORD97":2543694.1899999999,"ADDRESS":"復興路１巷３０弄１４０之１號","OBJECTID":181603},"geometry":{"x":173056.89000000153,"y":2543694.1900000013}},{"attributes":{"ID":181605,"DIS_CODE":0,"TOWNNAME":"永康區","LI":"復興里","LIN":" ","STREET":"復興路","SECT":" ","MAREA":" ","LANE":"２９６巷","ALLEY":"１１弄","HOUSE_NO":"３１號","E_COORD97":172365.5,"N_COORD97":2544395.27,"ADDRESS":"復興路２９６巷１１弄３１號","OBJECTID":181604},"geometry":{"x":172365.50000000093,"y":2544395.2700000014}},{"attributes":{"ID":181606,"DIS_CODE":0,"TOWNNAME":"新營區","LI":"南興里","LIN":"10鄰","STREET":"和平路","SECT":" ","MAREA":" ","LANE":"１０２巷","ALLEY":" ","HOUSE_NO":"９號","E_COORD97":179375.04999999999,"N_COORD97":2577591.1499999999,"ADDRESS":"和平路１０２巷９號","OBJECTID":181605},"geometry":{"x":179375.04999999981,"y":2577591.1500000004}},{"attributes":{"ID":181607,"DIS_CODE":0,"TOWNNAME":"歸仁區","LI":"南保里","LIN":"24鄰","STREET":"民權六街","SECT":" ","MAREA":" ","LANE":" ","ALLEY":" ","HOUSE_NO":"７７號","E_COORD97":176791.19,"N_COORD97":2541102.29,"ADDRESS":"民權六街７７號","OBJECTID":181606},"geometry":{"x":176791.19000000041,"y":2541102.2900000028}},{"attributes":{"ID":181608,"DIS_CODE":0,"TOWNNAME":"歸仁區","LI":"南保里","LIN":"24鄰","STREET":"民權六街","SECT":" ","MAREA":" ","LANE":" ","ALLEY":" ","HOUSE_NO":"６９號","E_COORD97":176809.69,"N_COORD97":2541102.29,"ADDRESS":"民權六街６９號","OBJECTID":181607},"geometry":{"x":176809.69000000041,"y":2541102.2900000028}},{"attributes":{"ID":181609,"DIS_CODE":0,"TOWNNAME":"歸仁區","LI":"南保里","LIN":"24鄰","STREET":"民權六街","SECT":" ","MAREA":" ","LANE":" ","ALLEY":" ","HOUSE_NO":"６３號","E_COORD97":176822.98999999999,"N_COORD97":2541099.29,"ADDRESS":"民權六街６３號","OBJECTID":181608},"geometry":{"x":176822.99000000022,"y":2541099.290000001}},{"attributes":{"ID":181610,"DIS_CODE":0,"TOWNNAME":"歸仁區","LI":"南興里","LIN":"24鄰","STREET":"文化二十街","SECT":" ","MAREA":" ","LANE":" ","ALLEY":" ","HOUSE_NO":"５２號","E_COORD97":175506.59,"N_COORD97":2541292.3300000001,"ADDRESS":"文化二十街５２號","OBJECTID":181609},"geometry":{"x":175506.58999999985,"y":2541292.3300000001}},{"attributes":{"ID":181611,"DIS_CODE":0,"TOWNNAME":"歸仁區","LI":"南興里","LIN":"24鄰","STREET":"文化二十街","SECT":" ","MAREA":" ","LANE":" ","ALLEY":" ","HOUSE_NO":"９０號","E_COORD97":175517.98999999999,"N_COORD97":2541323.3300000001,"ADDRESS":"文化二十街９０號","OBJECTID":181610},"geometry":{"x":175517.99000000022,"y":2541323.3300000038}},{"attributes":{"ID":181612,"DIS_CODE":0,"TOWNNAME":"安定區","LI":"港口里","LIN":"11鄰","STREET":" ","SECT":" ","MAREA":"港口","LANE":" ","ALLEY":" ","HOUSE_NO":"３２４之２號","E_COORD97":171246.29000000001,"N_COORD97":2554569.2999999998,"ADDRESS":"港口３２４之２號","OBJECTID":181611},"geometry":{"x":171246.29000000097,"y":2554569.3000000007}},{"attributes":{"ID":181613,"DIS_CODE":0,"TOWNNAME":"安定區","LI":"港尾里","LIN":"11鄰","STREET":" ","SECT":" ","MAREA":"港子尾","LANE":" ","ALLEY":" ","HOUSE_NO":"６５之１號","E_COORD97":171458.19,"N_COORD97":2555743.2999999998,"ADDRESS":"港子尾６５之１號","OBJECTID":181612},"geometry":{"x":171458.19000000041,"y":2555743.2999999989}},{"attributes":{"ID":181614,"DIS_CODE":0,"TOWNNAME":"安定區","LI":"海寮里","LIN":"11鄰","STREET":" ","SECT":" ","MAREA":"海寮","LANE":" ","ALLEY":" ","HOUSE_NO":"１１７號","E_COORD97":169113.34,"N_COORD97":2555323.25,"ADDRESS":"海寮１１７號","OBJECTID":181613},"geometry":{"x":169113.34000000078,"y":2555323.2500000019}},{"attributes":{"ID":181615,"DIS_CODE":0,"TOWNNAME":"安定區","LI":"港口里","LIN":"11鄰","STREET":" ","SECT":" ","MAREA":"港口","LANE":" ","ALLEY":" ","HOUSE_NO":"３２４號之３","E_COORD97":171248.72,"N_COORD97":2554564.2999999998,"ADDRESS":"港口３２４號之３","OBJECTID":181614},"geometry":{"x":171248.71999999974,"y":2554564.3000000026}},{"attributes":{"ID":181616,"DIS_CODE":0,"TOWNNAME":"安定區","LI":"中榮里","LIN":"11鄰","STREET":" ","SECT":" ","MAREA":"許中營","LANE":" ","ALLEY":" ","HOUSE_NO":"９０之５號","E_COORD97":172080.64000000001,"N_COORD97":2554992.2999999998,"ADDRESS":"許中營９０之５號","OBJECTID":181615},"geometry":{"x":172080.6400000006,"y":2554992.3000000026}},{"attributes":{"ID":181617,"DIS_CODE":0,"TOWNNAME":"安定區","LI":"港尾里","LIN":"11鄰","STREET":" ","SECT":" ","MAREA":"港子尾","LANE":" ","ALLEY":" ","HOUSE_NO":"６４號","E_COORD97":171447.39000000001,"N_COORD97":2555734.2599999998,"ADDRESS":"港子尾６４號","OBJECTID":181616},"geometry":{"x":171447.38999999966,"y":2555734.2600000016}},{"attributes":{"ID":181618,"DIS_CODE":0,"TOWNNAME":"安定區","LI":"港尾里","LIN":"11鄰","STREET":" ","SECT":" ","MAREA":"港子尾","LANE":" ","ALLEY":" ","HOUSE_NO":"６４之７號","E_COORD97":171448.98999999999,"N_COORD97":2555750.2999999998,"ADDRESS":"港子尾６４之７號","OBJECTID":181617},"geometry":{"x":171448.99000000022,"y":2555750.3000000045}},{"attributes":{"ID":181619,"DIS_CODE":0,"TOWNNAME":"安定區","LI":"中榮里","LIN":"11鄰","STREET":" ","SECT":" ","MAREA":"許中營","LANE":" ","ALLEY":" ","HOUSE_NO":"８５號","E_COORD97":172203.808961,"N_COORD97":2555114.2859999998,"ADDRESS":"許中營８５號","OBJECTID":181618},"geometry":{"x":172203.80896100122,"y":2555114.2860010006}},{"attributes":{"ID":181620,"DIS_CODE":0,"TOWNNAME":"安定區","LI":"中榮里","LIN":"11鄰","STREET":" ","SECT":" ","MAREA":"許中營","LANE":" ","ALLEY":" ","HOUSE_NO":"８９之５號","E_COORD97":172115.64000000001,"N_COORD97":2555072.2999999998,"ADDRESS":"許中營８９之５號","OBJECTID":181619},"geometry":{"x":172115.63999999966,"y":2555072.3000000045}},{"attributes":{"ID":181621,"DIS_CODE":0,"TOWNNAME":"安定區","LI":"中榮里","LIN":"11鄰","STREET":" ","SECT":" ","MAREA":"許中營","LANE":" ","ALLEY":" ","HOUSE_NO":"９０之１９號","E_COORD97":172069.29000000001,"N_COORD97":2554982.2999999998,"ADDRESS":"許中營９０之１９號","OBJECTID":181620},"geometry":{"x":172069.29000000004,"y":2554982.3000000026}},{"attributes":{"ID":181622,"DIS_CODE":0,"TOWNNAME":"永康區","LI":"建國里","LIN":" ","STREET":"復興路","SECT":" ","MAREA":" ","LANE":"５４巷","ALLEY":"２弄","HOUSE_NO":"３２號之１Ｄ號","E_COORD97":172979.67000000001,"N_COORD97":2545194.1299999999,"ADDRESS":"復興路５４巷２弄３２號之１Ｄ號","OBJECTID":181621},"geometry":{"x":172979.67000000086,"y":2545194.129999999}},{"attributes":{"ID":181623,"DIS_CODE":0,"TOWNNAME":"安定區","LI":"港口里","LIN":"11鄰","STREET":" ","SECT":" ","MAREA":"港口","LANE":" ","ALLEY":" ","HOUSE_NO":"３２４之５號","E_COORD97":171257.69,"N_COORD97":2554562.2999999998,"ADDRESS":"港口３２４之５號","OBJECTID":181622},"geometry":{"x":171257.69000000134,"y":2554562.3000000007}},{"attributes":{"ID":181624,"DIS_CODE":0,"TOWNNAME":"永康區","LI":"神洲里","LIN":" ","STREET":"忠孝路","SECT":" ","MAREA":" ","LANE":"６巷","ALLEY":"２５弄","HOUSE_NO":"２７號","E_COORD97":172241.79999999999,"N_COORD97":2544565.25,"ADDRESS":"忠孝路６巷２５弄２７號","OBJECTID":181623},"geometry":{"x":172241.79999999981,"y":2544565.2500000037}},{"attributes":{"ID":181625,"DIS_CODE":0,"TOWNNAME":"麻豆區","LI":"安東里","LIN":"3鄰","STREET":" ","SECT":" ","MAREA":"安業","LANE":" ","ALLEY":" ","HOUSE_NO":"３８號","E_COORD97":172980.98000000001,"N_COORD97":2562934.7000000002,"ADDRESS":"安業３８號","OBJECTID":181624},"geometry":{"x":172980.98000000138,"y":2562934.7000000011}},{"attributes":{"ID":181626,"DIS_CODE":0,"TOWNNAME":"永康區","LI":"建國里","LIN":" ","STREET":"復興路","SECT":" ","MAREA":" ","LANE":"５４巷","ALLEY":"２弄","HOUSE_NO":"３２號之１Ａ號","E_COORD97":172976.28,"N_COORD97":2545158.71,"ADDRESS":"復興路５４巷２弄３２號之１Ａ號","OBJECTID":181625},"geometry":{"x":172976.28000000026,"y":2545158.7100000009}},{"attributes":{"ID":181627,"DIS_CODE":0,"TOWNNAME":"永康區","LI":"復興里","LIN":" ","STREET":"復興路","SECT":" ","MAREA":" ","LANE":"２７７巷","ALLEY":"７８弄","HOUSE_NO":"２７號","E_COORD97":172278,"N_COORD97":2544124.27,"ADDRESS":"復興路２７７巷７８弄２７號","OBJECTID":181626},"geometry":{"x":172278,"y":2544124.2700000014}},{"attributes":{"ID":181628,"DIS_CODE":0,"TOWNNAME":"永康區","LI":"神洲里","LIN":" ","STREET":"忠孝路","SECT":" ","MAREA":" ","LANE":"７３巷","ALLEY":"６３弄","HOUSE_NO":"２號","E_COORD97":172279.03,"N_COORD97":2545051.1000000001,"ADDRESS":"忠孝路７３巷６３弄２號","OBJECTID":181627},"geometry":{"x":172279.03000000119,"y":2545051.1000000015}},{"attributes":{"ID":181629,"DIS_CODE":0,"TOWNNAME":"北門區","LI":"永隆里","LIN":"1鄰","STREET":" ","SECT":" ","MAREA":"北門","LANE":" ","ALLEY":" ","HOUSE_NO":"２號","E_COORD97":160370.60000000001,"N_COORD97":2574293.6600000001,"ADDRESS":"北門２號","OBJECTID":181628},"geometry":{"x":160370.60000000056,"y":2574293.660000002}},{"attributes":{"ID":181630,"DIS_CODE":0,"TOWNNAME":"北門區","LI":"北門里","LIN":"10鄰","STREET":" ","SECT":" ","MAREA":"北門","LANE":" ","ALLEY":" ","HOUSE_NO":"２７５號","E_COORD97":160109.44,"N_COORD97":2574271.6099999999,"ADDRESS":"北門２７５號","OBJECTID":181629},"geometry":{"x":160109.44000000227,"y":2574271.6099999975}},{"attributes":{"ID":181631,"DIS_CODE":0,"TOWNNAME":"安定區","LI":"中榮里","LIN":"11鄰","STREET":" ","SECT":" ","MAREA":"許中營","LANE":" ","ALLEY":" ","HOUSE_NO":"７之２號","E_COORD97":172230.29000000001,"N_COORD97":2555055.2999999998,"ADDRESS":"許中營７之２號","OBJECTID":181630},"geometry":{"x":172230.29000000004,"y":2555055.3000000045}},{"attributes":{"ID":181632,"DIS_CODE":0,"TOWNNAME":"安定區","LI":"中榮里","LIN":"11鄰","STREET":" ","SECT":" ","MAREA":"許中營","LANE":" ","ALLEY":" ","HOUSE_NO":"８９之９號","E_COORD97":172104.34,"N_COORD97":2555086.2999999998,"ADDRESS":"許中營８９之９號","OBJECTID":181631},"geometry":{"x":172104.33999999985,"y":2555086.3000000026}},{"attributes":{"ID":181633,"DIS_CODE":0,"TOWNNAME":"安定區","LI":"港口里","LIN":"11鄰","STREET":" ","SECT":" ","MAREA":"港口","LANE":" ","ALLEY":" ","HOUSE_NO":"３２４之９號","E_COORD97":171247.59,"N_COORD97":2554582.2999999998,"ADDRESS":"港口３２４之９號","OBJECTID":181632},"geometry":{"x":171247.59000000078,"y":2554582.3000000026}},{"attributes":{"ID":181634,"DIS_CODE":0,"TOWNNAME":"安定區","LI":"港口里","LIN":"11鄰","STREET":" ","SECT":" ","MAREA":"港口","LANE":" ","ALLEY":" ","HOUSE_NO":"３２４之６號","E_COORD97":171261.29000000001,"N_COORD97":2554558.2999999998,"ADDRESS":"港口３２４之６號","OBJECTID":181633},"geometry":{"x":171261.29000000097,"y":2554558.3000000026}},{"attributes":{"ID":181635,"DIS_CODE":0,"TOWNNAME":"安定區","LI":"港尾里","LIN":"11鄰","STREET":" ","SECT":" ","MAREA":"港子尾","LANE":" ","ALLEY":" ","HOUSE_NO":"６０之１號","E_COORD97":171514.98999999999,"N_COORD97":2555819.2999999998,"ADDRESS":"港子尾６０之１號","OBJECTID":181634},"geometry":{"x":171514.99000000022,"y":2555819.3000000026}},{"attributes":{"ID":181636,"DIS_CODE":0,"TOWNNAME":"安定區","LI":"港口里","LIN":"11鄰","STREET":" ","SECT":" ","MAREA":"港口","LANE":" ","ALLEY":" ","HOUSE_NO":"３２４之７號","E_COORD97":171272.19,"N_COORD97":2554540.2999999998,"ADDRESS":"港口３２４之７號","OBJECTID":181635},"geometry":{"x":171272.18999999948,"y":2554540.3000000026}},{"attributes":{"ID":181637,"DIS_CODE":0,"TOWNNAME":"永康區","LI":"甲頂里","LIN":" ","STREET":"中正南路","SECT":" ","MAREA":" ","LANE":"５２巷","ALLEY":"１３弄","HOUSE_NO":"６２號","E_COORD97":169710.42999999999,"N_COORD97":2546767.8500000001,"ADDRESS":"中正南路５２巷１３弄６２號","OBJECTID":181636},"geometry":{"x":169710.43000000156,"y":2546767.8500000034}},{"attributes":{"ID":181638,"DIS_CODE":0,"TOWNNAME":"永康區","LI":"神洲里","LIN":" ","STREET":"忠孝路","SECT":" ","MAREA":" ","LANE":"７６巷","ALLEY":"６３弄","HOUSE_NO":"６１號","E_COORD97":172276.14999999999,"N_COORD97":2545021.2400000002,"ADDRESS":"忠孝路７６巷６３弄６１號","OBJECTID":181637},"geometry":{"x":172276.15000000224,"y":2545021.2400000021}},{"attributes":{"ID":181639,"DIS_CODE":0,"TOWNNAME":"永康區","LI":"大橋里","LIN":" ","STREET":"大橋一街","SECT":" ","MAREA":" ","LANE":"２３３巷","ALLEY":"２弄","HOUSE_NO":"１５號","E_COORD97":171176.70000000001,"N_COORD97":2546642.75,"ADDRESS":"大橋一街２３３巷２弄１５號","OBJECTID":181638},"geometry":{"x":171176.70000000019,"y":2546642.75}},{"attributes":{"ID":181640,"DIS_CODE":0,"TOWNNAME":"歸仁區","LI":"後市里","LIN":"24鄰","STREET":"文化街","SECT":"二段","MAREA":" ","LANE":" ","ALLEY":" ","HOUSE_NO":"２７號","E_COORD97":177540.54000000001,"N_COORD97":2541084.2599999998,"ADDRESS":"文化街二段２７號","OBJECTID":181639},"geometry":{"x":177540.54000000097,"y":2541084.2600000016}},{"attributes":{"ID":181641,"DIS_CODE":0,"TOWNNAME":"歸仁區","LI":"南興里","LIN":"24鄰","STREET":"文化二十街","SECT":" ","MAREA":" ","LANE":" ","ALLEY":" ","HOUSE_NO":"２６號","E_COORD97":175479.79000000001,"N_COORD97":2541282.3300000001,"ADDRESS":"文化二十街２６號","OBJECTID":181640},"geometry":{"x":175479.79000000004,"y":2541282.3300000001}},{"attributes":{"ID":181642,"DIS_CODE":0,"TOWNNAME":"歸仁區","LI":"南保里","LIN":"24鄰","STREET":"民權六街","SECT":" ","MAREA":" ","LANE":" ","ALLEY":" ","HOUSE_NO":"７６號","E_COORD97":176800.48999999999,"N_COORD97":2541116.29,"ADDRESS":"民權六街７６號","OBJECTID":181641},"geometry":{"x":176800.49000000115,"y":2541116.290000001}},{"attributes":{"ID":181643,"DIS_CODE":0,"TOWNNAME":"歸仁區","LI":"南保里","LIN":"24鄰","STREET":"民權六街","SECT":" ","MAREA":" ","LANE":" ","ALLEY":" ","HOUSE_NO":"７９號","E_COORD97":176786.09,"N_COORD97":2541101.29,"ADDRESS":"民權六街７９號","OBJECTID":181642},"geometry":{"x":176786.08999999985,"y":2541101.2899999991}},{"attributes":{"ID":181644,"DIS_CODE":0,"TOWNNAME":"歸仁區","LI":"南保里","LIN":"24鄰","STREET":"民權六街","SECT":" ","MAREA":" ","LANE":" ","ALLEY":" ","HOUSE_NO":"８０號","E_COORD97":176781.09,"N_COORD97":2541117.29,"ADDRESS":"民權六街８０號","OBJECTID":181643},"geometry":{"x":176781.08999999985,"y":2541117.290000001}},{"attributes":{"ID":181645,"DIS_CODE":0,"TOWNNAME":"歸仁區","LI":"南興里","LIN":"24鄰","STREET":"文化二十街","SECT":" ","MAREA":" ","LANE":" ","ALLEY":" ","HOUSE_NO":"２８號","E_COORD97":175483.89000000001,"N_COORD97":2541281.3300000001,"ADDRESS":"文化二十街２８號","OBJECTID":181644},"geometry":{"x":175483.88999999966,"y":2541281.3300000001}},{"attributes":{"ID":181646,"DIS_CODE":0,"TOWNNAME":"柳營區","LI":"中埕里","LIN":"10鄰","STREET":" ","SECT":" ","MAREA":"柳營","LANE":" ","ALLEY":" ","HOUSE_NO":"３５８號","E_COORD97":180024.56,"N_COORD97":2574809.23,"ADDRESS":"柳營３５８號","OBJECTID":181645},"geometry":{"x":180024.56000000145,"y":2574809.2300000023}},{"attributes":{"ID":181647,"DIS_CODE":0,"TOWNNAME":"柳營區","LI":"東昇里","LIN":"10鄰","STREET":" ","SECT":" ","MAREA":"柳營","LANE":" ","ALLEY":" ","HOUSE_NO":"４４０號","E_COORD97":180090.32000000001,"N_COORD97":2575464.1099999999,"ADDRESS":"柳營４４０號","OBJECTID":181646},"geometry":{"x":180090.32000000123,"y":2575464.1099999994}},{"attributes":{"ID":181648,"DIS_CODE":0,"TOWNNAME":"柳營區","LI":"東昇里","LIN":"10鄰","STREET":" ","SECT":" ","MAREA":"柳營","LANE":" ","ALLEY":" ","HOUSE_NO":"４４２號","E_COORD97":180097.44,"N_COORD97":2575414.1000000001,"ADDRESS":"柳營４４２號","OBJECTID":181647},"geometry":{"x":180097.44000000227,"y":2575414.0999999996}},{"attributes":{"ID":181649,"DIS_CODE":0,"TOWNNAME":"永康區","LI":"甲頂里","LIN":" ","STREET":"南台街","SECT":" ","MAREA":" ","LANE":"１３５巷","ALLEY":"３弄","HOUSE_NO":"１２８號","E_COORD97":170173.85999999999,"N_COORD97":2546979.6699999999,"ADDRESS":"南台街１３５巷３弄１２８號","OBJECTID":181648},"geometry":{"x":170173.86000000034,"y":2546979.6700000037}},{"attributes":{"ID":181650,"DIS_CODE":0,"TOWNNAME":"柳營區","LI":"東昇里","LIN":"10鄰","STREET":" ","SECT":" ","MAREA":"柳營","LANE":" ","ALLEY":" ","HOUSE_NO":"４４６號之１","E_COORD97":180117.76999999999,"N_COORD97":2575385.46,"ADDRESS":"柳營４４６號之１","OBJECTID":181649},"geometry":{"x":180117.76999999955,"y":2575385.4600000009}},{"attributes":{"ID":181651,"DIS_CODE":0,"TOWNNAME":"柳營區","LI":"東昇里","LIN":"10鄰","STREET":" ","SECT":" ","MAREA":"柳營","LANE":" ","ALLEY":" ","HOUSE_NO":"４４６之２號","E_COORD97":180128.56,"N_COORD97":2575388.0600000001,"ADDRESS":"柳營４４６之２號","OBJECTID":181650},"geometry":{"x":180128.56000000052,"y":2575388.0600000005}},{"attributes":{"ID":181652,"DIS_CODE":0,"TOWNNAME":"柳營區","LI":"東昇里","LIN":"10鄰","STREET":" ","SECT":" ","MAREA":"柳營","LANE":" ","ALLEY":" ","HOUSE_NO":"４４６號","E_COORD97":180127.87,"N_COORD97":2575366.7400000002,"ADDRESS":"柳營４４６號","OBJECTID":181651},"geometry":{"x":180127.87000000011,"y":2575366.7399999984}},{"attributes":{"ID":181653,"DIS_CODE":0,"TOWNNAME":"柳營區","LI":"東昇里","LIN":"10鄰","STREET":" ","SECT":" ","MAREA":"柳營","LANE":" ","ALLEY":" ","HOUSE_NO":"４４８之１號","E_COORD97":180132.29000000001,"N_COORD97":2575403.5299999998,"ADDRESS":"柳營４４８之１號","OBJECTID":181652},"geometry":{"x":180132.29000000097,"y":2575403.5299999993}},{"attributes":{"ID":181654,"DIS_CODE":0,"TOWNNAME":"柳營區","LI":"東昇里","LIN":"10鄰","STREET":" ","SECT":" ","MAREA":"柳營","LANE":" ","ALLEY":" ","HOUSE_NO":"４４８之２號","E_COORD97":180119.75,"N_COORD97":2575400.54,"ADDRESS":"柳營４４８之２號","OBJECTID":181653},"geometry":{"x":180119.75,"y":2575400.5399999991}},{"attributes":{"ID":181655,"DIS_CODE":0,"TOWNNAME":"柳營區","LI":"東昇里","LIN":"10鄰","STREET":" ","SECT":" ","MAREA":"柳營","LANE":" ","ALLEY":" ","HOUSE_NO":"４４８號","E_COORD97":180118.69,"N_COORD97":2575418.9300000002,"ADDRESS":"柳營４４８號","OBJECTID":181654},"geometry":{"x":180118.69000000041,"y":2575418.9299999997}},{"attributes":{"ID":181656,"DIS_CODE":0,"TOWNNAME":"永康區","LI":"大橋里","LIN":" ","STREET":"大橋一街","SECT":" ","MAREA":" ","LANE":"２３３巷","ALLEY":"３弄","HOUSE_NO":"４９號","E_COORD97":171111.09,"N_COORD97":2546660.7999999998,"ADDRESS":"大橋一街２３３巷３弄４９號","OBJECTID":181655},"geometry":{"x":171111.08999999985,"y":2546660.8000000045}},{"attributes":{"ID":181657,"DIS_CODE":0,"TOWNNAME":"柳營區","LI":"東昇里","LIN":"10鄰","STREET":" ","SECT":" ","MAREA":"柳營","LANE":" ","ALLEY":" ","HOUSE_NO":"４４９之３號","E_COORD97":180107.95000000001,"N_COORD97":2575435.3100000001,"ADDRESS":"柳營４４９之３號","OBJECTID":181656},"geometry":{"x":180107.95000000112,"y":2575435.3100000024}},{"attributes":{"ID":181658,"DIS_CODE":0,"TOWNNAME":"安定區","LI":"大同里","LIN":"11鄰","STREET":" ","SECT":" ","MAREA":"大同","LANE":" ","ALLEY":" ","HOUSE_NO":"１２８號","E_COORD97":170293.32000000001,"N_COORD97":2553753.25,"ADDRESS":"大同１２８號","OBJECTID":181657},"geometry":{"x":170293.32000000123,"y":2553753.2500000019}},{"attributes":{"ID":181659,"DIS_CODE":0,"TOWNNAME":"安定區","LI":"港尾里","LIN":"11鄰","STREET":" ","SECT":" ","MAREA":"港子尾","LANE":" ","ALLEY":" ","HOUSE_NO":"６６號","E_COORD97":171475.19,"N_COORD97":2555781.2599999998,"ADDRESS":"港子尾６６號","OBJECTID":181658},"geometry":{"x":171475.19000000041,"y":2555781.2600000016}},{"attributes":{"ID":181660,"DIS_CODE":0,"TOWNNAME":"安定區","LI":"中榮里","LIN":"11鄰","STREET":" ","SECT":" ","MAREA":"許中營","LANE":" ","ALLEY":" ","HOUSE_NO":"８６之２號","E_COORD97":172153.44,"N_COORD97":2555148.2999999998,"ADDRESS":"許中營８６之２號","OBJECTID":181659},"geometry":{"x":172153.44000000041,"y":2555148.3000000026}},{"attributes":{"ID":181661,"DIS_CODE":0,"TOWNNAME":"安定區","LI":"港口里","LIN":"11鄰","STREET":" ","SECT":" ","MAREA":"港口","LANE":" ","ALLEY":" ","HOUSE_NO":"３２４之１０號","E_COORD97":171252.44,"N_COORD97":2554534.2999999998,"ADDRESS":"港口３２４之１０號","OBJECTID":181660},"geometry":{"x":171252.44000000134,"y":2554534.3000000026}},{"attributes":{"ID":181662,"DIS_CODE":0,"TOWNNAME":"安定區","LI":"中榮里","LIN":"11鄰","STREET":" ","SECT":" ","MAREA":"許中營","LANE":" ","ALLEY":" ","HOUSE_NO":"９０號之３","E_COORD97":172091.94,"N_COORD97":2555052.2999999998,"ADDRESS":"許中營９０之３號","OBJECTID":181661},"geometry":{"x":172091.94000000041,"y":2555052.3000000026}},{"attributes":{"ID":181663,"DIS_CODE":0,"TOWNNAME":"永康區","LI":"中華里","LIN":"14鄰","STREET":"忠義街","SECT":" ","MAREA":" ","LANE":"４４巷","ALLEY":"１８弄","HOUSE_NO":"１２號","E_COORD97":171768.28,"N_COORD97":2544424.8900000001,"ADDRESS":"忠義街４４巷１８弄１２號","OBJECTID":181662},"geometry":{"x":171768.28000000212,"y":2544424.8900000006}},{"attributes":{"ID":181664,"DIS_CODE":0,"TOWNNAME":"安定區","LI":"港尾里","LIN":"11鄰","STREET":" ","SECT":" ","MAREA":"港子尾","LANE":" ","ALLEY":" ","HOUSE_NO":"６４之２號","E_COORD97":171448.98999999999,"N_COORD97":2555710.2999999998,"ADDRESS":"港子尾６４之２號","OBJECTID":181663},"geometry":{"x":171448.99000000022,"y":2555710.3000000026}},{"attributes":{"ID":181665,"DIS_CODE":0,"TOWNNAME":"安定區","LI":"港尾里","LIN":"11鄰","STREET":" ","SECT":" ","MAREA":"港子尾","LANE":" ","ALLEY":" ","HOUSE_NO":"５９號之２","E_COORD97":171511.45999999999,"N_COORD97":2555769.2999999998,"ADDRESS":"港子尾５９號之２","OBJECTID":181664},"geometry":{"x":171511.46000000089,"y":2555769.3000000007}},{"attributes":{"ID":181666,"DIS_CODE":0,"TOWNNAME":"安定區","LI":"中榮里","LIN":"11鄰","STREET":" ","SECT":" ","MAREA":"許中營","LANE":" ","ALLEY":" ","HOUSE_NO":"８６號","E_COORD97":172222.342363,"N_COORD97":2555129.4201600002,"ADDRESS":"許中營８６號","OBJECTID":181665},"geometry":{"x":172222.34236300178,"y":2555129.420160003}},{"attributes":{"ID":181667,"DIS_CODE":0,"TOWNNAME":"安定區","LI":"安加里","LIN":"11鄰","STREET":" ","SECT":" ","MAREA":"安定","LANE":" ","ALLEY":" ","HOUSE_NO":"２６６號之１","E_COORD97":171561.54999999999,"N_COORD97":2557386.3199999998,"ADDRESS":"安定２６６號之１","OBJECTID":181666},"geometry":{"x":171561.55000000075,"y":2557386.3200000003}},{"attributes":{"ID":181668,"DIS_CODE":0,"TOWNNAME":"永康區","LI":"建國里","LIN":" ","STREET":"復興路","SECT":" ","MAREA":" ","LANE":"１巷","ALLEY":"３０弄","HOUSE_NO":"１４０之３號","E_COORD97":173054.97,"N_COORD97":2543672.96,"ADDRESS":"復興路１巷３０弄１４０之３號","OBJECTID":181667},"geometry":{"x":173054.97000000067,"y":2543672.9600000046}},{"attributes":{"ID":181669,"DIS_CODE":0,"TOWNNAME":"安定區","LI":"海寮里","LIN":"11鄰","STREET":" ","SECT":" ","MAREA":"海寮","LANE":" ","ALLEY":" ","HOUSE_NO":"１０５號之１","E_COORD97":169130.28,"N_COORD97":2555363.2999999998,"ADDRESS":"海寮１０５號之１","OBJECTID":181668},"geometry":{"x":169130.28000000026,"y":2555363.3000000007}},{"attributes":{"ID":181670,"DIS_CODE":0,"TOWNNAME":"安定區","LI":"港口里","LIN":"11鄰","STREET":" ","SECT":" ","MAREA":"港口","LANE":" ","ALLEY":" ","HOUSE_NO":"３２４之８號","E_COORD97":171263.69,"N_COORD97":2554570.2999999998,"ADDRESS":"港口３２４之８號","OBJECTID":181669},"geometry":{"x":171263.68999999948,"y":2554570.2999999989}},{"attributes":{"ID":181671,"DIS_CODE":0,"TOWNNAME":"永康區","LI":"尚頂里","LIN":" ","STREET":"中正南路","SECT":" ","MAREA":" ","LANE":"３６０巷","ALLEY":"１１弄","HOUSE_NO":"１３之２號","E_COORD97":171154.42999999999,"N_COORD97":2548187.2999999998,"ADDRESS":"中正南路３６０巷１１弄１３之２號","OBJECTID":181670},"geometry":{"x":171154.4299999997,"y":2548187.3000000026}},{"attributes":{"ID":181672,"DIS_CODE":0,"TOWNNAME":"柳營區","LI":"人和里","LIN":"10鄰","STREET":"柳營路","SECT":"三段","MAREA":" ","LANE":" ","ALLEY":" ","HOUSE_NO":"２７７號","E_COORD97":179667.87,"N_COORD97":2576898.3599999999,"ADDRESS":"柳營路三段２７７號","OBJECTID":181671},"geometry":{"x":179667.87000000011,"y":2576898.3600000013}},{"attributes":{"ID":181673,"DIS_CODE":0,"TOWNNAME":"柳營區","LI":"人和里","LIN":"10鄰","STREET":"柳營路","SECT":"三段","MAREA":" ","LANE":" ","ALLEY":" ","HOUSE_NO":"２７９號","E_COORD97":179668.09,"N_COORD97":2576902.6000000001,"ADDRESS":"柳營路三段２７９號","OBJECTID":181672},"geometry":{"x":179668.08999999985,"y":2576902.5999999996}},{"attributes":{"ID":181674,"DIS_CODE":0,"TOWNNAME":"柳營區","LI":"人和里","LIN":"10鄰","STREET":"柳營路","SECT":"三段","MAREA":" ","LANE":" ","ALLEY":" ","HOUSE_NO":"２８１號","E_COORD97":179668.26999999999,"N_COORD97":2576906.23,"ADDRESS":"柳營路三段２８１號","OBJECTID":181673},"geometry":{"x":179668.26999999955,"y":2576906.2299999986}},{"attributes":{"ID":181675,"DIS_CODE":0,"TOWNNAME":"柳營區","LI":"人和里","LIN":"10鄰","STREET":"柳營路","SECT":"三段","MAREA":" ","LANE":" ","ALLEY":" ","HOUSE_NO":"２８３號","E_COORD97":179668.56,"N_COORD97":2576911.5699999998,"ADDRESS":"柳營路三段２８３號","OBJECTID":181674},"geometry":{"x":179668.56000000145,"y":2576911.5700000022}},{"attributes":{"ID":181676,"DIS_CODE":0,"TOWNNAME":"柳營區","LI":"人和里","LIN":"10鄰","STREET":"柳營路","SECT":"三段","MAREA":" ","LANE":" ","ALLEY":" ","HOUSE_NO":"２８７號","E_COORD97":179657.72,"N_COORD97":2576934.7000000002,"ADDRESS":"柳營路三段２８７號","OBJECTID":181675},"geometry":{"x":179657.72000000067,"y":2576934.6999999993}},{"attributes":{"ID":181677,"DIS_CODE":0,"TOWNNAME":"柳營區","LI":"士林里","LIN":"10鄰","STREET":" ","SECT":" ","MAREA":"柳營","LANE":" ","ALLEY":" ","HOUSE_NO":"８７之１號","E_COORD97":179581.57000000001,"N_COORD97":2575159.8599999999,"ADDRESS":"柳營８７之１號","OBJECTID":181676},"geometry":{"x":179581.57000000123,"y":2575159.8600000013}},{"attributes":{"ID":181678,"DIS_CODE":0,"TOWNNAME":"柳營區","LI":"士林里","LIN":"10鄰","STREET":" ","SECT":" ","MAREA":"柳營","LANE":" ","ALLEY":" ","HOUSE_NO":"８７之２號","E_COORD97":179580.53,"N_COORD97":2575167.52,"ADDRESS":"柳營８７之２號","OBJECTID":181677},"geometry":{"x":179580.53000000026,"y":2575167.5199999977}},{"attributes":{"ID":181679,"DIS_CODE":0,"TOWNNAME":"柳營區","LI":"士林里","LIN":"10鄰","STREET":" ","SECT":" ","MAREA":"柳營","LANE":" ","ALLEY":" ","HOUSE_NO":"８７號之２","E_COORD97":179580.53,"N_COORD97":2575167.52,"ADDRESS":"柳營８７號之２","OBJECTID":181678},"geometry":{"x":179580.53000000026,"y":2575167.5199999977}},{"attributes":{"ID":181680,"DIS_CODE":0,"TOWNNAME":"柳營區","LI":"士林里","LIN":"10鄰","STREET":" ","SECT":" ","MAREA":"柳營","LANE":" ","ALLEY":" ","HOUSE_NO":"８７號","E_COORD97":179592.79999999999,"N_COORD97":2575163.1499999999,"ADDRESS":"柳營８７號","OBJECTID":181679},"geometry":{"x":179592.80000000075,"y":2575163.1500000004}},{"attributes":{"ID":181681,"DIS_CODE":0,"TOWNNAME":"柳營區","LI":"士林里","LIN":"10鄰","STREET":" ","SECT":" ","MAREA":"柳營","LANE":" ","ALLEY":" ","HOUSE_NO":"８８號","E_COORD97":179582.89000000001,"N_COORD97":2575189.2799999998,"ADDRESS":"柳營８８號","OBJECTID":181680},"geometry":{"x":179582.88999999966,"y":2575189.2800000031}},{"attributes":{"ID":181682,"DIS_CODE":0,"TOWNNAME":"柳營區","LI":"士林里","LIN":"10鄰","STREET":" ","SECT":" ","MAREA":"柳營","LANE":" ","ALLEY":" ","HOUSE_NO":"８９號","E_COORD97":179587.34,"N_COORD97":2575214.2400000002,"ADDRESS":"柳營８９號","OBJECTID":181681},"geometry":{"x":179587.34000000171,"y":2575214.2400000039}},{"attributes":{"ID":181683,"DIS_CODE":0,"TOWNNAME":"柳營區","LI":"士林里","LIN":"10鄰","STREET":" ","SECT":" ","MAREA":"柳營","LANE":" ","ALLEY":" ","HOUSE_NO":"９０號","E_COORD97":179581.29999999999,"N_COORD97":2575226.6099999999,"ADDRESS":"柳營９０號","OBJECTID":181682},"geometry":{"x":179581.30000000075,"y":2575226.6099999994}},{"attributes":{"ID":181684,"DIS_CODE":0,"TOWNNAME":"安定區","LI":"中榮里","LIN":"11鄰","STREET":" ","SECT":" ","MAREA":"許中營","LANE":" ","ALLEY":" ","HOUSE_NO":"８６號之３","E_COORD97":172155.48000000001,"N_COORD97":2555151.2999999998,"ADDRESS":"許中營８６號之３","OBJECTID":181683},"geometry":{"x":172155.48000000138,"y":2555151.3000000026}},{"attributes":{"ID":181685,"DIS_CODE":0,"TOWNNAME":"安定區","LI":"港尾里","LIN":"11鄰","STREET":" ","SECT":" ","MAREA":"港子尾","LANE":" ","ALLEY":" ","HOUSE_NO":"６６號之１","E_COORD97":171488.23000000001,"N_COORD97":2555777.2999999998,"ADDRESS":"港子尾６６號之１","OBJECTID":181684},"geometry":{"x":171488.23000000045,"y":2555777.2999999989}},{"attributes":{"ID":181686,"DIS_CODE":0,"TOWNNAME":"安定區","LI":"海寮里","LIN":"11鄰","STREET":" ","SECT":" ","MAREA":"海寮","LANE":" ","ALLEY":" ","HOUSE_NO":"１０６之１號","E_COORD97":169148.04000000001,"N_COORD97":2555340.2999999998,"ADDRESS":"海寮１０６之１號","OBJECTID":181685},"geometry":{"x":169148.04000000004,"y":2555340.3000000045}},{"attributes":{"ID":181687,"DIS_CODE":0,"TOWNNAME":"安定區","LI":"港尾里","LIN":"11鄰","STREET":" ","SECT":" ","MAREA":"港子尾","LANE":" ","ALLEY":" ","HOUSE_NO":"６２號之１","E_COORD97":171485.63,"N_COORD97":2555756.2999999998,"ADDRESS":"港子尾６２號之１","OBJECTID":181686},"geometry":{"x":171485.62999999896,"y":2555756.3000000007}},{"attributes":{"ID":181688,"DIS_CODE":0,"TOWNNAME":"安定區","LI":"中榮里","LIN":"11鄰","STREET":" ","SECT":" ","MAREA":"許中營","LANE":" ","ALLEY":" ","HOUSE_NO":"９０之１０號","E_COORD97":172148.937825,"N_COORD97":2555044.69019,"ADDRESS":"許中營９０之１０號","OBJECTID":181687},"geometry":{"x":172148.93782499991,"y":2555044.690193003}},{"attributes":{"ID":181689,"DIS_CODE":0,"TOWNNAME":"永康區","LI":"神洲里","LIN":" ","STREET":"忠孝路","SECT":" ","MAREA":" ","LANE":"６巷","ALLEY":"３７弄","HOUSE_NO":"３５號","E_COORD97":172282.12,"N_COORD97":2544539.7400000002,"ADDRESS":"忠孝路６巷３７弄３５號","OBJECTID":181688},"geometry":{"x":172282.12000000011,"y":2544539.7400000021}},{"attributes":{"ID":181690,"DIS_CODE":0,"TOWNNAME":"永康區","LI":"大橋里","LIN":" ","STREET":"大橋一街","SECT":" ","MAREA":" ","LANE":"１０３巷","ALLEY":"６２弄","HOUSE_NO":"４號","E_COORD97":170969.60999999999,"N_COORD97":2546561.9900000002,"ADDRESS":"大橋一街１０３巷６２弄４號","OBJECTID":181689},"geometry":{"x":170969.61000000127,"y":2546561.9900000021}},{"attributes":{"ID":181691,"DIS_CODE":0,"TOWNNAME":"柳營區","LI":"人和里","LIN":"10鄰","STREET":"柳營路","SECT":"三段","MAREA":" ","LANE":" ","ALLEY":" ","HOUSE_NO":"２８９號","E_COORD97":179660.17999999999,"N_COORD97":2576938.1499999999,"ADDRESS":"柳營路三段２８９號","OBJECTID":181690},"geometry":{"x":179660.18000000063,"y":2576938.1500000022}},{"attributes":{"ID":181692,"DIS_CODE":0,"TOWNNAME":"永康區","LI":"崑山里","LIN":" ","STREET":"大灣路","SECT":" ","MAREA":" ","LANE":"９４２巷","ALLEY":"７１弄","HOUSE_NO":"１１３號","E_COORD97":173566.31,"N_COORD97":2544550,"ADDRESS":"大灣路９４２巷７１弄１１３號","OBJECTID":181691},"geometry":{"x":173566.31000000052,"y":2544550.0000000037}},{"attributes":{"ID":181693,"DIS_CODE":0,"TOWNNAME":"西港區","LI":"西港里","LIN":"11鄰","STREET":" ","SECT":" ","MAREA":"西港","LANE":" ","ALLEY":" ","HOUSE_NO":"２１號之１","E_COORD97":168436.76999999999,"N_COORD97":2557957.2400000002,"ADDRESS":"西港２１號之１","OBJECTID":181692},"geometry":{"x":168436.77000000048,"y":2557957.2400000039}},{"attributes":{"ID":181694,"DIS_CODE":0,"TOWNNAME":"永康區","LI":"五王里","LIN":" ","STREET":"中華路","SECT":" ","MAREA":" ","LANE":"２０６巷","ALLEY":"３０弄","HOUSE_NO":"９號","E_COORD97":171656.62,"N_COORD97":2545583.7999999998,"ADDRESS":"中華路２０６巷３０弄９號","OBJECTID":181693},"geometry":{"x":171656.62000000011,"y":2545583.8000000026}},{"attributes":{"ID":181695,"DIS_CODE":0,"TOWNNAME":"永康區","LI":"龍潭里","LIN":"38鄰","STREET":"中山北路","SECT":" ","MAREA":" ","LANE":"１６４巷","ALLEY":"７８弄","HOUSE_NO":"１２號","E_COORD97":174430.01000000001,"N_COORD97":2547363.8100000001,"ADDRESS":"中山北路１６４巷７８弄１２號","OBJECTID":181694},"geometry":{"x":174430.01000000071,"y":2547363.8100000024}},{"attributes":{"ID":181696,"DIS_CODE":0,"TOWNNAME":"安定區","LI":"海寮里","LIN":"11鄰","STREET":" ","SECT":" ","MAREA":"海寮","LANE":" ","ALLEY":" ","HOUSE_NO":"１０４號","E_COORD97":169145.04000000001,"N_COORD97":2555367.25,"ADDRESS":"海寮１０４號","OBJECTID":181695},"geometry":{"x":169145.04000000004,"y":2555367.2500000019}},{"attributes":{"ID":181697,"DIS_CODE":0,"TOWNNAME":"安定區","LI":"中榮里","LIN":"11鄰","STREET":" ","SECT":" ","MAREA":"許中營","LANE":" ","ALLEY":" ","HOUSE_NO":"８６號之１１","E_COORD97":172167.53,"N_COORD97":2555146.2999999998,"ADDRESS":"許中營８６號之１１","OBJECTID":181696},"geometry":{"x":172167.53000000026,"y":2555146.3000000007}},{"attributes":{"ID":181698,"DIS_CODE":0,"TOWNNAME":"安定區","LI":"中榮里","LIN":"11鄰","STREET":" ","SECT":" ","MAREA":"許中營","LANE":" ","ALLEY":" ","HOUSE_NO":"９０之２３號","E_COORD97":172158.86640500001,"N_COORD97":2555052.6806000001,"ADDRESS":"許中營９０之２３號","OBJECTID":181697},"geometry":{"x":172158.86640499998,"y":2555052.6806050017}},{"attributes":{"ID":181699,"DIS_CODE":0,"TOWNNAME":"安定區","LI":"港尾里","LIN":"11鄰","STREET":" ","SECT":" ","MAREA":"港子尾","LANE":" ","ALLEY":" ","HOUSE_NO":"６８號之１","E_COORD97":171397.53,"N_COORD97":2555798.2999999998,"ADDRESS":"港子尾６８號之１","OBJECTID":181698},"geometry":{"x":171397.53000000119,"y":2555798.3000000026}},{"attributes":{"ID":181700,"DIS_CODE":0,"TOWNNAME":"安定區","LI":"港尾里","LIN":"11鄰","STREET":" ","SECT":" ","MAREA":"港子尾","LANE":" ","ALLEY":" ","HOUSE_NO":"６７號","E_COORD97":171478.48999999999,"N_COORD97":2555802.2599999998,"ADDRESS":"港子尾６７號","OBJECTID":181699},"geometry":{"x":171478.49000000209,"y":2555802.2599999998}},{"attributes":{"ID":181701,"DIS_CODE":0,"TOWNNAME":"安定區","LI":"安定里","LIN":"11鄰","STREET":" ","SECT":" ","MAREA":"安定","LANE":" ","ALLEY":" ","HOUSE_NO":"８９號","E_COORD97":172034.81575899999,"N_COORD97":2557787.1467499998,"ADDRESS":"安定８９號","OBJECTID":181700},"geometry":{"x":172034.81575899944,"y":2557787.1467460021}},{"attributes":{"ID":181702,"DIS_CODE":0,"TOWNNAME":"永康區","LI":"龍潭里","LIN":"38鄰","STREET":"中山北路","SECT":" ","MAREA":" ","LANE":"１６４巷","ALLEY":"７８弄","HOUSE_NO":"９號之２０","E_COORD97":174457.59,"N_COORD97":2547311.04,"ADDRESS":"中山北路１６４巷７８弄９號之２０","OBJECTID":181701},"geometry":{"x":174457.59000000171,"y":2547311.0399999991}},{"attributes":{"ID":181703,"DIS_CODE":0,"TOWNNAME":"永康區","LI":"龍潭里","LIN":"38鄰","STREET":"中山北路","SECT":" ","MAREA":" ","LANE":"１６４巷","ALLEY":"６８弄","HOUSE_NO":"１２號","E_COORD97":174388.20999999999,"N_COORD97":2547367.7000000002,"ADDRESS":"中山北路１６４巷６８弄１２號","OBJECTID":181702},"geometry":{"x":174388.21000000089,"y":2547367.6999999993}},{"attributes":{"ID":181704,"DIS_CODE":0,"TOWNNAME":"永康區","LI":"龍潭里","LIN":"38鄰","STREET":"中山北路","SECT":" ","MAREA":" ","LANE":"１６４巷","ALLEY":"７８弄","HOUSE_NO":"９號之１０","E_COORD97":174457.59,"N_COORD97":2547311.04,"ADDRESS":"中山北路１６４巷７８弄９號之１０","OBJECTID":181703},"geometry":{"x":174457.59000000171,"y":2547311.0399999991}},{"attributes":{"ID":181705,"DIS_CODE":0,"TOWNNAME":"永康區","LI":"龍潭里","LIN":"39鄰","STREET":"永明街","SECT":" ","MAREA":" ","LANE":"２３１巷","ALLEY":"６２弄","HOUSE_NO":"１３號","E_COORD97":174623.23999999999,"N_COORD97":2547366.9900000002,"ADDRESS":"永明街２３１巷６２弄１３號","OBJECTID":181704},"geometry":{"x":174623.24000000209,"y":2547366.9900000002}},{"attributes":{"ID":181706,"DIS_CODE":0,"TOWNNAME":"安定區","LI":"港尾里","LIN":"11鄰","STREET":" ","SECT":" ","MAREA":"港子尾","LANE":" ","ALLEY":" ","HOUSE_NO":"６４之４號","E_COORD97":171460.59,"N_COORD97":2555712.2999999998,"ADDRESS":"港子尾６４之４號","OBJECTID":181705},"geometry":{"x":171460.59000000171,"y":2555712.3000000007}},{"attributes":{"ID":181707,"DIS_CODE":0,"TOWNNAME":"永康區","LI":"龍潭里","LIN":"39鄰","STREET":"永明街","SECT":" ","MAREA":" ","LANE":"２３１巷","ALLEY":"６２弄","HOUSE_NO":"１６號","E_COORD97":174621.03,"N_COORD97":2547347.21,"ADDRESS":"永明街２３１巷６２弄１６號","OBJECTID":181706},"geometry":{"x":174621.03000000026,"y":2547347.2100000028}},{"attributes":{"ID":181708,"DIS_CODE":0,"TOWNNAME":"永康區","LI":"龍潭里","LIN":"39鄰","STREET":"永明街","SECT":" ","MAREA":" ","LANE":"２３１巷","ALLEY":"４２弄","HOUSE_NO":"３號","E_COORD97":174604.04999999999,"N_COORD97":2547317.7000000002,"ADDRESS":"永明街２３１巷４２弄３號","OBJECTID":181707},"geometry":{"x":174604.05000000075,"y":2547317.700000003}},{"attributes":{"ID":181709,"DIS_CODE":0,"TOWNNAME":"永康區","LI":"\u25A0行里","LIN":"32鄰","STREET":"三村一街","SECT":" ","MAREA":" ","LANE":"１３８巷","ALLEY":"９２弄","HOUSE_NO":"１號","E_COORD97":172121.07000000001,"N_COORD97":2549440.4500000002,"ADDRESS":"三村一街１３８巷９２弄１號","OBJECTID":181708},"geometry":{"x":172121.07000000123,"y":2549440.4499999993}},{"attributes":{"ID":181710,"DIS_CODE":0,"TOWNNAME":"安定區","LI":"港口里","LIN":"11鄰","STREET":" ","SECT":" ","MAREA":"港口","LANE":" ","ALLEY":" ","HOUSE_NO":"３２４號之４","E_COORD97":171253.14999999999,"N_COORD97":2554563.2999999998,"ADDRESS":"港口３２４號之４","OBJECTID":181709},"geometry":{"x":171253.15000000037,"y":2554563.3000000007}},{"attributes":{"ID":181711,"DIS_CODE":0,"TOWNNAME":"安定區","LI":"安加里","LIN":"11鄰","STREET":" ","SECT":" ","MAREA":"安定","LANE":" ","ALLEY":" ","HOUSE_NO":"２６８號之９","E_COORD97":171551.01999999999,"N_COORD97":2557397.3199999998,"ADDRESS":"安定２６８之９號","OBJECTID":181710},"geometry":{"x":171551.02000000048,"y":2557397.320000004}},{"attributes":{"ID":181712,"DIS_CODE":0,"TOWNNAME":"安定區","LI":"安加里","LIN":"11鄰","STREET":" ","SECT":" ","MAREA":"安定","LANE":" ","ALLEY":" ","HOUSE_NO":"２７０號","E_COORD97":171536.42000000001,"N_COORD97":2557424.3199999998,"ADDRESS":"安定２７０號","OBJECTID":181711},"geometry":{"x":171536.42000000179,"y":2557424.3199999984}},{"attributes":{"ID":181713,"DIS_CODE":0,"TOWNNAME":"安定區","LI":"中榮里","LIN":"11鄰","STREET":" ","SECT":" ","MAREA":"許中營","LANE":" ","ALLEY":" ","HOUSE_NO":"８９之３號","E_COORD97":172118.44,"N_COORD97":2555069.2999999998,"ADDRESS":"許中營８９之３號","OBJECTID":181712},"geometry":{"x":172118.44000000134,"y":2555069.3000000026}},{"attributes":{"ID":181714,"DIS_CODE":0,"TOWNNAME":"安定區","LI":"中榮里","LIN":"11鄰","STREET":" ","SECT":" ","MAREA":"許中營","LANE":" ","ALLEY":" ","HOUSE_NO":"８６之４號","E_COORD97":172158.14000000001,"N_COORD97":2555155.2999999998,"ADDRESS":"許中營８６之４號","OBJECTID":181713},"geometry":{"x":172158.13999999966,"y":2555155.3000000026}},{"attributes":{"ID":181715,"DIS_CODE":0,"TOWNNAME":"安定區","LI":"中榮里","LIN":"11鄰","STREET":" ","SECT":" ","MAREA":"許中營","LANE":" ","ALLEY":" ","HOUSE_NO":"８９之８號","E_COORD97":172107.23999999999,"N_COORD97":2555083.2999999998,"ADDRESS":"許中營８９之８號","OBJECTID":181714},"geometry":{"x":172107.24000000022,"y":2555083.3000000026}},{"attributes":{"ID":181716,"DIS_CODE":0,"TOWNNAME":"歸仁區","LI":"南保里","LIN":"24鄰","STREET":"民權六街","SECT":" ","MAREA":" ","LANE":" ","ALLEY":" ","HOUSE_NO":"７５號","E_COORD97":176796.39000000001,"N_COORD97":2541102.29,"ADDRESS":"民權六街７５號","OBJECTID":181715},"geometry":{"x":176796.39000000153,"y":2541102.2900000028}},{"attributes":{"ID":181717,"DIS_CODE":0,"TOWNNAME":"安定區","LI":"港尾里","LIN":"11鄰","STREET":" ","SECT":" ","MAREA":"港子尾","LANE":" ","ALLEY":" ","HOUSE_NO":"５８號","E_COORD97":171510.89000000001,"N_COORD97":2555711.2599999998,"ADDRESS":"港子尾５８號","OBJECTID":181716},"geometry":{"x":171510.89000000153,"y":2555711.2599999998}},{"attributes":{"ID":181718,"DIS_CODE":0,"TOWNNAME":"安定區","LI":"港尾里","LIN":"11鄰","STREET":" ","SECT":" ","MAREA":"港子尾","LANE":" ","ALLEY":" ","HOUSE_NO":"６８號之３","E_COORD97":171429.01999999999,"N_COORD97":2555776.2999999998,"ADDRESS":"港子尾６８號之３","OBJECTID":181717},"geometry":{"x":171429.02000000048,"y":2555776.3000000007}},{"attributes":{"ID":181719,"DIS_CODE":0,"TOWNNAME":"安定區","LI":"中榮里","LIN":"11鄰","STREET":" ","SECT":" ","MAREA":"許中營","LANE":" ","ALLEY":" ","HOUSE_NO":"８９之１０號","E_COORD97":172103.09,"N_COORD97":2555090.2999999998,"ADDRESS":"許中營８９之１０號","OBJECTID":181718},"geometry":{"x":172103.09000000171,"y":2555090.3000000026}},{"attributes":{"ID":181720,"DIS_CODE":0,"TOWNNAME":"安定區","LI":"六嘉里","LIN":"11鄰","STREET":" ","SECT":" ","MAREA":"六塊寮","LANE":" ","ALLEY":" ","HOUSE_NO":"８６之３號","E_COORD97":170302.82000000001,"N_COORD97":2553254.2999999998,"ADDRESS":"六塊寮８６之３號","OBJECTID":181719},"geometry":{"x":170302.8200000003,"y":2553254.3000000007}},{"attributes":{"ID":181721,"DIS_CODE":0,"TOWNNAME":"安定區","LI":"中榮里","LIN":"11鄰","STREET":" ","SECT":" ","MAREA":"許中營","LANE":" ","ALLEY":" ","HOUSE_NO":"９０號之１７","E_COORD97":172075.41,"N_COORD97":2554987.2999999998,"ADDRESS":"許中營９０號之１７","OBJECTID":181720},"geometry":{"x":172075.41000000015,"y":2554987.2999999989}},{"attributes":{"ID":181722,"DIS_CODE":0,"TOWNNAME":"安定區","LI":"中榮里","LIN":"11鄰","STREET":" ","SECT":" ","MAREA":"許中營","LANE":" ","ALLEY":" ","HOUSE_NO":"８７號","E_COORD97":172136.14000000001,"N_COORD97":2555134.25,"ADDRESS":"許中營８７號","OBJECTID":181721},"geometry":{"x":172136.13999999966,"y":2555134.2500000019}},{"attributes":{"ID":181723,"DIS_CODE":0,"TOWNNAME":"安定區","LI":"港尾里","LIN":"11鄰","STREET":" ","SECT":" ","MAREA":"港子尾","LANE":" ","ALLEY":" ","HOUSE_NO":"５９號之１","E_COORD97":171534.32999999999,"N_COORD97":2555727.2999999998,"ADDRESS":"港子尾５９號之１","OBJECTID":181722},"geometry":{"x":171534.33000000101,"y":2555727.3000000026}},{"attributes":{"ID":181724,"DIS_CODE":0,"TOWNNAME":"佳里區","LI":"民安里","LIN":"11鄰","STREET":" ","SECT":" ","MAREA":"新宅","LANE":" ","ALLEY":" ","HOUSE_NO":"９號","E_COORD97":167203,"N_COORD97":2563929.3900000001,"ADDRESS":"新宅９號","OBJECTID":181723},"geometry":{"x":167203.00000000186,"y":2563929.3900000006}},{"attributes":{"ID":181725,"DIS_CODE":0,"TOWNNAME":"西港區","LI":"西港里","LIN":"11鄰","STREET":" ","SECT":" ","MAREA":"西港","LANE":" ","ALLEY":" ","HOUSE_NO":"２１號之１２","E_COORD97":168452.72,"N_COORD97":2558000.3300000001,"ADDRESS":"西港２１號之１２","OBJECTID":181724},"geometry":{"x":168452.72000000067,"y":2558000.3300000001}},{"attributes":{"ID":181726,"DIS_CODE":0,"TOWNNAME":"西港區","LI":"西港里","LIN":"11鄰","STREET":" ","SECT":" ","MAREA":"西港","LANE":" ","ALLEY":" ","HOUSE_NO":"２１號之１３","E_COORD97":168452.51000000001,"N_COORD97":2558003.8199999998,"ADDRESS":"西港２１號之１３","OBJECTID":181725},"geometry":{"x":168452.51000000071,"y":2558003.8200000003}},{"attributes":{"ID":181727,"DIS_CODE":0,"TOWNNAME":"西港區","LI":"西港里","LIN":"11鄰","STREET":" ","SECT":" ","MAREA":"西港","LANE":" ","ALLEY":" ","HOUSE_NO":"２１號之１４","E_COORD97":168439.53,"N_COORD97":2558000.46,"ADDRESS":"西港２１號之１４","OBJECTID":181726},"geometry":{"x":168439.53000000119,"y":2558000.459999999}},{"attributes":{"ID":181728,"DIS_CODE":0,"TOWNNAME":"歸仁區","LI":"南保里","LIN":"24鄰","STREET":"民權六街","SECT":" ","MAREA":" ","LANE":" ","ALLEY":" ","HOUSE_NO":"７１號","E_COORD97":176806.59,"N_COORD97":2541102.29,"ADDRESS":"民權六街７１號","OBJECTID":181727},"geometry":{"x":176806.58999999985,"y":2541102.2900000028}},{"attributes":{"ID":181729,"DIS_CODE":0,"TOWNNAME":"歸仁區","LI":"南興里","LIN":"24鄰","STREET":"文化二十街","SECT":" ","MAREA":" ","LANE":" ","ALLEY":" ","HOUSE_NO":"３８號","E_COORD97":175507.48999999999,"N_COORD97":2541281.3300000001,"ADDRESS":"文化二十街３８號","OBJECTID":181728},"geometry":{"x":175507.49000000022,"y":2541281.3300000001}},{"attributes":{"ID":181730,"DIS_CODE":0,"TOWNNAME":"歸仁區","LI":"南興里","LIN":"24鄰","STREET":"文化二十街","SECT":" ","MAREA":" ","LANE":" ","ALLEY":" ","HOUSE_NO":"４８號","E_COORD97":175516.79000000001,"N_COORD97":2541292.3300000001,"ADDRESS":"文化二十街４８號","OBJECTID":181729},"geometry":{"x":175516.79000000097,"y":2541292.3300000001}},{"attributes":{"ID":181731,"DIS_CODE":0,"TOWNNAME":"歸仁區","LI":"南保里","LIN":"24鄰","STREET":"民權六街","SECT":" ","MAREA":" ","LANE":" ","ALLEY":" ","HOUSE_NO":"６５號","E_COORD97":176817.89000000001,"N_COORD97":2541100.29,"ADDRESS":"民權六街６５號","OBJECTID":181730},"geometry":{"x":176817.88999999966,"y":2541100.290000001}},{"attributes":{"ID":181732,"DIS_CODE":0,"TOWNNAME":"歸仁區","LI":"南保里","LIN":"24鄰","STREET":"民權六街","SECT":" ","MAREA":" ","LANE":" ","ALLEY":" ","HOUSE_NO":"６１號","E_COORD97":176829.19,"N_COORD97":2541099.29,"ADDRESS":"民權六街６１號","OBJECTID":181731},"geometry":{"x":176829.19000000227,"y":2541099.290000001}},{"attributes":{"ID":181733,"DIS_CODE":0,"TOWNNAME":"歸仁區","LI":"南興里","LIN":"24鄰","STREET":"文化二十街","SECT":" ","MAREA":" ","LANE":" ","ALLEY":" ","HOUSE_NO":"３６號","E_COORD97":175503.39000000001,"N_COORD97":2541281.3300000001,"ADDRESS":"文化二十街３６號","OBJECTID":181732},"geometry":{"x":175503.3900000006,"y":2541281.3300000001}},{"attributes":{"ID":181734,"DIS_CODE":0,"TOWNNAME":"歸仁區","LI":"南興里","LIN":"24鄰","STREET":"文化二十街","SECT":" ","MAREA":" ","LANE":" ","ALLEY":" ","HOUSE_NO":"４６號","E_COORD97":175521.89000000001,"N_COORD97":2541291.3300000001,"ADDRESS":"文化二十街４６號","OBJECTID":181733},"geometry":{"x":175521.8900000006,"y":2541291.3300000001}},{"attributes":{"ID":181735,"DIS_CODE":0,"TOWNNAME":"歸仁區","LI":"南保里","LIN":"24鄰","STREET":"民權六街","SECT":" ","MAREA":" ","LANE":" ","ALLEY":" ","HOUSE_NO":"７４號","E_COORD97":176807.69,"N_COORD97":2541116.29,"ADDRESS":"民權六街７４號","OBJECTID":181734},"geometry":{"x":176807.69000000134,"y":2541116.290000001}},{"attributes":{"ID":181736,"DIS_CODE":0,"TOWNNAME":"關廟區","LI":"香洋里","LIN":"10鄰","STREET":"仁愛路","SECT":" ","MAREA":" ","LANE":" ","ALLEY":" ","HOUSE_NO":"５９號","E_COORD97":181288.94,"N_COORD97":2540164.2799999998,"ADDRESS":"仁愛路５９號","OBJECTID":181735},"geometry":{"x":181288.94000000041,"y":2540164.2800000012}},{"attributes":{"ID":181737,"DIS_CODE":0,"TOWNNAME":"善化區","LI":"坐駕里","LIN":"18鄰","STREET":"興華路","SECT":" ","MAREA":" ","LANE":" ","ALLEY":" ","HOUSE_NO":"２１６號","E_COORD97":178268.70999999999,"N_COORD97":2558597.75,"ADDRESS":"興華路２１６號","OBJECTID":181736},"geometry":{"x":178268.70999999996,"y":2558597.7500000037}},{"attributes":{"ID":181738,"DIS_CODE":0,"TOWNNAME":"善化區","LI":"文昌里","LIN":"14鄰","STREET":"新興街","SECT":" ","MAREA":" ","LANE":" ","ALLEY":" ","HOUSE_NO":"２３號","E_COORD97":177580.17999999999,"N_COORD97":2558950.25,"ADDRESS":"新興街２３號","OBJECTID":181737},"geometry":{"x":177580.18000000063,"y":2558950.2499999981}},{"attributes":{"ID":181739,"DIS_CODE":0,"TOWNNAME":"善化區","LI":"坐駕里","LIN":"17鄰","STREET":"興華路","SECT":" ","MAREA":" ","LANE":" ","ALLEY":" ","HOUSE_NO":"３０４號","E_COORD97":177778.75,"N_COORD97":2558521.25,"ADDRESS":"興華路３０４號","OBJECTID":181738},"geometry":{"x":177778.75,"y":2558521.2500000019}},{"attributes":{"ID":181740,"DIS_CODE":0,"TOWNNAME":"永康區","LI":"龍潭里","LIN":"38鄰","STREET":"中山北路","SECT":" ","MAREA":" ","LANE":"１６４巷","ALLEY":"７８弄","HOUSE_NO":"９號之３","E_COORD97":174456.39000000001,"N_COORD97":2547311.04,"ADDRESS":"中山北路１６４巷７８弄９號之３","OBJECTID":181739},"geometry":{"x":174456.38999999966,"y":2547311.0399999991}},{"attributes":{"ID":181741,"DIS_CODE":0,"TOWNNAME":"永康區","LI":"龍潭里","LIN":"38鄰","STREET":"中山北路","SECT":" ","MAREA":" ","LANE":"１６４巷","ALLEY":"７８弄","HOUSE_NO":"７號之６","E_COORD97":174455.39000000001,"N_COORD97":2547336.7999999998,"ADDRESS":"中山北路１６４巷７８弄７號之６","OBJECTID":181740},"geometry":{"x":174455.39000000153,"y":2547336.8000000026}},{"attributes":{"ID":181742,"DIS_CODE":0,"TOWNNAME":"永康區","LI":"龍潭里","LIN":"38鄰","STREET":"中山北路","SECT":" ","MAREA":" ","LANE":"１６４巷","ALLEY":"７８弄","HOUSE_NO":"９號之９","E_COORD97":174456.37,"N_COORD97":2547311.04,"ADDRESS":"中山北路１６４巷７８弄９號之９","OBJECTID":181741},"geometry":{"x":174456.37000000104,"y":2547311.0399999991}},{"attributes":{"ID":181743,"DIS_CODE":0,"TOWNNAME":"永康區","LI":"龍潭里","LIN":"39鄰","STREET":"永明街","SECT":" ","MAREA":" ","LANE":"２３１巷","ALLEY":"６２弄","HOUSE_NO":"７號","E_COORD97":174609.59,"N_COORD97":2547366.7400000002,"ADDRESS":"永明街２３１巷６２弄７號","OBJECTID":181742},"geometry":{"x":174609.58999999985,"y":2547366.7400000021}},{"attributes":{"ID":181744,"DIS_CODE":0,"TOWNNAME":"永康區","LI":"龍潭里","LIN":"38鄰","STREET":"中山北路","SECT":" ","MAREA":" ","LANE":"１６４巷","ALLEY":"７８弄","HOUSE_NO":"７號之１８","E_COORD97":174456.69,"N_COORD97":2547336.7999999998,"ADDRESS":"中山北路１６４巷７８弄７號之１８","OBJECTID":181743},"geometry":{"x":174456.69000000041,"y":2547336.8000000026}},{"attributes":{"ID":181745,"DIS_CODE":0,"TOWNNAME":"永康區","LI":"龍潭里","LIN":"38鄰","STREET":"中山北路","SECT":" ","MAREA":" ","LANE":"１６４巷","ALLEY":"７８弄","HOUSE_NO":"７號之１１","E_COORD97":174456.54000000001,"N_COORD97":2547336.7999999998,"ADDRESS":"中山北路１６４巷７８弄７號之１１","OBJECTID":181744},"geometry":{"x":174456.5400000019,"y":2547336.8000000026}},{"attributes":{"ID":181746,"DIS_CODE":0,"TOWNNAME":"永康區","LI":"龍潭里","LIN":"38鄰","STREET":"中山北路","SECT":" ","MAREA":" ","LANE":"１６４巷","ALLEY":"７８弄","HOUSE_NO":"７號之９","E_COORD97":174455.37,"N_COORD97":2547336.7999999998,"ADDRESS":"中山北路１６４巷７８弄７號之９","OBJECTID":181745},"geometry":{"x":174455.37000000011,"y":2547336.8000000026}},{"attributes":{"ID":181747,"DIS_CODE":0,"TOWNNAME":"永康區","LI":"龍潭里","LIN":"39鄰","STREET":"永明街","SECT":" ","MAREA":" ","LANE":"２３１巷","ALLEY":"４２弄","HOUSE_NO":"９號","E_COORD97":174615.94,"N_COORD97":2547318.4500000002,"ADDRESS":"永明街２３１巷４２弄９號","OBJECTID":181746},"geometry":{"x":174615.94000000134,"y":2547318.4499999993}},{"attributes":{"ID":181748,"DIS_CODE":0,"TOWNNAME":"永康區","LI":"龍潭里","LIN":"38鄰","STREET":"中山北路","SECT":" ","MAREA":" ","LANE":"１６４巷","ALLEY":"７８弄","HOUSE_NO":"９號之２２","E_COORD97":174457.67000000001,"N_COORD97":2547311.04,"ADDRESS":"中山北路１６４巷７８弄９號之２２","OBJECTID":181747},"geometry":{"x":174457.67000000086,"y":2547311.0399999991}},{"attributes":{"ID":181749,"DIS_CODE":0,"TOWNNAME":"永康區","LI":"龍潭里","LIN":"38鄰","STREET":"中山北路","SECT":" ","MAREA":" ","LANE":"１６４巷","ALLEY":"６８弄","HOUSE_NO":"２６號","E_COORD97":174389.20000000001,"N_COORD97":2547344.4199999999,"ADDRESS":"中山北路１６４巷６８弄２６號","OBJECTID":181748},"geometry":{"x":174389.20000000019,"y":2547344.4200000018}},{"attributes":{"ID":181750,"DIS_CODE":0,"TOWNNAME":"永康區","LI":"龍潭里","LIN":"26鄰","STREET":"中山北路","SECT":" ","MAREA":" ","LANE":"４６１巷","ALLEY":"８弄","HOUSE_NO":"１０２號","E_COORD97":175160.03,"N_COORD97":2547910.4500000002,"ADDRESS":"中山北路４６１巷８弄１０２號","OBJECTID":181749},"geometry":{"x":175160.03000000026,"y":2547910.4500000011}},{"attributes":{"ID":181751,"DIS_CODE":0,"TOWNNAME":"永康區","LI":"龍潭里","LIN":"39鄰","STREET":"永明街","SECT":" ","MAREA":" ","LANE":"２３１巷","ALLEY":"６２弄","HOUSE_NO":"２號","E_COORD97":174599.28,"N_COORD97":2547346.96,"ADDRESS":"永明街２３１巷６２弄２號","OBJECTID":181750},"geometry":{"x":174599.28000000212,"y":2547346.9600000009}},{"attributes":{"ID":181752,"DIS_CODE":0,"TOWNNAME":"永康區","LI":"龍潭里","LIN":"39鄰","STREET":"永明街","SECT":" ","MAREA":" ","LANE":"２３１巷","ALLEY":"４２弄","HOUSE_NO":"７號","E_COORD97":174611.85000000001,"N_COORD97":2547318.2000000002,"ADDRESS":"永明街２３１巷４２弄７號","OBJECTID":181751},"geometry":{"x":174611.85000000056,"y":2547318.2000000011}},{"attributes":{"ID":181753,"DIS_CODE":0,"TOWNNAME":"永康區","LI":"\u25A0行里","LIN":"32鄰","STREET":"三村一街","SECT":" ","MAREA":" ","LANE":"１３８巷","ALLEY":"９２弄","HOUSE_NO":"６號","E_COORD97":172126.64999999999,"N_COORD97":2549408.2999999998,"ADDRESS":"三村一街１３８巷９２弄６號","OBJECTID":181752},"geometry":{"x":172126.65000000037,"y":2549408.3000000026}},{"attributes":{"ID":181754,"DIS_CODE":0,"TOWNNAME":"永康區","LI":"龍潭里","LIN":"34鄰","STREET":"龍埔街","SECT":" ","MAREA":" ","LANE":"１７５巷","ALLEY":"１弄","HOUSE_NO":"４號","E_COORD97":174471.04999999999,"N_COORD97":2548196.8700000001,"ADDRESS":"龍埔街１７５巷１弄４號","OBJECTID":181753},"geometry":{"x":174471.04999999981,"y":2548196.8700000029}},{"attributes":{"ID":181755,"DIS_CODE":0,"TOWNNAME":"永康區","LI":"龍潭里","LIN":"34鄰","STREET":"龍埔街","SECT":" ","MAREA":" ","LANE":"１３９巷","ALLEY":"１０弄","HOUSE_NO":"２８號","E_COORD97":174520.69,"N_COORD97":2548183.1400000001,"ADDRESS":"龍埔街１３９巷１０弄２８號","OBJECTID":181754},"geometry":{"x":174520.69000000134,"y":2548183.1400000006}},{"attributes":{"ID":181756,"DIS_CODE":0,"TOWNNAME":"永康區","LI":"龍潭里","LIN":"39鄰","STREET":"永明街","SECT":" ","MAREA":" ","LANE":"２３１巷","ALLEY":"６２弄","HOUSE_NO":"１號","E_COORD97":174596.87,"N_COORD97":2547366.7400000002,"ADDRESS":"永明街２３１巷６２弄１號","OBJECTID":181755},"geometry":{"x":174596.87000000104,"y":2547366.7400000021}},{"attributes":{"ID":181757,"DIS_CODE":0,"TOWNNAME":"永康區","LI":"龍潭里","LIN":"38鄰","STREET":"中山北路","SECT":" ","MAREA":" ","LANE":"１６４巷","ALLEY":"７８弄","HOUSE_NO":"５之３號","E_COORD97":174472.35000000001,"N_COORD97":2547330.1600000001,"ADDRESS":"中山北路１６４巷７８弄５之３號","OBJECTID":181756},"geometry":{"x":174472.34999999963,"y":2547330.160000002}},{"attributes":{"ID":181758,"DIS_CODE":0,"TOWNNAME":"永康區","LI":"龍潭里","LIN":"39鄰","STREET":"永明街","SECT":" ","MAREA":" ","LANE":"２３１巷","ALLEY":"６２弄","HOUSE_NO":"１５號","E_COORD97":174627.42000000001,"N_COORD97":2547366.7400000002,"ADDRESS":"永明街２３１巷６２弄１５號","OBJECTID":181757},"geometry":{"x":174627.42000000086,"y":2547366.7400000021}},{"attributes":{"ID":181759,"DIS_CODE":0,"TOWNNAME":"永康區","LI":"龍潭里","LIN":"39鄰","STREET":"永明街","SECT":" ","MAREA":" ","LANE":"１７９巷","ALLEY":"１６弄","HOUSE_NO":"１２號","E_COORD97":174468.06,"N_COORD97":2547289.6600000001,"ADDRESS":"永明街１７９巷１６弄１２號","OBJECTID":181758},"geometry":{"x":174468.06000000052,"y":2547289.660000002}},{"attributes":{"ID":181760,"DIS_CODE":0,"TOWNNAME":"永康區","LI":"龍潭里","LIN":"39鄰","STREET":"永明街","SECT":" ","MAREA":" ","LANE":"２３１巷","ALLEY":"６２弄","HOUSE_NO":"９號","E_COORD97":174613.67999999999,"N_COORD97":2547366.9900000002,"ADDRESS":"永明街２３１巷６２弄９號","OBJECTID":181759},"geometry":{"x":174613.6799999997,"y":2547366.9900000002}},{"attributes":{"ID":181761,"DIS_CODE":0,"TOWNNAME":"永康區","LI":"龍潭里","LIN":"42鄰","STREET":"永明街","SECT":" ","MAREA":" ","LANE":"３０２巷","ALLEY":"１７弄","HOUSE_NO":"１０號","E_COORD97":174570.48000000001,"N_COORD97":2547074,"ADDRESS":"永明街３０２巷１７弄１０號","OBJECTID":181760},"geometry":{"x":174570.48000000045,"y":2547074}},{"attributes":{"ID":181762,"DIS_CODE":0,"TOWNNAME":"永康區","LI":"龍潭里","LIN":"34鄰","STREET":"龍埔街","SECT":" ","MAREA":" ","LANE":"１７５巷","ALLEY":"１弄","HOUSE_NO":"１２號","E_COORD97":174488.10999999999,"N_COORD97":2548194.1200000001,"ADDRESS":"龍埔街１７５巷１弄１２號","OBJECTID":181761},"geometry":{"x":174488.11000000034,"y":2548194.120000001}},{"attributes":{"ID":181763,"DIS_CODE":0,"TOWNNAME":"永康區","LI":"龍潭里","LIN":"39鄰","STREET":"永明街","SECT":" ","MAREA":" ","LANE":"１７９巷","ALLEY":"１２弄","HOUSE_NO":"６號","E_COORD97":174467.35999999999,"N_COORD97":2547241.6899999999,"ADDRESS":"永明街１７９巷１２弄６號","OBJECTID":181762},"geometry":{"x":174467.36000000034,"y":2547241.6899999995}},{"attributes":{"ID":181764,"DIS_CODE":0,"TOWNNAME":"永康區","LI":"\u25A0行里","LIN":"32鄰","STREET":"三村一街","SECT":" ","MAREA":" ","LANE":"１３８巷","ALLEY":"９２弄","HOUSE_NO":"１２號","E_COORD97":172126.76999999999,"N_COORD97":2549392.29,"ADDRESS":"三村一街１３８巷９２弄１２號","OBJECTID":181763},"geometry":{"x":172126.76999999862,"y":2549392.290000001}},{"attributes":{"ID":181765,"DIS_CODE":0,"TOWNNAME":"善化區","LI":"文昌里","LIN":"13鄰","STREET":"大信路","SECT":" ","MAREA":" ","LANE":" ","ALLEY":" ","HOUSE_NO":"３０號","E_COORD97":177538.48999999999,"N_COORD97":2558858.25,"ADDRESS":"大信路３０號","OBJECTID":181764},"geometry":{"x":177538.49000000022,"y":2558858.25}},{"attributes":{"ID":181766,"DIS_CODE":0,"TOWNNAME":"西港區","LI":"西港里","LIN":"11鄰","STREET":" ","SECT":" ","MAREA":"西港","LANE":" ","ALLEY":" ","HOUSE_NO":"２１號之２","E_COORD97":168434.28,"N_COORD97":2557949.9100000001,"ADDRESS":"西港２１號之２","OBJECTID":181765},"geometry":{"x":168434.28000000119,"y":2557949.910000002}},{"attributes":{"ID":181767,"DIS_CODE":0,"TOWNNAME":"永康區","LI":"龍潭里","LIN":"38鄰","STREET":"中山北路","SECT":" ","MAREA":" ","LANE":"１６４巷","ALLEY":"６８弄","HOUSE_NO":"２號","E_COORD97":174386.23999999999,"N_COORD97":2547384.4500000002,"ADDRESS":"中山北路１６４巷６８弄２號","OBJECTID":181766},"geometry":{"x":174386.24000000115,"y":2547384.4500000011}},{"attributes":{"ID":181768,"DIS_CODE":0,"TOWNNAME":"永康區","LI":"龍潭里","LIN":"38鄰","STREET":"中山北路","SECT":" ","MAREA":" ","LANE":"１６４巷","ALLEY":"７８弄","HOUSE_NO":"５之２號","E_COORD97":174476.66,"N_COORD97":2547330.1600000001,"ADDRESS":"中山北路１６４巷７８弄５之２號","OBJECTID":181767},"geometry":{"x":174476.66000000108,"y":2547330.160000002}},{"attributes":{"ID":181769,"DIS_CODE":0,"TOWNNAME":"永康區","LI":"龍潭里","LIN":"39鄰","STREET":"永明街","SECT":" ","MAREA":" ","LANE":"１７９巷","ALLEY":"１２弄","HOUSE_NO":"５號","E_COORD97":174458.04000000001,"N_COORD97":2547265.6699999999,"ADDRESS":"永明街１７９巷１２弄５號","OBJECTID":181768},"geometry":{"x":174458.03999999911,"y":2547265.6700000018}},{"attributes":{"ID":181770,"DIS_CODE":0,"TOWNNAME":"永康區","LI":"龍潭里","LIN":"39鄰","STREET":"永明街","SECT":" ","MAREA":" ","LANE":"２３１巷","ALLEY":"６２弄","HOUSE_NO":"５號","E_COORD97":174605.59,"N_COORD97":2547366.4900000002,"ADDRESS":"永明街２３１巷６２弄５號","OBJECTID":181769},"geometry":{"x":174605.59000000078,"y":2547366.4900000002}},{"attributes":{"ID":181771,"DIS_CODE":0,"TOWNNAME":"將軍區","LI":"西和里","LIN":"3鄰","STREET":" ","SECT":" ","MAREA":"西和","LANE":" ","ALLEY":" ","HOUSE_NO":"２１號","E_COORD97":163236.5,"N_COORD97":2566445.6800000002,"ADDRESS":"西和２１號","OBJECTID":181770},"geometry":{"x":163236.50000000093,"y":2566445.6799999997}},{"attributes":{"ID":181772,"DIS_CODE":0,"TOWNNAME":"永康區","LI":"龍潭里","LIN":"38鄰","STREET":"中山北路","SECT":" ","MAREA":" ","LANE":"１６４巷","ALLEY":"７８弄","HOUSE_NO":"９號之１８","E_COORD97":174457.69,"N_COORD97":2547311.04,"ADDRESS":"中山北路１６４巷７８弄９號之１８","OBJECTID":181771},"geometry":{"x":174457.69000000134,"y":2547311.0399999991}},{"attributes":{"ID":181773,"DIS_CODE":0,"TOWNNAME":"永康區","LI":"龍潭里","LIN":"38鄰","STREET":"中山北路","SECT":" ","MAREA":" ","LANE":"１６４巷","ALLEY":"６８弄","HOUSE_NO":"１８號","E_COORD97":174388.35999999999,"N_COORD97":2547359.4500000002,"ADDRESS":"中山北路１６４巷６８弄１８號","OBJECTID":181772},"geometry":{"x":174388.3599999994,"y":2547359.4499999993}},{"attributes":{"ID":181774,"DIS_CODE":0,"TOWNNAME":"永康區","LI":"龍潭里","LIN":"39鄰","STREET":"永明街","SECT":" ","MAREA":" ","LANE":"２３１巷","ALLEY":"４２弄","HOUSE_NO":"１１號","E_COORD97":174621.29999999999,"N_COORD97":2547318.2000000002,"ADDRESS":"永明街２３１巷４２弄１１號","OBJECTID":181773},"geometry":{"x":174621.30000000075,"y":2547318.2000000011}},{"attributes":{"ID":181775,"DIS_CODE":0,"TOWNNAME":"永康區","LI":"\u25A0行里","LIN":"32鄰","STREET":"三村一街","SECT":" ","MAREA":" ","LANE":"１３８巷","ALLEY":"９２弄","HOUSE_NO":"９號","E_COORD97":172137.17000000001,"N_COORD97":2549427.7000000002,"ADDRESS":"三村一街１３８巷９２弄９號","OBJECTID":181774},"geometry":{"x":172137.17000000086,"y":2549427.7000000011}},{"attributes":{"ID":181776,"DIS_CODE":0,"TOWNNAME":"永康區","LI":"\u25A0行里","LIN":"32鄰","STREET":"三村一街","SECT":" ","MAREA":" ","LANE":"１３８巷","ALLEY":"９２弄","HOUSE_NO":"１６號","E_COORD97":172126.39999999999,"N_COORD97":2549387.79,"ADDRESS":"三村一街１３８巷９２弄１６號","OBJECTID":181775},"geometry":{"x":172126.40000000037,"y":2549387.7899999991}},{"attributes":{"ID":181777,"DIS_CODE":0,"TOWNNAME":"永康區","LI":"龍潭里","LIN":"38鄰","STREET":"中山北路","SECT":" ","MAREA":" ","LANE":"１６４巷","ALLEY":"７８弄","HOUSE_NO":"１號","E_COORD97":174461.23999999999,"N_COORD97":2547363.8399999999,"ADDRESS":"中山北路１６４巷７８弄１號","OBJECTID":181776},"geometry":{"x":174461.24000000022,"y":2547363.8399999999}},{"attributes":{"ID":181778,"DIS_CODE":0,"TOWNNAME":"永康區","LI":"龍潭里","LIN":"38鄰","STREET":"中山北路","SECT":" ","MAREA":" ","LANE":"１６４巷","ALLEY":"６８弄","HOUSE_NO":"６號","E_COORD97":174386.23999999999,"N_COORD97":2547379.4500000002,"ADDRESS":"中山北路１６４巷６８弄６號","OBJECTID":181777},"geometry":{"x":174386.24000000115,"y":2547379.4499999993}},{"attributes":{"ID":181779,"DIS_CODE":0,"TOWNNAME":"永康區","LI":"龍潭里","LIN":"38鄰","STREET":"中山北路","SECT":" ","MAREA":" ","LANE":"１６４巷","ALLEY":"６８弄","HOUSE_NO":"２８號","E_COORD97":174389.20000000001,"N_COORD97":2547339.6699999999,"ADDRESS":"中山北路１６４巷６８弄２８號","OBJECTID":181778},"geometry":{"x":174389.20000000019,"y":2547339.6700000018}},{"attributes":{"ID":181780,"DIS_CODE":0,"TOWNNAME":"永康區","LI":"龍潭里","LIN":"38鄰","STREET":"中山北路","SECT":" ","MAREA":" ","LANE":"１６４巷","ALLEY":"７８弄","HOUSE_NO":"７號之１","E_COORD97":174455.29000000001,"N_COORD97":2547336.7999999998,"ADDRESS":"中山北路１６４巷７８弄７號之１","OBJECTID":181779},"geometry":{"x":174455.29000000097,"y":2547336.8000000026}},{"attributes":{"ID":181781,"DIS_CODE":0,"TOWNNAME":"西港區","LI":"西港里","LIN":"11鄰","STREET":" ","SECT":" ","MAREA":"西港","LANE":" ","ALLEY":" ","HOUSE_NO":"２１之３號","E_COORD97":168439.39999999999,"N_COORD97":2557950.8999999999,"ADDRESS":"西港２１之３號","OBJECTID":181780},"geometry":{"x":168439.40000000037,"y":2557950.9000000022}},{"attributes":{"ID":181782,"DIS_CODE":0,"TOWNNAME":"西港區","LI":"西港里","LIN":"11鄰","STREET":" ","SECT":" ","MAREA":"西港","LANE":" ","ALLEY":" ","HOUSE_NO":"２１號之４","E_COORD97":168453.95000000001,"N_COORD97":2557964.6400000001,"ADDRESS":"西港２１號之４","OBJECTID":181781},"geometry":{"x":168453.95000000019,"y":2557964.6400000006}},{"attributes":{"ID":181783,"DIS_CODE":0,"TOWNNAME":"西港區","LI":"西港里","LIN":"11鄰","STREET":" ","SECT":" ","MAREA":"西港","LANE":" ","ALLEY":" ","HOUSE_NO":"２１號之５","E_COORD97":168460.06,"N_COORD97":2557966.2799999998,"ADDRESS":"西港２１號之５","OBJECTID":181782},"geometry":{"x":168460.06000000145,"y":2557966.2800000031}},{"attributes":{"ID":181784,"DIS_CODE":0,"TOWNNAME":"西港區","LI":"西港里","LIN":"11鄰","STREET":" ","SECT":" ","MAREA":"西港","LANE":" ","ALLEY":" ","HOUSE_NO":"２１號之６","E_COORD97":168454.14999999999,"N_COORD97":2557973.9500000002,"ADDRESS":"西港２１號之６","OBJECTID":181783},"geometry":{"x":168454.1500000013,"y":2557973.9499999993}},{"attributes":{"ID":181785,"DIS_CODE":0,"TOWNNAME":"西港區","LI":"西港里","LIN":"11鄰","STREET":" ","SECT":" ","MAREA":"西港","LANE":" ","ALLEY":" ","HOUSE_NO":"２１號之７","E_COORD97":168453.75,"N_COORD97":2557977.75,"ADDRESS":"西港２１號之７","OBJECTID":181784},"geometry":{"x":168453.75,"y":2557977.7500000019}},{"attributes":{"ID":181786,"DIS_CODE":0,"TOWNNAME":"西港區","LI":"西港里","LIN":"11鄰","STREET":" ","SECT":" ","MAREA":"西港","LANE":" ","ALLEY":" ","HOUSE_NO":"２１號之８","E_COORD97":168453.56,"N_COORD97":2557981.8599999999,"ADDRESS":"西港２１號之８","OBJECTID":181785},"geometry":{"x":168453.56000000052,"y":2557981.8599999994}},{"attributes":{"ID":181787,"DIS_CODE":0,"TOWNNAME":"西港區","LI":"西港里","LIN":"11鄰","STREET":" ","SECT":" ","MAREA":"西港","LANE":" ","ALLEY":" ","HOUSE_NO":"２１號之９","E_COORD97":168453.32000000001,"N_COORD97":2557985.9100000001,"ADDRESS":"西港２１號之９","OBJECTID":181786},"geometry":{"x":168453.3200000003,"y":2557985.9100000001}},{"attributes":{"ID":181788,"DIS_CODE":0,"TOWNNAME":"永康區","LI":"龍潭里","LIN":"39鄰","STREET":"永明街","SECT":" ","MAREA":" ","LANE":"１７９巷","ALLEY":"１６弄","HOUSE_NO":"８號","E_COORD97":174457.5,"N_COORD97":2547289.6600000001,"ADDRESS":"永明街１７９巷１６弄８號","OBJECTID":181787},"geometry":{"x":174457.50000000093,"y":2547289.660000002}},{"attributes":{"ID":181789,"DIS_CODE":0,"TOWNNAME":"永康區","LI":"龍潭里","LIN":"38鄰","STREET":"中山北路","SECT":" ","MAREA":" ","LANE":"１６４巷","ALLEY":"７８弄","HOUSE_NO":"７號之１４","E_COORD97":174456.56,"N_COORD97":2547336.7999999998,"ADDRESS":"中山北路１６４巷７８弄７號之１４","OBJECTID":181788},"geometry":{"x":174456.56000000052,"y":2547336.8000000026}},{"attributes":{"ID":181790,"DIS_CODE":0,"TOWNNAME":"永康區","LI":"龍潭里","LIN":"39鄰","STREET":"永明街","SECT":" ","MAREA":" ","LANE":"１７９巷","ALLEY":"１２弄","HOUSE_NO":"１９號","E_COORD97":174491.84,"N_COORD97":2547266.1699999999,"ADDRESS":"永明街１７９巷１２弄１９號","OBJECTID":181789},"geometry":{"x":174491.84000000078,"y":2547266.1699999999}},{"attributes":{"ID":181791,"DIS_CODE":0,"TOWNNAME":"西港區","LI":"西港里","LIN":"11鄰","STREET":" ","SECT":" ","MAREA":"西港","LANE":" ","ALLEY":" ","HOUSE_NO":"２３號之１","E_COORD97":168476.79999999999,"N_COORD97":2557999.04,"ADDRESS":"西港２３號之１","OBJECTID":181790},"geometry":{"x":168476.79999999981,"y":2557999.040000001}},{"attributes":{"ID":181792,"DIS_CODE":0,"TOWNNAME":"安南區","LI":"海東里","LIN":"21鄰","STREET":"海東三街","SECT":" ","MAREA":" ","LANE":" ","ALLEY":" ","HOUSE_NO":"５２號","E_COORD97":166892.41985999999,"N_COORD97":2547973.5723799998,"ADDRESS":"海東三街５２號","OBJECTID":181791},"geometry":{"x":166892.41986000165,"y":2547973.5723750014}},{"attributes":{"ID":181793,"DIS_CODE":0,"TOWNNAME":"西港區","LI":"西港里","LIN":"11鄰","STREET":" ","SECT":" ","MAREA":"西港","LANE":" ","ALLEY":" ","HOUSE_NO":"２４號之１","E_COORD97":168495.60000000001,"N_COORD97":2557985.29,"ADDRESS":"西港２４號之１","OBJECTID":181792},"geometry":{"x":168495.60000000056,"y":2557985.2899999991}},{"attributes":{"ID":181794,"DIS_CODE":0,"TOWNNAME":"西港區","LI":"西港里","LIN":"11鄰","STREET":" ","SECT":" ","MAREA":"西港","LANE":" ","ALLEY":" ","HOUSE_NO":"２５號之１","E_COORD97":168505.67000000001,"N_COORD97":2558028.71,"ADDRESS":"西港２５號之１","OBJECTID":181793},"geometry":{"x":168505.67000000086,"y":2558028.7100000009}},{"attributes":{"ID":181795,"DIS_CODE":0,"TOWNNAME":"西港區","LI":"西港里","LIN":"11鄰","STREET":" ","SECT":" ","MAREA":"西港","LANE":" ","ALLEY":" ","HOUSE_NO":"２５號之２","E_COORD97":168505.17999999999,"N_COORD97":2558032.4900000002,"ADDRESS":"西港２５號之２","OBJECTID":181794},"geometry":{"x":168505.18000000063,"y":2558032.4900000002}},{"attributes":{"ID":181796,"DIS_CODE":0,"TOWNNAME":"西港區","LI":"西港里","LIN":"11鄰","STREET":" ","SECT":" ","MAREA":"西港","LANE":" ","ALLEY":" ","HOUSE_NO":"２５號之３","E_COORD97":168504.42999999999,"N_COORD97":2558037.0099999998,"ADDRESS":"西港２５號之３","OBJECTID":181795},"geometry":{"x":168504.4299999997,"y":2558037.0100000016}},{"attributes":{"ID":181797,"DIS_CODE":0,"TOWNNAME":"西港區","LI":"西港里","LIN":"11鄰","STREET":" ","SECT":" ","MAREA":"西港","LANE":" ","ALLEY":" ","HOUSE_NO":"２５號之６","E_COORD97":168501.63,"N_COORD97":2558049.6600000001,"ADDRESS":"西港２５號之６","OBJECTID":181796},"geometry":{"x":168501.62999999989,"y":2558049.660000002}},{"attributes":{"ID":181798,"DIS_CODE":0,"TOWNNAME":"西港區","LI":"西港里","LIN":"11鄰","STREET":" ","SECT":" ","MAREA":"西港","LANE":" ","ALLEY":" ","HOUSE_NO":"２５號之７","E_COORD97":168500.75,"N_COORD97":2558054.1000000001,"ADDRESS":"西港２５號之７","OBJECTID":181797},"geometry":{"x":168500.75,"y":2558054.1000000015}},{"attributes":{"ID":181799,"DIS_CODE":0,"TOWNNAME":"西港區","LI":"西港里","LIN":"11鄰","STREET":" ","SECT":" ","MAREA":"西港","LANE":" ","ALLEY":" ","HOUSE_NO":"２５號之８","E_COORD97":168499.92000000001,"N_COORD97":2558059.8100000001,"ADDRESS":"西港２５號之８","OBJECTID":181798},"geometry":{"x":168499.91999999993,"y":2558059.8100000024}},{"attributes":{"ID":181800,"DIS_CODE":0,"TOWNNAME":"西港區","LI":"西港里","LIN":"11鄰","STREET":" ","SECT":" ","MAREA":"西港","LANE":" ","ALLEY":" ","HOUSE_NO":"２５號","E_COORD97":168506.73000000001,"N_COORD97":2558024.7599999998,"ADDRESS":"西港２５號","OBJECTID":181799},"geometry":{"x":168506.73000000045,"y":2558024.7600000035}},{"attributes":{"ID":181801,"DIS_CODE":0,"TOWNNAME":"西港區","LI":"西港里","LIN":"11鄰","STREET":" ","SECT":" ","MAREA":"西港","LANE":" ","ALLEY":" ","HOUSE_NO":"２７號","E_COORD97":168505.39999999999,"N_COORD97":2557987.0800000001,"ADDRESS":"西港２７號","OBJECTID":181800},"geometry":{"x":168505.40000000037,"y":2557987.0800000001}}]}