{"displayFieldName":"TOWNNAME","fieldAliases":{"ID":"ID","DIS_CODE":"DIS_CODE","TOWNNAME":"TOWNNAME","LI":"LI","LIN":"LIN","STREET":"STREET","SECT":"SECT","MAREA":"MAREA","LANE":"LANE","ALLEY":"ALLEY","HOUSE_NO":"HOUSE_NO","E_COORD97":"E_COORD97","N_COORD97":"N_COORD97","ADDRESS":"ADDRESS","OBJECTID":"OBJECTID"},"geometryType":"esriGeometryPoint","spatialReference":{"wkid":102443,"latestWkid":3826},"fields":[{"name":"ID","type":"esriFieldTypeDouble","alias":"ID"},{"name":"DIS_CODE","type":"esriFieldTypeInteger","alias":"DIS_CODE"},{"name":"TOWNNAME","type":"esriFieldTypeString","alias":"TOWNNAME","length":8},{"name":"LI","type":"esriFieldTypeString","alias":"LI","length":8},{"name":"LIN","type":"esriFieldTypeString","alias":"LIN","length":12},{"name":"STREET","type":"esriFieldTypeString","alias":"STREET","length":20},{"name":"SECT","type":"esriFieldTypeString","alias":"SECT","length":8},{"name":"MAREA","type":"esriFieldTypeString","alias":"MAREA","length":12},{"name":"LANE","type":"esriFieldTypeString","alias":"LANE","length":10},{"name":"ALLEY","type":"esriFieldTypeString","alias":"ALLEY","length":10},{"name":"HOUSE_NO","type":"esriFieldTypeString","alias":"HOUSE_NO","length":20},{"name":"E_COORD97","type":"esriFieldTypeDouble","alias":"E_COORD97"},{"name":"N_COORD97","type":"esriFieldTypeDouble","alias":"N_COORD97"},{"name":"ADDRESS","type":"esriFieldTypeString","alias":"ADDRESS","length":50},{"name":"OBJECTID","type":"esriFieldTypeOID","alias":"OBJECTID"}],"features":[{"attributes":{"ID":315609,"DIS_CODE":0,"TOWNNAME":"中西區","LI":"仙草里","LIN":"7鄰","STREET":"永福路","SECT":"一段","MAREA":" ","LANE":"６１巷","ALLEY":" ","HOUSE_NO":"３號","E_COORD97":167951.25,"N_COORD97":2542634.6400000001,"ADDRESS":"永福路一段６１巷３號","OBJECTID":315601},"geometry":{"x":167951.25000000093,"y":2542634.6400000025}},{"attributes":{"ID":315610,"DIS_CODE":0,"TOWNNAME":"中西區","LI":"仙草里","LIN":"7鄰","STREET":"永福路","SECT":"一段","MAREA":" ","LANE":"６１巷","ALLEY":" ","HOUSE_NO":"４０號","E_COORD97":167926.91,"N_COORD97":2542652.27,"ADDRESS":"永福路一段６１巷４０號","OBJECTID":315602},"geometry":{"x":167926.91000000015,"y":2542652.2700000033}},{"attributes":{"ID":315611,"DIS_CODE":0,"TOWNNAME":"中西區","LI":"仙草里","LIN":"7鄰","STREET":"永福路","SECT":"一段","MAREA":" ","LANE":"６１巷","ALLEY":" ","HOUSE_NO":"４２號","E_COORD97":167927.37,"N_COORD97":2542657.6400000001,"ADDRESS":"永福路一段６１巷４２號","OBJECTID":315603},"geometry":{"x":167927.37000000011,"y":2542657.6400000043}},{"attributes":{"ID":315612,"DIS_CODE":0,"TOWNNAME":"中西區","LI":"仙草里","LIN":"7鄰","STREET":"永福路","SECT":"一段","MAREA":" ","LANE":"６１巷","ALLEY":" ","HOUSE_NO":"４號","E_COORD97":167966.91,"N_COORD97":2542645.2400000002,"ADDRESS":"永福路一段６１巷４號","OBJECTID":315604},"geometry":{"x":167966.91000000108,"y":2542645.2400000002}},{"attributes":{"ID":315613,"DIS_CODE":0,"TOWNNAME":"中西區","LI":"仙草里","LIN":"7鄰","STREET":"永福路","SECT":"一段","MAREA":" ","LANE":"６１巷","ALLEY":" ","HOUSE_NO":"６號","E_COORD97":167967.42999999999,"N_COORD97":2542655.8199999998,"ADDRESS":"永福路一段６１巷６號","OBJECTID":315605},"geometry":{"x":167967.4299999997,"y":2542655.8199999984}},{"attributes":{"ID":315614,"DIS_CODE":0,"TOWNNAME":"中西區","LI":"小西里","LIN":"7鄰","STREET":"西門路","SECT":"一段","MAREA":" ","LANE":"６７６巷","ALLEY":" ","HOUSE_NO":"１０號","E_COORD97":167780.75,"N_COORD97":2543299.3799999999,"ADDRESS":"西門路一段６７６巷１０號","OBJECTID":315606},"geometry":{"x":167780.75,"y":2543299.3800000008}},{"attributes":{"ID":315615,"DIS_CODE":0,"TOWNNAME":"中西區","LI":"小西里","LIN":"7鄰","STREET":"西門路","SECT":"一段","MAREA":" ","LANE":"６７６巷","ALLEY":" ","HOUSE_NO":"１２號","E_COORD97":167784.04000000001,"N_COORD97":2543296.6600000001,"ADDRESS":"西門路一段６７６巷１２號","OBJECTID":315607},"geometry":{"x":167784.04000000004,"y":2543296.6600000001}},{"attributes":{"ID":315616,"DIS_CODE":0,"TOWNNAME":"中西區","LI":"小西里","LIN":"7鄰","STREET":"西門路","SECT":"一段","MAREA":" ","LANE":"６７６巷","ALLEY":" ","HOUSE_NO":"１４號","E_COORD97":167789.14999999999,"N_COORD97":2543295.96,"ADDRESS":"西門路一段６７６巷１４號","OBJECTID":315608},"geometry":{"x":167789.1500000013,"y":2543295.9600000009}},{"attributes":{"ID":315617,"DIS_CODE":0,"TOWNNAME":"中西區","LI":"小西里","LIN":"7鄰","STREET":"西門路","SECT":"一段","MAREA":" ","LANE":"６７６巷","ALLEY":" ","HOUSE_NO":"１６號","E_COORD97":167795.44,"N_COORD97":2543296.8500000001,"ADDRESS":"西門路一段６７６巷１６號","OBJECTID":315609},"geometry":{"x":167795.44000000227,"y":2543296.8500000015}},{"attributes":{"ID":315618,"DIS_CODE":0,"TOWNNAME":"中西區","LI":"小西里","LIN":"7鄰","STREET":"西門路","SECT":"一段","MAREA":" ","LANE":"６７６巷","ALLEY":" ","HOUSE_NO":"１８號","E_COORD97":167798.57999999999,"N_COORD97":2543295.3700000001,"ADDRESS":"西門路一段６７６巷１８號","OBJECTID":315610},"geometry":{"x":167798.58000000007,"y":2543295.3700000029}},{"attributes":{"ID":315619,"DIS_CODE":0,"TOWNNAME":"中西區","LI":"小西里","LIN":"7鄰","STREET":"西門路","SECT":"一段","MAREA":" ","LANE":"６７６巷","ALLEY":" ","HOUSE_NO":"２０號","E_COORD97":167802.41,"N_COORD97":2543296.8500000001,"ADDRESS":"西門路一段６７６巷２０號","OBJECTID":315611},"geometry":{"x":167802.41000000108,"y":2543296.8500000015}},{"attributes":{"ID":315620,"DIS_CODE":0,"TOWNNAME":"中西區","LI":"小西里","LIN":"7鄰","STREET":"西門路","SECT":"一段","MAREA":" ","LANE":"６７６巷","ALLEY":" ","HOUSE_NO":"４號","E_COORD97":167765.10999999999,"N_COORD97":2543299.8100000001,"ADDRESS":"西門路一段６７６巷４號","OBJECTID":315612},"geometry":{"x":167765.11000000034,"y":2543299.8100000005}},{"attributes":{"ID":315621,"DIS_CODE":0,"TOWNNAME":"中西區","LI":"小西里","LIN":"7鄰","STREET":"西門路","SECT":"一段","MAREA":" ","LANE":"６７６巷","ALLEY":" ","HOUSE_NO":"６號","E_COORD97":167772.85999999999,"N_COORD97":2543299.1000000001,"ADDRESS":"西門路一段６７６巷６號","OBJECTID":315613},"geometry":{"x":167772.86000000127,"y":2543299.1000000015}},{"attributes":{"ID":315622,"DIS_CODE":0,"TOWNNAME":"中西區","LI":"小西里","LIN":"7鄰","STREET":"西門路","SECT":"一段","MAREA":" ","LANE":"６７６巷","ALLEY":" ","HOUSE_NO":"８號","E_COORD97":167776.59,"N_COORD97":2543297.6600000001,"ADDRESS":"西門路一段６７６巷８號","OBJECTID":315614},"geometry":{"x":167776.58999999985,"y":2543297.6600000039}},{"attributes":{"ID":315623,"DIS_CODE":0,"TOWNNAME":"中西區","LI":"小西里","LIN":"7鄰","STREET":"西門路","SECT":"一段","MAREA":" ","LANE":"７０２巷","ALLEY":" ","HOUSE_NO":"１９號","E_COORD97":167820.09,"N_COORD97":2543336.4300000002,"ADDRESS":"西門路一段７０２巷１９號","OBJECTID":315615},"geometry":{"x":167820.09000000078,"y":2543336.4300000034}},{"attributes":{"ID":315624,"DIS_CODE":0,"TOWNNAME":"中西區","LI":"小西里","LIN":"7鄰","STREET":"西門路","SECT":"一段","MAREA":" ","LANE":"７０２巷","ALLEY":" ","HOUSE_NO":"２１號","E_COORD97":167818.51999999999,"N_COORD97":2543332.3100000001,"ADDRESS":"西門路一段７０２巷２１號","OBJECTID":315616},"geometry":{"x":167818.52000000048,"y":2543332.3100000024}},{"attributes":{"ID":315625,"DIS_CODE":0,"TOWNNAME":"中西區","LI":"小西里","LIN":"7鄰","STREET":"西門路","SECT":"一段","MAREA":" ","LANE":"７０２巷","ALLEY":" ","HOUSE_NO":"２３號","E_COORD97":167818.42000000001,"N_COORD97":2543322.8900000001,"ADDRESS":"西門路一段７０２巷２３號","OBJECTID":315617},"geometry":{"x":167818.41999999993,"y":2543322.8900000006}},{"attributes":{"ID":315626,"DIS_CODE":0,"TOWNNAME":"中西區","LI":"小西里","LIN":"7鄰","STREET":"西門路","SECT":"一段","MAREA":" ","LANE":"７０２巷","ALLEY":" ","HOUSE_NO":"２５號","E_COORD97":167816.45999999999,"N_COORD97":2543319.1099999999,"ADDRESS":"西門路一段７０２巷２５號","OBJECTID":315618},"geometry":{"x":167816.45999999996,"y":2543319.1100000013}},{"attributes":{"ID":315627,"DIS_CODE":0,"TOWNNAME":"中西區","LI":"小西里","LIN":"7鄰","STREET":"西門路","SECT":"一段","MAREA":" ","LANE":"７０２巷","ALLEY":" ","HOUSE_NO":"２７號","E_COORD97":167815.07999999999,"N_COORD97":2543313.4300000002,"ADDRESS":"西門路一段７０２巷２７號","OBJECTID":315619},"geometry":{"x":167815.08000000101,"y":2543313.4300000016}},{"attributes":{"ID":315628,"DIS_CODE":0,"TOWNNAME":"南區","LI":"南都里","LIN":"17鄰","STREET":"明興路","SECT":" ","MAREA":" ","LANE":" ","ALLEY":" ","HOUSE_NO":"５４號","E_COORD97":166698.14000000001,"N_COORD97":2540056.46,"ADDRESS":"明興路５４號","OBJECTID":315620},"geometry":{"x":166698.14000000153,"y":2540056.4600000028}},{"attributes":{"ID":315629,"DIS_CODE":0,"TOWNNAME":"白河區","LI":"永安里","LIN":"15鄰","STREET":"三民路","SECT":" ","MAREA":" ","LANE":" ","ALLEY":" ","HOUSE_NO":"４１４號","E_COORD97":190243.98895900001,"N_COORD97":2583340.7831000001,"ADDRESS":"三民路４１４號","OBJECTID":315621},"geometry":{"x":190243.98895900045,"y":2583340.7830990013}},{"attributes":{"ID":315630,"DIS_CODE":0,"TOWNNAME":"南區","LI":"南都里","LIN":"17鄰","STREET":"明興路","SECT":" ","MAREA":" ","LANE":" ","ALLEY":" ","HOUSE_NO":"５６號","E_COORD97":166694.92000000001,"N_COORD97":2540054.5299999998,"ADDRESS":"明興路５６號","OBJECTID":315622},"geometry":{"x":166694.92000000179,"y":2540054.5300000012}},{"attributes":{"ID":315631,"DIS_CODE":0,"TOWNNAME":"南區","LI":"南都里","LIN":"17鄰","STREET":"明興路","SECT":" ","MAREA":" ","LANE":" ","ALLEY":" ","HOUSE_NO":"５８號","E_COORD97":166692.66,"N_COORD97":2540050.6600000001,"ADDRESS":"明興路５８號","OBJECTID":315623},"geometry":{"x":166692.66000000015,"y":2540050.660000002}},{"attributes":{"ID":315632,"DIS_CODE":0,"TOWNNAME":"南區","LI":"南都里","LIN":"17鄰","STREET":"明興路","SECT":" ","MAREA":" ","LANE":" ","ALLEY":" ","HOUSE_NO":"６０號","E_COORD97":166690.73000000001,"N_COORD97":2540047.1200000001,"ADDRESS":"明興路６０號","OBJECTID":315624},"geometry":{"x":166690.73000000138,"y":2540047.120000001}},{"attributes":{"ID":315633,"DIS_CODE":0,"TOWNNAME":"歸仁區","LI":"沙崙里","LIN":"8鄰","STREET":" ","SECT":" ","MAREA":"沙崙","LANE":" ","ALLEY":" ","HOUSE_NO":"２３１號","E_COORD97":179390.70411699999,"N_COORD97":2537693.2924600001,"ADDRESS":"沙崙２３１號","OBJECTID":315625},"geometry":{"x":179390.70411700103,"y":2537693.2924600001}},{"attributes":{"ID":315634,"DIS_CODE":0,"TOWNNAME":"關廟區","LI":"東勢里","LIN":"4鄰","STREET":"和平路","SECT":" ","MAREA":" ","LANE":"７８巷","ALLEY":" ","HOUSE_NO":"１號","E_COORD97":181734.39000000001,"N_COORD97":2539450.25,"ADDRESS":"和平路７８巷１號","OBJECTID":315626},"geometry":{"x":181734.38999999873,"y":2539450.2500000019}},{"attributes":{"ID":315635,"DIS_CODE":0,"TOWNNAME":"關廟區","LI":"山西里","LIN":"13鄰","STREET":"文衡路","SECT":" ","MAREA":" ","LANE":"１３３巷","ALLEY":" ","HOUSE_NO":"３號","E_COORD97":180882.78,"N_COORD97":2540542.0099999998,"ADDRESS":"文衡路１３３巷３號","OBJECTID":315627},"geometry":{"x":180882.78000000026,"y":2540542.0100000035}},{"attributes":{"ID":315636,"DIS_CODE":0,"TOWNNAME":"中西區","LI":"小西里","LIN":"7鄰","STREET":"西門路","SECT":"一段","MAREA":" ","LANE":"７０２巷","ALLEY":" ","HOUSE_NO":"２９號","E_COORD97":167815.38,"N_COORD97":2543304.6000000001,"ADDRESS":"西門路一段７０２巷２９號","OBJECTID":315628},"geometry":{"x":167815.37999999989,"y":2543304.6000000034}},{"attributes":{"ID":315637,"DIS_CODE":0,"TOWNNAME":"中西區","LI":"小西里","LIN":"7鄰","STREET":"西門路","SECT":"一段","MAREA":" ","LANE":"７３４巷","ALLEY":" ","HOUSE_NO":"１２號","E_COORD97":167822.84,"N_COORD97":2543346.0499999998,"ADDRESS":"西門路一段７３４巷１２號","OBJECTID":315629},"geometry":{"x":167822.84000000078,"y":2543346.0500000007}},{"attributes":{"ID":315638,"DIS_CODE":0,"TOWNNAME":"白河區","LI":"永安里","LIN":" ","STREET":"昇平街","SECT":" ","MAREA":" ","LANE":" ","ALLEY":" ","HOUSE_NO":"６號","E_COORD97":190158.85000000001,"N_COORD97":2583162.5099999998,"ADDRESS":"昇平街６號","OBJECTID":315630},"geometry":{"x":190158.85000000056,"y":2583162.5100000035}},{"attributes":{"ID":315639,"DIS_CODE":0,"TOWNNAME":"中西區","LI":"小西里","LIN":"7鄰","STREET":"西門路","SECT":"一段","MAREA":" ","LANE":"７３４巷","ALLEY":" ","HOUSE_NO":"１４號","E_COORD97":167828.54000000001,"N_COORD97":2543342.8100000001,"ADDRESS":"西門路一段７３４巷１４號","OBJECTID":315631},"geometry":{"x":167828.54000000097,"y":2543342.8100000024}},{"attributes":{"ID":315640,"DIS_CODE":0,"TOWNNAME":"中西區","LI":"法華里","LIN":"7鄰","STREET":"健康路","SECT":"一段","MAREA":" ","LANE":"５０巷","ALLEY":" ","HOUSE_NO":"１７號","E_COORD97":169009.59,"N_COORD97":2542473.3599999999,"ADDRESS":"健康路一段５０巷１７號","OBJECTID":315632},"geometry":{"x":169009.59000000078,"y":2542473.3600000013}},{"attributes":{"ID":315641,"DIS_CODE":0,"TOWNNAME":"中西區","LI":"法華里","LIN":"7鄰","STREET":"健康路","SECT":"一段","MAREA":" ","LANE":"５０巷","ALLEY":" ","HOUSE_NO":"１９號","E_COORD97":169005.41,"N_COORD97":2542470.1200000001,"ADDRESS":"健康路一段５０巷１９號","OBJECTID":315633},"geometry":{"x":169005.41000000015,"y":2542470.120000001}},{"attributes":{"ID":315642,"DIS_CODE":0,"TOWNNAME":"中西區","LI":"法華里","LIN":"7鄰","STREET":"健康路","SECT":"一段","MAREA":" ","LANE":"５０巷","ALLEY":" ","HOUSE_NO":"１９號之１","E_COORD97":169001.23999999999,"N_COORD97":2542472.4300000002,"ADDRESS":"健康路一段５０巷１９號之１","OBJECTID":315634},"geometry":{"x":169001.24000000022,"y":2542472.4300000016}},{"attributes":{"ID":315643,"DIS_CODE":0,"TOWNNAME":"中西區","LI":"法華里","LIN":"7鄰","STREET":"健康路","SECT":"一段","MAREA":" ","LANE":"５０巷","ALLEY":" ","HOUSE_NO":"１９號之２","E_COORD97":169001.70000000001,"N_COORD97":2542501.6200000001,"ADDRESS":"健康路一段５０巷１９號之２","OBJECTID":315635},"geometry":{"x":169001.70000000019,"y":2542501.620000001}},{"attributes":{"ID":315644,"DIS_CODE":0,"TOWNNAME":"中西區","LI":"法華里","LIN":"7鄰","STREET":"健康路","SECT":"一段","MAREA":" ","LANE":"５０巷","ALLEY":" ","HOUSE_NO":"１號","E_COORD97":169041.14000000001,"N_COORD97":2542471.9700000002,"ADDRESS":"健康路一段５０巷１號","OBJECTID":315636},"geometry":{"x":169041.1400000006,"y":2542471.9700000007}},{"attributes":{"ID":315645,"DIS_CODE":0,"TOWNNAME":"中西區","LI":"法華里","LIN":"7鄰","STREET":"健康路","SECT":"一段","MAREA":" ","LANE":"５０巷","ALLEY":" ","HOUSE_NO":"２１號","E_COORD97":169006.34,"N_COORD97":2542496.9900000002,"ADDRESS":"健康路一段５０巷２１號","OBJECTID":315637},"geometry":{"x":169006.34000000078,"y":2542496.9900000021}},{"attributes":{"ID":315646,"DIS_CODE":0,"TOWNNAME":"中西區","LI":"法華里","LIN":"7鄰","STREET":"健康路","SECT":"一段","MAREA":" ","LANE":"５０巷","ALLEY":" ","HOUSE_NO":"２３號","E_COORD97":169010.04999999999,"N_COORD97":2542501.1600000001,"ADDRESS":"健康路一段５０巷２３號","OBJECTID":315638},"geometry":{"x":169010.05000000075,"y":2542501.1600000039}},{"attributes":{"ID":315647,"DIS_CODE":0,"TOWNNAME":"中西區","LI":"法華里","LIN":"7鄰","STREET":"健康路","SECT":"一段","MAREA":" ","LANE":"５０巷","ALLEY":" ","HOUSE_NO":"２５號","E_COORD97":169014.23000000001,"N_COORD97":2542497.4500000002,"ADDRESS":"健康路一段５０巷２５號","OBJECTID":315639},"geometry":{"x":169014.23000000138,"y":2542497.4499999993}},{"attributes":{"ID":315648,"DIS_CODE":0,"TOWNNAME":"中西區","LI":"法華里","LIN":"7鄰","STREET":"健康路","SECT":"一段","MAREA":" ","LANE":"５０巷","ALLEY":" ","HOUSE_NO":"２９號","E_COORD97":169022.12,"N_COORD97":2542497.4500000002,"ADDRESS":"健康路一段５０巷２９號","OBJECTID":315640},"geometry":{"x":169022.12000000011,"y":2542497.4499999993}},{"attributes":{"ID":315649,"DIS_CODE":0,"TOWNNAME":"南區","LI":"南都里","LIN":"17鄰","STREET":"明興路","SECT":" ","MAREA":" ","LANE":" ","ALLEY":" ","HOUSE_NO":"６２號","E_COORD97":166687.5,"N_COORD97":2540043.2599999998,"ADDRESS":"明興路６２號","OBJECTID":315641},"geometry":{"x":166687.49999999907,"y":2540043.2600000016}},{"attributes":{"ID":315650,"DIS_CODE":0,"TOWNNAME":"南區","LI":"南都里","LIN":"17鄰","STREET":"明興路","SECT":" ","MAREA":" ","LANE":" ","ALLEY":" ","HOUSE_NO":"９０號","E_COORD97":166673.95999999999,"N_COORD97":2540036.9100000001,"ADDRESS":"明興路９０號","OBJECTID":315642},"geometry":{"x":166673.95999999996,"y":2540036.9100000001}},{"attributes":{"ID":315651,"DIS_CODE":0,"TOWNNAME":"關廟區","LI":"山西里","LIN":"13鄰","STREET":"文衡路","SECT":" ","MAREA":" ","LANE":"１３３巷","ALLEY":" ","HOUSE_NO":"３１號","E_COORD97":180839.13,"N_COORD97":2540564.0099999998,"ADDRESS":"文衡路１３３巷３１號","OBJECTID":315643},"geometry":{"x":180839.12999999989,"y":2540564.0100000016}},{"attributes":{"ID":315652,"DIS_CODE":0,"TOWNNAME":"關廟區","LI":"山西里","LIN":"13鄰","STREET":"文衡路","SECT":" ","MAREA":" ","LANE":"１３３巷","ALLEY":" ","HOUSE_NO":"５號","E_COORD97":180878.57999999999,"N_COORD97":2540543.0099999998,"ADDRESS":"文衡路１３３巷５號","OBJECTID":315644},"geometry":{"x":180878.58000000007,"y":2540543.0100000016}},{"attributes":{"ID":315653,"DIS_CODE":0,"TOWNNAME":"中西區","LI":"法華里","LIN":"7鄰","STREET":"健康路","SECT":"一段","MAREA":" ","LANE":"５０巷","ALLEY":" ","HOUSE_NO":"３１號","E_COORD97":169026.29000000001,"N_COORD97":2542500.6899999999,"ADDRESS":"健康路一段５０巷３１號","OBJECTID":315645},"geometry":{"x":169026.29000000004,"y":2542500.6900000013}},{"attributes":{"ID":315654,"DIS_CODE":0,"TOWNNAME":"中西區","LI":"法華里","LIN":"7鄰","STREET":"健康路","SECT":"一段","MAREA":" ","LANE":"５０巷","ALLEY":" ","HOUSE_NO":"３３號","E_COORD97":169032.79000000001,"N_COORD97":2542496.0600000001,"ADDRESS":"健康路一段５０巷３３號","OBJECTID":315646},"geometry":{"x":169032.79000000004,"y":2542496.0600000024}},{"attributes":{"ID":315655,"DIS_CODE":0,"TOWNNAME":"中西區","LI":"法華里","LIN":"7鄰","STREET":"健康路","SECT":"一段","MAREA":" ","LANE":"５０巷","ALLEY":" ","HOUSE_NO":"３５號","E_COORD97":169048.37,"N_COORD97":2542495.6000000001,"ADDRESS":"健康路一段５０巷３５號","OBJECTID":315647},"geometry":{"x":169048.37000000197,"y":2542495.6000000015}},{"attributes":{"ID":315656,"DIS_CODE":0,"TOWNNAME":"中西區","LI":"法華里","LIN":"7鄰","STREET":"健康路","SECT":"一段","MAREA":" ","LANE":"５０巷","ALLEY":" ","HOUSE_NO":"３７號","E_COORD97":169053.94,"N_COORD97":2542499.2999999998,"ADDRESS":"健康路一段５０巷３７號","OBJECTID":315648},"geometry":{"x":169053.94000000134,"y":2542499.3000000007}},{"attributes":{"ID":315657,"DIS_CODE":0,"TOWNNAME":"中西區","LI":"法華里","LIN":"7鄰","STREET":"健康路","SECT":"一段","MAREA":" ","LANE":"５０巷","ALLEY":" ","HOUSE_NO":"３９號","E_COORD97":169057.64999999999,"N_COORD97":2542502.0800000001,"ADDRESS":"健康路一段５０巷３９號","OBJECTID":315649},"geometry":{"x":169057.6500000013,"y":2542502.0800000019}},{"attributes":{"ID":315658,"DIS_CODE":0,"TOWNNAME":"中西區","LI":"法華里","LIN":"7鄰","STREET":"健康路","SECT":"一段","MAREA":" ","LANE":"５０巷","ALLEY":" ","HOUSE_NO":"３號","E_COORD97":169037.42999999999,"N_COORD97":2542469.1899999999,"ADDRESS":"健康路一段５０巷３號","OBJECTID":315650},"geometry":{"x":169037.43000000156,"y":2542469.1899999995}},{"attributes":{"ID":315659,"DIS_CODE":0,"TOWNNAME":"中西區","LI":"法華里","LIN":"7鄰","STREET":"健康路","SECT":"一段","MAREA":" ","LANE":"５０巷","ALLEY":" ","HOUSE_NO":"４１號","E_COORD97":169060.89999999999,"N_COORD97":2542504.8599999999,"ADDRESS":"健康路一段５０巷４１號","OBJECTID":315651},"geometry":{"x":169060.9000000013,"y":2542504.8599999994}},{"attributes":{"ID":315660,"DIS_CODE":0,"TOWNNAME":"中西區","LI":"法華里","LIN":"7鄰","STREET":"健康路","SECT":"一段","MAREA":" ","LANE":"５０巷","ALLEY":" ","HOUSE_NO":"４３號","E_COORD97":169066.01000000001,"N_COORD97":2542501.1600000001,"ADDRESS":"健康路一段５０巷４３號","OBJECTID":315652},"geometry":{"x":169066.01000000071,"y":2542501.1600000039}},{"attributes":{"ID":315661,"DIS_CODE":0,"TOWNNAME":"中西區","LI":"法華里","LIN":"7鄰","STREET":"健康路","SECT":"一段","MAREA":" ","LANE":"５０巷","ALLEY":" ","HOUSE_NO":"４５號","E_COORD97":169070.17999999999,"N_COORD97":2542504.3999999999,"ADDRESS":"健康路一段５０巷４５號","OBJECTID":315653},"geometry":{"x":169070.18000000063,"y":2542504.4000000022}},{"attributes":{"ID":315662,"DIS_CODE":0,"TOWNNAME":"中西區","LI":"法華里","LIN":"7鄰","STREET":"健康路","SECT":"一段","MAREA":" ","LANE":"５０巷","ALLEY":" ","HOUSE_NO":"４７號","E_COORD97":169074.82000000001,"N_COORD97":2542501.1600000001,"ADDRESS":"健康路一段５０巷４７號","OBJECTID":315654},"geometry":{"x":169074.82000000123,"y":2542501.1600000039}},{"attributes":{"ID":315663,"DIS_CODE":0,"TOWNNAME":"南區","LI":"南都里","LIN":"17鄰","STREET":"明興路","SECT":" ","MAREA":" ","LANE":" ","ALLEY":" ","HOUSE_NO":"９２號","E_COORD97":166672.35000000001,"N_COORD97":2540031.4399999999,"ADDRESS":"明興路９２號","OBJECTID":315655},"geometry":{"x":166672.34999999963,"y":2540031.4400000013}},{"attributes":{"ID":315664,"DIS_CODE":0,"TOWNNAME":"南區","LI":"南都里","LIN":"17鄰","STREET":"明興路","SECT":" ","MAREA":" ","LANE":" ","ALLEY":" ","HOUSE_NO":"９４號","E_COORD97":166668.79999999999,"N_COORD97":2540028.5499999998,"ADDRESS":"明興路９４號","OBJECTID":315656},"geometry":{"x":166668.80000000075,"y":2540028.5500000026}},{"attributes":{"ID":315665,"DIS_CODE":0,"TOWNNAME":"關廟區","LI":"田中里","LIN":"4鄰","STREET":"中大街","SECT":" ","MAREA":" ","LANE":" ","ALLEY":" ","HOUSE_NO":"９１號","E_COORD97":184201.77790799999,"N_COORD97":2533737.3291699998,"ADDRESS":"中大街９１號","OBJECTID":315657},"geometry":{"x":184201.7779080011,"y":2533737.3291699998}},{"attributes":{"ID":315666,"DIS_CODE":0,"TOWNNAME":"關廟區","LI":"山西里","LIN":"18鄰","STREET":"文衡路","SECT":" ","MAREA":" ","LANE":"３９０巷","ALLEY":" ","HOUSE_NO":"２號","E_COORD97":180927.64000000001,"N_COORD97":2540919.3300000001,"ADDRESS":"文衡路３９０巷２號","OBJECTID":315658},"geometry":{"x":180927.64000000153,"y":2540919.3300000001}},{"attributes":{"ID":315667,"DIS_CODE":0,"TOWNNAME":"關廟區","LI":"山西里","LIN":"20鄰","STREET":"崇平路","SECT":" ","MAREA":" ","LANE":"１０７巷","ALLEY":" ","HOUSE_NO":"５８號","E_COORD97":180722.22,"N_COORD97":2540300.46,"ADDRESS":"崇平路１０７巷５８號","OBJECTID":315659},"geometry":{"x":180722.22000000067,"y":2540300.4600000028}},{"attributes":{"ID":315668,"DIS_CODE":0,"TOWNNAME":"中西區","LI":"法華里","LIN":"7鄰","STREET":"健康路","SECT":"一段","MAREA":" ","LANE":"５０巷","ALLEY":" ","HOUSE_NO":"５號","E_COORD97":169033.72,"N_COORD97":2542471.9700000002,"ADDRESS":"健康路一段５０巷５號","OBJECTID":315660},"geometry":{"x":169033.7200000016,"y":2542471.9700000007}},{"attributes":{"ID":315669,"DIS_CODE":0,"TOWNNAME":"中西區","LI":"法華里","LIN":"7鄰","STREET":"健康路","SECT":"一段","MAREA":" ","LANE":"５０巷","ALLEY":" ","HOUSE_NO":"７號","E_COORD97":169029.07999999999,"N_COORD97":2542469.6499999999,"ADDRESS":"健康路一段５０巷７號","OBJECTID":315661},"geometry":{"x":169029.08000000007,"y":2542469.6500000004}},{"attributes":{"ID":315670,"DIS_CODE":0,"TOWNNAME":"中西區","LI":"法華里","LIN":"7鄰","STREET":"健康路","SECT":"一段","MAREA":" ","LANE":"５０巷","ALLEY":" ","HOUSE_NO":"９號","E_COORD97":169025.37,"N_COORD97":2542472.8999999999,"ADDRESS":"健康路一段５０巷９號","OBJECTID":315662},"geometry":{"x":169025.37000000104,"y":2542472.9000000022}},{"attributes":{"ID":315671,"DIS_CODE":0,"TOWNNAME":"安南區","LI":"海西里","LIN":"7鄰","STREET":"海中街","SECT":" ","MAREA":" ","LANE":"１０１巷","ALLEY":" ","HOUSE_NO":"２９號","E_COORD97":166332.67999999999,"N_COORD97":2548960.25,"ADDRESS":"海中街１０１巷２９號","OBJECTID":315663},"geometry":{"x":166332.6799999997,"y":2548960.2500000019}},{"attributes":{"ID":315672,"DIS_CODE":0,"TOWNNAME":"安南區","LI":"海西里","LIN":"7鄰","STREET":"海中街","SECT":" ","MAREA":" ","LANE":"１０１巷","ALLEY":" ","HOUSE_NO":"３１號","E_COORD97":166328.48999999999,"N_COORD97":2548958.5800000001,"ADDRESS":"海中街１０１巷３１號","OBJECTID":315664},"geometry":{"x":166328.49000000209,"y":2548958.5800000001}},{"attributes":{"ID":315673,"DIS_CODE":0,"TOWNNAME":"安南區","LI":"海西里","LIN":"7鄰","STREET":"海中街","SECT":" ","MAREA":" ","LANE":"１０１巷","ALLEY":" ","HOUSE_NO":"３３號","E_COORD97":166324.72,"N_COORD97":2548956.4900000002,"ADDRESS":"海中街１０１巷３３號","OBJECTID":315665},"geometry":{"x":166324.71999999881,"y":2548956.4900000002}},{"attributes":{"ID":315674,"DIS_CODE":0,"TOWNNAME":"安南區","LI":"海西里","LIN":"7鄰","STREET":"海中街","SECT":" ","MAREA":" ","LANE":"１０１巷","ALLEY":" ","HOUSE_NO":"３５號","E_COORD97":166321.37,"N_COORD97":2548953.98,"ADDRESS":"海中街１０１巷３５號","OBJECTID":315666},"geometry":{"x":166321.37000000104,"y":2548953.9800000004}},{"attributes":{"ID":315675,"DIS_CODE":0,"TOWNNAME":"安南區","LI":"海西里","LIN":"7鄰","STREET":"海中街","SECT":" ","MAREA":" ","LANE":"１０１巷","ALLEY":" ","HOUSE_NO":"３７號","E_COORD97":166317.60000000001,"N_COORD97":2548951.0499999998,"ADDRESS":"海中街１０１巷３７號","OBJECTID":315667},"geometry":{"x":166317.60000000056,"y":2548951.0500000045}},{"attributes":{"ID":315676,"DIS_CODE":0,"TOWNNAME":"安南區","LI":"海西里","LIN":"7鄰","STREET":"海中街","SECT":" ","MAREA":" ","LANE":"１０１巷","ALLEY":" ","HOUSE_NO":"３９號","E_COORD97":166313.41,"N_COORD97":2548949.3799999999,"ADDRESS":"海中街１０１巷３９號","OBJECTID":315668},"geometry":{"x":166313.41000000015,"y":2548949.379999999}},{"attributes":{"ID":315677,"DIS_CODE":0,"TOWNNAME":"安南區","LI":"海西里","LIN":"7鄰","STREET":"海中街","SECT":" ","MAREA":" ","LANE":"１０１巷","ALLEY":" ","HOUSE_NO":"４１號","E_COORD97":166308.39000000001,"N_COORD97":2548948.54,"ADDRESS":"海中街１０１巷４１號","OBJECTID":315669},"geometry":{"x":166308.39000000153,"y":2548948.5399999991}},{"attributes":{"ID":315678,"DIS_CODE":0,"TOWNNAME":"安南區","LI":"海西里","LIN":"7鄰","STREET":"海中街","SECT":" ","MAREA":" ","LANE":"１０１巷","ALLEY":" ","HOUSE_NO":"４５號","E_COORD97":166301.67999999999,"N_COORD97":2548945.6099999999,"ADDRESS":"海中街１０１巷４５號","OBJECTID":315670},"geometry":{"x":166301.68000000063,"y":2548945.6100000031}},{"attributes":{"ID":315679,"DIS_CODE":0,"TOWNNAME":"南區","LI":"南都里","LIN":"17鄰","STREET":"明興路","SECT":" ","MAREA":" ","LANE":" ","ALLEY":" ","HOUSE_NO":"９６號","E_COORD97":166666.22,"N_COORD97":2540025.3300000001,"ADDRESS":"明興路９６號","OBJECTID":315671},"geometry":{"x":166666.22000000067,"y":2540025.3300000019}},{"attributes":{"ID":315680,"DIS_CODE":0,"TOWNNAME":"南區","LI":"南都里","LIN":"17鄰","STREET":"南和路","SECT":" ","MAREA":" ","LANE":" ","ALLEY":" ","HOUSE_NO":"１０３號","E_COORD97":166653.64999999999,"N_COORD97":2540060.0899999999,"ADDRESS":"南和路１０３號","OBJECTID":315672},"geometry":{"x":166653.6500000013,"y":2540060.0900000036}},{"attributes":{"ID":315681,"DIS_CODE":0,"TOWNNAME":"南區","LI":"南都里","LIN":"17鄰","STREET":"南和路","SECT":" ","MAREA":" ","LANE":" ","ALLEY":" ","HOUSE_NO":"１０５號","E_COORD97":166651.39000000001,"N_COORD97":2540055.9100000001,"ADDRESS":"南和路１０５號","OBJECTID":315673},"geometry":{"x":166651.3900000006,"y":2540055.910000002}},{"attributes":{"ID":315682,"DIS_CODE":0,"TOWNNAME":"關廟區","LI":"東勢里","LIN":"14鄰","STREET":"東榮街","SECT":" ","MAREA":" ","LANE":"１３８巷","ALLEY":" ","HOUSE_NO":"１２號","E_COORD97":182144.92000000001,"N_COORD97":2539322.25,"ADDRESS":"東榮街１３８巷１２號","OBJECTID":315674},"geometry":{"x":182144.92000000179,"y":2539322.25}},{"attributes":{"ID":315683,"DIS_CODE":0,"TOWNNAME":"關廟區","LI":"布袋里","LIN":"8鄰","STREET":"長文街","SECT":" ","MAREA":" ","LANE":"３２８巷","ALLEY":" ","HOUSE_NO":"１８號","E_COORD97":182050.98999999999,"N_COORD97":2534967.2999999998,"ADDRESS":"長文街３２８巷１８號","OBJECTID":315675},"geometry":{"x":182050.99000000022,"y":2534967.3000000045}},{"attributes":{"ID":315684,"DIS_CODE":0,"TOWNNAME":"關廟區","LI":"五甲里","LIN":"20鄰","STREET":"五智街","SECT":" ","MAREA":" ","LANE":"５０巷","ALLEY":" ","HOUSE_NO":"８號","E_COORD97":181168.92000000001,"N_COORD97":2539176.25,"ADDRESS":"五智街５０巷８號","OBJECTID":315676},"geometry":{"x":181168.92000000086,"y":2539176.25}},{"attributes":{"ID":315685,"DIS_CODE":0,"TOWNNAME":"關廟區","LI":"東勢里","LIN":"25鄰","STREET":"東興路","SECT":" ","MAREA":" ","LANE":"１４８巷","ALLEY":" ","HOUSE_NO":"７號","E_COORD97":181557.17000000001,"N_COORD97":2539522.25,"ADDRESS":"東興路１４８巷７號","OBJECTID":315677},"geometry":{"x":181557.17000000086,"y":2539522.25}},{"attributes":{"ID":315686,"DIS_CODE":0,"TOWNNAME":"關廟區","LI":"北花里","LIN":"13鄰","STREET":"中正路","SECT":" ","MAREA":" ","LANE":"３７６巷","ALLEY":" ","HOUSE_NO":"７號","E_COORD97":182729.26000000001,"N_COORD97":2540866.25,"ADDRESS":"中正路３７６巷７號","OBJECTID":315678},"geometry":{"x":182729.26000000071,"y":2540866.2500000037}},{"attributes":{"ID":315687,"DIS_CODE":0,"TOWNNAME":"關廟區","LI":"東勢里","LIN":"24鄰","STREET":"東安街","SECT":" ","MAREA":" ","LANE":"２４１巷","ALLEY":" ","HOUSE_NO":"８號","E_COORD97":181650.07000000001,"N_COORD97":2539371.3199999998,"ADDRESS":"東安街２４１巷８號","OBJECTID":315679},"geometry":{"x":181650.0700000003,"y":2539371.3200000022}},{"attributes":{"ID":315688,"DIS_CODE":0,"TOWNNAME":"關廟區","LI":"北勢里","LIN":"4鄰","STREET":"北美街","SECT":" ","MAREA":" ","LANE":"３２巷","ALLEY":" ","HOUSE_NO":"１８號","E_COORD97":181510.69,"N_COORD97":2540361.2999999998,"ADDRESS":"北美街３２巷１８號","OBJECTID":315680},"geometry":{"x":181510.69000000041,"y":2540361.3000000045}},{"attributes":{"ID":315689,"DIS_CODE":0,"TOWNNAME":"安南區","LI":"海西里","LIN":"7鄰","STREET":"海中街","SECT":" ","MAREA":" ","LANE":"１２１巷","ALLEY":" ","HOUSE_NO":"３５號","E_COORD97":166320.10999999999,"N_COORD97":2549011.7000000002,"ADDRESS":"海中街１２１巷３５號","OBJECTID":315681},"geometry":{"x":166320.11000000127,"y":2549011.6999999993}},{"attributes":{"ID":315690,"DIS_CODE":0,"TOWNNAME":"安南區","LI":"海西里","LIN":"7鄰","STREET":"海中街","SECT":" ","MAREA":" ","LANE":"１２１巷","ALLEY":" ","HOUSE_NO":"４１號","E_COORD97":166294.56,"N_COORD97":2548991.2000000002,"ADDRESS":"海中街１２１巷４１號","OBJECTID":315682},"geometry":{"x":166294.55999999959,"y":2548991.1999999993}},{"attributes":{"ID":315691,"DIS_CODE":0,"TOWNNAME":"安南區","LI":"海西里","LIN":"7鄰","STREET":"海中街","SECT":" ","MAREA":" ","LANE":"７７巷","ALLEY":" ","HOUSE_NO":"２６號","E_COORD97":166342.73000000001,"N_COORD97":2548932.6400000001,"ADDRESS":"海中街７７巷２６號","OBJECTID":315683},"geometry":{"x":166342.73000000138,"y":2548932.6400000006}},{"attributes":{"ID":315692,"DIS_CODE":0,"TOWNNAME":"安南區","LI":"海西里","LIN":"7鄰","STREET":"海中街","SECT":" ","MAREA":" ","LANE":"７７巷","ALLEY":" ","HOUSE_NO":"３６號","E_COORD97":166314.25,"N_COORD97":2548917.1699999999,"ADDRESS":"海中街７７巷３６號","OBJECTID":315684},"geometry":{"x":166314.25,"y":2548917.1699999999}},{"attributes":{"ID":315693,"DIS_CODE":0,"TOWNNAME":"安南區","LI":"海東里","LIN":"7鄰","STREET":"海佃路","SECT":"二段","MAREA":" ","LANE":"４８３巷","ALLEY":" ","HOUSE_NO":"１０４號","E_COORD97":166423.12,"N_COORD97":2549014.1000000001,"ADDRESS":"海佃路二段４８３巷１０４號","OBJECTID":315685},"geometry":{"x":166423.12000000104,"y":2549014.1000000015}},{"attributes":{"ID":315694,"DIS_CODE":0,"TOWNNAME":"南區","LI":"南都里","LIN":"17鄰","STREET":"南和路","SECT":" ","MAREA":" ","LANE":" ","ALLEY":" ","HOUSE_NO":"１０７號","E_COORD97":166648.82000000001,"N_COORD97":2540051.7200000002,"ADDRESS":"南和路１０７號","OBJECTID":315686},"geometry":{"x":166648.82000000123,"y":2540051.7200000007}},{"attributes":{"ID":315695,"DIS_CODE":0,"TOWNNAME":"南區","LI":"南都里","LIN":"17鄰","STREET":"南和路","SECT":" ","MAREA":" ","LANE":" ","ALLEY":" ","HOUSE_NO":"１０９號","E_COORD97":166646.23999999999,"N_COORD97":2540048.8300000001,"ADDRESS":"南和路１０９號","OBJECTID":315687},"geometry":{"x":166646.24000000115,"y":2540048.8300000038}},{"attributes":{"ID":315696,"DIS_CODE":0,"TOWNNAME":"南區","LI":"南都里","LIN":"17鄰","STREET":"南和路","SECT":" ","MAREA":" ","LANE":" ","ALLEY":" ","HOUSE_NO":"１１１號","E_COORD97":166641.39999999999,"N_COORD97":2540045.9300000002,"ADDRESS":"南和路１１１號","OBJECTID":315688},"geometry":{"x":166641.4000000013,"y":2540045.9299999997}},{"attributes":{"ID":315697,"DIS_CODE":0,"TOWNNAME":"南區","LI":"南都里","LIN":"17鄰","STREET":"南和路","SECT":" ","MAREA":" ","LANE":" ","ALLEY":" ","HOUSE_NO":"１１３號","E_COORD97":166637.20999999999,"N_COORD97":2540042.0699999998,"ADDRESS":"南和路１１３號","OBJECTID":315689},"geometry":{"x":166637.21000000089,"y":2540042.0700000022}},{"attributes":{"ID":315698,"DIS_CODE":0,"TOWNNAME":"南區","LI":"南都里","LIN":"17鄰","STREET":"南和路","SECT":" ","MAREA":" ","LANE":" ","ALLEY":" ","HOUSE_NO":"１１５號","E_COORD97":166634.63,"N_COORD97":2540038.52,"ADDRESS":"南和路１１５號","OBJECTID":315690},"geometry":{"x":166634.63000000082,"y":2540038.5199999996}},{"attributes":{"ID":315699,"DIS_CODE":0,"TOWNNAME":"南區","LI":"南都里","LIN":"17鄰","STREET":"南和路","SECT":" ","MAREA":" ","LANE":" ","ALLEY":" ","HOUSE_NO":"１１７號","E_COORD97":166635.28,"N_COORD97":2540034.0099999998,"ADDRESS":"南和路１１７號","OBJECTID":315691},"geometry":{"x":166635.28000000212,"y":2540034.0100000016}},{"attributes":{"ID":315700,"DIS_CODE":0,"TOWNNAME":"南區","LI":"南都里","LIN":"17鄰","STREET":"南和路","SECT":" ","MAREA":" ","LANE":" ","ALLEY":" ","HOUSE_NO":"１１９號","E_COORD97":166635.92000000001,"N_COORD97":2540029.1899999999,"ADDRESS":"南和路１１９號","OBJECTID":315692},"geometry":{"x":166635.92000000086,"y":2540029.1900000013}},{"attributes":{"ID":315701,"DIS_CODE":0,"TOWNNAME":"關廟區","LI":"五甲里","LIN":"13鄰","STREET":"光復街","SECT":" ","MAREA":" ","LANE":"９１巷","ALLEY":" ","HOUSE_NO":"４２號","E_COORD97":181438.94,"N_COORD97":2539376.2799999998,"ADDRESS":"光復街９１巷４２號","OBJECTID":315693},"geometry":{"x":181438.94000000134,"y":2539376.2799999993}},{"attributes":{"ID":315702,"DIS_CODE":0,"TOWNNAME":"關廟區","LI":"東勢里","LIN":"24鄰","STREET":"東安街","SECT":" ","MAREA":" ","LANE":"２４１巷","ALLEY":" ","HOUSE_NO":"１６號","E_COORD97":181651.72,"N_COORD97":2539384.3199999998,"ADDRESS":"東安街２４１巷１６號","OBJECTID":315694},"geometry":{"x":181651.72000000067,"y":2539384.320000004}},{"attributes":{"ID":315703,"DIS_CODE":0,"TOWNNAME":"關廟區","LI":"北勢里","LIN":"4鄰","STREET":"北美街","SECT":" ","MAREA":" ","LANE":"４６巷","ALLEY":" ","HOUSE_NO":"１３號","E_COORD97":181512.69,"N_COORD97":2540392.2999999998,"ADDRESS":"北美街４６巷１３號","OBJECTID":315695},"geometry":{"x":181512.69000000041,"y":2540392.3000000026}},{"attributes":{"ID":315704,"DIS_CODE":0,"TOWNNAME":"關廟區","LI":"松腳里","LIN":"18鄰","STREET":"中山路","SECT":"一段","MAREA":" ","LANE":"８９巷","ALLEY":" ","HOUSE_NO":"１１號","E_COORD97":181949.85999999999,"N_COORD97":2539927.2799999998,"ADDRESS":"中山路一段８９巷１１號","OBJECTID":315696},"geometry":{"x":181949.86000000127,"y":2539927.2800000012}},{"attributes":{"ID":315705,"DIS_CODE":0,"TOWNNAME":"關廟區","LI":"東勢里","LIN":"13鄰","STREET":"旺萊路","SECT":" ","MAREA":" ","LANE":"３５６巷","ALLEY":" ","HOUSE_NO":"５０號","E_COORD97":182109.301267,"N_COORD97":2539386.01565,"ADDRESS":"旺萊路３５６巷５０號","OBJECTID":315697},"geometry":{"x":182109.30126700178,"y":2539386.0156450011}},{"attributes":{"ID":315706,"DIS_CODE":0,"TOWNNAME":"安南區","LI":"海東里","LIN":"7鄰","STREET":"海佃路","SECT":"二段","MAREA":" ","LANE":"４８３巷","ALLEY":" ","HOUSE_NO":"１０６號","E_COORD97":166419.94,"N_COORD97":2549010.54,"ADDRESS":"海佃路二段４８３巷１０６號","OBJECTID":315698},"geometry":{"x":166419.94000000041,"y":2549010.5400000028}},{"attributes":{"ID":315707,"DIS_CODE":0,"TOWNNAME":"安南區","LI":"海東里","LIN":"7鄰","STREET":"海佃路","SECT":"二段","MAREA":" ","LANE":"４８３巷","ALLEY":" ","HOUSE_NO":"１１０號","E_COORD97":166411.14999999999,"N_COORD97":2549007.0800000001,"ADDRESS":"海佃路二段４８３巷１１０號","OBJECTID":315699},"geometry":{"x":166411.1500000013,"y":2549007.0800000001}},{"attributes":{"ID":315708,"DIS_CODE":0,"TOWNNAME":"南區","LI":"郡南里","LIN":"7鄰","STREET":"永成路","SECT":"三段","MAREA":" ","LANE":"１７７巷","ALLEY":" ","HOUSE_NO":"１號","E_COORD97":167467.20000000001,"N_COORD97":2540824.7200000002,"ADDRESS":"永成路三段１７７巷１號","OBJECTID":315700},"geometry":{"x":167467.20000000019,"y":2540824.7200000007}},{"attributes":{"ID":315709,"DIS_CODE":0,"TOWNNAME":"南區","LI":"郡南里","LIN":"7鄰","STREET":"永成路","SECT":"三段","MAREA":" ","LANE":"１７７巷","ALLEY":" ","HOUSE_NO":"２號","E_COORD97":167473.75,"N_COORD97":2540849.2200000002,"ADDRESS":"永成路三段１７７巷２號","OBJECTID":315701},"geometry":{"x":167473.75,"y":2540849.2200000007}},{"attributes":{"ID":315710,"DIS_CODE":0,"TOWNNAME":"南區","LI":"郡南里","LIN":"7鄰","STREET":"永成路","SECT":"三段","MAREA":" ","LANE":"１７７巷","ALLEY":" ","HOUSE_NO":"３號","E_COORD97":167464.06,"N_COORD97":2540824.1000000001,"ADDRESS":"永成路三段１７７巷３號","OBJECTID":315702},"geometry":{"x":167464.05999999959,"y":2540824.1000000015}},{"attributes":{"ID":315711,"DIS_CODE":0,"TOWNNAME":"南區","LI":"郡南里","LIN":"7鄰","STREET":"永成路","SECT":"三段","MAREA":" ","LANE":"１７７巷","ALLEY":" ","HOUSE_NO":"５號","E_COORD97":167459.35000000001,"N_COORD97":2540825.04,"ADDRESS":"永成路三段１７７巷５號","OBJECTID":315703},"geometry":{"x":167459.34999999963,"y":2540825.0399999991}},{"attributes":{"ID":315712,"DIS_CODE":0,"TOWNNAME":"南區","LI":"郡南里","LIN":"7鄰","STREET":"永成路","SECT":"三段","MAREA":" ","LANE":"１７７巷","ALLEY":" ","HOUSE_NO":"７號","E_COORD97":167455.26999999999,"N_COORD97":2540825.3500000001,"ADDRESS":"永成路三段１７７巷７號","OBJECTID":315704},"geometry":{"x":167455.27000000048,"y":2540825.3500000015}},{"attributes":{"ID":315713,"DIS_CODE":0,"TOWNNAME":"南區","LI":"郡南里","LIN":"7鄰","STREET":"永成路","SECT":"三段","MAREA":" ","LANE":"１７７巷","ALLEY":" ","HOUSE_NO":"９號","E_COORD97":167452.76000000001,"N_COORD97":2540824.7200000002,"ADDRESS":"永成路三段１７７巷９號","OBJECTID":315705},"geometry":{"x":167452.75999999978,"y":2540824.7200000007}},{"attributes":{"ID":315714,"DIS_CODE":0,"TOWNNAME":"南區","LI":"南都里","LIN":"17鄰","STREET":"南和路","SECT":" ","MAREA":" ","LANE":" ","ALLEY":" ","HOUSE_NO":"１２１號","E_COORD97":166629.79999999999,"N_COORD97":2540014.5600000001,"ADDRESS":"南和路１２１號","OBJECTID":315706},"geometry":{"x":166629.80000000075,"y":2540014.5600000024}},{"attributes":{"ID":315715,"DIS_CODE":0,"TOWNNAME":"南區","LI":"南都里","LIN":"17鄰","STREET":"南和路","SECT":" ","MAREA":" ","LANE":" ","ALLEY":" ","HOUSE_NO":"１２３號","E_COORD97":166626.57000000001,"N_COORD97":2540009.73,"ADDRESS":"南和路１２３號","OBJECTID":315707},"geometry":{"x":166626.57000000216,"y":2540009.7300000023}},{"attributes":{"ID":315716,"DIS_CODE":0,"TOWNNAME":"南區","LI":"南都里","LIN":"17鄰","STREET":"南和路","SECT":" ","MAREA":" ","LANE":" ","ALLEY":" ","HOUSE_NO":"１２５號","E_COORD97":166626.25,"N_COORD97":2540005.2200000002,"ADDRESS":"南和路１２５號","OBJECTID":315708},"geometry":{"x":166626.25,"y":2540005.2200000007}},{"attributes":{"ID":315717,"DIS_CODE":0,"TOWNNAME":"南區","LI":"南都里","LIN":"17鄰","STREET":"南和路","SECT":" ","MAREA":" ","LANE":" ","ALLEY":" ","HOUSE_NO":"１２７號","E_COORD97":166625.60000000001,"N_COORD97":2540000.3900000001,"ADDRESS":"南和路１２７號","OBJECTID":315709},"geometry":{"x":166625.60000000149,"y":2540000.3900000006}},{"attributes":{"ID":315718,"DIS_CODE":0,"TOWNNAME":"南區","LI":"南都里","LIN":"17鄰","STREET":"南和路","SECT":" ","MAREA":" ","LANE":" ","ALLEY":" ","HOUSE_NO":"１２９號","E_COORD97":166624.64000000001,"N_COORD97":2539996.5299999998,"ADDRESS":"南和路１２９號","OBJECTID":315710},"geometry":{"x":166624.63999999966,"y":2539996.5300000012}},{"attributes":{"ID":315719,"DIS_CODE":0,"TOWNNAME":"南區","LI":"南都里","LIN":"17鄰","STREET":"南和路","SECT":" ","MAREA":" ","LANE":" ","ALLEY":" ","HOUSE_NO":"１３１號","E_COORD97":166622.70000000001,"N_COORD97":2539989.4500000002,"ADDRESS":"南和路１３１號","OBJECTID":315711},"geometry":{"x":166622.70000000112,"y":2539989.450000003}},{"attributes":{"ID":315720,"DIS_CODE":0,"TOWNNAME":"關廟區","LI":"香洋里","LIN":"25鄰","STREET":"南雄路","SECT":"一段","MAREA":" ","LANE":"１１５９巷","ALLEY":" ","HOUSE_NO":"６號","E_COORD97":181048.73000000001,"N_COORD97":2539946.9399999999,"ADDRESS":"南雄路一段１１５９巷６號","OBJECTID":315712},"geometry":{"x":181048.73000000138,"y":2539946.9400000013}},{"attributes":{"ID":315721,"DIS_CODE":0,"TOWNNAME":"關廟區","LI":"北勢里","LIN":"13鄰","STREET":"北安三街","SECT":" ","MAREA":" ","LANE":"１４５巷","ALLEY":" ","HOUSE_NO":"２０號","E_COORD97":181415.69,"N_COORD97":2540556.3199999998,"ADDRESS":"北安三街１４５巷２０號","OBJECTID":315713},"geometry":{"x":181415.69000000041,"y":2540556.3200000003}},{"attributes":{"ID":315722,"DIS_CODE":0,"TOWNNAME":"關廟區","LI":"北花里","LIN":"20鄰","STREET":"中正路","SECT":" ","MAREA":" ","LANE":"２６巷","ALLEY":" ","HOUSE_NO":"１０號","E_COORD97":183902.76000000001,"N_COORD97":2541061.25,"ADDRESS":"中正路２６巷１０號","OBJECTID":315714},"geometry":{"x":183902.76000000071,"y":2541061.25}},{"attributes":{"ID":315723,"DIS_CODE":0,"TOWNNAME":"南區","LI":"郡南里","LIN":"7鄰","STREET":"永成路","SECT":"三段","MAREA":" ","LANE":"１７７巷","ALLEY":" ","HOUSE_NO":"１１號","E_COORD97":167447.73000000001,"N_COORD97":2540825.98,"ADDRESS":"永成路三段１７７巷１１號","OBJECTID":315715},"geometry":{"x":167447.73000000231,"y":2540825.9800000023}},{"attributes":{"ID":315724,"DIS_CODE":0,"TOWNNAME":"南區","LI":"郡南里","LIN":"7鄰","STREET":"永成路","SECT":"三段","MAREA":" ","LANE":"１７７巷","ALLEY":" ","HOUSE_NO":"１３號","E_COORD97":167443.64999999999,"N_COORD97":2540825.04,"ADDRESS":"永成路三段１７７巷１３號","OBJECTID":315716},"geometry":{"x":167443.6500000013,"y":2540825.0399999991}},{"attributes":{"ID":315725,"DIS_CODE":0,"TOWNNAME":"南區","LI":"郡南里","LIN":"7鄰","STREET":"永成路","SECT":"三段","MAREA":" ","LANE":"１７７巷","ALLEY":" ","HOUSE_NO":"１７號","E_COORD97":167437.04999999999,"N_COORD97":2540823.4700000002,"ADDRESS":"永成路三段１７７巷１７號","OBJECTID":315717},"geometry":{"x":167437.05000000075,"y":2540823.4700000007}},{"attributes":{"ID":315726,"DIS_CODE":0,"TOWNNAME":"南區","LI":"郡南里","LIN":"7鄰","STREET":"永成路","SECT":"三段","MAREA":" ","LANE":"１７７巷","ALLEY":" ","HOUSE_NO":"１９號","E_COORD97":167433.29000000001,"N_COORD97":2540823.1600000001,"ADDRESS":"永成路三段１７７巷１９號","OBJECTID":315718},"geometry":{"x":167433.2900000019,"y":2540823.160000002}},{"attributes":{"ID":315727,"DIS_CODE":0,"TOWNNAME":"安南區","LI":"學東里","LIN":"7鄰","STREET":"公學路","SECT":"六段","MAREA":" ","LANE":"４６９巷","ALLEY":" ","HOUSE_NO":"２１號","E_COORD97":162700.85999999999,"N_COORD97":2553127.8999999999,"ADDRESS":"公學路六段４６９巷２１號","OBJECTID":315719},"geometry":{"x":162700.86000000127,"y":2553127.9000000004}},{"attributes":{"ID":315728,"DIS_CODE":0,"TOWNNAME":"安南區","LI":"學東里","LIN":"7鄰","STREET":"公學路","SECT":"六段","MAREA":" ","LANE":"４６９巷","ALLEY":" ","HOUSE_NO":"２３號","E_COORD97":162698.76000000001,"N_COORD97":2553125.2200000002,"ADDRESS":"公學路六段４６９巷２３號","OBJECTID":315720},"geometry":{"x":162698.76000000071,"y":2553125.2200000007}},{"attributes":{"ID":315729,"DIS_CODE":0,"TOWNNAME":"南區","LI":"國宅里","LIN":"7鄰","STREET":"金華路","SECT":"二段","MAREA":" ","LANE":"３９巷","ALLEY":" ","HOUSE_NO":"１號","E_COORD97":167053.76999999999,"N_COORD97":2541996.21,"ADDRESS":"金華路二段３９巷１號","OBJECTID":315721},"geometry":{"x":167053.77000000048,"y":2541996.2100000046}},{"attributes":{"ID":315730,"DIS_CODE":0,"TOWNNAME":"南區","LI":"國宅里","LIN":"7鄰","STREET":"金華路","SECT":"二段","MAREA":" ","LANE":"３９巷","ALLEY":" ","HOUSE_NO":"３號","E_COORD97":167048.89999999999,"N_COORD97":2541996.96,"ADDRESS":"金華路二段３９巷３號","OBJECTID":315722},"geometry":{"x":167048.9000000013,"y":2541996.9600000009}},{"attributes":{"ID":315731,"DIS_CODE":0,"TOWNNAME":"南區","LI":"國宅里","LIN":"7鄰","STREET":"金華路","SECT":"二段","MAREA":" ","LANE":"３９巷","ALLEY":" ","HOUSE_NO":"４號","E_COORD97":167049.09,"N_COORD97":2542012.2999999998,"ADDRESS":"金華路二段３９巷４號","OBJECTID":315723},"geometry":{"x":167049.08999999985,"y":2542012.2999999989}},{"attributes":{"ID":315732,"DIS_CODE":0,"TOWNNAME":"南區","LI":"國宅里","LIN":"7鄰","STREET":"金華路","SECT":"二段","MAREA":" ","LANE":"３９巷","ALLEY":" ","HOUSE_NO":"５號","E_COORD97":167044.22,"N_COORD97":2541997.3300000001,"ADDRESS":"金華路二段３９巷５號","OBJECTID":315724},"geometry":{"x":167044.22000000067,"y":2541997.3300000001}},{"attributes":{"ID":315733,"DIS_CODE":0,"TOWNNAME":"南區","LI":"國宅里","LIN":"7鄰","STREET":"金華路","SECT":"二段","MAREA":" ","LANE":"３９巷","ALLEY":" ","HOUSE_NO":"６號","E_COORD97":167044.78,"N_COORD97":2542012.6699999999,"ADDRESS":"金華路二段３９巷６號","OBJECTID":315725},"geometry":{"x":167044.78000000026,"y":2542012.6700000037}},{"attributes":{"ID":315734,"DIS_CODE":0,"TOWNNAME":"南區","LI":"國宅里","LIN":"7鄰","STREET":"金華路","SECT":"二段","MAREA":" ","LANE":"３９巷","ALLEY":" ","HOUSE_NO":"７號","E_COORD97":167039.53,"N_COORD97":2541997.8900000001,"ADDRESS":"金華路二段３９巷７號","OBJECTID":315726},"geometry":{"x":167039.53000000026,"y":2541997.8900000006}},{"attributes":{"ID":315735,"DIS_CODE":0,"TOWNNAME":"南區","LI":"南都里","LIN":"17鄰","STREET":"南和路","SECT":" ","MAREA":" ","LANE":" ","ALLEY":" ","HOUSE_NO":"１３３號","E_COORD97":166621.09,"N_COORD97":2539979.79,"ADDRESS":"南和路１３３號","OBJECTID":315727},"geometry":{"x":166621.09000000078,"y":2539979.7899999972}},{"attributes":{"ID":315736,"DIS_CODE":0,"TOWNNAME":"南區","LI":"南都里","LIN":"17鄰","STREET":"南和路","SECT":" ","MAREA":" ","LANE":" ","ALLEY":" ","HOUSE_NO":"２１號","E_COORD97":166718.45000000001,"N_COORD97":2540103.4500000002,"ADDRESS":"南和路２１號","OBJECTID":315728},"geometry":{"x":166718.45000000019,"y":2540103.4499999993}},{"attributes":{"ID":315737,"DIS_CODE":0,"TOWNNAME":"南區","LI":"南都里","LIN":"17鄰","STREET":"南和路","SECT":" ","MAREA":" ","LANE":" ","ALLEY":" ","HOUSE_NO":"２３號","E_COORD97":166713.60999999999,"N_COORD97":2540100.5600000001,"ADDRESS":"南和路２３號","OBJECTID":315729},"geometry":{"x":166713.61000000034,"y":2540100.5600000005}},{"attributes":{"ID":315738,"DIS_CODE":0,"TOWNNAME":"南區","LI":"南都里","LIN":"17鄰","STREET":"南和路","SECT":" ","MAREA":" ","LANE":" ","ALLEY":" ","HOUSE_NO":"２５號","E_COORD97":166712,"N_COORD97":2540096.3700000001,"ADDRESS":"南和路２５號","OBJECTID":315730},"geometry":{"x":166712.00000000093,"y":2540096.370000001}},{"attributes":{"ID":315739,"DIS_CODE":0,"TOWNNAME":"關廟區","LI":"田中里","LIN":"4鄰","STREET":"南雄南路","SECT":" ","MAREA":" ","LANE":"５１５巷","ALLEY":" ","HOUSE_NO":"２７號","E_COORD97":183992.59,"N_COORD97":2533826.25,"ADDRESS":"南雄南路５１５巷２７號","OBJECTID":315731},"geometry":{"x":183992.58999999985,"y":2533826.25}},{"attributes":{"ID":315740,"DIS_CODE":0,"TOWNNAME":"關廟區","LI":"田中里","LIN":"4鄰","STREET":"南雄南路","SECT":" ","MAREA":" ","LANE":"５１５巷","ALLEY":" ","HOUSE_NO":"１５號","E_COORD97":184011.39000000001,"N_COORD97":2533867.25,"ADDRESS":"南雄南路５１５巷１５號","OBJECTID":315732},"geometry":{"x":184011.3900000006,"y":2533867.25}},{"attributes":{"ID":315741,"DIS_CODE":0,"TOWNNAME":"關廟區","LI":"深坑里","LIN":"4鄰","STREET":"深坑一街","SECT":" ","MAREA":" ","LANE":"３１巷","ALLEY":" ","HOUSE_NO":"２號","E_COORD97":181963.87,"N_COORD97":2537601.2999999998,"ADDRESS":"深坑一街３１巷２號","OBJECTID":315733},"geometry":{"x":181963.86999999918,"y":2537601.3000000007}},{"attributes":{"ID":315742,"DIS_CODE":0,"TOWNNAME":"南區","LI":"國宅里","LIN":"7鄰","STREET":"金華路","SECT":"二段","MAREA":" ","LANE":"３９巷","ALLEY":" ","HOUSE_NO":"８號","E_COORD97":167040.09,"N_COORD97":2542012.8599999999,"ADDRESS":"金華路二段３９巷８號","OBJECTID":315734},"geometry":{"x":167040.09000000078,"y":2542012.8599999994}},{"attributes":{"ID":315743,"DIS_CODE":0,"TOWNNAME":"南區","LI":"國宅里","LIN":"7鄰","STREET":"金華路","SECT":"二段","MAREA":" ","LANE":"３９巷","ALLEY":" ","HOUSE_NO":"９號","E_COORD97":167034.85000000001,"N_COORD97":2541998.0800000001,"ADDRESS":"金華路二段３９巷９號","OBJECTID":315735},"geometry":{"x":167034.85000000056,"y":2541998.0800000001}},{"attributes":{"ID":315744,"DIS_CODE":0,"TOWNNAME":"南區","LI":"國宅里","LIN":"7鄰","STREET":"金華路","SECT":"二段","MAREA":" ","LANE":"３９巷","ALLEY":" ","HOUSE_NO":"１０號","E_COORD97":167035.22,"N_COORD97":2542013.4199999999,"ADDRESS":"金華路二段３９巷１０號","OBJECTID":315736},"geometry":{"x":167035.22000000067,"y":2542013.4199999999}},{"attributes":{"ID":315745,"DIS_CODE":0,"TOWNNAME":"南區","LI":"國宅里","LIN":"7鄰","STREET":"金華路","SECT":"二段","MAREA":" ","LANE":"３９巷","ALLEY":" ","HOUSE_NO":"１１號","E_COORD97":167029.42000000001,"N_COORD97":2541998.27,"ADDRESS":"金華路二段３９巷１１號","OBJECTID":315737},"geometry":{"x":167029.42000000086,"y":2541998.2700000014}},{"attributes":{"ID":315746,"DIS_CODE":0,"TOWNNAME":"南區","LI":"國宅里","LIN":"7鄰","STREET":"金華路","SECT":"二段","MAREA":" ","LANE":"３９巷","ALLEY":" ","HOUSE_NO":"１２號","E_COORD97":167030.73000000001,"N_COORD97":2542013.79,"ADDRESS":"金華路二段３９巷１２號","OBJECTID":315738},"geometry":{"x":167030.73000000231,"y":2542013.7899999991}},{"attributes":{"ID":315747,"DIS_CODE":0,"TOWNNAME":"南區","LI":"國宅里","LIN":"7鄰","STREET":"金華路","SECT":"二段","MAREA":" ","LANE":"３９巷","ALLEY":" ","HOUSE_NO":"１３號","E_COORD97":167024.92000000001,"N_COORD97":2541999.02,"ADDRESS":"金華路二段３９巷１３號","OBJECTID":315739},"geometry":{"x":167024.91999999993,"y":2541999.0199999996}},{"attributes":{"ID":315748,"DIS_CODE":0,"TOWNNAME":"南區","LI":"國宅里","LIN":"7鄰","STREET":"金華路","SECT":"二段","MAREA":" ","LANE":"３９巷","ALLEY":" ","HOUSE_NO":"１５號","E_COORD97":167020.04999999999,"N_COORD97":2541998.8300000001,"ADDRESS":"金華路二段３９巷１５號","OBJECTID":315740},"geometry":{"x":167020.05000000075,"y":2541998.8300000019}},{"attributes":{"ID":315749,"DIS_CODE":0,"TOWNNAME":"南區","LI":"國宅里","LIN":"7鄰","STREET":"金華路","SECT":"二段","MAREA":" ","LANE":"３９巷","ALLEY":" ","HOUSE_NO":"１６號","E_COORD97":167020.79999999999,"N_COORD97":2542013.79,"ADDRESS":"金華路二段３９巷１６號","OBJECTID":315741},"geometry":{"x":167020.79999999981,"y":2542013.7899999991}},{"attributes":{"ID":315750,"DIS_CODE":0,"TOWNNAME":"南區","LI":"國宅里","LIN":"7鄰","STREET":"金華路","SECT":"二段","MAREA":" ","LANE":"３９巷","ALLEY":" ","HOUSE_NO":"１７號","E_COORD97":167015.17999999999,"N_COORD97":2541999.3900000001,"ADDRESS":"金華路二段３９巷１７號","OBJECTID":315742},"geometry":{"x":167015.18000000063,"y":2541999.3900000025}},{"attributes":{"ID":315751,"DIS_CODE":0,"TOWNNAME":"南區","LI":"國宅里","LIN":"7鄰","STREET":"金華路","SECT":"二段","MAREA":" ","LANE":"３９巷","ALLEY":" ","HOUSE_NO":"１８號","E_COORD97":167016.29999999999,"N_COORD97":2542013.79,"ADDRESS":"金華路二段３９巷１８號","OBJECTID":315743},"geometry":{"x":167016.30000000075,"y":2542013.7899999991}},{"attributes":{"ID":315752,"DIS_CODE":0,"TOWNNAME":"南區","LI":"國宅里","LIN":"7鄰","STREET":"金華路","SECT":"二段","MAREA":" ","LANE":"３９巷","ALLEY":" ","HOUSE_NO":"１９號","E_COORD97":167009.94,"N_COORD97":2541999.9500000002,"ADDRESS":"金華路二段３９巷１９號","OBJECTID":315744},"geometry":{"x":167009.94000000041,"y":2541999.950000003}},{"attributes":{"ID":315753,"DIS_CODE":0,"TOWNNAME":"南區","LI":"國宅里","LIN":"7鄰","STREET":"金華路","SECT":"二段","MAREA":" ","LANE":"３９巷","ALLEY":" ","HOUSE_NO":"２１號","E_COORD97":166997.20000000001,"N_COORD97":2542000.3300000001,"ADDRESS":"金華路二段３９巷２１號","OBJECTID":315745},"geometry":{"x":166997.20000000112,"y":2542000.3300000001}},{"attributes":{"ID":315754,"DIS_CODE":0,"TOWNNAME":"南區","LI":"國宅里","LIN":"7鄰","STREET":"金華路","SECT":"二段","MAREA":" ","LANE":"３９巷","ALLEY":" ","HOUSE_NO":"２２號","E_COORD97":166997.95000000001,"N_COORD97":2542014.1699999999,"ADDRESS":"金華路二段３９巷２２號","OBJECTID":315746},"geometry":{"x":166997.95000000019,"y":2542014.1700000018}},{"attributes":{"ID":315755,"DIS_CODE":0,"TOWNNAME":"南區","LI":"南都里","LIN":"17鄰","STREET":"南和路","SECT":" ","MAREA":" ","LANE":" ","ALLEY":" ","HOUSE_NO":"２７號","E_COORD97":166709.42000000001,"N_COORD97":2540092.5099999998,"ADDRESS":"南和路２７號","OBJECTID":315747},"geometry":{"x":166709.41999999993,"y":2540092.5100000016}},{"attributes":{"ID":315756,"DIS_CODE":0,"TOWNNAME":"南區","LI":"南都里","LIN":"17鄰","STREET":"南和路","SECT":" ","MAREA":" ","LANE":" ","ALLEY":" ","HOUSE_NO":"２９號","E_COORD97":166707.48999999999,"N_COORD97":2540088.6499999999,"ADDRESS":"南和路２９號","OBJECTID":315748},"geometry":{"x":166707.49000000022,"y":2540088.6500000022}},{"attributes":{"ID":315757,"DIS_CODE":0,"TOWNNAME":"南區","LI":"南都里","LIN":"17鄰","STREET":"南和路","SECT":" ","MAREA":" ","LANE":" ","ALLEY":" ","HOUSE_NO":"３１號","E_COORD97":166704.59,"N_COORD97":2540085.4300000002,"ADDRESS":"南和路３１號","OBJECTID":315749},"geometry":{"x":166704.59000000078,"y":2540085.4300000016}},{"attributes":{"ID":315758,"DIS_CODE":0,"TOWNNAME":"關廟區","LI":"東勢里","LIN":"25鄰","STREET":"光復街","SECT":" ","MAREA":" ","LANE":" ","ALLEY":" ","HOUSE_NO":"１５２號","E_COORD97":181508.379361,"N_COORD97":2539502.7041699998,"ADDRESS":"光復街１５２號","OBJECTID":315750},"geometry":{"x":181508.37936100177,"y":2539502.7041670028}},{"attributes":{"ID":315759,"DIS_CODE":0,"TOWNNAME":"關廟區","LI":"北勢里","LIN":"20鄰","STREET":"成功路","SECT":" ","MAREA":" ","LANE":"３２９巷","ALLEY":" ","HOUSE_NO":"１６號","E_COORD97":181305.01999999999,"N_COORD97":2540455.27,"ADDRESS":"成功路３２９巷１６號","OBJECTID":315751},"geometry":{"x":181305.02000000048,"y":2540455.2700000033}},{"attributes":{"ID":315760,"DIS_CODE":0,"TOWNNAME":"南區","LI":"國宅里","LIN":"7鄰","STREET":"金華路","SECT":"二段","MAREA":" ","LANE":"３９巷","ALLEY":" ","HOUSE_NO":"２３號","E_COORD97":166991.20000000001,"N_COORD97":2542001.2599999998,"ADDRESS":"金華路二段３９巷２３號","OBJECTID":315752},"geometry":{"x":166991.20000000019,"y":2542001.2599999998}},{"attributes":{"ID":315761,"DIS_CODE":0,"TOWNNAME":"南區","LI":"國宅里","LIN":"7鄰","STREET":"金華路","SECT":"二段","MAREA":" ","LANE":"３９巷","ALLEY":" ","HOUSE_NO":"２４號","E_COORD97":166992.70000000001,"N_COORD97":2542014.3599999999,"ADDRESS":"金華路二段３９巷２４號","OBJECTID":315753},"geometry":{"x":166992.70000000019,"y":2542014.3600000013}},{"attributes":{"ID":315762,"DIS_CODE":0,"TOWNNAME":"南區","LI":"國宅里","LIN":"7鄰","STREET":"金華路","SECT":"二段","MAREA":" ","LANE":"３９巷","ALLEY":" ","HOUSE_NO":"２５號","E_COORD97":166985.76999999999,"N_COORD97":2542001.4500000002,"ADDRESS":"金華路二段３９巷２５號","OBJECTID":315754},"geometry":{"x":166985.77000000048,"y":2542001.4499999993}},{"attributes":{"ID":315763,"DIS_CODE":0,"TOWNNAME":"南區","LI":"國宅里","LIN":"7鄰","STREET":"金華路","SECT":"二段","MAREA":" ","LANE":"３９巷","ALLEY":" ","HOUSE_NO":"２６號","E_COORD97":166987.45999999999,"N_COORD97":2542014.73,"ADDRESS":"金華路二段３９巷２６號","OBJECTID":315755},"geometry":{"x":166987.45999999996,"y":2542014.7300000004}},{"attributes":{"ID":315764,"DIS_CODE":0,"TOWNNAME":"南區","LI":"國宅里","LIN":"7鄰","STREET":"金華路","SECT":"二段","MAREA":" ","LANE":"３９巷","ALLEY":" ","HOUSE_NO":"２７號","E_COORD97":166981.09,"N_COORD97":2542002,"ADDRESS":"金華路二段３９巷２７號","OBJECTID":315756},"geometry":{"x":166981.08999999985,"y":2542002}},{"attributes":{"ID":315765,"DIS_CODE":0,"TOWNNAME":"南區","LI":"國宅里","LIN":"7鄰","STREET":"金華路","SECT":"二段","MAREA":" ","LANE":"３９巷","ALLEY":" ","HOUSE_NO":"２８號","E_COORD97":166982.59,"N_COORD97":2542015.48,"ADDRESS":"金華路二段３９巷２８號","OBJECTID":315757},"geometry":{"x":166982.59000000078,"y":2542015.4800000023}},{"attributes":{"ID":315766,"DIS_CODE":0,"TOWNNAME":"南區","LI":"國宅里","LIN":"7鄰","STREET":"金華路","SECT":"二段","MAREA":" ","LANE":"３９巷","ALLEY":" ","HOUSE_NO":"２９號","E_COORD97":166975.84,"N_COORD97":2542002,"ADDRESS":"金華路二段３９巷２９號","OBJECTID":315758},"geometry":{"x":166975.84000000078,"y":2542002}},{"attributes":{"ID":315767,"DIS_CODE":0,"TOWNNAME":"南區","LI":"國宅里","LIN":"7鄰","STREET":"金華路","SECT":"二段","MAREA":" ","LANE":"３９巷","ALLEY":" ","HOUSE_NO":"３０號","E_COORD97":166977.14999999999,"N_COORD97":2542015.6699999999,"ADDRESS":"金華路二段３９巷３０號","OBJECTID":315759},"geometry":{"x":166977.1500000013,"y":2542015.6699999981}},{"attributes":{"ID":315768,"DIS_CODE":0,"TOWNNAME":"南區","LI":"國宅里","LIN":"7鄰","STREET":"金華路","SECT":"二段","MAREA":" ","LANE":"３９巷","ALLEY":" ","HOUSE_NO":"３１號","E_COORD97":166970.60000000001,"N_COORD97":2542002.3799999999,"ADDRESS":"金華路二段３９巷３１號","OBJECTID":315760},"geometry":{"x":166970.59999999963,"y":2542002.379999999}},{"attributes":{"ID":315769,"DIS_CODE":0,"TOWNNAME":"南區","LI":"國宅里","LIN":"7鄰","STREET":"金華路","SECT":"二段","MAREA":" ","LANE":"３９巷","ALLEY":" ","HOUSE_NO":"３２號","E_COORD97":166972.66,"N_COORD97":2542015.6699999999,"ADDRESS":"金華路二段３９巷３２號","OBJECTID":315761},"geometry":{"x":166972.66000000015,"y":2542015.6699999981}},{"attributes":{"ID":315770,"DIS_CODE":0,"TOWNNAME":"南區","LI":"國宅里","LIN":"7鄰","STREET":"金華路","SECT":"二段","MAREA":" ","LANE":"３９巷","ALLEY":" ","HOUSE_NO":"３３號","E_COORD97":166965.54000000001,"N_COORD97":2542002.5699999998,"ADDRESS":"金華路二段３９巷３３號","OBJECTID":315762},"geometry":{"x":166965.5400000019,"y":2542002.5700000003}},{"attributes":{"ID":315771,"DIS_CODE":0,"TOWNNAME":"南區","LI":"國宅里","LIN":"7鄰","STREET":"金華路","SECT":"二段","MAREA":" ","LANE":"３９巷","ALLEY":" ","HOUSE_NO":"３４號","E_COORD97":166966.66,"N_COORD97":2542016.04,"ADDRESS":"金華路二段３９巷３４號","OBJECTID":315763},"geometry":{"x":166966.66000000108,"y":2542016.0400000028}},{"attributes":{"ID":315772,"DIS_CODE":0,"TOWNNAME":"南區","LI":"國宅里","LIN":"7鄰","STREET":"金華路","SECT":"二段","MAREA":" ","LANE":"３９巷","ALLEY":" ","HOUSE_NO":"３５號","E_COORD97":166960.48000000001,"N_COORD97":2542002.7599999998,"ADDRESS":"金華路二段３９巷３５號","OBJECTID":315764},"geometry":{"x":166960.48000000045,"y":2542002.7600000016}},{"attributes":{"ID":315773,"DIS_CODE":0,"TOWNNAME":"南區","LI":"國宅里","LIN":"7鄰","STREET":"金華路","SECT":"二段","MAREA":" ","LANE":"３９巷","ALLEY":" ","HOUSE_NO":"３６號","E_COORD97":166961.23000000001,"N_COORD97":2542016.79,"ADDRESS":"金華路二段３９巷３６號","OBJECTID":315765},"geometry":{"x":166961.23000000231,"y":2542016.7899999991}},{"attributes":{"ID":315774,"DIS_CODE":0,"TOWNNAME":"南區","LI":"南都里","LIN":"17鄰","STREET":"南和路","SECT":" ","MAREA":" ","LANE":" ","ALLEY":" ","HOUSE_NO":"３３號","E_COORD97":166692.34,"N_COORD97":2540078.3500000001,"ADDRESS":"南和路３３號","OBJECTID":315766},"geometry":{"x":166692.34000000078,"y":2540078.3500000034}},{"attributes":{"ID":315775,"DIS_CODE":0,"TOWNNAME":"南區","LI":"南都里","LIN":"17鄰","STREET":"南和路","SECT":" ","MAREA":" ","LANE":" ","ALLEY":" ","HOUSE_NO":"３５號","E_COORD97":166688.47,"N_COORD97":2540074.48,"ADDRESS":"南和路３５號","OBJECTID":315767},"geometry":{"x":166688.46999999974,"y":2540074.4800000004}},{"attributes":{"ID":315776,"DIS_CODE":0,"TOWNNAME":"關廟區","LI":"香洋里","LIN":"20鄰","STREET":"中山路","SECT":"一段","MAREA":" ","LANE":"４４２巷","ALLEY":" ","HOUSE_NO":"５號","E_COORD97":181444.35999999999,"N_COORD97":2539921.2799999998,"ADDRESS":"中山路一段４４２巷５號","OBJECTID":315768},"geometry":{"x":181444.36000000127,"y":2539921.2799999993}},{"attributes":{"ID":315777,"DIS_CODE":0,"TOWNNAME":"關廟區","LI":"松腳里","LIN":"4鄰","STREET":"旺萊路","SECT":" ","MAREA":" ","LANE":"３４３巷","ALLEY":" ","HOUSE_NO":"１０號","E_COORD97":182089.59,"N_COORD97":2539761.25,"ADDRESS":"旺萊路３４３巷１０號","OBJECTID":315769},"geometry":{"x":182089.59000000078,"y":2539761.2500000019}},{"attributes":{"ID":315778,"DIS_CODE":0,"TOWNNAME":"南區","LI":"國宅里","LIN":"7鄰","STREET":"金華路","SECT":"二段","MAREA":" ","LANE":"３９巷","ALLEY":" ","HOUSE_NO":"３７號","E_COORD97":166954.67000000001,"N_COORD97":2542003.3199999998,"ADDRESS":"金華路二段３９巷３７號","OBJECTID":315770},"geometry":{"x":166954.67000000086,"y":2542003.3200000022}},{"attributes":{"ID":315779,"DIS_CODE":0,"TOWNNAME":"南區","LI":"國宅里","LIN":"7鄰","STREET":"金華路","SECT":"二段","MAREA":" ","LANE":"３９巷","ALLEY":" ","HOUSE_NO":"３８號","E_COORD97":166955.79999999999,"N_COORD97":2542016.98,"ADDRESS":"金華路二段３９巷３８號","OBJECTID":315771},"geometry":{"x":166955.79999999981,"y":2542016.9800000004}},{"attributes":{"ID":315780,"DIS_CODE":0,"TOWNNAME":"南區","LI":"喜北里","LIN":"7鄰","STREET":"喜樹路","SECT":" ","MAREA":" ","LANE":"９６巷","ALLEY":" ","HOUSE_NO":"１號","E_COORD97":165849.13,"N_COORD97":2538395.8700000001,"ADDRESS":"喜樹路９６巷１號","OBJECTID":315772},"geometry":{"x":165849.12999999896,"y":2538395.8700000029}},{"attributes":{"ID":315781,"DIS_CODE":0,"TOWNNAME":"南區","LI":"喜北里","LIN":"7鄰","STREET":"喜樹路","SECT":" ","MAREA":" ","LANE":"９６巷","ALLEY":" ","HOUSE_NO":"３號","E_COORD97":165843,"N_COORD97":2538395.6800000002,"ADDRESS":"喜樹路９６巷３號","OBJECTID":315773},"geometry":{"x":165843,"y":2538395.6800000016}},{"attributes":{"ID":315782,"DIS_CODE":0,"TOWNNAME":"南區","LI":"喜北里","LIN":"7鄰","STREET":"喜樹路","SECT":" ","MAREA":" ","LANE":"９６巷","ALLEY":" ","HOUSE_NO":"５號","E_COORD97":165837.57000000001,"N_COORD97":2538395.6800000002,"ADDRESS":"喜樹路９６巷５號","OBJECTID":315774},"geometry":{"x":165837.5700000003,"y":2538395.6800000016}},{"attributes":{"ID":315783,"DIS_CODE":0,"TOWNNAME":"南區","LI":"喜北里","LIN":"7鄰","STREET":"喜樹路","SECT":" ","MAREA":" ","LANE":"９６巷","ALLEY":" ","HOUSE_NO":"７號","E_COORD97":165832.32000000001,"N_COORD97":2538395.6800000002,"ADDRESS":"喜樹路９６巷７號","OBJECTID":315775},"geometry":{"x":165832.3200000003,"y":2538395.6800000016}},{"attributes":{"ID":315784,"DIS_CODE":0,"TOWNNAME":"南區","LI":"喜北里","LIN":"7鄰","STREET":"喜樹路","SECT":" ","MAREA":" ","LANE":"９６巷","ALLEY":" ","HOUSE_NO":"９號","E_COORD97":165827.14000000001,"N_COORD97":2538395.9399999999,"ADDRESS":"喜樹路９６巷９號","OBJECTID":315776},"geometry":{"x":165827.1400000006,"y":2538395.9400000032}},{"attributes":{"ID":315785,"DIS_CODE":0,"TOWNNAME":"南區","LI":"喜北里","LIN":"7鄰","STREET":"喜樹路","SECT":" ","MAREA":" ","LANE":"９６巷","ALLEY":" ","HOUSE_NO":"１１號","E_COORD97":165821.64999999999,"N_COORD97":2538395.9399999999,"ADDRESS":"喜樹路９６巷１１號","OBJECTID":315777},"geometry":{"x":165821.65000000037,"y":2538395.9400000032}},{"attributes":{"ID":315786,"DIS_CODE":0,"TOWNNAME":"南區","LI":"喜北里","LIN":"7鄰","STREET":"喜樹路","SECT":" ","MAREA":" ","LANE":"９６巷","ALLEY":" ","HOUSE_NO":"１３號","E_COORD97":165816.28,"N_COORD97":2538395.8100000001,"ADDRESS":"喜樹路９６巷１３號","OBJECTID":315778},"geometry":{"x":165816.27999999933,"y":2538395.8100000024}},{"attributes":{"ID":315787,"DIS_CODE":0,"TOWNNAME":"南區","LI":"喜北里","LIN":"7鄰","STREET":"喜樹路","SECT":" ","MAREA":" ","LANE":"９６巷","ALLEY":" ","HOUSE_NO":"１５號","E_COORD97":165809.89000000001,"N_COORD97":2538395.6800000002,"ADDRESS":"喜樹路９６巷１５號","OBJECTID":315779},"geometry":{"x":165809.89000000153,"y":2538395.6800000016}},{"attributes":{"ID":315788,"DIS_CODE":0,"TOWNNAME":"南區","LI":"喜北里","LIN":"7鄰","STREET":"喜樹路","SECT":" ","MAREA":" ","LANE":"９６巷","ALLEY":" ","HOUSE_NO":"１７號","E_COORD97":165797.45999999999,"N_COORD97":2538395.5499999998,"ADDRESS":"喜樹路９６巷１７號","OBJECTID":315780},"geometry":{"x":165797.45999999996,"y":2538395.5500000007}},{"attributes":{"ID":315789,"DIS_CODE":0,"TOWNNAME":"南區","LI":"喜北里","LIN":"7鄰","STREET":"喜樹路","SECT":" ","MAREA":" ","LANE":"９６巷","ALLEY":" ","HOUSE_NO":"１９號","E_COORD97":165792.29999999999,"N_COORD97":2538395.6800000002,"ADDRESS":"喜樹路９６巷１９號","OBJECTID":315781},"geometry":{"x":165792.30000000075,"y":2538395.6800000016}},{"attributes":{"ID":315790,"DIS_CODE":0,"TOWNNAME":"南區","LI":"喜北里","LIN":"7鄰","STREET":"喜樹路","SECT":" ","MAREA":" ","LANE":"９６巷","ALLEY":" ","HOUSE_NO":"２１號","E_COORD97":165786.54000000001,"N_COORD97":2538395.75,"ADDRESS":"喜樹路９６巷２１號","OBJECTID":315782},"geometry":{"x":165786.54000000004,"y":2538395.7500000019}},{"attributes":{"ID":315791,"DIS_CODE":0,"TOWNNAME":"南區","LI":"喜北里","LIN":"7鄰","STREET":"喜樹路","SECT":" ","MAREA":" ","LANE":"９６巷","ALLEY":" ","HOUSE_NO":"２３號","E_COORD97":165781.32000000001,"N_COORD97":2538395.8799999999,"ADDRESS":"喜樹路９６巷２３號","OBJECTID":315783},"geometry":{"x":165781.32000000123,"y":2538395.8800000027}},{"attributes":{"ID":315792,"DIS_CODE":0,"TOWNNAME":"南區","LI":"南都里","LIN":"17鄰","STREET":"南和路","SECT":" ","MAREA":" ","LANE":" ","ALLEY":" ","HOUSE_NO":"３７號","E_COORD97":166684.60000000001,"N_COORD97":2540072.23,"ADDRESS":"南和路３７號","OBJECTID":315784},"geometry":{"x":166684.59999999963,"y":2540072.2300000004}},{"attributes":{"ID":315793,"DIS_CODE":0,"TOWNNAME":"南區","LI":"南都里","LIN":"17鄰","STREET":"南和路","SECT":" ","MAREA":" ","LANE":" ","ALLEY":" ","HOUSE_NO":"３９號","E_COORD97":166681.38,"N_COORD97":2540069.3300000001,"ADDRESS":"南和路３９號","OBJECTID":315785},"geometry":{"x":166681.37999999989,"y":2540069.3300000019}},{"attributes":{"ID":315794,"DIS_CODE":0,"TOWNNAME":"六甲區","LI":"中社里","LIN":"1鄰","STREET":" ","SECT":" ","MAREA":"中社","LANE":" ","ALLEY":" ","HOUSE_NO":"８之１７號","E_COORD97":181165.68033800001,"N_COORD97":2569796.31807,"ADDRESS":"中社８之１７號","OBJECTID":315786},"geometry":{"x":181165.68033799995,"y":2569796.3180680033}},{"attributes":{"ID":315795,"DIS_CODE":0,"TOWNNAME":"關廟區","LI":"埤頭里","LIN":"4鄰","STREET":"保東路","SECT":" ","MAREA":" ","LANE":"１１５巷","ALLEY":" ","HOUSE_NO":"１３０號","E_COORD97":178790.32000000001,"N_COORD97":2543922.2999999998,"ADDRESS":"保東路１１５巷１３０號","OBJECTID":315787},"geometry":{"x":178790.3200000003,"y":2543922.3000000026}},{"attributes":{"ID":315796,"DIS_CODE":0,"TOWNNAME":"關廟區","LI":"田中里","LIN":"4鄰","STREET":"南雄南路","SECT":" ","MAREA":" ","LANE":"５１５巷","ALLEY":" ","HOUSE_NO":"１１號","E_COORD97":184016.79000000001,"N_COORD97":2533879.25,"ADDRESS":"南雄南路５１５巷１１號","OBJECTID":315788},"geometry":{"x":184016.79000000004,"y":2533879.2500000019}},{"attributes":{"ID":315797,"DIS_CODE":0,"TOWNNAME":"南區","LI":"喜北里","LIN":"7鄰","STREET":"喜樹路","SECT":" ","MAREA":" ","LANE":"９６巷","ALLEY":" ","HOUSE_NO":"２５號","E_COORD97":165775.87,"N_COORD97":2538395.9399999999,"ADDRESS":"喜樹路９６巷２５號","OBJECTID":315789},"geometry":{"x":165775.87000000011,"y":2538395.9400000032}},{"attributes":{"ID":315798,"DIS_CODE":0,"TOWNNAME":"歸仁區","LI":"後市里","LIN":"40鄰","STREET":"中山路","SECT":"二段","MAREA":" ","LANE":" ","ALLEY":" ","HOUSE_NO":"２４６號","E_COORD97":176996.38920199999,"N_COORD97":2540883.5853900001,"ADDRESS":"中山路二段２４６號","OBJECTID":315790},"geometry":{"x":176996.38920200057,"y":2540883.5853860006}},{"attributes":{"ID":315799,"DIS_CODE":0,"TOWNNAME":"南區","LI":"喜北里","LIN":"7鄰","STREET":"喜樹路","SECT":" ","MAREA":" ","LANE":"９６巷","ALLEY":" ","HOUSE_NO":"２７號","E_COORD97":165769.98999999999,"N_COORD97":2538396.21,"ADDRESS":"喜樹路９６巷２７號","OBJECTID":315791},"geometry":{"x":165769.99000000115,"y":2538396.2100000028}},{"attributes":{"ID":315800,"DIS_CODE":0,"TOWNNAME":"南區","LI":"喜北里","LIN":"7鄰","STREET":"喜樹路","SECT":" ","MAREA":" ","LANE":"９６巷","ALLEY":" ","HOUSE_NO":"２９號","E_COORD97":165764.5,"N_COORD97":2538396.21,"ADDRESS":"喜樹路９６巷２９號","OBJECTID":315792},"geometry":{"x":165764.50000000093,"y":2538396.2100000028}},{"attributes":{"ID":315801,"DIS_CODE":0,"TOWNNAME":"南區","LI":"喜北里","LIN":"7鄰","STREET":"喜樹路","SECT":" ","MAREA":" ","LANE":"９６巷","ALLEY":" ","HOUSE_NO":"３１號","E_COORD97":165759.26999999999,"N_COORD97":2538396.4700000002,"ADDRESS":"喜樹路９６巷３１號","OBJECTID":315793},"geometry":{"x":165759.26999999955,"y":2538396.4700000007}},{"attributes":{"ID":315802,"DIS_CODE":0,"TOWNNAME":"南區","LI":"喜北里","LIN":"7鄰","STREET":"喜樹路","SECT":" ","MAREA":" ","LANE":"９６巷","ALLEY":" ","HOUSE_NO":"３３號","E_COORD97":165753.32000000001,"N_COORD97":2538396.54,"ADDRESS":"喜樹路９６巷３３號","OBJECTID":315794},"geometry":{"x":165753.31999999937,"y":2538396.540000001}},{"attributes":{"ID":315803,"DIS_CODE":0,"TOWNNAME":"南區","LI":"喜北里","LIN":"7鄰","STREET":"喜樹路","SECT":" ","MAREA":" ","LANE":"９６巷","ALLEY":" ","HOUSE_NO":"３５號","E_COORD97":165748.03,"N_COORD97":2538396.6000000001,"ADDRESS":"喜樹路９６巷３５號","OBJECTID":315795},"geometry":{"x":165748.03000000026,"y":2538396.6000000015}},{"attributes":{"ID":315804,"DIS_CODE":0,"TOWNNAME":"南區","LI":"喜北里","LIN":"7鄰","STREET":"喜樹路","SECT":" ","MAREA":" ","LANE":"９６巷","ALLEY":" ","HOUSE_NO":"３７號","E_COORD97":165742.01000000001,"N_COORD97":2538396.6699999999,"ADDRESS":"喜樹路９６巷３７號","OBJECTID":315796},"geometry":{"x":165742.01000000071,"y":2538396.6700000018}},{"attributes":{"ID":315805,"DIS_CODE":0,"TOWNNAME":"南區","LI":"喜北里","LIN":"7鄰","STREET":"喜樹路","SECT":" ","MAREA":" ","LANE":"９６巷","ALLEY":" ","HOUSE_NO":"３９號","E_COORD97":165736.39000000001,"N_COORD97":2538396.73,"ADDRESS":"喜樹路９６巷３９號","OBJECTID":315797},"geometry":{"x":165736.38999999966,"y":2538396.7300000023}},{"attributes":{"ID":315806,"DIS_CODE":0,"TOWNNAME":"南區","LI":"喜北里","LIN":"7鄰","STREET":"喜樹路","SECT":" ","MAREA":" ","LANE":"９６巷","ALLEY":" ","HOUSE_NO":"４１號","E_COORD97":165731.5,"N_COORD97":2538396.8700000001,"ADDRESS":"喜樹路９６巷４１號","OBJECTID":315798},"geometry":{"x":165731.50000000186,"y":2538396.870000001}},{"attributes":{"ID":315807,"DIS_CODE":0,"TOWNNAME":"南區","LI":"喜北里","LIN":"7鄰","STREET":"喜樹路","SECT":" ","MAREA":" ","LANE":"９６巷","ALLEY":" ","HOUSE_NO":"４３號","E_COORD97":165725.54999999999,"N_COORD97":2538396.8700000001,"ADDRESS":"喜樹路９６巷４３號","OBJECTID":315799},"geometry":{"x":165725.54999999981,"y":2538396.870000001}},{"attributes":{"ID":315808,"DIS_CODE":0,"TOWNNAME":"南區","LI":"喜北里","LIN":"7鄰","STREET":"喜樹路","SECT":" ","MAREA":" ","LANE":"１０４巷","ALLEY":" ","HOUSE_NO":"２號","E_COORD97":165855.85999999999,"N_COORD97":2538382.6400000001,"ADDRESS":"喜樹路１０４巷２號","OBJECTID":315800},"geometry":{"x":165855.86000000034,"y":2538382.6400000025}}]}