{"displayFieldName":"TOWNNAME","fieldAliases":{"ID":"ID","DIS_CODE":"DIS_CODE","TOWNNAME":"TOWNNAME","LI":"LI","LIN":"LIN","STREET":"STREET","SECT":"SECT","MAREA":"MAREA","LANE":"LANE","ALLEY":"ALLEY","HOUSE_NO":"HOUSE_NO","E_COORD97":"E_COORD97","N_COORD97":"N_COORD97","ADDRESS":"ADDRESS","OBJECTID":"OBJECTID"},"geometryType":"esriGeometryPoint","spatialReference":{"wkid":102443,"latestWkid":3826},"fields":[{"name":"ID","type":"esriFieldTypeDouble","alias":"ID"},{"name":"DIS_CODE","type":"esriFieldTypeInteger","alias":"DIS_CODE"},{"name":"TOWNNAME","type":"esriFieldTypeString","alias":"TOWNNAME","length":8},{"name":"LI","type":"esriFieldTypeString","alias":"LI","length":8},{"name":"LIN","type":"esriFieldTypeString","alias":"LIN","length":12},{"name":"STREET","type":"esriFieldTypeString","alias":"STREET","length":20},{"name":"SECT","type":"esriFieldTypeString","alias":"SECT","length":8},{"name":"MAREA","type":"esriFieldTypeString","alias":"MAREA","length":12},{"name":"LANE","type":"esriFieldTypeString","alias":"LANE","length":10},{"name":"ALLEY","type":"esriFieldTypeString","alias":"ALLEY","length":10},{"name":"HOUSE_NO","type":"esriFieldTypeString","alias":"HOUSE_NO","length":20},{"name":"E_COORD97","type":"esriFieldTypeDouble","alias":"E_COORD97"},{"name":"N_COORD97","type":"esriFieldTypeDouble","alias":"N_COORD97"},{"name":"ADDRESS","type":"esriFieldTypeString","alias":"ADDRESS","length":50},{"name":"OBJECTID","type":"esriFieldTypeOID","alias":"OBJECTID"}],"features":[{"attributes":{"ID":637628,"DIS_CODE":0,"TOWNNAME":"安南區","LI":"公\u25A0里","LIN":"4鄰","STREET":"安興街","SECT":" ","MAREA":" ","LANE":" ","ALLEY":" ","HOUSE_NO":"９９號","E_COORD97":164230.92000000001,"N_COORD97":2552178.8100000001,"ADDRESS":"安興街９９號","OBJECTID":637601},"geometry":{"x":164230.91999999993,"y":2552178.8100000005}},{"attributes":{"ID":637629,"DIS_CODE":0,"TOWNNAME":"安南區","LI":"淵中里","LIN":"1鄰","STREET":"安中路","SECT":"三段","MAREA":" ","LANE":" ","ALLEY":" ","HOUSE_NO":"３７３號","E_COORD97":165521.37,"N_COORD97":2549919.3900000001,"ADDRESS":"安中路三段３７３號","OBJECTID":637602},"geometry":{"x":165521.37000000104,"y":2549919.3900000025}},{"attributes":{"ID":637630,"DIS_CODE":0,"TOWNNAME":"安南區","LI":"溪心里","LIN":"11鄰","STREET":"仁安八街","SECT":" ","MAREA":" ","LANE":" ","ALLEY":" ","HOUSE_NO":"６１號","E_COORD97":166294.57000000001,"N_COORD97":2549967.9300000002,"ADDRESS":"仁安八街６１號","OBJECTID":637603},"geometry":{"x":166294.57000000123,"y":2549967.9300000034}},{"attributes":{"ID":637631,"DIS_CODE":0,"TOWNNAME":"中西區","LI":"保安里","LIN":"4鄰","STREET":"保安路","SECT":" ","MAREA":" ","LANE":" ","ALLEY":" ","HOUSE_NO":"４５號","E_COORD97":167626.39999999999,"N_COORD97":2543422.0299999998,"ADDRESS":"保安路４５號","OBJECTID":637604},"geometry":{"x":167626.4000000013,"y":2543422.0299999993}},{"attributes":{"ID":637632,"DIS_CODE":0,"TOWNNAME":"安南區","LI":"溪心里","LIN":"5鄰","STREET":"本原街","SECT":"二段","MAREA":" ","LANE":" ","ALLEY":" ","HOUSE_NO":"１１７號之１１","E_COORD97":166736.01000000001,"N_COORD97":2550646.9199999999,"ADDRESS":"本原街二段１１７號之１１","OBJECTID":637605},"geometry":{"x":166736.00999999978,"y":2550646.9200000018}},{"attributes":{"ID":637633,"DIS_CODE":0,"TOWNNAME":"安南區","LI":"安慶里","LIN":"14鄰","STREET":"安中路","SECT":"一段","MAREA":" ","LANE":" ","ALLEY":" ","HOUSE_NO":"７９號","E_COORD97":169088.78,"N_COORD97":2548276.3799999999,"ADDRESS":"安中路一段７９號","OBJECTID":637606},"geometry":{"x":169088.78000000119,"y":2548276.3800000008}},{"attributes":{"ID":637634,"DIS_CODE":0,"TOWNNAME":"安南區","LI":"安慶里","LIN":"14鄰","STREET":"安中路","SECT":"一段","MAREA":" ","LANE":" ","ALLEY":" ","HOUSE_NO":"７９號之１","E_COORD97":169082.38,"N_COORD97":2548277.48,"ADDRESS":"安中路一段７９號之１","OBJECTID":637607},"geometry":{"x":169082.38000000082,"y":2548277.4800000023}},{"attributes":{"ID":637635,"DIS_CODE":0,"TOWNNAME":"安南區","LI":"州南里","LIN":"4鄰","STREET":"安和路","SECT":"四段","MAREA":" ","LANE":" ","ALLEY":" ","HOUSE_NO":"４７９號之１","E_COORD97":169915.76000000001,"N_COORD97":2551207.23,"ADDRESS":"安和路四段４７９號之１","OBJECTID":637608},"geometry":{"x":169915.76000000071,"y":2551207.2299999986}},{"attributes":{"ID":637636,"DIS_CODE":0,"TOWNNAME":"安南區","LI":"州南里","LIN":"4鄰","STREET":"安和路","SECT":"四段","MAREA":" ","LANE":" ","ALLEY":" ","HOUSE_NO":"４７９號之２","E_COORD97":169916.95000000001,"N_COORD97":2551211.1899999999,"ADDRESS":"安和路四段４７９號之２","OBJECTID":637609},"geometry":{"x":169916.95000000019,"y":2551211.1900000013}},{"attributes":{"ID":637637,"DIS_CODE":0,"TOWNNAME":"安南區","LI":"理想里","LIN":"1鄰","STREET":"同安路","SECT":" ","MAREA":" ","LANE":" ","ALLEY":" ","HOUSE_NO":"６２號","E_COORD97":166899.57999999999,"N_COORD97":2548878.0699999998,"ADDRESS":"同安路６２號","OBJECTID":637610},"geometry":{"x":166899.58000000101,"y":2548878.0700000003}},{"attributes":{"ID":637638,"DIS_CODE":0,"TOWNNAME":"安南區","LI":"理想里","LIN":"1鄰","STREET":"同安路","SECT":" ","MAREA":" ","LANE":" ","ALLEY":" ","HOUSE_NO":"６４號","E_COORD97":166903.73999999999,"N_COORD97":2548880.9100000001,"ADDRESS":"同安路６４號","OBJECTID":637611},"geometry":{"x":166903.74000000115,"y":2548880.910000002}},{"attributes":{"ID":637639,"DIS_CODE":0,"TOWNNAME":"安南區","LI":"安順里","LIN":"1鄰","STREET":"總安街","SECT":"一段","MAREA":" ","LANE":" ","ALLEY":" ","HOUSE_NO":"３７號","E_COORD97":169857.76999999999,"N_COORD97":2550092.2799999998,"ADDRESS":"總安街一段３７號","OBJECTID":637612},"geometry":{"x":169857.77000000048,"y":2550092.2799999993}},{"attributes":{"ID":637640,"DIS_CODE":0,"TOWNNAME":"安南區","LI":"溪心里","LIN":"3鄰","STREET":"海佃路","SECT":"三段","MAREA":" ","LANE":" ","ALLEY":" ","HOUSE_NO":"４６號","E_COORD97":166328.23000000001,"N_COORD97":2549838.1499999999,"ADDRESS":"海佃路三段４６號","OBJECTID":637613},"geometry":{"x":166328.23000000045,"y":2549838.1500000041}},{"attributes":{"ID":637641,"DIS_CODE":0,"TOWNNAME":"中西區","LI":"保安里","LIN":"4鄰","STREET":"保安路","SECT":" ","MAREA":" ","LANE":" ","ALLEY":" ","HOUSE_NO":"４７號","E_COORD97":167623.70000000001,"N_COORD97":2543423.7200000002,"ADDRESS":"保安路４７號","OBJECTID":637614},"geometry":{"x":167623.70000000019,"y":2543423.7200000025}},{"attributes":{"ID":637642,"DIS_CODE":0,"TOWNNAME":"安南區","LI":"原佃里","LIN":"5鄰","STREET":"本原街","SECT":"一段","MAREA":" ","LANE":" ","ALLEY":" ","HOUSE_NO":"１８６號","E_COORD97":167803.20000000001,"N_COORD97":2550224.1400000001,"ADDRESS":"本原街一段１８６號","OBJECTID":637615},"geometry":{"x":167803.20000000019,"y":2550224.1400000006}},{"attributes":{"ID":637643,"DIS_CODE":0,"TOWNNAME":"中西區","LI":"三合里","LIN":"16鄰","STREET":"文賢路","SECT":" ","MAREA":" ","LANE":" ","ALLEY":" ","HOUSE_NO":"１０６號","E_COORD97":167437.64000000001,"N_COORD97":2544669.5699999998,"ADDRESS":"文賢路１０６號","OBJECTID":637616},"geometry":{"x":167437.6400000006,"y":2544669.5700000022}},{"attributes":{"ID":637644,"DIS_CODE":0,"TOWNNAME":"中西區","LI":"保安里","LIN":"4鄰","STREET":"保安路","SECT":" ","MAREA":" ","LANE":" ","ALLEY":" ","HOUSE_NO":"４９號","E_COORD97":167618.16,"N_COORD97":2543426.9300000002,"ADDRESS":"保安路４９號","OBJECTID":637617},"geometry":{"x":167618.16000000108,"y":2543426.9299999997}},{"attributes":{"ID":637645,"DIS_CODE":0,"TOWNNAME":"中西區","LI":"三合里","LIN":"14鄰","STREET":"金華路","SECT":"四段","MAREA":" ","LANE":" ","ALLEY":" ","HOUSE_NO":"１３７號","E_COORD97":167532.10000000001,"N_COORD97":2544575.8100000001,"ADDRESS":"金華路四段１３７號","OBJECTID":637618},"geometry":{"x":167532.09999999963,"y":2544575.8100000024}},{"attributes":{"ID":637646,"DIS_CODE":0,"TOWNNAME":"東區","LI":"崇文里","LIN":"4鄰","STREET":"崇德十六街","SECT":" ","MAREA":" ","LANE":" ","ALLEY":" ","HOUSE_NO":"５０號","E_COORD97":170940.35999999999,"N_COORD97":2541118.9100000001,"ADDRESS":"崇德十六街５０號","OBJECTID":637619},"geometry":{"x":170940.3599999994,"y":2541118.9100000001}},{"attributes":{"ID":637647,"DIS_CODE":0,"TOWNNAME":"東區","LI":"崇文里","LIN":"4鄰","STREET":"崇德十六街","SECT":" ","MAREA":" ","LANE":" ","ALLEY":" ","HOUSE_NO":"５２號","E_COORD97":170944.64000000001,"N_COORD97":2541118.8100000001,"ADDRESS":"崇德十六街５２號","OBJECTID":637620},"geometry":{"x":170944.64000000153,"y":2541118.8100000024}},{"attributes":{"ID":637648,"DIS_CODE":0,"TOWNNAME":"東區","LI":"崇文里","LIN":"4鄰","STREET":"崇德十六街","SECT":" ","MAREA":" ","LANE":" ","ALLEY":" ","HOUSE_NO":"５４號","E_COORD97":170948.42000000001,"N_COORD97":2541118.8100000001,"ADDRESS":"崇德十六街５４號","OBJECTID":637621},"geometry":{"x":170948.42000000086,"y":2541118.8100000024}},{"attributes":{"ID":637649,"DIS_CODE":0,"TOWNNAME":"東區","LI":"崇文里","LIN":"4鄰","STREET":"崇德十六街","SECT":" ","MAREA":" ","LANE":" ","ALLEY":" ","HOUSE_NO":"５６號","E_COORD97":170952.29999999999,"N_COORD97":2541118.71,"ADDRESS":"崇德十六街５６號","OBJECTID":637622},"geometry":{"x":170952.30000000168,"y":2541118.7100000028}},{"attributes":{"ID":637650,"DIS_CODE":0,"TOWNNAME":"東區","LI":"崇文里","LIN":"4鄰","STREET":"崇德十六街","SECT":" ","MAREA":" ","LANE":" ","ALLEY":" ","HOUSE_NO":"５８號","E_COORD97":170956.78,"N_COORD97":2541118.71,"ADDRESS":"崇德十六街５８號","OBJECTID":637623},"geometry":{"x":170956.78000000119,"y":2541118.7100000028}},{"attributes":{"ID":637651,"DIS_CODE":0,"TOWNNAME":"東區","LI":"崇文里","LIN":"4鄰","STREET":"崇德十六街","SECT":" ","MAREA":" ","LANE":" ","ALLEY":" ","HOUSE_NO":"７２號","E_COORD97":170998.47,"N_COORD97":2541115.6000000001,"ADDRESS":"崇德十六街７２號","OBJECTID":637624},"geometry":{"x":170998.4700000016,"y":2541115.6000000015}},{"attributes":{"ID":637652,"DIS_CODE":0,"TOWNNAME":"東區","LI":"崇文里","LIN":"4鄰","STREET":"崇德十六街","SECT":" ","MAREA":" ","LANE":" ","ALLEY":" ","HOUSE_NO":"７４號","E_COORD97":171002.95000000001,"N_COORD97":2541115.6000000001,"ADDRESS":"崇德十六街７４號","OBJECTID":637625},"geometry":{"x":171002.95000000112,"y":2541115.6000000015}},{"attributes":{"ID":637653,"DIS_CODE":0,"TOWNNAME":"東區","LI":"崇文里","LIN":"4鄰","STREET":"崇德十六街","SECT":" ","MAREA":" ","LANE":" ","ALLEY":" ","HOUSE_NO":"７６號","E_COORD97":171006.82999999999,"N_COORD97":2541115.6000000001,"ADDRESS":"崇德十六街７６號","OBJECTID":637626},"geometry":{"x":171006.83000000101,"y":2541115.6000000015}},{"attributes":{"ID":637654,"DIS_CODE":0,"TOWNNAME":"東區","LI":"崇文里","LIN":"4鄰","STREET":"崇德十六街","SECT":" ","MAREA":" ","LANE":" ","ALLEY":" ","HOUSE_NO":"７８號","E_COORD97":171011.60999999999,"N_COORD97":2541115.6000000001,"ADDRESS":"崇德十六街７８號","OBJECTID":637627},"geometry":{"x":171011.6100000022,"y":2541115.6000000015}},{"attributes":{"ID":637655,"DIS_CODE":0,"TOWNNAME":"東區","LI":"崇文里","LIN":"4鄰","STREET":"崇德十六街","SECT":" ","MAREA":" ","LANE":" ","ALLEY":" ","HOUSE_NO":"８０號","E_COORD97":171015.98999999999,"N_COORD97":2541115.8999999999,"ADDRESS":"崇德十六街８０號","OBJECTID":637628},"geometry":{"x":171015.99000000115,"y":2541115.9000000004}},{"attributes":{"ID":637656,"DIS_CODE":0,"TOWNNAME":"東區","LI":"崇文里","LIN":"4鄰","STREET":"崇德十六街","SECT":" ","MAREA":" ","LANE":" ","ALLEY":" ","HOUSE_NO":"８２號","E_COORD97":171020.17000000001,"N_COORD97":2541116,"ADDRESS":"崇德十六街８２號","OBJECTID":637629},"geometry":{"x":171020.16999999993,"y":2541116.0000000019}},{"attributes":{"ID":637657,"DIS_CODE":0,"TOWNNAME":"東區","LI":"崇文里","LIN":"3鄰","STREET":"崇德十六街","SECT":" ","MAREA":" ","LANE":" ","ALLEY":" ","HOUSE_NO":"５１號","E_COORD97":170961.38,"N_COORD97":2541143.1499999999,"ADDRESS":"崇德十六街５１號","OBJECTID":637630},"geometry":{"x":170961.37999999989,"y":2541143.1500000022}},{"attributes":{"ID":637658,"DIS_CODE":0,"TOWNNAME":"東區","LI":"崇文里","LIN":"4鄰","STREET":"崇德十六街","SECT":" ","MAREA":" ","LANE":" ","ALLEY":" ","HOUSE_NO":"８４號","E_COORD97":171025.04999999999,"N_COORD97":2541116.1000000001,"ADDRESS":"崇德十六街８４號","OBJECTID":637631},"geometry":{"x":171025.05000000168,"y":2541116.0999999996}},{"attributes":{"ID":637659,"DIS_CODE":0,"TOWNNAME":"東區","LI":"崇文里","LIN":"4鄰","STREET":"崇德十六街","SECT":" ","MAREA":" ","LANE":" ","ALLEY":" ","HOUSE_NO":"８６號","E_COORD97":171030.32999999999,"N_COORD97":2541117.3900000001,"ADDRESS":"崇德十六街８６號","OBJECTID":637632},"geometry":{"x":171030.33000000194,"y":2541117.3900000025}},{"attributes":{"ID":637660,"DIS_CODE":0,"TOWNNAME":"東區","LI":"崇文里","LIN":"4鄰","STREET":"崇德十六街","SECT":" ","MAREA":" ","LANE":" ","ALLEY":" ","HOUSE_NO":"８８號","E_COORD97":171035.29999999999,"N_COORD97":2541118.5800000001,"ADDRESS":"崇德十六街８８號","OBJECTID":637633},"geometry":{"x":171035.30000000168,"y":2541118.5800000019}},{"attributes":{"ID":637661,"DIS_CODE":0,"TOWNNAME":"東區","LI":"崇文里","LIN":"4鄰","STREET":"崇德十六街","SECT":" ","MAREA":" ","LANE":" ","ALLEY":" ","HOUSE_NO":"８號","E_COORD97":170858.32999999999,"N_COORD97":2541117.3199999998,"ADDRESS":"崇德十六街８號","OBJECTID":637634},"geometry":{"x":170858.33000000007,"y":2541117.3200000022}},{"attributes":{"ID":637662,"DIS_CODE":0,"TOWNNAME":"東區","LI":"崇文里","LIN":"17鄰","STREET":"崇德二十街","SECT":" ","MAREA":" ","LANE":" ","ALLEY":" ","HOUSE_NO":"５１號地下層","E_COORD97":170945.97,"N_COORD97":2540932.0899999999,"ADDRESS":"崇德二十街５１號地下層","OBJECTID":637635},"geometry":{"x":170945.9700000016,"y":2540932.0900000017}},{"attributes":{"ID":637663,"DIS_CODE":0,"TOWNNAME":"東區","LI":"崇文里","LIN":"17鄰","STREET":"崇德二十街","SECT":" ","MAREA":" ","LANE":" ","ALLEY":" ","HOUSE_NO":"５５號","E_COORD97":170941.98999999999,"N_COORD97":2540937.46,"ADDRESS":"崇德二十街５５號","OBJECTID":637636},"geometry":{"x":170941.99000000115,"y":2540937.4600000028}},{"attributes":{"ID":637664,"DIS_CODE":0,"TOWNNAME":"東區","LI":"崇文里","LIN":"17鄰","STREET":"崇德二十街","SECT":" ","MAREA":" ","LANE":" ","ALLEY":" ","HOUSE_NO":"５７號","E_COORD97":170949.95000000001,"N_COORD97":2540938.1600000001,"ADDRESS":"崇德二十街５７號","OBJECTID":637637},"geometry":{"x":170949.95000000205,"y":2540938.1600000039}},{"attributes":{"ID":637665,"DIS_CODE":0,"TOWNNAME":"東區","LI":"崇文里","LIN":"15鄰","STREET":"崇德十九街","SECT":" ","MAREA":" ","LANE":" ","ALLEY":" ","HOUSE_NO":"８號","E_COORD97":170858.94,"N_COORD97":2540966.1000000001,"ADDRESS":"崇德十九街８號","OBJECTID":637638},"geometry":{"x":170858.94000000134,"y":2540966.1000000015}},{"attributes":{"ID":637666,"DIS_CODE":0,"TOWNNAME":"東區","LI":"崇文里","LIN":"15鄰","STREET":"崇德路","SECT":" ","MAREA":" ","LANE":" ","ALLEY":" ","HOUSE_NO":"６９１號","E_COORD97":170800.03,"N_COORD97":2540993.73,"ADDRESS":"崇德路６９１號","OBJECTID":637639},"geometry":{"x":170800.03000000026,"y":2540993.7300000023}},{"attributes":{"ID":637667,"DIS_CODE":0,"TOWNNAME":"東區","LI":"崇文里","LIN":"15鄰","STREET":"崇德路","SECT":" ","MAREA":" ","LANE":" ","ALLEY":" ","HOUSE_NO":"６９３號","E_COORD97":170800.73000000001,"N_COORD97":2540983.8799999999,"ADDRESS":"崇德路６９３號","OBJECTID":637640},"geometry":{"x":170800.73000000231,"y":2540983.8800000008}},{"attributes":{"ID":637668,"DIS_CODE":0,"TOWNNAME":"東區","LI":"崇文里","LIN":"15鄰","STREET":"崇德路","SECT":" ","MAREA":" ","LANE":" ","ALLEY":" ","HOUSE_NO":"７３７號","E_COORD97":170808.19,"N_COORD97":2540961.2599999998,"ADDRESS":"崇德路７３７號","OBJECTID":637641},"geometry":{"x":170808.19000000134,"y":2540961.2600000016}},{"attributes":{"ID":637669,"DIS_CODE":0,"TOWNNAME":"東區","LI":"崇文里","LIN":"15鄰","STREET":"崇德路","SECT":" ","MAREA":" ","LANE":" ","ALLEY":" ","HOUSE_NO":"７３７號之１","E_COORD97":170807.89000000001,"N_COORD97":2540954,"ADDRESS":"崇德路７３７號之１","OBJECTID":637642},"geometry":{"x":170807.8900000006,"y":2540954.0000000019}},{"attributes":{"ID":637670,"DIS_CODE":0,"TOWNNAME":"東區","LI":"崇文里","LIN":"15鄰","STREET":"崇德路","SECT":" ","MAREA":" ","LANE":" ","ALLEY":" ","HOUSE_NO":"７３９號","E_COORD97":170807.59,"N_COORD97":2540949.5299999998,"ADDRESS":"崇德路７３９號","OBJECTID":637643},"geometry":{"x":170807.58999999985,"y":2540949.5300000012}},{"attributes":{"ID":637671,"DIS_CODE":0,"TOWNNAME":"東區","LI":"崇文里","LIN":"15鄰","STREET":"崇德路","SECT":" ","MAREA":" ","LANE":" ","ALLEY":" ","HOUSE_NO":"７４３號","E_COORD97":170807.69,"N_COORD97":2540929.1400000001,"ADDRESS":"崇德路７４３號","OBJECTID":637644},"geometry":{"x":170807.68999999948,"y":2540929.1400000025}},{"attributes":{"ID":637672,"DIS_CODE":0,"TOWNNAME":"東區","LI":"崇文里","LIN":"19鄰","STREET":"崇德二十街","SECT":" ","MAREA":" ","LANE":" ","ALLEY":" ","HOUSE_NO":"２２號","E_COORD97":170856.47,"N_COORD97":2540902.3500000001,"ADDRESS":"崇德二十街２２號","OBJECTID":637645},"geometry":{"x":170856.47000000067,"y":2540902.3500000034}},{"attributes":{"ID":637673,"DIS_CODE":0,"TOWNNAME":"東區","LI":"崇文里","LIN":"19鄰","STREET":"崇德二十街","SECT":" ","MAREA":" ","LANE":" ","ALLEY":" ","HOUSE_NO":"２８號","E_COORD97":170887.19,"N_COORD97":2540901.75,"ADDRESS":"崇德二十街２８號","OBJECTID":637646},"geometry":{"x":170887.19000000041,"y":2540901.75}},{"attributes":{"ID":637674,"DIS_CODE":0,"TOWNNAME":"東區","LI":"崇文里","LIN":"19鄰","STREET":"崇德二十街","SECT":" ","MAREA":" ","LANE":" ","ALLEY":" ","HOUSE_NO":"４８號","E_COORD97":170935.47,"N_COORD97":2540901.3500000001,"ADDRESS":"崇德二十街４８號","OBJECTID":637647},"geometry":{"x":170935.46999999974,"y":2540901.3499999996}},{"attributes":{"ID":637675,"DIS_CODE":0,"TOWNNAME":"東區","LI":"崇文里","LIN":"19鄰","STREET":"崇德二十街","SECT":" ","MAREA":" ","LANE":" ","ALLEY":" ","HOUSE_NO":"５０號","E_COORD97":170940.14000000001,"N_COORD97":2540901.3500000001,"ADDRESS":"崇德二十街５０號","OBJECTID":637648},"geometry":{"x":170940.1400000006,"y":2540901.3499999996}},{"attributes":{"ID":637676,"DIS_CODE":0,"TOWNNAME":"東區","LI":"崇文里","LIN":"19鄰","STREET":"崇德二十街","SECT":" ","MAREA":" ","LANE":" ","ALLEY":" ","HOUSE_NO":"５２號","E_COORD97":170945.01999999999,"N_COORD97":2540901.25,"ADDRESS":"崇德二十街５２號","OBJECTID":637649},"geometry":{"x":170945.01999999955,"y":2540901.2500000019}},{"attributes":{"ID":637677,"DIS_CODE":0,"TOWNNAME":"東區","LI":"崇文里","LIN":"19鄰","STREET":"崇德二十街","SECT":" ","MAREA":" ","LANE":" ","ALLEY":" ","HOUSE_NO":"５４號","E_COORD97":170949.5,"N_COORD97":2540901.25,"ADDRESS":"崇德二十街５４號","OBJECTID":637650},"geometry":{"x":170949.50000000093,"y":2540901.2500000019}},{"attributes":{"ID":637678,"DIS_CODE":0,"TOWNNAME":"東區","LI":"崇文里","LIN":"19鄰","STREET":"崇德二十街","SECT":" ","MAREA":" ","LANE":" ","ALLEY":" ","HOUSE_NO":"５６號","E_COORD97":170954.67999999999,"N_COORD97":2540901.3500000001,"ADDRESS":"崇德二十街５６號","OBJECTID":637651},"geometry":{"x":170954.68000000156,"y":2540901.3499999996}},{"attributes":{"ID":637679,"DIS_CODE":0,"TOWNNAME":"東區","LI":"崇文里","LIN":"19鄰","STREET":"崇德二十街","SECT":" ","MAREA":" ","LANE":" ","ALLEY":" ","HOUSE_NO":"５８號","E_COORD97":170959.75,"N_COORD97":2540901.5499999998,"ADDRESS":"崇德二十街５８號","OBJECTID":637652},"geometry":{"x":170959.75000000093,"y":2540901.5500000007}},{"attributes":{"ID":637680,"DIS_CODE":0,"TOWNNAME":"東區","LI":"崇文里","LIN":"19鄰","STREET":"崇德二十街","SECT":" ","MAREA":" ","LANE":" ","ALLEY":" ","HOUSE_NO":"６０號","E_COORD97":170965.32999999999,"N_COORD97":2540901.6499999999,"ADDRESS":"崇德二十街６０號","OBJECTID":637653},"geometry":{"x":170965.33000000007,"y":2540901.6500000022}},{"attributes":{"ID":637681,"DIS_CODE":0,"TOWNNAME":"東區","LI":"崇文里","LIN":"19鄰","STREET":"崇德二十街","SECT":" ","MAREA":" ","LANE":" ","ALLEY":" ","HOUSE_NO":"６２號","E_COORD97":170974.79000000001,"N_COORD97":2540910.0099999998,"ADDRESS":"崇德二十街６２號","OBJECTID":637654},"geometry":{"x":170974.79000000097,"y":2540910.0099999998}},{"attributes":{"ID":637682,"DIS_CODE":0,"TOWNNAME":"東區","LI":"崇文里","LIN":"19鄰","STREET":"崇德二十街","SECT":" ","MAREA":" ","LANE":" ","ALLEY":" ","HOUSE_NO":"６４號","E_COORD97":170975.19,"N_COORD97":2540904.1400000001,"ADDRESS":"崇德二十街６４號","OBJECTID":637655},"geometry":{"x":170975.19000000041,"y":2540904.1400000006}},{"attributes":{"ID":637683,"DIS_CODE":0,"TOWNNAME":"東區","LI":"崇文里","LIN":"19鄰","STREET":"崇德二十街","SECT":" ","MAREA":" ","LANE":" ","ALLEY":" ","HOUSE_NO":"６６號","E_COORD97":170975.09,"N_COORD97":2540899.0600000001,"ADDRESS":"崇德二十街６６號","OBJECTID":637656},"geometry":{"x":170975.08999999985,"y":2540899.0600000024}},{"attributes":{"ID":637684,"DIS_CODE":0,"TOWNNAME":"東區","LI":"崇文里","LIN":"19鄰","STREET":"崇德二十街","SECT":" ","MAREA":" ","LANE":" ","ALLEY":" ","HOUSE_NO":"６６號之１","E_COORD97":170975.29000000001,"N_COORD97":2540893.79,"ADDRESS":"崇德二十街６６號之１","OBJECTID":637657},"geometry":{"x":170975.29000000097,"y":2540893.7899999991}},{"attributes":{"ID":637685,"DIS_CODE":0,"TOWNNAME":"東區","LI":"崇文里","LIN":"19鄰","STREET":"崇德二十街","SECT":" ","MAREA":" ","LANE":" ","ALLEY":" ","HOUSE_NO":"６６號之２","E_COORD97":170975.59,"N_COORD97":2540888.2200000002,"ADDRESS":"崇德二十街６６號之２","OBJECTID":637658},"geometry":{"x":170975.58999999892,"y":2540888.2200000025}},{"attributes":{"ID":637686,"DIS_CODE":0,"TOWNNAME":"東區","LI":"崇文里","LIN":"21鄰","STREET":"崇德二十一街","SECT":" ","MAREA":" ","LANE":" ","ALLEY":" ","HOUSE_NO":"１０１號","E_COORD97":171081.84,"N_COORD97":2540880.8300000001,"ADDRESS":"崇德二十一街１０１號","OBJECTID":637659},"geometry":{"x":171081.83999999985,"y":2540880.8300000019}},{"attributes":{"ID":637687,"DIS_CODE":0,"TOWNNAME":"東區","LI":"崇文里","LIN":"21鄰","STREET":"崇德二十一街","SECT":" ","MAREA":" ","LANE":" ","ALLEY":" ","HOUSE_NO":"１０３號","E_COORD97":171088.60999999999,"N_COORD97":2540878.6499999999,"ADDRESS":"崇德二十一街１０３號","OBJECTID":637660},"geometry":{"x":171088.61000000127,"y":2540878.6500000022}},{"attributes":{"ID":637688,"DIS_CODE":0,"TOWNNAME":"東區","LI":"崇文里","LIN":"25鄰","STREET":"崇德二十二街","SECT":" ","MAREA":" ","LANE":" ","ALLEY":" ","HOUSE_NO":"６１號","E_COORD97":170937.06,"N_COORD97":2540827.0099999998,"ADDRESS":"崇德二十二街６１號","OBJECTID":637661},"geometry":{"x":170937.06000000052,"y":2540827.0100000035}},{"attributes":{"ID":637689,"DIS_CODE":0,"TOWNNAME":"東區","LI":"崇文里","LIN":"25鄰","STREET":"崇德二十二街","SECT":" ","MAREA":" ","LANE":" ","ALLEY":" ","HOUSE_NO":"６５號","E_COORD97":170941.45000000001,"N_COORD97":2540826.6600000001,"ADDRESS":"崇德二十二街６５號","OBJECTID":637662},"geometry":{"x":170941.45000000205,"y":2540826.660000002}},{"attributes":{"ID":637690,"DIS_CODE":0,"TOWNNAME":"東區","LI":"崇文里","LIN":"25鄰","STREET":"崇德二十二街","SECT":" ","MAREA":" ","LANE":" ","ALLEY":" ","HOUSE_NO":"６９號","E_COORD97":170950.13,"N_COORD97":2540826.77,"ADDRESS":"崇德二十二街６９號","OBJECTID":637663},"geometry":{"x":170950.13000000175,"y":2540826.7699999996}},{"attributes":{"ID":637691,"DIS_CODE":0,"TOWNNAME":"東區","LI":"崇文里","LIN":"29鄰","STREET":"崇德路","SECT":" ","MAREA":" ","LANE":" ","ALLEY":" ","HOUSE_NO":"７８５之１號","E_COORD97":170811.07999999999,"N_COORD97":2540797.8999999999,"ADDRESS":"崇德路７８５之１號","OBJECTID":637664},"geometry":{"x":170811.08000000007,"y":2540797.9000000041}},{"attributes":{"ID":637692,"DIS_CODE":0,"TOWNNAME":"東區","LI":"崇文里","LIN":"29鄰","STREET":"崇德路","SECT":" ","MAREA":" ","LANE":" ","ALLEY":" ","HOUSE_NO":"７８５之２號","E_COORD97":170816.54999999999,"N_COORD97":2540798,"ADDRESS":"崇德路７８５之２號","OBJECTID":637665},"geometry":{"x":170816.55000000168,"y":2540798.0000000019}},{"attributes":{"ID":637693,"DIS_CODE":0,"TOWNNAME":"東區","LI":"崇成里","LIN":"21鄰","STREET":"崇明十九街","SECT":" ","MAREA":" ","LANE":" ","ALLEY":" ","HOUSE_NO":"３４號","E_COORD97":170724.98999999999,"N_COORD97":2541118.7400000002,"ADDRESS":"崇明十九街３４號","OBJECTID":637666},"geometry":{"x":170724.99000000115,"y":2541118.7400000021}},{"attributes":{"ID":637694,"DIS_CODE":0,"TOWNNAME":"東區","LI":"崇文里","LIN":"29鄰","STREET":"崇德路","SECT":" ","MAREA":" ","LANE":" ","ALLEY":" ","HOUSE_NO":"７８５之５號","E_COORD97":170801.59,"N_COORD97":2540785.1299999999,"ADDRESS":"崇德路７８５之５號","OBJECTID":637667},"geometry":{"x":170801.59000000078,"y":2540785.1300000008}},{"attributes":{"ID":637695,"DIS_CODE":0,"TOWNNAME":"東區","LI":"崇文里","LIN":"30鄰","STREET":"崇德二十四街","SECT":" ","MAREA":" ","LANE":" ","ALLEY":" ","HOUSE_NO":"２６號","E_COORD97":170888.07999999999,"N_COORD97":2540694.25,"ADDRESS":"崇德二十四街２６號","OBJECTID":637668},"geometry":{"x":170888.08000000101,"y":2540694.2500000019}},{"attributes":{"ID":637696,"DIS_CODE":0,"TOWNNAME":"東區","LI":"崇文里","LIN":"30鄰","STREET":"崇德二十四街","SECT":" ","MAREA":" ","LANE":" ","ALLEY":" ","HOUSE_NO":"２８號","E_COORD97":170892.17000000001,"N_COORD97":2540694.1499999999,"ADDRESS":"崇德二十四街２８號","OBJECTID":637669},"geometry":{"x":170892.17000000179,"y":2540694.1500000041}},{"attributes":{"ID":637697,"DIS_CODE":0,"TOWNNAME":"東區","LI":"崇文里","LIN":"26鄰","STREET":"崇德二十二街","SECT":" ","MAREA":" ","LANE":" ","ALLEY":" ","HOUSE_NO":"１３６號","E_COORD97":171178.51999999999,"N_COORD97":2540805.7200000002,"ADDRESS":"崇德二十二街１３６號","OBJECTID":637670},"geometry":{"x":171178.51999999955,"y":2540805.7200000007}},{"attributes":{"ID":637698,"DIS_CODE":0,"TOWNNAME":"東區","LI":"崇文里","LIN":"26鄰","STREET":"崇德二十二街","SECT":" ","MAREA":" ","LANE":" ","ALLEY":" ","HOUSE_NO":"１４０號","E_COORD97":171185.88,"N_COORD97":2540808.71,"ADDRESS":"崇德二十二街１４０號","OBJECTID":637671},"geometry":{"x":171185.88000000082,"y":2540808.7100000009}},{"attributes":{"ID":637699,"DIS_CODE":0,"TOWNNAME":"東區","LI":"崇文里","LIN":"26鄰","STREET":"崇德二十二街","SECT":" ","MAREA":" ","LANE":" ","ALLEY":" ","HOUSE_NO":"１４２號","E_COORD97":171189.17000000001,"N_COORD97":2540811.1899999999,"ADDRESS":"崇德二十二街１４２號","OBJECTID":637672},"geometry":{"x":171189.17000000086,"y":2540811.1899999995}},{"attributes":{"ID":637700,"DIS_CODE":0,"TOWNNAME":"東區","LI":"崇文里","LIN":"40鄰","STREET":"生產路","SECT":" ","MAREA":" ","LANE":" ","ALLEY":" ","HOUSE_NO":"２８５號","E_COORD97":170956.39999999999,"N_COORD97":2540623.6800000002,"ADDRESS":"生產路２８５號","OBJECTID":637673},"geometry":{"x":170956.40000000037,"y":2540623.6800000016}},{"attributes":{"ID":637701,"DIS_CODE":0,"TOWNNAME":"東區","LI":"崇文里","LIN":"40鄰","STREET":"生產路","SECT":" ","MAREA":" ","LANE":" ","ALLEY":" ","HOUSE_NO":"２８７號","E_COORD97":170961.07999999999,"N_COORD97":2540623.7799999998,"ADDRESS":"生產路２８７號","OBJECTID":637674},"geometry":{"x":170961.08000000101,"y":2540623.7799999993}},{"attributes":{"ID":637702,"DIS_CODE":0,"TOWNNAME":"東區","LI":"崇文里","LIN":"40鄰","STREET":"生產路","SECT":" ","MAREA":" ","LANE":" ","ALLEY":" ","HOUSE_NO":"２８９號","E_COORD97":170965.45999999999,"N_COORD97":2540623.8799999999,"ADDRESS":"生產路２８９號","OBJECTID":637675},"geometry":{"x":170965.46000000089,"y":2540623.8800000008}},{"attributes":{"ID":637703,"DIS_CODE":0,"TOWNNAME":"東區","LI":"崇文里","LIN":"40鄰","STREET":"生產路","SECT":" ","MAREA":" ","LANE":" ","ALLEY":" ","HOUSE_NO":"２９１號","E_COORD97":170970.44,"N_COORD97":2540626.2599999998,"ADDRESS":"生產路２９１號","OBJECTID":637676},"geometry":{"x":170970.43999999948,"y":2540626.2600000016}},{"attributes":{"ID":637704,"DIS_CODE":0,"TOWNNAME":"東區","LI":"崇文里","LIN":"40鄰","STREET":"生產路","SECT":" ","MAREA":" ","LANE":" ","ALLEY":" ","HOUSE_NO":"２９３號","E_COORD97":170976.70999999999,"N_COORD97":2540628.9500000002,"ADDRESS":"生產路２９３號","OBJECTID":637677},"geometry":{"x":170976.71000000183,"y":2540628.9499999993}},{"attributes":{"ID":637705,"DIS_CODE":0,"TOWNNAME":"東區","LI":"崇成里","LIN":"20鄰","STREET":"崇明十九街","SECT":" ","MAREA":" ","LANE":" ","ALLEY":" ","HOUSE_NO":"１１號","E_COORD97":170657.10999999999,"N_COORD97":2541146.96,"ADDRESS":"崇明十九街１１號","OBJECTID":637678},"geometry":{"x":170657.11000000034,"y":2541146.9600000046}},{"attributes":{"ID":637706,"DIS_CODE":0,"TOWNNAME":"東區","LI":"崇成里","LIN":"19鄰","STREET":"崇明路","SECT":" ","MAREA":" ","LANE":" ","ALLEY":" ","HOUSE_NO":"５８９號之１４","E_COORD97":170617.92000000001,"N_COORD97":2541103.5699999998,"ADDRESS":"崇明路５８９號之１４","OBJECTID":637679},"geometry":{"x":170617.92000000086,"y":2541103.5700000003}},{"attributes":{"ID":637707,"DIS_CODE":0,"TOWNNAME":"東區","LI":"崇成里","LIN":"19鄰","STREET":"崇明路","SECT":" ","MAREA":" ","LANE":" ","ALLEY":" ","HOUSE_NO":"５８９號之１５","E_COORD97":170617.57999999999,"N_COORD97":2541098.8199999998,"ADDRESS":"崇明路５８９號之１５","OBJECTID":637680},"geometry":{"x":170617.58000000007,"y":2541098.8200000003}},{"attributes":{"ID":637708,"DIS_CODE":0,"TOWNNAME":"東區","LI":"崇成里","LIN":"19鄰","STREET":"崇明路","SECT":" ","MAREA":" ","LANE":" ","ALLEY":" ","HOUSE_NO":"５８９號之１６","E_COORD97":170617.57999999999,"N_COORD97":2541094.9100000001,"ADDRESS":"崇明路５８９號之１６","OBJECTID":637681},"geometry":{"x":170617.58000000007,"y":2541094.9100000001}},{"attributes":{"ID":637709,"DIS_CODE":0,"TOWNNAME":"東區","LI":"崇成里","LIN":"19鄰","STREET":"崇明路","SECT":" ","MAREA":" ","LANE":" ","ALLEY":" ","HOUSE_NO":"５９１號","E_COORD97":170617.98000000001,"N_COORD97":2540910.7599999998,"ADDRESS":"崇明路５９１號","OBJECTID":637682},"geometry":{"x":170617.98000000138,"y":2540910.7600000016}},{"attributes":{"ID":637710,"DIS_CODE":0,"TOWNNAME":"東區","LI":"崇成里","LIN":"21鄰","STREET":"崇明二十街","SECT":" ","MAREA":" ","LANE":" ","ALLEY":" ","HOUSE_NO":"１３號","E_COORD97":170683.48000000001,"N_COORD97":2541094.8700000001,"ADDRESS":"崇明二十街１３號","OBJECTID":637683},"geometry":{"x":170683.48000000045,"y":2541094.8700000029}},{"attributes":{"ID":637711,"DIS_CODE":0,"TOWNNAME":"東區","LI":"崇成里","LIN":"21鄰","STREET":"崇明二十街","SECT":" ","MAREA":" ","LANE":" ","ALLEY":" ","HOUSE_NO":"１５號","E_COORD97":170687.64000000001,"N_COORD97":2541095.04,"ADDRESS":"崇明二十街１５號","OBJECTID":637684},"geometry":{"x":170687.6400000006,"y":2541095.040000001}},{"attributes":{"ID":637712,"DIS_CODE":0,"TOWNNAME":"東區","LI":"崇成里","LIN":"21鄰","STREET":"崇明二十街","SECT":" ","MAREA":" ","LANE":" ","ALLEY":" ","HOUSE_NO":"１７號","E_COORD97":170691.56,"N_COORD97":2541095.2000000002,"ADDRESS":"崇明二十街１７號","OBJECTID":637685},"geometry":{"x":170691.56000000052,"y":2541095.1999999993}},{"attributes":{"ID":637713,"DIS_CODE":0,"TOWNNAME":"東區","LI":"崇成里","LIN":"21鄰","STREET":"崇明二十街","SECT":" ","MAREA":" ","LANE":" ","ALLEY":" ","HOUSE_NO":"１９號","E_COORD97":170695.89999999999,"N_COORD97":2541095.1200000001,"ADDRESS":"崇明二十街１９號","OBJECTID":637686},"geometry":{"x":170695.90000000037,"y":2541095.1200000048}},{"attributes":{"ID":637714,"DIS_CODE":0,"TOWNNAME":"東區","LI":"崇成里","LIN":"21鄰","STREET":"崇明二十街","SECT":" ","MAREA":" ","LANE":" ","ALLEY":" ","HOUSE_NO":"２１號","E_COORD97":170699.82000000001,"N_COORD97":2541095.04,"ADDRESS":"崇明二十街２１號","OBJECTID":637687},"geometry":{"x":170699.8200000003,"y":2541095.040000001}},{"attributes":{"ID":637715,"DIS_CODE":0,"TOWNNAME":"東區","LI":"崇成里","LIN":"21鄰","STREET":"崇明二十街","SECT":" ","MAREA":" ","LANE":" ","ALLEY":" ","HOUSE_NO":"２３號","E_COORD97":170703.73000000001,"N_COORD97":2541095.2000000002,"ADDRESS":"崇明二十街２３號","OBJECTID":637688},"geometry":{"x":170703.73000000045,"y":2541095.1999999993}},{"attributes":{"ID":637716,"DIS_CODE":0,"TOWNNAME":"東區","LI":"崇成里","LIN":"21鄰","STREET":"崇明二十街","SECT":" ","MAREA":" ","LANE":" ","ALLEY":" ","HOUSE_NO":"２５號","E_COORD97":170708.07000000001,"N_COORD97":2541095.2000000002,"ADDRESS":"崇明二十街２５號","OBJECTID":637689},"geometry":{"x":170708.0700000003,"y":2541095.1999999993}},{"attributes":{"ID":637717,"DIS_CODE":0,"TOWNNAME":"東區","LI":"崇成里","LIN":"21鄰","STREET":"崇明二十街","SECT":" ","MAREA":" ","LANE":" ","ALLEY":" ","HOUSE_NO":"２７號","E_COORD97":170712.23999999999,"N_COORD97":2541095.2000000002,"ADDRESS":"崇明二十街２７號","OBJECTID":637690},"geometry":{"x":170712.23999999929,"y":2541095.1999999993}},{"attributes":{"ID":637718,"DIS_CODE":0,"TOWNNAME":"東區","LI":"崇成里","LIN":"21鄰","STREET":"崇明十九街","SECT":" ","MAREA":" ","LANE":" ","ALLEY":" ","HOUSE_NO":"１４號","E_COORD97":170683.51999999999,"N_COORD97":2541118.5800000001,"ADDRESS":"崇明十九街１４號","OBJECTID":637691},"geometry":{"x":170683.51999999955,"y":2541118.5800000019}},{"attributes":{"ID":637719,"DIS_CODE":0,"TOWNNAME":"東區","LI":"崇成里","LIN":"21鄰","STREET":"崇明十九街","SECT":" ","MAREA":" ","LANE":" ","ALLEY":" ","HOUSE_NO":"１６號","E_COORD97":170688.13,"N_COORD97":2541118.5800000001,"ADDRESS":"崇明十九街１６號","OBJECTID":637692},"geometry":{"x":170688.12999999989,"y":2541118.5800000019}},{"attributes":{"ID":637720,"DIS_CODE":0,"TOWNNAME":"東區","LI":"崇成里","LIN":"21鄰","STREET":"崇明十九街","SECT":" ","MAREA":" ","LANE":" ","ALLEY":" ","HOUSE_NO":"１８號","E_COORD97":170692.41,"N_COORD97":2541118.5600000001,"ADDRESS":"崇明十九街１８號","OBJECTID":637693},"geometry":{"x":170692.41000000201,"y":2541118.5600000005}},{"attributes":{"ID":637721,"DIS_CODE":0,"TOWNNAME":"東區","LI":"崇成里","LIN":"21鄰","STREET":"崇明十九街","SECT":" ","MAREA":" ","LANE":" ","ALLEY":" ","HOUSE_NO":"２０號","E_COORD97":170696.48000000001,"N_COORD97":2541118.7400000002,"ADDRESS":"崇明十九街２０號","OBJECTID":637694},"geometry":{"x":170696.48000000138,"y":2541118.7400000021}},{"attributes":{"ID":637722,"DIS_CODE":0,"TOWNNAME":"東區","LI":"崇成里","LIN":"21鄰","STREET":"崇明十九街","SECT":" ","MAREA":" ","LANE":" ","ALLEY":" ","HOUSE_NO":"２２號","E_COORD97":170700.48000000001,"N_COORD97":2541118.6499999999,"ADDRESS":"崇明十九街２２號","OBJECTID":637695},"geometry":{"x":170700.48000000045,"y":2541118.6500000022}},{"attributes":{"ID":637723,"DIS_CODE":0,"TOWNNAME":"東區","LI":"崇成里","LIN":"21鄰","STREET":"崇明十九街","SECT":" ","MAREA":" ","LANE":" ","ALLEY":" ","HOUSE_NO":"２４號","E_COORD97":170704.64999999999,"N_COORD97":2541118.7400000002,"ADDRESS":"崇明十九街２４號","OBJECTID":637696},"geometry":{"x":170704.65000000224,"y":2541118.7400000021}},{"attributes":{"ID":637724,"DIS_CODE":0,"TOWNNAME":"東區","LI":"崇成里","LIN":"21鄰","STREET":"崇明十九街","SECT":" ","MAREA":" ","LANE":" ","ALLEY":" ","HOUSE_NO":"２６號","E_COORD97":170708.48000000001,"N_COORD97":2541118.6499999999,"ADDRESS":"崇明十九街２６號","OBJECTID":637697},"geometry":{"x":170708.48000000045,"y":2541118.6500000022}},{"attributes":{"ID":637725,"DIS_CODE":0,"TOWNNAME":"東區","LI":"崇成里","LIN":"21鄰","STREET":"崇明十九街","SECT":" ","MAREA":" ","LANE":" ","ALLEY":" ","HOUSE_NO":"２８號","E_COORD97":170712.39999999999,"N_COORD97":2541118.6499999999,"ADDRESS":"崇明十九街２８號","OBJECTID":637698},"geometry":{"x":170712.40000000037,"y":2541118.6500000022}},{"attributes":{"ID":637726,"DIS_CODE":0,"TOWNNAME":"東區","LI":"崇成里","LIN":"21鄰","STREET":"崇明十九街","SECT":" ","MAREA":" ","LANE":" ","ALLEY":" ","HOUSE_NO":"２號","E_COORD97":170641.84,"N_COORD97":2541118.3999999999,"ADDRESS":"崇明十九街２號","OBJECTID":637699},"geometry":{"x":170641.84000000171,"y":2541118.4000000004}},{"attributes":{"ID":637727,"DIS_CODE":0,"TOWNNAME":"東區","LI":"崇成里","LIN":"21鄰","STREET":"崇明十九街","SECT":" ","MAREA":" ","LANE":" ","ALLEY":" ","HOUSE_NO":"３０號","E_COORD97":170716.39999999999,"N_COORD97":2541118.6499999999,"ADDRESS":"崇明十九街３０號","OBJECTID":637700},"geometry":{"x":170716.39999999944,"y":2541118.6500000022}},{"attributes":{"ID":637728,"DIS_CODE":0,"TOWNNAME":"東區","LI":"崇成里","LIN":"21鄰","STREET":"崇明十九街","SECT":" ","MAREA":" ","LANE":" ","ALLEY":" ","HOUSE_NO":"３２號","E_COORD97":170720.82000000001,"N_COORD97":2541118.7400000002,"ADDRESS":"崇明十九街３２號","OBJECTID":637701},"geometry":{"x":170720.82000000123,"y":2541118.7400000021}},{"attributes":{"ID":637729,"DIS_CODE":0,"TOWNNAME":"東區","LI":"崇成里","LIN":"21鄰","STREET":"崇明十九街","SECT":" ","MAREA":" ","LANE":" ","ALLEY":" ","HOUSE_NO":"３６號","E_COORD97":170728.73999999999,"N_COORD97":2541118.7400000002,"ADDRESS":"崇明十九街３６號","OBJECTID":637702},"geometry":{"x":170728.74000000022,"y":2541118.7400000021}},{"attributes":{"ID":637730,"DIS_CODE":0,"TOWNNAME":"東區","LI":"崇成里","LIN":"21鄰","STREET":"崇明十九街","SECT":" ","MAREA":" ","LANE":" ","ALLEY":" ","HOUSE_NO":"３８號","E_COORD97":170732.73999999999,"N_COORD97":2541118.7400000002,"ADDRESS":"崇明十九街３８號","OBJECTID":637703},"geometry":{"x":170732.74000000209,"y":2541118.7400000021}},{"attributes":{"ID":637731,"DIS_CODE":0,"TOWNNAME":"東區","LI":"崇成里","LIN":"21鄰","STREET":"崇明十九街","SECT":" ","MAREA":" ","LANE":" ","ALLEY":" ","HOUSE_NO":"４０號","E_COORD97":170736.91,"N_COORD97":2541118.4900000002,"ADDRESS":"崇明十九街４０號","OBJECTID":637704},"geometry":{"x":170736.91000000108,"y":2541118.4900000002}},{"attributes":{"ID":637732,"DIS_CODE":0,"TOWNNAME":"東區","LI":"崇成里","LIN":"21鄰","STREET":"崇明十九街","SECT":" ","MAREA":" ","LANE":" ","ALLEY":" ","HOUSE_NO":"４２號","E_COORD97":170740.73999999999,"N_COORD97":2541118.3999999999,"ADDRESS":"崇明十九街４２號","OBJECTID":637705},"geometry":{"x":170740.74000000022,"y":2541118.4000000004}},{"attributes":{"ID":637733,"DIS_CODE":0,"TOWNNAME":"東區","LI":"崇成里","LIN":"21鄰","STREET":"崇明十九街","SECT":" ","MAREA":" ","LANE":" ","ALLEY":" ","HOUSE_NO":"４４號","E_COORD97":170744.48999999999,"N_COORD97":2541118.4900000002,"ADDRESS":"崇明十九街４４號","OBJECTID":637706},"geometry":{"x":170744.49000000209,"y":2541118.4900000002}},{"attributes":{"ID":637734,"DIS_CODE":0,"TOWNNAME":"東區","LI":"崇成里","LIN":"21鄰","STREET":"崇明十九街","SECT":" ","MAREA":" ","LANE":" ","ALLEY":" ","HOUSE_NO":"４６號","E_COORD97":170748.75,"N_COORD97":2541118.3999999999,"ADDRESS":"崇明十九街４６號","OBJECTID":637707},"geometry":{"x":170748.75,"y":2541118.4000000004}},{"attributes":{"ID":637735,"DIS_CODE":0,"TOWNNAME":"東區","LI":"崇成里","LIN":"21鄰","STREET":"崇明十九街","SECT":" ","MAREA":" ","LANE":" ","ALLEY":" ","HOUSE_NO":"４８號","E_COORD97":170754.57999999999,"N_COORD97":2541117.9900000002,"ADDRESS":"崇明十九街４８號","OBJECTID":637708},"geometry":{"x":170754.58000000101,"y":2541117.9900000002}},{"attributes":{"ID":637736,"DIS_CODE":0,"TOWNNAME":"東區","LI":"崇成里","LIN":"20鄰","STREET":"崇明十九街","SECT":" ","MAREA":" ","LANE":" ","ALLEY":" ","HOUSE_NO":"９號","E_COORD97":170645.19,"N_COORD97":2541147.21,"ADDRESS":"崇明十九街９號","OBJECTID":637709},"geometry":{"x":170645.19000000134,"y":2541147.2100000009}},{"attributes":{"ID":637737,"DIS_CODE":0,"TOWNNAME":"中西區","LI":"三合里","LIN":"8鄰","STREET":"忠孝街","SECT":" ","MAREA":" ","LANE":" ","ALLEY":" ","HOUSE_NO":"９５號","E_COORD97":167727.44,"N_COORD97":2544557.3399999999,"ADDRESS":"忠孝街９５號","OBJECTID":637710},"geometry":{"x":167727.44000000041,"y":2544557.3400000036}},{"attributes":{"ID":637738,"DIS_CODE":0,"TOWNNAME":"中西區","LI":"三合里","LIN":"8鄰","STREET":"康樂街","SECT":" ","MAREA":" ","LANE":" ","ALLEY":" ","HOUSE_NO":"４１１號","E_COORD97":167701.39000000001,"N_COORD97":2544568.8399999999,"ADDRESS":"康樂街４１１號","OBJECTID":637711},"geometry":{"x":167701.38999999966,"y":2544568.8400000017}},{"attributes":{"ID":637739,"DIS_CODE":0,"TOWNNAME":"中西區","LI":"三合里","LIN":"8鄰","STREET":"康樂街","SECT":" ","MAREA":" ","LANE":" ","ALLEY":" ","HOUSE_NO":"４１３號","E_COORD97":167702.01999999999,"N_COORD97":2544571.73,"ADDRESS":"康樂街４１３號","OBJECTID":637712},"geometry":{"x":167702.01999999955,"y":2544571.7300000004}},{"attributes":{"ID":637740,"DIS_CODE":0,"TOWNNAME":"中西區","LI":"三合里","LIN":"8鄰","STREET":"康樂街","SECT":" ","MAREA":" ","LANE":" ","ALLEY":" ","HOUSE_NO":"４１９號","E_COORD97":167708.92999999999,"N_COORD97":2544588.8599999999,"ADDRESS":"康樂街４１９號","OBJECTID":637713},"geometry":{"x":167708.93000000063,"y":2544588.8600000013}},{"attributes":{"ID":637741,"DIS_CODE":0,"TOWNNAME":"中西區","LI":"三合里","LIN":"8鄰","STREET":"康樂街","SECT":" ","MAREA":" ","LANE":" ","ALLEY":" ","HOUSE_NO":"４２１號","E_COORD97":167711.60999999999,"N_COORD97":2544590.7799999998,"ADDRESS":"康樂街４２１號","OBJECTID":637714},"geometry":{"x":167711.61000000127,"y":2544590.7799999993}},{"attributes":{"ID":637742,"DIS_CODE":0,"TOWNNAME":"中西區","LI":"保安里","LIN":"6鄰","STREET":"友愛街","SECT":" ","MAREA":" ","LANE":" ","ALLEY":" ","HOUSE_NO":"２９１號","E_COORD97":167570.29000000001,"N_COORD97":2543630.6499999999,"ADDRESS":"友愛街２９１號","OBJECTID":637715},"geometry":{"x":167570.29000000004,"y":2543630.6500000022}},{"attributes":{"ID":637743,"DIS_CODE":0,"TOWNNAME":"佳里區","LI":"安西里","LIN":"54鄰","STREET":"佳安中街","SECT":" ","MAREA":" ","LANE":" ","ALLEY":" ","HOUSE_NO":"１０１號","E_COORD97":163714.23000000001,"N_COORD97":2562280.7599999998,"ADDRESS":"佳安中街１０１號","OBJECTID":637716},"geometry":{"x":163714.23000000045,"y":2562280.7600000016}},{"attributes":{"ID":637744,"DIS_CODE":0,"TOWNNAME":"佳里區","LI":"安西里","LIN":"54鄰","STREET":"佳安中街","SECT":" ","MAREA":" ","LANE":" ","ALLEY":" ","HOUSE_NO":"１０３號","E_COORD97":163709.82000000001,"N_COORD97":2562280.29,"ADDRESS":"佳安中街１０３號","OBJECTID":637717},"geometry":{"x":163709.82000000123,"y":2562280.2899999991}},{"attributes":{"ID":637745,"DIS_CODE":0,"TOWNNAME":"佳里區","LI":"安西里","LIN":"54鄰","STREET":"佳安中街","SECT":" ","MAREA":" ","LANE":" ","ALLEY":" ","HOUSE_NO":"１０５號","E_COORD97":163705.48000000001,"N_COORD97":2562280.3199999998,"ADDRESS":"佳安中街１０５號","OBJECTID":637718},"geometry":{"x":163705.48000000138,"y":2562280.3200000022}},{"attributes":{"ID":637746,"DIS_CODE":0,"TOWNNAME":"佳里區","LI":"安西里","LIN":"54鄰","STREET":"佳安中街","SECT":" ","MAREA":" ","LANE":" ","ALLEY":" ","HOUSE_NO":"１０７號","E_COORD97":163700.97,"N_COORD97":2562280.7200000002,"ADDRESS":"佳安中街１０７號","OBJECTID":637719},"geometry":{"x":163700.97000000067,"y":2562280.7200000044}},{"attributes":{"ID":637747,"DIS_CODE":0,"TOWNNAME":"佳里區","LI":"安西里","LIN":"54鄰","STREET":"佳安中街","SECT":" ","MAREA":" ","LANE":" ","ALLEY":" ","HOUSE_NO":"１０９號","E_COORD97":163696.34,"N_COORD97":2562280.8500000001,"ADDRESS":"佳安中街１０９號","OBJECTID":637720},"geometry":{"x":163696.33999999985,"y":2562280.8499999996}},{"attributes":{"ID":637748,"DIS_CODE":0,"TOWNNAME":"佳里區","LI":"安西里","LIN":"56鄰","STREET":"佳安中街","SECT":" ","MAREA":" ","LANE":" ","ALLEY":" ","HOUSE_NO":"３號","E_COORD97":163954.35999999999,"N_COORD97":2562280.0499999998,"ADDRESS":"佳安中街３號","OBJECTID":637721},"geometry":{"x":163954.36000000034,"y":2562280.0500000026}},{"attributes":{"ID":637749,"DIS_CODE":0,"TOWNNAME":"佳里區","LI":"安西里","LIN":"56鄰","STREET":"佳安中街","SECT":" ","MAREA":" ","LANE":" ","ALLEY":" ","HOUSE_NO":"４０號","E_COORD97":163886.39999999999,"N_COORD97":2562296.29,"ADDRESS":"佳安中街４０號","OBJECTID":637722},"geometry":{"x":163886.40000000037,"y":2562296.290000001}},{"attributes":{"ID":637750,"DIS_CODE":0,"TOWNNAME":"佳里區","LI":"安西里","LIN":"56鄰","STREET":"佳安中街","SECT":" ","MAREA":" ","LANE":" ","ALLEY":" ","HOUSE_NO":"４１號","E_COORD97":163867.54000000001,"N_COORD97":2562281.0499999998,"ADDRESS":"佳安中街４１號","OBJECTID":637723},"geometry":{"x":163867.54000000004,"y":2562281.0500000007}},{"attributes":{"ID":637751,"DIS_CODE":0,"TOWNNAME":"佳里區","LI":"安西里","LIN":"56鄰","STREET":"佳安中街","SECT":" ","MAREA":" ","LANE":" ","ALLEY":" ","HOUSE_NO":"４２號","E_COORD97":163881.85999999999,"N_COORD97":2562296.2799999998,"ADDRESS":"佳安中街４２號","OBJECTID":637724},"geometry":{"x":163881.86000000127,"y":2562296.2800000012}},{"attributes":{"ID":637752,"DIS_CODE":0,"TOWNNAME":"佳里區","LI":"安西里","LIN":"56鄰","STREET":"佳安中街","SECT":" ","MAREA":" ","LANE":" ","ALLEY":" ","HOUSE_NO":"４３號","E_COORD97":163863.20000000001,"N_COORD97":2562280.8100000001,"ADDRESS":"佳安中街４３號","OBJECTID":637725},"geometry":{"x":163863.20000000019,"y":2562280.8100000024}},{"attributes":{"ID":637753,"DIS_CODE":0,"TOWNNAME":"佳里區","LI":"安西里","LIN":"56鄰","STREET":"佳安中街","SECT":" ","MAREA":" ","LANE":" ","ALLEY":" ","HOUSE_NO":"４５號","E_COORD97":163859.04000000001,"N_COORD97":2562279.5,"ADDRESS":"佳安中街４５號","OBJECTID":637726},"geometry":{"x":163859.04000000004,"y":2562279.5000000019}},{"attributes":{"ID":637754,"DIS_CODE":0,"TOWNNAME":"佳里區","LI":"安西里","LIN":"56鄰","STREET":"佳安中街","SECT":" ","MAREA":" ","LANE":" ","ALLEY":" ","HOUSE_NO":"４６號","E_COORD97":163877.09,"N_COORD97":2562296.4700000002,"ADDRESS":"佳安中街４６號","OBJECTID":637727},"geometry":{"x":163877.08999999985,"y":2562296.4700000025}},{"attributes":{"ID":637755,"DIS_CODE":0,"TOWNNAME":"佳里區","LI":"安西里","LIN":"56鄰","STREET":"佳安中街","SECT":" ","MAREA":" ","LANE":" ","ALLEY":" ","HOUSE_NO":"４８號","E_COORD97":163873.09,"N_COORD97":2562296.5600000001,"ADDRESS":"佳安中街４８號","OBJECTID":637728},"geometry":{"x":163873.09000000078,"y":2562296.5600000024}},{"attributes":{"ID":637756,"DIS_CODE":0,"TOWNNAME":"佳里區","LI":"安西里","LIN":"56鄰","STREET":"佳安中街","SECT":" ","MAREA":" ","LANE":" ","ALLEY":" ","HOUSE_NO":"７號","E_COORD97":163945.89999999999,"N_COORD97":2562279.6499999999,"ADDRESS":"佳安中街７號","OBJECTID":637729},"geometry":{"x":163945.90000000224,"y":2562279.6500000004}},{"attributes":{"ID":637757,"DIS_CODE":0,"TOWNNAME":"中西區","LI":"郡西里","LIN":"2鄰","STREET":"郡西路","SECT":" ","MAREA":" ","LANE":" ","ALLEY":" ","HOUSE_NO":"２６號","E_COORD97":167379.10999999999,"N_COORD97":2543219.02,"ADDRESS":"郡西路２６號","OBJECTID":637730},"geometry":{"x":167379.11000000127,"y":2543219.0199999996}},{"attributes":{"ID":637758,"DIS_CODE":0,"TOWNNAME":"佳里區","LI":"安西里","LIN":"54鄰","STREET":"佳安中街","SECT":" ","MAREA":" ","LANE":" ","ALLEY":" ","HOUSE_NO":"９１號","E_COORD97":163736.07999999999,"N_COORD97":2562280.25,"ADDRESS":"佳安中街９１號","OBJECTID":637731},"geometry":{"x":163736.08000000101,"y":2562280.2500000019}},{"attributes":{"ID":637759,"DIS_CODE":0,"TOWNNAME":"佳里區","LI":"安西里","LIN":"54鄰","STREET":"佳安中街","SECT":" ","MAREA":" ","LANE":" ","ALLEY":" ","HOUSE_NO":"９３號","E_COORD97":163731.76999999999,"N_COORD97":2562280.6000000001,"ADDRESS":"佳安中街９３號","OBJECTID":637732},"geometry":{"x":163731.76999999955,"y":2562280.6000000034}},{"attributes":{"ID":637760,"DIS_CODE":0,"TOWNNAME":"佳里區","LI":"安西里","LIN":"54鄰","STREET":"佳安中街","SECT":" ","MAREA":" ","LANE":" ","ALLEY":" ","HOUSE_NO":"９５號","E_COORD97":163727.76000000001,"N_COORD97":2562280.7400000002,"ADDRESS":"佳安中街９５號","OBJECTID":637733},"geometry":{"x":163727.76000000071,"y":2562280.7400000021}},{"attributes":{"ID":637761,"DIS_CODE":0,"TOWNNAME":"佳里區","LI":"安西里","LIN":"53鄰","STREET":"佳安南路","SECT":" ","MAREA":" ","LANE":" ","ALLEY":" ","HOUSE_NO":"１２２號","E_COORD97":163648.70999999999,"N_COORD97":2562195.7400000002,"ADDRESS":"佳安南路１２２號","OBJECTID":637734},"geometry":{"x":163648.71000000089,"y":2562195.7400000021}},{"attributes":{"ID":637762,"DIS_CODE":0,"TOWNNAME":"佳里區","LI":"安西里","LIN":"53鄰","STREET":"佳安南路","SECT":" ","MAREA":" ","LANE":" ","ALLEY":" ","HOUSE_NO":"１２６號","E_COORD97":163644.67999999999,"N_COORD97":2562195.79,"ADDRESS":"佳安南路１２６號","OBJECTID":637735},"geometry":{"x":163644.6799999997,"y":2562195.7899999991}},{"attributes":{"ID":637763,"DIS_CODE":0,"TOWNNAME":"佳里區","LI":"安西里","LIN":"53鄰","STREET":"佳安南路","SECT":" ","MAREA":" ","LANE":" ","ALLEY":" ","HOUSE_NO":"１２８號","E_COORD97":163639.67999999999,"N_COORD97":2562196.21,"ADDRESS":"佳安南路１２８號","OBJECTID":637736},"geometry":{"x":163639.6799999997,"y":2562196.2100000046}},{"attributes":{"ID":637764,"DIS_CODE":0,"TOWNNAME":"佳里區","LI":"安西里","LIN":"53鄰","STREET":"佳安南路","SECT":" ","MAREA":" ","LANE":" ","ALLEY":" ","HOUSE_NO":"１３０號","E_COORD97":163634.92000000001,"N_COORD97":2562196.1299999999,"ADDRESS":"佳安南路１３０號","OBJECTID":637737},"geometry":{"x":163634.91999999993,"y":2562196.1300000008}},{"attributes":{"ID":637765,"DIS_CODE":0,"TOWNNAME":"佳里區","LI":"安西里","LIN":"53鄰","STREET":"佳安南路","SECT":" ","MAREA":" ","LANE":" ","ALLEY":" ","HOUSE_NO":"１３２號","E_COORD97":163631.17000000001,"N_COORD97":2562196.29,"ADDRESS":"佳安南路１３２號","OBJECTID":637738},"geometry":{"x":163631.16999999993,"y":2562196.2899999991}},{"attributes":{"ID":637766,"DIS_CODE":0,"TOWNNAME":"佳里區","LI":"安西里","LIN":"53鄰","STREET":"佳安南路","SECT":" ","MAREA":" ","LANE":" ","ALLEY":" ","HOUSE_NO":"１３６號","E_COORD97":163625.91,"N_COORD97":2562196.6600000001,"ADDRESS":"佳安南路１３６號","OBJECTID":637739},"geometry":{"x":163625.91000000108,"y":2562196.660000002}},{"attributes":{"ID":637767,"DIS_CODE":0,"TOWNNAME":"佳里區","LI":"安西里","LIN":"53鄰","STREET":"佳安南路","SECT":" ","MAREA":" ","LANE":" ","ALLEY":" ","HOUSE_NO":"１３８號","E_COORD97":163621.45000000001,"N_COORD97":2562196.3399999999,"ADDRESS":"佳安南路１３８號","OBJECTID":637740},"geometry":{"x":163621.44999999925,"y":2562196.3399999999}},{"attributes":{"ID":637768,"DIS_CODE":0,"TOWNNAME":"佳里區","LI":"安西里","LIN":"53鄰","STREET":"佳安南路","SECT":" ","MAREA":" ","LANE":" ","ALLEY":" ","HOUSE_NO":"１４２號","E_COORD97":163607.76999999999,"N_COORD97":2562196.0299999998,"ADDRESS":"佳安南路１４２號","OBJECTID":637741},"geometry":{"x":163607.76999999955,"y":2562196.0300000031}},{"attributes":{"ID":637769,"DIS_CODE":0,"TOWNNAME":"佳里區","LI":"安西里","LIN":"53鄰","STREET":"佳安南路","SECT":" ","MAREA":" ","LANE":" ","ALLEY":" ","HOUSE_NO":"１４６號","E_COORD97":163603.06,"N_COORD97":2562195.77,"ADDRESS":"佳安南路１４６號","OBJECTID":637742},"geometry":{"x":163603.05999999959,"y":2562195.7700000014}},{"attributes":{"ID":637770,"DIS_CODE":0,"TOWNNAME":"佳里區","LI":"安西里","LIN":"53鄰","STREET":"佳安南路","SECT":" ","MAREA":" ","LANE":" ","ALLEY":" ","HOUSE_NO":"１４８號","E_COORD97":163599.03,"N_COORD97":2562196.3799999999,"ADDRESS":"佳安南路１４８號","OBJECTID":637743},"geometry":{"x":163599.03000000212,"y":2562196.3800000027}},{"attributes":{"ID":637771,"DIS_CODE":0,"TOWNNAME":"佳里區","LI":"安西里","LIN":"53鄰","STREET":"佳安南路","SECT":" ","MAREA":" ","LANE":" ","ALLEY":" ","HOUSE_NO":"１５０號","E_COORD97":163594.35999999999,"N_COORD97":2562196.1800000002,"ADDRESS":"佳安南路１５０號","OBJECTID":637744},"geometry":{"x":163594.36000000127,"y":2562196.1800000016}},{"attributes":{"ID":637772,"DIS_CODE":0,"TOWNNAME":"佳里區","LI":"安西里","LIN":"41鄰","STREET":"佳西路","SECT":" ","MAREA":" ","LANE":" ","ALLEY":" ","HOUSE_NO":"１００號","E_COORD97":164786.47,"N_COORD97":2562392.52,"ADDRESS":"佳西路１００號","OBJECTID":637745},"geometry":{"x":164786.46999999974,"y":2562392.5199999977}},{"attributes":{"ID":637773,"DIS_CODE":0,"TOWNNAME":"佳里區","LI":"安西里","LIN":"41鄰","STREET":"佳西路","SECT":" ","MAREA":" ","LANE":" ","ALLEY":" ","HOUSE_NO":"１０２號","E_COORD97":164786.04000000001,"N_COORD97":2562396.7000000002,"ADDRESS":"佳西路１０２號","OBJECTID":637746},"geometry":{"x":164786.04000000097,"y":2562396.6999999993}},{"attributes":{"ID":637774,"DIS_CODE":0,"TOWNNAME":"佳里區","LI":"安西里","LIN":"41鄰","STREET":"佳西路","SECT":" ","MAREA":" ","LANE":" ","ALLEY":" ","HOUSE_NO":"１０６號","E_COORD97":164786.17999999999,"N_COORD97":2562400.9300000002,"ADDRESS":"佳西路１０６號","OBJECTID":637747},"geometry":{"x":164786.18000000063,"y":2562400.9300000016}},{"attributes":{"ID":637775,"DIS_CODE":0,"TOWNNAME":"佳里區","LI":"鎮山里","LIN":"8鄰","STREET":"佳東路","SECT":" ","MAREA":" ","LANE":" ","ALLEY":" ","HOUSE_NO":"４９號","E_COORD97":166441.23999999999,"N_COORD97":2561470.6800000002,"ADDRESS":"佳東路４９號","OBJECTID":637748},"geometry":{"x":166441.24000000115,"y":2561470.6800000016}},{"attributes":{"ID":637776,"DIS_CODE":0,"TOWNNAME":"佳里區","LI":"六安里","LIN":"4鄰","STREET":"佳東路","SECT":" ","MAREA":" ","LANE":" ","ALLEY":" ","HOUSE_NO":"５５３號","E_COORD97":166238.45000000001,"N_COORD97":2562924.3399999999,"ADDRESS":"佳東路５５３號","OBJECTID":637749},"geometry":{"x":166238.45000000019,"y":2562924.3400000017}},{"attributes":{"ID":637777,"DIS_CODE":0,"TOWNNAME":"佳里區","LI":"六安里","LIN":"4鄰","STREET":"佳東路","SECT":" ","MAREA":" ","LANE":" ","ALLEY":" ","HOUSE_NO":"５８１號","E_COORD97":166212.75,"N_COORD97":2563044.73,"ADDRESS":"佳東路５８１號","OBJECTID":637750},"geometry":{"x":166212.75,"y":2563044.7300000023}},{"attributes":{"ID":637778,"DIS_CODE":0,"TOWNNAME":"佳里區","LI":"鎮山里","LIN":"8鄰","STREET":"佳東路","SECT":" ","MAREA":" ","LANE":" ","ALLEY":" ","HOUSE_NO":"５５號","E_COORD97":166439.87,"N_COORD97":2561483.4100000001,"ADDRESS":"佳東路５５號","OBJECTID":637751},"geometry":{"x":166439.87000000104,"y":2561483.410000002}},{"attributes":{"ID":637779,"DIS_CODE":0,"TOWNNAME":"佳里區","LI":"鎮山里","LIN":"8鄰","STREET":"佳東路","SECT":" ","MAREA":" ","LANE":" ","ALLEY":" ","HOUSE_NO":"５７號","E_COORD97":166439.64000000001,"N_COORD97":2561487.8399999999,"ADDRESS":"佳東路５７號","OBJECTID":637752},"geometry":{"x":166439.6400000006,"y":2561487.8399999999}},{"attributes":{"ID":637780,"DIS_CODE":0,"TOWNNAME":"佳里區","LI":"鎮山里","LIN":"8鄰","STREET":"佳東路","SECT":" ","MAREA":" ","LANE":" ","ALLEY":" ","HOUSE_NO":"５９號","E_COORD97":166439.54999999999,"N_COORD97":2561491.96,"ADDRESS":"佳東路５９號","OBJECTID":637753},"geometry":{"x":166439.55000000168,"y":2561491.9600000009}},{"attributes":{"ID":637781,"DIS_CODE":0,"TOWNNAME":"佳里區","LI":"東寧里","LIN":"12鄰","STREET":"和平街","SECT":" ","MAREA":" ","LANE":" ","ALLEY":" ","HOUSE_NO":"３６號","E_COORD97":165993.32999999999,"N_COORD97":2562522.8799999999,"ADDRESS":"和平街３６號","OBJECTID":637754},"geometry":{"x":165993.33000000007,"y":2562522.8800000008}},{"attributes":{"ID":637782,"DIS_CODE":0,"TOWNNAME":"佳里區","LI":"東寧里","LIN":"17鄰","STREET":"和平街","SECT":" ","MAREA":" ","LANE":" ","ALLEY":" ","HOUSE_NO":"３７號","E_COORD97":165997.76999999999,"N_COORD97":2562506.71,"ADDRESS":"和平街３７號","OBJECTID":637755},"geometry":{"x":165997.77000000048,"y":2562506.7100000009}},{"attributes":{"ID":637783,"DIS_CODE":0,"TOWNNAME":"中西區","LI":"水仙里","LIN":"3鄰","STREET":"仁愛街","SECT":" ","MAREA":" ","LANE":" ","ALLEY":" ","HOUSE_NO":"２３號","E_COORD97":167745.54999999999,"N_COORD97":2544025.3599999999,"ADDRESS":"仁愛街２３號","OBJECTID":637756},"geometry":{"x":167745.55000000075,"y":2544025.3600000013}},{"attributes":{"ID":637784,"DIS_CODE":0,"TOWNNAME":"佳里區","LI":"東寧里","LIN":"20鄰","STREET":"佳東路","SECT":" ","MAREA":" ","LANE":" ","ALLEY":" ","HOUSE_NO":"３９９號","E_COORD97":166269.56,"N_COORD97":2562532.3399999999,"ADDRESS":"佳東路３９９號","OBJECTID":637757},"geometry":{"x":166269.55999999959,"y":2562532.3399999999}},{"attributes":{"ID":637785,"DIS_CODE":0,"TOWNNAME":"佳里區","LI":"東寧里","LIN":"20鄰","STREET":"佳東路","SECT":" ","MAREA":" ","LANE":" ","ALLEY":" ","HOUSE_NO":"４０１號","E_COORD97":166269.67999999999,"N_COORD97":2562536.6899999999,"ADDRESS":"佳東路４０１號","OBJECTID":637758},"geometry":{"x":166269.68000000063,"y":2562536.6899999995}},{"attributes":{"ID":637786,"DIS_CODE":0,"TOWNNAME":"佳里區","LI":"東寧里","LIN":"20鄰","STREET":"佳東路","SECT":" ","MAREA":" ","LANE":" ","ALLEY":" ","HOUSE_NO":"４０３號","E_COORD97":166271.09,"N_COORD97":2562544.9900000002,"ADDRESS":"佳東路４０３號","OBJECTID":637759},"geometry":{"x":166271.08999999985,"y":2562544.9900000002}},{"attributes":{"ID":637787,"DIS_CODE":0,"TOWNNAME":"佳里區","LI":"鎮山里","LIN":"8鄰","STREET":"佳東路","SECT":" ","MAREA":" ","LANE":" ","ALLEY":" ","HOUSE_NO":"３６號","E_COORD97":166482.72,"N_COORD97":2561428.02,"ADDRESS":"佳東路３６號","OBJECTID":637760},"geometry":{"x":166482.72000000067,"y":2561428.0200000014}},{"attributes":{"ID":637788,"DIS_CODE":0,"TOWNNAME":"佳里區","LI":"鎮山里","LIN":"8鄰","STREET":"佳東路","SECT":" ","MAREA":" ","LANE":" ","ALLEY":" ","HOUSE_NO":"３８號","E_COORD97":166493.76999999999,"N_COORD97":2561458.5,"ADDRESS":"佳東路３８號","OBJECTID":637761},"geometry":{"x":166493.77000000142,"y":2561458.5000000019}},{"attributes":{"ID":637789,"DIS_CODE":0,"TOWNNAME":"佳里區","LI":"鎮山里","LIN":"8鄰","STREET":"佳東路","SECT":" ","MAREA":" ","LANE":" ","ALLEY":" ","HOUSE_NO":"３９號","E_COORD97":166443.16,"N_COORD97":2561449.2999999998,"ADDRESS":"佳東路３９號","OBJECTID":637762},"geometry":{"x":166443.16000000108,"y":2561449.2999999989}},{"attributes":{"ID":637790,"DIS_CODE":0,"TOWNNAME":"佳里區","LI":"東寧里","LIN":"19鄰","STREET":"佳東路","SECT":" ","MAREA":" ","LANE":" ","ALLEY":" ","HOUSE_NO":"３２９號","E_COORD97":166319.95000000001,"N_COORD97":2562353.1699999999,"ADDRESS":"佳東路３２９號","OBJECTID":637763},"geometry":{"x":166319.95000000019,"y":2562353.1699999999}},{"attributes":{"ID":637791,"DIS_CODE":0,"TOWNNAME":"佳里區","LI":"東寧里","LIN":"19鄰","STREET":"佳東路","SECT":" ","MAREA":" ","LANE":" ","ALLEY":" ","HOUSE_NO":"３３１號","E_COORD97":166318.66,"N_COORD97":2562357.8300000001,"ADDRESS":"佳東路３３１號","OBJECTID":637764},"geometry":{"x":166318.66000000015,"y":2562357.8300000019}},{"attributes":{"ID":637792,"DIS_CODE":0,"TOWNNAME":"佳里區","LI":"東寧里","LIN":"19鄰","STREET":"佳東路","SECT":" ","MAREA":" ","LANE":" ","ALLEY":" ","HOUSE_NO":"３３３號","E_COORD97":166317.01999999999,"N_COORD97":2562362.3599999999,"ADDRESS":"佳東路３３３號","OBJECTID":637765},"geometry":{"x":166317.01999999955,"y":2562362.3599999994}},{"attributes":{"ID":637793,"DIS_CODE":0,"TOWNNAME":"佳里區","LI":"東寧里","LIN":"19鄰","STREET":"佳東路","SECT":" ","MAREA":" ","LANE":" ","ALLEY":" ","HOUSE_NO":"３３５號","E_COORD97":166316.16,"N_COORD97":2562367.2799999998,"ADDRESS":"佳東路３３５號","OBJECTID":637766},"geometry":{"x":166316.16000000108,"y":2562367.2800000012}},{"attributes":{"ID":637794,"DIS_CODE":0,"TOWNNAME":"佳里區","LI":"東寧里","LIN":"19鄰","STREET":"佳東路","SECT":" ","MAREA":" ","LANE":" ","ALLEY":" ","HOUSE_NO":"３３７號","E_COORD97":166314.70999999999,"N_COORD97":2562372.02,"ADDRESS":"佳東路３３７號","OBJECTID":637767},"geometry":{"x":166314.70999999996,"y":2562372.0199999996}},{"attributes":{"ID":637795,"DIS_CODE":0,"TOWNNAME":"佳里區","LI":"東寧里","LIN":"19鄰","STREET":"佳東路","SECT":" ","MAREA":" ","LANE":" ","ALLEY":" ","HOUSE_NO":"３３９號","E_COORD97":166313.34,"N_COORD97":2562376.5499999998,"ADDRESS":"佳東路３３９號","OBJECTID":637768},"geometry":{"x":166313.33999999985,"y":2562376.5499999989}},{"attributes":{"ID":637796,"DIS_CODE":0,"TOWNNAME":"佳里區","LI":"東寧里","LIN":"19鄰","STREET":"佳東路","SECT":" ","MAREA":" ","LANE":" ","ALLEY":" ","HOUSE_NO":"３４１號","E_COORD97":166311.85000000001,"N_COORD97":2562381.52,"ADDRESS":"佳東路３４１號","OBJECTID":637769},"geometry":{"x":166311.8499999987,"y":2562381.5199999996}},{"attributes":{"ID":637797,"DIS_CODE":0,"TOWNNAME":"佳里區","LI":"東寧里","LIN":"19鄰","STREET":"佳東路","SECT":" ","MAREA":" ","LANE":" ","ALLEY":" ","HOUSE_NO":"３４３號","E_COORD97":166310.85000000001,"N_COORD97":2562385.7400000002,"ADDRESS":"佳東路３４３號","OBJECTID":637770},"geometry":{"x":166310.85000000056,"y":2562385.7400000021}},{"attributes":{"ID":637798,"DIS_CODE":0,"TOWNNAME":"佳里區","LI":"東寧里","LIN":"19鄰","STREET":"佳東路","SECT":" ","MAREA":" ","LANE":" ","ALLEY":" ","HOUSE_NO":"３４５號","E_COORD97":166309.17000000001,"N_COORD97":2562390.7400000002,"ADDRESS":"佳東路３４５號","OBJECTID":637771},"geometry":{"x":166309.17000000086,"y":2562390.7400000002}},{"attributes":{"ID":637799,"DIS_CODE":0,"TOWNNAME":"佳里區","LI":"六安里","LIN":"4鄰","STREET":"佳東路","SECT":" ","MAREA":" ","LANE":" ","ALLEY":" ","HOUSE_NO":"８５２號","E_COORD97":166313.85999999999,"N_COORD97":2562948.3199999998,"ADDRESS":"佳東路８５２號","OBJECTID":637772},"geometry":{"x":166313.86000000034,"y":2562948.3200000022}},{"attributes":{"ID":637800,"DIS_CODE":0,"TOWNNAME":"佳里區","LI":"六安里","LIN":"4鄰","STREET":"佳東路","SECT":" ","MAREA":" ","LANE":" ","ALLEY":" ","HOUSE_NO":"８５６號","E_COORD97":166268.95999999999,"N_COORD97":2562954.8700000001,"ADDRESS":"佳東路８５６號","OBJECTID":637773},"geometry":{"x":166268.95999999996,"y":2562954.8700000048}},{"attributes":{"ID":637801,"DIS_CODE":0,"TOWNNAME":"佳里區","LI":"東寧里","LIN":"12鄰","STREET":"和平街","SECT":" ","MAREA":" ","LANE":" ","ALLEY":" ","HOUSE_NO":"８號","E_COORD97":166075.32999999999,"N_COORD97":2562529.1299999999,"ADDRESS":"和平街８號","OBJECTID":637774},"geometry":{"x":166075.33000000194,"y":2562529.129999999}},{"attributes":{"ID":637802,"DIS_CODE":0,"TOWNNAME":"佳里區","LI":"六安里","LIN":"4鄰","STREET":"佳東路","SECT":" ","MAREA":" ","LANE":" ","ALLEY":" ","HOUSE_NO":"８７０號","E_COORD97":166265.32000000001,"N_COORD97":2562990.7999999998,"ADDRESS":"佳東路８７０號","OBJECTID":637775},"geometry":{"x":166265.32000000216,"y":2562990.8000000007}},{"attributes":{"ID":637803,"DIS_CODE":0,"TOWNNAME":"佳里區","LI":"六安里","LIN":"4鄰","STREET":"佳東路","SECT":" ","MAREA":" ","LANE":" ","ALLEY":" ","HOUSE_NO":"８８８號之１","E_COORD97":166261.10999999999,"N_COORD97":2563043.7999999998,"ADDRESS":"佳東路８８８號之１","OBJECTID":637776},"geometry":{"x":166261.11000000034,"y":2563043.8000000026}},{"attributes":{"ID":637804,"DIS_CODE":0,"TOWNNAME":"佳里區","LI":"鎮山里","LIN":"8鄰","STREET":"佳東路","SECT":" ","MAREA":" ","LANE":" ","ALLEY":" ","HOUSE_NO":"４１號","E_COORD97":166442.87,"N_COORD97":2561453.7599999998,"ADDRESS":"佳東路４１號","OBJECTID":637777},"geometry":{"x":166442.87000000197,"y":2561453.7600000016}},{"attributes":{"ID":637805,"DIS_CODE":0,"TOWNNAME":"佳里區","LI":"鎮山里","LIN":"8鄰","STREET":"佳東路","SECT":" ","MAREA":" ","LANE":" ","ALLEY":" ","HOUSE_NO":"４３號","E_COORD97":166442.35000000001,"N_COORD97":2561457.9399999999,"ADDRESS":"佳東路４３號","OBJECTID":637778},"geometry":{"x":166442.3499999987,"y":2561457.9400000013}},{"attributes":{"ID":637806,"DIS_CODE":0,"TOWNNAME":"佳里區","LI":"鎮山里","LIN":"8鄰","STREET":"佳東路","SECT":" ","MAREA":" ","LANE":" ","ALLEY":" ","HOUSE_NO":"４５號","E_COORD97":166441.88,"N_COORD97":2561462.3100000001,"ADDRESS":"佳東路４５號","OBJECTID":637779},"geometry":{"x":166441.87999999989,"y":2561462.3100000005}},{"attributes":{"ID":637807,"DIS_CODE":0,"TOWNNAME":"佳里區","LI":"鎮山里","LIN":"8鄰","STREET":"佳東路","SECT":" ","MAREA":" ","LANE":" ","ALLEY":" ","HOUSE_NO":"４７號","E_COORD97":166441.57000000001,"N_COORD97":2561466.2200000002,"ADDRESS":"佳東路４７號","OBJECTID":637780},"geometry":{"x":166441.56999999937,"y":2561466.2200000007}},{"attributes":{"ID":637808,"DIS_CODE":0,"TOWNNAME":"佳里區","LI":"鎮山里","LIN":"8鄰","STREET":"佳東路","SECT":" ","MAREA":" ","LANE":" ","ALLEY":" ","HOUSE_NO":"６１號","E_COORD97":166438.73000000001,"N_COORD97":2561496.6200000001,"ADDRESS":"佳東路６１號","OBJECTID":637781},"geometry":{"x":166438.73000000045,"y":2561496.6200000029}},{"attributes":{"ID":637809,"DIS_CODE":0,"TOWNNAME":"佳里區","LI":"鎮山里","LIN":"8鄰","STREET":"佳東路","SECT":" ","MAREA":" ","LANE":" ","ALLEY":" ","HOUSE_NO":"８６號","E_COORD97":166478.01000000001,"N_COORD97":2561549.2000000002,"ADDRESS":"佳東路８６號","OBJECTID":637782},"geometry":{"x":166478.00999999978,"y":2561549.1999999993}},{"attributes":{"ID":637810,"DIS_CODE":0,"TOWNNAME":"佳里區","LI":"鎮山里","LIN":"19鄰","STREET":"佳南路","SECT":" ","MAREA":" ","LANE":" ","ALLEY":" ","HOUSE_NO":"１１５號","E_COORD97":166283.56,"N_COORD97":2561085.6499999999,"ADDRESS":"佳南路１１５號","OBJECTID":637783},"geometry":{"x":166283.56000000052,"y":2561085.6500000022}},{"attributes":{"ID":637811,"DIS_CODE":0,"TOWNNAME":"佳里區","LI":"鎮山里","LIN":"19鄰","STREET":"佳南路","SECT":" ","MAREA":" ","LANE":" ","ALLEY":" ","HOUSE_NO":"１１７號","E_COORD97":166275.54000000001,"N_COORD97":2561080.8500000001,"ADDRESS":"佳南路１１７號","OBJECTID":637784},"geometry":{"x":166275.5400000019,"y":2561080.8499999996}},{"attributes":{"ID":637812,"DIS_CODE":0,"TOWNNAME":"佳里區","LI":"鎮山里","LIN":"19鄰","STREET":"佳南路","SECT":" ","MAREA":" ","LANE":" ","ALLEY":" ","HOUSE_NO":"１１９號","E_COORD97":166270.66,"N_COORD97":2561076.8700000001,"ADDRESS":"佳南路１１９號","OBJECTID":637785},"geometry":{"x":166270.66000000015,"y":2561076.8700000029}},{"attributes":{"ID":637813,"DIS_CODE":0,"TOWNNAME":"佳里區","LI":"鎮山里","LIN":"19鄰","STREET":"佳南路","SECT":" ","MAREA":" ","LANE":" ","ALLEY":" ","HOUSE_NO":"１２８號","E_COORD97":166270.35999999999,"N_COORD97":2561123.5600000001,"ADDRESS":"佳南路１２８號","OBJECTID":637786},"geometry":{"x":166270.3600000022,"y":2561123.5600000024}},{"attributes":{"ID":637814,"DIS_CODE":0,"TOWNNAME":"佳里區","LI":"鎮山里","LIN":"19鄰","STREET":"佳南路","SECT":" ","MAREA":" ","LANE":" ","ALLEY":" ","HOUSE_NO":"１４２號","E_COORD97":166250.48000000001,"N_COORD97":2561101.9900000002,"ADDRESS":"佳南路１４２號","OBJECTID":637787},"geometry":{"x":166250.48000000045,"y":2561101.9900000039}},{"attributes":{"ID":637815,"DIS_CODE":0,"TOWNNAME":"佳里區","LI":"鎮山里","LIN":"20鄰","STREET":"佳南路","SECT":" ","MAREA":" ","LANE":" ","ALLEY":" ","HOUSE_NO":"１６１號","E_COORD97":166139.54999999999,"N_COORD97":2560984.6099999999,"ADDRESS":"佳南路１６１號","OBJECTID":637788},"geometry":{"x":166139.55000000168,"y":2560984.6099999994}},{"attributes":{"ID":637816,"DIS_CODE":0,"TOWNNAME":"佳里區","LI":"鎮山里","LIN":"20鄰","STREET":"佳南路","SECT":" ","MAREA":" ","LANE":" ","ALLEY":" ","HOUSE_NO":"１６３號","E_COORD97":166135.16,"N_COORD97":2560983.9500000002,"ADDRESS":"佳南路１６３號","OBJECTID":637789},"geometry":{"x":166135.16000000015,"y":2560983.9500000011}},{"attributes":{"ID":637817,"DIS_CODE":0,"TOWNNAME":"佳里區","LI":"鎮山里","LIN":"20鄰","STREET":"佳南路","SECT":" ","MAREA":" ","LANE":" ","ALLEY":" ","HOUSE_NO":"１６５號","E_COORD97":166130.78,"N_COORD97":2560983.2999999998,"ADDRESS":"佳南路１６５號","OBJECTID":637790},"geometry":{"x":166130.78000000119,"y":2560983.3000000026}},{"attributes":{"ID":637818,"DIS_CODE":0,"TOWNNAME":"佳里區","LI":"鎮山里","LIN":"20鄰","STREET":"佳南路","SECT":" ","MAREA":" ","LANE":" ","ALLEY":" ","HOUSE_NO":"１６７號","E_COORD97":166126.39000000001,"N_COORD97":2560982.6400000001,"ADDRESS":"佳南路１６７號","OBJECTID":637791},"geometry":{"x":166126.38999999966,"y":2560982.6400000043}},{"attributes":{"ID":637819,"DIS_CODE":0,"TOWNNAME":"佳里區","LI":"鎮山里","LIN":"20鄰","STREET":"佳南路","SECT":" ","MAREA":" ","LANE":" ","ALLEY":" ","HOUSE_NO":"１６９號","E_COORD97":166122.01000000001,"N_COORD97":2560981.9900000002,"ADDRESS":"佳南路１６９號","OBJECTID":637792},"geometry":{"x":166122.00999999978,"y":2560981.9900000002}},{"attributes":{"ID":637820,"DIS_CODE":0,"TOWNNAME":"佳里區","LI":"鎮山里","LIN":"20鄰","STREET":"佳南路","SECT":" ","MAREA":" ","LANE":" ","ALLEY":" ","HOUSE_NO":"１７７號","E_COORD97":166109.42000000001,"N_COORD97":2560933.9199999999,"ADDRESS":"佳南路１７７號","OBJECTID":637793},"geometry":{"x":166109.41999999993,"y":2560933.9200000018}},{"attributes":{"ID":637821,"DIS_CODE":0,"TOWNNAME":"佳里區","LI":"鎮山里","LIN":"20鄰","STREET":"佳南路","SECT":" ","MAREA":" ","LANE":" ","ALLEY":" ","HOUSE_NO":"１８３號","E_COORD97":166081.51999999999,"N_COORD97":2560975.0899999999,"ADDRESS":"佳南路１８３號","OBJECTID":637794},"geometry":{"x":166081.51999999955,"y":2560975.0899999999}},{"attributes":{"ID":637822,"DIS_CODE":0,"TOWNNAME":"佳里區","LI":"建南里","LIN":"34鄰","STREET":"佳南路","SECT":" ","MAREA":" ","LANE":" ","ALLEY":" ","HOUSE_NO":"２１１號","E_COORD97":166012.94,"N_COORD97":2560960.5,"ADDRESS":"佳南路２１１號","OBJECTID":637795},"geometry":{"x":166012.94000000041,"y":2560960.5000000019}},{"attributes":{"ID":637823,"DIS_CODE":0,"TOWNNAME":"佳里區","LI":"鎮山里","LIN":"19鄰","STREET":"佳南路","SECT":" ","MAREA":" ","LANE":" ","ALLEY":" ","HOUSE_NO":"１９０號","E_COORD97":166167.89000000001,"N_COORD97":2561042.71,"ADDRESS":"佳南路１９０號","OBJECTID":637796},"geometry":{"x":166167.8900000006,"y":2561042.7100000009}},{"attributes":{"ID":637824,"DIS_CODE":0,"TOWNNAME":"佳里區","LI":"鎮山里","LIN":"19鄰","STREET":"佳南路","SECT":" ","MAREA":" ","LANE":" ","ALLEY":" ","HOUSE_NO":"１９２號","E_COORD97":166163.60000000001,"N_COORD97":2561040.75,"ADDRESS":"佳南路１９２號","OBJECTID":637797},"geometry":{"x":166163.59999999963,"y":2561040.75}},{"attributes":{"ID":637825,"DIS_CODE":0,"TOWNNAME":"佳里區","LI":"鎮山里","LIN":"19鄰","STREET":"佳南路","SECT":" ","MAREA":" ","LANE":" ","ALLEY":" ","HOUSE_NO":"１９６號","E_COORD97":166160.06,"N_COORD97":2561038.5600000001,"ADDRESS":"佳南路１９６號","OBJECTID":637798},"geometry":{"x":166160.06000000052,"y":2561038.5600000024}},{"attributes":{"ID":637826,"DIS_CODE":0,"TOWNNAME":"佳里區","LI":"鎮山里","LIN":"19鄰","STREET":"佳南路","SECT":" ","MAREA":" ","LANE":" ","ALLEY":" ","HOUSE_NO":"１９８號","E_COORD97":166156.25,"N_COORD97":2561037.1899999999,"ADDRESS":"佳南路１９８號","OBJECTID":637799},"geometry":{"x":166156.25,"y":2561037.1899999995}},{"attributes":{"ID":637827,"DIS_CODE":0,"TOWNNAME":"佳里區","LI":"鎮山里","LIN":"23鄰","STREET":"佳南路","SECT":" ","MAREA":" ","LANE":" ","ALLEY":" ","HOUSE_NO":"１號","E_COORD97":166447.34,"N_COORD97":2561288.5,"ADDRESS":"佳南路１號","OBJECTID":637800},"geometry":{"x":166447.33999999985,"y":2561288.5000000019}}]}