{"displayFieldName":"TOWNNAME","fieldAliases":{"ID":"ID","DIS_CODE":"DIS_CODE","TOWNNAME":"TOWNNAME","LI":"LI","LIN":"LIN","STREET":"STREET","SECT":"SECT","MAREA":"MAREA","LANE":"LANE","ALLEY":"ALLEY","HOUSE_NO":"HOUSE_NO","E_COORD97":"E_COORD97","N_COORD97":"N_COORD97","ADDRESS":"ADDRESS","OBJECTID":"OBJECTID"},"geometryType":"esriGeometryPoint","spatialReference":{"wkid":102443,"latestWkid":3826},"fields":[{"name":"ID","type":"esriFieldTypeDouble","alias":"ID"},{"name":"DIS_CODE","type":"esriFieldTypeInteger","alias":"DIS_CODE"},{"name":"TOWNNAME","type":"esriFieldTypeString","alias":"TOWNNAME","length":8},{"name":"LI","type":"esriFieldTypeString","alias":"LI","length":8},{"name":"LIN","type":"esriFieldTypeString","alias":"LIN","length":12},{"name":"STREET","type":"esriFieldTypeString","alias":"STREET","length":20},{"name":"SECT","type":"esriFieldTypeString","alias":"SECT","length":8},{"name":"MAREA","type":"esriFieldTypeString","alias":"MAREA","length":12},{"name":"LANE","type":"esriFieldTypeString","alias":"LANE","length":10},{"name":"ALLEY","type":"esriFieldTypeString","alias":"ALLEY","length":10},{"name":"HOUSE_NO","type":"esriFieldTypeString","alias":"HOUSE_NO","length":20},{"name":"E_COORD97","type":"esriFieldTypeDouble","alias":"E_COORD97"},{"name":"N_COORD97","type":"esriFieldTypeDouble","alias":"N_COORD97"},{"name":"ADDRESS","type":"esriFieldTypeString","alias":"ADDRESS","length":50},{"name":"OBJECTID","type":"esriFieldTypeOID","alias":"OBJECTID"}],"features":[{"attributes":{"ID":170602,"DIS_CODE":0,"TOWNNAME":"歸仁區","LI":"七甲里","LIN":"20鄰","STREET":"南潭三街","SECT":" ","MAREA":" ","LANE":"１６５巷","ALLEY":"３弄","HOUSE_NO":"３號","E_COORD97":176455.07999999999,"N_COORD97":2543265.0299999998,"ADDRESS":"南潭三街１６５巷３弄３號","OBJECTID":170601},"geometry":{"x":176455.08000000101,"y":2543265.0300000012}},{"attributes":{"ID":170603,"DIS_CODE":0,"TOWNNAME":"新化區","LI":"知義里","LIN":"12鄰","STREET":" ","SECT":" ","MAREA":"口埤","LANE":" ","ALLEY":" ","HOUSE_NO":"１１號之４","E_COORD97":182639.23000000001,"N_COORD97":2547182.2599999998,"ADDRESS":"口埤１１號之４","OBJECTID":170602},"geometry":{"x":182639.23000000045,"y":2547182.2600000035}},{"attributes":{"ID":170604,"DIS_CODE":0,"TOWNNAME":"新化區","LI":"知義里","LIN":"12鄰","STREET":" ","SECT":" ","MAREA":"口埤","LANE":" ","ALLEY":" ","HOUSE_NO":"１１號之３","E_COORD97":182634.34,"N_COORD97":2547196.2599999998,"ADDRESS":"口埤１１號之３","OBJECTID":170603},"geometry":{"x":182634.34000000078,"y":2547196.2600000016}},{"attributes":{"ID":170605,"DIS_CODE":0,"TOWNNAME":"歸仁區","LI":"七甲里","LIN":"20鄰","STREET":"南潭三街","SECT":" ","MAREA":" ","LANE":"１６５巷","ALLEY":"３弄","HOUSE_NO":"１０號","E_COORD97":176473.73000000001,"N_COORD97":2543247.0299999998,"ADDRESS":"南潭三街１６５巷３弄１０號","OBJECTID":170604},"geometry":{"x":176473.73000000045,"y":2543247.0300000031}},{"attributes":{"ID":170606,"DIS_CODE":0,"TOWNNAME":"歸仁區","LI":"大廟里","LIN":"14鄰","STREET":"大廟六街","SECT":" ","MAREA":" ","LANE":"１１０巷","ALLEY":"３弄","HOUSE_NO":"１３號","E_COORD97":176247.17000000001,"N_COORD97":2544242.25,"ADDRESS":"大廟六街１１０巷３弄１３號","OBJECTID":170605},"geometry":{"x":176247.16999999899,"y":2544242.25}},{"attributes":{"ID":170607,"DIS_CODE":0,"TOWNNAME":"新化區","LI":"知義里","LIN":"12鄰","STREET":" ","SECT":" ","MAREA":"口埤","LANE":" ","ALLEY":" ","HOUSE_NO":"１１號之５","E_COORD97":182643.45999999999,"N_COORD97":2547170.2599999998,"ADDRESS":"口埤１１號之５","OBJECTID":170606},"geometry":{"x":182643.46000000089,"y":2547170.2599999998}},{"attributes":{"ID":170608,"DIS_CODE":0,"TOWNNAME":"歸仁區","LI":"七甲里","LIN":"18鄰","STREET":"南潭三街","SECT":" ","MAREA":" ","LANE":"１６２巷","ALLEY":"８弄","HOUSE_NO":"９號","E_COORD97":176413.48000000001,"N_COORD97":2543141.02,"ADDRESS":"南潭三街１６２巷８弄９號","OBJECTID":170607},"geometry":{"x":176413.48000000231,"y":2543141.0199999996}},{"attributes":{"ID":170609,"DIS_CODE":0,"TOWNNAME":"新化區","LI":"知義里","LIN":"12鄰","STREET":" ","SECT":" ","MAREA":"口埤","LANE":" ","ALLEY":" ","HOUSE_NO":"９號之１","E_COORD97":182461.98893299999,"N_COORD97":2547205.9099499998,"ADDRESS":"口埤９號之１","OBJECTID":170608},"geometry":{"x":182461.98893299978,"y":2547205.9099460002}},{"attributes":{"ID":170610,"DIS_CODE":0,"TOWNNAME":"新化區","LI":"知義里","LIN":"12鄰","STREET":" ","SECT":" ","MAREA":"口埤","LANE":" ","ALLEY":" ","HOUSE_NO":"３４號之１","E_COORD97":183298.13,"N_COORD97":2547163.2599999998,"ADDRESS":"口埤３４號之１","OBJECTID":170609},"geometry":{"x":183298.13000000082,"y":2547163.2600000016}},{"attributes":{"ID":170611,"DIS_CODE":0,"TOWNNAME":"歸仁區","LI":"大廟里","LIN":"18鄰","STREET":"大廟五街","SECT":" ","MAREA":" ","LANE":"２７巷","ALLEY":"２弄","HOUSE_NO":"５號","E_COORD97":175907.17999999999,"N_COORD97":2544239.0899999999,"ADDRESS":"大廟五街２７巷２弄５號","OBJECTID":170610},"geometry":{"x":175907.1799999997,"y":2544239.0899999999}},{"attributes":{"ID":170612,"DIS_CODE":0,"TOWNNAME":"歸仁區","LI":"大廟里","LIN":"13鄰","STREET":"大廟六街","SECT":" ","MAREA":" ","LANE":"１１０巷","ALLEY":"２０弄","HOUSE_NO":"１６號","E_COORD97":176200.01999999999,"N_COORD97":2544199.25,"ADDRESS":"大廟六街１１０巷２０弄１６號","OBJECTID":170611},"geometry":{"x":176200.01999999955,"y":2544199.2500000019}},{"attributes":{"ID":170613,"DIS_CODE":0,"TOWNNAME":"後壁區","LI":"新嘉里","LIN":"13鄰","STREET":" ","SECT":" ","MAREA":"白沙屯","LANE":" ","ALLEY":" ","HOUSE_NO":"１３０號之７","E_COORD97":179948.72,"N_COORD97":2585156.0899999999,"ADDRESS":"白沙屯１３０號之７","OBJECTID":170612},"geometry":{"x":179948.71999999974,"y":2585156.0900000017}},{"attributes":{"ID":170614,"DIS_CODE":0,"TOWNNAME":"後壁區","LI":"新嘉里","LIN":"13鄰","STREET":" ","SECT":" ","MAREA":"白沙屯","LANE":" ","ALLEY":" ","HOUSE_NO":"１３０號","E_COORD97":179789.41,"N_COORD97":2585418.7999999998,"ADDRESS":"白沙屯１３０號","OBJECTID":170613},"geometry":{"x":179789.41000000108,"y":2585418.8000000007}},{"attributes":{"ID":170615,"DIS_CODE":0,"TOWNNAME":"歸仁區","LI":"六甲里","LIN":"34鄰","STREET":"六甲六街","SECT":" ","MAREA":" ","LANE":"１１巷","ALLEY":"１弄","HOUSE_NO":"２號","E_COORD97":175597.747351,"N_COORD97":2539320.7916199998,"ADDRESS":"六甲六街１１巷１弄２號","OBJECTID":170614},"geometry":{"x":175597.74735100009,"y":2539320.7916210014}},{"attributes":{"ID":170616,"DIS_CODE":0,"TOWNNAME":"後壁區","LI":"新嘉里","LIN":"13鄰","STREET":" ","SECT":" ","MAREA":"白沙屯","LANE":" ","ALLEY":" ","HOUSE_NO":"１３１號之２","E_COORD97":179743.01999999999,"N_COORD97":2585439.8399999999,"ADDRESS":"白沙屯１３１號之２","OBJECTID":170615},"geometry":{"x":179743.01999999955,"y":2585439.8400000017}},{"attributes":{"ID":170617,"DIS_CODE":0,"TOWNNAME":"後壁區","LI":"新嘉里","LIN":"13鄰","STREET":" ","SECT":" ","MAREA":"白沙屯","LANE":" ","ALLEY":" ","HOUSE_NO":"１３１號","E_COORD97":179740.45999999999,"N_COORD97":2585454.6200000001,"ADDRESS":"白沙屯１３１號","OBJECTID":170616},"geometry":{"x":179740.45999999996,"y":2585454.620000001}},{"attributes":{"ID":170618,"DIS_CODE":0,"TOWNNAME":"後壁區","LI":"新嘉里","LIN":"13鄰","STREET":" ","SECT":" ","MAREA":"白沙屯","LANE":" ","ALLEY":" ","HOUSE_NO":"１３２號之１","E_COORD97":179676.04000000001,"N_COORD97":2585476.73,"ADDRESS":"白沙屯１３２號之１","OBJECTID":170617},"geometry":{"x":179676.0400000019,"y":2585476.7300000004}},{"attributes":{"ID":170619,"DIS_CODE":0,"TOWNNAME":"後壁區","LI":"新嘉里","LIN":"13鄰","STREET":" ","SECT":" ","MAREA":"白沙屯","LANE":" ","ALLEY":" ","HOUSE_NO":"１３２號之２","E_COORD97":179660.32999999999,"N_COORD97":2585472.8300000001,"ADDRESS":"白沙屯１３２號之２","OBJECTID":170618},"geometry":{"x":179660.32999999914,"y":2585472.8300000038}},{"attributes":{"ID":170620,"DIS_CODE":0,"TOWNNAME":"後壁區","LI":"新嘉里","LIN":"13鄰","STREET":" ","SECT":" ","MAREA":"白沙屯","LANE":" ","ALLEY":" ","HOUSE_NO":"１３２號之３","E_COORD97":179665.73000000001,"N_COORD97":2585462.3100000001,"ADDRESS":"白沙屯１３２號之３","OBJECTID":170619},"geometry":{"x":179665.73000000138,"y":2585462.3100000005}},{"attributes":{"ID":170621,"DIS_CODE":0,"TOWNNAME":"歸仁區","LI":"大廟里","LIN":"14鄰","STREET":"大廟六街","SECT":" ","MAREA":" ","LANE":"１１０巷","ALLEY":"１弄","HOUSE_NO":"１５號","E_COORD97":176226.76999999999,"N_COORD97":2544274.25,"ADDRESS":"大廟六街１１０巷１弄１５號","OBJECTID":170620},"geometry":{"x":176226.76999999955,"y":2544274.2500000019}},{"attributes":{"ID":170622,"DIS_CODE":0,"TOWNNAME":"後壁區","LI":"新嘉里","LIN":"13鄰","STREET":" ","SECT":" ","MAREA":"白沙屯","LANE":" ","ALLEY":" ","HOUSE_NO":"１３３號","E_COORD97":179641.64000000001,"N_COORD97":2585456.3500000001,"ADDRESS":"白沙屯１３３號","OBJECTID":170621},"geometry":{"x":179641.6400000006,"y":2585456.3500000015}},{"attributes":{"ID":170623,"DIS_CODE":0,"TOWNNAME":"後壁區","LI":"新嘉里","LIN":"13鄰","STREET":" ","SECT":" ","MAREA":"白沙屯","LANE":" ","ALLEY":" ","HOUSE_NO":"１３４號","E_COORD97":179643.34,"N_COORD97":2585445.1800000002,"ADDRESS":"白沙屯１３４號","OBJECTID":170622},"geometry":{"x":179643.34000000078,"y":2585445.1799999997}},{"attributes":{"ID":170624,"DIS_CODE":0,"TOWNNAME":"後壁區","LI":"新嘉里","LIN":"13鄰","STREET":" ","SECT":" ","MAREA":"白沙屯","LANE":" ","ALLEY":" ","HOUSE_NO":"１３５號","E_COORD97":179665.54000000001,"N_COORD97":2585432.5,"ADDRESS":"白沙屯１３５號","OBJECTID":170623},"geometry":{"x":179665.54000000004,"y":2585432.5000000019}},{"attributes":{"ID":170625,"DIS_CODE":0,"TOWNNAME":"新化區","LI":"豐榮里","LIN":"12鄰","STREET":"正新路","SECT":" ","MAREA":" ","LANE":" ","ALLEY":" ","HOUSE_NO":"８７號","E_COORD97":178585.76999999999,"N_COORD97":2548046.25,"ADDRESS":"正新路８７號","OBJECTID":170624},"geometry":{"x":178585.77000000048,"y":2548046.25}},{"attributes":{"ID":170626,"DIS_CODE":0,"TOWNNAME":"後壁區","LI":"新嘉里","LIN":"13鄰","STREET":" ","SECT":" ","MAREA":"白沙屯","LANE":" ","ALLEY":" ","HOUSE_NO":"１３７號之３","E_COORD97":179666.70999999999,"N_COORD97":2585271.1400000001,"ADDRESS":"白沙屯１３７號之３","OBJECTID":170625},"geometry":{"x":179666.71000000089,"y":2585271.1400000043}},{"attributes":{"ID":170627,"DIS_CODE":0,"TOWNNAME":"後壁區","LI":"新嘉里","LIN":"13鄰","STREET":" ","SECT":" ","MAREA":"白沙屯","LANE":" ","ALLEY":" ","HOUSE_NO":"１３７號","E_COORD97":179688.75,"N_COORD97":2585408.5800000001,"ADDRESS":"白沙屯１３７號","OBJECTID":170626},"geometry":{"x":179688.75000000093,"y":2585408.5800000001}},{"attributes":{"ID":170628,"DIS_CODE":0,"TOWNNAME":"後壁區","LI":"新嘉里","LIN":"13鄰","STREET":" ","SECT":" ","MAREA":"白沙屯","LANE":" ","ALLEY":" ","HOUSE_NO":"１３９號","E_COORD97":179670.51999999999,"N_COORD97":2585397.7599999998,"ADDRESS":"白沙屯１３９號","OBJECTID":170627},"geometry":{"x":179670.52000000142,"y":2585397.7599999998}},{"attributes":{"ID":170629,"DIS_CODE":0,"TOWNNAME":"後壁區","LI":"新嘉里","LIN":"13鄰","STREET":" ","SECT":" ","MAREA":"白沙屯","LANE":" ","ALLEY":" ","HOUSE_NO":"１４０號之２","E_COORD97":179639.64999999999,"N_COORD97":2585396.8399999999,"ADDRESS":"白沙屯１４０號之２","OBJECTID":170628},"geometry":{"x":179639.65000000037,"y":2585396.8399999999}},{"attributes":{"ID":170630,"DIS_CODE":0,"TOWNNAME":"後壁區","LI":"新嘉里","LIN":"13鄰","STREET":" ","SECT":" ","MAREA":"白沙屯","LANE":" ","ALLEY":" ","HOUSE_NO":"１４０號","E_COORD97":179641.29999999999,"N_COORD97":2585407.5699999998,"ADDRESS":"白沙屯１４０號","OBJECTID":170629},"geometry":{"x":179641.29999999981,"y":2585407.5700000022}},{"attributes":{"ID":170631,"DIS_CODE":0,"TOWNNAME":"新化區","LI":"知義里","LIN":"12鄰","STREET":" ","SECT":" ","MAREA":"口埤","LANE":" ","ALLEY":" ","HOUSE_NO":"１１號之６","E_COORD97":182646.85000000001,"N_COORD97":2547161.2599999998,"ADDRESS":"口埤１１號之６","OBJECTID":170630},"geometry":{"x":182646.85000000149,"y":2547161.2599999998}},{"attributes":{"ID":170632,"DIS_CODE":0,"TOWNNAME":"善化區","LI":"嘉南里","LIN":"12鄰","STREET":" ","SECT":" ","MAREA":"茄拔","LANE":" ","ALLEY":" ","HOUSE_NO":"３６７號","E_COORD97":180508.25,"N_COORD97":2559682.0099999998,"ADDRESS":"茄拔３６７號","OBJECTID":170631},"geometry":{"x":180508.25,"y":2559682.0100000016}},{"attributes":{"ID":170633,"DIS_CODE":0,"TOWNNAME":"新化區","LI":"知義里","LIN":"12鄰","STREET":" ","SECT":" ","MAREA":"口埤","LANE":" ","ALLEY":" ","HOUSE_NO":"１１號之１","E_COORD97":182623.92999999999,"N_COORD97":2547227.2599999998,"ADDRESS":"口埤１１號之１","OBJECTID":170632},"geometry":{"x":182623.9299999997,"y":2547227.2600000016}},{"attributes":{"ID":170634,"DIS_CODE":0,"TOWNNAME":"新化區","LI":"知義里","LIN":"12鄰","STREET":" ","SECT":" ","MAREA":"口埤","LANE":" ","ALLEY":" ","HOUSE_NO":"１３５號","E_COORD97":182472.45000000001,"N_COORD97":2547262.25,"ADDRESS":"口埤１３５號","OBJECTID":170633},"geometry":{"x":182472.45000000112,"y":2547262.25}},{"attributes":{"ID":170635,"DIS_CODE":0,"TOWNNAME":"新化區","LI":"知義里","LIN":"12鄰","STREET":" ","SECT":" ","MAREA":"口埤","LANE":" ","ALLEY":" ","HOUSE_NO":"３９號","E_COORD97":183342.5,"N_COORD97":2547149.25,"ADDRESS":"口埤３９號","OBJECTID":170634},"geometry":{"x":183342.5,"y":2547149.2500000019}},{"attributes":{"ID":170636,"DIS_CODE":0,"TOWNNAME":"歸仁區","LI":"大廟里","LIN":"4鄰","STREET":"和順路","SECT":"二段","MAREA":" ","LANE":"１５１巷","ALLEY":"３９弄","HOUSE_NO":"３７號","E_COORD97":176217,"N_COORD97":2543537.98,"ADDRESS":"和順路二段１５１巷３９弄３７號","OBJECTID":170635},"geometry":{"x":176217.00000000093,"y":2543537.9800000023}},{"attributes":{"ID":170637,"DIS_CODE":0,"TOWNNAME":"歸仁區","LI":"七甲里","LIN":"18鄰","STREET":"南潭三街","SECT":" ","MAREA":" ","LANE":"１６２巷","ALLEY":"８弄","HOUSE_NO":"８號","E_COORD97":176423.78,"N_COORD97":2543151.0299999998,"ADDRESS":"南潭三街１６２巷８弄８號","OBJECTID":170636},"geometry":{"x":176423.78000000119,"y":2543151.0299999993}},{"attributes":{"ID":170638,"DIS_CODE":0,"TOWNNAME":"歸仁區","LI":"六甲里","LIN":"41鄰","STREET":"民生十二街","SECT":" ","MAREA":" ","LANE":"２７巷","ALLEY":"１０弄","HOUSE_NO":"１１號","E_COORD97":176011.56,"N_COORD97":2539386.77,"ADDRESS":"民生十二街２７巷１０弄１１號","OBJECTID":170637},"geometry":{"x":176011.55999999959,"y":2539386.7699999996}},{"attributes":{"ID":170639,"DIS_CODE":0,"TOWNNAME":"新化區","LI":"知義里","LIN":"12鄰","STREET":" ","SECT":" ","MAREA":"口埤","LANE":" ","ALLEY":" ","HOUSE_NO":"２８號之１","E_COORD97":181601.63,"N_COORD97":2546292.2599999998,"ADDRESS":"口埤２８號之１","OBJECTID":170638},"geometry":{"x":181601.63000000082,"y":2546292.2599999998}},{"attributes":{"ID":170640,"DIS_CODE":0,"TOWNNAME":"新化區","LI":"知義里","LIN":"12鄰","STREET":" ","SECT":" ","MAREA":"口埤","LANE":" ","ALLEY":" ","HOUSE_NO":"４０號","E_COORD97":183350.39999999999,"N_COORD97":2547145.25,"ADDRESS":"口埤４０號","OBJECTID":170639},"geometry":{"x":183350.40000000037,"y":2547145.2500000037}},{"attributes":{"ID":170641,"DIS_CODE":0,"TOWNNAME":"後壁區","LI":"新嘉里","LIN":"13鄰","STREET":" ","SECT":" ","MAREA":"白沙屯","LANE":" ","ALLEY":" ","HOUSE_NO":"１４２號","E_COORD97":179636.35000000001,"N_COORD97":2585427.6600000001,"ADDRESS":"白沙屯１４２號","OBJECTID":170640},"geometry":{"x":179636.35000000056,"y":2585427.660000002}},{"attributes":{"ID":170642,"DIS_CODE":0,"TOWNNAME":"歸仁區","LI":"七甲里","LIN":"14鄰","STREET":"南丁路","SECT":" ","MAREA":" ","LANE":"５９１巷","ALLEY":"３７弄","HOUSE_NO":"２３號","E_COORD97":175966.48999999999,"N_COORD97":2543068.25,"ADDRESS":"南丁路５９１巷３７弄２３號","OBJECTID":170641},"geometry":{"x":175966.49000000115,"y":2543068.25}},{"attributes":{"ID":170643,"DIS_CODE":0,"TOWNNAME":"歸仁區","LI":"七甲里","LIN":"14鄰","STREET":"南丁路","SECT":" ","MAREA":" ","LANE":"５９１巷","ALLEY":"３７弄","HOUSE_NO":"３３號","E_COORD97":175928.59,"N_COORD97":2543062.25,"ADDRESS":"南丁路５９１巷３７弄３３號","OBJECTID":170642},"geometry":{"x":175928.58999999985,"y":2543062.25}},{"attributes":{"ID":170644,"DIS_CODE":0,"TOWNNAME":"後壁區","LI":"侯伯里","LIN":"13鄰","STREET":" ","SECT":" ","MAREA":"後壁寮","LANE":" ","ALLEY":" ","HOUSE_NO":"１０８號之６","E_COORD97":184985.23000000001,"N_COORD97":2585429.3199999998,"ADDRESS":"後壁寮１０８號之６","OBJECTID":170643},"geometry":{"x":184985.23000000138,"y":2585429.320000004}},{"attributes":{"ID":170645,"DIS_CODE":0,"TOWNNAME":"後壁區","LI":"侯伯里","LIN":"13鄰","STREET":" ","SECT":" ","MAREA":"後壁寮","LANE":" ","ALLEY":" ","HOUSE_NO":"１０８號之７０","E_COORD97":185001.57000000001,"N_COORD97":2585347.04,"ADDRESS":"後壁寮１０８號之７０","OBJECTID":170644},"geometry":{"x":185001.5700000003,"y":2585347.0399999991}},{"attributes":{"ID":170646,"DIS_CODE":0,"TOWNNAME":"歸仁區","LI":"七甲里","LIN":"17鄰","STREET":"南潭三街","SECT":" ","MAREA":" ","LANE":"１６２巷","ALLEY":"１１弄","HOUSE_NO":"２２號","E_COORD97":176489.67999999999,"N_COORD97":2543108.0299999998,"ADDRESS":"南潭三街１６２巷１１弄２２號","OBJECTID":170645},"geometry":{"x":176489.68000000063,"y":2543108.0300000031}},{"attributes":{"ID":170647,"DIS_CODE":0,"TOWNNAME":"歸仁區","LI":"大廟里","LIN":"20鄰","STREET":"大廟一街","SECT":" ","MAREA":" ","LANE":"２８巷","ALLEY":"２１弄","HOUSE_NO":"２號","E_COORD97":175761.94,"N_COORD97":2544154.1200000001,"ADDRESS":"大廟一街２８巷２１弄２號","OBJECTID":170646},"geometry":{"x":175761.94000000134,"y":2544154.1200000029}},{"attributes":{"ID":170648,"DIS_CODE":0,"TOWNNAME":"後壁區","LI":"侯伯里","LIN":"13鄰","STREET":" ","SECT":" ","MAREA":"後壁寮","LANE":" ","ALLEY":" ","HOUSE_NO":"１０８號之７２","E_COORD97":184994.19,"N_COORD97":2585350.77,"ADDRESS":"後壁寮１０８號之７２","OBJECTID":170647},"geometry":{"x":184994.19000000041,"y":2585350.7700000033}},{"attributes":{"ID":170649,"DIS_CODE":0,"TOWNNAME":"歸仁區","LI":"七甲里","LIN":"18鄰","STREET":"南潭三街","SECT":" ","MAREA":" ","LANE":"１６２巷","ALLEY":"１１弄","HOUSE_NO":"２３號","E_COORD97":176496.88,"N_COORD97":2543121.0299999998,"ADDRESS":"南潭三街１６２巷１１弄２３號","OBJECTID":170648},"geometry":{"x":176496.88000000082,"y":2543121.0299999993}},{"attributes":{"ID":170650,"DIS_CODE":0,"TOWNNAME":"新化區","LI":"太平里","LIN":"12鄰","STREET":"中正路","SECT":" ","MAREA":" ","LANE":"６３３巷","ALLEY":" ","HOUSE_NO":"８號","E_COORD97":178868.60999999999,"N_COORD97":2548925.25,"ADDRESS":"中正路６３３巷８號","OBJECTID":170649},"geometry":{"x":178868.61000000034,"y":2548925.2500000037}},{"attributes":{"ID":170651,"DIS_CODE":0,"TOWNNAME":"善化區","LI":"光文里","LIN":"15鄰","STREET":"民生路","SECT":" ","MAREA":" ","LANE":" ","ALLEY":" ","HOUSE_NO":"２４０號","E_COORD97":178309.34,"N_COORD97":2558947.0099999998,"ADDRESS":"民生路２４０號","OBJECTID":170650},"geometry":{"x":178309.34000000078,"y":2558947.0099999998}},{"attributes":{"ID":170652,"DIS_CODE":0,"TOWNNAME":"後壁區","LI":"侯伯里","LIN":"13鄰","STREET":" ","SECT":" ","MAREA":"後壁寮","LANE":" ","ALLEY":" ","HOUSE_NO":"１０８號之７３","E_COORD97":184990.75,"N_COORD97":2585352.7200000002,"ADDRESS":"後壁寮１０８號之７３","OBJECTID":170651},"geometry":{"x":184990.75000000093,"y":2585352.7200000025}},{"attributes":{"ID":170653,"DIS_CODE":0,"TOWNNAME":"後壁區","LI":"侯伯里","LIN":"13鄰","STREET":" ","SECT":" ","MAREA":"後壁寮","LANE":" ","ALLEY":" ","HOUSE_NO":"１０８號之７４","E_COORD97":184986.92000000001,"N_COORD97":2585354.4900000002,"ADDRESS":"後壁寮１０８號之７４","OBJECTID":170652},"geometry":{"x":184986.91999999993,"y":2585354.4900000021}},{"attributes":{"ID":170654,"DIS_CODE":0,"TOWNNAME":"後壁區","LI":"侯伯里","LIN":"13鄰","STREET":" ","SECT":" ","MAREA":"後壁寮","LANE":" ","ALLEY":" ","HOUSE_NO":"１０３號之１","E_COORD97":185103.48999999999,"N_COORD97":2585328.9900000002,"ADDRESS":"後壁寮１０３號之１","OBJECTID":170653},"geometry":{"x":185103.49000000115,"y":2585328.9900000002}},{"attributes":{"ID":170655,"DIS_CODE":0,"TOWNNAME":"後壁區","LI":"侯伯里","LIN":"13鄰","STREET":" ","SECT":" ","MAREA":"後壁寮","LANE":" ","ALLEY":" ","HOUSE_NO":"１０３號之３","E_COORD97":185091.51000000001,"N_COORD97":2585330.1600000001,"ADDRESS":"後壁寮１０３號之３","OBJECTID":170654},"geometry":{"x":185091.50999999978,"y":2585330.1600000001}},{"attributes":{"ID":170656,"DIS_CODE":0,"TOWNNAME":"後壁區","LI":"侯伯里","LIN":"13鄰","STREET":" ","SECT":" ","MAREA":"後壁寮","LANE":" ","ALLEY":" ","HOUSE_NO":"１０３號","E_COORD97":185101.94,"N_COORD97":2585344.3700000001,"ADDRESS":"後壁寮１０３號","OBJECTID":170655},"geometry":{"x":185101.94000000134,"y":2585344.370000001}},{"attributes":{"ID":170657,"DIS_CODE":0,"TOWNNAME":"善化區","LI":"光文里","LIN":"15鄰","STREET":"民生路","SECT":" ","MAREA":" ","LANE":" ","ALLEY":" ","HOUSE_NO":"２２７號","E_COORD97":178323.89999999999,"N_COORD97":2558931.0099999998,"ADDRESS":"民生路２２７號","OBJECTID":170656},"geometry":{"x":178323.90000000037,"y":2558931.0099999998}},{"attributes":{"ID":170658,"DIS_CODE":0,"TOWNNAME":"善化區","LI":"文昌里","LIN":"15鄰","STREET":"光復路","SECT":" ","MAREA":" ","LANE":" ","ALLEY":" ","HOUSE_NO":"４０號","E_COORD97":177575.75,"N_COORD97":2558719.0099999998,"ADDRESS":"光復路４０號","OBJECTID":170657},"geometry":{"x":177575.74999999907,"y":2558719.0100000016}},{"attributes":{"ID":170659,"DIS_CODE":0,"TOWNNAME":"新化區","LI":"知義里","LIN":"12鄰","STREET":" ","SECT":" ","MAREA":"口埤","LANE":" ","ALLEY":" ","HOUSE_NO":"１１７號","E_COORD97":182633.45000000001,"N_COORD97":2547265.25,"ADDRESS":"口埤１１７號","OBJECTID":170658},"geometry":{"x":182633.45000000112,"y":2547265.2500000019}},{"attributes":{"ID":170660,"DIS_CODE":0,"TOWNNAME":"新化區","LI":"知義里","LIN":"12鄰","STREET":" ","SECT":" ","MAREA":"口埤","LANE":" ","ALLEY":" ","HOUSE_NO":"８號","E_COORD97":182392.07268400001,"N_COORD97":2547204.74578,"ADDRESS":"口埤８號","OBJECTID":170659},"geometry":{"x":182392.07268400118,"y":2547204.7457800005}},{"attributes":{"ID":170661,"DIS_CODE":0,"TOWNNAME":"新化區","LI":"全興里","LIN":"12鄰","STREET":" ","SECT":" ","MAREA":"竹子\u25A0","LANE":" ","ALLEY":" ","HOUSE_NO":"２４７號之１０５","E_COORD97":178263.29000000001,"N_COORD97":2546831.2599999998,"ADDRESS":"竹子\u25A0２４７號之１０５","OBJECTID":170660},"geometry":{"x":178263.29000000004,"y":2546831.2599999998}},{"attributes":{"ID":170662,"DIS_CODE":0,"TOWNNAME":"新化區","LI":"全興里","LIN":"12鄰","STREET":" ","SECT":" ","MAREA":"竹子\u25A0","LANE":" ","ALLEY":" ","HOUSE_NO":"２４７號之１１２","E_COORD97":178265.69,"N_COORD97":2546803.2599999998,"ADDRESS":"竹子\u25A0２４７號之１１２","OBJECTID":170661},"geometry":{"x":178265.69000000134,"y":2546803.2600000016}},{"attributes":{"ID":170663,"DIS_CODE":0,"TOWNNAME":"新化區","LI":"全興里","LIN":"12鄰","STREET":" ","SECT":" ","MAREA":"竹子\u25A0","LANE":" ","ALLEY":" ","HOUSE_NO":"２４７號之１０９","E_COORD97":178253.78,"N_COORD97":2546831.2599999998,"ADDRESS":"竹子\u25A0２４７號之１０９","OBJECTID":170662},"geometry":{"x":178253.78000000026,"y":2546831.2599999998}},{"attributes":{"ID":170664,"DIS_CODE":0,"TOWNNAME":"新化區","LI":"全興里","LIN":"12鄰","STREET":" ","SECT":" ","MAREA":"竹子\u25A0","LANE":" ","ALLEY":" ","HOUSE_NO":"２４７號之１１５","E_COORD97":178240.09,"N_COORD97":2546830.2599999998,"ADDRESS":"竹子\u25A0２４７號之１１５","OBJECTID":170663},"geometry":{"x":178240.09000000078,"y":2546830.2600000016}},{"attributes":{"ID":170665,"DIS_CODE":0,"TOWNNAME":"新化區","LI":"全興里","LIN":"12鄰","STREET":" ","SECT":" ","MAREA":"竹子\u25A0","LANE":" ","ALLEY":" ","HOUSE_NO":"２４７號之１４３","E_COORD97":178222.98000000001,"N_COORD97":2546792.2599999998,"ADDRESS":"竹子\u25A0２４７號之１４３","OBJECTID":170664},"geometry":{"x":178222.98000000138,"y":2546792.2600000035}},{"attributes":{"ID":170666,"DIS_CODE":0,"TOWNNAME":"新化區","LI":"全興里","LIN":"12鄰","STREET":" ","SECT":" ","MAREA":"竹子\u25A0","LANE":" ","ALLEY":" ","HOUSE_NO":"２４７號之１０７","E_COORD97":178258.48000000001,"N_COORD97":2546831.2599999998,"ADDRESS":"竹子\u25A0２４７號之１０７","OBJECTID":170665},"geometry":{"x":178258.48000000138,"y":2546831.2599999998}},{"attributes":{"ID":170667,"DIS_CODE":0,"TOWNNAME":"歸仁區","LI":"大廟里","LIN":"18鄰","STREET":"大廟五街","SECT":" ","MAREA":" ","LANE":"２７巷","ALLEY":"６弄","HOUSE_NO":"１５號","E_COORD97":175888.03,"N_COORD97":2544273.0899999999,"ADDRESS":"大廟五街２７巷６弄１５號","OBJECTID":170666},"geometry":{"x":175888.03000000119,"y":2544273.0899999999}},{"attributes":{"ID":170668,"DIS_CODE":0,"TOWNNAME":"歸仁區","LI":"七甲里","LIN":"20鄰","STREET":"南潭三街","SECT":" ","MAREA":" ","LANE":"１６５巷","ALLEY":"３弄","HOUSE_NO":"６號","E_COORD97":176454.98000000001,"N_COORD97":2543247.0299999998,"ADDRESS":"南潭三街１６５巷３弄６號","OBJECTID":170667},"geometry":{"x":176454.98000000138,"y":2543247.0300000031}},{"attributes":{"ID":170669,"DIS_CODE":0,"TOWNNAME":"歸仁區","LI":"六甲里","LIN":"34鄰","STREET":"六甲六街","SECT":" ","MAREA":" ","LANE":"１１巷","ALLEY":"１弄","HOUSE_NO":"１０號","E_COORD97":175582.70476399999,"N_COORD97":2539321.3207899998,"ADDRESS":"六甲六街１１巷１弄１０號","OBJECTID":170668},"geometry":{"x":175582.70476400014,"y":2539321.3207879998}},{"attributes":{"ID":170670,"DIS_CODE":0,"TOWNNAME":"歸仁區","LI":"七甲里","LIN":"18鄰","STREET":"南潭三街","SECT":" ","MAREA":" ","LANE":"１６２巷","ALLEY":"１１弄","HOUSE_NO":"１７號","E_COORD97":176484.57999999999,"N_COORD97":2543121.0299999998,"ADDRESS":"南潭三街１６２巷１１弄１７號","OBJECTID":170669},"geometry":{"x":176484.58000000007,"y":2543121.0299999993}},{"attributes":{"ID":170671,"DIS_CODE":0,"TOWNNAME":"歸仁區","LI":"大廟里","LIN":"18鄰","STREET":"大廟五街","SECT":" ","MAREA":" ","LANE":"２７巷","ALLEY":"６弄","HOUSE_NO":"１８號","E_COORD97":175904.42999999999,"N_COORD97":2544267.0899999999,"ADDRESS":"大廟五街２７巷６弄１８號","OBJECTID":170670},"geometry":{"x":175904.42999999877,"y":2544267.0899999999}},{"attributes":{"ID":170672,"DIS_CODE":0,"TOWNNAME":"歸仁區","LI":"六甲里","LIN":"41鄰","STREET":"民生十二街","SECT":" ","MAREA":" ","LANE":"２７巷","ALLEY":"１０弄","HOUSE_NO":"６號","E_COORD97":176030.91,"N_COORD97":2539399.77,"ADDRESS":"民生十二街２７巷１０弄６號","OBJECTID":170671},"geometry":{"x":176030.91000000108,"y":2539399.7699999996}},{"attributes":{"ID":170673,"DIS_CODE":0,"TOWNNAME":"歸仁區","LI":"六甲里","LIN":"34鄰","STREET":"六甲六街","SECT":" ","MAREA":" ","LANE":"１１巷","ALLEY":"１弄","HOUSE_NO":"３號","E_COORD97":175591.603195,"N_COORD97":2539299.4133000001,"ADDRESS":"六甲六街１１巷１弄３號","OBJECTID":170672},"geometry":{"x":175591.60319500137,"y":2539299.4132990018}},{"attributes":{"ID":170674,"DIS_CODE":0,"TOWNNAME":"新化區","LI":"礁坑里","LIN":"12鄰","STREET":" ","SECT":" ","MAREA":"茄冬坑","LANE":" ","ALLEY":" ","HOUSE_NO":"３３６號","E_COORD97":182777.14186999999,"N_COORD97":2548673.4478199999,"ADDRESS":"茄冬坑３３６號","OBJECTID":170673},"geometry":{"x":182777.1418700004,"y":2548673.4478229992}},{"attributes":{"ID":170675,"DIS_CODE":0,"TOWNNAME":"新化區","LI":"礁坑里","LIN":"12鄰","STREET":" ","SECT":" ","MAREA":"茄冬坑","LANE":" ","ALLEY":" ","HOUSE_NO":"１０號","E_COORD97":182799.601023,"N_COORD97":2548537.1873300001,"ADDRESS":"茄冬坑１０號","OBJECTID":170674},"geometry":{"x":182799.60102299973,"y":2548537.1873290017}},{"attributes":{"ID":170676,"DIS_CODE":0,"TOWNNAME":"新化區","LI":"礁坑里","LIN":"12鄰","STREET":" ","SECT":" ","MAREA":"茄冬坑","LANE":" ","ALLEY":" ","HOUSE_NO":"３３７號","E_COORD97":182781.80295400001,"N_COORD97":2548671.2253200002,"ADDRESS":"茄冬坑３３７號","OBJECTID":170675},"geometry":{"x":182781.80295400042,"y":2548671.225324003}},{"attributes":{"ID":170677,"DIS_CODE":0,"TOWNNAME":"新化區","LI":"礁坑里","LIN":"12鄰","STREET":" ","SECT":" ","MAREA":"茄冬坑","LANE":" ","ALLEY":" ","HOUSE_NO":"１５號之１","E_COORD97":182810.19439399999,"N_COORD97":2548454.5315399999,"ADDRESS":"茄冬坑１５號之１","OBJECTID":170676},"geometry":{"x":182810.19439400174,"y":2548454.5315410011}},{"attributes":{"ID":170678,"DIS_CODE":0,"TOWNNAME":"歸仁區","LI":"大廟里","LIN":"4鄰","STREET":"和順路","SECT":"二段","MAREA":" ","LANE":"１５１巷","ALLEY":"３９弄","HOUSE_NO":"２９號","E_COORD97":176213,"N_COORD97":2543552.98,"ADDRESS":"和順路二段１５１巷３９弄２９號","OBJECTID":170677},"geometry":{"x":176213.00000000186,"y":2543552.9800000004}},{"attributes":{"ID":170679,"DIS_CODE":0,"TOWNNAME":"歸仁區","LI":"大廟里","LIN":"18鄰","STREET":"大廟五街","SECT":" ","MAREA":" ","LANE":"２７巷","ALLEY":"６弄","HOUSE_NO":"２號","E_COORD97":175889.67999999999,"N_COORD97":2544233.0899999999,"ADDRESS":"大廟五街２７巷６弄２號","OBJECTID":170678},"geometry":{"x":175889.68000000063,"y":2544233.0899999999}},{"attributes":{"ID":170680,"DIS_CODE":0,"TOWNNAME":"歸仁區","LI":"七甲里","LIN":"18鄰","STREET":"南潭三街","SECT":" ","MAREA":" ","LANE":"１６２巷","ALLEY":"１１弄","HOUSE_NO":"２５號","E_COORD97":176501.98000000001,"N_COORD97":2543121.0299999998,"ADDRESS":"南潭三街１６２巷１１弄２５號","OBJECTID":170679},"geometry":{"x":176501.98000000138,"y":2543121.0299999993}},{"attributes":{"ID":170681,"DIS_CODE":0,"TOWNNAME":"歸仁區","LI":"大廟里","LIN":"18鄰","STREET":"大廟五街","SECT":" ","MAREA":" ","LANE":"２７巷","ALLEY":"６弄","HOUSE_NO":"１０號","E_COORD97":175897.13,"N_COORD97":2544247.0899999999,"ADDRESS":"大廟五街２７巷６弄１０號","OBJECTID":170680},"geometry":{"x":175897.13000000082,"y":2544247.089999998}},{"attributes":{"ID":170682,"DIS_CODE":0,"TOWNNAME":"歸仁區","LI":"六甲里","LIN":"41鄰","STREET":"民生十二街","SECT":" ","MAREA":" ","LANE":"２７巷","ALLEY":"１０弄","HOUSE_NO":"２號","E_COORD97":176036.10999999999,"N_COORD97":2539398.77,"ADDRESS":"民生十二街２７巷１０弄２號","OBJECTID":170681},"geometry":{"x":176036.1099999994,"y":2539398.7700000014}},{"attributes":{"ID":170683,"DIS_CODE":0,"TOWNNAME":"歸仁區","LI":"大廟里","LIN":"14鄰","STREET":"大廟六街","SECT":" ","MAREA":" ","LANE":"１１０巷","ALLEY":"３弄","HOUSE_NO":"６號","E_COORD97":176236.51999999999,"N_COORD97":2544218.25,"ADDRESS":"大廟六街１１０巷３弄６號","OBJECTID":170682},"geometry":{"x":176236.52000000048,"y":2544218.25}},{"attributes":{"ID":170684,"DIS_CODE":0,"TOWNNAME":"南區","LI":"鯤鯓里","LIN":"14鄰","STREET":"鯤鯓路","SECT":" ","MAREA":" ","LANE":"１０２巷","ALLEY":"４３弄","HOUSE_NO":"１１號","E_COORD97":165030.91,"N_COORD97":2540214.8900000001,"ADDRESS":"鯤鯓路１０２巷４３弄１１號","OBJECTID":170683},"geometry":{"x":165030.91000000108,"y":2540214.8900000043}},{"attributes":{"ID":170685,"DIS_CODE":0,"TOWNNAME":"歸仁區","LI":"看東里","LIN":"12鄰","STREET":"忠孝南路","SECT":" ","MAREA":" ","LANE":" ","ALLEY":" ","HOUSE_NO":"７５號","E_COORD97":178526.75,"N_COORD97":2540449.48,"ADDRESS":"忠孝南路７５號","OBJECTID":170684},"geometry":{"x":178526.74999999907,"y":2540449.4800000023}},{"attributes":{"ID":170686,"DIS_CODE":0,"TOWNNAME":"安南區","LI":"新順里","LIN":"15鄰","STREET":"安豐三街","SECT":" ","MAREA":" ","LANE":" ","ALLEY":" ","HOUSE_NO":"３５號","E_COORD97":169402.14999999999,"N_COORD97":2549826.77,"ADDRESS":"安豐三街３５號","OBJECTID":170685},"geometry":{"x":169402.15000000037,"y":2549826.7700000014}},{"attributes":{"ID":170687,"DIS_CODE":0,"TOWNNAME":"安南區","LI":"新順里","LIN":"15鄰","STREET":"安豐三街","SECT":" ","MAREA":" ","LANE":" ","ALLEY":" ","HOUSE_NO":"３７號","E_COORD97":169409.76000000001,"N_COORD97":2549832.2000000002,"ADDRESS":"安豐三街３７號","OBJECTID":170686},"geometry":{"x":169409.76000000164,"y":2549832.1999999993}},{"attributes":{"ID":170688,"DIS_CODE":0,"TOWNNAME":"安南區","LI":"新順里","LIN":"15鄰","STREET":"安豐三街","SECT":" ","MAREA":" ","LANE":" ","ALLEY":" ","HOUSE_NO":"３９號","E_COORD97":169417.22,"N_COORD97":2549837.9500000002,"ADDRESS":"安豐三街３９號","OBJECTID":170687},"geometry":{"x":169417.22000000067,"y":2549837.9499999993}},{"attributes":{"ID":170689,"DIS_CODE":0,"TOWNNAME":"安南區","LI":"新順里","LIN":"15鄰","STREET":"安豐三街","SECT":" ","MAREA":" ","LANE":" ","ALLEY":" ","HOUSE_NO":"４１號","E_COORD97":169424.20999999999,"N_COORD97":2549842.4500000002,"ADDRESS":"安豐三街４１號","OBJECTID":170688},"geometry":{"x":169424.21000000089,"y":2549842.4500000011}},{"attributes":{"ID":170690,"DIS_CODE":0,"TOWNNAME":"南化區","LI":"東和里","LIN":"12鄰","STREET":" ","SECT":" ","MAREA":"東和","LANE":" ","ALLEY":" ","HOUSE_NO":"１１０之８號","E_COORD97":198074.04000000001,"N_COORD97":2547940.6299999999,"ADDRESS":"東和１１０之８號","OBJECTID":170689},"geometry":{"x":198074.04000000097,"y":2547940.629999999}},{"attributes":{"ID":170691,"DIS_CODE":0,"TOWNNAME":"將軍區","LI":"西華里","LIN":"12鄰","STREET":" ","SECT":" ","MAREA":"西華","LANE":" ","ALLEY":" ","HOUSE_NO":"１３６號","E_COORD97":163393.75,"N_COORD97":2566324.27,"ADDRESS":"西華１３６號","OBJECTID":170690},"geometry":{"x":163393.74999999907,"y":2566324.2700000014}},{"attributes":{"ID":170692,"DIS_CODE":0,"TOWNNAME":"官田區","LI":"渡頭里","LIN":"12鄰","STREET":" ","SECT":" ","MAREA":"渡子頭","LANE":" ","ALLEY":" ","HOUSE_NO":"９２號之１２","E_COORD97":181055.75,"N_COORD97":2563182.0699999998,"ADDRESS":"渡子頭９２號之１２","OBJECTID":170691},"geometry":{"x":181055.75,"y":2563182.0700000003}},{"attributes":{"ID":170693,"DIS_CODE":0,"TOWNNAME":"官田區","LI":"渡頭里","LIN":"12鄰","STREET":" ","SECT":" ","MAREA":"渡子頭","LANE":" ","ALLEY":" ","HOUSE_NO":"９３號之２","E_COORD97":181086.19,"N_COORD97":2563214.96,"ADDRESS":"渡子頭９３號之２","OBJECTID":170692},"geometry":{"x":181086.19000000134,"y":2563214.9600000046}},{"attributes":{"ID":170694,"DIS_CODE":0,"TOWNNAME":"官田區","LI":"渡頭里","LIN":"12鄰","STREET":" ","SECT":" ","MAREA":"渡子頭","LANE":" ","ALLEY":" ","HOUSE_NO":"９３號","E_COORD97":181072.32000000001,"N_COORD97":2563204.0600000001,"ADDRESS":"渡子頭９３號","OBJECTID":170693},"geometry":{"x":181072.3200000003,"y":2563204.0600000024}},{"attributes":{"ID":170695,"DIS_CODE":0,"TOWNNAME":"官田區","LI":"渡頭里","LIN":"12鄰","STREET":" ","SECT":" ","MAREA":"渡子頭","LANE":" ","ALLEY":" ","HOUSE_NO":"９２號之５","E_COORD97":181049.23000000001,"N_COORD97":2563210.73,"ADDRESS":"渡子頭９２號之５","OBJECTID":170694},"geometry":{"x":181049.23000000045,"y":2563210.7300000023}},{"attributes":{"ID":170696,"DIS_CODE":0,"TOWNNAME":"官田區","LI":"渡頭里","LIN":"12鄰","STREET":" ","SECT":" ","MAREA":"渡子頭","LANE":" ","ALLEY":" ","HOUSE_NO":"９２號之２","E_COORD97":181053.17999999999,"N_COORD97":2563202.7599999998,"ADDRESS":"渡子頭９２號之２","OBJECTID":170695},"geometry":{"x":181053.18000000063,"y":2563202.7600000016}},{"attributes":{"ID":170697,"DIS_CODE":0,"TOWNNAME":"官田區","LI":"渡頭里","LIN":"12鄰","STREET":" ","SECT":" ","MAREA":"渡子頭","LANE":" ","ALLEY":" ","HOUSE_NO":"９２號之３","E_COORD97":181054.23999999999,"N_COORD97":2563199.7999999998,"ADDRESS":"渡子頭９２號之３","OBJECTID":170696},"geometry":{"x":181054.24000000022,"y":2563199.8000000026}},{"attributes":{"ID":170698,"DIS_CODE":0,"TOWNNAME":"南區","LI":"鯤鯓里","LIN":"14鄰","STREET":"鯤鯓路","SECT":" ","MAREA":" ","LANE":"１０２巷","ALLEY":"４３弄","HOUSE_NO":"１５號","E_COORD97":165035.75,"N_COORD97":2540229,"ADDRESS":"鯤鯓路１０２巷４３弄１５號","OBJECTID":170697},"geometry":{"x":165035.75,"y":2540229}},{"attributes":{"ID":170699,"DIS_CODE":0,"TOWNNAME":"將軍區","LI":"平沙里","LIN":"12鄰","STREET":" ","SECT":" ","MAREA":"平沙","LANE":" ","ALLEY":" ","HOUSE_NO":"１０５號","E_COORD97":157265.26999999999,"N_COORD97":2568443.3900000001,"ADDRESS":"平沙１０５號","OBJECTID":170698},"geometry":{"x":157265.27000000142,"y":2568443.3900000043}},{"attributes":{"ID":170700,"DIS_CODE":0,"TOWNNAME":"將軍區","LI":"平沙里","LIN":"12鄰","STREET":" ","SECT":" ","MAREA":"平沙","LANE":" ","ALLEY":" ","HOUSE_NO":"１０９之１號","E_COORD97":157289.26999999999,"N_COORD97":2568412.9500000002,"ADDRESS":"平沙１０９之１號","OBJECTID":170699},"geometry":{"x":157289.27000000048,"y":2568412.9499999993}},{"attributes":{"ID":170701,"DIS_CODE":0,"TOWNNAME":"北區","LI":"成德里","LIN":"12鄰","STREET":"立賢路","SECT":"一段","MAREA":" ","LANE":" ","ALLEY":" ","HOUSE_NO":"５６３號","E_COORD97":168137.07999999999,"N_COORD97":2545554.25,"ADDRESS":"立賢路一段５６３號","OBJECTID":170700},"geometry":{"x":168137.08000000101,"y":2545554.25}},{"attributes":{"ID":170702,"DIS_CODE":0,"TOWNNAME":"南區","LI":"鯤鯓里","LIN":"14鄰","STREET":"鯤鯓路","SECT":" ","MAREA":" ","LANE":"１０２巷","ALLEY":"７１弄","HOUSE_NO":"２號","E_COORD97":165059.04999999999,"N_COORD97":2540268.1200000001,"ADDRESS":"鯤鯓路１０２巷７１弄２號","OBJECTID":170701},"geometry":{"x":165059.04999999981,"y":2540268.1200000048}},{"attributes":{"ID":170703,"DIS_CODE":0,"TOWNNAME":"南區","LI":"鯤鯓里","LIN":"14鄰","STREET":"鯤鯓路","SECT":" ","MAREA":" ","LANE":"１０２巷","ALLEY":"７１弄","HOUSE_NO":"４號","E_COORD97":165058.20999999999,"N_COORD97":2540260.52,"ADDRESS":"鯤鯓路１０２巷７１弄４號","OBJECTID":170702},"geometry":{"x":165058.20999999996,"y":2540260.5200000033}},{"attributes":{"ID":170704,"DIS_CODE":0,"TOWNNAME":"後壁區","LI":"侯伯里","LIN":"13鄰","STREET":" ","SECT":" ","MAREA":"後壁寮","LANE":" ","ALLEY":" ","HOUSE_NO":"１０４號","E_COORD97":185080.97,"N_COORD97":2585346.4100000001,"ADDRESS":"後壁寮１０４號","OBJECTID":170703},"geometry":{"x":185080.97000000067,"y":2585346.4100000001}},{"attributes":{"ID":170705,"DIS_CODE":0,"TOWNNAME":"後壁區","LI":"侯伯里","LIN":"13鄰","STREET":" ","SECT":" ","MAREA":"後壁寮","LANE":" ","ALLEY":" ","HOUSE_NO":"１０５號之１","E_COORD97":185091.87,"N_COORD97":2585374.6200000001,"ADDRESS":"後壁寮１０５號之１","OBJECTID":170704},"geometry":{"x":185091.87000000104,"y":2585374.6200000029}},{"attributes":{"ID":170706,"DIS_CODE":0,"TOWNNAME":"後壁區","LI":"侯伯里","LIN":"13鄰","STREET":" ","SECT":" ","MAREA":"後壁寮","LANE":" ","ALLEY":" ","HOUSE_NO":"１０５號之２","E_COORD97":185127.69,"N_COORD97":2585363.3900000001,"ADDRESS":"後壁寮１０５號之２","OBJECTID":170705},"geometry":{"x":185127.69000000134,"y":2585363.3900000006}},{"attributes":{"ID":170707,"DIS_CODE":0,"TOWNNAME":"南區","LI":"鯤鯓里","LIN":"21鄰","STREET":"鯤鯓路","SECT":" ","MAREA":" ","LANE":"１６２巷","ALLEY":"１３弄","HOUSE_NO":"１７號","E_COORD97":164969.57999999999,"N_COORD97":2540258.5899999999,"ADDRESS":"鯤鯓路１６２巷１３弄１７號","OBJECTID":170706},"geometry":{"x":164969.58000000007,"y":2540258.5899999999}},{"attributes":{"ID":170708,"DIS_CODE":0,"TOWNNAME":"後壁區","LI":"侯伯里","LIN":"13鄰","STREET":" ","SECT":" ","MAREA":"後壁寮","LANE":" ","ALLEY":" ","HOUSE_NO":"１０５號","E_COORD97":185085.85000000001,"N_COORD97":2585372.6600000001,"ADDRESS":"後壁寮１０５號","OBJECTID":170707},"geometry":{"x":185085.84999999963,"y":2585372.660000002}},{"attributes":{"ID":170709,"DIS_CODE":0,"TOWNNAME":"後壁區","LI":"侯伯里","LIN":"13鄰","STREET":" ","SECT":" ","MAREA":"後壁寮","LANE":" ","ALLEY":" ","HOUSE_NO":"１０６號之６","E_COORD97":185056.25,"N_COORD97":2585423.54,"ADDRESS":"後壁寮１０６號之６","OBJECTID":170708},"geometry":{"x":185056.25,"y":2585423.540000001}},{"attributes":{"ID":170710,"DIS_CODE":0,"TOWNNAME":"後壁區","LI":"侯伯里","LIN":"13鄰","STREET":" ","SECT":" ","MAREA":"後壁寮","LANE":" ","ALLEY":" ","HOUSE_NO":"１０６號","E_COORD97":185090.51000000001,"N_COORD97":2585426.3399999999,"ADDRESS":"後壁寮１０６號","OBJECTID":170709},"geometry":{"x":185090.51000000071,"y":2585426.3400000017}},{"attributes":{"ID":170711,"DIS_CODE":0,"TOWNNAME":"後壁區","LI":"侯伯里","LIN":"13鄰","STREET":" ","SECT":" ","MAREA":"後壁寮","LANE":" ","ALLEY":" ","HOUSE_NO":"１０７號之１","E_COORD97":185119.22,"N_COORD97":2585397.3900000001,"ADDRESS":"後壁寮１０７號之１","OBJECTID":170710},"geometry":{"x":185119.21999999881,"y":2585397.3900000006}},{"attributes":{"ID":170712,"DIS_CODE":0,"TOWNNAME":"後壁區","LI":"侯伯里","LIN":"13鄰","STREET":" ","SECT":" ","MAREA":"後壁寮","LANE":" ","ALLEY":" ","HOUSE_NO":"１０７號","E_COORD97":185120.66,"N_COORD97":2585461.25,"ADDRESS":"後壁寮１０７號","OBJECTID":170711},"geometry":{"x":185120.66000000108,"y":2585461.2500000019}},{"attributes":{"ID":170713,"DIS_CODE":0,"TOWNNAME":"後壁區","LI":"侯伯里","LIN":"13鄰","STREET":" ","SECT":" ","MAREA":"後壁寮","LANE":" ","ALLEY":" ","HOUSE_NO":"１０８號之１０","E_COORD97":184977.17999999999,"N_COORD97":2585413.1600000001,"ADDRESS":"後壁寮１０８號之１０","OBJECTID":170712},"geometry":{"x":184977.18000000156,"y":2585413.1600000039}},{"attributes":{"ID":170714,"DIS_CODE":0,"TOWNNAME":"後壁區","LI":"侯伯里","LIN":"13鄰","STREET":" ","SECT":" ","MAREA":"後壁寮","LANE":" ","ALLEY":" ","HOUSE_NO":"１０８號之１１","E_COORD97":184975.32000000001,"N_COORD97":2585409.4199999999,"ADDRESS":"後壁寮１０８號之１１","OBJECTID":170713},"geometry":{"x":184975.32000000123,"y":2585409.4199999999}},{"attributes":{"ID":170715,"DIS_CODE":0,"TOWNNAME":"新營區","LI":"延平里","LIN":"12鄰","STREET":"忠義街","SECT":" ","MAREA":" ","LANE":" ","ALLEY":" ","HOUSE_NO":"１２之３號","E_COORD97":179586.25,"N_COORD97":2577994.5099999998,"ADDRESS":"忠義街１２之３號","OBJECTID":170714},"geometry":{"x":179586.24999999907,"y":2577994.5099999998}},{"attributes":{"ID":170716,"DIS_CODE":0,"TOWNNAME":"南區","LI":"鯤鯓里","LIN":"21鄰","STREET":"鯤鯓路","SECT":" ","MAREA":" ","LANE":"１６２巷","ALLEY":"７弄","HOUSE_NO":"６號","E_COORD97":164934.07000000001,"N_COORD97":2540244.98,"ADDRESS":"鯤鯓路１６２巷７弄６號","OBJECTID":170715},"geometry":{"x":164934.0700000003,"y":2540244.9800000023}},{"attributes":{"ID":170717,"DIS_CODE":0,"TOWNNAME":"南區","LI":"鯤鯓里","LIN":"21鄰","STREET":"鯤鯓路","SECT":" ","MAREA":" ","LANE":"１６２巷","ALLEY":"７弄","HOUSE_NO":"７號","E_COORD97":164930.09,"N_COORD97":2540257.1699999999,"ADDRESS":"鯤鯓路１６２巷７弄７號","OBJECTID":170716},"geometry":{"x":164930.08999999985,"y":2540257.1700000018}},{"attributes":{"ID":170718,"DIS_CODE":0,"TOWNNAME":"南區","LI":"新興里","LIN":"13鄰","STREET":"夏林路","SECT":" ","MAREA":" ","LANE":"２２２巷","ALLEY":"４弄","HOUSE_NO":"１３號","E_COORD97":167394.54000000001,"N_COORD97":2542260.2999999998,"ADDRESS":"夏林路２２２巷４弄１３號","OBJECTID":170717},"geometry":{"x":167394.54000000097,"y":2542260.3000000026}},{"attributes":{"ID":170719,"DIS_CODE":0,"TOWNNAME":"安定區","LI":"港南里","LIN":"12鄰","STREET":" ","SECT":" ","MAREA":"港口","LANE":" ","ALLEY":" ","HOUSE_NO":"８６之５號","E_COORD97":171319.82000000001,"N_COORD97":2554397.7999999998,"ADDRESS":"港口８６之５號","OBJECTID":170718},"geometry":{"x":171319.8200000003,"y":2554397.8000000045}},{"attributes":{"ID":170720,"DIS_CODE":0,"TOWNNAME":"安定區","LI":"六嘉里","LIN":"12鄰","STREET":" ","SECT":" ","MAREA":"六塊寮","LANE":" ","ALLEY":" ","HOUSE_NO":"１６０之９號","E_COORD97":169666.79000000001,"N_COORD97":2552838.7599999998,"ADDRESS":"六塊寮１６０之９號","OBJECTID":170719},"geometry":{"x":169666.79000000004,"y":2552838.7600000016}},{"attributes":{"ID":170721,"DIS_CODE":0,"TOWNNAME":"將軍區","LI":"西華里","LIN":"12鄰","STREET":" ","SECT":" ","MAREA":"西華","LANE":" ","ALLEY":" ","HOUSE_NO":"１４１號","E_COORD97":163465.35999999999,"N_COORD97":2566257.1000000001,"ADDRESS":"西華１４１號","OBJECTID":170720},"geometry":{"x":163465.36000000127,"y":2566257.0999999978}},{"attributes":{"ID":170722,"DIS_CODE":0,"TOWNNAME":"將軍區","LI":"西華里","LIN":"12鄰","STREET":" ","SECT":" ","MAREA":"西華","LANE":" ","ALLEY":" ","HOUSE_NO":"１４３之１號","E_COORD97":163447.35000000001,"N_COORD97":2566259.21,"ADDRESS":"西華１４３之１號","OBJECTID":170721},"geometry":{"x":163447.35000000056,"y":2566259.2100000028}},{"attributes":{"ID":170723,"DIS_CODE":0,"TOWNNAME":"安定區","LI":"六嘉里","LIN":"12鄰","STREET":" ","SECT":" ","MAREA":"六塊寮","LANE":" ","ALLEY":" ","HOUSE_NO":"９７之２９號","E_COORD97":170560.67000000001,"N_COORD97":2553265.2400000002,"ADDRESS":"六塊寮９７之２９號","OBJECTID":170722},"geometry":{"x":170560.67000000086,"y":2553265.2400000039}},{"attributes":{"ID":170724,"DIS_CODE":0,"TOWNNAME":"南區","LI":"同安里","LIN":"13鄰","STREET":"明興路","SECT":" ","MAREA":" ","LANE":"１２８５巷","ALLEY":"３０弄","HOUSE_NO":"３７號","E_COORD97":166454.29999999999,"N_COORD97":2535917.4500000002,"ADDRESS":"明興路１２８５巷３０弄３７號","OBJECTID":170723},"geometry":{"x":166454.29999999981,"y":2535917.450000003}},{"attributes":{"ID":170725,"DIS_CODE":0,"TOWNNAME":"南區","LI":"同安里","LIN":"13鄰","STREET":"明興路","SECT":" ","MAREA":" ","LANE":"１２８５巷","ALLEY":"３０弄","HOUSE_NO":"３９號","E_COORD97":166454.29999999999,"N_COORD97":2535911.6600000001,"ADDRESS":"明興路１２８５巷３０弄３９號","OBJECTID":170724},"geometry":{"x":166454.29999999981,"y":2535911.660000002}},{"attributes":{"ID":170726,"DIS_CODE":0,"TOWNNAME":"關廟區","LI":"深坑里","LIN":"12鄰","STREET":"南雄路","SECT":"一段","MAREA":" ","LANE":"４９５巷","ALLEY":" ","HOUSE_NO":"１７號","E_COORD97":181517.51999999999,"N_COORD97":2537784.2999999998,"ADDRESS":"南雄路一段４９５巷１７號","OBJECTID":170725},"geometry":{"x":181517.51999999955,"y":2537784.3000000007}},{"attributes":{"ID":170727,"DIS_CODE":0,"TOWNNAME":"南化區","LI":"北寮里","LIN":"12鄰","STREET":" ","SECT":" ","MAREA":"北寮","LANE":" ","ALLEY":" ","HOUSE_NO":"１７８之２號","E_COORD97":198775.84,"N_COORD97":2552626.7999999998,"ADDRESS":"北寮１７８之２號","OBJECTID":170726},"geometry":{"x":198775.84000000078,"y":2552626.8000000007}},{"attributes":{"ID":170728,"DIS_CODE":0,"TOWNNAME":"南區","LI":"大成里","LIN":"4鄰","STREET":"西門路","SECT":"一段","MAREA":" ","LANE":"３８０巷","ALLEY":"２８弄","HOUSE_NO":"１號","E_COORD97":167855.39000000001,"N_COORD97":2542386.0499999998,"ADDRESS":"西門路一段３８０巷２８弄１號","OBJECTID":170727},"geometry":{"x":167855.38999999966,"y":2542386.0500000007}},{"attributes":{"ID":170729,"DIS_CODE":0,"TOWNNAME":"南區","LI":"大成里","LIN":"4鄰","STREET":"西門路","SECT":"一段","MAREA":" ","LANE":"３８０巷","ALLEY":"２８弄","HOUSE_NO":"２號","E_COORD97":167855.81,"N_COORD97":2542381.5800000001,"ADDRESS":"西門路一段３８０巷２８弄２號","OBJECTID":170728},"geometry":{"x":167855.80999999959,"y":2542381.5800000001}},{"attributes":{"ID":170730,"DIS_CODE":0,"TOWNNAME":"南化區","LI":"北寮里","LIN":"12鄰","STREET":" ","SECT":" ","MAREA":"北寮","LANE":" ","ALLEY":" ","HOUSE_NO":"１７８之３號","E_COORD97":198772.23999999999,"N_COORD97":2552629.7999999998,"ADDRESS":"北寮１７８之３號","OBJECTID":170729},"geometry":{"x":198772.24000000022,"y":2552629.8000000007}},{"attributes":{"ID":170731,"DIS_CODE":0,"TOWNNAME":"南化區","LI":"北寮里","LIN":"12鄰","STREET":" ","SECT":" ","MAREA":"北寮","LANE":" ","ALLEY":" ","HOUSE_NO":"１７８之１號","E_COORD97":198778.84,"N_COORD97":2552624.7999999998,"ADDRESS":"北寮１７８之１號","OBJECTID":170730},"geometry":{"x":198778.84000000078,"y":2552624.8000000026}},{"attributes":{"ID":170732,"DIS_CODE":0,"TOWNNAME":"南區","LI":"彰南里","LIN":"12鄰","STREET":"新仁路","SECT":" ","MAREA":" ","LANE":" ","ALLEY":" ","HOUSE_NO":"１０號","E_COORD97":166165.97,"N_COORD97":2541950.3199999998,"ADDRESS":"新仁路１０號","OBJECTID":170731},"geometry":{"x":166165.97000000067,"y":2541950.3200000003}},{"attributes":{"ID":170733,"DIS_CODE":0,"TOWNNAME":"南區","LI":"大成里","LIN":"4鄰","STREET":"西門路","SECT":"一段","MAREA":" ","LANE":"３８０巷","ALLEY":"２８弄","HOUSE_NO":"３號","E_COORD97":167856.03,"N_COORD97":2542376.48,"ADDRESS":"西門路一段３８０巷２８弄３號","OBJECTID":170732},"geometry":{"x":167856.03000000119,"y":2542376.4800000004}},{"attributes":{"ID":170734,"DIS_CODE":0,"TOWNNAME":"南區","LI":"大成里","LIN":"4鄰","STREET":"西門路","SECT":"一段","MAREA":" ","LANE":"３８０巷","ALLEY":"２８弄","HOUSE_NO":"４號","E_COORD97":167856.45000000001,"N_COORD97":2542371.7999999998,"ADDRESS":"西門路一段３８０巷２８弄４號","OBJECTID":170733},"geometry":{"x":167856.45000000112,"y":2542371.8000000045}},{"attributes":{"ID":170735,"DIS_CODE":0,"TOWNNAME":"南區","LI":"大成里","LIN":"4鄰","STREET":"西門路","SECT":"一段","MAREA":" ","LANE":"３８０巷","ALLEY":"２８弄","HOUSE_NO":"５號","E_COORD97":167856.67000000001,"N_COORD97":2542367.5499999998,"ADDRESS":"西門路一段３８０巷２８弄５號","OBJECTID":170734},"geometry":{"x":167856.67000000086,"y":2542367.5500000026}},{"attributes":{"ID":170736,"DIS_CODE":0,"TOWNNAME":"南區","LI":"大成里","LIN":"4鄰","STREET":"西門路","SECT":"一段","MAREA":" ","LANE":"３８０巷","ALLEY":"２８弄","HOUSE_NO":"６號","E_COORD97":167857.09,"N_COORD97":2542362.8700000001,"ADDRESS":"西門路一段３８０巷２８弄６號","OBJECTID":170735},"geometry":{"x":167857.09000000078,"y":2542362.8700000029}},{"attributes":{"ID":170737,"DIS_CODE":0,"TOWNNAME":"南區","LI":"大成里","LIN":"4鄰","STREET":"西門路","SECT":"一段","MAREA":" ","LANE":"３８０巷","ALLEY":"２８弄","HOUSE_NO":"７號","E_COORD97":167857.31,"N_COORD97":2542358.1899999999,"ADDRESS":"西門路一段３８０巷２８弄７號","OBJECTID":170736},"geometry":{"x":167857.31000000052,"y":2542358.1900000013}},{"attributes":{"ID":170738,"DIS_CODE":0,"TOWNNAME":"南區","LI":"大成里","LIN":"4鄰","STREET":"西門路","SECT":"一段","MAREA":" ","LANE":"３８０巷","ALLEY":"２８弄","HOUSE_NO":"８號","E_COORD97":167857.51999999999,"N_COORD97":2542353.2999999998,"ADDRESS":"西門路一段３８０巷２８弄８號","OBJECTID":170737},"geometry":{"x":167857.52000000048,"y":2542353.3000000007}},{"attributes":{"ID":170739,"DIS_CODE":0,"TOWNNAME":"南化區","LI":"北寮里","LIN":"12鄰","STREET":" ","SECT":" ","MAREA":"北寮","LANE":" ","ALLEY":" ","HOUSE_NO":"１７８之４號","E_COORD97":198810.23999999999,"N_COORD97":2552734.7999999998,"ADDRESS":"北寮１７８之４號","OBJECTID":170738},"geometry":{"x":198810.24000000115,"y":2552734.8000000007}},{"attributes":{"ID":170740,"DIS_CODE":0,"TOWNNAME":"南化區","LI":"北寮里","LIN":"12鄰","STREET":" ","SECT":" ","MAREA":"北寮","LANE":" ","ALLEY":" ","HOUSE_NO":"１６６之２號","E_COORD97":198626.14000000001,"N_COORD97":2552887.7999999998,"ADDRESS":"北寮１６６之２號","OBJECTID":170739},"geometry":{"x":198626.1400000006,"y":2552887.8000000007}},{"attributes":{"ID":170741,"DIS_CODE":0,"TOWNNAME":"新市區","LI":"大社里","LIN":"12鄰","STREET":" ","SECT":" ","MAREA":"大社","LANE":" ","ALLEY":" ","HOUSE_NO":"４０２之２６號","E_COORD97":180336.35000000001,"N_COORD97":2554653.5499999998,"ADDRESS":"大社４０２之２６號","OBJECTID":170740},"geometry":{"x":180336.35000000149,"y":2554653.5500000045}},{"attributes":{"ID":170742,"DIS_CODE":0,"TOWNNAME":"新市區","LI":"大社里","LIN":"12鄰","STREET":" ","SECT":" ","MAREA":"大社","LANE":" ","ALLEY":" ","HOUSE_NO":"４０２之２８號","E_COORD97":180334.98999999999,"N_COORD97":2554665.2999999998,"ADDRESS":"大社４０２之２８號","OBJECTID":170741},"geometry":{"x":180334.99000000115,"y":2554665.3000000045}},{"attributes":{"ID":170743,"DIS_CODE":0,"TOWNNAME":"新市區","LI":"大社里","LIN":"12鄰","STREET":" ","SECT":" ","MAREA":"大社","LANE":" ","ALLEY":" ","HOUSE_NO":"４０１號之１","E_COORD97":180157.59,"N_COORD97":2554659.0499999998,"ADDRESS":"大社４０１號之１","OBJECTID":170742},"geometry":{"x":180157.59000000078,"y":2554659.0500000007}},{"attributes":{"ID":170744,"DIS_CODE":0,"TOWNNAME":"後壁區","LI":"侯伯里","LIN":"13鄰","STREET":" ","SECT":" ","MAREA":"後壁寮","LANE":" ","ALLEY":" ","HOUSE_NO":"１０８號之１２","E_COORD97":184973.28,"N_COORD97":2585405.8100000001,"ADDRESS":"後壁寮１０８號之１２","OBJECTID":170743},"geometry":{"x":184973.28000000026,"y":2585405.8100000042}},{"attributes":{"ID":170745,"DIS_CODE":0,"TOWNNAME":"後壁區","LI":"侯伯里","LIN":"13鄰","STREET":" ","SECT":" ","MAREA":"後壁寮","LANE":" ","ALLEY":" ","HOUSE_NO":"１０８號之１３","E_COORD97":184971.29000000001,"N_COORD97":2585401.8300000001,"ADDRESS":"後壁寮１０８號之１３","OBJECTID":170744},"geometry":{"x":184971.29000000004,"y":2585401.8300000038}},{"attributes":{"ID":170746,"DIS_CODE":0,"TOWNNAME":"後壁區","LI":"侯伯里","LIN":"13鄰","STREET":" ","SECT":" ","MAREA":"後壁寮","LANE":" ","ALLEY":" ","HOUSE_NO":"１０８號之１４","E_COORD97":184969.44,"N_COORD97":2585398.1499999999,"ADDRESS":"後壁寮１０８號之１４","OBJECTID":170745},"geometry":{"x":184969.44000000227,"y":2585398.1500000004}},{"attributes":{"ID":170747,"DIS_CODE":0,"TOWNNAME":"後壁區","LI":"侯伯里","LIN":"13鄰","STREET":" ","SECT":" ","MAREA":"後壁寮","LANE":" ","ALLEY":" ","HOUSE_NO":"１０８號之１５","E_COORD97":184966.42000000001,"N_COORD97":2585392.6499999999,"ADDRESS":"後壁寮１０８號之１５","OBJECTID":170746},"geometry":{"x":184966.42000000086,"y":2585392.6500000004}},{"attributes":{"ID":170748,"DIS_CODE":0,"TOWNNAME":"後壁區","LI":"侯伯里","LIN":"13鄰","STREET":" ","SECT":" ","MAREA":"後壁寮","LANE":" ","ALLEY":" ","HOUSE_NO":"１０８號之１６","E_COORD97":184982.45999999999,"N_COORD97":2585384.5499999998,"ADDRESS":"後壁寮１０８號之１６","OBJECTID":170747},"geometry":{"x":184982.46000000183,"y":2585384.5500000026}},{"attributes":{"ID":170749,"DIS_CODE":0,"TOWNNAME":"後壁區","LI":"侯伯里","LIN":"13鄰","STREET":" ","SECT":" ","MAREA":"後壁寮","LANE":" ","ALLEY":" ","HOUSE_NO":"１０８號之１７","E_COORD97":184986.72,"N_COORD97":2585382.1499999999,"ADDRESS":"後壁寮１０８號之１７","OBJECTID":170748},"geometry":{"x":184986.71999999974,"y":2585382.1500000004}},{"attributes":{"ID":170750,"DIS_CODE":0,"TOWNNAME":"後壁區","LI":"侯伯里","LIN":"13鄰","STREET":" ","SECT":" ","MAREA":"後壁寮","LANE":" ","ALLEY":" ","HOUSE_NO":"１０８號之１８","E_COORD97":184990.42999999999,"N_COORD97":2585379.6699999999,"ADDRESS":"後壁寮１０８號之１８","OBJECTID":170749},"geometry":{"x":184990.4299999997,"y":2585379.6700000018}},{"attributes":{"ID":170751,"DIS_CODE":0,"TOWNNAME":"後壁區","LI":"侯伯里","LIN":"13鄰","STREET":" ","SECT":" ","MAREA":"後壁寮","LANE":" ","ALLEY":" ","HOUSE_NO":"１０８號之１９","E_COORD97":184994.51000000001,"N_COORD97":2585377.8300000001,"ADDRESS":"後壁寮１０８號之１９","OBJECTID":170750},"geometry":{"x":184994.51000000071,"y":2585377.8300000038}},{"attributes":{"ID":170752,"DIS_CODE":0,"TOWNNAME":"後壁區","LI":"侯伯里","LIN":"13鄰","STREET":" ","SECT":" ","MAREA":"後壁寮","LANE":" ","ALLEY":" ","HOUSE_NO":"１０８號之１","E_COORD97":185069.87,"N_COORD97":2585473.7200000002,"ADDRESS":"後壁寮１０８號之１","OBJECTID":170751},"geometry":{"x":185069.87000000104,"y":2585473.7200000007}},{"attributes":{"ID":170753,"DIS_CODE":0,"TOWNNAME":"後壁區","LI":"侯伯里","LIN":"13鄰","STREET":" ","SECT":" ","MAREA":"後壁寮","LANE":" ","ALLEY":" ","HOUSE_NO":"１０８號之２０","E_COORD97":184995.32000000001,"N_COORD97":2585397.23,"ADDRESS":"後壁寮１０８號之２０","OBJECTID":170752},"geometry":{"x":184995.3200000003,"y":2585397.2300000023}},{"attributes":{"ID":170754,"DIS_CODE":0,"TOWNNAME":"後壁區","LI":"侯伯里","LIN":"13鄰","STREET":" ","SECT":" ","MAREA":"後壁寮","LANE":" ","ALLEY":" ","HOUSE_NO":"１０８號之２１","E_COORD97":184996.31,"N_COORD97":2585400.3199999998,"ADDRESS":"後壁寮１０８號之２１","OBJECTID":170753},"geometry":{"x":184996.30999999959,"y":2585400.3200000003}},{"attributes":{"ID":170755,"DIS_CODE":0,"TOWNNAME":"後壁區","LI":"侯伯里","LIN":"13鄰","STREET":" ","SECT":" ","MAREA":"後壁寮","LANE":" ","ALLEY":" ","HOUSE_NO":"１０８號之２２","E_COORD97":184998.31,"N_COORD97":2585404.1499999999,"ADDRESS":"後壁寮１０８號之２２","OBJECTID":170754},"geometry":{"x":184998.31000000145,"y":2585404.1500000022}},{"attributes":{"ID":170756,"DIS_CODE":0,"TOWNNAME":"後壁區","LI":"侯伯里","LIN":"13鄰","STREET":" ","SECT":" ","MAREA":"後壁寮","LANE":" ","ALLEY":" ","HOUSE_NO":"１０８號之２３","E_COORD97":185000.51000000001,"N_COORD97":2585407.8900000001,"ADDRESS":"後壁寮１０８號之２３","OBJECTID":170755},"geometry":{"x":185000.51000000164,"y":2585407.8900000006}},{"attributes":{"ID":170757,"DIS_CODE":0,"TOWNNAME":"後壁區","LI":"侯伯里","LIN":"13鄰","STREET":" ","SECT":" ","MAREA":"後壁寮","LANE":" ","ALLEY":" ","HOUSE_NO":"１０８號之２４","E_COORD97":185002.64000000001,"N_COORD97":2585411.77,"ADDRESS":"後壁寮１０８號之２４","OBJECTID":170756},"geometry":{"x":185002.63999999966,"y":2585411.7700000033}},{"attributes":{"ID":170758,"DIS_CODE":0,"TOWNNAME":"後壁區","LI":"侯伯里","LIN":"13鄰","STREET":" ","SECT":" ","MAREA":"後壁寮","LANE":" ","ALLEY":" ","HOUSE_NO":"１０８號之２５","E_COORD97":185002.91,"N_COORD97":2585424.9199999999,"ADDRESS":"後壁寮１０８號之２５","OBJECTID":170757},"geometry":{"x":185002.91000000015,"y":2585424.9200000018}},{"attributes":{"ID":170759,"DIS_CODE":0,"TOWNNAME":"後壁區","LI":"侯伯里","LIN":"13鄰","STREET":" ","SECT":" ","MAREA":"後壁寮","LANE":" ","ALLEY":" ","HOUSE_NO":"１０８號之２６","E_COORD97":185007.34,"N_COORD97":2585422.4500000002,"ADDRESS":"後壁寮１０８號之２６","OBJECTID":170758},"geometry":{"x":185007.34000000078,"y":2585422.4499999993}},{"attributes":{"ID":170760,"DIS_CODE":0,"TOWNNAME":"後壁區","LI":"侯伯里","LIN":"13鄰","STREET":" ","SECT":" ","MAREA":"後壁寮","LANE":" ","ALLEY":" ","HOUSE_NO":"１０８號之２７","E_COORD97":185010.85999999999,"N_COORD97":2585418.8500000001,"ADDRESS":"後壁寮１０８號之２７","OBJECTID":170759},"geometry":{"x":185010.86000000127,"y":2585418.8500000015}},{"attributes":{"ID":170761,"DIS_CODE":0,"TOWNNAME":"後壁區","LI":"侯伯里","LIN":"13鄰","STREET":" ","SECT":" ","MAREA":"後壁寮","LANE":" ","ALLEY":" ","HOUSE_NO":"１０８號之３０","E_COORD97":185028.35999999999,"N_COORD97":2585410.1000000001,"ADDRESS":"後壁寮１０８號之３０","OBJECTID":170760},"geometry":{"x":185028.36000000034,"y":2585410.1000000015}},{"attributes":{"ID":170762,"DIS_CODE":0,"TOWNNAME":"後壁區","LI":"侯伯里","LIN":"13鄰","STREET":" ","SECT":" ","MAREA":"後壁寮","LANE":" ","ALLEY":" ","HOUSE_NO":"１０８號之３１","E_COORD97":185032.94,"N_COORD97":2585408.1899999999,"ADDRESS":"後壁寮１０８號之３１","OBJECTID":170761},"geometry":{"x":185032.94000000134,"y":2585408.1899999995}},{"attributes":{"ID":170763,"DIS_CODE":0,"TOWNNAME":"後壁區","LI":"侯伯里","LIN":"13鄰","STREET":" ","SECT":" ","MAREA":"後壁寮","LANE":" ","ALLEY":" ","HOUSE_NO":"１０８號之３２","E_COORD97":185037.31,"N_COORD97":2585406.2599999998,"ADDRESS":"後壁寮１０８號之３２","OBJECTID":170762},"geometry":{"x":185037.31000000145,"y":2585406.2600000016}},{"attributes":{"ID":170764,"DIS_CODE":0,"TOWNNAME":"後壁區","LI":"侯伯里","LIN":"13鄰","STREET":" ","SECT":" ","MAREA":"後壁寮","LANE":" ","ALLEY":" ","HOUSE_NO":"１０８號之３３","E_COORD97":185019.82000000001,"N_COORD97":2585403.98,"ADDRESS":"後壁寮１０８號之３３","OBJECTID":170763},"geometry":{"x":185019.82000000123,"y":2585403.9800000004}},{"attributes":{"ID":170765,"DIS_CODE":0,"TOWNNAME":"後壁區","LI":"侯伯里","LIN":"13鄰","STREET":" ","SECT":" ","MAREA":"後壁寮","LANE":" ","ALLEY":" ","HOUSE_NO":"１０８號之３４","E_COORD97":185017.87,"N_COORD97":2585400,"ADDRESS":"後壁寮１０８號之３４","OBJECTID":170764},"geometry":{"x":185017.87000000011,"y":2585400}},{"attributes":{"ID":170766,"DIS_CODE":0,"TOWNNAME":"後壁區","LI":"侯伯里","LIN":"13鄰","STREET":" ","SECT":" ","MAREA":"後壁寮","LANE":" ","ALLEY":" ","HOUSE_NO":"１０８號之３５","E_COORD97":185015.70000000001,"N_COORD97":2585396.2799999998,"ADDRESS":"後壁寮１０８號之３５","OBJECTID":170765},"geometry":{"x":185015.70000000112,"y":2585396.2799999993}},{"attributes":{"ID":170767,"DIS_CODE":0,"TOWNNAME":"後壁區","LI":"侯伯里","LIN":"13鄰","STREET":" ","SECT":" ","MAREA":"後壁寮","LANE":" ","ALLEY":" ","HOUSE_NO":"１０８號之３６","E_COORD97":185013.98000000001,"N_COORD97":2585392.3599999999,"ADDRESS":"後壁寮１０８號之３６","OBJECTID":170766},"geometry":{"x":185013.98000000138,"y":2585392.3599999994}},{"attributes":{"ID":170768,"DIS_CODE":0,"TOWNNAME":"後壁區","LI":"侯伯里","LIN":"13鄰","STREET":" ","SECT":" ","MAREA":"後壁寮","LANE":" ","ALLEY":" ","HOUSE_NO":"１０８號之３７","E_COORD97":185012,"N_COORD97":2585388.46,"ADDRESS":"後壁寮１０８號之３７","OBJECTID":170767},"geometry":{"x":185012,"y":2585388.4600000028}},{"attributes":{"ID":170769,"DIS_CODE":0,"TOWNNAME":"後壁區","LI":"侯伯里","LIN":"13鄰","STREET":" ","SECT":" ","MAREA":"後壁寮","LANE":" ","ALLEY":" ","HOUSE_NO":"１０８號之３８","E_COORD97":185004.01999999999,"N_COORD97":2585372.8300000001,"ADDRESS":"後壁寮１０８號之３８","OBJECTID":170768},"geometry":{"x":185004.02000000048,"y":2585372.8300000019}},{"attributes":{"ID":170770,"DIS_CODE":0,"TOWNNAME":"後壁區","LI":"侯伯里","LIN":"13鄰","STREET":" ","SECT":" ","MAREA":"後壁寮","LANE":" ","ALLEY":" ","HOUSE_NO":"１０８號之３９","E_COORD97":185008.03,"N_COORD97":2585370.8999999999,"ADDRESS":"後壁寮１０８號之３９","OBJECTID":170769},"geometry":{"x":185008.03000000119,"y":2585370.9000000041}},{"attributes":{"ID":170771,"DIS_CODE":0,"TOWNNAME":"後壁區","LI":"侯伯里","LIN":"13鄰","STREET":" ","SECT":" ","MAREA":"後壁寮","LANE":" ","ALLEY":" ","HOUSE_NO":"１０８號之３","E_COORD97":185010.32000000001,"N_COORD97":2585446.7200000002,"ADDRESS":"後壁寮１０８號之３","OBJECTID":170770},"geometry":{"x":185010.3200000003,"y":2585446.7200000007}},{"attributes":{"ID":170772,"DIS_CODE":0,"TOWNNAME":"後壁區","LI":"侯伯里","LIN":"13鄰","STREET":" ","SECT":" ","MAREA":"後壁寮","LANE":" ","ALLEY":" ","HOUSE_NO":"１０８號之４０","E_COORD97":185012.09,"N_COORD97":2585368.5099999998,"ADDRESS":"後壁寮１０８號之４０","OBJECTID":170771},"geometry":{"x":185012.09000000078,"y":2585368.5099999998}},{"attributes":{"ID":170773,"DIS_CODE":0,"TOWNNAME":"後壁區","LI":"侯伯里","LIN":"13鄰","STREET":" ","SECT":" ","MAREA":"後壁寮","LANE":" ","ALLEY":" ","HOUSE_NO":"１０８號之４１","E_COORD97":185016.34,"N_COORD97":2585366.4700000002,"ADDRESS":"後壁寮１０８號之４１","OBJECTID":170772},"geometry":{"x":185016.33999999985,"y":2585366.4700000007}},{"attributes":{"ID":170774,"DIS_CODE":0,"TOWNNAME":"南區","LI":"大成里","LIN":"4鄰","STREET":"西門路","SECT":"一段","MAREA":" ","LANE":"３８０巷","ALLEY":"２８弄","HOUSE_NO":"９號","E_COORD97":167857.51999999999,"N_COORD97":2542348.6299999999,"ADDRESS":"西門路一段３８０巷２８弄９號","OBJECTID":170773},"geometry":{"x":167857.52000000048,"y":2542348.6300000008}},{"attributes":{"ID":170775,"DIS_CODE":0,"TOWNNAME":"南區","LI":"大成里","LIN":"4鄰","STREET":"西門路","SECT":"一段","MAREA":" ","LANE":"３８０巷","ALLEY":"３０弄","HOUSE_NO":"１０號","E_COORD97":167871.38,"N_COORD97":2542367.9700000002,"ADDRESS":"西門路一段３８０巷３０弄１０號","OBJECTID":170774},"geometry":{"x":167871.37999999989,"y":2542367.9700000025}},{"attributes":{"ID":170776,"DIS_CODE":0,"TOWNNAME":"南區","LI":"大成里","LIN":"4鄰","STREET":"西門路","SECT":"一段","MAREA":" ","LANE":"３８０巷","ALLEY":"３０弄","HOUSE_NO":"１１號","E_COORD97":167894.41,"N_COORD97":2542363.9300000002,"ADDRESS":"西門路一段３８０巷３０弄１１號","OBJECTID":170775},"geometry":{"x":167894.41000000108,"y":2542363.9300000016}},{"attributes":{"ID":170777,"DIS_CODE":0,"TOWNNAME":"南區","LI":"大成里","LIN":"4鄰","STREET":"西門路","SECT":"一段","MAREA":" ","LANE":"３８０巷","ALLEY":"３０弄","HOUSE_NO":"１２號","E_COORD97":167871.59,"N_COORD97":2542362.6600000001,"ADDRESS":"西門路一段３８０巷３０弄１２號","OBJECTID":170776},"geometry":{"x":167871.58999999985,"y":2542362.660000002}},{"attributes":{"ID":170778,"DIS_CODE":0,"TOWNNAME":"南區","LI":"大成里","LIN":"4鄰","STREET":"西門路","SECT":"一段","MAREA":" ","LANE":"３８０巷","ALLEY":"３０弄","HOUSE_NO":"１３號","E_COORD97":167894.82999999999,"N_COORD97":2542359.6800000002,"ADDRESS":"西門路一段３８０巷３０弄１３號","OBJECTID":170777},"geometry":{"x":167894.83000000101,"y":2542359.6800000016}},{"attributes":{"ID":170779,"DIS_CODE":0,"TOWNNAME":"南區","LI":"大成里","LIN":"4鄰","STREET":"西門路","SECT":"一段","MAREA":" ","LANE":"３８０巷","ALLEY":"３０弄","HOUSE_NO":"１４號","E_COORD97":167871.59,"N_COORD97":2542358.1899999999,"ADDRESS":"西門路一段３８０巷３０弄１４號","OBJECTID":170778},"geometry":{"x":167871.58999999985,"y":2542358.1900000013}},{"attributes":{"ID":170780,"DIS_CODE":0,"TOWNNAME":"南區","LI":"大成里","LIN":"4鄰","STREET":"西門路","SECT":"一段","MAREA":" ","LANE":"３８０巷","ALLEY":"３０弄","HOUSE_NO":"１５號","E_COORD97":167894.62,"N_COORD97":2542355.4300000002,"ADDRESS":"西門路一段３８０巷３０弄１５號","OBJECTID":170779},"geometry":{"x":167894.62000000104,"y":2542355.4299999997}},{"attributes":{"ID":170781,"DIS_CODE":0,"TOWNNAME":"南區","LI":"大成里","LIN":"4鄰","STREET":"西門路","SECT":"一段","MAREA":" ","LANE":"３８０巷","ALLEY":"３０弄","HOUSE_NO":"１６號","E_COORD97":167871.59,"N_COORD97":2542353.52,"ADDRESS":"西門路一段３８０巷３０弄１６號","OBJECTID":170780},"geometry":{"x":167871.58999999985,"y":2542353.5200000014}},{"attributes":{"ID":170782,"DIS_CODE":0,"TOWNNAME":"南區","LI":"大成里","LIN":"4鄰","STREET":"西門路","SECT":"一段","MAREA":" ","LANE":"３８０巷","ALLEY":"３０弄","HOUSE_NO":"１７號","E_COORD97":167891.85000000001,"N_COORD97":2542351.1800000002,"ADDRESS":"西門路一段３８０巷３０弄１７號","OBJECTID":170781},"geometry":{"x":167891.85000000149,"y":2542351.1800000034}},{"attributes":{"ID":170783,"DIS_CODE":0,"TOWNNAME":"南區","LI":"大成里","LIN":"4鄰","STREET":"西門路","SECT":"一段","MAREA":" ","LANE":"３８０巷","ALLEY":"３０弄","HOUSE_NO":"１８號","E_COORD97":167871.81,"N_COORD97":2542348.8399999999,"ADDRESS":"西門路一段３８０巷３０弄１８號","OBJECTID":170782},"geometry":{"x":167871.81000000145,"y":2542348.8399999999}},{"attributes":{"ID":170784,"DIS_CODE":0,"TOWNNAME":"南區","LI":"大成里","LIN":"4鄰","STREET":"西門路","SECT":"一段","MAREA":" ","LANE":"３８０巷","ALLEY":"３０弄","HOUSE_NO":"１９號","E_COORD97":167890.78,"N_COORD97":2542345.6499999999,"ADDRESS":"西門路一段３８０巷３０弄１９號","OBJECTID":170783},"geometry":{"x":167890.78000000026,"y":2542345.6500000041}},{"attributes":{"ID":170785,"DIS_CODE":0,"TOWNNAME":"南區","LI":"彰南里","LIN":"20鄰","STREET":"新平路","SECT":" ","MAREA":" ","LANE":" ","ALLEY":" ","HOUSE_NO":"３號","E_COORD97":166123.89999999999,"N_COORD97":2540561.1299999999,"ADDRESS":"新平路３號","OBJECTID":170784},"geometry":{"x":166123.90000000037,"y":2540561.1300000008}},{"attributes":{"ID":170786,"DIS_CODE":0,"TOWNNAME":"南區","LI":"彰南里","LIN":"13鄰","STREET":"中華西路","SECT":"一段","MAREA":" ","LANE":" ","ALLEY":" ","HOUSE_NO":"７７號","E_COORD97":166285.91,"N_COORD97":2541789.2599999998,"ADDRESS":"中華西路一段７７號","OBJECTID":170785},"geometry":{"x":166285.91000000015,"y":2541789.2600000016}},{"attributes":{"ID":170787,"DIS_CODE":0,"TOWNNAME":"南區","LI":"彰南里","LIN":"14鄰","STREET":"中華西路","SECT":"一段","MAREA":" ","LANE":" ","ALLEY":" ","HOUSE_NO":"６７號","E_COORD97":166240.76999999999,"N_COORD97":2541624.77,"ADDRESS":"中華西路一段６７號","OBJECTID":170786},"geometry":{"x":166240.76999999955,"y":2541624.7699999977}},{"attributes":{"ID":170788,"DIS_CODE":0,"TOWNNAME":"南區","LI":"彰南里","LIN":"14鄰","STREET":"中華西路","SECT":"一段","MAREA":" ","LANE":" ","ALLEY":" ","HOUSE_NO":"６９號","E_COORD97":166260.76000000001,"N_COORD97":2541684.04,"ADDRESS":"中華西路一段６９號","OBJECTID":170787},"geometry":{"x":166260.76000000071,"y":2541684.040000001}},{"attributes":{"ID":170789,"DIS_CODE":0,"TOWNNAME":"南區","LI":"彰南里","LIN":"14鄰","STREET":"中華西路","SECT":"一段","MAREA":" ","LANE":" ","ALLEY":" ","HOUSE_NO":"７１號","E_COORD97":166288.48999999999,"N_COORD97":2541710.46,"ADDRESS":"中華西路一段７１號","OBJECTID":170788},"geometry":{"x":166288.49000000115,"y":2541710.4600000028}},{"attributes":{"ID":170790,"DIS_CODE":0,"TOWNNAME":"南區","LI":"彰南里","LIN":"15鄰","STREET":"中華西路","SECT":"一段","MAREA":" ","LANE":" ","ALLEY":" ","HOUSE_NO":"５９號","E_COORD97":166248.17999999999,"N_COORD97":2541339.7400000002,"ADDRESS":"中華西路一段５９號","OBJECTID":170789},"geometry":{"x":166248.1799999997,"y":2541339.7400000002}},{"attributes":{"ID":170791,"DIS_CODE":0,"TOWNNAME":"南區","LI":"彰南里","LIN":"15鄰","STREET":"中華西路","SECT":"一段","MAREA":" ","LANE":" ","ALLEY":" ","HOUSE_NO":"６５號","E_COORD97":166269.78,"N_COORD97":2541517.1899999999,"ADDRESS":"中華西路一段６５號","OBJECTID":170790},"geometry":{"x":166269.78000000119,"y":2541517.1900000032}},{"attributes":{"ID":170792,"DIS_CODE":0,"TOWNNAME":"南區","LI":"彰南里","LIN":"12鄰","STREET":"中華西路","SECT":"一段","MAREA":" ","LANE":" ","ALLEY":" ","HOUSE_NO":"８３號","E_COORD97":166325.89000000001,"N_COORD97":2541938.73,"ADDRESS":"中華西路一段８３號","OBJECTID":170791},"geometry":{"x":166325.8900000006,"y":2541938.7300000023}},{"attributes":{"ID":170793,"DIS_CODE":0,"TOWNNAME":"南區","LI":"大成里","LIN":"4鄰","STREET":"西門路","SECT":"一段","MAREA":" ","LANE":"３８０巷","ALLEY":"３０弄","HOUSE_NO":"１號","E_COORD97":167893.76999999999,"N_COORD97":2542386.6800000002,"ADDRESS":"西門路一段３８０巷３０弄１號","OBJECTID":170792},"geometry":{"x":167893.76999999955,"y":2542386.6800000016}},{"attributes":{"ID":170794,"DIS_CODE":0,"TOWNNAME":"南區","LI":"大成里","LIN":" ","STREET":"西門路","SECT":"一段","MAREA":" ","LANE":"３８０巷","ALLEY":"２弄","HOUSE_NO":"１４號","E_COORD97":167773.57000000001,"N_COORD97":2542356.4500000002,"ADDRESS":"西門路一段３８０巷２弄１４號","OBJECTID":170793},"geometry":{"x":167773.5700000003,"y":2542356.4500000011}},{"attributes":{"ID":170795,"DIS_CODE":0,"TOWNNAME":"南區","LI":"彰南里","LIN":"12鄰","STREET":"中華西路","SECT":"一段","MAREA":" ","LANE":" ","ALLEY":" ","HOUSE_NO":"８９號","E_COORD97":166333.48999999999,"N_COORD97":2542032.29,"ADDRESS":"中華西路一段８９號","OBJECTID":170794},"geometry":{"x":166333.49000000022,"y":2542032.290000001}},{"attributes":{"ID":170796,"DIS_CODE":0,"TOWNNAME":"永康區","LI":"南灣里","LIN":"18鄰","STREET":"立興街","SECT":" ","MAREA":" ","LANE":" ","ALLEY":" ","HOUSE_NO":"１４０號","E_COORD97":174401.60000000001,"N_COORD97":2544680.6099999999,"ADDRESS":"立興街１４０號","OBJECTID":170795},"geometry":{"x":174401.60000000056,"y":2544680.6100000031}},{"attributes":{"ID":170797,"DIS_CODE":0,"TOWNNAME":"永康區","LI":"埔園里","LIN":"39鄰","STREET":"自強路","SECT":" ","MAREA":" ","LANE":" ","ALLEY":" ","HOUSE_NO":"５６６號","E_COORD97":173998.60000000001,"N_COORD97":2548131.7999999998,"ADDRESS":"自強路５６６號","OBJECTID":170796},"geometry":{"x":173998.60000000056,"y":2548131.8000000007}},{"attributes":{"ID":170798,"DIS_CODE":0,"TOWNNAME":"後壁區","LI":"侯伯里","LIN":"13鄰","STREET":" ","SECT":" ","MAREA":"後壁寮","LANE":" ","ALLEY":" ","HOUSE_NO":"１０８號之４２","E_COORD97":185024.79999999999,"N_COORD97":2585362.3199999998,"ADDRESS":"後壁寮１０８號之４２","OBJECTID":170797},"geometry":{"x":185024.80000000075,"y":2585362.3200000022}},{"attributes":{"ID":170799,"DIS_CODE":0,"TOWNNAME":"後壁區","LI":"侯伯里","LIN":"13鄰","STREET":" ","SECT":" ","MAREA":"後壁寮","LANE":" ","ALLEY":" ","HOUSE_NO":"１０８號之４３","E_COORD97":185028.07000000001,"N_COORD97":2585367.3100000001,"ADDRESS":"後壁寮１０８號之４３","OBJECTID":170798},"geometry":{"x":185028.07000000123,"y":2585367.3100000005}},{"attributes":{"ID":170800,"DIS_CODE":0,"TOWNNAME":"後壁區","LI":"侯伯里","LIN":"13鄰","STREET":" ","SECT":" ","MAREA":"後壁寮","LANE":" ","ALLEY":" ","HOUSE_NO":"１０８號之４４","E_COORD97":185030.23000000001,"N_COORD97":2585371.3799999999,"ADDRESS":"後壁寮１０８號之４４","OBJECTID":170799},"geometry":{"x":185030.23000000231,"y":2585371.379999999}},{"attributes":{"ID":170801,"DIS_CODE":0,"TOWNNAME":"後壁區","LI":"侯伯里","LIN":"13鄰","STREET":" ","SECT":" ","MAREA":"後壁寮","LANE":" ","ALLEY":" ","HOUSE_NO":"１０８號之４５","E_COORD97":185032.57999999999,"N_COORD97":2585375.1899999999,"ADDRESS":"後壁寮１０８號之４５","OBJECTID":170800},"geometry":{"x":185032.58000000194,"y":2585375.1900000013}}]}