{"displayFieldName":"TOWNNAME","fieldAliases":{"ID":"ID","DIS_CODE":"DIS_CODE","TOWNNAME":"TOWNNAME","LI":"LI","LIN":"LIN","STREET":"STREET","SECT":"SECT","MAREA":"MAREA","LANE":"LANE","ALLEY":"ALLEY","HOUSE_NO":"HOUSE_NO","E_COORD97":"E_COORD97","N_COORD97":"N_COORD97","ADDRESS":"ADDRESS","OBJECTID":"OBJECTID"},"geometryType":"esriGeometryPoint","spatialReference":{"wkid":102443,"latestWkid":3826},"fields":[{"name":"ID","type":"esriFieldTypeDouble","alias":"ID"},{"name":"DIS_CODE","type":"esriFieldTypeInteger","alias":"DIS_CODE"},{"name":"TOWNNAME","type":"esriFieldTypeString","alias":"TOWNNAME","length":8},{"name":"LI","type":"esriFieldTypeString","alias":"LI","length":8},{"name":"LIN","type":"esriFieldTypeString","alias":"LIN","length":12},{"name":"STREET","type":"esriFieldTypeString","alias":"STREET","length":20},{"name":"SECT","type":"esriFieldTypeString","alias":"SECT","length":8},{"name":"MAREA","type":"esriFieldTypeString","alias":"MAREA","length":12},{"name":"LANE","type":"esriFieldTypeString","alias":"LANE","length":10},{"name":"ALLEY","type":"esriFieldTypeString","alias":"ALLEY","length":10},{"name":"HOUSE_NO","type":"esriFieldTypeString","alias":"HOUSE_NO","length":20},{"name":"E_COORD97","type":"esriFieldTypeDouble","alias":"E_COORD97"},{"name":"N_COORD97","type":"esriFieldTypeDouble","alias":"N_COORD97"},{"name":"ADDRESS","type":"esriFieldTypeString","alias":"ADDRESS","length":50},{"name":"OBJECTID","type":"esriFieldTypeOID","alias":"OBJECTID"}],"features":[{"attributes":{"ID":371011,"DIS_CODE":0,"TOWNNAME":"新化區","LI":"太平里","LIN":"12鄰","STREET":"中正路","SECT":" ","MAREA":" ","LANE":"６９１巷","ALLEY":" ","HOUSE_NO":"７號","E_COORD97":178793.91,"N_COORD97":2549058.25,"ADDRESS":"中正路６９１巷７號","OBJECTID":371001},"geometry":{"x":178793.91000000108,"y":2549058.2500000019}},{"attributes":{"ID":371012,"DIS_CODE":0,"TOWNNAME":"東區","LI":"大德里","LIN":"12鄰","STREET":"立德十路","SECT":" ","MAREA":" ","LANE":"６６巷","ALLEY":" ","HOUSE_NO":"７號","E_COORD97":169562.85999999999,"N_COORD97":2542026.3300000001,"ADDRESS":"立德十路６６巷７號","OBJECTID":371002},"geometry":{"x":169562.86000000127,"y":2542026.3300000019}},{"attributes":{"ID":371013,"DIS_CODE":0,"TOWNNAME":"東區","LI":"大德里","LIN":"12鄰","STREET":"立德十路","SECT":" ","MAREA":" ","LANE":"６６巷","ALLEY":" ","HOUSE_NO":"５號","E_COORD97":169562.92999999999,"N_COORD97":2542030.1200000001,"ADDRESS":"立德十路６６巷５號","OBJECTID":371003},"geometry":{"x":169562.93000000156,"y":2542030.120000001}},{"attributes":{"ID":371014,"DIS_CODE":0,"TOWNNAME":"東區","LI":"大德里","LIN":"12鄰","STREET":"立德十路","SECT":" ","MAREA":" ","LANE":"６６巷","ALLEY":" ","HOUSE_NO":"３號","E_COORD97":169558.64999999999,"N_COORD97":2542036.5,"ADDRESS":"立德十路６６巷３號","OBJECTID":371004},"geometry":{"x":169558.65000000224,"y":2542036.5}},{"attributes":{"ID":371015,"DIS_CODE":0,"TOWNNAME":"東區","LI":"大德里","LIN":"12鄰","STREET":"立德十路","SECT":" ","MAREA":" ","LANE":"６６巷","ALLEY":" ","HOUSE_NO":"１號","E_COORD97":169557.82000000001,"N_COORD97":2542040.1800000002,"ADDRESS":"立德十路６６巷１號","OBJECTID":371005},"geometry":{"x":169557.82000000123,"y":2542040.1800000016}},{"attributes":{"ID":371016,"DIS_CODE":0,"TOWNNAME":"東區","LI":"大德里","LIN":"12鄰","STREET":"立德十路","SECT":" ","MAREA":" ","LANE":"６６巷","ALLEY":" ","HOUSE_NO":"１４號","E_COORD97":169520.20000000001,"N_COORD97":2542033.3500000001,"ADDRESS":"立德十路６６巷１４號","OBJECTID":371006},"geometry":{"x":169520.20000000019,"y":2542033.3499999996}},{"attributes":{"ID":371017,"DIS_CODE":0,"TOWNNAME":"東區","LI":"大德里","LIN":"12鄰","STREET":"立德十路","SECT":" ","MAREA":" ","LANE":"６６巷","ALLEY":" ","HOUSE_NO":"１２號","E_COORD97":169526.97,"N_COORD97":2542033.8700000001,"ADDRESS":"立德十路６６巷１２號","OBJECTID":371007},"geometry":{"x":169526.9700000016,"y":2542033.8700000029}},{"attributes":{"ID":371018,"DIS_CODE":0,"TOWNNAME":"東區","LI":"大德里","LIN":"12鄰","STREET":"立德十路","SECT":" ","MAREA":" ","LANE":"６６巷","ALLEY":" ","HOUSE_NO":"８號","E_COORD97":169537.94,"N_COORD97":2542035.6699999999,"ADDRESS":"立德十路６６巷８號","OBJECTID":371008},"geometry":{"x":169537.94000000041,"y":2542035.6699999999}},{"attributes":{"ID":371019,"DIS_CODE":0,"TOWNNAME":"東區","LI":"大德里","LIN":"12鄰","STREET":"立德十路","SECT":" ","MAREA":" ","LANE":"６６巷","ALLEY":" ","HOUSE_NO":"６號","E_COORD97":169545.07999999999,"N_COORD97":2542036.9500000002,"ADDRESS":"立德十路６６巷６號","OBJECTID":371009},"geometry":{"x":169545.08000000007,"y":2542036.950000003}},{"attributes":{"ID":371020,"DIS_CODE":0,"TOWNNAME":"東區","LI":"東安里","LIN":"12鄰","STREET":"長榮路","SECT":"二段","MAREA":" ","LANE":"３２巷","ALLEY":" ","HOUSE_NO":"１４４號之２","E_COORD97":170198.54999999999,"N_COORD97":2543124.4500000002,"ADDRESS":"長榮路二段３２巷１４４號之２","OBJECTID":371010},"geometry":{"x":170198.55000000075,"y":2543124.4499999993}},{"attributes":{"ID":371021,"DIS_CODE":0,"TOWNNAME":"東區","LI":"東安里","LIN":"12鄰","STREET":"長榮路","SECT":"二段","MAREA":" ","LANE":"３２巷","ALLEY":" ","HOUSE_NO":"１４４號之７","E_COORD97":170182.44,"N_COORD97":2543113.9100000001,"ADDRESS":"長榮路二段３２巷１４４號之７","OBJECTID":371011},"geometry":{"x":170182.44000000134,"y":2543113.910000002}},{"attributes":{"ID":371022,"DIS_CODE":0,"TOWNNAME":"東區","LI":"虎尾里","LIN":"12鄰","STREET":"富農街","SECT":"一段","MAREA":" ","LANE":"３６巷","ALLEY":" ","HOUSE_NO":"１４號","E_COORD97":171548.57999999999,"N_COORD97":2542078.0600000001,"ADDRESS":"富農街一段３６巷１４號","OBJECTID":371012},"geometry":{"x":171548.58000000007,"y":2542078.0599999987}},{"attributes":{"ID":371023,"DIS_CODE":0,"TOWNNAME":"東區","LI":"富強里","LIN":"12鄰","STREET":"東門路","SECT":"二段","MAREA":" ","LANE":"３０１巷","ALLEY":" ","HOUSE_NO":"１５９號","E_COORD97":171140.45999999999,"N_COORD97":2542756.9199999999,"ADDRESS":"東門路二段３０１巷１５９號","OBJECTID":371013},"geometry":{"x":171140.45999999996,"y":2542756.9200000037}},{"attributes":{"ID":371024,"DIS_CODE":0,"TOWNNAME":"新市區","LI":"新市里","LIN":"12鄰","STREET":"中正路","SECT":" ","MAREA":" ","LANE":"３０１巷","ALLEY":" ","HOUSE_NO":"５號","E_COORD97":177580.37,"N_COORD97":2553271,"ADDRESS":"中正路３０１巷５號","OBJECTID":371014},"geometry":{"x":177580.37000000104,"y":2553271.0000000019}},{"attributes":{"ID":371025,"DIS_CODE":0,"TOWNNAME":"新市區","LI":"港墘里","LIN":"12鄰","STREET":"中山路","SECT":" ","MAREA":" ","LANE":"１０６巷","ALLEY":" ","HOUSE_NO":"２１號","E_COORD97":178328.39999999999,"N_COORD97":2552776.75,"ADDRESS":"中山路１０６巷２１號","OBJECTID":371015},"geometry":{"x":178328.4000000013,"y":2552776.7500000037}},{"attributes":{"ID":371026,"DIS_CODE":0,"TOWNNAME":"新市區","LI":"新市里","LIN":"12鄰","STREET":"中正路","SECT":" ","MAREA":" ","LANE":"３０１巷","ALLEY":" ","HOUSE_NO":"１號","E_COORD97":177583.70999999999,"N_COORD97":2553263.5,"ADDRESS":"中正路３０１巷１號","OBJECTID":371016},"geometry":{"x":177583.70999999996,"y":2553263.5000000019}},{"attributes":{"ID":371027,"DIS_CODE":0,"TOWNNAME":"新市區","LI":"港墘里","LIN":"12鄰","STREET":"中山路","SECT":" ","MAREA":" ","LANE":"１０６巷","ALLEY":" ","HOUSE_NO":"３號","E_COORD97":178369.85000000001,"N_COORD97":2552792,"ADDRESS":"中山路１０６巷３號","OBJECTID":371017},"geometry":{"x":178369.85000000149,"y":2552792.0000000037}},{"attributes":{"ID":371028,"DIS_CODE":0,"TOWNNAME":"新市區","LI":"新市里","LIN":"12鄰","STREET":"中正路","SECT":" ","MAREA":" ","LANE":"３０１巷","ALLEY":" ","HOUSE_NO":"９號","E_COORD97":177577.17999999999,"N_COORD97":2553278.25,"ADDRESS":"中正路３０１巷９號","OBJECTID":371018},"geometry":{"x":177577.1799999997,"y":2553278.2500000037}},{"attributes":{"ID":371029,"DIS_CODE":0,"TOWNNAME":"新市區","LI":"港墘里","LIN":"12鄰","STREET":"中山路","SECT":" ","MAREA":" ","LANE":"１０６巷","ALLEY":" ","HOUSE_NO":"１５號","E_COORD97":178340.88,"N_COORD97":2552779,"ADDRESS":"中山路１０６巷１５號","OBJECTID":371019},"geometry":{"x":178340.87999999989,"y":2552779.0000000019}},{"attributes":{"ID":371030,"DIS_CODE":0,"TOWNNAME":"新市區","LI":"港墘里","LIN":"12鄰","STREET":"中山路","SECT":" ","MAREA":" ","LANE":"１０６巷","ALLEY":" ","HOUSE_NO":"１７號","E_COORD97":178336.67999999999,"N_COORD97":2552778.25,"ADDRESS":"中山路１０６巷１７號","OBJECTID":371020},"geometry":{"x":178336.6799999997,"y":2552778.25}},{"attributes":{"ID":371031,"DIS_CODE":0,"TOWNNAME":"新市區","LI":"港墘里","LIN":"12鄰","STREET":"中山路","SECT":" ","MAREA":" ","LANE":"１０６巷","ALLEY":" ","HOUSE_NO":"１１號","E_COORD97":178348.98999999999,"N_COORD97":2552780.75,"ADDRESS":"中山路１０６巷１１號","OBJECTID":371021},"geometry":{"x":178348.99000000022,"y":2552780.7500000019}},{"attributes":{"ID":371032,"DIS_CODE":0,"TOWNNAME":"新市區","LI":"港墘里","LIN":"12鄰","STREET":"中山路","SECT":" ","MAREA":" ","LANE":"１０６巷","ALLEY":" ","HOUSE_NO":"１號","E_COORD97":178374.45999999999,"N_COORD97":2552790.5,"ADDRESS":"中山路１０６巷１號","OBJECTID":371022},"geometry":{"x":178374.46000000183,"y":2552790.5}},{"attributes":{"ID":371033,"DIS_CODE":0,"TOWNNAME":"新市區","LI":"港墘里","LIN":"12鄰","STREET":"中山路","SECT":" ","MAREA":" ","LANE":"１０６巷","ALLEY":" ","HOUSE_NO":"７號","E_COORD97":178355.09,"N_COORD97":2552787.25,"ADDRESS":"中山路１０６巷７號","OBJECTID":371023},"geometry":{"x":178355.09000000078,"y":2552787.2500000019}},{"attributes":{"ID":371034,"DIS_CODE":0,"TOWNNAME":"新市區","LI":"港墘里","LIN":"12鄰","STREET":"中山路","SECT":" ","MAREA":" ","LANE":"１０６巷","ALLEY":" ","HOUSE_NO":"８號","E_COORD97":178342.20999999999,"N_COORD97":2552810.75,"ADDRESS":"中山路１０６巷８號","OBJECTID":371024},"geometry":{"x":178342.20999999903,"y":2552810.7500000019}},{"attributes":{"ID":371035,"DIS_CODE":0,"TOWNNAME":"新市區","LI":"新市里","LIN":"12鄰","STREET":"中正路","SECT":" ","MAREA":" ","LANE":"３０１巷","ALLEY":" ","HOUSE_NO":"１１號","E_COORD97":177576.82000000001,"N_COORD97":2553281.75,"ADDRESS":"中正路３０１巷１１號","OBJECTID":371025},"geometry":{"x":177576.8200000003,"y":2553281.7500000037}},{"attributes":{"ID":371036,"DIS_CODE":0,"TOWNNAME":"安南區","LI":"安東里","LIN":"12鄰","STREET":"安和路","SECT":"一段","MAREA":" ","LANE":"２８８巷","ALLEY":" ","HOUSE_NO":"１１２號","E_COORD97":169571.60999999999,"N_COORD97":2548183.1499999999,"ADDRESS":"安和路一段２８８巷１１２號","OBJECTID":371026},"geometry":{"x":169571.61000000034,"y":2548183.1500000004}},{"attributes":{"ID":371037,"DIS_CODE":0,"TOWNNAME":"安南區","LI":"安慶里","LIN":"12鄰","STREET":"安中路","SECT":"一段","MAREA":" ","LANE":"７０巷","ALLEY":" ","HOUSE_NO":"１８號","E_COORD97":169094.54000000001,"N_COORD97":2548357.96,"ADDRESS":"安中路一段７０巷１８號","OBJECTID":371027},"geometry":{"x":169094.5400000019,"y":2548357.9600000009}},{"attributes":{"ID":371038,"DIS_CODE":0,"TOWNNAME":"安南區","LI":"安東里","LIN":"12鄰","STREET":"安和路","SECT":"一段","MAREA":" ","LANE":"２８８巷","ALLEY":" ","HOUSE_NO":"１０２號","E_COORD97":169547.44,"N_COORD97":2548167.9300000002,"ADDRESS":"安和路一段２８８巷１０２號","OBJECTID":371028},"geometry":{"x":169547.44000000041,"y":2548167.9300000016}},{"attributes":{"ID":371039,"DIS_CODE":0,"TOWNNAME":"安南區","LI":"海東里","LIN":"12鄰","STREET":"海中街","SECT":" ","MAREA":" ","LANE":"３６巷","ALLEY":" ","HOUSE_NO":"６號","E_COORD97":166516.07000000001,"N_COORD97":2548878.2999999998,"ADDRESS":"海中街３６巷６號","OBJECTID":371029},"geometry":{"x":166516.0700000003,"y":2548878.3000000026}},{"attributes":{"ID":371040,"DIS_CODE":0,"TOWNNAME":"安南區","LI":"海東里","LIN":"12鄰","STREET":"海中街","SECT":" ","MAREA":" ","LANE":"５４巷","ALLEY":" ","HOUSE_NO":"１６號","E_COORD97":166530.10999999999,"N_COORD97":2548935.4399999999,"ADDRESS":"海中街５４巷１６號","OBJECTID":371030},"geometry":{"x":166530.11000000127,"y":2548935.4399999995}},{"attributes":{"ID":371041,"DIS_CODE":0,"TOWNNAME":"安南區","LI":"海東里","LIN":"12鄰","STREET":"海中街","SECT":" ","MAREA":" ","LANE":"５４巷","ALLEY":" ","HOUSE_NO":"２０號","E_COORD97":166536.82999999999,"N_COORD97":2548936.9399999999,"ADDRESS":"海中街５４巷２０號","OBJECTID":371031},"geometry":{"x":166536.83000000101,"y":2548936.9400000032}},{"attributes":{"ID":371042,"DIS_CODE":0,"TOWNNAME":"安南區","LI":"海東里","LIN":"12鄰","STREET":"海中街","SECT":" ","MAREA":" ","LANE":"５４巷","ALLEY":" ","HOUSE_NO":"２２號","E_COORD97":166541.97,"N_COORD97":2548940.3300000001,"ADDRESS":"海中街５４巷２２號","OBJECTID":371032},"geometry":{"x":166541.97000000067,"y":2548940.3300000001}},{"attributes":{"ID":371043,"DIS_CODE":0,"TOWNNAME":"安南區","LI":"海東里","LIN":"12鄰","STREET":"海中街","SECT":" ","MAREA":" ","LANE":"５４巷","ALLEY":" ","HOUSE_NO":"２４號","E_COORD97":166548.12,"N_COORD97":2548942.2599999998,"ADDRESS":"海中街５４巷２４號","OBJECTID":371033},"geometry":{"x":166548.12000000104,"y":2548942.2600000016}},{"attributes":{"ID":371044,"DIS_CODE":0,"TOWNNAME":"安南區","LI":"海東里","LIN":"12鄰","STREET":"海中街","SECT":" ","MAREA":" ","LANE":"５４巷","ALLEY":" ","HOUSE_NO":"２６號","E_COORD97":166553.45000000001,"N_COORD97":2548944.7799999998,"ADDRESS":"海中街５４巷２６號","OBJECTID":371034},"geometry":{"x":166553.45000000019,"y":2548944.7800000012}},{"attributes":{"ID":371045,"DIS_CODE":0,"TOWNNAME":"中西區","LI":"保安里","LIN":"12鄰","STREET":"友愛街","SECT":" ","MAREA":" ","LANE":"２０６巷","ALLEY":" ","HOUSE_NO":"３８號","E_COORD97":167633.70000000001,"N_COORD97":2543714.1600000001,"ADDRESS":"友愛街２０６巷３８號","OBJECTID":371035},"geometry":{"x":167633.70000000019,"y":2543714.1600000001}},{"attributes":{"ID":371046,"DIS_CODE":0,"TOWNNAME":"中西區","LI":"保安里","LIN":"12鄰","STREET":"中正路","SECT":" ","MAREA":" ","LANE":"２７１巷","ALLEY":" ","HOUSE_NO":"９號","E_COORD97":167616.76999999999,"N_COORD97":2543708.1499999999,"ADDRESS":"中正路２７１巷９號","OBJECTID":371036},"geometry":{"x":167616.77000000048,"y":2543708.1499999985}},{"attributes":{"ID":371047,"DIS_CODE":0,"TOWNNAME":"中西區","LI":"小西里","LIN":"12鄰","STREET":"西門路","SECT":"一段","MAREA":" ","LANE":"７３４巷","ALLEY":" ","HOUSE_NO":"１３號","E_COORD97":167828.67000000001,"N_COORD97":2543360.7400000002,"ADDRESS":"西門路一段７３４巷１３號","OBJECTID":371037},"geometry":{"x":167828.66999999993,"y":2543360.7400000002}},{"attributes":{"ID":371048,"DIS_CODE":0,"TOWNNAME":"中西區","LI":"小西里","LIN":"12鄰","STREET":"西門路","SECT":"一段","MAREA":" ","LANE":"７３４巷","ALLEY":" ","HOUSE_NO":"１５號","E_COORD97":167845.57000000001,"N_COORD97":2543367.6299999999,"ADDRESS":"西門路一段７３４巷１５號","OBJECTID":371038},"geometry":{"x":167845.57000000123,"y":2543367.629999999}},{"attributes":{"ID":371049,"DIS_CODE":0,"TOWNNAME":"中西區","LI":"小西里","LIN":"12鄰","STREET":"西門路","SECT":"一段","MAREA":" ","LANE":"７３４巷","ALLEY":" ","HOUSE_NO":"７號","E_COORD97":167833.79999999999,"N_COORD97":2543369.04,"ADDRESS":"西門路一段７３４巷７號","OBJECTID":371039},"geometry":{"x":167833.80000000075,"y":2543369.040000001}},{"attributes":{"ID":371050,"DIS_CODE":0,"TOWNNAME":"中西區","LI":"小西里","LIN":"12鄰","STREET":"府前路","SECT":"一段","MAREA":" ","LANE":"３７１巷","ALLEY":" ","HOUSE_NO":"１０號","E_COORD97":167875.29000000001,"N_COORD97":2543387.3900000001,"ADDRESS":"府前路一段３７１巷１０號","OBJECTID":371040},"geometry":{"x":167875.29000000004,"y":2543387.3900000006}},{"attributes":{"ID":371051,"DIS_CODE":0,"TOWNNAME":"中西區","LI":"小西里","LIN":"12鄰","STREET":"府前路","SECT":"一段","MAREA":" ","LANE":"３７１巷","ALLEY":" ","HOUSE_NO":"１２號","E_COORD97":167874.73000000001,"N_COORD97":2543383.2400000002,"ADDRESS":"府前路一段３７１巷１２號","OBJECTID":371041},"geometry":{"x":167874.73000000045,"y":2543383.2400000021}},{"attributes":{"ID":371052,"DIS_CODE":0,"TOWNNAME":"中西區","LI":"小西里","LIN":"12鄰","STREET":"府前路","SECT":"一段","MAREA":" ","LANE":"３７１巷","ALLEY":" ","HOUSE_NO":"１４號","E_COORD97":167866.44,"N_COORD97":2543380.1000000001,"ADDRESS":"府前路一段３７１巷１４號","OBJECTID":371042},"geometry":{"x":167866.44000000041,"y":2543380.1000000015}},{"attributes":{"ID":371053,"DIS_CODE":0,"TOWNNAME":"中西區","LI":"小西里","LIN":"12鄰","STREET":"府前路","SECT":"一段","MAREA":" ","LANE":"３７１巷","ALLEY":" ","HOUSE_NO":"１６號","E_COORD97":167865.42999999999,"N_COORD97":2543375.6200000001,"ADDRESS":"府前路一段３７１巷１６號","OBJECTID":371043},"geometry":{"x":167865.4299999997,"y":2543375.620000001}},{"attributes":{"ID":371054,"DIS_CODE":0,"TOWNNAME":"中西區","LI":"小西里","LIN":"12鄰","STREET":"府前路","SECT":"一段","MAREA":" ","LANE":"３７１巷","ALLEY":" ","HOUSE_NO":"１８號","E_COORD97":167864.87,"N_COORD97":2543370.9100000001,"ADDRESS":"府前路一段３７１巷１８號","OBJECTID":371044},"geometry":{"x":167864.87000000011,"y":2543370.9100000039}},{"attributes":{"ID":371055,"DIS_CODE":0,"TOWNNAME":"中西區","LI":"小西里","LIN":"12鄰","STREET":"府前路","SECT":"一段","MAREA":" ","LANE":"３７１巷","ALLEY":" ","HOUSE_NO":"２０號","E_COORD97":167864.19,"N_COORD97":2543368.1099999999,"ADDRESS":"府前路一段３７１巷２０號","OBJECTID":371045},"geometry":{"x":167864.19000000041,"y":2543368.1099999994}},{"attributes":{"ID":371056,"DIS_CODE":0,"TOWNNAME":"中西區","LI":"小西里","LIN":"12鄰","STREET":"府前路","SECT":"一段","MAREA":" ","LANE":"３７１巷","ALLEY":" ","HOUSE_NO":"２２號","E_COORD97":167863.97,"N_COORD97":2543366.1000000001,"ADDRESS":"府前路一段３７１巷２２號","OBJECTID":371046},"geometry":{"x":167863.9700000016,"y":2543366.1000000015}},{"attributes":{"ID":371057,"DIS_CODE":0,"TOWNNAME":"中西區","LI":"小西里","LIN":"12鄰","STREET":"府前路","SECT":"一段","MAREA":" ","LANE":"３７１巷","ALLEY":" ","HOUSE_NO":"２號","E_COORD97":167860.16,"N_COORD97":2543392.6499999999,"ADDRESS":"府前路一段３７１巷２號","OBJECTID":371047},"geometry":{"x":167860.16000000108,"y":2543392.6500000004}},{"attributes":{"ID":371058,"DIS_CODE":0,"TOWNNAME":"安南區","LI":"海東里","LIN":"12鄰","STREET":"海環街","SECT":" ","MAREA":" ","LANE":"３２巷","ALLEY":" ","HOUSE_NO":"４９號","E_COORD97":166558.56,"N_COORD97":2548972.9300000002,"ADDRESS":"海環街３２巷４９號","OBJECTID":371048},"geometry":{"x":166558.56000000052,"y":2548972.9299999997}},{"attributes":{"ID":371059,"DIS_CODE":0,"TOWNNAME":"安南區","LI":"海東里","LIN":"12鄰","STREET":"海環街","SECT":" ","MAREA":" ","LANE":"３２巷","ALLEY":" ","HOUSE_NO":"５１號","E_COORD97":166556.59,"N_COORD97":2548976.5699999998,"ADDRESS":"海環街３２巷５１號","OBJECTID":371049},"geometry":{"x":166556.59000000078,"y":2548976.5700000003}},{"attributes":{"ID":371060,"DIS_CODE":0,"TOWNNAME":"安南區","LI":"海東里","LIN":"12鄰","STREET":"海環街","SECT":" ","MAREA":" ","LANE":"３２巷","ALLEY":" ","HOUSE_NO":"５３號","E_COORD97":166554.17000000001,"N_COORD97":2548979.5099999998,"ADDRESS":"海環街３２巷５３號","OBJECTID":371050},"geometry":{"x":166554.17000000179,"y":2548979.5099999998}},{"attributes":{"ID":371061,"DIS_CODE":0,"TOWNNAME":"安南區","LI":"海東里","LIN":"12鄰","STREET":"海環街","SECT":" ","MAREA":" ","LANE":"３２巷","ALLEY":" ","HOUSE_NO":"５５號","E_COORD97":166552.5,"N_COORD97":2548983.2599999998,"ADDRESS":"海環街３２巷５５號","OBJECTID":371051},"geometry":{"x":166552.50000000093,"y":2548983.2600000016}},{"attributes":{"ID":371062,"DIS_CODE":0,"TOWNNAME":"安南區","LI":"海東里","LIN":"12鄰","STREET":"海環街","SECT":" ","MAREA":" ","LANE":"３２巷","ALLEY":" ","HOUSE_NO":"５９號","E_COORD97":166532.67000000001,"N_COORD97":2549000.1899999999,"ADDRESS":"海環街３２巷５９號","OBJECTID":371052},"geometry":{"x":166532.67000000086,"y":2549000.1900000013}},{"attributes":{"ID":371063,"DIS_CODE":0,"TOWNNAME":"安南區","LI":"佃東里","LIN":"12鄰","STREET":"海佃路","SECT":"四段","MAREA":" ","LANE":"３８８巷","ALLEY":" ","HOUSE_NO":"１００號","E_COORD97":165622.59,"N_COORD97":2551759.4199999999,"ADDRESS":"海佃路四段３８８巷１００號","OBJECTID":371053},"geometry":{"x":165622.59000000078,"y":2551759.4200000018}},{"attributes":{"ID":371064,"DIS_CODE":0,"TOWNNAME":"安南區","LI":"佃東里","LIN":"12鄰","STREET":"海佃路","SECT":"四段","MAREA":" ","LANE":"３８８巷","ALLEY":" ","HOUSE_NO":"１１０號","E_COORD97":165612.23000000001,"N_COORD97":2551781.3199999998,"ADDRESS":"海佃路四段３８８巷１１０號","OBJECTID":371054},"geometry":{"x":165612.23000000138,"y":2551781.3200000003}},{"attributes":{"ID":371065,"DIS_CODE":0,"TOWNNAME":"安南區","LI":"佃西里","LIN":"12鄰","STREET":"公學路","SECT":"五段","MAREA":" ","LANE":"１７６巷","ALLEY":" ","HOUSE_NO":"５６號","E_COORD97":164880.85999999999,"N_COORD97":2552131.29,"ADDRESS":"公學路五段１７６巷５６號","OBJECTID":371055},"geometry":{"x":164880.86000000127,"y":2552131.2900000028}},{"attributes":{"ID":371066,"DIS_CODE":0,"TOWNNAME":"安南區","LI":"佃西里","LIN":"12鄰","STREET":"公學路","SECT":"五段","MAREA":" ","LANE":"１７６巷","ALLEY":" ","HOUSE_NO":"５８號","E_COORD97":164868.75,"N_COORD97":2552128.1899999999,"ADDRESS":"公學路五段１７６巷５８號","OBJECTID":371056},"geometry":{"x":164868.75000000186,"y":2552128.1899999995}},{"attributes":{"ID":371067,"DIS_CODE":0,"TOWNNAME":"安南區","LI":"佃西里","LIN":"12鄰","STREET":"公學路","SECT":"五段","MAREA":" ","LANE":"１７６巷","ALLEY":" ","HOUSE_NO":"５９號","E_COORD97":164860.62,"N_COORD97":2552113.9700000002,"ADDRESS":"公學路五段１７６巷５９號","OBJECTID":371057},"geometry":{"x":164860.62000000011,"y":2552113.9700000007}},{"attributes":{"ID":371068,"DIS_CODE":0,"TOWNNAME":"安南區","LI":"佃西里","LIN":"12鄰","STREET":"公學路","SECT":"五段","MAREA":" ","LANE":"１７６巷","ALLEY":" ","HOUSE_NO":"６０號","E_COORD97":164863.5,"N_COORD97":2552145.6299999999,"ADDRESS":"公學路五段１７６巷６０號","OBJECTID":371058},"geometry":{"x":164863.49999999907,"y":2552145.6300000027}},{"attributes":{"ID":371069,"DIS_CODE":0,"TOWNNAME":"安南區","LI":"佃西里","LIN":"12鄰","STREET":"公學路","SECT":"五段","MAREA":" ","LANE":"１７６巷","ALLEY":" ","HOUSE_NO":"６４號","E_COORD97":164853.34,"N_COORD97":2552139.8700000001,"ADDRESS":"公學路五段１７６巷６４號","OBJECTID":371059},"geometry":{"x":164853.34000000078,"y":2552139.8700000029}},{"attributes":{"ID":371070,"DIS_CODE":0,"TOWNNAME":"安南區","LI":"佃西里","LIN":"12鄰","STREET":"公學路","SECT":"五段","MAREA":" ","LANE":"１７６巷","ALLEY":" ","HOUSE_NO":"６６號","E_COORD97":164836.73999999999,"N_COORD97":2552126.5,"ADDRESS":"公學路五段１７６巷６６號","OBJECTID":371060},"geometry":{"x":164836.74000000209,"y":2552126.5}},{"attributes":{"ID":371071,"DIS_CODE":0,"TOWNNAME":"安南區","LI":"佃西里","LIN":"12鄰","STREET":"公學路","SECT":"五段","MAREA":" ","LANE":"１７６巷","ALLEY":" ","HOUSE_NO":"７０號","E_COORD97":164824.04000000001,"N_COORD97":2552127,"ADDRESS":"公學路五段１７６巷７０號","OBJECTID":371061},"geometry":{"x":164824.04000000004,"y":2552126.9999999981}},{"attributes":{"ID":371072,"DIS_CODE":0,"TOWNNAME":"安南區","LI":"佃西里","LIN":"12鄰","STREET":"公學路","SECT":"五段","MAREA":" ","LANE":"１７６巷","ALLEY":" ","HOUSE_NO":"７２號","E_COORD97":164814.73000000001,"N_COORD97":2552124.9700000002,"ADDRESS":"公學路五段１７６巷７２號","OBJECTID":371062},"geometry":{"x":164814.73000000045,"y":2552124.9700000044}},{"attributes":{"ID":371073,"DIS_CODE":0,"TOWNNAME":"安南區","LI":"佃西里","LIN":"12鄰","STREET":"公學路","SECT":"五段","MAREA":" ","LANE":"１７６巷","ALLEY":" ","HOUSE_NO":"８２號","E_COORD97":164777.14000000001,"N_COORD97":2552114.98,"ADDRESS":"公學路五段１７６巷８２號","OBJECTID":371063},"geometry":{"x":164777.13999999966,"y":2552114.9800000023}},{"attributes":{"ID":371074,"DIS_CODE":0,"TOWNNAME":"安南區","LI":"佃東里","LIN":"12鄰","STREET":"海佃路","SECT":"四段","MAREA":" ","LANE":"３８８巷","ALLEY":" ","HOUSE_NO":"１２６號","E_COORD97":165629.04000000001,"N_COORD97":2551838.1600000001,"ADDRESS":"海佃路四段３８８巷１２６號","OBJECTID":371064},"geometry":{"x":165629.04000000004,"y":2551838.1600000039}},{"attributes":{"ID":371075,"DIS_CODE":0,"TOWNNAME":"安南區","LI":"安東里","LIN":"12鄰","STREET":"安和路","SECT":"一段","MAREA":" ","LANE":"２８８巷","ALLEY":" ","HOUSE_NO":"１０８號","E_COORD97":169562.53,"N_COORD97":2548176.5899999999,"ADDRESS":"安和路一段２８８巷１０８號","OBJECTID":371065},"geometry":{"x":169562.53000000026,"y":2548176.5900000036}},{"attributes":{"ID":371076,"DIS_CODE":0,"TOWNNAME":"南區","LI":"國宅里","LIN":"12鄰","STREET":"金華路","SECT":"二段","MAREA":" ","LANE":"２１巷","ALLEY":" ","HOUSE_NO":"４７號","E_COORD97":166871.88,"N_COORD97":2541910.5499999998,"ADDRESS":"金華路二段２１巷４７號","OBJECTID":371066},"geometry":{"x":166871.88000000082,"y":2541910.5500000026}},{"attributes":{"ID":371077,"DIS_CODE":0,"TOWNNAME":"南區","LI":"國宅里","LIN":"12鄰","STREET":"金華路","SECT":"二段","MAREA":" ","LANE":"２１巷","ALLEY":" ","HOUSE_NO":"４８號","E_COORD97":166873.34,"N_COORD97":2541925.9300000002,"ADDRESS":"金華路二段２１巷４８號","OBJECTID":371067},"geometry":{"x":166873.34000000171,"y":2541925.9300000034}},{"attributes":{"ID":371078,"DIS_CODE":0,"TOWNNAME":"南區","LI":"國宅里","LIN":"12鄰","STREET":"金華路","SECT":"二段","MAREA":" ","LANE":"２１巷","ALLEY":" ","HOUSE_NO":"４９號","E_COORD97":166866.89999999999,"N_COORD97":2541911.4100000001,"ADDRESS":"金華路二段２１巷４９號","OBJECTID":371068},"geometry":{"x":166866.9000000013,"y":2541911.4100000001}},{"attributes":{"ID":371079,"DIS_CODE":0,"TOWNNAME":"南區","LI":"國宅里","LIN":"12鄰","STREET":"金華路","SECT":"二段","MAREA":" ","LANE":"２１巷","ALLEY":" ","HOUSE_NO":"５０號","E_COORD97":166868.01999999999,"N_COORD97":2541926.3700000001,"ADDRESS":"金華路二段２１巷５０號","OBJECTID":371069},"geometry":{"x":166868.01999999955,"y":2541926.370000001}},{"attributes":{"ID":371080,"DIS_CODE":0,"TOWNNAME":"南區","LI":"國宅里","LIN":"12鄰","STREET":"金華路","SECT":"二段","MAREA":" ","LANE":"２１巷","ALLEY":" ","HOUSE_NO":"５１號","E_COORD97":166862.14000000001,"N_COORD97":2541911.8399999999,"ADDRESS":"金華路二段２１巷５１號","OBJECTID":371070},"geometry":{"x":166862.13999999966,"y":2541911.8399999999}},{"attributes":{"ID":371081,"DIS_CODE":0,"TOWNNAME":"南區","LI":"國宅里","LIN":"12鄰","STREET":"金華路","SECT":"二段","MAREA":" ","LANE":"２１巷","ALLEY":" ","HOUSE_NO":"５２號","E_COORD97":166863.35999999999,"N_COORD97":2541926.8199999998,"ADDRESS":"金華路二段２１巷５２號","OBJECTID":371071},"geometry":{"x":166863.36000000034,"y":2541926.8200000003}},{"attributes":{"ID":371082,"DIS_CODE":0,"TOWNNAME":"南區","LI":"國宅里","LIN":"12鄰","STREET":"金華路","SECT":"二段","MAREA":" ","LANE":"２１巷","ALLEY":" ","HOUSE_NO":"５３號","E_COORD97":166856.07999999999,"N_COORD97":2541912.2799999998,"ADDRESS":"金華路二段２１巷５３號","OBJECTID":371072},"geometry":{"x":166856.08000000007,"y":2541912.2799999993}},{"attributes":{"ID":371083,"DIS_CODE":0,"TOWNNAME":"南區","LI":"國宅里","LIN":"12鄰","STREET":"金華路","SECT":"二段","MAREA":" ","LANE":"２１巷","ALLEY":" ","HOUSE_NO":"５４號","E_COORD97":166858.48000000001,"N_COORD97":2541927.04,"ADDRESS":"金華路二段２１巷５４號","OBJECTID":371073},"geometry":{"x":166858.48000000138,"y":2541927.0399999991}},{"attributes":{"ID":371084,"DIS_CODE":0,"TOWNNAME":"南區","LI":"國宅里","LIN":"12鄰","STREET":"金華路","SECT":"二段","MAREA":" ","LANE":"２１巷","ALLEY":" ","HOUSE_NO":"５５號","E_COORD97":166852.19,"N_COORD97":2541912.9199999999,"ADDRESS":"金華路二段２１巷５５號","OBJECTID":371074},"geometry":{"x":166852.19000000041,"y":2541912.9200000018}},{"attributes":{"ID":371085,"DIS_CODE":0,"TOWNNAME":"南區","LI":"國宅里","LIN":"12鄰","STREET":"金華路","SECT":"二段","MAREA":" ","LANE":"２１巷","ALLEY":" ","HOUSE_NO":"５６號","E_COORD97":166853.82000000001,"N_COORD97":2541927.9300000002,"ADDRESS":"金華路二段２１巷５６號","OBJECTID":371075},"geometry":{"x":166853.82000000123,"y":2541927.9299999997}},{"attributes":{"ID":371086,"DIS_CODE":0,"TOWNNAME":"南區","LI":"國宅里","LIN":"12鄰","STREET":"金華路","SECT":"二段","MAREA":" ","LANE":"２１巷","ALLEY":" ","HOUSE_NO":"５７號","E_COORD97":166846.98999999999,"N_COORD97":2541913.5699999998,"ADDRESS":"金華路二段２１巷５７號","OBJECTID":371076},"geometry":{"x":166846.99000000022,"y":2541913.5700000022}},{"attributes":{"ID":371087,"DIS_CODE":0,"TOWNNAME":"南區","LI":"國宅里","LIN":"12鄰","STREET":"金華路","SECT":"二段","MAREA":" ","LANE":"２１巷","ALLEY":" ","HOUSE_NO":"５８號","E_COORD97":166848.48999999999,"N_COORD97":2541928.5899999999,"ADDRESS":"金華路二段２１巷５８號","OBJECTID":371077},"geometry":{"x":166848.49000000022,"y":2541928.5900000017}},{"attributes":{"ID":371088,"DIS_CODE":0,"TOWNNAME":"南區","LI":"國宅里","LIN":"12鄰","STREET":"金華路","SECT":"二段","MAREA":" ","LANE":"２１巷","ALLEY":" ","HOUSE_NO":"５９號","E_COORD97":166842.67000000001,"N_COORD97":2541913.5699999998,"ADDRESS":"金華路二段２１巷５９號","OBJECTID":371078},"geometry":{"x":166842.67000000086,"y":2541913.5700000022}},{"attributes":{"ID":371089,"DIS_CODE":0,"TOWNNAME":"南區","LI":"國宅里","LIN":"12鄰","STREET":"金華路","SECT":"二段","MAREA":" ","LANE":"２１巷","ALLEY":" ","HOUSE_NO":"６０號","E_COORD97":166844.04999999999,"N_COORD97":2541928.3700000001,"ADDRESS":"金華路二段２１巷６０號","OBJECTID":371079},"geometry":{"x":166844.04999999981,"y":2541928.3700000029}},{"attributes":{"ID":371090,"DIS_CODE":0,"TOWNNAME":"南區","LI":"國宅里","LIN":"12鄰","STREET":"金華路","SECT":"二段","MAREA":" ","LANE":"２１巷","ALLEY":" ","HOUSE_NO":"６１號","E_COORD97":166838.34,"N_COORD97":2541913.5699999998,"ADDRESS":"金華路二段２１巷６１號","OBJECTID":371080},"geometry":{"x":166838.34000000078,"y":2541913.5700000022}},{"attributes":{"ID":371091,"DIS_CODE":0,"TOWNNAME":"南區","LI":"國宅里","LIN":"12鄰","STREET":"金華路","SECT":"二段","MAREA":" ","LANE":"２１巷","ALLEY":" ","HOUSE_NO":"６２號","E_COORD97":166838.73000000001,"N_COORD97":2541928.8100000001,"ADDRESS":"金華路二段２１巷６２號","OBJECTID":371081},"geometry":{"x":166838.73000000045,"y":2541928.8100000024}},{"attributes":{"ID":371092,"DIS_CODE":0,"TOWNNAME":"南區","LI":"國宅里","LIN":"12鄰","STREET":"金華路","SECT":"二段","MAREA":" ","LANE":"２１巷","ALLEY":" ","HOUSE_NO":"６３號","E_COORD97":166832.92999999999,"N_COORD97":2541913.79,"ADDRESS":"金華路二段２１巷６３號","OBJECTID":371082},"geometry":{"x":166832.9299999997,"y":2541913.790000001}},{"attributes":{"ID":371093,"DIS_CODE":0,"TOWNNAME":"南區","LI":"國宅里","LIN":"12鄰","STREET":"金華路","SECT":"二段","MAREA":" ","LANE":"２１巷","ALLEY":" ","HOUSE_NO":"６４號","E_COORD97":166834.73000000001,"N_COORD97":2541928.5899999999,"ADDRESS":"金華路二段２１巷６４號","OBJECTID":371083},"geometry":{"x":166834.73000000138,"y":2541928.5900000017}},{"attributes":{"ID":371094,"DIS_CODE":0,"TOWNNAME":"南區","LI":"國宅里","LIN":"12鄰","STREET":"金華路","SECT":"二段","MAREA":" ","LANE":"２１巷","ALLEY":" ","HOUSE_NO":"６５號","E_COORD97":166827.95000000001,"N_COORD97":2541914,"ADDRESS":"金華路二段２１巷６５號","OBJECTID":371084},"geometry":{"x":166827.95000000112,"y":2541914}},{"attributes":{"ID":371095,"DIS_CODE":0,"TOWNNAME":"南區","LI":"國宅里","LIN":"12鄰","STREET":"金華路","SECT":"二段","MAREA":" ","LANE":"２１巷","ALLEY":" ","HOUSE_NO":"６６號","E_COORD97":166829.63,"N_COORD97":2541928.8100000001,"ADDRESS":"金華路二段２１巷６６號","OBJECTID":371085},"geometry":{"x":166829.63000000082,"y":2541928.8100000024}},{"attributes":{"ID":371096,"DIS_CODE":0,"TOWNNAME":"南區","LI":"國宅里","LIN":"12鄰","STREET":"金華路","SECT":"二段","MAREA":" ","LANE":"２７巷","ALLEY":" ","HOUSE_NO":"４７號","E_COORD97":166874.01000000001,"N_COORD97":2541943.4399999999,"ADDRESS":"金華路二段２７巷４７號","OBJECTID":371086},"geometry":{"x":166874.01000000071,"y":2541943.4400000013}},{"attributes":{"ID":371097,"DIS_CODE":0,"TOWNNAME":"南區","LI":"國宅里","LIN":"12鄰","STREET":"金華路","SECT":"二段","MAREA":" ","LANE":"２７巷","ALLEY":" ","HOUSE_NO":"４８號","E_COORD97":166875.67999999999,"N_COORD97":2541958.79,"ADDRESS":"金華路二段２７巷４８號","OBJECTID":371087},"geometry":{"x":166875.6799999997,"y":2541958.7899999991}},{"attributes":{"ID":371098,"DIS_CODE":0,"TOWNNAME":"南區","LI":"國宅里","LIN":"12鄰","STREET":"金華路","SECT":"二段","MAREA":" ","LANE":"２７巷","ALLEY":" ","HOUSE_NO":"４９號","E_COORD97":166868.67999999999,"N_COORD97":2541943.6600000001,"ADDRESS":"金華路二段２７巷４９號","OBJECTID":371088},"geometry":{"x":166868.6799999997,"y":2541943.6600000001}},{"attributes":{"ID":371099,"DIS_CODE":0,"TOWNNAME":"南區","LI":"國宅里","LIN":"12鄰","STREET":"金華路","SECT":"二段","MAREA":" ","LANE":"２７巷","ALLEY":" ","HOUSE_NO":"５０號","E_COORD97":166870.57999999999,"N_COORD97":2541958.2999999998,"ADDRESS":"金華路二段２７巷５０號","OBJECTID":371089},"geometry":{"x":166870.58000000101,"y":2541958.3000000045}},{"attributes":{"ID":371100,"DIS_CODE":0,"TOWNNAME":"南區","LI":"國宅里","LIN":"12鄰","STREET":"金華路","SECT":"二段","MAREA":" ","LANE":"２７巷","ALLEY":" ","HOUSE_NO":"５１號","E_COORD97":166863.79999999999,"N_COORD97":2541944.1000000001,"ADDRESS":"金華路二段２７巷５１號","OBJECTID":371090},"geometry":{"x":166863.80000000075,"y":2541944.0999999996}},{"attributes":{"ID":371101,"DIS_CODE":0,"TOWNNAME":"南區","LI":"國宅里","LIN":"12鄰","STREET":"金華路","SECT":"二段","MAREA":" ","LANE":"２７巷","ALLEY":" ","HOUSE_NO":"５２號","E_COORD97":166865.48000000001,"N_COORD97":2541958.79,"ADDRESS":"金華路二段２７巷５２號","OBJECTID":371091},"geometry":{"x":166865.48000000045,"y":2541958.7899999991}},{"attributes":{"ID":371102,"DIS_CODE":0,"TOWNNAME":"南區","LI":"國宅里","LIN":"12鄰","STREET":"金華路","SECT":"二段","MAREA":" ","LANE":"２７巷","ALLEY":" ","HOUSE_NO":"５３號","E_COORD97":166860.03,"N_COORD97":2541944.77,"ADDRESS":"金華路二段２７巷５３號","OBJECTID":371092},"geometry":{"x":166860.03000000026,"y":2541944.7700000014}},{"attributes":{"ID":371103,"DIS_CODE":0,"TOWNNAME":"南區","LI":"國宅里","LIN":"12鄰","STREET":"金華路","SECT":"二段","MAREA":" ","LANE":"２７巷","ALLEY":" ","HOUSE_NO":"５４號","E_COORD97":166860.14000000001,"N_COORD97":2541959.52,"ADDRESS":"金華路二段２７巷５４號","OBJECTID":371093},"geometry":{"x":166860.13999999966,"y":2541959.5200000014}},{"attributes":{"ID":371104,"DIS_CODE":0,"TOWNNAME":"南區","LI":"國宅里","LIN":"12鄰","STREET":"金華路","SECT":"二段","MAREA":" ","LANE":"２７巷","ALLEY":" ","HOUSE_NO":"５５號","E_COORD97":166854.92999999999,"N_COORD97":2541945.4300000002,"ADDRESS":"金華路二段２７巷５５號","OBJECTID":371094},"geometry":{"x":166854.9299999997,"y":2541945.4299999997}},{"attributes":{"ID":371105,"DIS_CODE":0,"TOWNNAME":"南區","LI":"國宅里","LIN":"12鄰","STREET":"金華路","SECT":"二段","MAREA":" ","LANE":"２７巷","ALLEY":" ","HOUSE_NO":"５６號","E_COORD97":166855.76999999999,"N_COORD97":2541959.7599999998,"ADDRESS":"金華路二段２７巷５６號","OBJECTID":371095},"geometry":{"x":166855.76999999955,"y":2541959.7599999998}},{"attributes":{"ID":371106,"DIS_CODE":0,"TOWNNAME":"南區","LI":"國宅里","LIN":"12鄰","STREET":"金華路","SECT":"二段","MAREA":" ","LANE":"２７巷","ALLEY":" ","HOUSE_NO":"５７號","E_COORD97":166849.82000000001,"N_COORD97":2541945.4300000002,"ADDRESS":"金華路二段２７巷５７號","OBJECTID":371096},"geometry":{"x":166849.8200000003,"y":2541945.4299999997}},{"attributes":{"ID":371107,"DIS_CODE":0,"TOWNNAME":"南區","LI":"國宅里","LIN":"12鄰","STREET":"金華路","SECT":"二段","MAREA":" ","LANE":"２７巷","ALLEY":" ","HOUSE_NO":"５８號","E_COORD97":166851.39999999999,"N_COORD97":2541960.4900000002,"ADDRESS":"金華路二段２７巷５８號","OBJECTID":371097},"geometry":{"x":166851.40000000224,"y":2541960.4900000021}},{"attributes":{"ID":371108,"DIS_CODE":0,"TOWNNAME":"南區","LI":"國宅里","LIN":"12鄰","STREET":"金華路","SECT":"二段","MAREA":" ","LANE":"２７巷","ALLEY":" ","HOUSE_NO":"５９號","E_COORD97":166844.72,"N_COORD97":2541946.7599999998,"ADDRESS":"金華路二段２７巷５９號","OBJECTID":371098},"geometry":{"x":166844.71999999974,"y":2541946.7599999998}},{"attributes":{"ID":371109,"DIS_CODE":0,"TOWNNAME":"南區","LI":"國宅里","LIN":"12鄰","STREET":"金華路","SECT":"二段","MAREA":" ","LANE":"２７巷","ALLEY":" ","HOUSE_NO":"６０號","E_COORD97":166846.31,"N_COORD97":2541960.9700000002,"ADDRESS":"金華路二段２７巷６０號","OBJECTID":371099},"geometry":{"x":166846.31000000052,"y":2541960.9700000025}},{"attributes":{"ID":371110,"DIS_CODE":0,"TOWNNAME":"南區","LI":"國宅里","LIN":"12鄰","STREET":"金華路","SECT":"二段","MAREA":" ","LANE":"２７巷","ALLEY":" ","HOUSE_NO":"６１號","E_COORD97":166840.72,"N_COORD97":2541946.54,"ADDRESS":"金華路二段２７巷６１號","OBJECTID":371100},"geometry":{"x":166840.72000000067,"y":2541946.5399999991}},{"attributes":{"ID":371111,"DIS_CODE":0,"TOWNNAME":"南區","LI":"國宅里","LIN":"12鄰","STREET":"金華路","SECT":"二段","MAREA":" ","LANE":"２７巷","ALLEY":" ","HOUSE_NO":"６２號","E_COORD97":166841.69,"N_COORD97":2541961.21,"ADDRESS":"金華路二段２７巷６２號","OBJECTID":371101},"geometry":{"x":166841.69000000134,"y":2541961.2100000009}},{"attributes":{"ID":371112,"DIS_CODE":0,"TOWNNAME":"南區","LI":"國宅里","LIN":"12鄰","STREET":"金華路","SECT":"二段","MAREA":" ","LANE":"２７巷","ALLEY":" ","HOUSE_NO":"６３號","E_COORD97":166835.39999999999,"N_COORD97":2541946.54,"ADDRESS":"金華路二段２７巷６３號","OBJECTID":371102},"geometry":{"x":166835.40000000037,"y":2541946.5399999991}},{"attributes":{"ID":371113,"DIS_CODE":0,"TOWNNAME":"南區","LI":"喜北里","LIN":"12鄰","STREET":"喜樹路","SECT":" ","MAREA":" ","LANE":"２０６巷","ALLEY":" ","HOUSE_NO":"７８號","E_COORD97":165730.75,"N_COORD97":2538255.3999999999,"ADDRESS":"喜樹路２０６巷７８號","OBJECTID":371103},"geometry":{"x":165730.75,"y":2538255.4000000022}},{"attributes":{"ID":371114,"DIS_CODE":0,"TOWNNAME":"南區","LI":"喜北里","LIN":"12鄰","STREET":"喜樹路","SECT":" ","MAREA":" ","LANE":"２０６巷","ALLEY":" ","HOUSE_NO":"９６號","E_COORD97":165723.34,"N_COORD97":2538296.8700000001,"ADDRESS":"喜樹路２０６巷９６號","OBJECTID":371104},"geometry":{"x":165723.33999999985,"y":2538296.8700000029}},{"attributes":{"ID":371115,"DIS_CODE":0,"TOWNNAME":"南區","LI":"喜北里","LIN":"12鄰","STREET":"喜樹路","SECT":" ","MAREA":" ","LANE":"２０６巷","ALLEY":" ","HOUSE_NO":"９８號","E_COORD97":165722.29000000001,"N_COORD97":2538301.02,"ADDRESS":"喜樹路２０６巷９８號","OBJECTID":371105},"geometry":{"x":165722.29000000004,"y":2538301.0200000014}},{"attributes":{"ID":371116,"DIS_CODE":0,"TOWNNAME":"南區","LI":"喜北里","LIN":"12鄰","STREET":"喜樹路","SECT":" ","MAREA":" ","LANE":"２０６巷","ALLEY":" ","HOUSE_NO":"１００號","E_COORD97":165721.45000000001,"N_COORD97":2538306.0099999998,"ADDRESS":"喜樹路２０６巷１００號","OBJECTID":371106},"geometry":{"x":165721.45000000019,"y":2538306.0100000016}},{"attributes":{"ID":371117,"DIS_CODE":0,"TOWNNAME":"永康區","LI":"烏竹里","LIN":"12鄰","STREET":"竹園二街","SECT":" ","MAREA":" ","LANE":"１６０巷","ALLEY":" ","HOUSE_NO":"４２號","E_COORD97":174554.14000000001,"N_COORD97":2549209.1499999999,"ADDRESS":"竹園二街１６０巷４２號","OBJECTID":371107},"geometry":{"x":174554.1400000006,"y":2549209.1500000022}},{"attributes":{"ID":371118,"DIS_CODE":0,"TOWNNAME":"永康區","LI":"烏竹里","LIN":"12鄰","STREET":"竹園二街","SECT":" ","MAREA":" ","LANE":"１６０巷","ALLEY":" ","HOUSE_NO":"１２號","E_COORD97":174542.44,"N_COORD97":2549221.5600000001,"ADDRESS":"竹園二街１６０巷１２號","OBJECTID":371108},"geometry":{"x":174542.44000000134,"y":2549221.5600000005}},{"attributes":{"ID":371119,"DIS_CODE":0,"TOWNNAME":"永康區","LI":"烏竹里","LIN":"12鄰","STREET":"竹園二街","SECT":" ","MAREA":" ","LANE":"１６０巷","ALLEY":" ","HOUSE_NO":"２６號","E_COORD97":174522.22,"N_COORD97":2549206.9199999999,"ADDRESS":"竹園二街１６０巷２６號","OBJECTID":371109},"geometry":{"x":174522.21999999974,"y":2549206.9199999999}},{"attributes":{"ID":371120,"DIS_CODE":0,"TOWNNAME":"永康區","LI":"烏竹里","LIN":"12鄰","STREET":"竹園二街","SECT":" ","MAREA":" ","LANE":"１６０巷","ALLEY":" ","HOUSE_NO":"４６號","E_COORD97":174543.70999999999,"N_COORD97":2549205.3599999999,"ADDRESS":"竹園二街１６０巷４６號","OBJECTID":371110},"geometry":{"x":174543.71000000089,"y":2549205.3600000013}},{"attributes":{"ID":371121,"DIS_CODE":0,"TOWNNAME":"永康區","LI":"東灣里","LIN":"12鄰","STREET":"大灣二街","SECT":" ","MAREA":" ","LANE":"１１４巷","ALLEY":" ","HOUSE_NO":"２號","E_COORD97":174759.89999999999,"N_COORD97":2544816.2400000002,"ADDRESS":"大灣二街１１４巷２號","OBJECTID":371111},"geometry":{"x":174759.9000000013,"y":2544816.2400000039}},{"attributes":{"ID":371122,"DIS_CODE":0,"TOWNNAME":"永康區","LI":"烏竹里","LIN":"12鄰","STREET":"竹園二街","SECT":" ","MAREA":" ","LANE":"１６０巷","ALLEY":" ","HOUSE_NO":"５０號","E_COORD97":174535.81,"N_COORD97":2549198.8500000001,"ADDRESS":"竹園二街１６０巷５０號","OBJECTID":371112},"geometry":{"x":174535.81000000052,"y":2549198.8500000034}},{"attributes":{"ID":371123,"DIS_CODE":0,"TOWNNAME":"永康區","LI":"東橋里","LIN":"12鄰","STREET":"中山南路","SECT":" ","MAREA":" ","LANE":"１９５巷","ALLEY":" ","HOUSE_NO":"２號","E_COORD97":171584.29000000001,"N_COORD97":2546182.3300000001,"ADDRESS":"中山南路１９５巷２號","OBJECTID":371113},"geometry":{"x":171584.29000000004,"y":2546182.3300000019}},{"attributes":{"ID":371124,"DIS_CODE":0,"TOWNNAME":"永康區","LI":"埔園里","LIN":"12鄰","STREET":"中山路","SECT":" ","MAREA":" ","LANE":"１８５巷","ALLEY":" ","HOUSE_NO":"５號","E_COORD97":173668,"N_COORD97":2548030.4100000001,"ADDRESS":"中山路１８５巷５號","OBJECTID":371114},"geometry":{"x":173668,"y":2548030.410000002}},{"attributes":{"ID":371125,"DIS_CODE":0,"TOWNNAME":"永康區","LI":"東灣里","LIN":"12鄰","STREET":"大灣二街","SECT":" ","MAREA":" ","LANE":"１１４巷","ALLEY":" ","HOUSE_NO":"３號","E_COORD97":174757.48999999999,"N_COORD97":2544830.7000000002,"ADDRESS":"大灣二街１１４巷３號","OBJECTID":371115},"geometry":{"x":174757.49000000115,"y":2544830.7000000011}},{"attributes":{"ID":371126,"DIS_CODE":0,"TOWNNAME":"永康區","LI":"埔園里","LIN":"12鄰","STREET":"中山路","SECT":" ","MAREA":" ","LANE":"１８５巷","ALLEY":" ","HOUSE_NO":"９號","E_COORD97":173659.39000000001,"N_COORD97":2548037.6600000001,"ADDRESS":"中山路１８５巷９號","OBJECTID":371116},"geometry":{"x":173659.3900000006,"y":2548037.6600000039}},{"attributes":{"ID":371127,"DIS_CODE":0,"TOWNNAME":"永康區","LI":"東橋里","LIN":"12鄰","STREET":"中山南路","SECT":" ","MAREA":" ","LANE":"１９５巷","ALLEY":" ","HOUSE_NO":"１號","E_COORD97":171587,"N_COORD97":2546177.8300000001,"ADDRESS":"中山南路１９５巷１號","OBJECTID":371117},"geometry":{"x":171587.00000000093,"y":2546177.8300000001}},{"attributes":{"ID":371128,"DIS_CODE":0,"TOWNNAME":"永康區","LI":"東灣里","LIN":"12鄰","STREET":"大灣二街","SECT":" ","MAREA":" ","LANE":"１１４巷","ALLEY":" ","HOUSE_NO":"５號","E_COORD97":174759.94,"N_COORD97":2544834.4500000002,"ADDRESS":"大灣二街１１４巷５號","OBJECTID":371118},"geometry":{"x":174759.94000000134,"y":2544834.4500000011}},{"attributes":{"ID":371129,"DIS_CODE":0,"TOWNNAME":"永康區","LI":"埔園里","LIN":"12鄰","STREET":"中山路","SECT":" ","MAREA":" ","LANE":"１７１巷","ALLEY":" ","HOUSE_NO":"１０號","E_COORD97":173655.73999999999,"N_COORD97":2547983.25,"ADDRESS":"中山路１７１巷１０號","OBJECTID":371119},"geometry":{"x":173655.74000000115,"y":2547983.2500000019}},{"attributes":{"ID":371130,"DIS_CODE":0,"TOWNNAME":"永康區","LI":"埔園里","LIN":"12鄰","STREET":"中山路","SECT":" ","MAREA":" ","LANE":"１７１巷","ALLEY":" ","HOUSE_NO":"１８號","E_COORD97":173641.48999999999,"N_COORD97":2547977,"ADDRESS":"中山路１７１巷１８號","OBJECTID":371120},"geometry":{"x":173641.48999999929,"y":2547977}},{"attributes":{"ID":371131,"DIS_CODE":0,"TOWNNAME":"永康區","LI":"埔園里","LIN":"12鄰","STREET":"四維街","SECT":" ","MAREA":" ","LANE":"５８巷","ALLEY":" ","HOUSE_NO":"１０號","E_COORD97":173477.39999999999,"N_COORD97":2548072.1400000001,"ADDRESS":"四維街５８巷１０號","OBJECTID":371121},"geometry":{"x":173477.40000000037,"y":2548072.1400000043}},{"attributes":{"ID":371132,"DIS_CODE":0,"TOWNNAME":"永康區","LI":"埔園里","LIN":"12鄰","STREET":"四維街","SECT":" ","MAREA":" ","LANE":"５８巷","ALLEY":" ","HOUSE_NO":"２０號","E_COORD97":173501.32000000001,"N_COORD97":2548064.5,"ADDRESS":"四維街５８巷２０號","OBJECTID":371122},"geometry":{"x":173501.3200000003,"y":2548064.5}},{"attributes":{"ID":371133,"DIS_CODE":0,"TOWNNAME":"永康區","LI":"烏竹里","LIN":"12鄰","STREET":"竹園二街","SECT":" ","MAREA":" ","LANE":"１６０巷","ALLEY":" ","HOUSE_NO":"３８號","E_COORD97":174562.07000000001,"N_COORD97":2549215.8999999999,"ADDRESS":"竹園二街１６０巷３８號","OBJECTID":371123},"geometry":{"x":174562.07000000123,"y":2549215.9000000041}},{"attributes":{"ID":371134,"DIS_CODE":0,"TOWNNAME":"安南區","LI":"\u25A0南里","LIN":"12鄰","STREET":"安昌街","SECT":" ","MAREA":" ","LANE":"２２２巷","ALLEY":" ","HOUSE_NO":"７１號","E_COORD97":170229.17000000001,"N_COORD97":2552633.4300000002,"ADDRESS":"安昌街２２２巷７１號","OBJECTID":371124},"geometry":{"x":170229.16999999993,"y":2552633.4300000016}},{"attributes":{"ID":371135,"DIS_CODE":0,"TOWNNAME":"安南區","LI":"學東里","LIN":"12鄰","STREET":"公學路","SECT":"七段","MAREA":" ","LANE":"２７巷","ALLEY":" ","HOUSE_NO":"１０２號","E_COORD97":161924.82999999999,"N_COORD97":2553125.46,"ADDRESS":"公學路七段２７巷１０２號","OBJECTID":371125},"geometry":{"x":161924.83000000007,"y":2553125.4600000046}},{"attributes":{"ID":371136,"DIS_CODE":0,"TOWNNAME":"安南區","LI":"學東里","LIN":"12鄰","STREET":"公學路","SECT":"七段","MAREA":" ","LANE":"７７巷","ALLEY":" ","HOUSE_NO":"２２３號","E_COORD97":161875.81,"N_COORD97":2553088.8999999999,"ADDRESS":"公學路七段７７巷２２３號","OBJECTID":371126},"geometry":{"x":161875.81000000145,"y":2553088.9000000022}},{"attributes":{"ID":371137,"DIS_CODE":0,"TOWNNAME":"安南區","LI":"學東里","LIN":"12鄰","STREET":"公學路","SECT":"七段","MAREA":" ","LANE":"７７巷","ALLEY":" ","HOUSE_NO":"２２７號","E_COORD97":161888.94,"N_COORD97":2553086.8700000001,"ADDRESS":"公學路七段７７巷２２７號","OBJECTID":371127},"geometry":{"x":161888.94000000041,"y":2553086.8700000029}},{"attributes":{"ID":371138,"DIS_CODE":0,"TOWNNAME":"安南區","LI":"學東里","LIN":"12鄰","STREET":"公學路","SECT":"六段","MAREA":" ","LANE":"７２１巷","ALLEY":" ","HOUSE_NO":"８４號","E_COORD97":161976.191746,"N_COORD97":2553099.9084000001,"ADDRESS":"公學路六段７２１巷８４號","OBJECTID":371128},"geometry":{"x":161976.19174600113,"y":2553099.9084050022}},{"attributes":{"ID":371139,"DIS_CODE":0,"TOWNNAME":"安南區","LI":"學東里","LIN":"12鄰","STREET":"公學路","SECT":"六段","MAREA":" ","LANE":"７２１巷","ALLEY":" ","HOUSE_NO":"９０號","E_COORD97":161986.10999999999,"N_COORD97":2553060.5499999998,"ADDRESS":"公學路六段７２１巷９０號","OBJECTID":371129},"geometry":{"x":161986.11000000034,"y":2553060.5500000026}},{"attributes":{"ID":371140,"DIS_CODE":0,"TOWNNAME":"東區","LI":"富強里","LIN":"12鄰","STREET":"裕農路","SECT":" ","MAREA":" ","LANE":"２８８巷","ALLEY":" ","HOUSE_NO":"２０９號","E_COORD97":171087.51000000001,"N_COORD97":2542798.7799999998,"ADDRESS":"裕農路２８８巷２０９號","OBJECTID":371130},"geometry":{"x":171087.50999999978,"y":2542798.7800000012}},{"attributes":{"ID":371141,"DIS_CODE":0,"TOWNNAME":"東區","LI":"大智里","LIN":"12鄰","STREET":"長東街","SECT":" ","MAREA":" ","LANE":"１３３巷","ALLEY":" ","HOUSE_NO":"２８號","E_COORD97":171104.88,"N_COORD97":2540165.77,"ADDRESS":"長東街１３３巷２８號","OBJECTID":371131},"geometry":{"x":171104.88000000082,"y":2540165.7699999996}},{"attributes":{"ID":371142,"DIS_CODE":0,"TOWNNAME":"東區","LI":"德高里","LIN":"12鄰","STREET":"崇善路","SECT":" ","MAREA":" ","LANE":"９１３巷","ALLEY":" ","HOUSE_NO":"４１號","E_COORD97":171389.54999999999,"N_COORD97":2540778.0699999998,"ADDRESS":"崇善路９１３巷４１號","OBJECTID":371132},"geometry":{"x":171389.55000000168,"y":2540778.0700000003}},{"attributes":{"ID":371143,"DIS_CODE":0,"TOWNNAME":"東區","LI":"德高里","LIN":"12鄰","STREET":"崇善路","SECT":" ","MAREA":" ","LANE":"９１３巷","ALLEY":" ","HOUSE_NO":"４３號","E_COORD97":171394.29999999999,"N_COORD97":2540780.3599999999,"ADDRESS":"崇善路９１３巷４３號","OBJECTID":371133},"geometry":{"x":171394.29999999981,"y":2540780.3600000013}},{"attributes":{"ID":371144,"DIS_CODE":0,"TOWNNAME":"東區","LI":"德高里","LIN":"12鄰","STREET":"崇善路","SECT":" ","MAREA":" ","LANE":"９１３巷","ALLEY":" ","HOUSE_NO":"４５號","E_COORD97":171398.07000000001,"N_COORD97":2540782.98,"ADDRESS":"崇善路９１３巷４５號","OBJECTID":371134},"geometry":{"x":171398.0700000003,"y":2540782.9800000004}},{"attributes":{"ID":371145,"DIS_CODE":0,"TOWNNAME":"東區","LI":"德高里","LIN":"12鄰","STREET":"崇善路","SECT":" ","MAREA":" ","LANE":"９１３巷","ALLEY":" ","HOUSE_NO":"４７號","E_COORD97":171402.98000000001,"N_COORD97":2540784.9500000002,"ADDRESS":"崇善路９１３巷４７號","OBJECTID":371135},"geometry":{"x":171402.98000000138,"y":2540784.9499999993}},{"attributes":{"ID":371146,"DIS_CODE":0,"TOWNNAME":"善化區","LI":"南關里","LIN":"12鄰","STREET":"復興街","SECT":" ","MAREA":" ","LANE":"５５巷","ALLEY":" ","HOUSE_NO":"１號之１","E_COORD97":176998.67000000001,"N_COORD97":2558989.5099999998,"ADDRESS":"復興街５５巷１號之１","OBJECTID":371136},"geometry":{"x":176998.67000000086,"y":2558989.5100000016}},{"attributes":{"ID":371147,"DIS_CODE":0,"TOWNNAME":"善化區","LI":"光文里","LIN":"12鄰","STREET":"民生路","SECT":" ","MAREA":" ","LANE":"３３巷","ALLEY":" ","HOUSE_NO":"６號","E_COORD97":178820.51999999999,"N_COORD97":2559001.5099999998,"ADDRESS":"民生路３３巷６號","OBJECTID":371137},"geometry":{"x":178820.51999999955,"y":2559001.5099999998}},{"attributes":{"ID":371148,"DIS_CODE":0,"TOWNNAME":"善化區","LI":"文正里","LIN":"12鄰","STREET":"文正路","SECT":" ","MAREA":" ","LANE":"２５巷","ALLEY":" ","HOUSE_NO":"１之４號","E_COORD97":176949.5,"N_COORD97":2559262.2799999998,"ADDRESS":"文正路２５巷１之４號","OBJECTID":371138},"geometry":{"x":176949.5,"y":2559262.2800000012}},{"attributes":{"ID":371149,"DIS_CODE":0,"TOWNNAME":"善化區","LI":"東關里","LIN":"12鄰","STREET":"中山路","SECT":" ","MAREA":" ","LANE":"３９３巷","ALLEY":" ","HOUSE_NO":"２號","E_COORD97":177377.87,"N_COORD97":2559071.75,"ADDRESS":"中山路３９３巷２號","OBJECTID":371139},"geometry":{"x":177377.87000000011,"y":2559071.75}},{"attributes":{"ID":371150,"DIS_CODE":0,"TOWNNAME":"善化區","LI":"光文里","LIN":"12鄰","STREET":"仁愛路","SECT":" ","MAREA":" ","LANE":"２４巷","ALLEY":" ","HOUSE_NO":"７號","E_COORD97":178562.64000000001,"N_COORD97":2558930.5099999998,"ADDRESS":"仁愛路２４巷７號","OBJECTID":371140},"geometry":{"x":178562.63999999966,"y":2558930.5099999998}},{"attributes":{"ID":371151,"DIS_CODE":0,"TOWNNAME":"善化區","LI":"坐駕里","LIN":"12鄰","STREET":"大成路","SECT":" ","MAREA":" ","LANE":"２７１巷","ALLEY":" ","HOUSE_NO":"１０號","E_COORD97":178213.88,"N_COORD97":2558790,"ADDRESS":"大成路２７１巷１０號","OBJECTID":371141},"geometry":{"x":178213.88000000175,"y":2558790.0000000019}},{"attributes":{"ID":371152,"DIS_CODE":0,"TOWNNAME":"善化區","LI":"光文里","LIN":"12鄰","STREET":"仁愛路","SECT":" ","MAREA":" ","LANE":"２４巷","ALLEY":" ","HOUSE_NO":"２號","E_COORD97":178544.31,"N_COORD97":2558946.0099999998,"ADDRESS":"仁愛路２４巷２號","OBJECTID":371142},"geometry":{"x":178544.30999999959,"y":2558946.0100000016}},{"attributes":{"ID":371153,"DIS_CODE":0,"TOWNNAME":"仁德區","LI":"後壁里","LIN":"12鄰","STREET":"德善路","SECT":" ","MAREA":" ","LANE":"２８０巷","ALLEY":" ","HOUSE_NO":"８號","E_COORD97":173934.26000000001,"N_COORD97":2538473.27,"ADDRESS":"德善路２８０巷８號","OBJECTID":371143},"geometry":{"x":173934.26000000164,"y":2538473.2700000014}},{"attributes":{"ID":371154,"DIS_CODE":0,"TOWNNAME":"仁德區","LI":"二行里","LIN":"12鄰","STREET":"行大街","SECT":" ","MAREA":" ","LANE":"１７２巷","ALLEY":" ","HOUSE_NO":"５０號","E_COORD97":169883.59,"N_COORD97":2535193.2400000002,"ADDRESS":"行大街１７２巷５０號","OBJECTID":371144},"geometry":{"x":169883.58999999985,"y":2535193.2400000002}},{"attributes":{"ID":371155,"DIS_CODE":0,"TOWNNAME":"新化區","LI":"東榮里","LIN":"12鄰","STREET":"中興路","SECT":" ","MAREA":" ","LANE":"５３４巷","ALLEY":" ","HOUSE_NO":"５９號","E_COORD97":179957.56,"N_COORD97":2548005.25,"ADDRESS":"中興路５３４巷５９號","OBJECTID":371145},"geometry":{"x":179957.56000000052,"y":2548005.25}},{"attributes":{"ID":371156,"DIS_CODE":0,"TOWNNAME":"新化區","LI":"東榮里","LIN":"12鄰","STREET":"中興路","SECT":" ","MAREA":" ","LANE":"５３４巷","ALLEY":" ","HOUSE_NO":"４２號","E_COORD97":179975.56,"N_COORD97":2548004.25,"ADDRESS":"中興路５３４巷４２號","OBJECTID":371146},"geometry":{"x":179975.56000000052,"y":2548004.2500000019}},{"attributes":{"ID":371157,"DIS_CODE":0,"TOWNNAME":"新化區","LI":"豐榮里","LIN":"12鄰","STREET":"正新路","SECT":" ","MAREA":" ","LANE":"９５巷","ALLEY":" ","HOUSE_NO":"２５號","E_COORD97":178571.42000000001,"N_COORD97":2548006.25,"ADDRESS":"正新路９５巷２５號","OBJECTID":371147},"geometry":{"x":178571.42000000179,"y":2548006.2500000037}},{"attributes":{"ID":371158,"DIS_CODE":0,"TOWNNAME":"安南區","LI":"大安里","LIN":"12鄰","STREET":"大安街","SECT":" ","MAREA":" ","LANE":"２９２巷","ALLEY":" ","HOUSE_NO":"１０號","E_COORD97":167551.45000000001,"N_COORD97":2548462.6000000001,"ADDRESS":"大安街２９２巷１０號","OBJECTID":371148},"geometry":{"x":167551.45000000112,"y":2548462.6000000015}},{"attributes":{"ID":371159,"DIS_CODE":0,"TOWNNAME":"安南區","LI":"大安里","LIN":"12鄰","STREET":"大安街","SECT":" ","MAREA":" ","LANE":"２９２巷","ALLEY":" ","HOUSE_NO":"１１號","E_COORD97":167568.95999999999,"N_COORD97":2548474.6200000001,"ADDRESS":"大安街２９２巷１１號","OBJECTID":371149},"geometry":{"x":167568.95999999996,"y":2548474.620000001}},{"attributes":{"ID":371160,"DIS_CODE":0,"TOWNNAME":"安南區","LI":"大安里","LIN":"12鄰","STREET":"大安街","SECT":" ","MAREA":" ","LANE":"２９２巷","ALLEY":" ","HOUSE_NO":"１２號","E_COORD97":167556.14999999999,"N_COORD97":2548460.8199999998,"ADDRESS":"大安街２９２巷１２號","OBJECTID":371150},"geometry":{"x":167556.15000000037,"y":2548460.8200000022}},{"attributes":{"ID":371161,"DIS_CODE":0,"TOWNNAME":"安南區","LI":"大安里","LIN":"12鄰","STREET":"大安街","SECT":" ","MAREA":" ","LANE":"２９２巷","ALLEY":" ","HOUSE_NO":"１３號","E_COORD97":167574.60999999999,"N_COORD97":2548470.9199999999,"ADDRESS":"大安街２９２巷１３號","OBJECTID":371151},"geometry":{"x":167574.61000000127,"y":2548470.9200000018}},{"attributes":{"ID":371162,"DIS_CODE":0,"TOWNNAME":"安南區","LI":"大安里","LIN":"12鄰","STREET":"大安街","SECT":" ","MAREA":" ","LANE":"２９２巷","ALLEY":" ","HOUSE_NO":"１４號","E_COORD97":167565.54999999999,"N_COORD97":2548455.1899999999,"ADDRESS":"大安街２９２巷１４號","OBJECTID":371152},"geometry":{"x":167565.55000000075,"y":2548455.1900000013}},{"attributes":{"ID":371163,"DIS_CODE":0,"TOWNNAME":"安南區","LI":"大安里","LIN":"12鄰","STREET":"大安街","SECT":" ","MAREA":" ","LANE":"２９２巷","ALLEY":" ","HOUSE_NO":"１５號","E_COORD97":167580.72,"N_COORD97":2548468.4399999999,"ADDRESS":"大安街２９２巷１５號","OBJECTID":371153},"geometry":{"x":167580.71999999974,"y":2548468.4399999995}},{"attributes":{"ID":371164,"DIS_CODE":0,"TOWNNAME":"安南區","LI":"大安里","LIN":"12鄰","STREET":"大安街","SECT":" ","MAREA":" ","LANE":"２９２巷","ALLEY":" ","HOUSE_NO":"１６號","E_COORD97":167570.07000000001,"N_COORD97":2548450.8799999999,"ADDRESS":"大安街２９２巷１６號","OBJECTID":371154},"geometry":{"x":167570.0700000003,"y":2548450.879999999}},{"attributes":{"ID":371165,"DIS_CODE":0,"TOWNNAME":"安南區","LI":"大安里","LIN":"12鄰","STREET":"大安街","SECT":" ","MAREA":" ","LANE":"２９２巷","ALLEY":" ","HOUSE_NO":"１７號","E_COORD97":167586.29000000001,"N_COORD97":2548465.2000000002,"ADDRESS":"大安街２９２巷１７號","OBJECTID":371155},"geometry":{"x":167586.29000000097,"y":2548465.1999999993}},{"attributes":{"ID":371166,"DIS_CODE":0,"TOWNNAME":"安南區","LI":"大安里","LIN":"12鄰","STREET":"大安街","SECT":" ","MAREA":" ","LANE":"２９２巷","ALLEY":" ","HOUSE_NO":"１８號","E_COORD97":167575.17999999999,"N_COORD97":2548449.7200000002,"ADDRESS":"大安街２９２巷１８號","OBJECTID":371156},"geometry":{"x":167575.18000000063,"y":2548449.7200000007}},{"attributes":{"ID":371167,"DIS_CODE":0,"TOWNNAME":"安南區","LI":"大安里","LIN":"12鄰","STREET":"大安街","SECT":" ","MAREA":" ","LANE":"２９２巷","ALLEY":" ","HOUSE_NO":"１９號","E_COORD97":167590.85999999999,"N_COORD97":2548461.0600000001,"ADDRESS":"大安街２９２巷１９號","OBJECTID":371157},"geometry":{"x":167590.8600000022,"y":2548461.0600000005}},{"attributes":{"ID":371168,"DIS_CODE":0,"TOWNNAME":"安南區","LI":"大安里","LIN":"12鄰","STREET":"大安街","SECT":" ","MAREA":" ","LANE":"２９２巷","ALLEY":" ","HOUSE_NO":"１號","E_COORD97":167544.22,"N_COORD97":2548490.1499999999,"ADDRESS":"大安街２９２巷１號","OBJECTID":371158},"geometry":{"x":167544.22000000067,"y":2548490.1500000022}},{"attributes":{"ID":371169,"DIS_CODE":0,"TOWNNAME":"安南區","LI":"大安里","LIN":"12鄰","STREET":"大安街","SECT":" ","MAREA":" ","LANE":"２９２巷","ALLEY":" ","HOUSE_NO":"２０號","E_COORD97":167581.44,"N_COORD97":2548444.5899999999,"ADDRESS":"大安街２９２巷２０號","OBJECTID":371159},"geometry":{"x":167581.44000000041,"y":2548444.5900000036}},{"attributes":{"ID":371170,"DIS_CODE":0,"TOWNNAME":"安南區","LI":"大安里","LIN":"12鄰","STREET":"大安街","SECT":" ","MAREA":" ","LANE":"２９２巷","ALLEY":" ","HOUSE_NO":"２２號","E_COORD97":167585.54999999999,"N_COORD97":2548442.8100000001,"ADDRESS":"大安街２９２巷２２號","OBJECTID":371160},"geometry":{"x":167585.55000000168,"y":2548442.8100000005}},{"attributes":{"ID":371171,"DIS_CODE":0,"TOWNNAME":"安南區","LI":"大安里","LIN":"12鄰","STREET":"大安街","SECT":" ","MAREA":" ","LANE":"２９２巷","ALLEY":" ","HOUSE_NO":"２４號","E_COORD97":167590.85999999999,"N_COORD97":2548438.98,"ADDRESS":"大安街２９２巷２４號","OBJECTID":371161},"geometry":{"x":167590.8600000022,"y":2548438.9799999986}},{"attributes":{"ID":371172,"DIS_CODE":0,"TOWNNAME":"安南區","LI":"大安里","LIN":"12鄰","STREET":"大安街","SECT":" ","MAREA":" ","LANE":"２９２巷","ALLEY":" ","HOUSE_NO":"２５號","E_COORD97":167606.10000000001,"N_COORD97":2548452.3300000001,"ADDRESS":"大安街２９２巷２５號","OBJECTID":371162},"geometry":{"x":167606.10000000056,"y":2548452.3300000001}},{"attributes":{"ID":371173,"DIS_CODE":0,"TOWNNAME":"安南區","LI":"大安里","LIN":"12鄰","STREET":"大安街","SECT":" ","MAREA":" ","LANE":"２９２巷","ALLEY":" ","HOUSE_NO":"２６號","E_COORD97":167596.04000000001,"N_COORD97":2548435.5800000001,"ADDRESS":"大安街２９２巷２６號","OBJECTID":371163},"geometry":{"x":167596.0400000019,"y":2548435.5800000019}},{"attributes":{"ID":371174,"DIS_CODE":0,"TOWNNAME":"安南區","LI":"大安里","LIN":"12鄰","STREET":"大安街","SECT":" ","MAREA":" ","LANE":"２９２巷","ALLEY":" ","HOUSE_NO":"２號","E_COORD97":167535.17000000001,"N_COORD97":2548475.1699999999,"ADDRESS":"大安街２９２巷２號","OBJECTID":371164},"geometry":{"x":167535.16999999993,"y":2548475.1700000018}},{"attributes":{"ID":371175,"DIS_CODE":0,"TOWNNAME":"安南區","LI":"大安里","LIN":"12鄰","STREET":"大安街","SECT":" ","MAREA":" ","LANE":"２９２巷","ALLEY":" ","HOUSE_NO":"３號","E_COORD97":167548.32000000001,"N_COORD97":2548488.2200000002,"ADDRESS":"大安街２９２巷３號","OBJECTID":371165},"geometry":{"x":167548.3200000003,"y":2548488.2200000007}},{"attributes":{"ID":371176,"DIS_CODE":0,"TOWNNAME":"安南區","LI":"大安里","LIN":"12鄰","STREET":"大安街","SECT":" ","MAREA":" ","LANE":"２９２巷","ALLEY":" ","HOUSE_NO":"４號","E_COORD97":167538.85999999999,"N_COORD97":2548472.1200000001,"ADDRESS":"大安街２９２巷４號","OBJECTID":371166},"geometry":{"x":167538.86000000127,"y":2548472.120000001}},{"attributes":{"ID":371177,"DIS_CODE":0,"TOWNNAME":"安南區","LI":"大安里","LIN":"12鄰","STREET":"大安街","SECT":" ","MAREA":" ","LANE":"２９２巷","ALLEY":" ","HOUSE_NO":"５號","E_COORD97":167554.12,"N_COORD97":2548486.6000000001,"ADDRESS":"大安街２９２巷５號","OBJECTID":371167},"geometry":{"x":167554.12000000011,"y":2548486.6000000015}},{"attributes":{"ID":371178,"DIS_CODE":0,"TOWNNAME":"安南區","LI":"大安里","LIN":"12鄰","STREET":"大安街","SECT":" ","MAREA":" ","LANE":"２９２巷","ALLEY":" ","HOUSE_NO":"６號","E_COORD97":167542.42000000001,"N_COORD97":2548469.3300000001,"ADDRESS":"大安街２９２巷６號","OBJECTID":371168},"geometry":{"x":167542.42000000179,"y":2548469.3300000001}},{"attributes":{"ID":371179,"DIS_CODE":0,"TOWNNAME":"安南區","LI":"大安里","LIN":"12鄰","STREET":"大安街","SECT":" ","MAREA":" ","LANE":"２９２巷","ALLEY":" ","HOUSE_NO":"８號","E_COORD97":167547.64000000001,"N_COORD97":2548465.3900000001,"ADDRESS":"大安街２９２巷８號","OBJECTID":371169},"geometry":{"x":167547.6400000006,"y":2548465.3900000006}},{"attributes":{"ID":371180,"DIS_CODE":0,"TOWNNAME":"安南區","LI":"大安里","LIN":"12鄰","STREET":"大安街","SECT":" ","MAREA":" ","LANE":"２９２巷","ALLEY":" ","HOUSE_NO":"９號","E_COORD97":167564.78,"N_COORD97":2548478.8599999999,"ADDRESS":"大安街２９２巷９號","OBJECTID":371170},"geometry":{"x":167564.78000000119,"y":2548478.8599999994}},{"attributes":{"ID":371181,"DIS_CODE":0,"TOWNNAME":"安南區","LI":"大安里","LIN":"12鄰","STREET":"大安街","SECT":" ","MAREA":" ","LANE":"３０８巷","ALLEY":" ","HOUSE_NO":"１０號","E_COORD97":167572.42000000001,"N_COORD97":2548496.9100000001,"ADDRESS":"大安街３０８巷１０號","OBJECTID":371171},"geometry":{"x":167572.41999999993,"y":2548496.9100000039}},{"attributes":{"ID":371182,"DIS_CODE":0,"TOWNNAME":"安南區","LI":"大安里","LIN":"12鄰","STREET":"大安街","SECT":" ","MAREA":" ","LANE":"３０８巷","ALLEY":" ","HOUSE_NO":"１２號","E_COORD97":167573.04000000001,"N_COORD97":2548490.1899999999,"ADDRESS":"大安街３０８巷１２號","OBJECTID":371172},"geometry":{"x":167573.04000000097,"y":2548490.1899999995}},{"attributes":{"ID":371183,"DIS_CODE":0,"TOWNNAME":"安南區","LI":"大安里","LIN":"12鄰","STREET":"大安街","SECT":" ","MAREA":" ","LANE":"３０８巷","ALLEY":" ","HOUSE_NO":"１４號","E_COORD97":167575.59,"N_COORD97":2548485.1000000001,"ADDRESS":"大安街３０８巷１４號","OBJECTID":371173},"geometry":{"x":167575.59000000078,"y":2548485.1000000034}},{"attributes":{"ID":371184,"DIS_CODE":0,"TOWNNAME":"安南區","LI":"大安里","LIN":"12鄰","STREET":"大安街","SECT":" ","MAREA":" ","LANE":"３０８巷","ALLEY":" ","HOUSE_NO":"１５號","E_COORD97":167608.22,"N_COORD97":2548546.48,"ADDRESS":"大安街３０８巷１５號","OBJECTID":371174},"geometry":{"x":167608.22000000067,"y":2548546.4800000004}},{"attributes":{"ID":371185,"DIS_CODE":0,"TOWNNAME":"安南區","LI":"大安里","LIN":"12鄰","STREET":"大安街","SECT":" ","MAREA":" ","LANE":"３０８巷","ALLEY":" ","HOUSE_NO":"１６號","E_COORD97":167581.01000000001,"N_COORD97":2548481.7799999998,"ADDRESS":"大安街３０８巷１６號","OBJECTID":371175},"geometry":{"x":167581.01000000071,"y":2548481.7799999993}},{"attributes":{"ID":371186,"DIS_CODE":0,"TOWNNAME":"安南區","LI":"大安里","LIN":"12鄰","STREET":"大安街","SECT":" ","MAREA":" ","LANE":"３０８巷","ALLEY":" ","HOUSE_NO":"１８號","E_COORD97":167586.57999999999,"N_COORD97":2548478.6899999999,"ADDRESS":"大安街３０８巷１８號","OBJECTID":371176},"geometry":{"x":167586.58000000007,"y":2548478.6900000013}},{"attributes":{"ID":371187,"DIS_CODE":0,"TOWNNAME":"安南區","LI":"大安里","LIN":"12鄰","STREET":"大安街","SECT":" ","MAREA":" ","LANE":"３０８巷","ALLEY":" ","HOUSE_NO":"２０號","E_COORD97":167594.69,"N_COORD97":2548472.1099999999,"ADDRESS":"大安街３０８巷２０號","OBJECTID":371177},"geometry":{"x":167594.69000000041,"y":2548472.1100000013}},{"attributes":{"ID":371188,"DIS_CODE":0,"TOWNNAME":"安南區","LI":"大安里","LIN":"12鄰","STREET":"大安街","SECT":" ","MAREA":" ","LANE":"３０８巷","ALLEY":" ","HOUSE_NO":"４號","E_COORD97":167558.95000000001,"N_COORD97":2548506.1800000002,"ADDRESS":"大安街３０８巷４號","OBJECTID":371178},"geometry":{"x":167558.95000000019,"y":2548506.1800000016}},{"attributes":{"ID":371189,"DIS_CODE":0,"TOWNNAME":"安南區","LI":"大安里","LIN":"12鄰","STREET":"大安街","SECT":" ","MAREA":" ","LANE":"３０８巷","ALLEY":" ","HOUSE_NO":"６號","E_COORD97":167562.82000000001,"N_COORD97":2548502.7799999998,"ADDRESS":"大安街３０８巷６號","OBJECTID":371179},"geometry":{"x":167562.82000000123,"y":2548502.7799999993}},{"attributes":{"ID":371190,"DIS_CODE":0,"TOWNNAME":"安南區","LI":"大安里","LIN":"12鄰","STREET":"大安街","SECT":" ","MAREA":" ","LANE":"３０８巷","ALLEY":" ","HOUSE_NO":"８號","E_COORD97":167568.16,"N_COORD97":2548499.77,"ADDRESS":"大安街３０８巷８號","OBJECTID":371180},"geometry":{"x":167568.16000000201,"y":2548499.7699999996}},{"attributes":{"ID":371191,"DIS_CODE":0,"TOWNNAME":"南區","LI":"開南里","LIN":"12鄰","STREET":"新建路","SECT":" ","MAREA":" ","LANE":"４４巷","ALLEY":" ","HOUSE_NO":"１１號","E_COORD97":166403.20999999999,"N_COORD97":2540636.8100000001,"ADDRESS":"新建路４４巷１１號","OBJECTID":371181},"geometry":{"x":166403.21000000089,"y":2540636.8100000024}},{"attributes":{"ID":371192,"DIS_CODE":0,"TOWNNAME":"南區","LI":"開南里","LIN":"12鄰","STREET":"新建路","SECT":" ","MAREA":" ","LANE":"４４巷","ALLEY":" ","HOUSE_NO":"３號","E_COORD97":166438.60999999999,"N_COORD97":2540637,"ADDRESS":"新建路４４巷３號","OBJECTID":371182},"geometry":{"x":166438.61000000127,"y":2540636.9999999981}},{"attributes":{"ID":371193,"DIS_CODE":0,"TOWNNAME":"南區","LI":"開南里","LIN":"12鄰","STREET":"新建路","SECT":" ","MAREA":" ","LANE":"４４巷","ALLEY":" ","HOUSE_NO":"５號","E_COORD97":166425.35000000001,"N_COORD97":2540637.46,"ADDRESS":"新建路４４巷５號","OBJECTID":371183},"geometry":{"x":166425.34999999963,"y":2540637.4600000009}},{"attributes":{"ID":371194,"DIS_CODE":0,"TOWNNAME":"南區","LI":"開南里","LIN":"12鄰","STREET":"新建路","SECT":" ","MAREA":" ","LANE":"４４巷","ALLEY":" ","HOUSE_NO":"７號","E_COORD97":166419.98000000001,"N_COORD97":2540637.3700000001,"ADDRESS":"新建路４４巷７號","OBJECTID":371184},"geometry":{"x":166419.98000000045,"y":2540637.3700000029}},{"attributes":{"ID":371195,"DIS_CODE":0,"TOWNNAME":"南區","LI":"開南里","LIN":"12鄰","STREET":"新建路","SECT":" ","MAREA":" ","LANE":"４４巷","ALLEY":" ","HOUSE_NO":"９號","E_COORD97":166409.54000000001,"N_COORD97":2540636.9199999999,"ADDRESS":"新建路４４巷９號","OBJECTID":371185},"geometry":{"x":166409.54000000097,"y":2540636.9199999999}},{"attributes":{"ID":371196,"DIS_CODE":0,"TOWNNAME":"南區","LI":"開南里","LIN":"12鄰","STREET":"新建路","SECT":" ","MAREA":" ","LANE":"４６巷","ALLEY":" ","HOUSE_NO":"１０號","E_COORD97":166408.64999999999,"N_COORD97":2540618.25,"ADDRESS":"新建路４６巷１０號","OBJECTID":371186},"geometry":{"x":166408.65000000037,"y":2540618.25}},{"attributes":{"ID":371197,"DIS_CODE":0,"TOWNNAME":"南區","LI":"廣州里","LIN":"12鄰","STREET":"福吉一街","SECT":" ","MAREA":" ","LANE":"２４巷","ALLEY":" ","HOUSE_NO":"１號","E_COORD97":167333.23000000001,"N_COORD97":2542787.7400000002,"ADDRESS":"福吉一街２４巷１號","OBJECTID":371187},"geometry":{"x":167333.23000000138,"y":2542787.7400000002}},{"attributes":{"ID":371198,"DIS_CODE":0,"TOWNNAME":"南區","LI":"廣州里","LIN":"12鄰","STREET":"福吉一街","SECT":" ","MAREA":" ","LANE":"２４巷","ALLEY":" ","HOUSE_NO":"３號","E_COORD97":167335.76999999999,"N_COORD97":2542791.54,"ADDRESS":"福吉一街２４巷３號","OBJECTID":371188},"geometry":{"x":167335.76999999955,"y":2542791.5399999991}},{"attributes":{"ID":371199,"DIS_CODE":0,"TOWNNAME":"南區","LI":"廣州里","LIN":"12鄰","STREET":"福吉一街","SECT":" ","MAREA":" ","LANE":"２４巷","ALLEY":" ","HOUSE_NO":"５號","E_COORD97":167338.72,"N_COORD97":2542793.6400000001,"ADDRESS":"福吉一街２４巷５號","OBJECTID":371189},"geometry":{"x":167338.72000000067,"y":2542793.6400000025}},{"attributes":{"ID":371200,"DIS_CODE":0,"TOWNNAME":"南區","LI":"廣州里","LIN":"12鄰","STREET":"福吉一街","SECT":" ","MAREA":" ","LANE":"２４巷","ALLEY":" ","HOUSE_NO":"７號","E_COORD97":167339.98999999999,"N_COORD97":2542797.4399999999,"ADDRESS":"福吉一街２４巷７號","OBJECTID":371190},"geometry":{"x":167339.99000000022,"y":2542797.4400000013}},{"attributes":{"ID":371201,"DIS_CODE":0,"TOWNNAME":"南區","LI":"廣州里","LIN":"12鄰","STREET":"福吉一街","SECT":" ","MAREA":" ","LANE":"２４巷","ALLEY":" ","HOUSE_NO":"９號","E_COORD97":167345.48000000001,"N_COORD97":2542799.9700000002,"ADDRESS":"福吉一街２４巷９號","OBJECTID":371191},"geometry":{"x":167345.48000000045,"y":2542799.9700000007}},{"attributes":{"ID":371202,"DIS_CODE":0,"TOWNNAME":"南區","LI":"廣州里","LIN":"12鄰","STREET":"福吉一街","SECT":" ","MAREA":" ","LANE":"２４巷","ALLEY":" ","HOUSE_NO":"１１號","E_COORD97":167349.70000000001,"N_COORD97":2542803.3399999999,"ADDRESS":"福吉一街２４巷１１號","OBJECTID":371192},"geometry":{"x":167349.70000000112,"y":2542803.3399999999}},{"attributes":{"ID":371203,"DIS_CODE":0,"TOWNNAME":"南區","LI":"廣州里","LIN":"12鄰","STREET":"福吉一街","SECT":" ","MAREA":" ","LANE":"２４巷","ALLEY":" ","HOUSE_NO":"１３號","E_COORD97":167354.35000000001,"N_COORD97":2542808.3999999999,"ADDRESS":"福吉一街２４巷１３號","OBJECTID":371193},"geometry":{"x":167354.3499999987,"y":2542808.4000000041}},{"attributes":{"ID":371204,"DIS_CODE":0,"TOWNNAME":"南區","LI":"廣州里","LIN":"12鄰","STREET":"福吉一街","SECT":" ","MAREA":" ","LANE":"２４巷","ALLEY":" ","HOUSE_NO":"１５號","E_COORD97":167354.76999999999,"N_COORD97":2542811.77,"ADDRESS":"福吉一街２４巷１５號","OBJECTID":371194},"geometry":{"x":167354.76999999955,"y":2542811.7700000033}},{"attributes":{"ID":371205,"DIS_CODE":0,"TOWNNAME":"南區","LI":"廣州里","LIN":"12鄰","STREET":"福吉一街","SECT":" ","MAREA":" ","LANE":"３２巷","ALLEY":" ","HOUSE_NO":"１號","E_COORD97":167303.26000000001,"N_COORD97":2542806.7200000002,"ADDRESS":"福吉一街３２巷１號","OBJECTID":371195},"geometry":{"x":167303.26000000071,"y":2542806.7200000025}},{"attributes":{"ID":371206,"DIS_CODE":0,"TOWNNAME":"南區","LI":"廣州里","LIN":"12鄰","STREET":"福吉一街","SECT":" ","MAREA":" ","LANE":"３２巷","ALLEY":" ","HOUSE_NO":"２號","E_COORD97":167311.70000000001,"N_COORD97":2542798.2799999998,"ADDRESS":"福吉一街３２巷２號","OBJECTID":371196},"geometry":{"x":167311.70000000019,"y":2542798.2800000012}},{"attributes":{"ID":371207,"DIS_CODE":0,"TOWNNAME":"南區","LI":"再興里","LIN":"12鄰","STREET":"三官路","SECT":" ","MAREA":" ","LANE":"１７６巷","ALLEY":" ","HOUSE_NO":"２２號","E_COORD97":167262.22,"N_COORD97":2542105.7400000002,"ADDRESS":"三官路１７６巷２２號","OBJECTID":371197},"geometry":{"x":167262.2200000016,"y":2542105.7400000002}},{"attributes":{"ID":371208,"DIS_CODE":0,"TOWNNAME":"南區","LI":"再興里","LIN":"12鄰","STREET":"三官路","SECT":" ","MAREA":" ","LANE":"１７６巷","ALLEY":" ","HOUSE_NO":"２６號","E_COORD97":167264.60000000001,"N_COORD97":2542105.1099999999,"ADDRESS":"三官路１７６巷２６號","OBJECTID":371198},"geometry":{"x":167264.60000000149,"y":2542105.1100000013}},{"attributes":{"ID":371209,"DIS_CODE":0,"TOWNNAME":"南區","LI":"再興里","LIN":"12鄰","STREET":"三官路","SECT":" ","MAREA":" ","LANE":"１７６巷","ALLEY":" ","HOUSE_NO":"２８號","E_COORD97":167267.45999999999,"N_COORD97":2542104.6299999999,"ADDRESS":"三官路１７６巷２８號","OBJECTID":371199},"geometry":{"x":167267.45999999996,"y":2542104.6300000008}},{"attributes":{"ID":371210,"DIS_CODE":0,"TOWNNAME":"南區","LI":"再興里","LIN":"12鄰","STREET":"三官路","SECT":" ","MAREA":" ","LANE":"１７６巷","ALLEY":" ","HOUSE_NO":"３０號","E_COORD97":167270.79000000001,"N_COORD97":2542104.79,"ADDRESS":"三官路１７６巷３０號","OBJECTID":371200},"geometry":{"x":167270.79000000097,"y":2542104.7899999991}}]}