{"displayFieldName":"TOWNNAME","fieldAliases":{"ID":"ID","DIS_CODE":"DIS_CODE","TOWNNAME":"TOWNNAME","LI":"LI","LIN":"LIN","STREET":"STREET","SECT":"SECT","MAREA":"MAREA","LANE":"LANE","ALLEY":"ALLEY","HOUSE_NO":"HOUSE_NO","E_COORD97":"E_COORD97","N_COORD97":"N_COORD97","ADDRESS":"ADDRESS","OBJECTID":"OBJECTID"},"geometryType":"esriGeometryPoint","spatialReference":{"wkid":102443,"latestWkid":3826},"fields":[{"name":"ID","type":"esriFieldTypeDouble","alias":"ID"},{"name":"DIS_CODE","type":"esriFieldTypeInteger","alias":"DIS_CODE"},{"name":"TOWNNAME","type":"esriFieldTypeString","alias":"TOWNNAME","length":8},{"name":"LI","type":"esriFieldTypeString","alias":"LI","length":8},{"name":"LIN","type":"esriFieldTypeString","alias":"LIN","length":12},{"name":"STREET","type":"esriFieldTypeString","alias":"STREET","length":20},{"name":"SECT","type":"esriFieldTypeString","alias":"SECT","length":8},{"name":"MAREA","type":"esriFieldTypeString","alias":"MAREA","length":12},{"name":"LANE","type":"esriFieldTypeString","alias":"LANE","length":10},{"name":"ALLEY","type":"esriFieldTypeString","alias":"ALLEY","length":10},{"name":"HOUSE_NO","type":"esriFieldTypeString","alias":"HOUSE_NO","length":20},{"name":"E_COORD97","type":"esriFieldTypeDouble","alias":"E_COORD97"},{"name":"N_COORD97","type":"esriFieldTypeDouble","alias":"N_COORD97"},{"name":"ADDRESS","type":"esriFieldTypeString","alias":"ADDRESS","length":50},{"name":"OBJECTID","type":"esriFieldTypeOID","alias":"OBJECTID"}],"features":[{"attributes":{"ID":265205,"DIS_CODE":0,"TOWNNAME":"新營區","LI":"民權里","LIN":"24鄰","STREET":"民治路","SECT":" ","MAREA":" ","LANE":"５３巷","ALLEY":" ","HOUSE_NO":"７號三樓","E_COORD97":179685.70000000001,"N_COORD97":2578708.2200000002,"ADDRESS":"民治路５３巷７號三樓","OBJECTID":265201},"geometry":{"x":179685.70000000112,"y":2578708.2200000025}},{"attributes":{"ID":265206,"DIS_CODE":0,"TOWNNAME":"新營區","LI":"民權里","LIN":"24鄰","STREET":"民治路","SECT":" ","MAREA":" ","LANE":"５３巷","ALLEY":" ","HOUSE_NO":"７之２號五樓","E_COORD97":179698.54999999999,"N_COORD97":2578734.7999999998,"ADDRESS":"民治路５３巷７之２號五樓","OBJECTID":265202},"geometry":{"x":179698.54999999981,"y":2578734.8000000026}},{"attributes":{"ID":265207,"DIS_CODE":0,"TOWNNAME":"新營區","LI":"民權里","LIN":"24鄰","STREET":"民治路","SECT":" ","MAREA":" ","LANE":"５３巷","ALLEY":" ","HOUSE_NO":"７之２號二樓","E_COORD97":179698.54999999999,"N_COORD97":2578734.7999999998,"ADDRESS":"民治路５３巷７之２號二樓","OBJECTID":265203},"geometry":{"x":179698.54999999981,"y":2578734.8000000026}},{"attributes":{"ID":265208,"DIS_CODE":0,"TOWNNAME":"中西區","LI":"法華里","LIN":"22鄰","STREET":"健康路","SECT":"一段","MAREA":" ","LANE":" ","ALLEY":" ","HOUSE_NO":"１７４號四樓","E_COORD97":168682.07999999999,"N_COORD97":2542453.6400000001,"ADDRESS":"健康路一段１７４號四樓","OBJECTID":265204},"geometry":{"x":168682.08000000007,"y":2542453.6400000006}},{"attributes":{"ID":265209,"DIS_CODE":0,"TOWNNAME":"中西區","LI":"法華里","LIN":"22鄰","STREET":"健康路","SECT":"一段","MAREA":" ","LANE":" ","ALLEY":" ","HOUSE_NO":"２２２號三樓","E_COORD97":168555.26999999999,"N_COORD97":2542458.9300000002,"ADDRESS":"健康路一段２２２號三樓","OBJECTID":265205},"geometry":{"x":168555.27000000048,"y":2542458.9300000016}},{"attributes":{"ID":265210,"DIS_CODE":0,"TOWNNAME":"仁德區","LI":"保安里","LIN":"22鄰","STREET":"文賢路","SECT":"一段","MAREA":" ","LANE":" ","ALLEY":" ","HOUSE_NO":"７４６號","E_COORD97":171326.57000000001,"N_COORD97":2536367.8300000001,"ADDRESS":"文賢路一段７４６號","OBJECTID":265206},"geometry":{"x":171326.5700000003,"y":2536367.8300000019}},{"attributes":{"ID":265211,"DIS_CODE":0,"TOWNNAME":"東區","LI":"虎尾里","LIN":"24鄰","STREET":"東成街","SECT":" ","MAREA":" ","LANE":"２２２巷","ALLEY":" ","HOUSE_NO":"１０號","E_COORD97":171915.98999999999,"N_COORD97":2542270.98,"ADDRESS":"東成街２２２巷１０號","OBJECTID":265207},"geometry":{"x":171915.99000000209,"y":2542270.9800000004}},{"attributes":{"ID":265212,"DIS_CODE":0,"TOWNNAME":"永康區","LI":"網寮里","LIN":"22鄰","STREET":"永春街","SECT":" ","MAREA":" ","LANE":"２５巷","ALLEY":" ","HOUSE_NO":"１２之５號","E_COORD97":173711.12,"N_COORD97":2546281.79,"ADDRESS":"永春街２５巷１２之５號","OBJECTID":265208},"geometry":{"x":173711.12000000011,"y":2546281.7899999991}},{"attributes":{"ID":265213,"DIS_CODE":0,"TOWNNAME":"仁德區","LI":"保安里","LIN":"22鄰","STREET":"文賢路","SECT":"一段","MAREA":" ","LANE":" ","ALLEY":" ","HOUSE_NO":"６８８號","E_COORD97":171235.92999999999,"N_COORD97":2536467.8300000001,"ADDRESS":"文賢路一段６８８號","OBJECTID":265209},"geometry":{"x":171235.93000000156,"y":2536467.8300000001}},{"attributes":{"ID":265214,"DIS_CODE":0,"TOWNNAME":"仁德區","LI":"後壁里","LIN":"22鄰","STREET":"中正路","SECT":"二段","MAREA":" ","LANE":" ","ALLEY":" ","HOUSE_NO":"１７１號","E_COORD97":173200.95000000001,"N_COORD97":2538665.7799999998,"ADDRESS":"中正路二段１７１號","OBJECTID":265210},"geometry":{"x":173200.94999999925,"y":2538665.7800000012}},{"attributes":{"ID":265215,"DIS_CODE":0,"TOWNNAME":"永康區","LI":"崑山里","LIN":"22鄰","STREET":"國光一街","SECT":" ","MAREA":" ","LANE":" ","ALLEY":" ","HOUSE_NO":"１２號","E_COORD97":174032.73000000001,"N_COORD97":2544574.6400000001,"ADDRESS":"國光一街１２號","OBJECTID":265211},"geometry":{"x":174032.73000000045,"y":2544574.6400000025}},{"attributes":{"ID":265216,"DIS_CODE":0,"TOWNNAME":"永康區","LI":"崑山里","LIN":"22鄰","STREET":"國光一街","SECT":" ","MAREA":" ","LANE":" ","ALLEY":" ","HOUSE_NO":"２２號","E_COORD97":173986.84,"N_COORD97":2544594.8100000001,"ADDRESS":"國光一街２２號","OBJECTID":265212},"geometry":{"x":173986.84000000078,"y":2544594.8100000005}},{"attributes":{"ID":265217,"DIS_CODE":0,"TOWNNAME":"永康區","LI":"安康里","LIN":"24鄰","STREET":"中華路","SECT":" ","MAREA":" ","LANE":"７０３巷","ALLEY":" ","HOUSE_NO":"６４號四樓之２","E_COORD97":170755.51000000001,"N_COORD97":2546246.7999999998,"ADDRESS":"中華路７０３巷６４號四樓之２","OBJECTID":265213},"geometry":{"x":170755.50999999978,"y":2546246.8000000007}},{"attributes":{"ID":265218,"DIS_CODE":0,"TOWNNAME":"永康區","LI":"崑山里","LIN":"22鄰","STREET":"國光一街","SECT":" ","MAREA":" ","LANE":" ","ALLEY":" ","HOUSE_NO":"１０號","E_COORD97":174036.60999999999,"N_COORD97":2544573.3900000001,"ADDRESS":"國光一街１０號","OBJECTID":265214},"geometry":{"x":174036.61000000127,"y":2544573.3900000006}},{"attributes":{"ID":265219,"DIS_CODE":0,"TOWNNAME":"永康區","LI":"大灣里","LIN":"22鄰","STREET":"大灣路","SECT":" ","MAREA":" ","LANE":" ","ALLEY":" ","HOUSE_NO":"２１７號","E_COORD97":174969.85999999999,"N_COORD97":2545300.8199999998,"ADDRESS":"大灣路２１７號","OBJECTID":265215},"geometry":{"x":174969.8599999994,"y":2545300.820000004}},{"attributes":{"ID":265220,"DIS_CODE":0,"TOWNNAME":"永康區","LI":"安康里","LIN":"24鄰","STREET":"中華路","SECT":" ","MAREA":" ","LANE":"７０３巷","ALLEY":" ","HOUSE_NO":"５８號三樓","E_COORD97":170746.48000000001,"N_COORD97":2546266.5,"ADDRESS":"中華路７０３巷５８號三樓","OBJECTID":265216},"geometry":{"x":170746.48000000231,"y":2546266.5000000019}},{"attributes":{"ID":265221,"DIS_CODE":0,"TOWNNAME":"永康區","LI":"安康里","LIN":"24鄰","STREET":"中華路","SECT":" ","MAREA":" ","LANE":"７０３巷","ALLEY":" ","HOUSE_NO":"５２號三樓","E_COORD97":170770.67999999999,"N_COORD97":2546278.9900000002,"ADDRESS":"中華路７０３巷５２號三樓","OBJECTID":265217},"geometry":{"x":170770.6799999997,"y":2546278.9899999984}},{"attributes":{"ID":265222,"DIS_CODE":0,"TOWNNAME":"永康區","LI":"安康里","LIN":"24鄰","STREET":"中華路","SECT":" ","MAREA":" ","LANE":"７０３巷","ALLEY":" ","HOUSE_NO":"５８號二樓","E_COORD97":170746.48000000001,"N_COORD97":2546266.5,"ADDRESS":"中華路７０３巷５８號二樓","OBJECTID":265218},"geometry":{"x":170746.48000000231,"y":2546266.5000000019}},{"attributes":{"ID":265223,"DIS_CODE":0,"TOWNNAME":"永康區","LI":"埔園里","LIN":"24鄰","STREET":"中正路","SECT":" ","MAREA":" ","LANE":"１４８巷","ALLEY":" ","HOUSE_NO":"２號之３五樓","E_COORD97":173569.95999999999,"N_COORD97":2547924.04,"ADDRESS":"中正路１４８巷２號之３五樓","OBJECTID":265219},"geometry":{"x":173569.95999999996,"y":2547924.0399999991}},{"attributes":{"ID":265224,"DIS_CODE":0,"TOWNNAME":"永康區","LI":"西勢里","LIN":"24鄰","STREET":"廣興街","SECT":" ","MAREA":" ","LANE":"２６巷","ALLEY":" ","HOUSE_NO":"１４號四樓","E_COORD97":175895.67999999999,"N_COORD97":2546505.54,"ADDRESS":"廣興街２６巷１４號四樓","OBJECTID":265220},"geometry":{"x":175895.6799999997,"y":2546505.540000001}},{"attributes":{"ID":265225,"DIS_CODE":0,"TOWNNAME":"永康區","LI":"西勢里","LIN":"24鄰","STREET":"廣興街","SECT":" ","MAREA":" ","LANE":"２６巷","ALLEY":" ","HOUSE_NO":"１４號五樓","E_COORD97":175895.67999999999,"N_COORD97":2546505.54,"ADDRESS":"廣興街２６巷１４號五樓","OBJECTID":265221},"geometry":{"x":175895.6799999997,"y":2546505.540000001}},{"attributes":{"ID":265226,"DIS_CODE":0,"TOWNNAME":"永康區","LI":"西勢里","LIN":"24鄰","STREET":"廣興街","SECT":" ","MAREA":" ","LANE":"２６巷","ALLEY":" ","HOUSE_NO":"１４號二樓","E_COORD97":175895.67999999999,"N_COORD97":2546505.54,"ADDRESS":"廣興街２６巷１４號二樓","OBJECTID":265222},"geometry":{"x":175895.6799999997,"y":2546505.540000001}},{"attributes":{"ID":265227,"DIS_CODE":0,"TOWNNAME":"永康區","LI":"西勢里","LIN":"24鄰","STREET":"廣興街","SECT":" ","MAREA":" ","LANE":"２６巷","ALLEY":" ","HOUSE_NO":"２０號二樓","E_COORD97":175916.14000000001,"N_COORD97":2546483.4100000001,"ADDRESS":"廣興街２６巷２０號二樓","OBJECTID":265223},"geometry":{"x":175916.13999999966,"y":2546483.410000002}},{"attributes":{"ID":265228,"DIS_CODE":0,"TOWNNAME":"安南區","LI":"海東里","LIN":"24鄰","STREET":"同安路","SECT":" ","MAREA":" ","LANE":"２２５巷","ALLEY":" ","HOUSE_NO":"３７號四樓","E_COORD97":167107.10000000001,"N_COORD97":2549195.9100000001,"ADDRESS":"同安路２２５巷３７號四樓","OBJECTID":265224},"geometry":{"x":167107.10000000149,"y":2549195.910000002}},{"attributes":{"ID":265229,"DIS_CODE":0,"TOWNNAME":"安南區","LI":"海東里","LIN":"24鄰","STREET":"同安路","SECT":" ","MAREA":" ","LANE":"２２５巷","ALLEY":" ","HOUSE_NO":"３７號五樓","E_COORD97":167107.10000000001,"N_COORD97":2549195.9100000001,"ADDRESS":"同安路２２５巷３７號五樓","OBJECTID":265225},"geometry":{"x":167107.10000000149,"y":2549195.910000002}},{"attributes":{"ID":265230,"DIS_CODE":0,"TOWNNAME":"安南區","LI":"海東里","LIN":"24鄰","STREET":"同安路","SECT":" ","MAREA":" ","LANE":"２２５巷","ALLEY":" ","HOUSE_NO":"３７號六樓","E_COORD97":167107.10000000001,"N_COORD97":2549195.9100000001,"ADDRESS":"同安路２２５巷３７號六樓","OBJECTID":265226},"geometry":{"x":167107.10000000149,"y":2549195.910000002}},{"attributes":{"ID":265231,"DIS_CODE":0,"TOWNNAME":"安南區","LI":"海東里","LIN":"24鄰","STREET":"同安路","SECT":" ","MAREA":" ","LANE":"２２５巷","ALLEY":" ","HOUSE_NO":"３７號七樓","E_COORD97":167107.10000000001,"N_COORD97":2549195.9100000001,"ADDRESS":"同安路２２５巷３７號七樓","OBJECTID":265227},"geometry":{"x":167107.10000000149,"y":2549195.910000002}},{"attributes":{"ID":265232,"DIS_CODE":0,"TOWNNAME":"安南區","LI":"海東里","LIN":"24鄰","STREET":"同安路","SECT":" ","MAREA":" ","LANE":"２２５巷","ALLEY":" ","HOUSE_NO":"３７號八樓","E_COORD97":167107.10000000001,"N_COORD97":2549195.9100000001,"ADDRESS":"同安路２２５巷３７號八樓","OBJECTID":265228},"geometry":{"x":167107.10000000149,"y":2549195.910000002}},{"attributes":{"ID":265233,"DIS_CODE":0,"TOWNNAME":"安南區","LI":"海東里","LIN":"24鄰","STREET":"同安路","SECT":" ","MAREA":" ","LANE":"２２５巷","ALLEY":" ","HOUSE_NO":"３９號二樓","E_COORD97":167103.81,"N_COORD97":2549198.6899999999,"ADDRESS":"同安路２２５巷３９號二樓","OBJECTID":265229},"geometry":{"x":167103.81000000145,"y":2549198.6899999995}},{"attributes":{"ID":265234,"DIS_CODE":0,"TOWNNAME":"安南區","LI":"海東里","LIN":"24鄰","STREET":"同安路","SECT":" ","MAREA":" ","LANE":"２２５巷","ALLEY":" ","HOUSE_NO":"３９號三樓","E_COORD97":167103.81,"N_COORD97":2549198.6899999999,"ADDRESS":"同安路２２５巷３９號三樓","OBJECTID":265230},"geometry":{"x":167103.81000000145,"y":2549198.6899999995}},{"attributes":{"ID":265235,"DIS_CODE":0,"TOWNNAME":"安南區","LI":"海東里","LIN":"24鄰","STREET":"同安路","SECT":" ","MAREA":" ","LANE":"２２５巷","ALLEY":" ","HOUSE_NO":"３９號四樓","E_COORD97":167103.81,"N_COORD97":2549198.6899999999,"ADDRESS":"同安路２２５巷３９號四樓","OBJECTID":265231},"geometry":{"x":167103.81000000145,"y":2549198.6899999995}},{"attributes":{"ID":265236,"DIS_CODE":0,"TOWNNAME":"永康區","LI":"大灣里","LIN":"22鄰","STREET":"中灣五街","SECT":" ","MAREA":" ","LANE":" ","ALLEY":" ","HOUSE_NO":"７號","E_COORD97":175056.91,"N_COORD97":2545208.3700000001,"ADDRESS":"中灣五街７號","OBJECTID":265232},"geometry":{"x":175056.91000000015,"y":2545208.370000001}},{"attributes":{"ID":265237,"DIS_CODE":0,"TOWNNAME":"永康區","LI":"大灣里","LIN":"22鄰","STREET":"中灣五街","SECT":" ","MAREA":" ","LANE":" ","ALLEY":" ","HOUSE_NO":"３號","E_COORD97":175050.14999999999,"N_COORD97":2545203.1200000001,"ADDRESS":"中灣五街３號","OBJECTID":265233},"geometry":{"x":175050.1500000013,"y":2545203.120000001}},{"attributes":{"ID":265238,"DIS_CODE":0,"TOWNNAME":"永康區","LI":"中興里","LIN":"22鄰","STREET":"中華路","SECT":" ","MAREA":" ","LANE":" ","ALLEY":" ","HOUSE_NO":"１９６號之３","E_COORD97":171633.35999999999,"N_COORD97":2544991.2999999998,"ADDRESS":"中華路１９６號之３","OBJECTID":265234},"geometry":{"x":171633.36000000034,"y":2544991.3000000007}},{"attributes":{"ID":265239,"DIS_CODE":0,"TOWNNAME":"永康區","LI":"大橋里","LIN":"22鄰","STREET":"大橋一街","SECT":" ","MAREA":" ","LANE":" ","ALLEY":" ","HOUSE_NO":"１５９號","E_COORD97":171087.12,"N_COORD97":2546531.5,"ADDRESS":"大橋一街１５９號","OBJECTID":265235},"geometry":{"x":171087.12000000011,"y":2546531.5}},{"attributes":{"ID":265240,"DIS_CODE":0,"TOWNNAME":"永康區","LI":"大灣里","LIN":"22鄰","STREET":"民族路","SECT":" ","MAREA":" ","LANE":" ","ALLEY":" ","HOUSE_NO":"２９８號","E_COORD97":174975.01999999999,"N_COORD97":2545251.7400000002,"ADDRESS":"民族路２９８號","OBJECTID":265236},"geometry":{"x":174975.02000000048,"y":2545251.7400000021}},{"attributes":{"ID":265241,"DIS_CODE":0,"TOWNNAME":"永康區","LI":"大灣里","LIN":"22鄰","STREET":"大灣路","SECT":" ","MAREA":" ","LANE":" ","ALLEY":" ","HOUSE_NO":"２２７號","E_COORD97":174958.06,"N_COORD97":2545283.0299999998,"ADDRESS":"大灣路２２７號","OBJECTID":265237},"geometry":{"x":174958.06000000052,"y":2545283.0299999993}},{"attributes":{"ID":265242,"DIS_CODE":0,"TOWNNAME":"永康區","LI":"大灣里","LIN":"22鄰","STREET":"民族路","SECT":" ","MAREA":" ","LANE":" ","ALLEY":" ","HOUSE_NO":"３０４號","E_COORD97":174967.79000000001,"N_COORD97":2545262.48,"ADDRESS":"民族路３０４號","OBJECTID":265238},"geometry":{"x":174967.79000000004,"y":2545262.4800000042}},{"attributes":{"ID":265243,"DIS_CODE":0,"TOWNNAME":"安南區","LI":"海東里","LIN":"24鄰","STREET":"同安路","SECT":" ","MAREA":" ","LANE":"２２５巷","ALLEY":" ","HOUSE_NO":"３９號五樓","E_COORD97":167103.81,"N_COORD97":2549198.6899999999,"ADDRESS":"同安路２２５巷３９號五樓","OBJECTID":265239},"geometry":{"x":167103.81000000145,"y":2549198.6899999995}},{"attributes":{"ID":265244,"DIS_CODE":0,"TOWNNAME":"永康區","LI":"安康里","LIN":"24鄰","STREET":"中華路","SECT":" ","MAREA":" ","LANE":"７０３巷","ALLEY":" ","HOUSE_NO":"６０號三樓","E_COORD97":170751.22,"N_COORD97":2546259,"ADDRESS":"中華路７０３巷６０號三樓","OBJECTID":265240},"geometry":{"x":170751.22000000067,"y":2546259.0000000019}},{"attributes":{"ID":265245,"DIS_CODE":0,"TOWNNAME":"永康區","LI":"復華里","LIN":"24鄰","STREET":"復華八街","SECT":" ","MAREA":" ","LANE":"５８巷","ALLEY":" ","HOUSE_NO":"１２號","E_COORD97":172783.01999999999,"N_COORD97":2546302.2599999998,"ADDRESS":"復華八街５８巷１２號","OBJECTID":265241},"geometry":{"x":172783.02000000142,"y":2546302.2600000016}},{"attributes":{"ID":265246,"DIS_CODE":0,"TOWNNAME":"永康區","LI":"安康里","LIN":"24鄰","STREET":"中華路","SECT":" ","MAREA":" ","LANE":"７０３巷","ALLEY":" ","HOUSE_NO":"６４號六樓之１","E_COORD97":170755.38,"N_COORD97":2546246.7999999998,"ADDRESS":"中華路７０３巷６４號六樓之１","OBJECTID":265242},"geometry":{"x":170755.38000000082,"y":2546246.8000000007}},{"attributes":{"ID":265247,"DIS_CODE":0,"TOWNNAME":"永康區","LI":"西勢里","LIN":"24鄰","STREET":"廣興街","SECT":" ","MAREA":" ","LANE":"２６巷","ALLEY":" ","HOUSE_NO":"２０號三樓","E_COORD97":175916.14000000001,"N_COORD97":2546483.4100000001,"ADDRESS":"廣興街２６巷２０號三樓","OBJECTID":265243},"geometry":{"x":175916.13999999966,"y":2546483.410000002}},{"attributes":{"ID":265248,"DIS_CODE":0,"TOWNNAME":"永康區","LI":"西勢里","LIN":"24鄰","STREET":"廣興街","SECT":" ","MAREA":" ","LANE":"２６巷","ALLEY":" ","HOUSE_NO":"１６號二樓","E_COORD97":175902.79000000001,"N_COORD97":2546499.79,"ADDRESS":"廣興街２６巷１６號二樓","OBJECTID":265244},"geometry":{"x":175902.79000000097,"y":2546499.7900000028}},{"attributes":{"ID":265249,"DIS_CODE":0,"TOWNNAME":"永康區","LI":"安康里","LIN":"24鄰","STREET":"中華路","SECT":" ","MAREA":" ","LANE":"７０３巷","ALLEY":" ","HOUSE_NO":"６０號六樓","E_COORD97":170751.22,"N_COORD97":2546259,"ADDRESS":"中華路７０３巷６０號六樓","OBJECTID":265245},"geometry":{"x":170751.22000000067,"y":2546259.0000000019}},{"attributes":{"ID":265250,"DIS_CODE":0,"TOWNNAME":"永康區","LI":"大灣里","LIN":"22鄰","STREET":"民族路","SECT":" ","MAREA":" ","LANE":" ","ALLEY":" ","HOUSE_NO":"２６６號","E_COORD97":175017.19,"N_COORD97":2545198.8100000001,"ADDRESS":"民族路２６６號","OBJECTID":265246},"geometry":{"x":175017.19000000134,"y":2545198.8100000005}},{"attributes":{"ID":265251,"DIS_CODE":0,"TOWNNAME":"永康區","LI":"大灣里","LIN":"22鄰","STREET":"民族路","SECT":" ","MAREA":" ","LANE":" ","ALLEY":" ","HOUSE_NO":"２６４號","E_COORD97":175020.10000000001,"N_COORD97":2545195.25,"ADDRESS":"民族路２６４號","OBJECTID":265247},"geometry":{"x":175020.10000000149,"y":2545195.25}},{"attributes":{"ID":265252,"DIS_CODE":0,"TOWNNAME":"永康區","LI":"安康里","LIN":"24鄰","STREET":"中華路","SECT":" ","MAREA":" ","LANE":"７０３巷","ALLEY":" ","HOUSE_NO":"５４號二樓","E_COORD97":170763.04000000001,"N_COORD97":2546274.25,"ADDRESS":"中華路７０３巷５４號二樓","OBJECTID":265248},"geometry":{"x":170763.04000000097,"y":2546274.2500000019}},{"attributes":{"ID":265253,"DIS_CODE":0,"TOWNNAME":"永康區","LI":"西勢里","LIN":"24鄰","STREET":"廣興街","SECT":" ","MAREA":" ","LANE":"２６巷","ALLEY":" ","HOUSE_NO":"１６號五樓","E_COORD97":175902.79000000001,"N_COORD97":2546499.79,"ADDRESS":"廣興街２６巷１６號五樓","OBJECTID":265249},"geometry":{"x":175902.79000000097,"y":2546499.7900000028}},{"attributes":{"ID":265254,"DIS_CODE":0,"TOWNNAME":"永康區","LI":"西勢里","LIN":"24鄰","STREET":"廣興街","SECT":" ","MAREA":" ","LANE":"２６巷","ALLEY":" ","HOUSE_NO":"１６號四樓","E_COORD97":175902.79000000001,"N_COORD97":2546499.79,"ADDRESS":"廣興街２６巷１６號四樓","OBJECTID":265250},"geometry":{"x":175902.79000000097,"y":2546499.7900000028}},{"attributes":{"ID":265255,"DIS_CODE":0,"TOWNNAME":"永康區","LI":"安康里","LIN":"24鄰","STREET":"中華路","SECT":" ","MAREA":" ","LANE":"７０３巷","ALLEY":" ","HOUSE_NO":"６４號二樓之１","E_COORD97":170755.38,"N_COORD97":2546246.7999999998,"ADDRESS":"中華路７０３巷６４號二樓之１","OBJECTID":265251},"geometry":{"x":170755.38000000082,"y":2546246.8000000007}},{"attributes":{"ID":265256,"DIS_CODE":0,"TOWNNAME":"永康區","LI":"安康里","LIN":"24鄰","STREET":"中華路","SECT":" ","MAREA":" ","LANE":"７０３巷","ALLEY":" ","HOUSE_NO":"５８號四樓","E_COORD97":170746.48000000001,"N_COORD97":2546266.5,"ADDRESS":"中華路７０３巷５８號四樓","OBJECTID":265252},"geometry":{"x":170746.48000000231,"y":2546266.5000000019}},{"attributes":{"ID":265257,"DIS_CODE":0,"TOWNNAME":"永康區","LI":"西勢里","LIN":"24鄰","STREET":"廣興街","SECT":" ","MAREA":" ","LANE":"２６巷","ALLEY":" ","HOUSE_NO":"１８號四樓","E_COORD97":175910,"N_COORD97":2546490.29,"ADDRESS":"廣興街２６巷１８號四樓","OBJECTID":265253},"geometry":{"x":175910.00000000093,"y":2546490.290000001}},{"attributes":{"ID":265258,"DIS_CODE":0,"TOWNNAME":"東區","LI":"莊敬里","LIN":"24鄰","STREET":"東光路","SECT":"二段","MAREA":" ","LANE":"１１巷","ALLEY":" ","HOUSE_NO":"１０號五樓","E_COORD97":171158.29999999999,"N_COORD97":2544013.5699999998,"ADDRESS":"東光路二段１１巷１０號五樓","OBJECTID":265254},"geometry":{"x":171158.29999999981,"y":2544013.5700000003}},{"attributes":{"ID":265259,"DIS_CODE":0,"TOWNNAME":"永康區","LI":"大灣里","LIN":"22鄰","STREET":"民族路","SECT":" ","MAREA":" ","LANE":" ","ALLEY":" ","HOUSE_NO":"２６０號","E_COORD97":175027.85999999999,"N_COORD97":2545188.6400000001,"ADDRESS":"民族路２６０號","OBJECTID":265255},"geometry":{"x":175027.86000000127,"y":2545188.6400000006}},{"attributes":{"ID":265260,"DIS_CODE":0,"TOWNNAME":"中西區","LI":"西湖里","LIN":"22鄰","STREET":"湖美街","SECT":" ","MAREA":" ","LANE":" ","ALLEY":" ","HOUSE_NO":"３６號","E_COORD97":165956.23000000001,"N_COORD97":2544578.71,"ADDRESS":"湖美街３６號","OBJECTID":265256},"geometry":{"x":165956.23000000138,"y":2544578.7100000009}},{"attributes":{"ID":265261,"DIS_CODE":0,"TOWNNAME":"中西區","LI":"西湖里","LIN":"22鄰","STREET":"湖美街","SECT":" ","MAREA":" ","LANE":" ","ALLEY":" ","HOUSE_NO":"３８號","E_COORD97":165955.42999999999,"N_COORD97":2544585.1200000001,"ADDRESS":"湖美街３８號","OBJECTID":265257},"geometry":{"x":165955.43000000156,"y":2544585.1200000029}},{"attributes":{"ID":265262,"DIS_CODE":0,"TOWNNAME":"中西區","LI":"西湖里","LIN":"22鄰","STREET":"湖美街","SECT":" ","MAREA":" ","LANE":" ","ALLEY":" ","HOUSE_NO":"４０號","E_COORD97":165956.23000000001,"N_COORD97":2544591.7999999998,"ADDRESS":"湖美街４０號","OBJECTID":265258},"geometry":{"x":165956.23000000138,"y":2544591.8000000007}},{"attributes":{"ID":265263,"DIS_CODE":0,"TOWNNAME":"中西區","LI":"西湖里","LIN":"22鄰","STREET":"湖美街","SECT":" ","MAREA":" ","LANE":" ","ALLEY":" ","HOUSE_NO":"４２號","E_COORD97":165955.97,"N_COORD97":2544597.9399999999,"ADDRESS":"湖美街４２號","OBJECTID":265259},"geometry":{"x":165955.97000000067,"y":2544597.9400000013}},{"attributes":{"ID":265264,"DIS_CODE":0,"TOWNNAME":"中西區","LI":"西湖里","LIN":"22鄰","STREET":"湖美街","SECT":" ","MAREA":" ","LANE":" ","ALLEY":" ","HOUSE_NO":"４２號之１","E_COORD97":165957.04000000001,"N_COORD97":2544606.2200000002,"ADDRESS":"湖美街４２號之１","OBJECTID":265260},"geometry":{"x":165957.04000000097,"y":2544606.2200000007}},{"attributes":{"ID":265265,"DIS_CODE":0,"TOWNNAME":"善化區","LI":"光文里","LIN":"22鄰","STREET":"中山路","SECT":" ","MAREA":" ","LANE":" ","ALLEY":" ","HOUSE_NO":"７２號","E_COORD97":178727.14999999999,"N_COORD97":2559211.3999999999,"ADDRESS":"中山路７２號","OBJECTID":265261},"geometry":{"x":178727.15000000037,"y":2559211.4000000022}},{"attributes":{"ID":265266,"DIS_CODE":0,"TOWNNAME":"東區","LI":"莊敬里","LIN":"24鄰","STREET":"東光路","SECT":"二段","MAREA":" ","LANE":"１１巷","ALLEY":" ","HOUSE_NO":"１０號四樓","E_COORD97":171158.29999999999,"N_COORD97":2544013.5699999998,"ADDRESS":"東光路二段１１巷１０號四樓","OBJECTID":265262},"geometry":{"x":171158.29999999981,"y":2544013.5700000003}},{"attributes":{"ID":265267,"DIS_CODE":0,"TOWNNAME":"東區","LI":"莊敬里","LIN":"24鄰","STREET":"東光路","SECT":"二段","MAREA":" ","LANE":"１１巷","ALLEY":" ","HOUSE_NO":"２號四樓","E_COORD97":171180.82999999999,"N_COORD97":2544010.1099999999,"ADDRESS":"東光路二段１１巷２號四樓","OBJECTID":265263},"geometry":{"x":171180.83000000007,"y":2544010.1100000013}},{"attributes":{"ID":265268,"DIS_CODE":0,"TOWNNAME":"東區","LI":"莊敬里","LIN":"24鄰","STREET":"東光路","SECT":"二段","MAREA":" ","LANE":"１１巷","ALLEY":" ","HOUSE_NO":"４號三樓","E_COORD97":171175.16,"N_COORD97":2544010.9199999999,"ADDRESS":"東光路二段１１巷４號三樓","OBJECTID":265264},"geometry":{"x":171175.16000000015,"y":2544010.9199999981}},{"attributes":{"ID":265269,"DIS_CODE":0,"TOWNNAME":"東區","LI":"莊敬里","LIN":"24鄰","STREET":"東光路","SECT":"二段","MAREA":" ","LANE":"１１巷","ALLEY":" ","HOUSE_NO":"４號五樓","E_COORD97":171175.16,"N_COORD97":2544010.9199999999,"ADDRESS":"東光路二段１１巷４號五樓","OBJECTID":265265},"geometry":{"x":171175.16000000015,"y":2544010.9199999981}},{"attributes":{"ID":265270,"DIS_CODE":0,"TOWNNAME":"東區","LI":"莊敬里","LIN":"24鄰","STREET":"東光路","SECT":"二段","MAREA":" ","LANE":"１１巷","ALLEY":" ","HOUSE_NO":"４號四樓","E_COORD97":171175.16,"N_COORD97":2544010.9199999999,"ADDRESS":"東光路二段１１巷４號四樓","OBJECTID":265266},"geometry":{"x":171175.16000000015,"y":2544010.9199999981}},{"attributes":{"ID":265271,"DIS_CODE":0,"TOWNNAME":"永康區","LI":"復國里","LIN":"24鄰","STREET":"復華三街","SECT":" ","MAREA":" ","LANE":"９０巷","ALLEY":" ","HOUSE_NO":"１４號十三樓之５","E_COORD97":172649.16,"N_COORD97":2545581.7999999998,"ADDRESS":"復華三街９０巷１４號十三樓之５","OBJECTID":265267},"geometry":{"x":172649.16000000108,"y":2545581.8000000007}},{"attributes":{"ID":265272,"DIS_CODE":0,"TOWNNAME":"永康區","LI":"復國里","LIN":"24鄰","STREET":"復華三街","SECT":" ","MAREA":" ","LANE":"９０巷","ALLEY":" ","HOUSE_NO":"１２號七樓之１","E_COORD97":172642.64999999999,"N_COORD97":2545582.2999999998,"ADDRESS":"復華三街９０巷１２號七樓之１","OBJECTID":265268},"geometry":{"x":172642.6500000013,"y":2545582.3000000007}},{"attributes":{"ID":265273,"DIS_CODE":0,"TOWNNAME":"永康區","LI":"復國里","LIN":"24鄰","STREET":"復華三街","SECT":" ","MAREA":" ","LANE":"９０巷","ALLEY":" ","HOUSE_NO":"１２號十一樓之４","E_COORD97":172643.92000000001,"N_COORD97":2545582.2999999998,"ADDRESS":"復華三街９０巷１２號十一樓之４","OBJECTID":265269},"geometry":{"x":172643.92000000086,"y":2545582.3000000007}},{"attributes":{"ID":265274,"DIS_CODE":0,"TOWNNAME":"永康區","LI":"復國里","LIN":"24鄰","STREET":"復華三街","SECT":" ","MAREA":" ","LANE":"９０巷","ALLEY":" ","HOUSE_NO":"１４號十四樓之２","E_COORD97":172649.14000000001,"N_COORD97":2545581.7999999998,"ADDRESS":"復華三街９０巷１４號十四樓之２","OBJECTID":265270},"geometry":{"x":172649.1400000006,"y":2545581.8000000007}},{"attributes":{"ID":265275,"DIS_CODE":0,"TOWNNAME":"永康區","LI":"復國里","LIN":"24鄰","STREET":"復華三街","SECT":" ","MAREA":" ","LANE":"９０巷","ALLEY":" ","HOUSE_NO":"１２號十四樓之１","E_COORD97":172643.89999999999,"N_COORD97":2545582.2999999998,"ADDRESS":"復華三街９０巷１２號十四樓之１","OBJECTID":265271},"geometry":{"x":172643.90000000224,"y":2545582.3000000007}},{"attributes":{"ID":265276,"DIS_CODE":0,"TOWNNAME":"永康區","LI":"復國里","LIN":"24鄰","STREET":"復華三街","SECT":" ","MAREA":" ","LANE":"９０巷","ALLEY":" ","HOUSE_NO":"１２號十六樓之４","E_COORD97":172643.92000000001,"N_COORD97":2545582.2999999998,"ADDRESS":"復華三街９０巷１２號十六樓之４","OBJECTID":265272},"geometry":{"x":172643.92000000086,"y":2545582.3000000007}},{"attributes":{"ID":265277,"DIS_CODE":0,"TOWNNAME":"永康區","LI":"網寮里","LIN":"24鄰","STREET":"永大一路","SECT":" ","MAREA":" ","LANE":"１６０巷","ALLEY":" ","HOUSE_NO":"６號","E_COORD97":173862.39999999999,"N_COORD97":2546401.4900000002,"ADDRESS":"永大一路１６０巷６號","OBJECTID":265273},"geometry":{"x":173862.40000000037,"y":2546401.4900000021}},{"attributes":{"ID":265278,"DIS_CODE":0,"TOWNNAME":"永康區","LI":"復國里","LIN":"24鄰","STREET":"復華三街","SECT":" ","MAREA":" ","LANE":"９０巷","ALLEY":" ","HOUSE_NO":"１２號十四樓之４","E_COORD97":172643.92000000001,"N_COORD97":2545582.2999999998,"ADDRESS":"復華三街９０巷１２號十四樓之４","OBJECTID":265274},"geometry":{"x":172643.92000000086,"y":2545582.3000000007}},{"attributes":{"ID":265279,"DIS_CODE":0,"TOWNNAME":"永康區","LI":"復國里","LIN":"24鄰","STREET":"復華三街","SECT":" ","MAREA":" ","LANE":"９０巷","ALLEY":" ","HOUSE_NO":"１２號十四樓之５","E_COORD97":172644.04999999999,"N_COORD97":2545582.2999999998,"ADDRESS":"復華三街９０巷１２號十四樓之５","OBJECTID":265275},"geometry":{"x":172644.05000000168,"y":2545582.3000000007}},{"attributes":{"ID":265280,"DIS_CODE":0,"TOWNNAME":"永康區","LI":"復華里","LIN":"24鄰","STREET":"復華八街","SECT":" ","MAREA":" ","LANE":"５６巷","ALLEY":" ","HOUSE_NO":"２６號","E_COORD97":172802.32000000001,"N_COORD97":2546259.6499999999,"ADDRESS":"復華八街５６巷２６號","OBJECTID":265276},"geometry":{"x":172802.32000000123,"y":2546259.6500000004}},{"attributes":{"ID":265281,"DIS_CODE":0,"TOWNNAME":"永康區","LI":"三合里","LIN":"24鄰","STREET":"南工街","SECT":" ","MAREA":" ","LANE":"３１１巷","ALLEY":" ","HOUSE_NO":"５５號","E_COORD97":171801.16,"N_COORD97":2545888.25,"ADDRESS":"南工街３１１巷５５號","OBJECTID":265277},"geometry":{"x":171801.16000000201,"y":2545888.2500000019}},{"attributes":{"ID":265282,"DIS_CODE":0,"TOWNNAME":"永康區","LI":"三合里","LIN":"24鄰","STREET":"南工街","SECT":" ","MAREA":" ","LANE":"３１１巷","ALLEY":" ","HOUSE_NO":"４７號","E_COORD97":171804.70999999999,"N_COORD97":2545917.1800000002,"ADDRESS":"南工街３１１巷４７號","OBJECTID":265278},"geometry":{"x":171804.71000000089,"y":2545917.1799999997}},{"attributes":{"ID":265283,"DIS_CODE":0,"TOWNNAME":"永康區","LI":"大橋里","LIN":"24鄰","STREET":"大橋一街","SECT":" ","MAREA":" ","LANE":"２４７巷","ALLEY":" ","HOUSE_NO":"４９號","E_COORD97":171217.04999999999,"N_COORD97":2546767.3100000001,"ADDRESS":"大橋一街２４７巷４９號","OBJECTID":265279},"geometry":{"x":171217.05000000075,"y":2546767.3100000005}},{"attributes":{"ID":265284,"DIS_CODE":0,"TOWNNAME":"永康區","LI":"三合里","LIN":"24鄰","STREET":"南工街","SECT":" ","MAREA":" ","LANE":"２６７巷","ALLEY":" ","HOUSE_NO":"６６號","E_COORD97":171843.26999999999,"N_COORD97":2545837.7400000002,"ADDRESS":"南工街２６７巷６６號","OBJECTID":265280},"geometry":{"x":171843.26999999955,"y":2545837.7400000021}},{"attributes":{"ID":265285,"DIS_CODE":0,"TOWNNAME":"東區","LI":"莊敬里","LIN":"24鄰","STREET":"東光路","SECT":"二段","MAREA":" ","LANE":"１１巷","ALLEY":" ","HOUSE_NO":"１號","E_COORD97":171183.85999999999,"N_COORD97":2543998.1800000002,"ADDRESS":"東光路二段１１巷１號","OBJECTID":265281},"geometry":{"x":171183.86000000034,"y":2543998.1799999997}},{"attributes":{"ID":265286,"DIS_CODE":0,"TOWNNAME":"善化區","LI":"光文里","LIN":"22鄰","STREET":"中山路","SECT":" ","MAREA":" ","LANE":" ","ALLEY":" ","HOUSE_NO":"７６號","E_COORD97":178722.38,"N_COORD97":2559210.8100000001,"ADDRESS":"中山路７６號","OBJECTID":265282},"geometry":{"x":178722.37999999896,"y":2559210.8100000005}},{"attributes":{"ID":265287,"DIS_CODE":0,"TOWNNAME":"東區","LI":"莊敬里","LIN":"24鄰","STREET":"東光路","SECT":"二段","MAREA":" ","LANE":"１１巷","ALLEY":" ","HOUSE_NO":"１１號","E_COORD97":171167.14999999999,"N_COORD97":2544000.2400000002,"ADDRESS":"東光路二段１１巷１１號","OBJECTID":265283},"geometry":{"x":171167.15000000037,"y":2544000.2400000021}},{"attributes":{"ID":265288,"DIS_CODE":0,"TOWNNAME":"永康區","LI":"三合里","LIN":"24鄰","STREET":"南工街","SECT":" ","MAREA":" ","LANE":"３１１巷","ALLEY":" ","HOUSE_NO":"４５號","E_COORD97":171809.82999999999,"N_COORD97":2545918.1800000002,"ADDRESS":"南工街３１１巷４５號","OBJECTID":265284},"geometry":{"x":171809.83000000007,"y":2545918.1800000034}},{"attributes":{"ID":265289,"DIS_CODE":0,"TOWNNAME":"永康區","LI":"三合里","LIN":"24鄰","STREET":"南工街","SECT":" ","MAREA":" ","LANE":"３１１巷","ALLEY":" ","HOUSE_NO":"７１號","E_COORD97":171798.20999999999,"N_COORD97":2545836.2400000002,"ADDRESS":"南工街３１１巷７１號","OBJECTID":265285},"geometry":{"x":171798.20999999996,"y":2545836.2400000002}},{"attributes":{"ID":265290,"DIS_CODE":0,"TOWNNAME":"新營區","LI":"王公里","LIN":"30鄰","STREET":"民族路","SECT":" ","MAREA":" ","LANE":"２６８巷","ALLEY":" ","HOUSE_NO":"２０號","E_COORD97":180454.54999999999,"N_COORD97":2579548.4500000002,"ADDRESS":"民族路２６８巷２０號","OBJECTID":265286},"geometry":{"x":180454.55000000075,"y":2579548.450000003}},{"attributes":{"ID":265291,"DIS_CODE":0,"TOWNNAME":"新營區","LI":"民生里","LIN":"25鄰","STREET":"民生路","SECT":" ","MAREA":" ","LANE":"１６３巷","ALLEY":" ","HOUSE_NO":"５號","E_COORD97":179188.89999999999,"N_COORD97":2578655.2000000002,"ADDRESS":"民生路１６３巷５號","OBJECTID":265287},"geometry":{"x":179188.89999999944,"y":2578655.2000000011}},{"attributes":{"ID":265292,"DIS_CODE":0,"TOWNNAME":"東區","LI":"崇善里","LIN":"24鄰","STREET":"崇善十二街","SECT":" ","MAREA":" ","LANE":"６巷","ALLEY":" ","HOUSE_NO":"１１號","E_COORD97":171235.63,"N_COORD97":2541048.96,"ADDRESS":"崇善十二街６巷１１號","OBJECTID":265288},"geometry":{"x":171235.63000000082,"y":2541048.9600000046}},{"attributes":{"ID":265293,"DIS_CODE":0,"TOWNNAME":"新市區","LI":"新和里","LIN":"24鄰","STREET":"永福街","SECT":" ","MAREA":" ","LANE":"９０巷","ALLEY":" ","HOUSE_NO":"４號","E_COORD97":177555.51000000001,"N_COORD97":2552757.25,"ADDRESS":"永福街９０巷４號","OBJECTID":265289},"geometry":{"x":177555.51000000071,"y":2552757.2500000019}},{"attributes":{"ID":265294,"DIS_CODE":0,"TOWNNAME":"永康區","LI":"三合里","LIN":"24鄰","STREET":"南工街","SECT":" ","MAREA":" ","LANE":"３１１巷","ALLEY":" ","HOUSE_NO":"７９號","E_COORD97":171795.48999999999,"N_COORD97":2545806.75,"ADDRESS":"南工街３１１巷７９號","OBJECTID":265290},"geometry":{"x":171795.49000000209,"y":2545806.7500000019}},{"attributes":{"ID":265295,"DIS_CODE":0,"TOWNNAME":"永康區","LI":"三合里","LIN":"24鄰","STREET":"南工街","SECT":" ","MAREA":" ","LANE":"３１１巷","ALLEY":" ","HOUSE_NO":"８１號","E_COORD97":171803.56,"N_COORD97":2545800.75,"ADDRESS":"南工街３１１巷８１號","OBJECTID":265291},"geometry":{"x":171803.56000000052,"y":2545800.7500000019}},{"attributes":{"ID":265296,"DIS_CODE":0,"TOWNNAME":"南區","LI":"佛壇里","LIN":"18鄰","STREET":"灣裡路","SECT":" ","MAREA":" ","LANE":" ","ALLEY":" ","HOUSE_NO":"６０２之１號","E_COORD97":166221.13,"N_COORD97":2535590.98,"ADDRESS":"灣裡路６０２之１號","OBJECTID":265292},"geometry":{"x":166221.13000000082,"y":2535590.9800000023}},{"attributes":{"ID":265297,"DIS_CODE":0,"TOWNNAME":"南區","LI":"文南里","LIN":"13鄰","STREET":"育南街","SECT":" ","MAREA":" ","LANE":" ","ALLEY":" ","HOUSE_NO":"８號","E_COORD97":166870.31,"N_COORD97":2542576.46,"ADDRESS":"育南街８號","OBJECTID":265293},"geometry":{"x":166870.31000000052,"y":2542576.4600000009}},{"attributes":{"ID":265298,"DIS_CODE":0,"TOWNNAME":"永康區","LI":"大灣里","LIN":"24鄰","STREET":"民族路","SECT":" ","MAREA":" ","LANE":"３４５巷","ALLEY":" ","HOUSE_NO":"１３號","E_COORD97":174958.97,"N_COORD97":2545178.2599999998,"ADDRESS":"民族路３４５巷１３號","OBJECTID":265294},"geometry":{"x":174958.97000000067,"y":2545178.2600000035}},{"attributes":{"ID":265299,"DIS_CODE":0,"TOWNNAME":"永康區","LI":"三合里","LIN":"24鄰","STREET":"南工街","SECT":" ","MAREA":" ","LANE":"３１１巷","ALLEY":" ","HOUSE_NO":"５３號","E_COORD97":171801.41,"N_COORD97":2545892.25,"ADDRESS":"南工街３１１巷５３號","OBJECTID":265295},"geometry":{"x":171801.41000000108,"y":2545892.2500000019}},{"attributes":{"ID":265300,"DIS_CODE":0,"TOWNNAME":"永康區","LI":"三合里","LIN":"24鄰","STREET":"南工街","SECT":" ","MAREA":" ","LANE":"２６７巷","ALLEY":" ","HOUSE_NO":"７０號","E_COORD97":171853.70999999999,"N_COORD97":2545837.4900000002,"ADDRESS":"南工街２６７巷７０號","OBJECTID":265296},"geometry":{"x":171853.71000000089,"y":2545837.4900000002}},{"attributes":{"ID":265301,"DIS_CODE":0,"TOWNNAME":"安南區","LI":"安東里","LIN":"1鄰","STREET":"安和路","SECT":"一段","MAREA":" ","LANE":" ","ALLEY":" ","HOUSE_NO":"３６４號","E_COORD97":169301.722653,"N_COORD97":2548206.0175999999,"ADDRESS":"安和路一段３６４號","OBJECTID":265297},"geometry":{"x":169301.72265299968,"y":2548206.0176030006}},{"attributes":{"ID":265302,"DIS_CODE":0,"TOWNNAME":"新營區","LI":"南興里","LIN":"20鄰","STREET":"建業路","SECT":" ","MAREA":" ","LANE":"７８巷","ALLEY":" ","HOUSE_NO":"１２號","E_COORD97":179340.26000000001,"N_COORD97":2577534.8399999999,"ADDRESS":"建業路７８巷１２號","OBJECTID":265298},"geometry":{"x":179340.26000000164,"y":2577534.8399999999}},{"attributes":{"ID":265303,"DIS_CODE":0,"TOWNNAME":"永康區","LI":"三合里","LIN":"24鄰","STREET":"南工街","SECT":" ","MAREA":" ","LANE":"２６７巷","ALLEY":" ","HOUSE_NO":"７４號","E_COORD97":171865.70999999999,"N_COORD97":2545830.75,"ADDRESS":"南工街２６７巷７４號","OBJECTID":265299},"geometry":{"x":171865.71000000089,"y":2545830.7500000019}},{"attributes":{"ID":265304,"DIS_CODE":0,"TOWNNAME":"永康區","LI":"大灣里","LIN":"24鄰","STREET":"民族路","SECT":" ","MAREA":" ","LANE":"３４５巷","ALLEY":" ","HOUSE_NO":"８號","E_COORD97":174974.12,"N_COORD97":2545167.2599999998,"ADDRESS":"民族路３４５巷８號","OBJECTID":265300},"geometry":{"x":174974.12000000011,"y":2545167.2599999998}},{"attributes":{"ID":265305,"DIS_CODE":0,"TOWNNAME":"永康區","LI":"三合里","LIN":"24鄰","STREET":"南工街","SECT":" ","MAREA":" ","LANE":"３１１巷","ALLEY":" ","HOUSE_NO":"５１號","E_COORD97":171801.76000000001,"N_COORD97":2545896.5,"ADDRESS":"南工街３１１巷５１號","OBJECTID":265301},"geometry":{"x":171801.76000000164,"y":2545896.5000000019}},{"attributes":{"ID":265306,"DIS_CODE":0,"TOWNNAME":"永康區","LI":"三合里","LIN":"24鄰","STREET":"南工街","SECT":" ","MAREA":" ","LANE":"２６７巷","ALLEY":" ","HOUSE_NO":"４６號","E_COORD97":171850.60999999999,"N_COORD97":2545843.7400000002,"ADDRESS":"南工街２６７巷４６號","OBJECTID":265302},"geometry":{"x":171850.61000000034,"y":2545843.7400000039}},{"attributes":{"ID":265307,"DIS_CODE":0,"TOWNNAME":"永康區","LI":"三合里","LIN":"24鄰","STREET":"南工街","SECT":" ","MAREA":" ","LANE":"３１１巷","ALLEY":" ","HOUSE_NO":"７７號","E_COORD97":171796.92000000001,"N_COORD97":2545823,"ADDRESS":"南工街３１１巷７７號","OBJECTID":265303},"geometry":{"x":171796.91999999993,"y":2545823}},{"attributes":{"ID":265308,"DIS_CODE":0,"TOWNNAME":"永康區","LI":"中興里","LIN":"24鄰","STREET":"中華路","SECT":" ","MAREA":" ","LANE":"２１６巷","ALLEY":" ","HOUSE_NO":"１６號","E_COORD97":171791.78,"N_COORD97":2545141.0899999999,"ADDRESS":"中華路２１６巷１６號","OBJECTID":265304},"geometry":{"x":171791.78000000026,"y":2545141.0899999999}},{"attributes":{"ID":265309,"DIS_CODE":0,"TOWNNAME":"永康區","LI":"復華里","LIN":"24鄰","STREET":"復華八街","SECT":" ","MAREA":" ","LANE":"６０巷","ALLEY":" ","HOUSE_NO":"６號","E_COORD97":172781.60000000001,"N_COORD97":2546334.4399999999,"ADDRESS":"復華八街６０巷６號","OBJECTID":265305},"geometry":{"x":172781.60000000056,"y":2546334.4400000013}},{"attributes":{"ID":265310,"DIS_CODE":0,"TOWNNAME":"永康區","LI":"復華里","LIN":"24鄰","STREET":"復華八街","SECT":" ","MAREA":" ","LANE":"５８巷","ALLEY":" ","HOUSE_NO":"２４號","E_COORD97":172812.04000000001,"N_COORD97":2546301.5099999998,"ADDRESS":"復華八街５８巷２４號","OBJECTID":265306},"geometry":{"x":172812.03999999911,"y":2546301.5099999998}},{"attributes":{"ID":265311,"DIS_CODE":0,"TOWNNAME":"永康區","LI":"復華里","LIN":"24鄰","STREET":"復華八街","SECT":" ","MAREA":" ","LANE":"５８巷","ALLEY":" ","HOUSE_NO":"１０號","E_COORD97":172778.39000000001,"N_COORD97":2546302.2599999998,"ADDRESS":"復華八街５８巷１０號","OBJECTID":265307},"geometry":{"x":172778.38999999966,"y":2546302.2600000016}},{"attributes":{"ID":265312,"DIS_CODE":0,"TOWNNAME":"永康區","LI":"復華里","LIN":"24鄰","STREET":"復華八街","SECT":" ","MAREA":" ","LANE":"５８巷","ALLEY":" ","HOUSE_NO":"９號","E_COORD97":172789.48000000001,"N_COORD97":2546310.8500000001,"ADDRESS":"復華八街５８巷９號","OBJECTID":265308},"geometry":{"x":172789.48000000138,"y":2546310.8500000015}},{"attributes":{"ID":265313,"DIS_CODE":0,"TOWNNAME":"新營區","LI":"新北里","LIN":"14鄰","STREET":"南新街","SECT":" ","MAREA":" ","LANE":"１３巷","ALLEY":" ","HOUSE_NO":"６８號","E_COORD97":179251.20999999999,"N_COORD97":2578804.4100000001,"ADDRESS":"南新街１３巷６８號","OBJECTID":265309},"geometry":{"x":179251.21000000089,"y":2578804.410000002}},{"attributes":{"ID":265314,"DIS_CODE":0,"TOWNNAME":"新營區","LI":"護鎮里","LIN":"8鄰","STREET":"中正路","SECT":" ","MAREA":" ","LANE":"４３９巷","ALLEY":" ","HOUSE_NO":"１１１號","E_COORD97":179281.69,"N_COORD97":2580001.4300000002,"ADDRESS":"中正路４３９巷１１１號","OBJECTID":265310},"geometry":{"x":179281.69000000041,"y":2580001.4299999997}},{"attributes":{"ID":265315,"DIS_CODE":0,"TOWNNAME":"新營區","LI":"興業里","LIN":"18鄰","STREET":"公誠街","SECT":" ","MAREA":" ","LANE":"３巷","ALLEY":" ","HOUSE_NO":"１５號","E_COORD97":180428.66,"N_COORD97":2578189.73,"ADDRESS":"公誠街３巷１５號","OBJECTID":265311},"geometry":{"x":180428.66000000108,"y":2578189.7300000004}},{"attributes":{"ID":265316,"DIS_CODE":0,"TOWNNAME":"永康區","LI":"網寮里","LIN":"24鄰","STREET":"永大一路","SECT":" ","MAREA":" ","LANE":"１６０巷","ALLEY":" ","HOUSE_NO":"４號","E_COORD97":173864.07000000001,"N_COORD97":2546397.4900000002,"ADDRESS":"永大一路１６０巷４號","OBJECTID":265312},"geometry":{"x":173864.0700000003,"y":2546397.4900000002}},{"attributes":{"ID":265317,"DIS_CODE":0,"TOWNNAME":"永康區","LI":"復華里","LIN":"24鄰","STREET":"復華八街","SECT":" ","MAREA":" ","LANE":"５８巷","ALLEY":" ","HOUSE_NO":"１６號","E_COORD97":172792.23999999999,"N_COORD97":2546302.0099999998,"ADDRESS":"復華八街５８巷１６號","OBJECTID":265313},"geometry":{"x":172792.23999999929,"y":2546302.0099999979}},{"attributes":{"ID":265318,"DIS_CODE":0,"TOWNNAME":"永康區","LI":"埔園里","LIN":"34鄰","STREET":"龍中街","SECT":" ","MAREA":" ","LANE":" ","ALLEY":" ","HOUSE_NO":"６７９號","E_COORD97":174274.59,"N_COORD97":2548994.1200000001,"ADDRESS":"龍中街６７９號","OBJECTID":265314},"geometry":{"x":174274.59000000171,"y":2548994.120000001}},{"attributes":{"ID":265319,"DIS_CODE":0,"TOWNNAME":"永康區","LI":"復華里","LIN":"24鄰","STREET":"復華八街","SECT":" ","MAREA":" ","LANE":"５８巷","ALLEY":" ","HOUSE_NO":"１５號","E_COORD97":172805.81,"N_COORD97":2546311.3500000001,"ADDRESS":"復華八街５８巷１５號","OBJECTID":265315},"geometry":{"x":172805.80999999959,"y":2546311.3500000015}},{"attributes":{"ID":265320,"DIS_CODE":0,"TOWNNAME":"永康區","LI":"勝利里","LIN":"24鄰","STREET":"勝利街","SECT":" ","MAREA":" ","LANE":"９０巷","ALLEY":" ","HOUSE_NO":"１５號","E_COORD97":171394.79999999999,"N_COORD97":2544754.2599999998,"ADDRESS":"勝利街９０巷１５號","OBJECTID":265316},"geometry":{"x":171394.80000000075,"y":2544754.2599999998}},{"attributes":{"ID":265321,"DIS_CODE":0,"TOWNNAME":"安南區","LI":"州北里","LIN":"24鄰","STREET":"安和路","SECT":"五段","MAREA":" ","LANE":"８４巷","ALLEY":" ","HOUSE_NO":"４０號","E_COORD97":170043.70000000001,"N_COORD97":2551712.4900000002,"ADDRESS":"安和路五段８４巷４０號","OBJECTID":265317},"geometry":{"x":170043.70000000112,"y":2551712.4900000002}},{"attributes":{"ID":265322,"DIS_CODE":0,"TOWNNAME":"安南區","LI":"州北里","LIN":"24鄰","STREET":"安和路","SECT":"五段","MAREA":" ","LANE":"８４巷","ALLEY":" ","HOUSE_NO":"４２號","E_COORD97":170043.70000000001,"N_COORD97":2551716.3900000001,"ADDRESS":"安和路五段８４巷４２號","OBJECTID":265318},"geometry":{"x":170043.70000000112,"y":2551716.3900000025}},{"attributes":{"ID":265323,"DIS_CODE":0,"TOWNNAME":"安南區","LI":"州北里","LIN":"24鄰","STREET":"安和路","SECT":"五段","MAREA":" ","LANE":"８４巷","ALLEY":" ","HOUSE_NO":"４６號","E_COORD97":170043.31,"N_COORD97":2551724.9900000002,"ADDRESS":"安和路五段８４巷４６號","OBJECTID":265319},"geometry":{"x":170043.31000000145,"y":2551724.9900000021}},{"attributes":{"ID":265324,"DIS_CODE":0,"TOWNNAME":"安南區","LI":"州北里","LIN":"24鄰","STREET":"安和路","SECT":"五段","MAREA":" ","LANE":"８４巷","ALLEY":" ","HOUSE_NO":"４８號","E_COORD97":170042.92000000001,"N_COORD97":2551729.2799999998,"ADDRESS":"安和路五段８４巷４８號","OBJECTID":265320},"geometry":{"x":170042.92000000179,"y":2551729.2800000012}},{"attributes":{"ID":265325,"DIS_CODE":0,"TOWNNAME":"安南區","LI":"州北里","LIN":"24鄰","STREET":"安和路","SECT":"五段","MAREA":" ","LANE":"８４巷","ALLEY":" ","HOUSE_NO":"５０號","E_COORD97":170042.53,"N_COORD97":2551733.7799999998,"ADDRESS":"安和路五段８４巷５０號","OBJECTID":265321},"geometry":{"x":170042.53000000212,"y":2551733.7799999993}},{"attributes":{"ID":265326,"DIS_CODE":0,"TOWNNAME":"安南區","LI":"州北里","LIN":"24鄰","STREET":"安和路","SECT":"五段","MAREA":" ","LANE":"８４巷","ALLEY":" ","HOUSE_NO":"５２號","E_COORD97":170042.32999999999,"N_COORD97":2551738.2599999998,"ADDRESS":"安和路五段８４巷５２號","OBJECTID":265322},"geometry":{"x":170042.33000000101,"y":2551738.2599999998}},{"attributes":{"ID":265327,"DIS_CODE":0,"TOWNNAME":"安南區","LI":"州北里","LIN":"24鄰","STREET":"安和路","SECT":"五段","MAREA":" ","LANE":"８４巷","ALLEY":" ","HOUSE_NO":"６０號","E_COORD97":170043.12,"N_COORD97":2551757.6499999999,"ADDRESS":"安和路五段８４巷６０號","OBJECTID":265323},"geometry":{"x":170043.12000000011,"y":2551757.6500000022}},{"attributes":{"ID":265328,"DIS_CODE":0,"TOWNNAME":"安南區","LI":"州北里","LIN":"24鄰","STREET":"安和路","SECT":"五段","MAREA":" ","LANE":"８４巷","ALLEY":" ","HOUSE_NO":"６２號","E_COORD97":170042.92000000001,"N_COORD97":2551762.1499999999,"ADDRESS":"安和路五段８４巷６２號","OBJECTID":265324},"geometry":{"x":170042.92000000179,"y":2551762.1500000022}},{"attributes":{"ID":265329,"DIS_CODE":0,"TOWNNAME":"歸仁區","LI":"辜厝里","LIN":"53鄰","STREET":"民權南路","SECT":" ","MAREA":" ","LANE":"３３３巷","ALLEY":" ","HOUSE_NO":"１號","E_COORD97":176981.62,"N_COORD97":2540203.5899999999,"ADDRESS":"民權南路３３３巷１號","OBJECTID":265325},"geometry":{"x":176981.62000000011,"y":2540203.5900000017}},{"attributes":{"ID":265330,"DIS_CODE":0,"TOWNNAME":"佳里區","LI":"安西里","LIN":"53鄰","STREET":"佳安西路","SECT":" ","MAREA":" ","LANE":"７巷","ALLEY":" ","HOUSE_NO":"５號","E_COORD97":163567.53,"N_COORD97":2562227.1200000001,"ADDRESS":"佳安西路７巷５號","OBJECTID":265326},"geometry":{"x":163567.53000000119,"y":2562227.120000001}},{"attributes":{"ID":265331,"DIS_CODE":0,"TOWNNAME":"新營區","LI":"興業里","LIN":"13鄰","STREET":"中興路","SECT":" ","MAREA":" ","LANE":"１３巷","ALLEY":" ","HOUSE_NO":"１８號","E_COORD97":180218.92000000001,"N_COORD97":2577962.5800000001,"ADDRESS":"中興路１３巷１８號","OBJECTID":265327},"geometry":{"x":180218.91999999993,"y":2577962.5800000019}},{"attributes":{"ID":265332,"DIS_CODE":0,"TOWNNAME":"歸仁區","LI":"辜厝里","LIN":"53鄰","STREET":"民權南路","SECT":" ","MAREA":" ","LANE":"３１５巷","ALLEY":" ","HOUSE_NO":"８號","E_COORD97":176993.03,"N_COORD97":2540227.6600000001,"ADDRESS":"民權南路３１５巷８號","OBJECTID":265328},"geometry":{"x":176993.03000000119,"y":2540227.660000002}},{"attributes":{"ID":265333,"DIS_CODE":0,"TOWNNAME":"佳里區","LI":"安西里","LIN":"53鄰","STREET":"佳安西路","SECT":" ","MAREA":" ","LANE":"７巷","ALLEY":" ","HOUSE_NO":"１５號","E_COORD97":163590.12,"N_COORD97":2562227.3300000001,"ADDRESS":"佳安西路７巷１５號","OBJECTID":265329},"geometry":{"x":163590.12000000104,"y":2562227.3300000001}},{"attributes":{"ID":265334,"DIS_CODE":0,"TOWNNAME":"仁德區","LI":"仁義里","LIN":"53鄰","STREET":"仁義三街","SECT":" ","MAREA":" ","LANE":"３４巷","ALLEY":" ","HOUSE_NO":"１５號","E_COORD97":173461.97,"N_COORD97":2541097.2599999998,"ADDRESS":"仁義三街３４巷１５號","OBJECTID":265330},"geometry":{"x":173461.97000000067,"y":2541097.2600000016}},{"attributes":{"ID":265335,"DIS_CODE":0,"TOWNNAME":"仁德區","LI":"仁義里","LIN":"53鄰","STREET":"仁義三街","SECT":" ","MAREA":" ","LANE":"３４巷","ALLEY":" ","HOUSE_NO":"１３號","E_COORD97":173457.81,"N_COORD97":2541097.2599999998,"ADDRESS":"仁義三街３４巷１３號","OBJECTID":265331},"geometry":{"x":173457.81000000052,"y":2541097.2600000016}},{"attributes":{"ID":265336,"DIS_CODE":0,"TOWNNAME":"仁德區","LI":"仁義里","LIN":"53鄰","STREET":"仁義三街","SECT":" ","MAREA":" ","LANE":"３４巷","ALLEY":" ","HOUSE_NO":"２７號","E_COORD97":173513,"N_COORD97":2541097.2599999998,"ADDRESS":"仁義三街３４巷２７號","OBJECTID":265332},"geometry":{"x":173513.00000000093,"y":2541097.2600000016}},{"attributes":{"ID":265337,"DIS_CODE":0,"TOWNNAME":"仁德區","LI":"仁義里","LIN":"53鄰","STREET":"仁義三街","SECT":" ","MAREA":" ","LANE":"３４巷","ALLEY":" ","HOUSE_NO":"２３號","E_COORD97":173478.70999999999,"N_COORD97":2541097.7599999998,"ADDRESS":"仁義三街３４巷２３號","OBJECTID":265333},"geometry":{"x":173478.70999999903,"y":2541097.7600000016}},{"attributes":{"ID":265338,"DIS_CODE":0,"TOWNNAME":"中西區","LI":"開山里","LIN":"22鄰","STREET":"開山路","SECT":" ","MAREA":" ","LANE":" ","ALLEY":" ","HOUSE_NO":"２７７號","E_COORD97":169075.53,"N_COORD97":2542929.4500000002,"ADDRESS":"開山路２７７號","OBJECTID":265334},"geometry":{"x":169075.53000000026,"y":2542929.4500000011}},{"attributes":{"ID":265339,"DIS_CODE":0,"TOWNNAME":"新市區","LI":"新和里","LIN":"22鄰","STREET":" ","SECT":" ","MAREA":"社皮","LANE":" ","ALLEY":" ","HOUSE_NO":"１７號","E_COORD97":176899.45000000001,"N_COORD97":2552433.0499999998,"ADDRESS":"社皮１７號","OBJECTID":265335},"geometry":{"x":176899.45000000019,"y":2552433.0500000045}},{"attributes":{"ID":265340,"DIS_CODE":0,"TOWNNAME":"新市區","LI":"大社里","LIN":"22鄰","STREET":" ","SECT":" ","MAREA":"大社","LANE":" ","ALLEY":" ","HOUSE_NO":"８３６號","E_COORD97":179767.56,"N_COORD97":2554133,"ADDRESS":"大社８３６號","OBJECTID":265336},"geometry":{"x":179767.56000000052,"y":2554133}},{"attributes":{"ID":265341,"DIS_CODE":0,"TOWNNAME":"新市區","LI":"大營里","LIN":"22鄰","STREET":" ","SECT":" ","MAREA":"大營","LANE":" ","ALLEY":" ","HOUSE_NO":"１３５之３號","E_COORD97":179616.89999999999,"N_COORD97":2555107.5499999998,"ADDRESS":"大營１３５之３號","OBJECTID":265337},"geometry":{"x":179616.9000000013,"y":2555107.5500000007}},{"attributes":{"ID":265342,"DIS_CODE":0,"TOWNNAME":"北門區","LI":"玉港里","LIN":"22鄰","STREET":" ","SECT":" ","MAREA":"西埔內","LANE":" ","ALLEY":" ","HOUSE_NO":"７２之１號","E_COORD97":162008.87,"N_COORD97":2573782,"ADDRESS":"西埔內７２之１號","OBJECTID":265338},"geometry":{"x":162008.87000000104,"y":2573782.0000000019}},{"attributes":{"ID":265343,"DIS_CODE":0,"TOWNNAME":"北門區","LI":"玉港里","LIN":"22鄰","STREET":" ","SECT":" ","MAREA":"西埔內","LANE":" ","ALLEY":" ","HOUSE_NO":"７２號之１","E_COORD97":162008.87,"N_COORD97":2573782,"ADDRESS":"西埔內７２號之１","OBJECTID":265339},"geometry":{"x":162008.87000000104,"y":2573782.0000000019}},{"attributes":{"ID":265344,"DIS_CODE":0,"TOWNNAME":"北門區","LI":"玉港里","LIN":"22鄰","STREET":" ","SECT":" ","MAREA":"西埔內","LANE":" ","ALLEY":" ","HOUSE_NO":"７３號","E_COORD97":162002.14000000001,"N_COORD97":2573821.3500000001,"ADDRESS":"西埔內７３號","OBJECTID":265340},"geometry":{"x":162002.13999999966,"y":2573821.3499999996}},{"attributes":{"ID":265345,"DIS_CODE":0,"TOWNNAME":"新市區","LI":"港墘里","LIN":"22鄰","STREET":"華美街","SECT":" ","MAREA":" ","LANE":" ","ALLEY":" ","HOUSE_NO":"１１之１號","E_COORD97":178113.56,"N_COORD97":2552801.2999999998,"ADDRESS":"華美街１１之１號","OBJECTID":265341},"geometry":{"x":178113.55999999959,"y":2552801.3000000026}},{"attributes":{"ID":265346,"DIS_CODE":0,"TOWNNAME":"南區","LI":"文南里","LIN":"13鄰","STREET":"長南街","SECT":" ","MAREA":" ","LANE":" ","ALLEY":" ","HOUSE_NO":"５０號","E_COORD97":166923.07000000001,"N_COORD97":2542632.1699999999,"ADDRESS":"長南街５０號","OBJECTID":265342},"geometry":{"x":166923.07000000216,"y":2542632.1699999999}},{"attributes":{"ID":265347,"DIS_CODE":0,"TOWNNAME":"南區","LI":"建南里","LIN":"8鄰","STREET":"德興路","SECT":" ","MAREA":" ","LANE":" ","ALLEY":" ","HOUSE_NO":"１８８號","E_COORD97":167198.03,"N_COORD97":2540219.5699999998,"ADDRESS":"德興路１８８號","OBJECTID":265343},"geometry":{"x":167198.03000000212,"y":2540219.5700000003}},{"attributes":{"ID":265348,"DIS_CODE":0,"TOWNNAME":"南區","LI":"田寮里","LIN":"8鄰","STREET":"新興路","SECT":" ","MAREA":" ","LANE":" ","ALLEY":" ","HOUSE_NO":"１６５號","E_COORD97":167431.35999999999,"N_COORD97":2542016.2599999998,"ADDRESS":"新興路１６５號","OBJECTID":265344},"geometry":{"x":167431.3599999994,"y":2542016.2600000016}},{"attributes":{"ID":265349,"DIS_CODE":0,"TOWNNAME":"仁德區","LI":"仁義里","LIN":"53鄰","STREET":"仁義三街","SECT":" ","MAREA":" ","LANE":"３４巷","ALLEY":" ","HOUSE_NO":"９號","E_COORD97":173448.42000000001,"N_COORD97":2541097.0099999998,"ADDRESS":"仁義三街３４巷９號","OBJECTID":265345},"geometry":{"x":173448.41999999899,"y":2541097.0099999998}},{"attributes":{"ID":265350,"DIS_CODE":0,"TOWNNAME":"仁德區","LI":"仁義里","LIN":"53鄰","STREET":"仁義三街","SECT":" ","MAREA":" ","LANE":"３４巷","ALLEY":" ","HOUSE_NO":"７號","E_COORD97":173444.20999999999,"N_COORD97":2541096.5099999998,"ADDRESS":"仁義三街３４巷７號","OBJECTID":265346},"geometry":{"x":173444.20999999996,"y":2541096.5099999998}},{"attributes":{"ID":265351,"DIS_CODE":0,"TOWNNAME":"永康區","LI":"西灣里","LIN":"53鄰","STREET":"文化路","SECT":" ","MAREA":" ","LANE":"１９１巷","ALLEY":" ","HOUSE_NO":"３號","E_COORD97":173763.23000000001,"N_COORD97":2546155.02,"ADDRESS":"文化路１９１巷３號","OBJECTID":265347},"geometry":{"x":173763.23000000045,"y":2546155.0199999996}},{"attributes":{"ID":265352,"DIS_CODE":0,"TOWNNAME":"永康區","LI":"西灣里","LIN":"53鄰","STREET":"文化路","SECT":" ","MAREA":" ","LANE":"１０３巷","ALLEY":" ","HOUSE_NO":"５０號","E_COORD97":174095.72,"N_COORD97":2546202.5800000001,"ADDRESS":"文化路１０３巷５０號","OBJECTID":265348},"geometry":{"x":174095.72000000067,"y":2546202.5800000001}},{"attributes":{"ID":265353,"DIS_CODE":0,"TOWNNAME":"永康區","LI":"西灣里","LIN":"53鄰","STREET":"文化路","SECT":" ","MAREA":" ","LANE":"２３５巷","ALLEY":" ","HOUSE_NO":"５號","E_COORD97":173665.73000000001,"N_COORD97":2546092.3599999999,"ADDRESS":"文化路２３５巷５號","OBJECTID":265349},"geometry":{"x":173665.73000000231,"y":2546092.3599999994}},{"attributes":{"ID":265354,"DIS_CODE":0,"TOWNNAME":"永康區","LI":"西灣里","LIN":"53鄰","STREET":"文化路","SECT":" ","MAREA":" ","LANE":"１９１巷","ALLEY":" ","HOUSE_NO":"５號","E_COORD97":173764.42999999999,"N_COORD97":2546151.27,"ADDRESS":"文化路１９１巷５號","OBJECTID":265350},"geometry":{"x":173764.4299999997,"y":2546151.2700000033}},{"attributes":{"ID":265355,"DIS_CODE":0,"TOWNNAME":"永康區","LI":"西灣里","LIN":"53鄰","STREET":"文化路","SECT":" ","MAREA":" ","LANE":"１９１巷","ALLEY":" ","HOUSE_NO":"１１號","E_COORD97":173782.25,"N_COORD97":2546111.9399999999,"ADDRESS":"文化路１９１巷１１號","OBJECTID":265351},"geometry":{"x":173782.25000000093,"y":2546111.9399999995}},{"attributes":{"ID":265356,"DIS_CODE":0,"TOWNNAME":"北門區","LI":"玉港里","LIN":"22鄰","STREET":" ","SECT":" ","MAREA":"西埔內","LANE":" ","ALLEY":" ","HOUSE_NO":"７６號","E_COORD97":162014.38,"N_COORD97":2573864.7999999998,"ADDRESS":"西埔內７６號","OBJECTID":265352},"geometry":{"x":162014.37999999989,"y":2573864.8000000007}},{"attributes":{"ID":265357,"DIS_CODE":0,"TOWNNAME":"永康區","LI":"大灣里","LIN":"22鄰","STREET":"民族路","SECT":" ","MAREA":" ","LANE":" ","ALLEY":" ","HOUSE_NO":"２９０號","E_COORD97":174986.07000000001,"N_COORD97":2545238.7400000002,"ADDRESS":"民族路２９０號","OBJECTID":265353},"geometry":{"x":174986.07000000123,"y":2545238.7400000002}},{"attributes":{"ID":265358,"DIS_CODE":0,"TOWNNAME":"永康區","LI":"大灣里","LIN":"22鄰","STREET":"民族路","SECT":" ","MAREA":" ","LANE":" ","ALLEY":" ","HOUSE_NO":"２７４號","E_COORD97":175006.10000000001,"N_COORD97":2545211.3900000001,"ADDRESS":"民族路２７４號","OBJECTID":265354},"geometry":{"x":175006.09999999963,"y":2545211.3900000006}},{"attributes":{"ID":265359,"DIS_CODE":0,"TOWNNAME":"白河區","LI":"永安里","LIN":"3鄰","STREET":"康樂路","SECT":" ","MAREA":" ","LANE":" ","ALLEY":" ","HOUSE_NO":"６３號","E_COORD97":190081.48999999999,"N_COORD97":2583070.8199999998,"ADDRESS":"康樂路６３號","OBJECTID":265355},"geometry":{"x":190081.49000000209,"y":2583070.8200000022}},{"attributes":{"ID":265360,"DIS_CODE":0,"TOWNNAME":"安平區","LI":"文平里","LIN":"23鄰","STREET":"建平一街","SECT":" ","MAREA":" ","LANE":"２３巷","ALLEY":" ","HOUSE_NO":"５６號","E_COORD97":165990.89999999999,"N_COORD97":2542850.4300000002,"ADDRESS":"建平一街２３巷５６號","OBJECTID":265356},"geometry":{"x":165990.9000000013,"y":2542850.4299999997}},{"attributes":{"ID":265361,"DIS_CODE":0,"TOWNNAME":"安平區","LI":"文平里","LIN":"23鄰","STREET":"建平一街","SECT":" ","MAREA":" ","LANE":"２３巷","ALLEY":" ","HOUSE_NO":"５８號","E_COORD97":165985.82000000001,"N_COORD97":2542850.9100000001,"ADDRESS":"建平一街２３巷５８號","OBJECTID":265357},"geometry":{"x":165985.82000000123,"y":2542850.9100000001}},{"attributes":{"ID":265362,"DIS_CODE":0,"TOWNNAME":"東區","LI":"復興里","LIN":"23鄰","STREET":"自由路","SECT":"三段","MAREA":" ","LANE":"２１５巷","ALLEY":" ","HOUSE_NO":"７號","E_COORD97":171745.56,"N_COORD97":2542533.6299999999,"ADDRESS":"自由路三段２１５巷７號","OBJECTID":265358},"geometry":{"x":171745.56000000052,"y":2542533.6299999971}},{"attributes":{"ID":265363,"DIS_CODE":0,"TOWNNAME":"中西區","LI":"民權里","LIN":"13鄰","STREET":"海安路","SECT":" ","MAREA":" ","LANE":"３９３巷","ALLEY":" ","HOUSE_NO":"１１號之２","E_COORD97":167700.79000000001,"N_COORD97":2544267.0800000001,"ADDRESS":"海安路３９３巷１１號之２","OBJECTID":265359},"geometry":{"x":167700.79000000004,"y":2544267.0800000001}},{"attributes":{"ID":265364,"DIS_CODE":0,"TOWNNAME":"中西區","LI":"民權里","LIN":"13鄰","STREET":"海安路","SECT":" ","MAREA":" ","LANE":"３９３巷","ALLEY":" ","HOUSE_NO":"１９號","E_COORD97":167687.39000000001,"N_COORD97":2544286.3199999998,"ADDRESS":"海安路３９３巷１９號","OBJECTID":265360},"geometry":{"x":167687.38999999966,"y":2544286.3200000003}},{"attributes":{"ID":265365,"DIS_CODE":0,"TOWNNAME":"中西區","LI":"民權里","LIN":"13鄰","STREET":"海安路","SECT":" ","MAREA":" ","LANE":"３９３巷","ALLEY":" ","HOUSE_NO":"２１號","E_COORD97":167683.42000000001,"N_COORD97":2544290.2799999998,"ADDRESS":"海安路３９３巷２１號","OBJECTID":265361},"geometry":{"x":167683.42000000086,"y":2544290.2800000012}},{"attributes":{"ID":265366,"DIS_CODE":0,"TOWNNAME":"新市區","LI":"大營里","LIN":"22鄰","STREET":" ","SECT":" ","MAREA":"大營","LANE":" ","ALLEY":" ","HOUSE_NO":"１３５之１１號","E_COORD97":179595.32000000001,"N_COORD97":2555122.2999999998,"ADDRESS":"大營１３５之１１號","OBJECTID":265362},"geometry":{"x":179595.32000000123,"y":2555122.3000000007}},{"attributes":{"ID":265367,"DIS_CODE":0,"TOWNNAME":"新市區","LI":"大營里","LIN":"22鄰","STREET":" ","SECT":" ","MAREA":"大營","LANE":" ","ALLEY":" ","HOUSE_NO":"１３３之４７號","E_COORD97":179503.48000000001,"N_COORD97":2555083.2999999998,"ADDRESS":"大營１３３之４７號","OBJECTID":265363},"geometry":{"x":179503.48000000045,"y":2555083.3000000026}},{"attributes":{"ID":265368,"DIS_CODE":0,"TOWNNAME":"新市區","LI":"新和里","LIN":"22鄰","STREET":" ","SECT":" ","MAREA":"社皮","LANE":" ","ALLEY":" ","HOUSE_NO":"１８號","E_COORD97":176924.44,"N_COORD97":2552419.5499999998,"ADDRESS":"社皮１８號","OBJECTID":265364},"geometry":{"x":176924.44000000134,"y":2552419.5500000026}},{"attributes":{"ID":265369,"DIS_CODE":0,"TOWNNAME":"中西區","LI":"民權里","LIN":"13鄰","STREET":"海安路","SECT":" ","MAREA":" ","LANE":"３９３巷","ALLEY":" ","HOUSE_NO":"２５號","E_COORD97":167673.89000000001,"N_COORD97":2544292.1099999999,"ADDRESS":"海安路３９３巷２５號","OBJECTID":265365},"geometry":{"x":167673.88999999966,"y":2544292.1100000013}},{"attributes":{"ID":265370,"DIS_CODE":0,"TOWNNAME":"永康區","LI":"大灣里","LIN":"22鄰","STREET":"民族路","SECT":" ","MAREA":" ","LANE":" ","ALLEY":" ","HOUSE_NO":"２８４號","E_COORD97":174994.48000000001,"N_COORD97":2545229.2400000002,"ADDRESS":"民族路２８４號","OBJECTID":265366},"geometry":{"x":174994.48000000045,"y":2545229.2400000002}},{"attributes":{"ID":265371,"DIS_CODE":0,"TOWNNAME":"永康區","LI":"中興里","LIN":"22鄰","STREET":"中華路","SECT":" ","MAREA":" ","LANE":" ","ALLEY":" ","HOUSE_NO":"１９８號之２５","E_COORD97":171636.45000000001,"N_COORD97":2545003.2999999998,"ADDRESS":"中華路１９８號之２５","OBJECTID":265367},"geometry":{"x":171636.45000000205,"y":2545003.3000000026}},{"attributes":{"ID":265372,"DIS_CODE":0,"TOWNNAME":"永康區","LI":"中興里","LIN":"22鄰","STREET":"中華路","SECT":" ","MAREA":" ","LANE":" ","ALLEY":" ","HOUSE_NO":"１９８號之８","E_COORD97":171635.20000000001,"N_COORD97":2545003.2999999998,"ADDRESS":"中華路１９８號之８","OBJECTID":265368},"geometry":{"x":171635.20000000112,"y":2545003.3000000026}},{"attributes":{"ID":265373,"DIS_CODE":0,"TOWNNAME":"中西區","LI":"民權里","LIN":"13鄰","STREET":"海安路","SECT":" ","MAREA":" ","LANE":"３９３巷","ALLEY":" ","HOUSE_NO":"２９號","E_COORD97":167663.89999999999,"N_COORD97":2544296.2999999998,"ADDRESS":"海安路３９３巷２９號","OBJECTID":265369},"geometry":{"x":167663.9000000013,"y":2544296.3000000007}},{"attributes":{"ID":265374,"DIS_CODE":0,"TOWNNAME":"中西區","LI":"民權里","LIN":"13鄰","STREET":"海安路","SECT":" ","MAREA":" ","LANE":"３９３巷","ALLEY":" ","HOUSE_NO":"３５號","E_COORD97":167650.79000000001,"N_COORD97":2544299.6800000002,"ADDRESS":"海安路３９３巷３５號","OBJECTID":265370},"geometry":{"x":167650.79000000097,"y":2544299.6799999997}},{"attributes":{"ID":265375,"DIS_CODE":0,"TOWNNAME":"中西區","LI":"民權里","LIN":"13鄰","STREET":"海安路","SECT":" ","MAREA":" ","LANE":"３９３巷","ALLEY":" ","HOUSE_NO":"３７號","E_COORD97":167646.89000000001,"N_COORD97":2544303.7400000002,"ADDRESS":"海安路３９３巷３７號","OBJECTID":265371},"geometry":{"x":167646.88999999966,"y":2544303.7400000002}},{"attributes":{"ID":265376,"DIS_CODE":0,"TOWNNAME":"中西區","LI":"民權里","LIN":"13鄰","STREET":"海安路","SECT":" ","MAREA":" ","LANE":"３９３巷","ALLEY":" ","HOUSE_NO":"９號","E_COORD97":167707.5,"N_COORD97":2544273.73,"ADDRESS":"海安路３９３巷９號","OBJECTID":265372},"geometry":{"x":167707.5,"y":2544273.7300000004}},{"attributes":{"ID":265377,"DIS_CODE":0,"TOWNNAME":"北區","LI":"文成里","LIN":"13鄰","STREET":"立賢路","SECT":"二段","MAREA":" ","LANE":"９９巷","ALLEY":" ","HOUSE_NO":"３２號","E_COORD97":167654.23999999999,"N_COORD97":2545381.6000000001,"ADDRESS":"立賢路二段９９巷３２號","OBJECTID":265373},"geometry":{"x":167654.24000000209,"y":2545381.5999999996}},{"attributes":{"ID":265378,"DIS_CODE":0,"TOWNNAME":"北區","LI":"文成里","LIN":"13鄰","STREET":"立賢路","SECT":"二段","MAREA":" ","LANE":"９９巷","ALLEY":" ","HOUSE_NO":"２２號","E_COORD97":167656.78,"N_COORD97":2545427.0099999998,"ADDRESS":"立賢路二段９９巷２２號","OBJECTID":265374},"geometry":{"x":167656.78000000026,"y":2545427.0099999998}},{"attributes":{"ID":265379,"DIS_CODE":0,"TOWNNAME":"北區","LI":"文成里","LIN":"13鄰","STREET":"立賢路","SECT":"二段","MAREA":" ","LANE":"９９巷","ALLEY":" ","HOUSE_NO":"２６號","E_COORD97":167656.78,"N_COORD97":2545415.4199999999,"ADDRESS":"立賢路二段９９巷２６號","OBJECTID":265375},"geometry":{"x":167656.78000000026,"y":2545415.4200000018}},{"attributes":{"ID":265380,"DIS_CODE":0,"TOWNNAME":"北區","LI":"文成里","LIN":"13鄰","STREET":"立賢路","SECT":"二段","MAREA":" ","LANE":"９９巷","ALLEY":" ","HOUSE_NO":"２８號","E_COORD97":167655.98999999999,"N_COORD97":2545403.1899999999,"ADDRESS":"立賢路二段９９巷２８號","OBJECTID":265376},"geometry":{"x":167655.99000000209,"y":2545403.1900000013}},{"attributes":{"ID":265381,"DIS_CODE":0,"TOWNNAME":"北區","LI":"文成里","LIN":"13鄰","STREET":"立賢路","SECT":"二段","MAREA":" ","LANE":"９９巷","ALLEY":" ","HOUSE_NO":"３０號","E_COORD97":167655.35000000001,"N_COORD97":2545391.6000000001,"ADDRESS":"立賢路二段９９巷３０號","OBJECTID":265377},"geometry":{"x":167655.35000000056,"y":2545391.5999999996}},{"attributes":{"ID":265382,"DIS_CODE":0,"TOWNNAME":"安平區","LI":"石門里","LIN":"13鄰","STREET":"\u25A0忠街","SECT":" ","MAREA":" ","LANE":"４４巷","ALLEY":" ","HOUSE_NO":"４號","E_COORD97":164242.26999999999,"N_COORD97":2544658.9900000002,"ADDRESS":"\u25A0忠街４４巷４號","OBJECTID":265378},"geometry":{"x":164242.26999999955,"y":2544658.9900000021}},{"attributes":{"ID":265383,"DIS_CODE":0,"TOWNNAME":"安平區","LI":"石門里","LIN":"13鄰","STREET":"\u25A0忠街","SECT":" ","MAREA":" ","LANE":"４４巷","ALLEY":" ","HOUSE_NO":"８號","E_COORD97":164246.82999999999,"N_COORD97":2544666.48,"ADDRESS":"\u25A0忠街４４巷８號","OBJECTID":265379},"geometry":{"x":164246.83000000101,"y":2544666.4800000023}},{"attributes":{"ID":265384,"DIS_CODE":0,"TOWNNAME":"安南區","LI":"海西里","LIN":"13鄰","STREET":"海尾路","SECT":" ","MAREA":" ","LANE":" ","ALLEY":" ","HOUSE_NO":"３６７號","E_COORD97":166411.61450500001,"N_COORD97":2548498.9315300002,"ADDRESS":"海尾路３６７號","OBJECTID":265380},"geometry":{"x":166411.61450499948,"y":2548498.9315280039}},{"attributes":{"ID":265385,"DIS_CODE":0,"TOWNNAME":"安南區","LI":"海西里","LIN":"13鄰","STREET":"海尾路","SECT":" ","MAREA":" ","LANE":" ","ALLEY":" ","HOUSE_NO":"３６９號","E_COORD97":166420.61778,"N_COORD97":2548503.9056899999,"ADDRESS":"海尾路３６９號","OBJECTID":265381},"geometry":{"x":166420.61777999997,"y":2548503.9056920018}},{"attributes":{"ID":265386,"DIS_CODE":0,"TOWNNAME":"安平區","LI":"平安里","LIN":"13鄰","STREET":"安平路","SECT":" ","MAREA":" ","LANE":"５５０巷","ALLEY":" ","HOUSE_NO":"６號","E_COORD97":165003.85000000001,"N_COORD97":2544392.5899999999,"ADDRESS":"安平路５５０巷６號","OBJECTID":265382},"geometry":{"x":165003.85000000056,"y":2544392.5899999999}},{"attributes":{"ID":265387,"DIS_CODE":0,"TOWNNAME":"永康區","LI":"五王里","LIN":"22鄰","STREET":"成功路","SECT":" ","MAREA":" ","LANE":" ","ALLEY":" ","HOUSE_NO":"２２２號","E_COORD97":171361.39999999999,"N_COORD97":2545759.5099999998,"ADDRESS":"成功路２２２號","OBJECTID":265383},"geometry":{"x":171361.4000000013,"y":2545759.5099999998}},{"attributes":{"ID":265388,"DIS_CODE":0,"TOWNNAME":"安平區","LI":"平安里","LIN":"13鄰","STREET":"安平路","SECT":" ","MAREA":" ","LANE":"５５０巷","ALLEY":" ","HOUSE_NO":"８號","E_COORD97":165004.79999999999,"N_COORD97":2544396.98,"ADDRESS":"安平路５５０巷８號","OBJECTID":265384},"geometry":{"x":165004.79999999981,"y":2544396.9800000004}},{"attributes":{"ID":265389,"DIS_CODE":0,"TOWNNAME":"永康區","LI":"中興里","LIN":"22鄰","STREET":"中華路","SECT":" ","MAREA":" ","LANE":" ","ALLEY":" ","HOUSE_NO":"２１０號之１","E_COORD97":171660.66,"N_COORD97":2545041.8599999999,"ADDRESS":"中華路２１０號之１","OBJECTID":265385},"geometry":{"x":171660.66000000108,"y":2545041.8600000031}},{"attributes":{"ID":265390,"DIS_CODE":0,"TOWNNAME":"新營區","LI":"新東里","LIN":"5鄰","STREET":"東大街","SECT":" ","MAREA":" ","LANE":"５２巷","ALLEY":" ","HOUSE_NO":"４９號","E_COORD97":181145.17000000001,"N_COORD97":2579158.73,"ADDRESS":"東大街５２巷４９號","OBJECTID":265386},"geometry":{"x":181145.17000000086,"y":2579158.7300000023}},{"attributes":{"ID":265391,"DIS_CODE":0,"TOWNNAME":"安平區","LI":"國平里","LIN":"13鄰","STREET":"建平一街","SECT":" ","MAREA":" ","LANE":"１８９巷","ALLEY":" ","HOUSE_NO":"１９９號","E_COORD97":165604.76000000001,"N_COORD97":2542728.79,"ADDRESS":"建平一街１８９巷１９９號","OBJECTID":265387},"geometry":{"x":165604.76000000071,"y":2542728.7899999991}},{"attributes":{"ID":265392,"DIS_CODE":0,"TOWNNAME":"永康區","LI":"中興里","LIN":"22鄰","STREET":"中華路","SECT":" ","MAREA":" ","LANE":" ","ALLEY":" ","HOUSE_NO":"１９８號之２２","E_COORD97":171636.42999999999,"N_COORD97":2545003.2999999998,"ADDRESS":"中華路１９８號之２２","OBJECTID":265388},"geometry":{"x":171636.43000000063,"y":2545003.3000000026}},{"attributes":{"ID":265393,"DIS_CODE":0,"TOWNNAME":"南區","LI":"南都里","LIN":"13鄰","STREET":"灣裡路","SECT":" ","MAREA":" ","LANE":"４００巷","ALLEY":" ","HOUSE_NO":"３７之１號","E_COORD97":166042.57000000001,"N_COORD97":2536136.27,"ADDRESS":"灣裡路４００巷３７之１號","OBJECTID":265389},"geometry":{"x":166042.5700000003,"y":2536136.2700000014}},{"attributes":{"ID":265394,"DIS_CODE":0,"TOWNNAME":"永康區","LI":"中興里","LIN":"22鄰","STREET":"中華路","SECT":" ","MAREA":" ","LANE":" ","ALLEY":" ","HOUSE_NO":"２００號之６","E_COORD97":171636.25,"N_COORD97":2545014.54,"ADDRESS":"中華路２００號之６","OBJECTID":265390},"geometry":{"x":171636.25000000093,"y":2545014.540000001}},{"attributes":{"ID":265395,"DIS_CODE":0,"TOWNNAME":"安平區","LI":"平安里","LIN":"13鄰","STREET":"安平路","SECT":" ","MAREA":" ","LANE":"５５０巷","ALLEY":" ","HOUSE_NO":"３號","E_COORD97":164987.48000000001,"N_COORD97":2544386.6600000001,"ADDRESS":"安平路５５０巷３號","OBJECTID":265391},"geometry":{"x":164987.48000000045,"y":2544386.660000002}},{"attributes":{"ID":265396,"DIS_CODE":0,"TOWNNAME":"安平區","LI":"平安里","LIN":"13鄰","STREET":"安平路","SECT":" ","MAREA":" ","LANE":"５５０巷","ALLEY":" ","HOUSE_NO":"２號","E_COORD97":165001.60000000001,"N_COORD97":2544380.0099999998,"ADDRESS":"安平路５５０巷２號","OBJECTID":265392},"geometry":{"x":165001.60000000149,"y":2544380.0100000035}},{"attributes":{"ID":265397,"DIS_CODE":0,"TOWNNAME":"永康區","LI":"中興里","LIN":"22鄰","STREET":"中華路","SECT":" ","MAREA":" ","LANE":" ","ALLEY":" ","HOUSE_NO":"２１０號之６","E_COORD97":171683.13,"N_COORD97":2545043.1099999999,"ADDRESS":"中華路２１０號之６","OBJECTID":265393},"geometry":{"x":171683.13000000082,"y":2545043.1099999975}},{"attributes":{"ID":265398,"DIS_CODE":0,"TOWNNAME":"永康區","LI":"崑山里","LIN":"22鄰","STREET":"國光一街","SECT":" ","MAREA":" ","LANE":" ","ALLEY":" ","HOUSE_NO":"６號","E_COORD97":174044.03,"N_COORD97":2544570.8900000001,"ADDRESS":"國光一街６號","OBJECTID":265394},"geometry":{"x":174044.03000000026,"y":2544570.8900000006}},{"attributes":{"ID":265399,"DIS_CODE":0,"TOWNNAME":"永康區","LI":"勝利里","LIN":"22鄰","STREET":"勝華街","SECT":" ","MAREA":" ","LANE":" ","ALLEY":" ","HOUSE_NO":"１７號","E_COORD97":171515.79000000001,"N_COORD97":2545197.9199999999,"ADDRESS":"勝華街１７號","OBJECTID":265395},"geometry":{"x":171515.79000000097,"y":2545197.9200000037}},{"attributes":{"ID":265400,"DIS_CODE":0,"TOWNNAME":"安平區","LI":"平安里","LIN":"13鄰","STREET":"安平路","SECT":" ","MAREA":" ","LANE":"５５０巷","ALLEY":" ","HOUSE_NO":"４號","E_COORD97":165003.01999999999,"N_COORD97":2544386.1800000002,"ADDRESS":"安平路５５０巷４號","OBJECTID":265396},"geometry":{"x":165003.01999999955,"y":2544386.1800000016}},{"attributes":{"ID":265401,"DIS_CODE":0,"TOWNNAME":"永康區","LI":"勝利里","LIN":"22鄰","STREET":"勝華街","SECT":" ","MAREA":" ","LANE":" ","ALLEY":" ","HOUSE_NO":"２３號","E_COORD97":171502.23999999999,"N_COORD97":2545198.7400000002,"ADDRESS":"勝華街２３號","OBJECTID":265397},"geometry":{"x":171502.24000000209,"y":2545198.7400000002}},{"attributes":{"ID":265402,"DIS_CODE":0,"TOWNNAME":"永康區","LI":"勝利里","LIN":"22鄰","STREET":"勝華街","SECT":" ","MAREA":" ","LANE":" ","ALLEY":" ","HOUSE_NO":"２７號","E_COORD97":171493.07000000001,"N_COORD97":2545199.5499999998,"ADDRESS":"勝華街２７號","OBJECTID":265398},"geometry":{"x":171493.0700000003,"y":2545199.5500000007}},{"attributes":{"ID":265403,"DIS_CODE":0,"TOWNNAME":"永康區","LI":"崑山里","LIN":"22鄰","STREET":"崑山街","SECT":" ","MAREA":" ","LANE":" ","ALLEY":" ","HOUSE_NO":"５２號","E_COORD97":173949.5,"N_COORD97":2544641.5800000001,"ADDRESS":"崑山街５２號","OBJECTID":265399},"geometry":{"x":173949.5,"y":2544641.5800000019}},{"attributes":{"ID":265404,"DIS_CODE":0,"TOWNNAME":"永康區","LI":"勝利里","LIN":"22鄰","STREET":"勝華街","SECT":" ","MAREA":" ","LANE":" ","ALLEY":" ","HOUSE_NO":"２９號","E_COORD97":171485.89000000001,"N_COORD97":2545200.2799999998,"ADDRESS":"勝華街２９號","OBJECTID":265400},"geometry":{"x":171485.8900000006,"y":2545200.2799999993}}]}