{"displayFieldName":"TOWNNAME","fieldAliases":{"ID":"ID","DIS_CODE":"DIS_CODE","TOWNNAME":"TOWNNAME","LI":"LI","LIN":"LIN","STREET":"STREET","SECT":"SECT","MAREA":"MAREA","LANE":"LANE","ALLEY":"ALLEY","HOUSE_NO":"HOUSE_NO","E_COORD97":"E_COORD97","N_COORD97":"N_COORD97","ADDRESS":"ADDRESS","OBJECTID":"OBJECTID"},"geometryType":"esriGeometryPoint","spatialReference":{"wkid":102443,"latestWkid":3826},"fields":[{"name":"ID","type":"esriFieldTypeDouble","alias":"ID"},{"name":"DIS_CODE","type":"esriFieldTypeInteger","alias":"DIS_CODE"},{"name":"TOWNNAME","type":"esriFieldTypeString","alias":"TOWNNAME","length":8},{"name":"LI","type":"esriFieldTypeString","alias":"LI","length":8},{"name":"LIN","type":"esriFieldTypeString","alias":"LIN","length":12},{"name":"STREET","type":"esriFieldTypeString","alias":"STREET","length":20},{"name":"SECT","type":"esriFieldTypeString","alias":"SECT","length":8},{"name":"MAREA","type":"esriFieldTypeString","alias":"MAREA","length":12},{"name":"LANE","type":"esriFieldTypeString","alias":"LANE","length":10},{"name":"ALLEY","type":"esriFieldTypeString","alias":"ALLEY","length":10},{"name":"HOUSE_NO","type":"esriFieldTypeString","alias":"HOUSE_NO","length":20},{"name":"E_COORD97","type":"esriFieldTypeDouble","alias":"E_COORD97"},{"name":"N_COORD97","type":"esriFieldTypeDouble","alias":"N_COORD97"},{"name":"ADDRESS","type":"esriFieldTypeString","alias":"ADDRESS","length":50},{"name":"OBJECTID","type":"esriFieldTypeOID","alias":"OBJECTID"}],"features":[{"attributes":{"ID":114201,"DIS_CODE":0,"TOWNNAME":"安南區","LI":"溪頂里","LIN":"28鄰","STREET":"郡安路","SECT":"四段","MAREA":" ","LANE":"２７８巷","ALLEY":"１５弄","HOUSE_NO":"１８號三樓","E_COORD97":168622.82999999999,"N_COORD97":2547535.9300000002,"ADDRESS":"郡安路四段２７８巷１５弄１８號三樓","OBJECTID":114201},"geometry":{"x":168622.83000000007,"y":2547535.9299999997}},{"attributes":{"ID":114202,"DIS_CODE":0,"TOWNNAME":"安南區","LI":"溪頂里","LIN":"28鄰","STREET":"郡安路","SECT":"四段","MAREA":" ","LANE":"２７８巷","ALLEY":"１５弄","HOUSE_NO":"１８號五樓","E_COORD97":168622.82999999999,"N_COORD97":2547535.9300000002,"ADDRESS":"郡安路四段２７８巷１５弄１８號五樓","OBJECTID":114202},"geometry":{"x":168622.83000000007,"y":2547535.9299999997}},{"attributes":{"ID":114203,"DIS_CODE":0,"TOWNNAME":"安南區","LI":"溪頂里","LIN":"28鄰","STREET":"郡安路","SECT":"四段","MAREA":" ","LANE":"２７８巷","ALLEY":"１５弄","HOUSE_NO":"２０號七樓","E_COORD97":168634.48999999999,"N_COORD97":2547537.1800000002,"ADDRESS":"郡安路四段２７８巷１５弄２０號七樓","OBJECTID":114203},"geometry":{"x":168634.49000000115,"y":2547537.1799999997}},{"attributes":{"ID":114204,"DIS_CODE":0,"TOWNNAME":"安南區","LI":"溪頂里","LIN":"28鄰","STREET":"郡安路","SECT":"四段","MAREA":" ","LANE":"２７８巷","ALLEY":"１５弄","HOUSE_NO":"２０號九樓","E_COORD97":168634.48999999999,"N_COORD97":2547537.1800000002,"ADDRESS":"郡安路四段２７８巷１５弄２０號九樓","OBJECTID":114204},"geometry":{"x":168634.49000000115,"y":2547537.1799999997}},{"attributes":{"ID":114205,"DIS_CODE":0,"TOWNNAME":"安南區","LI":"溪頂里","LIN":"28鄰","STREET":"郡安路","SECT":"四段","MAREA":" ","LANE":"２７８巷","ALLEY":"１５弄","HOUSE_NO":"２０號十一樓","E_COORD97":168634.48999999999,"N_COORD97":2547537.1800000002,"ADDRESS":"郡安路四段２７８巷１５弄２０號十一樓","OBJECTID":114205},"geometry":{"x":168634.49000000115,"y":2547537.1799999997}},{"attributes":{"ID":114206,"DIS_CODE":0,"TOWNNAME":"安南區","LI":"溪頂里","LIN":"28鄰","STREET":"郡安路","SECT":"四段","MAREA":" ","LANE":"２７８巷","ALLEY":"１５弄","HOUSE_NO":"２０號十三樓","E_COORD97":168634.48999999999,"N_COORD97":2547537.1800000002,"ADDRESS":"郡安路四段２７８巷１５弄２０號十三樓","OBJECTID":114206},"geometry":{"x":168634.49000000115,"y":2547537.1799999997}},{"attributes":{"ID":114207,"DIS_CODE":0,"TOWNNAME":"安南區","LI":"溪頂里","LIN":"28鄰","STREET":"郡安路","SECT":"四段","MAREA":" ","LANE":"２７８巷","ALLEY":"１５弄","HOUSE_NO":"２０號三樓","E_COORD97":168634.48999999999,"N_COORD97":2547537.1800000002,"ADDRESS":"郡安路四段２７８巷１５弄２０號三樓","OBJECTID":114207},"geometry":{"x":168634.49000000115,"y":2547537.1799999997}},{"attributes":{"ID":114208,"DIS_CODE":0,"TOWNNAME":"安南區","LI":"溪頂里","LIN":"28鄰","STREET":"郡安路","SECT":"四段","MAREA":" ","LANE":"２７８巷","ALLEY":"１５弄","HOUSE_NO":"２０號五樓","E_COORD97":168634.48999999999,"N_COORD97":2547537.1800000002,"ADDRESS":"郡安路四段２７８巷１５弄２０號五樓","OBJECTID":114208},"geometry":{"x":168634.49000000115,"y":2547537.1799999997}},{"attributes":{"ID":114209,"DIS_CODE":0,"TOWNNAME":"安南區","LI":"溪頂里","LIN":"28鄰","STREET":"郡安路","SECT":"四段","MAREA":" ","LANE":"２７８巷","ALLEY":"１５弄","HOUSE_NO":"２２號七樓","E_COORD97":168646.07999999999,"N_COORD97":2547538.29,"ADDRESS":"郡安路四段２７８巷１５弄２２號七樓","OBJECTID":114209},"geometry":{"x":168646.08000000007,"y":2547538.290000001}},{"attributes":{"ID":114210,"DIS_CODE":0,"TOWNNAME":"安南區","LI":"溪頂里","LIN":"28鄰","STREET":"郡安路","SECT":"四段","MAREA":" ","LANE":"２７８巷","ALLEY":"１５弄","HOUSE_NO":"２２號九樓","E_COORD97":168646.07999999999,"N_COORD97":2547538.29,"ADDRESS":"郡安路四段２７８巷１５弄２２號九樓","OBJECTID":114210},"geometry":{"x":168646.08000000007,"y":2547538.290000001}},{"attributes":{"ID":114211,"DIS_CODE":0,"TOWNNAME":"安南區","LI":"溪頂里","LIN":"28鄰","STREET":"郡安路","SECT":"四段","MAREA":" ","LANE":"２７８巷","ALLEY":"１５弄","HOUSE_NO":"２２號十一樓","E_COORD97":168646.07999999999,"N_COORD97":2547538.29,"ADDRESS":"郡安路四段２７８巷１５弄２２號十一樓","OBJECTID":114211},"geometry":{"x":168646.08000000007,"y":2547538.290000001}},{"attributes":{"ID":114212,"DIS_CODE":0,"TOWNNAME":"安南區","LI":"溪頂里","LIN":"28鄰","STREET":"郡安路","SECT":"四段","MAREA":" ","LANE":"２７８巷","ALLEY":"１５弄","HOUSE_NO":"２２號十三樓","E_COORD97":168646.07999999999,"N_COORD97":2547538.29,"ADDRESS":"郡安路四段２７８巷１５弄２２號十三樓","OBJECTID":114212},"geometry":{"x":168646.08000000007,"y":2547538.290000001}},{"attributes":{"ID":114213,"DIS_CODE":0,"TOWNNAME":"鹽水區","LI":"大莊里","LIN":"8鄰","STREET":" ","SECT":" ","MAREA":"大莊","LANE":" ","ALLEY":" ","HOUSE_NO":"２１號","E_COORD97":172804.07000000001,"N_COORD97":2576911.8799999999,"ADDRESS":"大莊２１號","OBJECTID":114213},"geometry":{"x":172804.07000000123,"y":2576911.8800000008}},{"attributes":{"ID":114214,"DIS_CODE":0,"TOWNNAME":"安南區","LI":"溪頂里","LIN":"28鄰","STREET":"郡安路","SECT":"四段","MAREA":" ","LANE":"２７８巷","ALLEY":"１５弄","HOUSE_NO":"２２號三樓","E_COORD97":168646.07999999999,"N_COORD97":2547538.29,"ADDRESS":"郡安路四段２７８巷１５弄２２號三樓","OBJECTID":114214},"geometry":{"x":168646.08000000007,"y":2547538.290000001}},{"attributes":{"ID":114215,"DIS_CODE":0,"TOWNNAME":"安南區","LI":"溪頂里","LIN":"28鄰","STREET":"郡安路","SECT":"四段","MAREA":" ","LANE":"２７８巷","ALLEY":"１５弄","HOUSE_NO":"２２號五樓","E_COORD97":168646.07999999999,"N_COORD97":2547538.29,"ADDRESS":"郡安路四段２７８巷１５弄２２號五樓","OBJECTID":114215},"geometry":{"x":168646.08000000007,"y":2547538.290000001}},{"attributes":{"ID":114216,"DIS_CODE":0,"TOWNNAME":"安南區","LI":"溪頂里","LIN":"28鄰","STREET":"郡安路","SECT":"四段","MAREA":" ","LANE":"２７８巷","ALLEY":"１５弄","HOUSE_NO":"６號七樓","E_COORD97":168602.92999999999,"N_COORD97":2547572.8999999999,"ADDRESS":"郡安路四段２７８巷１５弄６號七樓","OBJECTID":114216},"geometry":{"x":168602.9299999997,"y":2547572.9000000022}},{"attributes":{"ID":114217,"DIS_CODE":0,"TOWNNAME":"安南區","LI":"溪頂里","LIN":"28鄰","STREET":"郡安路","SECT":"四段","MAREA":" ","LANE":"２７８巷","ALLEY":"１５弄","HOUSE_NO":"６號九樓","E_COORD97":168602.92999999999,"N_COORD97":2547572.8999999999,"ADDRESS":"郡安路四段２７８巷１５弄６號九樓","OBJECTID":114217},"geometry":{"x":168602.9299999997,"y":2547572.9000000022}},{"attributes":{"ID":114218,"DIS_CODE":0,"TOWNNAME":"安南區","LI":"溪頂里","LIN":"28鄰","STREET":"郡安路","SECT":"四段","MAREA":" ","LANE":"２７８巷","ALLEY":"１５弄","HOUSE_NO":"６號十一樓","E_COORD97":168602.92999999999,"N_COORD97":2547572.8999999999,"ADDRESS":"郡安路四段２７８巷１５弄６號十一樓","OBJECTID":114218},"geometry":{"x":168602.9299999997,"y":2547572.9000000022}},{"attributes":{"ID":114219,"DIS_CODE":0,"TOWNNAME":"安南區","LI":"溪頂里","LIN":"28鄰","STREET":"郡安路","SECT":"四段","MAREA":" ","LANE":"２７８巷","ALLEY":"１５弄","HOUSE_NO":"６號十三樓","E_COORD97":168602.92999999999,"N_COORD97":2547572.8999999999,"ADDRESS":"郡安路四段２７８巷１５弄６號十三樓","OBJECTID":114219},"geometry":{"x":168602.9299999997,"y":2547572.9000000022}},{"attributes":{"ID":114220,"DIS_CODE":0,"TOWNNAME":"安南區","LI":"溪頂里","LIN":"28鄰","STREET":"郡安路","SECT":"四段","MAREA":" ","LANE":"２７８巷","ALLEY":"１５弄","HOUSE_NO":"６號三樓","E_COORD97":168602.92999999999,"N_COORD97":2547572.8999999999,"ADDRESS":"郡安路四段２７８巷１５弄６號三樓","OBJECTID":114220},"geometry":{"x":168602.9299999997,"y":2547572.9000000022}},{"attributes":{"ID":114221,"DIS_CODE":0,"TOWNNAME":"新市區","LI":"大社里","LIN":"23鄰","STREET":" ","SECT":" ","MAREA":"大社","LANE":" ","ALLEY":" ","HOUSE_NO":"７００號之２","E_COORD97":179678.48000000001,"N_COORD97":2554215.0499999998,"ADDRESS":"大社７００號之２","OBJECTID":114221},"geometry":{"x":179678.48000000231,"y":2554215.0500000007}},{"attributes":{"ID":114222,"DIS_CODE":0,"TOWNNAME":"學甲區","LI":"中洲里","LIN":"23鄰","STREET":" ","SECT":" ","MAREA":"中洲","LANE":" ","ALLEY":" ","HOUSE_NO":"２９８號","E_COORD97":163704.17999999999,"N_COORD97":2571721.5800000001,"ADDRESS":"中洲２９８號","OBJECTID":114222},"geometry":{"x":163704.17999999877,"y":2571721.5800000001}},{"attributes":{"ID":114223,"DIS_CODE":0,"TOWNNAME":"學甲區","LI":"三慶里","LIN":"23鄰","STREET":" ","SECT":" ","MAREA":"紅茄","LANE":" ","ALLEY":" ","HOUSE_NO":"１０２號","E_COORD97":167366.70999999999,"N_COORD97":2575555.7200000002,"ADDRESS":"紅茄１０２號","OBJECTID":114223},"geometry":{"x":167366.71000000089,"y":2575555.7200000007}},{"attributes":{"ID":114224,"DIS_CODE":0,"TOWNNAME":"南區","LI":"喜南里","LIN":"1鄰","STREET":"喜樹路","SECT":" ","MAREA":" ","LANE":" ","ALLEY":" ","HOUSE_NO":"３１４號","E_COORD97":165714.03,"N_COORD97":2537787.8199999998,"ADDRESS":"喜樹路３１４號","OBJECTID":114224},"geometry":{"x":165714.03000000026,"y":2537787.8200000022}},{"attributes":{"ID":114225,"DIS_CODE":0,"TOWNNAME":"學甲區","LI":"三慶里","LIN":"23鄰","STREET":" ","SECT":" ","MAREA":"紅茄","LANE":" ","ALLEY":" ","HOUSE_NO":"９９號","E_COORD97":167404.23000000001,"N_COORD97":2575614.5600000001,"ADDRESS":"紅茄９９號","OBJECTID":114225},"geometry":{"x":167404.23000000138,"y":2575614.5600000005}},{"attributes":{"ID":114226,"DIS_CODE":0,"TOWNNAME":"學甲區","LI":"豐和里","LIN":"23鄰","STREET":" ","SECT":" ","MAREA":"美和","LANE":" ","ALLEY":" ","HOUSE_NO":"７１號之１","E_COORD97":168173.42000000001,"N_COORD97":2569036.9900000002,"ADDRESS":"美和７１號之１","OBJECTID":114226},"geometry":{"x":168173.42000000086,"y":2569036.9900000021}},{"attributes":{"ID":114227,"DIS_CODE":0,"TOWNNAME":"安南區","LI":"溪頂里","LIN":"28鄰","STREET":"郡安路","SECT":"四段","MAREA":" ","LANE":"２７８巷","ALLEY":"１５弄","HOUSE_NO":"６號五樓","E_COORD97":168602.92999999999,"N_COORD97":2547572.8999999999,"ADDRESS":"郡安路四段２７８巷１５弄６號五樓","OBJECTID":114227},"geometry":{"x":168602.9299999997,"y":2547572.9000000022}},{"attributes":{"ID":114228,"DIS_CODE":0,"TOWNNAME":"安南區","LI":"溪頂里","LIN":"28鄰","STREET":"郡安路","SECT":"四段","MAREA":" ","LANE":"２７８巷","ALLEY":"１５弄","HOUSE_NO":"８號七樓","E_COORD97":168604.07000000001,"N_COORD97":2547565.6800000002,"ADDRESS":"郡安路四段２７８巷１５弄８號七樓","OBJECTID":114228},"geometry":{"x":168604.0700000003,"y":2547565.6800000034}},{"attributes":{"ID":114229,"DIS_CODE":0,"TOWNNAME":"安南區","LI":"溪頂里","LIN":"28鄰","STREET":"郡安路","SECT":"四段","MAREA":" ","LANE":"２７８巷","ALLEY":"１５弄","HOUSE_NO":"８號九樓","E_COORD97":168604.07000000001,"N_COORD97":2547565.6800000002,"ADDRESS":"郡安路四段２７８巷１５弄８號九樓","OBJECTID":114229},"geometry":{"x":168604.0700000003,"y":2547565.6800000034}},{"attributes":{"ID":114230,"DIS_CODE":0,"TOWNNAME":"學甲區","LI":"豐和里","LIN":"23鄰","STREET":" ","SECT":" ","MAREA":"美和","LANE":" ","ALLEY":" ","HOUSE_NO":"７３號之１","E_COORD97":168175,"N_COORD97":2569075.1299999999,"ADDRESS":"美和７３號之１","OBJECTID":114230},"geometry":{"x":168175.00000000093,"y":2569075.1300000008}},{"attributes":{"ID":114231,"DIS_CODE":0,"TOWNNAME":"安南區","LI":"溪頂里","LIN":"28鄰","STREET":"郡安路","SECT":"四段","MAREA":" ","LANE":"２７８巷","ALLEY":"１５弄","HOUSE_NO":"８號十一樓","E_COORD97":168604.07000000001,"N_COORD97":2547565.6800000002,"ADDRESS":"郡安路四段２７８巷１５弄８號十一樓","OBJECTID":114231},"geometry":{"x":168604.0700000003,"y":2547565.6800000034}},{"attributes":{"ID":114232,"DIS_CODE":0,"TOWNNAME":"永康區","LI":"龍潭里","LIN":"45鄰","STREET":"中山北路","SECT":" ","MAREA":" ","LANE":"２６４巷","ALLEY":"２５２弄","HOUSE_NO":"１０號","E_COORD97":174698.5,"N_COORD97":2546959.52,"ADDRESS":"中山北路２６４巷２５２弄１０號","OBJECTID":114232},"geometry":{"x":174698.5,"y":2546959.5199999977}},{"attributes":{"ID":114233,"DIS_CODE":0,"TOWNNAME":"永康區","LI":"龍潭里","LIN":"36鄰","STREET":"中山北路","SECT":" ","MAREA":" ","LANE":"１６４巷","ALLEY":"１５８弄","HOUSE_NO":"２５號","E_COORD97":174651.04999999999,"N_COORD97":2547315.1699999999,"ADDRESS":"中山北路１６４巷１５８弄２５號","OBJECTID":114233},"geometry":{"x":174651.05000000168,"y":2547315.1700000037}},{"attributes":{"ID":114234,"DIS_CODE":0,"TOWNNAME":"永康區","LI":"復興里","LIN":"25鄰","STREET":"復興路","SECT":" ","MAREA":" ","LANE":"４２３巷","ALLEY":"９５弄","HOUSE_NO":"１０號","E_COORD97":172258.14000000001,"N_COORD97":2544085.77,"ADDRESS":"復興路４２３巷９５弄１０號","OBJECTID":114234},"geometry":{"x":172258.13999999966,"y":2544085.7699999996}},{"attributes":{"ID":114235,"DIS_CODE":0,"TOWNNAME":"安南區","LI":"溪頂里","LIN":"28鄰","STREET":"郡安路","SECT":"四段","MAREA":" ","LANE":"２７８巷","ALLEY":"１５弄","HOUSE_NO":"８號十三樓","E_COORD97":168604.07000000001,"N_COORD97":2547565.6800000002,"ADDRESS":"郡安路四段２７８巷１５弄８號十三樓","OBJECTID":114235},"geometry":{"x":168604.0700000003,"y":2547565.6800000034}},{"attributes":{"ID":114236,"DIS_CODE":0,"TOWNNAME":"學甲區","LI":"豐和里","LIN":"23鄰","STREET":" ","SECT":" ","MAREA":"美和","LANE":" ","ALLEY":" ","HOUSE_NO":"７３號","E_COORD97":168188.23999999999,"N_COORD97":2569086.1299999999,"ADDRESS":"美和７３號","OBJECTID":114236},"geometry":{"x":168188.24000000209,"y":2569086.129999999}},{"attributes":{"ID":114237,"DIS_CODE":0,"TOWNNAME":"安南區","LI":"溪頂里","LIN":"28鄰","STREET":"郡安路","SECT":"四段","MAREA":" ","LANE":"２７８巷","ALLEY":"１５弄","HOUSE_NO":"８號三樓","E_COORD97":168604.07000000001,"N_COORD97":2547565.6800000002,"ADDRESS":"郡安路四段２７８巷１５弄８號三樓","OBJECTID":114237},"geometry":{"x":168604.0700000003,"y":2547565.6800000034}},{"attributes":{"ID":114238,"DIS_CODE":0,"TOWNNAME":"學甲區","LI":"豐和里","LIN":"23鄰","STREET":" ","SECT":" ","MAREA":"美和","LANE":" ","ALLEY":" ","HOUSE_NO":"７４號","E_COORD97":168216.16,"N_COORD97":2569108.4199999999,"ADDRESS":"美和７４號","OBJECTID":114238},"geometry":{"x":168216.16000000108,"y":2569108.4200000018}},{"attributes":{"ID":114239,"DIS_CODE":0,"TOWNNAME":"安南區","LI":"溪頂里","LIN":"28鄰","STREET":"郡安路","SECT":"四段","MAREA":" ","LANE":"２７８巷","ALLEY":"１５弄","HOUSE_NO":"８號五樓","E_COORD97":168604.07000000001,"N_COORD97":2547565.6800000002,"ADDRESS":"郡安路四段２７８巷１５弄８號五樓","OBJECTID":114239},"geometry":{"x":168604.0700000003,"y":2547565.6800000034}},{"attributes":{"ID":114240,"DIS_CODE":0,"TOWNNAME":"永康區","LI":"龍潭里","LIN":"38鄰","STREET":"中山北路","SECT":" ","MAREA":" ","LANE":"１６４巷","ALLEY":"１１０弄","HOUSE_NO":"１２號之２","E_COORD97":174493.57000000001,"N_COORD97":2547363.1299999999,"ADDRESS":"中山北路１６４巷１１０弄１２號之２","OBJECTID":114240},"geometry":{"x":174493.5700000003,"y":2547363.1300000008}},{"attributes":{"ID":114241,"DIS_CODE":0,"TOWNNAME":"永康區","LI":"網寮里","LIN":"17鄰","STREET":"永興路","SECT":" ","MAREA":" ","LANE":"４２７巷","ALLEY":"２弄","HOUSE_NO":"２３之１９號","E_COORD97":173241.62,"N_COORD97":2546827.7999999998,"ADDRESS":"永興路４２７巷２弄２３之１９號","OBJECTID":114241},"geometry":{"x":173241.62000000011,"y":2546827.8000000026}},{"attributes":{"ID":114242,"DIS_CODE":0,"TOWNNAME":"永康區","LI":"網寮里","LIN":"17鄰","STREET":"永興路","SECT":" ","MAREA":" ","LANE":"４２７巷","ALLEY":"２弄","HOUSE_NO":"２３之１６號","E_COORD97":173241.62,"N_COORD97":2546827.7999999998,"ADDRESS":"永興路４２７巷２弄２３之１６號","OBJECTID":114242},"geometry":{"x":173241.62000000011,"y":2546827.8000000026}},{"attributes":{"ID":114243,"DIS_CODE":0,"TOWNNAME":"鹽水區","LI":"大莊里","LIN":"7鄰","STREET":" ","SECT":" ","MAREA":"大莊","LANE":" ","ALLEY":" ","HOUSE_NO":"３４號","E_COORD97":172762.44,"N_COORD97":2576854.1600000001,"ADDRESS":"大莊３４號","OBJECTID":114243},"geometry":{"x":172762.44000000227,"y":2576854.1600000001}},{"attributes":{"ID":114244,"DIS_CODE":0,"TOWNNAME":"永康區","LI":"西勢里","LIN":"28鄰","STREET":"廣興街","SECT":" ","MAREA":" ","LANE":"３８巷","ALLEY":"３４弄","HOUSE_NO":"３號三樓","E_COORD97":176063.92999999999,"N_COORD97":2546414.8100000001,"ADDRESS":"廣興街３８巷３４弄３號三樓","OBJECTID":114244},"geometry":{"x":176063.93000000156,"y":2546414.8100000005}},{"attributes":{"ID":114245,"DIS_CODE":0,"TOWNNAME":"學甲區","LI":"豐和里","LIN":"23鄰","STREET":" ","SECT":" ","MAREA":"美和","LANE":" ","ALLEY":" ","HOUSE_NO":"７５號","E_COORD97":168259.62,"N_COORD97":2569140.27,"ADDRESS":"美和７５號","OBJECTID":114245},"geometry":{"x":168259.62000000011,"y":2569140.2699999996}},{"attributes":{"ID":114246,"DIS_CODE":0,"TOWNNAME":"學甲區","LI":"豐和里","LIN":"23鄰","STREET":" ","SECT":" ","MAREA":"美和","LANE":" ","ALLEY":" ","HOUSE_NO":"７６號之１","E_COORD97":168227.07999999999,"N_COORD97":2569086.4399999999,"ADDRESS":"美和７６號之１","OBJECTID":114246},"geometry":{"x":168227.08000000101,"y":2569086.4400000013}},{"attributes":{"ID":114247,"DIS_CODE":0,"TOWNNAME":"永康區","LI":"西勢里","LIN":"28鄰","STREET":"廣興街","SECT":" ","MAREA":" ","LANE":"３８巷","ALLEY":"３４弄","HOUSE_NO":"３號五樓","E_COORD97":176063.92999999999,"N_COORD97":2546414.8100000001,"ADDRESS":"廣興街３８巷３４弄３號五樓","OBJECTID":114247},"geometry":{"x":176063.93000000156,"y":2546414.8100000005}},{"attributes":{"ID":114248,"DIS_CODE":0,"TOWNNAME":"學甲區","LI":"豐和里","LIN":"23鄰","STREET":" ","SECT":" ","MAREA":"美和","LANE":" ","ALLEY":" ","HOUSE_NO":"７６號之２","E_COORD97":168208.32999999999,"N_COORD97":2569072.0099999998,"ADDRESS":"美和７６號之２","OBJECTID":114248},"geometry":{"x":168208.33000000101,"y":2569072.0100000035}},{"attributes":{"ID":114249,"DIS_CODE":0,"TOWNNAME":"永康區","LI":"西勢里","LIN":"28鄰","STREET":"廣興街","SECT":" ","MAREA":" ","LANE":"３８巷","ALLEY":"３４弄","HOUSE_NO":"３７號五樓","E_COORD97":176030.92999999999,"N_COORD97":2546338.0099999998,"ADDRESS":"廣興街３８巷３４弄３７號五樓","OBJECTID":114249},"geometry":{"x":176030.9299999997,"y":2546338.0099999998}},{"attributes":{"ID":114250,"DIS_CODE":0,"TOWNNAME":"永康區","LI":"西勢里","LIN":"28鄰","STREET":"廣興街","SECT":" ","MAREA":" ","LANE":"３８巷","ALLEY":"３４弄","HOUSE_NO":"３９號五樓","E_COORD97":176022.98999999999,"N_COORD97":2546350.1800000002,"ADDRESS":"廣興街３８巷３４弄３９號五樓","OBJECTID":114250},"geometry":{"x":176022.99000000022,"y":2546350.1800000016}},{"attributes":{"ID":114251,"DIS_CODE":0,"TOWNNAME":"永康區","LI":"新樹里","LIN":"6鄰","STREET":"西勢路","SECT":" ","MAREA":" ","LANE":"１７４巷","ALLEY":"７弄","HOUSE_NO":"５號","E_COORD97":175867.38,"N_COORD97":2546828.3999999999,"ADDRESS":"西勢路１７４巷７弄５號","OBJECTID":114251},"geometry":{"x":175867.37999999989,"y":2546828.4000000004}},{"attributes":{"ID":114252,"DIS_CODE":0,"TOWNNAME":"學甲區","LI":"豐和里","LIN":"23鄰","STREET":" ","SECT":" ","MAREA":"美和","LANE":" ","ALLEY":" ","HOUSE_NO":"７６號","E_COORD97":168242.01999999999,"N_COORD97":2569100.29,"ADDRESS":"美和７６號","OBJECTID":114252},"geometry":{"x":168242.02000000048,"y":2569100.290000001}},{"attributes":{"ID":114253,"DIS_CODE":0,"TOWNNAME":"永康區","LI":"復興里","LIN":"20鄰","STREET":"復興路","SECT":" ","MAREA":" ","LANE":"２４６巷","ALLEY":"１１弄","HOUSE_NO":"５號","E_COORD97":172377.92999999999,"N_COORD97":2544420.27,"ADDRESS":"復興路２４６巷１１弄５號","OBJECTID":114253},"geometry":{"x":172377.9299999997,"y":2544420.2700000014}},{"attributes":{"ID":114254,"DIS_CODE":0,"TOWNNAME":"楠西區","LI":"楠西里","LIN":"15鄰","STREET":"中興南路","SECT":" ","MAREA":" ","LANE":" ","ALLEY":" ","HOUSE_NO":"１０３號","E_COORD97":197150.70999999999,"N_COORD97":2564056.25,"ADDRESS":"中興南路１０３號","OBJECTID":114254},"geometry":{"x":197150.71000000089,"y":2564056.2500000037}},{"attributes":{"ID":114255,"DIS_CODE":0,"TOWNNAME":"永康區","LI":"復興里","LIN":"17鄰","STREET":"復興路","SECT":" ","MAREA":" ","LANE":"３５６巷","ALLEY":"７１弄","HOUSE_NO":"１１號","E_COORD97":172300.62,"N_COORD97":2544491.77,"ADDRESS":"復興路３５６巷７１弄１１號","OBJECTID":114255},"geometry":{"x":172300.62000000011,"y":2544491.7699999996}},{"attributes":{"ID":114256,"DIS_CODE":0,"TOWNNAME":"永康區","LI":"網寮里","LIN":"17鄰","STREET":"永興路","SECT":" ","MAREA":" ","LANE":"４２７巷","ALLEY":"２弄","HOUSE_NO":"５號","E_COORD97":173255.66,"N_COORD97":2546846.2599999998,"ADDRESS":"永興路４２７巷２弄５號","OBJECTID":114256},"geometry":{"x":173255.66000000201,"y":2546846.2599999979}},{"attributes":{"ID":114257,"DIS_CODE":0,"TOWNNAME":"學甲區","LI":"豐和里","LIN":"23鄰","STREET":" ","SECT":" ","MAREA":"美和","LANE":" ","ALLEY":" ","HOUSE_NO":"７７號","E_COORD97":168062.51000000001,"N_COORD97":2569039.3999999999,"ADDRESS":"美和７７號","OBJECTID":114257},"geometry":{"x":168062.51000000071,"y":2569039.4000000041}},{"attributes":{"ID":114258,"DIS_CODE":0,"TOWNNAME":"學甲區","LI":"秀昌里","LIN":"23鄰","STREET":" ","SECT":" ","MAREA":"煥昌","LANE":" ","ALLEY":" ","HOUSE_NO":"１８號之３","E_COORD97":166282.39000000001,"N_COORD97":2570872.0800000001,"ADDRESS":"煥昌１８號之３","OBJECTID":114258},"geometry":{"x":166282.38999999966,"y":2570872.0800000038}},{"attributes":{"ID":114259,"DIS_CODE":0,"TOWNNAME":"學甲區","LI":"秀昌里","LIN":"23鄰","STREET":" ","SECT":" ","MAREA":"煥昌","LANE":" ","ALLEY":" ","HOUSE_NO":"１８號","E_COORD97":166275.76999999999,"N_COORD97":2570863.1800000002,"ADDRESS":"煥昌１８號","OBJECTID":114259},"geometry":{"x":166275.77000000048,"y":2570863.1799999997}},{"attributes":{"ID":114260,"DIS_CODE":0,"TOWNNAME":"學甲區","LI":"秀昌里","LIN":"23鄰","STREET":" ","SECT":" ","MAREA":"煥昌","LANE":" ","ALLEY":" ","HOUSE_NO":"１９號之１","E_COORD97":166303.39999999999,"N_COORD97":2570816.9199999999,"ADDRESS":"煥昌１９號之１","OBJECTID":114260},"geometry":{"x":166303.40000000037,"y":2570816.9200000018}},{"attributes":{"ID":114261,"DIS_CODE":0,"TOWNNAME":"學甲區","LI":"秀昌里","LIN":"23鄰","STREET":" ","SECT":" ","MAREA":"煥昌","LANE":" ","ALLEY":" ","HOUSE_NO":"２０號之１","E_COORD97":166304.51999999999,"N_COORD97":2570843.2000000002,"ADDRESS":"煥昌２０號之１","OBJECTID":114261},"geometry":{"x":166304.52000000048,"y":2570843.1999999974}},{"attributes":{"ID":114262,"DIS_CODE":0,"TOWNNAME":"學甲區","LI":"秀昌里","LIN":"23鄰","STREET":" ","SECT":" ","MAREA":"煥昌","LANE":" ","ALLEY":" ","HOUSE_NO":"２０號之２０","E_COORD97":166316.70000000001,"N_COORD97":2570867.8500000001,"ADDRESS":"煥昌２０號之２０","OBJECTID":114262},"geometry":{"x":166316.70000000019,"y":2570867.8500000015}},{"attributes":{"ID":114263,"DIS_CODE":0,"TOWNNAME":"學甲區","LI":"秀昌里","LIN":"23鄰","STREET":" ","SECT":" ","MAREA":"煥昌","LANE":" ","ALLEY":" ","HOUSE_NO":"２０號之２２","E_COORD97":166325.34,"N_COORD97":2570877.5099999998,"ADDRESS":"煥昌２０號之２２","OBJECTID":114263},"geometry":{"x":166325.33999999985,"y":2570877.5099999998}},{"attributes":{"ID":114264,"DIS_CODE":0,"TOWNNAME":"學甲區","LI":"秀昌里","LIN":"23鄰","STREET":" ","SECT":" ","MAREA":"煥昌","LANE":" ","ALLEY":" ","HOUSE_NO":"２０號之２４","E_COORD97":166331.48000000001,"N_COORD97":2570888.9399999999,"ADDRESS":"煥昌２０號之２４","OBJECTID":114264},"geometry":{"x":166331.48000000045,"y":2570888.9399999995}},{"attributes":{"ID":114265,"DIS_CODE":0,"TOWNNAME":"學甲區","LI":"秀昌里","LIN":"23鄰","STREET":" ","SECT":" ","MAREA":"煥昌","LANE":" ","ALLEY":" ","HOUSE_NO":"２０號之２５","E_COORD97":166335.10000000001,"N_COORD97":2570892.5600000001,"ADDRESS":"煥昌２０號之２５","OBJECTID":114265},"geometry":{"x":166335.09999999963,"y":2570892.5600000005}},{"attributes":{"ID":114266,"DIS_CODE":0,"TOWNNAME":"學甲區","LI":"秀昌里","LIN":"23鄰","STREET":" ","SECT":" ","MAREA":"煥昌","LANE":" ","ALLEY":" ","HOUSE_NO":"２０號之２７","E_COORD97":166341.63,"N_COORD97":2570900.8300000001,"ADDRESS":"煥昌２０號之２７","OBJECTID":114266},"geometry":{"x":166341.63000000082,"y":2570900.8299999982}},{"attributes":{"ID":114267,"DIS_CODE":0,"TOWNNAME":"學甲區","LI":"秀昌里","LIN":"23鄰","STREET":" ","SECT":" ","MAREA":"煥昌","LANE":" ","ALLEY":" ","HOUSE_NO":"２０號之２８","E_COORD97":166338.76999999999,"N_COORD97":2570897.3999999999,"ADDRESS":"煥昌２０號之２８","OBJECTID":114267},"geometry":{"x":166338.76999999955,"y":2570897.4000000041}},{"attributes":{"ID":114268,"DIS_CODE":0,"TOWNNAME":"學甲區","LI":"秀昌里","LIN":"23鄰","STREET":" ","SECT":" ","MAREA":"煥昌","LANE":" ","ALLEY":" ","HOUSE_NO":"２０號之２","E_COORD97":166306.39000000001,"N_COORD97":2570846.9199999999,"ADDRESS":"煥昌２０號之２","OBJECTID":114268},"geometry":{"x":166306.38999999966,"y":2570846.9200000018}},{"attributes":{"ID":114269,"DIS_CODE":0,"TOWNNAME":"永康區","LI":"新樹里","LIN":"8鄰","STREET":"富強路","SECT":"二段","MAREA":" ","LANE":"５６巷","ALLEY":"５８弄","HOUSE_NO":"５４號","E_COORD97":175838.91,"N_COORD97":2546985.52,"ADDRESS":"富強路二段５６巷５８弄５４號","OBJECTID":114269},"geometry":{"x":175838.90999999922,"y":2546985.5199999996}},{"attributes":{"ID":114270,"DIS_CODE":0,"TOWNNAME":"永康區","LI":"復華里","LIN":"41鄰","STREET":"復華七街","SECT":" ","MAREA":" ","LANE":"３２巷","ALLEY":"２２弄","HOUSE_NO":"１９號","E_COORD97":172639.09,"N_COORD97":2545903.2599999998,"ADDRESS":"復華七街３２巷２２弄１９號","OBJECTID":114270},"geometry":{"x":172639.09000000078,"y":2545903.2599999998}},{"attributes":{"ID":114271,"DIS_CODE":0,"TOWNNAME":"學甲區","LI":"秀昌里","LIN":"23鄰","STREET":" ","SECT":" ","MAREA":"煥昌","LANE":" ","ALLEY":" ","HOUSE_NO":"２０號之３０","E_COORD97":166346.92000000001,"N_COORD97":2570907.75,"ADDRESS":"煥昌２０號之３０","OBJECTID":114271},"geometry":{"x":166346.91999999993,"y":2570907.75}},{"attributes":{"ID":114272,"DIS_CODE":0,"TOWNNAME":"北區","LI":"重興里","LIN":"23鄰","STREET":" ","SECT":" ","MAREA":"自治","LANE":" ","ALLEY":" ","HOUSE_NO":"７９號","E_COORD97":170798.32000000001,"N_COORD97":2544955.8199999998,"ADDRESS":"自治７９號","OBJECTID":114272},"geometry":{"x":170798.32000000216,"y":2544955.8200000022}},{"attributes":{"ID":114273,"DIS_CODE":0,"TOWNNAME":"永康區","LI":"復華里","LIN":"35鄰","STREET":"復華七街","SECT":" ","MAREA":" ","LANE":"３９巷","ALLEY":"４弄","HOUSE_NO":"１４號","E_COORD97":172645.85000000001,"N_COORD97":2546056.7799999998,"ADDRESS":"復華七街３９巷４弄１４號","OBJECTID":114273},"geometry":{"x":172645.85000000056,"y":2546056.7800000012}},{"attributes":{"ID":114274,"DIS_CODE":0,"TOWNNAME":"永康區","LI":"新樹里","LIN":"6鄰","STREET":"西勢路","SECT":" ","MAREA":" ","LANE":"１７４巷","ALLEY":"５弄","HOUSE_NO":"１２號","E_COORD97":175850.79000000001,"N_COORD97":2546806.3900000001,"ADDRESS":"西勢路１７４巷５弄１２號","OBJECTID":114274},"geometry":{"x":175850.79000000004,"y":2546806.3900000025}},{"attributes":{"ID":114275,"DIS_CODE":0,"TOWNNAME":"將軍區","LI":"西和里","LIN":"23鄰","STREET":" ","SECT":" ","MAREA":"西湖","LANE":" ","ALLEY":" ","HOUSE_NO":"８０之３號","E_COORD97":162222.75,"N_COORD97":2566268.75,"ADDRESS":"西湖８０之３號","OBJECTID":114275},"geometry":{"x":162222.75000000093,"y":2566268.75}},{"attributes":{"ID":114276,"DIS_CODE":0,"TOWNNAME":"永康區","LI":"復華里","LIN":"36鄰","STREET":"復華七街","SECT":" ","MAREA":" ","LANE":"３９巷","ALLEY":"９弄","HOUSE_NO":"１號","E_COORD97":172612.20999999999,"N_COORD97":2546010.0299999998,"ADDRESS":"復華七街３９巷９弄１號","OBJECTID":114276},"geometry":{"x":172612.20999999996,"y":2546010.0300000031}},{"attributes":{"ID":114277,"DIS_CODE":0,"TOWNNAME":"將軍區","LI":"西和里","LIN":"23鄰","STREET":" ","SECT":" ","MAREA":"西湖","LANE":" ","ALLEY":" ","HOUSE_NO":"８０號","E_COORD97":162201.45999999999,"N_COORD97":2566180.0099999998,"ADDRESS":"西湖８０號","OBJECTID":114277},"geometry":{"x":162201.46000000089,"y":2566180.0100000035}},{"attributes":{"ID":114278,"DIS_CODE":0,"TOWNNAME":"東山區","LI":"高原里","LIN":"1鄰","STREET":" ","SECT":" ","MAREA":"高原","LANE":" ","ALLEY":" ","HOUSE_NO":"２號","E_COORD97":195818.95999999999,"N_COORD97":2575591.1499999999,"ADDRESS":"高原２號","OBJECTID":114278},"geometry":{"x":195818.95999999996,"y":2575591.1500000004}},{"attributes":{"ID":114279,"DIS_CODE":0,"TOWNNAME":"安定區","LI":"蘇林里","LIN":"23鄰","STREET":" ","SECT":" ","MAREA":"蘇厝","LANE":" ","ALLEY":" ","HOUSE_NO":"２６１之２號","E_COORD97":173328.19,"N_COORD97":2558736.2999999998,"ADDRESS":"蘇厝２６１號之２","OBJECTID":114279},"geometry":{"x":173328.19000000041,"y":2558736.3000000007}},{"attributes":{"ID":114280,"DIS_CODE":0,"TOWNNAME":"永康區","LI":"新樹里","LIN":"6鄰","STREET":"西勢路","SECT":" ","MAREA":" ","LANE":"１７４巷","ALLEY":"７弄","HOUSE_NO":"１０號","E_COORD97":175877.35000000001,"N_COORD97":2546846.2000000002,"ADDRESS":"西勢路１７４巷７弄１０號","OBJECTID":114280},"geometry":{"x":175877.34999999963,"y":2546846.200000003}},{"attributes":{"ID":114281,"DIS_CODE":0,"TOWNNAME":"安定區","LI":"蘇林里","LIN":"23鄰","STREET":" ","SECT":" ","MAREA":"蘇厝","LANE":" ","ALLEY":" ","HOUSE_NO":"２６７號","E_COORD97":173374.41,"N_COORD97":2558693.4500000002,"ADDRESS":"蘇厝２６７號","OBJECTID":114281},"geometry":{"x":173374.41000000108,"y":2558693.4499999993}},{"attributes":{"ID":114282,"DIS_CODE":0,"TOWNNAME":"永康區","LI":"復興里","LIN":"30鄰","STREET":"復興路","SECT":" ","MAREA":" ","LANE":"３５６巷","ALLEY":"８０弄","HOUSE_NO":"１４７號","E_COORD97":172566.31,"N_COORD97":2544630.27,"ADDRESS":"復興路３５６巷８０弄１４７號","OBJECTID":114282},"geometry":{"x":172566.31000000052,"y":2544630.2700000014}},{"attributes":{"ID":114283,"DIS_CODE":0,"TOWNNAME":"永康區","LI":"網寮里","LIN":"17鄰","STREET":"永興路","SECT":" ","MAREA":" ","LANE":"４２７巷","ALLEY":"２弄","HOUSE_NO":"２３之１號","E_COORD97":173240.37,"N_COORD97":2546827.7999999998,"ADDRESS":"永興路４２７巷２弄２３之１號","OBJECTID":114283},"geometry":{"x":173240.37000000011,"y":2546827.8000000026}},{"attributes":{"ID":114284,"DIS_CODE":0,"TOWNNAME":"永康區","LI":"新樹里","LIN":"8鄰","STREET":"富強路","SECT":"二段","MAREA":" ","LANE":"５６巷","ALLEY":"１９弄","HOUSE_NO":"４號","E_COORD97":175781.95000000001,"N_COORD97":2547010.1200000001,"ADDRESS":"富強路二段５６巷１９弄４號","OBJECTID":114284},"geometry":{"x":175781.95000000112,"y":2547010.120000001}},{"attributes":{"ID":114285,"DIS_CODE":0,"TOWNNAME":"安定區","LI":"蘇林里","LIN":"23鄰","STREET":" ","SECT":" ","MAREA":"蘇厝","LANE":" ","ALLEY":" ","HOUSE_NO":"２６０之５號","E_COORD97":173357.62,"N_COORD97":2558716.2999999998,"ADDRESS":"蘇厝２６０之５號","OBJECTID":114285},"geometry":{"x":173357.62000000197,"y":2558716.3000000007}},{"attributes":{"ID":114286,"DIS_CODE":0,"TOWNNAME":"安定區","LI":"蘇林里","LIN":"23鄰","STREET":" ","SECT":" ","MAREA":"蘇厝","LANE":" ","ALLEY":" ","HOUSE_NO":"２５９之３號","E_COORD97":173360.12,"N_COORD97":2558689.2999999998,"ADDRESS":"蘇厝２５９之３號","OBJECTID":114286},"geometry":{"x":173360.12000000011,"y":2558689.3000000007}},{"attributes":{"ID":114287,"DIS_CODE":0,"TOWNNAME":"永康區","LI":"西勢里","LIN":"28鄰","STREET":"廣興街","SECT":" ","MAREA":" ","LANE":"３８巷","ALLEY":"３４弄","HOUSE_NO":"１號四樓","E_COORD97":176062.76999999999,"N_COORD97":2546424.3399999999,"ADDRESS":"廣興街３８巷３４弄１號四樓","OBJECTID":114287},"geometry":{"x":176062.76999999955,"y":2546424.3399999999}},{"attributes":{"ID":114288,"DIS_CODE":0,"TOWNNAME":"永康區","LI":"烏竹里","LIN":"1鄰","STREET":"龍橋街","SECT":" ","MAREA":" ","LANE":"４８６巷","ALLEY":" ","HOUSE_NO":"９號","E_COORD97":174467.13,"N_COORD97":2549402.2400000002,"ADDRESS":"龍橋街４８６巷９號","OBJECTID":114288},"geometry":{"x":174467.12999999989,"y":2549402.2400000002}},{"attributes":{"ID":114289,"DIS_CODE":0,"TOWNNAME":"楠西區","LI":"東勢里","LIN":"15鄰","STREET":"中正路","SECT":" ","MAREA":" ","LANE":" ","ALLEY":" ","HOUSE_NO":"２１３號","E_COORD97":197394.56,"N_COORD97":2563763.25,"ADDRESS":"中正路２１３號","OBJECTID":114289},"geometry":{"x":197394.55999999959,"y":2563763.25}},{"attributes":{"ID":114290,"DIS_CODE":0,"TOWNNAME":"楠西區","LI":"楠西里","LIN":"15鄰","STREET":"中興南路","SECT":" ","MAREA":" ","LANE":" ","ALLEY":" ","HOUSE_NO":"１３６號","E_COORD97":197174.51000000001,"N_COORD97":2564042.25,"ADDRESS":"中興南路１３６號","OBJECTID":114290},"geometry":{"x":197174.50999999978,"y":2564042.25}},{"attributes":{"ID":114291,"DIS_CODE":0,"TOWNNAME":"楠西區","LI":"東勢里","LIN":"15鄰","STREET":"中正路","SECT":" ","MAREA":" ","LANE":" ","ALLEY":" ","HOUSE_NO":"２２５號","E_COORD97":197404.56,"N_COORD97":2563738.25,"ADDRESS":"中正路２２５號","OBJECTID":114291},"geometry":{"x":197404.55999999959,"y":2563738.2500000019}},{"attributes":{"ID":114292,"DIS_CODE":0,"TOWNNAME":"楠西區","LI":"東勢里","LIN":"15鄰","STREET":"中正路","SECT":" ","MAREA":" ","LANE":" ","ALLEY":" ","HOUSE_NO":"２７３號","E_COORD97":197447.56,"N_COORD97":2563617.25,"ADDRESS":"中正路２７３號","OBJECTID":114292},"geometry":{"x":197447.55999999959,"y":2563617.25}},{"attributes":{"ID":114293,"DIS_CODE":0,"TOWNNAME":"楠西區","LI":"東勢里","LIN":"15鄰","STREET":"中正路","SECT":" ","MAREA":" ","LANE":" ","ALLEY":" ","HOUSE_NO":"２３５號","E_COORD97":197413.16,"N_COORD97":2563714.25,"ADDRESS":"中正路２３５號","OBJECTID":114293},"geometry":{"x":197413.16000000015,"y":2563714.2500000019}},{"attributes":{"ID":114294,"DIS_CODE":0,"TOWNNAME":"永康區","LI":"西勢里","LIN":"28鄰","STREET":"廣興街","SECT":" ","MAREA":" ","LANE":"３８巷","ALLEY":"３４弄","HOUSE_NO":"３９號三樓","E_COORD97":176022.98999999999,"N_COORD97":2546350.1800000002,"ADDRESS":"廣興街３８巷３４弄３９號三樓","OBJECTID":114294},"geometry":{"x":176022.99000000022,"y":2546350.1800000016}},{"attributes":{"ID":114295,"DIS_CODE":0,"TOWNNAME":"永康區","LI":"西勢里","LIN":"28鄰","STREET":"廣興街","SECT":" ","MAREA":" ","LANE":"３８巷","ALLEY":"３４弄","HOUSE_NO":"１號二樓","E_COORD97":176062.76999999999,"N_COORD97":2546424.3399999999,"ADDRESS":"廣興街３８巷３４弄１號二樓","OBJECTID":114295},"geometry":{"x":176062.76999999955,"y":2546424.3399999999}},{"attributes":{"ID":114296,"DIS_CODE":0,"TOWNNAME":"永康區","LI":"西勢里","LIN":"28鄰","STREET":"廣興街","SECT":" ","MAREA":" ","LANE":"３８巷","ALLEY":"３４弄","HOUSE_NO":"３７號四樓","E_COORD97":176030.92999999999,"N_COORD97":2546338.0099999998,"ADDRESS":"廣興街３８巷３４弄３７號四樓","OBJECTID":114296},"geometry":{"x":176030.9299999997,"y":2546338.0099999998}},{"attributes":{"ID":114297,"DIS_CODE":0,"TOWNNAME":"永康區","LI":"西勢里","LIN":"28鄰","STREET":"廣興街","SECT":" ","MAREA":" ","LANE":"３８巷","ALLEY":"３４弄","HOUSE_NO":"３９號四樓","E_COORD97":176022.98999999999,"N_COORD97":2546350.1800000002,"ADDRESS":"廣興街３８巷３４弄３９號四樓","OBJECTID":114297},"geometry":{"x":176022.99000000022,"y":2546350.1800000016}},{"attributes":{"ID":114298,"DIS_CODE":0,"TOWNNAME":"永康區","LI":"西勢里","LIN":"28鄰","STREET":"廣興街","SECT":" ","MAREA":" ","LANE":"３８巷","ALLEY":"３４弄","HOUSE_NO":"３７號一樓","E_COORD97":176030.92999999999,"N_COORD97":2546338.0099999998,"ADDRESS":"廣興街３８巷３４弄３７號一樓","OBJECTID":114298},"geometry":{"x":176030.9299999997,"y":2546338.0099999998}},{"attributes":{"ID":114299,"DIS_CODE":0,"TOWNNAME":"永康區","LI":"西勢里","LIN":"28鄰","STREET":"廣興街","SECT":" ","MAREA":" ","LANE":"３８巷","ALLEY":"３４弄","HOUSE_NO":"３９號二樓","E_COORD97":176022.98999999999,"N_COORD97":2546350.1800000002,"ADDRESS":"廣興街３８巷３４弄３９號二樓","OBJECTID":114299},"geometry":{"x":176022.99000000022,"y":2546350.1800000016}},{"attributes":{"ID":114300,"DIS_CODE":0,"TOWNNAME":"永康區","LI":"西勢里","LIN":"28鄰","STREET":"廣興街","SECT":" ","MAREA":" ","LANE":"３８巷","ALLEY":"３４弄","HOUSE_NO":"３７號三樓","E_COORD97":176030.92999999999,"N_COORD97":2546338.0099999998,"ADDRESS":"廣興街３８巷３４弄３７號三樓","OBJECTID":114300},"geometry":{"x":176030.9299999997,"y":2546338.0099999998}},{"attributes":{"ID":114301,"DIS_CODE":0,"TOWNNAME":"永康區","LI":"西勢里","LIN":"28鄰","STREET":"廣興街","SECT":" ","MAREA":" ","LANE":"３８巷","ALLEY":"３４弄","HOUSE_NO":"３９號一樓","E_COORD97":176022.98999999999,"N_COORD97":2546350.1800000002,"ADDRESS":"廣興街３８巷３４弄３９號一樓","OBJECTID":114301},"geometry":{"x":176022.99000000022,"y":2546350.1800000016}},{"attributes":{"ID":114302,"DIS_CODE":0,"TOWNNAME":"永康區","LI":"復華里","LIN":"35鄰","STREET":"復華七街","SECT":" ","MAREA":" ","LANE":"３９巷","ALLEY":"２弄","HOUSE_NO":"１４號","E_COORD97":172668.98999999999,"N_COORD97":2546027.9300000002,"ADDRESS":"復華七街３９巷２弄１４號","OBJECTID":114302},"geometry":{"x":172668.99000000115,"y":2546027.9299999978}},{"attributes":{"ID":114303,"DIS_CODE":0,"TOWNNAME":"永康區","LI":"新樹里","LIN":"6鄰","STREET":"西勢路","SECT":" ","MAREA":" ","LANE":"１７４巷","ALLEY":"７弄","HOUSE_NO":"１５號","E_COORD97":175831.69,"N_COORD97":2546830.8999999999,"ADDRESS":"西勢路１７４巷７弄１５號","OBJECTID":114303},"geometry":{"x":175831.69000000041,"y":2546830.9000000004}},{"attributes":{"ID":114304,"DIS_CODE":0,"TOWNNAME":"永康區","LI":"復國里","LIN":"28鄰","STREET":"復國一路","SECT":" ","MAREA":" ","LANE":"２３７巷","ALLEY":"９弄","HOUSE_NO":"６號","E_COORD97":172701.06,"N_COORD97":2545381.0299999998,"ADDRESS":"復國一路２３７巷９弄６號","OBJECTID":114304},"geometry":{"x":172701.05999999959,"y":2545381.0300000012}},{"attributes":{"ID":114305,"DIS_CODE":0,"TOWNNAME":"永康區","LI":"二王里","LIN":"28鄰","STREET":"中山南路","SECT":" ","MAREA":" ","LANE":"５４４巷","ALLEY":"５６弄","HOUSE_NO":"９號","E_COORD97":172293.44,"N_COORD97":2546389.1099999999,"ADDRESS":"中山南路５４４巷５６弄９號","OBJECTID":114305},"geometry":{"x":172293.44000000134,"y":2546389.1099999975}},{"attributes":{"ID":114306,"DIS_CODE":0,"TOWNNAME":"永康區","LI":"大灣里","LIN":"28鄰","STREET":"民族路","SECT":" ","MAREA":" ","LANE":"１９０巷","ALLEY":"１４弄","HOUSE_NO":"３號","E_COORD97":175255.42000000001,"N_COORD97":2545063.29,"ADDRESS":"民族路１９０巷１４弄３號","OBJECTID":114306},"geometry":{"x":175255.41999999993,"y":2545063.290000001}},{"attributes":{"ID":114307,"DIS_CODE":0,"TOWNNAME":"永康區","LI":"復興里","LIN":"4鄰","STREET":"復興路","SECT":" ","MAREA":" ","LANE":"４２３巷","ALLEY":"８５弄","HOUSE_NO":"１１號","E_COORD97":172274.20999999999,"N_COORD97":2544210.77,"ADDRESS":"復興路４２３巷８５弄１１號","OBJECTID":114307},"geometry":{"x":172274.21000000089,"y":2544210.7699999996}},{"attributes":{"ID":114308,"DIS_CODE":0,"TOWNNAME":"永康區","LI":"網寮里","LIN":"17鄰","STREET":"永興路","SECT":" ","MAREA":" ","LANE":"４２７巷","ALLEY":"２弄","HOUSE_NO":"１號","E_COORD97":173254.72,"N_COORD97":2546857.7599999998,"ADDRESS":"永興路４２７巷２弄１號","OBJECTID":114308},"geometry":{"x":173254.7200000016,"y":2546857.7600000016}},{"attributes":{"ID":114309,"DIS_CODE":0,"TOWNNAME":"永康區","LI":"新樹里","LIN":"6鄰","STREET":"西勢路","SECT":" ","MAREA":" ","LANE":"１７４巷","ALLEY":"７弄","HOUSE_NO":"１４號","E_COORD97":175868.48999999999,"N_COORD97":2546845.9500000002,"ADDRESS":"西勢路１７４巷７弄１４號","OBJECTID":114309},"geometry":{"x":175868.49000000022,"y":2546845.9500000011}},{"attributes":{"ID":114310,"DIS_CODE":0,"TOWNNAME":"東區","LI":"富強里","LIN":"28鄰","STREET":"東門路","SECT":"二段","MAREA":" ","LANE":"３６５巷","ALLEY":"３４弄","HOUSE_NO":"１１號","E_COORD97":170909.98000000001,"N_COORD97":2542689.9300000002,"ADDRESS":"東門路二段３６５巷３４弄１１號","OBJECTID":114310},"geometry":{"x":170909.98000000138,"y":2542689.9300000016}},{"attributes":{"ID":114311,"DIS_CODE":0,"TOWNNAME":"永康區","LI":"復興里","LIN":"26鄰","STREET":"復興路","SECT":" ","MAREA":" ","LANE":"４２３巷","ALLEY":"８５弄","HOUSE_NO":"３８號","E_COORD97":172275.98999999999,"N_COORD97":2544194.02,"ADDRESS":"復興路４２３巷８５弄３８號","OBJECTID":114311},"geometry":{"x":172275.99000000115,"y":2544194.0200000014}},{"attributes":{"ID":114312,"DIS_CODE":0,"TOWNNAME":"東區","LI":"富強里","LIN":"28鄰","STREET":"東門路","SECT":"二段","MAREA":" ","LANE":"３６５巷","ALLEY":"３４弄","HOUSE_NO":"１３號","E_COORD97":170917.67999999999,"N_COORD97":2542691.1299999999,"ADDRESS":"東門路二段３６５巷３４弄１３號","OBJECTID":114312},"geometry":{"x":170917.68000000063,"y":2542691.1300000008}},{"attributes":{"ID":114313,"DIS_CODE":0,"TOWNNAME":"新化區","LI":"武安里","LIN":"14鄰","STREET":"健康路","SECT":" ","MAREA":" ","LANE":" ","ALLEY":" ","HOUSE_NO":"８２號","E_COORD97":178837.88,"N_COORD97":2548126.2599999998,"ADDRESS":"健康路８２號","OBJECTID":114313},"geometry":{"x":178837.88000000175,"y":2548126.2600000016}},{"attributes":{"ID":114314,"DIS_CODE":0,"TOWNNAME":"安南區","LI":"公\u25A0里","LIN":"1鄰","STREET":"公學路","SECT":"五段","MAREA":" ","LANE":" ","ALLEY":" ","HOUSE_NO":"３００號","E_COORD97":164566.22,"N_COORD97":2552314.4199999999,"ADDRESS":"公學路五段３００號","OBJECTID":114314},"geometry":{"x":164566.21999999974,"y":2552314.4200000037}},{"attributes":{"ID":114315,"DIS_CODE":0,"TOWNNAME":"安南區","LI":"公\u25A0里","LIN":"1鄰","STREET":"公學路","SECT":"五段","MAREA":" ","LANE":" ","ALLEY":" ","HOUSE_NO":"３１６號","E_COORD97":164549.23999999999,"N_COORD97":2552353.27,"ADDRESS":"公學路五段３１６號","OBJECTID":114315},"geometry":{"x":164549.24000000115,"y":2552353.2700000014}},{"attributes":{"ID":114316,"DIS_CODE":0,"TOWNNAME":"安定區","LI":"蘇林里","LIN":"23鄰","STREET":" ","SECT":" ","MAREA":"蘇厝","LANE":" ","ALLEY":" ","HOUSE_NO":"２６１號","E_COORD97":173360.22,"N_COORD97":2558732.25,"ADDRESS":"蘇厝２６１號","OBJECTID":114316},"geometry":{"x":173360.22000000067,"y":2558732.25}},{"attributes":{"ID":114317,"DIS_CODE":0,"TOWNNAME":"安定區","LI":"蘇林里","LIN":"23鄰","STREET":" ","SECT":" ","MAREA":"蘇厝","LANE":" ","ALLEY":" ","HOUSE_NO":"２６０之２號","E_COORD97":173358.82000000001,"N_COORD97":2558703.2999999998,"ADDRESS":"蘇厝２６０之２號","OBJECTID":114317},"geometry":{"x":173358.82000000123,"y":2558703.3000000045}},{"attributes":{"ID":114318,"DIS_CODE":0,"TOWNNAME":"安南區","LI":"公\u25A0里","LIN":"1鄰","STREET":"公學路","SECT":"五段","MAREA":" ","LANE":" ","ALLEY":" ","HOUSE_NO":"３１８號","E_COORD97":164542.66,"N_COORD97":2552342.3300000001,"ADDRESS":"公學路五段３１８號","OBJECTID":114318},"geometry":{"x":164542.66000000108,"y":2552342.3300000038}},{"attributes":{"ID":114319,"DIS_CODE":0,"TOWNNAME":"安南區","LI":"公\u25A0里","LIN":"1鄰","STREET":"公學路","SECT":"五段","MAREA":" ","LANE":" ","ALLEY":" ","HOUSE_NO":"３２９號","E_COORD97":164473.07000000001,"N_COORD97":2552314.96,"ADDRESS":"公學路五段３２９號","OBJECTID":114319},"geometry":{"x":164473.0700000003,"y":2552314.9600000046}},{"attributes":{"ID":114320,"DIS_CODE":0,"TOWNNAME":"安定區","LI":"蘇林里","LIN":"23鄰","STREET":" ","SECT":" ","MAREA":"蘇厝","LANE":" ","ALLEY":" ","HOUSE_NO":"２６６號","E_COORD97":173406.01999999999,"N_COORD97":2558641.25,"ADDRESS":"蘇厝２６６號","OBJECTID":114320},"geometry":{"x":173406.01999999955,"y":2558641.25}},{"attributes":{"ID":114321,"DIS_CODE":0,"TOWNNAME":"安定區","LI":"蘇林里","LIN":"23鄰","STREET":" ","SECT":" ","MAREA":"蘇厝","LANE":" ","ALLEY":" ","HOUSE_NO":"２６５號之１","E_COORD97":173387.35000000001,"N_COORD97":2558668.29,"ADDRESS":"蘇厝２６５號之１","OBJECTID":114321},"geometry":{"x":173387.34999999963,"y":2558668.290000001}},{"attributes":{"ID":114322,"DIS_CODE":0,"TOWNNAME":"安定區","LI":"蘇林里","LIN":"23鄰","STREET":" ","SECT":" ","MAREA":"蘇厝","LANE":" ","ALLEY":" ","HOUSE_NO":"２５９之２號","E_COORD97":173360.62,"N_COORD97":2558686.2999999998,"ADDRESS":"蘇厝２５９之２號","OBJECTID":114322},"geometry":{"x":173360.62000000011,"y":2558686.3000000045}},{"attributes":{"ID":114323,"DIS_CODE":0,"TOWNNAME":"安定區","LI":"蘇林里","LIN":"23鄰","STREET":" ","SECT":" ","MAREA":"蘇厝","LANE":" ","ALLEY":" ","HOUSE_NO":"２６７號之３","E_COORD97":173386.35000000001,"N_COORD97":2558704.2999999998,"ADDRESS":"蘇厝２６７號之３","OBJECTID":114323},"geometry":{"x":173386.35000000056,"y":2558704.3000000026}},{"attributes":{"ID":114324,"DIS_CODE":0,"TOWNNAME":"安定區","LI":"蘇林里","LIN":"23鄰","STREET":" ","SECT":" ","MAREA":"蘇厝","LANE":" ","ALLEY":" ","HOUSE_NO":"２６７號之１","E_COORD97":173406.72,"N_COORD97":2558692.2999999998,"ADDRESS":"蘇厝２６７之１號","OBJECTID":114324},"geometry":{"x":173406.71999999974,"y":2558692.3000000007}},{"attributes":{"ID":114325,"DIS_CODE":0,"TOWNNAME":"安南區","LI":"公\u25A0里","LIN":"1鄰","STREET":"安興街","SECT":" ","MAREA":" ","LANE":" ","ALLEY":" ","HOUSE_NO":"３６號","E_COORD97":164379.12,"N_COORD97":2552293.77,"ADDRESS":"安興街３６號","OBJECTID":114325},"geometry":{"x":164379.12000000011,"y":2552293.7699999996}},{"attributes":{"ID":114326,"DIS_CODE":0,"TOWNNAME":"安定區","LI":"蘇林里","LIN":"23鄰","STREET":" ","SECT":" ","MAREA":"蘇厝","LANE":" ","ALLEY":" ","HOUSE_NO":"２６０之４號","E_COORD97":173358.01999999999,"N_COORD97":2558712.2999999998,"ADDRESS":"蘇厝２６０之４號","OBJECTID":114326},"geometry":{"x":173358.02000000048,"y":2558712.3000000007}},{"attributes":{"ID":114327,"DIS_CODE":0,"TOWNNAME":"安定區","LI":"蘇林里","LIN":"23鄰","STREET":" ","SECT":" ","MAREA":"蘇厝","LANE":" ","ALLEY":" ","HOUSE_NO":"２５９之１號","E_COORD97":173360.82000000001,"N_COORD97":2558681.2999999998,"ADDRESS":"蘇厝２５９之１號","OBJECTID":114327},"geometry":{"x":173360.8200000003,"y":2558681.3000000026}},{"attributes":{"ID":114328,"DIS_CODE":0,"TOWNNAME":"安定區","LI":"蘇林里","LIN":"23鄰","STREET":" ","SECT":" ","MAREA":"蘇厝","LANE":" ","ALLEY":" ","HOUSE_NO":"２６０之６號","E_COORD97":173357.42000000001,"N_COORD97":2558721.2999999998,"ADDRESS":"蘇厝２６０之６號","OBJECTID":114328},"geometry":{"x":173357.42000000086,"y":2558721.3000000026}},{"attributes":{"ID":114329,"DIS_CODE":0,"TOWNNAME":"柳營區","LI":"太康里","LIN":"16鄰","STREET":" ","SECT":" ","MAREA":"太康","LANE":" ","ALLEY":" ","HOUSE_NO":"１４９號","E_COORD97":181870.04999999999,"N_COORD97":2576454.1600000001,"ADDRESS":"太康１４９號","OBJECTID":114329},"geometry":{"x":181870.05000000075,"y":2576454.1600000001}},{"attributes":{"ID":114330,"DIS_CODE":0,"TOWNNAME":"安南區","LI":"公\u25A0里","LIN":"1鄰","STREET":"安興街","SECT":" ","MAREA":" ","LANE":" ","ALLEY":" ","HOUSE_NO":"８號","E_COORD97":164434.72,"N_COORD97":2552345.6099999999,"ADDRESS":"安興街８號","OBJECTID":114330},"geometry":{"x":164434.7200000016,"y":2552345.6099999994}},{"attributes":{"ID":114331,"DIS_CODE":0,"TOWNNAME":"安南區","LI":"南興里","LIN":"1鄰","STREET":"安中路","SECT":"五段","MAREA":" ","LANE":" ","ALLEY":" ","HOUSE_NO":"３４０號","E_COORD97":162596.70000000001,"N_COORD97":2551123.2000000002,"ADDRESS":"安中路五段３４０號","OBJECTID":114331},"geometry":{"x":162596.70000000112,"y":2551123.2000000011}},{"attributes":{"ID":114332,"DIS_CODE":0,"TOWNNAME":"安南區","LI":"南興里","LIN":"1鄰","STREET":"安中路","SECT":"五段","MAREA":" ","LANE":" ","ALLEY":" ","HOUSE_NO":"３９０號","E_COORD97":162557.31,"N_COORD97":2551125.25,"ADDRESS":"安中路五段３９０號","OBJECTID":114332},"geometry":{"x":162557.31000000145,"y":2551125.2499999981}},{"attributes":{"ID":114333,"DIS_CODE":0,"TOWNNAME":"安南區","LI":"南興里","LIN":"1鄰","STREET":"安中路","SECT":"五段","MAREA":" ","LANE":" ","ALLEY":" ","HOUSE_NO":"４２０號","E_COORD97":162446.67000000001,"N_COORD97":2551177.1800000002,"ADDRESS":"安中路五段４２０號","OBJECTID":114333},"geometry":{"x":162446.67000000179,"y":2551177.1800000016}},{"attributes":{"ID":114334,"DIS_CODE":0,"TOWNNAME":"安南區","LI":"南興里","LIN":"1鄰","STREET":"安中路","SECT":"五段","MAREA":" ","LANE":" ","ALLEY":" ","HOUSE_NO":"４２２號","E_COORD97":162440.67999999999,"N_COORD97":2551178.8900000001,"ADDRESS":"安中路五段４２２號","OBJECTID":114334},"geometry":{"x":162440.6799999997,"y":2551178.8900000006}},{"attributes":{"ID":114335,"DIS_CODE":0,"TOWNNAME":"永康區","LI":"復華里","LIN":"13鄰","STREET":"國華街","SECT":" ","MAREA":" ","LANE":"９６巷","ALLEY":"１９弄","HOUSE_NO":"１１號","E_COORD97":172941.66,"N_COORD97":2545965.8399999999,"ADDRESS":"國華街９６巷１９弄１１號","OBJECTID":114335},"geometry":{"x":172941.66000000015,"y":2545965.8400000017}},{"attributes":{"ID":114336,"DIS_CODE":0,"TOWNNAME":"東區","LI":"崇誨里","LIN":"28鄰","STREET":"裕豐街","SECT":" ","MAREA":" ","LANE":"１８５巷","ALLEY":"２６弄","HOUSE_NO":"５號","E_COORD97":170691.37,"N_COORD97":2543218.4300000002,"ADDRESS":"裕豐街１８５巷２６弄５號","OBJECTID":114336},"geometry":{"x":170691.37000000104,"y":2543218.4300000016}},{"attributes":{"ID":114337,"DIS_CODE":0,"TOWNNAME":"永康區","LI":"大灣里","LIN":"28鄰","STREET":"民族路","SECT":" ","MAREA":" ","LANE":"１９０巷","ALLEY":"１４弄","HOUSE_NO":"１２號","E_COORD97":175255.48999999999,"N_COORD97":2544998.2999999998,"ADDRESS":"民族路１９０巷１４弄１２號","OBJECTID":114337},"geometry":{"x":175255.49000000209,"y":2544998.3000000007}},{"attributes":{"ID":114338,"DIS_CODE":0,"TOWNNAME":"永康區","LI":"二王里","LIN":"28鄰","STREET":"中山南路","SECT":" ","MAREA":" ","LANE":"５４４巷","ALLEY":"６０弄","HOUSE_NO":"２號","E_COORD97":172318.76999999999,"N_COORD97":2546359.8599999999,"ADDRESS":"中山南路５４４巷６０弄２號","OBJECTID":114338},"geometry":{"x":172318.77000000048,"y":2546359.8599999994}},{"attributes":{"ID":114339,"DIS_CODE":0,"TOWNNAME":"永康區","LI":"大灣里","LIN":"28鄰","STREET":"民族路","SECT":" ","MAREA":" ","LANE":"１９０巷","ALLEY":"２弄","HOUSE_NO":"７號","E_COORD97":175178.29999999999,"N_COORD97":2545053.6000000001,"ADDRESS":"民族路１９０巷２弄７號","OBJECTID":114339},"geometry":{"x":175178.30000000168,"y":2545053.5999999978}},{"attributes":{"ID":114340,"DIS_CODE":0,"TOWNNAME":"永康區","LI":"二王里","LIN":"28鄰","STREET":"中山南路","SECT":" ","MAREA":" ","LANE":"５４４巷","ALLEY":"６０弄","HOUSE_NO":"４號","E_COORD97":172312.85999999999,"N_COORD97":2546359.6099999999,"ADDRESS":"中山南路５４４巷６０弄４號","OBJECTID":114340},"geometry":{"x":172312.86000000034,"y":2546359.6100000013}},{"attributes":{"ID":114341,"DIS_CODE":0,"TOWNNAME":"新市區","LI":"新和里","LIN":"28鄰","STREET":"永福街","SECT":" ","MAREA":" ","LANE":"１６巷","ALLEY":"３２弄","HOUSE_NO":"１２號","E_COORD97":177844.42000000001,"N_COORD97":2552752,"ADDRESS":"永福街１６巷３２弄１２號","OBJECTID":114341},"geometry":{"x":177844.42000000086,"y":2552752.0000000019}},{"attributes":{"ID":114342,"DIS_CODE":0,"TOWNNAME":"新市區","LI":"港墘里","LIN":"28鄰","STREET":"華美街","SECT":" ","MAREA":" ","LANE":"６１巷","ALLEY":"１６弄","HOUSE_NO":"３號","E_COORD97":178115.54000000001,"N_COORD97":2553061.2999999998,"ADDRESS":"華美街６１巷１６弄３號","OBJECTID":114342},"geometry":{"x":178115.54000000004,"y":2553061.3000000007}},{"attributes":{"ID":114343,"DIS_CODE":0,"TOWNNAME":"安南區","LI":"南興里","LIN":"1鄰","STREET":"安中路","SECT":"五段","MAREA":" ","LANE":" ","ALLEY":" ","HOUSE_NO":"４３０號","E_COORD97":162443.75,"N_COORD97":2551227.9300000002,"ADDRESS":"安中路五段４３０號","OBJECTID":114343},"geometry":{"x":162443.75,"y":2551227.9299999997}},{"attributes":{"ID":114344,"DIS_CODE":0,"TOWNNAME":"新市區","LI":"港墘里","LIN":"28鄰","STREET":"華美街","SECT":" ","MAREA":" ","LANE":"６１巷","ALLEY":"１６弄","HOUSE_NO":"１號","E_COORD97":178114.84,"N_COORD97":2553057.2999999998,"ADDRESS":"華美街６１巷１６弄１號","OBJECTID":114344},"geometry":{"x":178114.84000000078,"y":2553057.3000000007}},{"attributes":{"ID":114345,"DIS_CODE":0,"TOWNNAME":"新市區","LI":"港墘里","LIN":"28鄰","STREET":"華美街","SECT":" ","MAREA":" ","LANE":"６１巷","ALLEY":"１６弄","HOUSE_NO":"４號","E_COORD97":178105.64999999999,"N_COORD97":2553062.2999999998,"ADDRESS":"華美街６１巷１６弄４號","OBJECTID":114345},"geometry":{"x":178105.65000000037,"y":2553062.3000000026}},{"attributes":{"ID":114346,"DIS_CODE":0,"TOWNNAME":"新市區","LI":"港墘里","LIN":"28鄰","STREET":"華美街","SECT":" ","MAREA":" ","LANE":"６１巷","ALLEY":"１６弄","HOUSE_NO":"２號","E_COORD97":178104.26000000001,"N_COORD97":2553056.5499999998,"ADDRESS":"華美街６１巷１６弄２號","OBJECTID":114346},"geometry":{"x":178104.25999999978,"y":2553056.5500000045}},{"attributes":{"ID":114347,"DIS_CODE":0,"TOWNNAME":"新市區","LI":"新和里","LIN":"28鄰","STREET":"永福街","SECT":" ","MAREA":" ","LANE":"１６巷","ALLEY":"３２弄","HOUSE_NO":"１４號","E_COORD97":177848.95999999999,"N_COORD97":2552751,"ADDRESS":"永福街１６巷３２弄１４號","OBJECTID":114347},"geometry":{"x":177848.96000000183,"y":2552751.0000000037}},{"attributes":{"ID":114348,"DIS_CODE":0,"TOWNNAME":"新市區","LI":"新和里","LIN":"28鄰","STREET":"永福街","SECT":" ","MAREA":" ","LANE":"１６巷","ALLEY":"３２弄","HOUSE_NO":"１６號","E_COORD97":177853.76000000001,"N_COORD97":2552750,"ADDRESS":"永福街１６巷３２弄１６號","OBJECTID":114348},"geometry":{"x":177853.76000000071,"y":2552750}},{"attributes":{"ID":114349,"DIS_CODE":0,"TOWNNAME":"安南區","LI":"南興里","LIN":"1鄰","STREET":"安中路","SECT":"五段","MAREA":" ","LANE":" ","ALLEY":" ","HOUSE_NO":"４４６號","E_COORD97":162402.94,"N_COORD97":2551200.48,"ADDRESS":"安中路五段４４６號","OBJECTID":114349},"geometry":{"x":162402.93999999948,"y":2551200.4800000023}},{"attributes":{"ID":114350,"DIS_CODE":0,"TOWNNAME":"柳營區","LI":"太康里","LIN":"16鄰","STREET":" ","SECT":" ","MAREA":"太康","LANE":" ","ALLEY":" ","HOUSE_NO":"１５１之１號","E_COORD97":181819.98999999999,"N_COORD97":2576491.6899999999,"ADDRESS":"太康１５１之１號","OBJECTID":114350},"geometry":{"x":181819.99000000115,"y":2576491.6899999995}},{"attributes":{"ID":114351,"DIS_CODE":0,"TOWNNAME":"柳營區","LI":"太康里","LIN":"16鄰","STREET":" ","SECT":" ","MAREA":"太康","LANE":" ","ALLEY":" ","HOUSE_NO":"１５１之２號","E_COORD97":181864.38,"N_COORD97":2576463.0499999998,"ADDRESS":"太康１５１之２號","OBJECTID":114351},"geometry":{"x":181864.38000000082,"y":2576463.0500000007}},{"attributes":{"ID":114352,"DIS_CODE":0,"TOWNNAME":"柳營區","LI":"太康里","LIN":"16鄰","STREET":" ","SECT":" ","MAREA":"太康","LANE":" ","ALLEY":" ","HOUSE_NO":"１５１號","E_COORD97":181884.10999999999,"N_COORD97":2576475.6499999999,"ADDRESS":"太康１５１號","OBJECTID":114352},"geometry":{"x":181884.11000000034,"y":2576475.6500000004}},{"attributes":{"ID":114353,"DIS_CODE":0,"TOWNNAME":"柳營區","LI":"太康里","LIN":"16鄰","STREET":" ","SECT":" ","MAREA":"太康","LANE":" ","ALLEY":" ","HOUSE_NO":"１５２之１號","E_COORD97":181835.01000000001,"N_COORD97":2576494.9199999999,"ADDRESS":"太康１５２之１號","OBJECTID":114353},"geometry":{"x":181835.00999999978,"y":2576494.9200000018}},{"attributes":{"ID":114354,"DIS_CODE":0,"TOWNNAME":"柳營區","LI":"太康里","LIN":"16鄰","STREET":" ","SECT":" ","MAREA":"太康","LANE":" ","ALLEY":" ","HOUSE_NO":"１５３號之１","E_COORD97":181905.17999999999,"N_COORD97":2576499.5099999998,"ADDRESS":"太康１５３號之１","OBJECTID":114354},"geometry":{"x":181905.1799999997,"y":2576499.5099999998}},{"attributes":{"ID":114355,"DIS_CODE":0,"TOWNNAME":"柳營區","LI":"太康里","LIN":"16鄰","STREET":" ","SECT":" ","MAREA":"太康","LANE":" ","ALLEY":" ","HOUSE_NO":"１５３號之２","E_COORD97":181930.75,"N_COORD97":2576502.9100000001,"ADDRESS":"太康１５３號之２","OBJECTID":114355},"geometry":{"x":181930.75000000186,"y":2576502.910000002}},{"attributes":{"ID":114356,"DIS_CODE":0,"TOWNNAME":"柳營區","LI":"太康里","LIN":"16鄰","STREET":" ","SECT":" ","MAREA":"太康","LANE":" ","ALLEY":" ","HOUSE_NO":"１５３之８號","E_COORD97":181873.79000000001,"N_COORD97":2576498.77,"ADDRESS":"太康１５３之８號","OBJECTID":114356},"geometry":{"x":181873.79000000004,"y":2576498.7700000014}},{"attributes":{"ID":114357,"DIS_CODE":0,"TOWNNAME":"柳營區","LI":"太康里","LIN":"16鄰","STREET":" ","SECT":" ","MAREA":"太康","LANE":" ","ALLEY":" ","HOUSE_NO":"１５３號","E_COORD97":181916.84,"N_COORD97":2576483.6899999999,"ADDRESS":"太康１５３號","OBJECTID":114357},"geometry":{"x":181916.84000000078,"y":2576483.6899999995}},{"attributes":{"ID":114358,"DIS_CODE":0,"TOWNNAME":"新市區","LI":"社內里","LIN":"1鄰","STREET":" ","SECT":" ","MAREA":"社內","LANE":" ","ALLEY":" ","HOUSE_NO":"１３之１０號","E_COORD97":176893.54000000001,"N_COORD97":2552951.5499999998,"ADDRESS":"社內１３之１０號","OBJECTID":114358},"geometry":{"x":176893.54000000004,"y":2552951.5500000045}},{"attributes":{"ID":114359,"DIS_CODE":0,"TOWNNAME":"新市區","LI":"新和里","LIN":"28鄰","STREET":"永福街","SECT":" ","MAREA":" ","LANE":"１６巷","ALLEY":"３２弄","HOUSE_NO":"５號","E_COORD97":177828.62,"N_COORD97":2552768.25,"ADDRESS":"永福街１６巷３２弄５號","OBJECTID":114359},"geometry":{"x":177828.62000000011,"y":2552768.25}},{"attributes":{"ID":114360,"DIS_CODE":0,"TOWNNAME":"新市區","LI":"新和里","LIN":"28鄰","STREET":"永福街","SECT":" ","MAREA":" ","LANE":"１６巷","ALLEY":"３２弄","HOUSE_NO":"３號","E_COORD97":177824.06,"N_COORD97":2552769.5,"ADDRESS":"永福街１６巷３２弄３號","OBJECTID":114360},"geometry":{"x":177824.05999999866,"y":2552769.5000000019}},{"attributes":{"ID":114361,"DIS_CODE":0,"TOWNNAME":"山上區","LI":"山上里","LIN":"1鄰","STREET":" ","SECT":" ","MAREA":"山上","LANE":" ","ALLEY":" ","HOUSE_NO":"５７之５號","E_COORD97":184323.45999999999,"N_COORD97":2555565.2999999998,"ADDRESS":"山上５７之５號","OBJECTID":114361},"geometry":{"x":184323.46000000089,"y":2555565.3000000026}},{"attributes":{"ID":114362,"DIS_CODE":0,"TOWNNAME":"東區","LI":"南聖里","LIN":"1鄰","STREET":"裕農路","SECT":" ","MAREA":" ","LANE":" ","ALLEY":" ","HOUSE_NO":"６７０號","E_COORD97":171740.23000000001,"N_COORD97":2543216.27,"ADDRESS":"裕農路６７０號","OBJECTID":114362},"geometry":{"x":171740.23000000138,"y":2543216.2700000014}},{"attributes":{"ID":114363,"DIS_CODE":0,"TOWNNAME":"東區","LI":"後甲里","LIN":"1鄰","STREET":"裕農路","SECT":" ","MAREA":" ","LANE":" ","ALLEY":" ","HOUSE_NO":"７７９號","E_COORD97":171919.63,"N_COORD97":2543272.9700000002,"ADDRESS":"裕農路７７９號","OBJECTID":114363},"geometry":{"x":171919.63000000175,"y":2543272.9700000025}},{"attributes":{"ID":114364,"DIS_CODE":0,"TOWNNAME":"東區","LI":"德高里","LIN":"1鄰","STREET":"自由路","SECT":"一段","MAREA":" ","LANE":" ","ALLEY":" ","HOUSE_NO":"１５１號","E_COORD97":171714.41,"N_COORD97":2541001.0499999998,"ADDRESS":"自由路一段１５１號","OBJECTID":114364},"geometry":{"x":171714.41000000015,"y":2541001.0500000026}},{"attributes":{"ID":114365,"DIS_CODE":0,"TOWNNAME":"東區","LI":"德高里","LIN":"1鄰","STREET":"自由路","SECT":"一段","MAREA":" ","LANE":" ","ALLEY":" ","HOUSE_NO":"１５３號","E_COORD97":171720.34,"N_COORD97":2541003.6099999999,"ADDRESS":"自由路一段１５３號","OBJECTID":114365},"geometry":{"x":171720.34000000078,"y":2541003.6100000013}},{"attributes":{"ID":114366,"DIS_CODE":0,"TOWNNAME":"東區","LI":"德高里","LIN":"1鄰","STREET":"自由路","SECT":"一段","MAREA":" ","LANE":" ","ALLEY":" ","HOUSE_NO":"１５５號","E_COORD97":171725,"N_COORD97":2541006.0499999998,"ADDRESS":"自由路一段１５５號","OBJECTID":114366},"geometry":{"x":171725,"y":2541006.0500000007}},{"attributes":{"ID":114367,"DIS_CODE":0,"TOWNNAME":"新市區","LI":"新和里","LIN":"28鄰","STREET":"永福街","SECT":" ","MAREA":" ","LANE":"１６巷","ALLEY":"３２弄","HOUSE_NO":"７號","E_COORD97":177833.29000000001,"N_COORD97":2552767.25,"ADDRESS":"永福街１６巷３２弄７號","OBJECTID":114367},"geometry":{"x":177833.2900000019,"y":2552767.2500000019}},{"attributes":{"ID":114368,"DIS_CODE":0,"TOWNNAME":"永康區","LI":"大灣里","LIN":"28鄰","STREET":"民族路","SECT":" ","MAREA":" ","LANE":"１９０巷","ALLEY":"２弄","HOUSE_NO":"２號","E_COORD97":175180.29000000001,"N_COORD97":2545082.54,"ADDRESS":"民族路１９０巷２弄２號","OBJECTID":114368},"geometry":{"x":175180.2900000019,"y":2545082.5399999991}},{"attributes":{"ID":114369,"DIS_CODE":0,"TOWNNAME":"永康區","LI":"復國里","LIN":"28鄰","STREET":"復國一路","SECT":" ","MAREA":" ","LANE":"２３７巷","ALLEY":"９弄","HOUSE_NO":"１０號","E_COORD97":172712.95999999999,"N_COORD97":2545379.0299999998,"ADDRESS":"復國一路２３７巷９弄１０號","OBJECTID":114369},"geometry":{"x":172712.96000000089,"y":2545379.0299999993}},{"attributes":{"ID":114370,"DIS_CODE":0,"TOWNNAME":"永康區","LI":"復國里","LIN":"28鄰","STREET":"復國一路","SECT":" ","MAREA":" ","LANE":"２３７巷","ALLEY":"９弄","HOUSE_NO":"８號","E_COORD97":172707.76000000001,"N_COORD97":2545380.2799999998,"ADDRESS":"復國一路２３７巷９弄８號","OBJECTID":114370},"geometry":{"x":172707.76000000071,"y":2545380.2799999993}},{"attributes":{"ID":114371,"DIS_CODE":0,"TOWNNAME":"安南區","LI":"安慶里","LIN":"28鄰","STREET":"怡安路","SECT":"一段","MAREA":" ","LANE":"１７１巷","ALLEY":"６弄","HOUSE_NO":"１０號","E_COORD97":169184.87,"N_COORD97":2548990.1200000001,"ADDRESS":"怡安路一段１７１巷６弄１０號","OBJECTID":114371},"geometry":{"x":169184.87000000011,"y":2548990.120000001}},{"attributes":{"ID":114372,"DIS_CODE":0,"TOWNNAME":"安南區","LI":"安慶里","LIN":"28鄰","STREET":"怡安路","SECT":"一段","MAREA":" ","LANE":"１７１巷","ALLEY":"６弄","HOUSE_NO":"１２號","E_COORD97":169180.79000000001,"N_COORD97":2548991.3999999999,"ADDRESS":"怡安路一段１７１巷６弄１２號","OBJECTID":114372},"geometry":{"x":169180.79000000004,"y":2548991.4000000004}},{"attributes":{"ID":114373,"DIS_CODE":0,"TOWNNAME":"安南區","LI":"安慶里","LIN":"28鄰","STREET":"怡安路","SECT":"一段","MAREA":" ","LANE":"１７１巷","ALLEY":"６弄","HOUSE_NO":"１６號","E_COORD97":169181.5,"N_COORD97":2549004.1400000001,"ADDRESS":"怡安路一段１７１巷６弄１６號","OBJECTID":114373},"geometry":{"x":169181.50000000093,"y":2549004.1399999987}},{"attributes":{"ID":114374,"DIS_CODE":0,"TOWNNAME":"安南區","LI":"安慶里","LIN":"28鄰","STREET":"怡安路","SECT":"一段","MAREA":" ","LANE":"１７１巷","ALLEY":"６弄","HOUSE_NO":"１８號","E_COORD97":169182.07999999999,"N_COORD97":2549008.8199999998,"ADDRESS":"怡安路一段１７１巷６弄１８號","OBJECTID":114374},"geometry":{"x":169182.08000000007,"y":2549008.8200000003}},{"attributes":{"ID":114375,"DIS_CODE":0,"TOWNNAME":"山上區","LI":"山上里","LIN":"1鄰","STREET":" ","SECT":" ","MAREA":"山上","LANE":" ","ALLEY":" ","HOUSE_NO":"４０之１４號","E_COORD97":184048.10999999999,"N_COORD97":2555353.2999999998,"ADDRESS":"山上４０之１４號","OBJECTID":114375},"geometry":{"x":184048.11000000127,"y":2555353.3000000007}},{"attributes":{"ID":114376,"DIS_CODE":0,"TOWNNAME":"山上區","LI":"玉\u25A0里","LIN":"1鄰","STREET":" ","SECT":" ","MAREA":"蚵\u25A0潭","LANE":" ","ALLEY":" ","HOUSE_NO":"３號","E_COORD97":187247.17000000001,"N_COORD97":2555670.2400000002,"ADDRESS":"蚵\u25A0潭３號","OBJECTID":114376},"geometry":{"x":187247.16999999993,"y":2555670.2400000021}},{"attributes":{"ID":114377,"DIS_CODE":0,"TOWNNAME":"山上區","LI":"南洲里","LIN":"1鄰","STREET":" ","SECT":" ","MAREA":"南洲","LANE":" ","ALLEY":" ","HOUSE_NO":"７４號","E_COORD97":183947.09,"N_COORD97":2555721.25,"ADDRESS":"南洲７４號","OBJECTID":114377},"geometry":{"x":183947.08999999985,"y":2555721.25}},{"attributes":{"ID":114378,"DIS_CODE":0,"TOWNNAME":"山上區","LI":"南洲里","LIN":"1鄰","STREET":" ","SECT":" ","MAREA":"南洲","LANE":" ","ALLEY":" ","HOUSE_NO":"８１號","E_COORD97":183931.59,"N_COORD97":2555753.25,"ADDRESS":"南洲８１號","OBJECTID":114378},"geometry":{"x":183931.58999999985,"y":2555753.2500000037}},{"attributes":{"ID":114379,"DIS_CODE":0,"TOWNNAME":"山上區","LI":"南洲里","LIN":"1鄰","STREET":" ","SECT":" ","MAREA":"南洲","LANE":" ","ALLEY":" ","HOUSE_NO":"８５號","E_COORD97":183926.59,"N_COORD97":2555765.25,"ADDRESS":"南洲８５號","OBJECTID":114379},"geometry":{"x":183926.58999999985,"y":2555765.25}},{"attributes":{"ID":114380,"DIS_CODE":0,"TOWNNAME":"山上區","LI":"新莊里","LIN":"1鄰","STREET":" ","SECT":" ","MAREA":"新庄","LANE":" ","ALLEY":" ","HOUSE_NO":"１之１３號","E_COORD97":184712.65384899999,"N_COORD97":2554956.9753200002,"ADDRESS":"新庄１之１３號","OBJECTID":114380},"geometry":{"x":184712.65384900104,"y":2554956.975319}},{"attributes":{"ID":114381,"DIS_CODE":0,"TOWNNAME":"山上區","LI":"南洲里","LIN":"1鄰","STREET":" ","SECT":" ","MAREA":"南洲","LANE":" ","ALLEY":" ","HOUSE_NO":"８７號","E_COORD97":183934.69,"N_COORD97":2555779.25,"ADDRESS":"南洲８７號","OBJECTID":114381},"geometry":{"x":183934.69000000041,"y":2555779.25}},{"attributes":{"ID":114382,"DIS_CODE":0,"TOWNNAME":"山上區","LI":"南洲里","LIN":"1鄰","STREET":" ","SECT":" ","MAREA":"南洲","LANE":" ","ALLEY":" ","HOUSE_NO":"８２號","E_COORD97":183930.29000000001,"N_COORD97":2555756.25,"ADDRESS":"南洲８２號","OBJECTID":114382},"geometry":{"x":183930.29000000004,"y":2555756.25}},{"attributes":{"ID":114383,"DIS_CODE":0,"TOWNNAME":"安南區","LI":"安慶里","LIN":"28鄰","STREET":"怡安路","SECT":"一段","MAREA":" ","LANE":"１７１巷","ALLEY":"６弄","HOUSE_NO":"２號","E_COORD97":169202.23999999999,"N_COORD97":2548986.21,"ADDRESS":"怡安路一段１７１巷６弄２號","OBJECTID":114383},"geometry":{"x":169202.24000000115,"y":2548986.2100000009}},{"attributes":{"ID":114384,"DIS_CODE":0,"TOWNNAME":"安南區","LI":"安慶里","LIN":"28鄰","STREET":"怡安路","SECT":"一段","MAREA":" ","LANE":"１７１巷","ALLEY":"６弄","HOUSE_NO":"４號","E_COORD97":169198.07000000001,"N_COORD97":2548987.6600000001,"ADDRESS":"怡安路一段１７１巷６弄４號","OBJECTID":114384},"geometry":{"x":169198.07000000216,"y":2548987.660000002}},{"attributes":{"ID":114385,"DIS_CODE":0,"TOWNNAME":"安南區","LI":"安慶里","LIN":"28鄰","STREET":"怡安路","SECT":"一段","MAREA":" ","LANE":"１７１巷","ALLEY":"６弄","HOUSE_NO":"６號","E_COORD97":169194.07000000001,"N_COORD97":2548988.3399999999,"ADDRESS":"怡安路一段１７１巷６弄６號","OBJECTID":114385},"geometry":{"x":169194.0700000003,"y":2548988.3399999999}},{"attributes":{"ID":114386,"DIS_CODE":0,"TOWNNAME":"安南區","LI":"安慶里","LIN":"28鄰","STREET":"怡安路","SECT":"一段","MAREA":" ","LANE":"１７１巷","ALLEY":"６弄","HOUSE_NO":"８號","E_COORD97":169189.56,"N_COORD97":2548989.3599999999,"ADDRESS":"怡安路一段１７１巷６弄８號","OBJECTID":114386},"geometry":{"x":169189.56000000052,"y":2548989.3600000013}},{"attributes":{"ID":114387,"DIS_CODE":0,"TOWNNAME":"仁德區","LI":"成功里","LIN":"28鄰","STREET":"成功一街","SECT":" ","MAREA":" ","LANE":"２巷","ALLEY":"１７弄","HOUSE_NO":"４號","E_COORD97":170482.39999999999,"N_COORD97":2540236.52,"ADDRESS":"成功一街２巷１７弄４號","OBJECTID":114387},"geometry":{"x":170482.40000000037,"y":2540236.5200000033}},{"attributes":{"ID":114388,"DIS_CODE":0,"TOWNNAME":"仁德區","LI":"後壁里","LIN":"28鄰","STREET":"德洋路","SECT":" ","MAREA":" ","LANE":"２５巷","ALLEY":"３２弄","HOUSE_NO":"１４號","E_COORD97":173072.07999999999,"N_COORD97":2538918.5099999998,"ADDRESS":"德洋路２５巷３２弄１４號","OBJECTID":114388},"geometry":{"x":173072.08000000101,"y":2538918.5100000016}},{"attributes":{"ID":114389,"DIS_CODE":0,"TOWNNAME":"仁德區","LI":"後壁里","LIN":"28鄰","STREET":"德洋路","SECT":" ","MAREA":" ","LANE":"２５巷","ALLEY":"３２弄","HOUSE_NO":"１６號","E_COORD97":173067.14999999999,"N_COORD97":2538910.0099999998,"ADDRESS":"德洋路２５巷３２弄１６號","OBJECTID":114389},"geometry":{"x":173067.15000000037,"y":2538910.0099999998}},{"attributes":{"ID":114390,"DIS_CODE":0,"TOWNNAME":"柳營區","LI":"果毅里","LIN":"16鄰","STREET":" ","SECT":" ","MAREA":"果毅後","LANE":" ","ALLEY":" ","HOUSE_NO":"１９０號","E_COORD97":185553.17999999999,"N_COORD97":2572795.8100000001,"ADDRESS":"果毅後１９０號","OBJECTID":114390},"geometry":{"x":185553.1799999997,"y":2572795.8100000005}},{"attributes":{"ID":114391,"DIS_CODE":0,"TOWNNAME":"柳營區","LI":"果毅里","LIN":"16鄰","STREET":" ","SECT":" ","MAREA":"果毅後","LANE":" ","ALLEY":" ","HOUSE_NO":"１９１號","E_COORD97":185549.29000000001,"N_COORD97":2572797.0699999998,"ADDRESS":"果毅後１９１號","OBJECTID":114391},"geometry":{"x":185549.29000000004,"y":2572797.0700000003}},{"attributes":{"ID":114392,"DIS_CODE":0,"TOWNNAME":"柳營區","LI":"果毅里","LIN":"16鄰","STREET":" ","SECT":" ","MAREA":"果毅後","LANE":" ","ALLEY":" ","HOUSE_NO":"１９２號","E_COORD97":185545.31,"N_COORD97":2572798.4100000001,"ADDRESS":"果毅後１９２號","OBJECTID":114392},"geometry":{"x":185545.30999999959,"y":2572798.4100000001}},{"attributes":{"ID":114393,"DIS_CODE":0,"TOWNNAME":"柳營區","LI":"果毅里","LIN":"16鄰","STREET":" ","SECT":" ","MAREA":"果毅後","LANE":" ","ALLEY":" ","HOUSE_NO":"１９３號","E_COORD97":185541.25,"N_COORD97":2572799.6800000002,"ADDRESS":"果毅後１９３號","OBJECTID":114393},"geometry":{"x":185541.25,"y":2572799.6799999997}},{"attributes":{"ID":114394,"DIS_CODE":0,"TOWNNAME":"柳營區","LI":"果毅里","LIN":"16鄰","STREET":" ","SECT":" ","MAREA":"果毅後","LANE":" ","ALLEY":" ","HOUSE_NO":"１９４號","E_COORD97":185537.06,"N_COORD97":2572801.0099999998,"ADDRESS":"果毅後１９４號","OBJECTID":114394},"geometry":{"x":185537.05999999959,"y":2572801.0099999998}},{"attributes":{"ID":114395,"DIS_CODE":0,"TOWNNAME":"柳營區","LI":"果毅里","LIN":"16鄰","STREET":" ","SECT":" ","MAREA":"果毅後","LANE":" ","ALLEY":" ","HOUSE_NO":"１９５號","E_COORD97":185533.25,"N_COORD97":2572802.0600000001,"ADDRESS":"果毅後１９５號","OBJECTID":114395},"geometry":{"x":185533.25000000093,"y":2572802.0600000042}},{"attributes":{"ID":114396,"DIS_CODE":0,"TOWNNAME":"柳營區","LI":"果毅里","LIN":"16鄰","STREET":" ","SECT":" ","MAREA":"果毅後","LANE":" ","ALLEY":" ","HOUSE_NO":"２０３號","E_COORD97":185501.39000000001,"N_COORD97":2572812.9199999999,"ADDRESS":"果毅後２０３號","OBJECTID":114396},"geometry":{"x":185501.3900000006,"y":2572812.9200000018}},{"attributes":{"ID":114397,"DIS_CODE":0,"TOWNNAME":"安南區","LI":"\u25A0南里","LIN":"28鄰","STREET":"安昌街","SECT":" ","MAREA":" ","LANE":"３００巷","ALLEY":"５１弄","HOUSE_NO":"３３號","E_COORD97":170260.17000000001,"N_COORD97":2552822.3199999998,"ADDRESS":"安昌街３００巷５１弄３３號","OBJECTID":114397},"geometry":{"x":170260.17000000086,"y":2552822.3200000003}},{"attributes":{"ID":114398,"DIS_CODE":0,"TOWNNAME":"永康區","LI":"二王里","LIN":"28鄰","STREET":"中山南路","SECT":" ","MAREA":" ","LANE":"５４４巷","ALLEY":"５６弄","HOUSE_NO":"１０號","E_COORD97":172297.35999999999,"N_COORD97":2546408,"ADDRESS":"中山南路５４４巷５６弄１０號","OBJECTID":114398},"geometry":{"x":172297.36000000127,"y":2546408.0000000019}},{"attributes":{"ID":114399,"DIS_CODE":0,"TOWNNAME":"永康區","LI":"大灣里","LIN":"28鄰","STREET":"民族路","SECT":" ","MAREA":" ","LANE":"１９０巷","ALLEY":"２弄","HOUSE_NO":"１號","E_COORD97":175180.73999999999,"N_COORD97":2545087.79,"ADDRESS":"民族路１９０巷２弄１號","OBJECTID":114399},"geometry":{"x":175180.73999999929,"y":2545087.7899999991}},{"attributes":{"ID":114400,"DIS_CODE":0,"TOWNNAME":"永康區","LI":"崑山里","LIN":"28鄰","STREET":"大灣路","SECT":" ","MAREA":" ","LANE":"９４２巷","ALLEY":"１６９弄","HOUSE_NO":"１３２號","E_COORD97":173563.44,"N_COORD97":2544901,"ADDRESS":"大灣路９４２巷１６９弄１３２號","OBJECTID":114400},"geometry":{"x":173563.44000000041,"y":2544901}}]}