{"displayFieldName":"TOWNNAME","fieldAliases":{"ID":"ID","DIS_CODE":"DIS_CODE","TOWNNAME":"TOWNNAME","LI":"LI","LIN":"LIN","STREET":"STREET","SECT":"SECT","MAREA":"MAREA","LANE":"LANE","ALLEY":"ALLEY","HOUSE_NO":"HOUSE_NO","E_COORD97":"E_COORD97","N_COORD97":"N_COORD97","ADDRESS":"ADDRESS","OBJECTID":"OBJECTID"},"geometryType":"esriGeometryPoint","spatialReference":{"wkid":102443,"latestWkid":3826},"fields":[{"name":"ID","type":"esriFieldTypeDouble","alias":"ID"},{"name":"DIS_CODE","type":"esriFieldTypeInteger","alias":"DIS_CODE"},{"name":"TOWNNAME","type":"esriFieldTypeString","alias":"TOWNNAME","length":8},{"name":"LI","type":"esriFieldTypeString","alias":"LI","length":8},{"name":"LIN","type":"esriFieldTypeString","alias":"LIN","length":12},{"name":"STREET","type":"esriFieldTypeString","alias":"STREET","length":20},{"name":"SECT","type":"esriFieldTypeString","alias":"SECT","length":8},{"name":"MAREA","type":"esriFieldTypeString","alias":"MAREA","length":12},{"name":"LANE","type":"esriFieldTypeString","alias":"LANE","length":10},{"name":"ALLEY","type":"esriFieldTypeString","alias":"ALLEY","length":10},{"name":"HOUSE_NO","type":"esriFieldTypeString","alias":"HOUSE_NO","length":20},{"name":"E_COORD97","type":"esriFieldTypeDouble","alias":"E_COORD97"},{"name":"N_COORD97","type":"esriFieldTypeDouble","alias":"N_COORD97"},{"name":"ADDRESS","type":"esriFieldTypeString","alias":"ADDRESS","length":50},{"name":"OBJECTID","type":"esriFieldTypeOID","alias":"OBJECTID"}],"features":[{"attributes":{"ID":172002,"DIS_CODE":0,"TOWNNAME":"永康區","LI":"神洲里","LIN":"17鄰","STREET":"忠孝路","SECT":" ","MAREA":" ","LANE":"７６巷","ALLEY":"４７弄","HOUSE_NO":"１７號四樓","E_COORD97":172171.06,"N_COORD97":2544937.1899999999,"ADDRESS":"忠孝路７６巷４７弄１７號四樓","OBJECTID":172001},"geometry":{"x":172171.06000000052,"y":2544937.1899999995}},{"attributes":{"ID":172003,"DIS_CODE":0,"TOWNNAME":"安南區","LI":"\u25A0南里","LIN":"12鄰","STREET":"安昌街","SECT":" ","MAREA":" ","LANE":" ","ALLEY":" ","HOUSE_NO":"２６４號","E_COORD97":170144.97,"N_COORD97":2552653.1400000001,"ADDRESS":"安昌街２６４號","OBJECTID":172002},"geometry":{"x":170144.96999999974,"y":2552653.1400000025}},{"attributes":{"ID":172004,"DIS_CODE":0,"TOWNNAME":"安南區","LI":"\u25A0南里","LIN":"12鄰","STREET":"安昌街","SECT":" ","MAREA":" ","LANE":" ","ALLEY":" ","HOUSE_NO":"２６５號","E_COORD97":170122.64999999999,"N_COORD97":2552662.4500000002,"ADDRESS":"安昌街２６５號","OBJECTID":172003},"geometry":{"x":170122.65000000037,"y":2552662.450000003}},{"attributes":{"ID":172005,"DIS_CODE":0,"TOWNNAME":"安南區","LI":"\u25A0南里","LIN":"12鄰","STREET":"安昌街","SECT":" ","MAREA":" ","LANE":" ","ALLEY":" ","HOUSE_NO":"２７３號","E_COORD97":170123.19,"N_COORD97":2552676.1099999999,"ADDRESS":"安昌街２７３號","OBJECTID":172004},"geometry":{"x":170123.19000000134,"y":2552676.1100000013}},{"attributes":{"ID":172006,"DIS_CODE":0,"TOWNNAME":"南區","LI":"郡南里","LIN":"12鄰","STREET":"永吉街","SECT":" ","MAREA":" ","LANE":" ","ALLEY":" ","HOUSE_NO":"３０號","E_COORD97":167320.39000000001,"N_COORD97":2540624.29,"ADDRESS":"永吉街３０號","OBJECTID":172005},"geometry":{"x":167320.39000000153,"y":2540624.2900000028}},{"attributes":{"ID":172007,"DIS_CODE":0,"TOWNNAME":"南區","LI":"郡南里","LIN":"12鄰","STREET":"永吉街","SECT":" ","MAREA":" ","LANE":" ","ALLEY":" ","HOUSE_NO":"３２號","E_COORD97":167319.48000000001,"N_COORD97":2540629.75,"ADDRESS":"永吉街３２號","OBJECTID":172006},"geometry":{"x":167319.48000000138,"y":2540629.7500000019}},{"attributes":{"ID":172008,"DIS_CODE":0,"TOWNNAME":"南區","LI":"郡南里","LIN":"12鄰","STREET":"永吉街","SECT":" ","MAREA":" ","LANE":" ","ALLEY":" ","HOUSE_NO":"４０號","E_COORD97":167319.94,"N_COORD97":2540657.2799999998,"ADDRESS":"永吉街４０號","OBJECTID":172007},"geometry":{"x":167319.94000000041,"y":2540657.2799999993}},{"attributes":{"ID":172009,"DIS_CODE":0,"TOWNNAME":"永康區","LI":"神洲里","LIN":"13鄰","STREET":"忠孝路","SECT":" ","MAREA":" ","LANE":"７６巷","ALLEY":"６３弄","HOUSE_NO":"９號二樓","E_COORD97":172256.72,"N_COORD97":2544993.0099999998,"ADDRESS":"忠孝路７６巷６３弄９號二樓","OBJECTID":172008},"geometry":{"x":172256.72000000067,"y":2544993.0099999998}},{"attributes":{"ID":172010,"DIS_CODE":0,"TOWNNAME":"永康區","LI":"烏竹里","LIN":"18鄰","STREET":"自強路","SECT":" ","MAREA":" ","LANE":"７７３巷","ALLEY":"５弄","HOUSE_NO":"１１號二樓","E_COORD97":174443.91,"N_COORD97":2548566.6400000001,"ADDRESS":"自強路７７３巷５弄１１號二樓","OBJECTID":172009},"geometry":{"x":174443.91000000201,"y":2548566.6400000006}},{"attributes":{"ID":172011,"DIS_CODE":0,"TOWNNAME":"永康區","LI":"神洲里","LIN":"13鄰","STREET":"忠孝路","SECT":" ","MAREA":" ","LANE":"７６巷","ALLEY":"６３弄","HOUSE_NO":"９號四樓","E_COORD97":172256.72,"N_COORD97":2544993.0099999998,"ADDRESS":"忠孝路７６巷６３弄９號四樓","OBJECTID":172010},"geometry":{"x":172256.72000000067,"y":2544993.0099999998}},{"attributes":{"ID":172012,"DIS_CODE":0,"TOWNNAME":"永康區","LI":"神洲里","LIN":"14鄰","STREET":"忠孝路","SECT":" ","MAREA":" ","LANE":"７６巷","ALLEY":"４９弄","HOUSE_NO":"２號五樓","E_COORD97":172223.26999999999,"N_COORD97":2545006.1000000001,"ADDRESS":"忠孝路７６巷４９弄２號五樓","OBJECTID":172011},"geometry":{"x":172223.26999999955,"y":2545006.0999999996}},{"attributes":{"ID":172013,"DIS_CODE":0,"TOWNNAME":"永康區","LI":"神洲里","LIN":"17鄰","STREET":"忠孝路","SECT":" ","MAREA":" ","LANE":"７６巷","ALLEY":"４７弄","HOUSE_NO":"３號二樓","E_COORD97":172256.64999999999,"N_COORD97":2544944.8900000001,"ADDRESS":"忠孝路７６巷４７弄３號二樓","OBJECTID":172012},"geometry":{"x":172256.65000000037,"y":2544944.8900000025}},{"attributes":{"ID":172014,"DIS_CODE":0,"TOWNNAME":"永康區","LI":"烏竹里","LIN":"18鄰","STREET":"自強路","SECT":" ","MAREA":" ","LANE":"７７３巷","ALLEY":"５弄","HOUSE_NO":"１３號二樓","E_COORD97":174439.57000000001,"N_COORD97":2548561.6299999999,"ADDRESS":"自強路７７３巷５弄１３號二樓","OBJECTID":172013},"geometry":{"x":174439.57000000216,"y":2548561.629999999}},{"attributes":{"ID":172015,"DIS_CODE":0,"TOWNNAME":"永康區","LI":"西勢里","LIN":"18鄰","STREET":"富強路","SECT":"一段","MAREA":" ","LANE":"２巷","ALLEY":"８弄","HOUSE_NO":"４７號二樓","E_COORD97":175472.76999999999,"N_COORD97":2546015.3199999998,"ADDRESS":"富強路一段２巷８弄４７號二樓","OBJECTID":172014},"geometry":{"x":175472.76999999955,"y":2546015.3200000003}},{"attributes":{"ID":172016,"DIS_CODE":0,"TOWNNAME":"仁德區","LI":"後壁里","LIN":"41鄰","STREET":"德善路","SECT":" ","MAREA":" ","LANE":"２５１巷","ALLEY":"７弄","HOUSE_NO":"８號六樓之２","E_COORD97":173933.26000000001,"N_COORD97":2538718.04,"ADDRESS":"德善路２５１巷７弄８號六樓之２","OBJECTID":172015},"geometry":{"x":173933.26000000071,"y":2538718.040000001}},{"attributes":{"ID":172017,"DIS_CODE":0,"TOWNNAME":"永康區","LI":"西灣里","LIN":"43鄰","STREET":"大灣路","SECT":" ","MAREA":" ","LANE":"９４２巷","ALLEY":"３８８弄","HOUSE_NO":"２５號六樓","E_COORD97":174031.54000000001,"N_COORD97":2545496.77,"ADDRESS":"大灣路９４２巷３８８弄２５號六樓","OBJECTID":172016},"geometry":{"x":174031.54000000097,"y":2545496.7700000033}},{"attributes":{"ID":172018,"DIS_CODE":0,"TOWNNAME":"永康區","LI":"永康里","LIN":"32鄰","STREET":"永大路","SECT":"二段","MAREA":" ","LANE":"１５２６巷","ALLEY":"２弄","HOUSE_NO":"３號四樓之３","E_COORD97":174316.01999999999,"N_COORD97":2547285.5600000001,"ADDRESS":"永大路二段１５２６巷２弄３號四樓之３","OBJECTID":172017},"geometry":{"x":174316.02000000048,"y":2547285.5600000005}},{"attributes":{"ID":172019,"DIS_CODE":0,"TOWNNAME":"永康區","LI":"西勢里","LIN":"18鄰","STREET":"富強路","SECT":"一段","MAREA":" ","LANE":"２巷","ALLEY":"８弄","HOUSE_NO":"４５號五樓","E_COORD97":175479.13,"N_COORD97":2546022.6099999999,"ADDRESS":"富強路一段２巷８弄４５號五樓","OBJECTID":172018},"geometry":{"x":175479.12999999989,"y":2546022.6099999994}},{"attributes":{"ID":172020,"DIS_CODE":0,"TOWNNAME":"永康區","LI":"永康里","LIN":"32鄰","STREET":"永大路","SECT":"二段","MAREA":" ","LANE":"１５２６巷","ALLEY":"２弄","HOUSE_NO":"３號七樓之３","E_COORD97":174316.01999999999,"N_COORD97":2547285.5600000001,"ADDRESS":"永大路二段１５２６巷２弄３號七樓之３","OBJECTID":172019},"geometry":{"x":174316.02000000048,"y":2547285.5600000005}},{"attributes":{"ID":172021,"DIS_CODE":0,"TOWNNAME":"永康區","LI":"西勢里","LIN":"18鄰","STREET":"富強路","SECT":"一段","MAREA":" ","LANE":"２巷","ALLEY":"８弄","HOUSE_NO":"４９號二樓","E_COORD97":175461.42999999999,"N_COORD97":2546013.0299999998,"ADDRESS":"富強路一段２巷８弄４９號二樓","OBJECTID":172020},"geometry":{"x":175461.4299999997,"y":2546013.0299999993}},{"attributes":{"ID":172022,"DIS_CODE":0,"TOWNNAME":"永康區","LI":"永康里","LIN":"32鄰","STREET":"永大路","SECT":"二段","MAREA":" ","LANE":"１５２６巷","ALLEY":"２弄","HOUSE_NO":"３號八樓之２","E_COORD97":174316.04999999999,"N_COORD97":2547285.5600000001,"ADDRESS":"永大路二段１５２６巷２弄３號八樓之２","OBJECTID":172021},"geometry":{"x":174316.05000000075,"y":2547285.5600000005}},{"attributes":{"ID":172023,"DIS_CODE":0,"TOWNNAME":"永康區","LI":"永康里","LIN":"32鄰","STREET":"永大路","SECT":"二段","MAREA":" ","LANE":"１５２６巷","ALLEY":"２弄","HOUSE_NO":"２號十三樓之７","E_COORD97":174283.95000000001,"N_COORD97":2547262.98,"ADDRESS":"永大路二段１５２６巷２弄２號十三樓之７","OBJECTID":172022},"geometry":{"x":174283.95000000019,"y":2547262.9800000023}},{"attributes":{"ID":172024,"DIS_CODE":0,"TOWNNAME":"永康區","LI":"永康里","LIN":"32鄰","STREET":"永大路","SECT":"二段","MAREA":" ","LANE":"１５２６巷","ALLEY":"２弄","HOUSE_NO":"２號十三樓之２","E_COORD97":174284.10999999999,"N_COORD97":2547262.98,"ADDRESS":"永大路二段１５２６巷２弄２號十三樓之２","OBJECTID":172023},"geometry":{"x":174284.11000000127,"y":2547262.9800000023}},{"attributes":{"ID":172025,"DIS_CODE":0,"TOWNNAME":"歸仁區","LI":"媽廟里","LIN":"25鄰","STREET":"保大路","SECT":"一段","MAREA":" ","LANE":"１１７巷","ALLEY":"２６弄","HOUSE_NO":"１號","E_COORD97":177805.42999999999,"N_COORD97":2543936.7200000002,"ADDRESS":"保大路一段１１７巷２６弄１號","OBJECTID":172024},"geometry":{"x":177805.43000000063,"y":2543936.7200000025}},{"attributes":{"ID":172026,"DIS_CODE":0,"TOWNNAME":"仁德區","LI":"土庫里","LIN":"12鄰","STREET":"土庫路","SECT":" ","MAREA":" ","LANE":" ","ALLEY":" ","HOUSE_NO":"１４７號","E_COORD97":174361.17999999999,"N_COORD97":2543080.7400000002,"ADDRESS":"土庫路１４７號","OBJECTID":172025},"geometry":{"x":174361.1799999997,"y":2543080.7400000021}},{"attributes":{"ID":172027,"DIS_CODE":0,"TOWNNAME":"永康區","LI":"二王里","LIN":"47鄰","STREET":"南工街","SECT":" ","MAREA":" ","LANE":"２２６巷","ALLEY":"３弄","HOUSE_NO":"７號七樓之２","E_COORD97":171948.20000000001,"N_COORD97":2545994.3500000001,"ADDRESS":"南工街２２６巷３弄７號七樓之２","OBJECTID":172026},"geometry":{"x":171948.20000000019,"y":2545994.3499999996}},{"attributes":{"ID":172028,"DIS_CODE":0,"TOWNNAME":"永康區","LI":"南灣里","LIN":"32鄰","STREET":"大灣一街","SECT":" ","MAREA":" ","LANE":"３７巷","ALLEY":"７弄","HOUSE_NO":"１２號一樓之２","E_COORD97":174283.39999999999,"N_COORD97":2544862.8900000001,"ADDRESS":"大灣一街３７巷７弄１２號一樓之２","OBJECTID":172027},"geometry":{"x":174283.4000000013,"y":2544862.8899999987}},{"attributes":{"ID":172029,"DIS_CODE":0,"TOWNNAME":"永康區","LI":"二王里","LIN":"47鄰","STREET":"南工街","SECT":" ","MAREA":" ","LANE":"２２６巷","ALLEY":"３弄","HOUSE_NO":"１號三樓之１","E_COORD97":171977.84,"N_COORD97":2545990.6000000001,"ADDRESS":"南工街２２６巷３弄１號三樓之１","OBJECTID":172028},"geometry":{"x":171977.84000000078,"y":2545990.6000000015}},{"attributes":{"ID":172030,"DIS_CODE":0,"TOWNNAME":"永康區","LI":"勝利里","LIN":"38鄰","STREET":"勝利街","SECT":" ","MAREA":" ","LANE":"１９７巷","ALLEY":"８弄","HOUSE_NO":"８號五樓之５","E_COORD97":171347.23000000001,"N_COORD97":2545178.2999999998,"ADDRESS":"勝利街１９７巷８弄８號五樓之５","OBJECTID":172029},"geometry":{"x":171347.23000000138,"y":2545178.3000000007}},{"attributes":{"ID":172031,"DIS_CODE":0,"TOWNNAME":"永康區","LI":"西灣里","LIN":"43鄰","STREET":"大灣路","SECT":" ","MAREA":" ","LANE":"９４２巷","ALLEY":"３７４弄","HOUSE_NO":"１９號五樓之２","E_COORD97":174005.45999999999,"N_COORD97":2545445.29,"ADDRESS":"大灣路９４２巷３７４弄１９號五樓之２","OBJECTID":172030},"geometry":{"x":174005.45999999996,"y":2545445.2900000028}},{"attributes":{"ID":172032,"DIS_CODE":0,"TOWNNAME":"永康區","LI":"西勢里","LIN":"18鄰","STREET":"富強路","SECT":"一段","MAREA":" ","LANE":"２巷","ALLEY":"８弄","HOUSE_NO":"４７號五樓","E_COORD97":175472.73000000001,"N_COORD97":2546015.2799999998,"ADDRESS":"富強路一段２巷８弄４７號五樓","OBJECTID":172031},"geometry":{"x":175472.73000000231,"y":2546015.2800000031}},{"attributes":{"ID":172033,"DIS_CODE":0,"TOWNNAME":"永康區","LI":"神洲里","LIN":"20鄰","STREET":"忠孝路","SECT":" ","MAREA":" ","LANE":"７６巷","ALLEY":"６３弄","HOUSE_NO":"３０號四樓","E_COORD97":172163.51999999999,"N_COORD97":2545049.5899999999,"ADDRESS":"忠孝路７６巷６３弄３０號四樓","OBJECTID":172032},"geometry":{"x":172163.51999999955,"y":2545049.5899999999}},{"attributes":{"ID":172034,"DIS_CODE":0,"TOWNNAME":"仁德區","LI":"土庫里","LIN":"13鄰","STREET":"土庫路","SECT":" ","MAREA":" ","LANE":"１８５巷","ALLEY":"１４弄","HOUSE_NO":"２號八樓之２","E_COORD97":174360.39999999999,"N_COORD97":2542925.7599999998,"ADDRESS":"土庫路１８５巷１４弄２號八樓之２","OBJECTID":172033},"geometry":{"x":174360.40000000037,"y":2542925.7599999998}},{"attributes":{"ID":172035,"DIS_CODE":0,"TOWNNAME":"仁德區","LI":"土庫里","LIN":"13鄰","STREET":"土庫路","SECT":" ","MAREA":" ","LANE":"１８５巷","ALLEY":"１４弄","HOUSE_NO":"８號五樓之１","E_COORD97":174350.39999999999,"N_COORD97":2542914.1699999999,"ADDRESS":"土庫路１８５巷１４弄８號五樓之１","OBJECTID":172034},"geometry":{"x":174350.40000000037,"y":2542914.1699999981}},{"attributes":{"ID":172036,"DIS_CODE":0,"TOWNNAME":"下營區","LI":"宅內里","LIN":"17鄰","STREET":"人和三街","SECT":" ","MAREA":" ","LANE":"４１巷","ALLEY":"１５弄","HOUSE_NO":"１號一樓","E_COORD97":174337.44,"N_COORD97":2570677.6800000002,"ADDRESS":"人和三街４１巷１５弄１號一樓","OBJECTID":172035},"geometry":{"x":174337.44000000134,"y":2570677.6799999978}},{"attributes":{"ID":172037,"DIS_CODE":0,"TOWNNAME":"下營區","LI":"宅內里","LIN":"17鄰","STREET":"人和三街","SECT":" ","MAREA":" ","LANE":"４１巷","ALLEY":"１５弄","HOUSE_NO":"１號二樓","E_COORD97":174337.44,"N_COORD97":2570677.6800000002,"ADDRESS":"人和三街４１巷１５弄１號二樓","OBJECTID":172036},"geometry":{"x":174337.44000000134,"y":2570677.6799999978}},{"attributes":{"ID":172038,"DIS_CODE":0,"TOWNNAME":"永康區","LI":"南灣里","LIN":"25鄰","STREET":"立興街","SECT":" ","MAREA":" ","LANE":" ","ALLEY":" ","HOUSE_NO":"８０號","E_COORD97":174553.79999999999,"N_COORD97":2544794.04,"ADDRESS":"立興街８０號","OBJECTID":172037},"geometry":{"x":174553.79999999981,"y":2544794.040000001}},{"attributes":{"ID":172039,"DIS_CODE":0,"TOWNNAME":"永康區","LI":"烏竹里","LIN":"4鄰","STREET":"烏竹街","SECT":" ","MAREA":" ","LANE":" ","ALLEY":" ","HOUSE_NO":"８０號","E_COORD97":174512.64999999999,"N_COORD97":2549408.52,"ADDRESS":"烏竹街８０號","OBJECTID":172038},"geometry":{"x":174512.6500000013,"y":2549408.5200000014}},{"attributes":{"ID":172040,"DIS_CODE":0,"TOWNNAME":"永康區","LI":"神洲里","LIN":"18鄰","STREET":"忠孝路","SECT":" ","MAREA":" ","LANE":" ","ALLEY":" ","HOUSE_NO":"１２８號","E_COORD97":172092.59,"N_COORD97":2545031.9900000002,"ADDRESS":"忠孝路１２８號","OBJECTID":172039},"geometry":{"x":172092.58999999985,"y":2545031.9900000021}},{"attributes":{"ID":172041,"DIS_CODE":0,"TOWNNAME":"下營區","LI":"宅內里","LIN":"17鄰","STREET":"人和三街","SECT":" ","MAREA":" ","LANE":"４１巷","ALLEY":"１５弄","HOUSE_NO":"１號三樓","E_COORD97":174337.44,"N_COORD97":2570677.6800000002,"ADDRESS":"人和三街４１巷１５弄１號三樓","OBJECTID":172040},"geometry":{"x":174337.44000000134,"y":2570677.6799999978}},{"attributes":{"ID":172042,"DIS_CODE":0,"TOWNNAME":"東區","LI":"自強里","LIN":"10鄰","STREET":"東門路","SECT":"三段","MAREA":" ","LANE":"３７巷","ALLEY":"７５弄","HOUSE_NO":"３２號四樓","E_COORD97":171148.97,"N_COORD97":2542441.6499999999,"ADDRESS":"東門路三段３７巷７５弄３２號四樓","OBJECTID":172041},"geometry":{"x":171148.96999999974,"y":2542441.6500000022}},{"attributes":{"ID":172043,"DIS_CODE":0,"TOWNNAME":"東區","LI":"自強里","LIN":"10鄰","STREET":"東門路","SECT":"三段","MAREA":" ","LANE":"３７巷","ALLEY":"７５弄","HOUSE_NO":"３４號三樓之１","E_COORD97":171151.29000000001,"N_COORD97":2542424.3799999999,"ADDRESS":"東門路三段３７巷７５弄３４號三樓之１","OBJECTID":172042},"geometry":{"x":171151.29000000097,"y":2542424.3800000008}},{"attributes":{"ID":172044,"DIS_CODE":0,"TOWNNAME":"永康區","LI":"埔園里","LIN":"39鄰","STREET":"龍國街","SECT":" ","MAREA":" ","LANE":" ","ALLEY":" ","HOUSE_NO":"１３號","E_COORD97":174021.57000000001,"N_COORD97":2548108.1800000002,"ADDRESS":"龍國街１３號","OBJECTID":172043},"geometry":{"x":174021.57000000123,"y":2548108.1800000034}},{"attributes":{"ID":172045,"DIS_CODE":0,"TOWNNAME":"安南區","LI":"淵中里","LIN":"4鄰","STREET":"安中路","SECT":"四段","MAREA":" ","LANE":" ","ALLEY":" ","HOUSE_NO":"７６號","E_COORD97":165170.81,"N_COORD97":2550044.79,"ADDRESS":"安中路四段７６號","OBJECTID":172044},"geometry":{"x":165170.80999999959,"y":2550044.7899999991}},{"attributes":{"ID":172046,"DIS_CODE":0,"TOWNNAME":"安南區","LI":"淵中里","LIN":"4鄰","STREET":"安中路","SECT":"四段","MAREA":" ","LANE":" ","ALLEY":" ","HOUSE_NO":"３３號","E_COORD97":165242.85999999999,"N_COORD97":2550067.3900000001,"ADDRESS":"安中路四段３３號","OBJECTID":172045},"geometry":{"x":165242.8599999994,"y":2550067.3900000043}},{"attributes":{"ID":172047,"DIS_CODE":0,"TOWNNAME":"安南區","LI":"城南里","LIN":"13鄰","STREET":"城西街","SECT":"二段","MAREA":" ","LANE":" ","ALLEY":" ","HOUSE_NO":"２６１號","E_COORD97":159698.67000000001,"N_COORD97":2550970.6200000001,"ADDRESS":"城西街二段２６１號","OBJECTID":172046},"geometry":{"x":159698.66999999993,"y":2550970.620000001}},{"attributes":{"ID":172048,"DIS_CODE":0,"TOWNNAME":"安南區","LI":"學東里","LIN":"8鄰","STREET":"公學路","SECT":"六段","MAREA":" ","LANE":" ","ALLEY":" ","HOUSE_NO":"４７０號","E_COORD97":162695.32000000001,"N_COORD97":2553221.3300000001,"ADDRESS":"公學路六段４７０號","OBJECTID":172047},"geometry":{"x":162695.32000000216,"y":2553221.3300000019}},{"attributes":{"ID":172049,"DIS_CODE":0,"TOWNNAME":"安南區","LI":"公\u25A0里","LIN":"4鄰","STREET":"安興街","SECT":" ","MAREA":" ","LANE":" ","ALLEY":" ","HOUSE_NO":"９６號","E_COORD97":164215.89000000001,"N_COORD97":2552198.3999999999,"ADDRESS":"安興街９６號","OBJECTID":172048},"geometry":{"x":164215.88999999966,"y":2552198.4000000004}},{"attributes":{"ID":172050,"DIS_CODE":0,"TOWNNAME":"東區","LI":"自強里","LIN":"10鄰","STREET":"東門路","SECT":"三段","MAREA":" ","LANE":"３７巷","ALLEY":"７５弄","HOUSE_NO":"３４號三樓之２","E_COORD97":171151.29000000001,"N_COORD97":2542424.3799999999,"ADDRESS":"東門路三段３７巷７５弄３４號三樓之２","OBJECTID":172049},"geometry":{"x":171151.29000000097,"y":2542424.3800000008}},{"attributes":{"ID":172051,"DIS_CODE":0,"TOWNNAME":"東區","LI":"自強里","LIN":"10鄰","STREET":"東門路","SECT":"三段","MAREA":" ","LANE":"３７巷","ALLEY":"７５弄","HOUSE_NO":"３４號三樓之３","E_COORD97":171151.29000000001,"N_COORD97":2542424.3799999999,"ADDRESS":"東門路三段３７巷７５弄３４號三樓之３","OBJECTID":172050},"geometry":{"x":171151.29000000097,"y":2542424.3800000008}},{"attributes":{"ID":172052,"DIS_CODE":0,"TOWNNAME":"東區","LI":"自強里","LIN":"10鄰","STREET":"東門路","SECT":"三段","MAREA":" ","LANE":"３７巷","ALLEY":"７５弄","HOUSE_NO":"３４號五樓之１","E_COORD97":171151.29000000001,"N_COORD97":2542424.3799999999,"ADDRESS":"東門路三段３７巷７５弄３４號五樓之１","OBJECTID":172051},"geometry":{"x":171151.29000000097,"y":2542424.3800000008}},{"attributes":{"ID":172053,"DIS_CODE":0,"TOWNNAME":"東區","LI":"自強里","LIN":"10鄰","STREET":"東門路","SECT":"三段","MAREA":" ","LANE":"３７巷","ALLEY":"７５弄","HOUSE_NO":"３４號五樓之２","E_COORD97":171151.29000000001,"N_COORD97":2542424.3799999999,"ADDRESS":"東門路三段３７巷７５弄３４號五樓之２","OBJECTID":172052},"geometry":{"x":171151.29000000097,"y":2542424.3800000008}},{"attributes":{"ID":172054,"DIS_CODE":0,"TOWNNAME":"東區","LI":"自強里","LIN":"10鄰","STREET":"東門路","SECT":"三段","MAREA":" ","LANE":"３７巷","ALLEY":"７５弄","HOUSE_NO":"３４號五樓之３","E_COORD97":171151.29000000001,"N_COORD97":2542424.3799999999,"ADDRESS":"東門路三段３７巷７５弄３４號五樓之３","OBJECTID":172053},"geometry":{"x":171151.29000000097,"y":2542424.3800000008}},{"attributes":{"ID":172055,"DIS_CODE":0,"TOWNNAME":"東區","LI":"自強里","LIN":"10鄰","STREET":"東門路","SECT":"三段","MAREA":" ","LANE":"３７巷","ALLEY":"７５弄","HOUSE_NO":"３４號四樓之１","E_COORD97":171151.29000000001,"N_COORD97":2542424.3799999999,"ADDRESS":"東門路三段３７巷７５弄３４號四樓之１","OBJECTID":172054},"geometry":{"x":171151.29000000097,"y":2542424.3800000008}},{"attributes":{"ID":172056,"DIS_CODE":0,"TOWNNAME":"東區","LI":"自強里","LIN":"10鄰","STREET":"東門路","SECT":"三段","MAREA":" ","LANE":"３７巷","ALLEY":"７５弄","HOUSE_NO":"３４號四樓之２","E_COORD97":171151.29000000001,"N_COORD97":2542424.3799999999,"ADDRESS":"東門路三段３７巷７５弄３４號四樓之２","OBJECTID":172055},"geometry":{"x":171151.29000000097,"y":2542424.3800000008}},{"attributes":{"ID":172057,"DIS_CODE":0,"TOWNNAME":"東區","LI":"自強里","LIN":"10鄰","STREET":"東門路","SECT":"三段","MAREA":" ","LANE":"３７巷","ALLEY":"７５弄","HOUSE_NO":"３４號四樓之３","E_COORD97":171151.29000000001,"N_COORD97":2542424.3799999999,"ADDRESS":"東門路三段３７巷７５弄３４號四樓之３","OBJECTID":172056},"geometry":{"x":171151.29000000097,"y":2542424.3800000008}},{"attributes":{"ID":172058,"DIS_CODE":0,"TOWNNAME":"安南區","LI":"淵東里","LIN":"7鄰","STREET":"本原街","SECT":"三段","MAREA":" ","LANE":" ","ALLEY":" ","HOUSE_NO":"１３１號","E_COORD97":165569.85999999999,"N_COORD97":2550349.98,"ADDRESS":"本原街三段１３１號","OBJECTID":172057},"geometry":{"x":165569.86000000034,"y":2550349.9800000004}},{"attributes":{"ID":172059,"DIS_CODE":0,"TOWNNAME":"安南區","LI":"淵東里","LIN":"7鄰","STREET":"本原街","SECT":"三段","MAREA":" ","LANE":" ","ALLEY":" ","HOUSE_NO":"１３３號","E_COORD97":165564.70000000001,"N_COORD97":2550347.5299999998,"ADDRESS":"本原街三段１３３號","OBJECTID":172058},"geometry":{"x":165564.70000000112,"y":2550347.5300000012}},{"attributes":{"ID":172060,"DIS_CODE":0,"TOWNNAME":"安南區","LI":"淵東里","LIN":"7鄰","STREET":"本原街","SECT":"三段","MAREA":" ","LANE":" ","ALLEY":" ","HOUSE_NO":"１４９號","E_COORD97":165537.73999999999,"N_COORD97":2550340.4100000001,"ADDRESS":"本原街三段１４９號","OBJECTID":172059},"geometry":{"x":165537.74000000115,"y":2550340.4100000001}},{"attributes":{"ID":172061,"DIS_CODE":0,"TOWNNAME":"安南區","LI":"淵東里","LIN":"7鄰","STREET":"本原街","SECT":"三段","MAREA":" ","LANE":" ","ALLEY":" ","HOUSE_NO":"１５３號","E_COORD97":165529.75,"N_COORD97":2550338.1800000002,"ADDRESS":"本原街三段１５３號","OBJECTID":172060},"geometry":{"x":165529.75000000186,"y":2550338.1799999997}},{"attributes":{"ID":172062,"DIS_CODE":0,"TOWNNAME":"安南區","LI":"公\u25A0里","LIN":"4鄰","STREET":"安興街","SECT":" ","MAREA":" ","LANE":" ","ALLEY":" ","HOUSE_NO":"１０８號","E_COORD97":164184.37,"N_COORD97":2552183.98,"ADDRESS":"安興街１０８號","OBJECTID":172061},"geometry":{"x":164184.37000000011,"y":2552183.9800000004}},{"attributes":{"ID":172063,"DIS_CODE":0,"TOWNNAME":"永康區","LI":"永康里","LIN":"32鄰","STREET":"永大路","SECT":"二段","MAREA":" ","LANE":"１５２６巷","ALLEY":"２弄","HOUSE_NO":"２號十二樓之１","E_COORD97":174283.98000000001,"N_COORD97":2547262.98,"ADDRESS":"永大路二段１５２６巷２弄２號十二樓之１","OBJECTID":172062},"geometry":{"x":174283.98000000045,"y":2547262.9800000023}},{"attributes":{"ID":172064,"DIS_CODE":0,"TOWNNAME":"安南區","LI":"公\u25A0里","LIN":"4鄰","STREET":"安興街","SECT":" ","MAREA":" ","LANE":" ","ALLEY":" ","HOUSE_NO":"９２號","E_COORD97":164226.47,"N_COORD97":2552204.6699999999,"ADDRESS":"安興街９２號","OBJECTID":172063},"geometry":{"x":164226.47000000067,"y":2552204.6700000018}},{"attributes":{"ID":172065,"DIS_CODE":0,"TOWNNAME":"安南區","LI":"公\u25A0里","LIN":"4鄰","STREET":"安興街","SECT":" ","MAREA":" ","LANE":" ","ALLEY":" ","HOUSE_NO":"９８號","E_COORD97":164210.94,"N_COORD97":2552199.3900000001,"ADDRESS":"安興街９８號","OBJECTID":172064},"geometry":{"x":164210.94000000134,"y":2552199.3900000006}},{"attributes":{"ID":172066,"DIS_CODE":0,"TOWNNAME":"安南區","LI":"南興里","LIN":"4鄰","STREET":"安興街","SECT":" ","MAREA":" ","LANE":" ","ALLEY":" ","HOUSE_NO":"４１６號","E_COORD97":163603.60000000001,"N_COORD97":2552347.8799999999,"ADDRESS":"安興街４１６號","OBJECTID":172065},"geometry":{"x":163603.60000000056,"y":2552347.8800000008}},{"attributes":{"ID":172067,"DIS_CODE":0,"TOWNNAME":"安南區","LI":"公\u25A0里","LIN":"7鄰","STREET":"安興街","SECT":" ","MAREA":" ","LANE":" ","ALLEY":" ","HOUSE_NO":"１６０號","E_COORD97":164097.22,"N_COORD97":2552103.04,"ADDRESS":"安興街１６０號","OBJECTID":172066},"geometry":{"x":164097.21999999881,"y":2552103.040000001}},{"attributes":{"ID":172068,"DIS_CODE":0,"TOWNNAME":"永康區","LI":"東橋里","LIN":"12鄰","STREET":"中山南路","SECT":" ","MAREA":" ","LANE":" ","ALLEY":" ","HOUSE_NO":"２０５號","E_COORD97":171606.78,"N_COORD97":2546173.4199999999,"ADDRESS":"中山南路２０５號","OBJECTID":172067},"geometry":{"x":171606.78000000026,"y":2546173.4199999999}},{"attributes":{"ID":172069,"DIS_CODE":0,"TOWNNAME":"永康區","LI":"東橋里","LIN":"12鄰","STREET":"中山南路","SECT":" ","MAREA":" ","LANE":" ","ALLEY":" ","HOUSE_NO":"２２５號","E_COORD97":171642.29999999999,"N_COORD97":2546200.3300000001,"ADDRESS":"中山南路２２５號","OBJECTID":172068},"geometry":{"x":171642.30000000075,"y":2546200.3300000019}},{"attributes":{"ID":172070,"DIS_CODE":0,"TOWNNAME":"永康區","LI":"永康里","LIN":"32鄰","STREET":"永大路","SECT":"二段","MAREA":" ","LANE":"１５２６巷","ALLEY":"２弄","HOUSE_NO":"２號五樓之２","E_COORD97":174282.85999999999,"N_COORD97":2547262.98,"ADDRESS":"永大路二段１５２６巷２弄２號五樓之２","OBJECTID":172069},"geometry":{"x":174282.86000000034,"y":2547262.9800000023}},{"attributes":{"ID":172071,"DIS_CODE":0,"TOWNNAME":"學甲區","LI":"三慶里","LIN":"16鄰","STREET":" ","SECT":" ","MAREA":"紅茄","LANE":" ","ALLEY":" ","HOUSE_NO":"２３號","E_COORD97":167583.85000000001,"N_COORD97":2575756.5299999998,"ADDRESS":"紅茄２３號","OBJECTID":172070},"geometry":{"x":167583.85000000056,"y":2575756.5299999993}},{"attributes":{"ID":172072,"DIS_CODE":0,"TOWNNAME":"永康區","LI":"西勢里","LIN":"18鄰","STREET":"富強路","SECT":"一段","MAREA":" ","LANE":"２巷","ALLEY":"８弄","HOUSE_NO":"４３號三樓","E_COORD97":175474.09,"N_COORD97":2546031.2799999998,"ADDRESS":"富強路一段２巷８弄４３號三樓","OBJECTID":172071},"geometry":{"x":175474.08999999985,"y":2546031.2799999993}},{"attributes":{"ID":172073,"DIS_CODE":0,"TOWNNAME":"永康區","LI":"西灣里","LIN":"43鄰","STREET":"大灣路","SECT":" ","MAREA":" ","LANE":"９４２巷","ALLEY":"３８８弄","HOUSE_NO":"２７號二樓之２","E_COORD97":174034,"N_COORD97":2545504.8100000001,"ADDRESS":"大灣路９４２巷３８８弄２７號二樓之２","OBJECTID":172072},"geometry":{"x":174034,"y":2545504.8100000024}},{"attributes":{"ID":172074,"DIS_CODE":0,"TOWNNAME":"永康區","LI":"西灣里","LIN":"43鄰","STREET":"大灣路","SECT":" ","MAREA":" ","LANE":"９４２巷","ALLEY":"３８８弄","HOUSE_NO":"２９號二樓之１","E_COORD97":174047.35999999999,"N_COORD97":2545497.3500000001,"ADDRESS":"大灣路９４２巷３８８弄２９號二樓之１","OBJECTID":172073},"geometry":{"x":174047.36000000034,"y":2545497.3500000015}},{"attributes":{"ID":172075,"DIS_CODE":0,"TOWNNAME":"永康區","LI":"東橋里","LIN":"12鄰","STREET":"中山南路","SECT":" ","MAREA":" ","LANE":" ","ALLEY":" ","HOUSE_NO":"２０１號","E_COORD97":171600.12,"N_COORD97":2546167.9199999999,"ADDRESS":"中山南路２０１號","OBJECTID":172074},"geometry":{"x":171600.12000000104,"y":2546167.9200000018}},{"attributes":{"ID":172076,"DIS_CODE":0,"TOWNNAME":"永康區","LI":"東橋里","LIN":"12鄰","STREET":"中山南路","SECT":" ","MAREA":" ","LANE":" ","ALLEY":" ","HOUSE_NO":"２１３號","E_COORD97":171621.89000000001,"N_COORD97":2546185.3500000001,"ADDRESS":"中山南路２１３號","OBJECTID":172075},"geometry":{"x":171621.88999999966,"y":2546185.3500000015}},{"attributes":{"ID":172077,"DIS_CODE":0,"TOWNNAME":"永康區","LI":"南灣里","LIN":"12鄰","STREET":"立興街","SECT":" ","MAREA":" ","LANE":" ","ALLEY":" ","HOUSE_NO":"３３號","E_COORD97":174617.75,"N_COORD97":2544859.0499999998,"ADDRESS":"立興街３３號","OBJECTID":172076},"geometry":{"x":174617.75000000186,"y":2544859.0500000026}},{"attributes":{"ID":172078,"DIS_CODE":0,"TOWNNAME":"永康區","LI":"東灣里","LIN":"12鄰","STREET":"大灣路","SECT":" ","MAREA":" ","LANE":" ","ALLEY":" ","HOUSE_NO":"４１１號","E_COORD97":174723.31,"N_COORD97":2544829.7400000002,"ADDRESS":"大灣路４１１號","OBJECTID":172077},"geometry":{"x":174723.30999999959,"y":2544829.7400000039}},{"attributes":{"ID":172079,"DIS_CODE":0,"TOWNNAME":"永康區","LI":"南灣里","LIN":"12鄰","STREET":"立興街","SECT":" ","MAREA":" ","LANE":" ","ALLEY":" ","HOUSE_NO":"２３號","E_COORD97":174640.14999999999,"N_COORD97":2544858.1000000001,"ADDRESS":"立興街２３號","OBJECTID":172078},"geometry":{"x":174640.15000000037,"y":2544858.1000000015}},{"attributes":{"ID":172080,"DIS_CODE":0,"TOWNNAME":"永康區","LI":"西灣里","LIN":"43鄰","STREET":"大灣路","SECT":" ","MAREA":" ","LANE":"９４２巷","ALLEY":"３８８弄","HOUSE_NO":"２９號四樓之１","E_COORD97":174047.35999999999,"N_COORD97":2545497.3500000001,"ADDRESS":"大灣路９４２巷３８８弄２９號四樓之１","OBJECTID":172079},"geometry":{"x":174047.36000000034,"y":2545497.3500000015}},{"attributes":{"ID":172081,"DIS_CODE":0,"TOWNNAME":"永康區","LI":"西灣里","LIN":"43鄰","STREET":"大灣路","SECT":" ","MAREA":" ","LANE":"９４２巷","ALLEY":"３８８弄","HOUSE_NO":"２７號六樓之２","E_COORD97":174034,"N_COORD97":2545504.8100000001,"ADDRESS":"大灣路９４２巷３８８弄２７號六樓之２","OBJECTID":172080},"geometry":{"x":174034,"y":2545504.8100000024}},{"attributes":{"ID":172082,"DIS_CODE":0,"TOWNNAME":"永康區","LI":"尚頂里","LIN":"26鄰","STREET":"南台街","SECT":" ","MAREA":" ","LANE":"５４巷","ALLEY":"１０弄","HOUSE_NO":"１號三樓","E_COORD97":170358.07000000001,"N_COORD97":2547025.7599999998,"ADDRESS":"南台街５４巷１０弄１號三樓","OBJECTID":172081},"geometry":{"x":170358.07000000123,"y":2547025.7599999998}},{"attributes":{"ID":172083,"DIS_CODE":0,"TOWNNAME":"永康區","LI":"西灣里","LIN":"43鄰","STREET":"大灣路","SECT":" ","MAREA":" ","LANE":"９４２巷","ALLEY":"３８８弄","HOUSE_NO":"２９號六樓之２","E_COORD97":174047.48999999999,"N_COORD97":2545497.3500000001,"ADDRESS":"大灣路９４２巷３８８弄２９號六樓之２","OBJECTID":172082},"geometry":{"x":174047.49000000115,"y":2545497.3500000015}},{"attributes":{"ID":172084,"DIS_CODE":0,"TOWNNAME":"永康區","LI":"永康里","LIN":"32鄰","STREET":"永大路","SECT":"二段","MAREA":" ","LANE":"１５２６巷","ALLEY":"２弄","HOUSE_NO":"３號二樓之２","E_COORD97":174316.04999999999,"N_COORD97":2547285.5600000001,"ADDRESS":"永大路二段１５２６巷２弄３號二樓之２","OBJECTID":172083},"geometry":{"x":174316.05000000075,"y":2547285.5600000005}},{"attributes":{"ID":172085,"DIS_CODE":0,"TOWNNAME":"永康區","LI":"永康里","LIN":"32鄰","STREET":"永大路","SECT":"二段","MAREA":" ","LANE":"１５２６巷","ALLEY":"２弄","HOUSE_NO":"３號五樓之２","E_COORD97":174316.04999999999,"N_COORD97":2547285.5600000001,"ADDRESS":"永大路二段１５２６巷２弄３號五樓之２","OBJECTID":172084},"geometry":{"x":174316.05000000075,"y":2547285.5600000005}},{"attributes":{"ID":172086,"DIS_CODE":0,"TOWNNAME":"仁德區","LI":"一甲里","LIN":"12鄰","STREET":"忠義路","SECT":" ","MAREA":" ","LANE":" ","ALLEY":" ","HOUSE_NO":"３４５號","E_COORD97":173552.26000000001,"N_COORD97":2541872.27,"ADDRESS":"忠義路３４５號","OBJECTID":172085},"geometry":{"x":173552.25999999978,"y":2541872.2699999977}},{"attributes":{"ID":172087,"DIS_CODE":0,"TOWNNAME":"永康區","LI":"永康里","LIN":"32鄰","STREET":"永大路","SECT":"二段","MAREA":" ","LANE":"１５２６巷","ALLEY":"２弄","HOUSE_NO":"２號五樓之５","E_COORD97":174282.88,"N_COORD97":2547262.98,"ADDRESS":"永大路二段１５２６巷２弄２號五樓之５","OBJECTID":172086},"geometry":{"x":174282.88000000175,"y":2547262.9800000023}},{"attributes":{"ID":172088,"DIS_CODE":0,"TOWNNAME":"永康區","LI":"永康里","LIN":"32鄰","STREET":"永大路","SECT":"二段","MAREA":" ","LANE":"１５２６巷","ALLEY":"２弄","HOUSE_NO":"２號四樓之６","E_COORD97":174282.70000000001,"N_COORD97":2547262.98,"ADDRESS":"永大路二段１５２６巷２弄２號四樓之６","OBJECTID":172087},"geometry":{"x":174282.70000000205,"y":2547262.9800000023}},{"attributes":{"ID":172089,"DIS_CODE":0,"TOWNNAME":"永康區","LI":"永康里","LIN":"32鄰","STREET":"永大路","SECT":"二段","MAREA":" ","LANE":"１５２６巷","ALLEY":"２弄","HOUSE_NO":"２號九樓之６","E_COORD97":174282.70000000001,"N_COORD97":2547262.98,"ADDRESS":"永大路二段１５２６巷２弄２號九樓之６","OBJECTID":172088},"geometry":{"x":174282.70000000205,"y":2547262.9800000023}},{"attributes":{"ID":172090,"DIS_CODE":0,"TOWNNAME":"永康區","LI":"南灣里","LIN":"12鄰","STREET":"立興街","SECT":" ","MAREA":" ","LANE":" ","ALLEY":" ","HOUSE_NO":"５１號","E_COORD97":174591.57000000001,"N_COORD97":2544826.1600000001,"ADDRESS":"立興街５１號","OBJECTID":172089},"geometry":{"x":174591.5700000003,"y":2544826.1600000001}},{"attributes":{"ID":172091,"DIS_CODE":0,"TOWNNAME":"山上區","LI":"明和里","LIN":"12鄰","STREET":" ","SECT":" ","MAREA":"明和","LANE":" ","ALLEY":" ","HOUSE_NO":"１７５號","E_COORD97":183328.84,"N_COORD97":2556227.25,"ADDRESS":"明和１７５號","OBJECTID":172090},"geometry":{"x":183328.84000000078,"y":2556227.25}},{"attributes":{"ID":172092,"DIS_CODE":0,"TOWNNAME":"永康區","LI":"埔園里","LIN":"12鄰","STREET":"中山路","SECT":" ","MAREA":" ","LANE":" ","ALLEY":" ","HOUSE_NO":"１７５號","E_COORD97":173693.88,"N_COORD97":2548005,"ADDRESS":"中山路１７５號","OBJECTID":172091},"geometry":{"x":173693.87999999989,"y":2548005.0000000019}},{"attributes":{"ID":172093,"DIS_CODE":0,"TOWNNAME":"永康區","LI":"南灣里","LIN":"12鄰","STREET":"立興街","SECT":" ","MAREA":" ","LANE":" ","ALLEY":" ","HOUSE_NO":"２７號","E_COORD97":174630.73000000001,"N_COORD97":2544859.1200000001,"ADDRESS":"立興街２７號","OBJECTID":172092},"geometry":{"x":174630.73000000138,"y":2544859.1200000029}},{"attributes":{"ID":172094,"DIS_CODE":0,"TOWNNAME":"永康區","LI":"東灣里","LIN":"12鄰","STREET":"大灣二街","SECT":" ","MAREA":" ","LANE":" ","ALLEY":" ","HOUSE_NO":"１２０號","E_COORD97":174727.45000000001,"N_COORD97":2544813.5699999998,"ADDRESS":"大灣二街１２０號","OBJECTID":172093},"geometry":{"x":174727.45000000112,"y":2544813.5700000003}},{"attributes":{"ID":172095,"DIS_CODE":0,"TOWNNAME":"永康區","LI":"東灣里","LIN":"12鄰","STREET":"大灣二街","SECT":" ","MAREA":" ","LANE":" ","ALLEY":" ","HOUSE_NO":"１１２號","E_COORD97":174746.82999999999,"N_COORD97":2544803.4900000002,"ADDRESS":"大灣二街１１２號","OBJECTID":172094},"geometry":{"x":174746.83000000101,"y":2544803.4900000002}},{"attributes":{"ID":172096,"DIS_CODE":0,"TOWNNAME":"安南區","LI":"公\u25A0里","LIN":"7鄰","STREET":"安興街","SECT":" ","MAREA":" ","LANE":" ","ALLEY":" ","HOUSE_NO":"１７６號","E_COORD97":164066.35000000001,"N_COORD97":2552135.1400000001,"ADDRESS":"安興街１７６號","OBJECTID":172095},"geometry":{"x":164066.35000000056,"y":2552135.1400000025}},{"attributes":{"ID":172097,"DIS_CODE":0,"TOWNNAME":"安南區","LI":"南興里","LIN":"4鄰","STREET":"安興街","SECT":" ","MAREA":" ","LANE":" ","ALLEY":" ","HOUSE_NO":"３８４號","E_COORD97":163721.97,"N_COORD97":2552367.1800000002,"ADDRESS":"安興街３８４號","OBJECTID":172096},"geometry":{"x":163721.96999999974,"y":2552367.1800000016}},{"attributes":{"ID":172098,"DIS_CODE":0,"TOWNNAME":"安南區","LI":"南興里","LIN":"4鄰","STREET":"安興街","SECT":" ","MAREA":" ","LANE":" ","ALLEY":" ","HOUSE_NO":"３８６號","E_COORD97":163714.62,"N_COORD97":2552362.6200000001,"ADDRESS":"安興街３８６號","OBJECTID":172097},"geometry":{"x":163714.62000000011,"y":2552362.6200000029}},{"attributes":{"ID":172099,"DIS_CODE":0,"TOWNNAME":"安南區","LI":"南興里","LIN":"4鄰","STREET":"安興街","SECT":" ","MAREA":" ","LANE":" ","ALLEY":" ","HOUSE_NO":"４０８號","E_COORD97":163618.85999999999,"N_COORD97":2552356.8199999998,"ADDRESS":"安興街４０８號","OBJECTID":172098},"geometry":{"x":163618.8599999994,"y":2552356.8200000022}},{"attributes":{"ID":172100,"DIS_CODE":0,"TOWNNAME":"安南區","LI":"南興里","LIN":"4鄰","STREET":"安興街","SECT":" ","MAREA":" ","LANE":" ","ALLEY":" ","HOUSE_NO":"４１８號","E_COORD97":163598.34,"N_COORD97":2552353.1400000001,"ADDRESS":"安興街４１８號","OBJECTID":172099},"geometry":{"x":163598.34000000171,"y":2552353.1400000006}},{"attributes":{"ID":172101,"DIS_CODE":0,"TOWNNAME":"永康區","LI":"永康里","LIN":"32鄰","STREET":"永大路","SECT":"二段","MAREA":" ","LANE":"１５２６巷","ALLEY":"２弄","HOUSE_NO":"３號四樓之１","E_COORD97":174315.92000000001,"N_COORD97":2547285.5600000001,"ADDRESS":"永大路二段１５２６巷２弄３號四樓之１","OBJECTID":172100},"geometry":{"x":174315.91999999993,"y":2547285.5600000005}},{"attributes":{"ID":172102,"DIS_CODE":0,"TOWNNAME":"永康區","LI":"永康里","LIN":"32鄰","STREET":"永大路","SECT":"二段","MAREA":" ","LANE":"１５２６巷","ALLEY":"２弄","HOUSE_NO":"３號四樓之２","E_COORD97":174316.04999999999,"N_COORD97":2547285.5600000001,"ADDRESS":"永大路二段１５２６巷２弄３號四樓之２","OBJECTID":172101},"geometry":{"x":174316.05000000075,"y":2547285.5600000005}},{"attributes":{"ID":172103,"DIS_CODE":0,"TOWNNAME":"永康區","LI":"永康里","LIN":"32鄰","STREET":"永大路","SECT":"二段","MAREA":" ","LANE":"１５２６巷","ALLEY":"２弄","HOUSE_NO":"２號七樓之９","E_COORD97":174282.70000000001,"N_COORD97":2547262.98,"ADDRESS":"永大路二段１５２６巷２弄２號七樓之９","OBJECTID":172102},"geometry":{"x":174282.70000000205,"y":2547262.9800000023}},{"attributes":{"ID":172104,"DIS_CODE":0,"TOWNNAME":"永康區","LI":"永康里","LIN":"32鄰","STREET":"永大路","SECT":"二段","MAREA":" ","LANE":"１５２６巷","ALLEY":"２弄","HOUSE_NO":"３號七樓之２","E_COORD97":174316.04999999999,"N_COORD97":2547285.5600000001,"ADDRESS":"永大路二段１５２６巷２弄３號七樓之２","OBJECTID":172103},"geometry":{"x":174316.05000000075,"y":2547285.5600000005}},{"attributes":{"ID":172105,"DIS_CODE":0,"TOWNNAME":"永康區","LI":"永康里","LIN":"32鄰","STREET":"永大路","SECT":"二段","MAREA":" ","LANE":"１５２６巷","ALLEY":"２弄","HOUSE_NO":"２號五樓之３","E_COORD97":174282.82999999999,"N_COORD97":2547262.98,"ADDRESS":"永大路二段１５２６巷２弄２號五樓之３","OBJECTID":172104},"geometry":{"x":174282.83000000007,"y":2547262.9800000023}},{"attributes":{"ID":172106,"DIS_CODE":0,"TOWNNAME":"永康區","LI":"永康里","LIN":"32鄰","STREET":"永大路","SECT":"二段","MAREA":" ","LANE":"１５２６巷","ALLEY":"２弄","HOUSE_NO":"２號十四樓之９","E_COORD97":174283.95000000001,"N_COORD97":2547262.98,"ADDRESS":"永大路二段１５２６巷２弄２號十四樓之９","OBJECTID":172105},"geometry":{"x":174283.95000000019,"y":2547262.9800000023}},{"attributes":{"ID":172107,"DIS_CODE":0,"TOWNNAME":"永康區","LI":"永康里","LIN":"32鄰","STREET":"永大路","SECT":"二段","MAREA":" ","LANE":"１５２６巷","ALLEY":"２弄","HOUSE_NO":"２號四樓之９","E_COORD97":174282.70000000001,"N_COORD97":2547262.98,"ADDRESS":"永大路二段１５２６巷２弄２號四樓之９","OBJECTID":172106},"geometry":{"x":174282.70000000205,"y":2547262.9800000023}},{"attributes":{"ID":172108,"DIS_CODE":0,"TOWNNAME":"永康區","LI":"永康里","LIN":"32鄰","STREET":"永大路","SECT":"二段","MAREA":" ","LANE":"１５２６巷","ALLEY":"２弄","HOUSE_NO":"３號四樓之５","E_COORD97":174316.07000000001,"N_COORD97":2547285.5600000001,"ADDRESS":"永大路二段１５２６巷２弄３號四樓之５","OBJECTID":172107},"geometry":{"x":174316.07000000123,"y":2547285.5600000005}},{"attributes":{"ID":172109,"DIS_CODE":0,"TOWNNAME":"東區","LI":"泉南里","LIN":"37鄰","STREET":"林森路","SECT":"一段","MAREA":" ","LANE":"１５３巷","ALLEY":"２７弄","HOUSE_NO":"１號七樓","E_COORD97":169532.32000000001,"N_COORD97":2542755.7400000002,"ADDRESS":"林森路一段１５３巷２７弄１號七樓","OBJECTID":172108},"geometry":{"x":169532.32000000123,"y":2542755.7400000021}},{"attributes":{"ID":172110,"DIS_CODE":0,"TOWNNAME":"東區","LI":"泉南里","LIN":"37鄰","STREET":"林森路","SECT":"一段","MAREA":" ","LANE":"１５３巷","ALLEY":"２７弄","HOUSE_NO":"１號九樓","E_COORD97":169532.32000000001,"N_COORD97":2542755.7400000002,"ADDRESS":"林森路一段１５３巷２７弄１號九樓","OBJECTID":172109},"geometry":{"x":169532.32000000123,"y":2542755.7400000021}},{"attributes":{"ID":172111,"DIS_CODE":0,"TOWNNAME":"東區","LI":"泉南里","LIN":"37鄰","STREET":"林森路","SECT":"一段","MAREA":" ","LANE":"１５３巷","ALLEY":"２７弄","HOUSE_NO":"１號二樓","E_COORD97":169532.32000000001,"N_COORD97":2542755.7400000002,"ADDRESS":"林森路一段１５３巷２７弄１號二樓","OBJECTID":172110},"geometry":{"x":169532.32000000123,"y":2542755.7400000021}},{"attributes":{"ID":172112,"DIS_CODE":0,"TOWNNAME":"東區","LI":"泉南里","LIN":"37鄰","STREET":"林森路","SECT":"一段","MAREA":" ","LANE":"１５３巷","ALLEY":"２７弄","HOUSE_NO":"１號八樓","E_COORD97":169532.32000000001,"N_COORD97":2542755.7400000002,"ADDRESS":"林森路一段１５３巷２７弄１號八樓","OBJECTID":172111},"geometry":{"x":169532.32000000123,"y":2542755.7400000021}},{"attributes":{"ID":172113,"DIS_CODE":0,"TOWNNAME":"東區","LI":"泉南里","LIN":"37鄰","STREET":"林森路","SECT":"一段","MAREA":" ","LANE":"１５３巷","ALLEY":"２７弄","HOUSE_NO":"１號十一樓","E_COORD97":169532.32000000001,"N_COORD97":2542755.7400000002,"ADDRESS":"林森路一段１５３巷２７弄１號十一樓","OBJECTID":172112},"geometry":{"x":169532.32000000123,"y":2542755.7400000021}},{"attributes":{"ID":172114,"DIS_CODE":0,"TOWNNAME":"東區","LI":"泉南里","LIN":"37鄰","STREET":"林森路","SECT":"一段","MAREA":" ","LANE":"１５３巷","ALLEY":"２７弄","HOUSE_NO":"１號十二樓","E_COORD97":169532.32000000001,"N_COORD97":2542755.7400000002,"ADDRESS":"林森路一段１５３巷２７弄１號十二樓","OBJECTID":172113},"geometry":{"x":169532.32000000123,"y":2542755.7400000021}},{"attributes":{"ID":172115,"DIS_CODE":0,"TOWNNAME":"東區","LI":"泉南里","LIN":"37鄰","STREET":"林森路","SECT":"一段","MAREA":" ","LANE":"１５３巷","ALLEY":"２７弄","HOUSE_NO":"１號十三樓","E_COORD97":169532.32000000001,"N_COORD97":2542755.7400000002,"ADDRESS":"林森路一段１５３巷２７弄１號十三樓","OBJECTID":172114},"geometry":{"x":169532.32000000123,"y":2542755.7400000021}},{"attributes":{"ID":172116,"DIS_CODE":0,"TOWNNAME":"東區","LI":"泉南里","LIN":"37鄰","STREET":"林森路","SECT":"一段","MAREA":" ","LANE":"１５３巷","ALLEY":"２７弄","HOUSE_NO":"１號十五樓","E_COORD97":169532.32000000001,"N_COORD97":2542755.7400000002,"ADDRESS":"林森路一段１５３巷２７弄１號十五樓","OBJECTID":172115},"geometry":{"x":169532.32000000123,"y":2542755.7400000021}},{"attributes":{"ID":172117,"DIS_CODE":0,"TOWNNAME":"東區","LI":"泉南里","LIN":"37鄰","STREET":"林森路","SECT":"一段","MAREA":" ","LANE":"１５３巷","ALLEY":"２７弄","HOUSE_NO":"１號十四樓","E_COORD97":169532.32000000001,"N_COORD97":2542755.7400000002,"ADDRESS":"林森路一段１５３巷２７弄１號十四樓","OBJECTID":172116},"geometry":{"x":169532.32000000123,"y":2542755.7400000021}},{"attributes":{"ID":172118,"DIS_CODE":0,"TOWNNAME":"東區","LI":"泉南里","LIN":"37鄰","STREET":"林森路","SECT":"一段","MAREA":" ","LANE":"１５３巷","ALLEY":"２７弄","HOUSE_NO":"１號十樓","E_COORD97":169532.32000000001,"N_COORD97":2542755.7400000002,"ADDRESS":"林森路一段１５３巷２７弄１號十樓","OBJECTID":172117},"geometry":{"x":169532.32000000123,"y":2542755.7400000021}},{"attributes":{"ID":172119,"DIS_CODE":0,"TOWNNAME":"東區","LI":"泉南里","LIN":"37鄰","STREET":"林森路","SECT":"一段","MAREA":" ","LANE":"１５３巷","ALLEY":"２７弄","HOUSE_NO":"１號三樓","E_COORD97":169532.32000000001,"N_COORD97":2542755.7400000002,"ADDRESS":"林森路一段１５３巷２７弄１號三樓","OBJECTID":172118},"geometry":{"x":169532.32000000123,"y":2542755.7400000021}},{"attributes":{"ID":172120,"DIS_CODE":0,"TOWNNAME":"東區","LI":"泉南里","LIN":"37鄰","STREET":"林森路","SECT":"一段","MAREA":" ","LANE":"１５３巷","ALLEY":"２７弄","HOUSE_NO":"１號五樓","E_COORD97":169532.32000000001,"N_COORD97":2542755.7400000002,"ADDRESS":"林森路一段１５３巷２７弄１號五樓","OBJECTID":172119},"geometry":{"x":169532.32000000123,"y":2542755.7400000021}},{"attributes":{"ID":172121,"DIS_CODE":0,"TOWNNAME":"東區","LI":"泉南里","LIN":"37鄰","STREET":"林森路","SECT":"一段","MAREA":" ","LANE":"１５３巷","ALLEY":"２７弄","HOUSE_NO":"１號六樓","E_COORD97":169532.32000000001,"N_COORD97":2542755.7400000002,"ADDRESS":"林森路一段１５３巷２７弄１號六樓","OBJECTID":172120},"geometry":{"x":169532.32000000123,"y":2542755.7400000021}},{"attributes":{"ID":172122,"DIS_CODE":0,"TOWNNAME":"新市區","LI":"新和里","LIN":"12鄰","STREET":"可口街","SECT":" ","MAREA":" ","LANE":"２２巷","ALLEY":" ","HOUSE_NO":"２號","E_COORD97":177607.32000000001,"N_COORD97":2552394.5,"ADDRESS":"可口街２２巷２號","OBJECTID":172121},"geometry":{"x":177607.3200000003,"y":2552394.5}},{"attributes":{"ID":172123,"DIS_CODE":0,"TOWNNAME":"北區","LI":"成德里","LIN":"41鄰","STREET":"文成二路","SECT":" ","MAREA":" ","LANE":" ","ALLEY":" ","HOUSE_NO":"３３２號","E_COORD97":168217.78,"N_COORD97":2546178.3799999999,"ADDRESS":"文成二路３３２號","OBJECTID":172122},"geometry":{"x":168217.78000000026,"y":2546178.3800000008}},{"attributes":{"ID":172124,"DIS_CODE":0,"TOWNNAME":"北區","LI":"成德里","LIN":"41鄰","STREET":"文成二路","SECT":" ","MAREA":" ","LANE":" ","ALLEY":" ","HOUSE_NO":"３３６號","E_COORD97":168210.79000000001,"N_COORD97":2546178.0600000001,"ADDRESS":"文成二路３３６號","OBJECTID":172123},"geometry":{"x":168210.79000000004,"y":2546178.0600000024}},{"attributes":{"ID":172125,"DIS_CODE":0,"TOWNNAME":"北區","LI":"成德里","LIN":"41鄰","STREET":"文成二路","SECT":" ","MAREA":" ","LANE":" ","ALLEY":" ","HOUSE_NO":"３３８號","E_COORD97":168202.38,"N_COORD97":2546177.9100000001,"ADDRESS":"文成二路３３８號","OBJECTID":172124},"geometry":{"x":168202.38000000082,"y":2546177.9100000039}},{"attributes":{"ID":172126,"DIS_CODE":0,"TOWNNAME":"新營區","LI":"新北里","LIN":"15鄰","STREET":"南新街","SECT":" ","MAREA":" ","LANE":" ","ALLEY":" ","HOUSE_NO":"３３號","E_COORD97":179319.14000000001,"N_COORD97":2578877.1800000002,"ADDRESS":"南新街３３號","OBJECTID":172125},"geometry":{"x":179319.1400000006,"y":2578877.1800000016}},{"attributes":{"ID":172127,"DIS_CODE":0,"TOWNNAME":"東區","LI":"泉南里","LIN":"37鄰","STREET":"林森路","SECT":"一段","MAREA":" ","LANE":"１５３巷","ALLEY":"２７弄","HOUSE_NO":"１號四樓","E_COORD97":169532.32000000001,"N_COORD97":2542755.7400000002,"ADDRESS":"林森路一段１５３巷２７弄１號四樓","OBJECTID":172126},"geometry":{"x":169532.32000000123,"y":2542755.7400000021}},{"attributes":{"ID":172128,"DIS_CODE":0,"TOWNNAME":"永康區","LI":"永康里","LIN":"32鄰","STREET":"永大路","SECT":"二段","MAREA":" ","LANE":"１５２６巷","ALLEY":"２弄","HOUSE_NO":"２號十樓之２","E_COORD97":174282.85999999999,"N_COORD97":2547262.98,"ADDRESS":"永大路二段１５２６巷２弄２號十樓之２","OBJECTID":172127},"geometry":{"x":174282.86000000034,"y":2547262.9800000023}},{"attributes":{"ID":172129,"DIS_CODE":0,"TOWNNAME":"永康區","LI":"永康里","LIN":"32鄰","STREET":"永大路","SECT":"二段","MAREA":" ","LANE":"１５２６巷","ALLEY":"２弄","HOUSE_NO":"２號八樓之６","E_COORD97":174282.70000000001,"N_COORD97":2547262.98,"ADDRESS":"永大路二段１５２６巷２弄２號八樓之６","OBJECTID":172128},"geometry":{"x":174282.70000000205,"y":2547262.9800000023}},{"attributes":{"ID":172130,"DIS_CODE":0,"TOWNNAME":"永康區","LI":"永康里","LIN":"32鄰","STREET":"永大路","SECT":"二段","MAREA":" ","LANE":"１５２６巷","ALLEY":"２弄","HOUSE_NO":"２號八樓之５","E_COORD97":174282.88,"N_COORD97":2547262.98,"ADDRESS":"永大路二段１５２６巷２弄２號八樓之５","OBJECTID":172129},"geometry":{"x":174282.88000000175,"y":2547262.9800000023}},{"attributes":{"ID":172131,"DIS_CODE":0,"TOWNNAME":"永康區","LI":"永康里","LIN":"32鄰","STREET":"永大路","SECT":"二段","MAREA":" ","LANE":"１５２６巷","ALLEY":"２弄","HOUSE_NO":"２號七樓之２","E_COORD97":174282.85999999999,"N_COORD97":2547262.98,"ADDRESS":"永大路二段１５２６巷２弄２號七樓之２","OBJECTID":172130},"geometry":{"x":174282.86000000034,"y":2547262.9800000023}},{"attributes":{"ID":172132,"DIS_CODE":0,"TOWNNAME":"永康區","LI":"永康里","LIN":"32鄰","STREET":"永大路","SECT":"二段","MAREA":" ","LANE":"１５２６巷","ALLEY":"２弄","HOUSE_NO":"２號九樓之２","E_COORD97":174282.85999999999,"N_COORD97":2547262.98,"ADDRESS":"永大路二段１５２６巷２弄２號九樓之２","OBJECTID":172131},"geometry":{"x":174282.86000000034,"y":2547262.9800000023}},{"attributes":{"ID":172133,"DIS_CODE":0,"TOWNNAME":"善化區","LI":"嘉北里","LIN":"12鄰","STREET":" ","SECT":" ","MAREA":"茄拔","LANE":" ","ALLEY":" ","HOUSE_NO":"２５０號","E_COORD97":180977.79000000001,"N_COORD97":2559862.0099999998,"ADDRESS":"茄拔２５０號","OBJECTID":172132},"geometry":{"x":180977.7900000019,"y":2559862.0100000016}},{"attributes":{"ID":172134,"DIS_CODE":0,"TOWNNAME":"善化區","LI":"嘉南里","LIN":"12鄰","STREET":" ","SECT":" ","MAREA":"茄拔","LANE":" ","ALLEY":" ","HOUSE_NO":"３５５之２號","E_COORD97":180647.64000000001,"N_COORD97":2559599.02,"ADDRESS":"茄拔３５５之２號","OBJECTID":172133},"geometry":{"x":180647.63999999966,"y":2559599.0200000033}},{"attributes":{"ID":172135,"DIS_CODE":0,"TOWNNAME":"善化區","LI":"小新里","LIN":"12鄰","STREET":" ","SECT":" ","MAREA":"小新營","LANE":" ","ALLEY":" ","HOUSE_NO":"１０１號之７","E_COORD97":179544.26000000001,"N_COORD97":2558164.27,"ADDRESS":"小新營１０１號之７","OBJECTID":172134},"geometry":{"x":179544.26000000071,"y":2558164.2700000014}},{"attributes":{"ID":172136,"DIS_CODE":0,"TOWNNAME":"永康區","LI":"永康里","LIN":"32鄰","STREET":"永大路","SECT":"二段","MAREA":" ","LANE":"１５２６巷","ALLEY":"２弄","HOUSE_NO":"２號六樓之６","E_COORD97":174282.70000000001,"N_COORD97":2547262.98,"ADDRESS":"永大路二段１５２６巷２弄２號六樓之６","OBJECTID":172135},"geometry":{"x":174282.70000000205,"y":2547262.9800000023}},{"attributes":{"ID":172137,"DIS_CODE":0,"TOWNNAME":"善化區","LI":"嘉北里","LIN":"12鄰","STREET":" ","SECT":" ","MAREA":"茄拔","LANE":" ","ALLEY":" ","HOUSE_NO":"２９０之８號","E_COORD97":180936.51000000001,"N_COORD97":2559807.52,"ADDRESS":"茄拔２９０之８號","OBJECTID":172136},"geometry":{"x":180936.50999999978,"y":2559807.5200000014}},{"attributes":{"ID":172138,"DIS_CODE":0,"TOWNNAME":"善化區","LI":"嘉南里","LIN":"12鄰","STREET":" ","SECT":" ","MAREA":"茄拔","LANE":" ","ALLEY":" ","HOUSE_NO":"３５９號之５","E_COORD97":180639.69,"N_COORD97":2559580.27,"ADDRESS":"茄拔３５９號之５","OBJECTID":172137},"geometry":{"x":180639.69000000041,"y":2559580.2700000033}},{"attributes":{"ID":172139,"DIS_CODE":0,"TOWNNAME":"善化區","LI":"胡厝里","LIN":"12鄰","STREET":" ","SECT":" ","MAREA":"百二甲","LANE":" ","ALLEY":" ","HOUSE_NO":"２２號之６","E_COORD97":175150.85000000001,"N_COORD97":2559800.02,"ADDRESS":"百二甲２２號之６","OBJECTID":172138},"geometry":{"x":175150.85000000056,"y":2559800.0200000014}},{"attributes":{"ID":172140,"DIS_CODE":0,"TOWNNAME":"善化區","LI":"胡家里","LIN":"12鄰","STREET":" ","SECT":" ","MAREA":"胡厝寮","LANE":" ","ALLEY":" ","HOUSE_NO":"８２號","E_COORD97":175386.78,"N_COORD97":2560664.75,"ADDRESS":"胡厝寮８２號","OBJECTID":172139},"geometry":{"x":175386.78000000026,"y":2560664.75}},{"attributes":{"ID":172141,"DIS_CODE":0,"TOWNNAME":"善化區","LI":"嘉南里","LIN":"12鄰","STREET":" ","SECT":" ","MAREA":"茄拔","LANE":" ","ALLEY":" ","HOUSE_NO":"３５５之１９號","E_COORD97":180672.59,"N_COORD97":2559605.52,"ADDRESS":"茄拔３５５之１９號","OBJECTID":172140},"geometry":{"x":180672.59000000078,"y":2559605.5199999996}},{"attributes":{"ID":172142,"DIS_CODE":0,"TOWNNAME":"善化區","LI":"嘉北里","LIN":"12鄰","STREET":" ","SECT":" ","MAREA":"茄拔","LANE":" ","ALLEY":" ","HOUSE_NO":"２２８之９號","E_COORD97":180967.73000000001,"N_COORD97":2559941.02,"ADDRESS":"茄拔２２８之９號","OBJECTID":172141},"geometry":{"x":180967.73000000045,"y":2559941.0199999996}},{"attributes":{"ID":172143,"DIS_CODE":0,"TOWNNAME":"善化區","LI":"小新里","LIN":"12鄰","STREET":" ","SECT":" ","MAREA":"小新營","LANE":" ","ALLEY":" ","HOUSE_NO":"９９號之１","E_COORD97":179511.76000000001,"N_COORD97":2558126.02,"ADDRESS":"小新營９９號之１","OBJECTID":172142},"geometry":{"x":179511.76000000071,"y":2558126.0199999996}},{"attributes":{"ID":172144,"DIS_CODE":0,"TOWNNAME":"善化區","LI":"嘉北里","LIN":"12鄰","STREET":" ","SECT":" ","MAREA":"茄拔","LANE":" ","ALLEY":" ","HOUSE_NO":"２２８之６號","E_COORD97":180953.09,"N_COORD97":2559941.02,"ADDRESS":"茄拔２２８之６號","OBJECTID":172143},"geometry":{"x":180953.08999999985,"y":2559941.0199999996}},{"attributes":{"ID":172145,"DIS_CODE":0,"TOWNNAME":"善化區","LI":"小新里","LIN":"12鄰","STREET":" ","SECT":" ","MAREA":"小新營","LANE":" ","ALLEY":" ","HOUSE_NO":"１０１號之８","E_COORD97":179545.31,"N_COORD97":2558144.52,"ADDRESS":"小新營１０１號之８","OBJECTID":172144},"geometry":{"x":179545.31000000052,"y":2558144.5200000033}},{"attributes":{"ID":172146,"DIS_CODE":0,"TOWNNAME":"善化區","LI":"嘉北里","LIN":"12鄰","STREET":" ","SECT":" ","MAREA":"茄拔","LANE":" ","ALLEY":" ","HOUSE_NO":"２２８號之１５","E_COORD97":180935.39000000001,"N_COORD97":2559944.02,"ADDRESS":"茄拔２２８號之１５","OBJECTID":172145},"geometry":{"x":180935.38999999966,"y":2559944.0199999996}},{"attributes":{"ID":172147,"DIS_CODE":0,"TOWNNAME":"永康區","LI":"永康里","LIN":"32鄰","STREET":"永大路","SECT":"二段","MAREA":" ","LANE":"１５２６巷","ALLEY":"２弄","HOUSE_NO":"２號六樓之５","E_COORD97":174282.88,"N_COORD97":2547262.98,"ADDRESS":"永大路二段１５２６巷２弄２號六樓之５","OBJECTID":172146},"geometry":{"x":174282.88000000175,"y":2547262.9800000023}},{"attributes":{"ID":172148,"DIS_CODE":0,"TOWNNAME":"善化區","LI":"田寮里","LIN":"12鄰","STREET":" ","SECT":" ","MAREA":"六分寮","LANE":" ","ALLEY":" ","HOUSE_NO":"１２８號","E_COORD97":178563.79000000001,"N_COORD97":2561330,"ADDRESS":"六分寮１２８號","OBJECTID":172147},"geometry":{"x":178563.78999999911,"y":2561330.0000000019}},{"attributes":{"ID":172149,"DIS_CODE":0,"TOWNNAME":"善化區","LI":"嘉北里","LIN":"12鄰","STREET":" ","SECT":" ","MAREA":"茄拔","LANE":" ","ALLEY":" ","HOUSE_NO":"２８４號之１","E_COORD97":180933.89000000001,"N_COORD97":2559784.27,"ADDRESS":"茄拔２８４號之１","OBJECTID":172148},"geometry":{"x":180933.88999999966,"y":2559784.2700000014}},{"attributes":{"ID":172150,"DIS_CODE":0,"TOWNNAME":"善化區","LI":"嘉北里","LIN":"12鄰","STREET":" ","SECT":" ","MAREA":"茄拔","LANE":" ","ALLEY":" ","HOUSE_NO":"２６０號","E_COORD97":180943.48000000001,"N_COORD97":2559860.0099999998,"ADDRESS":"茄拔２６０號","OBJECTID":172149},"geometry":{"x":180943.48000000138,"y":2559860.0099999998}},{"attributes":{"ID":172151,"DIS_CODE":0,"TOWNNAME":"善化區","LI":"嘉南里","LIN":"12鄰","STREET":" ","SECT":" ","MAREA":"茄拔","LANE":" ","ALLEY":" ","HOUSE_NO":"３５５之１號","E_COORD97":180648.88,"N_COORD97":2559603.27,"ADDRESS":"茄拔３５５之１號","OBJECTID":172150},"geometry":{"x":180648.88000000082,"y":2559603.2699999996}},{"attributes":{"ID":172152,"DIS_CODE":0,"TOWNNAME":"善化區","LI":"嘉南里","LIN":"12鄰","STREET":" ","SECT":" ","MAREA":"茄拔","LANE":" ","ALLEY":" ","HOUSE_NO":"３５５之７號","E_COORD97":180662.09,"N_COORD97":2559585.77,"ADDRESS":"茄拔３５５之７號","OBJECTID":172151},"geometry":{"x":180662.09000000171,"y":2559585.7699999996}},{"attributes":{"ID":172153,"DIS_CODE":0,"TOWNNAME":"善化區","LI":"牛庄里","LIN":"12鄰","STREET":" ","SECT":" ","MAREA":"牛庄","LANE":" ","ALLEY":" ","HOUSE_NO":"１１４號之２","E_COORD97":180017.76999999999,"N_COORD97":2559909.02,"ADDRESS":"牛庄１１４號之２","OBJECTID":172152},"geometry":{"x":180017.76999999955,"y":2559909.0200000014}},{"attributes":{"ID":172154,"DIS_CODE":0,"TOWNNAME":"善化區","LI":"田寮里","LIN":"12鄰","STREET":" ","SECT":" ","MAREA":"六分寮","LANE":" ","ALLEY":" ","HOUSE_NO":"１２５號","E_COORD97":178584.73999999999,"N_COORD97":2561383.25,"ADDRESS":"六分寮１２５號","OBJECTID":172153},"geometry":{"x":178584.74000000209,"y":2561383.25}},{"attributes":{"ID":172155,"DIS_CODE":0,"TOWNNAME":"善化區","LI":"嘉北里","LIN":"12鄰","STREET":" ","SECT":" ","MAREA":"茄拔","LANE":" ","ALLEY":" ","HOUSE_NO":"２９０之１號","E_COORD97":180907.81,"N_COORD97":2559808.27,"ADDRESS":"茄拔２９０之１號","OBJECTID":172154},"geometry":{"x":180907.81000000145,"y":2559808.2700000014}},{"attributes":{"ID":172156,"DIS_CODE":0,"TOWNNAME":"善化區","LI":"嘉北里","LIN":"12鄰","STREET":" ","SECT":" ","MAREA":"茄拔","LANE":" ","ALLEY":" ","HOUSE_NO":"２８２號之５","E_COORD97":180704.85999999999,"N_COORD97":2559762.77,"ADDRESS":"茄拔２８２號之５","OBJECTID":172155},"geometry":{"x":180704.8600000022,"y":2559762.7699999996}},{"attributes":{"ID":172157,"DIS_CODE":0,"TOWNNAME":"永康區","LI":"永康里","LIN":"32鄰","STREET":"永大路","SECT":"二段","MAREA":" ","LANE":"１５２６巷","ALLEY":"２弄","HOUSE_NO":"２號十樓之７","E_COORD97":174282.70000000001,"N_COORD97":2547262.98,"ADDRESS":"永大路二段１５２６巷２弄２號十樓之７","OBJECTID":172156},"geometry":{"x":174282.70000000205,"y":2547262.9800000023}},{"attributes":{"ID":172158,"DIS_CODE":0,"TOWNNAME":"善化區","LI":"嘉北里","LIN":"12鄰","STREET":" ","SECT":" ","MAREA":"茄拔","LANE":" ","ALLEY":" ","HOUSE_NO":"２８９號之２","E_COORD97":180944.64000000001,"N_COORD97":2559751.02,"ADDRESS":"茄拔２８９號之２","OBJECTID":172157},"geometry":{"x":180944.64000000153,"y":2559751.0199999996}},{"attributes":{"ID":172159,"DIS_CODE":0,"TOWNNAME":"永康區","LI":"永康里","LIN":"32鄰","STREET":"永大路","SECT":"二段","MAREA":" ","LANE":"１５２６巷","ALLEY":"２弄","HOUSE_NO":"２號九樓之９","E_COORD97":174282.70000000001,"N_COORD97":2547262.98,"ADDRESS":"永大路二段１５２６巷２弄２號九樓之９","OBJECTID":172158},"geometry":{"x":174282.70000000205,"y":2547262.9800000023}},{"attributes":{"ID":172160,"DIS_CODE":0,"TOWNNAME":"仁德區","LI":"後壁里","LIN":"12鄰","STREET":"德南路","SECT":" ","MAREA":" ","LANE":" ","ALLEY":" ","HOUSE_NO":"１８４號","E_COORD97":173685.48000000001,"N_COORD97":2538499.5099999998,"ADDRESS":"德南路１８４號","OBJECTID":172159},"geometry":{"x":173685.48000000045,"y":2538499.5099999998}},{"attributes":{"ID":172161,"DIS_CODE":0,"TOWNNAME":"永康區","LI":"永康里","LIN":"32鄰","STREET":"永大路","SECT":"二段","MAREA":" ","LANE":"１５２６巷","ALLEY":"２弄","HOUSE_NO":"２號四樓之８","E_COORD97":174282.70000000001,"N_COORD97":2547262.98,"ADDRESS":"永大路二段１５２６巷２弄２號四樓之８","OBJECTID":172160},"geometry":{"x":174282.70000000205,"y":2547262.9800000023}},{"attributes":{"ID":172162,"DIS_CODE":0,"TOWNNAME":"永康區","LI":"永康里","LIN":"32鄰","STREET":"永大路","SECT":"二段","MAREA":" ","LANE":"１５２６巷","ALLEY":"２弄","HOUSE_NO":"２號十四樓之８","E_COORD97":174283.95000000001,"N_COORD97":2547262.98,"ADDRESS":"永大路二段１５２６巷２弄２號十四樓之８","OBJECTID":172161},"geometry":{"x":174283.95000000019,"y":2547262.9800000023}},{"attributes":{"ID":172163,"DIS_CODE":0,"TOWNNAME":"新化區","LI":"武安里","LIN":"12鄰","STREET":"正新南路","SECT":" ","MAREA":" ","LANE":" ","ALLEY":" ","HOUSE_NO":"９９號","E_COORD97":178915.92000000001,"N_COORD97":2547972.25,"ADDRESS":"正新南路９９號","OBJECTID":172162},"geometry":{"x":178915.92000000086,"y":2547972.2500000037}},{"attributes":{"ID":172164,"DIS_CODE":0,"TOWNNAME":"永康區","LI":"永康里","LIN":"32鄰","STREET":"永大路","SECT":"二段","MAREA":" ","LANE":"１５２６巷","ALLEY":"２弄","HOUSE_NO":"３號三樓之５","E_COORD97":174316.07000000001,"N_COORD97":2547285.5600000001,"ADDRESS":"永大路二段１５２６巷２弄３號三樓之５","OBJECTID":172163},"geometry":{"x":174316.07000000123,"y":2547285.5600000005}},{"attributes":{"ID":172165,"DIS_CODE":0,"TOWNNAME":"永康區","LI":"永康里","LIN":"32鄰","STREET":"永大路","SECT":"二段","MAREA":" ","LANE":"１５２６巷","ALLEY":"２弄","HOUSE_NO":"２號五樓之１０","E_COORD97":174283.73999999999,"N_COORD97":2547262.98,"ADDRESS":"永大路二段１５２６巷２弄２號五樓之１０","OBJECTID":172164},"geometry":{"x":174283.74000000022,"y":2547262.9800000023}},{"attributes":{"ID":172166,"DIS_CODE":0,"TOWNNAME":"仁德區","LI":"二行里","LIN":"12鄰","STREET":"行大街","SECT":" ","MAREA":" ","LANE":" ","ALLEY":" ","HOUSE_NO":"１８６之１號","E_COORD97":169959.10999999999,"N_COORD97":2535104.79,"ADDRESS":"行大街１８６之１號","OBJECTID":172165},"geometry":{"x":169959.11000000127,"y":2535104.7900000028}},{"attributes":{"ID":172167,"DIS_CODE":0,"TOWNNAME":"永康區","LI":"永康里","LIN":"32鄰","STREET":"永大路","SECT":"二段","MAREA":" ","LANE":"１５２６巷","ALLEY":"２弄","HOUSE_NO":"２號十三樓之５","E_COORD97":174283.95000000001,"N_COORD97":2547262.98,"ADDRESS":"永大路二段１５２６巷２弄２號十三樓之５","OBJECTID":172166},"geometry":{"x":174283.95000000019,"y":2547262.9800000023}},{"attributes":{"ID":172168,"DIS_CODE":0,"TOWNNAME":"六甲區","LI":"甲東里","LIN":"24鄰","STREET":"裕農街","SECT":" ","MAREA":" ","LANE":"２２巷","ALLEY":"６弄","HOUSE_NO":"８號三樓","E_COORD97":183996.85000000001,"N_COORD97":2569532.7999999998,"ADDRESS":"裕農街２２巷６弄８號三樓","OBJECTID":172167},"geometry":{"x":183996.85000000056,"y":2569532.8000000026}},{"attributes":{"ID":172169,"DIS_CODE":0,"TOWNNAME":"仁德區","LI":"上崙里","LIN":"12鄰","STREET":"德崙路","SECT":" ","MAREA":" ","LANE":" ","ALLEY":" ","HOUSE_NO":"８１６號","E_COORD97":174163.04000000001,"N_COORD97":2537336,"ADDRESS":"德崙路８１６號","OBJECTID":172168},"geometry":{"x":174163.04000000004,"y":2537336.0000000019}},{"attributes":{"ID":172170,"DIS_CODE":0,"TOWNNAME":"永康區","LI":"永康里","LIN":"32鄰","STREET":"永大路","SECT":"二段","MAREA":" ","LANE":"１５２６巷","ALLEY":"２弄","HOUSE_NO":"２號四樓之３","E_COORD97":174282.82999999999,"N_COORD97":2547262.98,"ADDRESS":"永大路二段１５２６巷２弄２號四樓之３","OBJECTID":172169},"geometry":{"x":174282.83000000007,"y":2547262.9800000023}},{"attributes":{"ID":172171,"DIS_CODE":0,"TOWNNAME":"永康區","LI":"永康里","LIN":"32鄰","STREET":"永大路","SECT":"二段","MAREA":" ","LANE":"１５２６巷","ALLEY":"２弄","HOUSE_NO":"２號六樓之２","E_COORD97":174282.85999999999,"N_COORD97":2547262.98,"ADDRESS":"永大路二段１５２６巷２弄２號六樓之２","OBJECTID":172170},"geometry":{"x":174282.86000000034,"y":2547262.9800000023}},{"attributes":{"ID":172172,"DIS_CODE":0,"TOWNNAME":"仁德區","LI":"二行里","LIN":"12鄰","STREET":"行大街","SECT":" ","MAREA":" ","LANE":" ","ALLEY":" ","HOUSE_NO":"１８８號","E_COORD97":169946.64999999999,"N_COORD97":2535105.7400000002,"ADDRESS":"行大街１８８號","OBJECTID":172171},"geometry":{"x":169946.65000000037,"y":2535105.7400000002}},{"attributes":{"ID":172173,"DIS_CODE":0,"TOWNNAME":"仁德區","LI":"上崙里","LIN":"12鄰","STREET":"德崙路","SECT":" ","MAREA":" ","LANE":" ","ALLEY":" ","HOUSE_NO":"５７１號","E_COORD97":174449.51999999999,"N_COORD97":2537747.5,"ADDRESS":"德崙路５７１號","OBJECTID":172172},"geometry":{"x":174449.52000000048,"y":2537747.5}},{"attributes":{"ID":172174,"DIS_CODE":0,"TOWNNAME":"永康區","LI":"永康里","LIN":"32鄰","STREET":"永大路","SECT":"二段","MAREA":" ","LANE":"１５２６巷","ALLEY":"２弄","HOUSE_NO":"２號十樓之１","E_COORD97":174282.73000000001,"N_COORD97":2547262.98,"ADDRESS":"永大路二段１５２６巷２弄２號十樓之１","OBJECTID":172173},"geometry":{"x":174282.73000000231,"y":2547262.9800000023}},{"attributes":{"ID":172175,"DIS_CODE":0,"TOWNNAME":"仁德區","LI":"上崙里","LIN":"12鄰","STREET":"德崙路","SECT":" ","MAREA":" ","LANE":" ","ALLEY":" ","HOUSE_NO":"１１３８號","E_COORD97":173878.01000000001,"N_COORD97":2537128.75,"ADDRESS":"德崙路１１３８號","OBJECTID":172174},"geometry":{"x":173878.00999999978,"y":2537128.75}},{"attributes":{"ID":172176,"DIS_CODE":0,"TOWNNAME":"仁德區","LI":"二行里","LIN":"12鄰","STREET":"行大街","SECT":" ","MAREA":" ","LANE":" ","ALLEY":" ","HOUSE_NO":"１８６號","E_COORD97":169951.09,"N_COORD97":2535104.7400000002,"ADDRESS":"行大街１８６號","OBJECTID":172175},"geometry":{"x":169951.08999999985,"y":2535104.7400000002}},{"attributes":{"ID":172177,"DIS_CODE":0,"TOWNNAME":"仁德區","LI":"二行里","LIN":"12鄰","STREET":"行大街","SECT":" ","MAREA":" ","LANE":" ","ALLEY":" ","HOUSE_NO":"１９０號","E_COORD97":169924.87,"N_COORD97":2535120.75,"ADDRESS":"行大街１９０號","OBJECTID":172176},"geometry":{"x":169924.87000000197,"y":2535120.7500000019}},{"attributes":{"ID":172178,"DIS_CODE":0,"TOWNNAME":"安南區","LI":"南興里","LIN":"8鄰","STREET":"公學路","SECT":"六段","MAREA":" ","LANE":" ","ALLEY":" ","HOUSE_NO":"１８５號","E_COORD97":163392.39000000001,"N_COORD97":2553143.0699999998,"ADDRESS":"公學路六段１８５號","OBJECTID":172177},"geometry":{"x":163392.38999999966,"y":2553143.0700000003}},{"attributes":{"ID":172179,"DIS_CODE":0,"TOWNNAME":"仁德區","LI":"仁愛里","LIN":"12鄰","STREET":" ","SECT":" ","MAREA":"仁愛","LANE":" ","ALLEY":" ","HOUSE_NO":"２６０號","E_COORD97":170300.844022,"N_COORD97":2540118.5950000002,"ADDRESS":"仁愛２６０號","OBJECTID":172178},"geometry":{"x":170300.84402200021,"y":2540118.5950000025}},{"attributes":{"ID":172180,"DIS_CODE":0,"TOWNNAME":"仁德區","LI":"仁愛里","LIN":"12鄰","STREET":" ","SECT":" ","MAREA":"仁愛","LANE":" ","ALLEY":" ","HOUSE_NO":"２５１號","E_COORD97":170316.20349000001,"N_COORD97":2540101.3539999998,"ADDRESS":"仁愛２５１號","OBJECTID":172179},"geometry":{"x":170316.20349000022,"y":2540101.3540000003}},{"attributes":{"ID":172181,"DIS_CODE":0,"TOWNNAME":"永康區","LI":"永康里","LIN":"32鄰","STREET":"永大路","SECT":"二段","MAREA":" ","LANE":"１５２６巷","ALLEY":"２弄","HOUSE_NO":"２號十二樓之６","E_COORD97":174283.95000000001,"N_COORD97":2547262.98,"ADDRESS":"永大路二段１５２６巷２弄２號十二樓之６","OBJECTID":172180},"geometry":{"x":174283.95000000019,"y":2547262.9800000023}},{"attributes":{"ID":172182,"DIS_CODE":0,"TOWNNAME":"永康區","LI":"永康里","LIN":"32鄰","STREET":"永大路","SECT":"二段","MAREA":" ","LANE":"１５２６巷","ALLEY":"２弄","HOUSE_NO":"２號九樓之８","E_COORD97":174282.70000000001,"N_COORD97":2547262.98,"ADDRESS":"永大路二段１５２６巷２弄２號九樓之８","OBJECTID":172181},"geometry":{"x":174282.70000000205,"y":2547262.9800000023}},{"attributes":{"ID":172183,"DIS_CODE":0,"TOWNNAME":"新化區","LI":"太平里","LIN":"12鄰","STREET":"中正路","SECT":" ","MAREA":" ","LANE":" ","ALLEY":" ","HOUSE_NO":"６７３號","E_COORD97":178833.81,"N_COORD97":2549067.25,"ADDRESS":"中正路６７３號","OBJECTID":172182},"geometry":{"x":178833.80999999959,"y":2549067.2499999981}},{"attributes":{"ID":172184,"DIS_CODE":0,"TOWNNAME":"永康區","LI":"永康里","LIN":"32鄰","STREET":"永大路","SECT":"二段","MAREA":" ","LANE":"１５２６巷","ALLEY":"２弄","HOUSE_NO":"３號三樓之３","E_COORD97":174316.01999999999,"N_COORD97":2547285.5600000001,"ADDRESS":"永大路二段１５２６巷２弄３號三樓之３","OBJECTID":172183},"geometry":{"x":174316.02000000048,"y":2547285.5600000005}},{"attributes":{"ID":172185,"DIS_CODE":0,"TOWNNAME":"永康區","LI":"永康里","LIN":"32鄰","STREET":"永大路","SECT":"二段","MAREA":" ","LANE":"１５２６巷","ALLEY":"２弄","HOUSE_NO":"２號六樓之９","E_COORD97":174282.70000000001,"N_COORD97":2547262.98,"ADDRESS":"永大路二段１５２６巷２弄２號六樓之９","OBJECTID":172184},"geometry":{"x":174282.70000000205,"y":2547262.9800000023}},{"attributes":{"ID":172186,"DIS_CODE":0,"TOWNNAME":"永康區","LI":"永康里","LIN":"32鄰","STREET":"永大路","SECT":"二段","MAREA":" ","LANE":"１５２６巷","ALLEY":"２弄","HOUSE_NO":"２號八樓之１","E_COORD97":174282.73000000001,"N_COORD97":2547262.98,"ADDRESS":"永大路二段１５２６巷２弄２號八樓之１","OBJECTID":172185},"geometry":{"x":174282.73000000231,"y":2547262.9800000023}},{"attributes":{"ID":172187,"DIS_CODE":0,"TOWNNAME":"永康區","LI":"永康里","LIN":"32鄰","STREET":"永大路","SECT":"二段","MAREA":" ","LANE":"１５２６巷","ALLEY":"２弄","HOUSE_NO":"２號五樓之９","E_COORD97":174282.70000000001,"N_COORD97":2547262.98,"ADDRESS":"永大路二段１５２６巷２弄２號五樓之９","OBJECTID":172186},"geometry":{"x":174282.70000000205,"y":2547262.9800000023}},{"attributes":{"ID":172188,"DIS_CODE":0,"TOWNNAME":"新化區","LI":"豐榮里","LIN":"12鄰","STREET":"正新路","SECT":" ","MAREA":" ","LANE":" ","ALLEY":" ","HOUSE_NO":"７７號","E_COORD97":178592.57000000001,"N_COORD97":2548025.25,"ADDRESS":"正新路７７號","OBJECTID":172187},"geometry":{"x":178592.5700000003,"y":2548025.25}},{"attributes":{"ID":172189,"DIS_CODE":0,"TOWNNAME":"新化區","LI":"豐榮里","LIN":"12鄰","STREET":"正新路","SECT":" ","MAREA":" ","LANE":" ","ALLEY":" ","HOUSE_NO":"５７號","E_COORD97":178612.87,"N_COORD97":2547984.25,"ADDRESS":"正新路５７號","OBJECTID":172188},"geometry":{"x":178612.87000000104,"y":2547984.25}},{"attributes":{"ID":172190,"DIS_CODE":0,"TOWNNAME":"永康區","LI":"永康里","LIN":"32鄰","STREET":"永大路","SECT":"二段","MAREA":" ","LANE":"１５２６巷","ALLEY":"２弄","HOUSE_NO":"２號五樓之８","E_COORD97":174282.70000000001,"N_COORD97":2547262.98,"ADDRESS":"永大路二段１５２６巷２弄２號五樓之８","OBJECTID":172189},"geometry":{"x":174282.70000000205,"y":2547262.9800000023}},{"attributes":{"ID":172191,"DIS_CODE":0,"TOWNNAME":"新化區","LI":"太平里","LIN":"12鄰","STREET":"中正路","SECT":" ","MAREA":" ","LANE":" ","ALLEY":" ","HOUSE_NO":"６６９號之１","E_COORD97":178837.78274200001,"N_COORD97":2549056.9351499998,"ADDRESS":"中正路６６９號之１","OBJECTID":172190},"geometry":{"x":178837.78274200018,"y":2549056.9351509996}},{"attributes":{"ID":172192,"DIS_CODE":0,"TOWNNAME":"永康區","LI":"永康里","LIN":"32鄰","STREET":"永大路","SECT":"二段","MAREA":" ","LANE":"１５２６巷","ALLEY":"２弄","HOUSE_NO":"２號六樓之７","E_COORD97":174282.70000000001,"N_COORD97":2547262.98,"ADDRESS":"永大路二段１５２６巷２弄２號六樓之７","OBJECTID":172191},"geometry":{"x":174282.70000000205,"y":2547262.9800000023}},{"attributes":{"ID":172193,"DIS_CODE":0,"TOWNNAME":"新化區","LI":"豐榮里","LIN":"12鄰","STREET":"正新路","SECT":" ","MAREA":" ","LANE":" ","ALLEY":" ","HOUSE_NO":"６７號","E_COORD97":178602.07000000001,"N_COORD97":2548006.25,"ADDRESS":"正新路６７號","OBJECTID":172192},"geometry":{"x":178602.07000000123,"y":2548006.2500000037}},{"attributes":{"ID":172194,"DIS_CODE":0,"TOWNNAME":"新化區","LI":"太平里","LIN":"12鄰","STREET":"中正路","SECT":" ","MAREA":" ","LANE":" ","ALLEY":" ","HOUSE_NO":"６５１號","E_COORD97":178874.31,"N_COORD97":2548989.25,"ADDRESS":"中正路６５１號","OBJECTID":172193},"geometry":{"x":178874.31000000052,"y":2548989.2499999981}},{"attributes":{"ID":172195,"DIS_CODE":0,"TOWNNAME":"安南區","LI":"顯宮里","LIN":"1鄰","STREET":"顯宮二街","SECT":" ","MAREA":" ","LANE":"５８巷","ALLEY":" ","HOUSE_NO":"５號","E_COORD97":160526.95999999999,"N_COORD97":2548705.5699999998,"ADDRESS":"顯宮二街５８巷５號","OBJECTID":172194},"geometry":{"x":160526.95999999996,"y":2548705.5700000003}},{"attributes":{"ID":172196,"DIS_CODE":0,"TOWNNAME":"新化區","LI":"知義里","LIN":"12鄰","STREET":" ","SECT":" ","MAREA":"口埤","LANE":" ","ALLEY":" ","HOUSE_NO":"４１號","E_COORD97":183360.29999999999,"N_COORD97":2547139.25,"ADDRESS":"口埤４１號","OBJECTID":172195},"geometry":{"x":183360.29999999981,"y":2547139.2500000019}},{"attributes":{"ID":172197,"DIS_CODE":0,"TOWNNAME":"新化區","LI":"知義里","LIN":"12鄰","STREET":" ","SECT":" ","MAREA":"口埤","LANE":" ","ALLEY":" ","HOUSE_NO":"９９號之１","E_COORD97":183221.32999999999,"N_COORD97":2547245.2599999998,"ADDRESS":"口埤９９號之１","OBJECTID":172196},"geometry":{"x":183221.33000000007,"y":2547245.2599999998}},{"attributes":{"ID":172198,"DIS_CODE":0,"TOWNNAME":"新化區","LI":"知義里","LIN":"12鄰","STREET":" ","SECT":" ","MAREA":"口埤","LANE":" ","ALLEY":" ","HOUSE_NO":"３號","E_COORD97":182068.25,"N_COORD97":2547205.25,"ADDRESS":"口埤３號","OBJECTID":172197},"geometry":{"x":182068.25000000093,"y":2547205.25}},{"attributes":{"ID":172199,"DIS_CODE":0,"TOWNNAME":"新化區","LI":"知義里","LIN":"12鄰","STREET":" ","SECT":" ","MAREA":"口埤","LANE":" ","ALLEY":" ","HOUSE_NO":"９號之２","E_COORD97":182436.77671000001,"N_COORD97":2547196.80828,"ADDRESS":"口埤９號之２","OBJECTID":172198},"geometry":{"x":182436.77671000175,"y":2547196.8082839996}},{"attributes":{"ID":172200,"DIS_CODE":0,"TOWNNAME":"新化區","LI":"知義里","LIN":"12鄰","STREET":" ","SECT":" ","MAREA":"口埤","LANE":" ","ALLEY":" ","HOUSE_NO":"９２號","E_COORD97":183351.20000000001,"N_COORD97":2547307.25,"ADDRESS":"口埤９２號","OBJECTID":172199},"geometry":{"x":183351.20000000019,"y":2547307.25}},{"attributes":{"ID":172201,"DIS_CODE":0,"TOWNNAME":"永康區","LI":"永康里","LIN":"32鄰","STREET":"永大路","SECT":"二段","MAREA":" ","LANE":"１５２６巷","ALLEY":"２弄","HOUSE_NO":"２號十四樓之７","E_COORD97":174283.95000000001,"N_COORD97":2547262.98,"ADDRESS":"永大路二段１５２６巷２弄２號十四樓之７","OBJECTID":172200},"geometry":{"x":174283.95000000019,"y":2547262.9800000023}}]}