{"displayFieldName":"TOWNNAME","fieldAliases":{"ID":"ID","DIS_CODE":"DIS_CODE","TOWNNAME":"TOWNNAME","LI":"LI","LIN":"LIN","STREET":"STREET","SECT":"SECT","MAREA":"MAREA","LANE":"LANE","ALLEY":"ALLEY","HOUSE_NO":"HOUSE_NO","E_COORD97":"E_COORD97","N_COORD97":"N_COORD97","ADDRESS":"ADDRESS","OBJECTID":"OBJECTID"},"geometryType":"esriGeometryPoint","spatialReference":{"wkid":102443,"latestWkid":3826},"fields":[{"name":"ID","type":"esriFieldTypeDouble","alias":"ID"},{"name":"DIS_CODE","type":"esriFieldTypeInteger","alias":"DIS_CODE"},{"name":"TOWNNAME","type":"esriFieldTypeString","alias":"TOWNNAME","length":8},{"name":"LI","type":"esriFieldTypeString","alias":"LI","length":8},{"name":"LIN","type":"esriFieldTypeString","alias":"LIN","length":12},{"name":"STREET","type":"esriFieldTypeString","alias":"STREET","length":20},{"name":"SECT","type":"esriFieldTypeString","alias":"SECT","length":8},{"name":"MAREA","type":"esriFieldTypeString","alias":"MAREA","length":12},{"name":"LANE","type":"esriFieldTypeString","alias":"LANE","length":10},{"name":"ALLEY","type":"esriFieldTypeString","alias":"ALLEY","length":10},{"name":"HOUSE_NO","type":"esriFieldTypeString","alias":"HOUSE_NO","length":20},{"name":"E_COORD97","type":"esriFieldTypeDouble","alias":"E_COORD97"},{"name":"N_COORD97","type":"esriFieldTypeDouble","alias":"N_COORD97"},{"name":"ADDRESS","type":"esriFieldTypeString","alias":"ADDRESS","length":50},{"name":"OBJECTID","type":"esriFieldTypeOID","alias":"OBJECTID"}],"features":[{"attributes":{"ID":407425,"DIS_CODE":0,"TOWNNAME":"新營區","LI":"新北里","LIN":"22鄰","STREET":"民生路","SECT":" ","MAREA":" ","LANE":"３５６巷","ALLEY":" ","HOUSE_NO":"４７號","E_COORD97":179016.32999999999,"N_COORD97":2579296.1400000001,"ADDRESS":"民生路３５６巷４７號","OBJECTID":407401},"geometry":{"x":179016.33000000194,"y":2579296.1400000006}},{"attributes":{"ID":407426,"DIS_CODE":0,"TOWNNAME":"新營區","LI":"新北里","LIN":"22鄰","STREET":"民生路","SECT":" ","MAREA":" ","LANE":"３５６巷","ALLEY":" ","HOUSE_NO":"２０號","E_COORD97":179000.88,"N_COORD97":2579275.1699999999,"ADDRESS":"民生路３５６巷２０號","OBJECTID":407402},"geometry":{"x":179000.88000000082,"y":2579275.1699999999}},{"attributes":{"ID":407427,"DIS_CODE":0,"TOWNNAME":"新營區","LI":"新北里","LIN":"22鄰","STREET":"民生路","SECT":" ","MAREA":" ","LANE":"３５６巷","ALLEY":" ","HOUSE_NO":"１９號","E_COORD97":178937.45999999999,"N_COORD97":2579289.8700000001,"ADDRESS":"民生路３５６巷１９號","OBJECTID":407403},"geometry":{"x":178937.46000000089,"y":2579289.8700000029}},{"attributes":{"ID":407428,"DIS_CODE":0,"TOWNNAME":"新營區","LI":"新北里","LIN":"22鄰","STREET":"民生路","SECT":" ","MAREA":" ","LANE":"３５６巷","ALLEY":" ","HOUSE_NO":"１６號","E_COORD97":178982.39000000001,"N_COORD97":2579273.04,"ADDRESS":"民生路３５６巷１６號","OBJECTID":407404},"geometry":{"x":178982.38999999966,"y":2579273.0400000028}},{"attributes":{"ID":407429,"DIS_CODE":0,"TOWNNAME":"新營區","LI":"新北里","LIN":"22鄰","STREET":"民生路","SECT":" ","MAREA":" ","LANE":"３５６巷","ALLEY":" ","HOUSE_NO":"１７號","E_COORD97":178930.29999999999,"N_COORD97":2579288.7999999998,"ADDRESS":"民生路３５６巷１７號","OBJECTID":407405},"geometry":{"x":178930.30000000075,"y":2579288.8000000007}},{"attributes":{"ID":407430,"DIS_CODE":0,"TOWNNAME":"新營區","LI":"新南里","LIN":"22鄰","STREET":"復興路","SECT":" ","MAREA":" ","LANE":"６１８巷","ALLEY":" ","HOUSE_NO":"１號","E_COORD97":178071.73000000001,"N_COORD97":2578403.6400000001,"ADDRESS":"復興路６１８巷１號","OBJECTID":407406},"geometry":{"x":178071.73000000138,"y":2578403.6400000025}},{"attributes":{"ID":407431,"DIS_CODE":0,"TOWNNAME":"新營區","LI":"新東里","LIN":"22鄰","STREET":"東明街","SECT":" ","MAREA":" ","LANE":"８０巷","ALLEY":" ","HOUSE_NO":"１號","E_COORD97":180821.56,"N_COORD97":2579793.6899999999,"ADDRESS":"東明街８０巷１號","OBJECTID":407407},"geometry":{"x":180821.56000000052,"y":2579793.6899999995}},{"attributes":{"ID":407432,"DIS_CODE":0,"TOWNNAME":"新營區","LI":"新東里","LIN":"22鄰","STREET":"東明街","SECT":" ","MAREA":" ","LANE":"８０巷","ALLEY":" ","HOUSE_NO":"５０號","E_COORD97":180926.07000000001,"N_COORD97":2579782.1400000001,"ADDRESS":"東明街８０巷５０號","OBJECTID":407408},"geometry":{"x":180926.07000000123,"y":2579782.1400000043}},{"attributes":{"ID":407433,"DIS_CODE":0,"TOWNNAME":"新營區","LI":"新東里","LIN":"22鄰","STREET":"東明街","SECT":" ","MAREA":" ","LANE":"９６巷","ALLEY":" ","HOUSE_NO":"１８號","E_COORD97":180866.97,"N_COORD97":2579833.3500000001,"ADDRESS":"東明街９６巷１８號","OBJECTID":407409},"geometry":{"x":180866.97000000067,"y":2579833.3499999996}},{"attributes":{"ID":407434,"DIS_CODE":0,"TOWNNAME":"新營區","LI":"南興里","LIN":"22鄰","STREET":"延平路","SECT":" ","MAREA":" ","LANE":"１４０巷","ALLEY":" ","HOUSE_NO":"５６號","E_COORD97":179625.23000000001,"N_COORD97":2577440.46,"ADDRESS":"延平路１４０巷５６號","OBJECTID":407410},"geometry":{"x":179625.23000000045,"y":2577440.4600000009}},{"attributes":{"ID":407435,"DIS_CODE":0,"TOWNNAME":"中西區","LI":"永福里","LIN":"14鄰","STREET":"永福路","SECT":"二段","MAREA":" ","LANE":"１５２巷","ALLEY":" ","HOUSE_NO":"２４號","E_COORD97":168235.75,"N_COORD97":2543859.7000000002,"ADDRESS":"永福路二段１５２巷２４號","OBJECTID":407411},"geometry":{"x":168235.75000000093,"y":2543859.7000000011}},{"attributes":{"ID":407436,"DIS_CODE":0,"TOWNNAME":"中西區","LI":"永福里","LIN":"14鄰","STREET":"永福路","SECT":"二段","MAREA":" ","LANE":"１５２巷","ALLEY":" ","HOUSE_NO":"２６號","E_COORD97":168242.63,"N_COORD97":2543869.4900000002,"ADDRESS":"永福路二段１５２巷２６號","OBJECTID":407412},"geometry":{"x":168242.62999999989,"y":2543869.4900000021}},{"attributes":{"ID":407437,"DIS_CODE":0,"TOWNNAME":"佳里區","LI":"安西里","LIN":"13鄰","STREET":"長安街","SECT":" ","MAREA":" ","LANE":" ","ALLEY":" ","HOUSE_NO":"７９號","E_COORD97":165413.37,"N_COORD97":2562440.3100000001,"ADDRESS":"長安街７９號","OBJECTID":407413},"geometry":{"x":165413.37000000011,"y":2562440.3100000024}},{"attributes":{"ID":407438,"DIS_CODE":0,"TOWNNAME":"中西區","LI":"永福里","LIN":"14鄰","STREET":"永福路","SECT":"二段","MAREA":" ","LANE":"１５２巷","ALLEY":" ","HOUSE_NO":"２８號","E_COORD97":168263.42999999999,"N_COORD97":2543868.2799999998,"ADDRESS":"永福路二段１５２巷２８號","OBJECTID":407414},"geometry":{"x":168263.43000000063,"y":2543868.2799999993}},{"attributes":{"ID":407439,"DIS_CODE":0,"TOWNNAME":"中西區","LI":"永福里","LIN":"14鄰","STREET":"永福路","SECT":"二段","MAREA":" ","LANE":"１５２巷","ALLEY":" ","HOUSE_NO":"３０號","E_COORD97":168259.98999999999,"N_COORD97":2543851.9700000002,"ADDRESS":"永福路二段１５２巷３０號","OBJECTID":407415},"geometry":{"x":168259.99000000115,"y":2543851.9700000007}},{"attributes":{"ID":407440,"DIS_CODE":0,"TOWNNAME":"中西區","LI":"永福里","LIN":"14鄰","STREET":"永福路","SECT":"二段","MAREA":" ","LANE":"１５２巷","ALLEY":" ","HOUSE_NO":"３２號","E_COORD97":168258.62,"N_COORD97":2543848.0299999998,"ADDRESS":"永福路二段１５２巷３２號","OBJECTID":407416},"geometry":{"x":168258.62000000104,"y":2543848.0300000012}},{"attributes":{"ID":407441,"DIS_CODE":0,"TOWNNAME":"中西區","LI":"永福里","LIN":"14鄰","STREET":"永福路","SECT":"二段","MAREA":" ","LANE":"１５２巷","ALLEY":" ","HOUSE_NO":"３４號","E_COORD97":168273.89999999999,"N_COORD97":2543871.2799999998,"ADDRESS":"永福路二段１５２巷３４號","OBJECTID":407417},"geometry":{"x":168273.9000000013,"y":2543871.2799999993}},{"attributes":{"ID":407442,"DIS_CODE":0,"TOWNNAME":"新營區","LI":"新東里","LIN":"22鄰","STREET":"東明街","SECT":" ","MAREA":" ","LANE":"８０巷","ALLEY":" ","HOUSE_NO":"４８號","E_COORD97":180919.98999999999,"N_COORD97":2579782.1600000001,"ADDRESS":"東明街８０巷４８號","OBJECTID":407418},"geometry":{"x":180919.99000000022,"y":2579782.160000002}},{"attributes":{"ID":407443,"DIS_CODE":0,"TOWNNAME":"新營區","LI":"新東里","LIN":"22鄰","STREET":"東明街","SECT":" ","MAREA":" ","LANE":"８０巷","ALLEY":" ","HOUSE_NO":"４１號","E_COORD97":180923.14999999999,"N_COORD97":2579800.9700000002,"ADDRESS":"東明街８０巷４１號","OBJECTID":407419},"geometry":{"x":180923.15000000224,"y":2579800.9700000025}},{"attributes":{"ID":407444,"DIS_CODE":0,"TOWNNAME":"新營區","LI":"南興里","LIN":"22鄰","STREET":"延平路","SECT":" ","MAREA":" ","LANE":"１４０巷","ALLEY":" ","HOUSE_NO":"５８之５號","E_COORD97":179593.95000000001,"N_COORD97":2577435.1299999999,"ADDRESS":"延平路１４０巷５８之５號","OBJECTID":407420},"geometry":{"x":179593.95000000112,"y":2577435.1300000008}},{"attributes":{"ID":407445,"DIS_CODE":0,"TOWNNAME":"新營區","LI":"新東里","LIN":"22鄰","STREET":"東明街","SECT":" ","MAREA":" ","LANE":"８０巷","ALLEY":" ","HOUSE_NO":"３８號","E_COORD97":180899.54000000001,"N_COORD97":2579781.1499999999,"ADDRESS":"東明街８０巷３８號","OBJECTID":407421},"geometry":{"x":180899.54000000004,"y":2579781.1500000004}},{"attributes":{"ID":407446,"DIS_CODE":0,"TOWNNAME":"新營區","LI":"新東里","LIN":"22鄰","STREET":"東明街","SECT":" ","MAREA":" ","LANE":"９６巷","ALLEY":" ","HOUSE_NO":"１０之１號","E_COORD97":180839.79999999999,"N_COORD97":2579831.3199999998,"ADDRESS":"東明街９６巷１０之１號","OBJECTID":407422},"geometry":{"x":180839.79999999981,"y":2579831.3199999984}},{"attributes":{"ID":407447,"DIS_CODE":0,"TOWNNAME":"新營區","LI":"新東里","LIN":"22鄰","STREET":"東明街","SECT":" ","MAREA":" ","LANE":"８０巷","ALLEY":" ","HOUSE_NO":"８號","E_COORD97":180821.54999999999,"N_COORD97":2579778.1899999999,"ADDRESS":"東明街８０巷８號","OBJECTID":407423},"geometry":{"x":180821.55000000168,"y":2579778.1900000013}},{"attributes":{"ID":407448,"DIS_CODE":0,"TOWNNAME":"新營區","LI":"新東里","LIN":"22鄰","STREET":"東明街","SECT":" ","MAREA":" ","LANE":"８０巷","ALLEY":" ","HOUSE_NO":"１３號","E_COORD97":180857.59,"N_COORD97":2579795.7400000002,"ADDRESS":"東明街８０巷１３號","OBJECTID":407424},"geometry":{"x":180857.59000000078,"y":2579795.7400000021}},{"attributes":{"ID":407449,"DIS_CODE":0,"TOWNNAME":"中西區","LI":"永福里","LIN":"9鄰","STREET":"永福路","SECT":"二段","MAREA":" ","LANE":"１１４巷","ALLEY":" ","HOUSE_NO":"１號","E_COORD97":168124.76000000001,"N_COORD97":2543766.5699999998,"ADDRESS":"永福路二段１１４巷１號","OBJECTID":407425},"geometry":{"x":168124.75999999885,"y":2543766.570000004}},{"attributes":{"ID":407450,"DIS_CODE":0,"TOWNNAME":"中西區","LI":"永福里","LIN":"9鄰","STREET":"永福路","SECT":"二段","MAREA":" ","LANE":"１１４巷","ALLEY":" ","HOUSE_NO":"２號","E_COORD97":168131.41,"N_COORD97":2543761.8599999999,"ADDRESS":"永福路二段１１４巷２號","OBJECTID":407426},"geometry":{"x":168131.41000000108,"y":2543761.8599999994}},{"attributes":{"ID":407451,"DIS_CODE":0,"TOWNNAME":"歸仁區","LI":"大廟里","LIN":"22鄰","STREET":"大廟一街","SECT":" ","MAREA":" ","LANE":"３８巷","ALLEY":" ","HOUSE_NO":"７號","E_COORD97":175792.17000000001,"N_COORD97":2544057.25,"ADDRESS":"大廟一街３８巷７號","OBJECTID":407427},"geometry":{"x":175792.16999999993,"y":2544057.2500000019}},{"attributes":{"ID":407452,"DIS_CODE":0,"TOWNNAME":"歸仁區","LI":"六甲里","LIN":"22鄰","STREET":"中正十八街","SECT":" ","MAREA":" ","LANE":"８巷","ALLEY":" ","HOUSE_NO":"２２號","E_COORD97":176370.320675,"N_COORD97":2539710.8461799999,"ADDRESS":"中正十八街８巷２２號","OBJECTID":407428},"geometry":{"x":176370.32067500055,"y":2539710.8461750038}},{"attributes":{"ID":407453,"DIS_CODE":0,"TOWNNAME":"東區","LI":"新東里","LIN":"22鄰","STREET":"裕農路","SECT":" ","MAREA":" ","LANE":"４３巷","ALLEY":" ","HOUSE_NO":"９號","E_COORD97":170641.17000000001,"N_COORD97":2542934.6699999999,"ADDRESS":"裕農路４３巷９號","OBJECTID":407429},"geometry":{"x":170641.16999999899,"y":2542934.6700000037}},{"attributes":{"ID":407454,"DIS_CODE":0,"TOWNNAME":"歸仁區","LI":"大廟里","LIN":"22鄰","STREET":"大廟一街","SECT":" ","MAREA":" ","LANE":"３８巷","ALLEY":" ","HOUSE_NO":"９號","E_COORD97":175787.07000000001,"N_COORD97":2544058.25,"ADDRESS":"大廟一街３８巷９號","OBJECTID":407430},"geometry":{"x":175787.0700000003,"y":2544058.25}},{"attributes":{"ID":407455,"DIS_CODE":0,"TOWNNAME":"歸仁區","LI":"大廟里","LIN":"22鄰","STREET":"大廟一街","SECT":" ","MAREA":" ","LANE":"９０巷","ALLEY":" ","HOUSE_NO":"１８號","E_COORD97":175713.01999999999,"N_COORD97":2543964.25,"ADDRESS":"大廟一街９０巷１８號","OBJECTID":407431},"geometry":{"x":175713.02000000048,"y":2543964.25}},{"attributes":{"ID":407456,"DIS_CODE":0,"TOWNNAME":"歸仁區","LI":"六甲里","LIN":"22鄰","STREET":"中正十八街","SECT":" ","MAREA":" ","LANE":"８巷","ALLEY":" ","HOUSE_NO":"１４號","E_COORD97":176370.10880799999,"N_COORD97":2539695.5003499999,"ADDRESS":"中正十八街８巷１４號","OBJECTID":407432},"geometry":{"x":176370.10880799964,"y":2539695.5003500003}},{"attributes":{"ID":407457,"DIS_CODE":0,"TOWNNAME":"歸仁區","LI":"大廟里","LIN":"22鄰","STREET":"大廟一街","SECT":" ","MAREA":" ","LANE":"６０巷","ALLEY":" ","HOUSE_NO":"２６號","E_COORD97":175750.32000000001,"N_COORD97":2544040.25,"ADDRESS":"大廟一街６０巷２６號","OBJECTID":407433},"geometry":{"x":175750.32000000123,"y":2544040.2500000019}},{"attributes":{"ID":407458,"DIS_CODE":0,"TOWNNAME":"歸仁區","LI":"大廟里","LIN":"22鄰","STREET":"大廟一街","SECT":" ","MAREA":" ","LANE":"６０巷","ALLEY":" ","HOUSE_NO":"２０號","E_COORD97":175765.62,"N_COORD97":2544039.25,"ADDRESS":"大廟一街６０巷２０號","OBJECTID":407434},"geometry":{"x":175765.62000000011,"y":2544039.2499999981}},{"attributes":{"ID":407459,"DIS_CODE":0,"TOWNNAME":"歸仁區","LI":"六甲里","LIN":"22鄰","STREET":"中正十八街","SECT":" ","MAREA":" ","LANE":"８巷","ALLEY":" ","HOUSE_NO":"１８號","E_COORD97":176370.10880799999,"N_COORD97":2539702.9086799999,"ADDRESS":"中正十八街８巷１８號","OBJECTID":407435},"geometry":{"x":176370.10880799964,"y":2539702.9086790029}},{"attributes":{"ID":407460,"DIS_CODE":0,"TOWNNAME":"歸仁區","LI":"六甲里","LIN":"22鄰","STREET":"中正十八街","SECT":" ","MAREA":" ","LANE":"８巷","ALLEY":" ","HOUSE_NO":"１７號","E_COORD97":176354.006884,"N_COORD97":2539704.4432600001,"ADDRESS":"中正十八街８巷１７號","OBJECTID":407436},"geometry":{"x":176354.0068840012,"y":2539704.4432620015}},{"attributes":{"ID":407461,"DIS_CODE":0,"TOWNNAME":"歸仁區","LI":"六甲里","LIN":"22鄰","STREET":"中正十八街","SECT":" ","MAREA":" ","LANE":"８巷","ALLEY":" ","HOUSE_NO":"９號","E_COORD97":176354.73000000001,"N_COORD97":2539688.7400000002,"ADDRESS":"中正十八街８巷９號","OBJECTID":407437},"geometry":{"x":176354.73000000138,"y":2539688.7400000002}},{"attributes":{"ID":407462,"DIS_CODE":0,"TOWNNAME":"歸仁區","LI":"六甲里","LIN":"22鄰","STREET":"中正十八街","SECT":" ","MAREA":" ","LANE":"８巷","ALLEY":" ","HOUSE_NO":"１３號","E_COORD97":176356.07999999999,"N_COORD97":2539696.7400000002,"ADDRESS":"中正十八街８巷１３號","OBJECTID":407438},"geometry":{"x":176356.08000000007,"y":2539696.7400000039}},{"attributes":{"ID":407463,"DIS_CODE":0,"TOWNNAME":"北區","LI":"大豐里","LIN":"22鄰","STREET":"中華北路","SECT":"一段","MAREA":" ","LANE":"７８巷","ALLEY":" ","HOUSE_NO":"２５號","E_COORD97":166603.29999999999,"N_COORD97":2545493.54,"ADDRESS":"中華北路一段７８巷２５號","OBJECTID":407439},"geometry":{"x":166603.29999999981,"y":2545493.5399999991}},{"attributes":{"ID":407464,"DIS_CODE":0,"TOWNNAME":"北區","LI":"大豐里","LIN":"22鄰","STREET":"大興街","SECT":" ","MAREA":" ","LANE":"３２５巷","ALLEY":" ","HOUSE_NO":"６２號","E_COORD97":166606.22,"N_COORD97":2545526.7400000002,"ADDRESS":"大興街３２５巷６２號","OBJECTID":407440},"geometry":{"x":166606.2200000016,"y":2545526.7400000002}},{"attributes":{"ID":407465,"DIS_CODE":0,"TOWNNAME":"北區","LI":"大豐里","LIN":"22鄰","STREET":"大興街","SECT":" ","MAREA":" ","LANE":"３２５巷","ALLEY":" ","HOUSE_NO":"２號","E_COORD97":166599.10999999999,"N_COORD97":2545655.5,"ADDRESS":"大興街３２５巷２號","OBJECTID":407441},"geometry":{"x":166599.1100000022,"y":2545655.5000000019}},{"attributes":{"ID":407466,"DIS_CODE":0,"TOWNNAME":"柳營區","LI":"重溪里","LIN":"22鄰","STREET":"義士路","SECT":"一段","MAREA":" ","LANE":"８３２巷","ALLEY":" ","HOUSE_NO":"１１７號","E_COORD97":185323.85999999999,"N_COORD97":2576273.54,"ADDRESS":"義士路一段８３２巷１１７號","OBJECTID":407442},"geometry":{"x":185323.86000000034,"y":2576273.540000001}},{"attributes":{"ID":407467,"DIS_CODE":0,"TOWNNAME":"柳營區","LI":"重溪里","LIN":"22鄰","STREET":"義士路","SECT":"一段","MAREA":" ","LANE":"８３２巷","ALLEY":" ","HOUSE_NO":"１１９號","E_COORD97":185324.70999999999,"N_COORD97":2576279.4700000002,"ADDRESS":"義士路一段８３２巷１１９號","OBJECTID":407443},"geometry":{"x":185324.71000000183,"y":2576279.4700000025}},{"attributes":{"ID":407468,"DIS_CODE":0,"TOWNNAME":"柳營區","LI":"重溪里","LIN":"22鄰","STREET":"義士路","SECT":"一段","MAREA":" ","LANE":"８３２巷","ALLEY":" ","HOUSE_NO":"１２３號","E_COORD97":185325.54000000001,"N_COORD97":2576290.75,"ADDRESS":"義士路一段８３２巷１２３號","OBJECTID":407444},"geometry":{"x":185325.54000000004,"y":2576290.75}},{"attributes":{"ID":407469,"DIS_CODE":0,"TOWNNAME":"柳營區","LI":"重溪里","LIN":"22鄰","STREET":"義士路","SECT":"一段","MAREA":" ","LANE":"８３２巷","ALLEY":" ","HOUSE_NO":"１２５號","E_COORD97":185327.60000000001,"N_COORD97":2576305.3100000001,"ADDRESS":"義士路一段８３２巷１２５號","OBJECTID":407445},"geometry":{"x":185327.60000000056,"y":2576305.3100000005}},{"attributes":{"ID":407470,"DIS_CODE":0,"TOWNNAME":"柳營區","LI":"重溪里","LIN":"22鄰","STREET":"義士路","SECT":"一段","MAREA":" ","LANE":"８３２巷","ALLEY":" ","HOUSE_NO":"１２７號","E_COORD97":185333.75,"N_COORD97":2576333,"ADDRESS":"義士路一段８３２巷１２７號","OBJECTID":407446},"geometry":{"x":185333.75000000093,"y":2576333}},{"attributes":{"ID":407471,"DIS_CODE":0,"TOWNNAME":"歸仁區","LI":"六甲里","LIN":"22鄰","STREET":"中正十八街","SECT":" ","MAREA":" ","LANE":"８巷","ALLEY":" ","HOUSE_NO":"２０號","E_COORD97":176370.10880799999,"N_COORD97":2539706.8245100002,"ADDRESS":"中正十八街８巷２０號","OBJECTID":407447},"geometry":{"x":176370.10880799964,"y":2539706.8245100025}},{"attributes":{"ID":407472,"DIS_CODE":0,"TOWNNAME":"歸仁區","LI":"六甲里","LIN":"22鄰","STREET":"中正十八街","SECT":" ","MAREA":" ","LANE":"８巷","ALLEY":" ","HOUSE_NO":"１５號","E_COORD97":176354.85435400001,"N_COORD97":2539700.4745100001,"ADDRESS":"中正十八街８巷１５號","OBJECTID":407448},"geometry":{"x":176354.85435400158,"y":2539700.4745139983}},{"attributes":{"ID":407473,"DIS_CODE":0,"TOWNNAME":"歸仁區","LI":"大廟里","LIN":"22鄰","STREET":"大廟一街","SECT":" ","MAREA":" ","LANE":"６０巷","ALLEY":" ","HOUSE_NO":"５號","E_COORD97":175766.37,"N_COORD97":2544024.25,"ADDRESS":"大廟一街６０巷５號","OBJECTID":407449},"geometry":{"x":175766.37000000197,"y":2544024.25}},{"attributes":{"ID":407474,"DIS_CODE":0,"TOWNNAME":"歸仁區","LI":"六甲里","LIN":"22鄰","STREET":"中正十八街","SECT":" ","MAREA":" ","LANE":"８巷","ALLEY":" ","HOUSE_NO":"１號","E_COORD97":176352.10007700001,"N_COORD97":2539669.5712000001,"ADDRESS":"中正十八街８巷１號","OBJECTID":407450},"geometry":{"x":176352.10007700231,"y":2539669.5711970013}},{"attributes":{"ID":407475,"DIS_CODE":0,"TOWNNAME":"歸仁區","LI":"六甲里","LIN":"22鄰","STREET":"中正十八街","SECT":" ","MAREA":" ","LANE":"８巷","ALLEY":" ","HOUSE_NO":"８號","E_COORD97":176370.320675,"N_COORD97":2539683.9645199999,"ADDRESS":"中正十八街８巷８號","OBJECTID":407451},"geometry":{"x":176370.32067500055,"y":2539683.9645230025}},{"attributes":{"ID":407476,"DIS_CODE":0,"TOWNNAME":"關廟區","LI":"東勢里","LIN":"22鄰","STREET":"東昌街","SECT":" ","MAREA":" ","LANE":"１２３巷","ALLEY":" ","HOUSE_NO":"３３號","E_COORD97":181798.32000000001,"N_COORD97":2539146.25,"ADDRESS":"東昌街１２３巷３３號","OBJECTID":407452},"geometry":{"x":181798.31999999937,"y":2539146.25}},{"attributes":{"ID":407477,"DIS_CODE":0,"TOWNNAME":"關廟區","LI":"東勢里","LIN":"22鄰","STREET":"東昌街","SECT":" ","MAREA":" ","LANE":"１２３巷","ALLEY":" ","HOUSE_NO":"３１號","E_COORD97":181804.01999999999,"N_COORD97":2539148.25,"ADDRESS":"東昌街１２３巷３１號","OBJECTID":407453},"geometry":{"x":181804.01999999955,"y":2539148.2500000019}},{"attributes":{"ID":407478,"DIS_CODE":0,"TOWNNAME":"關廟區","LI":"東勢里","LIN":"22鄰","STREET":"東昌街","SECT":" ","MAREA":" ","LANE":"１２３巷","ALLEY":" ","HOUSE_NO":"２１號","E_COORD97":181822.82000000001,"N_COORD97":2539157.25,"ADDRESS":"東昌街１２３巷２１號","OBJECTID":407454},"geometry":{"x":181822.82000000123,"y":2539157.2500000037}},{"attributes":{"ID":407479,"DIS_CODE":0,"TOWNNAME":"關廟區","LI":"北勢里","LIN":"22鄰","STREET":"仁愛路","SECT":" ","MAREA":" ","LANE":"１７６巷","ALLEY":" ","HOUSE_NO":"２１號","E_COORD97":181453.64000000001,"N_COORD97":2540380.2799999998,"ADDRESS":"仁愛路１７６巷２１號","OBJECTID":407455},"geometry":{"x":181453.6400000006,"y":2540380.2800000031}},{"attributes":{"ID":407480,"DIS_CODE":0,"TOWNNAME":"關廟區","LI":"東勢里","LIN":"22鄰","STREET":"東昌街","SECT":" ","MAREA":" ","LANE":"１２３巷","ALLEY":" ","HOUSE_NO":"２６號","E_COORD97":181803.72,"N_COORD97":2539160.25,"ADDRESS":"東昌街１２３巷２６號","OBJECTID":407456},"geometry":{"x":181803.72000000067,"y":2539160.25}},{"attributes":{"ID":407481,"DIS_CODE":0,"TOWNNAME":"關廟區","LI":"北勢里","LIN":"22鄰","STREET":"仁愛路","SECT":" ","MAREA":" ","LANE":"１７６巷","ALLEY":" ","HOUSE_NO":"１６號","E_COORD97":181431.34,"N_COORD97":2540386.2799999998,"ADDRESS":"仁愛路１７６巷１６號","OBJECTID":407457},"geometry":{"x":181431.33999999985,"y":2540386.2799999993}},{"attributes":{"ID":407482,"DIS_CODE":0,"TOWNNAME":"關廟區","LI":"北勢里","LIN":"22鄰","STREET":"仁愛路","SECT":" ","MAREA":" ","LANE":"１９８巷","ALLEY":" ","HOUSE_NO":"２５號","E_COORD97":181465.94,"N_COORD97":2540422.2799999998,"ADDRESS":"仁愛路１９８巷２５號","OBJECTID":407458},"geometry":{"x":181465.94000000134,"y":2540422.2800000012}},{"attributes":{"ID":407483,"DIS_CODE":0,"TOWNNAME":"關廟區","LI":"北勢里","LIN":"22鄰","STREET":"仁愛路","SECT":" ","MAREA":" ","LANE":"１８６巷","ALLEY":" ","HOUSE_NO":"１號","E_COORD97":181418.98999999999,"N_COORD97":2540420.2799999998,"ADDRESS":"仁愛路１８６巷１號","OBJECTID":407459},"geometry":{"x":181418.99000000022,"y":2540420.2799999993}},{"attributes":{"ID":407484,"DIS_CODE":0,"TOWNNAME":"關廟區","LI":"北勢里","LIN":"22鄰","STREET":"仁愛路","SECT":" ","MAREA":" ","LANE":"１９８巷","ALLEY":" ","HOUSE_NO":"１號","E_COORD97":181427.39000000001,"N_COORD97":2540434.2799999998,"ADDRESS":"仁愛路１９８巷１號","OBJECTID":407460},"geometry":{"x":181427.38999999966,"y":2540434.2799999993}},{"attributes":{"ID":407485,"DIS_CODE":0,"TOWNNAME":"關廟區","LI":"東勢里","LIN":"22鄰","STREET":"東昌街","SECT":" ","MAREA":" ","LANE":"１２３巷","ALLEY":" ","HOUSE_NO":"３９號","E_COORD97":181778.32000000001,"N_COORD97":2539169.25,"ADDRESS":"東昌街１２３巷３９號","OBJECTID":407461},"geometry":{"x":181778.32000000123,"y":2539169.25}},{"attributes":{"ID":407486,"DIS_CODE":0,"TOWNNAME":"關廟區","LI":"北勢里","LIN":"22鄰","STREET":"仁愛路","SECT":" ","MAREA":" ","LANE":"１８６巷","ALLEY":" ","HOUSE_NO":"７號","E_COORD97":181430.48999999999,"N_COORD97":2540415.2799999998,"ADDRESS":"仁愛路１８６巷７號","OBJECTID":407462},"geometry":{"x":181430.49000000022,"y":2540415.2800000012}},{"attributes":{"ID":407487,"DIS_CODE":0,"TOWNNAME":"關廟區","LI":"北勢里","LIN":"22鄰","STREET":"仁愛路","SECT":" ","MAREA":" ","LANE":"１７６巷","ALLEY":" ","HOUSE_NO":"２號","E_COORD97":181418.19,"N_COORD97":2540385.2799999998,"ADDRESS":"仁愛路１７６巷２號","OBJECTID":407463},"geometry":{"x":181418.19000000134,"y":2540385.2800000012}},{"attributes":{"ID":407488,"DIS_CODE":0,"TOWNNAME":"北區","LI":"文元里","LIN":"22鄰","STREET":"和緯路","SECT":"三段","MAREA":" ","LANE":"１８０巷","ALLEY":" ","HOUSE_NO":"２８號","E_COORD97":167940.04999999999,"N_COORD97":2545829.9199999999,"ADDRESS":"和緯路三段１８０巷２８號","OBJECTID":407464},"geometry":{"x":167940.05000000075,"y":2545829.9200000018}},{"attributes":{"ID":407489,"DIS_CODE":0,"TOWNNAME":"北區","LI":"文元里","LIN":"22鄰","STREET":"和緯路","SECT":"三段","MAREA":" ","LANE":"１８０巷","ALLEY":" ","HOUSE_NO":"３０號","E_COORD97":167939.09,"N_COORD97":2545838.3300000001,"ADDRESS":"和緯路三段１８０巷３０號","OBJECTID":407465},"geometry":{"x":167939.08999999985,"y":2545838.3300000001}},{"attributes":{"ID":407490,"DIS_CODE":0,"TOWNNAME":"北區","LI":"文元里","LIN":"22鄰","STREET":"和緯路","SECT":"三段","MAREA":" ","LANE":"１８０巷","ALLEY":" ","HOUSE_NO":"５０號","E_COORD97":167965.60999999999,"N_COORD97":2545857.2999999998,"ADDRESS":"和緯路三段１８０巷５０號","OBJECTID":407466},"geometry":{"x":167965.61000000127,"y":2545857.3000000045}},{"attributes":{"ID":407491,"DIS_CODE":0,"TOWNNAME":"北區","LI":"文元里","LIN":"22鄰","STREET":"和緯路","SECT":"三段","MAREA":" ","LANE":"１８０巷","ALLEY":" ","HOUSE_NO":"５２號","E_COORD97":167962.10999999999,"N_COORD97":2545857.46,"ADDRESS":"和緯路三段１８０巷５２號","OBJECTID":407467},"geometry":{"x":167962.1100000022,"y":2545857.4600000028}},{"attributes":{"ID":407492,"DIS_CODE":0,"TOWNNAME":"北區","LI":"文元里","LIN":"22鄰","STREET":"和緯路","SECT":"三段","MAREA":" ","LANE":"１８０巷","ALLEY":" ","HOUSE_NO":"５６號","E_COORD97":167957.82999999999,"N_COORD97":2545856.75,"ADDRESS":"和緯路三段１８０巷５６號","OBJECTID":407468},"geometry":{"x":167957.83000000007,"y":2545856.7500000037}},{"attributes":{"ID":407493,"DIS_CODE":0,"TOWNNAME":"北區","LI":"文元里","LIN":"22鄰","STREET":"和緯路","SECT":"三段","MAREA":" ","LANE":"１８０巷","ALLEY":" ","HOUSE_NO":"５８號","E_COORD97":167953.38,"N_COORD97":2545855.6400000001,"ADDRESS":"和緯路三段１８０巷５８號","OBJECTID":407469},"geometry":{"x":167953.38000000082,"y":2545855.6400000025}},{"attributes":{"ID":407494,"DIS_CODE":0,"TOWNNAME":"北區","LI":"文元里","LIN":"22鄰","STREET":"和緯路","SECT":"三段","MAREA":" ","LANE":"１８０巷","ALLEY":" ","HOUSE_NO":"６０號","E_COORD97":167948.94,"N_COORD97":2545855.3999999999,"ADDRESS":"和緯路三段１８０巷６０號","OBJECTID":407470},"geometry":{"x":167948.94000000041,"y":2545855.4000000004}},{"attributes":{"ID":407495,"DIS_CODE":0,"TOWNNAME":"北區","LI":"文元里","LIN":"22鄰","STREET":"和緯路","SECT":"三段","MAREA":" ","LANE":"１８０巷","ALLEY":" ","HOUSE_NO":"６２號","E_COORD97":167944.32999999999,"N_COORD97":2545855.0800000001,"ADDRESS":"和緯路三段１８０巷６２號","OBJECTID":407471},"geometry":{"x":167944.33000000007,"y":2545855.0800000019}},{"attributes":{"ID":407496,"DIS_CODE":0,"TOWNNAME":"北區","LI":"文元里","LIN":"22鄰","STREET":"和緯路","SECT":"三段","MAREA":" ","LANE":"１８０巷","ALLEY":" ","HOUSE_NO":"６６號","E_COORD97":167938.62,"N_COORD97":2545854.6099999999,"ADDRESS":"和緯路三段１８０巷６６號","OBJECTID":407472},"geometry":{"x":167938.62000000104,"y":2545854.6100000013}},{"attributes":{"ID":407497,"DIS_CODE":0,"TOWNNAME":"北區","LI":"文元里","LIN":"22鄰","STREET":"和緯路","SECT":"三段","MAREA":" ","LANE":"１８０巷","ALLEY":" ","HOUSE_NO":"６８號","E_COORD97":167938.14000000001,"N_COORD97":2545860.7999999998,"ADDRESS":"和緯路三段１８０巷６８號","OBJECTID":407473},"geometry":{"x":167938.1400000006,"y":2545860.8000000045}},{"attributes":{"ID":407498,"DIS_CODE":0,"TOWNNAME":"北區","LI":"文元里","LIN":"22鄰","STREET":"和緯路","SECT":"三段","MAREA":" ","LANE":"１８０巷","ALLEY":" ","HOUSE_NO":"７０號","E_COORD97":167937.51000000001,"N_COORD97":2545865.5600000001,"ADDRESS":"和緯路三段１８０巷７０號","OBJECTID":407474},"geometry":{"x":167937.51000000071,"y":2545865.5600000042}},{"attributes":{"ID":407499,"DIS_CODE":0,"TOWNNAME":"北區","LI":"成功里","LIN":"22鄰","STREET":"北安路","SECT":"一段","MAREA":" ","LANE":"１７６巷","ALLEY":" ","HOUSE_NO":"８號","E_COORD97":168972.66,"N_COORD97":2546503.9199999999,"ADDRESS":"北安路一段１７６巷８號","OBJECTID":407475},"geometry":{"x":168972.66000000108,"y":2546503.9200000018}},{"attributes":{"ID":407500,"DIS_CODE":0,"TOWNNAME":"北區","LI":"成功里","LIN":"22鄰","STREET":"北安路","SECT":"一段","MAREA":" ","LANE":"１７６巷","ALLEY":" ","HOUSE_NO":"６號","E_COORD97":168976.94,"N_COORD97":2546502.25,"ADDRESS":"北安路一段１７６巷６號","OBJECTID":407476},"geometry":{"x":168976.94000000227,"y":2546502.2500000019}},{"attributes":{"ID":407501,"DIS_CODE":0,"TOWNNAME":"安平區","LI":"平通里","LIN":"22鄰","STREET":"育平九街","SECT":" ","MAREA":" ","LANE":"３７２巷","ALLEY":" ","HOUSE_NO":"９１之１１號","E_COORD97":164542.79999999999,"N_COORD97":2543984.8300000001,"ADDRESS":"育平九街３７２巷９１之１１號","OBJECTID":407477},"geometry":{"x":164542.80000000168,"y":2543984.8300000038}},{"attributes":{"ID":407502,"DIS_CODE":0,"TOWNNAME":"安平區","LI":"平通里","LIN":"22鄰","STREET":"育平九街","SECT":" ","MAREA":" ","LANE":"３７２巷","ALLEY":" ","HOUSE_NO":"９１之１２號","E_COORD97":164538.45999999999,"N_COORD97":2543984.71,"ADDRESS":"育平九街３７２巷９１之１２號","OBJECTID":407478},"geometry":{"x":164538.46000000183,"y":2543984.7100000028}},{"attributes":{"ID":407503,"DIS_CODE":0,"TOWNNAME":"安平區","LI":"平通里","LIN":"22鄰","STREET":"育平九街","SECT":" ","MAREA":" ","LANE":"３７２巷","ALLEY":" ","HOUSE_NO":"９１之１３號","E_COORD97":164534.14999999999,"N_COORD97":2543984.4100000001,"ADDRESS":"育平九街３７２巷９１之１３號","OBJECTID":407479},"geometry":{"x":164534.15000000224,"y":2543984.4100000039}},{"attributes":{"ID":407504,"DIS_CODE":0,"TOWNNAME":"安平區","LI":"平通里","LIN":"22鄰","STREET":"育平九街","SECT":" ","MAREA":" ","LANE":"３７２巷","ALLEY":" ","HOUSE_NO":"９１之１４號","E_COORD97":164529.57999999999,"N_COORD97":2543984.1099999999,"ADDRESS":"育平九街３７２巷９１之１４號","OBJECTID":407480},"geometry":{"x":164529.58000000101,"y":2543984.1099999994}},{"attributes":{"ID":407505,"DIS_CODE":0,"TOWNNAME":"安平區","LI":"平通里","LIN":"22鄰","STREET":"育平九街","SECT":" ","MAREA":" ","LANE":"３７２巷","ALLEY":" ","HOUSE_NO":"９１之１號","E_COORD97":164581.82000000001,"N_COORD97":2543984.71,"ADDRESS":"育平九街３７２巷９１之１號","OBJECTID":407481},"geometry":{"x":164581.8200000003,"y":2543984.7100000028}},{"attributes":{"ID":407506,"DIS_CODE":0,"TOWNNAME":"安平區","LI":"平通里","LIN":"22鄰","STREET":"育平九街","SECT":" ","MAREA":" ","LANE":"３７２巷","ALLEY":" ","HOUSE_NO":"９１之２號","E_COORD97":164577.25,"N_COORD97":2543985,"ADDRESS":"育平九街３７２巷９１之２號","OBJECTID":407482},"geometry":{"x":164577.25000000186,"y":2543985.0000000019}},{"attributes":{"ID":407507,"DIS_CODE":0,"TOWNNAME":"安平區","LI":"平通里","LIN":"22鄰","STREET":"育平九街","SECT":" ","MAREA":" ","LANE":"３７２巷","ALLEY":" ","HOUSE_NO":"９１之３號","E_COORD97":164573.01999999999,"N_COORD97":2543985,"ADDRESS":"育平九街３７２巷９１之３號","OBJECTID":407483},"geometry":{"x":164573.01999999862,"y":2543985.0000000019}},{"attributes":{"ID":407508,"DIS_CODE":0,"TOWNNAME":"安平區","LI":"平通里","LIN":"22鄰","STREET":"育平九街","SECT":" ","MAREA":" ","LANE":"３７２巷","ALLEY":" ","HOUSE_NO":"９１之５號","E_COORD97":164568.67000000001,"N_COORD97":2543985.1299999999,"ADDRESS":"育平九街３７２巷９１之５號","OBJECTID":407484},"geometry":{"x":164568.66999999993,"y":2543985.1300000027}},{"attributes":{"ID":407509,"DIS_CODE":0,"TOWNNAME":"安平區","LI":"平通里","LIN":"22鄰","STREET":"育平九街","SECT":" ","MAREA":" ","LANE":"３７２巷","ALLEY":" ","HOUSE_NO":"９１之６號","E_COORD97":164564.64999999999,"N_COORD97":2543984.9199999999,"ADDRESS":"育平九街３７２巷９１之６號","OBJECTID":407485},"geometry":{"x":164564.65000000224,"y":2543984.9200000018}},{"attributes":{"ID":407510,"DIS_CODE":0,"TOWNNAME":"安平區","LI":"平通里","LIN":"22鄰","STREET":"育平九街","SECT":" ","MAREA":" ","LANE":"３７２巷","ALLEY":" ","HOUSE_NO":"９１之７號","E_COORD97":164560.20999999999,"N_COORD97":2543984.8799999999,"ADDRESS":"育平九街３７２巷９１之７號","OBJECTID":407486},"geometry":{"x":164560.20999999996,"y":2543984.8800000008}},{"attributes":{"ID":407511,"DIS_CODE":0,"TOWNNAME":"安平區","LI":"平通里","LIN":"22鄰","STREET":"育平九街","SECT":" ","MAREA":" ","LANE":"３７２巷","ALLEY":" ","HOUSE_NO":"９１之８號","E_COORD97":164555.39999999999,"N_COORD97":2543984.79,"ADDRESS":"育平九街３７２巷９１之８號","OBJECTID":407487},"geometry":{"x":164555.40000000037,"y":2543984.790000001}},{"attributes":{"ID":407512,"DIS_CODE":0,"TOWNNAME":"安平區","LI":"平通里","LIN":"22鄰","STREET":"育平九街","SECT":" ","MAREA":" ","LANE":"３７２巷","ALLEY":" ","HOUSE_NO":"９１之９號","E_COORD97":164551.42999999999,"N_COORD97":2543984.6600000001,"ADDRESS":"育平九街３７２巷９１之９號","OBJECTID":407488},"geometry":{"x":164551.4299999997,"y":2543984.6600000001}},{"attributes":{"ID":407513,"DIS_CODE":0,"TOWNNAME":"安平區","LI":"平通里","LIN":"22鄰","STREET":"育平九街","SECT":" ","MAREA":" ","LANE":"３７２巷","ALLEY":" ","HOUSE_NO":"９１號","E_COORD97":164586.26999999999,"N_COORD97":2543984.4100000001,"ADDRESS":"育平九街３７２巷９１號","OBJECTID":407489},"geometry":{"x":164586.26999999955,"y":2543984.4100000039}},{"attributes":{"ID":407514,"DIS_CODE":0,"TOWNNAME":"安平區","LI":"平通里","LIN":"22鄰","STREET":"育平九街","SECT":" ","MAREA":" ","LANE":"３７２巷","ALLEY":" ","HOUSE_NO":"９３之１０號","E_COORD97":164546.82999999999,"N_COORD97":2544005.8399999999,"ADDRESS":"育平九街３７２巷９３之１０號","OBJECTID":407490},"geometry":{"x":164546.83000000101,"y":2544005.8400000017}},{"attributes":{"ID":407515,"DIS_CODE":0,"TOWNNAME":"安平區","LI":"平通里","LIN":"22鄰","STREET":"育平九街","SECT":" ","MAREA":" ","LANE":"３７２巷","ALLEY":" ","HOUSE_NO":"９３之１１號","E_COORD97":164542.45000000001,"N_COORD97":2544005.6600000001,"ADDRESS":"育平九街３７２巷９３之１１號","OBJECTID":407491},"geometry":{"x":164542.45000000112,"y":2544005.6600000001}},{"attributes":{"ID":407516,"DIS_CODE":0,"TOWNNAME":"安平區","LI":"平通里","LIN":"22鄰","STREET":"育平九街","SECT":" ","MAREA":" ","LANE":"３７２巷","ALLEY":" ","HOUSE_NO":"９３之１２號","E_COORD97":164537.95000000001,"N_COORD97":2544005.71,"ADDRESS":"育平九街３７２巷９３之１２號","OBJECTID":407492},"geometry":{"x":164537.95000000019,"y":2544005.7100000009}},{"attributes":{"ID":407517,"DIS_CODE":0,"TOWNNAME":"安平區","LI":"平通里","LIN":"22鄰","STREET":"育平九街","SECT":" ","MAREA":" ","LANE":"３７２巷","ALLEY":" ","HOUSE_NO":"９３之１３號","E_COORD97":164533.57000000001,"N_COORD97":2544005.6600000001,"ADDRESS":"育平九街３７２巷９３之１３號","OBJECTID":407493},"geometry":{"x":164533.57000000123,"y":2544005.6600000001}},{"attributes":{"ID":407518,"DIS_CODE":0,"TOWNNAME":"安平區","LI":"平通里","LIN":"22鄰","STREET":"育平九街","SECT":" ","MAREA":" ","LANE":"３７２巷","ALLEY":" ","HOUSE_NO":"９３之１４號","E_COORD97":164529.62,"N_COORD97":2544005.75,"ADDRESS":"育平九街３７２巷９３之１４號","OBJECTID":407494},"geometry":{"x":164529.62000000104,"y":2544005.7500000037}},{"attributes":{"ID":407519,"DIS_CODE":0,"TOWNNAME":"安平區","LI":"平通里","LIN":"22鄰","STREET":"育平九街","SECT":" ","MAREA":" ","LANE":"３７２巷","ALLEY":" ","HOUSE_NO":"９３之１號","E_COORD97":164581.12,"N_COORD97":2544005.9199999999,"ADDRESS":"育平九街３７２巷９３之１號","OBJECTID":407495},"geometry":{"x":164581.12000000011,"y":2544005.9200000018}},{"attributes":{"ID":407520,"DIS_CODE":0,"TOWNNAME":"安平區","LI":"平通里","LIN":"22鄰","STREET":"育平九街","SECT":" ","MAREA":" ","LANE":"３７２巷","ALLEY":" ","HOUSE_NO":"９３之２號","E_COORD97":164577.22,"N_COORD97":2544006.1800000002,"ADDRESS":"育平九街３７２巷９３之２號","OBJECTID":407496},"geometry":{"x":164577.22000000067,"y":2544006.1800000016}},{"attributes":{"ID":407521,"DIS_CODE":0,"TOWNNAME":"安平區","LI":"平通里","LIN":"22鄰","STREET":"育平九街","SECT":" ","MAREA":" ","LANE":"３７２巷","ALLEY":" ","HOUSE_NO":"９３之３號","E_COORD97":164572.63,"N_COORD97":2544006.0099999998,"ADDRESS":"育平九街３７２巷９３之３號","OBJECTID":407497},"geometry":{"x":164572.62999999896,"y":2544006.0099999998}},{"attributes":{"ID":407522,"DIS_CODE":0,"TOWNNAME":"安平區","LI":"平通里","LIN":"22鄰","STREET":"育平九街","SECT":" ","MAREA":" ","LANE":"３７２巷","ALLEY":" ","HOUSE_NO":"９３之５號","E_COORD97":164568.38,"N_COORD97":2544006.1800000002,"ADDRESS":"育平九街３７２巷９３之５號","OBJECTID":407498},"geometry":{"x":164568.38000000082,"y":2544006.1800000016}},{"attributes":{"ID":407523,"DIS_CODE":0,"TOWNNAME":"安平區","LI":"平通里","LIN":"22鄰","STREET":"育平九街","SECT":" ","MAREA":" ","LANE":"３７２巷","ALLEY":" ","HOUSE_NO":"９３之６號","E_COORD97":164564.04999999999,"N_COORD97":2544005.9199999999,"ADDRESS":"育平九街３７２巷９３之６號","OBJECTID":407499},"geometry":{"x":164564.04999999981,"y":2544005.9200000018}},{"attributes":{"ID":407524,"DIS_CODE":0,"TOWNNAME":"安平區","LI":"平通里","LIN":"22鄰","STREET":"育平九街","SECT":" ","MAREA":" ","LANE":"３７２巷","ALLEY":" ","HOUSE_NO":"９３之７號","E_COORD97":164559.81,"N_COORD97":2544006.0499999998,"ADDRESS":"育平九街３７２巷９３之７號","OBJECTID":407500},"geometry":{"x":164559.81000000052,"y":2544006.0500000007}},{"attributes":{"ID":407525,"DIS_CODE":0,"TOWNNAME":"安平區","LI":"平通里","LIN":"22鄰","STREET":"育平九街","SECT":" ","MAREA":" ","LANE":"３７２巷","ALLEY":" ","HOUSE_NO":"９３之８號","E_COORD97":164555.42999999999,"N_COORD97":2544005.8300000001,"ADDRESS":"育平九街３７２巷９３之８號","OBJECTID":407501},"geometry":{"x":164555.43000000063,"y":2544005.8300000019}},{"attributes":{"ID":407526,"DIS_CODE":0,"TOWNNAME":"安平區","LI":"平通里","LIN":"22鄰","STREET":"育平九街","SECT":" ","MAREA":" ","LANE":"３７２巷","ALLEY":" ","HOUSE_NO":"９３之９號","E_COORD97":164551.03,"N_COORD97":2544005.54,"ADDRESS":"育平九街３７２巷９３之９號","OBJECTID":407502},"geometry":{"x":164551.03000000026,"y":2544005.5399999991}},{"attributes":{"ID":407527,"DIS_CODE":0,"TOWNNAME":"安平區","LI":"平通里","LIN":"22鄰","STREET":"育平九街","SECT":" ","MAREA":" ","LANE":"３７２巷","ALLEY":" ","HOUSE_NO":"９３號","E_COORD97":164585.97,"N_COORD97":2544005.71,"ADDRESS":"育平九街３７２巷９３號","OBJECTID":407503},"geometry":{"x":164585.97000000067,"y":2544005.7100000009}},{"attributes":{"ID":407528,"DIS_CODE":0,"TOWNNAME":"東山區","LI":"東中里","LIN":"22鄰","STREET":"中興路","SECT":" ","MAREA":" ","LANE":"６８巷","ALLEY":" ","HOUSE_NO":"１０號","E_COORD97":189030.25,"N_COORD97":2580170.7999999998,"ADDRESS":"中興路６８巷１０號","OBJECTID":407504},"geometry":{"x":189030.25000000186,"y":2580170.8000000007}},{"attributes":{"ID":407529,"DIS_CODE":0,"TOWNNAME":"東山區","LI":"東中里","LIN":"22鄰","STREET":"中興路","SECT":" ","MAREA":" ","LANE":"６８巷","ALLEY":" ","HOUSE_NO":"１１號","E_COORD97":189040.62,"N_COORD97":2580170.3199999998,"ADDRESS":"中興路６８巷１１號","OBJECTID":407505},"geometry":{"x":189040.62000000011,"y":2580170.3200000003}},{"attributes":{"ID":407530,"DIS_CODE":0,"TOWNNAME":"東山區","LI":"東中里","LIN":"22鄰","STREET":"中興路","SECT":" ","MAREA":" ","LANE":"６８巷","ALLEY":" ","HOUSE_NO":"１２號","E_COORD97":189030.35999999999,"N_COORD97":2580165.4700000002,"ADDRESS":"中興路６８巷１２號","OBJECTID":407506},"geometry":{"x":189030.36000000127,"y":2580165.4700000007}},{"attributes":{"ID":407531,"DIS_CODE":0,"TOWNNAME":"東山區","LI":"東中里","LIN":"22鄰","STREET":"中興路","SECT":" ","MAREA":" ","LANE":"６８巷","ALLEY":" ","HOUSE_NO":"１３號","E_COORD97":189040.70000000001,"N_COORD97":2580166.2999999998,"ADDRESS":"中興路６８巷１３號","OBJECTID":407507},"geometry":{"x":189040.70000000019,"y":2580166.3000000007}},{"attributes":{"ID":407532,"DIS_CODE":0,"TOWNNAME":"東山區","LI":"東中里","LIN":"22鄰","STREET":"中興路","SECT":" ","MAREA":" ","LANE":"６８巷","ALLEY":" ","HOUSE_NO":"１５號","E_COORD97":189040.5,"N_COORD97":2580161.7599999998,"ADDRESS":"中興路６８巷１５號","OBJECTID":407508},"geometry":{"x":189040.50000000186,"y":2580161.7600000016}},{"attributes":{"ID":407533,"DIS_CODE":0,"TOWNNAME":"東山區","LI":"東中里","LIN":"22鄰","STREET":"中興路","SECT":" ","MAREA":" ","LANE":"６８巷","ALLEY":" ","HOUSE_NO":"１６號","E_COORD97":189030.32000000001,"N_COORD97":2580161.1699999999,"ADDRESS":"中興路６８巷１６號","OBJECTID":407509},"geometry":{"x":189030.32000000123,"y":2580161.1700000037}},{"attributes":{"ID":407534,"DIS_CODE":0,"TOWNNAME":"東山區","LI":"東中里","LIN":"22鄰","STREET":"中興路","SECT":" ","MAREA":" ","LANE":"６８巷","ALLEY":" ","HOUSE_NO":"１７號","E_COORD97":189040.57999999999,"N_COORD97":2580157.6699999999,"ADDRESS":"中興路６８巷１７號","OBJECTID":407510},"geometry":{"x":189040.58000000101,"y":2580157.6700000037}},{"attributes":{"ID":407535,"DIS_CODE":0,"TOWNNAME":"東山區","LI":"東中里","LIN":"22鄰","STREET":"中興路","SECT":" ","MAREA":" ","LANE":"６８巷","ALLEY":" ","HOUSE_NO":"１８號","E_COORD97":189030.26999999999,"N_COORD97":2580156.9500000002,"ADDRESS":"中興路６８巷１８號","OBJECTID":407511},"geometry":{"x":189030.27000000048,"y":2580156.9499999993}},{"attributes":{"ID":407536,"DIS_CODE":0,"TOWNNAME":"東山區","LI":"東中里","LIN":"22鄰","STREET":"中興路","SECT":" ","MAREA":" ","LANE":"６８巷","ALLEY":" ","HOUSE_NO":"１９號","E_COORD97":189040.73999999999,"N_COORD97":2580153.6099999999,"ADDRESS":"中興路６８巷１９號","OBJECTID":407512},"geometry":{"x":189040.74000000209,"y":2580153.6099999994}},{"attributes":{"ID":407537,"DIS_CODE":0,"TOWNNAME":"東山區","LI":"東中里","LIN":"22鄰","STREET":"中興路","SECT":" ","MAREA":" ","LANE":"６８巷","ALLEY":" ","HOUSE_NO":"１號","E_COORD97":189014.01000000001,"N_COORD97":2580183.6600000001,"ADDRESS":"中興路６８巷１號","OBJECTID":407513},"geometry":{"x":189014.00999999978,"y":2580183.6600000001}},{"attributes":{"ID":407538,"DIS_CODE":0,"TOWNNAME":"東山區","LI":"東中里","LIN":"22鄰","STREET":"中興路","SECT":" ","MAREA":" ","LANE":"６８巷","ALLEY":" ","HOUSE_NO":"２０號","E_COORD97":189029.79000000001,"N_COORD97":2580152.52,"ADDRESS":"中興路６８巷２０號","OBJECTID":407514},"geometry":{"x":189029.79000000004,"y":2580152.5200000014}},{"attributes":{"ID":407539,"DIS_CODE":0,"TOWNNAME":"東山區","LI":"東中里","LIN":"22鄰","STREET":"中興路","SECT":" ","MAREA":" ","LANE":"６８巷","ALLEY":" ","HOUSE_NO":"２１號","E_COORD97":189040.64000000001,"N_COORD97":2580149.2000000002,"ADDRESS":"中興路６８巷２１號","OBJECTID":407515},"geometry":{"x":189040.63999999966,"y":2580149.1999999993}},{"attributes":{"ID":407540,"DIS_CODE":0,"TOWNNAME":"東山區","LI":"東中里","LIN":"22鄰","STREET":"中興路","SECT":" ","MAREA":" ","LANE":"６８巷","ALLEY":" ","HOUSE_NO":"２２號","E_COORD97":189028.45000000001,"N_COORD97":2580148.1000000001,"ADDRESS":"中興路６８巷２２號","OBJECTID":407516},"geometry":{"x":189028.45000000019,"y":2580148.1000000015}},{"attributes":{"ID":407541,"DIS_CODE":0,"TOWNNAME":"東山區","LI":"東中里","LIN":"22鄰","STREET":"中興路","SECT":" ","MAREA":" ","LANE":"６８巷","ALLEY":" ","HOUSE_NO":"２３號","E_COORD97":189041.34,"N_COORD97":2580144.9199999999,"ADDRESS":"中興路６８巷２３號","OBJECTID":407517},"geometry":{"x":189041.34000000171,"y":2580144.9199999999}},{"attributes":{"ID":407542,"DIS_CODE":0,"TOWNNAME":"東山區","LI":"東中里","LIN":"22鄰","STREET":"中興路","SECT":" ","MAREA":" ","LANE":"６８巷","ALLEY":" ","HOUSE_NO":"２５號","E_COORD97":189041.44,"N_COORD97":2580140.77,"ADDRESS":"中興路６８巷２５號","OBJECTID":407518},"geometry":{"x":189041.44000000134,"y":2580140.7700000014}},{"attributes":{"ID":407543,"DIS_CODE":0,"TOWNNAME":"東山區","LI":"東中里","LIN":"22鄰","STREET":"中興路","SECT":" ","MAREA":" ","LANE":"６８巷","ALLEY":" ","HOUSE_NO":"２６號","E_COORD97":189030.22,"N_COORD97":2580143.9199999999,"ADDRESS":"中興路６８巷２６號","OBJECTID":407519},"geometry":{"x":189030.2200000016,"y":2580143.9200000018}},{"attributes":{"ID":407544,"DIS_CODE":0,"TOWNNAME":"東山區","LI":"東中里","LIN":"22鄰","STREET":"中興路","SECT":" ","MAREA":" ","LANE":"６８巷","ALLEY":" ","HOUSE_NO":"２７號","E_COORD97":189041.29999999999,"N_COORD97":2580135.9700000002,"ADDRESS":"中興路６８巷２７號","OBJECTID":407520},"geometry":{"x":189041.29999999981,"y":2580135.9700000044}},{"attributes":{"ID":407545,"DIS_CODE":0,"TOWNNAME":"東山區","LI":"東中里","LIN":"22鄰","STREET":"中興路","SECT":" ","MAREA":" ","LANE":"６８巷","ALLEY":" ","HOUSE_NO":"２８號","E_COORD97":189030.07000000001,"N_COORD97":2580139.6400000001,"ADDRESS":"中興路６８巷２８號","OBJECTID":407521},"geometry":{"x":189030.07000000216,"y":2580139.6400000025}},{"attributes":{"ID":407546,"DIS_CODE":0,"TOWNNAME":"東山區","LI":"東中里","LIN":"22鄰","STREET":"中興路","SECT":" ","MAREA":" ","LANE":"６８巷","ALLEY":" ","HOUSE_NO":"２９號","E_COORD97":189041.67000000001,"N_COORD97":2580131.96,"ADDRESS":"中興路６８巷２９號","OBJECTID":407522},"geometry":{"x":189041.67000000086,"y":2580131.9600000009}},{"attributes":{"ID":407547,"DIS_CODE":0,"TOWNNAME":"東山區","LI":"東中里","LIN":"22鄰","STREET":"中興路","SECT":" ","MAREA":" ","LANE":"６８巷","ALLEY":" ","HOUSE_NO":"２號","E_COORD97":189020.69,"N_COORD97":2580179.7000000002,"ADDRESS":"中興路６８巷２號","OBJECTID":407523},"geometry":{"x":189020.69000000041,"y":2580179.6999999993}},{"attributes":{"ID":407548,"DIS_CODE":0,"TOWNNAME":"東山區","LI":"東中里","LIN":"22鄰","STREET":"中興路","SECT":" ","MAREA":" ","LANE":"６８巷","ALLEY":" ","HOUSE_NO":"３０號","E_COORD97":189030.12,"N_COORD97":2580136.02,"ADDRESS":"中興路６８巷３０號","OBJECTID":407524},"geometry":{"x":189030.12000000104,"y":2580136.0200000014}},{"attributes":{"ID":407549,"DIS_CODE":0,"TOWNNAME":"東山區","LI":"東中里","LIN":"22鄰","STREET":"中興路","SECT":" ","MAREA":" ","LANE":"６８巷","ALLEY":" ","HOUSE_NO":"３２號","E_COORD97":189030.63,"N_COORD97":2580131.2400000002,"ADDRESS":"中興路６８巷３２號","OBJECTID":407525},"geometry":{"x":189030.62999999989,"y":2580131.2400000021}},{"attributes":{"ID":407550,"DIS_CODE":0,"TOWNNAME":"東山區","LI":"東中里","LIN":"22鄰","STREET":"中興路","SECT":" ","MAREA":" ","LANE":"６８巷","ALLEY":" ","HOUSE_NO":"７號","E_COORD97":189037.94,"N_COORD97":2580180.4500000002,"ADDRESS":"中興路６８巷７號","OBJECTID":407526},"geometry":{"x":189037.94000000227,"y":2580180.4500000011}},{"attributes":{"ID":407551,"DIS_CODE":0,"TOWNNAME":"東山區","LI":"東中里","LIN":"22鄰","STREET":"中興路","SECT":" ","MAREA":" ","LANE":"６８巷","ALLEY":" ","HOUSE_NO":"８號","E_COORD97":189041.66,"N_COORD97":2580180.25,"ADDRESS":"中興路６８巷８號","OBJECTID":407527},"geometry":{"x":189041.66000000108,"y":2580180.25}},{"attributes":{"ID":407552,"DIS_CODE":0,"TOWNNAME":"東山區","LI":"東中里","LIN":"22鄰","STREET":"中興路","SECT":" ","MAREA":" ","LANE":"６８巷","ALLEY":" ","HOUSE_NO":"９號","E_COORD97":189046.01000000001,"N_COORD97":2580180.3900000001,"ADDRESS":"中興路６８巷９號","OBJECTID":407528},"geometry":{"x":189046.01000000071,"y":2580180.3899999987}},{"attributes":{"ID":407553,"DIS_CODE":0,"TOWNNAME":"新營區","LI":"新東里","LIN":"22鄰","STREET":"東明街","SECT":" ","MAREA":" ","LANE":"８０巷","ALLEY":" ","HOUSE_NO":"３３號","E_COORD97":180902.67999999999,"N_COORD97":2579795.5299999998,"ADDRESS":"東明街８０巷３３號","OBJECTID":407529},"geometry":{"x":180902.68000000063,"y":2579795.5300000012}},{"attributes":{"ID":407554,"DIS_CODE":0,"TOWNNAME":"新營區","LI":"新東里","LIN":"22鄰","STREET":"東明街","SECT":" ","MAREA":" ","LANE":"８０巷","ALLEY":" ","HOUSE_NO":"３９號","E_COORD97":180919.07000000001,"N_COORD97":2579800.9900000002,"ADDRESS":"東明街８０巷３９號","OBJECTID":407530},"geometry":{"x":180919.07000000123,"y":2579800.9900000021}},{"attributes":{"ID":407555,"DIS_CODE":0,"TOWNNAME":"新營區","LI":"新東里","LIN":"22鄰","STREET":"東明街","SECT":" ","MAREA":" ","LANE":"８０巷","ALLEY":" ","HOUSE_NO":"３２號","E_COORD97":180877.04999999999,"N_COORD97":2579784.5800000001,"ADDRESS":"東明街８０巷３２號","OBJECTID":407531},"geometry":{"x":180877.04999999981,"y":2579784.5800000001}},{"attributes":{"ID":407556,"DIS_CODE":0,"TOWNNAME":"新營區","LI":"新東里","LIN":"22鄰","STREET":"東明街","SECT":" ","MAREA":" ","LANE":"８０巷","ALLEY":" ","HOUSE_NO":"６０號","E_COORD97":180940.45000000001,"N_COORD97":2579797.5699999998,"ADDRESS":"東明街８０巷６０號","OBJECTID":407532},"geometry":{"x":180940.45000000112,"y":2579797.5700000022}},{"attributes":{"ID":407557,"DIS_CODE":0,"TOWNNAME":"新營區","LI":"新東里","LIN":"22鄰","STREET":"東明街","SECT":" ","MAREA":" ","LANE":"８０巷","ALLEY":" ","HOUSE_NO":"４０號","E_COORD97":180904.64999999999,"N_COORD97":2579782.2400000002,"ADDRESS":"東明街８０巷４０號","OBJECTID":407533},"geometry":{"x":180904.65000000224,"y":2579782.2400000021}},{"attributes":{"ID":407558,"DIS_CODE":0,"TOWNNAME":"新營區","LI":"新東里","LIN":"22鄰","STREET":"東明街","SECT":" ","MAREA":" ","LANE":"８０巷","ALLEY":" ","HOUSE_NO":"１１號","E_COORD97":180853.48999999999,"N_COORD97":2579794.6600000001,"ADDRESS":"東明街８０巷１１號","OBJECTID":407534},"geometry":{"x":180853.49000000115,"y":2579794.6600000001}},{"attributes":{"ID":407559,"DIS_CODE":0,"TOWNNAME":"新營區","LI":"南紙里","LIN":"22鄰","STREET":"建業路","SECT":" ","MAREA":" ","LANE":"１９３巷","ALLEY":" ","HOUSE_NO":"１２號","E_COORD97":178194.19,"N_COORD97":2577453.9700000002,"ADDRESS":"建業路１９３巷１２號","OBJECTID":407535},"geometry":{"x":178194.19000000134,"y":2577453.9700000007}},{"attributes":{"ID":407560,"DIS_CODE":0,"TOWNNAME":"新營區","LI":"南紙里","LIN":"22鄰","STREET":"建業路","SECT":" ","MAREA":" ","LANE":"１９３巷","ALLEY":" ","HOUSE_NO":"４號","E_COORD97":178193.13,"N_COORD97":2577476.1099999999,"ADDRESS":"建業路１９３巷４號","OBJECTID":407536},"geometry":{"x":178193.12999999989,"y":2577476.1100000013}},{"attributes":{"ID":407561,"DIS_CODE":0,"TOWNNAME":"新營區","LI":"南紙里","LIN":"22鄰","STREET":"建業路","SECT":" ","MAREA":" ","LANE":"１９３巷","ALLEY":" ","HOUSE_NO":"１６號","E_COORD97":178193.12,"N_COORD97":2577444.0099999998,"ADDRESS":"建業路１９３巷１６號","OBJECTID":407537},"geometry":{"x":178193.12000000011,"y":2577444.0100000016}},{"attributes":{"ID":407562,"DIS_CODE":0,"TOWNNAME":"新營區","LI":"南紙里","LIN":"22鄰","STREET":"建業路","SECT":" ","MAREA":" ","LANE":"１９３巷","ALLEY":" ","HOUSE_NO":"１８號","E_COORD97":178193.10000000001,"N_COORD97":2577440.6899999999,"ADDRESS":"建業路１９３巷１８號","OBJECTID":407538},"geometry":{"x":178193.09999999963,"y":2577440.6899999995}},{"attributes":{"ID":407563,"DIS_CODE":0,"TOWNNAME":"新營區","LI":"南紙里","LIN":"22鄰","STREET":"建業路","SECT":" ","MAREA":" ","LANE":"１９３巷","ALLEY":" ","HOUSE_NO":"２號","E_COORD97":178194.16,"N_COORD97":2577479.4399999999,"ADDRESS":"建業路１９３巷２號","OBJECTID":407539},"geometry":{"x":178194.16000000108,"y":2577479.4399999995}},{"attributes":{"ID":407564,"DIS_CODE":0,"TOWNNAME":"新營區","LI":"民榮里","LIN":"22鄰","STREET":"裕民路","SECT":" ","MAREA":" ","LANE":"３４巷","ALLEY":" ","HOUSE_NO":"２１號","E_COORD97":179069.84,"N_COORD97":2577870.5800000001,"ADDRESS":"裕民路３４巷２１號","OBJECTID":407540},"geometry":{"x":179069.83999999985,"y":2577870.5800000019}},{"attributes":{"ID":407565,"DIS_CODE":0,"TOWNNAME":"新營區","LI":"新北里","LIN":"22鄰","STREET":"民生路","SECT":" ","MAREA":" ","LANE":"３５６巷","ALLEY":" ","HOUSE_NO":"１５號","E_COORD97":178925.17999999999,"N_COORD97":2579287.71,"ADDRESS":"民生路３５６巷１５號","OBJECTID":407541},"geometry":{"x":178925.1799999997,"y":2579287.7100000028}},{"attributes":{"ID":407566,"DIS_CODE":0,"TOWNNAME":"新營區","LI":"新東里","LIN":"22鄰","STREET":"東明街","SECT":" ","MAREA":" ","LANE":"９６巷","ALLEY":" ","HOUSE_NO":"２號","E_COORD97":180819.75,"N_COORD97":2579831.3500000001,"ADDRESS":"東明街９６巷２號","OBJECTID":407542},"geometry":{"x":180819.75,"y":2579831.3500000015}},{"attributes":{"ID":407567,"DIS_CODE":0,"TOWNNAME":"新營區","LI":"新東里","LIN":"22鄰","STREET":"東明街","SECT":" ","MAREA":" ","LANE":"９６巷","ALLEY":" ","HOUSE_NO":"２０號","E_COORD97":180871.13,"N_COORD97":2579833.3300000001,"ADDRESS":"東明街９６巷２０號","OBJECTID":407543},"geometry":{"x":180871.12999999989,"y":2579833.3300000001}},{"attributes":{"ID":407568,"DIS_CODE":0,"TOWNNAME":"新營區","LI":"新東里","LIN":"22鄰","STREET":"東明街","SECT":" ","MAREA":" ","LANE":"９６巷","ALLEY":" ","HOUSE_NO":"８號","E_COORD97":180827.94,"N_COORD97":2579831.3100000001,"ADDRESS":"東明街９６巷８號","OBJECTID":407544},"geometry":{"x":180827.93999999948,"y":2579831.3100000005}},{"attributes":{"ID":407569,"DIS_CODE":0,"TOWNNAME":"新營區","LI":"新東里","LIN":"22鄰","STREET":"東明街","SECT":" ","MAREA":" ","LANE":"９６巷","ALLEY":" ","HOUSE_NO":"５０號","E_COORD97":180937.54000000001,"N_COORD97":2579829.7000000002,"ADDRESS":"東明街９６巷５０號","OBJECTID":407545},"geometry":{"x":180937.54000000097,"y":2579829.6999999993}},{"attributes":{"ID":407570,"DIS_CODE":0,"TOWNNAME":"新營區","LI":"新東里","LIN":"22鄰","STREET":"東明街","SECT":" ","MAREA":" ","LANE":"９６巷","ALLEY":" ","HOUSE_NO":"４８號","E_COORD97":180922.28,"N_COORD97":2579834.2000000002,"ADDRESS":"東明街９６巷４８號","OBJECTID":407546},"geometry":{"x":180922.28000000212,"y":2579834.1999999993}},{"attributes":{"ID":407571,"DIS_CODE":0,"TOWNNAME":"新營區","LI":"新北里","LIN":"22鄰","STREET":"民生路","SECT":" ","MAREA":" ","LANE":"３５６巷","ALLEY":" ","HOUSE_NO":"１１號","E_COORD97":178905.73999999999,"N_COORD97":2579286.7000000002,"ADDRESS":"民生路３５６巷１１號","OBJECTID":407547},"geometry":{"x":178905.74000000115,"y":2579286.7000000011}},{"attributes":{"ID":407572,"DIS_CODE":0,"TOWNNAME":"新營區","LI":"新北里","LIN":"22鄰","STREET":"民生路","SECT":" ","MAREA":" ","LANE":"３５６巷","ALLEY":" ","HOUSE_NO":"１２號","E_COORD97":178960.89999999999,"N_COORD97":2579272.04,"ADDRESS":"民生路３５６巷１２號","OBJECTID":407548},"geometry":{"x":178960.9000000013,"y":2579272.0399999991}},{"attributes":{"ID":407573,"DIS_CODE":0,"TOWNNAME":"新營區","LI":"新北里","LIN":"22鄰","STREET":"民生路","SECT":" ","MAREA":" ","LANE":"３５６巷","ALLEY":" ","HOUSE_NO":"１４號","E_COORD97":178971.13,"N_COORD97":2579271.9900000002,"ADDRESS":"民生路３５６巷１４號","OBJECTID":407549},"geometry":{"x":178971.12999999989,"y":2579271.9900000021}},{"attributes":{"ID":407574,"DIS_CODE":0,"TOWNNAME":"新營區","LI":"新東里","LIN":"22鄰","STREET":"東明街","SECT":" ","MAREA":" ","LANE":"９６巷","ALLEY":" ","HOUSE_NO":"５２號","E_COORD97":180942.66,"N_COORD97":2579830.7799999998,"ADDRESS":"東明街９６巷５２號","OBJECTID":407550},"geometry":{"x":180942.66000000015,"y":2579830.7800000031}},{"attributes":{"ID":407575,"DIS_CODE":0,"TOWNNAME":"新營區","LI":"新東里","LIN":"22鄰","STREET":"東明街","SECT":" ","MAREA":" ","LANE":"９６巷","ALLEY":" ","HOUSE_NO":"４２號","E_COORD97":180912.04999999999,"N_COORD97":2579834.25,"ADDRESS":"東明街９６巷４２號","OBJECTID":407551},"geometry":{"x":180912.05000000075,"y":2579834.25}},{"attributes":{"ID":407576,"DIS_CODE":0,"TOWNNAME":"新營區","LI":"忠政里","LIN":"22鄰","STREET":"府西路","SECT":" ","MAREA":" ","LANE":"２０１巷","ALLEY":" ","HOUSE_NO":"３４號","E_COORD97":179690.51000000001,"N_COORD97":2579540.98,"ADDRESS":"府西路２０１巷３４號","OBJECTID":407552},"geometry":{"x":179690.50999999978,"y":2579540.9800000004}},{"attributes":{"ID":407577,"DIS_CODE":0,"TOWNNAME":"北區","LI":"正覺里","LIN":"22鄰","STREET":"正覺街","SECT":" ","MAREA":" ","LANE":"１０２巷","ALLEY":" ","HOUSE_NO":"１０號","E_COORD97":169402.91,"N_COORD97":2546476.8300000001,"ADDRESS":"正覺街１０２巷１０號","OBJECTID":407553},"geometry":{"x":169402.91000000108,"y":2546476.8300000038}},{"attributes":{"ID":407578,"DIS_CODE":0,"TOWNNAME":"北區","LI":"正覺里","LIN":"22鄰","STREET":"正覺街","SECT":" ","MAREA":" ","LANE":"１０２巷","ALLEY":" ","HOUSE_NO":"１１號","E_COORD97":169387.26999999999,"N_COORD97":2546493.9900000002,"ADDRESS":"正覺街１０２巷１１號","OBJECTID":407554},"geometry":{"x":169387.26999999955,"y":2546493.9900000021}},{"attributes":{"ID":407579,"DIS_CODE":0,"TOWNNAME":"北區","LI":"正覺里","LIN":"22鄰","STREET":"正覺街","SECT":" ","MAREA":" ","LANE":"１０２巷","ALLEY":" ","HOUSE_NO":"１２號","E_COORD97":169415.97,"N_COORD97":2546482.1499999999,"ADDRESS":"正覺街１０２巷１２號","OBJECTID":407555},"geometry":{"x":169415.96999999974,"y":2546482.1500000022}},{"attributes":{"ID":407580,"DIS_CODE":0,"TOWNNAME":"北區","LI":"正覺里","LIN":"22鄰","STREET":"正覺街","SECT":" ","MAREA":" ","LANE":"１０２巷","ALLEY":" ","HOUSE_NO":"１３號","E_COORD97":169392.16,"N_COORD97":2546493.52,"ADDRESS":"正覺街１０２巷１３號","OBJECTID":407556},"geometry":{"x":169392.16000000201,"y":2546493.5200000014}},{"attributes":{"ID":407581,"DIS_CODE":0,"TOWNNAME":"北區","LI":"正覺里","LIN":"22鄰","STREET":"正覺街","SECT":" ","MAREA":" ","LANE":"１０２巷","ALLEY":" ","HOUSE_NO":"１４號","E_COORD97":169420.64000000001,"N_COORD97":2546481.1800000002,"ADDRESS":"正覺街１０２巷１４號","OBJECTID":407557},"geometry":{"x":169420.64000000153,"y":2546481.1800000016}},{"attributes":{"ID":407582,"DIS_CODE":0,"TOWNNAME":"北區","LI":"正覺里","LIN":"22鄰","STREET":"正覺街","SECT":" ","MAREA":" ","LANE":"１０２巷","ALLEY":" ","HOUSE_NO":"１５號","E_COORD97":169395.63,"N_COORD97":2546492.8700000001,"ADDRESS":"正覺街１０２巷１５號","OBJECTID":407558},"geometry":{"x":169395.63000000175,"y":2546492.870000001}},{"attributes":{"ID":407583,"DIS_CODE":0,"TOWNNAME":"北區","LI":"正覺里","LIN":"22鄰","STREET":"正覺街","SECT":" ","MAREA":" ","LANE":"１０２巷","ALLEY":" ","HOUSE_NO":"１６號","E_COORD97":169425.14999999999,"N_COORD97":2546479.5699999998,"ADDRESS":"正覺街１０２巷１６號","OBJECTID":407559},"geometry":{"x":169425.1500000013,"y":2546479.5700000022}},{"attributes":{"ID":407584,"DIS_CODE":0,"TOWNNAME":"北區","LI":"正覺里","LIN":"22鄰","STREET":"正覺街","SECT":" ","MAREA":" ","LANE":"１０２巷","ALLEY":" ","HOUSE_NO":"１７號","E_COORD97":169399.39000000001,"N_COORD97":2546492.3999999999,"ADDRESS":"正覺街１０２巷１７號","OBJECTID":407560},"geometry":{"x":169399.3900000006,"y":2546492.4000000004}},{"attributes":{"ID":407585,"DIS_CODE":0,"TOWNNAME":"北區","LI":"正覺里","LIN":"22鄰","STREET":"正覺街","SECT":" ","MAREA":" ","LANE":"１０２巷","ALLEY":" ","HOUSE_NO":"１８號","E_COORD97":169429.42000000001,"N_COORD97":2546478.3700000001,"ADDRESS":"正覺街１０２巷１８號","OBJECTID":407561},"geometry":{"x":169429.42000000086,"y":2546478.3700000029}},{"attributes":{"ID":407586,"DIS_CODE":0,"TOWNNAME":"北區","LI":"正覺里","LIN":"22鄰","STREET":"正覺街","SECT":" ","MAREA":" ","LANE":"１０２巷","ALLEY":" ","HOUSE_NO":"１９號","E_COORD97":169403.70999999999,"N_COORD97":2546492.02,"ADDRESS":"正覺街１０２巷１９號","OBJECTID":407562},"geometry":{"x":169403.71000000089,"y":2546492.0200000033}},{"attributes":{"ID":407587,"DIS_CODE":0,"TOWNNAME":"北區","LI":"正覺里","LIN":"22鄰","STREET":"正覺街","SECT":" ","MAREA":" ","LANE":"１０２巷","ALLEY":" ","HOUSE_NO":"１號","E_COORD97":169358.97,"N_COORD97":2546496.5299999998,"ADDRESS":"正覺街１０２巷１號","OBJECTID":407563},"geometry":{"x":169358.96999999974,"y":2546496.5300000012}},{"attributes":{"ID":407588,"DIS_CODE":0,"TOWNNAME":"北區","LI":"正覺里","LIN":"22鄰","STREET":"正覺街","SECT":" ","MAREA":" ","LANE":"１０２巷","ALLEY":" ","HOUSE_NO":"２０號","E_COORD97":169432.88,"N_COORD97":2546477.2400000002,"ADDRESS":"正覺街１０２巷２０號","OBJECTID":407564},"geometry":{"x":169432.88000000175,"y":2546477.2399999984}},{"attributes":{"ID":407589,"DIS_CODE":0,"TOWNNAME":"北區","LI":"正覺里","LIN":"22鄰","STREET":"正覺街","SECT":" ","MAREA":" ","LANE":"１０２巷","ALLEY":" ","HOUSE_NO":"２１號","E_COORD97":169409.85000000001,"N_COORD97":2546492.4100000001,"ADDRESS":"正覺街１０２巷２１號","OBJECTID":407565},"geometry":{"x":169409.85000000056,"y":2546492.4100000001}},{"attributes":{"ID":407590,"DIS_CODE":0,"TOWNNAME":"北區","LI":"正覺里","LIN":"22鄰","STREET":"正覺街","SECT":" ","MAREA":" ","LANE":"１０２巷","ALLEY":" ","HOUSE_NO":"２２號","E_COORD97":169436.76999999999,"N_COORD97":2546475.5299999998,"ADDRESS":"正覺街１０２巷２２號","OBJECTID":407566},"geometry":{"x":169436.77000000048,"y":2546475.5300000012}},{"attributes":{"ID":407591,"DIS_CODE":0,"TOWNNAME":"北區","LI":"正覺里","LIN":"22鄰","STREET":"正覺街","SECT":" ","MAREA":" ","LANE":"１０２巷","ALLEY":" ","HOUSE_NO":"２３號","E_COORD97":169414.31,"N_COORD97":2546491.8199999998,"ADDRESS":"正覺街１０２巷２３號","OBJECTID":407567},"geometry":{"x":169414.31000000145,"y":2546491.8200000022}},{"attributes":{"ID":407592,"DIS_CODE":0,"TOWNNAME":"北區","LI":"正覺里","LIN":"22鄰","STREET":"正覺街","SECT":" ","MAREA":" ","LANE":"１０２巷","ALLEY":" ","HOUSE_NO":"３１號","E_COORD97":169438.76000000001,"N_COORD97":2546488.1000000001,"ADDRESS":"正覺街１０２巷３１號","OBJECTID":407568},"geometry":{"x":169438.76000000071,"y":2546488.1000000034}},{"attributes":{"ID":407593,"DIS_CODE":0,"TOWNNAME":"北區","LI":"正覺里","LIN":"22鄰","STREET":"正覺街","SECT":" ","MAREA":" ","LANE":"１０２巷","ALLEY":" ","HOUSE_NO":"３２號","E_COORD97":169457.78,"N_COORD97":2546468.21,"ADDRESS":"正覺街１０２巷３２號","OBJECTID":407569},"geometry":{"x":169457.78000000212,"y":2546468.2100000046}},{"attributes":{"ID":407594,"DIS_CODE":0,"TOWNNAME":"北區","LI":"正覺里","LIN":"22鄰","STREET":"正覺街","SECT":" ","MAREA":" ","LANE":"１０２巷","ALLEY":" ","HOUSE_NO":"３３號","E_COORD97":169442.62,"N_COORD97":2546487.3799999999,"ADDRESS":"正覺街１０２巷３３號","OBJECTID":407570},"geometry":{"x":169442.62000000011,"y":2546487.379999999}},{"attributes":{"ID":407595,"DIS_CODE":0,"TOWNNAME":"北區","LI":"正覺里","LIN":"22鄰","STREET":"正覺街","SECT":" ","MAREA":" ","LANE":"１０２巷","ALLEY":" ","HOUSE_NO":"３４號","E_COORD97":169461.23999999999,"N_COORD97":2546466.6800000002,"ADDRESS":"正覺街１０２巷３４號","OBJECTID":407571},"geometry":{"x":169461.24000000209,"y":2546466.6799999997}},{"attributes":{"ID":407596,"DIS_CODE":0,"TOWNNAME":"北區","LI":"正覺里","LIN":"22鄰","STREET":"正覺街","SECT":" ","MAREA":" ","LANE":"１０２巷","ALLEY":" ","HOUSE_NO":"３５號","E_COORD97":169446.89000000001,"N_COORD97":2546485.2000000002,"ADDRESS":"正覺街１０２巷３５號","OBJECTID":407572},"geometry":{"x":169446.8900000006,"y":2546485.2000000011}},{"attributes":{"ID":407597,"DIS_CODE":0,"TOWNNAME":"北區","LI":"正覺里","LIN":"22鄰","STREET":"正覺街","SECT":" ","MAREA":" ","LANE":"１０２巷","ALLEY":" ","HOUSE_NO":"３６號","E_COORD97":169465.19,"N_COORD97":2546464.8300000001,"ADDRESS":"正覺街１０２巷３６號","OBJECTID":407573},"geometry":{"x":169465.19000000227,"y":2546464.8300000019}},{"attributes":{"ID":407598,"DIS_CODE":0,"TOWNNAME":"北區","LI":"正覺里","LIN":"22鄰","STREET":"正覺街","SECT":" ","MAREA":" ","LANE":"１０２巷","ALLEY":" ","HOUSE_NO":"３７號","E_COORD97":169450.98999999999,"N_COORD97":2546484.1600000001,"ADDRESS":"正覺街１０２巷３７號","OBJECTID":407574},"geometry":{"x":169450.98999999929,"y":2546484.1600000001}},{"attributes":{"ID":407599,"DIS_CODE":0,"TOWNNAME":"北區","LI":"正覺里","LIN":"22鄰","STREET":"正覺街","SECT":" ","MAREA":" ","LANE":"１０２巷","ALLEY":" ","HOUSE_NO":"３８號","E_COORD97":169468.73000000001,"N_COORD97":2546462.8199999998,"ADDRESS":"正覺街１０２巷３８號","OBJECTID":407575},"geometry":{"x":169468.73000000138,"y":2546462.8200000003}},{"attributes":{"ID":407600,"DIS_CODE":0,"TOWNNAME":"北區","LI":"正覺里","LIN":"22鄰","STREET":"正覺街","SECT":" ","MAREA":" ","LANE":"１０２巷","ALLEY":" ","HOUSE_NO":"３９號","E_COORD97":169454.94,"N_COORD97":2546483.0299999998,"ADDRESS":"正覺街１０２巷３９號","OBJECTID":407576},"geometry":{"x":169454.93999999948,"y":2546483.0300000012}},{"attributes":{"ID":407601,"DIS_CODE":0,"TOWNNAME":"北區","LI":"正覺里","LIN":"22鄰","STREET":"正覺街","SECT":" ","MAREA":" ","LANE":"１０２巷","ALLEY":" ","HOUSE_NO":"３號","E_COORD97":169362.72,"N_COORD97":2546496.6299999999,"ADDRESS":"正覺街１０２巷３號","OBJECTID":407577},"geometry":{"x":169362.72000000067,"y":2546496.629999999}},{"attributes":{"ID":407602,"DIS_CODE":0,"TOWNNAME":"北區","LI":"正覺里","LIN":"22鄰","STREET":"正覺街","SECT":" ","MAREA":" ","LANE":"１０２巷","ALLEY":" ","HOUSE_NO":"４１號","E_COORD97":169459.39000000001,"N_COORD97":2546482.0600000001,"ADDRESS":"正覺街１０２巷４１號","OBJECTID":407578},"geometry":{"x":169459.38999999966,"y":2546482.0600000005}},{"attributes":{"ID":407603,"DIS_CODE":0,"TOWNNAME":"北區","LI":"正覺里","LIN":"22鄰","STREET":"正覺街","SECT":" ","MAREA":" ","LANE":"１０２巷","ALLEY":" ","HOUSE_NO":"４５號","E_COORD97":169467.51999999999,"N_COORD97":2546479.8900000001,"ADDRESS":"正覺街１０２巷４５號","OBJECTID":407579},"geometry":{"x":169467.52000000048,"y":2546479.8900000006}},{"attributes":{"ID":407604,"DIS_CODE":0,"TOWNNAME":"北區","LI":"正覺里","LIN":"22鄰","STREET":"正覺街","SECT":" ","MAREA":" ","LANE":"１０２巷","ALLEY":" ","HOUSE_NO":"４７號","E_COORD97":169471.63,"N_COORD97":2546478.52,"ADDRESS":"正覺街１０２巷４７號","OBJECTID":407580},"geometry":{"x":169471.62999999989,"y":2546478.5200000033}},{"attributes":{"ID":407605,"DIS_CODE":0,"TOWNNAME":"北區","LI":"正覺里","LIN":"22鄰","STREET":"正覺街","SECT":" ","MAREA":" ","LANE":"１０２巷","ALLEY":" ","HOUSE_NO":"４９號","E_COORD97":169475.41,"N_COORD97":2546477.8700000001,"ADDRESS":"正覺街１０２巷４９號","OBJECTID":407581},"geometry":{"x":169475.41000000201,"y":2546477.8700000029}},{"attributes":{"ID":407606,"DIS_CODE":0,"TOWNNAME":"北區","LI":"正覺里","LIN":"22鄰","STREET":"正覺街","SECT":" ","MAREA":" ","LANE":"１０２巷","ALLEY":" ","HOUSE_NO":"５號","E_COORD97":169365.17000000001,"N_COORD97":2546496.4399999999,"ADDRESS":"正覺街１０２巷５號","OBJECTID":407582},"geometry":{"x":169365.17000000086,"y":2546496.4400000013}},{"attributes":{"ID":407607,"DIS_CODE":0,"TOWNNAME":"北區","LI":"正覺里","LIN":"22鄰","STREET":"正覺街","SECT":" ","MAREA":" ","LANE":"１０２巷","ALLEY":" ","HOUSE_NO":"６號","E_COORD97":169383.35999999999,"N_COORD97":2546480.23,"ADDRESS":"正覺街１０２巷６號","OBJECTID":407583},"geometry":{"x":169383.36000000127,"y":2546480.2300000004}},{"attributes":{"ID":407608,"DIS_CODE":0,"TOWNNAME":"北區","LI":"正覺里","LIN":"22鄰","STREET":"正覺街","SECT":" ","MAREA":" ","LANE":"１０２巷","ALLEY":" ","HOUSE_NO":"７號","E_COORD97":169369.48999999999,"N_COORD97":2546495.5,"ADDRESS":"正覺街１０２巷７號","OBJECTID":407584},"geometry":{"x":169369.49000000022,"y":2546495.5}},{"attributes":{"ID":407609,"DIS_CODE":0,"TOWNNAME":"北區","LI":"正覺里","LIN":"22鄰","STREET":"正覺街","SECT":" ","MAREA":" ","LANE":"１０２巷","ALLEY":" ","HOUSE_NO":"８號","E_COORD97":169390.45000000001,"N_COORD97":2546478.25,"ADDRESS":"正覺街１０２巷８號","OBJECTID":407585},"geometry":{"x":169390.45000000112,"y":2546478.2500000019}},{"attributes":{"ID":407610,"DIS_CODE":0,"TOWNNAME":"北區","LI":"正覺里","LIN":"22鄰","STREET":"正覺街","SECT":" ","MAREA":" ","LANE":"１０２巷","ALLEY":" ","HOUSE_NO":"９號","E_COORD97":169381.26000000001,"N_COORD97":2546494.46,"ADDRESS":"正覺街１０２巷９號","OBJECTID":407586},"geometry":{"x":169381.26000000071,"y":2546494.4600000028}},{"attributes":{"ID":407611,"DIS_CODE":0,"TOWNNAME":"中西區","LI":"萬昌里","LIN":"20鄰","STREET":"民權路","SECT":"一段","MAREA":" ","LANE":"９０巷","ALLEY":" ","HOUSE_NO":"２４號","E_COORD97":169009.17000000001,"N_COORD97":2543468.5499999998,"ADDRESS":"民權路一段９０巷２４號","OBJECTID":407587},"geometry":{"x":169009.17000000086,"y":2543468.5500000045}},{"attributes":{"ID":407612,"DIS_CODE":0,"TOWNNAME":"中西區","LI":"萬昌里","LIN":"20鄰","STREET":"民權路","SECT":"一段","MAREA":" ","LANE":"９０巷","ALLEY":" ","HOUSE_NO":"２６號","E_COORD97":169012.54999999999,"N_COORD97":2543474.4900000002,"ADDRESS":"民權路一段９０巷２６號","OBJECTID":407588},"geometry":{"x":169012.54999999981,"y":2543474.4900000002}},{"attributes":{"ID":407613,"DIS_CODE":0,"TOWNNAME":"北區","LI":"成德里","LIN":"22鄰","STREET":"中華北路","SECT":"二段","MAREA":" ","LANE":"１９４巷","ALLEY":" ","HOUSE_NO":"４３號","E_COORD97":168345.73000000001,"N_COORD97":2546710.73,"ADDRESS":"中華北路二段１９４巷４３號","OBJECTID":407589},"geometry":{"x":168345.73000000045,"y":2546710.7300000004}},{"attributes":{"ID":407614,"DIS_CODE":0,"TOWNNAME":"北區","LI":"成德里","LIN":"22鄰","STREET":"中華北路","SECT":"二段","MAREA":" ","LANE":"１９４巷","ALLEY":" ","HOUSE_NO":"４５號","E_COORD97":168347.78,"N_COORD97":2546706.3799999999,"ADDRESS":"中華北路二段１９４巷４５號","OBJECTID":407590},"geometry":{"x":168347.78000000119,"y":2546706.3800000008}},{"attributes":{"ID":407615,"DIS_CODE":0,"TOWNNAME":"北區","LI":"成德里","LIN":"22鄰","STREET":"北安路","SECT":"一段","MAREA":" ","LANE":"３４１巷","ALLEY":" ","HOUSE_NO":"１８號","E_COORD97":168497.64000000001,"N_COORD97":2546799.1800000002,"ADDRESS":"北安路一段３４１巷１８號","OBJECTID":407591},"geometry":{"x":168497.63999999966,"y":2546799.1799999978}},{"attributes":{"ID":407616,"DIS_CODE":0,"TOWNNAME":"北區","LI":"成德里","LIN":"22鄰","STREET":"北安路","SECT":"一段","MAREA":" ","LANE":"３４１巷","ALLEY":" ","HOUSE_NO":"２２號","E_COORD97":168480.62,"N_COORD97":2546792.96,"ADDRESS":"北安路一段３４１巷２２號","OBJECTID":407592},"geometry":{"x":168480.62000000104,"y":2546792.9600000028}},{"attributes":{"ID":407617,"DIS_CODE":0,"TOWNNAME":"北區","LI":"成德里","LIN":"22鄰","STREET":"北安路","SECT":"一段","MAREA":" ","LANE":"３４１巷","ALLEY":" ","HOUSE_NO":"２８號","E_COORD97":168455.73000000001,"N_COORD97":2546783.6899999999,"ADDRESS":"北安路一段３４１巷２８號","OBJECTID":407593},"geometry":{"x":168455.73000000045,"y":2546783.6900000013}},{"attributes":{"ID":407618,"DIS_CODE":0,"TOWNNAME":"北區","LI":"成德里","LIN":"22鄰","STREET":"北安路","SECT":"一段","MAREA":" ","LANE":"３４１巷","ALLEY":" ","HOUSE_NO":"３０之１號","E_COORD97":168442.39000000001,"N_COORD97":2546778.23,"ADDRESS":"北安路一段３４１巷３０之１號","OBJECTID":407594},"geometry":{"x":168442.38999999966,"y":2546778.2300000004}},{"attributes":{"ID":407619,"DIS_CODE":0,"TOWNNAME":"北區","LI":"成德里","LIN":"22鄰","STREET":"北安路","SECT":"一段","MAREA":" ","LANE":"３４１巷","ALLEY":" ","HOUSE_NO":"３０號","E_COORD97":168449.38,"N_COORD97":2546781.1499999999,"ADDRESS":"北安路一段３４１巷３０號","OBJECTID":407595},"geometry":{"x":168449.37999999989,"y":2546781.1500000022}},{"attributes":{"ID":407620,"DIS_CODE":0,"TOWNNAME":"北區","LI":"成德里","LIN":"22鄰","STREET":"育成路","SECT":" ","MAREA":" ","LANE":"３１７巷","ALLEY":" ","HOUSE_NO":"１０號","E_COORD97":168452.47,"N_COORD97":2546856.96,"ADDRESS":"育成路３１７巷１０號","OBJECTID":407596},"geometry":{"x":168452.47000000067,"y":2546856.9600000028}},{"attributes":{"ID":407621,"DIS_CODE":0,"TOWNNAME":"北區","LI":"成德里","LIN":"22鄰","STREET":"育成路","SECT":" ","MAREA":" ","LANE":"３１７巷","ALLEY":" ","HOUSE_NO":"１２號","E_COORD97":168445.66,"N_COORD97":2546856.4100000001,"ADDRESS":"育成路３１７巷１２號","OBJECTID":407597},"geometry":{"x":168445.66000000015,"y":2546856.410000002}},{"attributes":{"ID":407622,"DIS_CODE":0,"TOWNNAME":"北區","LI":"成德里","LIN":"22鄰","STREET":"育成路","SECT":" ","MAREA":" ","LANE":"３１７巷","ALLEY":" ","HOUSE_NO":"１６號","E_COORD97":168439.31,"N_COORD97":2546854.3500000001,"ADDRESS":"育成路３１７巷１６號","OBJECTID":407598},"geometry":{"x":168439.30999999959,"y":2546854.3499999996}},{"attributes":{"ID":407623,"DIS_CODE":0,"TOWNNAME":"北區","LI":"成德里","LIN":"22鄰","STREET":"育成路","SECT":" ","MAREA":" ","LANE":"３１７巷","ALLEY":" ","HOUSE_NO":"１８號","E_COORD97":168433.75,"N_COORD97":2546852.6099999999,"ADDRESS":"育成路３１７巷１８號","OBJECTID":407599},"geometry":{"x":168433.75000000186,"y":2546852.6099999994}},{"attributes":{"ID":407624,"DIS_CODE":0,"TOWNNAME":"北區","LI":"成德里","LIN":"22鄰","STREET":"育成路","SECT":" ","MAREA":" ","LANE":"３１７巷","ALLEY":" ","HOUSE_NO":"２０號","E_COORD97":168427.23999999999,"N_COORD97":2546850.54,"ADDRESS":"育成路３１７巷２０號","OBJECTID":407600},"geometry":{"x":168427.24000000209,"y":2546850.5400000028}}]}