{"displayFieldName":"TOWNNAME","fieldAliases":{"ID":"ID","DIS_CODE":"DIS_CODE","TOWNNAME":"TOWNNAME","LI":"LI","LIN":"LIN","STREET":"STREET","SECT":"SECT","MAREA":"MAREA","LANE":"LANE","ALLEY":"ALLEY","HOUSE_NO":"HOUSE_NO","E_COORD97":"E_COORD97","N_COORD97":"N_COORD97","ADDRESS":"ADDRESS","OBJECTID":"OBJECTID"},"geometryType":"esriGeometryPoint","spatialReference":{"wkid":102443,"latestWkid":3826},"fields":[{"name":"ID","type":"esriFieldTypeDouble","alias":"ID"},{"name":"DIS_CODE","type":"esriFieldTypeInteger","alias":"DIS_CODE"},{"name":"TOWNNAME","type":"esriFieldTypeString","alias":"TOWNNAME","length":8},{"name":"LI","type":"esriFieldTypeString","alias":"LI","length":8},{"name":"LIN","type":"esriFieldTypeString","alias":"LIN","length":12},{"name":"STREET","type":"esriFieldTypeString","alias":"STREET","length":20},{"name":"SECT","type":"esriFieldTypeString","alias":"SECT","length":8},{"name":"MAREA","type":"esriFieldTypeString","alias":"MAREA","length":12},{"name":"LANE","type":"esriFieldTypeString","alias":"LANE","length":10},{"name":"ALLEY","type":"esriFieldTypeString","alias":"ALLEY","length":10},{"name":"HOUSE_NO","type":"esriFieldTypeString","alias":"HOUSE_NO","length":20},{"name":"E_COORD97","type":"esriFieldTypeDouble","alias":"E_COORD97"},{"name":"N_COORD97","type":"esriFieldTypeDouble","alias":"N_COORD97"},{"name":"ADDRESS","type":"esriFieldTypeString","alias":"ADDRESS","length":50},{"name":"OBJECTID","type":"esriFieldTypeOID","alias":"OBJECTID"}],"features":[{"attributes":{"ID":149202,"DIS_CODE":0,"TOWNNAME":"七股區","LI":"龍山里","LIN":"19鄰","STREET":" ","SECT":" ","MAREA":"龍山","LANE":" ","ALLEY":" ","HOUSE_NO":"２０６號之３","E_COORD97":159159.67000000001,"N_COORD97":2559837.8500000001,"ADDRESS":"龍山２０６號之３","OBJECTID":149201},"geometry":{"x":159159.66999999899,"y":2559837.8500000034}},{"attributes":{"ID":149203,"DIS_CODE":0,"TOWNNAME":"七股區","LI":"龍山里","LIN":"19鄰","STREET":" ","SECT":" ","MAREA":"龍山","LANE":" ","ALLEY":" ","HOUSE_NO":"２０６號之４","E_COORD97":159160.94,"N_COORD97":2559841.8700000001,"ADDRESS":"龍山２０６號之４","OBJECTID":149202},"geometry":{"x":159160.94000000134,"y":2559841.870000001}},{"attributes":{"ID":149204,"DIS_CODE":0,"TOWNNAME":"七股區","LI":"龍山里","LIN":"19鄰","STREET":" ","SECT":" ","MAREA":"龍山","LANE":" ","ALLEY":" ","HOUSE_NO":"２０６號","E_COORD97":159155.85999999999,"N_COORD97":2559825.77,"ADDRESS":"龍山２０６號","OBJECTID":149203},"geometry":{"x":159155.86000000127,"y":2559825.7700000014}},{"attributes":{"ID":149205,"DIS_CODE":0,"TOWNNAME":"七股區","LI":"龍山里","LIN":"19鄰","STREET":" ","SECT":" ","MAREA":"龍山","LANE":" ","ALLEY":" ","HOUSE_NO":"２０８號","E_COORD97":159205.09,"N_COORD97":2559879,"ADDRESS":"龍山２０８號","OBJECTID":149204},"geometry":{"x":159205.09000000078,"y":2559879.0000000019}},{"attributes":{"ID":149206,"DIS_CODE":0,"TOWNNAME":"七股區","LI":"龍山里","LIN":"19鄰","STREET":" ","SECT":" ","MAREA":"龍山","LANE":" ","ALLEY":" ","HOUSE_NO":"２０９號之１","E_COORD97":159226.42999999999,"N_COORD97":2559865.2999999998,"ADDRESS":"龍山２０９號之１","OBJECTID":149205},"geometry":{"x":159226.4299999997,"y":2559865.3000000007}},{"attributes":{"ID":149207,"DIS_CODE":0,"TOWNNAME":"七股區","LI":"龍山里","LIN":"19鄰","STREET":" ","SECT":" ","MAREA":"龍山","LANE":" ","ALLEY":" ","HOUSE_NO":"２０９號之２","E_COORD97":159227.89999999999,"N_COORD97":2559861.3300000001,"ADDRESS":"龍山２０９號之２","OBJECTID":149206},"geometry":{"x":159227.90000000037,"y":2559861.3300000001}},{"attributes":{"ID":149208,"DIS_CODE":0,"TOWNNAME":"七股區","LI":"龍山里","LIN":"19鄰","STREET":" ","SECT":" ","MAREA":"龍山","LANE":" ","ALLEY":" ","HOUSE_NO":"２０９號之３","E_COORD97":159229.07999999999,"N_COORD97":2559857.4700000002,"ADDRESS":"龍山２０９號之３","OBJECTID":149207},"geometry":{"x":159229.08000000101,"y":2559857.4700000007}},{"attributes":{"ID":149209,"DIS_CODE":0,"TOWNNAME":"南區","LI":"郡南里","LIN":"7鄰","STREET":"永成路","SECT":"三段","MAREA":" ","LANE":"１７７巷","ALLEY":" ","HOUSE_NO":"１２號","E_COORD97":167455.34393999999,"N_COORD97":2540847.9147299998,"ADDRESS":"永成路三段１７７巷１２號","OBJECTID":149208},"geometry":{"x":167455.34394000005,"y":2540847.9147270005}},{"attributes":{"ID":149210,"DIS_CODE":0,"TOWNNAME":"七股區","LI":"龍山里","LIN":"19鄰","STREET":" ","SECT":" ","MAREA":"龍山","LANE":" ","ALLEY":" ","HOUSE_NO":"２０９號之４","E_COORD97":159230.67999999999,"N_COORD97":2559853.6899999999,"ADDRESS":"龍山２０９號之４","OBJECTID":149209},"geometry":{"x":159230.68000000156,"y":2559853.6900000013}},{"attributes":{"ID":149211,"DIS_CODE":0,"TOWNNAME":"東區","LI":"富強里","LIN":"3鄰","STREET":"中華東路","SECT":"二段","MAREA":" ","LANE":"２２巷","ALLEY":"１４弄","HOUSE_NO":"２０號","E_COORD97":171384.70999999999,"N_COORD97":2543141.3100000001,"ADDRESS":"中華東路二段２２巷１４弄２０號","OBJECTID":149210},"geometry":{"x":171384.70999999996,"y":2543141.3100000042}},{"attributes":{"ID":149212,"DIS_CODE":0,"TOWNNAME":"東區","LI":"富強里","LIN":"3鄰","STREET":"中華東路","SECT":"二段","MAREA":" ","LANE":"２２巷","ALLEY":"１４弄","HOUSE_NO":"２２號","E_COORD97":171385.66,"N_COORD97":2543164.3599999999,"ADDRESS":"中華東路二段２２巷１４弄２２號","OBJECTID":149211},"geometry":{"x":171385.65999999922,"y":2543164.3600000013}},{"attributes":{"ID":149213,"DIS_CODE":0,"TOWNNAME":"東區","LI":"富強里","LIN":"3鄰","STREET":"中華東路","SECT":"二段","MAREA":" ","LANE":"２２巷","ALLEY":"１４弄","HOUSE_NO":"２４號","E_COORD97":171380.78,"N_COORD97":2543164.3599999999,"ADDRESS":"中華東路二段２２巷１４弄２４號","OBJECTID":149212},"geometry":{"x":171380.78000000119,"y":2543164.3600000013}},{"attributes":{"ID":149214,"DIS_CODE":0,"TOWNNAME":"東區","LI":"富強里","LIN":"3鄰","STREET":"中華東路","SECT":"二段","MAREA":" ","LANE":"２２巷","ALLEY":"１４弄","HOUSE_NO":"２６號","E_COORD97":171377.48000000001,"N_COORD97":2543164.2000000002,"ADDRESS":"中華東路二段２２巷１４弄２６號","OBJECTID":149213},"geometry":{"x":171377.48000000138,"y":2543164.1999999974}},{"attributes":{"ID":149215,"DIS_CODE":0,"TOWNNAME":"大內區","LI":"石城里","LIN":"13鄰","STREET":" ","SECT":" ","MAREA":"石子瀨","LANE":" ","ALLEY":" ","HOUSE_NO":"１２１號之２","E_COORD97":183860.14000000001,"N_COORD97":2558058.2999999998,"ADDRESS":"石子瀨１２１號之２","OBJECTID":149214},"geometry":{"x":183860.13999999966,"y":2558058.3000000007}},{"attributes":{"ID":149216,"DIS_CODE":0,"TOWNNAME":"大內區","LI":"石城里","LIN":"13鄰","STREET":" ","SECT":" ","MAREA":"石子瀨","LANE":" ","ALLEY":" ","HOUSE_NO":"１１７號之１","E_COORD97":183975.20000000001,"N_COORD97":2558003.2999999998,"ADDRESS":"石子瀨１１７號之１","OBJECTID":149215},"geometry":{"x":183975.20000000019,"y":2558003.3000000007}},{"attributes":{"ID":149217,"DIS_CODE":0,"TOWNNAME":"大內區","LI":"石城里","LIN":"8鄰","STREET":" ","SECT":" ","MAREA":"石子瀨","LANE":" ","ALLEY":" ","HOUSE_NO":"７７號","E_COORD97":184191.51999999999,"N_COORD97":2557875.25,"ADDRESS":"石子瀨７７號","OBJECTID":149216},"geometry":{"x":184191.52000000142,"y":2557875.25}},{"attributes":{"ID":149218,"DIS_CODE":0,"TOWNNAME":"大內區","LI":"頭社里","LIN":"8鄰","STREET":" ","SECT":" ","MAREA":"頭社","LANE":" ","ALLEY":" ","HOUSE_NO":"１０５號之１","E_COORD97":186525.03,"N_COORD97":2561091.2999999998,"ADDRESS":"頭社１０５號之１","OBJECTID":149217},"geometry":{"x":186525.03000000119,"y":2561091.3000000026}},{"attributes":{"ID":149219,"DIS_CODE":0,"TOWNNAME":"大內區","LI":"石林里","LIN":"4鄰","STREET":" ","SECT":" ","MAREA":"石子瀨","LANE":" ","ALLEY":" ","HOUSE_NO":"１５４號之６","E_COORD97":184110.01000000001,"N_COORD97":2558121.2999999998,"ADDRESS":"石子瀨１５４號之６","OBJECTID":149218},"geometry":{"x":184110.00999999978,"y":2558121.3000000026}},{"attributes":{"ID":149220,"DIS_CODE":0,"TOWNNAME":"大內區","LI":"石城里","LIN":"4鄰","STREET":" ","SECT":" ","MAREA":"石子瀨","LANE":" ","ALLEY":" ","HOUSE_NO":"３２號之２","E_COORD97":184301.69,"N_COORD97":2558123.2999999998,"ADDRESS":"石子瀨３２號之２","OBJECTID":149219},"geometry":{"x":184301.69000000134,"y":2558123.3000000007}},{"attributes":{"ID":149221,"DIS_CODE":0,"TOWNNAME":"大內區","LI":"石城里","LIN":"5鄰","STREET":" ","SECT":" ","MAREA":"石子瀨","LANE":" ","ALLEY":" ","HOUSE_NO":"４６號","E_COORD97":184211.42000000001,"N_COORD97":2558013.25,"ADDRESS":"石子瀨４６號","OBJECTID":149220},"geometry":{"x":184211.42000000086,"y":2558013.25}},{"attributes":{"ID":149222,"DIS_CODE":0,"TOWNNAME":"大內區","LI":"石城里","LIN":"13鄰","STREET":" ","SECT":" ","MAREA":"石子瀨","LANE":" ","ALLEY":" ","HOUSE_NO":"１１７號之７","E_COORD97":183988.38,"N_COORD97":2557985.2999999998,"ADDRESS":"石子瀨１１７號之７","OBJECTID":149221},"geometry":{"x":183988.38000000082,"y":2557985.3000000026}},{"attributes":{"ID":149223,"DIS_CODE":0,"TOWNNAME":"安南區","LI":"新順里","LIN":"19鄰","STREET":"安豐六街","SECT":" ","MAREA":" ","LANE":" ","ALLEY":" ","HOUSE_NO":"５６之１號","E_COORD97":169386.42000000001,"N_COORD97":2549685.1600000001,"ADDRESS":"安豐六街５６之１號","OBJECTID":149222},"geometry":{"x":169386.41999999993,"y":2549685.1600000039}},{"attributes":{"ID":149224,"DIS_CODE":0,"TOWNNAME":"麻豆區","LI":"\u25A0江里","LIN":"19鄰","STREET":"興南路","SECT":" ","MAREA":" ","LANE":" ","ALLEY":" ","HOUSE_NO":"１４７號","E_COORD97":173452.51999999999,"N_COORD97":2564767.3900000001,"ADDRESS":"興南路１４７號","OBJECTID":149223},"geometry":{"x":173452.52000000142,"y":2564767.3900000006}},{"attributes":{"ID":149225,"DIS_CODE":0,"TOWNNAME":"麻豆區","LI":"\u25A0江里","LIN":"19鄰","STREET":"興南路","SECT":" ","MAREA":" ","LANE":" ","ALLEY":" ","HOUSE_NO":"１５３號","E_COORD97":173463.47,"N_COORD97":2564766.9500000002,"ADDRESS":"興南路１５３號","OBJECTID":149224},"geometry":{"x":173463.47000000067,"y":2564766.9500000011}},{"attributes":{"ID":149226,"DIS_CODE":0,"TOWNNAME":"麻豆區","LI":"\u25A0江里","LIN":"19鄰","STREET":"興南路","SECT":" ","MAREA":" ","LANE":" ","ALLEY":" ","HOUSE_NO":"１５５號","E_COORD97":173467.37,"N_COORD97":2564766.96,"ADDRESS":"興南路１５５號","OBJECTID":149225},"geometry":{"x":173467.37000000011,"y":2564766.9600000009}},{"attributes":{"ID":149227,"DIS_CODE":0,"TOWNNAME":"麻豆區","LI":"\u25A0江里","LIN":"19鄰","STREET":"興南路","SECT":" ","MAREA":" ","LANE":" ","ALLEY":" ","HOUSE_NO":"１５８號","E_COORD97":173492.76999999999,"N_COORD97":2564738.52,"ADDRESS":"興南路１５８號","OBJECTID":149226},"geometry":{"x":173492.76999999955,"y":2564738.5199999996}},{"attributes":{"ID":149228,"DIS_CODE":0,"TOWNNAME":"麻豆區","LI":"\u25A0江里","LIN":"19鄰","STREET":"興南路","SECT":" ","MAREA":" ","LANE":" ","ALLEY":" ","HOUSE_NO":"１６０號","E_COORD97":173496.89999999999,"N_COORD97":2564738.4500000002,"ADDRESS":"興南路１６０號","OBJECTID":149227},"geometry":{"x":173496.9000000013,"y":2564738.4499999993}},{"attributes":{"ID":149229,"DIS_CODE":0,"TOWNNAME":"東區","LI":"富強里","LIN":"3鄰","STREET":"中華東路","SECT":"二段","MAREA":" ","LANE":"２２巷","ALLEY":"１４弄","HOUSE_NO":"２８號","E_COORD97":171373.23000000001,"N_COORD97":2543165.46,"ADDRESS":"中華東路二段２２巷１４弄２８號","OBJECTID":149228},"geometry":{"x":171373.23000000045,"y":2543165.4600000028}},{"attributes":{"ID":149230,"DIS_CODE":0,"TOWNNAME":"東區","LI":"富強里","LIN":"3鄰","STREET":"中華東路","SECT":"二段","MAREA":" ","LANE":"２２巷","ALLEY":"１４弄","HOUSE_NO":"２號","E_COORD97":171364.26999999999,"N_COORD97":2543123.9500000002,"ADDRESS":"中華東路二段２２巷１４弄２號","OBJECTID":149229},"geometry":{"x":171364.27000000048,"y":2543123.9499999993}},{"attributes":{"ID":149231,"DIS_CODE":0,"TOWNNAME":"東區","LI":"富強里","LIN":"3鄰","STREET":"中華東路","SECT":"二段","MAREA":" ","LANE":"２２巷","ALLEY":"１４弄","HOUSE_NO":"３０號","E_COORD97":171369.14000000001,"N_COORD97":2543162.4700000002,"ADDRESS":"中華東路二段２２巷１４弄３０號","OBJECTID":149230},"geometry":{"x":171369.1400000006,"y":2543162.4700000007}},{"attributes":{"ID":149232,"DIS_CODE":0,"TOWNNAME":"東區","LI":"富強里","LIN":"3鄰","STREET":"中華東路","SECT":"二段","MAREA":" ","LANE":"２２巷","ALLEY":"１４弄","HOUSE_NO":"３２號","E_COORD97":171365.26999999999,"N_COORD97":2543162.96,"ADDRESS":"中華東路二段２２巷１４弄３２號","OBJECTID":149231},"geometry":{"x":171365.26999999955,"y":2543162.9600000009}},{"attributes":{"ID":149233,"DIS_CODE":0,"TOWNNAME":"永康區","LI":"龍潭里","LIN":"3鄰","STREET":"龍國街","SECT":" ","MAREA":" ","LANE":"３０９巷","ALLEY":"３弄","HOUSE_NO":"１６號","E_COORD97":174666.54999999999,"N_COORD97":2548074.1899999999,"ADDRESS":"龍國街３０９巷３弄１６號","OBJECTID":149232},"geometry":{"x":174666.55000000075,"y":2548074.1900000013}},{"attributes":{"ID":149234,"DIS_CODE":0,"TOWNNAME":"東區","LI":"富強里","LIN":"3鄰","STREET":"中華東路","SECT":"二段","MAREA":" ","LANE":"２２巷","ALLEY":"１４弄","HOUSE_NO":"３４號","E_COORD97":171361.42999999999,"N_COORD97":2543160.27,"ADDRESS":"中華東路二段２２巷１４弄３４號","OBJECTID":149233},"geometry":{"x":171361.43000000156,"y":2543160.2699999996}},{"attributes":{"ID":149235,"DIS_CODE":0,"TOWNNAME":"東區","LI":"富強里","LIN":"3鄰","STREET":"中華東路","SECT":"二段","MAREA":" ","LANE":"２２巷","ALLEY":"１４弄","HOUSE_NO":"３６號","E_COORD97":171357.39000000001,"N_COORD97":2543161.1400000001,"ADDRESS":"中華東路二段２２巷１４弄３６號","OBJECTID":149234},"geometry":{"x":171357.3900000006,"y":2543161.1400000006}},{"attributes":{"ID":149236,"DIS_CODE":0,"TOWNNAME":"東區","LI":"富強里","LIN":"3鄰","STREET":"中華東路","SECT":"二段","MAREA":" ","LANE":"２２巷","ALLEY":"１４弄","HOUSE_NO":"３８號","E_COORD97":171353.67000000001,"N_COORD97":2543161.54,"ADDRESS":"中華東路二段２２巷１４弄３８號","OBJECTID":149235},"geometry":{"x":171353.67000000086,"y":2543161.5399999991}},{"attributes":{"ID":149237,"DIS_CODE":0,"TOWNNAME":"麻豆區","LI":"北勢里","LIN":"5鄰","STREET":" ","SECT":" ","MAREA":"北勢寮","LANE":" ","ALLEY":" ","HOUSE_NO":"７號","E_COORD97":172576.64999999999,"N_COORD97":2567166.2999999998,"ADDRESS":"北勢寮７號","OBJECTID":149236},"geometry":{"x":172576.6500000013,"y":2567166.3000000026}},{"attributes":{"ID":149238,"DIS_CODE":0,"TOWNNAME":"麻豆區","LI":"\u25A0江里","LIN":"19鄰","STREET":"興南路","SECT":" ","MAREA":" ","LANE":" ","ALLEY":" ","HOUSE_NO":"１６１號","E_COORD97":173476.23999999999,"N_COORD97":2564766.8999999999,"ADDRESS":"興南路１６１號","OBJECTID":149237},"geometry":{"x":173476.24000000115,"y":2564766.9000000004}},{"attributes":{"ID":149239,"DIS_CODE":0,"TOWNNAME":"大內區","LI":"曲溪里","LIN":"4鄰","STREET":" ","SECT":" ","MAREA":"二重溪","LANE":" ","ALLEY":" ","HOUSE_NO":"４３號","E_COORD97":187322.09,"N_COORD97":2557581.3100000001,"ADDRESS":"二重溪４３號","OBJECTID":149238},"geometry":{"x":187322.08999999985,"y":2557581.3100000024}},{"attributes":{"ID":149240,"DIS_CODE":0,"TOWNNAME":"大內區","LI":"石城里","LIN":"13鄰","STREET":" ","SECT":" ","MAREA":"石子瀨","LANE":" ","ALLEY":" ","HOUSE_NO":"１１５號之１","E_COORD97":183986.20000000001,"N_COORD97":2558009.2999999998,"ADDRESS":"石子瀨１１５號之１","OBJECTID":149239},"geometry":{"x":183986.20000000112,"y":2558009.3000000026}},{"attributes":{"ID":149241,"DIS_CODE":0,"TOWNNAME":"大內區","LI":"石城里","LIN":"13鄰","STREET":" ","SECT":" ","MAREA":"石子瀨","LANE":" ","ALLEY":" ","HOUSE_NO":"１１４號之２６","E_COORD97":183900.76000000001,"N_COORD97":2557916.2999999998,"ADDRESS":"石子瀨１１４號之２６","OBJECTID":149240},"geometry":{"x":183900.76000000071,"y":2557916.3000000007}},{"attributes":{"ID":149242,"DIS_CODE":0,"TOWNNAME":"大內區","LI":"石城里","LIN":"13鄰","STREET":" ","SECT":" ","MAREA":"石子瀨","LANE":" ","ALLEY":" ","HOUSE_NO":"１１４號之３６","E_COORD97":183966.76000000001,"N_COORD97":2557934.2999999998,"ADDRESS":"石子瀨１１４號之３６","OBJECTID":149241},"geometry":{"x":183966.76000000071,"y":2557934.3000000026}},{"attributes":{"ID":149243,"DIS_CODE":0,"TOWNNAME":"大內區","LI":"石城里","LIN":"13鄰","STREET":" ","SECT":" ","MAREA":"石子瀨","LANE":" ","ALLEY":" ","HOUSE_NO":"１２１號之１","E_COORD97":183862.70000000001,"N_COORD97":2558060.2999999998,"ADDRESS":"石子瀨１２１號之１","OBJECTID":149242},"geometry":{"x":183862.70000000112,"y":2558060.3000000026}},{"attributes":{"ID":149244,"DIS_CODE":0,"TOWNNAME":"南區","LI":"明興里","LIN":"6鄰","STREET":"永仁街","SECT":" ","MAREA":" ","LANE":" ","ALLEY":" ","HOUSE_NO":"３８號","E_COORD97":166986.92999999999,"N_COORD97":2540707.2599999998,"ADDRESS":"永仁街３８號","OBJECTID":149243},"geometry":{"x":166986.93000000063,"y":2540707.2600000016}},{"attributes":{"ID":149245,"DIS_CODE":0,"TOWNNAME":"歸仁區","LI":"許厝里","LIN":"19鄰","STREET":"仁愛北街","SECT":" ","MAREA":" ","LANE":" ","ALLEY":" ","HOUSE_NO":"６６號六樓","E_COORD97":178300.42999999999,"N_COORD97":2540875.25,"ADDRESS":"仁愛北街６６號六樓","OBJECTID":149244},"geometry":{"x":178300.43000000063,"y":2540875.25}},{"attributes":{"ID":149246,"DIS_CODE":0,"TOWNNAME":"南區","LI":"文南里","LIN":"19鄰","STREET":"建南路","SECT":" ","MAREA":" ","LANE":" ","ALLEY":" ","HOUSE_NO":"３０１號二樓之２","E_COORD97":166496.54999999999,"N_COORD97":2542870.9900000002,"ADDRESS":"建南路３０１號二樓之２","OBJECTID":149245},"geometry":{"x":166496.54999999981,"y":2542870.9900000002}},{"attributes":{"ID":149247,"DIS_CODE":0,"TOWNNAME":"南區","LI":"文南里","LIN":"19鄰","STREET":"建南路","SECT":" ","MAREA":" ","LANE":" ","ALLEY":" ","HOUSE_NO":"３０１號七樓之３","E_COORD97":166496.54999999999,"N_COORD97":2542870.9900000002,"ADDRESS":"建南路３０１號七樓之３","OBJECTID":149246},"geometry":{"x":166496.54999999981,"y":2542870.9900000002}},{"attributes":{"ID":149248,"DIS_CODE":0,"TOWNNAME":"東區","LI":"富強里","LIN":"3鄰","STREET":"中華東路","SECT":"二段","MAREA":" ","LANE":"２２巷","ALLEY":"１４弄","HOUSE_NO":"４２號","E_COORD97":171340.57000000001,"N_COORD97":2543157.4500000002,"ADDRESS":"中華東路二段２２巷１４弄４２號","OBJECTID":149247},"geometry":{"x":171340.5700000003,"y":2543157.4500000011}},{"attributes":{"ID":149249,"DIS_CODE":0,"TOWNNAME":"東區","LI":"富強里","LIN":"3鄰","STREET":"中華東路","SECT":"二段","MAREA":" ","LANE":"２２巷","ALLEY":"１４弄","HOUSE_NO":"４號","E_COORD97":171363.54999999999,"N_COORD97":2543128.1600000001,"ADDRESS":"中華東路二段２２巷１４弄４號","OBJECTID":149248},"geometry":{"x":171363.54999999981,"y":2543128.1600000039}},{"attributes":{"ID":149250,"DIS_CODE":0,"TOWNNAME":"東區","LI":"富強里","LIN":"3鄰","STREET":"中華東路","SECT":"二段","MAREA":" ","LANE":"２２巷","ALLEY":"１４弄","HOUSE_NO":"６號","E_COORD97":171362.70999999999,"N_COORD97":2543131.7799999998,"ADDRESS":"中華東路二段２２巷１４弄６號","OBJECTID":149249},"geometry":{"x":171362.70999999996,"y":2543131.7799999993}},{"attributes":{"ID":149251,"DIS_CODE":0,"TOWNNAME":"東區","LI":"富強里","LIN":"3鄰","STREET":"中華東路","SECT":"二段","MAREA":" ","LANE":"２２巷","ALLEY":"１４弄","HOUSE_NO":"８號","E_COORD97":171361.62,"N_COORD97":2543136.71,"ADDRESS":"中華東路二段２２巷１４弄８號","OBJECTID":149250},"geometry":{"x":171361.62000000011,"y":2543136.7100000028}},{"attributes":{"ID":149252,"DIS_CODE":0,"TOWNNAME":"東區","LI":"富強里","LIN":"3鄰","STREET":"中華東路","SECT":"二段","MAREA":" ","LANE":"２２巷","ALLEY":"９弄","HOUSE_NO":"１８號","E_COORD97":171339.85999999999,"N_COORD97":2543041.4500000002,"ADDRESS":"中華東路二段２２巷９弄１８號","OBJECTID":149251},"geometry":{"x":171339.86000000034,"y":2543041.4500000011}},{"attributes":{"ID":149253,"DIS_CODE":0,"TOWNNAME":"東區","LI":"富強里","LIN":"3鄰","STREET":"中華東路","SECT":"二段","MAREA":" ","LANE":"２２巷","ALLEY":"９弄","HOUSE_NO":"２４號","E_COORD97":171351.10999999999,"N_COORD97":2543044.2599999998,"ADDRESS":"中華東路二段２２巷９弄２４號","OBJECTID":149252},"geometry":{"x":171351.11000000127,"y":2543044.2599999998}},{"attributes":{"ID":149254,"DIS_CODE":0,"TOWNNAME":"東區","LI":"富強里","LIN":"3鄰","STREET":"中華東路","SECT":"二段","MAREA":" ","LANE":"２２巷","ALLEY":"９弄","HOUSE_NO":"２８號","E_COORD97":171359.89999999999,"N_COORD97":2543045.4900000002,"ADDRESS":"中華東路二段２２巷９弄２８號","OBJECTID":149253},"geometry":{"x":171359.90000000037,"y":2543045.4900000021}},{"attributes":{"ID":149255,"DIS_CODE":0,"TOWNNAME":"東區","LI":"富強里","LIN":"3鄰","STREET":"中華東路","SECT":"二段","MAREA":" ","LANE":"２２巷","ALLEY":"９弄","HOUSE_NO":"２號","E_COORD97":171339.14000000001,"N_COORD97":2543065.73,"ADDRESS":"中華東路二段２２巷９弄２號","OBJECTID":149254},"geometry":{"x":171339.13999999966,"y":2543065.7300000004}},{"attributes":{"ID":149256,"DIS_CODE":0,"TOWNNAME":"東區","LI":"富強里","LIN":"3鄰","STREET":"中華東路","SECT":"二段","MAREA":" ","LANE":"２２巷","ALLEY":"９弄","HOUSE_NO":"４號","E_COORD97":171334.95999999999,"N_COORD97":2543064.7200000002,"ADDRESS":"中華東路二段２２巷９弄４號","OBJECTID":149255},"geometry":{"x":171334.96000000089,"y":2543064.7200000025}},{"attributes":{"ID":149257,"DIS_CODE":0,"TOWNNAME":"東區","LI":"富強里","LIN":"3鄰","STREET":"中華東路","SECT":"二段","MAREA":" ","LANE":"２２巷","ALLEY":"９弄","HOUSE_NO":"６號","E_COORD97":171330.48999999999,"N_COORD97":2543064.8599999999,"ADDRESS":"中華東路二段２２巷９弄６號","OBJECTID":149256},"geometry":{"x":171330.49000000022,"y":2543064.8599999975}},{"attributes":{"ID":149258,"DIS_CODE":0,"TOWNNAME":"東區","LI":"富強里","LIN":"3鄰","STREET":"中華東路","SECT":"二段","MAREA":" ","LANE":"２２巷","ALLEY":"９弄","HOUSE_NO":"８號","E_COORD97":171327.03,"N_COORD97":2543064.29,"ADDRESS":"中華東路二段２２巷９弄８號","OBJECTID":149257},"geometry":{"x":171327.03000000026,"y":2543064.2899999991}},{"attributes":{"ID":149259,"DIS_CODE":0,"TOWNNAME":"東區","LI":"虎尾里","LIN":"3鄰","STREET":"東門路","SECT":"三段","MAREA":" ","LANE":"１７９巷","ALLEY":"１４７弄","HOUSE_NO":"１１４號","E_COORD97":171806,"N_COORD97":2542173.4100000001,"ADDRESS":"東門路三段１７９巷１４７弄１１４號","OBJECTID":149258},"geometry":{"x":171806.00000000093,"y":2542173.4100000001}},{"attributes":{"ID":149260,"DIS_CODE":0,"TOWNNAME":"東區","LI":"虎尾里","LIN":"3鄰","STREET":"東門路","SECT":"三段","MAREA":" ","LANE":"１７９巷","ALLEY":"１４７弄","HOUSE_NO":"１１６號","E_COORD97":171817.54999999999,"N_COORD97":2542172.6600000001,"ADDRESS":"東門路三段１７９巷１４７弄１１６號","OBJECTID":149259},"geometry":{"x":171817.55000000075,"y":2542172.660000002}},{"attributes":{"ID":149261,"DIS_CODE":0,"TOWNNAME":"南區","LI":"郡南里","LIN":"7鄰","STREET":"永成路","SECT":"三段","MAREA":" ","LANE":"１７７巷","ALLEY":" ","HOUSE_NO":"１６號","E_COORD97":167449.52015299999,"N_COORD97":2540847.59723,"ADDRESS":"永成路三段１７７巷１６號","OBJECTID":149260},"geometry":{"x":167449.52015300002,"y":2540847.5972270034}},{"attributes":{"ID":149262,"DIS_CODE":0,"TOWNNAME":"大內區","LI":"石城里","LIN":"13鄰","STREET":" ","SECT":" ","MAREA":"石子瀨","LANE":" ","ALLEY":" ","HOUSE_NO":"１１７號之２２","E_COORD97":183948.59,"N_COORD97":2557965.2999999998,"ADDRESS":"石子瀨１１７號之２２","OBJECTID":149261},"geometry":{"x":183948.58999999985,"y":2557965.3000000026}},{"attributes":{"ID":149263,"DIS_CODE":0,"TOWNNAME":"大內區","LI":"曲溪里","LIN":"8鄰","STREET":" ","SECT":" ","MAREA":"二重溪","LANE":" ","ALLEY":" ","HOUSE_NO":"６９號之５","E_COORD97":187221.57999999999,"N_COORD97":2557736.3100000001,"ADDRESS":"二重溪６９號之５","OBJECTID":149262},"geometry":{"x":187221.58000000101,"y":2557736.3100000005}},{"attributes":{"ID":149264,"DIS_CODE":0,"TOWNNAME":"大內區","LI":"大內里","LIN":"8鄰","STREET":" ","SECT":" ","MAREA":"內庄","LANE":" ","ALLEY":" ","HOUSE_NO":"９３號","E_COORD97":184694.13,"N_COORD97":2557501.25,"ADDRESS":"內庄９３號","OBJECTID":149263},"geometry":{"x":184694.12999999989,"y":2557501.25}},{"attributes":{"ID":149265,"DIS_CODE":0,"TOWNNAME":"大內區","LI":"石城里","LIN":"13鄰","STREET":" ","SECT":" ","MAREA":"石子瀨","LANE":" ","ALLEY":" ","HOUSE_NO":"１２１號之３","E_COORD97":183856.20000000001,"N_COORD97":2558055.2999999998,"ADDRESS":"石子瀨１２１號之３","OBJECTID":149264},"geometry":{"x":183856.20000000019,"y":2558055.3000000007}},{"attributes":{"ID":149266,"DIS_CODE":0,"TOWNNAME":"大內區","LI":"石林里","LIN":"13鄰","STREET":" ","SECT":" ","MAREA":"石子瀨","LANE":" ","ALLEY":" ","HOUSE_NO":"２４２號","E_COORD97":184020.67000000001,"N_COORD97":2558329.25,"ADDRESS":"石子瀨２４２號","OBJECTID":149265},"geometry":{"x":184020.66999999993,"y":2558329.25}},{"attributes":{"ID":149267,"DIS_CODE":0,"TOWNNAME":"大內區","LI":"石城里","LIN":"13鄰","STREET":" ","SECT":" ","MAREA":"石子瀨","LANE":" ","ALLEY":" ","HOUSE_NO":"１１４號之２１","E_COORD97":183911.95000000001,"N_COORD97":2557899.2999999998,"ADDRESS":"石子瀨１１４號之２１","OBJECTID":149266},"geometry":{"x":183911.95000000112,"y":2557899.3000000007}},{"attributes":{"ID":149268,"DIS_CODE":0,"TOWNNAME":"大內區","LI":"石城里","LIN":"13鄰","STREET":" ","SECT":" ","MAREA":"石子瀨","LANE":" ","ALLEY":" ","HOUSE_NO":"１１７號之８","E_COORD97":183991.04999999999,"N_COORD97":2557982.2999999998,"ADDRESS":"石子瀨１１７號之８","OBJECTID":149267},"geometry":{"x":183991.04999999981,"y":2557982.3000000026}},{"attributes":{"ID":149269,"DIS_CODE":0,"TOWNNAME":"大內區","LI":"石城里","LIN":"13鄰","STREET":" ","SECT":" ","MAREA":"石子瀨","LANE":" ","ALLEY":" ","HOUSE_NO":"１２１號之１６","E_COORD97":183858.45999999999,"N_COORD97":2558020.2999999998,"ADDRESS":"石子瀨１２１號之１６","OBJECTID":149268},"geometry":{"x":183858.46000000183,"y":2558020.3000000007}},{"attributes":{"ID":149270,"DIS_CODE":0,"TOWNNAME":"大內區","LI":"環湖里","LIN":"4鄰","STREET":" ","SECT":" ","MAREA":"環湖","LANE":" ","ALLEY":" ","HOUSE_NO":"４８號之１","E_COORD97":190494.48000000001,"N_COORD97":2560714.2999999998,"ADDRESS":"環湖４８號之１","OBJECTID":149269},"geometry":{"x":190494.48000000138,"y":2560714.3000000026}},{"attributes":{"ID":149271,"DIS_CODE":0,"TOWNNAME":"大內區","LI":"石城里","LIN":"4鄰","STREET":" ","SECT":" ","MAREA":"石子瀨","LANE":" ","ALLEY":" ","HOUSE_NO":"３８號之１","E_COORD97":184269.85000000001,"N_COORD97":2558065.2999999998,"ADDRESS":"石子瀨３８號之１","OBJECTID":149270},"geometry":{"x":184269.85000000056,"y":2558065.3000000007}},{"attributes":{"ID":149272,"DIS_CODE":0,"TOWNNAME":"大內區","LI":"石城里","LIN":"4鄰","STREET":" ","SECT":" ","MAREA":"石子瀨","LANE":" ","ALLEY":" ","HOUSE_NO":"３２之１２號","E_COORD97":184288.26999999999,"N_COORD97":2558086.2999999998,"ADDRESS":"石子瀨３２之１２號","OBJECTID":149271},"geometry":{"x":184288.27000000142,"y":2558086.3000000045}},{"attributes":{"ID":149273,"DIS_CODE":0,"TOWNNAME":"大內區","LI":"環湖里","LIN":"4鄰","STREET":" ","SECT":" ","MAREA":"環湖","LANE":" ","ALLEY":" ","HOUSE_NO":"５１號","E_COORD97":190500.44,"N_COORD97":2560797.25,"ADDRESS":"環湖５１號","OBJECTID":149272},"geometry":{"x":190500.44000000041,"y":2560797.25}},{"attributes":{"ID":149274,"DIS_CODE":0,"TOWNNAME":"大內區","LI":"石城里","LIN":"13鄰","STREET":" ","SECT":" ","MAREA":"石子瀨","LANE":" ","ALLEY":" ","HOUSE_NO":"１１４號之１２","E_COORD97":183943.19,"N_COORD97":2557912.2999999998,"ADDRESS":"石子瀨１１４號之１２","OBJECTID":149273},"geometry":{"x":183943.19000000041,"y":2557912.3000000007}},{"attributes":{"ID":149275,"DIS_CODE":0,"TOWNNAME":"大內區","LI":"環湖里","LIN":"4鄰","STREET":" ","SECT":" ","MAREA":"環湖","LANE":" ","ALLEY":" ","HOUSE_NO":"４９號","E_COORD97":190476.73999999999,"N_COORD97":2560720.25,"ADDRESS":"環湖４９號","OBJECTID":149274},"geometry":{"x":190476.74000000115,"y":2560720.2500000037}},{"attributes":{"ID":149276,"DIS_CODE":0,"TOWNNAME":"大內區","LI":"石城里","LIN":"13鄰","STREET":" ","SECT":" ","MAREA":"石子瀨","LANE":" ","ALLEY":" ","HOUSE_NO":"１１７號之１５","E_COORD97":184003.91,"N_COORD97":2557954.2999999998,"ADDRESS":"石子瀨１１７號之１５","OBJECTID":149275},"geometry":{"x":184003.91000000108,"y":2557954.3000000045}},{"attributes":{"ID":149277,"DIS_CODE":0,"TOWNNAME":"大內區","LI":"石林里","LIN":"4鄰","STREET":" ","SECT":" ","MAREA":"石子瀨","LANE":" ","ALLEY":" ","HOUSE_NO":"１５５號","E_COORD97":184051.57000000001,"N_COORD97":2558124.25,"ADDRESS":"石子瀨１５５號","OBJECTID":149276},"geometry":{"x":184051.57000000123,"y":2558124.2500000019}},{"attributes":{"ID":149278,"DIS_CODE":0,"TOWNNAME":"大內區","LI":"環湖里","LIN":"4鄰","STREET":" ","SECT":" ","MAREA":"環湖","LANE":" ","ALLEY":" ","HOUSE_NO":"４７號","E_COORD97":190485.44,"N_COORD97":2560763.25,"ADDRESS":"環湖４７號","OBJECTID":149277},"geometry":{"x":190485.43999999948,"y":2560763.25}},{"attributes":{"ID":149279,"DIS_CODE":0,"TOWNNAME":"大內區","LI":"環湖里","LIN":"5鄰","STREET":" ","SECT":" ","MAREA":"環湖","LANE":" ","ALLEY":" ","HOUSE_NO":"５７號之８","E_COORD97":190655.01999999999,"N_COORD97":2560452.2999999998,"ADDRESS":"環湖５７號之８","OBJECTID":149278},"geometry":{"x":190655.01999999955,"y":2560452.3000000007}},{"attributes":{"ID":149280,"DIS_CODE":0,"TOWNNAME":"大內區","LI":"石城里","LIN":"13鄰","STREET":" ","SECT":" ","MAREA":"石子瀨","LANE":" ","ALLEY":" ","HOUSE_NO":"１１５號之７","E_COORD97":184002.17999999999,"N_COORD97":2557991.2999999998,"ADDRESS":"石子瀨１１５號之７","OBJECTID":149279},"geometry":{"x":184002.1799999997,"y":2557991.3000000045}},{"attributes":{"ID":149281,"DIS_CODE":0,"TOWNNAME":"大內區","LI":"石城里","LIN":"13鄰","STREET":" ","SECT":" ","MAREA":"石子瀨","LANE":" ","ALLEY":" ","HOUSE_NO":"１１４號之２９","E_COORD97":183891.34,"N_COORD97":2557925.2999999998,"ADDRESS":"石子瀨１１４號之２９","OBJECTID":149280},"geometry":{"x":183891.34000000171,"y":2557925.3000000007}},{"attributes":{"ID":149282,"DIS_CODE":0,"TOWNNAME":"大內區","LI":"石城里","LIN":"13鄰","STREET":" ","SECT":" ","MAREA":"石子瀨","LANE":" ","ALLEY":" ","HOUSE_NO":"１１４號之６２","E_COORD97":183891.39000000001,"N_COORD97":2557932.2999999998,"ADDRESS":"石子瀨１１４號之６２","OBJECTID":149281},"geometry":{"x":183891.3900000006,"y":2557932.3000000007}},{"attributes":{"ID":149283,"DIS_CODE":0,"TOWNNAME":"大內區","LI":"石城里","LIN":"13鄰","STREET":" ","SECT":" ","MAREA":"石子瀨","LANE":" ","ALLEY":" ","HOUSE_NO":"１１７號之２８","E_COORD97":183944.89999999999,"N_COORD97":2557947.2999999998,"ADDRESS":"石子瀨１１７號之２８","OBJECTID":149282},"geometry":{"x":183944.90000000037,"y":2557947.3000000045}},{"attributes":{"ID":149284,"DIS_CODE":0,"TOWNNAME":"大內區","LI":"環湖里","LIN":"4鄰","STREET":" ","SECT":" ","MAREA":"環湖","LANE":" ","ALLEY":" ","HOUSE_NO":"５２號","E_COORD97":190483.14000000001,"N_COORD97":2560792.25,"ADDRESS":"環湖５２號","OBJECTID":149283},"geometry":{"x":190483.13999999966,"y":2560792.2500000019}},{"attributes":{"ID":149285,"DIS_CODE":0,"TOWNNAME":"大內區","LI":"石城里","LIN":"13鄰","STREET":" ","SECT":" ","MAREA":"石子瀨","LANE":" ","ALLEY":" ","HOUSE_NO":"１１７號之２６","E_COORD97":183970.06,"N_COORD97":2557983.2999999998,"ADDRESS":"石子瀨１１７號之２６","OBJECTID":149284},"geometry":{"x":183970.06000000052,"y":2557983.3000000007}},{"attributes":{"ID":149286,"DIS_CODE":0,"TOWNNAME":"大內區","LI":"頭社里","LIN":"13鄰","STREET":" ","SECT":" ","MAREA":"頭社","LANE":" ","ALLEY":" ","HOUSE_NO":"１６８號","E_COORD97":187355.19,"N_COORD97":2561423.25,"ADDRESS":"頭社１６８號","OBJECTID":149285},"geometry":{"x":187355.19000000134,"y":2561423.2500000019}},{"attributes":{"ID":149287,"DIS_CODE":0,"TOWNNAME":"大內區","LI":"石城里","LIN":"13鄰","STREET":" ","SECT":" ","MAREA":"石子瀨","LANE":" ","ALLEY":" ","HOUSE_NO":"１１７號之２７","E_COORD97":183948.13,"N_COORD97":2557943.2999999998,"ADDRESS":"石子瀨１１７號之２７","OBJECTID":149286},"geometry":{"x":183948.12999999989,"y":2557943.3000000007}},{"attributes":{"ID":149288,"DIS_CODE":0,"TOWNNAME":"大內區","LI":"石湖里","LIN":"4鄰","STREET":" ","SECT":" ","MAREA":"石子瀨","LANE":" ","ALLEY":" ","HOUSE_NO":"２６４號之１","E_COORD97":184129.20000000001,"N_COORD97":2558431.2999999998,"ADDRESS":"石子瀨２６４號之１","OBJECTID":149287},"geometry":{"x":184129.20000000019,"y":2558431.3000000007}},{"attributes":{"ID":149289,"DIS_CODE":0,"TOWNNAME":"大內區","LI":"石城里","LIN":"13鄰","STREET":" ","SECT":" ","MAREA":"石子瀨","LANE":" ","ALLEY":" ","HOUSE_NO":"１１７號之２９","E_COORD97":183940.94,"N_COORD97":2557952.2999999998,"ADDRESS":"石子瀨１１７號之２９","OBJECTID":149288},"geometry":{"x":183940.94000000134,"y":2557952.3000000026}},{"attributes":{"ID":149290,"DIS_CODE":0,"TOWNNAME":"大內區","LI":"環湖里","LIN":"5鄰","STREET":" ","SECT":" ","MAREA":"環湖","LANE":" ","ALLEY":" ","HOUSE_NO":"５９號之２","E_COORD97":190557.70999999999,"N_COORD97":2560604.2999999998,"ADDRESS":"環湖５９號之２","OBJECTID":149289},"geometry":{"x":190557.70999999903,"y":2560604.3000000007}},{"attributes":{"ID":149291,"DIS_CODE":0,"TOWNNAME":"大內區","LI":"環湖里","LIN":"5鄰","STREET":" ","SECT":" ","MAREA":"環湖","LANE":" ","ALLEY":" ","HOUSE_NO":"６１號","E_COORD97":190502.44,"N_COORD97":2560540.25,"ADDRESS":"環湖６１號","OBJECTID":149290},"geometry":{"x":190502.44000000227,"y":2560540.2499999981}},{"attributes":{"ID":149292,"DIS_CODE":0,"TOWNNAME":"大內區","LI":"石城里","LIN":"13鄰","STREET":" ","SECT":" ","MAREA":"石子瀨","LANE":" ","ALLEY":" ","HOUSE_NO":"１１４號之１４","E_COORD97":183938.48000000001,"N_COORD97":2557918.2999999998,"ADDRESS":"石子瀨１１４號之１４","OBJECTID":149291},"geometry":{"x":183938.48000000231,"y":2557918.3000000026}},{"attributes":{"ID":149293,"DIS_CODE":0,"TOWNNAME":"大內區","LI":"曲溪里","LIN":"4鄰","STREET":" ","SECT":" ","MAREA":"二重溪","LANE":" ","ALLEY":" ","HOUSE_NO":"３９號","E_COORD97":187353.98999999999,"N_COORD97":2557570.3100000001,"ADDRESS":"二重溪３９號","OBJECTID":149292},"geometry":{"x":187353.99000000209,"y":2557570.3100000005}},{"attributes":{"ID":149294,"DIS_CODE":0,"TOWNNAME":"大內區","LI":"環湖里","LIN":"4鄰","STREET":" ","SECT":" ","MAREA":"環湖","LANE":" ","ALLEY":" ","HOUSE_NO":"５３號","E_COORD97":190465.54000000001,"N_COORD97":2560775.25,"ADDRESS":"環湖５３號","OBJECTID":149293},"geometry":{"x":190465.54000000004,"y":2560775.2500000019}},{"attributes":{"ID":149295,"DIS_CODE":0,"TOWNNAME":"大內區","LI":"石城里","LIN":"13鄰","STREET":" ","SECT":" ","MAREA":"石子瀨","LANE":" ","ALLEY":" ","HOUSE_NO":"１１５號之６","E_COORD97":183999.91,"N_COORD97":2557994.2999999998,"ADDRESS":"石子瀨１１５號之６","OBJECTID":149294},"geometry":{"x":183999.91000000108,"y":2557994.3000000007}},{"attributes":{"ID":149296,"DIS_CODE":0,"TOWNNAME":"大內區","LI":"石湖里","LIN":"15鄰","STREET":" ","SECT":" ","MAREA":"新厝子","LANE":" ","ALLEY":" ","HOUSE_NO":"２０號","E_COORD97":184359.62,"N_COORD97":2561637.25,"ADDRESS":"新厝子２０號","OBJECTID":149295},"geometry":{"x":184359.62000000104,"y":2561637.2500000019}},{"attributes":{"ID":149297,"DIS_CODE":0,"TOWNNAME":"大內區","LI":"環湖里","LIN":"4鄰","STREET":" ","SECT":" ","MAREA":"環湖","LANE":" ","ALLEY":" ","HOUSE_NO":"４６號","E_COORD97":190521.54000000001,"N_COORD97":2560723.25,"ADDRESS":"環湖４６號","OBJECTID":149296},"geometry":{"x":190521.54000000004,"y":2560723.25}},{"attributes":{"ID":149298,"DIS_CODE":0,"TOWNNAME":"大內區","LI":"環湖里","LIN":"4鄰","STREET":" ","SECT":" ","MAREA":"環湖","LANE":" ","ALLEY":" ","HOUSE_NO":"４８號","E_COORD97":190505.94,"N_COORD97":2560726.25,"ADDRESS":"環湖４８號","OBJECTID":149297},"geometry":{"x":190505.94000000227,"y":2560726.25}},{"attributes":{"ID":149299,"DIS_CODE":0,"TOWNNAME":"大內區","LI":"石城里","LIN":"13鄰","STREET":" ","SECT":" ","MAREA":"石子瀨","LANE":" ","ALLEY":" ","HOUSE_NO":"１１４號之３５","E_COORD97":183970.01000000001,"N_COORD97":2557930.2999999998,"ADDRESS":"石子瀨１１４號之３５","OBJECTID":149298},"geometry":{"x":183970.01000000071,"y":2557930.3000000045}},{"attributes":{"ID":149300,"DIS_CODE":0,"TOWNNAME":"大內區","LI":"環湖里","LIN":"4鄰","STREET":" ","SECT":" ","MAREA":"環湖","LANE":" ","ALLEY":" ","HOUSE_NO":"４６號之１","E_COORD97":190513.28,"N_COORD97":2560777.2999999998,"ADDRESS":"環湖４６號之１","OBJECTID":149299},"geometry":{"x":190513.28000000026,"y":2560777.3000000007}},{"attributes":{"ID":149301,"DIS_CODE":0,"TOWNNAME":"大內區","LI":"石城里","LIN":"13鄰","STREET":" ","SECT":" ","MAREA":"石子瀨","LANE":" ","ALLEY":" ","HOUSE_NO":"１１７號之２３","E_COORD97":183945.85000000001,"N_COORD97":2557968.2999999998,"ADDRESS":"石子瀨１１７號之２３","OBJECTID":149300},"geometry":{"x":183945.85000000056,"y":2557968.3000000026}},{"attributes":{"ID":149302,"DIS_CODE":0,"TOWNNAME":"大內區","LI":"石城里","LIN":"13鄰","STREET":" ","SECT":" ","MAREA":"石子瀨","LANE":" ","ALLEY":" ","HOUSE_NO":"１２１號之６","E_COORD97":183847.10999999999,"N_COORD97":2558048.2999999998,"ADDRESS":"石子瀨１２１號之６","OBJECTID":149301},"geometry":{"x":183847.11000000034,"y":2558048.3000000007}},{"attributes":{"ID":149303,"DIS_CODE":0,"TOWNNAME":"大內區","LI":"石湖里","LIN":"4鄰","STREET":" ","SECT":" ","MAREA":"石子瀨","LANE":" ","ALLEY":" ","HOUSE_NO":"２６５號","E_COORD97":184124.37,"N_COORD97":2558455.25,"ADDRESS":"石子瀨２６５號","OBJECTID":149302},"geometry":{"x":184124.37000000104,"y":2558455.2499999981}},{"attributes":{"ID":149304,"DIS_CODE":0,"TOWNNAME":"大內區","LI":"環湖里","LIN":"4鄰","STREET":" ","SECT":" ","MAREA":"環湖","LANE":" ","ALLEY":" ","HOUSE_NO":"５０號之１","E_COORD97":190451.48000000001,"N_COORD97":2560721.2999999998,"ADDRESS":"環湖５０號之１","OBJECTID":149303},"geometry":{"x":190451.48000000231,"y":2560721.3000000026}},{"attributes":{"ID":149305,"DIS_CODE":0,"TOWNNAME":"大內區","LI":"環湖里","LIN":"5鄰","STREET":" ","SECT":" ","MAREA":"環湖","LANE":" ","ALLEY":" ","HOUSE_NO":"６５號之１","E_COORD97":190487.28,"N_COORD97":2560590.2999999998,"ADDRESS":"環湖６５號之１","OBJECTID":149304},"geometry":{"x":190487.28000000119,"y":2560590.3000000007}},{"attributes":{"ID":149306,"DIS_CODE":0,"TOWNNAME":"大內區","LI":"石湖里","LIN":"17鄰","STREET":" ","SECT":" ","MAREA":"新厝子","LANE":" ","ALLEY":" ","HOUSE_NO":"３９號","E_COORD97":184111.32000000001,"N_COORD97":2560713.25,"ADDRESS":"新厝子３９號","OBJECTID":149305},"geometry":{"x":184111.32000000123,"y":2560713.2500000037}},{"attributes":{"ID":149307,"DIS_CODE":0,"TOWNNAME":"大內區","LI":"環湖里","LIN":" ","STREET":" ","SECT":" ","MAREA":"環湖","LANE":" ","ALLEY":" ","HOUSE_NO":"２之１號","E_COORD97":190720.19,"N_COORD97":2559933.2999999998,"ADDRESS":"環湖２之１號","OBJECTID":149306},"geometry":{"x":190720.19000000134,"y":2559933.3000000007}},{"attributes":{"ID":149308,"DIS_CODE":0,"TOWNNAME":"大內區","LI":"石城里","LIN":"13鄰","STREET":" ","SECT":" ","MAREA":"石子瀨","LANE":" ","ALLEY":" ","HOUSE_NO":"１１４號之３３","E_COORD97":183987.25,"N_COORD97":2557940.2999999998,"ADDRESS":"石子瀨１１４號之３３","OBJECTID":149307},"geometry":{"x":183987.25000000093,"y":2557940.2999999989}},{"attributes":{"ID":149309,"DIS_CODE":0,"TOWNNAME":"大內區","LI":"石城里","LIN":"4鄰","STREET":" ","SECT":" ","MAREA":"石子瀨","LANE":" ","ALLEY":" ","HOUSE_NO":"４０號","E_COORD97":184227.51999999999,"N_COORD97":2558075.25,"ADDRESS":"石子瀨４０號","OBJECTID":149308},"geometry":{"x":184227.52000000048,"y":2558075.25}},{"attributes":{"ID":149310,"DIS_CODE":0,"TOWNNAME":"大內區","LI":"頭社里","LIN":"4鄰","STREET":" ","SECT":" ","MAREA":"頭社","LANE":" ","ALLEY":" ","HOUSE_NO":"５７號","E_COORD97":187152.54000000001,"N_COORD97":2560249.25,"ADDRESS":"頭社５７號","OBJECTID":149309},"geometry":{"x":187152.54000000097,"y":2560249.2500000019}},{"attributes":{"ID":149311,"DIS_CODE":0,"TOWNNAME":"大內區","LI":"頭社里","LIN":"4鄰","STREET":" ","SECT":" ","MAREA":"頭社","LANE":" ","ALLEY":" ","HOUSE_NO":"４６之８號","E_COORD97":187309.84,"N_COORD97":2560017.2999999998,"ADDRESS":"頭社４６之８號","OBJECTID":149310},"geometry":{"x":187309.83999999985,"y":2560017.3000000007}},{"attributes":{"ID":149312,"DIS_CODE":0,"TOWNNAME":"大內區","LI":"石城里","LIN":"14鄰","STREET":" ","SECT":" ","MAREA":"石子瀨","LANE":" ","ALLEY":" ","HOUSE_NO":"１１２號之３４","E_COORD97":184036.57999999999,"N_COORD97":2557909.2999999998,"ADDRESS":"石子瀨１１２號之３４","OBJECTID":149311},"geometry":{"x":184036.58000000101,"y":2557909.3000000007}},{"attributes":{"ID":149313,"DIS_CODE":0,"TOWNNAME":"大內區","LI":"石城里","LIN":"4鄰","STREET":" ","SECT":" ","MAREA":"石子瀨","LANE":" ","ALLEY":" ","HOUSE_NO":"４２號","E_COORD97":184201.51999999999,"N_COORD97":2558064.25,"ADDRESS":"石子瀨４２號","OBJECTID":149312},"geometry":{"x":184201.51999999955,"y":2558064.25}},{"attributes":{"ID":149314,"DIS_CODE":0,"TOWNNAME":"大內區","LI":"頭社里","LIN":"4鄰","STREET":" ","SECT":" ","MAREA":"頭社","LANE":" ","ALLEY":" ","HOUSE_NO":"４６之３號","E_COORD97":187437.54000000001,"N_COORD97":2560142.2999999998,"ADDRESS":"頭社４６之３號","OBJECTID":149313},"geometry":{"x":187437.54000000004,"y":2560142.3000000026}},{"attributes":{"ID":149315,"DIS_CODE":0,"TOWNNAME":"大內區","LI":"石林里","LIN":"4鄰","STREET":" ","SECT":" ","MAREA":"石子瀨","LANE":" ","ALLEY":" ","HOUSE_NO":"１５７號","E_COORD97":184024.57000000001,"N_COORD97":2558116.25,"ADDRESS":"石子瀨１５７號","OBJECTID":149314},"geometry":{"x":184024.57000000123,"y":2558116.2500000037}},{"attributes":{"ID":149316,"DIS_CODE":0,"TOWNNAME":"大內區","LI":"石林里","LIN":"5鄰","STREET":" ","SECT":" ","MAREA":"石子瀨","LANE":" ","ALLEY":" ","HOUSE_NO":"１７０號之１","E_COORD97":183980.89999999999,"N_COORD97":2558128.2999999998,"ADDRESS":"石子瀨１７０號之１","OBJECTID":149315},"geometry":{"x":183980.90000000037,"y":2558128.3000000026}},{"attributes":{"ID":149317,"DIS_CODE":0,"TOWNNAME":"大內區","LI":"頭社里","LIN":"13鄰","STREET":" ","SECT":" ","MAREA":"頭社","LANE":" ","ALLEY":" ","HOUSE_NO":"１７３號","E_COORD97":187312.09,"N_COORD97":2561598.25,"ADDRESS":"頭社１７３號","OBJECTID":149316},"geometry":{"x":187312.08999999985,"y":2561598.2500000037}},{"attributes":{"ID":149318,"DIS_CODE":0,"TOWNNAME":"大內區","LI":"頭社里","LIN":"13鄰","STREET":" ","SECT":" ","MAREA":"頭社","LANE":" ","ALLEY":" ","HOUSE_NO":"１７４號之１","E_COORD97":187175.82999999999,"N_COORD97":2561637.2999999998,"ADDRESS":"頭社１７４號之１","OBJECTID":149317},"geometry":{"x":187175.83000000101,"y":2561637.3000000026}},{"attributes":{"ID":149319,"DIS_CODE":0,"TOWNNAME":"大內區","LI":"石林里","LIN":"14鄰","STREET":" ","SECT":" ","MAREA":"石子瀨","LANE":" ","ALLEY":" ","HOUSE_NO":"２１９號","E_COORD97":184094.87,"N_COORD97":2558247.25,"ADDRESS":"石子瀨２１９號","OBJECTID":149318},"geometry":{"x":184094.87000000197,"y":2558247.25}},{"attributes":{"ID":149320,"DIS_CODE":0,"TOWNNAME":"大內區","LI":"石林里","LIN":"4鄰","STREET":" ","SECT":" ","MAREA":"石子瀨","LANE":" ","ALLEY":" ","HOUSE_NO":"１５４號之２","E_COORD97":184102.73999999999,"N_COORD97":2558127.2999999998,"ADDRESS":"石子瀨１５４號之２","OBJECTID":149319},"geometry":{"x":184102.74000000209,"y":2558127.3000000026}},{"attributes":{"ID":149321,"DIS_CODE":0,"TOWNNAME":"大內區","LI":"石林里","LIN":"4鄰","STREET":" ","SECT":" ","MAREA":"石子瀨","LANE":" ","ALLEY":" ","HOUSE_NO":"１６５號","E_COORD97":184018.37,"N_COORD97":2558139.25,"ADDRESS":"石子瀨１６５號","OBJECTID":149320},"geometry":{"x":184018.37000000011,"y":2558139.25}},{"attributes":{"ID":149322,"DIS_CODE":0,"TOWNNAME":"大內區","LI":"頭社里","LIN":"4鄰","STREET":" ","SECT":" ","MAREA":"頭社","LANE":" ","ALLEY":" ","HOUSE_NO":"４６之１０號","E_COORD97":187149.89000000001,"N_COORD97":2560049.2999999998,"ADDRESS":"頭社４６之１０號","OBJECTID":149321},"geometry":{"x":187149.88999999966,"y":2560049.3000000045}},{"attributes":{"ID":149323,"DIS_CODE":0,"TOWNNAME":"大內區","LI":"頭社里","LIN":"14鄰","STREET":" ","SECT":" ","MAREA":"頭社","LANE":" ","ALLEY":" ","HOUSE_NO":"１８１號之２","E_COORD97":187686.35999999999,"N_COORD97":2561713.2999999998,"ADDRESS":"頭社１８１號之２","OBJECTID":149322},"geometry":{"x":187686.36000000127,"y":2561713.3000000007}},{"attributes":{"ID":149324,"DIS_CODE":0,"TOWNNAME":"大內區","LI":"石城里","LIN":"14鄰","STREET":" ","SECT":" ","MAREA":"石子瀨","LANE":" ","ALLEY":" ","HOUSE_NO":"１１２號之５","E_COORD97":183999.85999999999,"N_COORD97":2557843.2999999998,"ADDRESS":"石子瀨１１２號之５","OBJECTID":149323},"geometry":{"x":183999.86000000034,"y":2557843.3000000026}},{"attributes":{"ID":149325,"DIS_CODE":0,"TOWNNAME":"大內區","LI":"石林里","LIN":"4鄰","STREET":" ","SECT":" ","MAREA":"石子瀨","LANE":" ","ALLEY":" ","HOUSE_NO":"１６２號","E_COORD97":184003.07000000001,"N_COORD97":2558107.25,"ADDRESS":"石子瀨１６２號","OBJECTID":149324},"geometry":{"x":184003.0700000003,"y":2558107.2500000019}},{"attributes":{"ID":149326,"DIS_CODE":0,"TOWNNAME":"大內區","LI":"石林里","LIN":"4鄰","STREET":" ","SECT":" ","MAREA":"石子瀨","LANE":" ","ALLEY":" ","HOUSE_NO":"１５４號之７","E_COORD97":184112.38,"N_COORD97":2558119.2999999998,"ADDRESS":"石子瀨１５４號之７","OBJECTID":149325},"geometry":{"x":184112.37999999989,"y":2558119.3000000007}},{"attributes":{"ID":149327,"DIS_CODE":0,"TOWNNAME":"大內區","LI":"石湖里","LIN":"4鄰","STREET":" ","SECT":" ","MAREA":"石子瀨","LANE":" ","ALLEY":" ","HOUSE_NO":"２６５號之１","E_COORD97":184161.60000000001,"N_COORD97":2558480.2999999998,"ADDRESS":"石子瀨２６５號之１","OBJECTID":149326},"geometry":{"x":184161.59999999963,"y":2558480.3000000026}},{"attributes":{"ID":149328,"DIS_CODE":0,"TOWNNAME":"大內區","LI":"曲溪里","LIN":"5鄰","STREET":" ","SECT":" ","MAREA":"二重溪","LANE":" ","ALLEY":" ","HOUSE_NO":"４９之２３號","E_COORD97":187389.04000000001,"N_COORD97":2557151.3100000001,"ADDRESS":"二重溪４９之２３號","OBJECTID":149327},"geometry":{"x":187389.0400000019,"y":2557151.3100000024}},{"attributes":{"ID":149329,"DIS_CODE":0,"TOWNNAME":"大內區","LI":"頭社里","LIN":"18鄰","STREET":" ","SECT":" ","MAREA":"頭社","LANE":" ","ALLEY":" ","HOUSE_NO":"２２７號之１","E_COORD97":187687.03,"N_COORD97":2559535.2999999998,"ADDRESS":"頭社２２７號之１","OBJECTID":149328},"geometry":{"x":187687.03000000026,"y":2559535.3000000026}},{"attributes":{"ID":149330,"DIS_CODE":0,"TOWNNAME":"大內區","LI":"頭社里","LIN":"13鄰","STREET":" ","SECT":" ","MAREA":"頭社","LANE":" ","ALLEY":" ","HOUSE_NO":"１７６號","E_COORD97":187476.98999999999,"N_COORD97":2561669.25,"ADDRESS":"頭社１７６號","OBJECTID":149329},"geometry":{"x":187476.99000000022,"y":2561669.2499999981}},{"attributes":{"ID":149331,"DIS_CODE":0,"TOWNNAME":"大內區","LI":"石林里","LIN":"14鄰","STREET":" ","SECT":" ","MAREA":"石子瀨","LANE":" ","ALLEY":" ","HOUSE_NO":"２２１號之３","E_COORD97":184127.89999999999,"N_COORD97":2558364.2999999998,"ADDRESS":"石子瀨２２１號之３","OBJECTID":149330},"geometry":{"x":184127.9000000013,"y":2558364.3000000045}},{"attributes":{"ID":149332,"DIS_CODE":0,"TOWNNAME":"大內區","LI":"頭社里","LIN":"8鄰","STREET":" ","SECT":" ","MAREA":"頭社","LANE":" ","ALLEY":" ","HOUSE_NO":"１０１號","E_COORD97":186606.19,"N_COORD97":2561130.25,"ADDRESS":"頭社１０１號","OBJECTID":149331},"geometry":{"x":186606.19000000041,"y":2561130.2499999981}},{"attributes":{"ID":149333,"DIS_CODE":0,"TOWNNAME":"大內區","LI":"頭社里","LIN":"4鄰","STREET":" ","SECT":" ","MAREA":"頭社","LANE":" ","ALLEY":" ","HOUSE_NO":"５８號","E_COORD97":187157.34,"N_COORD97":2560266.25,"ADDRESS":"頭社５８號","OBJECTID":149332},"geometry":{"x":187157.33999999985,"y":2560266.2500000019}},{"attributes":{"ID":149334,"DIS_CODE":0,"TOWNNAME":"大內區","LI":"頭社里","LIN":"4鄰","STREET":" ","SECT":" ","MAREA":"頭社","LANE":" ","ALLEY":" ","HOUSE_NO":"４６之５號","E_COORD97":187462.14000000001,"N_COORD97":2560132.2999999998,"ADDRESS":"頭社４６之５號","OBJECTID":149333},"geometry":{"x":187462.13999999966,"y":2560132.3000000026}},{"attributes":{"ID":149335,"DIS_CODE":0,"TOWNNAME":"大內區","LI":"石湖里","LIN":"4鄰","STREET":" ","SECT":" ","MAREA":"石子瀨","LANE":" ","ALLEY":" ","HOUSE_NO":"２６１號","E_COORD97":184074.47,"N_COORD97":2558410.25,"ADDRESS":"石子瀨２６１號","OBJECTID":149334},"geometry":{"x":184074.46999999974,"y":2558410.25}},{"attributes":{"ID":149336,"DIS_CODE":0,"TOWNNAME":"大內區","LI":"頭社里","LIN":"5鄰","STREET":" ","SECT":" ","MAREA":"頭社","LANE":" ","ALLEY":" ","HOUSE_NO":"６８號","E_COORD97":187222.34,"N_COORD97":2560326.25,"ADDRESS":"頭社６８號","OBJECTID":149335},"geometry":{"x":187222.34000000171,"y":2560326.25}},{"attributes":{"ID":149337,"DIS_CODE":0,"TOWNNAME":"大內區","LI":"石林里","LIN":"5鄰","STREET":" ","SECT":" ","MAREA":"石子瀨","LANE":" ","ALLEY":" ","HOUSE_NO":"１６８號之３","E_COORD97":184025.20000000001,"N_COORD97":2558177.2999999998,"ADDRESS":"石子瀨１６８號之３","OBJECTID":149336},"geometry":{"x":184025.20000000112,"y":2558177.3000000007}},{"attributes":{"ID":149338,"DIS_CODE":0,"TOWNNAME":"大內區","LI":"石城里","LIN":"13鄰","STREET":" ","SECT":" ","MAREA":"石子瀨","LANE":" ","ALLEY":" ","HOUSE_NO":"１２１號之１８","E_COORD97":183887.20000000001,"N_COORD97":2558026.2999999998,"ADDRESS":"石子瀨１２１號之１８","OBJECTID":149337},"geometry":{"x":183887.20000000019,"y":2558026.3000000026}},{"attributes":{"ID":149339,"DIS_CODE":0,"TOWNNAME":"大內區","LI":"頭社里","LIN":"1鄰","STREET":" ","SECT":" ","MAREA":"頭社","LANE":" ","ALLEY":" ","HOUSE_NO":"９號之１３","E_COORD97":187049.07000000001,"N_COORD97":2560291.2999999998,"ADDRESS":"頭社９號之１３","OBJECTID":149338},"geometry":{"x":187049.07000000123,"y":2560291.3000000026}},{"attributes":{"ID":149340,"DIS_CODE":0,"TOWNNAME":"大內區","LI":"石城里","LIN":"4鄰","STREET":" ","SECT":" ","MAREA":"石子瀨","LANE":" ","ALLEY":" ","HOUSE_NO":"３３之１號","E_COORD97":184245.51999999999,"N_COORD97":2557995.2999999998,"ADDRESS":"石子瀨３３之１號","OBJECTID":149339},"geometry":{"x":184245.51999999955,"y":2557995.3000000026}},{"attributes":{"ID":149341,"DIS_CODE":0,"TOWNNAME":"大內區","LI":"環湖里","LIN":"4鄰","STREET":" ","SECT":" ","MAREA":"環湖","LANE":" ","ALLEY":" ","HOUSE_NO":"５３之１號","E_COORD97":190472.94,"N_COORD97":2560776.2999999998,"ADDRESS":"環湖５３之１號","OBJECTID":149340},"geometry":{"x":190472.94000000041,"y":2560776.3000000026}},{"attributes":{"ID":149342,"DIS_CODE":0,"TOWNNAME":"大內區","LI":"石湖里","LIN":"4鄰","STREET":" ","SECT":" ","MAREA":"石子瀨","LANE":" ","ALLEY":" ","HOUSE_NO":"２６５號之２","E_COORD97":184136.34,"N_COORD97":2558488.2999999998,"ADDRESS":"石子瀨２６５號之２","OBJECTID":149341},"geometry":{"x":184136.33999999985,"y":2558488.3000000007}},{"attributes":{"ID":149343,"DIS_CODE":0,"TOWNNAME":"大內區","LI":"頭社里","LIN":"4鄰","STREET":" ","SECT":" ","MAREA":"頭社","LANE":" ","ALLEY":" ","HOUSE_NO":"４６號","E_COORD97":187083.64000000001,"N_COORD97":2560048.25,"ADDRESS":"頭社４６號","OBJECTID":149342},"geometry":{"x":187083.6400000006,"y":2560048.25}},{"attributes":{"ID":149344,"DIS_CODE":0,"TOWNNAME":"大內區","LI":"石城里","LIN":"14鄰","STREET":" ","SECT":" ","MAREA":"石子瀨","LANE":" ","ALLEY":" ","HOUSE_NO":"１１２號之５０","E_COORD97":184077.20000000001,"N_COORD97":2557919.2999999998,"ADDRESS":"石子瀨１１２號之５０","OBJECTID":149343},"geometry":{"x":184077.20000000019,"y":2557919.3000000007}},{"attributes":{"ID":149345,"DIS_CODE":0,"TOWNNAME":"大內區","LI":"石湖里","LIN":"17鄰","STREET":" ","SECT":" ","MAREA":"新厝子","LANE":" ","ALLEY":" ","HOUSE_NO":"６５號","E_COORD97":183454.82000000001,"N_COORD97":2560962.25,"ADDRESS":"新厝子６５號","OBJECTID":149344},"geometry":{"x":183454.82000000123,"y":2560962.2500000019}},{"attributes":{"ID":149346,"DIS_CODE":0,"TOWNNAME":"大內區","LI":"石湖里","LIN":"17鄰","STREET":" ","SECT":" ","MAREA":"新厝子","LANE":" ","ALLEY":" ","HOUSE_NO":"８０號","E_COORD97":183526.01999999999,"N_COORD97":2561058.25,"ADDRESS":"新厝子８０號","OBJECTID":149345},"geometry":{"x":183526.02000000048,"y":2561058.25}},{"attributes":{"ID":149347,"DIS_CODE":0,"TOWNNAME":"大內區","LI":"頭社里","LIN":"4鄰","STREET":" ","SECT":" ","MAREA":"頭社","LANE":" ","ALLEY":" ","HOUSE_NO":"４６號之１","E_COORD97":187267.17999999999,"N_COORD97":2560063.2999999998,"ADDRESS":"頭社４６號之１","OBJECTID":149346},"geometry":{"x":187267.1799999997,"y":2560063.3000000026}},{"attributes":{"ID":149348,"DIS_CODE":0,"TOWNNAME":"大內區","LI":"石林里","LIN":"4鄰","STREET":" ","SECT":" ","MAREA":"石子瀨","LANE":" ","ALLEY":" ","HOUSE_NO":"１５４號之５","E_COORD97":184098.95999999999,"N_COORD97":2558129.2999999998,"ADDRESS":"石子瀨１５４號之５","OBJECTID":149347},"geometry":{"x":184098.95999999996,"y":2558129.3000000007}},{"attributes":{"ID":149349,"DIS_CODE":0,"TOWNNAME":"大內區","LI":"頭社里","LIN":"4鄰","STREET":" ","SECT":" ","MAREA":"頭社","LANE":" ","ALLEY":" ","HOUSE_NO":"４６之２號","E_COORD97":187421.14000000001,"N_COORD97":2560131.2999999998,"ADDRESS":"頭社４６之２號","OBJECTID":149348},"geometry":{"x":187421.13999999966,"y":2560131.3000000026}},{"attributes":{"ID":149350,"DIS_CODE":0,"TOWNNAME":"大內區","LI":"頭社里","LIN":"4鄰","STREET":" ","SECT":" ","MAREA":"頭社","LANE":" ","ALLEY":" ","HOUSE_NO":"５０號","E_COORD97":187075.44,"N_COORD97":2560262.25,"ADDRESS":"頭社５０號","OBJECTID":149349},"geometry":{"x":187075.44000000134,"y":2560262.2499999981}},{"attributes":{"ID":149351,"DIS_CODE":0,"TOWNNAME":"大內區","LI":"頭社里","LIN":"13鄰","STREET":" ","SECT":" ","MAREA":"頭社","LANE":" ","ALLEY":" ","HOUSE_NO":"１７５號","E_COORD97":187318.69,"N_COORD97":2561698.25,"ADDRESS":"頭社１７５號","OBJECTID":149350},"geometry":{"x":187318.69000000041,"y":2561698.2500000019}},{"attributes":{"ID":149352,"DIS_CODE":0,"TOWNNAME":"大內區","LI":"頭社里","LIN":"13鄰","STREET":" ","SECT":" ","MAREA":"頭社","LANE":" ","ALLEY":" ","HOUSE_NO":"１７７號之１","E_COORD97":187474.13,"N_COORD97":2561689.2999999998,"ADDRESS":"頭社１７７號之１","OBJECTID":149351},"geometry":{"x":187474.12999999989,"y":2561689.3000000007}},{"attributes":{"ID":149353,"DIS_CODE":0,"TOWNNAME":"大內區","LI":"石林里","LIN":"14鄰","STREET":" ","SECT":" ","MAREA":"石子瀨","LANE":" ","ALLEY":" ","HOUSE_NO":"２２０號","E_COORD97":184086.47,"N_COORD97":2558294.25,"ADDRESS":"石子瀨２２０號","OBJECTID":149352},"geometry":{"x":184086.46999999974,"y":2558294.2500000019}},{"attributes":{"ID":149354,"DIS_CODE":0,"TOWNNAME":"大內區","LI":"石城里","LIN":"8鄰","STREET":" ","SECT":" ","MAREA":"石子瀨","LANE":" ","ALLEY":" ","HOUSE_NO":"７２號之１","E_COORD97":184205.64999999999,"N_COORD97":2557877.2999999998,"ADDRESS":"石子瀨７２號之１","OBJECTID":149353},"geometry":{"x":184205.6500000013,"y":2557877.3000000026}},{"attributes":{"ID":149355,"DIS_CODE":0,"TOWNNAME":"大內區","LI":"曲溪里","LIN":"4鄰","STREET":" ","SECT":" ","MAREA":"二重溪","LANE":" ","ALLEY":" ","HOUSE_NO":"４１號","E_COORD97":187342.59,"N_COORD97":2557588.3100000001,"ADDRESS":"二重溪４１號","OBJECTID":149354},"geometry":{"x":187342.58999999985,"y":2557588.3100000024}},{"attributes":{"ID":149356,"DIS_CODE":0,"TOWNNAME":"大內區","LI":"石林里","LIN":"4鄰","STREET":" ","SECT":" ","MAREA":"石子瀨","LANE":" ","ALLEY":" ","HOUSE_NO":"１５４號之４","E_COORD97":184106.53,"N_COORD97":2558124.2999999998,"ADDRESS":"石子瀨１５４號之４","OBJECTID":149355},"geometry":{"x":184106.53000000119,"y":2558124.3000000026}},{"attributes":{"ID":149357,"DIS_CODE":0,"TOWNNAME":"大內區","LI":"石城里","LIN":"4鄰","STREET":" ","SECT":" ","MAREA":"石子瀨","LANE":" ","ALLEY":" ","HOUSE_NO":"３９號之３","E_COORD97":184272.64999999999,"N_COORD97":2558075.2999999998,"ADDRESS":"石子瀨３９號之３","OBJECTID":149356},"geometry":{"x":184272.65000000037,"y":2558075.3000000007}},{"attributes":{"ID":149358,"DIS_CODE":0,"TOWNNAME":"大內區","LI":"曲溪里","LIN":"4鄰","STREET":" ","SECT":" ","MAREA":"二重溪","LANE":" ","ALLEY":" ","HOUSE_NO":"４２號","E_COORD97":187329.29000000001,"N_COORD97":2557592.3100000001,"ADDRESS":"二重溪４２號","OBJECTID":149357},"geometry":{"x":187329.29000000004,"y":2557592.3100000024}},{"attributes":{"ID":149359,"DIS_CODE":0,"TOWNNAME":"大內區","LI":"石湖里","LIN":"4鄰","STREET":" ","SECT":" ","MAREA":"石子瀨","LANE":" ","ALLEY":" ","HOUSE_NO":"２５８號","E_COORD97":184078.97,"N_COORD97":2558397.25,"ADDRESS":"石子瀨２５８號","OBJECTID":149358},"geometry":{"x":184078.97000000067,"y":2558397.25}},{"attributes":{"ID":149360,"DIS_CODE":0,"TOWNNAME":"大內區","LI":"頭社里","LIN":"4鄰","STREET":" ","SECT":" ","MAREA":"頭社","LANE":" ","ALLEY":" ","HOUSE_NO":"５６號","E_COORD97":187130.54000000001,"N_COORD97":2560260.25,"ADDRESS":"頭社５６號","OBJECTID":149359},"geometry":{"x":187130.54000000004,"y":2560260.2500000019}},{"attributes":{"ID":149361,"DIS_CODE":0,"TOWNNAME":"大內區","LI":"曲溪里","LIN":"5鄰","STREET":" ","SECT":" ","MAREA":"二重溪","LANE":" ","ALLEY":" ","HOUSE_NO":"４９號之２０","E_COORD97":187276.63,"N_COORD97":2557310.3100000001,"ADDRESS":"二重溪４９號之２０","OBJECTID":149360},"geometry":{"x":187276.63000000082,"y":2557310.3100000024}},{"attributes":{"ID":149362,"DIS_CODE":0,"TOWNNAME":"大內區","LI":"頭社里","LIN":"13鄰","STREET":" ","SECT":" ","MAREA":"頭社","LANE":" ","ALLEY":" ","HOUSE_NO":"１６７號","E_COORD97":187356.98999999999,"N_COORD97":2561385.25,"ADDRESS":"頭社１６７號","OBJECTID":149361},"geometry":{"x":187356.99000000022,"y":2561385.2500000019}},{"attributes":{"ID":149363,"DIS_CODE":0,"TOWNNAME":"大內區","LI":"頭社里","LIN":"14鄰","STREET":" ","SECT":" ","MAREA":"頭社","LANE":" ","ALLEY":" ","HOUSE_NO":"１８３號","E_COORD97":187583.09,"N_COORD97":2561760.25,"ADDRESS":"頭社１８３號","OBJECTID":149362},"geometry":{"x":187583.08999999985,"y":2561760.25}},{"attributes":{"ID":149364,"DIS_CODE":0,"TOWNNAME":"大內區","LI":"石城里","LIN":"4鄰","STREET":" ","SECT":" ","MAREA":"石子瀨","LANE":" ","ALLEY":" ","HOUSE_NO":"３４號","E_COORD97":184238.01999999999,"N_COORD97":2558006.25,"ADDRESS":"石子瀨３４號","OBJECTID":149363},"geometry":{"x":184238.02000000048,"y":2558006.25}},{"attributes":{"ID":149365,"DIS_CODE":0,"TOWNNAME":"大內區","LI":"頭社里","LIN":"5鄰","STREET":" ","SECT":" ","MAREA":"頭社","LANE":" ","ALLEY":" ","HOUSE_NO":"６１號之２","E_COORD97":187181.31,"N_COORD97":2560288.2999999998,"ADDRESS":"頭社６１號之２","OBJECTID":149364},"geometry":{"x":187181.30999999959,"y":2560288.3000000026}},{"attributes":{"ID":149366,"DIS_CODE":0,"TOWNNAME":"大內區","LI":"頭社里","LIN":"18鄰","STREET":" ","SECT":" ","MAREA":"頭社","LANE":" ","ALLEY":" ","HOUSE_NO":"２２９號之１","E_COORD97":187716.73000000001,"N_COORD97":2559527.2999999998,"ADDRESS":"頭社２２９號之１","OBJECTID":149365},"geometry":{"x":187716.73000000045,"y":2559527.3000000045}},{"attributes":{"ID":149367,"DIS_CODE":0,"TOWNNAME":"大內區","LI":"石城里","LIN":"13鄰","STREET":" ","SECT":" ","MAREA":"石子瀨","LANE":" ","ALLEY":" ","HOUSE_NO":"１２２號","E_COORD97":183881.37,"N_COORD97":2558057.25,"ADDRESS":"石子瀨１２２號","OBJECTID":149366},"geometry":{"x":183881.37000000197,"y":2558057.25}},{"attributes":{"ID":149368,"DIS_CODE":0,"TOWNNAME":"大內區","LI":"石城里","LIN":"4鄰","STREET":" ","SECT":" ","MAREA":"石子瀨","LANE":" ","ALLEY":" ","HOUSE_NO":"３５號之１","E_COORD97":184282.85000000001,"N_COORD97":2558025.2999999998,"ADDRESS":"石子瀨３５號之１","OBJECTID":149367},"geometry":{"x":184282.85000000056,"y":2558025.3000000045}},{"attributes":{"ID":149369,"DIS_CODE":0,"TOWNNAME":"大內區","LI":"環湖里","LIN":"4鄰","STREET":" ","SECT":" ","MAREA":"環湖","LANE":" ","ALLEY":" ","HOUSE_NO":"４４號","E_COORD97":190538.84,"N_COORD97":2560779.25,"ADDRESS":"環湖４４號","OBJECTID":149368},"geometry":{"x":190538.84000000078,"y":2560779.2500000019}},{"attributes":{"ID":149370,"DIS_CODE":0,"TOWNNAME":"大內區","LI":"石城里","LIN":"4鄰","STREET":" ","SECT":" ","MAREA":"石子瀨","LANE":" ","ALLEY":" ","HOUSE_NO":"３６號之１","E_COORD97":184244.14999999999,"N_COORD97":2558023.2999999998,"ADDRESS":"石子瀨３６號之１","OBJECTID":149369},"geometry":{"x":184244.15000000224,"y":2558023.3000000026}},{"attributes":{"ID":149371,"DIS_CODE":0,"TOWNNAME":"大內區","LI":"石林里","LIN":"5鄰","STREET":" ","SECT":" ","MAREA":"石子瀨","LANE":" ","ALLEY":" ","HOUSE_NO":"１６８號之２","E_COORD97":184027.84,"N_COORD97":2558172.2999999998,"ADDRESS":"石子瀨１６８號之２","OBJECTID":149370},"geometry":{"x":184027.83999999985,"y":2558172.3000000026}},{"attributes":{"ID":149372,"DIS_CODE":0,"TOWNNAME":"大內區","LI":"石林里","LIN":"14鄰","STREET":" ","SECT":" ","MAREA":"石子瀨","LANE":" ","ALLEY":" ","HOUSE_NO":"２１６號","E_COORD97":184107.67000000001,"N_COORD97":2558295.25,"ADDRESS":"石子瀨２１６號","OBJECTID":149371},"geometry":{"x":184107.66999999993,"y":2558295.25}},{"attributes":{"ID":149373,"DIS_CODE":0,"TOWNNAME":"大內區","LI":"石林里","LIN":"4鄰","STREET":" ","SECT":" ","MAREA":"石子瀨","LANE":" ","ALLEY":" ","HOUSE_NO":"１６１號","E_COORD97":183993.57000000001,"N_COORD97":2558106.25,"ADDRESS":"石子瀨１６１號","OBJECTID":149372},"geometry":{"x":183993.56999999937,"y":2558106.2500000037}},{"attributes":{"ID":149374,"DIS_CODE":0,"TOWNNAME":"大內區","LI":"石林里","LIN":"4鄰","STREET":" ","SECT":" ","MAREA":"石子瀨","LANE":" ","ALLEY":" ","HOUSE_NO":"１５４號之１","E_COORD97":184076,"N_COORD97":2558141.2999999998,"ADDRESS":"石子瀨１５４號之１","OBJECTID":149373},"geometry":{"x":184076.00000000093,"y":2558141.3000000026}},{"attributes":{"ID":149375,"DIS_CODE":0,"TOWNNAME":"大內區","LI":"頭社里","LIN":"14鄰","STREET":" ","SECT":" ","MAREA":"頭社","LANE":" ","ALLEY":" ","HOUSE_NO":"１７８號","E_COORD97":187537.48999999999,"N_COORD97":2561715.25,"ADDRESS":"頭社１７８號","OBJECTID":149374},"geometry":{"x":187537.49000000115,"y":2561715.25}},{"attributes":{"ID":149376,"DIS_CODE":0,"TOWNNAME":"大內區","LI":"石湖里","LIN":"17鄰","STREET":" ","SECT":" ","MAREA":"新厝子","LANE":" ","ALLEY":" ","HOUSE_NO":"７９號","E_COORD97":183441.82000000001,"N_COORD97":2561083.25,"ADDRESS":"新厝子７９號","OBJECTID":149375},"geometry":{"x":183441.82000000123,"y":2561083.2500000019}},{"attributes":{"ID":149377,"DIS_CODE":0,"TOWNNAME":"麻豆區","LI":"北勢里","LIN":"5鄰","STREET":" ","SECT":" ","MAREA":"北勢寮","LANE":" ","ALLEY":" ","HOUSE_NO":"８號","E_COORD97":172544.45000000001,"N_COORD97":2567157.2200000002,"ADDRESS":"北勢寮８號","OBJECTID":149376},"geometry":{"x":172544.45000000019,"y":2567157.2200000025}},{"attributes":{"ID":149378,"DIS_CODE":0,"TOWNNAME":"大內區","LI":"石湖里","LIN":"17鄰","STREET":" ","SECT":" ","MAREA":"新厝子","LANE":" ","ALLEY":" ","HOUSE_NO":"７４號","E_COORD97":183443.32000000001,"N_COORD97":2561031.25,"ADDRESS":"新厝子７４號","OBJECTID":149377},"geometry":{"x":183443.32000000123,"y":2561031.25}},{"attributes":{"ID":149379,"DIS_CODE":0,"TOWNNAME":"大內區","LI":"頭社里","LIN":"17鄰","STREET":" ","SECT":" ","MAREA":"頭社","LANE":" ","ALLEY":" ","HOUSE_NO":"２１８號","E_COORD97":187599.48999999999,"N_COORD97":2559617.25,"ADDRESS":"頭社２１８號","OBJECTID":149378},"geometry":{"x":187599.49000000022,"y":2559617.25}},{"attributes":{"ID":149380,"DIS_CODE":0,"TOWNNAME":"大內區","LI":"內郭里","LIN":"4鄰","STREET":" ","SECT":" ","MAREA":"內庄","LANE":" ","ALLEY":" ","HOUSE_NO":"１８７號","E_COORD97":184771.38,"N_COORD97":2557343.25,"ADDRESS":"內庄１８７號","OBJECTID":149379},"geometry":{"x":184771.38000000082,"y":2557343.2500000037}},{"attributes":{"ID":149381,"DIS_CODE":0,"TOWNNAME":"大內區","LI":"二溪里","LIN":"4鄰","STREET":" ","SECT":" ","MAREA":"二重溪","LANE":" ","ALLEY":" ","HOUSE_NO":"１７３號","E_COORD97":187724.23999999999,"N_COORD97":2558166.3100000001,"ADDRESS":"二重溪１７３號","OBJECTID":149380},"geometry":{"x":187724.24000000115,"y":2558166.3100000005}},{"attributes":{"ID":149382,"DIS_CODE":0,"TOWNNAME":"大內區","LI":"石城里","LIN":"13鄰","STREET":" ","SECT":" ","MAREA":"石子瀨","LANE":" ","ALLEY":" ","HOUSE_NO":"１２１號之１５","E_COORD97":183862.01000000001,"N_COORD97":2558022.2999999998,"ADDRESS":"石子瀨１２１號之１５","OBJECTID":149381},"geometry":{"x":183862.01000000071,"y":2558022.3000000026}},{"attributes":{"ID":149383,"DIS_CODE":0,"TOWNNAME":"大內區","LI":"二溪里","LIN":"14鄰","STREET":" ","SECT":" ","MAREA":"其子瓦","LANE":" ","ALLEY":" ","HOUSE_NO":"４４號","E_COORD97":190553.82000000001,"N_COORD97":2557986.25,"ADDRESS":"其子瓦４４號","OBJECTID":149382},"geometry":{"x":190553.8200000003,"y":2557986.25}},{"attributes":{"ID":149384,"DIS_CODE":0,"TOWNNAME":"大內區","LI":"二溪里","LIN":"14鄰","STREET":" ","SECT":" ","MAREA":"其子瓦","LANE":" ","ALLEY":" ","HOUSE_NO":"４２號","E_COORD97":190606.51999999999,"N_COORD97":2558007.25,"ADDRESS":"其子瓦４２號","OBJECTID":149383},"geometry":{"x":190606.52000000048,"y":2558007.25}},{"attributes":{"ID":149385,"DIS_CODE":0,"TOWNNAME":"大內區","LI":"內江里","LIN":"4鄰","STREET":" ","SECT":" ","MAREA":"內庄","LANE":" ","ALLEY":" ","HOUSE_NO":"２５５號","E_COORD97":184635.38,"N_COORD97":2557429.25,"ADDRESS":"內庄２５５號","OBJECTID":149384},"geometry":{"x":184635.38000000175,"y":2557429.2500000019}},{"attributes":{"ID":149386,"DIS_CODE":0,"TOWNNAME":"大內區","LI":"內江里","LIN":"4鄰","STREET":" ","SECT":" ","MAREA":"內庄","LANE":" ","ALLEY":" ","HOUSE_NO":"２４９號","E_COORD97":184629.17999999999,"N_COORD97":2557373.25,"ADDRESS":"內庄２４９號","OBJECTID":149385},"geometry":{"x":184629.1799999997,"y":2557373.25}},{"attributes":{"ID":149387,"DIS_CODE":0,"TOWNNAME":"大內區","LI":"大內里","LIN":"4鄰","STREET":" ","SECT":" ","MAREA":"內庄","LANE":" ","ALLEY":" ","HOUSE_NO":"５６號","E_COORD97":184539.42999999999,"N_COORD97":2557536.25,"ADDRESS":"內庄５６號","OBJECTID":149386},"geometry":{"x":184539.4299999997,"y":2557536.25}},{"attributes":{"ID":149388,"DIS_CODE":0,"TOWNNAME":"大內區","LI":"內江里","LIN":"4鄰","STREET":" ","SECT":" ","MAREA":"內庄","LANE":" ","ALLEY":" ","HOUSE_NO":"２５４號","E_COORD97":184638.48000000001,"N_COORD97":2557426.25,"ADDRESS":"內庄２５４號","OBJECTID":149387},"geometry":{"x":184638.47999999952,"y":2557426.2500000019}},{"attributes":{"ID":149389,"DIS_CODE":0,"TOWNNAME":"大內區","LI":"大內里","LIN":"4鄰","STREET":" ","SECT":" ","MAREA":"內庄","LANE":" ","ALLEY":" ","HOUSE_NO":"４８號","E_COORD97":184565.92999999999,"N_COORD97":2557513.25,"ADDRESS":"內庄４８號","OBJECTID":149388},"geometry":{"x":184565.93000000063,"y":2557513.2500000019}},{"attributes":{"ID":149390,"DIS_CODE":0,"TOWNNAME":"大內區","LI":"內江里","LIN":"4鄰","STREET":" ","SECT":" ","MAREA":"內庄","LANE":" ","ALLEY":" ","HOUSE_NO":"２５３號","E_COORD97":184640.98000000001,"N_COORD97":2557422.25,"ADDRESS":"內庄２５３號","OBJECTID":149389},"geometry":{"x":184640.98000000138,"y":2557422.2500000019}},{"attributes":{"ID":149391,"DIS_CODE":0,"TOWNNAME":"大內區","LI":"內江里","LIN":"13鄰","STREET":" ","SECT":" ","MAREA":"蒙正","LANE":" ","ALLEY":" ","HOUSE_NO":"１８號","E_COORD97":185701.73999999999,"N_COORD97":2556307.25,"ADDRESS":"蒙正１８號","OBJECTID":149390},"geometry":{"x":185701.74000000115,"y":2556307.2500000019}},{"attributes":{"ID":149392,"DIS_CODE":0,"TOWNNAME":"大內區","LI":"內江里","LIN":"14鄰","STREET":" ","SECT":" ","MAREA":"蒙正","LANE":" ","ALLEY":" ","HOUSE_NO":"２８號","E_COORD97":185848.84,"N_COORD97":2556264.25,"ADDRESS":"蒙正２８號","OBJECTID":149391},"geometry":{"x":185848.83999999985,"y":2556264.25}},{"attributes":{"ID":149393,"DIS_CODE":0,"TOWNNAME":"大內區","LI":"大內里","LIN":"8鄰","STREET":" ","SECT":" ","MAREA":"內庄","LANE":" ","ALLEY":" ","HOUSE_NO":"８９號","E_COORD97":184646.32999999999,"N_COORD97":2557529.25,"ADDRESS":"內庄８９號","OBJECTID":149392},"geometry":{"x":184646.33000000101,"y":2557529.25}},{"attributes":{"ID":149394,"DIS_CODE":0,"TOWNNAME":"大內區","LI":"內江里","LIN":"7鄰","STREET":" ","SECT":" ","MAREA":"內庄","LANE":" ","ALLEY":" ","HOUSE_NO":"２８５號之２８","E_COORD97":184363.31,"N_COORD97":2557467.29,"ADDRESS":"內庄２８５號之２８","OBJECTID":149393},"geometry":{"x":184363.31000000052,"y":2557467.2899999991}},{"attributes":{"ID":149395,"DIS_CODE":0,"TOWNNAME":"大內區","LI":"內江里","LIN":"15鄰","STREET":" ","SECT":" ","MAREA":"蒙正","LANE":" ","ALLEY":" ","HOUSE_NO":"３７號","E_COORD97":185801.34,"N_COORD97":2556210.25,"ADDRESS":"蒙正３７號","OBJECTID":149394},"geometry":{"x":185801.33999999985,"y":2556210.25}},{"attributes":{"ID":149396,"DIS_CODE":0,"TOWNNAME":"大內區","LI":"內江里","LIN":"4鄰","STREET":" ","SECT":" ","MAREA":"內庄","LANE":" ","ALLEY":" ","HOUSE_NO":"２４９號之１１","E_COORD97":184579.85999999999,"N_COORD97":2557357.2999999998,"ADDRESS":"內庄２４９號之１１","OBJECTID":149395},"geometry":{"x":184579.8599999994,"y":2557357.3000000045}},{"attributes":{"ID":149397,"DIS_CODE":0,"TOWNNAME":"大內區","LI":"大內里","LIN":"4鄰","STREET":" ","SECT":" ","MAREA":"內庄","LANE":" ","ALLEY":" ","HOUSE_NO":"６０號","E_COORD97":184622.32999999999,"N_COORD97":2557564.25,"ADDRESS":"內庄６０號","OBJECTID":149396},"geometry":{"x":184622.33000000194,"y":2557564.2500000019}},{"attributes":{"ID":149398,"DIS_CODE":0,"TOWNNAME":"大內區","LI":"大內里","LIN":"4鄰","STREET":" ","SECT":" ","MAREA":"內庄","LANE":" ","ALLEY":" ","HOUSE_NO":"５０號","E_COORD97":184558.92999999999,"N_COORD97":2557520.25,"ADDRESS":"內庄５０號","OBJECTID":149397},"geometry":{"x":184558.93000000063,"y":2557520.2500000019}},{"attributes":{"ID":149399,"DIS_CODE":0,"TOWNNAME":"大內區","LI":"內江里","LIN":"13鄰","STREET":" ","SECT":" ","MAREA":"蒙正","LANE":" ","ALLEY":" ","HOUSE_NO":"１６號","E_COORD97":185729.14000000001,"N_COORD97":2556225.25,"ADDRESS":"蒙正１６號","OBJECTID":149398},"geometry":{"x":185729.1400000006,"y":2556225.2500000019}},{"attributes":{"ID":149400,"DIS_CODE":0,"TOWNNAME":"大內區","LI":"內江里","LIN":"13鄰","STREET":" ","SECT":" ","MAREA":"蒙正","LANE":" ","ALLEY":" ","HOUSE_NO":"１０號之１","E_COORD97":185683.57999999999,"N_COORD97":2556141.2999999998,"ADDRESS":"蒙正１０號之１","OBJECTID":149399},"geometry":{"x":185683.58000000194,"y":2556141.3000000026}},{"attributes":{"ID":149401,"DIS_CODE":0,"TOWNNAME":"大內區","LI":"內江里","LIN":"13鄰","STREET":" ","SECT":" ","MAREA":"蒙正","LANE":" ","ALLEY":" ","HOUSE_NO":"１７號之１","E_COORD97":185748.17999999999,"N_COORD97":2556276.2999999998,"ADDRESS":"蒙正１７號之１","OBJECTID":149400},"geometry":{"x":185748.1799999997,"y":2556276.3000000026}}]}