{"displayFieldName":"TOWNNAME","fieldAliases":{"ID":"ID","DIS_CODE":"DIS_CODE","TOWNNAME":"TOWNNAME","LI":"LI","LIN":"LIN","STREET":"STREET","SECT":"SECT","MAREA":"MAREA","LANE":"LANE","ALLEY":"ALLEY","HOUSE_NO":"HOUSE_NO","E_COORD97":"E_COORD97","N_COORD97":"N_COORD97","ADDRESS":"ADDRESS","OBJECTID":"OBJECTID"},"geometryType":"esriGeometryPoint","spatialReference":{"wkid":102443,"latestWkid":3826},"fields":[{"name":"ID","type":"esriFieldTypeDouble","alias":"ID"},{"name":"DIS_CODE","type":"esriFieldTypeInteger","alias":"DIS_CODE"},{"name":"TOWNNAME","type":"esriFieldTypeString","alias":"TOWNNAME","length":8},{"name":"LI","type":"esriFieldTypeString","alias":"LI","length":8},{"name":"LIN","type":"esriFieldTypeString","alias":"LIN","length":12},{"name":"STREET","type":"esriFieldTypeString","alias":"STREET","length":20},{"name":"SECT","type":"esriFieldTypeString","alias":"SECT","length":8},{"name":"MAREA","type":"esriFieldTypeString","alias":"MAREA","length":12},{"name":"LANE","type":"esriFieldTypeString","alias":"LANE","length":10},{"name":"ALLEY","type":"esriFieldTypeString","alias":"ALLEY","length":10},{"name":"HOUSE_NO","type":"esriFieldTypeString","alias":"HOUSE_NO","length":20},{"name":"E_COORD97","type":"esriFieldTypeDouble","alias":"E_COORD97"},{"name":"N_COORD97","type":"esriFieldTypeDouble","alias":"N_COORD97"},{"name":"ADDRESS","type":"esriFieldTypeString","alias":"ADDRESS","length":50},{"name":"OBJECTID","type":"esriFieldTypeOID","alias":"OBJECTID"}],"features":[{"attributes":{"ID":427626,"DIS_CODE":0,"TOWNNAME":"南區","LI":"喜東里","LIN":"4鄰","STREET":"明興路","SECT":" ","MAREA":" ","LANE":"４０４巷","ALLEY":" ","HOUSE_NO":"３號","E_COORD97":166275.32000000001,"N_COORD97":2538842.1499999999,"ADDRESS":"明興路４０４巷３號","OBJECTID":427601},"geometry":{"x":166275.3200000003,"y":2538842.1500000004}},{"attributes":{"ID":427627,"DIS_CODE":0,"TOWNNAME":"南區","LI":"喜東里","LIN":"4鄰","STREET":"明興路","SECT":" ","MAREA":" ","LANE":"４２６巷","ALLEY":" ","HOUSE_NO":"１２號","E_COORD97":166249.79000000001,"N_COORD97":2538817.0299999998,"ADDRESS":"明興路４２６巷１２號","OBJECTID":427602},"geometry":{"x":166249.79000000004,"y":2538817.0300000012}},{"attributes":{"ID":427628,"DIS_CODE":0,"TOWNNAME":"南區","LI":"喜東里","LIN":"4鄰","STREET":"明興路","SECT":" ","MAREA":" ","LANE":"４２６巷","ALLEY":" ","HOUSE_NO":"１４號","E_COORD97":166245.85000000001,"N_COORD97":2538818.02,"ADDRESS":"明興路４２６巷１４號","OBJECTID":427603},"geometry":{"x":166245.85000000149,"y":2538818.0199999996}},{"attributes":{"ID":427629,"DIS_CODE":0,"TOWNNAME":"南區","LI":"喜東里","LIN":"4鄰","STREET":"明興路","SECT":" ","MAREA":" ","LANE":"４２６巷","ALLEY":" ","HOUSE_NO":"１６號","E_COORD97":166241.79000000001,"N_COORD97":2538819,"ADDRESS":"明興路４２６巷１６號","OBJECTID":427604},"geometry":{"x":166241.79000000097,"y":2538819}},{"attributes":{"ID":427630,"DIS_CODE":0,"TOWNNAME":"南區","LI":"喜東里","LIN":"4鄰","STREET":"明興路","SECT":" ","MAREA":" ","LANE":"４２６巷","ALLEY":" ","HOUSE_NO":"２號","E_COORD97":166270.06,"N_COORD97":2538811.7799999998,"ADDRESS":"明興路４２６巷２號","OBJECTID":427605},"geometry":{"x":166270.06000000052,"y":2538811.7800000012}},{"attributes":{"ID":427631,"DIS_CODE":0,"TOWNNAME":"東山區","LI":"南溪里","LIN":"9鄰","STREET":" ","SECT":" ","MAREA":"二重溪","LANE":" ","ALLEY":" ","HOUSE_NO":"１０８號","E_COORD97":189477.29365899999,"N_COORD97":2574359.09191,"ADDRESS":"二重溪１０８號","OBJECTID":427606},"geometry":{"x":189477.29365899973,"y":2574359.0919060018}},{"attributes":{"ID":427632,"DIS_CODE":0,"TOWNNAME":"南區","LI":"喜東里","LIN":"4鄰","STREET":"明興路","SECT":" ","MAREA":" ","LANE":"４２６巷","ALLEY":" ","HOUSE_NO":"４號","E_COORD97":166266.23000000001,"N_COORD97":2538812.6499999999,"ADDRESS":"明興路４２６巷４號","OBJECTID":427607},"geometry":{"x":166266.23000000231,"y":2538812.6500000041}},{"attributes":{"ID":427633,"DIS_CODE":0,"TOWNNAME":"南區","LI":"喜東里","LIN":"4鄰","STREET":"明興路","SECT":" ","MAREA":" ","LANE":"４２６巷","ALLEY":" ","HOUSE_NO":"６號","E_COORD97":166262.28,"N_COORD97":2538814.2999999998,"ADDRESS":"明興路４２６巷６號","OBJECTID":427608},"geometry":{"x":166262.28000000212,"y":2538814.3000000007}},{"attributes":{"ID":427634,"DIS_CODE":0,"TOWNNAME":"安南區","LI":"淵東里","LIN":"4鄰","STREET":"仁安一街","SECT":" ","MAREA":" ","LANE":"６８巷","ALLEY":" ","HOUSE_NO":"２號","E_COORD97":165738.81,"N_COORD97":2550284.7999999998,"ADDRESS":"仁安一街６８巷２號","OBJECTID":427609},"geometry":{"x":165738.80999999959,"y":2550284.7999999989}},{"attributes":{"ID":427635,"DIS_CODE":0,"TOWNNAME":"安南區","LI":"淵東里","LIN":"4鄰","STREET":"仁安一街","SECT":" ","MAREA":" ","LANE":"６８巷","ALLEY":" ","HOUSE_NO":"３號","E_COORD97":165757.47,"N_COORD97":2550287.9900000002,"ADDRESS":"仁安一街６８巷３號","OBJECTID":427610},"geometry":{"x":165757.47000000067,"y":2550287.9900000021}},{"attributes":{"ID":427636,"DIS_CODE":0,"TOWNNAME":"安南區","LI":"淵東里","LIN":"4鄰","STREET":"仁安一街","SECT":" ","MAREA":" ","LANE":"６８巷","ALLEY":" ","HOUSE_NO":"６號","E_COORD97":165739.35999999999,"N_COORD97":2550281.02,"ADDRESS":"仁安一街６８巷６號","OBJECTID":427611},"geometry":{"x":165739.36000000034,"y":2550281.0199999996}},{"attributes":{"ID":427637,"DIS_CODE":0,"TOWNNAME":"安南區","LI":"淵東里","LIN":"4鄰","STREET":"仁安一街","SECT":" ","MAREA":" ","LANE":"６８巷","ALLEY":" ","HOUSE_NO":"７號","E_COORD97":165759.89000000001,"N_COORD97":2550280.2200000002,"ADDRESS":"仁安一街６８巷７號","OBJECTID":427612},"geometry":{"x":165759.8900000006,"y":2550280.2200000025}},{"attributes":{"ID":427638,"DIS_CODE":0,"TOWNNAME":"安南區","LI":"淵東里","LIN":"4鄰","STREET":"仁安一街","SECT":" ","MAREA":" ","LANE":"６８巷","ALLEY":" ","HOUSE_NO":"８號","E_COORD97":165741.5,"N_COORD97":2550277.27,"ADDRESS":"仁安一街６８巷８號","OBJECTID":427613},"geometry":{"x":165741.5,"y":2550277.2700000033}},{"attributes":{"ID":427639,"DIS_CODE":0,"TOWNNAME":"安南區","LI":"淵東里","LIN":"4鄰","STREET":"仁安一街","SECT":" ","MAREA":" ","LANE":"６８巷","ALLEY":" ","HOUSE_NO":"９號","E_COORD97":165761.89999999999,"N_COORD97":2550276.6000000001,"ADDRESS":"仁安一街６８巷９號","OBJECTID":427614},"geometry":{"x":165761.9000000013,"y":2550276.6000000015}},{"attributes":{"ID":427640,"DIS_CODE":0,"TOWNNAME":"安南區","LI":"淵東里","LIN":"4鄰","STREET":"仁安一街","SECT":" ","MAREA":" ","LANE":"７０巷","ALLEY":" ","HOUSE_NO":"１０號","E_COORD97":165775.32999999999,"N_COORD97":2550282.5,"ADDRESS":"仁安一街７０巷１０號","OBJECTID":427615},"geometry":{"x":165775.33000000101,"y":2550282.5}},{"attributes":{"ID":427641,"DIS_CODE":0,"TOWNNAME":"安南區","LI":"淵東里","LIN":"4鄰","STREET":"仁安一街","SECT":" ","MAREA":" ","LANE":"７０巷","ALLEY":" ","HOUSE_NO":"１２號","E_COORD97":165777.01999999999,"N_COORD97":2550279.02,"ADDRESS":"仁安一街７０巷１２號","OBJECTID":427616},"geometry":{"x":165777.02000000048,"y":2550279.0200000033}},{"attributes":{"ID":427642,"DIS_CODE":0,"TOWNNAME":"安南區","LI":"淵東里","LIN":"4鄰","STREET":"仁安一街","SECT":" ","MAREA":" ","LANE":"７０巷","ALLEY":" ","HOUSE_NO":"１號","E_COORD97":165788.09,"N_COORD97":2550302.7999999998,"ADDRESS":"仁安一街７０巷１號","OBJECTID":427617},"geometry":{"x":165788.08999999985,"y":2550302.8000000026}},{"attributes":{"ID":427643,"DIS_CODE":0,"TOWNNAME":"安南區","LI":"淵東里","LIN":"4鄰","STREET":"仁安一街","SECT":" ","MAREA":" ","LANE":"７０巷","ALLEY":" ","HOUSE_NO":"２號","E_COORD97":165771,"N_COORD97":2550296.6800000002,"ADDRESS":"仁安一街７０巷２號","OBJECTID":427618},"geometry":{"x":165771.00000000093,"y":2550296.6799999997}},{"attributes":{"ID":427644,"DIS_CODE":0,"TOWNNAME":"安南區","LI":"淵東里","LIN":"4鄰","STREET":"仁安路","SECT":" ","MAREA":" ","LANE":"１９３巷","ALLEY":" ","HOUSE_NO":"１０號","E_COORD97":165896.97,"N_COORD97":2550273.7000000002,"ADDRESS":"仁安路１９３巷１０號","OBJECTID":427619},"geometry":{"x":165896.96999999974,"y":2550273.6999999974}},{"attributes":{"ID":427645,"DIS_CODE":0,"TOWNNAME":"安南區","LI":"淵東里","LIN":"4鄰","STREET":"仁安路","SECT":" ","MAREA":" ","LANE":"１９３巷","ALLEY":" ","HOUSE_NO":"１號","E_COORD97":165886.85000000001,"N_COORD97":2550253.8500000001,"ADDRESS":"仁安路１９３巷１號","OBJECTID":427620},"geometry":{"x":165886.85000000056,"y":2550253.8500000015}},{"attributes":{"ID":427646,"DIS_CODE":0,"TOWNNAME":"安南區","LI":"淵東里","LIN":"4鄰","STREET":"仁安路","SECT":" ","MAREA":" ","LANE":"１９３巷","ALLEY":" ","HOUSE_NO":"２號","E_COORD97":165902.20000000001,"N_COORD97":2550260.1200000001,"ADDRESS":"仁安路１９３巷２號","OBJECTID":427621},"geometry":{"x":165902.20000000112,"y":2550260.1200000029}},{"attributes":{"ID":427647,"DIS_CODE":0,"TOWNNAME":"安南區","LI":"淵東里","LIN":"4鄰","STREET":"仁安路","SECT":" ","MAREA":" ","LANE":"１９３巷","ALLEY":" ","HOUSE_NO":"３號","E_COORD97":165884.75,"N_COORD97":2550258.0299999998,"ADDRESS":"仁安路１９３巷３號","OBJECTID":427622},"geometry":{"x":165884.75000000093,"y":2550258.0299999975}},{"attributes":{"ID":427648,"DIS_CODE":0,"TOWNNAME":"安南區","LI":"淵東里","LIN":"4鄰","STREET":"仁安路","SECT":" ","MAREA":" ","LANE":"１９３巷","ALLEY":" ","HOUSE_NO":"５號","E_COORD97":165884.75,"N_COORD97":2550262.21,"ADDRESS":"仁安路１９３巷５號","OBJECTID":427623},"geometry":{"x":165884.75000000093,"y":2550262.2100000046}},{"attributes":{"ID":427649,"DIS_CODE":0,"TOWNNAME":"安南區","LI":"淵東里","LIN":"4鄰","STREET":"仁安路","SECT":" ","MAREA":" ","LANE":"１９３巷","ALLEY":" ","HOUSE_NO":"６號","E_COORD97":165900.79999999999,"N_COORD97":2550264.2999999998,"ADDRESS":"仁安路１９３巷６號","OBJECTID":427624},"geometry":{"x":165900.80000000075,"y":2550264.3000000007}},{"attributes":{"ID":427650,"DIS_CODE":0,"TOWNNAME":"安南區","LI":"淵東里","LIN":"4鄰","STREET":"仁安路","SECT":" ","MAREA":" ","LANE":"１９３巷","ALLEY":" ","HOUSE_NO":"８號","E_COORD97":165899.06,"N_COORD97":2550268.48,"ADDRESS":"仁安路１９３巷８號","OBJECTID":427625},"geometry":{"x":165899.06000000052,"y":2550268.4800000004}},{"attributes":{"ID":427651,"DIS_CODE":0,"TOWNNAME":"安南區","LI":"淵東里","LIN":"4鄰","STREET":"智安二街","SECT":" ","MAREA":" ","LANE":"５０巷","ALLEY":" ","HOUSE_NO":"１５號","E_COORD97":165760.56,"N_COORD97":2550254.5099999998,"ADDRESS":"智安二街５０巷１５號","OBJECTID":427626},"geometry":{"x":165760.55999999959,"y":2550254.5099999998}},{"attributes":{"ID":427652,"DIS_CODE":0,"TOWNNAME":"安南區","LI":"淵東里","LIN":"4鄰","STREET":"智安二街","SECT":" ","MAREA":" ","LANE":"５０巷","ALLEY":" ","HOUSE_NO":"１７號","E_COORD97":165763.95000000001,"N_COORD97":2550255.4700000002,"ADDRESS":"智安二街５０巷１７號","OBJECTID":427627},"geometry":{"x":165763.95000000019,"y":2550255.4700000007}},{"attributes":{"ID":427653,"DIS_CODE":0,"TOWNNAME":"安南區","LI":"淵東里","LIN":"4鄰","STREET":"智安二街","SECT":" ","MAREA":" ","LANE":"５０巷","ALLEY":" ","HOUSE_NO":"１９號","E_COORD97":165767.95999999999,"N_COORD97":2550256.8100000001,"ADDRESS":"智安二街５０巷１９號","OBJECTID":427628},"geometry":{"x":165767.96000000089,"y":2550256.8100000005}},{"attributes":{"ID":427654,"DIS_CODE":0,"TOWNNAME":"安南區","LI":"淵東里","LIN":"4鄰","STREET":"智安二街","SECT":" ","MAREA":" ","LANE":"５０巷","ALLEY":" ","HOUSE_NO":"２１號","E_COORD97":165771.95999999999,"N_COORD97":2550258.2599999998,"ADDRESS":"智安二街５０巷２１號","OBJECTID":427629},"geometry":{"x":165771.95999999996,"y":2550258.2600000016}},{"attributes":{"ID":427655,"DIS_CODE":0,"TOWNNAME":"安南區","LI":"淵東里","LIN":"4鄰","STREET":"智安二街","SECT":" ","MAREA":" ","LANE":"５０巷","ALLEY":" ","HOUSE_NO":"２３號","E_COORD97":165775.84,"N_COORD97":2550259.23,"ADDRESS":"智安二街５０巷２３號","OBJECTID":427630},"geometry":{"x":165775.83999999985,"y":2550259.2300000023}},{"attributes":{"ID":427656,"DIS_CODE":0,"TOWNNAME":"安南區","LI":"淵東里","LIN":"4鄰","STREET":"智安二街","SECT":" ","MAREA":" ","LANE":"５０巷","ALLEY":" ","HOUSE_NO":"２４號","E_COORD97":165767.69,"N_COORD97":2550232,"ADDRESS":"智安二街５０巷２４號","OBJECTID":427631},"geometry":{"x":165767.69000000041,"y":2550232.0000000037}},{"attributes":{"ID":427657,"DIS_CODE":0,"TOWNNAME":"安南區","LI":"淵東里","LIN":"4鄰","STREET":"智安二街","SECT":" ","MAREA":" ","LANE":"５０巷","ALLEY":" ","HOUSE_NO":"２５號","E_COORD97":165779.48000000001,"N_COORD97":2550260.3199999998,"ADDRESS":"智安二街５０巷２５號","OBJECTID":427632},"geometry":{"x":165779.48000000045,"y":2550260.3200000003}},{"attributes":{"ID":427658,"DIS_CODE":0,"TOWNNAME":"安南區","LI":"淵東里","LIN":"4鄰","STREET":"智安二街","SECT":" ","MAREA":" ","LANE":"５０巷","ALLEY":" ","HOUSE_NO":"２６號","E_COORD97":165771.39000000001,"N_COORD97":2550233.48,"ADDRESS":"智安二街５０巷２６號","OBJECTID":427633},"geometry":{"x":165771.3900000006,"y":2550233.4800000023}},{"attributes":{"ID":427659,"DIS_CODE":0,"TOWNNAME":"安南區","LI":"淵東里","LIN":"4鄰","STREET":"智安二街","SECT":" ","MAREA":" ","LANE":"５０巷","ALLEY":" ","HOUSE_NO":"２７號","E_COORD97":165783.73000000001,"N_COORD97":2550261.77,"ADDRESS":"智安二街５０巷２７號","OBJECTID":427634},"geometry":{"x":165783.73000000138,"y":2550261.7700000014}},{"attributes":{"ID":427660,"DIS_CODE":0,"TOWNNAME":"安南區","LI":"淵東里","LIN":"4鄰","STREET":"智安二街","SECT":" ","MAREA":" ","LANE":"５０巷","ALLEY":" ","HOUSE_NO":"２８號","E_COORD97":165779.17000000001,"N_COORD97":2550238.46,"ADDRESS":"智安二街５０巷２８號","OBJECTID":427635},"geometry":{"x":165779.16999999993,"y":2550238.4600000009}},{"attributes":{"ID":427661,"DIS_CODE":0,"TOWNNAME":"安南區","LI":"大安里","LIN":"4鄰","STREET":"大安街","SECT":" ","MAREA":" ","LANE":"６８巷","ALLEY":" ","HOUSE_NO":"３號","E_COORD97":167228.73999999999,"N_COORD97":2547996.2200000002,"ADDRESS":"大安街６８巷３號","OBJECTID":427636},"geometry":{"x":167228.74000000209,"y":2547996.2200000007}},{"attributes":{"ID":427662,"DIS_CODE":0,"TOWNNAME":"安南區","LI":"淵東里","LIN":"4鄰","STREET":"智安二街","SECT":" ","MAREA":" ","LANE":"５０巷","ALLEY":" ","HOUSE_NO":"２９號","E_COORD97":165787.37,"N_COORD97":2550263.1099999999,"ADDRESS":"智安二街５０巷２９號","OBJECTID":427637},"geometry":{"x":165787.37000000104,"y":2550263.1099999994}},{"attributes":{"ID":427663,"DIS_CODE":0,"TOWNNAME":"安南區","LI":"淵東里","LIN":"4鄰","STREET":"智安二街","SECT":" ","MAREA":" ","LANE":"５０巷","ALLEY":" ","HOUSE_NO":"２號","E_COORD97":165725.14999999999,"N_COORD97":2550216.4900000002,"ADDRESS":"智安二街５０巷２號","OBJECTID":427638},"geometry":{"x":165725.15000000037,"y":2550216.4900000021}},{"attributes":{"ID":427664,"DIS_CODE":0,"TOWNNAME":"安南區","LI":"淵東里","LIN":"4鄰","STREET":"智安二街","SECT":" ","MAREA":" ","LANE":"５０巷","ALLEY":" ","HOUSE_NO":"３０號","E_COORD97":165781.04999999999,"N_COORD97":2550232.7200000002,"ADDRESS":"智安二街５０巷３０號","OBJECTID":427639},"geometry":{"x":165781.04999999981,"y":2550232.7200000025}},{"attributes":{"ID":427665,"DIS_CODE":0,"TOWNNAME":"安南區","LI":"淵東里","LIN":"4鄰","STREET":"智安二街","SECT":" ","MAREA":" ","LANE":"５０巷","ALLEY":" ","HOUSE_NO":"３２號","E_COORD97":165782.79999999999,"N_COORD97":2550228.5,"ADDRESS":"智安二街５０巷３２號","OBJECTID":427640},"geometry":{"x":165782.79999999981,"y":2550228.4999999981}},{"attributes":{"ID":427666,"DIS_CODE":0,"TOWNNAME":"將軍區","LI":"嘉昌里","LIN":"12鄰","STREET":" ","SECT":" ","MAREA":"北嘉","LANE":" ","ALLEY":" ","HOUSE_NO":"１０１之１號","E_COORD97":162611.603069,"N_COORD97":2568118.5387900001,"ADDRESS":"北嘉１０１之１號","OBJECTID":427641},"geometry":{"x":162611.60306900181,"y":2568118.5387940034}},{"attributes":{"ID":427667,"DIS_CODE":0,"TOWNNAME":"安南區","LI":"淵東里","LIN":"4鄰","STREET":"智安二街","SECT":" ","MAREA":" ","LANE":"５０巷","ALLEY":" ","HOUSE_NO":"３４號","E_COORD97":165785.79000000001,"N_COORD97":2550223.5600000001,"ADDRESS":"智安二街５０巷３４號","OBJECTID":427642},"geometry":{"x":165785.79000000097,"y":2550223.5600000024}},{"attributes":{"ID":427668,"DIS_CODE":0,"TOWNNAME":"安南區","LI":"淵東里","LIN":"4鄰","STREET":"智安二街","SECT":" ","MAREA":" ","LANE":"５０巷","ALLEY":" ","HOUSE_NO":"３６號","E_COORD97":165802.29000000001,"N_COORD97":2550229.7999999998,"ADDRESS":"智安二街５０巷３６號","OBJECTID":427643},"geometry":{"x":165802.29000000004,"y":2550229.8000000007}},{"attributes":{"ID":427669,"DIS_CODE":0,"TOWNNAME":"安南區","LI":"淵東里","LIN":"4鄰","STREET":"智安二街","SECT":" ","MAREA":" ","LANE":"５０巷","ALLEY":" ","HOUSE_NO":"３８號","E_COORD97":165799.12,"N_COORD97":2550233.98,"ADDRESS":"智安二街５０巷３８號","OBJECTID":427644},"geometry":{"x":165799.12000000104,"y":2550233.9800000023}},{"attributes":{"ID":427670,"DIS_CODE":0,"TOWNNAME":"安南區","LI":"淵東里","LIN":"4鄰","STREET":"智安二街","SECT":" ","MAREA":" ","LANE":"５０巷","ALLEY":" ","HOUSE_NO":"４０號","E_COORD97":165797,"N_COORD97":2550239.4700000002,"ADDRESS":"智安二街５０巷４０號","OBJECTID":427645},"geometry":{"x":165797,"y":2550239.4699999988}},{"attributes":{"ID":427671,"DIS_CODE":0,"TOWNNAME":"安南區","LI":"淵東里","LIN":"4鄰","STREET":"智安二街","SECT":" ","MAREA":" ","LANE":"５０巷","ALLEY":" ","HOUSE_NO":"４２號","E_COORD97":165794.34,"N_COORD97":2550244.2999999998,"ADDRESS":"智安二街５０巷４２號","OBJECTID":427646},"geometry":{"x":165794.34000000078,"y":2550244.3000000045}},{"attributes":{"ID":427672,"DIS_CODE":0,"TOWNNAME":"安南區","LI":"淵東里","LIN":"4鄰","STREET":"智安二街","SECT":" ","MAREA":" ","LANE":"５０巷","ALLEY":" ","HOUSE_NO":"４６號","E_COORD97":165803.66,"N_COORD97":2550247.8599999999,"ADDRESS":"智安二街５０巷４６號","OBJECTID":427647},"geometry":{"x":165803.66000000108,"y":2550247.8599999994}},{"attributes":{"ID":427673,"DIS_CODE":0,"TOWNNAME":"安南區","LI":"淵東里","LIN":"4鄰","STREET":"智安二街","SECT":" ","MAREA":" ","LANE":"５０巷","ALLEY":" ","HOUSE_NO":"４８號","E_COORD97":165806.41,"N_COORD97":2550242.1600000001,"ADDRESS":"智安二街５０巷４８號","OBJECTID":427648},"geometry":{"x":165806.41000000015,"y":2550242.160000002}},{"attributes":{"ID":427674,"DIS_CODE":0,"TOWNNAME":"安南區","LI":"淵東里","LIN":"4鄰","STREET":"智安二街","SECT":" ","MAREA":" ","LANE":"５０巷","ALLEY":" ","HOUSE_NO":"４號","E_COORD97":165730.14000000001,"N_COORD97":2550217.96,"ADDRESS":"智安二街５０巷４號","OBJECTID":427649},"geometry":{"x":165730.13999999873,"y":2550217.9600000028}},{"attributes":{"ID":427675,"DIS_CODE":0,"TOWNNAME":"安南區","LI":"淵東里","LIN":"4鄰","STREET":"智安二街","SECT":" ","MAREA":" ","LANE":"５０巷","ALLEY":" ","HOUSE_NO":"５０號","E_COORD97":165809.14999999999,"N_COORD97":2550238.2799999998,"ADDRESS":"智安二街５０巷５０號","OBJECTID":427650},"geometry":{"x":165809.1500000013,"y":2550238.2799999993}},{"attributes":{"ID":427676,"DIS_CODE":0,"TOWNNAME":"安南區","LI":"淵東里","LIN":"4鄰","STREET":"智安二街","SECT":" ","MAREA":" ","LANE":"５０巷","ALLEY":" ","HOUSE_NO":"５２之１號","E_COORD97":165811.44,"N_COORD97":2550233.48,"ADDRESS":"智安二街５０巷５２之１號","OBJECTID":427651},"geometry":{"x":165811.44000000041,"y":2550233.4800000023}},{"attributes":{"ID":427677,"DIS_CODE":0,"TOWNNAME":"安南區","LI":"淵東里","LIN":"4鄰","STREET":"智安二街","SECT":" ","MAREA":" ","LANE":"５０巷","ALLEY":" ","HOUSE_NO":"５２號","E_COORD97":165825.57999999999,"N_COORD97":2550239.3700000001,"ADDRESS":"智安二街５０巷５２號","OBJECTID":427652},"geometry":{"x":165825.58000000007,"y":2550239.370000001}},{"attributes":{"ID":427678,"DIS_CODE":0,"TOWNNAME":"安南區","LI":"淵東里","LIN":"4鄰","STREET":"智安二街","SECT":" ","MAREA":" ","LANE":"５０巷","ALLEY":" ","HOUSE_NO":"５６號","E_COORD97":165823.51000000001,"N_COORD97":2550243.5600000001,"ADDRESS":"智安二街５０巷５６號","OBJECTID":427653},"geometry":{"x":165823.51000000071,"y":2550243.5600000024}},{"attributes":{"ID":427679,"DIS_CODE":0,"TOWNNAME":"安南區","LI":"淵東里","LIN":"4鄰","STREET":"智安二街","SECT":" ","MAREA":" ","LANE":"５０巷","ALLEY":" ","HOUSE_NO":"５８號","E_COORD97":165821.22,"N_COORD97":2550248.8100000001,"ADDRESS":"智安二街５０巷５８號","OBJECTID":427654},"geometry":{"x":165821.21999999881,"y":2550248.8100000024}},{"attributes":{"ID":427680,"DIS_CODE":0,"TOWNNAME":"安南區","LI":"淵東里","LIN":"4鄰","STREET":"智安二街","SECT":" ","MAREA":" ","LANE":"５０巷","ALLEY":" ","HOUSE_NO":"６０號","E_COORD97":165818.31,"N_COORD97":2550253.7799999998,"ADDRESS":"智安二街５０巷６０號","OBJECTID":427655},"geometry":{"x":165818.30999999959,"y":2550253.7800000012}},{"attributes":{"ID":427681,"DIS_CODE":0,"TOWNNAME":"南區","LI":"廣州里","LIN":"4鄰","STREET":"永華路","SECT":"一段","MAREA":" ","LANE":"７９巷","ALLEY":" ","HOUSE_NO":"９號","E_COORD97":167489.66,"N_COORD97":2543091.25,"ADDRESS":"永華路一段７９巷９號","OBJECTID":427656},"geometry":{"x":167489.66000000015,"y":2543091.2500000019}},{"attributes":{"ID":427682,"DIS_CODE":0,"TOWNNAME":"南區","LI":"廣州里","LIN":"4鄰","STREET":"永華路","SECT":"一段","MAREA":" ","LANE":"７９巷","ALLEY":" ","HOUSE_NO":"１１號","E_COORD97":167494.10999999999,"N_COORD97":2543089.9199999999,"ADDRESS":"永華路一段７９巷１１號","OBJECTID":427657},"geometry":{"x":167494.1100000022,"y":2543089.9200000018}},{"attributes":{"ID":427683,"DIS_CODE":0,"TOWNNAME":"南區","LI":"廣州里","LIN":"4鄰","STREET":"永華路","SECT":"一段","MAREA":" ","LANE":"７９巷","ALLEY":" ","HOUSE_NO":"１３號","E_COORD97":167498.10999999999,"N_COORD97":2543088.5800000001,"ADDRESS":"永華路一段７９巷１３號","OBJECTID":427658},"geometry":{"x":167498.11000000127,"y":2543088.5800000019}},{"attributes":{"ID":427684,"DIS_CODE":0,"TOWNNAME":"南區","LI":"廣州里","LIN":"4鄰","STREET":"永華路","SECT":"一段","MAREA":" ","LANE":"７９巷","ALLEY":" ","HOUSE_NO":"１５號","E_COORD97":167505,"N_COORD97":2543095.4700000002,"ADDRESS":"永華路一段７９巷１５號","OBJECTID":427659},"geometry":{"x":167505.00000000093,"y":2543095.4700000007}},{"attributes":{"ID":427685,"DIS_CODE":0,"TOWNNAME":"安南區","LI":"大安里","LIN":"4鄰","STREET":"大安街","SECT":" ","MAREA":" ","LANE":"６８巷","ALLEY":" ","HOUSE_NO":"１號","E_COORD97":167222.79000000001,"N_COORD97":2547995.73,"ADDRESS":"大安街６８巷１號","OBJECTID":427660},"geometry":{"x":167222.79000000004,"y":2547995.7300000004}},{"attributes":{"ID":427686,"DIS_CODE":0,"TOWNNAME":"善化區","LI":"文正里","LIN":"13鄰","STREET":"陽明路","SECT":" ","MAREA":" ","LANE":"１４２巷","ALLEY":" ","HOUSE_NO":"３號","E_COORD97":176363.70000000001,"N_COORD97":2559529.6400000001,"ADDRESS":"陽明路１４２巷３號","OBJECTID":427661},"geometry":{"x":176363.70000000019,"y":2559529.6400000025}},{"attributes":{"ID":427687,"DIS_CODE":0,"TOWNNAME":"善化區","LI":"文正里","LIN":"14鄰","STREET":"陽明路","SECT":" ","MAREA":" ","LANE":"５７巷","ALLEY":" ","HOUSE_NO":"７１號","E_COORD97":176246.84,"N_COORD97":2559261.2599999998,"ADDRESS":"陽明路５７巷７１號","OBJECTID":427662},"geometry":{"x":176246.84000000078,"y":2559261.2599999998}},{"attributes":{"ID":427688,"DIS_CODE":0,"TOWNNAME":"安南區","LI":"大安里","LIN":"4鄰","STREET":"大安街","SECT":" ","MAREA":" ","LANE":"６８巷","ALLEY":" ","HOUSE_NO":"２３號","E_COORD97":167263.20999999999,"N_COORD97":2547971.0600000001,"ADDRESS":"大安街６８巷２３號","OBJECTID":427663},"geometry":{"x":167263.21000000089,"y":2547971.0600000042}},{"attributes":{"ID":427689,"DIS_CODE":0,"TOWNNAME":"安南區","LI":"大安里","LIN":"4鄰","STREET":"大安街","SECT":" ","MAREA":" ","LANE":"６８巷","ALLEY":" ","HOUSE_NO":"２５號","E_COORD97":167266.48999999999,"N_COORD97":2547968.8399999999,"ADDRESS":"大安街６８巷２５號","OBJECTID":427664},"geometry":{"x":167266.49000000115,"y":2547968.8400000017}},{"attributes":{"ID":427690,"DIS_CODE":0,"TOWNNAME":"安南區","LI":"大安里","LIN":"4鄰","STREET":"大安街","SECT":" ","MAREA":" ","LANE":"６８巷","ALLEY":" ","HOUSE_NO":"２７號","E_COORD97":167269.95000000001,"N_COORD97":2547966.8599999999,"ADDRESS":"大安街６８巷２７號","OBJECTID":427665},"geometry":{"x":167269.95000000112,"y":2547966.8599999994}},{"attributes":{"ID":427691,"DIS_CODE":0,"TOWNNAME":"安南區","LI":"大安里","LIN":"4鄰","STREET":"大安街","SECT":" ","MAREA":" ","LANE":"６８巷","ALLEY":" ","HOUSE_NO":"２９號","E_COORD97":167273.73999999999,"N_COORD97":2547963.75,"ADDRESS":"大安街６８巷２９號","OBJECTID":427666},"geometry":{"x":167273.74000000022,"y":2547963.7500000019}},{"attributes":{"ID":427692,"DIS_CODE":0,"TOWNNAME":"安南區","LI":"大安里","LIN":"4鄰","STREET":"大安街","SECT":" ","MAREA":" ","LANE":"６８巷","ALLEY":" ","HOUSE_NO":"３３號","E_COORD97":167281.10000000001,"N_COORD97":2547960.04,"ADDRESS":"大安街６８巷３３號","OBJECTID":427667},"geometry":{"x":167281.09999999963,"y":2547960.040000001}},{"attributes":{"ID":427693,"DIS_CODE":0,"TOWNNAME":"安南區","LI":"大安里","LIN":"4鄰","STREET":"大安街","SECT":" ","MAREA":" ","LANE":"６８巷","ALLEY":" ","HOUSE_NO":"３５號","E_COORD97":167284.31,"N_COORD97":2547957.7000000002,"ADDRESS":"大安街６８巷３５號","OBJECTID":427668},"geometry":{"x":167284.31000000052,"y":2547957.6999999993}},{"attributes":{"ID":427694,"DIS_CODE":0,"TOWNNAME":"安南區","LI":"大安里","LIN":"4鄰","STREET":"大安街","SECT":" ","MAREA":" ","LANE":"６８巷","ALLEY":" ","HOUSE_NO":"３７號","E_COORD97":167287.82999999999,"N_COORD97":2547955.9100000001,"ADDRESS":"大安街６８巷３７號","OBJECTID":427669},"geometry":{"x":167287.83000000101,"y":2547955.910000002}},{"attributes":{"ID":427695,"DIS_CODE":0,"TOWNNAME":"安南區","LI":"大安里","LIN":"4鄰","STREET":"大安街","SECT":" ","MAREA":" ","LANE":"６８巷","ALLEY":" ","HOUSE_NO":"５１號","E_COORD97":167329.72,"N_COORD97":2547927.8700000001,"ADDRESS":"大安街６８巷５１號","OBJECTID":427670},"geometry":{"x":167329.71999999974,"y":2547927.870000001}},{"attributes":{"ID":427696,"DIS_CODE":0,"TOWNNAME":"安南區","LI":"大安里","LIN":"4鄰","STREET":"大安街","SECT":" ","MAREA":" ","LANE":"６８巷","ALLEY":" ","HOUSE_NO":"５號","E_COORD97":167232.01000000001,"N_COORD97":2547993.52,"ADDRESS":"大安街６８巷５號","OBJECTID":427671},"geometry":{"x":167232.01000000071,"y":2547993.5199999977}},{"attributes":{"ID":427697,"DIS_CODE":0,"TOWNNAME":"安南區","LI":"大安里","LIN":"4鄰","STREET":"大安街","SECT":" ","MAREA":" ","LANE":"６８巷","ALLEY":" ","HOUSE_NO":"７號","E_COORD97":167234.25,"N_COORD97":2547989.48,"ADDRESS":"大安街６８巷７號","OBJECTID":427672},"geometry":{"x":167234.25000000093,"y":2547989.4800000023}},{"attributes":{"ID":427698,"DIS_CODE":0,"TOWNNAME":"安南區","LI":"大安里","LIN":"4鄰","STREET":"大安街","SECT":" ","MAREA":" ","LANE":"６８巷","ALLEY":" ","HOUSE_NO":"９號","E_COORD97":167237.95999999999,"N_COORD97":2547987.4500000002,"ADDRESS":"大安街６８巷９號","OBJECTID":427673},"geometry":{"x":167237.95999999996,"y":2547987.4500000011}},{"attributes":{"ID":427699,"DIS_CODE":0,"TOWNNAME":"安南區","LI":"大安里","LIN":"4鄰","STREET":"大安街","SECT":" ","MAREA":" ","LANE":"８２巷","ALLEY":" ","HOUSE_NO":"１０號","E_COORD97":167252.94,"N_COORD97":2548002.3599999999,"ADDRESS":"大安街８２巷１０號","OBJECTID":427674},"geometry":{"x":167252.94000000227,"y":2548002.3600000013}},{"attributes":{"ID":427700,"DIS_CODE":0,"TOWNNAME":"安南區","LI":"大安里","LIN":"4鄰","STREET":"大安街","SECT":" ","MAREA":" ","LANE":"８２巷","ALLEY":" ","HOUSE_NO":"１１號","E_COORD97":167266.76000000001,"N_COORD97":2548014.4399999999,"ADDRESS":"大安街８２巷１１號","OBJECTID":427675},"geometry":{"x":167266.75999999978,"y":2548014.4399999976}},{"attributes":{"ID":427701,"DIS_CODE":0,"TOWNNAME":"安南區","LI":"大安里","LIN":"4鄰","STREET":"大安街","SECT":" ","MAREA":" ","LANE":"８２巷","ALLEY":" ","HOUSE_NO":"１２號","E_COORD97":167259.07999999999,"N_COORD97":2547998.3300000001,"ADDRESS":"大安街８２巷１２號","OBJECTID":427676},"geometry":{"x":167259.08000000101,"y":2547998.3300000001}},{"attributes":{"ID":427702,"DIS_CODE":0,"TOWNNAME":"安南區","LI":"大安里","LIN":"4鄰","STREET":"大安街","SECT":" ","MAREA":" ","LANE":"８２巷","ALLEY":" ","HOUSE_NO":"１５號","E_COORD97":167283.64999999999,"N_COORD97":2548007.3399999999,"ADDRESS":"大安街８２巷１５號","OBJECTID":427677},"geometry":{"x":167283.65000000224,"y":2548007.3399999999}},{"attributes":{"ID":427703,"DIS_CODE":0,"TOWNNAME":"安南區","LI":"大安里","LIN":"4鄰","STREET":"大安街","SECT":" ","MAREA":" ","LANE":"８２巷","ALLEY":" ","HOUSE_NO":"１６號","E_COORD97":167270.89999999999,"N_COORD97":2547988.7400000002,"ADDRESS":"大安街８２巷１６號","OBJECTID":427678},"geometry":{"x":167270.9000000013,"y":2547988.7400000002}},{"attributes":{"ID":427704,"DIS_CODE":0,"TOWNNAME":"安南區","LI":"大安里","LIN":"4鄰","STREET":"大安街","SECT":" ","MAREA":" ","LANE":"８２巷","ALLEY":" ","HOUSE_NO":"１７號","E_COORD97":167289.39999999999,"N_COORD97":2548005.04,"ADDRESS":"大安街８２巷１７號","OBJECTID":427679},"geometry":{"x":167289.4000000013,"y":2548005.0399999991}},{"attributes":{"ID":427705,"DIS_CODE":0,"TOWNNAME":"安南區","LI":"大安里","LIN":"4鄰","STREET":"大安街","SECT":" ","MAREA":" ","LANE":"８２巷","ALLEY":" ","HOUSE_NO":"１８號","E_COORD97":167276.64000000001,"N_COORD97":2547987.0699999998,"ADDRESS":"大安街８２巷１８號","OBJECTID":427680},"geometry":{"x":167276.6400000006,"y":2547987.0700000003}},{"attributes":{"ID":427706,"DIS_CODE":0,"TOWNNAME":"安南區","LI":"大安里","LIN":"4鄰","STREET":"大安街","SECT":" ","MAREA":" ","LANE":"８２巷","ALLEY":" ","HOUSE_NO":"１９號","E_COORD97":167294.20000000001,"N_COORD97":2548001.21,"ADDRESS":"大安街８２巷１９號","OBJECTID":427681},"geometry":{"x":167294.20000000019,"y":2548001.2100000028}},{"attributes":{"ID":427707,"DIS_CODE":0,"TOWNNAME":"安南區","LI":"大安里","LIN":"4鄰","STREET":"大安街","SECT":" ","MAREA":" ","LANE":"８２巷","ALLEY":" ","HOUSE_NO":"１號","E_COORD97":167245.64999999999,"N_COORD97":2548028.4300000002,"ADDRESS":"大安街８２巷１號","OBJECTID":427682},"geometry":{"x":167245.65000000037,"y":2548028.4300000034}},{"attributes":{"ID":427708,"DIS_CODE":0,"TOWNNAME":"安南區","LI":"大安里","LIN":"4鄰","STREET":"大安街","SECT":" ","MAREA":" ","LANE":"８２巷","ALLEY":" ","HOUSE_NO":"２０號","E_COORD97":167280.54000000001,"N_COORD97":2547984.9100000001,"ADDRESS":"大安街８２巷２０號","OBJECTID":427683},"geometry":{"x":167280.54000000004,"y":2547984.9100000039}},{"attributes":{"ID":427709,"DIS_CODE":0,"TOWNNAME":"安南區","LI":"大安里","LIN":"4鄰","STREET":"大安街","SECT":" ","MAREA":" ","LANE":"８２巷","ALLEY":" ","HOUSE_NO":"２１號","E_COORD97":167299.38,"N_COORD97":2547996.9900000002,"ADDRESS":"大安街８２巷２１號","OBJECTID":427684},"geometry":{"x":167299.38000000082,"y":2547996.9900000002}},{"attributes":{"ID":427710,"DIS_CODE":0,"TOWNNAME":"安南區","LI":"大安里","LIN":"4鄰","STREET":"大安街","SECT":" ","MAREA":" ","LANE":"８２巷","ALLEY":" ","HOUSE_NO":"２２號","E_COORD97":167284.56,"N_COORD97":2547980.73,"ADDRESS":"大安街８２巷２２號","OBJECTID":427685},"geometry":{"x":167284.55999999959,"y":2547980.7300000023}},{"attributes":{"ID":427711,"DIS_CODE":0,"TOWNNAME":"安南區","LI":"大安里","LIN":"4鄰","STREET":"理安街","SECT":" ","MAREA":" ","LANE":"４４巷","ALLEY":" ","HOUSE_NO":"６號","E_COORD97":167340.10000000001,"N_COORD97":2547946.2000000002,"ADDRESS":"理安街４４巷６號","OBJECTID":427686},"geometry":{"x":167340.09999999963,"y":2547946.2000000011}},{"attributes":{"ID":427712,"DIS_CODE":0,"TOWNNAME":"白河區","LI":"外角里","LIN":"4鄰","STREET":"開明街","SECT":" ","MAREA":" ","LANE":"１２７巷","ALLEY":" ","HOUSE_NO":"１號","E_COORD97":190606.29999999999,"N_COORD97":2583149.4100000001,"ADDRESS":"開明街１２７巷１號","OBJECTID":427687},"geometry":{"x":190606.30000000168,"y":2583149.4100000001}},{"attributes":{"ID":427713,"DIS_CODE":0,"TOWNNAME":"白河區","LI":"外角里","LIN":"4鄰","STREET":"開明街","SECT":" ","MAREA":" ","LANE":"１２７巷","ALLEY":" ","HOUSE_NO":"２０號","E_COORD97":190567.57000000001,"N_COORD97":2583161.8300000001,"ADDRESS":"開明街１２７巷２０號","OBJECTID":427688},"geometry":{"x":190567.57000000216,"y":2583161.8300000019}},{"attributes":{"ID":427714,"DIS_CODE":0,"TOWNNAME":"白河區","LI":"外角里","LIN":"4鄰","STREET":"開明街","SECT":" ","MAREA":" ","LANE":"１２７巷","ALLEY":" ","HOUSE_NO":"２１號","E_COORD97":190568.13,"N_COORD97":2583149.79,"ADDRESS":"開明街１２７巷２１號","OBJECTID":427689},"geometry":{"x":190568.12999999989,"y":2583149.7900000028}},{"attributes":{"ID":427715,"DIS_CODE":0,"TOWNNAME":"白河區","LI":"外角里","LIN":"4鄰","STREET":"開明街","SECT":" ","MAREA":" ","LANE":"１２７巷","ALLEY":" ","HOUSE_NO":"２２號","E_COORD97":190562.23000000001,"N_COORD97":2583161.6499999999,"ADDRESS":"開明街１２７巷２２號","OBJECTID":427690},"geometry":{"x":190562.23000000138,"y":2583161.6500000004}},{"attributes":{"ID":427716,"DIS_CODE":0,"TOWNNAME":"白河區","LI":"外角里","LIN":"4鄰","STREET":"開明街","SECT":" ","MAREA":" ","LANE":"１２７巷","ALLEY":" ","HOUSE_NO":"２３號","E_COORD97":190565.03,"N_COORD97":2583149.3900000001,"ADDRESS":"開明街１２７巷２３號","OBJECTID":427691},"geometry":{"x":190565.03000000119,"y":2583149.3900000006}},{"attributes":{"ID":427717,"DIS_CODE":0,"TOWNNAME":"白河區","LI":"外角里","LIN":"4鄰","STREET":"開明街","SECT":" ","MAREA":" ","LANE":"１２７巷","ALLEY":" ","HOUSE_NO":"２５號","E_COORD97":190561.07999999999,"N_COORD97":2583149.4700000002,"ADDRESS":"開明街１２７巷２５號","OBJECTID":427692},"geometry":{"x":190561.08000000101,"y":2583149.4700000007}},{"attributes":{"ID":427718,"DIS_CODE":0,"TOWNNAME":"白河區","LI":"外角里","LIN":"4鄰","STREET":"開明街","SECT":" ","MAREA":" ","LANE":"１２７巷","ALLEY":" ","HOUSE_NO":"２７號","E_COORD97":190557.35000000001,"N_COORD97":2583149.3300000001,"ADDRESS":"開明街１２７巷２７號","OBJECTID":427693},"geometry":{"x":190557.35000000056,"y":2583149.3300000001}},{"attributes":{"ID":427719,"DIS_CODE":0,"TOWNNAME":"白河區","LI":"外角里","LIN":"4鄰","STREET":"開明街","SECT":" ","MAREA":" ","LANE":"１２７巷","ALLEY":" ","HOUSE_NO":"２９號","E_COORD97":190553.12,"N_COORD97":2583149.6600000001,"ADDRESS":"開明街１２７巷２９號","OBJECTID":427694},"geometry":{"x":190553.12000000011,"y":2583149.660000002}},{"attributes":{"ID":427720,"DIS_CODE":0,"TOWNNAME":"白河區","LI":"外角里","LIN":"4鄰","STREET":"開明街","SECT":" ","MAREA":" ","LANE":"１２７巷","ALLEY":" ","HOUSE_NO":"３號","E_COORD97":190602.47,"N_COORD97":2583149.4700000002,"ADDRESS":"開明街１２７巷３號","OBJECTID":427695},"geometry":{"x":190602.46999999974,"y":2583149.4700000007}},{"attributes":{"ID":427721,"DIS_CODE":0,"TOWNNAME":"白河區","LI":"外角里","LIN":"4鄰","STREET":"開明街","SECT":" ","MAREA":" ","LANE":"１２７巷","ALLEY":" ","HOUSE_NO":"５號","E_COORD97":190598.51999999999,"N_COORD97":2583149.46,"ADDRESS":"開明街１２７巷５號","OBJECTID":427696},"geometry":{"x":190598.51999999955,"y":2583149.4600000009}},{"attributes":{"ID":427722,"DIS_CODE":0,"TOWNNAME":"白河區","LI":"外角里","LIN":"4鄰","STREET":"開明街","SECT":" ","MAREA":" ","LANE":"１２７巷","ALLEY":" ","HOUSE_NO":"６號","E_COORD97":190608.76999999999,"N_COORD97":2583174.0800000001,"ADDRESS":"開明街１２７巷６號","OBJECTID":427697},"geometry":{"x":190608.76999999955,"y":2583174.0800000019}},{"attributes":{"ID":427723,"DIS_CODE":0,"TOWNNAME":"白河區","LI":"外角里","LIN":"4鄰","STREET":"開明街","SECT":" ","MAREA":" ","LANE":"１２７巷","ALLEY":" ","HOUSE_NO":"７號","E_COORD97":190595.72,"N_COORD97":2583149.5099999998,"ADDRESS":"開明街１２７巷７號","OBJECTID":427698},"geometry":{"x":190595.71999999974,"y":2583149.5100000016}},{"attributes":{"ID":427724,"DIS_CODE":0,"TOWNNAME":"白河區","LI":"外角里","LIN":"4鄰","STREET":"開明街","SECT":" ","MAREA":" ","LANE":"１２７巷","ALLEY":" ","HOUSE_NO":"９號","E_COORD97":190591.17000000001,"N_COORD97":2583149.3900000001,"ADDRESS":"開明街１２７巷９號","OBJECTID":427699},"geometry":{"x":190591.16999999993,"y":2583149.3900000006}},{"attributes":{"ID":427725,"DIS_CODE":0,"TOWNNAME":"白河區","LI":"外角里","LIN":"4鄰","STREET":"開明街","SECT":" ","MAREA":" ","LANE":"１７５巷","ALLEY":" ","HOUSE_NO":"１４號","E_COORD97":190571.16,"N_COORD97":2583121.23,"ADDRESS":"開明街１７５巷１４號","OBJECTID":427700},"geometry":{"x":190571.16000000015,"y":2583121.2300000042}},{"attributes":{"ID":427726,"DIS_CODE":0,"TOWNNAME":"白河區","LI":"外角里","LIN":"4鄰","STREET":"開明街","SECT":" ","MAREA":" ","LANE":"１７５巷","ALLEY":" ","HOUSE_NO":"１５號","E_COORD97":190575.98999999999,"N_COORD97":2583124.8300000001,"ADDRESS":"開明街１７５巷１５號","OBJECTID":427701},"geometry":{"x":190575.99000000022,"y":2583124.8300000019}},{"attributes":{"ID":427727,"DIS_CODE":0,"TOWNNAME":"白河區","LI":"外角里","LIN":"4鄰","STREET":"開明街","SECT":" ","MAREA":" ","LANE":"１７５巷","ALLEY":" ","HOUSE_NO":"１６號","E_COORD97":190580.51999999999,"N_COORD97":2583126.04,"ADDRESS":"開明街１７５巷１６號","OBJECTID":427702},"geometry":{"x":190580.51999999955,"y":2583126.0399999991}},{"attributes":{"ID":427728,"DIS_CODE":0,"TOWNNAME":"白河區","LI":"外角里","LIN":"4鄰","STREET":"開明街","SECT":" ","MAREA":" ","LANE":"１７５巷","ALLEY":" ","HOUSE_NO":"１７號","E_COORD97":190585.04000000001,"N_COORD97":2583126.25,"ADDRESS":"開明街１７５巷１７號","OBJECTID":427703},"geometry":{"x":190585.04000000097,"y":2583126.25}},{"attributes":{"ID":427729,"DIS_CODE":0,"TOWNNAME":"白河區","LI":"外角里","LIN":"4鄰","STREET":"開明街","SECT":" ","MAREA":" ","LANE":"１７５巷","ALLEY":" ","HOUSE_NO":"１８號","E_COORD97":190588.62,"N_COORD97":2583126.25,"ADDRESS":"開明街１７５巷１８號","OBJECTID":427704},"geometry":{"x":190588.62000000011,"y":2583126.25}},{"attributes":{"ID":427730,"DIS_CODE":0,"TOWNNAME":"白河區","LI":"外角里","LIN":"4鄰","STREET":"開明街","SECT":" ","MAREA":" ","LANE":"１７５巷","ALLEY":" ","HOUSE_NO":"１９號","E_COORD97":190594.81,"N_COORD97":2583127.4700000002,"ADDRESS":"開明街１７５巷１９號","OBJECTID":427705},"geometry":{"x":190594.81000000052,"y":2583127.4700000025}},{"attributes":{"ID":427731,"DIS_CODE":0,"TOWNNAME":"白河區","LI":"外角里","LIN":"4鄰","STREET":"開明街","SECT":" ","MAREA":" ","LANE":"１７５巷","ALLEY":" ","HOUSE_NO":"１號","E_COORD97":190537.67000000001,"N_COORD97":2583149.1600000001,"ADDRESS":"開明街１７５巷１號","OBJECTID":427706},"geometry":{"x":190537.67000000179,"y":2583149.160000002}},{"attributes":{"ID":427732,"DIS_CODE":0,"TOWNNAME":"白河區","LI":"外角里","LIN":"4鄰","STREET":"開明街","SECT":" ","MAREA":" ","LANE":"１７５巷","ALLEY":" ","HOUSE_NO":"２０號","E_COORD97":190601.12,"N_COORD97":2583129.3799999999,"ADDRESS":"開明街１７５巷２０號","OBJECTID":427707},"geometry":{"x":190601.12000000104,"y":2583129.3800000008}},{"attributes":{"ID":427733,"DIS_CODE":0,"TOWNNAME":"白河區","LI":"外角里","LIN":"4鄰","STREET":"開明街","SECT":" ","MAREA":" ","LANE":"１７５巷","ALLEY":" ","HOUSE_NO":"２１號","E_COORD97":190606.39000000001,"N_COORD97":2583129.3399999999,"ADDRESS":"開明街１７５巷２１號","OBJECTID":427708},"geometry":{"x":190606.38999999966,"y":2583129.3399999999}},{"attributes":{"ID":427734,"DIS_CODE":0,"TOWNNAME":"白河區","LI":"外角里","LIN":"4鄰","STREET":"開明街","SECT":" ","MAREA":" ","LANE":"１７５巷","ALLEY":" ","HOUSE_NO":"２號","E_COORD97":190539.17000000001,"N_COORD97":2583146.0800000001,"ADDRESS":"開明街１７５巷２號","OBJECTID":427709},"geometry":{"x":190539.16999999993,"y":2583146.0800000019}},{"attributes":{"ID":427735,"DIS_CODE":0,"TOWNNAME":"白河區","LI":"外角里","LIN":"4鄰","STREET":"開明街","SECT":" ","MAREA":" ","LANE":"１７５巷","ALLEY":" ","HOUSE_NO":"３號","E_COORD97":190538.82999999999,"N_COORD97":2583142.5,"ADDRESS":"開明街１７５巷３號","OBJECTID":427710},"geometry":{"x":190538.83000000101,"y":2583142.5000000037}},{"attributes":{"ID":427736,"DIS_CODE":0,"TOWNNAME":"白河區","LI":"外角里","LIN":"4鄰","STREET":"開明街","SECT":" ","MAREA":" ","LANE":"１７５巷","ALLEY":" ","HOUSE_NO":"４號","E_COORD97":190538.07999999999,"N_COORD97":2583137.5,"ADDRESS":"開明街１７５巷４號","OBJECTID":427711},"geometry":{"x":190538.08000000007,"y":2583137.5}},{"attributes":{"ID":427737,"DIS_CODE":0,"TOWNNAME":"白河區","LI":"外角里","LIN":"4鄰","STREET":"開明街","SECT":" ","MAREA":" ","LANE":"１７５巷","ALLEY":" ","HOUSE_NO":"６號","E_COORD97":190537.81,"N_COORD97":2583130.0299999998,"ADDRESS":"開明街１７５巷６號","OBJECTID":427712},"geometry":{"x":190537.80999999959,"y":2583130.0299999993}},{"attributes":{"ID":427738,"DIS_CODE":0,"TOWNNAME":"白河區","LI":"外角里","LIN":"4鄰","STREET":"開明街","SECT":" ","MAREA":" ","LANE":"１７５巷","ALLEY":" ","HOUSE_NO":"７號","E_COORD97":190537.26000000001,"N_COORD97":2583124.1499999999,"ADDRESS":"開明街１７５巷７號","OBJECTID":427713},"geometry":{"x":190537.26000000071,"y":2583124.1500000004}},{"attributes":{"ID":427739,"DIS_CODE":0,"TOWNNAME":"白河區","LI":"外角里","LIN":"4鄰","STREET":"開明街","SECT":" ","MAREA":" ","LANE":"１７５巷","ALLEY":" ","HOUSE_NO":"８號","E_COORD97":190537.67000000001,"N_COORD97":2583119.6899999999,"ADDRESS":"開明街１７５巷８號","OBJECTID":427714},"geometry":{"x":190537.67000000179,"y":2583119.6899999995}},{"attributes":{"ID":427740,"DIS_CODE":0,"TOWNNAME":"白河區","LI":"外角里","LIN":"4鄰","STREET":"開明街","SECT":" ","MAREA":" ","LANE":"１７５巷","ALLEY":" ","HOUSE_NO":"９號","E_COORD97":190551.94,"N_COORD97":2583120.0499999998,"ADDRESS":"開明街１７５巷９號","OBJECTID":427715},"geometry":{"x":190551.94000000134,"y":2583120.0500000026}},{"attributes":{"ID":427741,"DIS_CODE":0,"TOWNNAME":"善化區","LI":"光文里","LIN":"9鄰","STREET":"民生路","SECT":" ","MAREA":" ","LANE":"２２巷","ALLEY":" ","HOUSE_NO":"１１號","E_COORD97":178851.06,"N_COORD97":2559075.0800000001,"ADDRESS":"民生路２２巷１１號","OBJECTID":427716},"geometry":{"x":178851.05999999959,"y":2559075.0800000019}},{"attributes":{"ID":427742,"DIS_CODE":0,"TOWNNAME":"善化區","LI":"文正里","LIN":"11鄰","STREET":"光復路","SECT":" ","MAREA":" ","LANE":"８７６巷","ALLEY":" ","HOUSE_NO":"８號","E_COORD97":176883.73999999999,"N_COORD97":2559543.1000000001,"ADDRESS":"光復路８７６巷８號","OBJECTID":427717},"geometry":{"x":176883.74000000022,"y":2559543.0999999996}},{"attributes":{"ID":427743,"DIS_CODE":0,"TOWNNAME":"善化區","LI":"文正里","LIN":"11鄰","STREET":"光復路","SECT":" ","MAREA":" ","LANE":"８７６巷","ALLEY":" ","HOUSE_NO":"１０號","E_COORD97":176883.23000000001,"N_COORD97":2559535.9399999999,"ADDRESS":"光復路８７６巷１０號","OBJECTID":427718},"geometry":{"x":176883.23000000231,"y":2559535.9400000013}},{"attributes":{"ID":427744,"DIS_CODE":0,"TOWNNAME":"善化區","LI":"文正里","LIN":"11鄰","STREET":"光復路","SECT":" ","MAREA":" ","LANE":"８７６巷","ALLEY":" ","HOUSE_NO":"１２號","E_COORD97":176885.31,"N_COORD97":2559532.2000000002,"ADDRESS":"光復路８７６巷１２號","OBJECTID":427719},"geometry":{"x":176885.31000000052,"y":2559532.1999999993}},{"attributes":{"ID":427745,"DIS_CODE":0,"TOWNNAME":"善化區","LI":"文正里","LIN":"11鄰","STREET":"光復路","SECT":" ","MAREA":" ","LANE":"８７６巷","ALLEY":" ","HOUSE_NO":"１６號","E_COORD97":176879.92999999999,"N_COORD97":2559526.3199999998,"ADDRESS":"光復路８７６巷１６號","OBJECTID":427720},"geometry":{"x":176879.93000000063,"y":2559526.3200000003}},{"attributes":{"ID":427746,"DIS_CODE":0,"TOWNNAME":"善化區","LI":"文正里","LIN":"11鄰","STREET":"光復路","SECT":" ","MAREA":" ","LANE":"８７６巷","ALLEY":" ","HOUSE_NO":"１８號","E_COORD97":176883.10999999999,"N_COORD97":2559522.3700000001,"ADDRESS":"光復路８７６巷１８號","OBJECTID":427721},"geometry":{"x":176883.11000000034,"y":2559522.370000001}},{"attributes":{"ID":427747,"DIS_CODE":0,"TOWNNAME":"善化區","LI":"東關里","LIN":"4鄰","STREET":"裕德路","SECT":" ","MAREA":" ","LANE":"５８巷","ALLEY":" ","HOUSE_NO":"１號","E_COORD97":177418.18148200001,"N_COORD97":2559225.7269700002,"ADDRESS":"裕德路５８巷１號","OBJECTID":427722},"geometry":{"x":177418.18148200121,"y":2559225.7269700002}},{"attributes":{"ID":427748,"DIS_CODE":0,"TOWNNAME":"善化區","LI":"東關里","LIN":"4鄰","STREET":"裕德路","SECT":" ","MAREA":" ","LANE":"５８巷","ALLEY":" ","HOUSE_NO":"２號","E_COORD97":177414.24385599999,"N_COORD97":2559212.0136199999,"ADDRESS":"裕德路５８巷２號","OBJECTID":427723},"geometry":{"x":177414.24385600071,"y":2559212.0136159994}},{"attributes":{"ID":427749,"DIS_CODE":0,"TOWNNAME":"善化區","LI":"東關里","LIN":"4鄰","STREET":"裕德路","SECT":" ","MAREA":" ","LANE":"５８巷","ALLEY":" ","HOUSE_NO":"３號","E_COORD97":177425.38640600001,"N_COORD97":2559223.6103099999,"ADDRESS":"裕德路５８巷３號","OBJECTID":427724},"geometry":{"x":177425.3864060007,"y":2559223.6103050038}},{"attributes":{"ID":427750,"DIS_CODE":0,"TOWNNAME":"善化區","LI":"東關里","LIN":"4鄰","STREET":"裕德路","SECT":" ","MAREA":" ","LANE":"５８巷","ALLEY":" ","HOUSE_NO":"５號","E_COORD97":177432.10999999999,"N_COORD97":2559220.9100000001,"ADDRESS":"裕德路５８巷５號","OBJECTID":427725},"geometry":{"x":177432.11000000127,"y":2559220.9100000039}},{"attributes":{"ID":427751,"DIS_CODE":0,"TOWNNAME":"善化區","LI":"東關里","LIN":"4鄰","STREET":"裕德路","SECT":" ","MAREA":" ","LANE":"５８巷","ALLEY":" ","HOUSE_NO":"６號","E_COORD97":177421.02565,"N_COORD97":2559208.5211200002,"ADDRESS":"裕德路５８巷６號","OBJECTID":427726},"geometry":{"x":177421.02565000113,"y":2559208.521118002}},{"attributes":{"ID":427752,"DIS_CODE":0,"TOWNNAME":"善化區","LI":"東關里","LIN":"4鄰","STREET":"裕德路","SECT":" ","MAREA":" ","LANE":"５８巷","ALLEY":" ","HOUSE_NO":"７號","E_COORD97":177439.17000000001,"N_COORD97":2559219.5499999998,"ADDRESS":"裕德路５８巷７號","OBJECTID":427727},"geometry":{"x":177439.17000000086,"y":2559219.5500000007}},{"attributes":{"ID":427753,"DIS_CODE":0,"TOWNNAME":"善化區","LI":"東關里","LIN":"4鄰","STREET":"裕德路","SECT":" ","MAREA":" ","LANE":"５８巷","ALLEY":" ","HOUSE_NO":"８號","E_COORD97":177427.64000000001,"N_COORD97":2559205.8399999999,"ADDRESS":"裕德路５８巷８號","OBJECTID":427728},"geometry":{"x":177427.6400000006,"y":2559205.8399999999}},{"attributes":{"ID":427754,"DIS_CODE":0,"TOWNNAME":"善化區","LI":"東關里","LIN":"4鄰","STREET":"裕德路","SECT":" ","MAREA":" ","LANE":"５８巷","ALLEY":" ","HOUSE_NO":"９號","E_COORD97":177446.23999999999,"N_COORD97":2559218.1800000002,"ADDRESS":"裕德路５８巷９號","OBJECTID":427729},"geometry":{"x":177446.24000000115,"y":2559218.1799999978}},{"attributes":{"ID":427755,"DIS_CODE":0,"TOWNNAME":"善化區","LI":"東關里","LIN":"4鄰","STREET":"裕德路","SECT":" ","MAREA":" ","LANE":"５８巷","ALLEY":" ","HOUSE_NO":"１０號","E_COORD97":177434.73000000001,"N_COORD97":2559204.4700000002,"ADDRESS":"裕德路５８巷１０號","OBJECTID":427730},"geometry":{"x":177434.73000000138,"y":2559204.4700000025}},{"attributes":{"ID":427756,"DIS_CODE":0,"TOWNNAME":"善化區","LI":"東關里","LIN":"4鄰","STREET":"裕德路","SECT":" ","MAREA":" ","LANE":"５８巷","ALLEY":" ","HOUSE_NO":"１１號","E_COORD97":177453.31,"N_COORD97":2559216.8100000001,"ADDRESS":"裕德路５８巷１１號","OBJECTID":427731},"geometry":{"x":177453.31000000052,"y":2559216.8100000005}},{"attributes":{"ID":427757,"DIS_CODE":0,"TOWNNAME":"善化區","LI":"東關里","LIN":"4鄰","STREET":"裕德路","SECT":" ","MAREA":" ","LANE":"５８巷","ALLEY":" ","HOUSE_NO":"１２號","E_COORD97":177441.81,"N_COORD97":2559202.0099999998,"ADDRESS":"裕德路５８巷１２號","OBJECTID":427732},"geometry":{"x":177441.81000000052,"y":2559202.0099999998}},{"attributes":{"ID":427758,"DIS_CODE":0,"TOWNNAME":"善化區","LI":"東關里","LIN":"4鄰","STREET":"裕德路","SECT":" ","MAREA":" ","LANE":"５８巷","ALLEY":" ","HOUSE_NO":"１３號","E_COORD97":177460.38,"N_COORD97":2559215.4399999999,"ADDRESS":"裕德路５８巷１３號","OBJECTID":427733},"geometry":{"x":177460.38000000082,"y":2559215.4399999995}},{"attributes":{"ID":427759,"DIS_CODE":0,"TOWNNAME":"善化區","LI":"東關里","LIN":"4鄰","STREET":"裕德路","SECT":" ","MAREA":" ","LANE":"５８巷","ALLEY":" ","HOUSE_NO":"１５號","E_COORD97":177467.45000000001,"N_COORD97":2559214.0800000001,"ADDRESS":"裕德路５８巷１５號","OBJECTID":427734},"geometry":{"x":177467.45000000019,"y":2559214.0800000019}},{"attributes":{"ID":427760,"DIS_CODE":0,"TOWNNAME":"善化區","LI":"東關里","LIN":"4鄰","STREET":"裕德路","SECT":" ","MAREA":" ","LANE":"５８巷","ALLEY":" ","HOUSE_NO":"１６號","E_COORD97":177448.98000000001,"N_COORD97":2559200.6200000001,"ADDRESS":"裕德路５８巷１６號","OBJECTID":427735},"geometry":{"x":177448.98000000045,"y":2559200.6200000029}},{"attributes":{"ID":427761,"DIS_CODE":0,"TOWNNAME":"善化區","LI":"東關里","LIN":"4鄰","STREET":"裕德路","SECT":" ","MAREA":" ","LANE":"６０巷","ALLEY":" ","HOUSE_NO":"１９號","E_COORD97":177491.88,"N_COORD97":2559238.4399999999,"ADDRESS":"裕德路６０巷１９號","OBJECTID":427736},"geometry":{"x":177491.88000000175,"y":2559238.4399999995}},{"attributes":{"ID":427762,"DIS_CODE":0,"TOWNNAME":"善化區","LI":"東關里","LIN":"4鄰","STREET":"裕德路","SECT":" ","MAREA":" ","LANE":"６０巷","ALLEY":" ","HOUSE_NO":"２０號","E_COORD97":177472.63,"N_COORD97":2559223.9900000002,"ADDRESS":"裕德路６０巷２０號","OBJECTID":427737},"geometry":{"x":177472.62999999989,"y":2559223.9900000021}},{"attributes":{"ID":427763,"DIS_CODE":0,"TOWNNAME":"善化區","LI":"東關里","LIN":"4鄰","STREET":"裕德路","SECT":" ","MAREA":" ","LANE":"６０巷","ALLEY":" ","HOUSE_NO":"２１號","E_COORD97":177499,"N_COORD97":2559237.0600000001,"ADDRESS":"裕德路６０巷２１號","OBJECTID":427738},"geometry":{"x":177499,"y":2559237.0600000042}},{"attributes":{"ID":427764,"DIS_CODE":0,"TOWNNAME":"善化區","LI":"東關里","LIN":"4鄰","STREET":"裕德路","SECT":" ","MAREA":" ","LANE":"６０巷","ALLEY":" ","HOUSE_NO":"２２號","E_COORD97":177479.73999999999,"N_COORD97":2559222.6099999999,"ADDRESS":"裕德路６０巷２２號","OBJECTID":427739},"geometry":{"x":177479.74000000115,"y":2559222.6100000013}},{"attributes":{"ID":427765,"DIS_CODE":0,"TOWNNAME":"善化區","LI":"東關里","LIN":"4鄰","STREET":"裕德路","SECT":" ","MAREA":" ","LANE":"６０巷","ALLEY":" ","HOUSE_NO":"２３號","E_COORD97":177506.07000000001,"N_COORD97":2559235.6899999999,"ADDRESS":"裕德路６０巷２３號","OBJECTID":427740},"geometry":{"x":177506.06999999937,"y":2559235.6900000013}},{"attributes":{"ID":427766,"DIS_CODE":0,"TOWNNAME":"善化區","LI":"東關里","LIN":"4鄰","STREET":"裕德路","SECT":" ","MAREA":" ","LANE":"６０巷","ALLEY":" ","HOUSE_NO":"２５號","E_COORD97":177513.14000000001,"N_COORD97":2559234.3199999998,"ADDRESS":"裕德路６０巷２５號","OBJECTID":427741},"geometry":{"x":177513.13999999966,"y":2559234.3200000003}},{"attributes":{"ID":427767,"DIS_CODE":0,"TOWNNAME":"善化區","LI":"東關里","LIN":"4鄰","STREET":"裕德路","SECT":" ","MAREA":" ","LANE":"６０巷","ALLEY":" ","HOUSE_NO":"２６號","E_COORD97":177486.92999999999,"N_COORD97":2559221.2200000002,"ADDRESS":"裕德路６０巷２６號","OBJECTID":427742},"geometry":{"x":177486.93000000063,"y":2559221.2200000007}},{"attributes":{"ID":427768,"DIS_CODE":0,"TOWNNAME":"善化區","LI":"東關里","LIN":"4鄰","STREET":"裕德路","SECT":" ","MAREA":" ","LANE":"６０巷","ALLEY":" ","HOUSE_NO":"２７號","E_COORD97":177520.20999999999,"N_COORD97":2559232.96,"ADDRESS":"裕德路６０巷２７號","OBJECTID":427743},"geometry":{"x":177520.21000000183,"y":2559232.9600000028}},{"attributes":{"ID":427769,"DIS_CODE":0,"TOWNNAME":"善化區","LI":"東關里","LIN":"4鄰","STREET":"裕德路","SECT":" ","MAREA":" ","LANE":"６０巷","ALLEY":" ","HOUSE_NO":"２８號","E_COORD97":177494.07999999999,"N_COORD97":2559219.8399999999,"ADDRESS":"裕德路６０巷２８號","OBJECTID":427744},"geometry":{"x":177494.08000000194,"y":2559219.8399999999}},{"attributes":{"ID":427770,"DIS_CODE":0,"TOWNNAME":"善化區","LI":"東關里","LIN":"4鄰","STREET":"裕德路","SECT":" ","MAREA":" ","LANE":"６０巷","ALLEY":" ","HOUSE_NO":"４８號","E_COORD97":177553.82000000001,"N_COORD97":2559206.4700000002,"ADDRESS":"裕德路６０巷４８號","OBJECTID":427745},"geometry":{"x":177553.82000000123,"y":2559206.4700000007}},{"attributes":{"ID":427771,"DIS_CODE":0,"TOWNNAME":"東區","LI":"富裕里","LIN":"4鄰","STREET":"裕農路","SECT":" ","MAREA":" ","LANE":"４６巷","ALLEY":" ","HOUSE_NO":"４號","E_COORD97":170605.88,"N_COORD97":2542838.6600000001,"ADDRESS":"裕農路４６巷４號","OBJECTID":427746},"geometry":{"x":170605.88000000175,"y":2542838.6600000001}},{"attributes":{"ID":427772,"DIS_CODE":0,"TOWNNAME":"東區","LI":"富裕里","LIN":"4鄰","STREET":"裕農路","SECT":" ","MAREA":" ","LANE":"４６巷","ALLEY":" ","HOUSE_NO":"５號","E_COORD97":170608.89999999999,"N_COORD97":2542832.25,"ADDRESS":"裕農路４６巷５號","OBJECTID":427747},"geometry":{"x":170608.90000000037,"y":2542832.25}},{"attributes":{"ID":427773,"DIS_CODE":0,"TOWNNAME":"西港區","LI":"南海里","LIN":"4鄰","STREET":"慶安路","SECT":" ","MAREA":" ","LANE":"２２８巷","ALLEY":" ","HOUSE_NO":"１０號","E_COORD97":167712.5,"N_COORD97":2557839.8999999999,"ADDRESS":"慶安路２２８巷１０號","OBJECTID":427748},"geometry":{"x":167712.5,"y":2557839.9000000004}},{"attributes":{"ID":427774,"DIS_CODE":0,"TOWNNAME":"西港區","LI":"南海里","LIN":"4鄰","STREET":"慶安路","SECT":" ","MAREA":" ","LANE":"２２８巷","ALLEY":" ","HOUSE_NO":"１２號","E_COORD97":167712.44,"N_COORD97":2557844.0800000001,"ADDRESS":"慶安路２２８巷１２號","OBJECTID":427749},"geometry":{"x":167712.44000000227,"y":2557844.0800000019}},{"attributes":{"ID":427775,"DIS_CODE":0,"TOWNNAME":"西港區","LI":"南海里","LIN":"4鄰","STREET":"慶安路","SECT":" ","MAREA":" ","LANE":"２２８巷","ALLEY":" ","HOUSE_NO":"１４號","E_COORD97":167712.29000000001,"N_COORD97":2557848.2400000002,"ADDRESS":"慶安路２２８巷１４號","OBJECTID":427750},"geometry":{"x":167712.29000000004,"y":2557848.2400000002}},{"attributes":{"ID":427776,"DIS_CODE":0,"TOWNNAME":"西港區","LI":"南海里","LIN":"4鄰","STREET":"慶安路","SECT":" ","MAREA":" ","LANE":"２２８巷","ALLEY":" ","HOUSE_NO":"１６號","E_COORD97":167712.14999999999,"N_COORD97":2557852.2200000002,"ADDRESS":"慶安路２２８巷１６號","OBJECTID":427751},"geometry":{"x":167712.15000000037,"y":2557852.2200000007}},{"attributes":{"ID":427777,"DIS_CODE":0,"TOWNNAME":"西港區","LI":"南海里","LIN":"4鄰","STREET":"慶安路","SECT":" ","MAREA":" ","LANE":"２２８巷","ALLEY":" ","HOUSE_NO":"１８號","E_COORD97":167712.22,"N_COORD97":2557856.2999999998,"ADDRESS":"慶安路２２８巷１８號","OBJECTID":427752},"geometry":{"x":167712.22000000067,"y":2557856.3000000026}},{"attributes":{"ID":427778,"DIS_CODE":0,"TOWNNAME":"西港區","LI":"南海里","LIN":"4鄰","STREET":"慶安路","SECT":" ","MAREA":" ","LANE":"２２８巷","ALLEY":" ","HOUSE_NO":"２０號","E_COORD97":167712.19,"N_COORD97":2557860.1800000002,"ADDRESS":"慶安路２２８巷２０號","OBJECTID":427753},"geometry":{"x":167712.19000000041,"y":2557860.1800000016}},{"attributes":{"ID":427779,"DIS_CODE":0,"TOWNNAME":"西港區","LI":"南海里","LIN":"4鄰","STREET":"慶安路","SECT":" ","MAREA":" ","LANE":"２２８巷","ALLEY":" ","HOUSE_NO":"２２號","E_COORD97":167711.82999999999,"N_COORD97":2557864.7599999998,"ADDRESS":"慶安路２２８巷２２號","OBJECTID":427754},"geometry":{"x":167711.83000000101,"y":2557864.7599999998}},{"attributes":{"ID":427780,"DIS_CODE":0,"TOWNNAME":"西港區","LI":"南海里","LIN":"4鄰","STREET":"慶安路","SECT":" ","MAREA":" ","LANE":"２２８巷","ALLEY":" ","HOUSE_NO":"２８號","E_COORD97":167713.97,"N_COORD97":2557885.1299999999,"ADDRESS":"慶安路２２８巷２８號","OBJECTID":427755},"geometry":{"x":167713.97000000067,"y":2557885.129999999}},{"attributes":{"ID":427781,"DIS_CODE":0,"TOWNNAME":"西港區","LI":"南海里","LIN":"4鄰","STREET":"慶安路","SECT":" ","MAREA":" ","LANE":"２２８巷","ALLEY":" ","HOUSE_NO":"２號","E_COORD97":167712.91,"N_COORD97":2557824.3599999999,"ADDRESS":"慶安路２２８巷２號","OBJECTID":427756},"geometry":{"x":167712.91000000108,"y":2557824.3600000013}},{"attributes":{"ID":427782,"DIS_CODE":0,"TOWNNAME":"西港區","LI":"南海里","LIN":"4鄰","STREET":"慶安路","SECT":" ","MAREA":" ","LANE":"２２８巷","ALLEY":" ","HOUSE_NO":"３０號","E_COORD97":167713.69,"N_COORD97":2557889.2200000002,"ADDRESS":"慶安路２２８巷３０號","OBJECTID":427757},"geometry":{"x":167713.69000000041,"y":2557889.2200000007}},{"attributes":{"ID":427783,"DIS_CODE":0,"TOWNNAME":"西港區","LI":"南海里","LIN":"4鄰","STREET":"慶安路","SECT":" ","MAREA":" ","LANE":"２２８巷","ALLEY":" ","HOUSE_NO":"３２號","E_COORD97":167713.23999999999,"N_COORD97":2557893.3599999999,"ADDRESS":"慶安路２２８巷３２號","OBJECTID":427758},"geometry":{"x":167713.24000000022,"y":2557893.3599999994}},{"attributes":{"ID":427784,"DIS_CODE":0,"TOWNNAME":"西港區","LI":"南海里","LIN":"4鄰","STREET":"慶安路","SECT":" ","MAREA":" ","LANE":"２２８巷","ALLEY":" ","HOUSE_NO":"３４號","E_COORD97":167713.04999999999,"N_COORD97":2557897.2799999998,"ADDRESS":"慶安路２２８巷３４號","OBJECTID":427759},"geometry":{"x":167713.05000000075,"y":2557897.2799999993}},{"attributes":{"ID":427785,"DIS_CODE":0,"TOWNNAME":"西港區","LI":"南海里","LIN":"4鄰","STREET":"慶安路","SECT":" ","MAREA":" ","LANE":"２２８巷","ALLEY":" ","HOUSE_NO":"３６號","E_COORD97":167712.54999999999,"N_COORD97":2557901.3599999999,"ADDRESS":"慶安路２２８巷３６號","OBJECTID":427760},"geometry":{"x":167712.54999999888,"y":2557901.3600000031}},{"attributes":{"ID":427786,"DIS_CODE":0,"TOWNNAME":"西港區","LI":"南海里","LIN":"4鄰","STREET":"慶安路","SECT":" ","MAREA":" ","LANE":"２２８巷","ALLEY":" ","HOUSE_NO":"３８號","E_COORD97":167712.37,"N_COORD97":2557905.3500000001,"ADDRESS":"慶安路２２８巷３８號","OBJECTID":427761},"geometry":{"x":167712.37000000011,"y":2557905.3500000034}},{"attributes":{"ID":427787,"DIS_CODE":0,"TOWNNAME":"西港區","LI":"南海里","LIN":"4鄰","STREET":"慶安路","SECT":" ","MAREA":" ","LANE":"２２８巷","ALLEY":" ","HOUSE_NO":"４０號","E_COORD97":167712.12,"N_COORD97":2557909.3100000001,"ADDRESS":"慶安路２２８巷４０號","OBJECTID":427762},"geometry":{"x":167712.12000000011,"y":2557909.3100000005}},{"attributes":{"ID":427788,"DIS_CODE":0,"TOWNNAME":"西港區","LI":"南海里","LIN":"4鄰","STREET":"慶安路","SECT":" ","MAREA":" ","LANE":"２３６巷","ALLEY":" ","HOUSE_NO":"７３號","E_COORD97":167045.26999999999,"N_COORD97":2557653.2200000002,"ADDRESS":"慶安路２３６巷７３號","OBJECTID":427763},"geometry":{"x":167045.27000000048,"y":2557653.2200000025}},{"attributes":{"ID":427789,"DIS_CODE":0,"TOWNNAME":"南區","LI":"明德里","LIN":"4鄰","STREET":"大成路","SECT":"一段","MAREA":" ","LANE":"１９３巷","ALLEY":" ","HOUSE_NO":"１９０號","E_COORD97":168006.89999999999,"N_COORD97":2541603.7599999998,"ADDRESS":"大成路一段１９３巷１９０號","OBJECTID":427764},"geometry":{"x":168006.90000000037,"y":2541603.7599999998}},{"attributes":{"ID":427790,"DIS_CODE":0,"TOWNNAME":"南區","LI":"明德里","LIN":"4鄰","STREET":"大成路","SECT":"一段","MAREA":" ","LANE":"１９３巷","ALLEY":" ","HOUSE_NO":"１９１號","E_COORD97":168014.51999999999,"N_COORD97":2541604.0800000001,"ADDRESS":"大成路一段１９３巷１９１號","OBJECTID":427765},"geometry":{"x":168014.52000000048,"y":2541604.0800000019}},{"attributes":{"ID":427791,"DIS_CODE":0,"TOWNNAME":"南區","LI":"明德里","LIN":"4鄰","STREET":"大成路","SECT":"一段","MAREA":" ","LANE":"１９３巷","ALLEY":" ","HOUSE_NO":"１９２號","E_COORD97":168032.29999999999,"N_COORD97":2541604.23,"ADDRESS":"大成路一段１９３巷１９２號","OBJECTID":427766},"geometry":{"x":168032.29999999981,"y":2541604.2300000004}},{"attributes":{"ID":427792,"DIS_CODE":0,"TOWNNAME":"南區","LI":"明德里","LIN":"4鄰","STREET":"大成路","SECT":"一段","MAREA":" ","LANE":"１９３巷","ALLEY":" ","HOUSE_NO":"１９３號","E_COORD97":168039.92000000001,"N_COORD97":2541604.5499999998,"ADDRESS":"大成路一段１９３巷１９３號","OBJECTID":427767},"geometry":{"x":168039.92000000086,"y":2541604.5500000026}},{"attributes":{"ID":427793,"DIS_CODE":0,"TOWNNAME":"南區","LI":"明德里","LIN":"4鄰","STREET":"大成路","SECT":"一段","MAREA":" ","LANE":"１９３巷","ALLEY":" ","HOUSE_NO":"２１７號","E_COORD97":168040.07000000001,"N_COORD97":2541587.48,"ADDRESS":"大成路一段１９３巷２１７號","OBJECTID":427768},"geometry":{"x":168040.0700000003,"y":2541587.4800000023}},{"attributes":{"ID":427794,"DIS_CODE":0,"TOWNNAME":"南區","LI":"明德里","LIN":"4鄰","STREET":"大成路","SECT":"一段","MAREA":" ","LANE":"１９３巷","ALLEY":" ","HOUSE_NO":"２１４號","E_COORD97":168007.69,"N_COORD97":2541586.2200000002,"ADDRESS":"大成路一段１９３巷２１４號","OBJECTID":427769},"geometry":{"x":168007.69000000134,"y":2541586.2200000025}},{"attributes":{"ID":427795,"DIS_CODE":0,"TOWNNAME":"南區","LI":"明德里","LIN":"4鄰","STREET":"大成路","SECT":"一段","MAREA":" ","LANE":"１９３巷","ALLEY":" ","HOUSE_NO":"２１５號","E_COORD97":168014.67000000001,"N_COORD97":2541586.6899999999,"ADDRESS":"大成路一段１９３巷２１５號","OBJECTID":427770},"geometry":{"x":168014.66999999993,"y":2541586.6899999995}},{"attributes":{"ID":427796,"DIS_CODE":0,"TOWNNAME":"南區","LI":"明德里","LIN":"4鄰","STREET":"大成路","SECT":"一段","MAREA":" ","LANE":"１９３巷","ALLEY":" ","HOUSE_NO":"２１６號","E_COORD97":168032.92999999999,"N_COORD97":2541587.3199999998,"ADDRESS":"大成路一段１９３巷２１６號","OBJECTID":427771},"geometry":{"x":168032.9299999997,"y":2541587.3200000003}},{"attributes":{"ID":427797,"DIS_CODE":0,"TOWNNAME":"南區","LI":"明德里","LIN":"4鄰","STREET":"大成路","SECT":"一段","MAREA":" ","LANE":"１９３巷","ALLEY":" ","HOUSE_NO":"２００號","E_COORD97":167934.89000000001,"N_COORD97":2541551.7400000002,"ADDRESS":"大成路一段１９３巷２００號","OBJECTID":427772},"geometry":{"x":167934.88999999966,"y":2541551.7400000021}},{"attributes":{"ID":427798,"DIS_CODE":0,"TOWNNAME":"南區","LI":"明德里","LIN":"4鄰","STREET":"大成路","SECT":"一段","MAREA":" ","LANE":"１９３巷","ALLEY":" ","HOUSE_NO":"１６５號之２","E_COORD97":168020.07000000001,"N_COORD97":2541614,"ADDRESS":"大成路一段１９３巷１６５號之２","OBJECTID":427773},"geometry":{"x":168020.07000000123,"y":2541614.0000000019}},{"attributes":{"ID":427799,"DIS_CODE":0,"TOWNNAME":"安南區","LI":"溪頂里","LIN":"4鄰","STREET":"府安路","SECT":"四段","MAREA":" ","LANE":"１２１巷","ALLEY":" ","HOUSE_NO":"１５號","E_COORD97":168960.03,"N_COORD97":2547318.3100000001,"ADDRESS":"府安路四段１２１巷１５號","OBJECTID":427774},"geometry":{"x":168960.03000000119,"y":2547318.3100000042}},{"attributes":{"ID":427800,"DIS_CODE":0,"TOWNNAME":"安南區","LI":"溪頂里","LIN":"4鄰","STREET":"府安路","SECT":"四段","MAREA":" ","LANE":"１２１巷","ALLEY":" ","HOUSE_NO":"１６號","E_COORD97":168985,"N_COORD97":2547319.4700000002,"ADDRESS":"府安路四段１２１巷１６號","OBJECTID":427775},"geometry":{"x":168985.00000000093,"y":2547319.4700000007}},{"attributes":{"ID":427801,"DIS_CODE":0,"TOWNNAME":"安南區","LI":"溪頂里","LIN":"4鄰","STREET":"府安路","SECT":"四段","MAREA":" ","LANE":"１２１巷","ALLEY":" ","HOUSE_NO":"１７號","E_COORD97":168959.17999999999,"N_COORD97":2547323.3199999998,"ADDRESS":"府安路四段１２１巷１７號","OBJECTID":427776},"geometry":{"x":168959.1799999997,"y":2547323.3200000003}},{"attributes":{"ID":427802,"DIS_CODE":0,"TOWNNAME":"安南區","LI":"溪頂里","LIN":"4鄰","STREET":"府安路","SECT":"四段","MAREA":" ","LANE":"１２１巷","ALLEY":" ","HOUSE_NO":"１８號","E_COORD97":168984.04999999999,"N_COORD97":2547323.8100000001,"ADDRESS":"府安路四段１２１巷１８號","OBJECTID":427777},"geometry":{"x":168984.05000000168,"y":2547323.8100000005}},{"attributes":{"ID":427803,"DIS_CODE":0,"TOWNNAME":"安南區","LI":"溪頂里","LIN":"4鄰","STREET":"府安路","SECT":"四段","MAREA":" ","LANE":"１２１巷","ALLEY":" ","HOUSE_NO":"１號","E_COORD97":168966.01000000001,"N_COORD97":2547288.25,"ADDRESS":"府安路四段１２１巷１號","OBJECTID":427778},"geometry":{"x":168966.01000000071,"y":2547288.2500000019}},{"attributes":{"ID":427804,"DIS_CODE":0,"TOWNNAME":"安南區","LI":"溪頂里","LIN":"4鄰","STREET":"府安路","SECT":"四段","MAREA":" ","LANE":"１２１巷","ALLEY":" ","HOUSE_NO":"２０號","E_COORD97":168982.95999999999,"N_COORD97":2547327.6000000001,"ADDRESS":"府安路四段１２１巷２０號","OBJECTID":427779},"geometry":{"x":168982.95999999996,"y":2547327.5999999996}},{"attributes":{"ID":427805,"DIS_CODE":0,"TOWNNAME":"安南區","LI":"溪頂里","LIN":"4鄰","STREET":"府安路","SECT":"四段","MAREA":" ","LANE":"１２１巷","ALLEY":" ","HOUSE_NO":"３號","E_COORD97":168964.76000000001,"N_COORD97":2547292.2799999998,"ADDRESS":"府安路四段１２１巷３號","OBJECTID":427780},"geometry":{"x":168964.76000000071,"y":2547292.2799999993}},{"attributes":{"ID":427806,"DIS_CODE":0,"TOWNNAME":"安南區","LI":"溪頂里","LIN":"4鄰","STREET":"府安路","SECT":"四段","MAREA":" ","LANE":"１２１巷","ALLEY":" ","HOUSE_NO":"５號","E_COORD97":168963.89999999999,"N_COORD97":2547296.2799999998,"ADDRESS":"府安路四段１２１巷５號","OBJECTID":427781},"geometry":{"x":168963.9000000013,"y":2547296.2799999993}},{"attributes":{"ID":427807,"DIS_CODE":0,"TOWNNAME":"安南區","LI":"溪頂里","LIN":"4鄰","STREET":"府安路","SECT":"四段","MAREA":" ","LANE":"１２１巷","ALLEY":" ","HOUSE_NO":"６號","E_COORD97":168989.73999999999,"N_COORD97":2547297.5299999998,"ADDRESS":"府安路四段１２１巷６號","OBJECTID":427782},"geometry":{"x":168989.74000000022,"y":2547297.5299999993}},{"attributes":{"ID":427808,"DIS_CODE":0,"TOWNNAME":"安南區","LI":"溪頂里","LIN":"4鄰","STREET":"府安路","SECT":"四段","MAREA":" ","LANE":"１２１巷","ALLEY":" ","HOUSE_NO":"７號","E_COORD97":168963.76000000001,"N_COORD97":2547301.4300000002,"ADDRESS":"府安路四段１２１巷７號","OBJECTID":427783},"geometry":{"x":168963.75999999978,"y":2547301.4299999997}},{"attributes":{"ID":427809,"DIS_CODE":0,"TOWNNAME":"安南區","LI":"溪頂里","LIN":"4鄰","STREET":"府安路","SECT":"四段","MAREA":" ","LANE":"１２１巷","ALLEY":" ","HOUSE_NO":"９號","E_COORD97":168962.17999999999,"N_COORD97":2547305.4399999999,"ADDRESS":"府安路四段１２１巷９號","OBJECTID":427784},"geometry":{"x":168962.1799999997,"y":2547305.4399999995}},{"attributes":{"ID":427810,"DIS_CODE":0,"TOWNNAME":"東區","LI":"泉南里","LIN":"4鄰","STREET":"東門路","SECT":"一段","MAREA":" ","LANE":"１７２巷","ALLEY":" ","HOUSE_NO":"１１號","E_COORD97":169536.95000000001,"N_COORD97":2543090.6299999999,"ADDRESS":"東門路一段１７２巷１１號","OBJECTID":427785},"geometry":{"x":169536.95000000019,"y":2543090.6300000008}},{"attributes":{"ID":427811,"DIS_CODE":0,"TOWNNAME":"東區","LI":"泉南里","LIN":"4鄰","STREET":"東門路","SECT":"一段","MAREA":" ","LANE":"１７２巷","ALLEY":" ","HOUSE_NO":"１３號","E_COORD97":169534.20000000001,"N_COORD97":2543087.7599999998,"ADDRESS":"東門路一段１７２巷１３號","OBJECTID":427786},"geometry":{"x":169534.20000000019,"y":2543087.7600000016}},{"attributes":{"ID":427812,"DIS_CODE":0,"TOWNNAME":"東區","LI":"泉南里","LIN":"4鄰","STREET":"東門路","SECT":"一段","MAREA":" ","LANE":"１７２巷","ALLEY":" ","HOUSE_NO":"１５號","E_COORD97":169531.98000000001,"N_COORD97":2543082.7999999998,"ADDRESS":"東門路一段１７２巷１５號","OBJECTID":427787},"geometry":{"x":169531.98000000045,"y":2543082.8000000007}},{"attributes":{"ID":427813,"DIS_CODE":0,"TOWNNAME":"東區","LI":"泉南里","LIN":"4鄰","STREET":"東門路","SECT":"一段","MAREA":" ","LANE":"１７２巷","ALLEY":" ","HOUSE_NO":"１７號","E_COORD97":169529.37,"N_COORD97":2543078.8900000001,"ADDRESS":"東門路一段１７２巷１７號","OBJECTID":427788},"geometry":{"x":169529.37000000011,"y":2543078.8900000006}},{"attributes":{"ID":427814,"DIS_CODE":0,"TOWNNAME":"東區","LI":"泉南里","LIN":"4鄰","STREET":"東門路","SECT":"一段","MAREA":" ","LANE":"１７２巷","ALLEY":" ","HOUSE_NO":"１９號","E_COORD97":169528.32000000001,"N_COORD97":2543074.3199999998,"ADDRESS":"東門路一段１７２巷１９號","OBJECTID":427789},"geometry":{"x":169528.3200000003,"y":2543074.3200000022}},{"attributes":{"ID":427815,"DIS_CODE":0,"TOWNNAME":"東區","LI":"泉南里","LIN":"4鄰","STREET":"東門路","SECT":"一段","MAREA":" ","LANE":"１７２巷","ALLEY":" ","HOUSE_NO":"２號","E_COORD97":169534.14000000001,"N_COORD97":2543108.3300000001,"ADDRESS":"東門路一段１７２巷２號","OBJECTID":427790},"geometry":{"x":169534.13999999873,"y":2543108.3300000019}},{"attributes":{"ID":427816,"DIS_CODE":0,"TOWNNAME":"東區","LI":"泉南里","LIN":"4鄰","STREET":"東門路","SECT":"一段","MAREA":" ","LANE":"１７２巷","ALLEY":" ","HOUSE_NO":"３號","E_COORD97":169542.92999999999,"N_COORD97":2543107.9500000002,"ADDRESS":"東門路一段１７２巷３號","OBJECTID":427791},"geometry":{"x":169542.93000000063,"y":2543107.9499999993}},{"attributes":{"ID":427817,"DIS_CODE":0,"TOWNNAME":"東區","LI":"泉南里","LIN":"4鄰","STREET":"東門路","SECT":"一段","MAREA":" ","LANE":"１７２巷","ALLEY":" ","HOUSE_NO":"５號","E_COORD97":169542.04999999999,"N_COORD97":2543103.5600000001,"ADDRESS":"東門路一段１７２巷５號","OBJECTID":427792},"geometry":{"x":169542.05000000075,"y":2543103.5600000024}},{"attributes":{"ID":427818,"DIS_CODE":0,"TOWNNAME":"東區","LI":"泉南里","LIN":"4鄰","STREET":"東門路","SECT":"一段","MAREA":" ","LANE":"１７２巷","ALLEY":" ","HOUSE_NO":"７號","E_COORD97":169540.73000000001,"N_COORD97":2543098.8599999999,"ADDRESS":"東門路一段１７２巷７號","OBJECTID":427793},"geometry":{"x":169540.73000000045,"y":2543098.8600000031}},{"attributes":{"ID":427819,"DIS_CODE":0,"TOWNNAME":"東區","LI":"泉南里","LIN":"4鄰","STREET":"東門路","SECT":"一段","MAREA":" ","LANE":"１７２巷","ALLEY":" ","HOUSE_NO":"９號","E_COORD97":169537.85999999999,"N_COORD97":2543094.29,"ADDRESS":"東門路一段１７２巷９號","OBJECTID":427794},"geometry":{"x":169537.86000000034,"y":2543094.2899999991}},{"attributes":{"ID":427820,"DIS_CODE":0,"TOWNNAME":"東區","LI":"和平里","LIN":"4鄰","STREET":"東門路","SECT":"三段","MAREA":" ","LANE":"３３８巷","ALLEY":" ","HOUSE_NO":"２０號","E_COORD97":171838.48999999999,"N_COORD97":2541629.1899999999,"ADDRESS":"東門路三段３３８巷２０號","OBJECTID":427795},"geometry":{"x":171838.49000000115,"y":2541629.1900000013}},{"attributes":{"ID":427821,"DIS_CODE":0,"TOWNNAME":"東區","LI":"和平里","LIN":"4鄰","STREET":"東門路","SECT":"三段","MAREA":" ","LANE":"３３８巷","ALLEY":" ","HOUSE_NO":"３０號","E_COORD97":171843.97,"N_COORD97":2541563.3300000001,"ADDRESS":"東門路三段３３８巷３０號","OBJECTID":427796},"geometry":{"x":171843.96999999974,"y":2541563.3300000001}},{"attributes":{"ID":427822,"DIS_CODE":0,"TOWNNAME":"東區","LI":"和平里","LIN":"4鄰","STREET":"東門路","SECT":"三段","MAREA":" ","LANE":"３３８巷","ALLEY":" ","HOUSE_NO":"６號","E_COORD97":171827.60999999999,"N_COORD97":2541737.2599999998,"ADDRESS":"東門路三段３３８巷６號","OBJECTID":427797},"geometry":{"x":171827.61000000127,"y":2541737.2600000035}},{"attributes":{"ID":427823,"DIS_CODE":0,"TOWNNAME":"東區","LI":"虎尾里","LIN":"4鄰","STREET":"東門路","SECT":"三段","MAREA":" ","LANE":"１７９巷","ALLEY":" ","HOUSE_NO":"４９號","E_COORD97":171537.31,"N_COORD97":2542050.4100000001,"ADDRESS":"東門路三段１７９巷４９號","OBJECTID":427798},"geometry":{"x":171537.31000000052,"y":2542050.4100000001}},{"attributes":{"ID":427824,"DIS_CODE":0,"TOWNNAME":"東區","LI":"虎尾里","LIN":"4鄰","STREET":"東門路","SECT":"三段","MAREA":" ","LANE":"１７９巷","ALLEY":" ","HOUSE_NO":"５１號","E_COORD97":171541.07000000001,"N_COORD97":2542051.2599999998,"ADDRESS":"東門路三段１７９巷５１號","OBJECTID":427799},"geometry":{"x":171541.07000000123,"y":2542051.2599999998}},{"attributes":{"ID":427825,"DIS_CODE":0,"TOWNNAME":"東區","LI":"虎尾里","LIN":"4鄰","STREET":"東門路","SECT":"三段","MAREA":" ","LANE":"１７９巷","ALLEY":" ","HOUSE_NO":"５３號","E_COORD97":171545.34,"N_COORD97":2542052.2799999998,"ADDRESS":"東門路三段１７９巷５３號","OBJECTID":427800},"geometry":{"x":171545.34000000171,"y":2542052.2800000012}}]}