{"displayFieldName":"TOWNNAME","fieldAliases":{"ID":"ID","DIS_CODE":"DIS_CODE","TOWNNAME":"TOWNNAME","LI":"LI","LIN":"LIN","STREET":"STREET","SECT":"SECT","MAREA":"MAREA","LANE":"LANE","ALLEY":"ALLEY","HOUSE_NO":"HOUSE_NO","E_COORD97":"E_COORD97","N_COORD97":"N_COORD97","ADDRESS":"ADDRESS","OBJECTID":"OBJECTID"},"geometryType":"esriGeometryPoint","spatialReference":{"wkid":102443,"latestWkid":3826},"fields":[{"name":"ID","type":"esriFieldTypeDouble","alias":"ID"},{"name":"DIS_CODE","type":"esriFieldTypeInteger","alias":"DIS_CODE"},{"name":"TOWNNAME","type":"esriFieldTypeString","alias":"TOWNNAME","length":8},{"name":"LI","type":"esriFieldTypeString","alias":"LI","length":8},{"name":"LIN","type":"esriFieldTypeString","alias":"LIN","length":12},{"name":"STREET","type":"esriFieldTypeString","alias":"STREET","length":20},{"name":"SECT","type":"esriFieldTypeString","alias":"SECT","length":8},{"name":"MAREA","type":"esriFieldTypeString","alias":"MAREA","length":12},{"name":"LANE","type":"esriFieldTypeString","alias":"LANE","length":10},{"name":"ALLEY","type":"esriFieldTypeString","alias":"ALLEY","length":10},{"name":"HOUSE_NO","type":"esriFieldTypeString","alias":"HOUSE_NO","length":20},{"name":"E_COORD97","type":"esriFieldTypeDouble","alias":"E_COORD97"},{"name":"N_COORD97","type":"esriFieldTypeDouble","alias":"N_COORD97"},{"name":"ADDRESS","type":"esriFieldTypeString","alias":"ADDRESS","length":50},{"name":"OBJECTID","type":"esriFieldTypeOID","alias":"OBJECTID"}],"features":[{"attributes":{"ID":307609,"DIS_CODE":0,"TOWNNAME":"永康區","LI":"埔園里","LIN":"8鄰","STREET":"中山路","SECT":" ","MAREA":" ","LANE":"１０１巷","ALLEY":" ","HOUSE_NO":"３號","E_COORD97":173719.95000000001,"N_COORD97":2547798.5,"ADDRESS":"中山路１０１巷３號","OBJECTID":307601},"geometry":{"x":173719.95000000205,"y":2547798.5000000019}},{"attributes":{"ID":307610,"DIS_CODE":0,"TOWNNAME":"永康區","LI":"埔園里","LIN":"8鄰","STREET":"中山路","SECT":" ","MAREA":" ","LANE":"８１巷","ALLEY":" ","HOUSE_NO":"８號","E_COORD97":173720.63,"N_COORD97":2547770.75,"ADDRESS":"中山路８１巷８號","OBJECTID":307602},"geometry":{"x":173720.63000000082,"y":2547770.75}},{"attributes":{"ID":307611,"DIS_CODE":0,"TOWNNAME":"永康區","LI":"甲頂里","LIN":"8鄰","STREET":"中華路","SECT":" ","MAREA":" ","LANE":"８９５巷","ALLEY":" ","HOUSE_NO":"１５號","E_COORD97":170435.76000000001,"N_COORD97":2546659.3599999999,"ADDRESS":"中華路８９５巷１５號","OBJECTID":307603},"geometry":{"x":170435.76000000071,"y":2546659.3600000013}},{"attributes":{"ID":307612,"DIS_CODE":0,"TOWNNAME":"永康區","LI":"西勢里","LIN":"8鄰","STREET":"富強路","SECT":"一段","MAREA":" ","LANE":"３０６巷","ALLEY":" ","HOUSE_NO":"５號","E_COORD97":175757.73000000001,"N_COORD97":2546659.0299999998,"ADDRESS":"富強路一段３０６巷５號","OBJECTID":307604},"geometry":{"x":175757.73000000138,"y":2546659.0300000012}},{"attributes":{"ID":307613,"DIS_CODE":0,"TOWNNAME":"永康區","LI":"西勢里","LIN":"8鄰","STREET":"富強路","SECT":"一段","MAREA":" ","LANE":"３０６巷","ALLEY":" ","HOUSE_NO":"２２號","E_COORD97":175794.67999999999,"N_COORD97":2546643.5299999998,"ADDRESS":"富強路一段３０６巷２２號","OBJECTID":307605},"geometry":{"x":175794.68000000063,"y":2546643.5299999993}},{"attributes":{"ID":307614,"DIS_CODE":0,"TOWNNAME":"永康區","LI":"西灣里","LIN":"8鄰","STREET":"大灣五街","SECT":" ","MAREA":" ","LANE":"９３巷","ALLEY":" ","HOUSE_NO":"７２號","E_COORD97":174549.23999999999,"N_COORD97":2545188.3300000001,"ADDRESS":"大灣五街９３巷７２號","OBJECTID":307606},"geometry":{"x":174549.24000000115,"y":2545188.3300000038}},{"attributes":{"ID":307615,"DIS_CODE":0,"TOWNNAME":"永康區","LI":"西勢里","LIN":"8鄰","STREET":"富強路","SECT":"一段","MAREA":" ","LANE":"３０６巷","ALLEY":" ","HOUSE_NO":"２６號","E_COORD97":175815.89999999999,"N_COORD97":2546644.7799999998,"ADDRESS":"富強路一段３０６巷２６號","OBJECTID":307607},"geometry":{"x":175815.9000000013,"y":2546644.7799999993}},{"attributes":{"ID":307616,"DIS_CODE":0,"TOWNNAME":"永康區","LI":"西灣里","LIN":"8鄰","STREET":"大灣五街","SECT":" ","MAREA":" ","LANE":"９３巷","ALLEY":" ","HOUSE_NO":"７０號","E_COORD97":174553.76999999999,"N_COORD97":2545187.5499999998,"ADDRESS":"大灣五街９３巷７０號","OBJECTID":307608},"geometry":{"x":174553.76999999955,"y":2545187.5500000045}},{"attributes":{"ID":307617,"DIS_CODE":0,"TOWNNAME":"永康區","LI":"西橋里","LIN":"8鄰","STREET":"中華西街","SECT":" ","MAREA":" ","LANE":"６３巷","ALLEY":" ","HOUSE_NO":"６號","E_COORD97":170709.85000000001,"N_COORD97":2546036.6299999999,"ADDRESS":"中華西街６３巷６號","OBJECTID":307609},"geometry":{"x":170709.85000000056,"y":2546036.6300000008}},{"attributes":{"ID":307618,"DIS_CODE":0,"TOWNNAME":"南區","LI":"郡南里","LIN":"4鄰","STREET":"新都路","SECT":" ","MAREA":" ","LANE":"４５７巷","ALLEY":" ","HOUSE_NO":"１０號","E_COORD97":167226.85999999999,"N_COORD97":2540757.2200000002,"ADDRESS":"新都路４５７巷１０號","OBJECTID":307610},"geometry":{"x":167226.86000000127,"y":2540757.2200000007}},{"attributes":{"ID":307619,"DIS_CODE":0,"TOWNNAME":"永康區","LI":"西橋里","LIN":"8鄰","STREET":"中華西街","SECT":" ","MAREA":" ","LANE":"６３巷","ALLEY":" ","HOUSE_NO":"６號之３","E_COORD97":170724.48000000001,"N_COORD97":2546043.48,"ADDRESS":"中華西街６３巷６號之３","OBJECTID":307611},"geometry":{"x":170724.48000000231,"y":2546043.4800000023}},{"attributes":{"ID":307620,"DIS_CODE":0,"TOWNNAME":"永康區","LI":"西灣里","LIN":"8鄰","STREET":"大安街","SECT":" ","MAREA":" ","LANE":"１０７巷","ALLEY":" ","HOUSE_NO":"１２號","E_COORD97":174516.72,"N_COORD97":2545087.0699999998,"ADDRESS":"大安街１０７巷１２號","OBJECTID":307612},"geometry":{"x":174516.72000000067,"y":2545087.0700000003}},{"attributes":{"ID":307621,"DIS_CODE":0,"TOWNNAME":"永康區","LI":"西橋里","LIN":"8鄰","STREET":"中華西街","SECT":" ","MAREA":" ","LANE":"６３巷","ALLEY":" ","HOUSE_NO":"２４號","E_COORD97":170677.23999999999,"N_COORD97":2546023.25,"ADDRESS":"中華西街６３巷２４號","OBJECTID":307613},"geometry":{"x":170677.24000000115,"y":2546023.2500000019}},{"attributes":{"ID":307622,"DIS_CODE":0,"TOWNNAME":"永康區","LI":"西橋里","LIN":"8鄰","STREET":"中華西街","SECT":" ","MAREA":" ","LANE":"６３巷","ALLEY":" ","HOUSE_NO":"６號之２","E_COORD97":170720.89000000001,"N_COORD97":2546041.1699999999,"ADDRESS":"中華西街６３巷６號之２","OBJECTID":307614},"geometry":{"x":170720.89000000153,"y":2546041.1700000018}},{"attributes":{"ID":307623,"DIS_CODE":0,"TOWNNAME":"永康區","LI":"西橋里","LIN":"8鄰","STREET":"中華西街","SECT":" ","MAREA":" ","LANE":"６３巷","ALLEY":" ","HOUSE_NO":"１０號","E_COORD97":170700.73999999999,"N_COORD97":2546037.27,"ADDRESS":"中華西街６３巷１０號","OBJECTID":307615},"geometry":{"x":170700.74000000115,"y":2546037.2700000014}},{"attributes":{"ID":307624,"DIS_CODE":0,"TOWNNAME":"永康區","LI":"尚頂里","LIN":"8鄰","STREET":"正南一街","SECT":" ","MAREA":" ","LANE":"１１８巷","ALLEY":" ","HOUSE_NO":"２０號","E_COORD97":170950.35999999999,"N_COORD97":2547329.7599999998,"ADDRESS":"正南一街１１８巷２０號","OBJECTID":307616},"geometry":{"x":170950.36000000034,"y":2547329.7599999998}},{"attributes":{"ID":307625,"DIS_CODE":0,"TOWNNAME":"永康區","LI":"甲頂里","LIN":"8鄰","STREET":"中華路","SECT":" ","MAREA":" ","LANE":"８９５巷","ALLEY":" ","HOUSE_NO":"１３號","E_COORD97":170437.47,"N_COORD97":2546663.3500000001,"ADDRESS":"中華路８９５巷１３號","OBJECTID":307617},"geometry":{"x":170437.47000000067,"y":2546663.3500000015}},{"attributes":{"ID":307626,"DIS_CODE":0,"TOWNNAME":"東區","LI":"崇德里","LIN":"8鄰","STREET":"崇德七街","SECT":" ","MAREA":" ","LANE":"８巷","ALLEY":" ","HOUSE_NO":"２號","E_COORD97":170763.14000000001,"N_COORD97":2541693.2999999998,"ADDRESS":"崇德七街８巷２號","OBJECTID":307618},"geometry":{"x":170763.13999999873,"y":2541693.3000000007}},{"attributes":{"ID":307627,"DIS_CODE":0,"TOWNNAME":"東區","LI":"崇德里","LIN":"8鄰","STREET":"崇德七街","SECT":" ","MAREA":" ","LANE":"８巷","ALLEY":" ","HOUSE_NO":"６號","E_COORD97":170766.42000000001,"N_COORD97":2541691.6600000001,"ADDRESS":"崇德七街８巷６號","OBJECTID":307619},"geometry":{"x":170766.41999999993,"y":2541691.660000002}},{"attributes":{"ID":307628,"DIS_CODE":0,"TOWNNAME":"東區","LI":"崇德里","LIN":"8鄰","STREET":"崇德七街","SECT":" ","MAREA":" ","LANE":"８巷","ALLEY":" ","HOUSE_NO":"３５號","E_COORD97":170841.48999999999,"N_COORD97":2541664.7599999998,"ADDRESS":"崇德七街８巷３５號","OBJECTID":307620},"geometry":{"x":170841.49000000115,"y":2541664.7599999998}},{"attributes":{"ID":307629,"DIS_CODE":0,"TOWNNAME":"東區","LI":"崇德里","LIN":"8鄰","STREET":"崇德七街","SECT":" ","MAREA":" ","LANE":"８巷","ALLEY":" ","HOUSE_NO":"３７號","E_COORD97":170847.73999999999,"N_COORD97":2541666.1000000001,"ADDRESS":"崇德七街８巷３７號","OBJECTID":307621},"geometry":{"x":170847.74000000022,"y":2541666.0999999996}},{"attributes":{"ID":307630,"DIS_CODE":0,"TOWNNAME":"東區","LI":"崇德里","LIN":"8鄰","STREET":"崇德七街","SECT":" ","MAREA":" ","LANE":"８巷","ALLEY":" ","HOUSE_NO":"３９號","E_COORD97":170853.54999999999,"N_COORD97":2541667.4399999999,"ADDRESS":"崇德七街８巷３９號","OBJECTID":307622},"geometry":{"x":170853.54999999981,"y":2541667.4399999995}},{"attributes":{"ID":307631,"DIS_CODE":0,"TOWNNAME":"南區","LI":"大成里","LIN":"8鄰","STREET":"水交社路","SECT":" ","MAREA":" ","LANE":"３３３巷","ALLEY":" ","HOUSE_NO":"１８號","E_COORD97":167964.42999999999,"N_COORD97":2542312.4199999999,"ADDRESS":"水交社路３３３巷１８號","OBJECTID":307623},"geometry":{"x":167964.43000000063,"y":2542312.4199999981}},{"attributes":{"ID":307632,"DIS_CODE":0,"TOWNNAME":"南區","LI":"大成里","LIN":"8鄰","STREET":"水交社路","SECT":" ","MAREA":" ","LANE":"３３３巷","ALLEY":" ","HOUSE_NO":"２０號","E_COORD97":167959.82999999999,"N_COORD97":2542313.54,"ADDRESS":"水交社路３３３巷２０號","OBJECTID":307624},"geometry":{"x":167959.83000000007,"y":2542313.5399999991}},{"attributes":{"ID":307633,"DIS_CODE":0,"TOWNNAME":"南區","LI":"大成里","LIN":"8鄰","STREET":"新興東路","SECT":" ","MAREA":" ","LANE":" ","ALLEY":" ","HOUSE_NO":"１９６號","E_COORD97":167942.35999999999,"N_COORD97":2542302.9100000001,"ADDRESS":"新興東路１９６號","OBJECTID":307625},"geometry":{"x":167942.36000000127,"y":2542302.9100000039}},{"attributes":{"ID":307634,"DIS_CODE":0,"TOWNNAME":"南區","LI":"大成里","LIN":"8鄰","STREET":"新興東路","SECT":" ","MAREA":" ","LANE":" ","ALLEY":" ","HOUSE_NO":"１９２號","E_COORD97":167946.17000000001,"N_COORD97":2542302.27,"ADDRESS":"新興東路１９２號","OBJECTID":307626},"geometry":{"x":167946.17000000086,"y":2542302.2699999996}},{"attributes":{"ID":307635,"DIS_CODE":0,"TOWNNAME":"南區","LI":"大成里","LIN":"8鄰","STREET":"新興東路","SECT":" ","MAREA":" ","LANE":" ","ALLEY":" ","HOUSE_NO":"１９０號","E_COORD97":167949.98000000001,"N_COORD97":2542301.6400000001,"ADDRESS":"新興東路１９０號","OBJECTID":307627},"geometry":{"x":167949.98000000138,"y":2542301.6400000043}},{"attributes":{"ID":307636,"DIS_CODE":0,"TOWNNAME":"東區","LI":"復興里","LIN":"17鄰","STREET":"東成街","SECT":" ","MAREA":" ","LANE":" ","ALLEY":" ","HOUSE_NO":"１７３號","E_COORD97":171787.14999999999,"N_COORD97":2542319.7999999998,"ADDRESS":"東成街１７３號","OBJECTID":307628},"geometry":{"x":171787.15000000037,"y":2542319.8000000007}},{"attributes":{"ID":307637,"DIS_CODE":0,"TOWNNAME":"東區","LI":"復興里","LIN":"17鄰","STREET":"東成街","SECT":" ","MAREA":" ","LANE":" ","ALLEY":" ","HOUSE_NO":"１７５號","E_COORD97":171791.14000000001,"N_COORD97":2542320.9900000002,"ADDRESS":"東成街１７５號","OBJECTID":307629},"geometry":{"x":171791.1400000006,"y":2542320.9900000002}},{"attributes":{"ID":307638,"DIS_CODE":0,"TOWNNAME":"六甲區","LI":"中社里","LIN":"4鄰","STREET":" ","SECT":" ","MAREA":"中社","LANE":" ","ALLEY":" ","HOUSE_NO":"７２號","E_COORD97":181082.67000000001,"N_COORD97":2570863.5699999998,"ADDRESS":"中社７２號","OBJECTID":307630},"geometry":{"x":181082.67000000086,"y":2570863.5700000022}},{"attributes":{"ID":307639,"DIS_CODE":0,"TOWNNAME":"歸仁區","LI":"七甲里","LIN":"8鄰","STREET":"七甲二街","SECT":" ","MAREA":" ","LANE":" ","ALLEY":" ","HOUSE_NO":"４６號","E_COORD97":177682.75070599999,"N_COORD97":2542657.0104800002,"ADDRESS":"七甲二街４６號","OBJECTID":307631},"geometry":{"x":177682.75070600118,"y":2542657.0104829986}},{"attributes":{"ID":307640,"DIS_CODE":0,"TOWNNAME":"北區","LI":"大豐里","LIN":"21鄰","STREET":"大興街","SECT":" ","MAREA":" ","LANE":"３２５巷","ALLEY":" ","HOUSE_NO":"３５號","E_COORD97":166625.32999999999,"N_COORD97":2545571.6499999999,"ADDRESS":"大興街３２５巷３５號","OBJECTID":307632},"geometry":{"x":166625.33000000007,"y":2545571.6500000004}},{"attributes":{"ID":307641,"DIS_CODE":0,"TOWNNAME":"北區","LI":"振興里","LIN":"3鄰","STREET":"開元路","SECT":" ","MAREA":" ","LANE":"１４８巷","ALLEY":" ","HOUSE_NO":"１９號","E_COORD97":170012.20000000001,"N_COORD97":2545184.77,"ADDRESS":"開元路１４８巷１９號","OBJECTID":307633},"geometry":{"x":170012.20000000019,"y":2545184.7700000033}},{"attributes":{"ID":307642,"DIS_CODE":0,"TOWNNAME":"北區","LI":"振興里","LIN":"3鄰","STREET":"開元路","SECT":" ","MAREA":" ","LANE":"１４８巷","ALLEY":" ","HOUSE_NO":"２１號","E_COORD97":170029.95000000001,"N_COORD97":2545176.1200000001,"ADDRESS":"開元路１４８巷２１號","OBJECTID":307634},"geometry":{"x":170029.95000000112,"y":2545176.120000001}},{"attributes":{"ID":307643,"DIS_CODE":0,"TOWNNAME":"北區","LI":"振興里","LIN":"7鄰","STREET":"開元路","SECT":" ","MAREA":" ","LANE":"１４８巷","ALLEY":" ","HOUSE_NO":"３１號之３","E_COORD97":170072.04999999999,"N_COORD97":2545104.21,"ADDRESS":"開元路１４８巷３１號之３","OBJECTID":307635},"geometry":{"x":170072.04999999981,"y":2545104.2100000009}},{"attributes":{"ID":307644,"DIS_CODE":0,"TOWNNAME":"北區","LI":"文元里","LIN":"17鄰","STREET":"文賢路","SECT":" ","MAREA":" ","LANE":"１０３０巷","ALLEY":" ","HOUSE_NO":"４５號","E_COORD97":167543.79999999999,"N_COORD97":2546087.1600000001,"ADDRESS":"文賢路１０３０巷４５號","OBJECTID":307636},"geometry":{"x":167543.80000000075,"y":2546087.1600000001}},{"attributes":{"ID":307645,"DIS_CODE":0,"TOWNNAME":"南區","LI":"大成里","LIN":"8鄰","STREET":"新興東路","SECT":" ","MAREA":" ","LANE":" ","ALLEY":" ","HOUSE_NO":"１８８號","E_COORD97":167953.48000000001,"N_COORD97":2542301.1600000001,"ADDRESS":"新興東路１８８號","OBJECTID":307637},"geometry":{"x":167953.48000000138,"y":2542301.1600000039}},{"attributes":{"ID":307646,"DIS_CODE":0,"TOWNNAME":"南區","LI":"大成里","LIN":"8鄰","STREET":"新興東路","SECT":" ","MAREA":" ","LANE":" ","ALLEY":" ","HOUSE_NO":"１８６號","E_COORD97":167956.81,"N_COORD97":2542300.6800000002,"ADDRESS":"新興東路１８６號","OBJECTID":307638},"geometry":{"x":167956.81000000052,"y":2542300.6800000016}},{"attributes":{"ID":307647,"DIS_CODE":0,"TOWNNAME":"南區","LI":"大成里","LIN":"8鄰","STREET":"新興東路","SECT":" ","MAREA":" ","LANE":" ","ALLEY":" ","HOUSE_NO":"１８０號","E_COORD97":167963.95000000001,"N_COORD97":2542299.8900000001,"ADDRESS":"新興東路１８０號","OBJECTID":307639},"geometry":{"x":167963.95000000019,"y":2542299.8900000043}},{"attributes":{"ID":307648,"DIS_CODE":0,"TOWNNAME":"南區","LI":"大成里","LIN":"8鄰","STREET":"新興東路","SECT":" ","MAREA":" ","LANE":" ","ALLEY":" ","HOUSE_NO":"１８２號","E_COORD97":167960.45999999999,"N_COORD97":2542300.21,"ADDRESS":"新興東路１８２號","OBJECTID":307640},"geometry":{"x":167960.45999999996,"y":2542300.2100000009}},{"attributes":{"ID":307649,"DIS_CODE":0,"TOWNNAME":"東區","LI":"忠孝里","LIN":"8鄰","STREET":"榮譽街","SECT":" ","MAREA":" ","LANE":"８４巷","ALLEY":" ","HOUSE_NO":"１３９號","E_COORD97":169837.10000000001,"N_COORD97":2541574.0499999998,"ADDRESS":"榮譽街８４巷１３９號","OBJECTID":307641},"geometry":{"x":169837.09999999963,"y":2541574.0500000026}},{"attributes":{"ID":307650,"DIS_CODE":0,"TOWNNAME":"東區","LI":"忠孝里","LIN":"8鄰","STREET":"榮譽街","SECT":" ","MAREA":" ","LANE":"８４巷","ALLEY":" ","HOUSE_NO":"１４１號","E_COORD97":169830.76000000001,"N_COORD97":2541571.9500000002,"ADDRESS":"榮譽街８４巷１４１號","OBJECTID":307642},"geometry":{"x":169830.76000000071,"y":2541571.9499999993}},{"attributes":{"ID":307651,"DIS_CODE":0,"TOWNNAME":"東區","LI":"忠孝里","LIN":"8鄰","STREET":"榮譽街","SECT":" ","MAREA":" ","LANE":"８４巷","ALLEY":" ","HOUSE_NO":"１４３號","E_COORD97":169813.20999999999,"N_COORD97":2541563.3900000001,"ADDRESS":"榮譽街８４巷１４３號","OBJECTID":307643},"geometry":{"x":169813.20999999996,"y":2541563.3900000006}},{"attributes":{"ID":307652,"DIS_CODE":0,"TOWNNAME":"善化區","LI":"坐駕里","LIN":"8鄰","STREET":"大成路","SECT":" ","MAREA":" ","LANE":"３７１巷","ALLEY":" ","HOUSE_NO":"５號","E_COORD97":177915.42999999999,"N_COORD97":2558761,"ADDRESS":"大成路３７１巷５號","OBJECTID":307644},"geometry":{"x":177915.43000000063,"y":2558761}},{"attributes":{"ID":307653,"DIS_CODE":0,"TOWNNAME":"善化區","LI":"文昌里","LIN":"8鄰","STREET":"文昌路","SECT":" ","MAREA":" ","LANE":"３５巷","ALLEY":" ","HOUSE_NO":"２８號","E_COORD97":177355.66,"N_COORD97":2558698.0299999998,"ADDRESS":"文昌路３５巷２８號","OBJECTID":307645},"geometry":{"x":177355.66000000015,"y":2558698.0300000012}},{"attributes":{"ID":307654,"DIS_CODE":0,"TOWNNAME":"善化區","LI":"南關里","LIN":"8鄰","STREET":"光復路","SECT":" ","MAREA":" ","LANE":"５１０巷","ALLEY":" ","HOUSE_NO":"１０號","E_COORD97":176845.01999999999,"N_COORD97":2558856.7599999998,"ADDRESS":"光復路５１０巷１０號","OBJECTID":307646},"geometry":{"x":176845.02000000048,"y":2558856.7600000016}},{"attributes":{"ID":307655,"DIS_CODE":0,"TOWNNAME":"善化區","LI":"坐駕里","LIN":"8鄰","STREET":"大成路","SECT":" ","MAREA":" ","LANE":"３６７巷","ALLEY":" ","HOUSE_NO":"５號","E_COORD97":177947.45999999999,"N_COORD97":2558761.5,"ADDRESS":"大成路３６７巷５號","OBJECTID":307647},"geometry":{"x":177947.46000000089,"y":2558761.5}},{"attributes":{"ID":307656,"DIS_CODE":0,"TOWNNAME":"善化區","LI":"南關里","LIN":"8鄰","STREET":"光復路","SECT":" ","MAREA":" ","LANE":"５６６巷","ALLEY":" ","HOUSE_NO":"１２號","E_COORD97":176822.19,"N_COORD97":2558936.5099999998,"ADDRESS":"光復路５６６巷１２號","OBJECTID":307648},"geometry":{"x":176822.18999999948,"y":2558936.5100000016}},{"attributes":{"ID":307657,"DIS_CODE":0,"TOWNNAME":"東區","LI":"復興里","LIN":"17鄰","STREET":"東成街","SECT":" ","MAREA":" ","LANE":" ","ALLEY":" ","HOUSE_NO":"１７７號","E_COORD97":171795.12,"N_COORD97":2542319.7999999998,"ADDRESS":"東成街１７７號","OBJECTID":307649},"geometry":{"x":171795.12000000104,"y":2542319.8000000007}},{"attributes":{"ID":307658,"DIS_CODE":0,"TOWNNAME":"東區","LI":"復興里","LIN":"17鄰","STREET":"東成街","SECT":" ","MAREA":" ","LANE":" ","ALLEY":" ","HOUSE_NO":"１７９號","E_COORD97":171799.10000000001,"N_COORD97":2542319.7999999998,"ADDRESS":"東成街１７９號","OBJECTID":307650},"geometry":{"x":171799.09999999963,"y":2542319.8000000007}},{"attributes":{"ID":307659,"DIS_CODE":0,"TOWNNAME":"新營區","LI":"延平里","LIN":" ","STREET":"復興路","SECT":" ","MAREA":" ","LANE":" ","ALLEY":" ","HOUSE_NO":"１之４５號","E_COORD97":179713.92999999999,"N_COORD97":2577935.1299999999,"ADDRESS":"復興路１之４５號","OBJECTID":307651},"geometry":{"x":179713.93000000063,"y":2577935.129999999}},{"attributes":{"ID":307660,"DIS_CODE":0,"TOWNNAME":"新營區","LI":"延平里","LIN":" ","STREET":"復興路","SECT":" ","MAREA":" ","LANE":" ","ALLEY":" ","HOUSE_NO":"１之１０２號","E_COORD97":179715.17999999999,"N_COORD97":2577935.1299999999,"ADDRESS":"復興路１之１０２號","OBJECTID":307652},"geometry":{"x":179715.1799999997,"y":2577935.129999999}},{"attributes":{"ID":307661,"DIS_CODE":0,"TOWNNAME":"新營區","LI":"新東里","LIN":"26鄰","STREET":"東興路","SECT":" ","MAREA":" ","LANE":" ","ALLEY":" ","HOUSE_NO":"２０３號","E_COORD97":180747.20000000001,"N_COORD97":2579507.3300000001,"ADDRESS":"東興路２０３號","OBJECTID":307653},"geometry":{"x":180747.20000000112,"y":2579507.3300000019}},{"attributes":{"ID":307662,"DIS_CODE":0,"TOWNNAME":"新營區","LI":"王公里","LIN":"14鄰","STREET":"公正街","SECT":" ","MAREA":" ","LANE":" ","ALLEY":" ","HOUSE_NO":"６８號","E_COORD97":180164.23999999999,"N_COORD97":2579380.3799999999,"ADDRESS":"公正街６８號","OBJECTID":307654},"geometry":{"x":180164.24000000022,"y":2579380.3800000008}},{"attributes":{"ID":307663,"DIS_CODE":0,"TOWNNAME":"北區","LI":"文元里","LIN":"4鄰","STREET":"中華北路","SECT":"二段","MAREA":" ","LANE":"４１巷","ALLEY":" ","HOUSE_NO":"４７號","E_COORD97":167542.17000000001,"N_COORD97":2546464.1899999999,"ADDRESS":"中華北路二段４１巷４７號","OBJECTID":307655},"geometry":{"x":167542.16999999993,"y":2546464.1900000013}},{"attributes":{"ID":307664,"DIS_CODE":0,"TOWNNAME":"北區","LI":"文元里","LIN":"4鄰","STREET":"中華北路","SECT":"二段","MAREA":" ","LANE":"４１巷","ALLEY":" ","HOUSE_NO":"４９號","E_COORD97":167542.17000000001,"N_COORD97":2546460.27,"ADDRESS":"中華北路二段４１巷４９號","OBJECTID":307656},"geometry":{"x":167542.16999999993,"y":2546460.2700000014}},{"attributes":{"ID":307665,"DIS_CODE":0,"TOWNNAME":"北區","LI":"文元里","LIN":"4鄰","STREET":"中華北路","SECT":"二段","MAREA":" ","LANE":"４１巷","ALLEY":" ","HOUSE_NO":"４號","E_COORD97":167510.51000000001,"N_COORD97":2546550.4900000002,"ADDRESS":"中華北路二段４１巷４號","OBJECTID":307657},"geometry":{"x":167510.50999999978,"y":2546550.4900000039}},{"attributes":{"ID":307666,"DIS_CODE":0,"TOWNNAME":"北區","LI":"文元里","LIN":"4鄰","STREET":"中華北路","SECT":"二段","MAREA":" ","LANE":"４１巷","ALLEY":" ","HOUSE_NO":"５１號","E_COORD97":167542.17000000001,"N_COORD97":2546456.3500000001,"ADDRESS":"中華北路二段４１巷５１號","OBJECTID":307658},"geometry":{"x":167542.16999999993,"y":2546456.3500000015}},{"attributes":{"ID":307667,"DIS_CODE":0,"TOWNNAME":"北區","LI":"文元里","LIN":"4鄰","STREET":"中華北路","SECT":"二段","MAREA":" ","LANE":"４１巷","ALLEY":" ","HOUSE_NO":"５３號","E_COORD97":167541.84,"N_COORD97":2546451.77,"ADDRESS":"中華北路二段４１巷５３號","OBJECTID":307659},"geometry":{"x":167541.84000000078,"y":2546451.7699999996}},{"attributes":{"ID":307668,"DIS_CODE":0,"TOWNNAME":"北區","LI":"文元里","LIN":"4鄰","STREET":"中華北路","SECT":"二段","MAREA":" ","LANE":"４１巷","ALLEY":" ","HOUSE_NO":"５５號","E_COORD97":167540.53,"N_COORD97":2546447.8500000001,"ADDRESS":"中華北路二段４１巷５５號","OBJECTID":307660},"geometry":{"x":167540.53000000119,"y":2546447.8499999996}},{"attributes":{"ID":307669,"DIS_CODE":0,"TOWNNAME":"北區","LI":"文元里","LIN":"4鄰","STREET":"中華北路","SECT":"二段","MAREA":" ","LANE":"４１巷","ALLEY":" ","HOUSE_NO":"５號","E_COORD97":167529.07999999999,"N_COORD97":2546552.4700000002,"ADDRESS":"中華北路二段４１巷５號","OBJECTID":307661},"geometry":{"x":167529.08000000007,"y":2546552.4700000025}},{"attributes":{"ID":307670,"DIS_CODE":0,"TOWNNAME":"北區","LI":"文元里","LIN":"4鄰","STREET":"中華北路","SECT":"二段","MAREA":" ","LANE":"４１巷","ALLEY":" ","HOUSE_NO":"６號","E_COORD97":167511.07000000001,"N_COORD97":2546546.2599999998,"ADDRESS":"中華北路二段４１巷６號","OBJECTID":307662},"geometry":{"x":167511.0700000003,"y":2546546.2600000016}},{"attributes":{"ID":307671,"DIS_CODE":0,"TOWNNAME":"北區","LI":"文元里","LIN":"4鄰","STREET":"中華北路","SECT":"二段","MAREA":" ","LANE":"４１巷","ALLEY":" ","HOUSE_NO":"７號","E_COORD97":167528.76000000001,"N_COORD97":2546548.9300000002,"ADDRESS":"中華北路二段４１巷７號","OBJECTID":307663},"geometry":{"x":167528.76000000071,"y":2546548.9299999997}},{"attributes":{"ID":307672,"DIS_CODE":0,"TOWNNAME":"北區","LI":"文元里","LIN":"4鄰","STREET":"中華北路","SECT":"二段","MAREA":" ","LANE":"４１巷","ALLEY":" ","HOUSE_NO":"８號","E_COORD97":167512.20000000001,"N_COORD97":2546542.02,"ADDRESS":"中華北路二段４１巷８號","OBJECTID":307664},"geometry":{"x":167512.20000000112,"y":2546542.0199999996}},{"attributes":{"ID":307673,"DIS_CODE":0,"TOWNNAME":"北區","LI":"文元里","LIN":"4鄰","STREET":"中華北路","SECT":"二段","MAREA":" ","LANE":"４１巷","ALLEY":" ","HOUSE_NO":"９號","E_COORD97":167529.73000000001,"N_COORD97":2546544.4300000002,"ADDRESS":"中華北路二段４１巷９號","OBJECTID":307665},"geometry":{"x":167529.73000000138,"y":2546544.4300000016}},{"attributes":{"ID":307674,"DIS_CODE":0,"TOWNNAME":"東區","LI":"復興里","LIN":"17鄰","STREET":"自由路","SECT":"三段","MAREA":" ","LANE":" ","ALLEY":" ","HOUSE_NO":"１２３號","E_COORD97":171807.85999999999,"N_COORD97":2542326.1600000001,"ADDRESS":"自由路三段１２３號","OBJECTID":307666},"geometry":{"x":171807.86000000034,"y":2542326.160000002}},{"attributes":{"ID":307675,"DIS_CODE":0,"TOWNNAME":"下營區","LI":"新興里","LIN":"17鄰","STREET":"中山路","SECT":"一段","MAREA":" ","LANE":" ","ALLEY":" ","HOUSE_NO":"３６０號","E_COORD97":175224.34,"N_COORD97":2570855.23,"ADDRESS":"中山路一段３６０號","OBJECTID":307667},"geometry":{"x":175224.34000000078,"y":2570855.2300000023}},{"attributes":{"ID":307676,"DIS_CODE":0,"TOWNNAME":"下營區","LI":"新興里","LIN":"17鄰","STREET":"中山路","SECT":"一段","MAREA":" ","LANE":" ","ALLEY":" ","HOUSE_NO":"３６２號","E_COORD97":175230.48999999999,"N_COORD97":2570857.5,"ADDRESS":"中山路一段３６２號","OBJECTID":307668},"geometry":{"x":175230.49000000115,"y":2570857.5}},{"attributes":{"ID":307677,"DIS_CODE":0,"TOWNNAME":"下營區","LI":"新興里","LIN":"17鄰","STREET":"中山路","SECT":"一段","MAREA":" ","LANE":" ","ALLEY":" ","HOUSE_NO":"３６６號","E_COORD97":175237.41,"N_COORD97":2570860.0600000001,"ADDRESS":"中山路一段３６６號","OBJECTID":307669},"geometry":{"x":175237.41000000108,"y":2570860.0600000024}},{"attributes":{"ID":307678,"DIS_CODE":0,"TOWNNAME":"下營區","LI":"新興里","LIN":"17鄰","STREET":"中山路","SECT":"一段","MAREA":" ","LANE":" ","ALLEY":" ","HOUSE_NO":"３８０號","E_COORD97":175258.82999999999,"N_COORD97":2570871.52,"ADDRESS":"中山路一段３８０號","OBJECTID":307670},"geometry":{"x":175258.83000000101,"y":2570871.5199999996}},{"attributes":{"ID":307679,"DIS_CODE":0,"TOWNNAME":"下營區","LI":"新興里","LIN":"17鄰","STREET":"中山路","SECT":"一段","MAREA":" ","LANE":" ","ALLEY":" ","HOUSE_NO":"３８２號","E_COORD97":175262.19,"N_COORD97":2570872.71,"ADDRESS":"中山路一段３８２號","OBJECTID":307671},"geometry":{"x":175262.19000000041,"y":2570872.7100000028}},{"attributes":{"ID":307680,"DIS_CODE":0,"TOWNNAME":"下營區","LI":"新興里","LIN":"17鄰","STREET":"中山路","SECT":"一段","MAREA":" ","LANE":" ","ALLEY":" ","HOUSE_NO":"３８６號","E_COORD97":175274.57999999999,"N_COORD97":2570870.6099999999,"ADDRESS":"中山路一段３８６號","OBJECTID":307672},"geometry":{"x":175274.58000000007,"y":2570870.6099999994}},{"attributes":{"ID":307681,"DIS_CODE":0,"TOWNNAME":"下營區","LI":"新興里","LIN":"17鄰","STREET":"中山路","SECT":"一段","MAREA":" ","LANE":" ","ALLEY":" ","HOUSE_NO":"４５０號","E_COORD97":175630.07000000001,"N_COORD97":2571070.6200000001,"ADDRESS":"中山路一段４５０號","OBJECTID":307673},"geometry":{"x":175630.07000000123,"y":2571070.6200000029}},{"attributes":{"ID":307682,"DIS_CODE":0,"TOWNNAME":"新營區","LI":"新東里","LIN":" ","STREET":"民治路","SECT":" ","MAREA":" ","LANE":" ","ALLEY":" ","HOUSE_NO":"８之１號","E_COORD97":180496.76000000001,"N_COORD97":2578905.9900000002,"ADDRESS":"民治路８之１號","OBJECTID":307674},"geometry":{"x":180496.76000000071,"y":2578905.9900000021}},{"attributes":{"ID":307683,"DIS_CODE":0,"TOWNNAME":"安南區","LI":"淵東里","LIN":"17鄰","STREET":"智安三街","SECT":" ","MAREA":" ","LANE":" ","ALLEY":" ","HOUSE_NO":"３１號","E_COORD97":165890.67000000001,"N_COORD97":2550117.9199999999,"ADDRESS":"智安三街３１號","OBJECTID":307675},"geometry":{"x":165890.66999999993,"y":2550117.9200000018}},{"attributes":{"ID":307684,"DIS_CODE":0,"TOWNNAME":"新營區","LI":"民生里","LIN":"28鄰","STREET":"民治路","SECT":" ","MAREA":" ","LANE":" ","ALLEY":" ","HOUSE_NO":"１４７號","E_COORD97":178887.16,"N_COORD97":2578564.73,"ADDRESS":"民治路１４７號","OBJECTID":307676},"geometry":{"x":178887.16000000108,"y":2578564.7300000023}},{"attributes":{"ID":307685,"DIS_CODE":0,"TOWNNAME":"新營區","LI":"大宏里","LIN":"24鄰","STREET":"民治路","SECT":" ","MAREA":" ","LANE":" ","ALLEY":" ","HOUSE_NO":"３號之２１","E_COORD97":180554.62,"N_COORD97":2578835.96,"ADDRESS":"民治路３號之２１","OBJECTID":307677},"geometry":{"x":180554.62000000011,"y":2578835.9600000028}},{"attributes":{"ID":307686,"DIS_CODE":0,"TOWNNAME":"六甲區","LI":"中社里","LIN":"4鄰","STREET":" ","SECT":" ","MAREA":"中社","LANE":" ","ALLEY":" ","HOUSE_NO":"７８號","E_COORD97":181079.51000000001,"N_COORD97":2570883.8700000001,"ADDRESS":"中社７８號","OBJECTID":307678},"geometry":{"x":181079.51000000164,"y":2570883.870000001}},{"attributes":{"ID":307687,"DIS_CODE":0,"TOWNNAME":"善化區","LI":"文昌里","LIN":"8鄰","STREET":"大同路","SECT":" ","MAREA":" ","LANE":"２１３巷","ALLEY":" ","HOUSE_NO":"１１號","E_COORD97":177397.23000000001,"N_COORD97":2558681.25,"ADDRESS":"大同路２１３巷１１號","OBJECTID":307679},"geometry":{"x":177397.23000000138,"y":2558681.25}},{"attributes":{"ID":307688,"DIS_CODE":0,"TOWNNAME":"善化區","LI":"南關里","LIN":"8鄰","STREET":"光復路","SECT":" ","MAREA":" ","LANE":"５６６巷","ALLEY":" ","HOUSE_NO":"１０號","E_COORD97":176821.26000000001,"N_COORD97":2558940.5099999998,"ADDRESS":"光復路５６６巷１０號","OBJECTID":307680},"geometry":{"x":176821.26000000164,"y":2558940.5099999998}},{"attributes":{"ID":307689,"DIS_CODE":0,"TOWNNAME":"善化區","LI":"南關里","LIN":"8鄰","STREET":"光復路","SECT":" ","MAREA":" ","LANE":"５３６巷","ALLEY":" ","HOUSE_NO":"１１號","E_COORD97":176828.98000000001,"N_COORD97":2558920.2599999998,"ADDRESS":"光復路５３６巷１１號","OBJECTID":307681},"geometry":{"x":176828.98000000231,"y":2558920.2600000016}},{"attributes":{"ID":307690,"DIS_CODE":0,"TOWNNAME":"善化區","LI":"文昌里","LIN":"8鄰","STREET":"永福路","SECT":" ","MAREA":" ","LANE":"１１４巷","ALLEY":" ","HOUSE_NO":"１４號之２","E_COORD97":177343.39999999999,"N_COORD97":2558853.52,"ADDRESS":"永福路１１４巷１４號之２","OBJECTID":307682},"geometry":{"x":177343.4000000013,"y":2558853.5200000014}},{"attributes":{"ID":307691,"DIS_CODE":0,"TOWNNAME":"善化區","LI":"文昌里","LIN":"8鄰","STREET":"永福路","SECT":" ","MAREA":" ","LANE":"１１４巷","ALLEY":" ","HOUSE_NO":"１４號","E_COORD97":177323.04999999999,"N_COORD97":2558850,"ADDRESS":"永福路１１４巷１４號","OBJECTID":307683},"geometry":{"x":177323.05000000075,"y":2558850}},{"attributes":{"ID":307692,"DIS_CODE":0,"TOWNNAME":"善化區","LI":"文昌里","LIN":"8鄰","STREET":"永福路","SECT":" ","MAREA":" ","LANE":"１１４巷","ALLEY":" ","HOUSE_NO":"１８號","E_COORD97":177325.84,"N_COORD97":2558878.75,"ADDRESS":"永福路１１４巷１８號","OBJECTID":307684},"geometry":{"x":177325.84000000171,"y":2558878.75}},{"attributes":{"ID":307693,"DIS_CODE":0,"TOWNNAME":"善化區","LI":"文昌里","LIN":"8鄰","STREET":"永福路","SECT":" ","MAREA":" ","LANE":"１１４巷","ALLEY":" ","HOUSE_NO":"１６號","E_COORD97":177328.82999999999,"N_COORD97":2558865.75,"ADDRESS":"永福路１１４巷１６號","OBJECTID":307685},"geometry":{"x":177328.83000000007,"y":2558865.7500000037}},{"attributes":{"ID":307694,"DIS_CODE":0,"TOWNNAME":"善化區","LI":"文昌里","LIN":"8鄰","STREET":"大同路","SECT":" ","MAREA":" ","LANE":"２１３巷","ALLEY":" ","HOUSE_NO":"１號","E_COORD97":177419.16,"N_COORD97":2558688.75,"ADDRESS":"大同路２１３巷１號","OBJECTID":307686},"geometry":{"x":177419.16000000108,"y":2558688.75}},{"attributes":{"ID":307695,"DIS_CODE":0,"TOWNNAME":"善化區","LI":"文昌里","LIN":"8鄰","STREET":"大同路","SECT":" ","MAREA":" ","LANE":"２１３巷","ALLEY":" ","HOUSE_NO":"１４號","E_COORD97":177391.82999999999,"N_COORD97":2558694.5,"ADDRESS":"大同路２１３巷１４號","OBJECTID":307687},"geometry":{"x":177391.83000000007,"y":2558694.5000000037}},{"attributes":{"ID":307696,"DIS_CODE":0,"TOWNNAME":"善化區","LI":"文昌里","LIN":"8鄰","STREET":"文昌路","SECT":" ","MAREA":" ","LANE":"３５巷","ALLEY":" ","HOUSE_NO":"２６號","E_COORD97":177356.42999999999,"N_COORD97":2558693.5299999998,"ADDRESS":"文昌路３５巷２６號","OBJECTID":307688},"geometry":{"x":177356.43000000063,"y":2558693.5300000031}},{"attributes":{"ID":307697,"DIS_CODE":0,"TOWNNAME":"善化區","LI":"文昌里","LIN":"8鄰","STREET":"文昌路","SECT":" ","MAREA":" ","LANE":"３５巷","ALLEY":" ","HOUSE_NO":"２４號","E_COORD97":177357.25,"N_COORD97":2558689.0299999998,"ADDRESS":"文昌路３５巷２４號","OBJECTID":307689},"geometry":{"x":177357.25000000186,"y":2558689.0299999993}},{"attributes":{"ID":307698,"DIS_CODE":0,"TOWNNAME":"善化區","LI":"文昌里","LIN":"8鄰","STREET":"文昌路","SECT":" ","MAREA":" ","LANE":"３５巷","ALLEY":" ","HOUSE_NO":"３４號","E_COORD97":177360.73000000001,"N_COORD97":2558711.7799999998,"ADDRESS":"文昌路３５巷３４號","OBJECTID":307690},"geometry":{"x":177360.73000000045,"y":2558711.7799999993}},{"attributes":{"ID":307699,"DIS_CODE":0,"TOWNNAME":"善化區","LI":"文昌里","LIN":"8鄰","STREET":"文昌路","SECT":" ","MAREA":" ","LANE":"３５巷","ALLEY":" ","HOUSE_NO":"３２號","E_COORD97":177356.34,"N_COORD97":2558710.7799999998,"ADDRESS":"文昌路３５巷３２號","OBJECTID":307691},"geometry":{"x":177356.34000000171,"y":2558710.7799999993}},{"attributes":{"ID":307700,"DIS_CODE":0,"TOWNNAME":"善化區","LI":"文昌里","LIN":"8鄰","STREET":"文昌路","SECT":" ","MAREA":" ","LANE":"３６巷","ALLEY":" ","HOUSE_NO":"２號之６","E_COORD97":177334.29000000001,"N_COORD97":2558798.5299999998,"ADDRESS":"文昌路３６巷２號之６","OBJECTID":307692},"geometry":{"x":177334.29000000004,"y":2558798.5300000031}},{"attributes":{"ID":307701,"DIS_CODE":0,"TOWNNAME":"善化區","LI":"文昌里","LIN":"8鄰","STREET":"文昌路","SECT":" ","MAREA":" ","LANE":"３５巷","ALLEY":" ","HOUSE_NO":"３６號","E_COORD97":177365.17999999999,"N_COORD97":2558712.7799999998,"ADDRESS":"文昌路３５巷３６號","OBJECTID":307693},"geometry":{"x":177365.1799999997,"y":2558712.7800000012}},{"attributes":{"ID":307702,"DIS_CODE":0,"TOWNNAME":"善化區","LI":"文昌里","LIN":"8鄰","STREET":"文昌路","SECT":" ","MAREA":" ","LANE":"３６巷","ALLEY":" ","HOUSE_NO":"２號之３","E_COORD97":177335.44,"N_COORD97":2558788.5299999998,"ADDRESS":"文昌路３６巷２號之３","OBJECTID":307694},"geometry":{"x":177335.44000000041,"y":2558788.5300000031}},{"attributes":{"ID":307703,"DIS_CODE":0,"TOWNNAME":"大內區","LI":"環湖里","LIN":"3鄰","STREET":" ","SECT":" ","MAREA":"環湖","LANE":" ","ALLEY":" ","HOUSE_NO":"２８號","E_COORD97":190552.21444700001,"N_COORD97":2560674.2525800001,"ADDRESS":"環湖２８號","OBJECTID":307695},"geometry":{"x":190552.214447001,"y":2560674.2525770012}},{"attributes":{"ID":307704,"DIS_CODE":0,"TOWNNAME":"六甲區","LI":"中社里","LIN":"8鄰","STREET":" ","SECT":" ","MAREA":"中社","LANE":" ","ALLEY":" ","HOUSE_NO":"３１８號","E_COORD97":180894.64000000001,"N_COORD97":2570883.7799999998,"ADDRESS":"中社３１８號","OBJECTID":307696},"geometry":{"x":180894.63999999966,"y":2570883.7800000031}},{"attributes":{"ID":307705,"DIS_CODE":0,"TOWNNAME":"新營區","LI":"土庫里","LIN":"16鄰","STREET":" ","SECT":" ","MAREA":"卯舍","LANE":" ","ALLEY":" ","HOUSE_NO":"１３號之１","E_COORD97":181705.70999999999,"N_COORD97":2580196.0899999999,"ADDRESS":"卯舍１３號之１","OBJECTID":307697},"geometry":{"x":181705.71000000089,"y":2580196.0900000017}},{"attributes":{"ID":307706,"DIS_CODE":0,"TOWNNAME":"六甲區","LI":"中社里","LIN":"4鄰","STREET":" ","SECT":" ","MAREA":"中社","LANE":" ","ALLEY":" ","HOUSE_NO":"８０號","E_COORD97":181049.53,"N_COORD97":2570886.3500000001,"ADDRESS":"中社８０號","OBJECTID":307698},"geometry":{"x":181049.53000000119,"y":2570886.3499999996}},{"attributes":{"ID":307707,"DIS_CODE":0,"TOWNNAME":"安南區","LI":"新順里","LIN":"17鄰","STREET":"頂安街","SECT":" ","MAREA":" ","LANE":" ","ALLEY":" ","HOUSE_NO":"１２１號","E_COORD97":169374.95000000001,"N_COORD97":2549367.4500000002,"ADDRESS":"頂安街１２１號","OBJECTID":307699},"geometry":{"x":169374.94999999925,"y":2549367.4500000011}},{"attributes":{"ID":307708,"DIS_CODE":0,"TOWNNAME":"北區","LI":"安民里","LIN":"6鄰","STREET":"康樂街","SECT":" ","MAREA":" ","LANE":"４０６巷","ALLEY":" ","HOUSE_NO":"３６號","E_COORD97":167829.31,"N_COORD97":2544742.1099999999,"ADDRESS":"康樂街４０６巷３６號","OBJECTID":307700},"geometry":{"x":167829.31000000145,"y":2544742.1100000013}},{"attributes":{"ID":307709,"DIS_CODE":0,"TOWNNAME":"北區","LI":"安民里","LIN":"6鄰","STREET":"康樂街","SECT":" ","MAREA":" ","LANE":"４０６巷","ALLEY":" ","HOUSE_NO":"３８號","E_COORD97":167831.39999999999,"N_COORD97":2544747.73,"ADDRESS":"康樂街４０６巷３８號","OBJECTID":307701},"geometry":{"x":167831.4000000013,"y":2544747.7300000004}},{"attributes":{"ID":307710,"DIS_CODE":0,"TOWNNAME":"仁德區","LI":"上崙里","LIN":"8鄰","STREET":"德善路","SECT":" ","MAREA":" ","LANE":"２９０巷","ALLEY":" ","HOUSE_NO":"２８號","E_COORD97":173915.32999999999,"N_COORD97":2538447.02,"ADDRESS":"德善路２９０巷２８號","OBJECTID":307702},"geometry":{"x":173915.32999999914,"y":2538447.0200000014}},{"attributes":{"ID":307711,"DIS_CODE":0,"TOWNNAME":"仁德區","LI":"上崙里","LIN":"8鄰","STREET":"德善路","SECT":" ","MAREA":" ","LANE":"２９０巷","ALLEY":" ","HOUSE_NO":"３８號","E_COORD97":173895.38,"N_COORD97":2538453.02,"ADDRESS":"德善路２９０巷３８號","OBJECTID":307703},"geometry":{"x":173895.38000000082,"y":2538453.0199999977}},{"attributes":{"ID":307712,"DIS_CODE":0,"TOWNNAME":"仁德區","LI":"上崙里","LIN":"8鄰","STREET":"德善路","SECT":" ","MAREA":" ","LANE":"２９０巷","ALLEY":" ","HOUSE_NO":"４２號","E_COORD97":173887.51000000001,"N_COORD97":2538455.52,"ADDRESS":"德善路２９０巷４２號","OBJECTID":307704},"geometry":{"x":173887.51000000071,"y":2538455.5199999996}},{"attributes":{"ID":307713,"DIS_CODE":0,"TOWNNAME":"仁德區","LI":"上崙里","LIN":"8鄰","STREET":"德善路","SECT":" ","MAREA":" ","LANE":"２９０巷","ALLEY":" ","HOUSE_NO":"１６號","E_COORD97":173939.01999999999,"N_COORD97":2538440.02,"ADDRESS":"德善路２９０巷１６號","OBJECTID":307705},"geometry":{"x":173939.02000000142,"y":2538440.0200000014}},{"attributes":{"ID":307714,"DIS_CODE":0,"TOWNNAME":"仁德區","LI":"上崙里","LIN":"8鄰","STREET":"德善路","SECT":" ","MAREA":" ","LANE":"２９０巷","ALLEY":" ","HOUSE_NO":"３號","E_COORD97":173960.42999999999,"N_COORD97":2538415.5099999998,"ADDRESS":"德善路２９０巷３號","OBJECTID":307706},"geometry":{"x":173960.43000000063,"y":2538415.5099999998}},{"attributes":{"ID":307715,"DIS_CODE":0,"TOWNNAME":"仁德區","LI":"上崙里","LIN":"8鄰","STREET":"德善路","SECT":" ","MAREA":" ","LANE":"２９０巷","ALLEY":" ","HOUSE_NO":"１３號","E_COORD97":173910.32000000001,"N_COORD97":2538438.27,"ADDRESS":"德善路２９０巷１３號","OBJECTID":307707},"geometry":{"x":173910.3200000003,"y":2538438.2700000014}},{"attributes":{"ID":307716,"DIS_CODE":0,"TOWNNAME":"仁德區","LI":"上崙里","LIN":"8鄰","STREET":"德善路","SECT":" ","MAREA":" ","LANE":"２９０巷","ALLEY":" ","HOUSE_NO":"４８號","E_COORD97":173879.81,"N_COORD97":2538457.52,"ADDRESS":"德善路２９０巷４８號","OBJECTID":307708},"geometry":{"x":173879.81000000052,"y":2538457.5200000014}},{"attributes":{"ID":307717,"DIS_CODE":0,"TOWNNAME":"新營區","LI":"嘉芳里","LIN":"14鄰","STREET":"新芳街","SECT":" ","MAREA":" ","LANE":" ","ALLEY":" ","HOUSE_NO":"８號","E_COORD97":176633.16,"N_COORD97":2578513.6899999999,"ADDRESS":"新芳街８號","OBJECTID":307709},"geometry":{"x":176633.16000000108,"y":2578513.6900000013}},{"attributes":{"ID":307718,"DIS_CODE":0,"TOWNNAME":"下營區","LI":"新興里","LIN":"17鄰","STREET":"中山路","SECT":"一段","MAREA":" ","LANE":" ","ALLEY":" ","HOUSE_NO":"４７８號","E_COORD97":175737.32999999999,"N_COORD97":2571154.27,"ADDRESS":"中山路一段４７８號","OBJECTID":307710},"geometry":{"x":175737.33000000007,"y":2571154.2699999996}},{"attributes":{"ID":307719,"DIS_CODE":0,"TOWNNAME":"六甲區","LI":"中社里","LIN":"4鄰","STREET":" ","SECT":" ","MAREA":"中社","LANE":" ","ALLEY":" ","HOUSE_NO":"８２號","E_COORD97":181054.98000000001,"N_COORD97":2570865.29,"ADDRESS":"中社８２號","OBJECTID":307711},"geometry":{"x":181054.98000000231,"y":2570865.2899999991}},{"attributes":{"ID":307720,"DIS_CODE":0,"TOWNNAME":"六甲區","LI":"中社里","LIN":"3鄰","STREET":" ","SECT":" ","MAREA":"中社","LANE":" ","ALLEY":" ","HOUSE_NO":"８３號","E_COORD97":181143.97,"N_COORD97":2570805.1200000001,"ADDRESS":"中社８３號","OBJECTID":307712},"geometry":{"x":181143.96999999974,"y":2570805.1200000048}},{"attributes":{"ID":307721,"DIS_CODE":0,"TOWNNAME":"歸仁區","LI":"七甲里","LIN":"6鄰","STREET":"七甲二街","SECT":" ","MAREA":" ","LANE":" ","ALLEY":" ","HOUSE_NO":"９３號","E_COORD97":177899.608305,"N_COORD97":2542638.1721600001,"ADDRESS":"七甲二街９３號","OBJECTID":307713},"geometry":{"x":177899.60830499977,"y":2542638.1721599996}},{"attributes":{"ID":307722,"DIS_CODE":0,"TOWNNAME":"北區","LI":"重興里","LIN":"7鄰","STREET":"林森路","SECT":"三段","MAREA":" ","LANE":"１４０巷","ALLEY":" ","HOUSE_NO":"１６號","E_COORD97":170601.60000000001,"N_COORD97":2544935.8500000001,"ADDRESS":"林森路三段１４０巷１６號","OBJECTID":307714},"geometry":{"x":170601.60000000056,"y":2544935.8499999996}},{"attributes":{"ID":307723,"DIS_CODE":0,"TOWNNAME":"北區","LI":"重興里","LIN":"7鄰","STREET":"林森路","SECT":"三段","MAREA":" ","LANE":"１４０巷","ALLEY":" ","HOUSE_NO":"１８號","E_COORD97":170606.64000000001,"N_COORD97":2544933.4900000002,"ADDRESS":"林森路三段１４０巷１８號","OBJECTID":307715},"geometry":{"x":170606.63999999966,"y":2544933.4900000021}},{"attributes":{"ID":307724,"DIS_CODE":0,"TOWNNAME":"北區","LI":"重興里","LIN":"7鄰","STREET":"林森路","SECT":"三段","MAREA":" ","LANE":"１４０巷","ALLEY":" ","HOUSE_NO":"２０號","E_COORD97":170611.84,"N_COORD97":2544929.0600000001,"ADDRESS":"林森路三段１４０巷２０號","OBJECTID":307716},"geometry":{"x":170611.84000000078,"y":2544929.0600000005}},{"attributes":{"ID":307725,"DIS_CODE":0,"TOWNNAME":"北區","LI":"重興里","LIN":"7鄰","STREET":"林森路","SECT":"三段","MAREA":" ","LANE":"１４０巷","ALLEY":" ","HOUSE_NO":"２２號","E_COORD97":170608.51000000001,"N_COORD97":2544917.5,"ADDRESS":"林森路三段１４０巷２２號","OBJECTID":307717},"geometry":{"x":170608.51000000071,"y":2544917.5000000019}},{"attributes":{"ID":307726,"DIS_CODE":0,"TOWNNAME":"北區","LI":"重興里","LIN":"7鄰","STREET":"林森路","SECT":"三段","MAREA":" ","LANE":"１４０巷","ALLEY":" ","HOUSE_NO":"２４號","E_COORD97":170606.31,"N_COORD97":2544912.2200000002,"ADDRESS":"林森路三段１４０巷２４號","OBJECTID":307718},"geometry":{"x":170606.31000000052,"y":2544912.2200000025}},{"attributes":{"ID":307727,"DIS_CODE":0,"TOWNNAME":"北區","LI":"重興里","LIN":"7鄰","STREET":"林森路","SECT":"三段","MAREA":" ","LANE":"１４０巷","ALLEY":" ","HOUSE_NO":"２６號","E_COORD97":170605.01000000001,"N_COORD97":2544906.21,"ADDRESS":"林森路三段１４０巷２６號","OBJECTID":307719},"geometry":{"x":170605.01000000164,"y":2544906.2100000028}},{"attributes":{"ID":307728,"DIS_CODE":0,"TOWNNAME":"北區","LI":"重興里","LIN":"7鄰","STREET":"林森路","SECT":"三段","MAREA":" ","LANE":"１４０巷","ALLEY":" ","HOUSE_NO":"２８號","E_COORD97":170603.79000000001,"N_COORD97":2544902.0600000001,"ADDRESS":"林森路三段１４０巷２８號","OBJECTID":307720},"geometry":{"x":170603.79000000097,"y":2544902.0600000005}},{"attributes":{"ID":307729,"DIS_CODE":0,"TOWNNAME":"北區","LI":"重興里","LIN":"7鄰","STREET":"林森路","SECT":"三段","MAREA":" ","LANE":"１４０巷","ALLEY":" ","HOUSE_NO":"３２號","E_COORD97":170620.38,"N_COORD97":2544909.4100000001,"ADDRESS":"林森路三段１４０巷３２號","OBJECTID":307721},"geometry":{"x":170620.37999999989,"y":2544909.4100000001}},{"attributes":{"ID":307730,"DIS_CODE":0,"TOWNNAME":"北區","LI":"重興里","LIN":"7鄰","STREET":"林森路","SECT":"三段","MAREA":" ","LANE":"１４０巷","ALLEY":" ","HOUSE_NO":"３４號","E_COORD97":170622.64999999999,"N_COORD97":2544921.9100000001,"ADDRESS":"林森路三段１４０巷３４號","OBJECTID":307722},"geometry":{"x":170622.65000000037,"y":2544921.9100000001}},{"attributes":{"ID":307731,"DIS_CODE":0,"TOWNNAME":"北區","LI":"大豐里","LIN":"13鄰","STREET":"和緯路","SECT":"四段","MAREA":" ","LANE":"１３９巷","ALLEY":" ","HOUSE_NO":"２號之１","E_COORD97":167021.82999999999,"N_COORD97":2545426.7000000002,"ADDRESS":"和緯路四段１３９巷２號之１","OBJECTID":307723},"geometry":{"x":167021.83000000101,"y":2545426.7000000011}},{"attributes":{"ID":307732,"DIS_CODE":0,"TOWNNAME":"北區","LI":"延平里","LIN":"10鄰","STREET":"公園路","SECT":" ","MAREA":" ","LANE":"８２０巷","ALLEY":" ","HOUSE_NO":"２５號","E_COORD97":169273.34,"N_COORD97":2545815.96,"ADDRESS":"公園路８２０巷２５號","OBJECTID":307724},"geometry":{"x":169273.33999999985,"y":2545815.9600000028}},{"attributes":{"ID":307733,"DIS_CODE":0,"TOWNNAME":"北區","LI":"延平里","LIN":"10鄰","STREET":"公園路","SECT":" ","MAREA":" ","LANE":"８２０巷","ALLEY":" ","HOUSE_NO":"２７號","E_COORD97":169276.60999999999,"N_COORD97":2545814.7599999998,"ADDRESS":"公園路８２０巷２７號","OBJECTID":307725},"geometry":{"x":169276.61000000127,"y":2545814.7599999998}},{"attributes":{"ID":307734,"DIS_CODE":0,"TOWNNAME":"仁德區","LI":"上崙里","LIN":"8鄰","STREET":"德善路","SECT":" ","MAREA":" ","LANE":"２９０巷","ALLEY":" ","HOUSE_NO":"３２號","E_COORD97":173907.04999999999,"N_COORD97":2538449.52,"ADDRESS":"德善路２９０巷３２號","OBJECTID":307726},"geometry":{"x":173907.05000000075,"y":2538449.5199999996}},{"attributes":{"ID":307735,"DIS_CODE":0,"TOWNNAME":"下營區","LI":"新興里","LIN":"17鄰","STREET":"中山路","SECT":"一段","MAREA":" ","LANE":" ","ALLEY":" ","HOUSE_NO":"５４２號","E_COORD97":175783.17000000001,"N_COORD97":2571162.46,"ADDRESS":"中山路一段５４２號","OBJECTID":307727},"geometry":{"x":175783.17000000086,"y":2571162.4600000028}},{"attributes":{"ID":307736,"DIS_CODE":0,"TOWNNAME":"下營區","LI":"新興里","LIN":"17鄰","STREET":"中山路","SECT":"一段","MAREA":" ","LANE":" ","ALLEY":" ","HOUSE_NO":"５８２號","E_COORD97":175910.92000000001,"N_COORD97":2571224.5099999998,"ADDRESS":"中山路一段５８２號","OBJECTID":307728},"geometry":{"x":175910.91999999993,"y":2571224.5099999998}},{"attributes":{"ID":307737,"DIS_CODE":0,"TOWNNAME":"新營區","LI":"嘉芳里","LIN":"14鄰","STREET":"新嘉街","SECT":" ","MAREA":" ","LANE":" ","ALLEY":" ","HOUSE_NO":"１１號","E_COORD97":176314.92999999999,"N_COORD97":2578457.7000000002,"ADDRESS":"新嘉街１１號","OBJECTID":307729},"geometry":{"x":176314.93000000063,"y":2578457.6999999993}},{"attributes":{"ID":307738,"DIS_CODE":0,"TOWNNAME":"安南區","LI":"海東里","LIN":"17鄰","STREET":"安中路","SECT":"一段","MAREA":" ","LANE":" ","ALLEY":" ","HOUSE_NO":"８１１號","E_COORD97":167304.76000000001,"N_COORD97":2549423.3799999999,"ADDRESS":"安中路一段８１１號","OBJECTID":307730},"geometry":{"x":167304.76000000071,"y":2549423.379999999}},{"attributes":{"ID":307739,"DIS_CODE":0,"TOWNNAME":"安南區","LI":"海東里","LIN":"17鄰","STREET":"安中路","SECT":"一段","MAREA":" ","LANE":" ","ALLEY":" ","HOUSE_NO":"８１５號","E_COORD97":167298.79000000001,"N_COORD97":2549428.71,"ADDRESS":"安中路一段８１５號","OBJECTID":307731},"geometry":{"x":167298.79000000004,"y":2549428.7100000028}},{"attributes":{"ID":307740,"DIS_CODE":0,"TOWNNAME":"安南區","LI":"海東里","LIN":"17鄰","STREET":"安中路","SECT":"一段","MAREA":" ","LANE":" ","ALLEY":" ","HOUSE_NO":"８１７號","E_COORD97":167295.23999999999,"N_COORD97":2549431.1200000001,"ADDRESS":"安中路一段８１７號","OBJECTID":307732},"geometry":{"x":167295.24000000115,"y":2549431.120000001}},{"attributes":{"ID":307741,"DIS_CODE":0,"TOWNNAME":"安南區","LI":"新順里","LIN":"17鄰","STREET":"頂安街","SECT":" ","MAREA":" ","LANE":" ","ALLEY":" ","HOUSE_NO":"１１９號","E_COORD97":169379.53,"N_COORD97":2549367.96,"ADDRESS":"頂安街１１９號","OBJECTID":307733},"geometry":{"x":169379.52999999933,"y":2549367.9600000009}},{"attributes":{"ID":307742,"DIS_CODE":0,"TOWNNAME":"安南區","LI":"新順里","LIN":"17鄰","STREET":"頂安街","SECT":" ","MAREA":" ","LANE":" ","ALLEY":" ","HOUSE_NO":"１２９號","E_COORD97":169360.98000000001,"N_COORD97":2549367.8300000001,"ADDRESS":"頂安街１２９號","OBJECTID":307734},"geometry":{"x":169360.98000000045,"y":2549367.8300000001}},{"attributes":{"ID":307743,"DIS_CODE":0,"TOWNNAME":"安南區","LI":"新順里","LIN":"17鄰","STREET":"頂安街","SECT":" ","MAREA":" ","LANE":" ","ALLEY":" ","HOUSE_NO":"１３１號","E_COORD97":169357.42999999999,"N_COORD97":2549367.96,"ADDRESS":"頂安街１３１號","OBJECTID":307735},"geometry":{"x":169357.4299999997,"y":2549367.9600000009}},{"attributes":{"ID":307744,"DIS_CODE":0,"TOWNNAME":"安南區","LI":"新順里","LIN":"17鄰","STREET":"頂安街","SECT":" ","MAREA":" ","LANE":" ","ALLEY":" ","HOUSE_NO":"１３３號","E_COORD97":169353.10999999999,"N_COORD97":2549368.0899999999,"ADDRESS":"頂安街１３３號","OBJECTID":307736},"geometry":{"x":169353.11000000034,"y":2549368.0900000017}},{"attributes":{"ID":307745,"DIS_CODE":0,"TOWNNAME":"安南區","LI":"溪心里","LIN":"17鄰","STREET":"海佃路","SECT":"三段","MAREA":" ","LANE":" ","ALLEY":" ","HOUSE_NO":"２０２號","E_COORD97":166026.88,"N_COORD97":2550198.0099999998,"ADDRESS":"海佃路三段２０２號","OBJECTID":307737},"geometry":{"x":166026.87999999989,"y":2550198.0100000035}},{"attributes":{"ID":307746,"DIS_CODE":0,"TOWNNAME":"安南區","LI":"溪心里","LIN":"17鄰","STREET":"海佃路","SECT":"三段","MAREA":" ","LANE":" ","ALLEY":" ","HOUSE_NO":"２１０號","E_COORD97":166030.53,"N_COORD97":2550194.52,"ADDRESS":"海佃路三段２１０號","OBJECTID":307738},"geometry":{"x":166030.53000000119,"y":2550194.5200000014}},{"attributes":{"ID":307747,"DIS_CODE":0,"TOWNNAME":"仁德區","LI":"大甲里","LIN":"8鄰","STREET":"行大街","SECT":" ","MAREA":" ","LANE":"３０７巷","ALLEY":" ","HOUSE_NO":"１４號","E_COORD97":169688.32000000001,"N_COORD97":2535105.7400000002,"ADDRESS":"行大街３０７巷１４號","OBJECTID":307739},"geometry":{"x":169688.32000000123,"y":2535105.7400000002}},{"attributes":{"ID":307748,"DIS_CODE":0,"TOWNNAME":"仁德區","LI":"上崙里","LIN":"8鄰","STREET":"德善路","SECT":" ","MAREA":" ","LANE":"２９０巷","ALLEY":" ","HOUSE_NO":"１８號","E_COORD97":173935.44,"N_COORD97":2538440.77,"ADDRESS":"德善路２９０巷１８號","OBJECTID":307740},"geometry":{"x":173935.44000000227,"y":2538440.7699999996}},{"attributes":{"ID":307749,"DIS_CODE":0,"TOWNNAME":"仁德區","LI":"上崙里","LIN":"8鄰","STREET":"德善路","SECT":" ","MAREA":" ","LANE":"２９０巷","ALLEY":" ","HOUSE_NO":"３６號","E_COORD97":173899.19,"N_COORD97":2538451.77,"ADDRESS":"德善路２９０巷３６號","OBJECTID":307741},"geometry":{"x":173899.19000000041,"y":2538451.7700000033}},{"attributes":{"ID":307750,"DIS_CODE":0,"TOWNNAME":"新營區","LI":"土庫里","LIN":"8鄰","STREET":" ","SECT":" ","MAREA":"土庫","LANE":" ","ALLEY":" ","HOUSE_NO":"７１號之７","E_COORD97":182890.89999999999,"N_COORD97":2579925.98,"ADDRESS":"土庫７１號之７","OBJECTID":307742},"geometry":{"x":182890.90000000037,"y":2579925.9800000023}},{"attributes":{"ID":307751,"DIS_CODE":0,"TOWNNAME":"仁德區","LI":"上崙里","LIN":"8鄰","STREET":"德善路","SECT":" ","MAREA":" ","LANE":"２９０巷","ALLEY":" ","HOUSE_NO":"４６號","E_COORD97":173883.51000000001,"N_COORD97":2538456.27,"ADDRESS":"德善路２９０巷４６號","OBJECTID":307743},"geometry":{"x":173883.51000000164,"y":2538456.2700000014}},{"attributes":{"ID":307752,"DIS_CODE":0,"TOWNNAME":"仁德區","LI":"大甲里","LIN":"8鄰","STREET":"行大街","SECT":" ","MAREA":" ","LANE":"３０７巷","ALLEY":" ","HOUSE_NO":"１６號","E_COORD97":169686.92999999999,"N_COORD97":2535101.4900000002,"ADDRESS":"行大街３０７巷１６號","OBJECTID":307744},"geometry":{"x":169686.93000000063,"y":2535101.4900000021}},{"attributes":{"ID":307753,"DIS_CODE":0,"TOWNNAME":"仁德區","LI":"大甲里","LIN":"8鄰","STREET":"行大街","SECT":" ","MAREA":" ","LANE":"３０７巷","ALLEY":" ","HOUSE_NO":"６號","E_COORD97":169701.29000000001,"N_COORD97":2535139,"ADDRESS":"行大街３０７巷６號","OBJECTID":307745},"geometry":{"x":169701.29000000004,"y":2535139.0000000019}},{"attributes":{"ID":307754,"DIS_CODE":0,"TOWNNAME":"仁德區","LI":"大甲里","LIN":"8鄰","STREET":"行大街","SECT":" ","MAREA":" ","LANE":"３０７巷","ALLEY":" ","HOUSE_NO":"４２號","E_COORD97":169684.63,"N_COORD97":2535130.75,"ADDRESS":"行大街３０７巷４２號","OBJECTID":307746},"geometry":{"x":169684.62999999989,"y":2535130.7500000019}},{"attributes":{"ID":307755,"DIS_CODE":0,"TOWNNAME":"東區","LI":"虎尾里","LIN":"8鄰","STREET":"東成街","SECT":" ","MAREA":" ","LANE":"１４２巷","ALLEY":" ","HOUSE_NO":"５０號","E_COORD97":171670.38,"N_COORD97":2542142.9500000002,"ADDRESS":"東成街１４２巷５０號","OBJECTID":307747},"geometry":{"x":171670.37999999896,"y":2542142.9500000011}},{"attributes":{"ID":307756,"DIS_CODE":0,"TOWNNAME":"東區","LI":"大學里","LIN":"8鄰","STREET":"大學路","SECT":" ","MAREA":" ","LANE":"１８巷","ALLEY":" ","HOUSE_NO":"７號之１","E_COORD97":170134.98999999999,"N_COORD97":2543965.6200000001,"ADDRESS":"大學路１８巷７號之１","OBJECTID":307748},"geometry":{"x":170134.99000000115,"y":2543965.620000001}},{"attributes":{"ID":307757,"DIS_CODE":0,"TOWNNAME":"東區","LI":"仁和里","LIN":"8鄰","STREET":"仁和路","SECT":" ","MAREA":" ","LANE":"１０９巷","ALLEY":" ","HOUSE_NO":"１３４號","E_COORD97":171708.98000000001,"N_COORD97":2541323.1200000001,"ADDRESS":"仁和路１０９巷１３４號","OBJECTID":307749},"geometry":{"x":171708.98000000045,"y":2541323.1200000029}},{"attributes":{"ID":307758,"DIS_CODE":0,"TOWNNAME":"東區","LI":"仁和里","LIN":"8鄰","STREET":"仁和路","SECT":" ","MAREA":" ","LANE":"１０９巷","ALLEY":" ","HOUSE_NO":"１１０號","E_COORD97":171657.67999999999,"N_COORD97":2541324.5299999998,"ADDRESS":"仁和路１０９巷１１０號","OBJECTID":307750},"geometry":{"x":171657.6799999997,"y":2541324.5300000031}},{"attributes":{"ID":307759,"DIS_CODE":0,"TOWNNAME":"東區","LI":"大學里","LIN":"8鄰","STREET":"大學路","SECT":" ","MAREA":" ","LANE":"１８巷","ALLEY":" ","HOUSE_NO":"２４號","E_COORD97":170119.51000000001,"N_COORD97":2543869.2000000002,"ADDRESS":"大學路１８巷２４號","OBJECTID":307751},"geometry":{"x":170119.50999999978,"y":2543869.1999999993}},{"attributes":{"ID":307760,"DIS_CODE":0,"TOWNNAME":"東區","LI":"大學里","LIN":"8鄰","STREET":"大學路","SECT":" ","MAREA":" ","LANE":"１８巷","ALLEY":" ","HOUSE_NO":"２４號之１","E_COORD97":170119.45000000001,"N_COORD97":2543865.5699999998,"ADDRESS":"大學路１８巷２４號之１","OBJECTID":307752},"geometry":{"x":170119.45000000112,"y":2543865.5700000022}},{"attributes":{"ID":307761,"DIS_CODE":0,"TOWNNAME":"東區","LI":"大學里","LIN":"8鄰","STREET":"大學路","SECT":" ","MAREA":" ","LANE":"１８巷","ALLEY":" ","HOUSE_NO":"２４號之２","E_COORD97":170120.26000000001,"N_COORD97":2543862.0600000001,"ADDRESS":"大學路１８巷２４號之２","OBJECTID":307753},"geometry":{"x":170120.26000000071,"y":2543862.0600000024}},{"attributes":{"ID":307762,"DIS_CODE":0,"TOWNNAME":"東區","LI":"大學里","LIN":"8鄰","STREET":"大學路","SECT":" ","MAREA":" ","LANE":"１８巷","ALLEY":" ","HOUSE_NO":"２４號之３","E_COORD97":170119.89000000001,"N_COORD97":2543857.3999999999,"ADDRESS":"大學路１８巷２４號之３","OBJECTID":307754},"geometry":{"x":170119.8900000006,"y":2543857.4000000022}},{"attributes":{"ID":307763,"DIS_CODE":0,"TOWNNAME":"東區","LI":"忠孝里","LIN":"8鄰","STREET":"榮譽街","SECT":" ","MAREA":" ","LANE":"８４巷","ALLEY":" ","HOUSE_NO":"１２１號之１","E_COORD97":169814.67999999999,"N_COORD97":2541586.3500000001,"ADDRESS":"榮譽街８４巷１２１號之１","OBJECTID":307755},"geometry":{"x":169814.6799999997,"y":2541586.3499999996}},{"attributes":{"ID":307764,"DIS_CODE":0,"TOWNNAME":"東區","LI":"忠孝里","LIN":"8鄰","STREET":"榮譽街","SECT":" ","MAREA":" ","LANE":"８４巷","ALLEY":" ","HOUSE_NO":"１２１號之２","E_COORD97":169817.89000000001,"N_COORD97":2541588.2999999998,"ADDRESS":"榮譽街８４巷１２１號之２","OBJECTID":307756},"geometry":{"x":169817.8900000006,"y":2541588.3000000007}},{"attributes":{"ID":307765,"DIS_CODE":0,"TOWNNAME":"東區","LI":"忠孝里","LIN":"8鄰","STREET":"榮譽街","SECT":" ","MAREA":" ","LANE":"８４巷","ALLEY":" ","HOUSE_NO":"１２１號之３","E_COORD97":169822.07000000001,"N_COORD97":2541589.8999999999,"ADDRESS":"榮譽街８４巷１２１號之３","OBJECTID":307757},"geometry":{"x":169822.07000000123,"y":2541589.9000000004}},{"attributes":{"ID":307766,"DIS_CODE":0,"TOWNNAME":"東區","LI":"大學里","LIN":"8鄰","STREET":"大學路","SECT":" ","MAREA":" ","LANE":"１８巷","ALLEY":" ","HOUSE_NO":"１８號","E_COORD97":170117.89000000001,"N_COORD97":2543905.5699999998,"ADDRESS":"大學路１８巷１８號","OBJECTID":307758},"geometry":{"x":170117.8900000006,"y":2543905.570000004}},{"attributes":{"ID":307767,"DIS_CODE":0,"TOWNNAME":"東區","LI":"大學里","LIN":"8鄰","STREET":"大學路","SECT":" ","MAREA":" ","LANE":"１８巷","ALLEY":" ","HOUSE_NO":"１８號之１","E_COORD97":170118.04999999999,"N_COORD97":2543899.8799999999,"ADDRESS":"大學路１８巷１８號之１","OBJECTID":307759},"geometry":{"x":170118.04999999888,"y":2543899.8800000008}},{"attributes":{"ID":307768,"DIS_CODE":0,"TOWNNAME":"東區","LI":"仁和里","LIN":"8鄰","STREET":"仁和路","SECT":" ","MAREA":" ","LANE":"１０９巷","ALLEY":" ","HOUSE_NO":"１０１號","E_COORD97":171628.57999999999,"N_COORD97":2541346.3999999999,"ADDRESS":"仁和路１０９巷１０１號","OBJECTID":307760},"geometry":{"x":171628.58000000194,"y":2541346.4000000004}},{"attributes":{"ID":307769,"DIS_CODE":0,"TOWNNAME":"東區","LI":"仁和里","LIN":"8鄰","STREET":"仁和路","SECT":" ","MAREA":" ","LANE":"１０９巷","ALLEY":" ","HOUSE_NO":"１０７號","E_COORD97":171640.5,"N_COORD97":2541344.8700000001,"ADDRESS":"仁和路１０９巷１０７號","OBJECTID":307761},"geometry":{"x":171640.5,"y":2541344.8700000029}},{"attributes":{"ID":307770,"DIS_CODE":0,"TOWNNAME":"東區","LI":"仁和里","LIN":"8鄰","STREET":"仁和路","SECT":" ","MAREA":" ","LANE":"１０９巷","ALLEY":" ","HOUSE_NO":"１０９號","E_COORD97":171647.38,"N_COORD97":2541344.5699999998,"ADDRESS":"仁和路１０９巷１０９號","OBJECTID":307762},"geometry":{"x":171647.38000000082,"y":2541344.5700000003}},{"attributes":{"ID":307771,"DIS_CODE":0,"TOWNNAME":"東區","LI":"仁和里","LIN":"8鄰","STREET":"仁和路","SECT":" ","MAREA":" ","LANE":"１０９巷","ALLEY":" ","HOUSE_NO":"１１１號","E_COORD97":171653.64999999999,"N_COORD97":2541343.96,"ADDRESS":"仁和路１０９巷１１１號","OBJECTID":307763},"geometry":{"x":171653.65000000037,"y":2541343.9600000028}},{"attributes":{"ID":307772,"DIS_CODE":0,"TOWNNAME":"東區","LI":"仁和里","LIN":"8鄰","STREET":"仁和路","SECT":" ","MAREA":" ","LANE":"１０９巷","ALLEY":" ","HOUSE_NO":"１１３號","E_COORD97":171666.64000000001,"N_COORD97":2541341.5099999998,"ADDRESS":"仁和路１０９巷１１３號","OBJECTID":307764},"geometry":{"x":171666.63999999966,"y":2541341.5099999998}},{"attributes":{"ID":307773,"DIS_CODE":0,"TOWNNAME":"佳里區","LI":"忠仁里","LIN":"1鄰","STREET":"中山路","SECT":" ","MAREA":" ","LANE":" ","ALLEY":" ","HOUSE_NO":"２５２號","E_COORD97":165730.20000000001,"N_COORD97":2562263.4300000002,"ADDRESS":"中山路２５２號","OBJECTID":307765},"geometry":{"x":165730.20000000019,"y":2562263.4299999997}},{"attributes":{"ID":307774,"DIS_CODE":0,"TOWNNAME":"佳里區","LI":"東寧里","LIN":"11鄰","STREET":"進學路","SECT":" ","MAREA":" ","LANE":" ","ALLEY":" ","HOUSE_NO":"１２３號","E_COORD97":166010.13707500001,"N_COORD97":2562657.19606,"ADDRESS":"進學路１２３號","OBJECTID":307766},"geometry":{"x":166010.13707500137,"y":2562657.1960620005}},{"attributes":{"ID":307775,"DIS_CODE":0,"TOWNNAME":"北區","LI":"安民里","LIN":"6鄰","STREET":"海安路","SECT":"三段","MAREA":" ","LANE":"４１巷","ALLEY":" ","HOUSE_NO":"１１號","E_COORD97":167863.56,"N_COORD97":2544714.6000000001,"ADDRESS":"海安路三段４１巷１１號","OBJECTID":307767},"geometry":{"x":167863.56000000052,"y":2544714.5999999978}},{"attributes":{"ID":307776,"DIS_CODE":0,"TOWNNAME":"北區","LI":"安民里","LIN":"6鄰","STREET":"海安路","SECT":"三段","MAREA":" ","LANE":"４１巷","ALLEY":" ","HOUSE_NO":"１２號","E_COORD97":167862.13,"N_COORD97":2544730.9700000002,"ADDRESS":"海安路三段４１巷１２號","OBJECTID":307768},"geometry":{"x":167862.13000000082,"y":2544730.9700000025}},{"attributes":{"ID":307777,"DIS_CODE":0,"TOWNNAME":"北區","LI":"安民里","LIN":"6鄰","STREET":"海安路","SECT":"三段","MAREA":" ","LANE":"４１巷","ALLEY":" ","HOUSE_NO":"１３號","E_COORD97":167858.98000000001,"N_COORD97":2544716.4700000002,"ADDRESS":"海安路三段４１巷１３號","OBJECTID":307769},"geometry":{"x":167858.98000000045,"y":2544716.4700000007}},{"attributes":{"ID":307778,"DIS_CODE":0,"TOWNNAME":"北區","LI":"安民里","LIN":"6鄰","STREET":"海安路","SECT":"三段","MAREA":" ","LANE":"４１巷","ALLEY":" ","HOUSE_NO":"１４號","E_COORD97":167856.67999999999,"N_COORD97":2544733.21,"ADDRESS":"海安路三段４１巷１４號","OBJECTID":307770},"geometry":{"x":167856.6799999997,"y":2544733.2100000028}},{"attributes":{"ID":307779,"DIS_CODE":0,"TOWNNAME":"東區","LI":"仁和里","LIN":"8鄰","STREET":"仁和路","SECT":" ","MAREA":" ","LANE":"１０９巷","ALLEY":" ","HOUSE_NO":"９１號","E_COORD97":171606.85999999999,"N_COORD97":2541345.9700000002,"ADDRESS":"仁和路１０９巷９１號","OBJECTID":307771},"geometry":{"x":171606.86000000127,"y":2541345.9700000007}},{"attributes":{"ID":307780,"DIS_CODE":0,"TOWNNAME":"東區","LI":"仁和里","LIN":"8鄰","STREET":"仁和路","SECT":" ","MAREA":" ","LANE":"１０９巷","ALLEY":" ","HOUSE_NO":"９３號","E_COORD97":171611.38,"N_COORD97":2541344.9900000002,"ADDRESS":"仁和路１０９巷９３號","OBJECTID":307772},"geometry":{"x":171611.38000000082,"y":2541344.9900000002}},{"attributes":{"ID":307781,"DIS_CODE":0,"TOWNNAME":"東區","LI":"仁和里","LIN":"8鄰","STREET":"仁和路","SECT":" ","MAREA":" ","LANE":"１０９巷","ALLEY":" ","HOUSE_NO":"９５號","E_COORD97":171615.70000000001,"N_COORD97":2541346.1600000001,"ADDRESS":"仁和路１０９巷９５號","OBJECTID":307773},"geometry":{"x":171615.70000000019,"y":2541346.160000002}},{"attributes":{"ID":307782,"DIS_CODE":0,"TOWNNAME":"東區","LI":"仁和里","LIN":"8鄰","STREET":"仁和路","SECT":" ","MAREA":" ","LANE":"１０９巷","ALLEY":" ","HOUSE_NO":"９７號","E_COORD97":171621,"N_COORD97":2541345.1800000002,"ADDRESS":"仁和路１０９巷９７號","OBJECTID":307774},"geometry":{"x":171621.00000000093,"y":2541345.1800000016}},{"attributes":{"ID":307783,"DIS_CODE":0,"TOWNNAME":"東區","LI":"仁和里","LIN":"8鄰","STREET":"仁和路","SECT":" ","MAREA":" ","LANE":"１０９巷","ALLEY":" ","HOUSE_NO":"９９號","E_COORD97":171624.53,"N_COORD97":2541346.75,"ADDRESS":"仁和路１０９巷９９號","OBJECTID":307775},"geometry":{"x":171624.53000000119,"y":2541346.75}},{"attributes":{"ID":307784,"DIS_CODE":0,"TOWNNAME":"東區","LI":"東安里","LIN":"8鄰","STREET":"長榮路","SECT":"二段","MAREA":" ","LANE":"３２巷","ALLEY":" ","HOUSE_NO":"５２號","E_COORD97":170076.94,"N_COORD97":2543188.7400000002,"ADDRESS":"長榮路二段３２巷５２號","OBJECTID":307776},"geometry":{"x":170076.94000000041,"y":2543188.7400000039}},{"attributes":{"ID":307785,"DIS_CODE":0,"TOWNNAME":"東區","LI":"東安里","LIN":"8鄰","STREET":"長榮路","SECT":"二段","MAREA":" ","LANE":"３２巷","ALLEY":" ","HOUSE_NO":"５４號","E_COORD97":170080.60999999999,"N_COORD97":2543189.6899999999,"ADDRESS":"長榮路二段３２巷５４號","OBJECTID":307777},"geometry":{"x":170080.61000000034,"y":2543189.6900000013}},{"attributes":{"ID":307786,"DIS_CODE":0,"TOWNNAME":"東區","LI":"東安里","LIN":"8鄰","STREET":"長榮路","SECT":"二段","MAREA":" ","LANE":"３２巷","ALLEY":" ","HOUSE_NO":"５６號","E_COORD97":170084.07999999999,"N_COORD97":2543192.5499999998,"ADDRESS":"長榮路二段３２巷５６號","OBJECTID":307778},"geometry":{"x":170084.08000000007,"y":2543192.5500000007}},{"attributes":{"ID":307787,"DIS_CODE":0,"TOWNNAME":"東區","LI":"東安里","LIN":"8鄰","STREET":"長榮路","SECT":"二段","MAREA":" ","LANE":"３２巷","ALLEY":" ","HOUSE_NO":"５８號","E_COORD97":170088.97,"N_COORD97":2543182.77,"ADDRESS":"長榮路二段３２巷５８號","OBJECTID":307779},"geometry":{"x":170088.96999999974,"y":2543182.7700000014}},{"attributes":{"ID":307788,"DIS_CODE":0,"TOWNNAME":"東區","LI":"東安里","LIN":"8鄰","STREET":"長榮路","SECT":"二段","MAREA":" ","LANE":"３２巷","ALLEY":" ","HOUSE_NO":"６０號","E_COORD97":170091.23000000001,"N_COORD97":2543180.04,"ADDRESS":"長榮路二段３２巷６０號","OBJECTID":307780},"geometry":{"x":170091.23000000138,"y":2543180.040000001}},{"attributes":{"ID":307789,"DIS_CODE":0,"TOWNNAME":"東區","LI":"東安里","LIN":"8鄰","STREET":"長榮路","SECT":"二段","MAREA":" ","LANE":"３２巷","ALLEY":" ","HOUSE_NO":"６２號","E_COORD97":170093.57000000001,"N_COORD97":2543176.3199999998,"ADDRESS":"長榮路二段３２巷６２號","OBJECTID":307781},"geometry":{"x":170093.57000000123,"y":2543176.3200000022}},{"attributes":{"ID":307790,"DIS_CODE":0,"TOWNNAME":"東區","LI":"東安里","LIN":"8鄰","STREET":"長榮路","SECT":"二段","MAREA":" ","LANE":"３２巷","ALLEY":" ","HOUSE_NO":"６４號","E_COORD97":170096.41,"N_COORD97":2543173.48,"ADDRESS":"長榮路二段３２巷６４號","OBJECTID":307782},"geometry":{"x":170096.41000000108,"y":2543173.4800000004}},{"attributes":{"ID":307791,"DIS_CODE":0,"TOWNNAME":"東區","LI":"東安里","LIN":"8鄰","STREET":"長榮路","SECT":"二段","MAREA":" ","LANE":"３２巷","ALLEY":" ","HOUSE_NO":"６６號","E_COORD97":170099.94,"N_COORD97":2543170.4500000002,"ADDRESS":"長榮路二段３２巷６６號","OBJECTID":307783},"geometry":{"x":170099.94000000134,"y":2543170.4500000011}},{"attributes":{"ID":307792,"DIS_CODE":0,"TOWNNAME":"東區","LI":"東安里","LIN":"8鄰","STREET":"長榮路","SECT":"二段","MAREA":" ","LANE":"３２巷","ALLEY":" ","HOUSE_NO":"６８號","E_COORD97":170108.94,"N_COORD97":2543175.54,"ADDRESS":"長榮路二段３２巷６８號","OBJECTID":307784},"geometry":{"x":170108.94000000041,"y":2543175.5400000028}},{"attributes":{"ID":307793,"DIS_CODE":0,"TOWNNAME":"東區","LI":"東安里","LIN":"8鄰","STREET":"長榮路","SECT":"二段","MAREA":" ","LANE":"３２巷","ALLEY":" ","HOUSE_NO":"７０號","E_COORD97":170106.98000000001,"N_COORD97":2543179.7400000002,"ADDRESS":"長榮路二段３２巷７０號","OBJECTID":307785},"geometry":{"x":170106.98000000045,"y":2543179.7400000021}},{"attributes":{"ID":307794,"DIS_CODE":0,"TOWNNAME":"東區","LI":"東安里","LIN":"8鄰","STREET":"長榮路","SECT":"二段","MAREA":" ","LANE":"３２巷","ALLEY":" ","HOUSE_NO":"７２號","E_COORD97":170104.04999999999,"N_COORD97":2543184.1400000001,"ADDRESS":"長榮路二段３２巷７２號","OBJECTID":307786},"geometry":{"x":170104.04999999981,"y":2543184.1400000025}},{"attributes":{"ID":307795,"DIS_CODE":0,"TOWNNAME":"東區","LI":"東安里","LIN":"8鄰","STREET":"長榮路","SECT":"二段","MAREA":" ","LANE":"３２巷","ALLEY":" ","HOUSE_NO":"７４號","E_COORD97":170096.51000000001,"N_COORD97":2543192.6499999999,"ADDRESS":"長榮路二段３２巷７４號","OBJECTID":307787},"geometry":{"x":170096.51000000071,"y":2543192.6500000004}},{"attributes":{"ID":307796,"DIS_CODE":0,"TOWNNAME":"安南區","LI":"溪心里","LIN":"17鄰","STREET":"海佃路","SECT":"三段","MAREA":" ","LANE":" ","ALLEY":" ","HOUSE_NO":"２０８號","E_COORD97":166032.76000000001,"N_COORD97":2550190.3900000001,"ADDRESS":"海佃路三段２０８號","OBJECTID":307788},"geometry":{"x":166032.75999999978,"y":2550190.3900000025}},{"attributes":{"ID":307797,"DIS_CODE":0,"TOWNNAME":"安南區","LI":"溪心里","LIN":"17鄰","STREET":"海佃路","SECT":"三段","MAREA":" ","LANE":" ","ALLEY":" ","HOUSE_NO":"２０２號","E_COORD97":166037.51999999999,"N_COORD97":2550185.4700000002,"ADDRESS":"海佃路三段２０２號","OBJECTID":307789},"geometry":{"x":166037.51999999955,"y":2550185.4700000044}},{"attributes":{"ID":307798,"DIS_CODE":0,"TOWNNAME":"安南區","LI":"溪心里","LIN":"17鄰","STREET":"功安四街","SECT":" ","MAREA":" ","LANE":" ","ALLEY":" ","HOUSE_NO":"１２５號","E_COORD97":166129.91,"N_COORD97":2550226.5899999999,"ADDRESS":"功安四街１２５號","OBJECTID":307790},"geometry":{"x":166129.91000000015,"y":2550226.5899999999}},{"attributes":{"ID":307799,"DIS_CODE":0,"TOWNNAME":"安南區","LI":"溪心里","LIN":"17鄰","STREET":"功安四街","SECT":" ","MAREA":" ","LANE":" ","ALLEY":" ","HOUSE_NO":"１２３號","E_COORD97":166132.13,"N_COORD97":2550223.5699999998,"ADDRESS":"功安四街１２３號","OBJECTID":307791},"geometry":{"x":166132.12999999989,"y":2550223.5700000003}},{"attributes":{"ID":307800,"DIS_CODE":0,"TOWNNAME":"安南區","LI":"溪心里","LIN":"17鄰","STREET":"功安四街","SECT":" ","MAREA":" ","LANE":" ","ALLEY":" ","HOUSE_NO":"１２１號","E_COORD97":166134.04000000001,"N_COORD97":2550221.0299999998,"ADDRESS":"功安四街１２１號","OBJECTID":307792},"geometry":{"x":166134.04000000004,"y":2550221.0300000031}},{"attributes":{"ID":307801,"DIS_CODE":0,"TOWNNAME":"永康區","LI":"復華里","LIN":"26鄰","STREET":"復華八街","SECT":" ","MAREA":" ","LANE":"４７巷","ALLEY":" ","HOUSE_NO":"３６號五樓之１","E_COORD97":172690.28,"N_COORD97":2546385.6800000002,"ADDRESS":"復華八街４７巷３６號五樓之１","OBJECTID":307793},"geometry":{"x":172690.27999999933,"y":2546385.6800000034}},{"attributes":{"ID":307802,"DIS_CODE":0,"TOWNNAME":"永康區","LI":"復華里","LIN":"26鄰","STREET":"復華八街","SECT":" ","MAREA":" ","LANE":"４７巷","ALLEY":" ","HOUSE_NO":"３６號七樓之１","E_COORD97":172690.28,"N_COORD97":2546385.6800000002,"ADDRESS":"復華八街４７巷３６號七樓之１","OBJECTID":307794},"geometry":{"x":172690.27999999933,"y":2546385.6800000034}},{"attributes":{"ID":307803,"DIS_CODE":0,"TOWNNAME":"永康區","LI":"復華里","LIN":"26鄰","STREET":"復華八街","SECT":" ","MAREA":" ","LANE":"４７巷","ALLEY":" ","HOUSE_NO":"３６號十樓之１","E_COORD97":172690.28,"N_COORD97":2546385.6800000002,"ADDRESS":"復華八街４７巷３６號十樓之１","OBJECTID":307795},"geometry":{"x":172690.27999999933,"y":2546385.6800000034}},{"attributes":{"ID":307804,"DIS_CODE":0,"TOWNNAME":"東區","LI":"東安里","LIN":"8鄰","STREET":"長榮路","SECT":"二段","MAREA":" ","LANE":"３２巷","ALLEY":" ","HOUSE_NO":"７６號","E_COORD97":170100.23000000001,"N_COORD97":2543194.4100000001,"ADDRESS":"長榮路二段３２巷７６號","OBJECTID":307796},"geometry":{"x":170100.23000000045,"y":2543194.4100000039}},{"attributes":{"ID":307805,"DIS_CODE":0,"TOWNNAME":"東區","LI":"東安里","LIN":"8鄰","STREET":"長榮路","SECT":"二段","MAREA":" ","LANE":"３２巷","ALLEY":" ","HOUSE_NO":"７８號","E_COORD97":170105.32000000001,"N_COORD97":2543196.27,"ADDRESS":"長榮路二段３２巷７８號","OBJECTID":307797},"geometry":{"x":170105.32000000123,"y":2543196.2700000014}},{"attributes":{"ID":307806,"DIS_CODE":0,"TOWNNAME":"東區","LI":"東安里","LIN":"8鄰","STREET":"長榮路","SECT":"二段","MAREA":" ","LANE":"３２巷","ALLEY":" ","HOUSE_NO":"８０號","E_COORD97":170114.91,"N_COORD97":2543197.54,"ADDRESS":"長榮路二段３２巷８０號","OBJECTID":307798},"geometry":{"x":170114.91000000108,"y":2543197.5399999991}},{"attributes":{"ID":307807,"DIS_CODE":0,"TOWNNAME":"永康區","LI":"西勢里","LIN":"8鄰","STREET":"富強路","SECT":"一段","MAREA":" ","LANE":"３０６巷","ALLEY":" ","HOUSE_NO":"８號","E_COORD97":175751.88,"N_COORD97":2546650.0299999998,"ADDRESS":"富強路一段３０６巷８號","OBJECTID":307799},"geometry":{"x":175751.87999999989,"y":2546650.0299999993}},{"attributes":{"ID":307808,"DIS_CODE":0,"TOWNNAME":"永康區","LI":"西橋里","LIN":"8鄰","STREET":"中華西街","SECT":" ","MAREA":" ","LANE":"６３巷","ALLEY":" ","HOUSE_NO":"１６號","E_COORD97":170690.54000000001,"N_COORD97":2546031,"ADDRESS":"中華西街６３巷１６號","OBJECTID":307800},"geometry":{"x":170690.54000000097,"y":2546031}}]}