{"displayFieldName":"TOWNNAME","fieldAliases":{"ID":"ID","DIS_CODE":"DIS_CODE","TOWNNAME":"TOWNNAME","LI":"LI","LIN":"LIN","STREET":"STREET","SECT":"SECT","MAREA":"MAREA","LANE":"LANE","ALLEY":"ALLEY","HOUSE_NO":"HOUSE_NO","E_COORD97":"E_COORD97","N_COORD97":"N_COORD97","ADDRESS":"ADDRESS","OBJECTID":"OBJECTID"},"geometryType":"esriGeometryPoint","spatialReference":{"wkid":102443,"latestWkid":3826},"fields":[{"name":"ID","type":"esriFieldTypeDouble","alias":"ID"},{"name":"DIS_CODE","type":"esriFieldTypeInteger","alias":"DIS_CODE"},{"name":"TOWNNAME","type":"esriFieldTypeString","alias":"TOWNNAME","length":8},{"name":"LI","type":"esriFieldTypeString","alias":"LI","length":8},{"name":"LIN","type":"esriFieldTypeString","alias":"LIN","length":12},{"name":"STREET","type":"esriFieldTypeString","alias":"STREET","length":20},{"name":"SECT","type":"esriFieldTypeString","alias":"SECT","length":8},{"name":"MAREA","type":"esriFieldTypeString","alias":"MAREA","length":12},{"name":"LANE","type":"esriFieldTypeString","alias":"LANE","length":10},{"name":"ALLEY","type":"esriFieldTypeString","alias":"ALLEY","length":10},{"name":"HOUSE_NO","type":"esriFieldTypeString","alias":"HOUSE_NO","length":20},{"name":"E_COORD97","type":"esriFieldTypeDouble","alias":"E_COORD97"},{"name":"N_COORD97","type":"esriFieldTypeDouble","alias":"N_COORD97"},{"name":"ADDRESS","type":"esriFieldTypeString","alias":"ADDRESS","length":50},{"name":"OBJECTID","type":"esriFieldTypeOID","alias":"OBJECTID"}],"features":[{"attributes":{"ID":231005,"DIS_CODE":0,"TOWNNAME":"善化區","LI":"南關里","LIN":"13鄰","STREET":"復興街","SECT":" ","MAREA":" ","LANE":"１２１巷","ALLEY":" ","HOUSE_NO":"４號","E_COORD97":176811.95000000001,"N_COORD97":2558990.2599999998,"ADDRESS":"復興街１２１巷４號","OBJECTID":231001},"geometry":{"x":176811.95000000205,"y":2558990.2599999998}},{"attributes":{"ID":231006,"DIS_CODE":0,"TOWNNAME":"六甲區","LI":"六甲里","LIN":"2鄰","STREET":"中華路","SECT":" ","MAREA":" ","LANE":"１０２巷","ALLEY":" ","HOUSE_NO":"２８號","E_COORD97":183249.20999999999,"N_COORD97":2569375.5699999998,"ADDRESS":"中華路１０２巷２８號","OBJECTID":231002},"geometry":{"x":183249.20999999996,"y":2569375.5700000022}},{"attributes":{"ID":231007,"DIS_CODE":0,"TOWNNAME":"六甲區","LI":"六甲里","LIN":"2鄰","STREET":"中華路","SECT":" ","MAREA":" ","LANE":"１０２巷","ALLEY":" ","HOUSE_NO":"３０號","E_COORD97":183277.47,"N_COORD97":2569404.8799999999,"ADDRESS":"中華路１０２巷３０號","OBJECTID":231003},"geometry":{"x":183277.47000000067,"y":2569404.8800000008}},{"attributes":{"ID":231008,"DIS_CODE":0,"TOWNNAME":"安南區","LI":"淵西里","LIN":"14鄰","STREET":"安中路","SECT":"四段","MAREA":" ","LANE":" ","ALLEY":" ","HOUSE_NO":"３１５號","E_COORD97":164445.26999999999,"N_COORD97":2550224.4100000001,"ADDRESS":"安中路四段３１５號","OBJECTID":231004},"geometry":{"x":164445.26999999955,"y":2550224.4100000001}},{"attributes":{"ID":231009,"DIS_CODE":0,"TOWNNAME":"新市區","LI":"大社里","LIN":"23鄰","STREET":" ","SECT":" ","MAREA":"大社","LANE":" ","ALLEY":" ","HOUSE_NO":"８５０號","E_COORD97":179683.56,"N_COORD97":2554170.25,"ADDRESS":"大社８５０號","OBJECTID":231005},"geometry":{"x":179683.55999999959,"y":2554170.2500000019}},{"attributes":{"ID":231010,"DIS_CODE":0,"TOWNNAME":"新市區","LI":"大社里","LIN":"23鄰","STREET":" ","SECT":" ","MAREA":"大社","LANE":" ","ALLEY":" ","HOUSE_NO":"８５１號之８","E_COORD97":179655.51000000001,"N_COORD97":2554168.5499999998,"ADDRESS":"大社８５１號之８","OBJECTID":231006},"geometry":{"x":179655.51000000164,"y":2554168.5499999989}},{"attributes":{"ID":231011,"DIS_CODE":0,"TOWNNAME":"新市區","LI":"大社里","LIN":"23鄰","STREET":" ","SECT":" ","MAREA":"大社","LANE":" ","ALLEY":" ","HOUSE_NO":"８５１號之１１","E_COORD97":179659.81,"N_COORD97":2554156.2999999998,"ADDRESS":"大社８５１號之１１","OBJECTID":231007},"geometry":{"x":179659.80999999959,"y":2554156.3000000007}},{"attributes":{"ID":231012,"DIS_CODE":0,"TOWNNAME":"新市區","LI":"大社里","LIN":"23鄰","STREET":" ","SECT":" ","MAREA":"大社","LANE":" ","ALLEY":" ","HOUSE_NO":"８５６號","E_COORD97":179674.37,"N_COORD97":2554123.75,"ADDRESS":"大社８５６號","OBJECTID":231008},"geometry":{"x":179674.37000000104,"y":2554123.7500000019}},{"attributes":{"ID":231013,"DIS_CODE":0,"TOWNNAME":"新市區","LI":"大社里","LIN":"23鄰","STREET":" ","SECT":" ","MAREA":"大社","LANE":" ","ALLEY":" ","HOUSE_NO":"８５１之２號","E_COORD97":179649.54000000001,"N_COORD97":2554192.7999999998,"ADDRESS":"大社８５１之２號","OBJECTID":231009},"geometry":{"x":179649.54000000097,"y":2554192.8000000007}},{"attributes":{"ID":231014,"DIS_CODE":0,"TOWNNAME":"新市區","LI":"大社里","LIN":"23鄰","STREET":" ","SECT":" ","MAREA":"大社","LANE":" ","ALLEY":" ","HOUSE_NO":"８６０之１號","E_COORD97":179636.01999999999,"N_COORD97":2554121.0499999998,"ADDRESS":"大社８６０之１號","OBJECTID":231010},"geometry":{"x":179636.01999999955,"y":2554121.0499999989}},{"attributes":{"ID":231015,"DIS_CODE":0,"TOWNNAME":"新市區","LI":"大社里","LIN":"23鄰","STREET":" ","SECT":" ","MAREA":"大社","LANE":" ","ALLEY":" ","HOUSE_NO":"８５１號之１","E_COORD97":179648.10999999999,"N_COORD97":2554197.0499999998,"ADDRESS":"大社８５１號之１","OBJECTID":231011},"geometry":{"x":179648.11000000034,"y":2554197.0500000026}},{"attributes":{"ID":231016,"DIS_CODE":0,"TOWNNAME":"新市區","LI":"大社里","LIN":"23鄰","STREET":" ","SECT":" ","MAREA":"大社","LANE":" ","ALLEY":" ","HOUSE_NO":"８６２號","E_COORD97":179706.48000000001,"N_COORD97":2554068,"ADDRESS":"大社８６２號","OBJECTID":231012},"geometry":{"x":179706.48000000045,"y":2554068.0000000019}},{"attributes":{"ID":231017,"DIS_CODE":0,"TOWNNAME":"新市區","LI":"新市里","LIN":"23鄰","STREET":"和平街","SECT":" ","MAREA":" ","LANE":"１６巷","ALLEY":" ","HOUSE_NO":"１０號","E_COORD97":177756.64999999999,"N_COORD97":2553508,"ADDRESS":"和平街１６巷１０號","OBJECTID":231013},"geometry":{"x":177756.65000000224,"y":2553508.0000000019}},{"attributes":{"ID":231018,"DIS_CODE":0,"TOWNNAME":"新市區","LI":"港墘里","LIN":"23鄰","STREET":"光華街","SECT":" ","MAREA":" ","LANE":"１５２巷","ALLEY":" ","HOUSE_NO":"１５號","E_COORD97":177947.60000000001,"N_COORD97":2552822.25,"ADDRESS":"光華街１５２巷１５號","OBJECTID":231014},"geometry":{"x":177947.5999999987,"y":2552822.2500000019}},{"attributes":{"ID":231019,"DIS_CODE":0,"TOWNNAME":"新市區","LI":"港墘里","LIN":"23鄰","STREET":"光華街","SECT":" ","MAREA":" ","LANE":"１５２巷","ALLEY":" ","HOUSE_NO":"２９號","E_COORD97":177977.56,"N_COORD97":2552826.5,"ADDRESS":"光華街１５２巷２９號","OBJECTID":231015},"geometry":{"x":177977.56000000052,"y":2552826.5000000019}},{"attributes":{"ID":231020,"DIS_CODE":0,"TOWNNAME":"六甲區","LI":"甲南里","LIN":"2鄰","STREET":"文化街","SECT":" ","MAREA":" ","LANE":"６１巷","ALLEY":" ","HOUSE_NO":"１０號","E_COORD97":183799.67999999999,"N_COORD97":2569806.4399999999,"ADDRESS":"文化街６１巷１０號","OBJECTID":231016},"geometry":{"x":183799.68000000063,"y":2569806.4399999995}},{"attributes":{"ID":231021,"DIS_CODE":0,"TOWNNAME":"新市區","LI":"大社里","LIN":"23鄰","STREET":" ","SECT":" ","MAREA":"大社","LANE":" ","ALLEY":" ","HOUSE_NO":"８５１號之１３","E_COORD97":179662.16,"N_COORD97":2554148.0499999998,"ADDRESS":"大社８５１號之１３","OBJECTID":231017},"geometry":{"x":179662.16000000108,"y":2554148.0500000007}},{"attributes":{"ID":231022,"DIS_CODE":0,"TOWNNAME":"新市區","LI":"大社里","LIN":"23鄰","STREET":" ","SECT":" ","MAREA":"大社","LANE":" ","ALLEY":" ","HOUSE_NO":"８５１之５號","E_COORD97":179652.73000000001,"N_COORD97":2554180.7999999998,"ADDRESS":"大社８５１之５號","OBJECTID":231018},"geometry":{"x":179652.73000000045,"y":2554180.8000000045}},{"attributes":{"ID":231023,"DIS_CODE":0,"TOWNNAME":"新市區","LI":"大社里","LIN":"23鄰","STREET":" ","SECT":" ","MAREA":"大社","LANE":" ","ALLEY":" ","HOUSE_NO":"８６０之３號","E_COORD97":179655.07000000001,"N_COORD97":2554083.2999999998,"ADDRESS":"大社８６０之３號","OBJECTID":231019},"geometry":{"x":179655.0700000003,"y":2554083.3000000026}},{"attributes":{"ID":231024,"DIS_CODE":0,"TOWNNAME":"南區","LI":"建南里","LIN":"2鄰","STREET":"德興路","SECT":" ","MAREA":" ","LANE":"２１５巷","ALLEY":" ","HOUSE_NO":"２號","E_COORD97":167241.84,"N_COORD97":2540152.25,"ADDRESS":"德興路２１５巷２號","OBJECTID":231020},"geometry":{"x":167241.84000000078,"y":2540152.2500000019}},{"attributes":{"ID":231025,"DIS_CODE":0,"TOWNNAME":"新市區","LI":"大社里","LIN":"23鄰","STREET":" ","SECT":" ","MAREA":"大社","LANE":" ","ALLEY":" ","HOUSE_NO":"８５１號之３","E_COORD97":179650.26999999999,"N_COORD97":2554188.7999999998,"ADDRESS":"大社８５１號之３","OBJECTID":231021},"geometry":{"x":179650.27000000142,"y":2554188.8000000026}},{"attributes":{"ID":231026,"DIS_CODE":0,"TOWNNAME":"南區","LI":"佛壇里","LIN":"2鄰","STREET":"興南街","SECT":" ","MAREA":" ","LANE":"２２２巷","ALLEY":" ","HOUSE_NO":"１７號","E_COORD97":165956.97,"N_COORD97":2535804.1200000001,"ADDRESS":"興南街２２２巷１７號","OBJECTID":231022},"geometry":{"x":165956.9700000016,"y":2535804.1200000029}},{"attributes":{"ID":231027,"DIS_CODE":0,"TOWNNAME":"安南區","LI":"淵西里","LIN":"14鄰","STREET":"安中路","SECT":"四段","MAREA":" ","LANE":" ","ALLEY":" ","HOUSE_NO":"３１７號","E_COORD97":164429.07000000001,"N_COORD97":2550231.2599999998,"ADDRESS":"安中路四段３１７號","OBJECTID":231023},"geometry":{"x":164429.0700000003,"y":2550231.2600000016}},{"attributes":{"ID":231028,"DIS_CODE":0,"TOWNNAME":"善化區","LI":"光文里","LIN":"14鄰","STREET":"大成路","SECT":" ","MAREA":" ","LANE":" ","ALLEY":" ","HOUSE_NO":"１９０號","E_COORD97":178411.98000000001,"N_COORD97":2558883.75,"ADDRESS":"大成路１９０號","OBJECTID":231024},"geometry":{"x":178411.98000000045,"y":2558883.7500000019}},{"attributes":{"ID":231029,"DIS_CODE":0,"TOWNNAME":"安南區","LI":"淵西里","LIN":"14鄰","STREET":"安中路","SECT":"四段","MAREA":" ","LANE":" ","ALLEY":" ","HOUSE_NO":"３１７號之２７","E_COORD97":164372.94,"N_COORD97":2550258.7799999998,"ADDRESS":"安中路四段３１７號之２７","OBJECTID":231025},"geometry":{"x":164372.94000000227,"y":2550258.7799999993}},{"attributes":{"ID":231030,"DIS_CODE":0,"TOWNNAME":"善化區","LI":"嘉北里","LIN":"8鄰","STREET":" ","SECT":" ","MAREA":"茄拔","LANE":" ","ALLEY":" ","HOUSE_NO":"１８１號之８","E_COORD97":181098.39999999999,"N_COORD97":2560078.77,"ADDRESS":"茄拔１８１號之８","OBJECTID":231026},"geometry":{"x":181098.4000000013,"y":2560078.7700000033}},{"attributes":{"ID":231031,"DIS_CODE":0,"TOWNNAME":"新市區","LI":"港墘里","LIN":"23鄰","STREET":"南昌街","SECT":" ","MAREA":" ","LANE":"１７巷","ALLEY":" ","HOUSE_NO":"２號","E_COORD97":177971.41,"N_COORD97":2552877.25,"ADDRESS":"南昌街１７巷２號","OBJECTID":231027},"geometry":{"x":177971.41000000015,"y":2552877.25}},{"attributes":{"ID":231032,"DIS_CODE":0,"TOWNNAME":"安南區","LI":"海東里","LIN":"23鄰","STREET":"同安路","SECT":" ","MAREA":" ","LANE":"１４５巷","ALLEY":" ","HOUSE_NO":"１號","E_COORD97":167024.84,"N_COORD97":2549057.1299999999,"ADDRESS":"同安路１４５巷１號","OBJECTID":231028},"geometry":{"x":167024.84000000078,"y":2549057.1300000027}},{"attributes":{"ID":231033,"DIS_CODE":0,"TOWNNAME":"新營區","LI":"新東里","LIN":"22鄰","STREET":"東明街","SECT":" ","MAREA":" ","LANE":"８０巷","ALLEY":" ","HOUSE_NO":"２６號","E_COORD97":180860.70999999999,"N_COORD97":2579783.0299999998,"ADDRESS":"東明街８０巷２６號","OBJECTID":231029},"geometry":{"x":180860.70999999996,"y":2579783.0300000012}},{"attributes":{"ID":231034,"DIS_CODE":0,"TOWNNAME":"南區","LI":"佛壇里","LIN":"2鄰","STREET":"興南街","SECT":" ","MAREA":" ","LANE":"２２２巷","ALLEY":" ","HOUSE_NO":"１９號","E_COORD97":165955,"N_COORD97":2535808.3999999999,"ADDRESS":"興南街２２２巷１９號","OBJECTID":231030},"geometry":{"x":165955,"y":2535808.4000000022}},{"attributes":{"ID":231035,"DIS_CODE":0,"TOWNNAME":"南區","LI":"佛壇里","LIN":"2鄰","STREET":"興南街","SECT":" ","MAREA":" ","LANE":"２２２巷","ALLEY":" ","HOUSE_NO":"２１號","E_COORD97":165953.60999999999,"N_COORD97":2535812.6800000002,"ADDRESS":"興南街２２２巷２１號","OBJECTID":231031},"geometry":{"x":165953.61000000127,"y":2535812.6800000016}},{"attributes":{"ID":231036,"DIS_CODE":0,"TOWNNAME":"南區","LI":"佛壇里","LIN":"2鄰","STREET":"興南街","SECT":" ","MAREA":" ","LANE":"２２２巷","ALLEY":" ","HOUSE_NO":"２２號","E_COORD97":165972.38,"N_COORD97":2535831.2799999998,"ADDRESS":"興南街２２２巷２２號","OBJECTID":231032},"geometry":{"x":165972.37999999989,"y":2535831.2800000012}},{"attributes":{"ID":231037,"DIS_CODE":0,"TOWNNAME":"南區","LI":"佛壇里","LIN":"2鄰","STREET":"興南街","SECT":" ","MAREA":" ","LANE":"２２２巷","ALLEY":" ","HOUSE_NO":"２３號","E_COORD97":165952.34,"N_COORD97":2535816.96,"ADDRESS":"興南街２２２巷２３號","OBJECTID":231033},"geometry":{"x":165952.33999999985,"y":2535816.9600000009}},{"attributes":{"ID":231038,"DIS_CODE":0,"TOWNNAME":"南區","LI":"佛壇里","LIN":"2鄰","STREET":"興南街","SECT":" ","MAREA":" ","LANE":"２２２巷","ALLEY":" ","HOUSE_NO":"２４號","E_COORD97":165973.64999999999,"N_COORD97":2535836.02,"ADDRESS":"興南街２２２巷２４號","OBJECTID":231034},"geometry":{"x":165973.6500000013,"y":2535836.0200000033}},{"attributes":{"ID":231039,"DIS_CODE":0,"TOWNNAME":"南區","LI":"佛壇里","LIN":"2鄰","STREET":"興南街","SECT":" ","MAREA":" ","LANE":"２２２巷","ALLEY":" ","HOUSE_NO":"２５號","E_COORD97":165951.29000000001,"N_COORD97":2535821.4700000002,"ADDRESS":"興南街２２２巷２５號","OBJECTID":231035},"geometry":{"x":165951.29000000004,"y":2535821.4700000025}},{"attributes":{"ID":231040,"DIS_CODE":0,"TOWNNAME":"南區","LI":"佛壇里","LIN":"2鄰","STREET":"興南街","SECT":" ","MAREA":" ","LANE":"２２２巷","ALLEY":" ","HOUSE_NO":"２６號","E_COORD97":165971.45000000001,"N_COORD97":2535840.1800000002,"ADDRESS":"興南街２２２巷２６號","OBJECTID":231036},"geometry":{"x":165971.45000000112,"y":2535840.1799999997}},{"attributes":{"ID":231041,"DIS_CODE":0,"TOWNNAME":"南區","LI":"佛壇里","LIN":"2鄰","STREET":"興南街","SECT":" ","MAREA":" ","LANE":"２２２巷","ALLEY":" ","HOUSE_NO":"２７號","E_COORD97":165949.79000000001,"N_COORD97":2535824.5899999999,"ADDRESS":"興南街２２２巷２７號","OBJECTID":231037},"geometry":{"x":165949.79000000004,"y":2535824.5899999999}},{"attributes":{"ID":231042,"DIS_CODE":0,"TOWNNAME":"南區","LI":"佛壇里","LIN":"2鄰","STREET":"興南街","SECT":" ","MAREA":" ","LANE":"２２２巷","ALLEY":" ","HOUSE_NO":"２８號","E_COORD97":165970.75,"N_COORD97":2535843.8900000001,"ADDRESS":"興南街２２２巷２８號","OBJECTID":231038},"geometry":{"x":165970.75000000093,"y":2535843.8900000006}},{"attributes":{"ID":231043,"DIS_CODE":0,"TOWNNAME":"南區","LI":"佛壇里","LIN":"2鄰","STREET":"興南街","SECT":" ","MAREA":" ","LANE":"２２２巷","ALLEY":" ","HOUSE_NO":"２９號","E_COORD97":165947.01000000001,"N_COORD97":2535830.2599999998,"ADDRESS":"興南街２２２巷２９號","OBJECTID":231039},"geometry":{"x":165947.01000000071,"y":2535830.2599999998}},{"attributes":{"ID":231044,"DIS_CODE":0,"TOWNNAME":"南區","LI":"佛壇里","LIN":"2鄰","STREET":"興南街","SECT":" ","MAREA":" ","LANE":"２２２巷","ALLEY":" ","HOUSE_NO":"３１號","E_COORD97":165944.69,"N_COORD97":2535835.0099999998,"ADDRESS":"興南街２２２巷３１號","OBJECTID":231040},"geometry":{"x":165944.69000000134,"y":2535835.0099999998}},{"attributes":{"ID":231045,"DIS_CODE":0,"TOWNNAME":"南區","LI":"明亮里","LIN":"2鄰","STREET":"金華路","SECT":"一段","MAREA":" ","LANE":"２４２巷","ALLEY":" ","HOUSE_NO":"１１號","E_COORD97":167023.88,"N_COORD97":2540925.4399999999,"ADDRESS":"金華路一段２４２巷１１號","OBJECTID":231041},"geometry":{"x":167023.87999999896,"y":2540925.4400000032}},{"attributes":{"ID":231046,"DIS_CODE":0,"TOWNNAME":"南區","LI":"明亮里","LIN":"2鄰","STREET":"金華路","SECT":"一段","MAREA":" ","LANE":"２４２巷","ALLEY":" ","HOUSE_NO":"３７號","E_COORD97":167103.57999999999,"N_COORD97":2541023.9900000002,"ADDRESS":"金華路一段２４２巷３７號","OBJECTID":231042},"geometry":{"x":167103.58000000007,"y":2541023.9900000039}},{"attributes":{"ID":231047,"DIS_CODE":0,"TOWNNAME":"南區","LI":"明亮里","LIN":"2鄰","STREET":"金華路","SECT":"一段","MAREA":" ","LANE":"２４２巷","ALLEY":" ","HOUSE_NO":"３９號","E_COORD97":167108.20999999999,"N_COORD97":2541024.2400000002,"ADDRESS":"金華路一段２４２巷３９號","OBJECTID":231043},"geometry":{"x":167108.21000000183,"y":2541024.2400000002}},{"attributes":{"ID":231048,"DIS_CODE":0,"TOWNNAME":"南區","LI":"明亮里","LIN":"2鄰","STREET":"金華路","SECT":"一段","MAREA":" ","LANE":"２４２巷","ALLEY":" ","HOUSE_NO":"４１號","E_COORD97":167112.07999999999,"N_COORD97":2541023.4700000002,"ADDRESS":"金華路一段２４２巷４１號","OBJECTID":231044},"geometry":{"x":167112.08000000007,"y":2541023.4700000007}},{"attributes":{"ID":231049,"DIS_CODE":0,"TOWNNAME":"南區","LI":"明亮里","LIN":"2鄰","STREET":"金華路","SECT":"一段","MAREA":" ","LANE":"２４２巷","ALLEY":" ","HOUSE_NO":"４３號","E_COORD97":167117.23000000001,"N_COORD97":2541022.4399999999,"ADDRESS":"金華路一段２４２巷４３號","OBJECTID":231045},"geometry":{"x":167117.23000000231,"y":2541022.4399999995}},{"attributes":{"ID":231050,"DIS_CODE":0,"TOWNNAME":"南區","LI":"明亮里","LIN":"2鄰","STREET":"金華路","SECT":"一段","MAREA":" ","LANE":"２４２巷","ALLEY":" ","HOUSE_NO":"４５號","E_COORD97":167122.64000000001,"N_COORD97":2541022.4399999999,"ADDRESS":"金華路一段２４２巷４５號","OBJECTID":231046},"geometry":{"x":167122.6400000006,"y":2541022.4399999995}},{"attributes":{"ID":231051,"DIS_CODE":0,"TOWNNAME":"安南區","LI":"淵西里","LIN":"14鄰","STREET":"安中路","SECT":"四段","MAREA":" ","LANE":" ","ALLEY":" ","HOUSE_NO":"３４３號","E_COORD97":164335.32000000001,"N_COORD97":2550275.2999999998,"ADDRESS":"安中路四段３４３號","OBJECTID":231047},"geometry":{"x":164335.32000000123,"y":2550275.3000000026}},{"attributes":{"ID":231052,"DIS_CODE":0,"TOWNNAME":"安南區","LI":"淵西里","LIN":"14鄰","STREET":"安中路","SECT":"四段","MAREA":" ","LANE":" ","ALLEY":" ","HOUSE_NO":"３６５號","E_COORD97":164279.26999999999,"N_COORD97":2550301.1899999999,"ADDRESS":"安中路四段３６５號","OBJECTID":231048},"geometry":{"x":164279.26999999955,"y":2550301.1899999976}},{"attributes":{"ID":231053,"DIS_CODE":0,"TOWNNAME":"善化區","LI":"坐駕里","LIN":"13鄰","STREET":"信義路","SECT":" ","MAREA":" ","LANE":"７１巷","ALLEY":" ","HOUSE_NO":"２５號","E_COORD97":178214.79999999999,"N_COORD97":2558699,"ADDRESS":"信義路７１巷２５號","OBJECTID":231049},"geometry":{"x":178214.80000000075,"y":2558699.0000000019}},{"attributes":{"ID":231054,"DIS_CODE":0,"TOWNNAME":"南區","LI":"明亮里","LIN":"2鄰","STREET":"金華路","SECT":"一段","MAREA":" ","LANE":"２４２巷","ALLEY":" ","HOUSE_NO":"４７號","E_COORD97":167125.73000000001,"N_COORD97":2541021.6699999999,"ADDRESS":"金華路一段２４２巷４７號","OBJECTID":231050},"geometry":{"x":167125.73000000231,"y":2541021.6699999999}},{"attributes":{"ID":231055,"DIS_CODE":0,"TOWNNAME":"南區","LI":"明亮里","LIN":"2鄰","STREET":"金華路","SECT":"一段","MAREA":" ","LANE":"２４２巷","ALLEY":" ","HOUSE_NO":"４９號","E_COORD97":167130.62,"N_COORD97":2541021.6699999999,"ADDRESS":"金華路一段２４２巷４９號","OBJECTID":231051},"geometry":{"x":167130.62000000011,"y":2541021.6699999999}},{"attributes":{"ID":231056,"DIS_CODE":0,"TOWNNAME":"歸仁區","LI":"辜厝里","LIN":"2鄰","STREET":"中山路","SECT":"二段","MAREA":" ","LANE":"３５巷","ALLEY":" ","HOUSE_NO":"１０號","E_COORD97":177504.35999999999,"N_COORD97":2540739.1200000001,"ADDRESS":"中山路二段３５巷１０號","OBJECTID":231052},"geometry":{"x":177504.3600000022,"y":2540739.1199999992}},{"attributes":{"ID":231057,"DIS_CODE":0,"TOWNNAME":"歸仁區","LI":"看東里","LIN":"2鄰","STREET":"成功六街","SECT":" ","MAREA":" ","LANE":"１１６巷","ALLEY":" ","HOUSE_NO":"４５號","E_COORD97":178456.91,"N_COORD97":2540331.2000000002,"ADDRESS":"成功六街１１６巷４５號","OBJECTID":231053},"geometry":{"x":178456.91000000108,"y":2540331.2000000011}},{"attributes":{"ID":231058,"DIS_CODE":0,"TOWNNAME":"歸仁區","LI":"文化里","LIN":"2鄰","STREET":"民族北街","SECT":" ","MAREA":" ","LANE":"２０７巷","ALLEY":" ","HOUSE_NO":"１號","E_COORD97":177450.39999999999,"N_COORD97":2541346.3300000001,"ADDRESS":"民族北街２０７巷１號","OBJECTID":231054},"geometry":{"x":177450.4000000013,"y":2541346.3300000001}},{"attributes":{"ID":231059,"DIS_CODE":0,"TOWNNAME":"玉井區","LI":"玉田里","LIN":"2鄰","STREET":"中正路","SECT":" ","MAREA":" ","LANE":"１７３巷","ALLEY":" ","HOUSE_NO":"１０號","E_COORD97":195020.70999999999,"N_COORD97":2558276.2400000002,"ADDRESS":"中正路１７３巷１０號","OBJECTID":231055},"geometry":{"x":195020.70999999996,"y":2558276.2400000039}},{"attributes":{"ID":231060,"DIS_CODE":0,"TOWNNAME":"北區","LI":"公園里","LIN":"2鄰","STREET":"北忠街","SECT":" ","MAREA":" ","LANE":"１６巷","ALLEY":" ","HOUSE_NO":"１５號","E_COORD97":169217.82000000001,"N_COORD97":2544378.98,"ADDRESS":"北忠街１６巷１５號","OBJECTID":231056},"geometry":{"x":169217.8200000003,"y":2544378.9800000023}},{"attributes":{"ID":231061,"DIS_CODE":0,"TOWNNAME":"北區","LI":"公園里","LIN":"2鄰","STREET":"北忠街","SECT":" ","MAREA":" ","LANE":"１６巷","ALLEY":" ","HOUSE_NO":"１７號","E_COORD97":169213.25,"N_COORD97":2544380.1600000001,"ADDRESS":"北忠街１６巷１７號","OBJECTID":231057},"geometry":{"x":169213.25,"y":2544380.160000002}},{"attributes":{"ID":231062,"DIS_CODE":0,"TOWNNAME":"北區","LI":"公園里","LIN":"2鄰","STREET":"北忠街","SECT":" ","MAREA":" ","LANE":"１６巷","ALLEY":" ","HOUSE_NO":"１９號","E_COORD97":169218.85999999999,"N_COORD97":2544382.6699999999,"ADDRESS":"北忠街１６巷１９號","OBJECTID":231058},"geometry":{"x":169218.86000000127,"y":2544382.6700000018}},{"attributes":{"ID":231063,"DIS_CODE":0,"TOWNNAME":"北區","LI":"公園里","LIN":"2鄰","STREET":"北忠街","SECT":" ","MAREA":" ","LANE":"１６巷","ALLEY":" ","HOUSE_NO":"２１號","E_COORD97":169231.20000000001,"N_COORD97":2544380.5699999998,"ADDRESS":"北忠街１６巷２１號","OBJECTID":231059},"geometry":{"x":169231.20000000112,"y":2544380.5700000022}},{"attributes":{"ID":231064,"DIS_CODE":0,"TOWNNAME":"北區","LI":"公園里","LIN":"2鄰","STREET":"北忠街","SECT":" ","MAREA":" ","LANE":"１６巷","ALLEY":" ","HOUSE_NO":"２３號","E_COORD97":169232.23999999999,"N_COORD97":2544387.5,"ADDRESS":"北忠街１６巷２３號","OBJECTID":231060},"geometry":{"x":169232.24000000022,"y":2544387.5000000019}},{"attributes":{"ID":231065,"DIS_CODE":0,"TOWNNAME":"北區","LI":"公園里","LIN":"2鄰","STREET":"北忠街","SECT":" ","MAREA":" ","LANE":"１６巷","ALLEY":" ","HOUSE_NO":"２５號","E_COORD97":169231.31,"N_COORD97":2544393.6000000001,"ADDRESS":"北忠街１６巷２５號","OBJECTID":231061},"geometry":{"x":169231.31000000145,"y":2544393.6000000015}},{"attributes":{"ID":231066,"DIS_CODE":0,"TOWNNAME":"北區","LI":"公園里","LIN":"2鄰","STREET":"北忠街","SECT":" ","MAREA":" ","LANE":"１６巷","ALLEY":" ","HOUSE_NO":"２７號","E_COORD97":169234.04999999999,"N_COORD97":2544397.1600000001,"ADDRESS":"北忠街１６巷２７號","OBJECTID":231062},"geometry":{"x":169234.05000000075,"y":2544397.160000002}},{"attributes":{"ID":231067,"DIS_CODE":0,"TOWNNAME":"北區","LI":"公園里","LIN":"2鄰","STREET":"北忠街","SECT":" ","MAREA":" ","LANE":"１６巷","ALLEY":" ","HOUSE_NO":"２９號","E_COORD97":169234.45999999999,"N_COORD97":2544402.0899999999,"ADDRESS":"北忠街１６巷２９號","OBJECTID":231063},"geometry":{"x":169234.46000000089,"y":2544402.0899999999}},{"attributes":{"ID":231068,"DIS_CODE":0,"TOWNNAME":"北區","LI":"公園里","LIN":"2鄰","STREET":"北忠街","SECT":" ","MAREA":" ","LANE":"１６巷","ALLEY":" ","HOUSE_NO":"３１號","E_COORD97":169235.97,"N_COORD97":2544407.0299999998,"ADDRESS":"北忠街１６巷３１號","OBJECTID":231064},"geometry":{"x":169235.97000000067,"y":2544407.0300000012}},{"attributes":{"ID":231069,"DIS_CODE":0,"TOWNNAME":"六甲區","LI":"二甲里","LIN":"2鄰","STREET":"民權街","SECT":" ","MAREA":" ","LANE":"１６３巷","ALLEY":" ","HOUSE_NO":"９號","E_COORD97":183181.35999999999,"N_COORD97":2569676.8700000001,"ADDRESS":"民權街１６３巷９號","OBJECTID":231065},"geometry":{"x":183181.3599999994,"y":2569676.870000001}},{"attributes":{"ID":231070,"DIS_CODE":0,"TOWNNAME":"新營區","LI":"南紙里","LIN":"2鄰","STREET":"太子路","SECT":" ","MAREA":" ","LANE":"１３９巷","ALLEY":" ","HOUSE_NO":"３０號","E_COORD97":177980.06,"N_COORD97":2577787.2400000002,"ADDRESS":"太子路１３９巷３０號","OBJECTID":231066},"geometry":{"x":177980.05999999866,"y":2577787.2400000002}},{"attributes":{"ID":231071,"DIS_CODE":0,"TOWNNAME":"新營區","LI":"南紙里","LIN":"2鄰","STREET":"太子路","SECT":" ","MAREA":" ","LANE":"１３９巷","ALLEY":" ","HOUSE_NO":"３２之１號","E_COORD97":177983.07999999999,"N_COORD97":2577778.3700000001,"ADDRESS":"太子路１３９巷３２之１號","OBJECTID":231067},"geometry":{"x":177983.08000000007,"y":2577778.3700000029}},{"attributes":{"ID":231072,"DIS_CODE":0,"TOWNNAME":"新營區","LI":"南紙里","LIN":"2鄰","STREET":"太子路","SECT":" ","MAREA":" ","LANE":"１３９巷","ALLEY":" ","HOUSE_NO":"２０號","E_COORD97":177973.98999999999,"N_COORD97":2577805,"ADDRESS":"太子路１３９巷２０號","OBJECTID":231068},"geometry":{"x":177973.99000000022,"y":2577805}},{"attributes":{"ID":231073,"DIS_CODE":0,"TOWNNAME":"歸仁區","LI":"八甲里","LIN":"2鄰","STREET":"大光街","SECT":" ","MAREA":" ","LANE":"１０巷","ALLEY":" ","HOUSE_NO":"１２號","E_COORD97":177899.92000000001,"N_COORD97":2541587.6000000001,"ADDRESS":"大光街１０巷１２號","OBJECTID":231069},"geometry":{"x":177899.91999999993,"y":2541587.5999999996}},{"attributes":{"ID":231074,"DIS_CODE":0,"TOWNNAME":"歸仁區","LI":"七甲里","LIN":"2鄰","STREET":"中正北路","SECT":"二段","MAREA":" ","LANE":"３１９巷","ALLEY":" ","HOUSE_NO":"２１６號","E_COORD97":176815.51000000001,"N_COORD97":2542831.2799999998,"ADDRESS":"中正北路二段３１９巷２１６號","OBJECTID":231070},"geometry":{"x":176815.50999999978,"y":2542831.2799999993}},{"attributes":{"ID":231075,"DIS_CODE":0,"TOWNNAME":"歸仁區","LI":"武東里","LIN":"2鄰","STREET":"中正南路","SECT":"二段","MAREA":" ","LANE":"２５３巷","ALLEY":" ","HOUSE_NO":"７號","E_COORD97":175419.91,"N_COORD97":2535232.2799999998,"ADDRESS":"中正南路二段２５３巷７號","OBJECTID":231071},"geometry":{"x":175419.91000000015,"y":2535232.2799999993}},{"attributes":{"ID":231076,"DIS_CODE":0,"TOWNNAME":"歸仁區","LI":"大廟里","LIN":"2鄰","STREET":"大廟二街","SECT":" ","MAREA":" ","LANE":"９３巷","ALLEY":" ","HOUSE_NO":"１１號","E_COORD97":176073.20000000001,"N_COORD97":2543928.1699999999,"ADDRESS":"大廟二街９３巷１１號","OBJECTID":231072},"geometry":{"x":176073.20000000112,"y":2543928.1700000037}},{"attributes":{"ID":231077,"DIS_CODE":0,"TOWNNAME":"歸仁區","LI":"七甲里","LIN":"2鄰","STREET":"七甲五街","SECT":" ","MAREA":" ","LANE":"１０２巷","ALLEY":" ","HOUSE_NO":"３６號","E_COORD97":177082.39999999999,"N_COORD97":2542655.9300000002,"ADDRESS":"七甲五街１０２巷３６號","OBJECTID":231073},"geometry":{"x":177082.4000000013,"y":2542655.9300000016}},{"attributes":{"ID":231078,"DIS_CODE":0,"TOWNNAME":"歸仁區","LI":"七甲里","LIN":"2鄰","STREET":"七甲五街","SECT":" ","MAREA":" ","LANE":"１０２巷","ALLEY":" ","HOUSE_NO":"５３號","E_COORD97":177111.10000000001,"N_COORD97":2542658.9300000002,"ADDRESS":"七甲五街１０２巷５３號","OBJECTID":231074},"geometry":{"x":177111.10000000056,"y":2542658.9300000016}},{"attributes":{"ID":231079,"DIS_CODE":0,"TOWNNAME":"北區","LI":"和順里","LIN":"2鄰","STREET":"西門路","SECT":"三段","MAREA":" ","LANE":"４７巷","ALLEY":" ","HOUSE_NO":"６３號","E_COORD97":168334.85000000001,"N_COORD97":2544831.3900000001,"ADDRESS":"西門路三段４７巷６３號","OBJECTID":231075},"geometry":{"x":168334.85000000056,"y":2544831.3900000006}},{"attributes":{"ID":231080,"DIS_CODE":0,"TOWNNAME":"安南區","LI":"淵西里","LIN":"14鄰","STREET":"安中路","SECT":"四段","MAREA":" ","LANE":" ","ALLEY":" ","HOUSE_NO":"３６５號之８","E_COORD97":164229.38,"N_COORD97":2550302.7999999998,"ADDRESS":"安中路四段３６５號之８","OBJECTID":231076},"geometry":{"x":164229.38000000082,"y":2550302.8000000026}},{"attributes":{"ID":231081,"DIS_CODE":0,"TOWNNAME":"北區","LI":"大豐里","LIN":"2鄰","STREET":"武聖路","SECT":" ","MAREA":" ","LANE":"８巷","ALLEY":" ","HOUSE_NO":"７號","E_COORD97":167272.81,"N_COORD97":2545143.48,"ADDRESS":"武聖路８巷７號","OBJECTID":231077},"geometry":{"x":167272.80999999959,"y":2545143.4799999986}},{"attributes":{"ID":231082,"DIS_CODE":0,"TOWNNAME":"安南區","LI":"溪東里","LIN":"23鄰","STREET":"府安路","SECT":"五段","MAREA":" ","LANE":"２７巷","ALLEY":" ","HOUSE_NO":"１２號","E_COORD97":168401.42999999999,"N_COORD97":2547257.2799999998,"ADDRESS":"府安路五段２７巷１２號","OBJECTID":231078},"geometry":{"x":168401.4299999997,"y":2547257.2800000012}},{"attributes":{"ID":231083,"DIS_CODE":0,"TOWNNAME":"安南區","LI":"溪東里","LIN":"23鄰","STREET":"府安路","SECT":"五段","MAREA":" ","LANE":"２７巷","ALLEY":" ","HOUSE_NO":"１３號","E_COORD97":168381.78,"N_COORD97":2547257.1499999999,"ADDRESS":"府安路五段２７巷１３號","OBJECTID":231079},"geometry":{"x":168381.78000000119,"y":2547257.1500000004}},{"attributes":{"ID":231084,"DIS_CODE":0,"TOWNNAME":"善化區","LI":"坐駕里","LIN":"13鄰","STREET":"信義路","SECT":" ","MAREA":" ","LANE":"７１巷","ALLEY":" ","HOUSE_NO":"３０號","E_COORD97":178207.78,"N_COORD97":2558711.75,"ADDRESS":"信義路７１巷３０號","OBJECTID":231080},"geometry":{"x":178207.78000000026,"y":2558711.75}},{"attributes":{"ID":231085,"DIS_CODE":0,"TOWNNAME":"安南區","LI":"溪東里","LIN":"23鄰","STREET":"府安路","SECT":"五段","MAREA":" ","LANE":"２７巷","ALLEY":" ","HOUSE_NO":"１５號","E_COORD97":168380.79000000001,"N_COORD97":2547264.5800000001,"ADDRESS":"府安路五段２７巷１５號","OBJECTID":231081},"geometry":{"x":168380.78999999911,"y":2547264.5800000001}},{"attributes":{"ID":231086,"DIS_CODE":0,"TOWNNAME":"安南區","LI":"溪東里","LIN":"23鄰","STREET":"府安路","SECT":"五段","MAREA":" ","LANE":"２７巷","ALLEY":" ","HOUSE_NO":"１７號","E_COORD97":168380.20999999999,"N_COORD97":2547269.4300000002,"ADDRESS":"府安路五段２７巷１７號","OBJECTID":231082},"geometry":{"x":168380.21000000089,"y":2547269.4300000016}},{"attributes":{"ID":231087,"DIS_CODE":0,"TOWNNAME":"安南區","LI":"溪東里","LIN":"23鄰","STREET":"府安路","SECT":"五段","MAREA":" ","LANE":"２７巷","ALLEY":" ","HOUSE_NO":"１８號","E_COORD97":168397.79999999999,"N_COORD97":2547273.9900000002,"ADDRESS":"府安路五段２７巷１８號","OBJECTID":231083},"geometry":{"x":168397.80000000075,"y":2547273.9900000021}},{"attributes":{"ID":231088,"DIS_CODE":0,"TOWNNAME":"安南區","LI":"溪東里","LIN":"23鄰","STREET":"府安路","SECT":"五段","MAREA":" ","LANE":"２７巷","ALLEY":" ","HOUSE_NO":"１９號","E_COORD97":168379.44,"N_COORD97":2547275.4300000002,"ADDRESS":"府安路五段２７巷１９號","OBJECTID":231084},"geometry":{"x":168379.44000000041,"y":2547275.4299999997}},{"attributes":{"ID":231089,"DIS_CODE":0,"TOWNNAME":"柳營區","LI":"光福里","LIN":"2鄰","STREET":"建安街","SECT":" ","MAREA":" ","LANE":"２３巷","ALLEY":" ","HOUSE_NO":"１６號","E_COORD97":179789.88,"N_COORD97":2575020.5099999998,"ADDRESS":"建安街２３巷１６號","OBJECTID":231085},"geometry":{"x":179789.87999999989,"y":2575020.5099999998}},{"attributes":{"ID":231090,"DIS_CODE":0,"TOWNNAME":"善化區","LI":"胡家里","LIN":"13鄰","STREET":" ","SECT":" ","MAREA":"胡厝寮","LANE":" ","ALLEY":" ","HOUSE_NO":"６７號之９","E_COORD97":175326.32999999999,"N_COORD97":2560707.27,"ADDRESS":"胡厝寮６７號之９","OBJECTID":231086},"geometry":{"x":175326.33000000101,"y":2560707.2700000014}},{"attributes":{"ID":231091,"DIS_CODE":0,"TOWNNAME":"柳營區","LI":"大農里","LIN":"2鄰","STREET":"義士路","SECT":"一段","MAREA":" ","LANE":"３１２巷","ALLEY":" ","HOUSE_NO":"１號","E_COORD97":186238.39999999999,"N_COORD97":2575824.6800000002,"ADDRESS":"義士路一段３１２巷１號","OBJECTID":231087},"geometry":{"x":186238.4000000013,"y":2575824.6800000034}},{"attributes":{"ID":231092,"DIS_CODE":0,"TOWNNAME":"北區","LI":"實踐里","LIN":"2鄰","STREET":"長榮路","SECT":"五段","MAREA":" ","LANE":"２４６巷","ALLEY":" ","HOUSE_NO":"６號","E_COORD97":169896.76999999999,"N_COORD97":2545935.3799999999,"ADDRESS":"長榮路五段２４６巷６號","OBJECTID":231088},"geometry":{"x":169896.77000000048,"y":2545935.379999999}},{"attributes":{"ID":231093,"DIS_CODE":0,"TOWNNAME":"歸仁區","LI":"西埔里","LIN":"2鄰","STREET":"西埔三街","SECT":" ","MAREA":" ","LANE":"５２巷","ALLEY":" ","HOUSE_NO":"１０號","E_COORD97":176736.19,"N_COORD97":2543975.25,"ADDRESS":"西埔三街５２巷１０號","OBJECTID":231089},"geometry":{"x":176736.19000000134,"y":2543975.2500000037}},{"attributes":{"ID":231094,"DIS_CODE":0,"TOWNNAME":"北區","LI":"大山里","LIN":"2鄰","STREET":"精忠街","SECT":" ","MAREA":" ","LANE":"２８巷","ALLEY":" ","HOUSE_NO":"１號","E_COORD97":169522.89999999999,"N_COORD97":2545500.8500000001,"ADDRESS":"精忠街２８巷１號","OBJECTID":231090},"geometry":{"x":169522.90000000037,"y":2545500.8500000015}},{"attributes":{"ID":231095,"DIS_CODE":0,"TOWNNAME":"北區","LI":"勝安里","LIN":"2鄰","STREET":"開元路","SECT":" ","MAREA":" ","LANE":"６３巷","ALLEY":" ","HOUSE_NO":"８號之３","E_COORD97":169677.57999999999,"N_COORD97":2545245.77,"ADDRESS":"開元路６３巷８號之３","OBJECTID":231091},"geometry":{"x":169677.58000000194,"y":2545245.7700000033}},{"attributes":{"ID":231096,"DIS_CODE":0,"TOWNNAME":"北區","LI":"勝安里","LIN":"2鄰","STREET":"開元路","SECT":" ","MAREA":" ","LANE":"６３巷","ALLEY":" ","HOUSE_NO":"１０號","E_COORD97":169670.01000000001,"N_COORD97":2545253.9700000002,"ADDRESS":"開元路６３巷１０號","OBJECTID":231092},"geometry":{"x":169670.01000000071,"y":2545253.9700000025}},{"attributes":{"ID":231097,"DIS_CODE":0,"TOWNNAME":"北區","LI":"勝安里","LIN":"2鄰","STREET":"開元路","SECT":" ","MAREA":" ","LANE":"６３巷","ALLEY":" ","HOUSE_NO":"１２號","E_COORD97":169675.37,"N_COORD97":2545250.0299999998,"ADDRESS":"開元路６３巷１２號","OBJECTID":231093},"geometry":{"x":169675.37000000011,"y":2545250.0299999993}},{"attributes":{"ID":231098,"DIS_CODE":0,"TOWNNAME":"北區","LI":"勝安里","LIN":"2鄰","STREET":"開元路","SECT":" ","MAREA":" ","LANE":"６３巷","ALLEY":" ","HOUSE_NO":"１４號","E_COORD97":169667.95999999999,"N_COORD97":2545265.6400000001,"ADDRESS":"開元路６３巷１４號","OBJECTID":231094},"geometry":{"x":169667.96000000183,"y":2545265.6400000025}},{"attributes":{"ID":231099,"DIS_CODE":0,"TOWNNAME":"北區","LI":"勝安里","LIN":"2鄰","STREET":"開元路","SECT":" ","MAREA":" ","LANE":"６３巷","ALLEY":" ","HOUSE_NO":"１６號","E_COORD97":169662.44,"N_COORD97":2545278.5600000001,"ADDRESS":"開元路６３巷１６號","OBJECTID":231095},"geometry":{"x":169662.44000000134,"y":2545278.5599999987}},{"attributes":{"ID":231100,"DIS_CODE":0,"TOWNNAME":"北區","LI":"勝安里","LIN":"2鄰","STREET":"開元路","SECT":" ","MAREA":" ","LANE":"６３巷","ALLEY":" ","HOUSE_NO":"２號","E_COORD97":169690.04999999999,"N_COORD97":2545204.1200000001,"ADDRESS":"開元路６３巷２號","OBJECTID":231096},"geometry":{"x":169690.05000000075,"y":2545204.1199999992}},{"attributes":{"ID":231101,"DIS_CODE":0,"TOWNNAME":"北區","LI":"勝安里","LIN":"2鄰","STREET":"開元路","SECT":" ","MAREA":" ","LANE":"６３巷","ALLEY":" ","HOUSE_NO":"６號","E_COORD97":169684.20999999999,"N_COORD97":2545227.96,"ADDRESS":"開元路６３巷６號","OBJECTID":231097},"geometry":{"x":169684.20999999996,"y":2545227.9600000009}},{"attributes":{"ID":231102,"DIS_CODE":0,"TOWNNAME":"北區","LI":"勝安里","LIN":"2鄰","STREET":"開元路","SECT":" ","MAREA":" ","LANE":"６３巷","ALLEY":" ","HOUSE_NO":"８號","E_COORD97":169682.63,"N_COORD97":2545232.6899999999,"ADDRESS":"開元路６３巷８號","OBJECTID":231098},"geometry":{"x":169682.63000000082,"y":2545232.6900000032}},{"attributes":{"ID":231103,"DIS_CODE":0,"TOWNNAME":"北區","LI":"勝安里","LIN":"2鄰","STREET":"開元路","SECT":" ","MAREA":" ","LANE":"６３巷","ALLEY":" ","HOUSE_NO":"８號之１","E_COORD97":169680.42000000001,"N_COORD97":2545236.9399999999,"ADDRESS":"開元路６３巷８號之１","OBJECTID":231099},"geometry":{"x":169680.42000000086,"y":2545236.9399999995}},{"attributes":{"ID":231104,"DIS_CODE":0,"TOWNNAME":"北區","LI":"勝安里","LIN":"2鄰","STREET":"開元路","SECT":" ","MAREA":" ","LANE":"６３巷","ALLEY":" ","HOUSE_NO":"８號之２","E_COORD97":169679.32000000001,"N_COORD97":2545241.6699999999,"ADDRESS":"開元路６３巷８號之２","OBJECTID":231100},"geometry":{"x":169679.3200000003,"y":2545241.6700000018}},{"attributes":{"ID":231105,"DIS_CODE":0,"TOWNNAME":"北區","LI":"勝安里","LIN":"2鄰","STREET":"開元路","SECT":" ","MAREA":" ","LANE":"７１巷","ALLEY":" ","HOUSE_NO":"１號","E_COORD97":169726.67999999999,"N_COORD97":2545214.6499999999,"ADDRESS":"開元路７１巷１號","OBJECTID":231101},"geometry":{"x":169726.6799999997,"y":2545214.6500000022}},{"attributes":{"ID":231106,"DIS_CODE":0,"TOWNNAME":"麻豆區","LI":"中興里","LIN":"14鄰","STREET":"三民路","SECT":" ","MAREA":" ","LANE":" ","ALLEY":" ","HOUSE_NO":"４２號","E_COORD97":172751.01000000001,"N_COORD97":2564591.2799999998,"ADDRESS":"三民路４２號","OBJECTID":231102},"geometry":{"x":172751.01000000164,"y":2564591.2800000031}},{"attributes":{"ID":231107,"DIS_CODE":0,"TOWNNAME":"麻豆區","LI":"中興里","LIN":"14鄰","STREET":"三民路","SECT":" ","MAREA":" ","LANE":" ","ALLEY":" ","HOUSE_NO":"４６號之１","E_COORD97":172779.26000000001,"N_COORD97":2564603.6299999999,"ADDRESS":"三民路４６號之１","OBJECTID":231103},"geometry":{"x":172779.25999999978,"y":2564603.629999999}},{"attributes":{"ID":231108,"DIS_CODE":0,"TOWNNAME":"麻豆區","LI":"中興里","LIN":"14鄰","STREET":"三民路","SECT":" ","MAREA":" ","LANE":" ","ALLEY":" ","HOUSE_NO":"４６號","E_COORD97":172764.12,"N_COORD97":2564590.5699999998,"ADDRESS":"三民路４６號","OBJECTID":231104},"geometry":{"x":172764.11999999918,"y":2564590.5700000022}},{"attributes":{"ID":231109,"DIS_CODE":0,"TOWNNAME":"善化區","LI":"坐駕里","LIN":"14鄰","STREET":"自立路","SECT":" ","MAREA":" ","LANE":" ","ALLEY":" ","HOUSE_NO":"５３號","E_COORD97":178206.79000000001,"N_COORD97":2558651,"ADDRESS":"自立路５３號","OBJECTID":231105},"geometry":{"x":178206.79000000097,"y":2558651.0000000019}},{"attributes":{"ID":231110,"DIS_CODE":0,"TOWNNAME":"善化區","LI":"坐駕里","LIN":"14鄰","STREET":"自立路","SECT":" ","MAREA":" ","LANE":" ","ALLEY":" ","HOUSE_NO":"５７號","E_COORD97":178198.23999999999,"N_COORD97":2558650.25,"ADDRESS":"自立路５７號","OBJECTID":231106},"geometry":{"x":178198.24000000209,"y":2558650.2500000019}},{"attributes":{"ID":231111,"DIS_CODE":0,"TOWNNAME":"善化區","LI":"光文里","LIN":"14鄰","STREET":"民生路","SECT":" ","MAREA":" ","LANE":" ","ALLEY":" ","HOUSE_NO":"１６８號","E_COORD97":178479.26999999999,"N_COORD97":2558973.0099999998,"ADDRESS":"民生路１６８號","OBJECTID":231107},"geometry":{"x":178479.27000000048,"y":2558973.0100000016}},{"attributes":{"ID":231112,"DIS_CODE":0,"TOWNNAME":"善化區","LI":"光文里","LIN":"14鄰","STREET":"大成路","SECT":" ","MAREA":" ","LANE":" ","ALLEY":" ","HOUSE_NO":"１５８號","E_COORD97":178487.76999999999,"N_COORD97":2558895,"ADDRESS":"大成路１５８號","OBJECTID":231108},"geometry":{"x":178487.77000000048,"y":2558895.0000000019}},{"attributes":{"ID":231113,"DIS_CODE":0,"TOWNNAME":"善化區","LI":"光文里","LIN":"14鄰","STREET":"樹人路","SECT":" ","MAREA":" ","LANE":" ","ALLEY":" ","HOUSE_NO":"３２號","E_COORD97":178388.01999999999,"N_COORD97":2558983.5,"ADDRESS":"樹人路３２號","OBJECTID":231109},"geometry":{"x":178388.02000000048,"y":2558983.5000000019}},{"attributes":{"ID":231114,"DIS_CODE":0,"TOWNNAME":"北區","LI":"勝安里","LIN":"2鄰","STREET":"開元路","SECT":" ","MAREA":" ","LANE":"７１巷","ALLEY":" ","HOUSE_NO":"３號","E_COORD97":169721.88,"N_COORD97":2545221.7799999998,"ADDRESS":"開元路７１巷３號","OBJECTID":231110},"geometry":{"x":169721.87999999989,"y":2545221.7800000031}},{"attributes":{"ID":231115,"DIS_CODE":0,"TOWNNAME":"關廟區","LI":"埤頭里","LIN":"2鄰","STREET":"關新路","SECT":"一段","MAREA":" ","LANE":"８１３巷","ALLEY":" ","HOUSE_NO":"５號","E_COORD97":179073.67000000001,"N_COORD97":2543836.25,"ADDRESS":"關新路一段８１３巷５號","OBJECTID":231111},"geometry":{"x":179073.67000000086,"y":2543836.2500000037}},{"attributes":{"ID":231116,"DIS_CODE":0,"TOWNNAME":"關廟區","LI":"龜洞里","LIN":"2鄰","STREET":"長榮街","SECT":" ","MAREA":" ","LANE":"１２巷","ALLEY":" ","HOUSE_NO":"２７號","E_COORD97":183354.44,"N_COORD97":2533878.2999999998,"ADDRESS":"長榮街１２巷２７號","OBJECTID":231112},"geometry":{"x":183354.44000000134,"y":2533878.3000000007}},{"attributes":{"ID":231117,"DIS_CODE":0,"TOWNNAME":"中西區","LI":"青年里","LIN":"18鄰","STREET":"青年路","SECT":" ","MAREA":" ","LANE":"４７巷","ALLEY":" ","HOUSE_NO":"１號","E_COORD97":168648.51999999999,"N_COORD97":2543674.27,"ADDRESS":"青年路４７巷１號","OBJECTID":231113},"geometry":{"x":168648.52000000048,"y":2543674.2700000014}},{"attributes":{"ID":231118,"DIS_CODE":0,"TOWNNAME":"北區","LI":"開元里","LIN":"2鄰","STREET":"北園街","SECT":" ","MAREA":" ","LANE":"８７巷","ALLEY":" ","HOUSE_NO":"１０號","E_COORD97":170160.81,"N_COORD97":2545835.7000000002,"ADDRESS":"北園街８７巷１０號","OBJECTID":231114},"geometry":{"x":170160.81000000052,"y":2545835.6999999974}},{"attributes":{"ID":231119,"DIS_CODE":0,"TOWNNAME":"北區","LI":"開元里","LIN":"2鄰","STREET":"北園街","SECT":" ","MAREA":" ","LANE":"８７巷","ALLEY":" ","HOUSE_NO":"１２號","E_COORD97":170161.35999999999,"N_COORD97":2545839.8399999999,"ADDRESS":"北園街８７巷１２號","OBJECTID":231115},"geometry":{"x":170161.36000000127,"y":2545839.8400000017}},{"attributes":{"ID":231120,"DIS_CODE":0,"TOWNNAME":"北區","LI":"開元里","LIN":"2鄰","STREET":"北園街","SECT":" ","MAREA":" ","LANE":"８７巷","ALLEY":" ","HOUSE_NO":"１４號","E_COORD97":170162.01000000001,"N_COORD97":2545844.52,"ADDRESS":"北園街８７巷１４號","OBJECTID":231116},"geometry":{"x":170162.00999999978,"y":2545844.5200000033}},{"attributes":{"ID":231121,"DIS_CODE":0,"TOWNNAME":"北區","LI":"開元里","LIN":"2鄰","STREET":"北園街","SECT":" ","MAREA":" ","LANE":"８７巷","ALLEY":" ","HOUSE_NO":"１６號","E_COORD97":170163.54000000001,"N_COORD97":2545854.8199999998,"ADDRESS":"北園街８７巷１６號","OBJECTID":231117},"geometry":{"x":170163.54000000004,"y":2545854.8200000022}},{"attributes":{"ID":231122,"DIS_CODE":0,"TOWNNAME":"北區","LI":"開元里","LIN":"2鄰","STREET":"北園街","SECT":" ","MAREA":" ","LANE":"８７巷","ALLEY":" ","HOUSE_NO":"１８號","E_COORD97":170164.29999999999,"N_COORD97":2545859.5,"ADDRESS":"北園街８７巷１８號","OBJECTID":231118},"geometry":{"x":170164.30000000075,"y":2545859.5000000019}},{"attributes":{"ID":231123,"DIS_CODE":0,"TOWNNAME":"北區","LI":"開元里","LIN":"2鄰","STREET":"北園街","SECT":" ","MAREA":" ","LANE":"８７巷","ALLEY":" ","HOUSE_NO":"２０號","E_COORD97":170164.85000000001,"N_COORD97":2545864.0699999998,"ADDRESS":"北園街８７巷２０號","OBJECTID":231119},"geometry":{"x":170164.84999999963,"y":2545864.0700000003}},{"attributes":{"ID":231124,"DIS_CODE":0,"TOWNNAME":"北區","LI":"開元里","LIN":"2鄰","STREET":"北園街","SECT":" ","MAREA":" ","LANE":"８７巷","ALLEY":" ","HOUSE_NO":"４號","E_COORD97":170159.72,"N_COORD97":2545822.5,"ADDRESS":"北園街８７巷４號","OBJECTID":231120},"geometry":{"x":170159.72000000067,"y":2545822.5000000019}},{"attributes":{"ID":231125,"DIS_CODE":0,"TOWNNAME":"中西區","LI":"青年里","LIN":"13鄰","STREET":"青年路","SECT":" ","MAREA":" ","LANE":"４７巷","ALLEY":" ","HOUSE_NO":"２０號","E_COORD97":168667.73000000001,"N_COORD97":2543720.6499999999,"ADDRESS":"青年路４７巷２０號","OBJECTID":231121},"geometry":{"x":168667.73000000045,"y":2543720.6500000004}},{"attributes":{"ID":231126,"DIS_CODE":0,"TOWNNAME":"北區","LI":"開元里","LIN":"2鄰","STREET":"北園街","SECT":" ","MAREA":" ","LANE":"８７巷","ALLEY":" ","HOUSE_NO":"６號","E_COORD97":170160.14999999999,"N_COORD97":2545826.5299999998,"ADDRESS":"北園街８７巷６號","OBJECTID":231122},"geometry":{"x":170160.15000000037,"y":2545826.5299999993}},{"attributes":{"ID":231127,"DIS_CODE":0,"TOWNNAME":"北區","LI":"開元里","LIN":"2鄰","STREET":"北園街","SECT":" ","MAREA":" ","LANE":"８７巷","ALLEY":" ","HOUSE_NO":"８號","E_COORD97":170160.70000000001,"N_COORD97":2545831.02,"ADDRESS":"北園街８７巷８號","OBJECTID":231123},"geometry":{"x":170160.70000000112,"y":2545831.0200000014}},{"attributes":{"ID":231128,"DIS_CODE":0,"TOWNNAME":"中西區","LI":"青年里","LIN":"10鄰","STREET":"民權路","SECT":"一段","MAREA":" ","LANE":"２２０巷","ALLEY":" ","HOUSE_NO":"１號","E_COORD97":168770.76999999999,"N_COORD97":2543688.9500000002,"ADDRESS":"民權路一段２２０巷１號","OBJECTID":231124},"geometry":{"x":168770.77000000048,"y":2543688.9500000011}},{"attributes":{"ID":231129,"DIS_CODE":0,"TOWNNAME":"中西區","LI":"青年里","LIN":"10鄰","STREET":"民權路","SECT":"一段","MAREA":" ","LANE":"２２０巷","ALLEY":" ","HOUSE_NO":"３號","E_COORD97":168785.39999999999,"N_COORD97":2543697.1899999999,"ADDRESS":"民權路一段２２０巷３號","OBJECTID":231125},"geometry":{"x":168785.40000000037,"y":2543697.1900000032}},{"attributes":{"ID":231130,"DIS_CODE":0,"TOWNNAME":"中西區","LI":"青年里","LIN":"10鄰","STREET":"民權路","SECT":"一段","MAREA":" ","LANE":"２２０巷","ALLEY":" ","HOUSE_NO":"５號","E_COORD97":168783.26999999999,"N_COORD97":2543691.0699999998,"ADDRESS":"民權路一段２２０巷５號","OBJECTID":231126},"geometry":{"x":168783.26999999955,"y":2543691.0700000003}},{"attributes":{"ID":231131,"DIS_CODE":0,"TOWNNAME":"中西區","LI":"青年里","LIN":"10鄰","STREET":"民權路","SECT":"一段","MAREA":" ","LANE":"２２０巷","ALLEY":" ","HOUSE_NO":"７號","E_COORD97":168788.45999999999,"N_COORD97":2543692.0099999998,"ADDRESS":"民權路一段２２０巷７號","OBJECTID":231127},"geometry":{"x":168788.46000000089,"y":2543692.0100000016}},{"attributes":{"ID":231132,"DIS_CODE":0,"TOWNNAME":"中西區","LI":"青年里","LIN":"10鄰","STREET":"衛民街","SECT":" ","MAREA":" ","LANE":"１４３巷","ALLEY":" ","HOUSE_NO":"２６號","E_COORD97":168770.29999999999,"N_COORD97":2543716.98,"ADDRESS":"衛民街１４３巷２６號","OBJECTID":231128},"geometry":{"x":168770.29999999981,"y":2543716.9800000023}},{"attributes":{"ID":231133,"DIS_CODE":0,"TOWNNAME":"中西區","LI":"青年里","LIN":"10鄰","STREET":"衛民街","SECT":" ","MAREA":" ","LANE":"１４３巷","ALLEY":" ","HOUSE_NO":"２８號","E_COORD97":168774.54999999999,"N_COORD97":2543710.8500000001,"ADDRESS":"衛民街１４３巷２８號","OBJECTID":231129},"geometry":{"x":168774.55000000075,"y":2543710.8500000015}},{"attributes":{"ID":231134,"DIS_CODE":0,"TOWNNAME":"中西區","LI":"青年里","LIN":"10鄰","STREET":"衛民街","SECT":" ","MAREA":" ","LANE":"１４３巷","ALLEY":" ","HOUSE_NO":"３０號","E_COORD97":168773.84,"N_COORD97":2543703.5499999998,"ADDRESS":"衛民街１４３巷３０號","OBJECTID":231130},"geometry":{"x":168773.84000000078,"y":2543703.5500000026}},{"attributes":{"ID":231135,"DIS_CODE":0,"TOWNNAME":"中西區","LI":"青年里","LIN":"10鄰","STREET":"衛民街","SECT":" ","MAREA":" ","LANE":"１４３巷","ALLEY":" ","HOUSE_NO":"３２號","E_COORD97":168782.32999999999,"N_COORD97":2543705.6699999999,"ADDRESS":"衛民街１４３巷３２號","OBJECTID":231131},"geometry":{"x":168782.32999999914,"y":2543705.6700000018}},{"attributes":{"ID":231136,"DIS_CODE":0,"TOWNNAME":"中西區","LI":"青年里","LIN":"10鄰","STREET":"衛民街","SECT":" ","MAREA":" ","LANE":"１４３巷","ALLEY":" ","HOUSE_NO":"３４號","E_COORD97":168783.04000000001,"N_COORD97":2543700.73,"ADDRESS":"衛民街１４３巷３４號","OBJECTID":231132},"geometry":{"x":168783.04000000097,"y":2543700.7300000004}},{"attributes":{"ID":231137,"DIS_CODE":0,"TOWNNAME":"中西區","LI":"青年里","LIN":"10鄰","STREET":"衛民街","SECT":" ","MAREA":" ","LANE":"１４３巷","ALLEY":" ","HOUSE_NO":"３６號","E_COORD97":168792.70999999999,"N_COORD97":2543695.0800000001,"ADDRESS":"衛民街１４３巷３６號","OBJECTID":231133},"geometry":{"x":168792.70999999996,"y":2543695.0800000038}},{"attributes":{"ID":231138,"DIS_CODE":0,"TOWNNAME":"北區","LI":"開元里","LIN":"2鄰","STREET":"北園街","SECT":" ","MAREA":" ","LANE":"８７巷","ALLEY":" ","HOUSE_NO":"２２號","E_COORD97":170165.07000000001,"N_COORD97":2545867.77,"ADDRESS":"北園街８７巷２２號","OBJECTID":231134},"geometry":{"x":170165.07000000123,"y":2545867.7700000014}},{"attributes":{"ID":231139,"DIS_CODE":0,"TOWNNAME":"北區","LI":"開元里","LIN":"2鄰","STREET":"北園街","SECT":" ","MAREA":" ","LANE":"８７巷","ALLEY":" ","HOUSE_NO":"２４號","E_COORD97":170165.60999999999,"N_COORD97":2545872.02,"ADDRESS":"北園街８７巷２４號","OBJECTID":231135},"geometry":{"x":170165.61000000034,"y":2545872.0200000014}},{"attributes":{"ID":231140,"DIS_CODE":0,"TOWNNAME":"北區","LI":"元寶里","LIN":"2鄰","STREET":"北園街","SECT":" ","MAREA":" ","LANE":"８０巷","ALLEY":" ","HOUSE_NO":"３７號","E_COORD97":170417.10000000001,"N_COORD97":2545926.8100000001,"ADDRESS":"北園街８０巷３７號","OBJECTID":231136},"geometry":{"x":170417.09999999963,"y":2545926.8100000005}},{"attributes":{"ID":231141,"DIS_CODE":0,"TOWNNAME":"北區","LI":"元寶里","LIN":"2鄰","STREET":"北園街","SECT":" ","MAREA":" ","LANE":"８０巷","ALLEY":" ","HOUSE_NO":"３９號","E_COORD97":170429.16,"N_COORD97":2545931.4500000002,"ADDRESS":"北園街８０巷３９號","OBJECTID":231137},"geometry":{"x":170429.16000000015,"y":2545931.4499999993}},{"attributes":{"ID":231142,"DIS_CODE":0,"TOWNNAME":"北區","LI":"賢北里","LIN":"2鄰","STREET":"和緯路","SECT":"五段","MAREA":" ","LANE":"２６巷","ALLEY":" ","HOUSE_NO":"４５號","E_COORD97":166466.01999999999,"N_COORD97":2545402.5699999998,"ADDRESS":"和緯路五段２６巷４５號","OBJECTID":231138},"geometry":{"x":166466.01999999955,"y":2545402.5700000003}},{"attributes":{"ID":231143,"DIS_CODE":0,"TOWNNAME":"北區","LI":"賢北里","LIN":"2鄰","STREET":"和緯路","SECT":"五段","MAREA":" ","LANE":"２６巷","ALLEY":" ","HOUSE_NO":"４３號","E_COORD97":166467.13,"N_COORD97":2545398.6000000001,"ADDRESS":"和緯路五段２６巷４３號","OBJECTID":231139},"geometry":{"x":166467.12999999989,"y":2545398.5999999996}},{"attributes":{"ID":231144,"DIS_CODE":0,"TOWNNAME":"北區","LI":"賢北里","LIN":"2鄰","STREET":"和緯路","SECT":"五段","MAREA":" ","LANE":"２６巷","ALLEY":" ","HOUSE_NO":"４１號","E_COORD97":166468.88,"N_COORD97":2545394.9500000002,"ADDRESS":"和緯路五段２６巷４１號","OBJECTID":231140},"geometry":{"x":166468.87999999989,"y":2545394.9500000011}},{"attributes":{"ID":231145,"DIS_CODE":0,"TOWNNAME":"佳里區","LI":"建南里","LIN":"23鄰","STREET":"四維三街","SECT":" ","MAREA":" ","LANE":" ","ALLEY":" ","HOUSE_NO":"７７號","E_COORD97":165541.17000000001,"N_COORD97":2561228.4199999999,"ADDRESS":"四維三街７７號","OBJECTID":231141},"geometry":{"x":165541.17000000086,"y":2561228.4200000018}},{"attributes":{"ID":231146,"DIS_CODE":0,"TOWNNAME":"佳里區","LI":"建南里","LIN":"23鄰","STREET":"四維三街","SECT":" ","MAREA":" ","LANE":"９５巷","ALLEY":" ","HOUSE_NO":"１８號","E_COORD97":165584.39999999999,"N_COORD97":2561177.0299999998,"ADDRESS":"四維三街９５巷１８號","OBJECTID":231142},"geometry":{"x":165584.40000000037,"y":2561177.0299999993}},{"attributes":{"ID":231147,"DIS_CODE":0,"TOWNNAME":"佳里區","LI":"建南里","LIN":"23鄰","STREET":"四維三街","SECT":" ","MAREA":" ","LANE":"９５巷","ALLEY":" ","HOUSE_NO":"１９號","E_COORD97":165597.79000000001,"N_COORD97":2561200.3999999999,"ADDRESS":"四維三街９５巷１９號","OBJECTID":231143},"geometry":{"x":165597.79000000097,"y":2561200.4000000004}},{"attributes":{"ID":231148,"DIS_CODE":0,"TOWNNAME":"佳里區","LI":"建南里","LIN":"23鄰","STREET":"四維三街","SECT":" ","MAREA":" ","LANE":"９５巷","ALLEY":" ","HOUSE_NO":"１號","E_COORD97":165554.82000000001,"N_COORD97":2561193.02,"ADDRESS":"四維三街９５巷１號","OBJECTID":231144},"geometry":{"x":165554.8200000003,"y":2561193.0200000014}},{"attributes":{"ID":231149,"DIS_CODE":0,"TOWNNAME":"安平區","LI":"港仔里","LIN":"2鄰","STREET":"安平路","SECT":" ","MAREA":" ","LANE":"５１巷","ALLEY":" ","HOUSE_NO":"１０號","E_COORD97":164535.22,"N_COORD97":2544406.4199999999,"ADDRESS":"安平路５１巷１０號","OBJECTID":231145},"geometry":{"x":164535.22000000067,"y":2544406.4199999999}},{"attributes":{"ID":231150,"DIS_CODE":0,"TOWNNAME":"安平區","LI":"港仔里","LIN":"2鄰","STREET":"安平路","SECT":" ","MAREA":" ","LANE":"５１巷","ALLEY":" ","HOUSE_NO":"２號","E_COORD97":164543.79999999999,"N_COORD97":2544426.71,"ADDRESS":"安平路５１巷２號","OBJECTID":231146},"geometry":{"x":164543.79999999981,"y":2544426.7100000009}},{"attributes":{"ID":231151,"DIS_CODE":0,"TOWNNAME":"安平區","LI":"平安里","LIN":"2鄰","STREET":"安平路","SECT":" ","MAREA":" ","LANE":"８０巷","ALLEY":" ","HOUSE_NO":"１０號","E_COORD97":166417.69,"N_COORD97":2544354.29,"ADDRESS":"安平路８０巷１０號","OBJECTID":231147},"geometry":{"x":166417.69000000134,"y":2544354.290000001}},{"attributes":{"ID":231152,"DIS_CODE":0,"TOWNNAME":"安平區","LI":"平安里","LIN":"2鄰","STREET":"安平路","SECT":" ","MAREA":" ","LANE":"８０巷","ALLEY":" ","HOUSE_NO":"１１號","E_COORD97":166402.48000000001,"N_COORD97":2544362.7799999998,"ADDRESS":"安平路８０巷１１號","OBJECTID":231148},"geometry":{"x":166402.48000000138,"y":2544362.7799999993}},{"attributes":{"ID":231153,"DIS_CODE":0,"TOWNNAME":"安平區","LI":"平安里","LIN":"2鄰","STREET":"安平路","SECT":" ","MAREA":" ","LANE":"８０巷","ALLEY":" ","HOUSE_NO":"１２號","E_COORD97":166418.42999999999,"N_COORD97":2544357.9100000001,"ADDRESS":"安平路８０巷１２號","OBJECTID":231149},"geometry":{"x":166418.43000000063,"y":2544357.910000002}},{"attributes":{"ID":231154,"DIS_CODE":0,"TOWNNAME":"安平區","LI":"平安里","LIN":"2鄰","STREET":"安平路","SECT":" ","MAREA":" ","LANE":"８０巷","ALLEY":" ","HOUSE_NO":"１３號","E_COORD97":166402.32999999999,"N_COORD97":2544367.5699999998,"ADDRESS":"安平路８０巷１３號","OBJECTID":231150},"geometry":{"x":166402.33000000194,"y":2544367.5700000022}},{"attributes":{"ID":231155,"DIS_CODE":0,"TOWNNAME":"中西區","LI":"仙草里","LIN":" ","STREET":"健康路","SECT":" ","MAREA":" ","LANE":"４１０巷","ALLEY":" ","HOUSE_NO":"１號","E_COORD97":167791.64000000001,"N_COORD97":2542475.79,"ADDRESS":"健康路４１０巷１號","OBJECTID":231151},"geometry":{"x":167791.64000000153,"y":2542475.790000001}},{"attributes":{"ID":231156,"DIS_CODE":0,"TOWNNAME":"中西區","LI":"仙草里","LIN":" ","STREET":"健康路","SECT":" ","MAREA":" ","LANE":"４２０巷","ALLEY":" ","HOUSE_NO":"１６號","E_COORD97":167781.42999999999,"N_COORD97":2542506.7999999998,"ADDRESS":"健康路４２０巷１６號","OBJECTID":231152},"geometry":{"x":167781.43000000063,"y":2542506.8000000007}},{"attributes":{"ID":231157,"DIS_CODE":0,"TOWNNAME":"中西區","LI":"仙草里","LIN":" ","STREET":"府緯街","SECT":" ","MAREA":" ","LANE":"４巷","ALLEY":" ","HOUSE_NO":"３號","E_COORD97":167922.48000000001,"N_COORD97":2542753.3300000001,"ADDRESS":"府緯街４巷３號","OBJECTID":231153},"geometry":{"x":167922.48000000138,"y":2542753.3300000001}},{"attributes":{"ID":231158,"DIS_CODE":0,"TOWNNAME":"新營區","LI":"忠政里","LIN":"2鄰","STREET":"中正路","SECT":" ","MAREA":" ","LANE":"３５巷","ALLEY":" ","HOUSE_NO":"２之１號","E_COORD97":180079.26000000001,"N_COORD97":2579082.9300000002,"ADDRESS":"中正路３５巷２之１號","OBJECTID":231154},"geometry":{"x":180079.26000000164,"y":2579082.9299999997}},{"attributes":{"ID":231159,"DIS_CODE":0,"TOWNNAME":"新營區","LI":"王公里","LIN":"2鄰","STREET":"民治路","SECT":" ","MAREA":" ","LANE":"２６巷","ALLEY":" ","HOUSE_NO":"１２之２號","E_COORD97":180244.67000000001,"N_COORD97":2578989.1299999999,"ADDRESS":"民治路２６巷１２之２號","OBJECTID":231155},"geometry":{"x":180244.67000000086,"y":2578989.129999999}},{"attributes":{"ID":231160,"DIS_CODE":0,"TOWNNAME":"新營區","LI":"忠政里","LIN":"2鄰","STREET":"中正路","SECT":" ","MAREA":" ","LANE":"３５巷","ALLEY":" ","HOUSE_NO":"２０號之１","E_COORD97":180041.26999999999,"N_COORD97":2579083.1200000001,"ADDRESS":"中正路３５巷２０號之１","OBJECTID":231156},"geometry":{"x":180041.26999999955,"y":2579083.120000001}},{"attributes":{"ID":231161,"DIS_CODE":0,"TOWNNAME":"新營區","LI":"王公里","LIN":"2鄰","STREET":"民治路","SECT":" ","MAREA":" ","LANE":"２６巷","ALLEY":" ","HOUSE_NO":"１２之３號","E_COORD97":180254.94,"N_COORD97":2578997.9399999999,"ADDRESS":"民治路２６巷１２之３號","OBJECTID":231157},"geometry":{"x":180254.93999999948,"y":2578997.9399999995}},{"attributes":{"ID":231162,"DIS_CODE":0,"TOWNNAME":"新營區","LI":"忠政里","LIN":"2鄰","STREET":"中正路","SECT":" ","MAREA":" ","LANE":"３５巷","ALLEY":" ","HOUSE_NO":"１４號","E_COORD97":180056.45999999999,"N_COORD97":2579082.98,"ADDRESS":"中正路３５巷１４號","OBJECTID":231158},"geometry":{"x":180056.46000000089,"y":2579082.9800000023}},{"attributes":{"ID":231163,"DIS_CODE":0,"TOWNNAME":"歸仁區","LI":"八甲里","LIN":"14鄰","STREET":"大明街","SECT":" ","MAREA":" ","LANE":"１３８巷","ALLEY":" ","HOUSE_NO":"８１號","E_COORD97":178698.63843699999,"N_COORD97":2541759.7266899999,"ADDRESS":"大明街１３８巷８１號","OBJECTID":231159},"geometry":{"x":178698.63843700103,"y":2541759.7266899999}},{"attributes":{"ID":231164,"DIS_CODE":0,"TOWNNAME":"北區","LI":"長德里","LIN":"2鄰","STREET":"公園南路","SECT":" ","MAREA":" ","LANE":"１５２巷","ALLEY":" ","HOUSE_NO":"２２之１號","E_COORD97":168663.64999999999,"N_COORD97":2544728.7400000002,"ADDRESS":"公園南路１５２巷２２之１號","OBJECTID":231160},"geometry":{"x":168663.65000000224,"y":2544728.7400000021}},{"attributes":{"ID":231165,"DIS_CODE":0,"TOWNNAME":"北區","LI":"長德里","LIN":"2鄰","STREET":"公園南路","SECT":" ","MAREA":" ","LANE":"１５２巷","ALLEY":" ","HOUSE_NO":"２２號","E_COORD97":168656.01999999999,"N_COORD97":2544731.8599999999,"ADDRESS":"公園南路１５２巷２２號","OBJECTID":231161},"geometry":{"x":168656.01999999955,"y":2544731.8599999994}},{"attributes":{"ID":231166,"DIS_CODE":0,"TOWNNAME":"北區","LI":"長德里","LIN":"2鄰","STREET":"公園南路","SECT":" ","MAREA":" ","LANE":"１５２巷","ALLEY":" ","HOUSE_NO":"２８號","E_COORD97":168636.62,"N_COORD97":2544733.9300000002,"ADDRESS":"公園南路１５２巷２８號","OBJECTID":231162},"geometry":{"x":168636.62000000104,"y":2544733.9300000016}},{"attributes":{"ID":231167,"DIS_CODE":0,"TOWNNAME":"北區","LI":"成德里","LIN":"2鄰","STREET":"西門路","SECT":"四段","MAREA":" ","LANE":"１９巷","ALLEY":" ","HOUSE_NO":"３１號","E_COORD97":168549.12,"N_COORD97":2545275.73,"ADDRESS":"西門路四段１９巷３１號","OBJECTID":231163},"geometry":{"x":168549.12000000011,"y":2545275.7300000023}},{"attributes":{"ID":231168,"DIS_CODE":0,"TOWNNAME":"北區","LI":"成德里","LIN":"2鄰","STREET":"西門路","SECT":"四段","MAREA":" ","LANE":"７巷","ALLEY":" ","HOUSE_NO":"３０號","E_COORD97":168537.25,"N_COORD97":2545256.1299999999,"ADDRESS":"西門路四段７巷３０號","OBJECTID":231164},"geometry":{"x":168537.25000000093,"y":2545256.1299999971}},{"attributes":{"ID":231169,"DIS_CODE":0,"TOWNNAME":"北區","LI":"成德里","LIN":"2鄰","STREET":"西門路","SECT":"四段","MAREA":" ","LANE":"７巷","ALLEY":" ","HOUSE_NO":"３４號","E_COORD97":168530.87,"N_COORD97":2545259.75,"ADDRESS":"西門路四段７巷３４號","OBJECTID":231165},"geometry":{"x":168530.87000000011,"y":2545259.75}},{"attributes":{"ID":231170,"DIS_CODE":0,"TOWNNAME":"關廟區","LI":"龜洞里","LIN":"2鄰","STREET":"長榮街","SECT":" ","MAREA":" ","LANE":"１２巷","ALLEY":" ","HOUSE_NO":"１號","E_COORD97":183372.34,"N_COORD97":2533782.25,"ADDRESS":"長榮街１２巷１號","OBJECTID":231166},"geometry":{"x":183372.33999999985,"y":2533782.25}},{"attributes":{"ID":231171,"DIS_CODE":0,"TOWNNAME":"善化區","LI":"坐駕里","LIN":"14鄰","STREET":"自立路","SECT":" ","MAREA":" ","LANE":" ","ALLEY":" ","HOUSE_NO":"７５號","E_COORD97":178146.22,"N_COORD97":2558642.75,"ADDRESS":"自立路７５號","OBJECTID":231167},"geometry":{"x":178146.21999999974,"y":2558642.7500000019}},{"attributes":{"ID":231172,"DIS_CODE":0,"TOWNNAME":"善化區","LI":"光文里","LIN":"14鄰","STREET":"民生路","SECT":" ","MAREA":" ","LANE":" ","ALLEY":" ","HOUSE_NO":"１７２號","E_COORD97":178468.29000000001,"N_COORD97":2558972.5099999998,"ADDRESS":"民生路１７２號","OBJECTID":231168},"geometry":{"x":178468.29000000004,"y":2558972.5100000016}},{"attributes":{"ID":231173,"DIS_CODE":0,"TOWNNAME":"善化區","LI":"東關里","LIN":"14鄰","STREET":"大同路","SECT":" ","MAREA":" ","LANE":" ","ALLEY":" ","HOUSE_NO":"３６０號","E_COORD97":177363.57999999999,"N_COORD97":2558963.5,"ADDRESS":"大同路３６０號","OBJECTID":231169},"geometry":{"x":177363.58000000194,"y":2558963.5000000019}},{"attributes":{"ID":231174,"DIS_CODE":0,"TOWNNAME":"永康區","LI":"勝利里","LIN":"23鄰","STREET":"中華一路","SECT":" ","MAREA":" ","LANE":"２０３巷","ALLEY":" ","HOUSE_NO":"１３號","E_COORD97":171454.79000000001,"N_COORD97":2544915.9900000002,"ADDRESS":"中華一路２０３巷１３號","OBJECTID":231170},"geometry":{"x":171454.79000000097,"y":2544915.9899999984}},{"attributes":{"ID":231175,"DIS_CODE":0,"TOWNNAME":"善化區","LI":"胡厝里","LIN":"7鄰","STREET":" ","SECT":" ","MAREA":"胡厝寮","LANE":" ","ALLEY":" ","HOUSE_NO":"２０２號之２","E_COORD97":175251.34,"N_COORD97":2560380.77,"ADDRESS":"胡厝寮２０２號之２","OBJECTID":231171},"geometry":{"x":175251.34000000078,"y":2560380.7700000033}},{"attributes":{"ID":231176,"DIS_CODE":0,"TOWNNAME":"永康區","LI":"北灣里","LIN":"23鄰","STREET":"大灣路","SECT":" ","MAREA":" ","LANE":"１２巷","ALLEY":" ","HOUSE_NO":"４號","E_COORD97":175316.92999999999,"N_COORD97":2545987.9399999999,"ADDRESS":"大灣路１２巷４號","OBJECTID":231172},"geometry":{"x":175316.93000000063,"y":2545987.9400000013}},{"attributes":{"ID":231177,"DIS_CODE":0,"TOWNNAME":"永康區","LI":"東灣里","LIN":"23鄰","STREET":"大灣二街","SECT":" ","MAREA":" ","LANE":"３８巷","ALLEY":" ","HOUSE_NO":"４０號","E_COORD97":174951.14999999999,"N_COORD97":2544784.7200000002,"ADDRESS":"大灣二街３８巷４０號","OBJECTID":231173},"geometry":{"x":174951.15000000224,"y":2544784.7200000007}},{"attributes":{"ID":231178,"DIS_CODE":0,"TOWNNAME":"永康區","LI":"東灣里","LIN":"23鄰","STREET":"大灣二街","SECT":" ","MAREA":" ","LANE":"３８巷","ALLEY":" ","HOUSE_NO":"６０號","E_COORD97":174985.81,"N_COORD97":2544762.3100000001,"ADDRESS":"大灣二街３８巷６０號","OBJECTID":231174},"geometry":{"x":174985.80999999959,"y":2544762.3100000024}},{"attributes":{"ID":231179,"DIS_CODE":0,"TOWNNAME":"永康區","LI":"東灣里","LIN":"23鄰","STREET":"大灣二街","SECT":" ","MAREA":" ","LANE":"３８巷","ALLEY":" ","HOUSE_NO":"３８號","E_COORD97":174946.54000000001,"N_COORD97":2544785.9500000002,"ADDRESS":"大灣二街３８巷３８號","OBJECTID":231175},"geometry":{"x":174946.54000000097,"y":2544785.9499999993}},{"attributes":{"ID":231180,"DIS_CODE":0,"TOWNNAME":"永康區","LI":"東灣里","LIN":"23鄰","STREET":"大灣二街","SECT":" ","MAREA":" ","LANE":"３８巷","ALLEY":" ","HOUSE_NO":"３６號","E_COORD97":174942.95000000001,"N_COORD97":2544788.8300000001,"ADDRESS":"大灣二街３８巷３６號","OBJECTID":231176},"geometry":{"x":174942.95000000019,"y":2544788.8300000019}},{"attributes":{"ID":231181,"DIS_CODE":0,"TOWNNAME":"北區","LI":"力行里","LIN":"2鄰","STREET":"開南街","SECT":" ","MAREA":" ","LANE":"２５７巷","ALLEY":" ","HOUSE_NO":"１１號","E_COORD97":170903.88,"N_COORD97":2544976.25,"ADDRESS":"開南街２５７巷１１號","OBJECTID":231177},"geometry":{"x":170903.87999999989,"y":2544976.2500000019}},{"attributes":{"ID":231182,"DIS_CODE":0,"TOWNNAME":"北區","LI":"力行里","LIN":"2鄰","STREET":"開南街","SECT":" ","MAREA":" ","LANE":"２５７巷","ALLEY":" ","HOUSE_NO":"１３號","E_COORD97":170911.12,"N_COORD97":2544975.3300000001,"ADDRESS":"開南街２５７巷１３號","OBJECTID":231178},"geometry":{"x":170911.12000000011,"y":2544975.3300000019}},{"attributes":{"ID":231183,"DIS_CODE":0,"TOWNNAME":"北區","LI":"力行里","LIN":"2鄰","STREET":"開南街","SECT":" ","MAREA":" ","LANE":"２５７巷","ALLEY":" ","HOUSE_NO":"１５號","E_COORD97":170916.19,"N_COORD97":2544974.1000000001,"ADDRESS":"開南街２５７巷１５號","OBJECTID":231179},"geometry":{"x":170916.18999999948,"y":2544974.1000000015}},{"attributes":{"ID":231184,"DIS_CODE":0,"TOWNNAME":"北區","LI":"力行里","LIN":"2鄰","STREET":"開南街","SECT":" ","MAREA":" ","LANE":"２５７巷","ALLEY":" ","HOUSE_NO":"１７號","E_COORD97":170920.5,"N_COORD97":2544971.7999999998,"ADDRESS":"開南街２５７巷１７號","OBJECTID":231180},"geometry":{"x":170920.50000000186,"y":2544971.8000000007}},{"attributes":{"ID":231185,"DIS_CODE":0,"TOWNNAME":"北區","LI":"力行里","LIN":"2鄰","STREET":"開南街","SECT":" ","MAREA":" ","LANE":"２５７巷","ALLEY":" ","HOUSE_NO":"１９號","E_COORD97":170924.95999999999,"N_COORD97":2544971.1800000002,"ADDRESS":"開南街２５７巷１９號","OBJECTID":231181},"geometry":{"x":170924.96000000089,"y":2544971.1799999997}},{"attributes":{"ID":231186,"DIS_CODE":0,"TOWNNAME":"安南區","LI":"城中里","LIN":"5鄰","STREET":"城西街","SECT":"一段","MAREA":" ","LANE":"６１巷","ALLEY":" ","HOUSE_NO":"５７號","E_COORD97":160762.74002,"N_COORD97":2551273.17405,"ADDRESS":"城西街一段６１巷５７號","OBJECTID":231182},"geometry":{"x":160762.74002000224,"y":2551273.1740500033}},{"attributes":{"ID":231187,"DIS_CODE":0,"TOWNNAME":"北區","LI":"力行里","LIN":"2鄰","STREET":"開南街","SECT":" ","MAREA":" ","LANE":"２５７巷","ALLEY":" ","HOUSE_NO":"２號","E_COORD97":170905.5,"N_COORD97":2544953.6400000001,"ADDRESS":"開南街２５７巷２號","OBJECTID":231183},"geometry":{"x":170905.50000000093,"y":2544953.6400000025}},{"attributes":{"ID":231188,"DIS_CODE":0,"TOWNNAME":"北區","LI":"力行里","LIN":"2鄰","STREET":"開南街","SECT":" ","MAREA":" ","LANE":"２５７巷","ALLEY":" ","HOUSE_NO":"３號","E_COORD97":170899.95999999999,"N_COORD97":2544960.0899999999,"ADDRESS":"開南街２５７巷３號","OBJECTID":231184},"geometry":{"x":170899.95999999996,"y":2544960.0900000017}},{"attributes":{"ID":231189,"DIS_CODE":0,"TOWNNAME":"善化區","LI":"東關里","LIN":"14鄰","STREET":"中和街","SECT":" ","MAREA":" ","LANE":" ","ALLEY":" ","HOUSE_NO":"３０之１號","E_COORD97":177407.26000000001,"N_COORD97":2559003.52,"ADDRESS":"中和街３０之１號","OBJECTID":231185},"geometry":{"x":177407.25999999978,"y":2559003.5200000014}},{"attributes":{"ID":231190,"DIS_CODE":0,"TOWNNAME":"善化區","LI":"東關里","LIN":"14鄰","STREET":"中和街","SECT":" ","MAREA":" ","LANE":" ","ALLEY":" ","HOUSE_NO":"２６號","E_COORD97":177417.14999999999,"N_COORD97":2559014.5,"ADDRESS":"中和街２６號","OBJECTID":231186},"geometry":{"x":177417.15000000037,"y":2559014.5000000019}},{"attributes":{"ID":231191,"DIS_CODE":0,"TOWNNAME":"永康區","LI":"網寮里","LIN":"14鄰","STREET":"永和街","SECT":" ","MAREA":" ","LANE":" ","ALLEY":" ","HOUSE_NO":"２４３號","E_COORD97":173366.51000000001,"N_COORD97":2546568.0499999998,"ADDRESS":"永和街２４３號","OBJECTID":231187},"geometry":{"x":173366.51000000164,"y":2546568.0500000026}},{"attributes":{"ID":231192,"DIS_CODE":0,"TOWNNAME":"永康區","LI":"網寮里","LIN":"14鄰","STREET":"永和街","SECT":" ","MAREA":" ","LANE":" ","ALLEY":" ","HOUSE_NO":"２６２號","E_COORD97":173393.23000000001,"N_COORD97":2546577.1600000001,"ADDRESS":"永和街２６２號","OBJECTID":231188},"geometry":{"x":173393.23000000138,"y":2546577.160000002}},{"attributes":{"ID":231193,"DIS_CODE":0,"TOWNNAME":"永康區","LI":"網寮里","LIN":"14鄰","STREET":"永和街","SECT":" ","MAREA":" ","LANE":" ","ALLEY":" ","HOUSE_NO":"２３３號","E_COORD97":173389.54999999999,"N_COORD97":2546557.0600000001,"ADDRESS":"永和街２３３號","OBJECTID":231189},"geometry":{"x":173389.54999999981,"y":2546557.0600000042}},{"attributes":{"ID":231194,"DIS_CODE":0,"TOWNNAME":"永康區","LI":"網寮里","LIN":"14鄰","STREET":"永和街","SECT":" ","MAREA":" ","LANE":" ","ALLEY":" ","HOUSE_NO":"２３５號","E_COORD97":173384.89999999999,"N_COORD97":2546559.54,"ADDRESS":"永和街２３５號","OBJECTID":231190},"geometry":{"x":173384.9000000013,"y":2546559.540000001}},{"attributes":{"ID":231195,"DIS_CODE":0,"TOWNNAME":"永康區","LI":"東灣里","LIN":"23鄰","STREET":"大灣二街","SECT":" ","MAREA":" ","LANE":"３８巷","ALLEY":" ","HOUSE_NO":"２２號","E_COORD97":174928.84,"N_COORD97":2544778.3500000001,"ADDRESS":"大灣二街３８巷２２號","OBJECTID":231191},"geometry":{"x":174928.84000000171,"y":2544778.3500000015}},{"attributes":{"ID":231196,"DIS_CODE":0,"TOWNNAME":"善化區","LI":"南關里","LIN":"7鄰","STREET":"三民路","SECT":" ","MAREA":" ","LANE":"六合巷","ALLEY":" ","HOUSE_NO":"２４號","E_COORD97":176964.70000000001,"N_COORD97":2558759.0099999998,"ADDRESS":"三民路六合巷２４號","OBJECTID":231192},"geometry":{"x":176964.70000000112,"y":2558759.0100000016}},{"attributes":{"ID":231197,"DIS_CODE":0,"TOWNNAME":"永康區","LI":"南灣里","LIN":"23鄰","STREET":"大灣路","SECT":" ","MAREA":" ","LANE":"７６４巷","ALLEY":" ","HOUSE_NO":"８１號","E_COORD97":174195.82000000001,"N_COORD97":2544734.5099999998,"ADDRESS":"大灣路７６４巷８１號","OBJECTID":231193},"geometry":{"x":174195.82000000123,"y":2544734.5099999998}},{"attributes":{"ID":231198,"DIS_CODE":0,"TOWNNAME":"永康區","LI":"南灣里","LIN":"23鄰","STREET":"大灣路","SECT":" ","MAREA":" ","LANE":"７６４巷","ALLEY":" ","HOUSE_NO":"５５號","E_COORD97":174195.78,"N_COORD97":2544676.46,"ADDRESS":"大灣路７６４巷５５號","OBJECTID":231194},"geometry":{"x":174195.78000000212,"y":2544676.4600000046}},{"attributes":{"ID":231199,"DIS_CODE":0,"TOWNNAME":"永康區","LI":"南灣里","LIN":"23鄰","STREET":"大灣路","SECT":" ","MAREA":" ","LANE":"７６４巷","ALLEY":" ","HOUSE_NO":"６７號","E_COORD97":174210.54999999999,"N_COORD97":2544716.9900000002,"ADDRESS":"大灣路７６４巷６７號","OBJECTID":231195},"geometry":{"x":174210.55000000075,"y":2544716.9900000021}},{"attributes":{"ID":231200,"DIS_CODE":0,"TOWNNAME":"永康區","LI":"南灣里","LIN":"23鄰","STREET":"大灣路","SECT":" ","MAREA":" ","LANE":"７６４巷","ALLEY":" ","HOUSE_NO":"１０３號","E_COORD97":174227.03,"N_COORD97":2544758.3500000001,"ADDRESS":"大灣路７６４巷１０３號","OBJECTID":231196},"geometry":{"x":174227.03000000119,"y":2544758.3500000015}},{"attributes":{"ID":231201,"DIS_CODE":0,"TOWNNAME":"永康區","LI":"南灣里","LIN":"23鄰","STREET":"大灣路","SECT":" ","MAREA":" ","LANE":"７６４巷","ALLEY":" ","HOUSE_NO":"４９號","E_COORD97":174196.09,"N_COORD97":2544667.4500000002,"ADDRESS":"大灣路７６４巷４９號","OBJECTID":231197},"geometry":{"x":174196.08999999985,"y":2544667.4499999993}},{"attributes":{"ID":231202,"DIS_CODE":0,"TOWNNAME":"永康區","LI":"東灣里","LIN":"23鄰","STREET":"大灣一街","SECT":" ","MAREA":" ","LANE":"２７１巷","ALLEY":" ","HOUSE_NO":"３號","E_COORD97":175000.45000000001,"N_COORD97":2544753.3100000001,"ADDRESS":"大灣一街２７１巷３號","OBJECTID":231198},"geometry":{"x":175000.45000000112,"y":2544753.3100000024}},{"attributes":{"ID":231203,"DIS_CODE":0,"TOWNNAME":"永康區","LI":"南灣里","LIN":"23鄰","STREET":"大灣路","SECT":" ","MAREA":" ","LANE":"７６４巷","ALLEY":" ","HOUSE_NO":"４７之２號","E_COORD97":174154.92999999999,"N_COORD97":2544681.2000000002,"ADDRESS":"大灣路７６４巷４７之２號","OBJECTID":231199},"geometry":{"x":174154.9299999997,"y":2544681.2000000011}},{"attributes":{"ID":231204,"DIS_CODE":0,"TOWNNAME":"永康區","LI":"南灣里","LIN":"23鄰","STREET":"大灣路","SECT":" ","MAREA":" ","LANE":"７６４巷","ALLEY":" ","HOUSE_NO":"９９號","E_COORD97":174223.13,"N_COORD97":2544750.6000000001,"ADDRESS":"大灣路７６４巷９９號","OBJECTID":231200},"geometry":{"x":174223.12999999989,"y":2544750.5999999996}}]}