{"displayFieldName":"TOWNNAME","fieldAliases":{"ID":"ID","DIS_CODE":"DIS_CODE","TOWNNAME":"TOWNNAME","LI":"LI","LIN":"LIN","STREET":"STREET","SECT":"SECT","MAREA":"MAREA","LANE":"LANE","ALLEY":"ALLEY","HOUSE_NO":"HOUSE_NO","E_COORD97":"E_COORD97","N_COORD97":"N_COORD97","ADDRESS":"ADDRESS","OBJECTID":"OBJECTID"},"geometryType":"esriGeometryPoint","spatialReference":{"wkid":102443,"latestWkid":3826},"fields":[{"name":"ID","type":"esriFieldTypeDouble","alias":"ID"},{"name":"DIS_CODE","type":"esriFieldTypeInteger","alias":"DIS_CODE"},{"name":"TOWNNAME","type":"esriFieldTypeString","alias":"TOWNNAME","length":8},{"name":"LI","type":"esriFieldTypeString","alias":"LI","length":8},{"name":"LIN","type":"esriFieldTypeString","alias":"LIN","length":12},{"name":"STREET","type":"esriFieldTypeString","alias":"STREET","length":20},{"name":"SECT","type":"esriFieldTypeString","alias":"SECT","length":8},{"name":"MAREA","type":"esriFieldTypeString","alias":"MAREA","length":12},{"name":"LANE","type":"esriFieldTypeString","alias":"LANE","length":10},{"name":"ALLEY","type":"esriFieldTypeString","alias":"ALLEY","length":10},{"name":"HOUSE_NO","type":"esriFieldTypeString","alias":"HOUSE_NO","length":20},{"name":"E_COORD97","type":"esriFieldTypeDouble","alias":"E_COORD97"},{"name":"N_COORD97","type":"esriFieldTypeDouble","alias":"N_COORD97"},{"name":"ADDRESS","type":"esriFieldTypeString","alias":"ADDRESS","length":50},{"name":"OBJECTID","type":"esriFieldTypeOID","alias":"OBJECTID"}],"features":[{"attributes":{"ID":297209,"DIS_CODE":0,"TOWNNAME":"永康區","LI":"西勢里","LIN":"17鄰","STREET":"富強路","SECT":"一段","MAREA":" ","LANE":"２５４巷","ALLEY":" ","HOUSE_NO":"１２號","E_COORD97":175708.97,"N_COORD97":2546454.1499999999,"ADDRESS":"富強路一段２５４巷１２號","OBJECTID":297201},"geometry":{"x":175708.96999999974,"y":2546454.1500000004}},{"attributes":{"ID":297210,"DIS_CODE":0,"TOWNNAME":"永康區","LI":"西勢里","LIN":"17鄰","STREET":"富強路","SECT":"一段","MAREA":" ","LANE":"２３４巷","ALLEY":" ","HOUSE_NO":"４號","E_COORD97":175685.14999999999,"N_COORD97":2546432.7799999998,"ADDRESS":"富強路一段２３４巷４號","OBJECTID":297202},"geometry":{"x":175685.15000000224,"y":2546432.7800000012}},{"attributes":{"ID":297211,"DIS_CODE":0,"TOWNNAME":"永康區","LI":"西勢里","LIN":"17鄰","STREET":"富強路","SECT":"一段","MAREA":" ","LANE":"２５４巷","ALLEY":" ","HOUSE_NO":"１０號","E_COORD97":175705.63,"N_COORD97":2546457.1400000001,"ADDRESS":"富強路一段２５４巷１０號","OBJECTID":297203},"geometry":{"x":175705.63000000082,"y":2546457.1400000006}},{"attributes":{"ID":297212,"DIS_CODE":0,"TOWNNAME":"永康區","LI":"三民里","LIN":"14鄰","STREET":"中正北路","SECT":" ","MAREA":" ","LANE":" ","ALLEY":" ","HOUSE_NO":"９７１號","E_COORD97":175252.53,"N_COORD97":2550376.75,"ADDRESS":"中正北路９７１號","OBJECTID":297204},"geometry":{"x":175252.53000000119,"y":2550376.7500000019}},{"attributes":{"ID":297213,"DIS_CODE":0,"TOWNNAME":"永康區","LI":"西勢里","LIN":"17鄰","STREET":"富強路","SECT":"一段","MAREA":" ","LANE":"２５４巷","ALLEY":" ","HOUSE_NO":"７９號","E_COORD97":175789.57999999999,"N_COORD97":2546309.8199999998,"ADDRESS":"富強路一段２５４巷７９號","OBJECTID":297205},"geometry":{"x":175789.58000000007,"y":2546309.8200000003}},{"attributes":{"ID":297214,"DIS_CODE":0,"TOWNNAME":"永康區","LI":"西勢里","LIN":"17鄰","STREET":"富強路","SECT":"一段","MAREA":" ","LANE":"２３４巷","ALLEY":" ","HOUSE_NO":"３號","E_COORD97":175681.38,"N_COORD97":2546435.0299999998,"ADDRESS":"富強路一段２３４巷３號","OBJECTID":297206},"geometry":{"x":175681.38000000175,"y":2546435.0300000012}},{"attributes":{"ID":297215,"DIS_CODE":0,"TOWNNAME":"永康區","LI":"西勢里","LIN":"17鄰","STREET":"富強路","SECT":"一段","MAREA":" ","LANE":"２５４巷","ALLEY":" ","HOUSE_NO":"７號","E_COORD97":175708.35000000001,"N_COORD97":2546472.5899999999,"ADDRESS":"富強路一段２５４巷７號","OBJECTID":297207},"geometry":{"x":175708.35000000149,"y":2546472.5900000017}},{"attributes":{"ID":297216,"DIS_CODE":0,"TOWNNAME":"永康區","LI":"西勢里","LIN":"17鄰","STREET":"富強路","SECT":"一段","MAREA":" ","LANE":"２５４巷","ALLEY":" ","HOUSE_NO":"８３號","E_COORD97":175785.98000000001,"N_COORD97":2546303.3199999998,"ADDRESS":"富強路一段２５４巷８３號","OBJECTID":297208},"geometry":{"x":175785.98000000045,"y":2546303.3200000003}},{"attributes":{"ID":297217,"DIS_CODE":0,"TOWNNAME":"永康區","LI":"西勢里","LIN":"17鄰","STREET":"富強路","SECT":"一段","MAREA":" ","LANE":"２５４巷","ALLEY":" ","HOUSE_NO":"７３號","E_COORD97":175796.41,"N_COORD97":2546322.0699999998,"ADDRESS":"富強路一段２５４巷７３號","OBJECTID":297209},"geometry":{"x":175796.41000000015,"y":2546322.0700000003}},{"attributes":{"ID":297218,"DIS_CODE":0,"TOWNNAME":"永康區","LI":"西勢里","LIN":"17鄰","STREET":"富強路","SECT":"一段","MAREA":" ","LANE":"２５４巷","ALLEY":" ","HOUSE_NO":"８７號","E_COORD97":175781.51999999999,"N_COORD97":2546295.3100000001,"ADDRESS":"富強路一段２５４巷８７號","OBJECTID":297210},"geometry":{"x":175781.51999999955,"y":2546295.3100000024}},{"attributes":{"ID":297219,"DIS_CODE":0,"TOWNNAME":"永康區","LI":"西勢里","LIN":"17鄰","STREET":"富強路","SECT":"一段","MAREA":" ","LANE":"２５４巷","ALLEY":" ","HOUSE_NO":"４號","E_COORD97":175695.38,"N_COORD97":2546465.8900000001,"ADDRESS":"富強路一段２５４巷４號","OBJECTID":297211},"geometry":{"x":175695.38000000082,"y":2546465.8900000006}},{"attributes":{"ID":297220,"DIS_CODE":0,"TOWNNAME":"永康區","LI":"西勢里","LIN":"17鄰","STREET":"富強路","SECT":"一段","MAREA":" ","LANE":"２５４巷","ALLEY":" ","HOUSE_NO":"５號","E_COORD97":175705.04000000001,"N_COORD97":2546475.5899999999,"ADDRESS":"富強路一段２５４巷５號","OBJECTID":297212},"geometry":{"x":175705.04000000004,"y":2546475.5900000017}},{"attributes":{"ID":297221,"DIS_CODE":0,"TOWNNAME":"永康區","LI":"甲頂里","LIN":"8鄰","STREET":"中華路","SECT":" ","MAREA":" ","LANE":"８９５巷","ALLEY":" ","HOUSE_NO":"８號","E_COORD97":170424.89000000001,"N_COORD97":2546686.4500000002,"ADDRESS":"中華路８９５巷８號","OBJECTID":297213},"geometry":{"x":170424.8900000006,"y":2546686.4500000011}},{"attributes":{"ID":297222,"DIS_CODE":0,"TOWNNAME":"南區","LI":"佛壇里","LIN":"17鄰","STREET":"興南街","SECT":" ","MAREA":" ","LANE":"１５１巷","ALLEY":" ","HOUSE_NO":"５５號","E_COORD97":166126.20999999999,"N_COORD97":2535694.04,"ADDRESS":"興南街１５１巷５５號","OBJECTID":297214},"geometry":{"x":166126.20999999996,"y":2535694.040000001}},{"attributes":{"ID":297223,"DIS_CODE":0,"TOWNNAME":"永康區","LI":"網寮里","LIN":"14鄰","STREET":"永和街","SECT":" ","MAREA":" ","LANE":" ","ALLEY":" ","HOUSE_NO":"２４１號","E_COORD97":173371.04999999999,"N_COORD97":2546565.7999999998,"ADDRESS":"永和街２４１號","OBJECTID":297215},"geometry":{"x":173371.04999999981,"y":2546565.8000000045}},{"attributes":{"ID":297224,"DIS_CODE":0,"TOWNNAME":"東區","LI":"大學里","LIN":"10鄰","STREET":"大學路","SECT":" ","MAREA":" ","LANE":"２２巷","ALLEY":" ","HOUSE_NO":"２號二樓","E_COORD97":170136.60999999999,"N_COORD97":2544028.3100000001,"ADDRESS":"大學路２２巷２號二樓","OBJECTID":297216},"geometry":{"x":170136.61000000034,"y":2544028.3100000005}},{"attributes":{"ID":297225,"DIS_CODE":0,"TOWNNAME":"南區","LI":"佛壇里","LIN":"17鄰","STREET":"興南街","SECT":" ","MAREA":" ","LANE":"１５１巷","ALLEY":" ","HOUSE_NO":"５７號","E_COORD97":166130.57000000001,"N_COORD97":2535681.8999999999,"ADDRESS":"興南街１５１巷５７號","OBJECTID":297217},"geometry":{"x":166130.57000000123,"y":2535681.9000000022}},{"attributes":{"ID":297226,"DIS_CODE":0,"TOWNNAME":"南區","LI":"佛壇里","LIN":"17鄰","STREET":"興南街","SECT":" ","MAREA":" ","LANE":"１５１巷","ALLEY":" ","HOUSE_NO":"５９號","E_COORD97":166132.32000000001,"N_COORD97":2535679.5099999998,"ADDRESS":"興南街１５１巷５９號","OBJECTID":297218},"geometry":{"x":166132.3200000003,"y":2535679.5099999998}},{"attributes":{"ID":297227,"DIS_CODE":0,"TOWNNAME":"南區","LI":"佛壇里","LIN":"17鄰","STREET":"興南街","SECT":" ","MAREA":" ","LANE":"１５１巷","ALLEY":" ","HOUSE_NO":"６１號","E_COORD97":166134.85999999999,"N_COORD97":2535675.7000000002,"ADDRESS":"興南街１５１巷６１號","OBJECTID":297219},"geometry":{"x":166134.86000000127,"y":2535675.7000000011}},{"attributes":{"ID":297228,"DIS_CODE":0,"TOWNNAME":"南區","LI":"佛壇里","LIN":"17鄰","STREET":"興南街","SECT":" ","MAREA":" ","LANE":"１５１巷","ALLEY":" ","HOUSE_NO":"６３號","E_COORD97":166137.07999999999,"N_COORD97":2535672.0499999998,"ADDRESS":"興南街１５１巷６３號","OBJECTID":297220},"geometry":{"x":166137.08000000007,"y":2535672.0500000026}},{"attributes":{"ID":297229,"DIS_CODE":0,"TOWNNAME":"永康區","LI":"南灣里","LIN":"14鄰","STREET":"大灣路","SECT":" ","MAREA":" ","LANE":" ","ALLEY":" ","HOUSE_NO":"６４６號","E_COORD97":174492.39000000001,"N_COORD97":2544620.8199999998,"ADDRESS":"大灣路６４６號","OBJECTID":297221},"geometry":{"x":174492.38999999966,"y":2544620.8200000003}},{"attributes":{"ID":297230,"DIS_CODE":0,"TOWNNAME":"永康區","LI":"西勢里","LIN":"26鄰","STREET":"廣興街","SECT":" ","MAREA":" ","LANE":"３８巷","ALLEY":" ","HOUSE_NO":"２０號之１一樓","E_COORD97":175971.10000000001,"N_COORD97":2546465.79,"ADDRESS":"廣興街３８巷２０號之１一樓","OBJECTID":297222},"geometry":{"x":175971.10000000149,"y":2546465.7900000028}},{"attributes":{"ID":297231,"DIS_CODE":0,"TOWNNAME":"永康區","LI":"西灣里","LIN":"25鄰","STREET":"國光七街","SECT":" ","MAREA":" ","LANE":"２０巷","ALLEY":" ","HOUSE_NO":"１號五樓之２","E_COORD97":174313.45999999999,"N_COORD97":2545560.9300000002,"ADDRESS":"國光七街２０巷１號五樓之２","OBJECTID":297223},"geometry":{"x":174313.46000000089,"y":2545560.9300000016}},{"attributes":{"ID":297232,"DIS_CODE":0,"TOWNNAME":"永康區","LI":"西灣里","LIN":"39鄰","STREET":"永華路","SECT":" ","MAREA":" ","LANE":"２１２巷","ALLEY":" ","HOUSE_NO":"２４號四樓","E_COORD97":174165.19,"N_COORD97":2545448,"ADDRESS":"永華路２１２巷２４號四樓","OBJECTID":297224},"geometry":{"x":174165.19000000041,"y":2545447.9999999981}},{"attributes":{"ID":297233,"DIS_CODE":0,"TOWNNAME":"永康區","LI":"西灣里","LIN":"39鄰","STREET":"永華路","SECT":" ","MAREA":" ","LANE":"２１２巷","ALLEY":" ","HOUSE_NO":"２４號八樓","E_COORD97":174165.19,"N_COORD97":2545448,"ADDRESS":"永華路２１２巷２４號八樓","OBJECTID":297225},"geometry":{"x":174165.19000000041,"y":2545447.9999999981}},{"attributes":{"ID":297234,"DIS_CODE":0,"TOWNNAME":"永康區","LI":"西灣里","LIN":"39鄰","STREET":"永華路","SECT":" ","MAREA":" ","LANE":"２１２巷","ALLEY":" ","HOUSE_NO":"１６號四樓","E_COORD97":174150.51000000001,"N_COORD97":2545438.25,"ADDRESS":"永華路２１２巷１６號四樓","OBJECTID":297226},"geometry":{"x":174150.50999999978,"y":2545438.25}},{"attributes":{"ID":297235,"DIS_CODE":0,"TOWNNAME":"永康區","LI":"西灣里","LIN":"39鄰","STREET":"永華路","SECT":" ","MAREA":" ","LANE":"２１２巷","ALLEY":" ","HOUSE_NO":"２２號六樓","E_COORD97":174160.76999999999,"N_COORD97":2545436.75,"ADDRESS":"永華路２１２巷２２號六樓","OBJECTID":297227},"geometry":{"x":174160.76999999955,"y":2545436.7500000019}},{"attributes":{"ID":297236,"DIS_CODE":0,"TOWNNAME":"南區","LI":"佛壇里","LIN":"17鄰","STREET":"興南街","SECT":" ","MAREA":" ","LANE":"１５１巷","ALLEY":" ","HOUSE_NO":"６５號","E_COORD97":166139.45999999999,"N_COORD97":2535668.5600000001,"ADDRESS":"興南街１５１巷６５號","OBJECTID":297228},"geometry":{"x":166139.46000000089,"y":2535668.5600000024}},{"attributes":{"ID":297237,"DIS_CODE":0,"TOWNNAME":"南區","LI":"佛壇里","LIN":"17鄰","STREET":"興南街","SECT":" ","MAREA":" ","LANE":"１５１巷","ALLEY":" ","HOUSE_NO":"６７號","E_COORD97":166140.57000000001,"N_COORD97":2535664.4300000002,"ADDRESS":"興南街１５１巷６７號","OBJECTID":297229},"geometry":{"x":166140.57000000123,"y":2535664.4300000016}},{"attributes":{"ID":297238,"DIS_CODE":0,"TOWNNAME":"南區","LI":"佛壇里","LIN":"17鄰","STREET":"興南街","SECT":" ","MAREA":" ","LANE":"１５１巷","ALLEY":" ","HOUSE_NO":"６９號","E_COORD97":166141.53,"N_COORD97":2535661.2599999998,"ADDRESS":"興南街１５１巷６９號","OBJECTID":297230},"geometry":{"x":166141.53000000026,"y":2535661.2599999998}},{"attributes":{"ID":297239,"DIS_CODE":0,"TOWNNAME":"南區","LI":"佛壇里","LIN":"17鄰","STREET":"興南街","SECT":" ","MAREA":" ","LANE":"１５１巷","ALLEY":" ","HOUSE_NO":"７１號","E_COORD97":166142.32000000001,"N_COORD97":2535658.8799999999,"ADDRESS":"興南街１５１巷７１號","OBJECTID":297231},"geometry":{"x":166142.32000000123,"y":2535658.879999999}},{"attributes":{"ID":297240,"DIS_CODE":0,"TOWNNAME":"南區","LI":"佛壇里","LIN":"17鄰","STREET":"興南街","SECT":" ","MAREA":" ","LANE":"１５１巷","ALLEY":" ","HOUSE_NO":"７３號","E_COORD97":166143.75,"N_COORD97":2535655.7000000002,"ADDRESS":"興南街１５１巷７３號","OBJECTID":297232},"geometry":{"x":166143.75000000093,"y":2535655.7000000011}},{"attributes":{"ID":297241,"DIS_CODE":0,"TOWNNAME":"南區","LI":"同安里","LIN":"17鄰","STREET":"明興路","SECT":" ","MAREA":" ","LANE":"１４８１巷","ALLEY":" ","HOUSE_NO":"１５號","E_COORD97":166393.32999999999,"N_COORD97":2535691.6099999999,"ADDRESS":"明興路１４８１巷１５號","OBJECTID":297233},"geometry":{"x":166393.33000000007,"y":2535691.6099999994}},{"attributes":{"ID":297242,"DIS_CODE":0,"TOWNNAME":"南區","LI":"同安里","LIN":"17鄰","STREET":"明興路","SECT":" ","MAREA":" ","LANE":"１４８１巷","ALLEY":" ","HOUSE_NO":"１１號","E_COORD97":166384.91,"N_COORD97":2535686.6899999999,"ADDRESS":"明興路１４８１巷１１號","OBJECTID":297234},"geometry":{"x":166384.91000000201,"y":2535686.6900000013}},{"attributes":{"ID":297243,"DIS_CODE":0,"TOWNNAME":"南區","LI":"同安里","LIN":"17鄰","STREET":"明興路","SECT":" ","MAREA":" ","LANE":"１４８１巷","ALLEY":" ","HOUSE_NO":"１３號","E_COORD97":166388.88,"N_COORD97":2535689.23,"ADDRESS":"明興路１４８１巷１３號","OBJECTID":297235},"geometry":{"x":166388.88000000082,"y":2535689.2300000004}},{"attributes":{"ID":297244,"DIS_CODE":0,"TOWNNAME":"南區","LI":"同安里","LIN":"17鄰","STREET":"明興路","SECT":" ","MAREA":" ","LANE":"１４８１巷","ALLEY":" ","HOUSE_NO":"１９號","E_COORD97":166403.32999999999,"N_COORD97":2535696.8500000001,"ADDRESS":"明興路１４８１巷１９號","OBJECTID":297236},"geometry":{"x":166403.33000000007,"y":2535696.8499999996}},{"attributes":{"ID":297245,"DIS_CODE":0,"TOWNNAME":"南區","LI":"金華里","LIN":"24鄰","STREET":"聖南街","SECT":" ","MAREA":" ","LANE":"１４０巷","ALLEY":" ","HOUSE_NO":"１０號","E_COORD97":166712.10999999999,"N_COORD97":2542312.9700000002,"ADDRESS":"聖南街１４０巷１０號","OBJECTID":297237},"geometry":{"x":166712.11000000034,"y":2542312.9700000044}},{"attributes":{"ID":297246,"DIS_CODE":0,"TOWNNAME":"永康區","LI":"埔園里","LIN":"14鄰","STREET":"中山路","SECT":" ","MAREA":" ","LANE":" ","ALLEY":" ","HOUSE_NO":"２６９號","E_COORD97":173639.85000000001,"N_COORD97":2548224.7400000002,"ADDRESS":"中山路２６９號","OBJECTID":297238},"geometry":{"x":173639.84999999963,"y":2548224.7400000021}},{"attributes":{"ID":297247,"DIS_CODE":0,"TOWNNAME":"永康區","LI":"埔園里","LIN":"14鄰","STREET":"中山路","SECT":" ","MAREA":" ","LANE":" ","ALLEY":" ","HOUSE_NO":"２４３號","E_COORD97":173656.48999999999,"N_COORD97":2548164.7400000002,"ADDRESS":"中山路２４３號","OBJECTID":297239},"geometry":{"x":173656.49000000022,"y":2548164.7400000002}},{"attributes":{"ID":297248,"DIS_CODE":0,"TOWNNAME":"南區","LI":"建南里","LIN":"14鄰","STREET":"中華南路","SECT":"二段","MAREA":" ","LANE":" ","ALLEY":" ","HOUSE_NO":"２０１號","E_COORD97":166961.35000000001,"N_COORD97":2540211.9100000001,"ADDRESS":"中華南路二段２０１號","OBJECTID":297240},"geometry":{"x":166961.35000000056,"y":2540211.910000002}},{"attributes":{"ID":297249,"DIS_CODE":0,"TOWNNAME":"南區","LI":"建南里","LIN":"14鄰","STREET":"中華南路","SECT":"二段","MAREA":" ","LANE":" ","ALLEY":" ","HOUSE_NO":"２０３號","E_COORD97":166956.70000000001,"N_COORD97":2540209.8999999999,"ADDRESS":"中華南路二段２０３號","OBJECTID":297241},"geometry":{"x":166956.70000000112,"y":2540209.9000000004}},{"attributes":{"ID":297250,"DIS_CODE":0,"TOWNNAME":"南區","LI":"建南里","LIN":"14鄰","STREET":"中華南路","SECT":"二段","MAREA":" ","LANE":" ","ALLEY":" ","HOUSE_NO":"２０５號","E_COORD97":166952.42000000001,"N_COORD97":2540209.6400000001,"ADDRESS":"中華南路二段２０５號","OBJECTID":297242},"geometry":{"x":166952.41999999899,"y":2540209.6400000043}},{"attributes":{"ID":297251,"DIS_CODE":0,"TOWNNAME":"南區","LI":"建南里","LIN":"14鄰","STREET":"中華南路","SECT":"二段","MAREA":" ","LANE":" ","ALLEY":" ","HOUSE_NO":"２０７號","E_COORD97":166948.64000000001,"N_COORD97":2540208.3900000001,"ADDRESS":"中華南路二段２０７號","OBJECTID":297243},"geometry":{"x":166948.63999999966,"y":2540208.3900000025}},{"attributes":{"ID":297252,"DIS_CODE":0,"TOWNNAME":"永康區","LI":"\u25A0行里","LIN":"39鄰","STREET":"永安路","SECT":" ","MAREA":" ","LANE":"１０５巷","ALLEY":" ","HOUSE_NO":"１５號二樓","E_COORD97":172725.23000000001,"N_COORD97":2549284.1200000001,"ADDRESS":"永安路１０５巷１５號二樓","OBJECTID":297244},"geometry":{"x":172725.23000000138,"y":2549284.1200000029}},{"attributes":{"ID":297253,"DIS_CODE":0,"TOWNNAME":"永康區","LI":"\u25A0行里","LIN":"39鄰","STREET":"永安路","SECT":" ","MAREA":" ","LANE":"１０５巷","ALLEY":" ","HOUSE_NO":"１號六樓","E_COORD97":172731.06,"N_COORD97":2549283.6200000001,"ADDRESS":"永安路１０５巷１號六樓","OBJECTID":297245},"geometry":{"x":172731.05999999959,"y":2549283.6200000029}},{"attributes":{"ID":297254,"DIS_CODE":0,"TOWNNAME":"永康區","LI":"\u25A0行里","LIN":"39鄰","STREET":"永安路","SECT":" ","MAREA":" ","LANE":"１０５巷","ALLEY":" ","HOUSE_NO":"３號三樓","E_COORD97":172731.82000000001,"N_COORD97":2549270.1200000001,"ADDRESS":"永安路１０５巷３號三樓","OBJECTID":297246},"geometry":{"x":172731.8200000003,"y":2549270.1200000029}},{"attributes":{"ID":297255,"DIS_CODE":0,"TOWNNAME":"永康區","LI":"\u25A0行里","LIN":"39鄰","STREET":"永安路","SECT":" ","MAREA":" ","LANE":"１０５巷","ALLEY":" ","HOUSE_NO":"１１號五樓","E_COORD97":172734.75,"N_COORD97":2549207.8799999999,"ADDRESS":"永安路１０５巷１１號五樓","OBJECTID":297247},"geometry":{"x":172734.75000000093,"y":2549207.8800000027}},{"attributes":{"ID":297256,"DIS_CODE":0,"TOWNNAME":"永康區","LI":"\u25A0行里","LIN":"39鄰","STREET":"永安路","SECT":" ","MAREA":" ","LANE":"１０５巷","ALLEY":" ","HOUSE_NO":"３號五樓","E_COORD97":172731.82000000001,"N_COORD97":2549270.1200000001,"ADDRESS":"永安路１０５巷３號五樓","OBJECTID":297248},"geometry":{"x":172731.8200000003,"y":2549270.1200000029}},{"attributes":{"ID":297257,"DIS_CODE":0,"TOWNNAME":"永康區","LI":"\u25A0行里","LIN":"39鄰","STREET":"永安路","SECT":" ","MAREA":" ","LANE":"１０５巷","ALLEY":" ","HOUSE_NO":"１５號三樓","E_COORD97":172725.23000000001,"N_COORD97":2549284.1200000001,"ADDRESS":"永安路１０５巷１５號三樓","OBJECTID":297249},"geometry":{"x":172725.23000000138,"y":2549284.1200000029}},{"attributes":{"ID":297258,"DIS_CODE":0,"TOWNNAME":"永康區","LI":"\u25A0行里","LIN":"39鄰","STREET":"永安路","SECT":" ","MAREA":" ","LANE":"１０５巷","ALLEY":" ","HOUSE_NO":"２３號三樓","E_COORD97":172727.29000000001,"N_COORD97":2549229.3799999999,"ADDRESS":"永安路１０５巷２３號三樓","OBJECTID":297250},"geometry":{"x":172727.28999999911,"y":2549229.3800000008}},{"attributes":{"ID":297259,"DIS_CODE":0,"TOWNNAME":"永康區","LI":"\u25A0行里","LIN":"39鄰","STREET":"永安路","SECT":" ","MAREA":" ","LANE":"１０５巷","ALLEY":" ","HOUSE_NO":"２１號四樓","E_COORD97":172727.09,"N_COORD97":2549235.6299999999,"ADDRESS":"永安路１０５巷２１號四樓","OBJECTID":297251},"geometry":{"x":172727.09000000078,"y":2549235.629999999}},{"attributes":{"ID":297260,"DIS_CODE":0,"TOWNNAME":"永康區","LI":"\u25A0行里","LIN":"14鄰","STREET":"中正六街","SECT":" ","MAREA":" ","LANE":" ","ALLEY":" ","HOUSE_NO":"１７５號五樓之７","E_COORD97":171858.26999999999,"N_COORD97":2548861.5600000001,"ADDRESS":"中正六街１７５號五樓之７","OBJECTID":297252},"geometry":{"x":171858.26999999955,"y":2548861.5600000005}},{"attributes":{"ID":297261,"DIS_CODE":0,"TOWNNAME":"永康區","LI":"\u25A0行里","LIN":"39鄰","STREET":"永安路","SECT":" ","MAREA":" ","LANE":"１０５巷","ALLEY":" ","HOUSE_NO":"５號三樓","E_COORD97":172731.42999999999,"N_COORD97":2549256.1200000001,"ADDRESS":"永安路１０５巷５號三樓","OBJECTID":297253},"geometry":{"x":172731.43000000063,"y":2549256.1200000048}},{"attributes":{"ID":297262,"DIS_CODE":0,"TOWNNAME":"南區","LI":"同安里","LIN":"17鄰","STREET":"明興路","SECT":" ","MAREA":" ","LANE":"１４８１巷","ALLEY":" ","HOUSE_NO":"１７號","E_COORD97":166399.20000000001,"N_COORD97":2535695.02,"ADDRESS":"明興路１４８１巷１７號","OBJECTID":297254},"geometry":{"x":166399.20000000019,"y":2535695.0200000014}},{"attributes":{"ID":297263,"DIS_CODE":0,"TOWNNAME":"永康區","LI":"\u25A0行里","LIN":"46鄰","STREET":"新行街","SECT":" ","MAREA":" ","LANE":" ","ALLEY":" ","HOUSE_NO":"１２５號五樓之４","E_COORD97":172323.29000000001,"N_COORD97":2549035.2999999998,"ADDRESS":"新行街１２５號五樓之４","OBJECTID":297255},"geometry":{"x":172323.29000000004,"y":2549035.3000000026}},{"attributes":{"ID":297264,"DIS_CODE":0,"TOWNNAME":"永康區","LI":"\u25A0行里","LIN":"46鄰","STREET":"新行街","SECT":" ","MAREA":" ","LANE":" ","ALLEY":" ","HOUSE_NO":"１２５號八樓之２","E_COORD97":172323.39999999999,"N_COORD97":2549035.2999999998,"ADDRESS":"新行街１２５號八樓之２","OBJECTID":297256},"geometry":{"x":172323.39999999944,"y":2549035.3000000026}},{"attributes":{"ID":297265,"DIS_CODE":0,"TOWNNAME":"永康區","LI":"\u25A0行里","LIN":"46鄰","STREET":"新行街","SECT":" ","MAREA":" ","LANE":" ","ALLEY":" ","HOUSE_NO":"１２５號四樓之１","E_COORD97":172323.26000000001,"N_COORD97":2549035.2999999998,"ADDRESS":"新行街１２５號四樓之１","OBJECTID":297257},"geometry":{"x":172323.25999999978,"y":2549035.3000000026}},{"attributes":{"ID":297266,"DIS_CODE":0,"TOWNNAME":"永康區","LI":"\u25A0行里","LIN":"1鄰","STREET":"中正路","SECT":" ","MAREA":" ","LANE":" ","ALLEY":" ","HOUSE_NO":"９８６號五樓之５","E_COORD97":171936.85999999999,"N_COORD97":2549018.2999999998,"ADDRESS":"中正路９８６號五樓之５","OBJECTID":297258},"geometry":{"x":171936.86000000034,"y":2549018.3000000026}},{"attributes":{"ID":297267,"DIS_CODE":0,"TOWNNAME":"永康區","LI":"\u25A0行里","LIN":"1鄰","STREET":"中正路","SECT":" ","MAREA":" ","LANE":" ","ALLEY":" ","HOUSE_NO":"９８６號六樓之２","E_COORD97":171936.84,"N_COORD97":2549018.2999999998,"ADDRESS":"中正路９８６號六樓之２","OBJECTID":297259},"geometry":{"x":171936.84000000171,"y":2549018.3000000026}},{"attributes":{"ID":297268,"DIS_CODE":0,"TOWNNAME":"永康區","LI":"\u25A0行里","LIN":"46鄰","STREET":"新行街","SECT":" ","MAREA":" ","LANE":" ","ALLEY":" ","HOUSE_NO":"１２５號七樓之１","E_COORD97":172323.26000000001,"N_COORD97":2549035.2999999998,"ADDRESS":"新行街１２５號七樓之１","OBJECTID":297260},"geometry":{"x":172323.25999999978,"y":2549035.3000000026}},{"attributes":{"ID":297269,"DIS_CODE":0,"TOWNNAME":"永康區","LI":"\u25A0行里","LIN":"46鄰","STREET":"新行街","SECT":" ","MAREA":" ","LANE":" ","ALLEY":" ","HOUSE_NO":"１２５號九樓之１","E_COORD97":172323.26000000001,"N_COORD97":2549035.2999999998,"ADDRESS":"新行街１２５號九樓之１","OBJECTID":297261},"geometry":{"x":172323.25999999978,"y":2549035.3000000026}},{"attributes":{"ID":297270,"DIS_CODE":0,"TOWNNAME":"永康區","LI":"\u25A0行里","LIN":"31鄰","STREET":"仁愛街","SECT":" ","MAREA":" ","LANE":" ","ALLEY":" ","HOUSE_NO":"４８號四樓","E_COORD97":171949.97,"N_COORD97":2549202.7200000002,"ADDRESS":"仁愛街４８號四樓","OBJECTID":297262},"geometry":{"x":171949.97000000067,"y":2549202.7200000007}},{"attributes":{"ID":297271,"DIS_CODE":0,"TOWNNAME":"永康區","LI":"\u25A0行里","LIN":"46鄰","STREET":"新行街","SECT":" ","MAREA":" ","LANE":" ","ALLEY":" ","HOUSE_NO":"１２５號十五樓之１","E_COORD97":172324.51000000001,"N_COORD97":2549035.2999999998,"ADDRESS":"新行街１２５號十五樓之１","OBJECTID":297263},"geometry":{"x":172324.51000000071,"y":2549035.3000000026}},{"attributes":{"ID":297272,"DIS_CODE":0,"TOWNNAME":"仁德區","LI":"大甲里","LIN":"4鄰","STREET":"行大一街","SECT":" ","MAREA":" ","LANE":" ","ALLEY":" ","HOUSE_NO":"２３２號","E_COORD97":169737.95999999999,"N_COORD97":2535044.5,"ADDRESS":"行大一街２３２號","OBJECTID":297264},"geometry":{"x":169737.96000000089,"y":2535044.5000000019}},{"attributes":{"ID":297273,"DIS_CODE":0,"TOWNNAME":"永康區","LI":"\u25A0行里","LIN":"39鄰","STREET":"永安路","SECT":" ","MAREA":" ","LANE":"１０５巷","ALLEY":" ","HOUSE_NO":"１９號六樓","E_COORD97":172726.64000000001,"N_COORD97":2549256.3700000001,"ADDRESS":"永安路１０５巷１９號六樓","OBJECTID":297265},"geometry":{"x":172726.6400000006,"y":2549256.370000001}},{"attributes":{"ID":297274,"DIS_CODE":0,"TOWNNAME":"永康區","LI":"\u25A0行里","LIN":"39鄰","STREET":"永安路","SECT":" ","MAREA":" ","LANE":"１０５巷","ALLEY":" ","HOUSE_NO":"２３號五樓","E_COORD97":172727.29000000001,"N_COORD97":2549229.3799999999,"ADDRESS":"永安路１０５巷２３號五樓","OBJECTID":297266},"geometry":{"x":172727.28999999911,"y":2549229.3800000008}},{"attributes":{"ID":297275,"DIS_CODE":0,"TOWNNAME":"南區","LI":"同安里","LIN":"17鄰","STREET":"明興路","SECT":" ","MAREA":" ","LANE":"１４８１巷","ALLEY":" ","HOUSE_NO":"２１號","E_COORD97":166408.73000000001,"N_COORD97":2535699.4700000002,"ADDRESS":"明興路１４８１巷２１號","OBJECTID":297267},"geometry":{"x":166408.73000000138,"y":2535699.4700000025}},{"attributes":{"ID":297276,"DIS_CODE":0,"TOWNNAME":"南區","LI":"永寧里","LIN":"17鄰","STREET":"灣裡路","SECT":" ","MAREA":" ","LANE":"２３５巷","ALLEY":" ","HOUSE_NO":"２６之１號","E_COORD97":166240.19,"N_COORD97":2536519.98,"ADDRESS":"灣裡路２３５巷２６之１號","OBJECTID":297268},"geometry":{"x":166240.19000000041,"y":2536519.9800000023}},{"attributes":{"ID":297277,"DIS_CODE":0,"TOWNNAME":"東區","LI":"泉南里","LIN":"17鄰","STREET":"光華街","SECT":" ","MAREA":" ","LANE":"１１９巷","ALLEY":" ","HOUSE_NO":"１０號","E_COORD97":169741.07999999999,"N_COORD97":2542851.6400000001,"ADDRESS":"光華街１１９巷１０號","OBJECTID":297269},"geometry":{"x":169741.08000000007,"y":2542851.6400000025}},{"attributes":{"ID":297278,"DIS_CODE":0,"TOWNNAME":"東區","LI":"泉南里","LIN":"17鄰","STREET":"光華街","SECT":" ","MAREA":" ","LANE":"１１９巷","ALLEY":" ","HOUSE_NO":"２０號","E_COORD97":169746.03,"N_COORD97":2542831.0899999999,"ADDRESS":"光華街１１９巷２０號","OBJECTID":297270},"geometry":{"x":169746.03000000119,"y":2542831.0900000017}},{"attributes":{"ID":297279,"DIS_CODE":0,"TOWNNAME":"東區","LI":"泉南里","LIN":"17鄰","STREET":"光華街","SECT":" ","MAREA":" ","LANE":"１１９巷","ALLEY":" ","HOUSE_NO":"２４號","E_COORD97":169740.75,"N_COORD97":2542833.29,"ADDRESS":"光華街１１９巷２４號","OBJECTID":297271},"geometry":{"x":169740.75000000186,"y":2542833.2899999991}},{"attributes":{"ID":297280,"DIS_CODE":0,"TOWNNAME":"東區","LI":"泉南里","LIN":"17鄰","STREET":"光華街","SECT":" ","MAREA":" ","LANE":"１１９巷","ALLEY":" ","HOUSE_NO":"２６號","E_COORD97":169737.78,"N_COORD97":2542834.6000000001,"ADDRESS":"光華街１１９巷２６號","OBJECTID":297272},"geometry":{"x":169737.78000000119,"y":2542834.6000000015}},{"attributes":{"ID":297281,"DIS_CODE":0,"TOWNNAME":"東區","LI":"泉南里","LIN":"17鄰","STREET":"光華街","SECT":" ","MAREA":" ","LANE":"１１９巷","ALLEY":" ","HOUSE_NO":"２８號","E_COORD97":169734.14999999999,"N_COORD97":2542836.25,"ADDRESS":"光華街１１９巷２８號","OBJECTID":297273},"geometry":{"x":169734.15000000037,"y":2542836.2500000019}},{"attributes":{"ID":297282,"DIS_CODE":0,"TOWNNAME":"東區","LI":"泉南里","LIN":"17鄰","STREET":"光華街","SECT":" ","MAREA":" ","LANE":"１１９巷","ALLEY":" ","HOUSE_NO":"２號","E_COORD97":169753.94,"N_COORD97":2542844.27,"ADDRESS":"光華街１１９巷２號","OBJECTID":297274},"geometry":{"x":169753.94000000134,"y":2542844.2699999996}},{"attributes":{"ID":297283,"DIS_CODE":0,"TOWNNAME":"東區","LI":"泉南里","LIN":"17鄰","STREET":"光華街","SECT":" ","MAREA":" ","LANE":"１１９巷","ALLEY":" ","HOUSE_NO":"３０號","E_COORD97":169731.17999999999,"N_COORD97":2542837.46,"ADDRESS":"光華街１１９巷３０號","OBJECTID":297275},"geometry":{"x":169731.18000000063,"y":2542837.4600000009}},{"attributes":{"ID":297284,"DIS_CODE":0,"TOWNNAME":"東區","LI":"泉南里","LIN":"17鄰","STREET":"光華街","SECT":" ","MAREA":" ","LANE":"１１９巷","ALLEY":" ","HOUSE_NO":"３２號","E_COORD97":169728.10000000001,"N_COORD97":2542839.1099999999,"ADDRESS":"光華街１１９巷３２號","OBJECTID":297276},"geometry":{"x":169728.10000000056,"y":2542839.1099999994}},{"attributes":{"ID":297285,"DIS_CODE":0,"TOWNNAME":"東區","LI":"泉南里","LIN":"17鄰","STREET":"光華街","SECT":" ","MAREA":" ","LANE":"１１９巷","ALLEY":" ","HOUSE_NO":"３６號","E_COORD97":169721.5,"N_COORD97":2542841.8599999999,"ADDRESS":"光華街１１９巷３６號","OBJECTID":297277},"geometry":{"x":169721.5,"y":2542841.8600000013}},{"attributes":{"ID":297286,"DIS_CODE":0,"TOWNNAME":"東區","LI":"泉南里","LIN":"17鄰","STREET":"光華街","SECT":" ","MAREA":" ","LANE":"１１９巷","ALLEY":" ","HOUSE_NO":"３８號","E_COORD97":169718.97,"N_COORD97":2542843.1800000002,"ADDRESS":"光華街１１９巷３８號","OBJECTID":297278},"geometry":{"x":169718.97000000067,"y":2542843.1800000016}},{"attributes":{"ID":297287,"DIS_CODE":0,"TOWNNAME":"東區","LI":"泉南里","LIN":"17鄰","STREET":"光華街","SECT":" ","MAREA":" ","LANE":"１１９巷","ALLEY":" ","HOUSE_NO":"４號","E_COORD97":169750.42000000001,"N_COORD97":2542845.9199999999,"ADDRESS":"光華街１１９巷４號","OBJECTID":297279},"geometry":{"x":169750.42000000086,"y":2542845.9200000018}},{"attributes":{"ID":297288,"DIS_CODE":0,"TOWNNAME":"東區","LI":"泉南里","LIN":"17鄰","STREET":"光華街","SECT":" ","MAREA":" ","LANE":"１１９巷","ALLEY":" ","HOUSE_NO":"６號","E_COORD97":169747.35000000001,"N_COORD97":2542847.5699999998,"ADDRESS":"光華街１１９巷６號","OBJECTID":297280},"geometry":{"x":169747.34999999963,"y":2542847.570000004}},{"attributes":{"ID":297289,"DIS_CODE":0,"TOWNNAME":"東區","LI":"泉南里","LIN":"17鄰","STREET":"光華街","SECT":" ","MAREA":" ","LANE":"１１９巷","ALLEY":" ","HOUSE_NO":"８號","E_COORD97":169743.82999999999,"N_COORD97":2542849.77,"ADDRESS":"光華街１１９巷８號","OBJECTID":297281},"geometry":{"x":169743.83000000101,"y":2542849.7700000014}},{"attributes":{"ID":297290,"DIS_CODE":0,"TOWNNAME":"東區","LI":"泉南里","LIN":"17鄰","STREET":"光華街","SECT":" ","MAREA":" ","LANE":"１１９巷","ALLEY":" ","HOUSE_NO":"１２號","E_COORD97":169737.23000000001,"N_COORD97":2542853.29,"ADDRESS":"光華街１１９巷１２號","OBJECTID":297282},"geometry":{"x":169737.23000000045,"y":2542853.290000001}},{"attributes":{"ID":297291,"DIS_CODE":0,"TOWNNAME":"東區","LI":"泉南里","LIN":"17鄰","STREET":"光華街","SECT":" ","MAREA":" ","LANE":"１１９巷","ALLEY":" ","HOUSE_NO":"１４號","E_COORD97":169733.82000000001,"N_COORD97":2542855.8100000001,"ADDRESS":"光華街１１９巷１４號","OBJECTID":297283},"geometry":{"x":169733.82000000216,"y":2542855.8100000005}},{"attributes":{"ID":297292,"DIS_CODE":0,"TOWNNAME":"東區","LI":"泉南里","LIN":"17鄰","STREET":"光華街","SECT":" ","MAREA":" ","LANE":"１１９巷","ALLEY":" ","HOUSE_NO":"２２號","E_COORD97":169744.32000000001,"N_COORD97":2542831.9700000002,"ADDRESS":"光華街１１９巷２２號","OBJECTID":297284},"geometry":{"x":169744.32000000123,"y":2542831.9700000044}},{"attributes":{"ID":297293,"DIS_CODE":0,"TOWNNAME":"東區","LI":"泉南里","LIN":"17鄰","STREET":"光華街","SECT":" ","MAREA":" ","LANE":"１１９巷","ALLEY":" ","HOUSE_NO":"３４號","E_COORD97":169724.57999999999,"N_COORD97":2542840.7599999998,"ADDRESS":"光華街１１９巷３４號","OBJECTID":297285},"geometry":{"x":169724.58000000007,"y":2542840.7599999998}},{"attributes":{"ID":297294,"DIS_CODE":0,"TOWNNAME":"東區","LI":"大學里","LIN":"17鄰","STREET":"東寧路","SECT":" ","MAREA":" ","LANE":"８３巷","ALLEY":" ","HOUSE_NO":"６號","E_COORD97":170326.57000000001,"N_COORD97":2543632.29,"ADDRESS":"東寧路８３巷６號","OBJECTID":297286},"geometry":{"x":170326.5700000003,"y":2543632.290000001}},{"attributes":{"ID":297295,"DIS_CODE":0,"TOWNNAME":"南區","LI":"建南里","LIN":"14鄰","STREET":"中華南路","SECT":"二段","MAREA":" ","LANE":" ","ALLEY":" ","HOUSE_NO":"２０９號","E_COORD97":166943.85999999999,"N_COORD97":2540207.1299999999,"ADDRESS":"中華南路二段２０９號","OBJECTID":297287},"geometry":{"x":166943.86000000127,"y":2540207.129999999}},{"attributes":{"ID":297296,"DIS_CODE":0,"TOWNNAME":"南區","LI":"建南里","LIN":"14鄰","STREET":"中華南路","SECT":"二段","MAREA":" ","LANE":" ","ALLEY":" ","HOUSE_NO":"２１９號","E_COORD97":166912.34,"N_COORD97":2540201.8599999999,"ADDRESS":"中華南路二段２１９號","OBJECTID":297288},"geometry":{"x":166912.34000000171,"y":2540201.8600000013}},{"attributes":{"ID":297297,"DIS_CODE":0,"TOWNNAME":"安南區","LI":"佃東里","LIN":"17鄰","STREET":"公學路","SECT":"四段","MAREA":" ","LANE":"５４巷","ALLEY":" ","HOUSE_NO":"１００號","E_COORD97":165866.01000000001,"N_COORD97":2552189.29,"ADDRESS":"公學路四段５４巷１００號","OBJECTID":297289},"geometry":{"x":165866.00999999978,"y":2552189.290000001}},{"attributes":{"ID":297298,"DIS_CODE":0,"TOWNNAME":"安南區","LI":"佃東里","LIN":"17鄰","STREET":"公學路","SECT":"四段","MAREA":" ","LANE":"５４巷","ALLEY":" ","HOUSE_NO":"１２４號","E_COORD97":165862.35000000001,"N_COORD97":2552125.2200000002,"ADDRESS":"公學路四段５４巷１２４號","OBJECTID":297290},"geometry":{"x":165862.34999999963,"y":2552125.2200000007}},{"attributes":{"ID":297299,"DIS_CODE":0,"TOWNNAME":"安南區","LI":"佃東里","LIN":"17鄰","STREET":"公學路","SECT":"四段","MAREA":" ","LANE":"５４巷","ALLEY":" ","HOUSE_NO":"１４號","E_COORD97":165818.79999999999,"N_COORD97":2552107.0299999998,"ADDRESS":"公學路四段５４巷１４號","OBJECTID":297291},"geometry":{"x":165818.79999999981,"y":2552107.0300000012}},{"attributes":{"ID":297300,"DIS_CODE":0,"TOWNNAME":"安南區","LI":"佃東里","LIN":"17鄰","STREET":"公學路","SECT":"四段","MAREA":" ","LANE":"５４巷","ALLEY":" ","HOUSE_NO":"１６號","E_COORD97":165819.17999999999,"N_COORD97":2552112.2799999998,"ADDRESS":"公學路四段５４巷１６號","OBJECTID":297292},"geometry":{"x":165819.1799999997,"y":2552112.2800000012}},{"attributes":{"ID":297301,"DIS_CODE":0,"TOWNNAME":"安南區","LI":"佃東里","LIN":"17鄰","STREET":"公學路","SECT":"四段","MAREA":" ","LANE":"５４巷","ALLEY":" ","HOUSE_NO":"１８號","E_COORD97":165819.37,"N_COORD97":2552116.5899999999,"ADDRESS":"公學路四段５４巷１８號","OBJECTID":297293},"geometry":{"x":165819.37000000104,"y":2552116.5900000017}},{"attributes":{"ID":297302,"DIS_CODE":0,"TOWNNAME":"安南區","LI":"佃東里","LIN":"17鄰","STREET":"公學路","SECT":"四段","MAREA":" ","LANE":"５４巷","ALLEY":" ","HOUSE_NO":"２０號","E_COORD97":165819.37,"N_COORD97":2552120.9100000001,"ADDRESS":"公學路四段５４巷２０號","OBJECTID":297294},"geometry":{"x":165819.37000000104,"y":2552120.9100000001}},{"attributes":{"ID":297303,"DIS_CODE":0,"TOWNNAME":"安南區","LI":"佃東里","LIN":"17鄰","STREET":"公學路","SECT":"四段","MAREA":" ","LANE":"５４巷","ALLEY":" ","HOUSE_NO":"２２號","E_COORD97":165820.48999999999,"N_COORD97":2552125.0299999998,"ADDRESS":"公學路四段５４巷２２號","OBJECTID":297295},"geometry":{"x":165820.49000000115,"y":2552125.0299999993}},{"attributes":{"ID":297304,"DIS_CODE":0,"TOWNNAME":"安南區","LI":"佃東里","LIN":"17鄰","STREET":"公學路","SECT":"四段","MAREA":" ","LANE":"５４巷","ALLEY":" ","HOUSE_NO":"２４號","E_COORD97":165820.67999999999,"N_COORD97":2552129.1600000001,"ADDRESS":"公學路四段５４巷２４號","OBJECTID":297296},"geometry":{"x":165820.68000000063,"y":2552129.1600000001}},{"attributes":{"ID":297305,"DIS_CODE":0,"TOWNNAME":"安南區","LI":"佃東里","LIN":"17鄰","STREET":"公學路","SECT":"四段","MAREA":" ","LANE":"５４巷","ALLEY":" ","HOUSE_NO":"２６號","E_COORD97":165821.42999999999,"N_COORD97":2552134.0299999998,"ADDRESS":"公學路四段５４巷２６號","OBJECTID":297297},"geometry":{"x":165821.42999999877,"y":2552134.0300000012}},{"attributes":{"ID":297306,"DIS_CODE":0,"TOWNNAME":"安南區","LI":"佃東里","LIN":"17鄰","STREET":"公學路","SECT":"四段","MAREA":" ","LANE":"５４巷","ALLEY":" ","HOUSE_NO":"２８號","E_COORD97":165821.62,"N_COORD97":2552139.2799999998,"ADDRESS":"公學路四段５４巷２８號","OBJECTID":297298},"geometry":{"x":165821.62000000011,"y":2552139.2800000012}},{"attributes":{"ID":297307,"DIS_CODE":0,"TOWNNAME":"安南區","LI":"佃東里","LIN":"17鄰","STREET":"公學路","SECT":"四段","MAREA":" ","LANE":"５４巷","ALLEY":" ","HOUSE_NO":"３０號","E_COORD97":165821.62,"N_COORD97":2552143.0299999998,"ADDRESS":"公學路四段５４巷３０號","OBJECTID":297299},"geometry":{"x":165821.62000000011,"y":2552143.0299999975}},{"attributes":{"ID":297308,"DIS_CODE":0,"TOWNNAME":"安南區","LI":"佃東里","LIN":"17鄰","STREET":"公學路","SECT":"四段","MAREA":" ","LANE":"５４巷","ALLEY":" ","HOUSE_NO":"３２號","E_COORD97":165822.56,"N_COORD97":2552146.9700000002,"ADDRESS":"公學路四段５４巷３２號","OBJECTID":297300},"geometry":{"x":165822.56000000052,"y":2552146.9700000007}},{"attributes":{"ID":297309,"DIS_CODE":0,"TOWNNAME":"安南區","LI":"佃東里","LIN":"17鄰","STREET":"公學路","SECT":"四段","MAREA":" ","LANE":"５４巷","ALLEY":" ","HOUSE_NO":"４６號","E_COORD97":165826.34,"N_COORD97":2552183.2400000002,"ADDRESS":"公學路四段５４巷４６號","OBJECTID":297301},"geometry":{"x":165826.34000000078,"y":2552183.2399999984}},{"attributes":{"ID":297310,"DIS_CODE":0,"TOWNNAME":"安南區","LI":"佃東里","LIN":"17鄰","STREET":"公學路","SECT":"四段","MAREA":" ","LANE":"５４巷","ALLEY":" ","HOUSE_NO":"５０號","E_COORD97":165828.45000000001,"N_COORD97":2552193.5699999998,"ADDRESS":"公學路四段５４巷５０號","OBJECTID":297302},"geometry":{"x":165828.45000000019,"y":2552193.5700000003}},{"attributes":{"ID":297311,"DIS_CODE":0,"TOWNNAME":"安南區","LI":"佃東里","LIN":"17鄰","STREET":"公學路","SECT":"四段","MAREA":" ","LANE":"５４巷","ALLEY":" ","HOUSE_NO":"５２號","E_COORD97":165831.06,"N_COORD97":2552196.7799999998,"ADDRESS":"公學路四段５４巷５２號","OBJECTID":297303},"geometry":{"x":165831.06000000052,"y":2552196.7800000012}},{"attributes":{"ID":297312,"DIS_CODE":0,"TOWNNAME":"安南區","LI":"佃東里","LIN":"17鄰","STREET":"公學路","SECT":"四段","MAREA":" ","LANE":"５４巷","ALLEY":" ","HOUSE_NO":"５４號","E_COORD97":165833.07000000001,"N_COORD97":2552200.1800000002,"ADDRESS":"公學路四段５４巷５４號","OBJECTID":297304},"geometry":{"x":165833.07000000216,"y":2552200.1800000034}},{"attributes":{"ID":297313,"DIS_CODE":0,"TOWNNAME":"安南區","LI":"佃東里","LIN":"17鄰","STREET":"公學路","SECT":"四段","MAREA":" ","LANE":"５４巷","ALLEY":" ","HOUSE_NO":"９０號","E_COORD97":165886.76999999999,"N_COORD97":2552201.5600000001,"ADDRESS":"公學路四段５４巷９０號","OBJECTID":297305},"geometry":{"x":165886.76999999862,"y":2552201.5600000005}},{"attributes":{"ID":297314,"DIS_CODE":0,"TOWNNAME":"安南區","LI":"佃東里","LIN":"17鄰","STREET":"公學路","SECT":"四段","MAREA":" ","LANE":"５４巷","ALLEY":" ","HOUSE_NO":"９２號之１","E_COORD97":165887.95000000001,"N_COORD97":2552234.1299999999,"ADDRESS":"公學路四段５４巷９２號之１","OBJECTID":297306},"geometry":{"x":165887.94999999925,"y":2552234.1300000008}},{"attributes":{"ID":297315,"DIS_CODE":0,"TOWNNAME":"安南區","LI":"佃東里","LIN":"17鄰","STREET":"公學路","SECT":"四段","MAREA":" ","LANE":"５４巷","ALLEY":" ","HOUSE_NO":"９４號","E_COORD97":165867.67999999999,"N_COORD97":2552202.4100000001,"ADDRESS":"公學路四段５４巷９４號","OBJECTID":297307},"geometry":{"x":165867.68000000063,"y":2552202.4099999983}},{"attributes":{"ID":297316,"DIS_CODE":0,"TOWNNAME":"安南區","LI":"佃東里","LIN":"17鄰","STREET":"公學路","SECT":"四段","MAREA":" ","LANE":"５４巷","ALLEY":" ","HOUSE_NO":"９６號","E_COORD97":165867.51000000001,"N_COORD97":2552198.3599999999,"ADDRESS":"公學路四段５４巷９６號","OBJECTID":297308},"geometry":{"x":165867.51000000071,"y":2552198.3599999994}},{"attributes":{"ID":297317,"DIS_CODE":0,"TOWNNAME":"安南區","LI":"佃東里","LIN":"17鄰","STREET":"公學路","SECT":"四段","MAREA":" ","LANE":"５４巷","ALLEY":" ","HOUSE_NO":"９８號","E_COORD97":165868.35000000001,"N_COORD97":2552194.3100000001,"ADDRESS":"公學路四段５４巷９８號","OBJECTID":297309},"geometry":{"x":165868.35000000056,"y":2552194.3100000024}},{"attributes":{"ID":297318,"DIS_CODE":0,"TOWNNAME":"永康區","LI":"龍潭里","LIN":"37鄰","STREET":"中山北路","SECT":" ","MAREA":" ","LANE":"１６４巷","ALLEY":" ","HOUSE_NO":"１１４號之３二樓","E_COORD97":174537.16,"N_COORD97":2547361.6499999999,"ADDRESS":"中山北路１６４巷１１４號之３二樓","OBJECTID":297310},"geometry":{"x":174537.16000000201,"y":2547361.6500000004}},{"attributes":{"ID":297319,"DIS_CODE":0,"TOWNNAME":"永康區","LI":"龍潭里","LIN":"37鄰","STREET":"中山北路","SECT":" ","MAREA":" ","LANE":"１６４巷","ALLEY":" ","HOUSE_NO":"１１４號四樓","E_COORD97":174534.29999999999,"N_COORD97":2547394.6099999999,"ADDRESS":"中山北路１６４巷１１４號四樓","OBJECTID":297311},"geometry":{"x":174534.30000000075,"y":2547394.6099999994}},{"attributes":{"ID":297320,"DIS_CODE":0,"TOWNNAME":"安南區","LI":"佃東里","LIN":"17鄰","STREET":"公學路","SECT":"四段","MAREA":" ","LANE":"５４巷","ALLEY":" ","HOUSE_NO":"４２號","E_COORD97":165825.01999999999,"N_COORD97":2552175.0699999998,"ADDRESS":"公學路四段５４巷４２號","OBJECTID":297312},"geometry":{"x":165825.02000000048,"y":2552175.0700000022}},{"attributes":{"ID":297321,"DIS_CODE":0,"TOWNNAME":"善化區","LI":"光文里","LIN":"17鄰","STREET":"和平路","SECT":" ","MAREA":" ","LANE":"１４６巷","ALLEY":" ","HOUSE_NO":"２號","E_COORD97":178144.78,"N_COORD97":2558966.75,"ADDRESS":"和平路１４６巷２號","OBJECTID":297313},"geometry":{"x":178144.78000000026,"y":2558966.75}},{"attributes":{"ID":297322,"DIS_CODE":0,"TOWNNAME":"善化區","LI":"坐駕里","LIN":"17鄰","STREET":"中正路","SECT":" ","MAREA":" ","LANE":"６６巷","ALLEY":" ","HOUSE_NO":"１００號","E_COORD97":177918.57999999999,"N_COORD97":2557852.5,"ADDRESS":"中正路６６巷１００號","OBJECTID":297314},"geometry":{"x":177918.58000000101,"y":2557852.5}},{"attributes":{"ID":297323,"DIS_CODE":0,"TOWNNAME":"善化區","LI":"坐駕里","LIN":"17鄰","STREET":"文化路","SECT":" ","MAREA":" ","LANE":"８２巷","ALLEY":" ","HOUSE_NO":"２０號","E_COORD97":177968.70000000001,"N_COORD97":2558433.0299999998,"ADDRESS":"文化路８２巷２０號","OBJECTID":297315},"geometry":{"x":177968.70000000112,"y":2558433.0300000012}},{"attributes":{"ID":297324,"DIS_CODE":0,"TOWNNAME":"善化區","LI":"光文里","LIN":"17鄰","STREET":"和平路","SECT":" ","MAREA":" ","LANE":"１４６巷","ALLEY":" ","HOUSE_NO":"５號","E_COORD97":178155.23000000001,"N_COORD97":2558968.5,"ADDRESS":"和平路１４６巷５號","OBJECTID":297316},"geometry":{"x":178155.23000000138,"y":2558968.5}},{"attributes":{"ID":297325,"DIS_CODE":0,"TOWNNAME":"善化區","LI":"坐駕里","LIN":"17鄰","STREET":"中正路","SECT":" ","MAREA":" ","LANE":"６６巷","ALLEY":" ","HOUSE_NO":"１０４號","E_COORD97":178012.06,"N_COORD97":2557831.25,"ADDRESS":"中正路６６巷１０４號","OBJECTID":297317},"geometry":{"x":178012.05999999959,"y":2557831.25}},{"attributes":{"ID":297326,"DIS_CODE":0,"TOWNNAME":"安南區","LI":"海東里","LIN":"17鄰","STREET":"同安路","SECT":" ","MAREA":" ","LANE":"３８７巷","ALLEY":" ","HOUSE_NO":"５２號","E_COORD97":167228.16,"N_COORD97":2549372.04,"ADDRESS":"同安路３８７巷５２號","OBJECTID":297318},"geometry":{"x":167228.16000000108,"y":2549372.0399999991}},{"attributes":{"ID":297327,"DIS_CODE":0,"TOWNNAME":"安南區","LI":"海東里","LIN":"17鄰","STREET":"同安路","SECT":" ","MAREA":" ","LANE":"３８７巷","ALLEY":" ","HOUSE_NO":"５６號","E_COORD97":167226.29000000001,"N_COORD97":2549368.29,"ADDRESS":"同安路３８７巷５６號","OBJECTID":297319},"geometry":{"x":167226.29000000004,"y":2549368.290000001}},{"attributes":{"ID":297328,"DIS_CODE":0,"TOWNNAME":"南區","LI":"建南里","LIN":"14鄰","STREET":"中華南路","SECT":"二段","MAREA":" ","LANE":" ","ALLEY":" ","HOUSE_NO":"２２１號","E_COORD97":166907.04999999999,"N_COORD97":2540201.6099999999,"ADDRESS":"中華南路二段２２１號","OBJECTID":297320},"geometry":{"x":166907.04999999981,"y":2540201.6099999994}},{"attributes":{"ID":297329,"DIS_CODE":0,"TOWNNAME":"南區","LI":"建南里","LIN":"14鄰","STREET":"中華南路","SECT":"二段","MAREA":" ","LANE":" ","ALLEY":" ","HOUSE_NO":"２２３號","E_COORD97":166903.66,"N_COORD97":2540201.8599999999,"ADDRESS":"中華南路二段２２３號","OBJECTID":297321},"geometry":{"x":166903.66000000201,"y":2540201.8600000013}},{"attributes":{"ID":297330,"DIS_CODE":0,"TOWNNAME":"永康區","LI":"龍潭里","LIN":"42鄰","STREET":"永平街","SECT":" ","MAREA":" ","LANE":"７５９巷","ALLEY":" ","HOUSE_NO":"３６號四樓","E_COORD97":174594.97,"N_COORD97":2547067.0899999999,"ADDRESS":"永平街７５９巷３６號四樓","OBJECTID":297322},"geometry":{"x":174594.96999999974,"y":2547067.0899999999}},{"attributes":{"ID":297331,"DIS_CODE":0,"TOWNNAME":"永康區","LI":"龍潭里","LIN":"42鄰","STREET":"永平街","SECT":" ","MAREA":" ","LANE":"７５９巷","ALLEY":" ","HOUSE_NO":"２號三樓","E_COORD97":174615.09,"N_COORD97":2547055.21,"ADDRESS":"永平街７５９巷２號三樓","OBJECTID":297323},"geometry":{"x":174615.08999999985,"y":2547055.2100000028}},{"attributes":{"ID":297332,"DIS_CODE":0,"TOWNNAME":"安南區","LI":"海東里","LIN":"17鄰","STREET":"同安路","SECT":" ","MAREA":" ","LANE":"３８７巷","ALLEY":" ","HOUSE_NO":"５８號","E_COORD97":167223.66,"N_COORD97":2549364.4700000002,"ADDRESS":"同安路３８７巷５８號","OBJECTID":297324},"geometry":{"x":167223.66000000015,"y":2549364.4700000007}},{"attributes":{"ID":297333,"DIS_CODE":0,"TOWNNAME":"安南區","LI":"海東里","LIN":"17鄰","STREET":"同安路","SECT":" ","MAREA":" ","LANE":"３８７巷","ALLEY":" ","HOUSE_NO":"６２號","E_COORD97":167219.34,"N_COORD97":2549356.9300000002,"ADDRESS":"同安路３８７巷６２號","OBJECTID":297325},"geometry":{"x":167219.34000000078,"y":2549356.9299999997}},{"attributes":{"ID":297334,"DIS_CODE":0,"TOWNNAME":"安南區","LI":"海東里","LIN":"17鄰","STREET":"同安路","SECT":" ","MAREA":" ","LANE":"３８７巷","ALLEY":" ","HOUSE_NO":"６６號","E_COORD97":167216.70000000001,"N_COORD97":2549353.1299999999,"ADDRESS":"同安路３８７巷６６號","OBJECTID":297326},"geometry":{"x":167216.70000000019,"y":2549353.1300000008}},{"attributes":{"ID":297335,"DIS_CODE":0,"TOWNNAME":"安南區","LI":"海東里","LIN":"17鄰","STREET":"同安路","SECT":" ","MAREA":" ","LANE":"３８７巷","ALLEY":" ","HOUSE_NO":"６８號","E_COORD97":167213.70000000001,"N_COORD97":2549350.6099999999,"ADDRESS":"同安路３８７巷６８號","OBJECTID":297327},"geometry":{"x":167213.70000000205,"y":2549350.6100000013}},{"attributes":{"ID":297336,"DIS_CODE":0,"TOWNNAME":"安南區","LI":"海東里","LIN":"17鄰","STREET":"同安路","SECT":" ","MAREA":" ","LANE":"３８７巷","ALLEY":" ","HOUSE_NO":"７０號","E_COORD97":167211.59,"N_COORD97":2549346.3900000001,"ADDRESS":"同安路３８７巷７０號","OBJECTID":297328},"geometry":{"x":167211.58999999985,"y":2549346.3900000025}},{"attributes":{"ID":297337,"DIS_CODE":0,"TOWNNAME":"南區","LI":"金華里","LIN":"14鄰","STREET":"金華路","SECT":"二段","MAREA":" ","LANE":"５７巷","ALLEY":" ","HOUSE_NO":"７８號","E_COORD97":166801.32999999999,"N_COORD97":2542142.3399999999,"ADDRESS":"金華路二段５７巷７８號","OBJECTID":297329},"geometry":{"x":166801.33000000101,"y":2542142.3399999999}},{"attributes":{"ID":297338,"DIS_CODE":0,"TOWNNAME":"南區","LI":"金華里","LIN":"14鄰","STREET":"金華路","SECT":"二段","MAREA":" ","LANE":"５７巷","ALLEY":" ","HOUSE_NO":"８０號","E_COORD97":166792.32999999999,"N_COORD97":2542141.8999999999,"ADDRESS":"金華路二段５７巷８０號","OBJECTID":297330},"geometry":{"x":166792.33000000194,"y":2542141.9000000022}},{"attributes":{"ID":297339,"DIS_CODE":0,"TOWNNAME":"麻豆區","LI":"港尾里","LIN":"15鄰","STREET":" ","SECT":" ","MAREA":"客子寮","LANE":" ","ALLEY":" ","HOUSE_NO":"６５號六樓之１","E_COORD97":170284.85000000001,"N_COORD97":2568982.8999999999,"ADDRESS":"客子寮６５號六樓之１","OBJECTID":297331},"geometry":{"x":170284.84999999963,"y":2568982.9000000022}},{"attributes":{"ID":297340,"DIS_CODE":0,"TOWNNAME":"麻豆區","LI":"港尾里","LIN":"15鄰","STREET":" ","SECT":" ","MAREA":"客子寮","LANE":" ","ALLEY":" ","HOUSE_NO":"３８號七樓之１","E_COORD97":170396.04999999999,"N_COORD97":2568953.8300000001,"ADDRESS":"客子寮３８號七樓之１","OBJECTID":297332},"geometry":{"x":170396.04999999888,"y":2568953.8300000001}},{"attributes":{"ID":297341,"DIS_CODE":0,"TOWNNAME":"南區","LI":"金華里","LIN":"14鄰","STREET":"金華路","SECT":"二段","MAREA":" ","LANE":"５７巷","ALLEY":" ","HOUSE_NO":"８２號","E_COORD97":166781.45999999999,"N_COORD97":2542142.4500000002,"ADDRESS":"金華路二段５７巷８２號","OBJECTID":297333},"geometry":{"x":166781.46000000089,"y":2542142.4500000011}},{"attributes":{"ID":297342,"DIS_CODE":0,"TOWNNAME":"南區","LI":"金華里","LIN":"14鄰","STREET":"金華路","SECT":"二段","MAREA":" ","LANE":"５７巷","ALLEY":" ","HOUSE_NO":"８３號","E_COORD97":166806.60999999999,"N_COORD97":2542119.0600000001,"ADDRESS":"金華路二段５７巷８３號","OBJECTID":297334},"geometry":{"x":166806.61000000127,"y":2542119.0600000042}},{"attributes":{"ID":297343,"DIS_CODE":0,"TOWNNAME":"南區","LI":"金華里","LIN":"14鄰","STREET":"金華路","SECT":"二段","MAREA":" ","LANE":"５７巷","ALLEY":" ","HOUSE_NO":"８５號","E_COORD97":166793.54000000001,"N_COORD97":2542119.6499999999,"ADDRESS":"金華路二段５７巷８５號","OBJECTID":297335},"geometry":{"x":166793.54000000004,"y":2542119.6500000022}},{"attributes":{"ID":297344,"DIS_CODE":0,"TOWNNAME":"南區","LI":"金華里","LIN":"14鄰","STREET":"金華路","SECT":"二段","MAREA":" ","LANE":"５７巷","ALLEY":" ","HOUSE_NO":"８７號","E_COORD97":166782.01000000001,"N_COORD97":2542120.5299999998,"ADDRESS":"金華路二段５７巷８７號","OBJECTID":297336},"geometry":{"x":166782.00999999978,"y":2542120.5299999993}},{"attributes":{"ID":297345,"DIS_CODE":0,"TOWNNAME":"南區","LI":"金華里","LIN":"14鄰","STREET":"金華路","SECT":"二段","MAREA":" ","LANE":"６３巷","ALLEY":" ","HOUSE_NO":"７１號","E_COORD97":166785.42000000001,"N_COORD97":2542153.96,"ADDRESS":"金華路二段６３巷７１號","OBJECTID":297337},"geometry":{"x":166785.42000000086,"y":2542153.9600000046}},{"attributes":{"ID":297346,"DIS_CODE":0,"TOWNNAME":"南區","LI":"金華里","LIN":"25鄰","STREET":"惠南街","SECT":" ","MAREA":" ","LANE":"１０９巷","ALLEY":" ","HOUSE_NO":"２０號","E_COORD97":166663.64999999999,"N_COORD97":2542352.7799999998,"ADDRESS":"惠南街１０９巷２０號","OBJECTID":297338},"geometry":{"x":166663.6500000013,"y":2542352.7799999993}},{"attributes":{"ID":297347,"DIS_CODE":0,"TOWNNAME":"南區","LI":"金華里","LIN":"25鄰","STREET":"惠南街","SECT":" ","MAREA":" ","LANE":"１０９巷","ALLEY":" ","HOUSE_NO":"２號","E_COORD97":166708.57999999999,"N_COORD97":2542357.2200000002,"ADDRESS":"惠南街１０９巷２號","OBJECTID":297339},"geometry":{"x":166708.58000000007,"y":2542357.2200000007}},{"attributes":{"ID":297348,"DIS_CODE":0,"TOWNNAME":"南區","LI":"金華里","LIN":"24鄰","STREET":"惠南街","SECT":" ","MAREA":" ","LANE":"１０９巷","ALLEY":" ","HOUSE_NO":"３號","E_COORD97":166710.75,"N_COORD97":2542332.5099999998,"ADDRESS":"惠南街１０９巷３號","OBJECTID":297340},"geometry":{"x":166710.75,"y":2542332.5100000016}},{"attributes":{"ID":297349,"DIS_CODE":0,"TOWNNAME":"仁德區","LI":"上崙里","LIN":"17鄰","STREET":"德崙路","SECT":" ","MAREA":" ","LANE":"３７０巷","ALLEY":" ","HOUSE_NO":"２０號","E_COORD97":173988.95999999999,"N_COORD97":2538015.02,"ADDRESS":"德崙路３７０巷２０號","OBJECTID":297341},"geometry":{"x":173988.95999999903,"y":2538015.0199999996}},{"attributes":{"ID":297350,"DIS_CODE":0,"TOWNNAME":"南區","LI":"建南里","LIN":"14鄰","STREET":"中華南路","SECT":"二段","MAREA":" ","LANE":" ","ALLEY":" ","HOUSE_NO":"２２５號","E_COORD97":166899,"N_COORD97":2540201.9900000002,"ADDRESS":"中華南路二段２２５號","OBJECTID":297342},"geometry":{"x":166899,"y":2540201.9900000002}},{"attributes":{"ID":297351,"DIS_CODE":0,"TOWNNAME":"南區","LI":"建南里","LIN":"14鄰","STREET":"中華南路","SECT":"二段","MAREA":" ","LANE":" ","ALLEY":" ","HOUSE_NO":"２２７號","E_COORD97":166894.34,"N_COORD97":2540202.3700000001,"ADDRESS":"中華南路二段２２７號","OBJECTID":297343},"geometry":{"x":166894.34000000078,"y":2540202.3700000029}},{"attributes":{"ID":297352,"DIS_CODE":0,"TOWNNAME":"永康區","LI":"龍潭里","LIN":"37鄰","STREET":"中山北路","SECT":" ","MAREA":" ","LANE":"１６４巷","ALLEY":" ","HOUSE_NO":"１１４號三樓","E_COORD97":174534.29999999999,"N_COORD97":2547394.6099999999,"ADDRESS":"中山北路１６４巷１１４號三樓","OBJECTID":297344},"geometry":{"x":174534.30000000075,"y":2547394.6099999994}},{"attributes":{"ID":297353,"DIS_CODE":0,"TOWNNAME":"仁德區","LI":"太子里","LIN":"4鄰","STREET":"太子路","SECT":" ","MAREA":" ","LANE":"１９０巷","ALLEY":" ","HOUSE_NO":"２６號五樓","E_COORD97":174347.76999999999,"N_COORD97":2543657.2599999998,"ADDRESS":"太子路１９０巷２６號五樓","OBJECTID":297345},"geometry":{"x":174347.77000000048,"y":2543657.2600000016}},{"attributes":{"ID":297354,"DIS_CODE":0,"TOWNNAME":"仁德區","LI":"太子里","LIN":"4鄰","STREET":"太子路","SECT":" ","MAREA":" ","LANE":"１９０巷","ALLEY":" ","HOUSE_NO":"２６號二樓","E_COORD97":174347.76999999999,"N_COORD97":2543657.2599999998,"ADDRESS":"太子路１９０巷２６號二樓","OBJECTID":297346},"geometry":{"x":174347.77000000048,"y":2543657.2600000016}},{"attributes":{"ID":297355,"DIS_CODE":0,"TOWNNAME":"仁德區","LI":"太子里","LIN":"4鄰","STREET":"太子路","SECT":" ","MAREA":" ","LANE":"１９０巷","ALLEY":" ","HOUSE_NO":"２０號二樓","E_COORD97":174327.28,"N_COORD97":2543654.0099999998,"ADDRESS":"太子路１９０巷２０號二樓","OBJECTID":297347},"geometry":{"x":174327.28000000026,"y":2543654.0099999998}},{"attributes":{"ID":297356,"DIS_CODE":0,"TOWNNAME":"仁德區","LI":"太子里","LIN":"4鄰","STREET":"太子路","SECT":" ","MAREA":" ","LANE":"１９０巷","ALLEY":" ","HOUSE_NO":"２６號四樓","E_COORD97":174347.76999999999,"N_COORD97":2543657.2599999998,"ADDRESS":"太子路１９０巷２６號四樓","OBJECTID":297348},"geometry":{"x":174347.77000000048,"y":2543657.2600000016}},{"attributes":{"ID":297357,"DIS_CODE":0,"TOWNNAME":"仁德區","LI":"太子里","LIN":"4鄰","STREET":"太子路","SECT":" ","MAREA":" ","LANE":"１９０巷","ALLEY":" ","HOUSE_NO":"２８號二樓","E_COORD97":174347.28,"N_COORD97":2543665.5,"ADDRESS":"太子路１９０巷２８號二樓","OBJECTID":297349},"geometry":{"x":174347.28000000119,"y":2543665.5000000019}},{"attributes":{"ID":297358,"DIS_CODE":0,"TOWNNAME":"仁德區","LI":"太子里","LIN":"4鄰","STREET":"太子路","SECT":" ","MAREA":" ","LANE":"１９０巷","ALLEY":" ","HOUSE_NO":"１８號二樓","E_COORD97":174327.85000000001,"N_COORD97":2543647.0099999998,"ADDRESS":"太子路１９０巷１８號二樓","OBJECTID":297350},"geometry":{"x":174327.84999999963,"y":2543647.0099999998}},{"attributes":{"ID":297359,"DIS_CODE":0,"TOWNNAME":"仁德區","LI":"上崙里","LIN":"17鄰","STREET":"德崙路","SECT":" ","MAREA":" ","LANE":"３７０巷","ALLEY":" ","HOUSE_NO":"６號","E_COORD97":173995.20999999999,"N_COORD97":2538085.7599999998,"ADDRESS":"德崙路３７０巷６號","OBJECTID":297351},"geometry":{"x":173995.20999999996,"y":2538085.7600000035}},{"attributes":{"ID":297360,"DIS_CODE":0,"TOWNNAME":"仁德區","LI":"上崙里","LIN":"17鄰","STREET":"德崙路","SECT":" ","MAREA":" ","LANE":"３７０巷","ALLEY":" ","HOUSE_NO":"２８號","E_COORD97":173971.98999999999,"N_COORD97":2537989.2599999998,"ADDRESS":"德崙路３７０巷２８號","OBJECTID":297352},"geometry":{"x":173971.99000000022,"y":2537989.2599999998}},{"attributes":{"ID":297361,"DIS_CODE":0,"TOWNNAME":"仁德區","LI":"上崙里","LIN":"17鄰","STREET":"德崙路","SECT":" ","MAREA":" ","LANE":"３７０巷","ALLEY":" ","HOUSE_NO":"２６號","E_COORD97":173990.20999999999,"N_COORD97":2537993.2599999998,"ADDRESS":"德崙路３７０巷２６號","OBJECTID":297353},"geometry":{"x":173990.20999999996,"y":2537993.2599999998}},{"attributes":{"ID":297362,"DIS_CODE":0,"TOWNNAME":"仁德區","LI":"上崙里","LIN":"17鄰","STREET":"德崙路","SECT":" ","MAREA":" ","LANE":"３７０巷","ALLEY":" ","HOUSE_NO":"２號","E_COORD97":173995.12,"N_COORD97":2538096.0099999998,"ADDRESS":"德崙路３７０巷２號","OBJECTID":297354},"geometry":{"x":173995.12000000104,"y":2538096.0099999998}},{"attributes":{"ID":297363,"DIS_CODE":0,"TOWNNAME":"仁德區","LI":"上崙里","LIN":"17鄰","STREET":"德崙路","SECT":" ","MAREA":" ","LANE":"３７０巷","ALLEY":" ","HOUSE_NO":"８號","E_COORD97":173994.45999999999,"N_COORD97":2538081.2599999998,"ADDRESS":"德崙路３７０巷８號","OBJECTID":297355},"geometry":{"x":173994.46000000089,"y":2538081.2599999998}},{"attributes":{"ID":297364,"DIS_CODE":0,"TOWNNAME":"南區","LI":"金華里","LIN":"24鄰","STREET":"聖南街","SECT":" ","MAREA":" ","LANE":"１４０巷","ALLEY":" ","HOUSE_NO":"３號","E_COORD97":166728.57999999999,"N_COORD97":2542259.3100000001,"ADDRESS":"聖南街１４０巷３號","OBJECTID":297356},"geometry":{"x":166728.58000000101,"y":2542259.3100000005}},{"attributes":{"ID":297365,"DIS_CODE":0,"TOWNNAME":"南區","LI":"金華里","LIN":"24鄰","STREET":"聖南街","SECT":" ","MAREA":" ","LANE":"１４０巷","ALLEY":" ","HOUSE_NO":"５號","E_COORD97":166728.89999999999,"N_COORD97":2542267.1099999999,"ADDRESS":"聖南街１４０巷５號","OBJECTID":297357},"geometry":{"x":166728.90000000037,"y":2542267.1100000013}},{"attributes":{"ID":297366,"DIS_CODE":0,"TOWNNAME":"南區","LI":"金華里","LIN":"24鄰","STREET":"聖南街","SECT":" ","MAREA":" ","LANE":"１４０巷","ALLEY":" ","HOUSE_NO":"６號","E_COORD97":166727.17999999999,"N_COORD97":2542274.6000000001,"ADDRESS":"聖南街１４０巷６號","OBJECTID":297358},"geometry":{"x":166727.18000000063,"y":2542274.6000000015}},{"attributes":{"ID":297367,"DIS_CODE":0,"TOWNNAME":"南區","LI":"金華里","LIN":"24鄰","STREET":"聖南街","SECT":" ","MAREA":" ","LANE":"１４０巷","ALLEY":" ","HOUSE_NO":"７號","E_COORD97":166723.73999999999,"N_COORD97":2542280.8399999999,"ADDRESS":"聖南街１４０巷７號","OBJECTID":297359},"geometry":{"x":166723.74000000115,"y":2542280.8399999999}},{"attributes":{"ID":297368,"DIS_CODE":0,"TOWNNAME":"南區","LI":"金華里","LIN":"24鄰","STREET":"聖南街","SECT":" ","MAREA":" ","LANE":"１４０巷","ALLEY":" ","HOUSE_NO":"８號","E_COORD97":166712.64999999999,"N_COORD97":2542299.1299999999,"ADDRESS":"聖南街１４０巷８號","OBJECTID":297360},"geometry":{"x":166712.6500000013,"y":2542299.129999999}},{"attributes":{"ID":297369,"DIS_CODE":0,"TOWNNAME":"仁德區","LI":"上崙里","LIN":"17鄰","STREET":"德崙路","SECT":" ","MAREA":" ","LANE":"３７０巷","ALLEY":" ","HOUSE_NO":"２２號","E_COORD97":173970.10000000001,"N_COORD97":2538006.5099999998,"ADDRESS":"德崙路３７０巷２２號","OBJECTID":297361},"geometry":{"x":173970.09999999963,"y":2538006.5100000016}},{"attributes":{"ID":297370,"DIS_CODE":0,"TOWNNAME":"仁德區","LI":"仁義里","LIN":"17鄰","STREET":"正義路","SECT":" ","MAREA":" ","LANE":"２０５巷","ALLEY":" ","HOUSE_NO":"５１號","E_COORD97":174118.79000000001,"N_COORD97":2541452.77,"ADDRESS":"正義路２０５巷５１號","OBJECTID":297362},"geometry":{"x":174118.79000000004,"y":2541452.7700000014}},{"attributes":{"ID":297371,"DIS_CODE":0,"TOWNNAME":"南區","LI":"建南里","LIN":"14鄰","STREET":"中華南路","SECT":"二段","MAREA":" ","LANE":" ","ALLEY":" ","HOUSE_NO":"２２９號","E_COORD97":166887.04999999999,"N_COORD97":2540201.8599999999,"ADDRESS":"中華南路二段２２９號","OBJECTID":297363},"geometry":{"x":166887.04999999888,"y":2540201.8600000013}},{"attributes":{"ID":297372,"DIS_CODE":0,"TOWNNAME":"東區","LI":"大德里","LIN":"14鄰","STREET":"立德十路","SECT":" ","MAREA":" ","LANE":" ","ALLEY":" ","HOUSE_NO":"６５號","E_COORD97":169558.42999999999,"N_COORD97":2542076.5,"ADDRESS":"立德十路６５號","OBJECTID":297364},"geometry":{"x":169558.43000000063,"y":2542076.5}},{"attributes":{"ID":297373,"DIS_CODE":0,"TOWNNAME":"東區","LI":"大德里","LIN":"14鄰","STREET":"立德十路","SECT":" ","MAREA":" ","LANE":" ","ALLEY":" ","HOUSE_NO":"６３號","E_COORD97":169554.60000000001,"N_COORD97":2542077.6200000001,"ADDRESS":"立德十路６３號","OBJECTID":297365},"geometry":{"x":169554.59999999963,"y":2542077.620000001}},{"attributes":{"ID":297374,"DIS_CODE":0,"TOWNNAME":"東區","LI":"大德里","LIN":"14鄰","STREET":"立德十路","SECT":" ","MAREA":" ","LANE":" ","ALLEY":" ","HOUSE_NO":"５３號","E_COORD97":169536.10000000001,"N_COORD97":2542068.9900000002,"ADDRESS":"立德十路５３號","OBJECTID":297366},"geometry":{"x":169536.0999999987,"y":2542068.9900000021}},{"attributes":{"ID":297375,"DIS_CODE":0,"TOWNNAME":"東區","LI":"大德里","LIN":"14鄰","STREET":"立德十路","SECT":" ","MAREA":" ","LANE":" ","ALLEY":" ","HOUSE_NO":"４１號","E_COORD97":169512.45000000001,"N_COORD97":2542063.2799999998,"ADDRESS":"立德十路４１號","OBJECTID":297367},"geometry":{"x":169512.45000000205,"y":2542063.2800000012}},{"attributes":{"ID":297376,"DIS_CODE":0,"TOWNNAME":"東區","LI":"大德里","LIN":"14鄰","STREET":"立德十路","SECT":" ","MAREA":" ","LANE":" ","ALLEY":" ","HOUSE_NO":"３５號","E_COORD97":169499.45000000001,"N_COORD97":2542062.9100000001,"ADDRESS":"立德十路３５號","OBJECTID":297368},"geometry":{"x":169499.45000000112,"y":2542062.910000002}},{"attributes":{"ID":297377,"DIS_CODE":0,"TOWNNAME":"東區","LI":"大德里","LIN":"14鄰","STREET":"立德十路","SECT":" ","MAREA":" ","LANE":" ","ALLEY":" ","HOUSE_NO":"３３號","E_COORD97":169496.22,"N_COORD97":2542061.8500000001,"ADDRESS":"立德十路３３號","OBJECTID":297369},"geometry":{"x":169496.21999999974,"y":2542061.8500000034}},{"attributes":{"ID":297378,"DIS_CODE":0,"TOWNNAME":"仁德區","LI":"一甲里","LIN":"17鄰","STREET":"忠義路","SECT":" ","MAREA":" ","LANE":"２５１巷","ALLEY":" ","HOUSE_NO":"６１號","E_COORD97":173831.17999999999,"N_COORD97":2541680.27,"ADDRESS":"忠義路２５１巷６１號","OBJECTID":297370},"geometry":{"x":173831.1799999997,"y":2541680.2700000014}},{"attributes":{"ID":297379,"DIS_CODE":0,"TOWNNAME":"仁德區","LI":"土庫里","LIN":"17鄰","STREET":"土庫一街","SECT":" ","MAREA":" ","LANE":"２２巷","ALLEY":" ","HOUSE_NO":"１１號","E_COORD97":174471.25,"N_COORD97":2543049.9900000002,"ADDRESS":"土庫一街２２巷１１號","OBJECTID":297371},"geometry":{"x":174471.25,"y":2543049.9900000002}},{"attributes":{"ID":297380,"DIS_CODE":0,"TOWNNAME":"仁德區","LI":"一甲里","LIN":"17鄰","STREET":"忠義路","SECT":" ","MAREA":" ","LANE":"２５１巷","ALLEY":" ","HOUSE_NO":"７５號","E_COORD97":173828.62,"N_COORD97":2541650.77,"ADDRESS":"忠義路２５１巷７５號","OBJECTID":297372},"geometry":{"x":173828.62000000011,"y":2541650.7699999996}},{"attributes":{"ID":297381,"DIS_CODE":0,"TOWNNAME":"中西區","LI":"福安里","LIN":"17鄰","STREET":"永福路","SECT":"二段","MAREA":" ","LANE":"６３巷","ALLEY":" ","HOUSE_NO":"１號","E_COORD97":168026.63,"N_COORD97":2543601.9700000002,"ADDRESS":"永福路二段６３巷１號","OBJECTID":297373},"geometry":{"x":168026.63000000082,"y":2543601.9700000025}},{"attributes":{"ID":297382,"DIS_CODE":0,"TOWNNAME":"中西區","LI":"福安里","LIN":"17鄰","STREET":"永福路","SECT":"二段","MAREA":" ","LANE":"６３巷","ALLEY":" ","HOUSE_NO":"３號","E_COORD97":168023.67999999999,"N_COORD97":2543595.2999999998,"ADDRESS":"永福路二段６３巷３號","OBJECTID":297374},"geometry":{"x":168023.68000000156,"y":2543595.3000000007}},{"attributes":{"ID":297383,"DIS_CODE":0,"TOWNNAME":"南區","LI":"同安里","LIN":"8鄰","STREET":"灣裡路","SECT":" ","MAREA":" ","LANE":"３５１巷","ALLEY":" ","HOUSE_NO":"９號","E_COORD97":166212.5,"N_COORD97":2536191.3300000001,"ADDRESS":"灣裡路３５１巷９號","OBJECTID":297375},"geometry":{"x":166212.5,"y":2536191.3300000019}},{"attributes":{"ID":297384,"DIS_CODE":0,"TOWNNAME":"中西區","LI":"福安里","LIN":"17鄰","STREET":"永福路","SECT":"二段","MAREA":" ","LANE":"６３巷","ALLEY":" ","HOUSE_NO":"３號之１","E_COORD97":168019.01999999999,"N_COORD97":2543576.9199999999,"ADDRESS":"永福路二段６３巷３號之１","OBJECTID":297376},"geometry":{"x":168019.01999999955,"y":2543576.9199999981}},{"attributes":{"ID":297385,"DIS_CODE":0,"TOWNNAME":"中西區","LI":"福安里","LIN":"17鄰","STREET":"永福路","SECT":"二段","MAREA":" ","LANE":"６３巷","ALLEY":" ","HOUSE_NO":"３號之２","E_COORD97":168018.48999999999,"N_COORD97":2543572.6699999999,"ADDRESS":"永福路二段６３巷３號之２","OBJECTID":297377},"geometry":{"x":168018.49000000022,"y":2543572.6700000018}},{"attributes":{"ID":297386,"DIS_CODE":0,"TOWNNAME":"中西區","LI":"福安里","LIN":"17鄰","STREET":"永福路","SECT":"二段","MAREA":" ","LANE":"６３巷","ALLEY":" ","HOUSE_NO":"３號之４","E_COORD97":168017.79999999999,"N_COORD97":2543565.2200000002,"ADDRESS":"永福路二段６３巷３號之４","OBJECTID":297378},"geometry":{"x":168017.80000000168,"y":2543565.2200000007}},{"attributes":{"ID":297387,"DIS_CODE":0,"TOWNNAME":"東區","LI":"大德里","LIN":"17鄰","STREET":"立德十一路","SECT":" ","MAREA":" ","LANE":"８１巷","ALLEY":" ","HOUSE_NO":"６號","E_COORD97":169562.92000000001,"N_COORD97":2542133.9300000002,"ADDRESS":"立德十一路８１巷６號","OBJECTID":297379},"geometry":{"x":169562.91999999993,"y":2542133.9300000016}},{"attributes":{"ID":297388,"DIS_CODE":0,"TOWNNAME":"東區","LI":"衛國里","LIN":"17鄰","STREET":"衛國街","SECT":" ","MAREA":" ","LANE":"１１４巷","ALLEY":" ","HOUSE_NO":"３１號","E_COORD97":170565.09,"N_COORD97":2543170.9199999999,"ADDRESS":"衛國街１１４巷３１號","OBJECTID":297380},"geometry":{"x":170565.08999999985,"y":2543170.9200000018}},{"attributes":{"ID":297389,"DIS_CODE":0,"TOWNNAME":"東區","LI":"衛國里","LIN":"17鄰","STREET":"衛國街","SECT":" ","MAREA":" ","LANE":"１１４巷","ALLEY":" ","HOUSE_NO":"３３號","E_COORD97":170567.76999999999,"N_COORD97":2543180.5,"ADDRESS":"衛國街１１４巷３３號","OBJECTID":297381},"geometry":{"x":170567.77000000048,"y":2543180.5000000019}},{"attributes":{"ID":297390,"DIS_CODE":0,"TOWNNAME":"東區","LI":"衛國里","LIN":"17鄰","STREET":"衛國街","SECT":" ","MAREA":" ","LANE":"１１４巷","ALLEY":" ","HOUSE_NO":"３５號","E_COORD97":170575.25,"N_COORD97":2543181.46,"ADDRESS":"衛國街１１４巷３５號","OBJECTID":297382},"geometry":{"x":170575.25000000093,"y":2543181.4600000046}},{"attributes":{"ID":297391,"DIS_CODE":0,"TOWNNAME":"東區","LI":"衛國里","LIN":"17鄰","STREET":"衛國街","SECT":" ","MAREA":" ","LANE":"１１４巷","ALLEY":" ","HOUSE_NO":"３７號","E_COORD97":170580.82000000001,"N_COORD97":2543173.0299999998,"ADDRESS":"衛國街１１４巷３７號","OBJECTID":297383},"geometry":{"x":170580.8200000003,"y":2543173.0300000012}},{"attributes":{"ID":297392,"DIS_CODE":0,"TOWNNAME":"東區","LI":"中西里","LIN":"17鄰","STREET":"長榮路","SECT":"二段","MAREA":" ","LANE":"１７０巷","ALLEY":" ","HOUSE_NO":"２９號","E_COORD97":170112.39000000001,"N_COORD97":2543294.25,"ADDRESS":"長榮路二段１７０巷２９號","OBJECTID":297384},"geometry":{"x":170112.39000000153,"y":2543294.2500000019}},{"attributes":{"ID":297393,"DIS_CODE":0,"TOWNNAME":"東區","LI":"中西里","LIN":"17鄰","STREET":"長榮路","SECT":"二段","MAREA":" ","LANE":"１７０巷","ALLEY":" ","HOUSE_NO":"３１號","E_COORD97":170114.57000000001,"N_COORD97":2543290.6099999999,"ADDRESS":"長榮路二段１７０巷３１號","OBJECTID":297385},"geometry":{"x":170114.5700000003,"y":2543290.6100000031}},{"attributes":{"ID":297394,"DIS_CODE":0,"TOWNNAME":"東區","LI":"圍下里","LIN":"19鄰","STREET":"慶東街","SECT":" ","MAREA":" ","LANE":"１２７巷","ALLEY":" ","HOUSE_NO":"１８號五樓","E_COORD97":169597.41,"N_COORD97":2543410.0600000001,"ADDRESS":"慶東街１２７巷１８號五樓","OBJECTID":297386},"geometry":{"x":169597.41000000201,"y":2543410.0600000005}},{"attributes":{"ID":297395,"DIS_CODE":0,"TOWNNAME":"東區","LI":"中西里","LIN":"17鄰","STREET":"長榮路","SECT":"二段","MAREA":" ","LANE":"１７０巷","ALLEY":" ","HOUSE_NO":"３３號","E_COORD97":170116.26999999999,"N_COORD97":2543285.4300000002,"ADDRESS":"長榮路二段１７０巷３３號","OBJECTID":297387},"geometry":{"x":170116.26999999862,"y":2543285.4300000034}},{"attributes":{"ID":297396,"DIS_CODE":0,"TOWNNAME":"東區","LI":"中西里","LIN":"17鄰","STREET":"長榮路","SECT":"二段","MAREA":" ","LANE":"１７０巷","ALLEY":" ","HOUSE_NO":"９號","E_COORD97":170091.16,"N_COORD97":2543335.3300000001,"ADDRESS":"長榮路二段１７０巷９號","OBJECTID":297388},"geometry":{"x":170091.16000000108,"y":2543335.3300000019}},{"attributes":{"ID":297397,"DIS_CODE":0,"TOWNNAME":"南區","LI":"金華里","LIN":"26鄰","STREET":"惠南街","SECT":" ","MAREA":" ","LANE":"１４７巷","ALLEY":" ","HOUSE_NO":"１９號","E_COORD97":166634.95999999999,"N_COORD97":2542447.75,"ADDRESS":"惠南街１４７巷１９號","OBJECTID":297389},"geometry":{"x":166634.95999999996,"y":2542447.75}},{"attributes":{"ID":297398,"DIS_CODE":0,"TOWNNAME":"南區","LI":"金華里","LIN":"26鄰","STREET":"惠南街","SECT":" ","MAREA":" ","LANE":"１４７巷","ALLEY":" ","HOUSE_NO":"１號","E_COORD97":166686.85000000001,"N_COORD97":2542454.29,"ADDRESS":"惠南街１４７巷１號","OBJECTID":297390},"geometry":{"x":166686.85000000056,"y":2542454.2899999991}},{"attributes":{"ID":297399,"DIS_CODE":0,"TOWNNAME":"中西區","LI":"五妃里","LIN":"17鄰","STREET":"南門路","SECT":" ","MAREA":" ","LANE":"１８７巷","ALLEY":" ","HOUSE_NO":"２６號之２","E_COORD97":168545.79999999999,"N_COORD97":2542852.1800000002,"ADDRESS":"南門路１８７巷２６號之２","OBJECTID":297391},"geometry":{"x":168545.80000000075,"y":2542852.1799999997}},{"attributes":{"ID":297400,"DIS_CODE":0,"TOWNNAME":"中西區","LI":"五妃里","LIN":"17鄰","STREET":"南門路","SECT":" ","MAREA":" ","LANE":"１８７巷","ALLEY":" ","HOUSE_NO":"２８號","E_COORD97":168561.01000000001,"N_COORD97":2542863.8599999999,"ADDRESS":"南門路１８７巷２８號","OBJECTID":297392},"geometry":{"x":168561.01000000071,"y":2542863.8599999994}},{"attributes":{"ID":297401,"DIS_CODE":0,"TOWNNAME":"中西區","LI":"五妃里","LIN":"17鄰","STREET":"南門路","SECT":" ","MAREA":" ","LANE":"１８７巷","ALLEY":" ","HOUSE_NO":"２號","E_COORD97":168446.09,"N_COORD97":2542880.5099999998,"ADDRESS":"南門路１８７巷２號","OBJECTID":297393},"geometry":{"x":168446.08999999985,"y":2542880.5099999998}},{"attributes":{"ID":297402,"DIS_CODE":0,"TOWNNAME":"中西區","LI":"五妃里","LIN":"17鄰","STREET":"南門路","SECT":" ","MAREA":" ","LANE":"１８７巷","ALLEY":" ","HOUSE_NO":"４號","E_COORD97":168457.39000000001,"N_COORD97":2542880.6299999999,"ADDRESS":"南門路１８７巷４號","OBJECTID":297394},"geometry":{"x":168457.38999999966,"y":2542880.6300000008}},{"attributes":{"ID":297403,"DIS_CODE":0,"TOWNNAME":"中西區","LI":"五妃里","LIN":"17鄰","STREET":"南門路","SECT":" ","MAREA":" ","LANE":"１８７巷","ALLEY":" ","HOUSE_NO":"６號","E_COORD97":168465.94,"N_COORD97":2542879.6099999999,"ADDRESS":"南門路１８７巷６號","OBJECTID":297395},"geometry":{"x":168465.94000000041,"y":2542879.6099999994}},{"attributes":{"ID":297404,"DIS_CODE":0,"TOWNNAME":"中西區","LI":"五妃里","LIN":"17鄰","STREET":"南門路","SECT":" ","MAREA":" ","LANE":"１８７巷","ALLEY":" ","HOUSE_NO":"８號","E_COORD97":168476.41,"N_COORD97":2542878.3399999999,"ADDRESS":"南門路１８７巷８號","OBJECTID":297396},"geometry":{"x":168476.41000000015,"y":2542878.3399999999}},{"attributes":{"ID":297405,"DIS_CODE":0,"TOWNNAME":"中西區","LI":"仙草里","LIN":"17鄰","STREET":"五妃街","SECT":" ","MAREA":" ","LANE":"３０９巷","ALLEY":" ","HOUSE_NO":"９號","E_COORD97":167941.39999999999,"N_COORD97":2542551.6699999999,"ADDRESS":"五妃街３０９巷９號","OBJECTID":297397},"geometry":{"x":167941.40000000224,"y":2542551.6700000037}},{"attributes":{"ID":297406,"DIS_CODE":0,"TOWNNAME":"安南區","LI":"淵中里","LIN":"17鄰","STREET":"安中路","SECT":"三段","MAREA":" ","LANE":"２３３巷","ALLEY":" ","HOUSE_NO":"１２號","E_COORD97":165779.75,"N_COORD97":2549826.1000000001,"ADDRESS":"安中路三段２３３巷１２號","OBJECTID":297398},"geometry":{"x":165779.75000000093,"y":2549826.0999999996}},{"attributes":{"ID":297407,"DIS_CODE":0,"TOWNNAME":"安南區","LI":"淵中里","LIN":"17鄰","STREET":"安中路","SECT":"三段","MAREA":" ","LANE":"２３３巷","ALLEY":" ","HOUSE_NO":"１３號","E_COORD97":165799.38,"N_COORD97":2549817.7000000002,"ADDRESS":"安中路三段２３３巷１３號","OBJECTID":297399},"geometry":{"x":165799.37999999989,"y":2549817.7000000011}},{"attributes":{"ID":297408,"DIS_CODE":0,"TOWNNAME":"安南區","LI":"淵中里","LIN":"17鄰","STREET":"安中路","SECT":"三段","MAREA":" ","LANE":"２３３巷","ALLEY":" ","HOUSE_NO":"１４號","E_COORD97":165779.95000000001,"N_COORD97":2549822.6699999999,"ADDRESS":"安中路三段２３３巷１４號","OBJECTID":297400},"geometry":{"x":165779.95000000112,"y":2549822.6699999999}}]}