{"displayFieldName":"TOWNNAME","fieldAliases":{"ID":"ID","DIS_CODE":"DIS_CODE","TOWNNAME":"TOWNNAME","LI":"LI","LIN":"LIN","STREET":"STREET","SECT":"SECT","MAREA":"MAREA","LANE":"LANE","ALLEY":"ALLEY","HOUSE_NO":"HOUSE_NO","E_COORD97":"E_COORD97","N_COORD97":"N_COORD97","ADDRESS":"ADDRESS","OBJECTID":"OBJECTID"},"geometryType":"esriGeometryPoint","spatialReference":{"wkid":102443,"latestWkid":3826},"fields":[{"name":"ID","type":"esriFieldTypeDouble","alias":"ID"},{"name":"DIS_CODE","type":"esriFieldTypeInteger","alias":"DIS_CODE"},{"name":"TOWNNAME","type":"esriFieldTypeString","alias":"TOWNNAME","length":8},{"name":"LI","type":"esriFieldTypeString","alias":"LI","length":8},{"name":"LIN","type":"esriFieldTypeString","alias":"LIN","length":12},{"name":"STREET","type":"esriFieldTypeString","alias":"STREET","length":20},{"name":"SECT","type":"esriFieldTypeString","alias":"SECT","length":8},{"name":"MAREA","type":"esriFieldTypeString","alias":"MAREA","length":12},{"name":"LANE","type":"esriFieldTypeString","alias":"LANE","length":10},{"name":"ALLEY","type":"esriFieldTypeString","alias":"ALLEY","length":10},{"name":"HOUSE_NO","type":"esriFieldTypeString","alias":"HOUSE_NO","length":20},{"name":"E_COORD97","type":"esriFieldTypeDouble","alias":"E_COORD97"},{"name":"N_COORD97","type":"esriFieldTypeDouble","alias":"N_COORD97"},{"name":"ADDRESS","type":"esriFieldTypeString","alias":"ADDRESS","length":50},{"name":"OBJECTID","type":"esriFieldTypeOID","alias":"OBJECTID"}],"features":[{"attributes":{"ID":420826,"DIS_CODE":0,"TOWNNAME":"安南區","LI":"顯宮里","LIN":"2鄰","STREET":"媽祖宮一街","SECT":" ","MAREA":" ","LANE":"２巷","ALLEY":" ","HOUSE_NO":"６號","E_COORD97":160680,"N_COORD97":2548860.48,"ADDRESS":"媽祖宮一街２巷６號","OBJECTID":420801},"geometry":{"x":160680.00000000186,"y":2548860.4800000023}},{"attributes":{"ID":420827,"DIS_CODE":0,"TOWNNAME":"安南區","LI":"海西里","LIN":"2鄰","STREET":"海環街","SECT":" ","MAREA":" ","LANE":"４３７巷","ALLEY":" ","HOUSE_NO":"１９號","E_COORD97":166097.92000000001,"N_COORD97":2549057.3300000001,"ADDRESS":"海環街４３７巷１９號","OBJECTID":420802},"geometry":{"x":166097.91999999993,"y":2549057.3300000019}},{"attributes":{"ID":420828,"DIS_CODE":0,"TOWNNAME":"安南區","LI":"安順里","LIN":"2鄰","STREET":"總安街","SECT":"一段","MAREA":" ","LANE":"５７巷","ALLEY":" ","HOUSE_NO":"２６號","E_COORD97":169869.70999999999,"N_COORD97":2550045.3100000001,"ADDRESS":"總安街一段５７巷２６號","OBJECTID":420803},"geometry":{"x":169869.71000000183,"y":2550045.3100000024}},{"attributes":{"ID":420829,"DIS_CODE":0,"TOWNNAME":"中西區","LI":"三合里","LIN":"2鄰","STREET":"海安路","SECT":"二段","MAREA":" ","LANE":"３０１巷","ALLEY":" ","HOUSE_NO":"１３號","E_COORD97":167707.41,"N_COORD97":2544400.3999999999,"ADDRESS":"海安路二段３０１巷１３號","OBJECTID":420804},"geometry":{"x":167707.41000000108,"y":2544400.4000000004}},{"attributes":{"ID":420830,"DIS_CODE":0,"TOWNNAME":"中西區","LI":"西湖里","LIN":"2鄰","STREET":"頂美二街","SECT":" ","MAREA":" ","LANE":"４８巷","ALLEY":" ","HOUSE_NO":"２８號","E_COORD97":166495.73999999999,"N_COORD97":2544557.9100000001,"ADDRESS":"頂美二街４８巷２８號","OBJECTID":420805},"geometry":{"x":166495.74000000022,"y":2544557.910000002}},{"attributes":{"ID":420831,"DIS_CODE":0,"TOWNNAME":"中西區","LI":"西湖里","LIN":"2鄰","STREET":"中華西路","SECT":"二段","MAREA":" ","LANE":"６２９巷","ALLEY":" ","HOUSE_NO":"３０號","E_COORD97":166551.06,"N_COORD97":2544589.6299999999,"ADDRESS":"中華西路二段６２９巷３０號","OBJECTID":420806},"geometry":{"x":166551.05999999866,"y":2544589.6300000008}},{"attributes":{"ID":420832,"DIS_CODE":0,"TOWNNAME":"中西區","LI":"西湖里","LIN":"2鄰","STREET":"中華西路","SECT":"二段","MAREA":" ","LANE":"６２９巷","ALLEY":" ","HOUSE_NO":"３２號","E_COORD97":166544.14000000001,"N_COORD97":2544586.7599999998,"ADDRESS":"中華西路二段６２９巷３２號","OBJECTID":420807},"geometry":{"x":166544.1400000006,"y":2544586.7599999998}},{"attributes":{"ID":420833,"DIS_CODE":0,"TOWNNAME":"中西區","LI":"西湖里","LIN":"2鄰","STREET":"中華西路","SECT":"二段","MAREA":" ","LANE":"６２９巷","ALLEY":" ","HOUSE_NO":"３６號","E_COORD97":166536.56,"N_COORD97":2544588.4700000002,"ADDRESS":"中華西路二段６２９巷３６號","OBJECTID":420808},"geometry":{"x":166536.56000000052,"y":2544588.4700000025}},{"attributes":{"ID":420834,"DIS_CODE":0,"TOWNNAME":"中西區","LI":"西湖里","LIN":"2鄰","STREET":"中華西路","SECT":"二段","MAREA":" ","LANE":"６２９巷","ALLEY":" ","HOUSE_NO":"４５號","E_COORD97":166522.69,"N_COORD97":2544554.4700000002,"ADDRESS":"中華西路二段６２９巷４５號","OBJECTID":420809},"geometry":{"x":166522.69000000134,"y":2544554.4700000025}},{"attributes":{"ID":420835,"DIS_CODE":0,"TOWNNAME":"安南區","LI":"總頭里","LIN":"2鄰","STREET":"總安街","SECT":"二段","MAREA":" ","LANE":"７巷","ALLEY":" ","HOUSE_NO":"２１號","E_COORD97":168924.20999999999,"N_COORD97":2550257.73,"ADDRESS":"總安街二段７巷２１號","OBJECTID":420810},"geometry":{"x":168924.21000000089,"y":2550257.7300000004}},{"attributes":{"ID":420836,"DIS_CODE":0,"TOWNNAME":"安南區","LI":"安順里","LIN":"2鄰","STREET":"總安街","SECT":"一段","MAREA":" ","LANE":"５７巷","ALLEY":" ","HOUSE_NO":"５號","E_COORD97":169847.32000000001,"N_COORD97":2550066.5899999999,"ADDRESS":"總安街一段５７巷５號","OBJECTID":420811},"geometry":{"x":169847.32000000216,"y":2550066.5900000017}},{"attributes":{"ID":420837,"DIS_CODE":0,"TOWNNAME":"安南區","LI":"安順里","LIN":"2鄰","STREET":"總安街","SECT":"一段","MAREA":" ","LANE":"６５巷","ALLEY":" ","HOUSE_NO":"３號","E_COORD97":169810.07999999999,"N_COORD97":2550098.8799999999,"ADDRESS":"總安街一段６５巷３號","OBJECTID":420812},"geometry":{"x":169810.08000000101,"y":2550098.879999999}},{"attributes":{"ID":420838,"DIS_CODE":0,"TOWNNAME":"永康區","LI":"永康里","LIN":"2鄰","STREET":"中山北路","SECT":" ","MAREA":" ","LANE":"３５巷","ALLEY":" ","HOUSE_NO":"１０號","E_COORD97":173945.88,"N_COORD97":2547443.25,"ADDRESS":"中山北路３５巷１０號","OBJECTID":420813},"geometry":{"x":173945.88000000082,"y":2547443.2499999981}},{"attributes":{"ID":420839,"DIS_CODE":0,"TOWNNAME":"永康區","LI":"永康里","LIN":"2鄰","STREET":"中山北路","SECT":" ","MAREA":" ","LANE":"３５巷","ALLEY":" ","HOUSE_NO":"１７號","E_COORD97":173923.51000000001,"N_COORD97":2547444.25,"ADDRESS":"中山北路３５巷１７號","OBJECTID":420814},"geometry":{"x":173923.50999999978,"y":2547444.2500000019}},{"attributes":{"ID":420840,"DIS_CODE":0,"TOWNNAME":"仁德區","LI":"中生里","LIN":"10鄰","STREET":" ","SECT":" ","MAREA":"中洲","LANE":" ","ALLEY":" ","HOUSE_NO":"１８２號","E_COORD97":173159.32126900001,"N_COORD97":2534121.463,"ADDRESS":"中洲１８２號","OBJECTID":420815},"geometry":{"x":173159.32126899995,"y":2534121.462997999}},{"attributes":{"ID":420841,"DIS_CODE":0,"TOWNNAME":"永康區","LI":"正強里","LIN":"2鄰","STREET":"中正路","SECT":" ","MAREA":" ","LANE":"１５巷","ALLEY":" ","HOUSE_NO":"１１號","E_COORD97":173670.67999999999,"N_COORD97":2547687.2599999998,"ADDRESS":"中正路１５巷１１號","OBJECTID":420816},"geometry":{"x":173670.68000000063,"y":2547687.2600000035}},{"attributes":{"ID":420842,"DIS_CODE":0,"TOWNNAME":"永康區","LI":"正強里","LIN":"2鄰","STREET":"中正路","SECT":" ","MAREA":" ","LANE":"１巷","ALLEY":" ","HOUSE_NO":"２９號之５","E_COORD97":173707.76000000001,"N_COORD97":2547621.79,"ADDRESS":"中正路１巷２９號之５","OBJECTID":420817},"geometry":{"x":173707.76000000071,"y":2547621.7900000028}},{"attributes":{"ID":420843,"DIS_CODE":0,"TOWNNAME":"永康區","LI":"正強里","LIN":"2鄰","STREET":"中正路","SECT":" ","MAREA":" ","LANE":"１巷","ALLEY":" ","HOUSE_NO":"１２號","E_COORD97":173682.51000000001,"N_COORD97":2547655.8900000001,"ADDRESS":"中正路１巷１２號","OBJECTID":420818},"geometry":{"x":173682.51000000071,"y":2547655.8900000006}},{"attributes":{"ID":420844,"DIS_CODE":0,"TOWNNAME":"永康區","LI":"正強里","LIN":"2鄰","STREET":"中正路","SECT":" ","MAREA":" ","LANE":"１巷","ALLEY":" ","HOUSE_NO":"２７號之３","E_COORD97":173678.78,"N_COORD97":2547629.54,"ADDRESS":"中正路１巷２７號之３","OBJECTID":420819},"geometry":{"x":173678.78000000212,"y":2547629.5399999991}},{"attributes":{"ID":420845,"DIS_CODE":0,"TOWNNAME":"永康區","LI":"正強里","LIN":"2鄰","STREET":"中正路","SECT":" ","MAREA":" ","LANE":"１巷","ALLEY":" ","HOUSE_NO":"３１號之１","E_COORD97":173692.82000000001,"N_COORD97":2547609.3599999999,"ADDRESS":"中正路１巷３１號之１","OBJECTID":420820},"geometry":{"x":173692.82000000123,"y":2547609.3600000013}},{"attributes":{"ID":420846,"DIS_CODE":0,"TOWNNAME":"永康區","LI":"正強里","LIN":"2鄰","STREET":"中正路","SECT":" ","MAREA":" ","LANE":"１巷","ALLEY":" ","HOUSE_NO":"１５號","E_COORD97":173695.85999999999,"N_COORD97":2547648.5800000001,"ADDRESS":"中正路１巷１５號","OBJECTID":420821},"geometry":{"x":173695.86000000127,"y":2547648.5800000019}},{"attributes":{"ID":420847,"DIS_CODE":0,"TOWNNAME":"永康區","LI":"正強里","LIN":"2鄰","STREET":"中正路","SECT":" ","MAREA":" ","LANE":"１５巷","ALLEY":" ","HOUSE_NO":"１號","E_COORD97":173685.35999999999,"N_COORD97":2547699.9900000002,"ADDRESS":"中正路１５巷１號","OBJECTID":420822},"geometry":{"x":173685.36000000127,"y":2547699.9900000039}},{"attributes":{"ID":420848,"DIS_CODE":0,"TOWNNAME":"永康區","LI":"正強里","LIN":"2鄰","STREET":"中正路","SECT":" ","MAREA":" ","LANE":"１巷","ALLEY":" ","HOUSE_NO":"８號","E_COORD97":173688.29999999999,"N_COORD97":2547660.6400000001,"ADDRESS":"中正路１巷８號","OBJECTID":420823},"geometry":{"x":173688.30000000168,"y":2547660.6400000006}},{"attributes":{"ID":420849,"DIS_CODE":0,"TOWNNAME":"永康區","LI":"正強里","LIN":"2鄰","STREET":"中正路","SECT":" ","MAREA":" ","LANE":"１巷","ALLEY":" ","HOUSE_NO":"２９號之３","E_COORD97":173698.45000000001,"N_COORD97":2547619.04,"ADDRESS":"中正路１巷２９號之３","OBJECTID":420824},"geometry":{"x":173698.45000000112,"y":2547619.0399999991}},{"attributes":{"ID":420850,"DIS_CODE":0,"TOWNNAME":"永康區","LI":"正強里","LIN":"2鄰","STREET":"中正路","SECT":" ","MAREA":" ","LANE":"１巷","ALLEY":" ","HOUSE_NO":"２９號之２","E_COORD97":173694.29000000001,"N_COORD97":2547617.79,"ADDRESS":"中正路１巷２９號之２","OBJECTID":420825},"geometry":{"x":173694.29000000097,"y":2547617.7899999991}},{"attributes":{"ID":420851,"DIS_CODE":0,"TOWNNAME":"永康區","LI":"正強里","LIN":"2鄰","STREET":"中正路","SECT":" ","MAREA":" ","LANE":"１巷","ALLEY":" ","HOUSE_NO":"３１號之３","E_COORD97":173708.44,"N_COORD97":2547613.8599999999,"ADDRESS":"中正路１巷３１號之３","OBJECTID":420826},"geometry":{"x":173708.44000000134,"y":2547613.8599999994}},{"attributes":{"ID":420852,"DIS_CODE":0,"TOWNNAME":"新營區","LI":"南紙里","LIN":"2鄰","STREET":"太子路","SECT":" ","MAREA":" ","LANE":"１３９巷","ALLEY":" ","HOUSE_NO":"５８號五樓之３","E_COORD97":178008.89999999999,"N_COORD97":2577710.77,"ADDRESS":"太子路１３９巷５８號五樓之３","OBJECTID":420827},"geometry":{"x":178008.90000000037,"y":2577710.7699999996}},{"attributes":{"ID":420853,"DIS_CODE":0,"TOWNNAME":"安平區","LI":"國平里","LIN":"13鄰","STREET":"建平一街","SECT":" ","MAREA":" ","LANE":" ","ALLEY":" ","HOUSE_NO":"２２９號","E_COORD97":165509.31,"N_COORD97":2542786.9199999999,"ADDRESS":"建平一街２２９號","OBJECTID":420828},"geometry":{"x":165509.31000000052,"y":2542786.9199999999}},{"attributes":{"ID":420854,"DIS_CODE":0,"TOWNNAME":"新營區","LI":"南紙里","LIN":"2鄰","STREET":"太子路","SECT":" ","MAREA":" ","LANE":"１３９巷","ALLEY":" ","HOUSE_NO":"６６號五樓之２","E_COORD97":178005.76000000001,"N_COORD97":2577691.96,"ADDRESS":"太子路１３９巷６６號五樓之２","OBJECTID":420829},"geometry":{"x":178005.75999999978,"y":2577691.9600000046}},{"attributes":{"ID":420855,"DIS_CODE":0,"TOWNNAME":"新營區","LI":"南紙里","LIN":"2鄰","STREET":"太子路","SECT":" ","MAREA":" ","LANE":"１３９巷","ALLEY":" ","HOUSE_NO":"５８號六樓之１","E_COORD97":178008.81,"N_COORD97":2577710.77,"ADDRESS":"太子路１３９巷５８號六樓之１","OBJECTID":420830},"geometry":{"x":178008.80999999959,"y":2577710.7699999996}},{"attributes":{"ID":420856,"DIS_CODE":0,"TOWNNAME":"北區","LI":"新勝里","LIN":"2鄰","STREET":"開元路","SECT":" ","MAREA":" ","LANE":"３３３巷","ALLEY":" ","HOUSE_NO":"２號之２二樓之１","E_COORD97":170206.78,"N_COORD97":2545456.8500000001,"ADDRESS":"開元路３３３巷２號之２二樓之１","OBJECTID":420831},"geometry":{"x":170206.78000000026,"y":2545456.8500000015}},{"attributes":{"ID":420857,"DIS_CODE":0,"TOWNNAME":"北區","LI":"新勝里","LIN":"2鄰","STREET":"開元路","SECT":" ","MAREA":" ","LANE":"３３３巷","ALLEY":" ","HOUSE_NO":"２號之２二樓之２","E_COORD97":170206.78,"N_COORD97":2545456.8500000001,"ADDRESS":"開元路３３３巷２號之２二樓之２","OBJECTID":420832},"geometry":{"x":170206.78000000026,"y":2545456.8500000015}},{"attributes":{"ID":420858,"DIS_CODE":0,"TOWNNAME":"北區","LI":"新勝里","LIN":"2鄰","STREET":"開元路","SECT":" ","MAREA":" ","LANE":"３３３巷","ALLEY":" ","HOUSE_NO":"２號之２三樓之１","E_COORD97":170206.78,"N_COORD97":2545456.8500000001,"ADDRESS":"開元路３３３巷２號之２三樓之１","OBJECTID":420833},"geometry":{"x":170206.78000000026,"y":2545456.8500000015}},{"attributes":{"ID":420859,"DIS_CODE":0,"TOWNNAME":"北區","LI":"新勝里","LIN":"2鄰","STREET":"開元路","SECT":" ","MAREA":" ","LANE":"３３３巷","ALLEY":" ","HOUSE_NO":"２號之２三樓之２","E_COORD97":170206.78,"N_COORD97":2545456.8500000001,"ADDRESS":"開元路３３３巷２號之２三樓之２","OBJECTID":420834},"geometry":{"x":170206.78000000026,"y":2545456.8500000015}},{"attributes":{"ID":420860,"DIS_CODE":0,"TOWNNAME":"北區","LI":"新勝里","LIN":"2鄰","STREET":"開元路","SECT":" ","MAREA":" ","LANE":"３３３巷","ALLEY":" ","HOUSE_NO":"２號之２五樓","E_COORD97":170206.78,"N_COORD97":2545456.8500000001,"ADDRESS":"開元路３３３巷２號之２五樓","OBJECTID":420835},"geometry":{"x":170206.78000000026,"y":2545456.8500000015}},{"attributes":{"ID":420861,"DIS_CODE":0,"TOWNNAME":"北區","LI":"新勝里","LIN":"2鄰","STREET":"開元路","SECT":" ","MAREA":" ","LANE":"３３３巷","ALLEY":" ","HOUSE_NO":"２號之２四樓","E_COORD97":170206.78,"N_COORD97":2545456.8500000001,"ADDRESS":"開元路３３３巷２號之２四樓","OBJECTID":420836},"geometry":{"x":170206.78000000026,"y":2545456.8500000015}},{"attributes":{"ID":420862,"DIS_CODE":0,"TOWNNAME":"安南區","LI":"城西里","LIN":"7鄰","STREET":"城西街","SECT":"三段","MAREA":" ","LANE":"５０１巷","ALLEY":" ","HOUSE_NO":"３６２之６０５號","E_COORD97":157274.69,"N_COORD97":2548262.4100000001,"ADDRESS":"城西街三段５０１巷３６２之６０５號","OBJECTID":420837},"geometry":{"x":157274.69000000041,"y":2548262.4100000001}},{"attributes":{"ID":420863,"DIS_CODE":0,"TOWNNAME":"安南區","LI":"總頭里","LIN":"2鄰","STREET":"總安街","SECT":"二段","MAREA":" ","LANE":"３１５巷","ALLEY":" ","HOUSE_NO":"９號","E_COORD97":168421.67000000001,"N_COORD97":2550446.1099999999,"ADDRESS":"總安街二段３１５巷９號","OBJECTID":420838},"geometry":{"x":168421.66999999993,"y":2550446.1099999994}},{"attributes":{"ID":420864,"DIS_CODE":0,"TOWNNAME":"中西區","LI":"元安里","LIN":"2鄰","STREET":"西門路","SECT":"一段","MAREA":" ","LANE":"７０３巷","ALLEY":" ","HOUSE_NO":"２１號三樓之２","E_COORD97":167586.39999999999,"N_COORD97":2543242.0699999998,"ADDRESS":"西門路一段７０３巷２１號三樓之２","OBJECTID":420839},"geometry":{"x":167586.40000000037,"y":2543242.0700000022}},{"attributes":{"ID":420865,"DIS_CODE":0,"TOWNNAME":"中西區","LI":"元安里","LIN":"2鄰","STREET":"西門路","SECT":"一段","MAREA":" ","LANE":"７０３巷","ALLEY":" ","HOUSE_NO":"２１號五樓之１","E_COORD97":167586.39999999999,"N_COORD97":2543242.0699999998,"ADDRESS":"西門路一段７０３巷２１號五樓之１","OBJECTID":420840},"geometry":{"x":167586.40000000037,"y":2543242.0700000022}},{"attributes":{"ID":420866,"DIS_CODE":0,"TOWNNAME":"中西區","LI":"元安里","LIN":"2鄰","STREET":"西門路","SECT":"一段","MAREA":" ","LANE":"７０３巷","ALLEY":" ","HOUSE_NO":"２１號五樓之２","E_COORD97":167586.39999999999,"N_COORD97":2543242.0699999998,"ADDRESS":"西門路一段７０３巷２１號五樓之２","OBJECTID":420841},"geometry":{"x":167586.40000000037,"y":2543242.0700000022}},{"attributes":{"ID":420867,"DIS_CODE":0,"TOWNNAME":"中西區","LI":"元安里","LIN":"2鄰","STREET":"西門路","SECT":"一段","MAREA":" ","LANE":"７０３巷","ALLEY":" ","HOUSE_NO":"２１號四樓之１","E_COORD97":167586.39999999999,"N_COORD97":2543242.0699999998,"ADDRESS":"西門路一段７０３巷２１號四樓之１","OBJECTID":420842},"geometry":{"x":167586.40000000037,"y":2543242.0700000022}},{"attributes":{"ID":420868,"DIS_CODE":0,"TOWNNAME":"中西區","LI":"元安里","LIN":"2鄰","STREET":"西門路","SECT":"一段","MAREA":" ","LANE":"７０３巷","ALLEY":" ","HOUSE_NO":"２１號四樓之２","E_COORD97":167586.39999999999,"N_COORD97":2543242.0699999998,"ADDRESS":"西門路一段７０３巷２１號四樓之２","OBJECTID":420843},"geometry":{"x":167586.40000000037,"y":2543242.0700000022}},{"attributes":{"ID":420869,"DIS_CODE":0,"TOWNNAME":"南區","LI":"開南里","LIN":"2鄰","STREET":"中華西路","SECT":"一段","MAREA":" ","LANE":"４０巷","ALLEY":" ","HOUSE_NO":"１號五樓","E_COORD97":166350.51000000001,"N_COORD97":2541051.8799999999,"ADDRESS":"中華西路一段４０巷１號五樓","OBJECTID":420844},"geometry":{"x":166350.51000000071,"y":2541051.8800000008}},{"attributes":{"ID":420870,"DIS_CODE":0,"TOWNNAME":"中西區","LI":"仙草里","LIN":"2鄰","STREET":"五妃街","SECT":" ","MAREA":" ","LANE":"３２２巷","ALLEY":" ","HOUSE_NO":"１１號三樓之２","E_COORD97":167803.29000000001,"N_COORD97":2542641.46,"ADDRESS":"五妃街３２２巷１１號三樓之２","OBJECTID":420845},"geometry":{"x":167803.29000000097,"y":2542641.4600000009}},{"attributes":{"ID":420871,"DIS_CODE":0,"TOWNNAME":"仁德區","LI":"中生里","LIN":"10鄰","STREET":" ","SECT":" ","MAREA":"中洲","LANE":" ","ALLEY":" ","HOUSE_NO":"１８４號","E_COORD97":173159.53313200001,"N_COORD97":2534164.4313099999,"ADDRESS":"中洲１８４號","OBJECTID":420846},"geometry":{"x":173159.53313199989,"y":2534164.4313079994}},{"attributes":{"ID":420872,"DIS_CODE":0,"TOWNNAME":"中西區","LI":"仙草里","LIN":"2鄰","STREET":"五妃街","SECT":" ","MAREA":" ","LANE":"３２２巷","ALLEY":" ","HOUSE_NO":"１１號三樓之３","E_COORD97":167803.29000000001,"N_COORD97":2542641.46,"ADDRESS":"五妃街３２２巷１１號三樓之３","OBJECTID":420847},"geometry":{"x":167803.29000000097,"y":2542641.4600000009}},{"attributes":{"ID":420873,"DIS_CODE":0,"TOWNNAME":"中西區","LI":"仙草里","LIN":"2鄰","STREET":"五妃街","SECT":" ","MAREA":" ","LANE":"３２２巷","ALLEY":" ","HOUSE_NO":"１１號三樓之４","E_COORD97":167803.29000000001,"N_COORD97":2542641.46,"ADDRESS":"五妃街３２２巷１１號三樓之４","OBJECTID":420848},"geometry":{"x":167803.29000000097,"y":2542641.4600000009}},{"attributes":{"ID":420874,"DIS_CODE":0,"TOWNNAME":"中西區","LI":"仙草里","LIN":"2鄰","STREET":"五妃街","SECT":" ","MAREA":" ","LANE":"３２２巷","ALLEY":" ","HOUSE_NO":"１１號五樓之１","E_COORD97":167803.29000000001,"N_COORD97":2542641.46,"ADDRESS":"五妃街３２２巷１１號五樓之１","OBJECTID":420849},"geometry":{"x":167803.29000000097,"y":2542641.4600000009}},{"attributes":{"ID":420875,"DIS_CODE":0,"TOWNNAME":"中西區","LI":"仙草里","LIN":"2鄰","STREET":"五妃街","SECT":" ","MAREA":" ","LANE":"３２２巷","ALLEY":" ","HOUSE_NO":"１１號五樓之２","E_COORD97":167803.29000000001,"N_COORD97":2542641.46,"ADDRESS":"五妃街３２２巷１１號五樓之２","OBJECTID":420850},"geometry":{"x":167803.29000000097,"y":2542641.4600000009}},{"attributes":{"ID":420876,"DIS_CODE":0,"TOWNNAME":"中西區","LI":"仙草里","LIN":"2鄰","STREET":"五妃街","SECT":" ","MAREA":" ","LANE":"３２２巷","ALLEY":" ","HOUSE_NO":"１１號五樓之３","E_COORD97":167803.29000000001,"N_COORD97":2542641.46,"ADDRESS":"五妃街３２２巷１１號五樓之３","OBJECTID":420851},"geometry":{"x":167803.29000000097,"y":2542641.4600000009}},{"attributes":{"ID":420877,"DIS_CODE":0,"TOWNNAME":"中西區","LI":"仙草里","LIN":"2鄰","STREET":"五妃街","SECT":" ","MAREA":" ","LANE":"３２２巷","ALLEY":" ","HOUSE_NO":"１１號四樓之１","E_COORD97":167803.29000000001,"N_COORD97":2542641.46,"ADDRESS":"五妃街３２２巷１１號四樓之１","OBJECTID":420852},"geometry":{"x":167803.29000000097,"y":2542641.4600000009}},{"attributes":{"ID":420878,"DIS_CODE":0,"TOWNNAME":"中西區","LI":"仙草里","LIN":"2鄰","STREET":"五妃街","SECT":" ","MAREA":" ","LANE":"３２２巷","ALLEY":" ","HOUSE_NO":"１１號四樓之２","E_COORD97":167803.29000000001,"N_COORD97":2542641.46,"ADDRESS":"五妃街３２２巷１１號四樓之２","OBJECTID":420853},"geometry":{"x":167803.29000000097,"y":2542641.4600000009}},{"attributes":{"ID":420879,"DIS_CODE":0,"TOWNNAME":"中西區","LI":"仙草里","LIN":"2鄰","STREET":"五妃街","SECT":" ","MAREA":" ","LANE":"３２２巷","ALLEY":" ","HOUSE_NO":"１１號四樓之３","E_COORD97":167803.29000000001,"N_COORD97":2542641.46,"ADDRESS":"五妃街３２２巷１１號四樓之３","OBJECTID":420854},"geometry":{"x":167803.29000000097,"y":2542641.4600000009}},{"attributes":{"ID":420880,"DIS_CODE":0,"TOWNNAME":"中西區","LI":"五妃里","LIN":"2鄰","STREET":"南門路","SECT":" ","MAREA":" ","LANE":"２４５巷","ALLEY":" ","HOUSE_NO":"２２號一樓","E_COORD97":168439.54000000001,"N_COORD97":2542524.0299999998,"ADDRESS":"南門路２４５巷２２號一樓","OBJECTID":420855},"geometry":{"x":168439.54000000004,"y":2542524.0299999993}},{"attributes":{"ID":420881,"DIS_CODE":0,"TOWNNAME":"中西區","LI":"五妃里","LIN":"2鄰","STREET":"南門路","SECT":" ","MAREA":" ","LANE":"２４５巷","ALLEY":" ","HOUSE_NO":"２２號三樓","E_COORD97":168439.54000000001,"N_COORD97":2542524.0299999998,"ADDRESS":"南門路２４５巷２２號三樓","OBJECTID":420856},"geometry":{"x":168439.54000000004,"y":2542524.0299999993}},{"attributes":{"ID":420882,"DIS_CODE":0,"TOWNNAME":"中西區","LI":"福安里","LIN":"2鄰","STREET":"府前路","SECT":"一段","MAREA":" ","LANE":"３４２巷","ALLEY":" ","HOUSE_NO":"６號一樓之１","E_COORD97":167824.20999999999,"N_COORD97":2543480.8100000001,"ADDRESS":"府前路一段３４２巷６號一樓之１","OBJECTID":420857},"geometry":{"x":167824.21000000089,"y":2543480.8100000024}},{"attributes":{"ID":420883,"DIS_CODE":0,"TOWNNAME":"中西區","LI":"福安里","LIN":"2鄰","STREET":"府前路","SECT":"一段","MAREA":" ","LANE":"３４２巷","ALLEY":" ","HOUSE_NO":"６號一樓之２","E_COORD97":167824.20999999999,"N_COORD97":2543480.8100000001,"ADDRESS":"府前路一段３４２巷６號一樓之２","OBJECTID":420858},"geometry":{"x":167824.21000000089,"y":2543480.8100000024}},{"attributes":{"ID":420884,"DIS_CODE":0,"TOWNNAME":"中西區","LI":"福安里","LIN":"2鄰","STREET":"府前路","SECT":"一段","MAREA":" ","LANE":"３４２巷","ALLEY":" ","HOUSE_NO":"６號一樓之３","E_COORD97":167824.20999999999,"N_COORD97":2543480.8100000001,"ADDRESS":"府前路一段３４２巷６號一樓之３","OBJECTID":420859},"geometry":{"x":167824.21000000089,"y":2543480.8100000024}},{"attributes":{"ID":420885,"DIS_CODE":0,"TOWNNAME":"中西區","LI":"福安里","LIN":"2鄰","STREET":"府前路","SECT":"一段","MAREA":" ","LANE":"３４２巷","ALLEY":" ","HOUSE_NO":"６號二樓之１","E_COORD97":167824.20999999999,"N_COORD97":2543480.8100000001,"ADDRESS":"府前路一段３４２巷６號二樓之１","OBJECTID":420860},"geometry":{"x":167824.21000000089,"y":2543480.8100000024}},{"attributes":{"ID":420886,"DIS_CODE":0,"TOWNNAME":"中西區","LI":"福安里","LIN":"2鄰","STREET":"府前路","SECT":"一段","MAREA":" ","LANE":"３４２巷","ALLEY":" ","HOUSE_NO":"６號二樓之２","E_COORD97":167824.20999999999,"N_COORD97":2543480.8100000001,"ADDRESS":"府前路一段３４２巷６號二樓之２","OBJECTID":420861},"geometry":{"x":167824.21000000089,"y":2543480.8100000024}},{"attributes":{"ID":420887,"DIS_CODE":0,"TOWNNAME":"中西區","LI":"福安里","LIN":"2鄰","STREET":"府前路","SECT":"一段","MAREA":" ","LANE":"３４２巷","ALLEY":" ","HOUSE_NO":"６號二樓之３","E_COORD97":167824.20999999999,"N_COORD97":2543480.8100000001,"ADDRESS":"府前路一段３４２巷６號二樓之３","OBJECTID":420862},"geometry":{"x":167824.21000000089,"y":2543480.8100000024}},{"attributes":{"ID":420888,"DIS_CODE":0,"TOWNNAME":"中西區","LI":"福安里","LIN":"2鄰","STREET":"府前路","SECT":"一段","MAREA":" ","LANE":"３４２巷","ALLEY":" ","HOUSE_NO":"６號三樓之１","E_COORD97":167824.20999999999,"N_COORD97":2543480.8100000001,"ADDRESS":"府前路一段３４２巷６號三樓之１","OBJECTID":420863},"geometry":{"x":167824.21000000089,"y":2543480.8100000024}},{"attributes":{"ID":420889,"DIS_CODE":0,"TOWNNAME":"中西區","LI":"福安里","LIN":"2鄰","STREET":"府前路","SECT":"一段","MAREA":" ","LANE":"３４２巷","ALLEY":" ","HOUSE_NO":"６號三樓之２","E_COORD97":167824.20999999999,"N_COORD97":2543480.8100000001,"ADDRESS":"府前路一段３４２巷６號三樓之２","OBJECTID":420864},"geometry":{"x":167824.21000000089,"y":2543480.8100000024}},{"attributes":{"ID":420890,"DIS_CODE":0,"TOWNNAME":"中西區","LI":"福安里","LIN":"2鄰","STREET":"府前路","SECT":"一段","MAREA":" ","LANE":"３４２巷","ALLEY":" ","HOUSE_NO":"６號三樓之３","E_COORD97":167824.20999999999,"N_COORD97":2543480.8100000001,"ADDRESS":"府前路一段３４２巷６號三樓之３","OBJECTID":420865},"geometry":{"x":167824.21000000089,"y":2543480.8100000024}},{"attributes":{"ID":420891,"DIS_CODE":0,"TOWNNAME":"中西區","LI":"福安里","LIN":"2鄰","STREET":"府前路","SECT":"一段","MAREA":" ","LANE":"３４２巷","ALLEY":" ","HOUSE_NO":"６號四樓之１","E_COORD97":167824.20999999999,"N_COORD97":2543480.8100000001,"ADDRESS":"府前路一段３４２巷６號四樓之１","OBJECTID":420866},"geometry":{"x":167824.21000000089,"y":2543480.8100000024}},{"attributes":{"ID":420892,"DIS_CODE":0,"TOWNNAME":"中西區","LI":"福安里","LIN":"2鄰","STREET":"府前路","SECT":"一段","MAREA":" ","LANE":"３４２巷","ALLEY":" ","HOUSE_NO":"６號四樓之２","E_COORD97":167824.20999999999,"N_COORD97":2543480.8100000001,"ADDRESS":"府前路一段３４２巷６號四樓之２","OBJECTID":420867},"geometry":{"x":167824.21000000089,"y":2543480.8100000024}},{"attributes":{"ID":420893,"DIS_CODE":0,"TOWNNAME":"中西區","LI":"福安里","LIN":"2鄰","STREET":"府前路","SECT":"一段","MAREA":" ","LANE":"３４２巷","ALLEY":" ","HOUSE_NO":"６號四樓之３","E_COORD97":167824.20999999999,"N_COORD97":2543480.8100000001,"ADDRESS":"府前路一段３４２巷６號四樓之３","OBJECTID":420868},"geometry":{"x":167824.21000000089,"y":2543480.8100000024}},{"attributes":{"ID":420894,"DIS_CODE":0,"TOWNNAME":"南區","LI":"開南里","LIN":"2鄰","STREET":"中華西路","SECT":"一段","MAREA":" ","LANE":"４０巷","ALLEY":" ","HOUSE_NO":"１號四樓","E_COORD97":166350.51000000001,"N_COORD97":2541051.8799999999,"ADDRESS":"中華西路一段４０巷１號四樓","OBJECTID":420869},"geometry":{"x":166350.51000000071,"y":2541051.8800000008}},{"attributes":{"ID":420895,"DIS_CODE":0,"TOWNNAME":"南區","LI":"開南里","LIN":"2鄰","STREET":"中華西路","SECT":"一段","MAREA":" ","LANE":"４０巷","ALLEY":" ","HOUSE_NO":"２號二樓","E_COORD97":166333.79000000001,"N_COORD97":2541025.5600000001,"ADDRESS":"中華西路一段４０巷２號二樓","OBJECTID":420870},"geometry":{"x":166333.79000000097,"y":2541025.5600000024}},{"attributes":{"ID":420896,"DIS_CODE":0,"TOWNNAME":"南區","LI":"開南里","LIN":"2鄰","STREET":"中華西路","SECT":"一段","MAREA":" ","LANE":"４０巷","ALLEY":" ","HOUSE_NO":"２號三樓","E_COORD97":166333.79000000001,"N_COORD97":2541025.5600000001,"ADDRESS":"中華西路一段４０巷２號三樓","OBJECTID":420871},"geometry":{"x":166333.79000000097,"y":2541025.5600000024}},{"attributes":{"ID":420897,"DIS_CODE":0,"TOWNNAME":"南區","LI":"開南里","LIN":"2鄰","STREET":"中華西路","SECT":"一段","MAREA":" ","LANE":"４０巷","ALLEY":" ","HOUSE_NO":"２號五樓","E_COORD97":166333.79000000001,"N_COORD97":2541025.5600000001,"ADDRESS":"中華西路一段４０巷２號五樓","OBJECTID":420872},"geometry":{"x":166333.79000000097,"y":2541025.5600000024}},{"attributes":{"ID":420898,"DIS_CODE":0,"TOWNNAME":"南區","LI":"開南里","LIN":"2鄰","STREET":"中華西路","SECT":"一段","MAREA":" ","LANE":"４０巷","ALLEY":" ","HOUSE_NO":"２號四樓","E_COORD97":166333.79000000001,"N_COORD97":2541025.5600000001,"ADDRESS":"中華西路一段４０巷２號四樓","OBJECTID":420873},"geometry":{"x":166333.79000000097,"y":2541025.5600000024}},{"attributes":{"ID":420899,"DIS_CODE":0,"TOWNNAME":"南區","LI":"開南里","LIN":"2鄰","STREET":"中華西路","SECT":"一段","MAREA":" ","LANE":"４０巷","ALLEY":" ","HOUSE_NO":"３號二樓","E_COORD97":166355.5,"N_COORD97":2541051.4399999999,"ADDRESS":"中華西路一段４０巷３號二樓","OBJECTID":420874},"geometry":{"x":166355.50000000186,"y":2541051.4400000013}},{"attributes":{"ID":420900,"DIS_CODE":0,"TOWNNAME":"南區","LI":"開南里","LIN":"2鄰","STREET":"中華西路","SECT":"一段","MAREA":" ","LANE":"４０巷","ALLEY":" ","HOUSE_NO":"３號三樓","E_COORD97":166355.5,"N_COORD97":2541051.4399999999,"ADDRESS":"中華西路一段４０巷３號三樓","OBJECTID":420875},"geometry":{"x":166355.50000000186,"y":2541051.4400000013}},{"attributes":{"ID":420901,"DIS_CODE":0,"TOWNNAME":"南區","LI":"開南里","LIN":"2鄰","STREET":"中華西路","SECT":"一段","MAREA":" ","LANE":"４０巷","ALLEY":" ","HOUSE_NO":"３號五樓","E_COORD97":166355.5,"N_COORD97":2541051.4399999999,"ADDRESS":"中華西路一段４０巷３號五樓","OBJECTID":420876},"geometry":{"x":166355.50000000186,"y":2541051.4400000013}},{"attributes":{"ID":420902,"DIS_CODE":0,"TOWNNAME":"南區","LI":"開南里","LIN":"2鄰","STREET":"中華西路","SECT":"一段","MAREA":" ","LANE":"４０巷","ALLEY":" ","HOUSE_NO":"３號四樓","E_COORD97":166355.5,"N_COORD97":2541051.4399999999,"ADDRESS":"中華西路一段４０巷３號四樓","OBJECTID":420877},"geometry":{"x":166355.50000000186,"y":2541051.4400000013}},{"attributes":{"ID":420903,"DIS_CODE":0,"TOWNNAME":"南區","LI":"開南里","LIN":"2鄰","STREET":"中華西路","SECT":"一段","MAREA":" ","LANE":"４０巷","ALLEY":" ","HOUSE_NO":"４號二樓","E_COORD97":166338.04000000001,"N_COORD97":2541025.5600000001,"ADDRESS":"中華西路一段４０巷４號二樓","OBJECTID":420878},"geometry":{"x":166338.04000000004,"y":2541025.5600000024}},{"attributes":{"ID":420904,"DIS_CODE":0,"TOWNNAME":"南區","LI":"開南里","LIN":"2鄰","STREET":"中華西路","SECT":"一段","MAREA":" ","LANE":"４０巷","ALLEY":" ","HOUSE_NO":"４號三樓","E_COORD97":166338.04000000001,"N_COORD97":2541025.5600000001,"ADDRESS":"中華西路一段４０巷４號三樓","OBJECTID":420879},"geometry":{"x":166338.04000000004,"y":2541025.5600000024}},{"attributes":{"ID":420905,"DIS_CODE":0,"TOWNNAME":"南區","LI":"開南里","LIN":"2鄰","STREET":"中華西路","SECT":"一段","MAREA":" ","LANE":"４０巷","ALLEY":" ","HOUSE_NO":"４號五樓","E_COORD97":166338.04000000001,"N_COORD97":2541025.5600000001,"ADDRESS":"中華西路一段４０巷４號五樓","OBJECTID":420880},"geometry":{"x":166338.04000000004,"y":2541025.5600000024}},{"attributes":{"ID":420906,"DIS_CODE":0,"TOWNNAME":"永康區","LI":"勝利里","LIN":"2鄰","STREET":"勝利街","SECT":" ","MAREA":" ","LANE":"２巷","ALLEY":" ","HOUSE_NO":"６８號","E_COORD97":171001.20999999999,"N_COORD97":2544755.5099999998,"ADDRESS":"勝利街２巷６８號","OBJECTID":420881},"geometry":{"x":171001.21000000089,"y":2544755.5099999998}},{"attributes":{"ID":420907,"DIS_CODE":0,"TOWNNAME":"南區","LI":"開南里","LIN":"2鄰","STREET":"中華西路","SECT":"一段","MAREA":" ","LANE":"４０巷","ALLEY":" ","HOUSE_NO":"４號四樓","E_COORD97":166338.04000000001,"N_COORD97":2541025.5600000001,"ADDRESS":"中華西路一段４０巷４號四樓","OBJECTID":420882},"geometry":{"x":166338.04000000004,"y":2541025.5600000024}},{"attributes":{"ID":420908,"DIS_CODE":0,"TOWNNAME":"南區","LI":"開南里","LIN":"2鄰","STREET":"中華西路","SECT":"一段","MAREA":" ","LANE":"４０巷","ALLEY":" ","HOUSE_NO":"５號二樓","E_COORD97":166368.41,"N_COORD97":2541051.73,"ADDRESS":"中華西路一段４０巷５號二樓","OBJECTID":420883},"geometry":{"x":166368.41000000108,"y":2541051.7300000004}},{"attributes":{"ID":420909,"DIS_CODE":0,"TOWNNAME":"南區","LI":"開南里","LIN":"2鄰","STREET":"中華西路","SECT":"一段","MAREA":" ","LANE":"４０巷","ALLEY":" ","HOUSE_NO":"５號三樓","E_COORD97":166368.41,"N_COORD97":2541051.73,"ADDRESS":"中華西路一段４０巷５號三樓","OBJECTID":420884},"geometry":{"x":166368.41000000108,"y":2541051.7300000004}},{"attributes":{"ID":420910,"DIS_CODE":0,"TOWNNAME":"南區","LI":"開南里","LIN":"2鄰","STREET":"中華西路","SECT":"一段","MAREA":" ","LANE":"４０巷","ALLEY":" ","HOUSE_NO":"５號五樓","E_COORD97":166368.41,"N_COORD97":2541051.73,"ADDRESS":"中華西路一段４０巷５號五樓","OBJECTID":420885},"geometry":{"x":166368.41000000108,"y":2541051.7300000004}},{"attributes":{"ID":420911,"DIS_CODE":0,"TOWNNAME":"南區","LI":"開南里","LIN":"2鄰","STREET":"中華西路","SECT":"一段","MAREA":" ","LANE":"４０巷","ALLEY":" ","HOUSE_NO":"５號四樓","E_COORD97":166368.41,"N_COORD97":2541051.73,"ADDRESS":"中華西路一段４０巷５號四樓","OBJECTID":420886},"geometry":{"x":166368.41000000108,"y":2541051.7300000004}},{"attributes":{"ID":420912,"DIS_CODE":0,"TOWNNAME":"南區","LI":"開南里","LIN":"2鄰","STREET":"中華西路","SECT":"一段","MAREA":" ","LANE":"４０巷","ALLEY":" ","HOUSE_NO":"６號二樓","E_COORD97":166350.95000000001,"N_COORD97":2541026.1400000001,"ADDRESS":"中華西路一段４０巷６號二樓","OBJECTID":420887},"geometry":{"x":166350.95000000205,"y":2541026.1400000006}},{"attributes":{"ID":420913,"DIS_CODE":0,"TOWNNAME":"南區","LI":"開南里","LIN":"2鄰","STREET":"中華西路","SECT":"一段","MAREA":" ","LANE":"４０巷","ALLEY":" ","HOUSE_NO":"６號三樓","E_COORD97":166350.95000000001,"N_COORD97":2541026.1400000001,"ADDRESS":"中華西路一段４０巷６號三樓","OBJECTID":420888},"geometry":{"x":166350.95000000205,"y":2541026.1400000006}},{"attributes":{"ID":420914,"DIS_CODE":0,"TOWNNAME":"南區","LI":"開南里","LIN":"2鄰","STREET":"中華西路","SECT":"一段","MAREA":" ","LANE":"４０巷","ALLEY":" ","HOUSE_NO":"６號五樓","E_COORD97":166350.95000000001,"N_COORD97":2541026.1400000001,"ADDRESS":"中華西路一段４０巷６號五樓","OBJECTID":420889},"geometry":{"x":166350.95000000205,"y":2541026.1400000006}},{"attributes":{"ID":420915,"DIS_CODE":0,"TOWNNAME":"南區","LI":"開南里","LIN":"2鄰","STREET":"中華西路","SECT":"一段","MAREA":" ","LANE":"４０巷","ALLEY":" ","HOUSE_NO":"６號四樓","E_COORD97":166350.95000000001,"N_COORD97":2541026.1400000001,"ADDRESS":"中華西路一段４０巷６號四樓","OBJECTID":420890},"geometry":{"x":166350.95000000205,"y":2541026.1400000006}},{"attributes":{"ID":420916,"DIS_CODE":0,"TOWNNAME":"南區","LI":"開南里","LIN":"2鄰","STREET":"中華西路","SECT":"一段","MAREA":" ","LANE":"４０巷","ALLEY":" ","HOUSE_NO":"７號二樓","E_COORD97":166373.25,"N_COORD97":2541051.8799999999,"ADDRESS":"中華西路一段４０巷７號二樓","OBJECTID":420891},"geometry":{"x":166373.25,"y":2541051.8800000008}},{"attributes":{"ID":420917,"DIS_CODE":0,"TOWNNAME":"南區","LI":"開南里","LIN":"2鄰","STREET":"中華西路","SECT":"一段","MAREA":" ","LANE":"４０巷","ALLEY":" ","HOUSE_NO":"７號三樓","E_COORD97":166373.25,"N_COORD97":2541051.8799999999,"ADDRESS":"中華西路一段４０巷７號三樓","OBJECTID":420892},"geometry":{"x":166373.25,"y":2541051.8800000008}},{"attributes":{"ID":420918,"DIS_CODE":0,"TOWNNAME":"南區","LI":"開南里","LIN":"2鄰","STREET":"中華西路","SECT":"一段","MAREA":" ","LANE":"４０巷","ALLEY":" ","HOUSE_NO":"７號五樓","E_COORD97":166373.25,"N_COORD97":2541051.8799999999,"ADDRESS":"中華西路一段４０巷７號五樓","OBJECTID":420893},"geometry":{"x":166373.25,"y":2541051.8800000008}},{"attributes":{"ID":420919,"DIS_CODE":0,"TOWNNAME":"南區","LI":"開南里","LIN":"2鄰","STREET":"中華西路","SECT":"一段","MAREA":" ","LANE":"４０巷","ALLEY":" ","HOUSE_NO":"７號四樓","E_COORD97":166373.25,"N_COORD97":2541051.8799999999,"ADDRESS":"中華西路一段４０巷７號四樓","OBJECTID":420894},"geometry":{"x":166373.25,"y":2541051.8800000008}},{"attributes":{"ID":420920,"DIS_CODE":0,"TOWNNAME":"南區","LI":"開南里","LIN":"2鄰","STREET":"中華西路","SECT":"一段","MAREA":" ","LANE":"４０巷","ALLEY":" ","HOUSE_NO":"８號二樓","E_COORD97":166355.94,"N_COORD97":2541025.8500000001,"ADDRESS":"中華西路一段４０巷８號二樓","OBJECTID":420895},"geometry":{"x":166355.94000000041,"y":2541025.8500000015}},{"attributes":{"ID":420921,"DIS_CODE":0,"TOWNNAME":"南區","LI":"開南里","LIN":"2鄰","STREET":"中華西路","SECT":"一段","MAREA":" ","LANE":"４０巷","ALLEY":" ","HOUSE_NO":"８號三樓","E_COORD97":166355.94,"N_COORD97":2541025.8500000001,"ADDRESS":"中華西路一段４０巷８號三樓","OBJECTID":420896},"geometry":{"x":166355.94000000041,"y":2541025.8500000015}},{"attributes":{"ID":420922,"DIS_CODE":0,"TOWNNAME":"南區","LI":"開南里","LIN":"2鄰","STREET":"中華西路","SECT":"一段","MAREA":" ","LANE":"４０巷","ALLEY":" ","HOUSE_NO":"８號五樓","E_COORD97":166355.94,"N_COORD97":2541025.8500000001,"ADDRESS":"中華西路一段４０巷８號五樓","OBJECTID":420897},"geometry":{"x":166355.94000000041,"y":2541025.8500000015}},{"attributes":{"ID":420923,"DIS_CODE":0,"TOWNNAME":"南區","LI":"開南里","LIN":"2鄰","STREET":"中華西路","SECT":"一段","MAREA":" ","LANE":"４０巷","ALLEY":" ","HOUSE_NO":"８號四樓","E_COORD97":166355.94,"N_COORD97":2541025.8500000001,"ADDRESS":"中華西路一段４０巷８號四樓","OBJECTID":420898},"geometry":{"x":166355.94000000041,"y":2541025.8500000015}},{"attributes":{"ID":420924,"DIS_CODE":0,"TOWNNAME":"南區","LI":"新興里","LIN":"2鄰","STREET":"西門路","SECT":"一段","MAREA":" ","LANE":"４７１巷","ALLEY":" ","HOUSE_NO":"７號二樓","E_COORD97":167686.25,"N_COORD97":2542496.8399999999,"ADDRESS":"西門路一段４７１巷７號二樓","OBJECTID":420899},"geometry":{"x":167686.25000000093,"y":2542496.8400000017}},{"attributes":{"ID":420925,"DIS_CODE":0,"TOWNNAME":"南區","LI":"新興里","LIN":"2鄰","STREET":"西門路","SECT":"一段","MAREA":" ","LANE":"４７１巷","ALLEY":" ","HOUSE_NO":"７號三樓","E_COORD97":167686.25,"N_COORD97":2542496.8399999999,"ADDRESS":"西門路一段４７１巷７號三樓","OBJECTID":420900},"geometry":{"x":167686.25000000093,"y":2542496.8400000017}},{"attributes":{"ID":420926,"DIS_CODE":0,"TOWNNAME":"南區","LI":"新興里","LIN":"2鄰","STREET":"西門路","SECT":"一段","MAREA":" ","LANE":"４７１巷","ALLEY":" ","HOUSE_NO":"７號四樓","E_COORD97":167686.25,"N_COORD97":2542496.8399999999,"ADDRESS":"西門路一段４７１巷７號四樓","OBJECTID":420901},"geometry":{"x":167686.25000000093,"y":2542496.8400000017}},{"attributes":{"ID":420927,"DIS_CODE":0,"TOWNNAME":"南區","LI":"新興里","LIN":"2鄰","STREET":"西門路","SECT":"一段","MAREA":" ","LANE":"４７１巷","ALLEY":" ","HOUSE_NO":"９號二樓","E_COORD97":167673.51000000001,"N_COORD97":2542498.7200000002,"ADDRESS":"西門路一段４７１巷９號二樓","OBJECTID":420902},"geometry":{"x":167673.50999999978,"y":2542498.7200000025}},{"attributes":{"ID":420928,"DIS_CODE":0,"TOWNNAME":"南區","LI":"新興里","LIN":"2鄰","STREET":"西門路","SECT":"一段","MAREA":" ","LANE":"４７１巷","ALLEY":" ","HOUSE_NO":"９號三樓","E_COORD97":167673.51000000001,"N_COORD97":2542498.7200000002,"ADDRESS":"西門路一段４７１巷９號三樓","OBJECTID":420903},"geometry":{"x":167673.50999999978,"y":2542498.7200000025}},{"attributes":{"ID":420929,"DIS_CODE":0,"TOWNNAME":"南區","LI":"新興里","LIN":"2鄰","STREET":"西門路","SECT":"一段","MAREA":" ","LANE":"４７１巷","ALLEY":" ","HOUSE_NO":"９號四樓","E_COORD97":167673.51000000001,"N_COORD97":2542498.7200000002,"ADDRESS":"西門路一段４７１巷９號四樓","OBJECTID":420904},"geometry":{"x":167673.50999999978,"y":2542498.7200000025}},{"attributes":{"ID":420930,"DIS_CODE":0,"TOWNNAME":"南區","LI":"彰南里","LIN":"2鄰","STREET":"中華西路","SECT":"一段","MAREA":" ","LANE":"５６巷","ALLEY":" ","HOUSE_NO":"１號二樓","E_COORD97":166350.14999999999,"N_COORD97":2541303.27,"ADDRESS":"中華西路一段５６巷１號二樓","OBJECTID":420905},"geometry":{"x":166350.1500000013,"y":2541303.2700000014}},{"attributes":{"ID":420931,"DIS_CODE":0,"TOWNNAME":"南區","LI":"彰南里","LIN":"2鄰","STREET":"中華西路","SECT":"一段","MAREA":" ","LANE":"５６巷","ALLEY":" ","HOUSE_NO":"１號三樓","E_COORD97":166350.14999999999,"N_COORD97":2541303.27,"ADDRESS":"中華西路一段５６巷１號三樓","OBJECTID":420906},"geometry":{"x":166350.1500000013,"y":2541303.2700000014}},{"attributes":{"ID":420932,"DIS_CODE":0,"TOWNNAME":"南區","LI":"彰南里","LIN":"2鄰","STREET":"中華西路","SECT":"一段","MAREA":" ","LANE":"５６巷","ALLEY":" ","HOUSE_NO":"１號四樓","E_COORD97":166350.14999999999,"N_COORD97":2541303.27,"ADDRESS":"中華西路一段５６巷１號四樓","OBJECTID":420907},"geometry":{"x":166350.1500000013,"y":2541303.2700000014}},{"attributes":{"ID":420933,"DIS_CODE":0,"TOWNNAME":"南區","LI":"彰南里","LIN":"2鄰","STREET":"中華西路","SECT":"一段","MAREA":" ","LANE":"５６巷","ALLEY":" ","HOUSE_NO":"２號二樓","E_COORD97":166332.48999999999,"N_COORD97":2541277.21,"ADDRESS":"中華西路一段５６巷２號二樓","OBJECTID":420908},"geometry":{"x":166332.49000000115,"y":2541277.2100000009}},{"attributes":{"ID":420934,"DIS_CODE":0,"TOWNNAME":"南區","LI":"彰南里","LIN":"2鄰","STREET":"中華西路","SECT":"一段","MAREA":" ","LANE":"５６巷","ALLEY":" ","HOUSE_NO":"２號三樓","E_COORD97":166332.48999999999,"N_COORD97":2541277.21,"ADDRESS":"中華西路一段５６巷２號三樓","OBJECTID":420909},"geometry":{"x":166332.49000000115,"y":2541277.2100000009}},{"attributes":{"ID":420935,"DIS_CODE":0,"TOWNNAME":"南區","LI":"彰南里","LIN":"2鄰","STREET":"中華西路","SECT":"一段","MAREA":" ","LANE":"５６巷","ALLEY":" ","HOUSE_NO":"２號五樓","E_COORD97":166332.48999999999,"N_COORD97":2541277.21,"ADDRESS":"中華西路一段５６巷２號五樓","OBJECTID":420910},"geometry":{"x":166332.49000000115,"y":2541277.2100000009}},{"attributes":{"ID":420936,"DIS_CODE":0,"TOWNNAME":"南區","LI":"彰南里","LIN":"2鄰","STREET":"中華西路","SECT":"一段","MAREA":" ","LANE":"５６巷","ALLEY":" ","HOUSE_NO":"２號四樓","E_COORD97":166332.48999999999,"N_COORD97":2541277.21,"ADDRESS":"中華西路一段５６巷２號四樓","OBJECTID":420911},"geometry":{"x":166332.49000000115,"y":2541277.2100000009}},{"attributes":{"ID":420937,"DIS_CODE":0,"TOWNNAME":"南區","LI":"彰南里","LIN":"2鄰","STREET":"中華西路","SECT":"一段","MAREA":" ","LANE":"５６巷","ALLEY":" ","HOUSE_NO":"３號二樓","E_COORD97":166357.25,"N_COORD97":2541302.9199999999,"ADDRESS":"中華西路一段５６巷３號二樓","OBJECTID":420912},"geometry":{"x":166357.25000000093,"y":2541302.9200000018}},{"attributes":{"ID":420938,"DIS_CODE":0,"TOWNNAME":"南區","LI":"彰南里","LIN":"2鄰","STREET":"中華西路","SECT":"一段","MAREA":" ","LANE":"５６巷","ALLEY":" ","HOUSE_NO":"３號三樓","E_COORD97":166357.25,"N_COORD97":2541302.9199999999,"ADDRESS":"中華西路一段５６巷３號三樓","OBJECTID":420913},"geometry":{"x":166357.25000000093,"y":2541302.9200000018}},{"attributes":{"ID":420939,"DIS_CODE":0,"TOWNNAME":"南區","LI":"彰南里","LIN":"2鄰","STREET":"中華西路","SECT":"一段","MAREA":" ","LANE":"５６巷","ALLEY":" ","HOUSE_NO":"３號五樓","E_COORD97":166357.25,"N_COORD97":2541302.9199999999,"ADDRESS":"中華西路一段５６巷３號五樓","OBJECTID":420914},"geometry":{"x":166357.25000000093,"y":2541302.9200000018}},{"attributes":{"ID":420940,"DIS_CODE":0,"TOWNNAME":"南區","LI":"彰南里","LIN":"2鄰","STREET":"中華西路","SECT":"一段","MAREA":" ","LANE":"５６巷","ALLEY":" ","HOUSE_NO":"３號四樓","E_COORD97":166357.25,"N_COORD97":2541302.9199999999,"ADDRESS":"中華西路一段５６巷３號四樓","OBJECTID":420915},"geometry":{"x":166357.25000000093,"y":2541302.9200000018}},{"attributes":{"ID":420941,"DIS_CODE":0,"TOWNNAME":"南區","LI":"彰南里","LIN":"2鄰","STREET":"中華西路","SECT":"一段","MAREA":" ","LANE":"５６巷","ALLEY":" ","HOUSE_NO":"４號二樓","E_COORD97":166339.32999999999,"N_COORD97":2541277.9199999999,"ADDRESS":"中華西路一段５６巷４號二樓","OBJECTID":420916},"geometry":{"x":166339.33000000007,"y":2541277.9199999999}},{"attributes":{"ID":420942,"DIS_CODE":0,"TOWNNAME":"南區","LI":"彰南里","LIN":"2鄰","STREET":"中華西路","SECT":"一段","MAREA":" ","LANE":"５６巷","ALLEY":" ","HOUSE_NO":"４號三樓","E_COORD97":166339.32999999999,"N_COORD97":2541277.9199999999,"ADDRESS":"中華西路一段５６巷４號三樓","OBJECTID":420917},"geometry":{"x":166339.33000000007,"y":2541277.9199999999}},{"attributes":{"ID":420943,"DIS_CODE":0,"TOWNNAME":"南區","LI":"彰南里","LIN":"2鄰","STREET":"中華西路","SECT":"一段","MAREA":" ","LANE":"５６巷","ALLEY":" ","HOUSE_NO":"４號五樓","E_COORD97":166339.32999999999,"N_COORD97":2541277.9199999999,"ADDRESS":"中華西路一段５６巷４號五樓","OBJECTID":420918},"geometry":{"x":166339.33000000007,"y":2541277.9199999999}},{"attributes":{"ID":420944,"DIS_CODE":0,"TOWNNAME":"南區","LI":"彰南里","LIN":"2鄰","STREET":"中華西路","SECT":"一段","MAREA":" ","LANE":"５６巷","ALLEY":" ","HOUSE_NO":"４號四樓","E_COORD97":166339.32999999999,"N_COORD97":2541277.9199999999,"ADDRESS":"中華西路一段５６巷４號四樓","OBJECTID":420919},"geometry":{"x":166339.33000000007,"y":2541277.9199999999}},{"attributes":{"ID":420945,"DIS_CODE":0,"TOWNNAME":"南區","LI":"彰南里","LIN":"2鄰","STREET":"中華西路","SECT":"一段","MAREA":" ","LANE":"５６巷","ALLEY":" ","HOUSE_NO":"５號二樓","E_COORD97":166365.94,"N_COORD97":2541302.8300000001,"ADDRESS":"中華西路一段５６巷５號二樓","OBJECTID":420920},"geometry":{"x":166365.94000000041,"y":2541302.8299999982}},{"attributes":{"ID":420946,"DIS_CODE":0,"TOWNNAME":"南區","LI":"彰南里","LIN":"2鄰","STREET":"中華西路","SECT":"一段","MAREA":" ","LANE":"５６巷","ALLEY":" ","HOUSE_NO":"５號三樓","E_COORD97":166365.94,"N_COORD97":2541302.8300000001,"ADDRESS":"中華西路一段５６巷５號三樓","OBJECTID":420921},"geometry":{"x":166365.94000000041,"y":2541302.8299999982}},{"attributes":{"ID":420947,"DIS_CODE":0,"TOWNNAME":"南區","LI":"彰南里","LIN":"2鄰","STREET":"中華西路","SECT":"一段","MAREA":" ","LANE":"５６巷","ALLEY":" ","HOUSE_NO":"５號五樓","E_COORD97":166365.94,"N_COORD97":2541302.8300000001,"ADDRESS":"中華西路一段５６巷５號五樓","OBJECTID":420922},"geometry":{"x":166365.94000000041,"y":2541302.8299999982}},{"attributes":{"ID":420948,"DIS_CODE":0,"TOWNNAME":"南區","LI":"彰南里","LIN":"2鄰","STREET":"中華西路","SECT":"一段","MAREA":" ","LANE":"５６巷","ALLEY":" ","HOUSE_NO":"５號四樓","E_COORD97":166365.94,"N_COORD97":2541302.8300000001,"ADDRESS":"中華西路一段５６巷５號四樓","OBJECTID":420923},"geometry":{"x":166365.94000000041,"y":2541302.8299999982}},{"attributes":{"ID":420949,"DIS_CODE":0,"TOWNNAME":"南區","LI":"彰南里","LIN":"2鄰","STREET":"中華西路","SECT":"一段","MAREA":" ","LANE":"５６巷","ALLEY":" ","HOUSE_NO":"６號二樓","E_COORD97":166349.26000000001,"N_COORD97":2541277.9199999999,"ADDRESS":"中華西路一段５６巷６號二樓","OBJECTID":420924},"geometry":{"x":166349.25999999978,"y":2541277.9199999999}},{"attributes":{"ID":420950,"DIS_CODE":0,"TOWNNAME":"南區","LI":"彰南里","LIN":"2鄰","STREET":"中華西路","SECT":"一段","MAREA":" ","LANE":"５６巷","ALLEY":" ","HOUSE_NO":"６號三樓","E_COORD97":166349.26000000001,"N_COORD97":2541277.9199999999,"ADDRESS":"中華西路一段５６巷６號三樓","OBJECTID":420925},"geometry":{"x":166349.25999999978,"y":2541277.9199999999}},{"attributes":{"ID":420951,"DIS_CODE":0,"TOWNNAME":"南區","LI":"彰南里","LIN":"2鄰","STREET":"中華西路","SECT":"一段","MAREA":" ","LANE":"５６巷","ALLEY":" ","HOUSE_NO":"６號五樓","E_COORD97":166349.26000000001,"N_COORD97":2541277.9199999999,"ADDRESS":"中華西路一段５６巷６號五樓","OBJECTID":420926},"geometry":{"x":166349.25999999978,"y":2541277.9199999999}},{"attributes":{"ID":420952,"DIS_CODE":0,"TOWNNAME":"南區","LI":"彰南里","LIN":"2鄰","STREET":"中華西路","SECT":"一段","MAREA":" ","LANE":"５６巷","ALLEY":" ","HOUSE_NO":"６號四樓","E_COORD97":166349.26000000001,"N_COORD97":2541277.9199999999,"ADDRESS":"中華西路一段５６巷６號四樓","OBJECTID":420927},"geometry":{"x":166349.25999999978,"y":2541277.9199999999}},{"attributes":{"ID":420953,"DIS_CODE":0,"TOWNNAME":"南區","LI":"彰南里","LIN":"2鄰","STREET":"中華西路","SECT":"一段","MAREA":" ","LANE":"５６巷","ALLEY":" ","HOUSE_NO":"７號二樓","E_COORD97":166374.73000000001,"N_COORD97":2541302.3900000001,"ADDRESS":"中華西路一段５６巷７號二樓","OBJECTID":420928},"geometry":{"x":166374.73000000231,"y":2541302.3900000006}},{"attributes":{"ID":420954,"DIS_CODE":0,"TOWNNAME":"南區","LI":"彰南里","LIN":"2鄰","STREET":"中華西路","SECT":"一段","MAREA":" ","LANE":"５６巷","ALLEY":" ","HOUSE_NO":"７號三樓","E_COORD97":166374.73000000001,"N_COORD97":2541302.3900000001,"ADDRESS":"中華西路一段５６巷７號三樓","OBJECTID":420929},"geometry":{"x":166374.73000000231,"y":2541302.3900000006}},{"attributes":{"ID":420955,"DIS_CODE":0,"TOWNNAME":"南區","LI":"彰南里","LIN":"2鄰","STREET":"中華西路","SECT":"一段","MAREA":" ","LANE":"５６巷","ALLEY":" ","HOUSE_NO":"７號五樓","E_COORD97":166374.73000000001,"N_COORD97":2541302.3900000001,"ADDRESS":"中華西路一段５６巷７號五樓","OBJECTID":420930},"geometry":{"x":166374.73000000231,"y":2541302.3900000006}},{"attributes":{"ID":420956,"DIS_CODE":0,"TOWNNAME":"南區","LI":"彰南里","LIN":"2鄰","STREET":"中華西路","SECT":"一段","MAREA":" ","LANE":"５６巷","ALLEY":" ","HOUSE_NO":"７號四樓","E_COORD97":166374.73000000001,"N_COORD97":2541302.3900000001,"ADDRESS":"中華西路一段５６巷７號四樓","OBJECTID":420931},"geometry":{"x":166374.73000000231,"y":2541302.3900000006}},{"attributes":{"ID":420957,"DIS_CODE":0,"TOWNNAME":"南區","LI":"彰南里","LIN":"2鄰","STREET":"中華西路","SECT":"一段","MAREA":" ","LANE":"５６巷","ALLEY":" ","HOUSE_NO":"８號二樓","E_COORD97":166356.89000000001,"N_COORD97":2541277.8300000001,"ADDRESS":"中華西路一段５６巷８號二樓","OBJECTID":420932},"geometry":{"x":166356.88999999966,"y":2541277.8300000001}},{"attributes":{"ID":420958,"DIS_CODE":0,"TOWNNAME":"南區","LI":"彰南里","LIN":"2鄰","STREET":"中華西路","SECT":"一段","MAREA":" ","LANE":"５６巷","ALLEY":" ","HOUSE_NO":"８號三樓","E_COORD97":166356.89000000001,"N_COORD97":2541277.8300000001,"ADDRESS":"中華西路一段５６巷８號三樓","OBJECTID":420933},"geometry":{"x":166356.88999999966,"y":2541277.8300000001}},{"attributes":{"ID":420959,"DIS_CODE":0,"TOWNNAME":"南區","LI":"彰南里","LIN":"2鄰","STREET":"中華西路","SECT":"一段","MAREA":" ","LANE":"５６巷","ALLEY":" ","HOUSE_NO":"８號五樓","E_COORD97":166356.89000000001,"N_COORD97":2541277.8300000001,"ADDRESS":"中華西路一段５６巷８號五樓","OBJECTID":420934},"geometry":{"x":166356.88999999966,"y":2541277.8300000001}},{"attributes":{"ID":420960,"DIS_CODE":0,"TOWNNAME":"南區","LI":"彰南里","LIN":"2鄰","STREET":"中華西路","SECT":"一段","MAREA":" ","LANE":"５６巷","ALLEY":" ","HOUSE_NO":"８號四樓","E_COORD97":166356.89000000001,"N_COORD97":2541277.8300000001,"ADDRESS":"中華西路一段５６巷８號四樓","OBJECTID":420935},"geometry":{"x":166356.88999999966,"y":2541277.8300000001}},{"attributes":{"ID":420961,"DIS_CODE":0,"TOWNNAME":"南區","LI":"明德里","LIN":"2鄰","STREET":"大成路","SECT":"一段","MAREA":" ","LANE":"１９３巷","ALLEY":" ","HOUSE_NO":"６６號二樓","E_COORD97":168031.98000000001,"N_COORD97":2541671.8599999999,"ADDRESS":"大成路一段１９３巷６６號二樓","OBJECTID":420936},"geometry":{"x":168031.98000000045,"y":2541671.8600000031}},{"attributes":{"ID":420962,"DIS_CODE":0,"TOWNNAME":"南區","LI":"新興里","LIN":"2鄰","STREET":"西門路","SECT":"一段","MAREA":" ","LANE":"４７１巷","ALLEY":" ","HOUSE_NO":"７號五樓","E_COORD97":167686.25,"N_COORD97":2542496.8399999999,"ADDRESS":"西門路一段４７１巷７號五樓","OBJECTID":420937},"geometry":{"x":167686.25000000093,"y":2542496.8400000017}},{"attributes":{"ID":420963,"DIS_CODE":0,"TOWNNAME":"東區","LI":"龍山里","LIN":"2鄰","STREET":"崇仁街","SECT":" ","MAREA":" ","LANE":"５３巷","ALLEY":" ","HOUSE_NO":"１號五樓","E_COORD97":170388.35000000001,"N_COORD97":2542733.79,"ADDRESS":"崇仁街５３巷１號五樓","OBJECTID":420938},"geometry":{"x":170388.34999999963,"y":2542733.790000001}},{"attributes":{"ID":420964,"DIS_CODE":0,"TOWNNAME":"永康區","LI":"龍潭里","LIN":"2鄰","STREET":"龍潭街","SECT":" ","MAREA":" ","LANE":"７５巷","ALLEY":" ","HOUSE_NO":"２號六樓之１","E_COORD97":174794.42999999999,"N_COORD97":2548051.3599999999,"ADDRESS":"龍潭街７５巷２號六樓之１","OBJECTID":420939},"geometry":{"x":174794.43000000063,"y":2548051.3599999994}},{"attributes":{"ID":420965,"DIS_CODE":0,"TOWNNAME":"永康區","LI":"龍潭里","LIN":"2鄰","STREET":"龍潭街","SECT":" ","MAREA":" ","LANE":"７５巷","ALLEY":" ","HOUSE_NO":"２號五樓之４","E_COORD97":174794.45999999999,"N_COORD97":2548051.3599999999,"ADDRESS":"龍潭街７５巷２號五樓之４","OBJECTID":420940},"geometry":{"x":174794.46000000089,"y":2548051.3599999994}},{"attributes":{"ID":420966,"DIS_CODE":0,"TOWNNAME":"東區","LI":"富裕里","LIN":"2鄰","STREET":"東門路","SECT":"二段","MAREA":" ","LANE":"２５７巷","ALLEY":" ","HOUSE_NO":"１０號三樓","E_COORD97":170629.45000000001,"N_COORD97":2542756.3900000001,"ADDRESS":"東門路二段２５７巷１０號三樓","OBJECTID":420941},"geometry":{"x":170629.45000000205,"y":2542756.3900000006}},{"attributes":{"ID":420967,"DIS_CODE":0,"TOWNNAME":"東區","LI":"富裕里","LIN":"2鄰","STREET":"東門路","SECT":"二段","MAREA":" ","LANE":"２５７巷","ALLEY":" ","HOUSE_NO":"２號五樓","E_COORD97":170624.89000000001,"N_COORD97":2542716.04,"ADDRESS":"東門路二段２５７巷２號五樓","OBJECTID":420942},"geometry":{"x":170624.8900000006,"y":2542716.040000001}},{"attributes":{"ID":420968,"DIS_CODE":0,"TOWNNAME":"東區","LI":"富裕里","LIN":"2鄰","STREET":"東門路","SECT":"二段","MAREA":" ","LANE":"２５７巷","ALLEY":" ","HOUSE_NO":"４號五樓","E_COORD97":170628.72,"N_COORD97":2542729.98,"ADDRESS":"東門路二段２５７巷４號五樓","OBJECTID":420943},"geometry":{"x":170628.71999999974,"y":2542729.9800000042}},{"attributes":{"ID":420969,"DIS_CODE":0,"TOWNNAME":"東區","LI":"富裕里","LIN":"2鄰","STREET":"東門路","SECT":"二段","MAREA":" ","LANE":"２５７巷","ALLEY":" ","HOUSE_NO":"４號四樓","E_COORD97":170628.72,"N_COORD97":2542729.98,"ADDRESS":"東門路二段２５７巷４號四樓","OBJECTID":420944},"geometry":{"x":170628.71999999974,"y":2542729.9800000042}},{"attributes":{"ID":420970,"DIS_CODE":0,"TOWNNAME":"東區","LI":"富裕里","LIN":"2鄰","STREET":"東門路","SECT":"二段","MAREA":" ","LANE":"２５７巷","ALLEY":" ","HOUSE_NO":"６號三樓","E_COORD97":170627.25,"N_COORD97":2542736.5699999998,"ADDRESS":"東門路二段２５７巷６號三樓","OBJECTID":420945},"geometry":{"x":170627.25000000186,"y":2542736.5700000022}},{"attributes":{"ID":420971,"DIS_CODE":0,"TOWNNAME":"東區","LI":"富裕里","LIN":"2鄰","STREET":"東門路","SECT":"二段","MAREA":" ","LANE":"２５７巷","ALLEY":" ","HOUSE_NO":"８號二樓","E_COORD97":170629.12,"N_COORD97":2542750.2799999998,"ADDRESS":"東門路二段２５７巷８號二樓","OBJECTID":420946},"geometry":{"x":170629.12000000011,"y":2542750.2800000031}},{"attributes":{"ID":420972,"DIS_CODE":0,"TOWNNAME":"東區","LI":"富裕里","LIN":"2鄰","STREET":"東門路","SECT":"二段","MAREA":" ","LANE":"２５７巷","ALLEY":" ","HOUSE_NO":"８號三樓","E_COORD97":170629.12,"N_COORD97":2542750.2799999998,"ADDRESS":"東門路二段２５７巷８號三樓","OBJECTID":420947},"geometry":{"x":170629.12000000011,"y":2542750.2800000031}},{"attributes":{"ID":420973,"DIS_CODE":0,"TOWNNAME":"東區","LI":"富裕里","LIN":"2鄰","STREET":"東門路","SECT":"二段","MAREA":" ","LANE":"２５７巷","ALLEY":" ","HOUSE_NO":"８號五樓","E_COORD97":170629.12,"N_COORD97":2542750.2799999998,"ADDRESS":"東門路二段２５７巷８號五樓","OBJECTID":420948},"geometry":{"x":170629.12000000011,"y":2542750.2800000031}},{"attributes":{"ID":420974,"DIS_CODE":0,"TOWNNAME":"東區","LI":"富裕里","LIN":"2鄰","STREET":"東門路","SECT":"二段","MAREA":" ","LANE":"２５７巷","ALLEY":" ","HOUSE_NO":"８號四樓","E_COORD97":170629.12,"N_COORD97":2542750.2799999998,"ADDRESS":"東門路二段２５７巷８號四樓","OBJECTID":420949},"geometry":{"x":170629.12000000011,"y":2542750.2800000031}},{"attributes":{"ID":420975,"DIS_CODE":0,"TOWNNAME":"東區","LI":"富裕里","LIN":"2鄰","STREET":"東門路","SECT":"二段","MAREA":" ","LANE":"２５７巷","ALLEY":" ","HOUSE_NO":"４號二樓","E_COORD97":170628.72,"N_COORD97":2542729.98,"ADDRESS":"東門路二段２５７巷４號二樓","OBJECTID":420950},"geometry":{"x":170628.71999999974,"y":2542729.9800000042}},{"attributes":{"ID":420976,"DIS_CODE":0,"TOWNNAME":"東區","LI":"富裕里","LIN":"2鄰","STREET":"東門路","SECT":"二段","MAREA":" ","LANE":"２５７巷","ALLEY":" ","HOUSE_NO":"４號三樓","E_COORD97":170628.72,"N_COORD97":2542729.98,"ADDRESS":"東門路二段２５７巷４號三樓","OBJECTID":420951},"geometry":{"x":170628.71999999974,"y":2542729.9800000042}},{"attributes":{"ID":420977,"DIS_CODE":0,"TOWNNAME":"東區","LI":"富裕里","LIN":"2鄰","STREET":"東門路","SECT":"二段","MAREA":" ","LANE":"２５７巷","ALLEY":" ","HOUSE_NO":"１０號五樓","E_COORD97":170629.45000000001,"N_COORD97":2542756.3900000001,"ADDRESS":"東門路二段２５７巷１０號五樓","OBJECTID":420952},"geometry":{"x":170629.45000000205,"y":2542756.3900000006}},{"attributes":{"ID":420978,"DIS_CODE":0,"TOWNNAME":"東區","LI":"龍山里","LIN":"2鄰","STREET":"崇仁街","SECT":" ","MAREA":" ","LANE":"５３巷","ALLEY":" ","HOUSE_NO":"１號二樓","E_COORD97":170388.35000000001,"N_COORD97":2542733.79,"ADDRESS":"崇仁街５３巷１號二樓","OBJECTID":420953},"geometry":{"x":170388.34999999963,"y":2542733.790000001}},{"attributes":{"ID":420979,"DIS_CODE":0,"TOWNNAME":"東區","LI":"龍山里","LIN":"2鄰","STREET":"崇仁街","SECT":" ","MAREA":" ","LANE":"５３巷","ALLEY":" ","HOUSE_NO":"１號三樓","E_COORD97":170388.35000000001,"N_COORD97":2542733.79,"ADDRESS":"崇仁街５３巷１號三樓","OBJECTID":420954},"geometry":{"x":170388.34999999963,"y":2542733.790000001}},{"attributes":{"ID":420980,"DIS_CODE":0,"TOWNNAME":"東區","LI":"龍山里","LIN":"2鄰","STREET":"崇仁街","SECT":" ","MAREA":" ","LANE":"５３巷","ALLEY":" ","HOUSE_NO":"１號四樓","E_COORD97":170388.35000000001,"N_COORD97":2542733.79,"ADDRESS":"崇仁街５３巷１號四樓","OBJECTID":420955},"geometry":{"x":170388.34999999963,"y":2542733.790000001}},{"attributes":{"ID":420981,"DIS_CODE":0,"TOWNNAME":"東區","LI":"龍山里","LIN":"2鄰","STREET":"崇仁街","SECT":" ","MAREA":" ","LANE":"５３巷","ALLEY":" ","HOUSE_NO":"３號二樓","E_COORD97":170394.64999999999,"N_COORD97":2542741.3500000001,"ADDRESS":"崇仁街５３巷３號二樓","OBJECTID":420956},"geometry":{"x":170394.6500000013,"y":2542741.3500000015}},{"attributes":{"ID":420982,"DIS_CODE":0,"TOWNNAME":"東區","LI":"龍山里","LIN":"2鄰","STREET":"崇仁街","SECT":" ","MAREA":" ","LANE":"５３巷","ALLEY":" ","HOUSE_NO":"３號三樓","E_COORD97":170394.64999999999,"N_COORD97":2542741.3500000001,"ADDRESS":"崇仁街５３巷３號三樓","OBJECTID":420957},"geometry":{"x":170394.6500000013,"y":2542741.3500000015}},{"attributes":{"ID":420983,"DIS_CODE":0,"TOWNNAME":"東區","LI":"龍山里","LIN":"2鄰","STREET":"崇仁街","SECT":" ","MAREA":" ","LANE":"５３巷","ALLEY":" ","HOUSE_NO":"３號五樓","E_COORD97":170394.64999999999,"N_COORD97":2542741.3500000001,"ADDRESS":"崇仁街５３巷３號五樓","OBJECTID":420958},"geometry":{"x":170394.6500000013,"y":2542741.3500000015}},{"attributes":{"ID":420984,"DIS_CODE":0,"TOWNNAME":"中西區","LI":"永華里","LIN":"2鄰","STREET":"開山路","SECT":" ","MAREA":" ","LANE":"１２２巷","ALLEY":" ","HOUSE_NO":"３３號二樓之１","E_COORD97":168556.67000000001,"N_COORD97":2543334.75,"ADDRESS":"開山路１２２巷３３號二樓之１","OBJECTID":420959},"geometry":{"x":168556.67000000086,"y":2543334.7500000019}},{"attributes":{"ID":420985,"DIS_CODE":0,"TOWNNAME":"中西區","LI":"永華里","LIN":"2鄰","STREET":"開山路","SECT":" ","MAREA":" ","LANE":"１２２巷","ALLEY":" ","HOUSE_NO":"３３號二樓之２","E_COORD97":168556.67000000001,"N_COORD97":2543334.75,"ADDRESS":"開山路１２２巷３３號二樓之２","OBJECTID":420960},"geometry":{"x":168556.67000000086,"y":2543334.7500000019}},{"attributes":{"ID":420986,"DIS_CODE":0,"TOWNNAME":"中西區","LI":"永華里","LIN":"2鄰","STREET":"開山路","SECT":" ","MAREA":" ","LANE":"１２２巷","ALLEY":" ","HOUSE_NO":"３３號三樓之１","E_COORD97":168556.67000000001,"N_COORD97":2543334.75,"ADDRESS":"開山路１２２巷３３號三樓之１","OBJECTID":420961},"geometry":{"x":168556.67000000086,"y":2543334.7500000019}},{"attributes":{"ID":420987,"DIS_CODE":0,"TOWNNAME":"中西區","LI":"永華里","LIN":"2鄰","STREET":"開山路","SECT":" ","MAREA":" ","LANE":"１２２巷","ALLEY":" ","HOUSE_NO":"３３號三樓之２","E_COORD97":168556.67000000001,"N_COORD97":2543334.75,"ADDRESS":"開山路１２２巷３３號三樓之２","OBJECTID":420962},"geometry":{"x":168556.67000000086,"y":2543334.7500000019}},{"attributes":{"ID":420988,"DIS_CODE":0,"TOWNNAME":"中西區","LI":"永華里","LIN":"2鄰","STREET":"開山路","SECT":" ","MAREA":" ","LANE":"１２２巷","ALLEY":" ","HOUSE_NO":"３３號五樓","E_COORD97":168556.67000000001,"N_COORD97":2543334.75,"ADDRESS":"開山路１２２巷３３號五樓","OBJECTID":420963},"geometry":{"x":168556.67000000086,"y":2543334.7500000019}},{"attributes":{"ID":420989,"DIS_CODE":0,"TOWNNAME":"中西區","LI":"永華里","LIN":"2鄰","STREET":"開山路","SECT":" ","MAREA":" ","LANE":"１２２巷","ALLEY":" ","HOUSE_NO":"３３號四樓之１","E_COORD97":168556.67000000001,"N_COORD97":2543334.75,"ADDRESS":"開山路１２２巷３３號四樓之１","OBJECTID":420964},"geometry":{"x":168556.67000000086,"y":2543334.7500000019}},{"attributes":{"ID":420990,"DIS_CODE":0,"TOWNNAME":"中西區","LI":"永華里","LIN":"2鄰","STREET":"開山路","SECT":" ","MAREA":" ","LANE":"１２２巷","ALLEY":" ","HOUSE_NO":"３３號四樓之２","E_COORD97":168556.67000000001,"N_COORD97":2543334.75,"ADDRESS":"開山路１２２巷３３號四樓之２","OBJECTID":420965},"geometry":{"x":168556.67000000086,"y":2543334.7500000019}},{"attributes":{"ID":420991,"DIS_CODE":0,"TOWNNAME":"仁德區","LI":"仁德里","LIN":"2鄰","STREET":"仁德五街","SECT":" ","MAREA":" ","LANE":"１１巷","ALLEY":" ","HOUSE_NO":"２７號","E_COORD97":173395.12,"N_COORD97":2540132.52,"ADDRESS":"仁德五街１１巷２７號","OBJECTID":420966},"geometry":{"x":173395.12000000104,"y":2540132.5200000014}},{"attributes":{"ID":420992,"DIS_CODE":0,"TOWNNAME":"仁德區","LI":"後壁里","LIN":"2鄰","STREET":"德糖路","SECT":" ","MAREA":" ","LANE":" ","ALLEY":" ","HOUSE_NO":"４６０號","E_COORD97":173325.39999999999,"N_COORD97":2539120.77,"ADDRESS":"德糖路４６０號","OBJECTID":420967},"geometry":{"x":173325.40000000224,"y":2539120.7700000014}},{"attributes":{"ID":420993,"DIS_CODE":0,"TOWNNAME":"永康區","LI":"復興里","LIN":"2鄰","STREET":"復興路","SECT":" ","MAREA":" ","LANE":"４２９巷","ALLEY":" ","HOUSE_NO":"６０號","E_COORD97":172158.23000000001,"N_COORD97":2543884.1699999999,"ADDRESS":"復興路４２９巷６０號","OBJECTID":420968},"geometry":{"x":172158.23000000045,"y":2543884.1700000037}},{"attributes":{"ID":420994,"DIS_CODE":0,"TOWNNAME":"永康區","LI":"復興里","LIN":"2鄰","STREET":"復興路","SECT":" ","MAREA":" ","LANE":"４２９巷","ALLEY":" ","HOUSE_NO":"６２號","E_COORD97":172166.62,"N_COORD97":2543874.1699999999,"ADDRESS":"復興路４２９巷６２號","OBJECTID":420969},"geometry":{"x":172166.62000000104,"y":2543874.1700000018}},{"attributes":{"ID":420995,"DIS_CODE":0,"TOWNNAME":"永康區","LI":"復興里","LIN":"2鄰","STREET":"復興路","SECT":" ","MAREA":" ","LANE":"４２９巷","ALLEY":" ","HOUSE_NO":"６４號","E_COORD97":172174.62,"N_COORD97":2543873.9199999999,"ADDRESS":"復興路４２９巷６４號","OBJECTID":420970},"geometry":{"x":172174.62000000104,"y":2543873.9199999999}},{"attributes":{"ID":420996,"DIS_CODE":0,"TOWNNAME":"永康區","LI":"復國里","LIN":"2鄰","STREET":"復國一路","SECT":" ","MAREA":" ","LANE":"６巷","ALLEY":" ","HOUSE_NO":"１８號","E_COORD97":172781.70000000001,"N_COORD97":2544735.77,"ADDRESS":"復國一路６巷１８號","OBJECTID":420971},"geometry":{"x":172781.70000000019,"y":2544735.7699999996}},{"attributes":{"ID":420997,"DIS_CODE":0,"TOWNNAME":"永康區","LI":"復國里","LIN":"2鄰","STREET":"復國一路","SECT":" ","MAREA":" ","LANE":"２８巷","ALLEY":" ","HOUSE_NO":"２０號","E_COORD97":172779.5,"N_COORD97":2544756.8399999999,"ADDRESS":"復國一路２８巷２０號","OBJECTID":420972},"geometry":{"x":172779.5,"y":2544756.8399999999}},{"attributes":{"ID":420998,"DIS_CODE":0,"TOWNNAME":"永康區","LI":"勝利里","LIN":"2鄰","STREET":"勝利街","SECT":" ","MAREA":" ","LANE":"２巷","ALLEY":" ","HOUSE_NO":"５０號","E_COORD97":171000.89999999999,"N_COORD97":2544717.25,"ADDRESS":"勝利街２巷５０號","OBJECTID":420973},"geometry":{"x":171000.90000000037,"y":2544717.25}},{"attributes":{"ID":420999,"DIS_CODE":0,"TOWNNAME":"永康區","LI":"勝利里","LIN":"2鄰","STREET":"勝利街","SECT":" ","MAREA":" ","LANE":"２巷","ALLEY":" ","HOUSE_NO":"６４號","E_COORD97":171001.64999999999,"N_COORD97":2544746.75,"ADDRESS":"勝利街２巷６４號","OBJECTID":420974},"geometry":{"x":171001.6500000013,"y":2544746.75}},{"attributes":{"ID":421000,"DIS_CODE":0,"TOWNNAME":"永康區","LI":"勝利里","LIN":"2鄰","STREET":"勝利街","SECT":" ","MAREA":" ","LANE":"２巷","ALLEY":" ","HOUSE_NO":"７２號","E_COORD97":171001.81,"N_COORD97":2544763.5099999998,"ADDRESS":"勝利街２巷７２號","OBJECTID":420975},"geometry":{"x":171001.81000000052,"y":2544763.5100000016}},{"attributes":{"ID":421001,"DIS_CODE":0,"TOWNNAME":"永康區","LI":"勝利里","LIN":"2鄰","STREET":"勝利街","SECT":" ","MAREA":" ","LANE":"２巷","ALLEY":" ","HOUSE_NO":"７３號","E_COORD97":170987.48000000001,"N_COORD97":2544758.5099999998,"ADDRESS":"勝利街２巷７３號","OBJECTID":420976},"geometry":{"x":170987.48000000138,"y":2544758.5099999998}},{"attributes":{"ID":421002,"DIS_CODE":0,"TOWNNAME":"永康區","LI":"勝利里","LIN":"2鄰","STREET":"勝利街","SECT":" ","MAREA":" ","LANE":"２巷","ALLEY":" ","HOUSE_NO":"８６號","E_COORD97":171002.70000000001,"N_COORD97":2544792.7599999998,"ADDRESS":"勝利街２巷８６號","OBJECTID":420977},"geometry":{"x":171002.70000000112,"y":2544792.7600000016}},{"attributes":{"ID":421003,"DIS_CODE":0,"TOWNNAME":"永康區","LI":"勝利里","LIN":"2鄰","STREET":"勝利街","SECT":" ","MAREA":" ","LANE":"２巷","ALLEY":" ","HOUSE_NO":"５４號","E_COORD97":171001.20999999999,"N_COORD97":2544725.75,"ADDRESS":"勝利街２巷５４號","OBJECTID":420978},"geometry":{"x":171001.21000000089,"y":2544725.7500000019}},{"attributes":{"ID":421004,"DIS_CODE":0,"TOWNNAME":"永康區","LI":"勝利里","LIN":"2鄰","STREET":"勝利街","SECT":" ","MAREA":" ","LANE":"２巷","ALLEY":" ","HOUSE_NO":"６９號","E_COORD97":170986.95000000001,"N_COORD97":2544750.2599999998,"ADDRESS":"勝利街２巷６９號","OBJECTID":420979},"geometry":{"x":170986.95000000019,"y":2544750.2599999998}},{"attributes":{"ID":421005,"DIS_CODE":0,"TOWNNAME":"永康區","LI":"勝利里","LIN":"2鄰","STREET":"勝利街","SECT":" ","MAREA":" ","LANE":"２巷","ALLEY":" ","HOUSE_NO":"７４號","E_COORD97":171002.10999999999,"N_COORD97":2544768.0099999998,"ADDRESS":"勝利街２巷７４號","OBJECTID":420980},"geometry":{"x":171002.11000000127,"y":2544768.0100000016}},{"attributes":{"ID":421006,"DIS_CODE":0,"TOWNNAME":"永康區","LI":"勝利里","LIN":"2鄰","STREET":"勝利街","SECT":" ","MAREA":" ","LANE":"２巷","ALLEY":" ","HOUSE_NO":"５８號","E_COORD97":171001.35999999999,"N_COORD97":2544734.5,"ADDRESS":"勝利街２巷５８號","OBJECTID":420981},"geometry":{"x":171001.36000000034,"y":2544734.5000000019}},{"attributes":{"ID":421007,"DIS_CODE":0,"TOWNNAME":"永康區","LI":"勝利里","LIN":"2鄰","STREET":"勝利街","SECT":" ","MAREA":" ","LANE":"２巷","ALLEY":" ","HOUSE_NO":"７５號","E_COORD97":170987.14000000001,"N_COORD97":2544762.5099999998,"ADDRESS":"勝利街２巷７５號","OBJECTID":420982},"geometry":{"x":170987.14000000153,"y":2544762.5099999998}},{"attributes":{"ID":421008,"DIS_CODE":0,"TOWNNAME":"永康區","LI":"勝利里","LIN":"2鄰","STREET":"勝利街","SECT":" ","MAREA":" ","LANE":"２巷","ALLEY":" ","HOUSE_NO":"６０號","E_COORD97":171001.51000000001,"N_COORD97":2544738.75,"ADDRESS":"勝利街２巷６０號","OBJECTID":420983},"geometry":{"x":171001.50999999885,"y":2544738.7500000019}},{"attributes":{"ID":421009,"DIS_CODE":0,"TOWNNAME":"永康區","LI":"崑山里","LIN":"2鄰","STREET":"大灣路","SECT":" ","MAREA":" ","LANE":"８７９巷","ALLEY":" ","HOUSE_NO":"５號","E_COORD97":173662.12,"N_COORD97":2544377.1099999999,"ADDRESS":"大灣路８７９巷５號","OBJECTID":420984},"geometry":{"x":173662.12000000011,"y":2544377.1100000013}},{"attributes":{"ID":421010,"DIS_CODE":0,"TOWNNAME":"永康區","LI":"勝利里","LIN":"2鄰","STREET":"勝利街","SECT":" ","MAREA":" ","LANE":"２巷","ALLEY":" ","HOUSE_NO":"７９號","E_COORD97":170987.28,"N_COORD97":2544771.5099999998,"ADDRESS":"勝利街２巷７９號","OBJECTID":420985},"geometry":{"x":170987.28000000119,"y":2544771.5100000016}},{"attributes":{"ID":421011,"DIS_CODE":0,"TOWNNAME":"永康區","LI":"勝利里","LIN":"2鄰","STREET":"勝利街","SECT":" ","MAREA":" ","LANE":"２巷","ALLEY":" ","HOUSE_NO":"７６號","E_COORD97":171002.26000000001,"N_COORD97":2544772.5099999998,"ADDRESS":"勝利街２巷７６號","OBJECTID":420986},"geometry":{"x":171002.26000000071,"y":2544772.5099999998}},{"attributes":{"ID":421012,"DIS_CODE":0,"TOWNNAME":"永康區","LI":"崑山里","LIN":"2鄰","STREET":"大灣路","SECT":" ","MAREA":" ","LANE":"８７９巷","ALLEY":" ","HOUSE_NO":"８號","E_COORD97":173630.60000000001,"N_COORD97":2544373.9900000002,"ADDRESS":"大灣路８７９巷８號","OBJECTID":420987},"geometry":{"x":173630.60000000056,"y":2544373.9900000039}},{"attributes":{"ID":421013,"DIS_CODE":0,"TOWNNAME":"永康區","LI":"二王里","LIN":"2鄰","STREET":"永二街","SECT":" ","MAREA":" ","LANE":"２８８巷","ALLEY":" ","HOUSE_NO":"１０號","E_COORD97":173104.53,"N_COORD97":2546541,"ADDRESS":"永二街２８８巷１０號","OBJECTID":420988},"geometry":{"x":173104.53000000119,"y":2546541.0000000019}},{"attributes":{"ID":421014,"DIS_CODE":0,"TOWNNAME":"永康區","LI":"大灣里","LIN":"2鄰","STREET":"大安街","SECT":" ","MAREA":" ","LANE":"３５６巷","ALLEY":" ","HOUSE_NO":"１號","E_COORD97":174691.47,"N_COORD97":2545667.52,"ADDRESS":"大安街３５６巷１號","OBJECTID":420989},"geometry":{"x":174691.46999999974,"y":2545667.5199999996}},{"attributes":{"ID":421015,"DIS_CODE":0,"TOWNNAME":"永康區","LI":"二王里","LIN":"2鄰","STREET":"永二街","SECT":" ","MAREA":" ","LANE":"２８８巷","ALLEY":" ","HOUSE_NO":"３１號","E_COORD97":173144.22,"N_COORD97":2546556.4199999999,"ADDRESS":"永二街２８８巷３１號","OBJECTID":420990},"geometry":{"x":173144.21999999974,"y":2546556.4199999999}},{"attributes":{"ID":421016,"DIS_CODE":0,"TOWNNAME":"永康區","LI":"大灣里","LIN":"2鄰","STREET":"大安街","SECT":" ","MAREA":" ","LANE":"３５６巷","ALLEY":" ","HOUSE_NO":"６號","E_COORD97":174687.67999999999,"N_COORD97":2545650.8100000001,"ADDRESS":"大安街３５６巷６號","OBJECTID":420991},"geometry":{"x":174687.68000000063,"y":2545650.8100000024}},{"attributes":{"ID":421017,"DIS_CODE":0,"TOWNNAME":"永康區","LI":"大橋里","LIN":"2鄰","STREET":"大橋一街","SECT":" ","MAREA":" ","LANE":"７３巷","ALLEY":" ","HOUSE_NO":"８３號","E_COORD97":170751.79999999999,"N_COORD97":2546573.2400000002,"ADDRESS":"大橋一街７３巷８３號","OBJECTID":420992},"geometry":{"x":170751.79999999981,"y":2546573.2400000021}},{"attributes":{"ID":421018,"DIS_CODE":0,"TOWNNAME":"永康區","LI":"三民里","LIN":"2鄰","STREET":"三民街","SECT":" ","MAREA":" ","LANE":"１１２巷","ALLEY":" ","HOUSE_NO":"５號","E_COORD97":172871.39000000001,"N_COORD97":2550326.2799999998,"ADDRESS":"三民街１１２巷５號","OBJECTID":420993},"geometry":{"x":172871.38999999966,"y":2550326.2799999993}},{"attributes":{"ID":421019,"DIS_CODE":0,"TOWNNAME":"永康區","LI":"大橋里","LIN":"2鄰","STREET":"大橋一街","SECT":" ","MAREA":" ","LANE":"７３巷","ALLEY":" ","HOUSE_NO":"８５號","E_COORD97":170748.26000000001,"N_COORD97":2546575.7400000002,"ADDRESS":"大橋一街７３巷８５號","OBJECTID":420994},"geometry":{"x":170748.25999999978,"y":2546575.7400000039}},{"attributes":{"ID":421020,"DIS_CODE":0,"TOWNNAME":"永康區","LI":"三民里","LIN":"2鄰","STREET":"三民街","SECT":" ","MAREA":" ","LANE":"１１２巷","ALLEY":" ","HOUSE_NO":"３號","E_COORD97":172868.87,"N_COORD97":2550321.2799999998,"ADDRESS":"三民街１１２巷３號","OBJECTID":420995},"geometry":{"x":172868.87000000011,"y":2550321.2800000012}},{"attributes":{"ID":421021,"DIS_CODE":0,"TOWNNAME":"永康區","LI":"中興里","LIN":"2鄰","STREET":"忠孝路","SECT":" ","MAREA":" ","LANE":"２３９巷","ALLEY":" ","HOUSE_NO":"２５號","E_COORD97":172001.22,"N_COORD97":2545024.1299999999,"ADDRESS":"忠孝路２３９巷２５號","OBJECTID":420996},"geometry":{"x":172001.21999999974,"y":2545024.129999999}},{"attributes":{"ID":421022,"DIS_CODE":0,"TOWNNAME":"永康區","LI":"中興里","LIN":"2鄰","STREET":"忠孝路","SECT":" ","MAREA":" ","LANE":"２３９巷","ALLEY":" ","HOUSE_NO":"１７號","E_COORD97":172016.76999999999,"N_COORD97":2545027.8799999999,"ADDRESS":"忠孝路２３９巷１７號","OBJECTID":420997},"geometry":{"x":172016.77000000142,"y":2545027.8800000008}},{"attributes":{"ID":421023,"DIS_CODE":0,"TOWNNAME":"永康區","LI":"大橋里","LIN":"2鄰","STREET":"大橋一街","SECT":" ","MAREA":" ","LANE":"７３巷","ALLEY":" ","HOUSE_NO":"８１號","E_COORD97":170755.32999999999,"N_COORD97":2546570.7400000002,"ADDRESS":"大橋一街７３巷８１號","OBJECTID":420998},"geometry":{"x":170755.33000000007,"y":2546570.7400000002}},{"attributes":{"ID":421024,"DIS_CODE":0,"TOWNNAME":"永康區","LI":"大灣里","LIN":"2鄰","STREET":"大安街","SECT":" ","MAREA":" ","LANE":"３６８巷","ALLEY":" ","HOUSE_NO":"２號","E_COORD97":174697.56,"N_COORD97":2545690.79,"ADDRESS":"大安街３６８巷２號","OBJECTID":420999},"geometry":{"x":174697.55999999959,"y":2545690.790000001}},{"attributes":{"ID":421025,"DIS_CODE":0,"TOWNNAME":"永康區","LI":"三民里","LIN":"2鄰","STREET":"三民街","SECT":" ","MAREA":" ","LANE":"１１２巷","ALLEY":" ","HOUSE_NO":"７號","E_COORD97":172873.73000000001,"N_COORD97":2550331.0299999998,"ADDRESS":"三民街１１２巷７號","OBJECTID":421000},"geometry":{"x":172873.73000000045,"y":2550331.0300000012}}]}