{"displayFieldName":"TOWNNAME","fieldAliases":{"ID":"ID","DIS_CODE":"DIS_CODE","TOWNNAME":"TOWNNAME","LI":"LI","LIN":"LIN","STREET":"STREET","SECT":"SECT","MAREA":"MAREA","LANE":"LANE","ALLEY":"ALLEY","HOUSE_NO":"HOUSE_NO","E_COORD97":"E_COORD97","N_COORD97":"N_COORD97","ADDRESS":"ADDRESS","OBJECTID":"OBJECTID"},"geometryType":"esriGeometryPoint","spatialReference":{"wkid":102443,"latestWkid":3826},"fields":[{"name":"ID","type":"esriFieldTypeDouble","alias":"ID"},{"name":"DIS_CODE","type":"esriFieldTypeInteger","alias":"DIS_CODE"},{"name":"TOWNNAME","type":"esriFieldTypeString","alias":"TOWNNAME","length":8},{"name":"LI","type":"esriFieldTypeString","alias":"LI","length":8},{"name":"LIN","type":"esriFieldTypeString","alias":"LIN","length":12},{"name":"STREET","type":"esriFieldTypeString","alias":"STREET","length":20},{"name":"SECT","type":"esriFieldTypeString","alias":"SECT","length":8},{"name":"MAREA","type":"esriFieldTypeString","alias":"MAREA","length":12},{"name":"LANE","type":"esriFieldTypeString","alias":"LANE","length":10},{"name":"ALLEY","type":"esriFieldTypeString","alias":"ALLEY","length":10},{"name":"HOUSE_NO","type":"esriFieldTypeString","alias":"HOUSE_NO","length":20},{"name":"E_COORD97","type":"esriFieldTypeDouble","alias":"E_COORD97"},{"name":"N_COORD97","type":"esriFieldTypeDouble","alias":"N_COORD97"},{"name":"ADDRESS","type":"esriFieldTypeString","alias":"ADDRESS","length":50},{"name":"OBJECTID","type":"esriFieldTypeOID","alias":"OBJECTID"}],"features":[{"attributes":{"ID":144201,"DIS_CODE":0,"TOWNNAME":"永康區","LI":"永康里","LIN":"28鄰","STREET":"永康街","SECT":" ","MAREA":" ","LANE":" ","ALLEY":" ","HOUSE_NO":"２８２號","E_COORD97":174173.73000000001,"N_COORD97":2547018.46,"ADDRESS":"永康街２８２號","OBJECTID":144201},"geometry":{"x":174173.73000000045,"y":2547018.4600000009}},{"attributes":{"ID":144202,"DIS_CODE":0,"TOWNNAME":"永康區","LI":"永康里","LIN":"38鄰","STREET":"西勢路","SECT":" ","MAREA":" ","LANE":" ","ALLEY":" ","HOUSE_NO":"６９３號","E_COORD97":174486.92999999999,"N_COORD97":2546720.75,"ADDRESS":"西勢路６９３號","OBJECTID":144202},"geometry":{"x":174486.9299999997,"y":2546720.75}},{"attributes":{"ID":144203,"DIS_CODE":0,"TOWNNAME":"南區","LI":"大恩里","LIN":"3鄰","STREET":"國民路","SECT":" ","MAREA":" ","LANE":"１１６巷","ALLEY":"１８弄","HOUSE_NO":"１０號","E_COORD97":169339.63,"N_COORD97":2540984.7999999998,"ADDRESS":"國民路１１６巷１８弄１０號","OBJECTID":144203},"geometry":{"x":169339.63000000175,"y":2540984.8000000007}},{"attributes":{"ID":144204,"DIS_CODE":0,"TOWNNAME":"永康區","LI":"永康里","LIN":"39鄰","STREET":"永大一路","SECT":" ","MAREA":" ","LANE":" ","ALLEY":" ","HOUSE_NO":"６２號之４","E_COORD97":174160.88,"N_COORD97":2546451.4700000002,"ADDRESS":"永大一路６２號之４","OBJECTID":144204},"geometry":{"x":174160.88000000082,"y":2546451.4700000007}},{"attributes":{"ID":144205,"DIS_CODE":0,"TOWNNAME":"南區","LI":"大恩里","LIN":"3鄰","STREET":"國民路","SECT":" ","MAREA":" ","LANE":"１１６巷","ALLEY":"１８弄","HOUSE_NO":"１１號","E_COORD97":169346.59,"N_COORD97":2541002.3500000001,"ADDRESS":"國民路１１６巷１８弄１１號","OBJECTID":144205},"geometry":{"x":169346.59000000171,"y":2541002.3499999996}},{"attributes":{"ID":144206,"DIS_CODE":0,"TOWNNAME":"南區","LI":"大恩里","LIN":"3鄰","STREET":"國民路","SECT":" ","MAREA":" ","LANE":"１１６巷","ALLEY":"１８弄","HOUSE_NO":"１２號","E_COORD97":169345.48000000001,"N_COORD97":2540985.25,"ADDRESS":"國民路１１６巷１８弄１２號","OBJECTID":144206},"geometry":{"x":169345.48000000045,"y":2540985.2500000019}},{"attributes":{"ID":144207,"DIS_CODE":0,"TOWNNAME":"南區","LI":"大恩里","LIN":"3鄰","STREET":"國民路","SECT":" ","MAREA":" ","LANE":"１１６巷","ALLEY":"１８弄","HOUSE_NO":"１３號","E_COORD97":169352.44,"N_COORD97":2541003.0099999998,"ADDRESS":"國民路１１６巷１８弄１３號","OBJECTID":144207},"geometry":{"x":169352.44000000134,"y":2541003.0100000035}},{"attributes":{"ID":144208,"DIS_CODE":0,"TOWNNAME":"南區","LI":"大恩里","LIN":"3鄰","STREET":"國民路","SECT":" ","MAREA":" ","LANE":"１１６巷","ALLEY":"１８弄","HOUSE_NO":"１４號","E_COORD97":169351.22,"N_COORD97":2540986.02,"ADDRESS":"國民路１１６巷１８弄１４號","OBJECTID":144208},"geometry":{"x":169351.22000000067,"y":2540986.0200000033}},{"attributes":{"ID":144209,"DIS_CODE":0,"TOWNNAME":"南區","LI":"大恩里","LIN":"3鄰","STREET":"國民路","SECT":" ","MAREA":" ","LANE":"１１６巷","ALLEY":"１８弄","HOUSE_NO":"１５號","E_COORD97":169358.73000000001,"N_COORD97":2541003.5600000001,"ADDRESS":"國民路１１６巷１８弄１５號","OBJECTID":144209},"geometry":{"x":169358.73000000138,"y":2541003.5600000042}},{"attributes":{"ID":144210,"DIS_CODE":0,"TOWNNAME":"安定區","LI":"六嘉里","LIN":"4鄰","STREET":" ","SECT":" ","MAREA":"六塊寮","LANE":" ","ALLEY":" ","HOUSE_NO":"２８號之５","E_COORD97":169979.10999999999,"N_COORD97":2553489.2999999998,"ADDRESS":"六塊寮２８號之５","OBJECTID":144210},"geometry":{"x":169979.11000000034,"y":2553489.3000000026}},{"attributes":{"ID":144211,"DIS_CODE":0,"TOWNNAME":"鹽水區","LI":"福得里","LIN":"5鄰","STREET":" ","SECT":" ","MAREA":"後厝","LANE":" ","ALLEY":" ","HOUSE_NO":"９１號","E_COORD97":175373.01999999999,"N_COORD97":2579804.2599999998,"ADDRESS":"後厝９１號","OBJECTID":144211},"geometry":{"x":175373.01999999955,"y":2579804.2600000035}},{"attributes":{"ID":144212,"DIS_CODE":0,"TOWNNAME":"南區","LI":"大恩里","LIN":"3鄰","STREET":"國民路","SECT":" ","MAREA":" ","LANE":"１１６巷","ALLEY":"１８弄","HOUSE_NO":"１６號","E_COORD97":169358.29000000001,"N_COORD97":2540987.0099999998,"ADDRESS":"國民路１１６巷１８弄１６號","OBJECTID":144212},"geometry":{"x":169358.29000000004,"y":2540987.0100000016}},{"attributes":{"ID":144213,"DIS_CODE":0,"TOWNNAME":"南區","LI":"大恩里","LIN":"3鄰","STREET":"國民路","SECT":" ","MAREA":" ","LANE":"１１６巷","ALLEY":"１８弄","HOUSE_NO":"１號","E_COORD97":169316.42999999999,"N_COORD97":2540998.8199999998,"ADDRESS":"國民路１１６巷１８弄１號","OBJECTID":144213},"geometry":{"x":169316.4299999997,"y":2540998.8200000022}},{"attributes":{"ID":144214,"DIS_CODE":0,"TOWNNAME":"南區","LI":"大恩里","LIN":"3鄰","STREET":"國民路","SECT":" ","MAREA":" ","LANE":"１１６巷","ALLEY":"１８弄","HOUSE_NO":"２號","E_COORD97":169315.44,"N_COORD97":2540982.9300000002,"ADDRESS":"國民路１１６巷１８弄２號","OBJECTID":144214},"geometry":{"x":169315.44000000041,"y":2540982.9299999997}},{"attributes":{"ID":144215,"DIS_CODE":0,"TOWNNAME":"南區","LI":"大恩里","LIN":"3鄰","STREET":"國民路","SECT":" ","MAREA":" ","LANE":"１１６巷","ALLEY":"１８弄","HOUSE_NO":"３號","E_COORD97":169322.73000000001,"N_COORD97":2540999.48,"ADDRESS":"國民路１１６巷１８弄３號","OBJECTID":144215},"geometry":{"x":169322.73000000138,"y":2540999.4800000004}},{"attributes":{"ID":144216,"DIS_CODE":0,"TOWNNAME":"南區","LI":"大恩里","LIN":"3鄰","STREET":"國民路","SECT":" ","MAREA":" ","LANE":"１１６巷","ALLEY":"１８弄","HOUSE_NO":"４號","E_COORD97":169321.85000000001,"N_COORD97":2540983.1499999999,"ADDRESS":"國民路１１６巷１８弄４號","OBJECTID":144216},"geometry":{"x":169321.84999999963,"y":2540983.1500000022}},{"attributes":{"ID":144217,"DIS_CODE":0,"TOWNNAME":"南區","LI":"大恩里","LIN":"3鄰","STREET":"國民路","SECT":" ","MAREA":" ","LANE":"１１６巷","ALLEY":"１８弄","HOUSE_NO":"５號","E_COORD97":169328.79999999999,"N_COORD97":2541000.1400000001,"ADDRESS":"國民路１１６巷１８弄５號","OBJECTID":144217},"geometry":{"x":169328.80000000075,"y":2541000.1400000025}},{"attributes":{"ID":144218,"DIS_CODE":0,"TOWNNAME":"新市區","LI":"大社里","LIN":"30鄰","STREET":" ","SECT":" ","MAREA":"大社","LANE":" ","ALLEY":" ","HOUSE_NO":"９８２號","E_COORD97":180249.85000000001,"N_COORD97":2553802,"ADDRESS":"大社９８２號","OBJECTID":144218},"geometry":{"x":180249.85000000149,"y":2553802.0000000037}},{"attributes":{"ID":144219,"DIS_CODE":0,"TOWNNAME":"新市區","LI":"大社里","LIN":"30鄰","STREET":" ","SECT":" ","MAREA":"大社","LANE":" ","ALLEY":" ","HOUSE_NO":"９９２之１２號","E_COORD97":180279.73000000001,"N_COORD97":2553662.7999999998,"ADDRESS":"大社９９２之１２號","OBJECTID":144219},"geometry":{"x":180279.73000000045,"y":2553662.8000000026}},{"attributes":{"ID":144220,"DIS_CODE":0,"TOWNNAME":"新市區","LI":"大社里","LIN":"30鄰","STREET":" ","SECT":" ","MAREA":"大社","LANE":" ","ALLEY":" ","HOUSE_NO":"９８５之２號","E_COORD97":180234.67000000001,"N_COORD97":2553784.5499999998,"ADDRESS":"大社９８５之２號","OBJECTID":144220},"geometry":{"x":180234.67000000086,"y":2553784.5500000007}},{"attributes":{"ID":144221,"DIS_CODE":0,"TOWNNAME":"新市區","LI":"大社里","LIN":"30鄰","STREET":" ","SECT":" ","MAREA":"大社","LANE":" ","ALLEY":" ","HOUSE_NO":"９９２之３號","E_COORD97":180255.76000000001,"N_COORD97":2553700.2999999998,"ADDRESS":"大社９９２之３號","OBJECTID":144221},"geometry":{"x":180255.76000000164,"y":2553700.3000000026}},{"attributes":{"ID":144222,"DIS_CODE":0,"TOWNNAME":"新市區","LI":"大社里","LIN":"30鄰","STREET":" ","SECT":" ","MAREA":"大社","LANE":" ","ALLEY":" ","HOUSE_NO":"９８５之５號","E_COORD97":180237.76000000001,"N_COORD97":2553771.0499999998,"ADDRESS":"大社９８５之５號","OBJECTID":144222},"geometry":{"x":180237.76000000071,"y":2553771.0500000007}},{"attributes":{"ID":144223,"DIS_CODE":0,"TOWNNAME":"新市區","LI":"大社里","LIN":"30鄰","STREET":" ","SECT":" ","MAREA":"大社","LANE":" ","ALLEY":" ","HOUSE_NO":"９９２之９號","E_COORD97":180284.60000000001,"N_COORD97":2553678.0499999998,"ADDRESS":"大社９９２之９號","OBJECTID":144223},"geometry":{"x":180284.59999999963,"y":2553678.0500000026}},{"attributes":{"ID":144224,"DIS_CODE":0,"TOWNNAME":"安定區","LI":"海寮里","LIN":"8鄰","STREET":" ","SECT":" ","MAREA":"海寮","LANE":" ","ALLEY":" ","HOUSE_NO":"８２號之１","E_COORD97":169340.73000000001,"N_COORD97":2555275.2999999998,"ADDRESS":"海寮８２號之１","OBJECTID":144224},"geometry":{"x":169340.73000000045,"y":2555275.3000000007}},{"attributes":{"ID":144225,"DIS_CODE":0,"TOWNNAME":"南區","LI":"大恩里","LIN":"3鄰","STREET":"國民路","SECT":" ","MAREA":" ","LANE":"１１６巷","ALLEY":"１８弄","HOUSE_NO":"６號","E_COORD97":169327.59,"N_COORD97":2540983.7000000002,"ADDRESS":"國民路１１６巷１８弄６號","OBJECTID":144225},"geometry":{"x":169327.58999999985,"y":2540983.6999999993}},{"attributes":{"ID":144226,"DIS_CODE":0,"TOWNNAME":"安定區","LI":"安定里","LIN":"7鄰","STREET":" ","SECT":" ","MAREA":"安定","LANE":" ","ALLEY":" ","HOUSE_NO":"５６號","E_COORD97":171912.07000000001,"N_COORD97":2557914.3199999998,"ADDRESS":"安定５６號","OBJECTID":144226},"geometry":{"x":171912.07000000216,"y":2557914.3200000022}},{"attributes":{"ID":144227,"DIS_CODE":0,"TOWNNAME":"安定區","LI":"港尾里","LIN":"7鄰","STREET":" ","SECT":" ","MAREA":"港子尾","LANE":" ","ALLEY":" ","HOUSE_NO":"３４號之１","E_COORD97":171646.23000000001,"N_COORD97":2556068.2999999998,"ADDRESS":"港子尾３４號之１","OBJECTID":144227},"geometry":{"x":171646.23000000045,"y":2556068.3000000007}},{"attributes":{"ID":144228,"DIS_CODE":0,"TOWNNAME":"安定區","LI":"中沙里","LIN":"4鄰","STREET":" ","SECT":" ","MAREA":"中崙","LANE":" ","ALLEY":" ","HOUSE_NO":"１７２之１號","E_COORD97":169101.81,"N_COORD97":2552848.2999999998,"ADDRESS":"中崙１７２之１號","OBJECTID":144228},"geometry":{"x":169101.80999999959,"y":2552848.3000000045}},{"attributes":{"ID":144229,"DIS_CODE":0,"TOWNNAME":"安定區","LI":"中沙里","LIN":"4鄰","STREET":" ","SECT":" ","MAREA":"中崙","LANE":" ","ALLEY":" ","HOUSE_NO":"１２７之５號","E_COORD97":169095.81,"N_COORD97":2553172.2999999998,"ADDRESS":"中崙１２７之５號","OBJECTID":144229},"geometry":{"x":169095.81000000052,"y":2553172.3000000007}},{"attributes":{"ID":144230,"DIS_CODE":0,"TOWNNAME":"南區","LI":"大恩里","LIN":"3鄰","STREET":"國民路","SECT":" ","MAREA":" ","LANE":"１１６巷","ALLEY":"１８弄","HOUSE_NO":"７號","E_COORD97":169334.54999999999,"N_COORD97":2541000.5800000001,"ADDRESS":"國民路１１６巷１８弄７號","OBJECTID":144230},"geometry":{"x":169334.54999999981,"y":2541000.5800000019}},{"attributes":{"ID":144231,"DIS_CODE":0,"TOWNNAME":"安定區","LI":"六嘉里","LIN":"4鄰","STREET":" ","SECT":" ","MAREA":"六塊寮","LANE":" ","ALLEY":" ","HOUSE_NO":"２７號之３","E_COORD97":169975.14999999999,"N_COORD97":2553518.2999999998,"ADDRESS":"六塊寮２７號之３","OBJECTID":144231},"geometry":{"x":169975.15000000037,"y":2553518.3000000007}},{"attributes":{"ID":144232,"DIS_CODE":0,"TOWNNAME":"南區","LI":"大恩里","LIN":"3鄰","STREET":"國民路","SECT":" ","MAREA":" ","LANE":"１１６巷","ALLEY":"１８弄","HOUSE_NO":"８號","E_COORD97":169333.44,"N_COORD97":2540984.25,"ADDRESS":"國民路１１６巷１８弄８號","OBJECTID":144232},"geometry":{"x":169333.44000000134,"y":2540984.25}},{"attributes":{"ID":144233,"DIS_CODE":0,"TOWNNAME":"安定區","LI":"中榮里","LIN":"4鄰","STREET":" ","SECT":" ","MAREA":"許中營","LANE":" ","ALLEY":" ","HOUSE_NO":"４４號","E_COORD97":172383.54000000001,"N_COORD97":2555039.25,"ADDRESS":"許中營４４號","OBJECTID":144233},"geometry":{"x":172383.54000000097,"y":2555039.2500000019}},{"attributes":{"ID":144234,"DIS_CODE":0,"TOWNNAME":"安定區","LI":"港口里","LIN":"20鄰","STREET":" ","SECT":" ","MAREA":"港口","LANE":" ","ALLEY":" ","HOUSE_NO":"３９３號之１２","E_COORD97":171546.31,"N_COORD97":2554977.2999999998,"ADDRESS":"港口３９３號之１２","OBJECTID":144234},"geometry":{"x":171546.30999999959,"y":2554977.3000000045}},{"attributes":{"ID":144235,"DIS_CODE":0,"TOWNNAME":"安定區","LI":"安加里","LIN":"13鄰","STREET":" ","SECT":" ","MAREA":"安定","LANE":" ","ALLEY":" ","HOUSE_NO":"２９５之３號","E_COORD97":171671.62,"N_COORD97":2557437.3199999998,"ADDRESS":"安定２９５之３號","OBJECTID":144235},"geometry":{"x":171671.62000000104,"y":2557437.3200000003}},{"attributes":{"ID":144236,"DIS_CODE":0,"TOWNNAME":"南區","LI":"大恩里","LIN":"3鄰","STREET":"國民路","SECT":" ","MAREA":" ","LANE":"１１６巷","ALLEY":"１８弄","HOUSE_NO":"９號","E_COORD97":169340.84,"N_COORD97":2541000.9199999999,"ADDRESS":"國民路１１６巷１８弄９號","OBJECTID":144236},"geometry":{"x":169340.83999999985,"y":2541000.9200000018}},{"attributes":{"ID":144237,"DIS_CODE":0,"TOWNNAME":"南區","LI":"大恩里","LIN":"3鄰","STREET":"國民路","SECT":" ","MAREA":" ","LANE":"１１６巷","ALLEY":"３弄","HOUSE_NO":"１０號","E_COORD97":169271.48999999999,"N_COORD97":2540930.8999999999,"ADDRESS":"國民路１１６巷３弄１０號","OBJECTID":144237},"geometry":{"x":169271.49000000209,"y":2540930.9000000022}},{"attributes":{"ID":144238,"DIS_CODE":0,"TOWNNAME":"安定區","LI":"海寮里","LIN":"14鄰","STREET":" ","SECT":" ","MAREA":"海寮","LANE":" ","ALLEY":" ","HOUSE_NO":"１３２號之４７","E_COORD97":169016.70999999999,"N_COORD97":2555427.2999999998,"ADDRESS":"海寮１３２號之４７","OBJECTID":144238},"geometry":{"x":169016.70999999996,"y":2555427.3000000007}},{"attributes":{"ID":144239,"DIS_CODE":0,"TOWNNAME":"安定區","LI":"港口里","LIN":"18鄰","STREET":" ","SECT":" ","MAREA":"港口","LANE":" ","ALLEY":" ","HOUSE_NO":"３８１號之４","E_COORD97":171408.54999999999,"N_COORD97":2555014.2999999998,"ADDRESS":"港口３８１號之４","OBJECTID":144239},"geometry":{"x":171408.55000000075,"y":2555014.3000000007}},{"attributes":{"ID":144240,"DIS_CODE":0,"TOWNNAME":"南區","LI":"大恩里","LIN":"3鄰","STREET":"國民路","SECT":" ","MAREA":" ","LANE":"１１６巷","ALLEY":"３弄","HOUSE_NO":"１２號","E_COORD97":169263.94,"N_COORD97":2540930.7799999998,"ADDRESS":"國民路１１６巷３弄１２號","OBJECTID":144240},"geometry":{"x":169263.94000000134,"y":2540930.7800000012}},{"attributes":{"ID":144241,"DIS_CODE":0,"TOWNNAME":"安定區","LI":"安加里","LIN":"13鄰","STREET":" ","SECT":" ","MAREA":"安定","LANE":" ","ALLEY":" ","HOUSE_NO":"２９５之２號","E_COORD97":171669.51999999999,"N_COORD97":2557440.3199999998,"ADDRESS":"安定２９５之２號","OBJECTID":144241},"geometry":{"x":171669.52000000048,"y":2557440.3200000003}},{"attributes":{"ID":144242,"DIS_CODE":0,"TOWNNAME":"南區","LI":"大恩里","LIN":"3鄰","STREET":"國民路","SECT":" ","MAREA":" ","LANE":"１１６巷","ALLEY":"３弄","HOUSE_NO":"１４號","E_COORD97":169257.09,"N_COORD97":2540928.96,"ADDRESS":"國民路１１６巷３弄１４號","OBJECTID":144242},"geometry":{"x":169257.09000000078,"y":2540928.9600000009}},{"attributes":{"ID":144243,"DIS_CODE":0,"TOWNNAME":"南區","LI":"大恩里","LIN":"3鄰","STREET":"國民路","SECT":" ","MAREA":" ","LANE":"１１６巷","ALLEY":"３弄","HOUSE_NO":"１６號","E_COORD97":169250.79999999999,"N_COORD97":2540927.2400000002,"ADDRESS":"國民路１１６巷３弄１６號","OBJECTID":144243},"geometry":{"x":169250.80000000075,"y":2540927.2399999984}},{"attributes":{"ID":144244,"DIS_CODE":0,"TOWNNAME":"南區","LI":"大恩里","LIN":"3鄰","STREET":"國民路","SECT":" ","MAREA":" ","LANE":"１１６巷","ALLEY":"６弄","HOUSE_NO":"１１號","E_COORD97":169341.32000000001,"N_COORD97":2540945.7799999998,"ADDRESS":"國民路１１６巷６弄１１號","OBJECTID":144244},"geometry":{"x":169341.3200000003,"y":2540945.7799999993}},{"attributes":{"ID":144245,"DIS_CODE":0,"TOWNNAME":"南區","LI":"大恩里","LIN":"3鄰","STREET":"國民路","SECT":" ","MAREA":" ","LANE":"１１６巷","ALLEY":"６弄","HOUSE_NO":"１３號","E_COORD97":169347.04000000001,"N_COORD97":2540946.3500000001,"ADDRESS":"國民路１１６巷６弄１３號","OBJECTID":144245},"geometry":{"x":169347.03999999911,"y":2540946.3500000034}},{"attributes":{"ID":144246,"DIS_CODE":0,"TOWNNAME":"南區","LI":"大恩里","LIN":"3鄰","STREET":"國民路","SECT":" ","MAREA":" ","LANE":"１１６巷","ALLEY":"６弄","HOUSE_NO":"１５號","E_COORD97":169353.32999999999,"N_COORD97":2540946.6899999999,"ADDRESS":"國民路１１６巷６弄１５號","OBJECTID":144246},"geometry":{"x":169353.33000000007,"y":2540946.6899999995}},{"attributes":{"ID":144247,"DIS_CODE":0,"TOWNNAME":"南區","LI":"大恩里","LIN":"3鄰","STREET":"國民路","SECT":" ","MAREA":" ","LANE":"１１６巷","ALLEY":"６弄","HOUSE_NO":"３號","E_COORD97":169317.07999999999,"N_COORD97":2540943.6099999999,"ADDRESS":"國民路１１６巷６弄３號","OBJECTID":144247},"geometry":{"x":169317.08000000101,"y":2540943.6099999994}},{"attributes":{"ID":144248,"DIS_CODE":0,"TOWNNAME":"南區","LI":"大恩里","LIN":"3鄰","STREET":"國民路","SECT":" ","MAREA":" ","LANE":"１１６巷","ALLEY":"６弄","HOUSE_NO":"５號","E_COORD97":169323.03,"N_COORD97":2540943.9500000002,"ADDRESS":"國民路１１６巷６弄５號","OBJECTID":144248},"geometry":{"x":169323.03000000026,"y":2540943.9499999993}},{"attributes":{"ID":144249,"DIS_CODE":0,"TOWNNAME":"南區","LI":"大恩里","LIN":"3鄰","STREET":"國民路","SECT":" ","MAREA":" ","LANE":"１１６巷","ALLEY":"６弄","HOUSE_NO":"７號","E_COORD97":169329.42999999999,"N_COORD97":2540944.98,"ADDRESS":"國民路１１６巷６弄７號","OBJECTID":144249},"geometry":{"x":169329.43000000063,"y":2540944.9800000004}},{"attributes":{"ID":144250,"DIS_CODE":0,"TOWNNAME":"安定區","LI":"海寮里","LIN":"13鄰","STREET":" ","SECT":" ","MAREA":"海寮","LANE":" ","ALLEY":" ","HOUSE_NO":"１２６號之４４","E_COORD97":168963.14999999999,"N_COORD97":2555307.2999999998,"ADDRESS":"海寮１２６號之４４","OBJECTID":144250},"geometry":{"x":168963.15000000037,"y":2555307.3000000026}},{"attributes":{"ID":144251,"DIS_CODE":0,"TOWNNAME":"南區","LI":"大恩里","LIN":"3鄰","STREET":"國民路","SECT":" ","MAREA":" ","LANE":"１１６巷","ALLEY":"６弄","HOUSE_NO":"９號","E_COORD97":169335.48999999999,"N_COORD97":2540945.5499999998,"ADDRESS":"國民路１１６巷６弄９號","OBJECTID":144251},"geometry":{"x":169335.49000000022,"y":2540945.5500000007}},{"attributes":{"ID":144252,"DIS_CODE":0,"TOWNNAME":"南區","LI":"大恩里","LIN":"3鄰","STREET":"國民路","SECT":" ","MAREA":" ","LANE":"１１６巷","ALLEY":"９弄","HOUSE_NO":"１０號","E_COORD97":169269.23000000001,"N_COORD97":2540961.5600000001,"ADDRESS":"國民路１１６巷９弄１０號","OBJECTID":144252},"geometry":{"x":169269.23000000045,"y":2540961.5600000005}},{"attributes":{"ID":144253,"DIS_CODE":0,"TOWNNAME":"永康區","LI":"大灣里","LIN":"30鄰","STREET":"民族路","SECT":" ","MAREA":" ","LANE":"１２６巷","ALLEY":" ","HOUSE_NO":"３８號","E_COORD97":175399.01000000001,"N_COORD97":2544871.04,"ADDRESS":"民族路１２６巷３８號","OBJECTID":144253},"geometry":{"x":175399.01000000164,"y":2544871.040000001}},{"attributes":{"ID":144254,"DIS_CODE":0,"TOWNNAME":"南區","LI":"大忠里","LIN":"15鄰","STREET":"公英六街","SECT":" ","MAREA":" ","LANE":" ","ALLEY":" ","HOUSE_NO":"３９號","E_COORD97":169352.76000000001,"N_COORD97":2541082.5899999999,"ADDRESS":"公英六街３９號","OBJECTID":144254},"geometry":{"x":169352.76000000071,"y":2541082.5899999999}},{"attributes":{"ID":144255,"DIS_CODE":0,"TOWNNAME":"南區","LI":"大忠里","LIN":"15鄰","STREET":"公英六街","SECT":" ","MAREA":" ","LANE":" ","ALLEY":" ","HOUSE_NO":"５１號","E_COORD97":169330.39000000001,"N_COORD97":2541079.1600000001,"ADDRESS":"公英六街５１號","OBJECTID":144255},"geometry":{"x":169330.38999999966,"y":2541079.1600000001}},{"attributes":{"ID":144256,"DIS_CODE":0,"TOWNNAME":"南區","LI":"大忠里","LIN":"15鄰","STREET":"公英六街","SECT":" ","MAREA":" ","LANE":" ","ALLEY":" ","HOUSE_NO":"５３號","E_COORD97":169326.76000000001,"N_COORD97":2541078.9700000002,"ADDRESS":"公英六街５３號","OBJECTID":144256},"geometry":{"x":169326.76000000164,"y":2541078.9700000044}},{"attributes":{"ID":144257,"DIS_CODE":0,"TOWNNAME":"南區","LI":"大恩里","LIN":"3鄰","STREET":"國民路","SECT":" ","MAREA":" ","LANE":"１１６巷","ALLEY":"９弄","HOUSE_NO":"１１號","E_COORD97":169263.28,"N_COORD97":2540943.1699999999,"ADDRESS":"國民路１１６巷９弄１１號","OBJECTID":144257},"geometry":{"x":169263.28000000119,"y":2540943.1699999999}},{"attributes":{"ID":144258,"DIS_CODE":0,"TOWNNAME":"南區","LI":"大恩里","LIN":"3鄰","STREET":"國民路","SECT":" ","MAREA":" ","LANE":"１１６巷","ALLEY":"９弄","HOUSE_NO":"１２號","E_COORD97":169262.14000000001,"N_COORD97":2540960.8700000001,"ADDRESS":"國民路１１６巷９弄１２號","OBJECTID":144258},"geometry":{"x":169262.1400000006,"y":2540960.870000001}},{"attributes":{"ID":144259,"DIS_CODE":0,"TOWNNAME":"南區","LI":"大恩里","LIN":"3鄰","STREET":"國民路","SECT":" ","MAREA":" ","LANE":"１１６巷","ALLEY":"９弄","HOUSE_NO":"１３號","E_COORD97":169254.94,"N_COORD97":2540942.3700000001,"ADDRESS":"國民路１１６巷９弄１３號","OBJECTID":144259},"geometry":{"x":169254.94000000227,"y":2540942.3700000029}},{"attributes":{"ID":144260,"DIS_CODE":0,"TOWNNAME":"永康區","LI":"永康里","LIN":"37鄰","STREET":"大同街","SECT":" ","MAREA":" ","LANE":" ","ALLEY":" ","HOUSE_NO":"８０６號","E_COORD97":174498.28,"N_COORD97":2546814.1699999999,"ADDRESS":"大同街８０６號","OBJECTID":144260},"geometry":{"x":174498.28000000119,"y":2546814.1700000018}},{"attributes":{"ID":144261,"DIS_CODE":0,"TOWNNAME":"永康區","LI":"永康里","LIN":"34鄰","STREET":"大同街","SECT":" ","MAREA":" ","LANE":" ","ALLEY":" ","HOUSE_NO":"７８５號","E_COORD97":174430,"N_COORD97":2546952.75,"ADDRESS":"大同街７８５號","OBJECTID":144261},"geometry":{"x":174430.00000000093,"y":2546952.7500000019}},{"attributes":{"ID":144262,"DIS_CODE":0,"TOWNNAME":"南區","LI":"大恩里","LIN":"3鄰","STREET":"國民路","SECT":" ","MAREA":" ","LANE":"１１６巷","ALLEY":"９弄","HOUSE_NO":"１號","E_COORD97":169297.81,"N_COORD97":2540946.9399999999,"ADDRESS":"國民路１１６巷９弄１號","OBJECTID":144262},"geometry":{"x":169297.81000000052,"y":2540946.9400000013}},{"attributes":{"ID":144263,"DIS_CODE":0,"TOWNNAME":"永康區","LI":"永康里","LIN":"14鄰","STREET":"永康街","SECT":" ","MAREA":" ","LANE":" ","ALLEY":" ","HOUSE_NO":"１１５號","E_COORD97":173913.98000000001,"N_COORD97":2547113.6600000001,"ADDRESS":"永康街１１５號","OBJECTID":144263},"geometry":{"x":173913.98000000138,"y":2547113.6600000001}},{"attributes":{"ID":144264,"DIS_CODE":0,"TOWNNAME":"永康區","LI":"永康里","LIN":"14鄰","STREET":"永康街","SECT":" ","MAREA":" ","LANE":" ","ALLEY":" ","HOUSE_NO":"１１６號","E_COORD97":173890.92000000001,"N_COORD97":2547109.5800000001,"ADDRESS":"永康街１１６號","OBJECTID":144264},"geometry":{"x":173890.92000000179,"y":2547109.5800000019}},{"attributes":{"ID":144265,"DIS_CODE":0,"TOWNNAME":"南區","LI":"大恩里","LIN":"3鄰","STREET":"國民路","SECT":" ","MAREA":" ","LANE":"１１６巷","ALLEY":"９弄","HOUSE_NO":"２號","E_COORD97":169298.14999999999,"N_COORD97":2540964.1899999999,"ADDRESS":"國民路１１６巷９弄２號","OBJECTID":144265},"geometry":{"x":169298.1500000013,"y":2540964.1900000032}},{"attributes":{"ID":144266,"DIS_CODE":0,"TOWNNAME":"南區","LI":"大恩里","LIN":"3鄰","STREET":"國民路","SECT":" ","MAREA":" ","LANE":"１１６巷","ALLEY":"９弄","HOUSE_NO":"３號","E_COORD97":169291.29000000001,"N_COORD97":2540945.6800000002,"ADDRESS":"國民路１１６巷９弄３號","OBJECTID":144266},"geometry":{"x":169291.2900000019,"y":2540945.6800000016}},{"attributes":{"ID":144267,"DIS_CODE":0,"TOWNNAME":"南區","LI":"大恩里","LIN":"3鄰","STREET":"國民路","SECT":" ","MAREA":" ","LANE":"１１６巷","ALLEY":"９弄","HOUSE_NO":"４號","E_COORD97":169290.38,"N_COORD97":2540964.0699999998,"ADDRESS":"國民路１１６巷９弄４號","OBJECTID":144267},"geometry":{"x":169290.38000000175,"y":2540964.0700000022}},{"attributes":{"ID":144268,"DIS_CODE":0,"TOWNNAME":"永康區","LI":"復華里","LIN":"30鄰","STREET":"國華街","SECT":" ","MAREA":" ","LANE":" ","ALLEY":" ","HOUSE_NO":"１５４號","E_COORD97":172623.92000000001,"N_COORD97":2546280.0600000001,"ADDRESS":"國華街１５４號","OBJECTID":144268},"geometry":{"x":172623.91999999993,"y":2546280.0600000024}},{"attributes":{"ID":144269,"DIS_CODE":0,"TOWNNAME":"永康區","LI":"埔園里","LIN":"30鄰","STREET":"龍埔街","SECT":" ","MAREA":" ","LANE":" ","ALLEY":" ","HOUSE_NO":"４７０號","E_COORD97":173842.10000000001,"N_COORD97":2548353.9900000002,"ADDRESS":"龍埔街４７０號","OBJECTID":144269},"geometry":{"x":173842.10000000056,"y":2548353.9900000039}},{"attributes":{"ID":144270,"DIS_CODE":0,"TOWNNAME":"南區","LI":"大恩里","LIN":"3鄰","STREET":"國民路","SECT":" ","MAREA":" ","LANE":"１１６巷","ALLEY":"９弄","HOUSE_NO":"５號","E_COORD97":169283.98000000001,"N_COORD97":2540945.2200000002,"ADDRESS":"國民路１１６巷９弄５號","OBJECTID":144270},"geometry":{"x":169283.98000000138,"y":2540945.2200000044}},{"attributes":{"ID":144271,"DIS_CODE":0,"TOWNNAME":"永康區","LI":"埔園里","LIN":"30鄰","STREET":"龍埔街","SECT":" ","MAREA":" ","LANE":" ","ALLEY":" ","HOUSE_NO":"４８２號之２","E_COORD97":173807.17000000001,"N_COORD97":2548359.04,"ADDRESS":"龍埔街４８２號之２","OBJECTID":144271},"geometry":{"x":173807.16999999993,"y":2548359.0399999991}},{"attributes":{"ID":144272,"DIS_CODE":0,"TOWNNAME":"安定區","LI":"海寮里","LIN":"13鄰","STREET":" ","SECT":" ","MAREA":"海寮","LANE":" ","ALLEY":" ","HOUSE_NO":"１２６之２５號","E_COORD97":168991.98000000001,"N_COORD97":2555235.2999999998,"ADDRESS":"海寮１２６之２５號","OBJECTID":144272},"geometry":{"x":168991.98000000231,"y":2555235.3000000026}},{"attributes":{"ID":144273,"DIS_CODE":0,"TOWNNAME":"安定區","LI":"中沙里","LIN":"4鄰","STREET":" ","SECT":" ","MAREA":"中崙","LANE":" ","ALLEY":" ","HOUSE_NO":"１２７號之２","E_COORD97":169065.57999999999,"N_COORD97":2553202.2999999998,"ADDRESS":"中崙１２７號之２","OBJECTID":144273},"geometry":{"x":169065.58000000194,"y":2553202.3000000026}},{"attributes":{"ID":144274,"DIS_CODE":0,"TOWNNAME":"安定區","LI":"海寮里","LIN":"4鄰","STREET":" ","SECT":" ","MAREA":"海寮","LANE":" ","ALLEY":" ","HOUSE_NO":"４４號之２","E_COORD97":169654.35999999999,"N_COORD97":2555450.2999999998,"ADDRESS":"海寮４４號之２","OBJECTID":144274},"geometry":{"x":169654.36000000127,"y":2555450.3000000007}},{"attributes":{"ID":144275,"DIS_CODE":0,"TOWNNAME":"南區","LI":"大恩里","LIN":"3鄰","STREET":"國民路","SECT":" ","MAREA":" ","LANE":"１１６巷","ALLEY":"９弄","HOUSE_NO":"６號","E_COORD97":169283.29000000001,"N_COORD97":2540962.9300000002,"ADDRESS":"國民路１１６巷９弄６號","OBJECTID":144275},"geometry":{"x":169283.29000000097,"y":2540962.9300000034}},{"attributes":{"ID":144276,"DIS_CODE":0,"TOWNNAME":"安定區","LI":"海寮里","LIN":"4鄰","STREET":" ","SECT":" ","MAREA":"海寮","LANE":" ","ALLEY":" ","HOUSE_NO":"４０號","E_COORD97":169544.48999999999,"N_COORD97":2555364.25,"ADDRESS":"海寮４０號","OBJECTID":144276},"geometry":{"x":169544.49000000115,"y":2555364.2500000019}},{"attributes":{"ID":144277,"DIS_CODE":0,"TOWNNAME":"安定區","LI":"港口里","LIN":"20鄰","STREET":" ","SECT":" ","MAREA":"港口","LANE":" ","ALLEY":" ","HOUSE_NO":"３９３號之２１","E_COORD97":171524.88,"N_COORD97":2555016.2999999998,"ADDRESS":"港口３９３號之２１","OBJECTID":144277},"geometry":{"x":171524.88000000082,"y":2555016.3000000026}},{"attributes":{"ID":144278,"DIS_CODE":0,"TOWNNAME":"安定區","LI":"安加里","LIN":"14鄰","STREET":" ","SECT":" ","MAREA":"安定","LANE":" ","ALLEY":" ","HOUSE_NO":"３０１號","E_COORD97":171696.51999999999,"N_COORD97":2557463.3199999998,"ADDRESS":"安定３０１號","OBJECTID":144278},"geometry":{"x":171696.52000000048,"y":2557463.3200000022}},{"attributes":{"ID":144279,"DIS_CODE":0,"TOWNNAME":"南區","LI":"大恩里","LIN":"3鄰","STREET":"國民路","SECT":" ","MAREA":" ","LANE":"１１６巷","ALLEY":"９弄","HOUSE_NO":"７號","E_COORD97":169276.66,"N_COORD97":2540944.77,"ADDRESS":"國民路１１６巷９弄７號","OBJECTID":144279},"geometry":{"x":169276.66000000015,"y":2540944.7700000014}},{"attributes":{"ID":144280,"DIS_CODE":0,"TOWNNAME":"安定區","LI":"中沙里","LIN":"4鄰","STREET":" ","SECT":" ","MAREA":"中崙","LANE":" ","ALLEY":" ","HOUSE_NO":"１５４號","E_COORD97":169227.51000000001,"N_COORD97":2553153.25,"ADDRESS":"中崙１５４號","OBJECTID":144280},"geometry":{"x":169227.51000000071,"y":2553153.2500000019}},{"attributes":{"ID":144281,"DIS_CODE":0,"TOWNNAME":"南區","LI":"大恩里","LIN":"3鄰","STREET":"國民路","SECT":" ","MAREA":" ","LANE":"１１６巷","ALLEY":"９弄","HOUSE_NO":"８號","E_COORD97":169276.09,"N_COORD97":2540962.2400000002,"ADDRESS":"國民路１１６巷９弄８號","OBJECTID":144281},"geometry":{"x":169276.09000000078,"y":2540962.2400000021}},{"attributes":{"ID":144282,"DIS_CODE":0,"TOWNNAME":"安定區","LI":"六嘉里","LIN":"4鄰","STREET":" ","SECT":" ","MAREA":"六塊寮","LANE":" ","ALLEY":" ","HOUSE_NO":"２８之１號","E_COORD97":170005.25,"N_COORD97":2553493.2999999998,"ADDRESS":"六塊寮２８號之１","OBJECTID":144282},"geometry":{"x":170005.25000000186,"y":2553493.3000000026}},{"attributes":{"ID":144283,"DIS_CODE":0,"TOWNNAME":"永康區","LI":"安康里","LIN":"6鄰","STREET":"中華路","SECT":" ","MAREA":" ","LANE":"７２７巷","ALLEY":" ","HOUSE_NO":"５３號","E_COORD97":170702.01000000001,"N_COORD97":2546333.7400000002,"ADDRESS":"中華路７２７巷５３號","OBJECTID":144283},"geometry":{"x":170702.01000000071,"y":2546333.7400000002}},{"attributes":{"ID":144284,"DIS_CODE":0,"TOWNNAME":"永康區","LI":"埔園里","LIN":"30鄰","STREET":"龍埔街","SECT":" ","MAREA":" ","LANE":" ","ALLEY":" ","HOUSE_NO":"４５４號","E_COORD97":173882.56,"N_COORD97":2548353.1299999999,"ADDRESS":"龍埔街４５４號","OBJECTID":144284},"geometry":{"x":173882.55999999959,"y":2548353.1300000008}},{"attributes":{"ID":144285,"DIS_CODE":0,"TOWNNAME":"安定區","LI":"中沙里","LIN":"4鄰","STREET":" ","SECT":" ","MAREA":"中崙","LANE":" ","ALLEY":" ","HOUSE_NO":"１４８號","E_COORD97":169219.70999999999,"N_COORD97":2553203.25,"ADDRESS":"中崙１４８號","OBJECTID":144285},"geometry":{"x":169219.70999999996,"y":2553203.25}},{"attributes":{"ID":144286,"DIS_CODE":0,"TOWNNAME":"安定區","LI":"中沙里","LIN":"4鄰","STREET":" ","SECT":" ","MAREA":"中崙","LANE":" ","ALLEY":" ","HOUSE_NO":"１２０號之１","E_COORD97":169024.25,"N_COORD97":2553120.2999999998,"ADDRESS":"中崙１２０號之１","OBJECTID":144286},"geometry":{"x":169024.25000000093,"y":2553120.3000000026}},{"attributes":{"ID":144287,"DIS_CODE":0,"TOWNNAME":"安定區","LI":"六嘉里","LIN":"4鄰","STREET":" ","SECT":" ","MAREA":"六塊寮","LANE":" ","ALLEY":" ","HOUSE_NO":"３０號之７","E_COORD97":169681.92999999999,"N_COORD97":2553243.2999999998,"ADDRESS":"六塊寮３０號之７","OBJECTID":144287},"geometry":{"x":169681.93000000063,"y":2553243.3000000007}},{"attributes":{"ID":144288,"DIS_CODE":0,"TOWNNAME":"安定區","LI":"安定里","LIN":"4鄰","STREET":" ","SECT":" ","MAREA":"安定","LANE":" ","ALLEY":" ","HOUSE_NO":"１１之６號","E_COORD97":172524.07000000001,"N_COORD97":2558018.3199999998,"ADDRESS":"安定１１之６號","OBJECTID":144288},"geometry":{"x":172524.07000000216,"y":2558018.3200000022}},{"attributes":{"ID":144289,"DIS_CODE":0,"TOWNNAME":"安定區","LI":"安定里","LIN":"4鄰","STREET":" ","SECT":" ","MAREA":"安定","LANE":" ","ALLEY":" ","HOUSE_NO":"１１號之２","E_COORD97":172496.04000000001,"N_COORD97":2558054.3199999998,"ADDRESS":"安定１１號之２","OBJECTID":144289},"geometry":{"x":172496.04000000004,"y":2558054.3200000003}},{"attributes":{"ID":144290,"DIS_CODE":0,"TOWNNAME":"安定區","LI":"海寮里","LIN":"4鄰","STREET":" ","SECT":" ","MAREA":"海寮","LANE":" ","ALLEY":" ","HOUSE_NO":"４４之６號","E_COORD97":169658.98999999999,"N_COORD97":2555393.2999999998,"ADDRESS":"海寮４４之６號","OBJECTID":144290},"geometry":{"x":169658.99000000022,"y":2555393.3000000007}},{"attributes":{"ID":144291,"DIS_CODE":0,"TOWNNAME":"南區","LI":"大恩里","LIN":"3鄰","STREET":"國民路","SECT":" ","MAREA":" ","LANE":"１１６巷","ALLEY":"９弄","HOUSE_NO":"９號","E_COORD97":169269.79999999999,"N_COORD97":2540943.8500000001,"ADDRESS":"國民路１１６巷９弄９號","OBJECTID":144291},"geometry":{"x":169269.79999999981,"y":2540943.8500000015}},{"attributes":{"ID":144292,"DIS_CODE":0,"TOWNNAME":"永康區","LI":"崑山里","LIN":"30鄰","STREET":"大仁街","SECT":" ","MAREA":" ","LANE":" ","ALLEY":" ","HOUSE_NO":"９２之１號","E_COORD97":173857.07000000001,"N_COORD97":2544800.4900000002,"ADDRESS":"大仁街９２之１號","OBJECTID":144292},"geometry":{"x":173857.07000000123,"y":2544800.4900000002}},{"attributes":{"ID":144293,"DIS_CODE":0,"TOWNNAME":"永康區","LI":"崑山里","LIN":"30鄰","STREET":"大仁街","SECT":" ","MAREA":" ","LANE":" ","ALLEY":" ","HOUSE_NO":"８２號","E_COORD97":173839.23000000001,"N_COORD97":2544755.8199999998,"ADDRESS":"大仁街８２號","OBJECTID":144293},"geometry":{"x":173839.23000000138,"y":2544755.8200000022}},{"attributes":{"ID":144294,"DIS_CODE":0,"TOWNNAME":"仁德區","LI":"仁義里","LIN":"30鄰","STREET":"正義路","SECT":" ","MAREA":" ","LANE":" ","ALLEY":" ","HOUSE_NO":"１０３號","E_COORD97":173616.04000000001,"N_COORD97":2541441.02,"ADDRESS":"正義路１０３號","OBJECTID":144294},"geometry":{"x":173616.04000000097,"y":2541441.0200000014}},{"attributes":{"ID":144295,"DIS_CODE":0,"TOWNNAME":"新化區","LI":"豐榮里","LIN":"13鄰","STREET":"正新南路","SECT":" ","MAREA":" ","LANE":" ","ALLEY":" ","HOUSE_NO":"１８６號","E_COORD97":178738.17000000001,"N_COORD97":2547954.25,"ADDRESS":"正新南路１８６號","OBJECTID":144295},"geometry":{"x":178738.17000000086,"y":2547954.25}},{"attributes":{"ID":144296,"DIS_CODE":0,"TOWNNAME":"新化區","LI":"東榮里","LIN":"34鄰","STREET":"護安街","SECT":" ","MAREA":" ","LANE":" ","ALLEY":" ","HOUSE_NO":"９５號","E_COORD97":179187.88,"N_COORD97":2548430.2599999998,"ADDRESS":"護安街９５號","OBJECTID":144296},"geometry":{"x":179187.87999999989,"y":2548430.2600000016}},{"attributes":{"ID":144297,"DIS_CODE":0,"TOWNNAME":"新化區","LI":"東榮里","LIN":"4鄰","STREET":"信義路","SECT":" ","MAREA":" ","LANE":" ","ALLEY":" ","HOUSE_NO":"８５號之４","E_COORD97":179833.01000000001,"N_COORD97":2548691.2599999998,"ADDRESS":"信義路８５號之４","OBJECTID":144297},"geometry":{"x":179833.00999999978,"y":2548691.2600000016}},{"attributes":{"ID":144298,"DIS_CODE":0,"TOWNNAME":"新化區","LI":"協興里","LIN":"4鄰","STREET":"正新路","SECT":" ","MAREA":" ","LANE":" ","ALLEY":" ","HOUSE_NO":"２３３號","E_COORD97":178549.01999999999,"N_COORD97":2548455.25,"ADDRESS":"正新路２３３號","OBJECTID":144298},"geometry":{"x":178549.02000000048,"y":2548455.2500000019}},{"attributes":{"ID":144299,"DIS_CODE":0,"TOWNNAME":"新化區","LI":"協興里","LIN":"5鄰","STREET":"中山路","SECT":" ","MAREA":" ","LANE":" ","ALLEY":" ","HOUSE_NO":"６０４號","E_COORD97":178330.41,"N_COORD97":2548490.25,"ADDRESS":"中山路６０４號","OBJECTID":144299},"geometry":{"x":178330.41000000015,"y":2548490.25}},{"attributes":{"ID":144300,"DIS_CODE":0,"TOWNNAME":"新化區","LI":"武安里","LIN":"8鄰","STREET":"和平街","SECT":" ","MAREA":" ","LANE":" ","ALLEY":" ","HOUSE_NO":"１５４號","E_COORD97":178910.92000000001,"N_COORD97":2548237.25,"ADDRESS":"和平街１５４號","OBJECTID":144300},"geometry":{"x":178910.92000000086,"y":2548237.2500000019}},{"attributes":{"ID":144301,"DIS_CODE":0,"TOWNNAME":"東區","LI":"富裕里","LIN":"15鄰","STREET":"東門路","SECT":"二段","MAREA":" ","LANE":"３０１巷","ALLEY":"７３弄","HOUSE_NO":"３之１號","E_COORD97":170890.54000000001,"N_COORD97":2542751.6699999999,"ADDRESS":"東門路二段３０１巷７３弄３之１號","OBJECTID":144301},"geometry":{"x":170890.54000000097,"y":2542751.6700000037}},{"attributes":{"ID":144302,"DIS_CODE":0,"TOWNNAME":"東區","LI":"裕農里","LIN":"20鄰","STREET":"裕豐街","SECT":" ","MAREA":" ","LANE":"２２２巷","ALLEY":"４３弄","HOUSE_NO":"１８號","E_COORD97":170879.14000000001,"N_COORD97":2543276.1299999999,"ADDRESS":"裕豐街２２２巷４３弄１８號","OBJECTID":144302},"geometry":{"x":170879.1400000006,"y":2543276.1299999971}},{"attributes":{"ID":144303,"DIS_CODE":0,"TOWNNAME":"東區","LI":"新東里","LIN":"8鄰","STREET":"衛國街","SECT":" ","MAREA":" ","LANE":"１０６巷","ALLEY":"１７弄","HOUSE_NO":"４２之１號","E_COORD97":170530.69,"N_COORD97":2543018.52,"ADDRESS":"衛國街１０６巷１７弄４２之１號","OBJECTID":144303},"geometry":{"x":170530.69000000041,"y":2543018.5199999996}},{"attributes":{"ID":144304,"DIS_CODE":0,"TOWNNAME":"東區","LI":"富強里","LIN":"7鄰","STREET":"中華東路","SECT":"二段","MAREA":" ","LANE":"４８巷","ALLEY":"２５弄","HOUSE_NO":"３５號","E_COORD97":171295.13,"N_COORD97":2542905.8100000001,"ADDRESS":"中華東路二段４８巷２５弄３５號","OBJECTID":144304},"geometry":{"x":171295.12999999989,"y":2542905.8100000005}},{"attributes":{"ID":144305,"DIS_CODE":0,"TOWNNAME":"東區","LI":"忠孝里","LIN":"38鄰","STREET":"中華東路","SECT":"三段","MAREA":" ","LANE":"３８０巷","ALLEY":"５５弄","HOUSE_NO":"４號","E_COORD97":169957.98000000001,"N_COORD97":2541708.02,"ADDRESS":"中華東路三段３８０巷５５弄４號","OBJECTID":144305},"geometry":{"x":169957.98000000045,"y":2541708.0200000033}},{"attributes":{"ID":144306,"DIS_CODE":0,"TOWNNAME":"東區","LI":"忠孝里","LIN":"38鄰","STREET":"中華東路","SECT":"三段","MAREA":" ","LANE":"３８０巷","ALLEY":"５５弄","HOUSE_NO":"１０號","E_COORD97":169948.19,"N_COORD97":2541700.2000000002,"ADDRESS":"中華東路三段３８０巷５５弄１０號","OBJECTID":144306},"geometry":{"x":169948.18999999948,"y":2541700.2000000011}},{"attributes":{"ID":144307,"DIS_CODE":0,"TOWNNAME":"東區","LI":"忠孝里","LIN":"28鄰","STREET":"中華東路","SECT":"三段","MAREA":" ","LANE":"３８０巷","ALLEY":"５５弄","HOUSE_NO":"１１號","E_COORD97":169953.85000000001,"N_COORD97":2541685.8100000001,"ADDRESS":"中華東路三段３８０巷５５弄１１號","OBJECTID":144307},"geometry":{"x":169953.85000000056,"y":2541685.8100000005}},{"attributes":{"ID":144308,"DIS_CODE":0,"TOWNNAME":"東區","LI":"忠孝里","LIN":"7鄰","STREET":"中華東路","SECT":"三段","MAREA":" ","LANE":"３８０巷","ALLEY":"５５弄","HOUSE_NO":"３４號","E_COORD97":169897.79000000001,"N_COORD97":2541672.2599999998,"ADDRESS":"中華東路三段３８０巷５５弄３４號","OBJECTID":144308},"geometry":{"x":169897.79000000004,"y":2541672.2599999998}},{"attributes":{"ID":144309,"DIS_CODE":0,"TOWNNAME":"東區","LI":"忠孝里","LIN":"7鄰","STREET":"中華東路","SECT":"三段","MAREA":" ","LANE":"３８０巷","ALLEY":"５５弄","HOUSE_NO":"３６號","E_COORD97":169894.64000000001,"N_COORD97":2541670.1099999999,"ADDRESS":"中華東路三段３８０巷５５弄３６號","OBJECTID":144309},"geometry":{"x":169894.63999999966,"y":2541670.1100000031}},{"attributes":{"ID":144310,"DIS_CODE":0,"TOWNNAME":"東區","LI":"忠孝里","LIN":"7鄰","STREET":"中華東路","SECT":"三段","MAREA":" ","LANE":"３８０巷","ALLEY":"５５弄","HOUSE_NO":"３８號","E_COORD97":169890.67000000001,"N_COORD97":2541667.1299999999,"ADDRESS":"中華東路三段３８０巷５５弄３８號","OBJECTID":144310},"geometry":{"x":169890.67000000086,"y":2541667.1300000008}},{"attributes":{"ID":144311,"DIS_CODE":0,"TOWNNAME":"南區","LI":"省躬里","LIN":"3鄰","STREET":"灣裡路","SECT":" ","MAREA":" ","LANE":"８８巷","ALLEY":"３弄","HOUSE_NO":"３１號","E_COORD97":165949.76999999999,"N_COORD97":2536753.8599999999,"ADDRESS":"灣裡路８８巷３弄３１號","OBJECTID":144311},"geometry":{"x":165949.77000000048,"y":2536753.8600000013}},{"attributes":{"ID":144312,"DIS_CODE":0,"TOWNNAME":"東區","LI":"忠孝里","LIN":"7鄰","STREET":"中華東路","SECT":"三段","MAREA":" ","LANE":"３８０巷","ALLEY":"５５弄","HOUSE_NO":"４０號","E_COORD97":169886.53,"N_COORD97":2541664.8199999998,"ADDRESS":"中華東路三段３８０巷５５弄４０號","OBJECTID":144312},"geometry":{"x":169886.53000000212,"y":2541664.8200000003}},{"attributes":{"ID":144313,"DIS_CODE":0,"TOWNNAME":"東區","LI":"忠孝里","LIN":"7鄰","STREET":"中華東路","SECT":"三段","MAREA":" ","LANE":"３８０巷","ALLEY":"５５弄","HOUSE_NO":"４２號","E_COORD97":169882.72,"N_COORD97":2541663.48,"ADDRESS":"中華東路三段３８０巷５５弄４２號","OBJECTID":144313},"geometry":{"x":169882.71999999974,"y":2541663.4800000004}},{"attributes":{"ID":144314,"DIS_CODE":0,"TOWNNAME":"東區","LI":"忠孝里","LIN":"7鄰","STREET":"中華東路","SECT":"三段","MAREA":" ","LANE":"３８０巷","ALLEY":"５５弄","HOUSE_NO":"４４號","E_COORD97":169879.16,"N_COORD97":2541660.98,"ADDRESS":"中華東路三段３８０巷５５弄４４號","OBJECTID":144314},"geometry":{"x":169879.16000000108,"y":2541660.9800000004}},{"attributes":{"ID":144315,"DIS_CODE":0,"TOWNNAME":"東區","LI":"忠孝里","LIN":"7鄰","STREET":"中華東路","SECT":"三段","MAREA":" ","LANE":"３８０巷","ALLEY":"５５弄","HOUSE_NO":"４６號","E_COORD97":169875.76999999999,"N_COORD97":2541658.54,"ADDRESS":"中華東路三段３８０巷５５弄４６號","OBJECTID":144315},"geometry":{"x":169875.77000000142,"y":2541658.5399999991}},{"attributes":{"ID":144316,"DIS_CODE":0,"TOWNNAME":"東區","LI":"忠孝里","LIN":"7鄰","STREET":"中華東路","SECT":"三段","MAREA":" ","LANE":"３８０巷","ALLEY":"５５弄","HOUSE_NO":"４８號","E_COORD97":169871.29999999999,"N_COORD97":2541656.8799999999,"ADDRESS":"中華東路三段３８０巷５５弄４８號","OBJECTID":144316},"geometry":{"x":169871.30000000075,"y":2541656.879999999}},{"attributes":{"ID":144317,"DIS_CODE":0,"TOWNNAME":"新化區","LI":"東榮里","LIN":"20鄰","STREET":"民生路","SECT":" ","MAREA":" ","LANE":" ","ALLEY":" ","HOUSE_NO":"２１號","E_COORD97":179420.85999999999,"N_COORD97":2548297.25,"ADDRESS":"民生路２１號","OBJECTID":144317},"geometry":{"x":179420.86000000034,"y":2548297.25}},{"attributes":{"ID":144318,"DIS_CODE":0,"TOWNNAME":"新化區","LI":"東榮里","LIN":"13鄰","STREET":"中興路","SECT":" ","MAREA":" ","LANE":" ","ALLEY":" ","HOUSE_NO":"５７５號","E_COORD97":179883.60999999999,"N_COORD97":2547929.25,"ADDRESS":"中興路５７５號","OBJECTID":144318},"geometry":{"x":179883.61000000034,"y":2547929.2500000019}},{"attributes":{"ID":144319,"DIS_CODE":0,"TOWNNAME":"新化區","LI":"清水里","LIN":"8鄰","STREET":"忠孝路","SECT":" ","MAREA":" ","LANE":" ","ALLEY":" ","HOUSE_NO":"１４３號","E_COORD97":178675.32000000001,"N_COORD97":2548627.25,"ADDRESS":"忠孝路１４３號","OBJECTID":144319},"geometry":{"x":178675.3200000003,"y":2548627.2500000019}},{"attributes":{"ID":144320,"DIS_CODE":0,"TOWNNAME":"新化區","LI":"中央里","LIN":"4鄰","STREET":"中山路","SECT":" ","MAREA":" ","LANE":" ","ALLEY":" ","HOUSE_NO":"３０１號","E_COORD97":178969.41,"N_COORD97":2548412.25,"ADDRESS":"中山路３０１號","OBJECTID":144320},"geometry":{"x":178969.41000000015,"y":2548412.25}},{"attributes":{"ID":144321,"DIS_CODE":0,"TOWNNAME":"安定區","LI":"港口里","LIN":"20鄰","STREET":" ","SECT":" ","MAREA":"港口","LANE":" ","ALLEY":" ","HOUSE_NO":"３９３號之２２","E_COORD97":171523.20999999999,"N_COORD97":2555020.2999999998,"ADDRESS":"港口３９３號之２２","OBJECTID":144321},"geometry":{"x":171523.21000000089,"y":2555020.3000000007}},{"attributes":{"ID":144322,"DIS_CODE":0,"TOWNNAME":"安定區","LI":"港口里","LIN":"14鄰","STREET":" ","SECT":" ","MAREA":"港口","LANE":" ","ALLEY":" ","HOUSE_NO":"３３２之１２號","E_COORD97":171155.73999999999,"N_COORD97":2554730.2999999998,"ADDRESS":"港口３３２之１２號","OBJECTID":144322},"geometry":{"x":171155.74000000022,"y":2554730.3000000026}},{"attributes":{"ID":144323,"DIS_CODE":0,"TOWNNAME":"永康區","LI":"五王里","LIN":"30鄰","STREET":"中山東路","SECT":" ","MAREA":" ","LANE":" ","ALLEY":" ","HOUSE_NO":"１８０號","E_COORD97":171754.06,"N_COORD97":2545811.1000000001,"ADDRESS":"中山東路１８０號","OBJECTID":144323},"geometry":{"x":171754.06000000052,"y":2545811.1000000015}},{"attributes":{"ID":144324,"DIS_CODE":0,"TOWNNAME":"永康區","LI":"五王里","LIN":"30鄰","STREET":"中山東路","SECT":" ","MAREA":" ","LANE":" ","ALLEY":" ","HOUSE_NO":"１７０號","E_COORD97":171747.42999999999,"N_COORD97":2545831.6699999999,"ADDRESS":"中山東路１７０號","OBJECTID":144324},"geometry":{"x":171747.4299999997,"y":2545831.6700000018}},{"attributes":{"ID":144325,"DIS_CODE":0,"TOWNNAME":"新化區","LI":"東榮里","LIN":"13鄰","STREET":"中興路","SECT":" ","MAREA":" ","LANE":" ","ALLEY":" ","HOUSE_NO":"５７１號","E_COORD97":179891.81,"N_COORD97":2547925.25,"ADDRESS":"中興路５７１號","OBJECTID":144325},"geometry":{"x":179891.80999999959,"y":2547925.2500000019}},{"attributes":{"ID":144326,"DIS_CODE":0,"TOWNNAME":"新化區","LI":"協興里","LIN":"4鄰","STREET":"中山路","SECT":" ","MAREA":" ","LANE":" ","ALLEY":" ","HOUSE_NO":"５２６號","E_COORD97":178524.31,"N_COORD97":2548439.25,"ADDRESS":"中山路５２６號","OBJECTID":144326},"geometry":{"x":178524.31000000145,"y":2548439.25}},{"attributes":{"ID":144327,"DIS_CODE":0,"TOWNNAME":"新化區","LI":"太平里","LIN":"13鄰","STREET":"中正路","SECT":" ","MAREA":" ","LANE":" ","ALLEY":" ","HOUSE_NO":"６１３號","E_COORD97":178936.41,"N_COORD97":2548868.25,"ADDRESS":"中正路６１３號","OBJECTID":144327},"geometry":{"x":178936.41000000108,"y":2548868.2500000019}},{"attributes":{"ID":144328,"DIS_CODE":0,"TOWNNAME":"新化區","LI":"東榮里","LIN":"34鄰","STREET":"護安街","SECT":" ","MAREA":" ","LANE":" ","ALLEY":" ","HOUSE_NO":"８１號","E_COORD97":179193.98000000001,"N_COORD97":2548397.2599999998,"ADDRESS":"護安街８１號","OBJECTID":144328},"geometry":{"x":179193.98000000138,"y":2548397.2600000016}},{"attributes":{"ID":144329,"DIS_CODE":0,"TOWNNAME":"新化區","LI":"豐榮里","LIN":"7鄰","STREET":"大智路","SECT":" ","MAREA":" ","LANE":" ","ALLEY":" ","HOUSE_NO":"２６６號","E_COORD97":177890.23000000001,"N_COORD97":2547955.25,"ADDRESS":"大智路２６６號","OBJECTID":144329},"geometry":{"x":177890.23000000138,"y":2547955.2499999981}},{"attributes":{"ID":144330,"DIS_CODE":0,"TOWNNAME":"新化區","LI":"東榮里","LIN":"20鄰","STREET":"信義路","SECT":" ","MAREA":" ","LANE":" ","ALLEY":" ","HOUSE_NO":"１４７號","E_COORD97":179367.63,"N_COORD97":2548404.25,"ADDRESS":"信義路１４７號","OBJECTID":144330},"geometry":{"x":179367.62999999989,"y":2548404.2500000019}},{"attributes":{"ID":144331,"DIS_CODE":0,"TOWNNAME":"新化區","LI":"協興里","LIN":"1鄰","STREET":"忠孝路","SECT":" ","MAREA":" ","LANE":" ","ALLEY":" ","HOUSE_NO":"１６７號","E_COORD97":178599.12,"N_COORD97":2548612.25,"ADDRESS":"忠孝路１６７號","OBJECTID":144331},"geometry":{"x":178599.12000000197,"y":2548612.25}},{"attributes":{"ID":144332,"DIS_CODE":0,"TOWNNAME":"新化區","LI":"協興里","LIN":"4鄰","STREET":"正新路","SECT":" ","MAREA":" ","LANE":" ","ALLEY":" ","HOUSE_NO":"２４３號","E_COORD97":178554.22,"N_COORD97":2548480.25,"ADDRESS":"正新路２４３號","OBJECTID":144332},"geometry":{"x":178554.22000000067,"y":2548480.25}},{"attributes":{"ID":144333,"DIS_CODE":0,"TOWNNAME":"新化區","LI":"東榮里","LIN":"4鄰","STREET":"信義路","SECT":" ","MAREA":" ","LANE":" ","ALLEY":" ","HOUSE_NO":"８３號","E_COORD97":179872.78,"N_COORD97":2548705.25,"ADDRESS":"信義路８３號","OBJECTID":144333},"geometry":{"x":179872.77999999933,"y":2548705.2500000019}},{"attributes":{"ID":144334,"DIS_CODE":0,"TOWNNAME":"東區","LI":"忠孝里","LIN":"28鄰","STREET":"中華東路","SECT":"三段","MAREA":" ","LANE":"３８０巷","ALLEY":"５５弄","HOUSE_NO":"３５號","E_COORD97":169908.42999999999,"N_COORD97":2541657.4199999999,"ADDRESS":"中華東路三段３８０巷５５弄３５號","OBJECTID":144334},"geometry":{"x":169908.4299999997,"y":2541657.4199999999}},{"attributes":{"ID":144335,"DIS_CODE":0,"TOWNNAME":"東區","LI":"忠孝里","LIN":"28鄰","STREET":"中華東路","SECT":"三段","MAREA":" ","LANE":"３８０巷","ALLEY":"５５弄","HOUSE_NO":"３７號","E_COORD97":169905.38,"N_COORD97":2541655.4500000002,"ADDRESS":"中華東路三段３８０巷５５弄３７號","OBJECTID":144335},"geometry":{"x":169905.37999999989,"y":2541655.4500000011}},{"attributes":{"ID":144336,"DIS_CODE":0,"TOWNNAME":"東區","LI":"忠孝里","LIN":"28鄰","STREET":"中華東路","SECT":"三段","MAREA":" ","LANE":"３８０巷","ALLEY":"５５弄","HOUSE_NO":"３號","E_COORD97":169974.53,"N_COORD97":2541698.6600000001,"ADDRESS":"中華東路三段３８０巷５５弄３號","OBJECTID":144336},"geometry":{"x":169974.53000000026,"y":2541698.660000002}},{"attributes":{"ID":144337,"DIS_CODE":0,"TOWNNAME":"安平區","LI":"國平里","LIN":"3鄰","STREET":"文平路","SECT":" ","MAREA":" ","LANE":"１８７巷","ALLEY":"８８弄","HOUSE_NO":"１３號","E_COORD97":165474.45000000001,"N_COORD97":2543144.71,"ADDRESS":"文平路１８７巷８８弄１３號","OBJECTID":144337},"geometry":{"x":165474.45000000205,"y":2543144.7100000009}},{"attributes":{"ID":144338,"DIS_CODE":0,"TOWNNAME":"安平區","LI":"國平里","LIN":"3鄰","STREET":"文平路","SECT":" ","MAREA":" ","LANE":"１８７巷","ALLEY":"８８弄","HOUSE_NO":"１５號","E_COORD97":165475.42999999999,"N_COORD97":2543149.3900000001,"ADDRESS":"文平路１８７巷８８弄１５號","OBJECTID":144338},"geometry":{"x":165475.4299999997,"y":2543149.3900000006}},{"attributes":{"ID":144339,"DIS_CODE":0,"TOWNNAME":"安平區","LI":"國平里","LIN":"3鄰","STREET":"文平路","SECT":" ","MAREA":" ","LANE":"１８７巷","ALLEY":"８８弄","HOUSE_NO":"１７號","E_COORD97":165475.23000000001,"N_COORD97":2543154.6600000001,"ADDRESS":"文平路１８７巷８８弄１７號","OBJECTID":144339},"geometry":{"x":165475.23000000138,"y":2543154.6600000001}},{"attributes":{"ID":144340,"DIS_CODE":0,"TOWNNAME":"新化區","LI":"協興里","LIN":"8鄰","STREET":"太平街","SECT":" ","MAREA":" ","LANE":" ","ALLEY":" ","HOUSE_NO":"１１８號","E_COORD97":178491.32000000001,"N_COORD97":2548722.25,"ADDRESS":"太平街１１８號","OBJECTID":144340},"geometry":{"x":178491.32000000123,"y":2548722.2500000019}},{"attributes":{"ID":144341,"DIS_CODE":0,"TOWNNAME":"安平區","LI":"文平里","LIN":"3鄰","STREET":"中華西路","SECT":"二段","MAREA":" ","LANE":"４９巷","ALLEY":"２４弄","HOUSE_NO":"４０號","E_COORD97":166564.41,"N_COORD97":2543098.23,"ADDRESS":"中華西路二段４９巷２４弄４０號","OBJECTID":144341},"geometry":{"x":166564.41000000015,"y":2543098.2300000023}},{"attributes":{"ID":144342,"DIS_CODE":0,"TOWNNAME":"安平區","LI":"文平里","LIN":"3鄰","STREET":"中華西路","SECT":"二段","MAREA":" ","LANE":"４９巷","ALLEY":"２４弄","HOUSE_NO":"４２號","E_COORD97":166564.84,"N_COORD97":2543104.2000000002,"ADDRESS":"中華西路二段４９巷２４弄４２號","OBJECTID":144342},"geometry":{"x":166564.84000000171,"y":2543104.2000000011}},{"attributes":{"ID":144343,"DIS_CODE":0,"TOWNNAME":"安平區","LI":"文平里","LIN":"3鄰","STREET":"中華西路","SECT":"二段","MAREA":" ","LANE":"４９巷","ALLEY":"２４弄","HOUSE_NO":"６號","E_COORD97":166560.04000000001,"N_COORD97":2543062.8399999999,"ADDRESS":"中華西路二段４９巷２４弄６號","OBJECTID":144343},"geometry":{"x":166560.04000000004,"y":2543062.8400000017}},{"attributes":{"ID":144344,"DIS_CODE":0,"TOWNNAME":"南區","LI":"省躬里","LIN":"3鄰","STREET":"灣裡路","SECT":" ","MAREA":" ","LANE":"８８巷","ALLEY":"３弄","HOUSE_NO":"３３號","E_COORD97":165935.07000000001,"N_COORD97":2536743.8500000001,"ADDRESS":"灣裡路８８巷３弄３３號","OBJECTID":144344},"geometry":{"x":165935.07000000123,"y":2536743.8500000015}},{"attributes":{"ID":144345,"DIS_CODE":0,"TOWNNAME":"南區","LI":"省躬里","LIN":"3鄰","STREET":"灣裡路","SECT":" ","MAREA":" ","LANE":"８８巷","ALLEY":"３弄","HOUSE_NO":"３５號","E_COORD97":165934.79999999999,"N_COORD97":2536739.23,"ADDRESS":"灣裡路８８巷３弄３５號","OBJECTID":144345},"geometry":{"x":165934.80000000075,"y":2536739.2300000004}},{"attributes":{"ID":144346,"DIS_CODE":0,"TOWNNAME":"南區","LI":"省躬里","LIN":"3鄰","STREET":"灣裡路","SECT":" ","MAREA":" ","LANE":"８８巷","ALLEY":"３弄","HOUSE_NO":"１１號","E_COORD97":165955.22,"N_COORD97":2536786.54,"ADDRESS":"灣裡路８８巷３弄１１號","OBJECTID":144346},"geometry":{"x":165955.2200000016,"y":2536786.5399999991}},{"attributes":{"ID":144347,"DIS_CODE":0,"TOWNNAME":"南區","LI":"省躬里","LIN":"3鄰","STREET":"灣裡路","SECT":" ","MAREA":" ","LANE":"８８巷","ALLEY":"３弄","HOUSE_NO":"１７號","E_COORD97":165943.78,"N_COORD97":2536784.0899999999,"ADDRESS":"灣裡路８８巷３弄１７號","OBJECTID":144347},"geometry":{"x":165943.78000000119,"y":2536784.0899999999}},{"attributes":{"ID":144348,"DIS_CODE":0,"TOWNNAME":"南區","LI":"省躬里","LIN":"3鄰","STREET":"灣裡路","SECT":" ","MAREA":" ","LANE":"８８巷","ALLEY":"３弄","HOUSE_NO":"２１號","E_COORD97":165951.67999999999,"N_COORD97":2536775.3900000001,"ADDRESS":"灣裡路８８巷３弄２１號","OBJECTID":144348},"geometry":{"x":165951.6799999997,"y":2536775.3900000006}},{"attributes":{"ID":144349,"DIS_CODE":0,"TOWNNAME":"南區","LI":"省躬里","LIN":"3鄰","STREET":"灣裡路","SECT":" ","MAREA":" ","LANE":"８８巷","ALLEY":"３弄","HOUSE_NO":"２５號","E_COORD97":165967.20000000001,"N_COORD97":2536779.7400000002,"ADDRESS":"灣裡路８８巷３弄２５號","OBJECTID":144349},"geometry":{"x":165967.20000000019,"y":2536779.7400000002}},{"attributes":{"ID":144350,"DIS_CODE":0,"TOWNNAME":"南區","LI":"省躬里","LIN":"3鄰","STREET":"灣裡路","SECT":" ","MAREA":" ","LANE":"８８巷","ALLEY":"３弄","HOUSE_NO":"７號","E_COORD97":165942.97,"N_COORD97":2536797.1400000001,"ADDRESS":"灣裡路８８巷３弄７號","OBJECTID":144350},"geometry":{"x":165942.96999999974,"y":2536797.1400000025}},{"attributes":{"ID":144351,"DIS_CODE":0,"TOWNNAME":"南區","LI":"省躬里","LIN":"3鄰","STREET":"灣裡路","SECT":" ","MAREA":" ","LANE":"８８巷","ALLEY":"３弄","HOUSE_NO":"９號","E_COORD97":165945.14000000001,"N_COORD97":2536790.6099999999,"ADDRESS":"灣裡路８８巷３弄９號","OBJECTID":144351},"geometry":{"x":165945.13999999966,"y":2536790.6099999994}},{"attributes":{"ID":144352,"DIS_CODE":0,"TOWNNAME":"新化區","LI":"東榮里","LIN":"15鄰","STREET":"中興路","SECT":" ","MAREA":" ","LANE":" ","ALLEY":" ","HOUSE_NO":"６４２號","E_COORD97":179723.60999999999,"N_COORD97":2548037.25,"ADDRESS":"中興路６４２號","OBJECTID":144352},"geometry":{"x":179723.61000000127,"y":2548037.2500000019}},{"attributes":{"ID":144353,"DIS_CODE":0,"TOWNNAME":"安定區","LI":"中沙里","LIN":"4鄰","STREET":" ","SECT":" ","MAREA":"中崙","LANE":" ","ALLEY":" ","HOUSE_NO":"１３６之２號","E_COORD97":169135.41,"N_COORD97":2553216.2999999998,"ADDRESS":"中崙１３６之２號","OBJECTID":144353},"geometry":{"x":169135.41000000015,"y":2553216.3000000007}},{"attributes":{"ID":144354,"DIS_CODE":0,"TOWNNAME":"安定區","LI":"海寮里","LIN":"4鄰","STREET":" ","SECT":" ","MAREA":"海寮","LANE":" ","ALLEY":" ","HOUSE_NO":"４４號","E_COORD97":169622.48999999999,"N_COORD97":2555442.25,"ADDRESS":"海寮４４號","OBJECTID":144354},"geometry":{"x":169622.49000000115,"y":2555442.2500000019}},{"attributes":{"ID":144355,"DIS_CODE":0,"TOWNNAME":"安定區","LI":"南安里","LIN":"4鄰","STREET":" ","SECT":" ","MAREA":"油車","LANE":" ","ALLEY":" ","HOUSE_NO":"３８之１１號","E_COORD97":170689.59,"N_COORD97":2555528.2999999998,"ADDRESS":"油車３８之１１號","OBJECTID":144355},"geometry":{"x":170689.59000000078,"y":2555528.3000000007}},{"attributes":{"ID":144356,"DIS_CODE":0,"TOWNNAME":"南區","LI":"鯤鯓里","LIN":"3鄰","STREET":"鯤鯓路","SECT":" ","MAREA":" ","LANE":"１０４巷","ALLEY":"１２弄","HOUSE_NO":"６號","E_COORD97":165040.39999999999,"N_COORD97":2540111.2400000002,"ADDRESS":"鯤鯓路１０４巷１２弄６號","OBJECTID":144356},"geometry":{"x":165040.40000000037,"y":2540111.2400000021}},{"attributes":{"ID":144357,"DIS_CODE":0,"TOWNNAME":"安定區","LI":"中沙里","LIN":"4鄰","STREET":" ","SECT":" ","MAREA":"中崙","LANE":" ","ALLEY":" ","HOUSE_NO":"１６０號","E_COORD97":169109.20999999999,"N_COORD97":2552929.25,"ADDRESS":"中崙１６０號","OBJECTID":144357},"geometry":{"x":169109.21000000089,"y":2552929.2500000037}},{"attributes":{"ID":144358,"DIS_CODE":0,"TOWNNAME":"安定區","LI":"港口里","LIN":"20鄰","STREET":" ","SECT":" ","MAREA":"港口","LANE":" ","ALLEY":" ","HOUSE_NO":"３９９之５３號","E_COORD97":171595.34,"N_COORD97":2554955.2999999998,"ADDRESS":"港口３９９之５３號","OBJECTID":144358},"geometry":{"x":171595.33999999985,"y":2554955.3000000007}},{"attributes":{"ID":144359,"DIS_CODE":0,"TOWNNAME":"安定區","LI":"港口里","LIN":"14鄰","STREET":" ","SECT":" ","MAREA":"港口","LANE":" ","ALLEY":" ","HOUSE_NO":"３３３之２１號","E_COORD97":170039.14000000001,"N_COORD97":2554604.2999999998,"ADDRESS":"港口３３３之２１號","OBJECTID":144359},"geometry":{"x":170039.13999999966,"y":2554604.3000000045}},{"attributes":{"ID":144360,"DIS_CODE":0,"TOWNNAME":"南區","LI":"大恩里","LIN":"3鄰","STREET":"國民路","SECT":" ","MAREA":" ","LANE":"１１６巷","ALLEY":"３弄","HOUSE_NO":"２號","E_COORD97":169298.81,"N_COORD97":2540934.4399999999,"ADDRESS":"國民路１１６巷３弄２號","OBJECTID":144360},"geometry":{"x":169298.80999999959,"y":2540934.4399999995}},{"attributes":{"ID":144361,"DIS_CODE":0,"TOWNNAME":"南區","LI":"大恩里","LIN":"3鄰","STREET":"國民路","SECT":" ","MAREA":" ","LANE":"１１６巷","ALLEY":"３弄","HOUSE_NO":"４號","E_COORD97":169292.07000000001,"N_COORD97":2540933.2999999998,"ADDRESS":"國民路１１６巷３弄４號","OBJECTID":144361},"geometry":{"x":169292.07000000123,"y":2540933.3000000007}},{"attributes":{"ID":144362,"DIS_CODE":0,"TOWNNAME":"安定區","LI":"港口里","LIN":"14鄰","STREET":" ","SECT":" ","MAREA":"港口","LANE":" ","ALLEY":" ","HOUSE_NO":"３３３號之５","E_COORD97":171152.07999999999,"N_COORD97":2554755.2999999998,"ADDRESS":"港口３３３號之５","OBJECTID":144362},"geometry":{"x":171152.08000000007,"y":2554755.3000000007}},{"attributes":{"ID":144363,"DIS_CODE":0,"TOWNNAME":"安定區","LI":"海寮里","LIN":"4鄰","STREET":" ","SECT":" ","MAREA":"海寮","LANE":" ","ALLEY":" ","HOUSE_NO":"４５號","E_COORD97":169587.48999999999,"N_COORD97":2555441.25,"ADDRESS":"海寮４５號","OBJECTID":144363},"geometry":{"x":169587.49000000115,"y":2555441.2500000037}},{"attributes":{"ID":144364,"DIS_CODE":0,"TOWNNAME":"安定區","LI":"海寮里","LIN":"18鄰","STREET":" ","SECT":" ","MAREA":"海寮","LANE":" ","ALLEY":" ","HOUSE_NO":"１７３號","E_COORD97":169332.34,"N_COORD97":2555516.25,"ADDRESS":"海寮１７３號","OBJECTID":144364},"geometry":{"x":169332.33999999985,"y":2555516.2500000019}},{"attributes":{"ID":144365,"DIS_CODE":0,"TOWNNAME":"安定區","LI":"港口里","LIN":"20鄰","STREET":" ","SECT":" ","MAREA":"港口","LANE":" ","ALLEY":" ","HOUSE_NO":"３９３號之５","E_COORD97":171551.88,"N_COORD97":2554991.2999999998,"ADDRESS":"港口３９３號之５","OBJECTID":144365},"geometry":{"x":171551.88000000175,"y":2554991.3000000026}},{"attributes":{"ID":144366,"DIS_CODE":0,"TOWNNAME":"安定區","LI":"港口里","LIN":"20鄰","STREET":" ","SECT":" ","MAREA":"港口","LANE":" ","ALLEY":" ","HOUSE_NO":"３９３號之１１","E_COORD97":171531.17999999999,"N_COORD97":2555023.2999999998,"ADDRESS":"港口３９３號之１１","OBJECTID":144366},"geometry":{"x":171531.18000000063,"y":2555023.3000000007}},{"attributes":{"ID":144367,"DIS_CODE":0,"TOWNNAME":"南區","LI":"大恩里","LIN":"3鄰","STREET":"國民路","SECT":" ","MAREA":" ","LANE":"１１６巷","ALLEY":"３弄","HOUSE_NO":"６號","E_COORD97":169285.10000000001,"N_COORD97":2540933.2999999998,"ADDRESS":"國民路１１６巷３弄６號","OBJECTID":144367},"geometry":{"x":169285.09999999963,"y":2540933.3000000007}},{"attributes":{"ID":144368,"DIS_CODE":0,"TOWNNAME":"安定區","LI":"海寮里","LIN":"13鄰","STREET":" ","SECT":" ","MAREA":"海寮","LANE":" ","ALLEY":" ","HOUSE_NO":"１２６之４１號","E_COORD97":168967.29000000001,"N_COORD97":2555296.2999999998,"ADDRESS":"海寮１２６之４１號","OBJECTID":144368},"geometry":{"x":168967.29000000004,"y":2555296.3000000026}},{"attributes":{"ID":144369,"DIS_CODE":0,"TOWNNAME":"南區","LI":"大恩里","LIN":"3鄰","STREET":"國民路","SECT":" ","MAREA":" ","LANE":"１１６巷","ALLEY":"３弄","HOUSE_NO":"８號","E_COORD97":169278.57999999999,"N_COORD97":2540932.9500000002,"ADDRESS":"國民路１１６巷３弄８號","OBJECTID":144369},"geometry":{"x":169278.58000000007,"y":2540932.9500000011}},{"attributes":{"ID":144370,"DIS_CODE":0,"TOWNNAME":"南區","LI":"文南里","LIN":"3鄰","STREET":"金華路","SECT":"二段","MAREA":" ","LANE":"２８９巷","ALLEY":"５弄","HOUSE_NO":"３９號","E_COORD97":167075.09,"N_COORD97":2542679.1899999999,"ADDRESS":"金華路二段２８９巷５弄３９號","OBJECTID":144370},"geometry":{"x":167075.09000000171,"y":2542679.1899999995}},{"attributes":{"ID":144371,"DIS_CODE":0,"TOWNNAME":"安定區","LI":"安加里","LIN":"14鄰","STREET":" ","SECT":" ","MAREA":"安定","LANE":" ","ALLEY":" ","HOUSE_NO":"２９９號","E_COORD97":171692.92000000001,"N_COORD97":2557496.3199999998,"ADDRESS":"安定２９９號","OBJECTID":144371},"geometry":{"x":171692.92000000086,"y":2557496.3200000022}},{"attributes":{"ID":144372,"DIS_CODE":0,"TOWNNAME":"安定區","LI":"安加里","LIN":"14鄰","STREET":" ","SECT":" ","MAREA":"安定","LANE":" ","ALLEY":" ","HOUSE_NO":"３０２之１號","E_COORD97":171716.32000000001,"N_COORD97":2557496.3199999998,"ADDRESS":"安定３０２之１號","OBJECTID":144372},"geometry":{"x":171716.3200000003,"y":2557496.3200000022}},{"attributes":{"ID":144373,"DIS_CODE":0,"TOWNNAME":"安定區","LI":"海寮里","LIN":"18鄰","STREET":" ","SECT":" ","MAREA":"海寮","LANE":" ","ALLEY":" ","HOUSE_NO":"１８０號之３","E_COORD97":169418.17999999999,"N_COORD97":2555478.2999999998,"ADDRESS":"海寮１８０號之３","OBJECTID":144373},"geometry":{"x":169418.1799999997,"y":2555478.3000000007}},{"attributes":{"ID":144374,"DIS_CODE":0,"TOWNNAME":"南區","LI":"文南里","LIN":"3鄰","STREET":"金華路","SECT":"二段","MAREA":" ","LANE":"２８９巷","ALLEY":"５弄","HOUSE_NO":"５１號","E_COORD97":167072.34,"N_COORD97":2542646.7000000002,"ADDRESS":"金華路二段２８９巷５弄５１號","OBJECTID":144374},"geometry":{"x":167072.34000000078,"y":2542646.7000000011}},{"attributes":{"ID":144375,"DIS_CODE":0,"TOWNNAME":"安定區","LI":"中沙里","LIN":"4鄰","STREET":" ","SECT":" ","MAREA":"中崙","LANE":" ","ALLEY":" ","HOUSE_NO":"１５７號","E_COORD97":169226.10999999999,"N_COORD97":2552934.25,"ADDRESS":"中崙１５７號","OBJECTID":144375},"geometry":{"x":169226.11000000034,"y":2552934.25}},{"attributes":{"ID":144376,"DIS_CODE":0,"TOWNNAME":"六甲區","LI":"七甲里","LIN":"3鄰","STREET":"七甲街","SECT":" ","MAREA":" ","LANE":"９３巷","ALLEY":"４弄","HOUSE_NO":"１１號","E_COORD97":182877.17000000001,"N_COORD97":2569081.3599999999,"ADDRESS":"七甲街９３巷４弄１１號","OBJECTID":144376},"geometry":{"x":182877.17000000179,"y":2569081.3599999994}},{"attributes":{"ID":144377,"DIS_CODE":0,"TOWNNAME":"六甲區","LI":"七甲里","LIN":"3鄰","STREET":"七甲街","SECT":" ","MAREA":" ","LANE":"９３巷","ALLEY":"４弄","HOUSE_NO":"１號","E_COORD97":182927.62,"N_COORD97":2569067.75,"ADDRESS":"七甲街９３巷４弄１號","OBJECTID":144377},"geometry":{"x":182927.62000000104,"y":2569067.7500000019}},{"attributes":{"ID":144378,"DIS_CODE":0,"TOWNNAME":"歸仁區","LI":"七甲里","LIN":"11鄰","STREET":"大德路","SECT":" ","MAREA":" ","LANE":" ","ALLEY":" ","HOUSE_NO":"１２２６號","E_COORD97":175439.893064,"N_COORD97":2541533.6445499999,"ADDRESS":"大德路１２２６號","OBJECTID":144378},"geometry":{"x":175439.89306399878,"y":2541533.644546004}},{"attributes":{"ID":144379,"DIS_CODE":0,"TOWNNAME":"六甲區","LI":"七甲里","LIN":"3鄰","STREET":"七甲街","SECT":" ","MAREA":" ","LANE":"９３巷","ALLEY":"４弄","HOUSE_NO":"２０號","E_COORD97":182816.22,"N_COORD97":2569046.0800000001,"ADDRESS":"七甲街９３巷４弄２０號","OBJECTID":144379},"geometry":{"x":182816.22000000067,"y":2569046.0800000019}},{"attributes":{"ID":144380,"DIS_CODE":0,"TOWNNAME":"六甲區","LI":"七甲里","LIN":"3鄰","STREET":"七甲街","SECT":" ","MAREA":" ","LANE":"９３巷","ALLEY":"４弄","HOUSE_NO":"２號","E_COORD97":182936.17999999999,"N_COORD97":2569088.1099999999,"ADDRESS":"七甲街９３巷４弄２號","OBJECTID":144380},"geometry":{"x":182936.18000000156,"y":2569088.1100000031}},{"attributes":{"ID":144381,"DIS_CODE":0,"TOWNNAME":"六甲區","LI":"七甲里","LIN":"3鄰","STREET":"七甲街","SECT":" ","MAREA":" ","LANE":"９３巷","ALLEY":"４弄","HOUSE_NO":"３號","E_COORD97":182924,"N_COORD97":2569076.0699999998,"ADDRESS":"七甲街９３巷４弄３號","OBJECTID":144381},"geometry":{"x":182924,"y":2569076.0700000022}},{"attributes":{"ID":144382,"DIS_CODE":0,"TOWNNAME":"六甲區","LI":"七甲里","LIN":"3鄰","STREET":"七甲街","SECT":" ","MAREA":" ","LANE":"９３巷","ALLEY":"４弄","HOUSE_NO":"４號","E_COORD97":182920.06,"N_COORD97":2569077.3700000001,"ADDRESS":"七甲街９３巷４弄４號","OBJECTID":144382},"geometry":{"x":182920.06000000145,"y":2569077.370000001}},{"attributes":{"ID":144383,"DIS_CODE":0,"TOWNNAME":"六甲區","LI":"七甲里","LIN":"3鄰","STREET":"七甲街","SECT":" ","MAREA":" ","LANE":"９３巷","ALLEY":"４弄","HOUSE_NO":"５號","E_COORD97":182903.91,"N_COORD97":2569082.1800000002,"ADDRESS":"七甲街９３巷４弄５號","OBJECTID":144383},"geometry":{"x":182903.91000000015,"y":2569082.1800000016}},{"attributes":{"ID":144384,"DIS_CODE":0,"TOWNNAME":"北區","LI":"文元里","LIN":"3鄰","STREET":"文賢路","SECT":" ","MAREA":" ","LANE":"１１２２巷","ALLEY":"１０７弄","HOUSE_NO":"３０之６號","E_COORD97":167799.70999999999,"N_COORD97":2546473.2599999998,"ADDRESS":"文賢路１１２２巷１０７弄３０之６號","OBJECTID":144384},"geometry":{"x":167799.70999999996,"y":2546473.2599999979}},{"attributes":{"ID":144385,"DIS_CODE":0,"TOWNNAME":"永康區","LI":"五王里","LIN":"30鄰","STREET":"中山東路","SECT":" ","MAREA":" ","LANE":"１２０巷","ALLEY":" ","HOUSE_NO":"６號","E_COORD97":171731.17000000001,"N_COORD97":2545911.2799999998,"ADDRESS":"中山東路１２０巷６號","OBJECTID":144385},"geometry":{"x":171731.16999999899,"y":2545911.2800000012}},{"attributes":{"ID":144386,"DIS_CODE":0,"TOWNNAME":"南區","LI":"大忠里","LIN":"15鄰","STREET":"公英六街","SECT":" ","MAREA":" ","LANE":" ","ALLEY":" ","HOUSE_NO":"５５號","E_COORD97":169323.32000000001,"N_COORD97":2541078.0099999998,"ADDRESS":"公英六街５５號","OBJECTID":144386},"geometry":{"x":169323.3200000003,"y":2541078.0100000016}},{"attributes":{"ID":144387,"DIS_CODE":0,"TOWNNAME":"南區","LI":"大忠里","LIN":"15鄰","STREET":"公英六街","SECT":" ","MAREA":" ","LANE":" ","ALLEY":" ","HOUSE_NO":"６號","E_COORD97":169418.17999999999,"N_COORD97":2541107.8700000001,"ADDRESS":"公英六街６號","OBJECTID":144387},"geometry":{"x":169418.1799999997,"y":2541107.8700000029}},{"attributes":{"ID":144388,"DIS_CODE":0,"TOWNNAME":"南區","LI":"大忠里","LIN":"15鄰","STREET":"公英六街","SECT":" ","MAREA":" ","LANE":" ","ALLEY":" ","HOUSE_NO":"９號","E_COORD97":169413.57000000001,"N_COORD97":2541089.8300000001,"ADDRESS":"公英六街９號","OBJECTID":144388},"geometry":{"x":169413.57000000123,"y":2541089.8300000019}},{"attributes":{"ID":144389,"DIS_CODE":0,"TOWNNAME":"永康區","LI":"埔園里","LIN":"30鄰","STREET":"龍埔街","SECT":" ","MAREA":" ","LANE":" ","ALLEY":" ","HOUSE_NO":"４７４號","E_COORD97":173831.72,"N_COORD97":2548355.4900000002,"ADDRESS":"龍埔街４７４號","OBJECTID":144389},"geometry":{"x":173831.72000000067,"y":2548355.4900000021}},{"attributes":{"ID":144390,"DIS_CODE":0,"TOWNNAME":"永康區","LI":"埔園里","LIN":"30鄰","STREET":"龍埔街","SECT":" ","MAREA":" ","LANE":" ","ALLEY":" ","HOUSE_NO":"４８２號之３","E_COORD97":173802.64000000001,"N_COORD97":2548359.54,"ADDRESS":"龍埔街４８２號之３","OBJECTID":144390},"geometry":{"x":173802.63999999873,"y":2548359.5400000028}},{"attributes":{"ID":144391,"DIS_CODE":0,"TOWNNAME":"永康區","LI":"崑山里","LIN":"30鄰","STREET":"國光二街","SECT":" ","MAREA":" ","LANE":" ","ALLEY":" ","HOUSE_NO":"６２號","E_COORD97":173908.54000000001,"N_COORD97":2544728.4399999999,"ADDRESS":"國光二街６２號","OBJECTID":144391},"geometry":{"x":173908.54000000004,"y":2544728.4399999995}},{"attributes":{"ID":144392,"DIS_CODE":0,"TOWNNAME":"北區","LI":"文元里","LIN":"3鄰","STREET":"文賢路","SECT":" ","MAREA":" ","LANE":"１１２２巷","ALLEY":"１０７弄","HOUSE_NO":"３０號","E_COORD97":167760.79999999999,"N_COORD97":2546457.79,"ADDRESS":"文賢路１１２２巷１０７弄３０號","OBJECTID":144392},"geometry":{"x":167760.80000000075,"y":2546457.7899999991}},{"attributes":{"ID":144393,"DIS_CODE":0,"TOWNNAME":"北區","LI":"文元里","LIN":"3鄰","STREET":"文賢三街","SECT":" ","MAREA":" ","LANE":"３３７巷","ALLEY":"６弄","HOUSE_NO":"１１號","E_COORD97":167725.07000000001,"N_COORD97":2546345.71,"ADDRESS":"文賢三街３３７巷６弄１１號","OBJECTID":144393},"geometry":{"x":167725.07000000123,"y":2546345.7100000009}},{"attributes":{"ID":144394,"DIS_CODE":0,"TOWNNAME":"北區","LI":"文元里","LIN":"3鄰","STREET":"文賢三街","SECT":" ","MAREA":" ","LANE":"３３７巷","ALLEY":"６弄","HOUSE_NO":"１３號","E_COORD97":167724.69,"N_COORD97":2546350.79,"ADDRESS":"文賢三街３３７巷６弄１３號","OBJECTID":144394},"geometry":{"x":167724.69000000134,"y":2546350.7900000028}},{"attributes":{"ID":144395,"DIS_CODE":0,"TOWNNAME":"北區","LI":"文元里","LIN":"3鄰","STREET":"文賢三街","SECT":" ","MAREA":" ","LANE":"３３７巷","ALLEY":"６弄","HOUSE_NO":"１５號","E_COORD97":167723.92000000001,"N_COORD97":2546356.1200000001,"ADDRESS":"文賢三街３３７巷６弄１５號","OBJECTID":144395},"geometry":{"x":167723.92000000179,"y":2546356.120000001}},{"attributes":{"ID":144396,"DIS_CODE":0,"TOWNNAME":"北區","LI":"文元里","LIN":"3鄰","STREET":"文賢三街","SECT":" ","MAREA":" ","LANE":"３３７巷","ALLEY":"６弄","HOUSE_NO":"１７號","E_COORD97":167722.78,"N_COORD97":2546361.4500000002,"ADDRESS":"文賢三街３３７巷６弄１７號","OBJECTID":144396},"geometry":{"x":167722.78000000026,"y":2546361.4500000011}},{"attributes":{"ID":144397,"DIS_CODE":0,"TOWNNAME":"北區","LI":"振興里","LIN":"3鄰","STREET":"開元路","SECT":" ","MAREA":" ","LANE":"１４８巷","ALLEY":"１５弄","HOUSE_NO":"１１號","E_COORD97":170049.13,"N_COORD97":2545235.71,"ADDRESS":"開元路１４８巷１５弄１１號","OBJECTID":144397},"geometry":{"x":170049.12999999989,"y":2545235.7100000028}},{"attributes":{"ID":144398,"DIS_CODE":0,"TOWNNAME":"北區","LI":"振興里","LIN":"3鄰","STREET":"開元路","SECT":" ","MAREA":" ","LANE":"１４８巷","ALLEY":"１５弄","HOUSE_NO":"１號","E_COORD97":170018.26000000001,"N_COORD97":2545225.75,"ADDRESS":"開元路１４８巷１５弄１號","OBJECTID":144398},"geometry":{"x":170018.25999999885,"y":2545225.75}},{"attributes":{"ID":144399,"DIS_CODE":0,"TOWNNAME":"北區","LI":"振興里","LIN":"3鄰","STREET":"開元路","SECT":" ","MAREA":" ","LANE":"１４８巷","ALLEY":"１５弄","HOUSE_NO":"２號","E_COORD97":170050.57000000001,"N_COORD97":2545221.7599999998,"ADDRESS":"開元路１４８巷１５弄２號","OBJECTID":144399},"geometry":{"x":170050.5700000003,"y":2545221.7599999998}},{"attributes":{"ID":144400,"DIS_CODE":0,"TOWNNAME":"北區","LI":"振興里","LIN":"3鄰","STREET":"開元路","SECT":" ","MAREA":" ","LANE":"１４８巷","ALLEY":"１５弄","HOUSE_NO":"３號","E_COORD97":170024.54000000001,"N_COORD97":2545226.6200000001,"ADDRESS":"開元路１４８巷１５弄３號","OBJECTID":144400},"geometry":{"x":170024.54000000004,"y":2545226.620000001}}]}