{"displayFieldName":"TOWNNAME","fieldAliases":{"ID":"ID","DIS_CODE":"DIS_CODE","TOWNNAME":"TOWNNAME","LI":"LI","LIN":"LIN","STREET":"STREET","SECT":"SECT","MAREA":"MAREA","LANE":"LANE","ALLEY":"ALLEY","HOUSE_NO":"HOUSE_NO","E_COORD97":"E_COORD97","N_COORD97":"N_COORD97","ADDRESS":"ADDRESS","OBJECTID":"OBJECTID"},"geometryType":"esriGeometryPoint","spatialReference":{"wkid":102443,"latestWkid":3826},"fields":[{"name":"ID","type":"esriFieldTypeDouble","alias":"ID"},{"name":"DIS_CODE","type":"esriFieldTypeInteger","alias":"DIS_CODE"},{"name":"TOWNNAME","type":"esriFieldTypeString","alias":"TOWNNAME","length":8},{"name":"LI","type":"esriFieldTypeString","alias":"LI","length":8},{"name":"LIN","type":"esriFieldTypeString","alias":"LIN","length":12},{"name":"STREET","type":"esriFieldTypeString","alias":"STREET","length":20},{"name":"SECT","type":"esriFieldTypeString","alias":"SECT","length":8},{"name":"MAREA","type":"esriFieldTypeString","alias":"MAREA","length":12},{"name":"LANE","type":"esriFieldTypeString","alias":"LANE","length":10},{"name":"ALLEY","type":"esriFieldTypeString","alias":"ALLEY","length":10},{"name":"HOUSE_NO","type":"esriFieldTypeString","alias":"HOUSE_NO","length":20},{"name":"E_COORD97","type":"esriFieldTypeDouble","alias":"E_COORD97"},{"name":"N_COORD97","type":"esriFieldTypeDouble","alias":"N_COORD97"},{"name":"ADDRESS","type":"esriFieldTypeString","alias":"ADDRESS","length":50},{"name":"OBJECTID","type":"esriFieldTypeOID","alias":"OBJECTID"}],"features":[{"attributes":{"ID":444826,"DIS_CODE":0,"TOWNNAME":"永康區","LI":"東橋里","LIN":"5鄰","STREET":"中山南路","SECT":" ","MAREA":" ","LANE":"１９５巷","ALLEY":" ","HOUSE_NO":"３２之７號六樓之５","E_COORD97":171460,"N_COORD97":2546395.8999999999,"ADDRESS":"中山南路１９５巷３２之７號六樓之５","OBJECTID":444801},"geometry":{"x":171460.00000000093,"y":2546395.9000000022}},{"attributes":{"ID":444827,"DIS_CODE":0,"TOWNNAME":"永康區","LI":"復華里","LIN":"5鄰","STREET":"國華街","SECT":" ","MAREA":" ","LANE":"１０２巷","ALLEY":" ","HOUSE_NO":"８０號十一樓之１","E_COORD97":172952.42999999999,"N_COORD97":2546166.52,"ADDRESS":"國華街１０２巷８０號十一樓之１","OBJECTID":444802},"geometry":{"x":172952.4299999997,"y":2546166.5200000033}},{"attributes":{"ID":444828,"DIS_CODE":0,"TOWNNAME":"永康區","LI":"復華里","LIN":"5鄰","STREET":"國華街","SECT":" ","MAREA":" ","LANE":"１０２巷","ALLEY":" ","HOUSE_NO":"８６號十二樓之２","E_COORD97":172978.48999999999,"N_COORD97":2546138.5299999998,"ADDRESS":"國華街１０２巷８６號十二樓之２","OBJECTID":444803},"geometry":{"x":172978.49000000022,"y":2546138.5299999993}},{"attributes":{"ID":444829,"DIS_CODE":0,"TOWNNAME":"永康區","LI":"正強里","LIN":"5鄰","STREET":"中正路","SECT":" ","MAREA":" ","LANE":"５５巷","ALLEY":" ","HOUSE_NO":"８號八樓之３","E_COORD97":173558.89999999999,"N_COORD97":2547783.4900000002,"ADDRESS":"中正路５５巷８號八樓之３","OBJECTID":444804},"geometry":{"x":173558.90000000037,"y":2547783.4900000002}},{"attributes":{"ID":444830,"DIS_CODE":0,"TOWNNAME":"佳里區","LI":"鎮山里","LIN":"20鄰","STREET":"鎮山街","SECT":" ","MAREA":" ","LANE":"１６０巷","ALLEY":" ","HOUSE_NO":"２號","E_COORD97":166252.60999999999,"N_COORD97":2560983.8399999999,"ADDRESS":"鎮山街１６０巷２號","OBJECTID":444805},"geometry":{"x":166252.61000000034,"y":2560983.8400000036}},{"attributes":{"ID":444831,"DIS_CODE":0,"TOWNNAME":"永康區","LI":"東橋里","LIN":"5鄰","STREET":"中山南路","SECT":" ","MAREA":" ","LANE":"１９５巷","ALLEY":" ","HOUSE_NO":"３２之７號十一樓之３","E_COORD97":171461.20000000001,"N_COORD97":2546395.8999999999,"ADDRESS":"中山南路１９５巷３２之７號十一樓之３","OBJECTID":444806},"geometry":{"x":171461.20000000019,"y":2546395.9000000022}},{"attributes":{"ID":444832,"DIS_CODE":0,"TOWNNAME":"永康區","LI":"埔園里","LIN":"5鄰","STREET":"中山路","SECT":" ","MAREA":" ","LANE":"１５８巷","ALLEY":" ","HOUSE_NO":"３８號五樓","E_COORD97":173896.14999999999,"N_COORD97":2547840.25,"ADDRESS":"中山路１５８巷３８號五樓","OBJECTID":444807},"geometry":{"x":173896.15000000037,"y":2547840.2500000037}},{"attributes":{"ID":444833,"DIS_CODE":0,"TOWNNAME":"永康區","LI":"東橋里","LIN":"5鄰","STREET":"中山南路","SECT":" ","MAREA":" ","LANE":"１９５巷","ALLEY":" ","HOUSE_NO":"３２之７號六樓之６","E_COORD97":171459.95000000001,"N_COORD97":2546395.8999999999,"ADDRESS":"中山南路１９５巷３２之７號六樓之６","OBJECTID":444808},"geometry":{"x":171459.95000000019,"y":2546395.9000000022}},{"attributes":{"ID":444834,"DIS_CODE":0,"TOWNNAME":"永康區","LI":"埔園里","LIN":"7鄰","STREET":"中正路","SECT":" ","MAREA":" ","LANE":" ","ALLEY":" ","HOUSE_NO":"８號","E_COORD97":173734.62,"N_COORD97":2547691,"ADDRESS":"中正路８號","OBJECTID":444809},"geometry":{"x":173734.62000000104,"y":2547691}},{"attributes":{"ID":444835,"DIS_CODE":0,"TOWNNAME":"永康區","LI":"東橋里","LIN":"5鄰","STREET":"中山南路","SECT":" ","MAREA":" ","LANE":"１９５巷","ALLEY":" ","HOUSE_NO":"３２之７號六樓之７","E_COORD97":171459.92999999999,"N_COORD97":2546395.8999999999,"ADDRESS":"中山南路１９５巷３２之７號六樓之７","OBJECTID":444810},"geometry":{"x":171459.93000000063,"y":2546395.9000000022}},{"attributes":{"ID":444836,"DIS_CODE":0,"TOWNNAME":"永康區","LI":"東橋里","LIN":"5鄰","STREET":"中山南路","SECT":" ","MAREA":" ","LANE":"１９５巷","ALLEY":" ","HOUSE_NO":"３２之７號十一樓之２","E_COORD97":171461.23000000001,"N_COORD97":2546395.8999999999,"ADDRESS":"中山南路１９５巷３２之７號十一樓之２","OBJECTID":444811},"geometry":{"x":171461.23000000045,"y":2546395.9000000022}},{"attributes":{"ID":444837,"DIS_CODE":0,"TOWNNAME":"永康區","LI":"東橋里","LIN":"5鄰","STREET":"中山南路","SECT":" ","MAREA":" ","LANE":"１９５巷","ALLEY":" ","HOUSE_NO":"３２之７號十一樓之７","E_COORD97":171461.17999999999,"N_COORD97":2546395.8999999999,"ADDRESS":"中山南路１９５巷３２之７號十一樓之７","OBJECTID":444812},"geometry":{"x":171461.1799999997,"y":2546395.9000000022}},{"attributes":{"ID":444838,"DIS_CODE":0,"TOWNNAME":"永康區","LI":"東橋里","LIN":"5鄰","STREET":"中山南路","SECT":" ","MAREA":" ","LANE":"１９５巷","ALLEY":" ","HOUSE_NO":"３２之７號六樓之２","E_COORD97":171459.98000000001,"N_COORD97":2546395.8999999999,"ADDRESS":"中山南路１９５巷３２之７號六樓之２","OBJECTID":444813},"geometry":{"x":171459.98000000045,"y":2546395.9000000022}},{"attributes":{"ID":444839,"DIS_CODE":0,"TOWNNAME":"永康區","LI":"東橋里","LIN":"5鄰","STREET":"中山南路","SECT":" ","MAREA":" ","LANE":"１９５巷","ALLEY":" ","HOUSE_NO":"３２之７號五樓之２","E_COORD97":171459.98000000001,"N_COORD97":2546395.8999999999,"ADDRESS":"中山南路１９５巷３２之７號五樓之２","OBJECTID":444814},"geometry":{"x":171459.98000000045,"y":2546395.9000000022}},{"attributes":{"ID":444840,"DIS_CODE":0,"TOWNNAME":"永康區","LI":"東橋里","LIN":"5鄰","STREET":"中山南路","SECT":" ","MAREA":" ","LANE":"１９５巷","ALLEY":" ","HOUSE_NO":"３２之７號四樓之１","E_COORD97":171459.85000000001,"N_COORD97":2546395.8999999999,"ADDRESS":"中山南路１９５巷３２之７號四樓之１","OBJECTID":444815},"geometry":{"x":171459.84999999963,"y":2546395.9000000022}},{"attributes":{"ID":444841,"DIS_CODE":0,"TOWNNAME":"永康區","LI":"東橋里","LIN":"5鄰","STREET":"中山南路","SECT":" ","MAREA":" ","LANE":"１９５巷","ALLEY":" ","HOUSE_NO":"３２之７號三樓之２","E_COORD97":171459.98000000001,"N_COORD97":2546395.8999999999,"ADDRESS":"中山南路１９５巷３２之７號三樓之２","OBJECTID":444816},"geometry":{"x":171459.98000000045,"y":2546395.9000000022}},{"attributes":{"ID":444842,"DIS_CODE":0,"TOWNNAME":"永康區","LI":"東橋里","LIN":"5鄰","STREET":"中山南路","SECT":" ","MAREA":" ","LANE":"１９５巷","ALLEY":" ","HOUSE_NO":"３２之７號四樓之６","E_COORD97":171459.95000000001,"N_COORD97":2546395.8999999999,"ADDRESS":"中山南路１９５巷３２之７號四樓之６","OBJECTID":444817},"geometry":{"x":171459.95000000019,"y":2546395.9000000022}},{"attributes":{"ID":444843,"DIS_CODE":0,"TOWNNAME":"永康區","LI":"東橋里","LIN":"5鄰","STREET":"中山南路","SECT":" ","MAREA":" ","LANE":"１９５巷","ALLEY":" ","HOUSE_NO":"３２之７號六樓之３","E_COORD97":171459.95000000001,"N_COORD97":2546395.8999999999,"ADDRESS":"中山南路１９５巷３２之７號六樓之３","OBJECTID":444818},"geometry":{"x":171459.95000000019,"y":2546395.9000000022}},{"attributes":{"ID":444844,"DIS_CODE":0,"TOWNNAME":"永康區","LI":"東橋里","LIN":"5鄰","STREET":"中山南路","SECT":" ","MAREA":" ","LANE":"１９５巷","ALLEY":" ","HOUSE_NO":"３２之７號十一樓之５","E_COORD97":171461.25,"N_COORD97":2546395.8999999999,"ADDRESS":"中山南路１９５巷３２之７號十一樓之５","OBJECTID":444819},"geometry":{"x":171461.25000000186,"y":2546395.9000000022}},{"attributes":{"ID":444845,"DIS_CODE":0,"TOWNNAME":"永康區","LI":"東橋里","LIN":"5鄰","STREET":"中山南路","SECT":" ","MAREA":" ","LANE":"１９５巷","ALLEY":" ","HOUSE_NO":"３２之７號三樓之５","E_COORD97":171460,"N_COORD97":2546395.8999999999,"ADDRESS":"中山南路１９５巷３２之７號三樓之５","OBJECTID":444820},"geometry":{"x":171460.00000000093,"y":2546395.9000000022}},{"attributes":{"ID":444846,"DIS_CODE":0,"TOWNNAME":"永康區","LI":"東橋里","LIN":"5鄰","STREET":"中山南路","SECT":" ","MAREA":" ","LANE":"１９５巷","ALLEY":" ","HOUSE_NO":"３２之７號二樓之５","E_COORD97":171460,"N_COORD97":2546395.8999999999,"ADDRESS":"中山南路１９５巷３２之７號二樓之５","OBJECTID":444821},"geometry":{"x":171460.00000000093,"y":2546395.9000000022}},{"attributes":{"ID":444847,"DIS_CODE":0,"TOWNNAME":"佳里區","LI":"鎮山里","LIN":"20鄰","STREET":"鎮山街","SECT":" ","MAREA":" ","LANE":"１６０巷","ALLEY":" ","HOUSE_NO":"３１號","E_COORD97":166190.29999999999,"N_COORD97":2560954.79,"ADDRESS":"鎮山街１６０巷３１號","OBJECTID":444822},"geometry":{"x":166190.29999999888,"y":2560954.7899999991}},{"attributes":{"ID":444848,"DIS_CODE":0,"TOWNNAME":"永康區","LI":"東橋里","LIN":"5鄰","STREET":"中山南路","SECT":" ","MAREA":" ","LANE":"１９５巷","ALLEY":" ","HOUSE_NO":"３２之７號三樓之１","E_COORD97":171459.85000000001,"N_COORD97":2546395.8999999999,"ADDRESS":"中山南路１９５巷３２之７號三樓之１","OBJECTID":444823},"geometry":{"x":171459.84999999963,"y":2546395.9000000022}},{"attributes":{"ID":444849,"DIS_CODE":0,"TOWNNAME":"永康區","LI":"東橋里","LIN":"5鄰","STREET":"中山南路","SECT":" ","MAREA":" ","LANE":"１９５巷","ALLEY":" ","HOUSE_NO":"３２之７號五樓之１","E_COORD97":171459.85000000001,"N_COORD97":2546395.8999999999,"ADDRESS":"中山南路１９５巷３２之７號五樓之１","OBJECTID":444824},"geometry":{"x":171459.84999999963,"y":2546395.9000000022}},{"attributes":{"ID":444850,"DIS_CODE":0,"TOWNNAME":"永康區","LI":"東橋里","LIN":"5鄰","STREET":"中山南路","SECT":" ","MAREA":" ","LANE":"１９５巷","ALLEY":" ","HOUSE_NO":"３２之７號七樓之３","E_COORD97":171459.95000000001,"N_COORD97":2546395.8999999999,"ADDRESS":"中山南路１９５巷３２之７號七樓之３","OBJECTID":444825},"geometry":{"x":171459.95000000019,"y":2546395.9000000022}},{"attributes":{"ID":444851,"DIS_CODE":0,"TOWNNAME":"佳里區","LI":"鎮山里","LIN":"5鄰","STREET":"自由街","SECT":" ","MAREA":" ","LANE":"１７巷","ALLEY":" ","HOUSE_NO":"２４號四樓","E_COORD97":166094.10000000001,"N_COORD97":2561725.25,"ADDRESS":"自由街１７巷２４號四樓","OBJECTID":444826},"geometry":{"x":166094.09999999963,"y":2561725.2500000019}},{"attributes":{"ID":444852,"DIS_CODE":0,"TOWNNAME":"東區","LI":"路東里","LIN":"5鄰","STREET":"大同路","SECT":"二段","MAREA":" ","LANE":"９７巷","ALLEY":" ","HOUSE_NO":"３號四樓","E_COORD97":169379.79999999999,"N_COORD97":2542177.3100000001,"ADDRESS":"大同路二段９７巷３號四樓","OBJECTID":444827},"geometry":{"x":169379.80000000075,"y":2542177.3100000005}},{"attributes":{"ID":444853,"DIS_CODE":0,"TOWNNAME":"永康區","LI":"網寮里","LIN":"5鄰","STREET":"永勝街","SECT":" ","MAREA":" ","LANE":"１０６巷","ALLEY":" ","HOUSE_NO":"１１號四樓之５","E_COORD97":173578.45999999999,"N_COORD97":2546357.4700000002,"ADDRESS":"永勝街１０６巷１１號四樓之５","OBJECTID":444828},"geometry":{"x":173578.45999999996,"y":2546357.4699999988}},{"attributes":{"ID":444854,"DIS_CODE":0,"TOWNNAME":"永康區","LI":"復華里","LIN":"5鄰","STREET":"國華街","SECT":" ","MAREA":" ","LANE":"１０２巷","ALLEY":" ","HOUSE_NO":"８０號十二樓之２","E_COORD97":172952.56,"N_COORD97":2546166.52,"ADDRESS":"國華街１０２巷８０號十二樓之２","OBJECTID":444829},"geometry":{"x":172952.56000000052,"y":2546166.5200000033}},{"attributes":{"ID":444855,"DIS_CODE":0,"TOWNNAME":"永康區","LI":"復華里","LIN":"5鄰","STREET":"國華街","SECT":" ","MAREA":" ","LANE":"１０２巷","ALLEY":" ","HOUSE_NO":"８０號五樓之１","E_COORD97":172951.17999999999,"N_COORD97":2546166.52,"ADDRESS":"國華街１０２巷８０號五樓之１","OBJECTID":444830},"geometry":{"x":172951.1799999997,"y":2546166.5200000033}},{"attributes":{"ID":444856,"DIS_CODE":0,"TOWNNAME":"永康區","LI":"復華里","LIN":"5鄰","STREET":"國華街","SECT":" ","MAREA":" ","LANE":"１０２巷","ALLEY":" ","HOUSE_NO":"８２號十一樓之１","E_COORD97":172952.72,"N_COORD97":2546149.8599999999,"ADDRESS":"國華街１０２巷８２號十一樓之１","OBJECTID":444831},"geometry":{"x":172952.71999999974,"y":2546149.8599999994}},{"attributes":{"ID":444857,"DIS_CODE":0,"TOWNNAME":"永康區","LI":"網寮里","LIN":"5鄰","STREET":"永勝街","SECT":" ","MAREA":" ","LANE":"１０６巷","ALLEY":" ","HOUSE_NO":"１１號六樓之５","E_COORD97":173578.45999999999,"N_COORD97":2546357.4700000002,"ADDRESS":"永勝街１０６巷１１號六樓之５","OBJECTID":444832},"geometry":{"x":173578.45999999996,"y":2546357.4699999988}},{"attributes":{"ID":444858,"DIS_CODE":0,"TOWNNAME":"永康區","LI":"網寮里","LIN":"5鄰","STREET":"永勝街","SECT":" ","MAREA":" ","LANE":"１０６巷","ALLEY":" ","HOUSE_NO":"１７號六樓之６","E_COORD97":173587.35999999999,"N_COORD97":2546361.21,"ADDRESS":"永勝街１０６巷１７號六樓之６","OBJECTID":444833},"geometry":{"x":173587.36000000127,"y":2546361.2100000028}},{"attributes":{"ID":444859,"DIS_CODE":0,"TOWNNAME":"永康區","LI":"復華里","LIN":"5鄰","STREET":"國華街","SECT":" ","MAREA":" ","LANE":"１０２巷","ALLEY":" ","HOUSE_NO":"８４號三樓之２","E_COORD97":172962.48999999999,"N_COORD97":2546145.02,"ADDRESS":"國華街１０２巷８４號三樓之２","OBJECTID":444834},"geometry":{"x":172962.49000000115,"y":2546145.0199999996}},{"attributes":{"ID":444860,"DIS_CODE":0,"TOWNNAME":"永康區","LI":"復華里","LIN":"5鄰","STREET":"國華街","SECT":" ","MAREA":" ","LANE":"１０２巷","ALLEY":" ","HOUSE_NO":"８０號六樓之２","E_COORD97":172951.31,"N_COORD97":2546166.52,"ADDRESS":"國華街１０２巷８０號六樓之２","OBJECTID":444835},"geometry":{"x":172951.31000000052,"y":2546166.5200000033}},{"attributes":{"ID":444861,"DIS_CODE":0,"TOWNNAME":"永康區","LI":"埔園里","LIN":"5鄰","STREET":"中山路","SECT":" ","MAREA":" ","LANE":"１５８巷","ALLEY":" ","HOUSE_NO":"３６號六樓之１","E_COORD97":173920.35999999999,"N_COORD97":2547830.04,"ADDRESS":"中山路１５８巷３６號六樓之１","OBJECTID":444836},"geometry":{"x":173920.36000000034,"y":2547830.0399999991}},{"attributes":{"ID":444862,"DIS_CODE":0,"TOWNNAME":"南區","LI":"白雪里","LIN":"5鄰","STREET":"利南街","SECT":" ","MAREA":" ","LANE":"４７巷","ALLEY":" ","HOUSE_NO":"１號","E_COORD97":166833.53,"N_COORD97":2541144.3199999998,"ADDRESS":"利南街４７巷１號","OBJECTID":444837},"geometry":{"x":166833.53000000212,"y":2541144.3200000022}},{"attributes":{"ID":444863,"DIS_CODE":0,"TOWNNAME":"永康區","LI":"網寮里","LIN":"5鄰","STREET":"永勝街","SECT":" ","MAREA":" ","LANE":"１０６巷","ALLEY":" ","HOUSE_NO":"１５號四樓","E_COORD97":173577.38,"N_COORD97":2546386.7599999998,"ADDRESS":"永勝街１０６巷１５號四樓","OBJECTID":444838},"geometry":{"x":173577.37999999989,"y":2546386.7600000016}},{"attributes":{"ID":444864,"DIS_CODE":0,"TOWNNAME":"永康區","LI":"復華里","LIN":"5鄰","STREET":"國華街","SECT":" ","MAREA":" ","LANE":"１０２巷","ALLEY":" ","HOUSE_NO":"８８號六樓之１","E_COORD97":172989.01999999999,"N_COORD97":2546133.2799999998,"ADDRESS":"國華街１０２巷８８號六樓之１","OBJECTID":444839},"geometry":{"x":172989.01999999955,"y":2546133.2799999993}},{"attributes":{"ID":444865,"DIS_CODE":0,"TOWNNAME":"永康區","LI":"復華里","LIN":"5鄰","STREET":"國華街","SECT":" ","MAREA":" ","LANE":"１０２巷","ALLEY":" ","HOUSE_NO":"１０２號三樓之２","E_COORD97":172973.07000000001,"N_COORD97":2546187.8300000001,"ADDRESS":"國華街１０２巷１０２號三樓之２","OBJECTID":444840},"geometry":{"x":172973.0700000003,"y":2546187.8300000001}},{"attributes":{"ID":444866,"DIS_CODE":0,"TOWNNAME":"永康區","LI":"復華里","LIN":"5鄰","STREET":"國華街","SECT":" ","MAREA":" ","LANE":"１０２巷","ALLEY":" ","HOUSE_NO":"８８號八樓之２","E_COORD97":172989.14999999999,"N_COORD97":2546133.2799999998,"ADDRESS":"國華街１０２巷８８號八樓之２","OBJECTID":444841},"geometry":{"x":172989.15000000037,"y":2546133.2799999993}},{"attributes":{"ID":444867,"DIS_CODE":0,"TOWNNAME":"永康區","LI":"復華里","LIN":"5鄰","STREET":"國華街","SECT":" ","MAREA":" ","LANE":"１０２巷","ALLEY":" ","HOUSE_NO":"８４號八樓之１","E_COORD97":172962.35999999999,"N_COORD97":2546145.02,"ADDRESS":"國華街１０２巷８４號八樓之１","OBJECTID":444842},"geometry":{"x":172962.36000000034,"y":2546145.0199999996}},{"attributes":{"ID":444868,"DIS_CODE":0,"TOWNNAME":"永康區","LI":"網寮里","LIN":"5鄰","STREET":"永勝街","SECT":" ","MAREA":" ","LANE":"１０６巷","ALLEY":" ","HOUSE_NO":"１７號五樓之６","E_COORD97":173587.35999999999,"N_COORD97":2546361.21,"ADDRESS":"永勝街１０６巷１７號五樓之６","OBJECTID":444843},"geometry":{"x":173587.36000000127,"y":2546361.2100000028}},{"attributes":{"ID":444869,"DIS_CODE":0,"TOWNNAME":"永康區","LI":"復華里","LIN":"5鄰","STREET":"國華街","SECT":" ","MAREA":" ","LANE":"１０２巷","ALLEY":" ","HOUSE_NO":"１０２號五樓之１","E_COORD97":172972.94,"N_COORD97":2546187.8300000001,"ADDRESS":"國華街１０２巷１０２號五樓之１","OBJECTID":444844},"geometry":{"x":172972.94000000134,"y":2546187.8300000001}},{"attributes":{"ID":444870,"DIS_CODE":0,"TOWNNAME":"永康區","LI":"復華里","LIN":"5鄰","STREET":"國華街","SECT":" ","MAREA":" ","LANE":"１０２巷","ALLEY":" ","HOUSE_NO":"８６號五樓之１","E_COORD97":172977.10999999999,"N_COORD97":2546138.5299999998,"ADDRESS":"國華街１０２巷８６號五樓之１","OBJECTID":444845},"geometry":{"x":172977.11000000127,"y":2546138.5299999993}},{"attributes":{"ID":444871,"DIS_CODE":0,"TOWNNAME":"永康區","LI":"復華里","LIN":"5鄰","STREET":"國華街","SECT":" ","MAREA":" ","LANE":"１０２巷","ALLEY":" ","HOUSE_NO":"８６號八樓之２","E_COORD97":172977.23999999999,"N_COORD97":2546138.5299999998,"ADDRESS":"國華街１０２巷８６號八樓之２","OBJECTID":444846},"geometry":{"x":172977.24000000115,"y":2546138.5299999993}},{"attributes":{"ID":444872,"DIS_CODE":0,"TOWNNAME":"永康區","LI":"復華里","LIN":"5鄰","STREET":"國華街","SECT":" ","MAREA":" ","LANE":"１０２巷","ALLEY":" ","HOUSE_NO":"８０號十樓之２","E_COORD97":172951.31,"N_COORD97":2546166.52,"ADDRESS":"國華街１０２巷８０號十樓之２","OBJECTID":444847},"geometry":{"x":172951.31000000052,"y":2546166.5200000033}},{"attributes":{"ID":444873,"DIS_CODE":0,"TOWNNAME":"永康區","LI":"東橋里","LIN":"5鄰","STREET":"中山南路","SECT":" ","MAREA":" ","LANE":"１９５巷","ALLEY":" ","HOUSE_NO":"３２之７號七樓之１","E_COORD97":171459.85000000001,"N_COORD97":2546395.8999999999,"ADDRESS":"中山南路１９５巷３２之７號七樓之１","OBJECTID":444848},"geometry":{"x":171459.84999999963,"y":2546395.9000000022}},{"attributes":{"ID":444874,"DIS_CODE":0,"TOWNNAME":"永康區","LI":"復華里","LIN":"5鄰","STREET":"國華街","SECT":" ","MAREA":" ","LANE":"１０２巷","ALLEY":" ","HOUSE_NO":"８２號十樓之２","E_COORD97":172951.60000000001,"N_COORD97":2546149.8599999999,"ADDRESS":"國華街１０２巷８２號十樓之２","OBJECTID":444849},"geometry":{"x":172951.59999999963,"y":2546149.8599999994}},{"attributes":{"ID":444875,"DIS_CODE":0,"TOWNNAME":"永康區","LI":"東橋里","LIN":"5鄰","STREET":"中山南路","SECT":" ","MAREA":" ","LANE":"１９５巷","ALLEY":" ","HOUSE_NO":"３２之７號四樓之５","E_COORD97":171460,"N_COORD97":2546395.8999999999,"ADDRESS":"中山南路１９５巷３２之７號四樓之５","OBJECTID":444850},"geometry":{"x":171460.00000000093,"y":2546395.9000000022}},{"attributes":{"ID":444876,"DIS_CODE":0,"TOWNNAME":"永康區","LI":"正強里","LIN":"5鄰","STREET":"中正路","SECT":" ","MAREA":" ","LANE":"５５巷","ALLEY":" ","HOUSE_NO":"２號四樓之２","E_COORD97":173591.54000000001,"N_COORD97":2547793.7400000002,"ADDRESS":"中正路５５巷２號四樓之２","OBJECTID":444851},"geometry":{"x":173591.54000000004,"y":2547793.7400000021}},{"attributes":{"ID":444877,"DIS_CODE":0,"TOWNNAME":"永康區","LI":"東橋里","LIN":"5鄰","STREET":"中山南路","SECT":" ","MAREA":" ","LANE":"１９５巷","ALLEY":" ","HOUSE_NO":"３２之７號九樓之６","E_COORD97":171459.95000000001,"N_COORD97":2546395.8999999999,"ADDRESS":"中山南路１９５巷３２之７號九樓之６","OBJECTID":444852},"geometry":{"x":171459.95000000019,"y":2546395.9000000022}},{"attributes":{"ID":444878,"DIS_CODE":0,"TOWNNAME":"東區","LI":"崇信里","LIN":"5鄰","STREET":"中華東路","SECT":"三段","MAREA":" ","LANE":"２４巷","ALLEY":" ","HOUSE_NO":"１０號二樓","E_COORD97":170931.07000000001,"N_COORD97":2542383.7799999998,"ADDRESS":"中華東路三段２４巷１０號二樓","OBJECTID":444853},"geometry":{"x":170931.07000000123,"y":2542383.7799999993}},{"attributes":{"ID":444879,"DIS_CODE":0,"TOWNNAME":"東區","LI":"崇信里","LIN":"5鄰","STREET":"中華東路","SECT":"三段","MAREA":" ","LANE":"２４巷","ALLEY":" ","HOUSE_NO":"１０號三樓","E_COORD97":170931.07000000001,"N_COORD97":2542383.7799999998,"ADDRESS":"中華東路三段２４巷１０號三樓","OBJECTID":444854},"geometry":{"x":170931.07000000123,"y":2542383.7799999993}},{"attributes":{"ID":444880,"DIS_CODE":0,"TOWNNAME":"東區","LI":"崇信里","LIN":"5鄰","STREET":"中華東路","SECT":"三段","MAREA":" ","LANE":"２４巷","ALLEY":" ","HOUSE_NO":"１０號五樓","E_COORD97":170931.07000000001,"N_COORD97":2542383.7799999998,"ADDRESS":"中華東路三段２４巷１０號五樓","OBJECTID":444855},"geometry":{"x":170931.07000000123,"y":2542383.7799999993}},{"attributes":{"ID":444881,"DIS_CODE":0,"TOWNNAME":"東區","LI":"崇信里","LIN":"5鄰","STREET":"中華東路","SECT":"三段","MAREA":" ","LANE":"２４巷","ALLEY":" ","HOUSE_NO":"１０號四樓","E_COORD97":170931.07000000001,"N_COORD97":2542383.7799999998,"ADDRESS":"中華東路三段２４巷１０號四樓","OBJECTID":444856},"geometry":{"x":170931.07000000123,"y":2542383.7799999993}},{"attributes":{"ID":444882,"DIS_CODE":0,"TOWNNAME":"東區","LI":"崇信里","LIN":"5鄰","STREET":"中華東路","SECT":"三段","MAREA":" ","LANE":"２４巷","ALLEY":" ","HOUSE_NO":"１１號二樓","E_COORD97":170895.04999999999,"N_COORD97":2542388.96,"ADDRESS":"中華東路三段２４巷１１號二樓","OBJECTID":444857},"geometry":{"x":170895.05000000075,"y":2542388.9600000028}},{"attributes":{"ID":444883,"DIS_CODE":0,"TOWNNAME":"東區","LI":"崇信里","LIN":"5鄰","STREET":"中華東路","SECT":"三段","MAREA":" ","LANE":"２４巷","ALLEY":" ","HOUSE_NO":"１１號三樓","E_COORD97":170895.04999999999,"N_COORD97":2542388.96,"ADDRESS":"中華東路三段２４巷１１號三樓","OBJECTID":444858},"geometry":{"x":170895.05000000075,"y":2542388.9600000028}},{"attributes":{"ID":444884,"DIS_CODE":0,"TOWNNAME":"東區","LI":"崇信里","LIN":"5鄰","STREET":"中華東路","SECT":"三段","MAREA":" ","LANE":"２４巷","ALLEY":" ","HOUSE_NO":"１１號五樓","E_COORD97":170895.04999999999,"N_COORD97":2542388.96,"ADDRESS":"中華東路三段２４巷１１號五樓","OBJECTID":444859},"geometry":{"x":170895.05000000075,"y":2542388.9600000028}},{"attributes":{"ID":444885,"DIS_CODE":0,"TOWNNAME":"東區","LI":"崇信里","LIN":"5鄰","STREET":"中華東路","SECT":"三段","MAREA":" ","LANE":"２４巷","ALLEY":" ","HOUSE_NO":"１１號四樓","E_COORD97":170895.04999999999,"N_COORD97":2542388.96,"ADDRESS":"中華東路三段２４巷１１號四樓","OBJECTID":444860},"geometry":{"x":170895.05000000075,"y":2542388.9600000028}},{"attributes":{"ID":444886,"DIS_CODE":0,"TOWNNAME":"東區","LI":"崇信里","LIN":"5鄰","STREET":"中華東路","SECT":"三段","MAREA":" ","LANE":"２４巷","ALLEY":" ","HOUSE_NO":"１３號二樓","E_COORD97":170901.60999999999,"N_COORD97":2542390.1800000002,"ADDRESS":"中華東路三段２４巷１３號二樓","OBJECTID":444861},"geometry":{"x":170901.6100000022,"y":2542390.1800000016}},{"attributes":{"ID":444887,"DIS_CODE":0,"TOWNNAME":"東區","LI":"崇信里","LIN":"5鄰","STREET":"中華東路","SECT":"三段","MAREA":" ","LANE":"２４巷","ALLEY":" ","HOUSE_NO":"１３號三樓","E_COORD97":170901.60999999999,"N_COORD97":2542390.1800000002,"ADDRESS":"中華東路三段２４巷１３號三樓","OBJECTID":444862},"geometry":{"x":170901.6100000022,"y":2542390.1800000016}},{"attributes":{"ID":444888,"DIS_CODE":0,"TOWNNAME":"東區","LI":"崇信里","LIN":"5鄰","STREET":"中華東路","SECT":"三段","MAREA":" ","LANE":"２４巷","ALLEY":" ","HOUSE_NO":"１３號五樓","E_COORD97":170901.60999999999,"N_COORD97":2542390.1800000002,"ADDRESS":"中華東路三段２４巷１３號五樓","OBJECTID":444863},"geometry":{"x":170901.6100000022,"y":2542390.1800000016}},{"attributes":{"ID":444889,"DIS_CODE":0,"TOWNNAME":"東區","LI":"崇信里","LIN":"5鄰","STREET":"中華東路","SECT":"三段","MAREA":" ","LANE":"２４巷","ALLEY":" ","HOUSE_NO":"１３號四樓","E_COORD97":170901.60999999999,"N_COORD97":2542390.1800000002,"ADDRESS":"中華東路三段２４巷１３號四樓","OBJECTID":444864},"geometry":{"x":170901.6100000022,"y":2542390.1800000016}},{"attributes":{"ID":444890,"DIS_CODE":0,"TOWNNAME":"東區","LI":"崇信里","LIN":"5鄰","STREET":"中華東路","SECT":"三段","MAREA":" ","LANE":"２４巷","ALLEY":" ","HOUSE_NO":"１５號二樓","E_COORD97":170906.79999999999,"N_COORD97":2542390.9399999999,"ADDRESS":"中華東路三段２４巷１５號二樓","OBJECTID":444865},"geometry":{"x":170906.80000000075,"y":2542390.9400000013}},{"attributes":{"ID":444891,"DIS_CODE":0,"TOWNNAME":"東區","LI":"崇信里","LIN":"5鄰","STREET":"中華東路","SECT":"三段","MAREA":" ","LANE":"２４巷","ALLEY":" ","HOUSE_NO":"１５號三樓","E_COORD97":170906.79999999999,"N_COORD97":2542390.9399999999,"ADDRESS":"中華東路三段２４巷１５號三樓","OBJECTID":444866},"geometry":{"x":170906.80000000075,"y":2542390.9400000013}},{"attributes":{"ID":444892,"DIS_CODE":0,"TOWNNAME":"東區","LI":"崇信里","LIN":"5鄰","STREET":"中華東路","SECT":"三段","MAREA":" ","LANE":"２４巷","ALLEY":" ","HOUSE_NO":"１５號五樓","E_COORD97":170906.79999999999,"N_COORD97":2542390.9399999999,"ADDRESS":"中華東路三段２４巷１５號五樓","OBJECTID":444867},"geometry":{"x":170906.80000000075,"y":2542390.9400000013}},{"attributes":{"ID":444893,"DIS_CODE":0,"TOWNNAME":"東區","LI":"崇信里","LIN":"5鄰","STREET":"中華東路","SECT":"三段","MAREA":" ","LANE":"２４巷","ALLEY":" ","HOUSE_NO":"１５號四樓","E_COORD97":170906.79999999999,"N_COORD97":2542390.9399999999,"ADDRESS":"中華東路三段２４巷１５號四樓","OBJECTID":444868},"geometry":{"x":170906.80000000075,"y":2542390.9400000013}},{"attributes":{"ID":444894,"DIS_CODE":0,"TOWNNAME":"東區","LI":"崇信里","LIN":"5鄰","STREET":"中華東路","SECT":"三段","MAREA":" ","LANE":"２４巷","ALLEY":" ","HOUSE_NO":"１７號二樓","E_COORD97":170913.37,"N_COORD97":2542392.77,"ADDRESS":"中華東路三段２４巷１７號二樓","OBJECTID":444869},"geometry":{"x":170913.37000000104,"y":2542392.7700000014}},{"attributes":{"ID":444895,"DIS_CODE":0,"TOWNNAME":"東區","LI":"崇信里","LIN":"5鄰","STREET":"中華東路","SECT":"三段","MAREA":" ","LANE":"２４巷","ALLEY":" ","HOUSE_NO":"１７號三樓","E_COORD97":170913.37,"N_COORD97":2542392.77,"ADDRESS":"中華東路三段２４巷１７號三樓","OBJECTID":444870},"geometry":{"x":170913.37000000104,"y":2542392.7700000014}},{"attributes":{"ID":444896,"DIS_CODE":0,"TOWNNAME":"東區","LI":"崇信里","LIN":"5鄰","STREET":"中華東路","SECT":"三段","MAREA":" ","LANE":"２４巷","ALLEY":" ","HOUSE_NO":"１７號五樓","E_COORD97":170913.37,"N_COORD97":2542392.77,"ADDRESS":"中華東路三段２４巷１７號五樓","OBJECTID":444871},"geometry":{"x":170913.37000000104,"y":2542392.7700000014}},{"attributes":{"ID":444897,"DIS_CODE":0,"TOWNNAME":"東區","LI":"崇信里","LIN":"5鄰","STREET":"中華東路","SECT":"三段","MAREA":" ","LANE":"２４巷","ALLEY":" ","HOUSE_NO":"１７號四樓","E_COORD97":170913.37,"N_COORD97":2542392.77,"ADDRESS":"中華東路三段２４巷１７號四樓","OBJECTID":444872},"geometry":{"x":170913.37000000104,"y":2542392.7700000014}},{"attributes":{"ID":444898,"DIS_CODE":0,"TOWNNAME":"東區","LI":"崇信里","LIN":"5鄰","STREET":"中華東路","SECT":"三段","MAREA":" ","LANE":"２４巷","ALLEY":" ","HOUSE_NO":"１９號二樓","E_COORD97":170920.51000000001,"N_COORD97":2542394,"ADDRESS":"中華東路三段２４巷１９號二樓","OBJECTID":444873},"geometry":{"x":170920.51000000071,"y":2542394.0000000019}},{"attributes":{"ID":444899,"DIS_CODE":0,"TOWNNAME":"東區","LI":"崇信里","LIN":"5鄰","STREET":"中華東路","SECT":"三段","MAREA":" ","LANE":"２４巷","ALLEY":" ","HOUSE_NO":"１９號三樓","E_COORD97":170920.51000000001,"N_COORD97":2542394,"ADDRESS":"中華東路三段２４巷１９號三樓","OBJECTID":444874},"geometry":{"x":170920.51000000071,"y":2542394.0000000019}},{"attributes":{"ID":444900,"DIS_CODE":0,"TOWNNAME":"東區","LI":"崇信里","LIN":"5鄰","STREET":"中華東路","SECT":"三段","MAREA":" ","LANE":"２４巷","ALLEY":" ","HOUSE_NO":"１９號五樓","E_COORD97":170920.51000000001,"N_COORD97":2542394,"ADDRESS":"中華東路三段２４巷１９號五樓","OBJECTID":444875},"geometry":{"x":170920.51000000071,"y":2542394.0000000019}},{"attributes":{"ID":444901,"DIS_CODE":0,"TOWNNAME":"東區","LI":"崇信里","LIN":"5鄰","STREET":"中華東路","SECT":"三段","MAREA":" ","LANE":"２４巷","ALLEY":" ","HOUSE_NO":"１９號四樓","E_COORD97":170920.51000000001,"N_COORD97":2542394,"ADDRESS":"中華東路三段２４巷１９號四樓","OBJECTID":444876},"geometry":{"x":170920.51000000071,"y":2542394.0000000019}},{"attributes":{"ID":444902,"DIS_CODE":0,"TOWNNAME":"東區","LI":"崇信里","LIN":"5鄰","STREET":"中華東路","SECT":"三段","MAREA":" ","LANE":"２４巷","ALLEY":" ","HOUSE_NO":"１號二樓","E_COORD97":170894.92000000001,"N_COORD97":2542349.48,"ADDRESS":"中華東路三段２４巷１號二樓","OBJECTID":444877},"geometry":{"x":170894.91999999993,"y":2542349.4800000004}},{"attributes":{"ID":444903,"DIS_CODE":0,"TOWNNAME":"東區","LI":"崇信里","LIN":"5鄰","STREET":"中華東路","SECT":"三段","MAREA":" ","LANE":"２４巷","ALLEY":" ","HOUSE_NO":"１號三樓","E_COORD97":170894.92000000001,"N_COORD97":2542349.48,"ADDRESS":"中華東路三段２４巷１號三樓","OBJECTID":444878},"geometry":{"x":170894.91999999993,"y":2542349.4800000004}},{"attributes":{"ID":444904,"DIS_CODE":0,"TOWNNAME":"東區","LI":"崇信里","LIN":"5鄰","STREET":"中華東路","SECT":"三段","MAREA":" ","LANE":"２４巷","ALLEY":" ","HOUSE_NO":"１號五樓","E_COORD97":170894.92000000001,"N_COORD97":2542349.48,"ADDRESS":"中華東路三段２４巷１號五樓","OBJECTID":444879},"geometry":{"x":170894.91999999993,"y":2542349.4800000004}},{"attributes":{"ID":444905,"DIS_CODE":0,"TOWNNAME":"東區","LI":"崇信里","LIN":"5鄰","STREET":"中華東路","SECT":"三段","MAREA":" ","LANE":"２４巷","ALLEY":" ","HOUSE_NO":"１號四樓","E_COORD97":170894.92000000001,"N_COORD97":2542349.48,"ADDRESS":"中華東路三段２４巷１號四樓","OBJECTID":444880},"geometry":{"x":170894.91999999993,"y":2542349.4800000004}},{"attributes":{"ID":444906,"DIS_CODE":0,"TOWNNAME":"東區","LI":"崇信里","LIN":"5鄰","STREET":"中華東路","SECT":"三段","MAREA":" ","LANE":"２４巷","ALLEY":" ","HOUSE_NO":"２號二樓","E_COORD97":170913.66,"N_COORD97":2542363.6099999999,"ADDRESS":"中華東路三段２４巷２號二樓","OBJECTID":444881},"geometry":{"x":170913.66000000015,"y":2542363.6099999994}},{"attributes":{"ID":444907,"DIS_CODE":0,"TOWNNAME":"東區","LI":"崇信里","LIN":"5鄰","STREET":"中華東路","SECT":"三段","MAREA":" ","LANE":"２４巷","ALLEY":" ","HOUSE_NO":"２號三樓","E_COORD97":170913.66,"N_COORD97":2542363.6099999999,"ADDRESS":"中華東路三段２４巷２號三樓","OBJECTID":444882},"geometry":{"x":170913.66000000015,"y":2542363.6099999994}},{"attributes":{"ID":444908,"DIS_CODE":0,"TOWNNAME":"東區","LI":"崇信里","LIN":"5鄰","STREET":"中華東路","SECT":"三段","MAREA":" ","LANE":"２４巷","ALLEY":" ","HOUSE_NO":"２號五樓","E_COORD97":170913.66,"N_COORD97":2542363.6099999999,"ADDRESS":"中華東路三段２４巷２號五樓","OBJECTID":444883},"geometry":{"x":170913.66000000015,"y":2542363.6099999994}},{"attributes":{"ID":444909,"DIS_CODE":0,"TOWNNAME":"東區","LI":"崇信里","LIN":"5鄰","STREET":"中華東路","SECT":"三段","MAREA":" ","LANE":"２４巷","ALLEY":" ","HOUSE_NO":"２號四樓","E_COORD97":170913.66,"N_COORD97":2542363.6099999999,"ADDRESS":"中華東路三段２４巷２號四樓","OBJECTID":444884},"geometry":{"x":170913.66000000015,"y":2542363.6099999994}},{"attributes":{"ID":444910,"DIS_CODE":0,"TOWNNAME":"東區","LI":"崇信里","LIN":"5鄰","STREET":"中華東路","SECT":"三段","MAREA":" ","LANE":"２４巷","ALLEY":" ","HOUSE_NO":"３號二樓","E_COORD97":170891.57000000001,"N_COORD97":2542357.8199999998,"ADDRESS":"中華東路三段２４巷３號二樓","OBJECTID":444885},"geometry":{"x":170891.57000000216,"y":2542357.820000004}},{"attributes":{"ID":444911,"DIS_CODE":0,"TOWNNAME":"東區","LI":"崇信里","LIN":"5鄰","STREET":"中華東路","SECT":"三段","MAREA":" ","LANE":"２４巷","ALLEY":" ","HOUSE_NO":"３號三樓","E_COORD97":170891.57000000001,"N_COORD97":2542357.8199999998,"ADDRESS":"中華東路三段２４巷３號三樓","OBJECTID":444886},"geometry":{"x":170891.57000000216,"y":2542357.820000004}},{"attributes":{"ID":444912,"DIS_CODE":0,"TOWNNAME":"東區","LI":"崇信里","LIN":"5鄰","STREET":"中華東路","SECT":"三段","MAREA":" ","LANE":"２４巷","ALLEY":" ","HOUSE_NO":"３號五樓","E_COORD97":170891.57000000001,"N_COORD97":2542357.8199999998,"ADDRESS":"中華東路三段２４巷３號五樓","OBJECTID":444887},"geometry":{"x":170891.57000000216,"y":2542357.820000004}},{"attributes":{"ID":444913,"DIS_CODE":0,"TOWNNAME":"東區","LI":"崇信里","LIN":"5鄰","STREET":"中華東路","SECT":"三段","MAREA":" ","LANE":"２４巷","ALLEY":" ","HOUSE_NO":"３號四樓","E_COORD97":170891.57000000001,"N_COORD97":2542357.8199999998,"ADDRESS":"中華東路三段２４巷３號四樓","OBJECTID":444888},"geometry":{"x":170891.57000000216,"y":2542357.820000004}},{"attributes":{"ID":444914,"DIS_CODE":0,"TOWNNAME":"東區","LI":"崇信里","LIN":"5鄰","STREET":"中華東路","SECT":"三段","MAREA":" ","LANE":"２４巷","ALLEY":" ","HOUSE_NO":"４號二樓","E_COORD97":170919.14999999999,"N_COORD97":2542369.5499999998,"ADDRESS":"中華東路三段２４巷４號二樓","OBJECTID":444889},"geometry":{"x":170919.15000000037,"y":2542369.5500000007}},{"attributes":{"ID":444915,"DIS_CODE":0,"TOWNNAME":"東區","LI":"崇信里","LIN":"5鄰","STREET":"中華東路","SECT":"三段","MAREA":" ","LANE":"２４巷","ALLEY":" ","HOUSE_NO":"４號三樓","E_COORD97":170919.14999999999,"N_COORD97":2542369.5499999998,"ADDRESS":"中華東路三段２４巷４號三樓","OBJECTID":444890},"geometry":{"x":170919.15000000037,"y":2542369.5500000007}},{"attributes":{"ID":444916,"DIS_CODE":0,"TOWNNAME":"東區","LI":"崇信里","LIN":"5鄰","STREET":"中華東路","SECT":"三段","MAREA":" ","LANE":"２４巷","ALLEY":" ","HOUSE_NO":"４號五樓","E_COORD97":170919.14999999999,"N_COORD97":2542369.5499999998,"ADDRESS":"中華東路三段２４巷４號五樓","OBJECTID":444891},"geometry":{"x":170919.15000000037,"y":2542369.5500000007}},{"attributes":{"ID":444917,"DIS_CODE":0,"TOWNNAME":"東區","LI":"崇信里","LIN":"5鄰","STREET":"中華東路","SECT":"三段","MAREA":" ","LANE":"２４巷","ALLEY":" ","HOUSE_NO":"４號四樓","E_COORD97":170919.14999999999,"N_COORD97":2542369.5499999998,"ADDRESS":"中華東路三段２４巷４號四樓","OBJECTID":444892},"geometry":{"x":170919.15000000037,"y":2542369.5500000007}},{"attributes":{"ID":444918,"DIS_CODE":0,"TOWNNAME":"東區","LI":"崇信里","LIN":"5鄰","STREET":"中華東路","SECT":"三段","MAREA":" ","LANE":"２４巷","ALLEY":" ","HOUSE_NO":"５號二樓","E_COORD97":170887.10999999999,"N_COORD97":2542368.0800000001,"ADDRESS":"中華東路三段２４巷５號二樓","OBJECTID":444893},"geometry":{"x":170887.11000000034,"y":2542368.0800000001}},{"attributes":{"ID":444919,"DIS_CODE":0,"TOWNNAME":"東區","LI":"崇信里","LIN":"5鄰","STREET":"中華東路","SECT":"三段","MAREA":" ","LANE":"２４巷","ALLEY":" ","HOUSE_NO":"５號三樓","E_COORD97":170887.10999999999,"N_COORD97":2542368.0800000001,"ADDRESS":"中華東路三段２４巷５號三樓","OBJECTID":444894},"geometry":{"x":170887.11000000034,"y":2542368.0800000001}},{"attributes":{"ID":444920,"DIS_CODE":0,"TOWNNAME":"東區","LI":"崇信里","LIN":"5鄰","STREET":"中華東路","SECT":"三段","MAREA":" ","LANE":"２４巷","ALLEY":" ","HOUSE_NO":"５號五樓","E_COORD97":170887.10999999999,"N_COORD97":2542368.0800000001,"ADDRESS":"中華東路三段２４巷５號五樓","OBJECTID":444895},"geometry":{"x":170887.11000000034,"y":2542368.0800000001}},{"attributes":{"ID":444921,"DIS_CODE":0,"TOWNNAME":"東區","LI":"崇信里","LIN":"5鄰","STREET":"中華東路","SECT":"三段","MAREA":" ","LANE":"２４巷","ALLEY":" ","HOUSE_NO":"５號四樓","E_COORD97":170887.10999999999,"N_COORD97":2542368.0800000001,"ADDRESS":"中華東路三段２４巷５號四樓","OBJECTID":444896},"geometry":{"x":170887.11000000034,"y":2542368.0800000001}},{"attributes":{"ID":444922,"DIS_CODE":0,"TOWNNAME":"東區","LI":"崇信里","LIN":"5鄰","STREET":"中華東路","SECT":"三段","MAREA":" ","LANE":"２４巷","ALLEY":" ","HOUSE_NO":"６號二樓","E_COORD97":170924.19,"N_COORD97":2542375.1899999999,"ADDRESS":"中華東路三段２４巷６號二樓","OBJECTID":444897},"geometry":{"x":170924.19000000041,"y":2542375.1900000013}},{"attributes":{"ID":444923,"DIS_CODE":0,"TOWNNAME":"東區","LI":"崇信里","LIN":"5鄰","STREET":"中華東路","SECT":"三段","MAREA":" ","LANE":"２４巷","ALLEY":" ","HOUSE_NO":"６號三樓","E_COORD97":170924.19,"N_COORD97":2542375.1899999999,"ADDRESS":"中華東路三段２４巷６號三樓","OBJECTID":444898},"geometry":{"x":170924.19000000041,"y":2542375.1900000013}},{"attributes":{"ID":444924,"DIS_CODE":0,"TOWNNAME":"東區","LI":"崇信里","LIN":"5鄰","STREET":"中華東路","SECT":"三段","MAREA":" ","LANE":"２４巷","ALLEY":" ","HOUSE_NO":"６號五樓","E_COORD97":170924.19,"N_COORD97":2542375.1899999999,"ADDRESS":"中華東路三段２４巷６號五樓","OBJECTID":444899},"geometry":{"x":170924.19000000041,"y":2542375.1900000013}},{"attributes":{"ID":444925,"DIS_CODE":0,"TOWNNAME":"東區","LI":"崇信里","LIN":"5鄰","STREET":"中華東路","SECT":"三段","MAREA":" ","LANE":"２４巷","ALLEY":" ","HOUSE_NO":"６號四樓","E_COORD97":170924.19,"N_COORD97":2542375.1899999999,"ADDRESS":"中華東路三段２４巷６號四樓","OBJECTID":444900},"geometry":{"x":170924.19000000041,"y":2542375.1900000013}},{"attributes":{"ID":444926,"DIS_CODE":0,"TOWNNAME":"東區","LI":"崇信里","LIN":"5鄰","STREET":"中華東路","SECT":"三段","MAREA":" ","LANE":"２４巷","ALLEY":" ","HOUSE_NO":"７號二樓","E_COORD97":170884.72,"N_COORD97":2542375.3199999998,"ADDRESS":"中華東路三段２４巷７號二樓","OBJECTID":444901},"geometry":{"x":170884.71999999881,"y":2542375.3200000022}},{"attributes":{"ID":444927,"DIS_CODE":0,"TOWNNAME":"東區","LI":"崇信里","LIN":"5鄰","STREET":"中華東路","SECT":"三段","MAREA":" ","LANE":"２４巷","ALLEY":" ","HOUSE_NO":"７號三樓","E_COORD97":170884.72,"N_COORD97":2542375.3199999998,"ADDRESS":"中華東路三段２４巷７號三樓","OBJECTID":444902},"geometry":{"x":170884.71999999881,"y":2542375.3200000022}},{"attributes":{"ID":444928,"DIS_CODE":0,"TOWNNAME":"東區","LI":"崇信里","LIN":"5鄰","STREET":"中華東路","SECT":"三段","MAREA":" ","LANE":"２４巷","ALLEY":" ","HOUSE_NO":"７號五樓","E_COORD97":170884.72,"N_COORD97":2542375.3199999998,"ADDRESS":"中華東路三段２４巷７號五樓","OBJECTID":444903},"geometry":{"x":170884.71999999881,"y":2542375.3200000022}},{"attributes":{"ID":444929,"DIS_CODE":0,"TOWNNAME":"東區","LI":"崇信里","LIN":"5鄰","STREET":"中華東路","SECT":"三段","MAREA":" ","LANE":"２４巷","ALLEY":" ","HOUSE_NO":"７號四樓","E_COORD97":170884.72,"N_COORD97":2542375.3199999998,"ADDRESS":"中華東路三段２４巷７號四樓","OBJECTID":444904},"geometry":{"x":170884.71999999881,"y":2542375.3200000022}},{"attributes":{"ID":444930,"DIS_CODE":0,"TOWNNAME":"東區","LI":"崇信里","LIN":"5鄰","STREET":"中華東路","SECT":"三段","MAREA":" ","LANE":"２４巷","ALLEY":" ","HOUSE_NO":"８號二樓","E_COORD97":170928.01999999999,"N_COORD97":2542379.5099999998,"ADDRESS":"中華東路三段２４巷８號二樓","OBJECTID":444905},"geometry":{"x":170928.01999999955,"y":2542379.5100000035}},{"attributes":{"ID":444931,"DIS_CODE":0,"TOWNNAME":"東區","LI":"崇信里","LIN":"5鄰","STREET":"中華東路","SECT":"三段","MAREA":" ","LANE":"２４巷","ALLEY":" ","HOUSE_NO":"８號三樓","E_COORD97":170928.01999999999,"N_COORD97":2542379.5099999998,"ADDRESS":"中華東路三段２４巷８號三樓","OBJECTID":444906},"geometry":{"x":170928.01999999955,"y":2542379.5100000035}},{"attributes":{"ID":444932,"DIS_CODE":0,"TOWNNAME":"東區","LI":"崇信里","LIN":"5鄰","STREET":"中華東路","SECT":"三段","MAREA":" ","LANE":"２４巷","ALLEY":" ","HOUSE_NO":"８號五樓","E_COORD97":170928.01999999999,"N_COORD97":2542379.5099999998,"ADDRESS":"中華東路三段２４巷８號五樓","OBJECTID":444907},"geometry":{"x":170928.01999999955,"y":2542379.5100000035}},{"attributes":{"ID":444933,"DIS_CODE":0,"TOWNNAME":"東區","LI":"崇信里","LIN":"5鄰","STREET":"中華東路","SECT":"三段","MAREA":" ","LANE":"２４巷","ALLEY":" ","HOUSE_NO":"８號四樓","E_COORD97":170928.01999999999,"N_COORD97":2542379.5099999998,"ADDRESS":"中華東路三段２４巷８號四樓","OBJECTID":444908},"geometry":{"x":170928.01999999955,"y":2542379.5100000035}},{"attributes":{"ID":444934,"DIS_CODE":0,"TOWNNAME":"東區","LI":"崇信里","LIN":"5鄰","STREET":"中華東路","SECT":"三段","MAREA":" ","LANE":"２４巷","ALLEY":" ","HOUSE_NO":"９號二樓","E_COORD97":170881.82999999999,"N_COORD97":2542383.3199999998,"ADDRESS":"中華東路三段２４巷９號二樓","OBJECTID":444909},"geometry":{"x":170881.83000000101,"y":2542383.3200000003}},{"attributes":{"ID":444935,"DIS_CODE":0,"TOWNNAME":"東區","LI":"崇信里","LIN":"5鄰","STREET":"中華東路","SECT":"三段","MAREA":" ","LANE":"２４巷","ALLEY":" ","HOUSE_NO":"９號三樓","E_COORD97":170881.82999999999,"N_COORD97":2542383.3199999998,"ADDRESS":"中華東路三段２４巷９號三樓","OBJECTID":444910},"geometry":{"x":170881.83000000101,"y":2542383.3200000003}},{"attributes":{"ID":444936,"DIS_CODE":0,"TOWNNAME":"東區","LI":"崇信里","LIN":"5鄰","STREET":"中華東路","SECT":"三段","MAREA":" ","LANE":"２４巷","ALLEY":" ","HOUSE_NO":"９號五樓","E_COORD97":170881.82999999999,"N_COORD97":2542383.3199999998,"ADDRESS":"中華東路三段２４巷９號五樓","OBJECTID":444911},"geometry":{"x":170881.83000000101,"y":2542383.3200000003}},{"attributes":{"ID":444937,"DIS_CODE":0,"TOWNNAME":"東區","LI":"崇信里","LIN":"5鄰","STREET":"中華東路","SECT":"三段","MAREA":" ","LANE":"２４巷","ALLEY":" ","HOUSE_NO":"９號四樓","E_COORD97":170881.82999999999,"N_COORD97":2542383.3199999998,"ADDRESS":"中華東路三段２４巷９號四樓","OBJECTID":444912},"geometry":{"x":170881.83000000101,"y":2542383.3200000003}},{"attributes":{"ID":444938,"DIS_CODE":0,"TOWNNAME":"永康區","LI":"復華里","LIN":"5鄰","STREET":"國華街","SECT":" ","MAREA":" ","LANE":"１０２巷","ALLEY":" ","HOUSE_NO":"８２號四樓之２","E_COORD97":172951.60000000001,"N_COORD97":2546149.8599999999,"ADDRESS":"國華街１０２巷８２號四樓之２","OBJECTID":444913},"geometry":{"x":172951.59999999963,"y":2546149.8599999994}},{"attributes":{"ID":444939,"DIS_CODE":0,"TOWNNAME":"永康區","LI":"復華里","LIN":"5鄰","STREET":"國華街","SECT":" ","MAREA":" ","LANE":"１０２巷","ALLEY":" ","HOUSE_NO":"８６號十一樓之１","E_COORD97":172978.35999999999,"N_COORD97":2546138.5299999998,"ADDRESS":"國華街１０２巷８６號十一樓之１","OBJECTID":444914},"geometry":{"x":172978.36000000127,"y":2546138.5299999993}},{"attributes":{"ID":444940,"DIS_CODE":0,"TOWNNAME":"永康區","LI":"網寮里","LIN":"5鄰","STREET":"永勝街","SECT":" ","MAREA":" ","LANE":"１０６巷","ALLEY":" ","HOUSE_NO":"１７號五樓之３","E_COORD97":173587.35999999999,"N_COORD97":2546361.21,"ADDRESS":"永勝街１０６巷１７號五樓之３","OBJECTID":444915},"geometry":{"x":173587.36000000127,"y":2546361.2100000028}},{"attributes":{"ID":444941,"DIS_CODE":0,"TOWNNAME":"永康區","LI":"正強里","LIN":"5鄰","STREET":"中正路","SECT":" ","MAREA":" ","LANE":"５５巷","ALLEY":" ","HOUSE_NO":"４號八樓之３","E_COORD97":173584.70999999999,"N_COORD97":2547799.7400000002,"ADDRESS":"中正路５５巷４號八樓之３","OBJECTID":444916},"geometry":{"x":173584.71000000089,"y":2547799.7400000039}},{"attributes":{"ID":444942,"DIS_CODE":0,"TOWNNAME":"永康區","LI":"正強里","LIN":"5鄰","STREET":"中正路","SECT":" ","MAREA":" ","LANE":"５５巷","ALLEY":" ","HOUSE_NO":"８號七樓之３","E_COORD97":173558.89999999999,"N_COORD97":2547783.4900000002,"ADDRESS":"中正路５５巷８號七樓之３","OBJECTID":444917},"geometry":{"x":173558.90000000037,"y":2547783.4900000002}},{"attributes":{"ID":444943,"DIS_CODE":0,"TOWNNAME":"永康區","LI":"網寮里","LIN":"5鄰","STREET":"永勝街","SECT":" ","MAREA":" ","LANE":"１０６巷","ALLEY":" ","HOUSE_NO":"１１號七樓之３","E_COORD97":173578.39999999999,"N_COORD97":2546357.4700000002,"ADDRESS":"永勝街１０６巷１１號七樓之３","OBJECTID":444918},"geometry":{"x":173578.4000000013,"y":2546357.4699999988}},{"attributes":{"ID":444944,"DIS_CODE":0,"TOWNNAME":"永康區","LI":"正強里","LIN":"5鄰","STREET":"中正路","SECT":" ","MAREA":" ","LANE":"５５巷","ALLEY":" ","HOUSE_NO":"６號四樓之２","E_COORD97":173572.45000000001,"N_COORD97":2547795.4900000002,"ADDRESS":"中正路５５巷６號四樓之２","OBJECTID":444919},"geometry":{"x":173572.45000000205,"y":2547795.4900000021}},{"attributes":{"ID":444945,"DIS_CODE":0,"TOWNNAME":"永康區","LI":"正強里","LIN":"5鄰","STREET":"中正路","SECT":" ","MAREA":" ","LANE":"５５巷","ALLEY":" ","HOUSE_NO":"６號五樓之２","E_COORD97":173572.45000000001,"N_COORD97":2547795.4900000002,"ADDRESS":"中正路５５巷６號五樓之２","OBJECTID":444920},"geometry":{"x":173572.45000000205,"y":2547795.4900000021}},{"attributes":{"ID":444946,"DIS_CODE":0,"TOWNNAME":"東區","LI":"崇學里","LIN":"5鄰","STREET":"崇德四街","SECT":" ","MAREA":" ","LANE":"５巷","ALLEY":" ","HOUSE_NO":"３８號二樓","E_COORD97":170464.09,"N_COORD97":2542010.2999999998,"ADDRESS":"崇德四街５巷３８號二樓","OBJECTID":444921},"geometry":{"x":170464.09000000078,"y":2542010.3000000026}},{"attributes":{"ID":444947,"DIS_CODE":0,"TOWNNAME":"東區","LI":"崇學里","LIN":"5鄰","STREET":"崇德四街","SECT":" ","MAREA":" ","LANE":"５巷","ALLEY":" ","HOUSE_NO":"３８號三樓","E_COORD97":170464.09,"N_COORD97":2542010.2999999998,"ADDRESS":"崇德四街５巷３８號三樓","OBJECTID":444922},"geometry":{"x":170464.09000000078,"y":2542010.3000000026}},{"attributes":{"ID":444948,"DIS_CODE":0,"TOWNNAME":"東區","LI":"崇學里","LIN":"5鄰","STREET":"崇德四街","SECT":" ","MAREA":" ","LANE":"５巷","ALLEY":" ","HOUSE_NO":"３８號五樓","E_COORD97":170464.09,"N_COORD97":2542010.2999999998,"ADDRESS":"崇德四街５巷３８號五樓","OBJECTID":444923},"geometry":{"x":170464.09000000078,"y":2542010.3000000026}},{"attributes":{"ID":444949,"DIS_CODE":0,"TOWNNAME":"東區","LI":"崇學里","LIN":"5鄰","STREET":"崇德四街","SECT":" ","MAREA":" ","LANE":"５巷","ALLEY":" ","HOUSE_NO":"３８號六樓","E_COORD97":170464.09,"N_COORD97":2542010.2999999998,"ADDRESS":"崇德四街５巷３８號六樓","OBJECTID":444924},"geometry":{"x":170464.09000000078,"y":2542010.3000000026}},{"attributes":{"ID":444950,"DIS_CODE":0,"TOWNNAME":"東區","LI":"崇學里","LIN":"5鄰","STREET":"崇德四街","SECT":" ","MAREA":" ","LANE":"５巷","ALLEY":" ","HOUSE_NO":"３８號四樓","E_COORD97":170464.09,"N_COORD97":2542010.2999999998,"ADDRESS":"崇德四街５巷３８號四樓","OBJECTID":444925},"geometry":{"x":170464.09000000078,"y":2542010.3000000026}},{"attributes":{"ID":444951,"DIS_CODE":0,"TOWNNAME":"東區","LI":"崇學里","LIN":"5鄰","STREET":"崇德四街","SECT":" ","MAREA":" ","LANE":"５巷","ALLEY":" ","HOUSE_NO":"４０號二樓","E_COORD97":170455.48000000001,"N_COORD97":2542006.8399999999,"ADDRESS":"崇德四街５巷４０號二樓","OBJECTID":444926},"geometry":{"x":170455.48000000138,"y":2542006.8399999999}},{"attributes":{"ID":444952,"DIS_CODE":0,"TOWNNAME":"東區","LI":"崇學里","LIN":"5鄰","STREET":"崇德四街","SECT":" ","MAREA":" ","LANE":"５巷","ALLEY":" ","HOUSE_NO":"４０號三樓","E_COORD97":170455.48000000001,"N_COORD97":2542006.8399999999,"ADDRESS":"崇德四街５巷４０號三樓","OBJECTID":444927},"geometry":{"x":170455.48000000138,"y":2542006.8399999999}},{"attributes":{"ID":444953,"DIS_CODE":0,"TOWNNAME":"東區","LI":"崇學里","LIN":"5鄰","STREET":"崇德四街","SECT":" ","MAREA":" ","LANE":"５巷","ALLEY":" ","HOUSE_NO":"４０號五樓","E_COORD97":170455.48000000001,"N_COORD97":2542006.8399999999,"ADDRESS":"崇德四街５巷４０號五樓","OBJECTID":444928},"geometry":{"x":170455.48000000138,"y":2542006.8399999999}},{"attributes":{"ID":444954,"DIS_CODE":0,"TOWNNAME":"東區","LI":"崇學里","LIN":"5鄰","STREET":"崇德四街","SECT":" ","MAREA":" ","LANE":"５巷","ALLEY":" ","HOUSE_NO":"４０號六樓","E_COORD97":170455.48000000001,"N_COORD97":2542006.8399999999,"ADDRESS":"崇德四街５巷４０號六樓","OBJECTID":444929},"geometry":{"x":170455.48000000138,"y":2542006.8399999999}},{"attributes":{"ID":444955,"DIS_CODE":0,"TOWNNAME":"東區","LI":"崇學里","LIN":"5鄰","STREET":"崇德四街","SECT":" ","MAREA":" ","LANE":"５巷","ALLEY":" ","HOUSE_NO":"４０號四樓","E_COORD97":170455.48000000001,"N_COORD97":2542006.8399999999,"ADDRESS":"崇德四街５巷４０號四樓","OBJECTID":444930},"geometry":{"x":170455.48000000138,"y":2542006.8399999999}},{"attributes":{"ID":444956,"DIS_CODE":0,"TOWNNAME":"東區","LI":"崇學里","LIN":"5鄰","STREET":"崇德四街","SECT":" ","MAREA":" ","LANE":"５巷","ALLEY":" ","HOUSE_NO":"４２號二樓","E_COORD97":170464.76000000001,"N_COORD97":2542020.1299999999,"ADDRESS":"崇德四街５巷４２號二樓","OBJECTID":444931},"geometry":{"x":170464.76000000071,"y":2542020.1300000008}},{"attributes":{"ID":444957,"DIS_CODE":0,"TOWNNAME":"東區","LI":"崇學里","LIN":"5鄰","STREET":"崇德四街","SECT":" ","MAREA":" ","LANE":"５巷","ALLEY":" ","HOUSE_NO":"４２號三樓","E_COORD97":170464.76000000001,"N_COORD97":2542020.1299999999,"ADDRESS":"崇德四街５巷４２號三樓","OBJECTID":444932},"geometry":{"x":170464.76000000071,"y":2542020.1300000008}},{"attributes":{"ID":444958,"DIS_CODE":0,"TOWNNAME":"東區","LI":"崇學里","LIN":"5鄰","STREET":"崇德四街","SECT":" ","MAREA":" ","LANE":"５巷","ALLEY":" ","HOUSE_NO":"４２號五樓","E_COORD97":170464.76000000001,"N_COORD97":2542020.1299999999,"ADDRESS":"崇德四街５巷４２號五樓","OBJECTID":444933},"geometry":{"x":170464.76000000071,"y":2542020.1300000008}},{"attributes":{"ID":444959,"DIS_CODE":0,"TOWNNAME":"東區","LI":"崇學里","LIN":"5鄰","STREET":"崇德四街","SECT":" ","MAREA":" ","LANE":"５巷","ALLEY":" ","HOUSE_NO":"４２號四樓","E_COORD97":170464.76000000001,"N_COORD97":2542020.1299999999,"ADDRESS":"崇德四街５巷４２號四樓","OBJECTID":444934},"geometry":{"x":170464.76000000071,"y":2542020.1300000008}},{"attributes":{"ID":444960,"DIS_CODE":0,"TOWNNAME":"永康區","LI":"正強里","LIN":"5鄰","STREET":"中正路","SECT":" ","MAREA":" ","LANE":"５５巷","ALLEY":" ","HOUSE_NO":"８號四樓之３","E_COORD97":173558.89999999999,"N_COORD97":2547783.4900000002,"ADDRESS":"中正路５５巷８號四樓之３","OBJECTID":444935},"geometry":{"x":173558.90000000037,"y":2547783.4900000002}},{"attributes":{"ID":444961,"DIS_CODE":0,"TOWNNAME":"永康區","LI":"東橋里","LIN":"5鄰","STREET":"中山南路","SECT":" ","MAREA":" ","LANE":"１９５巷","ALLEY":" ","HOUSE_NO":"３２之７號五樓之３","E_COORD97":171459.95000000001,"N_COORD97":2546395.8999999999,"ADDRESS":"中山南路１９５巷３２之７號五樓之３","OBJECTID":444936},"geometry":{"x":171459.95000000019,"y":2546395.9000000022}},{"attributes":{"ID":444962,"DIS_CODE":0,"TOWNNAME":"永康區","LI":"復華里","LIN":"5鄰","STREET":"國華街","SECT":" ","MAREA":" ","LANE":"１０２巷","ALLEY":" ","HOUSE_NO":"８０號八樓之２","E_COORD97":172951.31,"N_COORD97":2546166.52,"ADDRESS":"國華街１０２巷８０號八樓之２","OBJECTID":444937},"geometry":{"x":172951.31000000052,"y":2546166.5200000033}},{"attributes":{"ID":444963,"DIS_CODE":0,"TOWNNAME":"永康區","LI":"埔園里","LIN":"5鄰","STREET":"中山路","SECT":" ","MAREA":" ","LANE":"１５８巷","ALLEY":" ","HOUSE_NO":"３６號四樓之３","E_COORD97":173920.45999999999,"N_COORD97":2547830.04,"ADDRESS":"中山路１５８巷３６號四樓之３","OBJECTID":444938},"geometry":{"x":173920.45999999996,"y":2547830.0399999991}},{"attributes":{"ID":444964,"DIS_CODE":0,"TOWNNAME":"永康區","LI":"東橋里","LIN":"5鄰","STREET":"中山南路","SECT":" ","MAREA":" ","LANE":"１９５巷","ALLEY":" ","HOUSE_NO":"３２之７號八樓之１","E_COORD97":171459.85000000001,"N_COORD97":2546395.8999999999,"ADDRESS":"中山南路１９５巷３２之７號八樓之１","OBJECTID":444939},"geometry":{"x":171459.84999999963,"y":2546395.9000000022}},{"attributes":{"ID":444965,"DIS_CODE":0,"TOWNNAME":"永康區","LI":"埔園里","LIN":"5鄰","STREET":"中山路","SECT":" ","MAREA":" ","LANE":"１５８巷","ALLEY":" ","HOUSE_NO":"３４號六樓之４","E_COORD97":173879.42000000001,"N_COORD97":2547820.04,"ADDRESS":"中山路１５８巷３４號六樓之４","OBJECTID":444940},"geometry":{"x":173879.42000000086,"y":2547820.0399999972}},{"attributes":{"ID":444966,"DIS_CODE":0,"TOWNNAME":"永康區","LI":"東橋里","LIN":"5鄰","STREET":"中山南路","SECT":" ","MAREA":" ","LANE":"１９５巷","ALLEY":" ","HOUSE_NO":"３２之７號八樓之７","E_COORD97":171459.92999999999,"N_COORD97":2546395.8999999999,"ADDRESS":"中山南路１９５巷３２之７號八樓之７","OBJECTID":444941},"geometry":{"x":171459.93000000063,"y":2546395.9000000022}},{"attributes":{"ID":444967,"DIS_CODE":0,"TOWNNAME":"永康區","LI":"東橋里","LIN":"5鄰","STREET":"中山南路","SECT":" ","MAREA":" ","LANE":"１９５巷","ALLEY":" ","HOUSE_NO":"３２之７號五樓之７","E_COORD97":171459.92999999999,"N_COORD97":2546395.8999999999,"ADDRESS":"中山南路１９５巷３２之７號五樓之７","OBJECTID":444942},"geometry":{"x":171459.93000000063,"y":2546395.9000000022}},{"attributes":{"ID":444968,"DIS_CODE":0,"TOWNNAME":"永康區","LI":"埔園里","LIN":"5鄰","STREET":"中山路","SECT":" ","MAREA":" ","LANE":"１５８巷","ALLEY":" ","HOUSE_NO":"３４號五樓之１","E_COORD97":173879.39999999999,"N_COORD97":2547820.04,"ADDRESS":"中山路１５８巷３４號五樓之１","OBJECTID":444943},"geometry":{"x":173879.40000000037,"y":2547820.0399999972}},{"attributes":{"ID":444969,"DIS_CODE":0,"TOWNNAME":"東區","LI":"路東里","LIN":"5鄰","STREET":"大同路","SECT":"二段","MAREA":" ","LANE":"９７巷","ALLEY":" ","HOUSE_NO":"５號七樓","E_COORD97":169380.81,"N_COORD97":2542184.3700000001,"ADDRESS":"大同路二段９７巷５號七樓","OBJECTID":444944},"geometry":{"x":169380.81000000052,"y":2542184.370000001}},{"attributes":{"ID":444970,"DIS_CODE":0,"TOWNNAME":"永康區","LI":"埔園里","LIN":"5鄰","STREET":"中山路","SECT":" ","MAREA":" ","LANE":"１５８巷","ALLEY":" ","HOUSE_NO":"３４號四樓之４","E_COORD97":173879.42000000001,"N_COORD97":2547820.04,"ADDRESS":"中山路１５８巷３４號四樓之４","OBJECTID":444945},"geometry":{"x":173879.42000000086,"y":2547820.0399999972}},{"attributes":{"ID":444971,"DIS_CODE":0,"TOWNNAME":"永康區","LI":"東橋里","LIN":"5鄰","STREET":"中山南路","SECT":" ","MAREA":" ","LANE":"１９５巷","ALLEY":" ","HOUSE_NO":"３２之７號十樓之６","E_COORD97":171459.95000000001,"N_COORD97":2546395.8999999999,"ADDRESS":"中山南路１９５巷３２之７號十樓之６","OBJECTID":444946},"geometry":{"x":171459.95000000019,"y":2546395.9000000022}},{"attributes":{"ID":444972,"DIS_CODE":0,"TOWNNAME":"永康區","LI":"埔園里","LIN":"5鄰","STREET":"中山路","SECT":" ","MAREA":" ","LANE":"１５８巷","ALLEY":" ","HOUSE_NO":"３６號五樓之２","E_COORD97":173920.48999999999,"N_COORD97":2547830.04,"ADDRESS":"中山路１５８巷３６號五樓之２","OBJECTID":444947},"geometry":{"x":173920.49000000022,"y":2547830.0399999991}},{"attributes":{"ID":444973,"DIS_CODE":0,"TOWNNAME":"東區","LI":"新東里","LIN":"14鄰","STREET":"裕豐街","SECT":" ","MAREA":" ","LANE":"１１５巷","ALLEY":" ","HOUSE_NO":"８號","E_COORD97":170722.82000000001,"N_COORD97":2543028.2200000002,"ADDRESS":"裕豐街１１５巷８號","OBJECTID":444948},"geometry":{"x":170722.82000000123,"y":2543028.2200000025}},{"attributes":{"ID":444974,"DIS_CODE":0,"TOWNNAME":"永康區","LI":"大橋里","LIN":"5鄰","STREET":"大橋一街","SECT":" ","MAREA":" ","LANE":"１０３巷","ALLEY":" ","HOUSE_NO":"１９８號六樓","E_COORD97":170811.23999999999,"N_COORD97":2546796.5,"ADDRESS":"大橋一街１０３巷１９８號六樓","OBJECTID":444949},"geometry":{"x":170811.24000000115,"y":2546796.5}},{"attributes":{"ID":444975,"DIS_CODE":0,"TOWNNAME":"東區","LI":"路東里","LIN":"5鄰","STREET":"大同路","SECT":"二段","MAREA":" ","LANE":"９７巷","ALLEY":" ","HOUSE_NO":"１號七樓","E_COORD97":169379.12,"N_COORD97":2542169.25,"ADDRESS":"大同路二段９７巷１號七樓","OBJECTID":444950},"geometry":{"x":169379.12000000104,"y":2542169.2500000019}},{"attributes":{"ID":444976,"DIS_CODE":0,"TOWNNAME":"東區","LI":"路東里","LIN":"5鄰","STREET":"大同路","SECT":"二段","MAREA":" ","LANE":"９７巷","ALLEY":" ","HOUSE_NO":"１號九樓","E_COORD97":169379.12,"N_COORD97":2542169.25,"ADDRESS":"大同路二段９７巷１號九樓","OBJECTID":444951},"geometry":{"x":169379.12000000104,"y":2542169.2500000019}},{"attributes":{"ID":444977,"DIS_CODE":0,"TOWNNAME":"東區","LI":"路東里","LIN":"5鄰","STREET":"大同路","SECT":"二段","MAREA":" ","LANE":"９７巷","ALLEY":" ","HOUSE_NO":"１號八樓","E_COORD97":169379.12,"N_COORD97":2542169.25,"ADDRESS":"大同路二段９７巷１號八樓","OBJECTID":444952},"geometry":{"x":169379.12000000104,"y":2542169.2500000019}},{"attributes":{"ID":444978,"DIS_CODE":0,"TOWNNAME":"東區","LI":"路東里","LIN":"5鄰","STREET":"大同路","SECT":"二段","MAREA":" ","LANE":"９７巷","ALLEY":" ","HOUSE_NO":"１號十一樓","E_COORD97":169379.12,"N_COORD97":2542169.25,"ADDRESS":"大同路二段９７巷１號十一樓","OBJECTID":444953},"geometry":{"x":169379.12000000104,"y":2542169.2500000019}},{"attributes":{"ID":444979,"DIS_CODE":0,"TOWNNAME":"東區","LI":"路東里","LIN":"5鄰","STREET":"大同路","SECT":"二段","MAREA":" ","LANE":"９７巷","ALLEY":" ","HOUSE_NO":"１號十二樓","E_COORD97":169379.12,"N_COORD97":2542169.25,"ADDRESS":"大同路二段９７巷１號十二樓","OBJECTID":444954},"geometry":{"x":169379.12000000104,"y":2542169.2500000019}},{"attributes":{"ID":444980,"DIS_CODE":0,"TOWNNAME":"東區","LI":"路東里","LIN":"5鄰","STREET":"大同路","SECT":"二段","MAREA":" ","LANE":"９７巷","ALLEY":" ","HOUSE_NO":"１號十三樓","E_COORD97":169379.12,"N_COORD97":2542169.25,"ADDRESS":"大同路二段９７巷１號十三樓","OBJECTID":444955},"geometry":{"x":169379.12000000104,"y":2542169.2500000019}},{"attributes":{"ID":444981,"DIS_CODE":0,"TOWNNAME":"東區","LI":"路東里","LIN":"5鄰","STREET":"大同路","SECT":"二段","MAREA":" ","LANE":"９７巷","ALLEY":" ","HOUSE_NO":"１號十五樓","E_COORD97":169379.12,"N_COORD97":2542169.25,"ADDRESS":"大同路二段９７巷１號十五樓","OBJECTID":444956},"geometry":{"x":169379.12000000104,"y":2542169.2500000019}},{"attributes":{"ID":444982,"DIS_CODE":0,"TOWNNAME":"南區","LI":"郡南里","LIN":"5鄰","STREET":"永興一街","SECT":" ","MAREA":" ","LANE":" ","ALLEY":" ","HOUSE_NO":"７號","E_COORD97":167280.92999999999,"N_COORD97":2540698.4900000002,"ADDRESS":"永興一街７號","OBJECTID":444957},"geometry":{"x":167280.9299999997,"y":2540698.4900000039}},{"attributes":{"ID":444983,"DIS_CODE":0,"TOWNNAME":"東區","LI":"路東里","LIN":"5鄰","STREET":"大同路","SECT":"二段","MAREA":" ","LANE":"９７巷","ALLEY":" ","HOUSE_NO":"１號十六樓","E_COORD97":169379.12,"N_COORD97":2542169.25,"ADDRESS":"大同路二段９７巷１號十六樓","OBJECTID":444958},"geometry":{"x":169379.12000000104,"y":2542169.2500000019}},{"attributes":{"ID":444984,"DIS_CODE":0,"TOWNNAME":"東區","LI":"路東里","LIN":"5鄰","STREET":"大同路","SECT":"二段","MAREA":" ","LANE":"９７巷","ALLEY":" ","HOUSE_NO":"１號十四樓","E_COORD97":169379.12,"N_COORD97":2542169.25,"ADDRESS":"大同路二段９７巷１號十四樓","OBJECTID":444959},"geometry":{"x":169379.12000000104,"y":2542169.2500000019}},{"attributes":{"ID":444985,"DIS_CODE":0,"TOWNNAME":"東區","LI":"路東里","LIN":"5鄰","STREET":"大同路","SECT":"二段","MAREA":" ","LANE":"９７巷","ALLEY":" ","HOUSE_NO":"１號十樓","E_COORD97":169379.12,"N_COORD97":2542169.25,"ADDRESS":"大同路二段９７巷１號十樓","OBJECTID":444960},"geometry":{"x":169379.12000000104,"y":2542169.2500000019}},{"attributes":{"ID":444986,"DIS_CODE":0,"TOWNNAME":"東區","LI":"路東里","LIN":"5鄰","STREET":"大同路","SECT":"二段","MAREA":" ","LANE":"９７巷","ALLEY":" ","HOUSE_NO":"１號五樓","E_COORD97":169379.12,"N_COORD97":2542169.25,"ADDRESS":"大同路二段９７巷１號五樓","OBJECTID":444961},"geometry":{"x":169379.12000000104,"y":2542169.2500000019}},{"attributes":{"ID":444987,"DIS_CODE":0,"TOWNNAME":"東區","LI":"路東里","LIN":"5鄰","STREET":"大同路","SECT":"二段","MAREA":" ","LANE":"９７巷","ALLEY":" ","HOUSE_NO":"１號六樓","E_COORD97":169379.12,"N_COORD97":2542169.25,"ADDRESS":"大同路二段９７巷１號六樓","OBJECTID":444962},"geometry":{"x":169379.12000000104,"y":2542169.2500000019}},{"attributes":{"ID":444988,"DIS_CODE":0,"TOWNNAME":"東區","LI":"路東里","LIN":"5鄰","STREET":"大同路","SECT":"二段","MAREA":" ","LANE":"９７巷","ALLEY":" ","HOUSE_NO":"１號四樓","E_COORD97":169379.12,"N_COORD97":2542169.25,"ADDRESS":"大同路二段９７巷１號四樓","OBJECTID":444963},"geometry":{"x":169379.12000000104,"y":2542169.2500000019}},{"attributes":{"ID":444989,"DIS_CODE":0,"TOWNNAME":"東區","LI":"路東里","LIN":"5鄰","STREET":"大同路","SECT":"二段","MAREA":" ","LANE":"９７巷","ALLEY":" ","HOUSE_NO":"３號七樓","E_COORD97":169379.79999999999,"N_COORD97":2542177.3100000001,"ADDRESS":"大同路二段９７巷３號七樓","OBJECTID":444964},"geometry":{"x":169379.80000000075,"y":2542177.3100000005}},{"attributes":{"ID":444990,"DIS_CODE":0,"TOWNNAME":"東區","LI":"路東里","LIN":"5鄰","STREET":"大同路","SECT":"二段","MAREA":" ","LANE":"９７巷","ALLEY":" ","HOUSE_NO":"３號九樓","E_COORD97":169379.79999999999,"N_COORD97":2542177.3100000001,"ADDRESS":"大同路二段９７巷３號九樓","OBJECTID":444965},"geometry":{"x":169379.80000000075,"y":2542177.3100000005}},{"attributes":{"ID":444991,"DIS_CODE":0,"TOWNNAME":"東區","LI":"路東里","LIN":"5鄰","STREET":"大同路","SECT":"二段","MAREA":" ","LANE":"９７巷","ALLEY":" ","HOUSE_NO":"３號八樓","E_COORD97":169379.79999999999,"N_COORD97":2542177.3100000001,"ADDRESS":"大同路二段９７巷３號八樓","OBJECTID":444966},"geometry":{"x":169379.80000000075,"y":2542177.3100000005}},{"attributes":{"ID":444992,"DIS_CODE":0,"TOWNNAME":"東區","LI":"路東里","LIN":"5鄰","STREET":"大同路","SECT":"二段","MAREA":" ","LANE":"９７巷","ALLEY":" ","HOUSE_NO":"３號十一樓","E_COORD97":169379.79999999999,"N_COORD97":2542177.3100000001,"ADDRESS":"大同路二段９７巷３號十一樓","OBJECTID":444967},"geometry":{"x":169379.80000000075,"y":2542177.3100000005}},{"attributes":{"ID":444993,"DIS_CODE":0,"TOWNNAME":"東區","LI":"路東里","LIN":"5鄰","STREET":"大同路","SECT":"二段","MAREA":" ","LANE":"９７巷","ALLEY":" ","HOUSE_NO":"３號十二樓","E_COORD97":169379.79999999999,"N_COORD97":2542177.3100000001,"ADDRESS":"大同路二段９７巷３號十二樓","OBJECTID":444968},"geometry":{"x":169379.80000000075,"y":2542177.3100000005}},{"attributes":{"ID":444994,"DIS_CODE":0,"TOWNNAME":"東區","LI":"路東里","LIN":"5鄰","STREET":"大同路","SECT":"二段","MAREA":" ","LANE":"９７巷","ALLEY":" ","HOUSE_NO":"３號十三樓","E_COORD97":169379.79999999999,"N_COORD97":2542177.3100000001,"ADDRESS":"大同路二段９７巷３號十三樓","OBJECTID":444969},"geometry":{"x":169379.80000000075,"y":2542177.3100000005}},{"attributes":{"ID":444995,"DIS_CODE":0,"TOWNNAME":"東區","LI":"路東里","LIN":"5鄰","STREET":"大同路","SECT":"二段","MAREA":" ","LANE":"９７巷","ALLEY":" ","HOUSE_NO":"３號十五樓","E_COORD97":169379.79999999999,"N_COORD97":2542177.3100000001,"ADDRESS":"大同路二段９７巷３號十五樓","OBJECTID":444970},"geometry":{"x":169379.80000000075,"y":2542177.3100000005}},{"attributes":{"ID":444996,"DIS_CODE":0,"TOWNNAME":"東區","LI":"路東里","LIN":"5鄰","STREET":"大同路","SECT":"二段","MAREA":" ","LANE":"９７巷","ALLEY":" ","HOUSE_NO":"３號十六樓","E_COORD97":169379.79999999999,"N_COORD97":2542177.3100000001,"ADDRESS":"大同路二段９７巷３號十六樓","OBJECTID":444971},"geometry":{"x":169379.80000000075,"y":2542177.3100000005}},{"attributes":{"ID":444997,"DIS_CODE":0,"TOWNNAME":"東區","LI":"路東里","LIN":"5鄰","STREET":"大同路","SECT":"二段","MAREA":" ","LANE":"９７巷","ALLEY":" ","HOUSE_NO":"３號十四樓","E_COORD97":169379.79999999999,"N_COORD97":2542177.3100000001,"ADDRESS":"大同路二段９７巷３號十四樓","OBJECTID":444972},"geometry":{"x":169379.80000000075,"y":2542177.3100000005}},{"attributes":{"ID":444998,"DIS_CODE":0,"TOWNNAME":"東區","LI":"路東里","LIN":"5鄰","STREET":"大同路","SECT":"二段","MAREA":" ","LANE":"９７巷","ALLEY":" ","HOUSE_NO":"３號十樓","E_COORD97":169379.79999999999,"N_COORD97":2542177.3100000001,"ADDRESS":"大同路二段９７巷３號十樓","OBJECTID":444973},"geometry":{"x":169379.80000000075,"y":2542177.3100000005}},{"attributes":{"ID":444999,"DIS_CODE":0,"TOWNNAME":"東區","LI":"路東里","LIN":"5鄰","STREET":"大同路","SECT":"二段","MAREA":" ","LANE":"９７巷","ALLEY":" ","HOUSE_NO":"３號五樓","E_COORD97":169379.79999999999,"N_COORD97":2542177.3100000001,"ADDRESS":"大同路二段９７巷３號五樓","OBJECTID":444974},"geometry":{"x":169379.80000000075,"y":2542177.3100000005}},{"attributes":{"ID":445000,"DIS_CODE":0,"TOWNNAME":"東區","LI":"路東里","LIN":"5鄰","STREET":"大同路","SECT":"二段","MAREA":" ","LANE":"９７巷","ALLEY":" ","HOUSE_NO":"３號六樓","E_COORD97":169379.79999999999,"N_COORD97":2542177.3100000001,"ADDRESS":"大同路二段９７巷３號六樓","OBJECTID":444975},"geometry":{"x":169379.80000000075,"y":2542177.3100000005}},{"attributes":{"ID":445001,"DIS_CODE":0,"TOWNNAME":"東區","LI":"路東里","LIN":"5鄰","STREET":"大同路","SECT":"二段","MAREA":" ","LANE":"９７巷","ALLEY":" ","HOUSE_NO":"５號九樓","E_COORD97":169380.81,"N_COORD97":2542184.3700000001,"ADDRESS":"大同路二段９７巷５號九樓","OBJECTID":444976},"geometry":{"x":169380.81000000052,"y":2542184.370000001}},{"attributes":{"ID":445002,"DIS_CODE":0,"TOWNNAME":"東區","LI":"路東里","LIN":"5鄰","STREET":"大同路","SECT":"二段","MAREA":" ","LANE":"９７巷","ALLEY":" ","HOUSE_NO":"５號八樓","E_COORD97":169380.81,"N_COORD97":2542184.3700000001,"ADDRESS":"大同路二段９７巷５號八樓","OBJECTID":444977},"geometry":{"x":169380.81000000052,"y":2542184.370000001}},{"attributes":{"ID":445003,"DIS_CODE":0,"TOWNNAME":"下營區","LI":"後街里","LIN":"1鄰","STREET":"中正北路","SECT":" ","MAREA":" ","LANE":" ","ALLEY":" ","HOUSE_NO":"５１６號","E_COORD97":173759.54000000001,"N_COORD97":2571997.6200000001,"ADDRESS":"中正北路５１６號","OBJECTID":444978},"geometry":{"x":173759.54000000004,"y":2571997.620000001}},{"attributes":{"ID":445004,"DIS_CODE":0,"TOWNNAME":"東區","LI":"路東里","LIN":"5鄰","STREET":"大同路","SECT":"二段","MAREA":" ","LANE":"９７巷","ALLEY":" ","HOUSE_NO":"５號十一樓","E_COORD97":169380.81,"N_COORD97":2542184.3700000001,"ADDRESS":"大同路二段９７巷５號十一樓","OBJECTID":444979},"geometry":{"x":169380.81000000052,"y":2542184.370000001}},{"attributes":{"ID":445005,"DIS_CODE":0,"TOWNNAME":"東區","LI":"路東里","LIN":"5鄰","STREET":"大同路","SECT":"二段","MAREA":" ","LANE":"９７巷","ALLEY":" ","HOUSE_NO":"５號十二樓","E_COORD97":169380.81,"N_COORD97":2542184.3700000001,"ADDRESS":"大同路二段９７巷５號十二樓","OBJECTID":444980},"geometry":{"x":169380.81000000052,"y":2542184.370000001}},{"attributes":{"ID":445006,"DIS_CODE":0,"TOWNNAME":"東區","LI":"路東里","LIN":"5鄰","STREET":"大同路","SECT":"二段","MAREA":" ","LANE":"９７巷","ALLEY":" ","HOUSE_NO":"５號十三樓","E_COORD97":169380.81,"N_COORD97":2542184.3700000001,"ADDRESS":"大同路二段９７巷５號十三樓","OBJECTID":444981},"geometry":{"x":169380.81000000052,"y":2542184.370000001}},{"attributes":{"ID":445007,"DIS_CODE":0,"TOWNNAME":"東區","LI":"路東里","LIN":"5鄰","STREET":"大同路","SECT":"二段","MAREA":" ","LANE":"９７巷","ALLEY":" ","HOUSE_NO":"５號十五樓","E_COORD97":169380.81,"N_COORD97":2542184.3700000001,"ADDRESS":"大同路二段９７巷５號十五樓","OBJECTID":444982},"geometry":{"x":169380.81000000052,"y":2542184.370000001}},{"attributes":{"ID":445008,"DIS_CODE":0,"TOWNNAME":"東區","LI":"路東里","LIN":"5鄰","STREET":"大同路","SECT":"二段","MAREA":" ","LANE":"９７巷","ALLEY":" ","HOUSE_NO":"５號十六樓","E_COORD97":169380.81,"N_COORD97":2542184.3700000001,"ADDRESS":"大同路二段９７巷５號十六樓","OBJECTID":444983},"geometry":{"x":169380.81000000052,"y":2542184.370000001}},{"attributes":{"ID":445009,"DIS_CODE":0,"TOWNNAME":"東區","LI":"路東里","LIN":"5鄰","STREET":"大同路","SECT":"二段","MAREA":" ","LANE":"９７巷","ALLEY":" ","HOUSE_NO":"５號十四樓","E_COORD97":169380.81,"N_COORD97":2542184.3700000001,"ADDRESS":"大同路二段９７巷５號十四樓","OBJECTID":444984},"geometry":{"x":169380.81000000052,"y":2542184.370000001}},{"attributes":{"ID":445010,"DIS_CODE":0,"TOWNNAME":"東區","LI":"路東里","LIN":"5鄰","STREET":"大同路","SECT":"二段","MAREA":" ","LANE":"９７巷","ALLEY":" ","HOUSE_NO":"５號十樓","E_COORD97":169380.81,"N_COORD97":2542184.3700000001,"ADDRESS":"大同路二段９７巷５號十樓","OBJECTID":444985},"geometry":{"x":169380.81000000052,"y":2542184.370000001}},{"attributes":{"ID":445011,"DIS_CODE":0,"TOWNNAME":"東區","LI":"路東里","LIN":"5鄰","STREET":"大同路","SECT":"二段","MAREA":" ","LANE":"９７巷","ALLEY":" ","HOUSE_NO":"５號五樓","E_COORD97":169380.81,"N_COORD97":2542184.3700000001,"ADDRESS":"大同路二段９７巷５號五樓","OBJECTID":444986},"geometry":{"x":169380.81000000052,"y":2542184.370000001}},{"attributes":{"ID":445012,"DIS_CODE":0,"TOWNNAME":"東區","LI":"路東里","LIN":"5鄰","STREET":"大同路","SECT":"二段","MAREA":" ","LANE":"９７巷","ALLEY":" ","HOUSE_NO":"５號六樓","E_COORD97":169380.81,"N_COORD97":2542184.3700000001,"ADDRESS":"大同路二段９７巷５號六樓","OBJECTID":444987},"geometry":{"x":169380.81000000052,"y":2542184.370000001}},{"attributes":{"ID":445013,"DIS_CODE":0,"TOWNNAME":"東區","LI":"路東里","LIN":"5鄰","STREET":"大同路","SECT":"二段","MAREA":" ","LANE":"９７巷","ALLEY":" ","HOUSE_NO":"５號四樓","E_COORD97":169380.81,"N_COORD97":2542184.3700000001,"ADDRESS":"大同路二段９７巷５號四樓","OBJECTID":444988},"geometry":{"x":169380.81000000052,"y":2542184.370000001}},{"attributes":{"ID":445014,"DIS_CODE":0,"TOWNNAME":"東區","LI":"路東里","LIN":"5鄰","STREET":"大同路","SECT":"二段","MAREA":" ","LANE":"９７巷","ALLEY":" ","HOUSE_NO":"７號七樓","E_COORD97":169382.48999999999,"N_COORD97":2542194.7799999998,"ADDRESS":"大同路二段９７巷７號七樓","OBJECTID":444989},"geometry":{"x":169382.49000000022,"y":2542194.7800000012}},{"attributes":{"ID":445015,"DIS_CODE":0,"TOWNNAME":"東區","LI":"路東里","LIN":"5鄰","STREET":"大同路","SECT":"二段","MAREA":" ","LANE":"９７巷","ALLEY":" ","HOUSE_NO":"７號九樓","E_COORD97":169382.48999999999,"N_COORD97":2542194.7799999998,"ADDRESS":"大同路二段９７巷７號九樓","OBJECTID":444990},"geometry":{"x":169382.49000000022,"y":2542194.7800000012}},{"attributes":{"ID":445016,"DIS_CODE":0,"TOWNNAME":"東區","LI":"路東里","LIN":"5鄰","STREET":"大同路","SECT":"二段","MAREA":" ","LANE":"９７巷","ALLEY":" ","HOUSE_NO":"７號八樓","E_COORD97":169382.48999999999,"N_COORD97":2542194.7799999998,"ADDRESS":"大同路二段９７巷７號八樓","OBJECTID":444991},"geometry":{"x":169382.49000000022,"y":2542194.7800000012}},{"attributes":{"ID":445017,"DIS_CODE":0,"TOWNNAME":"東區","LI":"路東里","LIN":"5鄰","STREET":"大同路","SECT":"二段","MAREA":" ","LANE":"９７巷","ALLEY":" ","HOUSE_NO":"７號十一樓","E_COORD97":169382.48999999999,"N_COORD97":2542194.7799999998,"ADDRESS":"大同路二段９７巷７號十一樓","OBJECTID":444992},"geometry":{"x":169382.49000000022,"y":2542194.7800000012}},{"attributes":{"ID":445018,"DIS_CODE":0,"TOWNNAME":"東區","LI":"路東里","LIN":"5鄰","STREET":"大同路","SECT":"二段","MAREA":" ","LANE":"９７巷","ALLEY":" ","HOUSE_NO":"７號十二樓","E_COORD97":169382.48999999999,"N_COORD97":2542194.7799999998,"ADDRESS":"大同路二段９７巷７號十二樓","OBJECTID":444993},"geometry":{"x":169382.49000000022,"y":2542194.7800000012}},{"attributes":{"ID":445019,"DIS_CODE":0,"TOWNNAME":"東區","LI":"路東里","LIN":"5鄰","STREET":"大同路","SECT":"二段","MAREA":" ","LANE":"９７巷","ALLEY":" ","HOUSE_NO":"７號十三樓","E_COORD97":169382.48999999999,"N_COORD97":2542194.7799999998,"ADDRESS":"大同路二段９７巷７號十三樓","OBJECTID":444994},"geometry":{"x":169382.49000000022,"y":2542194.7800000012}},{"attributes":{"ID":445020,"DIS_CODE":0,"TOWNNAME":"東區","LI":"路東里","LIN":"5鄰","STREET":"大同路","SECT":"二段","MAREA":" ","LANE":"９７巷","ALLEY":" ","HOUSE_NO":"７號十五樓","E_COORD97":169382.48999999999,"N_COORD97":2542194.7799999998,"ADDRESS":"大同路二段９７巷７號十五樓","OBJECTID":444995},"geometry":{"x":169382.49000000022,"y":2542194.7800000012}},{"attributes":{"ID":445021,"DIS_CODE":0,"TOWNNAME":"東區","LI":"路東里","LIN":"5鄰","STREET":"大同路","SECT":"二段","MAREA":" ","LANE":"９７巷","ALLEY":" ","HOUSE_NO":"７號十六樓","E_COORD97":169382.48999999999,"N_COORD97":2542194.7799999998,"ADDRESS":"大同路二段９７巷７號十六樓","OBJECTID":444996},"geometry":{"x":169382.49000000022,"y":2542194.7800000012}},{"attributes":{"ID":445022,"DIS_CODE":0,"TOWNNAME":"東區","LI":"路東里","LIN":"5鄰","STREET":"大同路","SECT":"二段","MAREA":" ","LANE":"９７巷","ALLEY":" ","HOUSE_NO":"７號十四樓","E_COORD97":169382.48999999999,"N_COORD97":2542194.7799999998,"ADDRESS":"大同路二段９７巷７號十四樓","OBJECTID":444997},"geometry":{"x":169382.49000000022,"y":2542194.7800000012}},{"attributes":{"ID":445023,"DIS_CODE":0,"TOWNNAME":"東區","LI":"路東里","LIN":"5鄰","STREET":"大同路","SECT":"二段","MAREA":" ","LANE":"９７巷","ALLEY":" ","HOUSE_NO":"７號十樓","E_COORD97":169382.48999999999,"N_COORD97":2542194.7799999998,"ADDRESS":"大同路二段９７巷７號十樓","OBJECTID":444998},"geometry":{"x":169382.49000000022,"y":2542194.7800000012}},{"attributes":{"ID":445024,"DIS_CODE":0,"TOWNNAME":"東區","LI":"路東里","LIN":"5鄰","STREET":"大同路","SECT":"二段","MAREA":" ","LANE":"９７巷","ALLEY":" ","HOUSE_NO":"７號五樓","E_COORD97":169382.48999999999,"N_COORD97":2542194.7799999998,"ADDRESS":"大同路二段９７巷７號五樓","OBJECTID":444999},"geometry":{"x":169382.49000000022,"y":2542194.7800000012}},{"attributes":{"ID":445025,"DIS_CODE":0,"TOWNNAME":"東區","LI":"路東里","LIN":"5鄰","STREET":"大同路","SECT":"二段","MAREA":" ","LANE":"９７巷","ALLEY":" ","HOUSE_NO":"７號六樓","E_COORD97":169382.48999999999,"N_COORD97":2542194.7799999998,"ADDRESS":"大同路二段９７巷７號六樓","OBJECTID":445000},"geometry":{"x":169382.49000000022,"y":2542194.7800000012}}]}