{"displayFieldName":"TOWNNAME","fieldAliases":{"ID":"ID","DIS_CODE":"DIS_CODE","TOWNNAME":"TOWNNAME","LI":"LI","LIN":"LIN","STREET":"STREET","SECT":"SECT","MAREA":"MAREA","LANE":"LANE","ALLEY":"ALLEY","HOUSE_NO":"HOUSE_NO","E_COORD97":"E_COORD97","N_COORD97":"N_COORD97","ADDRESS":"ADDRESS","OBJECTID":"OBJECTID"},"geometryType":"esriGeometryPoint","spatialReference":{"wkid":102443,"latestWkid":3826},"fields":[{"name":"ID","type":"esriFieldTypeDouble","alias":"ID"},{"name":"DIS_CODE","type":"esriFieldTypeInteger","alias":"DIS_CODE"},{"name":"TOWNNAME","type":"esriFieldTypeString","alias":"TOWNNAME","length":8},{"name":"LI","type":"esriFieldTypeString","alias":"LI","length":8},{"name":"LIN","type":"esriFieldTypeString","alias":"LIN","length":12},{"name":"STREET","type":"esriFieldTypeString","alias":"STREET","length":20},{"name":"SECT","type":"esriFieldTypeString","alias":"SECT","length":8},{"name":"MAREA","type":"esriFieldTypeString","alias":"MAREA","length":12},{"name":"LANE","type":"esriFieldTypeString","alias":"LANE","length":10},{"name":"ALLEY","type":"esriFieldTypeString","alias":"ALLEY","length":10},{"name":"HOUSE_NO","type":"esriFieldTypeString","alias":"HOUSE_NO","length":20},{"name":"E_COORD97","type":"esriFieldTypeDouble","alias":"E_COORD97"},{"name":"N_COORD97","type":"esriFieldTypeDouble","alias":"N_COORD97"},{"name":"ADDRESS","type":"esriFieldTypeString","alias":"ADDRESS","length":50},{"name":"OBJECTID","type":"esriFieldTypeOID","alias":"OBJECTID"}],"features":[{"attributes":{"ID":420626,"DIS_CODE":0,"TOWNNAME":"中西區","LI":"協進里","LIN":"2鄰","STREET":"民生路","SECT":"二段","MAREA":" ","LANE":"２３０巷","ALLEY":" ","HOUSE_NO":"２號","E_COORD97":167191.42000000001,"N_COORD97":2544176.1899999999,"ADDRESS":"民生路二段２３０巷２號","OBJECTID":420601},"geometry":{"x":167191.41999999993,"y":2544176.1900000013}},{"attributes":{"ID":420627,"DIS_CODE":0,"TOWNNAME":"中西區","LI":"協進里","LIN":"2鄰","STREET":"民生路","SECT":"二段","MAREA":" ","LANE":"２３０巷","ALLEY":" ","HOUSE_NO":"４號","E_COORD97":167194.98999999999,"N_COORD97":2544179.3199999998,"ADDRESS":"民生路二段２３０巷４號","OBJECTID":420602},"geometry":{"x":167194.99000000115,"y":2544179.3200000022}},{"attributes":{"ID":420628,"DIS_CODE":0,"TOWNNAME":"中西區","LI":"協進里","LIN":"2鄰","STREET":"民生路","SECT":"二段","MAREA":" ","LANE":"２３０巷","ALLEY":" ","HOUSE_NO":"６號","E_COORD97":167204.38,"N_COORD97":2544178.5699999998,"ADDRESS":"民生路二段２３０巷６號","OBJECTID":420603},"geometry":{"x":167204.38000000082,"y":2544178.5700000003}},{"attributes":{"ID":420629,"DIS_CODE":0,"TOWNNAME":"永康區","LI":"網寮里","LIN":"2鄰","STREET":"永二街","SECT":" ","MAREA":" ","LANE":"１２３巷","ALLEY":" ","HOUSE_NO":"８號","E_COORD97":173554.26000000001,"N_COORD97":2546459.52,"ADDRESS":"永二街１２３巷８號","OBJECTID":420604},"geometry":{"x":173554.25999999978,"y":2546459.5200000014}},{"attributes":{"ID":420630,"DIS_CODE":0,"TOWNNAME":"永康區","LI":"大灣里","LIN":"2鄰","STREET":"中灣一街","SECT":" ","MAREA":" ","LANE":"３８巷","ALLEY":" ","HOUSE_NO":"５號","E_COORD97":174704.57000000001,"N_COORD97":2545645.2000000002,"ADDRESS":"中灣一街３８巷５號","OBJECTID":420605},"geometry":{"x":174704.57000000123,"y":2545645.1999999993}},{"attributes":{"ID":420631,"DIS_CODE":0,"TOWNNAME":"永康區","LI":"埔園里","LIN":"2鄰","STREET":"永埔街","SECT":" ","MAREA":" ","LANE":"７５巷","ALLEY":" ","HOUSE_NO":"１３號","E_COORD97":173913.75,"N_COORD97":2547681.7200000002,"ADDRESS":"永埔街７５巷１３號","OBJECTID":420606},"geometry":{"x":173913.75,"y":2547681.7200000044}},{"attributes":{"ID":420632,"DIS_CODE":0,"TOWNNAME":"永康區","LI":"埔園里","LIN":"2鄰","STREET":"永埔街","SECT":" ","MAREA":" ","LANE":"７５巷","ALLEY":" ","HOUSE_NO":"１５號","E_COORD97":173909.63,"N_COORD97":2547680.7400000002,"ADDRESS":"永埔街７５巷１５號","OBJECTID":420607},"geometry":{"x":173909.62999999989,"y":2547680.7400000002}},{"attributes":{"ID":420633,"DIS_CODE":0,"TOWNNAME":"永康區","LI":"埔園里","LIN":"2鄰","STREET":"永埔街","SECT":" ","MAREA":" ","LANE":"７５巷","ALLEY":" ","HOUSE_NO":"２號","E_COORD97":173921.10000000001,"N_COORD97":2547713.0499999998,"ADDRESS":"永埔街７５巷２號","OBJECTID":420608},"geometry":{"x":173921.09999999963,"y":2547713.0500000007}},{"attributes":{"ID":420634,"DIS_CODE":0,"TOWNNAME":"永康區","LI":"埔園里","LIN":"2鄰","STREET":"永埔街","SECT":" ","MAREA":" ","LANE":"７５巷","ALLEY":" ","HOUSE_NO":"６號","E_COORD97":173914.04000000001,"N_COORD97":2547712.29,"ADDRESS":"永埔街７５巷６號","OBJECTID":420609},"geometry":{"x":173914.0400000019,"y":2547712.2899999991}},{"attributes":{"ID":420635,"DIS_CODE":0,"TOWNNAME":"永康區","LI":"埔園里","LIN":"2鄰","STREET":"永埔街","SECT":" ","MAREA":" ","LANE":"７５巷","ALLEY":" ","HOUSE_NO":"８號","E_COORD97":173907.60999999999,"N_COORD97":2547711.7799999998,"ADDRESS":"永埔街７５巷８號","OBJECTID":420610},"geometry":{"x":173907.61000000127,"y":2547711.7800000012}},{"attributes":{"ID":420636,"DIS_CODE":0,"TOWNNAME":"永康區","LI":"埔園里","LIN":"2鄰","STREET":"永埔街","SECT":" ","MAREA":" ","LANE":"７５巷","ALLEY":" ","HOUSE_NO":"１０號","E_COORD97":173903.07999999999,"N_COORD97":2547708.25,"ADDRESS":"永埔街７５巷１０號","OBJECTID":420611},"geometry":{"x":173903.08000000007,"y":2547708.2500000019}},{"attributes":{"ID":420637,"DIS_CODE":0,"TOWNNAME":"永康區","LI":"埔園里","LIN":"2鄰","STREET":"永埔街","SECT":" ","MAREA":" ","LANE":"９５巷","ALLEY":" ","HOUSE_NO":"１號","E_COORD97":173917.89999999999,"N_COORD97":2547729.4199999999,"ADDRESS":"永埔街９５巷１號","OBJECTID":420612},"geometry":{"x":173917.90000000037,"y":2547729.4199999999}},{"attributes":{"ID":420638,"DIS_CODE":0,"TOWNNAME":"永康區","LI":"埔園里","LIN":"2鄰","STREET":"永埔街","SECT":" ","MAREA":" ","LANE":"９５巷","ALLEY":" ","HOUSE_NO":"３號","E_COORD97":173912.37,"N_COORD97":2547729.8199999998,"ADDRESS":"永埔街９５巷３號","OBJECTID":420613},"geometry":{"x":173912.37000000104,"y":2547729.8200000003}},{"attributes":{"ID":420639,"DIS_CODE":0,"TOWNNAME":"永康區","LI":"埔園里","LIN":"2鄰","STREET":"永埔街","SECT":" ","MAREA":" ","LANE":"９５巷","ALLEY":" ","HOUSE_NO":"５號","E_COORD97":173907.73999999999,"N_COORD97":2547728.7000000002,"ADDRESS":"永埔街９５巷５號","OBJECTID":420614},"geometry":{"x":173907.74000000209,"y":2547728.7000000011}},{"attributes":{"ID":420640,"DIS_CODE":0,"TOWNNAME":"永康區","LI":"埔園里","LIN":"2鄰","STREET":"永埔街","SECT":" ","MAREA":" ","LANE":"９５巷","ALLEY":" ","HOUSE_NO":"７號","E_COORD97":173903.14999999999,"N_COORD97":2547729.7400000002,"ADDRESS":"永埔街９５巷７號","OBJECTID":420615},"geometry":{"x":173903.15000000037,"y":2547729.7400000021}},{"attributes":{"ID":420641,"DIS_CODE":0,"TOWNNAME":"永康區","LI":"埔園里","LIN":"2鄰","STREET":"永埔街","SECT":" ","MAREA":" ","LANE":"９５巷","ALLEY":" ","HOUSE_NO":"９號","E_COORD97":173899.29000000001,"N_COORD97":2547726.6499999999,"ADDRESS":"永埔街９５巷９號","OBJECTID":420616},"geometry":{"x":173899.29000000097,"y":2547726.6500000022}},{"attributes":{"ID":420642,"DIS_CODE":0,"TOWNNAME":"佳里區","LI":"東寧里","LIN":"2鄰","STREET":"中山路","SECT":" ","MAREA":" ","LANE":"２９２巷","ALLEY":" ","HOUSE_NO":"１０號","E_COORD97":165763,"N_COORD97":2562342.8900000001,"ADDRESS":"中山路２９２巷１０號","OBJECTID":420617},"geometry":{"x":165763,"y":2562342.8900000006}},{"attributes":{"ID":420643,"DIS_CODE":0,"TOWNNAME":"佳里區","LI":"東寧里","LIN":"2鄰","STREET":"中山路","SECT":" ","MAREA":" ","LANE":"２９２巷","ALLEY":" ","HOUSE_NO":"１１號","E_COORD97":165768.10999999999,"N_COORD97":2562343.1499999999,"ADDRESS":"中山路２９２巷１１號","OBJECTID":420618},"geometry":{"x":165768.11000000034,"y":2562343.1500000022}},{"attributes":{"ID":420644,"DIS_CODE":0,"TOWNNAME":"佳里區","LI":"東寧里","LIN":"2鄰","STREET":"中山路","SECT":" ","MAREA":" ","LANE":"２９２巷","ALLEY":" ","HOUSE_NO":"１２號","E_COORD97":165771.92000000001,"N_COORD97":2562343.46,"ADDRESS":"中山路２９２巷１２號","OBJECTID":420619},"geometry":{"x":165771.91999999993,"y":2562343.459999999}},{"attributes":{"ID":420645,"DIS_CODE":0,"TOWNNAME":"佳里區","LI":"東寧里","LIN":"2鄰","STREET":"中山路","SECT":" ","MAREA":" ","LANE":"２９２巷","ALLEY":" ","HOUSE_NO":"１３號","E_COORD97":165775.17999999999,"N_COORD97":2562344.3300000001,"ADDRESS":"中山路２９２巷１３號","OBJECTID":420620},"geometry":{"x":165775.1799999997,"y":2562344.3300000019}},{"attributes":{"ID":420646,"DIS_CODE":0,"TOWNNAME":"佳里區","LI":"東寧里","LIN":"2鄰","STREET":"中山路","SECT":" ","MAREA":" ","LANE":"２９２巷","ALLEY":" ","HOUSE_NO":"１４號","E_COORD97":165778.53,"N_COORD97":2562344.7799999998,"ADDRESS":"中山路２９２巷１４號","OBJECTID":420621},"geometry":{"x":165778.53000000026,"y":2562344.7800000012}},{"attributes":{"ID":420647,"DIS_CODE":0,"TOWNNAME":"佳里區","LI":"東寧里","LIN":"2鄰","STREET":"中山路","SECT":" ","MAREA":" ","LANE":"２９２巷","ALLEY":" ","HOUSE_NO":"１５號","E_COORD97":165781.88,"N_COORD97":2562345.1699999999,"ADDRESS":"中山路２９２巷１５號","OBJECTID":420622},"geometry":{"x":165781.88000000082,"y":2562345.1700000018}},{"attributes":{"ID":420648,"DIS_CODE":0,"TOWNNAME":"仁德區","LI":"中生里","LIN":"9鄰","STREET":" ","SECT":" ","MAREA":"中洲","LANE":" ","ALLEY":" ","HOUSE_NO":"１７１號","E_COORD97":173198.72794499999,"N_COORD97":2534053.51804,"ADDRESS":"中洲１７１號","OBJECTID":420623},"geometry":{"x":173198.72794500086,"y":2534053.5180350021}},{"attributes":{"ID":420649,"DIS_CODE":0,"TOWNNAME":"佳里區","LI":"東寧里","LIN":"2鄰","STREET":"中山路","SECT":" ","MAREA":" ","LANE":"２９２巷","ALLEY":" ","HOUSE_NO":"１６號","E_COORD97":165785.09,"N_COORD97":2562345.5600000001,"ADDRESS":"中山路２９２巷１６號","OBJECTID":420624},"geometry":{"x":165785.09000000171,"y":2562345.5600000005}},{"attributes":{"ID":420650,"DIS_CODE":0,"TOWNNAME":"佳里區","LI":"東寧里","LIN":"2鄰","STREET":"中山路","SECT":" ","MAREA":" ","LANE":"２９２巷","ALLEY":" ","HOUSE_NO":"１７號","E_COORD97":165788.53,"N_COORD97":2562345.2400000002,"ADDRESS":"中山路２９２巷１７號","OBJECTID":420625},"geometry":{"x":165788.53000000026,"y":2562345.2400000021}},{"attributes":{"ID":420651,"DIS_CODE":0,"TOWNNAME":"佳里區","LI":"東寧里","LIN":"2鄰","STREET":"中山路","SECT":" ","MAREA":" ","LANE":"２９２巷","ALLEY":" ","HOUSE_NO":"１８號","E_COORD97":165791.70000000001,"N_COORD97":2562345.6099999999,"ADDRESS":"中山路２９２巷１８號","OBJECTID":420626},"geometry":{"x":165791.70000000112,"y":2562345.6100000013}},{"attributes":{"ID":420652,"DIS_CODE":0,"TOWNNAME":"佳里區","LI":"東寧里","LIN":"2鄰","STREET":"中山路","SECT":" ","MAREA":" ","LANE":"２９２巷","ALLEY":" ","HOUSE_NO":"１９號","E_COORD97":165795.10000000001,"N_COORD97":2562345.7799999998,"ADDRESS":"中山路２９２巷１９號","OBJECTID":420627},"geometry":{"x":165795.10000000056,"y":2562345.7799999993}},{"attributes":{"ID":420653,"DIS_CODE":0,"TOWNNAME":"佳里區","LI":"東寧里","LIN":"2鄰","STREET":"中山路","SECT":" ","MAREA":" ","LANE":"２９２巷","ALLEY":" ","HOUSE_NO":"２０號","E_COORD97":165798.19,"N_COORD97":2562346.2200000002,"ADDRESS":"中山路２９２巷２０號","OBJECTID":420628},"geometry":{"x":165798.19000000041,"y":2562346.2200000025}},{"attributes":{"ID":420654,"DIS_CODE":0,"TOWNNAME":"佳里區","LI":"東寧里","LIN":"2鄰","STREET":"中山路","SECT":" ","MAREA":" ","LANE":"２９２巷","ALLEY":" ","HOUSE_NO":"２１號","E_COORD97":165801.92000000001,"N_COORD97":2562346.1899999999,"ADDRESS":"中山路２９２巷２１號","OBJECTID":420629},"geometry":{"x":165801.92000000086,"y":2562346.1899999995}},{"attributes":{"ID":420655,"DIS_CODE":0,"TOWNNAME":"佳里區","LI":"東寧里","LIN":"2鄰","STREET":"中山路","SECT":" ","MAREA":" ","LANE":"２９２巷","ALLEY":" ","HOUSE_NO":"２號","E_COORD97":165732.91,"N_COORD97":2562340.5299999998,"ADDRESS":"中山路２９２巷２號","OBJECTID":420630},"geometry":{"x":165732.91000000108,"y":2562340.5299999993}},{"attributes":{"ID":420656,"DIS_CODE":0,"TOWNNAME":"佳里區","LI":"東寧里","LIN":"2鄰","STREET":"中山路","SECT":" ","MAREA":" ","LANE":"２９２巷","ALLEY":" ","HOUSE_NO":"３號","E_COORD97":165736.39000000001,"N_COORD97":2562340.7400000002,"ADDRESS":"中山路２９２巷３號","OBJECTID":420631},"geometry":{"x":165736.38999999966,"y":2562340.7400000002}},{"attributes":{"ID":420657,"DIS_CODE":0,"TOWNNAME":"佳里區","LI":"東寧里","LIN":"2鄰","STREET":"中山路","SECT":" ","MAREA":" ","LANE":"２９２巷","ALLEY":" ","HOUSE_NO":"４號","E_COORD97":165740.17999999999,"N_COORD97":2562340.9199999999,"ADDRESS":"中山路２９２巷４號","OBJECTID":420632},"geometry":{"x":165740.18000000156,"y":2562340.9200000018}},{"attributes":{"ID":420658,"DIS_CODE":0,"TOWNNAME":"佳里區","LI":"東寧里","LIN":"2鄰","STREET":"中山路","SECT":" ","MAREA":" ","LANE":"２９２巷","ALLEY":" ","HOUSE_NO":"５號","E_COORD97":165743.97,"N_COORD97":2562341.5,"ADDRESS":"中山路２９２巷５號","OBJECTID":420633},"geometry":{"x":165743.97000000067,"y":2562341.5}},{"attributes":{"ID":420659,"DIS_CODE":0,"TOWNNAME":"東區","LI":"和平里","LIN":"1鄰","STREET":"文化一街","SECT":" ","MAREA":" ","LANE":" ","ALLEY":" ","HOUSE_NO":"６號十二樓","E_COORD97":171099.45000000001,"N_COORD97":2542097.2200000002,"ADDRESS":"文化一街６號十二樓","OBJECTID":420634},"geometry":{"x":171099.45000000112,"y":2542097.2200000007}},{"attributes":{"ID":420660,"DIS_CODE":0,"TOWNNAME":"佳里區","LI":"忠仁里","LIN":"2鄰","STREET":"中山路","SECT":" ","MAREA":" ","LANE":"７４巷","ALLEY":" ","HOUSE_NO":"１７號","E_COORD97":165834.31,"N_COORD97":2562250.2400000002,"ADDRESS":"中山路７４巷１７號","OBJECTID":420635},"geometry":{"x":165834.31000000052,"y":2562250.2400000021}},{"attributes":{"ID":420661,"DIS_CODE":0,"TOWNNAME":"新化區","LI":"竹林里","LIN":"2鄰","STREET":"竹林路","SECT":" ","MAREA":" ","LANE":"５５巷","ALLEY":" ","HOUSE_NO":"９號","E_COORD97":178788.57999999999,"N_COORD97":2548550.25,"ADDRESS":"竹林路５５巷９號","OBJECTID":420636},"geometry":{"x":178788.58000000007,"y":2548550.2500000019}},{"attributes":{"ID":420662,"DIS_CODE":0,"TOWNNAME":"新化區","LI":"東榮里","LIN":"2鄰","STREET":"中興路","SECT":" ","MAREA":" ","LANE":"６０巷","ALLEY":" ","HOUSE_NO":"１７號","E_COORD97":181917.60999999999,"N_COORD97":2547353.25,"ADDRESS":"中興路６０巷１７號","OBJECTID":420637},"geometry":{"x":181917.61000000127,"y":2547353.2500000019}},{"attributes":{"ID":420663,"DIS_CODE":0,"TOWNNAME":"新化區","LI":"太平里","LIN":"2鄰","STREET":"太平街","SECT":" ","MAREA":" ","LANE":"１巷","ALLEY":" ","HOUSE_NO":"７號","E_COORD97":179080.32000000001,"N_COORD97":2548794.25,"ADDRESS":"太平街１巷７號","OBJECTID":420638},"geometry":{"x":179080.3200000003,"y":2548794.2500000019}},{"attributes":{"ID":420664,"DIS_CODE":0,"TOWNNAME":"新化區","LI":"豐榮里","LIN":"2鄰","STREET":"大智路","SECT":" ","MAREA":" ","LANE":"８７巷","ALLEY":" ","HOUSE_NO":"８號","E_COORD97":178227.38,"N_COORD97":2548189.25,"ADDRESS":"大智路８７巷８號","OBJECTID":420639},"geometry":{"x":178227.37999999896,"y":2548189.2500000037}},{"attributes":{"ID":420665,"DIS_CODE":0,"TOWNNAME":"新化區","LI":"東榮里","LIN":"2鄰","STREET":"中興路","SECT":" ","MAREA":" ","LANE":"６０巷","ALLEY":" ","HOUSE_NO":"２１號","E_COORD97":181897.51000000001,"N_COORD97":2547363.25,"ADDRESS":"中興路６０巷２１號","OBJECTID":420640},"geometry":{"x":181897.50999999978,"y":2547363.2500000019}},{"attributes":{"ID":420666,"DIS_CODE":0,"TOWNNAME":"新化區","LI":"東榮里","LIN":"2鄰","STREET":"中興路","SECT":" ","MAREA":" ","LANE":"６０巷","ALLEY":" ","HOUSE_NO":"２０號","E_COORD97":181912.91,"N_COORD97":2547371.25,"ADDRESS":"中興路６０巷２０號","OBJECTID":420641},"geometry":{"x":181912.91000000201,"y":2547371.25}},{"attributes":{"ID":420667,"DIS_CODE":0,"TOWNNAME":"新化區","LI":"中央里","LIN":"2鄰","STREET":"中正路","SECT":" ","MAREA":" ","LANE":"４２７巷","ALLEY":" ","HOUSE_NO":"１號之１","E_COORD97":179049.04000000001,"N_COORD97":2548368.2599999998,"ADDRESS":"中正路４２７巷１號之１","OBJECTID":420642},"geometry":{"x":179049.04000000097,"y":2548368.2599999998}},{"attributes":{"ID":420668,"DIS_CODE":0,"TOWNNAME":"新化區","LI":"中央里","LIN":"2鄰","STREET":"中正路","SECT":" ","MAREA":" ","LANE":"４２７巷","ALLEY":" ","HOUSE_NO":"１號之２","E_COORD97":179047.16,"N_COORD97":2548368.2599999998,"ADDRESS":"中正路４２７巷１號之２","OBJECTID":420643},"geometry":{"x":179047.16000000108,"y":2548368.2599999998}},{"attributes":{"ID":420669,"DIS_CODE":0,"TOWNNAME":"新化區","LI":"清水里","LIN":"2鄰","STREET":"信義路","SECT":" ","MAREA":" ","LANE":"４１２巷","ALLEY":" ","HOUSE_NO":"２２號","E_COORD97":178773.07999999999,"N_COORD97":2548315.25,"ADDRESS":"信義路４１２巷２２號","OBJECTID":420644},"geometry":{"x":178773.08000000007,"y":2548315.2500000019}},{"attributes":{"ID":420670,"DIS_CODE":0,"TOWNNAME":"新化區","LI":"協興里","LIN":"2鄰","STREET":"忠孝路","SECT":" ","MAREA":" ","LANE":"１６６巷","ALLEY":" ","HOUSE_NO":"１５號","E_COORD97":178457.07000000001,"N_COORD97":2548672.25,"ADDRESS":"忠孝路１６６巷１５號","OBJECTID":420645},"geometry":{"x":178457.06999999937,"y":2548672.2500000019}},{"attributes":{"ID":420671,"DIS_CODE":0,"TOWNNAME":"新化區","LI":"護國里","LIN":"2鄰","STREET":"建國街","SECT":" ","MAREA":" ","LANE":"９巷","ALLEY":" ","HOUSE_NO":"３５號","E_COORD97":179106.57999999999,"N_COORD97":2548560.2599999998,"ADDRESS":"建國街９巷３５號","OBJECTID":420646},"geometry":{"x":179106.58000000101,"y":2548560.2600000016}},{"attributes":{"ID":420672,"DIS_CODE":0,"TOWNNAME":"新化區","LI":"護國里","LIN":"2鄰","STREET":"中正路","SECT":" ","MAREA":" ","LANE":"４６０巷","ALLEY":" ","HOUSE_NO":"１０之號２","E_COORD97":179087.95999999999,"N_COORD97":2548529.2599999998,"ADDRESS":"中正路４６０巷１０之號２","OBJECTID":420647},"geometry":{"x":179087.95999999996,"y":2548529.2600000016}},{"attributes":{"ID":420673,"DIS_CODE":0,"TOWNNAME":"新化區","LI":"太平里","LIN":"2鄰","STREET":"太平街","SECT":" ","MAREA":" ","LANE":"１巷","ALLEY":" ","HOUSE_NO":"９號之１","E_COORD97":179110.04999999999,"N_COORD97":2548787.2599999998,"ADDRESS":"太平街１巷９號之１","OBJECTID":420648},"geometry":{"x":179110.05000000075,"y":2548787.2600000016}},{"attributes":{"ID":420674,"DIS_CODE":0,"TOWNNAME":"新化區","LI":"協興里","LIN":"2鄰","STREET":"忠孝路","SECT":" ","MAREA":" ","LANE":"１９０巷","ALLEY":" ","HOUSE_NO":"１６號","E_COORD97":178409.37,"N_COORD97":2548657.25,"ADDRESS":"忠孝路１９０巷１６號","OBJECTID":420649},"geometry":{"x":178409.37000000104,"y":2548657.2500000037}},{"attributes":{"ID":420675,"DIS_CODE":0,"TOWNNAME":"新化區","LI":"武安里","LIN":"2鄰","STREET":"正新南路","SECT":" ","MAREA":" ","LANE":"６１巷","ALLEY":" ","HOUSE_NO":"２號","E_COORD97":179028.72,"N_COORD97":2547991.25,"ADDRESS":"正新南路６１巷２號","OBJECTID":420650},"geometry":{"x":179028.72000000067,"y":2547991.25}},{"attributes":{"ID":420676,"DIS_CODE":0,"TOWNNAME":"安南區","LI":"\u25A0南里","LIN":"2鄰","STREET":"安昌街","SECT":" ","MAREA":" ","LANE":"１７９巷","ALLEY":" ","HOUSE_NO":"４１號","E_COORD97":169987.26000000001,"N_COORD97":2552435.6299999999,"ADDRESS":"安昌街１７９巷４１號","OBJECTID":420651},"geometry":{"x":169987.25999999978,"y":2552435.629999999}},{"attributes":{"ID":420677,"DIS_CODE":0,"TOWNNAME":"安南區","LI":"\u25A0南里","LIN":"2鄰","STREET":"安昌街","SECT":" ","MAREA":" ","LANE":"１７９巷","ALLEY":" ","HOUSE_NO":"３７號","E_COORD97":169997.10000000001,"N_COORD97":2552435.4399999999,"ADDRESS":"安昌街１７９巷３７號","OBJECTID":420652},"geometry":{"x":169997.09999999963,"y":2552435.4399999976}},{"attributes":{"ID":420678,"DIS_CODE":0,"TOWNNAME":"永康區","LI":"正強里","LIN":"2鄰","STREET":"中正路","SECT":" ","MAREA":" ","LANE":"１巷","ALLEY":" ","HOUSE_NO":"１６號","E_COORD97":173674.39999999999,"N_COORD97":2547650.6400000001,"ADDRESS":"中正路１巷１６號","OBJECTID":420653},"geometry":{"x":173674.40000000037,"y":2547650.6400000006}},{"attributes":{"ID":420679,"DIS_CODE":0,"TOWNNAME":"永康區","LI":"三合里","LIN":"2鄰","STREET":"南工街","SECT":" ","MAREA":" ","LANE":"５５巷","ALLEY":" ","HOUSE_NO":"１號","E_COORD97":172086.85000000001,"N_COORD97":2545613.5,"ADDRESS":"南工街５５巷１號","OBJECTID":420654},"geometry":{"x":172086.84999999963,"y":2545613.5}},{"attributes":{"ID":420680,"DIS_CODE":0,"TOWNNAME":"永康區","LI":"中興里","LIN":"2鄰","STREET":"忠孝路","SECT":" ","MAREA":" ","LANE":"２３９巷","ALLEY":" ","HOUSE_NO":"２３號","E_COORD97":172005.32999999999,"N_COORD97":2545024.8799999999,"ADDRESS":"忠孝路２３９巷２３號","OBJECTID":420655},"geometry":{"x":172005.33000000101,"y":2545024.8800000008}},{"attributes":{"ID":420681,"DIS_CODE":0,"TOWNNAME":"永康區","LI":"六合里","LIN":"2鄰","STREET":"中山南路","SECT":" ","MAREA":" ","LANE":"３８巷","ALLEY":" ","HOUSE_NO":"１號","E_COORD97":170866.07999999999,"N_COORD97":2545842.7400000002,"ADDRESS":"中山南路３８巷１號","OBJECTID":420656},"geometry":{"x":170866.08000000101,"y":2545842.7400000002}},{"attributes":{"ID":420682,"DIS_CODE":0,"TOWNNAME":"永康區","LI":"王行里","LIN":"2鄰","STREET":"王行路","SECT":" ","MAREA":" ","LANE":"２０８巷","ALLEY":" ","HOUSE_NO":"３３號之１","E_COORD97":175781.70000000001,"N_COORD97":2548160.1600000001,"ADDRESS":"王行路２０８巷３３號之１","OBJECTID":420657},"geometry":{"x":175781.70000000112,"y":2548160.160000002}},{"attributes":{"ID":420683,"DIS_CODE":0,"TOWNNAME":"仁德區","LI":"中生里","LIN":"10鄰","STREET":" ","SECT":" ","MAREA":"中洲","LANE":" ","ALLEY":" ","HOUSE_NO":"１７７號","E_COORD97":173185.16865800001,"N_COORD97":2534066.00636,"ADDRESS":"中洲１７７號","OBJECTID":420658},"geometry":{"x":173185.16865800135,"y":2534066.0063610021}},{"attributes":{"ID":420684,"DIS_CODE":0,"TOWNNAME":"永康區","LI":"中興里","LIN":"2鄰","STREET":"忠孝路","SECT":" ","MAREA":" ","LANE":"２３９巷","ALLEY":" ","HOUSE_NO":"３１號","E_COORD97":171993.25,"N_COORD97":2545022.6299999999,"ADDRESS":"忠孝路２３９巷３１號","OBJECTID":420659},"geometry":{"x":171993.25,"y":2545022.6300000027}},{"attributes":{"ID":420685,"DIS_CODE":0,"TOWNNAME":"永康區","LI":"東橋里","LIN":"2鄰","STREET":"大橋一街","SECT":" ","MAREA":" ","LANE":"３２４巷","ALLEY":" ","HOUSE_NO":"１２號","E_COORD97":171325.32000000001,"N_COORD97":2546629.29,"ADDRESS":"大橋一街３２４巷１２號","OBJECTID":420660},"geometry":{"x":171325.3200000003,"y":2546629.290000001}},{"attributes":{"ID":420686,"DIS_CODE":0,"TOWNNAME":"永康區","LI":"東橋里","LIN":"2鄰","STREET":"大橋一街","SECT":" ","MAREA":" ","LANE":"３２４巷","ALLEY":" ","HOUSE_NO":"４號","E_COORD97":171313.22,"N_COORD97":2546641.54,"ADDRESS":"大橋一街３２４巷４號","OBJECTID":420661},"geometry":{"x":171313.21999999974,"y":2546641.540000001}},{"attributes":{"ID":420687,"DIS_CODE":0,"TOWNNAME":"永康區","LI":"六合里","LIN":"2鄰","STREET":"中山南路","SECT":" ","MAREA":" ","LANE":"３８巷","ALLEY":" ","HOUSE_NO":"１０號","E_COORD97":170865.04000000001,"N_COORD97":2545805.25,"ADDRESS":"中山南路３８巷１０號","OBJECTID":420662},"geometry":{"x":170865.04000000097,"y":2545805.25}},{"attributes":{"ID":420688,"DIS_CODE":0,"TOWNNAME":"安南區","LI":"鳳凰里","LIN":"2鄰","STREET":"北安路","SECT":"三段","MAREA":" ","LANE":"１８１巷","ALLEY":" ","HOUSE_NO":"２４號","E_COORD97":168241.22916300001,"N_COORD97":2549163.7763200002,"ADDRESS":"北安路三段１８１巷２４號","OBJECTID":420663},"geometry":{"x":168241.22916300129,"y":2549163.7763230018}},{"attributes":{"ID":420689,"DIS_CODE":0,"TOWNNAME":"安南區","LI":"梅花里","LIN":"2鄰","STREET":"安中路","SECT":"一段","MAREA":" ","LANE":"６１９巷","ALLEY":" ","HOUSE_NO":"７５號之１","E_COORD97":167778.82999999999,"N_COORD97":2548946.9100000001,"ADDRESS":"安中路一段６１９巷７５號之１","OBJECTID":420664},"geometry":{"x":167778.83000000194,"y":2548946.9100000001}},{"attributes":{"ID":420690,"DIS_CODE":0,"TOWNNAME":"安南區","LI":"公親里","LIN":"2鄰","STREET":"公學路","SECT":"一段","MAREA":" ","LANE":"２３０巷","ALLEY":" ","HOUSE_NO":"１號","E_COORD97":167980.67999999999,"N_COORD97":2553078.7999999998,"ADDRESS":"公學路一段２３０巷１號","OBJECTID":420665},"geometry":{"x":167980.6799999997,"y":2553078.8000000045}},{"attributes":{"ID":420691,"DIS_CODE":0,"TOWNNAME":"安南區","LI":"公親里","LIN":"2鄰","STREET":"公學路","SECT":"一段","MAREA":" ","LANE":"２３０巷","ALLEY":" ","HOUSE_NO":"３號","E_COORD97":167977.06,"N_COORD97":2553082.4199999999,"ADDRESS":"公學路一段２３０巷３號","OBJECTID":420666},"geometry":{"x":167977.06000000052,"y":2553082.4199999999}},{"attributes":{"ID":420692,"DIS_CODE":0,"TOWNNAME":"中西區","LI":"銀同里","LIN":"2鄰","STREET":"府前路","SECT":"一段","MAREA":" ","LANE":"１２２巷","ALLEY":" ","HOUSE_NO":"９１號","E_COORD97":168772.38,"N_COORD97":2543449.6200000001,"ADDRESS":"府前路一段１２２巷９１號","OBJECTID":420667},"geometry":{"x":168772.38000000082,"y":2543449.6200000029}},{"attributes":{"ID":420693,"DIS_CODE":0,"TOWNNAME":"中西區","LI":"銀同里","LIN":"2鄰","STREET":"府前路","SECT":"一段","MAREA":" ","LANE":"１２２巷","ALLEY":" ","HOUSE_NO":"２７號","E_COORD97":168804.39000000001,"N_COORD97":2543381.1000000001,"ADDRESS":"府前路一段１２２巷２７號","OBJECTID":420668},"geometry":{"x":168804.3900000006,"y":2543381.0999999996}},{"attributes":{"ID":420694,"DIS_CODE":0,"TOWNNAME":"中西區","LI":"銀同里","LIN":"2鄰","STREET":"府前路","SECT":"一段","MAREA":" ","LANE":"１２２巷","ALLEY":" ","HOUSE_NO":"３１號","E_COORD97":168797.28,"N_COORD97":2543380.21,"ADDRESS":"府前路一段１２２巷３１號","OBJECTID":420669},"geometry":{"x":168797.28000000119,"y":2543380.2100000028}},{"attributes":{"ID":420695,"DIS_CODE":0,"TOWNNAME":"中西區","LI":"銀同里","LIN":"2鄰","STREET":"府前路","SECT":"一段","MAREA":" ","LANE":"１２２巷","ALLEY":" ","HOUSE_NO":"３３號","E_COORD97":168794.03,"N_COORD97":2543380.8900000001,"ADDRESS":"府前路一段１２２巷３３號","OBJECTID":420670},"geometry":{"x":168794.03000000026,"y":2543380.8900000006}},{"attributes":{"ID":420696,"DIS_CODE":0,"TOWNNAME":"中西區","LI":"銀同里","LIN":"2鄰","STREET":"府前路","SECT":"一段","MAREA":" ","LANE":"１２２巷","ALLEY":" ","HOUSE_NO":"３５號","E_COORD97":168790.10999999999,"N_COORD97":2543380.8900000001,"ADDRESS":"府前路一段１２２巷３５號","OBJECTID":420671},"geometry":{"x":168790.11000000127,"y":2543380.8900000006}},{"attributes":{"ID":420697,"DIS_CODE":0,"TOWNNAME":"中西區","LI":"銀同里","LIN":"2鄰","STREET":"府前路","SECT":"一段","MAREA":" ","LANE":"１２２巷","ALLEY":" ","HOUSE_NO":"３７號","E_COORD97":168786.51999999999,"N_COORD97":2543380.21,"ADDRESS":"府前路一段１２２巷３７號","OBJECTID":420672},"geometry":{"x":168786.51999999955,"y":2543380.2100000028}},{"attributes":{"ID":420698,"DIS_CODE":0,"TOWNNAME":"中西區","LI":"銀同里","LIN":"2鄰","STREET":"府前路","SECT":"一段","MAREA":" ","LANE":"１２２巷","ALLEY":" ","HOUSE_NO":"３９號","E_COORD97":168783.10999999999,"N_COORD97":2543380.21,"ADDRESS":"府前路一段１２２巷３９號","OBJECTID":420673},"geometry":{"x":168783.11000000127,"y":2543380.2100000028}},{"attributes":{"ID":420699,"DIS_CODE":0,"TOWNNAME":"中西區","LI":"銀同里","LIN":"2鄰","STREET":"府前路","SECT":"一段","MAREA":" ","LANE":"１２２巷","ALLEY":" ","HOUSE_NO":"４１號","E_COORD97":168779.35000000001,"N_COORD97":2543379.7000000002,"ADDRESS":"府前路一段１２２巷４１號","OBJECTID":420674},"geometry":{"x":168779.34999999963,"y":2543379.6999999993}},{"attributes":{"ID":420700,"DIS_CODE":0,"TOWNNAME":"中西區","LI":"銀同里","LIN":"2鄰","STREET":"府前路","SECT":"一段","MAREA":" ","LANE":"１２２巷","ALLEY":" ","HOUSE_NO":"４３號","E_COORD97":168776.28,"N_COORD97":2543380.3799999999,"ADDRESS":"府前路一段１２２巷４３號","OBJECTID":420675},"geometry":{"x":168776.28000000212,"y":2543380.3800000008}},{"attributes":{"ID":420701,"DIS_CODE":0,"TOWNNAME":"中西區","LI":"銀同里","LIN":"2鄰","STREET":"府前路","SECT":"一段","MAREA":" ","LANE":"１２２巷","ALLEY":" ","HOUSE_NO":"５５號","E_COORD97":168794.54999999999,"N_COORD97":2543391.6400000001,"ADDRESS":"府前路一段１２２巷５５號","OBJECTID":420676},"geometry":{"x":168794.55000000075,"y":2543391.6400000006}},{"attributes":{"ID":420702,"DIS_CODE":0,"TOWNNAME":"中西區","LI":"銀同里","LIN":"2鄰","STREET":"府前路","SECT":"一段","MAREA":" ","LANE":"１２２巷","ALLEY":" ","HOUSE_NO":"５７號","E_COORD97":168802.20000000001,"N_COORD97":2543391.3900000001,"ADDRESS":"府前路一段１２２巷５７號","OBJECTID":420677},"geometry":{"x":168802.20000000205,"y":2543391.3899999987}},{"attributes":{"ID":420703,"DIS_CODE":0,"TOWNNAME":"中西區","LI":"銀同里","LIN":"2鄰","STREET":"府前路","SECT":"一段","MAREA":" ","LANE":"１２２巷","ALLEY":" ","HOUSE_NO":"５９號","E_COORD97":168802.03,"N_COORD97":2543395.1000000001,"ADDRESS":"府前路一段１２２巷５９號","OBJECTID":420678},"geometry":{"x":168802.03000000119,"y":2543395.0999999996}},{"attributes":{"ID":420704,"DIS_CODE":0,"TOWNNAME":"中西區","LI":"銀同里","LIN":"2鄰","STREET":"府前路","SECT":"一段","MAREA":" ","LANE":"１２２巷","ALLEY":" ","HOUSE_NO":"６１號","E_COORD97":168802.03,"N_COORD97":2543398.48,"ADDRESS":"府前路一段１２２巷６１號","OBJECTID":420679},"geometry":{"x":168802.03000000119,"y":2543398.4800000023}},{"attributes":{"ID":420705,"DIS_CODE":0,"TOWNNAME":"中西區","LI":"銀同里","LIN":"2鄰","STREET":"府前路","SECT":"一段","MAREA":" ","LANE":"１２２巷","ALLEY":" ","HOUSE_NO":"６３號","E_COORD97":168800.85000000001,"N_COORD97":2543401.5099999998,"ADDRESS":"府前路一段１２２巷６３號","OBJECTID":420680},"geometry":{"x":168800.85000000056,"y":2543401.5100000016}},{"attributes":{"ID":420706,"DIS_CODE":0,"TOWNNAME":"中西區","LI":"銀同里","LIN":"2鄰","STREET":"府前路","SECT":"一段","MAREA":" ","LANE":"１２２巷","ALLEY":" ","HOUSE_NO":"６５號","E_COORD97":168800.17000000001,"N_COORD97":2543404.3799999999,"ADDRESS":"府前路一段１２２巷６５號","OBJECTID":420681},"geometry":{"x":168800.16999999899,"y":2543404.3800000008}},{"attributes":{"ID":420707,"DIS_CODE":0,"TOWNNAME":"中西區","LI":"銀同里","LIN":"2鄰","STREET":"府前路","SECT":"一段","MAREA":" ","LANE":"１２２巷","ALLEY":" ","HOUSE_NO":"６７號","E_COORD97":168791.29999999999,"N_COORD97":2543401.8700000001,"ADDRESS":"府前路一段１２２巷６７號","OBJECTID":420682},"geometry":{"x":168791.30000000075,"y":2543401.870000001}},{"attributes":{"ID":420708,"DIS_CODE":0,"TOWNNAME":"中西區","LI":"銀同里","LIN":"2鄰","STREET":"府前路","SECT":"一段","MAREA":" ","LANE":"１２２巷","ALLEY":" ","HOUSE_NO":"６９號","E_COORD97":168786.85999999999,"N_COORD97":2543401.3599999999,"ADDRESS":"府前路一段１２２巷６９號","OBJECTID":420683},"geometry":{"x":168786.86000000034,"y":2543401.3600000013}},{"attributes":{"ID":420709,"DIS_CODE":0,"TOWNNAME":"中西區","LI":"銀同里","LIN":"2鄰","STREET":"府前路","SECT":"一段","MAREA":" ","LANE":"１２２巷","ALLEY":" ","HOUSE_NO":"７１號","E_COORD97":168779.69,"N_COORD97":2543401.3599999999,"ADDRESS":"府前路一段１２２巷７１號","OBJECTID":420684},"geometry":{"x":168779.69000000041,"y":2543401.3600000013}},{"attributes":{"ID":420710,"DIS_CODE":0,"TOWNNAME":"中西區","LI":"銀同里","LIN":"2鄰","STREET":"府前路","SECT":"一段","MAREA":" ","LANE":"１２２巷","ALLEY":" ","HOUSE_NO":"７３號","E_COORD97":168800.01000000001,"N_COORD97":2543411.4199999999,"ADDRESS":"府前路一段１２２巷７３號","OBJECTID":420685},"geometry":{"x":168800.01000000071,"y":2543411.4200000018}},{"attributes":{"ID":420711,"DIS_CODE":0,"TOWNNAME":"仁德區","LI":"新田里","LIN":"2鄰","STREET":"新田二街","SECT":" ","MAREA":" ","LANE":"１２０巷","ALLEY":" ","HOUSE_NO":"３１號","E_COORD97":174923.09,"N_COORD97":2539980.3999999999,"ADDRESS":"新田二街１２０巷３１號","OBJECTID":420686},"geometry":{"x":174923.08999999985,"y":2539980.3999999985}},{"attributes":{"ID":420712,"DIS_CODE":0,"TOWNNAME":"安南區","LI":"鳳凰里","LIN":"2鄰","STREET":"北安路","SECT":"三段","MAREA":" ","LANE":"１８１巷","ALLEY":" ","HOUSE_NO":"２６號","E_COORD97":168236.99450199999,"N_COORD97":2549164.9404899999,"ADDRESS":"北安路三段１８１巷２６號","OBJECTID":420687},"geometry":{"x":168236.99450200144,"y":2549164.9404890016}},{"attributes":{"ID":420713,"DIS_CODE":0,"TOWNNAME":"安南區","LI":"鳳凰里","LIN":"2鄰","STREET":"北安路","SECT":"三段","MAREA":" ","LANE":"１８１巷","ALLEY":" ","HOUSE_NO":"２８號","E_COORD97":168231.91290900001,"N_COORD97":2549166.1046500001,"ADDRESS":"北安路三段１８１巷２８號","OBJECTID":420688},"geometry":{"x":168231.91290900018,"y":2549166.1046550013}},{"attributes":{"ID":420714,"DIS_CODE":0,"TOWNNAME":"安南區","LI":"鳳凰里","LIN":"2鄰","STREET":"北安路","SECT":"三段","MAREA":" ","LANE":"１８１巷","ALLEY":" ","HOUSE_NO":"８號","E_COORD97":168284.634437,"N_COORD97":2549153.7221599999,"ADDRESS":"北安路三段１８１巷８號","OBJECTID":420689},"geometry":{"x":168284.63443700131,"y":2549153.7221620008}},{"attributes":{"ID":420715,"DIS_CODE":0,"TOWNNAME":"安南區","LI":"鳳凰里","LIN":"2鄰","STREET":"北安路","SECT":"三段","MAREA":" ","LANE":"１８１巷","ALLEY":" ","HOUSE_NO":"６號","E_COORD97":168288.55149799999,"N_COORD97":2549152.5580000002,"ADDRESS":"北安路三段１８１巷６號","OBJECTID":420690},"geometry":{"x":168288.55149799958,"y":2549152.5579960011}},{"attributes":{"ID":420716,"DIS_CODE":0,"TOWNNAME":"安南區","LI":"鳳凰里","LIN":"2鄰","STREET":"北安路","SECT":"三段","MAREA":" ","LANE":"１８１巷","ALLEY":" ","HOUSE_NO":"４號","E_COORD97":168293.10375899999,"N_COORD97":2549151.4996600002,"ADDRESS":"北安路三段１８１巷４號","OBJECTID":420691},"geometry":{"x":168293.10375900008,"y":2549151.4996629991}},{"attributes":{"ID":420717,"DIS_CODE":0,"TOWNNAME":"安南區","LI":"鳳凰里","LIN":"2鄰","STREET":"北安路","SECT":"三段","MAREA":" ","LANE":"１８１巷","ALLEY":" ","HOUSE_NO":"２號","E_COORD97":168297.65601899999,"N_COORD97":2549150.4413299998,"ADDRESS":"北安路三段１８１巷２號","OBJECTID":420692},"geometry":{"x":168297.65601900034,"y":2549150.4413300008}},{"attributes":{"ID":420718,"DIS_CODE":0,"TOWNNAME":"仁德區","LI":"新田里","LIN":"2鄰","STREET":"新田二街","SECT":" ","MAREA":" ","LANE":"１２０巷","ALLEY":" ","HOUSE_NO":"１７號","E_COORD97":174943.29999999999,"N_COORD97":2539950.1499999999,"ADDRESS":"新田二街１２０巷１７號","OBJECTID":420693},"geometry":{"x":174943.30000000075,"y":2539950.1500000004}},{"attributes":{"ID":420719,"DIS_CODE":0,"TOWNNAME":"仁德區","LI":"新田里","LIN":"2鄰","STREET":"新田二街","SECT":" ","MAREA":" ","LANE":"１２０巷","ALLEY":" ","HOUSE_NO":"１５號","E_COORD97":174941.13,"N_COORD97":2539939.8999999999,"ADDRESS":"新田二街１２０巷１５號","OBJECTID":420694},"geometry":{"x":174941.13000000082,"y":2539939.9000000041}},{"attributes":{"ID":420720,"DIS_CODE":0,"TOWNNAME":"仁德區","LI":"新田里","LIN":"2鄰","STREET":"新田二街","SECT":" ","MAREA":" ","LANE":"１２０巷","ALLEY":" ","HOUSE_NO":"４１號","E_COORD97":174916.82999999999,"N_COORD97":2539999.1600000001,"ADDRESS":"新田二街１２０巷４１號","OBJECTID":420695},"geometry":{"x":174916.83000000007,"y":2539999.1600000039}},{"attributes":{"ID":420721,"DIS_CODE":0,"TOWNNAME":"仁德區","LI":"二行里","LIN":"2鄰","STREET":"二仁路","SECT":"一段","MAREA":" ","LANE":"１５５巷","ALLEY":" ","HOUSE_NO":"７號","E_COORD97":170455.48000000001,"N_COORD97":2535659.98,"ADDRESS":"二仁路一段１５５巷７號","OBJECTID":420696},"geometry":{"x":170455.48000000138,"y":2535659.9800000004}},{"attributes":{"ID":420722,"DIS_CODE":0,"TOWNNAME":"仁德區","LI":"二行里","LIN":"2鄰","STREET":"二仁路","SECT":"一段","MAREA":" ","LANE":"１５５巷","ALLEY":" ","HOUSE_NO":"９號","E_COORD97":170444.23999999999,"N_COORD97":2535630.7999999998,"ADDRESS":"二仁路一段１５５巷９號","OBJECTID":420697},"geometry":{"x":170444.24000000022,"y":2535630.8000000007}},{"attributes":{"ID":420723,"DIS_CODE":0,"TOWNNAME":"仁德區","LI":"仁義里","LIN":"2鄰","STREET":"仁義三街","SECT":" ","MAREA":" ","LANE":"２４５巷","ALLEY":" ","HOUSE_NO":"２號","E_COORD97":173998.32999999999,"N_COORD97":2541114.8399999999,"ADDRESS":"仁義三街２４５巷２號","OBJECTID":420698},"geometry":{"x":173998.33000000007,"y":2541114.8399999999}},{"attributes":{"ID":420724,"DIS_CODE":0,"TOWNNAME":"仁德區","LI":"仁義里","LIN":"2鄰","STREET":"仁義三街","SECT":" ","MAREA":" ","LANE":"２４５巷","ALLEY":" ","HOUSE_NO":"６號","E_COORD97":174004.32000000001,"N_COORD97":2541115.6400000001,"ADDRESS":"仁義三街２４５巷６號","OBJECTID":420699},"geometry":{"x":174004.32000000123,"y":2541115.6400000025}},{"attributes":{"ID":420725,"DIS_CODE":0,"TOWNNAME":"仁德區","LI":"仁義里","LIN":"2鄰","STREET":"仁義三街","SECT":" ","MAREA":" ","LANE":"２４５巷","ALLEY":" ","HOUSE_NO":"８號","E_COORD97":174010.73999999999,"N_COORD97":2541115.75,"ADDRESS":"仁義三街２４５巷８號","OBJECTID":420700},"geometry":{"x":174010.74000000022,"y":2541115.75}},{"attributes":{"ID":420726,"DIS_CODE":0,"TOWNNAME":"仁德區","LI":"太子里","LIN":"2鄰","STREET":"長興三街","SECT":" ","MAREA":" ","LANE":"２巷","ALLEY":" ","HOUSE_NO":"１號","E_COORD97":174246.10999999999,"N_COORD97":2543543.2999999998,"ADDRESS":"長興三街２巷１號","OBJECTID":420701},"geometry":{"x":174246.1100000022,"y":2543543.3000000007}},{"attributes":{"ID":420727,"DIS_CODE":0,"TOWNNAME":"仁德區","LI":"太子里","LIN":"2鄰","STREET":"長興三街","SECT":" ","MAREA":" ","LANE":"２巷","ALLEY":" ","HOUSE_NO":"３號","E_COORD97":174250.48999999999,"N_COORD97":2543543.2799999998,"ADDRESS":"長興三街２巷３號","OBJECTID":420702},"geometry":{"x":174250.49000000115,"y":2543543.2799999993}},{"attributes":{"ID":420728,"DIS_CODE":0,"TOWNNAME":"中西區","LI":"西賢里","LIN":"2鄰","STREET":"湖美街","SECT":" ","MAREA":" ","LANE":"４７巷","ALLEY":" ","HOUSE_NO":"３２號","E_COORD97":165873.66,"N_COORD97":2544572.3700000001,"ADDRESS":"湖美街４７巷３２號","OBJECTID":420703},"geometry":{"x":165873.66000000108,"y":2544572.3700000029}},{"attributes":{"ID":420729,"DIS_CODE":0,"TOWNNAME":"中西區","LI":"西賢里","LIN":"2鄰","STREET":"湖美街","SECT":" ","MAREA":" ","LANE":"４７巷","ALLEY":" ","HOUSE_NO":"３６號","E_COORD97":165868.95999999999,"N_COORD97":2544571.9900000002,"ADDRESS":"湖美街４７巷３６號","OBJECTID":420704},"geometry":{"x":165868.95999999903,"y":2544571.9900000021}},{"attributes":{"ID":420730,"DIS_CODE":0,"TOWNNAME":"中西區","LI":"西賢里","LIN":"2鄰","STREET":"湖美街","SECT":" ","MAREA":" ","LANE":"８７巷","ALLEY":" ","HOUSE_NO":"２５號","E_COORD97":165867.51999999999,"N_COORD97":2544642.8300000001,"ADDRESS":"湖美街８７巷２５號","OBJECTID":420705},"geometry":{"x":165867.51999999955,"y":2544642.8300000019}},{"attributes":{"ID":420731,"DIS_CODE":0,"TOWNNAME":"中西區","LI":"西賢里","LIN":"2鄰","STREET":"湖美街","SECT":" ","MAREA":" ","LANE":"８７巷","ALLEY":" ","HOUSE_NO":"２７號","E_COORD97":165863.97,"N_COORD97":2544643.21,"ADDRESS":"湖美街８７巷２７號","OBJECTID":420706},"geometry":{"x":165863.97000000067,"y":2544643.2100000009}},{"attributes":{"ID":420732,"DIS_CODE":0,"TOWNNAME":"中西區","LI":"西賢里","LIN":"2鄰","STREET":"湖美街","SECT":" ","MAREA":" ","LANE":"８７巷","ALLEY":" ","HOUSE_NO":"２９號","E_COORD97":165860.03,"N_COORD97":2544643.21,"ADDRESS":"湖美街８７巷２９號","OBJECTID":420707},"geometry":{"x":165860.03000000026,"y":2544643.2100000009}},{"attributes":{"ID":420733,"DIS_CODE":0,"TOWNNAME":"中西區","LI":"西湖里","LIN":"2鄰","STREET":"頂美二街","SECT":" ","MAREA":" ","LANE":"４８巷","ALLEY":" ","HOUSE_NO":"４５號","E_COORD97":166509.41,"N_COORD97":2544580.6899999999,"ADDRESS":"頂美二街４８巷４５號","OBJECTID":420708},"geometry":{"x":166509.41000000108,"y":2544580.6899999995}},{"attributes":{"ID":420734,"DIS_CODE":0,"TOWNNAME":"中西區","LI":"西湖里","LIN":"2鄰","STREET":"頂美二街","SECT":" ","MAREA":" ","LANE":"４８巷","ALLEY":" ","HOUSE_NO":"４３號","E_COORD97":166503.06,"N_COORD97":2544580.6899999999,"ADDRESS":"頂美二街４８巷４３號","OBJECTID":420709},"geometry":{"x":166503.05999999959,"y":2544580.6899999995}},{"attributes":{"ID":420735,"DIS_CODE":0,"TOWNNAME":"中西區","LI":"西湖里","LIN":"2鄰","STREET":"頂美二街","SECT":" ","MAREA":" ","LANE":"４８巷","ALLEY":" ","HOUSE_NO":"４１號","E_COORD97":166496.70999999999,"N_COORD97":2544580.7599999998,"ADDRESS":"頂美二街４８巷４１號","OBJECTID":420710},"geometry":{"x":166496.71000000089,"y":2544580.7599999998}},{"attributes":{"ID":420736,"DIS_CODE":0,"TOWNNAME":"中西區","LI":"西湖里","LIN":"2鄰","STREET":"頂美二街","SECT":" ","MAREA":" ","LANE":"４８巷","ALLEY":" ","HOUSE_NO":"３９號","E_COORD97":166489.85000000001,"N_COORD97":2544580.4399999999,"ADDRESS":"頂美二街４８巷３９號","OBJECTID":420711},"geometry":{"x":166489.8499999987,"y":2544580.4400000013}},{"attributes":{"ID":420737,"DIS_CODE":0,"TOWNNAME":"中西區","LI":"西湖里","LIN":"2鄰","STREET":"頂美二街","SECT":" ","MAREA":" ","LANE":"４８巷","ALLEY":" ","HOUSE_NO":"３７號","E_COORD97":166484.01000000001,"N_COORD97":2544580.1800000002,"ADDRESS":"頂美二街４８巷３７號","OBJECTID":420712},"geometry":{"x":166484.01000000164,"y":2544580.1800000016}},{"attributes":{"ID":420738,"DIS_CODE":0,"TOWNNAME":"中西區","LI":"西湖里","LIN":"2鄰","STREET":"頂美二街","SECT":" ","MAREA":" ","LANE":"４８巷","ALLEY":" ","HOUSE_NO":"３５號","E_COORD97":166476.64000000001,"N_COORD97":2544580.1800000002,"ADDRESS":"頂美二街４８巷３５號","OBJECTID":420713},"geometry":{"x":166476.6400000006,"y":2544580.1800000016}},{"attributes":{"ID":420739,"DIS_CODE":0,"TOWNNAME":"安南區","LI":"安慶里","LIN":"2鄰","STREET":"長溪路","SECT":"一段","MAREA":" ","LANE":"１６８巷","ALLEY":" ","HOUSE_NO":"２４９號","E_COORD97":168954.32999999999,"N_COORD97":2548962.4500000002,"ADDRESS":"長溪路一段１６８巷２４９號","OBJECTID":420714},"geometry":{"x":168954.33000000101,"y":2548962.4499999993}},{"attributes":{"ID":420740,"DIS_CODE":0,"TOWNNAME":"安南區","LI":"安慶里","LIN":"2鄰","STREET":"長溪路","SECT":"一段","MAREA":" ","LANE":"１６８巷","ALLEY":" ","HOUSE_NO":"２５１號","E_COORD97":168948.37,"N_COORD97":2548961.6200000001,"ADDRESS":"長溪路一段１６８巷２５１號","OBJECTID":420715},"geometry":{"x":168948.37000000197,"y":2548961.6200000029}},{"attributes":{"ID":420741,"DIS_CODE":0,"TOWNNAME":"安南區","LI":"安慶里","LIN":"2鄰","STREET":"長溪路","SECT":"一段","MAREA":" ","LANE":"１６８巷","ALLEY":" ","HOUSE_NO":"２５３號","E_COORD97":168941.48999999999,"N_COORD97":2548955.9199999999,"ADDRESS":"長溪路一段１６８巷２５３號","OBJECTID":420716},"geometry":{"x":168941.49000000115,"y":2548955.9200000018}},{"attributes":{"ID":420742,"DIS_CODE":0,"TOWNNAME":"安南區","LI":"安慶里","LIN":"2鄰","STREET":"長溪路","SECT":"一段","MAREA":" ","LANE":"１６８巷","ALLEY":" ","HOUSE_NO":"２５５號","E_COORD97":168937.07000000001,"N_COORD97":2548950.8999999999,"ADDRESS":"長溪路一段１６８巷２５５號","OBJECTID":420717},"geometry":{"x":168937.07000000216,"y":2548950.9000000004}},{"attributes":{"ID":420743,"DIS_CODE":0,"TOWNNAME":"安南區","LI":"安慶里","LIN":"2鄰","STREET":"長溪路","SECT":"一段","MAREA":" ","LANE":"１６８巷","ALLEY":" ","HOUSE_NO":"２５７號","E_COORD97":168931.89000000001,"N_COORD97":2548947.2400000002,"ADDRESS":"長溪路一段１６８巷２５７號","OBJECTID":420718},"geometry":{"x":168931.88999999966,"y":2548947.2400000021}},{"attributes":{"ID":420744,"DIS_CODE":0,"TOWNNAME":"安南區","LI":"安慶里","LIN":"2鄰","STREET":"長溪路","SECT":"一段","MAREA":" ","LANE":"１６８巷","ALLEY":" ","HOUSE_NO":"２５９號","E_COORD97":168926.85999999999,"N_COORD97":2548942.1200000001,"ADDRESS":"長溪路一段１６８巷２５９號","OBJECTID":420719},"geometry":{"x":168926.86000000127,"y":2548942.1200000029}},{"attributes":{"ID":420745,"DIS_CODE":0,"TOWNNAME":"仁德區","LI":"中生里","LIN":"10鄰","STREET":" ","SECT":" ","MAREA":"中洲","LANE":" ","ALLEY":" ","HOUSE_NO":"１７８號","E_COORD97":173191.52457400001,"N_COORD97":2534080.3996899999,"ADDRESS":"中洲１７８號","OBJECTID":420720},"geometry":{"x":173191.52457400132,"y":2534080.3996870033}},{"attributes":{"ID":420746,"DIS_CODE":0,"TOWNNAME":"安南區","LI":"安慶里","LIN":"2鄰","STREET":"長溪路","SECT":"一段","MAREA":" ","LANE":"１６８巷","ALLEY":" ","HOUSE_NO":"２６３號","E_COORD97":168930.95999999999,"N_COORD97":2548919.9100000001,"ADDRESS":"長溪路一段１６８巷２６３號","OBJECTID":420721},"geometry":{"x":168930.96000000089,"y":2548919.9100000001}},{"attributes":{"ID":420747,"DIS_CODE":0,"TOWNNAME":"安南區","LI":"安慶里","LIN":"2鄰","STREET":"長溪路","SECT":"一段","MAREA":" ","LANE":"１６８巷","ALLEY":" ","HOUSE_NO":"２６５號","E_COORD97":168930.10000000001,"N_COORD97":2548910.3599999999,"ADDRESS":"長溪路一段１６８巷２６５號","OBJECTID":420722},"geometry":{"x":168930.10000000056,"y":2548910.3600000031}},{"attributes":{"ID":420748,"DIS_CODE":0,"TOWNNAME":"安南區","LI":"安慶里","LIN":"2鄰","STREET":"長溪路","SECT":"一段","MAREA":" ","LANE":"１６８巷","ALLEY":" ","HOUSE_NO":"２６９號","E_COORD97":168930.35999999999,"N_COORD97":2548901.98,"ADDRESS":"長溪路一段１６８巷２６９號","OBJECTID":420723},"geometry":{"x":168930.36000000127,"y":2548901.9800000004}},{"attributes":{"ID":420749,"DIS_CODE":0,"TOWNNAME":"新市區","LI":"新市里","LIN":"2鄰","STREET":"華興街","SECT":" ","MAREA":" ","LANE":"４４巷","ALLEY":" ","HOUSE_NO":"５號","E_COORD97":177733.79000000001,"N_COORD97":2553046.5,"ADDRESS":"華興街４４巷５號","OBJECTID":420724},"geometry":{"x":177733.79000000097,"y":2553046.5000000019}},{"attributes":{"ID":420750,"DIS_CODE":0,"TOWNNAME":"新市區","LI":"港墘里","LIN":"2鄰","STREET":"三民街","SECT":" ","MAREA":" ","LANE":"１０巷","ALLEY":" ","HOUSE_NO":"３號","E_COORD97":178569.23000000001,"N_COORD97":2553380.79,"ADDRESS":"三民街１０巷３號","OBJECTID":420725},"geometry":{"x":178569.23000000045,"y":2553380.7899999991}},{"attributes":{"ID":420751,"DIS_CODE":0,"TOWNNAME":"新市區","LI":"港墘里","LIN":"2鄰","STREET":"三民街","SECT":" ","MAREA":" ","LANE":"１０巷","ALLEY":" ","HOUSE_NO":"１２號","E_COORD97":178580.48000000001,"N_COORD97":2553466.54,"ADDRESS":"三民街１０巷１２號","OBJECTID":420726},"geometry":{"x":178580.48000000138,"y":2553466.540000001}},{"attributes":{"ID":420752,"DIS_CODE":0,"TOWNNAME":"新市區","LI":"港墘里","LIN":"2鄰","STREET":"三民街","SECT":" ","MAREA":" ","LANE":"１０巷","ALLEY":" ","HOUSE_NO":"６號","E_COORD97":178584.78,"N_COORD97":2553447.79,"ADDRESS":"三民街１０巷６號","OBJECTID":420727},"geometry":{"x":178584.78000000119,"y":2553447.790000001}},{"attributes":{"ID":420753,"DIS_CODE":0,"TOWNNAME":"新市區","LI":"新市里","LIN":"2鄰","STREET":"光華街","SECT":" ","MAREA":" ","LANE":"１８３巷","ALLEY":" ","HOUSE_NO":"１０號","E_COORD97":177778.53,"N_COORD97":2553129,"ADDRESS":"光華街１８３巷１０號","OBJECTID":420728},"geometry":{"x":177778.53000000026,"y":2553129.0000000019}},{"attributes":{"ID":420754,"DIS_CODE":0,"TOWNNAME":"新市區","LI":"港墘里","LIN":"2鄰","STREET":"三民街","SECT":" ","MAREA":" ","LANE":"１０巷","ALLEY":" ","HOUSE_NO":"１９號","E_COORD97":178578.82000000001,"N_COORD97":2553438.29,"ADDRESS":"三民街１０巷１９號","OBJECTID":420729},"geometry":{"x":178578.8200000003,"y":2553438.2899999991}},{"attributes":{"ID":420755,"DIS_CODE":0,"TOWNNAME":"安南區","LI":"總頭里","LIN":"2鄰","STREET":"長溪路","SECT":"二段","MAREA":" ","LANE":"４８６巷","ALLEY":" ","HOUSE_NO":"３２號","E_COORD97":168376.45999999999,"N_COORD97":2550402.7799999998,"ADDRESS":"長溪路二段４８６巷３２號","OBJECTID":420730},"geometry":{"x":168376.46000000089,"y":2550402.7800000012}},{"attributes":{"ID":420756,"DIS_CODE":0,"TOWNNAME":"安南區","LI":"長安里","LIN":"2鄰","STREET":"長溪路","SECT":"三段","MAREA":" ","LANE":"３７３巷","ALLEY":" ","HOUSE_NO":"４０號","E_COORD97":167614.95999999999,"N_COORD97":2551921.4700000002,"ADDRESS":"長溪路三段３７３巷４０號","OBJECTID":420731},"geometry":{"x":167614.95999999996,"y":2551921.4700000044}},{"attributes":{"ID":420757,"DIS_CODE":0,"TOWNNAME":"東區","LI":"和平里","LIN":"1鄰","STREET":"文化一街","SECT":" ","MAREA":" ","LANE":" ","ALLEY":" ","HOUSE_NO":"６號十三樓","E_COORD97":171099.45000000001,"N_COORD97":2542097.2200000002,"ADDRESS":"文化一街６號十三樓","OBJECTID":420732},"geometry":{"x":171099.45000000112,"y":2542097.2200000007}},{"attributes":{"ID":420758,"DIS_CODE":0,"TOWNNAME":"安南區","LI":"長安里","LIN":"2鄰","STREET":"長溪路","SECT":"三段","MAREA":" ","LANE":"３７３巷","ALLEY":" ","HOUSE_NO":"４２號","E_COORD97":167610.54000000001,"N_COORD97":2551918.4500000002,"ADDRESS":"長溪路三段３７３巷４２號","OBJECTID":420733},"geometry":{"x":167610.54000000004,"y":2551918.4499999993}},{"attributes":{"ID":420759,"DIS_CODE":0,"TOWNNAME":"安南區","LI":"長安里","LIN":"2鄰","STREET":"長溪路","SECT":"三段","MAREA":" ","LANE":"３７３巷","ALLEY":" ","HOUSE_NO":"４６號","E_COORD97":167605.42000000001,"N_COORD97":2551917.5800000001,"ADDRESS":"長溪路三段３７３巷４６號","OBJECTID":420734},"geometry":{"x":167605.42000000086,"y":2551917.5800000019}},{"attributes":{"ID":420760,"DIS_CODE":0,"TOWNNAME":"安南區","LI":"長安里","LIN":"2鄰","STREET":"長溪路","SECT":"三段","MAREA":" ","LANE":"３７３巷","ALLEY":" ","HOUSE_NO":"４６之１號","E_COORD97":167600.89000000001,"N_COORD97":2551915.7799999998,"ADDRESS":"長溪路三段３７３巷４６之１號","OBJECTID":420735},"geometry":{"x":167600.88999999966,"y":2551915.7800000012}},{"attributes":{"ID":420761,"DIS_CODE":0,"TOWNNAME":"永康區","LI":"尚頂里","LIN":"2鄰","STREET":"\u25A0信街","SECT":" ","MAREA":" ","LANE":"１４６巷","ALLEY":" ","HOUSE_NO":"４０號","E_COORD97":171169.29999999999,"N_COORD97":2547681.4900000002,"ADDRESS":"\u25A0信街１４６巷４０號","OBJECTID":420736},"geometry":{"x":171169.30000000168,"y":2547681.4900000002}},{"attributes":{"ID":420762,"DIS_CODE":0,"TOWNNAME":"永康區","LI":"尚頂里","LIN":"2鄰","STREET":"中正二街","SECT":" ","MAREA":" ","LANE":"１６９巷","ALLEY":" ","HOUSE_NO":"１３號","E_COORD97":171291.32000000001,"N_COORD97":2547757,"ADDRESS":"中正二街１６９巷１３號","OBJECTID":420737},"geometry":{"x":171291.3200000003,"y":2547757.0000000037}},{"attributes":{"ID":420763,"DIS_CODE":0,"TOWNNAME":"永康區","LI":"東灣里","LIN":"2鄰","STREET":"大灣路","SECT":" ","MAREA":" ","LANE":"４３６巷","ALLEY":" ","HOUSE_NO":"６７號","E_COORD97":174577.04999999999,"N_COORD97":2544990.4100000001,"ADDRESS":"大灣路４３６巷６７號","OBJECTID":420738},"geometry":{"x":174577.05000000075,"y":2544990.4100000001}},{"attributes":{"ID":420764,"DIS_CODE":0,"TOWNNAME":"永康區","LI":"東灣里","LIN":"2鄰","STREET":"大灣路","SECT":" ","MAREA":" ","LANE":"４３６巷","ALLEY":" ","HOUSE_NO":"６３號","E_COORD97":174584.12,"N_COORD97":2544985.1000000001,"ADDRESS":"大灣路４３６巷６３號","OBJECTID":420739},"geometry":{"x":174584.12000000011,"y":2544985.0999999996}},{"attributes":{"ID":420765,"DIS_CODE":0,"TOWNNAME":"永康區","LI":"東灣里","LIN":"2鄰","STREET":"大灣路","SECT":" ","MAREA":" ","LANE":"４３６巷","ALLEY":" ","HOUSE_NO":"５９號","E_COORD97":174590.56,"N_COORD97":2544979.25,"ADDRESS":"大灣路４３６巷５９號","OBJECTID":420740},"geometry":{"x":174590.56000000052,"y":2544979.2500000019}},{"attributes":{"ID":420766,"DIS_CODE":0,"TOWNNAME":"安南區","LI":"南興里","LIN":"2鄰","STREET":"安興街","SECT":" ","MAREA":" ","LANE":"４３５巷","ALLEY":" ","HOUSE_NO":"５９之１號","E_COORD97":163654.07999999999,"N_COORD97":2552170.1000000001,"ADDRESS":"安興街４３５巷５９之１號","OBJECTID":420741},"geometry":{"x":163654.08000000007,"y":2552170.0999999978}},{"attributes":{"ID":420767,"DIS_CODE":0,"TOWNNAME":"安南區","LI":"州北里","LIN":"2鄰","STREET":"安和路","SECT":"五段","MAREA":" ","LANE":"８１巷","ALLEY":" ","HOUSE_NO":"８０號","E_COORD97":169718.13,"N_COORD97":2551622.7799999998,"ADDRESS":"安和路五段８１巷８０號","OBJECTID":420742},"geometry":{"x":169718.13000000082,"y":2551622.7800000031}},{"attributes":{"ID":420768,"DIS_CODE":0,"TOWNNAME":"安南區","LI":"州北里","LIN":"2鄰","STREET":"安和路","SECT":"五段","MAREA":" ","LANE":"８１巷","ALLEY":" ","HOUSE_NO":"８２號","E_COORD97":169709.35999999999,"N_COORD97":2551621.48,"ADDRESS":"安和路五段８１巷８２號","OBJECTID":420743},"geometry":{"x":169709.36000000034,"y":2551621.4800000004}},{"attributes":{"ID":420769,"DIS_CODE":0,"TOWNNAME":"安南區","LI":"州北里","LIN":"2鄰","STREET":"安和路","SECT":"五段","MAREA":" ","LANE":"８１巷","ALLEY":" ","HOUSE_NO":"８８號","E_COORD97":169704.62,"N_COORD97":2551608.1099999999,"ADDRESS":"安和路五段８１巷８８號","OBJECTID":420744},"geometry":{"x":169704.62000000104,"y":2551608.1100000013}},{"attributes":{"ID":420770,"DIS_CODE":0,"TOWNNAME":"安南區","LI":"新順里","LIN":"2鄰","STREET":"安生街","SECT":" ","MAREA":" ","LANE":"７８巷","ALLEY":" ","HOUSE_NO":"３之１號","E_COORD97":169561.95000000001,"N_COORD97":2549582.46,"ADDRESS":"安生街７８巷３之１號","OBJECTID":420745},"geometry":{"x":169561.95000000112,"y":2549582.4600000046}},{"attributes":{"ID":420771,"DIS_CODE":0,"TOWNNAME":"安南區","LI":"總頭里","LIN":"2鄰","STREET":"總安街","SECT":"二段","MAREA":" ","LANE":"３１５巷","ALLEY":" ","HOUSE_NO":"１７號","E_COORD97":168412.17999999999,"N_COORD97":2550419.48,"ADDRESS":"總安街二段３１５巷１７號","OBJECTID":420746},"geometry":{"x":168412.18000000063,"y":2550419.4800000023}},{"attributes":{"ID":420772,"DIS_CODE":0,"TOWNNAME":"新市區","LI":"新市里","LIN":"2鄰","STREET":"光華街","SECT":" ","MAREA":" ","LANE":"１８３巷","ALLEY":" ","HOUSE_NO":"１號","E_COORD97":177777.51000000001,"N_COORD97":2553108.5,"ADDRESS":"光華街１８３巷１號","OBJECTID":420747},"geometry":{"x":177777.51000000071,"y":2553108.5000000019}},{"attributes":{"ID":420773,"DIS_CODE":0,"TOWNNAME":"新市區","LI":"港墘里","LIN":"2鄰","STREET":"三民街","SECT":" ","MAREA":" ","LANE":"１０巷","ALLEY":" ","HOUSE_NO":"２１號","E_COORD97":178577.03,"N_COORD97":2553444.79,"ADDRESS":"三民街１０巷２１號","OBJECTID":420748},"geometry":{"x":178577.03000000026,"y":2553444.790000001}},{"attributes":{"ID":420774,"DIS_CODE":0,"TOWNNAME":"中西區","LI":"民生里","LIN":"2鄰","STREET":"永華路","SECT":"一段","MAREA":" ","LANE":"１７０巷","ALLEY":" ","HOUSE_NO":"１１號","E_COORD97":167202.87,"N_COORD97":2543243.7000000002,"ADDRESS":"永華路一段１７０巷１１號","OBJECTID":420749},"geometry":{"x":167202.87000000104,"y":2543243.7000000011}},{"attributes":{"ID":420775,"DIS_CODE":0,"TOWNNAME":"中西區","LI":"民生里","LIN":"2鄰","STREET":"永華路","SECT":"一段","MAREA":" ","LANE":"１７０巷","ALLEY":" ","HOUSE_NO":"１３號","E_COORD97":167203.59,"N_COORD97":2543247.3799999999,"ADDRESS":"永華路一段１７０巷１３號","OBJECTID":420750},"geometry":{"x":167203.58999999985,"y":2543247.3799999971}},{"attributes":{"ID":420776,"DIS_CODE":0,"TOWNNAME":"中西區","LI":"民生里","LIN":"2鄰","STREET":"永華路","SECT":"一段","MAREA":" ","LANE":"１７０巷","ALLEY":" ","HOUSE_NO":"１５號","E_COORD97":167203.45000000001,"N_COORD97":2543251.8799999999,"ADDRESS":"永華路一段１７０巷１５號","OBJECTID":420751},"geometry":{"x":167203.45000000205,"y":2543251.8800000008}},{"attributes":{"ID":420777,"DIS_CODE":0,"TOWNNAME":"中西區","LI":"民生里","LIN":"2鄰","STREET":"永華路","SECT":"一段","MAREA":" ","LANE":"１７０巷","ALLEY":" ","HOUSE_NO":"１７號","E_COORD97":167204.51999999999,"N_COORD97":2543256.27,"ADDRESS":"永華路一段１７０巷１７號","OBJECTID":420752},"geometry":{"x":167204.52000000048,"y":2543256.2700000014}},{"attributes":{"ID":420778,"DIS_CODE":0,"TOWNNAME":"中西區","LI":"民生里","LIN":"2鄰","STREET":"永華路","SECT":"一段","MAREA":" ","LANE":"１７０巷","ALLEY":" ","HOUSE_NO":"１９號","E_COORD97":167204.60999999999,"N_COORD97":2543260.2999999998,"ADDRESS":"永華路一段１７０巷１９號","OBJECTID":420753},"geometry":{"x":167204.61000000127,"y":2543260.3000000045}},{"attributes":{"ID":420779,"DIS_CODE":0,"TOWNNAME":"中西區","LI":"開山里","LIN":"2鄰","STREET":"開山路","SECT":" ","MAREA":" ","LANE":"１５１巷","ALLEY":" ","HOUSE_NO":"５號","E_COORD97":168852.57999999999,"N_COORD97":2543210.0600000001,"ADDRESS":"開山路１５１巷５號","OBJECTID":420754},"geometry":{"x":168852.58000000101,"y":2543210.0600000005}},{"attributes":{"ID":420780,"DIS_CODE":0,"TOWNNAME":"安南區","LI":"鳳凰里","LIN":"2鄰","STREET":"安中路","SECT":"一段","MAREA":" ","LANE":"６２２巷","ALLEY":" ","HOUSE_NO":"１８３號","E_COORD97":168240.593964,"N_COORD97":2549234.0496200002,"ADDRESS":"安中路一段６２２巷１８３號","OBJECTID":420755},"geometry":{"x":168240.59396400116,"y":2549234.049618002}},{"attributes":{"ID":420781,"DIS_CODE":0,"TOWNNAME":"中西區","LI":"民生里","LIN":"2鄰","STREET":"永華路","SECT":"一段","MAREA":" ","LANE":"１７０巷","ALLEY":" ","HOUSE_NO":"１號","E_COORD97":167196.95000000001,"N_COORD97":2543222.3799999999,"ADDRESS":"永華路一段１７０巷１號","OBJECTID":420756},"geometry":{"x":167196.95000000112,"y":2543222.379999999}},{"attributes":{"ID":420782,"DIS_CODE":0,"TOWNNAME":"中西區","LI":"民生里","LIN":"2鄰","STREET":"永華路","SECT":"一段","MAREA":" ","LANE":"１７０巷","ALLEY":" ","HOUSE_NO":"２１號","E_COORD97":167206.14000000001,"N_COORD97":2543264.3300000001,"ADDRESS":"永華路一段１７０巷２１號","OBJECTID":420757},"geometry":{"x":167206.13999999966,"y":2543264.3300000019}},{"attributes":{"ID":420783,"DIS_CODE":0,"TOWNNAME":"中西區","LI":"民生里","LIN":"2鄰","STREET":"永華路","SECT":"一段","MAREA":" ","LANE":"１７０巷","ALLEY":" ","HOUSE_NO":"２３號","E_COORD97":167207.66,"N_COORD97":2543268.8100000001,"ADDRESS":"永華路一段１７０巷２３號","OBJECTID":420758},"geometry":{"x":167207.66000000108,"y":2543268.8100000005}},{"attributes":{"ID":420784,"DIS_CODE":0,"TOWNNAME":"中西區","LI":"民生里","LIN":"2鄰","STREET":"永華路","SECT":"一段","MAREA":" ","LANE":"１７０巷","ALLEY":" ","HOUSE_NO":"２５號","E_COORD97":167207.10999999999,"N_COORD97":2543272.6899999999,"ADDRESS":"永華路一段１７０巷２５號","OBJECTID":420759},"geometry":{"x":167207.11000000034,"y":2543272.6899999995}},{"attributes":{"ID":420785,"DIS_CODE":0,"TOWNNAME":"中西區","LI":"民生里","LIN":"2鄰","STREET":"永華路","SECT":"一段","MAREA":" ","LANE":"１７０巷","ALLEY":" ","HOUSE_NO":"２７號","E_COORD97":167208.29000000001,"N_COORD97":2543276.0899999999,"ADDRESS":"永華路一段１７０巷２７號","OBJECTID":420760},"geometry":{"x":167208.29000000097,"y":2543276.0899999999}},{"attributes":{"ID":420786,"DIS_CODE":0,"TOWNNAME":"中西區","LI":"民生里","LIN":"2鄰","STREET":"永華路","SECT":"一段","MAREA":" ","LANE":"１７０巷","ALLEY":" ","HOUSE_NO":"２９號","E_COORD97":167209.89999999999,"N_COORD97":2543280.48,"ADDRESS":"永華路一段１７０巷２９號","OBJECTID":420761},"geometry":{"x":167209.9000000013,"y":2543280.4800000023}},{"attributes":{"ID":420787,"DIS_CODE":0,"TOWNNAME":"中西區","LI":"民生里","LIN":"2鄰","STREET":"永華路","SECT":"一段","MAREA":" ","LANE":"１７０巷","ALLEY":" ","HOUSE_NO":"３１號","E_COORD97":167210.62,"N_COORD97":2543285.23,"ADDRESS":"永華路一段１７０巷３１號","OBJECTID":420762},"geometry":{"x":167210.61999999918,"y":2543285.2300000023}},{"attributes":{"ID":420788,"DIS_CODE":0,"TOWNNAME":"中西區","LI":"民生里","LIN":"2鄰","STREET":"永華路","SECT":"一段","MAREA":" ","LANE":"１７０巷","ALLEY":" ","HOUSE_NO":"３號","E_COORD97":167197.67000000001,"N_COORD97":2543227.2200000002,"ADDRESS":"永華路一段１７０巷３號","OBJECTID":420763},"geometry":{"x":167197.66999999993,"y":2543227.2200000025}},{"attributes":{"ID":420789,"DIS_CODE":0,"TOWNNAME":"中西區","LI":"民生里","LIN":"2鄰","STREET":"永華路","SECT":"一段","MAREA":" ","LANE":"１７０巷","ALLEY":" ","HOUSE_NO":"５號","E_COORD97":167199.64000000001,"N_COORD97":2543231.0699999998,"ADDRESS":"永華路一段１７０巷５號","OBJECTID":420764},"geometry":{"x":167199.63999999966,"y":2543231.0700000022}},{"attributes":{"ID":420790,"DIS_CODE":0,"TOWNNAME":"中西區","LI":"民生里","LIN":"2鄰","STREET":"永華路","SECT":"一段","MAREA":" ","LANE":"１７０巷","ALLEY":" ","HOUSE_NO":"９號","E_COORD97":167202.14999999999,"N_COORD97":2543239.3100000001,"ADDRESS":"永華路一段１７０巷９號","OBJECTID":420765},"geometry":{"x":167202.15000000037,"y":2543239.3099999987}},{"attributes":{"ID":420791,"DIS_CODE":0,"TOWNNAME":"中西區","LI":"安海里","LIN":"2鄰","STREET":"正興街","SECT":" ","MAREA":" ","LANE":" ","ALLEY":" ","HOUSE_NO":"２１６號","E_COORD97":167404.32999999999,"N_COORD97":2543968.3300000001,"ADDRESS":"正興街２１６號","OBJECTID":420766},"geometry":{"x":167404.33000000194,"y":2543968.3300000019}},{"attributes":{"ID":420792,"DIS_CODE":0,"TOWNNAME":"中西區","LI":"安海里","LIN":"2鄰","STREET":"正興街","SECT":" ","MAREA":" ","LANE":" ","ALLEY":" ","HOUSE_NO":"２１２號","E_COORD97":167405.57999999999,"N_COORD97":2543981.0099999998,"ADDRESS":"正興街２１２號","OBJECTID":420767},"geometry":{"x":167405.58000000007,"y":2543981.0100000016}},{"attributes":{"ID":420793,"DIS_CODE":0,"TOWNNAME":"中西區","LI":"安海里","LIN":"2鄰","STREET":"正興街","SECT":" ","MAREA":" ","LANE":" ","ALLEY":" ","HOUSE_NO":"２１０號","E_COORD97":167406.82999999999,"N_COORD97":2543986.0099999998,"ADDRESS":"正興街２１０號","OBJECTID":420768},"geometry":{"x":167406.83000000007,"y":2543986.0099999998}},{"attributes":{"ID":420794,"DIS_CODE":0,"TOWNNAME":"中西區","LI":"安海里","LIN":"2鄰","STREET":"正興街","SECT":" ","MAREA":" ","LANE":" ","ALLEY":" ","HOUSE_NO":"２１８號","E_COORD97":167400.04000000001,"N_COORD97":2543969.3999999999,"ADDRESS":"正興街２１８號","OBJECTID":420769},"geometry":{"x":167400.04000000097,"y":2543969.4000000004}},{"attributes":{"ID":420795,"DIS_CODE":0,"TOWNNAME":"中西區","LI":"安海里","LIN":"2鄰","STREET":"正興街","SECT":" ","MAREA":" ","LANE":" ","ALLEY":" ","HOUSE_NO":"２２０號","E_COORD97":167396.45999999999,"N_COORD97":2543970.8300000001,"ADDRESS":"正興街２２０號","OBJECTID":420770},"geometry":{"x":167396.46000000183,"y":2543970.8300000001}},{"attributes":{"ID":420796,"DIS_CODE":0,"TOWNNAME":"中西區","LI":"安海里","LIN":"2鄰","STREET":"正興街","SECT":" ","MAREA":" ","LANE":" ","ALLEY":" ","HOUSE_NO":"２２２號","E_COORD97":167392.70999999999,"N_COORD97":2543971.1899999999,"ADDRESS":"正興街２２２號","OBJECTID":420771},"geometry":{"x":167392.70999999996,"y":2543971.1899999995}},{"attributes":{"ID":420797,"DIS_CODE":0,"TOWNNAME":"中西區","LI":"安海里","LIN":"2鄰","STREET":"正興街","SECT":" ","MAREA":" ","LANE":" ","ALLEY":" ","HOUSE_NO":"２２６號","E_COORD97":167388.60000000001,"N_COORD97":2543972.0800000001,"ADDRESS":"正興街２２６號","OBJECTID":420772},"geometry":{"x":167388.60000000056,"y":2543972.0800000001}},{"attributes":{"ID":420798,"DIS_CODE":0,"TOWNNAME":"中西區","LI":"安海里","LIN":"2鄰","STREET":"正興街","SECT":" ","MAREA":" ","LANE":" ","ALLEY":" ","HOUSE_NO":"２２８號","E_COORD97":167384.48000000001,"N_COORD97":2543974.5800000001,"ADDRESS":"正興街２２８號","OBJECTID":420773},"geometry":{"x":167384.48000000045,"y":2543974.5800000019}},{"attributes":{"ID":420799,"DIS_CODE":0,"TOWNNAME":"中西區","LI":"安海里","LIN":"2鄰","STREET":"正興街","SECT":" ","MAREA":" ","LANE":" ","ALLEY":" ","HOUSE_NO":"２３０號","E_COORD97":167390.03,"N_COORD97":2543983.6899999999,"ADDRESS":"正興街２３０號","OBJECTID":420774},"geometry":{"x":167390.03000000119,"y":2543983.6899999995}},{"attributes":{"ID":420800,"DIS_CODE":0,"TOWNNAME":"中西區","LI":"安海里","LIN":"2鄰","STREET":"正興街","SECT":" ","MAREA":" ","LANE":" ","ALLEY":" ","HOUSE_NO":"２３２號","E_COORD97":167391.98999999999,"N_COORD97":2543987.7999999998,"ADDRESS":"正興街２３２號","OBJECTID":420775},"geometry":{"x":167391.99000000115,"y":2543987.8000000007}},{"attributes":{"ID":420801,"DIS_CODE":0,"TOWNNAME":"中西區","LI":"安海里","LIN":"2鄰","STREET":"正興街","SECT":" ","MAREA":" ","LANE":" ","ALLEY":" ","HOUSE_NO":"２３６號","E_COORD97":167393.25,"N_COORD97":2543990.8300000001,"ADDRESS":"正興街２３６號","OBJECTID":420776},"geometry":{"x":167393.25000000093,"y":2543990.8300000001}},{"attributes":{"ID":420802,"DIS_CODE":0,"TOWNNAME":"中西區","LI":"安海里","LIN":"2鄰","STREET":"正興街","SECT":" ","MAREA":" ","LANE":" ","ALLEY":" ","HOUSE_NO":"２３８號","E_COORD97":167394.5,"N_COORD97":2543995.2999999998,"ADDRESS":"正興街２３８號","OBJECTID":420777},"geometry":{"x":167394.50000000186,"y":2543995.3000000007}},{"attributes":{"ID":420803,"DIS_CODE":0,"TOWNNAME":"下營區","LI":"下營里","LIN":"2鄰","STREET":"中山路","SECT":"一段","MAREA":" ","LANE":"１２８巷","ALLEY":" ","HOUSE_NO":"１３號","E_COORD97":174683.44,"N_COORD97":2570486.1000000001,"ADDRESS":"中山路一段１２８巷１３號","OBJECTID":420778},"geometry":{"x":174683.44000000134,"y":2570486.1000000015}},{"attributes":{"ID":420804,"DIS_CODE":0,"TOWNNAME":"下營區","LI":"下營里","LIN":"2鄰","STREET":"中山路","SECT":"一段","MAREA":" ","LANE":"１２８巷","ALLEY":" ","HOUSE_NO":"１號","E_COORD97":174672.88,"N_COORD97":2570520.3399999999,"ADDRESS":"中山路一段１２８巷１號","OBJECTID":420779},"geometry":{"x":174672.88000000082,"y":2570520.3399999999}},{"attributes":{"ID":420805,"DIS_CODE":0,"TOWNNAME":"下營區","LI":"下營里","LIN":"2鄰","STREET":"中山路","SECT":"一段","MAREA":" ","LANE":"１２８巷","ALLEY":" ","HOUSE_NO":"２１號","E_COORD97":174687.51999999999,"N_COORD97":2570458.52,"ADDRESS":"中山路一段１２８巷２１號","OBJECTID":420780},"geometry":{"x":174687.51999999955,"y":2570458.5200000033}},{"attributes":{"ID":420806,"DIS_CODE":0,"TOWNNAME":"下營區","LI":"下營里","LIN":"2鄰","STREET":"中山路","SECT":"一段","MAREA":" ","LANE":"１２８巷","ALLEY":" ","HOUSE_NO":"２８號","E_COORD97":174669.07000000001,"N_COORD97":2570459.1400000001,"ADDRESS":"中山路一段１２８巷２８號","OBJECTID":420781},"geometry":{"x":174669.07000000123,"y":2570459.1400000025}},{"attributes":{"ID":420807,"DIS_CODE":0,"TOWNNAME":"下營區","LI":"下營里","LIN":"2鄰","STREET":"中山路","SECT":"一段","MAREA":" ","LANE":"１２８巷","ALLEY":" ","HOUSE_NO":"２號","E_COORD97":174648.48000000001,"N_COORD97":2570515.0099999998,"ADDRESS":"中山路一段１２８巷２號","OBJECTID":420782},"geometry":{"x":174648.48000000045,"y":2570515.0099999998}},{"attributes":{"ID":420808,"DIS_CODE":0,"TOWNNAME":"仁德區","LI":"中生里","LIN":"10鄰","STREET":" ","SECT":" ","MAREA":"中洲","LANE":" ","ALLEY":" ","HOUSE_NO":"１８１號","E_COORD97":173159.53313200001,"N_COORD97":2534105.7996700001,"ADDRESS":"中洲１８１號","OBJECTID":420783},"geometry":{"x":173159.53313199989,"y":2534105.7996730041}},{"attributes":{"ID":420809,"DIS_CODE":0,"TOWNNAME":"下營區","LI":"下營里","LIN":"2鄰","STREET":"中山路","SECT":"一段","MAREA":" ","LANE":"９８巷","ALLEY":" ","HOUSE_NO":"１號","E_COORD97":174616.29000000001,"N_COORD97":2570517.1099999999,"ADDRESS":"中山路一段９８巷１號","OBJECTID":420784},"geometry":{"x":174616.29000000097,"y":2570517.1099999994}},{"attributes":{"ID":420810,"DIS_CODE":0,"TOWNNAME":"永康區","LI":"東灣里","LIN":"2鄰","STREET":"大灣路","SECT":" ","MAREA":" ","LANE":"４３６巷","ALLEY":" ","HOUSE_NO":"４９號","E_COORD97":174623.39999999999,"N_COORD97":2544972.75,"ADDRESS":"大灣路４３６巷４９號","OBJECTID":420785},"geometry":{"x":174623.40000000037,"y":2544972.7500000019}},{"attributes":{"ID":420811,"DIS_CODE":0,"TOWNNAME":"永康區","LI":"東橋里","LIN":"2鄰","STREET":"大橋一街","SECT":" ","MAREA":" ","LANE":"３２４巷","ALLEY":" ","HOUSE_NO":"１４號之３","E_COORD97":171337.51000000001,"N_COORD97":2546616.8300000001,"ADDRESS":"大橋一街３２４巷１４號之３","OBJECTID":420786},"geometry":{"x":171337.51000000071,"y":2546616.8300000019}},{"attributes":{"ID":420812,"DIS_CODE":0,"TOWNNAME":"永康區","LI":"尚頂里","LIN":"2鄰","STREET":"\u25A0信街","SECT":" ","MAREA":" ","LANE":"１４６巷","ALLEY":" ","HOUSE_NO":"２７號","E_COORD97":171161.57999999999,"N_COORD97":2547726.3599999999,"ADDRESS":"\u25A0信街１４６巷２７號","OBJECTID":420787},"geometry":{"x":171161.58000000101,"y":2547726.3599999994}},{"attributes":{"ID":420813,"DIS_CODE":0,"TOWNNAME":"永康區","LI":"尚頂里","LIN":"2鄰","STREET":"\u25A0信街","SECT":" ","MAREA":" ","LANE":"１４６巷","ALLEY":" ","HOUSE_NO":"２１號","E_COORD97":171136.01999999999,"N_COORD97":2547766.6899999999,"ADDRESS":"\u25A0信街１４６巷２１號","OBJECTID":420788},"geometry":{"x":171136.02000000048,"y":2547766.6900000013}},{"attributes":{"ID":420814,"DIS_CODE":0,"TOWNNAME":"永康區","LI":"尚頂里","LIN":"2鄰","STREET":"\u25A0信街","SECT":" ","MAREA":" ","LANE":"１４６巷","ALLEY":" ","HOUSE_NO":"１９號","E_COORD97":171131.54000000001,"N_COORD97":2547773.0899999999,"ADDRESS":"\u25A0信街１４６巷１９號","OBJECTID":420789},"geometry":{"x":171131.54000000004,"y":2547773.089999998}},{"attributes":{"ID":420815,"DIS_CODE":0,"TOWNNAME":"永康區","LI":"尚頂里","LIN":"2鄰","STREET":"\u25A0信街","SECT":" ","MAREA":" ","LANE":"１４６巷","ALLEY":" ","HOUSE_NO":"３９號","E_COORD97":171234.35999999999,"N_COORD97":2547700.9900000002,"ADDRESS":"\u25A0信街１４６巷３９號","OBJECTID":420790},"geometry":{"x":171234.36000000127,"y":2547700.9900000021}},{"attributes":{"ID":420816,"DIS_CODE":0,"TOWNNAME":"永康區","LI":"尚頂里","LIN":"2鄰","STREET":"\u25A0信街","SECT":" ","MAREA":" ","LANE":"１４６巷","ALLEY":" ","HOUSE_NO":"３２號","E_COORD97":171146.31,"N_COORD97":2547710.6000000001,"ADDRESS":"\u25A0信街１４６巷３２號","OBJECTID":420791},"geometry":{"x":171146.30999999959,"y":2547710.5999999996}},{"attributes":{"ID":420817,"DIS_CODE":0,"TOWNNAME":"永康區","LI":"尚頂里","LIN":"2鄰","STREET":"\u25A0信街","SECT":" ","MAREA":" ","LANE":"１４６巷","ALLEY":" ","HOUSE_NO":"４６號","E_COORD97":171200.03,"N_COORD97":2547675.23,"ADDRESS":"\u25A0信街１４６巷４６號","OBJECTID":420792},"geometry":{"x":171200.03000000026,"y":2547675.2300000023}},{"attributes":{"ID":420818,"DIS_CODE":0,"TOWNNAME":"永康區","LI":"尚頂里","LIN":"2鄰","STREET":"\u25A0信街","SECT":" ","MAREA":" ","LANE":"１４６巷","ALLEY":" ","HOUSE_NO":"４１號","E_COORD97":171253.69,"N_COORD97":2547689.5,"ADDRESS":"\u25A0信街１４６巷４１號","OBJECTID":420793},"geometry":{"x":171253.69000000227,"y":2547689.5000000037}},{"attributes":{"ID":420819,"DIS_CODE":0,"TOWNNAME":"永康區","LI":"尚頂里","LIN":"2鄰","STREET":"\u25A0信街","SECT":" ","MAREA":" ","LANE":"１４６巷","ALLEY":" ","HOUSE_NO":"１７號","E_COORD97":171127.09,"N_COORD97":2547779.8399999999,"ADDRESS":"\u25A0信街１４６巷１７號","OBJECTID":420794},"geometry":{"x":171127.09000000078,"y":2547779.8400000017}},{"attributes":{"ID":420820,"DIS_CODE":0,"TOWNNAME":"永康區","LI":"正強里","LIN":"2鄰","STREET":"中正路","SECT":" ","MAREA":" ","LANE":"１巷","ALLEY":" ","HOUSE_NO":"２７號之２","E_COORD97":173678.81,"N_COORD97":2547629.54,"ADDRESS":"中正路１巷２７號之２","OBJECTID":420795},"geometry":{"x":173678.80999999959,"y":2547629.5399999991}},{"attributes":{"ID":420821,"DIS_CODE":0,"TOWNNAME":"永康區","LI":"北灣里","LIN":"2鄰","STREET":"文賢街","SECT":" ","MAREA":" ","LANE":"１２２巷","ALLEY":" ","HOUSE_NO":"６１號","E_COORD97":175568.42000000001,"N_COORD97":2545564.8199999998,"ADDRESS":"文賢街１２２巷６１號","OBJECTID":420796},"geometry":{"x":175568.41999999993,"y":2545564.8199999984}},{"attributes":{"ID":420822,"DIS_CODE":0,"TOWNNAME":"安南區","LI":"鳳凰里","LIN":"2鄰","STREET":"北安路","SECT":"三段","MAREA":" ","LANE":"１４５巷","ALLEY":" ","HOUSE_NO":"１８號","E_COORD97":168231.63,"N_COORD97":2549058.9199999999,"ADDRESS":"北安路三段１４５巷１８號","OBJECTID":420797},"geometry":{"x":168231.63000000082,"y":2549058.9199999999}},{"attributes":{"ID":420823,"DIS_CODE":0,"TOWNNAME":"安南區","LI":"鳳凰里","LIN":"2鄰","STREET":"北安路","SECT":"三段","MAREA":" ","LANE":"１８１巷","ALLEY":" ","HOUSE_NO":"４５號","E_COORD97":168174.73999999999,"N_COORD97":2549168.3100000001,"ADDRESS":"北安路三段１８１巷４５號","OBJECTID":420798},"geometry":{"x":168174.74000000209,"y":2549168.3100000005}},{"attributes":{"ID":420824,"DIS_CODE":0,"TOWNNAME":"安南區","LI":"鳳凰里","LIN":"2鄰","STREET":"北安路","SECT":"三段","MAREA":" ","LANE":"１８１巷","ALLEY":" ","HOUSE_NO":"４７號","E_COORD97":168166.10999999999,"N_COORD97":2549170.21,"ADDRESS":"北安路三段１８１巷４７號","OBJECTID":420799},"geometry":{"x":168166.11000000127,"y":2549170.209999999}},{"attributes":{"ID":420825,"DIS_CODE":0,"TOWNNAME":"安南區","LI":"顯宮里","LIN":"2鄰","STREET":"媽祖宮一街","SECT":" ","MAREA":" ","LANE":"２巷","ALLEY":" ","HOUSE_NO":"２號","E_COORD97":160713.29000000001,"N_COORD97":2548827.4500000002,"ADDRESS":"媽祖宮一街２巷２號","OBJECTID":420800},"geometry":{"x":160713.29000000004,"y":2548827.4499999993}}]}