{"displayFieldName":"TOWNNAME","fieldAliases":{"ID":"ID","DIS_CODE":"DIS_CODE","TOWNNAME":"TOWNNAME","LI":"LI","LIN":"LIN","STREET":"STREET","SECT":"SECT","MAREA":"MAREA","LANE":"LANE","ALLEY":"ALLEY","HOUSE_NO":"HOUSE_NO","E_COORD97":"E_COORD97","N_COORD97":"N_COORD97","ADDRESS":"ADDRESS","OBJECTID":"OBJECTID"},"geometryType":"esriGeometryPoint","spatialReference":{"wkid":102443,"latestWkid":3826},"fields":[{"name":"ID","type":"esriFieldTypeDouble","alias":"ID"},{"name":"DIS_CODE","type":"esriFieldTypeInteger","alias":"DIS_CODE"},{"name":"TOWNNAME","type":"esriFieldTypeString","alias":"TOWNNAME","length":8},{"name":"LI","type":"esriFieldTypeString","alias":"LI","length":8},{"name":"LIN","type":"esriFieldTypeString","alias":"LIN","length":12},{"name":"STREET","type":"esriFieldTypeString","alias":"STREET","length":20},{"name":"SECT","type":"esriFieldTypeString","alias":"SECT","length":8},{"name":"MAREA","type":"esriFieldTypeString","alias":"MAREA","length":12},{"name":"LANE","type":"esriFieldTypeString","alias":"LANE","length":10},{"name":"ALLEY","type":"esriFieldTypeString","alias":"ALLEY","length":10},{"name":"HOUSE_NO","type":"esriFieldTypeString","alias":"HOUSE_NO","length":20},{"name":"E_COORD97","type":"esriFieldTypeDouble","alias":"E_COORD97"},{"name":"N_COORD97","type":"esriFieldTypeDouble","alias":"N_COORD97"},{"name":"ADDRESS","type":"esriFieldTypeString","alias":"ADDRESS","length":50},{"name":"OBJECTID","type":"esriFieldTypeOID","alias":"OBJECTID"}],"features":[{"attributes":{"ID":284407,"DIS_CODE":0,"TOWNNAME":"安南區","LI":"海佃里","LIN":"19鄰","STREET":"海佃路","SECT":"一段","MAREA":" ","LANE":"２１３巷","ALLEY":" ","HOUSE_NO":"４７號","E_COORD97":166987.57000000001,"N_COORD97":2547222.48,"ADDRESS":"海佃路一段２１３巷４７號","OBJECTID":284401},"geometry":{"x":166987.57000000216,"y":2547222.4800000023}},{"attributes":{"ID":284408,"DIS_CODE":0,"TOWNNAME":"安南區","LI":"海佃里","LIN":"19鄰","STREET":"海佃路","SECT":"一段","MAREA":" ","LANE":"２１３巷","ALLEY":" ","HOUSE_NO":"４８號","E_COORD97":166984.25,"N_COORD97":2547247.0600000001,"ADDRESS":"海佃路一段２１３巷４８號","OBJECTID":284402},"geometry":{"x":166984.25000000186,"y":2547247.0600000005}},{"attributes":{"ID":284409,"DIS_CODE":0,"TOWNNAME":"安南區","LI":"海佃里","LIN":"19鄰","STREET":"海佃路","SECT":"一段","MAREA":" ","LANE":"２１３巷","ALLEY":" ","HOUSE_NO":"４９號","E_COORD97":166983.57999999999,"N_COORD97":2547221.1499999999,"ADDRESS":"海佃路一段２１３巷４９號","OBJECTID":284403},"geometry":{"x":166983.58000000007,"y":2547221.1500000022}},{"attributes":{"ID":284410,"DIS_CODE":0,"TOWNNAME":"安南區","LI":"海東里","LIN":"19鄰","STREET":"海佃路","SECT":"二段","MAREA":" ","LANE":"２６５巷","ALLEY":" ","HOUSE_NO":"６０號","E_COORD97":166600.54999999999,"N_COORD97":2548545.1299999999,"ADDRESS":"海佃路二段２６５巷６０號","OBJECTID":284404},"geometry":{"x":166600.54999999888,"y":2548545.1300000027}},{"attributes":{"ID":284411,"DIS_CODE":0,"TOWNNAME":"佳里區","LI":"安西里","LIN":"56鄰","STREET":"佳安中街","SECT":" ","MAREA":" ","LANE":" ","ALLEY":" ","HOUSE_NO":"１８號","E_COORD97":163933.48000000001,"N_COORD97":2562295.46,"ADDRESS":"佳安中街１８號","OBJECTID":284405},"geometry":{"x":163933.47999999952,"y":2562295.4600000009}},{"attributes":{"ID":284412,"DIS_CODE":0,"TOWNNAME":"官田區","LI":"拔林里","LIN":"2鄰","STREET":" ","SECT":" ","MAREA":"拔子林","LANE":" ","ALLEY":" ","HOUSE_NO":"１２號","E_COORD97":180709.23000000001,"N_COORD97":2563658.0299999998,"ADDRESS":"拔子林１２號","OBJECTID":284406},"geometry":{"x":180709.23000000231,"y":2563658.0300000012}},{"attributes":{"ID":284413,"DIS_CODE":0,"TOWNNAME":"南區","LI":"郡南里","LIN":"19鄰","STREET":"德興路","SECT":" ","MAREA":" ","LANE":"１７７巷","ALLEY":" ","HOUSE_NO":"１６號","E_COORD97":167261.82000000001,"N_COORD97":2540351.3199999998,"ADDRESS":"德興路１７７巷１６號","OBJECTID":284407},"geometry":{"x":167261.8200000003,"y":2540351.3200000022}},{"attributes":{"ID":284414,"DIS_CODE":0,"TOWNNAME":"南區","LI":"郡南里","LIN":"19鄰","STREET":"德興路","SECT":" ","MAREA":" ","LANE":"１７７巷","ALLEY":" ","HOUSE_NO":"１７號","E_COORD97":167263.07999999999,"N_COORD97":2540378.1400000001,"ADDRESS":"德興路１７７巷１７號","OBJECTID":284408},"geometry":{"x":167263.08000000007,"y":2540378.1400000006}},{"attributes":{"ID":284415,"DIS_CODE":0,"TOWNNAME":"南區","LI":"郡南里","LIN":"19鄰","STREET":"德興路","SECT":" ","MAREA":" ","LANE":"１７７巷","ALLEY":" ","HOUSE_NO":"１８號","E_COORD97":167265.78,"N_COORD97":2540351.98,"ADDRESS":"德興路１７７巷１８號","OBJECTID":284409},"geometry":{"x":167265.78000000212,"y":2540351.9800000004}},{"attributes":{"ID":284416,"DIS_CODE":0,"TOWNNAME":"南區","LI":"郡南里","LIN":"19鄰","STREET":"德興路","SECT":" ","MAREA":" ","LANE":"１７７巷","ALLEY":" ","HOUSE_NO":"１９號","E_COORD97":167268,"N_COORD97":2540378.1400000001,"ADDRESS":"德興路１７７巷１９號","OBJECTID":284410},"geometry":{"x":167268.00000000093,"y":2540378.1400000006}},{"attributes":{"ID":284417,"DIS_CODE":0,"TOWNNAME":"南區","LI":"郡南里","LIN":"19鄰","STREET":"德興路","SECT":" ","MAREA":" ","LANE":"１７７巷","ALLEY":" ","HOUSE_NO":"２０號","E_COORD97":167270.39999999999,"N_COORD97":2540353.5099999998,"ADDRESS":"德興路１７７巷２０號","OBJECTID":284411},"geometry":{"x":167270.4000000013,"y":2540353.5100000016}},{"attributes":{"ID":284418,"DIS_CODE":0,"TOWNNAME":"南區","LI":"郡南里","LIN":"19鄰","STREET":"德興路","SECT":" ","MAREA":" ","LANE":"１７７巷","ALLEY":" ","HOUSE_NO":"２２號","E_COORD97":167274.35999999999,"N_COORD97":2540353.9500000002,"ADDRESS":"德興路１７７巷２２號","OBJECTID":284412},"geometry":{"x":167274.36000000127,"y":2540353.9499999993}},{"attributes":{"ID":284419,"DIS_CODE":0,"TOWNNAME":"南區","LI":"郡南里","LIN":"19鄰","STREET":"德興路","SECT":" ","MAREA":" ","LANE":"１７７巷","ALLEY":" ","HOUSE_NO":"２３號","E_COORD97":167279.25,"N_COORD97":2540378.4900000002,"ADDRESS":"德興路１７７巷２３號","OBJECTID":284413},"geometry":{"x":167279.25000000186,"y":2540378.4900000002}},{"attributes":{"ID":284420,"DIS_CODE":0,"TOWNNAME":"南區","LI":"郡南里","LIN":"19鄰","STREET":"德興路","SECT":" ","MAREA":" ","LANE":"１７７巷","ALLEY":" ","HOUSE_NO":"２４號","E_COORD97":167279.63,"N_COORD97":2540354.8300000001,"ADDRESS":"德興路１７７巷２４號","OBJECTID":284414},"geometry":{"x":167279.62999999989,"y":2540354.8300000019}},{"attributes":{"ID":284421,"DIS_CODE":0,"TOWNNAME":"南區","LI":"郡南里","LIN":"19鄰","STREET":"德興路","SECT":" ","MAREA":" ","LANE":"１７７巷","ALLEY":" ","HOUSE_NO":"２５號","E_COORD97":167284.88,"N_COORD97":2540381.2999999998,"ADDRESS":"德興路１７７巷２５號","OBJECTID":284415},"geometry":{"x":167284.87999999989,"y":2540381.3000000007}},{"attributes":{"ID":284422,"DIS_CODE":0,"TOWNNAME":"官田區","LI":"拔林里","LIN":"2鄰","STREET":" ","SECT":" ","MAREA":"拔子林","LANE":" ","ALLEY":" ","HOUSE_NO":"１３號","E_COORD97":180713.32000000001,"N_COORD97":2563677.3300000001,"ADDRESS":"拔子林１３號","OBJECTID":284416},"geometry":{"x":180713.3200000003,"y":2563677.3300000019}},{"attributes":{"ID":284423,"DIS_CODE":0,"TOWNNAME":"南區","LI":"郡南里","LIN":"19鄰","STREET":"德興路","SECT":" ","MAREA":" ","LANE":"１７７巷","ALLEY":" ","HOUSE_NO":"３９號","E_COORD97":167323.89999999999,"N_COORD97":2540385.1600000001,"ADDRESS":"德興路１７７巷３９號","OBJECTID":284417},"geometry":{"x":167323.90000000037,"y":2540385.1600000001}},{"attributes":{"ID":284424,"DIS_CODE":0,"TOWNNAME":"南區","LI":"郡南里","LIN":"19鄰","STREET":"德興路","SECT":" ","MAREA":" ","LANE":"１７７巷","ALLEY":" ","HOUSE_NO":"４１號","E_COORD97":167329.53,"N_COORD97":2540384.46,"ADDRESS":"德興路１７７巷４１號","OBJECTID":284418},"geometry":{"x":167329.53000000026,"y":2540384.4600000046}},{"attributes":{"ID":284425,"DIS_CODE":0,"TOWNNAME":"官田區","LI":"拔林里","LIN":"2鄰","STREET":" ","SECT":" ","MAREA":"拔子林","LANE":" ","ALLEY":" ","HOUSE_NO":"１４號","E_COORD97":180690.32999999999,"N_COORD97":2563666.5499999998,"ADDRESS":"拔子林１４號","OBJECTID":284419},"geometry":{"x":180690.33000000007,"y":2563666.5500000026}},{"attributes":{"ID":284426,"DIS_CODE":0,"TOWNNAME":"官田區","LI":"拔林里","LIN":"2鄰","STREET":" ","SECT":" ","MAREA":"拔子林","LANE":" ","ALLEY":" ","HOUSE_NO":"１５號","E_COORD97":180674.84,"N_COORD97":2563673.5699999998,"ADDRESS":"拔子林１５號","OBJECTID":284420},"geometry":{"x":180674.83999999985,"y":2563673.5700000003}},{"attributes":{"ID":284427,"DIS_CODE":0,"TOWNNAME":"官田區","LI":"拔林里","LIN":"2鄰","STREET":" ","SECT":" ","MAREA":"拔子林","LANE":" ","ALLEY":" ","HOUSE_NO":"１６號之１","E_COORD97":180642.25,"N_COORD97":2563658.1099999999,"ADDRESS":"拔子林１６號之１","OBJECTID":284421},"geometry":{"x":180642.25,"y":2563658.1100000013}},{"attributes":{"ID":284428,"DIS_CODE":0,"TOWNNAME":"南區","LI":"郡南里","LIN":"19鄰","STREET":"德興路","SECT":" ","MAREA":" ","LANE":"１７７巷","ALLEY":" ","HOUSE_NO":"４３號","E_COORD97":167334.10000000001,"N_COORD97":2540385.8599999999,"ADDRESS":"德興路１７７巷４３號","OBJECTID":284422},"geometry":{"x":167334.10000000149,"y":2540385.8599999994}},{"attributes":{"ID":284429,"DIS_CODE":0,"TOWNNAME":"南區","LI":"郡南里","LIN":"19鄰","STREET":"德興路","SECT":" ","MAREA":" ","LANE":"１７７巷","ALLEY":" ","HOUSE_NO":"４５號","E_COORD97":167340.42000000001,"N_COORD97":2540385.8599999999,"ADDRESS":"德興路１７７巷４５號","OBJECTID":284423},"geometry":{"x":167340.41999999993,"y":2540385.8599999994}},{"attributes":{"ID":284430,"DIS_CODE":0,"TOWNNAME":"南區","LI":"郡南里","LIN":"19鄰","STREET":"德興路","SECT":" ","MAREA":" ","LANE":"１７７巷","ALLEY":" ","HOUSE_NO":"４７號","E_COORD97":167333.17000000001,"N_COORD97":2540377.9700000002,"ADDRESS":"德興路１７７巷４７號","OBJECTID":284424},"geometry":{"x":167333.16999999993,"y":2540377.9700000025}},{"attributes":{"ID":284431,"DIS_CODE":0,"TOWNNAME":"南區","LI":"郡南里","LIN":"19鄰","STREET":"德興路","SECT":" ","MAREA":" ","LANE":"１７７巷","ALLEY":" ","HOUSE_NO":"８６號","E_COORD97":167256.76999999999,"N_COORD97":2540333.5299999998,"ADDRESS":"德興路１７７巷８６號","OBJECTID":284425},"geometry":{"x":167256.77000000048,"y":2540333.5299999993}},{"attributes":{"ID":284432,"DIS_CODE":0,"TOWNNAME":"官田區","LI":"拔林里","LIN":"2鄰","STREET":" ","SECT":" ","MAREA":"拔子林","LANE":" ","ALLEY":" ","HOUSE_NO":"１６號","E_COORD97":180638.586545,"N_COORD97":2563642.8900700002,"ADDRESS":"拔子林１６號","OBJECTID":284426},"geometry":{"x":180638.58654499985,"y":2563642.8900680002}},{"attributes":{"ID":284433,"DIS_CODE":0,"TOWNNAME":"官田區","LI":"拔林里","LIN":"2鄰","STREET":" ","SECT":" ","MAREA":"拔子林","LANE":" ","ALLEY":" ","HOUSE_NO":"１７號","E_COORD97":180620.57000000001,"N_COORD97":2563645.25,"ADDRESS":"拔子林１７號","OBJECTID":284427},"geometry":{"x":180620.57000000123,"y":2563645.25}},{"attributes":{"ID":284434,"DIS_CODE":0,"TOWNNAME":"官田區","LI":"社子里","LIN":"2鄰","STREET":" ","SECT":" ","MAREA":"社子","LANE":" ","ALLEY":" ","HOUSE_NO":"１０號之１０","E_COORD97":184423.70000000001,"N_COORD97":2564538.3599999999,"ADDRESS":"社子１０號之１０","OBJECTID":284428},"geometry":{"x":184423.70000000112,"y":2564538.3599999994}},{"attributes":{"ID":284435,"DIS_CODE":0,"TOWNNAME":"官田區","LI":"社子里","LIN":"2鄰","STREET":" ","SECT":" ","MAREA":"社子","LANE":" ","ALLEY":" ","HOUSE_NO":"１０號之６","E_COORD97":184421.63,"N_COORD97":2564543.1000000001,"ADDRESS":"社子１０號之６","OBJECTID":284429},"geometry":{"x":184421.62999999896,"y":2564543.1000000015}},{"attributes":{"ID":284436,"DIS_CODE":0,"TOWNNAME":"南區","LI":"國宅里","LIN":"19鄰","STREET":"新興路","SECT":" ","MAREA":" ","LANE":"４１８巷","ALLEY":" ","HOUSE_NO":"５號","E_COORD97":166690.87,"N_COORD97":2541836.1499999999,"ADDRESS":"新興路４１８巷５號","OBJECTID":284430},"geometry":{"x":166690.87000000104,"y":2541836.1500000004}},{"attributes":{"ID":284437,"DIS_CODE":0,"TOWNNAME":"南區","LI":"國宅里","LIN":"19鄰","STREET":"新興路","SECT":" ","MAREA":" ","LANE":"４１８巷","ALLEY":" ","HOUSE_NO":"７號","E_COORD97":166691.95999999999,"N_COORD97":2541840.7400000002,"ADDRESS":"新興路４１８巷７號","OBJECTID":284431},"geometry":{"x":166691.96000000089,"y":2541840.7400000021}},{"attributes":{"ID":284438,"DIS_CODE":0,"TOWNNAME":"南區","LI":"國宅里","LIN":"19鄰","STREET":"新興路","SECT":" ","MAREA":" ","LANE":"４１８巷","ALLEY":" ","HOUSE_NO":"９號","E_COORD97":166693.04999999999,"N_COORD97":2541845.1000000001,"ADDRESS":"新興路４１８巷９號","OBJECTID":284432},"geometry":{"x":166693.04999999981,"y":2541845.0999999996}},{"attributes":{"ID":284439,"DIS_CODE":0,"TOWNNAME":"南區","LI":"國宅里","LIN":"19鄰","STREET":"新興路","SECT":" ","MAREA":" ","LANE":"４１８巷","ALLEY":" ","HOUSE_NO":"１１號","E_COORD97":166693.70999999999,"N_COORD97":2541849.4700000002,"ADDRESS":"新興路４１８巷１１號","OBJECTID":284433},"geometry":{"x":166693.71000000089,"y":2541849.4700000025}},{"attributes":{"ID":284440,"DIS_CODE":0,"TOWNNAME":"南區","LI":"國宅里","LIN":"19鄰","STREET":"新興路","SECT":" ","MAREA":" ","LANE":"４１８巷","ALLEY":" ","HOUSE_NO":"１５號","E_COORD97":166695.67999999999,"N_COORD97":2541857.3199999998,"ADDRESS":"新興路４１８巷１５號","OBJECTID":284434},"geometry":{"x":166695.6799999997,"y":2541857.3200000022}},{"attributes":{"ID":284441,"DIS_CODE":0,"TOWNNAME":"官田區","LI":"社子里","LIN":"2鄰","STREET":" ","SECT":" ","MAREA":"社子","LANE":" ","ALLEY":" ","HOUSE_NO":"１０號","E_COORD97":184416.48999999999,"N_COORD97":2564569.9500000002,"ADDRESS":"社子１０號","OBJECTID":284435},"geometry":{"x":184416.49000000115,"y":2564569.9500000011}},{"attributes":{"ID":284442,"DIS_CODE":0,"TOWNNAME":"永康區","LI":"埔園里","LIN":"19鄰","STREET":"四維街","SECT":" ","MAREA":" ","LANE":"１４０巷","ALLEY":" ","HOUSE_NO":"３７號","E_COORD97":173406.29000000001,"N_COORD97":2548299.25,"ADDRESS":"四維街１４０巷３７號","OBJECTID":284436},"geometry":{"x":173406.29000000004,"y":2548299.2500000019}},{"attributes":{"ID":284443,"DIS_CODE":0,"TOWNNAME":"永康區","LI":"埔園里","LIN":"19鄰","STREET":"四維街","SECT":" ","MAREA":" ","LANE":"１４０巷","ALLEY":" ","HOUSE_NO":"３４號","E_COORD97":173402.07999999999,"N_COORD97":2548276.25,"ADDRESS":"四維街１４０巷３４號","OBJECTID":284437},"geometry":{"x":173402.08000000101,"y":2548276.25}},{"attributes":{"ID":284444,"DIS_CODE":0,"TOWNNAME":"新化區","LI":"崙頂里","LIN":"2鄰","STREET":" ","SECT":" ","MAREA":"崙子頂","LANE":" ","ALLEY":" ","HOUSE_NO":"９４號","E_COORD97":176862.28,"N_COORD97":2546730.25,"ADDRESS":"崙子頂９４號","OBJECTID":284438},"geometry":{"x":176862.28000000212,"y":2546730.25}},{"attributes":{"ID":284445,"DIS_CODE":0,"TOWNNAME":"新化區","LI":"崙頂里","LIN":"2鄰","STREET":" ","SECT":" ","MAREA":"崙子頂","LANE":" ","ALLEY":" ","HOUSE_NO":"８１號","E_COORD97":176868.28,"N_COORD97":2546766.25,"ADDRESS":"崙子頂８１號","OBJECTID":284439},"geometry":{"x":176868.28000000026,"y":2546766.2500000019}},{"attributes":{"ID":284446,"DIS_CODE":0,"TOWNNAME":"新化區","LI":"全興里","LIN":"2鄰","STREET":" ","SECT":" ","MAREA":"竹子\u25A0","LANE":" ","ALLEY":" ","HOUSE_NO":"２００號之４５","E_COORD97":178133.34,"N_COORD97":2547578.2599999998,"ADDRESS":"竹子\u25A0２００號之４５","OBJECTID":284440},"geometry":{"x":178133.34000000078,"y":2547578.2599999998}},{"attributes":{"ID":284447,"DIS_CODE":0,"TOWNNAME":"永康區","LI":"埔園里","LIN":"19鄰","STREET":"四維街","SECT":" ","MAREA":" ","LANE":"１４０巷","ALLEY":" ","HOUSE_NO":"４１號","E_COORD97":173409.47,"N_COORD97":2548289,"ADDRESS":"四維街１４０巷４１號","OBJECTID":284441},"geometry":{"x":173409.47000000067,"y":2548289}},{"attributes":{"ID":284448,"DIS_CODE":0,"TOWNNAME":"新化區","LI":"全興里","LIN":"2鄰","STREET":" ","SECT":" ","MAREA":"竹子\u25A0","LANE":" ","ALLEY":" ","HOUSE_NO":"２００號之４７","E_COORD97":178176.23000000001,"N_COORD97":2547629.2599999998,"ADDRESS":"竹子\u25A0２００號之４７","OBJECTID":284442},"geometry":{"x":178176.23000000045,"y":2547629.2599999998}},{"attributes":{"ID":284449,"DIS_CODE":0,"TOWNNAME":"新化區","LI":"崙頂里","LIN":"2鄰","STREET":" ","SECT":" ","MAREA":"崙子頂","LANE":" ","ALLEY":" ","HOUSE_NO":"８６號之２","E_COORD97":176873.03,"N_COORD97":2546668.2599999998,"ADDRESS":"崙子頂８６號之２","OBJECTID":284443},"geometry":{"x":176873.03000000119,"y":2546668.2600000016}},{"attributes":{"ID":284450,"DIS_CODE":0,"TOWNNAME":"新化區","LI":"崙頂里","LIN":"2鄰","STREET":" ","SECT":" ","MAREA":"崙子頂","LANE":" ","ALLEY":" ","HOUSE_NO":"８６號","E_COORD97":176872.67999999999,"N_COORD97":2546677.25,"ADDRESS":"崙子頂８６號","OBJECTID":284444},"geometry":{"x":176872.68000000063,"y":2546677.2500000037}},{"attributes":{"ID":284451,"DIS_CODE":0,"TOWNNAME":"新化區","LI":"全興里","LIN":"2鄰","STREET":" ","SECT":" ","MAREA":"竹子\u25A0","LANE":" ","ALLEY":" ","HOUSE_NO":"３０號","E_COORD97":177700.07999999999,"N_COORD97":2547777.25,"ADDRESS":"竹子\u25A0３０號","OBJECTID":284445},"geometry":{"x":177700.08000000007,"y":2547777.2500000019}},{"attributes":{"ID":284452,"DIS_CODE":0,"TOWNNAME":"永康區","LI":"埔園里","LIN":"19鄰","STREET":"四維街","SECT":" ","MAREA":" ","LANE":"１４０巷","ALLEY":" ","HOUSE_NO":"２９號","E_COORD97":173397.87,"N_COORD97":2548324.2400000002,"ADDRESS":"四維街１４０巷２９號","OBJECTID":284446},"geometry":{"x":173397.87000000011,"y":2548324.2400000002}},{"attributes":{"ID":284453,"DIS_CODE":0,"TOWNNAME":"永康區","LI":"埔園里","LIN":"19鄰","STREET":"四維街","SECT":" ","MAREA":" ","LANE":"１４０巷","ALLEY":" ","HOUSE_NO":"２０號","E_COORD97":173392,"N_COORD97":2548304.25,"ADDRESS":"四維街１４０巷２０號","OBJECTID":284447},"geometry":{"x":173391.99999999907,"y":2548304.25}},{"attributes":{"ID":284454,"DIS_CODE":0,"TOWNNAME":"永康區","LI":"東灣里","LIN":"19鄰","STREET":"大灣三街","SECT":" ","MAREA":" ","LANE":"７３巷","ALLEY":" ","HOUSE_NO":"１１號","E_COORD97":174877.26000000001,"N_COORD97":2544914.04,"ADDRESS":"大灣三街７３巷１１號","OBJECTID":284448},"geometry":{"x":174877.26000000071,"y":2544914.0399999991}},{"attributes":{"ID":284455,"DIS_CODE":0,"TOWNNAME":"安南區","LI":"城中里","LIN":"2鄰","STREET":"安中路","SECT":"六段","MAREA":" ","LANE":" ","ALLEY":" ","HOUSE_NO":"５８９號","E_COORD97":160832.17000000001,"N_COORD97":2551429.2000000002,"ADDRESS":"安中路六段５８９號","OBJECTID":284449},"geometry":{"x":160832.16999999993,"y":2551429.1999999993}},{"attributes":{"ID":284456,"DIS_CODE":0,"TOWNNAME":"安南區","LI":"城中里","LIN":"2鄰","STREET":"安中路","SECT":"六段","MAREA":" ","LANE":" ","ALLEY":" ","HOUSE_NO":"５９１號","E_COORD97":160829.75,"N_COORD97":2551431.6800000002,"ADDRESS":"安中路六段５９１號","OBJECTID":284450},"geometry":{"x":160829.75000000093,"y":2551431.6800000016}},{"attributes":{"ID":284457,"DIS_CODE":0,"TOWNNAME":"永康區","LI":"埔園里","LIN":"19鄰","STREET":"四維街","SECT":" ","MAREA":" ","LANE":"１４０巷","ALLEY":" ","HOUSE_NO":"７號","E_COORD97":173359.63,"N_COORD97":2548340.7400000002,"ADDRESS":"四維街１４０巷７號","OBJECTID":284451},"geometry":{"x":173359.63000000082,"y":2548340.7400000002}},{"attributes":{"ID":284458,"DIS_CODE":0,"TOWNNAME":"善化區","LI":"文昌里","LIN":"19鄰","STREET":"中正路","SECT":" ","MAREA":" ","LANE":"２３２巷","ALLEY":" ","HOUSE_NO":"６號","E_COORD97":177744.47,"N_COORD97":2558349,"ADDRESS":"中正路２３２巷６號","OBJECTID":284452},"geometry":{"x":177744.46999999974,"y":2558349.0000000019}},{"attributes":{"ID":284459,"DIS_CODE":0,"TOWNNAME":"善化區","LI":"文昌里","LIN":"19鄰","STREET":"中正路","SECT":" ","MAREA":" ","LANE":"２３２巷","ALLEY":" ","HOUSE_NO":"１４號","E_COORD97":177763.51000000001,"N_COORD97":2558348.75,"ADDRESS":"中正路２３２巷１４號","OBJECTID":284453},"geometry":{"x":177763.50999999978,"y":2558348.75}},{"attributes":{"ID":284460,"DIS_CODE":0,"TOWNNAME":"仁德區","LI":"上崙里","LIN":"19鄰","STREET":"上崙一街","SECT":" ","MAREA":" ","LANE":"１５巷","ALLEY":" ","HOUSE_NO":"１號","E_COORD97":173840.09,"N_COORD97":2538083.9900000002,"ADDRESS":"上崙一街１５巷１號","OBJECTID":284454},"geometry":{"x":173840.08999999985,"y":2538083.9900000002}},{"attributes":{"ID":284461,"DIS_CODE":0,"TOWNNAME":"佳里區","LI":"六安里","LIN":"6鄰","STREET":"六安街","SECT":" ","MAREA":" ","LANE":" ","ALLEY":" ","HOUSE_NO":"５５號","E_COORD97":166142.29000000001,"N_COORD97":2562946.0800000001,"ADDRESS":"六安街５５號","OBJECTID":284455},"geometry":{"x":166142.29000000097,"y":2562946.0800000019}},{"attributes":{"ID":284462,"DIS_CODE":0,"TOWNNAME":"東區","LI":"成大里","LIN":"29鄰","STREET":"大學路","SECT":"西段","MAREA":" ","LANE":" ","ALLEY":" ","HOUSE_NO":"２３號","E_COORD97":169785.53,"N_COORD97":2544081.8300000001,"ADDRESS":"大學路西段２３號","OBJECTID":284456},"geometry":{"x":169785.53000000119,"y":2544081.8300000001}},{"attributes":{"ID":284463,"DIS_CODE":0,"TOWNNAME":"安南區","LI":"城西里","LIN":"2鄰","STREET":"城西街","SECT":"三段","MAREA":" ","LANE":" ","ALLEY":" ","HOUSE_NO":"４２６號","E_COORD97":157327.78,"N_COORD97":2550914.3100000001,"ADDRESS":"城西街三段４２６號","OBJECTID":284457},"geometry":{"x":157327.78000000026,"y":2550914.3100000005}},{"attributes":{"ID":284464,"DIS_CODE":0,"TOWNNAME":"仁德區","LI":"二行里","LIN":"19鄰","STREET":"行大街","SECT":" ","MAREA":" ","LANE":"１７２巷","ALLEY":" ","HOUSE_NO":"４７號","E_COORD97":169813.48999999999,"N_COORD97":2535218.25,"ADDRESS":"行大街１７２巷４７號","OBJECTID":284458},"geometry":{"x":169813.49000000022,"y":2535218.2500000019}},{"attributes":{"ID":284465,"DIS_CODE":0,"TOWNNAME":"仁德區","LI":"二行里","LIN":"19鄰","STREET":"行大街","SECT":" ","MAREA":" ","LANE":"１７２巷","ALLEY":" ","HOUSE_NO":"４９號","E_COORD97":169809.42999999999,"N_COORD97":2535220,"ADDRESS":"行大街１７２巷４９號","OBJECTID":284459},"geometry":{"x":169809.43000000063,"y":2535220.0000000019}},{"attributes":{"ID":284466,"DIS_CODE":0,"TOWNNAME":"安南區","LI":"理想里","LIN":"19鄰","STREET":"大安街","SECT":" ","MAREA":" ","LANE":"４６１巷","ALLEY":" ","HOUSE_NO":"１１號","E_COORD97":167238.76999999999,"N_COORD97":2548767.7799999998,"ADDRESS":"大安街４６１巷１１號","OBJECTID":284460},"geometry":{"x":167238.77000000048,"y":2548767.7799999993}},{"attributes":{"ID":284467,"DIS_CODE":0,"TOWNNAME":"安南區","LI":"理想里","LIN":"19鄰","STREET":"大安街","SECT":" ","MAREA":" ","LANE":"４６１巷","ALLEY":" ","HOUSE_NO":"１３號","E_COORD97":167236,"N_COORD97":2548764.0899999999,"ADDRESS":"大安街４６１巷１３號","OBJECTID":284461},"geometry":{"x":167236.00000000093,"y":2548764.0900000017}},{"attributes":{"ID":284468,"DIS_CODE":0,"TOWNNAME":"安南區","LI":"理想里","LIN":"19鄰","STREET":"大安街","SECT":" ","MAREA":" ","LANE":"４６１巷","ALLEY":" ","HOUSE_NO":"１５號","E_COORD97":167234.32999999999,"N_COORD97":2548759.8399999999,"ADDRESS":"大安街４６１巷１５號","OBJECTID":284462},"geometry":{"x":167234.33000000007,"y":2548759.8399999999}},{"attributes":{"ID":284469,"DIS_CODE":0,"TOWNNAME":"安南區","LI":"理想里","LIN":"19鄰","STREET":"大安街","SECT":" ","MAREA":" ","LANE":"４６１巷","ALLEY":" ","HOUSE_NO":"１７號","E_COORD97":167232.29999999999,"N_COORD97":2548755.7799999998,"ADDRESS":"大安街４６１巷１７號","OBJECTID":284463},"geometry":{"x":167232.29999999981,"y":2548755.7800000012}},{"attributes":{"ID":284470,"DIS_CODE":0,"TOWNNAME":"安南區","LI":"理想里","LIN":"19鄰","STREET":"大安街","SECT":" ","MAREA":" ","LANE":"４６１巷","ALLEY":" ","HOUSE_NO":"１８號","E_COORD97":167208.85000000001,"N_COORD97":2548797.0499999998,"ADDRESS":"大安街４６１巷１８號","OBJECTID":284464},"geometry":{"x":167208.85000000056,"y":2548797.0500000007}},{"attributes":{"ID":284471,"DIS_CODE":0,"TOWNNAME":"安南區","LI":"理想里","LIN":"19鄰","STREET":"大安街","SECT":" ","MAREA":" ","LANE":"４６１巷","ALLEY":" ","HOUSE_NO":"１９號","E_COORD97":167230.45000000001,"N_COORD97":2548751.5299999998,"ADDRESS":"大安街４６１巷１９號","OBJECTID":284465},"geometry":{"x":167230.45000000019,"y":2548751.5299999993}},{"attributes":{"ID":284472,"DIS_CODE":0,"TOWNNAME":"安南區","LI":"理想里","LIN":"19鄰","STREET":"大安街","SECT":" ","MAREA":" ","LANE":"４６１巷","ALLEY":" ","HOUSE_NO":"１號","E_COORD97":167249.31,"N_COORD97":2548788.2799999998,"ADDRESS":"大安街４６１巷１號","OBJECTID":284466},"geometry":{"x":167249.30999999959,"y":2548788.2799999975}},{"attributes":{"ID":284473,"DIS_CODE":0,"TOWNNAME":"安南區","LI":"理想里","LIN":"19鄰","STREET":"大安街","SECT":" ","MAREA":" ","LANE":"４６１巷","ALLEY":" ","HOUSE_NO":"２０號","E_COORD97":167206.76999999999,"N_COORD97":2548793.4199999999,"ADDRESS":"大安街４６１巷２０號","OBJECTID":284467},"geometry":{"x":167206.76999999955,"y":2548793.4199999999}},{"attributes":{"ID":284474,"DIS_CODE":0,"TOWNNAME":"安南區","LI":"理想里","LIN":"19鄰","STREET":"大安街","SECT":" ","MAREA":" ","LANE":"４６１巷","ALLEY":" ","HOUSE_NO":"２１號","E_COORD97":167230.07999999999,"N_COORD97":2548745.9900000002,"ADDRESS":"大安街４６１巷２１號","OBJECTID":284468},"geometry":{"x":167230.08000000101,"y":2548745.9900000002}},{"attributes":{"ID":284475,"DIS_CODE":0,"TOWNNAME":"安南區","LI":"理想里","LIN":"19鄰","STREET":"大安街","SECT":" ","MAREA":" ","LANE":"４６１巷","ALLEY":" ","HOUSE_NO":"２２號","E_COORD97":167205.73000000001,"N_COORD97":2548788.4100000001,"ADDRESS":"大安街４６１巷２２號","OBJECTID":284469},"geometry":{"x":167205.73000000138,"y":2548788.4100000039}},{"attributes":{"ID":284476,"DIS_CODE":0,"TOWNNAME":"安南區","LI":"理想里","LIN":"19鄰","STREET":"大安街","SECT":" ","MAREA":" ","LANE":"４６１巷","ALLEY":" ","HOUSE_NO":"２３號","E_COORD97":167228.97,"N_COORD97":2548741.1400000001,"ADDRESS":"大安街４６１巷２３號","OBJECTID":284470},"geometry":{"x":167228.97000000067,"y":2548741.1400000025}},{"attributes":{"ID":284477,"DIS_CODE":0,"TOWNNAME":"安南區","LI":"理想里","LIN":"19鄰","STREET":"大安街","SECT":" ","MAREA":" ","LANE":"４６１巷","ALLEY":" ","HOUSE_NO":"３８號","E_COORD97":167188.25,"N_COORD97":2548757.6200000001,"ADDRESS":"大安街４６１巷３８號","OBJECTID":284471},"geometry":{"x":167188.25000000093,"y":2548757.6200000048}},{"attributes":{"ID":284478,"DIS_CODE":0,"TOWNNAME":"安南區","LI":"理想里","LIN":"19鄰","STREET":"大安街","SECT":" ","MAREA":" ","LANE":"４６１巷","ALLEY":" ","HOUSE_NO":"３號","E_COORD97":167247.64999999999,"N_COORD97":2548783.6699999999,"ADDRESS":"大安街４６１巷３號","OBJECTID":284472},"geometry":{"x":167247.65000000037,"y":2548783.6700000018}},{"attributes":{"ID":284479,"DIS_CODE":0,"TOWNNAME":"安南區","LI":"理想里","LIN":"19鄰","STREET":"大安街","SECT":" ","MAREA":" ","LANE":"４６１巷","ALLEY":" ","HOUSE_NO":"４２號","E_COORD97":167183.39999999999,"N_COORD97":2548750.3599999999,"ADDRESS":"大安街４６１巷４２號","OBJECTID":284473},"geometry":{"x":167183.40000000037,"y":2548750.3599999994}},{"attributes":{"ID":284480,"DIS_CODE":0,"TOWNNAME":"安南區","LI":"理想里","LIN":"19鄰","STREET":"大安街","SECT":" ","MAREA":" ","LANE":"４６１巷","ALLEY":" ","HOUSE_NO":"４６號","E_COORD97":167177.69,"N_COORD97":2548743.2599999998,"ADDRESS":"大安街４６１巷４６號","OBJECTID":284474},"geometry":{"x":167177.69000000041,"y":2548743.2600000016}},{"attributes":{"ID":284481,"DIS_CODE":0,"TOWNNAME":"安南區","LI":"理想里","LIN":"19鄰","STREET":"大安街","SECT":" ","MAREA":" ","LANE":"４６１巷","ALLEY":" ","HOUSE_NO":"５號","E_COORD97":167244.88,"N_COORD97":2548779.9700000002,"ADDRESS":"大安街４６１巷５號","OBJECTID":284475},"geometry":{"x":167244.88000000082,"y":2548779.9700000025}},{"attributes":{"ID":284482,"DIS_CODE":0,"TOWNNAME":"安南區","LI":"理想里","LIN":"19鄰","STREET":"大安街","SECT":" ","MAREA":" ","LANE":"４６１巷","ALLEY":" ","HOUSE_NO":"７號","E_COORD97":167243.03,"N_COORD97":2548775.9100000001,"ADDRESS":"大安街４６１巷７號","OBJECTID":284476},"geometry":{"x":167243.03000000026,"y":2548775.910000002}},{"attributes":{"ID":284483,"DIS_CODE":0,"TOWNNAME":"安南區","LI":"城西里","LIN":"2鄰","STREET":"城西街","SECT":"三段","MAREA":" ","LANE":" ","ALLEY":" ","HOUSE_NO":"４６８號","E_COORD97":157232.17000000001,"N_COORD97":2550888.3500000001,"ADDRESS":"城西街三段４６８號","OBJECTID":284477},"geometry":{"x":157232.16999999993,"y":2550888.3500000015}},{"attributes":{"ID":284484,"DIS_CODE":0,"TOWNNAME":"安南區","LI":"城西里","LIN":"2鄰","STREET":"城西街","SECT":"三段","MAREA":" ","LANE":" ","ALLEY":" ","HOUSE_NO":"４９０號","E_COORD97":157185.81,"N_COORD97":2550874.2799999998,"ADDRESS":"城西街三段４９０號","OBJECTID":284478},"geometry":{"x":157185.81000000052,"y":2550874.2800000012}},{"attributes":{"ID":284485,"DIS_CODE":0,"TOWNNAME":"安南區","LI":"城西里","LIN":"2鄰","STREET":"城西街","SECT":"三段","MAREA":" ","LANE":" ","ALLEY":" ","HOUSE_NO":"５００號","E_COORD97":157165.32000000001,"N_COORD97":2550869.3300000001,"ADDRESS":"城西街三段５００號","OBJECTID":284479},"geometry":{"x":157165.3200000003,"y":2550869.3300000001}},{"attributes":{"ID":284486,"DIS_CODE":0,"TOWNNAME":"安南區","LI":"青草里","LIN":"2鄰","STREET":"青砂街","SECT":"二段","MAREA":" ","LANE":" ","ALLEY":" ","HOUSE_NO":"３２８號","E_COORD97":159124.19,"N_COORD97":2553111.8300000001,"ADDRESS":"青砂街二段３２８號","OBJECTID":284480},"geometry":{"x":159124.19000000041,"y":2553111.8300000038}},{"attributes":{"ID":284487,"DIS_CODE":0,"TOWNNAME":"安南區","LI":"青草里","LIN":"2鄰","STREET":"青砂街","SECT":"二段","MAREA":" ","LANE":" ","ALLEY":" ","HOUSE_NO":"３３４號","E_COORD97":159105.07000000001,"N_COORD97":2553106.6000000001,"ADDRESS":"青砂街二段３３４號","OBJECTID":284481},"geometry":{"x":159105.07000000123,"y":2553106.6000000015}},{"attributes":{"ID":284488,"DIS_CODE":0,"TOWNNAME":"安南區","LI":"青草里","LIN":"2鄰","STREET":"青砂街","SECT":"二段","MAREA":" ","LANE":" ","ALLEY":" ","HOUSE_NO":"３３８號","E_COORD97":159096.95000000001,"N_COORD97":2553102.6800000002,"ADDRESS":"青砂街二段３３８號","OBJECTID":284482},"geometry":{"x":159096.95000000019,"y":2553102.6800000016}},{"attributes":{"ID":284489,"DIS_CODE":0,"TOWNNAME":"安南區","LI":"青草里","LIN":"2鄰","STREET":"青砂街","SECT":"二段","MAREA":" ","LANE":" ","ALLEY":" ","HOUSE_NO":"３４０號","E_COORD97":159091.45000000001,"N_COORD97":2553101.6299999999,"ADDRESS":"青砂街二段３４０號","OBJECTID":284483},"geometry":{"x":159091.45000000019,"y":2553101.6300000027}},{"attributes":{"ID":284490,"DIS_CODE":0,"TOWNNAME":"安南區","LI":"青草里","LIN":"2鄰","STREET":"青砂街","SECT":"二段","MAREA":" ","LANE":" ","ALLEY":" ","HOUSE_NO":"３４４號","E_COORD97":159080.98000000001,"N_COORD97":2553098.23,"ADDRESS":"青砂街二段３４４號","OBJECTID":284484},"geometry":{"x":159080.98000000138,"y":2553098.2300000004}},{"attributes":{"ID":284491,"DIS_CODE":0,"TOWNNAME":"安南區","LI":"青草里","LIN":"2鄰","STREET":"青砂街","SECT":"二段","MAREA":" ","LANE":" ","ALLEY":" ","HOUSE_NO":"３４６號","E_COORD97":159070.76000000001,"N_COORD97":2553095.3599999999,"ADDRESS":"青砂街二段３４６號","OBJECTID":284485},"geometry":{"x":159070.75999999885,"y":2553095.3600000013}},{"attributes":{"ID":284492,"DIS_CODE":0,"TOWNNAME":"安南區","LI":"理想里","LIN":"19鄰","STREET":"大安街","SECT":" ","MAREA":" ","LANE":"４６１巷","ALLEY":" ","HOUSE_NO":"９號","E_COORD97":167240.98999999999,"N_COORD97":2548772.0299999998,"ADDRESS":"大安街４６１巷９號","OBJECTID":284486},"geometry":{"x":167240.99000000115,"y":2548772.0299999993}},{"attributes":{"ID":284493,"DIS_CODE":0,"TOWNNAME":"西港區","LI":"慶安里","LIN":"19鄰","STREET":"進學街","SECT":" ","MAREA":" ","LANE":"４９巷","ALLEY":" ","HOUSE_NO":"５號","E_COORD97":168282.47,"N_COORD97":2558013.5899999999,"ADDRESS":"進學街４９巷５號","OBJECTID":284487},"geometry":{"x":168282.46999999974,"y":2558013.5900000017}},{"attributes":{"ID":284494,"DIS_CODE":0,"TOWNNAME":"永康區","LI":"南灣里","LIN":"19鄰","STREET":"大灣路","SECT":" ","MAREA":" ","LANE":"７６４巷","ALLEY":" ","HOUSE_NO":"１５８號","E_COORD97":174267.82999999999,"N_COORD97":2544743.3900000001,"ADDRESS":"大灣路７６４巷１５８號","OBJECTID":284488},"geometry":{"x":174267.83000000007,"y":2544743.3900000006}},{"attributes":{"ID":284495,"DIS_CODE":0,"TOWNNAME":"永康區","LI":"南灣里","LIN":"19鄰","STREET":"大灣路","SECT":" ","MAREA":" ","LANE":"７６４巷","ALLEY":" ","HOUSE_NO":"１５４號","E_COORD97":174275.53,"N_COORD97":2544740.1400000001,"ADDRESS":"大灣路７６４巷１５４號","OBJECTID":284489},"geometry":{"x":174275.53000000119,"y":2544740.1400000025}},{"attributes":{"ID":284496,"DIS_CODE":0,"TOWNNAME":"永康區","LI":"東灣里","LIN":"19鄰","STREET":"大灣三街","SECT":" ","MAREA":" ","LANE":"５７巷","ALLEY":" ","HOUSE_NO":"１６號","E_COORD97":174909.01000000001,"N_COORD97":2544882.96,"ADDRESS":"大灣三街５７巷１６號","OBJECTID":284490},"geometry":{"x":174909.01000000164,"y":2544882.959999999}},{"attributes":{"ID":284497,"DIS_CODE":0,"TOWNNAME":"永康區","LI":"南灣里","LIN":"19鄰","STREET":"大灣路","SECT":" ","MAREA":" ","LANE":"７６４巷","ALLEY":" ","HOUSE_NO":"１４６號","E_COORD97":174290.01999999999,"N_COORD97":2544733.1000000001,"ADDRESS":"大灣路７６４巷１４６號","OBJECTID":284491},"geometry":{"x":174290.02000000142,"y":2544733.1000000015}},{"attributes":{"ID":284498,"DIS_CODE":0,"TOWNNAME":"永康區","LI":"南灣里","LIN":"19鄰","STREET":"大灣路","SECT":" ","MAREA":" ","LANE":"７６４巷","ALLEY":" ","HOUSE_NO":"１４０之１號","E_COORD97":174313.07000000001,"N_COORD97":2544734.54,"ADDRESS":"大灣路７６４巷１４０之１號","OBJECTID":284492},"geometry":{"x":174313.07000000123,"y":2544734.5399999991}},{"attributes":{"ID":284499,"DIS_CODE":0,"TOWNNAME":"永康區","LI":"東橋里","LIN":"19鄰","STREET":"中山南路","SECT":" ","MAREA":" ","LANE":"３６５巷","ALLEY":" ","HOUSE_NO":"２號之４８","E_COORD97":172858.23000000001,"N_COORD97":2547080.6299999999,"ADDRESS":"中山南路３６５巷２號之４８","OBJECTID":284493},"geometry":{"x":172858.23000000045,"y":2547080.6300000027}},{"attributes":{"ID":284500,"DIS_CODE":0,"TOWNNAME":"永康區","LI":"西灣里","LIN":"19鄰","STREET":"大安街","SECT":" ","MAREA":" ","LANE":"３３３巷","ALLEY":" ","HOUSE_NO":"７號","E_COORD97":174580.20999999999,"N_COORD97":2545729.3399999999,"ADDRESS":"大安街３３３巷７號","OBJECTID":284494},"geometry":{"x":174580.20999999996,"y":2545729.3399999999}},{"attributes":{"ID":284501,"DIS_CODE":0,"TOWNNAME":"永康區","LI":"西灣里","LIN":"19鄰","STREET":"大安街","SECT":" ","MAREA":" ","LANE":"２９３巷","ALLEY":" ","HOUSE_NO":"８６號","E_COORD97":174529.59,"N_COORD97":2545686.5699999998,"ADDRESS":"大安街２９３巷８６號","OBJECTID":284495},"geometry":{"x":174529.59000000078,"y":2545686.5700000022}},{"attributes":{"ID":284502,"DIS_CODE":0,"TOWNNAME":"中西區","LI":"公正里","LIN":"6鄰","STREET":"西華南街","SECT":" ","MAREA":" ","LANE":" ","ALLEY":" ","HOUSE_NO":"７７號","E_COORD97":168970.73000000001,"N_COORD97":2543939.6699999999,"ADDRESS":"西華南街７７號","OBJECTID":284496},"geometry":{"x":168970.73000000138,"y":2543939.6700000018}},{"attributes":{"ID":284503,"DIS_CODE":0,"TOWNNAME":"安南區","LI":"城北里","LIN":"2鄰","STREET":"城北路","SECT":" ","MAREA":" ","LANE":" ","ALLEY":" ","HOUSE_NO":"６６號","E_COORD97":160964.89999999999,"N_COORD97":2551536.79,"ADDRESS":"城北路６６號","OBJECTID":284497},"geometry":{"x":160964.90000000037,"y":2551536.7899999991}},{"attributes":{"ID":284504,"DIS_CODE":0,"TOWNNAME":"安南區","LI":"淵中里","LIN":"2鄰","STREET":"安中路","SECT":"三段","MAREA":" ","LANE":" ","ALLEY":" ","HOUSE_NO":"４０９號","E_COORD97":165357.45999999999,"N_COORD97":2550023.9500000002,"ADDRESS":"安中路三段４０９號","OBJECTID":284498},"geometry":{"x":165357.46000000089,"y":2550023.9499999993}},{"attributes":{"ID":284505,"DIS_CODE":0,"TOWNNAME":"安南區","LI":"淵中里","LIN":"2鄰","STREET":"安中路","SECT":"三段","MAREA":" ","LANE":" ","ALLEY":" ","HOUSE_NO":"３８３號","E_COORD97":165407.26999999999,"N_COORD97":2549979.8900000001,"ADDRESS":"安中路三段３８３號","OBJECTID":284499},"geometry":{"x":165407.27000000142,"y":2549979.8900000025}},{"attributes":{"ID":284506,"DIS_CODE":0,"TOWNNAME":"西港區","LI":"慶安里","LIN":"19鄰","STREET":"慶安路","SECT":" ","MAREA":" ","LANE":"１８巷","ALLEY":" ","HOUSE_NO":"４號","E_COORD97":168357.95999999999,"N_COORD97":2557967.4500000002,"ADDRESS":"慶安路１８巷４號","OBJECTID":284500},"geometry":{"x":168357.96000000089,"y":2557967.4499999993}},{"attributes":{"ID":284507,"DIS_CODE":0,"TOWNNAME":"永康區","LI":"西灣里","LIN":"19鄰","STREET":"大安街","SECT":" ","MAREA":" ","LANE":"３３３巷","ALLEY":" ","HOUSE_NO":"３號","E_COORD97":174589.57000000001,"N_COORD97":2545728.3700000001,"ADDRESS":"大安街３３３巷３號","OBJECTID":284501},"geometry":{"x":174589.57000000123,"y":2545728.3700000048}},{"attributes":{"ID":284508,"DIS_CODE":0,"TOWNNAME":"永康區","LI":"西灣里","LIN":"19鄰","STREET":"大安街","SECT":" ","MAREA":" ","LANE":"３３３巷","ALLEY":" ","HOUSE_NO":"５號","E_COORD97":174584.97,"N_COORD97":2545729.6200000001,"ADDRESS":"大安街３３３巷５號","OBJECTID":284502},"geometry":{"x":174584.96999999974,"y":2545729.620000001}},{"attributes":{"ID":284509,"DIS_CODE":0,"TOWNNAME":"永康區","LI":"尚頂里","LIN":"19鄰","STREET":"南台街","SECT":" ","MAREA":" ","LANE":"３巷","ALLEY":" ","HOUSE_NO":"８號","E_COORD97":170480.60000000001,"N_COORD97":2546907.2400000002,"ADDRESS":"南台街３巷８號","OBJECTID":284503},"geometry":{"x":170480.60000000056,"y":2546907.2400000002}},{"attributes":{"ID":284510,"DIS_CODE":0,"TOWNNAME":"永康區","LI":"尚頂里","LIN":"19鄰","STREET":"南台街","SECT":" ","MAREA":" ","LANE":"３巷","ALLEY":" ","HOUSE_NO":"３２號","E_COORD97":170505.88,"N_COORD97":2546819,"ADDRESS":"南台街３巷３２號","OBJECTID":284504},"geometry":{"x":170505.88000000175,"y":2546819.0000000019}},{"attributes":{"ID":284511,"DIS_CODE":0,"TOWNNAME":"永康區","LI":"西灣里","LIN":"19鄰","STREET":"大安街","SECT":" ","MAREA":" ","LANE":"２９３巷","ALLEY":" ","HOUSE_NO":"５６號","E_COORD97":174559.31,"N_COORD97":2545615.3500000001,"ADDRESS":"大安街２９３巷５６號","OBJECTID":284505},"geometry":{"x":174559.31000000145,"y":2545615.3500000015}},{"attributes":{"ID":284512,"DIS_CODE":0,"TOWNNAME":"安南區","LI":"梅花里","LIN":"19鄰","STREET":"安中路","SECT":"一段","MAREA":" ","LANE":"７０５巷","ALLEY":" ","HOUSE_NO":"１２號","E_COORD97":167484.67999999999,"N_COORD97":2549270.96,"ADDRESS":"安中路一段７０５巷１２號","OBJECTID":284506},"geometry":{"x":167484.68000000063,"y":2549270.9600000028}},{"attributes":{"ID":284513,"DIS_CODE":0,"TOWNNAME":"安南區","LI":"梅花里","LIN":"19鄰","STREET":"安中路","SECT":"一段","MAREA":" ","LANE":"７０５巷","ALLEY":" ","HOUSE_NO":"１４號","E_COORD97":167480,"N_COORD97":2549274.3599999999,"ADDRESS":"安中路一段７０５巷１４號","OBJECTID":284507},"geometry":{"x":167480.00000000093,"y":2549274.3600000013}},{"attributes":{"ID":284514,"DIS_CODE":0,"TOWNNAME":"仁德區","LI":"仁德里","LIN":"38鄰","STREET":"文宏路","SECT":" ","MAREA":" ","LANE":" ","ALLEY":" ","HOUSE_NO":"９６號","E_COORD97":172417.183647,"N_COORD97":2541750.0673699998,"ADDRESS":"文宏路９６號","OBJECTID":284508},"geometry":{"x":172417.18364700116,"y":2541750.0673689991}},{"attributes":{"ID":284515,"DIS_CODE":0,"TOWNNAME":"安南區","LI":"梅花里","LIN":"19鄰","STREET":"安中路","SECT":"一段","MAREA":" ","LANE":"７０５巷","ALLEY":" ","HOUSE_NO":"１６號","E_COORD97":167475.32000000001,"N_COORD97":2549277.5499999998,"ADDRESS":"安中路一段７０５巷１６號","OBJECTID":284509},"geometry":{"x":167475.3200000003,"y":2549277.5500000026}},{"attributes":{"ID":284516,"DIS_CODE":0,"TOWNNAME":"安南區","LI":"梅花里","LIN":"19鄰","STREET":"安中路","SECT":"一段","MAREA":" ","LANE":"７０５巷","ALLEY":" ","HOUSE_NO":"１８號","E_COORD97":167469.78,"N_COORD97":2549279.6699999999,"ADDRESS":"安中路一段７０５巷１８號","OBJECTID":284510},"geometry":{"x":167469.78000000119,"y":2549279.6700000018}},{"attributes":{"ID":284517,"DIS_CODE":0,"TOWNNAME":"安南區","LI":"梅花里","LIN":"19鄰","STREET":"安中路","SECT":"一段","MAREA":" ","LANE":"７０５巷","ALLEY":" ","HOUSE_NO":"２２號","E_COORD97":167460.85000000001,"N_COORD97":2549286.2599999998,"ADDRESS":"安中路一段７０５巷２２號","OBJECTID":284511},"geometry":{"x":167460.84999999963,"y":2549286.2599999998}},{"attributes":{"ID":284518,"DIS_CODE":0,"TOWNNAME":"安南區","LI":"梅花里","LIN":"19鄰","STREET":"安中路","SECT":"一段","MAREA":" ","LANE":"７０５巷","ALLEY":" ","HOUSE_NO":"２４號","E_COORD97":167455.53,"N_COORD97":2549289.4500000002,"ADDRESS":"安中路一段７０５巷２４號","OBJECTID":284512},"geometry":{"x":167455.52999999933,"y":2549289.4500000011}},{"attributes":{"ID":284519,"DIS_CODE":0,"TOWNNAME":"安南區","LI":"梅花里","LIN":"19鄰","STREET":"安中路","SECT":"一段","MAREA":" ","LANE":"７０５巷","ALLEY":" ","HOUSE_NO":"２８號","E_COORD97":167447.23000000001,"N_COORD97":2549296.6800000002,"ADDRESS":"安中路一段７０５巷２８號","OBJECTID":284513},"geometry":{"x":167447.23000000045,"y":2549296.6799999997}},{"attributes":{"ID":284520,"DIS_CODE":0,"TOWNNAME":"麻豆區","LI":"北勢里","LIN":"2鄰","STREET":" ","SECT":" ","MAREA":"加輦邦","LANE":" ","ALLEY":" ","HOUSE_NO":"１０號之５","E_COORD97":173380.60000000001,"N_COORD97":2566272.02,"ADDRESS":"加輦邦１０號之５","OBJECTID":284514},"geometry":{"x":173380.59999999963,"y":2566272.0200000014}},{"attributes":{"ID":284521,"DIS_CODE":0,"TOWNNAME":"善化區","LI":"文昌里","LIN":"19鄰","STREET":"中正路","SECT":" ","MAREA":" ","LANE":"２４６巷","ALLEY":" ","HOUSE_NO":"１２號之１","E_COORD97":177779.37,"N_COORD97":2558373.52,"ADDRESS":"中正路２４６巷１２號之１","OBJECTID":284515},"geometry":{"x":177779.37000000104,"y":2558373.5199999996}},{"attributes":{"ID":284522,"DIS_CODE":0,"TOWNNAME":"仁德區","LI":"土庫里","LIN":"19鄰","STREET":"太子二街","SECT":" ","MAREA":" ","LANE":"８８巷","ALLEY":" ","HOUSE_NO":"４５號","E_COORD97":174415.04999999999,"N_COORD97":2543185.25,"ADDRESS":"太子二街８８巷４５號","OBJECTID":284516},"geometry":{"x":174415.04999999981,"y":2543185.2500000037}},{"attributes":{"ID":284523,"DIS_CODE":0,"TOWNNAME":"仁德區","LI":"土庫里","LIN":"19鄰","STREET":"太子二街","SECT":" ","MAREA":" ","LANE":"１６６巷","ALLEY":" ","HOUSE_NO":"６號","E_COORD97":174448.20999999999,"N_COORD97":2543180.25,"ADDRESS":"太子二街１６６巷６號","OBJECTID":284517},"geometry":{"x":174448.20999999996,"y":2543180.25}},{"attributes":{"ID":284524,"DIS_CODE":0,"TOWNNAME":"安南區","LI":"淵中里","LIN":"2鄰","STREET":"安中路","SECT":"三段","MAREA":" ","LANE":" ","ALLEY":" ","HOUSE_NO":"３８５號","E_COORD97":165399.48999999999,"N_COORD97":2549989.27,"ADDRESS":"安中路三段３８５號","OBJECTID":284518},"geometry":{"x":165399.48999999929,"y":2549989.2700000033}},{"attributes":{"ID":284525,"DIS_CODE":0,"TOWNNAME":"安南區","LI":"淵中里","LIN":"2鄰","STREET":"安中路","SECT":"三段","MAREA":" ","LANE":" ","ALLEY":" ","HOUSE_NO":"４２５號","E_COORD97":165332.14999999999,"N_COORD97":2550049.4199999999,"ADDRESS":"安中路三段４２５號","OBJECTID":284519},"geometry":{"x":165332.15000000037,"y":2550049.4200000037}},{"attributes":{"ID":284526,"DIS_CODE":0,"TOWNNAME":"安南區","LI":"淵中里","LIN":"2鄰","STREET":"安中路","SECT":"三段","MAREA":" ","LANE":" ","ALLEY":" ","HOUSE_NO":"４２９號","E_COORD97":165326.38,"N_COORD97":2550055.6099999999,"ADDRESS":"安中路三段４２９號","OBJECTID":284520},"geometry":{"x":165326.37999999989,"y":2550055.6100000013}},{"attributes":{"ID":284527,"DIS_CODE":0,"TOWNNAME":"安南區","LI":"淵中里","LIN":"2鄰","STREET":"安中路","SECT":"三段","MAREA":" ","LANE":" ","ALLEY":" ","HOUSE_NO":"４３１號","E_COORD97":165322.48999999999,"N_COORD97":2550058.9100000001,"ADDRESS":"安中路三段４３１號","OBJECTID":284521},"geometry":{"x":165322.49000000022,"y":2550058.9100000001}},{"attributes":{"ID":284528,"DIS_CODE":0,"TOWNNAME":"安南區","LI":"淵中里","LIN":"2鄰","STREET":"安中路","SECT":"三段","MAREA":" ","LANE":" ","ALLEY":" ","HOUSE_NO":"４３３號","E_COORD97":165320.29000000001,"N_COORD97":2550062.96,"ADDRESS":"安中路三段４３３號","OBJECTID":284522},"geometry":{"x":165320.29000000004,"y":2550062.9600000009}},{"attributes":{"ID":284529,"DIS_CODE":0,"TOWNNAME":"仁德區","LI":"大甲里","LIN":"19鄰","STREET":"行大街","SECT":" ","MAREA":" ","LANE":"４８０巷","ALLEY":" ","HOUSE_NO":"２５號","E_COORD97":169318.38,"N_COORD97":2535404.9900000002,"ADDRESS":"行大街４８０巷２５號","OBJECTID":284523},"geometry":{"x":169318.38000000082,"y":2535404.9900000002}},{"attributes":{"ID":284530,"DIS_CODE":0,"TOWNNAME":"安南區","LI":"佃東里","LIN":"2鄰","STREET":"海佃路","SECT":"四段","MAREA":" ","LANE":" ","ALLEY":" ","HOUSE_NO":"３４４號","E_COORD97":165613.66,"N_COORD97":2551405.2200000002,"ADDRESS":"海佃路四段３４４號","OBJECTID":284524},"geometry":{"x":165613.66000000201,"y":2551405.2200000025}},{"attributes":{"ID":284531,"DIS_CODE":0,"TOWNNAME":"安南區","LI":"佃東里","LIN":"2鄰","STREET":"海佃路","SECT":"四段","MAREA":" ","LANE":" ","ALLEY":" ","HOUSE_NO":"３４６號","E_COORD97":165613.62,"N_COORD97":2551409.2599999998,"ADDRESS":"海佃路四段３４６號","OBJECTID":284525},"geometry":{"x":165613.62000000011,"y":2551409.2599999998}},{"attributes":{"ID":284532,"DIS_CODE":0,"TOWNNAME":"東區","LI":"龍山里","LIN":"2鄰","STREET":"崇仁街","SECT":" ","MAREA":" ","LANE":" ","ALLEY":" ","HOUSE_NO":"７號","E_COORD97":170307.17000000001,"N_COORD97":2542794,"ADDRESS":"崇仁街７號","OBJECTID":284526},"geometry":{"x":170307.16999999993,"y":2542794.0000000019}},{"attributes":{"ID":284533,"DIS_CODE":0,"TOWNNAME":"安南區","LI":"溪心里","LIN":"2鄰","STREET":"海佃路","SECT":"二段","MAREA":" ","LANE":" ","ALLEY":" ","HOUSE_NO":"５９７號","E_COORD97":166555.19,"N_COORD97":2549427.4500000002,"ADDRESS":"海佃路二段５９７號","OBJECTID":284527},"geometry":{"x":166555.19000000134,"y":2549427.4499999993}},{"attributes":{"ID":284534,"DIS_CODE":0,"TOWNNAME":"安南區","LI":"城西里","LIN":"2鄰","STREET":"城西街","SECT":"三段","MAREA":" ","LANE":" ","ALLEY":" ","HOUSE_NO":"３７６號","E_COORD97":157404.06,"N_COORD97":2550936.29,"ADDRESS":"城西街三段３７６號","OBJECTID":284528},"geometry":{"x":157404.06000000145,"y":2550936.2899999991}},{"attributes":{"ID":284535,"DIS_CODE":0,"TOWNNAME":"安南區","LI":"溪頂里","LIN":"2鄰","STREET":"府安路","SECT":"四段","MAREA":" ","LANE":" ","ALLEY":" ","HOUSE_NO":"９２號","E_COORD97":169111.07999999999,"N_COORD97":2547280.3300000001,"ADDRESS":"府安路四段９２號","OBJECTID":284529},"geometry":{"x":169111.08000000007,"y":2547280.3300000038}},{"attributes":{"ID":284536,"DIS_CODE":0,"TOWNNAME":"仁德區","LI":"土庫里","LIN":"19鄰","STREET":"太子二街","SECT":" ","MAREA":" ","LANE":"８８巷","ALLEY":" ","HOUSE_NO":"５３號","E_COORD97":174402.94,"N_COORD97":2543161.75,"ADDRESS":"太子二街８８巷５３號","OBJECTID":284530},"geometry":{"x":174402.94000000041,"y":2543161.7500000019}},{"attributes":{"ID":284537,"DIS_CODE":0,"TOWNNAME":"仁德區","LI":"土庫里","LIN":"19鄰","STREET":"太子二街","SECT":" ","MAREA":" ","LANE":"８８巷","ALLEY":" ","HOUSE_NO":"４３號","E_COORD97":174416.06,"N_COORD97":2543189.75,"ADDRESS":"太子二街８８巷４３號","OBJECTID":284531},"geometry":{"x":174416.05999999959,"y":2543189.7500000019}},{"attributes":{"ID":284538,"DIS_CODE":0,"TOWNNAME":"仁德區","LI":"土庫里","LIN":"19鄰","STREET":"太子二街","SECT":" ","MAREA":" ","LANE":"１６６巷","ALLEY":" ","HOUSE_NO":"１１號","E_COORD97":174438.76999999999,"N_COORD97":2543176.5,"ADDRESS":"太子二街１６６巷１１號","OBJECTID":284532},"geometry":{"x":174438.76999999955,"y":2543176.4999999981}},{"attributes":{"ID":284539,"DIS_CODE":0,"TOWNNAME":"仁德區","LI":"土庫里","LIN":"19鄰","STREET":"太子二街","SECT":" ","MAREA":" ","LANE":"８８巷","ALLEY":" ","HOUSE_NO":"４６號","E_COORD97":174397.35000000001,"N_COORD97":2543179.75,"ADDRESS":"太子二街８８巷４６號","OBJECTID":284533},"geometry":{"x":174397.34999999963,"y":2543179.7500000019}},{"attributes":{"ID":284540,"DIS_CODE":0,"TOWNNAME":"仁德區","LI":"土庫里","LIN":"19鄰","STREET":"太子二街","SECT":" ","MAREA":" ","LANE":"１６６巷","ALLEY":" ","HOUSE_NO":"１號","E_COORD97":174484.09,"N_COORD97":2543176.75,"ADDRESS":"太子二街１６６巷１號","OBJECTID":284534},"geometry":{"x":174484.08999999985,"y":2543176.75}},{"attributes":{"ID":284541,"DIS_CODE":0,"TOWNNAME":"仁德區","LI":"大甲里","LIN":"19鄰","STREET":"行大街","SECT":" ","MAREA":" ","LANE":"４８０巷","ALLEY":" ","HOUSE_NO":"２７號","E_COORD97":169319.42999999999,"N_COORD97":2535409.4900000002,"ADDRESS":"行大街４８０巷２７號","OBJECTID":284535},"geometry":{"x":169319.43000000063,"y":2535409.4900000039}},{"attributes":{"ID":284542,"DIS_CODE":0,"TOWNNAME":"仁德區","LI":"土庫里","LIN":"19鄰","STREET":"太子二街","SECT":" ","MAREA":" ","LANE":"１５６巷","ALLEY":" ","HOUSE_NO":"５號","E_COORD97":174453.51000000001,"N_COORD97":2543197.5099999998,"ADDRESS":"太子二街１５６巷５號","OBJECTID":284536},"geometry":{"x":174453.51000000071,"y":2543197.5100000016}},{"attributes":{"ID":284543,"DIS_CODE":0,"TOWNNAME":"中西區","LI":"福安里","LIN":"19鄰","STREET":"中正路","SECT":" ","MAREA":" ","LANE":"１３１巷","ALLEY":" ","HOUSE_NO":"１２號","E_COORD97":167937.41,"N_COORD97":2543643.73,"ADDRESS":"中正路１３１巷１２號","OBJECTID":284537},"geometry":{"x":167937.41000000015,"y":2543643.7300000023}},{"attributes":{"ID":284544,"DIS_CODE":0,"TOWNNAME":"安南區","LI":"幸福里","LIN":"2鄰","STREET":"國安街","SECT":" ","MAREA":" ","LANE":" ","ALLEY":" ","HOUSE_NO":"５１號","E_COORD97":167015,"N_COORD97":2546999.1000000001,"ADDRESS":"國安街５１號","OBJECTID":284538},"geometry":{"x":167015.00000000093,"y":2546999.0999999996}},{"attributes":{"ID":284545,"DIS_CODE":0,"TOWNNAME":"麻豆區","LI":"北勢里","LIN":"2鄰","STREET":" ","SECT":" ","MAREA":"加輦邦","LANE":" ","ALLEY":" ","HOUSE_NO":"１０號之９","E_COORD97":173432.48999999999,"N_COORD97":2566318.5699999998,"ADDRESS":"加輦邦１０號之９","OBJECTID":284539},"geometry":{"x":173432.49000000022,"y":2566318.5700000003}},{"attributes":{"ID":284546,"DIS_CODE":0,"TOWNNAME":"麻豆區","LI":"北勢里","LIN":"2鄰","STREET":" ","SECT":" ","MAREA":"加輦邦","LANE":" ","ALLEY":" ","HOUSE_NO":"１０號","E_COORD97":173372.03,"N_COORD97":2566139.27,"ADDRESS":"加輦邦１０號","OBJECTID":284540},"geometry":{"x":173372.03000000119,"y":2566139.2699999996}},{"attributes":{"ID":284547,"DIS_CODE":0,"TOWNNAME":"麻豆區","LI":"北勢里","LIN":"2鄰","STREET":" ","SECT":" ","MAREA":"加輦邦","LANE":" ","ALLEY":" ","HOUSE_NO":"１１號","E_COORD97":173370.07000000001,"N_COORD97":2566160.9500000002,"ADDRESS":"加輦邦１１號","OBJECTID":284541},"geometry":{"x":173370.07000000123,"y":2566160.9500000011}},{"attributes":{"ID":284548,"DIS_CODE":0,"TOWNNAME":"麻豆區","LI":"北勢里","LIN":"2鄰","STREET":" ","SECT":" ","MAREA":"加輦邦","LANE":" ","ALLEY":" ","HOUSE_NO":"１３號","E_COORD97":173321.09,"N_COORD97":2566210.4700000002,"ADDRESS":"加輦邦１３號","OBJECTID":284542},"geometry":{"x":173321.08999999985,"y":2566210.4700000007}},{"attributes":{"ID":284549,"DIS_CODE":0,"TOWNNAME":"東區","LI":"泉南里","LIN":"19鄰","STREET":"府連東路","SECT":" ","MAREA":" ","LANE":"２２巷","ALLEY":" ","HOUSE_NO":"２６之２號","E_COORD97":169708.32999999999,"N_COORD97":2542740.0499999998,"ADDRESS":"府連東路２２巷２６之２號","OBJECTID":284543},"geometry":{"x":169708.33000000101,"y":2542740.0500000026}},{"attributes":{"ID":284550,"DIS_CODE":0,"TOWNNAME":"東區","LI":"崇德里","LIN":"19鄰","STREET":"崇明十三街","SECT":" ","MAREA":" ","LANE":"１１巷","ALLEY":" ","HOUSE_NO":"１０３號","E_COORD97":170573.51999999999,"N_COORD97":2541732.75,"ADDRESS":"崇明十三街１１巷１０３號","OBJECTID":284544},"geometry":{"x":170573.51999999955,"y":2541732.75}},{"attributes":{"ID":284551,"DIS_CODE":0,"TOWNNAME":"東區","LI":"中西里","LIN":"19鄰","STREET":"長榮路","SECT":"二段","MAREA":" ","LANE":"３２巷","ALLEY":" ","HOUSE_NO":"５３號","E_COORD97":170032.10000000001,"N_COORD97":2543221.5499999998,"ADDRESS":"長榮路二段３２巷５３號","OBJECTID":284545},"geometry":{"x":170032.09999999963,"y":2543221.5500000026}},{"attributes":{"ID":284552,"DIS_CODE":0,"TOWNNAME":"東區","LI":"中西里","LIN":"19鄰","STREET":"長榮路","SECT":"二段","MAREA":" ","LANE":"３２巷","ALLEY":" ","HOUSE_NO":"５５號","E_COORD97":170034.60999999999,"N_COORD97":2543217.75,"ADDRESS":"長榮路二段３２巷５５號","OBJECTID":284546},"geometry":{"x":170034.61000000034,"y":2543217.75}},{"attributes":{"ID":284553,"DIS_CODE":0,"TOWNNAME":"東區","LI":"中西里","LIN":"19鄰","STREET":"長榮路","SECT":"二段","MAREA":" ","LANE":"３２巷","ALLEY":" ","HOUSE_NO":"６１號","E_COORD97":170040.76000000001,"N_COORD97":2543208.71,"ADDRESS":"長榮路二段３２巷６１號","OBJECTID":284547},"geometry":{"x":170040.76000000071,"y":2543208.7100000009}},{"attributes":{"ID":284554,"DIS_CODE":0,"TOWNNAME":"永康區","LI":"\u25A0洲里","LIN":"19鄰","STREET":"\u25A0行路","SECT":" ","MAREA":" ","LANE":"２５巷","ALLEY":" ","HOUSE_NO":"７號","E_COORD97":171662.28,"N_COORD97":2549089.8300000001,"ADDRESS":"\u25A0行路２５巷７號","OBJECTID":284548},"geometry":{"x":171662.28000000026,"y":2549089.8300000001}},{"attributes":{"ID":284555,"DIS_CODE":0,"TOWNNAME":"永康區","LI":"\u25A0行里","LIN":"19鄰","STREET":"正南五街","SECT":" ","MAREA":" ","LANE":"５２０巷","ALLEY":" ","HOUSE_NO":"５３號","E_COORD97":171706,"N_COORD97":2548797.0800000001,"ADDRESS":"正南五街５２０巷５３號","OBJECTID":284549},"geometry":{"x":171706.00000000093,"y":2548797.0800000001}},{"attributes":{"ID":284556,"DIS_CODE":0,"TOWNNAME":"東區","LI":"中西里","LIN":"19鄰","STREET":"長榮路","SECT":"二段","MAREA":" ","LANE":"３２巷","ALLEY":" ","HOUSE_NO":"５１號","E_COORD97":170029.26999999999,"N_COORD97":2543225.5899999999,"ADDRESS":"長榮路二段３２巷５１號","OBJECTID":284550},"geometry":{"x":170029.26999999955,"y":2543225.5899999999}},{"attributes":{"ID":284557,"DIS_CODE":0,"TOWNNAME":"東區","LI":"中西里","LIN":"19鄰","STREET":"長榮路","SECT":"二段","MAREA":" ","LANE":"３２巷","ALLEY":" ","HOUSE_NO":"５９號","E_COORD97":170038.82000000001,"N_COORD97":2543212.1800000002,"ADDRESS":"長榮路二段３２巷５９號","OBJECTID":284551},"geometry":{"x":170038.82000000216,"y":2543212.1799999978}},{"attributes":{"ID":284558,"DIS_CODE":0,"TOWNNAME":"東區","LI":"中西里","LIN":"19鄰","STREET":"長榮路","SECT":"二段","MAREA":" ","LANE":"３２巷","ALLEY":" ","HOUSE_NO":"６５號","E_COORD97":170043.82999999999,"N_COORD97":2543201.7799999998,"ADDRESS":"長榮路二段３２巷６５號","OBJECTID":284552},"geometry":{"x":170043.83000000101,"y":2543201.7800000012}},{"attributes":{"ID":284559,"DIS_CODE":0,"TOWNNAME":"東區","LI":"中西里","LIN":"19鄰","STREET":"長榮路","SECT":"二段","MAREA":" ","LANE":"３２巷","ALLEY":" ","HOUSE_NO":"９７號","E_COORD97":170077.98000000001,"N_COORD97":2543224.0699999998,"ADDRESS":"長榮路二段３２巷９７號","OBJECTID":284553},"geometry":{"x":170077.98000000045,"y":2543224.070000004}},{"attributes":{"ID":284560,"DIS_CODE":0,"TOWNNAME":"東區","LI":"大學里","LIN":"19鄰","STREET":"東寧路","SECT":" ","MAREA":" ","LANE":"９３巷","ALLEY":" ","HOUSE_NO":"１８號","E_COORD97":170383.54000000001,"N_COORD97":2543616.8900000001,"ADDRESS":"東寧路９３巷１８號","OBJECTID":284554},"geometry":{"x":170383.54000000097,"y":2543616.8900000025}},{"attributes":{"ID":284561,"DIS_CODE":0,"TOWNNAME":"東區","LI":"裕農里","LIN":"19鄰","STREET":"裕豐街","SECT":" ","MAREA":" ","LANE":"２２２巷","ALLEY":" ","HOUSE_NO":"４９號","E_COORD97":170898.63,"N_COORD97":2543229.2799999998,"ADDRESS":"裕豐街２２２巷４９號","OBJECTID":284555},"geometry":{"x":170898.62999999989,"y":2543229.2800000012}},{"attributes":{"ID":284562,"DIS_CODE":0,"TOWNNAME":"東區","LI":"裕農里","LIN":"19鄰","STREET":"裕豐街","SECT":" ","MAREA":" ","LANE":"２２２巷","ALLEY":" ","HOUSE_NO":"５３號","E_COORD97":170906.32999999999,"N_COORD97":2543237.5299999998,"ADDRESS":"裕豐街２２２巷５３號","OBJECTID":284556},"geometry":{"x":170906.33000000007,"y":2543237.5300000012}},{"attributes":{"ID":284563,"DIS_CODE":0,"TOWNNAME":"東區","LI":"裕農里","LIN":"19鄰","STREET":"裕豐街","SECT":" ","MAREA":" ","LANE":"２２２巷","ALLEY":" ","HOUSE_NO":"５５號","E_COORD97":170911.29000000001,"N_COORD97":2543238.1899999999,"ADDRESS":"裕豐街２２２巷５５號","OBJECTID":284557},"geometry":{"x":170911.29000000004,"y":2543238.1899999995}},{"attributes":{"ID":284564,"DIS_CODE":0,"TOWNNAME":"永康區","LI":"尚頂里","LIN":"19鄰","STREET":"南台街","SECT":" ","MAREA":" ","LANE":"３巷","ALLEY":" ","HOUSE_NO":"１６號","E_COORD97":170490.19,"N_COORD97":2546877.2400000002,"ADDRESS":"南台街３巷１６號","OBJECTID":284558},"geometry":{"x":170490.19000000041,"y":2546877.2400000002}},{"attributes":{"ID":284565,"DIS_CODE":0,"TOWNNAME":"善化區","LI":"文昌里","LIN":"2鄰","STREET":"中華路","SECT":" ","MAREA":" ","LANE":" ","ALLEY":" ","HOUSE_NO":"１３６號","E_COORD97":177252.84,"N_COORD97":2559026.25,"ADDRESS":"中華路１３６號","OBJECTID":284559},"geometry":{"x":177252.83999999985,"y":2559026.2500000019}},{"attributes":{"ID":284566,"DIS_CODE":0,"TOWNNAME":"麻豆區","LI":"北勢里","LIN":"2鄰","STREET":" ","SECT":" ","MAREA":"加輦邦","LANE":" ","ALLEY":" ","HOUSE_NO":"１４號","E_COORD97":173346.48000000001,"N_COORD97":2566215.7200000002,"ADDRESS":"加輦邦１４號","OBJECTID":284560},"geometry":{"x":173346.48000000045,"y":2566215.7200000007}},{"attributes":{"ID":284567,"DIS_CODE":0,"TOWNNAME":"善化區","LI":"六德里","LIN":"2鄰","STREET":" ","SECT":" ","MAREA":"六分寮","LANE":" ","ALLEY":" ","HOUSE_NO":"２０７號之３","E_COORD97":178722.70999999999,"N_COORD97":2561934.27,"ADDRESS":"六分寮２０７號之３","OBJECTID":284561},"geometry":{"x":178722.71000000089,"y":2561934.2700000014}},{"attributes":{"ID":284568,"DIS_CODE":0,"TOWNNAME":"善化區","LI":"小新里","LIN":"2鄰","STREET":" ","SECT":" ","MAREA":"小新營","LANE":" ","ALLEY":" ","HOUSE_NO":"１０之１４號","E_COORD97":179844.67999999999,"N_COORD97":2558472.27,"ADDRESS":"小新營１０之１４號","OBJECTID":284562},"geometry":{"x":179844.68000000063,"y":2558472.2700000014}},{"attributes":{"ID":284569,"DIS_CODE":0,"TOWNNAME":"東區","LI":"裕農里","LIN":"19鄰","STREET":"裕豐街","SECT":" ","MAREA":" ","LANE":"２２２巷","ALLEY":" ","HOUSE_NO":"５７號","E_COORD97":170915.25,"N_COORD97":2543237.8599999999,"ADDRESS":"裕豐街２２２巷５７號","OBJECTID":284563},"geometry":{"x":170915.25,"y":2543237.8599999975}},{"attributes":{"ID":284570,"DIS_CODE":0,"TOWNNAME":"善化區","LI":"小新里","LIN":"2鄰","STREET":" ","SECT":" ","MAREA":"小新營","LANE":" ","ALLEY":" ","HOUSE_NO":"１０號之１７","E_COORD97":179832.57000000001,"N_COORD97":2558475.77,"ADDRESS":"小新營１０號之１７","OBJECTID":284564},"geometry":{"x":179832.57000000123,"y":2558475.7700000014}},{"attributes":{"ID":284571,"DIS_CODE":0,"TOWNNAME":"永康區","LI":"尚頂里","LIN":"19鄰","STREET":"南台街","SECT":" ","MAREA":" ","LANE":"３巷","ALLEY":" ","HOUSE_NO":"１０號","E_COORD97":170486.38,"N_COORD97":2546899.2400000002,"ADDRESS":"南台街３巷１０號","OBJECTID":284565},"geometry":{"x":170486.38000000082,"y":2546899.2400000021}},{"attributes":{"ID":284572,"DIS_CODE":0,"TOWNNAME":"永康區","LI":"西灣里","LIN":"19鄰","STREET":"大安街","SECT":" ","MAREA":" ","LANE":"３３３巷","ALLEY":" ","HOUSE_NO":"６號","E_COORD97":174592.85999999999,"N_COORD97":2545740.4199999999,"ADDRESS":"大安街３３３巷６號","OBJECTID":284566},"geometry":{"x":174592.86000000034,"y":2545740.4200000037}},{"attributes":{"ID":284573,"DIS_CODE":0,"TOWNNAME":"善化區","LI":"小新里","LIN":"2鄰","STREET":" ","SECT":" ","MAREA":"小新營","LANE":" ","ALLEY":" ","HOUSE_NO":"１３號之２４","E_COORD97":179833.95999999999,"N_COORD97":2558553.77,"ADDRESS":"小新營１３號之２４","OBJECTID":284567},"geometry":{"x":179833.95999999903,"y":2558553.7700000014}},{"attributes":{"ID":284574,"DIS_CODE":0,"TOWNNAME":"永康區","LI":"尚頂里","LIN":"19鄰","STREET":"南台街","SECT":" ","MAREA":" ","LANE":"３巷","ALLEY":" ","HOUSE_NO":"３８號","E_COORD97":170509.22,"N_COORD97":2546796.4900000002,"ADDRESS":"南台街３巷３８號","OBJECTID":284568},"geometry":{"x":170509.22000000067,"y":2546796.4900000002}},{"attributes":{"ID":284575,"DIS_CODE":0,"TOWNNAME":"善化區","LI":"小新里","LIN":"2鄰","STREET":" ","SECT":" ","MAREA":"小新營","LANE":" ","ALLEY":" ","HOUSE_NO":"１３號之１１","E_COORD97":179848.19,"N_COORD97":2558524.77,"ADDRESS":"小新營１３號之１１","OBJECTID":284569},"geometry":{"x":179848.19000000227,"y":2558524.7699999996}},{"attributes":{"ID":284576,"DIS_CODE":0,"TOWNNAME":"善化區","LI":"牛庄里","LIN":"2鄰","STREET":" ","SECT":" ","MAREA":"牛庄","LANE":" ","ALLEY":" ","HOUSE_NO":"２７之２號","E_COORD97":180382.87,"N_COORD97":2559791.02,"ADDRESS":"牛庄２７之２號","OBJECTID":284570},"geometry":{"x":180382.87000000104,"y":2559791.0199999996}},{"attributes":{"ID":284577,"DIS_CODE":0,"TOWNNAME":"永康區","LI":"尚頂里","LIN":"19鄰","STREET":"南台街","SECT":" ","MAREA":" ","LANE":"３巷","ALLEY":" ","HOUSE_NO":"４號","E_COORD97":170476.64000000001,"N_COORD97":2546923.25,"ADDRESS":"南台街３巷４號","OBJECTID":284571},"geometry":{"x":170476.63999999873,"y":2546923.25}},{"attributes":{"ID":284578,"DIS_CODE":0,"TOWNNAME":"善化區","LI":"小新里","LIN":"2鄰","STREET":" ","SECT":" ","MAREA":"小新營","LANE":" ","ALLEY":" ","HOUSE_NO":"１３號之２９","E_COORD97":179854.06,"N_COORD97":2558575.02,"ADDRESS":"小新營１３號之２９","OBJECTID":284572},"geometry":{"x":179854.06000000052,"y":2558575.0200000033}},{"attributes":{"ID":284579,"DIS_CODE":0,"TOWNNAME":"中西區","LI":"仙草里","LIN":"14鄰","STREET":"府緯街","SECT":" ","MAREA":" ","LANE":"７２巷","ALLEY":" ","HOUSE_NO":"３號","E_COORD97":167781.73000000001,"N_COORD97":2542769.6499999999,"ADDRESS":"府緯街７２巷３號","OBJECTID":284573},"geometry":{"x":167781.73000000231,"y":2542769.6500000022}},{"attributes":{"ID":284580,"DIS_CODE":0,"TOWNNAME":"善化區","LI":"小新里","LIN":"2鄰","STREET":" ","SECT":" ","MAREA":"小新營","LANE":" ","ALLEY":" ","HOUSE_NO":"１３之５８號","E_COORD97":179805.23999999999,"N_COORD97":2558534.77,"ADDRESS":"小新營１３之５８號","OBJECTID":284574},"geometry":{"x":179805.23999999929,"y":2558534.7699999996}},{"attributes":{"ID":284581,"DIS_CODE":0,"TOWNNAME":"大內區","LI":"石城里","LIN":"2鄰","STREET":" ","SECT":" ","MAREA":"石子瀨","LANE":" ","ALLEY":" ","HOUSE_NO":"１８號","E_COORD97":184286.72,"N_COORD97":2557887.25,"ADDRESS":"石子瀨１８號","OBJECTID":284575},"geometry":{"x":184286.71999999974,"y":2557887.2500000019}},{"attributes":{"ID":284582,"DIS_CODE":0,"TOWNNAME":"永康區","LI":"尚頂里","LIN":"19鄰","STREET":"南台街","SECT":" ","MAREA":" ","LANE":"３巷","ALLEY":" ","HOUSE_NO":"２６號","E_COORD97":170499.92999999999,"N_COORD97":2546839.25,"ADDRESS":"南台街３巷２６號","OBJECTID":284576},"geometry":{"x":170499.9299999997,"y":2546839.25}},{"attributes":{"ID":284583,"DIS_CODE":0,"TOWNNAME":"大內區","LI":"頭社里","LIN":"2鄰","STREET":" ","SECT":" ","MAREA":"頭社","LANE":" ","ALLEY":" ","HOUSE_NO":"２８之１６號","E_COORD97":186991.39000000001,"N_COORD97":2560470.2999999998,"ADDRESS":"頭社２８之１６號","OBJECTID":284577},"geometry":{"x":186991.39000000153,"y":2560470.3000000026}},{"attributes":{"ID":284584,"DIS_CODE":0,"TOWNNAME":"大內區","LI":"頭社里","LIN":"2鄰","STREET":" ","SECT":" ","MAREA":"頭社","LANE":" ","ALLEY":" ","HOUSE_NO":"２８號之５","E_COORD97":187057.73000000001,"N_COORD97":2560487.2999999998,"ADDRESS":"頭社２８號之５","OBJECTID":284578},"geometry":{"x":187057.73000000231,"y":2560487.3000000026}},{"attributes":{"ID":284585,"DIS_CODE":0,"TOWNNAME":"永康區","LI":"尚頂里","LIN":"19鄰","STREET":"南台街","SECT":" ","MAREA":" ","LANE":"３巷","ALLEY":" ","HOUSE_NO":"１２號","E_COORD97":170488.23999999999,"N_COORD97":2546891.9900000002,"ADDRESS":"南台街３巷１２號","OBJECTID":284579},"geometry":{"x":170488.24000000022,"y":2546891.9900000002}},{"attributes":{"ID":284586,"DIS_CODE":0,"TOWNNAME":"仁德區","LI":"土庫里","LIN":"19鄰","STREET":"太子二街","SECT":" ","MAREA":" ","LANE":"８８巷","ALLEY":" ","HOUSE_NO":"５７號","E_COORD97":174397.01000000001,"N_COORD97":2543161.25,"ADDRESS":"太子二街８８巷５７號","OBJECTID":284580},"geometry":{"x":174397.01000000164,"y":2543161.2499999981}},{"attributes":{"ID":284587,"DIS_CODE":0,"TOWNNAME":"中西區","LI":"仙草里","LIN":"7鄰","STREET":"永福路","SECT":"一段","MAREA":" ","LANE":"６１巷","ALLEY":" ","HOUSE_NO":"８號","E_COORD97":167964.13,"N_COORD97":2542668.8300000001,"ADDRESS":"永福路一段６１巷８號","OBJECTID":284581},"geometry":{"x":167964.12999999989,"y":2542668.8300000001}},{"attributes":{"ID":284588,"DIS_CODE":0,"TOWNNAME":"中西區","LI":"小西里","LIN":"1鄰","STREET":"永福路","SECT":"一段","MAREA":" ","LANE":"２５７巷","ALLEY":" ","HOUSE_NO":"１０號","E_COORD97":167965.59,"N_COORD97":2543332.1699999999,"ADDRESS":"永福路一段２５７巷１０號","OBJECTID":284582},"geometry":{"x":167965.59000000078,"y":2543332.1700000018}},{"attributes":{"ID":284589,"DIS_CODE":0,"TOWNNAME":"中西區","LI":"小西里","LIN":"1鄰","STREET":"永福路","SECT":"一段","MAREA":" ","LANE":"２５７巷","ALLEY":" ","HOUSE_NO":"１１號","E_COORD97":167953,"N_COORD97":2543309.8799999999,"ADDRESS":"永福路一段２５７巷１１號","OBJECTID":284583},"geometry":{"x":167953.00000000093,"y":2543309.8800000008}},{"attributes":{"ID":284590,"DIS_CODE":0,"TOWNNAME":"佳里區","LI":"鎮山里","LIN":"1鄰","STREET":"四安街","SECT":" ","MAREA":" ","LANE":" ","ALLEY":" ","HOUSE_NO":"２１號","E_COORD97":165880.26999999999,"N_COORD97":2561827.9199999999,"ADDRESS":"四安街２１號","OBJECTID":284584},"geometry":{"x":165880.27000000048,"y":2561827.9200000018}},{"attributes":{"ID":284591,"DIS_CODE":0,"TOWNNAME":"東區","LI":"成大里","LIN":"29鄰","STREET":"大學路","SECT":"西段","MAREA":" ","LANE":" ","ALLEY":" ","HOUSE_NO":"２５號","E_COORD97":169780.64000000001,"N_COORD97":2544082.6000000001,"ADDRESS":"大學路西段２５號","OBJECTID":284585},"geometry":{"x":169780.6400000006,"y":2544082.5999999996}},{"attributes":{"ID":284592,"DIS_CODE":0,"TOWNNAME":"東區","LI":"後甲里","LIN":"2鄰","STREET":"裕農路","SECT":" ","MAREA":" ","LANE":" ","ALLEY":" ","HOUSE_NO":"７６９號","E_COORD97":171893.37,"N_COORD97":2543270.6699999999,"ADDRESS":"裕農路７６９號","OBJECTID":284586},"geometry":{"x":171893.37000000104,"y":2543270.6700000018}},{"attributes":{"ID":284593,"DIS_CODE":0,"TOWNNAME":"大內區","LI":"二溪里","LIN":"2鄰","STREET":" ","SECT":" ","MAREA":"二重溪","LANE":" ","ALLEY":" ","HOUSE_NO":"１４０號","E_COORD97":187614.54000000001,"N_COORD97":2557844.3100000001,"ADDRESS":"二重溪１４０號","OBJECTID":284587},"geometry":{"x":187614.5400000019,"y":2557844.3100000005}},{"attributes":{"ID":284594,"DIS_CODE":0,"TOWNNAME":"大內區","LI":"大內里","LIN":"2鄰","STREET":" ","SECT":" ","MAREA":"內庄","LANE":" ","ALLEY":" ","HOUSE_NO":"１３號之１","E_COORD97":184500.06,"N_COORD97":2557492.2999999998,"ADDRESS":"內庄１３號之１","OBJECTID":284588},"geometry":{"x":184500.06000000052,"y":2557492.3000000007}},{"attributes":{"ID":284595,"DIS_CODE":0,"TOWNNAME":"東區","LI":"德高里","LIN":"2鄰","STREET":"仁和路","SECT":" ","MAREA":" ","LANE":" ","ALLEY":" ","HOUSE_NO":"１４５號之１","E_COORD97":171570.29999999999,"N_COORD97":2540989.6699999999,"ADDRESS":"仁和路１４５號之１","OBJECTID":284589},"geometry":{"x":171570.29999999981,"y":2540989.6700000018}},{"attributes":{"ID":284596,"DIS_CODE":0,"TOWNNAME":"東區","LI":"裕農里","LIN":"2鄰","STREET":"裕豐街","SECT":" ","MAREA":" ","LANE":" ","ALLEY":" ","HOUSE_NO":"１２４號","E_COORD97":170760.91,"N_COORD97":2542975.8599999999,"ADDRESS":"裕豐街１２４號","OBJECTID":284590},"geometry":{"x":170760.91000000108,"y":2542975.8599999994}},{"attributes":{"ID":284597,"DIS_CODE":0,"TOWNNAME":"東區","LI":"裕農里","LIN":"2鄰","STREET":"裕豐街","SECT":" ","MAREA":" ","LANE":" ","ALLEY":" ","HOUSE_NO":"１２６號","E_COORD97":170762.14000000001,"N_COORD97":2542980.1899999999,"ADDRESS":"裕豐街１２６號","OBJECTID":284591},"geometry":{"x":170762.1400000006,"y":2542980.1899999995}},{"attributes":{"ID":284598,"DIS_CODE":0,"TOWNNAME":"中西區","LI":"小西里","LIN":"1鄰","STREET":"永福路","SECT":"一段","MAREA":" ","LANE":"２５７巷","ALLEY":" ","HOUSE_NO":"１２號","E_COORD97":167965.26999999999,"N_COORD97":2543323.9199999999,"ADDRESS":"永福路一段２５７巷１２號","OBJECTID":284592},"geometry":{"x":167965.27000000142,"y":2543323.9200000018}},{"attributes":{"ID":284599,"DIS_CODE":0,"TOWNNAME":"中西區","LI":"小西里","LIN":"1鄰","STREET":"永福路","SECT":"一段","MAREA":" ","LANE":"２５７巷","ALLEY":" ","HOUSE_NO":"１３號","E_COORD97":167944.09,"N_COORD97":2543309.3300000001,"ADDRESS":"永福路一段２５７巷１３號","OBJECTID":284593},"geometry":{"x":167944.08999999985,"y":2543309.3300000001}},{"attributes":{"ID":284600,"DIS_CODE":0,"TOWNNAME":"中西區","LI":"小西里","LIN":"1鄰","STREET":"永福路","SECT":"一段","MAREA":" ","LANE":"２５７巷","ALLEY":" ","HOUSE_NO":"１４號","E_COORD97":167956.47,"N_COORD97":2543329.02,"ADDRESS":"永福路一段２５７巷１４號","OBJECTID":284594},"geometry":{"x":167956.46999999974,"y":2543329.0200000014}},{"attributes":{"ID":284601,"DIS_CODE":0,"TOWNNAME":"東區","LI":"新東里","LIN":"19鄰","STREET":"裕豐街","SECT":" ","MAREA":" ","LANE":"１８５巷","ALLEY":" ","HOUSE_NO":"４７號","E_COORD97":170669.48000000001,"N_COORD97":2543164.0499999998,"ADDRESS":"裕豐街１８５巷４７號","OBJECTID":284595},"geometry":{"x":170669.48000000045,"y":2543164.0500000026}},{"attributes":{"ID":284602,"DIS_CODE":0,"TOWNNAME":"東區","LI":"大學里","LIN":"19鄰","STREET":"東寧路","SECT":" ","MAREA":" ","LANE":"９３巷","ALLEY":" ","HOUSE_NO":"１０號","E_COORD97":170386.48999999999,"N_COORD97":2543595.1200000001,"ADDRESS":"東寧路９３巷１０號","OBJECTID":284596},"geometry":{"x":170386.49000000022,"y":2543595.1200000029}},{"attributes":{"ID":284603,"DIS_CODE":0,"TOWNNAME":"東區","LI":"大學里","LIN":"19鄰","STREET":"東寧路","SECT":" ","MAREA":" ","LANE":"９３巷","ALLEY":" ","HOUSE_NO":"２２號","E_COORD97":170365.01000000001,"N_COORD97":2543622.9700000002,"ADDRESS":"東寧路９３巷２２號","OBJECTID":284597},"geometry":{"x":170365.01000000071,"y":2543622.9700000025}},{"attributes":{"ID":284604,"DIS_CODE":0,"TOWNNAME":"東區","LI":"大學里","LIN":"19鄰","STREET":"東寧路","SECT":" ","MAREA":" ","LANE":"９３巷","ALLEY":" ","HOUSE_NO":"２４號","E_COORD97":170355.84,"N_COORD97":2543625.8500000001,"ADDRESS":"東寧路９３巷２４號","OBJECTID":284598},"geometry":{"x":170355.84000000078,"y":2543625.8500000015}},{"attributes":{"ID":284605,"DIS_CODE":0,"TOWNNAME":"東區","LI":"大學里","LIN":"19鄰","STREET":"東寧路","SECT":" ","MAREA":" ","LANE":"９３巷","ALLEY":" ","HOUSE_NO":"３３號","E_COORD97":170343.54000000001,"N_COORD97":2543671.3300000001,"ADDRESS":"東寧路９３巷３３號","OBJECTID":284599},"geometry":{"x":170343.54000000004,"y":2543671.3300000001}},{"attributes":{"ID":284606,"DIS_CODE":0,"TOWNNAME":"東區","LI":"大學里","LIN":"19鄰","STREET":"東寧路","SECT":" ","MAREA":" ","LANE":"９３巷","ALLEY":" ","HOUSE_NO":"３５號","E_COORD97":170337.29999999999,"N_COORD97":2543674.23,"ADDRESS":"東寧路９３巷３５號","OBJECTID":284600},"geometry":{"x":170337.30000000075,"y":2543674.2300000023}}]}