{"displayFieldName":"TOWNNAME","fieldAliases":{"ID":"ID","DIS_CODE":"DIS_CODE","TOWNNAME":"TOWNNAME","LI":"LI","LIN":"LIN","STREET":"STREET","SECT":"SECT","MAREA":"MAREA","LANE":"LANE","ALLEY":"ALLEY","HOUSE_NO":"HOUSE_NO","E_COORD97":"E_COORD97","N_COORD97":"N_COORD97","ADDRESS":"ADDRESS","OBJECTID":"OBJECTID"},"geometryType":"esriGeometryPoint","spatialReference":{"wkid":102443,"latestWkid":3826},"fields":[{"name":"ID","type":"esriFieldTypeDouble","alias":"ID"},{"name":"DIS_CODE","type":"esriFieldTypeInteger","alias":"DIS_CODE"},{"name":"TOWNNAME","type":"esriFieldTypeString","alias":"TOWNNAME","length":8},{"name":"LI","type":"esriFieldTypeString","alias":"LI","length":8},{"name":"LIN","type":"esriFieldTypeString","alias":"LIN","length":12},{"name":"STREET","type":"esriFieldTypeString","alias":"STREET","length":20},{"name":"SECT","type":"esriFieldTypeString","alias":"SECT","length":8},{"name":"MAREA","type":"esriFieldTypeString","alias":"MAREA","length":12},{"name":"LANE","type":"esriFieldTypeString","alias":"LANE","length":10},{"name":"ALLEY","type":"esriFieldTypeString","alias":"ALLEY","length":10},{"name":"HOUSE_NO","type":"esriFieldTypeString","alias":"HOUSE_NO","length":20},{"name":"E_COORD97","type":"esriFieldTypeDouble","alias":"E_COORD97"},{"name":"N_COORD97","type":"esriFieldTypeDouble","alias":"N_COORD97"},{"name":"ADDRESS","type":"esriFieldTypeString","alias":"ADDRESS","length":50},{"name":"OBJECTID","type":"esriFieldTypeOID","alias":"OBJECTID"}],"features":[{"attributes":{"ID":535228,"DIS_CODE":0,"TOWNNAME":"東區","LI":"崇成里","LIN":"19鄰","STREET":"崇明路","SECT":" ","MAREA":" ","LANE":" ","ALLEY":" ","HOUSE_NO":"５９５號三樓","E_COORD97":170623.85000000001,"N_COORD97":2540884.8700000001,"ADDRESS":"崇明路５９５號三樓","OBJECTID":535201},"geometry":{"x":170623.84999999963,"y":2540884.8700000029}},{"attributes":{"ID":535229,"DIS_CODE":0,"TOWNNAME":"東區","LI":"崇成里","LIN":"19鄰","STREET":"崇明路","SECT":" ","MAREA":" ","LANE":" ","ALLEY":" ","HOUSE_NO":"５９５號三樓之１","E_COORD97":170623.85000000001,"N_COORD97":2540884.8700000001,"ADDRESS":"崇明路５９５號三樓之１","OBJECTID":535202},"geometry":{"x":170623.84999999963,"y":2540884.8700000029}},{"attributes":{"ID":535230,"DIS_CODE":0,"TOWNNAME":"東區","LI":"崇成里","LIN":"19鄰","STREET":"崇明路","SECT":" ","MAREA":" ","LANE":" ","ALLEY":" ","HOUSE_NO":"５９５號三樓之２","E_COORD97":170623.85000000001,"N_COORD97":2540884.8700000001,"ADDRESS":"崇明路５９５號三樓之２","OBJECTID":535203},"geometry":{"x":170623.84999999963,"y":2540884.8700000029}},{"attributes":{"ID":535231,"DIS_CODE":0,"TOWNNAME":"東區","LI":"崇成里","LIN":"19鄰","STREET":"崇明路","SECT":" ","MAREA":" ","LANE":" ","ALLEY":" ","HOUSE_NO":"５９５號五樓","E_COORD97":170623.85000000001,"N_COORD97":2540884.8700000001,"ADDRESS":"崇明路５９５號五樓","OBJECTID":535204},"geometry":{"x":170623.84999999963,"y":2540884.8700000029}},{"attributes":{"ID":535232,"DIS_CODE":0,"TOWNNAME":"東區","LI":"崇成里","LIN":"19鄰","STREET":"崇明路","SECT":" ","MAREA":" ","LANE":" ","ALLEY":" ","HOUSE_NO":"５９５號五樓之１","E_COORD97":170623.85000000001,"N_COORD97":2540884.8700000001,"ADDRESS":"崇明路５９５號五樓之１","OBJECTID":535205},"geometry":{"x":170623.84999999963,"y":2540884.8700000029}},{"attributes":{"ID":535233,"DIS_CODE":0,"TOWNNAME":"東區","LI":"崇成里","LIN":"19鄰","STREET":"崇明路","SECT":" ","MAREA":" ","LANE":" ","ALLEY":" ","HOUSE_NO":"５９５號五樓之２","E_COORD97":170623.85000000001,"N_COORD97":2540884.8700000001,"ADDRESS":"崇明路５９５號五樓之２","OBJECTID":535206},"geometry":{"x":170623.84999999963,"y":2540884.8700000029}},{"attributes":{"ID":535234,"DIS_CODE":0,"TOWNNAME":"東區","LI":"崇成里","LIN":"19鄰","STREET":"崇明路","SECT":" ","MAREA":" ","LANE":" ","ALLEY":" ","HOUSE_NO":"５９５號六樓","E_COORD97":170623.85000000001,"N_COORD97":2540884.8700000001,"ADDRESS":"崇明路５９５號六樓","OBJECTID":535207},"geometry":{"x":170623.84999999963,"y":2540884.8700000029}},{"attributes":{"ID":535235,"DIS_CODE":0,"TOWNNAME":"東區","LI":"崇成里","LIN":"19鄰","STREET":"崇明路","SECT":" ","MAREA":" ","LANE":" ","ALLEY":" ","HOUSE_NO":"５９５號六樓之１","E_COORD97":170623.85000000001,"N_COORD97":2540884.8700000001,"ADDRESS":"崇明路５９５號六樓之１","OBJECTID":535208},"geometry":{"x":170623.84999999963,"y":2540884.8700000029}},{"attributes":{"ID":535236,"DIS_CODE":0,"TOWNNAME":"東區","LI":"崇成里","LIN":"19鄰","STREET":"崇明路","SECT":" ","MAREA":" ","LANE":" ","ALLEY":" ","HOUSE_NO":"５９５號六樓之２","E_COORD97":170623.85000000001,"N_COORD97":2540884.8700000001,"ADDRESS":"崇明路５９５號六樓之２","OBJECTID":535209},"geometry":{"x":170623.84999999963,"y":2540884.8700000029}},{"attributes":{"ID":535237,"DIS_CODE":0,"TOWNNAME":"東區","LI":"崇成里","LIN":"19鄰","STREET":"崇明路","SECT":" ","MAREA":" ","LANE":" ","ALLEY":" ","HOUSE_NO":"５９５號四樓","E_COORD97":170623.85000000001,"N_COORD97":2540884.8700000001,"ADDRESS":"崇明路５９５號四樓","OBJECTID":535210},"geometry":{"x":170623.84999999963,"y":2540884.8700000029}},{"attributes":{"ID":535238,"DIS_CODE":0,"TOWNNAME":"東區","LI":"崇成里","LIN":"19鄰","STREET":"崇明路","SECT":" ","MAREA":" ","LANE":" ","ALLEY":" ","HOUSE_NO":"５９５號四樓之１","E_COORD97":170623.85000000001,"N_COORD97":2540884.8700000001,"ADDRESS":"崇明路５９５號四樓之１","OBJECTID":535211},"geometry":{"x":170623.84999999963,"y":2540884.8700000029}},{"attributes":{"ID":535239,"DIS_CODE":0,"TOWNNAME":"東區","LI":"崇成里","LIN":"19鄰","STREET":"崇明路","SECT":" ","MAREA":" ","LANE":" ","ALLEY":" ","HOUSE_NO":"５９５號四樓之２","E_COORD97":170623.85000000001,"N_COORD97":2540884.8700000001,"ADDRESS":"崇明路５９５號四樓之２","OBJECTID":535212},"geometry":{"x":170623.84999999963,"y":2540884.8700000029}},{"attributes":{"ID":535240,"DIS_CODE":0,"TOWNNAME":"中西區","LI":"安海里","LIN":"19鄰","STREET":"民生路","SECT":"二段","MAREA":" ","LANE":" ","ALLEY":" ","HOUSE_NO":"３８９號七樓之１","E_COORD97":166864.26999999999,"N_COORD97":2544218.8599999999,"ADDRESS":"民生路二段３８９號七樓之１","OBJECTID":535213},"geometry":{"x":166864.26999999955,"y":2544218.8600000013}},{"attributes":{"ID":535241,"DIS_CODE":0,"TOWNNAME":"中西區","LI":"安海里","LIN":"19鄰","STREET":"民生路","SECT":"二段","MAREA":" ","LANE":" ","ALLEY":" ","HOUSE_NO":"３８９號七樓之２","E_COORD97":166854.64999999999,"N_COORD97":2544220.1699999999,"ADDRESS":"民生路二段３８９號七樓之２","OBJECTID":535214},"geometry":{"x":166854.65000000037,"y":2544220.1700000018}},{"attributes":{"ID":535242,"DIS_CODE":0,"TOWNNAME":"中西區","LI":"安海里","LIN":"19鄰","STREET":"民生路","SECT":"二段","MAREA":" ","LANE":" ","ALLEY":" ","HOUSE_NO":"３８９號七樓之３","E_COORD97":166862.95999999999,"N_COORD97":2544211.4300000002,"ADDRESS":"民生路二段３８９號七樓之３","OBJECTID":535215},"geometry":{"x":166862.96000000089,"y":2544211.4300000016}},{"attributes":{"ID":535243,"DIS_CODE":0,"TOWNNAME":"中西區","LI":"安海里","LIN":"19鄰","STREET":"民生路","SECT":"二段","MAREA":" ","LANE":" ","ALLEY":" ","HOUSE_NO":"３８９號七樓之５","E_COORD97":166854.20999999999,"N_COORD97":2544212.2999999998,"ADDRESS":"民生路二段３８９號七樓之５","OBJECTID":535216},"geometry":{"x":166854.21000000089,"y":2544212.3000000007}},{"attributes":{"ID":535244,"DIS_CODE":0,"TOWNNAME":"中西區","LI":"安海里","LIN":"19鄰","STREET":"民生路","SECT":"二段","MAREA":" ","LANE":" ","ALLEY":" ","HOUSE_NO":"３８９號九樓之１","E_COORD97":166864.26999999999,"N_COORD97":2544218.8599999999,"ADDRESS":"民生路二段３８９號九樓之１","OBJECTID":535217},"geometry":{"x":166864.26999999955,"y":2544218.8600000013}},{"attributes":{"ID":535245,"DIS_CODE":0,"TOWNNAME":"中西區","LI":"安海里","LIN":"19鄰","STREET":"民生路","SECT":"二段","MAREA":" ","LANE":" ","ALLEY":" ","HOUSE_NO":"３８９號九樓之２","E_COORD97":166854.64999999999,"N_COORD97":2544220.1699999999,"ADDRESS":"民生路二段３８９號九樓之２","OBJECTID":535218},"geometry":{"x":166854.65000000037,"y":2544220.1700000018}},{"attributes":{"ID":535246,"DIS_CODE":0,"TOWNNAME":"中西區","LI":"安海里","LIN":"19鄰","STREET":"民生路","SECT":"二段","MAREA":" ","LANE":" ","ALLEY":" ","HOUSE_NO":"３８９號九樓之３","E_COORD97":166862.95999999999,"N_COORD97":2544211.4300000002,"ADDRESS":"民生路二段３８９號九樓之３","OBJECTID":535219},"geometry":{"x":166862.96000000089,"y":2544211.4300000016}},{"attributes":{"ID":535247,"DIS_CODE":0,"TOWNNAME":"中西區","LI":"安海里","LIN":"19鄰","STREET":"民生路","SECT":"二段","MAREA":" ","LANE":" ","ALLEY":" ","HOUSE_NO":"３８９號九樓之５","E_COORD97":166854.20999999999,"N_COORD97":2544212.2999999998,"ADDRESS":"民生路二段３８９號九樓之５","OBJECTID":535220},"geometry":{"x":166854.21000000089,"y":2544212.3000000007}},{"attributes":{"ID":535248,"DIS_CODE":0,"TOWNNAME":"中西區","LI":"安海里","LIN":"19鄰","STREET":"民生路","SECT":"二段","MAREA":" ","LANE":" ","ALLEY":" ","HOUSE_NO":"３８９號二十一樓之１","E_COORD97":166864.26999999999,"N_COORD97":2544218.8599999999,"ADDRESS":"民生路二段３８９號二十一樓之１","OBJECTID":535221},"geometry":{"x":166864.26999999955,"y":2544218.8600000013}},{"attributes":{"ID":535249,"DIS_CODE":0,"TOWNNAME":"中西區","LI":"安海里","LIN":"19鄰","STREET":"民生路","SECT":"二段","MAREA":" ","LANE":" ","ALLEY":" ","HOUSE_NO":"３８９號二十一樓之２","E_COORD97":166854.64999999999,"N_COORD97":2544220.1699999999,"ADDRESS":"民生路二段３８９號二十一樓之２","OBJECTID":535222},"geometry":{"x":166854.65000000037,"y":2544220.1700000018}},{"attributes":{"ID":535250,"DIS_CODE":0,"TOWNNAME":"中西區","LI":"安海里","LIN":"19鄰","STREET":"民生路","SECT":"二段","MAREA":" ","LANE":" ","ALLEY":" ","HOUSE_NO":"３８９號二十一樓之３","E_COORD97":166862.95999999999,"N_COORD97":2544211.4300000002,"ADDRESS":"民生路二段３８９號二十一樓之３","OBJECTID":535223},"geometry":{"x":166862.96000000089,"y":2544211.4300000016}},{"attributes":{"ID":535251,"DIS_CODE":0,"TOWNNAME":"中西區","LI":"安海里","LIN":"19鄰","STREET":"民生路","SECT":"二段","MAREA":" ","LANE":" ","ALLEY":" ","HOUSE_NO":"３８９號二十一樓之５","E_COORD97":166854.20999999999,"N_COORD97":2544212.2999999998,"ADDRESS":"民生路二段３８９號二十一樓之５","OBJECTID":535224},"geometry":{"x":166854.21000000089,"y":2544212.3000000007}},{"attributes":{"ID":535252,"DIS_CODE":0,"TOWNNAME":"中西區","LI":"安海里","LIN":"19鄰","STREET":"民生路","SECT":"二段","MAREA":" ","LANE":" ","ALLEY":" ","HOUSE_NO":"３８９號二十二樓之１","E_COORD97":166864.26999999999,"N_COORD97":2544218.8599999999,"ADDRESS":"民生路二段３８９號二十二樓之１","OBJECTID":535225},"geometry":{"x":166864.26999999955,"y":2544218.8600000013}},{"attributes":{"ID":535253,"DIS_CODE":0,"TOWNNAME":"中西區","LI":"安海里","LIN":"19鄰","STREET":"民生路","SECT":"二段","MAREA":" ","LANE":" ","ALLEY":" ","HOUSE_NO":"３８９號二十二樓之３","E_COORD97":166862.95999999999,"N_COORD97":2544211.4300000002,"ADDRESS":"民生路二段３８９號二十二樓之３","OBJECTID":535226},"geometry":{"x":166862.96000000089,"y":2544211.4300000016}},{"attributes":{"ID":535254,"DIS_CODE":0,"TOWNNAME":"中西區","LI":"安海里","LIN":"19鄰","STREET":"民生路","SECT":"二段","MAREA":" ","LANE":" ","ALLEY":" ","HOUSE_NO":"３８９號二十三樓之１","E_COORD97":166864.26999999999,"N_COORD97":2544218.8599999999,"ADDRESS":"民生路二段３８９號二十三樓之１","OBJECTID":535227},"geometry":{"x":166864.26999999955,"y":2544218.8600000013}},{"attributes":{"ID":535255,"DIS_CODE":0,"TOWNNAME":"中西區","LI":"安海里","LIN":"19鄰","STREET":"民生路","SECT":"二段","MAREA":" ","LANE":" ","ALLEY":" ","HOUSE_NO":"３８９號二十三樓之３","E_COORD97":166862.95999999999,"N_COORD97":2544211.4300000002,"ADDRESS":"民生路二段３８９號二十三樓之３","OBJECTID":535228},"geometry":{"x":166862.96000000089,"y":2544211.4300000016}},{"attributes":{"ID":535256,"DIS_CODE":0,"TOWNNAME":"中西區","LI":"安海里","LIN":"19鄰","STREET":"民生路","SECT":"二段","MAREA":" ","LANE":" ","ALLEY":" ","HOUSE_NO":"３８９號二十樓之１","E_COORD97":166864.26999999999,"N_COORD97":2544218.8599999999,"ADDRESS":"民生路二段３８９號二十樓之１","OBJECTID":535229},"geometry":{"x":166864.26999999955,"y":2544218.8600000013}},{"attributes":{"ID":535257,"DIS_CODE":0,"TOWNNAME":"中西區","LI":"安海里","LIN":"19鄰","STREET":"民生路","SECT":"二段","MAREA":" ","LANE":" ","ALLEY":" ","HOUSE_NO":"３８９號二十樓之２","E_COORD97":166854.64999999999,"N_COORD97":2544220.1699999999,"ADDRESS":"民生路二段３８９號二十樓之２","OBJECTID":535230},"geometry":{"x":166854.65000000037,"y":2544220.1700000018}},{"attributes":{"ID":535258,"DIS_CODE":0,"TOWNNAME":"中西區","LI":"安海里","LIN":"19鄰","STREET":"民生路","SECT":"二段","MAREA":" ","LANE":" ","ALLEY":" ","HOUSE_NO":"３８９號二十樓之３","E_COORD97":166862.95999999999,"N_COORD97":2544211.4300000002,"ADDRESS":"民生路二段３８９號二十樓之３","OBJECTID":535231},"geometry":{"x":166862.96000000089,"y":2544211.4300000016}},{"attributes":{"ID":535259,"DIS_CODE":0,"TOWNNAME":"中西區","LI":"安海里","LIN":"19鄰","STREET":"民生路","SECT":"二段","MAREA":" ","LANE":" ","ALLEY":" ","HOUSE_NO":"３８９號二十樓之５","E_COORD97":166854.20999999999,"N_COORD97":2544212.2999999998,"ADDRESS":"民生路二段３８９號二十樓之５","OBJECTID":535232},"geometry":{"x":166854.21000000089,"y":2544212.3000000007}},{"attributes":{"ID":535260,"DIS_CODE":0,"TOWNNAME":"中西區","LI":"安海里","LIN":"19鄰","STREET":"民生路","SECT":"二段","MAREA":" ","LANE":" ","ALLEY":" ","HOUSE_NO":"３８９號八樓之１","E_COORD97":166864.26999999999,"N_COORD97":2544218.8599999999,"ADDRESS":"民生路二段３８９號八樓之１","OBJECTID":535233},"geometry":{"x":166864.26999999955,"y":2544218.8600000013}},{"attributes":{"ID":535261,"DIS_CODE":0,"TOWNNAME":"中西區","LI":"安海里","LIN":"19鄰","STREET":"民生路","SECT":"二段","MAREA":" ","LANE":" ","ALLEY":" ","HOUSE_NO":"３８９號八樓之２","E_COORD97":166854.64999999999,"N_COORD97":2544220.1699999999,"ADDRESS":"民生路二段３８９號八樓之２","OBJECTID":535234},"geometry":{"x":166854.65000000037,"y":2544220.1700000018}},{"attributes":{"ID":535262,"DIS_CODE":0,"TOWNNAME":"中西區","LI":"安海里","LIN":"19鄰","STREET":"民生路","SECT":"二段","MAREA":" ","LANE":" ","ALLEY":" ","HOUSE_NO":"３８９號八樓之３","E_COORD97":166862.95999999999,"N_COORD97":2544211.4300000002,"ADDRESS":"民生路二段３８９號八樓之３","OBJECTID":535235},"geometry":{"x":166862.96000000089,"y":2544211.4300000016}},{"attributes":{"ID":535263,"DIS_CODE":0,"TOWNNAME":"中西區","LI":"安海里","LIN":"19鄰","STREET":"民生路","SECT":"二段","MAREA":" ","LANE":" ","ALLEY":" ","HOUSE_NO":"３８９號八樓之５","E_COORD97":166854.20999999999,"N_COORD97":2544212.2999999998,"ADDRESS":"民生路二段３８９號八樓之５","OBJECTID":535236},"geometry":{"x":166854.21000000089,"y":2544212.3000000007}},{"attributes":{"ID":535264,"DIS_CODE":0,"TOWNNAME":"中西區","LI":"安海里","LIN":"19鄰","STREET":"民生路","SECT":"二段","MAREA":" ","LANE":" ","ALLEY":" ","HOUSE_NO":"３８９號十一樓之１","E_COORD97":166864.26999999999,"N_COORD97":2544218.8599999999,"ADDRESS":"民生路二段３８９號十一樓之１","OBJECTID":535237},"geometry":{"x":166864.26999999955,"y":2544218.8600000013}},{"attributes":{"ID":535265,"DIS_CODE":0,"TOWNNAME":"中西區","LI":"安海里","LIN":"19鄰","STREET":"民生路","SECT":"二段","MAREA":" ","LANE":" ","ALLEY":" ","HOUSE_NO":"３８９號十一樓之２","E_COORD97":166854.64999999999,"N_COORD97":2544220.1699999999,"ADDRESS":"民生路二段３８９號十一樓之２","OBJECTID":535238},"geometry":{"x":166854.65000000037,"y":2544220.1700000018}},{"attributes":{"ID":535266,"DIS_CODE":0,"TOWNNAME":"中西區","LI":"安海里","LIN":"19鄰","STREET":"民生路","SECT":"二段","MAREA":" ","LANE":" ","ALLEY":" ","HOUSE_NO":"３８９號十一樓之３","E_COORD97":166862.95999999999,"N_COORD97":2544211.4300000002,"ADDRESS":"民生路二段３８９號十一樓之３","OBJECTID":535239},"geometry":{"x":166862.96000000089,"y":2544211.4300000016}},{"attributes":{"ID":535267,"DIS_CODE":0,"TOWNNAME":"中西區","LI":"安海里","LIN":"19鄰","STREET":"民生路","SECT":"二段","MAREA":" ","LANE":" ","ALLEY":" ","HOUSE_NO":"３８９號十一樓之５","E_COORD97":166854.20999999999,"N_COORD97":2544212.2999999998,"ADDRESS":"民生路二段３８９號十一樓之５","OBJECTID":535240},"geometry":{"x":166854.21000000089,"y":2544212.3000000007}},{"attributes":{"ID":535268,"DIS_CODE":0,"TOWNNAME":"中西區","LI":"安海里","LIN":"19鄰","STREET":"民生路","SECT":"二段","MAREA":" ","LANE":" ","ALLEY":" ","HOUSE_NO":"３８９號十七樓之１","E_COORD97":166864.26999999999,"N_COORD97":2544218.8599999999,"ADDRESS":"民生路二段３８９號十七樓之１","OBJECTID":535241},"geometry":{"x":166864.26999999955,"y":2544218.8600000013}},{"attributes":{"ID":535269,"DIS_CODE":0,"TOWNNAME":"中西區","LI":"安海里","LIN":"19鄰","STREET":"民生路","SECT":"二段","MAREA":" ","LANE":" ","ALLEY":" ","HOUSE_NO":"３８９號十七樓之２","E_COORD97":166854.64999999999,"N_COORD97":2544220.1699999999,"ADDRESS":"民生路二段３８９號十七樓之２","OBJECTID":535242},"geometry":{"x":166854.65000000037,"y":2544220.1700000018}},{"attributes":{"ID":535270,"DIS_CODE":0,"TOWNNAME":"中西區","LI":"安海里","LIN":"19鄰","STREET":"民生路","SECT":"二段","MAREA":" ","LANE":" ","ALLEY":" ","HOUSE_NO":"３８９號十七樓之３","E_COORD97":166862.95999999999,"N_COORD97":2544211.4300000002,"ADDRESS":"民生路二段３８９號十七樓之３","OBJECTID":535243},"geometry":{"x":166862.96000000089,"y":2544211.4300000016}},{"attributes":{"ID":535271,"DIS_CODE":0,"TOWNNAME":"中西區","LI":"安海里","LIN":"19鄰","STREET":"民生路","SECT":"二段","MAREA":" ","LANE":" ","ALLEY":" ","HOUSE_NO":"３８９號十七樓之５","E_COORD97":166854.20999999999,"N_COORD97":2544212.2999999998,"ADDRESS":"民生路二段３８９號十七樓之５","OBJECTID":535244},"geometry":{"x":166854.21000000089,"y":2544212.3000000007}},{"attributes":{"ID":535272,"DIS_CODE":0,"TOWNNAME":"中西區","LI":"安海里","LIN":"19鄰","STREET":"民生路","SECT":"二段","MAREA":" ","LANE":" ","ALLEY":" ","HOUSE_NO":"３８９號十九樓之１","E_COORD97":166864.26999999999,"N_COORD97":2544218.8599999999,"ADDRESS":"民生路二段３８９號十九樓之１","OBJECTID":535245},"geometry":{"x":166864.26999999955,"y":2544218.8600000013}},{"attributes":{"ID":535273,"DIS_CODE":0,"TOWNNAME":"中西區","LI":"安海里","LIN":"19鄰","STREET":"民生路","SECT":"二段","MAREA":" ","LANE":" ","ALLEY":" ","HOUSE_NO":"３８９號十九樓之２","E_COORD97":166854.64999999999,"N_COORD97":2544220.1699999999,"ADDRESS":"民生路二段３８９號十九樓之２","OBJECTID":535246},"geometry":{"x":166854.65000000037,"y":2544220.1700000018}},{"attributes":{"ID":535274,"DIS_CODE":0,"TOWNNAME":"中西區","LI":"安海里","LIN":"19鄰","STREET":"民生路","SECT":"二段","MAREA":" ","LANE":" ","ALLEY":" ","HOUSE_NO":"３８９號十九樓之３","E_COORD97":166862.95999999999,"N_COORD97":2544211.4300000002,"ADDRESS":"民生路二段３８９號十九樓之３","OBJECTID":535247},"geometry":{"x":166862.96000000089,"y":2544211.4300000016}},{"attributes":{"ID":535275,"DIS_CODE":0,"TOWNNAME":"中西區","LI":"安海里","LIN":"19鄰","STREET":"民生路","SECT":"二段","MAREA":" ","LANE":" ","ALLEY":" ","HOUSE_NO":"３８９號十九樓之５","E_COORD97":166854.20999999999,"N_COORD97":2544212.2999999998,"ADDRESS":"民生路二段３８９號十九樓之５","OBJECTID":535248},"geometry":{"x":166854.21000000089,"y":2544212.3000000007}},{"attributes":{"ID":535276,"DIS_CODE":0,"TOWNNAME":"中西區","LI":"安海里","LIN":"19鄰","STREET":"民生路","SECT":"二段","MAREA":" ","LANE":" ","ALLEY":" ","HOUSE_NO":"３８９號十二樓之１","E_COORD97":166864.26999999999,"N_COORD97":2544218.8599999999,"ADDRESS":"民生路二段３８９號十二樓之１","OBJECTID":535249},"geometry":{"x":166864.26999999955,"y":2544218.8600000013}},{"attributes":{"ID":535277,"DIS_CODE":0,"TOWNNAME":"中西區","LI":"安海里","LIN":"19鄰","STREET":"民生路","SECT":"二段","MAREA":" ","LANE":" ","ALLEY":" ","HOUSE_NO":"３８９號十二樓之２","E_COORD97":166854.64999999999,"N_COORD97":2544220.1699999999,"ADDRESS":"民生路二段３８９號十二樓之２","OBJECTID":535250},"geometry":{"x":166854.65000000037,"y":2544220.1700000018}},{"attributes":{"ID":535278,"DIS_CODE":0,"TOWNNAME":"中西區","LI":"大涼里","LIN":"19鄰","STREET":"府前一街","SECT":" ","MAREA":" ","LANE":" ","ALLEY":" ","HOUSE_NO":"１６３號四樓","E_COORD97":166646.70999999999,"N_COORD97":2544131.6200000001,"ADDRESS":"府前一街１６３號四樓","OBJECTID":535251},"geometry":{"x":166646.70999999996,"y":2544131.620000001}},{"attributes":{"ID":535279,"DIS_CODE":0,"TOWNNAME":"中西區","LI":"安海里","LIN":"19鄰","STREET":"民生路","SECT":"二段","MAREA":" ","LANE":" ","ALLEY":" ","HOUSE_NO":"３８９號十二樓之３","E_COORD97":166862.95999999999,"N_COORD97":2544211.4300000002,"ADDRESS":"民生路二段３８９號十二樓之３","OBJECTID":535252},"geometry":{"x":166862.96000000089,"y":2544211.4300000016}},{"attributes":{"ID":535280,"DIS_CODE":0,"TOWNNAME":"中西區","LI":"安海里","LIN":"19鄰","STREET":"民生路","SECT":"二段","MAREA":" ","LANE":" ","ALLEY":" ","HOUSE_NO":"３８９號十二樓之５","E_COORD97":166854.20999999999,"N_COORD97":2544212.2999999998,"ADDRESS":"民生路二段３８９號十二樓之５","OBJECTID":535253},"geometry":{"x":166854.21000000089,"y":2544212.3000000007}},{"attributes":{"ID":535281,"DIS_CODE":0,"TOWNNAME":"中西區","LI":"安海里","LIN":"19鄰","STREET":"民生路","SECT":"二段","MAREA":" ","LANE":" ","ALLEY":" ","HOUSE_NO":"３８９號十八樓之１","E_COORD97":166864.26999999999,"N_COORD97":2544218.8599999999,"ADDRESS":"民生路二段３８９號十八樓之１","OBJECTID":535254},"geometry":{"x":166864.26999999955,"y":2544218.8600000013}},{"attributes":{"ID":535282,"DIS_CODE":0,"TOWNNAME":"中西區","LI":"安海里","LIN":"19鄰","STREET":"民生路","SECT":"二段","MAREA":" ","LANE":" ","ALLEY":" ","HOUSE_NO":"３８９號十八樓之３","E_COORD97":166862.95999999999,"N_COORD97":2544211.4300000002,"ADDRESS":"民生路二段３８９號十八樓之３","OBJECTID":535255},"geometry":{"x":166862.96000000089,"y":2544211.4300000016}},{"attributes":{"ID":535283,"DIS_CODE":0,"TOWNNAME":"中西區","LI":"安海里","LIN":"19鄰","STREET":"民生路","SECT":"二段","MAREA":" ","LANE":" ","ALLEY":" ","HOUSE_NO":"３８９號十八樓之５","E_COORD97":166854.20999999999,"N_COORD97":2544212.2999999998,"ADDRESS":"民生路二段３８９號十八樓之５","OBJECTID":535256},"geometry":{"x":166854.21000000089,"y":2544212.3000000007}},{"attributes":{"ID":535284,"DIS_CODE":0,"TOWNNAME":"中西區","LI":"安海里","LIN":"19鄰","STREET":"民生路","SECT":"二段","MAREA":" ","LANE":" ","ALLEY":" ","HOUSE_NO":"３８９號十三樓之１","E_COORD97":166864.26999999999,"N_COORD97":2544218.8599999999,"ADDRESS":"民生路二段３８９號十三樓之１","OBJECTID":535257},"geometry":{"x":166864.26999999955,"y":2544218.8600000013}},{"attributes":{"ID":535285,"DIS_CODE":0,"TOWNNAME":"中西區","LI":"安海里","LIN":"19鄰","STREET":"民生路","SECT":"二段","MAREA":" ","LANE":" ","ALLEY":" ","HOUSE_NO":"３８９號十三樓之２","E_COORD97":166854.64999999999,"N_COORD97":2544220.1699999999,"ADDRESS":"民生路二段３８９號十三樓之２","OBJECTID":535258},"geometry":{"x":166854.65000000037,"y":2544220.1700000018}},{"attributes":{"ID":535286,"DIS_CODE":0,"TOWNNAME":"中西區","LI":"安海里","LIN":"19鄰","STREET":"民生路","SECT":"二段","MAREA":" ","LANE":" ","ALLEY":" ","HOUSE_NO":"３８９號十三樓之３","E_COORD97":166862.95999999999,"N_COORD97":2544211.4300000002,"ADDRESS":"民生路二段３８９號十三樓之３","OBJECTID":535259},"geometry":{"x":166862.96000000089,"y":2544211.4300000016}},{"attributes":{"ID":535287,"DIS_CODE":0,"TOWNNAME":"中西區","LI":"安海里","LIN":"19鄰","STREET":"民生路","SECT":"二段","MAREA":" ","LANE":" ","ALLEY":" ","HOUSE_NO":"３８９號十三樓之５","E_COORD97":166854.20999999999,"N_COORD97":2544212.2999999998,"ADDRESS":"民生路二段３８９號十三樓之５","OBJECTID":535260},"geometry":{"x":166854.21000000089,"y":2544212.3000000007}},{"attributes":{"ID":535288,"DIS_CODE":0,"TOWNNAME":"中西區","LI":"安海里","LIN":"19鄰","STREET":"民生路","SECT":"二段","MAREA":" ","LANE":" ","ALLEY":" ","HOUSE_NO":"３８９號十五樓之１","E_COORD97":166864.26999999999,"N_COORD97":2544218.8599999999,"ADDRESS":"民生路二段３８９號十五樓之１","OBJECTID":535261},"geometry":{"x":166864.26999999955,"y":2544218.8600000013}},{"attributes":{"ID":535289,"DIS_CODE":0,"TOWNNAME":"中西區","LI":"安海里","LIN":"19鄰","STREET":"民生路","SECT":"二段","MAREA":" ","LANE":" ","ALLEY":" ","HOUSE_NO":"３８９號十五樓之２","E_COORD97":166854.64999999999,"N_COORD97":2544220.1699999999,"ADDRESS":"民生路二段３８９號十五樓之２","OBJECTID":535262},"geometry":{"x":166854.65000000037,"y":2544220.1700000018}},{"attributes":{"ID":535290,"DIS_CODE":0,"TOWNNAME":"中西區","LI":"安海里","LIN":"19鄰","STREET":"民生路","SECT":"二段","MAREA":" ","LANE":" ","ALLEY":" ","HOUSE_NO":"３８９號十五樓之３","E_COORD97":166862.95999999999,"N_COORD97":2544211.4300000002,"ADDRESS":"民生路二段３８９號十五樓之３","OBJECTID":535263},"geometry":{"x":166862.96000000089,"y":2544211.4300000016}},{"attributes":{"ID":535291,"DIS_CODE":0,"TOWNNAME":"中西區","LI":"安海里","LIN":"19鄰","STREET":"民生路","SECT":"二段","MAREA":" ","LANE":" ","ALLEY":" ","HOUSE_NO":"３８９號十六樓之５","E_COORD97":166854.20999999999,"N_COORD97":2544212.2999999998,"ADDRESS":"民生路二段３８９號十六樓之５","OBJECTID":535264},"geometry":{"x":166854.21000000089,"y":2544212.3000000007}},{"attributes":{"ID":535292,"DIS_CODE":0,"TOWNNAME":"中西區","LI":"安海里","LIN":"19鄰","STREET":"民生路","SECT":"二段","MAREA":" ","LANE":" ","ALLEY":" ","HOUSE_NO":"３８９號十四樓之１","E_COORD97":166864.26999999999,"N_COORD97":2544218.8599999999,"ADDRESS":"民生路二段３８９號十四樓之１","OBJECTID":535265},"geometry":{"x":166864.26999999955,"y":2544218.8600000013}},{"attributes":{"ID":535293,"DIS_CODE":0,"TOWNNAME":"中西區","LI":"安海里","LIN":"19鄰","STREET":"民生路","SECT":"二段","MAREA":" ","LANE":" ","ALLEY":" ","HOUSE_NO":"３８９號十四樓之２","E_COORD97":166854.64999999999,"N_COORD97":2544220.1699999999,"ADDRESS":"民生路二段３８９號十四樓之２","OBJECTID":535266},"geometry":{"x":166854.65000000037,"y":2544220.1700000018}},{"attributes":{"ID":535294,"DIS_CODE":0,"TOWNNAME":"中西區","LI":"安海里","LIN":"19鄰","STREET":"民生路","SECT":"二段","MAREA":" ","LANE":" ","ALLEY":" ","HOUSE_NO":"３８９號十四樓之３","E_COORD97":166862.95999999999,"N_COORD97":2544211.4300000002,"ADDRESS":"民生路二段３８９號十四樓之３","OBJECTID":535267},"geometry":{"x":166862.96000000089,"y":2544211.4300000016}},{"attributes":{"ID":535295,"DIS_CODE":0,"TOWNNAME":"中西區","LI":"安海里","LIN":"19鄰","STREET":"民生路","SECT":"二段","MAREA":" ","LANE":" ","ALLEY":" ","HOUSE_NO":"３８９號十四樓之５","E_COORD97":166854.20999999999,"N_COORD97":2544212.2999999998,"ADDRESS":"民生路二段３８９號十四樓之５","OBJECTID":535268},"geometry":{"x":166854.21000000089,"y":2544212.3000000007}},{"attributes":{"ID":535296,"DIS_CODE":0,"TOWNNAME":"中西區","LI":"安海里","LIN":"19鄰","STREET":"民生路","SECT":"二段","MAREA":" ","LANE":" ","ALLEY":" ","HOUSE_NO":"３８９號十樓之１","E_COORD97":166864.26999999999,"N_COORD97":2544218.8599999999,"ADDRESS":"民生路二段３８９號十樓之１","OBJECTID":535269},"geometry":{"x":166864.26999999955,"y":2544218.8600000013}},{"attributes":{"ID":535297,"DIS_CODE":0,"TOWNNAME":"中西區","LI":"安海里","LIN":"19鄰","STREET":"民生路","SECT":"二段","MAREA":" ","LANE":" ","ALLEY":" ","HOUSE_NO":"３８９號十樓之２","E_COORD97":166854.64999999999,"N_COORD97":2544220.1699999999,"ADDRESS":"民生路二段３８９號十樓之２","OBJECTID":535270},"geometry":{"x":166854.65000000037,"y":2544220.1700000018}},{"attributes":{"ID":535298,"DIS_CODE":0,"TOWNNAME":"中西區","LI":"安海里","LIN":"19鄰","STREET":"民生路","SECT":"二段","MAREA":" ","LANE":" ","ALLEY":" ","HOUSE_NO":"３８９號十樓之３","E_COORD97":166862.95999999999,"N_COORD97":2544211.4300000002,"ADDRESS":"民生路二段３８９號十樓之３","OBJECTID":535271},"geometry":{"x":166862.96000000089,"y":2544211.4300000016}},{"attributes":{"ID":535299,"DIS_CODE":0,"TOWNNAME":"中西區","LI":"安海里","LIN":"19鄰","STREET":"民生路","SECT":"二段","MAREA":" ","LANE":" ","ALLEY":" ","HOUSE_NO":"３８９號十樓之５","E_COORD97":166854.20999999999,"N_COORD97":2544212.2999999998,"ADDRESS":"民生路二段３８９號十樓之５","OBJECTID":535272},"geometry":{"x":166854.21000000089,"y":2544212.3000000007}},{"attributes":{"ID":535300,"DIS_CODE":0,"TOWNNAME":"中西區","LI":"安海里","LIN":"19鄰","STREET":"民生路","SECT":"二段","MAREA":" ","LANE":" ","ALLEY":" ","HOUSE_NO":"３８９號三樓之１","E_COORD97":166864.26999999999,"N_COORD97":2544218.8599999999,"ADDRESS":"民生路二段３８９號三樓之１","OBJECTID":535273},"geometry":{"x":166864.26999999955,"y":2544218.8600000013}},{"attributes":{"ID":535301,"DIS_CODE":0,"TOWNNAME":"中西區","LI":"安海里","LIN":"19鄰","STREET":"民生路","SECT":"二段","MAREA":" ","LANE":" ","ALLEY":" ","HOUSE_NO":"３８９號三樓之２","E_COORD97":166854.64999999999,"N_COORD97":2544220.1699999999,"ADDRESS":"民生路二段３８９號三樓之２","OBJECTID":535274},"geometry":{"x":166854.65000000037,"y":2544220.1700000018}},{"attributes":{"ID":535302,"DIS_CODE":0,"TOWNNAME":"中西區","LI":"安海里","LIN":"19鄰","STREET":"民生路","SECT":"二段","MAREA":" ","LANE":" ","ALLEY":" ","HOUSE_NO":"３８９號三樓之３","E_COORD97":166862.95999999999,"N_COORD97":2544211.4300000002,"ADDRESS":"民生路二段３８９號三樓之３","OBJECTID":535275},"geometry":{"x":166862.96000000089,"y":2544211.4300000016}},{"attributes":{"ID":535303,"DIS_CODE":0,"TOWNNAME":"中西區","LI":"安海里","LIN":"19鄰","STREET":"民生路","SECT":"二段","MAREA":" ","LANE":" ","ALLEY":" ","HOUSE_NO":"３８９號三樓之５","E_COORD97":166854.20999999999,"N_COORD97":2544212.2999999998,"ADDRESS":"民生路二段３８９號三樓之５","OBJECTID":535276},"geometry":{"x":166854.21000000089,"y":2544212.3000000007}},{"attributes":{"ID":535304,"DIS_CODE":0,"TOWNNAME":"中西區","LI":"安海里","LIN":"19鄰","STREET":"民生路","SECT":"二段","MAREA":" ","LANE":" ","ALLEY":" ","HOUSE_NO":"３８９號五樓之１","E_COORD97":166864.26999999999,"N_COORD97":2544218.8599999999,"ADDRESS":"民生路二段３８９號五樓之１","OBJECTID":535277},"geometry":{"x":166864.26999999955,"y":2544218.8600000013}},{"attributes":{"ID":535305,"DIS_CODE":0,"TOWNNAME":"中西區","LI":"安海里","LIN":"19鄰","STREET":"民生路","SECT":"二段","MAREA":" ","LANE":" ","ALLEY":" ","HOUSE_NO":"３８９號五樓之２","E_COORD97":166854.64999999999,"N_COORD97":2544220.1699999999,"ADDRESS":"民生路二段３８９號五樓之２","OBJECTID":535278},"geometry":{"x":166854.65000000037,"y":2544220.1700000018}},{"attributes":{"ID":535306,"DIS_CODE":0,"TOWNNAME":"中西區","LI":"安海里","LIN":"19鄰","STREET":"民生路","SECT":"二段","MAREA":" ","LANE":" ","ALLEY":" ","HOUSE_NO":"３８９號五樓之３","E_COORD97":166862.95999999999,"N_COORD97":2544211.4300000002,"ADDRESS":"民生路二段３８９號五樓之３","OBJECTID":535279},"geometry":{"x":166862.96000000089,"y":2544211.4300000016}},{"attributes":{"ID":535307,"DIS_CODE":0,"TOWNNAME":"中西區","LI":"安海里","LIN":"19鄰","STREET":"民生路","SECT":"二段","MAREA":" ","LANE":" ","ALLEY":" ","HOUSE_NO":"３８９號五樓之５","E_COORD97":166854.20999999999,"N_COORD97":2544212.2999999998,"ADDRESS":"民生路二段３８９號五樓之５","OBJECTID":535280},"geometry":{"x":166854.21000000089,"y":2544212.3000000007}},{"attributes":{"ID":535308,"DIS_CODE":0,"TOWNNAME":"中西區","LI":"安海里","LIN":"19鄰","STREET":"民生路","SECT":"二段","MAREA":" ","LANE":" ","ALLEY":" ","HOUSE_NO":"３８９號六樓之１","E_COORD97":166864.26999999999,"N_COORD97":2544218.8599999999,"ADDRESS":"民生路二段３８９號六樓之１","OBJECTID":535281},"geometry":{"x":166864.26999999955,"y":2544218.8600000013}},{"attributes":{"ID":535309,"DIS_CODE":0,"TOWNNAME":"中西區","LI":"安海里","LIN":"19鄰","STREET":"民生路","SECT":"二段","MAREA":" ","LANE":" ","ALLEY":" ","HOUSE_NO":"３８９號六樓之２","E_COORD97":166854.64999999999,"N_COORD97":2544220.1699999999,"ADDRESS":"民生路二段３８９號六樓之２","OBJECTID":535282},"geometry":{"x":166854.65000000037,"y":2544220.1700000018}},{"attributes":{"ID":535310,"DIS_CODE":0,"TOWNNAME":"中西區","LI":"安海里","LIN":"19鄰","STREET":"民生路","SECT":"二段","MAREA":" ","LANE":" ","ALLEY":" ","HOUSE_NO":"３８９號六樓之３","E_COORD97":166862.95999999999,"N_COORD97":2544211.4300000002,"ADDRESS":"民生路二段３８９號六樓之３","OBJECTID":535283},"geometry":{"x":166862.96000000089,"y":2544211.4300000016}},{"attributes":{"ID":535311,"DIS_CODE":0,"TOWNNAME":"下營區","LI":"後街里","LIN":"19鄰","STREET":"水池街","SECT":" ","MAREA":" ","LANE":" ","ALLEY":" ","HOUSE_NO":"１９０號","E_COORD97":174468.60000000001,"N_COORD97":2571198.8500000001,"ADDRESS":"水池街１９０號","OBJECTID":535284},"geometry":{"x":174468.59999999963,"y":2571198.8500000034}},{"attributes":{"ID":535312,"DIS_CODE":0,"TOWNNAME":"中西區","LI":"安海里","LIN":"19鄰","STREET":"民生路","SECT":"二段","MAREA":" ","LANE":" ","ALLEY":" ","HOUSE_NO":"３８９號六樓之５","E_COORD97":166854.20999999999,"N_COORD97":2544212.2999999998,"ADDRESS":"民生路二段３８９號六樓之５","OBJECTID":535285},"geometry":{"x":166854.21000000089,"y":2544212.3000000007}},{"attributes":{"ID":535313,"DIS_CODE":0,"TOWNNAME":"中西區","LI":"安海里","LIN":"19鄰","STREET":"民生路","SECT":"二段","MAREA":" ","LANE":" ","ALLEY":" ","HOUSE_NO":"３８９號四樓之１","E_COORD97":166864.26999999999,"N_COORD97":2544218.8599999999,"ADDRESS":"民生路二段３８９號四樓之１","OBJECTID":535286},"geometry":{"x":166864.26999999955,"y":2544218.8600000013}},{"attributes":{"ID":535314,"DIS_CODE":0,"TOWNNAME":"中西區","LI":"安海里","LIN":"19鄰","STREET":"民生路","SECT":"二段","MAREA":" ","LANE":" ","ALLEY":" ","HOUSE_NO":"３８９號四樓之２","E_COORD97":166854.64999999999,"N_COORD97":2544220.1699999999,"ADDRESS":"民生路二段３８９號四樓之２","OBJECTID":535287},"geometry":{"x":166854.65000000037,"y":2544220.1700000018}},{"attributes":{"ID":535315,"DIS_CODE":0,"TOWNNAME":"中西區","LI":"安海里","LIN":"19鄰","STREET":"民生路","SECT":"二段","MAREA":" ","LANE":" ","ALLEY":" ","HOUSE_NO":"３８９號四樓之３","E_COORD97":166862.95999999999,"N_COORD97":2544211.4300000002,"ADDRESS":"民生路二段３８９號四樓之３","OBJECTID":535288},"geometry":{"x":166862.96000000089,"y":2544211.4300000016}},{"attributes":{"ID":535316,"DIS_CODE":0,"TOWNNAME":"中西區","LI":"安海里","LIN":"19鄰","STREET":"民生路","SECT":"二段","MAREA":" ","LANE":" ","ALLEY":" ","HOUSE_NO":"３８９號四樓之５","E_COORD97":166854.20999999999,"N_COORD97":2544212.2999999998,"ADDRESS":"民生路二段３８９號四樓之５","OBJECTID":535289},"geometry":{"x":166854.21000000089,"y":2544212.3000000007}},{"attributes":{"ID":535317,"DIS_CODE":0,"TOWNNAME":"中西區","LI":"大涼里","LIN":"19鄰","STREET":"中華西路","SECT":"二段","MAREA":" ","LANE":" ","ALLEY":" ","HOUSE_NO":"２５０號二樓","E_COORD97":166621.56,"N_COORD97":2544156.2799999998,"ADDRESS":"中華西路二段２５０號二樓","OBJECTID":535290},"geometry":{"x":166621.55999999959,"y":2544156.2799999993}},{"attributes":{"ID":535318,"DIS_CODE":0,"TOWNNAME":"中西區","LI":"大涼里","LIN":"19鄰","STREET":"中華西路","SECT":"二段","MAREA":" ","LANE":" ","ALLEY":" ","HOUSE_NO":"２５０號三樓之１","E_COORD97":166621.56,"N_COORD97":2544156.2799999998,"ADDRESS":"中華西路二段２５０號三樓之１","OBJECTID":535291},"geometry":{"x":166621.55999999959,"y":2544156.2799999993}},{"attributes":{"ID":535319,"DIS_CODE":0,"TOWNNAME":"中西區","LI":"大涼里","LIN":"19鄰","STREET":"中華西路","SECT":"二段","MAREA":" ","LANE":" ","ALLEY":" ","HOUSE_NO":"２５０號三樓之２","E_COORD97":166621.56,"N_COORD97":2544156.2799999998,"ADDRESS":"中華西路二段２５０號三樓之２","OBJECTID":535292},"geometry":{"x":166621.55999999959,"y":2544156.2799999993}},{"attributes":{"ID":535320,"DIS_CODE":0,"TOWNNAME":"中西區","LI":"大涼里","LIN":"19鄰","STREET":"中華西路","SECT":"二段","MAREA":" ","LANE":" ","ALLEY":" ","HOUSE_NO":"２５０號三樓之３","E_COORD97":166621.56,"N_COORD97":2544156.2799999998,"ADDRESS":"中華西路二段２５０號三樓之３","OBJECTID":535293},"geometry":{"x":166621.55999999959,"y":2544156.2799999993}},{"attributes":{"ID":535321,"DIS_CODE":0,"TOWNNAME":"中西區","LI":"大涼里","LIN":"19鄰","STREET":"中華西路","SECT":"二段","MAREA":" ","LANE":" ","ALLEY":" ","HOUSE_NO":"２５０號三樓之４","E_COORD97":166621.56,"N_COORD97":2544156.2799999998,"ADDRESS":"中華西路二段２５０號三樓之４","OBJECTID":535294},"geometry":{"x":166621.55999999959,"y":2544156.2799999993}},{"attributes":{"ID":535322,"DIS_CODE":0,"TOWNNAME":"中西區","LI":"大涼里","LIN":"19鄰","STREET":"中華西路","SECT":"二段","MAREA":" ","LANE":" ","ALLEY":" ","HOUSE_NO":"２５０號五樓之１","E_COORD97":166621.56,"N_COORD97":2544156.2799999998,"ADDRESS":"中華西路二段２５０號五樓之１","OBJECTID":535295},"geometry":{"x":166621.55999999959,"y":2544156.2799999993}},{"attributes":{"ID":535323,"DIS_CODE":0,"TOWNNAME":"中西區","LI":"大涼里","LIN":"19鄰","STREET":"中華西路","SECT":"二段","MAREA":" ","LANE":" ","ALLEY":" ","HOUSE_NO":"２５０號五樓之２","E_COORD97":166621.56,"N_COORD97":2544156.2799999998,"ADDRESS":"中華西路二段２５０號五樓之２","OBJECTID":535296},"geometry":{"x":166621.55999999959,"y":2544156.2799999993}},{"attributes":{"ID":535324,"DIS_CODE":0,"TOWNNAME":"中西區","LI":"大涼里","LIN":"19鄰","STREET":"中華西路","SECT":"二段","MAREA":" ","LANE":" ","ALLEY":" ","HOUSE_NO":"２５０號五樓之３","E_COORD97":166621.56,"N_COORD97":2544156.2799999998,"ADDRESS":"中華西路二段２５０號五樓之３","OBJECTID":535297},"geometry":{"x":166621.55999999959,"y":2544156.2799999993}},{"attributes":{"ID":535325,"DIS_CODE":0,"TOWNNAME":"中西區","LI":"大涼里","LIN":"19鄰","STREET":"中華西路","SECT":"二段","MAREA":" ","LANE":" ","ALLEY":" ","HOUSE_NO":"２５０號五樓之４","E_COORD97":166621.56,"N_COORD97":2544156.2799999998,"ADDRESS":"中華西路二段２５０號五樓之４","OBJECTID":535298},"geometry":{"x":166621.55999999959,"y":2544156.2799999993}},{"attributes":{"ID":535326,"DIS_CODE":0,"TOWNNAME":"中西區","LI":"大涼里","LIN":"19鄰","STREET":"中華西路","SECT":"二段","MAREA":" ","LANE":" ","ALLEY":" ","HOUSE_NO":"２５０號六樓之１","E_COORD97":166621.56,"N_COORD97":2544156.2799999998,"ADDRESS":"中華西路二段２５０號六樓之１","OBJECTID":535299},"geometry":{"x":166621.55999999959,"y":2544156.2799999993}},{"attributes":{"ID":535327,"DIS_CODE":0,"TOWNNAME":"新營區","LI":"民權里","LIN":"19鄰","STREET":"仁愛街","SECT":" ","MAREA":" ","LANE":" ","ALLEY":" ","HOUSE_NO":"７號","E_COORD97":179818.72,"N_COORD97":2578167.1299999999,"ADDRESS":"仁愛街７號","OBJECTID":535300},"geometry":{"x":179818.72000000067,"y":2578167.1300000008}},{"attributes":{"ID":535328,"DIS_CODE":0,"TOWNNAME":"中西區","LI":"大涼里","LIN":"19鄰","STREET":"中華西路","SECT":"二段","MAREA":" ","LANE":" ","ALLEY":" ","HOUSE_NO":"２５０號六樓之２","E_COORD97":166621.56,"N_COORD97":2544156.2799999998,"ADDRESS":"中華西路二段２５０號六樓之２","OBJECTID":535301},"geometry":{"x":166621.55999999959,"y":2544156.2799999993}},{"attributes":{"ID":535329,"DIS_CODE":0,"TOWNNAME":"中西區","LI":"大涼里","LIN":"19鄰","STREET":"中華西路","SECT":"二段","MAREA":" ","LANE":" ","ALLEY":" ","HOUSE_NO":"２５０號六樓之３","E_COORD97":166621.56,"N_COORD97":2544156.2799999998,"ADDRESS":"中華西路二段２５０號六樓之３","OBJECTID":535302},"geometry":{"x":166621.55999999959,"y":2544156.2799999993}},{"attributes":{"ID":535330,"DIS_CODE":0,"TOWNNAME":"中西區","LI":"大涼里","LIN":"19鄰","STREET":"中華西路","SECT":"二段","MAREA":" ","LANE":" ","ALLEY":" ","HOUSE_NO":"２５０號六樓之４","E_COORD97":166621.56,"N_COORD97":2544156.2799999998,"ADDRESS":"中華西路二段２５０號六樓之４","OBJECTID":535303},"geometry":{"x":166621.55999999959,"y":2544156.2799999993}},{"attributes":{"ID":535331,"DIS_CODE":0,"TOWNNAME":"中西區","LI":"大涼里","LIN":"19鄰","STREET":"中華西路","SECT":"二段","MAREA":" ","LANE":" ","ALLEY":" ","HOUSE_NO":"２５０號四樓之１","E_COORD97":166621.56,"N_COORD97":2544156.2799999998,"ADDRESS":"中華西路二段２５０號四樓之１","OBJECTID":535304},"geometry":{"x":166621.55999999959,"y":2544156.2799999993}},{"attributes":{"ID":535332,"DIS_CODE":0,"TOWNNAME":"永康區","LI":"復國里","LIN":"19鄰","STREET":"國華街","SECT":" ","MAREA":" ","LANE":" ","ALLEY":" ","HOUSE_NO":"４９號五樓之２","E_COORD97":172823.51999999999,"N_COORD97":2545722.4300000002,"ADDRESS":"國華街４９號五樓之２","OBJECTID":535305},"geometry":{"x":172823.51999999862,"y":2545722.4299999997}},{"attributes":{"ID":535333,"DIS_CODE":0,"TOWNNAME":"中西區","LI":"大涼里","LIN":"19鄰","STREET":"中華西路","SECT":"二段","MAREA":" ","LANE":" ","ALLEY":" ","HOUSE_NO":"２５０號四樓之２","E_COORD97":166621.56,"N_COORD97":2544156.2799999998,"ADDRESS":"中華西路二段２５０號四樓之２","OBJECTID":535306},"geometry":{"x":166621.55999999959,"y":2544156.2799999993}},{"attributes":{"ID":535334,"DIS_CODE":0,"TOWNNAME":"中西區","LI":"大涼里","LIN":"19鄰","STREET":"中華西路","SECT":"二段","MAREA":" ","LANE":" ","ALLEY":" ","HOUSE_NO":"２５０號四樓之３","E_COORD97":166621.56,"N_COORD97":2544156.2799999998,"ADDRESS":"中華西路二段２５０號四樓之３","OBJECTID":535307},"geometry":{"x":166621.55999999959,"y":2544156.2799999993}},{"attributes":{"ID":535335,"DIS_CODE":0,"TOWNNAME":"中西區","LI":"大涼里","LIN":"19鄰","STREET":"中華西路","SECT":"二段","MAREA":" ","LANE":" ","ALLEY":" ","HOUSE_NO":"２５０號四樓之４","E_COORD97":166621.56,"N_COORD97":2544156.2799999998,"ADDRESS":"中華西路二段２５０號四樓之４","OBJECTID":535308},"geometry":{"x":166621.55999999959,"y":2544156.2799999993}},{"attributes":{"ID":535336,"DIS_CODE":0,"TOWNNAME":"中西區","LI":"大涼里","LIN":"19鄰","STREET":"府前一街","SECT":" ","MAREA":" ","LANE":" ","ALLEY":" ","HOUSE_NO":"１４５號二樓","E_COORD97":166674.16,"N_COORD97":2544110.1400000001,"ADDRESS":"府前一街１４５號二樓","OBJECTID":535309},"geometry":{"x":166674.16000000015,"y":2544110.1400000025}},{"attributes":{"ID":535337,"DIS_CODE":0,"TOWNNAME":"中西區","LI":"大涼里","LIN":"19鄰","STREET":"府前一街","SECT":" ","MAREA":" ","LANE":" ","ALLEY":" ","HOUSE_NO":"１４５號三樓","E_COORD97":166674.16,"N_COORD97":2544110.1400000001,"ADDRESS":"府前一街１４５號三樓","OBJECTID":535310},"geometry":{"x":166674.16000000015,"y":2544110.1400000025}},{"attributes":{"ID":535338,"DIS_CODE":0,"TOWNNAME":"中西區","LI":"大涼里","LIN":"19鄰","STREET":"府前一街","SECT":" ","MAREA":" ","LANE":" ","ALLEY":" ","HOUSE_NO":"１４５號五樓","E_COORD97":166674.16,"N_COORD97":2544110.1400000001,"ADDRESS":"府前一街１４５號五樓","OBJECTID":535311},"geometry":{"x":166674.16000000015,"y":2544110.1400000025}},{"attributes":{"ID":535339,"DIS_CODE":0,"TOWNNAME":"中西區","LI":"大涼里","LIN":"19鄰","STREET":"府前一街","SECT":" ","MAREA":" ","LANE":" ","ALLEY":" ","HOUSE_NO":"１４５號四樓","E_COORD97":166674.16,"N_COORD97":2544110.1400000001,"ADDRESS":"府前一街１４５號四樓","OBJECTID":535312},"geometry":{"x":166674.16000000015,"y":2544110.1400000025}},{"attributes":{"ID":535340,"DIS_CODE":0,"TOWNNAME":"中西區","LI":"大涼里","LIN":"19鄰","STREET":"府前一街","SECT":" ","MAREA":" ","LANE":" ","ALLEY":" ","HOUSE_NO":"１４７號二樓","E_COORD97":166660.66,"N_COORD97":2544105.8100000001,"ADDRESS":"府前一街１４７號二樓","OBJECTID":535313},"geometry":{"x":166660.66000000015,"y":2544105.8100000005}},{"attributes":{"ID":535341,"DIS_CODE":0,"TOWNNAME":"中西區","LI":"大涼里","LIN":"19鄰","STREET":"府前一街","SECT":" ","MAREA":" ","LANE":" ","ALLEY":" ","HOUSE_NO":"１４７號三樓","E_COORD97":166660.66,"N_COORD97":2544105.8100000001,"ADDRESS":"府前一街１４７號三樓","OBJECTID":535314},"geometry":{"x":166660.66000000015,"y":2544105.8100000005}},{"attributes":{"ID":535342,"DIS_CODE":0,"TOWNNAME":"中西區","LI":"大涼里","LIN":"19鄰","STREET":"府前一街","SECT":" ","MAREA":" ","LANE":" ","ALLEY":" ","HOUSE_NO":"１４７號五樓","E_COORD97":166660.66,"N_COORD97":2544105.8100000001,"ADDRESS":"府前一街１４７號五樓","OBJECTID":535315},"geometry":{"x":166660.66000000015,"y":2544105.8100000005}},{"attributes":{"ID":535343,"DIS_CODE":0,"TOWNNAME":"中西區","LI":"大涼里","LIN":"19鄰","STREET":"府前一街","SECT":" ","MAREA":" ","LANE":" ","ALLEY":" ","HOUSE_NO":"１４７號四樓","E_COORD97":166660.66,"N_COORD97":2544105.8100000001,"ADDRESS":"府前一街１４７號四樓","OBJECTID":535316},"geometry":{"x":166660.66000000015,"y":2544105.8100000005}},{"attributes":{"ID":535344,"DIS_CODE":0,"TOWNNAME":"中西區","LI":"大涼里","LIN":"19鄰","STREET":"府前一街","SECT":" ","MAREA":" ","LANE":" ","ALLEY":" ","HOUSE_NO":"１４９號二樓之１","E_COORD97":166652.42999999999,"N_COORD97":2544103.29,"ADDRESS":"府前一街１４９號二樓之１","OBJECTID":535317},"geometry":{"x":166652.43000000063,"y":2544103.290000001}},{"attributes":{"ID":535345,"DIS_CODE":0,"TOWNNAME":"中西區","LI":"大涼里","LIN":"19鄰","STREET":"府前一街","SECT":" ","MAREA":" ","LANE":" ","ALLEY":" ","HOUSE_NO":"１４９號二樓之２","E_COORD97":166652.42999999999,"N_COORD97":2544103.29,"ADDRESS":"府前一街１４９號二樓之２","OBJECTID":535318},"geometry":{"x":166652.43000000063,"y":2544103.290000001}},{"attributes":{"ID":535346,"DIS_CODE":0,"TOWNNAME":"中西區","LI":"大涼里","LIN":"19鄰","STREET":"府前一街","SECT":" ","MAREA":" ","LANE":" ","ALLEY":" ","HOUSE_NO":"１４９號三樓之１","E_COORD97":166652.42999999999,"N_COORD97":2544103.29,"ADDRESS":"府前一街１４９號三樓之１","OBJECTID":535319},"geometry":{"x":166652.43000000063,"y":2544103.290000001}},{"attributes":{"ID":535347,"DIS_CODE":0,"TOWNNAME":"中西區","LI":"大涼里","LIN":"19鄰","STREET":"府前一街","SECT":" ","MAREA":" ","LANE":" ","ALLEY":" ","HOUSE_NO":"１４９號三樓之２","E_COORD97":166652.42999999999,"N_COORD97":2544103.29,"ADDRESS":"府前一街１４９號三樓之２","OBJECTID":535320},"geometry":{"x":166652.43000000063,"y":2544103.290000001}},{"attributes":{"ID":535348,"DIS_CODE":0,"TOWNNAME":"中西區","LI":"大涼里","LIN":"19鄰","STREET":"府前一街","SECT":" ","MAREA":" ","LANE":" ","ALLEY":" ","HOUSE_NO":"１４９號五樓之１","E_COORD97":166652.42999999999,"N_COORD97":2544103.29,"ADDRESS":"府前一街１４９號五樓之１","OBJECTID":535321},"geometry":{"x":166652.43000000063,"y":2544103.290000001}},{"attributes":{"ID":535349,"DIS_CODE":0,"TOWNNAME":"中西區","LI":"大涼里","LIN":"19鄰","STREET":"府前一街","SECT":" ","MAREA":" ","LANE":" ","ALLEY":" ","HOUSE_NO":"１４９號五樓之２","E_COORD97":166652.42999999999,"N_COORD97":2544103.29,"ADDRESS":"府前一街１４９號五樓之２","OBJECTID":535322},"geometry":{"x":166652.43000000063,"y":2544103.290000001}},{"attributes":{"ID":535350,"DIS_CODE":0,"TOWNNAME":"中西區","LI":"大涼里","LIN":"19鄰","STREET":"府前一街","SECT":" ","MAREA":" ","LANE":" ","ALLEY":" ","HOUSE_NO":"１４９號四樓之１","E_COORD97":166652.42999999999,"N_COORD97":2544103.29,"ADDRESS":"府前一街１４９號四樓之１","OBJECTID":535323},"geometry":{"x":166652.43000000063,"y":2544103.290000001}},{"attributes":{"ID":535351,"DIS_CODE":0,"TOWNNAME":"中西區","LI":"大涼里","LIN":"19鄰","STREET":"府前一街","SECT":" ","MAREA":" ","LANE":" ","ALLEY":" ","HOUSE_NO":"１４９號四樓之２","E_COORD97":166652.42999999999,"N_COORD97":2544103.29,"ADDRESS":"府前一街１４９號四樓之２","OBJECTID":535324},"geometry":{"x":166652.43000000063,"y":2544103.290000001}},{"attributes":{"ID":535352,"DIS_CODE":0,"TOWNNAME":"中西區","LI":"大涼里","LIN":"19鄰","STREET":"府前一街","SECT":" ","MAREA":" ","LANE":" ","ALLEY":" ","HOUSE_NO":"１５１號二樓","E_COORD97":166652.01000000001,"N_COORD97":2544109.02,"ADDRESS":"府前一街１５１號二樓","OBJECTID":535325},"geometry":{"x":166652.01000000071,"y":2544109.0200000014}},{"attributes":{"ID":535353,"DIS_CODE":0,"TOWNNAME":"中西區","LI":"大涼里","LIN":"19鄰","STREET":"府前一街","SECT":" ","MAREA":" ","LANE":" ","ALLEY":" ","HOUSE_NO":"１５１號三樓","E_COORD97":166652.01000000001,"N_COORD97":2544109.02,"ADDRESS":"府前一街１５１號三樓","OBJECTID":535326},"geometry":{"x":166652.01000000071,"y":2544109.0200000014}},{"attributes":{"ID":535354,"DIS_CODE":0,"TOWNNAME":"中西區","LI":"大涼里","LIN":"19鄰","STREET":"府前一街","SECT":" ","MAREA":" ","LANE":" ","ALLEY":" ","HOUSE_NO":"１５１號五樓","E_COORD97":166652.01000000001,"N_COORD97":2544109.02,"ADDRESS":"府前一街１５１號五樓","OBJECTID":535327},"geometry":{"x":166652.01000000071,"y":2544109.0200000014}},{"attributes":{"ID":535355,"DIS_CODE":0,"TOWNNAME":"中西區","LI":"大涼里","LIN":"19鄰","STREET":"府前一街","SECT":" ","MAREA":" ","LANE":" ","ALLEY":" ","HOUSE_NO":"１５１號四樓","E_COORD97":166652.01000000001,"N_COORD97":2544109.02,"ADDRESS":"府前一街１５１號四樓","OBJECTID":535328},"geometry":{"x":166652.01000000071,"y":2544109.0200000014}},{"attributes":{"ID":535356,"DIS_CODE":0,"TOWNNAME":"中西區","LI":"大涼里","LIN":"19鄰","STREET":"府前一街","SECT":" ","MAREA":" ","LANE":" ","ALLEY":" ","HOUSE_NO":"１５３號三樓之１","E_COORD97":166650.37,"N_COORD97":2544113.1099999999,"ADDRESS":"府前一街１５３號三樓之１","OBJECTID":535329},"geometry":{"x":166650.37000000104,"y":2544113.1099999994}},{"attributes":{"ID":535357,"DIS_CODE":0,"TOWNNAME":"中西區","LI":"大涼里","LIN":"19鄰","STREET":"府前一街","SECT":" ","MAREA":" ","LANE":" ","ALLEY":" ","HOUSE_NO":"１５３號三樓之２","E_COORD97":166650.37,"N_COORD97":2544113.1099999999,"ADDRESS":"府前一街１５３號三樓之２","OBJECTID":535330},"geometry":{"x":166650.37000000104,"y":2544113.1099999994}},{"attributes":{"ID":535358,"DIS_CODE":0,"TOWNNAME":"中西區","LI":"大涼里","LIN":"19鄰","STREET":"府前一街","SECT":" ","MAREA":" ","LANE":" ","ALLEY":" ","HOUSE_NO":"１５３號五樓","E_COORD97":166650.37,"N_COORD97":2544113.1099999999,"ADDRESS":"府前一街１５３號五樓","OBJECTID":535331},"geometry":{"x":166650.37000000104,"y":2544113.1099999994}},{"attributes":{"ID":535359,"DIS_CODE":0,"TOWNNAME":"中西區","LI":"大涼里","LIN":"19鄰","STREET":"府前一街","SECT":" ","MAREA":" ","LANE":" ","ALLEY":" ","HOUSE_NO":"１５５號二樓","E_COORD97":166649.91,"N_COORD97":2544117.4500000002,"ADDRESS":"府前一街１５５號二樓","OBJECTID":535332},"geometry":{"x":166649.91000000108,"y":2544117.4499999993}},{"attributes":{"ID":535360,"DIS_CODE":0,"TOWNNAME":"中西區","LI":"大涼里","LIN":"19鄰","STREET":"府前一街","SECT":" ","MAREA":" ","LANE":" ","ALLEY":" ","HOUSE_NO":"１５５號三樓之１","E_COORD97":166649.91,"N_COORD97":2544117.4500000002,"ADDRESS":"府前一街１５５號三樓之１","OBJECTID":535333},"geometry":{"x":166649.91000000108,"y":2544117.4499999993}},{"attributes":{"ID":535361,"DIS_CODE":0,"TOWNNAME":"中西區","LI":"大涼里","LIN":"19鄰","STREET":"府前一街","SECT":" ","MAREA":" ","LANE":" ","ALLEY":" ","HOUSE_NO":"１５５號三樓之２","E_COORD97":166649.91,"N_COORD97":2544117.4500000002,"ADDRESS":"府前一街１５５號三樓之２","OBJECTID":535334},"geometry":{"x":166649.91000000108,"y":2544117.4499999993}},{"attributes":{"ID":535362,"DIS_CODE":0,"TOWNNAME":"中西區","LI":"大涼里","LIN":"19鄰","STREET":"府前一街","SECT":" ","MAREA":" ","LANE":" ","ALLEY":" ","HOUSE_NO":"１５５號五樓之１","E_COORD97":166649.91,"N_COORD97":2544117.4500000002,"ADDRESS":"府前一街１５５號五樓之１","OBJECTID":535335},"geometry":{"x":166649.91000000108,"y":2544117.4499999993}},{"attributes":{"ID":535363,"DIS_CODE":0,"TOWNNAME":"中西區","LI":"大涼里","LIN":"19鄰","STREET":"府前一街","SECT":" ","MAREA":" ","LANE":" ","ALLEY":" ","HOUSE_NO":"１５５號五樓之２","E_COORD97":166649.91,"N_COORD97":2544117.4500000002,"ADDRESS":"府前一街１５５號五樓之２","OBJECTID":535336},"geometry":{"x":166649.91000000108,"y":2544117.4499999993}},{"attributes":{"ID":535364,"DIS_CODE":0,"TOWNNAME":"中西區","LI":"大涼里","LIN":"19鄰","STREET":"府前一街","SECT":" ","MAREA":" ","LANE":" ","ALLEY":" ","HOUSE_NO":"１５５號四樓之１","E_COORD97":166649.91,"N_COORD97":2544117.4500000002,"ADDRESS":"府前一街１５５號四樓之１","OBJECTID":535337},"geometry":{"x":166649.91000000108,"y":2544117.4499999993}},{"attributes":{"ID":535365,"DIS_CODE":0,"TOWNNAME":"中西區","LI":"大涼里","LIN":"19鄰","STREET":"府前一街","SECT":" ","MAREA":" ","LANE":" ","ALLEY":" ","HOUSE_NO":"１５５號四樓之２","E_COORD97":166649.91,"N_COORD97":2544117.4500000002,"ADDRESS":"府前一街１５５號四樓之２","OBJECTID":535338},"geometry":{"x":166649.91000000108,"y":2544117.4499999993}},{"attributes":{"ID":535366,"DIS_CODE":0,"TOWNNAME":"中西區","LI":"大涼里","LIN":"19鄰","STREET":"府前一街","SECT":" ","MAREA":" ","LANE":" ","ALLEY":" ","HOUSE_NO":"１５７號二樓","E_COORD97":166648.76999999999,"N_COORD97":2544121.79,"ADDRESS":"府前一街１５７號二樓","OBJECTID":535339},"geometry":{"x":166648.77000000048,"y":2544121.7899999991}},{"attributes":{"ID":535367,"DIS_CODE":0,"TOWNNAME":"中西區","LI":"大涼里","LIN":"19鄰","STREET":"府前一街","SECT":" ","MAREA":" ","LANE":" ","ALLEY":" ","HOUSE_NO":"１５７號三樓","E_COORD97":166648.76999999999,"N_COORD97":2544121.79,"ADDRESS":"府前一街１５７號三樓","OBJECTID":535340},"geometry":{"x":166648.77000000048,"y":2544121.7899999991}},{"attributes":{"ID":535368,"DIS_CODE":0,"TOWNNAME":"中西區","LI":"大涼里","LIN":"19鄰","STREET":"府前一街","SECT":" ","MAREA":" ","LANE":" ","ALLEY":" ","HOUSE_NO":"１５７號四樓","E_COORD97":166648.76999999999,"N_COORD97":2544121.79,"ADDRESS":"府前一街１５７號四樓","OBJECTID":535341},"geometry":{"x":166648.77000000048,"y":2544121.7899999991}},{"attributes":{"ID":535369,"DIS_CODE":0,"TOWNNAME":"中西區","LI":"大涼里","LIN":"19鄰","STREET":"府前一街","SECT":" ","MAREA":" ","LANE":" ","ALLEY":" ","HOUSE_NO":"１６１號二樓","E_COORD97":166647.39999999999,"N_COORD97":2544127.2799999998,"ADDRESS":"府前一街１６１號二樓","OBJECTID":535342},"geometry":{"x":166647.40000000037,"y":2544127.2800000012}},{"attributes":{"ID":535370,"DIS_CODE":0,"TOWNNAME":"中西區","LI":"大涼里","LIN":"19鄰","STREET":"府前一街","SECT":" ","MAREA":" ","LANE":" ","ALLEY":" ","HOUSE_NO":"１６１號三樓","E_COORD97":166647.39999999999,"N_COORD97":2544127.2799999998,"ADDRESS":"府前一街１６１號三樓","OBJECTID":535343},"geometry":{"x":166647.40000000037,"y":2544127.2800000012}},{"attributes":{"ID":535371,"DIS_CODE":0,"TOWNNAME":"中西區","LI":"大涼里","LIN":"19鄰","STREET":"府前一街","SECT":" ","MAREA":" ","LANE":" ","ALLEY":" ","HOUSE_NO":"１６１號五樓","E_COORD97":166647.39999999999,"N_COORD97":2544127.2799999998,"ADDRESS":"府前一街１６１號五樓","OBJECTID":535344},"geometry":{"x":166647.40000000037,"y":2544127.2800000012}},{"attributes":{"ID":535372,"DIS_CODE":0,"TOWNNAME":"中西區","LI":"大涼里","LIN":"19鄰","STREET":"府前一街","SECT":" ","MAREA":" ","LANE":" ","ALLEY":" ","HOUSE_NO":"１６１號四樓","E_COORD97":166647.39999999999,"N_COORD97":2544127.2799999998,"ADDRESS":"府前一街１６１號四樓","OBJECTID":535345},"geometry":{"x":166647.40000000037,"y":2544127.2800000012}},{"attributes":{"ID":535373,"DIS_CODE":0,"TOWNNAME":"中西區","LI":"大涼里","LIN":"19鄰","STREET":"府前一街","SECT":" ","MAREA":" ","LANE":" ","ALLEY":" ","HOUSE_NO":"１６３號二樓之１","E_COORD97":166646.70999999999,"N_COORD97":2544131.6200000001,"ADDRESS":"府前一街１６３號二樓之１","OBJECTID":535346},"geometry":{"x":166646.70999999996,"y":2544131.620000001}},{"attributes":{"ID":535374,"DIS_CODE":0,"TOWNNAME":"中西區","LI":"大涼里","LIN":"19鄰","STREET":"府前一街","SECT":" ","MAREA":" ","LANE":" ","ALLEY":" ","HOUSE_NO":"１６３號二樓之２","E_COORD97":166646.70999999999,"N_COORD97":2544135.27,"ADDRESS":"府前一街１６３號二樓之２","OBJECTID":535347},"geometry":{"x":166646.70999999996,"y":2544135.2700000014}},{"attributes":{"ID":535375,"DIS_CODE":0,"TOWNNAME":"中西區","LI":"大涼里","LIN":"19鄰","STREET":"府前一街","SECT":" ","MAREA":" ","LANE":" ","ALLEY":" ","HOUSE_NO":"１６３號三樓之１","E_COORD97":166646.70999999999,"N_COORD97":2544131.6200000001,"ADDRESS":"府前一街１６３號三樓之１","OBJECTID":535348},"geometry":{"x":166646.70999999996,"y":2544131.620000001}},{"attributes":{"ID":535376,"DIS_CODE":0,"TOWNNAME":"中西區","LI":"大涼里","LIN":"19鄰","STREET":"府前一街","SECT":" ","MAREA":" ","LANE":" ","ALLEY":" ","HOUSE_NO":"１６３號三樓之２","E_COORD97":166646.70999999999,"N_COORD97":2544131.6200000001,"ADDRESS":"府前一街１６３號三樓之２","OBJECTID":535349},"geometry":{"x":166646.70999999996,"y":2544131.620000001}},{"attributes":{"ID":535377,"DIS_CODE":0,"TOWNNAME":"中西區","LI":"大涼里","LIN":"19鄰","STREET":"府前一街","SECT":" ","MAREA":" ","LANE":" ","ALLEY":" ","HOUSE_NO":"１６３號五樓之１","E_COORD97":166646.70999999999,"N_COORD97":2544131.6200000001,"ADDRESS":"府前一街１６３號五樓之１","OBJECTID":535350},"geometry":{"x":166646.70999999996,"y":2544131.620000001}},{"attributes":{"ID":535378,"DIS_CODE":0,"TOWNNAME":"中西區","LI":"大涼里","LIN":"19鄰","STREET":"府前一街","SECT":" ","MAREA":" ","LANE":" ","ALLEY":" ","HOUSE_NO":"１６３號五樓之２","E_COORD97":166646.70999999999,"N_COORD97":2544131.6200000001,"ADDRESS":"府前一街１６３號五樓之２","OBJECTID":535351},"geometry":{"x":166646.70999999996,"y":2544131.620000001}},{"attributes":{"ID":535379,"DIS_CODE":0,"TOWNNAME":"中西區","LI":"大涼里","LIN":"19鄰","STREET":"府前一街","SECT":" ","MAREA":" ","LANE":" ","ALLEY":" ","HOUSE_NO":"１６５號三樓","E_COORD97":166677.07999999999,"N_COORD97":2544125.25,"ADDRESS":"府前一街１６５號三樓","OBJECTID":535352},"geometry":{"x":166677.08000000194,"y":2544125.2500000019}},{"attributes":{"ID":535380,"DIS_CODE":0,"TOWNNAME":"中西區","LI":"大涼里","LIN":"19鄰","STREET":"府前一街","SECT":" ","MAREA":" ","LANE":" ","ALLEY":" ","HOUSE_NO":"１６５號五樓","E_COORD97":166677.07999999999,"N_COORD97":2544125.25,"ADDRESS":"府前一街１６５號五樓","OBJECTID":535353},"geometry":{"x":166677.08000000194,"y":2544125.2500000019}},{"attributes":{"ID":535381,"DIS_CODE":0,"TOWNNAME":"中西區","LI":"大涼里","LIN":"19鄰","STREET":"府前一街","SECT":" ","MAREA":" ","LANE":" ","ALLEY":" ","HOUSE_NO":"１６５號四樓","E_COORD97":166677.07999999999,"N_COORD97":2544125.25,"ADDRESS":"府前一街１６５號四樓","OBJECTID":535354},"geometry":{"x":166677.08000000194,"y":2544125.2500000019}},{"attributes":{"ID":535382,"DIS_CODE":0,"TOWNNAME":"中西區","LI":"大涼里","LIN":"19鄰","STREET":"府前一街","SECT":" ","MAREA":" ","LANE":" ","ALLEY":" ","HOUSE_NO":"１６７號三樓","E_COORD97":166670.04000000001,"N_COORD97":2544128.4199999999,"ADDRESS":"府前一街１６７號三樓","OBJECTID":535355},"geometry":{"x":166670.04000000004,"y":2544128.4199999999}},{"attributes":{"ID":535383,"DIS_CODE":0,"TOWNNAME":"中西區","LI":"大涼里","LIN":"19鄰","STREET":"府前一街","SECT":" ","MAREA":" ","LANE":" ","ALLEY":" ","HOUSE_NO":"１６７號五樓","E_COORD97":166670.04000000001,"N_COORD97":2544128.4199999999,"ADDRESS":"府前一街１６７號五樓","OBJECTID":535356},"geometry":{"x":166670.04000000004,"y":2544128.4199999999}},{"attributes":{"ID":535384,"DIS_CODE":0,"TOWNNAME":"中西區","LI":"大涼里","LIN":"19鄰","STREET":"府前一街","SECT":" ","MAREA":" ","LANE":" ","ALLEY":" ","HOUSE_NO":"１６７號四樓","E_COORD97":166670.04000000001,"N_COORD97":2544128.4199999999,"ADDRESS":"府前一街１６７號四樓","OBJECTID":535357},"geometry":{"x":166670.04000000004,"y":2544128.4199999999}},{"attributes":{"ID":535385,"DIS_CODE":0,"TOWNNAME":"中西區","LI":"大涼里","LIN":"19鄰","STREET":"府前一街","SECT":" ","MAREA":" ","LANE":" ","ALLEY":" ","HOUSE_NO":"１６９號三樓之１","E_COORD97":166669.76000000001,"N_COORD97":2544132.3999999999,"ADDRESS":"府前一街１６９號三樓之１","OBJECTID":535358},"geometry":{"x":166669.75999999978,"y":2544132.4000000004}},{"attributes":{"ID":535386,"DIS_CODE":0,"TOWNNAME":"中西區","LI":"大涼里","LIN":"19鄰","STREET":"府前一街","SECT":" ","MAREA":" ","LANE":" ","ALLEY":" ","HOUSE_NO":"１６９號三樓之２","E_COORD97":166669.76000000001,"N_COORD97":2544132.3999999999,"ADDRESS":"府前一街１６９號三樓之２","OBJECTID":535359},"geometry":{"x":166669.75999999978,"y":2544132.4000000004}},{"attributes":{"ID":535387,"DIS_CODE":0,"TOWNNAME":"中西區","LI":"大涼里","LIN":"19鄰","STREET":"府前一街","SECT":" ","MAREA":" ","LANE":" ","ALLEY":" ","HOUSE_NO":"１６９號五樓之１","E_COORD97":166669.76000000001,"N_COORD97":2544132.3999999999,"ADDRESS":"府前一街１６９號五樓之１","OBJECTID":535360},"geometry":{"x":166669.75999999978,"y":2544132.4000000004}},{"attributes":{"ID":535388,"DIS_CODE":0,"TOWNNAME":"中西區","LI":"大涼里","LIN":"19鄰","STREET":"府前一街","SECT":" ","MAREA":" ","LANE":" ","ALLEY":" ","HOUSE_NO":"１６９號五樓之２","E_COORD97":166669.76000000001,"N_COORD97":2544132.3999999999,"ADDRESS":"府前一街１６９號五樓之２","OBJECTID":535361},"geometry":{"x":166669.75999999978,"y":2544132.4000000004}},{"attributes":{"ID":535389,"DIS_CODE":0,"TOWNNAME":"中西區","LI":"大涼里","LIN":"19鄰","STREET":"府前一街","SECT":" ","MAREA":" ","LANE":" ","ALLEY":" ","HOUSE_NO":"１６９號四樓之１","E_COORD97":166669.76000000001,"N_COORD97":2544132.3999999999,"ADDRESS":"府前一街１６９號四樓之１","OBJECTID":535362},"geometry":{"x":166669.75999999978,"y":2544132.4000000004}},{"attributes":{"ID":535390,"DIS_CODE":0,"TOWNNAME":"中西區","LI":"大涼里","LIN":"19鄰","STREET":"府前一街","SECT":" ","MAREA":" ","LANE":" ","ALLEY":" ","HOUSE_NO":"１６９號四樓之２","E_COORD97":166669.76000000001,"N_COORD97":2544132.3999999999,"ADDRESS":"府前一街１６９號四樓之２","OBJECTID":535363},"geometry":{"x":166669.75999999978,"y":2544132.4000000004}},{"attributes":{"ID":535391,"DIS_CODE":0,"TOWNNAME":"中西區","LI":"大涼里","LIN":"19鄰","STREET":"府前一街","SECT":" ","MAREA":" ","LANE":" ","ALLEY":" ","HOUSE_NO":"１７１號二樓","E_COORD97":166667.07000000001,"N_COORD97":2544136.1800000002,"ADDRESS":"府前一街１７１號二樓","OBJECTID":535364},"geometry":{"x":166667.07000000216,"y":2544136.1800000016}},{"attributes":{"ID":535392,"DIS_CODE":0,"TOWNNAME":"中西區","LI":"大涼里","LIN":"19鄰","STREET":"府前一街","SECT":" ","MAREA":" ","LANE":" ","ALLEY":" ","HOUSE_NO":"１７１號三樓之１","E_COORD97":166667.07000000001,"N_COORD97":2544136.1800000002,"ADDRESS":"府前一街１７１號三樓之１","OBJECTID":535365},"geometry":{"x":166667.07000000216,"y":2544136.1800000016}},{"attributes":{"ID":535393,"DIS_CODE":0,"TOWNNAME":"中西區","LI":"大涼里","LIN":"19鄰","STREET":"府前一街","SECT":" ","MAREA":" ","LANE":" ","ALLEY":" ","HOUSE_NO":"１７１號三樓之２","E_COORD97":166667.07000000001,"N_COORD97":2544136.1800000002,"ADDRESS":"府前一街１７１號三樓之２","OBJECTID":535366},"geometry":{"x":166667.07000000216,"y":2544136.1800000016}},{"attributes":{"ID":535394,"DIS_CODE":0,"TOWNNAME":"中西區","LI":"大涼里","LIN":"19鄰","STREET":"府前一街","SECT":" ","MAREA":" ","LANE":" ","ALLEY":" ","HOUSE_NO":"１７１號五樓之１","E_COORD97":166667.07000000001,"N_COORD97":2544136.1800000002,"ADDRESS":"府前一街１７１號五樓之１","OBJECTID":535367},"geometry":{"x":166667.07000000216,"y":2544136.1800000016}},{"attributes":{"ID":535395,"DIS_CODE":0,"TOWNNAME":"中西區","LI":"大涼里","LIN":"19鄰","STREET":"府前一街","SECT":" ","MAREA":" ","LANE":" ","ALLEY":" ","HOUSE_NO":"１７１號五樓之２","E_COORD97":166667.07000000001,"N_COORD97":2544136.1800000002,"ADDRESS":"府前一街１７１號五樓之２","OBJECTID":535368},"geometry":{"x":166667.07000000216,"y":2544136.1800000016}},{"attributes":{"ID":535396,"DIS_CODE":0,"TOWNNAME":"中西區","LI":"大涼里","LIN":"19鄰","STREET":"府前一街","SECT":" ","MAREA":" ","LANE":" ","ALLEY":" ","HOUSE_NO":"１７１號四樓之１","E_COORD97":166667.07000000001,"N_COORD97":2544136.1800000002,"ADDRESS":"府前一街１７１號四樓之１","OBJECTID":535369},"geometry":{"x":166667.07000000216,"y":2544136.1800000016}},{"attributes":{"ID":535397,"DIS_CODE":0,"TOWNNAME":"中西區","LI":"大涼里","LIN":"19鄰","STREET":"府前一街","SECT":" ","MAREA":" ","LANE":" ","ALLEY":" ","HOUSE_NO":"１７１號四樓之２","E_COORD97":166667.07000000001,"N_COORD97":2544136.1800000002,"ADDRESS":"府前一街１７１號四樓之２","OBJECTID":535370},"geometry":{"x":166667.07000000216,"y":2544136.1800000016}},{"attributes":{"ID":535398,"DIS_CODE":0,"TOWNNAME":"中西區","LI":"大涼里","LIN":"19鄰","STREET":"府前一街","SECT":" ","MAREA":" ","LANE":" ","ALLEY":" ","HOUSE_NO":"１７３號三樓之１","E_COORD97":166666.14999999999,"N_COORD97":2544140.29,"ADDRESS":"府前一街１７３號三樓之１","OBJECTID":535371},"geometry":{"x":166666.15000000037,"y":2544140.290000001}},{"attributes":{"ID":535399,"DIS_CODE":0,"TOWNNAME":"中西區","LI":"大涼里","LIN":"19鄰","STREET":"府前一街","SECT":" ","MAREA":" ","LANE":" ","ALLEY":" ","HOUSE_NO":"１７３號三樓之２","E_COORD97":166666.14999999999,"N_COORD97":2544140.29,"ADDRESS":"府前一街１７３號三樓之２","OBJECTID":535372},"geometry":{"x":166666.15000000037,"y":2544140.290000001}},{"attributes":{"ID":535400,"DIS_CODE":0,"TOWNNAME":"中西區","LI":"大涼里","LIN":"19鄰","STREET":"府前一街","SECT":" ","MAREA":" ","LANE":" ","ALLEY":" ","HOUSE_NO":"１７３號五樓之１","E_COORD97":166666.14999999999,"N_COORD97":2544140.29,"ADDRESS":"府前一街１７３號五樓之１","OBJECTID":535373},"geometry":{"x":166666.15000000037,"y":2544140.290000001}},{"attributes":{"ID":535401,"DIS_CODE":0,"TOWNNAME":"中西區","LI":"大涼里","LIN":"19鄰","STREET":"府前一街","SECT":" ","MAREA":" ","LANE":" ","ALLEY":" ","HOUSE_NO":"１７３號五樓之２","E_COORD97":166666.14999999999,"N_COORD97":2544140.29,"ADDRESS":"府前一街１７３號五樓之２","OBJECTID":535374},"geometry":{"x":166666.15000000037,"y":2544140.290000001}},{"attributes":{"ID":535402,"DIS_CODE":0,"TOWNNAME":"中西區","LI":"大涼里","LIN":"19鄰","STREET":"府前一街","SECT":" ","MAREA":" ","LANE":" ","ALLEY":" ","HOUSE_NO":"１７３號四樓之１","E_COORD97":166666.14999999999,"N_COORD97":2544140.29,"ADDRESS":"府前一街１７３號四樓之１","OBJECTID":535375},"geometry":{"x":166666.15000000037,"y":2544140.290000001}},{"attributes":{"ID":535403,"DIS_CODE":0,"TOWNNAME":"中西區","LI":"大涼里","LIN":"19鄰","STREET":"府前一街","SECT":" ","MAREA":" ","LANE":" ","ALLEY":" ","HOUSE_NO":"１７３號四樓之２","E_COORD97":166666.14999999999,"N_COORD97":2544140.29,"ADDRESS":"府前一街１７３號四樓之２","OBJECTID":535376},"geometry":{"x":166666.15000000037,"y":2544140.290000001}},{"attributes":{"ID":535404,"DIS_CODE":0,"TOWNNAME":"中西區","LI":"大涼里","LIN":"19鄰","STREET":"府前一街","SECT":" ","MAREA":" ","LANE":" ","ALLEY":" ","HOUSE_NO":"１７５號三樓之１","E_COORD97":166660.20999999999,"N_COORD97":2544142.8100000001,"ADDRESS":"府前一街１７５號三樓之１","OBJECTID":535377},"geometry":{"x":166660.20999999996,"y":2544142.8100000024}},{"attributes":{"ID":535405,"DIS_CODE":0,"TOWNNAME":"中西區","LI":"大涼里","LIN":"19鄰","STREET":"府前一街","SECT":" ","MAREA":" ","LANE":" ","ALLEY":" ","HOUSE_NO":"１７５號三樓之２","E_COORD97":166660.20999999999,"N_COORD97":2544142.8100000001,"ADDRESS":"府前一街１７５號三樓之２","OBJECTID":535378},"geometry":{"x":166660.20999999996,"y":2544142.8100000024}},{"attributes":{"ID":535406,"DIS_CODE":0,"TOWNNAME":"中西區","LI":"大涼里","LIN":"19鄰","STREET":"府前一街","SECT":" ","MAREA":" ","LANE":" ","ALLEY":" ","HOUSE_NO":"１７５號五樓之１","E_COORD97":166660.20999999999,"N_COORD97":2544142.8100000001,"ADDRESS":"府前一街１７５號五樓之１","OBJECTID":535379},"geometry":{"x":166660.20999999996,"y":2544142.8100000024}},{"attributes":{"ID":535407,"DIS_CODE":0,"TOWNNAME":"中西區","LI":"大涼里","LIN":"19鄰","STREET":"府前一街","SECT":" ","MAREA":" ","LANE":" ","ALLEY":" ","HOUSE_NO":"１７５號五樓之２","E_COORD97":166660.20999999999,"N_COORD97":2544142.8100000001,"ADDRESS":"府前一街１７５號五樓之２","OBJECTID":535380},"geometry":{"x":166660.20999999996,"y":2544142.8100000024}},{"attributes":{"ID":535408,"DIS_CODE":0,"TOWNNAME":"中西區","LI":"大涼里","LIN":"19鄰","STREET":"府前一街","SECT":" ","MAREA":" ","LANE":" ","ALLEY":" ","HOUSE_NO":"１７５號四樓之１","E_COORD97":166660.20999999999,"N_COORD97":2544142.8100000001,"ADDRESS":"府前一街１７５號四樓之１","OBJECTID":535381},"geometry":{"x":166660.20999999996,"y":2544142.8100000024}},{"attributes":{"ID":535409,"DIS_CODE":0,"TOWNNAME":"中西區","LI":"大涼里","LIN":"19鄰","STREET":"府前一街","SECT":" ","MAREA":" ","LANE":" ","ALLEY":" ","HOUSE_NO":"１７５號四樓之２","E_COORD97":166660.20999999999,"N_COORD97":2544142.8100000001,"ADDRESS":"府前一街１７５號四樓之２","OBJECTID":535382},"geometry":{"x":166660.20999999996,"y":2544142.8100000024}},{"attributes":{"ID":535410,"DIS_CODE":0,"TOWNNAME":"中西區","LI":"大涼里","LIN":"19鄰","STREET":"府前一街","SECT":" ","MAREA":" ","LANE":" ","ALLEY":" ","HOUSE_NO":"１７７號三樓之１","E_COORD97":166654.03,"N_COORD97":2544145.7799999998,"ADDRESS":"府前一街１７７號三樓之１","OBJECTID":535383},"geometry":{"x":166654.03000000119,"y":2544145.7799999993}},{"attributes":{"ID":535411,"DIS_CODE":0,"TOWNNAME":"中西區","LI":"大涼里","LIN":"19鄰","STREET":"府前一街","SECT":" ","MAREA":" ","LANE":" ","ALLEY":" ","HOUSE_NO":"１７７號三樓之２","E_COORD97":166654.03,"N_COORD97":2544145.7799999998,"ADDRESS":"府前一街１７７號三樓之２","OBJECTID":535384},"geometry":{"x":166654.03000000119,"y":2544145.7799999993}},{"attributes":{"ID":535412,"DIS_CODE":0,"TOWNNAME":"中西區","LI":"大涼里","LIN":"19鄰","STREET":"府前一街","SECT":" ","MAREA":" ","LANE":" ","ALLEY":" ","HOUSE_NO":"１７９號三樓之２","E_COORD97":166649,"N_COORD97":2544147.3799999999,"ADDRESS":"府前一街１７９號三樓之２","OBJECTID":535385},"geometry":{"x":166649.00000000093,"y":2544147.3800000008}},{"attributes":{"ID":535413,"DIS_CODE":0,"TOWNNAME":"中西區","LI":"大涼里","LIN":"19鄰","STREET":"府前一街","SECT":" ","MAREA":" ","LANE":" ","ALLEY":" ","HOUSE_NO":"１７９號五樓之１","E_COORD97":166649,"N_COORD97":2544147.3799999999,"ADDRESS":"府前一街１７９號五樓之１","OBJECTID":535386},"geometry":{"x":166649.00000000093,"y":2544147.3800000008}},{"attributes":{"ID":535414,"DIS_CODE":0,"TOWNNAME":"中西區","LI":"大涼里","LIN":"19鄰","STREET":"府前一街","SECT":" ","MAREA":" ","LANE":" ","ALLEY":" ","HOUSE_NO":"１７９號五樓之２","E_COORD97":166649,"N_COORD97":2544147.3799999999,"ADDRESS":"府前一街１７９號五樓之２","OBJECTID":535387},"geometry":{"x":166649.00000000093,"y":2544147.3800000008}},{"attributes":{"ID":535415,"DIS_CODE":0,"TOWNNAME":"中西區","LI":"大涼里","LIN":"19鄰","STREET":"府前一街","SECT":" ","MAREA":" ","LANE":" ","ALLEY":" ","HOUSE_NO":"１７９號四樓之１","E_COORD97":166649,"N_COORD97":2544147.3799999999,"ADDRESS":"府前一街１７９號四樓之１","OBJECTID":535388},"geometry":{"x":166649.00000000093,"y":2544147.3800000008}},{"attributes":{"ID":535416,"DIS_CODE":0,"TOWNNAME":"中西區","LI":"大涼里","LIN":"19鄰","STREET":"府前一街","SECT":" ","MAREA":" ","LANE":" ","ALLEY":" ","HOUSE_NO":"１７９號四樓之２","E_COORD97":166649,"N_COORD97":2544147.3799999999,"ADDRESS":"府前一街１７９號四樓之２","OBJECTID":535389},"geometry":{"x":166649.00000000093,"y":2544147.3800000008}},{"attributes":{"ID":535417,"DIS_CODE":0,"TOWNNAME":"永康區","LI":"復國里","LIN":"19鄰","STREET":"國華街","SECT":" ","MAREA":" ","LANE":" ","ALLEY":" ","HOUSE_NO":"５３號十一樓之３","E_COORD97":172795.94,"N_COORD97":2545723.1800000002,"ADDRESS":"國華街５３號十一樓之３","OBJECTID":535390},"geometry":{"x":172795.94000000041,"y":2545723.1799999997}},{"attributes":{"ID":535418,"DIS_CODE":0,"TOWNNAME":"永康區","LI":"復國里","LIN":"19鄰","STREET":"國華街","SECT":" ","MAREA":" ","LANE":" ","ALLEY":" ","HOUSE_NO":"４９號四樓之２","E_COORD97":172823.51999999999,"N_COORD97":2545722.4300000002,"ADDRESS":"國華街４９號四樓之２","OBJECTID":535391},"geometry":{"x":172823.51999999862,"y":2545722.4299999997}},{"attributes":{"ID":535419,"DIS_CODE":0,"TOWNNAME":"永康區","LI":"復國里","LIN":"19鄰","STREET":"國華街","SECT":" ","MAREA":" ","LANE":" ","ALLEY":" ","HOUSE_NO":"５３號十三樓之５","E_COORD97":172796,"N_COORD97":2545723.1800000002,"ADDRESS":"國華街５３號十三樓之５","OBJECTID":535392},"geometry":{"x":172796.00000000093,"y":2545723.1799999997}},{"attributes":{"ID":535420,"DIS_CODE":0,"TOWNNAME":"永康區","LI":"復國里","LIN":"19鄰","STREET":"國華街","SECT":" ","MAREA":" ","LANE":" ","ALLEY":" ","HOUSE_NO":"４７號五樓之２","E_COORD97":172830.04999999999,"N_COORD97":2545727.6800000002,"ADDRESS":"國華街４７號五樓之２","OBJECTID":535393},"geometry":{"x":172830.04999999981,"y":2545727.6799999997}},{"attributes":{"ID":535421,"DIS_CODE":0,"TOWNNAME":"永康區","LI":"復國里","LIN":"19鄰","STREET":"國華街","SECT":" ","MAREA":" ","LANE":" ","ALLEY":" ","HOUSE_NO":"４７號四樓之１","E_COORD97":172829.92000000001,"N_COORD97":2545727.6800000002,"ADDRESS":"國華街４７號四樓之１","OBJECTID":535394},"geometry":{"x":172829.92000000086,"y":2545727.6799999997}},{"attributes":{"ID":535422,"DIS_CODE":0,"TOWNNAME":"永康區","LI":"復國里","LIN":"19鄰","STREET":"國華街","SECT":" ","MAREA":" ","LANE":" ","ALLEY":" ","HOUSE_NO":"４７號十三樓之２","E_COORD97":172831.29999999999,"N_COORD97":2545727.6800000002,"ADDRESS":"國華街４７號十三樓之２","OBJECTID":535395},"geometry":{"x":172831.30000000075,"y":2545727.6799999997}},{"attributes":{"ID":535423,"DIS_CODE":0,"TOWNNAME":"永康區","LI":"復國里","LIN":"19鄰","STREET":"國華街","SECT":" ","MAREA":" ","LANE":" ","ALLEY":" ","HOUSE_NO":"５３號十二樓之４","E_COORD97":172795.87,"N_COORD97":2545723.1800000002,"ADDRESS":"國華街５３號十二樓之４","OBJECTID":535396},"geometry":{"x":172795.87000000011,"y":2545723.1799999997}},{"attributes":{"ID":535424,"DIS_CODE":0,"TOWNNAME":"永康區","LI":"復國里","LIN":"19鄰","STREET":"國華街","SECT":" ","MAREA":" ","LANE":" ","ALLEY":" ","HOUSE_NO":"５３號三樓之４","E_COORD97":172794.62,"N_COORD97":2545723.1800000002,"ADDRESS":"國華街５３號三樓之４","OBJECTID":535397},"geometry":{"x":172794.61999999918,"y":2545723.1799999997}},{"attributes":{"ID":535425,"DIS_CODE":0,"TOWNNAME":"永康區","LI":"復國里","LIN":"19鄰","STREET":"國華街","SECT":" ","MAREA":" ","LANE":" ","ALLEY":" ","HOUSE_NO":"５３號四樓之４","E_COORD97":172794.62,"N_COORD97":2545723.1800000002,"ADDRESS":"國華街５３號四樓之４","OBJECTID":535398},"geometry":{"x":172794.61999999918,"y":2545723.1799999997}},{"attributes":{"ID":535426,"DIS_CODE":0,"TOWNNAME":"永康區","LI":"復國里","LIN":"19鄰","STREET":"國華街","SECT":" ","MAREA":" ","LANE":" ","ALLEY":" ","HOUSE_NO":"５３號六樓之４","E_COORD97":172794.62,"N_COORD97":2545723.1800000002,"ADDRESS":"國華街５３號六樓之４","OBJECTID":535399},"geometry":{"x":172794.61999999918,"y":2545723.1799999997}},{"attributes":{"ID":535427,"DIS_CODE":0,"TOWNNAME":"永康區","LI":"復國里","LIN":"19鄰","STREET":"國華街","SECT":" ","MAREA":" ","LANE":" ","ALLEY":" ","HOUSE_NO":"５３號十樓之２","E_COORD97":172794.72,"N_COORD97":2545723.1800000002,"ADDRESS":"國華街５３號十樓之２","OBJECTID":535400},"geometry":{"x":172794.71999999974,"y":2545723.1799999997}}]}