{"displayFieldName":"TOWNNAME","fieldAliases":{"ID":"ID","DIS_CODE":"DIS_CODE","TOWNNAME":"TOWNNAME","LI":"LI","LIN":"LIN","STREET":"STREET","SECT":"SECT","MAREA":"MAREA","LANE":"LANE","ALLEY":"ALLEY","HOUSE_NO":"HOUSE_NO","E_COORD97":"E_COORD97","N_COORD97":"N_COORD97","ADDRESS":"ADDRESS","OBJECTID":"OBJECTID"},"geometryType":"esriGeometryPoint","spatialReference":{"wkid":102443,"latestWkid":3826},"fields":[{"name":"ID","type":"esriFieldTypeDouble","alias":"ID"},{"name":"DIS_CODE","type":"esriFieldTypeInteger","alias":"DIS_CODE"},{"name":"TOWNNAME","type":"esriFieldTypeString","alias":"TOWNNAME","length":8},{"name":"LI","type":"esriFieldTypeString","alias":"LI","length":8},{"name":"LIN","type":"esriFieldTypeString","alias":"LIN","length":12},{"name":"STREET","type":"esriFieldTypeString","alias":"STREET","length":20},{"name":"SECT","type":"esriFieldTypeString","alias":"SECT","length":8},{"name":"MAREA","type":"esriFieldTypeString","alias":"MAREA","length":12},{"name":"LANE","type":"esriFieldTypeString","alias":"LANE","length":10},{"name":"ALLEY","type":"esriFieldTypeString","alias":"ALLEY","length":10},{"name":"HOUSE_NO","type":"esriFieldTypeString","alias":"HOUSE_NO","length":20},{"name":"E_COORD97","type":"esriFieldTypeDouble","alias":"E_COORD97"},{"name":"N_COORD97","type":"esriFieldTypeDouble","alias":"N_COORD97"},{"name":"ADDRESS","type":"esriFieldTypeString","alias":"ADDRESS","length":50},{"name":"OBJECTID","type":"esriFieldTypeOID","alias":"OBJECTID"}],"features":[{"attributes":{"ID":235005,"DIS_CODE":0,"TOWNNAME":"北區","LI":"安民里","LIN":"5鄰","STREET":"康樂街","SECT":" ","MAREA":" ","LANE":"４０６巷","ALLEY":" ","HOUSE_NO":"１號","E_COORD97":167791.78,"N_COORD97":2544722.7999999998,"ADDRESS":"康樂街４０６巷１號","OBJECTID":235001},"geometry":{"x":167791.78000000119,"y":2544722.8000000026}},{"attributes":{"ID":235006,"DIS_CODE":0,"TOWNNAME":"南區","LI":"文南里","LIN":"14鄰","STREET":"永南二街","SECT":" ","MAREA":" ","LANE":" ","ALLEY":" ","HOUSE_NO":"１４號三樓之２","E_COORD97":166790.67000000001,"N_COORD97":2542630.6200000001,"ADDRESS":"永南二街１４號三樓之２","OBJECTID":235002},"geometry":{"x":166790.66999999993,"y":2542630.620000001}},{"attributes":{"ID":235007,"DIS_CODE":0,"TOWNNAME":"南區","LI":"文南里","LIN":"14鄰","STREET":"永南二街","SECT":" ","MAREA":" ","LANE":" ","ALLEY":" ","HOUSE_NO":"１４號三樓之３","E_COORD97":166790.67000000001,"N_COORD97":2542630.6200000001,"ADDRESS":"永南二街１４號三樓之３","OBJECTID":235003},"geometry":{"x":166790.66999999993,"y":2542630.620000001}},{"attributes":{"ID":235008,"DIS_CODE":0,"TOWNNAME":"南區","LI":"文南里","LIN":"14鄰","STREET":"永南二街","SECT":" ","MAREA":" ","LANE":" ","ALLEY":" ","HOUSE_NO":"１４號三樓之４","E_COORD97":166790.67000000001,"N_COORD97":2542630.6200000001,"ADDRESS":"永南二街１４號三樓之４","OBJECTID":235004},"geometry":{"x":166790.66999999993,"y":2542630.620000001}},{"attributes":{"ID":235009,"DIS_CODE":0,"TOWNNAME":"北區","LI":"大港里","LIN":"16鄰","STREET":"大興街","SECT":" ","MAREA":" ","LANE":"２４６巷","ALLEY":" ","HOUSE_NO":"３５號","E_COORD97":166634.75,"N_COORD97":2545819,"ADDRESS":"大興街２４６巷３５號","OBJECTID":235005},"geometry":{"x":166634.75,"y":2545819.0000000019}},{"attributes":{"ID":235010,"DIS_CODE":0,"TOWNNAME":"北區","LI":"大港里","LIN":"16鄰","STREET":"大興街","SECT":" ","MAREA":" ","LANE":"２４６巷","ALLEY":" ","HOUSE_NO":"３７號","E_COORD97":166632.67000000001,"N_COORD97":2545822.3900000001,"ADDRESS":"大興街２４６巷３７號","OBJECTID":235006},"geometry":{"x":166632.67000000086,"y":2545822.3900000043}},{"attributes":{"ID":235011,"DIS_CODE":0,"TOWNNAME":"北區","LI":"大港里","LIN":"16鄰","STREET":"大興街","SECT":" ","MAREA":" ","LANE":"２４６巷","ALLEY":" ","HOUSE_NO":"３９號","E_COORD97":166629.26999999999,"N_COORD97":2545825.2200000002,"ADDRESS":"大興街２４６巷３９號","OBJECTID":235007},"geometry":{"x":166629.26999999862,"y":2545825.2200000025}},{"attributes":{"ID":235012,"DIS_CODE":0,"TOWNNAME":"北區","LI":"大港里","LIN":"16鄰","STREET":"大興街","SECT":" ","MAREA":" ","LANE":"２４６巷","ALLEY":" ","HOUSE_NO":"４１號","E_COORD97":166626.06,"N_COORD97":2545827.2999999998,"ADDRESS":"大興街２４６巷４１號","OBJECTID":235008},"geometry":{"x":166626.06000000052,"y":2545827.3000000026}},{"attributes":{"ID":235013,"DIS_CODE":0,"TOWNNAME":"北區","LI":"大港里","LIN":"16鄰","STREET":"大興街","SECT":" ","MAREA":" ","LANE":"２４６巷","ALLEY":" ","HOUSE_NO":"４３號","E_COORD97":166623.98000000001,"N_COORD97":2545830.5,"ADDRESS":"大興街２４６巷４３號","OBJECTID":235009},"geometry":{"x":166623.98000000138,"y":2545830.5}},{"attributes":{"ID":235014,"DIS_CODE":0,"TOWNNAME":"北區","LI":"大港里","LIN":"16鄰","STREET":"大興街","SECT":" ","MAREA":" ","LANE":"２４６巷","ALLEY":" ","HOUSE_NO":"４５號","E_COORD97":166622.66,"N_COORD97":2545835.2200000002,"ADDRESS":"大興街２４６巷４５號","OBJECTID":235010},"geometry":{"x":166622.66000000108,"y":2545835.2200000025}},{"attributes":{"ID":235015,"DIS_CODE":0,"TOWNNAME":"北區","LI":"安民里","LIN":"5鄰","STREET":"康樂街","SECT":" ","MAREA":" ","LANE":"４０６巷","ALLEY":" ","HOUSE_NO":"９號","E_COORD97":167810.13,"N_COORD97":2544734.8199999998,"ADDRESS":"康樂街４０６巷９號","OBJECTID":235011},"geometry":{"x":167810.12999999989,"y":2544734.8200000022}},{"attributes":{"ID":235016,"DIS_CODE":0,"TOWNNAME":"安南區","LI":"海東里","LIN":"5鄰","STREET":"海佃路","SECT":"二段","MAREA":" ","LANE":"５０９巷","ALLEY":" ","HOUSE_NO":"６０號","E_COORD97":166518.67000000001,"N_COORD97":2549154.3100000001,"ADDRESS":"海佃路二段５０９巷６０號","OBJECTID":235012},"geometry":{"x":166518.67000000179,"y":2549154.3100000005}},{"attributes":{"ID":235017,"DIS_CODE":0,"TOWNNAME":"鹽水區","LI":"橋南里","LIN":"5鄰","STREET":"行昌路","SECT":" ","MAREA":" ","LANE":"６７巷","ALLEY":" ","HOUSE_NO":"２９號","E_COORD97":175304.41,"N_COORD97":2579353.0600000001,"ADDRESS":"行昌路６７巷２９號","OBJECTID":235013},"geometry":{"x":175304.41000000015,"y":2579353.0600000024}},{"attributes":{"ID":235018,"DIS_CODE":0,"TOWNNAME":"安平區","LI":"平安里","LIN":"5鄰","STREET":"安平路","SECT":" ","MAREA":" ","LANE":"３３６巷","ALLEY":" ","HOUSE_NO":"８號","E_COORD97":165663.64999999999,"N_COORD97":2544377.1099999999,"ADDRESS":"安平路３３６巷８號","OBJECTID":235014},"geometry":{"x":165663.6500000013,"y":2544377.1100000013}},{"attributes":{"ID":235019,"DIS_CODE":0,"TOWNNAME":"安南區","LI":"海西里","LIN":"5鄰","STREET":"海中街","SECT":" ","MAREA":" ","LANE":"１２１巷","ALLEY":" ","HOUSE_NO":"１０６號","E_COORD97":166192.48000000001,"N_COORD97":2548959,"ADDRESS":"海中街１２１巷１０６號","OBJECTID":235015},"geometry":{"x":166192.48000000045,"y":2548959}},{"attributes":{"ID":235020,"DIS_CODE":0,"TOWNNAME":"仁德區","LI":"一甲里","LIN":"5鄰","STREET":"忠義三街","SECT":" ","MAREA":" ","LANE":"８巷","ALLEY":" ","HOUSE_NO":"１６號","E_COORD97":173649.98000000001,"N_COORD97":2541649.52,"ADDRESS":"忠義三街８巷１６號","OBJECTID":235016},"geometry":{"x":173649.98000000045,"y":2541649.5199999996}},{"attributes":{"ID":235021,"DIS_CODE":0,"TOWNNAME":"安南區","LI":"\u25A0南里","LIN":"5鄰","STREET":"安昌街","SECT":" ","MAREA":" ","LANE":"８５巷","ALLEY":" ","HOUSE_NO":"１００號","E_COORD97":169930.51000000001,"N_COORD97":2552416.1800000002,"ADDRESS":"安昌街８５巷１００號","OBJECTID":235017},"geometry":{"x":169930.51000000071,"y":2552416.1799999997}},{"attributes":{"ID":235022,"DIS_CODE":0,"TOWNNAME":"永康區","LI":"五王里","LIN":"38鄰","STREET":"中華路","SECT":" ","MAREA":" ","LANE":"５７８巷","ALLEY":" ","HOUSE_NO":"１７號之４３","E_COORD97":171333.67000000001,"N_COORD97":2545989.54,"ADDRESS":"中華路５７８巷１７號之４３","OBJECTID":235018},"geometry":{"x":171333.67000000086,"y":2545989.5400000028}},{"attributes":{"ID":235023,"DIS_CODE":0,"TOWNNAME":"永康區","LI":"西灣里","LIN":"38鄰","STREET":"國光七街","SECT":" ","MAREA":" ","LANE":"３８巷","ALLEY":" ","HOUSE_NO":"２２號","E_COORD97":174225.37,"N_COORD97":2545602.54,"ADDRESS":"國光七街３８巷２２號","OBJECTID":235019},"geometry":{"x":174225.36999999918,"y":2545602.5399999991}},{"attributes":{"ID":235024,"DIS_CODE":0,"TOWNNAME":"東區","LI":"忠孝里","LIN":"38鄰","STREET":"中華東路","SECT":"三段","MAREA":" ","LANE":"３８０巷","ALLEY":" ","HOUSE_NO":"５９號","E_COORD97":169973.01999999999,"N_COORD97":2541718.8799999999,"ADDRESS":"中華東路三段３８０巷５９號","OBJECTID":235020},"geometry":{"x":169973.02000000048,"y":2541718.8800000008}},{"attributes":{"ID":235025,"DIS_CODE":0,"TOWNNAME":"永康區","LI":"\u25A0洲里","LIN":"4鄰","STREET":"\u25A0洲二街","SECT":" ","MAREA":" ","LANE":"１５３巷","ALLEY":" ","HOUSE_NO":"８號","E_COORD97":171669.89999999999,"N_COORD97":2549402.4100000001,"ADDRESS":"\u25A0洲二街１５３巷８號","OBJECTID":235021},"geometry":{"x":171669.9000000013,"y":2549402.4100000039}},{"attributes":{"ID":235026,"DIS_CODE":0,"TOWNNAME":"永康區","LI":"西灣里","LIN":"38鄰","STREET":"大勇路","SECT":" ","MAREA":" ","LANE":"１３５巷","ALLEY":" ","HOUSE_NO":"１３號","E_COORD97":174208.73000000001,"N_COORD97":2545627.8599999999,"ADDRESS":"大勇路１３５巷１３號","OBJECTID":235022},"geometry":{"x":174208.73000000138,"y":2545627.8599999994}},{"attributes":{"ID":235027,"DIS_CODE":0,"TOWNNAME":"永康區","LI":"崑山里","LIN":"18鄰","STREET":"大灣路","SECT":" ","MAREA":" ","LANE":"８９６巷","ALLEY":" ","HOUSE_NO":"１６號","E_COORD97":173751.48999999999,"N_COORD97":2544499.8399999999,"ADDRESS":"大灣路８９６巷１６號","OBJECTID":235023},"geometry":{"x":173751.49000000022,"y":2544499.8400000036}},{"attributes":{"ID":235028,"DIS_CODE":0,"TOWNNAME":"東區","LI":"富強里","LIN":"18鄰","STREET":"東門路","SECT":"二段","MAREA":" ","LANE":"３０１巷","ALLEY":" ","HOUSE_NO":"１０３號","E_COORD97":171005.25,"N_COORD97":2542737.1499999999,"ADDRESS":"東門路二段３０１巷１０３號","OBJECTID":235024},"geometry":{"x":171005.25000000186,"y":2542737.1500000004}},{"attributes":{"ID":235029,"DIS_CODE":0,"TOWNNAME":"東區","LI":"富強里","LIN":"18鄰","STREET":"東門路","SECT":"二段","MAREA":" ","LANE":"３０１巷","ALLEY":" ","HOUSE_NO":"１０１號","E_COORD97":171000.38,"N_COORD97":2542736.4500000002,"ADDRESS":"東門路二段３０１巷１０１號","OBJECTID":235025},"geometry":{"x":171000.37999999989,"y":2542736.4500000011}},{"attributes":{"ID":235030,"DIS_CODE":0,"TOWNNAME":"安南區","LI":"佃東里","LIN":"18鄰","STREET":"公學路","SECT":"四段","MAREA":" ","LANE":"２巷","ALLEY":" ","HOUSE_NO":"４７號","E_COORD97":165992.98999999999,"N_COORD97":2552194.5,"ADDRESS":"公學路四段２巷４７號","OBJECTID":235026},"geometry":{"x":165992.99000000209,"y":2552194.5}},{"attributes":{"ID":235031,"DIS_CODE":0,"TOWNNAME":"永康區","LI":"\u25A0洲里","LIN":"25鄰","STREET":"中正南路","SECT":" ","MAREA":" ","LANE":"４５３巷","ALLEY":" ","HOUSE_NO":"３１號","E_COORD97":170710.73999999999,"N_COORD97":2548182.1400000001,"ADDRESS":"中正南路４５３巷３１號","OBJECTID":235027},"geometry":{"x":170710.74000000209,"y":2548182.1400000025}},{"attributes":{"ID":235032,"DIS_CODE":0,"TOWNNAME":"東區","LI":"大同里","LIN":"18鄰","STREET":"府連路","SECT":" ","MAREA":" ","LANE":"２０４巷","ALLEY":" ","HOUSE_NO":"２５號之１","E_COORD97":169330.70000000001,"N_COORD97":2542767,"ADDRESS":"府連路２０４巷２５號之１","OBJECTID":235028},"geometry":{"x":169330.70000000019,"y":2542767.0000000019}},{"attributes":{"ID":235033,"DIS_CODE":0,"TOWNNAME":"南區","LI":"鯤鯓里","LIN":"18鄰","STREET":"鯤鯓路","SECT":" ","MAREA":" ","LANE":"１０２巷","ALLEY":" ","HOUSE_NO":"５７號","E_COORD97":165098.67000000001,"N_COORD97":2540260.7599999998,"ADDRESS":"鯤鯓路１０２巷５７號","OBJECTID":235029},"geometry":{"x":165098.67000000086,"y":2540260.7599999998}},{"attributes":{"ID":235034,"DIS_CODE":0,"TOWNNAME":"南區","LI":"文南里","LIN":"14鄰","STREET":"永南二街","SECT":" ","MAREA":" ","LANE":" ","ALLEY":" ","HOUSE_NO":"１４號三樓之５","E_COORD97":166790.67000000001,"N_COORD97":2542630.6200000001,"ADDRESS":"永南二街１４號三樓之５","OBJECTID":235030},"geometry":{"x":166790.66999999993,"y":2542630.620000001}},{"attributes":{"ID":235035,"DIS_CODE":0,"TOWNNAME":"南區","LI":"文南里","LIN":"14鄰","STREET":"永南二街","SECT":" ","MAREA":" ","LANE":" ","ALLEY":" ","HOUSE_NO":"１４號五樓之１","E_COORD97":166790.67000000001,"N_COORD97":2542630.6200000001,"ADDRESS":"永南二街１４號五樓之１","OBJECTID":235031},"geometry":{"x":166790.66999999993,"y":2542630.620000001}},{"attributes":{"ID":235036,"DIS_CODE":0,"TOWNNAME":"南區","LI":"文南里","LIN":"14鄰","STREET":"永南二街","SECT":" ","MAREA":" ","LANE":" ","ALLEY":" ","HOUSE_NO":"１４號五樓之２","E_COORD97":166790.67000000001,"N_COORD97":2542630.6200000001,"ADDRESS":"永南二街１４號五樓之２","OBJECTID":235032},"geometry":{"x":166790.66999999993,"y":2542630.620000001}},{"attributes":{"ID":235037,"DIS_CODE":0,"TOWNNAME":"南區","LI":"文南里","LIN":"14鄰","STREET":"永南二街","SECT":" ","MAREA":" ","LANE":" ","ALLEY":" ","HOUSE_NO":"１４號五樓之３","E_COORD97":166790.67000000001,"N_COORD97":2542630.6200000001,"ADDRESS":"永南二街１４號五樓之３","OBJECTID":235033},"geometry":{"x":166790.66999999993,"y":2542630.620000001}},{"attributes":{"ID":235038,"DIS_CODE":0,"TOWNNAME":"南區","LI":"文南里","LIN":"14鄰","STREET":"永南二街","SECT":" ","MAREA":" ","LANE":" ","ALLEY":" ","HOUSE_NO":"１４號五樓之４","E_COORD97":166790.67000000001,"N_COORD97":2542630.6200000001,"ADDRESS":"永南二街１４號五樓之４","OBJECTID":235034},"geometry":{"x":166790.66999999993,"y":2542630.620000001}},{"attributes":{"ID":235039,"DIS_CODE":0,"TOWNNAME":"南區","LI":"文南里","LIN":"14鄰","STREET":"永南二街","SECT":" ","MAREA":" ","LANE":" ","ALLEY":" ","HOUSE_NO":"１４號五樓之５","E_COORD97":166790.67000000001,"N_COORD97":2542630.6200000001,"ADDRESS":"永南二街１４號五樓之５","OBJECTID":235035},"geometry":{"x":166790.66999999993,"y":2542630.620000001}},{"attributes":{"ID":235040,"DIS_CODE":0,"TOWNNAME":"安南區","LI":"大安里","LIN":"16鄰","STREET":"義安街","SECT":" ","MAREA":" ","LANE":"１２８巷","ALLEY":" ","HOUSE_NO":"２號","E_COORD97":167518.016454,"N_COORD97":2548131.2902700002,"ADDRESS":"義安街１２８巷２號","OBJECTID":235036},"geometry":{"x":167518.01645400003,"y":2548131.2902710009}},{"attributes":{"ID":235041,"DIS_CODE":0,"TOWNNAME":"北區","LI":"文元里","LIN":"16鄰","STREET":"文賢路","SECT":" ","MAREA":" ","LANE":"１０３０巷","ALLEY":" ","HOUSE_NO":"７號","E_COORD97":167435.72,"N_COORD97":2546079.7799999998,"ADDRESS":"文賢路１０３０巷７號","OBJECTID":235037},"geometry":{"x":167435.72000000067,"y":2546079.7800000031}},{"attributes":{"ID":235042,"DIS_CODE":0,"TOWNNAME":"北區","LI":"文元里","LIN":"16鄰","STREET":"文賢路","SECT":" ","MAREA":" ","LANE":"１０３０巷","ALLEY":" ","HOUSE_NO":"１５號","E_COORD97":167459.64000000001,"N_COORD97":2546083.2799999998,"ADDRESS":"文賢路１０３０巷１５號","OBJECTID":235038},"geometry":{"x":167459.6400000006,"y":2546083.2800000012}},{"attributes":{"ID":235043,"DIS_CODE":0,"TOWNNAME":"北區","LI":"文元里","LIN":"16鄰","STREET":"文賢路","SECT":" ","MAREA":" ","LANE":"１０３０巷","ALLEY":" ","HOUSE_NO":"１７號","E_COORD97":167464.57000000001,"N_COORD97":2546081.3700000001,"ADDRESS":"文賢路１０３０巷１７號","OBJECTID":235039},"geometry":{"x":167464.57000000123,"y":2546081.3700000029}},{"attributes":{"ID":235044,"DIS_CODE":0,"TOWNNAME":"北區","LI":"文元里","LIN":"16鄰","STREET":"文賢路","SECT":" ","MAREA":" ","LANE":"１０８０巷","ALLEY":" ","HOUSE_NO":"４２號","E_COORD97":167531.48000000001,"N_COORD97":2546216.96,"ADDRESS":"文賢路１０８０巷４２號","OBJECTID":235040},"geometry":{"x":167531.48000000138,"y":2546216.9600000028}},{"attributes":{"ID":235045,"DIS_CODE":0,"TOWNNAME":"北區","LI":"文成里","LIN":"16鄰","STREET":"文賢路","SECT":" ","MAREA":" ","LANE":"２４２巷","ALLEY":" ","HOUSE_NO":"６４號","E_COORD97":167519.62,"N_COORD97":2545049.4399999999,"ADDRESS":"文賢路２４２巷６４號","OBJECTID":235041},"geometry":{"x":167519.62000000104,"y":2545049.4400000013}},{"attributes":{"ID":235046,"DIS_CODE":0,"TOWNNAME":"南區","LI":"鯤鯓里","LIN":"18鄰","STREET":"鯤鯓路","SECT":" ","MAREA":" ","LANE":"１０２巷","ALLEY":" ","HOUSE_NO":"５７號之１","E_COORD97":165097.70000000001,"N_COORD97":2540264.98,"ADDRESS":"鯤鯓路１０２巷５７號之１","OBJECTID":235042},"geometry":{"x":165097.70000000019,"y":2540264.9800000042}},{"attributes":{"ID":235047,"DIS_CODE":0,"TOWNNAME":"南區","LI":"鯤鯓里","LIN":"18鄰","STREET":"鯤鯓路","SECT":" ","MAREA":" ","LANE":"１０２巷","ALLEY":" ","HOUSE_NO":"５９號","E_COORD97":165099.14999999999,"N_COORD97":2540274.52,"ADDRESS":"鯤鯓路１０２巷５９號","OBJECTID":235043},"geometry":{"x":165099.1500000013,"y":2540274.5200000014}},{"attributes":{"ID":235048,"DIS_CODE":0,"TOWNNAME":"永康區","LI":"五王里","LIN":"18鄰","STREET":"成功路","SECT":" ","MAREA":" ","LANE":"１８８巷","ALLEY":" ","HOUSE_NO":"２號六樓之８","E_COORD97":171441.01000000001,"N_COORD97":2545664.04,"ADDRESS":"成功路１８８巷２號六樓之８","OBJECTID":235044},"geometry":{"x":171441.01000000071,"y":2545664.0400000028}},{"attributes":{"ID":235049,"DIS_CODE":0,"TOWNNAME":"東區","LI":"新東里","LIN":"18鄰","STREET":"裕豐街","SECT":" ","MAREA":" ","LANE":"１８５巷","ALLEY":" ","HOUSE_NO":"５號","E_COORD97":170759.81,"N_COORD97":2543190.9300000002,"ADDRESS":"裕豐街１８５巷５號","OBJECTID":235045},"geometry":{"x":170759.80999999959,"y":2543190.9300000016}},{"attributes":{"ID":235050,"DIS_CODE":0,"TOWNNAME":"北區","LI":"文元里","LIN":"26鄰","STREET":"文賢三街","SECT":" ","MAREA":" ","LANE":"２６５巷","ALLEY":" ","HOUSE_NO":"２６號","E_COORD97":167762.79000000001,"N_COORD97":2546138.8199999998,"ADDRESS":"文賢三街２６５巷２６號","OBJECTID":235046},"geometry":{"x":167762.79000000097,"y":2546138.8200000022}},{"attributes":{"ID":235051,"DIS_CODE":0,"TOWNNAME":"新營區","LI":"土庫里","LIN":"16鄰","STREET":" ","SECT":" ","MAREA":"卯舍","LANE":" ","ALLEY":" ","HOUSE_NO":"１２之１１號","E_COORD97":181732.10999999999,"N_COORD97":2580105.1600000001,"ADDRESS":"卯舍１２之１１號","OBJECTID":235047},"geometry":{"x":181732.1100000022,"y":2580105.160000002}},{"attributes":{"ID":235052,"DIS_CODE":0,"TOWNNAME":"北區","LI":"文元里","LIN":"26鄰","STREET":"文賢三街","SECT":" ","MAREA":" ","LANE":"２６５巷","ALLEY":" ","HOUSE_NO":"２８號","E_COORD97":167759.29999999999,"N_COORD97":2546138.8199999998,"ADDRESS":"文賢三街２６５巷２８號","OBJECTID":235048},"geometry":{"x":167759.30000000075,"y":2546138.8200000022}},{"attributes":{"ID":235053,"DIS_CODE":0,"TOWNNAME":"北區","LI":"文元里","LIN":"26鄰","STREET":"文賢三街","SECT":" ","MAREA":" ","LANE":"２６５巷","ALLEY":" ","HOUSE_NO":"３０號","E_COORD97":167755.32999999999,"N_COORD97":2546138.6600000001,"ADDRESS":"文賢三街２６５巷３０號","OBJECTID":235049},"geometry":{"x":167755.33000000101,"y":2546138.6599999983}},{"attributes":{"ID":235054,"DIS_CODE":0,"TOWNNAME":"安南區","LI":"幸福里","LIN":"20鄰","STREET":"國安街","SECT":" ","MAREA":" ","LANE":"９巷","ALLEY":" ","HOUSE_NO":"１６號","E_COORD97":167114.26000000001,"N_COORD97":2546965.9900000002,"ADDRESS":"國安街９巷１６號","OBJECTID":235050},"geometry":{"x":167114.25999999978,"y":2546965.9900000002}},{"attributes":{"ID":235055,"DIS_CODE":0,"TOWNNAME":"新營區","LI":"太南里","LIN":"16鄰","STREET":" ","SECT":" ","MAREA":"太子宮","LANE":" ","ALLEY":" ","HOUSE_NO":"３０５之３５號","E_COORD97":175946.19,"N_COORD97":2576725.3300000001,"ADDRESS":"太子宮３０５之３５號","OBJECTID":235051},"geometry":{"x":175946.19000000134,"y":2576725.3300000001}},{"attributes":{"ID":235056,"DIS_CODE":0,"TOWNNAME":"安南區","LI":"安富里","LIN":"20鄰","STREET":"郡安路","SECT":"五段","MAREA":" ","LANE":"１５３巷","ALLEY":" ","HOUSE_NO":"８６號","E_COORD97":167770.48999999999,"N_COORD97":2547504.1299999999,"ADDRESS":"郡安路五段１５３巷８６號","OBJECTID":235052},"geometry":{"x":167770.49000000022,"y":2547504.1300000027}},{"attributes":{"ID":235057,"DIS_CODE":0,"TOWNNAME":"南區","LI":"文南里","LIN":"14鄰","STREET":"永南二街","SECT":" ","MAREA":" ","LANE":" ","ALLEY":" ","HOUSE_NO":"１４號六樓之１","E_COORD97":166790.67000000001,"N_COORD97":2542630.6200000001,"ADDRESS":"永南二街１４號六樓之１","OBJECTID":235053},"geometry":{"x":166790.66999999993,"y":2542630.620000001}},{"attributes":{"ID":235058,"DIS_CODE":0,"TOWNNAME":"南區","LI":"文南里","LIN":"14鄰","STREET":"永南二街","SECT":" ","MAREA":" ","LANE":" ","ALLEY":" ","HOUSE_NO":"１４號六樓之２","E_COORD97":166790.67000000001,"N_COORD97":2542630.6200000001,"ADDRESS":"永南二街１４號六樓之２","OBJECTID":235054},"geometry":{"x":166790.66999999993,"y":2542630.620000001}},{"attributes":{"ID":235059,"DIS_CODE":0,"TOWNNAME":"新營區","LI":"太南里","LIN":"16鄰","STREET":" ","SECT":" ","MAREA":"太子宮","LANE":" ","ALLEY":" ","HOUSE_NO":"３０５之３６號","E_COORD97":175944.17000000001,"N_COORD97":2576729.7599999998,"ADDRESS":"太子宮３０５之３６號","OBJECTID":235055},"geometry":{"x":175944.17000000086,"y":2576729.7600000016}},{"attributes":{"ID":235060,"DIS_CODE":0,"TOWNNAME":"南區","LI":"文南里","LIN":"14鄰","STREET":"永南二街","SECT":" ","MAREA":" ","LANE":" ","ALLEY":" ","HOUSE_NO":"１４號六樓之３","E_COORD97":166790.67000000001,"N_COORD97":2542630.6200000001,"ADDRESS":"永南二街１４號六樓之３","OBJECTID":235056},"geometry":{"x":166790.66999999993,"y":2542630.620000001}},{"attributes":{"ID":235061,"DIS_CODE":0,"TOWNNAME":"南區","LI":"文南里","LIN":"14鄰","STREET":"永南二街","SECT":" ","MAREA":" ","LANE":" ","ALLEY":" ","HOUSE_NO":"１４號六樓之４","E_COORD97":166790.67000000001,"N_COORD97":2542630.6200000001,"ADDRESS":"永南二街１４號六樓之４","OBJECTID":235057},"geometry":{"x":166790.66999999993,"y":2542630.620000001}},{"attributes":{"ID":235062,"DIS_CODE":0,"TOWNNAME":"南區","LI":"文南里","LIN":"14鄰","STREET":"永南二街","SECT":" ","MAREA":" ","LANE":" ","ALLEY":" ","HOUSE_NO":"１４號六樓之５","E_COORD97":166790.67000000001,"N_COORD97":2542630.6200000001,"ADDRESS":"永南二街１４號六樓之５","OBJECTID":235058},"geometry":{"x":166790.66999999993,"y":2542630.620000001}},{"attributes":{"ID":235063,"DIS_CODE":0,"TOWNNAME":"楠西區","LI":"楠西里","LIN":"16鄰","STREET":"中正路","SECT":" ","MAREA":" ","LANE":" ","ALLEY":" ","HOUSE_NO":"５９號","E_COORD97":197200.31,"N_COORD97":2564055.25,"ADDRESS":"中正路５９號","OBJECTID":235059},"geometry":{"x":197200.31000000145,"y":2564055.25}},{"attributes":{"ID":235064,"DIS_CODE":0,"TOWNNAME":"新營區","LI":"土庫里","LIN":"16鄰","STREET":" ","SECT":" ","MAREA":"卯舍","LANE":" ","ALLEY":" ","HOUSE_NO":"１２之２８號","E_COORD97":181729.10999999999,"N_COORD97":2580118.46,"ADDRESS":"卯舍１２之２８號","OBJECTID":235060},"geometry":{"x":181729.11000000127,"y":2580118.4600000009}},{"attributes":{"ID":235065,"DIS_CODE":0,"TOWNNAME":"新營區","LI":"土庫里","LIN":"16鄰","STREET":" ","SECT":" ","MAREA":"卯舍","LANE":" ","ALLEY":" ","HOUSE_NO":"１２之６號","E_COORD97":181750.32999999999,"N_COORD97":2580111.71,"ADDRESS":"卯舍１２之６號","OBJECTID":235061},"geometry":{"x":181750.33000000007,"y":2580111.7100000028}},{"attributes":{"ID":235066,"DIS_CODE":0,"TOWNNAME":"新營區","LI":"土庫里","LIN":"16鄰","STREET":" ","SECT":" ","MAREA":"卯舍","LANE":" ","ALLEY":" ","HOUSE_NO":"１２之１６號","E_COORD97":181707.54000000001,"N_COORD97":2580098.6299999999,"ADDRESS":"卯舍１２之１６號","OBJECTID":235062},"geometry":{"x":181707.54000000097,"y":2580098.629999999}},{"attributes":{"ID":235067,"DIS_CODE":0,"TOWNNAME":"新營區","LI":"土庫里","LIN":"16鄰","STREET":" ","SECT":" ","MAREA":"卯舍","LANE":" ","ALLEY":" ","HOUSE_NO":"１２之１５號","E_COORD97":181712.66,"N_COORD97":2580099.71,"ADDRESS":"卯舍１２之１５號","OBJECTID":235063},"geometry":{"x":181712.66000000015,"y":2580099.7100000009}},{"attributes":{"ID":235068,"DIS_CODE":0,"TOWNNAME":"新營區","LI":"土庫里","LIN":"16鄰","STREET":" ","SECT":" ","MAREA":"卯舍","LANE":" ","ALLEY":" ","HOUSE_NO":"１２之５號","E_COORD97":181755.44,"N_COORD97":2580110.5800000001,"ADDRESS":"卯舍１２之５號","OBJECTID":235064},"geometry":{"x":181755.44000000227,"y":2580110.5800000001}},{"attributes":{"ID":235069,"DIS_CODE":0,"TOWNNAME":"新營區","LI":"土庫里","LIN":"16鄰","STREET":" ","SECT":" ","MAREA":"卯舍","LANE":" ","ALLEY":" ","HOUSE_NO":"１２之８號","E_COORD97":181743.16,"N_COORD97":2580110.6400000001,"ADDRESS":"卯舍１２之８號","OBJECTID":235065},"geometry":{"x":181743.16000000015,"y":2580110.6400000006}},{"attributes":{"ID":235070,"DIS_CODE":0,"TOWNNAME":"北區","LI":"大港里","LIN":"26鄰","STREET":"賢北街","SECT":" ","MAREA":" ","LANE":"１７０巷","ALLEY":" ","HOUSE_NO":"２１號","E_COORD97":166226.84,"N_COORD97":2545712.9700000002,"ADDRESS":"賢北街１７０巷２１號","OBJECTID":235066},"geometry":{"x":166226.83999999985,"y":2545712.9700000007}},{"attributes":{"ID":235071,"DIS_CODE":0,"TOWNNAME":"新營區","LI":"新東里","LIN":"26鄰","STREET":"東興五街","SECT":" ","MAREA":" ","LANE":"２１巷","ALLEY":" ","HOUSE_NO":"５２號","E_COORD97":180640.37,"N_COORD97":2579468.0499999998,"ADDRESS":"東興五街２１巷５２號","OBJECTID":235067},"geometry":{"x":180640.37000000104,"y":2579468.0500000026}},{"attributes":{"ID":235072,"DIS_CODE":0,"TOWNNAME":"新營區","LI":"土庫里","LIN":"16鄰","STREET":" ","SECT":" ","MAREA":"卯舍","LANE":" ","ALLEY":" ","HOUSE_NO":"１２之２７號","E_COORD97":181733.20999999999,"N_COORD97":2580120.6600000001,"ADDRESS":"卯舍１２之２７號","OBJECTID":235068},"geometry":{"x":181733.21000000089,"y":2580120.6600000039}},{"attributes":{"ID":235073,"DIS_CODE":0,"TOWNNAME":"新營區","LI":"新東里","LIN":"26鄰","STREET":"東興五街","SECT":" ","MAREA":" ","LANE":"２１巷","ALLEY":" ","HOUSE_NO":"５６號","E_COORD97":180635.28,"N_COORD97":2579468.23,"ADDRESS":"東興五街２１巷５６號","OBJECTID":235069},"geometry":{"x":180635.28000000026,"y":2579468.2300000004}},{"attributes":{"ID":235074,"DIS_CODE":0,"TOWNNAME":"新營區","LI":"土庫里","LIN":"16鄰","STREET":" ","SECT":" ","MAREA":"卯舍","LANE":" ","ALLEY":" ","HOUSE_NO":"１２之１８號","E_COORD97":181770.07000000001,"N_COORD97":2580129.3500000001,"ADDRESS":"卯舍１２之１８號","OBJECTID":235070},"geometry":{"x":181770.07000000123,"y":2580129.3500000015}},{"attributes":{"ID":235075,"DIS_CODE":0,"TOWNNAME":"新營區","LI":"土庫里","LIN":"16鄰","STREET":" ","SECT":" ","MAREA":"卯舍","LANE":" ","ALLEY":" ","HOUSE_NO":"５之２號","E_COORD97":181981.09,"N_COORD97":2580103.4300000002,"ADDRESS":"卯舍５之２號","OBJECTID":235071},"geometry":{"x":181981.09000000078,"y":2580103.4299999997}},{"attributes":{"ID":235076,"DIS_CODE":0,"TOWNNAME":"楠西區","LI":"照興里","LIN":"16鄰","STREET":" ","SECT":" ","MAREA":"興南","LANE":" ","ALLEY":" ","HOUSE_NO":"７２號","E_COORD97":195591.37,"N_COORD97":2565376.25,"ADDRESS":"興南７２號","OBJECTID":235072},"geometry":{"x":195591.37000000011,"y":2565376.2500000019}},{"attributes":{"ID":235077,"DIS_CODE":0,"TOWNNAME":"歸仁區","LI":"武東里","LIN":"7鄰","STREET":"武東二街","SECT":" ","MAREA":" ","LANE":"４２巷","ALLEY":" ","HOUSE_NO":"２１１號","E_COORD97":176193.93661599999,"N_COORD97":2535314.0218500001,"ADDRESS":"武東二街４２巷２１１號","OBJECTID":235073},"geometry":{"x":176193.93661599979,"y":2535314.0218489971}},{"attributes":{"ID":235078,"DIS_CODE":0,"TOWNNAME":"東區","LI":"中西里","LIN":"26鄰","STREET":"東寧路","SECT":" ","MAREA":" ","LANE":"１２０巷","ALLEY":" ","HOUSE_NO":"６５號","E_COORD97":170274.13,"N_COORD97":2543493.04,"ADDRESS":"東寧路１２０巷６５號","OBJECTID":235074},"geometry":{"x":170274.13000000082,"y":2543493.0399999991}},{"attributes":{"ID":235079,"DIS_CODE":0,"TOWNNAME":"東區","LI":"中西里","LIN":"26鄰","STREET":"東寧路","SECT":" ","MAREA":" ","LANE":"１２０巷","ALLEY":" ","HOUSE_NO":"６９號之１","E_COORD97":170252.57000000001,"N_COORD97":2543488.3500000001,"ADDRESS":"東寧路１２０巷６９號之１","OBJECTID":235075},"geometry":{"x":170252.57000000216,"y":2543488.3499999996}},{"attributes":{"ID":235080,"DIS_CODE":0,"TOWNNAME":"東區","LI":"裕農里","LIN":"26鄰","STREET":"東寧路","SECT":" ","MAREA":" ","LANE":"４２８巷","ALLEY":" ","HOUSE_NO":"１１號","E_COORD97":170971.51000000001,"N_COORD97":2543295.27,"ADDRESS":"東寧路４２８巷１１號","OBJECTID":235076},"geometry":{"x":170971.51000000071,"y":2543295.2699999996}},{"attributes":{"ID":235081,"DIS_CODE":0,"TOWNNAME":"新營區","LI":"新東里","LIN":"26鄰","STREET":"東興五街","SECT":" ","MAREA":" ","LANE":"２１巷","ALLEY":" ","HOUSE_NO":"４７號三樓","E_COORD97":180602.85000000001,"N_COORD97":2579450.3300000001,"ADDRESS":"東興五街２１巷４７號三樓","OBJECTID":235077},"geometry":{"x":180602.85000000056,"y":2579450.3300000001}},{"attributes":{"ID":235082,"DIS_CODE":0,"TOWNNAME":"永康區","LI":"復華里","LIN":"25鄰","STREET":"復華八街","SECT":" ","MAREA":" ","LANE":"４７巷","ALLEY":" ","HOUSE_NO":"１８號","E_COORD97":172748.73000000001,"N_COORD97":2546385.02,"ADDRESS":"復華八街４７巷１８號","OBJECTID":235078},"geometry":{"x":172748.73000000138,"y":2546385.0200000014}},{"attributes":{"ID":235083,"DIS_CODE":0,"TOWNNAME":"楠西區","LI":"灣丘里","LIN":"16鄰","STREET":" ","SECT":" ","MAREA":"鳳興","LANE":" ","ALLEY":" ","HOUSE_NO":"３９號","E_COORD97":198830.67000000001,"N_COORD97":2562780.25,"ADDRESS":"鳳興３９號","OBJECTID":235079},"geometry":{"x":198830.67000000179,"y":2562780.25}},{"attributes":{"ID":235084,"DIS_CODE":0,"TOWNNAME":"永康區","LI":"復國里","LIN":"25鄰","STREET":"復華三街","SECT":" ","MAREA":" ","LANE":"９０巷","ALLEY":" ","HOUSE_NO":"１８號十五樓之２","E_COORD97":172640.92999999999,"N_COORD97":2545614.2999999998,"ADDRESS":"復華三街９０巷１８號十五樓之２","OBJECTID":235080},"geometry":{"x":172640.9299999997,"y":2545614.3000000026}},{"attributes":{"ID":235085,"DIS_CODE":0,"TOWNNAME":"楠西區","LI":"照興里","LIN":"16鄰","STREET":" ","SECT":" ","MAREA":"興南","LANE":" ","ALLEY":" ","HOUSE_NO":"７９號之１２","E_COORD97":195954.89000000001,"N_COORD97":2565019.2999999998,"ADDRESS":"興南７９號之１２","OBJECTID":235081},"geometry":{"x":195954.88999999966,"y":2565019.3000000007}},{"attributes":{"ID":235086,"DIS_CODE":0,"TOWNNAME":"東山區","LI":"青山里","LIN":"16鄰","STREET":" ","SECT":" ","MAREA":"青山","LANE":" ","ALLEY":" ","HOUSE_NO":"４２號","E_COORD97":195649.51000000001,"N_COORD97":2575319.6699999999,"ADDRESS":"青山４２號","OBJECTID":235082},"geometry":{"x":195649.50999999885,"y":2575319.6700000037}},{"attributes":{"ID":235087,"DIS_CODE":0,"TOWNNAME":"永康區","LI":"復國里","LIN":"25鄰","STREET":"復華三街","SECT":" ","MAREA":" ","LANE":"９０巷","ALLEY":" ","HOUSE_NO":"１８號八樓之３","E_COORD97":172639.64000000001,"N_COORD97":2545614.2999999998,"ADDRESS":"復華三街９０巷１８號八樓之３","OBJECTID":235083},"geometry":{"x":172639.63999999966,"y":2545614.3000000026}},{"attributes":{"ID":235088,"DIS_CODE":0,"TOWNNAME":"東山區","LI":"青山里","LIN":"16鄰","STREET":" ","SECT":" ","MAREA":"青山","LANE":" ","ALLEY":" ","HOUSE_NO":"４３號","E_COORD97":195638.07999999999,"N_COORD97":2575299.1800000002,"ADDRESS":"青山４３號","OBJECTID":235084},"geometry":{"x":195638.08000000101,"y":2575299.1800000034}},{"attributes":{"ID":235089,"DIS_CODE":0,"TOWNNAME":"東山區","LI":"青山里","LIN":"16鄰","STREET":" ","SECT":" ","MAREA":"青山","LANE":" ","ALLEY":" ","HOUSE_NO":"４４號","E_COORD97":195615.13,"N_COORD97":2575274.3599999999,"ADDRESS":"青山４４號","OBJECTID":235085},"geometry":{"x":195615.13000000175,"y":2575274.3600000013}},{"attributes":{"ID":235090,"DIS_CODE":0,"TOWNNAME":"永康區","LI":"龍潭里","LIN":"39鄰","STREET":"永明街","SECT":" ","MAREA":" ","LANE":"２３１巷","ALLEY":" ","HOUSE_NO":"６６號","E_COORD97":174584.37,"N_COORD97":2547363.3500000001,"ADDRESS":"永明街２３１巷６６號","OBJECTID":235086},"geometry":{"x":174584.37000000011,"y":2547363.3499999996}},{"attributes":{"ID":235091,"DIS_CODE":0,"TOWNNAME":"東山區","LI":"青山里","LIN":"16鄰","STREET":" ","SECT":" ","MAREA":"青山","LANE":" ","ALLEY":" ","HOUSE_NO":"４５號之１０","E_COORD97":195546.38,"N_COORD97":2575254.9300000002,"ADDRESS":"青山４５號之１０","OBJECTID":235087},"geometry":{"x":195546.38000000082,"y":2575254.9299999997}},{"attributes":{"ID":235092,"DIS_CODE":0,"TOWNNAME":"東山區","LI":"青山里","LIN":"16鄰","STREET":" ","SECT":" ","MAREA":"青山","LANE":" ","ALLEY":" ","HOUSE_NO":"４５號之１２","E_COORD97":195546.51000000001,"N_COORD97":2575295.0800000001,"ADDRESS":"青山４５號之１２","OBJECTID":235088},"geometry":{"x":195546.51000000071,"y":2575295.0800000001}},{"attributes":{"ID":235093,"DIS_CODE":0,"TOWNNAME":"安南區","LI":"安慶里","LIN":"32鄰","STREET":"頂安街","SECT":" ","MAREA":" ","LANE":"４７９巷","ALLEY":" ","HOUSE_NO":"１７號","E_COORD97":168809.53,"N_COORD97":2549259.3199999998,"ADDRESS":"頂安街４７９巷１７號","OBJECTID":235089},"geometry":{"x":168809.53000000026,"y":2549259.3200000003}},{"attributes":{"ID":235094,"DIS_CODE":0,"TOWNNAME":"新化區","LI":"全興里","LIN":"16鄰","STREET":" ","SECT":" ","MAREA":"竹子\u25A0","LANE":" ","ALLEY":" ","HOUSE_NO":"２４７號之５１９","E_COORD97":178227.57999999999,"N_COORD97":2546666.2599999998,"ADDRESS":"竹子\u25A0２４７號之５１９","OBJECTID":235090},"geometry":{"x":178227.58000000007,"y":2546666.2599999998}},{"attributes":{"ID":235095,"DIS_CODE":0,"TOWNNAME":"新化區","LI":"知義里","LIN":"16鄰","STREET":" ","SECT":" ","MAREA":"新和庄","LANE":" ","ALLEY":" ","HOUSE_NO":"８號之１２","E_COORD97":181219.59,"N_COORD97":2547030.2599999998,"ADDRESS":"新和庄８號之１２","OBJECTID":235091},"geometry":{"x":181219.58999999892,"y":2547030.2600000016}},{"attributes":{"ID":235096,"DIS_CODE":0,"TOWNNAME":"新化區","LI":"全興里","LIN":"16鄰","STREET":" ","SECT":" ","MAREA":"竹子\u25A0","LANE":" ","ALLEY":" ","HOUSE_NO":"２４７號之５４８","E_COORD97":178258.59,"N_COORD97":2546636.2599999998,"ADDRESS":"竹子\u25A0２４７號之５４８","OBJECTID":235092},"geometry":{"x":178258.59000000078,"y":2546636.2600000035}},{"attributes":{"ID":235097,"DIS_CODE":0,"TOWNNAME":"仁德區","LI":"新田里","LIN":"4鄰","STREET":"勝利一街","SECT":" ","MAREA":" ","LANE":"５８巷","ALLEY":" ","HOUSE_NO":"１０號","E_COORD97":173958.03197400001,"N_COORD97":2539314.2608599998,"ADDRESS":"勝利一街５８巷１０號","OBJECTID":235093},"geometry":{"x":173958.03197400086,"y":2539314.2608560026}},{"attributes":{"ID":235098,"DIS_CODE":0,"TOWNNAME":"北區","LI":"成德里","LIN":"32鄰","STREET":"文成二路","SECT":" ","MAREA":" ","LANE":"１１巷","ALLEY":" ","HOUSE_NO":"８號","E_COORD97":168769.57999999999,"N_COORD97":2546139.5099999998,"ADDRESS":"文成二路１１巷８號","OBJECTID":235094},"geometry":{"x":168769.58000000101,"y":2546139.5100000035}},{"attributes":{"ID":235099,"DIS_CODE":0,"TOWNNAME":"南區","LI":"開南里","LIN":"18鄰","STREET":"\u25A0埕路","SECT":" ","MAREA":" ","LANE":"１５９巷","ALLEY":" ","HOUSE_NO":"３號五樓之１","E_COORD97":166627.39999999999,"N_COORD97":2541119.1600000001,"ADDRESS":"\u25A0埕路１５９巷３號五樓之１","OBJECTID":235095},"geometry":{"x":166627.40000000037,"y":2541119.160000002}},{"attributes":{"ID":235100,"DIS_CODE":0,"TOWNNAME":"新化區","LI":"全興里","LIN":"16鄰","STREET":" ","SECT":" ","MAREA":"竹子\u25A0","LANE":" ","ALLEY":" ","HOUSE_NO":"２４７號之６６１","E_COORD97":178241.56,"N_COORD97":2546609.2599999998,"ADDRESS":"竹子\u25A0２４７號之６６１","OBJECTID":235096},"geometry":{"x":178241.56000000052,"y":2546609.2600000035}},{"attributes":{"ID":235101,"DIS_CODE":0,"TOWNNAME":"南區","LI":"開南里","LIN":"18鄰","STREET":"\u25A0埕路","SECT":" ","MAREA":" ","LANE":"１５９巷","ALLEY":" ","HOUSE_NO":"３號五樓之２","E_COORD97":166627.39999999999,"N_COORD97":2541119.1600000001,"ADDRESS":"\u25A0埕路１５９巷３號五樓之２","OBJECTID":235097},"geometry":{"x":166627.40000000037,"y":2541119.160000002}},{"attributes":{"ID":235102,"DIS_CODE":0,"TOWNNAME":"佳里區","LI":"安西里","LIN":"42鄰","STREET":"安西路","SECT":" ","MAREA":" ","LANE":"９３巷","ALLEY":" ","HOUSE_NO":"６號","E_COORD97":165075.04000000001,"N_COORD97":2562395.0299999998,"ADDRESS":"安西路９３巷６號","OBJECTID":235098},"geometry":{"x":165075.04000000004,"y":2562395.0299999993}},{"attributes":{"ID":235103,"DIS_CODE":0,"TOWNNAME":"佳里區","LI":"安西里","LIN":"46鄰","STREET":"文化路","SECT":" ","MAREA":" ","LANE":"６４１巷","ALLEY":" ","HOUSE_NO":"５號","E_COORD97":164553.73999999999,"N_COORD97":2562529.4199999999,"ADDRESS":"文化路６４１巷５號","OBJECTID":235099},"geometry":{"x":164553.74000000209,"y":2562529.4200000037}},{"attributes":{"ID":235104,"DIS_CODE":0,"TOWNNAME":"仁德區","LI":"仁義里","LIN":"46鄰","STREET":"仁義路","SECT":" ","MAREA":" ","LANE":"１２６巷","ALLEY":" ","HOUSE_NO":"５８號","E_COORD97":173677.42000000001,"N_COORD97":2540803.0099999998,"ADDRESS":"仁義路１２６巷５８號","OBJECTID":235100},"geometry":{"x":173677.42000000179,"y":2540803.0100000035}},{"attributes":{"ID":235105,"DIS_CODE":0,"TOWNNAME":"仁德區","LI":"仁義里","LIN":"46鄰","STREET":"中正路","SECT":"二段","MAREA":" ","LANE":"９９４巷","ALLEY":" ","HOUSE_NO":"６５號","E_COORD97":173663.10000000001,"N_COORD97":2540817.5299999998,"ADDRESS":"中正路二段９９４巷６５號","OBJECTID":235101},"geometry":{"x":173663.10000000056,"y":2540817.5300000012}},{"attributes":{"ID":235106,"DIS_CODE":0,"TOWNNAME":"新市區","LI":"新和里","LIN":"46鄰","STREET":"和平街","SECT":" ","MAREA":" ","LANE":"２１２巷","ALLEY":" ","HOUSE_NO":"１０號","E_COORD97":177342.29000000001,"N_COORD97":2553248.25,"ADDRESS":"和平街２１２巷１０號","OBJECTID":235102},"geometry":{"x":177342.29000000097,"y":2553248.2500000019}},{"attributes":{"ID":235107,"DIS_CODE":0,"TOWNNAME":"新化區","LI":"東榮里","LIN":"16鄰","STREET":"中興路","SECT":" ","MAREA":" ","LANE":" ","ALLEY":" ","HOUSE_NO":"７１８號","E_COORD97":179565.20999999999,"N_COORD97":2548134.25,"ADDRESS":"中興路７１８號","OBJECTID":235103},"geometry":{"x":179565.21000000089,"y":2548134.25}},{"attributes":{"ID":235108,"DIS_CODE":0,"TOWNNAME":"新化區","LI":"全興里","LIN":"16鄰","STREET":" ","SECT":" ","MAREA":"竹子\u25A0","LANE":" ","ALLEY":" ","HOUSE_NO":"２４７號之５６６","E_COORD97":178217.28,"N_COORD97":2546637.2599999998,"ADDRESS":"竹子\u25A0２４７號之５６６","OBJECTID":235104},"geometry":{"x":178217.28000000119,"y":2546637.2600000016}},{"attributes":{"ID":235109,"DIS_CODE":0,"TOWNNAME":"新化區","LI":"全興里","LIN":"16鄰","STREET":" ","SECT":" ","MAREA":"竹子\u25A0","LANE":" ","ALLEY":" ","HOUSE_NO":"２４７號之４０８","E_COORD97":178221.39000000001,"N_COORD97":2546678.2599999998,"ADDRESS":"竹子\u25A0２４７號之４０８","OBJECTID":235105},"geometry":{"x":178221.38999999966,"y":2546678.2600000016}},{"attributes":{"ID":235110,"DIS_CODE":0,"TOWNNAME":"仁德區","LI":"後壁里","LIN":"43鄰","STREET":"德崙路","SECT":" ","MAREA":" ","LANE":"２１巷","ALLEY":" ","HOUSE_NO":"８號九樓之４","E_COORD97":173297.35000000001,"N_COORD97":2538622.29,"ADDRESS":"德崙路２１巷８號九樓之４","OBJECTID":235106},"geometry":{"x":173297.34999999963,"y":2538622.2899999991}},{"attributes":{"ID":235111,"DIS_CODE":0,"TOWNNAME":"仁德區","LI":"後壁里","LIN":"43鄰","STREET":"德崙路","SECT":" ","MAREA":" ","LANE":"２１巷","ALLEY":" ","HOUSE_NO":"２號七樓之１","E_COORD97":173309.54999999999,"N_COORD97":2538624.79,"ADDRESS":"德崙路２１巷２號七樓之１","OBJECTID":235107},"geometry":{"x":173309.54999999981,"y":2538624.790000001}},{"attributes":{"ID":235112,"DIS_CODE":0,"TOWNNAME":"新化區","LI":"全興里","LIN":"16鄰","STREET":" ","SECT":" ","MAREA":"竹子\u25A0","LANE":" ","ALLEY":" ","HOUSE_NO":"２４７號之３９４","E_COORD97":178255.97,"N_COORD97":2546677.2599999998,"ADDRESS":"竹子\u25A0２４７號之３９４","OBJECTID":235108},"geometry":{"x":178255.97000000067,"y":2546677.2600000016}},{"attributes":{"ID":235113,"DIS_CODE":0,"TOWNNAME":"仁德區","LI":"後壁里","LIN":"43鄰","STREET":"德崙路","SECT":" ","MAREA":" ","LANE":"２１巷","ALLEY":" ","HOUSE_NO":"２號九樓之３","E_COORD97":173309.64999999999,"N_COORD97":2538624.79,"ADDRESS":"德崙路２１巷２號九樓之３","OBJECTID":235109},"geometry":{"x":173309.65000000037,"y":2538624.790000001}},{"attributes":{"ID":235114,"DIS_CODE":0,"TOWNNAME":"永康區","LI":"二王里","LIN":"41鄰","STREET":"中山南路","SECT":" ","MAREA":" ","LANE":"３１６巷","ALLEY":" ","HOUSE_NO":"２２號","E_COORD97":172002.13,"N_COORD97":2546124.2400000002,"ADDRESS":"中山南路３１６巷２２號","OBJECTID":235110},"geometry":{"x":172002.12999999989,"y":2546124.2400000002}},{"attributes":{"ID":235115,"DIS_CODE":0,"TOWNNAME":"新化區","LI":"全興里","LIN":"16鄰","STREET":" ","SECT":" ","MAREA":"竹子\u25A0","LANE":" ","ALLEY":" ","HOUSE_NO":"２４７號之５６４","E_COORD97":178221.97,"N_COORD97":2546637.2599999998,"ADDRESS":"竹子\u25A0２４７號之５６４","OBJECTID":235111},"geometry":{"x":178221.97000000067,"y":2546637.2600000016}},{"attributes":{"ID":235116,"DIS_CODE":0,"TOWNNAME":"新化區","LI":"全興里","LIN":"16鄰","STREET":" ","SECT":" ","MAREA":"竹子\u25A0","LANE":" ","ALLEY":" ","HOUSE_NO":"２４７號之４０４","E_COORD97":178230.57000000001,"N_COORD97":2546678.2599999998,"ADDRESS":"竹子\u25A0２４７號之４０４","OBJECTID":235112},"geometry":{"x":178230.57000000123,"y":2546678.2600000016}},{"attributes":{"ID":235117,"DIS_CODE":0,"TOWNNAME":"永康區","LI":"五王里","LIN":"41鄰","STREET":"中山南路","SECT":" ","MAREA":" ","LANE":"２６２巷","ALLEY":" ","HOUSE_NO":"２號九樓之７","E_COORD97":171549.28,"N_COORD97":2546054.6200000001,"ADDRESS":"中山南路２６２巷２號九樓之７","OBJECTID":235113},"geometry":{"x":171549.28000000026,"y":2546054.620000001}},{"attributes":{"ID":235118,"DIS_CODE":0,"TOWNNAME":"永康區","LI":"五王里","LIN":"41鄰","STREET":"中山南路","SECT":" ","MAREA":" ","LANE":"２６２巷","ALLEY":" ","HOUSE_NO":"２號十樓之６","E_COORD97":171549.29999999999,"N_COORD97":2546054.6200000001,"ADDRESS":"中山南路２６２巷２號十樓之６","OBJECTID":235114},"geometry":{"x":171549.30000000075,"y":2546054.620000001}},{"attributes":{"ID":235119,"DIS_CODE":0,"TOWNNAME":"仁德區","LI":"後壁里","LIN":"41鄰","STREET":"德善路","SECT":" ","MAREA":" ","LANE":"２７３巷","ALLEY":" ","HOUSE_NO":"１號","E_COORD97":173919.13,"N_COORD97":2538667.02,"ADDRESS":"德善路２７３巷１號","OBJECTID":235115},"geometry":{"x":173919.13000000082,"y":2538667.0200000033}},{"attributes":{"ID":235120,"DIS_CODE":0,"TOWNNAME":"北區","LI":"元寶里","LIN":"13鄰","STREET":"開元路","SECT":" ","MAREA":" ","LANE":"４８５巷","ALLEY":" ","HOUSE_NO":"２９號四樓之７","E_COORD97":170480.92000000001,"N_COORD97":2545714.0699999998,"ADDRESS":"開元路４８５巷２９號四樓之７","OBJECTID":235116},"geometry":{"x":170480.92000000086,"y":2545714.0700000022}},{"attributes":{"ID":235121,"DIS_CODE":0,"TOWNNAME":"南區","LI":"喜南里","LIN":"13鄰","STREET":"喜樹路","SECT":" ","MAREA":" ","LANE":"２５２巷","ALLEY":" ","HOUSE_NO":"１０號","E_COORD97":165664.72,"N_COORD97":2537963.5800000001,"ADDRESS":"喜樹路２５２巷１０號","OBJECTID":235117},"geometry":{"x":165664.71999999974,"y":2537963.5800000001}},{"attributes":{"ID":235122,"DIS_CODE":0,"TOWNNAME":"南區","LI":"喜南里","LIN":"13鄰","STREET":"喜樹路","SECT":" ","MAREA":" ","LANE":"２５２巷","ALLEY":" ","HOUSE_NO":"１２號","E_COORD97":165655.45000000001,"N_COORD97":2537971.3199999998,"ADDRESS":"喜樹路２５２巷１２號","OBJECTID":235118},"geometry":{"x":165655.45000000019,"y":2537971.3200000022}},{"attributes":{"ID":235123,"DIS_CODE":0,"TOWNNAME":"南區","LI":"喜南里","LIN":"13鄰","STREET":"喜樹路","SECT":" ","MAREA":" ","LANE":"２５２巷","ALLEY":" ","HOUSE_NO":"１４號","E_COORD97":165648.51000000001,"N_COORD97":2537980.6699999999,"ADDRESS":"喜樹路２５２巷１４號","OBJECTID":235119},"geometry":{"x":165648.51000000071,"y":2537980.6699999999}},{"attributes":{"ID":235124,"DIS_CODE":0,"TOWNNAME":"南區","LI":"喜南里","LIN":"13鄰","STREET":"喜樹路","SECT":" ","MAREA":" ","LANE":"２５２巷","ALLEY":" ","HOUSE_NO":"１６號","E_COORD97":165647.03,"N_COORD97":2537986.75,"ADDRESS":"喜樹路２５２巷１６號","OBJECTID":235120},"geometry":{"x":165647.03000000119,"y":2537986.75}},{"attributes":{"ID":235125,"DIS_CODE":0,"TOWNNAME":"南區","LI":"喜南里","LIN":"13鄰","STREET":"喜樹路","SECT":" ","MAREA":" ","LANE":"２５２巷","ALLEY":" ","HOUSE_NO":"２號","E_COORD97":165683.81,"N_COORD97":2537958.6699999999,"ADDRESS":"喜樹路２５２巷２號","OBJECTID":235121},"geometry":{"x":165683.81000000052,"y":2537958.6700000018}},{"attributes":{"ID":235126,"DIS_CODE":0,"TOWNNAME":"南區","LI":"喜南里","LIN":"13鄰","STREET":"喜樹路","SECT":" ","MAREA":" ","LANE":"２５２巷","ALLEY":" ","HOUSE_NO":"６號","E_COORD97":165673.66,"N_COORD97":2537954.9700000002,"ADDRESS":"喜樹路２５２巷６號","OBJECTID":235122},"geometry":{"x":165673.66000000108,"y":2537954.9700000007}},{"attributes":{"ID":235127,"DIS_CODE":0,"TOWNNAME":"南區","LI":"喜南里","LIN":"13鄰","STREET":"喜樹路","SECT":" ","MAREA":" ","LANE":"２５２巷","ALLEY":" ","HOUSE_NO":"８號","E_COORD97":165670.17000000001,"N_COORD97":2537963.1400000001,"ADDRESS":"喜樹路２５２巷８號","OBJECTID":235123},"geometry":{"x":165670.16999999993,"y":2537963.1400000025}},{"attributes":{"ID":235128,"DIS_CODE":0,"TOWNNAME":"新化區","LI":"協興里","LIN":"16鄰","STREET":"大新路","SECT":" ","MAREA":" ","LANE":" ","ALLEY":" ","HOUSE_NO":"１號","E_COORD97":178231.03,"N_COORD97":2548545.25,"ADDRESS":"大新路１號","OBJECTID":235124},"geometry":{"x":178231.03000000119,"y":2548545.2500000037}},{"attributes":{"ID":235129,"DIS_CODE":0,"TOWNNAME":"新化區","LI":"全興里","LIN":"16鄰","STREET":" ","SECT":" ","MAREA":"竹子\u25A0","LANE":" ","ALLEY":" ","HOUSE_NO":"２４７號之４０６","E_COORD97":178226.17999999999,"N_COORD97":2546678.2599999998,"ADDRESS":"竹子\u25A0２４７號之４０６","OBJECTID":235125},"geometry":{"x":178226.1799999997,"y":2546678.2600000016}},{"attributes":{"ID":235130,"DIS_CODE":0,"TOWNNAME":"南區","LI":"國宅里","LIN":"13鄰","STREET":"金華路","SECT":"二段","MAREA":" ","LANE":"３９巷","ALLEY":" ","HOUSE_NO":"６６號","E_COORD97":166866.51000000001,"N_COORD97":2542025.4900000002,"ADDRESS":"金華路二段３９巷６６號","OBJECTID":235126},"geometry":{"x":166866.50999999978,"y":2542025.4900000021}},{"attributes":{"ID":235131,"DIS_CODE":0,"TOWNNAME":"南區","LI":"大林里","LIN":"13鄰","STREET":"國民路","SECT":" ","MAREA":" ","LANE":"５１１巷","ALLEY":" ","HOUSE_NO":"４１之３號","E_COORD97":168541.23999999999,"N_COORD97":2541307.4100000001,"ADDRESS":"國民路５１１巷４１之３號","OBJECTID":235127},"geometry":{"x":168541.24000000115,"y":2541307.410000002}},{"attributes":{"ID":235132,"DIS_CODE":0,"TOWNNAME":"南區","LI":"新生里","LIN":"13鄰","STREET":"大同路","SECT":"二段","MAREA":" ","LANE":"１３６巷","ALLEY":" ","HOUSE_NO":"２號","E_COORD97":169267.26999999999,"N_COORD97":2542194.7999999998,"ADDRESS":"大同路二段１３６巷２號","OBJECTID":235128},"geometry":{"x":169267.27000000048,"y":2542194.8000000007}},{"attributes":{"ID":235133,"DIS_CODE":0,"TOWNNAME":"南區","LI":"新生里","LIN":"13鄰","STREET":"大同路","SECT":"二段","MAREA":" ","LANE":"１３６巷","ALLEY":" ","HOUSE_NO":"６號","E_COORD97":169254.98999999999,"N_COORD97":2542190.9399999999,"ADDRESS":"大同路二段１３６巷６號","OBJECTID":235129},"geometry":{"x":169254.99000000115,"y":2542190.9400000013}},{"attributes":{"ID":235134,"DIS_CODE":0,"TOWNNAME":"新化區","LI":"全興里","LIN":"16鄰","STREET":" ","SECT":" ","MAREA":"竹子\u25A0","LANE":" ","ALLEY":" ","HOUSE_NO":"２４７號之６５３","E_COORD97":178259.67999999999,"N_COORD97":2546608.2599999998,"ADDRESS":"竹子\u25A0２４７號之６５３","OBJECTID":235130},"geometry":{"x":178259.68000000063,"y":2546608.2599999998}},{"attributes":{"ID":235135,"DIS_CODE":0,"TOWNNAME":"新化區","LI":"全興里","LIN":"16鄰","STREET":" ","SECT":" ","MAREA":"竹子\u25A0","LANE":" ","ALLEY":" ","HOUSE_NO":"２４７號之４１４","E_COORD97":178208.07000000001,"N_COORD97":2546678.2599999998,"ADDRESS":"竹子\u25A0２４７號之４１４","OBJECTID":235131},"geometry":{"x":178208.07000000216,"y":2546678.2600000016}},{"attributes":{"ID":235136,"DIS_CODE":0,"TOWNNAME":"新化區","LI":"全興里","LIN":"16鄰","STREET":" ","SECT":" ","MAREA":"竹子\u25A0","LANE":" ","ALLEY":" ","HOUSE_NO":"２４７號之５０５","E_COORD97":178259.59,"N_COORD97":2546665.2599999998,"ADDRESS":"竹子\u25A0２４７號之５０５","OBJECTID":235132},"geometry":{"x":178259.58999999985,"y":2546665.2599999998}},{"attributes":{"ID":235137,"DIS_CODE":0,"TOWNNAME":"北區","LI":"仁愛里","LIN":"13鄰","STREET":"長榮路","SECT":"四段","MAREA":" ","LANE":"３１巷","ALLEY":" ","HOUSE_NO":"１０號","E_COORD97":170236.04999999999,"N_COORD97":2544912.7200000002,"ADDRESS":"長榮路四段３１巷１０號","OBJECTID":235133},"geometry":{"x":170236.04999999981,"y":2544912.7200000025}},{"attributes":{"ID":235138,"DIS_CODE":0,"TOWNNAME":"北區","LI":"仁愛里","LIN":"13鄰","STREET":"長榮路","SECT":"四段","MAREA":" ","LANE":"３１巷","ALLEY":" ","HOUSE_NO":"１２號","E_COORD97":170228.17999999999,"N_COORD97":2544915.0800000001,"ADDRESS":"長榮路四段３１巷１２號","OBJECTID":235134},"geometry":{"x":170228.18000000063,"y":2544915.0800000001}},{"attributes":{"ID":235139,"DIS_CODE":0,"TOWNNAME":"新化區","LI":"全興里","LIN":"16鄰","STREET":" ","SECT":" ","MAREA":"竹子\u25A0","LANE":" ","ALLEY":" ","HOUSE_NO":"２４７號之６６３","E_COORD97":178236.67999999999,"N_COORD97":2546609.2599999998,"ADDRESS":"竹子\u25A0２４７號之６６３","OBJECTID":235135},"geometry":{"x":178236.6799999997,"y":2546609.2600000035}},{"attributes":{"ID":235140,"DIS_CODE":0,"TOWNNAME":"新化區","LI":"知義里","LIN":"16鄰","STREET":" ","SECT":" ","MAREA":"新和庄","LANE":" ","ALLEY":" ","HOUSE_NO":"８號之２１","E_COORD97":181243.16,"N_COORD97":2547002.2599999998,"ADDRESS":"新和庄８號之２１","OBJECTID":235136},"geometry":{"x":181243.15999999922,"y":2547002.2600000035}},{"attributes":{"ID":235141,"DIS_CODE":0,"TOWNNAME":"新化區","LI":"知義里","LIN":"16鄰","STREET":" ","SECT":" ","MAREA":"新和庄","LANE":" ","ALLEY":" ","HOUSE_NO":"２４６號","E_COORD97":181229.19,"N_COORD97":2547043.25,"ADDRESS":"新和庄２４６號","OBJECTID":235137},"geometry":{"x":181229.19000000041,"y":2547043.2500000037}},{"attributes":{"ID":235142,"DIS_CODE":0,"TOWNNAME":"北區","LI":"仁愛里","LIN":"13鄰","STREET":"長榮路","SECT":"四段","MAREA":" ","LANE":"３１巷","ALLEY":" ","HOUSE_NO":"１６號","E_COORD97":170220.47,"N_COORD97":2544917.75,"ADDRESS":"長榮路四段３１巷１６號","OBJECTID":235138},"geometry":{"x":170220.4700000016,"y":2544917.7500000037}},{"attributes":{"ID":235143,"DIS_CODE":0,"TOWNNAME":"北區","LI":"仁愛里","LIN":"13鄰","STREET":"長榮路","SECT":"四段","MAREA":" ","LANE":"３１巷","ALLEY":" ","HOUSE_NO":"１８號","E_COORD97":170214.01999999999,"N_COORD97":2544919.1699999999,"ADDRESS":"長榮路四段３１巷１８號","OBJECTID":235139},"geometry":{"x":170214.01999999955,"y":2544919.1700000018}},{"attributes":{"ID":235144,"DIS_CODE":0,"TOWNNAME":"北區","LI":"仁愛里","LIN":"13鄰","STREET":"長榮路","SECT":"四段","MAREA":" ","LANE":"３１巷","ALLEY":" ","HOUSE_NO":"２０號","E_COORD97":170206.14999999999,"N_COORD97":2544919.79,"ADDRESS":"長榮路四段３１巷２０號","OBJECTID":235140},"geometry":{"x":170206.14999999944,"y":2544919.7900000028}},{"attributes":{"ID":235145,"DIS_CODE":0,"TOWNNAME":"北區","LI":"仁愛里","LIN":"13鄰","STREET":"長榮路","SECT":"四段","MAREA":" ","LANE":"３１巷","ALLEY":" ","HOUSE_NO":"２２號","E_COORD97":170198.92000000001,"N_COORD97":2544921.21,"ADDRESS":"長榮路四段３１巷２２號","OBJECTID":235141},"geometry":{"x":170198.92000000179,"y":2544921.2100000009}},{"attributes":{"ID":235146,"DIS_CODE":0,"TOWNNAME":"北區","LI":"仁愛里","LIN":"13鄰","STREET":"長榮路","SECT":"四段","MAREA":" ","LANE":"３１巷","ALLEY":" ","HOUSE_NO":"３０號","E_COORD97":170172.81,"N_COORD97":2544920.1499999999,"ADDRESS":"長榮路四段３１巷３０號","OBJECTID":235142},"geometry":{"x":170172.81000000052,"y":2544920.1500000022}},{"attributes":{"ID":235147,"DIS_CODE":0,"TOWNNAME":"北區","LI":"仁愛里","LIN":"13鄰","STREET":"長榮路","SECT":"四段","MAREA":" ","LANE":"３１巷","ALLEY":" ","HOUSE_NO":"３２號","E_COORD97":170165.73000000001,"N_COORD97":2544921.4100000001,"ADDRESS":"長榮路四段３１巷３２號","OBJECTID":235143},"geometry":{"x":170165.73000000138,"y":2544921.410000002}},{"attributes":{"ID":235148,"DIS_CODE":0,"TOWNNAME":"永康區","LI":"東橋里","LIN":"16鄰","STREET":"東橋二街","SECT":" ","MAREA":" ","LANE":"９７巷","ALLEY":" ","HOUSE_NO":"２７號","E_COORD97":171708.51999999999,"N_COORD97":2546628.6800000002,"ADDRESS":"東橋二街９７巷２７號","OBJECTID":235144},"geometry":{"x":171708.52000000048,"y":2546628.6799999997}},{"attributes":{"ID":235149,"DIS_CODE":0,"TOWNNAME":"永康區","LI":"東橋里","LIN":"16鄰","STREET":"東橋二街","SECT":" ","MAREA":" ","LANE":"７１巷","ALLEY":" ","HOUSE_NO":"８０號","E_COORD97":171674.20999999999,"N_COORD97":2546655.8900000001,"ADDRESS":"東橋二街７１巷８０號","OBJECTID":235145},"geometry":{"x":171674.21000000089,"y":2546655.8900000006}},{"attributes":{"ID":235150,"DIS_CODE":0,"TOWNNAME":"永康區","LI":"東橋里","LIN":"16鄰","STREET":"東橋二街","SECT":" ","MAREA":" ","LANE":"７１巷","ALLEY":" ","HOUSE_NO":"５０號","E_COORD97":171708.17000000001,"N_COORD97":2546597.6600000001,"ADDRESS":"東橋二街７１巷５０號","OBJECTID":235146},"geometry":{"x":171708.17000000086,"y":2546597.660000002}},{"attributes":{"ID":235151,"DIS_CODE":0,"TOWNNAME":"永康區","LI":"東橋里","LIN":"16鄰","STREET":"東橋二街","SECT":" ","MAREA":" ","LANE":"９７巷","ALLEY":" ","HOUSE_NO":"５９號","E_COORD97":171668.73000000001,"N_COORD97":2546694.5099999998,"ADDRESS":"東橋二街９７巷５９號","OBJECTID":235147},"geometry":{"x":171668.73000000231,"y":2546694.5099999998}},{"attributes":{"ID":235152,"DIS_CODE":0,"TOWNNAME":"永康區","LI":"東橋里","LIN":"16鄰","STREET":"東橋二街","SECT":" ","MAREA":" ","LANE":"９７巷","ALLEY":" ","HOUSE_NO":"５２號","E_COORD97":171731.60000000001,"N_COORD97":2546641.1800000002,"ADDRESS":"東橋二街９７巷５２號","OBJECTID":235148},"geometry":{"x":171731.60000000056,"y":2546641.1800000016}},{"attributes":{"ID":235153,"DIS_CODE":0,"TOWNNAME":"永康區","LI":"東橋里","LIN":"16鄰","STREET":"東橋二街","SECT":" ","MAREA":" ","LANE":"９７巷","ALLEY":" ","HOUSE_NO":"１８號","E_COORD97":171763.85000000001,"N_COORD97":2546583.3599999999,"ADDRESS":"東橋二街９７巷１８號","OBJECTID":235149},"geometry":{"x":171763.85000000056,"y":2546583.3599999994}},{"attributes":{"ID":235154,"DIS_CODE":0,"TOWNNAME":"永康區","LI":"東橋里","LIN":"16鄰","STREET":"東橋二街","SECT":" ","MAREA":" ","LANE":"９７巷","ALLEY":" ","HOUSE_NO":"１５號","E_COORD97":171723.73999999999,"N_COORD97":2546601.2200000002,"ADDRESS":"東橋二街９７巷１５號","OBJECTID":235150},"geometry":{"x":171723.74000000022,"y":2546601.2200000025}},{"attributes":{"ID":235155,"DIS_CODE":0,"TOWNNAME":"永康區","LI":"東橋里","LIN":"16鄰","STREET":"東橋二街","SECT":" ","MAREA":" ","LANE":"９７巷","ALLEY":" ","HOUSE_NO":"４１號","E_COORD97":171691.09,"N_COORD97":2546660.3700000001,"ADDRESS":"東橋二街９７巷４１號","OBJECTID":235151},"geometry":{"x":171691.09000000171,"y":2546660.3699999992}},{"attributes":{"ID":235156,"DIS_CODE":0,"TOWNNAME":"永康區","LI":"烏竹里","LIN":"16鄰","STREET":"龍橋街","SECT":" ","MAREA":" ","LANE":"２７０巷","ALLEY":" ","HOUSE_NO":"３２號","E_COORD97":174636.60000000001,"N_COORD97":2548929.5899999999,"ADDRESS":"龍橋街２７０巷３２號","OBJECTID":235152},"geometry":{"x":174636.59999999963,"y":2548929.5900000036}},{"attributes":{"ID":235157,"DIS_CODE":0,"TOWNNAME":"永康區","LI":"東橋里","LIN":"16鄰","STREET":"東橋二街","SECT":" ","MAREA":" ","LANE":"９７巷","ALLEY":" ","HOUSE_NO":"７２號","E_COORD97":171711.54000000001,"N_COORD97":2546677.3900000001,"ADDRESS":"東橋二街９７巷７２號","OBJECTID":235153},"geometry":{"x":171711.54000000004,"y":2546677.3900000025}},{"attributes":{"ID":235158,"DIS_CODE":0,"TOWNNAME":"北區","LI":"仁愛里","LIN":"13鄰","STREET":"長榮路","SECT":"四段","MAREA":" ","LANE":"３１巷","ALLEY":" ","HOUSE_NO":"３４號","E_COORD97":170159.75,"N_COORD97":2544931.6299999999,"ADDRESS":"長榮路四段３１巷３４號","OBJECTID":235154},"geometry":{"x":170159.75000000093,"y":2544931.6300000008}},{"attributes":{"ID":235159,"DIS_CODE":0,"TOWNNAME":"北區","LI":"仁愛里","LIN":"13鄰","STREET":"長榮路","SECT":"四段","MAREA":" ","LANE":"３１巷","ALLEY":" ","HOUSE_NO":"３６號","E_COORD97":170152.51999999999,"N_COORD97":2544933.04,"ADDRESS":"長榮路四段３１巷３６號","OBJECTID":235155},"geometry":{"x":170152.52000000048,"y":2544933.040000001}},{"attributes":{"ID":235160,"DIS_CODE":0,"TOWNNAME":"北區","LI":"仁愛里","LIN":"13鄰","STREET":"長榮路","SECT":"四段","MAREA":" ","LANE":"３１巷","ALLEY":" ","HOUSE_NO":"４號","E_COORD97":170263.59,"N_COORD97":2544908.3100000001,"ADDRESS":"長榮路四段３１巷４號","OBJECTID":235156},"geometry":{"x":170263.58999999892,"y":2544908.3100000024}},{"attributes":{"ID":235161,"DIS_CODE":0,"TOWNNAME":"南區","LI":"文南里","LIN":"14鄰","STREET":"永南二街","SECT":" ","MAREA":" ","LANE":" ","ALLEY":" ","HOUSE_NO":"１４號六樓之６","E_COORD97":166790.67000000001,"N_COORD97":2542630.6200000001,"ADDRESS":"永南二街１４號六樓之６","OBJECTID":235157},"geometry":{"x":166790.66999999993,"y":2542630.620000001}},{"attributes":{"ID":235162,"DIS_CODE":0,"TOWNNAME":"南區","LI":"文南里","LIN":"4鄰","STREET":"長南街","SECT":" ","MAREA":" ","LANE":" ","ALLEY":" ","HOUSE_NO":"２０號","E_COORD97":167029.35999999999,"N_COORD97":2542625.7999999998,"ADDRESS":"長南街２０號","OBJECTID":235158},"geometry":{"x":167029.36000000034,"y":2542625.8000000007}},{"attributes":{"ID":235163,"DIS_CODE":0,"TOWNNAME":"南區","LI":"文南里","LIN":"14鄰","STREET":"永南二街","SECT":" ","MAREA":" ","LANE":" ","ALLEY":" ","HOUSE_NO":"１４號四樓之１","E_COORD97":166790.67000000001,"N_COORD97":2542630.6200000001,"ADDRESS":"永南二街１４號四樓之１","OBJECTID":235159},"geometry":{"x":166790.66999999993,"y":2542630.620000001}},{"attributes":{"ID":235164,"DIS_CODE":0,"TOWNNAME":"南區","LI":"文南里","LIN":"14鄰","STREET":"永南二街","SECT":" ","MAREA":" ","LANE":" ","ALLEY":" ","HOUSE_NO":"１４號四樓之２","E_COORD97":166790.67000000001,"N_COORD97":2542630.6200000001,"ADDRESS":"永南二街１４號四樓之２","OBJECTID":235160},"geometry":{"x":166790.66999999993,"y":2542630.620000001}},{"attributes":{"ID":235165,"DIS_CODE":0,"TOWNNAME":"南區","LI":"文南里","LIN":"14鄰","STREET":"永南二街","SECT":" ","MAREA":" ","LANE":" ","ALLEY":" ","HOUSE_NO":"１４號四樓之３","E_COORD97":166790.67000000001,"N_COORD97":2542630.6200000001,"ADDRESS":"永南二街１４號四樓之３","OBJECTID":235161},"geometry":{"x":166790.66999999993,"y":2542630.620000001}},{"attributes":{"ID":235166,"DIS_CODE":0,"TOWNNAME":"南區","LI":"文南里","LIN":"14鄰","STREET":"永南二街","SECT":" ","MAREA":" ","LANE":" ","ALLEY":" ","HOUSE_NO":"１４號四樓之４","E_COORD97":166790.67000000001,"N_COORD97":2542630.6200000001,"ADDRESS":"永南二街１４號四樓之４","OBJECTID":235162},"geometry":{"x":166790.66999999993,"y":2542630.620000001}},{"attributes":{"ID":235167,"DIS_CODE":0,"TOWNNAME":"南區","LI":"文南里","LIN":"14鄰","STREET":"永南二街","SECT":" ","MAREA":" ","LANE":" ","ALLEY":" ","HOUSE_NO":"１４號四樓之５","E_COORD97":166790.67000000001,"N_COORD97":2542630.6200000001,"ADDRESS":"永南二街１４號四樓之５","OBJECTID":235163},"geometry":{"x":166790.66999999993,"y":2542630.620000001}},{"attributes":{"ID":235168,"DIS_CODE":0,"TOWNNAME":"南區","LI":"文南里","LIN":"14鄰","STREET":"永南二街","SECT":" ","MAREA":" ","LANE":" ","ALLEY":" ","HOUSE_NO":"１４號四樓之６","E_COORD97":166790.67000000001,"N_COORD97":2542630.6200000001,"ADDRESS":"永南二街１４號四樓之６","OBJECTID":235164},"geometry":{"x":166790.66999999993,"y":2542630.620000001}},{"attributes":{"ID":235169,"DIS_CODE":0,"TOWNNAME":"南區","LI":"文南里","LIN":"14鄰","STREET":"永南二街","SECT":" ","MAREA":" ","LANE":" ","ALLEY":" ","HOUSE_NO":"１４號四樓之７","E_COORD97":166790.67000000001,"N_COORD97":2542630.6200000001,"ADDRESS":"永南二街１４號四樓之７","OBJECTID":235165},"geometry":{"x":166790.66999999993,"y":2542630.620000001}},{"attributes":{"ID":235170,"DIS_CODE":0,"TOWNNAME":"南區","LI":"大林里","LIN":"13鄰","STREET":"國民路","SECT":" ","MAREA":" ","LANE":" ","ALLEY":" ","HOUSE_NO":"４７７號","E_COORD97":168665.70000000001,"N_COORD97":2541367.3799999999,"ADDRESS":"國民路４７７號","OBJECTID":235166},"geometry":{"x":168665.70000000019,"y":2541367.3800000008}},{"attributes":{"ID":235171,"DIS_CODE":0,"TOWNNAME":"永康區","LI":"東橋里","LIN":"16鄰","STREET":"東橋二街","SECT":" ","MAREA":" ","LANE":"９７巷","ALLEY":" ","HOUSE_NO":"５３號","E_COORD97":171677.51999999999,"N_COORD97":2546681.8300000001,"ADDRESS":"東橋二街９７巷５３號","OBJECTID":235167},"geometry":{"x":171677.51999999955,"y":2546681.8300000019}},{"attributes":{"ID":235172,"DIS_CODE":0,"TOWNNAME":"永康區","LI":"東橋里","LIN":"16鄰","STREET":"東橋二街","SECT":" ","MAREA":" ","LANE":"９７巷","ALLEY":" ","HOUSE_NO":"６號","E_COORD97":171778.04999999999,"N_COORD97":2546561.52,"ADDRESS":"東橋二街９７巷６號","OBJECTID":235168},"geometry":{"x":171778.05000000075,"y":2546561.5199999996}},{"attributes":{"ID":235173,"DIS_CODE":0,"TOWNNAME":"永康區","LI":"東橋里","LIN":"16鄰","STREET":"東橋二街","SECT":" ","MAREA":" ","LANE":"７１巷","ALLEY":" ","HOUSE_NO":"６８號","E_COORD97":171689.85999999999,"N_COORD97":2546626.7400000002,"ADDRESS":"東橋二街７１巷６８號","OBJECTID":235169},"geometry":{"x":171689.8600000022,"y":2546626.7400000039}},{"attributes":{"ID":235174,"DIS_CODE":0,"TOWNNAME":"關廟區","LI":"新埔里","LIN":"5鄰","STREET":"新埔三街","SECT":" ","MAREA":" ","LANE":"２７巷","ALLEY":" ","HOUSE_NO":"１９號","E_COORD97":181118.518147,"N_COORD97":2540943.8977100002,"ADDRESS":"新埔三街２７巷１９號","OBJECTID":235170},"geometry":{"x":181118.51814700104,"y":2540943.8977119997}},{"attributes":{"ID":235175,"DIS_CODE":0,"TOWNNAME":"永康區","LI":"東橋里","LIN":"16鄰","STREET":"東橋二街","SECT":" ","MAREA":" ","LANE":"９７巷","ALLEY":" ","HOUSE_NO":"３７號","E_COORD97":171696.10000000001,"N_COORD97":2546649.98,"ADDRESS":"東橋二街９７巷３７號","OBJECTID":235171},"geometry":{"x":171696.10000000056,"y":2546649.9800000023}},{"attributes":{"ID":235176,"DIS_CODE":0,"TOWNNAME":"永康區","LI":"東橋里","LIN":"16鄰","STREET":"東橋二街","SECT":" ","MAREA":" ","LANE":"９７巷","ALLEY":" ","HOUSE_NO":"５５號","E_COORD97":171674.42000000001,"N_COORD97":2546685.8100000001,"ADDRESS":"東橋二街９７巷５５號","OBJECTID":235172},"geometry":{"x":171674.42000000086,"y":2546685.8100000024}},{"attributes":{"ID":235177,"DIS_CODE":0,"TOWNNAME":"永康區","LI":"東橋里","LIN":"16鄰","STREET":"東橋二街","SECT":" ","MAREA":" ","LANE":"７１巷","ALLEY":" ","HOUSE_NO":"８２號","E_COORD97":171670.73999999999,"N_COORD97":2546661.8500000001,"ADDRESS":"東橋二街７１巷８２號","OBJECTID":235173},"geometry":{"x":171670.74000000115,"y":2546661.8499999996}},{"attributes":{"ID":235178,"DIS_CODE":0,"TOWNNAME":"永康區","LI":"東橋里","LIN":"16鄰","STREET":"東橋二街","SECT":" ","MAREA":" ","LANE":"９７巷","ALLEY":" ","HOUSE_NO":"９２號","E_COORD97":171688.44,"N_COORD97":2546712.46,"ADDRESS":"東橋二街９７巷９２號","OBJECTID":235174},"geometry":{"x":171688.44000000041,"y":2546712.4600000009}},{"attributes":{"ID":235179,"DIS_CODE":0,"TOWNNAME":"北區","LI":"仁愛里","LIN":"13鄰","STREET":"長榮路","SECT":"四段","MAREA":" ","LANE":"３１巷","ALLEY":" ","HOUSE_NO":"６號","E_COORD97":170251.94,"N_COORD97":2544910.0499999998,"ADDRESS":"長榮路四段３１巷６號","OBJECTID":235175},"geometry":{"x":170251.94000000134,"y":2544910.0500000026}},{"attributes":{"ID":235180,"DIS_CODE":0,"TOWNNAME":"北區","LI":"仁愛里","LIN":"13鄰","STREET":"長榮路","SECT":"四段","MAREA":" ","LANE":"３１巷","ALLEY":" ","HOUSE_NO":"８號","E_COORD97":170243.91,"N_COORD97":2544911.6200000001,"ADDRESS":"長榮路四段３１巷８號","OBJECTID":235176},"geometry":{"x":170243.91000000108,"y":2544911.620000001}},{"attributes":{"ID":235181,"DIS_CODE":0,"TOWNNAME":"北區","LI":"文成里","LIN":"13鄰","STREET":"文賢路","SECT":" ","MAREA":" ","LANE":"２９２巷","ALLEY":" ","HOUSE_NO":"１０２號之１","E_COORD97":167763.17999999999,"N_COORD97":2545222.7400000002,"ADDRESS":"文賢路２９２巷１０２號之１","OBJECTID":235177},"geometry":{"x":167763.18000000063,"y":2545222.7400000002}},{"attributes":{"ID":235182,"DIS_CODE":0,"TOWNNAME":"北區","LI":"文成里","LIN":"13鄰","STREET":"文賢路","SECT":" ","MAREA":" ","LANE":"２９２巷","ALLEY":" ","HOUSE_NO":"１２１號","E_COORD97":167664.48999999999,"N_COORD97":2545240.7799999998,"ADDRESS":"文賢路２９２巷１２１號","OBJECTID":235178},"geometry":{"x":167664.49000000209,"y":2545240.7799999993}},{"attributes":{"ID":235183,"DIS_CODE":0,"TOWNNAME":"北區","LI":"文成里","LIN":"13鄰","STREET":"文賢路","SECT":" ","MAREA":" ","LANE":"２９２巷","ALLEY":" ","HOUSE_NO":"１２３號","E_COORD97":167669.89999999999,"N_COORD97":2545241,"ADDRESS":"文賢路２９２巷１２３號","OBJECTID":235179},"geometry":{"x":167669.90000000037,"y":2545241}},{"attributes":{"ID":235184,"DIS_CODE":0,"TOWNNAME":"北區","LI":"文成里","LIN":"13鄰","STREET":"文賢路","SECT":" ","MAREA":" ","LANE":"２９２巷","ALLEY":" ","HOUSE_NO":"１２５號","E_COORD97":167674.23999999999,"N_COORD97":2545241.4300000002,"ADDRESS":"文賢路２９２巷１２５號","OBJECTID":235180},"geometry":{"x":167674.24000000022,"y":2545241.4300000034}},{"attributes":{"ID":235185,"DIS_CODE":0,"TOWNNAME":"北區","LI":"文成里","LIN":"13鄰","STREET":"文賢路","SECT":" ","MAREA":" ","LANE":"２９２巷","ALLEY":" ","HOUSE_NO":"１２７號","E_COORD97":167679.22,"N_COORD97":2545241.8599999999,"ADDRESS":"文賢路２９２巷１２７號","OBJECTID":235181},"geometry":{"x":167679.2200000016,"y":2545241.8600000031}},{"attributes":{"ID":235186,"DIS_CODE":0,"TOWNNAME":"北區","LI":"文成里","LIN":"13鄰","STREET":"海安路","SECT":"三段","MAREA":" ","LANE":"２１９巷","ALLEY":" ","HOUSE_NO":"３２號","E_COORD97":167865.19,"N_COORD97":2545255.46,"ADDRESS":"海安路三段２１９巷３２號","OBJECTID":235182},"geometry":{"x":167865.19000000134,"y":2545255.4600000009}},{"attributes":{"ID":235187,"DIS_CODE":0,"TOWNNAME":"北區","LI":"文成里","LIN":"13鄰","STREET":"海安路","SECT":"三段","MAREA":" ","LANE":"２１９巷","ALLEY":" ","HOUSE_NO":"４２號","E_COORD97":167838.31,"N_COORD97":2545250.27,"ADDRESS":"海安路三段２１９巷４２號","OBJECTID":235183},"geometry":{"x":167838.31000000052,"y":2545250.2700000014}},{"attributes":{"ID":235188,"DIS_CODE":0,"TOWNNAME":"北區","LI":"文成里","LIN":"13鄰","STREET":"海安路","SECT":"三段","MAREA":" ","LANE":"２１９巷","ALLEY":" ","HOUSE_NO":"４６號","E_COORD97":167811.85999999999,"N_COORD97":2545248.3199999998,"ADDRESS":"海安路三段２１９巷４６號","OBJECTID":235184},"geometry":{"x":167811.86000000127,"y":2545248.3200000003}},{"attributes":{"ID":235189,"DIS_CODE":0,"TOWNNAME":"北區","LI":"文成里","LIN":"13鄰","STREET":"海安路","SECT":"三段","MAREA":" ","LANE":"２１９巷","ALLEY":" ","HOUSE_NO":"５２號","E_COORD97":167795.91,"N_COORD97":2545246.7599999998,"ADDRESS":"海安路三段２１９巷５２號","OBJECTID":235185},"geometry":{"x":167795.91000000108,"y":2545246.7600000016}},{"attributes":{"ID":235190,"DIS_CODE":0,"TOWNNAME":"北區","LI":"中樓里","LIN":"13鄰","STREET":"開元路","SECT":" ","MAREA":" ","LANE":"９０巷","ALLEY":" ","HOUSE_NO":"１２號","E_COORD97":169768.10000000001,"N_COORD97":2545156.1600000001,"ADDRESS":"開元路９０巷１２號","OBJECTID":235186},"geometry":{"x":169768.09999999963,"y":2545156.160000002}},{"attributes":{"ID":235191,"DIS_CODE":0,"TOWNNAME":"北區","LI":"中樓里","LIN":"13鄰","STREET":"開元路","SECT":" ","MAREA":" ","LANE":"９０巷","ALLEY":" ","HOUSE_NO":"１４號","E_COORD97":169771.26000000001,"N_COORD97":2545145.4500000002,"ADDRESS":"開元路９０巷１４號","OBJECTID":235187},"geometry":{"x":169771.26000000071,"y":2545145.4499999993}},{"attributes":{"ID":235192,"DIS_CODE":0,"TOWNNAME":"南區","LI":"明興里","LIN":"22鄰","STREET":"永春街","SECT":" ","MAREA":" ","LANE":" ","ALLEY":" ","HOUSE_NO":"１５號","E_COORD97":167074.72,"N_COORD97":2540613.96,"ADDRESS":"永春街１５號","OBJECTID":235188},"geometry":{"x":167074.72000000067,"y":2540613.9600000009}},{"attributes":{"ID":235193,"DIS_CODE":0,"TOWNNAME":"北區","LI":"公園里","LIN":"14鄰","STREET":"西華街","SECT":" ","MAREA":" ","LANE":" ","ALLEY":" ","HOUSE_NO":"１０５號二樓之１","E_COORD97":169069.39999999999,"N_COORD97":2544530.7599999998,"ADDRESS":"西華街１０５號二樓之１","OBJECTID":235189},"geometry":{"x":169069.4000000013,"y":2544530.7600000035}},{"attributes":{"ID":235194,"DIS_CODE":0,"TOWNNAME":"北區","LI":"公園里","LIN":"14鄰","STREET":"西華街","SECT":" ","MAREA":" ","LANE":" ","ALLEY":" ","HOUSE_NO":"１０５號二樓之２","E_COORD97":169069.39999999999,"N_COORD97":2544530.7599999998,"ADDRESS":"西華街１０５號二樓之２","OBJECTID":235190},"geometry":{"x":169069.4000000013,"y":2544530.7600000035}},{"attributes":{"ID":235195,"DIS_CODE":0,"TOWNNAME":"北區","LI":"公園里","LIN":"14鄰","STREET":"西華街","SECT":" ","MAREA":" ","LANE":" ","ALLEY":" ","HOUSE_NO":"１０５號二樓之３","E_COORD97":169069.39999999999,"N_COORD97":2544530.7599999998,"ADDRESS":"西華街１０５號二樓之３","OBJECTID":235191},"geometry":{"x":169069.4000000013,"y":2544530.7600000035}},{"attributes":{"ID":235196,"DIS_CODE":0,"TOWNNAME":"北區","LI":"公園里","LIN":"14鄰","STREET":"西華街","SECT":" ","MAREA":" ","LANE":" ","ALLEY":" ","HOUSE_NO":"１０５號二樓之４","E_COORD97":169069.39999999999,"N_COORD97":2544530.7599999998,"ADDRESS":"西華街１０５號二樓之４","OBJECTID":235192},"geometry":{"x":169069.4000000013,"y":2544530.7600000035}},{"attributes":{"ID":235197,"DIS_CODE":0,"TOWNNAME":"北區","LI":"公園里","LIN":"14鄰","STREET":"西華街","SECT":" ","MAREA":" ","LANE":" ","ALLEY":" ","HOUSE_NO":"１０５號二樓之５","E_COORD97":169069.39999999999,"N_COORD97":2544530.7599999998,"ADDRESS":"西華街１０５號二樓之５","OBJECTID":235193},"geometry":{"x":169069.4000000013,"y":2544530.7600000035}},{"attributes":{"ID":235198,"DIS_CODE":0,"TOWNNAME":"永康區","LI":"東橋里","LIN":"16鄰","STREET":"東橋二街","SECT":" ","MAREA":" ","LANE":"９７巷","ALLEY":" ","HOUSE_NO":"６２號","E_COORD97":171720.76000000001,"N_COORD97":2546659.77,"ADDRESS":"東橋二街９７巷６２號","OBJECTID":235194},"geometry":{"x":171720.76000000071,"y":2546659.7700000033}},{"attributes":{"ID":235199,"DIS_CODE":0,"TOWNNAME":"永康區","LI":"東橋里","LIN":"16鄰","STREET":"東橋二街","SECT":" ","MAREA":" ","LANE":"９７巷","ALLEY":" ","HOUSE_NO":"１６號","E_COORD97":171765.72,"N_COORD97":2546579.0699999998,"ADDRESS":"東橋二街９７巷１６號","OBJECTID":235195},"geometry":{"x":171765.71999999974,"y":2546579.0700000003}},{"attributes":{"ID":235200,"DIS_CODE":0,"TOWNNAME":"永康區","LI":"東橋里","LIN":"16鄰","STREET":"東橋二街","SECT":" ","MAREA":" ","LANE":"７１巷","ALLEY":" ","HOUSE_NO":"８８號","E_COORD97":171662.79000000001,"N_COORD97":2546672.5,"ADDRESS":"東橋二街７１巷８８號","OBJECTID":235196},"geometry":{"x":171662.7900000019,"y":2546672.5000000019}},{"attributes":{"ID":235201,"DIS_CODE":0,"TOWNNAME":"永康區","LI":"東橋里","LIN":"16鄰","STREET":"東橋二街","SECT":" ","MAREA":" ","LANE":"９７巷","ALLEY":" ","HOUSE_NO":"６１號","E_COORD97":171667.45000000001,"N_COORD97":2546700.25,"ADDRESS":"東橋二街９７巷６１號","OBJECTID":235197},"geometry":{"x":171667.45000000112,"y":2546700.25}},{"attributes":{"ID":235202,"DIS_CODE":0,"TOWNNAME":"永康區","LI":"東橋里","LIN":"16鄰","STREET":"東橋二街","SECT":" ","MAREA":" ","LANE":"７１巷","ALLEY":" ","HOUSE_NO":"３８之２號","E_COORD97":171711.19,"N_COORD97":2546589.5,"ADDRESS":"東橋二街７１巷３８之２號","OBJECTID":235198},"geometry":{"x":171711.18999999948,"y":2546589.5}},{"attributes":{"ID":235203,"DIS_CODE":0,"TOWNNAME":"永康區","LI":"東橋里","LIN":"16鄰","STREET":"東橋二街","SECT":" ","MAREA":" ","LANE":"９７巷","ALLEY":" ","HOUSE_NO":"８０號","E_COORD97":171702.89999999999,"N_COORD97":2546690.3999999999,"ADDRESS":"東橋二街９７巷８０號","OBJECTID":235199},"geometry":{"x":171702.90000000037,"y":2546690.4000000041}},{"attributes":{"ID":235204,"DIS_CODE":0,"TOWNNAME":"永康區","LI":"東橋里","LIN":"16鄰","STREET":"東橋二街","SECT":" ","MAREA":" ","LANE":"９７巷","ALLEY":" ","HOUSE_NO":"３號","E_COORD97":171754.64999999999,"N_COORD97":2546565.6699999999,"ADDRESS":"東橋二街９７巷３號","OBJECTID":235200},"geometry":{"x":171754.6500000013,"y":2546565.6700000037}}]}