{"displayFieldName":"TOWNNAME","fieldAliases":{"ID":"ID","DIS_CODE":"DIS_CODE","TOWNNAME":"TOWNNAME","LI":"LI","LIN":"LIN","STREET":"STREET","SECT":"SECT","MAREA":"MAREA","LANE":"LANE","ALLEY":"ALLEY","HOUSE_NO":"HOUSE_NO","E_COORD97":"E_COORD97","N_COORD97":"N_COORD97","ADDRESS":"ADDRESS","OBJECTID":"OBJECTID"},"geometryType":"esriGeometryPoint","spatialReference":{"wkid":102443,"latestWkid":3826},"fields":[{"name":"ID","type":"esriFieldTypeDouble","alias":"ID"},{"name":"DIS_CODE","type":"esriFieldTypeInteger","alias":"DIS_CODE"},{"name":"TOWNNAME","type":"esriFieldTypeString","alias":"TOWNNAME","length":8},{"name":"LI","type":"esriFieldTypeString","alias":"LI","length":8},{"name":"LIN","type":"esriFieldTypeString","alias":"LIN","length":12},{"name":"STREET","type":"esriFieldTypeString","alias":"STREET","length":20},{"name":"SECT","type":"esriFieldTypeString","alias":"SECT","length":8},{"name":"MAREA","type":"esriFieldTypeString","alias":"MAREA","length":12},{"name":"LANE","type":"esriFieldTypeString","alias":"LANE","length":10},{"name":"ALLEY","type":"esriFieldTypeString","alias":"ALLEY","length":10},{"name":"HOUSE_NO","type":"esriFieldTypeString","alias":"HOUSE_NO","length":20},{"name":"E_COORD97","type":"esriFieldTypeDouble","alias":"E_COORD97"},{"name":"N_COORD97","type":"esriFieldTypeDouble","alias":"N_COORD97"},{"name":"ADDRESS","type":"esriFieldTypeString","alias":"ADDRESS","length":50},{"name":"OBJECTID","type":"esriFieldTypeOID","alias":"OBJECTID"}],"features":[{"attributes":{"ID":324810,"DIS_CODE":0,"TOWNNAME":"東區","LI":"東聖里","LIN":"15鄰","STREET":"中華東路","SECT":"二段","MAREA":" ","LANE":"７３巷","ALLEY":" ","HOUSE_NO":"１１號三樓之１","E_COORD97":171473.26999999999,"N_COORD97":2543037.9199999999,"ADDRESS":"中華東路二段７３巷１１號三樓之１","OBJECTID":324801},"geometry":{"x":171473.27000000048,"y":2543037.9199999981}},{"attributes":{"ID":324811,"DIS_CODE":0,"TOWNNAME":"新營區","LI":"新北里","LIN":"17鄰","STREET":"南新街","SECT":" ","MAREA":" ","LANE":" ","ALLEY":" ","HOUSE_NO":"１２８號之１","E_COORD97":179267.42000000001,"N_COORD97":2578922.8900000001,"ADDRESS":"南新街１２８號之１","OBJECTID":324802},"geometry":{"x":179267.41999999993,"y":2578922.8900000043}},{"attributes":{"ID":324812,"DIS_CODE":0,"TOWNNAME":"新營區","LI":"民榮里","LIN":"17鄰","STREET":"富強街","SECT":" ","MAREA":" ","LANE":" ","ALLEY":" ","HOUSE_NO":"３２號","E_COORD97":178985.66,"N_COORD97":2577803.4399999999,"ADDRESS":"富強街３２號","OBJECTID":324803},"geometry":{"x":178985.66000000108,"y":2577803.4400000013}},{"attributes":{"ID":324813,"DIS_CODE":0,"TOWNNAME":"新營區","LI":"王公里","LIN":"17鄰","STREET":"大智街","SECT":" ","MAREA":" ","LANE":" ","ALLEY":" ","HOUSE_NO":"９號","E_COORD97":180190.31,"N_COORD97":2579323.77,"ADDRESS":"大智街９號","OBJECTID":324804},"geometry":{"x":180190.30999999959,"y":2579323.7700000014}},{"attributes":{"ID":324814,"DIS_CODE":0,"TOWNNAME":"新市區","LI":"社內里","LIN":"4鄰","STREET":" ","SECT":" ","MAREA":"社內","LANE":" ","ALLEY":" ","HOUSE_NO":"５０之１２０號","E_COORD97":176356.92000000001,"N_COORD97":2551675.5499999998,"ADDRESS":"社內５０之１２０號","OBJECTID":324805},"geometry":{"x":176356.91999999993,"y":2551675.5500000007}},{"attributes":{"ID":324815,"DIS_CODE":0,"TOWNNAME":"新市區","LI":"社內里","LIN":"4鄰","STREET":" ","SECT":" ","MAREA":"社內","LANE":" ","ALLEY":" ","HOUSE_NO":"４８之５號","E_COORD97":176551.39000000001,"N_COORD97":2552360.5499999998,"ADDRESS":"社內４８之５號","OBJECTID":324806},"geometry":{"x":176551.3900000006,"y":2552360.5500000007}},{"attributes":{"ID":324816,"DIS_CODE":0,"TOWNNAME":"新市區","LI":"港墘里","LIN":"4鄰","STREET":"三民街","SECT":" ","MAREA":" ","LANE":"１１２巷","ALLEY":" ","HOUSE_NO":"３號","E_COORD97":178331.67999999999,"N_COORD97":2553525.29,"ADDRESS":"三民街１１２巷３號","OBJECTID":324807},"geometry":{"x":178331.6799999997,"y":2553525.290000001}},{"attributes":{"ID":324817,"DIS_CODE":0,"TOWNNAME":"新市區","LI":"社內里","LIN":"5鄰","STREET":" ","SECT":" ","MAREA":"社內","LANE":" ","ALLEY":" ","HOUSE_NO":"５３之１號","E_COORD97":176591.34,"N_COORD97":2552603.0499999998,"ADDRESS":"社內５３之１號","OBJECTID":324808},"geometry":{"x":176591.33999999985,"y":2552603.0500000026}},{"attributes":{"ID":324818,"DIS_CODE":0,"TOWNNAME":"新市區","LI":"大營里","LIN":"20鄰","STREET":" ","SECT":" ","MAREA":"豐榮","LANE":" ","ALLEY":" ","HOUSE_NO":"５９之４號","E_COORD97":178771.42999999999,"N_COORD97":2554153.5499999998,"ADDRESS":"豐榮５９之４號","OBJECTID":324809},"geometry":{"x":178771.43000000063,"y":2554153.5500000007}},{"attributes":{"ID":324819,"DIS_CODE":0,"TOWNNAME":"新市區","LI":"港墘里","LIN":"25鄰","STREET":"華美街","SECT":" ","MAREA":" ","LANE":"３９巷","ALLEY":" ","HOUSE_NO":"９號","E_COORD97":178058.84,"N_COORD97":2552899.7999999998,"ADDRESS":"華美街３９巷９號","OBJECTID":324810},"geometry":{"x":178058.84000000078,"y":2552899.8000000026}},{"attributes":{"ID":324820,"DIS_CODE":0,"TOWNNAME":"東區","LI":"東聖里","LIN":"15鄰","STREET":"中華東路","SECT":"二段","MAREA":" ","LANE":"７３巷","ALLEY":" ","HOUSE_NO":"１１號三樓之２","E_COORD97":171473.26999999999,"N_COORD97":2543037.9199999999,"ADDRESS":"中華東路二段７３巷１１號三樓之２","OBJECTID":324811},"geometry":{"x":171473.27000000048,"y":2543037.9199999981}},{"attributes":{"ID":324821,"DIS_CODE":0,"TOWNNAME":"東區","LI":"東聖里","LIN":"15鄰","STREET":"中華東路","SECT":"二段","MAREA":" ","LANE":"７３巷","ALLEY":" ","HOUSE_NO":"１１號四樓","E_COORD97":171473.26999999999,"N_COORD97":2543037.9199999999,"ADDRESS":"中華東路二段７３巷１１號四樓","OBJECTID":324812},"geometry":{"x":171473.27000000048,"y":2543037.9199999981}},{"attributes":{"ID":324822,"DIS_CODE":0,"TOWNNAME":"東區","LI":"東聖里","LIN":"15鄰","STREET":"中華東路","SECT":"二段","MAREA":" ","LANE":"７３巷","ALLEY":" ","HOUSE_NO":"１１號四樓之１","E_COORD97":171473.26999999999,"N_COORD97":2543037.9199999999,"ADDRESS":"中華東路二段７３巷１１號四樓之１","OBJECTID":324813},"geometry":{"x":171473.27000000048,"y":2543037.9199999981}},{"attributes":{"ID":324823,"DIS_CODE":0,"TOWNNAME":"東區","LI":"東聖里","LIN":"15鄰","STREET":"中華東路","SECT":"二段","MAREA":" ","LANE":"７３巷","ALLEY":" ","HOUSE_NO":"１１號四樓之２","E_COORD97":171473.26999999999,"N_COORD97":2543037.9199999999,"ADDRESS":"中華東路二段７３巷１１號四樓之２","OBJECTID":324814},"geometry":{"x":171473.27000000048,"y":2543037.9199999981}},{"attributes":{"ID":324824,"DIS_CODE":0,"TOWNNAME":"東區","LI":"東聖里","LIN":"15鄰","STREET":"中華東路","SECT":"二段","MAREA":" ","LANE":"７３巷","ALLEY":" ","HOUSE_NO":"１１號五樓","E_COORD97":171473.26999999999,"N_COORD97":2543037.9199999999,"ADDRESS":"中華東路二段７３巷１１號五樓","OBJECTID":324815},"geometry":{"x":171473.27000000048,"y":2543037.9199999981}},{"attributes":{"ID":324825,"DIS_CODE":0,"TOWNNAME":"新市區","LI":"社內里","LIN":"13鄰","STREET":" ","SECT":" ","MAREA":"社內","LANE":" ","ALLEY":" ","HOUSE_NO":"１４２之１２號","E_COORD97":176387.32999999999,"N_COORD97":2552472.2999999998,"ADDRESS":"社內１４２之１２號","OBJECTID":324816},"geometry":{"x":176387.33000000101,"y":2552472.3000000026}},{"attributes":{"ID":324826,"DIS_CODE":0,"TOWNNAME":"新市區","LI":"社內里","LIN":"13鄰","STREET":" ","SECT":" ","MAREA":"社內","LANE":" ","ALLEY":" ","HOUSE_NO":"１４３之９０號","E_COORD97":176305.07999999999,"N_COORD97":2551863.5499999998,"ADDRESS":"社內１４３之９０號","OBJECTID":324817},"geometry":{"x":176305.08000000007,"y":2551863.5500000026}},{"attributes":{"ID":324827,"DIS_CODE":0,"TOWNNAME":"新市區","LI":"新市里","LIN":"34鄰","STREET":"復興路","SECT":" ","MAREA":" ","LANE":"６２巷","ALLEY":" ","HOUSE_NO":"７號","E_COORD97":177862.35000000001,"N_COORD97":2553485.5299999998,"ADDRESS":"復興路６２巷７號","OBJECTID":324818},"geometry":{"x":177862.34999999963,"y":2553485.5299999993}},{"attributes":{"ID":324828,"DIS_CODE":0,"TOWNNAME":"新市區","LI":"港墘里","LIN":"14鄰","STREET":"長安街","SECT":" ","MAREA":" ","LANE":"３６巷","ALLEY":" ","HOUSE_NO":"２１號","E_COORD97":178284.98000000001,"N_COORD97":2552744.0699999998,"ADDRESS":"長安街３６巷２１號","OBJECTID":324819},"geometry":{"x":178284.98000000231,"y":2552744.070000004}},{"attributes":{"ID":324829,"DIS_CODE":0,"TOWNNAME":"新市區","LI":"大營里","LIN":"20鄰","STREET":" ","SECT":" ","MAREA":"豐榮","LANE":" ","ALLEY":" ","HOUSE_NO":"５４之４號","E_COORD97":178760.31,"N_COORD97":2554172.0499999998,"ADDRESS":"豐榮５４之４號","OBJECTID":324820},"geometry":{"x":178760.31000000052,"y":2554172.0500000045}},{"attributes":{"ID":324830,"DIS_CODE":0,"TOWNNAME":"新市區","LI":"港墘里","LIN":"1鄰","STREET":"民族路","SECT":" ","MAREA":" ","LANE":"１６巷","ALLEY":" ","HOUSE_NO":"３號","E_COORD97":178602.38,"N_COORD97":2553930.29,"ADDRESS":"民族路１６巷３號","OBJECTID":324821},"geometry":{"x":178602.38000000082,"y":2553930.2899999991}},{"attributes":{"ID":324831,"DIS_CODE":0,"TOWNNAME":"新市區","LI":"港墘里","LIN":"26鄰","STREET":"中山路","SECT":" ","MAREA":" ","LANE":"７８巷","ALLEY":" ","HOUSE_NO":"１８號","E_COORD97":178174.07000000001,"N_COORD97":2552872,"ADDRESS":"中山路７８巷１８號","OBJECTID":324822},"geometry":{"x":178174.07000000216,"y":2552872}},{"attributes":{"ID":324832,"DIS_CODE":0,"TOWNNAME":"新市區","LI":"社內里","LIN":"4鄰","STREET":" ","SECT":" ","MAREA":"社內","LANE":" ","ALLEY":" ","HOUSE_NO":"４５之３號","E_COORD97":176586.32999999999,"N_COORD97":2552342.2999999998,"ADDRESS":"社內４５之３號","OBJECTID":324823},"geometry":{"x":176586.33000000007,"y":2552342.3000000007}},{"attributes":{"ID":324833,"DIS_CODE":0,"TOWNNAME":"新市區","LI":"永就里","LIN":"4鄰","STREET":" ","SECT":" ","MAREA":"永就","LANE":" ","ALLEY":" ","HOUSE_NO":"４２之１號","E_COORD97":178462.81,"N_COORD97":2551528.7999999998,"ADDRESS":"永就４２之１號","OBJECTID":324824},"geometry":{"x":178462.80999999959,"y":2551528.8000000007}},{"attributes":{"ID":324834,"DIS_CODE":0,"TOWNNAME":"新市區","LI":"社內里","LIN":"18鄰","STREET":" ","SECT":" ","MAREA":"社內","LANE":" ","ALLEY":" ","HOUSE_NO":"１９０號","E_COORD97":176128.06,"N_COORD97":2553143.75,"ADDRESS":"社內１９０號","OBJECTID":324825},"geometry":{"x":176128.06000000052,"y":2553143.7500000019}},{"attributes":{"ID":324835,"DIS_CODE":0,"TOWNNAME":"新市區","LI":"社內里","LIN":"20鄰","STREET":" ","SECT":" ","MAREA":"社內","LANE":" ","ALLEY":" ","HOUSE_NO":"２０７之１號","E_COORD97":175904.45000000001,"N_COORD97":2553028.7999999998,"ADDRESS":"社內２０７之１號","OBJECTID":324826},"geometry":{"x":175904.45000000019,"y":2553028.8000000026}},{"attributes":{"ID":324836,"DIS_CODE":0,"TOWNNAME":"新市區","LI":"社內里","LIN":"17鄰","STREET":" ","SECT":" ","MAREA":"社內","LANE":" ","ALLEY":" ","HOUSE_NO":"１８０之１號","E_COORD97":176030.09,"N_COORD97":2553001.2999999998,"ADDRESS":"社內１８０之１號","OBJECTID":324827},"geometry":{"x":176030.08999999985,"y":2553001.3000000026}},{"attributes":{"ID":324837,"DIS_CODE":0,"TOWNNAME":"新市區","LI":"港墘里","LIN":"4鄰","STREET":"三民街","SECT":" ","MAREA":" ","LANE":"７８巷","ALLEY":" ","HOUSE_NO":"２５號","E_COORD97":178472.73000000001,"N_COORD97":2553536.79,"ADDRESS":"三民街７８巷２５號","OBJECTID":324828},"geometry":{"x":178472.73000000045,"y":2553536.7899999991}},{"attributes":{"ID":324838,"DIS_CODE":0,"TOWNNAME":"東區","LI":"東聖里","LIN":"15鄰","STREET":"中華東路","SECT":"二段","MAREA":" ","LANE":"７３巷","ALLEY":" ","HOUSE_NO":"１１號五樓之１","E_COORD97":171473.26999999999,"N_COORD97":2543037.9199999999,"ADDRESS":"中華東路二段７３巷１１號五樓之１","OBJECTID":324829},"geometry":{"x":171473.27000000048,"y":2543037.9199999981}},{"attributes":{"ID":324839,"DIS_CODE":0,"TOWNNAME":"新市區","LI":"永就里","LIN":"4鄰","STREET":" ","SECT":" ","MAREA":"永就","LANE":" ","ALLEY":" ","HOUSE_NO":"３９之１號","E_COORD97":178490.53,"N_COORD97":2551469.5499999998,"ADDRESS":"永就３９之１號","OBJECTID":324830},"geometry":{"x":178490.53000000026,"y":2551469.5500000007}},{"attributes":{"ID":324840,"DIS_CODE":0,"TOWNNAME":"新市區","LI":"大營里","LIN":"20鄰","STREET":" ","SECT":" ","MAREA":"豐榮","LANE":" ","ALLEY":" ","HOUSE_NO":"７２號","E_COORD97":178879.73999999999,"N_COORD97":2554254.25,"ADDRESS":"豐榮７２號","OBJECTID":324831},"geometry":{"x":178879.74000000209,"y":2554254.25}},{"attributes":{"ID":324841,"DIS_CODE":0,"TOWNNAME":"新市區","LI":"社內里","LIN":"13鄰","STREET":" ","SECT":" ","MAREA":"社內","LANE":" ","ALLEY":" ","HOUSE_NO":"１４３之５號","E_COORD97":176160.81,"N_COORD97":2552346.2999999998,"ADDRESS":"社內１４３之５號","OBJECTID":324832},"geometry":{"x":176160.80999999959,"y":2552346.3000000045}},{"attributes":{"ID":324842,"DIS_CODE":0,"TOWNNAME":"新市區","LI":"社內里","LIN":"4鄰","STREET":" ","SECT":" ","MAREA":"社內","LANE":" ","ALLEY":" ","HOUSE_NO":"５０之１１８號","E_COORD97":176355.14999999999,"N_COORD97":2551680.2999999998,"ADDRESS":"社內５０之１１８號","OBJECTID":324833},"geometry":{"x":176355.1500000013,"y":2551680.3000000007}},{"attributes":{"ID":324843,"DIS_CODE":0,"TOWNNAME":"東區","LI":"東聖里","LIN":"15鄰","STREET":"中華東路","SECT":"二段","MAREA":" ","LANE":"７３巷","ALLEY":" ","HOUSE_NO":"１１號五樓之２","E_COORD97":171473.26999999999,"N_COORD97":2543037.9199999999,"ADDRESS":"中華東路二段７３巷１１號五樓之２","OBJECTID":324834},"geometry":{"x":171473.27000000048,"y":2543037.9199999981}},{"attributes":{"ID":324844,"DIS_CODE":0,"TOWNNAME":"東區","LI":"東聖里","LIN":"15鄰","STREET":"中華東路","SECT":"二段","MAREA":" ","LANE":"７３巷","ALLEY":" ","HOUSE_NO":"１１號六樓","E_COORD97":171473.26999999999,"N_COORD97":2543037.9199999999,"ADDRESS":"中華東路二段７３巷１１號六樓","OBJECTID":324835},"geometry":{"x":171473.27000000048,"y":2543037.9199999981}},{"attributes":{"ID":324845,"DIS_CODE":0,"TOWNNAME":"新營區","LI":"新北里","LIN":"17鄰","STREET":"南新街","SECT":" ","MAREA":" ","LANE":" ","ALLEY":" ","HOUSE_NO":"１４０號","E_COORD97":179287.85999999999,"N_COORD97":2578937.1400000001,"ADDRESS":"南新街１４０號","OBJECTID":324836},"geometry":{"x":179287.86000000127,"y":2578937.1400000006}},{"attributes":{"ID":324846,"DIS_CODE":0,"TOWNNAME":"新營區","LI":"新北里","LIN":"17鄰","STREET":"南新街","SECT":" ","MAREA":" ","LANE":" ","ALLEY":" ","HOUSE_NO":"１２０號","E_COORD97":179238.66,"N_COORD97":2578917.4300000002,"ADDRESS":"南新街１２０號","OBJECTID":324837},"geometry":{"x":179238.66000000108,"y":2578917.4299999997}},{"attributes":{"ID":324847,"DIS_CODE":0,"TOWNNAME":"新營區","LI":"王公里","LIN":"17鄰","STREET":"大智街","SECT":" ","MAREA":" ","LANE":" ","ALLEY":" ","HOUSE_NO":"６０號","E_COORD97":180322.47,"N_COORD97":2579315.3999999999,"ADDRESS":"大智街６０號","OBJECTID":324838},"geometry":{"x":180322.47000000067,"y":2579315.4000000004}},{"attributes":{"ID":324848,"DIS_CODE":0,"TOWNNAME":"新營區","LI":"民生里","LIN":"17鄰","STREET":"中華路","SECT":" ","MAREA":" ","LANE":" ","ALLEY":" ","HOUSE_NO":"１３１號","E_COORD97":179103.20999999999,"N_COORD97":2578183.8399999999,"ADDRESS":"中華路１３１號","OBJECTID":324839},"geometry":{"x":179103.20999999996,"y":2578183.8400000017}},{"attributes":{"ID":324849,"DIS_CODE":0,"TOWNNAME":"新營區","LI":"新北里","LIN":"17鄰","STREET":"南新街","SECT":" ","MAREA":" ","LANE":" ","ALLEY":" ","HOUSE_NO":"１３９號","E_COORD97":179245.89999999999,"N_COORD97":2578935.1200000001,"ADDRESS":"南新街１３９號","OBJECTID":324840},"geometry":{"x":179245.90000000037,"y":2578935.1199999992}},{"attributes":{"ID":324850,"DIS_CODE":0,"TOWNNAME":"新市區","LI":"永就里","LIN":"8鄰","STREET":"中華路","SECT":" ","MAREA":" ","LANE":" ","ALLEY":" ","HOUSE_NO":"６６號","E_COORD97":177594.23999999999,"N_COORD97":2551666.5,"ADDRESS":"中華路６６號","OBJECTID":324841},"geometry":{"x":177594.24000000022,"y":2551666.5000000019}},{"attributes":{"ID":324851,"DIS_CODE":0,"TOWNNAME":"新市區","LI":"港墘里","LIN":"4鄰","STREET":"三民街","SECT":" ","MAREA":" ","LANE":"１１２巷","ALLEY":" ","HOUSE_NO":"５號","E_COORD97":178333.54000000001,"N_COORD97":2553528.79,"ADDRESS":"三民街１１２巷５號","OBJECTID":324842},"geometry":{"x":178333.54000000097,"y":2553528.790000001}},{"attributes":{"ID":324852,"DIS_CODE":0,"TOWNNAME":"新市區","LI":"社內里","LIN":"18鄰","STREET":" ","SECT":" ","MAREA":"社內","LANE":" ","ALLEY":" ","HOUSE_NO":"１８６之１號","E_COORD97":176190.64000000001,"N_COORD97":2553144.5499999998,"ADDRESS":"社內１８６之１號","OBJECTID":324843},"geometry":{"x":176190.63999999966,"y":2553144.5499999989}},{"attributes":{"ID":324853,"DIS_CODE":0,"TOWNNAME":"新市區","LI":"大營里","LIN":"20鄰","STREET":" ","SECT":" ","MAREA":"豐榮","LANE":" ","ALLEY":" ","HOUSE_NO":"５９之６號","E_COORD97":178778.17999999999,"N_COORD97":2554158.2999999998,"ADDRESS":"豐榮５９之６號","OBJECTID":324844},"geometry":{"x":178778.18000000063,"y":2554158.3000000026}},{"attributes":{"ID":324854,"DIS_CODE":0,"TOWNNAME":"新市區","LI":"大營里","LIN":"20鄰","STREET":" ","SECT":" ","MAREA":"豐榮","LANE":" ","ALLEY":" ","HOUSE_NO":"５８號","E_COORD97":178751.17999999999,"N_COORD97":2554154,"ADDRESS":"豐榮５８號","OBJECTID":324845},"geometry":{"x":178751.18000000063,"y":2554154}},{"attributes":{"ID":324855,"DIS_CODE":0,"TOWNNAME":"新市區","LI":"社內里","LIN":"4鄰","STREET":" ","SECT":" ","MAREA":"社內","LANE":" ","ALLEY":" ","HOUSE_NO":"４３之３號","E_COORD97":176586.32999999999,"N_COORD97":2552371.2999999998,"ADDRESS":"社內４３之３號","OBJECTID":324846},"geometry":{"x":176586.33000000007,"y":2552371.3000000026}},{"attributes":{"ID":324856,"DIS_CODE":0,"TOWNNAME":"新市區","LI":"港墘里","LIN":"5鄰","STREET":"民族路","SECT":" ","MAREA":" ","LANE":"１２１巷","ALLEY":" ","HOUSE_NO":"８號","E_COORD97":178315.98999999999,"N_COORD97":2553551.79,"ADDRESS":"民族路１２１巷８號","OBJECTID":324847},"geometry":{"x":178315.99000000115,"y":2553551.7900000028}},{"attributes":{"ID":324857,"DIS_CODE":0,"TOWNNAME":"新市區","LI":"港墘里","LIN":"26鄰","STREET":"中山路","SECT":" ","MAREA":" ","LANE":"７８巷","ALLEY":" ","HOUSE_NO":"１４號","E_COORD97":178181.92999999999,"N_COORD97":2552870,"ADDRESS":"中山路７８巷１４號","OBJECTID":324848},"geometry":{"x":178181.93000000063,"y":2552870.0000000037}},{"attributes":{"ID":324858,"DIS_CODE":0,"TOWNNAME":"東區","LI":"東聖里","LIN":"15鄰","STREET":"中華東路","SECT":"二段","MAREA":" ","LANE":"７３巷","ALLEY":" ","HOUSE_NO":"１１號六樓之１","E_COORD97":171473.26999999999,"N_COORD97":2543037.9199999999,"ADDRESS":"中華東路二段７３巷１１號六樓之１","OBJECTID":324849},"geometry":{"x":171473.27000000048,"y":2543037.9199999981}},{"attributes":{"ID":324859,"DIS_CODE":0,"TOWNNAME":"新市區","LI":"社內里","LIN":"4鄰","STREET":" ","SECT":" ","MAREA":"社內","LANE":" ","ALLEY":" ","HOUSE_NO":"４３之７號","E_COORD97":176572.81,"N_COORD97":2552369.7999999998,"ADDRESS":"社內４３之７號","OBJECTID":324850},"geometry":{"x":176572.80999999959,"y":2552369.8000000007}},{"attributes":{"ID":324860,"DIS_CODE":0,"TOWNNAME":"東區","LI":"東聖里","LIN":"15鄰","STREET":"中華東路","SECT":"二段","MAREA":" ","LANE":"７３巷","ALLEY":" ","HOUSE_NO":"１１號六樓之２","E_COORD97":171473.26999999999,"N_COORD97":2543037.9199999999,"ADDRESS":"中華東路二段７３巷１１號六樓之２","OBJECTID":324851},"geometry":{"x":171473.27000000048,"y":2543037.9199999981}},{"attributes":{"ID":324861,"DIS_CODE":0,"TOWNNAME":"東區","LI":"東聖里","LIN":"15鄰","STREET":"中華東路","SECT":"二段","MAREA":" ","LANE":"７３巷","ALLEY":" ","HOUSE_NO":"１３號三樓","E_COORD97":171481.62,"N_COORD97":2543039.1699999999,"ADDRESS":"中華東路二段７３巷１３號三樓","OBJECTID":324852},"geometry":{"x":171481.62000000104,"y":2543039.1699999999}},{"attributes":{"ID":324862,"DIS_CODE":0,"TOWNNAME":"東區","LI":"東聖里","LIN":"15鄰","STREET":"中華東路","SECT":"二段","MAREA":" ","LANE":"７３巷","ALLEY":" ","HOUSE_NO":"１３號三樓之１","E_COORD97":171481.62,"N_COORD97":2543039.1699999999,"ADDRESS":"中華東路二段７３巷１３號三樓之１","OBJECTID":324853},"geometry":{"x":171481.62000000104,"y":2543039.1699999999}},{"attributes":{"ID":324863,"DIS_CODE":0,"TOWNNAME":"新市區","LI":"永就里","LIN":"4鄰","STREET":" ","SECT":" ","MAREA":"永就","LANE":" ","ALLEY":" ","HOUSE_NO":"４５號","E_COORD97":178514.12,"N_COORD97":2551561.5,"ADDRESS":"永就４５號","OBJECTID":324854},"geometry":{"x":178514.12000000011,"y":2551561.5000000019}},{"attributes":{"ID":324864,"DIS_CODE":0,"TOWNNAME":"東區","LI":"東聖里","LIN":"15鄰","STREET":"中華東路","SECT":"二段","MAREA":" ","LANE":"７３巷","ALLEY":" ","HOUSE_NO":"１３號四樓","E_COORD97":171481.62,"N_COORD97":2543039.1699999999,"ADDRESS":"中華東路二段７３巷１３號四樓","OBJECTID":324855},"geometry":{"x":171481.62000000104,"y":2543039.1699999999}},{"attributes":{"ID":324865,"DIS_CODE":0,"TOWNNAME":"新市區","LI":"社內里","LIN":"18鄰","STREET":" ","SECT":" ","MAREA":"社內","LANE":" ","ALLEY":" ","HOUSE_NO":"１８９之３號","E_COORD97":176141.64999999999,"N_COORD97":2553044.0499999998,"ADDRESS":"社內１８９之３號","OBJECTID":324856},"geometry":{"x":176141.6500000013,"y":2553044.0500000026}},{"attributes":{"ID":324866,"DIS_CODE":0,"TOWNNAME":"新市區","LI":"大營里","LIN":"20鄰","STREET":" ","SECT":" ","MAREA":"豐榮","LANE":" ","ALLEY":" ","HOUSE_NO":"６６號","E_COORD97":178859.10000000001,"N_COORD97":2554229.5,"ADDRESS":"豐榮６６號","OBJECTID":324857},"geometry":{"x":178859.09999999963,"y":2554229.5000000037}},{"attributes":{"ID":324867,"DIS_CODE":0,"TOWNNAME":"東區","LI":"東聖里","LIN":"15鄰","STREET":"中華東路","SECT":"二段","MAREA":" ","LANE":"７３巷","ALLEY":" ","HOUSE_NO":"１３號四樓之１","E_COORD97":171481.62,"N_COORD97":2543039.1699999999,"ADDRESS":"中華東路二段７３巷１３號四樓之１","OBJECTID":324858},"geometry":{"x":171481.62000000104,"y":2543039.1699999999}},{"attributes":{"ID":324868,"DIS_CODE":0,"TOWNNAME":"東區","LI":"東聖里","LIN":"15鄰","STREET":"中華東路","SECT":"二段","MAREA":" ","LANE":"７３巷","ALLEY":" ","HOUSE_NO":"１３號五樓","E_COORD97":171481.62,"N_COORD97":2543039.1699999999,"ADDRESS":"中華東路二段７３巷１３號五樓","OBJECTID":324859},"geometry":{"x":171481.62000000104,"y":2543039.1699999999}},{"attributes":{"ID":324869,"DIS_CODE":0,"TOWNNAME":"東區","LI":"東聖里","LIN":"15鄰","STREET":"中華東路","SECT":"二段","MAREA":" ","LANE":"７３巷","ALLEY":" ","HOUSE_NO":"１３號五樓之１","E_COORD97":171481.62,"N_COORD97":2543039.1699999999,"ADDRESS":"中華東路二段７３巷１３號五樓之１","OBJECTID":324860},"geometry":{"x":171481.62000000104,"y":2543039.1699999999}},{"attributes":{"ID":324870,"DIS_CODE":0,"TOWNNAME":"新營區","LI":"新南里","LIN":"17鄰","STREET":"金華路","SECT":"二段","MAREA":" ","LANE":" ","ALLEY":" ","HOUSE_NO":"２０３號","E_COORD97":178326.07999999999,"N_COORD97":2578436.7599999998,"ADDRESS":"金華路二段２０３號","OBJECTID":324861},"geometry":{"x":178326.08000000007,"y":2578436.7599999998}},{"attributes":{"ID":324871,"DIS_CODE":0,"TOWNNAME":"柳營區","LI":"太康里","LIN":"20鄰","STREET":"路","SECT":" ","MAREA":" ","LANE":" ","ALLEY":" ","HOUSE_NO":"東２號之６","E_COORD97":182543.54000000001,"N_COORD97":2575333.8100000001,"ADDRESS":"路東２號之６","OBJECTID":324862},"geometry":{"x":182543.54000000004,"y":2575333.8100000024}},{"attributes":{"ID":324872,"DIS_CODE":0,"TOWNNAME":"歸仁區","LI":"大廟里","LIN":"17鄰","STREET":"保吉路","SECT":" ","MAREA":" ","LANE":" ","ALLEY":" ","HOUSE_NO":"２６８號","E_COORD97":176215.17000000001,"N_COORD97":2545113.25,"ADDRESS":"保吉路２６８號","OBJECTID":324863},"geometry":{"x":176215.17000000179,"y":2545113.25}},{"attributes":{"ID":324873,"DIS_CODE":0,"TOWNNAME":"大內區","LI":"石城里","LIN":"16鄰","STREET":" ","SECT":" ","MAREA":"石子瀨","LANE":" ","ALLEY":" ","HOUSE_NO":"１２２之１５５號","E_COORD97":184066.45651300001,"N_COORD97":2557632.56115,"ADDRESS":"石子瀨１２２之１５５號","OBJECTID":324864},"geometry":{"x":184066.45651300065,"y":2557632.5611470006}},{"attributes":{"ID":324874,"DIS_CODE":0,"TOWNNAME":"新市區","LI":"社內里","LIN":"18鄰","STREET":" ","SECT":" ","MAREA":"社內","LANE":" ","ALLEY":" ","HOUSE_NO":"１９１之２號","E_COORD97":176143.677176,"N_COORD97":2553060.8149899999,"ADDRESS":"社內１９１之２號","OBJECTID":324865},"geometry":{"x":176143.67717600055,"y":2553060.8149870001}},{"attributes":{"ID":324875,"DIS_CODE":0,"TOWNNAME":"新市區","LI":"大營里","LIN":"20鄰","STREET":" ","SECT":" ","MAREA":"豐榮","LANE":" ","ALLEY":" ","HOUSE_NO":"５３之３號","E_COORD97":178777.57000000001,"N_COORD97":2554193.2999999998,"ADDRESS":"豐榮５３之３號","OBJECTID":324866},"geometry":{"x":178777.57000000216,"y":2554193.3000000007}},{"attributes":{"ID":324876,"DIS_CODE":0,"TOWNNAME":"新市區","LI":"港墘里","LIN":"26鄰","STREET":"中山路","SECT":" ","MAREA":" ","LANE":"７８巷","ALLEY":" ","HOUSE_NO":"８號","E_COORD97":178192.63,"N_COORD97":2552867.25,"ADDRESS":"中山路７８巷８號","OBJECTID":324867},"geometry":{"x":178192.63000000082,"y":2552867.25}},{"attributes":{"ID":324877,"DIS_CODE":0,"TOWNNAME":"新市區","LI":"港墘里","LIN":"24鄰","STREET":"南昌街","SECT":" ","MAREA":" ","LANE":"３９巷","ALLEY":" ","HOUSE_NO":"１８號","E_COORD97":177947.79000000001,"N_COORD97":2552965.5,"ADDRESS":"南昌街３９巷１８號","OBJECTID":324868},"geometry":{"x":177947.79000000004,"y":2552965.5000000019}},{"attributes":{"ID":324878,"DIS_CODE":0,"TOWNNAME":"新市區","LI":"新和里","LIN":"42鄰","STREET":"信義街","SECT":" ","MAREA":" ","LANE":"１０６巷","ALLEY":" ","HOUSE_NO":"１３１號","E_COORD97":177334.63,"N_COORD97":2553019.27,"ADDRESS":"信義街１０６巷１３１號","OBJECTID":324869},"geometry":{"x":177334.63000000082,"y":2553019.2699999996}},{"attributes":{"ID":324879,"DIS_CODE":0,"TOWNNAME":"新市區","LI":"港墘里","LIN":"4鄰","STREET":"三民街","SECT":" ","MAREA":" ","LANE":"７８巷","ALLEY":" ","HOUSE_NO":"１６號","E_COORD97":178468.01000000001,"N_COORD97":2553490.54,"ADDRESS":"三民街７８巷１６號","OBJECTID":324870},"geometry":{"x":178468.01000000071,"y":2553490.540000001}},{"attributes":{"ID":324880,"DIS_CODE":0,"TOWNNAME":"新市區","LI":"潭頂里","LIN":"14鄰","STREET":" ","SECT":" ","MAREA":"潭頂","LANE":" ","ALLEY":" ","HOUSE_NO":"５４９之１號","E_COORD97":180095.72,"N_COORD97":2552926.2999999998,"ADDRESS":"潭頂５４９之１號","OBJECTID":324871},"geometry":{"x":180095.71999999974,"y":2552926.3000000045}},{"attributes":{"ID":324881,"DIS_CODE":0,"TOWNNAME":"東區","LI":"東聖里","LIN":"15鄰","STREET":"中華東路","SECT":"二段","MAREA":" ","LANE":"７３巷","ALLEY":" ","HOUSE_NO":"１３號六樓","E_COORD97":171481.62,"N_COORD97":2543039.1699999999,"ADDRESS":"中華東路二段７３巷１３號六樓","OBJECTID":324872},"geometry":{"x":171481.62000000104,"y":2543039.1699999999}},{"attributes":{"ID":324882,"DIS_CODE":0,"TOWNNAME":"新市區","LI":"永就里","LIN":"4鄰","STREET":" ","SECT":" ","MAREA":"永就","LANE":" ","ALLEY":" ","HOUSE_NO":"３９之３號","E_COORD97":178518.31,"N_COORD97":2551481.7999999998,"ADDRESS":"永就３９之３號","OBJECTID":324873},"geometry":{"x":178518.31000000052,"y":2551481.8000000045}},{"attributes":{"ID":324883,"DIS_CODE":0,"TOWNNAME":"東區","LI":"東聖里","LIN":"15鄰","STREET":"中華東路","SECT":"二段","MAREA":" ","LANE":"７３巷","ALLEY":" ","HOUSE_NO":"１３號六樓之１","E_COORD97":171481.62,"N_COORD97":2543039.1699999999,"ADDRESS":"中華東路二段７３巷１３號六樓之１","OBJECTID":324874},"geometry":{"x":171481.62000000104,"y":2543039.1699999999}},{"attributes":{"ID":324884,"DIS_CODE":0,"TOWNNAME":"東區","LI":"東聖里","LIN":"15鄰","STREET":"中華東路","SECT":"二段","MAREA":" ","LANE":"７３巷","ALLEY":" ","HOUSE_NO":"１號三樓","E_COORD97":171453.76000000001,"N_COORD97":2543030.7599999998,"ADDRESS":"中華東路二段７３巷１號三樓","OBJECTID":324875},"geometry":{"x":171453.75999999978,"y":2543030.7599999998}},{"attributes":{"ID":324885,"DIS_CODE":0,"TOWNNAME":"新市區","LI":"永就里","LIN":"4鄰","STREET":" ","SECT":" ","MAREA":"永就","LANE":" ","ALLEY":" ","HOUSE_NO":"４２號","E_COORD97":178467.23000000001,"N_COORD97":2551525.5,"ADDRESS":"永就４２號","OBJECTID":324876},"geometry":{"x":178467.23000000138,"y":2551525.5}},{"attributes":{"ID":324886,"DIS_CODE":0,"TOWNNAME":"東區","LI":"東聖里","LIN":"15鄰","STREET":"中華東路","SECT":"二段","MAREA":" ","LANE":"７３巷","ALLEY":" ","HOUSE_NO":"１號三樓之１","E_COORD97":171453.76000000001,"N_COORD97":2543030.7599999998,"ADDRESS":"中華東路二段７３巷１號三樓之１","OBJECTID":324877},"geometry":{"x":171453.75999999978,"y":2543030.7599999998}},{"attributes":{"ID":324887,"DIS_CODE":0,"TOWNNAME":"東區","LI":"東聖里","LIN":"15鄰","STREET":"中華東路","SECT":"二段","MAREA":" ","LANE":"７３巷","ALLEY":" ","HOUSE_NO":"１號三樓之２","E_COORD97":171453.76000000001,"N_COORD97":2543030.7599999998,"ADDRESS":"中華東路二段７３巷１號三樓之２","OBJECTID":324878},"geometry":{"x":171453.75999999978,"y":2543030.7599999998}},{"attributes":{"ID":324888,"DIS_CODE":0,"TOWNNAME":"新市區","LI":"社內里","LIN":"18鄰","STREET":" ","SECT":" ","MAREA":"社內","LANE":" ","ALLEY":" ","HOUSE_NO":"１９１號","E_COORD97":176114.87,"N_COORD97":2553071,"ADDRESS":"社內１９１號","OBJECTID":324879},"geometry":{"x":176114.87000000011,"y":2553071.0000000019}},{"attributes":{"ID":324889,"DIS_CODE":0,"TOWNNAME":"柳營區","LI":"人和里","LIN":"17鄰","STREET":"柳營路","SECT":"三段","MAREA":" ","LANE":" ","ALLEY":" ","HOUSE_NO":"４０８號","E_COORD97":179717.5,"N_COORD97":2577010.6000000001,"ADDRESS":"柳營路三段４０８號","OBJECTID":324880},"geometry":{"x":179717.50000000093,"y":2577010.5999999996}},{"attributes":{"ID":324890,"DIS_CODE":0,"TOWNNAME":"柳營區","LI":"人和里","LIN":"17鄰","STREET":"柳營路","SECT":"三段","MAREA":" ","LANE":" ","ALLEY":" ","HOUSE_NO":"４１０號","E_COORD97":179717.78,"N_COORD97":2577016.5899999999,"ADDRESS":"柳營路三段４１０號","OBJECTID":324881},"geometry":{"x":179717.78000000026,"y":2577016.5900000017}},{"attributes":{"ID":324891,"DIS_CODE":0,"TOWNNAME":"柳營區","LI":"人和里","LIN":"17鄰","STREET":"柳營路","SECT":"三段","MAREA":" ","LANE":" ","ALLEY":" ","HOUSE_NO":"４１２號","E_COORD97":179718.07000000001,"N_COORD97":2577022.5800000001,"ADDRESS":"柳營路三段４１２號","OBJECTID":324882},"geometry":{"x":179718.0700000003,"y":2577022.5800000038}},{"attributes":{"ID":324892,"DIS_CODE":0,"TOWNNAME":"柳營區","LI":"人和里","LIN":"17鄰","STREET":"柳營路","SECT":"三段","MAREA":" ","LANE":" ","ALLEY":" ","HOUSE_NO":"４１６號","E_COORD97":179718.35000000001,"N_COORD97":2577028.5800000001,"ADDRESS":"柳營路三段４１６號","OBJECTID":324883},"geometry":{"x":179718.34999999963,"y":2577028.5800000001}},{"attributes":{"ID":324893,"DIS_CODE":0,"TOWNNAME":"歸仁區","LI":"媽廟里","LIN":"15鄰","STREET":"媽廟二街","SECT":" ","MAREA":" ","LANE":"３１巷","ALLEY":" ","HOUSE_NO":"３號","E_COORD97":177696.34656599999,"N_COORD97":2543751.1395100001,"ADDRESS":"媽廟二街３１巷３號","OBJECTID":324884},"geometry":{"x":177696.34656600002,"y":2543751.1395110004}},{"attributes":{"ID":324894,"DIS_CODE":0,"TOWNNAME":"新市區","LI":"新和里","LIN":"42鄰","STREET":"信義街","SECT":" ","MAREA":" ","LANE":"１０６巷","ALLEY":" ","HOUSE_NO":"２８號","E_COORD97":177354.10000000001,"N_COORD97":2553008.27,"ADDRESS":"信義街１０６巷２８號","OBJECTID":324885},"geometry":{"x":177354.09999999963,"y":2553008.2699999996}},{"attributes":{"ID":324895,"DIS_CODE":0,"TOWNNAME":"新市區","LI":"永就里","LIN":"4鄰","STREET":" ","SECT":" ","MAREA":"永就","LANE":" ","ALLEY":" ","HOUSE_NO":"４１之１號","E_COORD97":178433.70000000001,"N_COORD97":2551492.7999999998,"ADDRESS":"永就４１之１號","OBJECTID":324886},"geometry":{"x":178433.70000000019,"y":2551492.8000000026}},{"attributes":{"ID":324896,"DIS_CODE":0,"TOWNNAME":"新市區","LI":"新市里","LIN":"26鄰","STREET":"復興路","SECT":" ","MAREA":" ","LANE":"６巷","ALLEY":" ","HOUSE_NO":"３１號","E_COORD97":177915.17999999999,"N_COORD97":2553367.7799999998,"ADDRESS":"復興路６巷３１號","OBJECTID":324887},"geometry":{"x":177915.18000000063,"y":2553367.7799999993}},{"attributes":{"ID":324897,"DIS_CODE":0,"TOWNNAME":"新市區","LI":"新和里","LIN":"40鄰","STREET":"勝利街","SECT":" ","MAREA":" ","LANE":"２１巷","ALLEY":" ","HOUSE_NO":"４號","E_COORD97":177336.95000000001,"N_COORD97":2552920.0099999998,"ADDRESS":"勝利街２１巷４號","OBJECTID":324888},"geometry":{"x":177336.95000000019,"y":2552920.0099999998}},{"attributes":{"ID":324898,"DIS_CODE":0,"TOWNNAME":"東區","LI":"東聖里","LIN":"15鄰","STREET":"中華東路","SECT":"二段","MAREA":" ","LANE":"７３巷","ALLEY":" ","HOUSE_NO":"１號三樓之４","E_COORD97":171453.76000000001,"N_COORD97":2543030.7599999998,"ADDRESS":"中華東路二段７３巷１號三樓之４","OBJECTID":324889},"geometry":{"x":171453.75999999978,"y":2543030.7599999998}},{"attributes":{"ID":324899,"DIS_CODE":0,"TOWNNAME":"東區","LI":"東聖里","LIN":"15鄰","STREET":"中華東路","SECT":"二段","MAREA":" ","LANE":"７３巷","ALLEY":" ","HOUSE_NO":"１號三樓之５","E_COORD97":171453.76000000001,"N_COORD97":2543030.7599999998,"ADDRESS":"中華東路二段７３巷１號三樓之５","OBJECTID":324890},"geometry":{"x":171453.75999999978,"y":2543030.7599999998}},{"attributes":{"ID":324900,"DIS_CODE":0,"TOWNNAME":"東區","LI":"東聖里","LIN":"15鄰","STREET":"中華東路","SECT":"二段","MAREA":" ","LANE":"７３巷","ALLEY":" ","HOUSE_NO":"１號三樓之６","E_COORD97":171453.76000000001,"N_COORD97":2543030.7599999998,"ADDRESS":"中華東路二段７３巷１號三樓之６","OBJECTID":324891},"geometry":{"x":171453.75999999978,"y":2543030.7599999998}},{"attributes":{"ID":324901,"DIS_CODE":0,"TOWNNAME":"東區","LI":"東聖里","LIN":"15鄰","STREET":"中華東路","SECT":"二段","MAREA":" ","LANE":"７３巷","ALLEY":" ","HOUSE_NO":"１號三樓之７","E_COORD97":171453.76000000001,"N_COORD97":2543030.7599999998,"ADDRESS":"中華東路二段７３巷１號三樓之７","OBJECTID":324892},"geometry":{"x":171453.75999999978,"y":2543030.7599999998}},{"attributes":{"ID":324902,"DIS_CODE":0,"TOWNNAME":"東區","LI":"東聖里","LIN":"15鄰","STREET":"中華東路","SECT":"二段","MAREA":" ","LANE":"７３巷","ALLEY":" ","HOUSE_NO":"１號四樓","E_COORD97":171453.76000000001,"N_COORD97":2543030.7599999998,"ADDRESS":"中華東路二段７３巷１號四樓","OBJECTID":324893},"geometry":{"x":171453.75999999978,"y":2543030.7599999998}},{"attributes":{"ID":324903,"DIS_CODE":0,"TOWNNAME":"東區","LI":"東聖里","LIN":"15鄰","STREET":"中華東路","SECT":"二段","MAREA":" ","LANE":"７３巷","ALLEY":" ","HOUSE_NO":"１號四樓之１","E_COORD97":171453.76000000001,"N_COORD97":2543030.7599999998,"ADDRESS":"中華東路二段７３巷１號四樓之１","OBJECTID":324894},"geometry":{"x":171453.75999999978,"y":2543030.7599999998}},{"attributes":{"ID":324904,"DIS_CODE":0,"TOWNNAME":"東區","LI":"東聖里","LIN":"15鄰","STREET":"中華東路","SECT":"二段","MAREA":" ","LANE":"７３巷","ALLEY":" ","HOUSE_NO":"１號四樓之２","E_COORD97":171453.76000000001,"N_COORD97":2543030.7599999998,"ADDRESS":"中華東路二段７３巷１號四樓之２","OBJECTID":324895},"geometry":{"x":171453.75999999978,"y":2543030.7599999998}},{"attributes":{"ID":324905,"DIS_CODE":0,"TOWNNAME":"東區","LI":"東聖里","LIN":"15鄰","STREET":"中華東路","SECT":"二段","MAREA":" ","LANE":"７３巷","ALLEY":" ","HOUSE_NO":"１號四樓之３","E_COORD97":171453.76000000001,"N_COORD97":2543030.7599999998,"ADDRESS":"中華東路二段７３巷１號四樓之３","OBJECTID":324896},"geometry":{"x":171453.75999999978,"y":2543030.7599999998}},{"attributes":{"ID":324906,"DIS_CODE":0,"TOWNNAME":"東區","LI":"東聖里","LIN":"15鄰","STREET":"中華東路","SECT":"二段","MAREA":" ","LANE":"７３巷","ALLEY":" ","HOUSE_NO":"１號四樓之４","E_COORD97":171453.76000000001,"N_COORD97":2543030.7599999998,"ADDRESS":"中華東路二段７３巷１號四樓之４","OBJECTID":324897},"geometry":{"x":171453.75999999978,"y":2543030.7599999998}},{"attributes":{"ID":324907,"DIS_CODE":0,"TOWNNAME":"東區","LI":"東聖里","LIN":"15鄰","STREET":"中華東路","SECT":"二段","MAREA":" ","LANE":"７３巷","ALLEY":" ","HOUSE_NO":"１號四樓之５","E_COORD97":171453.76000000001,"N_COORD97":2543030.7599999998,"ADDRESS":"中華東路二段７３巷１號四樓之５","OBJECTID":324898},"geometry":{"x":171453.75999999978,"y":2543030.7599999998}},{"attributes":{"ID":324908,"DIS_CODE":0,"TOWNNAME":"東區","LI":"東聖里","LIN":"15鄰","STREET":"中華東路","SECT":"二段","MAREA":" ","LANE":"７３巷","ALLEY":" ","HOUSE_NO":"１號五樓","E_COORD97":171453.76000000001,"N_COORD97":2543030.7599999998,"ADDRESS":"中華東路二段７３巷１號五樓","OBJECTID":324899},"geometry":{"x":171453.75999999978,"y":2543030.7599999998}},{"attributes":{"ID":324909,"DIS_CODE":0,"TOWNNAME":"東區","LI":"東聖里","LIN":"15鄰","STREET":"中華東路","SECT":"二段","MAREA":" ","LANE":"７３巷","ALLEY":" ","HOUSE_NO":"１號五樓之１","E_COORD97":171453.76000000001,"N_COORD97":2543030.7599999998,"ADDRESS":"中華東路二段７３巷１號五樓之１","OBJECTID":324900},"geometry":{"x":171453.75999999978,"y":2543030.7599999998}},{"attributes":{"ID":324910,"DIS_CODE":0,"TOWNNAME":"東區","LI":"東聖里","LIN":"15鄰","STREET":"中華東路","SECT":"二段","MAREA":" ","LANE":"７３巷","ALLEY":" ","HOUSE_NO":"１號五樓之２","E_COORD97":171453.76000000001,"N_COORD97":2543030.7599999998,"ADDRESS":"中華東路二段７３巷１號五樓之２","OBJECTID":324901},"geometry":{"x":171453.75999999978,"y":2543030.7599999998}},{"attributes":{"ID":324911,"DIS_CODE":0,"TOWNNAME":"東區","LI":"東聖里","LIN":"15鄰","STREET":"中華東路","SECT":"二段","MAREA":" ","LANE":"７３巷","ALLEY":" ","HOUSE_NO":"１號五樓之３","E_COORD97":171453.76000000001,"N_COORD97":2543030.7599999998,"ADDRESS":"中華東路二段７３巷１號五樓之３","OBJECTID":324902},"geometry":{"x":171453.75999999978,"y":2543030.7599999998}},{"attributes":{"ID":324912,"DIS_CODE":0,"TOWNNAME":"東區","LI":"東聖里","LIN":"15鄰","STREET":"中華東路","SECT":"二段","MAREA":" ","LANE":"７３巷","ALLEY":" ","HOUSE_NO":"１號五樓之４","E_COORD97":171453.76000000001,"N_COORD97":2543030.7599999998,"ADDRESS":"中華東路二段７３巷１號五樓之４","OBJECTID":324903},"geometry":{"x":171453.75999999978,"y":2543030.7599999998}},{"attributes":{"ID":324913,"DIS_CODE":0,"TOWNNAME":"東區","LI":"東聖里","LIN":"15鄰","STREET":"中華東路","SECT":"二段","MAREA":" ","LANE":"７３巷","ALLEY":" ","HOUSE_NO":"１號五樓之５","E_COORD97":171453.76000000001,"N_COORD97":2543030.7599999998,"ADDRESS":"中華東路二段７３巷１號五樓之５","OBJECTID":324904},"geometry":{"x":171453.75999999978,"y":2543030.7599999998}},{"attributes":{"ID":324914,"DIS_CODE":0,"TOWNNAME":"東區","LI":"東聖里","LIN":"15鄰","STREET":"中華東路","SECT":"二段","MAREA":" ","LANE":"７３巷","ALLEY":" ","HOUSE_NO":"１號六樓","E_COORD97":171453.76000000001,"N_COORD97":2543030.7599999998,"ADDRESS":"中華東路二段７３巷１號六樓","OBJECTID":324905},"geometry":{"x":171453.75999999978,"y":2543030.7599999998}},{"attributes":{"ID":324915,"DIS_CODE":0,"TOWNNAME":"東區","LI":"東聖里","LIN":"15鄰","STREET":"中華東路","SECT":"二段","MAREA":" ","LANE":"７３巷","ALLEY":" ","HOUSE_NO":"１號六樓之１","E_COORD97":171453.76000000001,"N_COORD97":2543030.7599999998,"ADDRESS":"中華東路二段７３巷１號六樓之１","OBJECTID":324906},"geometry":{"x":171453.75999999978,"y":2543030.7599999998}},{"attributes":{"ID":324916,"DIS_CODE":0,"TOWNNAME":"東區","LI":"東聖里","LIN":"15鄰","STREET":"中華東路","SECT":"二段","MAREA":" ","LANE":"７３巷","ALLEY":" ","HOUSE_NO":"１號六樓之２","E_COORD97":171453.76000000001,"N_COORD97":2543030.7599999998,"ADDRESS":"中華東路二段７３巷１號六樓之２","OBJECTID":324907},"geometry":{"x":171453.75999999978,"y":2543030.7599999998}},{"attributes":{"ID":324917,"DIS_CODE":0,"TOWNNAME":"歸仁區","LI":"六甲里","LIN":"17鄰","STREET":"中正二十街","SECT":" ","MAREA":" ","LANE":" ","ALLEY":" ","HOUSE_NO":"１０４號","E_COORD97":175689.43130299999,"N_COORD97":2539120.6932199998,"ADDRESS":"中正二十街１０４號","OBJECTID":324908},"geometry":{"x":175689.43130300008,"y":2539120.6932180002}},{"attributes":{"ID":324918,"DIS_CODE":0,"TOWNNAME":"歸仁區","LI":"文化里","LIN":"17鄰","STREET":"文化北街","SECT":" ","MAREA":" ","LANE":" ","ALLEY":" ","HOUSE_NO":"１５４號","E_COORD97":177109.81,"N_COORD97":2541420.3399999999,"ADDRESS":"文化北街１５４號","OBJECTID":324909},"geometry":{"x":177109.80999999959,"y":2541420.3399999999}},{"attributes":{"ID":324919,"DIS_CODE":0,"TOWNNAME":"南區","LI":"金華里","LIN":"17鄰","STREET":"惠南街","SECT":" ","MAREA":" ","LANE":" ","ALLEY":" ","HOUSE_NO":"６５號","E_COORD97":166749.17000000001,"N_COORD97":2542204.8500000001,"ADDRESS":"惠南街６５號","OBJECTID":324910},"geometry":{"x":166749.17000000179,"y":2542204.8500000015}},{"attributes":{"ID":324920,"DIS_CODE":0,"TOWNNAME":"南區","LI":"金華里","LIN":"17鄰","STREET":"尊南街","SECT":" ","MAREA":" ","LANE":" ","ALLEY":" ","HOUSE_NO":"１８７號","E_COORD97":166821.51000000001,"N_COORD97":2542167.3300000001,"ADDRESS":"尊南街１８７號","OBJECTID":324911},"geometry":{"x":166821.51000000071,"y":2542167.3299999982}},{"attributes":{"ID":324921,"DIS_CODE":0,"TOWNNAME":"安南區","LI":"海佃里","LIN":"21鄰","STREET":"海佃路","SECT":"一段","MAREA":" ","LANE":"２４３巷","ALLEY":" ","HOUSE_NO":"２６號","E_COORD97":167005.53,"N_COORD97":2547351.8199999998,"ADDRESS":"海佃路一段２４３巷２６號","OBJECTID":324912},"geometry":{"x":167005.53000000119,"y":2547351.820000004}},{"attributes":{"ID":324922,"DIS_CODE":0,"TOWNNAME":"安南區","LI":"溪墘里","LIN":"4鄰","STREET":"海佃路","SECT":"一段","MAREA":" ","LANE":"１８８巷","ALLEY":" ","HOUSE_NO":"３３號","E_COORD97":167259.01999999999,"N_COORD97":2547282.3100000001,"ADDRESS":"海佃路一段１８８巷３３號","OBJECTID":324913},"geometry":{"x":167259.02000000048,"y":2547282.3100000024}},{"attributes":{"ID":324923,"DIS_CODE":0,"TOWNNAME":"東山區","LI":"東中里","LIN":"17鄰","STREET":"民治街","SECT":" ","MAREA":" ","LANE":" ","ALLEY":" ","HOUSE_NO":"２９號","E_COORD97":189085.76999999999,"N_COORD97":2579919.1099999999,"ADDRESS":"民治街２９號","OBJECTID":324914},"geometry":{"x":189085.77000000048,"y":2579919.1099999994}},{"attributes":{"ID":324924,"DIS_CODE":0,"TOWNNAME":"安南區","LI":"溪墘里","LIN":"4鄰","STREET":"海佃路","SECT":"一段","MAREA":" ","LANE":"１８８巷","ALLEY":" ","HOUSE_NO":"２１號","E_COORD97":167230.41,"N_COORD97":2547275.8999999999,"ADDRESS":"海佃路一段１８８巷２１號","OBJECTID":324915},"geometry":{"x":167230.41000000015,"y":2547275.9000000004}},{"attributes":{"ID":324925,"DIS_CODE":0,"TOWNNAME":"安南區","LI":"幸福里","LIN":"20鄰","STREET":"海佃路","SECT":"一段","MAREA":" ","LANE":"９５巷","ALLEY":" ","HOUSE_NO":"５６號","E_COORD97":166919.75,"N_COORD97":2546889.8599999999,"ADDRESS":"海佃路一段９５巷５６號","OBJECTID":324916},"geometry":{"x":166919.74999999907,"y":2546889.8600000013}},{"attributes":{"ID":324926,"DIS_CODE":0,"TOWNNAME":"安南區","LI":"幸福里","LIN":"20鄰","STREET":"海佃路","SECT":"一段","MAREA":" ","LANE":"９５巷","ALLEY":" ","HOUSE_NO":"６０號","E_COORD97":166904.07000000001,"N_COORD97":2546886.4199999999,"ADDRESS":"海佃路一段９５巷６０號","OBJECTID":324917},"geometry":{"x":166904.0700000003,"y":2546886.4200000037}},{"attributes":{"ID":324927,"DIS_CODE":0,"TOWNNAME":"安南區","LI":"幸福里","LIN":"20鄰","STREET":"海佃路","SECT":"一段","MAREA":" ","LANE":"９５巷","ALLEY":" ","HOUSE_NO":"７號","E_COORD97":167140.70999999999,"N_COORD97":2546930.9900000002,"ADDRESS":"海佃路一段９５巷７號","OBJECTID":324918},"geometry":{"x":167140.71000000089,"y":2546930.9900000021}},{"attributes":{"ID":324928,"DIS_CODE":0,"TOWNNAME":"安南區","LI":"安東里","LIN":"24鄰","STREET":"安和路","SECT":"二段","MAREA":" ","LANE":"２巷","ALLEY":" ","HOUSE_NO":"１３號","E_COORD97":169481.95000000001,"N_COORD97":2548522.71,"ADDRESS":"安和路二段２巷１３號","OBJECTID":324919},"geometry":{"x":169481.95000000205,"y":2548522.7100000046}},{"attributes":{"ID":324929,"DIS_CODE":0,"TOWNNAME":"安南區","LI":"幸福里","LIN":"20鄰","STREET":"海佃路","SECT":"一段","MAREA":" ","LANE":"９５巷","ALLEY":" ","HOUSE_NO":"１４號之７","E_COORD97":167087.14000000001,"N_COORD97":2546940.1000000001,"ADDRESS":"海佃路一段９５巷１４號之７","OBJECTID":324920},"geometry":{"x":167087.1400000006,"y":2546940.1000000015}},{"attributes":{"ID":324930,"DIS_CODE":0,"TOWNNAME":"安南區","LI":"安西里","LIN":"13鄰","STREET":"安和路","SECT":"一段","MAREA":" ","LANE":"１５９巷","ALLEY":" ","HOUSE_NO":"６６號","E_COORD97":169230.38,"N_COORD97":2547846.23,"ADDRESS":"安和路一段１５９巷６６號","OBJECTID":324921},"geometry":{"x":169230.37999999989,"y":2547846.2300000004}},{"attributes":{"ID":324931,"DIS_CODE":0,"TOWNNAME":"安南區","LI":"州南里","LIN":"24鄰","STREET":"安和路","SECT":"四段","MAREA":" ","LANE":"５３７巷","ALLEY":" ","HOUSE_NO":"５５號","E_COORD97":169818.79000000001,"N_COORD97":2551419.3399999999,"ADDRESS":"安和路四段５３７巷５５號","OBJECTID":324922},"geometry":{"x":169818.79000000097,"y":2551419.339999998}},{"attributes":{"ID":324932,"DIS_CODE":0,"TOWNNAME":"安南區","LI":"溪墘里","LIN":"4鄰","STREET":"海佃路","SECT":"一段","MAREA":" ","LANE":"１８８巷","ALLEY":" ","HOUSE_NO":"１號","E_COORD97":167181.69,"N_COORD97":2547265.0699999998,"ADDRESS":"海佃路一段１８８巷１號","OBJECTID":324923},"geometry":{"x":167181.68999999948,"y":2547265.0699999984}},{"attributes":{"ID":324933,"DIS_CODE":0,"TOWNNAME":"南區","LI":"金華里","LIN":"17鄰","STREET":"尊南街","SECT":" ","MAREA":" ","LANE":" ","ALLEY":" ","HOUSE_NO":"１８９號","E_COORD97":166821.69,"N_COORD97":2542172.77,"ADDRESS":"尊南街１８９號","OBJECTID":324924},"geometry":{"x":166821.69000000041,"y":2542172.7699999996}},{"attributes":{"ID":324934,"DIS_CODE":0,"TOWNNAME":"南區","LI":"金華里","LIN":"17鄰","STREET":"尊南街","SECT":" ","MAREA":" ","LANE":" ","ALLEY":" ","HOUSE_NO":"１９１號","E_COORD97":166822.04000000001,"N_COORD97":2542176.7999999998,"ADDRESS":"尊南街１９１號","OBJECTID":324925},"geometry":{"x":166822.04000000097,"y":2542176.8000000026}},{"attributes":{"ID":324935,"DIS_CODE":0,"TOWNNAME":"南區","LI":"金華里","LIN":"17鄰","STREET":"尊南街","SECT":" ","MAREA":" ","LANE":" ","ALLEY":" ","HOUSE_NO":"１９３號","E_COORD97":166822.22,"N_COORD97":2542181.1899999999,"ADDRESS":"尊南街１９３號","OBJECTID":324926},"geometry":{"x":166822.22000000067,"y":2542181.1899999976}},{"attributes":{"ID":324936,"DIS_CODE":0,"TOWNNAME":"南區","LI":"金華里","LIN":"17鄰","STREET":"尊南街","SECT":" ","MAREA":" ","LANE":" ","ALLEY":" ","HOUSE_NO":"１９５號","E_COORD97":166822.73999999999,"N_COORD97":2542184.7000000002,"ADDRESS":"尊南街１９５號","OBJECTID":324927},"geometry":{"x":166822.74000000022,"y":2542184.700000003}},{"attributes":{"ID":324937,"DIS_CODE":0,"TOWNNAME":"南區","LI":"金華里","LIN":"17鄰","STREET":"尊南街","SECT":" ","MAREA":" ","LANE":" ","ALLEY":" ","HOUSE_NO":"１９７號","E_COORD97":166822.92000000001,"N_COORD97":2542189.6200000001,"ADDRESS":"尊南街１９７號","OBJECTID":324928},"geometry":{"x":166822.91999999993,"y":2542189.620000001}},{"attributes":{"ID":324938,"DIS_CODE":0,"TOWNNAME":"南區","LI":"金華里","LIN":"17鄰","STREET":"尊南街","SECT":" ","MAREA":" ","LANE":" ","ALLEY":" ","HOUSE_NO":"１９９號","E_COORD97":166823.10000000001,"N_COORD97":2542194.71,"ADDRESS":"尊南街１９９號","OBJECTID":324929},"geometry":{"x":166823.09999999963,"y":2542194.7100000009}},{"attributes":{"ID":324939,"DIS_CODE":0,"TOWNNAME":"南區","LI":"金華里","LIN":"17鄰","STREET":"尊南街","SECT":" ","MAREA":" ","LANE":" ","ALLEY":" ","HOUSE_NO":"２０１號","E_COORD97":166823.45000000001,"N_COORD97":2542199.1000000001,"ADDRESS":"尊南街２０１號","OBJECTID":324930},"geometry":{"x":166823.45000000019,"y":2542199.1000000034}},{"attributes":{"ID":324940,"DIS_CODE":0,"TOWNNAME":"南區","LI":"金華里","LIN":"17鄰","STREET":"惠南街","SECT":" ","MAREA":" ","LANE":" ","ALLEY":" ","HOUSE_NO":"４８號","E_COORD97":166775.64999999999,"N_COORD97":2542176.9300000002,"ADDRESS":"惠南街４８號","OBJECTID":324931},"geometry":{"x":166775.6500000013,"y":2542176.9300000016}},{"attributes":{"ID":324941,"DIS_CODE":0,"TOWNNAME":"南區","LI":"金華里","LIN":"17鄰","STREET":"惠南街","SECT":" ","MAREA":" ","LANE":" ","ALLEY":" ","HOUSE_NO":"５０號","E_COORD97":166776.20000000001,"N_COORD97":2542184.71,"ADDRESS":"惠南街５０號","OBJECTID":324932},"geometry":{"x":166776.19999999925,"y":2542184.7100000009}},{"attributes":{"ID":324942,"DIS_CODE":0,"TOWNNAME":"南區","LI":"金華里","LIN":"17鄰","STREET":"惠南街","SECT":" ","MAREA":" ","LANE":" ","ALLEY":" ","HOUSE_NO":"５２號","E_COORD97":166777.07999999999,"N_COORD97":2542188.3300000001,"ADDRESS":"惠南街５２號","OBJECTID":324933},"geometry":{"x":166777.08000000194,"y":2542188.3300000019}},{"attributes":{"ID":324943,"DIS_CODE":0,"TOWNNAME":"南區","LI":"金華里","LIN":"17鄰","STREET":"惠南街","SECT":" ","MAREA":" ","LANE":" ","ALLEY":" ","HOUSE_NO":"６３號","E_COORD97":166748.95000000001,"N_COORD97":2542199.98,"ADDRESS":"惠南街６３號","OBJECTID":324934},"geometry":{"x":166748.95000000019,"y":2542199.9800000004}},{"attributes":{"ID":324944,"DIS_CODE":0,"TOWNNAME":"南區","LI":"金華里","LIN":"17鄰","STREET":"惠南街","SECT":" ","MAREA":" ","LANE":" ","ALLEY":" ","HOUSE_NO":"６７號","E_COORD97":166750.04000000001,"N_COORD97":2542208.79,"ADDRESS":"惠南街６７號","OBJECTID":324935},"geometry":{"x":166750.03999999911,"y":2542208.790000001}},{"attributes":{"ID":324945,"DIS_CODE":0,"TOWNNAME":"南區","LI":"金華里","LIN":"17鄰","STREET":"惠南街","SECT":" ","MAREA":" ","LANE":" ","ALLEY":" ","HOUSE_NO":"６９號","E_COORD97":166751.57999999999,"N_COORD97":2542214.2799999998,"ADDRESS":"惠南街６９號","OBJECTID":324936},"geometry":{"x":166751.58000000194,"y":2542214.2799999993}},{"attributes":{"ID":324946,"DIS_CODE":0,"TOWNNAME":"安南區","LI":"溪墘里","LIN":"14鄰","STREET":"海佃路","SECT":"一段","MAREA":" ","LANE":"３２０巷","ALLEY":" ","HOUSE_NO":"２７號","E_COORD97":167211.67000000001,"N_COORD97":2547502.1899999999,"ADDRESS":"海佃路一段３２０巷２７號","OBJECTID":324937},"geometry":{"x":167211.66999999993,"y":2547502.1900000013}},{"attributes":{"ID":324947,"DIS_CODE":0,"TOWNNAME":"安南區","LI":"海佃里","LIN":"17鄰","STREET":"海佃路","SECT":"一段","MAREA":" ","LANE":"１５７巷","ALLEY":" ","HOUSE_NO":"２４號","E_COORD97":167024.14999999999,"N_COORD97":2547101.0099999998,"ADDRESS":"海佃路一段１５７巷２４號","OBJECTID":324938},"geometry":{"x":167024.15000000037,"y":2547101.0099999998}},{"attributes":{"ID":324948,"DIS_CODE":0,"TOWNNAME":"安南區","LI":"海西里","LIN":"8鄰","STREET":"海環街","SECT":" ","MAREA":" ","LANE":"２５６巷","ALLEY":" ","HOUSE_NO":"９號","E_COORD97":166173.42999999999,"N_COORD97":2548704.9300000002,"ADDRESS":"海環街２５６巷９號","OBJECTID":324939},"geometry":{"x":166173.4299999997,"y":2548704.9299999997}},{"attributes":{"ID":324949,"DIS_CODE":0,"TOWNNAME":"安南區","LI":"原佃里","LIN":"7鄰","STREET":"本原街","SECT":"一段","MAREA":" ","LANE":"１９５巷","ALLEY":" ","HOUSE_NO":"１１７號","E_COORD97":167446.38,"N_COORD97":2550088.6600000001,"ADDRESS":"本原街一段１９５巷１１７號","OBJECTID":324940},"geometry":{"x":167446.38000000082,"y":2550088.6600000039}},{"attributes":{"ID":324950,"DIS_CODE":0,"TOWNNAME":"安南區","LI":"原佃里","LIN":"7鄰","STREET":"本原街","SECT":"一段","MAREA":" ","LANE":"１９５巷","ALLEY":" ","HOUSE_NO":"９８號","E_COORD97":167483.85999999999,"N_COORD97":2550124.4399999999,"ADDRESS":"本原街一段１９５巷９８號","OBJECTID":324941},"geometry":{"x":167483.8599999994,"y":2550124.4400000013}},{"attributes":{"ID":324951,"DIS_CODE":0,"TOWNNAME":"安南區","LI":"原佃里","LIN":"6鄰","STREET":"本原街","SECT":"一段","MAREA":" ","LANE":"１９５巷","ALLEY":" ","HOUSE_NO":"２２號","E_COORD97":167713.23999999999,"N_COORD97":2550217.29,"ADDRESS":"本原街一段１９５巷２２號","OBJECTID":324942},"geometry":{"x":167713.24000000022,"y":2550217.2899999991}},{"attributes":{"ID":324952,"DIS_CODE":0,"TOWNNAME":"東區","LI":"東聖里","LIN":"15鄰","STREET":"中華東路","SECT":"二段","MAREA":" ","LANE":"７３巷","ALLEY":" ","HOUSE_NO":"１號六樓之３","E_COORD97":171453.76000000001,"N_COORD97":2543030.7599999998,"ADDRESS":"中華東路二段７３巷１號六樓之３","OBJECTID":324943},"geometry":{"x":171453.75999999978,"y":2543030.7599999998}},{"attributes":{"ID":324953,"DIS_CODE":0,"TOWNNAME":"東區","LI":"東聖里","LIN":"15鄰","STREET":"中華東路","SECT":"二段","MAREA":" ","LANE":"７３巷","ALLEY":" ","HOUSE_NO":"１號六樓之４","E_COORD97":171453.76000000001,"N_COORD97":2543030.7599999998,"ADDRESS":"中華東路二段７３巷１號六樓之４","OBJECTID":324944},"geometry":{"x":171453.75999999978,"y":2543030.7599999998}},{"attributes":{"ID":324954,"DIS_CODE":0,"TOWNNAME":"東區","LI":"東聖里","LIN":"15鄰","STREET":"中華東路","SECT":"二段","MAREA":" ","LANE":"７３巷","ALLEY":" ","HOUSE_NO":"１號六樓之５","E_COORD97":171453.76000000001,"N_COORD97":2543030.7599999998,"ADDRESS":"中華東路二段７３巷１號六樓之５","OBJECTID":324945},"geometry":{"x":171453.75999999978,"y":2543030.7599999998}},{"attributes":{"ID":324955,"DIS_CODE":0,"TOWNNAME":"東區","LI":"東聖里","LIN":"15鄰","STREET":"中華東路","SECT":"二段","MAREA":" ","LANE":"７３巷","ALLEY":" ","HOUSE_NO":"１號六樓之６","E_COORD97":171453.76000000001,"N_COORD97":2543030.7599999998,"ADDRESS":"中華東路二段７３巷１號六樓之６","OBJECTID":324946},"geometry":{"x":171453.75999999978,"y":2543030.7599999998}},{"attributes":{"ID":324956,"DIS_CODE":0,"TOWNNAME":"北區","LI":"成德里","LIN":"34鄰","STREET":"育德三街","SECT":" ","MAREA":" ","LANE":"４６巷","ALLEY":" ","HOUSE_NO":"３７號","E_COORD97":168250.48000000001,"N_COORD97":2546003.5099999998,"ADDRESS":"育德三街４６巷３７號","OBJECTID":324947},"geometry":{"x":168250.48000000045,"y":2546003.5099999998}},{"attributes":{"ID":324957,"DIS_CODE":0,"TOWNNAME":"東區","LI":"東聖里","LIN":"15鄰","STREET":"中華東路","SECT":"二段","MAREA":" ","LANE":"７３巷","ALLEY":" ","HOUSE_NO":"１５號三樓之１","E_COORD97":171477.67999999999,"N_COORD97":2543071.5600000001,"ADDRESS":"中華東路二段７３巷１５號三樓之１","OBJECTID":324948},"geometry":{"x":171477.6799999997,"y":2543071.5600000042}},{"attributes":{"ID":324958,"DIS_CODE":0,"TOWNNAME":"東區","LI":"東聖里","LIN":"15鄰","STREET":"中華東路","SECT":"二段","MAREA":" ","LANE":"７３巷","ALLEY":" ","HOUSE_NO":"１５號三樓之２","E_COORD97":171477.67999999999,"N_COORD97":2543071.5600000001,"ADDRESS":"中華東路二段７３巷１５號三樓之２","OBJECTID":324949},"geometry":{"x":171477.6799999997,"y":2543071.5600000042}},{"attributes":{"ID":324959,"DIS_CODE":0,"TOWNNAME":"東區","LI":"東聖里","LIN":"15鄰","STREET":"中華東路","SECT":"二段","MAREA":" ","LANE":"７３巷","ALLEY":" ","HOUSE_NO":"１５號三樓之３","E_COORD97":171477.67999999999,"N_COORD97":2543071.5600000001,"ADDRESS":"中華東路二段７３巷１５號三樓之３","OBJECTID":324950},"geometry":{"x":171477.6799999997,"y":2543071.5600000042}},{"attributes":{"ID":324960,"DIS_CODE":0,"TOWNNAME":"東區","LI":"東聖里","LIN":"15鄰","STREET":"中華東路","SECT":"二段","MAREA":" ","LANE":"７３巷","ALLEY":" ","HOUSE_NO":"１５號三樓之４","E_COORD97":171477.67999999999,"N_COORD97":2543071.5600000001,"ADDRESS":"中華東路二段７３巷１５號三樓之４","OBJECTID":324951},"geometry":{"x":171477.6799999997,"y":2543071.5600000042}},{"attributes":{"ID":324961,"DIS_CODE":0,"TOWNNAME":"南區","LI":"金華里","LIN":"17鄰","STREET":"惠南街","SECT":" ","MAREA":" ","LANE":" ","ALLEY":" ","HOUSE_NO":"７１號","E_COORD97":166752.13,"N_COORD97":2542218.9900000002,"ADDRESS":"惠南街７１號","OBJECTID":324952},"geometry":{"x":166752.12999999989,"y":2542218.9900000021}},{"attributes":{"ID":324962,"DIS_CODE":0,"TOWNNAME":"關廟區","LI":"松腳里","LIN":"17鄰","STREET":"民權街","SECT":" ","MAREA":" ","LANE":" ","ALLEY":" ","HOUSE_NO":"４６號","E_COORD97":181579.84,"N_COORD97":2539736.29,"ADDRESS":"民權街４６號","OBJECTID":324953},"geometry":{"x":181579.84000000078,"y":2539736.290000001}},{"attributes":{"ID":324963,"DIS_CODE":0,"TOWNNAME":"關廟區","LI":"松腳里","LIN":"17鄰","STREET":"民權街","SECT":" ","MAREA":" ","LANE":" ","ALLEY":" ","HOUSE_NO":"６２號","E_COORD97":181536.44,"N_COORD97":2539745.29,"ADDRESS":"民權街６２號","OBJECTID":324954},"geometry":{"x":181536.44000000041,"y":2539745.2899999991}},{"attributes":{"ID":324964,"DIS_CODE":0,"TOWNNAME":"關廟區","LI":"五甲里","LIN":"17鄰","STREET":"大順路","SECT":" ","MAREA":" ","LANE":" ","ALLEY":" ","HOUSE_NO":"７號","E_COORD97":181015.17000000001,"N_COORD97":2539035.25,"ADDRESS":"大順路７號","OBJECTID":324955},"geometry":{"x":181015.16999999993,"y":2539035.2500000037}},{"attributes":{"ID":324965,"DIS_CODE":0,"TOWNNAME":"關廟區","LI":"五甲里","LIN":"17鄰","STREET":"五甲路","SECT":" ","MAREA":" ","LANE":" ","ALLEY":" ","HOUSE_NO":"１５２號","E_COORD97":181104.76999999999,"N_COORD97":2538991.25,"ADDRESS":"五甲路１５２號","OBJECTID":324956},"geometry":{"x":181104.77000000048,"y":2538991.2500000037}},{"attributes":{"ID":324966,"DIS_CODE":0,"TOWNNAME":"關廟區","LI":"松腳里","LIN":"17鄰","STREET":"民族街","SECT":" ","MAREA":" ","LANE":" ","ALLEY":" ","HOUSE_NO":"１５號","E_COORD97":181591.34,"N_COORD97":2539776.29,"ADDRESS":"民族街１５號","OBJECTID":324957},"geometry":{"x":181591.34000000078,"y":2539776.2899999991}},{"attributes":{"ID":324967,"DIS_CODE":0,"TOWNNAME":"關廟區","LI":"東勢里","LIN":"17鄰","STREET":"東仁街","SECT":" ","MAREA":" ","LANE":" ","ALLEY":" ","HOUSE_NO":"２３號","E_COORD97":181876.22,"N_COORD97":2539303.25,"ADDRESS":"東仁街２３號","OBJECTID":324958},"geometry":{"x":181876.21999999974,"y":2539303.2500000037}},{"attributes":{"ID":324968,"DIS_CODE":0,"TOWNNAME":"北區","LI":"實踐里","LIN":"13鄰","STREET":"北門路","SECT":"三段","MAREA":" ","LANE":" ","ALLEY":" ","HOUSE_NO":"３５之１號","E_COORD97":169761.64999999999,"N_COORD97":2546057,"ADDRESS":"北門路三段３５之１號","OBJECTID":324959},"geometry":{"x":169761.65000000037,"y":2546057}},{"attributes":{"ID":324969,"DIS_CODE":0,"TOWNNAME":"東區","LI":"東聖里","LIN":"15鄰","STREET":"中華東路","SECT":"二段","MAREA":" ","LANE":"７３巷","ALLEY":" ","HOUSE_NO":"１５號三樓之５","E_COORD97":171477.67999999999,"N_COORD97":2543071.5600000001,"ADDRESS":"中華東路二段７３巷１５號三樓之５","OBJECTID":324960},"geometry":{"x":171477.6799999997,"y":2543071.5600000042}},{"attributes":{"ID":324970,"DIS_CODE":0,"TOWNNAME":"東區","LI":"東聖里","LIN":"15鄰","STREET":"中華東路","SECT":"二段","MAREA":" ","LANE":"７３巷","ALLEY":" ","HOUSE_NO":"１５號三樓之６","E_COORD97":171477.67999999999,"N_COORD97":2543071.5600000001,"ADDRESS":"中華東路二段７３巷１５號三樓之６","OBJECTID":324961},"geometry":{"x":171477.6799999997,"y":2543071.5600000042}},{"attributes":{"ID":324971,"DIS_CODE":0,"TOWNNAME":"東區","LI":"東聖里","LIN":"15鄰","STREET":"中華東路","SECT":"二段","MAREA":" ","LANE":"７３巷","ALLEY":" ","HOUSE_NO":"１５號三樓之７","E_COORD97":171477.67999999999,"N_COORD97":2543071.5600000001,"ADDRESS":"中華東路二段７３巷１５號三樓之７","OBJECTID":324962},"geometry":{"x":171477.6799999997,"y":2543071.5600000042}},{"attributes":{"ID":324972,"DIS_CODE":0,"TOWNNAME":"東區","LI":"東聖里","LIN":"15鄰","STREET":"中華東路","SECT":"二段","MAREA":" ","LANE":"７３巷","ALLEY":" ","HOUSE_NO":"１５號三樓之８","E_COORD97":171477.67999999999,"N_COORD97":2543071.5600000001,"ADDRESS":"中華東路二段７３巷１５號三樓之８","OBJECTID":324963},"geometry":{"x":171477.6799999997,"y":2543071.5600000042}},{"attributes":{"ID":324973,"DIS_CODE":0,"TOWNNAME":"東區","LI":"東聖里","LIN":"15鄰","STREET":"中華東路","SECT":"二段","MAREA":" ","LANE":"７３巷","ALLEY":" ","HOUSE_NO":"１５號三樓之９","E_COORD97":171477.67999999999,"N_COORD97":2543071.5600000001,"ADDRESS":"中華東路二段７３巷１５號三樓之９","OBJECTID":324964},"geometry":{"x":171477.6799999997,"y":2543071.5600000042}},{"attributes":{"ID":324974,"DIS_CODE":0,"TOWNNAME":"東區","LI":"東聖里","LIN":"15鄰","STREET":"中華東路","SECT":"二段","MAREA":" ","LANE":"７３巷","ALLEY":" ","HOUSE_NO":"１５號三樓之１０","E_COORD97":171477.67999999999,"N_COORD97":2543071.5600000001,"ADDRESS":"中華東路二段７３巷１５號三樓之１０","OBJECTID":324965},"geometry":{"x":171477.6799999997,"y":2543071.5600000042}},{"attributes":{"ID":324975,"DIS_CODE":0,"TOWNNAME":"東區","LI":"東聖里","LIN":"15鄰","STREET":"中華東路","SECT":"二段","MAREA":" ","LANE":"７３巷","ALLEY":" ","HOUSE_NO":"１５號三樓之１１","E_COORD97":171477.67999999999,"N_COORD97":2543071.5600000001,"ADDRESS":"中華東路二段７３巷１５號三樓之１１","OBJECTID":324966},"geometry":{"x":171477.6799999997,"y":2543071.5600000042}},{"attributes":{"ID":324976,"DIS_CODE":0,"TOWNNAME":"東區","LI":"東聖里","LIN":"15鄰","STREET":"中華東路","SECT":"二段","MAREA":" ","LANE":"７３巷","ALLEY":" ","HOUSE_NO":"１５號三樓之１２","E_COORD97":171477.67999999999,"N_COORD97":2543071.5600000001,"ADDRESS":"中華東路二段７３巷１５號三樓之１２","OBJECTID":324967},"geometry":{"x":171477.6799999997,"y":2543071.5600000042}},{"attributes":{"ID":324977,"DIS_CODE":0,"TOWNNAME":"東區","LI":"東聖里","LIN":"15鄰","STREET":"中華東路","SECT":"二段","MAREA":" ","LANE":"７３巷","ALLEY":" ","HOUSE_NO":"１５號三樓之１３","E_COORD97":171477.67999999999,"N_COORD97":2543071.5600000001,"ADDRESS":"中華東路二段７３巷１５號三樓之１３","OBJECTID":324968},"geometry":{"x":171477.6799999997,"y":2543071.5600000042}},{"attributes":{"ID":324978,"DIS_CODE":0,"TOWNNAME":"東區","LI":"東聖里","LIN":"15鄰","STREET":"中華東路","SECT":"二段","MAREA":" ","LANE":"７３巷","ALLEY":" ","HOUSE_NO":"１５號三樓之１４","E_COORD97":171477.67999999999,"N_COORD97":2543071.5600000001,"ADDRESS":"中華東路二段７３巷１５號三樓之１４","OBJECTID":324969},"geometry":{"x":171477.6799999997,"y":2543071.5600000042}},{"attributes":{"ID":324979,"DIS_CODE":0,"TOWNNAME":"東區","LI":"東聖里","LIN":"15鄰","STREET":"中華東路","SECT":"二段","MAREA":" ","LANE":"７３巷","ALLEY":" ","HOUSE_NO":"１５號三樓之１５","E_COORD97":171477.67999999999,"N_COORD97":2543071.5600000001,"ADDRESS":"中華東路二段７３巷１５號三樓之１５","OBJECTID":324970},"geometry":{"x":171477.6799999997,"y":2543071.5600000042}},{"attributes":{"ID":324980,"DIS_CODE":0,"TOWNNAME":"東區","LI":"東聖里","LIN":"15鄰","STREET":"中華東路","SECT":"二段","MAREA":" ","LANE":"７３巷","ALLEY":" ","HOUSE_NO":"１５號四樓","E_COORD97":171477.67999999999,"N_COORD97":2543071.5600000001,"ADDRESS":"中華東路二段７３巷１５號四樓","OBJECTID":324971},"geometry":{"x":171477.6799999997,"y":2543071.5600000042}},{"attributes":{"ID":324981,"DIS_CODE":0,"TOWNNAME":"佳里區","LI":"安西里","LIN":"15鄰","STREET":"和平街","SECT":" ","MAREA":" ","LANE":"２８７巷","ALLEY":" ","HOUSE_NO":"６號","E_COORD97":165202.28,"N_COORD97":2562444.4199999999,"ADDRESS":"和平街２８７巷６號","OBJECTID":324972},"geometry":{"x":165202.28000000026,"y":2562444.4199999981}},{"attributes":{"ID":324982,"DIS_CODE":0,"TOWNNAME":"東區","LI":"東聖里","LIN":"15鄰","STREET":"中華東路","SECT":"二段","MAREA":" ","LANE":"７３巷","ALLEY":" ","HOUSE_NO":"１５號四樓之１","E_COORD97":171477.67999999999,"N_COORD97":2543071.5600000001,"ADDRESS":"中華東路二段７３巷１５號四樓之１","OBJECTID":324973},"geometry":{"x":171477.6799999997,"y":2543071.5600000042}},{"attributes":{"ID":324983,"DIS_CODE":0,"TOWNNAME":"東區","LI":"東聖里","LIN":"15鄰","STREET":"中華東路","SECT":"二段","MAREA":" ","LANE":"７３巷","ALLEY":" ","HOUSE_NO":"１５號四樓之２","E_COORD97":171477.67999999999,"N_COORD97":2543071.5600000001,"ADDRESS":"中華東路二段７３巷１５號四樓之２","OBJECTID":324974},"geometry":{"x":171477.6799999997,"y":2543071.5600000042}},{"attributes":{"ID":324984,"DIS_CODE":0,"TOWNNAME":"永康區","LI":"南灣里","LIN":"20鄰","STREET":"立興街","SECT":" ","MAREA":" ","LANE":"１７８巷","ALLEY":" ","HOUSE_NO":"８號","E_COORD97":174265.73999999999,"N_COORD97":2544608.3500000001,"ADDRESS":"立興街１７８巷８號","OBJECTID":324975},"geometry":{"x":174265.74000000115,"y":2544608.3500000015}},{"attributes":{"ID":324985,"DIS_CODE":0,"TOWNNAME":"東區","LI":"東聖里","LIN":"15鄰","STREET":"中華東路","SECT":"二段","MAREA":" ","LANE":"７３巷","ALLEY":" ","HOUSE_NO":"１５號四樓之３","E_COORD97":171477.67999999999,"N_COORD97":2543071.5600000001,"ADDRESS":"中華東路二段７３巷１５號四樓之３","OBJECTID":324976},"geometry":{"x":171477.6799999997,"y":2543071.5600000042}},{"attributes":{"ID":324986,"DIS_CODE":0,"TOWNNAME":"北區","LI":"成德里","LIN":"20鄰","STREET":"文成一路","SECT":" ","MAREA":" ","LANE":"１５８巷","ALLEY":" ","HOUSE_NO":"１９號","E_COORD97":168398.37,"N_COORD97":2546108.73,"ADDRESS":"文成一路１５８巷１９號","OBJECTID":324977},"geometry":{"x":168398.37000000011,"y":2546108.7300000023}},{"attributes":{"ID":324987,"DIS_CODE":0,"TOWNNAME":"東山區","LI":"東中里","LIN":"17鄰","STREET":"民治街","SECT":" ","MAREA":" ","LANE":" ","ALLEY":" ","HOUSE_NO":"２７號","E_COORD97":189080.94,"N_COORD97":2579919.4300000002,"ADDRESS":"民治街２７號","OBJECTID":324978},"geometry":{"x":189080.94000000134,"y":2579919.4300000016}},{"attributes":{"ID":324988,"DIS_CODE":0,"TOWNNAME":"北區","LI":"成德里","LIN":"14鄰","STREET":"海安路","SECT":"三段","MAREA":" ","LANE":"５２０巷","ALLEY":" ","HOUSE_NO":"２３號","E_COORD97":168144.95000000001,"N_COORD97":2545759.1499999999,"ADDRESS":"海安路三段５２０巷２３號","OBJECTID":324979},"geometry":{"x":168144.95000000112,"y":2545759.1500000004}},{"attributes":{"ID":324989,"DIS_CODE":0,"TOWNNAME":"東區","LI":"東聖里","LIN":"15鄰","STREET":"中華東路","SECT":"二段","MAREA":" ","LANE":"７３巷","ALLEY":" ","HOUSE_NO":"１５號四樓之５","E_COORD97":171477.67999999999,"N_COORD97":2543071.5600000001,"ADDRESS":"中華東路二段７３巷１５號四樓之５","OBJECTID":324980},"geometry":{"x":171477.6799999997,"y":2543071.5600000042}},{"attributes":{"ID":324990,"DIS_CODE":0,"TOWNNAME":"東區","LI":"東聖里","LIN":"15鄰","STREET":"中華東路","SECT":"二段","MAREA":" ","LANE":"７３巷","ALLEY":" ","HOUSE_NO":"１５號四樓之８","E_COORD97":171477.67999999999,"N_COORD97":2543071.5600000001,"ADDRESS":"中華東路二段７３巷１５號四樓之８","OBJECTID":324981},"geometry":{"x":171477.6799999997,"y":2543071.5600000042}},{"attributes":{"ID":324991,"DIS_CODE":0,"TOWNNAME":"東區","LI":"東聖里","LIN":"15鄰","STREET":"中華東路","SECT":"二段","MAREA":" ","LANE":"７３巷","ALLEY":" ","HOUSE_NO":"１５號四樓之９","E_COORD97":171477.67999999999,"N_COORD97":2543071.5600000001,"ADDRESS":"中華東路二段７３巷１５號四樓之９","OBJECTID":324982},"geometry":{"x":171477.6799999997,"y":2543071.5600000042}},{"attributes":{"ID":324992,"DIS_CODE":0,"TOWNNAME":"東區","LI":"東聖里","LIN":"15鄰","STREET":"中華東路","SECT":"二段","MAREA":" ","LANE":"７３巷","ALLEY":" ","HOUSE_NO":"１５號四樓之１０","E_COORD97":171477.67999999999,"N_COORD97":2543071.5600000001,"ADDRESS":"中華東路二段７３巷１５號四樓之１０","OBJECTID":324983},"geometry":{"x":171477.6799999997,"y":2543071.5600000042}},{"attributes":{"ID":324993,"DIS_CODE":0,"TOWNNAME":"東區","LI":"東聖里","LIN":"15鄰","STREET":"中華東路","SECT":"二段","MAREA":" ","LANE":"７３巷","ALLEY":" ","HOUSE_NO":"１５號四樓之１１","E_COORD97":171477.67999999999,"N_COORD97":2543071.5600000001,"ADDRESS":"中華東路二段７３巷１５號四樓之１１","OBJECTID":324984},"geometry":{"x":171477.6799999997,"y":2543071.5600000042}},{"attributes":{"ID":324994,"DIS_CODE":0,"TOWNNAME":"東區","LI":"東聖里","LIN":"15鄰","STREET":"中華東路","SECT":"二段","MAREA":" ","LANE":"７３巷","ALLEY":" ","HOUSE_NO":"１５號五樓","E_COORD97":171477.67999999999,"N_COORD97":2543071.5600000001,"ADDRESS":"中華東路二段７３巷１５號五樓","OBJECTID":324985},"geometry":{"x":171477.6799999997,"y":2543071.5600000042}},{"attributes":{"ID":324995,"DIS_CODE":0,"TOWNNAME":"東區","LI":"東聖里","LIN":"15鄰","STREET":"中華東路","SECT":"二段","MAREA":" ","LANE":"７３巷","ALLEY":" ","HOUSE_NO":"１５號五樓之１","E_COORD97":171477.67999999999,"N_COORD97":2543071.5600000001,"ADDRESS":"中華東路二段７３巷１５號五樓之１","OBJECTID":324986},"geometry":{"x":171477.6799999997,"y":2543071.5600000042}},{"attributes":{"ID":324996,"DIS_CODE":0,"TOWNNAME":"東區","LI":"東聖里","LIN":"15鄰","STREET":"中華東路","SECT":"二段","MAREA":" ","LANE":"７３巷","ALLEY":" ","HOUSE_NO":"１５號五樓之２","E_COORD97":171477.67999999999,"N_COORD97":2543071.5600000001,"ADDRESS":"中華東路二段７３巷１５號五樓之２","OBJECTID":324987},"geometry":{"x":171477.6799999997,"y":2543071.5600000042}},{"attributes":{"ID":324997,"DIS_CODE":0,"TOWNNAME":"東區","LI":"東聖里","LIN":"15鄰","STREET":"中華東路","SECT":"二段","MAREA":" ","LANE":"７３巷","ALLEY":" ","HOUSE_NO":"１５號五樓之３","E_COORD97":171477.67999999999,"N_COORD97":2543071.5600000001,"ADDRESS":"中華東路二段７３巷１５號五樓之３","OBJECTID":324988},"geometry":{"x":171477.6799999997,"y":2543071.5600000042}},{"attributes":{"ID":324998,"DIS_CODE":0,"TOWNNAME":"東區","LI":"東聖里","LIN":"15鄰","STREET":"中華東路","SECT":"二段","MAREA":" ","LANE":"７３巷","ALLEY":" ","HOUSE_NO":"１５號五樓之４","E_COORD97":171477.67999999999,"N_COORD97":2543071.5600000001,"ADDRESS":"中華東路二段７３巷１５號五樓之４","OBJECTID":324989},"geometry":{"x":171477.6799999997,"y":2543071.5600000042}},{"attributes":{"ID":324999,"DIS_CODE":0,"TOWNNAME":"東區","LI":"東聖里","LIN":"15鄰","STREET":"中華東路","SECT":"二段","MAREA":" ","LANE":"７３巷","ALLEY":" ","HOUSE_NO":"１５號五樓之５","E_COORD97":171477.67999999999,"N_COORD97":2543071.5600000001,"ADDRESS":"中華東路二段７３巷１５號五樓之５","OBJECTID":324990},"geometry":{"x":171477.6799999997,"y":2543071.5600000042}},{"attributes":{"ID":325000,"DIS_CODE":0,"TOWNNAME":"東區","LI":"東聖里","LIN":"15鄰","STREET":"中華東路","SECT":"二段","MAREA":" ","LANE":"７３巷","ALLEY":" ","HOUSE_NO":"１５號五樓之６","E_COORD97":171477.67999999999,"N_COORD97":2543071.5600000001,"ADDRESS":"中華東路二段７３巷１５號五樓之６","OBJECTID":324991},"geometry":{"x":171477.6799999997,"y":2543071.5600000042}},{"attributes":{"ID":325001,"DIS_CODE":0,"TOWNNAME":"東區","LI":"東聖里","LIN":"15鄰","STREET":"中華東路","SECT":"二段","MAREA":" ","LANE":"７３巷","ALLEY":" ","HOUSE_NO":"１５號五樓之７","E_COORD97":171477.67999999999,"N_COORD97":2543071.5600000001,"ADDRESS":"中華東路二段７３巷１５號五樓之７","OBJECTID":324992},"geometry":{"x":171477.6799999997,"y":2543071.5600000042}},{"attributes":{"ID":325002,"DIS_CODE":0,"TOWNNAME":"東區","LI":"東聖里","LIN":"15鄰","STREET":"中華東路","SECT":"二段","MAREA":" ","LANE":"７３巷","ALLEY":" ","HOUSE_NO":"１５號五樓之８","E_COORD97":171477.67999999999,"N_COORD97":2543071.5600000001,"ADDRESS":"中華東路二段７３巷１５號五樓之８","OBJECTID":324993},"geometry":{"x":171477.6799999997,"y":2543071.5600000042}},{"attributes":{"ID":325003,"DIS_CODE":0,"TOWNNAME":"新營區","LI":"民榮里","LIN":"17鄰","STREET":"富強街","SECT":" ","MAREA":" ","LANE":" ","ALLEY":" ","HOUSE_NO":"１６號","E_COORD97":178972.29000000001,"N_COORD97":2577807.9300000002,"ADDRESS":"富強街１６號","OBJECTID":324994},"geometry":{"x":178972.29000000004,"y":2577807.9299999997}},{"attributes":{"ID":325004,"DIS_CODE":0,"TOWNNAME":"中西區","LI":"銀同里","LIN":"4鄰","STREET":"開山路","SECT":" ","MAREA":" ","LANE":"３５巷","ALLEY":" ","HOUSE_NO":"４１號","E_COORD97":168714.5,"N_COORD97":2543440.6600000001,"ADDRESS":"開山路３５巷４１號","OBJECTID":324995},"geometry":{"x":168714.5,"y":2543440.660000002}},{"attributes":{"ID":325005,"DIS_CODE":0,"TOWNNAME":"中西區","LI":"銀同里","LIN":"4鄰","STREET":"開山路","SECT":" ","MAREA":" ","LANE":"３５巷","ALLEY":" ","HOUSE_NO":"４３號","E_COORD97":168726.94,"N_COORD97":2543432.4700000002,"ADDRESS":"開山路３５巷４３號","OBJECTID":324996},"geometry":{"x":168726.94000000041,"y":2543432.4700000025}},{"attributes":{"ID":325006,"DIS_CODE":0,"TOWNNAME":"中西區","LI":"五妃里","LIN":"4鄰","STREET":"南門路","SECT":" ","MAREA":" ","LANE":"２３７巷","ALLEY":" ","HOUSE_NO":"１０號","E_COORD97":168477.95000000001,"N_COORD97":2542622.6200000001,"ADDRESS":"南門路２３７巷１０號","OBJECTID":324997},"geometry":{"x":168477.95000000019,"y":2542622.620000001}},{"attributes":{"ID":325007,"DIS_CODE":0,"TOWNNAME":"中西區","LI":"五妃里","LIN":"4鄰","STREET":"南門路","SECT":" ","MAREA":" ","LANE":"２３７巷","ALLEY":" ","HOUSE_NO":"４號","E_COORD97":168447.32999999999,"N_COORD97":2542629.23,"ADDRESS":"南門路２３７巷４號","OBJECTID":324998},"geometry":{"x":168447.33000000101,"y":2542629.2300000004}},{"attributes":{"ID":325008,"DIS_CODE":0,"TOWNNAME":"中西區","LI":"五妃里","LIN":"4鄰","STREET":"南門路","SECT":" ","MAREA":" ","LANE":"２３７巷","ALLEY":" ","HOUSE_NO":"６號","E_COORD97":168454.44,"N_COORD97":2542629.5600000001,"ADDRESS":"南門路２３７巷６號","OBJECTID":324999},"geometry":{"x":168454.44000000041,"y":2542629.5600000005}},{"attributes":{"ID":325009,"DIS_CODE":0,"TOWNNAME":"中西區","LI":"五妃里","LIN":"4鄰","STREET":"南門路","SECT":" ","MAREA":" ","LANE":"２３７巷","ALLEY":" ","HOUSE_NO":"８號","E_COORD97":168463.20999999999,"N_COORD97":2542629.23,"ADDRESS":"南門路２３７巷８號","OBJECTID":325000},"geometry":{"x":168463.21000000089,"y":2542629.2300000004}}]}