{"displayFieldName":"TOWNNAME","fieldAliases":{"ID":"ID","DIS_CODE":"DIS_CODE","TOWNNAME":"TOWNNAME","LI":"LI","LIN":"LIN","STREET":"STREET","SECT":"SECT","MAREA":"MAREA","LANE":"LANE","ALLEY":"ALLEY","HOUSE_NO":"HOUSE_NO","E_COORD97":"E_COORD97","N_COORD97":"N_COORD97","ADDRESS":"ADDRESS","OBJECTID":"OBJECTID"},"geometryType":"esriGeometryPoint","spatialReference":{"wkid":102443,"latestWkid":3826},"fields":[{"name":"ID","type":"esriFieldTypeDouble","alias":"ID"},{"name":"DIS_CODE","type":"esriFieldTypeInteger","alias":"DIS_CODE"},{"name":"TOWNNAME","type":"esriFieldTypeString","alias":"TOWNNAME","length":8},{"name":"LI","type":"esriFieldTypeString","alias":"LI","length":8},{"name":"LIN","type":"esriFieldTypeString","alias":"LIN","length":12},{"name":"STREET","type":"esriFieldTypeString","alias":"STREET","length":20},{"name":"SECT","type":"esriFieldTypeString","alias":"SECT","length":8},{"name":"MAREA","type":"esriFieldTypeString","alias":"MAREA","length":12},{"name":"LANE","type":"esriFieldTypeString","alias":"LANE","length":10},{"name":"ALLEY","type":"esriFieldTypeString","alias":"ALLEY","length":10},{"name":"HOUSE_NO","type":"esriFieldTypeString","alias":"HOUSE_NO","length":20},{"name":"E_COORD97","type":"esriFieldTypeDouble","alias":"E_COORD97"},{"name":"N_COORD97","type":"esriFieldTypeDouble","alias":"N_COORD97"},{"name":"ADDRESS","type":"esriFieldTypeString","alias":"ADDRESS","length":50},{"name":"OBJECTID","type":"esriFieldTypeOID","alias":"OBJECTID"}],"features":[{"attributes":{"ID":49401,"DIS_CODE":0,"TOWNNAME":"安南區","LI":"州南里","LIN":"15鄰","STREET":"安和路","SECT":"四段","MAREA":" ","LANE":"５３３巷","ALLEY":"１５１弄","HOUSE_NO":"６５號","E_COORD97":169651.26999999999,"N_COORD97":2551043.8500000001,"ADDRESS":"安和路四段５３３巷１５１弄６５號","OBJECTID":49401},"geometry":{"x":169651.26999999955,"y":2551043.8500000015}},{"attributes":{"ID":49402,"DIS_CODE":0,"TOWNNAME":"安南區","LI":"州南里","LIN":"15鄰","STREET":"安和路","SECT":"四段","MAREA":" ","LANE":"５３３巷","ALLEY":"１５１弄","HOUSE_NO":"６７號","E_COORD97":169649.91,"N_COORD97":2551040.3100000001,"ADDRESS":"安和路四段５３３巷１５１弄６７號","OBJECTID":49402},"geometry":{"x":169649.91000000201,"y":2551040.3100000005}},{"attributes":{"ID":49403,"DIS_CODE":0,"TOWNNAME":"安南區","LI":"州南里","LIN":"15鄰","STREET":"安和路","SECT":"四段","MAREA":" ","LANE":"５３３巷","ALLEY":"１５１弄","HOUSE_NO":"６９號","E_COORD97":169650.17999999999,"N_COORD97":2551035.1299999999,"ADDRESS":"安和路四段５３３巷１５１弄６９號","OBJECTID":49403},"geometry":{"x":169650.1799999997,"y":2551035.1300000008}},{"attributes":{"ID":49404,"DIS_CODE":0,"TOWNNAME":"北門區","LI":"錦湖里","LIN":"1鄰","STREET":" ","SECT":" ","MAREA":"渡子頭","LANE":" ","ALLEY":" ","HOUSE_NO":"６號","E_COORD97":165167.98999999999,"N_COORD97":2576128.5699999998,"ADDRESS":"渡子頭６號","OBJECTID":49404},"geometry":{"x":165167.99000000115,"y":2576128.5700000022}},{"attributes":{"ID":49405,"DIS_CODE":0,"TOWNNAME":"安南區","LI":"州南里","LIN":"15鄰","STREET":"安和路","SECT":"四段","MAREA":" ","LANE":"５３３巷","ALLEY":"１５１弄","HOUSE_NO":"７１號","E_COORD97":169650.17999999999,"N_COORD97":2551031.5899999999,"ADDRESS":"安和路四段５３３巷１５１弄７１號","OBJECTID":49405},"geometry":{"x":169650.1799999997,"y":2551031.5900000036}},{"attributes":{"ID":49406,"DIS_CODE":0,"TOWNNAME":"安南區","LI":"州南里","LIN":"15鄰","STREET":"州南八街","SECT":" ","MAREA":" ","LANE":" ","ALLEY":" ","HOUSE_NO":"２０８號","E_COORD97":169664.92999999999,"N_COORD97":2551035.6000000001,"ADDRESS":"州南八街２０８號","OBJECTID":49406},"geometry":{"x":169664.93000000063,"y":2551035.6000000015}},{"attributes":{"ID":49407,"DIS_CODE":0,"TOWNNAME":"安南區","LI":"州南里","LIN":"15鄰","STREET":"州南八街","SECT":" ","MAREA":" ","LANE":" ","ALLEY":" ","HOUSE_NO":"２０６號","E_COORD97":169670.92000000001,"N_COORD97":2551035.8700000001,"ADDRESS":"州南八街２０６號","OBJECTID":49407},"geometry":{"x":169670.91999999993,"y":2551035.870000001}},{"attributes":{"ID":49408,"DIS_CODE":0,"TOWNNAME":"安南區","LI":"州南里","LIN":"15鄰","STREET":"州南八街","SECT":" ","MAREA":" ","LANE":" ","ALLEY":" ","HOUSE_NO":"１４５號","E_COORD97":169665.47,"N_COORD97":2551007.27,"ADDRESS":"州南八街１４５號","OBJECTID":49408},"geometry":{"x":169665.46999999974,"y":2551007.2700000014}},{"attributes":{"ID":49409,"DIS_CODE":0,"TOWNNAME":"安南區","LI":"州南里","LIN":"15鄰","STREET":"安和路","SECT":"四段","MAREA":" ","LANE":"５３３巷","ALLEY":"１５１弄","HOUSE_NO":"７９號","E_COORD97":169649.91,"N_COORD97":2551009.73,"ADDRESS":"安和路四段５３３巷１５１弄７９號","OBJECTID":49409},"geometry":{"x":169649.91000000201,"y":2551009.7300000004}},{"attributes":{"ID":49410,"DIS_CODE":0,"TOWNNAME":"安南區","LI":"州南里","LIN":"15鄰","STREET":"安和路","SECT":"四段","MAREA":" ","LANE":"５３３巷","ALLEY":"１５１弄","HOUSE_NO":"７號","E_COORD97":169646.63,"N_COORD97":2551169.4399999999,"ADDRESS":"安和路四段５３３巷１５１弄７號","OBJECTID":49410},"geometry":{"x":169646.63000000082,"y":2551169.4399999995}},{"attributes":{"ID":49411,"DIS_CODE":0,"TOWNNAME":"安南區","LI":"州南里","LIN":"15鄰","STREET":"安和路","SECT":"四段","MAREA":" ","LANE":"５３３巷","ALLEY":"１５１弄","HOUSE_NO":"８１號","E_COORD97":169648.82000000001,"N_COORD97":2551005.6499999999,"ADDRESS":"安和路四段５３３巷１５１弄８１號","OBJECTID":49411},"geometry":{"x":169648.8200000003,"y":2551005.6500000022}},{"attributes":{"ID":49412,"DIS_CODE":0,"TOWNNAME":"安南區","LI":"州南里","LIN":"15鄰","STREET":"安和路","SECT":"四段","MAREA":" ","LANE":"５３３巷","ALLEY":"１５１弄","HOUSE_NO":"９號","E_COORD97":169651.87,"N_COORD97":2551164.6800000002,"ADDRESS":"安和路四段５３３巷１５１弄９號","OBJECTID":49412},"geometry":{"x":169651.87000000197,"y":2551164.6799999997}},{"attributes":{"ID":49413,"DIS_CODE":0,"TOWNNAME":"安南區","LI":"海西里","LIN":"15鄰","STREET":"海環街","SECT":" ","MAREA":" ","LANE":"２８１巷","ALLEY":"２０弄","HOUSE_NO":"２０號","E_COORD97":166027.20999999999,"N_COORD97":2548783.6600000001,"ADDRESS":"海環街２８１巷２０弄２０號","OBJECTID":49413},"geometry":{"x":166027.21000000089,"y":2548783.6600000039}},{"attributes":{"ID":49414,"DIS_CODE":0,"TOWNNAME":"永康區","LI":"安康里","LIN":"15鄰","STREET":"中華路","SECT":" ","MAREA":" ","LANE":"６１９巷","ALLEY":"２２弄","HOUSE_NO":"３號之２","E_COORD97":170988.69,"N_COORD97":2546102.5499999998,"ADDRESS":"中華路６１９巷２２弄３號之２","OBJECTID":49414},"geometry":{"x":170988.69000000041,"y":2546102.5500000007}},{"attributes":{"ID":49415,"DIS_CODE":0,"TOWNNAME":"永康區","LI":"安康里","LIN":"15鄰","STREET":"中華路","SECT":" ","MAREA":" ","LANE":"６１９巷","ALLEY":"８８弄","HOUSE_NO":"６２號","E_COORD97":170941.23000000001,"N_COORD97":2546110,"ADDRESS":"中華路６１９巷８８弄６２號","OBJECTID":49415},"geometry":{"x":170941.23000000045,"y":2546110.0000000019}},{"attributes":{"ID":49416,"DIS_CODE":0,"TOWNNAME":"安南區","LI":"安西里","LIN":"15鄰","STREET":"安和路","SECT":"一段","MAREA":" ","LANE":"４５９巷","ALLEY":"３６弄","HOUSE_NO":"１０號","E_COORD97":169275.26999999999,"N_COORD97":2548558.54,"ADDRESS":"安和路一段４５９巷３６弄１０號","OBJECTID":49416},"geometry":{"x":169275.26999999955,"y":2548558.5399999991}},{"attributes":{"ID":49417,"DIS_CODE":0,"TOWNNAME":"安南區","LI":"安西里","LIN":"15鄰","STREET":"安和路","SECT":"一段","MAREA":" ","LANE":"４５９巷","ALLEY":"３６弄","HOUSE_NO":"１２號","E_COORD97":169273.20000000001,"N_COORD97":2548562.6600000001,"ADDRESS":"安和路一段４５９巷３６弄１２號","OBJECTID":49417},"geometry":{"x":169273.19999999925,"y":2548562.6600000001}},{"attributes":{"ID":49418,"DIS_CODE":0,"TOWNNAME":"安南區","LI":"安西里","LIN":"15鄰","STREET":"安和路","SECT":"一段","MAREA":" ","LANE":"４５９巷","ALLEY":"３６弄","HOUSE_NO":"１４號","E_COORD97":169272.17000000001,"N_COORD97":2548568.0299999998,"ADDRESS":"安和路一段４５９巷３６弄１４號","OBJECTID":49418},"geometry":{"x":169272.17000000086,"y":2548568.0300000012}},{"attributes":{"ID":49419,"DIS_CODE":0,"TOWNNAME":"安南區","LI":"安西里","LIN":"15鄰","STREET":"安和路","SECT":"一段","MAREA":" ","LANE":"４５９巷","ALLEY":"３６弄","HOUSE_NO":"１５號","E_COORD97":169250.88,"N_COORD97":2548564.73,"ADDRESS":"安和路一段４５９巷３６弄１５號","OBJECTID":49419},"geometry":{"x":169250.87999999989,"y":2548564.7300000004}},{"attributes":{"ID":49420,"DIS_CODE":0,"TOWNNAME":"安南區","LI":"安西里","LIN":"15鄰","STREET":"安和路","SECT":"一段","MAREA":" ","LANE":"４５９巷","ALLEY":"３６弄","HOUSE_NO":"１６號","E_COORD97":169270.31,"N_COORD97":2548572.3700000001,"ADDRESS":"安和路一段４５９巷３６弄１６號","OBJECTID":49420},"geometry":{"x":169270.31000000145,"y":2548572.370000001}},{"attributes":{"ID":49421,"DIS_CODE":0,"TOWNNAME":"安南區","LI":"安西里","LIN":"15鄰","STREET":"安和路","SECT":"一段","MAREA":" ","LANE":"４５９巷","ALLEY":"３６弄","HOUSE_NO":"１８號","E_COORD97":169268.64999999999,"N_COORD97":2548577.3199999998,"ADDRESS":"安和路一段４５９巷３６弄１８號","OBJECTID":49421},"geometry":{"x":169268.64999999944,"y":2548577.3200000022}},{"attributes":{"ID":49422,"DIS_CODE":0,"TOWNNAME":"安南區","LI":"安西里","LIN":"15鄰","STREET":"安和路","SECT":"一段","MAREA":" ","LANE":"４５９巷","ALLEY":"３６弄","HOUSE_NO":"１９號","E_COORD97":169246.73999999999,"N_COORD97":2548574.2200000002,"ADDRESS":"安和路一段４５９巷３６弄１９號","OBJECTID":49422},"geometry":{"x":169246.74000000115,"y":2548574.2200000025}},{"attributes":{"ID":49423,"DIS_CODE":0,"TOWNNAME":"安南區","LI":"安西里","LIN":"15鄰","STREET":"安和路","SECT":"一段","MAREA":" ","LANE":"４５９巷","ALLEY":"３６弄","HOUSE_NO":"１號","E_COORD97":169260.17999999999,"N_COORD97":2548532.73,"ADDRESS":"安和路一段４５９巷３６弄１號","OBJECTID":49423},"geometry":{"x":169260.18000000063,"y":2548532.7300000023}},{"attributes":{"ID":49424,"DIS_CODE":0,"TOWNNAME":"安南區","LI":"安西里","LIN":"15鄰","STREET":"安和路","SECT":"一段","MAREA":" ","LANE":"４５９巷","ALLEY":"３６弄","HOUSE_NO":"２號","E_COORD97":169280.64000000001,"N_COORD97":2548538.7200000002,"ADDRESS":"安和路一段４５９巷３６弄２號","OBJECTID":49424},"geometry":{"x":169280.6400000006,"y":2548538.7200000007}},{"attributes":{"ID":49425,"DIS_CODE":0,"TOWNNAME":"安南區","LI":"安西里","LIN":"15鄰","STREET":"安和路","SECT":"一段","MAREA":" ","LANE":"４５９巷","ALLEY":"３６弄","HOUSE_NO":"３號","E_COORD97":169259.14999999999,"N_COORD97":2548536.8599999999,"ADDRESS":"安和路一段４５９巷３６弄３號","OBJECTID":49425},"geometry":{"x":169259.1500000013,"y":2548536.8599999994}},{"attributes":{"ID":49426,"DIS_CODE":0,"TOWNNAME":"麻豆區","LI":"寮\u25A0里","LIN":"17鄰","STREET":" ","SECT":" ","MAREA":"寮子\u25A0","LANE":" ","ALLEY":" ","HOUSE_NO":"１３６號","E_COORD97":176568.56,"N_COORD97":2565305.6600000001,"ADDRESS":"寮子\u25A0１３６號","OBJECTID":49426},"geometry":{"x":176568.56000000052,"y":2565305.660000002}},{"attributes":{"ID":49427,"DIS_CODE":0,"TOWNNAME":"麻豆區","LI":"寮\u25A0里","LIN":"17鄰","STREET":" ","SECT":" ","MAREA":"寮子\u25A0","LANE":" ","ALLEY":" ","HOUSE_NO":"１３７號","E_COORD97":176535.78,"N_COORD97":2565280.5499999998,"ADDRESS":"寮子\u25A0１３７號","OBJECTID":49427},"geometry":{"x":176535.78000000119,"y":2565280.5500000026}},{"attributes":{"ID":49428,"DIS_CODE":0,"TOWNNAME":"麻豆區","LI":"寮\u25A0里","LIN":"17鄰","STREET":" ","SECT":" ","MAREA":"寮子\u25A0","LANE":" ","ALLEY":" ","HOUSE_NO":"１３８號","E_COORD97":176560.72,"N_COORD97":2565278.02,"ADDRESS":"寮子\u25A0１３８號","OBJECTID":49428},"geometry":{"x":176560.72000000067,"y":2565278.0200000033}},{"attributes":{"ID":49429,"DIS_CODE":0,"TOWNNAME":"麻豆區","LI":"寮\u25A0里","LIN":"17鄰","STREET":" ","SECT":" ","MAREA":"寮子\u25A0","LANE":" ","ALLEY":" ","HOUSE_NO":"１３９號","E_COORD97":176567.78,"N_COORD97":2565267.0600000001,"ADDRESS":"寮子\u25A0１３９號","OBJECTID":49429},"geometry":{"x":176567.78000000119,"y":2565267.0600000005}},{"attributes":{"ID":49430,"DIS_CODE":0,"TOWNNAME":"麻豆區","LI":"寮\u25A0里","LIN":"17鄰","STREET":" ","SECT":" ","MAREA":"寮子\u25A0","LANE":" ","ALLEY":" ","HOUSE_NO":"１４１號","E_COORD97":176514.32000000001,"N_COORD97":2565278.2999999998,"ADDRESS":"寮子\u25A0１４１號","OBJECTID":49430},"geometry":{"x":176514.3200000003,"y":2565278.3000000026}},{"attributes":{"ID":49431,"DIS_CODE":0,"TOWNNAME":"麻豆區","LI":"寮\u25A0里","LIN":"17鄰","STREET":" ","SECT":" ","MAREA":"寮子\u25A0","LANE":" ","ALLEY":" ","HOUSE_NO":"１４２號之１","E_COORD97":176511.34,"N_COORD97":2565268.8900000001,"ADDRESS":"寮子\u25A0１４２號之１","OBJECTID":49431},"geometry":{"x":176511.33999999985,"y":2565268.8900000006}},{"attributes":{"ID":49432,"DIS_CODE":0,"TOWNNAME":"麻豆區","LI":"寮\u25A0里","LIN":"17鄰","STREET":" ","SECT":" ","MAREA":"寮子\u25A0","LANE":" ","ALLEY":" ","HOUSE_NO":"１４２號之２","E_COORD97":176510.03,"N_COORD97":2565264.6099999999,"ADDRESS":"寮子\u25A0１４２號之２","OBJECTID":49432},"geometry":{"x":176510.03000000119,"y":2565264.6100000013}},{"attributes":{"ID":49433,"DIS_CODE":0,"TOWNNAME":"麻豆區","LI":"寮\u25A0里","LIN":"17鄰","STREET":" ","SECT":" ","MAREA":"寮子\u25A0","LANE":" ","ALLEY":" ","HOUSE_NO":"１４２號之３","E_COORD97":176508.95000000001,"N_COORD97":2565260.6899999999,"ADDRESS":"寮子\u25A0１４２號之３","OBJECTID":49433},"geometry":{"x":176508.95000000112,"y":2565260.6900000013}},{"attributes":{"ID":49434,"DIS_CODE":0,"TOWNNAME":"麻豆區","LI":"寮\u25A0里","LIN":"17鄰","STREET":" ","SECT":" ","MAREA":"寮子\u25A0","LANE":" ","ALLEY":" ","HOUSE_NO":"１４２號","E_COORD97":176512.72,"N_COORD97":2565272.98,"ADDRESS":"寮子\u25A0１４２號","OBJECTID":49434},"geometry":{"x":176512.71999999974,"y":2565272.9800000023}},{"attributes":{"ID":49435,"DIS_CODE":0,"TOWNNAME":"鹽水區","LI":"南港里","LIN":"12鄰","STREET":" ","SECT":" ","MAREA":"?頭港","LANE":" ","ALLEY":" ","HOUSE_NO":"２００號之１６","E_COORD97":173314.85000000001,"N_COORD97":2572390.77,"ADDRESS":"?頭港２００號之１６","OBJECTID":49435},"geometry":{"x":173314.85000000149,"y":2572390.7700000014}},{"attributes":{"ID":49436,"DIS_CODE":0,"TOWNNAME":"鹽水區","LI":"南港里","LIN":"12鄰","STREET":" ","SECT":" ","MAREA":"?頭港","LANE":" ","ALLEY":" ","HOUSE_NO":"２００號之１７","E_COORD97":173359.14999999999,"N_COORD97":2572358.9199999999,"ADDRESS":"?頭港２００號之１７","OBJECTID":49436},"geometry":{"x":173359.14999999944,"y":2572358.9200000018}},{"attributes":{"ID":49437,"DIS_CODE":0,"TOWNNAME":"鹽水區","LI":"南港里","LIN":"12鄰","STREET":" ","SECT":" ","MAREA":"?頭港","LANE":" ","ALLEY":" ","HOUSE_NO":"２００號之１８","E_COORD97":173369.85999999999,"N_COORD97":2572297.46,"ADDRESS":"?頭港２００號之１８","OBJECTID":49437},"geometry":{"x":173369.86000000127,"y":2572297.4600000009}},{"attributes":{"ID":49438,"DIS_CODE":0,"TOWNNAME":"鹽水區","LI":"南港里","LIN":"12鄰","STREET":" ","SECT":" ","MAREA":"?頭港","LANE":" ","ALLEY":" ","HOUSE_NO":"２００號之１９","E_COORD97":173374.10999999999,"N_COORD97":2572282.2200000002,"ADDRESS":"?頭港２００號之１９","OBJECTID":49438},"geometry":{"x":173374.11000000034,"y":2572282.2200000044}},{"attributes":{"ID":49439,"DIS_CODE":0,"TOWNNAME":"鹽水區","LI":"南港里","LIN":"12鄰","STREET":" ","SECT":" ","MAREA":"?頭港","LANE":" ","ALLEY":" ","HOUSE_NO":"２００號之１","E_COORD97":173344.19,"N_COORD97":2572471.0099999998,"ADDRESS":"?頭港２００號之１","OBJECTID":49439},"geometry":{"x":173344.19000000134,"y":2572471.0099999998}},{"attributes":{"ID":49440,"DIS_CODE":0,"TOWNNAME":"鹽水區","LI":"南港里","LIN":"12鄰","STREET":" ","SECT":" ","MAREA":"?頭港","LANE":" ","ALLEY":" ","HOUSE_NO":"２００號之２０","E_COORD97":173349.44,"N_COORD97":2572294.21,"ADDRESS":"?頭港２００號之２０","OBJECTID":49440},"geometry":{"x":173349.44000000134,"y":2572294.2100000028}},{"attributes":{"ID":49441,"DIS_CODE":0,"TOWNNAME":"鹽水區","LI":"南港里","LIN":"12鄰","STREET":" ","SECT":" ","MAREA":"?頭港","LANE":" ","ALLEY":" ","HOUSE_NO":"２００號之２１","E_COORD97":173667.03,"N_COORD97":2572502.75,"ADDRESS":"?頭港２００號之２１","OBJECTID":49441},"geometry":{"x":173667.03000000119,"y":2572502.7500000019}},{"attributes":{"ID":49442,"DIS_CODE":0,"TOWNNAME":"鹽水區","LI":"南港里","LIN":"12鄰","STREET":" ","SECT":" ","MAREA":"?頭港","LANE":" ","ALLEY":" ","HOUSE_NO":"２００號之２３","E_COORD97":173373.72,"N_COORD97":2572444.04,"ADDRESS":"?頭港２００號之２３","OBJECTID":49442},"geometry":{"x":173373.72000000067,"y":2572444.0399999991}},{"attributes":{"ID":49443,"DIS_CODE":0,"TOWNNAME":"鹽水區","LI":"南港里","LIN":"12鄰","STREET":" ","SECT":" ","MAREA":"?頭港","LANE":" ","ALLEY":" ","HOUSE_NO":"２００號之２４","E_COORD97":173377.48000000001,"N_COORD97":2572315.0499999998,"ADDRESS":"?頭港２００號之２４","OBJECTID":49443},"geometry":{"x":173377.48000000231,"y":2572315.0500000026}},{"attributes":{"ID":49444,"DIS_CODE":0,"TOWNNAME":"鹽水區","LI":"南港里","LIN":"12鄰","STREET":" ","SECT":" ","MAREA":"?頭港","LANE":" ","ALLEY":" ","HOUSE_NO":"２００號之２５","E_COORD97":173317.98999999999,"N_COORD97":2572342.3500000001,"ADDRESS":"?頭港２００號之２５","OBJECTID":49444},"geometry":{"x":173317.99000000115,"y":2572342.3500000015}},{"attributes":{"ID":49445,"DIS_CODE":0,"TOWNNAME":"安南區","LI":"安西里","LIN":"15鄰","STREET":"安和路","SECT":"一段","MAREA":" ","LANE":"４５９巷","ALLEY":"３６弄","HOUSE_NO":"４號","E_COORD97":169279.20000000001,"N_COORD97":2548544.29,"ADDRESS":"安和路一段４５９巷３６弄４號","OBJECTID":49445},"geometry":{"x":169279.20000000112,"y":2548544.2900000028}},{"attributes":{"ID":49446,"DIS_CODE":0,"TOWNNAME":"鹽水區","LI":"南港里","LIN":"12鄰","STREET":" ","SECT":" ","MAREA":"?頭港","LANE":" ","ALLEY":" ","HOUSE_NO":"２００之２６號","E_COORD97":173203.42999999999,"N_COORD97":2572435.5499999998,"ADDRESS":"?頭港２００之２６號","OBJECTID":49446},"geometry":{"x":173203.4299999997,"y":2572435.5500000007}},{"attributes":{"ID":49447,"DIS_CODE":0,"TOWNNAME":"鹽水區","LI":"南港里","LIN":"12鄰","STREET":" ","SECT":" ","MAREA":"?頭港","LANE":" ","ALLEY":" ","HOUSE_NO":"２００號之２８","E_COORD97":173317.35999999999,"N_COORD97":2572226.1200000001,"ADDRESS":"?頭港２００號之２８","OBJECTID":49447},"geometry":{"x":173317.36000000127,"y":2572226.1200000029}},{"attributes":{"ID":49448,"DIS_CODE":0,"TOWNNAME":"安南區","LI":"安西里","LIN":"15鄰","STREET":"安和路","SECT":"一段","MAREA":" ","LANE":"４５９巷","ALLEY":"３６弄","HOUSE_NO":"５號","E_COORD97":169258.10999999999,"N_COORD97":2548541.2000000002,"ADDRESS":"安和路一段４５９巷３６弄５號","OBJECTID":49448},"geometry":{"x":169258.11000000034,"y":2548541.1999999993}},{"attributes":{"ID":49449,"DIS_CODE":0,"TOWNNAME":"鹽水區","LI":"南港里","LIN":"12鄰","STREET":" ","SECT":" ","MAREA":"?頭港","LANE":" ","ALLEY":" ","HOUSE_NO":"２００號之２","E_COORD97":173319.53,"N_COORD97":2572464.9700000002,"ADDRESS":"?頭港２００號之２","OBJECTID":49449},"geometry":{"x":173319.53000000119,"y":2572464.9700000025}},{"attributes":{"ID":49450,"DIS_CODE":0,"TOWNNAME":"鹽水區","LI":"南港里","LIN":"12鄰","STREET":" ","SECT":" ","MAREA":"?頭港","LANE":" ","ALLEY":" ","HOUSE_NO":"２００之３６號","E_COORD97":173450.14999999999,"N_COORD97":2572221.1699999999,"ADDRESS":"?頭港２００之３６號","OBJECTID":49450},"geometry":{"x":173450.15000000037,"y":2572221.1700000018}},{"attributes":{"ID":49451,"DIS_CODE":0,"TOWNNAME":"安南區","LI":"安西里","LIN":"15鄰","STREET":"安和路","SECT":"一段","MAREA":" ","LANE":"４５９巷","ALLEY":"３６弄","HOUSE_NO":"６號","E_COORD97":169278.16,"N_COORD97":2548548.8300000001,"ADDRESS":"安和路一段４５９巷３６弄６號","OBJECTID":49451},"geometry":{"x":169278.16000000015,"y":2548548.8300000019}},{"attributes":{"ID":49452,"DIS_CODE":0,"TOWNNAME":"安南區","LI":"安西里","LIN":"15鄰","STREET":"安和路","SECT":"一段","MAREA":" ","LANE":"４５９巷","ALLEY":"３６弄","HOUSE_NO":"７號","E_COORD97":169256.25,"N_COORD97":2548546.77,"ADDRESS":"安和路一段４５９巷３６弄７號","OBJECTID":49452},"geometry":{"x":169256.25000000093,"y":2548546.7699999996}},{"attributes":{"ID":49453,"DIS_CODE":0,"TOWNNAME":"安南區","LI":"安西里","LIN":"15鄰","STREET":"安和路","SECT":"一段","MAREA":" ","LANE":"４５９巷","ALLEY":"３６弄","HOUSE_NO":"８號","E_COORD97":169277.34,"N_COORD97":2548553.79,"ADDRESS":"安和路一段４５９巷３６弄８號","OBJECTID":49453},"geometry":{"x":169277.34000000078,"y":2548553.7899999991}},{"attributes":{"ID":49454,"DIS_CODE":0,"TOWNNAME":"鹽水區","LI":"南港里","LIN":"12鄰","STREET":" ","SECT":" ","MAREA":"?頭港","LANE":" ","ALLEY":" ","HOUSE_NO":"２００之３７號","E_COORD97":173454.85999999999,"N_COORD97":2572431.54,"ADDRESS":"?頭港２００之３７號","OBJECTID":49454},"geometry":{"x":173454.86000000127,"y":2572431.540000001}},{"attributes":{"ID":49455,"DIS_CODE":0,"TOWNNAME":"鹽水區","LI":"南港里","LIN":"12鄰","STREET":" ","SECT":" ","MAREA":"?頭港","LANE":" ","ALLEY":" ","HOUSE_NO":"２００號之３８","E_COORD97":173591.20999999999,"N_COORD97":2572551.4700000002,"ADDRESS":"?頭港２００號之３８","OBJECTID":49455},"geometry":{"x":173591.21000000089,"y":2572551.4700000007}},{"attributes":{"ID":49456,"DIS_CODE":0,"TOWNNAME":"鹽水區","LI":"南港里","LIN":"12鄰","STREET":" ","SECT":" ","MAREA":"?頭港","LANE":" ","ALLEY":" ","HOUSE_NO":"２００之３９號","E_COORD97":173056.59,"N_COORD97":2571924.0800000001,"ADDRESS":"?頭港２００之３９號","OBJECTID":49456},"geometry":{"x":173056.58999999985,"y":2571924.0800000019}},{"attributes":{"ID":49457,"DIS_CODE":0,"TOWNNAME":"鹽水區","LI":"南港里","LIN":"12鄰","STREET":" ","SECT":" ","MAREA":"?頭港","LANE":" ","ALLEY":" ","HOUSE_NO":"２００號之３９","E_COORD97":173056.59,"N_COORD97":2571924.0800000001,"ADDRESS":"?頭港２００號之３９","OBJECTID":49457},"geometry":{"x":173056.58999999985,"y":2571924.0800000019}},{"attributes":{"ID":49458,"DIS_CODE":0,"TOWNNAME":"鹽水區","LI":"南港里","LIN":"12鄰","STREET":" ","SECT":" ","MAREA":"?頭港","LANE":" ","ALLEY":" ","HOUSE_NO":"２００號之３","E_COORD97":173364.42999999999,"N_COORD97":2572416.1000000001,"ADDRESS":"?頭港２００號之３","OBJECTID":49458},"geometry":{"x":173364.4299999997,"y":2572416.0999999996}},{"attributes":{"ID":49459,"DIS_CODE":0,"TOWNNAME":"安南區","LI":"安西里","LIN":"15鄰","STREET":"安和路","SECT":"一段","MAREA":" ","LANE":"４５９巷","ALLEY":"３６弄","HOUSE_NO":"９號","E_COORD97":169255.42999999999,"N_COORD97":2548551.1000000001,"ADDRESS":"安和路一段４５９巷３６弄９號","OBJECTID":49459},"geometry":{"x":169255.4299999997,"y":2548551.0999999996}},{"attributes":{"ID":49460,"DIS_CODE":0,"TOWNNAME":"鹽水區","LI":"南港里","LIN":"12鄰","STREET":" ","SECT":" ","MAREA":"?頭港","LANE":" ","ALLEY":" ","HOUSE_NO":"２００之４０號","E_COORD97":173159.57999999999,"N_COORD97":2572265.8500000001,"ADDRESS":"?頭港２００之４０號","OBJECTID":49460},"geometry":{"x":173159.58000000101,"y":2572265.8499999996}},{"attributes":{"ID":49461,"DIS_CODE":0,"TOWNNAME":"鹽水區","LI":"南港里","LIN":"12鄰","STREET":" ","SECT":" ","MAREA":"?頭港","LANE":" ","ALLEY":" ","HOUSE_NO":"２００號之４２","E_COORD97":173255.01999999999,"N_COORD97":2572369.3199999998,"ADDRESS":"?頭港２００號之４２","OBJECTID":49461},"geometry":{"x":173255.02000000048,"y":2572369.320000004}},{"attributes":{"ID":49462,"DIS_CODE":0,"TOWNNAME":"關廟區","LI":"龜洞里","LIN":"7鄰","STREET":"南雄南路","SECT":" ","MAREA":" ","LANE":"７０１巷","ALLEY":"１６弄","HOUSE_NO":"３８號","E_COORD97":183340.99940299999,"N_COORD97":2533334.8419499998,"ADDRESS":"南雄南路７０１巷１６弄３８號","OBJECTID":49462},"geometry":{"x":183340.99940299988,"y":2533334.8419470023}},{"attributes":{"ID":49463,"DIS_CODE":0,"TOWNNAME":"鹽水區","LI":"南港里","LIN":"12鄰","STREET":" ","SECT":" ","MAREA":"?頭港","LANE":" ","ALLEY":" ","HOUSE_NO":"２００之４４號","E_COORD97":173440.29000000001,"N_COORD97":2572401.5899999999,"ADDRESS":"?頭港２００之４４號","OBJECTID":49463},"geometry":{"x":173440.29000000004,"y":2572401.5900000017}},{"attributes":{"ID":49464,"DIS_CODE":0,"TOWNNAME":"安南區","LI":"安西里","LIN":"15鄰","STREET":"安和路","SECT":"一段","MAREA":" ","LANE":"４５９巷","ALLEY":"８弄","HOUSE_NO":"１１號","E_COORD97":169339.73000000001,"N_COORD97":2548524.9399999999,"ADDRESS":"安和路一段４５９巷８弄１１號","OBJECTID":49464},"geometry":{"x":169339.73000000138,"y":2548524.9399999995}},{"attributes":{"ID":49465,"DIS_CODE":0,"TOWNNAME":"六甲區","LI":"龍湖里","LIN":"15鄰","STREET":"中正路","SECT":" ","MAREA":" ","LANE":"３２巷","ALLEY":"１弄","HOUSE_NO":"１１０號","E_COORD97":183508.23999999999,"N_COORD97":2568717.7599999998,"ADDRESS":"中正路３２巷１弄１１０號","OBJECTID":49465},"geometry":{"x":183508.24000000115,"y":2568717.7600000035}},{"attributes":{"ID":49466,"DIS_CODE":0,"TOWNNAME":"鹽水區","LI":"南港里","LIN":"12鄰","STREET":" ","SECT":" ","MAREA":"?頭港","LANE":" ","ALLEY":" ","HOUSE_NO":"２００號之４４","E_COORD97":173440.29000000001,"N_COORD97":2572401.5899999999,"ADDRESS":"?頭港２００號之４４","OBJECTID":49466},"geometry":{"x":173440.29000000004,"y":2572401.5900000017}},{"attributes":{"ID":49467,"DIS_CODE":0,"TOWNNAME":"鹽水區","LI":"南港里","LIN":"12鄰","STREET":" ","SECT":" ","MAREA":"?頭港","LANE":" ","ALLEY":" ","HOUSE_NO":"２００之４５號","E_COORD97":173010.94,"N_COORD97":2571969.8199999998,"ADDRESS":"?頭港２００之４５號","OBJECTID":49467},"geometry":{"x":173010.94000000041,"y":2571969.8200000022}},{"attributes":{"ID":49468,"DIS_CODE":0,"TOWNNAME":"新化區","LI":"全興里","LIN":"16鄰","STREET":" ","SECT":" ","MAREA":"竹子\u25A0","LANE":" ","ALLEY":" ","HOUSE_NO":"２４７號之４１２","E_COORD97":178212.59,"N_COORD97":2546678.2599999998,"ADDRESS":"竹子\u25A0２４７號之４１２","OBJECTID":49468},"geometry":{"x":178212.59000000171,"y":2546678.2600000016}},{"attributes":{"ID":49469,"DIS_CODE":0,"TOWNNAME":"六甲區","LI":"龍湖里","LIN":"15鄰","STREET":"中正路","SECT":" ","MAREA":" ","LANE":"３２巷","ALLEY":"１弄","HOUSE_NO":"１１２號","E_COORD97":183517.89999999999,"N_COORD97":2568714.9199999999,"ADDRESS":"中正路３２巷１弄１１２號","OBJECTID":49469},"geometry":{"x":183517.90000000037,"y":2568714.9200000018}},{"attributes":{"ID":49470,"DIS_CODE":0,"TOWNNAME":"鹽水區","LI":"南港里","LIN":"12鄰","STREET":" ","SECT":" ","MAREA":"?頭港","LANE":" ","ALLEY":" ","HOUSE_NO":"２００之４６號","E_COORD97":173313.81,"N_COORD97":2572291.7599999998,"ADDRESS":"?頭港２００之４６號","OBJECTID":49470},"geometry":{"x":173313.81000000052,"y":2572291.7600000016}},{"attributes":{"ID":49471,"DIS_CODE":0,"TOWNNAME":"鹽水區","LI":"南港里","LIN":"12鄰","STREET":" ","SECT":" ","MAREA":"?頭港","LANE":" ","ALLEY":" ","HOUSE_NO":"２００之４７號","E_COORD97":173114.42999999999,"N_COORD97":2572282.0499999998,"ADDRESS":"?頭港２００之４７號","OBJECTID":49471},"geometry":{"x":173114.43000000063,"y":2572282.0500000007}},{"attributes":{"ID":49472,"DIS_CODE":0,"TOWNNAME":"鹽水區","LI":"南港里","LIN":"12鄰","STREET":" ","SECT":" ","MAREA":"?頭港","LANE":" ","ALLEY":" ","HOUSE_NO":"２００之４８號","E_COORD97":173389.20999999999,"N_COORD97":2572095.4300000002,"ADDRESS":"?頭港２００之４８號","OBJECTID":49472},"geometry":{"x":173389.21000000089,"y":2572095.4299999997}},{"attributes":{"ID":49473,"DIS_CODE":0,"TOWNNAME":"六甲區","LI":"龍湖里","LIN":"15鄰","STREET":"中正路","SECT":" ","MAREA":" ","LANE":"３２巷","ALLEY":"１弄","HOUSE_NO":"１１４號","E_COORD97":183525.10000000001,"N_COORD97":2568717.2400000002,"ADDRESS":"中正路３２巷１弄１１４號","OBJECTID":49473},"geometry":{"x":183525.10000000056,"y":2568717.2400000002}},{"attributes":{"ID":49474,"DIS_CODE":0,"TOWNNAME":"六甲區","LI":"水林里","LIN":"15鄰","STREET":"民族街","SECT":" ","MAREA":" ","LANE":"２４０巷","ALLEY":"１６弄","HOUSE_NO":"１５號","E_COORD97":183367.31,"N_COORD97":2570395.1400000001,"ADDRESS":"民族街２４０巷１６弄１５號","OBJECTID":49474},"geometry":{"x":183367.30999999959,"y":2570395.1400000025}},{"attributes":{"ID":49475,"DIS_CODE":0,"TOWNNAME":"鹽水區","LI":"南港里","LIN":"12鄰","STREET":" ","SECT":" ","MAREA":"?頭港","LANE":" ","ALLEY":" ","HOUSE_NO":"２００號之４","E_COORD97":173384.67000000001,"N_COORD97":2572403.9300000002,"ADDRESS":"?頭港２００號之４","OBJECTID":49475},"geometry":{"x":173384.67000000086,"y":2572403.9299999997}},{"attributes":{"ID":49476,"DIS_CODE":0,"TOWNNAME":"六甲區","LI":"水林里","LIN":"15鄰","STREET":"民族街","SECT":" ","MAREA":" ","LANE":"２４０巷","ALLEY":"１６弄","HOUSE_NO":"２號","E_COORD97":183353.06,"N_COORD97":2570371.8399999999,"ADDRESS":"民族街２４０巷１６弄２號","OBJECTID":49476},"geometry":{"x":183353.05999999959,"y":2570371.8400000036}},{"attributes":{"ID":49477,"DIS_CODE":0,"TOWNNAME":"鹽水區","LI":"南港里","LIN":"12鄰","STREET":" ","SECT":" ","MAREA":"?頭港","LANE":" ","ALLEY":" ","HOUSE_NO":"２００之５０號","E_COORD97":173064.51999999999,"N_COORD97":2571905.48,"ADDRESS":"?頭港２００之５０號","OBJECTID":49477},"geometry":{"x":173064.52000000048,"y":2571905.4800000023}},{"attributes":{"ID":49478,"DIS_CODE":0,"TOWNNAME":"鹽水區","LI":"南港里","LIN":"12鄰","STREET":" ","SECT":" ","MAREA":"?頭港","LANE":" ","ALLEY":" ","HOUSE_NO":"２００號之５６","E_COORD97":173616,"N_COORD97":2572152.7999999998,"ADDRESS":"?頭港２００號之５６","OBJECTID":49478},"geometry":{"x":173616.00000000186,"y":2572152.7999999989}},{"attributes":{"ID":49479,"DIS_CODE":0,"TOWNNAME":"鹽水區","LI":"南港里","LIN":"12鄰","STREET":" ","SECT":" ","MAREA":"?頭港","LANE":" ","ALLEY":" ","HOUSE_NO":"２００之５８號","E_COORD97":173411.25,"N_COORD97":2572213.0899999999,"ADDRESS":"?頭港２００之５８號","OBJECTID":49479},"geometry":{"x":173411.25000000093,"y":2572213.0899999999}},{"attributes":{"ID":49480,"DIS_CODE":0,"TOWNNAME":"鹽水區","LI":"南港里","LIN":"12鄰","STREET":" ","SECT":" ","MAREA":"?頭港","LANE":" ","ALLEY":" ","HOUSE_NO":"２００之５９號","E_COORD97":173416.85000000001,"N_COORD97":2572207.1600000001,"ADDRESS":"?頭港２００之５９號","OBJECTID":49480},"geometry":{"x":173416.85000000056,"y":2572207.1600000001}},{"attributes":{"ID":49481,"DIS_CODE":0,"TOWNNAME":"鹽水區","LI":"南港里","LIN":"12鄰","STREET":" ","SECT":" ","MAREA":"?頭港","LANE":" ","ALLEY":" ","HOUSE_NO":"２００號之５","E_COORD97":173343.85999999999,"N_COORD97":2572507.1400000001,"ADDRESS":"?頭港２００號之５","OBJECTID":49481},"geometry":{"x":173343.86000000034,"y":2572507.1400000025}},{"attributes":{"ID":49482,"DIS_CODE":0,"TOWNNAME":"鹽水區","LI":"南港里","LIN":"12鄰","STREET":" ","SECT":" ","MAREA":"?頭港","LANE":" ","ALLEY":" ","HOUSE_NO":"２００之６１號","E_COORD97":173490.06,"N_COORD97":2572496.3700000001,"ADDRESS":"?頭港２００之６１號","OBJECTID":49482},"geometry":{"x":173490.06000000052,"y":2572496.3700000029}},{"attributes":{"ID":49483,"DIS_CODE":0,"TOWNNAME":"鹽水區","LI":"南港里","LIN":"12鄰","STREET":" ","SECT":" ","MAREA":"?頭港","LANE":" ","ALLEY":" ","HOUSE_NO":"２００號之６１","E_COORD97":173490.06,"N_COORD97":2572496.3700000001,"ADDRESS":"?頭港２００號之６１","OBJECTID":49483},"geometry":{"x":173490.06000000052,"y":2572496.3700000029}},{"attributes":{"ID":49484,"DIS_CODE":0,"TOWNNAME":"鹽水區","LI":"南港里","LIN":"12鄰","STREET":" ","SECT":" ","MAREA":"?頭港","LANE":" ","ALLEY":" ","HOUSE_NO":"２００之６２號","E_COORD97":173486,"N_COORD97":2572506.79,"ADDRESS":"?頭港２００之６２號","OBJECTID":49484},"geometry":{"x":173486.00000000093,"y":2572506.7899999991}},{"attributes":{"ID":49485,"DIS_CODE":0,"TOWNNAME":"鹽水區","LI":"南港里","LIN":"12鄰","STREET":" ","SECT":" ","MAREA":"?頭港","LANE":" ","ALLEY":" ","HOUSE_NO":"２００之６３號","E_COORD97":173450.73000000001,"N_COORD97":2572516.3199999998,"ADDRESS":"?頭港２００之６３號","OBJECTID":49485},"geometry":{"x":173450.73000000138,"y":2572516.3200000022}},{"attributes":{"ID":49486,"DIS_CODE":0,"TOWNNAME":"鹽水區","LI":"南港里","LIN":"12鄰","STREET":" ","SECT":" ","MAREA":"?頭港","LANE":" ","ALLEY":" ","HOUSE_NO":"２００之６５號","E_COORD97":173545.51999999999,"N_COORD97":2572490.4900000002,"ADDRESS":"?頭港２００之６５號","OBJECTID":49486},"geometry":{"x":173545.51999999955,"y":2572490.4900000021}},{"attributes":{"ID":49487,"DIS_CODE":0,"TOWNNAME":"鹽水區","LI":"南港里","LIN":"12鄰","STREET":" ","SECT":" ","MAREA":"?頭港","LANE":" ","ALLEY":" ","HOUSE_NO":"２００之６６號","E_COORD97":173387.39000000001,"N_COORD97":2572154.1499999999,"ADDRESS":"?頭港２００之６６號","OBJECTID":49487},"geometry":{"x":173387.39000000153,"y":2572154.1500000022}},{"attributes":{"ID":49488,"DIS_CODE":0,"TOWNNAME":"六甲區","LI":"水林里","LIN":"15鄰","STREET":"民族街","SECT":" ","MAREA":" ","LANE":"２４０巷","ALLEY":"１６弄","HOUSE_NO":"９號","E_COORD97":183330.32000000001,"N_COORD97":2570404.1299999999,"ADDRESS":"民族街２４０巷１６弄９號","OBJECTID":49488},"geometry":{"x":183330.3200000003,"y":2570404.1300000008}},{"attributes":{"ID":49489,"DIS_CODE":0,"TOWNNAME":"鹽水區","LI":"南港里","LIN":"12鄰","STREET":" ","SECT":" ","MAREA":"?頭港","LANE":" ","ALLEY":" ","HOUSE_NO":"２００之６７號","E_COORD97":173627.56,"N_COORD97":2572336,"ADDRESS":"?頭港２００之６７號","OBJECTID":49489},"geometry":{"x":173627.56000000052,"y":2572336}},{"attributes":{"ID":49490,"DIS_CODE":0,"TOWNNAME":"鹽水區","LI":"南港里","LIN":"12鄰","STREET":" ","SECT":" ","MAREA":"?頭港","LANE":" ","ALLEY":" ","HOUSE_NO":"２００號之６","E_COORD97":173342.14999999999,"N_COORD97":2572439.73,"ADDRESS":"?頭港２００號之６","OBJECTID":49490},"geometry":{"x":173342.15000000037,"y":2572439.7300000004}},{"attributes":{"ID":49491,"DIS_CODE":0,"TOWNNAME":"鹽水區","LI":"南港里","LIN":"12鄰","STREET":" ","SECT":" ","MAREA":"?頭港","LANE":" ","ALLEY":" ","HOUSE_NO":"２００號之７０","E_COORD97":173288.13,"N_COORD97":2572486.5600000001,"ADDRESS":"?頭港２００號之７０","OBJECTID":49491},"geometry":{"x":173288.13000000082,"y":2572486.5600000042}},{"attributes":{"ID":49492,"DIS_CODE":0,"TOWNNAME":"鹽水區","LI":"南港里","LIN":"12鄰","STREET":" ","SECT":" ","MAREA":"?頭港","LANE":" ","ALLEY":" ","HOUSE_NO":"２００之７１號","E_COORD97":173290.54999999999,"N_COORD97":2572482.6499999999,"ADDRESS":"?頭港２００之７１號","OBJECTID":49492},"geometry":{"x":173290.55000000075,"y":2572482.6500000041}},{"attributes":{"ID":49493,"DIS_CODE":0,"TOWNNAME":"新化區","LI":"知義里","LIN":" ","STREET":" ","SECT":" ","MAREA":"新和庄","LANE":" ","ALLEY":" ","HOUSE_NO":"６７號","E_COORD97":181912.34,"N_COORD97":2546563.25,"ADDRESS":"新和庄６７號","OBJECTID":49493},"geometry":{"x":181912.33999999985,"y":2546563.2500000019}},{"attributes":{"ID":49494,"DIS_CODE":0,"TOWNNAME":"鹽水區","LI":"南港里","LIN":"12鄰","STREET":" ","SECT":" ","MAREA":"?頭港","LANE":" ","ALLEY":" ","HOUSE_NO":"２００之７２號","E_COORD97":173292.72,"N_COORD97":2572478.5800000001,"ADDRESS":"?頭港２００之７２號","OBJECTID":49494},"geometry":{"x":173292.72000000067,"y":2572478.5800000001}},{"attributes":{"ID":49495,"DIS_CODE":0,"TOWNNAME":"鹽水區","LI":"南港里","LIN":"12鄰","STREET":" ","SECT":" ","MAREA":"?頭港","LANE":" ","ALLEY":" ","HOUSE_NO":"２００之７３號","E_COORD97":173295.14999999999,"N_COORD97":2572475.1800000002,"ADDRESS":"?頭港２００之７３號","OBJECTID":49495},"geometry":{"x":173295.1500000013,"y":2572475.1800000016}},{"attributes":{"ID":49496,"DIS_CODE":0,"TOWNNAME":"鹽水區","LI":"南港里","LIN":"12鄰","STREET":" ","SECT":" ","MAREA":"?頭港","LANE":" ","ALLEY":" ","HOUSE_NO":"２００號之７４","E_COORD97":173298.07999999999,"N_COORD97":2572471.1600000001,"ADDRESS":"?頭港２００號之７４","OBJECTID":49496},"geometry":{"x":173298.08000000007,"y":2572471.1600000001}},{"attributes":{"ID":49497,"DIS_CODE":0,"TOWNNAME":"鹽水區","LI":"南港里","LIN":"12鄰","STREET":" ","SECT":" ","MAREA":"?頭港","LANE":" ","ALLEY":" ","HOUSE_NO":"２００號之７","E_COORD97":173393.64999999999,"N_COORD97":2572379.8100000001,"ADDRESS":"?頭港２００號之７","OBJECTID":49497},"geometry":{"x":173393.6500000013,"y":2572379.8100000042}},{"attributes":{"ID":49498,"DIS_CODE":0,"TOWNNAME":"六甲區","LI":"水林里","LIN":"15鄰","STREET":"民族街","SECT":" ","MAREA":" ","LANE":"２４０巷","ALLEY":"３００弄","HOUSE_NO":"２號","E_COORD97":183496.20000000001,"N_COORD97":2572093.9500000002,"ADDRESS":"民族街２４０巷３００弄２號","OBJECTID":49498},"geometry":{"x":183496.20000000112,"y":2572093.9500000011}},{"attributes":{"ID":49499,"DIS_CODE":0,"TOWNNAME":"六甲區","LI":"水林里","LIN":"15鄰","STREET":"民族街","SECT":" ","MAREA":" ","LANE":"２４０巷","ALLEY":"８００弄","HOUSE_NO":"１００號","E_COORD97":183265.95999999999,"N_COORD97":2572482.8599999999,"ADDRESS":"民族街２４０巷８００弄１００號","OBJECTID":49499},"geometry":{"x":183265.96000000089,"y":2572482.8599999994}},{"attributes":{"ID":49500,"DIS_CODE":0,"TOWNNAME":"新營區","LI":"太北里","LIN":"17鄰","STREET":" ","SECT":" ","MAREA":"太子宮","LANE":" ","ALLEY":" ","HOUSE_NO":"１５０號","E_COORD97":175288.79000000001,"N_COORD97":2577157.1400000001,"ADDRESS":"太子宮１５０號","OBJECTID":49500},"geometry":{"x":175288.7900000019,"y":2577157.1400000006}},{"attributes":{"ID":49501,"DIS_CODE":0,"TOWNNAME":"東山區","LI":"聖賢里","LIN":"17鄰","STREET":" ","SECT":" ","MAREA":"頂窩","LANE":" ","ALLEY":" ","HOUSE_NO":"３０號之２","E_COORD97":183111.79000000001,"N_COORD97":2578510.5,"ADDRESS":"頂窩３０號之２","OBJECTID":49501},"geometry":{"x":183111.79000000004,"y":2578510.5}},{"attributes":{"ID":49502,"DIS_CODE":0,"TOWNNAME":"鹽水區","LI":"南港里","LIN":"12鄰","STREET":" ","SECT":" ","MAREA":"?頭港","LANE":" ","ALLEY":" ","HOUSE_NO":"２００之８１號","E_COORD97":172921.95000000001,"N_COORD97":2572154.4900000002,"ADDRESS":"?頭港２００之８１號","OBJECTID":49502},"geometry":{"x":172921.95000000112,"y":2572154.4900000039}},{"attributes":{"ID":49503,"DIS_CODE":0,"TOWNNAME":"鹽水區","LI":"南港里","LIN":"12鄰","STREET":" ","SECT":" ","MAREA":"?頭港","LANE":" ","ALLEY":" ","HOUSE_NO":"２００之８８號","E_COORD97":171965.20000000001,"N_COORD97":2571585.1499999999,"ADDRESS":"?頭港２００之８８號","OBJECTID":49503},"geometry":{"x":171965.19999999925,"y":2571585.1500000022}},{"attributes":{"ID":49504,"DIS_CODE":0,"TOWNNAME":"鹽水區","LI":"南港里","LIN":"12鄰","STREET":" ","SECT":" ","MAREA":"?頭港","LANE":" ","ALLEY":" ","HOUSE_NO":"２００之９０號","E_COORD97":172270.04000000001,"N_COORD97":2572017.5299999998,"ADDRESS":"?頭港２００之９０號","OBJECTID":49504},"geometry":{"x":172270.04000000097,"y":2572017.5299999975}},{"attributes":{"ID":49505,"DIS_CODE":0,"TOWNNAME":"鹽水區","LI":"南港里","LIN":"12鄰","STREET":" ","SECT":" ","MAREA":"?頭港","LANE":" ","ALLEY":" ","HOUSE_NO":"２００號之９２","E_COORD97":172294.17000000001,"N_COORD97":2571992.8199999998,"ADDRESS":"?頭港２００號之９２","OBJECTID":49505},"geometry":{"x":172294.17000000179,"y":2571992.8199999984}},{"attributes":{"ID":49506,"DIS_CODE":0,"TOWNNAME":"鹽水區","LI":"南港里","LIN":"12鄰","STREET":" ","SECT":" ","MAREA":"?頭港","LANE":" ","ALLEY":" ","HOUSE_NO":"２００號之９","E_COORD97":173365.45999999999,"N_COORD97":2572512.6499999999,"ADDRESS":"?頭港２００號之９","OBJECTID":49506},"geometry":{"x":173365.46000000089,"y":2572512.6500000004}},{"attributes":{"ID":49507,"DIS_CODE":0,"TOWNNAME":"六甲區","LI":"水林里","LIN":"15鄰","STREET":"民族街","SECT":" ","MAREA":" ","LANE":"２４０巷","ALLEY":"８０弄","HOUSE_NO":"２０１號","E_COORD97":183559.70000000001,"N_COORD97":2570756.8799999999,"ADDRESS":"民族街２４０巷８０弄２０１號","OBJECTID":49507},"geometry":{"x":183559.70000000019,"y":2570756.8799999971}},{"attributes":{"ID":49508,"DIS_CODE":0,"TOWNNAME":"六甲區","LI":"水林里","LIN":"15鄰","STREET":"民族街","SECT":" ","MAREA":" ","LANE":"２４０巷","ALLEY":"９０１弄","HOUSE_NO":"８８號","E_COORD97":182802.79999999999,"N_COORD97":2572539.9500000002,"ADDRESS":"民族街２４０巷９０１弄８８號","OBJECTID":49508},"geometry":{"x":182802.79999999981,"y":2572539.9499999993}},{"attributes":{"ID":49509,"DIS_CODE":0,"TOWNNAME":"六甲區","LI":"水林里","LIN":"15鄰","STREET":"民族街","SECT":" ","MAREA":" ","LANE":"２６０巷","ALLEY":"１弄","HOUSE_NO":"１號","E_COORD97":183205.54999999999,"N_COORD97":2570389.9300000002,"ADDRESS":"民族街２６０巷１弄１號","OBJECTID":49509},"geometry":{"x":183205.55000000075,"y":2570389.9299999997}},{"attributes":{"ID":49510,"DIS_CODE":0,"TOWNNAME":"鹽水區","LI":"河南里","LIN":"12鄰","STREET":" ","SECT":" ","MAREA":"?頭港","LANE":" ","ALLEY":" ","HOUSE_NO":"６６號之１","E_COORD97":172788.76999999999,"N_COORD97":2572670.3799999999,"ADDRESS":"?頭港６６號之１","OBJECTID":49510},"geometry":{"x":172788.77000000048,"y":2572670.3800000008}},{"attributes":{"ID":49511,"DIS_CODE":0,"TOWNNAME":"六甲區","LI":"水林里","LIN":"15鄰","STREET":"民族街","SECT":" ","MAREA":" ","LANE":"２６０巷","ALLEY":"１弄","HOUSE_NO":"２號","E_COORD97":183198.25,"N_COORD97":2570407,"ADDRESS":"民族街２６０巷１弄２號","OBJECTID":49511},"geometry":{"x":183198.25,"y":2570407}},{"attributes":{"ID":49512,"DIS_CODE":0,"TOWNNAME":"鹽水區","LI":"河南里","LIN":"12鄰","STREET":" ","SECT":" ","MAREA":"?頭港","LANE":" ","ALLEY":" ","HOUSE_NO":"６６號之２","E_COORD97":172777.12,"N_COORD97":2572660.8300000001,"ADDRESS":"?頭港６６號之２","OBJECTID":49512},"geometry":{"x":172777.12000000011,"y":2572660.8300000038}},{"attributes":{"ID":49513,"DIS_CODE":0,"TOWNNAME":"六甲區","LI":"水林里","LIN":"15鄰","STREET":"民族街","SECT":" ","MAREA":" ","LANE":"２６０巷","ALLEY":"１弄","HOUSE_NO":"３號","E_COORD97":183201.39000000001,"N_COORD97":2570390.2599999998,"ADDRESS":"民族街２６０巷１弄３號","OBJECTID":49513},"geometry":{"x":183201.3900000006,"y":2570390.2600000016}},{"attributes":{"ID":49514,"DIS_CODE":0,"TOWNNAME":"六甲區","LI":"水林里","LIN":"15鄰","STREET":"民族街","SECT":" ","MAREA":" ","LANE":"２６０巷","ALLEY":"１弄","HOUSE_NO":"５號","E_COORD97":183196.5,"N_COORD97":2570390.7200000002,"ADDRESS":"民族街２６０巷１弄５號","OBJECTID":49514},"geometry":{"x":183196.5,"y":2570390.7200000025}},{"attributes":{"ID":49515,"DIS_CODE":0,"TOWNNAME":"六甲區","LI":"水林里","LIN":"15鄰","STREET":"民族街","SECT":" ","MAREA":" ","LANE":"２６０巷","ALLEY":"１弄","HOUSE_NO":"６號","E_COORD97":183188.92999999999,"N_COORD97":2570408,"ADDRESS":"民族街２６０巷１弄６號","OBJECTID":49515},"geometry":{"x":183188.93000000063,"y":2570407.9999999981}},{"attributes":{"ID":49516,"DIS_CODE":0,"TOWNNAME":"六甲區","LI":"水林里","LIN":"15鄰","STREET":"民族街","SECT":" ","MAREA":" ","LANE":"２６０巷","ALLEY":"１弄","HOUSE_NO":"７號","E_COORD97":183191.76999999999,"N_COORD97":2570391.23,"ADDRESS":"民族街２６０巷１弄７號","OBJECTID":49516},"geometry":{"x":183191.77000000048,"y":2570391.2300000023}},{"attributes":{"ID":49517,"DIS_CODE":0,"TOWNNAME":"六甲區","LI":"水林里","LIN":"15鄰","STREET":"民族街","SECT":" ","MAREA":" ","LANE":"２６０巷","ALLEY":"１弄","HOUSE_NO":"９號","E_COORD97":183187.23999999999,"N_COORD97":2570391.6899999999,"ADDRESS":"民族街２６０巷１弄９號","OBJECTID":49517},"geometry":{"x":183187.24000000209,"y":2570391.6899999995}},{"attributes":{"ID":49518,"DIS_CODE":0,"TOWNNAME":"鹽水區","LI":"河南里","LIN":"12鄰","STREET":" ","SECT":" ","MAREA":"?頭港","LANE":" ","ALLEY":" ","HOUSE_NO":"６６號","E_COORD97":172768.28,"N_COORD97":2572661.6400000001,"ADDRESS":"?頭港６６號","OBJECTID":49518},"geometry":{"x":172768.27999999933,"y":2572661.6400000006}},{"attributes":{"ID":49519,"DIS_CODE":0,"TOWNNAME":"南區","LI":"明亮里","LIN":"15鄰","STREET":"金華路","SECT":"一段","MAREA":" ","LANE":"３５２巷","ALLEY":"１３０弄","HOUSE_NO":"２３號","E_COORD97":167290.57000000001,"N_COORD97":2540984.02,"ADDRESS":"金華路一段３５２巷１３０弄２３號","OBJECTID":49519},"geometry":{"x":167290.5700000003,"y":2540984.0200000014}},{"attributes":{"ID":49520,"DIS_CODE":0,"TOWNNAME":"南區","LI":"明亮里","LIN":"15鄰","STREET":"金華路","SECT":"一段","MAREA":" ","LANE":"３５２巷","ALLEY":"１３０弄","HOUSE_NO":"１０號","E_COORD97":167256.67999999999,"N_COORD97":2540969.6099999999,"ADDRESS":"金華路一段３５２巷１３０弄１０號","OBJECTID":49520},"geometry":{"x":167256.6799999997,"y":2540969.6100000013}},{"attributes":{"ID":49521,"DIS_CODE":0,"TOWNNAME":"南區","LI":"明亮里","LIN":"15鄰","STREET":"金華路","SECT":"一段","MAREA":" ","LANE":"３５２巷","ALLEY":"１３０弄","HOUSE_NO":"１１號","E_COORD97":167254.48999999999,"N_COORD97":2540981.8300000001,"ADDRESS":"金華路一段３５２巷１３０弄１１號","OBJECTID":49521},"geometry":{"x":167254.49000000115,"y":2540981.8300000019}},{"attributes":{"ID":49522,"DIS_CODE":0,"TOWNNAME":"鹽水區","LI":"河南里","LIN":"12鄰","STREET":" ","SECT":" ","MAREA":"?頭港","LANE":" ","ALLEY":" ","HOUSE_NO":"６７號","E_COORD97":172749.82000000001,"N_COORD97":2572651.71,"ADDRESS":"?頭港６７號","OBJECTID":49522},"geometry":{"x":172749.82000000123,"y":2572651.7100000009}},{"attributes":{"ID":49523,"DIS_CODE":0,"TOWNNAME":"南區","LI":"明亮里","LIN":"15鄰","STREET":"金華路","SECT":"一段","MAREA":" ","LANE":"３５２巷","ALLEY":"１３０弄","HOUSE_NO":"１２號","E_COORD97":167265.14999999999,"N_COORD97":2540967.73,"ADDRESS":"金華路一段３５２巷１３０弄１２號","OBJECTID":49523},"geometry":{"x":167265.15000000224,"y":2540967.7300000004}},{"attributes":{"ID":49524,"DIS_CODE":0,"TOWNNAME":"鹽水區","LI":"河南里","LIN":"12鄰","STREET":" ","SECT":" ","MAREA":"?頭港","LANE":" ","ALLEY":" ","HOUSE_NO":"６８號","E_COORD97":172728.87,"N_COORD97":2572663.9700000002,"ADDRESS":"?頭港６８號","OBJECTID":49524},"geometry":{"x":172728.87000000104,"y":2572663.9700000025}},{"attributes":{"ID":49525,"DIS_CODE":0,"TOWNNAME":"南區","LI":"明亮里","LIN":"15鄰","STREET":"金華路","SECT":"一段","MAREA":" ","LANE":"３５２巷","ALLEY":"１３０弄","HOUSE_NO":"１３號","E_COORD97":167261.70000000001,"N_COORD97":2540979.9500000002,"ADDRESS":"金華路一段３５２巷１３０弄１３號","OBJECTID":49525},"geometry":{"x":167261.70000000112,"y":2540979.9500000011}},{"attributes":{"ID":49526,"DIS_CODE":0,"TOWNNAME":"歸仁區","LI":"六甲里","LIN":"17鄰","STREET":"六甲路","SECT":" ","MAREA":" ","LANE":"３２１巷","ALLEY":" ","HOUSE_NO":"３２號","E_COORD97":175706.59256399999,"N_COORD97":2539147.5748700001,"ADDRESS":"六甲路３２１巷３２號","OBJECTID":49526},"geometry":{"x":175706.59256399982,"y":2539147.5748700015}},{"attributes":{"ID":49527,"DIS_CODE":0,"TOWNNAME":"歸仁區","LI":"文化里","LIN":"17鄰","STREET":"文化北街","SECT":" ","MAREA":" ","LANE":" ","ALLEY":" ","HOUSE_NO":"１１４號","E_COORD97":177185.70999999999,"N_COORD97":2541415.3399999999,"ADDRESS":"文化北街１１４號","OBJECTID":49527},"geometry":{"x":177185.70999999996,"y":2541415.3400000017}},{"attributes":{"ID":49528,"DIS_CODE":0,"TOWNNAME":"歸仁區","LI":"文化里","LIN":"17鄰","STREET":"文化北街","SECT":" ","MAREA":" ","LANE":" ","ALLEY":" ","HOUSE_NO":"１０６號","E_COORD97":177195.26999999999,"N_COORD97":2541414.2599999998,"ADDRESS":"文化北街１０６號","OBJECTID":49528},"geometry":{"x":177195.26999999955,"y":2541414.2599999998}},{"attributes":{"ID":49529,"DIS_CODE":0,"TOWNNAME":"歸仁區","LI":"文化里","LIN":"17鄰","STREET":"文化北街","SECT":" ","MAREA":" ","LANE":" ","ALLEY":" ","HOUSE_NO":"１３０號","E_COORD97":177146.07000000001,"N_COORD97":2541417.2599999998,"ADDRESS":"文化北街１３０號","OBJECTID":49529},"geometry":{"x":177146.0700000003,"y":2541417.2599999998}},{"attributes":{"ID":49530,"DIS_CODE":0,"TOWNNAME":"歸仁區","LI":"崙頂里","LIN":"17鄰","STREET":"大成路","SECT":" ","MAREA":" ","LANE":" ","ALLEY":" ","HOUSE_NO":"２５１號","E_COORD97":177867.89999999999,"N_COORD97":2540096.96,"ADDRESS":"大成路２５１號","OBJECTID":49530},"geometry":{"x":177867.90000000037,"y":2540096.9600000028}},{"attributes":{"ID":49531,"DIS_CODE":0,"TOWNNAME":"南區","LI":"明亮里","LIN":"15鄰","STREET":"金華路","SECT":"一段","MAREA":" ","LANE":"３５２巷","ALLEY":"１３０弄","HOUSE_NO":"１４號","E_COORD97":167270.48999999999,"N_COORD97":2540965.23,"ADDRESS":"金華路一段３５２巷１３０弄１４號","OBJECTID":49531},"geometry":{"x":167270.49000000022,"y":2540965.2300000042}},{"attributes":{"ID":49532,"DIS_CODE":0,"TOWNNAME":"南區","LI":"明亮里","LIN":"15鄰","STREET":"金華路","SECT":"一段","MAREA":" ","LANE":"３５２巷","ALLEY":"１３０弄","HOUSE_NO":"１５號","E_COORD97":167267.04000000001,"N_COORD97":2540977.4399999999,"ADDRESS":"金華路一段３５２巷１３０弄１５號","OBJECTID":49532},"geometry":{"x":167267.03999999911,"y":2540977.4400000013}},{"attributes":{"ID":49533,"DIS_CODE":0,"TOWNNAME":"南區","LI":"明亮里","LIN":"15鄰","STREET":"金華路","SECT":"一段","MAREA":" ","LANE":"３５２巷","ALLEY":"１３０弄","HOUSE_NO":"１６號","E_COORD97":167277.39000000001,"N_COORD97":2540962.7200000002,"ADDRESS":"金華路一段３５２巷１３０弄１６號","OBJECTID":49533},"geometry":{"x":167277.38999999966,"y":2540962.7200000025}},{"attributes":{"ID":49534,"DIS_CODE":0,"TOWNNAME":"南區","LI":"明亮里","LIN":"15鄰","STREET":"金華路","SECT":"一段","MAREA":" ","LANE":"３５２巷","ALLEY":"１３０弄","HOUSE_NO":"１７號","E_COORD97":167274.57000000001,"N_COORD97":2540975.25,"ADDRESS":"金華路一段３５２巷１３０弄１７號","OBJECTID":49534},"geometry":{"x":167274.57000000123,"y":2540975.2500000019}},{"attributes":{"ID":49535,"DIS_CODE":0,"TOWNNAME":"南區","LI":"明亮里","LIN":"15鄰","STREET":"金華路","SECT":"一段","MAREA":" ","LANE":"３５２巷","ALLEY":"１３０弄","HOUSE_NO":"１８號","E_COORD97":167283.66,"N_COORD97":2540960.5299999998,"ADDRESS":"金華路一段３５２巷１３０弄１８號","OBJECTID":49535},"geometry":{"x":167283.66000000108,"y":2540960.5299999993}},{"attributes":{"ID":49536,"DIS_CODE":0,"TOWNNAME":"南區","LI":"明亮里","LIN":"15鄰","STREET":"金華路","SECT":"一段","MAREA":" ","LANE":"３５２巷","ALLEY":"１３０弄","HOUSE_NO":"１９號","E_COORD97":167280.20999999999,"N_COORD97":2540987.4700000002,"ADDRESS":"金華路一段３５２巷１３０弄１９號","OBJECTID":49536},"geometry":{"x":167280.21000000089,"y":2540987.4700000044}},{"attributes":{"ID":49537,"DIS_CODE":0,"TOWNNAME":"南區","LI":"明亮里","LIN":"15鄰","STREET":"金華路","SECT":"一段","MAREA":" ","LANE":"３５２巷","ALLEY":"１３０弄","HOUSE_NO":"２０號","E_COORD97":167289.94,"N_COORD97":2540958.6499999999,"ADDRESS":"金華路一段３５２巷１３０弄２０號","OBJECTID":49537},"geometry":{"x":167289.94000000041,"y":2540958.6500000041}},{"attributes":{"ID":49538,"DIS_CODE":0,"TOWNNAME":"南區","LI":"明亮里","LIN":"15鄰","STREET":"金華路","SECT":"一段","MAREA":" ","LANE":"３５２巷","ALLEY":"１３０弄","HOUSE_NO":"２１號","E_COORD97":167281.47,"N_COORD97":2540992.48,"ADDRESS":"金華路一段３５２巷１３０弄２１號","OBJECTID":49538},"geometry":{"x":167281.47000000067,"y":2540992.4800000004}},{"attributes":{"ID":49539,"DIS_CODE":0,"TOWNNAME":"新營區","LI":"新東里","LIN":"17鄰","STREET":"東興四街","SECT":" ","MAREA":" ","LANE":" ","ALLEY":" ","HOUSE_NO":"５６號","E_COORD97":180974.34,"N_COORD97":2579166.1699999999,"ADDRESS":"東興四街５６號","OBJECTID":49539},"geometry":{"x":180974.34000000078,"y":2579166.1699999999}},{"attributes":{"ID":49540,"DIS_CODE":0,"TOWNNAME":"新營區","LI":"太北里","LIN":"17鄰","STREET":" ","SECT":" ","MAREA":"太子宮","LANE":" ","ALLEY":" ","HOUSE_NO":"１４８號","E_COORD97":175371.73000000001,"N_COORD97":2577173.3399999999,"ADDRESS":"太子宮１４８號","OBJECTID":49540},"geometry":{"x":175371.73000000138,"y":2577173.3400000017}},{"attributes":{"ID":49541,"DIS_CODE":0,"TOWNNAME":"新營區","LI":"新北里","LIN":"17鄰","STREET":"南新街","SECT":" ","MAREA":" ","LANE":" ","ALLEY":" ","HOUSE_NO":"８７號","E_COORD97":179206.54000000001,"N_COORD97":2578863.3199999998,"ADDRESS":"南新街８７號","OBJECTID":49541},"geometry":{"x":179206.54000000097,"y":2578863.3200000022}},{"attributes":{"ID":49542,"DIS_CODE":0,"TOWNNAME":"新營區","LI":"太北里","LIN":"17鄰","STREET":" ","SECT":" ","MAREA":"太子宮","LANE":" ","ALLEY":" ","HOUSE_NO":"１４９號","E_COORD97":175335.10000000001,"N_COORD97":2577211.1800000002,"ADDRESS":"太子宮１４９號","OBJECTID":49542},"geometry":{"x":175335.09999999963,"y":2577211.1800000034}},{"attributes":{"ID":49543,"DIS_CODE":0,"TOWNNAME":"鹽水區","LI":"河南里","LIN":"12鄰","STREET":" ","SECT":" ","MAREA":"?頭港","LANE":" ","ALLEY":" ","HOUSE_NO":"６９號","E_COORD97":172733.57999999999,"N_COORD97":2572648.1800000002,"ADDRESS":"?頭港６９號","OBJECTID":49543},"geometry":{"x":172733.58000000007,"y":2572648.1800000016}},{"attributes":{"ID":49544,"DIS_CODE":0,"TOWNNAME":"新營區","LI":"新東里","LIN":"17鄰","STREET":"東興四街","SECT":" ","MAREA":" ","LANE":" ","ALLEY":" ","HOUSE_NO":"６８號","E_COORD97":180973.14000000001,"N_COORD97":2579131.8399999999,"ADDRESS":"東興四街６８號","OBJECTID":49544},"geometry":{"x":180973.13999999966,"y":2579131.8399999999}},{"attributes":{"ID":49545,"DIS_CODE":0,"TOWNNAME":"新營區","LI":"新東里","LIN":"17鄰","STREET":"東興四街","SECT":" ","MAREA":" ","LANE":" ","ALLEY":" ","HOUSE_NO":"６０號","E_COORD97":180974.26999999999,"N_COORD97":2579155.0899999999,"ADDRESS":"東興四街６０號","OBJECTID":49545},"geometry":{"x":180974.27000000048,"y":2579155.0900000017}},{"attributes":{"ID":49546,"DIS_CODE":0,"TOWNNAME":"鹽水區","LI":"河南里","LIN":"12鄰","STREET":" ","SECT":" ","MAREA":"?頭港","LANE":" ","ALLEY":" ","HOUSE_NO":"７０號之１","E_COORD97":172704.92999999999,"N_COORD97":2572647.5099999998,"ADDRESS":"?頭港７０號之１","OBJECTID":49546},"geometry":{"x":172704.9299999997,"y":2572647.5099999998}},{"attributes":{"ID":49547,"DIS_CODE":0,"TOWNNAME":"鹽水區","LI":"河南里","LIN":"12鄰","STREET":" ","SECT":" ","MAREA":"?頭港","LANE":" ","ALLEY":" ","HOUSE_NO":"７０號","E_COORD97":172725.32000000001,"N_COORD97":2572644.5699999998,"ADDRESS":"?頭港７０號","OBJECTID":49547},"geometry":{"x":172725.3200000003,"y":2572644.5700000003}},{"attributes":{"ID":49548,"DIS_CODE":0,"TOWNNAME":"鹽水區","LI":"河南里","LIN":"12鄰","STREET":" ","SECT":" ","MAREA":"?頭港","LANE":" ","ALLEY":" ","HOUSE_NO":"７３號","E_COORD97":172680.07999999999,"N_COORD97":2572592.8900000001,"ADDRESS":"?頭港７３號","OBJECTID":49548},"geometry":{"x":172680.08000000101,"y":2572592.8900000043}},{"attributes":{"ID":49549,"DIS_CODE":0,"TOWNNAME":"鹽水區","LI":"河南里","LIN":"12鄰","STREET":" ","SECT":" ","MAREA":"?頭港","LANE":" ","ALLEY":" ","HOUSE_NO":"７４號之１","E_COORD97":172703.59,"N_COORD97":2572610.3300000001,"ADDRESS":"?頭港７４號之１","OBJECTID":49549},"geometry":{"x":172703.59000000078,"y":2572610.3300000019}},{"attributes":{"ID":49550,"DIS_CODE":0,"TOWNNAME":"鹽水區","LI":"河南里","LIN":"12鄰","STREET":" ","SECT":" ","MAREA":"?頭港","LANE":" ","ALLEY":" ","HOUSE_NO":"７４號","E_COORD97":172689.48000000001,"N_COORD97":2572603.3599999999,"ADDRESS":"?頭港７４號","OBJECTID":49550},"geometry":{"x":172689.48000000138,"y":2572603.3600000013}},{"attributes":{"ID":49551,"DIS_CODE":0,"TOWNNAME":"七股區","LI":"?埕里","LIN":"12鄰","STREET":" ","SECT":" ","MAREA":"?埕","LANE":" ","ALLEY":" ","HOUSE_NO":"１９２號","E_COORD97":156701.13,"N_COORD97":2561269.6000000001,"ADDRESS":"?埕１９２號","OBJECTID":49551},"geometry":{"x":156701.12999999989,"y":2561269.5999999996}},{"attributes":{"ID":49552,"DIS_CODE":0,"TOWNNAME":"七股區","LI":"?埕里","LIN":"12鄰","STREET":" ","SECT":" ","MAREA":"?埕","LANE":" ","ALLEY":" ","HOUSE_NO":"１９３號","E_COORD97":156723.78,"N_COORD97":2561269.3599999999,"ADDRESS":"?埕１９３號","OBJECTID":49552},"geometry":{"x":156723.78000000119,"y":2561269.3600000013}},{"attributes":{"ID":49553,"DIS_CODE":0,"TOWNNAME":"七股區","LI":"?埕里","LIN":"12鄰","STREET":" ","SECT":" ","MAREA":"?埕","LANE":" ","ALLEY":" ","HOUSE_NO":"１９４號","E_COORD97":156701.17999999999,"N_COORD97":2561265.3700000001,"ADDRESS":"?埕１９４號","OBJECTID":49553},"geometry":{"x":156701.1799999997,"y":2561265.370000001}},{"attributes":{"ID":49554,"DIS_CODE":0,"TOWNNAME":"七股區","LI":"?埕里","LIN":"12鄰","STREET":" ","SECT":" ","MAREA":"?埕","LANE":" ","ALLEY":" ","HOUSE_NO":"１９５號","E_COORD97":156723.78,"N_COORD97":2561265.4399999999,"ADDRESS":"?埕１９５號","OBJECTID":49554},"geometry":{"x":156723.78000000119,"y":2561265.4400000013}},{"attributes":{"ID":49555,"DIS_CODE":0,"TOWNNAME":"七股區","LI":"?埕里","LIN":"12鄰","STREET":" ","SECT":" ","MAREA":"?埕","LANE":" ","ALLEY":" ","HOUSE_NO":"１９６號","E_COORD97":156701.23000000001,"N_COORD97":2561261.1299999999,"ADDRESS":"?埕１９６號","OBJECTID":49555},"geometry":{"x":156701.23000000045,"y":2561261.129999999}},{"attributes":{"ID":49556,"DIS_CODE":0,"TOWNNAME":"新營區","LI":"新北里","LIN":"17鄰","STREET":"南新街","SECT":" ","MAREA":" ","LANE":" ","ALLEY":" ","HOUSE_NO":"７９號","E_COORD97":179220.62,"N_COORD97":2578821.1600000001,"ADDRESS":"南新街７９號","OBJECTID":49556},"geometry":{"x":179220.62000000011,"y":2578821.1600000001}},{"attributes":{"ID":49557,"DIS_CODE":0,"TOWNNAME":"新營區","LI":"新東里","LIN":"17鄰","STREET":"東興四街","SECT":" ","MAREA":" ","LANE":" ","ALLEY":" ","HOUSE_NO":"７０號","E_COORD97":180967.01000000001,"N_COORD97":2579128.54,"ADDRESS":"東興四街７０號","OBJECTID":49557},"geometry":{"x":180967.00999999978,"y":2579128.540000001}},{"attributes":{"ID":49558,"DIS_CODE":0,"TOWNNAME":"新營區","LI":"新北里","LIN":"17鄰","STREET":"南新街","SECT":" ","MAREA":" ","LANE":" ","ALLEY":" ","HOUSE_NO":"７９號之２","E_COORD97":179217.84,"N_COORD97":2578834.5299999998,"ADDRESS":"南新街７９號之２","OBJECTID":49558},"geometry":{"x":179217.84000000171,"y":2578834.5299999993}},{"attributes":{"ID":49559,"DIS_CODE":0,"TOWNNAME":"北區","LI":"玉皇里","LIN":"4鄰","STREET":"崇安街","SECT":" ","MAREA":" ","LANE":" ","ALLEY":" ","HOUSE_NO":"５５號","E_COORD97":168683.01000000001,"N_COORD97":2544558.7000000002,"ADDRESS":"崇安街５５號","OBJECTID":49559},"geometry":{"x":168683.01000000071,"y":2544558.7000000011}},{"attributes":{"ID":49560,"DIS_CODE":0,"TOWNNAME":"新營區","LI":"新東里","LIN":"17鄰","STREET":"東興二街","SECT":" ","MAREA":" ","LANE":" ","ALLEY":" ","HOUSE_NO":"４７號","E_COORD97":180948.28,"N_COORD97":2579051.1200000001,"ADDRESS":"東興二街４７號","OBJECTID":49560},"geometry":{"x":180948.28000000119,"y":2579051.1200000029}},{"attributes":{"ID":49561,"DIS_CODE":0,"TOWNNAME":"新營區","LI":"民榮里","LIN":"17鄰","STREET":"裕民路","SECT":" ","MAREA":" ","LANE":" ","ALLEY":" ","HOUSE_NO":"７８號","E_COORD97":179133.72,"N_COORD97":2577761.75,"ADDRESS":"裕民路７８號","OBJECTID":49561},"geometry":{"x":179133.7200000016,"y":2577761.7500000019}},{"attributes":{"ID":49562,"DIS_CODE":0,"TOWNNAME":"新營區","LI":"太北里","LIN":"17鄰","STREET":"新太路","SECT":" ","MAREA":" ","LANE":" ","ALLEY":" ","HOUSE_NO":"３９號","E_COORD97":175690.64000000001,"N_COORD97":2577964.6699999999,"ADDRESS":"新太路３９號","OBJECTID":49562},"geometry":{"x":175690.63999999966,"y":2577964.6700000018}},{"attributes":{"ID":49563,"DIS_CODE":0,"TOWNNAME":"新營區","LI":"新東里","LIN":"17鄰","STREET":"東興四街","SECT":" ","MAREA":" ","LANE":" ","ALLEY":" ","HOUSE_NO":"４０號","E_COORD97":180936.56,"N_COORD97":2579166.3399999999,"ADDRESS":"東興四街４０號","OBJECTID":49563},"geometry":{"x":180936.56000000145,"y":2579166.3400000036}},{"attributes":{"ID":49564,"DIS_CODE":0,"TOWNNAME":"東山區","LI":"聖賢里","LIN":"17鄰","STREET":" ","SECT":" ","MAREA":"頂窩","LANE":" ","ALLEY":" ","HOUSE_NO":"２８號之８","E_COORD97":183087.41,"N_COORD97":2578591.6099999999,"ADDRESS":"頂窩２８號之８","OBJECTID":49564},"geometry":{"x":183087.41000000015,"y":2578591.6100000013}},{"attributes":{"ID":49565,"DIS_CODE":0,"TOWNNAME":"七股區","LI":"?埕里","LIN":"12鄰","STREET":" ","SECT":" ","MAREA":"?埕","LANE":" ","ALLEY":" ","HOUSE_NO":"１９７號","E_COORD97":156723.78,"N_COORD97":2561261.52,"ADDRESS":"?埕１９７號","OBJECTID":49565},"geometry":{"x":156723.78000000119,"y":2561261.5200000014}},{"attributes":{"ID":49566,"DIS_CODE":0,"TOWNNAME":"南區","LI":"明亮里","LIN":"15鄰","STREET":"金華路","SECT":"一段","MAREA":" ","LANE":"３５２巷","ALLEY":"１３０弄","HOUSE_NO":"２２號","E_COORD97":167296.53,"N_COORD97":2540955.5099999998,"ADDRESS":"金華路一段３５２巷１３０弄２２號","OBJECTID":49566},"geometry":{"x":167296.53000000119,"y":2540955.5099999979}},{"attributes":{"ID":49567,"DIS_CODE":0,"TOWNNAME":"南區","LI":"明亮里","LIN":"15鄰","STREET":"金華路","SECT":"一段","MAREA":" ","LANE":"３５２巷","ALLEY":"１３０弄","HOUSE_NO":"２４號","E_COORD97":167304.37,"N_COORD97":2540953.9500000002,"ADDRESS":"金華路一段３５２巷１３０弄２４號","OBJECTID":49567},"geometry":{"x":167304.37000000104,"y":2540953.9499999993}},{"attributes":{"ID":49568,"DIS_CODE":0,"TOWNNAME":"南區","LI":"明亮里","LIN":"15鄰","STREET":"金華路","SECT":"一段","MAREA":" ","LANE":"３５２巷","ALLEY":"１３０弄","HOUSE_NO":"２５號","E_COORD97":167283.98000000001,"N_COORD97":2540971.4900000002,"ADDRESS":"金華路一段３５２巷１３０弄２５號","OBJECTID":49568},"geometry":{"x":167283.98000000138,"y":2540971.4900000021}},{"attributes":{"ID":49569,"DIS_CODE":0,"TOWNNAME":"南區","LI":"明亮里","LIN":"15鄰","STREET":"金華路","SECT":"一段","MAREA":" ","LANE":"３５２巷","ALLEY":"１３０弄","HOUSE_NO":"２７號","E_COORD97":167290.57000000001,"N_COORD97":2540968.04,"ADDRESS":"金華路一段３５２巷１３０弄２７號","OBJECTID":49569},"geometry":{"x":167290.5700000003,"y":2540968.0399999972}},{"attributes":{"ID":49570,"DIS_CODE":0,"TOWNNAME":"七股區","LI":"?埕里","LIN":"12鄰","STREET":" ","SECT":" ","MAREA":"?埕","LANE":" ","ALLEY":" ","HOUSE_NO":"１９８號","E_COORD97":156701.29000000001,"N_COORD97":2561256.8900000001,"ADDRESS":"?埕１９８號","OBJECTID":49570},"geometry":{"x":156701.29000000097,"y":2561256.8900000025}},{"attributes":{"ID":49571,"DIS_CODE":0,"TOWNNAME":"南區","LI":"明亮里","LIN":"15鄰","STREET":"金華路","SECT":"一段","MAREA":" ","LANE":"３５２巷","ALLEY":"１３０弄","HOUSE_NO":"２９號","E_COORD97":167299.35000000001,"N_COORD97":2540966.48,"ADDRESS":"金華路一段３５２巷１３０弄２９號","OBJECTID":49571},"geometry":{"x":167299.35000000056,"y":2540966.4799999986}},{"attributes":{"ID":49572,"DIS_CODE":0,"TOWNNAME":"南區","LI":"明亮里","LIN":"15鄰","STREET":"金華路","SECT":"一段","MAREA":" ","LANE":"３５２巷","ALLEY":"１３０弄","HOUSE_NO":"３１號","E_COORD97":167305.62,"N_COORD97":2540962.7200000002,"ADDRESS":"金華路一段３５２巷１３０弄３１號","OBJECTID":49572},"geometry":{"x":167305.62000000197,"y":2540962.7200000025}},{"attributes":{"ID":49573,"DIS_CODE":0,"TOWNNAME":"七股區","LI":"?埕里","LIN":"12鄰","STREET":" ","SECT":" ","MAREA":"?埕","LANE":" ","ALLEY":" ","HOUSE_NO":"１９９號","E_COORD97":156723.78,"N_COORD97":2561257.6000000001,"ADDRESS":"?埕１９９號","OBJECTID":49573},"geometry":{"x":156723.78000000119,"y":2561257.6000000015}},{"attributes":{"ID":49574,"DIS_CODE":0,"TOWNNAME":"七股區","LI":"?埕里","LIN":"12鄰","STREET":" ","SECT":" ","MAREA":"?埕","LANE":" ","ALLEY":" ","HOUSE_NO":"２０３號","E_COORD97":156722.64999999999,"N_COORD97":2561245.71,"ADDRESS":"?埕２０３號","OBJECTID":49574},"geometry":{"x":156722.65000000224,"y":2561245.7100000009}},{"attributes":{"ID":49575,"DIS_CODE":0,"TOWNNAME":"南區","LI":"明亮里","LIN":"15鄰","STREET":"金華路","SECT":"一段","MAREA":" ","LANE":"３５２巷","ALLEY":"１３０弄","HOUSE_NO":"３３號","E_COORD97":167311.59,"N_COORD97":2540976.1899999999,"ADDRESS":"金華路一段３５２巷１３０弄３３號","OBJECTID":49575},"geometry":{"x":167311.58999999985,"y":2540976.1899999995}},{"attributes":{"ID":49576,"DIS_CODE":0,"TOWNNAME":"南區","LI":"明亮里","LIN":"15鄰","STREET":"金華路","SECT":"一段","MAREA":" ","LANE":"３５２巷","ALLEY":"１３０弄","HOUSE_NO":"３號","E_COORD97":167270.17000000001,"N_COORD97":2541012.8500000001,"ADDRESS":"金華路一段３５２巷１３０弄３號","OBJECTID":49576},"geometry":{"x":167270.17000000086,"y":2541012.8499999996}},{"attributes":{"ID":49577,"DIS_CODE":0,"TOWNNAME":"七股區","LI":"?埕里","LIN":"12鄰","STREET":" ","SECT":" ","MAREA":"?埕","LANE":" ","ALLEY":" ","HOUSE_NO":"２０４號","E_COORD97":156700.57999999999,"N_COORD97":2561240.9300000002,"ADDRESS":"?埕２０４號","OBJECTID":49577},"geometry":{"x":156700.58000000007,"y":2561240.9300000034}},{"attributes":{"ID":49578,"DIS_CODE":0,"TOWNNAME":"七股區","LI":"?埕里","LIN":"12鄰","STREET":" ","SECT":" ","MAREA":"?埕","LANE":" ","ALLEY":" ","HOUSE_NO":"２０５號","E_COORD97":156722.64999999999,"N_COORD97":2561241.4900000002,"ADDRESS":"?埕２０５號","OBJECTID":49578},"geometry":{"x":156722.65000000224,"y":2561241.4900000021}},{"attributes":{"ID":49579,"DIS_CODE":0,"TOWNNAME":"南區","LI":"明亮里","LIN":"15鄰","STREET":"金華路","SECT":"一段","MAREA":" ","LANE":"３５２巷","ALLEY":"１３０弄","HOUSE_NO":"５號","E_COORD97":167267.04000000001,"N_COORD97":2541008.7799999998,"ADDRESS":"金華路一段３５２巷１３０弄５號","OBJECTID":49579},"geometry":{"x":167267.03999999911,"y":2541008.7800000012}},{"attributes":{"ID":49580,"DIS_CODE":0,"TOWNNAME":"南區","LI":"明亮里","LIN":"15鄰","STREET":"金華路","SECT":"一段","MAREA":" ","LANE":"３５２巷","ALLEY":"１３０弄","HOUSE_NO":"６號","E_COORD97":167245.39000000001,"N_COORD97":2540985.2799999998,"ADDRESS":"金華路一段３５２巷１３０弄６號","OBJECTID":49580},"geometry":{"x":167245.38999999966,"y":2540985.2800000012}},{"attributes":{"ID":49581,"DIS_CODE":0,"TOWNNAME":"新營區","LI":"民榮里","LIN":"17鄰","STREET":"裕民路","SECT":" ","MAREA":" ","LANE":" ","ALLEY":" ","HOUSE_NO":"６４號","E_COORD97":179131.81,"N_COORD97":2577793.8799999999,"ADDRESS":"裕民路６４號","OBJECTID":49581},"geometry":{"x":179131.81000000052,"y":2577793.879999999}},{"attributes":{"ID":49582,"DIS_CODE":0,"TOWNNAME":"七股區","LI":"?埕里","LIN":"12鄰","STREET":" ","SECT":" ","MAREA":"?埕","LANE":" ","ALLEY":" ","HOUSE_NO":"２０６號","E_COORD97":156700.56,"N_COORD97":2561236.5099999998,"ADDRESS":"?埕２０６號","OBJECTID":49582},"geometry":{"x":156700.56000000145,"y":2561236.5099999998}},{"attributes":{"ID":49583,"DIS_CODE":0,"TOWNNAME":"七股區","LI":"?埕里","LIN":"12鄰","STREET":" ","SECT":" ","MAREA":"?埕","LANE":" ","ALLEY":" ","HOUSE_NO":"２０７號","E_COORD97":156722.64999999999,"N_COORD97":2561237.27,"ADDRESS":"?埕２０７號","OBJECTID":49583},"geometry":{"x":156722.65000000224,"y":2561237.2699999996}},{"attributes":{"ID":49584,"DIS_CODE":0,"TOWNNAME":"新營區","LI":"民榮里","LIN":"17鄰","STREET":"新進路","SECT":"二段","MAREA":" ","LANE":" ","ALLEY":" ","HOUSE_NO":"２７４號","E_COORD97":178893.60999999999,"N_COORD97":2577761.7999999998,"ADDRESS":"新進路二段２７４號","OBJECTID":49584},"geometry":{"x":178893.61000000034,"y":2577761.8000000026}},{"attributes":{"ID":49585,"DIS_CODE":0,"TOWNNAME":"西港區","LI":"永樂里","LIN":"12鄰","STREET":" ","SECT":" ","MAREA":"大塭寮","LANE":" ","ALLEY":" ","HOUSE_NO":"１０１號之１","E_COORD97":165656.38,"N_COORD97":2556222.5299999998,"ADDRESS":"大塭寮１０１號之１","OBJECTID":49585},"geometry":{"x":165656.38000000082,"y":2556222.5300000012}},{"attributes":{"ID":49586,"DIS_CODE":0,"TOWNNAME":"西港區","LI":"永樂里","LIN":"12鄰","STREET":" ","SECT":" ","MAREA":"大塭寮","LANE":" ","ALLEY":" ","HOUSE_NO":"１０１號之２","E_COORD97":165660.82999999999,"N_COORD97":2556272.52,"ADDRESS":"大塭寮１０１號之２","OBJECTID":49586},"geometry":{"x":165660.83000000007,"y":2556272.5199999996}},{"attributes":{"ID":49587,"DIS_CODE":0,"TOWNNAME":"西港區","LI":"永樂里","LIN":"12鄰","STREET":" ","SECT":" ","MAREA":"大塭寮","LANE":" ","ALLEY":" ","HOUSE_NO":"１０２號","E_COORD97":165647.79000000001,"N_COORD97":2556298.4700000002,"ADDRESS":"大塭寮１０２號","OBJECTID":49587},"geometry":{"x":165647.79000000004,"y":2556298.4700000044}},{"attributes":{"ID":49588,"DIS_CODE":0,"TOWNNAME":"西港區","LI":"永樂里","LIN":"12鄰","STREET":" ","SECT":" ","MAREA":"大塭寮","LANE":" ","ALLEY":" ","HOUSE_NO":"１０３號之１","E_COORD97":165641.98999999999,"N_COORD97":2556240.25,"ADDRESS":"大塭寮１０３號之１","OBJECTID":49588},"geometry":{"x":165641.99000000209,"y":2556240.25}},{"attributes":{"ID":49589,"DIS_CODE":0,"TOWNNAME":"西港區","LI":"永樂里","LIN":"12鄰","STREET":" ","SECT":" ","MAREA":"大塭寮","LANE":" ","ALLEY":" ","HOUSE_NO":"１０３號","E_COORD97":165639.60000000001,"N_COORD97":2556228.4399999999,"ADDRESS":"大塭寮１０３號","OBJECTID":49589},"geometry":{"x":165639.60000000056,"y":2556228.4399999995}},{"attributes":{"ID":49590,"DIS_CODE":0,"TOWNNAME":"西港區","LI":"永樂里","LIN":"12鄰","STREET":" ","SECT":" ","MAREA":"大塭寮","LANE":" ","ALLEY":" ","HOUSE_NO":"１０４號","E_COORD97":165624.12,"N_COORD97":2556269.0699999998,"ADDRESS":"大塭寮１０４號","OBJECTID":49590},"geometry":{"x":165624.12000000197,"y":2556269.0700000003}},{"attributes":{"ID":49591,"DIS_CODE":0,"TOWNNAME":"新營區","LI":"新東里","LIN":"17鄰","STREET":"東興四街","SECT":" ","MAREA":" ","LANE":" ","ALLEY":" ","HOUSE_NO":"５０號","E_COORD97":180952.85999999999,"N_COORD97":2579167.3700000001,"ADDRESS":"東興四街５０號","OBJECTID":49591},"geometry":{"x":180952.86000000127,"y":2579167.3700000048}},{"attributes":{"ID":49592,"DIS_CODE":0,"TOWNNAME":"北區","LI":"玉皇里","LIN":"5鄰","STREET":"公園南路","SECT":" ","MAREA":" ","LANE":" ","ALLEY":" ","HOUSE_NO":"１２３號","E_COORD97":168787.54999999999,"N_COORD97":2544628.4399999999,"ADDRESS":"公園南路１２３號","OBJECTID":49592},"geometry":{"x":168787.55000000168,"y":2544628.4400000013}},{"attributes":{"ID":49593,"DIS_CODE":0,"TOWNNAME":"西港區","LI":"永樂里","LIN":"12鄰","STREET":" ","SECT":" ","MAREA":"大塭寮","LANE":" ","ALLEY":" ","HOUSE_NO":"１０５號之１","E_COORD97":165602.32000000001,"N_COORD97":2556311.9100000001,"ADDRESS":"大塭寮１０５號之１","OBJECTID":49593},"geometry":{"x":165602.3200000003,"y":2556311.9100000039}},{"attributes":{"ID":49594,"DIS_CODE":0,"TOWNNAME":"南區","LI":"明亮里","LIN":"15鄰","STREET":"金華路","SECT":"一段","MAREA":" ","LANE":"３５２巷","ALLEY":"１３０弄","HOUSE_NO":"７號","E_COORD97":167262.01999999999,"N_COORD97":2541001.2599999998,"ADDRESS":"金華路一段３５２巷１３０弄７號","OBJECTID":49594},"geometry":{"x":167262.02000000048,"y":2541001.2599999979}},{"attributes":{"ID":49595,"DIS_CODE":0,"TOWNNAME":"南區","LI":"明亮里","LIN":"15鄰","STREET":"金華路","SECT":"一段","MAREA":" ","LANE":"３５２巷","ALLEY":"１３０弄","HOUSE_NO":"８號","E_COORD97":167251.35000000001,"N_COORD97":2540971.7999999998,"ADDRESS":"金華路一段３５２巷１３０弄８號","OBJECTID":49595},"geometry":{"x":167251.35000000056,"y":2540971.8000000045}},{"attributes":{"ID":49596,"DIS_CODE":0,"TOWNNAME":"東山區","LI":"聖賢里","LIN":"17鄰","STREET":" ","SECT":" ","MAREA":"頂窩","LANE":" ","ALLEY":" ","HOUSE_NO":"２２號之１","E_COORD97":183217.42999999999,"N_COORD97":2578546.8500000001,"ADDRESS":"頂窩２２號之１","OBJECTID":49596},"geometry":{"x":183217.4299999997,"y":2578546.8500000015}},{"attributes":{"ID":49597,"DIS_CODE":0,"TOWNNAME":"南區","LI":"明亮里","LIN":"15鄰","STREET":"金華路","SECT":"一段","MAREA":" ","LANE":"３５２巷","ALLEY":"１３０弄","HOUSE_NO":"９號","E_COORD97":167259.82000000001,"N_COORD97":2540994.0499999998,"ADDRESS":"金華路一段３５２巷１３０弄９號","OBJECTID":49597},"geometry":{"x":167259.8200000003,"y":2540994.0500000026}},{"attributes":{"ID":49598,"DIS_CODE":0,"TOWNNAME":"東山區","LI":"聖賢里","LIN":"17鄰","STREET":" ","SECT":" ","MAREA":"頂窩","LANE":" ","ALLEY":" ","HOUSE_NO":"２２號之２","E_COORD97":183212.91,"N_COORD97":2578547.1000000001,"ADDRESS":"頂窩２２號之２","OBJECTID":49598},"geometry":{"x":183212.91000000015,"y":2578547.0999999996}},{"attributes":{"ID":49599,"DIS_CODE":0,"TOWNNAME":"東山區","LI":"聖賢里","LIN":"17鄰","STREET":" ","SECT":" ","MAREA":"頂窩","LANE":" ","ALLEY":" ","HOUSE_NO":"２２號","E_COORD97":183205.41,"N_COORD97":2578546.2400000002,"ADDRESS":"頂窩２２號","OBJECTID":49599},"geometry":{"x":183205.41000000108,"y":2578546.2400000002}},{"attributes":{"ID":49600,"DIS_CODE":0,"TOWNNAME":"歸仁區","LI":"文化里","LIN":"17鄰","STREET":"文化北街","SECT":" ","MAREA":" ","LANE":" ","ALLEY":" ","HOUSE_NO":"１３８號","E_COORD97":177130.67000000001,"N_COORD97":2541417.2599999998,"ADDRESS":"文化北街１３８號","OBJECTID":49600},"geometry":{"x":177130.67000000086,"y":2541417.2599999998}}]}