{"displayFieldName":"TOWNNAME","fieldAliases":{"ID":"ID","DIS_CODE":"DIS_CODE","TOWNNAME":"TOWNNAME","LI":"LI","LIN":"LIN","STREET":"STREET","SECT":"SECT","MAREA":"MAREA","LANE":"LANE","ALLEY":"ALLEY","HOUSE_NO":"HOUSE_NO","E_COORD97":"E_COORD97","N_COORD97":"N_COORD97","ADDRESS":"ADDRESS","OBJECTID":"OBJECTID"},"geometryType":"esriGeometryPoint","spatialReference":{"wkid":102443,"latestWkid":3826},"fields":[{"name":"ID","type":"esriFieldTypeDouble","alias":"ID"},{"name":"DIS_CODE","type":"esriFieldTypeInteger","alias":"DIS_CODE"},{"name":"TOWNNAME","type":"esriFieldTypeString","alias":"TOWNNAME","length":8},{"name":"LI","type":"esriFieldTypeString","alias":"LI","length":8},{"name":"LIN","type":"esriFieldTypeString","alias":"LIN","length":12},{"name":"STREET","type":"esriFieldTypeString","alias":"STREET","length":20},{"name":"SECT","type":"esriFieldTypeString","alias":"SECT","length":8},{"name":"MAREA","type":"esriFieldTypeString","alias":"MAREA","length":12},{"name":"LANE","type":"esriFieldTypeString","alias":"LANE","length":10},{"name":"ALLEY","type":"esriFieldTypeString","alias":"ALLEY","length":10},{"name":"HOUSE_NO","type":"esriFieldTypeString","alias":"HOUSE_NO","length":20},{"name":"E_COORD97","type":"esriFieldTypeDouble","alias":"E_COORD97"},{"name":"N_COORD97","type":"esriFieldTypeDouble","alias":"N_COORD97"},{"name":"ADDRESS","type":"esriFieldTypeString","alias":"ADDRESS","length":50},{"name":"OBJECTID","type":"esriFieldTypeOID","alias":"OBJECTID"}],"features":[{"attributes":{"ID":513228,"DIS_CODE":0,"TOWNNAME":"永康區","LI":"六合里","LIN":"1鄰","STREET":"新興街","SECT":" ","MAREA":" ","LANE":" ","ALLEY":" ","HOUSE_NO":"８之１號七樓之１","E_COORD97":170947.87,"N_COORD97":2545766.79,"ADDRESS":"新興街８之１號七樓之１","OBJECTID":513201},"geometry":{"x":170947.87000000011,"y":2545766.7899999991}},{"attributes":{"ID":513229,"DIS_CODE":0,"TOWNNAME":"永康區","LI":"\u25A0行里","LIN":"1鄰","STREET":"中正路","SECT":" ","MAREA":" ","LANE":" ","ALLEY":" ","HOUSE_NO":"９８６號七樓之５","E_COORD97":171936.85999999999,"N_COORD97":2549018.2999999998,"ADDRESS":"中正路９８６號七樓之５","OBJECTID":513202},"geometry":{"x":171936.86000000034,"y":2549018.3000000026}},{"attributes":{"ID":513230,"DIS_CODE":0,"TOWNNAME":"永康區","LI":"\u25A0行里","LIN":"1鄰","STREET":"中正路","SECT":" ","MAREA":" ","LANE":" ","ALLEY":" ","HOUSE_NO":"９８６號六樓之５","E_COORD97":171936.85999999999,"N_COORD97":2549018.2999999998,"ADDRESS":"中正路９８６號六樓之５","OBJECTID":513203},"geometry":{"x":171936.86000000034,"y":2549018.3000000026}},{"attributes":{"ID":513231,"DIS_CODE":0,"TOWNNAME":"東區","LI":"崇成里","LIN":"1鄰","STREET":"崇道路","SECT":" ","MAREA":" ","LANE":" ","ALLEY":" ","HOUSE_NO":"９４號五樓之１","E_COORD97":170847.25,"N_COORD97":2541383.2999999998,"ADDRESS":"崇道路９４號五樓之１","OBJECTID":513204},"geometry":{"x":170847.25,"y":2541383.3000000026}},{"attributes":{"ID":513232,"DIS_CODE":0,"TOWNNAME":"東區","LI":"崇成里","LIN":"1鄰","STREET":"崇道路","SECT":" ","MAREA":" ","LANE":" ","ALLEY":" ","HOUSE_NO":"９４號五樓之２","E_COORD97":170847.25,"N_COORD97":2541383.2999999998,"ADDRESS":"崇道路９４號五樓之２","OBJECTID":513205},"geometry":{"x":170847.25,"y":2541383.3000000026}},{"attributes":{"ID":513233,"DIS_CODE":0,"TOWNNAME":"東區","LI":"崇成里","LIN":"1鄰","STREET":"崇道路","SECT":" ","MAREA":" ","LANE":" ","ALLEY":" ","HOUSE_NO":"９４號六樓","E_COORD97":170847.25,"N_COORD97":2541383.2999999998,"ADDRESS":"崇道路９４號六樓","OBJECTID":513206},"geometry":{"x":170847.25,"y":2541383.3000000026}},{"attributes":{"ID":513234,"DIS_CODE":0,"TOWNNAME":"東區","LI":"崇成里","LIN":"1鄰","STREET":"崇道路","SECT":" ","MAREA":" ","LANE":" ","ALLEY":" ","HOUSE_NO":"９４號六樓之１","E_COORD97":170847.25,"N_COORD97":2541383.2999999998,"ADDRESS":"崇道路９４號六樓之１","OBJECTID":513207},"geometry":{"x":170847.25,"y":2541383.3000000026}},{"attributes":{"ID":513235,"DIS_CODE":0,"TOWNNAME":"東區","LI":"崇成里","LIN":"1鄰","STREET":"崇道路","SECT":" ","MAREA":" ","LANE":" ","ALLEY":" ","HOUSE_NO":"９４號六樓之２","E_COORD97":170847.25,"N_COORD97":2541383.2999999998,"ADDRESS":"崇道路９４號六樓之２","OBJECTID":513208},"geometry":{"x":170847.25,"y":2541383.3000000026}},{"attributes":{"ID":513236,"DIS_CODE":0,"TOWNNAME":"東區","LI":"崇成里","LIN":"1鄰","STREET":"崇道路","SECT":" ","MAREA":" ","LANE":" ","ALLEY":" ","HOUSE_NO":"９４號七樓","E_COORD97":170847.25,"N_COORD97":2541383.2999999998,"ADDRESS":"崇道路９４號七樓","OBJECTID":513209},"geometry":{"x":170847.25,"y":2541383.3000000026}},{"attributes":{"ID":513237,"DIS_CODE":0,"TOWNNAME":"東區","LI":"崇成里","LIN":"1鄰","STREET":"崇道路","SECT":" ","MAREA":" ","LANE":" ","ALLEY":" ","HOUSE_NO":"９４號七樓之１","E_COORD97":170847.25,"N_COORD97":2541383.2999999998,"ADDRESS":"崇道路９４號七樓之１","OBJECTID":513210},"geometry":{"x":170847.25,"y":2541383.3000000026}},{"attributes":{"ID":513238,"DIS_CODE":0,"TOWNNAME":"東區","LI":"崇成里","LIN":"1鄰","STREET":"崇道路","SECT":" ","MAREA":" ","LANE":" ","ALLEY":" ","HOUSE_NO":"９４號七樓之２","E_COORD97":170847.25,"N_COORD97":2541383.2999999998,"ADDRESS":"崇道路９４號七樓之２","OBJECTID":513211},"geometry":{"x":170847.25,"y":2541383.3000000026}},{"attributes":{"ID":513239,"DIS_CODE":0,"TOWNNAME":"東區","LI":"崇成里","LIN":"1鄰","STREET":"崇道路","SECT":" ","MAREA":" ","LANE":" ","ALLEY":" ","HOUSE_NO":"９４號八樓","E_COORD97":170847.25,"N_COORD97":2541383.2999999998,"ADDRESS":"崇道路９４號八樓","OBJECTID":513212},"geometry":{"x":170847.25,"y":2541383.3000000026}},{"attributes":{"ID":513240,"DIS_CODE":0,"TOWNNAME":"東區","LI":"崇成里","LIN":"1鄰","STREET":"崇道路","SECT":" ","MAREA":" ","LANE":" ","ALLEY":" ","HOUSE_NO":"９４號八樓之１","E_COORD97":170847.25,"N_COORD97":2541383.2999999998,"ADDRESS":"崇道路９４號八樓之１","OBJECTID":513213},"geometry":{"x":170847.25,"y":2541383.3000000026}},{"attributes":{"ID":513241,"DIS_CODE":0,"TOWNNAME":"東區","LI":"崇成里","LIN":"1鄰","STREET":"崇道路","SECT":" ","MAREA":" ","LANE":" ","ALLEY":" ","HOUSE_NO":"９４號八樓之２","E_COORD97":170847.25,"N_COORD97":2541383.2999999998,"ADDRESS":"崇道路９４號八樓之２","OBJECTID":513214},"geometry":{"x":170847.25,"y":2541383.3000000026}},{"attributes":{"ID":513242,"DIS_CODE":0,"TOWNNAME":"東區","LI":"崇成里","LIN":"1鄰","STREET":"崇道路","SECT":" ","MAREA":" ","LANE":" ","ALLEY":" ","HOUSE_NO":"９８號三樓","E_COORD97":170867.34,"N_COORD97":2541383.5899999999,"ADDRESS":"崇道路９８號三樓","OBJECTID":513215},"geometry":{"x":170867.34000000078,"y":2541383.5900000017}},{"attributes":{"ID":513243,"DIS_CODE":0,"TOWNNAME":"東區","LI":"崇成里","LIN":"1鄰","STREET":"崇道路","SECT":" ","MAREA":" ","LANE":" ","ALLEY":" ","HOUSE_NO":"９８號五樓","E_COORD97":170867.34,"N_COORD97":2541383.5899999999,"ADDRESS":"崇道路９８號五樓","OBJECTID":513216},"geometry":{"x":170867.34000000078,"y":2541383.5900000017}},{"attributes":{"ID":513244,"DIS_CODE":0,"TOWNNAME":"東區","LI":"崇成里","LIN":"1鄰","STREET":"崇道路","SECT":" ","MAREA":" ","LANE":" ","ALLEY":" ","HOUSE_NO":"９８號六樓","E_COORD97":170867.34,"N_COORD97":2541383.5899999999,"ADDRESS":"崇道路９８號六樓","OBJECTID":513217},"geometry":{"x":170867.34000000078,"y":2541383.5900000017}},{"attributes":{"ID":513245,"DIS_CODE":0,"TOWNNAME":"東區","LI":"崇成里","LIN":"1鄰","STREET":"崇道路","SECT":" ","MAREA":" ","LANE":" ","ALLEY":" ","HOUSE_NO":"９８號七樓","E_COORD97":170867.34,"N_COORD97":2541383.5899999999,"ADDRESS":"崇道路９８號七樓","OBJECTID":513218},"geometry":{"x":170867.34000000078,"y":2541383.5900000017}},{"attributes":{"ID":513246,"DIS_CODE":0,"TOWNNAME":"東區","LI":"崇成里","LIN":"1鄰","STREET":"崇道路","SECT":" ","MAREA":" ","LANE":" ","ALLEY":" ","HOUSE_NO":"９８號八樓","E_COORD97":170867.34,"N_COORD97":2541383.5899999999,"ADDRESS":"崇道路９８號八樓","OBJECTID":513219},"geometry":{"x":170867.34000000078,"y":2541383.5900000017}},{"attributes":{"ID":513247,"DIS_CODE":0,"TOWNNAME":"永康區","LI":"六合里","LIN":"1鄰","STREET":"新興街","SECT":" ","MAREA":" ","LANE":" ","ALLEY":" ","HOUSE_NO":"８之１號六樓之２","E_COORD97":170948.01000000001,"N_COORD97":2545766.79,"ADDRESS":"新興街８之１號六樓之２","OBJECTID":513220},"geometry":{"x":170948.01000000071,"y":2545766.7899999991}},{"attributes":{"ID":513248,"DIS_CODE":0,"TOWNNAME":"永康區","LI":"六合里","LIN":"1鄰","STREET":"新興街","SECT":" ","MAREA":" ","LANE":" ","ALLEY":" ","HOUSE_NO":"８號六樓之３","E_COORD97":170922.67000000001,"N_COORD97":2545756.79,"ADDRESS":"新興街８號六樓之３","OBJECTID":513221},"geometry":{"x":170922.67000000179,"y":2545756.7899999991}},{"attributes":{"ID":513249,"DIS_CODE":0,"TOWNNAME":"永康區","LI":"五王里","LIN":"1鄰","STREET":"成功路","SECT":" ","MAREA":" ","LANE":" ","ALLEY":" ","HOUSE_NO":"６０號四樓之２","E_COORD97":171546.88,"N_COORD97":2545481.2999999998,"ADDRESS":"成功路６０號四樓之２","OBJECTID":513222},"geometry":{"x":171546.88000000082,"y":2545481.3000000026}},{"attributes":{"ID":513250,"DIS_CODE":0,"TOWNNAME":"永康區","LI":"六合里","LIN":"1鄰","STREET":"新興街","SECT":" ","MAREA":" ","LANE":" ","ALLEY":" ","HOUSE_NO":"８號三樓之１","E_COORD97":170922.57000000001,"N_COORD97":2545756.79,"ADDRESS":"新興街８號三樓之１","OBJECTID":513223},"geometry":{"x":170922.57000000123,"y":2545756.7899999991}},{"attributes":{"ID":513251,"DIS_CODE":0,"TOWNNAME":"永康區","LI":"六合里","LIN":"1鄰","STREET":"新興街","SECT":" ","MAREA":" ","LANE":" ","ALLEY":" ","HOUSE_NO":"８號五樓之２","E_COORD97":170922.70999999999,"N_COORD97":2545756.79,"ADDRESS":"新興街８號五樓之２","OBJECTID":513224},"geometry":{"x":170922.71000000089,"y":2545756.7899999991}},{"attributes":{"ID":513252,"DIS_CODE":0,"TOWNNAME":"永康區","LI":"六合里","LIN":"1鄰","STREET":"新興街","SECT":" ","MAREA":" ","LANE":" ","ALLEY":" ","HOUSE_NO":"８之１號十一樓之２","E_COORD97":170949.26000000001,"N_COORD97":2545766.79,"ADDRESS":"新興街８之１號十一樓之２","OBJECTID":513225},"geometry":{"x":170949.26000000071,"y":2545766.7899999991}},{"attributes":{"ID":513253,"DIS_CODE":0,"TOWNNAME":"永康區","LI":"五王里","LIN":"1鄰","STREET":"成功路","SECT":" ","MAREA":" ","LANE":" ","ALLEY":" ","HOUSE_NO":"６０號五樓之３","E_COORD97":171546.84,"N_COORD97":2545481.2999999998,"ADDRESS":"成功路６０號五樓之３","OBJECTID":513226},"geometry":{"x":171546.83999999892,"y":2545481.3000000026}},{"attributes":{"ID":513254,"DIS_CODE":0,"TOWNNAME":"永康區","LI":"五王里","LIN":"1鄰","STREET":"成功路","SECT":" ","MAREA":" ","LANE":" ","ALLEY":" ","HOUSE_NO":"６０號四樓之３","E_COORD97":171546.84,"N_COORD97":2545481.2999999998,"ADDRESS":"成功路６０號四樓之３","OBJECTID":513227},"geometry":{"x":171546.83999999892,"y":2545481.3000000026}},{"attributes":{"ID":513255,"DIS_CODE":0,"TOWNNAME":"永康區","LI":"五王里","LIN":"1鄰","STREET":"成功路","SECT":" ","MAREA":" ","LANE":" ","ALLEY":" ","HOUSE_NO":"６４號五樓之３","E_COORD97":171547.26000000001,"N_COORD97":2545487.0499999998,"ADDRESS":"成功路６４號五樓之３","OBJECTID":513228},"geometry":{"x":171547.25999999978,"y":2545487.0500000026}},{"attributes":{"ID":513256,"DIS_CODE":0,"TOWNNAME":"安平區","LI":"建平里","LIN":"15鄰","STREET":"建平十二街","SECT":" ","MAREA":" ","LANE":" ","ALLEY":" ","HOUSE_NO":"１２０號","E_COORD97":166053.70999999999,"N_COORD97":2543994.98,"ADDRESS":"建平十二街１２０號","OBJECTID":513229},"geometry":{"x":166053.70999999996,"y":2543994.9800000023}},{"attributes":{"ID":513257,"DIS_CODE":0,"TOWNNAME":"安平區","LI":"建平里","LIN":"15鄰","STREET":"建平十二街","SECT":" ","MAREA":" ","LANE":" ","ALLEY":" ","HOUSE_NO":"１２２號","E_COORD97":166049.5,"N_COORD97":2543995.5,"ADDRESS":"建平十二街１２２號","OBJECTID":513230},"geometry":{"x":166049.5,"y":2543995.5}},{"attributes":{"ID":513258,"DIS_CODE":0,"TOWNNAME":"安平區","LI":"建平里","LIN":"15鄰","STREET":"建平十二街","SECT":" ","MAREA":" ","LANE":" ","ALLEY":" ","HOUSE_NO":"１２４號","E_COORD97":166045.07999999999,"N_COORD97":2543996.4500000002,"ADDRESS":"建平十二街１２４號","OBJECTID":513231},"geometry":{"x":166045.08000000101,"y":2543996.4499999974}},{"attributes":{"ID":513259,"DIS_CODE":0,"TOWNNAME":"安平區","LI":"建平里","LIN":"15鄰","STREET":"建平十二街","SECT":" ","MAREA":" ","LANE":" ","ALLEY":" ","HOUSE_NO":"１２６號","E_COORD97":166041.09,"N_COORD97":2543996.98,"ADDRESS":"建平十二街１２６號","OBJECTID":513232},"geometry":{"x":166041.09000000171,"y":2543996.9800000004}},{"attributes":{"ID":513260,"DIS_CODE":0,"TOWNNAME":"安平區","LI":"建平里","LIN":"15鄰","STREET":"建平十二街","SECT":" ","MAREA":" ","LANE":" ","ALLEY":" ","HOUSE_NO":"１２８號","E_COORD97":166036.45999999999,"N_COORD97":2543997.29,"ADDRESS":"建平十二街１２８號","OBJECTID":513233},"geometry":{"x":166036.45999999996,"y":2543997.2899999991}},{"attributes":{"ID":513261,"DIS_CODE":0,"TOWNNAME":"安平區","LI":"建平里","LIN":"15鄰","STREET":"建平十二街","SECT":" ","MAREA":" ","LANE":" ","ALLEY":" ","HOUSE_NO":"１３０號","E_COORD97":166032.25,"N_COORD97":2543998.2400000002,"ADDRESS":"建平十二街１３０號","OBJECTID":513234},"geometry":{"x":166032.25000000093,"y":2543998.2400000002}},{"attributes":{"ID":513262,"DIS_CODE":0,"TOWNNAME":"安平區","LI":"建平里","LIN":"15鄰","STREET":"建平十二街","SECT":" ","MAREA":" ","LANE":" ","ALLEY":" ","HOUSE_NO":"１３４號","E_COORD97":166005.42000000001,"N_COORD97":2543999.96,"ADDRESS":"建平十二街１３４號","OBJECTID":513235},"geometry":{"x":166005.42000000086,"y":2543999.9600000028}},{"attributes":{"ID":513263,"DIS_CODE":0,"TOWNNAME":"永康區","LI":"六合里","LIN":"1鄰","STREET":"新興街","SECT":" ","MAREA":" ","LANE":" ","ALLEY":" ","HOUSE_NO":"８之１號四樓之１","E_COORD97":170947.87,"N_COORD97":2545766.79,"ADDRESS":"新興街８之１號四樓之１","OBJECTID":513236},"geometry":{"x":170947.87000000011,"y":2545766.7899999991}},{"attributes":{"ID":513264,"DIS_CODE":0,"TOWNNAME":"永康區","LI":"六合里","LIN":"1鄰","STREET":"新興街","SECT":" ","MAREA":" ","LANE":" ","ALLEY":" ","HOUSE_NO":"８之２號六樓之１","E_COORD97":170938.76999999999,"N_COORD97":2545746.29,"ADDRESS":"新興街８之２號六樓之１","OBJECTID":513237},"geometry":{"x":170938.77000000048,"y":2545746.2899999991}},{"attributes":{"ID":513265,"DIS_CODE":0,"TOWNNAME":"永康區","LI":"六合里","LIN":"1鄰","STREET":"新興街","SECT":" ","MAREA":" ","LANE":" ","ALLEY":" ","HOUSE_NO":"８之１號二樓之３","E_COORD97":170947.97,"N_COORD97":2545766.79,"ADDRESS":"新興街８之１號二樓之３","OBJECTID":513238},"geometry":{"x":170947.97000000067,"y":2545766.7899999991}},{"attributes":{"ID":513266,"DIS_CODE":0,"TOWNNAME":"安平區","LI":"華平里","LIN":"28鄰","STREET":"平通路","SECT":" ","MAREA":" ","LANE":" ","ALLEY":" ","HOUSE_NO":"４２７號","E_COORD97":165321.14999999999,"N_COORD97":2543759.46,"ADDRESS":"平通路４２７號","OBJECTID":513239},"geometry":{"x":165321.1500000013,"y":2543759.4600000009}},{"attributes":{"ID":513267,"DIS_CODE":0,"TOWNNAME":"永康區","LI":"六合里","LIN":"1鄰","STREET":"新興街","SECT":" ","MAREA":" ","LANE":" ","ALLEY":" ","HOUSE_NO":"８之１號六樓之１","E_COORD97":170947.87,"N_COORD97":2545766.79,"ADDRESS":"新興街８之１號六樓之１","OBJECTID":513240},"geometry":{"x":170947.87000000011,"y":2545766.7899999991}},{"attributes":{"ID":513268,"DIS_CODE":0,"TOWNNAME":"永康區","LI":"六合里","LIN":"1鄰","STREET":"新興街","SECT":" ","MAREA":" ","LANE":" ","ALLEY":" ","HOUSE_NO":"８之１號五樓之１","E_COORD97":170947.87,"N_COORD97":2545766.79,"ADDRESS":"新興街８之１號五樓之１","OBJECTID":513241},"geometry":{"x":170947.87000000011,"y":2545766.7899999991}},{"attributes":{"ID":513269,"DIS_CODE":0,"TOWNNAME":"永康區","LI":"六合里","LIN":"1鄰","STREET":"新興街","SECT":" ","MAREA":" ","LANE":" ","ALLEY":" ","HOUSE_NO":"８之１號九樓之６","E_COORD97":170947.98000000001,"N_COORD97":2545766.79,"ADDRESS":"新興街８之１號九樓之６","OBJECTID":513242},"geometry":{"x":170947.98000000045,"y":2545766.7899999991}},{"attributes":{"ID":513270,"DIS_CODE":0,"TOWNNAME":"永康區","LI":"六合里","LIN":"1鄰","STREET":"新興街","SECT":" ","MAREA":" ","LANE":" ","ALLEY":" ","HOUSE_NO":"８號五樓之１","E_COORD97":170922.57000000001,"N_COORD97":2545756.79,"ADDRESS":"新興街８號五樓之１","OBJECTID":513243},"geometry":{"x":170922.57000000123,"y":2545756.7899999991}},{"attributes":{"ID":513271,"DIS_CODE":0,"TOWNNAME":"永康區","LI":"五王里","LIN":"1鄰","STREET":"成功路","SECT":" ","MAREA":" ","LANE":" ","ALLEY":" ","HOUSE_NO":"６４號四樓之１","E_COORD97":171547.16,"N_COORD97":2545487.0499999998,"ADDRESS":"成功路６４號四樓之１","OBJECTID":513244},"geometry":{"x":171547.16000000108,"y":2545487.0500000026}},{"attributes":{"ID":513272,"DIS_CODE":0,"TOWNNAME":"永康區","LI":"六合里","LIN":"1鄰","STREET":"新興街","SECT":" ","MAREA":" ","LANE":" ","ALLEY":" ","HOUSE_NO":"８號四樓之１","E_COORD97":170922.57000000001,"N_COORD97":2545756.79,"ADDRESS":"新興街８號四樓之１","OBJECTID":513245},"geometry":{"x":170922.57000000123,"y":2545756.7899999991}},{"attributes":{"ID":513273,"DIS_CODE":0,"TOWNNAME":"永康區","LI":"六合里","LIN":"1鄰","STREET":"新興街","SECT":" ","MAREA":" ","LANE":" ","ALLEY":" ","HOUSE_NO":"８之１號十樓之５","E_COORD97":170948.03,"N_COORD97":2545766.79,"ADDRESS":"新興街８之１號十樓之５","OBJECTID":513246},"geometry":{"x":170948.03000000119,"y":2545766.7899999991}},{"attributes":{"ID":513274,"DIS_CODE":0,"TOWNNAME":"永康區","LI":"六合里","LIN":"1鄰","STREET":"新興街","SECT":" ","MAREA":" ","LANE":" ","ALLEY":" ","HOUSE_NO":"８之１號三樓之５","E_COORD97":170948.03,"N_COORD97":2545766.79,"ADDRESS":"新興街８之１號三樓之５","OBJECTID":513247},"geometry":{"x":170948.03000000119,"y":2545766.7899999991}},{"attributes":{"ID":513275,"DIS_CODE":0,"TOWNNAME":"永康區","LI":"六合里","LIN":"1鄰","STREET":"新興街","SECT":" ","MAREA":" ","LANE":" ","ALLEY":" ","HOUSE_NO":"８號五樓之３","E_COORD97":170922.67000000001,"N_COORD97":2545756.79,"ADDRESS":"新興街８號五樓之３","OBJECTID":513248},"geometry":{"x":170922.67000000179,"y":2545756.7899999991}},{"attributes":{"ID":513276,"DIS_CODE":0,"TOWNNAME":"永康區","LI":"五王里","LIN":"1鄰","STREET":"成功路","SECT":" ","MAREA":" ","LANE":" ","ALLEY":" ","HOUSE_NO":"６４號三樓之３","E_COORD97":171547.26000000001,"N_COORD97":2545487.0499999998,"ADDRESS":"成功路６４號三樓之３","OBJECTID":513249},"geometry":{"x":171547.25999999978,"y":2545487.0500000026}},{"attributes":{"ID":513277,"DIS_CODE":0,"TOWNNAME":"永康區","LI":"大灣里","LIN":"1鄰","STREET":"大安街","SECT":" ","MAREA":" ","LANE":" ","ALLEY":" ","HOUSE_NO":"４１８號三樓之３","E_COORD97":174639.51999999999,"N_COORD97":2545787,"ADDRESS":"大安街４１８號三樓之３","OBJECTID":513250},"geometry":{"x":174639.52000000048,"y":2545786.9999999981}},{"attributes":{"ID":513278,"DIS_CODE":0,"TOWNNAME":"永康區","LI":"六合里","LIN":"1鄰","STREET":"新興街","SECT":" ","MAREA":" ","LANE":" ","ALLEY":" ","HOUSE_NO":"６之１號八樓之２","E_COORD97":170933,"N_COORD97":2545719.7999999998,"ADDRESS":"新興街６之１號八樓之２","OBJECTID":513251},"geometry":{"x":170933.00000000093,"y":2545719.8000000026}},{"attributes":{"ID":513279,"DIS_CODE":0,"TOWNNAME":"永康區","LI":"六合里","LIN":"1鄰","STREET":"新興街","SECT":" ","MAREA":" ","LANE":" ","ALLEY":" ","HOUSE_NO":"６之１號十一樓之７","E_COORD97":170934.19,"N_COORD97":2545719.7999999998,"ADDRESS":"新興街６之１號十一樓之７","OBJECTID":513252},"geometry":{"x":170934.19000000041,"y":2545719.8000000026}},{"attributes":{"ID":513280,"DIS_CODE":0,"TOWNNAME":"永康區","LI":"大橋里","LIN":"1鄰","STREET":"中華路","SECT":" ","MAREA":" ","LANE":" ","ALLEY":" ","HOUSE_NO":"８６２號六樓之３","E_COORD97":170635.73000000001,"N_COORD97":2546605.79,"ADDRESS":"中華路８６２號六樓之３","OBJECTID":513253},"geometry":{"x":170635.73000000045,"y":2546605.790000001}},{"attributes":{"ID":513281,"DIS_CODE":0,"TOWNNAME":"永康區","LI":"六合里","LIN":"1鄰","STREET":"新興街","SECT":" ","MAREA":" ","LANE":" ","ALLEY":" ","HOUSE_NO":"８號八樓之５","E_COORD97":170922.73000000001,"N_COORD97":2545756.79,"ADDRESS":"新興街８號八樓之５","OBJECTID":513254},"geometry":{"x":170922.72999999952,"y":2545756.7899999991}},{"attributes":{"ID":513282,"DIS_CODE":0,"TOWNNAME":"永康區","LI":"六合里","LIN":"1鄰","STREET":"新興街","SECT":" ","MAREA":" ","LANE":" ","ALLEY":" ","HOUSE_NO":"６之１號五樓之１","E_COORD97":170932.85999999999,"N_COORD97":2545719.7999999998,"ADDRESS":"新興街６之１號五樓之１","OBJECTID":513255},"geometry":{"x":170932.86000000034,"y":2545719.8000000026}},{"attributes":{"ID":513283,"DIS_CODE":0,"TOWNNAME":"永康區","LI":"五王里","LIN":"1鄰","STREET":"成功路","SECT":" ","MAREA":" ","LANE":" ","ALLEY":" ","HOUSE_NO":"６４號六樓之３","E_COORD97":171547.26000000001,"N_COORD97":2545487.0499999998,"ADDRESS":"成功路６４號六樓之３","OBJECTID":513256},"geometry":{"x":171547.25999999978,"y":2545487.0500000026}},{"attributes":{"ID":513284,"DIS_CODE":0,"TOWNNAME":"永康區","LI":"六合里","LIN":"1鄰","STREET":"新興街","SECT":" ","MAREA":" ","LANE":" ","ALLEY":" ","HOUSE_NO":"８之１號六樓之３","E_COORD97":170947.97,"N_COORD97":2545766.79,"ADDRESS":"新興街８之１號六樓之３","OBJECTID":513257},"geometry":{"x":170947.97000000067,"y":2545766.7899999991}},{"attributes":{"ID":513285,"DIS_CODE":0,"TOWNNAME":"永康區","LI":"大橋里","LIN":"1鄰","STREET":"中華路","SECT":" ","MAREA":" ","LANE":" ","ALLEY":" ","HOUSE_NO":"８６２號八樓之６","E_COORD97":170635.73000000001,"N_COORD97":2546605.79,"ADDRESS":"中華路８６２號八樓之６","OBJECTID":513258},"geometry":{"x":170635.73000000045,"y":2546605.790000001}},{"attributes":{"ID":513286,"DIS_CODE":0,"TOWNNAME":"永康區","LI":"六合里","LIN":"1鄰","STREET":"新興街","SECT":" ","MAREA":" ","LANE":" ","ALLEY":" ","HOUSE_NO":"８之１號五樓之５","E_COORD97":170948.03,"N_COORD97":2545766.79,"ADDRESS":"新興街８之１號五樓之５","OBJECTID":513259},"geometry":{"x":170948.03000000119,"y":2545766.7899999991}},{"attributes":{"ID":513287,"DIS_CODE":0,"TOWNNAME":"永康區","LI":"大橋里","LIN":"1鄰","STREET":"中華路","SECT":" ","MAREA":" ","LANE":" ","ALLEY":" ","HOUSE_NO":"８６２號四樓之９","E_COORD97":170635.70999999999,"N_COORD97":2546605.79,"ADDRESS":"中華路８６２號四樓之９","OBJECTID":513260},"geometry":{"x":170635.70999999996,"y":2546605.790000001}},{"attributes":{"ID":513288,"DIS_CODE":0,"TOWNNAME":"永康區","LI":"六合里","LIN":"1鄰","STREET":"新興街","SECT":" ","MAREA":" ","LANE":" ","ALLEY":" ","HOUSE_NO":"８之２號四樓之７","E_COORD97":170938.85000000001,"N_COORD97":2545746.29,"ADDRESS":"新興街８之２號四樓之７","OBJECTID":513261},"geometry":{"x":170938.85000000056,"y":2545746.2899999991}},{"attributes":{"ID":513289,"DIS_CODE":0,"TOWNNAME":"永康區","LI":"六合里","LIN":"1鄰","STREET":"新興街","SECT":" ","MAREA":" ","LANE":" ","ALLEY":" ","HOUSE_NO":"８之２號九樓之５","E_COORD97":170938.92999999999,"N_COORD97":2545746.29,"ADDRESS":"新興街８之２號九樓之５","OBJECTID":513262},"geometry":{"x":170938.9299999997,"y":2545746.2899999991}},{"attributes":{"ID":513290,"DIS_CODE":0,"TOWNNAME":"永康區","LI":"六合里","LIN":"1鄰","STREET":"新興街","SECT":" ","MAREA":" ","LANE":" ","ALLEY":" ","HOUSE_NO":"８之１號三樓之２","E_COORD97":170948.01000000001,"N_COORD97":2545766.79,"ADDRESS":"新興街８之１號三樓之２","OBJECTID":513263},"geometry":{"x":170948.01000000071,"y":2545766.7899999991}},{"attributes":{"ID":513291,"DIS_CODE":0,"TOWNNAME":"永康區","LI":"六合里","LIN":"1鄰","STREET":"新興街","SECT":" ","MAREA":" ","LANE":" ","ALLEY":" ","HOUSE_NO":"８號七樓之６","E_COORD97":170922.67999999999,"N_COORD97":2545756.79,"ADDRESS":"新興街８號七樓之６","OBJECTID":513264},"geometry":{"x":170922.68000000063,"y":2545756.7899999991}},{"attributes":{"ID":513292,"DIS_CODE":0,"TOWNNAME":"永康區","LI":"六合里","LIN":"1鄰","STREET":"新興街","SECT":" ","MAREA":" ","LANE":" ","ALLEY":" ","HOUSE_NO":"８之２號六樓之２","E_COORD97":170938.91,"N_COORD97":2545746.29,"ADDRESS":"新興街８之２號六樓之２","OBJECTID":513265},"geometry":{"x":170938.91000000108,"y":2545746.2899999991}},{"attributes":{"ID":513293,"DIS_CODE":0,"TOWNNAME":"永康區","LI":"大橋里","LIN":"1鄰","STREET":"中華路","SECT":" ","MAREA":" ","LANE":" ","ALLEY":" ","HOUSE_NO":"８６２號六樓之９","E_COORD97":170635.70999999999,"N_COORD97":2546605.79,"ADDRESS":"中華路８６２號六樓之９","OBJECTID":513266},"geometry":{"x":170635.70999999996,"y":2546605.790000001}},{"attributes":{"ID":513294,"DIS_CODE":0,"TOWNNAME":"永康區","LI":"六合里","LIN":"1鄰","STREET":"新興街","SECT":" ","MAREA":" ","LANE":" ","ALLEY":" ","HOUSE_NO":"６之１號十樓之６","E_COORD97":170932.97,"N_COORD97":2545719.7999999998,"ADDRESS":"新興街６之１號十樓之６","OBJECTID":513267},"geometry":{"x":170932.97000000067,"y":2545719.8000000026}},{"attributes":{"ID":513295,"DIS_CODE":0,"TOWNNAME":"永康區","LI":"六合里","LIN":"1鄰","STREET":"新興街","SECT":" ","MAREA":" ","LANE":" ","ALLEY":" ","HOUSE_NO":"６之１號十一樓之２","E_COORD97":170934.25,"N_COORD97":2545719.7999999998,"ADDRESS":"新興街６之１號十一樓之２","OBJECTID":513268},"geometry":{"x":170934.25000000093,"y":2545719.8000000026}},{"attributes":{"ID":513296,"DIS_CODE":0,"TOWNNAME":"安平區","LI":"建平里","LIN":"15鄰","STREET":"建平十二街","SECT":" ","MAREA":" ","LANE":" ","ALLEY":" ","HOUSE_NO":"７２號","E_COORD97":166225.25,"N_COORD97":2543967.71,"ADDRESS":"建平十二街７２號","OBJECTID":513269},"geometry":{"x":166225.25000000093,"y":2543967.7100000028}},{"attributes":{"ID":513297,"DIS_CODE":0,"TOWNNAME":"安平區","LI":"建平里","LIN":"15鄰","STREET":"建平十二街","SECT":" ","MAREA":" ","LANE":" ","ALLEY":" ","HOUSE_NO":"７４號","E_COORD97":166220.59,"N_COORD97":2543968.1800000002,"ADDRESS":"建平十二街７４號","OBJECTID":513270},"geometry":{"x":166220.58999999892,"y":2543968.1799999997}},{"attributes":{"ID":513298,"DIS_CODE":0,"TOWNNAME":"安平區","LI":"建平里","LIN":"15鄰","STREET":"建平十二街","SECT":" ","MAREA":" ","LANE":" ","ALLEY":" ","HOUSE_NO":"７６號","E_COORD97":166215.92999999999,"N_COORD97":2543968.8999999999,"ADDRESS":"建平十二街７６號","OBJECTID":513271},"geometry":{"x":166215.9299999997,"y":2543968.9000000022}},{"attributes":{"ID":513299,"DIS_CODE":0,"TOWNNAME":"安平區","LI":"建平里","LIN":"15鄰","STREET":"建平十二街","SECT":" ","MAREA":" ","LANE":" ","ALLEY":" ","HOUSE_NO":"７８號","E_COORD97":166211.03,"N_COORD97":2543969.02,"ADDRESS":"建平十二街７８號","OBJECTID":513272},"geometry":{"x":166211.03000000026,"y":2543969.0199999996}},{"attributes":{"ID":513300,"DIS_CODE":0,"TOWNNAME":"安平區","LI":"建平里","LIN":"15鄰","STREET":"建平十二街","SECT":" ","MAREA":" ","LANE":" ","ALLEY":" ","HOUSE_NO":"８０號","E_COORD97":166205.64999999999,"N_COORD97":2543969.6200000001,"ADDRESS":"建平十二街８０號","OBJECTID":513273},"geometry":{"x":166205.65000000224,"y":2543969.620000001}},{"attributes":{"ID":513301,"DIS_CODE":0,"TOWNNAME":"安平區","LI":"建平里","LIN":"15鄰","STREET":"建平十二街","SECT":" ","MAREA":" ","LANE":" ","ALLEY":" ","HOUSE_NO":"８０號地下層","E_COORD97":166205.64999999999,"N_COORD97":2543969.6200000001,"ADDRESS":"建平十二街８０號地下層","OBJECTID":513274},"geometry":{"x":166205.65000000224,"y":2543969.620000001}},{"attributes":{"ID":513302,"DIS_CODE":0,"TOWNNAME":"安平區","LI":"建平里","LIN":"15鄰","STREET":"建平十二街","SECT":" ","MAREA":" ","LANE":" ","ALLEY":" ","HOUSE_NO":"８２號","E_COORD97":166200.98999999999,"N_COORD97":2543970.21,"ADDRESS":"建平十二街８２號","OBJECTID":513275},"geometry":{"x":166200.99000000022,"y":2543970.2100000028}},{"attributes":{"ID":513303,"DIS_CODE":0,"TOWNNAME":"安平區","LI":"建平里","LIN":"15鄰","STREET":"建平十二街","SECT":" ","MAREA":" ","LANE":" ","ALLEY":" ","HOUSE_NO":"８４號","E_COORD97":166196.92999999999,"N_COORD97":2543971.29,"ADDRESS":"建平十二街８４號","OBJECTID":513276},"geometry":{"x":166196.93000000063,"y":2543971.290000001}},{"attributes":{"ID":513304,"DIS_CODE":0,"TOWNNAME":"安平區","LI":"建平里","LIN":"15鄰","STREET":"建平十二街","SECT":" ","MAREA":" ","LANE":" ","ALLEY":" ","HOUSE_NO":"８６號","E_COORD97":166192.75,"N_COORD97":2543971.6499999999,"ADDRESS":"建平十二街８６號","OBJECTID":513277},"geometry":{"x":166192.75000000186,"y":2543971.6500000004}},{"attributes":{"ID":513305,"DIS_CODE":0,"TOWNNAME":"永康區","LI":"六合里","LIN":"1鄰","STREET":"新興街","SECT":" ","MAREA":" ","LANE":" ","ALLEY":" ","HOUSE_NO":"６之１號三樓之３","E_COORD97":170932.95999999999,"N_COORD97":2545719.7999999998,"ADDRESS":"新興街６之１號三樓之３","OBJECTID":513278},"geometry":{"x":170932.96000000089,"y":2545719.8000000026}},{"attributes":{"ID":513306,"DIS_CODE":0,"TOWNNAME":"永康區","LI":"六合里","LIN":"1鄰","STREET":"新興街","SECT":" ","MAREA":" ","LANE":" ","ALLEY":" ","HOUSE_NO":"８之２號四樓之６","E_COORD97":170938.88,"N_COORD97":2545746.29,"ADDRESS":"新興街８之２號四樓之６","OBJECTID":513279},"geometry":{"x":170938.88000000082,"y":2545746.2899999991}},{"attributes":{"ID":513307,"DIS_CODE":0,"TOWNNAME":"永康區","LI":"五王里","LIN":"1鄰","STREET":"成功路","SECT":" ","MAREA":" ","LANE":" ","ALLEY":" ","HOUSE_NO":"６０號五樓之１","E_COORD97":171546.73999999999,"N_COORD97":2545481.2999999998,"ADDRESS":"成功路６０號五樓之１","OBJECTID":513280},"geometry":{"x":171546.74000000115,"y":2545481.3000000026}},{"attributes":{"ID":513308,"DIS_CODE":0,"TOWNNAME":"永康區","LI":"大橋里","LIN":"1鄰","STREET":"中華路","SECT":" ","MAREA":" ","LANE":" ","ALLEY":" ","HOUSE_NO":"９０８號四樓","E_COORD97":170542.12,"N_COORD97":2546672,"ADDRESS":"中華路９０８號四樓","OBJECTID":513281},"geometry":{"x":170542.12000000104,"y":2546672.0000000037}},{"attributes":{"ID":513309,"DIS_CODE":0,"TOWNNAME":"安平區","LI":"建平里","LIN":"14鄰","STREET":"建平十三街","SECT":" ","MAREA":" ","LANE":" ","ALLEY":" ","HOUSE_NO":"１００號","E_COORD97":166029.81,"N_COORD97":2544043.8799999999,"ADDRESS":"建平十三街１００號","OBJECTID":513282},"geometry":{"x":166029.81000000052,"y":2544043.879999999}},{"attributes":{"ID":513310,"DIS_CODE":0,"TOWNNAME":"安平區","LI":"建平里","LIN":"14鄰","STREET":"建平十三街","SECT":" ","MAREA":" ","LANE":" ","ALLEY":" ","HOUSE_NO":"１０２號","E_COORD97":166025.04999999999,"N_COORD97":2544046.23,"ADDRESS":"建平十三街１０２號","OBJECTID":513283},"geometry":{"x":166025.05000000075,"y":2544046.2300000004}},{"attributes":{"ID":513311,"DIS_CODE":0,"TOWNNAME":"安平區","LI":"建平里","LIN":"14鄰","STREET":"建平十三街","SECT":" ","MAREA":" ","LANE":" ","ALLEY":" ","HOUSE_NO":"１１５號","E_COORD97":166044.56,"N_COORD97":2544021.1899999999,"ADDRESS":"建平十三街１１５號","OBJECTID":513284},"geometry":{"x":166044.56000000052,"y":2544021.1899999995}},{"attributes":{"ID":513312,"DIS_CODE":0,"TOWNNAME":"安平區","LI":"建平里","LIN":"14鄰","STREET":"建平十三街","SECT":" ","MAREA":" ","LANE":" ","ALLEY":" ","HOUSE_NO":"１５號","E_COORD97":166291.32999999999,"N_COORD97":2543990.8599999999,"ADDRESS":"建平十三街１５號","OBJECTID":513285},"geometry":{"x":166291.33000000101,"y":2543990.8600000031}},{"attributes":{"ID":513313,"DIS_CODE":0,"TOWNNAME":"安平區","LI":"建平里","LIN":"15鄰","STREET":"建平十二街","SECT":" ","MAREA":" ","LANE":" ","ALLEY":" ","HOUSE_NO":"９４號","E_COORD97":166175.89999999999,"N_COORD97":2543980.48,"ADDRESS":"建平十二街９４號","OBJECTID":513286},"geometry":{"x":166175.9000000013,"y":2543980.4800000004}},{"attributes":{"ID":513314,"DIS_CODE":0,"TOWNNAME":"安平區","LI":"建平里","LIN":"15鄰","STREET":"建平十二街","SECT":" ","MAREA":" ","LANE":" ","ALLEY":" ","HOUSE_NO":"９６號","E_COORD97":166171.12,"N_COORD97":2543980.8399999999,"ADDRESS":"建平十二街９６號","OBJECTID":513287},"geometry":{"x":166171.12000000011,"y":2543980.839999998}},{"attributes":{"ID":513315,"DIS_CODE":0,"TOWNNAME":"安平區","LI":"建平里","LIN":"15鄰","STREET":"建平十二街","SECT":" ","MAREA":" ","LANE":" ","ALLEY":" ","HOUSE_NO":"９８號","E_COORD97":166167.29999999999,"N_COORD97":2543981.1899999999,"ADDRESS":"建平十二街９８號","OBJECTID":513288},"geometry":{"x":166167.30000000075,"y":2543981.1899999995}},{"attributes":{"ID":513316,"DIS_CODE":0,"TOWNNAME":"東區","LI":"小東里","LIN":"1鄰","STREET":"小東路","SECT":" ","MAREA":" ","LANE":" ","ALLEY":" ","HOUSE_NO":"１３８號六樓","E_COORD97":170727.23000000001,"N_COORD97":2544495.02,"ADDRESS":"小東路１３８號六樓","OBJECTID":513289},"geometry":{"x":170727.23000000045,"y":2544495.0200000033}},{"attributes":{"ID":513317,"DIS_CODE":0,"TOWNNAME":"東區","LI":"小東里","LIN":"1鄰","STREET":"小東路","SECT":" ","MAREA":" ","LANE":" ","ALLEY":" ","HOUSE_NO":"１３８號三樓","E_COORD97":170727.23000000001,"N_COORD97":2544495.02,"ADDRESS":"小東路１３８號三樓","OBJECTID":513290},"geometry":{"x":170727.23000000045,"y":2544495.0200000033}},{"attributes":{"ID":513318,"DIS_CODE":0,"TOWNNAME":"東區","LI":"小東里","LIN":"1鄰","STREET":"小東路","SECT":" ","MAREA":" ","LANE":" ","ALLEY":" ","HOUSE_NO":"１３８號三樓之１","E_COORD97":170727.23000000001,"N_COORD97":2544495.02,"ADDRESS":"小東路１３８號三樓之１","OBJECTID":513291},"geometry":{"x":170727.23000000045,"y":2544495.0200000033}},{"attributes":{"ID":513319,"DIS_CODE":0,"TOWNNAME":"東區","LI":"小東里","LIN":"1鄰","STREET":"小東路","SECT":" ","MAREA":" ","LANE":" ","ALLEY":" ","HOUSE_NO":"１３８號四樓","E_COORD97":170727.23000000001,"N_COORD97":2544495.02,"ADDRESS":"小東路１３８號四樓","OBJECTID":513292},"geometry":{"x":170727.23000000045,"y":2544495.0200000033}},{"attributes":{"ID":513320,"DIS_CODE":0,"TOWNNAME":"東區","LI":"小東里","LIN":"1鄰","STREET":"小東路","SECT":" ","MAREA":" ","LANE":" ","ALLEY":" ","HOUSE_NO":"１３８號四樓之１","E_COORD97":170727.23000000001,"N_COORD97":2544495.02,"ADDRESS":"小東路１３８號四樓之１","OBJECTID":513293},"geometry":{"x":170727.23000000045,"y":2544495.0200000033}},{"attributes":{"ID":513321,"DIS_CODE":0,"TOWNNAME":"東區","LI":"小東里","LIN":"1鄰","STREET":"小東路","SECT":" ","MAREA":" ","LANE":" ","ALLEY":" ","HOUSE_NO":"１３８號五樓","E_COORD97":170727.23000000001,"N_COORD97":2544495.02,"ADDRESS":"小東路１３８號五樓","OBJECTID":513294},"geometry":{"x":170727.23000000045,"y":2544495.0200000033}},{"attributes":{"ID":513322,"DIS_CODE":0,"TOWNNAME":"東區","LI":"小東里","LIN":"1鄰","STREET":"小東路","SECT":" ","MAREA":" ","LANE":" ","ALLEY":" ","HOUSE_NO":"１３８號五樓之１","E_COORD97":170727.23000000001,"N_COORD97":2544495.02,"ADDRESS":"小東路１３８號五樓之１","OBJECTID":513295},"geometry":{"x":170727.23000000045,"y":2544495.0200000033}},{"attributes":{"ID":513323,"DIS_CODE":0,"TOWNNAME":"東區","LI":"小東里","LIN":"1鄰","STREET":"小東路","SECT":" ","MAREA":" ","LANE":" ","ALLEY":" ","HOUSE_NO":"１３８號六樓之１","E_COORD97":170727.23000000001,"N_COORD97":2544495.02,"ADDRESS":"小東路１３８號六樓之１","OBJECTID":513296},"geometry":{"x":170727.23000000045,"y":2544495.0200000033}},{"attributes":{"ID":513324,"DIS_CODE":0,"TOWNNAME":"東區","LI":"小東里","LIN":"1鄰","STREET":"小東路","SECT":" ","MAREA":" ","LANE":" ","ALLEY":" ","HOUSE_NO":"１３８號二樓","E_COORD97":170727.23000000001,"N_COORD97":2544495.02,"ADDRESS":"小東路１３８號二樓","OBJECTID":513297},"geometry":{"x":170727.23000000045,"y":2544495.0200000033}},{"attributes":{"ID":513325,"DIS_CODE":0,"TOWNNAME":"東區","LI":"東安里","LIN":"1鄰","STREET":"東門路","SECT":"二段","MAREA":" ","LANE":" ","ALLEY":" ","HOUSE_NO":"８９號四樓","E_COORD97":170153.51000000001,"N_COORD97":2542946.6699999999,"ADDRESS":"東門路二段８９號四樓","OBJECTID":513298},"geometry":{"x":170153.50999999978,"y":2542946.6699999999}},{"attributes":{"ID":513326,"DIS_CODE":0,"TOWNNAME":"東區","LI":"東安里","LIN":"1鄰","STREET":"東門路","SECT":"二段","MAREA":" ","LANE":" ","ALLEY":" ","HOUSE_NO":"８９號五樓","E_COORD97":170153.51000000001,"N_COORD97":2542946.6699999999,"ADDRESS":"東門路二段８９號五樓","OBJECTID":513299},"geometry":{"x":170153.50999999978,"y":2542946.6699999999}},{"attributes":{"ID":513327,"DIS_CODE":0,"TOWNNAME":"東區","LI":"新東里","LIN":"1鄰","STREET":"東門路","SECT":"二段","MAREA":" ","LANE":" ","ALLEY":" ","HOUSE_NO":"１８１號二樓之２","E_COORD97":170436.42999999999,"N_COORD97":2542849.3199999998,"ADDRESS":"東門路二段１８１號二樓之２","OBJECTID":513300},"geometry":{"x":170436.43000000063,"y":2542849.320000004}},{"attributes":{"ID":513328,"DIS_CODE":0,"TOWNNAME":"東區","LI":"新東里","LIN":"1鄰","STREET":"東門路","SECT":"二段","MAREA":" ","LANE":" ","ALLEY":" ","HOUSE_NO":"１８１號二樓之３","E_COORD97":170436.42999999999,"N_COORD97":2542849.3199999998,"ADDRESS":"東門路二段１８１號二樓之３","OBJECTID":513301},"geometry":{"x":170436.43000000063,"y":2542849.320000004}},{"attributes":{"ID":513329,"DIS_CODE":0,"TOWNNAME":"東區","LI":"新東里","LIN":"1鄰","STREET":"東門路","SECT":"二段","MAREA":" ","LANE":" ","ALLEY":" ","HOUSE_NO":"１８１號三樓之２","E_COORD97":170436.42999999999,"N_COORD97":2542849.3199999998,"ADDRESS":"東門路二段１８１號三樓之２","OBJECTID":513302},"geometry":{"x":170436.43000000063,"y":2542849.320000004}},{"attributes":{"ID":513330,"DIS_CODE":0,"TOWNNAME":"東區","LI":"新東里","LIN":"1鄰","STREET":"東門路","SECT":"二段","MAREA":" ","LANE":" ","ALLEY":" ","HOUSE_NO":"１８１號三樓之３","E_COORD97":170436.42999999999,"N_COORD97":2542849.3199999998,"ADDRESS":"東門路二段１８１號三樓之３","OBJECTID":513303},"geometry":{"x":170436.43000000063,"y":2542849.320000004}},{"attributes":{"ID":513331,"DIS_CODE":0,"TOWNNAME":"東區","LI":"新東里","LIN":"1鄰","STREET":"東門路","SECT":"二段","MAREA":" ","LANE":" ","ALLEY":" ","HOUSE_NO":"１８１號四樓","E_COORD97":170436.42999999999,"N_COORD97":2542849.3199999998,"ADDRESS":"東門路二段１８１號四樓","OBJECTID":513304},"geometry":{"x":170436.43000000063,"y":2542849.320000004}},{"attributes":{"ID":513332,"DIS_CODE":0,"TOWNNAME":"東區","LI":"新東里","LIN":"1鄰","STREET":"東門路","SECT":"二段","MAREA":" ","LANE":" ","ALLEY":" ","HOUSE_NO":"１８１號四樓之１","E_COORD97":170436.42999999999,"N_COORD97":2542849.3199999998,"ADDRESS":"東門路二段１８１號四樓之１","OBJECTID":513305},"geometry":{"x":170436.43000000063,"y":2542849.320000004}},{"attributes":{"ID":513333,"DIS_CODE":0,"TOWNNAME":"東區","LI":"新東里","LIN":"1鄰","STREET":"東門路","SECT":"二段","MAREA":" ","LANE":" ","ALLEY":" ","HOUSE_NO":"１８１號四樓之２","E_COORD97":170436.42999999999,"N_COORD97":2542849.3199999998,"ADDRESS":"東門路二段１８１號四樓之２","OBJECTID":513306},"geometry":{"x":170436.43000000063,"y":2542849.320000004}},{"attributes":{"ID":513334,"DIS_CODE":0,"TOWNNAME":"東區","LI":"新東里","LIN":"1鄰","STREET":"東門路","SECT":"二段","MAREA":" ","LANE":" ","ALLEY":" ","HOUSE_NO":"１８１號四樓之３","E_COORD97":170436.42999999999,"N_COORD97":2542849.3199999998,"ADDRESS":"東門路二段１８１號四樓之３","OBJECTID":513307},"geometry":{"x":170436.43000000063,"y":2542849.320000004}},{"attributes":{"ID":513335,"DIS_CODE":0,"TOWNNAME":"東區","LI":"新東里","LIN":"1鄰","STREET":"東門路","SECT":"二段","MAREA":" ","LANE":" ","ALLEY":" ","HOUSE_NO":"１８１號四樓之５","E_COORD97":170436.42999999999,"N_COORD97":2542849.3199999998,"ADDRESS":"東門路二段１８１號四樓之５","OBJECTID":513308},"geometry":{"x":170436.43000000063,"y":2542849.320000004}},{"attributes":{"ID":513336,"DIS_CODE":0,"TOWNNAME":"東區","LI":"新東里","LIN":"1鄰","STREET":"東門路","SECT":"二段","MAREA":" ","LANE":" ","ALLEY":" ","HOUSE_NO":"１８１號四樓之６","E_COORD97":170436.42999999999,"N_COORD97":2542849.3199999998,"ADDRESS":"東門路二段１８１號四樓之６","OBJECTID":513309},"geometry":{"x":170436.43000000063,"y":2542849.320000004}},{"attributes":{"ID":513337,"DIS_CODE":0,"TOWNNAME":"東區","LI":"新東里","LIN":"1鄰","STREET":"東門路","SECT":"二段","MAREA":" ","LANE":" ","ALLEY":" ","HOUSE_NO":"１８１號五樓","E_COORD97":170436.42999999999,"N_COORD97":2542849.3199999998,"ADDRESS":"東門路二段１８１號五樓","OBJECTID":513310},"geometry":{"x":170436.43000000063,"y":2542849.320000004}},{"attributes":{"ID":513338,"DIS_CODE":0,"TOWNNAME":"東區","LI":"新東里","LIN":"1鄰","STREET":"東門路","SECT":"二段","MAREA":" ","LANE":" ","ALLEY":" ","HOUSE_NO":"１８１號五樓之１","E_COORD97":170436.42999999999,"N_COORD97":2542849.3199999998,"ADDRESS":"東門路二段１８１號五樓之１","OBJECTID":513311},"geometry":{"x":170436.43000000063,"y":2542849.320000004}},{"attributes":{"ID":513339,"DIS_CODE":0,"TOWNNAME":"東區","LI":"新東里","LIN":"1鄰","STREET":"東門路","SECT":"二段","MAREA":" ","LANE":" ","ALLEY":" ","HOUSE_NO":"１８１號五樓之２","E_COORD97":170436.42999999999,"N_COORD97":2542849.3199999998,"ADDRESS":"東門路二段１８１號五樓之２","OBJECTID":513312},"geometry":{"x":170436.43000000063,"y":2542849.320000004}},{"attributes":{"ID":513340,"DIS_CODE":0,"TOWNNAME":"東區","LI":"新東里","LIN":"1鄰","STREET":"東門路","SECT":"二段","MAREA":" ","LANE":" ","ALLEY":" ","HOUSE_NO":"１８１號五樓之３","E_COORD97":170436.42999999999,"N_COORD97":2542849.3199999998,"ADDRESS":"東門路二段１８１號五樓之３","OBJECTID":513313},"geometry":{"x":170436.43000000063,"y":2542849.320000004}},{"attributes":{"ID":513341,"DIS_CODE":0,"TOWNNAME":"東區","LI":"新東里","LIN":"1鄰","STREET":"東門路","SECT":"二段","MAREA":" ","LANE":" ","ALLEY":" ","HOUSE_NO":"１８１號五樓之５","E_COORD97":170436.42999999999,"N_COORD97":2542849.3199999998,"ADDRESS":"東門路二段１８１號五樓之５","OBJECTID":513314},"geometry":{"x":170436.43000000063,"y":2542849.320000004}},{"attributes":{"ID":513342,"DIS_CODE":0,"TOWNNAME":"東區","LI":"新東里","LIN":"1鄰","STREET":"東門路","SECT":"二段","MAREA":" ","LANE":" ","ALLEY":" ","HOUSE_NO":"１８１號五樓之６","E_COORD97":170436.42999999999,"N_COORD97":2542849.3199999998,"ADDRESS":"東門路二段１８１號五樓之６","OBJECTID":513315},"geometry":{"x":170436.43000000063,"y":2542849.320000004}},{"attributes":{"ID":513343,"DIS_CODE":0,"TOWNNAME":"永康區","LI":"六合里","LIN":"1鄰","STREET":"新興街","SECT":" ","MAREA":" ","LANE":" ","ALLEY":" ","HOUSE_NO":"２號二樓之１","E_COORD97":170911.85999999999,"N_COORD97":2545758.73,"ADDRESS":"新興街２號二樓之１","OBJECTID":513316},"geometry":{"x":170911.86000000127,"y":2545758.7300000004}},{"attributes":{"ID":513344,"DIS_CODE":0,"TOWNNAME":"東區","LI":"新東里","LIN":"1鄰","STREET":"東門路","SECT":"二段","MAREA":" ","LANE":" ","ALLEY":" ","HOUSE_NO":"１８１號六樓","E_COORD97":170436.42999999999,"N_COORD97":2542849.3199999998,"ADDRESS":"東門路二段１８１號六樓","OBJECTID":513317},"geometry":{"x":170436.43000000063,"y":2542849.320000004}},{"attributes":{"ID":513345,"DIS_CODE":0,"TOWNNAME":"東區","LI":"新東里","LIN":"1鄰","STREET":"東門路","SECT":"二段","MAREA":" ","LANE":" ","ALLEY":" ","HOUSE_NO":"１８１號六樓之１","E_COORD97":170436.42999999999,"N_COORD97":2542849.3199999998,"ADDRESS":"東門路二段１８１號六樓之１","OBJECTID":513318},"geometry":{"x":170436.43000000063,"y":2542849.320000004}},{"attributes":{"ID":513346,"DIS_CODE":0,"TOWNNAME":"東區","LI":"新東里","LIN":"1鄰","STREET":"東門路","SECT":"二段","MAREA":" ","LANE":" ","ALLEY":" ","HOUSE_NO":"１８１號六樓之２","E_COORD97":170436.42999999999,"N_COORD97":2542849.3199999998,"ADDRESS":"東門路二段１８１號六樓之２","OBJECTID":513319},"geometry":{"x":170436.43000000063,"y":2542849.320000004}},{"attributes":{"ID":513347,"DIS_CODE":0,"TOWNNAME":"安平區","LI":"建平里","LIN":"13鄰","STREET":"建平十四街","SECT":" ","MAREA":" ","LANE":" ","ALLEY":" ","HOUSE_NO":"４９號","E_COORD97":166217.10000000001,"N_COORD97":2544044.27,"ADDRESS":"建平十四街４９號","OBJECTID":513320},"geometry":{"x":166217.10000000149,"y":2544044.2699999996}},{"attributes":{"ID":513348,"DIS_CODE":0,"TOWNNAME":"安平區","LI":"建平里","LIN":"13鄰","STREET":"建平十四街","SECT":" ","MAREA":" ","LANE":" ","ALLEY":" ","HOUSE_NO":"５１號","E_COORD97":166211.84,"N_COORD97":2544044.1499999999,"ADDRESS":"建平十四街５１號","OBJECTID":513321},"geometry":{"x":166211.83999999985,"y":2544044.1500000041}},{"attributes":{"ID":513349,"DIS_CODE":0,"TOWNNAME":"安平區","LI":"建平里","LIN":"13鄰","STREET":"建平十四街","SECT":" ","MAREA":" ","LANE":" ","ALLEY":" ","HOUSE_NO":"５３號","E_COORD97":166207.17999999999,"N_COORD97":2544044.9900000002,"ADDRESS":"建平十四街５３號","OBJECTID":513322},"geometry":{"x":166207.18000000063,"y":2544044.9900000039}},{"attributes":{"ID":513350,"DIS_CODE":0,"TOWNNAME":"安平區","LI":"建平里","LIN":"13鄰","STREET":"建平十四街","SECT":" ","MAREA":" ","LANE":" ","ALLEY":" ","HOUSE_NO":"５５號","E_COORD97":166202.28,"N_COORD97":2544045.9399999999,"ADDRESS":"建平十四街５５號","OBJECTID":513323},"geometry":{"x":166202.28000000026,"y":2544045.9400000013}},{"attributes":{"ID":513351,"DIS_CODE":0,"TOWNNAME":"東區","LI":"新東里","LIN":"1鄰","STREET":"東門路","SECT":"二段","MAREA":" ","LANE":" ","ALLEY":" ","HOUSE_NO":"１８１號六樓之３","E_COORD97":170436.42999999999,"N_COORD97":2542849.3199999998,"ADDRESS":"東門路二段１８１號六樓之３","OBJECTID":513324},"geometry":{"x":170436.43000000063,"y":2542849.320000004}},{"attributes":{"ID":513352,"DIS_CODE":0,"TOWNNAME":"東區","LI":"新東里","LIN":"1鄰","STREET":"東門路","SECT":"二段","MAREA":" ","LANE":" ","ALLEY":" ","HOUSE_NO":"１８１號六樓之５","E_COORD97":170436.42999999999,"N_COORD97":2542849.3199999998,"ADDRESS":"東門路二段１８１號六樓之５","OBJECTID":513325},"geometry":{"x":170436.43000000063,"y":2542849.320000004}},{"attributes":{"ID":513353,"DIS_CODE":0,"TOWNNAME":"東區","LI":"新東里","LIN":"1鄰","STREET":"東門路","SECT":"二段","MAREA":" ","LANE":" ","ALLEY":" ","HOUSE_NO":"１８１號六樓之６","E_COORD97":170436.42999999999,"N_COORD97":2542849.3199999998,"ADDRESS":"東門路二段１８１號六樓之６","OBJECTID":513326},"geometry":{"x":170436.43000000063,"y":2542849.320000004}},{"attributes":{"ID":513354,"DIS_CODE":0,"TOWNNAME":"東區","LI":"新東里","LIN":"1鄰","STREET":"東門路","SECT":"二段","MAREA":" ","LANE":" ","ALLEY":" ","HOUSE_NO":"１８１號七樓","E_COORD97":170436.42999999999,"N_COORD97":2542849.3199999998,"ADDRESS":"東門路二段１８１號七樓","OBJECTID":513327},"geometry":{"x":170436.43000000063,"y":2542849.320000004}},{"attributes":{"ID":513355,"DIS_CODE":0,"TOWNNAME":"東區","LI":"新東里","LIN":"1鄰","STREET":"東門路","SECT":"二段","MAREA":" ","LANE":" ","ALLEY":" ","HOUSE_NO":"１８１號七樓之１","E_COORD97":170436.42999999999,"N_COORD97":2542849.3199999998,"ADDRESS":"東門路二段１８１號七樓之１","OBJECTID":513328},"geometry":{"x":170436.43000000063,"y":2542849.320000004}},{"attributes":{"ID":513356,"DIS_CODE":0,"TOWNNAME":"東區","LI":"新東里","LIN":"1鄰","STREET":"東門路","SECT":"二段","MAREA":" ","LANE":" ","ALLEY":" ","HOUSE_NO":"１８１號七樓之２","E_COORD97":170436.42999999999,"N_COORD97":2542849.3199999998,"ADDRESS":"東門路二段１８１號七樓之２","OBJECTID":513329},"geometry":{"x":170436.43000000063,"y":2542849.320000004}},{"attributes":{"ID":513357,"DIS_CODE":0,"TOWNNAME":"東區","LI":"新東里","LIN":"1鄰","STREET":"東門路","SECT":"二段","MAREA":" ","LANE":" ","ALLEY":" ","HOUSE_NO":"１８１號七樓之３","E_COORD97":170436.42999999999,"N_COORD97":2542849.3199999998,"ADDRESS":"東門路二段１８１號七樓之３","OBJECTID":513330},"geometry":{"x":170436.43000000063,"y":2542849.320000004}},{"attributes":{"ID":513358,"DIS_CODE":0,"TOWNNAME":"東區","LI":"新東里","LIN":"1鄰","STREET":"東門路","SECT":"二段","MAREA":" ","LANE":" ","ALLEY":" ","HOUSE_NO":"１８１號七樓之５","E_COORD97":170436.42999999999,"N_COORD97":2542849.3199999998,"ADDRESS":"東門路二段１８１號七樓之５","OBJECTID":513331},"geometry":{"x":170436.43000000063,"y":2542849.320000004}},{"attributes":{"ID":513359,"DIS_CODE":0,"TOWNNAME":"東區","LI":"新東里","LIN":"1鄰","STREET":"東門路","SECT":"二段","MAREA":" ","LANE":" ","ALLEY":" ","HOUSE_NO":"１８１號七樓之６","E_COORD97":170436.42999999999,"N_COORD97":2542849.3199999998,"ADDRESS":"東門路二段１８１號七樓之６","OBJECTID":513332},"geometry":{"x":170436.43000000063,"y":2542849.320000004}},{"attributes":{"ID":513360,"DIS_CODE":0,"TOWNNAME":"東區","LI":"新東里","LIN":"1鄰","STREET":"東門路","SECT":"二段","MAREA":" ","LANE":" ","ALLEY":" ","HOUSE_NO":"１８１號八樓","E_COORD97":170436.42999999999,"N_COORD97":2542849.3199999998,"ADDRESS":"東門路二段１８１號八樓","OBJECTID":513333},"geometry":{"x":170436.43000000063,"y":2542849.320000004}},{"attributes":{"ID":513361,"DIS_CODE":0,"TOWNNAME":"東區","LI":"新東里","LIN":"1鄰","STREET":"東門路","SECT":"二段","MAREA":" ","LANE":" ","ALLEY":" ","HOUSE_NO":"１８１號八樓之１","E_COORD97":170436.42999999999,"N_COORD97":2542849.3199999998,"ADDRESS":"東門路二段１８１號八樓之１","OBJECTID":513334},"geometry":{"x":170436.43000000063,"y":2542849.320000004}},{"attributes":{"ID":513362,"DIS_CODE":0,"TOWNNAME":"東區","LI":"新東里","LIN":"1鄰","STREET":"東門路","SECT":"二段","MAREA":" ","LANE":" ","ALLEY":" ","HOUSE_NO":"１８１號八樓之２","E_COORD97":170436.42999999999,"N_COORD97":2542849.3199999998,"ADDRESS":"東門路二段１８１號八樓之２","OBJECTID":513335},"geometry":{"x":170436.43000000063,"y":2542849.320000004}},{"attributes":{"ID":513363,"DIS_CODE":0,"TOWNNAME":"永康區","LI":"六合里","LIN":"1鄰","STREET":"新興街","SECT":" ","MAREA":" ","LANE":" ","ALLEY":" ","HOUSE_NO":"２號五樓之５","E_COORD97":170912.01999999999,"N_COORD97":2545758.73,"ADDRESS":"新興街２號五樓之５","OBJECTID":513336},"geometry":{"x":170912.02000000048,"y":2545758.7300000004}},{"attributes":{"ID":513364,"DIS_CODE":0,"TOWNNAME":"東區","LI":"新東里","LIN":"1鄰","STREET":"東門路","SECT":"二段","MAREA":" ","LANE":" ","ALLEY":" ","HOUSE_NO":"１８１號八樓之５","E_COORD97":170436.42999999999,"N_COORD97":2542849.3199999998,"ADDRESS":"東門路二段１８１號八樓之５","OBJECTID":513337},"geometry":{"x":170436.43000000063,"y":2542849.320000004}},{"attributes":{"ID":513365,"DIS_CODE":0,"TOWNNAME":"東區","LI":"新東里","LIN":"1鄰","STREET":"東門路","SECT":"二段","MAREA":" ","LANE":" ","ALLEY":" ","HOUSE_NO":"１８１號八樓之６","E_COORD97":170436.42999999999,"N_COORD97":2542849.3199999998,"ADDRESS":"東門路二段１８１號八樓之６","OBJECTID":513338},"geometry":{"x":170436.43000000063,"y":2542849.320000004}},{"attributes":{"ID":513366,"DIS_CODE":0,"TOWNNAME":"東區","LI":"新東里","LIN":"1鄰","STREET":"東門路","SECT":"二段","MAREA":" ","LANE":" ","ALLEY":" ","HOUSE_NO":"１８１號九樓","E_COORD97":170436.42999999999,"N_COORD97":2542849.3199999998,"ADDRESS":"東門路二段１８１號九樓","OBJECTID":513339},"geometry":{"x":170436.43000000063,"y":2542849.320000004}},{"attributes":{"ID":513367,"DIS_CODE":0,"TOWNNAME":"東區","LI":"新東里","LIN":"1鄰","STREET":"東門路","SECT":"二段","MAREA":" ","LANE":" ","ALLEY":" ","HOUSE_NO":"１８１號九樓之１","E_COORD97":170436.42999999999,"N_COORD97":2542849.3199999998,"ADDRESS":"東門路二段１８１號九樓之１","OBJECTID":513340},"geometry":{"x":170436.43000000063,"y":2542849.320000004}},{"attributes":{"ID":513368,"DIS_CODE":0,"TOWNNAME":"東區","LI":"新東里","LIN":"1鄰","STREET":"東門路","SECT":"二段","MAREA":" ","LANE":" ","ALLEY":" ","HOUSE_NO":"１８１號九樓之５","E_COORD97":170436.42999999999,"N_COORD97":2542849.3199999998,"ADDRESS":"東門路二段１８１號九樓之５","OBJECTID":513341},"geometry":{"x":170436.43000000063,"y":2542849.320000004}},{"attributes":{"ID":513369,"DIS_CODE":0,"TOWNNAME":"東區","LI":"新東里","LIN":"1鄰","STREET":"東門路","SECT":"二段","MAREA":" ","LANE":" ","ALLEY":" ","HOUSE_NO":"１８１號九樓之６","E_COORD97":170436.42999999999,"N_COORD97":2542849.3199999998,"ADDRESS":"東門路二段１８１號九樓之６","OBJECTID":513342},"geometry":{"x":170436.43000000063,"y":2542849.320000004}},{"attributes":{"ID":513370,"DIS_CODE":0,"TOWNNAME":"永康區","LI":"六合里","LIN":"1鄰","STREET":"新興街","SECT":" ","MAREA":" ","LANE":" ","ALLEY":" ","HOUSE_NO":"８之２號三樓之２","E_COORD97":170938.91,"N_COORD97":2545746.29,"ADDRESS":"新興街８之２號三樓之２","OBJECTID":513343},"geometry":{"x":170938.91000000108,"y":2545746.2899999991}},{"attributes":{"ID":513371,"DIS_CODE":0,"TOWNNAME":"永康區","LI":"六合里","LIN":"1鄰","STREET":"新興街","SECT":" ","MAREA":" ","LANE":" ","ALLEY":" ","HOUSE_NO":"８號四樓之５","E_COORD97":170922.73000000001,"N_COORD97":2545756.79,"ADDRESS":"新興街８號四樓之５","OBJECTID":513344},"geometry":{"x":170922.72999999952,"y":2545756.7899999991}},{"attributes":{"ID":513372,"DIS_CODE":0,"TOWNNAME":"永康區","LI":"六合里","LIN":"1鄰","STREET":"新興街","SECT":" ","MAREA":" ","LANE":" ","ALLEY":" ","HOUSE_NO":"８號九樓之６","E_COORD97":170922.67999999999,"N_COORD97":2545756.79,"ADDRESS":"新興街８號九樓之６","OBJECTID":513345},"geometry":{"x":170922.68000000063,"y":2545756.7899999991}},{"attributes":{"ID":513373,"DIS_CODE":0,"TOWNNAME":"永康區","LI":"六合里","LIN":"1鄰","STREET":"新興街","SECT":" ","MAREA":" ","LANE":" ","ALLEY":" ","HOUSE_NO":"８號十一樓之１","E_COORD97":170923.82000000001,"N_COORD97":2545756.79,"ADDRESS":"新興街８號十一樓之１","OBJECTID":513346},"geometry":{"x":170923.82000000216,"y":2545756.7899999991}},{"attributes":{"ID":513374,"DIS_CODE":0,"TOWNNAME":"永康區","LI":"六合里","LIN":"1鄰","STREET":"新興街","SECT":" ","MAREA":" ","LANE":" ","ALLEY":" ","HOUSE_NO":"８之５號八樓之１","E_COORD97":170950.81,"N_COORD97":2545708.7999999998,"ADDRESS":"新興街８之５號八樓之１","OBJECTID":513347},"geometry":{"x":170950.81000000052,"y":2545708.8000000026}},{"attributes":{"ID":513375,"DIS_CODE":0,"TOWNNAME":"永康區","LI":"六合里","LIN":"1鄰","STREET":"新興街","SECT":" ","MAREA":" ","LANE":" ","ALLEY":" ","HOUSE_NO":"８之５號九樓之６","E_COORD97":170950.92000000001,"N_COORD97":2545708.7999999998,"ADDRESS":"新興街８之５號九樓之６","OBJECTID":513348},"geometry":{"x":170950.91999999993,"y":2545708.8000000026}},{"attributes":{"ID":513376,"DIS_CODE":0,"TOWNNAME":"永康區","LI":"六合里","LIN":"1鄰","STREET":"新興街","SECT":" ","MAREA":" ","LANE":" ","ALLEY":" ","HOUSE_NO":"６號九樓之１","E_COORD97":170919.26999999999,"N_COORD97":2545737.29,"ADDRESS":"新興街６號九樓之１","OBJECTID":513349},"geometry":{"x":170919.26999999955,"y":2545737.290000001}},{"attributes":{"ID":513377,"DIS_CODE":0,"TOWNNAME":"永康區","LI":"六合里","LIN":"1鄰","STREET":"新興街","SECT":" ","MAREA":" ","LANE":" ","ALLEY":" ","HOUSE_NO":"８之５號九樓之２","E_COORD97":170950.95000000001,"N_COORD97":2545708.7999999998,"ADDRESS":"新興街８之５號九樓之２","OBJECTID":513350},"geometry":{"x":170950.95000000019,"y":2545708.8000000026}},{"attributes":{"ID":513378,"DIS_CODE":0,"TOWNNAME":"永康區","LI":"六合里","LIN":"1鄰","STREET":"新興街","SECT":" ","MAREA":" ","LANE":" ","ALLEY":" ","HOUSE_NO":"８之５號二樓之２","E_COORD97":170950.95000000001,"N_COORD97":2545708.7999999998,"ADDRESS":"新興街８之５號二樓之２","OBJECTID":513351},"geometry":{"x":170950.95000000019,"y":2545708.8000000026}},{"attributes":{"ID":513379,"DIS_CODE":0,"TOWNNAME":"永康區","LI":"六合里","LIN":"1鄰","STREET":"新興街","SECT":" ","MAREA":" ","LANE":" ","ALLEY":" ","HOUSE_NO":"６號十一樓之１","E_COORD97":170920.51999999999,"N_COORD97":2545737.29,"ADDRESS":"新興街６號十一樓之１","OBJECTID":513352},"geometry":{"x":170920.52000000048,"y":2545737.290000001}},{"attributes":{"ID":513380,"DIS_CODE":0,"TOWNNAME":"永康區","LI":"六合里","LIN":"1鄰","STREET":"新興街","SECT":" ","MAREA":" ","LANE":" ","ALLEY":" ","HOUSE_NO":"２號四樓之１","E_COORD97":170911.85999999999,"N_COORD97":2545758.73,"ADDRESS":"新興街２號四樓之１","OBJECTID":513353},"geometry":{"x":170911.86000000127,"y":2545758.7300000004}},{"attributes":{"ID":513381,"DIS_CODE":0,"TOWNNAME":"永康區","LI":"六合里","LIN":"1鄰","STREET":"新興街","SECT":" ","MAREA":" ","LANE":" ","ALLEY":" ","HOUSE_NO":"８之５號六樓之２","E_COORD97":170950.95000000001,"N_COORD97":2545708.7999999998,"ADDRESS":"新興街８之５號六樓之２","OBJECTID":513354},"geometry":{"x":170950.95000000019,"y":2545708.8000000026}},{"attributes":{"ID":513382,"DIS_CODE":0,"TOWNNAME":"永康區","LI":"六合里","LIN":"1鄰","STREET":"新興街","SECT":" ","MAREA":" ","LANE":" ","ALLEY":" ","HOUSE_NO":"２號十四樓之１","E_COORD97":170913.10999999999,"N_COORD97":2545758.73,"ADDRESS":"新興街２號十四樓之１","OBJECTID":513355},"geometry":{"x":170913.11000000034,"y":2545758.7300000004}},{"attributes":{"ID":513383,"DIS_CODE":0,"TOWNNAME":"永康區","LI":"六合里","LIN":"1鄰","STREET":"新興街","SECT":" ","MAREA":" ","LANE":" ","ALLEY":" ","HOUSE_NO":"８之５號五樓之６","E_COORD97":170950.92000000001,"N_COORD97":2545708.7999999998,"ADDRESS":"新興街８之５號五樓之６","OBJECTID":513356},"geometry":{"x":170950.91999999993,"y":2545708.8000000026}},{"attributes":{"ID":513384,"DIS_CODE":0,"TOWNNAME":"永康區","LI":"六合里","LIN":"1鄰","STREET":"新興街","SECT":" ","MAREA":" ","LANE":" ","ALLEY":" ","HOUSE_NO":"２號八樓之３","E_COORD97":170911.95999999999,"N_COORD97":2545758.73,"ADDRESS":"新興街２號八樓之３","OBJECTID":513357},"geometry":{"x":170911.95999999996,"y":2545758.7300000004}},{"attributes":{"ID":513385,"DIS_CODE":0,"TOWNNAME":"永康區","LI":"六合里","LIN":"1鄰","STREET":"新興街","SECT":" ","MAREA":" ","LANE":" ","ALLEY":" ","HOUSE_NO":"２號五樓之３","E_COORD97":170911.95999999999,"N_COORD97":2545758.73,"ADDRESS":"新興街２號五樓之３","OBJECTID":513358},"geometry":{"x":170911.95999999996,"y":2545758.7300000004}},{"attributes":{"ID":513386,"DIS_CODE":0,"TOWNNAME":"永康區","LI":"六合里","LIN":"1鄰","STREET":"新興街","SECT":" ","MAREA":" ","LANE":" ","ALLEY":" ","HOUSE_NO":"２號十樓之２","E_COORD97":170912,"N_COORD97":2545758.73,"ADDRESS":"新興街２號十樓之２","OBJECTID":513359},"geometry":{"x":170912.00000000186,"y":2545758.7300000004}},{"attributes":{"ID":513387,"DIS_CODE":0,"TOWNNAME":"永康區","LI":"六合里","LIN":"1鄰","STREET":"新興街","SECT":" ","MAREA":" ","LANE":" ","ALLEY":" ","HOUSE_NO":"２號十二樓之３","E_COORD97":170913.20999999999,"N_COORD97":2545758.73,"ADDRESS":"新興街２號十二樓之３","OBJECTID":513360},"geometry":{"x":170913.20999999996,"y":2545758.7300000004}},{"attributes":{"ID":513388,"DIS_CODE":0,"TOWNNAME":"永康區","LI":"六合里","LIN":"1鄰","STREET":"新興街","SECT":" ","MAREA":" ","LANE":" ","ALLEY":" ","HOUSE_NO":"６號四樓之１","E_COORD97":170919.26999999999,"N_COORD97":2545737.29,"ADDRESS":"新興街６號四樓之１","OBJECTID":513361},"geometry":{"x":170919.26999999955,"y":2545737.290000001}},{"attributes":{"ID":513389,"DIS_CODE":0,"TOWNNAME":"永康區","LI":"六合里","LIN":"1鄰","STREET":"新興街","SECT":" ","MAREA":" ","LANE":" ","ALLEY":" ","HOUSE_NO":"２號三樓之２","E_COORD97":170912,"N_COORD97":2545758.73,"ADDRESS":"新興街２號三樓之２","OBJECTID":513362},"geometry":{"x":170912.00000000186,"y":2545758.7300000004}},{"attributes":{"ID":513390,"DIS_CODE":0,"TOWNNAME":"永康區","LI":"六合里","LIN":"1鄰","STREET":"新興街","SECT":" ","MAREA":" ","LANE":" ","ALLEY":" ","HOUSE_NO":"６號四樓之２","E_COORD97":170919.41,"N_COORD97":2545737.29,"ADDRESS":"新興街６號四樓之２","OBJECTID":513363},"geometry":{"x":170919.41000000015,"y":2545737.290000001}},{"attributes":{"ID":513391,"DIS_CODE":0,"TOWNNAME":"永康區","LI":"六合里","LIN":"1鄰","STREET":"新興街","SECT":" ","MAREA":" ","LANE":" ","ALLEY":" ","HOUSE_NO":"２號四樓之２","E_COORD97":170912,"N_COORD97":2545758.73,"ADDRESS":"新興街２號四樓之２","OBJECTID":513364},"geometry":{"x":170912.00000000186,"y":2545758.7300000004}},{"attributes":{"ID":513392,"DIS_CODE":0,"TOWNNAME":"永康區","LI":"六合里","LIN":"1鄰","STREET":"新興街","SECT":" ","MAREA":" ","LANE":" ","ALLEY":" ","HOUSE_NO":"２號十三樓之２","E_COORD97":170913.25,"N_COORD97":2545758.73,"ADDRESS":"新興街２號十三樓之２","OBJECTID":513365},"geometry":{"x":170913.25,"y":2545758.7300000004}},{"attributes":{"ID":513393,"DIS_CODE":0,"TOWNNAME":"永康區","LI":"六合里","LIN":"1鄰","STREET":"新興街","SECT":" ","MAREA":" ","LANE":" ","ALLEY":" ","HOUSE_NO":"６號十樓之１","E_COORD97":170919.26999999999,"N_COORD97":2545737.29,"ADDRESS":"新興街６號十樓之１","OBJECTID":513366},"geometry":{"x":170919.26999999955,"y":2545737.290000001}},{"attributes":{"ID":513394,"DIS_CODE":0,"TOWNNAME":"永康區","LI":"六合里","LIN":"1鄰","STREET":"新興街","SECT":" ","MAREA":" ","LANE":" ","ALLEY":" ","HOUSE_NO":"２號六樓之１","E_COORD97":170911.85999999999,"N_COORD97":2545758.73,"ADDRESS":"新興街２號六樓之１","OBJECTID":513367},"geometry":{"x":170911.86000000127,"y":2545758.7300000004}},{"attributes":{"ID":513395,"DIS_CODE":0,"TOWNNAME":"永康區","LI":"六合里","LIN":"1鄰","STREET":"新興街","SECT":" ","MAREA":" ","LANE":" ","ALLEY":" ","HOUSE_NO":"２號十三樓之１","E_COORD97":170913.10999999999,"N_COORD97":2545758.73,"ADDRESS":"新興街２號十三樓之１","OBJECTID":513368},"geometry":{"x":170913.11000000034,"y":2545758.7300000004}},{"attributes":{"ID":513396,"DIS_CODE":0,"TOWNNAME":"永康區","LI":"六合里","LIN":"1鄰","STREET":"新興街","SECT":" ","MAREA":" ","LANE":" ","ALLEY":" ","HOUSE_NO":"２號六樓之２","E_COORD97":170912,"N_COORD97":2545758.73,"ADDRESS":"新興街２號六樓之２","OBJECTID":513369},"geometry":{"x":170912.00000000186,"y":2545758.7300000004}},{"attributes":{"ID":513397,"DIS_CODE":0,"TOWNNAME":"永康區","LI":"六合里","LIN":"1鄰","STREET":"新興街","SECT":" ","MAREA":" ","LANE":" ","ALLEY":" ","HOUSE_NO":"６號七樓之３","E_COORD97":170919.37,"N_COORD97":2545737.29,"ADDRESS":"新興街６號七樓之３","OBJECTID":513370},"geometry":{"x":170919.37000000011,"y":2545737.290000001}},{"attributes":{"ID":513398,"DIS_CODE":0,"TOWNNAME":"永康區","LI":"六合里","LIN":"1鄰","STREET":"新興街","SECT":" ","MAREA":" ","LANE":" ","ALLEY":" ","HOUSE_NO":"２號五樓之２","E_COORD97":170912,"N_COORD97":2545758.73,"ADDRESS":"新興街２號五樓之２","OBJECTID":513371},"geometry":{"x":170912.00000000186,"y":2545758.7300000004}},{"attributes":{"ID":513399,"DIS_CODE":0,"TOWNNAME":"永康區","LI":"六合里","LIN":"1鄰","STREET":"新興街","SECT":" ","MAREA":" ","LANE":" ","ALLEY":" ","HOUSE_NO":"６號七樓之７","E_COORD97":170919.35000000001,"N_COORD97":2545737.29,"ADDRESS":"新興街６號七樓之７","OBJECTID":513372},"geometry":{"x":170919.3499999987,"y":2545737.290000001}},{"attributes":{"ID":513400,"DIS_CODE":0,"TOWNNAME":"永康區","LI":"六合里","LIN":"1鄰","STREET":"新興街","SECT":" ","MAREA":" ","LANE":" ","ALLEY":" ","HOUSE_NO":"６號十一樓之６","E_COORD97":170920.63,"N_COORD97":2545737.29,"ADDRESS":"新興街６號十一樓之６","OBJECTID":513373},"geometry":{"x":170920.62999999989,"y":2545737.290000001}},{"attributes":{"ID":513401,"DIS_CODE":0,"TOWNNAME":"永康區","LI":"六合里","LIN":"1鄰","STREET":"新興街","SECT":" ","MAREA":" ","LANE":" ","ALLEY":" ","HOUSE_NO":"８之５號四樓之３","E_COORD97":170950.91,"N_COORD97":2545708.7999999998,"ADDRESS":"新興街８之５號四樓之３","OBJECTID":513374},"geometry":{"x":170950.91000000108,"y":2545708.8000000026}},{"attributes":{"ID":513402,"DIS_CODE":0,"TOWNNAME":"永康區","LI":"六合里","LIN":"1鄰","STREET":"新興街","SECT":" ","MAREA":" ","LANE":" ","ALLEY":" ","HOUSE_NO":"８之５號六樓之３","E_COORD97":170950.91,"N_COORD97":2545708.7999999998,"ADDRESS":"新興街８之５號六樓之３","OBJECTID":513375},"geometry":{"x":170950.91000000108,"y":2545708.8000000026}},{"attributes":{"ID":513403,"DIS_CODE":0,"TOWNNAME":"永康區","LI":"六合里","LIN":"1鄰","STREET":"新興街","SECT":" ","MAREA":" ","LANE":" ","ALLEY":" ","HOUSE_NO":"６號八樓之２","E_COORD97":170919.41,"N_COORD97":2545737.29,"ADDRESS":"新興街６號八樓之２","OBJECTID":513376},"geometry":{"x":170919.41000000015,"y":2545737.290000001}},{"attributes":{"ID":513404,"DIS_CODE":0,"TOWNNAME":"永康區","LI":"六合里","LIN":"1鄰","STREET":"新興街","SECT":" ","MAREA":" ","LANE":" ","ALLEY":" ","HOUSE_NO":"２號十三樓之３","E_COORD97":170913.20999999999,"N_COORD97":2545758.73,"ADDRESS":"新興街２號十三樓之３","OBJECTID":513377},"geometry":{"x":170913.20999999996,"y":2545758.7300000004}},{"attributes":{"ID":513405,"DIS_CODE":0,"TOWNNAME":"永康區","LI":"六合里","LIN":"1鄰","STREET":"新興街","SECT":" ","MAREA":" ","LANE":" ","ALLEY":" ","HOUSE_NO":"２號三樓之５","E_COORD97":170912.01999999999,"N_COORD97":2545758.73,"ADDRESS":"新興街２號三樓之５","OBJECTID":513378},"geometry":{"x":170912.02000000048,"y":2545758.7300000004}},{"attributes":{"ID":513406,"DIS_CODE":0,"TOWNNAME":"永康區","LI":"六合里","LIN":"1鄰","STREET":"新興街","SECT":" ","MAREA":" ","LANE":" ","ALLEY":" ","HOUSE_NO":"２號十樓之３","E_COORD97":170911.95999999999,"N_COORD97":2545758.73,"ADDRESS":"新興街２號十樓之３","OBJECTID":513379},"geometry":{"x":170911.95999999996,"y":2545758.7300000004}},{"attributes":{"ID":513407,"DIS_CODE":0,"TOWNNAME":"永康區","LI":"六合里","LIN":"1鄰","STREET":"新興街","SECT":" ","MAREA":" ","LANE":" ","ALLEY":" ","HOUSE_NO":"２號十一樓之２","E_COORD97":170913.25,"N_COORD97":2545758.73,"ADDRESS":"新興街２號十一樓之２","OBJECTID":513380},"geometry":{"x":170913.25,"y":2545758.7300000004}},{"attributes":{"ID":513408,"DIS_CODE":0,"TOWNNAME":"永康區","LI":"六合里","LIN":"1鄰","STREET":"新興街","SECT":" ","MAREA":" ","LANE":" ","ALLEY":" ","HOUSE_NO":"８之５號二樓之６","E_COORD97":170950.92000000001,"N_COORD97":2545708.7999999998,"ADDRESS":"新興街８之５號二樓之６","OBJECTID":513381},"geometry":{"x":170950.91999999993,"y":2545708.8000000026}},{"attributes":{"ID":513409,"DIS_CODE":0,"TOWNNAME":"永康區","LI":"六合里","LIN":"1鄰","STREET":"新興街","SECT":" ","MAREA":" ","LANE":" ","ALLEY":" ","HOUSE_NO":"８之５號九樓之５","E_COORD97":170950.97,"N_COORD97":2545708.7999999998,"ADDRESS":"新興街８之５號九樓之５","OBJECTID":513382},"geometry":{"x":170950.9700000016,"y":2545708.8000000026}},{"attributes":{"ID":513410,"DIS_CODE":0,"TOWNNAME":"永康區","LI":"六合里","LIN":"1鄰","STREET":"新興街","SECT":" ","MAREA":" ","LANE":" ","ALLEY":" ","HOUSE_NO":"２號六樓之５","E_COORD97":170912.01999999999,"N_COORD97":2545758.73,"ADDRESS":"新興街２號六樓之５","OBJECTID":513383},"geometry":{"x":170912.02000000048,"y":2545758.7300000004}},{"attributes":{"ID":513411,"DIS_CODE":0,"TOWNNAME":"永康區","LI":"六合里","LIN":"1鄰","STREET":"新興街","SECT":" ","MAREA":" ","LANE":" ","ALLEY":" ","HOUSE_NO":"２號十二樓之５","E_COORD97":170913.26999999999,"N_COORD97":2545758.73,"ADDRESS":"新興街２號十二樓之５","OBJECTID":513384},"geometry":{"x":170913.27000000048,"y":2545758.7300000004}},{"attributes":{"ID":513412,"DIS_CODE":0,"TOWNNAME":"永康區","LI":"六合里","LIN":"1鄰","STREET":"新興街","SECT":" ","MAREA":" ","LANE":" ","ALLEY":" ","HOUSE_NO":"６號十一樓之３","E_COORD97":170920.62,"N_COORD97":2545737.29,"ADDRESS":"新興街６號十一樓之３","OBJECTID":513385},"geometry":{"x":170920.62000000104,"y":2545737.290000001}},{"attributes":{"ID":513413,"DIS_CODE":0,"TOWNNAME":"永康區","LI":"六合里","LIN":"1鄰","STREET":"新興街","SECT":" ","MAREA":" ","LANE":" ","ALLEY":" ","HOUSE_NO":"２號三樓之３","E_COORD97":170911.95999999999,"N_COORD97":2545758.73,"ADDRESS":"新興街２號三樓之３","OBJECTID":513386},"geometry":{"x":170911.95999999996,"y":2545758.7300000004}},{"attributes":{"ID":513414,"DIS_CODE":0,"TOWNNAME":"永康區","LI":"六合里","LIN":"1鄰","STREET":"新興街","SECT":" ","MAREA":" ","LANE":" ","ALLEY":" ","HOUSE_NO":"８之５號七樓之５","E_COORD97":170950.97,"N_COORD97":2545708.7999999998,"ADDRESS":"新興街８之５號七樓之５","OBJECTID":513387},"geometry":{"x":170950.9700000016,"y":2545708.8000000026}},{"attributes":{"ID":513415,"DIS_CODE":0,"TOWNNAME":"永康區","LI":"六合里","LIN":"1鄰","STREET":"新興街","SECT":" ","MAREA":" ","LANE":" ","ALLEY":" ","HOUSE_NO":"８之５號六樓之５","E_COORD97":170950.97,"N_COORD97":2545708.7999999998,"ADDRESS":"新興街８之５號六樓之５","OBJECTID":513388},"geometry":{"x":170950.9700000016,"y":2545708.8000000026}},{"attributes":{"ID":513416,"DIS_CODE":0,"TOWNNAME":"永康區","LI":"六合里","LIN":"1鄰","STREET":"新興街","SECT":" ","MAREA":" ","LANE":" ","ALLEY":" ","HOUSE_NO":"２號九樓之１","E_COORD97":170911.85999999999,"N_COORD97":2545758.73,"ADDRESS":"新興街２號九樓之１","OBJECTID":513389},"geometry":{"x":170911.86000000127,"y":2545758.7300000004}},{"attributes":{"ID":513417,"DIS_CODE":0,"TOWNNAME":"永康區","LI":"六合里","LIN":"1鄰","STREET":"新興街","SECT":" ","MAREA":" ","LANE":" ","ALLEY":" ","HOUSE_NO":"８之５號七樓之３","E_COORD97":170950.91,"N_COORD97":2545708.7999999998,"ADDRESS":"新興街８之５號七樓之３","OBJECTID":513390},"geometry":{"x":170950.91000000108,"y":2545708.8000000026}},{"attributes":{"ID":513418,"DIS_CODE":0,"TOWNNAME":"永康區","LI":"六合里","LIN":"1鄰","STREET":"新興街","SECT":" ","MAREA":" ","LANE":" ","ALLEY":" ","HOUSE_NO":"２號十四樓之３","E_COORD97":170913.20999999999,"N_COORD97":2545758.73,"ADDRESS":"新興街２號十四樓之３","OBJECTID":513391},"geometry":{"x":170913.20999999996,"y":2545758.7300000004}},{"attributes":{"ID":513419,"DIS_CODE":0,"TOWNNAME":"永康區","LI":"六合里","LIN":"1鄰","STREET":"新興街","SECT":" ","MAREA":" ","LANE":" ","ALLEY":" ","HOUSE_NO":"６號九樓之５","E_COORD97":170919.42999999999,"N_COORD97":2545737.29,"ADDRESS":"新興街６號九樓之５","OBJECTID":513392},"geometry":{"x":170919.43000000063,"y":2545737.290000001}},{"attributes":{"ID":513420,"DIS_CODE":0,"TOWNNAME":"永康區","LI":"六合里","LIN":"1鄰","STREET":"新興街","SECT":" ","MAREA":" ","LANE":" ","ALLEY":" ","HOUSE_NO":"６號八樓之７","E_COORD97":170919.35000000001,"N_COORD97":2545737.29,"ADDRESS":"新興街６號八樓之７","OBJECTID":513393},"geometry":{"x":170919.3499999987,"y":2545737.290000001}},{"attributes":{"ID":513421,"DIS_CODE":0,"TOWNNAME":"永康區","LI":"六合里","LIN":"1鄰","STREET":"新興街","SECT":" ","MAREA":" ","LANE":" ","ALLEY":" ","HOUSE_NO":"２號十四樓之２","E_COORD97":170913.25,"N_COORD97":2545758.73,"ADDRESS":"新興街２號十四樓之２","OBJECTID":513394},"geometry":{"x":170913.25,"y":2545758.7300000004}},{"attributes":{"ID":513422,"DIS_CODE":0,"TOWNNAME":"永康區","LI":"六合里","LIN":"1鄰","STREET":"新興街","SECT":" ","MAREA":" ","LANE":" ","ALLEY":" ","HOUSE_NO":"２號十二樓之２","E_COORD97":170913.25,"N_COORD97":2545758.73,"ADDRESS":"新興街２號十二樓之２","OBJECTID":513395},"geometry":{"x":170913.25,"y":2545758.7300000004}},{"attributes":{"ID":513423,"DIS_CODE":0,"TOWNNAME":"永康區","LI":"六合里","LIN":"1鄰","STREET":"新興街","SECT":" ","MAREA":" ","LANE":" ","ALLEY":" ","HOUSE_NO":"２號二樓之３","E_COORD97":170911.95999999999,"N_COORD97":2545758.73,"ADDRESS":"新興街２號二樓之３","OBJECTID":513396},"geometry":{"x":170911.95999999996,"y":2545758.7300000004}},{"attributes":{"ID":513424,"DIS_CODE":0,"TOWNNAME":"永康區","LI":"六合里","LIN":"1鄰","STREET":"新興街","SECT":" ","MAREA":" ","LANE":" ","ALLEY":" ","HOUSE_NO":"６號七樓之２","E_COORD97":170919.41,"N_COORD97":2545737.29,"ADDRESS":"新興街６號七樓之２","OBJECTID":513397},"geometry":{"x":170919.41000000015,"y":2545737.290000001}},{"attributes":{"ID":513425,"DIS_CODE":0,"TOWNNAME":"永康區","LI":"六合里","LIN":"1鄰","STREET":"新興街","SECT":" ","MAREA":" ","LANE":" ","ALLEY":" ","HOUSE_NO":"８號九樓之３","E_COORD97":170922.67000000001,"N_COORD97":2545756.79,"ADDRESS":"新興街８號九樓之３","OBJECTID":513398},"geometry":{"x":170922.67000000179,"y":2545756.7899999991}},{"attributes":{"ID":513426,"DIS_CODE":0,"TOWNNAME":"永康區","LI":"六合里","LIN":"1鄰","STREET":"新興街","SECT":" ","MAREA":" ","LANE":" ","ALLEY":" ","HOUSE_NO":"６號六樓之１","E_COORD97":170919.26999999999,"N_COORD97":2545737.29,"ADDRESS":"新興街６號六樓之１","OBJECTID":513399},"geometry":{"x":170919.26999999955,"y":2545737.290000001}},{"attributes":{"ID":513427,"DIS_CODE":0,"TOWNNAME":"永康區","LI":"六合里","LIN":"1鄰","STREET":"新興街","SECT":" ","MAREA":" ","LANE":" ","ALLEY":" ","HOUSE_NO":"６號九樓之７","E_COORD97":170919.35000000001,"N_COORD97":2545737.29,"ADDRESS":"新興街６號九樓之７","OBJECTID":513400},"geometry":{"x":170919.3499999987,"y":2545737.290000001}}]}