{"displayFieldName":"TOWNNAME","fieldAliases":{"ID":"ID","DIS_CODE":"DIS_CODE","TOWNNAME":"TOWNNAME","LI":"LI","LIN":"LIN","STREET":"STREET","SECT":"SECT","MAREA":"MAREA","LANE":"LANE","ALLEY":"ALLEY","HOUSE_NO":"HOUSE_NO","E_COORD97":"E_COORD97","N_COORD97":"N_COORD97","ADDRESS":"ADDRESS","OBJECTID":"OBJECTID"},"geometryType":"esriGeometryPoint","spatialReference":{"wkid":102443,"latestWkid":3826},"fields":[{"name":"ID","type":"esriFieldTypeDouble","alias":"ID"},{"name":"DIS_CODE","type":"esriFieldTypeInteger","alias":"DIS_CODE"},{"name":"TOWNNAME","type":"esriFieldTypeString","alias":"TOWNNAME","length":8},{"name":"LI","type":"esriFieldTypeString","alias":"LI","length":8},{"name":"LIN","type":"esriFieldTypeString","alias":"LIN","length":12},{"name":"STREET","type":"esriFieldTypeString","alias":"STREET","length":20},{"name":"SECT","type":"esriFieldTypeString","alias":"SECT","length":8},{"name":"MAREA","type":"esriFieldTypeString","alias":"MAREA","length":12},{"name":"LANE","type":"esriFieldTypeString","alias":"LANE","length":10},{"name":"ALLEY","type":"esriFieldTypeString","alias":"ALLEY","length":10},{"name":"HOUSE_NO","type":"esriFieldTypeString","alias":"HOUSE_NO","length":20},{"name":"E_COORD97","type":"esriFieldTypeDouble","alias":"E_COORD97"},{"name":"N_COORD97","type":"esriFieldTypeDouble","alias":"N_COORD97"},{"name":"ADDRESS","type":"esriFieldTypeString","alias":"ADDRESS","length":50},{"name":"OBJECTID","type":"esriFieldTypeOID","alias":"OBJECTID"}],"features":[{"attributes":{"ID":77801,"DIS_CODE":0,"TOWNNAME":"官田區","LI":"官田里","LIN":"6鄰","STREET":" ","SECT":" ","MAREA":"官田","LANE":" ","ALLEY":" ","HOUSE_NO":"５６號之３","E_COORD97":182659.16,"N_COORD97":2565095.4500000002,"ADDRESS":"官田５６號之３","OBJECTID":77801},"geometry":{"x":182659.16000000108,"y":2565095.4500000011}},{"attributes":{"ID":77802,"DIS_CODE":0,"TOWNNAME":"南區","LI":"大恩里","LIN":"19鄰","STREET":"大同路","SECT":"二段","MAREA":" ","LANE":"７５０巷","ALLEY":"１６４弄","HOUSE_NO":"７號","E_COORD97":169043.87,"N_COORD97":2540738.0600000001,"ADDRESS":"大同路二段７５０巷１６４弄７號","OBJECTID":77802},"geometry":{"x":169043.87000000104,"y":2540738.0600000005}},{"attributes":{"ID":77803,"DIS_CODE":0,"TOWNNAME":"南區","LI":"大恩里","LIN":"19鄰","STREET":"大同路","SECT":"二段","MAREA":" ","LANE":"７５０巷","ALLEY":"１６４弄","HOUSE_NO":"９號","E_COORD97":169044.84,"N_COORD97":2540742.25,"ADDRESS":"大同路二段７５０巷１６４弄９號","OBJECTID":77803},"geometry":{"x":169044.84000000171,"y":2540742.2500000019}},{"attributes":{"ID":77804,"DIS_CODE":0,"TOWNNAME":"新營區","LI":"新南里","LIN":"19鄰","STREET":"隋唐街","SECT":" ","MAREA":" ","LANE":"３１巷","ALLEY":"３８弄","HOUSE_NO":"２號","E_COORD97":178657.66,"N_COORD97":2578354.2999999998,"ADDRESS":"隋唐街３１巷３８弄２號","OBJECTID":77804},"geometry":{"x":178657.66000000015,"y":2578354.3000000026}},{"attributes":{"ID":77805,"DIS_CODE":0,"TOWNNAME":"左鎮區","LI":"澄山里","LIN":"7鄰","STREET":" ","SECT":" ","MAREA":"澄山","LANE":" ","ALLEY":" ","HOUSE_NO":"６９號","E_COORD97":187442.39000000001,"N_COORD97":2547178.25,"ADDRESS":"澄山６９號","OBJECTID":77805},"geometry":{"x":187442.3900000006,"y":2547178.25}},{"attributes":{"ID":77806,"DIS_CODE":0,"TOWNNAME":"安平區","LI":"怡平里","LIN":"19鄰","STREET":"文平路","SECT":" ","MAREA":" ","LANE":"４６１巷","ALLEY":"２１弄","HOUSE_NO":"２１號","E_COORD97":165740.64000000001,"N_COORD97":2543821.5600000001,"ADDRESS":"文平路４６１巷２１弄２１號","OBJECTID":77806},"geometry":{"x":165740.6400000006,"y":2543821.5600000024}},{"attributes":{"ID":77807,"DIS_CODE":0,"TOWNNAME":"安平區","LI":"怡平里","LIN":"19鄰","STREET":"文平路","SECT":" ","MAREA":" ","LANE":"４６１巷","ALLEY":"２１弄","HOUSE_NO":"２３號","E_COORD97":165732.76999999999,"N_COORD97":2543818.2200000002,"ADDRESS":"文平路４６１巷２１弄２３號","OBJECTID":77807},"geometry":{"x":165732.77000000048,"y":2543818.2200000025}},{"attributes":{"ID":77808,"DIS_CODE":0,"TOWNNAME":"南區","LI":"新生里","LIN":"19鄰","STREET":"大同路","SECT":"二段","MAREA":" ","LANE":"１００巷","ALLEY":"２１弄","HOUSE_NO":"９號","E_COORD97":169211.42999999999,"N_COORD97":2542296.4100000001,"ADDRESS":"大同路二段１００巷２１弄９號","OBJECTID":77808},"geometry":{"x":169211.4299999997,"y":2542296.410000002}},{"attributes":{"ID":77809,"DIS_CODE":0,"TOWNNAME":"南區","LI":"新生里","LIN":"19鄰","STREET":"大同路","SECT":"二段","MAREA":" ","LANE":"１００巷","ALLEY":"２１弄","HOUSE_NO":"１１號","E_COORD97":169213.98999999999,"N_COORD97":2542289.6499999999,"ADDRESS":"大同路二段１００巷２１弄１１號","OBJECTID":77809},"geometry":{"x":169213.99000000115,"y":2542289.6500000004}},{"attributes":{"ID":77810,"DIS_CODE":0,"TOWNNAME":"南區","LI":"新生里","LIN":"19鄰","STREET":"大同路","SECT":"二段","MAREA":" ","LANE":"１００巷","ALLEY":"２１弄","HOUSE_NO":"１３號","E_COORD97":169216.19,"N_COORD97":2542283.7999999998,"ADDRESS":"大同路二段１００巷２１弄１３號","OBJECTID":77810},"geometry":{"x":169216.19000000134,"y":2542283.8000000045}},{"attributes":{"ID":77811,"DIS_CODE":0,"TOWNNAME":"南區","LI":"新生里","LIN":"19鄰","STREET":"大同路","SECT":"二段","MAREA":" ","LANE":"１００巷","ALLEY":"２１弄","HOUSE_NO":"１５號","E_COORD97":169218.56,"N_COORD97":2542277.21,"ADDRESS":"大同路二段１００巷２１弄１５號","OBJECTID":77811},"geometry":{"x":169218.55999999959,"y":2542277.2100000009}},{"attributes":{"ID":77812,"DIS_CODE":0,"TOWNNAME":"南區","LI":"新生里","LIN":"19鄰","STREET":"大同路","SECT":"二段","MAREA":" ","LANE":"１００巷","ALLEY":"２１弄","HOUSE_NO":"１７號","E_COORD97":169220.57999999999,"N_COORD97":2542271.1800000002,"ADDRESS":"大同路二段１００巷２１弄１７號","OBJECTID":77812},"geometry":{"x":169220.58000000101,"y":2542271.1800000016}},{"attributes":{"ID":77813,"DIS_CODE":0,"TOWNNAME":"北區","LI":"文元里","LIN":"19鄰","STREET":"文成路","SECT":" ","MAREA":" ","LANE":"７５０巷","ALLEY":"７弄","HOUSE_NO":"１０號","E_COORD97":167591.26999999999,"N_COORD97":2545940.6800000002,"ADDRESS":"文成路７５０巷７弄１０號","OBJECTID":77813},"geometry":{"x":167591.27000000048,"y":2545940.6799999997}},{"attributes":{"ID":77814,"DIS_CODE":0,"TOWNNAME":"北區","LI":"文元里","LIN":"19鄰","STREET":"文成路","SECT":" ","MAREA":" ","LANE":"７５０巷","ALLEY":"７弄","HOUSE_NO":"１１號","E_COORD97":167580.63,"N_COORD97":2545932.23,"ADDRESS":"文成路７５０巷７弄１１號","OBJECTID":77814},"geometry":{"x":167580.63000000082,"y":2545932.2300000023}},{"attributes":{"ID":77815,"DIS_CODE":0,"TOWNNAME":"北區","LI":"文元里","LIN":"19鄰","STREET":"文成路","SECT":" ","MAREA":" ","LANE":"７５０巷","ALLEY":"７弄","HOUSE_NO":"１２號","E_COORD97":167586.19,"N_COORD97":2545942.2200000002,"ADDRESS":"文成路７５０巷７弄１２號","OBJECTID":77815},"geometry":{"x":167586.19000000041,"y":2545942.2199999988}},{"attributes":{"ID":77816,"DIS_CODE":0,"TOWNNAME":"新營區","LI":"埤寮里","LIN":"3鄰","STREET":" ","SECT":" ","MAREA":"許丑","LANE":" ","ALLEY":" ","HOUSE_NO":"２９號","E_COORD97":179922.63,"N_COORD97":2581046.0299999998,"ADDRESS":"許丑２９號","OBJECTID":77816},"geometry":{"x":179922.63000000175,"y":2581046.0299999975}},{"attributes":{"ID":77817,"DIS_CODE":0,"TOWNNAME":"北區","LI":"文元里","LIN":"19鄰","STREET":"文成路","SECT":" ","MAREA":" ","LANE":"７５０巷","ALLEY":"７弄","HOUSE_NO":"１３號","E_COORD97":167575.95999999999,"N_COORD97":2545930.1099999999,"ADDRESS":"文成路７５０巷７弄１３號","OBJECTID":77817},"geometry":{"x":167575.95999999996,"y":2545930.1099999994}},{"attributes":{"ID":77818,"DIS_CODE":0,"TOWNNAME":"北區","LI":"文元里","LIN":"19鄰","STREET":"文成路","SECT":" ","MAREA":" ","LANE":"７５０巷","ALLEY":"７弄","HOUSE_NO":"１５號","E_COORD97":167570.23000000001,"N_COORD97":2545931.8100000001,"ADDRESS":"文成路７５０巷７弄１５號","OBJECTID":77818},"geometry":{"x":167570.23000000138,"y":2545931.8100000024}},{"attributes":{"ID":77819,"DIS_CODE":0,"TOWNNAME":"北區","LI":"文元里","LIN":"19鄰","STREET":"文成路","SECT":" ","MAREA":" ","LANE":"７５０巷","ALLEY":"７弄","HOUSE_NO":"１６號","E_COORD97":167580.89000000001,"N_COORD97":2545940.46,"ADDRESS":"文成路７５０巷７弄１６號","OBJECTID":77819},"geometry":{"x":167580.88999999966,"y":2545940.4600000009}},{"attributes":{"ID":77820,"DIS_CODE":0,"TOWNNAME":"南區","LI":"松安里","LIN":"7鄰","STREET":"灣裡路","SECT":" ","MAREA":" ","LANE":" ","ALLEY":" ","HOUSE_NO":"３１６號","E_COORD97":166111.37,"N_COORD97":2536329.1200000001,"ADDRESS":"灣裡路３１６號","OBJECTID":77820},"geometry":{"x":166111.37000000104,"y":2536329.1200000029}},{"attributes":{"ID":77821,"DIS_CODE":0,"TOWNNAME":"南區","LI":"松安里","LIN":"7鄰","STREET":"灣裡路","SECT":" ","MAREA":" ","LANE":" ","ALLEY":" ","HOUSE_NO":"３１８號","E_COORD97":166111.82000000001,"N_COORD97":2536324.46,"ADDRESS":"灣裡路３１８號","OBJECTID":77821},"geometry":{"x":166111.82000000123,"y":2536324.4600000009}},{"attributes":{"ID":77822,"DIS_CODE":0,"TOWNNAME":"新營區","LI":"新南里","LIN":"30鄰","STREET":"明清三街","SECT":" ","MAREA":" ","LANE":" ","ALLEY":" ","HOUSE_NO":"２７６號","E_COORD97":178155.20000000001,"N_COORD97":2578845.1299999999,"ADDRESS":"明清三街２７６號","OBJECTID":77822},"geometry":{"x":178155.20000000112,"y":2578845.1300000008}},{"attributes":{"ID":77823,"DIS_CODE":0,"TOWNNAME":"北區","LI":"文元里","LIN":"19鄰","STREET":"文成路","SECT":" ","MAREA":" ","LANE":"７５０巷","ALLEY":"７弄","HOUSE_NO":"１８號","E_COORD97":167575.59,"N_COORD97":2545942.6600000001,"ADDRESS":"文成路７５０巷７弄１８號","OBJECTID":77823},"geometry":{"x":167575.59000000078,"y":2545942.660000002}},{"attributes":{"ID":77824,"DIS_CODE":0,"TOWNNAME":"北區","LI":"文元里","LIN":"19鄰","STREET":"文成路","SECT":" ","MAREA":" ","LANE":"７５０巷","ALLEY":"７弄","HOUSE_NO":"１號","E_COORD97":167606.73000000001,"N_COORD97":2545929.6899999999,"ADDRESS":"文成路７５０巷７弄１號","OBJECTID":77824},"geometry":{"x":167606.73000000045,"y":2545929.6899999995}},{"attributes":{"ID":77825,"DIS_CODE":0,"TOWNNAME":"北區","LI":"文元里","LIN":"19鄰","STREET":"文成路","SECT":" ","MAREA":" ","LANE":"７５０巷","ALLEY":"７弄","HOUSE_NO":"２０號","E_COORD97":167570.73000000001,"N_COORD97":2545940.8999999999,"ADDRESS":"文成路７５０巷７弄２０號","OBJECTID":77825},"geometry":{"x":167570.73000000045,"y":2545940.9000000041}},{"attributes":{"ID":77826,"DIS_CODE":0,"TOWNNAME":"新營區","LI":"護鎮里","LIN":"6鄰","STREET":" ","SECT":" ","MAREA":"後鎮","LANE":" ","ALLEY":" ","HOUSE_NO":"６３之５號","E_COORD97":178525.95000000001,"N_COORD97":2581450.3500000001,"ADDRESS":"後鎮６３之５號","OBJECTID":77826},"geometry":{"x":178525.95000000112,"y":2581450.3499999996}},{"attributes":{"ID":77827,"DIS_CODE":0,"TOWNNAME":"新營區","LI":"太北里","LIN":"4鄰","STREET":" ","SECT":" ","MAREA":"太子宮","LANE":" ","ALLEY":" ","HOUSE_NO":"２５之２號","E_COORD97":176179.72,"N_COORD97":2577288.96,"ADDRESS":"太子宮２５之２號","OBJECTID":77827},"geometry":{"x":176179.72000000067,"y":2577288.9600000028}},{"attributes":{"ID":77828,"DIS_CODE":0,"TOWNNAME":"新營區","LI":"鐵線里","LIN":"14鄰","STREET":" ","SECT":" ","MAREA":"秀才","LANE":" ","ALLEY":" ","HOUSE_NO":"１６號","E_COORD97":174702.07000000001,"N_COORD97":2573865.4199999999,"ADDRESS":"秀才１６號","OBJECTID":77828},"geometry":{"x":174702.0700000003,"y":2573865.4199999999}},{"attributes":{"ID":77829,"DIS_CODE":0,"TOWNNAME":"北區","LI":"文元里","LIN":"19鄰","STREET":"文成路","SECT":" ","MAREA":" ","LANE":"７５０巷","ALLEY":"７弄","HOUSE_NO":"２號","E_COORD97":167607.82000000001,"N_COORD97":2545942.2200000002,"ADDRESS":"文成路７５０巷７弄２號","OBJECTID":77829},"geometry":{"x":167607.8200000003,"y":2545942.2199999988}},{"attributes":{"ID":77830,"DIS_CODE":0,"TOWNNAME":"北區","LI":"文元里","LIN":"19鄰","STREET":"文成路","SECT":" ","MAREA":" ","LANE":"７５０巷","ALLEY":"７弄","HOUSE_NO":"３號","E_COORD97":167601.64000000001,"N_COORD97":2545931.3799999999,"ADDRESS":"文成路７５０巷７弄３號","OBJECTID":77830},"geometry":{"x":167601.63999999873,"y":2545931.379999999}},{"attributes":{"ID":77831,"DIS_CODE":0,"TOWNNAME":"鹽水區","LI":"飯店里","LIN":"7鄰","STREET":" ","SECT":" ","MAREA":"麻油寮","LANE":" ","ALLEY":" ","HOUSE_NO":"１５號","E_COORD97":169359.62,"N_COORD97":2573829.9100000001,"ADDRESS":"麻油寮１５號","OBJECTID":77831},"geometry":{"x":169359.62000000011,"y":2573829.9100000039}},{"attributes":{"ID":77832,"DIS_CODE":0,"TOWNNAME":"鹽水區","LI":"飯店里","LIN":"7鄰","STREET":" ","SECT":" ","MAREA":"麻油寮","LANE":" ","ALLEY":" ","HOUSE_NO":"２２之１號","E_COORD97":169317.82000000001,"N_COORD97":2573800.5600000001,"ADDRESS":"麻油寮２２之１號","OBJECTID":77832},"geometry":{"x":169317.8200000003,"y":2573800.5600000005}},{"attributes":{"ID":77833,"DIS_CODE":0,"TOWNNAME":"鹽水區","LI":"飯店里","LIN":"7鄰","STREET":" ","SECT":" ","MAREA":"麻油寮","LANE":" ","ALLEY":" ","HOUSE_NO":"２２號","E_COORD97":169330.20999999999,"N_COORD97":2573807.2200000002,"ADDRESS":"麻油寮２２號","OBJECTID":77833},"geometry":{"x":169330.20999999996,"y":2573807.2200000007}},{"attributes":{"ID":77834,"DIS_CODE":0,"TOWNNAME":"鹽水區","LI":"飯店里","LIN":"7鄰","STREET":" ","SECT":" ","MAREA":"麻油寮","LANE":" ","ALLEY":" ","HOUSE_NO":"２３之１號","E_COORD97":169320.01000000001,"N_COORD97":2573824.4399999999,"ADDRESS":"麻油寮２３之１號","OBJECTID":77834},"geometry":{"x":169320.01000000164,"y":2573824.4399999995}},{"attributes":{"ID":77835,"DIS_CODE":0,"TOWNNAME":"鹽水區","LI":"飯店里","LIN":"7鄰","STREET":" ","SECT":" ","MAREA":"麻油寮","LANE":" ","ALLEY":" ","HOUSE_NO":"２３之２號","E_COORD97":169325.42999999999,"N_COORD97":2573825.54,"ADDRESS":"麻油寮２３之２號","OBJECTID":77835},"geometry":{"x":169325.42999999877,"y":2573825.540000001}},{"attributes":{"ID":77836,"DIS_CODE":0,"TOWNNAME":"鹽水區","LI":"飯店里","LIN":"7鄰","STREET":" ","SECT":" ","MAREA":"麻油寮","LANE":" ","ALLEY":" ","HOUSE_NO":"２３號之３","E_COORD97":169329.64999999999,"N_COORD97":2573826.8199999998,"ADDRESS":"麻油寮２３號之３","OBJECTID":77836},"geometry":{"x":169329.65000000037,"y":2573826.8200000003}},{"attributes":{"ID":77837,"DIS_CODE":0,"TOWNNAME":"鹽水區","LI":"飯店里","LIN":"7鄰","STREET":" ","SECT":" ","MAREA":"麻油寮","LANE":" ","ALLEY":" ","HOUSE_NO":"２４號","E_COORD97":169298.16,"N_COORD97":2573816.1200000001,"ADDRESS":"麻油寮２４號","OBJECTID":77837},"geometry":{"x":169298.16000000015,"y":2573816.1200000029}},{"attributes":{"ID":77838,"DIS_CODE":0,"TOWNNAME":"新營區","LI":"太北里","LIN":"18鄰","STREET":" ","SECT":" ","MAREA":"太子宮","LANE":" ","ALLEY":" ","HOUSE_NO":"８之１０號","E_COORD97":176225.38,"N_COORD97":2577212.3100000001,"ADDRESS":"太子宮８之１０號","OBJECTID":77838},"geometry":{"x":176225.37999999896,"y":2577212.3100000024}},{"attributes":{"ID":77839,"DIS_CODE":0,"TOWNNAME":"官田區","LI":"官田里","LIN":"6鄰","STREET":" ","SECT":" ","MAREA":"官田","LANE":" ","ALLEY":" ","HOUSE_NO":"５６號之６","E_COORD97":182655.76999999999,"N_COORD97":2565107.1400000001,"ADDRESS":"官田５６號之６","OBJECTID":77839},"geometry":{"x":182655.77000000142,"y":2565107.1400000006}},{"attributes":{"ID":77840,"DIS_CODE":0,"TOWNNAME":"官田區","LI":"官田里","LIN":"6鄰","STREET":" ","SECT":" ","MAREA":"官田","LANE":" ","ALLEY":" ","HOUSE_NO":"５６號之７","E_COORD97":182654.64000000001,"N_COORD97":2565111.0299999998,"ADDRESS":"官田５６號之７","OBJECTID":77840},"geometry":{"x":182654.63999999966,"y":2565111.0299999993}},{"attributes":{"ID":77841,"DIS_CODE":0,"TOWNNAME":"官田區","LI":"官田里","LIN":"6鄰","STREET":" ","SECT":" ","MAREA":"官田","LANE":" ","ALLEY":" ","HOUSE_NO":"５６號之８","E_COORD97":182653.5,"N_COORD97":2565114.9300000002,"ADDRESS":"官田５６號之８","OBJECTID":77841},"geometry":{"x":182653.50000000093,"y":2565114.9299999997}},{"attributes":{"ID":77842,"DIS_CODE":0,"TOWNNAME":"官田區","LI":"官田里","LIN":"6鄰","STREET":" ","SECT":" ","MAREA":"官田","LANE":" ","ALLEY":" ","HOUSE_NO":"５６號之９","E_COORD97":182652.37,"N_COORD97":2565118.8300000001,"ADDRESS":"官田５６號之９","OBJECTID":77842},"geometry":{"x":182652.37000000104,"y":2565118.8300000001}},{"attributes":{"ID":77843,"DIS_CODE":0,"TOWNNAME":"官田區","LI":"官田里","LIN":"6鄰","STREET":" ","SECT":" ","MAREA":"官田","LANE":" ","ALLEY":" ","HOUSE_NO":"５７號之１９","E_COORD97":182674.32000000001,"N_COORD97":2565079.7599999998,"ADDRESS":"官田５７號之１９","OBJECTID":77843},"geometry":{"x":182674.3200000003,"y":2565079.7600000035}},{"attributes":{"ID":77844,"DIS_CODE":0,"TOWNNAME":"官田區","LI":"官田里","LIN":"6鄰","STREET":" ","SECT":" ","MAREA":"官田","LANE":" ","ALLEY":" ","HOUSE_NO":"５７號之１","E_COORD97":182697.98000000001,"N_COORD97":2565021.8900000001,"ADDRESS":"官田５７號之１","OBJECTID":77844},"geometry":{"x":182697.98000000138,"y":2565021.8900000006}},{"attributes":{"ID":77845,"DIS_CODE":0,"TOWNNAME":"官田區","LI":"官田里","LIN":"6鄰","STREET":" ","SECT":" ","MAREA":"官田","LANE":" ","ALLEY":" ","HOUSE_NO":"５７號之２０","E_COORD97":182673.81,"N_COORD97":2565084.3599999999,"ADDRESS":"官田５７號之２０","OBJECTID":77845},"geometry":{"x":182673.80999999959,"y":2565084.3599999994}},{"attributes":{"ID":77846,"DIS_CODE":0,"TOWNNAME":"官田區","LI":"官田里","LIN":"6鄰","STREET":" ","SECT":" ","MAREA":"官田","LANE":" ","ALLEY":" ","HOUSE_NO":"５７號之２","E_COORD97":182689.73999999999,"N_COORD97":2565021.8999999999,"ADDRESS":"官田５７號之２","OBJECTID":77846},"geometry":{"x":182689.74000000022,"y":2565021.9000000041}},{"attributes":{"ID":77847,"DIS_CODE":0,"TOWNNAME":"官田區","LI":"官田里","LIN":"6鄰","STREET":" ","SECT":" ","MAREA":"官田","LANE":" ","ALLEY":" ","HOUSE_NO":"５７號之５","E_COORD97":182673.45000000001,"N_COORD97":2565052.7000000002,"ADDRESS":"官田５７號之５","OBJECTID":77847},"geometry":{"x":182673.45000000019,"y":2565052.700000003}},{"attributes":{"ID":77848,"DIS_CODE":0,"TOWNNAME":"北區","LI":"文元里","LIN":"19鄰","STREET":"文成路","SECT":" ","MAREA":" ","LANE":"７５０巷","ALLEY":"７弄","HOUSE_NO":"５號","E_COORD97":167596.76000000001,"N_COORD97":2545929.2599999998,"ADDRESS":"文成路７５０巷７弄５號","OBJECTID":77848},"geometry":{"x":167596.76000000071,"y":2545929.2600000016}},{"attributes":{"ID":77849,"DIS_CODE":0,"TOWNNAME":"北區","LI":"文元里","LIN":"19鄰","STREET":"文成路","SECT":" ","MAREA":" ","LANE":"７５０巷","ALLEY":"７弄","HOUSE_NO":"６號","E_COORD97":167601.42000000001,"N_COORD97":2545940.46,"ADDRESS":"文成路７５０巷７弄６號","OBJECTID":77849},"geometry":{"x":167601.41999999993,"y":2545940.4600000009}},{"attributes":{"ID":77850,"DIS_CODE":0,"TOWNNAME":"新營區","LI":"太南里","LIN":"20鄰","STREET":" ","SECT":" ","MAREA":"太子宮","LANE":" ","ALLEY":" ","HOUSE_NO":"３４２之１１號","E_COORD97":176349.57000000001,"N_COORD97":2576994.6499999999,"ADDRESS":"太子宮３４２之１１號","OBJECTID":77850},"geometry":{"x":176349.5700000003,"y":2576994.6500000004}},{"attributes":{"ID":77851,"DIS_CODE":0,"TOWNNAME":"新營區","LI":"太南里","LIN":"20鄰","STREET":" ","SECT":" ","MAREA":"太子宮","LANE":" ","ALLEY":" ","HOUSE_NO":"３４２號之２","E_COORD97":176318.35000000001,"N_COORD97":2576979.29,"ADDRESS":"太子宮３４２號之２","OBJECTID":77851},"geometry":{"x":176318.34999999963,"y":2576979.2900000028}},{"attributes":{"ID":77852,"DIS_CODE":0,"TOWNNAME":"新營區","LI":"埤寮里","LIN":"2鄰","STREET":" ","SECT":" ","MAREA":"許丑","LANE":" ","ALLEY":" ","HOUSE_NO":"２１之３號","E_COORD97":180013.82999999999,"N_COORD97":2580989.1699999999,"ADDRESS":"許丑２１之３號","OBJECTID":77852},"geometry":{"x":180013.83000000101,"y":2580989.1700000018}},{"attributes":{"ID":77853,"DIS_CODE":0,"TOWNNAME":"新營區","LI":"鐵線里","LIN":" ","STREET":" ","SECT":" ","MAREA":"鐵線橋","LANE":" ","ALLEY":" ","HOUSE_NO":"２之３號","E_COORD97":176006.79000000001,"N_COORD97":2574041.6299999999,"ADDRESS":"鐵線橋２之３號","OBJECTID":77853},"geometry":{"x":176006.79000000004,"y":2574041.6300000008}},{"attributes":{"ID":77854,"DIS_CODE":0,"TOWNNAME":"新營區","LI":"太北里","LIN":"20鄰","STREET":" ","SECT":" ","MAREA":"太子宮","LANE":" ","ALLEY":" ","HOUSE_NO":"１４０之８０號","E_COORD97":175221.17000000001,"N_COORD97":2576189.6299999999,"ADDRESS":"太子宮１４０之８０號","OBJECTID":77854},"geometry":{"x":175221.16999999993,"y":2576189.629999999}},{"attributes":{"ID":77855,"DIS_CODE":0,"TOWNNAME":"官田區","LI":"官田里","LIN":"6鄰","STREET":" ","SECT":" ","MAREA":"官田","LANE":" ","ALLEY":" ","HOUSE_NO":"５７號之６","E_COORD97":182675.23999999999,"N_COORD97":2565046.4399999999,"ADDRESS":"官田５７號之６","OBJECTID":77855},"geometry":{"x":182675.24000000209,"y":2565046.4399999995}},{"attributes":{"ID":77856,"DIS_CODE":0,"TOWNNAME":"官田區","LI":"官田里","LIN":"6鄰","STREET":" ","SECT":" ","MAREA":"官田","LANE":" ","ALLEY":" ","HOUSE_NO":"５７號","E_COORD97":182718.10000000001,"N_COORD97":2565063.21,"ADDRESS":"官田５７號","OBJECTID":77856},"geometry":{"x":182718.10000000149,"y":2565063.2100000009}},{"attributes":{"ID":77857,"DIS_CODE":0,"TOWNNAME":"官田區","LI":"官田里","LIN":"6鄰","STREET":" ","SECT":" ","MAREA":"官田","LANE":" ","ALLEY":" ","HOUSE_NO":"５８號之１０","E_COORD97":182744.63,"N_COORD97":2565039.4199999999,"ADDRESS":"官田５８號之１０","OBJECTID":77857},"geometry":{"x":182744.62999999989,"y":2565039.4200000018}},{"attributes":{"ID":77858,"DIS_CODE":0,"TOWNNAME":"官田區","LI":"官田里","LIN":"6鄰","STREET":" ","SECT":" ","MAREA":"官田","LANE":" ","ALLEY":" ","HOUSE_NO":"５８號之１１","E_COORD97":182743.37,"N_COORD97":2565044.6499999999,"ADDRESS":"官田５８號之１１","OBJECTID":77858},"geometry":{"x":182743.37000000011,"y":2565044.6500000022}},{"attributes":{"ID":77859,"DIS_CODE":0,"TOWNNAME":"官田區","LI":"官田里","LIN":"6鄰","STREET":" ","SECT":" ","MAREA":"官田","LANE":" ","ALLEY":" ","HOUSE_NO":"５８號之１２","E_COORD97":182761.60999999999,"N_COORD97":2565043.6400000001,"ADDRESS":"官田５８號之１２","OBJECTID":77859},"geometry":{"x":182761.61000000127,"y":2565043.6400000006}},{"attributes":{"ID":77860,"DIS_CODE":0,"TOWNNAME":"官田區","LI":"官田里","LIN":"6鄰","STREET":" ","SECT":" ","MAREA":"官田","LANE":" ","ALLEY":" ","HOUSE_NO":"５８號之１３","E_COORD97":182760.22,"N_COORD97":2565048.7599999998,"ADDRESS":"官田５８號之１３","OBJECTID":77860},"geometry":{"x":182760.22000000067,"y":2565048.7599999998}},{"attributes":{"ID":77861,"DIS_CODE":0,"TOWNNAME":"官田區","LI":"官田里","LIN":"6鄰","STREET":" ","SECT":" ","MAREA":"官田","LANE":" ","ALLEY":" ","HOUSE_NO":"５８號之１４","E_COORD97":182758.82999999999,"N_COORD97":2565053.8900000001,"ADDRESS":"官田５８號之１４","OBJECTID":77861},"geometry":{"x":182758.83000000007,"y":2565053.8900000025}},{"attributes":{"ID":77862,"DIS_CODE":0,"TOWNNAME":"官田區","LI":"官田里","LIN":"6鄰","STREET":" ","SECT":" ","MAREA":"官田","LANE":" ","ALLEY":" ","HOUSE_NO":"５８號之１５","E_COORD97":182757.44,"N_COORD97":2565059.0099999998,"ADDRESS":"官田５８號之１５","OBJECTID":77862},"geometry":{"x":182757.44000000134,"y":2565059.0100000016}},{"attributes":{"ID":77863,"DIS_CODE":0,"TOWNNAME":"官田區","LI":"官田里","LIN":"6鄰","STREET":" ","SECT":" ","MAREA":"官田","LANE":" ","ALLEY":" ","HOUSE_NO":"５８號之１６","E_COORD97":182756.04999999999,"N_COORD97":2565064.1299999999,"ADDRESS":"官田５８號之１６","OBJECTID":77863},"geometry":{"x":182756.05000000075,"y":2565064.1300000008}},{"attributes":{"ID":77864,"DIS_CODE":0,"TOWNNAME":"官田區","LI":"官田里","LIN":"6鄰","STREET":" ","SECT":" ","MAREA":"官田","LANE":" ","ALLEY":" ","HOUSE_NO":"５８號之１７","E_COORD97":182754.66,"N_COORD97":2565069.25,"ADDRESS":"官田５８號之１７","OBJECTID":77864},"geometry":{"x":182754.66000000015,"y":2565069.25}},{"attributes":{"ID":77865,"DIS_CODE":0,"TOWNNAME":"官田區","LI":"官田里","LIN":"6鄰","STREET":" ","SECT":" ","MAREA":"官田","LANE":" ","ALLEY":" ","HOUSE_NO":"５８號之１８","E_COORD97":182757.51999999999,"N_COORD97":2565078.3900000001,"ADDRESS":"官田５８號之１８","OBJECTID":77865},"geometry":{"x":182757.52000000142,"y":2565078.3900000006}},{"attributes":{"ID":77866,"DIS_CODE":0,"TOWNNAME":"官田區","LI":"官田里","LIN":"6鄰","STREET":" ","SECT":" ","MAREA":"官田","LANE":" ","ALLEY":" ","HOUSE_NO":"５８號之１９","E_COORD97":182755.63,"N_COORD97":2565085.1800000002,"ADDRESS":"官田５８號之１９","OBJECTID":77866},"geometry":{"x":182755.63000000082,"y":2565085.1800000016}},{"attributes":{"ID":77867,"DIS_CODE":0,"TOWNNAME":"官田區","LI":"官田里","LIN":"6鄰","STREET":" ","SECT":" ","MAREA":"官田","LANE":" ","ALLEY":" ","HOUSE_NO":"５８號之２０","E_COORD97":182750.32999999999,"N_COORD97":2565084.1499999999,"ADDRESS":"官田５８號之２０","OBJECTID":77867},"geometry":{"x":182750.33000000007,"y":2565084.1500000004}},{"attributes":{"ID":77868,"DIS_CODE":0,"TOWNNAME":"官田區","LI":"官田里","LIN":"6鄰","STREET":" ","SECT":" ","MAREA":"官田","LANE":" ","ALLEY":" ","HOUSE_NO":"５８號之２１","E_COORD97":182744.81,"N_COORD97":2565082.8199999998,"ADDRESS":"官田５８號之２１","OBJECTID":77868},"geometry":{"x":182744.80999999959,"y":2565082.8200000003}},{"attributes":{"ID":77869,"DIS_CODE":0,"TOWNNAME":"官田區","LI":"官田里","LIN":"6鄰","STREET":" ","SECT":" ","MAREA":"官田","LANE":" ","ALLEY":" ","HOUSE_NO":"５８號之２２","E_COORD97":182739.29999999999,"N_COORD97":2565081.5,"ADDRESS":"官田５８號之２２","OBJECTID":77869},"geometry":{"x":182739.30000000075,"y":2565081.5}},{"attributes":{"ID":77870,"DIS_CODE":0,"TOWNNAME":"官田區","LI":"官田里","LIN":"6鄰","STREET":" ","SECT":" ","MAREA":"官田","LANE":" ","ALLEY":" ","HOUSE_NO":"５８號之２３","E_COORD97":182733.78,"N_COORD97":2565080.1800000002,"ADDRESS":"官田５８號之２３","OBJECTID":77870},"geometry":{"x":182733.78000000026,"y":2565080.1799999978}},{"attributes":{"ID":77871,"DIS_CODE":0,"TOWNNAME":"官田區","LI":"官田里","LIN":"6鄰","STREET":" ","SECT":" ","MAREA":"官田","LANE":" ","ALLEY":" ","HOUSE_NO":"５８號之２４","E_COORD97":182763.73999999999,"N_COORD97":2565033.6299999999,"ADDRESS":"官田５８號之２４","OBJECTID":77871},"geometry":{"x":182763.74000000115,"y":2565033.6300000008}},{"attributes":{"ID":77872,"DIS_CODE":0,"TOWNNAME":"官田區","LI":"官田里","LIN":"6鄰","STREET":" ","SECT":" ","MAREA":"官田","LANE":" ","ALLEY":" ","HOUSE_NO":"５８號之３","E_COORD97":182748.45999999999,"N_COORD97":2565020.02,"ADDRESS":"官田５８號之３","OBJECTID":77872},"geometry":{"x":182748.46000000089,"y":2565020.0199999977}},{"attributes":{"ID":77873,"DIS_CODE":0,"TOWNNAME":"官田區","LI":"官田里","LIN":"6鄰","STREET":" ","SECT":" ","MAREA":"官田","LANE":" ","ALLEY":" ","HOUSE_NO":"５８號之４","E_COORD97":182747.54000000001,"N_COORD97":2565024.1600000001,"ADDRESS":"官田５８號之４","OBJECTID":77873},"geometry":{"x":182747.53999999911,"y":2565024.160000002}},{"attributes":{"ID":77874,"DIS_CODE":0,"TOWNNAME":"官田區","LI":"官田里","LIN":"6鄰","STREET":" ","SECT":" ","MAREA":"官田","LANE":" ","ALLEY":" ","HOUSE_NO":"５８號之５","E_COORD97":182746.63,"N_COORD97":2565028.29,"ADDRESS":"官田５８號之５","OBJECTID":77874},"geometry":{"x":182746.62999999989,"y":2565028.2900000028}},{"attributes":{"ID":77875,"DIS_CODE":0,"TOWNNAME":"北區","LI":"文元里","LIN":"19鄰","STREET":"文成路","SECT":" ","MAREA":" ","LANE":"７５０巷","ALLEY":"７弄","HOUSE_NO":"７號","E_COORD97":167591.23999999999,"N_COORD97":2545931.8100000001,"ADDRESS":"文成路７５０巷７弄７號","OBJECTID":77875},"geometry":{"x":167591.24000000022,"y":2545931.8100000024}},{"attributes":{"ID":77876,"DIS_CODE":0,"TOWNNAME":"北區","LI":"文元里","LIN":"19鄰","STREET":"文成路","SECT":" ","MAREA":" ","LANE":"７５０巷","ALLEY":"７弄","HOUSE_NO":"８號","E_COORD97":167596.34,"N_COORD97":2545942.2200000002,"ADDRESS":"文成路７５０巷７弄８號","OBJECTID":77876},"geometry":{"x":167596.33999999985,"y":2545942.2199999988}},{"attributes":{"ID":77877,"DIS_CODE":0,"TOWNNAME":"北區","LI":"文元里","LIN":"19鄰","STREET":"文成路","SECT":" ","MAREA":" ","LANE":"７５０巷","ALLEY":"７弄","HOUSE_NO":"９號","E_COORD97":167586.35999999999,"N_COORD97":2545929.2599999998,"ADDRESS":"文成路７５０巷７弄９號","OBJECTID":77877},"geometry":{"x":167586.36000000127,"y":2545929.2600000016}},{"attributes":{"ID":77878,"DIS_CODE":0,"TOWNNAME":"北區","LI":"文元里","LIN":"19鄰","STREET":"文成路","SECT":" ","MAREA":" ","LANE":"７５０巷","ALLEY":"４５弄","HOUSE_NO":"１號","E_COORD97":167606.73999999999,"N_COORD97":2546054.8700000001,"ADDRESS":"文成路７５０巷４５弄１號","OBJECTID":77878},"geometry":{"x":167606.74000000209,"y":2546054.8700000029}},{"attributes":{"ID":77879,"DIS_CODE":0,"TOWNNAME":"北區","LI":"文元里","LIN":"19鄰","STREET":"文成路","SECT":" ","MAREA":" ","LANE":"７５０巷","ALLEY":"４５弄","HOUSE_NO":"２號","E_COORD97":167606.62,"N_COORD97":2546064.52,"ADDRESS":"文成路７５０巷４５弄２號","OBJECTID":77879},"geometry":{"x":167606.62000000011,"y":2546064.5200000033}},{"attributes":{"ID":77880,"DIS_CODE":0,"TOWNNAME":"北區","LI":"文元里","LIN":"19鄰","STREET":"文成路","SECT":" ","MAREA":" ","LANE":"７５０巷","ALLEY":"４５弄","HOUSE_NO":"３號","E_COORD97":167602.67999999999,"N_COORD97":2546054.7400000002,"ADDRESS":"文成路７５０巷４５弄３號","OBJECTID":77880},"geometry":{"x":167602.6799999997,"y":2546054.7400000021}},{"attributes":{"ID":77881,"DIS_CODE":0,"TOWNNAME":"北區","LI":"文元里","LIN":"19鄰","STREET":"文成路","SECT":" ","MAREA":" ","LANE":"７５０巷","ALLEY":"４５弄","HOUSE_NO":"５號","E_COORD97":167598.10999999999,"N_COORD97":2546054.8700000001,"ADDRESS":"文成路７５０巷４５弄５號","OBJECTID":77881},"geometry":{"x":167598.11000000127,"y":2546054.8700000029}},{"attributes":{"ID":77882,"DIS_CODE":0,"TOWNNAME":"北區","LI":"文元里","LIN":"19鄰","STREET":"文成路","SECT":" ","MAREA":" ","LANE":"７５０巷","ALLEY":"４５弄","HOUSE_NO":"９號","E_COORD97":167589.60000000001,"N_COORD97":2546054.7400000002,"ADDRESS":"文成路７５０巷４５弄９號","OBJECTID":77882},"geometry":{"x":167589.59999999963,"y":2546054.7400000021}},{"attributes":{"ID":77883,"DIS_CODE":0,"TOWNNAME":"鹽水區","LI":"義稠里","LIN":"7鄰","STREET":" ","SECT":" ","MAREA":"義稠","LANE":" ","ALLEY":" ","HOUSE_NO":"９５號","E_COORD97":173924.73999999999,"N_COORD97":2580719.4700000002,"ADDRESS":"義稠９５號","OBJECTID":77883},"geometry":{"x":173924.74000000209,"y":2580719.4700000044}},{"attributes":{"ID":77884,"DIS_CODE":0,"TOWNNAME":"北區","LI":"文元里","LIN":"19鄰","STREET":"文成路","SECT":" ","MAREA":" ","LANE":"７５０巷","ALLEY":"４５弄","HOUSE_NO":"１１號","E_COORD97":167585.41,"N_COORD97":2546054.8700000001,"ADDRESS":"文成路７５０巷４５弄１１號","OBJECTID":77884},"geometry":{"x":167585.41000000108,"y":2546054.8700000029}},{"attributes":{"ID":77885,"DIS_CODE":0,"TOWNNAME":"左鎮區","LI":"二寮里","LIN":"7鄰","STREET":" ","SECT":" ","MAREA":"二寮","LANE":" ","ALLEY":" ","HOUSE_NO":"６３號之３","E_COORD97":188183.97,"N_COORD97":2545298.2999999998,"ADDRESS":"二寮６３號之３","OBJECTID":77885},"geometry":{"x":188183.96999999974,"y":2545298.3000000026}},{"attributes":{"ID":77886,"DIS_CODE":0,"TOWNNAME":"左鎮區","LI":"二寮里","LIN":"7鄰","STREET":" ","SECT":" ","MAREA":"二寮","LANE":" ","ALLEY":" ","HOUSE_NO":"６２號","E_COORD97":188209.23999999999,"N_COORD97":2544535.25,"ADDRESS":"二寮６２號","OBJECTID":77886},"geometry":{"x":188209.24000000022,"y":2544535.2500000019}},{"attributes":{"ID":77887,"DIS_CODE":0,"TOWNNAME":"左鎮區","LI":"睦光里","LIN":"7鄰","STREET":" ","SECT":" ","MAREA":"睦光","LANE":" ","ALLEY":" ","HOUSE_NO":"７３號","E_COORD97":189740.34,"N_COORD97":2549743.25,"ADDRESS":"睦光７３號","OBJECTID":77887},"geometry":{"x":189740.34000000078,"y":2549743.2500000019}},{"attributes":{"ID":77888,"DIS_CODE":0,"TOWNNAME":"北區","LI":"文元里","LIN":"19鄰","STREET":"文成路","SECT":" ","MAREA":" ","LANE":"７５０巷","ALLEY":"４５弄","HOUSE_NO":"７號","E_COORD97":167593.79000000001,"N_COORD97":2546054.8700000001,"ADDRESS":"文成路７５０巷４５弄７號","OBJECTID":77888},"geometry":{"x":167593.79000000004,"y":2546054.8700000029}},{"attributes":{"ID":77889,"DIS_CODE":0,"TOWNNAME":"北區","LI":"文元里","LIN":"19鄰","STREET":"文成路","SECT":" ","MAREA":" ","LANE":"７５０巷","ALLEY":"４５弄","HOUSE_NO":"１３號","E_COORD97":167581.09,"N_COORD97":2546054.7400000002,"ADDRESS":"文成路７５０巷４５弄１３號","OBJECTID":77889},"geometry":{"x":167581.08999999985,"y":2546054.7400000021}},{"attributes":{"ID":77890,"DIS_CODE":0,"TOWNNAME":"北區","LI":"文元里","LIN":"19鄰","STREET":"文成路","SECT":" ","MAREA":" ","LANE":"７５０巷","ALLEY":"４５弄","HOUSE_NO":"１５號","E_COORD97":167576.64999999999,"N_COORD97":2546055,"ADDRESS":"文成路７５０巷４５弄１５號","OBJECTID":77890},"geometry":{"x":167576.65000000037,"y":2546055.0000000037}},{"attributes":{"ID":77891,"DIS_CODE":0,"TOWNNAME":"柳營區","LI":"中埕里","LIN":"8鄰","STREET":"建興街","SECT":" ","MAREA":" ","LANE":" ","ALLEY":" ","HOUSE_NO":"１６號","E_COORD97":179842.10999999999,"N_COORD97":2575012.8900000001,"ADDRESS":"建興街１６號","OBJECTID":77891},"geometry":{"x":179842.11000000127,"y":2575012.8900000006}},{"attributes":{"ID":77892,"DIS_CODE":0,"TOWNNAME":"左鎮區","LI":"左鎮里","LIN":"7鄰","STREET":" ","SECT":" ","MAREA":"左鎮","LANE":" ","ALLEY":" ","HOUSE_NO":"７２號之３","E_COORD97":188585.10000000001,"N_COORD97":2549618.2999999998,"ADDRESS":"左鎮７２號之３","OBJECTID":77892},"geometry":{"x":188585.10000000149,"y":2549618.3000000026}},{"attributes":{"ID":77893,"DIS_CODE":0,"TOWNNAME":"左鎮區","LI":"二寮里","LIN":"7鄰","STREET":" ","SECT":" ","MAREA":"二寮","LANE":" ","ALLEY":" ","HOUSE_NO":"５９號之３","E_COORD97":188493.87,"N_COORD97":2545041.2999999998,"ADDRESS":"二寮５９號之３","OBJECTID":77893},"geometry":{"x":188493.87000000197,"y":2545041.3000000026}},{"attributes":{"ID":77894,"DIS_CODE":0,"TOWNNAME":"左鎮區","LI":"光和里","LIN":"7鄰","STREET":" ","SECT":" ","MAREA":"光和","LANE":" ","ALLEY":" ","HOUSE_NO":"７１號","E_COORD97":187959.64000000001,"N_COORD97":2550548.25,"ADDRESS":"光和７１號","OBJECTID":77894},"geometry":{"x":187959.6400000006,"y":2550548.25}},{"attributes":{"ID":77895,"DIS_CODE":0,"TOWNNAME":"左鎮區","LI":"光和里","LIN":"7鄰","STREET":" ","SECT":" ","MAREA":"光和","LANE":" ","ALLEY":" ","HOUSE_NO":"６７號之１","E_COORD97":187875.48000000001,"N_COORD97":2550638.2999999998,"ADDRESS":"光和６７號之１","OBJECTID":77895},"geometry":{"x":187875.48000000138,"y":2550638.3000000026}},{"attributes":{"ID":77896,"DIS_CODE":0,"TOWNNAME":"左鎮區","LI":"中正里","LIN":"7鄰","STREET":" ","SECT":" ","MAREA":"中正","LANE":" ","ALLEY":" ","HOUSE_NO":"７９號之７","E_COORD97":189390.48000000001,"N_COORD97":2550997.2999999998,"ADDRESS":"中正７９號之７","OBJECTID":77896},"geometry":{"x":189390.48000000138,"y":2550997.3000000026}},{"attributes":{"ID":77897,"DIS_CODE":0,"TOWNNAME":"左鎮區","LI":"榮和里","LIN":"7鄰","STREET":" ","SECT":" ","MAREA":"菜寮","LANE":" ","ALLEY":" ","HOUSE_NO":"６３號之１９","E_COORD97":187765.01000000001,"N_COORD97":2551058.2999999998,"ADDRESS":"菜寮６３號之１９","OBJECTID":77897},"geometry":{"x":187765.00999999978,"y":2551058.3000000045}},{"attributes":{"ID":77898,"DIS_CODE":0,"TOWNNAME":"左鎮區","LI":"中正里","LIN":"7鄰","STREET":" ","SECT":" ","MAREA":"中正","LANE":" ","ALLEY":" ","HOUSE_NO":"７９號之１４","E_COORD97":189368.26999999999,"N_COORD97":2550998.2999999998,"ADDRESS":"中正７９號之１４","OBJECTID":77898},"geometry":{"x":189368.26999999955,"y":2550998.3000000026}},{"attributes":{"ID":77899,"DIS_CODE":0,"TOWNNAME":"左鎮區","LI":"左鎮里","LIN":"7鄰","STREET":" ","SECT":" ","MAREA":"左鎮","LANE":" ","ALLEY":" ","HOUSE_NO":"７２號","E_COORD97":188592.37,"N_COORD97":2549641.25,"ADDRESS":"左鎮７２號","OBJECTID":77899},"geometry":{"x":188592.37000000104,"y":2549641.2500000019}},{"attributes":{"ID":77900,"DIS_CODE":0,"TOWNNAME":"左鎮區","LI":"榮和里","LIN":"7鄰","STREET":" ","SECT":" ","MAREA":"菜寮","LANE":" ","ALLEY":" ","HOUSE_NO":"６３號之２８","E_COORD97":187734.87,"N_COORD97":2551073.29,"ADDRESS":"菜寮６３號之２８","OBJECTID":77900},"geometry":{"x":187734.87000000104,"y":2551073.2900000028}},{"attributes":{"ID":77901,"DIS_CODE":0,"TOWNNAME":"左鎮區","LI":"左鎮里","LIN":"7鄰","STREET":" ","SECT":" ","MAREA":"左鎮","LANE":" ","ALLEY":" ","HOUSE_NO":"７２號之２","E_COORD97":188547.14000000001,"N_COORD97":2549648.2999999998,"ADDRESS":"左鎮７２號之２","OBJECTID":77901},"geometry":{"x":188547.13999999966,"y":2549648.3000000026}},{"attributes":{"ID":77902,"DIS_CODE":0,"TOWNNAME":"左鎮區","LI":"中正里","LIN":"7鄰","STREET":" ","SECT":" ","MAREA":"中正","LANE":" ","ALLEY":" ","HOUSE_NO":"７７號之１","E_COORD97":189413.10000000001,"N_COORD97":2550963.2999999998,"ADDRESS":"中正７７號之１","OBJECTID":77902},"geometry":{"x":189413.10000000056,"y":2550963.3000000045}},{"attributes":{"ID":77903,"DIS_CODE":0,"TOWNNAME":"左鎮區","LI":"二寮里","LIN":"7鄰","STREET":" ","SECT":" ","MAREA":"二寮","LANE":" ","ALLEY":" ","HOUSE_NO":"６０號之１","E_COORD97":188378.48000000001,"N_COORD97":2545167.2999999998,"ADDRESS":"二寮６０號之１","OBJECTID":77903},"geometry":{"x":188378.48000000138,"y":2545167.3000000007}},{"attributes":{"ID":77904,"DIS_CODE":0,"TOWNNAME":"左鎮區","LI":"澄山里","LIN":"7鄰","STREET":" ","SECT":" ","MAREA":"澄山","LANE":" ","ALLEY":" ","HOUSE_NO":"７２號之１","E_COORD97":187633.63,"N_COORD97":2547359.2999999998,"ADDRESS":"澄山７２號之１","OBJECTID":77904},"geometry":{"x":187633.62999999989,"y":2547359.3000000045}},{"attributes":{"ID":77905,"DIS_CODE":0,"TOWNNAME":"北區","LI":"文元里","LIN":"19鄰","STREET":"文成路","SECT":" ","MAREA":" ","LANE":"７５０巷","ALLEY":"４５弄","HOUSE_NO":"６號","E_COORD97":167602.54999999999,"N_COORD97":2546064.6499999999,"ADDRESS":"文成路７５０巷４５弄６號","OBJECTID":77905},"geometry":{"x":167602.55000000168,"y":2546064.6500000041}},{"attributes":{"ID":77906,"DIS_CODE":0,"TOWNNAME":"北區","LI":"文元里","LIN":"19鄰","STREET":"文成路","SECT":" ","MAREA":" ","LANE":"７５０巷","ALLEY":"４５弄","HOUSE_NO":"８號","E_COORD97":167597.85000000001,"N_COORD97":2546064.7799999998,"ADDRESS":"文成路７５０巷４５弄８號","OBJECTID":77906},"geometry":{"x":167597.84999999963,"y":2546064.7799999993}},{"attributes":{"ID":77907,"DIS_CODE":0,"TOWNNAME":"北區","LI":"文元里","LIN":"19鄰","STREET":"文成路","SECT":" ","MAREA":" ","LANE":"７５０巷","ALLEY":"４５弄","HOUSE_NO":"１０號","E_COORD97":167593.41,"N_COORD97":2546064.6499999999,"ADDRESS":"文成路７５０巷４５弄１０號","OBJECTID":77907},"geometry":{"x":167593.41000000015,"y":2546064.6500000041}},{"attributes":{"ID":77908,"DIS_CODE":0,"TOWNNAME":"左鎮區","LI":"澄山里","LIN":"7鄰","STREET":" ","SECT":" ","MAREA":"澄山","LANE":" ","ALLEY":" ","HOUSE_NO":"７２號","E_COORD97":187785.19,"N_COORD97":2547387.25,"ADDRESS":"澄山７２號","OBJECTID":77908},"geometry":{"x":187785.19000000227,"y":2547387.2500000019}},{"attributes":{"ID":77909,"DIS_CODE":0,"TOWNNAME":"左鎮區","LI":"澄山里","LIN":"7鄰","STREET":" ","SECT":" ","MAREA":"澄山","LANE":" ","ALLEY":" ","HOUSE_NO":"７１號之３","E_COORD97":187548.92999999999,"N_COORD97":2546755.2999999998,"ADDRESS":"澄山７１號之３","OBJECTID":77909},"geometry":{"x":187548.93000000063,"y":2546755.3000000007}},{"attributes":{"ID":77910,"DIS_CODE":0,"TOWNNAME":"左鎮區","LI":"岡林里","LIN":"7鄰","STREET":" ","SECT":" ","MAREA":"岡林","LANE":" ","ALLEY":" ","HOUSE_NO":"７９號","E_COORD97":190200.76000000001,"N_COORD97":2546619.25,"ADDRESS":"岡林７９號","OBJECTID":77910},"geometry":{"x":190200.75999999978,"y":2546619.25}},{"attributes":{"ID":77911,"DIS_CODE":0,"TOWNNAME":"左鎮區","LI":"澄山里","LIN":"7鄰","STREET":" ","SECT":" ","MAREA":"澄山","LANE":" ","ALLEY":" ","HOUSE_NO":"７１號之２","E_COORD97":187527.56,"N_COORD97":2546825.2999999998,"ADDRESS":"澄山７１號之２","OBJECTID":77911},"geometry":{"x":187527.56000000145,"y":2546825.3000000007}},{"attributes":{"ID":77912,"DIS_CODE":0,"TOWNNAME":"新營區","LI":"埤寮里","LIN":"4鄰","STREET":" ","SECT":" ","MAREA":"許丑","LANE":" ","ALLEY":" ","HOUSE_NO":"４５之２６號","E_COORD97":179763.39000000001,"N_COORD97":2580961.5699999998,"ADDRESS":"許丑４５之２６號","OBJECTID":77912},"geometry":{"x":179763.3900000006,"y":2580961.5700000003}},{"attributes":{"ID":77913,"DIS_CODE":0,"TOWNNAME":"官田區","LI":"官田里","LIN":"6鄰","STREET":" ","SECT":" ","MAREA":"官田","LANE":" ","ALLEY":" ","HOUSE_NO":"５８號之６","E_COORD97":182742.10999999999,"N_COORD97":2565049.8700000001,"ADDRESS":"官田５８號之６","OBJECTID":77913},"geometry":{"x":182742.11000000034,"y":2565049.8700000048}},{"attributes":{"ID":77914,"DIS_CODE":0,"TOWNNAME":"官田區","LI":"官田里","LIN":"6鄰","STREET":" ","SECT":" ","MAREA":"官田","LANE":" ","ALLEY":" ","HOUSE_NO":"５８號之７","E_COORD97":182740.85000000001,"N_COORD97":2565055.1000000001,"ADDRESS":"官田５８號之７","OBJECTID":77914},"geometry":{"x":182740.85000000056,"y":2565055.1000000015}},{"attributes":{"ID":77915,"DIS_CODE":0,"TOWNNAME":"官田區","LI":"官田里","LIN":"6鄰","STREET":" ","SECT":" ","MAREA":"官田","LANE":" ","ALLEY":" ","HOUSE_NO":"５８號之８","E_COORD97":182739.59,"N_COORD97":2565060.3300000001,"ADDRESS":"官田５８號之８","OBJECTID":77915},"geometry":{"x":182739.58999999985,"y":2565060.3300000019}},{"attributes":{"ID":77916,"DIS_CODE":0,"TOWNNAME":"官田區","LI":"官田里","LIN":"6鄰","STREET":" ","SECT":" ","MAREA":"官田","LANE":" ","ALLEY":" ","HOUSE_NO":"５８號之９","E_COORD97":182738.32999999999,"N_COORD97":2565065.5499999998,"ADDRESS":"官田５８號之９","OBJECTID":77916},"geometry":{"x":182738.33000000007,"y":2565065.5500000045}},{"attributes":{"ID":77917,"DIS_CODE":0,"TOWNNAME":"官田區","LI":"社子里","LIN":"6鄰","STREET":" ","SECT":" ","MAREA":"社子","LANE":" ","ALLEY":" ","HOUSE_NO":"４１號","E_COORD97":184722.25,"N_COORD97":2564469.6899999999,"ADDRESS":"社子４１號","OBJECTID":77917},"geometry":{"x":184722.25,"y":2564469.6900000032}},{"attributes":{"ID":77918,"DIS_CODE":0,"TOWNNAME":"官田區","LI":"社子里","LIN":"6鄰","STREET":" ","SECT":" ","MAREA":"社子","LANE":" ","ALLEY":" ","HOUSE_NO":"４２號之２","E_COORD97":184724.82999999999,"N_COORD97":2564542.4700000002,"ADDRESS":"社子４２號之２","OBJECTID":77918},"geometry":{"x":184724.83000000101,"y":2564542.4700000007}},{"attributes":{"ID":77919,"DIS_CODE":0,"TOWNNAME":"官田區","LI":"社子里","LIN":"6鄰","STREET":" ","SECT":" ","MAREA":"社子","LANE":" ","ALLEY":" ","HOUSE_NO":"４２號之４","E_COORD97":184697.76999999999,"N_COORD97":2564528.9100000001,"ADDRESS":"社子４２號之４","OBJECTID":77919},"geometry":{"x":184697.76999999955,"y":2564528.9100000001}},{"attributes":{"ID":77920,"DIS_CODE":0,"TOWNNAME":"新化區","LI":"唪口里","LIN":"6鄰","STREET":" ","SECT":" ","MAREA":"唪口","LANE":" ","ALLEY":" ","HOUSE_NO":"８２號","E_COORD97":178020.29999999999,"N_COORD97":2549076.25,"ADDRESS":"唪口８２號","OBJECTID":77920},"geometry":{"x":178020.29999999981,"y":2549076.25}},{"attributes":{"ID":77921,"DIS_CODE":0,"TOWNNAME":"新化區","LI":"知義里","LIN":"6鄰","STREET":" ","SECT":" ","MAREA":"新和庄","LANE":" ","ALLEY":" ","HOUSE_NO":"４３號","E_COORD97":181354.39835100001,"N_COORD97":2546551.807,"ADDRESS":"新和庄４３號","OBJECTID":77921},"geometry":{"x":181354.39835100062,"y":2546551.8070049994}},{"attributes":{"ID":77922,"DIS_CODE":0,"TOWNNAME":"新化區","LI":"山\u25A0里","LIN":"6鄰","STREET":" ","SECT":" ","MAREA":"頂山\u25A0","LANE":" ","ALLEY":" ","HOUSE_NO":"１３９號","E_COORD97":179657.92999999999,"N_COORD97":2546782.25,"ADDRESS":"頂山\u25A0１３９號","OBJECTID":77922},"geometry":{"x":179657.93000000063,"y":2546782.2500000037}},{"attributes":{"ID":77923,"DIS_CODE":0,"TOWNNAME":"新化區","LI":"羊林里","LIN":"6鄰","STREET":" ","SECT":" ","MAREA":"\u25A0拔林","LANE":" ","ALLEY":" ","HOUSE_NO":"５０１號之８","E_COORD97":183552.78,"N_COORD97":2551650.2599999998,"ADDRESS":"\u25A0拔林５０１號之８","OBJECTID":77923},"geometry":{"x":183552.78000000026,"y":2551650.2599999998}},{"attributes":{"ID":77924,"DIS_CODE":0,"TOWNNAME":"新化區","LI":"唪口里","LIN":"6鄰","STREET":" ","SECT":" ","MAREA":"唪口","LANE":" ","ALLEY":" ","HOUSE_NO":"７３號之１","E_COORD97":178031.73000000001,"N_COORD97":2549025.2599999998,"ADDRESS":"唪口７３號之１","OBJECTID":77924},"geometry":{"x":178031.73000000045,"y":2549025.2599999998}},{"attributes":{"ID":77925,"DIS_CODE":0,"TOWNNAME":"新化區","LI":"羊林里","LIN":"6鄰","STREET":" ","SECT":" ","MAREA":"\u25A0拔林","LANE":" ","ALLEY":" ","HOUSE_NO":"４８０號之１","E_COORD97":183518.35000000001,"N_COORD97":2551692.2599999998,"ADDRESS":"\u25A0拔林４８０號之１","OBJECTID":77925},"geometry":{"x":183518.35000000056,"y":2551692.2600000016}},{"attributes":{"ID":77926,"DIS_CODE":0,"TOWNNAME":"新化區","LI":"北勢里","LIN":"6鄰","STREET":" ","SECT":" ","MAREA":"北勢","LANE":" ","ALLEY":" ","HOUSE_NO":"１１３號之１５","E_COORD97":176860.78,"N_COORD97":2550290.75,"ADDRESS":"北勢１１３號之１５","OBJECTID":77926},"geometry":{"x":176860.78000000119,"y":2550290.75}},{"attributes":{"ID":77927,"DIS_CODE":0,"TOWNNAME":"新化區","LI":"北勢里","LIN":"6鄰","STREET":" ","SECT":" ","MAREA":"北勢","LANE":" ","ALLEY":" ","HOUSE_NO":"１３３號之１０２","E_COORD97":177476.260805,"N_COORD97":2550030.9577100002,"ADDRESS":"北勢１３３號之１０２","OBJECTID":77927},"geometry":{"x":177476.26080500055,"y":2550030.9577060025}},{"attributes":{"ID":77928,"DIS_CODE":0,"TOWNNAME":"新化區","LI":"知義里","LIN":"6鄰","STREET":" ","SECT":" ","MAREA":"新和庄","LANE":" ","ALLEY":" ","HOUSE_NO":"１０號","E_COORD97":181116.79999999999,"N_COORD97":2546927.3300000001,"ADDRESS":"新和庄１０號","OBJECTID":77928},"geometry":{"x":181116.80000000075,"y":2546927.3300000001}},{"attributes":{"ID":77929,"DIS_CODE":0,"TOWNNAME":"新化區","LI":"豐榮里","LIN":"6鄰","STREET":" ","SECT":" ","MAREA":"洋子","LANE":" ","ALLEY":" ","HOUSE_NO":"１３０號之１","E_COORD97":177893.01000000001,"N_COORD97":2548189.8199999998,"ADDRESS":"洋子１３０號之１","OBJECTID":77929},"geometry":{"x":177893.01000000071,"y":2548189.8200000022}},{"attributes":{"ID":77930,"DIS_CODE":0,"TOWNNAME":"善化區","LI":"嘉北里","LIN":"6鄰","STREET":" ","SECT":" ","MAREA":"茄拔","LANE":" ","ALLEY":" ","HOUSE_NO":"１６４號之６","E_COORD97":181021.95999999999,"N_COORD97":2559852.52,"ADDRESS":"茄拔１６４號之６","OBJECTID":77930},"geometry":{"x":181021.95999999996,"y":2559852.5199999996}},{"attributes":{"ID":77931,"DIS_CODE":0,"TOWNNAME":"善化區","LI":"六德里","LIN":"6鄰","STREET":" ","SECT":" ","MAREA":"六分寮","LANE":" ","ALLEY":" ","HOUSE_NO":"２４４號","E_COORD97":178798.91,"N_COORD97":2561703,"ADDRESS":"六分寮２４４號","OBJECTID":77931},"geometry":{"x":178798.91000000201,"y":2561703.0000000019}},{"attributes":{"ID":77932,"DIS_CODE":0,"TOWNNAME":"善化區","LI":"田寮里","LIN":"6鄰","STREET":" ","SECT":" ","MAREA":"六分寮","LANE":" ","ALLEY":" ","HOUSE_NO":"６９號","E_COORD97":178445.41,"N_COORD97":2561305.75,"ADDRESS":"六分寮６９號","OBJECTID":77932},"geometry":{"x":178445.41000000015,"y":2561305.75}},{"attributes":{"ID":77933,"DIS_CODE":0,"TOWNNAME":"善化區","LI":"胡家里","LIN":"6鄰","STREET":" ","SECT":" ","MAREA":"胡厝寮","LANE":" ","ALLEY":" ","HOUSE_NO":"５１號之２","E_COORD97":175422.13,"N_COORD97":2560593.77,"ADDRESS":"胡厝寮５１號之２","OBJECTID":77933},"geometry":{"x":175422.13000000082,"y":2560593.7699999996}},{"attributes":{"ID":77934,"DIS_CODE":0,"TOWNNAME":"善化區","LI":"嘉北里","LIN":"6鄰","STREET":" ","SECT":" ","MAREA":"茄拔","LANE":" ","ALLEY":" ","HOUSE_NO":"１６０號之１","E_COORD97":181062.31,"N_COORD97":2559815.02,"ADDRESS":"茄拔１６０號之１","OBJECTID":77934},"geometry":{"x":181062.31000000052,"y":2559815.0199999996}},{"attributes":{"ID":77935,"DIS_CODE":0,"TOWNNAME":"善化區","LI":"田寮里","LIN":"6鄰","STREET":" ","SECT":" ","MAREA":"六分寮","LANE":" ","ALLEY":" ","HOUSE_NO":"８３號","E_COORD97":178520.76000000001,"N_COORD97":2561288.75,"ADDRESS":"六分寮８３號","OBJECTID":77935},"geometry":{"x":178520.75999999978,"y":2561288.75}},{"attributes":{"ID":77936,"DIS_CODE":0,"TOWNNAME":"善化區","LI":"光文里","LIN":"6鄰","STREET":" ","SECT":" ","MAREA":"北子店","LANE":" ","ALLEY":" ","HOUSE_NO":"３３２號","E_COORD97":179122.79000000001,"N_COORD97":2559468.25,"ADDRESS":"北子店３３２號","OBJECTID":77936},"geometry":{"x":179122.79000000004,"y":2559468.25}},{"attributes":{"ID":77937,"DIS_CODE":0,"TOWNNAME":"北區","LI":"文元里","LIN":"19鄰","STREET":"文成路","SECT":" ","MAREA":" ","LANE":"７５０巷","ALLEY":"４５弄","HOUSE_NO":"１２號","E_COORD97":167589.09,"N_COORD97":2546064.6499999999,"ADDRESS":"文成路７５０巷４５弄１２號","OBJECTID":77937},"geometry":{"x":167589.09000000078,"y":2546064.6500000041}},{"attributes":{"ID":77938,"DIS_CODE":0,"TOWNNAME":"北區","LI":"文元里","LIN":"19鄰","STREET":"文成路","SECT":" ","MAREA":" ","LANE":"７５０巷","ALLEY":"４５弄","HOUSE_NO":"１６號","E_COORD97":167585.14999999999,"N_COORD97":2546064.52,"ADDRESS":"文成路７５０巷４５弄１６號","OBJECTID":77938},"geometry":{"x":167585.15000000037,"y":2546064.5200000033}},{"attributes":{"ID":77939,"DIS_CODE":0,"TOWNNAME":"北區","LI":"文元里","LIN":"19鄰","STREET":"文成路","SECT":" ","MAREA":" ","LANE":"７５０巷","ALLEY":"４５弄","HOUSE_NO":"１８號","E_COORD97":167581.09,"N_COORD97":2546064.3999999999,"ADDRESS":"文成路７５０巷４５弄１８號","OBJECTID":77939},"geometry":{"x":167581.08999999985,"y":2546064.4000000022}},{"attributes":{"ID":77940,"DIS_CODE":0,"TOWNNAME":"北區","LI":"文元里","LIN":"19鄰","STREET":"文成路","SECT":" ","MAREA":" ","LANE":"７５０巷","ALLEY":"４５弄","HOUSE_NO":"２０號","E_COORD97":167576.51999999999,"N_COORD97":2546064.3999999999,"ADDRESS":"文成路７５０巷４５弄２０號","OBJECTID":77940},"geometry":{"x":167576.51999999955,"y":2546064.4000000022}},{"attributes":{"ID":77941,"DIS_CODE":0,"TOWNNAME":"善化區","LI":"田寮里","LIN":"6鄰","STREET":" ","SECT":" ","MAREA":"六分寮","LANE":" ","ALLEY":" ","HOUSE_NO":"６８號","E_COORD97":178462.76000000001,"N_COORD97":2561310.75,"ADDRESS":"六分寮６８號","OBJECTID":77941},"geometry":{"x":178462.76000000071,"y":2561310.7500000019}},{"attributes":{"ID":77942,"DIS_CODE":0,"TOWNNAME":"後壁區","LI":"後部里","LIN":"1鄰","STREET":" ","SECT":" ","MAREA":"後部","LANE":" ","ALLEY":" ","HOUSE_NO":"５號","E_COORD97":182175.35999999999,"N_COORD97":2586773.9700000002,"ADDRESS":"後部５號","OBJECTID":77942},"geometry":{"x":182175.36000000034,"y":2586773.9700000007}},{"attributes":{"ID":77943,"DIS_CODE":0,"TOWNNAME":"善化區","LI":"六分里","LIN":"6鄰","STREET":" ","SECT":" ","MAREA":"東勢宅","LANE":" ","ALLEY":" ","HOUSE_NO":"４４號","E_COORD97":177672.91,"N_COORD97":2560998.5099999998,"ADDRESS":"東勢宅４４號","OBJECTID":77943},"geometry":{"x":177672.91000000015,"y":2560998.5099999998}},{"attributes":{"ID":77944,"DIS_CODE":0,"TOWNNAME":"善化區","LI":"嘉北里","LIN":"6鄰","STREET":" ","SECT":" ","MAREA":"茄拔","LANE":" ","ALLEY":" ","HOUSE_NO":"１６２號","E_COORD97":181028.42000000001,"N_COORD97":2559810.2599999998,"ADDRESS":"茄拔１６２號","OBJECTID":77944},"geometry":{"x":181028.42000000086,"y":2559810.2599999998}},{"attributes":{"ID":77945,"DIS_CODE":0,"TOWNNAME":"善化區","LI":"光文里","LIN":"6鄰","STREET":" ","SECT":" ","MAREA":"北子店","LANE":" ","ALLEY":" ","HOUSE_NO":"３３８號","E_COORD97":179185.32000000001,"N_COORD97":2559469,"ADDRESS":"北子店３３８號","OBJECTID":77945},"geometry":{"x":179185.3200000003,"y":2559469.0000000019}},{"attributes":{"ID":77946,"DIS_CODE":0,"TOWNNAME":"善化區","LI":"田寮里","LIN":"6鄰","STREET":" ","SECT":" ","MAREA":"六分寮","LANE":" ","ALLEY":" ","HOUSE_NO":"８１號之１","E_COORD97":178490.91,"N_COORD97":2561311.27,"ADDRESS":"六分寮８１號之１","OBJECTID":77946},"geometry":{"x":178490.91000000108,"y":2561311.2699999996}},{"attributes":{"ID":77947,"DIS_CODE":0,"TOWNNAME":"善化區","LI":"牛庄里","LIN":"6鄰","STREET":" ","SECT":" ","MAREA":"牛庄","LANE":" ","ALLEY":" ","HOUSE_NO":"６６號","E_COORD97":180209.63,"N_COORD97":2560013.5,"ADDRESS":"牛庄６６號","OBJECTID":77947},"geometry":{"x":180209.63000000082,"y":2560013.5000000037}},{"attributes":{"ID":77948,"DIS_CODE":0,"TOWNNAME":"麻豆區","LI":"油車里","LIN":"7鄰","STREET":" ","SECT":" ","MAREA":"油車","LANE":" ","ALLEY":" ","HOUSE_NO":"２１號","E_COORD97":172732.35000000001,"N_COORD97":2565447.1499999999,"ADDRESS":"油車２１號","OBJECTID":77948},"geometry":{"x":172732.35000000056,"y":2565447.1500000004}},{"attributes":{"ID":77949,"DIS_CODE":0,"TOWNNAME":"新營區","LI":"埤寮里","LIN":"7鄰","STREET":" ","SECT":" ","MAREA":"埤寮","LANE":" ","ALLEY":" ","HOUSE_NO":"２９號","E_COORD97":180434.51000000001,"N_COORD97":2580943.9399999999,"ADDRESS":"埤寮２９號","OBJECTID":77949},"geometry":{"x":180434.50999999978,"y":2580943.9399999995}},{"attributes":{"ID":77950,"DIS_CODE":0,"TOWNNAME":"新營區","LI":"護鎮里","LIN":" ","STREET":" ","SECT":" ","MAREA":"後鎮","LANE":" ","ALLEY":" ","HOUSE_NO":"６２之１４號","E_COORD97":179041.42000000001,"N_COORD97":2581202.0099999998,"ADDRESS":"後鎮６２之１４號","OBJECTID":77950},"geometry":{"x":179041.42000000086,"y":2581202.0099999998}},{"attributes":{"ID":77951,"DIS_CODE":0,"TOWNNAME":"北區","LI":"文成里","LIN":"19鄰","STREET":"文賢路","SECT":" ","MAREA":" ","LANE":"２４２巷","ALLEY":"７２弄","HOUSE_NO":"９號","E_COORD97":167547.85000000001,"N_COORD97":2545027.0299999998,"ADDRESS":"文賢路２４２巷７２弄９號","OBJECTID":77951},"geometry":{"x":167547.85000000149,"y":2545027.0300000031}},{"attributes":{"ID":77952,"DIS_CODE":0,"TOWNNAME":"北區","LI":"文成里","LIN":"19鄰","STREET":"文賢路","SECT":" ","MAREA":" ","LANE":"２４２巷","ALLEY":"７２弄","HOUSE_NO":"１１號","E_COORD97":167546.70000000001,"N_COORD97":2545019.2799999998,"ADDRESS":"文賢路２４２巷７２弄１１號","OBJECTID":77952},"geometry":{"x":167546.70000000112,"y":2545019.2800000012}},{"attributes":{"ID":77953,"DIS_CODE":0,"TOWNNAME":"北區","LI":"成功里","LIN":"19鄰","STREET":"北成路","SECT":" ","MAREA":" ","LANE":"１２８巷","ALLEY":"４５弄","HOUSE_NO":"２２號","E_COORD97":168885.98999999999,"N_COORD97":2546857.1299999999,"ADDRESS":"北成路１２８巷４５弄２２號","OBJECTID":77953},"geometry":{"x":168885.99000000022,"y":2546857.1300000008}},{"attributes":{"ID":77954,"DIS_CODE":0,"TOWNNAME":"南區","LI":"國宅里","LIN":"19鄰","STREET":"新興路","SECT":" ","MAREA":" ","LANE":"４１８巷","ALLEY":"１７弄","HOUSE_NO":"１２號","E_COORD97":166650.89999999999,"N_COORD97":2541875.0899999999,"ADDRESS":"新興路４１８巷１７弄１２號","OBJECTID":77954},"geometry":{"x":166650.90000000037,"y":2541875.0900000017}},{"attributes":{"ID":77955,"DIS_CODE":0,"TOWNNAME":"南區","LI":"國宅里","LIN":"19鄰","STREET":"新興路","SECT":" ","MAREA":" ","LANE":"４１８巷","ALLEY":"１７弄","HOUSE_NO":"１４號","E_COORD97":166637.60999999999,"N_COORD97":2541873.9399999999,"ADDRESS":"新興路４１８巷１７弄１４號","OBJECTID":77955},"geometry":{"x":166637.61000000034,"y":2541873.9399999995}},{"attributes":{"ID":77956,"DIS_CODE":0,"TOWNNAME":"南區","LI":"國宅里","LIN":"19鄰","STREET":"新興路","SECT":" ","MAREA":" ","LANE":"４１８巷","ALLEY":"１７弄","HOUSE_NO":"２１號","E_COORD97":166618.60000000001,"N_COORD97":2541859.2999999998,"ADDRESS":"新興路４１８巷１７弄２１號","OBJECTID":77956},"geometry":{"x":166618.59999999963,"y":2541859.3000000007}},{"attributes":{"ID":77957,"DIS_CODE":0,"TOWNNAME":"南區","LI":"國宅里","LIN":"19鄰","STREET":"新興路","SECT":" ","MAREA":" ","LANE":"４１８巷","ALLEY":"１７弄","HOUSE_NO":"２３號","E_COORD97":166610.35000000001,"N_COORD97":2541860.8999999999,"ADDRESS":"新興路４１８巷１７弄２３號","OBJECTID":77957},"geometry":{"x":166610.35000000149,"y":2541860.9000000004}},{"attributes":{"ID":77958,"DIS_CODE":0,"TOWNNAME":"南區","LI":"國宅里","LIN":"19鄰","STREET":"新興路","SECT":" ","MAREA":" ","LANE":"４１８巷","ALLEY":"３弄","HOUSE_NO":"２２號","E_COORD97":166618.37,"N_COORD97":2541845.5699999998,"ADDRESS":"新興路４１８巷３弄２２號","OBJECTID":77958},"geometry":{"x":166618.37000000011,"y":2541845.5700000022}},{"attributes":{"ID":77959,"DIS_CODE":0,"TOWNNAME":"南區","LI":"國宅里","LIN":"19鄰","STREET":"新興路","SECT":" ","MAREA":" ","LANE":"４１８巷","ALLEY":"３弄","HOUSE_NO":"２４號","E_COORD97":166611.95000000001,"N_COORD97":2541846.7200000002,"ADDRESS":"新興路４１８巷３弄２４號","OBJECTID":77959},"geometry":{"x":166611.95000000205,"y":2541846.7200000044}},{"attributes":{"ID":77960,"DIS_CODE":0,"TOWNNAME":"南區","LI":"國宅里","LIN":"19鄰","STREET":"新興路","SECT":" ","MAREA":" ","LANE":"４１８巷","ALLEY":"３弄","HOUSE_NO":"２６號","E_COORD97":166604.16,"N_COORD97":2541846.0299999998,"ADDRESS":"新興路４１８巷３弄２６號","OBJECTID":77960},"geometry":{"x":166604.16000000108,"y":2541846.0299999993}},{"attributes":{"ID":77961,"DIS_CODE":0,"TOWNNAME":"南區","LI":"國宅里","LIN":"19鄰","STREET":"新興路","SECT":" ","MAREA":" ","LANE":"４１８巷","ALLEY":"３弄","HOUSE_NO":"２９號","E_COORD97":166610.25,"N_COORD97":2541829.4300000002,"ADDRESS":"新興路４１８巷３弄２９號","OBJECTID":77961},"geometry":{"x":166610.25000000093,"y":2541829.4299999997}},{"attributes":{"ID":77962,"DIS_CODE":0,"TOWNNAME":"南區","LI":"國宅里","LIN":"19鄰","STREET":"新興路","SECT":" ","MAREA":" ","LANE":"４１８巷","ALLEY":"３弄","HOUSE_NO":"３１號","E_COORD97":166602.82999999999,"N_COORD97":2541829.6699999999,"ADDRESS":"新興路４１８巷３弄３１號","OBJECTID":77962},"geometry":{"x":166602.83000000101,"y":2541829.6700000037}},{"attributes":{"ID":77963,"DIS_CODE":0,"TOWNNAME":"南區","LI":"國宅里","LIN":"19鄰","STREET":"新興路","SECT":" ","MAREA":" ","LANE":"４１８巷","ALLEY":"３弄","HOUSE_NO":"３３號","E_COORD97":166596.14999999999,"N_COORD97":2541829.9199999999,"ADDRESS":"新興路４１８巷３弄３３號","OBJECTID":77963},"geometry":{"x":166596.1500000013,"y":2541829.9199999999}},{"attributes":{"ID":77964,"DIS_CODE":0,"TOWNNAME":"北區","LI":"文元里","LIN":"19鄰","STREET":"文賢路","SECT":" ","MAREA":" ","LANE":"１０３０巷","ALLEY":"６６弄","HOUSE_NO":"８號","E_COORD97":167536.17999999999,"N_COORD97":2546024.4399999999,"ADDRESS":"文賢路１０３０巷６６弄８號","OBJECTID":77964},"geometry":{"x":167536.18000000063,"y":2546024.4400000032}},{"attributes":{"ID":77965,"DIS_CODE":0,"TOWNNAME":"北區","LI":"文元里","LIN":"19鄰","STREET":"文賢路","SECT":" ","MAREA":" ","LANE":"１０３０巷","ALLEY":"４８弄","HOUSE_NO":"９號","E_COORD97":167513.91,"N_COORD97":2546022.8399999999,"ADDRESS":"文賢路１０３０巷４８弄９號","OBJECTID":77965},"geometry":{"x":167513.91000000201,"y":2546022.8400000017}},{"attributes":{"ID":77966,"DIS_CODE":0,"TOWNNAME":"安平區","LI":"文平里","LIN":"7鄰","STREET":"建平七街","SECT":" ","MAREA":" ","LANE":" ","ALLEY":" ","HOUSE_NO":"８６號","E_COORD97":166248.70000000001,"N_COORD97":2543250.75,"ADDRESS":"建平七街８６號","OBJECTID":77966},"geometry":{"x":166248.70000000019,"y":2543250.7500000019}},{"attributes":{"ID":77967,"DIS_CODE":0,"TOWNNAME":"安平區","LI":"文平里","LIN":"7鄰","STREET":"建平七街","SECT":" ","MAREA":" ","LANE":" ","ALLEY":" ","HOUSE_NO":"８８號","E_COORD97":166243.89999999999,"N_COORD97":2543250.8700000001,"ADDRESS":"建平七街８８號","OBJECTID":77967},"geometry":{"x":166243.90000000037,"y":2543250.8700000029}},{"attributes":{"ID":77968,"DIS_CODE":0,"TOWNNAME":"安平區","LI":"文平里","LIN":"7鄰","STREET":"建平七街","SECT":" ","MAREA":" ","LANE":" ","ALLEY":" ","HOUSE_NO":"９０號","E_COORD97":166240.16,"N_COORD97":2543251.2200000002,"ADDRESS":"建平七街９０號","OBJECTID":77968},"geometry":{"x":166240.16000000015,"y":2543251.2200000025}},{"attributes":{"ID":77969,"DIS_CODE":0,"TOWNNAME":"安平區","LI":"文平里","LIN":"7鄰","STREET":"建平七街","SECT":" ","MAREA":" ","LANE":" ","ALLEY":" ","HOUSE_NO":"９２號","E_COORD97":166234.78,"N_COORD97":2543251.7999999998,"ADDRESS":"建平七街９２號","OBJECTID":77969},"geometry":{"x":166234.78000000026,"y":2543251.8000000007}},{"attributes":{"ID":77970,"DIS_CODE":0,"TOWNNAME":"新營區","LI":"太北里","LIN":"20鄰","STREET":" ","SECT":" ","MAREA":"太子宮","LANE":" ","ALLEY":" ","HOUSE_NO":"１４０之４９號","E_COORD97":175149.47,"N_COORD97":2576376.0499999998,"ADDRESS":"太子宮１４０之４９號","OBJECTID":77970},"geometry":{"x":175149.46999999974,"y":2576376.0500000026}},{"attributes":{"ID":77971,"DIS_CODE":0,"TOWNNAME":"善化區","LI":"牛庄里","LIN":"6鄰","STREET":" ","SECT":" ","MAREA":"牛庄","LANE":" ","ALLEY":" ","HOUSE_NO":"６９號之１","E_COORD97":180185.41,"N_COORD97":2560100.77,"ADDRESS":"牛庄６９號之１","OBJECTID":77971},"geometry":{"x":180185.40999999922,"y":2560100.7700000014}},{"attributes":{"ID":77972,"DIS_CODE":0,"TOWNNAME":"善化區","LI":"六分里","LIN":"6鄰","STREET":" ","SECT":" ","MAREA":"東勢宅","LANE":" ","ALLEY":" ","HOUSE_NO":"４５號","E_COORD97":177664.76999999999,"N_COORD97":2561031.2599999998,"ADDRESS":"東勢宅４５號","OBJECTID":77972},"geometry":{"x":177664.76999999955,"y":2561031.2599999998}},{"attributes":{"ID":77973,"DIS_CODE":0,"TOWNNAME":"善化區","LI":"光文里","LIN":"6鄰","STREET":" ","SECT":" ","MAREA":"北子店","LANE":" ","ALLEY":" ","HOUSE_NO":"２４８號之２","E_COORD97":179179.79999999999,"N_COORD97":2559567.52,"ADDRESS":"北子店２４８號之２","OBJECTID":77973},"geometry":{"x":179179.79999999981,"y":2559567.5199999996}},{"attributes":{"ID":77974,"DIS_CODE":0,"TOWNNAME":"善化區","LI":"光文里","LIN":"6鄰","STREET":" ","SECT":" ","MAREA":"北子店","LANE":" ","ALLEY":" ","HOUSE_NO":"２５４號之５","E_COORD97":179129.54000000001,"N_COORD97":2559551.02,"ADDRESS":"北子店２５４號之５","OBJECTID":77974},"geometry":{"x":179129.54000000004,"y":2559551.0199999996}},{"attributes":{"ID":77975,"DIS_CODE":0,"TOWNNAME":"善化區","LI":"東隆里","LIN":"6鄰","STREET":" ","SECT":" ","MAREA":"東勢寮","LANE":" ","ALLEY":" ","HOUSE_NO":"１８３號","E_COORD97":180037.79999999999,"N_COORD97":2561796.5099999998,"ADDRESS":"東勢寮１８３號","OBJECTID":77975},"geometry":{"x":180037.79999999981,"y":2561796.5100000035}},{"attributes":{"ID":77976,"DIS_CODE":0,"TOWNNAME":"新營區","LI":"太南里","LIN":"19鄰","STREET":" ","SECT":" ","MAREA":"太子宮","LANE":" ","ALLEY":" ","HOUSE_NO":"３１３之１０號","E_COORD97":175906.04000000001,"N_COORD97":2576674.5899999999,"ADDRESS":"太子宮３１３之１０號","OBJECTID":77976},"geometry":{"x":175906.04000000097,"y":2576674.5899999999}},{"attributes":{"ID":77977,"DIS_CODE":0,"TOWNNAME":"東區","LI":"富強里","LIN":"19鄰","STREET":"裕農路","SECT":" ","MAREA":" ","LANE":"２８８巷","ALLEY":"１１０弄","HOUSE_NO":"４號三樓","E_COORD97":170991.19,"N_COORD97":2542918.9399999999,"ADDRESS":"裕農路２８８巷１１０弄４號三樓","OBJECTID":77977},"geometry":{"x":170991.19000000134,"y":2542918.9400000032}},{"attributes":{"ID":77978,"DIS_CODE":0,"TOWNNAME":"東區","LI":"富強里","LIN":"19鄰","STREET":"裕農路","SECT":" ","MAREA":" ","LANE":"２８８巷","ALLEY":"１１０弄","HOUSE_NO":"４號三樓之１","E_COORD97":170991.19,"N_COORD97":2542918.9399999999,"ADDRESS":"裕農路２８８巷１１０弄４號三樓之１","OBJECTID":77978},"geometry":{"x":170991.19000000134,"y":2542918.9400000032}},{"attributes":{"ID":77979,"DIS_CODE":0,"TOWNNAME":"東區","LI":"富強里","LIN":"19鄰","STREET":"裕農路","SECT":" ","MAREA":" ","LANE":"２８８巷","ALLEY":"１１０弄","HOUSE_NO":"４號五樓之２","E_COORD97":170991.19,"N_COORD97":2542918.9399999999,"ADDRESS":"裕農路２８８巷１１０弄４號五樓之２","OBJECTID":77979},"geometry":{"x":170991.19000000134,"y":2542918.9400000032}},{"attributes":{"ID":77980,"DIS_CODE":0,"TOWNNAME":"東區","LI":"富強里","LIN":"19鄰","STREET":"裕農路","SECT":" ","MAREA":" ","LANE":"２８８巷","ALLEY":"１１０弄","HOUSE_NO":"４號四樓之１","E_COORD97":170991.19,"N_COORD97":2542918.9399999999,"ADDRESS":"裕農路２８８巷１１０弄４號四樓之１","OBJECTID":77980},"geometry":{"x":170991.19000000134,"y":2542918.9400000032}},{"attributes":{"ID":77981,"DIS_CODE":0,"TOWNNAME":"東區","LI":"富強里","LIN":"19鄰","STREET":"裕農路","SECT":" ","MAREA":" ","LANE":"２８８巷","ALLEY":"１１０弄","HOUSE_NO":"４號四樓之２","E_COORD97":170991.19,"N_COORD97":2542918.9399999999,"ADDRESS":"裕農路２８８巷１１０弄４號四樓之２","OBJECTID":77981},"geometry":{"x":170991.19000000134,"y":2542918.9400000032}},{"attributes":{"ID":77982,"DIS_CODE":0,"TOWNNAME":"東區","LI":"富強里","LIN":"19鄰","STREET":"裕農路","SECT":" ","MAREA":" ","LANE":"２８８巷","ALLEY":"１１０弄","HOUSE_NO":"４號五樓之１","E_COORD97":170991.19,"N_COORD97":2542918.9399999999,"ADDRESS":"裕農路２８８巷１１０弄４號五樓之１","OBJECTID":77982},"geometry":{"x":170991.19000000134,"y":2542918.9400000032}},{"attributes":{"ID":77983,"DIS_CODE":0,"TOWNNAME":"東區","LI":"富強里","LIN":"19鄰","STREET":"裕農路","SECT":" ","MAREA":" ","LANE":"２８８巷","ALLEY":"１１０弄","HOUSE_NO":"２號三樓","E_COORD97":170990.81,"N_COORD97":2542924.73,"ADDRESS":"裕農路２８８巷１１０弄２號三樓","OBJECTID":77983},"geometry":{"x":170990.80999999866,"y":2542924.7300000042}},{"attributes":{"ID":77984,"DIS_CODE":0,"TOWNNAME":"東區","LI":"富強里","LIN":"19鄰","STREET":"裕農路","SECT":" ","MAREA":" ","LANE":"２８８巷","ALLEY":"１１０弄","HOUSE_NO":"２號四樓","E_COORD97":170990.81,"N_COORD97":2542924.73,"ADDRESS":"裕農路２８８巷１１０弄２號四樓","OBJECTID":77984},"geometry":{"x":170990.80999999866,"y":2542924.7300000042}},{"attributes":{"ID":77985,"DIS_CODE":0,"TOWNNAME":"新營區","LI":"太北里","LIN":"4鄰","STREET":" ","SECT":" ","MAREA":"太子宮","LANE":" ","ALLEY":" ","HOUSE_NO":"２９之３號","E_COORD97":175975.82999999999,"N_COORD97":2577223.52,"ADDRESS":"太子宮２９之３號","OBJECTID":77985},"geometry":{"x":175975.83000000101,"y":2577223.5200000014}},{"attributes":{"ID":77986,"DIS_CODE":0,"TOWNNAME":"善化區","LI":"光文里","LIN":"6鄰","STREET":" ","SECT":" ","MAREA":"北子店","LANE":" ","ALLEY":" ","HOUSE_NO":"２５６號之１","E_COORD97":179113.53,"N_COORD97":2559567.77,"ADDRESS":"北子店２５６號之１","OBJECTID":77986},"geometry":{"x":179113.53000000212,"y":2559567.7700000014}},{"attributes":{"ID":77987,"DIS_CODE":0,"TOWNNAME":"善化區","LI":"東昌里","LIN":"6鄰","STREET":" ","SECT":" ","MAREA":"東勢寮","LANE":" ","ALLEY":" ","HOUSE_NO":"６５之１８號","E_COORD97":180555.89999999999,"N_COORD97":2561856.27,"ADDRESS":"東勢寮６５之１８號","OBJECTID":77987},"geometry":{"x":180555.9000000013,"y":2561856.2700000014}},{"attributes":{"ID":77988,"DIS_CODE":0,"TOWNNAME":"東區","LI":"富強里","LIN":"19鄰","STREET":"裕農路","SECT":" ","MAREA":" ","LANE":"２８８巷","ALLEY":"１１０弄","HOUSE_NO":"４號三樓之２","E_COORD97":170991.19,"N_COORD97":2542918.9399999999,"ADDRESS":"裕農路２８８巷１１０弄４號三樓之２","OBJECTID":77988},"geometry":{"x":170991.19000000134,"y":2542918.9400000032}},{"attributes":{"ID":77989,"DIS_CODE":0,"TOWNNAME":"善化區","LI":"光文里","LIN":"6鄰","STREET":" ","SECT":" ","MAREA":"北子店","LANE":" ","ALLEY":" ","HOUSE_NO":"２９６號","E_COORD97":179087.5,"N_COORD97":2559491.25,"ADDRESS":"北子店２９６號","OBJECTID":77989},"geometry":{"x":179087.5,"y":2559491.25}},{"attributes":{"ID":77990,"DIS_CODE":0,"TOWNNAME":"善化區","LI":"東隆里","LIN":"6鄰","STREET":" ","SECT":" ","MAREA":"東勢寮","LANE":" ","ALLEY":" ","HOUSE_NO":"１８４之２號","E_COORD97":180025.56,"N_COORD97":2561815.52,"ADDRESS":"東勢寮１８４之２號","OBJECTID":77990},"geometry":{"x":180025.55999999959,"y":2561815.5199999996}},{"attributes":{"ID":77991,"DIS_CODE":0,"TOWNNAME":"仁德區","LI":"保安里","LIN":"19鄰","STREET":"文賢路","SECT":"二段","MAREA":" ","LANE":"１５巷","ALLEY":"１８弄","HOUSE_NO":"１７號七樓之１","E_COORD97":171882.29000000001,"N_COORD97":2535881.3300000001,"ADDRESS":"文賢路二段１５巷１８弄１７號七樓之１","OBJECTID":77991},"geometry":{"x":171882.29000000097,"y":2535881.3300000001}},{"attributes":{"ID":77992,"DIS_CODE":0,"TOWNNAME":"善化區","LI":"光文里","LIN":"6鄰","STREET":" ","SECT":" ","MAREA":"北子店","LANE":" ","ALLEY":" ","HOUSE_NO":"２９２號","E_COORD97":179087.95000000001,"N_COORD97":2559500,"ADDRESS":"北子店２９２號","OBJECTID":77992},"geometry":{"x":179087.95000000019,"y":2559500}},{"attributes":{"ID":77993,"DIS_CODE":0,"TOWNNAME":"善化區","LI":"東隆里","LIN":"6鄰","STREET":" ","SECT":" ","MAREA":"東勢寮","LANE":" ","ALLEY":" ","HOUSE_NO":"１８５號之６","E_COORD97":180025.42000000001,"N_COORD97":2561756.27,"ADDRESS":"東勢寮１８５號之６","OBJECTID":77993},"geometry":{"x":180025.41999999993,"y":2561756.2699999996}},{"attributes":{"ID":77994,"DIS_CODE":0,"TOWNNAME":"善化區","LI":"東隆里","LIN":"6鄰","STREET":" ","SECT":" ","MAREA":"東勢寮","LANE":" ","ALLEY":" ","HOUSE_NO":"１７５之６號","E_COORD97":180069.87,"N_COORD97":2561869.77,"ADDRESS":"東勢寮１７５之６號","OBJECTID":77994},"geometry":{"x":180069.87000000011,"y":2561869.7700000014}},{"attributes":{"ID":77995,"DIS_CODE":0,"TOWNNAME":"善化區","LI":"東隆里","LIN":"6鄰","STREET":" ","SECT":" ","MAREA":"東勢寮","LANE":" ","ALLEY":" ","HOUSE_NO":"１８５號之１","E_COORD97":180025.87,"N_COORD97":2561774.02,"ADDRESS":"東勢寮１８５號之１","OBJECTID":77995},"geometry":{"x":180025.87000000011,"y":2561774.0199999996}},{"attributes":{"ID":77996,"DIS_CODE":0,"TOWNNAME":"善化區","LI":"溪美里","LIN":"6鄰","STREET":" ","SECT":" ","MAREA":"溪尾","LANE":" ","ALLEY":" ","HOUSE_NO":"５１號之８","E_COORD97":176884.54000000001,"N_COORD97":2561147.52,"ADDRESS":"溪尾５１號之８","OBJECTID":77996},"geometry":{"x":176884.54000000097,"y":2561147.5199999996}},{"attributes":{"ID":77997,"DIS_CODE":0,"TOWNNAME":"善化區","LI":"東隆里","LIN":"6鄰","STREET":" ","SECT":" ","MAREA":"東勢寮","LANE":" ","ALLEY":" ","HOUSE_NO":"１７５之３號","E_COORD97":180069.07999999999,"N_COORD97":2561857.02,"ADDRESS":"東勢寮１７５之３號","OBJECTID":77997},"geometry":{"x":180069.08000000194,"y":2561857.0200000033}},{"attributes":{"ID":77998,"DIS_CODE":0,"TOWNNAME":"永康區","LI":"神洲里","LIN":"19鄰","STREET":"忠孝路","SECT":" ","MAREA":" ","LANE":"７６巷","ALLEY":"６３弄","HOUSE_NO":"１６號五樓","E_COORD97":172223.32000000001,"N_COORD97":2545049.9500000002,"ADDRESS":"忠孝路７６巷６３弄１６號五樓","OBJECTID":77998},"geometry":{"x":172223.3200000003,"y":2545049.9499999993}},{"attributes":{"ID":77999,"DIS_CODE":0,"TOWNNAME":"永康區","LI":"神洲里","LIN":"19鄰","STREET":"忠孝路","SECT":" ","MAREA":" ","LANE":"７６巷","ALLEY":"６３弄","HOUSE_NO":"１６號二樓","E_COORD97":172223.32000000001,"N_COORD97":2545049.9500000002,"ADDRESS":"忠孝路７６巷６３弄１６號二樓","OBJECTID":77999},"geometry":{"x":172223.3200000003,"y":2545049.9499999993}},{"attributes":{"ID":78000,"DIS_CODE":0,"TOWNNAME":"善化區","LI":"光文里","LIN":"6鄰","STREET":" ","SECT":" ","MAREA":"北子店","LANE":" ","ALLEY":" ","HOUSE_NO":"３１０號","E_COORD97":179130.17999999999,"N_COORD97":2559483,"ADDRESS":"北子店３１０號","OBJECTID":78000},"geometry":{"x":179130.1799999997,"y":2559483}}]}