{"displayFieldName":"TOWNNAME","fieldAliases":{"ID":"ID","DIS_CODE":"DIS_CODE","TOWNNAME":"TOWNNAME","LI":"LI","LIN":"LIN","STREET":"STREET","SECT":"SECT","MAREA":"MAREA","LANE":"LANE","ALLEY":"ALLEY","HOUSE_NO":"HOUSE_NO","E_COORD97":"E_COORD97","N_COORD97":"N_COORD97","ADDRESS":"ADDRESS","OBJECTID":"OBJECTID"},"geometryType":"esriGeometryPoint","spatialReference":{"wkid":102443,"latestWkid":3826},"fields":[{"name":"ID","type":"esriFieldTypeDouble","alias":"ID"},{"name":"DIS_CODE","type":"esriFieldTypeInteger","alias":"DIS_CODE"},{"name":"TOWNNAME","type":"esriFieldTypeString","alias":"TOWNNAME","length":8},{"name":"LI","type":"esriFieldTypeString","alias":"LI","length":8},{"name":"LIN","type":"esriFieldTypeString","alias":"LIN","length":12},{"name":"STREET","type":"esriFieldTypeString","alias":"STREET","length":20},{"name":"SECT","type":"esriFieldTypeString","alias":"SECT","length":8},{"name":"MAREA","type":"esriFieldTypeString","alias":"MAREA","length":12},{"name":"LANE","type":"esriFieldTypeString","alias":"LANE","length":10},{"name":"ALLEY","type":"esriFieldTypeString","alias":"ALLEY","length":10},{"name":"HOUSE_NO","type":"esriFieldTypeString","alias":"HOUSE_NO","length":20},{"name":"E_COORD97","type":"esriFieldTypeDouble","alias":"E_COORD97"},{"name":"N_COORD97","type":"esriFieldTypeDouble","alias":"N_COORD97"},{"name":"ADDRESS","type":"esriFieldTypeString","alias":"ADDRESS","length":50},{"name":"OBJECTID","type":"esriFieldTypeOID","alias":"OBJECTID"}],"features":[{"attributes":{"ID":365011,"DIS_CODE":0,"TOWNNAME":"永康區","LI":"\u25A0行里","LIN":"41鄰","STREET":"永安二街","SECT":" ","MAREA":" ","LANE":"２５巷","ALLEY":" ","HOUSE_NO":"２５號","E_COORD97":172461.72,"N_COORD97":2549563.0600000001,"ADDRESS":"永安二街２５巷２５號","OBJECTID":365001},"geometry":{"x":172461.72000000067,"y":2549563.0600000005}},{"attributes":{"ID":365012,"DIS_CODE":0,"TOWNNAME":"永康區","LI":"\u25A0行里","LIN":"41鄰","STREET":"永安二街","SECT":" ","MAREA":" ","LANE":"２５巷","ALLEY":" ","HOUSE_NO":"１３號","E_COORD97":172445.82000000001,"N_COORD97":2549579.0600000001,"ADDRESS":"永安二街２５巷１３號","OBJECTID":365002},"geometry":{"x":172445.8200000003,"y":2549579.0600000024}},{"attributes":{"ID":365013,"DIS_CODE":0,"TOWNNAME":"永康區","LI":"\u25A0行里","LIN":"41鄰","STREET":"永安二街","SECT":" ","MAREA":" ","LANE":"２５巷","ALLEY":" ","HOUSE_NO":"２７號","E_COORD97":172466.63,"N_COORD97":2549563.3100000001,"ADDRESS":"永安二街２５巷２７號","OBJECTID":365003},"geometry":{"x":172466.62999999989,"y":2549563.3100000024}},{"attributes":{"ID":365014,"DIS_CODE":0,"TOWNNAME":"永康區","LI":"\u25A0行里","LIN":"41鄰","STREET":"永安二街","SECT":" ","MAREA":" ","LANE":"２５巷","ALLEY":" ","HOUSE_NO":"１號","E_COORD97":172475.32000000001,"N_COORD97":2549580.0600000001,"ADDRESS":"永安二街２５巷１號","OBJECTID":365004},"geometry":{"x":172475.32000000123,"y":2549580.0600000005}},{"attributes":{"ID":365015,"DIS_CODE":0,"TOWNNAME":"安南區","LI":"溪東里","LIN":"12鄰","STREET":"北安路","SECT":"二段","MAREA":" ","LANE":"６３巷","ALLEY":" ","HOUSE_NO":"１０號","E_COORD97":168442.76000000001,"N_COORD97":2547391.9399999999,"ADDRESS":"北安路二段６３巷１０號","OBJECTID":365005},"geometry":{"x":168442.75999999978,"y":2547391.9400000013}},{"attributes":{"ID":365016,"DIS_CODE":0,"TOWNNAME":"安南區","LI":"溪東里","LIN":"12鄰","STREET":"北安路","SECT":"二段","MAREA":" ","LANE":"６３巷","ALLEY":" ","HOUSE_NO":"１８號","E_COORD97":168416.70999999999,"N_COORD97":2547387.7000000002,"ADDRESS":"北安路二段６３巷１８號","OBJECTID":365006},"geometry":{"x":168416.70999999996,"y":2547387.6999999993}},{"attributes":{"ID":365017,"DIS_CODE":0,"TOWNNAME":"安南區","LI":"溪東里","LIN":"12鄰","STREET":"北安路","SECT":"二段","MAREA":" ","LANE":"６３巷","ALLEY":" ","HOUSE_NO":"２６號","E_COORD97":168391.67000000001,"N_COORD97":2547382.9199999999,"ADDRESS":"北安路二段６３巷２６號","OBJECTID":365007},"geometry":{"x":168391.66999999899,"y":2547382.9199999999}},{"attributes":{"ID":365018,"DIS_CODE":0,"TOWNNAME":"安南區","LI":"溪東里","LIN":"12鄰","STREET":"北安路","SECT":"二段","MAREA":" ","LANE":"６３巷","ALLEY":" ","HOUSE_NO":"３６號","E_COORD97":168358.76000000001,"N_COORD97":2547380.7200000002,"ADDRESS":"北安路二段６３巷３６號","OBJECTID":365008},"geometry":{"x":168358.76000000164,"y":2547380.7200000025}},{"attributes":{"ID":365019,"DIS_CODE":0,"TOWNNAME":"安南區","LI":"溪東里","LIN":"12鄰","STREET":"北安路","SECT":"二段","MAREA":" ","LANE":"６３巷","ALLEY":" ","HOUSE_NO":"３９號","E_COORD97":168348.94,"N_COORD97":2547351.1499999999,"ADDRESS":"北安路二段６３巷３９號","OBJECTID":365009},"geometry":{"x":168348.94000000041,"y":2547351.1500000022}},{"attributes":{"ID":365020,"DIS_CODE":0,"TOWNNAME":"安南區","LI":"溪東里","LIN":"12鄰","STREET":"北安路","SECT":"二段","MAREA":" ","LANE":"６３巷","ALLEY":" ","HOUSE_NO":"４１號","E_COORD97":168341.72,"N_COORD97":2547354.4199999999,"ADDRESS":"北安路二段６３巷４１號","OBJECTID":365010},"geometry":{"x":168341.71999999974,"y":2547354.4200000018}},{"attributes":{"ID":365021,"DIS_CODE":0,"TOWNNAME":"安南區","LI":"溪東里","LIN":"12鄰","STREET":"北安路","SECT":"二段","MAREA":" ","LANE":"６３巷","ALLEY":" ","HOUSE_NO":"４３號","E_COORD97":168335.64999999999,"N_COORD97":2547351.9700000002,"ADDRESS":"北安路二段６３巷４３號","OBJECTID":365011},"geometry":{"x":168335.65000000037,"y":2547351.9700000025}},{"attributes":{"ID":365022,"DIS_CODE":0,"TOWNNAME":"安南區","LI":"溪東里","LIN":"12鄰","STREET":"北安路","SECT":"二段","MAREA":" ","LANE":"６３巷","ALLEY":" ","HOUSE_NO":"４７號","E_COORD97":168313.82999999999,"N_COORD97":2547351.6099999999,"ADDRESS":"北安路二段６３巷４７號","OBJECTID":365012},"geometry":{"x":168313.83000000007,"y":2547351.6099999994}},{"attributes":{"ID":365023,"DIS_CODE":0,"TOWNNAME":"東區","LI":"文聖里","LIN":"13鄰","STREET":"裕忠路","SECT":" ","MAREA":" ","LANE":" ","ALLEY":" ","HOUSE_NO":"１７５號","E_COORD97":172275.17000000001,"N_COORD97":2542750.8399999999,"ADDRESS":"裕忠路１７５號","OBJECTID":365013},"geometry":{"x":172275.16999999993,"y":2542750.8400000017}},{"attributes":{"ID":365024,"DIS_CODE":0,"TOWNNAME":"東區","LI":"文聖里","LIN":"13鄰","STREET":"裕忠路","SECT":" ","MAREA":" ","LANE":" ","ALLEY":" ","HOUSE_NO":"１７７號","E_COORD97":172274.92000000001,"N_COORD97":2542743.1899999999,"ADDRESS":"裕忠路１７７號","OBJECTID":365014},"geometry":{"x":172274.91999999993,"y":2542743.1899999995}},{"attributes":{"ID":365025,"DIS_CODE":0,"TOWNNAME":"東區","LI":"文聖里","LIN":"13鄰","STREET":"裕忠路","SECT":" ","MAREA":" ","LANE":" ","ALLEY":" ","HOUSE_NO":"１７９號","E_COORD97":172281.79999999999,"N_COORD97":2542744.21,"ADDRESS":"裕忠路１７９號","OBJECTID":365015},"geometry":{"x":172281.80000000075,"y":2542744.2100000009}},{"attributes":{"ID":365026,"DIS_CODE":0,"TOWNNAME":"東區","LI":"文聖里","LIN":"13鄰","STREET":"裕忠路","SECT":" ","MAREA":" ","LANE":" ","ALLEY":" ","HOUSE_NO":"１７９之８號","E_COORD97":172317.23999999999,"N_COORD97":2542743.1899999999,"ADDRESS":"裕忠路１７９之８號","OBJECTID":365016},"geometry":{"x":172317.24000000022,"y":2542743.1899999995}},{"attributes":{"ID":365027,"DIS_CODE":0,"TOWNNAME":"東區","LI":"文聖里","LIN":"13鄰","STREET":"裕忠路","SECT":" ","MAREA":" ","LANE":" ","ALLEY":" ","HOUSE_NO":"１７９之１０號","E_COORD97":172326.42000000001,"N_COORD97":2542743.1899999999,"ADDRESS":"裕忠路１７９之１０號","OBJECTID":365017},"geometry":{"x":172326.42000000179,"y":2542743.1899999995}},{"attributes":{"ID":365028,"DIS_CODE":0,"TOWNNAME":"東區","LI":"文聖里","LIN":"13鄰","STREET":"裕忠路","SECT":" ","MAREA":" ","LANE":" ","ALLEY":" ","HOUSE_NO":"１７９之１１號","E_COORD97":172329.73999999999,"N_COORD97":2542746.5099999998,"ADDRESS":"裕忠路１７９之１１號","OBJECTID":365018},"geometry":{"x":172329.74000000115,"y":2542746.5100000016}},{"attributes":{"ID":365029,"DIS_CODE":0,"TOWNNAME":"東區","LI":"文聖里","LIN":"13鄰","STREET":"裕忠路","SECT":" ","MAREA":" ","LANE":" ","ALLEY":" ","HOUSE_NO":"１７９之１２號","E_COORD97":172333.82000000001,"N_COORD97":2542742.9399999999,"ADDRESS":"裕忠路１７９之１２號","OBJECTID":365019},"geometry":{"x":172333.8200000003,"y":2542742.9400000013}},{"attributes":{"ID":365030,"DIS_CODE":0,"TOWNNAME":"東區","LI":"文聖里","LIN":"13鄰","STREET":"裕忠路","SECT":" ","MAREA":" ","LANE":" ","ALLEY":" ","HOUSE_NO":"１７９之１３號","E_COORD97":172338.14999999999,"N_COORD97":2542746.25,"ADDRESS":"裕忠路１７９之１３號","OBJECTID":365020},"geometry":{"x":172338.15000000037,"y":2542746.25}},{"attributes":{"ID":365031,"DIS_CODE":0,"TOWNNAME":"東區","LI":"文聖里","LIN":"13鄰","STREET":"裕忠路","SECT":" ","MAREA":" ","LANE":" ","ALLEY":" ","HOUSE_NO":"１７９之１５號","E_COORD97":172342.48999999999,"N_COORD97":2542742.4300000002,"ADDRESS":"裕忠路１７９之１５號","OBJECTID":365021},"geometry":{"x":172342.49000000022,"y":2542742.4299999997}},{"attributes":{"ID":365032,"DIS_CODE":0,"TOWNNAME":"東區","LI":"文聖里","LIN":"13鄰","STREET":"裕忠路","SECT":" ","MAREA":" ","LANE":" ","ALLEY":" ","HOUSE_NO":"１８９之１號","E_COORD97":172281.54000000001,"N_COORD97":2542702.0099999998,"ADDRESS":"裕忠路１８９之１號","OBJECTID":365022},"geometry":{"x":172281.5400000019,"y":2542702.0100000016}},{"attributes":{"ID":365033,"DIS_CODE":0,"TOWNNAME":"永康區","LI":"\u25A0行里","LIN":"41鄰","STREET":"永安路","SECT":" ","MAREA":" ","LANE":"１６５巷","ALLEY":" ","HOUSE_NO":"１２１號底二層之３","E_COORD97":172464.69,"N_COORD97":2549432.0699999998,"ADDRESS":"永安路１６５巷１２１號底二層之３","OBJECTID":365023},"geometry":{"x":172464.69000000134,"y":2549432.0700000022}},{"attributes":{"ID":365034,"DIS_CODE":0,"TOWNNAME":"永康區","LI":"\u25A0行里","LIN":"41鄰","STREET":"永安二街","SECT":" ","MAREA":" ","LANE":"２５巷","ALLEY":" ","HOUSE_NO":"７５號","E_COORD97":172454,"N_COORD97":2549523.5699999998,"ADDRESS":"永安二街２５巷７５號","OBJECTID":365024},"geometry":{"x":172454,"y":2549523.5700000022}},{"attributes":{"ID":365035,"DIS_CODE":0,"TOWNNAME":"永康區","LI":"\u25A0行里","LIN":"41鄰","STREET":"永安二街","SECT":" ","MAREA":" ","LANE":"２５巷","ALLEY":" ","HOUSE_NO":"３７號","E_COORD97":172467.48000000001,"N_COORD97":2549551.8199999998,"ADDRESS":"永安二街２５巷３７號","OBJECTID":365025},"geometry":{"x":172467.48000000138,"y":2549551.8200000003}},{"attributes":{"ID":365036,"DIS_CODE":0,"TOWNNAME":"仁德區","LI":"仁義里","LIN":"41鄰","STREET":"中正路","SECT":"二段","MAREA":" ","LANE":"９１４巷","ALLEY":" ","HOUSE_NO":"２７號","E_COORD97":173505.92999999999,"N_COORD97":2540625.2799999998,"ADDRESS":"中正路二段９１４巷２７號","OBJECTID":365026},"geometry":{"x":173505.93000000156,"y":2540625.2800000012}},{"attributes":{"ID":365037,"DIS_CODE":0,"TOWNNAME":"仁德區","LI":"仁義里","LIN":"41鄰","STREET":"中正路","SECT":"二段","MAREA":" ","LANE":"９１４巷","ALLEY":" ","HOUSE_NO":"３５號","E_COORD97":173529.73999999999,"N_COORD97":2540627.5299999998,"ADDRESS":"中正路二段９１４巷３５號","OBJECTID":365027},"geometry":{"x":173529.74000000209,"y":2540627.5300000012}},{"attributes":{"ID":365038,"DIS_CODE":0,"TOWNNAME":"仁德區","LI":"仁義里","LIN":"41鄰","STREET":"中正路","SECT":"二段","MAREA":" ","LANE":"９１４巷","ALLEY":" ","HOUSE_NO":"２９號","E_COORD97":173510.32000000001,"N_COORD97":2540626.0299999998,"ADDRESS":"中正路二段９１４巷２９號","OBJECTID":365028},"geometry":{"x":173510.3200000003,"y":2540626.0299999975}},{"attributes":{"ID":365039,"DIS_CODE":0,"TOWNNAME":"仁德區","LI":"仁義里","LIN":"41鄰","STREET":"中正路","SECT":"二段","MAREA":" ","LANE":"８９２巷","ALLEY":" ","HOUSE_NO":"１６號","E_COORD97":173493.26000000001,"N_COORD97":2540564.52,"ADDRESS":"中正路二段８９２巷１６號","OBJECTID":365029},"geometry":{"x":173493.25999999978,"y":2540564.5199999996}},{"attributes":{"ID":365040,"DIS_CODE":0,"TOWNNAME":"仁德區","LI":"仁義里","LIN":"41鄰","STREET":"中正路","SECT":"二段","MAREA":" ","LANE":"８９２巷","ALLEY":" ","HOUSE_NO":"６號","E_COORD97":173470.35999999999,"N_COORD97":2540563.02,"ADDRESS":"中正路二段８９２巷６號","OBJECTID":365030},"geometry":{"x":173470.36000000127,"y":2540563.0200000014}},{"attributes":{"ID":365041,"DIS_CODE":0,"TOWNNAME":"仁德區","LI":"太子里","LIN":"41鄰","STREET":"太子路","SECT":" ","MAREA":" ","LANE":"６６巷","ALLEY":" ","HOUSE_NO":"２號","E_COORD97":175229.51000000001,"N_COORD97":2543624.0099999998,"ADDRESS":"太子路６６巷２號","OBJECTID":365031},"geometry":{"x":175229.51000000164,"y":2543624.0100000035}},{"attributes":{"ID":365042,"DIS_CODE":0,"TOWNNAME":"安南區","LI":"溪東里","LIN":"12鄰","STREET":"北安路","SECT":"二段","MAREA":" ","LANE":"６３巷","ALLEY":" ","HOUSE_NO":"６９號","E_COORD97":168239,"N_COORD97":2547342.2000000002,"ADDRESS":"北安路二段６３巷６９號","OBJECTID":365032},"geometry":{"x":168239.00000000093,"y":2547342.2000000011}},{"attributes":{"ID":365043,"DIS_CODE":0,"TOWNNAME":"安南區","LI":"溪東里","LIN":"12鄰","STREET":"北安路","SECT":"二段","MAREA":" ","LANE":"６３巷","ALLEY":" ","HOUSE_NO":"７１號","E_COORD97":168231.89999999999,"N_COORD97":2547338.1699999999,"ADDRESS":"北安路二段６３巷７１號","OBJECTID":365033},"geometry":{"x":168231.9000000013,"y":2547338.1699999999}},{"attributes":{"ID":365044,"DIS_CODE":0,"TOWNNAME":"東區","LI":"文聖里","LIN":"13鄰","STREET":"裕忠路","SECT":" ","MAREA":" ","LANE":" ","ALLEY":" ","HOUSE_NO":"１７９之１６號","E_COORD97":172347.32999999999,"N_COORD97":2542745.7400000002,"ADDRESS":"裕忠路１７９之１６號","OBJECTID":365034},"geometry":{"x":172347.32999999914,"y":2542745.7400000021}},{"attributes":{"ID":365045,"DIS_CODE":0,"TOWNNAME":"東區","LI":"文聖里","LIN":"13鄰","STREET":"裕忠路","SECT":" ","MAREA":" ","LANE":" ","ALLEY":" ","HOUSE_NO":"１７９之１７號","E_COORD97":172351.41,"N_COORD97":2542742.4300000002,"ADDRESS":"裕忠路１７９之１７號","OBJECTID":365035},"geometry":{"x":172351.41000000015,"y":2542742.4299999997}},{"attributes":{"ID":365046,"DIS_CODE":0,"TOWNNAME":"東區","LI":"文聖里","LIN":"13鄰","STREET":"裕忠路","SECT":" ","MAREA":" ","LANE":" ","ALLEY":" ","HOUSE_NO":"１７９之１號","E_COORD97":172286.14000000001,"N_COORD97":2542747.02,"ADDRESS":"裕忠路１７９之１號","OBJECTID":365036},"geometry":{"x":172286.1400000006,"y":2542747.0200000014}},{"attributes":{"ID":365047,"DIS_CODE":0,"TOWNNAME":"東區","LI":"文聖里","LIN":"13鄰","STREET":"裕忠路","SECT":" ","MAREA":" ","LANE":" ","ALLEY":" ","HOUSE_NO":"１７９之２號","E_COORD97":172289.45000000001,"N_COORD97":2542743.96,"ADDRESS":"裕忠路１７９之２號","OBJECTID":365037},"geometry":{"x":172289.45000000112,"y":2542743.9600000046}},{"attributes":{"ID":365048,"DIS_CODE":0,"TOWNNAME":"東區","LI":"文聖里","LIN":"13鄰","STREET":"裕忠路","SECT":" ","MAREA":" ","LANE":" ","ALLEY":" ","HOUSE_NO":"１７９之３號","E_COORD97":172295.32000000001,"N_COORD97":2542746.5099999998,"ADDRESS":"裕忠路１７９之３號","OBJECTID":365038},"geometry":{"x":172295.32000000123,"y":2542746.5100000016}},{"attributes":{"ID":365049,"DIS_CODE":0,"TOWNNAME":"東區","LI":"文聖里","LIN":"13鄰","STREET":"裕忠路","SECT":" ","MAREA":" ","LANE":" ","ALLEY":" ","HOUSE_NO":"１７９之５號","E_COORD97":172298.89000000001,"N_COORD97":2542744.21,"ADDRESS":"裕忠路１７９之５號","OBJECTID":365039},"geometry":{"x":172298.88999999966,"y":2542744.2100000009}},{"attributes":{"ID":365050,"DIS_CODE":0,"TOWNNAME":"東區","LI":"文聖里","LIN":"13鄰","STREET":"裕忠路","SECT":" ","MAREA":" ","LANE":" ","ALLEY":" ","HOUSE_NO":"１７９之６號","E_COORD97":172306.28,"N_COORD97":2542746.5099999998,"ADDRESS":"裕忠路１７９之６號","OBJECTID":365040},"geometry":{"x":172306.28000000119,"y":2542746.5100000016}},{"attributes":{"ID":365051,"DIS_CODE":0,"TOWNNAME":"東區","LI":"文聖里","LIN":"13鄰","STREET":"裕忠路","SECT":" ","MAREA":" ","LANE":" ","ALLEY":" ","HOUSE_NO":"１７９之７號","E_COORD97":172309.59,"N_COORD97":2542743.4500000002,"ADDRESS":"裕忠路１７９之７號","OBJECTID":365041},"geometry":{"x":172309.58999999985,"y":2542743.4500000011}},{"attributes":{"ID":365052,"DIS_CODE":0,"TOWNNAME":"東區","LI":"文聖里","LIN":"13鄰","STREET":"裕忠路","SECT":" ","MAREA":" ","LANE":" ","ALLEY":" ","HOUSE_NO":"１７９之９號","E_COORD97":172321.07000000001,"N_COORD97":2542747.02,"ADDRESS":"裕忠路１７９之９號","OBJECTID":365042},"geometry":{"x":172321.07000000123,"y":2542747.0200000014}},{"attributes":{"ID":365053,"DIS_CODE":0,"TOWNNAME":"永康區","LI":"崑山里","LIN":"41鄰","STREET":"崑山街","SECT":" ","MAREA":" ","LANE":"２１９巷","ALLEY":" ","HOUSE_NO":"１８號","E_COORD97":174045.25,"N_COORD97":2545070.46,"ADDRESS":"崑山街２１９巷１８號","OBJECTID":365043},"geometry":{"x":174045.25000000093,"y":2545070.4600000028}},{"attributes":{"ID":365054,"DIS_CODE":0,"TOWNNAME":"永康區","LI":"崑山里","LIN":"41鄰","STREET":"崑山街","SECT":" ","MAREA":" ","LANE":"２１９巷","ALLEY":" ","HOUSE_NO":"２３號","E_COORD97":174022.59,"N_COORD97":2545059.7999999998,"ADDRESS":"崑山街２１９巷２３號","OBJECTID":365044},"geometry":{"x":174022.59000000078,"y":2545059.8000000007}},{"attributes":{"ID":365055,"DIS_CODE":0,"TOWNNAME":"永康區","LI":"\u25A0行里","LIN":"41鄰","STREET":"永安二街","SECT":" ","MAREA":" ","LANE":"２５巷","ALLEY":" ","HOUSE_NO":"２３號","E_COORD97":172456.60999999999,"N_COORD97":2549563.0600000001,"ADDRESS":"永安二街２５巷２３號","OBJECTID":365045},"geometry":{"x":172456.61000000127,"y":2549563.0600000005}},{"attributes":{"ID":365056,"DIS_CODE":0,"TOWNNAME":"永康區","LI":"\u25A0行里","LIN":"41鄰","STREET":"永安二街","SECT":" ","MAREA":" ","LANE":"２５巷","ALLEY":" ","HOUSE_NO":"４９號","E_COORD97":172443.70000000001,"N_COORD97":2549534.0699999998,"ADDRESS":"永安二街２５巷４９號","OBJECTID":365046},"geometry":{"x":172443.70000000112,"y":2549534.0700000022}},{"attributes":{"ID":365057,"DIS_CODE":0,"TOWNNAME":"永康區","LI":"成功里","LIN":"41鄰","STREET":"中華路","SECT":" ","MAREA":" ","LANE":"１５４巷","ALLEY":" ","HOUSE_NO":"５１號","E_COORD97":171743.64999999999,"N_COORD97":2544894.2599999998,"ADDRESS":"中華路１５４巷５１號","OBJECTID":365047},"geometry":{"x":171743.64999999944,"y":2544894.2600000016}},{"attributes":{"ID":365058,"DIS_CODE":0,"TOWNNAME":"北區","LI":"成德里","LIN":"34鄰","STREET":"育德三街","SECT":" ","MAREA":" ","LANE":"４６巷","ALLEY":" ","HOUSE_NO":"４５號","E_COORD97":168287.45999999999,"N_COORD97":2546015.5699999998,"ADDRESS":"育德三街４６巷４５號","OBJECTID":365048},"geometry":{"x":168287.45999999996,"y":2546015.5700000022}},{"attributes":{"ID":365059,"DIS_CODE":0,"TOWNNAME":"永康區","LI":"中華里","LIN":"12鄰","STREET":"小東路","SECT":" ","MAREA":" ","LANE":"５９１巷","ALLEY":" ","HOUSE_NO":"１２號","E_COORD97":171842.32000000001,"N_COORD97":2544404.0899999999,"ADDRESS":"小東路５９１巷１２號","OBJECTID":365049},"geometry":{"x":171842.3200000003,"y":2544404.0900000017}},{"attributes":{"ID":365060,"DIS_CODE":0,"TOWNNAME":"東區","LI":"文聖里","LIN":"13鄰","STREET":"裕忠路","SECT":" ","MAREA":" ","LANE":" ","ALLEY":" ","HOUSE_NO":"１８１之１０號","E_COORD97":172322.48000000001,"N_COORD97":2542723.7799999998,"ADDRESS":"裕忠路１８１之１０號","OBJECTID":365050},"geometry":{"x":172322.48000000045,"y":2542723.7800000012}},{"attributes":{"ID":365061,"DIS_CODE":0,"TOWNNAME":"東區","LI":"文聖里","LIN":"13鄰","STREET":"裕忠路","SECT":" ","MAREA":" ","LANE":" ","ALLEY":" ","HOUSE_NO":"１８１之１１號","E_COORD97":172330.25,"N_COORD97":2542721.52,"ADDRESS":"裕忠路１８１之１１號","OBJECTID":365051},"geometry":{"x":172330.25,"y":2542721.5199999977}},{"attributes":{"ID":365062,"DIS_CODE":0,"TOWNNAME":"東區","LI":"文聖里","LIN":"13鄰","STREET":"裕忠路","SECT":" ","MAREA":" ","LANE":" ","ALLEY":" ","HOUSE_NO":"１８１之１２號","E_COORD97":172336.39000000001,"N_COORD97":2542723.6200000001,"ADDRESS":"裕忠路１８１之１２號","OBJECTID":365052},"geometry":{"x":172336.39000000153,"y":2542723.6200000029}},{"attributes":{"ID":365063,"DIS_CODE":0,"TOWNNAME":"東區","LI":"文聖里","LIN":"13鄰","STREET":"裕忠路","SECT":" ","MAREA":" ","LANE":" ","ALLEY":" ","HOUSE_NO":"１８１之１３號","E_COORD97":172339.98999999999,"N_COORD97":2542721.4900000002,"ADDRESS":"裕忠路１８１之１３號","OBJECTID":365053},"geometry":{"x":172339.99000000115,"y":2542721.4900000002}},{"attributes":{"ID":365064,"DIS_CODE":0,"TOWNNAME":"東區","LI":"文聖里","LIN":"13鄰","STREET":"裕忠路","SECT":" ","MAREA":" ","LANE":" ","ALLEY":" ","HOUSE_NO":"１８１之１５號","E_COORD97":172343.60000000001,"N_COORD97":2542723.6200000001,"ADDRESS":"裕忠路１８１之１５號","OBJECTID":365054},"geometry":{"x":172343.60000000056,"y":2542723.6200000029}},{"attributes":{"ID":365065,"DIS_CODE":0,"TOWNNAME":"永康區","LI":"中華里","LIN":"12鄰","STREET":"小東路","SECT":" ","MAREA":" ","LANE":"５９１巷","ALLEY":" ","HOUSE_NO":"２４號","E_COORD97":171842.54000000001,"N_COORD97":2544429.21,"ADDRESS":"小東路５９１巷２４號","OBJECTID":365055},"geometry":{"x":171842.5400000019,"y":2544429.2100000009}},{"attributes":{"ID":365066,"DIS_CODE":0,"TOWNNAME":"中西區","LI":"西湖里","LIN":"12鄰","STREET":"湖美二街","SECT":" ","MAREA":" ","LANE":"３２巷","ALLEY":" ","HOUSE_NO":"１３號","E_COORD97":166170.12,"N_COORD97":2544587.3999999999,"ADDRESS":"湖美二街３２巷１３號","OBJECTID":365056},"geometry":{"x":166170.12000000104,"y":2544587.4000000004}},{"attributes":{"ID":365067,"DIS_CODE":0,"TOWNNAME":"中西區","LI":"西湖里","LIN":"12鄰","STREET":"湖美一街","SECT":" ","MAREA":" ","LANE":"３２巷","ALLEY":" ","HOUSE_NO":"１１號","E_COORD97":166100.76999999999,"N_COORD97":2544585.21,"ADDRESS":"湖美一街３２巷１１號","OBJECTID":365057},"geometry":{"x":166100.77000000048,"y":2544585.2100000009}},{"attributes":{"ID":365068,"DIS_CODE":0,"TOWNNAME":"中西區","LI":"西湖里","LIN":"12鄰","STREET":"湖美一街","SECT":" ","MAREA":" ","LANE":"３２巷","ALLEY":" ","HOUSE_NO":"１３號","E_COORD97":166104.42000000001,"N_COORD97":2544584.73,"ADDRESS":"湖美一街３２巷１３號","OBJECTID":365058},"geometry":{"x":166104.41999999993,"y":2544584.7300000004}},{"attributes":{"ID":365069,"DIS_CODE":0,"TOWNNAME":"中西區","LI":"西湖里","LIN":"12鄰","STREET":"湖美一街","SECT":" ","MAREA":" ","LANE":"３２巷","ALLEY":" ","HOUSE_NO":"１５號","E_COORD97":166108.56,"N_COORD97":2544585.9399999999,"ADDRESS":"湖美一街３２巷１５號","OBJECTID":365059},"geometry":{"x":166108.55999999959,"y":2544585.9399999995}},{"attributes":{"ID":365070,"DIS_CODE":0,"TOWNNAME":"中西區","LI":"西湖里","LIN":"12鄰","STREET":"湖美一街","SECT":" ","MAREA":" ","LANE":"３２巷","ALLEY":" ","HOUSE_NO":"１６號","E_COORD97":166129,"N_COORD97":2544564.7999999998,"ADDRESS":"湖美一街３２巷１６號","OBJECTID":365060},"geometry":{"x":166129.00000000093,"y":2544564.8000000007}},{"attributes":{"ID":365071,"DIS_CODE":0,"TOWNNAME":"中西區","LI":"西湖里","LIN":"12鄰","STREET":"湖美一街","SECT":" ","MAREA":" ","LANE":"３２巷","ALLEY":" ","HOUSE_NO":"１７號","E_COORD97":166112.94,"N_COORD97":2544584.9700000002,"ADDRESS":"湖美一街３２巷１７號","OBJECTID":365061},"geometry":{"x":166112.94000000134,"y":2544584.9700000025}},{"attributes":{"ID":365072,"DIS_CODE":0,"TOWNNAME":"中西區","LI":"西湖里","LIN":"12鄰","STREET":"湖美一街","SECT":" ","MAREA":" ","LANE":"３２巷","ALLEY":" ","HOUSE_NO":"１９號","E_COORD97":166116.82999999999,"N_COORD97":2544585.9399999999,"ADDRESS":"湖美一街３２巷１９號","OBJECTID":365062},"geometry":{"x":166116.83000000007,"y":2544585.9399999995}},{"attributes":{"ID":365073,"DIS_CODE":0,"TOWNNAME":"中西區","LI":"西湖里","LIN":"12鄰","STREET":"湖美一街","SECT":" ","MAREA":" ","LANE":"３２巷","ALLEY":" ","HOUSE_NO":"１號","E_COORD97":166071.32999999999,"N_COORD97":2544584.48,"ADDRESS":"湖美一街３２巷１號","OBJECTID":365063},"geometry":{"x":166071.33000000007,"y":2544584.4800000042}},{"attributes":{"ID":365074,"DIS_CODE":0,"TOWNNAME":"中西區","LI":"西湖里","LIN":"12鄰","STREET":"湖美一街","SECT":" ","MAREA":" ","LANE":"３２巷","ALLEY":" ","HOUSE_NO":"２１號","E_COORD97":166124.13,"N_COORD97":2544586.1800000002,"ADDRESS":"湖美一街３２巷２１號","OBJECTID":365064},"geometry":{"x":166124.13000000082,"y":2544586.1800000016}},{"attributes":{"ID":365075,"DIS_CODE":0,"TOWNNAME":"中西區","LI":"西湖里","LIN":"12鄰","STREET":"湖美一街","SECT":" ","MAREA":" ","LANE":"３２巷","ALLEY":" ","HOUSE_NO":"２號","E_COORD97":166078.63,"N_COORD97":2544561.8799999999,"ADDRESS":"湖美一街３２巷２號","OBJECTID":365065},"geometry":{"x":166078.63000000082,"y":2544561.879999999}},{"attributes":{"ID":365076,"DIS_CODE":0,"TOWNNAME":"中西區","LI":"西湖里","LIN":"12鄰","STREET":"湖美一街","SECT":" ","MAREA":" ","LANE":"３２巷","ALLEY":" ","HOUSE_NO":"３號","E_COORD97":166078.14000000001,"N_COORD97":2544584,"ADDRESS":"湖美一街３２巷３號","OBJECTID":365066},"geometry":{"x":166078.1400000006,"y":2544584.0000000019}},{"attributes":{"ID":365077,"DIS_CODE":0,"TOWNNAME":"中西區","LI":"西湖里","LIN":"12鄰","STREET":"湖美一街","SECT":" ","MAREA":" ","LANE":"３２巷","ALLEY":" ","HOUSE_NO":"４號","E_COORD97":166090.31,"N_COORD97":2544562.8599999999,"ADDRESS":"湖美一街３２巷４號","OBJECTID":365067},"geometry":{"x":166090.31000000052,"y":2544562.8599999994}},{"attributes":{"ID":365078,"DIS_CODE":0,"TOWNNAME":"中西區","LI":"西湖里","LIN":"12鄰","STREET":"湖美一街","SECT":" ","MAREA":" ","LANE":"３２巷","ALLEY":" ","HOUSE_NO":"５號","E_COORD97":166084.70999999999,"N_COORD97":2544584,"ADDRESS":"湖美一街３２巷５號","OBJECTID":365068},"geometry":{"x":166084.71000000089,"y":2544584.0000000019}},{"attributes":{"ID":365079,"DIS_CODE":0,"TOWNNAME":"中西區","LI":"西湖里","LIN":"12鄰","STREET":"湖美一街","SECT":" ","MAREA":" ","LANE":"３２巷","ALLEY":" ","HOUSE_NO":"６號","E_COORD97":166097.85000000001,"N_COORD97":2544563.8300000001,"ADDRESS":"湖美一街３２巷６號","OBJECTID":365069},"geometry":{"x":166097.84999999963,"y":2544563.8300000001}},{"attributes":{"ID":365080,"DIS_CODE":0,"TOWNNAME":"中西區","LI":"西湖里","LIN":"12鄰","STREET":"湖美一街","SECT":" ","MAREA":" ","LANE":"３２巷","ALLEY":" ","HOUSE_NO":"７號","E_COORD97":166091.04000000001,"N_COORD97":2544584.2400000002,"ADDRESS":"湖美一街３２巷７號","OBJECTID":365070},"geometry":{"x":166091.04000000097,"y":2544584.2400000002}},{"attributes":{"ID":365081,"DIS_CODE":0,"TOWNNAME":"中西區","LI":"西湖里","LIN":"12鄰","STREET":"湖美一街","SECT":" ","MAREA":" ","LANE":"３２巷","ALLEY":" ","HOUSE_NO":"９號","E_COORD97":166096.39000000001,"N_COORD97":2544584.73,"ADDRESS":"湖美一街３２巷９號","OBJECTID":365071},"geometry":{"x":166096.39000000153,"y":2544584.7300000004}},{"attributes":{"ID":365082,"DIS_CODE":0,"TOWNNAME":"中西區","LI":"西湖里","LIN":"12鄰","STREET":"湖美一街","SECT":" ","MAREA":" ","LANE":"３６巷","ALLEY":" ","HOUSE_NO":"１０號","E_COORD97":166108.56,"N_COORD97":2544610.2200000002,"ADDRESS":"湖美一街３６巷１０號","OBJECTID":365072},"geometry":{"x":166108.55999999959,"y":2544610.2200000044}},{"attributes":{"ID":365083,"DIS_CODE":0,"TOWNNAME":"中西區","LI":"西湖里","LIN":"12鄰","STREET":"湖美一街","SECT":" ","MAREA":" ","LANE":"３６巷","ALLEY":" ","HOUSE_NO":"１１號","E_COORD97":166112.20999999999,"N_COORD97":2544609.73,"ADDRESS":"湖美一街３６巷１１號","OBJECTID":365073},"geometry":{"x":166112.21000000089,"y":2544609.7300000042}},{"attributes":{"ID":365084,"DIS_CODE":0,"TOWNNAME":"楠西區","LI":"灣丘里","LIN":"8鄰","STREET":" ","SECT":" ","MAREA":"灣丘","LANE":" ","ALLEY":" ","HOUSE_NO":"８０號","E_COORD97":201162.76999999999,"N_COORD97":2564386.25,"ADDRESS":"灣丘８０號","OBJECTID":365074},"geometry":{"x":201162.77000000048,"y":2564386.2500000019}},{"attributes":{"ID":365085,"DIS_CODE":0,"TOWNNAME":"歸仁區","LI":"南保里","LIN":"63鄰","STREET":"中山七街","SECT":" ","MAREA":" ","LANE":"７７巷","ALLEY":" ","HOUSE_NO":"５２號","E_COORD97":176669.53,"N_COORD97":2540659.2999999998,"ADDRESS":"中山七街７７巷５２號","OBJECTID":365075},"geometry":{"x":176669.53000000119,"y":2540659.3000000007}},{"attributes":{"ID":365086,"DIS_CODE":0,"TOWNNAME":"東區","LI":"富強里","LIN":"13鄰","STREET":"東門路","SECT":"二段","MAREA":" ","LANE":"３０１巷","ALLEY":" ","HOUSE_NO":"１２９號","E_COORD97":171067.41,"N_COORD97":2542745.8799999999,"ADDRESS":"東門路二段３０１巷１２９號","OBJECTID":365076},"geometry":{"x":171067.41000000108,"y":2542745.8800000027}},{"attributes":{"ID":365087,"DIS_CODE":0,"TOWNNAME":"永康區","LI":"復興里","LIN":"13鄰","STREET":"復興路","SECT":" ","MAREA":" ","LANE":"２９６巷","ALLEY":" ","HOUSE_NO":"１８號","E_COORD97":172355.12,"N_COORD97":2544368.7799999998,"ADDRESS":"復興路２９６巷１８號","OBJECTID":365077},"geometry":{"x":172355.12000000011,"y":2544368.7800000012}},{"attributes":{"ID":365088,"DIS_CODE":0,"TOWNNAME":"中西區","LI":"西湖里","LIN":"12鄰","STREET":"湖美一街","SECT":" ","MAREA":" ","LANE":"３６巷","ALLEY":" ","HOUSE_NO":"１２號","E_COORD97":166116.59,"N_COORD97":2544610.46,"ADDRESS":"湖美一街３６巷１２號","OBJECTID":365078},"geometry":{"x":166116.58999999985,"y":2544610.4600000009}},{"attributes":{"ID":365089,"DIS_CODE":0,"TOWNNAME":"中西區","LI":"西湖里","LIN":"12鄰","STREET":"湖美一街","SECT":" ","MAREA":" ","LANE":"３６巷","ALLEY":" ","HOUSE_NO":"１號","E_COORD97":166070.35000000001,"N_COORD97":2544609,"ADDRESS":"湖美一街３６巷１號","OBJECTID":365079},"geometry":{"x":166070.35000000056,"y":2544609.0000000019}},{"attributes":{"ID":365090,"DIS_CODE":0,"TOWNNAME":"中西區","LI":"西湖里","LIN":"12鄰","STREET":"湖美一街","SECT":" ","MAREA":" ","LANE":"３６巷","ALLEY":" ","HOUSE_NO":"２號","E_COORD97":166074.73000000001,"N_COORD97":2544609.25,"ADDRESS":"湖美一街３６巷２號","OBJECTID":365080},"geometry":{"x":166074.73000000138,"y":2544609.2500000037}},{"attributes":{"ID":365091,"DIS_CODE":0,"TOWNNAME":"中西區","LI":"西湖里","LIN":"12鄰","STREET":"湖美一街","SECT":" ","MAREA":" ","LANE":"３６巷","ALLEY":" ","HOUSE_NO":"３號","E_COORD97":166079.10999999999,"N_COORD97":2544609.25,"ADDRESS":"湖美一街３６巷３號","OBJECTID":365081},"geometry":{"x":166079.11000000127,"y":2544609.2500000037}},{"attributes":{"ID":365092,"DIS_CODE":0,"TOWNNAME":"中西區","LI":"西湖里","LIN":"12鄰","STREET":"湖美一街","SECT":" ","MAREA":" ","LANE":"３６巷","ALLEY":" ","HOUSE_NO":"４號","E_COORD97":166083.25,"N_COORD97":2544609.25,"ADDRESS":"湖美一街３６巷４號","OBJECTID":365082},"geometry":{"x":166083.25000000093,"y":2544609.2500000037}},{"attributes":{"ID":365093,"DIS_CODE":0,"TOWNNAME":"中西區","LI":"西湖里","LIN":"12鄰","STREET":"湖美一街","SECT":" ","MAREA":" ","LANE":"３６巷","ALLEY":" ","HOUSE_NO":"５號","E_COORD97":166087.63,"N_COORD97":2544609.4900000002,"ADDRESS":"湖美一街３６巷５號","OBJECTID":365083},"geometry":{"x":166087.62999999989,"y":2544609.4900000002}},{"attributes":{"ID":365094,"DIS_CODE":0,"TOWNNAME":"中西區","LI":"西湖里","LIN":"12鄰","STREET":"湖美一街","SECT":" ","MAREA":" ","LANE":"３６巷","ALLEY":" ","HOUSE_NO":"６號","E_COORD97":166091.28,"N_COORD97":2544609.4900000002,"ADDRESS":"湖美一街３６巷６號","OBJECTID":365084},"geometry":{"x":166091.28000000119,"y":2544609.4900000002}},{"attributes":{"ID":365095,"DIS_CODE":0,"TOWNNAME":"中西區","LI":"西湖里","LIN":"12鄰","STREET":"湖美一街","SECT":" ","MAREA":" ","LANE":"３６巷","ALLEY":" ","HOUSE_NO":"７號","E_COORD97":166095.66,"N_COORD97":2544609.4900000002,"ADDRESS":"湖美一街３６巷７號","OBJECTID":365085},"geometry":{"x":166095.66000000108,"y":2544609.4900000002}},{"attributes":{"ID":365096,"DIS_CODE":0,"TOWNNAME":"中西區","LI":"西湖里","LIN":"12鄰","STREET":"湖美一街","SECT":" ","MAREA":" ","LANE":"３６巷","ALLEY":" ","HOUSE_NO":"８號","E_COORD97":166100.04000000001,"N_COORD97":2544609.73,"ADDRESS":"湖美一街３６巷８號","OBJECTID":365086},"geometry":{"x":166100.04000000004,"y":2544609.7300000042}},{"attributes":{"ID":365097,"DIS_CODE":0,"TOWNNAME":"中西區","LI":"西湖里","LIN":"12鄰","STREET":"湖美一街","SECT":" ","MAREA":" ","LANE":"３６巷","ALLEY":" ","HOUSE_NO":"９號","E_COORD97":166104.17999999999,"N_COORD97":2544610.2200000002,"ADDRESS":"湖美一街３６巷９號","OBJECTID":365087},"geometry":{"x":166104.1799999997,"y":2544610.2200000044}},{"attributes":{"ID":365098,"DIS_CODE":0,"TOWNNAME":"中西區","LI":"西湖里","LIN":"12鄰","STREET":"湖美一街","SECT":" ","MAREA":" ","LANE":"３９巷","ALLEY":" ","HOUSE_NO":"１０號","E_COORD97":166035.07000000001,"N_COORD97":2544584.2200000002,"ADDRESS":"湖美一街３９巷１０號","OBJECTID":365088},"geometry":{"x":166035.07000000123,"y":2544584.2200000025}},{"attributes":{"ID":365099,"DIS_CODE":0,"TOWNNAME":"中西區","LI":"西湖里","LIN":"12鄰","STREET":"湖美一街","SECT":" ","MAREA":" ","LANE":"３９巷","ALLEY":" ","HOUSE_NO":"１１號","E_COORD97":166032.39000000001,"N_COORD97":2544559.4300000002,"ADDRESS":"湖美一街３９巷１１號","OBJECTID":365089},"geometry":{"x":166032.3900000006,"y":2544559.4299999997}},{"attributes":{"ID":365100,"DIS_CODE":0,"TOWNNAME":"中西區","LI":"西湖里","LIN":"12鄰","STREET":"湖美一街","SECT":" ","MAREA":" ","LANE":"３９巷","ALLEY":" ","HOUSE_NO":"１號","E_COORD97":166057.45999999999,"N_COORD97":2544560.1600000001,"ADDRESS":"湖美一街３９巷１號","OBJECTID":365090},"geometry":{"x":166057.46000000089,"y":2544560.160000002}},{"attributes":{"ID":365101,"DIS_CODE":0,"TOWNNAME":"中西區","LI":"西湖里","LIN":"12鄰","STREET":"湖美一街","SECT":" ","MAREA":" ","LANE":"３９巷","ALLEY":" ","HOUSE_NO":"２號","E_COORD97":166054.29000000001,"N_COORD97":2544583.2400000002,"ADDRESS":"湖美一街３９巷２號","OBJECTID":365091},"geometry":{"x":166054.29000000004,"y":2544583.2400000021}},{"attributes":{"ID":365102,"DIS_CODE":0,"TOWNNAME":"中西區","LI":"西湖里","LIN":"12鄰","STREET":"湖美一街","SECT":" ","MAREA":" ","LANE":"３９巷","ALLEY":" ","HOUSE_NO":"３號","E_COORD97":166053.07999999999,"N_COORD97":2544559.9100000001,"ADDRESS":"湖美一街３９巷３號","OBJECTID":365092},"geometry":{"x":166053.07999999914,"y":2544559.9100000001}},{"attributes":{"ID":365103,"DIS_CODE":0,"TOWNNAME":"中西區","LI":"西湖里","LIN":"12鄰","STREET":"湖美一街","SECT":" ","MAREA":" ","LANE":"３９巷","ALLEY":" ","HOUSE_NO":"４號","E_COORD97":166047.97,"N_COORD97":2544583.4900000002,"ADDRESS":"湖美一街３９巷４號","OBJECTID":365093},"geometry":{"x":166047.96999999974,"y":2544583.4900000002}},{"attributes":{"ID":365104,"DIS_CODE":0,"TOWNNAME":"東區","LI":"文聖里","LIN":"13鄰","STREET":"裕忠路","SECT":" ","MAREA":" ","LANE":" ","ALLEY":" ","HOUSE_NO":"１８１之１６號","E_COORD97":172347.35999999999,"N_COORD97":2542721.1600000001,"ADDRESS":"裕忠路１８１之１６號","OBJECTID":365094},"geometry":{"x":172347.3599999994,"y":2542721.1599999983}},{"attributes":{"ID":365105,"DIS_CODE":0,"TOWNNAME":"東區","LI":"文聖里","LIN":"13鄰","STREET":"裕忠路","SECT":" ","MAREA":" ","LANE":" ","ALLEY":" ","HOUSE_NO":"１８１之１７號","E_COORD97":172352.60000000001,"N_COORD97":2542722.7999999998,"ADDRESS":"裕忠路１８１之１７號","OBJECTID":365095},"geometry":{"x":172352.60000000056,"y":2542722.8000000007}},{"attributes":{"ID":365106,"DIS_CODE":0,"TOWNNAME":"東區","LI":"和平里","LIN":"1鄰","STREET":"文化一街","SECT":" ","MAREA":" ","LANE":" ","ALLEY":" ","HOUSE_NO":"２號三樓","E_COORD97":171099.45000000001,"N_COORD97":2542097.2200000002,"ADDRESS":"文化一街２號三樓","OBJECTID":365096},"geometry":{"x":171099.45000000112,"y":2542097.2200000007}},{"attributes":{"ID":365107,"DIS_CODE":0,"TOWNNAME":"安南區","LI":"安慶里","LIN":"13鄰","STREET":"安和路","SECT":"二段","MAREA":" ","LANE":"１１１巷","ALLEY":" ","HOUSE_NO":"２０號","E_COORD97":169444.84,"N_COORD97":2548752.6299999999,"ADDRESS":"安和路二段１１１巷２０號","OBJECTID":365097},"geometry":{"x":169444.83999999892,"y":2548752.6300000008}},{"attributes":{"ID":365108,"DIS_CODE":0,"TOWNNAME":"楠西區","LI":"東勢里","LIN":"8鄰","STREET":"忠孝路","SECT":" ","MAREA":" ","LANE":"５１巷","ALLEY":" ","HOUSE_NO":"１８號","E_COORD97":197643.04000000001,"N_COORD97":2564107.25,"ADDRESS":"忠孝路５１巷１８號","OBJECTID":365098},"geometry":{"x":197643.04000000004,"y":2564107.2500000037}},{"attributes":{"ID":365109,"DIS_CODE":0,"TOWNNAME":"楠西區","LI":"楠西里","LIN":"4鄰","STREET":"民族路","SECT":" ","MAREA":" ","LANE":"１１５巷","ALLEY":" ","HOUSE_NO":"５號","E_COORD97":197097.09,"N_COORD97":2564242.29,"ADDRESS":"民族路１１５巷５號","OBJECTID":365099},"geometry":{"x":197097.09000000078,"y":2564242.290000001}},{"attributes":{"ID":365110,"DIS_CODE":0,"TOWNNAME":"安南區","LI":"長安里","LIN":"13鄰","STREET":"公學路","SECT":"二段","MAREA":" ","LANE":"１２５巷","ALLEY":" ","HOUSE_NO":"１１號","E_COORD97":167733.06,"N_COORD97":2552238.5099999998,"ADDRESS":"公學路二段１２５巷１１號","OBJECTID":365100},"geometry":{"x":167733.06000000052,"y":2552238.5099999998}},{"attributes":{"ID":365111,"DIS_CODE":0,"TOWNNAME":"安南區","LI":"長安里","LIN":"13鄰","STREET":"公學路","SECT":"二段","MAREA":" ","LANE":"１２５巷","ALLEY":" ","HOUSE_NO":"１３號","E_COORD97":167736.35000000001,"N_COORD97":2552235.1499999999,"ADDRESS":"公學路二段１２５巷１３號","OBJECTID":365101},"geometry":{"x":167736.35000000056,"y":2552235.1500000041}},{"attributes":{"ID":365112,"DIS_CODE":0,"TOWNNAME":"安南區","LI":"長安里","LIN":"13鄰","STREET":"公學路","SECT":"二段","MAREA":" ","LANE":"１２５巷","ALLEY":" ","HOUSE_NO":"１７號","E_COORD97":167739.45000000001,"N_COORD97":2552223.27,"ADDRESS":"公學路二段１２５巷１７號","OBJECTID":365102},"geometry":{"x":167739.45000000112,"y":2552223.2700000033}},{"attributes":{"ID":365113,"DIS_CODE":0,"TOWNNAME":"安南區","LI":"城南里","LIN":"13鄰","STREET":"城西街","SECT":"二段","MAREA":" ","LANE":"２６３巷","ALLEY":" ","HOUSE_NO":"３號","E_COORD97":159705.69,"N_COORD97":2550952.6600000001,"ADDRESS":"城西街二段２６３巷３號","OBJECTID":365103},"geometry":{"x":159705.69000000041,"y":2550952.6600000001}},{"attributes":{"ID":365114,"DIS_CODE":0,"TOWNNAME":"安南區","LI":"城南里","LIN":"13鄰","STREET":"城西街","SECT":"二段","MAREA":" ","LANE":"２３３巷","ALLEY":" ","HOUSE_NO":"３３號","E_COORD97":159741.81,"N_COORD97":2550877.98,"ADDRESS":"城西街二段２３３巷３３號","OBJECTID":365104},"geometry":{"x":159741.81000000052,"y":2550877.9800000023}},{"attributes":{"ID":365115,"DIS_CODE":0,"TOWNNAME":"麻豆區","LI":"中興里","LIN":"12鄰","STREET":"三民路","SECT":" ","MAREA":" ","LANE":"２０巷","ALLEY":" ","HOUSE_NO":"１號","E_COORD97":172740.45000000001,"N_COORD97":2564703.0099999998,"ADDRESS":"三民路２０巷１號","OBJECTID":365105},"geometry":{"x":172740.45000000112,"y":2564703.0100000016}},{"attributes":{"ID":365116,"DIS_CODE":0,"TOWNNAME":"中西區","LI":"西湖里","LIN":"12鄰","STREET":"湖美一街","SECT":" ","MAREA":" ","LANE":"３９巷","ALLEY":" ","HOUSE_NO":"５號","E_COORD97":166047.48000000001,"N_COORD97":2544559.9100000001,"ADDRESS":"湖美一街３９巷５號","OBJECTID":365106},"geometry":{"x":166047.48000000231,"y":2544559.9100000001}},{"attributes":{"ID":365117,"DIS_CODE":0,"TOWNNAME":"東區","LI":"文聖里","LIN":"13鄰","STREET":"裕忠路","SECT":" ","MAREA":" ","LANE":" ","ALLEY":" ","HOUSE_NO":"１８１之１號","E_COORD97":172287.60000000001,"N_COORD97":2542721.6499999999,"ADDRESS":"裕忠路１８１之１號","OBJECTID":365107},"geometry":{"x":172287.60000000149,"y":2542721.6500000041}},{"attributes":{"ID":365118,"DIS_CODE":0,"TOWNNAME":"東區","LI":"文聖里","LIN":"13鄰","STREET":"裕忠路","SECT":" ","MAREA":" ","LANE":" ","ALLEY":" ","HOUSE_NO":"１８１之２號","E_COORD97":172290.22,"N_COORD97":2542724.4399999999,"ADDRESS":"裕忠路１８１之２號","OBJECTID":365108},"geometry":{"x":172290.2200000016,"y":2542724.4399999995}},{"attributes":{"ID":365119,"DIS_CODE":0,"TOWNNAME":"東區","LI":"文聖里","LIN":"13鄰","STREET":"裕忠路","SECT":" ","MAREA":" ","LANE":" ","ALLEY":" ","HOUSE_NO":"１８１之３號","E_COORD97":172294.14999999999,"N_COORD97":2542721.4900000002,"ADDRESS":"裕忠路１８１之３號","OBJECTID":365109},"geometry":{"x":172294.15000000037,"y":2542721.4900000002}},{"attributes":{"ID":365120,"DIS_CODE":0,"TOWNNAME":"東區","LI":"文聖里","LIN":"13鄰","STREET":"裕忠路","SECT":" ","MAREA":" ","LANE":" ","ALLEY":" ","HOUSE_NO":"１８１之５號","E_COORD97":172298.41,"N_COORD97":2542724.1099999999,"ADDRESS":"裕忠路１８１之５號","OBJECTID":365110},"geometry":{"x":172298.41000000108,"y":2542724.1099999975}},{"attributes":{"ID":365121,"DIS_CODE":0,"TOWNNAME":"東區","LI":"文聖里","LIN":"13鄰","STREET":"裕忠路","SECT":" ","MAREA":" ","LANE":" ","ALLEY":" ","HOUSE_NO":"１８１之６號","E_COORD97":172302.66,"N_COORD97":2542721.1600000001,"ADDRESS":"裕忠路１８１之６號","OBJECTID":365111},"geometry":{"x":172302.66000000015,"y":2542721.1599999983}},{"attributes":{"ID":365122,"DIS_CODE":0,"TOWNNAME":"東區","LI":"文聖里","LIN":"13鄰","STREET":"裕忠路","SECT":" ","MAREA":" ","LANE":" ","ALLEY":" ","HOUSE_NO":"１８１之７號","E_COORD97":172307.25,"N_COORD97":2542724.1099999999,"ADDRESS":"裕忠路１８１之７號","OBJECTID":365112},"geometry":{"x":172307.25000000186,"y":2542724.1099999975}},{"attributes":{"ID":365123,"DIS_CODE":0,"TOWNNAME":"東區","LI":"文聖里","LIN":"13鄰","STREET":"裕忠路","SECT":" ","MAREA":" ","LANE":" ","ALLEY":" ","HOUSE_NO":"１８１之８號","E_COORD97":172311.01000000001,"N_COORD97":2542720.6699999999,"ADDRESS":"裕忠路１８１之８號","OBJECTID":365113},"geometry":{"x":172311.01000000071,"y":2542720.6699999999}},{"attributes":{"ID":365124,"DIS_CODE":0,"TOWNNAME":"東區","LI":"文聖里","LIN":"13鄰","STREET":"裕忠路","SECT":" ","MAREA":" ","LANE":" ","ALLEY":" ","HOUSE_NO":"１８１之９號","E_COORD97":172317.73000000001,"N_COORD97":2542721.6499999999,"ADDRESS":"裕忠路１８１之９號","OBJECTID":365114},"geometry":{"x":172317.73000000045,"y":2542721.6500000041}},{"attributes":{"ID":365125,"DIS_CODE":0,"TOWNNAME":"安南區","LI":"溪東里","LIN":"13鄰","STREET":"府安路","SECT":"五段","MAREA":" ","LANE":"１１巷","ALLEY":" ","HOUSE_NO":"７２號","E_COORD97":168469.48000000001,"N_COORD97":2547402.9700000002,"ADDRESS":"府安路五段１１巷７２號","OBJECTID":365115},"geometry":{"x":168469.48000000045,"y":2547402.9700000025}},{"attributes":{"ID":365126,"DIS_CODE":0,"TOWNNAME":"永康區","LI":"中華里","LIN":"13鄰","STREET":"小東路","SECT":" ","MAREA":" ","LANE":"５９１巷","ALLEY":" ","HOUSE_NO":"９號","E_COORD97":171822.89999999999,"N_COORD97":2544422.1000000001,"ADDRESS":"小東路５９１巷９號","OBJECTID":365116},"geometry":{"x":171822.90000000037,"y":2544422.0999999996}},{"attributes":{"ID":365127,"DIS_CODE":0,"TOWNNAME":"永康區","LI":"中華里","LIN":"13鄰","STREET":"忠義街","SECT":" ","MAREA":" ","LANE":"４４巷","ALLEY":" ","HOUSE_NO":"３０號","E_COORD97":171805.85999999999,"N_COORD97":2544463.77,"ADDRESS":"忠義街４４巷３０號","OBJECTID":365117},"geometry":{"x":171805.86000000127,"y":2544463.7700000014}},{"attributes":{"ID":365128,"DIS_CODE":0,"TOWNNAME":"永康區","LI":"中華里","LIN":"13鄰","STREET":"小東路","SECT":" ","MAREA":" ","LANE":"５９１巷","ALLEY":" ","HOUSE_NO":"７號","E_COORD97":171822.79000000001,"N_COORD97":2544412.5800000001,"ADDRESS":"小東路５９１巷７號","OBJECTID":365118},"geometry":{"x":171822.79000000097,"y":2544412.5800000001}},{"attributes":{"ID":365129,"DIS_CODE":0,"TOWNNAME":"永康區","LI":"中華里","LIN":"13鄰","STREET":"小東路","SECT":" ","MAREA":" ","LANE":"５９１巷","ALLEY":" ","HOUSE_NO":"３號","E_COORD97":171823.87,"N_COORD97":2544398.1600000001,"ADDRESS":"小東路５９１巷３號","OBJECTID":365119},"geometry":{"x":171823.87000000104,"y":2544398.1600000001}},{"attributes":{"ID":365130,"DIS_CODE":0,"TOWNNAME":"大內區","LI":"內江里","LIN":"13鄰","STREET":" ","SECT":" ","MAREA":"蒙正","LANE":" ","ALLEY":" ","HOUSE_NO":"１４號之１","E_COORD97":185676.28,"N_COORD97":2556214.2999999998,"ADDRESS":"蒙正１４號之１","OBJECTID":365120},"geometry":{"x":185676.28000000119,"y":2556214.3000000007}},{"attributes":{"ID":365131,"DIS_CODE":0,"TOWNNAME":"中西區","LI":"西湖里","LIN":"12鄰","STREET":"湖美一街","SECT":" ","MAREA":" ","LANE":"３９巷","ALLEY":" ","HOUSE_NO":"６號","E_COORD97":166043.82999999999,"N_COORD97":2544583.9700000002,"ADDRESS":"湖美一街３９巷６號","OBJECTID":365121},"geometry":{"x":166043.83000000101,"y":2544583.9700000007}},{"attributes":{"ID":365132,"DIS_CODE":0,"TOWNNAME":"中西區","LI":"西湖里","LIN":"12鄰","STREET":"湖美一街","SECT":" ","MAREA":" ","LANE":"３９巷","ALLEY":" ","HOUSE_NO":"７號","E_COORD97":166042.37,"N_COORD97":2544559.9100000001,"ADDRESS":"湖美一街３９巷７號","OBJECTID":365122},"geometry":{"x":166042.37000000011,"y":2544559.9100000001}},{"attributes":{"ID":365133,"DIS_CODE":0,"TOWNNAME":"中西區","LI":"西湖里","LIN":"12鄰","STREET":"湖美一街","SECT":" ","MAREA":" ","LANE":"３９巷","ALLEY":" ","HOUSE_NO":"８號","E_COORD97":166039.69,"N_COORD97":2544583.9700000002,"ADDRESS":"湖美一街３９巷８號","OBJECTID":365123},"geometry":{"x":166039.69000000134,"y":2544583.9700000007}},{"attributes":{"ID":365134,"DIS_CODE":0,"TOWNNAME":"中西區","LI":"西湖里","LIN":"12鄰","STREET":"湖美一街","SECT":" ","MAREA":" ","LANE":"３９巷","ALLEY":" ","HOUSE_NO":"９號","E_COORD97":166037.26000000001,"N_COORD97":2544559.4300000002,"ADDRESS":"湖美一街３９巷９號","OBJECTID":365124},"geometry":{"x":166037.25999999978,"y":2544559.4299999997}},{"attributes":{"ID":365135,"DIS_CODE":0,"TOWNNAME":"中西區","LI":"西湖里","LIN":"12鄰","STREET":"湖美一街","SECT":" ","MAREA":" ","LANE":"４３巷","ALLEY":" ","HOUSE_NO":"２號","E_COORD97":166055.75,"N_COORD97":2544608.7599999998,"ADDRESS":"湖美一街４３巷２號","OBJECTID":365125},"geometry":{"x":166055.75000000093,"y":2544608.7600000035}},{"attributes":{"ID":365136,"DIS_CODE":0,"TOWNNAME":"中西區","LI":"西湖里","LIN":"12鄰","STREET":"湖美一街","SECT":" ","MAREA":" ","LANE":"４３巷","ALLEY":" ","HOUSE_NO":"４號","E_COORD97":166051.37,"N_COORD97":2544609.25,"ADDRESS":"湖美一街４３巷４號","OBJECTID":365126},"geometry":{"x":166051.37000000197,"y":2544609.2500000037}},{"attributes":{"ID":365137,"DIS_CODE":0,"TOWNNAME":"中西區","LI":"西湖里","LIN":"12鄰","STREET":"湖美一街","SECT":" ","MAREA":" ","LANE":"４３巷","ALLEY":" ","HOUSE_NO":"６號","E_COORD97":166047.23999999999,"N_COORD97":2544608.2799999998,"ADDRESS":"湖美一街４３巷６號","OBJECTID":365127},"geometry":{"x":166047.24000000209,"y":2544608.2800000031}},{"attributes":{"ID":365138,"DIS_CODE":0,"TOWNNAME":"中西區","LI":"西湖里","LIN":"12鄰","STREET":"湖美一街","SECT":" ","MAREA":" ","LANE":"４３巷","ALLEY":" ","HOUSE_NO":"８號","E_COORD97":166043.10000000001,"N_COORD97":2544608.52,"ADDRESS":"湖美一街４３巷８號","OBJECTID":365128},"geometry":{"x":166043.10000000056,"y":2544608.5199999996}},{"attributes":{"ID":365139,"DIS_CODE":0,"TOWNNAME":"中西區","LI":"西湖里","LIN":"12鄰","STREET":"湖美二街","SECT":" ","MAREA":" ","LANE":"３２巷","ALLEY":" ","HOUSE_NO":"１１號","E_COORD97":166165.5,"N_COORD97":2544587.6400000001,"ADDRESS":"湖美二街３２巷１１號","OBJECTID":365129},"geometry":{"x":166165.50000000186,"y":2544587.6400000025}},{"attributes":{"ID":365140,"DIS_CODE":0,"TOWNNAME":"中西區","LI":"西湖里","LIN":"12鄰","STREET":"湖美二街","SECT":" ","MAREA":" ","LANE":"３２巷","ALLEY":" ","HOUSE_NO":"１號","E_COORD97":166143.10999999999,"N_COORD97":2544587.6400000001,"ADDRESS":"湖美二街３２巷１號","OBJECTID":365130},"geometry":{"x":166143.1100000022,"y":2544587.6400000025}},{"attributes":{"ID":365141,"DIS_CODE":0,"TOWNNAME":"中西區","LI":"西湖里","LIN":"12鄰","STREET":"湖美二街","SECT":" ","MAREA":" ","LANE":"３２巷","ALLEY":" ","HOUSE_NO":"２號","E_COORD97":166146.03,"N_COORD97":2544564.3100000001,"ADDRESS":"湖美二街３２巷２號","OBJECTID":365131},"geometry":{"x":166146.03000000119,"y":2544564.3100000005}},{"attributes":{"ID":365142,"DIS_CODE":0,"TOWNNAME":"中西區","LI":"西湖里","LIN":"12鄰","STREET":"湖美二街","SECT":" ","MAREA":" ","LANE":"３２巷","ALLEY":" ","HOUSE_NO":"３號","E_COORD97":166147.73000000001,"N_COORD97":2544587.6400000001,"ADDRESS":"湖美二街３２巷３號","OBJECTID":365132},"geometry":{"x":166147.73000000138,"y":2544587.6400000025}},{"attributes":{"ID":365143,"DIS_CODE":0,"TOWNNAME":"中西區","LI":"西湖里","LIN":"12鄰","STREET":"湖美二街","SECT":" ","MAREA":" ","LANE":"３２巷","ALLEY":" ","HOUSE_NO":"４號","E_COORD97":166153.82000000001,"N_COORD97":2544564.7999999998,"ADDRESS":"湖美二街３２巷４號","OBJECTID":365133},"geometry":{"x":166153.82000000123,"y":2544564.8000000007}},{"attributes":{"ID":365144,"DIS_CODE":0,"TOWNNAME":"中西區","LI":"西湖里","LIN":"12鄰","STREET":"湖美二街","SECT":" ","MAREA":" ","LANE":"３２巷","ALLEY":" ","HOUSE_NO":"５號","E_COORD97":166152.10999999999,"N_COORD97":2544587.8900000001,"ADDRESS":"湖美二街３２巷５號","OBJECTID":365134},"geometry":{"x":166152.11000000127,"y":2544587.8900000006}},{"attributes":{"ID":365145,"DIS_CODE":0,"TOWNNAME":"中西區","LI":"西湖里","LIN":"12鄰","STREET":"湖美二街","SECT":" ","MAREA":" ","LANE":"３２巷","ALLEY":" ","HOUSE_NO":"６號","E_COORD97":166161.85000000001,"N_COORD97":2544565.2799999998,"ADDRESS":"湖美二街３２巷６號","OBJECTID":365135},"geometry":{"x":166161.85000000056,"y":2544565.2800000012}},{"attributes":{"ID":365146,"DIS_CODE":0,"TOWNNAME":"中西區","LI":"西湖里","LIN":"12鄰","STREET":"湖美二街","SECT":" ","MAREA":" ","LANE":"３２巷","ALLEY":" ","HOUSE_NO":"７號","E_COORD97":166156.48999999999,"N_COORD97":2544587.3999999999,"ADDRESS":"湖美二街３２巷７號","OBJECTID":365136},"geometry":{"x":166156.49000000115,"y":2544587.4000000004}},{"attributes":{"ID":365147,"DIS_CODE":0,"TOWNNAME":"中西區","LI":"西湖里","LIN":"12鄰","STREET":"湖美二街","SECT":" ","MAREA":" ","LANE":"３２巷","ALLEY":" ","HOUSE_NO":"８號","E_COORD97":166169.39000000001,"N_COORD97":2544564.7999999998,"ADDRESS":"湖美二街３２巷８號","OBJECTID":365137},"geometry":{"x":166169.39000000153,"y":2544564.8000000007}},{"attributes":{"ID":365148,"DIS_CODE":0,"TOWNNAME":"中西區","LI":"西湖里","LIN":"12鄰","STREET":"湖美二街","SECT":" ","MAREA":" ","LANE":"３２巷","ALLEY":" ","HOUSE_NO":"９號","E_COORD97":166160.87,"N_COORD97":2544587.8900000001,"ADDRESS":"湖美二街３２巷９號","OBJECTID":365138},"geometry":{"x":166160.87000000011,"y":2544587.8900000006}},{"attributes":{"ID":365149,"DIS_CODE":0,"TOWNNAME":"中西區","LI":"西湖里","LIN":"12鄰","STREET":"湖美二街","SECT":" ","MAREA":" ","LANE":"３６巷","ALLEY":" ","HOUSE_NO":"１號","E_COORD97":166142.38,"N_COORD97":2544611.2200000002,"ADDRESS":"湖美二街３６巷１號","OBJECTID":365139},"geometry":{"x":166142.37999999896,"y":2544611.2200000025}},{"attributes":{"ID":365150,"DIS_CODE":0,"TOWNNAME":"東區","LI":"文聖里","LIN":"13鄰","STREET":"裕忠路","SECT":" ","MAREA":" ","LANE":" ","ALLEY":" ","HOUSE_NO":"１８１號","E_COORD97":172281.70999999999,"N_COORD97":2542723.46,"ADDRESS":"裕忠路１８１號","OBJECTID":365140},"geometry":{"x":172281.70999999996,"y":2542723.4600000046}},{"attributes":{"ID":365151,"DIS_CODE":0,"TOWNNAME":"東區","LI":"文聖里","LIN":"13鄰","STREET":"裕忠路","SECT":" ","MAREA":" ","LANE":" ","ALLEY":" ","HOUSE_NO":"１８３號","E_COORD97":172274.34,"N_COORD97":2542729.02,"ADDRESS":"裕忠路１８３號","OBJECTID":365141},"geometry":{"x":172274.34000000171,"y":2542729.0200000014}},{"attributes":{"ID":365152,"DIS_CODE":0,"TOWNNAME":"東區","LI":"文聖里","LIN":"13鄰","STREET":"裕忠路","SECT":" ","MAREA":" ","LANE":" ","ALLEY":" ","HOUSE_NO":"１８５號","E_COORD97":172274.34,"N_COORD97":2542720.02,"ADDRESS":"裕忠路１８５號","OBJECTID":365142},"geometry":{"x":172274.34000000171,"y":2542720.0200000014}},{"attributes":{"ID":365153,"DIS_CODE":0,"TOWNNAME":"東區","LI":"文聖里","LIN":"13鄰","STREET":"裕忠路","SECT":" ","MAREA":" ","LANE":" ","ALLEY":" ","HOUSE_NO":"１８７號","E_COORD97":172274.34,"N_COORD97":2542709.54,"ADDRESS":"裕忠路１８７號","OBJECTID":365143},"geometry":{"x":172274.34000000171,"y":2542709.5399999991}},{"attributes":{"ID":365154,"DIS_CODE":0,"TOWNNAME":"大內區","LI":"內江里","LIN":"13鄰","STREET":" ","SECT":" ","MAREA":"蒙正","LANE":" ","ALLEY":" ","HOUSE_NO":"１２號","E_COORD97":185658.14000000001,"N_COORD97":2556208.25,"ADDRESS":"蒙正１２號","OBJECTID":365144},"geometry":{"x":185658.13999999966,"y":2556208.2500000019}},{"attributes":{"ID":365155,"DIS_CODE":0,"TOWNNAME":"東區","LI":"文聖里","LIN":"13鄰","STREET":"裕忠路","SECT":" ","MAREA":" ","LANE":" ","ALLEY":" ","HOUSE_NO":"１８９號","E_COORD97":172274.34,"N_COORD97":2542702.0099999998,"ADDRESS":"裕忠路１８９號","OBJECTID":365145},"geometry":{"x":172274.34000000171,"y":2542702.0100000016}},{"attributes":{"ID":365156,"DIS_CODE":0,"TOWNNAME":"中西區","LI":"西湖里","LIN":"13鄰","STREET":"湖美一街","SECT":" ","MAREA":" ","LANE":"４９巷","ALLEY":" ","HOUSE_NO":"１１號","E_COORD97":166034.57999999999,"N_COORD97":2544624.5600000001,"ADDRESS":"湖美一街４９巷１１號","OBJECTID":365146},"geometry":{"x":166034.58000000194,"y":2544624.5600000042}},{"attributes":{"ID":365157,"DIS_CODE":0,"TOWNNAME":"中西區","LI":"西湖里","LIN":"13鄰","STREET":"湖美一街","SECT":" ","MAREA":" ","LANE":"４９巷","ALLEY":" ","HOUSE_NO":"１３號","E_COORD97":166029.95999999999,"N_COORD97":2544624.5600000001,"ADDRESS":"湖美一街４９巷１３號","OBJECTID":365147},"geometry":{"x":166029.95999999996,"y":2544624.5600000042}},{"attributes":{"ID":365158,"DIS_CODE":0,"TOWNNAME":"中西區","LI":"西湖里","LIN":"13鄰","STREET":"湖美一街","SECT":" ","MAREA":" ","LANE":"４９巷","ALLEY":" ","HOUSE_NO":"１號","E_COORD97":166055.51000000001,"N_COORD97":2544624.0699999998,"ADDRESS":"湖美一街４９巷１號","OBJECTID":365148},"geometry":{"x":166055.51000000071,"y":2544624.070000004}},{"attributes":{"ID":365159,"DIS_CODE":0,"TOWNNAME":"中西區","LI":"西湖里","LIN":"12鄰","STREET":"湖美二街","SECT":" ","MAREA":" ","LANE":"３６巷","ALLEY":" ","HOUSE_NO":"２號","E_COORD97":166147,"N_COORD97":2544610.73,"ADDRESS":"湖美二街３６巷２號","OBJECTID":365149},"geometry":{"x":166147.00000000186,"y":2544610.7300000023}},{"attributes":{"ID":365160,"DIS_CODE":0,"TOWNNAME":"中西區","LI":"西湖里","LIN":"12鄰","STREET":"湖美二街","SECT":" ","MAREA":" ","LANE":"３６巷","ALLEY":" ","HOUSE_NO":"４號","E_COORD97":166160.39000000001,"N_COORD97":2544611.9399999999,"ADDRESS":"湖美二街３６巷４號","OBJECTID":365150},"geometry":{"x":166160.38999999966,"y":2544611.9400000013}},{"attributes":{"ID":365161,"DIS_CODE":0,"TOWNNAME":"中西區","LI":"西湖里","LIN":"12鄰","STREET":"湖美二街","SECT":" ","MAREA":" ","LANE":"３６巷","ALLEY":" ","HOUSE_NO":"５號","E_COORD97":166165.01000000001,"N_COORD97":2544611.7000000002,"ADDRESS":"湖美二街３６巷５號","OBJECTID":365151},"geometry":{"x":166165.00999999978,"y":2544611.6999999993}},{"attributes":{"ID":365162,"DIS_CODE":0,"TOWNNAME":"中西區","LI":"西湖里","LIN":"12鄰","STREET":"湖美二街","SECT":" ","MAREA":" ","LANE":"３６巷","ALLEY":" ","HOUSE_NO":"６號","E_COORD97":166168.89999999999,"N_COORD97":2544612.1899999999,"ADDRESS":"湖美二街３６巷６號","OBJECTID":365152},"geometry":{"x":166168.9000000013,"y":2544612.1899999976}},{"attributes":{"ID":365163,"DIS_CODE":0,"TOWNNAME":"中西區","LI":"西湖里","LIN":"12鄰","STREET":"湖美二街","SECT":" ","MAREA":" ","LANE":"３６巷","ALLEY":" ","HOUSE_NO":"３號","E_COORD97":166152.84,"N_COORD97":2544612.1899999999,"ADDRESS":"湖美二街３６巷３號","OBJECTID":365153},"geometry":{"x":166152.84000000171,"y":2544612.1899999976}},{"attributes":{"ID":365164,"DIS_CODE":0,"TOWNNAME":"中西區","LI":"西湖里","LIN":"12鄰","STREET":"湖美一街","SECT":" ","MAREA":" ","LANE":"３９巷","ALLEY":" ","HOUSE_NO":"１２號","E_COORD97":166030.69,"N_COORD97":2544584.46,"ADDRESS":"湖美一街３９巷１２號","OBJECTID":365154},"geometry":{"x":166030.69000000227,"y":2544584.4600000009}},{"attributes":{"ID":365165,"DIS_CODE":0,"TOWNNAME":"中西區","LI":"西湖里","LIN":"12鄰","STREET":"湖美一街","SECT":" ","MAREA":" ","LANE":"３２巷","ALLEY":" ","HOUSE_NO":"１０號","E_COORD97":166108.56,"N_COORD97":2544564.3100000001,"ADDRESS":"湖美一街３２巷１０號","OBJECTID":365155},"geometry":{"x":166108.55999999959,"y":2544564.3100000005}},{"attributes":{"ID":365166,"DIS_CODE":0,"TOWNNAME":"中西區","LI":"西湖里","LIN":"12鄰","STREET":"湖美一街","SECT":" ","MAREA":" ","LANE":"３２巷","ALLEY":" ","HOUSE_NO":"８號","E_COORD97":166103.92999999999,"N_COORD97":2544564.3100000001,"ADDRESS":"湖美一街３２巷８號","OBJECTID":365156},"geometry":{"x":166103.9299999997,"y":2544564.3100000005}},{"attributes":{"ID":365167,"DIS_CODE":0,"TOWNNAME":"仁德區","LI":"中洲里","LIN":"13鄰","STREET":" ","SECT":" ","MAREA":"中洲","LANE":" ","ALLEY":" ","HOUSE_NO":"３４９號之２","E_COORD97":173343.10000000001,"N_COORD97":2534099.7999999998,"ADDRESS":"中洲３４９號之２","OBJECTID":365157},"geometry":{"x":173343.09999999963,"y":2534099.8000000026}},{"attributes":{"ID":365168,"DIS_CODE":0,"TOWNNAME":"中西區","LI":"西湖里","LIN":"12鄰","STREET":"湖美一街","SECT":" ","MAREA":" ","LANE":"３２巷","ALLEY":" ","HOUSE_NO":"１２號","E_COORD97":166112.20999999999,"N_COORD97":2544565.5299999998,"ADDRESS":"湖美一街３２巷１２號","OBJECTID":365158},"geometry":{"x":166112.21000000089,"y":2544565.5299999975}},{"attributes":{"ID":365169,"DIS_CODE":0,"TOWNNAME":"中西區","LI":"西湖里","LIN":"12鄰","STREET":"湖美一街","SECT":" ","MAREA":" ","LANE":"３２巷","ALLEY":" ","HOUSE_NO":"１４號","E_COORD97":166116.34,"N_COORD97":2544564.3100000001,"ADDRESS":"湖美一街３２巷１４號","OBJECTID":365159},"geometry":{"x":166116.34000000078,"y":2544564.3100000005}},{"attributes":{"ID":365170,"DIS_CODE":0,"TOWNNAME":"中西區","LI":"西湖里","LIN":"12鄰","STREET":"湖美一街","SECT":" ","MAREA":" ","LANE":"３２巷","ALLEY":" ","HOUSE_NO":"１４號之１","E_COORD97":166120.23999999999,"N_COORD97":2544565.77,"ADDRESS":"湖美一街３２巷１４號之１","OBJECTID":365160},"geometry":{"x":166120.24000000115,"y":2544565.7700000014}},{"attributes":{"ID":365171,"DIS_CODE":0,"TOWNNAME":"中西區","LI":"西湖里","LIN":"12鄰","STREET":"湖美一街","SECT":" ","MAREA":" ","LANE":"３２巷","ALLEY":" ","HOUSE_NO":"１４號之２","E_COORD97":166124.37,"N_COORD97":2544564.5600000001,"ADDRESS":"湖美一街３２巷１４號之２","OBJECTID":365161},"geometry":{"x":166124.37000000104,"y":2544564.5600000024}},{"attributes":{"ID":365172,"DIS_CODE":0,"TOWNNAME":"仁德區","LI":"仁義里","LIN":"12鄰","STREET":"中山路","SECT":" ","MAREA":" ","LANE":"１０巷","ALLEY":" ","HOUSE_NO":"３７號","E_COORD97":175222.95000000001,"N_COORD97":2541199.9900000002,"ADDRESS":"中山路１０巷３７號","OBJECTID":365162},"geometry":{"x":175222.95000000019,"y":2541199.9900000002}},{"attributes":{"ID":365173,"DIS_CODE":0,"TOWNNAME":"安南區","LI":"幸福里","LIN":"12鄰","STREET":"府安路","SECT":"六段","MAREA":" ","LANE":"８６巷","ALLEY":" ","HOUSE_NO":"２６號","E_COORD97":166797.84,"N_COORD97":2546608.7799999998,"ADDRESS":"府安路六段８６巷２６號","OBJECTID":365163},"geometry":{"x":166797.84000000078,"y":2546608.7800000012}},{"attributes":{"ID":365174,"DIS_CODE":0,"TOWNNAME":"仁德區","LI":"中洲里","LIN":"13鄰","STREET":" ","SECT":" ","MAREA":"中洲","LANE":" ","ALLEY":" ","HOUSE_NO":"３５３號","E_COORD97":173343.89999999999,"N_COORD97":2534146.2400000002,"ADDRESS":"中洲３５３號","OBJECTID":365164},"geometry":{"x":173343.89999999944,"y":2534146.2400000002}},{"attributes":{"ID":365175,"DIS_CODE":0,"TOWNNAME":"仁德區","LI":"中洲里","LIN":"13鄰","STREET":" ","SECT":" ","MAREA":"中洲","LANE":" ","ALLEY":" ","HOUSE_NO":"３５６號之１","E_COORD97":173332.42000000001,"N_COORD97":2534222.5499999998,"ADDRESS":"中洲３５６號之１","OBJECTID":365165},"geometry":{"x":173332.41999999993,"y":2534222.5500000007}},{"attributes":{"ID":365176,"DIS_CODE":0,"TOWNNAME":"東區","LI":"文聖里","LIN":"13鄰","STREET":"裕忠路","SECT":" ","MAREA":" ","LANE":" ","ALLEY":" ","HOUSE_NO":"１８９之１０號","E_COORD97":172320.51000000001,"N_COORD97":2542702.0099999998,"ADDRESS":"裕忠路１８９之１０號","OBJECTID":365166},"geometry":{"x":172320.51000000164,"y":2542702.0100000016}},{"attributes":{"ID":365177,"DIS_CODE":0,"TOWNNAME":"仁德區","LI":"中洲里","LIN":"13鄰","STREET":" ","SECT":" ","MAREA":"中洲","LANE":" ","ALLEY":" ","HOUSE_NO":"３４９號之３","E_COORD97":173338.78,"N_COORD97":2534099.2999999998,"ADDRESS":"中洲３４９號之３","OBJECTID":365167},"geometry":{"x":173338.78000000119,"y":2534099.3000000045}},{"attributes":{"ID":365178,"DIS_CODE":0,"TOWNNAME":"仁德區","LI":"中洲里","LIN":"13鄰","STREET":" ","SECT":" ","MAREA":"中洲","LANE":" ","ALLEY":" ","HOUSE_NO":"３５３號之１","E_COORD97":173345.04000000001,"N_COORD97":2534150.54,"ADDRESS":"中洲３５３號之１","OBJECTID":365168},"geometry":{"x":173345.04000000097,"y":2534150.540000001}},{"attributes":{"ID":365179,"DIS_CODE":0,"TOWNNAME":"東區","LI":"文聖里","LIN":"13鄰","STREET":"裕忠路","SECT":" ","MAREA":" ","LANE":" ","ALLEY":" ","HOUSE_NO":"１８９之１１號","E_COORD97":172327.39000000001,"N_COORD97":2542701.8399999999,"ADDRESS":"裕忠路１８９之１１號","OBJECTID":365169},"geometry":{"x":172327.38999999966,"y":2542701.8399999999}},{"attributes":{"ID":365180,"DIS_CODE":0,"TOWNNAME":"仁德區","LI":"中洲里","LIN":"13鄰","STREET":" ","SECT":" ","MAREA":"中洲","LANE":" ","ALLEY":" ","HOUSE_NO":"３４９號","E_COORD97":173352.95999999999,"N_COORD97":2534116,"ADDRESS":"中洲３４９號","OBJECTID":365170},"geometry":{"x":173352.95999999996,"y":2534116}},{"attributes":{"ID":365181,"DIS_CODE":0,"TOWNNAME":"東區","LI":"文聖里","LIN":"13鄰","STREET":"裕忠路","SECT":" ","MAREA":" ","LANE":" ","ALLEY":" ","HOUSE_NO":"１８９之１２號","E_COORD97":172334.10000000001,"N_COORD97":2542701.52,"ADDRESS":"裕忠路１８９之１２號","OBJECTID":365171},"geometry":{"x":172334.09999999963,"y":2542701.5200000033}},{"attributes":{"ID":365182,"DIS_CODE":0,"TOWNNAME":"東區","LI":"德高里","LIN":"13鄰","STREET":"崇善路","SECT":" ","MAREA":" ","LANE":"１０８９巷","ALLEY":" ","HOUSE_NO":"３號","E_COORD97":171558.03,"N_COORD97":2540540.5,"ADDRESS":"崇善路１０８９巷３號","OBJECTID":365172},"geometry":{"x":171558.03000000212,"y":2540540.5000000019}},{"attributes":{"ID":365183,"DIS_CODE":0,"TOWNNAME":"北門區","LI":"北門里","LIN":"13鄰","STREET":" ","SECT":" ","MAREA":"舊埕","LANE":" ","ALLEY":" ","HOUSE_NO":"２號","E_COORD97":160419.79999999999,"N_COORD97":2574068.52,"ADDRESS":"舊埕２號","OBJECTID":365173},"geometry":{"x":160419.79999999981,"y":2574068.5199999996}},{"attributes":{"ID":365184,"DIS_CODE":0,"TOWNNAME":"東區","LI":"德高里","LIN":"13鄰","STREET":"崇善路","SECT":" ","MAREA":" ","LANE":"１０８９巷","ALLEY":" ","HOUSE_NO":"７號","E_COORD97":171547.44,"N_COORD97":2540547.6400000001,"ADDRESS":"崇善路１０８９巷７號","OBJECTID":365174},"geometry":{"x":171547.44000000134,"y":2540547.6400000006}},{"attributes":{"ID":365185,"DIS_CODE":0,"TOWNNAME":"東區","LI":"文聖里","LIN":"13鄰","STREET":"裕忠路","SECT":" ","MAREA":" ","LANE":" ","ALLEY":" ","HOUSE_NO":"１８９之１３號","E_COORD97":172340.16,"N_COORD97":2542702.0099999998,"ADDRESS":"裕忠路１８９之１３號","OBJECTID":365175},"geometry":{"x":172340.16000000201,"y":2542702.0100000016}},{"attributes":{"ID":365186,"DIS_CODE":0,"TOWNNAME":"東區","LI":"和平里","LIN":"1鄰","STREET":"文化一街","SECT":" ","MAREA":" ","LANE":" ","ALLEY":" ","HOUSE_NO":"２號四樓","E_COORD97":171099.45000000001,"N_COORD97":2542097.2200000002,"ADDRESS":"文化一街２號四樓","OBJECTID":365176},"geometry":{"x":171099.45000000112,"y":2542097.2200000007}},{"attributes":{"ID":365187,"DIS_CODE":0,"TOWNNAME":"善化區","LI":"坐駕里","LIN":"12鄰","STREET":"大成路","SECT":" ","MAREA":" ","LANE":"２７１巷","ALLEY":" ","HOUSE_NO":"９號","E_COORD97":178239.45999999999,"N_COORD97":2558787.25,"ADDRESS":"大成路２７１巷９號","OBJECTID":365177},"geometry":{"x":178239.46000000089,"y":2558787.25}},{"attributes":{"ID":365188,"DIS_CODE":0,"TOWNNAME":"善化區","LI":"坐駕里","LIN":"12鄰","STREET":"大成路","SECT":" ","MAREA":" ","LANE":"２７１巷","ALLEY":" ","HOUSE_NO":"１６號","E_COORD97":178212.56,"N_COORD97":2558780.75,"ADDRESS":"大成路２７１巷１６號","OBJECTID":365178},"geometry":{"x":178212.56000000052,"y":2558780.7500000037}},{"attributes":{"ID":365189,"DIS_CODE":0,"TOWNNAME":"善化區","LI":"光文里","LIN":"12鄰","STREET":"仁愛路","SECT":" ","MAREA":" ","LANE":"２４巷","ALLEY":" ","HOUSE_NO":"２０號","E_COORD97":178601.67999999999,"N_COORD97":2558952.0099999998,"ADDRESS":"仁愛路２４巷２０號","OBJECTID":365179},"geometry":{"x":178601.68000000156,"y":2558952.0100000035}},{"attributes":{"ID":365190,"DIS_CODE":0,"TOWNNAME":"善化區","LI":"光文里","LIN":"12鄰","STREET":"民生路","SECT":" ","MAREA":" ","LANE":"３３巷","ALLEY":" ","HOUSE_NO":"３號","E_COORD97":178829.75,"N_COORD97":2559003.0099999998,"ADDRESS":"民生路３３巷３號","OBJECTID":365180},"geometry":{"x":178829.75,"y":2559003.0100000016}},{"attributes":{"ID":365191,"DIS_CODE":0,"TOWNNAME":"善化區","LI":"光文里","LIN":"12鄰","STREET":"民生路","SECT":" ","MAREA":" ","LANE":"３３巷","ALLEY":" ","HOUSE_NO":"１３號","E_COORD97":178834.57999999999,"N_COORD97":2558976.5099999998,"ADDRESS":"民生路３３巷１３號","OBJECTID":365181},"geometry":{"x":178834.58000000007,"y":2558976.5100000016}},{"attributes":{"ID":365192,"DIS_CODE":0,"TOWNNAME":"善化區","LI":"坐駕里","LIN":"12鄰","STREET":"大成路","SECT":" ","MAREA":" ","LANE":"２７１巷","ALLEY":" ","HOUSE_NO":"１１號","E_COORD97":178238.01999999999,"N_COORD97":2558783,"ADDRESS":"大成路２７１巷１１號","OBJECTID":365182},"geometry":{"x":178238.02000000142,"y":2558783.0000000019}},{"attributes":{"ID":365193,"DIS_CODE":0,"TOWNNAME":"善化區","LI":"光文里","LIN":"12鄰","STREET":"民生路","SECT":" ","MAREA":" ","LANE":"３３巷","ALLEY":" ","HOUSE_NO":"１１號","E_COORD97":178833.88,"N_COORD97":2558982.0099999998,"ADDRESS":"民生路３３巷１１號","OBJECTID":365183},"geometry":{"x":178833.87999999989,"y":2558982.0099999998}},{"attributes":{"ID":365194,"DIS_CODE":0,"TOWNNAME":"善化區","LI":"西關里","LIN":"12鄰","STREET":"復興街","SECT":" ","MAREA":" ","LANE":"９４巷","ALLEY":" ","HOUSE_NO":"２號","E_COORD97":176827.45999999999,"N_COORD97":2559035.7599999998,"ADDRESS":"復興街９４巷２號","OBJECTID":365184},"geometry":{"x":176827.46000000089,"y":2559035.7600000016}},{"attributes":{"ID":365195,"DIS_CODE":0,"TOWNNAME":"善化區","LI":"西關里","LIN":"12鄰","STREET":"復興街","SECT":" ","MAREA":" ","LANE":"９４巷","ALLEY":" ","HOUSE_NO":"２２號","E_COORD97":176830.20000000001,"N_COORD97":2559079.0099999998,"ADDRESS":"復興街９４巷２２號","OBJECTID":365185},"geometry":{"x":176830.20000000019,"y":2559079.0099999998}},{"attributes":{"ID":365196,"DIS_CODE":0,"TOWNNAME":"善化區","LI":"光文里","LIN":"12鄰","STREET":"民生路","SECT":" ","MAREA":" ","LANE":"３３巷","ALLEY":" ","HOUSE_NO":"５號","E_COORD97":178830.84,"N_COORD97":2558997.5099999998,"ADDRESS":"民生路３３巷５號","OBJECTID":365186},"geometry":{"x":178830.83999999985,"y":2558997.5100000016}},{"attributes":{"ID":365197,"DIS_CODE":0,"TOWNNAME":"善化區","LI":"坐駕里","LIN":"12鄰","STREET":"大成路","SECT":" ","MAREA":" ","LANE":"２７１巷","ALLEY":" ","HOUSE_NO":"６號","E_COORD97":178214.29999999999,"N_COORD97":2558799.25,"ADDRESS":"大成路２７１巷６號","OBJECTID":365187},"geometry":{"x":178214.29999999888,"y":2558799.2500000019}},{"attributes":{"ID":365198,"DIS_CODE":0,"TOWNNAME":"善化區","LI":"東關里","LIN":"12鄰","STREET":"中山路","SECT":" ","MAREA":" ","LANE":"３９３巷","ALLEY":" ","HOUSE_NO":"１號","E_COORD97":177393,"N_COORD97":2559071.75,"ADDRESS":"中山路３９３巷１號","OBJECTID":365188},"geometry":{"x":177393.00000000093,"y":2559071.75}},{"attributes":{"ID":365199,"DIS_CODE":0,"TOWNNAME":"善化區","LI":"嘉南里","LIN":"13鄰","STREET":" ","SECT":" ","MAREA":"茄拔","LANE":" ","ALLEY":" ","HOUSE_NO":"３３１號","E_COORD97":180744.85999999999,"N_COORD97":2559477.7599999998,"ADDRESS":"茄拔３３１號","OBJECTID":365189},"geometry":{"x":180744.86000000034,"y":2559477.7599999998}},{"attributes":{"ID":365200,"DIS_CODE":0,"TOWNNAME":"安南區","LI":"溪心里","LIN":"13鄰","STREET":"安中路","SECT":"三段","MAREA":" ","LANE":"２１３巷","ALLEY":" ","HOUSE_NO":"１號","E_COORD97":165898.39999999999,"N_COORD97":2549815.23,"ADDRESS":"安中路三段２１３巷１號","OBJECTID":365190},"geometry":{"x":165898.40000000037,"y":2549815.2300000023}},{"attributes":{"ID":365201,"DIS_CODE":0,"TOWNNAME":"安南區","LI":"溪心里","LIN":"13鄰","STREET":"安中路","SECT":"三段","MAREA":" ","LANE":"２１３巷","ALLEY":" ","HOUSE_NO":"２號","E_COORD97":165873.39999999999,"N_COORD97":2549821.6800000002,"ADDRESS":"安中路三段２１３巷２號","OBJECTID":365191},"geometry":{"x":165873.40000000224,"y":2549821.6800000016}},{"attributes":{"ID":365202,"DIS_CODE":0,"TOWNNAME":"安南區","LI":"溪心里","LIN":"13鄰","STREET":"安中路","SECT":"三段","MAREA":" ","LANE":"２１３巷","ALLEY":" ","HOUSE_NO":"２號之１","E_COORD97":165873.79999999999,"N_COORD97":2549816.8500000001,"ADDRESS":"安中路三段２１３巷２號之１","OBJECTID":365192},"geometry":{"x":165873.80000000075,"y":2549816.8500000015}},{"attributes":{"ID":365203,"DIS_CODE":0,"TOWNNAME":"安南區","LI":"溪心里","LIN":"13鄰","STREET":"安中路","SECT":"三段","MAREA":" ","LANE":"５９巷","ALLEY":" ","HOUSE_NO":"３１號","E_COORD97":166224.17999999999,"N_COORD97":2549671.9700000002,"ADDRESS":"安中路三段５９巷３１號","OBJECTID":365193},"geometry":{"x":166224.1799999997,"y":2549671.9700000007}},{"attributes":{"ID":365204,"DIS_CODE":0,"TOWNNAME":"安南區","LI":"溪心里","LIN":"13鄰","STREET":"安中路","SECT":"三段","MAREA":" ","LANE":"５９巷","ALLEY":" ","HOUSE_NO":"３３號","E_COORD97":166224.32999999999,"N_COORD97":2549668.1600000001,"ADDRESS":"安中路三段５９巷３３號","OBJECTID":365194},"geometry":{"x":166224.33000000194,"y":2549668.1599999983}},{"attributes":{"ID":365205,"DIS_CODE":0,"TOWNNAME":"安南區","LI":"溪心里","LIN":"13鄰","STREET":"安中路","SECT":"三段","MAREA":" ","LANE":"５９巷","ALLEY":" ","HOUSE_NO":"３５號","E_COORD97":166224.04000000001,"N_COORD97":2549663.46,"ADDRESS":"安中路三段５９巷３５號","OBJECTID":365195},"geometry":{"x":166224.04000000004,"y":2549663.459999999}},{"attributes":{"ID":365206,"DIS_CODE":0,"TOWNNAME":"安南區","LI":"溪心里","LIN":"13鄰","STREET":"安中路","SECT":"三段","MAREA":" ","LANE":"５９巷","ALLEY":" ","HOUSE_NO":"３７號","E_COORD97":166222.42000000001,"N_COORD97":2549658.9199999999,"ADDRESS":"安中路三段５９巷３７號","OBJECTID":365196},"geometry":{"x":166222.42000000086,"y":2549658.9199999999}},{"attributes":{"ID":365207,"DIS_CODE":0,"TOWNNAME":"安南區","LI":"溪心里","LIN":"13鄰","STREET":"安中路","SECT":"三段","MAREA":" ","LANE":"５９巷","ALLEY":" ","HOUSE_NO":"３９號","E_COORD97":166221.10000000001,"N_COORD97":2549654.6600000001,"ADDRESS":"安中路三段５９巷３９號","OBJECTID":365197},"geometry":{"x":166221.10000000056,"y":2549654.6600000039}},{"attributes":{"ID":365208,"DIS_CODE":0,"TOWNNAME":"安南區","LI":"溪心里","LIN":"13鄰","STREET":"安中路","SECT":"三段","MAREA":" ","LANE":"５９巷","ALLEY":" ","HOUSE_NO":"４１號","E_COORD97":166220.81,"N_COORD97":2549649.9700000002,"ADDRESS":"安中路三段５９巷４１號","OBJECTID":365198},"geometry":{"x":166220.81000000052,"y":2549649.9700000044}},{"attributes":{"ID":365209,"DIS_CODE":0,"TOWNNAME":"東區","LI":"文聖里","LIN":"13鄰","STREET":"裕忠路","SECT":" ","MAREA":" ","LANE":" ","ALLEY":" ","HOUSE_NO":"１８９之１５號","E_COORD97":172345.72,"N_COORD97":2542702.0099999998,"ADDRESS":"裕忠路１８９之１５號","OBJECTID":365199},"geometry":{"x":172345.71999999974,"y":2542702.0100000016}},{"attributes":{"ID":365210,"DIS_CODE":0,"TOWNNAME":"東區","LI":"文聖里","LIN":"13鄰","STREET":"裕忠路","SECT":" ","MAREA":" ","LANE":" ","ALLEY":" ","HOUSE_NO":"１８９之１６號","E_COORD97":172352.10999999999,"N_COORD97":2542701.8399999999,"ADDRESS":"裕忠路１８９之１６號","OBJECTID":365200},"geometry":{"x":172352.11000000034,"y":2542701.8399999999}}]}