{"displayFieldName":"TOWNNAME","fieldAliases":{"ID":"ID","DIS_CODE":"DIS_CODE","TOWNNAME":"TOWNNAME","LI":"LI","LIN":"LIN","STREET":"STREET","SECT":"SECT","MAREA":"MAREA","LANE":"LANE","ALLEY":"ALLEY","HOUSE_NO":"HOUSE_NO","E_COORD97":"E_COORD97","N_COORD97":"N_COORD97","ADDRESS":"ADDRESS","OBJECTID":"OBJECTID"},"geometryType":"esriGeometryPoint","spatialReference":{"wkid":102443,"latestWkid":3826},"fields":[{"name":"ID","type":"esriFieldTypeDouble","alias":"ID"},{"name":"DIS_CODE","type":"esriFieldTypeInteger","alias":"DIS_CODE"},{"name":"TOWNNAME","type":"esriFieldTypeString","alias":"TOWNNAME","length":8},{"name":"LI","type":"esriFieldTypeString","alias":"LI","length":8},{"name":"LIN","type":"esriFieldTypeString","alias":"LIN","length":12},{"name":"STREET","type":"esriFieldTypeString","alias":"STREET","length":20},{"name":"SECT","type":"esriFieldTypeString","alias":"SECT","length":8},{"name":"MAREA","type":"esriFieldTypeString","alias":"MAREA","length":12},{"name":"LANE","type":"esriFieldTypeString","alias":"LANE","length":10},{"name":"ALLEY","type":"esriFieldTypeString","alias":"ALLEY","length":10},{"name":"HOUSE_NO","type":"esriFieldTypeString","alias":"HOUSE_NO","length":20},{"name":"E_COORD97","type":"esriFieldTypeDouble","alias":"E_COORD97"},{"name":"N_COORD97","type":"esriFieldTypeDouble","alias":"N_COORD97"},{"name":"ADDRESS","type":"esriFieldTypeString","alias":"ADDRESS","length":50},{"name":"OBJECTID","type":"esriFieldTypeOID","alias":"OBJECTID"}],"features":[{"attributes":{"ID":275006,"DIS_CODE":0,"TOWNNAME":"北區","LI":"賢北里","LIN":"15鄰","STREET":"大興街","SECT":" ","MAREA":" ","LANE":"５６５巷","ALLEY":" ","HOUSE_NO":"９號","E_COORD97":166042.85000000001,"N_COORD97":2545413.6800000002,"ADDRESS":"大興街５６５巷９號","OBJECTID":275001},"geometry":{"x":166042.85000000056,"y":2545413.6800000016}},{"attributes":{"ID":275007,"DIS_CODE":0,"TOWNNAME":"北區","LI":"賢北里","LIN":"15鄰","STREET":"大興街","SECT":" ","MAREA":" ","LANE":"５８５巷","ALLEY":" ","HOUSE_NO":"１號","E_COORD97":165982.14000000001,"N_COORD97":2545395.4100000001,"ADDRESS":"大興街５８５巷１號","OBJECTID":275002},"geometry":{"x":165982.13999999966,"y":2545395.410000002}},{"attributes":{"ID":275008,"DIS_CODE":0,"TOWNNAME":"北區","LI":"賢北里","LIN":"15鄰","STREET":"賢北街","SECT":" ","MAREA":" ","LANE":"２７巷","ALLEY":" ","HOUSE_NO":"８８號","E_COORD97":166063.14000000001,"N_COORD97":2545322.77,"ADDRESS":"賢北街２７巷８８號","OBJECTID":275003},"geometry":{"x":166063.1400000006,"y":2545322.7699999996}},{"attributes":{"ID":275009,"DIS_CODE":0,"TOWNNAME":"北區","LI":"大和里","LIN":"4鄰","STREET":"大興街","SECT":" ","MAREA":" ","LANE":"９６巷","ALLEY":" ","HOUSE_NO":"２８號","E_COORD97":167133.62,"N_COORD97":2545866.9300000002,"ADDRESS":"大興街９６巷２８號","OBJECTID":275004},"geometry":{"x":167133.62000000011,"y":2545866.9300000016}},{"attributes":{"ID":275010,"DIS_CODE":0,"TOWNNAME":"北區","LI":"成德里","LIN":"25鄰","STREET":"育德路","SECT":" ","MAREA":" ","LANE":"２２１巷","ALLEY":" ","HOUSE_NO":"３２號","E_COORD97":168561.64999999999,"N_COORD97":2545763.1899999999,"ADDRESS":"育德路２２１巷３２號","OBJECTID":275005},"geometry":{"x":168561.65000000037,"y":2545763.1900000013}},{"attributes":{"ID":275011,"DIS_CODE":0,"TOWNNAME":"歸仁區","LI":"西埔里","LIN":"15鄰","STREET":"西埔二街","SECT":" ","MAREA":" ","LANE":"７０巷","ALLEY":" ","HOUSE_NO":"８號","E_COORD97":176904.14000000001,"N_COORD97":2544826.25,"ADDRESS":"西埔二街７０巷８號","OBJECTID":275006},"geometry":{"x":176904.13999999966,"y":2544826.2500000037}},{"attributes":{"ID":275012,"DIS_CODE":0,"TOWNNAME":"北區","LI":"成德里","LIN":"25鄰","STREET":"育德路","SECT":" ","MAREA":" ","LANE":"２２１巷","ALLEY":" ","HOUSE_NO":"３６號","E_COORD97":168550.38,"N_COORD97":2545765.1000000001,"ADDRESS":"育德路２２１巷３６號","OBJECTID":275007},"geometry":{"x":168550.38000000082,"y":2545765.0999999996}},{"attributes":{"ID":275013,"DIS_CODE":0,"TOWNNAME":"北區","LI":"成功里","LIN":"22鄰","STREET":"北安路","SECT":"一段","MAREA":" ","LANE":"１７６巷","ALLEY":" ","HOUSE_NO":"２號","E_COORD97":168983.60999999999,"N_COORD97":2546499.6299999999,"ADDRESS":"北安路一段１７６巷２號","OBJECTID":275008},"geometry":{"x":168983.61000000034,"y":2546499.629999999}},{"attributes":{"ID":275014,"DIS_CODE":0,"TOWNNAME":"安平區","LI":"億載里","LIN":"15鄰","STREET":"光州三街","SECT":" ","MAREA":" ","LANE":"４２巷","ALLEY":" ","HOUSE_NO":"２號","E_COORD97":164061.20999999999,"N_COORD97":2543143.9900000002,"ADDRESS":"光州三街４２巷２號","OBJECTID":275009},"geometry":{"x":164061.20999999996,"y":2543143.9900000021}},{"attributes":{"ID":275015,"DIS_CODE":0,"TOWNNAME":"北區","LI":"永祥里","LIN":"15鄰","STREET":"實踐街","SECT":" ","MAREA":" ","LANE":"１０３巷","ALLEY":" ","HOUSE_NO":"２９號","E_COORD97":170203.5,"N_COORD97":2546250.98,"ADDRESS":"實踐街１０３巷２９號","OBJECTID":275010},"geometry":{"x":170203.50000000186,"y":2546250.9800000004}},{"attributes":{"ID":275016,"DIS_CODE":0,"TOWNNAME":"北區","LI":"永祥里","LIN":"15鄰","STREET":"實踐街","SECT":" ","MAREA":" ","LANE":"１０３巷","ALLEY":" ","HOUSE_NO":"３１號","E_COORD97":170206.39999999999,"N_COORD97":2546254.8999999999,"ADDRESS":"實踐街１０３巷３１號","OBJECTID":275011},"geometry":{"x":170206.4000000013,"y":2546254.9000000004}},{"attributes":{"ID":275017,"DIS_CODE":0,"TOWNNAME":"北區","LI":"永祥里","LIN":"15鄰","STREET":"實踐街","SECT":" ","MAREA":" ","LANE":"１０３巷","ALLEY":" ","HOUSE_NO":"３３號","E_COORD97":170208.45000000001,"N_COORD97":2546258.6299999999,"ADDRESS":"實踐街１０３巷３３號","OBJECTID":275012},"geometry":{"x":170208.45000000019,"y":2546258.629999999}},{"attributes":{"ID":275018,"DIS_CODE":0,"TOWNNAME":"北區","LI":"永祥里","LIN":"15鄰","STREET":"實踐街","SECT":" ","MAREA":" ","LANE":"１０３巷","ALLEY":" ","HOUSE_NO":"３５號","E_COORD97":170208.73000000001,"N_COORD97":2546262.73,"ADDRESS":"實踐街１０３巷３５號","OBJECTID":275013},"geometry":{"x":170208.73000000045,"y":2546262.7300000004}},{"attributes":{"ID":275019,"DIS_CODE":0,"TOWNNAME":"北區","LI":"永祥里","LIN":"15鄰","STREET":"實踐街","SECT":" ","MAREA":" ","LANE":"１０３巷","ALLEY":" ","HOUSE_NO":"３７號","E_COORD97":170207.79999999999,"N_COORD97":2546266.3300000001,"ADDRESS":"實踐街１０３巷３７號","OBJECTID":275014},"geometry":{"x":170207.79999999981,"y":2546266.3299999982}},{"attributes":{"ID":275020,"DIS_CODE":0,"TOWNNAME":"北區","LI":"小康里","LIN":"15鄰","STREET":"大武街","SECT":" ","MAREA":" ","LANE":"３３７巷","ALLEY":" ","HOUSE_NO":"１２號","E_COORD97":169743.92999999999,"N_COORD97":2546443.23,"ADDRESS":"大武街３３７巷１２號","OBJECTID":275015},"geometry":{"x":169743.9299999997,"y":2546443.2300000004}},{"attributes":{"ID":275021,"DIS_CODE":0,"TOWNNAME":"北區","LI":"小康里","LIN":"15鄰","STREET":"大武街","SECT":" ","MAREA":" ","LANE":"３３７巷","ALLEY":" ","HOUSE_NO":"１４號","E_COORD97":169744.73000000001,"N_COORD97":2546447.4199999999,"ADDRESS":"大武街３３７巷１４號","OBJECTID":275016},"geometry":{"x":169744.73000000231,"y":2546447.4199999999}},{"attributes":{"ID":275022,"DIS_CODE":0,"TOWNNAME":"北區","LI":"小康里","LIN":"15鄰","STREET":"大武街","SECT":" ","MAREA":" ","LANE":"３３７巷","ALLEY":" ","HOUSE_NO":"１６號","E_COORD97":169745.73000000001,"N_COORD97":2546451.5499999998,"ADDRESS":"大武街３３７巷１６號","OBJECTID":275017},"geometry":{"x":169745.73000000045,"y":2546451.5500000007}},{"attributes":{"ID":275023,"DIS_CODE":0,"TOWNNAME":"北區","LI":"小康里","LIN":"15鄰","STREET":"大武街","SECT":" ","MAREA":" ","LANE":"３３７巷","ALLEY":" ","HOUSE_NO":"１８號","E_COORD97":169745.92999999999,"N_COORD97":2546455.21,"ADDRESS":"大武街３３７巷１８號","OBJECTID":275018},"geometry":{"x":169745.93000000156,"y":2546455.2100000028}},{"attributes":{"ID":275024,"DIS_CODE":0,"TOWNNAME":"北區","LI":"小康里","LIN":"15鄰","STREET":"大武街","SECT":" ","MAREA":" ","LANE":"３３７巷","ALLEY":" ","HOUSE_NO":"４號","E_COORD97":169737.94,"N_COORD97":2546423.7200000002,"ADDRESS":"大武街３３７巷４號","OBJECTID":275019},"geometry":{"x":169737.94000000041,"y":2546423.7200000044}},{"attributes":{"ID":275025,"DIS_CODE":0,"TOWNNAME":"北區","LI":"小康里","LIN":"15鄰","STREET":"大武街","SECT":" ","MAREA":" ","LANE":"３３７巷","ALLEY":" ","HOUSE_NO":"６號","E_COORD97":169739.67000000001,"N_COORD97":2546429.1099999999,"ADDRESS":"大武街３３７巷６號","OBJECTID":275020},"geometry":{"x":169739.67000000086,"y":2546429.1099999994}},{"attributes":{"ID":275026,"DIS_CODE":0,"TOWNNAME":"北區","LI":"小康里","LIN":"15鄰","STREET":"大武街","SECT":" ","MAREA":" ","LANE":"３３７巷","ALLEY":" ","HOUSE_NO":"８號","E_COORD97":169740.67000000001,"N_COORD97":2546433.2999999998,"ADDRESS":"大武街３３７巷８號","OBJECTID":275021},"geometry":{"x":169740.66999999993,"y":2546433.2999999989}},{"attributes":{"ID":275027,"DIS_CODE":0,"TOWNNAME":"北區","LI":"延平里","LIN":"15鄰","STREET":"公園路","SECT":" ","MAREA":" ","LANE":"８２４巷","ALLEY":" ","HOUSE_NO":"１３號","E_COORD97":169260.25,"N_COORD97":2545902.96,"ADDRESS":"公園路８２４巷１３號","OBJECTID":275022},"geometry":{"x":169260.25,"y":2545902.9600000009}},{"attributes":{"ID":275028,"DIS_CODE":0,"TOWNNAME":"北區","LI":"延平里","LIN":"15鄰","STREET":"公園路","SECT":" ","MAREA":" ","LANE":"８２４巷","ALLEY":" ","HOUSE_NO":"１４號","E_COORD97":169239.79000000001,"N_COORD97":2545899.0299999998,"ADDRESS":"公園路８２４巷１４號","OBJECTID":275023},"geometry":{"x":169239.79000000004,"y":2545899.0300000012}},{"attributes":{"ID":275029,"DIS_CODE":0,"TOWNNAME":"北區","LI":"延平里","LIN":"15鄰","STREET":"公園路","SECT":" ","MAREA":" ","LANE":"８２４巷","ALLEY":" ","HOUSE_NO":"１５號","E_COORD97":169264.20000000001,"N_COORD97":2545901.1299999999,"ADDRESS":"公園路８２４巷１５號","OBJECTID":275024},"geometry":{"x":169264.20000000019,"y":2545901.1300000008}},{"attributes":{"ID":275030,"DIS_CODE":0,"TOWNNAME":"北區","LI":"延平里","LIN":"15鄰","STREET":"公園路","SECT":" ","MAREA":" ","LANE":"８２４巷","ALLEY":" ","HOUSE_NO":"１６號","E_COORD97":169243.06,"N_COORD97":2545897.4900000002,"ADDRESS":"公園路８２４巷１６號","OBJECTID":275025},"geometry":{"x":169243.05999999866,"y":2545897.4900000021}},{"attributes":{"ID":275031,"DIS_CODE":0,"TOWNNAME":"北區","LI":"延平里","LIN":"15鄰","STREET":"公園路","SECT":" ","MAREA":" ","LANE":"８２４巷","ALLEY":" ","HOUSE_NO":"１７號","E_COORD97":169268.72,"N_COORD97":2545900.4199999999,"ADDRESS":"公園路８２４巷１７號","OBJECTID":275026},"geometry":{"x":169268.71999999974,"y":2545900.4200000018}},{"attributes":{"ID":275032,"DIS_CODE":0,"TOWNNAME":"北區","LI":"延平里","LIN":"15鄰","STREET":"公園路","SECT":" ","MAREA":" ","LANE":"８２４巷","ALLEY":" ","HOUSE_NO":"１８號","E_COORD97":169246.32000000001,"N_COORD97":2545895.4300000002,"ADDRESS":"公園路８２４巷１８號","OBJECTID":275027},"geometry":{"x":169246.32000000123,"y":2545895.4299999997}},{"attributes":{"ID":275033,"DIS_CODE":0,"TOWNNAME":"北區","LI":"延平里","LIN":"15鄰","STREET":"公園路","SECT":" ","MAREA":" ","LANE":"８２４巷","ALLEY":" ","HOUSE_NO":"１９號","E_COORD97":169272.10000000001,"N_COORD97":2545896.3300000001,"ADDRESS":"公園路８２４巷１９號","OBJECTID":275028},"geometry":{"x":169272.10000000056,"y":2545896.3300000001}},{"attributes":{"ID":275034,"DIS_CODE":0,"TOWNNAME":"北區","LI":"延平里","LIN":"15鄰","STREET":"公園路","SECT":" ","MAREA":" ","LANE":"８２４巷","ALLEY":" ","HOUSE_NO":"１號","E_COORD97":169237.67999999999,"N_COORD97":2545915.9300000002,"ADDRESS":"公園路８２４巷１號","OBJECTID":275029},"geometry":{"x":169237.68000000063,"y":2545915.9299999997}},{"attributes":{"ID":275035,"DIS_CODE":0,"TOWNNAME":"安平區","LI":"國平里","LIN":"15鄰","STREET":"華平路","SECT":" ","MAREA":" ","LANE":"６７巷","ALLEY":" ","HOUSE_NO":"１７號","E_COORD97":165273.89000000001,"N_COORD97":2542948.23,"ADDRESS":"華平路６７巷１７號","OBJECTID":275030},"geometry":{"x":165273.88999999966,"y":2542948.2299999986}},{"attributes":{"ID":275036,"DIS_CODE":0,"TOWNNAME":"歸仁區","LI":"後市里","LIN":"15鄰","STREET":"民族南街","SECT":" ","MAREA":" ","LANE":"１８巷","ALLEY":" ","HOUSE_NO":"６８號","E_COORD97":177280.04000000001,"N_COORD97":2540763.5499999998,"ADDRESS":"民族南街１８巷６８號","OBJECTID":275031},"geometry":{"x":177280.04000000004,"y":2540763.5500000026}},{"attributes":{"ID":275037,"DIS_CODE":0,"TOWNNAME":"歸仁區","LI":"七甲里","LIN":"15鄰","STREET":"南丁路","SECT":" ","MAREA":" ","LANE":"５９１巷","ALLEY":" ","HOUSE_NO":"２號","E_COORD97":175965.89000000001,"N_COORD97":2543116.25,"ADDRESS":"南丁路５９１巷２號","OBJECTID":275032},"geometry":{"x":175965.89000000153,"y":2543116.25}},{"attributes":{"ID":275038,"DIS_CODE":0,"TOWNNAME":"北區","LI":"實踐里","LIN":"15鄰","STREET":"長榮路","SECT":"五段","MAREA":" ","LANE":"３７８巷","ALLEY":" ","HOUSE_NO":"２７號之１","E_COORD97":169547.10999999999,"N_COORD97":2546081.7200000002,"ADDRESS":"長榮路五段３７８巷２７號之１","OBJECTID":275033},"geometry":{"x":169547.1100000022,"y":2546081.7200000025}},{"attributes":{"ID":275039,"DIS_CODE":0,"TOWNNAME":"北區","LI":"六甲里","LIN":"15鄰","STREET":"西門路","SECT":"四段","MAREA":" ","LANE":"２８０巷","ALLEY":" ","HOUSE_NO":"３３號","E_COORD97":169027.06,"N_COORD97":2545876.5699999998,"ADDRESS":"西門路四段２８０巷３３號","OBJECTID":275034},"geometry":{"x":169027.05999999959,"y":2545876.5700000022}},{"attributes":{"ID":275040,"DIS_CODE":0,"TOWNNAME":"北區","LI":"六甲里","LIN":"15鄰","STREET":"西門路","SECT":"四段","MAREA":" ","LANE":"２８０巷","ALLEY":" ","HOUSE_NO":"３５號","E_COORD97":169030,"N_COORD97":2545901.27,"ADDRESS":"西門路四段２８０巷３５號","OBJECTID":275035},"geometry":{"x":169030,"y":2545901.2700000014}},{"attributes":{"ID":275041,"DIS_CODE":0,"TOWNNAME":"北區","LI":"元寶里","LIN":"16鄰","STREET":"北園街","SECT":" ","MAREA":" ","LANE":"８巷","ALLEY":" ","HOUSE_NO":"２６號","E_COORD97":170485.51000000001,"N_COORD97":2545628.0899999999,"ADDRESS":"北園街８巷２６號","OBJECTID":275036},"geometry":{"x":170485.50999999978,"y":2545628.0900000017}},{"attributes":{"ID":275042,"DIS_CODE":0,"TOWNNAME":"北區","LI":"六甲里","LIN":"15鄰","STREET":"西門路","SECT":"四段","MAREA":" ","LANE":"２８０巷","ALLEY":" ","HOUSE_NO":"５號","E_COORD97":168975.84,"N_COORD97":2545873.0099999998,"ADDRESS":"西門路四段２８０巷５號","OBJECTID":275037},"geometry":{"x":168975.84000000078,"y":2545873.0100000016}},{"attributes":{"ID":275043,"DIS_CODE":0,"TOWNNAME":"北區","LI":"六甲里","LIN":"15鄰","STREET":"西門路","SECT":"四段","MAREA":" ","LANE":"２８０巷","ALLEY":" ","HOUSE_NO":"７號","E_COORD97":168981.63,"N_COORD97":2545873.75,"ADDRESS":"西門路四段２８０巷７號","OBJECTID":275038},"geometry":{"x":168981.62999999989,"y":2545873.7500000037}},{"attributes":{"ID":275044,"DIS_CODE":0,"TOWNNAME":"北區","LI":"六甲里","LIN":"15鄰","STREET":"西門路","SECT":"四段","MAREA":" ","LANE":"２８０巷","ALLEY":" ","HOUSE_NO":"９號","E_COORD97":168985.32999999999,"N_COORD97":2545874.1899999999,"ADDRESS":"西門路四段２８０巷９號","OBJECTID":275039},"geometry":{"x":168985.33000000007,"y":2545874.1900000013}},{"attributes":{"ID":275045,"DIS_CODE":0,"TOWNNAME":"永康區","LI":"\u25A0行里","LIN":"3鄰","STREET":"中正七街","SECT":" ","MAREA":" ","LANE":" ","ALLEY":" ","HOUSE_NO":"５號","E_COORD97":172058.47,"N_COORD97":2548878.5099999998,"ADDRESS":"中正七街５號","OBJECTID":275040},"geometry":{"x":172058.47000000067,"y":2548878.5099999998}},{"attributes":{"ID":275046,"DIS_CODE":0,"TOWNNAME":"歸仁區","LI":"大廟里","LIN":"15鄰","STREET":"大廟五街","SECT":" ","MAREA":" ","LANE":"１３２巷","ALLEY":" ","HOUSE_NO":"２８號","E_COORD97":176142.82999999999,"N_COORD97":2544422.5299999998,"ADDRESS":"大廟五街１３２巷２８號","OBJECTID":275041},"geometry":{"x":176142.82999999914,"y":2544422.5299999993}},{"attributes":{"ID":275047,"DIS_CODE":0,"TOWNNAME":"永康區","LI":"永康里","LIN":"3鄰","STREET":"中山北路","SECT":" ","MAREA":" ","LANE":" ","ALLEY":" ","HOUSE_NO":"９號","E_COORD97":173903.01000000001,"N_COORD97":2547374.3599999999,"ADDRESS":"中山北路９號","OBJECTID":275042},"geometry":{"x":173903.00999999978,"y":2547374.3600000031}},{"attributes":{"ID":275048,"DIS_CODE":0,"TOWNNAME":"歸仁區","LI":"大廟里","LIN":"15鄰","STREET":"大廟五街","SECT":" ","MAREA":" ","LANE":"１３２巷","ALLEY":" ","HOUSE_NO":"１５號","E_COORD97":176129.63,"N_COORD97":2544443.5299999998,"ADDRESS":"大廟五街１３２巷１５號","OBJECTID":275043},"geometry":{"x":176129.63000000082,"y":2544443.5299999975}},{"attributes":{"ID":275049,"DIS_CODE":0,"TOWNNAME":"歸仁區","LI":"七甲里","LIN":"15鄰","STREET":"南丁路","SECT":" ","MAREA":" ","LANE":"６２５巷","ALLEY":" ","HOUSE_NO":"７５號","E_COORD97":175757.34,"N_COORD97":2543192.25,"ADDRESS":"南丁路６２５巷７５號","OBJECTID":275044},"geometry":{"x":175757.33999999985,"y":2543192.2500000019}},{"attributes":{"ID":275050,"DIS_CODE":0,"TOWNNAME":"歸仁區","LI":"大潭里","LIN":"15鄰","STREET":"大潭二街","SECT":" ","MAREA":" ","LANE":"３０巷","ALLEY":" ","HOUSE_NO":"３２號","E_COORD97":174997.60999999999,"N_COORD97":2534753.25,"ADDRESS":"大潭二街３０巷３２號","OBJECTID":275045},"geometry":{"x":174997.61000000127,"y":2534753.2500000037}},{"attributes":{"ID":275051,"DIS_CODE":0,"TOWNNAME":"歸仁區","LI":"大潭里","LIN":"15鄰","STREET":"大潭二街","SECT":" ","MAREA":" ","LANE":"３０巷","ALLEY":" ","HOUSE_NO":"２２號","E_COORD97":174981.10999999999,"N_COORD97":2534721.25,"ADDRESS":"大潭二街３０巷２２號","OBJECTID":275046},"geometry":{"x":174981.11000000034,"y":2534721.25}},{"attributes":{"ID":275052,"DIS_CODE":0,"TOWNNAME":"新營區","LI":"南紙里","LIN":"15鄰","STREET":"南紙街","SECT":" ","MAREA":" ","LANE":"１５６巷","ALLEY":" ","HOUSE_NO":"５號","E_COORD97":177770.89000000001,"N_COORD97":2577327.5600000001,"ADDRESS":"南紙街１５６巷５號","OBJECTID":275047},"geometry":{"x":177770.88999999966,"y":2577327.5600000005}},{"attributes":{"ID":275053,"DIS_CODE":0,"TOWNNAME":"新營區","LI":"嘉芳里","LIN":"15鄰","STREET":"復興路","SECT":" ","MAREA":" ","LANE":"１１２８巷","ALLEY":" ","HOUSE_NO":"１１號","E_COORD97":176026.79000000001,"N_COORD97":2578929.8100000001,"ADDRESS":"復興路１１２８巷１１號","OBJECTID":275048},"geometry":{"x":176026.79000000097,"y":2578929.8099999987}},{"attributes":{"ID":275054,"DIS_CODE":0,"TOWNNAME":"南區","LI":"大恩里","LIN":"15鄰","STREET":"國民路","SECT":" ","MAREA":" ","LANE":"２１７巷","ALLEY":" ","HOUSE_NO":"１１號","E_COORD97":169060.62,"N_COORD97":2540861.5299999998,"ADDRESS":"國民路２１７巷１１號","OBJECTID":275049},"geometry":{"x":169060.62000000104,"y":2540861.5300000012}},{"attributes":{"ID":275055,"DIS_CODE":0,"TOWNNAME":"安平區","LI":"華平里","LIN":"15鄰","STREET":"建平八街","SECT":" ","MAREA":" ","LANE":"４５０巷","ALLEY":" ","HOUSE_NO":"７號","E_COORD97":165086.48999999999,"N_COORD97":2543647.4700000002,"ADDRESS":"建平八街４５０巷７號","OBJECTID":275050},"geometry":{"x":165086.49000000115,"y":2543647.4700000007}},{"attributes":{"ID":275056,"DIS_CODE":0,"TOWNNAME":"安平區","LI":"華平里","LIN":"15鄰","STREET":"建平八街","SECT":" ","MAREA":" ","LANE":"４５０巷","ALLEY":" ","HOUSE_NO":"９號","E_COORD97":165087.31,"N_COORD97":2543652.3700000001,"ADDRESS":"建平八街４５０巷９號","OBJECTID":275051},"geometry":{"x":165087.31000000052,"y":2543652.370000001}},{"attributes":{"ID":275057,"DIS_CODE":0,"TOWNNAME":"安平區","LI":"金城里","LIN":"15鄰","STREET":"州平二街","SECT":" ","MAREA":" ","LANE":"２４巷","ALLEY":" ","HOUSE_NO":"１０號","E_COORD97":162927.94,"N_COORD97":2544461.5899999999,"ADDRESS":"州平二街２４巷１０號","OBJECTID":275052},"geometry":{"x":162927.94000000041,"y":2544461.5900000017}},{"attributes":{"ID":275058,"DIS_CODE":0,"TOWNNAME":"安平區","LI":"金城里","LIN":"15鄰","STREET":"州平二街","SECT":" ","MAREA":" ","LANE":"２４巷","ALLEY":" ","HOUSE_NO":"１１號","E_COORD97":162921.22,"N_COORD97":2544485.5499999998,"ADDRESS":"州平二街２４巷１１號","OBJECTID":275053},"geometry":{"x":162921.22000000067,"y":2544485.5499999989}},{"attributes":{"ID":275059,"DIS_CODE":0,"TOWNNAME":"安平區","LI":"金城里","LIN":"15鄰","STREET":"州平二街","SECT":" ","MAREA":" ","LANE":"２４巷","ALLEY":" ","HOUSE_NO":"１２號","E_COORD97":162932.01999999999,"N_COORD97":2544463.1699999999,"ADDRESS":"州平二街２４巷１２號","OBJECTID":275054},"geometry":{"x":162932.01999999955,"y":2544463.1699999999}},{"attributes":{"ID":275060,"DIS_CODE":0,"TOWNNAME":"北區","LI":"成德里","LIN":"41鄰","STREET":"育德三街","SECT":" ","MAREA":" ","LANE":"１３２巷","ALLEY":" ","HOUSE_NO":"２號","E_COORD97":168172.16,"N_COORD97":2546196.7599999998,"ADDRESS":"育德三街１３２巷２號","OBJECTID":275055},"geometry":{"x":168172.16000000108,"y":2546196.7600000016}},{"attributes":{"ID":275061,"DIS_CODE":0,"TOWNNAME":"北區","LI":"成德里","LIN":"41鄰","STREET":"育德三街","SECT":" ","MAREA":" ","LANE":"１３２巷","ALLEY":" ","HOUSE_NO":"３號","E_COORD97":168181.04999999999,"N_COORD97":2546207.23,"ADDRESS":"育德三街１３２巷３號","OBJECTID":275056},"geometry":{"x":168181.05000000075,"y":2546207.2300000023}},{"attributes":{"ID":275062,"DIS_CODE":0,"TOWNNAME":"北區","LI":"成德里","LIN":"41鄰","STREET":"育德三街","SECT":" ","MAREA":" ","LANE":"１３２巷","ALLEY":" ","HOUSE_NO":"５號","E_COORD97":168192.48000000001,"N_COORD97":2546207.8700000001,"ADDRESS":"育德三街１３２巷５號","OBJECTID":275057},"geometry":{"x":168192.48000000138,"y":2546207.8700000029}},{"attributes":{"ID":275063,"DIS_CODE":0,"TOWNNAME":"北區","LI":"成德里","LIN":"41鄰","STREET":"育德三街","SECT":" ","MAREA":" ","LANE":"１３２巷","ALLEY":" ","HOUSE_NO":"６號","E_COORD97":168181.69,"N_COORD97":2546198.0299999998,"ADDRESS":"育德三街１３２巷６號","OBJECTID":275058},"geometry":{"x":168181.69000000041,"y":2546198.0300000012}},{"attributes":{"ID":275064,"DIS_CODE":0,"TOWNNAME":"北區","LI":"成德里","LIN":"41鄰","STREET":"育德三街","SECT":" ","MAREA":" ","LANE":"１３２巷","ALLEY":" ","HOUSE_NO":"７號","E_COORD97":168202.17000000001,"N_COORD97":2546208.8199999998,"ADDRESS":"育德三街１３２巷７號","OBJECTID":275059},"geometry":{"x":168202.17000000086,"y":2546208.8200000003}},{"attributes":{"ID":275065,"DIS_CODE":0,"TOWNNAME":"南區","LI":"省躬里","LIN":"15鄰","STREET":"明興路","SECT":" ","MAREA":" ","LANE":"９４３巷","ALLEY":" ","HOUSE_NO":"２號","E_COORD97":166178.91,"N_COORD97":2537086.02,"ADDRESS":"明興路９４３巷２號","OBJECTID":275060},"geometry":{"x":166178.91000000108,"y":2537086.0199999996}},{"attributes":{"ID":275066,"DIS_CODE":0,"TOWNNAME":"南區","LI":"省躬里","LIN":"15鄰","STREET":"明興路","SECT":" ","MAREA":" ","LANE":"９４３巷","ALLEY":" ","HOUSE_NO":"３７號","E_COORD97":166221.79999999999,"N_COORD97":2537041.9700000002,"ADDRESS":"明興路９４３巷３７號","OBJECTID":275061},"geometry":{"x":166221.79999999981,"y":2537041.9700000025}},{"attributes":{"ID":275067,"DIS_CODE":0,"TOWNNAME":"南區","LI":"省躬里","LIN":"15鄰","STREET":"明興路","SECT":" ","MAREA":" ","LANE":"９４３巷","ALLEY":" ","HOUSE_NO":"３號","E_COORD97":166191.32000000001,"N_COORD97":2537063.7200000002,"ADDRESS":"明興路９４３巷３號","OBJECTID":275062},"geometry":{"x":166191.32000000123,"y":2537063.7200000025}},{"attributes":{"ID":275068,"DIS_CODE":0,"TOWNNAME":"南區","LI":"省躬里","LIN":"15鄰","STREET":"明興路","SECT":" ","MAREA":" ","LANE":"９４３巷","ALLEY":" ","HOUSE_NO":"５號","E_COORD97":166194.89999999999,"N_COORD97":2537066.48,"ADDRESS":"明興路９４３巷５號","OBJECTID":275063},"geometry":{"x":166194.90000000037,"y":2537066.4800000004}},{"attributes":{"ID":275069,"DIS_CODE":0,"TOWNNAME":"南區","LI":"省躬里","LIN":"15鄰","STREET":"明興路","SECT":" ","MAREA":" ","LANE":"９４３巷","ALLEY":" ","HOUSE_NO":"６號","E_COORD97":166188.01000000001,"N_COORD97":2537086.8500000001,"ADDRESS":"明興路９４３巷６號","OBJECTID":275064},"geometry":{"x":166188.01000000071,"y":2537086.8499999996}},{"attributes":{"ID":275070,"DIS_CODE":0,"TOWNNAME":"南區","LI":"省躬里","LIN":"15鄰","STREET":"明興路","SECT":" ","MAREA":" ","LANE":"９４３巷","ALLEY":" ","HOUSE_NO":"７號","E_COORD97":166199.04000000001,"N_COORD97":2537068.3999999999,"ADDRESS":"明興路９４３巷７號","OBJECTID":275065},"geometry":{"x":166199.04000000004,"y":2537068.4000000041}},{"attributes":{"ID":275071,"DIS_CODE":0,"TOWNNAME":"南區","LI":"省躬里","LIN":"15鄰","STREET":"明興路","SECT":" ","MAREA":" ","LANE":"９４３巷","ALLEY":" ","HOUSE_NO":"８號","E_COORD97":166191.59,"N_COORD97":2537089.3300000001,"ADDRESS":"明興路９４３巷８號","OBJECTID":275066},"geometry":{"x":166191.58999999985,"y":2537089.3300000019}},{"attributes":{"ID":275072,"DIS_CODE":0,"TOWNNAME":"南區","LI":"省躬里","LIN":"15鄰","STREET":"明興路","SECT":" ","MAREA":" ","LANE":"９４３巷","ALLEY":" ","HOUSE_NO":"９號","E_COORD97":166204.28,"N_COORD97":2537067.8500000001,"ADDRESS":"明興路９４３巷９號","OBJECTID":275067},"geometry":{"x":166204.28000000026,"y":2537067.8500000034}},{"attributes":{"ID":275073,"DIS_CODE":0,"TOWNNAME":"學甲區","LI":"慈福里","LIN":"15鄰","STREET":"華宗路","SECT":" ","MAREA":" ","LANE":"３９６巷","ALLEY":" ","HOUSE_NO":"１４號","E_COORD97":166399.98000000001,"N_COORD97":2570298.0899999999,"ADDRESS":"華宗路３９６巷１４號","OBJECTID":275068},"geometry":{"x":166399.97999999952,"y":2570298.0899999999}},{"attributes":{"ID":275074,"DIS_CODE":0,"TOWNNAME":"學甲區","LI":"慈福里","LIN":"15鄰","STREET":"華宗路","SECT":" ","MAREA":" ","LANE":"３９６巷","ALLEY":" ","HOUSE_NO":"１６號","E_COORD97":166409.09,"N_COORD97":2570296.1400000001,"ADDRESS":"華宗路３９６巷１６號","OBJECTID":275069},"geometry":{"x":166409.09000000078,"y":2570296.1400000043}},{"attributes":{"ID":275075,"DIS_CODE":0,"TOWNNAME":"學甲區","LI":"慈福里","LIN":"15鄰","STREET":"華宗路","SECT":" ","MAREA":" ","LANE":"３９６巷","ALLEY":" ","HOUSE_NO":"２８號","E_COORD97":166455.10000000001,"N_COORD97":2570284.29,"ADDRESS":"華宗路３９６巷２８號","OBJECTID":275070},"geometry":{"x":166455.10000000056,"y":2570284.290000001}},{"attributes":{"ID":275076,"DIS_CODE":0,"TOWNNAME":"南區","LI":"明興里","LIN":"15鄰","STREET":"德興路","SECT":" ","MAREA":" ","LANE":"１３０巷","ALLEY":" ","HOUSE_NO":"１８號","E_COORD97":167137.73999999999,"N_COORD97":2540450.8599999999,"ADDRESS":"德興路１３０巷１８號","OBJECTID":275071},"geometry":{"x":167137.74000000115,"y":2540450.8599999975}},{"attributes":{"ID":275077,"DIS_CODE":0,"TOWNNAME":"南區","LI":"明興里","LIN":"15鄰","STREET":"德興路","SECT":" ","MAREA":" ","LANE":"１３０巷","ALLEY":" ","HOUSE_NO":"６６號","E_COORD97":167083.45999999999,"N_COORD97":2540414.3399999999,"ADDRESS":"德興路１３０巷６６號","OBJECTID":275072},"geometry":{"x":167083.46000000089,"y":2540414.3400000036}},{"attributes":{"ID":275078,"DIS_CODE":0,"TOWNNAME":"南區","LI":"田寮里","LIN":"15鄰","STREET":"新興路","SECT":" ","MAREA":" ","LANE":"９３巷","ALLEY":" ","HOUSE_NO":"１６號","E_COORD97":167596.48999999999,"N_COORD97":2542126.7000000002,"ADDRESS":"新興路９３巷１６號","OBJECTID":275073},"geometry":{"x":167596.49000000209,"y":2542126.6999999974}},{"attributes":{"ID":275079,"DIS_CODE":0,"TOWNNAME":"北區","LI":"文成里","LIN":"15鄰","STREET":"文賢路","SECT":" ","MAREA":" ","LANE":"２４２巷","ALLEY":" ","HOUSE_NO":"５號","E_COORD97":167397.98999999999,"N_COORD97":2545022.3999999999,"ADDRESS":"文賢路２４２巷５號","OBJECTID":275074},"geometry":{"x":167397.99000000022,"y":2545022.4000000022}},{"attributes":{"ID":275080,"DIS_CODE":0,"TOWNNAME":"北區","LI":"文成里","LIN":"15鄰","STREET":"文賢路","SECT":" ","MAREA":" ","LANE":"２４２巷","ALLEY":" ","HOUSE_NO":"５號之１","E_COORD97":167402.48000000001,"N_COORD97":2545023.6800000002,"ADDRESS":"文賢路２４２巷５號之１","OBJECTID":275075},"geometry":{"x":167402.48000000138,"y":2545023.6800000016}},{"attributes":{"ID":275081,"DIS_CODE":0,"TOWNNAME":"北區","LI":"文成里","LIN":"15鄰","STREET":"文賢路","SECT":" ","MAREA":" ","LANE":"２４２巷","ALLEY":" ","HOUSE_NO":"５號之２","E_COORD97":167406.75,"N_COORD97":2545025.1699999999,"ADDRESS":"文賢路２４２巷５號之２","OBJECTID":275076},"geometry":{"x":167406.75000000093,"y":2545025.1699999999}},{"attributes":{"ID":275082,"DIS_CODE":0,"TOWNNAME":"北區","LI":"文成里","LIN":"15鄰","STREET":"文賢路","SECT":" ","MAREA":" ","LANE":"２４２巷","ALLEY":" ","HOUSE_NO":"７號","E_COORD97":167410.79999999999,"N_COORD97":2545028.1600000001,"ADDRESS":"文賢路２４２巷７號","OBJECTID":275077},"geometry":{"x":167410.79999999981,"y":2545028.160000002}},{"attributes":{"ID":275083,"DIS_CODE":0,"TOWNNAME":"北區","LI":"中樓里","LIN":"15鄰","STREET":"開元路","SECT":" ","MAREA":" ","LANE":"９０巷","ALLEY":" ","HOUSE_NO":"６７號之６","E_COORD97":169829.95000000001,"N_COORD97":2545128.96,"ADDRESS":"開元路９０巷６７號之６","OBJECTID":275078},"geometry":{"x":169829.95000000112,"y":2545128.9600000028}},{"attributes":{"ID":275084,"DIS_CODE":0,"TOWNNAME":"北區","LI":"中樓里","LIN":"15鄰","STREET":"開元路","SECT":" ","MAREA":" ","LANE":"９０巷","ALLEY":" ","HOUSE_NO":"６７號之７","E_COORD97":169825.10999999999,"N_COORD97":2545127.21,"ADDRESS":"開元路９０巷６７號之７","OBJECTID":275079},"geometry":{"x":169825.1100000022,"y":2545127.2100000028}},{"attributes":{"ID":275085,"DIS_CODE":0,"TOWNNAME":"北區","LI":"中樓里","LIN":"15鄰","STREET":"開元路","SECT":" ","MAREA":" ","LANE":"９０巷","ALLEY":" ","HOUSE_NO":"６７號之８","E_COORD97":169820.26999999999,"N_COORD97":2545126.1800000002,"ADDRESS":"開元路９０巷６７號之８","OBJECTID":275080},"geometry":{"x":169820.27000000048,"y":2545126.1800000016}},{"attributes":{"ID":275086,"DIS_CODE":0,"TOWNNAME":"仁德區","LI":"三甲里","LIN":"3鄰","STREET":" ","SECT":" ","MAREA":"三甲子","LANE":" ","ALLEY":" ","HOUSE_NO":"２５之２號","E_COORD97":171846.20000000001,"N_COORD97":2536995.5499999998,"ADDRESS":"三甲子２５之２號","OBJECTID":275081},"geometry":{"x":171846.20000000019,"y":2536995.5500000007}},{"attributes":{"ID":275087,"DIS_CODE":0,"TOWNNAME":"中西區","LI":"赤嵌里","LIN":"3鄰","STREET":"民族路","SECT":"二段","MAREA":" ","LANE":" ","ALLEY":" ","HOUSE_NO":"７６號之１０底一層之","E_COORD97":168848.04999999999,"N_COORD97":2543948.4900000002,"ADDRESS":"民族路二段７６號之１０底一層之７","OBJECTID":275082},"geometry":{"x":168848.04999999981,"y":2543948.4900000002}},{"attributes":{"ID":275088,"DIS_CODE":0,"TOWNNAME":"中西區","LI":"赤嵌里","LIN":"3鄰","STREET":"民族路","SECT":"二段","MAREA":" ","LANE":" ","ALLEY":" ","HOUSE_NO":"７６號之１０底一層之","E_COORD97":168848.04999999999,"N_COORD97":2543948.4900000002,"ADDRESS":"民族路二段７６號之１０底一層之８","OBJECTID":275083},"geometry":{"x":168848.04999999981,"y":2543948.4900000002}},{"attributes":{"ID":275089,"DIS_CODE":0,"TOWNNAME":"仁德區","LI":"新田里","LIN":"3鄰","STREET":"新田二街","SECT":" ","MAREA":" ","LANE":" ","ALLEY":" ","HOUSE_NO":"５號","E_COORD97":174553.38,"N_COORD97":2539773.9900000002,"ADDRESS":"新田二街５號","OBJECTID":275084},"geometry":{"x":174553.37999999989,"y":2539773.9900000021}},{"attributes":{"ID":275090,"DIS_CODE":0,"TOWNNAME":"北區","LI":"中樓里","LIN":"15鄰","STREET":"開元路","SECT":" ","MAREA":" ","LANE":"９０巷","ALLEY":" ","HOUSE_NO":"６７號之９","E_COORD97":169816.47,"N_COORD97":2545124.7400000002,"ADDRESS":"開元路９０巷６７號之９","OBJECTID":275085},"geometry":{"x":169816.46999999974,"y":2545124.7400000039}},{"attributes":{"ID":275091,"DIS_CODE":0,"TOWNNAME":"北區","LI":"中樓里","LIN":"15鄰","STREET":"開元路","SECT":" ","MAREA":" ","LANE":"９０巷","ALLEY":" ","HOUSE_NO":"７３號","E_COORD97":169809,"N_COORD97":2545107.3100000001,"ADDRESS":"開元路９０巷７３號","OBJECTID":275086},"geometry":{"x":169809.00000000093,"y":2545107.3100000005}},{"attributes":{"ID":275092,"DIS_CODE":0,"TOWNNAME":"北區","LI":"中樓里","LIN":"15鄰","STREET":"開元路","SECT":" ","MAREA":" ","LANE":"９０巷","ALLEY":" ","HOUSE_NO":"７７號","E_COORD97":169822.25,"N_COORD97":2545107.8500000001,"ADDRESS":"開元路９０巷７７號","OBJECTID":275087},"geometry":{"x":169822.25000000093,"y":2545107.8500000015}},{"attributes":{"ID":275093,"DIS_CODE":0,"TOWNNAME":"北區","LI":"中樓里","LIN":"15鄰","STREET":"開元路","SECT":" ","MAREA":" ","LANE":"９０巷","ALLEY":" ","HOUSE_NO":"７９號","E_COORD97":169826.47,"N_COORD97":2545108.8799999999,"ADDRESS":"開元路９０巷７９號","OBJECTID":275088},"geometry":{"x":169826.46999999974,"y":2545108.8800000027}},{"attributes":{"ID":275094,"DIS_CODE":0,"TOWNNAME":"北區","LI":"中樓里","LIN":"15鄰","STREET":"開元路","SECT":" ","MAREA":" ","LANE":"９０巷","ALLEY":" ","HOUSE_NO":"８１號","E_COORD97":169829.76000000001,"N_COORD97":2545110.4199999999,"ADDRESS":"開元路９０巷８１號","OBJECTID":275089},"geometry":{"x":169829.75999999978,"y":2545110.4200000018}},{"attributes":{"ID":275095,"DIS_CODE":0,"TOWNNAME":"北區","LI":"中樓里","LIN":"15鄰","STREET":"開元路","SECT":" ","MAREA":" ","LANE":"９０巷","ALLEY":" ","HOUSE_NO":"８３號","E_COORD97":169822.76000000001,"N_COORD97":2545098.0699999998,"ADDRESS":"開元路９０巷８３號","OBJECTID":275090},"geometry":{"x":169822.75999999978,"y":2545098.0700000003}},{"attributes":{"ID":275096,"DIS_CODE":0,"TOWNNAME":"北區","LI":"中樓里","LIN":"15鄰","STREET":"開元路","SECT":" ","MAREA":" ","LANE":"９０巷","ALLEY":" ","HOUSE_NO":"８３號之１","E_COORD97":169811.13,"N_COORD97":2545098.6899999999,"ADDRESS":"開元路９０巷８３號之１","OBJECTID":275091},"geometry":{"x":169811.13000000082,"y":2545098.6900000013}},{"attributes":{"ID":275097,"DIS_CODE":0,"TOWNNAME":"北區","LI":"中樓里","LIN":"15鄰","STREET":"開元路","SECT":" ","MAREA":" ","LANE":"９０巷","ALLEY":" ","HOUSE_NO":"８３號之２","E_COORD97":169812.16,"N_COORD97":2545092.6200000001,"ADDRESS":"開元路９０巷８３號之２","OBJECTID":275092},"geometry":{"x":169812.16000000015,"y":2545092.6200000048}},{"attributes":{"ID":275098,"DIS_CODE":0,"TOWNNAME":"北區","LI":"文元里","LIN":"15鄰","STREET":"文賢一路","SECT":" ","MAREA":" ","LANE":"３４１巷","ALLEY":" ","HOUSE_NO":"２６號","E_COORD97":167457.14999999999,"N_COORD97":2545817.2400000002,"ADDRESS":"文賢一路３４１巷２６號","OBJECTID":275093},"geometry":{"x":167457.1500000013,"y":2545817.2400000021}},{"attributes":{"ID":275099,"DIS_CODE":0,"TOWNNAME":"北區","LI":"文元里","LIN":"15鄰","STREET":"文賢一路","SECT":" ","MAREA":" ","LANE":"３４１巷","ALLEY":" ","HOUSE_NO":"２２號","E_COORD97":167462.35999999999,"N_COORD97":2545817.6299999999,"ADDRESS":"文賢一路３４１巷２２號","OBJECTID":275094},"geometry":{"x":167462.36000000127,"y":2545817.629999999}},{"attributes":{"ID":275100,"DIS_CODE":0,"TOWNNAME":"北區","LI":"文元里","LIN":"15鄰","STREET":"文賢一路","SECT":" ","MAREA":" ","LANE":"３４１巷","ALLEY":" ","HOUSE_NO":"２０號","E_COORD97":167468.20000000001,"N_COORD97":2545818.0099999998,"ADDRESS":"文賢一路３４１巷２０號","OBJECTID":275095},"geometry":{"x":167468.20000000112,"y":2545818.0100000016}},{"attributes":{"ID":275101,"DIS_CODE":0,"TOWNNAME":"東區","LI":"東聖里","LIN":"15鄰","STREET":"中華東路","SECT":"二段","MAREA":" ","LANE":"７３巷","ALLEY":" ","HOUSE_NO":"１號六樓之７","E_COORD97":171453.76000000001,"N_COORD97":2543030.7599999998,"ADDRESS":"中華東路二段７３巷１號六樓之７","OBJECTID":275096},"geometry":{"x":171453.75999999978,"y":2543030.7599999998}},{"attributes":{"ID":275102,"DIS_CODE":0,"TOWNNAME":"東區","LI":"東聖里","LIN":"15鄰","STREET":"中華東路","SECT":"二段","MAREA":" ","LANE":"７３巷","ALLEY":" ","HOUSE_NO":"１５號三樓","E_COORD97":171477.67999999999,"N_COORD97":2543071.5600000001,"ADDRESS":"中華東路二段７３巷１５號三樓","OBJECTID":275097},"geometry":{"x":171477.6799999997,"y":2543071.5600000042}},{"attributes":{"ID":275103,"DIS_CODE":0,"TOWNNAME":"東區","LI":"東聖里","LIN":"15鄰","STREET":"中華東路","SECT":"二段","MAREA":" ","LANE":"７３巷","ALLEY":" ","HOUSE_NO":"１５號四樓之６","E_COORD97":171477.67999999999,"N_COORD97":2543071.5600000001,"ADDRESS":"中華東路二段７３巷１５號四樓之６","OBJECTID":275098},"geometry":{"x":171477.6799999997,"y":2543071.5600000042}},{"attributes":{"ID":275104,"DIS_CODE":0,"TOWNNAME":"東區","LI":"東聖里","LIN":"15鄰","STREET":"中華東路","SECT":"二段","MAREA":" ","LANE":"７３巷","ALLEY":" ","HOUSE_NO":"１５號四樓之７","E_COORD97":171477.67999999999,"N_COORD97":2543071.5600000001,"ADDRESS":"中華東路二段７３巷１５號四樓之７","OBJECTID":275099},"geometry":{"x":171477.6799999997,"y":2543071.5600000042}},{"attributes":{"ID":275105,"DIS_CODE":0,"TOWNNAME":"東區","LI":"東聖里","LIN":"15鄰","STREET":"中華東路","SECT":"二段","MAREA":" ","LANE":"７３巷","ALLEY":" ","HOUSE_NO":"１５號六樓之６","E_COORD97":171477.67999999999,"N_COORD97":2543071.5600000001,"ADDRESS":"中華東路二段７３巷１５號六樓之６","OBJECTID":275100},"geometry":{"x":171477.6799999997,"y":2543071.5600000042}},{"attributes":{"ID":275106,"DIS_CODE":0,"TOWNNAME":"東區","LI":"東聖里","LIN":"15鄰","STREET":"中華東路","SECT":"二段","MAREA":" ","LANE":"７３巷","ALLEY":" ","HOUSE_NO":"１５號六樓之７","E_COORD97":171477.67999999999,"N_COORD97":2543071.5600000001,"ADDRESS":"中華東路二段７３巷１５號六樓之７","OBJECTID":275101},"geometry":{"x":171477.6799999997,"y":2543071.5600000042}},{"attributes":{"ID":275107,"DIS_CODE":0,"TOWNNAME":"新化區","LI":"協興里","LIN":"15鄰","STREET":"大新路","SECT":" ","MAREA":" ","LANE":"１１１巷","ALLEY":" ","HOUSE_NO":"５０號六樓之３","E_COORD97":177987.92999999999,"N_COORD97":2548642.2599999998,"ADDRESS":"大新路１１１巷５０號六樓之３","OBJECTID":275102},"geometry":{"x":177987.93000000156,"y":2548642.2599999998}},{"attributes":{"ID":275108,"DIS_CODE":0,"TOWNNAME":"永康區","LI":"中華里","LIN":"15鄰","STREET":"忠義街","SECT":" ","MAREA":" ","LANE":"６０巷","ALLEY":" ","HOUSE_NO":"３號十五樓之１４","E_COORD97":171787.64999999999,"N_COORD97":2544541.1200000001,"ADDRESS":"忠義街６０巷３號十五樓之１４","OBJECTID":275103},"geometry":{"x":171787.65000000037,"y":2544541.1200000029}},{"attributes":{"ID":275109,"DIS_CODE":0,"TOWNNAME":"永康區","LI":"中華里","LIN":"15鄰","STREET":"忠義街","SECT":" ","MAREA":" ","LANE":"６０巷","ALLEY":" ","HOUSE_NO":"３號七樓之１５","E_COORD97":171786.53,"N_COORD97":2544541.1200000001,"ADDRESS":"忠義街６０巷３號七樓之１５","OBJECTID":275104},"geometry":{"x":171786.53000000026,"y":2544541.1200000029}},{"attributes":{"ID":275110,"DIS_CODE":0,"TOWNNAME":"仁德區","LI":"仁德里","LIN":"3鄰","STREET":"仁中五街","SECT":" ","MAREA":" ","LANE":" ","ALLEY":" ","HOUSE_NO":"８８號","E_COORD97":173329.03,"N_COORD97":2540307.02,"ADDRESS":"仁中五街８８號","OBJECTID":275105},"geometry":{"x":173329.03000000026,"y":2540307.0199999996}},{"attributes":{"ID":275111,"DIS_CODE":0,"TOWNNAME":"永康區","LI":"中華里","LIN":"15鄰","STREET":"忠義街","SECT":" ","MAREA":" ","LANE":"６０巷","ALLEY":" ","HOUSE_NO":"３號十一樓之１３","E_COORD97":171787.72,"N_COORD97":2544541.1200000001,"ADDRESS":"忠義街６０巷３號十一樓之１３","OBJECTID":275106},"geometry":{"x":171787.71999999974,"y":2544541.1200000029}},{"attributes":{"ID":275112,"DIS_CODE":0,"TOWNNAME":"下營區","LI":"大屯里","LIN":"3鄰","STREET":" ","SECT":" ","MAREA":"大屯寮","LANE":" ","ALLEY":" ","HOUSE_NO":"２７號之５","E_COORD97":172085.32999999999,"N_COORD97":2570445.4700000002,"ADDRESS":"大屯寮２７號之５","OBJECTID":275107},"geometry":{"x":172085.33000000101,"y":2570445.4700000007}},{"attributes":{"ID":275113,"DIS_CODE":0,"TOWNNAME":"仁德區","LI":"仁義里","LIN":"3鄰","STREET":"仁義四街","SECT":" ","MAREA":" ","LANE":" ","ALLEY":" ","HOUSE_NO":"１００號","E_COORD97":173914.66,"N_COORD97":2541089.4700000002,"ADDRESS":"仁義四街１００號","OBJECTID":275108},"geometry":{"x":173914.66000000015,"y":2541089.4700000025}},{"attributes":{"ID":275114,"DIS_CODE":0,"TOWNNAME":"仁德區","LI":"仁義里","LIN":"3鄰","STREET":"仁義四街","SECT":" ","MAREA":" ","LANE":" ","ALLEY":" ","HOUSE_NO":"９２號","E_COORD97":173913.23999999999,"N_COORD97":2541076.9100000001,"ADDRESS":"仁義四街９２號","OBJECTID":275109},"geometry":{"x":173913.24000000115,"y":2541076.910000002}},{"attributes":{"ID":275115,"DIS_CODE":0,"TOWNNAME":"仁德區","LI":"仁義里","LIN":"3鄰","STREET":"仁義四街","SECT":" ","MAREA":" ","LANE":" ","ALLEY":" ","HOUSE_NO":"９６號","E_COORD97":173913.12,"N_COORD97":2541080.9700000002,"ADDRESS":"仁義四街９６號","OBJECTID":275110},"geometry":{"x":173913.12000000011,"y":2541080.9700000007}},{"attributes":{"ID":275116,"DIS_CODE":0,"TOWNNAME":"仁德區","LI":"仁義里","LIN":"3鄰","STREET":"仁義四街","SECT":" ","MAREA":" ","LANE":" ","ALLEY":" ","HOUSE_NO":"９８號","E_COORD97":173913.53,"N_COORD97":2541085.1800000002,"ADDRESS":"仁義四街９８號","OBJECTID":275111},"geometry":{"x":173913.53000000026,"y":2541085.1799999997}},{"attributes":{"ID":275117,"DIS_CODE":0,"TOWNNAME":"下營區","LI":"大埤里","LIN":"3鄰","STREET":" ","SECT":" ","MAREA":"大埤寮","LANE":" ","ALLEY":" ","HOUSE_NO":"１９號","E_COORD97":173140.98000000001,"N_COORD97":2569855.1600000001,"ADDRESS":"大埤寮１９號","OBJECTID":275112},"geometry":{"x":173140.98000000045,"y":2569855.160000002}},{"attributes":{"ID":275118,"DIS_CODE":0,"TOWNNAME":"下營區","LI":"大埤里","LIN":"3鄰","STREET":" ","SECT":" ","MAREA":"大埤寮","LANE":" ","ALLEY":" ","HOUSE_NO":"２０號","E_COORD97":173128.76000000001,"N_COORD97":2569841.6899999999,"ADDRESS":"大埤寮２０號","OBJECTID":275113},"geometry":{"x":173128.75999999978,"y":2569841.6900000013}},{"attributes":{"ID":275119,"DIS_CODE":0,"TOWNNAME":"下營區","LI":"大埤里","LIN":"3鄰","STREET":" ","SECT":" ","MAREA":"大埤寮","LANE":" ","ALLEY":" ","HOUSE_NO":"２３號","E_COORD97":173098.09,"N_COORD97":2569817.9199999999,"ADDRESS":"大埤寮２３號","OBJECTID":275114},"geometry":{"x":173098.09000000171,"y":2569817.9199999999}},{"attributes":{"ID":275120,"DIS_CODE":0,"TOWNNAME":"下營區","LI":"大埤里","LIN":"3鄰","STREET":" ","SECT":" ","MAREA":"大埤寮","LANE":" ","ALLEY":" ","HOUSE_NO":"２６號","E_COORD97":173061.07999999999,"N_COORD97":2569819,"ADDRESS":"大埤寮２６號","OBJECTID":275115},"geometry":{"x":173061.08000000194,"y":2569819.0000000019}},{"attributes":{"ID":275121,"DIS_CODE":0,"TOWNNAME":"下營區","LI":"大埤里","LIN":"3鄰","STREET":" ","SECT":" ","MAREA":"大埤寮","LANE":" ","ALLEY":" ","HOUSE_NO":"２７號","E_COORD97":173057.51999999999,"N_COORD97":2569831.6400000001,"ADDRESS":"大埤寮２７號","OBJECTID":275116},"geometry":{"x":173057.52000000142,"y":2569831.6400000043}},{"attributes":{"ID":275122,"DIS_CODE":0,"TOWNNAME":"下營區","LI":"大埤里","LIN":"3鄰","STREET":" ","SECT":" ","MAREA":"大埤寮","LANE":" ","ALLEY":" ","HOUSE_NO":"２８號","E_COORD97":173069.17999999999,"N_COORD97":2569850.3199999998,"ADDRESS":"大埤寮２８號","OBJECTID":275117},"geometry":{"x":173069.18000000063,"y":2569850.320000004}},{"attributes":{"ID":275123,"DIS_CODE":0,"TOWNNAME":"永康區","LI":"中華里","LIN":"15鄰","STREET":"忠義街","SECT":" ","MAREA":" ","LANE":"６０巷","ALLEY":" ","HOUSE_NO":"３號十二樓之１１","E_COORD97":171787.63,"N_COORD97":2544541.1200000001,"ADDRESS":"忠義街６０巷３號十二樓之１１","OBJECTID":275118},"geometry":{"x":171787.63000000082,"y":2544541.1200000029}},{"attributes":{"ID":275124,"DIS_CODE":0,"TOWNNAME":"永康區","LI":"中華里","LIN":"15鄰","STREET":"忠義街","SECT":" ","MAREA":" ","LANE":"６０巷","ALLEY":" ","HOUSE_NO":"３號九樓之５","E_COORD97":171785.28,"N_COORD97":2544541.1200000001,"ADDRESS":"忠義街６０巷３號九樓之５","OBJECTID":275119},"geometry":{"x":171785.28000000119,"y":2544541.1200000029}},{"attributes":{"ID":275125,"DIS_CODE":0,"TOWNNAME":"歸仁區","LI":"歸仁里","LIN":"15鄰","STREET":"信義北路","SECT":" ","MAREA":" ","LANE":"９６巷","ALLEY":" ","HOUSE_NO":"２０號七樓","E_COORD97":178034.32000000001,"N_COORD97":2541021.1099999999,"ADDRESS":"信義北路９６巷２０號七樓","OBJECTID":275120},"geometry":{"x":178034.3200000003,"y":2541021.1099999994}},{"attributes":{"ID":275126,"DIS_CODE":0,"TOWNNAME":"歸仁區","LI":"歸仁里","LIN":"15鄰","STREET":"信義北路","SECT":" ","MAREA":" ","LANE":"９６巷","ALLEY":" ","HOUSE_NO":"１８號三樓","E_COORD97":178033.32000000001,"N_COORD97":2541016.1099999999,"ADDRESS":"信義北路９６巷１８號三樓","OBJECTID":275121},"geometry":{"x":178033.32000000216,"y":2541016.1100000013}},{"attributes":{"ID":275127,"DIS_CODE":0,"TOWNNAME":"歸仁區","LI":"歸仁里","LIN":"15鄰","STREET":"信義北路","SECT":" ","MAREA":" ","LANE":"９６巷","ALLEY":" ","HOUSE_NO":"１２號二樓","E_COORD97":178022.01999999999,"N_COORD97":2541018.1099999999,"ADDRESS":"信義北路９６巷１２號二樓","OBJECTID":275122},"geometry":{"x":178022.01999999955,"y":2541018.1099999994}},{"attributes":{"ID":275128,"DIS_CODE":0,"TOWNNAME":"歸仁區","LI":"歸仁里","LIN":"15鄰","STREET":"信義北路","SECT":" ","MAREA":" ","LANE":"９６巷","ALLEY":" ","HOUSE_NO":"１４號三樓","E_COORD97":178021.01999999999,"N_COORD97":2541012.1099999999,"ADDRESS":"信義北路９６巷１４號三樓","OBJECTID":275123},"geometry":{"x":178021.02000000142,"y":2541012.1100000031}},{"attributes":{"ID":275129,"DIS_CODE":0,"TOWNNAME":"歸仁區","LI":"歸仁里","LIN":"15鄰","STREET":"信義北路","SECT":" ","MAREA":" ","LANE":"９６巷","ALLEY":" ","HOUSE_NO":"１０號四樓","E_COORD97":178023.12,"N_COORD97":2541024.1099999999,"ADDRESS":"信義北路９６巷１０號四樓","OBJECTID":275124},"geometry":{"x":178023.12000000104,"y":2541024.1099999994}},{"attributes":{"ID":275130,"DIS_CODE":0,"TOWNNAME":"歸仁區","LI":"歸仁里","LIN":"15鄰","STREET":"信義北路","SECT":" ","MAREA":" ","LANE":"９６巷","ALLEY":" ","HOUSE_NO":"１６號三樓","E_COORD97":178032.22,"N_COORD97":2541009.1099999999,"ADDRESS":"信義北路９６巷１６號三樓","OBJECTID":275125},"geometry":{"x":178032.22000000067,"y":2541009.1100000013}},{"attributes":{"ID":275131,"DIS_CODE":0,"TOWNNAME":"歸仁區","LI":"歸仁里","LIN":"15鄰","STREET":"信義北路","SECT":" ","MAREA":" ","LANE":"９６巷","ALLEY":" ","HOUSE_NO":"２２號二樓","E_COORD97":178035.42000000001,"N_COORD97":2541026.1099999999,"ADDRESS":"信義北路９６巷２２號二樓","OBJECTID":275126},"geometry":{"x":178035.41999999993,"y":2541026.1100000013}},{"attributes":{"ID":275132,"DIS_CODE":0,"TOWNNAME":"歸仁區","LI":"歸仁里","LIN":"15鄰","STREET":"信義北路","SECT":" ","MAREA":" ","LANE":"９６巷","ALLEY":" ","HOUSE_NO":"８號四樓","E_COORD97":178024.97,"N_COORD97":2541030.1099999999,"ADDRESS":"信義北路９６巷８號四樓","OBJECTID":275127},"geometry":{"x":178024.9700000016,"y":2541030.1100000013}},{"attributes":{"ID":275133,"DIS_CODE":0,"TOWNNAME":"歸仁區","LI":"歸仁里","LIN":"15鄰","STREET":"信義北路","SECT":" ","MAREA":" ","LANE":"９６巷","ALLEY":" ","HOUSE_NO":"１８號七樓","E_COORD97":178033.32000000001,"N_COORD97":2541016.1099999999,"ADDRESS":"信義北路９６巷１８號七樓","OBJECTID":275128},"geometry":{"x":178033.32000000216,"y":2541016.1100000013}},{"attributes":{"ID":275134,"DIS_CODE":0,"TOWNNAME":"歸仁區","LI":"文化里","LIN":"15鄰","STREET":"大德路","SECT":" ","MAREA":" ","LANE":"１９３巷","ALLEY":" ","HOUSE_NO":"２號六樓之６","E_COORD97":177272.51999999999,"N_COORD97":2541511.3399999999,"ADDRESS":"大德路１９３巷２號六樓之６","OBJECTID":275129},"geometry":{"x":177272.52000000048,"y":2541511.3399999999}},{"attributes":{"ID":275135,"DIS_CODE":0,"TOWNNAME":"安平區","LI":"華平里","LIN":"15鄰","STREET":"建平八街","SECT":" ","MAREA":" ","LANE":"４５０巷","ALLEY":" ","HOUSE_NO":"１號六樓之５","E_COORD97":165066.13,"N_COORD97":2543638.7599999998,"ADDRESS":"建平八街４５０巷１號六樓之５","OBJECTID":275130},"geometry":{"x":165066.13000000175,"y":2543638.7599999998}},{"attributes":{"ID":275136,"DIS_CODE":0,"TOWNNAME":"安平區","LI":"華平里","LIN":"15鄰","STREET":"建平八街","SECT":" ","MAREA":" ","LANE":"４５０巷","ALLEY":" ","HOUSE_NO":"１號六樓之６","E_COORD97":165066.13,"N_COORD97":2543638.7599999998,"ADDRESS":"建平八街４５０巷１號六樓之６","OBJECTID":275131},"geometry":{"x":165066.13000000175,"y":2543638.7599999998}},{"attributes":{"ID":275137,"DIS_CODE":0,"TOWNNAME":"安平區","LI":"華平里","LIN":"15鄰","STREET":"建平八街","SECT":" ","MAREA":" ","LANE":"４５０巷","ALLEY":" ","HOUSE_NO":"１號六樓之７","E_COORD97":165066.13,"N_COORD97":2543638.7599999998,"ADDRESS":"建平八街４５０巷１號六樓之７","OBJECTID":275132},"geometry":{"x":165066.13000000175,"y":2543638.7599999998}},{"attributes":{"ID":275138,"DIS_CODE":0,"TOWNNAME":"安平區","LI":"華平里","LIN":"15鄰","STREET":"建平八街","SECT":" ","MAREA":" ","LANE":"４５０巷","ALLEY":" ","HOUSE_NO":"１號六樓之８","E_COORD97":165066.13,"N_COORD97":2543638.7599999998,"ADDRESS":"建平八街４５０巷１號六樓之８","OBJECTID":275133},"geometry":{"x":165066.13000000175,"y":2543638.7599999998}},{"attributes":{"ID":275139,"DIS_CODE":0,"TOWNNAME":"安平區","LI":"華平里","LIN":"15鄰","STREET":"建平八街","SECT":" ","MAREA":" ","LANE":"４５０巷","ALLEY":" ","HOUSE_NO":"１號六樓之９","E_COORD97":165066.13,"N_COORD97":2543638.7599999998,"ADDRESS":"建平八街４５０巷１號六樓之９","OBJECTID":275134},"geometry":{"x":165066.13000000175,"y":2543638.7599999998}},{"attributes":{"ID":275140,"DIS_CODE":0,"TOWNNAME":"安平區","LI":"華平里","LIN":"15鄰","STREET":"建平八街","SECT":" ","MAREA":" ","LANE":"４５０巷","ALLEY":" ","HOUSE_NO":"１號四樓之１","E_COORD97":165066.13,"N_COORD97":2543638.7599999998,"ADDRESS":"建平八街４５０巷１號四樓之１","OBJECTID":275135},"geometry":{"x":165066.13000000175,"y":2543638.7599999998}},{"attributes":{"ID":275141,"DIS_CODE":0,"TOWNNAME":"佳里區","LI":"民安里","LIN":"3鄰","STREET":" ","SECT":" ","MAREA":"同安寮","LANE":" ","ALLEY":" ","HOUSE_NO":"４２號","E_COORD97":167199.16,"N_COORD97":2562373.9700000002,"ADDRESS":"同安寮４２號","OBJECTID":275136},"geometry":{"x":167199.16000000108,"y":2562373.9700000044}},{"attributes":{"ID":275142,"DIS_CODE":0,"TOWNNAME":"安平區","LI":"華平里","LIN":"15鄰","STREET":"建平八街","SECT":" ","MAREA":" ","LANE":"４５０巷","ALLEY":" ","HOUSE_NO":"１號四樓之１０","E_COORD97":165066.13,"N_COORD97":2543638.7599999998,"ADDRESS":"建平八街４５０巷１號四樓之１０","OBJECTID":275137},"geometry":{"x":165066.13000000175,"y":2543638.7599999998}},{"attributes":{"ID":275143,"DIS_CODE":0,"TOWNNAME":"安平區","LI":"華平里","LIN":"15鄰","STREET":"建平八街","SECT":" ","MAREA":" ","LANE":"４５０巷","ALLEY":" ","HOUSE_NO":"１號四樓之１１","E_COORD97":165066.13,"N_COORD97":2543638.7599999998,"ADDRESS":"建平八街４５０巷１號四樓之１１","OBJECTID":275138},"geometry":{"x":165066.13000000175,"y":2543638.7599999998}},{"attributes":{"ID":275144,"DIS_CODE":0,"TOWNNAME":"南區","LI":"新生里","LIN":"15鄰","STREET":"大同路","SECT":"二段","MAREA":" ","LANE":"１１２巷","ALLEY":" ","HOUSE_NO":"１１號一樓之２","E_COORD97":169180.69,"N_COORD97":2542194.9300000002,"ADDRESS":"大同路二段１１２巷１１號一樓之２","OBJECTID":275139},"geometry":{"x":169180.69000000134,"y":2542194.9300000016}},{"attributes":{"ID":275145,"DIS_CODE":0,"TOWNNAME":"南區","LI":"建南里","LIN":"4鄰","STREET":"德興路","SECT":" ","MAREA":" ","LANE":"２６５巷","ALLEY":" ","HOUSE_NO":"２７號","E_COORD97":167292.25,"N_COORD97":2540024.3300000001,"ADDRESS":"德興路２６５巷２７號","OBJECTID":275140},"geometry":{"x":167292.25,"y":2540024.3300000001}},{"attributes":{"ID":275146,"DIS_CODE":0,"TOWNNAME":"南區","LI":"大林里","LIN":"13鄰","STREET":"國民路","SECT":" ","MAREA":" ","LANE":"５１１巷","ALLEY":" ","HOUSE_NO":"４１號之１","E_COORD97":168550.79999999999,"N_COORD97":2541319.7999999998,"ADDRESS":"國民路５１１巷４１號之１","OBJECTID":275141},"geometry":{"x":168550.80000000075,"y":2541319.8000000007}},{"attributes":{"ID":275147,"DIS_CODE":0,"TOWNNAME":"新化區","LI":"東榮里","LIN":"24鄰","STREET":"中正路","SECT":" ","MAREA":" ","LANE":"２４４巷","ALLEY":" ","HOUSE_NO":"６號","E_COORD97":179152.01000000001,"N_COORD97":2547736.25,"ADDRESS":"中正路２４４巷６號","OBJECTID":275142},"geometry":{"x":179152.01000000164,"y":2547736.2500000019}},{"attributes":{"ID":275148,"DIS_CODE":0,"TOWNNAME":"新化區","LI":"豐榮里","LIN":"8鄰","STREET":"大智路","SECT":" ","MAREA":" ","LANE":"７７巷","ALLEY":" ","HOUSE_NO":"２６號","E_COORD97":178297.03,"N_COORD97":2548280.25,"ADDRESS":"大智路７７巷２６號","OBJECTID":275143},"geometry":{"x":178297.03000000119,"y":2548280.25}},{"attributes":{"ID":275149,"DIS_CODE":0,"TOWNNAME":"新化區","LI":"東榮里","LIN":"15鄰","STREET":"信義路","SECT":" ","MAREA":" ","LANE":"１３１巷","ALLEY":" ","HOUSE_NO":"７１號","E_COORD97":179679.88,"N_COORD97":2548194.25,"ADDRESS":"信義路１３１巷７１號","OBJECTID":275144},"geometry":{"x":179679.87999999989,"y":2548194.2500000019}},{"attributes":{"ID":275150,"DIS_CODE":0,"TOWNNAME":"南區","LI":"新生里","LIN":"15鄰","STREET":"大同路","SECT":"二段","MAREA":" ","LANE":"１３６巷","ALLEY":" ","HOUSE_NO":"８號六樓之３","E_COORD97":169211.10000000001,"N_COORD97":2542173.6899999999,"ADDRESS":"大同路二段１３６巷８號六樓之３","OBJECTID":275145},"geometry":{"x":169211.10000000056,"y":2542173.6899999995}},{"attributes":{"ID":275151,"DIS_CODE":0,"TOWNNAME":"南區","LI":"新生里","LIN":"15鄰","STREET":"大同路","SECT":"二段","MAREA":" ","LANE":"１３６巷","ALLEY":" ","HOUSE_NO":"８號六樓之５","E_COORD97":169211.10000000001,"N_COORD97":2542173.6899999999,"ADDRESS":"大同路二段１３６巷８號六樓之５","OBJECTID":275146},"geometry":{"x":169211.10000000056,"y":2542173.6899999995}},{"attributes":{"ID":275152,"DIS_CODE":0,"TOWNNAME":"永康區","LI":"永康里","LIN":"12鄰","STREET":"永中街","SECT":" ","MAREA":" ","LANE":" ","ALLEY":" ","HOUSE_NO":"６號","E_COORD97":173861.75,"N_COORD97":2547035.7000000002,"ADDRESS":"永中街６號","OBJECTID":275147},"geometry":{"x":173861.75000000186,"y":2547035.6999999993}},{"attributes":{"ID":275153,"DIS_CODE":0,"TOWNNAME":"安南區","LI":"州南里","LIN":"3鄰","STREET":"北安路","SECT":"四段","MAREA":" ","LANE":" ","ALLEY":" ","HOUSE_NO":"１６９號之５","E_COORD97":169439.744577,"N_COORD97":2551242.9776400002,"ADDRESS":"北安路四段１６９號之５","OBJECTID":275148},"geometry":{"x":169439.74457700178,"y":2551242.9776400011}},{"attributes":{"ID":275154,"DIS_CODE":0,"TOWNNAME":"南區","LI":"新生里","LIN":"15鄰","STREET":"大同路","SECT":"二段","MAREA":" ","LANE":"１３６巷","ALLEY":" ","HOUSE_NO":"８號七樓之３","E_COORD97":169211.10000000001,"N_COORD97":2542173.6899999999,"ADDRESS":"大同路二段１３６巷８號七樓之３","OBJECTID":275149},"geometry":{"x":169211.10000000056,"y":2542173.6899999995}},{"attributes":{"ID":275155,"DIS_CODE":0,"TOWNNAME":"南區","LI":"新生里","LIN":"15鄰","STREET":"大同路","SECT":"二段","MAREA":" ","LANE":"１３６巷","ALLEY":" ","HOUSE_NO":"８號七樓之５","E_COORD97":169211.10000000001,"N_COORD97":2542173.6899999999,"ADDRESS":"大同路二段１３６巷８號七樓之５","OBJECTID":275150},"geometry":{"x":169211.10000000056,"y":2542173.6899999995}},{"attributes":{"ID":275156,"DIS_CODE":0,"TOWNNAME":"南區","LI":"新生里","LIN":"15鄰","STREET":"大同路","SECT":"二段","MAREA":" ","LANE":"１３６巷","ALLEY":" ","HOUSE_NO":"８號八樓之３","E_COORD97":169211.10000000001,"N_COORD97":2542173.6899999999,"ADDRESS":"大同路二段１３６巷８號八樓之３","OBJECTID":275151},"geometry":{"x":169211.10000000056,"y":2542173.6899999995}},{"attributes":{"ID":275157,"DIS_CODE":0,"TOWNNAME":"南區","LI":"新生里","LIN":"15鄰","STREET":"大同路","SECT":"二段","MAREA":" ","LANE":"１３６巷","ALLEY":" ","HOUSE_NO":"８號八樓之５","E_COORD97":169211.10000000001,"N_COORD97":2542173.6899999999,"ADDRESS":"大同路二段１３６巷８號八樓之５","OBJECTID":275152},"geometry":{"x":169211.10000000056,"y":2542173.6899999995}},{"attributes":{"ID":275158,"DIS_CODE":0,"TOWNNAME":"南區","LI":"新生里","LIN":"15鄰","STREET":"大同路","SECT":"二段","MAREA":" ","LANE":"１３６巷","ALLEY":" ","HOUSE_NO":"８號九樓之３","E_COORD97":169211.10000000001,"N_COORD97":2542173.6899999999,"ADDRESS":"大同路二段１３６巷８號九樓之３","OBJECTID":275153},"geometry":{"x":169211.10000000056,"y":2542173.6899999995}},{"attributes":{"ID":275159,"DIS_CODE":0,"TOWNNAME":"南區","LI":"新生里","LIN":"15鄰","STREET":"大同路","SECT":"二段","MAREA":" ","LANE":"１３６巷","ALLEY":" ","HOUSE_NO":"８號九樓之５","E_COORD97":169211.10000000001,"N_COORD97":2542173.6899999999,"ADDRESS":"大同路二段１３６巷８號九樓之５","OBJECTID":275154},"geometry":{"x":169211.10000000056,"y":2542173.6899999995}},{"attributes":{"ID":275160,"DIS_CODE":0,"TOWNNAME":"南區","LI":"新生里","LIN":"15鄰","STREET":"大同路","SECT":"二段","MAREA":" ","LANE":"１３６巷","ALLEY":" ","HOUSE_NO":"８號十樓之３","E_COORD97":169211.10000000001,"N_COORD97":2542173.6899999999,"ADDRESS":"大同路二段１３６巷８號十樓之３","OBJECTID":275155},"geometry":{"x":169211.10000000056,"y":2542173.6899999995}},{"attributes":{"ID":275161,"DIS_CODE":0,"TOWNNAME":"南區","LI":"新生里","LIN":"15鄰","STREET":"大同路","SECT":"二段","MAREA":" ","LANE":"１３６巷","ALLEY":" ","HOUSE_NO":"８號十樓之５","E_COORD97":169211.10000000001,"N_COORD97":2542173.6899999999,"ADDRESS":"大同路二段１３６巷８號十樓之５","OBJECTID":275156},"geometry":{"x":169211.10000000056,"y":2542173.6899999995}},{"attributes":{"ID":275162,"DIS_CODE":0,"TOWNNAME":"南區","LI":"新生里","LIN":"15鄰","STREET":"大同路","SECT":"二段","MAREA":" ","LANE":"１３６巷","ALLEY":" ","HOUSE_NO":"１０號一樓之１","E_COORD97":169195.76000000001,"N_COORD97":2542168.8300000001,"ADDRESS":"大同路二段１３６巷１０號一樓之１","OBJECTID":275157},"geometry":{"x":169195.75999999978,"y":2542168.8300000019}},{"attributes":{"ID":275163,"DIS_CODE":0,"TOWNNAME":"南區","LI":"新生里","LIN":"15鄰","STREET":"大同路","SECT":"二段","MAREA":" ","LANE":"１３６巷","ALLEY":" ","HOUSE_NO":"１０號一樓之２","E_COORD97":169195.76000000001,"N_COORD97":2542168.8300000001,"ADDRESS":"大同路二段１３６巷１０號一樓之２","OBJECTID":275158},"geometry":{"x":169195.75999999978,"y":2542168.8300000019}},{"attributes":{"ID":275164,"DIS_CODE":0,"TOWNNAME":"南區","LI":"新生里","LIN":"15鄰","STREET":"大同路","SECT":"二段","MAREA":" ","LANE":"１３６巷","ALLEY":" ","HOUSE_NO":"１０號一樓之３","E_COORD97":169195.76000000001,"N_COORD97":2542168.8300000001,"ADDRESS":"大同路二段１３６巷１０號一樓之３","OBJECTID":275159},"geometry":{"x":169195.75999999978,"y":2542168.8300000019}},{"attributes":{"ID":275165,"DIS_CODE":0,"TOWNNAME":"南區","LI":"新生里","LIN":"15鄰","STREET":"大同路","SECT":"二段","MAREA":" ","LANE":"１３６巷","ALLEY":" ","HOUSE_NO":"１０號一樓之５","E_COORD97":169195.76000000001,"N_COORD97":2542168.8300000001,"ADDRESS":"大同路二段１３６巷１０號一樓之５","OBJECTID":275160},"geometry":{"x":169195.75999999978,"y":2542168.8300000019}},{"attributes":{"ID":275166,"DIS_CODE":0,"TOWNNAME":"南區","LI":"新生里","LIN":"15鄰","STREET":"大同路","SECT":"二段","MAREA":" ","LANE":"１３６巷","ALLEY":" ","HOUSE_NO":"１０號二樓之１","E_COORD97":169195.76000000001,"N_COORD97":2542168.8300000001,"ADDRESS":"大同路二段１３６巷１０號二樓之１","OBJECTID":275161},"geometry":{"x":169195.75999999978,"y":2542168.8300000019}},{"attributes":{"ID":275167,"DIS_CODE":0,"TOWNNAME":"南區","LI":"新生里","LIN":"15鄰","STREET":"大同路","SECT":"二段","MAREA":" ","LANE":"１３６巷","ALLEY":" ","HOUSE_NO":"１０號二樓之２","E_COORD97":169195.76000000001,"N_COORD97":2542168.8300000001,"ADDRESS":"大同路二段１３６巷１０號二樓之２","OBJECTID":275162},"geometry":{"x":169195.75999999978,"y":2542168.8300000019}},{"attributes":{"ID":275168,"DIS_CODE":0,"TOWNNAME":"南區","LI":"新生里","LIN":"15鄰","STREET":"大同路","SECT":"二段","MAREA":" ","LANE":"１３６巷","ALLEY":" ","HOUSE_NO":"１０號二樓之３","E_COORD97":169195.76000000001,"N_COORD97":2542168.8300000001,"ADDRESS":"大同路二段１３６巷１０號二樓之３","OBJECTID":275163},"geometry":{"x":169195.75999999978,"y":2542168.8300000019}},{"attributes":{"ID":275169,"DIS_CODE":0,"TOWNNAME":"北區","LI":"長榮里","LIN":"15鄰","STREET":"長榮路","SECT":"五段","MAREA":" ","LANE":"４１巷","ALLEY":" ","HOUSE_NO":"６８號十三樓之１","E_COORD97":169876.17999999999,"N_COORD97":2545602.8300000001,"ADDRESS":"長榮路五段４１巷６８號十三樓之１","OBJECTID":275164},"geometry":{"x":169876.1799999997,"y":2545602.8300000019}},{"attributes":{"ID":275170,"DIS_CODE":0,"TOWNNAME":"北區","LI":"長榮里","LIN":"15鄰","STREET":"長榮路","SECT":"五段","MAREA":" ","LANE":"４１巷","ALLEY":" ","HOUSE_NO":"６８號十三樓之２","E_COORD97":169876.17999999999,"N_COORD97":2545602.8300000001,"ADDRESS":"長榮路五段４１巷６８號十三樓之２","OBJECTID":275165},"geometry":{"x":169876.1799999997,"y":2545602.8300000019}},{"attributes":{"ID":275171,"DIS_CODE":0,"TOWNNAME":"北區","LI":"長榮里","LIN":"15鄰","STREET":"長榮路","SECT":"五段","MAREA":" ","LANE":"４１巷","ALLEY":" ","HOUSE_NO":"６８號十三樓之３","E_COORD97":169876.17999999999,"N_COORD97":2545602.8300000001,"ADDRESS":"長榮路五段４１巷６８號十三樓之３","OBJECTID":275166},"geometry":{"x":169876.1799999997,"y":2545602.8300000019}},{"attributes":{"ID":275172,"DIS_CODE":0,"TOWNNAME":"北區","LI":"長榮里","LIN":"15鄰","STREET":"長榮路","SECT":"五段","MAREA":" ","LANE":"４１巷","ALLEY":" ","HOUSE_NO":"６８號十三樓之５","E_COORD97":169876.17999999999,"N_COORD97":2545602.8300000001,"ADDRESS":"長榮路五段４１巷６８號十三樓之５","OBJECTID":275167},"geometry":{"x":169876.1799999997,"y":2545602.8300000019}},{"attributes":{"ID":275173,"DIS_CODE":0,"TOWNNAME":"北區","LI":"長榮里","LIN":"15鄰","STREET":"長榮路","SECT":"五段","MAREA":" ","LANE":"４１巷","ALLEY":" ","HOUSE_NO":"６８號十四樓之１","E_COORD97":169876.17999999999,"N_COORD97":2545602.8300000001,"ADDRESS":"長榮路五段４１巷６８號十四樓之１","OBJECTID":275168},"geometry":{"x":169876.1799999997,"y":2545602.8300000019}},{"attributes":{"ID":275174,"DIS_CODE":0,"TOWNNAME":"北區","LI":"長榮里","LIN":"15鄰","STREET":"長榮路","SECT":"五段","MAREA":" ","LANE":"４１巷","ALLEY":" ","HOUSE_NO":"６８號十四樓之２","E_COORD97":169876.17999999999,"N_COORD97":2545602.8300000001,"ADDRESS":"長榮路五段４１巷６８號十四樓之２","OBJECTID":275169},"geometry":{"x":169876.1799999997,"y":2545602.8300000019}},{"attributes":{"ID":275175,"DIS_CODE":0,"TOWNNAME":"北區","LI":"長榮里","LIN":"15鄰","STREET":"長榮路","SECT":"五段","MAREA":" ","LANE":"４１巷","ALLEY":" ","HOUSE_NO":"６８號十四樓之３","E_COORD97":169876.17999999999,"N_COORD97":2545602.8300000001,"ADDRESS":"長榮路五段４１巷６８號十四樓之３","OBJECTID":275170},"geometry":{"x":169876.1799999997,"y":2545602.8300000019}},{"attributes":{"ID":275176,"DIS_CODE":0,"TOWNNAME":"中西區","LI":"西湖里","LIN":"3鄰","STREET":"頂美二街","SECT":" ","MAREA":" ","LANE":"７６巷","ALLEY":" ","HOUSE_NO":"２５號","E_COORD97":166479.89999999999,"N_COORD97":2544686.5699999998,"ADDRESS":"頂美二街７６巷２５號","OBJECTID":275171},"geometry":{"x":166479.90000000037,"y":2544686.5700000022}},{"attributes":{"ID":275177,"DIS_CODE":0,"TOWNNAME":"安南區","LI":"鳳凰里","LIN":"3鄰","STREET":"安中路","SECT":"一段","MAREA":" ","LANE":" ","ALLEY":" ","HOUSE_NO":"５６８號之１","E_COORD97":167899.62,"N_COORD97":2549074.4399999999,"ADDRESS":"安中路一段５６８號之１","OBJECTID":275172},"geometry":{"x":167899.62000000104,"y":2549074.4399999995}},{"attributes":{"ID":275178,"DIS_CODE":0,"TOWNNAME":"北區","LI":"長榮里","LIN":"15鄰","STREET":"長榮路","SECT":"五段","MAREA":" ","LANE":"４１巷","ALLEY":" ","HOUSE_NO":"６８號十四樓之５","E_COORD97":169876.17999999999,"N_COORD97":2545602.8300000001,"ADDRESS":"長榮路五段４１巷６８號十四樓之５","OBJECTID":275173},"geometry":{"x":169876.1799999997,"y":2545602.8300000019}},{"attributes":{"ID":275179,"DIS_CODE":0,"TOWNNAME":"新營區","LI":"嘉芳里","LIN":"15鄰","STREET":"復興路","SECT":" ","MAREA":" ","LANE":"１０７４巷","ALLEY":" ","HOUSE_NO":"１２號五樓","E_COORD97":176139.89000000001,"N_COORD97":2578918.3700000001,"ADDRESS":"復興路１０７４巷１２號五樓","OBJECTID":275174},"geometry":{"x":176139.88999999966,"y":2578918.370000001}},{"attributes":{"ID":275180,"DIS_CODE":0,"TOWNNAME":"仁德區","LI":"仁義里","LIN":"20鄰","STREET":"中山路","SECT":" ","MAREA":" ","LANE":" ","ALLEY":" ","HOUSE_NO":"３３４號","E_COORD97":173932.59,"N_COORD97":2541265.75,"ADDRESS":"中山路３３４號","OBJECTID":275175},"geometry":{"x":173932.59000000078,"y":2541265.75}},{"attributes":{"ID":275181,"DIS_CODE":0,"TOWNNAME":"仁德區","LI":"仁義里","LIN":"26鄰","STREET":"中清五街","SECT":" ","MAREA":" ","LANE":" ","ALLEY":" ","HOUSE_NO":"１１號","E_COORD97":173392.70000000001,"N_COORD97":2541424.79,"ADDRESS":"中清五街１１號","OBJECTID":275176},"geometry":{"x":173392.70000000205,"y":2541424.790000001}},{"attributes":{"ID":275182,"DIS_CODE":0,"TOWNNAME":"仁德區","LI":"土庫里","LIN":"4鄰","STREET":"中正路","SECT":"三段","MAREA":" ","LANE":" ","ALLEY":" ","HOUSE_NO":"４８６號","E_COORD97":174024.35000000001,"N_COORD97":2542986.7799999998,"ADDRESS":"中正路三段４８６號","OBJECTID":275177},"geometry":{"x":174024.34999999963,"y":2542986.7799999993}},{"attributes":{"ID":275183,"DIS_CODE":0,"TOWNNAME":"仁德區","LI":"大甲里","LIN":"20鄰","STREET":"中正西路","SECT":" ","MAREA":" ","LANE":" ","ALLEY":" ","HOUSE_NO":"４８５號","E_COORD97":169450.26000000001,"N_COORD97":2535416.7400000002,"ADDRESS":"中正西路４８５號","OBJECTID":275178},"geometry":{"x":169450.25999999978,"y":2535416.7400000002}},{"attributes":{"ID":275184,"DIS_CODE":0,"TOWNNAME":"仁德區","LI":"仁義里","LIN":"4鄰","STREET":"仁義四街","SECT":" ","MAREA":" ","LANE":" ","ALLEY":" ","HOUSE_NO":"３３號","E_COORD97":173784.70000000001,"N_COORD97":2541061.52,"ADDRESS":"仁義四街３３號","OBJECTID":275179},"geometry":{"x":173784.70000000112,"y":2541061.5200000014}},{"attributes":{"ID":275185,"DIS_CODE":0,"TOWNNAME":"仁德區","LI":"仁義里","LIN":"26鄰","STREET":"中清五街","SECT":" ","MAREA":" ","LANE":" ","ALLEY":" ","HOUSE_NO":"７號","E_COORD97":173390.37,"N_COORD97":2541415.54,"ADDRESS":"中清五街７號","OBJECTID":275180},"geometry":{"x":173390.37000000104,"y":2541415.5399999991}},{"attributes":{"ID":275186,"DIS_CODE":0,"TOWNNAME":"仁德區","LI":"土庫里","LIN":"5鄰","STREET":"土庫三街","SECT":" ","MAREA":" ","LANE":" ","ALLEY":" ","HOUSE_NO":"１９號","E_COORD97":174089.95000000001,"N_COORD97":2543089.75,"ADDRESS":"土庫三街１９號","OBJECTID":275181},"geometry":{"x":174089.95000000112,"y":2543089.75}},{"attributes":{"ID":275187,"DIS_CODE":0,"TOWNNAME":"仁德區","LI":"仁義里","LIN":"32鄰","STREET":"中清二街","SECT":" ","MAREA":" ","LANE":" ","ALLEY":" ","HOUSE_NO":"４１號","E_COORD97":173565,"N_COORD97":2541500.54,"ADDRESS":"中清二街４１號","OBJECTID":275182},"geometry":{"x":173565.00000000186,"y":2541500.5400000028}},{"attributes":{"ID":275188,"DIS_CODE":0,"TOWNNAME":"仁德區","LI":"仁義里","LIN":"26鄰","STREET":"中清四街","SECT":" ","MAREA":" ","LANE":" ","ALLEY":" ","HOUSE_NO":"４號","E_COORD97":173441.84,"N_COORD97":2541354.0499999998,"ADDRESS":"中清四街４號","OBJECTID":275183},"geometry":{"x":173441.83999999985,"y":2541354.0500000026}},{"attributes":{"ID":275189,"DIS_CODE":0,"TOWNNAME":"新營區","LI":"嘉芳里","LIN":"15鄰","STREET":"復興路","SECT":" ","MAREA":" ","LANE":"１０７４巷","ALLEY":" ","HOUSE_NO":"１２號四樓","E_COORD97":176139.89000000001,"N_COORD97":2578918.3700000001,"ADDRESS":"復興路１０７４巷１２號四樓","OBJECTID":275184},"geometry":{"x":176139.88999999966,"y":2578918.370000001}},{"attributes":{"ID":275190,"DIS_CODE":0,"TOWNNAME":"新營區","LI":"嘉芳里","LIN":"15鄰","STREET":"復興路","SECT":" ","MAREA":" ","LANE":"１０７４巷","ALLEY":" ","HOUSE_NO":"１２號六樓","E_COORD97":176139.45999999999,"N_COORD97":2578918.1800000002,"ADDRESS":"復興路１０７４巷１２號六樓","OBJECTID":275185},"geometry":{"x":176139.45999999996,"y":2578918.1800000016}},{"attributes":{"ID":275191,"DIS_CODE":0,"TOWNNAME":"新營區","LI":"嘉芳里","LIN":"15鄰","STREET":"復興路","SECT":" ","MAREA":" ","LANE":"１０７４巷","ALLEY":" ","HOUSE_NO":"１０號四樓","E_COORD97":176139.70999999999,"N_COORD97":2578918.1899999999,"ADDRESS":"復興路１０７４巷１０號四樓","OBJECTID":275186},"geometry":{"x":176139.70999999996,"y":2578918.1899999995}},{"attributes":{"ID":275192,"DIS_CODE":0,"TOWNNAME":"新營區","LI":"嘉芳里","LIN":"15鄰","STREET":"復興路","SECT":" ","MAREA":" ","LANE":"１０７４巷","ALLEY":" ","HOUSE_NO":"１２號三樓","E_COORD97":176139.41,"N_COORD97":2578918.1600000001,"ADDRESS":"復興路１０７４巷１２號三樓","OBJECTID":275187},"geometry":{"x":176139.41000000108,"y":2578918.160000002}},{"attributes":{"ID":275193,"DIS_CODE":0,"TOWNNAME":"永康區","LI":"北灣里","LIN":"15鄰","STREET":"信義二街","SECT":" ","MAREA":" ","LANE":"９８巷","ALLEY":" ","HOUSE_NO":"１號","E_COORD97":174976.51000000001,"N_COORD97":2545760.6800000002,"ADDRESS":"信義二街９８巷１號","OBJECTID":275188},"geometry":{"x":174976.50999999978,"y":2545760.6799999997}},{"attributes":{"ID":275194,"DIS_CODE":0,"TOWNNAME":"永康區","LI":"北灣里","LIN":"15鄰","STREET":"信義二街","SECT":" ","MAREA":" ","LANE":"９８巷","ALLEY":" ","HOUSE_NO":"８號","E_COORD97":174984.23000000001,"N_COORD97":2545790.3300000001,"ADDRESS":"信義二街９８巷８號","OBJECTID":275189},"geometry":{"x":174984.23000000045,"y":2545790.3300000001}},{"attributes":{"ID":275195,"DIS_CODE":0,"TOWNNAME":"永康區","LI":"正強里","LIN":"15鄰","STREET":"中山南路","SECT":" ","MAREA":" ","LANE":"４７１巷","ALLEY":" ","HOUSE_NO":"９７之１號","E_COORD97":173355.98999999999,"N_COORD97":2547222.54,"ADDRESS":"中山南路４７１巷９７之１號","OBJECTID":275190},"geometry":{"x":173355.99000000022,"y":2547222.5399999991}},{"attributes":{"ID":275196,"DIS_CODE":0,"TOWNNAME":"永康區","LI":"正強里","LIN":"15鄰","STREET":"中山南路","SECT":" ","MAREA":" ","LANE":"４７１巷","ALLEY":" ","HOUSE_NO":"７９號","E_COORD97":173274.95000000001,"N_COORD97":2547195.9900000002,"ADDRESS":"中山南路４７１巷７９號","OBJECTID":275191},"geometry":{"x":173274.95000000019,"y":2547195.9900000021}},{"attributes":{"ID":275197,"DIS_CODE":0,"TOWNNAME":"永康區","LI":"正強里","LIN":"15鄰","STREET":"中山南路","SECT":" ","MAREA":" ","LANE":"４７１巷","ALLEY":" ","HOUSE_NO":"８３號","E_COORD97":173309.44,"N_COORD97":2547206.9900000002,"ADDRESS":"中山南路４７１巷８３號","OBJECTID":275192},"geometry":{"x":173309.44000000041,"y":2547206.9900000002}},{"attributes":{"ID":275198,"DIS_CODE":0,"TOWNNAME":"永康區","LI":"正強里","LIN":"15鄰","STREET":"正強街","SECT":" ","MAREA":" ","LANE":"７１巷","ALLEY":" ","HOUSE_NO":"１２號","E_COORD97":173305.51999999999,"N_COORD97":2547323.1699999999,"ADDRESS":"正強街７１巷１２號","OBJECTID":275193},"geometry":{"x":173305.52000000048,"y":2547323.1700000018}},{"attributes":{"ID":275199,"DIS_CODE":0,"TOWNNAME":"永康區","LI":"正強里","LIN":"15鄰","STREET":"正強街","SECT":" ","MAREA":" ","LANE":"６３巷","ALLEY":" ","HOUSE_NO":"２號","E_COORD97":173327.39999999999,"N_COORD97":2547303.1499999999,"ADDRESS":"正強街６３巷２號","OBJECTID":275194},"geometry":{"x":173327.4000000013,"y":2547303.1500000022}},{"attributes":{"ID":275200,"DIS_CODE":0,"TOWNNAME":"永康區","LI":"正強里","LIN":"15鄰","STREET":"中山南路","SECT":" ","MAREA":" ","LANE":"４７１巷","ALLEY":" ","HOUSE_NO":"７５號","E_COORD97":173265.62,"N_COORD97":2547193.9900000002,"ADDRESS":"中山南路４７１巷７５號","OBJECTID":275195},"geometry":{"x":173265.62000000011,"y":2547193.9900000002}},{"attributes":{"ID":275201,"DIS_CODE":0,"TOWNNAME":"永康區","LI":"正強里","LIN":"15鄰","STREET":"正強街","SECT":" ","MAREA":" ","LANE":"６３巷","ALLEY":" ","HOUSE_NO":"４０號","E_COORD97":173247.66,"N_COORD97":2547288.9900000002,"ADDRESS":"正強街６３巷４０號","OBJECTID":275196},"geometry":{"x":173247.66000000108,"y":2547288.9900000002}},{"attributes":{"ID":275202,"DIS_CODE":0,"TOWNNAME":"永康區","LI":"北灣里","LIN":"15鄰","STREET":"信義二街","SECT":" ","MAREA":" ","LANE":"９８巷","ALLEY":" ","HOUSE_NO":"６號","E_COORD97":174989.51000000001,"N_COORD97":2545756.1099999999,"ADDRESS":"信義二街９８巷６號","OBJECTID":275197},"geometry":{"x":174989.51000000071,"y":2545756.1100000013}},{"attributes":{"ID":275203,"DIS_CODE":0,"TOWNNAME":"安南區","LI":"長安里","LIN":"15鄰","STREET":"公學路","SECT":"二段","MAREA":" ","LANE":"６３巷","ALLEY":" ","HOUSE_NO":"７號","E_COORD97":167840.44,"N_COORD97":2552424.6600000001,"ADDRESS":"公學路二段６３巷７號","OBJECTID":275198},"geometry":{"x":167840.44000000041,"y":2552424.6600000039}},{"attributes":{"ID":275204,"DIS_CODE":0,"TOWNNAME":"安南區","LI":"長安里","LIN":"15鄰","STREET":"公學路","SECT":"二段","MAREA":" ","LANE":"６３巷","ALLEY":" ","HOUSE_NO":"９號","E_COORD97":167843.82000000001,"N_COORD97":2552422.27,"ADDRESS":"公學路二段６３巷９號","OBJECTID":275199},"geometry":{"x":167843.82000000123,"y":2552422.2699999996}},{"attributes":{"ID":275205,"DIS_CODE":0,"TOWNNAME":"安南區","LI":"長安里","LIN":"15鄰","STREET":"公學路","SECT":"二段","MAREA":" ","LANE":"１２３巷","ALLEY":" ","HOUSE_NO":"１３１號","E_COORD97":167941.20000000001,"N_COORD97":2552495.77,"ADDRESS":"公學路二段１２３巷１３１號","OBJECTID":275200},"geometry":{"x":167941.20000000112,"y":2552495.7700000014}}]}