{"displayFieldName":"TOWNNAME","fieldAliases":{"ID":"ID","DIS_CODE":"DIS_CODE","TOWNNAME":"TOWNNAME","LI":"LI","LIN":"LIN","STREET":"STREET","SECT":"SECT","MAREA":"MAREA","LANE":"LANE","ALLEY":"ALLEY","HOUSE_NO":"HOUSE_NO","E_COORD97":"E_COORD97","N_COORD97":"N_COORD97","ADDRESS":"ADDRESS","OBJECTID":"OBJECTID"},"geometryType":"esriGeometryPoint","spatialReference":{"wkid":102443,"latestWkid":3826},"fields":[{"name":"ID","type":"esriFieldTypeDouble","alias":"ID"},{"name":"DIS_CODE","type":"esriFieldTypeInteger","alias":"DIS_CODE"},{"name":"TOWNNAME","type":"esriFieldTypeString","alias":"TOWNNAME","length":8},{"name":"LI","type":"esriFieldTypeString","alias":"LI","length":8},{"name":"LIN","type":"esriFieldTypeString","alias":"LIN","length":12},{"name":"STREET","type":"esriFieldTypeString","alias":"STREET","length":20},{"name":"SECT","type":"esriFieldTypeString","alias":"SECT","length":8},{"name":"MAREA","type":"esriFieldTypeString","alias":"MAREA","length":12},{"name":"LANE","type":"esriFieldTypeString","alias":"LANE","length":10},{"name":"ALLEY","type":"esriFieldTypeString","alias":"ALLEY","length":10},{"name":"HOUSE_NO","type":"esriFieldTypeString","alias":"HOUSE_NO","length":20},{"name":"E_COORD97","type":"esriFieldTypeDouble","alias":"E_COORD97"},{"name":"N_COORD97","type":"esriFieldTypeDouble","alias":"N_COORD97"},{"name":"ADDRESS","type":"esriFieldTypeString","alias":"ADDRESS","length":50},{"name":"OBJECTID","type":"esriFieldTypeOID","alias":"OBJECTID"}],"features":[{"attributes":{"ID":233005,"DIS_CODE":0,"TOWNNAME":"永康區","LI":"尚頂里","LIN":"2鄰","STREET":"中正二街","SECT":" ","MAREA":" ","LANE":"１６９巷","ALLEY":" ","HOUSE_NO":"３號","E_COORD97":171355.64999999999,"N_COORD97":2547740.7400000002,"ADDRESS":"中正二街１６９巷３號","OBJECTID":233001},"geometry":{"x":171355.65000000224,"y":2547740.7400000002}},{"attributes":{"ID":233006,"DIS_CODE":0,"TOWNNAME":"永康區","LI":"東灣里","LIN":"2鄰","STREET":"大灣路","SECT":" ","MAREA":" ","LANE":"４３６巷","ALLEY":" ","HOUSE_NO":"３５號","E_COORD97":174652.01000000001,"N_COORD97":2544954.5299999998,"ADDRESS":"大灣路４３６巷３５號","OBJECTID":233002},"geometry":{"x":174652.01000000071,"y":2544954.5299999993}},{"attributes":{"ID":233007,"DIS_CODE":0,"TOWNNAME":"永康區","LI":"東灣里","LIN":"2鄰","STREET":"大灣路","SECT":" ","MAREA":" ","LANE":"４３６巷","ALLEY":" ","HOUSE_NO":"４５號","E_COORD97":174631.76999999999,"N_COORD97":2544964.75,"ADDRESS":"大灣路４３６巷４５號","OBJECTID":233003},"geometry":{"x":174631.76999999955,"y":2544964.75}},{"attributes":{"ID":233008,"DIS_CODE":0,"TOWNNAME":"永康區","LI":"尚頂里","LIN":"2鄰","STREET":"中正二街","SECT":" ","MAREA":" ","LANE":"１６９巷","ALLEY":" ","HOUSE_NO":"１１號","E_COORD97":171311.59,"N_COORD97":2547754.3799999999,"ADDRESS":"中正二街１６９巷１１號","OBJECTID":233004},"geometry":{"x":171311.59000000078,"y":2547754.3800000008}},{"attributes":{"ID":233009,"DIS_CODE":0,"TOWNNAME":"永康區","LI":"東灣里","LIN":"2鄰","STREET":"立興街","SECT":" ","MAREA":" ","LANE":"２８巷","ALLEY":" ","HOUSE_NO":"２１號","E_COORD97":174677.20999999999,"N_COORD97":2544931.4900000002,"ADDRESS":"立興街２８巷２１號","OBJECTID":233005},"geometry":{"x":174677.20999999903,"y":2544931.4900000002}},{"attributes":{"ID":233010,"DIS_CODE":0,"TOWNNAME":"安南區","LI":"州北里","LIN":"2鄰","STREET":"安和路","SECT":"五段","MAREA":" ","LANE":"８１巷","ALLEY":" ","HOUSE_NO":"８６號","E_COORD97":169707.94,"N_COORD97":2551610.8300000001,"ADDRESS":"安和路五段８１巷８６號","OBJECTID":233006},"geometry":{"x":169707.94000000134,"y":2551610.8300000019}},{"attributes":{"ID":233011,"DIS_CODE":0,"TOWNNAME":"永康區","LI":"東灣里","LIN":"2鄰","STREET":"大灣路","SECT":" ","MAREA":" ","LANE":"４３６巷","ALLEY":" ","HOUSE_NO":"６１號","E_COORD97":174588.03,"N_COORD97":2544982.8500000001,"ADDRESS":"大灣路４３６巷６１號","OBJECTID":233007},"geometry":{"x":174588.03000000119,"y":2544982.8499999996}},{"attributes":{"ID":233012,"DIS_CODE":0,"TOWNNAME":"中西區","LI":"民權里","LIN":"14鄰","STREET":"神農街","SECT":" ","MAREA":" ","LANE":" ","ALLEY":" ","HOUSE_NO":"１４０號","E_COORD97":167510.12,"N_COORD97":2544305.27,"ADDRESS":"神農街１４０號","OBJECTID":233008},"geometry":{"x":167510.12000000011,"y":2544305.2699999996}},{"attributes":{"ID":233013,"DIS_CODE":0,"TOWNNAME":"中西區","LI":"民權里","LIN":"14鄰","STREET":"神農街","SECT":" ","MAREA":" ","LANE":" ","ALLEY":" ","HOUSE_NO":"１４２號","E_COORD97":167506.73000000001,"N_COORD97":2544306.6800000002,"ADDRESS":"神農街１４２號","OBJECTID":233009},"geometry":{"x":167506.73000000045,"y":2544306.6799999997}},{"attributes":{"ID":233014,"DIS_CODE":0,"TOWNNAME":"永康區","LI":"尚頂里","LIN":"2鄰","STREET":"中正二街","SECT":" ","MAREA":" ","LANE":"１６９巷","ALLEY":" ","HOUSE_NO":"５號","E_COORD97":171349.17999999999,"N_COORD97":2547747.9900000002,"ADDRESS":"中正二街１６９巷５號","OBJECTID":233010},"geometry":{"x":171349.1799999997,"y":2547747.9900000021}},{"attributes":{"ID":233015,"DIS_CODE":0,"TOWNNAME":"永康區","LI":"東橋里","LIN":"2鄰","STREET":"大橋一街","SECT":" ","MAREA":" ","LANE":"３２４巷","ALLEY":" ","HOUSE_NO":"２號","E_COORD97":171312.12,"N_COORD97":2546647.04,"ADDRESS":"大橋一街３２４巷２號","OBJECTID":233011},"geometry":{"x":171312.12000000104,"y":2546647.0399999972}},{"attributes":{"ID":233016,"DIS_CODE":0,"TOWNNAME":"安南區","LI":"鳳凰里","LIN":"2鄰","STREET":"北安路","SECT":"三段","MAREA":" ","LANE":"１４５巷","ALLEY":" ","HOUSE_NO":"６２號","E_COORD97":168164.45000000001,"N_COORD97":2549102.48,"ADDRESS":"北安路三段１４５巷６２號","OBJECTID":233012},"geometry":{"x":168164.45000000019,"y":2549102.4800000004}},{"attributes":{"ID":233017,"DIS_CODE":0,"TOWNNAME":"安南區","LI":"鳳凰里","LIN":"2鄰","STREET":"北安路","SECT":"三段","MAREA":" ","LANE":"１４５巷","ALLEY":" ","HOUSE_NO":"６６號","E_COORD97":168155.29999999999,"N_COORD97":2549109.0800000001,"ADDRESS":"北安路三段１４５巷６６號","OBJECTID":233013},"geometry":{"x":168155.30000000075,"y":2549109.0799999982}},{"attributes":{"ID":233018,"DIS_CODE":0,"TOWNNAME":"安南區","LI":"鳳凰里","LIN":"2鄰","STREET":"北安路","SECT":"三段","MAREA":" ","LANE":"１８１巷","ALLEY":" ","HOUSE_NO":"３９號","E_COORD97":168197.98000000001,"N_COORD97":2549162.3399999999,"ADDRESS":"北安路三段１８１巷３９號","OBJECTID":233014},"geometry":{"x":168197.98000000045,"y":2549162.3400000017}},{"attributes":{"ID":233019,"DIS_CODE":0,"TOWNNAME":"安南區","LI":"鳳凰里","LIN":"2鄰","STREET":"北安路","SECT":"三段","MAREA":" ","LANE":"１８１巷","ALLEY":" ","HOUSE_NO":"４９號","E_COORD97":168158.87,"N_COORD97":2549171.6099999999,"ADDRESS":"北安路三段１８１巷４９號","OBJECTID":233015},"geometry":{"x":168158.87000000104,"y":2549171.6099999994}},{"attributes":{"ID":233020,"DIS_CODE":0,"TOWNNAME":"安南區","LI":"鳳凰里","LIN":"2鄰","STREET":"北安路","SECT":"三段","MAREA":" ","LANE":"１８１巷","ALLEY":" ","HOUSE_NO":"４１號","E_COORD97":168189.85999999999,"N_COORD97":2549164.75,"ADDRESS":"北安路三段１８１巷４１號","OBJECTID":233016},"geometry":{"x":168189.86000000127,"y":2549164.75}},{"attributes":{"ID":233021,"DIS_CODE":0,"TOWNNAME":"安南區","LI":"鳳凰里","LIN":"2鄰","STREET":"北安路","SECT":"三段","MAREA":" ","LANE":"１８１巷","ALLEY":" ","HOUSE_NO":"４３號","E_COORD97":168181.85000000001,"N_COORD97":2549166.7799999998,"ADDRESS":"北安路三段１８１巷４３號","OBJECTID":233017},"geometry":{"x":168181.85000000149,"y":2549166.7799999993}},{"attributes":{"ID":233022,"DIS_CODE":0,"TOWNNAME":"佳里區","LI":"鎮山里","LIN":"2鄰","STREET":"自由街","SECT":" ","MAREA":" ","LANE":"７９巷","ALLEY":" ","HOUSE_NO":"１號","E_COORD97":165855.75,"N_COORD97":2561759.6299999999,"ADDRESS":"自由街７９巷１號","OBJECTID":233018},"geometry":{"x":165855.75000000093,"y":2561759.629999999}},{"attributes":{"ID":233023,"DIS_CODE":0,"TOWNNAME":"佳里區","LI":"鎮山里","LIN":"2鄰","STREET":"自由街","SECT":" ","MAREA":" ","LANE":"７９巷","ALLEY":" ","HOUSE_NO":"２號","E_COORD97":165856.35999999999,"N_COORD97":2561755.6699999999,"ADDRESS":"自由街７９巷２號","OBJECTID":233019},"geometry":{"x":165856.36000000034,"y":2561755.6700000018}},{"attributes":{"ID":233024,"DIS_CODE":0,"TOWNNAME":"佳里區","LI":"鎮山里","LIN":"2鄰","STREET":"自由街","SECT":" ","MAREA":" ","LANE":"７９巷","ALLEY":" ","HOUSE_NO":"３號","E_COORD97":165857.20999999999,"N_COORD97":2561751.7999999998,"ADDRESS":"自由街７９巷３號","OBJECTID":233020},"geometry":{"x":165857.21000000183,"y":2561751.8000000026}},{"attributes":{"ID":233025,"DIS_CODE":0,"TOWNNAME":"佳里區","LI":"鎮山里","LIN":"2鄰","STREET":"自由街","SECT":" ","MAREA":" ","LANE":"７９巷","ALLEY":" ","HOUSE_NO":"４號","E_COORD97":165858.03,"N_COORD97":2561748.0499999998,"ADDRESS":"自由街７９巷４號","OBJECTID":233021},"geometry":{"x":165858.03000000026,"y":2561748.0500000007}},{"attributes":{"ID":233026,"DIS_CODE":0,"TOWNNAME":"佳里區","LI":"鎮山里","LIN":"2鄰","STREET":"自由街","SECT":" ","MAREA":" ","LANE":"７９巷","ALLEY":" ","HOUSE_NO":"５號","E_COORD97":165858.91,"N_COORD97":2561743.9900000002,"ADDRESS":"自由街７９巷５號","OBJECTID":233022},"geometry":{"x":165858.91000000015,"y":2561743.9900000021}},{"attributes":{"ID":233027,"DIS_CODE":0,"TOWNNAME":"佳里區","LI":"鎮山里","LIN":"2鄰","STREET":"自由街","SECT":" ","MAREA":" ","LANE":"７９巷","ALLEY":" ","HOUSE_NO":"６號","E_COORD97":165859.88,"N_COORD97":2561739.9900000002,"ADDRESS":"自由街７９巷６號","OBJECTID":233023},"geometry":{"x":165859.88000000082,"y":2561739.9900000021}},{"attributes":{"ID":233028,"DIS_CODE":0,"TOWNNAME":"佳里區","LI":"鎮山里","LIN":"2鄰","STREET":"自由街","SECT":" ","MAREA":" ","LANE":"７９巷","ALLEY":" ","HOUSE_NO":"７號","E_COORD97":165846.82999999999,"N_COORD97":2561737.5,"ADDRESS":"自由街７９巷７號","OBJECTID":233024},"geometry":{"x":165846.83000000101,"y":2561737.5}},{"attributes":{"ID":233029,"DIS_CODE":0,"TOWNNAME":"佳里區","LI":"鎮山里","LIN":"2鄰","STREET":"自由街","SECT":" ","MAREA":" ","LANE":"７９巷","ALLEY":" ","HOUSE_NO":"８號","E_COORD97":165845.98000000001,"N_COORD97":2561741.1200000001,"ADDRESS":"自由街７９巷８號","OBJECTID":233025},"geometry":{"x":165845.98000000138,"y":2561741.120000001}},{"attributes":{"ID":233030,"DIS_CODE":0,"TOWNNAME":"新營區","LI":"南紙里","LIN":"23鄰","STREET":"南紙街","SECT":" ","MAREA":" ","LANE":"１１７巷","ALLEY":" ","HOUSE_NO":"１６號四樓之２４","E_COORD97":177868.57999999999,"N_COORD97":2577436.7999999998,"ADDRESS":"南紙街１１７巷１６號四樓之２４","OBJECTID":233026},"geometry":{"x":177868.58000000194,"y":2577436.8000000026}},{"attributes":{"ID":233031,"DIS_CODE":0,"TOWNNAME":"新營區","LI":"南紙里","LIN":"23鄰","STREET":"南紙街","SECT":" ","MAREA":" ","LANE":"１１７巷","ALLEY":" ","HOUSE_NO":"１６號四樓之８","E_COORD97":177867.45000000001,"N_COORD97":2577436.7999999998,"ADDRESS":"南紙街１１７巷１６號四樓之８","OBJECTID":233027},"geometry":{"x":177867.45000000019,"y":2577436.8000000026}},{"attributes":{"ID":233032,"DIS_CODE":0,"TOWNNAME":"新營區","LI":"南紙里","LIN":"23鄰","STREET":"南紙街","SECT":" ","MAREA":" ","LANE":"１１７巷","ALLEY":" ","HOUSE_NO":"１６號四樓之１６","E_COORD97":177868.66,"N_COORD97":2577436.7999999998,"ADDRESS":"南紙街１１７巷１６號四樓之１６","OBJECTID":233028},"geometry":{"x":177868.66000000108,"y":2577436.8000000026}},{"attributes":{"ID":233033,"DIS_CODE":0,"TOWNNAME":"安南區","LI":"鳳凰里","LIN":"2鄰","STREET":"北安路","SECT":"三段","MAREA":" ","LANE":"１４５巷","ALLEY":" ","HOUSE_NO":"２０號","E_COORD97":168224.50225200001,"N_COORD97":2549062.1763800001,"ADDRESS":"北安路三段１４５巷２０號","OBJECTID":233029},"geometry":{"x":168224.50225200038,"y":2549062.1763780024}},{"attributes":{"ID":233034,"DIS_CODE":0,"TOWNNAME":"新營區","LI":"南紙里","LIN":"23鄰","STREET":"南紙街","SECT":" ","MAREA":" ","LANE":"１１７巷","ALLEY":" ","HOUSE_NO":"１６號四樓之２０","E_COORD97":177868.60999999999,"N_COORD97":2577436.7999999998,"ADDRESS":"南紙街１１７巷１６號四樓之２０","OBJECTID":233030},"geometry":{"x":177868.6099999994,"y":2577436.8000000026}},{"attributes":{"ID":233035,"DIS_CODE":0,"TOWNNAME":"佳里區","LI":"鎮山里","LIN":"2鄰","STREET":"自由街","SECT":" ","MAREA":" ","LANE":"７９巷","ALLEY":" ","HOUSE_NO":"９號","E_COORD97":165845.37,"N_COORD97":2561745.1699999999,"ADDRESS":"自由街７９巷９號","OBJECTID":233031},"geometry":{"x":165845.37000000011,"y":2561745.1700000018}},{"attributes":{"ID":233036,"DIS_CODE":0,"TOWNNAME":"安南區","LI":"城東里","LIN":"2鄰","STREET":"城北路","SECT":" ","MAREA":" ","LANE":"２３４巷","ALLEY":" ","HOUSE_NO":"１２號之１","E_COORD97":161004.48999999999,"N_COORD97":2551867.7599999998,"ADDRESS":"城北路２３４巷１２號之１","OBJECTID":233032},"geometry":{"x":161004.49000000115,"y":2551867.7600000035}},{"attributes":{"ID":233037,"DIS_CODE":0,"TOWNNAME":"安南區","LI":"安和里","LIN":"2鄰","STREET":"府安路","SECT":"三段","MAREA":" ","LANE":"３１１巷","ALLEY":" ","HOUSE_NO":"３２號","E_COORD97":169747.70000000001,"N_COORD97":2547689.52,"ADDRESS":"府安路三段３１１巷３２號","OBJECTID":233033},"geometry":{"x":169747.70000000019,"y":2547689.5200000014}},{"attributes":{"ID":233038,"DIS_CODE":0,"TOWNNAME":"安南區","LI":"安和里","LIN":"2鄰","STREET":"府安路","SECT":"三段","MAREA":" ","LANE":"３３０巷","ALLEY":" ","HOUSE_NO":"７號","E_COORD97":169748.97,"N_COORD97":2547591.8799999999,"ADDRESS":"府安路三段３３０巷７號","OBJECTID":233034},"geometry":{"x":169748.96999999881,"y":2547591.8800000008}},{"attributes":{"ID":233039,"DIS_CODE":0,"TOWNNAME":"安南區","LI":"海佃里","LIN":"2鄰","STREET":"國安街","SECT":" ","MAREA":" ","LANE":"５６巷","ALLEY":" ","HOUSE_NO":"１號","E_COORD97":166981.20000000001,"N_COORD97":2547037.77,"ADDRESS":"國安街５６巷１號","OBJECTID":233035},"geometry":{"x":166981.20000000019,"y":2547037.7699999996}},{"attributes":{"ID":233040,"DIS_CODE":0,"TOWNNAME":"中西區","LI":"藥王里","LIN":"2鄰","STREET":"大福街","SECT":" ","MAREA":" ","LANE":"３９巷","ALLEY":" ","HOUSE_NO":"１６號","E_COORD97":167286.26000000001,"N_COORD97":2544448.0600000001,"ADDRESS":"大福街３９巷１６號","OBJECTID":233036},"geometry":{"x":167286.26000000071,"y":2544448.0600000042}},{"attributes":{"ID":233041,"DIS_CODE":0,"TOWNNAME":"中西區","LI":"藥王里","LIN":"2鄰","STREET":"大福街","SECT":" ","MAREA":" ","LANE":"３９巷","ALLEY":" ","HOUSE_NO":"１８號","E_COORD97":167282.60000000001,"N_COORD97":2544451.5099999998,"ADDRESS":"大福街３９巷１８號","OBJECTID":233037},"geometry":{"x":167282.59999999963,"y":2544451.5100000016}},{"attributes":{"ID":233042,"DIS_CODE":0,"TOWNNAME":"中西區","LI":"藥王里","LIN":"2鄰","STREET":"大福街","SECT":" ","MAREA":" ","LANE":"３９巷","ALLEY":" ","HOUSE_NO":"２０號","E_COORD97":167278.10999999999,"N_COORD97":2544453.23,"ADDRESS":"大福街３９巷２０號","OBJECTID":233038},"geometry":{"x":167278.11000000034,"y":2544453.2300000004}},{"attributes":{"ID":233043,"DIS_CODE":0,"TOWNNAME":"中西區","LI":"西湖里","LIN":"2鄰","STREET":"頂美二街","SECT":" ","MAREA":" ","LANE":"４８巷","ALLEY":" ","HOUSE_NO":"３８號","E_COORD97":166511.67999999999,"N_COORD97":2544556.9700000002,"ADDRESS":"頂美二街４８巷３８號","OBJECTID":233039},"geometry":{"x":166511.68000000063,"y":2544556.9700000007}},{"attributes":{"ID":233044,"DIS_CODE":0,"TOWNNAME":"中西區","LI":"西湖里","LIN":"2鄰","STREET":"頂美二街","SECT":" ","MAREA":" ","LANE":"４８巷","ALLEY":" ","HOUSE_NO":"４７號","E_COORD97":166513.66,"N_COORD97":2544579.2599999998,"ADDRESS":"頂美二街４８巷４７號","OBJECTID":233040},"geometry":{"x":166513.65999999922,"y":2544579.2600000016}},{"attributes":{"ID":233045,"DIS_CODE":0,"TOWNNAME":"中西區","LI":"西賢里","LIN":"2鄰","STREET":"湖美街","SECT":" ","MAREA":" ","LANE":"１０１巷","ALLEY":" ","HOUSE_NO":"９號","E_COORD97":165894.88,"N_COORD97":2544693.29,"ADDRESS":"湖美街１０１巷９號","OBJECTID":233041},"geometry":{"x":165894.87999999896,"y":2544693.290000001}},{"attributes":{"ID":233046,"DIS_CODE":0,"TOWNNAME":"安南區","LI":"淵中里","LIN":"2鄰","STREET":"本淵路","SECT":" ","MAREA":" ","LANE":"２０巷","ALLEY":" ","HOUSE_NO":"１號","E_COORD97":165351.94,"N_COORD97":2549975.6600000001,"ADDRESS":"本淵路２０巷１號","OBJECTID":233042},"geometry":{"x":165351.94000000041,"y":2549975.6600000001}},{"attributes":{"ID":233047,"DIS_CODE":0,"TOWNNAME":"中西區","LI":"民權里","LIN":"14鄰","STREET":"神農街","SECT":" ","MAREA":" ","LANE":" ","ALLEY":" ","HOUSE_NO":"１４４號","E_COORD97":167502.28,"N_COORD97":2544308.2999999998,"ADDRESS":"神農街１４４號","OBJECTID":233043},"geometry":{"x":167502.28000000026,"y":2544308.3000000026}},{"attributes":{"ID":233048,"DIS_CODE":0,"TOWNNAME":"中西區","LI":"民權里","LIN":"14鄰","STREET":"神農街","SECT":" ","MAREA":" ","LANE":" ","ALLEY":" ","HOUSE_NO":"１４６號","E_COORD97":167497.69,"N_COORD97":2544310.1299999999,"ADDRESS":"神農街１４６號","OBJECTID":233044},"geometry":{"x":167497.69000000134,"y":2544310.129999999}},{"attributes":{"ID":233049,"DIS_CODE":0,"TOWNNAME":"中西區","LI":"民權里","LIN":"14鄰","STREET":"神農街","SECT":" ","MAREA":" ","LANE":" ","ALLEY":" ","HOUSE_NO":"１５０號","E_COORD97":167486.48000000001,"N_COORD97":2544311.9900000002,"ADDRESS":"神農街１５０號","OBJECTID":233045},"geometry":{"x":167486.48000000045,"y":2544311.9900000002}},{"attributes":{"ID":233050,"DIS_CODE":0,"TOWNNAME":"中西區","LI":"民權里","LIN":"14鄰","STREET":"忠孝街","SECT":" ","MAREA":" ","LANE":" ","ALLEY":" ","HOUSE_NO":"１１號","E_COORD97":167573.76000000001,"N_COORD97":2544299.9199999999,"ADDRESS":"忠孝街１１號","OBJECTID":233046},"geometry":{"x":167573.75999999978,"y":2544299.9200000018}},{"attributes":{"ID":233051,"DIS_CODE":0,"TOWNNAME":"中西區","LI":"民權里","LIN":"14鄰","STREET":"忠孝街","SECT":" ","MAREA":" ","LANE":" ","ALLEY":" ","HOUSE_NO":"１３號","E_COORD97":167574.95999999999,"N_COORD97":2544302.7400000002,"ADDRESS":"忠孝街１３號","OBJECTID":233047},"geometry":{"x":167574.96000000089,"y":2544302.7400000002}},{"attributes":{"ID":233052,"DIS_CODE":0,"TOWNNAME":"中西區","LI":"民權里","LIN":"14鄰","STREET":"忠孝街","SECT":" ","MAREA":" ","LANE":" ","ALLEY":" ","HOUSE_NO":"１５號","E_COORD97":167576.57999999999,"N_COORD97":2544305.2799999998,"ADDRESS":"忠孝街１５號","OBJECTID":233048},"geometry":{"x":167576.58000000007,"y":2544305.2799999993}},{"attributes":{"ID":233053,"DIS_CODE":0,"TOWNNAME":"新營區","LI":"南紙里","LIN":"23鄰","STREET":"南紙街","SECT":" ","MAREA":" ","LANE":"１１７巷","ALLEY":" ","HOUSE_NO":"１６號三樓之１９","E_COORD97":177868.64000000001,"N_COORD97":2577436.7999999998,"ADDRESS":"南紙街１１７巷１６號三樓之１９","OBJECTID":233049},"geometry":{"x":177868.6400000006,"y":2577436.8000000026}},{"attributes":{"ID":233054,"DIS_CODE":0,"TOWNNAME":"新營區","LI":"南紙里","LIN":"23鄰","STREET":"南紙街","SECT":" ","MAREA":" ","LANE":"１１７巷","ALLEY":" ","HOUSE_NO":"１６號三樓之１０","E_COORD97":177868.60999999999,"N_COORD97":2577436.7999999998,"ADDRESS":"南紙街１１７巷１６號三樓之１０","OBJECTID":233050},"geometry":{"x":177868.6099999994,"y":2577436.8000000026}},{"attributes":{"ID":233055,"DIS_CODE":0,"TOWNNAME":"新營區","LI":"南紙里","LIN":"23鄰","STREET":"南紙街","SECT":" ","MAREA":" ","LANE":"１１７巷","ALLEY":" ","HOUSE_NO":"１６號三樓之２０","E_COORD97":177868.60999999999,"N_COORD97":2577436.7999999998,"ADDRESS":"南紙街１１７巷１６號三樓之２０","OBJECTID":233051},"geometry":{"x":177868.6099999994,"y":2577436.8000000026}},{"attributes":{"ID":233056,"DIS_CODE":0,"TOWNNAME":"新營區","LI":"南紙里","LIN":"23鄰","STREET":"南紙街","SECT":" ","MAREA":" ","LANE":"１１７巷","ALLEY":" ","HOUSE_NO":"１６號二樓之６","E_COORD97":177867.41,"N_COORD97":2577436.7999999998,"ADDRESS":"南紙街１１７巷１６號二樓之６","OBJECTID":233052},"geometry":{"x":177867.41000000015,"y":2577436.8000000026}},{"attributes":{"ID":233057,"DIS_CODE":0,"TOWNNAME":"新營區","LI":"南紙里","LIN":"23鄰","STREET":"南紙街","SECT":" ","MAREA":" ","LANE":"１１７巷","ALLEY":" ","HOUSE_NO":"１６號三樓之１３","E_COORD97":177868.64999999999,"N_COORD97":2577436.7999999998,"ADDRESS":"南紙街１１７巷１６號三樓之１３","OBJECTID":233053},"geometry":{"x":177868.6500000013,"y":2577436.8000000026}},{"attributes":{"ID":233058,"DIS_CODE":0,"TOWNNAME":"新營區","LI":"南紙里","LIN":"23鄰","STREET":"南紙街","SECT":" ","MAREA":" ","LANE":"１１７巷","ALLEY":" ","HOUSE_NO":"１６號二樓之３","E_COORD97":177867.39999999999,"N_COORD97":2577436.7999999998,"ADDRESS":"南紙街１１７巷１６號二樓之３","OBJECTID":233054},"geometry":{"x":177867.4000000013,"y":2577436.8000000026}},{"attributes":{"ID":233059,"DIS_CODE":0,"TOWNNAME":"新營區","LI":"南紙里","LIN":"23鄰","STREET":"南紙街","SECT":" ","MAREA":" ","LANE":"１１７巷","ALLEY":" ","HOUSE_NO":"１６號二樓之２","E_COORD97":177867.44,"N_COORD97":2577436.7999999998,"ADDRESS":"南紙街１１７巷１６號二樓之２","OBJECTID":233055},"geometry":{"x":177867.44000000041,"y":2577436.8000000026}},{"attributes":{"ID":233060,"DIS_CODE":0,"TOWNNAME":"新營區","LI":"南紙里","LIN":"23鄰","STREET":"南紙街","SECT":" ","MAREA":" ","LANE":"１１７巷","ALLEY":" ","HOUSE_NO":"１６號七樓之２３","E_COORD97":177868.64999999999,"N_COORD97":2577436.7999999998,"ADDRESS":"南紙街１１７巷１６號七樓之２３","OBJECTID":233056},"geometry":{"x":177868.6500000013,"y":2577436.8000000026}},{"attributes":{"ID":233061,"DIS_CODE":0,"TOWNNAME":"新營區","LI":"南紙里","LIN":"23鄰","STREET":"南紙街","SECT":" ","MAREA":" ","LANE":"１１７巷","ALLEY":" ","HOUSE_NO":"１６號四樓之１５","E_COORD97":177868.70999999999,"N_COORD97":2577436.7999999998,"ADDRESS":"南紙街１１７巷１６號四樓之１５","OBJECTID":233057},"geometry":{"x":177868.70999999996,"y":2577436.8000000026}},{"attributes":{"ID":233062,"DIS_CODE":0,"TOWNNAME":"新營區","LI":"南紙里","LIN":"23鄰","STREET":"南紙街","SECT":" ","MAREA":" ","LANE":"１１７巷","ALLEY":" ","HOUSE_NO":"１６號七樓之１１","E_COORD97":177868.56,"N_COORD97":2577436.7999999998,"ADDRESS":"南紙街１１７巷１６號七樓之１１","OBJECTID":233058},"geometry":{"x":177868.56000000052,"y":2577436.8000000026}},{"attributes":{"ID":233063,"DIS_CODE":0,"TOWNNAME":"新營區","LI":"南紙里","LIN":"23鄰","STREET":"南紙街","SECT":" ","MAREA":" ","LANE":"１１７巷","ALLEY":" ","HOUSE_NO":"１６號四樓之９","E_COORD97":177867.39000000001,"N_COORD97":2577436.7999999998,"ADDRESS":"南紙街１１７巷１６號四樓之９","OBJECTID":233059},"geometry":{"x":177867.38999999966,"y":2577436.8000000026}},{"attributes":{"ID":233064,"DIS_CODE":0,"TOWNNAME":"永康區","LI":"永康里","LIN":"2鄰","STREET":"中山北路","SECT":" ","MAREA":" ","LANE":"３５巷","ALLEY":" ","HOUSE_NO":"４號","E_COORD97":173953.64999999999,"N_COORD97":2547419.9900000002,"ADDRESS":"中山北路３５巷４號","OBJECTID":233060},"geometry":{"x":173953.65000000037,"y":2547419.9900000021}},{"attributes":{"ID":233065,"DIS_CODE":0,"TOWNNAME":"中西區","LI":"民權里","LIN":"14鄰","STREET":"忠孝街","SECT":" ","MAREA":" ","LANE":" ","ALLEY":" ","HOUSE_NO":"１９號","E_COORD97":167581.35000000001,"N_COORD97":2544312.9300000002,"ADDRESS":"忠孝街１９號","OBJECTID":233061},"geometry":{"x":167581.34999999963,"y":2544312.9300000016}},{"attributes":{"ID":233066,"DIS_CODE":0,"TOWNNAME":"中西區","LI":"民權里","LIN":"14鄰","STREET":"忠孝街","SECT":" ","MAREA":" ","LANE":" ","ALLEY":" ","HOUSE_NO":"２１號","E_COORD97":167582.54999999999,"N_COORD97":2544317.1600000001,"ADDRESS":"忠孝街２１號","OBJECTID":233062},"geometry":{"x":167582.55000000075,"y":2544317.1600000001}},{"attributes":{"ID":233067,"DIS_CODE":0,"TOWNNAME":"中西區","LI":"民權里","LIN":"14鄰","STREET":"民族路","SECT":"三段","MAREA":" ","LANE":" ","ALLEY":" ","HOUSE_NO":"１１９號","E_COORD97":167610.81,"N_COORD97":2544356.5800000001,"ADDRESS":"民族路三段１１９號","OBJECTID":233063},"geometry":{"x":167610.81000000052,"y":2544356.5800000019}},{"attributes":{"ID":233068,"DIS_CODE":0,"TOWNNAME":"中西區","LI":"民權里","LIN":"14鄰","STREET":"民族路","SECT":"三段","MAREA":" ","LANE":" ","ALLEY":" ","HOUSE_NO":"１２１號","E_COORD97":167604.81,"N_COORD97":2544357.0099999998,"ADDRESS":"民族路三段１２１號","OBJECTID":233064},"geometry":{"x":167604.80999999959,"y":2544357.0100000016}},{"attributes":{"ID":233069,"DIS_CODE":0,"TOWNNAME":"中西區","LI":"民權里","LIN":"14鄰","STREET":"民族路","SECT":"三段","MAREA":" ","LANE":" ","ALLEY":" ","HOUSE_NO":"１２３號","E_COORD97":167599.79999999999,"N_COORD97":2544354.3999999999,"ADDRESS":"民族路三段１２３號","OBJECTID":233065},"geometry":{"x":167599.80000000075,"y":2544354.4000000041}},{"attributes":{"ID":233070,"DIS_CODE":0,"TOWNNAME":"中西區","LI":"民權里","LIN":"14鄰","STREET":"民族路","SECT":"三段","MAREA":" ","LANE":" ","ALLEY":" ","HOUSE_NO":"１２５號","E_COORD97":167597.75,"N_COORD97":2544359.9700000002,"ADDRESS":"民族路三段１２５號","OBJECTID":233066},"geometry":{"x":167597.75,"y":2544359.9700000007}},{"attributes":{"ID":233071,"DIS_CODE":0,"TOWNNAME":"中西區","LI":"民權里","LIN":"14鄰","STREET":"民族路","SECT":"三段","MAREA":" ","LANE":" ","ALLEY":" ","HOUSE_NO":"１２７號","E_COORD97":167590.62,"N_COORD97":2544357.6200000001,"ADDRESS":"民族路三段１２７號","OBJECTID":233067},"geometry":{"x":167590.62000000104,"y":2544357.6200000029}},{"attributes":{"ID":233072,"DIS_CODE":0,"TOWNNAME":"中西區","LI":"民權里","LIN":"14鄰","STREET":"民族路","SECT":"三段","MAREA":" ","LANE":" ","ALLEY":" ","HOUSE_NO":"１２９號","E_COORD97":167589.42000000001,"N_COORD97":2544362.8399999999,"ADDRESS":"民族路三段１２９號","OBJECTID":233068},"geometry":{"x":167589.41999999993,"y":2544362.8399999999}},{"attributes":{"ID":233073,"DIS_CODE":0,"TOWNNAME":"中西區","LI":"民權里","LIN":"14鄰","STREET":"民族路","SECT":"三段","MAREA":" ","LANE":" ","ALLEY":" ","HOUSE_NO":"１３１號","E_COORD97":167587.09,"N_COORD97":2544363.8199999998,"ADDRESS":"民族路三段１３１號","OBJECTID":233069},"geometry":{"x":167587.09000000171,"y":2544363.8200000003}},{"attributes":{"ID":233074,"DIS_CODE":0,"TOWNNAME":"中西區","LI":"民權里","LIN":"14鄰","STREET":"民族路","SECT":"三段","MAREA":" ","LANE":" ","ALLEY":" ","HOUSE_NO":"１３３號","E_COORD97":167579.95999999999,"N_COORD97":2544366.79,"ADDRESS":"民族路三段１３３號","OBJECTID":233070},"geometry":{"x":167579.96000000089,"y":2544366.7899999991}},{"attributes":{"ID":233075,"DIS_CODE":0,"TOWNNAME":"中西區","LI":"民權里","LIN":"14鄰","STREET":"民族路","SECT":"三段","MAREA":" ","LANE":" ","ALLEY":" ","HOUSE_NO":"１３７號","E_COORD97":167574.10000000001,"N_COORD97":2544370.73,"ADDRESS":"民族路三段１３７號","OBJECTID":233071},"geometry":{"x":167574.09999999963,"y":2544370.7300000004}},{"attributes":{"ID":233076,"DIS_CODE":0,"TOWNNAME":"中西區","LI":"民權里","LIN":"14鄰","STREET":"民族路","SECT":"三段","MAREA":" ","LANE":" ","ALLEY":" ","HOUSE_NO":"１３９號","E_COORD97":167570.85000000001,"N_COORD97":2544371.7200000002,"ADDRESS":"民族路三段１３９號","OBJECTID":233072},"geometry":{"x":167570.84999999963,"y":2544371.7200000007}},{"attributes":{"ID":233077,"DIS_CODE":0,"TOWNNAME":"永康區","LI":"正強里","LIN":"2鄰","STREET":"中正路","SECT":" ","MAREA":" ","LANE":"１巷","ALLEY":" ","HOUSE_NO":"３１號","E_COORD97":173681.98000000001,"N_COORD97":2547606.5600000001,"ADDRESS":"中正路１巷３１號","OBJECTID":233073},"geometry":{"x":173681.98000000045,"y":2547606.5600000005}},{"attributes":{"ID":233078,"DIS_CODE":0,"TOWNNAME":"永康區","LI":"正強里","LIN":"2鄰","STREET":"中正路","SECT":" ","MAREA":" ","LANE":"１５巷","ALLEY":" ","HOUSE_NO":"３號","E_COORD97":173682.10999999999,"N_COORD97":2547697,"ADDRESS":"中正路１５巷３號","OBJECTID":233074},"geometry":{"x":173682.11000000127,"y":2547697.0000000019}},{"attributes":{"ID":233079,"DIS_CODE":0,"TOWNNAME":"永康區","LI":"正強里","LIN":"2鄰","STREET":"中正路","SECT":" ","MAREA":" ","LANE":"１５巷","ALLEY":" ","HOUSE_NO":"７號","E_COORD97":173675.81,"N_COORD97":2547692.5,"ADDRESS":"中正路１５巷７號","OBJECTID":233075},"geometry":{"x":173675.80999999959,"y":2547692.4999999981}},{"attributes":{"ID":233080,"DIS_CODE":0,"TOWNNAME":"新營區","LI":"南紙里","LIN":"2鄰","STREET":"太子路","SECT":" ","MAREA":" ","LANE":"１３９巷","ALLEY":" ","HOUSE_NO":"６８號五樓","E_COORD97":177995.51999999999,"N_COORD97":2577695.9900000002,"ADDRESS":"太子路１３９巷６８號五樓","OBJECTID":233076},"geometry":{"x":177995.51999999862,"y":2577695.9900000021}},{"attributes":{"ID":233081,"DIS_CODE":0,"TOWNNAME":"安南區","LI":"國安里","LIN":"13鄰","STREET":"國安街","SECT":" ","MAREA":" ","LANE":"２１０巷","ALLEY":" ","HOUSE_NO":"１５３號","E_COORD97":166520.22,"N_COORD97":2547338.3100000001,"ADDRESS":"國安街２１０巷１５３號","OBJECTID":233077},"geometry":{"x":166520.22000000067,"y":2547338.3099999987}},{"attributes":{"ID":233082,"DIS_CODE":0,"TOWNNAME":"中西區","LI":"元安里","LIN":"2鄰","STREET":"西門路","SECT":"一段","MAREA":" ","LANE":"７０３巷","ALLEY":" ","HOUSE_NO":"２１號三樓之１","E_COORD97":167586.39999999999,"N_COORD97":2543242.0699999998,"ADDRESS":"西門路一段７０３巷２１號三樓之１","OBJECTID":233078},"geometry":{"x":167586.40000000037,"y":2543242.0700000022}},{"attributes":{"ID":233083,"DIS_CODE":0,"TOWNNAME":"東區","LI":"關聖里","LIN":"2鄰","STREET":"裕農路","SECT":" ","MAREA":" ","LANE":"６６８巷","ALLEY":" ","HOUSE_NO":"６４號二樓","E_COORD97":171714.23000000001,"N_COORD97":2542921.7200000002,"ADDRESS":"裕農路６６８巷６４號二樓","OBJECTID":233079},"geometry":{"x":171714.23000000045,"y":2542921.7200000044}},{"attributes":{"ID":233084,"DIS_CODE":0,"TOWNNAME":"東區","LI":"關聖里","LIN":"2鄰","STREET":"裕農路","SECT":" ","MAREA":" ","LANE":"６６８巷","ALLEY":" ","HOUSE_NO":"６４號三樓","E_COORD97":171714.23000000001,"N_COORD97":2542921.7200000002,"ADDRESS":"裕農路６６８巷６４號三樓","OBJECTID":233080},"geometry":{"x":171714.23000000045,"y":2542921.7200000044}},{"attributes":{"ID":233085,"DIS_CODE":0,"TOWNNAME":"東區","LI":"關聖里","LIN":"2鄰","STREET":"裕農路","SECT":" ","MAREA":" ","LANE":"６６８巷","ALLEY":" ","HOUSE_NO":"６４號四樓","E_COORD97":171714.23000000001,"N_COORD97":2542921.7200000002,"ADDRESS":"裕農路６６８巷６４號四樓","OBJECTID":233081},"geometry":{"x":171714.23000000045,"y":2542921.7200000044}},{"attributes":{"ID":233086,"DIS_CODE":0,"TOWNNAME":"東區","LI":"關聖里","LIN":"2鄰","STREET":"裕農路","SECT":" ","MAREA":" ","LANE":"６６８巷","ALLEY":" ","HOUSE_NO":"６４號五樓","E_COORD97":171714.23000000001,"N_COORD97":2542921.7200000002,"ADDRESS":"裕農路６６８巷６４號五樓","OBJECTID":233082},"geometry":{"x":171714.23000000045,"y":2542921.7200000044}},{"attributes":{"ID":233087,"DIS_CODE":0,"TOWNNAME":"東區","LI":"關聖里","LIN":"2鄰","STREET":"裕農路","SECT":" ","MAREA":" ","LANE":"６６８巷","ALLEY":" ","HOUSE_NO":"６４號之１三樓","E_COORD97":171711.42999999999,"N_COORD97":2542916.8199999998,"ADDRESS":"裕農路６６８巷６４號之１三樓","OBJECTID":233083},"geometry":{"x":171711.43000000063,"y":2542916.8200000003}},{"attributes":{"ID":233088,"DIS_CODE":0,"TOWNNAME":"東區","LI":"關聖里","LIN":"2鄰","STREET":"裕農路","SECT":" ","MAREA":" ","LANE":"６６８巷","ALLEY":" ","HOUSE_NO":"６４號之１四樓","E_COORD97":171711.42999999999,"N_COORD97":2542916.8199999998,"ADDRESS":"裕農路６６８巷６４號之１四樓","OBJECTID":233084},"geometry":{"x":171711.43000000063,"y":2542916.8200000003}},{"attributes":{"ID":233089,"DIS_CODE":0,"TOWNNAME":"東區","LI":"關聖里","LIN":"2鄰","STREET":"裕農路","SECT":" ","MAREA":" ","LANE":"６６８巷","ALLEY":" ","HOUSE_NO":"６４號之１五樓","E_COORD97":171711.42999999999,"N_COORD97":2542916.8199999998,"ADDRESS":"裕農路６６８巷６４號之１五樓","OBJECTID":233085},"geometry":{"x":171711.43000000063,"y":2542916.8200000003}},{"attributes":{"ID":233090,"DIS_CODE":0,"TOWNNAME":"東區","LI":"關聖里","LIN":"2鄰","STREET":"裕農路","SECT":" ","MAREA":" ","LANE":"６６８巷","ALLEY":" ","HOUSE_NO":"６４號之２二樓","E_COORD97":171718.32000000001,"N_COORD97":2542917.3999999999,"ADDRESS":"裕農路６６８巷６４號之２二樓","OBJECTID":233086},"geometry":{"x":171718.3200000003,"y":2542917.4000000022}},{"attributes":{"ID":233091,"DIS_CODE":0,"TOWNNAME":"東區","LI":"關聖里","LIN":"2鄰","STREET":"裕農路","SECT":" ","MAREA":" ","LANE":"６６８巷","ALLEY":" ","HOUSE_NO":"６４號之２三樓","E_COORD97":171718.32000000001,"N_COORD97":2542917.3999999999,"ADDRESS":"裕農路６６８巷６４號之２三樓","OBJECTID":233087},"geometry":{"x":171718.3200000003,"y":2542917.4000000022}},{"attributes":{"ID":233092,"DIS_CODE":0,"TOWNNAME":"將軍區","LI":"西和里","LIN":"23鄰","STREET":" ","SECT":" ","MAREA":"西湖","LANE":" ","ALLEY":" ","HOUSE_NO":"７２號","E_COORD97":162253.72,"N_COORD97":2566206.1200000001,"ADDRESS":"西湖７２號","OBJECTID":233088},"geometry":{"x":162253.72000000067,"y":2566206.120000001}},{"attributes":{"ID":233093,"DIS_CODE":0,"TOWNNAME":"將軍區","LI":"西和里","LIN":"23鄰","STREET":" ","SECT":" ","MAREA":"西湖","LANE":" ","ALLEY":" ","HOUSE_NO":"７３號","E_COORD97":162285.42000000001,"N_COORD97":2566129.27,"ADDRESS":"西湖７３號","OBJECTID":233089},"geometry":{"x":162285.41999999993,"y":2566129.2699999996}},{"attributes":{"ID":233094,"DIS_CODE":0,"TOWNNAME":"將軍區","LI":"西和里","LIN":"23鄰","STREET":" ","SECT":" ","MAREA":"西湖","LANE":" ","ALLEY":" ","HOUSE_NO":"７５號","E_COORD97":162265.82999999999,"N_COORD97":2566107.6400000001,"ADDRESS":"西湖７５號","OBJECTID":233090},"geometry":{"x":162265.83000000007,"y":2566107.6400000006}},{"attributes":{"ID":233095,"DIS_CODE":0,"TOWNNAME":"將軍區","LI":"西和里","LIN":"23鄰","STREET":" ","SECT":" ","MAREA":"西湖","LANE":" ","ALLEY":" ","HOUSE_NO":"７６號","E_COORD97":162224.39999999999,"N_COORD97":2566130.4700000002,"ADDRESS":"西湖７６號","OBJECTID":233091},"geometry":{"x":162224.4000000013,"y":2566130.4700000044}},{"attributes":{"ID":233096,"DIS_CODE":0,"TOWNNAME":"將軍區","LI":"西和里","LIN":"23鄰","STREET":" ","SECT":" ","MAREA":"西湖","LANE":" ","ALLEY":" ","HOUSE_NO":"７９之２號","E_COORD97":162207.28,"N_COORD97":2566138.1499999999,"ADDRESS":"西湖７９之２號","OBJECTID":233092},"geometry":{"x":162207.28000000212,"y":2566138.1500000004}},{"attributes":{"ID":233097,"DIS_CODE":0,"TOWNNAME":"將軍區","LI":"西和里","LIN":"23鄰","STREET":" ","SECT":" ","MAREA":"西湖","LANE":" ","ALLEY":" ","HOUSE_NO":"７９號","E_COORD97":162198.23999999999,"N_COORD97":2566139.6600000001,"ADDRESS":"西湖７９號","OBJECTID":233093},"geometry":{"x":162198.24000000022,"y":2566139.660000002}},{"attributes":{"ID":233098,"DIS_CODE":0,"TOWNNAME":"將軍區","LI":"西和里","LIN":"23鄰","STREET":" ","SECT":" ","MAREA":"西湖","LANE":" ","ALLEY":" ","HOUSE_NO":"８０之１號","E_COORD97":162238.73999999999,"N_COORD97":2566187.04,"ADDRESS":"西湖８０之１號","OBJECTID":233094},"geometry":{"x":162238.74000000115,"y":2566187.040000001}},{"attributes":{"ID":233099,"DIS_CODE":0,"TOWNNAME":"將軍區","LI":"仁和里","LIN":"23鄰","STREET":" ","SECT":" ","MAREA":"和巷","LANE":" ","ALLEY":" ","HOUSE_NO":"１０４之２號","E_COORD97":163632.06,"N_COORD97":2569225.5699999998,"ADDRESS":"和巷１０４之２號","OBJECTID":233095},"geometry":{"x":163632.06000000145,"y":2569225.5700000022}},{"attributes":{"ID":233100,"DIS_CODE":0,"TOWNNAME":"將軍區","LI":"仁和里","LIN":"23鄰","STREET":" ","SECT":" ","MAREA":"和巷","LANE":" ","ALLEY":" ","HOUSE_NO":"１０４之３號","E_COORD97":163634.73000000001,"N_COORD97":2569208.4300000002,"ADDRESS":"和巷１０４之３號","OBJECTID":233096},"geometry":{"x":163634.73000000045,"y":2569208.4300000016}},{"attributes":{"ID":233101,"DIS_CODE":0,"TOWNNAME":"將軍區","LI":"仁和里","LIN":"23鄰","STREET":" ","SECT":" ","MAREA":"和巷","LANE":" ","ALLEY":" ","HOUSE_NO":"１０４之４號","E_COORD97":163740.22,"N_COORD97":2569219.48,"ADDRESS":"和巷１０４之４號","OBJECTID":233097},"geometry":{"x":163740.22000000067,"y":2569219.4800000023}},{"attributes":{"ID":233102,"DIS_CODE":0,"TOWNNAME":"將軍區","LI":"仁和里","LIN":"23鄰","STREET":" ","SECT":" ","MAREA":"和巷","LANE":" ","ALLEY":" ","HOUSE_NO":"１０４之５號","E_COORD97":163629.01999999999,"N_COORD97":2569188.1499999999,"ADDRESS":"和巷１０４之５號","OBJECTID":233098},"geometry":{"x":163629.02000000142,"y":2569188.1500000022}},{"attributes":{"ID":233103,"DIS_CODE":0,"TOWNNAME":"將軍區","LI":"仁和里","LIN":"23鄰","STREET":" ","SECT":" ","MAREA":"和巷","LANE":" ","ALLEY":" ","HOUSE_NO":"１０４之６號","E_COORD97":163710.37,"N_COORD97":2569218.5,"ADDRESS":"和巷１０４之６號","OBJECTID":233099},"geometry":{"x":163710.37000000104,"y":2569218.5000000019}},{"attributes":{"ID":233104,"DIS_CODE":0,"TOWNNAME":"將軍區","LI":"仁和里","LIN":"23鄰","STREET":" ","SECT":" ","MAREA":"和巷","LANE":" ","ALLEY":" ","HOUSE_NO":"１０４之７號","E_COORD97":163609.60999999999,"N_COORD97":2569226.6899999999,"ADDRESS":"和巷１０４之７號","OBJECTID":233100},"geometry":{"x":163609.61000000127,"y":2569226.6900000032}},{"attributes":{"ID":233105,"DIS_CODE":0,"TOWNNAME":"將軍區","LI":"仁和里","LIN":"23鄰","STREET":" ","SECT":" ","MAREA":"和巷","LANE":" ","ALLEY":" ","HOUSE_NO":"１０４之８號","E_COORD97":163673.03,"N_COORD97":2569226.77,"ADDRESS":"和巷１０４之８號","OBJECTID":233101},"geometry":{"x":163673.03000000026,"y":2569226.7700000014}},{"attributes":{"ID":233106,"DIS_CODE":0,"TOWNNAME":"將軍區","LI":"仁和里","LIN":"23鄰","STREET":" ","SECT":" ","MAREA":"和巷","LANE":" ","ALLEY":" ","HOUSE_NO":"１１９號","E_COORD97":163826.26000000001,"N_COORD97":2569052.3300000001,"ADDRESS":"和巷１１９號","OBJECTID":233102},"geometry":{"x":163826.26000000071,"y":2569052.3300000001}},{"attributes":{"ID":233107,"DIS_CODE":0,"TOWNNAME":"將軍區","LI":"仁和里","LIN":"23鄰","STREET":" ","SECT":" ","MAREA":"和巷","LANE":" ","ALLEY":" ","HOUSE_NO":"１２０號","E_COORD97":163843.39000000001,"N_COORD97":2568768.29,"ADDRESS":"和巷１２０號","OBJECTID":233103},"geometry":{"x":163843.38999999873,"y":2568768.290000001}},{"attributes":{"ID":233108,"DIS_CODE":0,"TOWNNAME":"將軍區","LI":"仁和里","LIN":"23鄰","STREET":" ","SECT":" ","MAREA":"和巷","LANE":" ","ALLEY":" ","HOUSE_NO":"１２５號","E_COORD97":163735.14000000001,"N_COORD97":2568764.6899999999,"ADDRESS":"和巷１２５號","OBJECTID":233104},"geometry":{"x":163735.14000000153,"y":2568764.6899999995}},{"attributes":{"ID":233109,"DIS_CODE":0,"TOWNNAME":"永康區","LI":"網寮里","LIN":"23鄰","STREET":"永春街","SECT":" ","MAREA":" ","LANE":"２０巷","ALLEY":" ","HOUSE_NO":"１８號","E_COORD97":173818.10999999999,"N_COORD97":2546296.3799999999,"ADDRESS":"永春街２０巷１８號","OBJECTID":233105},"geometry":{"x":173818.11000000034,"y":2546296.3800000008}},{"attributes":{"ID":233110,"DIS_CODE":0,"TOWNNAME":"將軍區","LI":"仁和里","LIN":"23鄰","STREET":" ","SECT":" ","MAREA":"和巷","LANE":" ","ALLEY":" ","HOUSE_NO":"１２６之３號","E_COORD97":163701.45999999999,"N_COORD97":2568771.0499999998,"ADDRESS":"和巷１２６之３號","OBJECTID":233106},"geometry":{"x":163701.46000000089,"y":2568771.0500000045}},{"attributes":{"ID":233111,"DIS_CODE":0,"TOWNNAME":"將軍區","LI":"仁和里","LIN":"23鄰","STREET":" ","SECT":" ","MAREA":"和巷","LANE":" ","ALLEY":" ","HOUSE_NO":"１２６號","E_COORD97":163721.84,"N_COORD97":2568769.52,"ADDRESS":"和巷１２６號","OBJECTID":233107},"geometry":{"x":163721.83999999985,"y":2568769.5199999996}},{"attributes":{"ID":233112,"DIS_CODE":0,"TOWNNAME":"將軍區","LI":"仁和里","LIN":"23鄰","STREET":" ","SECT":" ","MAREA":"和巷","LANE":" ","ALLEY":" ","HOUSE_NO":"１３０號","E_COORD97":163535.09,"N_COORD97":2568819.6699999999,"ADDRESS":"和巷１３０號","OBJECTID":233108},"geometry":{"x":163535.08999999985,"y":2568819.6699999999}},{"attributes":{"ID":233113,"DIS_CODE":0,"TOWNNAME":"永康區","LI":"復華里","LIN":"23鄰","STREET":"國華街","SECT":" ","MAREA":" ","LANE":"９９巷","ALLEY":" ","HOUSE_NO":"１號","E_COORD97":172715.56,"N_COORD97":2546115.25,"ADDRESS":"國華街９９巷１號","OBJECTID":233109},"geometry":{"x":172715.56000000052,"y":2546115.2500000019}},{"attributes":{"ID":233114,"DIS_CODE":0,"TOWNNAME":"永康區","LI":"復國里","LIN":"23鄰","STREET":"復國一路","SECT":" ","MAREA":" ","LANE":"３２９巷","ALLEY":" ","HOUSE_NO":"６號","E_COORD97":172723.22,"N_COORD97":2545676.77,"ADDRESS":"復國一路３２９巷６號","OBJECTID":233110},"geometry":{"x":172723.22000000067,"y":2545676.7700000014}},{"attributes":{"ID":233115,"DIS_CODE":0,"TOWNNAME":"永康區","LI":"網寮里","LIN":"23鄰","STREET":"永春街","SECT":" ","MAREA":" ","LANE":"１２巷","ALLEY":" ","HOUSE_NO":"１２號","E_COORD97":173819.01999999999,"N_COORD97":2546246.6899999999,"ADDRESS":"永春街１２巷１２號","OBJECTID":233111},"geometry":{"x":173819.02000000048,"y":2546246.6900000032}},{"attributes":{"ID":233116,"DIS_CODE":0,"TOWNNAME":"永康區","LI":"復華里","LIN":"23鄰","STREET":"國華街","SECT":" ","MAREA":" ","LANE":"１３４巷","ALLEY":" ","HOUSE_NO":"３號","E_COORD97":172710.19,"N_COORD97":2546151.2400000002,"ADDRESS":"國華街１３４巷３號","OBJECTID":233112},"geometry":{"x":172710.19000000134,"y":2546151.2400000002}},{"attributes":{"ID":233117,"DIS_CODE":0,"TOWNNAME":"永康區","LI":"崑山里","LIN":"23鄰","STREET":"崑山街","SECT":" ","MAREA":" ","LANE":"６３巷","ALLEY":" ","HOUSE_NO":"２號","E_COORD97":173928.66,"N_COORD97":2544670.3500000001,"ADDRESS":"崑山街６３巷２號","OBJECTID":233113},"geometry":{"x":173928.66000000201,"y":2544670.3500000015}},{"attributes":{"ID":233118,"DIS_CODE":0,"TOWNNAME":"永康區","LI":"網寮里","LIN":"23鄰","STREET":"永春街","SECT":" ","MAREA":" ","LANE":"２０巷","ALLEY":" ","HOUSE_NO":"２號","E_COORD97":173782.14000000001,"N_COORD97":2546282.5,"ADDRESS":"永春街２０巷２號","OBJECTID":233114},"geometry":{"x":173782.13999999966,"y":2546282.5000000037}},{"attributes":{"ID":233119,"DIS_CODE":0,"TOWNNAME":"永康區","LI":"復國里","LIN":"23鄰","STREET":"復華三街","SECT":" ","MAREA":" ","LANE":"９０巷","ALLEY":" ","HOUSE_NO":"１７號","E_COORD97":172593.79999999999,"N_COORD97":2545613.3399999999,"ADDRESS":"復華三街９０巷１７號","OBJECTID":233115},"geometry":{"x":172593.80000000075,"y":2545613.3400000017}},{"attributes":{"ID":233120,"DIS_CODE":0,"TOWNNAME":"永康區","LI":"網寮里","LIN":"23鄰","STREET":"永春街","SECT":" ","MAREA":" ","LANE":"２０巷","ALLEY":" ","HOUSE_NO":"１２號","E_COORD97":173805.67999999999,"N_COORD97":2546289.7400000002,"ADDRESS":"永春街２０巷１２號","OBJECTID":233116},"geometry":{"x":173805.6799999997,"y":2546289.7400000002}},{"attributes":{"ID":233121,"DIS_CODE":0,"TOWNNAME":"永康區","LI":"崑山里","LIN":"23鄰","STREET":"崑山街","SECT":" ","MAREA":" ","LANE":"６３巷","ALLEY":" ","HOUSE_NO":"１４號","E_COORD97":173898.29000000001,"N_COORD97":2544676.9500000002,"ADDRESS":"崑山街６３巷１４號","OBJECTID":233117},"geometry":{"x":173898.29000000004,"y":2544676.9499999993}},{"attributes":{"ID":233122,"DIS_CODE":0,"TOWNNAME":"永康區","LI":"勝利里","LIN":"23鄰","STREET":"中華一路","SECT":" ","MAREA":" ","LANE":"２０３巷","ALLEY":" ","HOUSE_NO":"１０號之５","E_COORD97":171426.56,"N_COORD97":2544905.54,"ADDRESS":"中華一路２０３巷１０號之５","OBJECTID":233118},"geometry":{"x":171426.56000000145,"y":2544905.540000001}},{"attributes":{"ID":233123,"DIS_CODE":0,"TOWNNAME":"中西區","LI":"民權里","LIN":"14鄰","STREET":"民族路","SECT":"三段","MAREA":" ","LANE":" ","ALLEY":" ","HOUSE_NO":"１４１號","E_COORD97":167567.07999999999,"N_COORD97":2544372.9199999999,"ADDRESS":"民族路三段１４１號","OBJECTID":233119},"geometry":{"x":167567.08000000194,"y":2544372.9199999999}},{"attributes":{"ID":233124,"DIS_CODE":0,"TOWNNAME":"中西區","LI":"民權里","LIN":"14鄰","STREET":"民族路","SECT":"三段","MAREA":" ","LANE":" ","ALLEY":" ","HOUSE_NO":"１４３號","E_COORD97":167560.38,"N_COORD97":2544374.5600000001,"ADDRESS":"民族路三段１４３號","OBJECTID":233120},"geometry":{"x":167560.38000000082,"y":2544374.5600000024}},{"attributes":{"ID":233125,"DIS_CODE":0,"TOWNNAME":"中西區","LI":"民權里","LIN":"14鄰","STREET":"民族路","SECT":"三段","MAREA":" ","LANE":" ","ALLEY":" ","HOUSE_NO":"１４５號","E_COORD97":167556.85000000001,"N_COORD97":2544376.1099999999,"ADDRESS":"民族路三段１４５號","OBJECTID":233121},"geometry":{"x":167556.85000000056,"y":2544376.1100000013}},{"attributes":{"ID":233126,"DIS_CODE":0,"TOWNNAME":"中西區","LI":"民權里","LIN":"14鄰","STREET":"民族路","SECT":"三段","MAREA":" ","LANE":" ","ALLEY":" ","HOUSE_NO":"１４７號","E_COORD97":167551.10999999999,"N_COORD97":2544378.4399999999,"ADDRESS":"民族路三段１４７號","OBJECTID":233122},"geometry":{"x":167551.11000000034,"y":2544378.4399999995}},{"attributes":{"ID":233127,"DIS_CODE":0,"TOWNNAME":"中西區","LI":"民權里","LIN":"14鄰","STREET":"忠孝街","SECT":" ","MAREA":" ","LANE":" ","ALLEY":" ","HOUSE_NO":"２３號","E_COORD97":167585.01999999999,"N_COORD97":2544321.6000000001,"ADDRESS":"忠孝街２３號","OBJECTID":233123},"geometry":{"x":167585.01999999955,"y":2544321.6000000034}},{"attributes":{"ID":233128,"DIS_CODE":0,"TOWNNAME":"中西區","LI":"民權里","LIN":"14鄰","STREET":"忠孝街","SECT":" ","MAREA":" ","LANE":" ","ALLEY":" ","HOUSE_NO":"２５號","E_COORD97":167586.44,"N_COORD97":2544326.5299999998,"ADDRESS":"忠孝街２５號","OBJECTID":233124},"geometry":{"x":167586.44000000041,"y":2544326.5300000012}},{"attributes":{"ID":233129,"DIS_CODE":0,"TOWNNAME":"中西區","LI":"民權里","LIN":"14鄰","STREET":"忠孝街","SECT":" ","MAREA":" ","LANE":" ","ALLEY":" ","HOUSE_NO":"２７號","E_COORD97":167587.28,"N_COORD97":2544329.8199999998,"ADDRESS":"忠孝街２７號","OBJECTID":233125},"geometry":{"x":167587.28000000026,"y":2544329.8200000003}},{"attributes":{"ID":233130,"DIS_CODE":0,"TOWNNAME":"中西區","LI":"民權里","LIN":"14鄰","STREET":"忠孝街","SECT":" ","MAREA":" ","LANE":" ","ALLEY":" ","HOUSE_NO":"２９號","E_COORD97":167588.76999999999,"N_COORD97":2544338,"ADDRESS":"忠孝街２９號","OBJECTID":233126},"geometry":{"x":167588.76999999862,"y":2544338}},{"attributes":{"ID":233131,"DIS_CODE":0,"TOWNNAME":"中西區","LI":"協和里","LIN":"14鄰","STREET":"中和街","SECT":" ","MAREA":" ","LANE":" ","ALLEY":" ","HOUSE_NO":"１１９號","E_COORD97":167139.41,"N_COORD97":2544667.46,"ADDRESS":"中和街１１９號","OBJECTID":233127},"geometry":{"x":167139.41000000201,"y":2544667.4600000028}},{"attributes":{"ID":233132,"DIS_CODE":0,"TOWNNAME":"南區","LI":"田寮里","LIN":"7鄰","STREET":"夏林路","SECT":" ","MAREA":" ","LANE":"３８５巷","ALLEY":" ","HOUSE_NO":"９號","E_COORD97":167517.60551299999,"N_COORD97":2541863.1508800001,"ADDRESS":"夏林路３８５巷９號","OBJECTID":233128},"geometry":{"x":167517.60551299993,"y":2541863.1508790031}},{"attributes":{"ID":233133,"DIS_CODE":0,"TOWNNAME":"中西區","LI":"協和里","LIN":"14鄰","STREET":"中和街","SECT":" ","MAREA":" ","LANE":" ","ALLEY":" ","HOUSE_NO":"１２１號","E_COORD97":167142.41,"N_COORD97":2544671.0600000001,"ADDRESS":"中和街１２１號","OBJECTID":233129},"geometry":{"x":167142.41000000015,"y":2544671.0600000005}},{"attributes":{"ID":233134,"DIS_CODE":0,"TOWNNAME":"中西區","LI":"協和里","LIN":"14鄰","STREET":"中和街","SECT":" ","MAREA":" ","LANE":" ","ALLEY":" ","HOUSE_NO":"１２３號","E_COORD97":167145.89999999999,"N_COORD97":2544674.25,"ADDRESS":"中和街１２３號","OBJECTID":233130},"geometry":{"x":167145.90000000037,"y":2544674.2500000019}},{"attributes":{"ID":233135,"DIS_CODE":0,"TOWNNAME":"中西區","LI":"協和里","LIN":"14鄰","STREET":"中和街","SECT":" ","MAREA":" ","LANE":" ","ALLEY":" ","HOUSE_NO":"１２７號","E_COORD97":167152.64000000001,"N_COORD97":2544679.8700000001,"ADDRESS":"中和街１２７號","OBJECTID":233131},"geometry":{"x":167152.64000000153,"y":2544679.870000001}},{"attributes":{"ID":233136,"DIS_CODE":0,"TOWNNAME":"佳里區","LI":"安西里","LIN":"23鄰","STREET":"忠孝路","SECT":" ","MAREA":" ","LANE":"１１０巷","ALLEY":" ","HOUSE_NO":"３號","E_COORD97":165263.92999999999,"N_COORD97":2563189.5,"ADDRESS":"忠孝路１１０巷３號","OBJECTID":233132},"geometry":{"x":165263.93000000156,"y":2563189.5}},{"attributes":{"ID":233137,"DIS_CODE":0,"TOWNNAME":"東區","LI":"關聖里","LIN":"2鄰","STREET":"裕農路","SECT":" ","MAREA":" ","LANE":"６６８巷","ALLEY":" ","HOUSE_NO":"６４號之２四樓","E_COORD97":171718.32000000001,"N_COORD97":2542917.3999999999,"ADDRESS":"裕農路６６８巷６４號之２四樓","OBJECTID":233133},"geometry":{"x":171718.3200000003,"y":2542917.4000000022}},{"attributes":{"ID":233138,"DIS_CODE":0,"TOWNNAME":"東區","LI":"關聖里","LIN":"2鄰","STREET":"裕農路","SECT":" ","MAREA":" ","LANE":"６６８巷","ALLEY":" ","HOUSE_NO":"６４號之２五樓","E_COORD97":171718.32000000001,"N_COORD97":2542917.3999999999,"ADDRESS":"裕農路６６８巷６４號之２五樓","OBJECTID":233134},"geometry":{"x":171718.3200000003,"y":2542917.4000000022}},{"attributes":{"ID":233139,"DIS_CODE":0,"TOWNNAME":"東區","LI":"關聖里","LIN":"2鄰","STREET":"裕農路","SECT":" ","MAREA":" ","LANE":"６６８巷","ALLEY":" ","HOUSE_NO":"６６號三樓","E_COORD97":171740.53,"N_COORD97":2542924.0600000001,"ADDRESS":"裕農路６６８巷６６號三樓","OBJECTID":233135},"geometry":{"x":171740.53000000026,"y":2542924.0600000024}},{"attributes":{"ID":233140,"DIS_CODE":0,"TOWNNAME":"東區","LI":"關聖里","LIN":"2鄰","STREET":"裕農路","SECT":" ","MAREA":" ","LANE":"６６８巷","ALLEY":" ","HOUSE_NO":"６６號四樓","E_COORD97":171740.53,"N_COORD97":2542924.0600000001,"ADDRESS":"裕農路６６８巷６６號四樓","OBJECTID":233136},"geometry":{"x":171740.53000000026,"y":2542924.0600000024}},{"attributes":{"ID":233141,"DIS_CODE":0,"TOWNNAME":"東區","LI":"關聖里","LIN":"2鄰","STREET":"裕農路","SECT":" ","MAREA":" ","LANE":"６６８巷","ALLEY":" ","HOUSE_NO":"６６號五樓","E_COORD97":171740.53,"N_COORD97":2542924.0600000001,"ADDRESS":"裕農路６６８巷６６號五樓","OBJECTID":233137},"geometry":{"x":171740.53000000026,"y":2542924.0600000024}},{"attributes":{"ID":233142,"DIS_CODE":0,"TOWNNAME":"東區","LI":"關聖里","LIN":"2鄰","STREET":"裕農路","SECT":" ","MAREA":" ","LANE":"６６８巷","ALLEY":" ","HOUSE_NO":"６６號之１二樓","E_COORD97":171727.44,"N_COORD97":2542919.7400000002,"ADDRESS":"裕農路６６８巷６６號之１二樓","OBJECTID":233138},"geometry":{"x":171727.44000000041,"y":2542919.7400000002}},{"attributes":{"ID":233143,"DIS_CODE":0,"TOWNNAME":"東區","LI":"關聖里","LIN":"2鄰","STREET":"裕農路","SECT":" ","MAREA":" ","LANE":"６６８巷","ALLEY":" ","HOUSE_NO":"６６號之１三樓","E_COORD97":171727.44,"N_COORD97":2542919.7400000002,"ADDRESS":"裕農路６６８巷６６號之１三樓","OBJECTID":233139},"geometry":{"x":171727.44000000041,"y":2542919.7400000002}},{"attributes":{"ID":233144,"DIS_CODE":0,"TOWNNAME":"東區","LI":"關聖里","LIN":"2鄰","STREET":"裕農路","SECT":" ","MAREA":" ","LANE":"６６８巷","ALLEY":" ","HOUSE_NO":"６６號之１四樓","E_COORD97":171727.44,"N_COORD97":2542919.7400000002,"ADDRESS":"裕農路６６８巷６６號之１四樓","OBJECTID":233140},"geometry":{"x":171727.44000000041,"y":2542919.7400000002}},{"attributes":{"ID":233145,"DIS_CODE":0,"TOWNNAME":"東區","LI":"關聖里","LIN":"2鄰","STREET":"裕農路","SECT":" ","MAREA":" ","LANE":"６６８巷","ALLEY":" ","HOUSE_NO":"６６號之１五樓","E_COORD97":171727.44,"N_COORD97":2542919.7400000002,"ADDRESS":"裕農路６６８巷６６號之１五樓","OBJECTID":233141},"geometry":{"x":171727.44000000041,"y":2542919.7400000002}},{"attributes":{"ID":233146,"DIS_CODE":0,"TOWNNAME":"東區","LI":"關聖里","LIN":"2鄰","STREET":"裕農路","SECT":" ","MAREA":" ","LANE":"６６８巷","ALLEY":" ","HOUSE_NO":"６６號之２二樓","E_COORD97":171741.23000000001,"N_COORD97":2542917.9900000002,"ADDRESS":"裕農路６６８巷６６號之２二樓","OBJECTID":233142},"geometry":{"x":171741.23000000045,"y":2542917.9900000002}},{"attributes":{"ID":233147,"DIS_CODE":0,"TOWNNAME":"東區","LI":"關聖里","LIN":"2鄰","STREET":"裕農路","SECT":" ","MAREA":" ","LANE":"６６８巷","ALLEY":" ","HOUSE_NO":"６６號之２三樓","E_COORD97":171741.23000000001,"N_COORD97":2542917.9900000002,"ADDRESS":"裕農路６６８巷６６號之２三樓","OBJECTID":233143},"geometry":{"x":171741.23000000045,"y":2542917.9900000002}},{"attributes":{"ID":233148,"DIS_CODE":0,"TOWNNAME":"東區","LI":"關聖里","LIN":"2鄰","STREET":"裕農路","SECT":" ","MAREA":" ","LANE":"６６８巷","ALLEY":" ","HOUSE_NO":"６６號之２四樓","E_COORD97":171741.23000000001,"N_COORD97":2542917.9900000002,"ADDRESS":"裕農路６６８巷６６號之２四樓","OBJECTID":233144},"geometry":{"x":171741.23000000045,"y":2542917.9900000002}},{"attributes":{"ID":233149,"DIS_CODE":0,"TOWNNAME":"東區","LI":"關聖里","LIN":"2鄰","STREET":"裕農路","SECT":" ","MAREA":" ","LANE":"６６８巷","ALLEY":" ","HOUSE_NO":"６６號之２五樓","E_COORD97":171741.23000000001,"N_COORD97":2542917.9900000002,"ADDRESS":"裕農路６６８巷６６號之２五樓","OBJECTID":233145},"geometry":{"x":171741.23000000045,"y":2542917.9900000002}},{"attributes":{"ID":233150,"DIS_CODE":0,"TOWNNAME":"中西區","LI":"仙草里","LIN":"2鄰","STREET":"五妃街","SECT":" ","MAREA":" ","LANE":"３２２巷","ALLEY":" ","HOUSE_NO":"１１號二樓之１","E_COORD97":167803.29000000001,"N_COORD97":2542641.46,"ADDRESS":"五妃街３２２巷１１號二樓之１","OBJECTID":233146},"geometry":{"x":167803.29000000097,"y":2542641.4600000009}},{"attributes":{"ID":233151,"DIS_CODE":0,"TOWNNAME":"中西區","LI":"仙草里","LIN":"2鄰","STREET":"五妃街","SECT":" ","MAREA":" ","LANE":"３２２巷","ALLEY":" ","HOUSE_NO":"１１號二樓之２","E_COORD97":167803.29000000001,"N_COORD97":2542641.46,"ADDRESS":"五妃街３２２巷１１號二樓之２","OBJECTID":233147},"geometry":{"x":167803.29000000097,"y":2542641.4600000009}},{"attributes":{"ID":233152,"DIS_CODE":0,"TOWNNAME":"中西區","LI":"仙草里","LIN":"2鄰","STREET":"五妃街","SECT":" ","MAREA":" ","LANE":"３２２巷","ALLEY":" ","HOUSE_NO":"１１號二樓之３","E_COORD97":167803.29000000001,"N_COORD97":2542641.46,"ADDRESS":"五妃街３２２巷１１號二樓之３","OBJECTID":233148},"geometry":{"x":167803.29000000097,"y":2542641.4600000009}},{"attributes":{"ID":233153,"DIS_CODE":0,"TOWNNAME":"中西區","LI":"仙草里","LIN":"2鄰","STREET":"五妃街","SECT":" ","MAREA":" ","LANE":"３２２巷","ALLEY":" ","HOUSE_NO":"１１號三樓之１","E_COORD97":167803.29000000001,"N_COORD97":2542641.46,"ADDRESS":"五妃街３２２巷１１號三樓之１","OBJECTID":233149},"geometry":{"x":167803.29000000097,"y":2542641.4600000009}},{"attributes":{"ID":233154,"DIS_CODE":0,"TOWNNAME":"南區","LI":"開南里","LIN":"2鄰","STREET":"中華西路","SECT":"一段","MAREA":" ","LANE":"４０巷","ALLEY":" ","HOUSE_NO":"１號二樓","E_COORD97":166350.51000000001,"N_COORD97":2541051.8799999999,"ADDRESS":"中華西路一段４０巷１號二樓","OBJECTID":233150},"geometry":{"x":166350.51000000071,"y":2541051.8800000008}},{"attributes":{"ID":233155,"DIS_CODE":0,"TOWNNAME":"南區","LI":"開南里","LIN":"2鄰","STREET":"中華西路","SECT":"一段","MAREA":" ","LANE":"４０巷","ALLEY":" ","HOUSE_NO":"１號三樓","E_COORD97":166350.51000000001,"N_COORD97":2541051.8799999999,"ADDRESS":"中華西路一段４０巷１號三樓","OBJECTID":233151},"geometry":{"x":166350.51000000071,"y":2541051.8800000008}},{"attributes":{"ID":233156,"DIS_CODE":0,"TOWNNAME":"南區","LI":"彰南里","LIN":"2鄰","STREET":"中華西路","SECT":"一段","MAREA":" ","LANE":"５６巷","ALLEY":" ","HOUSE_NO":"１號五樓","E_COORD97":166350.14999999999,"N_COORD97":2541303.27,"ADDRESS":"中華西路一段５６巷１號五樓","OBJECTID":233152},"geometry":{"x":166350.1500000013,"y":2541303.2700000014}},{"attributes":{"ID":233157,"DIS_CODE":0,"TOWNNAME":"東區","LI":"龍山里","LIN":"2鄰","STREET":"崇仁街","SECT":" ","MAREA":" ","LANE":"５３巷","ALLEY":" ","HOUSE_NO":"３號四樓","E_COORD97":170394.64999999999,"N_COORD97":2542741.3500000001,"ADDRESS":"崇仁街５３巷３號四樓","OBJECTID":233153},"geometry":{"x":170394.6500000013,"y":2542741.3500000015}},{"attributes":{"ID":233158,"DIS_CODE":0,"TOWNNAME":"永康區","LI":"龍潭里","LIN":"2鄰","STREET":"龍潭街","SECT":" ","MAREA":" ","LANE":"７５巷","ALLEY":" ","HOUSE_NO":"２號二樓之３","E_COORD97":174794.53,"N_COORD97":2548051.3599999999,"ADDRESS":"龍潭街７５巷２號二樓之３","OBJECTID":233154},"geometry":{"x":174794.53000000119,"y":2548051.3599999994}},{"attributes":{"ID":233159,"DIS_CODE":0,"TOWNNAME":"永康區","LI":"龍潭里","LIN":"2鄰","STREET":"龍潭街","SECT":" ","MAREA":" ","LANE":"７５巷","ALLEY":" ","HOUSE_NO":"２號三樓之１","E_COORD97":174794.42999999999,"N_COORD97":2548051.3599999999,"ADDRESS":"龍潭街７５巷２號三樓之１","OBJECTID":233155},"geometry":{"x":174794.43000000063,"y":2548051.3599999994}},{"attributes":{"ID":233160,"DIS_CODE":0,"TOWNNAME":"永康區","LI":"龍潭里","LIN":"2鄰","STREET":"龍潭街","SECT":" ","MAREA":" ","LANE":"７５巷","ALLEY":" ","HOUSE_NO":"２號二樓之２","E_COORD97":174794.57000000001,"N_COORD97":2548051.3599999999,"ADDRESS":"龍潭街７５巷２號二樓之２","OBJECTID":233156},"geometry":{"x":174794.57000000123,"y":2548051.3599999994}},{"attributes":{"ID":233161,"DIS_CODE":0,"TOWNNAME":"永康區","LI":"龍潭里","LIN":"2鄰","STREET":"龍潭街","SECT":" ","MAREA":" ","LANE":"７５巷","ALLEY":" ","HOUSE_NO":"２號五樓之２","E_COORD97":174794.57000000001,"N_COORD97":2548051.3599999999,"ADDRESS":"龍潭街７５巷２號五樓之２","OBJECTID":233157},"geometry":{"x":174794.57000000123,"y":2548051.3599999994}},{"attributes":{"ID":233162,"DIS_CODE":0,"TOWNNAME":"永康區","LI":"龍潭里","LIN":"2鄰","STREET":"龍潭街","SECT":" ","MAREA":" ","LANE":"７５巷","ALLEY":" ","HOUSE_NO":"２號三樓之３","E_COORD97":174794.53,"N_COORD97":2548051.3599999999,"ADDRESS":"龍潭街７５巷２號三樓之３","OBJECTID":233158},"geometry":{"x":174794.53000000119,"y":2548051.3599999994}},{"attributes":{"ID":233163,"DIS_CODE":0,"TOWNNAME":"歸仁區","LI":"七甲里","LIN":"13鄰","STREET":"南丁路","SECT":" ","MAREA":" ","LANE":"３５９巷","ALLEY":" ","HOUSE_NO":"１３號","E_COORD97":176022.90783400001,"N_COORD97":2542569.8724400001,"ADDRESS":"南丁路３５９巷１３號","OBJECTID":233159},"geometry":{"x":176022.90783400182,"y":2542569.8724440001}},{"attributes":{"ID":233164,"DIS_CODE":0,"TOWNNAME":"永康區","LI":"龍潭里","LIN":"2鄰","STREET":"龍潭街","SECT":" ","MAREA":" ","LANE":"７５巷","ALLEY":" ","HOUSE_NO":"２號三樓之２","E_COORD97":174794.57000000001,"N_COORD97":2548051.3599999999,"ADDRESS":"龍潭街７５巷２號三樓之２","OBJECTID":233160},"geometry":{"x":174794.57000000123,"y":2548051.3599999994}},{"attributes":{"ID":233165,"DIS_CODE":0,"TOWNNAME":"中西區","LI":"協和里","LIN":"14鄰","STREET":"中和街","SECT":" ","MAREA":" ","LANE":" ","ALLEY":" ","HOUSE_NO":"１２９號","E_COORD97":167156.14000000001,"N_COORD97":2544682.77,"ADDRESS":"中和街１２９號","OBJECTID":233161},"geometry":{"x":167156.1400000006,"y":2544682.7699999996}},{"attributes":{"ID":233166,"DIS_CODE":0,"TOWNNAME":"佳里區","LI":"安西里","LIN":"23鄰","STREET":"忠孝路","SECT":" ","MAREA":" ","LANE":"１１０巷","ALLEY":" ","HOUSE_NO":"４號","E_COORD97":165285.72,"N_COORD97":2563183,"ADDRESS":"忠孝路１１０巷４號","OBJECTID":233162},"geometry":{"x":165285.7200000016,"y":2563183}},{"attributes":{"ID":233167,"DIS_CODE":0,"TOWNNAME":"關廟區","LI":"新埔里","LIN":"5鄰","STREET":"新埔三街","SECT":" ","MAREA":" ","LANE":"２７巷","ALLEY":" ","HOUSE_NO":"７號","E_COORD97":181156.44328100001,"N_COORD97":2540941.2423200002,"ADDRESS":"新埔三街２７巷７號","OBJECTID":233163},"geometry":{"x":181156.44328100141,"y":2540941.242318999}},{"attributes":{"ID":233168,"DIS_CODE":0,"TOWNNAME":"永康區","LI":"龍潭里","LIN":"2鄰","STREET":"龍潭街","SECT":" ","MAREA":" ","LANE":"７５巷","ALLEY":" ","HOUSE_NO":"２號四樓之５","E_COORD97":174794.59,"N_COORD97":2548051.3599999999,"ADDRESS":"龍潭街７５巷２號四樓之５","OBJECTID":233164},"geometry":{"x":174794.58999999985,"y":2548051.3599999994}},{"attributes":{"ID":233169,"DIS_CODE":0,"TOWNNAME":"永康區","LI":"龍潭里","LIN":"2鄰","STREET":"龍潭街","SECT":" ","MAREA":" ","LANE":"７５巷","ALLEY":" ","HOUSE_NO":"２號三樓之４","E_COORD97":174794.45999999999,"N_COORD97":2548051.3599999999,"ADDRESS":"龍潭街７５巷２號三樓之４","OBJECTID":233165},"geometry":{"x":174794.46000000089,"y":2548051.3599999994}},{"attributes":{"ID":233170,"DIS_CODE":0,"TOWNNAME":"永康區","LI":"龍潭里","LIN":"2鄰","STREET":"龍潭街","SECT":" ","MAREA":" ","LANE":"７５巷","ALLEY":" ","HOUSE_NO":"２號五樓之３","E_COORD97":174794.53,"N_COORD97":2548051.3599999999,"ADDRESS":"龍潭街７５巷２號五樓之３","OBJECTID":233166},"geometry":{"x":174794.53000000119,"y":2548051.3599999994}},{"attributes":{"ID":233171,"DIS_CODE":0,"TOWNNAME":"永康區","LI":"龍潭里","LIN":"2鄰","STREET":"龍潭街","SECT":" ","MAREA":" ","LANE":"７５巷","ALLEY":" ","HOUSE_NO":"２號六樓之２","E_COORD97":174794.57000000001,"N_COORD97":2548051.3599999999,"ADDRESS":"龍潭街７５巷２號六樓之２","OBJECTID":233167},"geometry":{"x":174794.57000000123,"y":2548051.3599999994}},{"attributes":{"ID":233172,"DIS_CODE":0,"TOWNNAME":"東區","LI":"富裕里","LIN":"2鄰","STREET":"東門路","SECT":"二段","MAREA":" ","LANE":"２５７巷","ALLEY":" ","HOUSE_NO":"６號四樓","E_COORD97":170627.25,"N_COORD97":2542736.5699999998,"ADDRESS":"東門路二段２５７巷６號四樓","OBJECTID":233168},"geometry":{"x":170627.25000000186,"y":2542736.5700000022}},{"attributes":{"ID":233173,"DIS_CODE":0,"TOWNNAME":"東區","LI":"富裕里","LIN":"2鄰","STREET":"東門路","SECT":"二段","MAREA":" ","LANE":"２５７巷","ALLEY":" ","HOUSE_NO":"２號二樓","E_COORD97":170624.89000000001,"N_COORD97":2542716.04,"ADDRESS":"東門路二段２５７巷２號二樓","OBJECTID":233169},"geometry":{"x":170624.8900000006,"y":2542716.040000001}},{"attributes":{"ID":233174,"DIS_CODE":0,"TOWNNAME":"東區","LI":"富裕里","LIN":"2鄰","STREET":"東門路","SECT":"二段","MAREA":" ","LANE":"２５７巷","ALLEY":" ","HOUSE_NO":"２號三樓","E_COORD97":170624.89000000001,"N_COORD97":2542716.04,"ADDRESS":"東門路二段２５７巷２號三樓","OBJECTID":233170},"geometry":{"x":170624.8900000006,"y":2542716.040000001}},{"attributes":{"ID":233175,"DIS_CODE":0,"TOWNNAME":"東區","LI":"富裕里","LIN":"2鄰","STREET":"東門路","SECT":"二段","MAREA":" ","LANE":"２５７巷","ALLEY":" ","HOUSE_NO":"２號四樓","E_COORD97":170624.89000000001,"N_COORD97":2542716.04,"ADDRESS":"東門路二段２５７巷２號四樓","OBJECTID":233171},"geometry":{"x":170624.8900000006,"y":2542716.040000001}},{"attributes":{"ID":233176,"DIS_CODE":0,"TOWNNAME":"東區","LI":"富裕里","LIN":"2鄰","STREET":"東門路","SECT":"二段","MAREA":" ","LANE":"２５７巷","ALLEY":" ","HOUSE_NO":"６號二樓","E_COORD97":170627.25,"N_COORD97":2542736.5699999998,"ADDRESS":"東門路二段２５７巷６號二樓","OBJECTID":233172},"geometry":{"x":170627.25000000186,"y":2542736.5700000022}},{"attributes":{"ID":233177,"DIS_CODE":0,"TOWNNAME":"東區","LI":"富裕里","LIN":"2鄰","STREET":"東門路","SECT":"二段","MAREA":" ","LANE":"２５７巷","ALLEY":" ","HOUSE_NO":"１０號四樓","E_COORD97":170629.45000000001,"N_COORD97":2542756.3900000001,"ADDRESS":"東門路二段２５７巷１０號四樓","OBJECTID":233173},"geometry":{"x":170629.45000000205,"y":2542756.3900000006}},{"attributes":{"ID":233178,"DIS_CODE":0,"TOWNNAME":"東區","LI":"富裕里","LIN":"2鄰","STREET":"東門路","SECT":"二段","MAREA":" ","LANE":"２５７巷","ALLEY":" ","HOUSE_NO":"６號五樓","E_COORD97":170627.25,"N_COORD97":2542736.5699999998,"ADDRESS":"東門路二段２５７巷６號五樓","OBJECTID":233174},"geometry":{"x":170627.25000000186,"y":2542736.5700000022}},{"attributes":{"ID":233179,"DIS_CODE":0,"TOWNNAME":"東區","LI":"富裕里","LIN":"2鄰","STREET":"東門路","SECT":"二段","MAREA":" ","LANE":"２５７巷","ALLEY":" ","HOUSE_NO":"１０號二樓","E_COORD97":170629.45000000001,"N_COORD97":2542756.3900000001,"ADDRESS":"東門路二段２５７巷１０號二樓","OBJECTID":233175},"geometry":{"x":170629.45000000205,"y":2542756.3900000006}},{"attributes":{"ID":233180,"DIS_CODE":0,"TOWNNAME":"永康區","LI":"復國里","LIN":"2鄰","STREET":"復國一路","SECT":" ","MAREA":" ","LANE":"２８巷","ALLEY":" ","HOUSE_NO":"３０號","E_COORD97":172798.20999999999,"N_COORD97":2544759.5499999998,"ADDRESS":"復國一路２８巷３０號","OBJECTID":233176},"geometry":{"x":172798.20999999996,"y":2544759.5500000007}},{"attributes":{"ID":233181,"DIS_CODE":0,"TOWNNAME":"永康區","LI":"三民里","LIN":"2鄰","STREET":"三民街","SECT":" ","MAREA":" ","LANE":"１１２巷","ALLEY":" ","HOUSE_NO":"１７號","E_COORD97":172885.87,"N_COORD97":2550353.29,"ADDRESS":"三民街１１２巷１７號","OBJECTID":233177},"geometry":{"x":172885.87000000011,"y":2550353.2899999991}},{"attributes":{"ID":233182,"DIS_CODE":0,"TOWNNAME":"永康區","LI":"中興里","LIN":"2鄰","STREET":"忠孝路","SECT":" ","MAREA":" ","LANE":"２３９巷","ALLEY":" ","HOUSE_NO":"１９號","E_COORD97":172012.78,"N_COORD97":2545027.1299999999,"ADDRESS":"忠孝路２３９巷１９號","OBJECTID":233178},"geometry":{"x":172012.78000000119,"y":2545027.1300000008}},{"attributes":{"ID":233183,"DIS_CODE":0,"TOWNNAME":"東區","LI":"崇善里","LIN":"2鄰","STREET":"中華東路","SECT":"三段","MAREA":" ","LANE":"１０７巷","ALLEY":" ","HOUSE_NO":"３８號","E_COORD97":170822.45999999999,"N_COORD97":2542063.2599999998,"ADDRESS":"中華東路三段１０７巷３８號","OBJECTID":233179},"geometry":{"x":170822.46000000183,"y":2542063.2600000016}},{"attributes":{"ID":233184,"DIS_CODE":0,"TOWNNAME":"東區","LI":"崇善里","LIN":"2鄰","STREET":"中華東路","SECT":"三段","MAREA":" ","LANE":"１０７巷","ALLEY":" ","HOUSE_NO":"４２號","E_COORD97":170821.38,"N_COORD97":2542048.9500000002,"ADDRESS":"中華東路三段１０７巷４２號","OBJECTID":233180},"geometry":{"x":170821.38000000082,"y":2542048.9499999993}},{"attributes":{"ID":233185,"DIS_CODE":0,"TOWNNAME":"東區","LI":"崇善里","LIN":"2鄰","STREET":"中華東路","SECT":"三段","MAREA":" ","LANE":"１０７巷","ALLEY":" ","HOUSE_NO":"４８號","E_COORD97":170837.98000000001,"N_COORD97":2542024.48,"ADDRESS":"中華東路三段１０７巷４８號","OBJECTID":233181},"geometry":{"x":170837.97999999952,"y":2542024.4800000042}},{"attributes":{"ID":233186,"DIS_CODE":0,"TOWNNAME":"東區","LI":"崇善里","LIN":"2鄰","STREET":"中華東路","SECT":"三段","MAREA":" ","LANE":"７７巷","ALLEY":" ","HOUSE_NO":"３０號","E_COORD97":170921.85999999999,"N_COORD97":2542127.1400000001,"ADDRESS":"中華東路三段７７巷３０號","OBJECTID":233182},"geometry":{"x":170921.8600000022,"y":2542127.1400000006}},{"attributes":{"ID":233187,"DIS_CODE":0,"TOWNNAME":"東區","LI":"崇善里","LIN":"2鄰","STREET":"中華東路","SECT":"三段","MAREA":" ","LANE":"７７巷","ALLEY":" ","HOUSE_NO":"３２號","E_COORD97":170924.39999999999,"N_COORD97":2542122.7999999998,"ADDRESS":"中華東路三段７７巷３２號","OBJECTID":233183},"geometry":{"x":170924.40000000037,"y":2542122.8000000007}},{"attributes":{"ID":233188,"DIS_CODE":0,"TOWNNAME":"東區","LI":"崇善里","LIN":"2鄰","STREET":"中華東路","SECT":"三段","MAREA":" ","LANE":"７７巷","ALLEY":" ","HOUSE_NO":"３６號","E_COORD97":170937.09,"N_COORD97":2542115.5499999998,"ADDRESS":"中華東路三段７７巷３６號","OBJECTID":233184},"geometry":{"x":170937.09000000078,"y":2542115.5500000007}},{"attributes":{"ID":233189,"DIS_CODE":0,"TOWNNAME":"東區","LI":"崇善里","LIN":"2鄰","STREET":"中華東路","SECT":"三段","MAREA":" ","LANE":"１０７巷","ALLEY":" ","HOUSE_NO":"３１號","E_COORD97":170859.03,"N_COORD97":2542031.6600000001,"ADDRESS":"中華東路三段１０７巷３１號","OBJECTID":233185},"geometry":{"x":170859.03000000026,"y":2542031.6600000001}},{"attributes":{"ID":233190,"DIS_CODE":0,"TOWNNAME":"東區","LI":"東聖里","LIN":"2鄰","STREET":"中華東路","SECT":"二段","MAREA":" ","LANE":"７巷","ALLEY":" ","HOUSE_NO":"９號","E_COORD97":171478.87,"N_COORD97":2543156.1899999999,"ADDRESS":"中華東路二段７巷９號","OBJECTID":233186},"geometry":{"x":171478.87000000011,"y":2543156.1899999995}},{"attributes":{"ID":233191,"DIS_CODE":0,"TOWNNAME":"東區","LI":"東聖里","LIN":"2鄰","STREET":"富農街","SECT":"二段","MAREA":" ","LANE":"１０９巷","ALLEY":" ","HOUSE_NO":"１０號","E_COORD97":171594.06,"N_COORD97":2543165.3999999999,"ADDRESS":"富農街二段１０９巷１０號","OBJECTID":233187},"geometry":{"x":171594.05999999959,"y":2543165.4000000022}},{"attributes":{"ID":233192,"DIS_CODE":0,"TOWNNAME":"東區","LI":"東聖里","LIN":"2鄰","STREET":"富農街","SECT":"二段","MAREA":" ","LANE":"１０９巷","ALLEY":" ","HOUSE_NO":"１２號","E_COORD97":171589.64000000001,"N_COORD97":2543166.6400000001,"ADDRESS":"富農街二段１０９巷１２號","OBJECTID":233188},"geometry":{"x":171589.6400000006,"y":2543166.6400000025}},{"attributes":{"ID":233193,"DIS_CODE":0,"TOWNNAME":"永康區","LI":"三民里","LIN":"2鄰","STREET":"三民街","SECT":" ","MAREA":" ","LANE":"１１２巷","ALLEY":" ","HOUSE_NO":"１９號","E_COORD97":172885.82000000001,"N_COORD97":2550358.29,"ADDRESS":"三民街１１２巷１９號","OBJECTID":233189},"geometry":{"x":172885.82000000123,"y":2550358.290000001}},{"attributes":{"ID":233194,"DIS_CODE":0,"TOWNNAME":"永康區","LI":"大灣里","LIN":"2鄰","STREET":"大安街","SECT":" ","MAREA":" ","LANE":"３５６巷","ALLEY":" ","HOUSE_NO":"３號","E_COORD97":174691.57999999999,"N_COORD97":2545671.77,"ADDRESS":"大安街３５６巷３號","OBJECTID":233190},"geometry":{"x":174691.58000000007,"y":2545671.7699999996}},{"attributes":{"ID":233195,"DIS_CODE":0,"TOWNNAME":"永康區","LI":"大灣里","LIN":"2鄰","STREET":"大同街","SECT":" ","MAREA":" ","LANE":"１５３巷","ALLEY":" ","HOUSE_NO":"３２號","E_COORD97":174787.23999999999,"N_COORD97":2545564.73,"ADDRESS":"大同街１５３巷３２號","OBJECTID":233191},"geometry":{"x":174787.24000000022,"y":2545564.7300000004}},{"attributes":{"ID":233196,"DIS_CODE":0,"TOWNNAME":"永康區","LI":"王行里","LIN":"2鄰","STREET":"王行路","SECT":" ","MAREA":" ","LANE":"６８巷","ALLEY":" ","HOUSE_NO":"１９號","E_COORD97":175767.62,"N_COORD97":2548076.2599999998,"ADDRESS":"王行路６８巷１９號","OBJECTID":233192},"geometry":{"x":175767.62000000011,"y":2548076.2599999998}},{"attributes":{"ID":233197,"DIS_CODE":0,"TOWNNAME":"中西區","LI":"協和里","LIN":"14鄰","STREET":"中和街","SECT":" ","MAREA":" ","LANE":" ","ALLEY":" ","HOUSE_NO":"１３１號","E_COORD97":167159.53,"N_COORD97":2544685.7599999998,"ADDRESS":"中和街１３１號","OBJECTID":233193},"geometry":{"x":167159.53000000119,"y":2544685.7599999998}},{"attributes":{"ID":233198,"DIS_CODE":0,"TOWNNAME":"永康區","LI":"復國里","LIN":"2鄰","STREET":"復國一路","SECT":" ","MAREA":" ","LANE":"２８巷","ALLEY":" ","HOUSE_NO":"１６號","E_COORD97":172770.98000000001,"N_COORD97":2544755.5899999999,"ADDRESS":"復國一路２８巷１６號","OBJECTID":233194},"geometry":{"x":172770.98000000138,"y":2544755.589999998}},{"attributes":{"ID":233199,"DIS_CODE":0,"TOWNNAME":"中西區","LI":"中正里","LIN":"10鄰","STREET":"海安路","SECT":" ","MAREA":" ","LANE":"１５９巷","ALLEY":" ","HOUSE_NO":"１９號","E_COORD97":167554.04999999999,"N_COORD97":2543856.5499999998,"ADDRESS":"海安路１５９巷１９號","OBJECTID":233195},"geometry":{"x":167554.05000000075,"y":2543856.5500000026}},{"attributes":{"ID":233200,"DIS_CODE":0,"TOWNNAME":"中西區","LI":"中正里","LIN":"10鄰","STREET":"海安路","SECT":" ","MAREA":" ","LANE":"１５９巷","ALLEY":" ","HOUSE_NO":"２１號","E_COORD97":167555.81,"N_COORD97":2543861.1099999999,"ADDRESS":"海安路１５９巷２１號","OBJECTID":233196},"geometry":{"x":167555.80999999959,"y":2543861.1100000013}},{"attributes":{"ID":233201,"DIS_CODE":0,"TOWNNAME":"中西區","LI":"中正里","LIN":"10鄰","STREET":"海安路","SECT":" ","MAREA":" ","LANE":"１５９巷","ALLEY":" ","HOUSE_NO":"２３號","E_COORD97":167555.95000000001,"N_COORD97":2543865.0499999998,"ADDRESS":"海安路１５９巷２３號","OBJECTID":233197},"geometry":{"x":167555.95000000019,"y":2543865.0500000007}},{"attributes":{"ID":233202,"DIS_CODE":0,"TOWNNAME":"中西區","LI":"中正里","LIN":"10鄰","STREET":"正德街","SECT":" ","MAREA":" ","LANE":"３２巷","ALLEY":" ","HOUSE_NO":"９號","E_COORD97":167546.31,"N_COORD97":2543857.7599999998,"ADDRESS":"正德街３２巷９號","OBJECTID":233198},"geometry":{"x":167546.31000000145,"y":2543857.7600000016}},{"attributes":{"ID":233203,"DIS_CODE":0,"TOWNNAME":"中西區","LI":"中正里","LIN":"10鄰","STREET":"正德街","SECT":" ","MAREA":" ","LANE":"４０巷","ALLEY":" ","HOUSE_NO":"２號","E_COORD97":167536.98000000001,"N_COORD97":2543865.5899999999,"ADDRESS":"正德街４０巷２號","OBJECTID":233199},"geometry":{"x":167536.98000000045,"y":2543865.5900000017}},{"attributes":{"ID":233204,"DIS_CODE":0,"TOWNNAME":"中西區","LI":"中正里","LIN":"10鄰","STREET":"正德街","SECT":" ","MAREA":" ","LANE":"４０巷","ALLEY":" ","HOUSE_NO":"４號","E_COORD97":167539.76999999999,"N_COORD97":2543864.9500000002,"ADDRESS":"正德街４０巷４號","OBJECTID":233200},"geometry":{"x":167539.77000000142,"y":2543864.9500000011}}]}