{"displayFieldName":"TOWNNAME","fieldAliases":{"ID":"ID","DIS_CODE":"DIS_CODE","TOWNNAME":"TOWNNAME","LI":"LI","LIN":"LIN","STREET":"STREET","SECT":"SECT","MAREA":"MAREA","LANE":"LANE","ALLEY":"ALLEY","HOUSE_NO":"HOUSE_NO","E_COORD97":"E_COORD97","N_COORD97":"N_COORD97","ADDRESS":"ADDRESS","OBJECTID":"OBJECTID"},"geometryType":"esriGeometryPoint","spatialReference":{"wkid":102443,"latestWkid":3826},"fields":[{"name":"ID","type":"esriFieldTypeDouble","alias":"ID"},{"name":"DIS_CODE","type":"esriFieldTypeInteger","alias":"DIS_CODE"},{"name":"TOWNNAME","type":"esriFieldTypeString","alias":"TOWNNAME","length":8},{"name":"LI","type":"esriFieldTypeString","alias":"LI","length":8},{"name":"LIN","type":"esriFieldTypeString","alias":"LIN","length":12},{"name":"STREET","type":"esriFieldTypeString","alias":"STREET","length":20},{"name":"SECT","type":"esriFieldTypeString","alias":"SECT","length":8},{"name":"MAREA","type":"esriFieldTypeString","alias":"MAREA","length":12},{"name":"LANE","type":"esriFieldTypeString","alias":"LANE","length":10},{"name":"ALLEY","type":"esriFieldTypeString","alias":"ALLEY","length":10},{"name":"HOUSE_NO","type":"esriFieldTypeString","alias":"HOUSE_NO","length":20},{"name":"E_COORD97","type":"esriFieldTypeDouble","alias":"E_COORD97"},{"name":"N_COORD97","type":"esriFieldTypeDouble","alias":"N_COORD97"},{"name":"ADDRESS","type":"esriFieldTypeString","alias":"ADDRESS","length":50},{"name":"OBJECTID","type":"esriFieldTypeOID","alias":"OBJECTID"}],"features":[{"attributes":{"ID":647628,"DIS_CODE":0,"TOWNNAME":"歸仁區","LI":"八甲里","LIN":"24鄰","STREET":"大德路","SECT":" ","MAREA":" ","LANE":"１２０巷","ALLEY":" ","HOUSE_NO":"２２號","E_COORD97":178112.083637,"N_COORD97":2541368.7784199999,"ADDRESS":"大德路１２０巷２２號","OBJECTID":647601},"geometry":{"x":178112.08363700006,"y":2541368.7784180027}},{"attributes":{"ID":647629,"DIS_CODE":0,"TOWNNAME":"玉井區","LI":"望明里","LIN":"5鄰","STREET":" ","SECT":" ","MAREA":"望明","LANE":" ","ALLEY":" ","HOUSE_NO":"４７號","E_COORD97":194231.28690599999,"N_COORD97":2556036.80663,"ADDRESS":"望明４７號","OBJECTID":647602},"geometry":{"x":194231.28690600023,"y":2556036.8066300005}},{"attributes":{"ID":647630,"DIS_CODE":0,"TOWNNAME":"東區","LI":"文聖里","LIN":"3鄰","STREET":"裕學路","SECT":" ","MAREA":" ","LANE":" ","ALLEY":" ","HOUSE_NO":"１號","E_COORD97":171912.307554,"N_COORD97":2542814.8954699999,"ADDRESS":"裕學路１號","OBJECTID":647603},"geometry":{"x":171912.30755400099,"y":2542814.8954720031}},{"attributes":{"ID":647631,"DIS_CODE":0,"TOWNNAME":"東區","LI":"文聖里","LIN":"3鄰","STREET":"裕學路","SECT":" ","MAREA":" ","LANE":" ","ALLEY":" ","HOUSE_NO":"３號","E_COORD97":171905.859673,"N_COORD97":2542814.8955799998,"ADDRESS":"裕學路３號","OBJECTID":647604},"geometry":{"x":171905.85967299994,"y":2542814.8955830019}},{"attributes":{"ID":647632,"DIS_CODE":0,"TOWNNAME":"新營區","LI":"王公里","LIN":"2鄰","STREET":"義和街","SECT":" ","MAREA":" ","LANE":" ","ALLEY":" ","HOUSE_NO":"２５號之７","E_COORD97":180205.10279599999,"N_COORD97":2579026.2151299999,"ADDRESS":"義和街２５號之７","OBJECTID":647605},"geometry":{"x":180205.10279600229,"y":2579026.2151280046}},{"attributes":{"ID":647633,"DIS_CODE":0,"TOWNNAME":"新營區","LI":"王公里","LIN":"2鄰","STREET":"義和街","SECT":" ","MAREA":" ","LANE":" ","ALLEY":" ","HOUSE_NO":"２５號之８","E_COORD97":180201.28891599999,"N_COORD97":2579026.0034599998,"ADDRESS":"義和街２５號之８","OBJECTID":647606},"geometry":{"x":180201.2889160011,"y":2579026.0034609977}},{"attributes":{"ID":647634,"DIS_CODE":0,"TOWNNAME":"東區","LI":"文聖里","LIN":"3鄰","STREET":"裕學路","SECT":" ","MAREA":" ","LANE":" ","ALLEY":" ","HOUSE_NO":"５號","E_COORD97":171899.76740499999,"N_COORD97":2542815.3165799999,"ADDRESS":"裕學路５號","OBJECTID":647607},"geometry":{"x":171899.76740500052,"y":2542815.3165770005}},{"attributes":{"ID":647635,"DIS_CODE":0,"TOWNNAME":"東區","LI":"文聖里","LIN":"3鄰","STREET":"裕學路","SECT":" ","MAREA":" ","LANE":" ","ALLEY":" ","HOUSE_NO":"７號","E_COORD97":171892.911769,"N_COORD97":2542815.3162400001,"ADDRESS":"裕學路７號","OBJECTID":647608},"geometry":{"x":171892.91176900081,"y":2542815.3162440043}},{"attributes":{"ID":647636,"DIS_CODE":0,"TOWNNAME":"麻豆區","LI":"新建里","LIN":"3鄰","STREET":"興民街","SECT":" ","MAREA":" ","LANE":" ","ALLEY":" ","HOUSE_NO":"４５號之９","E_COORD97":172674.36285999999,"N_COORD97":2564952.0449299999,"ADDRESS":"興民街４５號之９","OBJECTID":647609},"geometry":{"x":172674.36286000069,"y":2564952.0449300017}},{"attributes":{"ID":647637,"DIS_CODE":0,"TOWNNAME":"歸仁區","LI":"八甲里","LIN":"24鄰","STREET":"大德路","SECT":" ","MAREA":" ","LANE":"１２０巷","ALLEY":" ","HOUSE_NO":"２１號","E_COORD97":178098.73598900001,"N_COORD97":2541381.6900800001,"ADDRESS":"大德路１２０巷２１號","OBJECTID":647610},"geometry":{"x":178098.73598899879,"y":2541381.6900770031}},{"attributes":{"ID":647638,"DIS_CODE":0,"TOWNNAME":"玉井區","LI":"望明里","LIN":"5鄰","STREET":" ","SECT":" ","MAREA":"望明","LANE":" ","ALLEY":" ","HOUSE_NO":"５１號","E_COORD97":194163.92273300001,"N_COORD97":2556077.0232799998,"ADDRESS":"望明５１號","OBJECTID":647611},"geometry":{"x":194163.92273300048,"y":2556077.023275001}},{"attributes":{"ID":647639,"DIS_CODE":0,"TOWNNAME":"歸仁區","LI":"八甲里","LIN":"24鄰","STREET":"大德路","SECT":" ","MAREA":" ","LANE":"１２０巷","ALLEY":" ","HOUSE_NO":"２３號","E_COORD97":178100.21906100001,"N_COORD97":2541388.0400700001,"ADDRESS":"大德路１２０巷２３號","OBJECTID":647612},"geometry":{"x":178100.2190610012,"y":2541388.0400740001}},{"attributes":{"ID":647640,"DIS_CODE":0,"TOWNNAME":"東山區","LI":"三榮里","LIN":"4鄰","STREET":" ","SECT":" ","MAREA":"許秀才","LANE":" ","ALLEY":" ","HOUSE_NO":"４１號之１１","E_COORD97":187167.54224000001,"N_COORD97":2579042.3522600001,"ADDRESS":"許秀才４１號之１１","OBJECTID":647613},"geometry":{"x":187167.54224000033,"y":2579042.352260001}},{"attributes":{"ID":647641,"DIS_CODE":0,"TOWNNAME":"新營區","LI":"嘉芳里","LIN":"1鄰","STREET":"復興路","SECT":" ","MAREA":" ","LANE":"７００巷","ALLEY":" ","HOUSE_NO":"７０號","E_COORD97":177309.75543300001,"N_COORD97":2578920.1826800001,"ADDRESS":"復興路７００巷７０號","OBJECTID":647614},"geometry":{"x":177309.75543300062,"y":2578920.182684999}},{"attributes":{"ID":647642,"DIS_CODE":0,"TOWNNAME":"白河區","LI":"崁頭里","LIN":"10鄰","STREET":" ","SECT":" ","MAREA":"崁子頭","LANE":" ","ALLEY":" ","HOUSE_NO":"９３號","E_COORD97":192373.258034,"N_COORD97":2579545.0840500002,"ADDRESS":"崁子頭９３號","OBJECTID":647615},"geometry":{"x":192373.2580340011,"y":2579545.084051}},{"attributes":{"ID":647643,"DIS_CODE":0,"TOWNNAME":"歸仁區","LI":"八甲里","LIN":"24鄰","STREET":"大德路","SECT":" ","MAREA":" ","LANE":"１２０巷","ALLEY":"２５弄","HOUSE_NO":"１號","E_COORD97":178098.73598900001,"N_COORD97":2541394.6017399998,"ADDRESS":"大德路１２０巷２５弄１號","OBJECTID":647616},"geometry":{"x":178098.73598899879,"y":2541394.6017370019}},{"attributes":{"ID":647644,"DIS_CODE":0,"TOWNNAME":"歸仁區","LI":"八甲里","LIN":"24鄰","STREET":"大德路","SECT":" ","MAREA":" ","LANE":"１２０巷","ALLEY":"２５弄","HOUSE_NO":"３號","E_COORD97":178096.405448,"N_COORD97":2541398.2000699998,"ADDRESS":"大德路１２０巷２５弄３號","OBJECTID":647617},"geometry":{"x":178096.40544800088,"y":2541398.2000679988}},{"attributes":{"ID":647645,"DIS_CODE":0,"TOWNNAME":"東山區","LI":"三榮里","LIN":"4鄰","STREET":" ","SECT":" ","MAREA":"許秀才","LANE":" ","ALLEY":" ","HOUSE_NO":"４１號之１２","E_COORD97":187165.63514999999,"N_COORD97":2578954.9339700001,"ADDRESS":"許秀才４１號之１２","OBJECTID":647618},"geometry":{"x":187165.63515000045,"y":2578954.9339700025}},{"attributes":{"ID":647646,"DIS_CODE":0,"TOWNNAME":"歸仁區","LI":"八甲里","LIN":"24鄰","STREET":"大德路","SECT":" ","MAREA":" ","LANE":"１２０巷","ALLEY":"２５弄","HOUSE_NO":"５號","E_COORD97":178093.651171,"N_COORD97":2541400.9517299999,"ADDRESS":"大德路１２０巷２５弄５號","OBJECTID":647619},"geometry":{"x":178093.65117100161,"y":2541400.9517340008}},{"attributes":{"ID":647647,"DIS_CODE":0,"TOWNNAME":"歸仁區","LI":"八甲里","LIN":"24鄰","STREET":"大德路","SECT":" ","MAREA":" ","LANE":"１２０巷","ALLEY":"２５弄","HOUSE_NO":"７號","E_COORD97":178091.956232,"N_COORD97":2541403.2800699999,"ADDRESS":"大德路１２０巷２５弄７號","OBJECTID":647620},"geometry":{"x":178091.95623200014,"y":2541403.2800660022}},{"attributes":{"ID":647648,"DIS_CODE":0,"TOWNNAME":"歸仁區","LI":"八甲里","LIN":"24鄰","STREET":"大德路","SECT":" ","MAREA":" ","LANE":"１２０巷","ALLEY":"２５弄","HOUSE_NO":"９號","E_COORD97":178090.47315999999,"N_COORD97":2541405.6083999998,"ADDRESS":"大德路１２０巷２５弄９號","OBJECTID":647621},"geometry":{"x":178090.47315999959,"y":2541405.6083980016}},{"attributes":{"ID":647649,"DIS_CODE":0,"TOWNNAME":"歸仁區","LI":"八甲里","LIN":"24鄰","STREET":"大德路","SECT":" ","MAREA":" ","LANE":"１２０巷","ALLEY":"２５弄","HOUSE_NO":"１１號","E_COORD97":178088.14261800001,"N_COORD97":2541408.3600599999,"ADDRESS":"大德路１２０巷２５弄１１號","OBJECTID":647622},"geometry":{"x":178088.14261799958,"y":2541408.3600630015}},{"attributes":{"ID":647650,"DIS_CODE":0,"TOWNNAME":"東區","LI":"大智里","LIN":"40鄰","STREET":"信東街","SECT":" ","MAREA":" ","LANE":" ","ALLEY":" ","HOUSE_NO":"１１號","E_COORD97":171536.72983699999,"N_COORD97":2540180.61094,"ADDRESS":"信東街１１號","OBJECTID":647623},"geometry":{"x":171536.72983700037,"y":2540180.61094}},{"attributes":{"ID":647651,"DIS_CODE":0,"TOWNNAME":"歸仁區","LI":"八甲里","LIN":"24鄰","STREET":"大德路","SECT":" ","MAREA":" ","LANE":"１２０巷","ALLEY":"２５弄","HOUSE_NO":"１３號","E_COORD97":178086.02394399999,"N_COORD97":2541410.6883999999,"ADDRESS":"大德路１２０巷２５弄１３號","OBJECTID":647624},"geometry":{"x":178086.02394399978,"y":2541410.688395001}},{"attributes":{"ID":647652,"DIS_CODE":0,"TOWNNAME":"麻豆區","LI":"麻口里","LIN":"10鄰","STREET":" ","SECT":" ","MAREA":"番子寮","LANE":" ","ALLEY":" ","HOUSE_NO":"１號之５３","E_COORD97":169772.09114,"N_COORD97":2563316.2614699998,"ADDRESS":"番子寮１號之５３","OBJECTID":647625},"geometry":{"x":169772.09114000201,"y":2563316.2614660021}},{"attributes":{"ID":647653,"DIS_CODE":0,"TOWNNAME":"歸仁區","LI":"八甲里","LIN":"24鄰","STREET":"大德路","SECT":" ","MAREA":" ","LANE":"１２０巷","ALLEY":"２５弄","HOUSE_NO":"１５號","E_COORD97":178080.30352399999,"N_COORD97":2541408.1483999998,"ADDRESS":"大德路１２０巷２５弄１５號","OBJECTID":647626},"geometry":{"x":178080.30352399964,"y":2541408.1483960003}},{"attributes":{"ID":647654,"DIS_CODE":0,"TOWNNAME":"歸仁區","LI":"八甲里","LIN":"24鄰","STREET":"大德路","SECT":" ","MAREA":" ","LANE":"１２０巷","ALLEY":"２５弄","HOUSE_NO":"１７號","E_COORD97":178081.57472800001,"N_COORD97":2541404.9734,"ADDRESS":"大德路１２０巷２５弄１７號","OBJECTID":647627},"geometry":{"x":178081.57472800184,"y":2541404.9733980019}},{"attributes":{"ID":647655,"DIS_CODE":0,"TOWNNAME":"東區","LI":"大智里","LIN":"40鄰","STREET":"永東街","SECT":" ","MAREA":" ","LANE":"１２２巷","ALLEY":" ","HOUSE_NO":"１２號","E_COORD97":171523.75342299999,"N_COORD97":2540163.90124,"ADDRESS":"永東街１２２巷１２號","OBJECTID":647628},"geometry":{"x":171523.75342300069,"y":2540163.9012410007}},{"attributes":{"ID":647656,"DIS_CODE":0,"TOWNNAME":"歸仁區","LI":"八甲里","LIN":"24鄰","STREET":"大德路","SECT":" ","MAREA":" ","LANE":"１２０巷","ALLEY":"２５弄","HOUSE_NO":"１９號","E_COORD97":178083.26966799999,"N_COORD97":2541402.4334,"ADDRESS":"大德路１２０巷２５弄１９號","OBJECTID":647629},"geometry":{"x":178083.26966799982,"y":2541402.4333990011}},{"attributes":{"ID":647657,"DIS_CODE":0,"TOWNNAME":"東山區","LI":"三榮里","LIN":"1鄰","STREET":" ","SECT":" ","MAREA":"許秀才","LANE":" ","ALLEY":" ","HOUSE_NO":"９之３號","E_COORD97":187091.046611,"N_COORD97":2579305.6654500002,"ADDRESS":"許秀才９之３號","OBJECTID":647630},"geometry":{"x":187091.04661100078,"y":2579305.6654509995}},{"attributes":{"ID":647658,"DIS_CODE":0,"TOWNNAME":"歸仁區","LI":"八甲里","LIN":"24鄰","STREET":"大德路","SECT":" ","MAREA":" ","LANE":"１２０巷","ALLEY":"２５弄","HOUSE_NO":"２１號","E_COORD97":178085.17647400001,"N_COORD97":2541399.4700699998,"ADDRESS":"大德路１２０巷２５弄２１號","OBJECTID":647631},"geometry":{"x":178085.17647400126,"y":2541399.470068004}},{"attributes":{"ID":647659,"DIS_CODE":0,"TOWNNAME":"東區","LI":"大智里","LIN":"40鄰","STREET":"永東街","SECT":" ","MAREA":" ","LANE":"１２２巷","ALLEY":" ","HOUSE_NO":"１６號","E_COORD97":171524.174937,"N_COORD97":2540169.3755700001,"ADDRESS":"永東街１２２巷１６號","OBJECTID":647632},"geometry":{"x":171524.1749370005,"y":2540169.3755699992}},{"attributes":{"ID":647660,"DIS_CODE":0,"TOWNNAME":"歸仁區","LI":"八甲里","LIN":"24鄰","STREET":"大德路","SECT":" ","MAREA":" ","LANE":"１２０巷","ALLEY":"２５弄","HOUSE_NO":"２３號","E_COORD97":178087.083281,"N_COORD97":2541396.5067400001,"ADDRESS":"大德路１２０巷２５弄２３號","OBJECTID":647633},"geometry":{"x":178087.08328100108,"y":2541396.506736001}},{"attributes":{"ID":647661,"DIS_CODE":0,"TOWNNAME":"歸仁區","LI":"八甲里","LIN":"24鄰","STREET":"大德路","SECT":" ","MAREA":" ","LANE":"１２０巷","ALLEY":"２５弄","HOUSE_NO":"２５號","E_COORD97":178088.99008799999,"N_COORD97":2541393.5433999998,"ADDRESS":"大德路１２０巷２５弄２５號","OBJECTID":647634},"geometry":{"x":178088.99008799996,"y":2541393.543403998}},{"attributes":{"ID":647662,"DIS_CODE":0,"TOWNNAME":"新營區","LI":"嘉芳里","LIN":"14鄰","STREET":"新工路","SECT":" ","MAREA":" ","LANE":" ","ALLEY":" ","HOUSE_NO":"７之１號","E_COORD97":176583.25164999999,"N_COORD97":2578620.7803500001,"ADDRESS":"新工路７之１號","OBJECTID":647635},"geometry":{"x":176583.25164999999,"y":2578620.7803470027}},{"attributes":{"ID":647663,"DIS_CODE":0,"TOWNNAME":"歸仁區","LI":"八甲里","LIN":"24鄰","STREET":"大德路","SECT":" ","MAREA":" ","LANE":"１２０巷","ALLEY":"２５弄","HOUSE_NO":"２７號","E_COORD97":178090.685027,"N_COORD97":2541391.0034099999,"ADDRESS":"大德路１２０巷２５弄２７號","OBJECTID":647636},"geometry":{"x":178090.68502700143,"y":2541391.0034059994}},{"attributes":{"ID":647664,"DIS_CODE":0,"TOWNNAME":"歸仁區","LI":"八甲里","LIN":"24鄰","STREET":"大德路","SECT":" ","MAREA":" ","LANE":"１２０巷","ALLEY":"２５弄","HOUSE_NO":"２９號","E_COORD97":178092.168099,"N_COORD97":2541387.8284100001,"ADDRESS":"大德路１２０巷２５弄２９號","OBJECTID":647637},"geometry":{"x":178092.16809900105,"y":2541387.8284070008}},{"attributes":{"ID":647665,"DIS_CODE":0,"TOWNNAME":"安南區","LI":"佃西里","LIN":"6鄰","STREET":"公學路","SECT":"四段","MAREA":" ","LANE":"１２６巷","ALLEY":" ","HOUSE_NO":"１３６之３號","E_COORD97":165222.48662499999,"N_COORD97":2551839.2403500001,"ADDRESS":"公學路四段１２６巷１３６之３號","OBJECTID":647638},"geometry":{"x":165222.4866249999,"y":2551839.2403460033}},{"attributes":{"ID":647666,"DIS_CODE":0,"TOWNNAME":"東區","LI":"大智里","LIN":"40鄰","STREET":"永東街","SECT":" ","MAREA":" ","LANE":"１２２巷","ALLEY":" ","HOUSE_NO":"１８號","E_COORD97":171523.858802,"N_COORD97":2540177.57277,"ADDRESS":"永東街１２２巷１８號","OBJECTID":647639},"geometry":{"x":171523.85880200099,"y":2540177.572767999}},{"attributes":{"ID":647667,"DIS_CODE":0,"TOWNNAME":"歸仁區","LI":"八甲里","LIN":"24鄰","STREET":"大德路","SECT":" ","MAREA":" ","LANE":"１２０巷","ALLEY":"２５弄","HOUSE_NO":"３１號","E_COORD97":178093.439304,"N_COORD97":2541384.8650799999,"ADDRESS":"大德路１２０巷２５弄３１號","OBJECTID":647640},"geometry":{"x":178093.4393040007,"y":2541384.8650760017}},{"attributes":{"ID":647668,"DIS_CODE":0,"TOWNNAME":"東區","LI":"大智里","LIN":"40鄰","STREET":"永東街","SECT":" ","MAREA":" ","LANE":"１２２巷","ALLEY":" ","HOUSE_NO":"２０號","E_COORD97":171521.961989,"N_COORD97":2540186.4301800001,"ADDRESS":"永東街１２２巷２０號","OBJECTID":647641},"geometry":{"x":171521.96198900137,"y":2540186.4301849995}},{"attributes":{"ID":647669,"DIS_CODE":0,"TOWNNAME":"麻豆區","LI":"新建里","LIN":"3鄰","STREET":"興民街","SECT":" ","MAREA":" ","LANE":" ","ALLEY":" ","HOUSE_NO":"４５號之１０","E_COORD97":172676.26955999999,"N_COORD97":2564945.9065999999,"ADDRESS":"興民街４５號之１０","OBJECTID":647642},"geometry":{"x":172676.26955999993,"y":2564945.9066000041}},{"attributes":{"ID":647670,"DIS_CODE":0,"TOWNNAME":"新營區","LI":"王公里","LIN":"2鄰","STREET":"義和街","SECT":" ","MAREA":" ","LANE":" ","ALLEY":" ","HOUSE_NO":"２５號之６","E_COORD97":180178.56454799999,"N_COORD97":2579024.2307500001,"ADDRESS":"義和街２５號之６","OBJECTID":647643},"geometry":{"x":180178.56454799976,"y":2579024.2307540011}},{"attributes":{"ID":647671,"DIS_CODE":0,"TOWNNAME":"麻豆區","LI":"新建里","LIN":"3鄰","STREET":"興民街","SECT":" ","MAREA":" ","LANE":" ","ALLEY":" ","HOUSE_NO":"４５號之１１","E_COORD97":172704.234566,"N_COORD97":2564945.4832799998,"ADDRESS":"興民街４５號之１１","OBJECTID":647644},"geometry":{"x":172704.23456600122,"y":2564945.483275}},{"attributes":{"ID":647672,"DIS_CODE":0,"TOWNNAME":"麻豆區","LI":"新建里","LIN":"3鄰","STREET":"興民街","SECT":" ","MAREA":" ","LANE":" ","ALLEY":" ","HOUSE_NO":"４５號之１２","E_COORD97":172700.421156,"N_COORD97":2564950.98661,"ADDRESS":"興民街４５號之１２","OBJECTID":647645},"geometry":{"x":172700.42115600035,"y":2564950.9866050016}},{"attributes":{"ID":647673,"DIS_CODE":0,"TOWNNAME":"新營區","LI":"王公里","LIN":"2鄰","STREET":"義和街","SECT":" ","MAREA":" ","LANE":" ","ALLEY":" ","HOUSE_NO":"２５號之４","E_COORD97":180187.51657199999,"N_COORD97":2579025.4610700002,"ADDRESS":"義和街２５號之４","OBJECTID":647646},"geometry":{"x":180187.51657200139,"y":2579025.4610660002}},{"attributes":{"ID":647674,"DIS_CODE":0,"TOWNNAME":"麻豆區","LI":"新建里","LIN":"3鄰","STREET":"興民街","SECT":" ","MAREA":" ","LANE":" ","ALLEY":" ","HOUSE_NO":"４５號之１３","E_COORD97":172696.81960300001,"N_COORD97":2564957.5482700001,"ADDRESS":"興民街４５號之１３","OBJECTID":647647},"geometry":{"x":172696.81960300077,"y":2564957.5482690018}},{"attributes":{"ID":647675,"DIS_CODE":0,"TOWNNAME":"麻豆區","LI":"新建里","LIN":"3鄰","STREET":"興民街","SECT":" ","MAREA":" ","LANE":" ","ALLEY":" ","HOUSE_NO":"４５號之１５","E_COORD97":172696.93183300001,"N_COORD97":2564966.1602400001,"ADDRESS":"興民街４５號之１５","OBJECTID":647648},"geometry":{"x":172696.93183299899,"y":2564966.1602390017}},{"attributes":{"ID":647676,"DIS_CODE":0,"TOWNNAME":"北區","LI":"大山里","LIN":"11鄰","STREET":"和緯路","SECT":"一段","MAREA":" ","LANE":" ","ALLEY":" ","HOUSE_NO":"１９９號","E_COORD97":169293.33181199999,"N_COORD97":2545619.4679899998,"ADDRESS":"和緯路一段１９９號","OBJECTID":647649},"geometry":{"x":169293.3318119999,"y":2545619.4679900035}},{"attributes":{"ID":647677,"DIS_CODE":0,"TOWNNAME":"北區","LI":"大山里","LIN":"11鄰","STREET":"和緯路","SECT":"一段","MAREA":" ","LANE":" ","ALLEY":" ","HOUSE_NO":"２０１號","E_COORD97":169288.03576,"N_COORD97":2545620.7379899998,"ADDRESS":"和緯路一段２０１號","OBJECTID":647650},"geometry":{"x":169288.03576000221,"y":2545620.7379890028}},{"attributes":{"ID":647678,"DIS_CODE":0,"TOWNNAME":"新營區","LI":"埤寮里","LIN":"5鄰","STREET":" ","SECT":" ","MAREA":"埤寮","LANE":" ","ALLEY":" ","HOUSE_NO":"４號之９","E_COORD97":180154.89970000001,"N_COORD97":2580963.4368599998,"ADDRESS":"埤寮４號之９","OBJECTID":647651},"geometry":{"x":180154.89970000088,"y":2580963.4368560016}},{"attributes":{"ID":647679,"DIS_CODE":0,"TOWNNAME":"新營區","LI":"中營里","LIN":"14鄰","STREET":"東山五路","SECT":" ","MAREA":" ","LANE":" ","ALLEY":" ","HOUSE_NO":"９８號","E_COORD97":181978.39729200001,"N_COORD97":2579047.6059500002,"ADDRESS":"東山五路９８號","OBJECTID":647652},"geometry":{"x":181978.39729200024,"y":2579047.6059500016}},{"attributes":{"ID":647680,"DIS_CODE":0,"TOWNNAME":"新營區","LI":"埤寮里","LIN":"5鄰","STREET":" ","SECT":" ","MAREA":"埤寮","LANE":" ","ALLEY":" ","HOUSE_NO":"６號之２","E_COORD97":180164.22406899999,"N_COORD97":2580961.74352,"ADDRESS":"埤寮６號之２","OBJECTID":647653},"geometry":{"x":180164.22406900115,"y":2580961.7435229979}},{"attributes":{"ID":647681,"DIS_CODE":0,"TOWNNAME":"歸仁區","LI":"八甲里","LIN":"25鄰","STREET":"大德路","SECT":" ","MAREA":" ","LANE":"１２０巷","ALLEY":"２５弄","HOUSE_NO":"２號","E_COORD97":178066.58503300001,"N_COORD97":2541416.7207399998,"ADDRESS":"大德路１２０巷２５弄２號","OBJECTID":647654},"geometry":{"x":178066.58503300138,"y":2541416.7207410038}},{"attributes":{"ID":647682,"DIS_CODE":0,"TOWNNAME":"東區","LI":"大智里","LIN":"12鄰","STREET":"德東街","SECT":" ","MAREA":" ","LANE":"１３６巷","ALLEY":" ","HOUSE_NO":"２６號","E_COORD97":171189.28216900001,"N_COORD97":2540171.7969,"ADDRESS":"德東街１３６巷２６號","OBJECTID":647655},"geometry":{"x":171189.28216900025,"y":2540171.7968990002}},{"attributes":{"ID":647683,"DIS_CODE":0,"TOWNNAME":"新營區","LI":"埤寮里","LIN":"5鄰","STREET":" ","SECT":" ","MAREA":"埤寮","LANE":" ","ALLEY":" ","HOUSE_NO":"７號之１３","E_COORD97":180175.45569599999,"N_COORD97":2581087.68512,"ADDRESS":"埤寮７號之１３","OBJECTID":647656},"geometry":{"x":180175.45569600072,"y":2581087.6851220019}},{"attributes":{"ID":647684,"DIS_CODE":0,"TOWNNAME":"歸仁區","LI":"八甲里","LIN":"25鄰","STREET":"大德路","SECT":" ","MAREA":" ","LANE":"１２０巷","ALLEY":"２５弄","HOUSE_NO":"６號","E_COORD97":178066.373165,"N_COORD97":2541411.21741,"ADDRESS":"大德路１２０巷２５弄６號","OBJECTID":647657},"geometry":{"x":178066.37316500116,"y":2541411.2174110003}},{"attributes":{"ID":647685,"DIS_CODE":0,"TOWNNAME":"歸仁區","LI":"八甲里","LIN":"25鄰","STREET":"大德路","SECT":" ","MAREA":" ","LANE":"１２０巷","ALLEY":"２５弄","HOUSE_NO":"８號","E_COORD97":178065.737563,"N_COORD97":2541405.0790800001,"ADDRESS":"大德路１２０巷２５弄８號","OBJECTID":647658},"geometry":{"x":178065.73756300099,"y":2541405.0790809989}},{"attributes":{"ID":647686,"DIS_CODE":0,"TOWNNAME":"東區","LI":"大智里","LIN":"28鄰","STREET":"德東街","SECT":" ","MAREA":" ","LANE":" ","ALLEY":" ","HOUSE_NO":"２８８號","E_COORD97":171522.77982500001,"N_COORD97":2540242.8433300001,"ADDRESS":"德東街２８８號","OBJECTID":647659},"geometry":{"x":171522.77982500009,"y":2540242.8433270045}},{"attributes":{"ID":647687,"DIS_CODE":0,"TOWNNAME":"麻豆區","LI":"大埕里","LIN":"6鄰","STREET":"博愛路","SECT":" ","MAREA":" ","LANE":" ","ALLEY":" ","HOUSE_NO":"４６號","E_COORD97":173315.185639,"N_COORD97":2565084.6296799998,"ADDRESS":"博愛路４６號","OBJECTID":647660},"geometry":{"x":173315.18563900143,"y":2565084.6296779998}},{"attributes":{"ID":647688,"DIS_CODE":0,"TOWNNAME":"東區","LI":"大智里","LIN":"28鄰","STREET":"德東街","SECT":" ","MAREA":" ","LANE":" ","ALLEY":" ","HOUSE_NO":"２９０號","E_COORD97":171527.44168600001,"N_COORD97":2540242.7374900002,"ADDRESS":"德東街２９０號","OBJECTID":647661},"geometry":{"x":171527.44168599974,"y":2540242.7374930028}},{"attributes":{"ID":647689,"DIS_CODE":0,"TOWNNAME":"新營區","LI":"埤寮里","LIN":"5鄰","STREET":" ","SECT":" ","MAREA":"埤寮","LANE":" ","ALLEY":" ","HOUSE_NO":"８之８號","E_COORD97":180194.952104,"N_COORD97":2581020.6926600002,"ADDRESS":"埤寮８之８號","OBJECTID":647662},"geometry":{"x":180194.95210399944,"y":2581020.6926580016}},{"attributes":{"ID":647690,"DIS_CODE":0,"TOWNNAME":"東區","LI":"大智里","LIN":"28鄰","STREET":"德東街","SECT":" ","MAREA":" ","LANE":" ","ALLEY":" ","HOUSE_NO":"２９２號","E_COORD97":171532.10354700001,"N_COORD97":2540242.63166,"ADDRESS":"德東街２９２號","OBJECTID":647663},"geometry":{"x":171532.10354700033,"y":2540242.6316600032}},{"attributes":{"ID":647691,"DIS_CODE":0,"TOWNNAME":"東區","LI":"大智里","LIN":"28鄰","STREET":"德東街","SECT":" ","MAREA":" ","LANE":" ","ALLEY":" ","HOUSE_NO":"２９６號","E_COORD97":171537.40111599999,"N_COORD97":2540242.2083299998,"ADDRESS":"德東街２９６號","OBJECTID":647664},"geometry":{"x":171537.40111600049,"y":2540242.2083269991}},{"attributes":{"ID":647692,"DIS_CODE":0,"TOWNNAME":"佳里區","LI":"子龍里","LIN":"21鄰","STREET":" ","SECT":" ","MAREA":"子良廟","LANE":" ","ALLEY":" ","HOUSE_NO":"２２２號之７","E_COORD97":168684.38080899999,"N_COORD97":2563516.06605,"ADDRESS":"子良廟２２２號之７","OBJECTID":647665},"geometry":{"x":168684.38080899976,"y":2563516.066050997}},{"attributes":{"ID":647693,"DIS_CODE":0,"TOWNNAME":"東區","LI":"大智里","LIN":"40鄰","STREET":"明東街","SECT":" ","MAREA":" ","LANE":" ","ALLEY":" ","HOUSE_NO":"４７號","E_COORD97":171539.36353500001,"N_COORD97":2540199.6568,"ADDRESS":"明東街４７號","OBJECTID":647666},"geometry":{"x":171539.36353500001,"y":2540199.6568050012}},{"attributes":{"ID":647694,"DIS_CODE":0,"TOWNNAME":"東區","LI":"大智里","LIN":"40鄰","STREET":"明東街","SECT":" ","MAREA":" ","LANE":" ","ALLEY":" ","HOUSE_NO":"４９號","E_COORD97":171534.62151500001,"N_COORD97":2540199.5515299998,"ADDRESS":"明東街４９號","OBJECTID":647667},"geometry":{"x":171534.6215150021,"y":2540199.5515300035}},{"attributes":{"ID":647695,"DIS_CODE":0,"TOWNNAME":"麻豆區","LI":"大埕里","LIN":"6鄰","STREET":"博愛路","SECT":" ","MAREA":" ","LANE":" ","ALLEY":" ","HOUSE_NO":"４２號之２","E_COORD97":173349.934324,"N_COORD97":2565058.3830200001,"ADDRESS":"博愛路４２號之２","OBJECTID":647668},"geometry":{"x":173349.93432400096,"y":2565058.3830249999}},{"attributes":{"ID":647696,"DIS_CODE":0,"TOWNNAME":"新營區","LI":"埤寮里","LIN":"6鄰","STREET":" ","SECT":" ","MAREA":"埤寮","LANE":" ","ALLEY":" ","HOUSE_NO":"１６號之１","E_COORD97":180350.287618,"N_COORD97":2580918.4577100002,"ADDRESS":"埤寮１６號之１","OBJECTID":647669},"geometry":{"x":180350.28761800099,"y":2580918.4577140007}},{"attributes":{"ID":647697,"DIS_CODE":0,"TOWNNAME":"東區","LI":"大智里","LIN":"40鄰","STREET":"明東街","SECT":" ","MAREA":" ","LANE":" ","ALLEY":" ","HOUSE_NO":"５１號","E_COORD97":171529.66873800001,"N_COORD97":2540199.6568,"ADDRESS":"明東街５１號","OBJECTID":647670},"geometry":{"x":171529.66873800103,"y":2540199.6568050012}},{"attributes":{"ID":647698,"DIS_CODE":0,"TOWNNAME":"東區","LI":"大智里","LIN":"40鄰","STREET":"明東街","SECT":" ","MAREA":" ","LANE":" ","ALLEY":" ","HOUSE_NO":"５３號","E_COORD97":171525.13747399999,"N_COORD97":2540199.7620799998,"ADDRESS":"明東街５３號","OBJECTID":647671},"geometry":{"x":171525.13747400045,"y":2540199.762081001}},{"attributes":{"ID":647699,"DIS_CODE":0,"TOWNNAME":"東區","LI":"大智里","LIN":"40鄰","STREET":"明東街","SECT":" ","MAREA":" ","LANE":" ","ALLEY":" ","HOUSE_NO":"５５號","E_COORD97":171519.97394,"N_COORD97":2540200.7095599999,"ADDRESS":"明東街５５號","OBJECTID":647672},"geometry":{"x":171519.97393999994,"y":2540200.7095570005}},{"attributes":{"ID":647700,"DIS_CODE":0,"TOWNNAME":"歸仁區","LI":"八甲里","LIN":"1鄰","STREET":"大德路","SECT":" ","MAREA":" ","LANE":" ","ALLEY":" ","HOUSE_NO":"６３６號","E_COORD97":177062.333464,"N_COORD97":2541565.4164900002,"ADDRESS":"大德路６３６號","OBJECTID":647673},"geometry":{"x":177062.33346400037,"y":2541565.4164940007}},{"attributes":{"ID":647701,"DIS_CODE":0,"TOWNNAME":"東區","LI":"大智里","LIN":"28鄰","STREET":"明東街","SECT":" ","MAREA":" ","LANE":" ","ALLEY":" ","HOUSE_NO":"６６號","E_COORD97":171539.67967000001,"N_COORD97":2540210.2895999998,"ADDRESS":"明東街６６號","OBJECTID":647674},"geometry":{"x":171539.67967000231,"y":2540210.2896010019}},{"attributes":{"ID":647702,"DIS_CODE":0,"TOWNNAME":"東區","LI":"大智里","LIN":"28鄰","STREET":"明東街","SECT":" ","MAREA":" ","LANE":" ","ALLEY":" ","HOUSE_NO":"６８號","E_COORD97":171535.569919,"N_COORD97":2540210.39488,"ADDRESS":"明東街６８號","OBJECTID":647675},"geometry":{"x":171535.56991900038,"y":2540210.3948760014}},{"attributes":{"ID":647703,"DIS_CODE":0,"TOWNNAME":"歸仁區","LI":"八甲里","LIN":"25鄰","STREET":"大仁五街","SECT":" ","MAREA":" ","LANE":" ","ALLEY":" ","HOUSE_NO":"４９號","E_COORD97":178071.88171799999,"N_COORD97":2541434.7124000001,"ADDRESS":"大仁五街４９號","OBJECTID":647676},"geometry":{"x":178071.8817180004,"y":2541434.7123980019}},{"attributes":{"ID":647704,"DIS_CODE":0,"TOWNNAME":"東區","LI":"大智里","LIN":"28鄰","STREET":"明東街","SECT":" ","MAREA":" ","LANE":" ","ALLEY":" ","HOUSE_NO":"７０號","E_COORD97":171530.82789799999,"N_COORD97":2540210.0790499998,"ADDRESS":"明東街７０號","OBJECTID":647677},"geometry":{"x":171530.82789800037,"y":2540210.0790509991}},{"attributes":{"ID":647705,"DIS_CODE":0,"TOWNNAME":"東區","LI":"大智里","LIN":"28鄰","STREET":"明東街","SECT":" ","MAREA":" ","LANE":" ","ALLEY":" ","HOUSE_NO":"７２號","E_COORD97":171440.518752,"N_COORD97":2540192.7086399999,"ADDRESS":"明東街７２號","OBJECTID":647678},"geometry":{"x":171440.51875200216,"y":2540192.7086420022}},{"attributes":{"ID":647706,"DIS_CODE":0,"TOWNNAME":"北門區","LI":"東壁里","LIN":"12鄰","STREET":" ","SECT":" ","MAREA":"蚵寮","LANE":" ","ALLEY":" ","HOUSE_NO":"６９９號","E_COORD97":162119.490529,"N_COORD97":2576373.1959299999,"ADDRESS":"蚵寮６９９號","OBJECTID":647679},"geometry":{"x":162119.49052900076,"y":2576373.1959280018}},{"attributes":{"ID":647707,"DIS_CODE":0,"TOWNNAME":"東區","LI":"大智里","LIN":"28鄰","STREET":"明東街","SECT":" ","MAREA":" ","LANE":" ","ALLEY":" ","HOUSE_NO":"７６號","E_COORD97":171526.612769,"N_COORD97":2540210.5001500002,"ADDRESS":"明東街７６號","OBJECTID":647680},"geometry":{"x":171526.61276900116,"y":2540210.5001519993}},{"attributes":{"ID":647708,"DIS_CODE":0,"TOWNNAME":"東區","LI":"大智里","LIN":"28鄰","STREET":"明東街","SECT":" ","MAREA":" ","LANE":" ","ALLEY":" ","HOUSE_NO":"７８號","E_COORD97":171520.60621,"N_COORD97":2540209.9737800001,"ADDRESS":"明東街７８號","OBJECTID":647681},"geometry":{"x":171520.60621000081,"y":2540209.9737759996}},{"attributes":{"ID":647709,"DIS_CODE":0,"TOWNNAME":"仁德區","LI":"上崙里","LIN":"11鄰","STREET":"德善路","SECT":" ","MAREA":" ","LANE":" ","ALLEY":" ","HOUSE_NO":"４７９號","E_COORD97":174052.07329100001,"N_COORD97":2538140.8709100001,"ADDRESS":"德善路４７９號","OBJECTID":647682},"geometry":{"x":174052.07329099998,"y":2538140.8709079996}},{"attributes":{"ID":647710,"DIS_CODE":0,"TOWNNAME":"後壁區","LI":"頂長里","LIN":"3鄰","STREET":" ","SECT":" ","MAREA":"長短樹","LANE":" ","ALLEY":" ","HOUSE_NO":"１６號之２附１","E_COORD97":181492.37448,"N_COORD97":2584924.4473600001,"ADDRESS":"長短樹１６號之２附１","OBJECTID":647683},"geometry":{"x":181492.3744800007,"y":2584924.4473630004}},{"attributes":{"ID":647711,"DIS_CODE":0,"TOWNNAME":"東區","LI":"大智里","LIN":"40鄰","STREET":"信東街","SECT":" ","MAREA":" ","LANE":" ","ALLEY":" ","HOUSE_NO":"９號","E_COORD97":171535.88605299999,"N_COORD97":2540171.7588800001,"ADDRESS":"信東街９號","OBJECTID":647684},"geometry":{"x":171535.88605299965,"y":2540171.7588759996}},{"attributes":{"ID":647712,"DIS_CODE":0,"TOWNNAME":"北門區","LI":"東壁里","LIN":"12鄰","STREET":" ","SECT":" ","MAREA":"蚵寮","LANE":" ","ALLEY":" ","HOUSE_NO":"７１６號","E_COORD97":161777.61627200001,"N_COORD97":2576317.2630400001,"ADDRESS":"蚵寮７１６號","OBJECTID":647685},"geometry":{"x":161777.6162720006,"y":2576317.2630410008}},{"attributes":{"ID":647713,"DIS_CODE":0,"TOWNNAME":"歸仁區","LI":"媽廟里","LIN":"1鄰","STREET":"中正北路","SECT":"三段","MAREA":" ","LANE":"３５巷","ALLEY":" ","HOUSE_NO":"２６號","E_COORD97":177360.00718799999,"N_COORD97":2543456.55131,"ADDRESS":"中正北路三段３５巷２６號","OBJECTID":647686},"geometry":{"x":177360.00718799885,"y":2543456.5513060037}},{"attributes":{"ID":647714,"DIS_CODE":0,"TOWNNAME":"北門區","LI":"東壁里","LIN":"12鄰","STREET":" ","SECT":" ","MAREA":"蚵寮","LANE":" ","ALLEY":" ","HOUSE_NO":"７１７號","E_COORD97":161772.31507400001,"N_COORD97":2576316.83971,"ADDRESS":"蚵寮７１７號","OBJECTID":647687},"geometry":{"x":161772.31507400144,"y":2576316.8397080023}},{"attributes":{"ID":647715,"DIS_CODE":0,"TOWNNAME":"歸仁區","LI":"媽廟里","LIN":"27鄰","STREET":"保大路","SECT":"一段","MAREA":" ","LANE":"１５２巷","ALLEY":"１５８弄","HOUSE_NO":"１５號","E_COORD97":177596.451229,"N_COORD97":2545702.4392599999,"ADDRESS":"保大路一段１５２巷１５８弄１５號","OBJECTID":647688},"geometry":{"x":177596.4512290014,"y":2545702.4392600022}},{"attributes":{"ID":647716,"DIS_CODE":0,"TOWNNAME":"東區","LI":"仁和里","LIN":"8鄰","STREET":"仁和路","SECT":" ","MAREA":" ","LANE":"１０９巷","ALLEY":"１３５弄","HOUSE_NO":"５號","E_COORD97":171722.863377,"N_COORD97":2541359.3929699999,"ADDRESS":"仁和路１０９巷１３５弄５號","OBJECTID":647689},"geometry":{"x":171722.86337700021,"y":2541359.3929719999}},{"attributes":{"ID":647717,"DIS_CODE":0,"TOWNNAME":"歸仁區","LI":"媽廟里","LIN":"27鄰","STREET":"保大路","SECT":"一段","MAREA":" ","LANE":"１５２巷","ALLEY":"１５８弄","HOUSE_NO":"２７號","E_COORD97":177785.22510000001,"N_COORD97":2545680.2142699999,"ADDRESS":"保大路一段１５２巷１５８弄２７號","OBJECTID":647690},"geometry":{"x":177785.22510000225,"y":2545680.2142720018}},{"attributes":{"ID":647718,"DIS_CODE":0,"TOWNNAME":"東區","LI":"仁和里","LIN":"8鄰","STREET":"仁和路","SECT":" ","MAREA":" ","LANE":"１０９巷","ALLEY":"１３５弄","HOUSE_NO":"６號","E_COORD97":171735.40351199999,"N_COORD97":2541349.8128300002,"ADDRESS":"仁和路１０９巷１３５弄６號","OBJECTID":647691},"geometry":{"x":171735.40351200104,"y":2541349.8128320035}},{"attributes":{"ID":647719,"DIS_CODE":0,"TOWNNAME":"東區","LI":"仁和里","LIN":"8鄰","STREET":"仁和路","SECT":" ","MAREA":" ","LANE":"１０９巷","ALLEY":"１３５弄","HOUSE_NO":"７號","E_COORD97":171717.383654,"N_COORD97":2541359.18242,"ADDRESS":"仁和路１０９巷１３５弄７號","OBJECTID":647692},"geometry":{"x":171717.38365400117,"y":2541359.1824189983}},{"attributes":{"ID":647720,"DIS_CODE":0,"TOWNNAME":"東區","LI":"仁和里","LIN":"8鄰","STREET":"仁和路","SECT":" ","MAREA":" ","LANE":"１０９巷","ALLEY":"１３５弄","HOUSE_NO":"８號","E_COORD97":171737.30033900001,"N_COORD97":2541355.91885,"ADDRESS":"仁和路１０９巷１３５弄８號","OBJECTID":647693},"geometry":{"x":171737.3003390003,"y":2541355.9188550021}},{"attributes":{"ID":647721,"DIS_CODE":0,"TOWNNAME":"東區","LI":"仁和里","LIN":"8鄰","STREET":"仁和路","SECT":" ","MAREA":" ","LANE":"１０９巷","ALLEY":"１３５弄","HOUSE_NO":"９號","E_COORD97":171711.06089600001,"N_COORD97":2541358.97187,"ADDRESS":"仁和路１０９巷１３５弄９號","OBJECTID":647694},"geometry":{"x":171711.06089600082,"y":2541358.9718670025}},{"attributes":{"ID":647722,"DIS_CODE":0,"TOWNNAME":"東區","LI":"和平里","LIN":"24鄰","STREET":"仁和路","SECT":" ","MAREA":" ","LANE":"１０９巷","ALLEY":"１３５弄","HOUSE_NO":"１６號","E_COORD97":171735.19275300001,"N_COORD97":2541374.0263700001,"ADDRESS":"仁和路１０９巷１３５弄１６號","OBJECTID":647695},"geometry":{"x":171735.19275300018,"y":2541374.0263720006}},{"attributes":{"ID":647723,"DIS_CODE":0,"TOWNNAME":"北門區","LI":"東壁里","LIN":"14鄰","STREET":" ","SECT":" ","MAREA":"蚵寮","LANE":" ","ALLEY":" ","HOUSE_NO":"７４８號","E_COORD97":161662.156181,"N_COORD97":2576280.9622300002,"ADDRESS":"蚵寮７４８號","OBJECTID":647696},"geometry":{"x":161662.1561810011,"y":2576280.9622270018}},{"attributes":{"ID":647724,"DIS_CODE":0,"TOWNNAME":"東區","LI":"和平里","LIN":"24鄰","STREET":"仁和路","SECT":" ","MAREA":" ","LANE":"１０９巷","ALLEY":"１３５弄","HOUSE_NO":"２６號","E_COORD97":171735.087374,"N_COORD97":2541403.6090000002,"ADDRESS":"仁和路１０９巷１３５弄２６號","OBJECTID":647697},"geometry":{"x":171735.08737399988,"y":2541403.6090010013}},{"attributes":{"ID":647725,"DIS_CODE":0,"TOWNNAME":"東區","LI":"和平里","LIN":"24鄰","STREET":"仁和路","SECT":" ","MAREA":" ","LANE":"１０９巷","ALLEY":"１３５弄","HOUSE_NO":"２８號","E_COORD97":171732.87440900001,"N_COORD97":2541415.0841100002,"ADDRESS":"仁和路１０９巷１３５弄２８號","OBJECTID":647698},"geometry":{"x":171732.87440900132,"y":2541415.0841129981}},{"attributes":{"ID":647726,"DIS_CODE":0,"TOWNNAME":"東區","LI":"和平里","LIN":"24鄰","STREET":"仁和路","SECT":" ","MAREA":" ","LANE":"１０９巷","ALLEY":"１３５弄","HOUSE_NO":"３０號","E_COORD97":171737.19495999999,"N_COORD97":2541415.18939,"ADDRESS":"仁和路１０９巷１３５弄３０號","OBJECTID":647699},"geometry":{"x":171737.19495999999,"y":2541415.1893890016}},{"attributes":{"ID":647727,"DIS_CODE":0,"TOWNNAME":"東區","LI":"和平里","LIN":"24鄰","STREET":"仁和路","SECT":" ","MAREA":" ","LANE":"１０９巷","ALLEY":"１３５弄","HOUSE_NO":"３２號","E_COORD97":171741.304752,"N_COORD97":2541415.5052200002,"ADDRESS":"仁和路１０９巷１３５弄３２號","OBJECTID":647700},"geometry":{"x":171741.30475199968,"y":2541415.5052180011}},{"attributes":{"ID":647728,"DIS_CODE":0,"TOWNNAME":"東區","LI":"和平里","LIN":"24鄰","STREET":"仁和路","SECT":" ","MAREA":" ","LANE":"１０９巷","ALLEY":"１３５弄","HOUSE_NO":"３６號","E_COORD97":171741.19937300001,"N_COORD97":2541428.8753,"ADDRESS":"仁和路１０９巷１３５弄３６號","OBJECTID":647701},"geometry":{"x":171741.19937300123,"y":2541428.8753030002}},{"attributes":{"ID":647729,"DIS_CODE":0,"TOWNNAME":"東區","LI":"和平里","LIN":"24鄰","STREET":"仁和路","SECT":" ","MAREA":" ","LANE":"１０９巷","ALLEY":"１３５弄","HOUSE_NO":"３８號","E_COORD97":171737.30033900001,"N_COORD97":2541429.1911300002,"ADDRESS":"仁和路１０９巷１３５弄３８號","OBJECTID":647702},"geometry":{"x":171737.3003390003,"y":2541429.1911309995}},{"attributes":{"ID":647730,"DIS_CODE":0,"TOWNNAME":"東區","LI":"和平里","LIN":"24鄰","STREET":"仁和路","SECT":" ","MAREA":" ","LANE":"１０９巷","ALLEY":"１３５弄","HOUSE_NO":"４０號","E_COORD97":171732.13675400001,"N_COORD97":2541429.29641,"ADDRESS":"仁和路１０９巷１３５弄４０號","OBJECTID":647703},"geometry":{"x":171732.13675399963,"y":2541429.2964080013}},{"attributes":{"ID":647731,"DIS_CODE":0,"TOWNNAME":"東區","LI":"和平里","LIN":"24鄰","STREET":"仁和路","SECT":" ","MAREA":" ","LANE":"１０９巷","ALLEY":"１３５弄","HOUSE_NO":"４２號","E_COORD97":171732.03137499999,"N_COORD97":2541441.4031799999,"ADDRESS":"仁和路１０９巷１３５弄４２號","OBJECTID":647704},"geometry":{"x":171732.03137500025,"y":2541441.4031770043}},{"attributes":{"ID":647732,"DIS_CODE":0,"TOWNNAME":"東區","LI":"和平里","LIN":"24鄰","STREET":"仁和路","SECT":" ","MAREA":" ","LANE":"１０９巷","ALLEY":"１３５弄","HOUSE_NO":"４６號","E_COORD97":171732.13675400001,"N_COORD97":2541450.3516600002,"ADDRESS":"仁和路１０９巷１３５弄４６號","OBJECTID":647705},"geometry":{"x":171732.13675399963,"y":2541450.3516590018}},{"attributes":{"ID":647733,"DIS_CODE":0,"TOWNNAME":"東區","LI":"和平里","LIN":"24鄰","STREET":"仁和路","SECT":" ","MAREA":" ","LANE":"１０９巷","ALLEY":"１３５弄","HOUSE_NO":"５０號","E_COORD97":171731.82061600001,"N_COORD97":2541458.66848,"ADDRESS":"仁和路１０９巷１３５弄５０號","OBJECTID":647706},"geometry":{"x":171731.8206159994,"y":2541458.6684840024}},{"attributes":{"ID":647734,"DIS_CODE":0,"TOWNNAME":"仁德區","LI":"大甲里","LIN":"20鄰","STREET":"中正西路","SECT":" ","MAREA":" ","LANE":"４５８巷","ALLEY":" ","HOUSE_NO":"３７號","E_COORD97":169437.70483500001,"N_COORD97":2535557.9652100001,"ADDRESS":"中正西路４５８巷３７號","OBJECTID":647707},"geometry":{"x":169437.70483500231,"y":2535557.9652120024}},{"attributes":{"ID":647735,"DIS_CODE":0,"TOWNNAME":"仁德區","LI":"大甲里","LIN":"20鄰","STREET":"中正西路","SECT":" ","MAREA":" ","LANE":"４５８巷","ALLEY":" ","HOUSE_NO":"３９號","E_COORD97":169440.88420500001,"N_COORD97":2535557.5418799999,"ADDRESS":"中正西路４５８巷３９號","OBJECTID":647708},"geometry":{"x":169440.88420500141,"y":2535557.5418790039}},{"attributes":{"ID":647736,"DIS_CODE":0,"TOWNNAME":"仁德區","LI":"大甲里","LIN":"20鄰","STREET":"中正西路","SECT":" ","MAREA":" ","LANE":"４５８巷","ALLEY":" ","HOUSE_NO":"４１號","E_COORD97":169443.957597,"N_COORD97":2535556.1660500001,"ADDRESS":"中正西路４５８巷４１號","OBJECTID":647709},"geometry":{"x":169443.95759699959,"y":2535556.1660470031}},{"attributes":{"ID":647737,"DIS_CODE":0,"TOWNNAME":"仁德區","LI":"大甲里","LIN":"13鄰","STREET":"行大街","SECT":" ","MAREA":" ","LANE":" ","ALLEY":" ","HOUSE_NO":"３５５號","E_COORD97":169592.434198,"N_COORD97":2535192.0995800002,"ADDRESS":"行大街３５５號","OBJECTID":647710},"geometry":{"x":169592.43419799954,"y":2535192.0995770004}},{"attributes":{"ID":647738,"DIS_CODE":0,"TOWNNAME":"後壁區","LI":"烏樹里","LIN":"13鄰","STREET":" ","SECT":" ","MAREA":"烏樹林","LANE":" ","ALLEY":" ","HOUSE_NO":"４６６號（農業設施不","E_COORD97":186721.621304,"N_COORD97":2582945.0482299998,"ADDRESS":"烏樹林４６６號（農業設施不得作為設籍使用）","OBJECTID":647711},"geometry":{"x":186721.62130400073,"y":2582945.0482340008}},{"attributes":{"ID":647739,"DIS_CODE":0,"TOWNNAME":"善化區","LI":"胡厝里","LIN":"21鄰","STREET":"興農路","SECT":" ","MAREA":" ","LANE":" ","ALLEY":" ","HOUSE_NO":"４５９號","E_COORD97":175140.08603199999,"N_COORD97":2558894.7358400002,"ADDRESS":"興農路４５９號","OBJECTID":647712},"geometry":{"x":175140.08603200223,"y":2558894.735836003}},{"attributes":{"ID":647740,"DIS_CODE":0,"TOWNNAME":"中西區","LI":"郡西里","LIN":"13鄰","STREET":"大仁街","SECT":" ","MAREA":" ","LANE":" ","ALLEY":" ","HOUSE_NO":"１８號","E_COORD97":167455.94508999999,"N_COORD97":2543415.45261,"ADDRESS":"大仁街１８號","OBJECTID":647713},"geometry":{"x":167455.94509000052,"y":2543415.4526130017}},{"attributes":{"ID":647741,"DIS_CODE":0,"TOWNNAME":"中西區","LI":"郡西里","LIN":"14鄰","STREET":"保安路","SECT":" ","MAREA":" ","LANE":" ","ALLEY":" ","HOUSE_NO":"１２９號","E_COORD97":167447.04479700001,"N_COORD97":2543465.6175899999,"ADDRESS":"保安路１２９號","OBJECTID":647714},"geometry":{"x":167447.04479700141,"y":2543465.6175860018}},{"attributes":{"ID":647742,"DIS_CODE":0,"TOWNNAME":"中西區","LI":"郡西里","LIN":"14鄰","STREET":"保安路","SECT":" ","MAREA":" ","LANE":" ","ALLEY":" ","HOUSE_NO":"１２７號","E_COORD97":167449.79964899999,"N_COORD97":2543463.9242500002,"ADDRESS":"保安路１２７號","OBJECTID":647715},"geometry":{"x":167449.7996490011,"y":2543463.9242529999}},{"attributes":{"ID":647743,"DIS_CODE":0,"TOWNNAME":"中西區","LI":"郡西里","LIN":"14鄰","STREET":"保安路","SECT":" ","MAREA":" ","LANE":" ","ALLEY":" ","HOUSE_NO":"１２３號","E_COORD97":167455.94508999999,"N_COORD97":2543463.1834200001,"ADDRESS":"保安路１２３號","OBJECTID":647716},"geometry":{"x":167455.94509000052,"y":2543463.1834200043}},{"attributes":{"ID":647744,"DIS_CODE":0,"TOWNNAME":"中西區","LI":"郡西里","LIN":"14鄰","STREET":"保安路","SECT":" ","MAREA":" ","LANE":"１２５巷","ALLEY":" ","HOUSE_NO":"１號","E_COORD97":167452.34258999999,"N_COORD97":2543457.0450900001,"ADDRESS":"保安路１２５巷１號","OBJECTID":647717},"geometry":{"x":167452.34259000048,"y":2543457.0450900011}},{"attributes":{"ID":647745,"DIS_CODE":0,"TOWNNAME":"中西區","LI":"郡西里","LIN":"14鄰","STREET":"保安路","SECT":" ","MAREA":" ","LANE":"１２５巷","ALLEY":" ","HOUSE_NO":"３號","E_COORD97":167452.97832600001,"N_COORD97":2543453.4467600002,"ADDRESS":"保安路１２５巷３號","OBJECTID":647718},"geometry":{"x":167452.9783260012,"y":2543453.4467590041}},{"attributes":{"ID":647746,"DIS_CODE":0,"TOWNNAME":"中西區","LI":"郡西里","LIN":"14鄰","STREET":"保安路","SECT":" ","MAREA":" ","LANE":"１２５巷","ALLEY":" ","HOUSE_NO":"５號","E_COORD97":167455.09744300001,"N_COORD97":2543450.48343,"ADDRESS":"保安路１２５巷５號","OBJECTID":647719},"geometry":{"x":167455.09744299948,"y":2543450.4834270012}},{"attributes":{"ID":647747,"DIS_CODE":0,"TOWNNAME":"中西區","LI":"郡西里","LIN":"14鄰","STREET":"保安路","SECT":" ","MAREA":" ","LANE":" ","ALLEY":" ","HOUSE_NO":"１３９號","E_COORD97":167418.22479899999,"N_COORD97":2543471.6500800001,"ADDRESS":"保安路１３９號","OBJECTID":647720},"geometry":{"x":167418.22479899973,"y":2543471.6500819996}},{"attributes":{"ID":647748,"DIS_CODE":0,"TOWNNAME":"安南區","LI":"四草里","LIN":"1鄰","STREET":"北汕尾一路","SECT":" ","MAREA":" ","LANE":"５３０巷","ALLEY":" ","HOUSE_NO":"１６９號","E_COORD97":160195.425208,"N_COORD97":2547036.8830499998,"ADDRESS":"北汕尾一路５３０巷１６９號","OBJECTID":647721},"geometry":{"x":160195.42520800047,"y":2547036.8830459993}},{"attributes":{"ID":647749,"DIS_CODE":0,"TOWNNAME":"麻豆區","LI":"新建里","LIN":"7鄰","STREET":"新生南路","SECT":" ","MAREA":" ","LANE":" ","ALLEY":" ","HOUSE_NO":"６３號之１","E_COORD97":172336.98837199999,"N_COORD97":2564759.5736799999,"ADDRESS":"新生南路６３號之１","OBJECTID":647722},"geometry":{"x":172336.98837199993,"y":2564759.5736839995}},{"attributes":{"ID":647750,"DIS_CODE":0,"TOWNNAME":"仁德區","LI":"仁愛里","LIN":"20鄰","STREET":" ","SECT":" ","MAREA":"仁愛","LANE":" ","ALLEY":" ","HOUSE_NO":"４２７號","E_COORD97":170094.51934999999,"N_COORD97":2540148.62744,"ADDRESS":"仁愛４２７號","OBJECTID":647723},"geometry":{"x":170094.51935000066,"y":2540148.6274439991}},{"attributes":{"ID":647751,"DIS_CODE":0,"TOWNNAME":"仁德區","LI":"仁愛里","LIN":"20鄰","STREET":" ","SECT":" ","MAREA":"仁愛","LANE":" ","ALLEY":" ","HOUSE_NO":"４２８號","E_COORD97":170103.62995900001,"N_COORD97":2540148.7332799998,"ADDRESS":"仁愛４２８號","OBJECTID":647724},"geometry":{"x":170103.62995900121,"y":2540148.7332770005}},{"attributes":{"ID":647752,"DIS_CODE":0,"TOWNNAME":"新營區","LI":"新東里","LIN":"14鄰","STREET":"東學路","SECT":" ","MAREA":" ","LANE":" ","ALLEY":" ","HOUSE_NO":"１４６號","E_COORD97":181135.13172599999,"N_COORD97":2579363.9059799998,"ADDRESS":"東學路１４６號","OBJECTID":647725},"geometry":{"x":181135.13172600139,"y":2579363.9059790019}},{"attributes":{"ID":647753,"DIS_CODE":0,"TOWNNAME":"仁德區","LI":"仁愛里","LIN":"20鄰","STREET":" ","SECT":" ","MAREA":"仁愛","LANE":" ","ALLEY":" ","HOUSE_NO":"４１７號","E_COORD97":170118.99087099999,"N_COORD97":2540176.8849300002,"ADDRESS":"仁愛４１７號","OBJECTID":647726},"geometry":{"x":170118.99087100103,"y":2540176.8849290013}},{"attributes":{"ID":647754,"DIS_CODE":0,"TOWNNAME":"新營區","LI":"新東里","LIN":"14鄰","STREET":"東學路","SECT":" ","MAREA":" ","LANE":"１４８巷","ALLEY":"２弄","HOUSE_NO":"２號","E_COORD97":181135.97925500001,"N_COORD97":2579334.2726599998,"ADDRESS":"東學路１４８巷２弄２號","OBJECTID":647727},"geometry":{"x":181135.97925500106,"y":2579334.2726610005}},{"attributes":{"ID":647755,"DIS_CODE":0,"TOWNNAME":"麻豆區","LI":"南勢里","LIN":"9鄰","STREET":" ","SECT":" ","MAREA":"\u25A0帝\u25A0","LANE":" ","ALLEY":" ","HOUSE_NO":"８２號之１","E_COORD97":174402.58043900001,"N_COORD97":2565624.7086499999,"ADDRESS":"\u25A0帝\u25A0８２號之１","OBJECTID":647728},"geometry":{"x":174402.58043900039,"y":2565624.708649002}},{"attributes":{"ID":647756,"DIS_CODE":0,"TOWNNAME":"永康區","LI":"埔園里","LIN":"31鄰","STREET":"八德街","SECT":" ","MAREA":" ","LANE":"３００巷","ALLEY":"１弄","HOUSE_NO":"２號","E_COORD97":173678.290534,"N_COORD97":2548623.19704,"ADDRESS":"八德街３００巷１弄２號","OBJECTID":647729},"geometry":{"x":173678.29053399991,"y":2548623.1970450003}},{"attributes":{"ID":647757,"DIS_CODE":0,"TOWNNAME":"永康區","LI":"埔園里","LIN":"31鄰","STREET":"八德街","SECT":" ","MAREA":" ","LANE":"３００巷","ALLEY":"１弄","HOUSE_NO":"３號","E_COORD97":173674.051508,"N_COORD97":2548613.0370499999,"ADDRESS":"八德街３００巷１弄３號","OBJECTID":647730},"geometry":{"x":173674.05150800012,"y":2548613.0370510016}},{"attributes":{"ID":647758,"DIS_CODE":0,"TOWNNAME":"永康區","LI":"埔園里","LIN":"31鄰","STREET":"八德街","SECT":" ","MAREA":" ","LANE":"３００巷","ALLEY":"２弄","HOUSE_NO":"３號","E_COORD97":173696.09444300001,"N_COORD97":2548623.19704,"ADDRESS":"八德街３００巷２弄３號","OBJECTID":647731},"geometry":{"x":173696.09444300178,"y":2548623.1970450003}},{"attributes":{"ID":647759,"DIS_CODE":0,"TOWNNAME":"永康區","LI":"埔園里","LIN":"31鄰","STREET":"八德街","SECT":" ","MAREA":" ","LANE":"３００巷","ALLEY":"１弄","HOUSE_NO":"５號","E_COORD97":173670.448336,"N_COORD97":2548614.0953799998,"ADDRESS":"八德街３００巷１弄５號","OBJECTID":647732},"geometry":{"x":173670.44833600149,"y":2548614.0953830015}},{"attributes":{"ID":647760,"DIS_CODE":0,"TOWNNAME":"永康區","LI":"埔園里","LIN":"31鄰","STREET":"八德街","SECT":" ","MAREA":" ","LANE":"３００巷","ALLEY":"２弄","HOUSE_NO":"５號","E_COORD97":173698.425907,"N_COORD97":2548622.98538,"ADDRESS":"八德街３００巷２弄５號","OBJECTID":647733},"geometry":{"x":173698.4259070009,"y":2548622.9853780046}},{"attributes":{"ID":647761,"DIS_CODE":0,"TOWNNAME":"山上區","LI":"山上里","LIN":"1鄰","STREET":" ","SECT":" ","MAREA":"山上","LANE":" ","ALLEY":" ","HOUSE_NO":"３６號（臺南市山上區","E_COORD97":184251.521377,"N_COORD97":2555389.52201,"ADDRESS":"山上３６號（臺南市山上區戶政事務所）","OBJECTID":647734},"geometry":{"x":184251.52137700189,"y":2555389.5220049992}},{"attributes":{"ID":647762,"DIS_CODE":0,"TOWNNAME":"仁德區","LI":"大甲里","LIN":"20鄰","STREET":"中正西路","SECT":" ","MAREA":" ","LANE":"４５８巷","ALLEY":" ","HOUSE_NO":"１２３號","E_COORD97":169516.553223,"N_COORD97":2535690.3626399999,"ADDRESS":"中正西路４５８巷１２３號","OBJECTID":647735},"geometry":{"x":169516.55322299991,"y":2535690.3626409993}},{"attributes":{"ID":647763,"DIS_CODE":0,"TOWNNAME":"仁德區","LI":"大甲里","LIN":"20鄰","STREET":"中正西路","SECT":" ","MAREA":" ","LANE":"４５８巷","ALLEY":"３３弄","HOUSE_NO":"１３號","E_COORD97":169385.56315900001,"N_COORD97":2535579.2376999999,"ADDRESS":"中正西路４５８巷３３弄１３號","OBJECTID":647736},"geometry":{"x":169385.56315900013,"y":2535579.2377010006}},{"attributes":{"ID":647764,"DIS_CODE":0,"TOWNNAME":"仁德區","LI":"仁愛里","LIN":"20鄰","STREET":" ","SECT":" ","MAREA":"仁愛","LANE":" ","ALLEY":" ","HOUSE_NO":"４００號","E_COORD97":170129.372729,"N_COORD97":2540192.0190900001,"ADDRESS":"仁愛４００號","OBJECTID":647737},"geometry":{"x":170129.3727289997,"y":2540192.0190870017}},{"attributes":{"ID":647765,"DIS_CODE":0,"TOWNNAME":"仁德區","LI":"仁愛里","LIN":"20鄰","STREET":" ","SECT":" ","MAREA":"仁愛","LANE":" ","ALLEY":" ","HOUSE_NO":"３９９號","E_COORD97":170133.1335,"N_COORD97":2540194.0828300002,"ADDRESS":"仁愛３９９號","OBJECTID":647738},"geometry":{"x":170133.13350000046,"y":2540194.0828300007}},{"attributes":{"ID":647766,"DIS_CODE":0,"TOWNNAME":"仁德區","LI":"仁愛里","LIN":"20鄰","STREET":" ","SECT":" ","MAREA":"仁愛","LANE":" ","ALLEY":" ","HOUSE_NO":"３９５號","E_COORD97":170158.24064,"N_COORD97":2540182.5469999998,"ADDRESS":"仁愛３９５號","OBJECTID":647739},"geometry":{"x":170158.24063999951,"y":2540182.547000004}},{"attributes":{"ID":647767,"DIS_CODE":0,"TOWNNAME":"山上區","LI":"山上里","LIN":"15鄰","STREET":" ","SECT":" ","MAREA":"山上","LANE":" ","ALLEY":" ","HOUSE_NO":"２２６之１號","E_COORD97":184063.59497500001,"N_COORD97":2555693.8985100002,"ADDRESS":"山上２２６之１號","OBJECTID":647740},"geometry":{"x":184063.59497500118,"y":2555693.898508003}},{"attributes":{"ID":647768,"DIS_CODE":0,"TOWNNAME":"新營區","LI":"新東里","LIN":"14鄰","STREET":"東學路","SECT":" ","MAREA":" ","LANE":" ","ALLEY":" ","HOUSE_NO":"１２２號","E_COORD97":181039.95521700001,"N_COORD97":2579364.0118100001,"ADDRESS":"東學路１２２號","OBJECTID":647741},"geometry":{"x":181039.9552170001,"y":2579364.0118119996}},{"attributes":{"ID":647769,"DIS_CODE":0,"TOWNNAME":"新營區","LI":"新東里","LIN":"27鄰","STREET":"東光街","SECT":" ","MAREA":" ","LANE":"１９巷","ALLEY":" ","HOUSE_NO":"１號","E_COORD97":180608.13925099999,"N_COORD97":2579580.8641900001,"ADDRESS":"東光街１９巷１號","OBJECTID":647742},"geometry":{"x":180608.13925100118,"y":2579580.8641950004}},{"attributes":{"ID":647770,"DIS_CODE":0,"TOWNNAME":"安南區","LI":"州南里","LIN":"28鄰","STREET":"長和路","SECT":"二段","MAREA":" ","LANE":"１４０巷","ALLEY":"１５弄","HOUSE_NO":"１２號","E_COORD97":170084.835517,"N_COORD97":2551602.7908999999,"ADDRESS":"長和路二段１４０巷１５弄１２號","OBJECTID":647743},"geometry":{"x":170084.83551700227,"y":2551602.7909030002}},{"attributes":{"ID":647771,"DIS_CODE":0,"TOWNNAME":"新營區","LI":"新東里","LIN":"27鄰","STREET":"東光街","SECT":" ","MAREA":" ","LANE":"１９巷","ALLEY":" ","HOUSE_NO":"８號","E_COORD97":180587.374793,"N_COORD97":2579587.0025200001,"ADDRESS":"東光街１９巷８號","OBJECTID":647744},"geometry":{"x":180587.37479299959,"y":2579587.0025250018}},{"attributes":{"ID":647772,"DIS_CODE":0,"TOWNNAME":"新營區","LI":"新東里","LIN":"27鄰","STREET":"東光街","SECT":" ","MAREA":" ","LANE":"１９巷","ALLEY":" ","HOUSE_NO":"６號","E_COORD97":180598.604551,"N_COORD97":2579587.4258599998,"ADDRESS":"東光街１９巷６號","OBJECTID":647745},"geometry":{"x":180598.60455099959,"y":2579587.4258580003}},{"attributes":{"ID":647773,"DIS_CODE":0,"TOWNNAME":"安南區","LI":"頂安里","LIN":"19鄰","STREET":"北安路","SECT":"三段","MAREA":" ","LANE":"３９４巷","ALLEY":" ","HOUSE_NO":"２２號","E_COORD97":168791.36097899999,"N_COORD97":2549490.3018700001,"ADDRESS":"北安路三段３９４巷２２號","OBJECTID":647746},"geometry":{"x":168791.36097900197,"y":2549490.3018699996}},{"attributes":{"ID":647774,"DIS_CODE":0,"TOWNNAME":"新營區","LI":"新東里","LIN":"27鄰","STREET":"東光街","SECT":" ","MAREA":" ","LANE":"１９巷","ALLEY":" ","HOUSE_NO":"５號","E_COORD97":180587.79855800001,"N_COORD97":2579579.5942000002,"ADDRESS":"東光街１９巷５號","OBJECTID":647747},"geometry":{"x":180587.79855800048,"y":2579579.5941960011}},{"attributes":{"ID":647775,"DIS_CODE":0,"TOWNNAME":"安南區","LI":"頂安里","LIN":"19鄰","STREET":"北安路","SECT":"三段","MAREA":" ","LANE":"３９４巷","ALLEY":" ","HOUSE_NO":"４６號","E_COORD97":168818.68435900001,"N_COORD97":2549457.4935499998,"ADDRESS":"北安路三段３９４巷４６號","OBJECTID":647748},"geometry":{"x":168818.684359001,"y":2549457.4935540035}},{"attributes":{"ID":647776,"DIS_CODE":0,"TOWNNAME":"新營區","LI":"新東里","LIN":"27鄰","STREET":"東光街","SECT":" ","MAREA":" ","LANE":"１９巷","ALLEY":" ","HOUSE_NO":"２號","E_COORD97":180607.503604,"N_COORD97":2579587.84919,"ADDRESS":"東光街１９巷２號","OBJECTID":647749},"geometry":{"x":180607.50360400137,"y":2579587.8491910044}},{"attributes":{"ID":647777,"DIS_CODE":0,"TOWNNAME":"新營區","LI":"新東里","LIN":"27鄰","STREET":"東光街","SECT":" ","MAREA":" ","LANE":"１９巷","ALLEY":" ","HOUSE_NO":"３號","E_COORD97":180598.816433,"N_COORD97":2579580.0175299998,"ADDRESS":"東光街１９巷３號","OBJECTID":647750},"geometry":{"x":180598.81643300131,"y":2579580.0175289996}},{"attributes":{"ID":647778,"DIS_CODE":0,"TOWNNAME":"安南區","LI":"頂安里","LIN":"19鄰","STREET":"北安路","SECT":"三段","MAREA":" ","LANE":"３９４巷","ALLEY":" ","HOUSE_NO":"３２號","E_COORD97":168802.58686400001,"N_COORD97":2549476.1202099998,"ADDRESS":"北安路三段３９４巷３２號","OBJECTID":647751},"geometry":{"x":168802.58686400019,"y":2549476.1202110015}},{"attributes":{"ID":647779,"DIS_CODE":0,"TOWNNAME":"安南區","LI":"頂安里","LIN":"19鄰","STREET":"北安路","SECT":"三段","MAREA":" ","LANE":"３９４巷","ALLEY":" ","HOUSE_NO":"３６號","E_COORD97":168804.49314599999,"N_COORD97":2549472.73355,"ADDRESS":"北安路三段３９４巷３６號","OBJECTID":647752},"geometry":{"x":168804.49314600136,"y":2549472.733546}},{"attributes":{"ID":647780,"DIS_CODE":0,"TOWNNAME":"安南區","LI":"頂安里","LIN":"19鄰","STREET":"北安路","SECT":"三段","MAREA":" ","LANE":"３９４巷","ALLEY":" ","HOUSE_NO":"２６號","E_COORD97":168794.59209399999,"N_COORD97":2549485.4326999998,"ADDRESS":"北安路三段３９４巷２６號","OBJECTID":647753},"geometry":{"x":168794.59209400043,"y":2549485.4327040017}},{"attributes":{"ID":647781,"DIS_CODE":0,"TOWNNAME":"安南區","LI":"頂安里","LIN":"19鄰","STREET":"北安路","SECT":"三段","MAREA":" ","LANE":"３９４巷","ALLEY":" ","HOUSE_NO":"２８號","E_COORD97":168797.079826,"N_COORD97":2549482.4702099999,"ADDRESS":"北安路三段３９４巷２８號","OBJECTID":647754},"geometry":{"x":168797.07982600015,"y":2549482.4702070002}},{"attributes":{"ID":647782,"DIS_CODE":0,"TOWNNAME":"新營區","LI":"新東里","LIN":"26鄰","STREET":"東興五街","SECT":" ","MAREA":" ","LANE":"２１巷","ALLEY":" ","HOUSE_NO":"５０號","E_COORD97":180646.278051,"N_COORD97":2579470.6917500002,"ADDRESS":"東興五街２１巷５０號","OBJECTID":647755},"geometry":{"x":180646.27805100102,"y":2579470.691754004}},{"attributes":{"ID":647783,"DIS_CODE":0,"TOWNNAME":"安南區","LI":"頂安里","LIN":"19鄰","STREET":"北安路","SECT":"三段","MAREA":" ","LANE":"３９４巷","ALLEY":" ","HOUSE_NO":"３０號","E_COORD97":168799.62153599999,"N_COORD97":2549479.5068799998,"ADDRESS":"北安路三段３９４巷３０號","OBJECTID":647756},"geometry":{"x":168799.6215359997,"y":2549479.5068750028}},{"attributes":{"ID":647784,"DIS_CODE":0,"TOWNNAME":"新營區","LI":"新東里","LIN":"26鄰","STREET":"東興五街","SECT":" ","MAREA":" ","LANE":"２１巷","ALLEY":" ","HOUSE_NO":"４６號","E_COORD97":180650.93945899999,"N_COORD97":2579471.0092500001,"ADDRESS":"東興五街２１巷４６號","OBJECTID":647757},"geometry":{"x":180650.93945900071,"y":2579471.0092540011}},{"attributes":{"ID":647785,"DIS_CODE":0,"TOWNNAME":"新營區","LI":"新東里","LIN":"26鄰","STREET":"東興五街","SECT":" ","MAREA":" ","LANE":"２１巷","ALLEY":" ","HOUSE_NO":"４２號","E_COORD97":180656.236515,"N_COORD97":2579470.1625899998,"ADDRESS":"東興五街２１巷４２號","OBJECTID":647758},"geometry":{"x":180656.23651500139,"y":2579470.1625880003}},{"attributes":{"ID":647786,"DIS_CODE":0,"TOWNNAME":"山上區","LI":"山上里","LIN":"1鄰","STREET":" ","SECT":" ","MAREA":"山上","LANE":" ","ALLEY":" ","HOUSE_NO":"３５號","E_COORD97":184248.244053,"N_COORD97":2555379.41824,"ADDRESS":"山上３５號","OBJECTID":647759},"geometry":{"x":184248.24405299965,"y":2555379.4182350021}},{"attributes":{"ID":647787,"DIS_CODE":0,"TOWNNAME":"安南區","LI":"頂安里","LIN":"19鄰","STREET":"北安路","SECT":"三段","MAREA":" ","LANE":"３９４巷","ALLEY":" ","HOUSE_NO":"３８號","E_COORD97":168808.09390199999,"N_COORD97":2549469.3468800001,"ADDRESS":"北安路三段３９４巷３８號","OBJECTID":647760},"geometry":{"x":168808.09390200023,"y":2549469.3468810003}},{"attributes":{"ID":647788,"DIS_CODE":0,"TOWNNAME":"安南區","LI":"頂安里","LIN":"19鄰","STREET":"北安路","SECT":"三段","MAREA":" ","LANE":"３９４巷","ALLEY":" ","HOUSE_NO":"４０號","E_COORD97":168811.69465699999,"N_COORD97":2549465.53688,"ADDRESS":"北安路三段３９４巷４０號","OBJECTID":647761},"geometry":{"x":168811.69465699978,"y":2549465.5368830003}},{"attributes":{"ID":647789,"DIS_CODE":0,"TOWNNAME":"山上區","LI":"山上里","LIN":"1鄰","STREET":" ","SECT":" ","MAREA":"山上","LANE":" ","ALLEY":" ","HOUSE_NO":"３５之１號","E_COORD97":184248.55523299999,"N_COORD97":2555364.2278499999,"ADDRESS":"山上３５之１號","OBJECTID":647762},"geometry":{"x":184248.55523300171,"y":2555364.2278519999}},{"attributes":{"ID":647790,"DIS_CODE":0,"TOWNNAME":"安南區","LI":"頂安里","LIN":"19鄰","STREET":"北安路","SECT":"三段","MAREA":" ","LANE":"３９４巷","ALLEY":" ","HOUSE_NO":"４２號","E_COORD97":168815.29541300001,"N_COORD97":2549461.5152199999,"ADDRESS":"北安路三段３９４巷４２號","OBJECTID":647763},"geometry":{"x":168815.29541300051,"y":2549461.5152180046}},{"attributes":{"ID":647791,"DIS_CODE":0,"TOWNNAME":"新營區","LI":"新東里","LIN":"26鄰","STREET":"東興五街","SECT":" ","MAREA":" ","LANE":" ","ALLEY":" ","HOUSE_NO":"２３號","E_COORD97":180706.02883699999,"N_COORD97":2579515.4592300002,"ADDRESS":"東興五街２３號","OBJECTID":647764},"geometry":{"x":180706.02883700095,"y":2579515.459230002}},{"attributes":{"ID":647792,"DIS_CODE":0,"TOWNNAME":"新營區","LI":"新東里","LIN":"26鄰","STREET":"東興五街","SECT":" ","MAREA":" ","LANE":" ","ALLEY":" ","HOUSE_NO":"２５號","E_COORD97":180701.367428,"N_COORD97":2579514.4008999998,"ADDRESS":"東興五街２５號","OBJECTID":647765},"geometry":{"x":180701.36742800009,"y":2579514.400897}},{"attributes":{"ID":647793,"DIS_CODE":0,"TOWNNAME":"新營區","LI":"新東里","LIN":"26鄰","STREET":"東興五街","SECT":" ","MAREA":" ","LANE":" ","ALLEY":" ","HOUSE_NO":"２７號","E_COORD97":180695.85849000001,"N_COORD97":2579514.1892300001,"ADDRESS":"東興五街２７號","OBJECTID":647766},"geometry":{"x":180695.85848999955,"y":2579514.1892310027}},{"attributes":{"ID":647794,"DIS_CODE":0,"TOWNNAME":"新營區","LI":"新東里","LIN":"26鄰","STREET":"東興五街","SECT":" ","MAREA":" ","LANE":" ","ALLEY":" ","HOUSE_NO":"２９號","E_COORD97":180688.44261200001,"N_COORD97":2579513.7659,"ADDRESS":"東興五街２９號","OBJECTID":647767},"geometry":{"x":180688.44261200074,"y":2579513.7658980004}},{"attributes":{"ID":647795,"DIS_CODE":0,"TOWNNAME":"新營區","LI":"新東里","LIN":"26鄰","STREET":"東興五街","SECT":" ","MAREA":" ","LANE":" ","ALLEY":" ","HOUSE_NO":"３１號","E_COORD97":180682.29802799999,"N_COORD97":2579513.5542299999,"ADDRESS":"東興五街３１號","OBJECTID":647768},"geometry":{"x":180682.2980279997,"y":2579513.5542309992}},{"attributes":{"ID":647796,"DIS_CODE":0,"TOWNNAME":"安南區","LI":"頂安里","LIN":"19鄰","STREET":"北安路","SECT":"三段","MAREA":" ","LANE":"３９４巷","ALLEY":"２０弄","HOUSE_NO":"１號","E_COORD97":168772.086346,"N_COORD97":2549477.81354,"ADDRESS":"北安路三段３９４巷２０弄１號","OBJECTID":647769},"geometry":{"x":168772.0863460023,"y":2549477.8135429993}},{"attributes":{"ID":647797,"DIS_CODE":0,"TOWNNAME":"新營區","LI":"新東里","LIN":"20鄰","STREET":"東明街","SECT":" ","MAREA":" ","LANE":"２巷","ALLEY":" ","HOUSE_NO":"１８號","E_COORD97":180831.99281699999,"N_COORD97":2579527.5771400002,"ADDRESS":"東明街２巷１８號","OBJECTID":647770},"geometry":{"x":180831.99281699955,"y":2579527.5771399979}},{"attributes":{"ID":647798,"DIS_CODE":0,"TOWNNAME":"安南區","LI":"頂安里","LIN":"19鄰","STREET":"北安路","SECT":"三段","MAREA":" ","LANE":"３９４巷","ALLEY":"２０弄","HOUSE_NO":"１９號","E_COORD97":168800.892391,"N_COORD97":2549443.10023,"ADDRESS":"北安路三段３９４巷２０弄１９號","OBJECTID":647771},"geometry":{"x":168800.89239099994,"y":2549443.1002280023}},{"attributes":{"ID":647799,"DIS_CODE":0,"TOWNNAME":"安南區","LI":"頂安里","LIN":"19鄰","STREET":"北安路","SECT":"三段","MAREA":" ","LANE":"３９４巷","ALLEY":"２０弄","HOUSE_NO":"９號","E_COORD97":168783.73584899999,"N_COORD97":2549462.99688,"ADDRESS":"北安路三段３９４巷２０弄９號","OBJECTID":647772},"geometry":{"x":168783.73584900051,"y":2549462.9968840014}},{"attributes":{"ID":647800,"DIS_CODE":0,"TOWNNAME":"安南區","LI":"頂安里","LIN":"19鄰","STREET":"北安路","SECT":"三段","MAREA":" ","LANE":"３９４巷","ALLEY":"２０弄","HOUSE_NO":"１１號","E_COORD97":168786.91298699999,"N_COORD97":2549458.9752199999,"ADDRESS":"北安路三段３９４巷２０弄１１號","OBJECTID":647773},"geometry":{"x":168786.91298700124,"y":2549458.9752200004}},{"attributes":{"ID":647801,"DIS_CODE":0,"TOWNNAME":"安南區","LI":"頂安里","LIN":"19鄰","STREET":"北安路","SECT":"三段","MAREA":" ","LANE":"３９４巷","ALLEY":"２０弄","HOUSE_NO":"１３號","E_COORD97":168790.51374200001,"N_COORD97":2549455.1652199998,"ADDRESS":"北安路三段３９４巷２０弄１３號","OBJECTID":647774},"geometry":{"x":168790.5137420008,"y":2549455.1652220003}},{"attributes":{"ID":647802,"DIS_CODE":0,"TOWNNAME":"安南區","LI":"頂安里","LIN":"19鄰","STREET":"北安路","SECT":"三段","MAREA":" ","LANE":"３９４巷","ALLEY":"２０弄","HOUSE_NO":"１５號","E_COORD97":168793.690879,"N_COORD97":2549451.3552199998,"ADDRESS":"北安路三段３９４巷２０弄１５號","OBJECTID":647775},"geometry":{"x":168793.69087900035,"y":2549451.3552240003}},{"attributes":{"ID":647803,"DIS_CODE":0,"TOWNNAME":"安南區","LI":"頂安里","LIN":"19鄰","STREET":"北安路","SECT":"三段","MAREA":" ","LANE":"３９４巷","ALLEY":"２０弄","HOUSE_NO":"１７號","E_COORD97":168797.079826,"N_COORD97":2549447.3335600002,"ADDRESS":"北安路三段３９４巷２０弄１７號","OBJECTID":647776},"geometry":{"x":168797.07982600015,"y":2549447.3335590009}},{"attributes":{"ID":647804,"DIS_CODE":0,"TOWNNAME":"安南區","LI":"頂安里","LIN":"19鄰","STREET":"北安路","SECT":"三段","MAREA":" ","LANE":"３９４巷","ALLEY":"２０弄","HOUSE_NO":"３號","E_COORD97":168774.62805599999,"N_COORD97":2549474.6385499998,"ADDRESS":"北安路三段３９４巷２０弄３號","OBJECTID":647777},"geometry":{"x":168774.62805600092,"y":2549474.6385449991}},{"attributes":{"ID":647805,"DIS_CODE":0,"TOWNNAME":"安南區","LI":"頂安里","LIN":"19鄰","STREET":"北安路","SECT":"三段","MAREA":" ","LANE":"３９４巷","ALLEY":"２０弄","HOUSE_NO":"５號","E_COORD97":168777.38157500001,"N_COORD97":2549470.8285500002,"ADDRESS":"北安路三段３９４巷２０弄５號","OBJECTID":647778},"geometry":{"x":168777.38157500047,"y":2549470.8285470009}},{"attributes":{"ID":647806,"DIS_CODE":0,"TOWNNAME":"安南區","LI":"頂安里","LIN":"19鄰","STREET":"北安路","SECT":"三段","MAREA":" ","LANE":"３９４巷","ALLEY":"２０弄","HOUSE_NO":"７號","E_COORD97":168780.135094,"N_COORD97":2549467.0185500002,"ADDRESS":"北安路三段３９４巷２０弄７號","OBJECTID":647779},"geometry":{"x":168780.13509400096,"y":2549467.0185490008}},{"attributes":{"ID":647807,"DIS_CODE":0,"TOWNNAME":"新營區","LI":"新東里","LIN":"10鄰","STREET":"東勇街","SECT":" ","MAREA":" ","LANE":" ","ALLEY":" ","HOUSE_NO":"６８號","E_COORD97":181429.50068,"N_COORD97":2579626.2137500001,"ADDRESS":"東勇街６８號","OBJECTID":647780},"geometry":{"x":181429.50068000052,"y":2579626.2137540001}},{"attributes":{"ID":647808,"DIS_CODE":0,"TOWNNAME":"安南區","LI":"頂安里","LIN":"19鄰","STREET":"北安路","SECT":"三段","MAREA":" ","LANE":"３９４巷","ALLEY":"２０弄","HOUSE_NO":"３９號","E_COORD97":168751.964477,"N_COORD97":2549463.6318799998,"ADDRESS":"北安路三段３９４巷２０弄３９號","OBJECTID":647781},"geometry":{"x":168751.96447700076,"y":2549463.6318840012}},{"attributes":{"ID":647809,"DIS_CODE":0,"TOWNNAME":"新營區","LI":"新東里","LIN":"10鄰","STREET":"東勇街","SECT":" ","MAREA":" ","LANE":" ","ALLEY":" ","HOUSE_NO":"６６號","E_COORD97":181426.746212,"N_COORD97":2579621.7687599999,"ADDRESS":"東勇街６６號","OBJECTID":647782},"geometry":{"x":181426.74621200003,"y":2579621.7687560022}},{"attributes":{"ID":647810,"DIS_CODE":0,"TOWNNAME":"新營區","LI":"新東里","LIN":"10鄰","STREET":"東勇街","SECT":" ","MAREA":" ","LANE":" ","ALLEY":" ","HOUSE_NO":"６２號","E_COORD97":181423.77986099999,"N_COORD97":2579617.5354200001,"ADDRESS":"東勇街６２號","OBJECTID":647783},"geometry":{"x":181423.77986100037,"y":2579617.5354249999}},{"attributes":{"ID":647811,"DIS_CODE":0,"TOWNNAME":"新營區","LI":"新東里","LIN":"10鄰","STREET":"東勇街","SECT":" ","MAREA":" ","LANE":" ","ALLEY":" ","HOUSE_NO":"６０號","E_COORD97":181421.23727400001,"N_COORD97":2579612.8787600002,"ADDRESS":"東勇街６０號","OBJECTID":647784},"geometry":{"x":181421.23727400135,"y":2579612.8787610028}},{"attributes":{"ID":647812,"DIS_CODE":0,"TOWNNAME":"官田區","LI":"隆本里","LIN":"1鄰","STREET":"中華路","SECT":"一段","MAREA":" ","LANE":" ","ALLEY":" ","HOUSE_NO":"２３３號","E_COORD97":180928.522677,"N_COORD97":2565890.2607700001,"ADDRESS":"中華路一段２３３號","OBJECTID":647785},"geometry":{"x":180928.52267700061,"y":2565890.2607740015}},{"attributes":{"ID":647813,"DIS_CODE":0,"TOWNNAME":"新營區","LI":"新東里","LIN":"10鄰","STREET":"東勇街","SECT":" ","MAREA":" ","LANE":" ","ALLEY":" ","HOUSE_NO":"５６號","E_COORD97":181417.63527599999,"N_COORD97":2579606.4229299999,"ADDRESS":"東勇街５６號","OBJECTID":647786},"geometry":{"x":181417.63527600002,"y":2579606.4229310043}},{"attributes":{"ID":647814,"DIS_CODE":0,"TOWNNAME":"新營區","LI":"新東里","LIN":"10鄰","STREET":"東勇街","SECT":" ","MAREA":" ","LANE":" ","ALLEY":" ","HOUSE_NO":"５２號","E_COORD97":181415.30457199999,"N_COORD97":2579603.2479300001,"ADDRESS":"東勇街５２號","OBJECTID":647787},"geometry":{"x":181415.30457200017,"y":2579603.2479330003}},{"attributes":{"ID":647815,"DIS_CODE":0,"TOWNNAME":"新營區","LI":"新東里","LIN":"10鄰","STREET":"東勇街","SECT":" ","MAREA":" ","LANE":" ","ALLEY":" ","HOUSE_NO":"５０號","E_COORD97":181413.185749,"N_COORD97":2579599.43793,"ADDRESS":"東勇街５０號","OBJECTID":647788},"geometry":{"x":181413.18574900087,"y":2579599.4379350003}},{"attributes":{"ID":647816,"DIS_CODE":0,"TOWNNAME":"新營區","LI":"新東里","LIN":"20鄰","STREET":"東明街","SECT":" ","MAREA":" ","LANE":"２巷","ALLEY":" ","HOUSE_NO":"１３號","E_COORD97":180846.82457299999,"N_COORD97":2579543.6638000002,"ADDRESS":"東明街２巷１３號","OBJECTID":647789},"geometry":{"x":180846.82457300089,"y":2579543.6637980025}},{"attributes":{"ID":647817,"DIS_CODE":0,"TOWNNAME":"山上區","LI":"山上里","LIN":"1鄰","STREET":" ","SECT":" ","MAREA":"山上","LANE":" ","ALLEY":" ","HOUSE_NO":"３５之２號","E_COORD97":184251.845799,"N_COORD97":2555344.2815899998,"ADDRESS":"山上３５之２號","OBJECTID":647790},"geometry":{"x":184251.845799,"y":2555344.2815870028}},{"attributes":{"ID":647818,"DIS_CODE":0,"TOWNNAME":"新營區","LI":"新東里","LIN":"11鄰","STREET":"東仁街","SECT":" ","MAREA":" ","LANE":"４３巷","ALLEY":"１６弄","HOUSE_NO":"１０號","E_COORD97":181258.29984600001,"N_COORD97":2579691.7245499999,"ADDRESS":"東仁街４３巷１６弄１０號","OBJECTID":647791},"geometry":{"x":181258.29984600004,"y":2579691.7245519999}},{"attributes":{"ID":647819,"DIS_CODE":0,"TOWNNAME":"新營區","LI":"新東里","LIN":"11鄰","STREET":"東仁街","SECT":" ","MAREA":" ","LANE":"４３巷","ALLEY":"１６弄","HOUSE_NO":"１２號","E_COORD97":181261.26619699999,"N_COORD97":2579702.0962100001,"ADDRESS":"東仁街４３巷１６弄１２號","OBJECTID":647792},"geometry":{"x":181261.26619699877,"y":2579702.0962129999}},{"attributes":{"ID":647820,"DIS_CODE":0,"TOWNNAME":"新營區","LI":"新東里","LIN":"11鄰","STREET":"東仁街","SECT":" ","MAREA":" ","LANE":" ","ALLEY":" ","HOUSE_NO":"６１號","E_COORD97":181291.14159000001,"N_COORD97":2579700.40288,"ADDRESS":"東仁街６１號","OBJECTID":647793},"geometry":{"x":181291.14159000106,"y":2579700.4028800018}},{"attributes":{"ID":647821,"DIS_CODE":0,"TOWNNAME":"新營區","LI":"新東里","LIN":"11鄰","STREET":"東仁街","SECT":" ","MAREA":" ","LANE":" ","ALLEY":" ","HOUSE_NO":"５９號","E_COORD97":181289.022768,"N_COORD97":2579694.4762200001,"ADDRESS":"東仁街５９號","OBJECTID":647794},"geometry":{"x":181289.02276800107,"y":2579694.4762169998}},{"attributes":{"ID":647822,"DIS_CODE":0,"TOWNNAME":"新營區","LI":"新東里","LIN":"11鄰","STREET":"東仁街","SECT":" ","MAREA":" ","LANE":" ","ALLEY":" ","HOUSE_NO":"５７號","E_COORD97":181286.90394600001,"N_COORD97":2579687.7028899998,"ADDRESS":"東仁街５７號","OBJECTID":647795},"geometry":{"x":181286.90394600108,"y":2579687.7028870042}},{"attributes":{"ID":647823,"DIS_CODE":0,"TOWNNAME":"後壁區","LI":"竹新里","LIN":"12鄰","STREET":" ","SECT":" ","MAREA":"竹圍後","LANE":" ","ALLEY":" ","HOUSE_NO":"１２０之５８號","E_COORD97":178384.325916,"N_COORD97":2582790.8505299999,"ADDRESS":"竹圍後１２０之５８號","OBJECTID":647796},"geometry":{"x":178384.32591600064,"y":2582790.850529002}},{"attributes":{"ID":647824,"DIS_CODE":0,"TOWNNAME":"官田區","LI":"隆本里","LIN":"1鄰","STREET":"中華路","SECT":"一段","MAREA":" ","LANE":" ","ALLEY":" ","HOUSE_NO":"３２３號","E_COORD97":180828.34248799999,"N_COORD97":2565976.6207300001,"ADDRESS":"中華路一段３２３號","OBJECTID":647797},"geometry":{"x":180828.34248800017,"y":2565976.6207270008}},{"attributes":{"ID":647825,"DIS_CODE":0,"TOWNNAME":"官田區","LI":"隆本里","LIN":"1鄰","STREET":"中華路","SECT":"一段","MAREA":" ","LANE":" ","ALLEY":" ","HOUSE_NO":"３２３號","E_COORD97":180828.34248799999,"N_COORD97":2565976.6207300001,"ADDRESS":"中華路一段３２３號","OBJECTID":647798},"geometry":{"x":180828.34248800017,"y":2565976.6207270008}},{"attributes":{"ID":647826,"DIS_CODE":0,"TOWNNAME":"新營區","LI":"新東里","LIN":"15鄰","STREET":"東智街","SECT":" ","MAREA":" ","LANE":" ","ALLEY":" ","HOUSE_NO":"１７號","E_COORD97":180984.54801599999,"N_COORD97":2579584.93878,"ADDRESS":"東智街１７號","OBJECTID":647799},"geometry":{"x":180984.54801600054,"y":2579584.9387759995}},{"attributes":{"ID":647827,"DIS_CODE":0,"TOWNNAME":"新營區","LI":"新東里","LIN":"15鄰","STREET":"東智街","SECT":" ","MAREA":" ","LANE":" ","ALLEY":" ","HOUSE_NO":"２１號","E_COORD97":180988.997543,"N_COORD97":2579596.5804400002,"ADDRESS":"東智街２１號","OBJECTID":647800},"geometry":{"x":180988.99754299968,"y":2579596.5804360043}}]}