{"displayFieldName":"TOWNNAME","fieldAliases":{"ID":"ID","DIS_CODE":"DIS_CODE","TOWNNAME":"TOWNNAME","LI":"LI","LIN":"LIN","STREET":"STREET","SECT":"SECT","MAREA":"MAREA","LANE":"LANE","ALLEY":"ALLEY","HOUSE_NO":"HOUSE_NO","E_COORD97":"E_COORD97","N_COORD97":"N_COORD97","ADDRESS":"ADDRESS","OBJECTID":"OBJECTID"},"geometryType":"esriGeometryPoint","spatialReference":{"wkid":102443,"latestWkid":3826},"fields":[{"name":"ID","type":"esriFieldTypeDouble","alias":"ID"},{"name":"DIS_CODE","type":"esriFieldTypeInteger","alias":"DIS_CODE"},{"name":"TOWNNAME","type":"esriFieldTypeString","alias":"TOWNNAME","length":8},{"name":"LI","type":"esriFieldTypeString","alias":"LI","length":8},{"name":"LIN","type":"esriFieldTypeString","alias":"LIN","length":12},{"name":"STREET","type":"esriFieldTypeString","alias":"STREET","length":20},{"name":"SECT","type":"esriFieldTypeString","alias":"SECT","length":8},{"name":"MAREA","type":"esriFieldTypeString","alias":"MAREA","length":12},{"name":"LANE","type":"esriFieldTypeString","alias":"LANE","length":10},{"name":"ALLEY","type":"esriFieldTypeString","alias":"ALLEY","length":10},{"name":"HOUSE_NO","type":"esriFieldTypeString","alias":"HOUSE_NO","length":20},{"name":"E_COORD97","type":"esriFieldTypeDouble","alias":"E_COORD97"},{"name":"N_COORD97","type":"esriFieldTypeDouble","alias":"N_COORD97"},{"name":"ADDRESS","type":"esriFieldTypeString","alias":"ADDRESS","length":50},{"name":"OBJECTID","type":"esriFieldTypeOID","alias":"OBJECTID"}],"features":[{"attributes":{"ID":630228,"DIS_CODE":0,"TOWNNAME":"仁德區","LI":"新田里","LIN":"4鄰","STREET":"勝利路","SECT":" ","MAREA":" ","LANE":" ","ALLEY":" ","HOUSE_NO":"２０１號","E_COORD97":174484.51000000001,"N_COORD97":2539538.75,"ADDRESS":"勝利路２０１號","OBJECTID":630201},"geometry":{"x":174484.50999999978,"y":2539538.7500000019}},{"attributes":{"ID":630229,"DIS_CODE":0,"TOWNNAME":"仁德區","LI":"成功里","LIN":"20鄰","STREET":"保生路","SECT":" ","MAREA":" ","LANE":" ","ALLEY":" ","HOUSE_NO":"１２４號","E_COORD97":170591.38,"N_COORD97":2539844.9900000002,"ADDRESS":"保生路１２４號","OBJECTID":630202},"geometry":{"x":170591.38000000082,"y":2539844.9900000021}},{"attributes":{"ID":630230,"DIS_CODE":0,"TOWNNAME":"仁德區","LI":"新田里","LIN":"4鄰","STREET":"勝利路","SECT":" ","MAREA":" ","LANE":" ","ALLEY":" ","HOUSE_NO":"１５１號","E_COORD97":174296.04000000001,"N_COORD97":2539627.25,"ADDRESS":"勝利路１５１號","OBJECTID":630203},"geometry":{"x":174296.04000000097,"y":2539627.25}},{"attributes":{"ID":630231,"DIS_CODE":0,"TOWNNAME":"東區","LI":"大智里","LIN":"25鄰","STREET":"文東街","SECT":" ","MAREA":" ","LANE":" ","ALLEY":" ","HOUSE_NO":"６５號","E_COORD97":171335.64000000001,"N_COORD97":2540213.7599999998,"ADDRESS":"文東街６５號","OBJECTID":630204},"geometry":{"x":171335.63999999966,"y":2540213.7599999998}},{"attributes":{"ID":630232,"DIS_CODE":0,"TOWNNAME":"仁德區","LI":"新田里","LIN":"18鄰","STREET":"民安路","SECT":"二段","MAREA":" ","LANE":" ","ALLEY":" ","HOUSE_NO":"２５９號","E_COORD97":173888.491553,"N_COORD97":2538884.7851300002,"ADDRESS":"民安路二段２５９號","OBJECTID":630205},"geometry":{"x":173888.49155300017,"y":2538884.7851260006}},{"attributes":{"ID":630233,"DIS_CODE":0,"TOWNNAME":"仁德區","LI":"後壁里","LIN":"42鄰","STREET":"德崙路","SECT":" ","MAREA":" ","LANE":" ","ALLEY":" ","HOUSE_NO":"５０號","E_COORD97":173314.54000000001,"N_COORD97":2538548.02,"ADDRESS":"德崙路５０號","OBJECTID":630206},"geometry":{"x":173314.54000000097,"y":2538548.0199999977}},{"attributes":{"ID":630234,"DIS_CODE":0,"TOWNNAME":"仁德區","LI":"後壁里","LIN":"42鄰","STREET":"德崙路","SECT":" ","MAREA":" ","LANE":" ","ALLEY":" ","HOUSE_NO":"５４號","E_COORD97":173322.84,"N_COORD97":2538541.27,"ADDRESS":"德崙路５４號","OBJECTID":630207},"geometry":{"x":173322.83999999985,"y":2538541.2700000014}},{"attributes":{"ID":630235,"DIS_CODE":0,"TOWNNAME":"永康區","LI":"大橋里","LIN":"4鄰","STREET":"大橋五街","SECT":" ","MAREA":" ","LANE":" ","ALLEY":" ","HOUSE_NO":"３號","E_COORD97":170757.72,"N_COORD97":2546848.2200000002,"ADDRESS":"大橋五街３號","OBJECTID":630208},"geometry":{"x":170757.7200000016,"y":2546848.2200000025}},{"attributes":{"ID":630236,"DIS_CODE":0,"TOWNNAME":"仁德區","LI":"新田里","LIN":"4鄰","STREET":"勝利路","SECT":" ","MAREA":" ","LANE":" ","ALLEY":" ","HOUSE_NO":"１４８號","E_COORD97":174395.38,"N_COORD97":2539553.75,"ADDRESS":"勝利路１４８號","OBJECTID":630209},"geometry":{"x":174395.38000000082,"y":2539553.75}},{"attributes":{"ID":630237,"DIS_CODE":0,"TOWNNAME":"仁德區","LI":"新田里","LIN":"4鄰","STREET":"勝利路","SECT":" ","MAREA":" ","LANE":" ","ALLEY":" ","HOUSE_NO":"１７２號","E_COORD97":174453.70999999999,"N_COORD97":2539529,"ADDRESS":"勝利路１７２號","OBJECTID":630210},"geometry":{"x":174453.71000000089,"y":2539529.0000000019}},{"attributes":{"ID":630238,"DIS_CODE":0,"TOWNNAME":"仁德區","LI":"新田里","LIN":"4鄰","STREET":"勝利路","SECT":" ","MAREA":" ","LANE":" ","ALLEY":" ","HOUSE_NO":"１９９號","E_COORD97":174478,"N_COORD97":2539540,"ADDRESS":"勝利路１９９號","OBJECTID":630211},"geometry":{"x":174478,"y":2539540.0000000019}},{"attributes":{"ID":630239,"DIS_CODE":0,"TOWNNAME":"仁德區","LI":"新田里","LIN":"4鄰","STREET":"勝利路","SECT":" ","MAREA":" ","LANE":" ","ALLEY":" ","HOUSE_NO":"１３６號","E_COORD97":174316.07000000001,"N_COORD97":2539550.25,"ADDRESS":"勝利路１３６號","OBJECTID":630212},"geometry":{"x":174316.07000000123,"y":2539550.25}},{"attributes":{"ID":630240,"DIS_CODE":0,"TOWNNAME":"仁德區","LI":"成功里","LIN":"20鄰","STREET":"保生路","SECT":" ","MAREA":" ","LANE":" ","ALLEY":" ","HOUSE_NO":"９４號","E_COORD97":170684.01000000001,"N_COORD97":2539818,"ADDRESS":"保生路９４號","OBJECTID":630213},"geometry":{"x":170684.00999999978,"y":2539818.0000000019}},{"attributes":{"ID":630241,"DIS_CODE":0,"TOWNNAME":"仁德區","LI":"成功里","LIN":"26鄰","STREET":"成功一街","SECT":" ","MAREA":" ","LANE":" ","ALLEY":" ","HOUSE_NO":"４０號","E_COORD97":170524.59,"N_COORD97":2540043.2599999998,"ADDRESS":"成功一街４０號","OBJECTID":630214},"geometry":{"x":170524.58999999985,"y":2540043.2600000016}},{"attributes":{"ID":630242,"DIS_CODE":0,"TOWNNAME":"中西區","LI":"藥王里","LIN":"4鄰","STREET":"大福街","SECT":" ","MAREA":" ","LANE":" ","ALLEY":" ","HOUSE_NO":"２３號","E_COORD97":167315.95999999999,"N_COORD97":2544376.8100000001,"ADDRESS":"大福街２３號","OBJECTID":630215},"geometry":{"x":167315.95999999996,"y":2544376.8100000024}},{"attributes":{"ID":630243,"DIS_CODE":0,"TOWNNAME":"仁德區","LI":"後壁里","LIN":"5鄰","STREET":"德善一街","SECT":" ","MAREA":" ","LANE":" ","ALLEY":" ","HOUSE_NO":"３４號","E_COORD97":173465.39999999999,"N_COORD97":2538968.52,"ADDRESS":"德善一街３４號","OBJECTID":630216},"geometry":{"x":173465.40000000037,"y":2538968.5200000033}},{"attributes":{"ID":630244,"DIS_CODE":0,"TOWNNAME":"仁德區","LI":"後壁里","LIN":"5鄰","STREET":"德善一街","SECT":" ","MAREA":" ","LANE":" ","ALLEY":" ","HOUSE_NO":"３０號","E_COORD97":173444.76000000001,"N_COORD97":2538973.77,"ADDRESS":"德善一街３０號","OBJECTID":630217},"geometry":{"x":173444.76000000071,"y":2538973.7700000033}},{"attributes":{"ID":630245,"DIS_CODE":0,"TOWNNAME":"仁德區","LI":"成功里","LIN":"20鄰","STREET":"保生路","SECT":" ","MAREA":" ","LANE":" ","ALLEY":" ","HOUSE_NO":"１２５號","E_COORD97":170582.39999999999,"N_COORD97":2539823.5,"ADDRESS":"保生路１２５號","OBJECTID":630218},"geometry":{"x":170582.40000000037,"y":2539823.5000000037}},{"attributes":{"ID":630246,"DIS_CODE":0,"TOWNNAME":"仁德區","LI":"後壁里","LIN":"43鄰","STREET":"德崙路","SECT":" ","MAREA":" ","LANE":" ","ALLEY":" ","HOUSE_NO":"３５號","E_COORD97":173293.29999999999,"N_COORD97":2538587.7599999998,"ADDRESS":"德崙路３５號","OBJECTID":630219},"geometry":{"x":173293.30000000168,"y":2538587.7600000016}},{"attributes":{"ID":630247,"DIS_CODE":0,"TOWNNAME":"仁德區","LI":"新田里","LIN":"13鄰","STREET":"中正路","SECT":"二段","MAREA":" ","LANE":" ","ALLEY":" ","HOUSE_NO":"４１９號","E_COORD97":173298.14999999999,"N_COORD97":2539384.2799999998,"ADDRESS":"中正路二段４１９號","OBJECTID":630220},"geometry":{"x":173298.14999999944,"y":2539384.2800000012}},{"attributes":{"ID":630248,"DIS_CODE":0,"TOWNNAME":"仁德區","LI":"新田里","LIN":"4鄰","STREET":"新田路","SECT":" ","MAREA":" ","LANE":" ","ALLEY":" ","HOUSE_NO":"１９７號","E_COORD97":174481.41,"N_COORD97":2539585.5,"ADDRESS":"新田路１９７號","OBJECTID":630221},"geometry":{"x":174481.41000000108,"y":2539585.5}},{"attributes":{"ID":630249,"DIS_CODE":0,"TOWNNAME":"仁德區","LI":"新田里","LIN":"4鄰","STREET":"勝利路","SECT":" ","MAREA":" ","LANE":" ","ALLEY":" ","HOUSE_NO":"１３９號","E_COORD97":174247.79000000001,"N_COORD97":2539649,"ADDRESS":"勝利路１３９號","OBJECTID":630222},"geometry":{"x":174247.79000000004,"y":2539649}},{"attributes":{"ID":630250,"DIS_CODE":0,"TOWNNAME":"仁德區","LI":"新田里","LIN":"10鄰","STREET":"北保一街","SECT":" ","MAREA":" ","LANE":" ","ALLEY":" ","HOUSE_NO":"８號","E_COORD97":173280.20000000001,"N_COORD97":2539440.2400000002,"ADDRESS":"北保一街８號","OBJECTID":630223},"geometry":{"x":173280.20000000019,"y":2539440.2400000021}},{"attributes":{"ID":630251,"DIS_CODE":0,"TOWNNAME":"中西區","LI":"藥王里","LIN":"12鄰","STREET":"和善街","SECT":" ","MAREA":" ","LANE":" ","ALLEY":" ","HOUSE_NO":"１號","E_COORD97":167128.89999999999,"N_COORD97":2544535.4700000002,"ADDRESS":"和善街１號","OBJECTID":630224},"geometry":{"x":167128.90000000037,"y":2544535.4700000007}},{"attributes":{"ID":630252,"DIS_CODE":0,"TOWNNAME":"永康區","LI":"五王里","LIN":"20鄰","STREET":"中華路","SECT":" ","MAREA":" ","LANE":" ","ALLEY":" ","HOUSE_NO":"４１２號","E_COORD97":171381.69,"N_COORD97":2545614.25,"ADDRESS":"中華路４１２號","OBJECTID":630225},"geometry":{"x":171381.69000000041,"y":2545614.2500000019}},{"attributes":{"ID":630253,"DIS_CODE":0,"TOWNNAME":"安南區","LI":"理想里","LIN":"6鄰","STREET":"海佃路","SECT":"二段","MAREA":" ","LANE":" ","ALLEY":" ","HOUSE_NO":"２７６號","E_COORD97":166928.76999999999,"N_COORD97":2548428.3399999999,"ADDRESS":"海佃路二段２７６號","OBJECTID":630226},"geometry":{"x":166928.76999999955,"y":2548428.3399999999}},{"attributes":{"ID":630254,"DIS_CODE":0,"TOWNNAME":"安南區","LI":"理想里","LIN":"6鄰","STREET":"海佃路","SECT":"二段","MAREA":" ","LANE":" ","ALLEY":" ","HOUSE_NO":"２８０號","E_COORD97":166907.26000000001,"N_COORD97":2548448.4700000002,"ADDRESS":"海佃路二段２８０號","OBJECTID":630227},"geometry":{"x":166907.25999999978,"y":2548448.4700000007}},{"attributes":{"ID":630255,"DIS_CODE":0,"TOWNNAME":"安南區","LI":"理想里","LIN":"17鄰","STREET":"大安街","SECT":" ","MAREA":" ","LANE":" ","ALLEY":" ","HOUSE_NO":"２３７號","E_COORD97":167434.44,"N_COORD97":2548398.52,"ADDRESS":"大安街２３７號","OBJECTID":630228},"geometry":{"x":167434.44000000227,"y":2548398.5200000014}},{"attributes":{"ID":630256,"DIS_CODE":0,"TOWNNAME":"安南區","LI":"理想里","LIN":"17鄰","STREET":"大安街","SECT":" ","MAREA":" ","LANE":" ","ALLEY":" ","HOUSE_NO":"２３９號","E_COORD97":167438.04000000001,"N_COORD97":2548403.0899999999,"ADDRESS":"大安街２３９號","OBJECTID":630229},"geometry":{"x":167438.04000000004,"y":2548403.0899999999}},{"attributes":{"ID":630257,"DIS_CODE":0,"TOWNNAME":"安南區","LI":"理想里","LIN":"17鄰","STREET":"大安街","SECT":" ","MAREA":" ","LANE":" ","ALLEY":" ","HOUSE_NO":"２４１號","E_COORD97":167439.47,"N_COORD97":2548406.2400000002,"ADDRESS":"大安街２４１號","OBJECTID":630230},"geometry":{"x":167439.46999999974,"y":2548406.2400000002}},{"attributes":{"ID":630258,"DIS_CODE":0,"TOWNNAME":"中西區","LI":"藥王里","LIN":"12鄰","STREET":"和善街","SECT":" ","MAREA":" ","LANE":" ","ALLEY":" ","HOUSE_NO":"７號","E_COORD97":167119.70999999999,"N_COORD97":2544545.5099999998,"ADDRESS":"和善街７號","OBJECTID":630231},"geometry":{"x":167119.70999999996,"y":2544545.5099999998}},{"attributes":{"ID":630259,"DIS_CODE":0,"TOWNNAME":"安南區","LI":"海東里","LIN":"13鄰","STREET":"海佃路","SECT":"二段","MAREA":" ","LANE":" ","ALLEY":" ","HOUSE_NO":"３９７號","E_COORD97":166731.07999999999,"N_COORD97":2548953.4100000001,"ADDRESS":"海佃路二段３９７號","OBJECTID":630232},"geometry":{"x":166731.08000000007,"y":2548953.4100000001}},{"attributes":{"ID":630260,"DIS_CODE":0,"TOWNNAME":"安南區","LI":"海東里","LIN":"13鄰","STREET":"海佃路","SECT":"二段","MAREA":" ","LANE":" ","ALLEY":" ","HOUSE_NO":"４１１號","E_COORD97":166723.23999999999,"N_COORD97":2548985.1499999999,"ADDRESS":"海佃路二段４１１號","OBJECTID":630233},"geometry":{"x":166723.24000000022,"y":2548985.1500000022}},{"attributes":{"ID":630261,"DIS_CODE":0,"TOWNNAME":"安南區","LI":"安慶里","LIN":"13鄰","STREET":"怡安路","SECT":"一段","MAREA":" ","LANE":" ","ALLEY":" ","HOUSE_NO":"４７號","E_COORD97":169452.54000000001,"N_COORD97":2548954.7000000002,"ADDRESS":"怡安路一段４７號","OBJECTID":630234},"geometry":{"x":169452.54000000097,"y":2548954.6999999993}},{"attributes":{"ID":630262,"DIS_CODE":0,"TOWNNAME":"永康區","LI":"中興里","LIN":"25鄰","STREET":"中華路","SECT":" ","MAREA":" ","LANE":" ","ALLEY":" ","HOUSE_NO":"２１８號之４２","E_COORD97":171697.66,"N_COORD97":2545159.2999999998,"ADDRESS":"中華路２１８號之４２","OBJECTID":630235},"geometry":{"x":171697.66000000201,"y":2545159.3000000026}},{"attributes":{"ID":630263,"DIS_CODE":0,"TOWNNAME":"永康區","LI":"五王里","LIN":"42鄰","STREET":"五福街","SECT":" ","MAREA":" ","LANE":" ","ALLEY":" ","HOUSE_NO":"１８５號地下一層之１","E_COORD97":171673.09,"N_COORD97":2546058.6400000001,"ADDRESS":"五福街１８５號地下一層之１","OBJECTID":630236},"geometry":{"x":171673.09000000078,"y":2546058.6400000025}},{"attributes":{"ID":630264,"DIS_CODE":0,"TOWNNAME":"永康區","LI":"北灣里","LIN":"20鄰","STREET":"大同街","SECT":" ","MAREA":" ","LANE":" ","ALLEY":" ","HOUSE_NO":"３０３號","E_COORD97":174746.91,"N_COORD97":2545988.0800000001,"ADDRESS":"大同街３０３號","OBJECTID":630237},"geometry":{"x":174746.91000000015,"y":2545988.0800000019}},{"attributes":{"ID":630265,"DIS_CODE":0,"TOWNNAME":"永康區","LI":"五王里","LIN":"20鄰","STREET":"成功路","SECT":" ","MAREA":" ","LANE":" ","ALLEY":" ","HOUSE_NO":"１７７號","E_COORD97":171311.64000000001,"N_COORD97":2545801.52,"ADDRESS":"成功路１７７號","OBJECTID":630238},"geometry":{"x":171311.6400000006,"y":2545801.5200000014}},{"attributes":{"ID":630266,"DIS_CODE":0,"TOWNNAME":"永康區","LI":"中興里","LIN":"13鄰","STREET":"中興街","SECT":" ","MAREA":" ","LANE":" ","ALLEY":" ","HOUSE_NO":"５８號","E_COORD97":172090.98999999999,"N_COORD97":2545256.7400000002,"ADDRESS":"中興街５８號","OBJECTID":630239},"geometry":{"x":172090.99000000115,"y":2545256.7399999984}},{"attributes":{"ID":630267,"DIS_CODE":0,"TOWNNAME":"永康區","LI":"中華里","LIN":"20鄰","STREET":"小東路","SECT":" ","MAREA":" ","LANE":" ","ALLEY":" ","HOUSE_NO":"４７３號之５","E_COORD97":171589.14999999999,"N_COORD97":2544367.3500000001,"ADDRESS":"小東路４７３號之５","OBJECTID":630240},"geometry":{"x":171589.15000000037,"y":2544367.3500000034}},{"attributes":{"ID":630268,"DIS_CODE":0,"TOWNNAME":"永康區","LI":"五王里","LIN":"20鄰","STREET":"中華路","SECT":" ","MAREA":" ","LANE":" ","ALLEY":" ","HOUSE_NO":"４７８號之１","E_COORD97":171315.22,"N_COORD97":2545738.54,"ADDRESS":"中華路４７８號之１","OBJECTID":630241},"geometry":{"x":171315.21999999974,"y":2545738.5400000028}},{"attributes":{"ID":630269,"DIS_CODE":0,"TOWNNAME":"永康區","LI":"五王里","LIN":"20鄰","STREET":"成功路","SECT":" ","MAREA":" ","LANE":" ","ALLEY":" ","HOUSE_NO":"１３５號","E_COORD97":171384.72,"N_COORD97":2545679.77,"ADDRESS":"成功路１３５號","OBJECTID":630242},"geometry":{"x":171384.71999999974,"y":2545679.7700000033}},{"attributes":{"ID":630270,"DIS_CODE":0,"TOWNNAME":"永康區","LI":"五王里","LIN":"24鄰","STREET":"五福街","SECT":" ","MAREA":" ","LANE":" ","ALLEY":" ","HOUSE_NO":"１８號","E_COORD97":171308.54999999999,"N_COORD97":2545863.7999999998,"ADDRESS":"五福街１８號","OBJECTID":630243},"geometry":{"x":171308.55000000075,"y":2545863.7999999989}},{"attributes":{"ID":630271,"DIS_CODE":0,"TOWNNAME":"永康區","LI":"大灣里","LIN":"27鄰","STREET":"大灣六街","SECT":" ","MAREA":" ","LANE":" ","ALLEY":" ","HOUSE_NO":"５８號","E_COORD97":175196.42000000001,"N_COORD97":2545259.2400000002,"ADDRESS":"大灣六街５８號","OBJECTID":630244},"geometry":{"x":175196.42000000086,"y":2545259.2400000002}},{"attributes":{"ID":630272,"DIS_CODE":0,"TOWNNAME":"永康區","LI":"大橋里","LIN":"4鄰","STREET":"大橋五街","SECT":" ","MAREA":" ","LANE":" ","ALLEY":" ","HOUSE_NO":"１１９號","E_COORD97":170933.62,"N_COORD97":2546961.5800000001,"ADDRESS":"大橋五街１１９號","OBJECTID":630245},"geometry":{"x":170933.62000000104,"y":2546961.5800000001}},{"attributes":{"ID":630273,"DIS_CODE":0,"TOWNNAME":"永康區","LI":"大灣里","LIN":"5鄰","STREET":"大同街","SECT":" ","MAREA":" ","LANE":" ","ALLEY":" ","HOUSE_NO":"２０２號","E_COORD97":174834.39000000001,"N_COORD97":2545636.0899999999,"ADDRESS":"大同街２０２號","OBJECTID":630246},"geometry":{"x":174834.38999999966,"y":2545636.0899999999}},{"attributes":{"ID":630274,"DIS_CODE":0,"TOWNNAME":"永康區","LI":"北灣里","LIN":"32鄰","STREET":"大同街","SECT":" ","MAREA":" ","LANE":" ","ALLEY":" ","HOUSE_NO":"７１號地下一層之１","E_COORD97":175164.70000000001,"N_COORD97":2545432.6699999999,"ADDRESS":"大同街７１號地下一層之１","OBJECTID":630247},"geometry":{"x":175164.70000000112,"y":2545432.6699999999}},{"attributes":{"ID":630275,"DIS_CODE":0,"TOWNNAME":"永康區","LI":"大橋里","LIN":"4鄰","STREET":"大橋五街","SECT":" ","MAREA":" ","LANE":" ","ALLEY":" ","HOUSE_NO":"５３號","E_COORD97":170848.45000000001,"N_COORD97":2546905.6200000001,"ADDRESS":"大橋五街５３號","OBJECTID":630248},"geometry":{"x":170848.45000000112,"y":2546905.620000001}},{"attributes":{"ID":630276,"DIS_CODE":0,"TOWNNAME":"永康區","LI":"二王里","LIN":"18鄰","STREET":"中山南路","SECT":" ","MAREA":" ","LANE":" ","ALLEY":" ","HOUSE_NO":"６４８號","E_COORD97":172406.85000000001,"N_COORD97":2546690.3999999999,"ADDRESS":"中山南路６４８號","OBJECTID":630249},"geometry":{"x":172406.85000000056,"y":2546690.4000000041}},{"attributes":{"ID":630277,"DIS_CODE":0,"TOWNNAME":"永康區","LI":"二王里","LIN":"18鄰","STREET":"中山南路","SECT":" ","MAREA":" ","LANE":" ","ALLEY":" ","HOUSE_NO":"６７８號","E_COORD97":172469.10999999999,"N_COORD97":2546700.9500000002,"ADDRESS":"中山南路６７８號","OBJECTID":630250},"geometry":{"x":172469.11000000034,"y":2546700.9499999993}},{"attributes":{"ID":630278,"DIS_CODE":0,"TOWNNAME":"永康區","LI":"王行里","LIN":"13鄰","STREET":"王行路","SECT":" ","MAREA":" ","LANE":" ","ALLEY":" ","HOUSE_NO":"１１３０號","E_COORD97":175599.82999999999,"N_COORD97":2550265.5699999998,"ADDRESS":"王行路１１３０號","OBJECTID":630251},"geometry":{"x":175599.83000000007,"y":2550265.5699999984}},{"attributes":{"ID":630279,"DIS_CODE":0,"TOWNNAME":"永康區","LI":"大橋里","LIN":"4鄰","STREET":"大橋五街","SECT":" ","MAREA":" ","LANE":" ","ALLEY":" ","HOUSE_NO":"１２３號","E_COORD97":170930.09,"N_COORD97":2546976.8599999999,"ADDRESS":"大橋五街１２３號","OBJECTID":630252},"geometry":{"x":170930.09000000078,"y":2546976.8599999994}},{"attributes":{"ID":630280,"DIS_CODE":0,"TOWNNAME":"永康區","LI":"三合里","LIN":"20鄰","STREET":"南工街","SECT":" ","MAREA":" ","LANE":" ","ALLEY":" ","HOUSE_NO":"２７５號","E_COORD97":171879.48999999999,"N_COORD97":2545986.2400000002,"ADDRESS":"南工街２７５號","OBJECTID":630253},"geometry":{"x":171879.49000000022,"y":2545986.2400000021}},{"attributes":{"ID":630281,"DIS_CODE":0,"TOWNNAME":"永康區","LI":"五王里","LIN":"20鄰","STREET":"成功路","SECT":" ","MAREA":" ","LANE":" ","ALLEY":" ","HOUSE_NO":"１３７號","E_COORD97":171382.51999999999,"N_COORD97":2545683.77,"ADDRESS":"成功路１３７號","OBJECTID":630254},"geometry":{"x":171382.51999999955,"y":2545683.7700000014}},{"attributes":{"ID":630282,"DIS_CODE":0,"TOWNNAME":"永康區","LI":"三合里","LIN":"25鄰","STREET":"中山東路","SECT":" ","MAREA":" ","LANE":" ","ALLEY":" ","HOUSE_NO":"１８９號","E_COORD97":171809.94,"N_COORD97":2545697.3999999999,"ADDRESS":"中山東路１８９號","OBJECTID":630255},"geometry":{"x":171809.94000000134,"y":2545697.4000000022}},{"attributes":{"ID":630283,"DIS_CODE":0,"TOWNNAME":"永康區","LI":"大橋里","LIN":"4鄰","STREET":"大橋五街","SECT":" ","MAREA":" ","LANE":" ","ALLEY":" ","HOUSE_NO":"１５５號","E_COORD97":171002.89999999999,"N_COORD97":2547012.2400000002,"ADDRESS":"大橋五街１５５號","OBJECTID":630256},"geometry":{"x":171002.90000000224,"y":2547012.2400000002}},{"attributes":{"ID":630284,"DIS_CODE":0,"TOWNNAME":"永康區","LI":"大橋里","LIN":"4鄰","STREET":"大橋五街","SECT":" ","MAREA":" ","LANE":" ","ALLEY":" ","HOUSE_NO":"１２１號","E_COORD97":170937.17999999999,"N_COORD97":2546963.5800000001,"ADDRESS":"大橋五街１２１號","OBJECTID":630257},"geometry":{"x":170937.1799999997,"y":2546963.5800000019}},{"attributes":{"ID":630285,"DIS_CODE":0,"TOWNNAME":"永康區","LI":"二王里","LIN":"18鄰","STREET":"中山南路","SECT":" ","MAREA":" ","LANE":" ","ALLEY":" ","HOUSE_NO":"６６８號","E_COORD97":172449.53,"N_COORD97":2546699.2000000002,"ADDRESS":"中山南路６６８號","OBJECTID":630258},"geometry":{"x":172449.52999999933,"y":2546699.1999999993}},{"attributes":{"ID":630286,"DIS_CODE":0,"TOWNNAME":"東區","LI":"大智里","LIN":"25鄰","STREET":"文東街","SECT":" ","MAREA":" ","LANE":" ","ALLEY":" ","HOUSE_NO":"６３號","E_COORD97":171331.60999999999,"N_COORD97":2540216.21,"ADDRESS":"文東街６３號","OBJECTID":630259},"geometry":{"x":171331.61000000034,"y":2540216.209999999}},{"attributes":{"ID":630287,"DIS_CODE":0,"TOWNNAME":"東區","LI":"大智里","LIN":"25鄰","STREET":"文東街","SECT":" ","MAREA":" ","LANE":" ","ALLEY":" ","HOUSE_NO":"６４號","E_COORD97":171397.38,"N_COORD97":2540194.3700000001,"ADDRESS":"文東街６４號","OBJECTID":630260},"geometry":{"x":171397.37999999989,"y":2540194.370000001}},{"attributes":{"ID":630288,"DIS_CODE":0,"TOWNNAME":"永康區","LI":"埔園里","LIN":"34鄰","STREET":"八德街","SECT":" ","MAREA":" ","LANE":" ","ALLEY":" ","HOUSE_NO":"２２號","E_COORD97":174311.12,"N_COORD97":2548509.77,"ADDRESS":"八德街２２號","OBJECTID":630261},"geometry":{"x":174311.12000000011,"y":2548509.7699999996}},{"attributes":{"ID":630289,"DIS_CODE":0,"TOWNNAME":"永康區","LI":"二王里","LIN":"4鄰","STREET":"二王路","SECT":" ","MAREA":" ","LANE":" ","ALLEY":" ","HOUSE_NO":"７０號","E_COORD97":173002.29000000001,"N_COORD97":2546704.8599999999,"ADDRESS":"二王路７０號","OBJECTID":630262},"geometry":{"x":173002.29000000097,"y":2546704.8599999994}},{"attributes":{"ID":630290,"DIS_CODE":0,"TOWNNAME":"永康區","LI":"崑山里","LIN":"42鄰","STREET":"大仁街","SECT":" ","MAREA":" ","LANE":" ","ALLEY":" ","HOUSE_NO":"２２１號","E_COORD97":173936.79000000001,"N_COORD97":2545108.23,"ADDRESS":"大仁街２２１號","OBJECTID":630263},"geometry":{"x":173936.79000000097,"y":2545108.2300000042}},{"attributes":{"ID":630291,"DIS_CODE":0,"TOWNNAME":"永康區","LI":"勝利里","LIN":"41鄰","STREET":"中華路","SECT":" ","MAREA":" ","LANE":" ","ALLEY":" ","HOUSE_NO":"２４７號","E_COORD97":171595.10999999999,"N_COORD97":2545128.6000000001,"ADDRESS":"中華路２４７號","OBJECTID":630264},"geometry":{"x":171595.11000000127,"y":2545128.6000000034}},{"attributes":{"ID":630292,"DIS_CODE":0,"TOWNNAME":"永康區","LI":"勝利里","LIN":"41鄰","STREET":"中華路","SECT":" ","MAREA":" ","LANE":" ","ALLEY":" ","HOUSE_NO":"２４９號","E_COORD97":171592.73999999999,"N_COORD97":2545140.2400000002,"ADDRESS":"中華路２４９號","OBJECTID":630265},"geometry":{"x":171592.74000000115,"y":2545140.2400000002}},{"attributes":{"ID":630293,"DIS_CODE":0,"TOWNNAME":"永康區","LI":"埔園里","LIN":"26鄰","STREET":"中山路","SECT":" ","MAREA":" ","LANE":" ","ALLEY":" ","HOUSE_NO":"２７８號","E_COORD97":173714.92000000001,"N_COORD97":2548052.1099999999,"ADDRESS":"中山路２７８號","OBJECTID":630266},"geometry":{"x":173714.92000000086,"y":2548052.1100000013}},{"attributes":{"ID":630294,"DIS_CODE":0,"TOWNNAME":"永康區","LI":"埔園里","LIN":"26鄰","STREET":"中山路","SECT":" ","MAREA":" ","LANE":" ","ALLEY":" ","HOUSE_NO":"２８０號","E_COORD97":173713.31,"N_COORD97":2548055.8599999999,"ADDRESS":"中山路２８０號","OBJECTID":630267},"geometry":{"x":173713.31000000145,"y":2548055.8600000031}},{"attributes":{"ID":630295,"DIS_CODE":0,"TOWNNAME":"永康區","LI":"埔園里","LIN":"39鄰","STREET":"聖龍街","SECT":" ","MAREA":" ","LANE":" ","ALLEY":" ","HOUSE_NO":"１６７號","E_COORD97":174277.85000000001,"N_COORD97":2547860.8500000001,"ADDRESS":"聖龍街１６７號","OBJECTID":630268},"geometry":{"x":174277.85000000056,"y":2547860.8500000015}},{"attributes":{"ID":630296,"DIS_CODE":0,"TOWNNAME":"永康區","LI":"埔園里","LIN":"18鄰","STREET":"龍埔街","SECT":" ","MAREA":" ","LANE":" ","ALLEY":" ","HOUSE_NO":"４６９號","E_COORD97":173519.39999999999,"N_COORD97":2548368.7400000002,"ADDRESS":"龍埔街４６９號","OBJECTID":630269},"geometry":{"x":173519.4000000013,"y":2548368.7400000002}},{"attributes":{"ID":630297,"DIS_CODE":0,"TOWNNAME":"永康區","LI":"勝利里","LIN":"18鄰","STREET":"中華一路","SECT":" ","MAREA":" ","LANE":" ","ALLEY":" ","HOUSE_NO":"３４８號","E_COORD97":171133.39999999999,"N_COORD97":2545007.2400000002,"ADDRESS":"中華一路３４８號","OBJECTID":630270},"geometry":{"x":171133.39999999944,"y":2545007.2400000021}},{"attributes":{"ID":630298,"DIS_CODE":0,"TOWNNAME":"永康區","LI":"崑山里","LIN":"25鄰","STREET":"大仁街","SECT":" ","MAREA":" ","LANE":" ","ALLEY":" ","HOUSE_NO":"６１號","E_COORD97":173792.16,"N_COORD97":2544678.73,"ADDRESS":"大仁街６１號","OBJECTID":630271},"geometry":{"x":173792.16000000015,"y":2544678.7300000023}},{"attributes":{"ID":630299,"DIS_CODE":0,"TOWNNAME":"永康區","LI":"勝利里","LIN":"18鄰","STREET":"中華一路","SECT":" ","MAREA":" ","LANE":" ","ALLEY":" ","HOUSE_NO":"３４２號","E_COORD97":171146.94,"N_COORD97":2545006.2400000002,"ADDRESS":"中華一路３４２號","OBJECTID":630272},"geometry":{"x":171146.94000000227,"y":2545006.2400000039}},{"attributes":{"ID":630300,"DIS_CODE":0,"TOWNNAME":"永康區","LI":"烏竹里","LIN":"20鄰","STREET":"自強路","SECT":" ","MAREA":" ","LANE":" ","ALLEY":" ","HOUSE_NO":"７８７號","E_COORD97":174511.92999999999,"N_COORD97":2548590.5699999998,"ADDRESS":"自強路７８７號","OBJECTID":630273},"geometry":{"x":174511.93000000063,"y":2548590.5700000003}},{"attributes":{"ID":630301,"DIS_CODE":0,"TOWNNAME":"永康區","LI":"崑山里","LIN":"39鄰","STREET":"永大路","SECT":"二段","MAREA":" ","LANE":" ","ALLEY":" ","HOUSE_NO":"８１號","E_COORD97":174192.23000000001,"N_COORD97":2544897.5699999998,"ADDRESS":"永大路二段８１號","OBJECTID":630274},"geometry":{"x":174192.23000000045,"y":2544897.5700000003}},{"attributes":{"ID":630302,"DIS_CODE":0,"TOWNNAME":"永康區","LI":"烏竹里","LIN":"20鄰","STREET":"自強路","SECT":" ","MAREA":" ","LANE":" ","ALLEY":" ","HOUSE_NO":"７７９號","E_COORD97":174498.92999999999,"N_COORD97":2548580.0699999998,"ADDRESS":"自強路７７９號","OBJECTID":630275},"geometry":{"x":174498.9299999997,"y":2548580.0700000003}},{"attributes":{"ID":630303,"DIS_CODE":0,"TOWNNAME":"安南區","LI":"淵東里","LIN":"1鄰","STREET":"海佃路","SECT":"四段","MAREA":" ","LANE":" ","ALLEY":" ","HOUSE_NO":"１７６號","E_COORD97":165632.35000000001,"N_COORD97":2551054.2799999998,"ADDRESS":"海佃路四段１７６號","OBJECTID":630276},"geometry":{"x":165632.35000000056,"y":2551054.2800000012}},{"attributes":{"ID":630304,"DIS_CODE":0,"TOWNNAME":"安南區","LI":"城北里","LIN":"9鄰","STREET":"城北路","SECT":" ","MAREA":" ","LANE":" ","ALLEY":" ","HOUSE_NO":"２７號之１","E_COORD97":160871.73999999999,"N_COORD97":2551516.9399999999,"ADDRESS":"城北路２７號之１","OBJECTID":630277},"geometry":{"x":160871.74000000209,"y":2551516.9400000032}},{"attributes":{"ID":630305,"DIS_CODE":0,"TOWNNAME":"安南區","LI":"城北里","LIN":"9鄰","STREET":"城北路","SECT":" ","MAREA":" ","LANE":" ","ALLEY":" ","HOUSE_NO":"２７號之２","E_COORD97":160866.23999999999,"N_COORD97":2551513.9399999999,"ADDRESS":"城北路２７號之２","OBJECTID":630278},"geometry":{"x":160866.24000000022,"y":2551513.9400000013}},{"attributes":{"ID":630306,"DIS_CODE":0,"TOWNNAME":"安南區","LI":"安西里","LIN":"9鄰","STREET":"安和路","SECT":"一段","MAREA":" ","LANE":" ","ALLEY":" ","HOUSE_NO":"３１７號","E_COORD97":169263.57000000001,"N_COORD97":2548145.8700000001,"ADDRESS":"安和路一段３１７號","OBJECTID":630279},"geometry":{"x":169263.5700000003,"y":2548145.8700000029}},{"attributes":{"ID":630307,"DIS_CODE":0,"TOWNNAME":"安南區","LI":"新順里","LIN":"3鄰","STREET":"安和路","SECT":"三段","MAREA":" ","LANE":" ","ALLEY":" ","HOUSE_NO":"６號","E_COORD97":169748.23999999999,"N_COORD97":2549324.4199999999,"ADDRESS":"安和路三段６號","OBJECTID":630280},"geometry":{"x":169748.24000000115,"y":2549324.4200000018}},{"attributes":{"ID":630308,"DIS_CODE":0,"TOWNNAME":"安南區","LI":"原佃里","LIN":"4鄰","STREET":"本原街","SECT":"一段","MAREA":" ","LANE":" ","ALLEY":" ","HOUSE_NO":"１００號","E_COORD97":167983.32999999999,"N_COORD97":2550171.2200000002,"ADDRESS":"本原街一段１００號","OBJECTID":630281},"geometry":{"x":167983.33000000007,"y":2550171.2200000025}},{"attributes":{"ID":630309,"DIS_CODE":0,"TOWNNAME":"安南區","LI":"原佃里","LIN":"4鄰","STREET":"本原街","SECT":"一段","MAREA":" ","LANE":" ","ALLEY":" ","HOUSE_NO":"１０２號","E_COORD97":167978.45000000001,"N_COORD97":2550171.0299999998,"ADDRESS":"本原街一段１０２號","OBJECTID":630282},"geometry":{"x":167978.45000000112,"y":2550171.0300000012}},{"attributes":{"ID":630310,"DIS_CODE":0,"TOWNNAME":"安南區","LI":"原佃里","LIN":"4鄰","STREET":"本原街","SECT":"一段","MAREA":" ","LANE":" ","ALLEY":" ","HOUSE_NO":"１０４號","E_COORD97":167973.95999999999,"N_COORD97":2550170.6499999999,"ADDRESS":"本原街一段１０４號","OBJECTID":630283},"geometry":{"x":167973.95999999996,"y":2550170.6500000041}},{"attributes":{"ID":630311,"DIS_CODE":0,"TOWNNAME":"安南區","LI":"原佃里","LIN":"4鄰","STREET":"本原街","SECT":"一段","MAREA":" ","LANE":" ","ALLEY":" ","HOUSE_NO":"１０６號","E_COORD97":167969.85000000001,"N_COORD97":2550170.3599999999,"ADDRESS":"本原街一段１０６號","OBJECTID":630284},"geometry":{"x":167969.85000000149,"y":2550170.3599999994}},{"attributes":{"ID":630312,"DIS_CODE":0,"TOWNNAME":"安南區","LI":"原佃里","LIN":"4鄰","STREET":"本原街","SECT":"一段","MAREA":" ","LANE":" ","ALLEY":" ","HOUSE_NO":"１０８號","E_COORD97":167965.07000000001,"N_COORD97":2550169.79,"ADDRESS":"本原街一段１０８號","OBJECTID":630285},"geometry":{"x":167965.0700000003,"y":2550169.7899999991}},{"attributes":{"ID":630313,"DIS_CODE":0,"TOWNNAME":"安南區","LI":"原佃里","LIN":"4鄰","STREET":"本原街","SECT":"一段","MAREA":" ","LANE":" ","ALLEY":" ","HOUSE_NO":"１１０號","E_COORD97":167960.67999999999,"N_COORD97":2550169.5,"ADDRESS":"本原街一段１１０號","OBJECTID":630286},"geometry":{"x":167960.6799999997,"y":2550169.5}},{"attributes":{"ID":630314,"DIS_CODE":0,"TOWNNAME":"安南區","LI":"原佃里","LIN":"4鄰","STREET":"本原街","SECT":"一段","MAREA":" ","LANE":" ","ALLEY":" ","HOUSE_NO":"１１２號","E_COORD97":167956,"N_COORD97":2550168.8300000001,"ADDRESS":"本原街一段１１２號","OBJECTID":630287},"geometry":{"x":167956.00000000093,"y":2550168.8300000038}},{"attributes":{"ID":630315,"DIS_CODE":0,"TOWNNAME":"安南區","LI":"原佃里","LIN":"4鄰","STREET":"本原街","SECT":"一段","MAREA":" ","LANE":" ","ALLEY":" ","HOUSE_NO":"１１４號","E_COORD97":167951.98000000001,"N_COORD97":2550168.5499999998,"ADDRESS":"本原街一段１１４號","OBJECTID":630288},"geometry":{"x":167951.98000000138,"y":2550168.5500000026}},{"attributes":{"ID":630316,"DIS_CODE":0,"TOWNNAME":"安南區","LI":"溪墘里","LIN":"13鄰","STREET":"海佃路","SECT":"一段","MAREA":" ","LANE":" ","ALLEY":" ","HOUSE_NO":"３１６號","E_COORD97":167116.76999999999,"N_COORD97":2547463.96,"ADDRESS":"海佃路一段３１６號","OBJECTID":630289},"geometry":{"x":167116.76999999955,"y":2547463.9600000028}},{"attributes":{"ID":630317,"DIS_CODE":0,"TOWNNAME":"安南區","LI":"原佃里","LIN":"4鄰","STREET":"本原街","SECT":"一段","MAREA":" ","LANE":" ","ALLEY":" ","HOUSE_NO":"１１６號","E_COORD97":167947.48999999999,"N_COORD97":2550167.98,"ADDRESS":"本原街一段１１６號","OBJECTID":630290},"geometry":{"x":167947.49000000209,"y":2550167.9799999986}},{"attributes":{"ID":630318,"DIS_CODE":0,"TOWNNAME":"安南區","LI":"原佃里","LIN":"4鄰","STREET":"本原街","SECT":"一段","MAREA":" ","LANE":" ","ALLEY":" ","HOUSE_NO":"１２２號","E_COORD97":167942.75,"N_COORD97":2550167.3999999999,"ADDRESS":"本原街一段１２２號","OBJECTID":630291},"geometry":{"x":167942.75000000093,"y":2550167.4000000004}},{"attributes":{"ID":630319,"DIS_CODE":0,"TOWNNAME":"安南區","LI":"原佃里","LIN":"4鄰","STREET":"本原街","SECT":"一段","MAREA":" ","LANE":" ","ALLEY":" ","HOUSE_NO":"１２４號","E_COORD97":167937.20999999999,"N_COORD97":2550167.3999999999,"ADDRESS":"本原街一段１２４號","OBJECTID":630292},"geometry":{"x":167937.21000000183,"y":2550167.4000000004}},{"attributes":{"ID":630320,"DIS_CODE":0,"TOWNNAME":"安南區","LI":"原佃里","LIN":"4鄰","STREET":"本原街","SECT":"一段","MAREA":" ","LANE":" ","ALLEY":" ","HOUSE_NO":"７８號","E_COORD97":168041.12,"N_COORD97":2550177.3500000001,"ADDRESS":"本原街一段７８號","OBJECTID":630293},"geometry":{"x":168041.12000000011,"y":2550177.3499999996}},{"attributes":{"ID":630321,"DIS_CODE":0,"TOWNNAME":"安南區","LI":"原佃里","LIN":"4鄰","STREET":"本原街","SECT":"一段","MAREA":" ","LANE":" ","ALLEY":" ","HOUSE_NO":"８０號","E_COORD97":168034.81,"N_COORD97":2550178.04,"ADDRESS":"本原街一段８０號","OBJECTID":630294},"geometry":{"x":168034.81000000052,"y":2550178.040000001}},{"attributes":{"ID":630322,"DIS_CODE":0,"TOWNNAME":"安南區","LI":"原佃里","LIN":"4鄰","STREET":"本原街","SECT":"一段","MAREA":" ","LANE":" ","ALLEY":" ","HOUSE_NO":"８２號","E_COORD97":168030.12,"N_COORD97":2550177.5299999998,"ADDRESS":"本原街一段８２號","OBJECTID":630295},"geometry":{"x":168030.12000000104,"y":2550177.5300000012}},{"attributes":{"ID":630323,"DIS_CODE":0,"TOWNNAME":"安南區","LI":"原佃里","LIN":"4鄰","STREET":"本原街","SECT":"一段","MAREA":" ","LANE":" ","ALLEY":" ","HOUSE_NO":"８４號","E_COORD97":168026.10000000001,"N_COORD97":2550177.1499999999,"ADDRESS":"本原街一段８４號","OBJECTID":630296},"geometry":{"x":168026.10000000056,"y":2550177.1500000041}},{"attributes":{"ID":630324,"DIS_CODE":0,"TOWNNAME":"安南區","LI":"原佃里","LIN":"4鄰","STREET":"本原街","SECT":"一段","MAREA":" ","LANE":" ","ALLEY":" ","HOUSE_NO":"８６號","E_COORD97":168021.22,"N_COORD97":2550176.96,"ADDRESS":"本原街一段８６號","OBJECTID":630297},"geometry":{"x":168021.21999999974,"y":2550176.9600000028}},{"attributes":{"ID":630325,"DIS_CODE":0,"TOWNNAME":"安南區","LI":"原佃里","LIN":"4鄰","STREET":"本原街","SECT":"一段","MAREA":" ","LANE":" ","ALLEY":" ","HOUSE_NO":"８８號","E_COORD97":168017.20999999999,"N_COORD97":2550176.5800000001,"ADDRESS":"本原街一段８８號","OBJECTID":630298},"geometry":{"x":168017.21000000089,"y":2550176.5800000001}},{"attributes":{"ID":630326,"DIS_CODE":0,"TOWNNAME":"安南區","LI":"原佃里","LIN":"4鄰","STREET":"本原街","SECT":"一段","MAREA":" ","LANE":" ","ALLEY":" ","HOUSE_NO":"９０號","E_COORD97":168012.72,"N_COORD97":2550176.1899999999,"ADDRESS":"本原街一段９０號","OBJECTID":630299},"geometry":{"x":168012.71999999974,"y":2550176.1900000032}},{"attributes":{"ID":630327,"DIS_CODE":0,"TOWNNAME":"安南區","LI":"原佃里","LIN":"4鄰","STREET":"本原街","SECT":"一段","MAREA":" ","LANE":" ","ALLEY":" ","HOUSE_NO":"９２號","E_COORD97":168007.64999999999,"N_COORD97":2550175.7200000002,"ADDRESS":"本原街一段９２號","OBJECTID":630300},"geometry":{"x":168007.65000000224,"y":2550175.7200000007}},{"attributes":{"ID":630328,"DIS_CODE":0,"TOWNNAME":"安南區","LI":"原佃里","LIN":"4鄰","STREET":"本原街","SECT":"一段","MAREA":" ","LANE":" ","ALLEY":" ","HOUSE_NO":"９６號","E_COORD97":167992.03,"N_COORD97":2550172.75,"ADDRESS":"本原街一段９６號","OBJECTID":630301},"geometry":{"x":167992.03000000119,"y":2550172.7500000037}},{"attributes":{"ID":630329,"DIS_CODE":0,"TOWNNAME":"安南區","LI":"原佃里","LIN":"4鄰","STREET":"本原街","SECT":"一段","MAREA":" ","LANE":" ","ALLEY":" ","HOUSE_NO":"９８號","E_COORD97":167987.44,"N_COORD97":2550171.79,"ADDRESS":"本原街一段９８號","OBJECTID":630302},"geometry":{"x":167987.44000000134,"y":2550171.790000001}},{"attributes":{"ID":630330,"DIS_CODE":0,"TOWNNAME":"安南區","LI":"原佃里","LIN":"4鄰","STREET":"本原街","SECT":"一段","MAREA":" ","LANE":" ","ALLEY":" ","HOUSE_NO":"１２６號","E_COORD97":167932.23999999999,"N_COORD97":2550167.02,"ADDRESS":"本原街一段１２６號","OBJECTID":630303},"geometry":{"x":167932.24000000209,"y":2550167.0200000033}},{"attributes":{"ID":630331,"DIS_CODE":0,"TOWNNAME":"東區","LI":"大智里","LIN":"25鄰","STREET":"文東街","SECT":" ","MAREA":" ","LANE":" ","ALLEY":" ","HOUSE_NO":"６６號","E_COORD97":171401.31,"N_COORD97":2540197.1000000001,"ADDRESS":"文東街６６號","OBJECTID":630304},"geometry":{"x":171401.31000000052,"y":2540197.1000000015}},{"attributes":{"ID":630332,"DIS_CODE":0,"TOWNNAME":"安南區","LI":"淵中里","LIN":"17鄰","STREET":"安中路","SECT":"三段","MAREA":" ","LANE":" ","ALLEY":" ","HOUSE_NO":"２７３號","E_COORD97":165729.04999999999,"N_COORD97":2549873.9300000002,"ADDRESS":"安中路三段２７３號","OBJECTID":630305},"geometry":{"x":165729.04999999981,"y":2549873.9300000016}},{"attributes":{"ID":630333,"DIS_CODE":0,"TOWNNAME":"安南區","LI":"州南里","LIN":"17鄰","STREET":"安和路","SECT":"四段","MAREA":" ","LANE":" ","ALLEY":" ","HOUSE_NO":"４０１號","E_COORD97":169912.92000000001,"N_COORD97":2551039.0899999999,"ADDRESS":"安和路四段４０１號","OBJECTID":630306},"geometry":{"x":169912.92000000086,"y":2551039.0900000017}},{"attributes":{"ID":630334,"DIS_CODE":0,"TOWNNAME":"安南區","LI":"淵西里","LIN":"12鄰","STREET":"安中路","SECT":"四段","MAREA":" ","LANE":" ","ALLEY":" ","HOUSE_NO":"２８２號","E_COORD97":164608.51000000001,"N_COORD97":2550195.46,"ADDRESS":"安中路四段２８２號","OBJECTID":630307},"geometry":{"x":164608.50999999978,"y":2550195.4600000009}},{"attributes":{"ID":630335,"DIS_CODE":0,"TOWNNAME":"安南區","LI":"顯宮里","LIN":"3鄰","STREET":"安中路","SECT":"五段","MAREA":" ","LANE":" ","ALLEY":" ","HOUSE_NO":"５０３號","E_COORD97":162268.07000000001,"N_COORD97":2551209.3900000001,"ADDRESS":"安中路五段５０３號","OBJECTID":630308},"geometry":{"x":162268.07000000216,"y":2551209.3900000006}},{"attributes":{"ID":630336,"DIS_CODE":0,"TOWNNAME":"安南區","LI":"溪北里","LIN":"3鄰","STREET":"安和路","SECT":"一段","MAREA":" ","LANE":" ","ALLEY":" ","HOUSE_NO":"８３號","E_COORD97":169481.54000000001,"N_COORD97":2547564.4100000001,"ADDRESS":"安和路一段８３號","OBJECTID":630309},"geometry":{"x":169481.54000000097,"y":2547564.4099999983}},{"attributes":{"ID":630337,"DIS_CODE":0,"TOWNNAME":"安南區","LI":"州南里","LIN":"13鄰","STREET":"安和路","SECT":"五段","MAREA":" ","LANE":" ","ALLEY":" ","HOUSE_NO":"２６號","E_COORD97":169954.53,"N_COORD97":2551564.29,"ADDRESS":"安和路五段２６號","OBJECTID":630310},"geometry":{"x":169954.53000000119,"y":2551564.2899999991}},{"attributes":{"ID":630338,"DIS_CODE":0,"TOWNNAME":"安南區","LI":"安富里","LIN":"19鄰","STREET":"安富街","SECT":" ","MAREA":" ","LANE":" ","ALLEY":" ","HOUSE_NO":"１７３號","E_COORD97":167758.81,"N_COORD97":2547476.6899999999,"ADDRESS":"安富街１７３號","OBJECTID":630311},"geometry":{"x":167758.81000000052,"y":2547476.6899999995}},{"attributes":{"ID":630339,"DIS_CODE":0,"TOWNNAME":"安南區","LI":"安富里","LIN":"19鄰","STREET":"安富街","SECT":" ","MAREA":" ","LANE":" ","ALLEY":" ","HOUSE_NO":"１７５號","E_COORD97":167754.45999999999,"N_COORD97":2547474.8599999999,"ADDRESS":"安富街１７５號","OBJECTID":630312},"geometry":{"x":167754.46000000089,"y":2547474.8599999994}},{"attributes":{"ID":630340,"DIS_CODE":0,"TOWNNAME":"安南區","LI":"安富里","LIN":"19鄰","STREET":"安富街","SECT":" ","MAREA":" ","LANE":" ","ALLEY":" ","HOUSE_NO":"１７７號","E_COORD97":167750.10000000001,"N_COORD97":2547473.2599999998,"ADDRESS":"安富街１７７號","OBJECTID":630313},"geometry":{"x":167750.10000000056,"y":2547473.2599999998}},{"attributes":{"ID":630341,"DIS_CODE":0,"TOWNNAME":"安南區","LI":"安富里","LIN":"19鄰","STREET":"安富街","SECT":" ","MAREA":" ","LANE":" ","ALLEY":" ","HOUSE_NO":"１７９號","E_COORD97":167744.82000000001,"N_COORD97":2547474.3999999999,"ADDRESS":"安富街１７９號","OBJECTID":630314},"geometry":{"x":167744.8200000003,"y":2547474.4000000022}},{"attributes":{"ID":630342,"DIS_CODE":0,"TOWNNAME":"安南區","LI":"安富里","LIN":"19鄰","STREET":"安富街","SECT":" ","MAREA":" ","LANE":" ","ALLEY":" ","HOUSE_NO":"１８１號","E_COORD97":167740.45999999999,"N_COORD97":2547472.3399999999,"ADDRESS":"安富街１８１號","OBJECTID":630315},"geometry":{"x":167740.45999999903,"y":2547472.3399999999}},{"attributes":{"ID":630343,"DIS_CODE":0,"TOWNNAME":"安南區","LI":"安富里","LIN":"19鄰","STREET":"安富街","SECT":" ","MAREA":" ","LANE":" ","ALLEY":" ","HOUSE_NO":"２１７號","E_COORD97":167655.82999999999,"N_COORD97":2547457.46,"ADDRESS":"安富街２１７號","OBJECTID":630316},"geometry":{"x":167655.83000000101,"y":2547457.4600000028}},{"attributes":{"ID":630344,"DIS_CODE":0,"TOWNNAME":"安南區","LI":"安富里","LIN":"19鄰","STREET":"安富街","SECT":" ","MAREA":" ","LANE":" ","ALLEY":" ","HOUSE_NO":"２１９號","E_COORD97":167652.39000000001,"N_COORD97":2547453.3399999999,"ADDRESS":"安富街２１９號","OBJECTID":630317},"geometry":{"x":167652.38999999966,"y":2547453.3400000017}},{"attributes":{"ID":630345,"DIS_CODE":0,"TOWNNAME":"安南區","LI":"安富里","LIN":"19鄰","STREET":"安富街","SECT":" ","MAREA":" ","LANE":" ","ALLEY":" ","HOUSE_NO":"２２１號","E_COORD97":167646.64999999999,"N_COORD97":2547454.7200000002,"ADDRESS":"安富街２２１號","OBJECTID":630318},"geometry":{"x":167646.6500000013,"y":2547454.7200000044}},{"attributes":{"ID":630346,"DIS_CODE":0,"TOWNNAME":"安南區","LI":"安富里","LIN":"19鄰","STREET":"安富街","SECT":" ","MAREA":" ","LANE":" ","ALLEY":" ","HOUSE_NO":"２２５號","E_COORD97":167636.79000000001,"N_COORD97":2547451.0499999998,"ADDRESS":"安富街２２５號","OBJECTID":630319},"geometry":{"x":167636.7900000019,"y":2547451.0500000007}},{"attributes":{"ID":630347,"DIS_CODE":0,"TOWNNAME":"安南區","LI":"安富里","LIN":"19鄰","STREET":"安富街","SECT":" ","MAREA":" ","LANE":" ","ALLEY":" ","HOUSE_NO":"２３１號","E_COORD97":167624.70999999999,"N_COORD97":2547450.96,"ADDRESS":"安富街２３１號","OBJECTID":630320},"geometry":{"x":167624.70999999996,"y":2547450.9600000028}},{"attributes":{"ID":630348,"DIS_CODE":0,"TOWNNAME":"安南區","LI":"安富里","LIN":"19鄰","STREET":"安富街","SECT":" ","MAREA":" ","LANE":" ","ALLEY":" ","HOUSE_NO":"２４１號","E_COORD97":167607.72,"N_COORD97":2547448.3999999999,"ADDRESS":"安富街２４１號","OBJECTID":630321},"geometry":{"x":167607.71999999974,"y":2547448.4000000004}},{"attributes":{"ID":630349,"DIS_CODE":0,"TOWNNAME":"安南區","LI":"安富里","LIN":"25鄰","STREET":"郡安路","SECT":"五段","MAREA":" ","LANE":" ","ALLEY":" ","HOUSE_NO":"１５６號","E_COORD97":167724.12,"N_COORD97":2547709.9900000002,"ADDRESS":"郡安路五段１５６號","OBJECTID":630322},"geometry":{"x":167724.12000000011,"y":2547709.9900000039}},{"attributes":{"ID":630350,"DIS_CODE":0,"TOWNNAME":"安南區","LI":"安富里","LIN":"27鄰","STREET":"安寧街","SECT":" ","MAREA":" ","LANE":" ","ALLEY":" ","HOUSE_NO":"１００號","E_COORD97":167385.85000000001,"N_COORD97":2547135.1099999999,"ADDRESS":"安寧街１００號","OBJECTID":630323},"geometry":{"x":167385.84999999963,"y":2547135.1100000031}},{"attributes":{"ID":630351,"DIS_CODE":0,"TOWNNAME":"安南區","LI":"安富里","LIN":"27鄰","STREET":"安寧街","SECT":" ","MAREA":" ","LANE":" ","ALLEY":" ","HOUSE_NO":"１０２號","E_COORD97":167386.63,"N_COORD97":2547141.6400000001,"ADDRESS":"安寧街１０２號","OBJECTID":630324},"geometry":{"x":167386.62999999896,"y":2547141.6400000006}},{"attributes":{"ID":630352,"DIS_CODE":0,"TOWNNAME":"安南區","LI":"安富里","LIN":"27鄰","STREET":"安寧街","SECT":" ","MAREA":" ","LANE":" ","ALLEY":" ","HOUSE_NO":"１０４號","E_COORD97":167384.70000000001,"N_COORD97":2547145.4900000002,"ADDRESS":"安寧街１０４號","OBJECTID":630325},"geometry":{"x":167384.70000000019,"y":2547145.4900000002}},{"attributes":{"ID":630353,"DIS_CODE":0,"TOWNNAME":"安南區","LI":"安富里","LIN":"27鄰","STREET":"安寧街","SECT":" ","MAREA":" ","LANE":" ","ALLEY":" ","HOUSE_NO":"１０６號","E_COORD97":167383.54000000001,"N_COORD97":2547151.6499999999,"ADDRESS":"安寧街１０６號","OBJECTID":630326},"geometry":{"x":167383.54000000004,"y":2547151.6500000004}},{"attributes":{"ID":630354,"DIS_CODE":0,"TOWNNAME":"安南區","LI":"安富里","LIN":"27鄰","STREET":"安寧街","SECT":" ","MAREA":" ","LANE":" ","ALLEY":" ","HOUSE_NO":"１０號","E_COORD97":167437.48000000001,"N_COORD97":2546892.9500000002,"ADDRESS":"安寧街１０號","OBJECTID":630327},"geometry":{"x":167437.48000000231,"y":2546892.9500000011}},{"attributes":{"ID":630355,"DIS_CODE":0,"TOWNNAME":"安南區","LI":"安富里","LIN":"27鄰","STREET":"安寧街","SECT":" ","MAREA":" ","LANE":" ","ALLEY":" ","HOUSE_NO":"１１２號","E_COORD97":167380.07999999999,"N_COORD97":2547167.6299999999,"ADDRESS":"安寧街１１２號","OBJECTID":630328},"geometry":{"x":167380.08000000007,"y":2547167.629999999}},{"attributes":{"ID":630356,"DIS_CODE":0,"TOWNNAME":"安南區","LI":"安富里","LIN":"27鄰","STREET":"安寧街","SECT":" ","MAREA":" ","LANE":" ","ALLEY":" ","HOUSE_NO":"１１４號","E_COORD97":167378.53,"N_COORD97":2547174.1699999999,"ADDRESS":"安寧街１１４號","OBJECTID":630329},"geometry":{"x":167378.53000000026,"y":2547174.1700000018}},{"attributes":{"ID":630357,"DIS_CODE":0,"TOWNNAME":"安南區","LI":"安富里","LIN":"27鄰","STREET":"安寧街","SECT":" ","MAREA":" ","LANE":" ","ALLEY":" ","HOUSE_NO":"１１６號","E_COORD97":167377.38,"N_COORD97":2547178.4100000001,"ADDRESS":"安寧街１１６號","OBJECTID":630330},"geometry":{"x":167377.38000000082,"y":2547178.410000002}},{"attributes":{"ID":630358,"DIS_CODE":0,"TOWNNAME":"安南區","LI":"安富里","LIN":"27鄰","STREET":"安寧街","SECT":" ","MAREA":" ","LANE":" ","ALLEY":" ","HOUSE_NO":"１１８號","E_COORD97":167376.60999999999,"N_COORD97":2547182.6400000001,"ADDRESS":"安寧街１１８號","OBJECTID":630331},"geometry":{"x":167376.61000000034,"y":2547182.6400000006}},{"attributes":{"ID":630359,"DIS_CODE":0,"TOWNNAME":"安南區","LI":"安富里","LIN":"27鄰","STREET":"安寧街","SECT":" ","MAREA":" ","LANE":" ","ALLEY":" ","HOUSE_NO":"１２２號","E_COORD97":167374.67999999999,"N_COORD97":2547193.4100000001,"ADDRESS":"安寧街１２２號","OBJECTID":630332},"geometry":{"x":167374.68000000063,"y":2547193.4100000001}},{"attributes":{"ID":630360,"DIS_CODE":0,"TOWNNAME":"安南區","LI":"安富里","LIN":"27鄰","STREET":"安寧街","SECT":" ","MAREA":" ","LANE":" ","ALLEY":" ","HOUSE_NO":"１２４號","E_COORD97":167373.53,"N_COORD97":2547200.3300000001,"ADDRESS":"安寧街１２４號","OBJECTID":630333},"geometry":{"x":167373.53000000026,"y":2547200.3300000019}},{"attributes":{"ID":630361,"DIS_CODE":0,"TOWNNAME":"安南區","LI":"安富里","LIN":"27鄰","STREET":"安寧街","SECT":" ","MAREA":" ","LANE":" ","ALLEY":" ","HOUSE_NO":"１２６號","E_COORD97":167372.76000000001,"N_COORD97":2547205.3300000001,"ADDRESS":"安寧街１２６號","OBJECTID":630334},"geometry":{"x":167372.76000000071,"y":2547205.3300000001}},{"attributes":{"ID":630362,"DIS_CODE":0,"TOWNNAME":"安南區","LI":"安富里","LIN":"27鄰","STREET":"安寧街","SECT":" ","MAREA":" ","LANE":" ","ALLEY":" ","HOUSE_NO":"１２８號","E_COORD97":167371.98000000001,"N_COORD97":2547209.9500000002,"ADDRESS":"安寧街１２８號","OBJECTID":630335},"geometry":{"x":167371.98000000138,"y":2547209.9499999993}},{"attributes":{"ID":630363,"DIS_CODE":0,"TOWNNAME":"安南區","LI":"安富里","LIN":"27鄰","STREET":"安寧街","SECT":" ","MAREA":" ","LANE":" ","ALLEY":" ","HOUSE_NO":"１２號","E_COORD97":167435.94,"N_COORD97":2546899.1099999999,"ADDRESS":"安寧街１２號","OBJECTID":630336},"geometry":{"x":167435.93999999948,"y":2546899.1100000013}},{"attributes":{"ID":630364,"DIS_CODE":0,"TOWNNAME":"安南區","LI":"安富里","LIN":"27鄰","STREET":"安寧街","SECT":" ","MAREA":" ","LANE":" ","ALLEY":" ","HOUSE_NO":"１３２號","E_COORD97":167368.13,"N_COORD97":2547221.1099999999,"ADDRESS":"安寧街１３２號","OBJECTID":630337},"geometry":{"x":167368.13000000175,"y":2547221.1100000013}},{"attributes":{"ID":630365,"DIS_CODE":0,"TOWNNAME":"中西區","LI":"藥王里","LIN":"5鄰","STREET":"大福街","SECT":" ","MAREA":" ","LANE":" ","ALLEY":" ","HOUSE_NO":"７號","E_COORD97":167301.20999999999,"N_COORD97":2544341.4100000001,"ADDRESS":"大福街７號","OBJECTID":630338},"geometry":{"x":167301.20999999996,"y":2544341.410000002}},{"attributes":{"ID":630366,"DIS_CODE":0,"TOWNNAME":"安南區","LI":"安富里","LIN":"32鄰","STREET":"府安路","SECT":"五段","MAREA":" ","LANE":" ","ALLEY":" ","HOUSE_NO":"１５６號","E_COORD97":167807.73000000001,"N_COORD97":2547050.3799999999,"ADDRESS":"府安路五段１５６號","OBJECTID":630339},"geometry":{"x":167807.73000000138,"y":2547050.379999999}},{"attributes":{"ID":630367,"DIS_CODE":0,"TOWNNAME":"安南區","LI":"溪東里","LIN":"4鄰","STREET":"府安路","SECT":"五段","MAREA":" ","LANE":" ","ALLEY":" ","HOUSE_NO":"９４號","E_COORD97":168088.23999999999,"N_COORD97":2547142.75,"ADDRESS":"府安路五段９４號","OBJECTID":630340},"geometry":{"x":168088.24000000209,"y":2547142.7500000019}},{"attributes":{"ID":630368,"DIS_CODE":0,"TOWNNAME":"安南區","LI":"溪東里","LIN":"4鄰","STREET":"府安路","SECT":"五段","MAREA":" ","LANE":" ","ALLEY":" ","HOUSE_NO":"９５號","E_COORD97":168083.10999999999,"N_COORD97":2547147.5,"ADDRESS":"府安路五段９５號","OBJECTID":630341},"geometry":{"x":168083.11000000127,"y":2547147.5000000019}},{"attributes":{"ID":630369,"DIS_CODE":0,"TOWNNAME":"安南區","LI":"溪東里","LIN":"4鄰","STREET":"府安路","SECT":"五段","MAREA":" ","LANE":" ","ALLEY":" ","HOUSE_NO":"９６號","E_COORD97":168078.94,"N_COORD97":2547143.3199999998,"ADDRESS":"府安路五段９６號","OBJECTID":630342},"geometry":{"x":168078.94000000134,"y":2547143.3200000003}},{"attributes":{"ID":630370,"DIS_CODE":0,"TOWNNAME":"安南區","LI":"溪東里","LIN":"4鄰","STREET":"府安路","SECT":"五段","MAREA":" ","LANE":" ","ALLEY":" ","HOUSE_NO":"９７號","E_COORD97":168075.70999999999,"N_COORD97":2547138.77,"ADDRESS":"府安路五段９７號","OBJECTID":630343},"geometry":{"x":168075.70999999996,"y":2547138.7700000014}},{"attributes":{"ID":630371,"DIS_CODE":0,"TOWNNAME":"中西區","LI":"西賢里","LIN":"4鄰","STREET":"西賢街","SECT":" ","MAREA":" ","LANE":" ","ALLEY":" ","HOUSE_NO":"１７２號","E_COORD97":165829.98000000001,"N_COORD97":2544893.98,"ADDRESS":"西賢街１７２號","OBJECTID":630344},"geometry":{"x":165829.98000000045,"y":2544893.9800000023}},{"attributes":{"ID":630372,"DIS_CODE":0,"TOWNNAME":"中西區","LI":"西賢里","LIN":"4鄰","STREET":"西賢街","SECT":" ","MAREA":" ","LANE":" ","ALLEY":" ","HOUSE_NO":"１７６號","E_COORD97":165835.63,"N_COORD97":2544894.77,"ADDRESS":"西賢街１７６號","OBJECTID":630345},"geometry":{"x":165835.63000000175,"y":2544894.7700000014}},{"attributes":{"ID":630373,"DIS_CODE":0,"TOWNNAME":"中西區","LI":"藥王里","LIN":"7鄰","STREET":"大新街","SECT":" ","MAREA":" ","LANE":" ","ALLEY":" ","HOUSE_NO":"５８號","E_COORD97":167186.45999999999,"N_COORD97":2544431.8399999999,"ADDRESS":"大新街５８號","OBJECTID":630346},"geometry":{"x":167186.46000000089,"y":2544431.839999998}},{"attributes":{"ID":630374,"DIS_CODE":0,"TOWNNAME":"中西區","LI":"西賢里","LIN":"4鄰","STREET":"西賢街","SECT":" ","MAREA":" ","LANE":" ","ALLEY":" ","HOUSE_NO":"１５２號","E_COORD97":165824.85999999999,"N_COORD97":2544864.52,"ADDRESS":"西賢街１５２號","OBJECTID":630347},"geometry":{"x":165824.86000000127,"y":2544864.5200000033}},{"attributes":{"ID":630375,"DIS_CODE":0,"TOWNNAME":"中西區","LI":"西賢里","LIN":"4鄰","STREET":"西賢街","SECT":" ","MAREA":" ","LANE":" ","ALLEY":" ","HOUSE_NO":"１５４號","E_COORD97":165831.16,"N_COORD97":2544863.9900000002,"ADDRESS":"西賢街１５４號","OBJECTID":630348},"geometry":{"x":165831.16000000108,"y":2544863.9900000002}},{"attributes":{"ID":630376,"DIS_CODE":0,"TOWNNAME":"中西區","LI":"西賢里","LIN":"4鄰","STREET":"西賢街","SECT":" ","MAREA":" ","LANE":" ","ALLEY":" ","HOUSE_NO":"１５６號","E_COORD97":165837.32999999999,"N_COORD97":2544863.9900000002,"ADDRESS":"西賢街１５６號","OBJECTID":630349},"geometry":{"x":165837.33000000007,"y":2544863.9900000002}},{"attributes":{"ID":630377,"DIS_CODE":0,"TOWNNAME":"中西區","LI":"西賢里","LIN":"4鄰","STREET":"西賢街","SECT":" ","MAREA":" ","LANE":" ","ALLEY":" ","HOUSE_NO":"１５８號","E_COORD97":165844.94,"N_COORD97":2544865.7000000002,"ADDRESS":"西賢街１５８號","OBJECTID":630350},"geometry":{"x":165844.94000000134,"y":2544865.6999999993}},{"attributes":{"ID":630378,"DIS_CODE":0,"TOWNNAME":"中西區","LI":"西賢里","LIN":"4鄰","STREET":"西賢街","SECT":" ","MAREA":" ","LANE":" ","ALLEY":" ","HOUSE_NO":"１６０號","E_COORD97":165843.10000000001,"N_COORD97":2544878.9399999999,"ADDRESS":"西賢街１６０號","OBJECTID":630351},"geometry":{"x":165843.10000000056,"y":2544878.9400000013}},{"attributes":{"ID":630379,"DIS_CODE":0,"TOWNNAME":"中西區","LI":"西賢里","LIN":"4鄰","STREET":"西賢街","SECT":" ","MAREA":" ","LANE":" ","ALLEY":" ","HOUSE_NO":"１６２號","E_COORD97":165836.67000000001,"N_COORD97":2544879.0699999998,"ADDRESS":"西賢街１６２號","OBJECTID":630352},"geometry":{"x":165836.66999999993,"y":2544879.0700000022}},{"attributes":{"ID":630380,"DIS_CODE":0,"TOWNNAME":"中西區","LI":"西賢里","LIN":"4鄰","STREET":"西賢街","SECT":" ","MAREA":" ","LANE":" ","ALLEY":" ","HOUSE_NO":"１６６號","E_COORD97":165831.16,"N_COORD97":2544878.54,"ADDRESS":"西賢街１６６號","OBJECTID":630353},"geometry":{"x":165831.16000000108,"y":2544878.540000001}},{"attributes":{"ID":630381,"DIS_CODE":0,"TOWNNAME":"中西區","LI":"西賢里","LIN":"4鄰","STREET":"西賢街","SECT":" ","MAREA":" ","LANE":" ","ALLEY":" ","HOUSE_NO":"１６８號","E_COORD97":165823.81,"N_COORD97":2544878.6800000002,"ADDRESS":"西賢街１６８號","OBJECTID":630354},"geometry":{"x":165823.80999999866,"y":2544878.6800000016}},{"attributes":{"ID":630382,"DIS_CODE":0,"TOWNNAME":"中西區","LI":"西賢里","LIN":"4鄰","STREET":"西賢街","SECT":" ","MAREA":" ","LANE":" ","ALLEY":" ","HOUSE_NO":"１７０號","E_COORD97":165823.42000000001,"N_COORD97":2544893.4500000002,"ADDRESS":"西賢街１７０號","OBJECTID":630355},"geometry":{"x":165823.41999999899,"y":2544893.4499999993}},{"attributes":{"ID":630383,"DIS_CODE":0,"TOWNNAME":"中西區","LI":"西賢里","LIN":"4鄰","STREET":"西賢街","SECT":" ","MAREA":" ","LANE":" ","ALLEY":" ","HOUSE_NO":"１７８號","E_COORD97":165843.5,"N_COORD97":2544895.4199999999,"ADDRESS":"西賢街１７８號","OBJECTID":630356},"geometry":{"x":165843.50000000186,"y":2544895.4199999999}},{"attributes":{"ID":630384,"DIS_CODE":0,"TOWNNAME":"中西區","LI":"西賢里","LIN":"4鄰","STREET":"西賢街","SECT":" ","MAREA":" ","LANE":" ","ALLEY":" ","HOUSE_NO":"１８０號","E_COORD97":165843.5,"N_COORD97":2544907.0899999999,"ADDRESS":"西賢街１８０號","OBJECTID":630357},"geometry":{"x":165843.50000000186,"y":2544907.0899999999}},{"attributes":{"ID":630385,"DIS_CODE":0,"TOWNNAME":"中西區","LI":"西賢里","LIN":"4鄰","STREET":"西賢街","SECT":" ","MAREA":" ","LANE":" ","ALLEY":" ","HOUSE_NO":"１８２號","E_COORD97":165836.94,"N_COORD97":2544907.0899999999,"ADDRESS":"西賢街１８２號","OBJECTID":630358},"geometry":{"x":165836.94000000041,"y":2544907.0899999999}},{"attributes":{"ID":630386,"DIS_CODE":0,"TOWNNAME":"中西區","LI":"西賢里","LIN":"4鄰","STREET":"西賢街","SECT":" ","MAREA":" ","LANE":" ","ALLEY":" ","HOUSE_NO":"１８６號","E_COORD97":165830.76999999999,"N_COORD97":2544907.7400000002,"ADDRESS":"西賢街１８６號","OBJECTID":630359},"geometry":{"x":165830.76999999955,"y":2544907.7400000039}},{"attributes":{"ID":630387,"DIS_CODE":0,"TOWNNAME":"中西區","LI":"西賢里","LIN":"4鄰","STREET":"西賢街","SECT":" ","MAREA":" ","LANE":" ","ALLEY":" ","HOUSE_NO":"１８８號","E_COORD97":165824.60000000001,"N_COORD97":2544906.04,"ADDRESS":"西賢街１８８號","OBJECTID":630360},"geometry":{"x":165824.59999999963,"y":2544906.040000001}},{"attributes":{"ID":630388,"DIS_CODE":0,"TOWNNAME":"中西區","LI":"西賢里","LIN":"4鄰","STREET":"湖美街","SECT":" ","MAREA":" ","LANE":" ","ALLEY":" ","HOUSE_NO":"１２９號","E_COORD97":165911.66,"N_COORD97":2544784.0899999999,"ADDRESS":"湖美街１２９號","OBJECTID":630361},"geometry":{"x":165911.66000000015,"y":2544784.0900000017}},{"attributes":{"ID":630389,"DIS_CODE":0,"TOWNNAME":"中西區","LI":"西賢里","LIN":"4鄰","STREET":"湖美街","SECT":" ","MAREA":" ","LANE":" ","ALLEY":" ","HOUSE_NO":"１３１號","E_COORD97":165907.39999999999,"N_COORD97":2544784.2599999998,"ADDRESS":"湖美街１３１號","OBJECTID":630362},"geometry":{"x":165907.4000000013,"y":2544784.2599999998}},{"attributes":{"ID":630390,"DIS_CODE":0,"TOWNNAME":"中西區","LI":"西賢里","LIN":"4鄰","STREET":"湖美街","SECT":" ","MAREA":" ","LANE":" ","ALLEY":" ","HOUSE_NO":"１３３號","E_COORD97":165901.89999999999,"N_COORD97":2544784.9700000002,"ADDRESS":"湖美街１３３號","OBJECTID":630363},"geometry":{"x":165901.90000000037,"y":2544784.9700000025}},{"attributes":{"ID":630391,"DIS_CODE":0,"TOWNNAME":"中西區","LI":"西賢里","LIN":"4鄰","STREET":"湖美街","SECT":" ","MAREA":" ","LANE":" ","ALLEY":" ","HOUSE_NO":"１３５號","E_COORD97":165896.39999999999,"N_COORD97":2544785.3300000001,"ADDRESS":"湖美街１３５號","OBJECTID":630364},"geometry":{"x":165896.40000000037,"y":2544785.3300000019}},{"attributes":{"ID":630392,"DIS_CODE":0,"TOWNNAME":"中西區","LI":"西賢里","LIN":"4鄰","STREET":"湖美街","SECT":" ","MAREA":" ","LANE":" ","ALLEY":" ","HOUSE_NO":"１３７號","E_COORD97":165886.45999999999,"N_COORD97":2544785.6800000002,"ADDRESS":"湖美街１３７號","OBJECTID":630365},"geometry":{"x":165886.46000000089,"y":2544785.6800000034}},{"attributes":{"ID":630393,"DIS_CODE":0,"TOWNNAME":"中西區","LI":"西賢里","LIN":"4鄰","STREET":"湖美街","SECT":" ","MAREA":" ","LANE":" ","ALLEY":" ","HOUSE_NO":"１３９號","E_COORD97":165881.13,"N_COORD97":2544784.6200000001,"ADDRESS":"湖美街１３９號","OBJECTID":630366},"geometry":{"x":165881.12999999989,"y":2544784.6200000029}},{"attributes":{"ID":630394,"DIS_CODE":0,"TOWNNAME":"中西區","LI":"西賢里","LIN":"4鄰","STREET":"湖美街","SECT":" ","MAREA":" ","LANE":" ","ALLEY":" ","HOUSE_NO":"１４１號","E_COORD97":165872.26000000001,"N_COORD97":2544784.4399999999,"ADDRESS":"湖美街１４１號","OBJECTID":630367},"geometry":{"x":165872.26000000071,"y":2544784.4400000013}},{"attributes":{"ID":630395,"DIS_CODE":0,"TOWNNAME":"中西區","LI":"西賢里","LIN":"4鄰","STREET":"湖美街","SECT":" ","MAREA":" ","LANE":" ","ALLEY":" ","HOUSE_NO":"１５３號","E_COORD97":165852.42000000001,"N_COORD97":2544806.3900000001,"ADDRESS":"湖美街１５３號","OBJECTID":630368},"geometry":{"x":165852.42000000179,"y":2544806.3900000025}},{"attributes":{"ID":630396,"DIS_CODE":0,"TOWNNAME":"中西區","LI":"西賢里","LIN":"4鄰","STREET":"湖美街","SECT":" ","MAREA":" ","LANE":" ","ALLEY":" ","HOUSE_NO":"１５５號","E_COORD97":165859.04000000001,"N_COORD97":2544808.5899999999,"ADDRESS":"湖美街１５５號","OBJECTID":630369},"geometry":{"x":165859.04000000097,"y":2544808.5899999999}},{"attributes":{"ID":630397,"DIS_CODE":0,"TOWNNAME":"中西區","LI":"西賢里","LIN":"4鄰","STREET":"湖美街","SECT":" ","MAREA":" ","LANE":" ","ALLEY":" ","HOUSE_NO":"１５７號","E_COORD97":165866.20000000001,"N_COORD97":2544810.2400000002,"ADDRESS":"湖美街１５７號","OBJECTID":630370},"geometry":{"x":165866.20000000112,"y":2544810.2400000021}},{"attributes":{"ID":630398,"DIS_CODE":0,"TOWNNAME":"中西區","LI":"西賢里","LIN":"4鄰","STREET":"湖美街","SECT":" ","MAREA":" ","LANE":" ","ALLEY":" ","HOUSE_NO":"１５９號","E_COORD97":165872.44,"N_COORD97":2544809.8799999999,"ADDRESS":"湖美街１５９號","OBJECTID":630371},"geometry":{"x":165872.44000000041,"y":2544809.879999999}},{"attributes":{"ID":630399,"DIS_CODE":0,"TOWNNAME":"中西區","LI":"西賢里","LIN":"4鄰","STREET":"湖美街","SECT":" ","MAREA":" ","LANE":" ","ALLEY":" ","HOUSE_NO":"１６１號","E_COORD97":165880.07000000001,"N_COORD97":2544810.23,"ADDRESS":"湖美街１６１號","OBJECTID":630372},"geometry":{"x":165880.0700000003,"y":2544810.2300000023}},{"attributes":{"ID":630400,"DIS_CODE":0,"TOWNNAME":"中西區","LI":"西賢里","LIN":"4鄰","STREET":"湖美街","SECT":" ","MAREA":" ","LANE":" ","ALLEY":" ","HOUSE_NO":"１６３號","E_COORD97":165886.82000000001,"N_COORD97":2544811.2999999998,"ADDRESS":"湖美街１６３號","OBJECTID":630373},"geometry":{"x":165886.8200000003,"y":2544811.3000000007}},{"attributes":{"ID":630401,"DIS_CODE":0,"TOWNNAME":"中西區","LI":"西賢里","LIN":"4鄰","STREET":"湖美街","SECT":" ","MAREA":" ","LANE":" ","ALLEY":" ","HOUSE_NO":"１６５號","E_COORD97":165894.98000000001,"N_COORD97":2544811.1200000001,"ADDRESS":"湖美街１６５號","OBJECTID":630374},"geometry":{"x":165894.98000000231,"y":2544811.1200000048}},{"attributes":{"ID":630402,"DIS_CODE":0,"TOWNNAME":"東區","LI":"德高里","LIN":"10鄰","STREET":"德高街","SECT":" ","MAREA":" ","LANE":" ","ALLEY":" ","HOUSE_NO":"３６號","E_COORD97":171426.60999999999,"N_COORD97":2540863.4100000001,"ADDRESS":"德高街３６號","OBJECTID":630375},"geometry":{"x":171426.61000000034,"y":2540863.410000002}},{"attributes":{"ID":630403,"DIS_CODE":0,"TOWNNAME":"中西區","LI":"西賢里","LIN":"15鄰","STREET":"和緯路","SECT":"五段","MAREA":" ","LANE":" ","ALLEY":" ","HOUSE_NO":"３３３號","E_COORD97":165766.10000000001,"N_COORD97":2545073.8399999999,"ADDRESS":"和緯路五段３３３號","OBJECTID":630376},"geometry":{"x":165766.10000000149,"y":2545073.8400000017}},{"attributes":{"ID":630404,"DIS_CODE":0,"TOWNNAME":"中西區","LI":"西賢里","LIN":"15鄰","STREET":"和緯路","SECT":"五段","MAREA":" ","LANE":" ","ALLEY":" ","HOUSE_NO":"３３５號","E_COORD97":165756.47,"N_COORD97":2545074.3999999999,"ADDRESS":"和緯路五段３３５號","OBJECTID":630377},"geometry":{"x":165756.46999999974,"y":2545074.4000000022}},{"attributes":{"ID":630405,"DIS_CODE":0,"TOWNNAME":"中西區","LI":"西賢里","LIN":"15鄰","STREET":"和緯路","SECT":"五段","MAREA":" ","LANE":" ","ALLEY":" ","HOUSE_NO":"３４５號","E_COORD97":165745.72,"N_COORD97":2545074.9500000002,"ADDRESS":"和緯路五段３４５號","OBJECTID":630378},"geometry":{"x":165745.72000000067,"y":2545074.950000003}},{"attributes":{"ID":630406,"DIS_CODE":0,"TOWNNAME":"中西區","LI":"西賢里","LIN":"15鄰","STREET":"和緯路","SECT":"五段","MAREA":" ","LANE":" ","ALLEY":" ","HOUSE_NO":"３４７號","E_COORD97":165737.57999999999,"N_COORD97":2545075.3199999998,"ADDRESS":"和緯路五段３４７號","OBJECTID":630379},"geometry":{"x":165737.58000000007,"y":2545075.3200000003}},{"attributes":{"ID":630407,"DIS_CODE":0,"TOWNNAME":"中西區","LI":"藥王里","LIN":"4鄰","STREET":"大福街","SECT":" ","MAREA":" ","LANE":" ","ALLEY":" ","HOUSE_NO":"１７號","E_COORD97":167308.22,"N_COORD97":2544363.75,"ADDRESS":"大福街１７號","OBJECTID":630380},"geometry":{"x":167308.22000000067,"y":2544363.75}},{"attributes":{"ID":630408,"DIS_CODE":0,"TOWNNAME":"中西區","LI":"藥王里","LIN":"4鄰","STREET":"大福街","SECT":" ","MAREA":" ","LANE":" ","ALLEY":" ","HOUSE_NO":"１９號","E_COORD97":167311.12,"N_COORD97":2544368.5800000001,"ADDRESS":"大福街１９號","OBJECTID":630381},"geometry":{"x":167311.12000000104,"y":2544368.5800000001}},{"attributes":{"ID":630409,"DIS_CODE":0,"TOWNNAME":"中西區","LI":"西賢里","LIN":"6鄰","STREET":"湖美街","SECT":" ","MAREA":" ","LANE":" ","ALLEY":" ","HOUSE_NO":"２１７號","E_COORD97":165919.57999999999,"N_COORD97":2544946.6699999999,"ADDRESS":"湖美街２１７號","OBJECTID":630382},"geometry":{"x":165919.58000000101,"y":2544946.6700000018}},{"attributes":{"ID":630410,"DIS_CODE":0,"TOWNNAME":"中西區","LI":"西賢里","LIN":"6鄰","STREET":"湖美街","SECT":" ","MAREA":" ","LANE":" ","ALLEY":" ","HOUSE_NO":"２１７號之１","E_COORD97":165909.98999999999,"N_COORD97":2544950.0299999998,"ADDRESS":"湖美街２１７號之１","OBJECTID":630383},"geometry":{"x":165909.99000000115,"y":2544950.0300000012}},{"attributes":{"ID":630411,"DIS_CODE":0,"TOWNNAME":"中西區","LI":"西賢里","LIN":"6鄰","STREET":"湖美街","SECT":" ","MAREA":" ","LANE":" ","ALLEY":" ","HOUSE_NO":"２１９號","E_COORD97":165919.98000000001,"N_COORD97":2544951.2599999998,"ADDRESS":"湖美街２１９號","OBJECTID":630384},"geometry":{"x":165919.98000000045,"y":2544951.2600000035}},{"attributes":{"ID":630412,"DIS_CODE":0,"TOWNNAME":"中西區","LI":"西賢里","LIN":"6鄰","STREET":"湖美街","SECT":" ","MAREA":" ","LANE":" ","ALLEY":" ","HOUSE_NO":"２２１號","E_COORD97":165919.98000000001,"N_COORD97":2544958.1099999999,"ADDRESS":"湖美街２２１號","OBJECTID":630385},"geometry":{"x":165919.98000000045,"y":2544958.1099999994}},{"attributes":{"ID":630413,"DIS_CODE":0,"TOWNNAME":"中西區","LI":"西賢里","LIN":"6鄰","STREET":"湖美街","SECT":" ","MAREA":" ","LANE":" ","ALLEY":" ","HOUSE_NO":"２２３號","E_COORD97":165919.98000000001,"N_COORD97":2544961.4500000002,"ADDRESS":"湖美街２２３號","OBJECTID":630386},"geometry":{"x":165919.98000000045,"y":2544961.4499999993}},{"attributes":{"ID":630414,"DIS_CODE":0,"TOWNNAME":"中西區","LI":"西賢里","LIN":"6鄰","STREET":"湖美街","SECT":" ","MAREA":" ","LANE":" ","ALLEY":" ","HOUSE_NO":"２２５號","E_COORD97":165918.64000000001,"N_COORD97":2544966.29,"ADDRESS":"湖美街２２５號","OBJECTID":630387},"geometry":{"x":165918.6400000006,"y":2544966.2899999991}},{"attributes":{"ID":630415,"DIS_CODE":0,"TOWNNAME":"中西區","LI":"西賢里","LIN":"6鄰","STREET":"湖美街","SECT":" ","MAREA":" ","LANE":" ","ALLEY":" ","HOUSE_NO":"２２７號","E_COORD97":165918.48000000001,"N_COORD97":2544972.1400000001,"ADDRESS":"湖美街２２７號","OBJECTID":630388},"geometry":{"x":165918.48000000045,"y":2544972.1400000006}},{"attributes":{"ID":630416,"DIS_CODE":0,"TOWNNAME":"中西區","LI":"西賢里","LIN":"6鄰","STREET":"湖美街","SECT":" ","MAREA":" ","LANE":" ","ALLEY":" ","HOUSE_NO":"２２９號","E_COORD97":165919.98000000001,"N_COORD97":2544976.48,"ADDRESS":"湖美街２２９號","OBJECTID":630389},"geometry":{"x":165919.98000000045,"y":2544976.4800000004}},{"attributes":{"ID":630417,"DIS_CODE":0,"TOWNNAME":"永康區","LI":"勝利里","LIN":"20鄰","STREET":"勝華街","SECT":" ","MAREA":" ","LANE":" ","ALLEY":" ","HOUSE_NO":"６３號","E_COORD97":171349.25,"N_COORD97":2545206.0499999998,"ADDRESS":"勝華街６３號","OBJECTID":630390},"geometry":{"x":171349.25,"y":2545206.0500000026}},{"attributes":{"ID":630418,"DIS_CODE":0,"TOWNNAME":"東區","LI":"大智里","LIN":"25鄰","STREET":"文東街","SECT":" ","MAREA":" ","LANE":" ","ALLEY":" ","HOUSE_NO":"６９號","E_COORD97":171344.87,"N_COORD97":2540214.3399999999,"ADDRESS":"文東街６９號","OBJECTID":630391},"geometry":{"x":171344.87000000011,"y":2540214.3400000036}},{"attributes":{"ID":630419,"DIS_CODE":0,"TOWNNAME":"永康區","LI":"復國里","LIN":"4鄰","STREET":"復國一路","SECT":" ","MAREA":" ","LANE":" ","ALLEY":" ","HOUSE_NO":"７６號","E_COORD97":172722.34,"N_COORD97":2544886.4700000002,"ADDRESS":"復國一路７６號","OBJECTID":630392},"geometry":{"x":172722.34000000078,"y":2544886.4700000044}},{"attributes":{"ID":630420,"DIS_CODE":0,"TOWNNAME":"永康區","LI":"崑山里","LIN":"18鄰","STREET":"大灣路","SECT":" ","MAREA":" ","LANE":" ","ALLEY":" ","HOUSE_NO":"８９２號","E_COORD97":173739.57000000001,"N_COORD97":2544451.4399999999,"ADDRESS":"大灣路８９２號","OBJECTID":630393},"geometry":{"x":173739.57000000216,"y":2544451.4400000032}},{"attributes":{"ID":630421,"DIS_CODE":0,"TOWNNAME":"永康區","LI":"勝利里","LIN":"26鄰","STREET":"勝利街","SECT":" ","MAREA":" ","LANE":" ","ALLEY":" ","HOUSE_NO":"８０號","E_COORD97":171353.76999999999,"N_COORD97":2544724.7200000002,"ADDRESS":"勝利街８０號","OBJECTID":630394},"geometry":{"x":171353.76999999862,"y":2544724.7200000007}},{"attributes":{"ID":630422,"DIS_CODE":0,"TOWNNAME":"東區","LI":"大智里","LIN":"25鄰","STREET":"文東街","SECT":" ","MAREA":" ","LANE":" ","ALLEY":" ","HOUSE_NO":"７１號","E_COORD97":171348.47,"N_COORD97":2540217.2200000002,"ADDRESS":"文東街７１號","OBJECTID":630395},"geometry":{"x":171348.47000000067,"y":2540217.2200000025}},{"attributes":{"ID":630423,"DIS_CODE":0,"TOWNNAME":"永康區","LI":"勝利里","LIN":"20鄰","STREET":"勝學路","SECT":" ","MAREA":" ","LANE":" ","ALLEY":" ","HOUSE_NO":"２７６號","E_COORD97":171210.20999999999,"N_COORD97":2545321.1400000001,"ADDRESS":"勝學路２７６號","OBJECTID":630396},"geometry":{"x":171210.20999999996,"y":2545321.1400000006}},{"attributes":{"ID":630424,"DIS_CODE":0,"TOWNNAME":"永康區","LI":"勝利里","LIN":"20鄰","STREET":"勝華街","SECT":" ","MAREA":" ","LANE":" ","ALLEY":" ","HOUSE_NO":"６７號","E_COORD97":171338.29999999999,"N_COORD97":2545206.2999999998,"ADDRESS":"勝華街６７號","OBJECTID":630397},"geometry":{"x":171338.29999999981,"y":2545206.3000000045}},{"attributes":{"ID":630425,"DIS_CODE":0,"TOWNNAME":"永康區","LI":"勝利里","LIN":"20鄰","STREET":"勝學路","SECT":" ","MAREA":" ","LANE":" ","ALLEY":" ","HOUSE_NO":"２４１號","E_COORD97":171163.01000000001,"N_COORD97":2545232.5,"ADDRESS":"勝學路２４１號","OBJECTID":630398},"geometry":{"x":171163.01000000071,"y":2545232.5000000019}},{"attributes":{"ID":630426,"DIS_CODE":0,"TOWNNAME":"永康區","LI":"復國里","LIN":"13鄰","STREET":"復國二路","SECT":" ","MAREA":" ","LANE":" ","ALLEY":" ","HOUSE_NO":"１３０號","E_COORD97":172878.01999999999,"N_COORD97":2545519.5299999998,"ADDRESS":"復國二路１３０號","OBJECTID":630399},"geometry":{"x":172878.02000000048,"y":2545519.5300000012}},{"attributes":{"ID":630427,"DIS_CODE":0,"TOWNNAME":"永康區","LI":"勝利里","LIN":"24鄰","STREET":"勝利街","SECT":" ","MAREA":" ","LANE":" ","ALLEY":" ","HOUSE_NO":"１００號","E_COORD97":171360.66,"N_COORD97":2544823.75,"ADDRESS":"勝利街１００號","OBJECTID":630400},"geometry":{"x":171360.66000000108,"y":2544823.7500000019}}]}