{"displayFieldName":"TOWNNAME","fieldAliases":{"ID":"ID","DIS_CODE":"DIS_CODE","TOWNNAME":"TOWNNAME","LI":"LI","LIN":"LIN","STREET":"STREET","SECT":"SECT","MAREA":"MAREA","LANE":"LANE","ALLEY":"ALLEY","HOUSE_NO":"HOUSE_NO","E_COORD97":"E_COORD97","N_COORD97":"N_COORD97","ADDRESS":"ADDRESS","OBJECTID":"OBJECTID"},"geometryType":"esriGeometryPoint","spatialReference":{"wkid":102443,"latestWkid":3826},"fields":[{"name":"ID","type":"esriFieldTypeDouble","alias":"ID"},{"name":"DIS_CODE","type":"esriFieldTypeInteger","alias":"DIS_CODE"},{"name":"TOWNNAME","type":"esriFieldTypeString","alias":"TOWNNAME","length":8},{"name":"LI","type":"esriFieldTypeString","alias":"LI","length":8},{"name":"LIN","type":"esriFieldTypeString","alias":"LIN","length":12},{"name":"STREET","type":"esriFieldTypeString","alias":"STREET","length":20},{"name":"SECT","type":"esriFieldTypeString","alias":"SECT","length":8},{"name":"MAREA","type":"esriFieldTypeString","alias":"MAREA","length":12},{"name":"LANE","type":"esriFieldTypeString","alias":"LANE","length":10},{"name":"ALLEY","type":"esriFieldTypeString","alias":"ALLEY","length":10},{"name":"HOUSE_NO","type":"esriFieldTypeString","alias":"HOUSE_NO","length":20},{"name":"E_COORD97","type":"esriFieldTypeDouble","alias":"E_COORD97"},{"name":"N_COORD97","type":"esriFieldTypeDouble","alias":"N_COORD97"},{"name":"ADDRESS","type":"esriFieldTypeString","alias":"ADDRESS","length":50},{"name":"OBJECTID","type":"esriFieldTypeOID","alias":"OBJECTID"}],"features":[{"attributes":{"ID":409025,"DIS_CODE":0,"TOWNNAME":"中西區","LI":"西賢里","LIN":"22鄰","STREET":"西賢一街","SECT":" ","MAREA":" ","LANE":"１８７巷","ALLEY":" ","HOUSE_NO":"２１２號","E_COORD97":165541.13,"N_COORD97":2545007.2000000002,"ADDRESS":"西賢一街１８７巷２１２號","OBJECTID":409001},"geometry":{"x":165541.13000000082,"y":2545007.1999999993}},{"attributes":{"ID":409026,"DIS_CODE":0,"TOWNNAME":"中西區","LI":"西賢里","LIN":"22鄰","STREET":"西賢一街","SECT":" ","MAREA":" ","LANE":"１８７巷","ALLEY":" ","HOUSE_NO":"２１６號","E_COORD97":165536.57000000001,"N_COORD97":2545007.2000000002,"ADDRESS":"西賢一街１８７巷２１６號","OBJECTID":409002},"geometry":{"x":165536.57000000216,"y":2545007.1999999993}},{"attributes":{"ID":409027,"DIS_CODE":0,"TOWNNAME":"中西區","LI":"西賢里","LIN":"22鄰","STREET":"西賢一街","SECT":" ","MAREA":" ","LANE":"１８７巷","ALLEY":" ","HOUSE_NO":"２１８號","E_COORD97":165533.10999999999,"N_COORD97":2545008.1899999999,"ADDRESS":"西賢一街１８７巷２１８號","OBJECTID":409003},"geometry":{"x":165533.11000000127,"y":2545008.1899999995}},{"attributes":{"ID":409028,"DIS_CODE":0,"TOWNNAME":"中西區","LI":"西賢里","LIN":"22鄰","STREET":"西賢一街","SECT":" ","MAREA":" ","LANE":"２３５巷","ALLEY":" ","HOUSE_NO":"６０號","E_COORD97":165581.78,"N_COORD97":2545050.77,"ADDRESS":"西賢一街２３５巷６０號","OBJECTID":409004},"geometry":{"x":165581.78000000026,"y":2545050.7700000014}},{"attributes":{"ID":409029,"DIS_CODE":0,"TOWNNAME":"中西區","LI":"西賢里","LIN":"22鄰","STREET":"西賢一街","SECT":" ","MAREA":" ","LANE":"２３５巷","ALLEY":" ","HOUSE_NO":"６２號","E_COORD97":165585.91,"N_COORD97":2545050.5600000001,"ADDRESS":"西賢一街２３５巷６２號","OBJECTID":409005},"geometry":{"x":165585.91000000015,"y":2545050.5600000005}},{"attributes":{"ID":409030,"DIS_CODE":0,"TOWNNAME":"中西區","LI":"萬昌里","LIN":"22鄰","STREET":"北門路","SECT":"一段","MAREA":" ","LANE":"５１巷","ALLEY":" ","HOUSE_NO":"８號","E_COORD97":169134.25,"N_COORD97":2543427.3100000001,"ADDRESS":"北門路一段５１巷８號","OBJECTID":409006},"geometry":{"x":169134.25000000093,"y":2543427.3100000024}},{"attributes":{"ID":409031,"DIS_CODE":0,"TOWNNAME":"中西區","LI":"萬昌里","LIN":"22鄰","STREET":"青年路","SECT":" ","MAREA":" ","LANE":"２２６巷","ALLEY":" ","HOUSE_NO":"６３號","E_COORD97":169112.51999999999,"N_COORD97":2543456.8399999999,"ADDRESS":"青年路２２６巷６３號","OBJECTID":409007},"geometry":{"x":169112.51999999955,"y":2543456.8400000017}},{"attributes":{"ID":409032,"DIS_CODE":0,"TOWNNAME":"中西區","LI":"萬昌里","LIN":"22鄰","STREET":"青年路","SECT":" ","MAREA":" ","LANE":"２２６巷","ALLEY":" ","HOUSE_NO":"６５號","E_COORD97":169110.57000000001,"N_COORD97":2543449.0299999998,"ADDRESS":"青年路２２６巷６５號","OBJECTID":409008},"geometry":{"x":169110.57000000123,"y":2543449.0299999993}},{"attributes":{"ID":409033,"DIS_CODE":0,"TOWNNAME":"中西區","LI":"萬昌里","LIN":"22鄰","STREET":"青年路","SECT":" ","MAREA":" ","LANE":"２２６巷","ALLEY":" ","HOUSE_NO":"６７號","E_COORD97":169109.87,"N_COORD97":2543447.0800000001,"ADDRESS":"青年路２２６巷６７號","OBJECTID":409009},"geometry":{"x":169109.87000000104,"y":2543447.0800000001}},{"attributes":{"ID":409034,"DIS_CODE":0,"TOWNNAME":"永康區","LI":"勝利里","LIN":"22鄰","STREET":"中華路","SECT":" ","MAREA":" ","LANE":"２１７巷","ALLEY":" ","HOUSE_NO":"４號","E_COORD97":171581.44,"N_COORD97":2545059.75,"ADDRESS":"中華路２１７巷４號","OBJECTID":409010},"geometry":{"x":171581.44000000134,"y":2545059.7499999981}},{"attributes":{"ID":409035,"DIS_CODE":0,"TOWNNAME":"永康區","LI":"崑山里","LIN":"38鄰","STREET":"崑山街","SECT":" ","MAREA":" ","LANE":"１８３巷","ALLEY":" ","HOUSE_NO":"１８號","E_COORD97":174006.94,"N_COORD97":2544976.2799999998,"ADDRESS":"崑山街１８３巷１８號","OBJECTID":409011},"geometry":{"x":174006.94000000134,"y":2544976.2799999993}},{"attributes":{"ID":409036,"DIS_CODE":0,"TOWNNAME":"永康區","LI":"崑山里","LIN":"46鄰","STREET":"崑山街","SECT":" ","MAREA":" ","LANE":"２５８巷","ALLEY":" ","HOUSE_NO":"１５號","E_COORD97":174176.79999999999,"N_COORD97":2545140.0800000001,"ADDRESS":"崑山街２５８巷１５號","OBJECTID":409012},"geometry":{"x":174176.80000000075,"y":2545140.0800000019}},{"attributes":{"ID":409037,"DIS_CODE":0,"TOWNNAME":"永康區","LI":"崑山里","LIN":"35鄰","STREET":"大灣路","SECT":" ","MAREA":" ","LANE":"９４２巷","ALLEY":" ","HOUSE_NO":"２８１號","E_COORD97":173793.60000000001,"N_COORD97":2545005.3999999999,"ADDRESS":"大灣路９４２巷２８１號","OBJECTID":409013},"geometry":{"x":173793.60000000056,"y":2545005.4000000041}},{"attributes":{"ID":409038,"DIS_CODE":0,"TOWNNAME":"永康區","LI":"崑山里","LIN":"19鄰","STREET":"崑山街","SECT":" ","MAREA":" ","LANE":"５巷","ALLEY":" ","HOUSE_NO":"３號","E_COORD97":173873.01000000001,"N_COORD97":2544515.7999999998,"ADDRESS":"崑山街５巷３號","OBJECTID":409014},"geometry":{"x":173873.00999999978,"y":2544515.8000000026}},{"attributes":{"ID":409039,"DIS_CODE":0,"TOWNNAME":"中西區","LI":"萬昌里","LIN":"22鄰","STREET":"青年路","SECT":" ","MAREA":" ","LANE":"２２６巷","ALLEY":" ","HOUSE_NO":"６９號","E_COORD97":169110.01999999999,"N_COORD97":2543445.9100000001,"ADDRESS":"青年路２２６巷６９號","OBJECTID":409015},"geometry":{"x":169110.02000000048,"y":2543445.910000002}},{"attributes":{"ID":409040,"DIS_CODE":0,"TOWNNAME":"中西區","LI":"萬昌里","LIN":"22鄰","STREET":"青年路","SECT":" ","MAREA":" ","LANE":"２２６巷","ALLEY":" ","HOUSE_NO":"７１號","E_COORD97":169103.79999999999,"N_COORD97":2543430.9500000002,"ADDRESS":"青年路２２６巷７１號","OBJECTID":409016},"geometry":{"x":169103.79999999981,"y":2543430.9500000011}},{"attributes":{"ID":409041,"DIS_CODE":0,"TOWNNAME":"永康區","LI":"勝利里","LIN":"22鄰","STREET":"中華路","SECT":" ","MAREA":" ","LANE":"２１７巷","ALLEY":" ","HOUSE_NO":"１３號","E_COORD97":171567.10999999999,"N_COORD97":2545044.3700000001,"ADDRESS":"中華路２１７巷１３號","OBJECTID":409017},"geometry":{"x":171567.11000000034,"y":2545044.3700000029}},{"attributes":{"ID":409042,"DIS_CODE":0,"TOWNNAME":"永康區","LI":"崑山里","LIN":"22鄰","STREET":"崑山街","SECT":" ","MAREA":" ","LANE":"５６巷","ALLEY":" ","HOUSE_NO":"１２號","E_COORD97":173979.79999999999,"N_COORD97":2544635.9199999999,"ADDRESS":"崑山街５６巷１２號","OBJECTID":409018},"geometry":{"x":173979.80000000168,"y":2544635.9200000018}},{"attributes":{"ID":409043,"DIS_CODE":0,"TOWNNAME":"東區","LI":"大智里","LIN":"22鄰","STREET":"崇善十五街","SECT":" ","MAREA":" ","LANE":"３３巷","ALLEY":" ","HOUSE_NO":"９０號","E_COORD97":171296.76999999999,"N_COORD97":2540449.1699999999,"ADDRESS":"崇善十五街３３巷９０號","OBJECTID":409019},"geometry":{"x":171296.77000000048,"y":2540449.1699999999}},{"attributes":{"ID":409044,"DIS_CODE":0,"TOWNNAME":"東區","LI":"龍山里","LIN":"22鄰","STREET":"東門路","SECT":"二段","MAREA":" ","LANE":"１０４巷","ALLEY":" ","HOUSE_NO":"７號","E_COORD97":170052.39000000001,"N_COORD97":2542928.1800000002,"ADDRESS":"東門路二段１０４巷７號","OBJECTID":409020},"geometry":{"x":170052.38999999966,"y":2542928.1800000016}},{"attributes":{"ID":409045,"DIS_CODE":0,"TOWNNAME":"東區","LI":"龍山里","LIN":"22鄰","STREET":"東門路","SECT":"二段","MAREA":" ","LANE":"１０４巷","ALLEY":" ","HOUSE_NO":"５號","E_COORD97":170053.51000000001,"N_COORD97":2542931.73,"ADDRESS":"東門路二段１０４巷５號","OBJECTID":409021},"geometry":{"x":170053.50999999978,"y":2542931.7300000042}},{"attributes":{"ID":409046,"DIS_CODE":0,"TOWNNAME":"東區","LI":"龍山里","LIN":"22鄰","STREET":"東門路","SECT":"二段","MAREA":" ","LANE":"１０４巷","ALLEY":" ","HOUSE_NO":"１３號","E_COORD97":170070.01000000001,"N_COORD97":2542928.2999999998,"ADDRESS":"東門路二段１０４巷１３號","OBJECTID":409022},"geometry":{"x":170070.01000000071,"y":2542928.3000000026}},{"attributes":{"ID":409047,"DIS_CODE":0,"TOWNNAME":"東區","LI":"龍山里","LIN":"22鄰","STREET":"東門路","SECT":"二段","MAREA":" ","LANE":"１０４巷","ALLEY":" ","HOUSE_NO":"２７號","E_COORD97":170052.39000000001,"N_COORD97":2542906.9700000002,"ADDRESS":"東門路二段１０４巷２７號","OBJECTID":409023},"geometry":{"x":170052.38999999966,"y":2542906.9700000025}},{"attributes":{"ID":409048,"DIS_CODE":0,"TOWNNAME":"東區","LI":"後甲里","LIN":"22鄰","STREET":"中華東路","SECT":"一段","MAREA":" ","LANE":"２０７巷","ALLEY":" ","HOUSE_NO":"２號","E_COORD97":171483.67000000001,"N_COORD97":2543389.27,"ADDRESS":"中華東路一段２０７巷２號","OBJECTID":409024},"geometry":{"x":171483.66999999899,"y":2543389.2700000014}},{"attributes":{"ID":409049,"DIS_CODE":0,"TOWNNAME":"東區","LI":"後甲里","LIN":"22鄰","STREET":"中華東路","SECT":"一段","MAREA":" ","LANE":"２０７巷","ALLEY":" ","HOUSE_NO":"１４號","E_COORD97":171507.54999999999,"N_COORD97":2543394.0899999999,"ADDRESS":"中華東路一段２０７巷１４號","OBJECTID":409025},"geometry":{"x":171507.54999999981,"y":2543394.0900000017}},{"attributes":{"ID":409050,"DIS_CODE":0,"TOWNNAME":"東區","LI":"後甲里","LIN":"22鄰","STREET":"中華東路","SECT":"一段","MAREA":" ","LANE":"２１７巷","ALLEY":" ","HOUSE_NO":"４號","E_COORD97":171479.29999999999,"N_COORD97":2543363.3399999999,"ADDRESS":"中華東路一段２１７巷４號","OBJECTID":409026},"geometry":{"x":171479.29999999888,"y":2543363.3399999999}},{"attributes":{"ID":409051,"DIS_CODE":0,"TOWNNAME":"東區","LI":"後甲里","LIN":"22鄰","STREET":"中華東路","SECT":"一段","MAREA":" ","LANE":"２１７巷","ALLEY":" ","HOUSE_NO":"６號","E_COORD97":171475.20000000001,"N_COORD97":2543353.29,"ADDRESS":"中華東路一段２１７巷６號","OBJECTID":409027},"geometry":{"x":171475.20000000019,"y":2543353.2899999972}},{"attributes":{"ID":409052,"DIS_CODE":0,"TOWNNAME":"東區","LI":"後甲里","LIN":"22鄰","STREET":"中華東路","SECT":"一段","MAREA":" ","LANE":"２１７巷","ALLEY":" ","HOUSE_NO":"１１號","E_COORD97":171496.42999999999,"N_COORD97":2543363.5800000001,"ADDRESS":"中華東路一段２１７巷１１號","OBJECTID":409028},"geometry":{"x":171496.4299999997,"y":2543363.5800000019}},{"attributes":{"ID":409053,"DIS_CODE":0,"TOWNNAME":"永康區","LI":"勝利里","LIN":"24鄰","STREET":"勝利街","SECT":" ","MAREA":" ","LANE":"１１６巷","ALLEY":" ","HOUSE_NO":"３１號","E_COORD97":171425.67999999999,"N_COORD97":2544865.2599999998,"ADDRESS":"勝利街１１６巷３１號","OBJECTID":409029},"geometry":{"x":171425.6799999997,"y":2544865.2599999998}},{"attributes":{"ID":409054,"DIS_CODE":0,"TOWNNAME":"東區","LI":"後甲里","LIN":"22鄰","STREET":"中華東路","SECT":"一段","MAREA":" ","LANE":"２１７巷","ALLEY":" ","HOUSE_NO":"１２號","E_COORD97":171478.57000000001,"N_COORD97":2543340.2799999998,"ADDRESS":"中華東路一段２１７巷１２號","OBJECTID":409030},"geometry":{"x":171478.57000000123,"y":2543340.2800000031}},{"attributes":{"ID":409055,"DIS_CODE":0,"TOWNNAME":"東區","LI":"後甲里","LIN":"22鄰","STREET":"中華東路","SECT":"一段","MAREA":" ","LANE":"２１７巷","ALLEY":" ","HOUSE_NO":"１４號","E_COORD97":171478.81,"N_COORD97":2543336.4199999999,"ADDRESS":"中華東路一段２１７巷１４號","OBJECTID":409031},"geometry":{"x":171478.80999999959,"y":2543336.4200000037}},{"attributes":{"ID":409056,"DIS_CODE":0,"TOWNNAME":"東區","LI":"後甲里","LIN":"22鄰","STREET":"中華東路","SECT":"一段","MAREA":" ","LANE":"２１７巷","ALLEY":" ","HOUSE_NO":"１６號","E_COORD97":171479.06,"N_COORD97":2543332.5699999998,"ADDRESS":"中華東路一段２１７巷１６號","OBJECTID":409032},"geometry":{"x":171479.06000000145,"y":2543332.570000004}},{"attributes":{"ID":409057,"DIS_CODE":0,"TOWNNAME":"東區","LI":"東光里","LIN":"22鄰","STREET":"東安路","SECT":" ","MAREA":" ","LANE":"１３４巷","ALLEY":" ","HOUSE_NO":"３５號","E_COORD97":170808.23000000001,"N_COORD97":2543835.0899999999,"ADDRESS":"東安路１３４巷３５號","OBJECTID":409033},"geometry":{"x":170808.23000000138,"y":2543835.0900000017}},{"attributes":{"ID":409058,"DIS_CODE":0,"TOWNNAME":"東區","LI":"東光里","LIN":"22鄰","STREET":"東安路","SECT":" ","MAREA":" ","LANE":"１３４巷","ALLEY":" ","HOUSE_NO":"３７號","E_COORD97":170812.45999999999,"N_COORD97":2543837.29,"ADDRESS":"東安路１３４巷３７號","OBJECTID":409034},"geometry":{"x":170812.46000000089,"y":2543837.2899999991}},{"attributes":{"ID":409059,"DIS_CODE":0,"TOWNNAME":"東區","LI":"東光里","LIN":"22鄰","STREET":"東安路","SECT":" ","MAREA":" ","LANE":"１３４巷","ALLEY":" ","HOUSE_NO":"３９號","E_COORD97":170815.88,"N_COORD97":2543833.79,"ADDRESS":"東安路１３４巷３９號","OBJECTID":409035},"geometry":{"x":170815.87999999989,"y":2543833.7899999991}},{"attributes":{"ID":409060,"DIS_CODE":0,"TOWNNAME":"東區","LI":"東光里","LIN":"22鄰","STREET":"東安路","SECT":" ","MAREA":" ","LANE":"１３４巷","ALLEY":" ","HOUSE_NO":"４１號","E_COORD97":170820.59,"N_COORD97":2543835.4199999999,"ADDRESS":"東安路１３４巷４１號","OBJECTID":409036},"geometry":{"x":170820.58999999985,"y":2543835.4200000018}},{"attributes":{"ID":409061,"DIS_CODE":0,"TOWNNAME":"東區","LI":"東光里","LIN":"22鄰","STREET":"東安路","SECT":" ","MAREA":" ","LANE":"１３４巷","ALLEY":" ","HOUSE_NO":"４３號","E_COORD97":170824.82000000001,"N_COORD97":2543832,"ADDRESS":"東安路１３４巷４３號","OBJECTID":409037},"geometry":{"x":170824.8200000003,"y":2543832.0000000019}},{"attributes":{"ID":409062,"DIS_CODE":0,"TOWNNAME":"東區","LI":"東光里","LIN":"22鄰","STREET":"東安路","SECT":" ","MAREA":" ","LANE":"１３４巷","ALLEY":" ","HOUSE_NO":"４５號","E_COORD97":170828.89999999999,"N_COORD97":2543834.5800000001,"ADDRESS":"東安路１３４巷４５號","OBJECTID":409038},"geometry":{"x":170828.9000000013,"y":2543834.5800000019}},{"attributes":{"ID":409063,"DIS_CODE":0,"TOWNNAME":"東區","LI":"東光里","LIN":"22鄰","STREET":"東安路","SECT":" ","MAREA":" ","LANE":"１３４巷","ALLEY":" ","HOUSE_NO":"４７號","E_COORD97":170833.35999999999,"N_COORD97":2543831.8300000001,"ADDRESS":"東安路１３４巷４７號","OBJECTID":409039},"geometry":{"x":170833.36000000034,"y":2543831.8300000001}},{"attributes":{"ID":409064,"DIS_CODE":0,"TOWNNAME":"東區","LI":"東光里","LIN":"22鄰","STREET":"東安路","SECT":" ","MAREA":" ","LANE":"１３４巷","ALLEY":" ","HOUSE_NO":"４９號","E_COORD97":170837.67000000001,"N_COORD97":2543834.21,"ADDRESS":"東安路１３４巷４９號","OBJECTID":409040},"geometry":{"x":170837.66999999993,"y":2543834.2100000028}},{"attributes":{"ID":409065,"DIS_CODE":0,"TOWNNAME":"東區","LI":"東光里","LIN":"22鄰","STREET":"東安路","SECT":" ","MAREA":" ","LANE":"１３４巷","ALLEY":" ","HOUSE_NO":"５１號","E_COORD97":170842.28,"N_COORD97":2543831.6099999999,"ADDRESS":"東安路１３４巷５１號","OBJECTID":409041},"geometry":{"x":170842.28000000026,"y":2543831.6099999994}},{"attributes":{"ID":409066,"DIS_CODE":0,"TOWNNAME":"東區","LI":"東光里","LIN":"22鄰","STREET":"東安路","SECT":" ","MAREA":" ","LANE":"１３４巷","ALLEY":" ","HOUSE_NO":"５３號","E_COORD97":170848.97,"N_COORD97":2543830.5,"ADDRESS":"東安路１３４巷５３號","OBJECTID":409042},"geometry":{"x":170848.96999999974,"y":2543830.5}},{"attributes":{"ID":409067,"DIS_CODE":0,"TOWNNAME":"東區","LI":"東光里","LIN":"22鄰","STREET":"東安路","SECT":" ","MAREA":" ","LANE":"１３４巷","ALLEY":" ","HOUSE_NO":"５５號","E_COORD97":170853.64999999999,"N_COORD97":2543829.75,"ADDRESS":"東安路１３４巷５５號","OBJECTID":409043},"geometry":{"x":170853.64999999944,"y":2543829.7500000019}},{"attributes":{"ID":409068,"DIS_CODE":0,"TOWNNAME":"東區","LI":"東光里","LIN":"22鄰","STREET":"東安路","SECT":" ","MAREA":" ","LANE":"１３４巷","ALLEY":" ","HOUSE_NO":"５７號","E_COORD97":170856.98999999999,"N_COORD97":2543827.8999999999,"ADDRESS":"東安路１３４巷５７號","OBJECTID":409044},"geometry":{"x":170856.99000000115,"y":2543827.9000000004}},{"attributes":{"ID":409069,"DIS_CODE":0,"TOWNNAME":"安南區","LI":"安慶里","LIN":"22鄰","STREET":"安中路","SECT":"一段","MAREA":" ","LANE":"１８９巷","ALLEY":" ","HOUSE_NO":"７９號","E_COORD97":168786.92999999999,"N_COORD97":2548278.3300000001,"ADDRESS":"安中路一段１８９巷７９號","OBJECTID":409045},"geometry":{"x":168786.93000000063,"y":2548278.3300000019}},{"attributes":{"ID":409070,"DIS_CODE":0,"TOWNNAME":"安南區","LI":"安慶里","LIN":"22鄰","STREET":"安中路","SECT":"一段","MAREA":" ","LANE":"１８９巷","ALLEY":" ","HOUSE_NO":"８１號","E_COORD97":168787.39000000001,"N_COORD97":2548274.2799999998,"ADDRESS":"安中路一段１８９巷８１號","OBJECTID":409046},"geometry":{"x":168787.3900000006,"y":2548274.2800000012}},{"attributes":{"ID":409071,"DIS_CODE":0,"TOWNNAME":"安南區","LI":"安慶里","LIN":"22鄰","STREET":"安中路","SECT":"一段","MAREA":" ","LANE":"１８９巷","ALLEY":" ","HOUSE_NO":"９１號","E_COORD97":168789.23000000001,"N_COORD97":2548251.77,"ADDRESS":"安中路一段１８９巷９１號","OBJECTID":409047},"geometry":{"x":168789.23000000138,"y":2548251.7699999996}},{"attributes":{"ID":409072,"DIS_CODE":0,"TOWNNAME":"安南區","LI":"安慶里","LIN":"22鄰","STREET":"安中路","SECT":"一段","MAREA":" ","LANE":"１８９巷","ALLEY":" ","HOUSE_NO":"９３號","E_COORD97":168790.35000000001,"N_COORD97":2548247.9199999999,"ADDRESS":"安中路一段１８９巷９３號","OBJECTID":409048},"geometry":{"x":168790.35000000149,"y":2548247.9199999999}},{"attributes":{"ID":409073,"DIS_CODE":0,"TOWNNAME":"永康區","LI":"崑山里","LIN":"35鄰","STREET":"大灣路","SECT":" ","MAREA":" ","LANE":"９４２巷","ALLEY":" ","HOUSE_NO":"３１９號","E_COORD97":173822.29999999999,"N_COORD97":2545079.5,"ADDRESS":"大灣路９４２巷３１９號","OBJECTID":409049},"geometry":{"x":173822.30000000075,"y":2545079.5000000019}},{"attributes":{"ID":409074,"DIS_CODE":0,"TOWNNAME":"永康區","LI":"中華里","LIN":"22鄰","STREET":"華興街","SECT":" ","MAREA":" ","LANE":"１２０巷","ALLEY":" ","HOUSE_NO":"８號","E_COORD97":171800.28,"N_COORD97":2544611.4399999999,"ADDRESS":"華興街１２０巷８號","OBJECTID":409050},"geometry":{"x":171800.27999999933,"y":2544611.4400000013}},{"attributes":{"ID":409075,"DIS_CODE":0,"TOWNNAME":"永康區","LI":"中華里","LIN":"22鄰","STREET":"忠勇街","SECT":" ","MAREA":" ","LANE":"６３巷","ALLEY":" ","HOUSE_NO":"１３號","E_COORD97":171838.53,"N_COORD97":2544613.1899999999,"ADDRESS":"忠勇街６３巷１３號","OBJECTID":409051},"geometry":{"x":171838.53000000119,"y":2544613.1900000013}},{"attributes":{"ID":409076,"DIS_CODE":0,"TOWNNAME":"永康區","LI":"中華里","LIN":"22鄰","STREET":"忠勇街","SECT":" ","MAREA":" ","LANE":"６３巷","ALLEY":" ","HOUSE_NO":"１號","E_COORD97":171862.78,"N_COORD97":2544612.4300000002,"ADDRESS":"忠勇街６３巷１號","OBJECTID":409052},"geometry":{"x":171862.78000000026,"y":2544612.4300000016}},{"attributes":{"ID":409077,"DIS_CODE":0,"TOWNNAME":"永康區","LI":"中華里","LIN":"22鄰","STREET":"忠勇街","SECT":" ","MAREA":" ","LANE":"６３巷","ALLEY":" ","HOUSE_NO":"９號","E_COORD97":171845.39999999999,"N_COORD97":2544613.1899999999,"ADDRESS":"忠勇街６３巷９號","OBJECTID":409053},"geometry":{"x":171845.39999999944,"y":2544613.1900000013}},{"attributes":{"ID":409078,"DIS_CODE":0,"TOWNNAME":"永康區","LI":"中華里","LIN":"22鄰","STREET":"忠勇街","SECT":" ","MAREA":" ","LANE":"６３巷","ALLEY":" ","HOUSE_NO":"１７號","E_COORD97":171829.89999999999,"N_COORD97":2544613.0600000001,"ADDRESS":"忠勇街６３巷１７號","OBJECTID":409054},"geometry":{"x":171829.90000000037,"y":2544613.0600000005}},{"attributes":{"ID":409079,"DIS_CODE":0,"TOWNNAME":"永康區","LI":"二王里","LIN":"22鄰","STREET":"中山南路","SECT":" ","MAREA":" ","LANE":"６１６巷","ALLEY":" ","HOUSE_NO":"２０號","E_COORD97":172321.07000000001,"N_COORD97":2546539.6899999999,"ADDRESS":"中山南路６１６巷２０號","OBJECTID":409055},"geometry":{"x":172321.07000000123,"y":2546539.6900000013}},{"attributes":{"ID":409080,"DIS_CODE":0,"TOWNNAME":"仁德區","LI":"仁義里","LIN":"22鄰","STREET":"正義路","SECT":" ","MAREA":" ","LANE":"１１４巷","ALLEY":" ","HOUSE_NO":"５號","E_COORD97":173688.87,"N_COORD97":2541385.2599999998,"ADDRESS":"正義路１１４巷５號","OBJECTID":409056},"geometry":{"x":173688.87000000104,"y":2541385.2600000016}},{"attributes":{"ID":409081,"DIS_CODE":0,"TOWNNAME":"下營區","LI":"後街里","LIN":"22鄰","STREET":"大和街","SECT":" ","MAREA":" ","LANE":"１０３巷","ALLEY":" ","HOUSE_NO":"８號","E_COORD97":174624.53,"N_COORD97":2571201.2999999998,"ADDRESS":"大和街１０３巷８號","OBJECTID":409057},"geometry":{"x":174624.53000000212,"y":2571201.3000000026}},{"attributes":{"ID":409082,"DIS_CODE":0,"TOWNNAME":"永康區","LI":"崑山里","LIN":"35鄰","STREET":"大灣路","SECT":" ","MAREA":" ","LANE":"９４２巷","ALLEY":" ","HOUSE_NO":"２９５號","E_COORD97":173804.95999999999,"N_COORD97":2545033.23,"ADDRESS":"大灣路９４２巷２９５號","OBJECTID":409058},"geometry":{"x":173804.96000000089,"y":2545033.2299999986}},{"attributes":{"ID":409083,"DIS_CODE":0,"TOWNNAME":"永康區","LI":"崑山里","LIN":"35鄰","STREET":"大灣路","SECT":" ","MAREA":" ","LANE":"９４２巷","ALLEY":" ","HOUSE_NO":"３１７號","E_COORD97":173820.57999999999,"N_COORD97":2545075.5,"ADDRESS":"大灣路９４２巷３１７號","OBJECTID":409059},"geometry":{"x":173820.58000000194,"y":2545075.5000000037}},{"attributes":{"ID":409084,"DIS_CODE":0,"TOWNNAME":"東區","LI":"新東里","LIN":"22鄰","STREET":"裕農路","SECT":" ","MAREA":" ","LANE":"４３巷","ALLEY":" ","HOUSE_NO":"１１號","E_COORD97":170639.5,"N_COORD97":2542938.71,"ADDRESS":"裕農路４３巷１１號","OBJECTID":409060},"geometry":{"x":170639.50000000093,"y":2542938.709999999}},{"attributes":{"ID":409085,"DIS_CODE":0,"TOWNNAME":"東區","LI":"新東里","LIN":"22鄰","STREET":"裕農路","SECT":" ","MAREA":" ","LANE":"４３巷","ALLEY":" ","HOUSE_NO":"１２號","E_COORD97":170657.42000000001,"N_COORD97":2542962.29,"ADDRESS":"裕農路４３巷１２號","OBJECTID":409061},"geometry":{"x":170657.41999999993,"y":2542962.2899999991}},{"attributes":{"ID":409086,"DIS_CODE":0,"TOWNNAME":"東區","LI":"新東里","LIN":"22鄰","STREET":"裕農路","SECT":" ","MAREA":" ","LANE":"４３巷","ALLEY":" ","HOUSE_NO":"１３號","E_COORD97":170638.23999999999,"N_COORD97":2542942.7599999998,"ADDRESS":"裕農路４３巷１３號","OBJECTID":409062},"geometry":{"x":170638.24000000115,"y":2542942.7599999998}},{"attributes":{"ID":409087,"DIS_CODE":0,"TOWNNAME":"東區","LI":"新東里","LIN":"22鄰","STREET":"裕農路","SECT":" ","MAREA":" ","LANE":"４３巷","ALLEY":" ","HOUSE_NO":"１４號","E_COORD97":170656.22,"N_COORD97":2542966.71,"ADDRESS":"裕農路４３巷１４號","OBJECTID":409063},"geometry":{"x":170656.22000000067,"y":2542966.7100000028}},{"attributes":{"ID":409088,"DIS_CODE":0,"TOWNNAME":"東區","LI":"新東里","LIN":"22鄰","STREET":"裕農路","SECT":" ","MAREA":" ","LANE":"４３巷","ALLEY":" ","HOUSE_NO":"１５號","E_COORD97":170636.98000000001,"N_COORD97":2542947.0800000001,"ADDRESS":"裕農路４３巷１５號","OBJECTID":409064},"geometry":{"x":170636.98000000138,"y":2542947.0800000019}},{"attributes":{"ID":409089,"DIS_CODE":0,"TOWNNAME":"東區","LI":"新東里","LIN":"22鄰","STREET":"裕農路","SECT":" ","MAREA":" ","LANE":"４３巷","ALLEY":" ","HOUSE_NO":"１６號","E_COORD97":170655.28,"N_COORD97":2542970.8599999999,"ADDRESS":"裕農路４３巷１６號","OBJECTID":409065},"geometry":{"x":170655.28000000119,"y":2542970.8600000013}},{"attributes":{"ID":409090,"DIS_CODE":0,"TOWNNAME":"東區","LI":"新東里","LIN":"22鄰","STREET":"裕農路","SECT":" ","MAREA":" ","LANE":"４３巷","ALLEY":" ","HOUSE_NO":"１７號","E_COORD97":170635.31,"N_COORD97":2542951.2599999998,"ADDRESS":"裕農路４３巷１７號","OBJECTID":409066},"geometry":{"x":170635.31000000052,"y":2542951.2600000016}},{"attributes":{"ID":409091,"DIS_CODE":0,"TOWNNAME":"東區","LI":"新東里","LIN":"22鄰","STREET":"裕農路","SECT":" ","MAREA":" ","LANE":"４３巷","ALLEY":" ","HOUSE_NO":"１８號","E_COORD97":170653.67000000001,"N_COORD97":2542975.2799999998,"ADDRESS":"裕農路４３巷１８號","OBJECTID":409067},"geometry":{"x":170653.67000000086,"y":2542975.2800000012}},{"attributes":{"ID":409092,"DIS_CODE":0,"TOWNNAME":"東區","LI":"新東里","LIN":"22鄰","STREET":"裕農路","SECT":" ","MAREA":" ","LANE":"４３巷","ALLEY":" ","HOUSE_NO":"１９號","E_COORD97":170634.32999999999,"N_COORD97":2542955.4500000002,"ADDRESS":"裕農路４３巷１９號","OBJECTID":409068},"geometry":{"x":170634.33000000101,"y":2542955.4499999993}},{"attributes":{"ID":409093,"DIS_CODE":0,"TOWNNAME":"東區","LI":"新東里","LIN":"22鄰","STREET":"裕農路","SECT":" ","MAREA":" ","LANE":"４３巷","ALLEY":" ","HOUSE_NO":"２０號","E_COORD97":170652.32999999999,"N_COORD97":2542979.5699999998,"ADDRESS":"裕農路４３巷２０號","OBJECTID":409069},"geometry":{"x":170652.33000000194,"y":2542979.5700000003}},{"attributes":{"ID":409094,"DIS_CODE":0,"TOWNNAME":"東區","LI":"新東里","LIN":"22鄰","STREET":"裕農路","SECT":" ","MAREA":" ","LANE":"４３巷","ALLEY":" ","HOUSE_NO":"２１號","E_COORD97":170634.19,"N_COORD97":2542961.2999999998,"ADDRESS":"裕農路４３巷２１號","OBJECTID":409070},"geometry":{"x":170634.19000000041,"y":2542961.3000000007}},{"attributes":{"ID":409095,"DIS_CODE":0,"TOWNNAME":"東區","LI":"新東里","LIN":"22鄰","STREET":"裕農路","SECT":" ","MAREA":" ","LANE":"４３巷","ALLEY":" ","HOUSE_NO":"２２號","E_COORD97":170650.32000000001,"N_COORD97":2542983.5800000001,"ADDRESS":"裕農路４３巷２２號","OBJECTID":409071},"geometry":{"x":170650.3200000003,"y":2542983.5800000019}},{"attributes":{"ID":409096,"DIS_CODE":0,"TOWNNAME":"東區","LI":"新東里","LIN":"22鄰","STREET":"裕農路","SECT":" ","MAREA":" ","LANE":"４３巷","ALLEY":" ","HOUSE_NO":"２４號","E_COORD97":170649.64999999999,"N_COORD97":2542987.6000000001,"ADDRESS":"裕農路４３巷２４號","OBJECTID":409072},"geometry":{"x":170649.65000000037,"y":2542987.5999999996}},{"attributes":{"ID":409097,"DIS_CODE":0,"TOWNNAME":"永康區","LI":"崑山里","LIN":"46鄰","STREET":"國光五街","SECT":" ","MAREA":" ","LANE":"２２巷","ALLEY":" ","HOUSE_NO":"１號","E_COORD97":174200.31,"N_COORD97":2545086.02,"ADDRESS":"國光五街２２巷１號","OBJECTID":409073},"geometry":{"x":174200.31000000052,"y":2545086.0200000014}},{"attributes":{"ID":409098,"DIS_CODE":0,"TOWNNAME":"永康區","LI":"崑山里","LIN":"24鄰","STREET":"國光一街","SECT":" ","MAREA":" ","LANE":"７０巷","ALLEY":" ","HOUSE_NO":"５號","E_COORD97":173840.35999999999,"N_COORD97":2544655.2799999998,"ADDRESS":"國光一街７０巷５號","OBJECTID":409074},"geometry":{"x":173840.36000000034,"y":2544655.2799999993}},{"attributes":{"ID":409099,"DIS_CODE":0,"TOWNNAME":"永康區","LI":"勝利里","LIN":"33鄰","STREET":"中華路","SECT":" ","MAREA":" ","LANE":"７巷","ALLEY":" ","HOUSE_NO":"２４號","E_COORD97":171479.20999999999,"N_COORD97":2544394.9900000002,"ADDRESS":"中華路７巷２４號","OBJECTID":409075},"geometry":{"x":171479.21000000089,"y":2544394.9900000021}},{"attributes":{"ID":409100,"DIS_CODE":0,"TOWNNAME":"東區","LI":"新東里","LIN":"22鄰","STREET":"裕農路","SECT":" ","MAREA":" ","LANE":"４３巷","ALLEY":" ","HOUSE_NO":"２８號","E_COORD97":170643.75,"N_COORD97":2543005.46,"ADDRESS":"裕農路４３巷２８號","OBJECTID":409076},"geometry":{"x":170643.75,"y":2543005.4600000028}},{"attributes":{"ID":409101,"DIS_CODE":0,"TOWNNAME":"東區","LI":"新東里","LIN":"22鄰","STREET":"裕農路","SECT":" ","MAREA":" ","LANE":"４３巷","ALLEY":" ","HOUSE_NO":"２號","E_COORD97":170667.89999999999,"N_COORD97":2542930.29,"ADDRESS":"裕農路４３巷２號","OBJECTID":409077},"geometry":{"x":170667.9000000013,"y":2542930.290000001}},{"attributes":{"ID":409102,"DIS_CODE":0,"TOWNNAME":"東區","LI":"新東里","LIN":"22鄰","STREET":"裕農路","SECT":" ","MAREA":" ","LANE":"４３巷","ALLEY":" ","HOUSE_NO":"４號","E_COORD97":170665.60999999999,"N_COORD97":2542938.6299999999,"ADDRESS":"裕農路４３巷４號","OBJECTID":409078},"geometry":{"x":170665.61000000034,"y":2542938.6300000008}},{"attributes":{"ID":409103,"DIS_CODE":0,"TOWNNAME":"東區","LI":"新東里","LIN":"22鄰","STREET":"裕農路","SECT":" ","MAREA":" ","LANE":"４３巷","ALLEY":" ","HOUSE_NO":"５號","E_COORD97":170648.01000000001,"N_COORD97":2542922.8199999998,"ADDRESS":"裕農路４３巷５號","OBJECTID":409079},"geometry":{"x":170648.01000000071,"y":2542922.8200000003}},{"attributes":{"ID":409104,"DIS_CODE":0,"TOWNNAME":"東區","LI":"大福里","LIN":"22鄰","STREET":"立德八路","SECT":" ","MAREA":" ","LANE":"１４巷","ALLEY":" ","HOUSE_NO":"１１號","E_COORD97":169442.34,"N_COORD97":2541864.1600000001,"ADDRESS":"立德八路１４巷１１號","OBJECTID":409080},"geometry":{"x":169442.34000000078,"y":2541864.160000002}},{"attributes":{"ID":409105,"DIS_CODE":0,"TOWNNAME":"東區","LI":"大福里","LIN":"22鄰","STREET":"立德八路","SECT":" ","MAREA":" ","LANE":"１４巷","ALLEY":" ","HOUSE_NO":"１２號","E_COORD97":169442.34,"N_COORD97":2541860.6699999999,"ADDRESS":"立德八路１４巷１２號","OBJECTID":409081},"geometry":{"x":169442.34000000078,"y":2541860.6700000018}},{"attributes":{"ID":409106,"DIS_CODE":0,"TOWNNAME":"東區","LI":"大福里","LIN":"22鄰","STREET":"立德八路","SECT":" ","MAREA":" ","LANE":"１４巷","ALLEY":" ","HOUSE_NO":"１４號","E_COORD97":169446.87,"N_COORD97":2541852.3100000001,"ADDRESS":"立德八路１４巷１４號","OBJECTID":409082},"geometry":{"x":169446.87000000104,"y":2541852.3100000005}},{"attributes":{"ID":409107,"DIS_CODE":0,"TOWNNAME":"東區","LI":"大福里","LIN":"22鄰","STREET":"立德八路","SECT":" ","MAREA":" ","LANE":"１４巷","ALLEY":" ","HOUSE_NO":"１６號","E_COORD97":169447.22,"N_COORD97":2541844.2999999998,"ADDRESS":"立德八路１４巷１６號","OBJECTID":409083},"geometry":{"x":169447.21999999881,"y":2541844.3000000026}},{"attributes":{"ID":409108,"DIS_CODE":0,"TOWNNAME":"東區","LI":"大福里","LIN":"22鄰","STREET":"立德八路","SECT":" ","MAREA":" ","LANE":"１４巷","ALLEY":" ","HOUSE_NO":"１７號","E_COORD97":169445.82999999999,"N_COORD97":2541838.3799999999,"ADDRESS":"立德八路１４巷１７號","OBJECTID":409084},"geometry":{"x":169445.83000000101,"y":2541838.3800000008}},{"attributes":{"ID":409109,"DIS_CODE":0,"TOWNNAME":"東區","LI":"大福里","LIN":"22鄰","STREET":"立德八路","SECT":" ","MAREA":" ","LANE":"１４巷","ALLEY":" ","HOUSE_NO":"１８號","E_COORD97":169447.92000000001,"N_COORD97":2541835.9399999999,"ADDRESS":"立德八路１４巷１８號","OBJECTID":409085},"geometry":{"x":169447.92000000179,"y":2541835.9399999995}},{"attributes":{"ID":409110,"DIS_CODE":0,"TOWNNAME":"東區","LI":"大福里","LIN":"22鄰","STREET":"立德八路","SECT":" ","MAREA":" ","LANE":"１４巷","ALLEY":" ","HOUSE_NO":"１９號","E_COORD97":169448.26999999999,"N_COORD97":2541832.46,"ADDRESS":"立德八路１４巷１９號","OBJECTID":409086},"geometry":{"x":169448.26999999955,"y":2541832.4600000028}},{"attributes":{"ID":409111,"DIS_CODE":0,"TOWNNAME":"東區","LI":"大福里","LIN":"22鄰","STREET":"立德八路","SECT":" ","MAREA":" ","LANE":"１４巷","ALLEY":" ","HOUSE_NO":"１號","E_COORD97":169435.35999999999,"N_COORD97":2541902.8199999998,"ADDRESS":"立德八路１４巷１號","OBJECTID":409087},"geometry":{"x":169435.36000000127,"y":2541902.8200000003}},{"attributes":{"ID":409112,"DIS_CODE":0,"TOWNNAME":"東區","LI":"大福里","LIN":"22鄰","STREET":"立德八路","SECT":" ","MAREA":" ","LANE":"１４巷","ALLEY":" ","HOUSE_NO":"２０號","E_COORD97":169448.62,"N_COORD97":2541827.9300000002,"ADDRESS":"立德八路１４巷２０號","OBJECTID":409088},"geometry":{"x":169448.62000000104,"y":2541827.9300000016}},{"attributes":{"ID":409113,"DIS_CODE":0,"TOWNNAME":"東區","LI":"大福里","LIN":"22鄰","STREET":"立德八路","SECT":" ","MAREA":" ","LANE":"１４巷","ALLEY":" ","HOUSE_NO":"２號","E_COORD97":169434.32000000001,"N_COORD97":2541897.9500000002,"ADDRESS":"立德八路１４巷２號","OBJECTID":409089},"geometry":{"x":169434.32000000123,"y":2541897.950000003}},{"attributes":{"ID":409114,"DIS_CODE":0,"TOWNNAME":"東區","LI":"大福里","LIN":"22鄰","STREET":"立德八路","SECT":" ","MAREA":" ","LANE":"１４巷","ALLEY":" ","HOUSE_NO":"３號","E_COORD97":169437.45999999999,"N_COORD97":2541895.1600000001,"ADDRESS":"立德八路１４巷３號","OBJECTID":409090},"geometry":{"x":169437.46000000183,"y":2541895.160000002}},{"attributes":{"ID":409115,"DIS_CODE":0,"TOWNNAME":"永康區","LI":"崑山里","LIN":"18鄰","STREET":"大仁街","SECT":" ","MAREA":" ","LANE":"１１巷","ALLEY":" ","HOUSE_NO":"２３號","E_COORD97":173701.54999999999,"N_COORD97":2544562.8900000001,"ADDRESS":"大仁街１１巷２３號","OBJECTID":409091},"geometry":{"x":173701.54999999981,"y":2544562.8900000025}},{"attributes":{"ID":409116,"DIS_CODE":0,"TOWNNAME":"永康區","LI":"埔園里","LIN":"39鄰","STREET":"聖龍街","SECT":" ","MAREA":" ","LANE":"１６５巷","ALLEY":" ","HOUSE_NO":"７號","E_COORD97":174273.44,"N_COORD97":2547887.5499999998,"ADDRESS":"聖龍街１６５巷７號","OBJECTID":409092},"geometry":{"x":174273.44000000134,"y":2547887.5500000026}},{"attributes":{"ID":409117,"DIS_CODE":0,"TOWNNAME":"永康區","LI":"崑山里","LIN":"34鄰","STREET":"大仁街","SECT":" ","MAREA":" ","LANE":"１４３巷","ALLEY":" ","HOUSE_NO":"２５號","E_COORD97":173800.92999999999,"N_COORD97":2544913.6299999999,"ADDRESS":"大仁街１４３巷２５號","OBJECTID":409093},"geometry":{"x":173800.93000000156,"y":2544913.629999999}},{"attributes":{"ID":409118,"DIS_CODE":0,"TOWNNAME":"東區","LI":"大福里","LIN":"22鄰","STREET":"立德八路","SECT":" ","MAREA":" ","LANE":"１４巷","ALLEY":" ","HOUSE_NO":"６號","E_COORD97":169438.5,"N_COORD97":2541883.3199999998,"ADDRESS":"立德八路１４巷６號","OBJECTID":409094},"geometry":{"x":169438.5,"y":2541883.320000004}},{"attributes":{"ID":409119,"DIS_CODE":0,"TOWNNAME":"東區","LI":"大福里","LIN":"22鄰","STREET":"立德八路","SECT":" ","MAREA":" ","LANE":"１４巷","ALLEY":" ","HOUSE_NO":"７號","E_COORD97":169438.5,"N_COORD97":2541879.48,"ADDRESS":"立德八路１４巷７號","OBJECTID":409095},"geometry":{"x":169438.5,"y":2541879.4800000023}},{"attributes":{"ID":409120,"DIS_CODE":0,"TOWNNAME":"東區","LI":"大福里","LIN":"22鄰","STREET":"立德八路","SECT":" ","MAREA":" ","LANE":"１４巷","ALLEY":" ","HOUSE_NO":"８號","E_COORD97":169440.25,"N_COORD97":2541876,"ADDRESS":"立德八路１４巷８號","OBJECTID":409096},"geometry":{"x":169440.25,"y":2541876.0000000019}},{"attributes":{"ID":409121,"DIS_CODE":0,"TOWNNAME":"東區","LI":"東光里","LIN":"22鄰","STREET":"東安路","SECT":" ","MAREA":" ","LANE":"１３４巷","ALLEY":" ","HOUSE_NO":"７號","E_COORD97":170769.16,"N_COORD97":2543844.8399999999,"ADDRESS":"東安路１３４巷７號","OBJECTID":409097},"geometry":{"x":170769.16000000108,"y":2543844.8399999999}},{"attributes":{"ID":409122,"DIS_CODE":0,"TOWNNAME":"東區","LI":"東光里","LIN":"22鄰","STREET":"東安路","SECT":" ","MAREA":" ","LANE":"１３４巷","ALLEY":" ","HOUSE_NO":"９號","E_COORD97":170775.01000000001,"N_COORD97":2543840.3599999999,"ADDRESS":"東安路１３４巷９號","OBJECTID":409098},"geometry":{"x":170775.01000000071,"y":2543840.3599999994}},{"attributes":{"ID":409123,"DIS_CODE":0,"TOWNNAME":"東區","LI":"東光里","LIN":"22鄰","STREET":"東安路","SECT":" ","MAREA":" ","LANE":"１３４巷","ALLEY":" ","HOUSE_NO":"１１號","E_COORD97":170776.47,"N_COORD97":2543847.1800000002,"ADDRESS":"東安路１３４巷１１號","OBJECTID":409099},"geometry":{"x":170776.4700000016,"y":2543847.1800000016}},{"attributes":{"ID":409124,"DIS_CODE":0,"TOWNNAME":"東區","LI":"東光里","LIN":"22鄰","STREET":"東安路","SECT":" ","MAREA":" ","LANE":"１３４巷","ALLEY":" ","HOUSE_NO":"１３號","E_COORD97":170777.25,"N_COORD97":2543852.0499999998,"ADDRESS":"東安路１３４巷１３號","OBJECTID":409100},"geometry":{"x":170777.25000000093,"y":2543852.0500000045}},{"attributes":{"ID":409125,"DIS_CODE":0,"TOWNNAME":"東區","LI":"東光里","LIN":"22鄰","STREET":"東安路","SECT":" ","MAREA":" ","LANE":"１３４巷","ALLEY":" ","HOUSE_NO":"１５號","E_COORD97":170774.66,"N_COORD97":2543858.04,"ADDRESS":"東安路１３４巷１５號","OBJECTID":409101},"geometry":{"x":170774.66000000015,"y":2543858.040000001}},{"attributes":{"ID":409126,"DIS_CODE":0,"TOWNNAME":"東區","LI":"東光里","LIN":"22鄰","STREET":"東安路","SECT":" ","MAREA":" ","LANE":"１３４巷","ALLEY":" ","HOUSE_NO":"１７號","E_COORD97":170775.57999999999,"N_COORD97":2543861.5899999999,"ADDRESS":"東安路１３４巷１７號","OBJECTID":409102},"geometry":{"x":170775.58000000007,"y":2543861.5900000017}},{"attributes":{"ID":409127,"DIS_CODE":0,"TOWNNAME":"東區","LI":"東光里","LIN":"22鄰","STREET":"東安路","SECT":" ","MAREA":" ","LANE":"１３４巷","ALLEY":" ","HOUSE_NO":"１９號","E_COORD97":170791.79999999999,"N_COORD97":2543859.8799999999,"ADDRESS":"東安路１３４巷１９號","OBJECTID":409103},"geometry":{"x":170791.80000000075,"y":2543859.879999999}},{"attributes":{"ID":409128,"DIS_CODE":0,"TOWNNAME":"東區","LI":"東光里","LIN":"22鄰","STREET":"東安路","SECT":" ","MAREA":" ","LANE":"１３４巷","ALLEY":" ","HOUSE_NO":"２１號","E_COORD97":170792.72,"N_COORD97":2543855.7799999998,"ADDRESS":"東安路１３４巷２１號","OBJECTID":409104},"geometry":{"x":170792.71999999974,"y":2543855.7800000031}},{"attributes":{"ID":409129,"DIS_CODE":0,"TOWNNAME":"東區","LI":"東光里","LIN":"22鄰","STREET":"東安路","SECT":" ","MAREA":" ","LANE":"１３４巷","ALLEY":" ","HOUSE_NO":"２３號","E_COORD97":170789.66,"N_COORD97":2543850.7000000002,"ADDRESS":"東安路１３４巷２３號","OBJECTID":409105},"geometry":{"x":170789.66000000108,"y":2543850.7000000011}},{"attributes":{"ID":409130,"DIS_CODE":0,"TOWNNAME":"東區","LI":"東光里","LIN":"22鄰","STREET":"東安路","SECT":" ","MAREA":" ","LANE":"１３４巷","ALLEY":" ","HOUSE_NO":"２５號","E_COORD97":170789.04000000001,"N_COORD97":2543844.9500000002,"ADDRESS":"東安路１３４巷２５號","OBJECTID":409106},"geometry":{"x":170789.04000000004,"y":2543844.9500000011}},{"attributes":{"ID":409131,"DIS_CODE":0,"TOWNNAME":"東區","LI":"東光里","LIN":"22鄰","STREET":"東安路","SECT":" ","MAREA":" ","LANE":"１３４巷","ALLEY":" ","HOUSE_NO":"２７號","E_COORD97":170787.66,"N_COORD97":2543837.29,"ADDRESS":"東安路１３４巷２７號","OBJECTID":409107},"geometry":{"x":170787.66000000108,"y":2543837.2899999991}},{"attributes":{"ID":409132,"DIS_CODE":0,"TOWNNAME":"東區","LI":"東光里","LIN":"22鄰","STREET":"東安路","SECT":" ","MAREA":" ","LANE":"１３４巷","ALLEY":" ","HOUSE_NO":"２９號","E_COORD97":170796.20000000001,"N_COORD97":2543840.1299999999,"ADDRESS":"東安路１３４巷２９號","OBJECTID":409108},"geometry":{"x":170796.20000000112,"y":2543840.1300000008}},{"attributes":{"ID":409133,"DIS_CODE":0,"TOWNNAME":"東區","LI":"東光里","LIN":"22鄰","STREET":"東安路","SECT":" ","MAREA":" ","LANE":"１３４巷","ALLEY":" ","HOUSE_NO":"３１號","E_COORD97":170799.85999999999,"N_COORD97":2543836.7200000002,"ADDRESS":"東安路１３４巷３１號","OBJECTID":409109},"geometry":{"x":170799.8600000022,"y":2543836.7200000007}},{"attributes":{"ID":409134,"DIS_CODE":0,"TOWNNAME":"東區","LI":"東光里","LIN":"22鄰","STREET":"東安路","SECT":" ","MAREA":" ","LANE":"１３４巷","ALLEY":" ","HOUSE_NO":"３３號","E_COORD97":170804.48999999999,"N_COORD97":2543840.29,"ADDRESS":"東安路１３４巷３３號","OBJECTID":409110},"geometry":{"x":170804.49000000115,"y":2543840.2899999991}},{"attributes":{"ID":409135,"DIS_CODE":0,"TOWNNAME":"東區","LI":"東明里","LIN":"22鄰","STREET":"東安路","SECT":" ","MAREA":" ","LANE":"４８巷","ALLEY":" ","HOUSE_NO":"２６號","E_COORD97":170775.16,"N_COORD97":2543585.3900000001,"ADDRESS":"東安路４８巷２６號","OBJECTID":409111},"geometry":{"x":170775.16000000015,"y":2543585.3900000025}},{"attributes":{"ID":409136,"DIS_CODE":0,"TOWNNAME":"永康區","LI":"崑山里","LIN":"43鄰","STREET":"大灣路","SECT":" ","MAREA":" ","LANE":"９４２巷","ALLEY":" ","HOUSE_NO":"３４５號","E_COORD97":173838.67999999999,"N_COORD97":2545131.2400000002,"ADDRESS":"大灣路９４２巷３４５號","OBJECTID":409112},"geometry":{"x":173838.68000000063,"y":2545131.2399999984}},{"attributes":{"ID":409137,"DIS_CODE":0,"TOWNNAME":"永康區","LI":"崑山里","LIN":"14鄰","STREET":"大灣路","SECT":" ","MAREA":" ","LANE":"９７０巷","ALLEY":" ","HOUSE_NO":"２６號","E_COORD97":173556.26000000001,"N_COORD97":2544471.71,"ADDRESS":"大灣路９７０巷２６號","OBJECTID":409113},"geometry":{"x":173556.26000000164,"y":2544471.7100000028}},{"attributes":{"ID":409138,"DIS_CODE":0,"TOWNNAME":"永康區","LI":"烏竹里","LIN":"7鄰","STREET":"龍橋街","SECT":" ","MAREA":" ","LANE":"４５９巷","ALLEY":" ","HOUSE_NO":"１０號","E_COORD97":174353.66,"N_COORD97":2549334.3199999998,"ADDRESS":"龍橋街４５９巷１０號","OBJECTID":409114},"geometry":{"x":174353.66000000015,"y":2549334.3200000003}},{"attributes":{"ID":409139,"DIS_CODE":0,"TOWNNAME":"永康區","LI":"烏竹里","LIN":"7鄰","STREET":"龍橋街","SECT":" ","MAREA":" ","LANE":"４５９巷","ALLEY":" ","HOUSE_NO":"９號","E_COORD97":174332.14999999999,"N_COORD97":2549308.4100000001,"ADDRESS":"龍橋街４５９巷９號","OBJECTID":409115},"geometry":{"x":174332.15000000037,"y":2549308.410000002}},{"attributes":{"ID":409140,"DIS_CODE":0,"TOWNNAME":"永康區","LI":"勝利里","LIN":"16鄰","STREET":"勝利街","SECT":" ","MAREA":" ","LANE":"１０７巷","ALLEY":" ","HOUSE_NO":"７２號","E_COORD97":171176.10000000001,"N_COORD97":2544941.5,"ADDRESS":"勝利街１０７巷７２號","OBJECTID":409116},"geometry":{"x":171176.10000000056,"y":2544941.5}},{"attributes":{"ID":409141,"DIS_CODE":0,"TOWNNAME":"東區","LI":"東明里","LIN":"22鄰","STREET":"東安路","SECT":" ","MAREA":" ","LANE":"４８巷","ALLEY":" ","HOUSE_NO":"２８號","E_COORD97":170780.29000000001,"N_COORD97":2543586.5600000001,"ADDRESS":"東安路４８巷２８號","OBJECTID":409117},"geometry":{"x":170780.29000000097,"y":2543586.5600000005}},{"attributes":{"ID":409142,"DIS_CODE":0,"TOWNNAME":"善化區","LI":"光文里","LIN":"22鄰","STREET":"光華路","SECT":" ","MAREA":" ","LANE":"３５巷","ALLEY":" ","HOUSE_NO":"１９之５號","E_COORD97":178563.67999999999,"N_COORD97":2559258.27,"ADDRESS":"光華路３５巷１９之５號","OBJECTID":409118},"geometry":{"x":178563.6799999997,"y":2559258.2700000033}},{"attributes":{"ID":409143,"DIS_CODE":0,"TOWNNAME":"善化區","LI":"光文里","LIN":"22鄰","STREET":"光華路","SECT":" ","MAREA":" ","LANE":"１２８巷","ALLEY":" ","HOUSE_NO":"５號","E_COORD97":178654.51000000001,"N_COORD97":2559484.25,"ADDRESS":"光華路１２８巷５號","OBJECTID":409119},"geometry":{"x":178654.51000000071,"y":2559484.2500000019}},{"attributes":{"ID":409144,"DIS_CODE":0,"TOWNNAME":"善化區","LI":"光文里","LIN":"22鄰","STREET":"光華路","SECT":" ","MAREA":" ","LANE":"３５巷","ALLEY":" ","HOUSE_NO":"２４號","E_COORD97":178573.17999999999,"N_COORD97":2559279.75,"ADDRESS":"光華路３５巷２４號","OBJECTID":409120},"geometry":{"x":178573.18000000063,"y":2559279.7500000019}},{"attributes":{"ID":409145,"DIS_CODE":0,"TOWNNAME":"善化區","LI":"光文里","LIN":"22鄰","STREET":"光華路","SECT":" ","MAREA":" ","LANE":"３５巷","ALLEY":" ","HOUSE_NO":"６號","E_COORD97":178610.28,"N_COORD97":2559285.5,"ADDRESS":"光華路３５巷６號","OBJECTID":409121},"geometry":{"x":178610.28000000119,"y":2559285.5000000019}},{"attributes":{"ID":409146,"DIS_CODE":0,"TOWNNAME":"善化區","LI":"光文里","LIN":"22鄰","STREET":"光華路","SECT":" ","MAREA":" ","LANE":"９２巷","ALLEY":" ","HOUSE_NO":"１４號","E_COORD97":178681.84,"N_COORD97":2559423.5,"ADDRESS":"光華路９２巷１４號","OBJECTID":409122},"geometry":{"x":178681.83999999985,"y":2559423.5000000037}},{"attributes":{"ID":409147,"DIS_CODE":0,"TOWNNAME":"善化區","LI":"光文里","LIN":"22鄰","STREET":"光華路","SECT":" ","MAREA":" ","LANE":"３５巷","ALLEY":" ","HOUSE_NO":"６２號","E_COORD97":178475.41,"N_COORD97":2559265.75,"ADDRESS":"光華路３５巷６２號","OBJECTID":409123},"geometry":{"x":178475.41000000108,"y":2559265.7500000037}},{"attributes":{"ID":409148,"DIS_CODE":0,"TOWNNAME":"永康區","LI":"崑山里","LIN":"34鄰","STREET":"大仁街","SECT":" ","MAREA":" ","LANE":"１４３巷","ALLEY":" ","HOUSE_NO":"２８號","E_COORD97":173811.84,"N_COORD97":2544927.3700000001,"ADDRESS":"大仁街１４３巷２８號","OBJECTID":409124},"geometry":{"x":173811.84000000171,"y":2544927.370000001}},{"attributes":{"ID":409149,"DIS_CODE":0,"TOWNNAME":"永康區","LI":"烏竹里","LIN":"1鄰","STREET":"烏竹北街","SECT":" ","MAREA":" ","LANE":"９８巷","ALLEY":" ","HOUSE_NO":"４７號","E_COORD97":174504.85000000001,"N_COORD97":2549592.9900000002,"ADDRESS":"烏竹北街９８巷４７號","OBJECTID":409125},"geometry":{"x":174504.85000000149,"y":2549592.9900000021}},{"attributes":{"ID":409150,"DIS_CODE":0,"TOWNNAME":"善化區","LI":"光文里","LIN":"22鄰","STREET":"光華路","SECT":" ","MAREA":" ","LANE":"１５０巷","ALLEY":" ","HOUSE_NO":"３號","E_COORD97":178641.35999999999,"N_COORD97":2559545.75,"ADDRESS":"光華路１５０巷３號","OBJECTID":409126},"geometry":{"x":178641.36000000034,"y":2559545.75}},{"attributes":{"ID":409151,"DIS_CODE":0,"TOWNNAME":"善化區","LI":"光文里","LIN":"22鄰","STREET":"光華路","SECT":" ","MAREA":" ","LANE":"７４巷","ALLEY":" ","HOUSE_NO":"６號","E_COORD97":178665.17000000001,"N_COORD97":2559366.5,"ADDRESS":"光華路７４巷６號","OBJECTID":409127},"geometry":{"x":178665.17000000086,"y":2559366.5000000019}},{"attributes":{"ID":409152,"DIS_CODE":0,"TOWNNAME":"善化區","LI":"光文里","LIN":"22鄰","STREET":"光華路","SECT":" ","MAREA":" ","LANE":"５３巷","ALLEY":" ","HOUSE_NO":"２１號","E_COORD97":178568.41,"N_COORD97":2559312,"ADDRESS":"光華路５３巷２１號","OBJECTID":409128},"geometry":{"x":178568.41000000201,"y":2559312.0000000019}},{"attributes":{"ID":409153,"DIS_CODE":0,"TOWNNAME":"善化區","LI":"光文里","LIN":"22鄰","STREET":"光華路","SECT":" ","MAREA":" ","LANE":"３５巷","ALLEY":" ","HOUSE_NO":"２２號","E_COORD97":178577.34,"N_COORD97":2559280.25,"ADDRESS":"光華路３５巷２２號","OBJECTID":409129},"geometry":{"x":178577.34000000078,"y":2559280.2500000019}},{"attributes":{"ID":409154,"DIS_CODE":0,"TOWNNAME":"永康區","LI":"烏竹里","LIN":"7鄰","STREET":"龍橋街","SECT":" ","MAREA":" ","LANE":"４５９巷","ALLEY":" ","HOUSE_NO":"８之２號","E_COORD97":174367.57000000001,"N_COORD97":2549356.9100000001,"ADDRESS":"龍橋街４５９巷８之２號","OBJECTID":409130},"geometry":{"x":174367.5700000003,"y":2549356.9100000001}},{"attributes":{"ID":409155,"DIS_CODE":0,"TOWNNAME":"永康區","LI":"崑山里","LIN":"28鄰","STREET":"大灣路","SECT":" ","MAREA":" ","LANE":"９４２巷","ALLEY":" ","HOUSE_NO":"２５９號","E_COORD97":173780.39999999999,"N_COORD97":2544960,"ADDRESS":"大灣路９４２巷２５９號","OBJECTID":409131},"geometry":{"x":173780.4000000013,"y":2544960.0000000037}},{"attributes":{"ID":409156,"DIS_CODE":0,"TOWNNAME":"永康區","LI":"崑山里","LIN":"29鄰","STREET":"大仁街","SECT":" ","MAREA":" ","LANE":"１０７巷","ALLEY":" ","HOUSE_NO":"１１號","E_COORD97":173795,"N_COORD97":2544807.6800000002,"ADDRESS":"大仁街１０７巷１１號","OBJECTID":409132},"geometry":{"x":173795,"y":2544807.6799999997}},{"attributes":{"ID":409157,"DIS_CODE":0,"TOWNNAME":"善化區","LI":"光文里","LIN":"22鄰","STREET":"光華路","SECT":" ","MAREA":" ","LANE":"３５巷","ALLEY":" ","HOUSE_NO":"１９號","E_COORD97":178562.67999999999,"N_COORD97":2559258.25,"ADDRESS":"光華路３５巷１９號","OBJECTID":409133},"geometry":{"x":178562.68000000156,"y":2559258.25}},{"attributes":{"ID":409158,"DIS_CODE":0,"TOWNNAME":"善化區","LI":"光文里","LIN":"22鄰","STREET":"光華路","SECT":" ","MAREA":" ","LANE":"３５巷","ALLEY":" ","HOUSE_NO":"７２號","E_COORD97":178453.39999999999,"N_COORD97":2559262,"ADDRESS":"光華路３５巷７２號","OBJECTID":409134},"geometry":{"x":178453.40000000224,"y":2559262.0000000019}},{"attributes":{"ID":409159,"DIS_CODE":0,"TOWNNAME":"善化區","LI":"光文里","LIN":"22鄰","STREET":"光華路","SECT":" ","MAREA":" ","LANE":"３５巷","ALLEY":" ","HOUSE_NO":"３０號","E_COORD97":178560.64000000001,"N_COORD97":2559277.75,"ADDRESS":"光華路３５巷３０號","OBJECTID":409135},"geometry":{"x":178560.63999999966,"y":2559277.75}},{"attributes":{"ID":409160,"DIS_CODE":0,"TOWNNAME":"善化區","LI":"光文里","LIN":"22鄰","STREET":"光華路","SECT":" ","MAREA":" ","LANE":"５４巷","ALLEY":" ","HOUSE_NO":"５號","E_COORD97":178672.73000000001,"N_COORD97":2559344.5,"ADDRESS":"光華路５４巷５號","OBJECTID":409136},"geometry":{"x":178672.73000000045,"y":2559344.5}},{"attributes":{"ID":409161,"DIS_CODE":0,"TOWNNAME":"善化區","LI":"光文里","LIN":"22鄰","STREET":"光華路","SECT":" ","MAREA":" ","LANE":"５３巷","ALLEY":" ","HOUSE_NO":"７１號","E_COORD97":178445.53,"N_COORD97":2559286.25,"ADDRESS":"光華路５３巷７１號","OBJECTID":409137},"geometry":{"x":178445.53000000212,"y":2559286.2500000037}},{"attributes":{"ID":409162,"DIS_CODE":0,"TOWNNAME":"善化區","LI":"光文里","LIN":"22鄰","STREET":"光華路","SECT":" ","MAREA":" ","LANE":"３５巷","ALLEY":" ","HOUSE_NO":"６０號","E_COORD97":178480.39000000001,"N_COORD97":2559266,"ADDRESS":"光華路３５巷６０號","OBJECTID":409138},"geometry":{"x":178480.3900000006,"y":2559266}},{"attributes":{"ID":409163,"DIS_CODE":0,"TOWNNAME":"善化區","LI":"光文里","LIN":"22鄰","STREET":"光華路","SECT":" ","MAREA":" ","LANE":"３５巷","ALLEY":" ","HOUSE_NO":"５６號","E_COORD97":178492.17000000001,"N_COORD97":2559268.25,"ADDRESS":"光華路３５巷５６號","OBJECTID":409139},"geometry":{"x":178492.17000000086,"y":2559268.25}},{"attributes":{"ID":409164,"DIS_CODE":0,"TOWNNAME":"善化區","LI":"光文里","LIN":"22鄰","STREET":"光華路","SECT":" ","MAREA":" ","LANE":"３５巷","ALLEY":" ","HOUSE_NO":"１６號","E_COORD97":178589.89000000001,"N_COORD97":2559282.25,"ADDRESS":"光華路３５巷１６號","OBJECTID":409140},"geometry":{"x":178589.89000000153,"y":2559282.25}},{"attributes":{"ID":409165,"DIS_CODE":0,"TOWNNAME":"善化區","LI":"光文里","LIN":"22鄰","STREET":"光華路","SECT":" ","MAREA":" ","LANE":"５３巷","ALLEY":" ","HOUSE_NO":"４５號","E_COORD97":178501.35999999999,"N_COORD97":2559297.75,"ADDRESS":"光華路５３巷４５號","OBJECTID":409141},"geometry":{"x":178501.36000000127,"y":2559297.7500000019}},{"attributes":{"ID":409166,"DIS_CODE":0,"TOWNNAME":"善化區","LI":"光文里","LIN":"22鄰","STREET":"光華路","SECT":" ","MAREA":" ","LANE":"９２巷","ALLEY":" ","HOUSE_NO":"１號","E_COORD97":178656.12,"N_COORD97":2559408.25,"ADDRESS":"光華路９２巷１號","OBJECTID":409142},"geometry":{"x":178656.12000000011,"y":2559408.2500000037}},{"attributes":{"ID":409167,"DIS_CODE":0,"TOWNNAME":"善化區","LI":"光文里","LIN":"22鄰","STREET":"光華路","SECT":" ","MAREA":" ","LANE":"１１０巷","ALLEY":" ","HOUSE_NO":"１８號","E_COORD97":178678.81,"N_COORD97":2559450.5,"ADDRESS":"光華路１１０巷１８號","OBJECTID":409143},"geometry":{"x":178678.81000000052,"y":2559450.5000000037}},{"attributes":{"ID":409168,"DIS_CODE":0,"TOWNNAME":"善化區","LI":"光文里","LIN":"22鄰","STREET":"光華路","SECT":" ","MAREA":" ","LANE":"５４巷","ALLEY":" ","HOUSE_NO":"１號","E_COORD97":178664.28,"N_COORD97":2559343.25,"ADDRESS":"光華路５４巷１號","OBJECTID":409144},"geometry":{"x":178664.28000000212,"y":2559343.25}},{"attributes":{"ID":409169,"DIS_CODE":0,"TOWNNAME":"善化區","LI":"光文里","LIN":"22鄰","STREET":"光華路","SECT":" ","MAREA":" ","LANE":"３５巷","ALLEY":" ","HOUSE_NO":"７號","E_COORD97":178604.98000000001,"N_COORD97":2559270.5,"ADDRESS":"光華路３５巷７號","OBJECTID":409145},"geometry":{"x":178604.98000000045,"y":2559270.5}},{"attributes":{"ID":409170,"DIS_CODE":0,"TOWNNAME":"善化區","LI":"光文里","LIN":"22鄰","STREET":"光華路","SECT":" ","MAREA":" ","LANE":"３５巷","ALLEY":" ","HOUSE_NO":"２６號","E_COORD97":178568.98000000001,"N_COORD97":2559279,"ADDRESS":"光華路３５巷２６號","OBJECTID":409146},"geometry":{"x":178568.98000000045,"y":2559279.0000000019}},{"attributes":{"ID":409171,"DIS_CODE":0,"TOWNNAME":"永康區","LI":"崑山里","LIN":"22鄰","STREET":"崑山街","SECT":" ","MAREA":" ","LANE":"５６巷","ALLEY":" ","HOUSE_NO":"２５號","E_COORD97":174009.44,"N_COORD97":2544640.1000000001,"ADDRESS":"崑山街５６巷２５號","OBJECTID":409147},"geometry":{"x":174009.44000000041,"y":2544640.1000000034}},{"attributes":{"ID":409172,"DIS_CODE":0,"TOWNNAME":"永康區","LI":"復國里","LIN":"22鄰","STREET":"復華六街","SECT":" ","MAREA":" ","LANE":"９３巷","ALLEY":" ","HOUSE_NO":"１６號","E_COORD97":172607.39000000001,"N_COORD97":2545797.9199999999,"ADDRESS":"復華六街９３巷１６號","OBJECTID":409148},"geometry":{"x":172607.38999999966,"y":2545797.9200000037}},{"attributes":{"ID":409173,"DIS_CODE":0,"TOWNNAME":"善化區","LI":"坐駕里","LIN":"22鄰","STREET":"興華路","SECT":" ","MAREA":" ","LANE":"２２３巷","ALLEY":" ","HOUSE_NO":"２０號之５","E_COORD97":178162.70000000001,"N_COORD97":2558490.52,"ADDRESS":"興華路２２３巷２０號之５","OBJECTID":409149},"geometry":{"x":178162.70000000019,"y":2558490.5200000033}},{"attributes":{"ID":409174,"DIS_CODE":0,"TOWNNAME":"善化區","LI":"坐駕里","LIN":"22鄰","STREET":"興華路","SECT":" ","MAREA":" ","LANE":"２２３巷","ALLEY":" ","HOUSE_NO":"２０號之６","E_COORD97":178158.23999999999,"N_COORD97":2558488.02,"ADDRESS":"興華路２２３巷２０號之６","OBJECTID":409150},"geometry":{"x":178158.24000000115,"y":2558488.0200000014}},{"attributes":{"ID":409175,"DIS_CODE":0,"TOWNNAME":"永康區","LI":"崑山里","LIN":"48鄰","STREET":"永華路","SECT":" ","MAREA":" ","LANE":"３２巷","ALLEY":" ","HOUSE_NO":"５號","E_COORD97":174100.10000000001,"N_COORD97":2545219.6400000001,"ADDRESS":"永華路３２巷５號","OBJECTID":409151},"geometry":{"x":174100.10000000056,"y":2545219.6400000006}},{"attributes":{"ID":409176,"DIS_CODE":0,"TOWNNAME":"永康區","LI":"勝利里","LIN":"22鄰","STREET":"中華路","SECT":" ","MAREA":" ","LANE":"２３１巷","ALLEY":" ","HOUSE_NO":"１７號","E_COORD97":171552.26999999999,"N_COORD97":2545084.9500000002,"ADDRESS":"中華路２３１巷１７號","OBJECTID":409152},"geometry":{"x":171552.27000000142,"y":2545084.950000003}},{"attributes":{"ID":409177,"DIS_CODE":0,"TOWNNAME":"永康區","LI":"二王里","LIN":"22鄰","STREET":"中山南路","SECT":" ","MAREA":" ","LANE":"６１６巷","ALLEY":" ","HOUSE_NO":"２４號","E_COORD97":172320.48000000001,"N_COORD97":2546530.6899999999,"ADDRESS":"中山南路６１６巷２４號","OBJECTID":409153},"geometry":{"x":172320.48000000138,"y":2546530.6899999995}},{"attributes":{"ID":409178,"DIS_CODE":0,"TOWNNAME":"永康區","LI":"二王里","LIN":"22鄰","STREET":"中山南路","SECT":" ","MAREA":" ","LANE":"６１６巷","ALLEY":" ","HOUSE_NO":"１８號","E_COORD97":172321.42999999999,"N_COORD97":2546543.9399999999,"ADDRESS":"中山南路６１６巷１８號","OBJECTID":409154},"geometry":{"x":172321.43000000063,"y":2546543.9400000013}},{"attributes":{"ID":409179,"DIS_CODE":0,"TOWNNAME":"永康區","LI":"崑山里","LIN":"22鄰","STREET":"大灣路","SECT":" ","MAREA":" ","LANE":"７９８巷","ALLEY":" ","HOUSE_NO":"２６號","E_COORD97":174030.17999999999,"N_COORD97":2544596.5099999998,"ADDRESS":"大灣路７９８巷２６號","OBJECTID":409155},"geometry":{"x":174030.18000000063,"y":2544596.5099999998}},{"attributes":{"ID":409180,"DIS_CODE":0,"TOWNNAME":"永康區","LI":"\u25A0行里","LIN":"22鄰","STREET":"正南五街","SECT":" ","MAREA":" ","LANE":"５２０巷","ALLEY":" ","HOUSE_NO":"３６號","E_COORD97":171654.75,"N_COORD97":2548781.2400000002,"ADDRESS":"正南五街５２０巷３６號","OBJECTID":409156},"geometry":{"x":171654.75000000093,"y":2548781.2400000021}},{"attributes":{"ID":409181,"DIS_CODE":0,"TOWNNAME":"永康區","LI":"西灣里","LIN":"22鄰","STREET":"大勇路","SECT":" ","MAREA":" ","LANE":"４８巷","ALLEY":" ","HOUSE_NO":"６號","E_COORD97":174230.06,"N_COORD97":2545377.5600000001,"ADDRESS":"大勇路４８巷６號","OBJECTID":409157},"geometry":{"x":174230.05999999959,"y":2545377.5600000024}},{"attributes":{"ID":409182,"DIS_CODE":0,"TOWNNAME":"永康區","LI":"崑山里","LIN":"22鄰","STREET":"大灣路","SECT":" ","MAREA":" ","LANE":"７９８巷","ALLEY":" ","HOUSE_NO":"４５號","E_COORD97":174043.92000000001,"N_COORD97":2544663.8999999999,"ADDRESS":"大灣路７９８巷４５號","OBJECTID":409158},"geometry":{"x":174043.92000000086,"y":2544663.9000000022}},{"attributes":{"ID":409183,"DIS_CODE":0,"TOWNNAME":"永康區","LI":"二王里","LIN":"22鄰","STREET":"中山南路","SECT":" ","MAREA":" ","LANE":"６１６巷","ALLEY":" ","HOUSE_NO":"１２號","E_COORD97":172322.82000000001,"N_COORD97":2546557.4399999999,"ADDRESS":"中山南路６１６巷１２號","OBJECTID":409159},"geometry":{"x":172322.82000000123,"y":2546557.4400000013}},{"attributes":{"ID":409184,"DIS_CODE":0,"TOWNNAME":"東區","LI":"大福里","LIN":"22鄰","STREET":"立德八路","SECT":" ","MAREA":" ","LANE":"１４巷","ALLEY":" ","HOUSE_NO":"４號","E_COORD97":169437.81,"N_COORD97":2541891.3300000001,"ADDRESS":"立德八路１４巷４號","OBJECTID":409160},"geometry":{"x":169437.80999999959,"y":2541891.3300000001}},{"attributes":{"ID":409185,"DIS_CODE":0,"TOWNNAME":"東區","LI":"大福里","LIN":"22鄰","STREET":"立德八路","SECT":" ","MAREA":" ","LANE":"１４巷","ALLEY":" ","HOUSE_NO":"９號","E_COORD97":169441.64000000001,"N_COORD97":2541872.1699999999,"ADDRESS":"立德八路１４巷９號","OBJECTID":409161},"geometry":{"x":169441.6400000006,"y":2541872.1699999999}},{"attributes":{"ID":409186,"DIS_CODE":0,"TOWNNAME":"東區","LI":"大福里","LIN":"22鄰","STREET":"立德八路","SECT":" ","MAREA":" ","LANE":"１４巷","ALLEY":" ","HOUSE_NO":"１０號","E_COORD97":169442.69,"N_COORD97":2541868.3399999999,"ADDRESS":"立德八路１４巷１０號","OBJECTID":409162},"geometry":{"x":169442.69000000041,"y":2541868.3399999999}},{"attributes":{"ID":409187,"DIS_CODE":0,"TOWNNAME":"東區","LI":"大智里","LIN":"40鄰","STREET":"文東街","SECT":" ","MAREA":" ","LANE":"２巷","ALLEY":" ","HOUSE_NO":"１６號","E_COORD97":171376.79000000001,"N_COORD97":2540134.9399999999,"ADDRESS":"文東街２巷１６號","OBJECTID":409163},"geometry":{"x":171376.79000000097,"y":2540134.9399999995}},{"attributes":{"ID":409188,"DIS_CODE":0,"TOWNNAME":"東區","LI":"大福里","LIN":"22鄰","STREET":"立德八路","SECT":" ","MAREA":" ","LANE":"１４巷","ALLEY":" ","HOUSE_NO":"１５號","E_COORD97":169448.26999999999,"N_COORD97":2541848.1299999999,"ADDRESS":"立德八路１４巷１５號","OBJECTID":409164},"geometry":{"x":169448.26999999955,"y":2541848.129999999}},{"attributes":{"ID":409189,"DIS_CODE":0,"TOWNNAME":"東區","LI":"崇德里","LIN":"22鄰","STREET":"崇德路","SECT":" ","MAREA":" ","LANE":"５０８巷","ALLEY":" ","HOUSE_NO":"１號","E_COORD97":170762.32000000001,"N_COORD97":2541554.54,"ADDRESS":"崇德路５０８巷１號","OBJECTID":409165},"geometry":{"x":170762.3200000003,"y":2541554.5399999991}},{"attributes":{"ID":409190,"DIS_CODE":0,"TOWNNAME":"東區","LI":"崇德里","LIN":"22鄰","STREET":"崇德路","SECT":" ","MAREA":" ","LANE":"５０８巷","ALLEY":" ","HOUSE_NO":"３號","E_COORD97":170758.92999999999,"N_COORD97":2541552.1400000001,"ADDRESS":"崇德路５０８巷３號","OBJECTID":409166},"geometry":{"x":170758.9299999997,"y":2541552.1399999987}},{"attributes":{"ID":409191,"DIS_CODE":0,"TOWNNAME":"東區","LI":"崇德里","LIN":"22鄰","STREET":"崇德路","SECT":" ","MAREA":" ","LANE":"５０８巷","ALLEY":" ","HOUSE_NO":"５號","E_COORD97":170754.34,"N_COORD97":2541554.54,"ADDRESS":"崇德路５０８巷５號","OBJECTID":409167},"geometry":{"x":170754.34000000078,"y":2541554.5399999991}},{"attributes":{"ID":409192,"DIS_CODE":0,"TOWNNAME":"東區","LI":"崇德里","LIN":"22鄰","STREET":"崇德路","SECT":" ","MAREA":" ","LANE":"５０８巷","ALLEY":" ","HOUSE_NO":"７號","E_COORD97":170750.75,"N_COORD97":2541551.9500000002,"ADDRESS":"崇德路５０８巷７號","OBJECTID":409168},"geometry":{"x":170750.75,"y":2541551.9499999974}},{"attributes":{"ID":409193,"DIS_CODE":0,"TOWNNAME":"東區","LI":"崇德里","LIN":"22鄰","STREET":"崇德路","SECT":" ","MAREA":" ","LANE":"５０８巷","ALLEY":" ","HOUSE_NO":"９號","E_COORD97":170706.03,"N_COORD97":2541554.54,"ADDRESS":"崇德路５０８巷９號","OBJECTID":409169},"geometry":{"x":170706.03000000119,"y":2541554.5399999991}},{"attributes":{"ID":409194,"DIS_CODE":0,"TOWNNAME":"東區","LI":"崇德里","LIN":"22鄰","STREET":"崇德路","SECT":" ","MAREA":" ","LANE":"５０８巷","ALLEY":" ","HOUSE_NO":"１１號","E_COORD97":170709.42000000001,"N_COORD97":2541552.1499999999,"ADDRESS":"崇德路５０８巷１１號","OBJECTID":409170},"geometry":{"x":170709.42000000086,"y":2541552.1500000041}},{"attributes":{"ID":409195,"DIS_CODE":0,"TOWNNAME":"東區","LI":"崇德里","LIN":"22鄰","STREET":"崇德路","SECT":" ","MAREA":" ","LANE":"５０８巷","ALLEY":" ","HOUSE_NO":"１３號","E_COORD97":170714.41,"N_COORD97":2541554.54,"ADDRESS":"崇德路５０８巷１３號","OBJECTID":409171},"geometry":{"x":170714.41000000201,"y":2541554.5399999991}},{"attributes":{"ID":409196,"DIS_CODE":0,"TOWNNAME":"東區","LI":"崇德里","LIN":"22鄰","STREET":"崇德路","SECT":" ","MAREA":" ","LANE":"５０８巷","ALLEY":" ","HOUSE_NO":"１５號","E_COORD97":170718.39999999999,"N_COORD97":2541551.5499999998,"ADDRESS":"崇德路５０８巷１５號","OBJECTID":409172},"geometry":{"x":170718.4000000013,"y":2541551.5500000007}},{"attributes":{"ID":409197,"DIS_CODE":0,"TOWNNAME":"東區","LI":"崇德里","LIN":"22鄰","STREET":"崇德路","SECT":" ","MAREA":" ","LANE":"５０８巷","ALLEY":" ","HOUSE_NO":"１７號","E_COORD97":170721.79999999999,"N_COORD97":2541554.1400000001,"ADDRESS":"崇德路５０８巷１７號","OBJECTID":409173},"geometry":{"x":170721.80000000075,"y":2541554.1400000006}},{"attributes":{"ID":409198,"DIS_CODE":0,"TOWNNAME":"東區","LI":"崇德里","LIN":"22鄰","STREET":"崇德路","SECT":" ","MAREA":" ","LANE":"５０８巷","ALLEY":" ","HOUSE_NO":"１９號","E_COORD97":170726.39000000001,"N_COORD97":2541552.1400000001,"ADDRESS":"崇德路５０８巷１９號","OBJECTID":409174},"geometry":{"x":170726.3900000006,"y":2541552.1399999987}},{"attributes":{"ID":409199,"DIS_CODE":0,"TOWNNAME":"東區","LI":"崇德里","LIN":"22鄰","STREET":"崇德路","SECT":" ","MAREA":" ","LANE":"５０８巷","ALLEY":" ","HOUSE_NO":"２１號","E_COORD97":170729.78,"N_COORD97":2541554.54,"ADDRESS":"崇德路５０８巷２１號","OBJECTID":409175},"geometry":{"x":170729.78000000119,"y":2541554.5399999991}},{"attributes":{"ID":409200,"DIS_CODE":0,"TOWNNAME":"東區","LI":"崇德里","LIN":"22鄰","STREET":"崇德路","SECT":" ","MAREA":" ","LANE":"５０８巷","ALLEY":" ","HOUSE_NO":"２３號","E_COORD97":170734.37,"N_COORD97":2541552.1400000001,"ADDRESS":"崇德路５０８巷２３號","OBJECTID":409176},"geometry":{"x":170734.37000000011,"y":2541552.1399999987}},{"attributes":{"ID":409201,"DIS_CODE":0,"TOWNNAME":"東區","LI":"崇德里","LIN":"22鄰","STREET":"崇德路","SECT":" ","MAREA":" ","LANE":"５０８巷","ALLEY":" ","HOUSE_NO":"２５號","E_COORD97":170738.37,"N_COORD97":2541555.1400000001,"ADDRESS":"崇德路５０８巷２５號","OBJECTID":409177},"geometry":{"x":170738.36999999918,"y":2541555.1400000006}},{"attributes":{"ID":409202,"DIS_CODE":0,"TOWNNAME":"東區","LI":"崇德里","LIN":"22鄰","STREET":"崇德路","SECT":" ","MAREA":" ","LANE":"５０８巷","ALLEY":" ","HOUSE_NO":"２７號","E_COORD97":170742.35999999999,"N_COORD97":2541551.9500000002,"ADDRESS":"崇德路５０８巷２７號","OBJECTID":409178},"geometry":{"x":170742.36000000127,"y":2541551.9499999974}},{"attributes":{"ID":409203,"DIS_CODE":0,"TOWNNAME":"佳里區","LI":"安西里","LIN":"22鄰","STREET":"安西路","SECT":" ","MAREA":" ","LANE":"３３０巷","ALLEY":" ","HOUSE_NO":"９號","E_COORD97":165193.63,"N_COORD97":2562866.0800000001,"ADDRESS":"安西路３３０巷９號","OBJECTID":409179},"geometry":{"x":165193.63000000082,"y":2562866.0800000001}},{"attributes":{"ID":409204,"DIS_CODE":0,"TOWNNAME":"東區","LI":"崇德里","LIN":"22鄰","STREET":"崇德路","SECT":" ","MAREA":" ","LANE":"５０８巷","ALLEY":" ","HOUSE_NO":"２９號","E_COORD97":170746.35000000001,"N_COORD97":2541553.9399999999,"ADDRESS":"崇德路５０８巷２９號","OBJECTID":409180},"geometry":{"x":170746.34999999963,"y":2541553.9400000013}},{"attributes":{"ID":409205,"DIS_CODE":0,"TOWNNAME":"東區","LI":"崇德里","LIN":"22鄰","STREET":"崇德路","SECT":" ","MAREA":" ","LANE":"５０８巷","ALLEY":" ","HOUSE_NO":"６號","E_COORD97":170733.45999999999,"N_COORD97":2541572.4399999999,"ADDRESS":"崇德路５０８巷６號","OBJECTID":409181},"geometry":{"x":170733.45999999996,"y":2541572.4399999995}},{"attributes":{"ID":409206,"DIS_CODE":0,"TOWNNAME":"東區","LI":"崇德里","LIN":"22鄰","STREET":"崇德路","SECT":" ","MAREA":" ","LANE":"５０８巷","ALLEY":" ","HOUSE_NO":"８號","E_COORD97":170729.34,"N_COORD97":2541572.77,"ADDRESS":"崇德路５０８巷８號","OBJECTID":409182},"geometry":{"x":170729.33999999985,"y":2541572.7699999996}},{"attributes":{"ID":409207,"DIS_CODE":0,"TOWNNAME":"東區","LI":"崇德里","LIN":"22鄰","STREET":"崇德路","SECT":" ","MAREA":" ","LANE":"５０８巷","ALLEY":" ","HOUSE_NO":"１０號","E_COORD97":170725.23000000001,"N_COORD97":2541572.9300000002,"ADDRESS":"崇德路５０８巷１０號","OBJECTID":409183},"geometry":{"x":170725.23000000138,"y":2541572.9299999978}},{"attributes":{"ID":409208,"DIS_CODE":0,"TOWNNAME":"東區","LI":"崇德里","LIN":"22鄰","STREET":"崇德路","SECT":" ","MAREA":" ","LANE":"５０８巷","ALLEY":" ","HOUSE_NO":"１２號","E_COORD97":170721.26999999999,"N_COORD97":2541573.1000000001,"ADDRESS":"崇德路５０８巷１２號","OBJECTID":409184},"geometry":{"x":170721.26999999955,"y":2541573.1000000015}},{"attributes":{"ID":409209,"DIS_CODE":0,"TOWNNAME":"新市區","LI":"新市里","LIN":"22鄰","STREET":"和平街","SECT":" ","MAREA":" ","LANE":"１６巷","ALLEY":" ","HOUSE_NO":"１１號","E_COORD97":177742.06,"N_COORD97":2553506,"ADDRESS":"和平街１６巷１１號","OBJECTID":409185},"geometry":{"x":177742.05999999959,"y":2553506}},{"attributes":{"ID":409210,"DIS_CODE":0,"TOWNNAME":"新市區","LI":"港墘里","LIN":"22鄰","STREET":"華美街","SECT":" ","MAREA":" ","LANE":"１３巷","ALLEY":" ","HOUSE_NO":"１５號","E_COORD97":178038.10000000001,"N_COORD97":2552814.2999999998,"ADDRESS":"華美街１３巷１５號","OBJECTID":409186},"geometry":{"x":178038.10000000056,"y":2552814.3000000045}},{"attributes":{"ID":409211,"DIS_CODE":0,"TOWNNAME":"官田區","LI":"隆田里","LIN":"22鄰","STREET":"隆西街","SECT":" ","MAREA":" ","LANE":"１３巷","ALLEY":" ","HOUSE_NO":"１號","E_COORD97":179171.48999999999,"N_COORD97":2565779.98,"ADDRESS":"隆西街１３巷１號","OBJECTID":409187},"geometry":{"x":179171.49000000115,"y":2565779.9800000004}},{"attributes":{"ID":409212,"DIS_CODE":0,"TOWNNAME":"官田區","LI":"隆田里","LIN":"22鄰","STREET":"隆西街","SECT":" ","MAREA":" ","LANE":"１３巷","ALLEY":" ","HOUSE_NO":"２號之１","E_COORD97":179180.75,"N_COORD97":2565781.3599999999,"ADDRESS":"隆西街１３巷２號之１","OBJECTID":409188},"geometry":{"x":179180.75,"y":2565781.3600000013}},{"attributes":{"ID":409213,"DIS_CODE":0,"TOWNNAME":"官田區","LI":"隆田里","LIN":"22鄰","STREET":"隆西街","SECT":" ","MAREA":" ","LANE":"１３巷","ALLEY":" ","HOUSE_NO":"３號","E_COORD97":179186.10999999999,"N_COORD97":2565734.4700000002,"ADDRESS":"隆西街１３巷３號","OBJECTID":409189},"geometry":{"x":179186.11000000127,"y":2565734.4700000025}},{"attributes":{"ID":409214,"DIS_CODE":0,"TOWNNAME":"官田區","LI":"隆田里","LIN":"22鄰","STREET":"隆西街","SECT":" ","MAREA":" ","LANE":"１３巷","ALLEY":" ","HOUSE_NO":"４號之１","E_COORD97":179137.84,"N_COORD97":2565732.7200000002,"ADDRESS":"隆西街１３巷４號之１","OBJECTID":409190},"geometry":{"x":179137.83999999985,"y":2565732.7200000025}},{"attributes":{"ID":409215,"DIS_CODE":0,"TOWNNAME":"官田區","LI":"隆田里","LIN":"22鄰","STREET":"隆西街","SECT":" ","MAREA":" ","LANE":"１３巷","ALLEY":" ","HOUSE_NO":"４號之３","E_COORD97":179125.79000000001,"N_COORD97":2565736.3399999999,"ADDRESS":"隆西街１３巷４號之３","OBJECTID":409191},"geometry":{"x":179125.79000000097,"y":2565736.3399999999}},{"attributes":{"ID":409216,"DIS_CODE":0,"TOWNNAME":"官田區","LI":"隆田里","LIN":"22鄰","STREET":"隆西街","SECT":" ","MAREA":" ","LANE":"１３巷","ALLEY":" ","HOUSE_NO":"４號之５","E_COORD97":179121.20000000001,"N_COORD97":2565735.6000000001,"ADDRESS":"隆西街１３巷４號之５","OBJECTID":409192},"geometry":{"x":179121.20000000112,"y":2565735.6000000015}},{"attributes":{"ID":409217,"DIS_CODE":0,"TOWNNAME":"官田區","LI":"隆田里","LIN":"22鄰","STREET":"隆西街","SECT":" ","MAREA":" ","LANE":"１３巷","ALLEY":" ","HOUSE_NO":"４號","E_COORD97":179132.07000000001,"N_COORD97":2565782.8999999999,"ADDRESS":"隆西街１３巷４號","OBJECTID":409193},"geometry":{"x":179132.07000000123,"y":2565782.9000000022}},{"attributes":{"ID":409218,"DIS_CODE":0,"TOWNNAME":"新市區","LI":"新市里","LIN":"22鄰","STREET":"和平街","SECT":" ","MAREA":" ","LANE":"１６巷","ALLEY":" ","HOUSE_NO":"１３號","E_COORD97":177741.76000000001,"N_COORD97":2553510,"ADDRESS":"和平街１６巷１３號","OBJECTID":409194},"geometry":{"x":177741.76000000164,"y":2553510}},{"attributes":{"ID":409219,"DIS_CODE":0,"TOWNNAME":"永康區","LI":"正強里","LIN":"22鄰","STREET":"中正路","SECT":" ","MAREA":" ","LANE":"１２７巷","ALLEY":" ","HOUSE_NO":"３３號","E_COORD97":173402.94,"N_COORD97":2547761,"ADDRESS":"中正路１２７巷３３號","OBJECTID":409195},"geometry":{"x":173402.94000000041,"y":2547761.0000000019}},{"attributes":{"ID":409220,"DIS_CODE":0,"TOWNNAME":"永康區","LI":"五王里","LIN":"22鄰","STREET":"成功路","SECT":" ","MAREA":" ","LANE":"２２８巷","ALLEY":" ","HOUSE_NO":"５３號","E_COORD97":171468.31,"N_COORD97":2545864.5099999998,"ADDRESS":"成功路２２８巷５３號","OBJECTID":409196},"geometry":{"x":171468.30999999959,"y":2545864.5099999998}},{"attributes":{"ID":409221,"DIS_CODE":0,"TOWNNAME":"東區","LI":"崇學里","LIN":"13鄰","STREET":"崇明九街","SECT":" ","MAREA":" ","LANE":" ","ALLEY":" ","HOUSE_NO":"１１４號","E_COORD97":170196.87,"N_COORD97":2541915,"ADDRESS":"崇明九街１１４號","OBJECTID":409197},"geometry":{"x":170196.87000000011,"y":2541915}},{"attributes":{"ID":409222,"DIS_CODE":0,"TOWNNAME":"永康區","LI":"五王里","LIN":"22鄰","STREET":"成功路","SECT":" ","MAREA":" ","LANE":"２２８巷","ALLEY":" ","HOUSE_NO":"３１號","E_COORD97":171421.87,"N_COORD97":2545831.52,"ADDRESS":"成功路２２８巷３１號","OBJECTID":409198},"geometry":{"x":171421.87000000104,"y":2545831.5200000014}},{"attributes":{"ID":409223,"DIS_CODE":0,"TOWNNAME":"永康區","LI":"五王里","LIN":"22鄰","STREET":"成功路","SECT":" ","MAREA":" ","LANE":"２２８巷","ALLEY":" ","HOUSE_NO":"４６號","E_COORD97":171456.60999999999,"N_COORD97":2545835.5099999998,"ADDRESS":"成功路２２８巷４６號","OBJECTID":409199},"geometry":{"x":171456.61000000127,"y":2545835.5100000016}},{"attributes":{"ID":409224,"DIS_CODE":0,"TOWNNAME":"永康區","LI":"五王里","LIN":"22鄰","STREET":"成功路","SECT":" ","MAREA":" ","LANE":"２２８巷","ALLEY":" ","HOUSE_NO":"３３號","E_COORD97":171425.72,"N_COORD97":2545834.5099999998,"ADDRESS":"成功路２２８巷３３號","OBJECTID":409200},"geometry":{"x":171425.7200000016,"y":2545834.5100000035}}]}