{"displayFieldName":"TOWNNAME","fieldAliases":{"ID":"ID","DIS_CODE":"DIS_CODE","TOWNNAME":"TOWNNAME","LI":"LI","LIN":"LIN","STREET":"STREET","SECT":"SECT","MAREA":"MAREA","LANE":"LANE","ALLEY":"ALLEY","HOUSE_NO":"HOUSE_NO","E_COORD97":"E_COORD97","N_COORD97":"N_COORD97","ADDRESS":"ADDRESS","OBJECTID":"OBJECTID"},"geometryType":"esriGeometryPoint","spatialReference":{"wkid":102443,"latestWkid":3826},"fields":[{"name":"ID","type":"esriFieldTypeDouble","alias":"ID"},{"name":"DIS_CODE","type":"esriFieldTypeInteger","alias":"DIS_CODE"},{"name":"TOWNNAME","type":"esriFieldTypeString","alias":"TOWNNAME","length":8},{"name":"LI","type":"esriFieldTypeString","alias":"LI","length":8},{"name":"LIN","type":"esriFieldTypeString","alias":"LIN","length":12},{"name":"STREET","type":"esriFieldTypeString","alias":"STREET","length":20},{"name":"SECT","type":"esriFieldTypeString","alias":"SECT","length":8},{"name":"MAREA","type":"esriFieldTypeString","alias":"MAREA","length":12},{"name":"LANE","type":"esriFieldTypeString","alias":"LANE","length":10},{"name":"ALLEY","type":"esriFieldTypeString","alias":"ALLEY","length":10},{"name":"HOUSE_NO","type":"esriFieldTypeString","alias":"HOUSE_NO","length":20},{"name":"E_COORD97","type":"esriFieldTypeDouble","alias":"E_COORD97"},{"name":"N_COORD97","type":"esriFieldTypeDouble","alias":"N_COORD97"},{"name":"ADDRESS","type":"esriFieldTypeString","alias":"ADDRESS","length":50},{"name":"OBJECTID","type":"esriFieldTypeOID","alias":"OBJECTID"}],"features":[{"attributes":{"ID":243805,"DIS_CODE":0,"TOWNNAME":"北區","LI":"興南里","LIN":"11鄰","STREET":"西門路","SECT":"四段","MAREA":" ","LANE":"１６巷","ALLEY":" ","HOUSE_NO":"４３號","E_COORD97":168819.39000000001,"N_COORD97":2545120.1800000002,"ADDRESS":"西門路四段１６巷４３號","OBJECTID":243801},"geometry":{"x":168819.3900000006,"y":2545120.1799999997}},{"attributes":{"ID":243806,"DIS_CODE":0,"TOWNNAME":"北區","LI":"興南里","LIN":"11鄰","STREET":"西門路","SECT":"四段","MAREA":" ","LANE":"１６巷","ALLEY":" ","HOUSE_NO":"４５號","E_COORD97":168819.22,"N_COORD97":2545112.7000000002,"ADDRESS":"西門路四段１６巷４５號","OBJECTID":243802},"geometry":{"x":168819.22000000067,"y":2545112.6999999993}},{"attributes":{"ID":243807,"DIS_CODE":0,"TOWNNAME":"北區","LI":"興南里","LIN":"11鄰","STREET":"西門路","SECT":"四段","MAREA":" ","LANE":"１６巷","ALLEY":" ","HOUSE_NO":"４７號","E_COORD97":168825.07999999999,"N_COORD97":2545112.8599999999,"ADDRESS":"西門路四段１６巷４７號","OBJECTID":243803},"geometry":{"x":168825.08000000101,"y":2545112.8600000031}},{"attributes":{"ID":243808,"DIS_CODE":0,"TOWNNAME":"北區","LI":"大港里","LIN":"24鄰","STREET":"中華北路","SECT":"一段","MAREA":" ","LANE":"２０３巷","ALLEY":" ","HOUSE_NO":"６４號","E_COORD97":166282.85999999999,"N_COORD97":2545686.0899999999,"ADDRESS":"中華北路一段２０３巷６４號","OBJECTID":243804},"geometry":{"x":166282.86000000127,"y":2545686.0900000017}},{"attributes":{"ID":243809,"DIS_CODE":0,"TOWNNAME":"北區","LI":"大港里","LIN":"24鄰","STREET":"中華北路","SECT":"一段","MAREA":" ","LANE":"２０３巷","ALLEY":" ","HOUSE_NO":"６８號","E_COORD97":166275.19,"N_COORD97":2545683.21,"ADDRESS":"中華北路一段２０３巷６８號","OBJECTID":243805},"geometry":{"x":166275.19000000134,"y":2545683.2100000028}},{"attributes":{"ID":243810,"DIS_CODE":0,"TOWNNAME":"北區","LI":"大港里","LIN":"24鄰","STREET":"中華北路","SECT":"一段","MAREA":" ","LANE":"２０３巷","ALLEY":" ","HOUSE_NO":"７０號","E_COORD97":166270.63,"N_COORD97":2545682.1000000001,"ADDRESS":"中華北路一段２０３巷７０號","OBJECTID":243806},"geometry":{"x":166270.62999999989,"y":2545682.1000000015}},{"attributes":{"ID":243811,"DIS_CODE":0,"TOWNNAME":"北區","LI":"大港里","LIN":"24鄰","STREET":"中華北路","SECT":"一段","MAREA":" ","LANE":"２０３巷","ALLEY":" ","HOUSE_NO":"７２號","E_COORD97":166266.54999999999,"N_COORD97":2545680.8199999998,"ADDRESS":"中華北路一段２０３巷７２號","OBJECTID":243807},"geometry":{"x":166266.54999999981,"y":2545680.8200000022}},{"attributes":{"ID":243812,"DIS_CODE":0,"TOWNNAME":"北區","LI":"大港里","LIN":"24鄰","STREET":"中華北路","SECT":"一段","MAREA":" ","LANE":"２０３巷","ALLEY":" ","HOUSE_NO":"８２號","E_COORD97":166236.79000000001,"N_COORD97":2545670.7999999998,"ADDRESS":"中華北路一段２０３巷８２號","OBJECTID":243808},"geometry":{"x":166236.79000000097,"y":2545670.8000000045}},{"attributes":{"ID":243813,"DIS_CODE":0,"TOWNNAME":"北區","LI":"大港里","LIN":"24鄰","STREET":"中華北路","SECT":"一段","MAREA":" ","LANE":"２０３巷","ALLEY":" ","HOUSE_NO":"８３號","E_COORD97":166242.53,"N_COORD97":2545658.6800000002,"ADDRESS":"中華北路一段２０３巷８３號","OBJECTID":243809},"geometry":{"x":166242.53000000119,"y":2545658.6799999997}},{"attributes":{"ID":243814,"DIS_CODE":0,"TOWNNAME":"北區","LI":"大港里","LIN":"24鄰","STREET":"中華北路","SECT":"一段","MAREA":" ","LANE":"２０３巷","ALLEY":" ","HOUSE_NO":"８４號","E_COORD97":166232.34,"N_COORD97":2545669.25,"ADDRESS":"中華北路一段２０３巷８４號","OBJECTID":243810},"geometry":{"x":166232.33999999985,"y":2545669.25}},{"attributes":{"ID":243815,"DIS_CODE":0,"TOWNNAME":"北區","LI":"大港里","LIN":"24鄰","STREET":"中華北路","SECT":"一段","MAREA":" ","LANE":"２０３巷","ALLEY":" ","HOUSE_NO":"８５號","E_COORD97":166238.23000000001,"N_COORD97":2545657.5499999998,"ADDRESS":"中華北路一段２０３巷８５號","OBJECTID":243811},"geometry":{"x":166238.23000000045,"y":2545657.5500000007}},{"attributes":{"ID":243816,"DIS_CODE":0,"TOWNNAME":"北區","LI":"大港里","LIN":"24鄰","STREET":"中華北路","SECT":"一段","MAREA":" ","LANE":"２０３巷","ALLEY":" ","HOUSE_NO":"８６號","E_COORD97":166229.17999999999,"N_COORD97":2545667.8399999999,"ADDRESS":"中華北路一段２０３巷８６號","OBJECTID":243812},"geometry":{"x":166229.18000000063,"y":2545667.8399999999}},{"attributes":{"ID":243817,"DIS_CODE":0,"TOWNNAME":"北區","LI":"大港里","LIN":"24鄰","STREET":"中華北路","SECT":"一段","MAREA":" ","LANE":"２０３巷","ALLEY":" ","HOUSE_NO":"８７號","E_COORD97":166233.92000000001,"N_COORD97":2545656.1499999999,"ADDRESS":"中華北路一段２０３巷８７號","OBJECTID":243813},"geometry":{"x":166233.92000000179,"y":2545656.1500000004}},{"attributes":{"ID":243818,"DIS_CODE":0,"TOWNNAME":"北區","LI":"大港里","LIN":"24鄰","STREET":"中華北路","SECT":"一段","MAREA":" ","LANE":"２０３巷","ALLEY":" ","HOUSE_NO":"８８號","E_COORD97":166224.73000000001,"N_COORD97":2545665.8799999999,"ADDRESS":"中華北路一段２０３巷８８號","OBJECTID":243814},"geometry":{"x":166224.73000000045,"y":2545665.8800000008}},{"attributes":{"ID":243819,"DIS_CODE":0,"TOWNNAME":"北區","LI":"大港里","LIN":"24鄰","STREET":"中華北路","SECT":"一段","MAREA":" ","LANE":"２０３巷","ALLEY":" ","HOUSE_NO":"８９號","E_COORD97":166229.60999999999,"N_COORD97":2545654.3199999998,"ADDRESS":"中華北路一段２０３巷８９號","OBJECTID":243815},"geometry":{"x":166229.6100000022,"y":2545654.3200000022}},{"attributes":{"ID":243820,"DIS_CODE":0,"TOWNNAME":"北區","LI":"大港里","LIN":"24鄰","STREET":"中華北路","SECT":"一段","MAREA":" ","LANE":"２０３巷","ALLEY":" ","HOUSE_NO":"９０號","E_COORD97":166221.42000000001,"N_COORD97":2545664.1899999999,"ADDRESS":"中華北路一段２０３巷９０號","OBJECTID":243816},"geometry":{"x":166221.41999999993,"y":2545664.1900000013}},{"attributes":{"ID":243821,"DIS_CODE":0,"TOWNNAME":"北區","LI":"大港里","LIN":"24鄰","STREET":"中華北路","SECT":"一段","MAREA":" ","LANE":"２０３巷","ALLEY":" ","HOUSE_NO":"２３號","E_COORD97":166384.35000000001,"N_COORD97":2545704.4900000002,"ADDRESS":"中華北路一段２０３巷２３號","OBJECTID":243817},"geometry":{"x":166384.34999999963,"y":2545704.4900000002}},{"attributes":{"ID":243822,"DIS_CODE":0,"TOWNNAME":"北區","LI":"大港里","LIN":"24鄰","STREET":"中華北路","SECT":"一段","MAREA":" ","LANE":"２０３巷","ALLEY":" ","HOUSE_NO":"２７號","E_COORD97":166370.17000000001,"N_COORD97":2545701.1299999999,"ADDRESS":"中華北路一段２０３巷２７號","OBJECTID":243818},"geometry":{"x":166370.17000000086,"y":2545701.1300000008}},{"attributes":{"ID":243823,"DIS_CODE":0,"TOWNNAME":"北區","LI":"大港里","LIN":"24鄰","STREET":"中華北路","SECT":"一段","MAREA":" ","LANE":"２０３巷","ALLEY":" ","HOUSE_NO":"２９號","E_COORD97":166366.09,"N_COORD97":2545699.7000000002,"ADDRESS":"中華北路一段２０３巷２９號","OBJECTID":243819},"geometry":{"x":166366.08999999985,"y":2545699.6999999993}},{"attributes":{"ID":243824,"DIS_CODE":0,"TOWNNAME":"北區","LI":"大港里","LIN":"24鄰","STREET":"中華北路","SECT":"一段","MAREA":" ","LANE":"２０３巷","ALLEY":" ","HOUSE_NO":"３１號","E_COORD97":166361.51999999999,"N_COORD97":2545698.1000000001,"ADDRESS":"中華北路一段２０３巷３１號","OBJECTID":243820},"geometry":{"x":166361.52000000142,"y":2545698.1000000034}},{"attributes":{"ID":243825,"DIS_CODE":0,"TOWNNAME":"北區","LI":"大和里","LIN":"24鄰","STREET":"大和路","SECT":" ","MAREA":" ","LANE":"３３０巷","ALLEY":" ","HOUSE_NO":"９１號","E_COORD97":167054.60999999999,"N_COORD97":2546188.7599999998,"ADDRESS":"大和路３３０巷９１號","OBJECTID":243821},"geometry":{"x":167054.61000000034,"y":2546188.7600000035}},{"attributes":{"ID":243826,"DIS_CODE":0,"TOWNNAME":"北區","LI":"大港里","LIN":"24鄰","STREET":"中華北路","SECT":"一段","MAREA":" ","LANE":"２０３巷","ALLEY":" ","HOUSE_NO":"３５號","E_COORD97":166352.87,"N_COORD97":2545695.54,"ADDRESS":"中華北路一段２０３巷３５號","OBJECTID":243822},"geometry":{"x":166352.86999999918,"y":2545695.540000001}},{"attributes":{"ID":243827,"DIS_CODE":0,"TOWNNAME":"中西區","LI":"公正里","LIN":"14鄰","STREET":"西華南街","SECT":" ","MAREA":" ","LANE":" ","ALLEY":" ","HOUSE_NO":"３５號八樓之３","E_COORD97":168935.84,"N_COORD97":2543824.9199999999,"ADDRESS":"西華南街３５號八樓之３","OBJECTID":243823},"geometry":{"x":168935.83999999985,"y":2543824.9200000037}},{"attributes":{"ID":243828,"DIS_CODE":0,"TOWNNAME":"中西區","LI":"公正里","LIN":"14鄰","STREET":"西華南街","SECT":" ","MAREA":" ","LANE":" ","ALLEY":" ","HOUSE_NO":"３５號九樓之１","E_COORD97":168935.84,"N_COORD97":2543824.9199999999,"ADDRESS":"西華南街３５號九樓之１","OBJECTID":243824},"geometry":{"x":168935.83999999985,"y":2543824.9200000037}},{"attributes":{"ID":243829,"DIS_CODE":0,"TOWNNAME":"中西區","LI":"公正里","LIN":"14鄰","STREET":"西華南街","SECT":" ","MAREA":" ","LANE":" ","ALLEY":" ","HOUSE_NO":"３５號九樓之３","E_COORD97":168935.84,"N_COORD97":2543824.9199999999,"ADDRESS":"西華南街３５號九樓之３","OBJECTID":243825},"geometry":{"x":168935.83999999985,"y":2543824.9200000037}},{"attributes":{"ID":243830,"DIS_CODE":0,"TOWNNAME":"中西區","LI":"公正里","LIN":"14鄰","STREET":"西華南街","SECT":" ","MAREA":" ","LANE":" ","ALLEY":" ","HOUSE_NO":"３５號九樓之５","E_COORD97":168935.84,"N_COORD97":2543824.9199999999,"ADDRESS":"西華南街３５號九樓之５","OBJECTID":243826},"geometry":{"x":168935.83999999985,"y":2543824.9200000037}},{"attributes":{"ID":243831,"DIS_CODE":0,"TOWNNAME":"歸仁區","LI":"大廟里","LIN":"11鄰","STREET":"大廟五街","SECT":" ","MAREA":" ","LANE":"２６巷","ALLEY":" ","HOUSE_NO":"６號","E_COORD97":175961.67999999999,"N_COORD97":2544187.9900000002,"ADDRESS":"大廟五街２６巷６號","OBJECTID":243827},"geometry":{"x":175961.6799999997,"y":2544187.9900000021}},{"attributes":{"ID":243832,"DIS_CODE":0,"TOWNNAME":"中西區","LI":"光賢里","LIN":"18鄰","STREET":"武聖路","SECT":" ","MAREA":" ","LANE":"１９７巷","ALLEY":" ","HOUSE_NO":"１９號","E_COORD97":166908.60999999999,"N_COORD97":2545166,"ADDRESS":"武聖路１９７巷１９號","OBJECTID":243828},"geometry":{"x":166908.61000000034,"y":2545166}},{"attributes":{"ID":243833,"DIS_CODE":0,"TOWNNAME":"歸仁區","LI":"七甲里","LIN":"11鄰","STREET":"丁厝街","SECT":" ","MAREA":" ","LANE":"３５巷","ALLEY":" ","HOUSE_NO":"２６號","E_COORD97":175971.23999999999,"N_COORD97":2541900.25,"ADDRESS":"丁厝街３５巷２６號","OBJECTID":243829},"geometry":{"x":175971.24000000115,"y":2541900.2500000037}},{"attributes":{"ID":243834,"DIS_CODE":0,"TOWNNAME":"歸仁區","LI":"八甲里","LIN":"11鄰","STREET":"大明二街","SECT":" ","MAREA":" ","LANE":"７５巷","ALLEY":" ","HOUSE_NO":"２號","E_COORD97":177815.62,"N_COORD97":2541975.6099999999,"ADDRESS":"大明二街７５巷２號","OBJECTID":243830},"geometry":{"x":177815.62000000011,"y":2541975.6100000013}},{"attributes":{"ID":243835,"DIS_CODE":0,"TOWNNAME":"歸仁區","LI":"六甲里","LIN":"11鄰","STREET":"中正南路","SECT":"一段","MAREA":" ","LANE":"１２０１巷","ALLEY":" ","HOUSE_NO":"９１號","E_COORD97":176120.04000000001,"N_COORD97":2538697.8300000001,"ADDRESS":"中正南路一段１２０１巷９１號","OBJECTID":243831},"geometry":{"x":176120.04000000097,"y":2538697.8300000001}},{"attributes":{"ID":243836,"DIS_CODE":0,"TOWNNAME":"歸仁區","LI":"七甲里","LIN":"11鄰","STREET":"丁厝街","SECT":" ","MAREA":" ","LANE":"４１巷","ALLEY":" ","HOUSE_NO":"９號","E_COORD97":175941.39000000001,"N_COORD97":2541924.25,"ADDRESS":"丁厝街４１巷９號","OBJECTID":243832},"geometry":{"x":175941.38999999966,"y":2541924.2500000019}},{"attributes":{"ID":243837,"DIS_CODE":0,"TOWNNAME":"北區","LI":"大港里","LIN":"24鄰","STREET":"中華北路","SECT":"一段","MAREA":" ","LANE":"２０３巷","ALLEY":" ","HOUSE_NO":"３７號","E_COORD97":166348.95999999999,"N_COORD97":2545694.5800000001,"ADDRESS":"中華北路一段２０３巷３７號","OBJECTID":243833},"geometry":{"x":166348.96000000183,"y":2545694.5800000001}},{"attributes":{"ID":243838,"DIS_CODE":0,"TOWNNAME":"北區","LI":"大港里","LIN":"24鄰","STREET":"中華北路","SECT":"一段","MAREA":" ","LANE":"２０３巷","ALLEY":" ","HOUSE_NO":"３９號","E_COORD97":166344.88,"N_COORD97":2545692.8199999998,"ADDRESS":"中華北路一段２０３巷３９號","OBJECTID":243834},"geometry":{"x":166344.88000000082,"y":2545692.8200000003}},{"attributes":{"ID":243839,"DIS_CODE":0,"TOWNNAME":"中西區","LI":"公正里","LIN":"14鄰","STREET":"西華南街","SECT":" ","MAREA":" ","LANE":" ","ALLEY":" ","HOUSE_NO":"３５號九樓之２","E_COORD97":168935.84,"N_COORD97":2543824.9199999999,"ADDRESS":"西華南街３５號九樓之２","OBJECTID":243835},"geometry":{"x":168935.83999999985,"y":2543824.9200000037}},{"attributes":{"ID":243840,"DIS_CODE":0,"TOWNNAME":"中西區","LI":"公正里","LIN":"14鄰","STREET":"西華南街","SECT":" ","MAREA":" ","LANE":" ","ALLEY":" ","HOUSE_NO":"３５號十樓之１","E_COORD97":168935.84,"N_COORD97":2543824.9199999999,"ADDRESS":"西華南街３５號十樓之１","OBJECTID":243836},"geometry":{"x":168935.83999999985,"y":2543824.9200000037}},{"attributes":{"ID":243841,"DIS_CODE":0,"TOWNNAME":"中西區","LI":"公正里","LIN":"14鄰","STREET":"西華南街","SECT":" ","MAREA":" ","LANE":" ","ALLEY":" ","HOUSE_NO":"３５號十樓之２","E_COORD97":168935.84,"N_COORD97":2543824.9199999999,"ADDRESS":"西華南街３５號十樓之２","OBJECTID":243837},"geometry":{"x":168935.83999999985,"y":2543824.9200000037}},{"attributes":{"ID":243842,"DIS_CODE":0,"TOWNNAME":"中西區","LI":"公正里","LIN":"14鄰","STREET":"西華南街","SECT":" ","MAREA":" ","LANE":" ","ALLEY":" ","HOUSE_NO":"３５號十樓之５","E_COORD97":168935.84,"N_COORD97":2543824.9199999999,"ADDRESS":"西華南街３５號十樓之５","OBJECTID":243838},"geometry":{"x":168935.83999999985,"y":2543824.9200000037}},{"attributes":{"ID":243843,"DIS_CODE":0,"TOWNNAME":"中西區","LI":"公正里","LIN":"14鄰","STREET":"西華南街","SECT":" ","MAREA":" ","LANE":" ","ALLEY":" ","HOUSE_NO":"３５號十一樓之１","E_COORD97":168935.84,"N_COORD97":2543824.9199999999,"ADDRESS":"西華南街３５號十一樓之１","OBJECTID":243839},"geometry":{"x":168935.83999999985,"y":2543824.9200000037}},{"attributes":{"ID":243844,"DIS_CODE":0,"TOWNNAME":"中西區","LI":"公正里","LIN":"14鄰","STREET":"西華南街","SECT":" ","MAREA":" ","LANE":" ","ALLEY":" ","HOUSE_NO":"３５號十一樓之２","E_COORD97":168935.84,"N_COORD97":2543824.9199999999,"ADDRESS":"西華南街３５號十一樓之２","OBJECTID":243840},"geometry":{"x":168935.83999999985,"y":2543824.9200000037}},{"attributes":{"ID":243845,"DIS_CODE":0,"TOWNNAME":"北區","LI":"大港里","LIN":"24鄰","STREET":"中華北路","SECT":"一段","MAREA":" ","LANE":"２０３巷","ALLEY":" ","HOUSE_NO":"４５號","E_COORD97":166332.23000000001,"N_COORD97":2545688.5,"ADDRESS":"中華北路一段２０３巷４５號","OBJECTID":243841},"geometry":{"x":166332.23000000231,"y":2545688.5}},{"attributes":{"ID":243846,"DIS_CODE":0,"TOWNNAME":"北區","LI":"大港里","LIN":"24鄰","STREET":"中華北路","SECT":"一段","MAREA":" ","LANE":"２０３巷","ALLEY":" ","HOUSE_NO":"４７號","E_COORD97":166327.51000000001,"N_COORD97":2545687.3799999999,"ADDRESS":"中華北路一段２０３巷４７號","OBJECTID":243842},"geometry":{"x":166327.50999999978,"y":2545687.379999999}},{"attributes":{"ID":243847,"DIS_CODE":0,"TOWNNAME":"北區","LI":"大港里","LIN":"24鄰","STREET":"中華北路","SECT":"一段","MAREA":" ","LANE":"２０３巷","ALLEY":" ","HOUSE_NO":"４９號","E_COORD97":166323.10000000001,"N_COORD97":2545685.7799999998,"ADDRESS":"中華北路一段２０３巷４９號","OBJECTID":243843},"geometry":{"x":166323.09999999963,"y":2545685.7799999993}},{"attributes":{"ID":243848,"DIS_CODE":0,"TOWNNAME":"北區","LI":"國興里","LIN":"11鄰","STREET":"開元路","SECT":" ","MAREA":" ","LANE":"３９４巷","ALLEY":" ","HOUSE_NO":"２９號","E_COORD97":170613,"N_COORD97":2545574.1800000002,"ADDRESS":"開元路３９４巷２９號","OBJECTID":243844},"geometry":{"x":170613,"y":2545574.1799999997}},{"attributes":{"ID":243849,"DIS_CODE":0,"TOWNNAME":"北區","LI":"國興里","LIN":"11鄰","STREET":"開元路","SECT":" ","MAREA":" ","LANE":"３９４巷","ALLEY":" ","HOUSE_NO":"３１號","E_COORD97":170616.07000000001,"N_COORD97":2545570.0600000001,"ADDRESS":"開元路３９４巷３１號","OBJECTID":243845},"geometry":{"x":170616.07000000123,"y":2545570.0600000005}},{"attributes":{"ID":243850,"DIS_CODE":0,"TOWNNAME":"北區","LI":"國興里","LIN":"11鄰","STREET":"開元路","SECT":" ","MAREA":" ","LANE":"３９４巷","ALLEY":" ","HOUSE_NO":"３５號","E_COORD97":170620.67999999999,"N_COORD97":2545563.25,"ADDRESS":"開元路３９４巷３５號","OBJECTID":243846},"geometry":{"x":170620.68000000156,"y":2545563.2500000019}},{"attributes":{"ID":243851,"DIS_CODE":0,"TOWNNAME":"北區","LI":"國興里","LIN":"11鄰","STREET":"開元路","SECT":" ","MAREA":" ","LANE":"３９４巷","ALLEY":" ","HOUSE_NO":"３７號","E_COORD97":170623.64999999999,"N_COORD97":2545559.98,"ADDRESS":"開元路３９４巷３７號","OBJECTID":243847},"geometry":{"x":170623.6500000013,"y":2545559.9800000004}},{"attributes":{"ID":243852,"DIS_CODE":0,"TOWNNAME":"北區","LI":"國興里","LIN":"11鄰","STREET":"開元路","SECT":" ","MAREA":" ","LANE":"３９４巷","ALLEY":" ","HOUSE_NO":"３９號","E_COORD97":170627.59,"N_COORD97":2545557.2999999998,"ADDRESS":"開元路３９４巷３９號","OBJECTID":243848},"geometry":{"x":170627.58999999985,"y":2545557.3000000007}},{"attributes":{"ID":243853,"DIS_CODE":0,"TOWNNAME":"北區","LI":"國興里","LIN":"11鄰","STREET":"開元路","SECT":" ","MAREA":" ","LANE":"３９４巷","ALLEY":" ","HOUSE_NO":"４３號","E_COORD97":170637.98999999999,"N_COORD97":2545548.3900000001,"ADDRESS":"開元路３９４巷４３號","OBJECTID":243849},"geometry":{"x":170637.99000000115,"y":2545548.3900000025}},{"attributes":{"ID":243854,"DIS_CODE":0,"TOWNNAME":"北區","LI":"國興里","LIN":"11鄰","STREET":"開元路","SECT":" ","MAREA":" ","LANE":"３９４巷","ALLEY":" ","HOUSE_NO":"４５號","E_COORD97":170647.79000000001,"N_COORD97":2545538.1200000001,"ADDRESS":"開元路３９４巷４５號","OBJECTID":243850},"geometry":{"x":170647.79000000097,"y":2545538.1200000029}},{"attributes":{"ID":243855,"DIS_CODE":0,"TOWNNAME":"北區","LI":"國興里","LIN":"11鄰","STREET":"開元路","SECT":" ","MAREA":" ","LANE":"３９４巷","ALLEY":" ","HOUSE_NO":"５７號","E_COORD97":170664.67999999999,"N_COORD97":2545528.4300000002,"ADDRESS":"開元路３９４巷５７號","OBJECTID":243851},"geometry":{"x":170664.68000000156,"y":2545528.4299999997}},{"attributes":{"ID":243856,"DIS_CODE":0,"TOWNNAME":"北區","LI":"國興里","LIN":"11鄰","STREET":"開元路","SECT":" ","MAREA":" ","LANE":"３９４巷","ALLEY":" ","HOUSE_NO":"５９號","E_COORD97":170669.09,"N_COORD97":2545524.8799999999,"ADDRESS":"開元路３９４巷５９號","OBJECTID":243852},"geometry":{"x":170669.09000000078,"y":2545524.879999999}},{"attributes":{"ID":243857,"DIS_CODE":0,"TOWNNAME":"北區","LI":"國興里","LIN":"11鄰","STREET":"開元路","SECT":" ","MAREA":" ","LANE":"３９４巷","ALLEY":" ","HOUSE_NO":"６３號","E_COORD97":170681.57000000001,"N_COORD97":2545515.9199999999,"ADDRESS":"開元路３９４巷６３號","OBJECTID":243853},"geometry":{"x":170681.57000000123,"y":2545515.9199999999}},{"attributes":{"ID":243858,"DIS_CODE":0,"TOWNNAME":"北區","LI":"國興里","LIN":"11鄰","STREET":"開元路","SECT":" ","MAREA":" ","LANE":"３９４巷","ALLEY":" ","HOUSE_NO":"６５號","E_COORD97":170684.92999999999,"N_COORD97":2545512.1800000002,"ADDRESS":"開元路３９４巷６５號","OBJECTID":243854},"geometry":{"x":170684.92999999877,"y":2545512.1800000016}},{"attributes":{"ID":243859,"DIS_CODE":0,"TOWNNAME":"北區","LI":"大港里","LIN":"24鄰","STREET":"中華北路","SECT":"一段","MAREA":" ","LANE":"２０３巷","ALLEY":" ","HOUSE_NO":"５１號","E_COORD97":166319.51000000001,"N_COORD97":2545684.1800000002,"ADDRESS":"中華北路一段２０３巷５１號","OBJECTID":243855},"geometry":{"x":166319.51000000164,"y":2545684.1800000034}},{"attributes":{"ID":243860,"DIS_CODE":0,"TOWNNAME":"北區","LI":"大港里","LIN":"24鄰","STREET":"中華北路","SECT":"一段","MAREA":" ","LANE":"２０３巷","ALLEY":" ","HOUSE_NO":"５３號","E_COORD97":166315.59,"N_COORD97":2545682.7400000002,"ADDRESS":"中華北路一段２０３巷５３號","OBJECTID":243856},"geometry":{"x":166315.59000000171,"y":2545682.7400000002}},{"attributes":{"ID":243861,"DIS_CODE":0,"TOWNNAME":"北區","LI":"大港里","LIN":"24鄰","STREET":"中華北路","SECT":"一段","MAREA":" ","LANE":"２０３巷","ALLEY":" ","HOUSE_NO":"５５號","E_COORD97":166310.20999999999,"N_COORD97":2545681.4700000002,"ADDRESS":"中華北路一段２０３巷５５號","OBJECTID":243857},"geometry":{"x":166310.21000000089,"y":2545681.4700000007}},{"attributes":{"ID":243862,"DIS_CODE":0,"TOWNNAME":"北區","LI":"大港里","LIN":"24鄰","STREET":"中華北路","SECT":"一段","MAREA":" ","LANE":"２０３巷","ALLEY":" ","HOUSE_NO":"５７號","E_COORD97":166305.95999999999,"N_COORD97":2545679.71,"ADDRESS":"中華北路一段２０３巷５７號","OBJECTID":243858},"geometry":{"x":166305.95999999996,"y":2545679.7100000028}},{"attributes":{"ID":243863,"DIS_CODE":0,"TOWNNAME":"北區","LI":"大港里","LIN":"24鄰","STREET":"中華北路","SECT":"一段","MAREA":" ","LANE":"２０３巷","ALLEY":" ","HOUSE_NO":"５９號","E_COORD97":166301.88,"N_COORD97":2545678.1099999999,"ADDRESS":"中華北路一段２０３巷５９號","OBJECTID":243859},"geometry":{"x":166301.88000000175,"y":2545678.1100000013}},{"attributes":{"ID":243864,"DIS_CODE":0,"TOWNNAME":"北區","LI":"大港里","LIN":"24鄰","STREET":"中華北路","SECT":"一段","MAREA":" ","LANE":"２０３巷","ALLEY":" ","HOUSE_NO":"６１號","E_COORD97":166297.48000000001,"N_COORD97":2545677.4700000002,"ADDRESS":"中華北路一段２０３巷６１號","OBJECTID":243860},"geometry":{"x":166297.48000000138,"y":2545677.4700000025}},{"attributes":{"ID":243865,"DIS_CODE":0,"TOWNNAME":"中西區","LI":"公正里","LIN":"14鄰","STREET":"西華南街","SECT":" ","MAREA":" ","LANE":" ","ALLEY":" ","HOUSE_NO":"３５號十一樓之５","E_COORD97":168935.84,"N_COORD97":2543824.9199999999,"ADDRESS":"西華南街３５號十一樓之５","OBJECTID":243861},"geometry":{"x":168935.83999999985,"y":2543824.9200000037}},{"attributes":{"ID":243866,"DIS_CODE":0,"TOWNNAME":"中西區","LI":"公正里","LIN":"14鄰","STREET":"西華南街","SECT":" ","MAREA":" ","LANE":" ","ALLEY":" ","HOUSE_NO":"３５號十二樓之１","E_COORD97":168935.84,"N_COORD97":2543824.9199999999,"ADDRESS":"西華南街３５號十二樓之１","OBJECTID":243862},"geometry":{"x":168935.83999999985,"y":2543824.9200000037}},{"attributes":{"ID":243867,"DIS_CODE":0,"TOWNNAME":"中西區","LI":"公正里","LIN":"14鄰","STREET":"西華南街","SECT":" ","MAREA":" ","LANE":" ","ALLEY":" ","HOUSE_NO":"３５號十二樓之２","E_COORD97":168935.84,"N_COORD97":2543824.9199999999,"ADDRESS":"西華南街３５號十二樓之２","OBJECTID":243863},"geometry":{"x":168935.83999999985,"y":2543824.9200000037}},{"attributes":{"ID":243868,"DIS_CODE":0,"TOWNNAME":"中西區","LI":"公正里","LIN":"14鄰","STREET":"西華南街","SECT":" ","MAREA":" ","LANE":" ","ALLEY":" ","HOUSE_NO":"３５號十二樓之３","E_COORD97":168935.84,"N_COORD97":2543824.9199999999,"ADDRESS":"西華南街３５號十二樓之３","OBJECTID":243864},"geometry":{"x":168935.83999999985,"y":2543824.9200000037}},{"attributes":{"ID":243869,"DIS_CODE":0,"TOWNNAME":"玉井區","LI":"玉田里","LIN":"38鄰","STREET":"大仁街","SECT":" ","MAREA":" ","LANE":" ","ALLEY":" ","HOUSE_NO":"２９號","E_COORD97":195221.51000000001,"N_COORD97":2558034.25,"ADDRESS":"大仁街２９號","OBJECTID":243865},"geometry":{"x":195221.51000000071,"y":2558034.25}},{"attributes":{"ID":243870,"DIS_CODE":0,"TOWNNAME":"中西區","LI":"公正里","LIN":"14鄰","STREET":"西華南街","SECT":" ","MAREA":" ","LANE":" ","ALLEY":" ","HOUSE_NO":"３５號十二樓之５","E_COORD97":168935.84,"N_COORD97":2543824.9199999999,"ADDRESS":"西華南街３５號十二樓之５","OBJECTID":243866},"geometry":{"x":168935.83999999985,"y":2543824.9200000037}},{"attributes":{"ID":243871,"DIS_CODE":0,"TOWNNAME":"中西區","LI":"公正里","LIN":"14鄰","STREET":"西華南街","SECT":" ","MAREA":" ","LANE":" ","ALLEY":" ","HOUSE_NO":"３５號十三樓之１","E_COORD97":168935.84,"N_COORD97":2543824.9199999999,"ADDRESS":"西華南街３５號十三樓之１","OBJECTID":243867},"geometry":{"x":168935.83999999985,"y":2543824.9200000037}},{"attributes":{"ID":243872,"DIS_CODE":0,"TOWNNAME":"中西區","LI":"公正里","LIN":"14鄰","STREET":"西華南街","SECT":" ","MAREA":" ","LANE":" ","ALLEY":" ","HOUSE_NO":"３５號十三樓之２","E_COORD97":168935.84,"N_COORD97":2543824.9199999999,"ADDRESS":"西華南街３５號十三樓之２","OBJECTID":243868},"geometry":{"x":168935.83999999985,"y":2543824.9200000037}},{"attributes":{"ID":243873,"DIS_CODE":0,"TOWNNAME":"中西區","LI":"公正里","LIN":"14鄰","STREET":"西華南街","SECT":" ","MAREA":" ","LANE":" ","ALLEY":" ","HOUSE_NO":"３５號十三樓之３","E_COORD97":168935.84,"N_COORD97":2543824.9199999999,"ADDRESS":"西華南街３５號十三樓之３","OBJECTID":243869},"geometry":{"x":168935.83999999985,"y":2543824.9200000037}},{"attributes":{"ID":243874,"DIS_CODE":0,"TOWNNAME":"中西區","LI":"公正里","LIN":"14鄰","STREET":"西華南街","SECT":" ","MAREA":" ","LANE":" ","ALLEY":" ","HOUSE_NO":"３５號十三樓之５","E_COORD97":168935.84,"N_COORD97":2543824.9199999999,"ADDRESS":"西華南街３５號十三樓之５","OBJECTID":243870},"geometry":{"x":168935.83999999985,"y":2543824.9200000037}},{"attributes":{"ID":243875,"DIS_CODE":0,"TOWNNAME":"中西區","LI":"公正里","LIN":"14鄰","STREET":"西華南街","SECT":" ","MAREA":" ","LANE":" ","ALLEY":" ","HOUSE_NO":"３５號十四樓之１","E_COORD97":168935.84,"N_COORD97":2543824.9199999999,"ADDRESS":"西華南街３５號十四樓之１","OBJECTID":243871},"geometry":{"x":168935.83999999985,"y":2543824.9200000037}},{"attributes":{"ID":243876,"DIS_CODE":0,"TOWNNAME":"北區","LI":"勝安里","LIN":"11鄰","STREET":"開元路","SECT":" ","MAREA":" ","LANE":"１８３巷","ALLEY":" ","HOUSE_NO":"１３號","E_COORD97":170004.54000000001,"N_COORD97":2545355.8599999999,"ADDRESS":"開元路１８３巷１３號","OBJECTID":243872},"geometry":{"x":170004.54000000004,"y":2545355.8599999994}},{"attributes":{"ID":243877,"DIS_CODE":0,"TOWNNAME":"北區","LI":"勝安里","LIN":"11鄰","STREET":"開元路","SECT":" ","MAREA":" ","LANE":"１８３巷","ALLEY":" ","HOUSE_NO":"１５號","E_COORD97":170016.04999999999,"N_COORD97":2545354.4399999999,"ADDRESS":"開元路１８３巷１５號","OBJECTID":243873},"geometry":{"x":170016.04999999981,"y":2545354.4400000013}},{"attributes":{"ID":243878,"DIS_CODE":0,"TOWNNAME":"麻豆區","LI":"麻口里","LIN":"11鄰","STREET":" ","SECT":" ","MAREA":"番子寮","LANE":" ","ALLEY":" ","HOUSE_NO":"２０號","E_COORD97":170301.23999999999,"N_COORD97":2563120.5600000001,"ADDRESS":"番子寮２０號","OBJECTID":243874},"geometry":{"x":170301.24000000022,"y":2563120.5600000024}},{"attributes":{"ID":243879,"DIS_CODE":0,"TOWNNAME":"北區","LI":"勝安里","LIN":"11鄰","STREET":"開元路","SECT":" ","MAREA":" ","LANE":"１８３巷","ALLEY":" ","HOUSE_NO":"１６號","E_COORD97":170024.34,"N_COORD97":2545348.5699999998,"ADDRESS":"開元路１８３巷１６號","OBJECTID":243875},"geometry":{"x":170024.33999999985,"y":2545348.5700000003}},{"attributes":{"ID":243880,"DIS_CODE":0,"TOWNNAME":"北區","LI":"勝安里","LIN":"11鄰","STREET":"開元路","SECT":" ","MAREA":" ","LANE":"１８３巷","ALLEY":" ","HOUSE_NO":"９號","E_COORD97":169984.03,"N_COORD97":2545361.5299999998,"ADDRESS":"開元路１８３巷９號","OBJECTID":243876},"geometry":{"x":169984.03000000026,"y":2545361.5299999993}},{"attributes":{"ID":243881,"DIS_CODE":0,"TOWNNAME":"北區","LI":"勝安里","LIN":"11鄰","STREET":"開元路","SECT":" ","MAREA":" ","LANE":"２１３巷","ALLEY":" ","HOUSE_NO":"３號","E_COORD97":170031.76999999999,"N_COORD97":2545326.8799999999,"ADDRESS":"開元路２１３巷３號","OBJECTID":243877},"geometry":{"x":170031.77000000048,"y":2545326.8800000008}},{"attributes":{"ID":243882,"DIS_CODE":0,"TOWNNAME":"北區","LI":"大港里","LIN":"24鄰","STREET":"中華北路","SECT":"一段","MAREA":" ","LANE":"２０３巷","ALLEY":" ","HOUSE_NO":"６３號","E_COORD97":166293.89000000001,"N_COORD97":2545676.0299999998,"ADDRESS":"中華北路一段２０３巷６３號","OBJECTID":243878},"geometry":{"x":166293.8900000006,"y":2545676.0300000012}},{"attributes":{"ID":243883,"DIS_CODE":0,"TOWNNAME":"北區","LI":"大港里","LIN":"24鄰","STREET":"中華北路","SECT":"一段","MAREA":" ","LANE":"２０３巷","ALLEY":" ","HOUSE_NO":"６５號","E_COORD97":166284.76999999999,"N_COORD97":2545674.9199999999,"ADDRESS":"中華北路一段２０３巷６５號","OBJECTID":243879},"geometry":{"x":166284.76999999955,"y":2545674.9199999999}},{"attributes":{"ID":243884,"DIS_CODE":0,"TOWNNAME":"中西區","LI":"公正里","LIN":"14鄰","STREET":"西華南街","SECT":" ","MAREA":" ","LANE":" ","ALLEY":" ","HOUSE_NO":"３５號十四樓之２","E_COORD97":168935.84,"N_COORD97":2543824.9199999999,"ADDRESS":"西華南街３５號十四樓之２","OBJECTID":243880},"geometry":{"x":168935.83999999985,"y":2543824.9200000037}},{"attributes":{"ID":243885,"DIS_CODE":0,"TOWNNAME":"中西區","LI":"公正里","LIN":"14鄰","STREET":"西華南街","SECT":" ","MAREA":" ","LANE":" ","ALLEY":" ","HOUSE_NO":"３５號十四樓之５","E_COORD97":168935.84,"N_COORD97":2543824.9199999999,"ADDRESS":"西華南街３５號十四樓之５","OBJECTID":243881},"geometry":{"x":168935.83999999985,"y":2543824.9200000037}},{"attributes":{"ID":243886,"DIS_CODE":0,"TOWNNAME":"中西區","LI":"公正里","LIN":"14鄰","STREET":"西華南街","SECT":" ","MAREA":" ","LANE":" ","ALLEY":" ","HOUSE_NO":"３５號十五樓之１","E_COORD97":168935.84,"N_COORD97":2543824.9199999999,"ADDRESS":"西華南街３５號十五樓之１","OBJECTID":243882},"geometry":{"x":168935.83999999985,"y":2543824.9200000037}},{"attributes":{"ID":243887,"DIS_CODE":0,"TOWNNAME":"中西區","LI":"公正里","LIN":"14鄰","STREET":"西華南街","SECT":" ","MAREA":" ","LANE":" ","ALLEY":" ","HOUSE_NO":"３５號十五樓之２","E_COORD97":168935.84,"N_COORD97":2543824.9199999999,"ADDRESS":"西華南街３５號十五樓之２","OBJECTID":243883},"geometry":{"x":168935.83999999985,"y":2543824.9200000037}},{"attributes":{"ID":243888,"DIS_CODE":0,"TOWNNAME":"中西區","LI":"公正里","LIN":"14鄰","STREET":"西華南街","SECT":" ","MAREA":" ","LANE":" ","ALLEY":" ","HOUSE_NO":"３５號十五樓之５","E_COORD97":168935.84,"N_COORD97":2543824.9199999999,"ADDRESS":"西華南街３５號十五樓之５","OBJECTID":243884},"geometry":{"x":168935.83999999985,"y":2543824.9200000037}},{"attributes":{"ID":243889,"DIS_CODE":0,"TOWNNAME":"東區","LI":"崇文里","LIN":"14鄰","STREET":"崇德十九街","SECT":" ","MAREA":" ","LANE":" ","ALLEY":" ","HOUSE_NO":"５５號七樓","E_COORD97":171002.10999999999,"N_COORD97":2540985.1800000002,"ADDRESS":"崇德十九街５５號七樓","OBJECTID":243885},"geometry":{"x":171002.11000000127,"y":2540985.1800000034}},{"attributes":{"ID":243890,"DIS_CODE":0,"TOWNNAME":"麻豆區","LI":"興農里","LIN":"1鄰","STREET":"仁愛路","SECT":" ","MAREA":" ","LANE":" ","ALLEY":" ","HOUSE_NO":"３５號","E_COORD97":172558.59,"N_COORD97":2564670.0099999998,"ADDRESS":"仁愛路３５號","OBJECTID":243886},"geometry":{"x":172558.58999999985,"y":2564670.0099999998}},{"attributes":{"ID":243891,"DIS_CODE":0,"TOWNNAME":"北區","LI":"大港里","LIN":"24鄰","STREET":"中華北路","SECT":"一段","MAREA":" ","LANE":"２０３巷","ALLEY":" ","HOUSE_NO":"６７號","E_COORD97":166278.41,"N_COORD97":2545673,"ADDRESS":"中華北路一段２０３巷６７號","OBJECTID":243887},"geometry":{"x":166278.41000000108,"y":2545673.0000000019}},{"attributes":{"ID":243892,"DIS_CODE":0,"TOWNNAME":"北區","LI":"大港里","LIN":"24鄰","STREET":"中華北路","SECT":"一段","MAREA":" ","LANE":"２０３巷","ALLEY":" ","HOUSE_NO":"７３之１號","E_COORD97":166265.28,"N_COORD97":2545634.5099999998,"ADDRESS":"中華北路一段２０３巷７３之１號","OBJECTID":243888},"geometry":{"x":166265.28000000026,"y":2545634.5100000035}},{"attributes":{"ID":243893,"DIS_CODE":0,"TOWNNAME":"北區","LI":"大港里","LIN":"24鄰","STREET":"中華北路","SECT":"一段","MAREA":" ","LANE":"２０３巷","ALLEY":" ","HOUSE_NO":"７３號","E_COORD97":166255.10999999999,"N_COORD97":2545664.4300000002,"ADDRESS":"中華北路一段２０３巷７３號","OBJECTID":243889},"geometry":{"x":166255.11000000127,"y":2545664.4299999997}},{"attributes":{"ID":243894,"DIS_CODE":0,"TOWNNAME":"北區","LI":"大港里","LIN":"24鄰","STREET":"中華北路","SECT":"一段","MAREA":" ","LANE":"２０３巷","ALLEY":" ","HOUSE_NO":"７５號","E_COORD97":166256.92999999999,"N_COORD97":2545660.1600000001,"ADDRESS":"中華北路一段２０３巷７５號","OBJECTID":243890},"geometry":{"x":166256.9299999997,"y":2545660.1600000001}},{"attributes":{"ID":243895,"DIS_CODE":0,"TOWNNAME":"北區","LI":"大港里","LIN":"24鄰","STREET":"中華北路","SECT":"一段","MAREA":" ","LANE":"２０３巷","ALLEY":" ","HOUSE_NO":"７７號","E_COORD97":166257.19,"N_COORD97":2545655.79,"ADDRESS":"中華北路一段２０３巷７７號","OBJECTID":243891},"geometry":{"x":166257.19000000041,"y":2545655.790000001}},{"attributes":{"ID":243896,"DIS_CODE":0,"TOWNNAME":"北區","LI":"大港里","LIN":"24鄰","STREET":"中華北路","SECT":"一段","MAREA":" ","LANE":"２０３巷","ALLEY":" ","HOUSE_NO":"７９號","E_COORD97":166258.98999999999,"N_COORD97":2545650.77,"ADDRESS":"中華北路一段２０３巷７９號","OBJECTID":243892},"geometry":{"x":166258.99000000209,"y":2545650.7700000014}},{"attributes":{"ID":243897,"DIS_CODE":0,"TOWNNAME":"北區","LI":"大港里","LIN":"24鄰","STREET":"中華北路","SECT":"一段","MAREA":" ","LANE":"２０３巷","ALLEY":" ","HOUSE_NO":"８１號","E_COORD97":166260.17999999999,"N_COORD97":2545646.2000000002,"ADDRESS":"中華北路一段２０３巷８１號","OBJECTID":243893},"geometry":{"x":166260.1799999997,"y":2545646.200000003}},{"attributes":{"ID":243898,"DIS_CODE":0,"TOWNNAME":"北區","LI":"大和里","LIN":"24鄰","STREET":"大和路","SECT":" ","MAREA":" ","LANE":"３３０巷","ALLEY":" ","HOUSE_NO":"６７號","E_COORD97":167032.70999999999,"N_COORD97":2546195.6899999999,"ADDRESS":"大和路３３０巷６７號","OBJECTID":243894},"geometry":{"x":167032.71000000089,"y":2546195.6900000032}},{"attributes":{"ID":243899,"DIS_CODE":0,"TOWNNAME":"北區","LI":"大和里","LIN":"24鄰","STREET":"大和路","SECT":" ","MAREA":" ","LANE":"３３０巷","ALLEY":" ","HOUSE_NO":"６９號","E_COORD97":167031.89000000001,"N_COORD97":2546200.3500000001,"ADDRESS":"大和路３３０巷６９號","OBJECTID":243895},"geometry":{"x":167031.88999999966,"y":2546200.3499999996}},{"attributes":{"ID":243900,"DIS_CODE":0,"TOWNNAME":"北區","LI":"大和里","LIN":"24鄰","STREET":"大和路","SECT":" ","MAREA":" ","LANE":"３３０巷","ALLEY":" ","HOUSE_NO":"７１號","E_COORD97":167030.34,"N_COORD97":2546204.3700000001,"ADDRESS":"大和路３３０巷７１號","OBJECTID":243896},"geometry":{"x":167030.33999999985,"y":2546204.3700000029}},{"attributes":{"ID":243901,"DIS_CODE":0,"TOWNNAME":"北區","LI":"大和里","LIN":"24鄰","STREET":"大和路","SECT":" ","MAREA":" ","LANE":"３３０巷","ALLEY":" ","HOUSE_NO":"７３號","E_COORD97":167028.78,"N_COORD97":2546209.1099999999,"ADDRESS":"大和路３３０巷７３號","OBJECTID":243897},"geometry":{"x":167028.78000000119,"y":2546209.1099999994}},{"attributes":{"ID":243902,"DIS_CODE":0,"TOWNNAME":"北區","LI":"大和里","LIN":"24鄰","STREET":"大和路","SECT":" ","MAREA":" ","LANE":"３３０巷","ALLEY":" ","HOUSE_NO":"７５號","E_COORD97":167027.39000000001,"N_COORD97":2546212.71,"ADDRESS":"大和路３３０巷７５號","OBJECTID":243898},"geometry":{"x":167027.3900000006,"y":2546212.7100000009}},{"attributes":{"ID":243903,"DIS_CODE":0,"TOWNNAME":"北區","LI":"大和里","LIN":"24鄰","STREET":"大和路","SECT":" ","MAREA":" ","LANE":"３３０巷","ALLEY":" ","HOUSE_NO":"７７號","E_COORD97":167046.47,"N_COORD97":2546220.2599999998,"ADDRESS":"大和路３３０巷７７號","OBJECTID":243899},"geometry":{"x":167046.46999999974,"y":2546220.2600000016}},{"attributes":{"ID":243904,"DIS_CODE":0,"TOWNNAME":"北區","LI":"大和里","LIN":"24鄰","STREET":"大和路","SECT":" ","MAREA":" ","LANE":"３３０巷","ALLEY":" ","HOUSE_NO":"７９號","E_COORD97":167047.53,"N_COORD97":2546215.4300000002,"ADDRESS":"大和路３３０巷７９號","OBJECTID":243900},"geometry":{"x":167047.53000000119,"y":2546215.4300000016}},{"attributes":{"ID":243905,"DIS_CODE":0,"TOWNNAME":"北區","LI":"大和里","LIN":"24鄰","STREET":"大和路","SECT":" ","MAREA":" ","LANE":"３３０巷","ALLEY":" ","HOUSE_NO":"８１號","E_COORD97":167049.5,"N_COORD97":2546210.2799999998,"ADDRESS":"大和路３３０巷８１號","OBJECTID":243901},"geometry":{"x":167049.50000000093,"y":2546210.2799999993}},{"attributes":{"ID":243906,"DIS_CODE":0,"TOWNNAME":"北區","LI":"大和里","LIN":"24鄰","STREET":"大和路","SECT":" ","MAREA":" ","LANE":"３３０巷","ALLEY":" ","HOUSE_NO":"８３號","E_COORD97":167050.97,"N_COORD97":2546207.1699999999,"ADDRESS":"大和路３３０巷８３號","OBJECTID":243902},"geometry":{"x":167050.97000000067,"y":2546207.1700000018}},{"attributes":{"ID":243907,"DIS_CODE":0,"TOWNNAME":"北區","LI":"大和里","LIN":"24鄰","STREET":"大和路","SECT":" ","MAREA":" ","LANE":"３３０巷","ALLEY":" ","HOUSE_NO":"８５號","E_COORD97":167052.28,"N_COORD97":2546202.02,"ADDRESS":"大和路３３０巷８５號","OBJECTID":243903},"geometry":{"x":167052.28000000212,"y":2546202.0199999996}},{"attributes":{"ID":243908,"DIS_CODE":0,"TOWNNAME":"北區","LI":"大和里","LIN":"24鄰","STREET":"大和路","SECT":" ","MAREA":" ","LANE":"３３０巷","ALLEY":" ","HOUSE_NO":"８７號","E_COORD97":167053.75,"N_COORD97":2546197.9199999999,"ADDRESS":"大和路３３０巷８７號","OBJECTID":243904},"geometry":{"x":167053.75000000186,"y":2546197.9200000037}},{"attributes":{"ID":243909,"DIS_CODE":0,"TOWNNAME":"北區","LI":"大和里","LIN":"24鄰","STREET":"大和路","SECT":" ","MAREA":" ","LANE":"３３０巷","ALLEY":" ","HOUSE_NO":"８９號","E_COORD97":167054.73999999999,"N_COORD97":2546193.8300000001,"ADDRESS":"大和路３３０巷８９號","OBJECTID":243905},"geometry":{"x":167054.74000000115,"y":2546193.8300000001}},{"attributes":{"ID":243910,"DIS_CODE":0,"TOWNNAME":"北區","LI":"大和里","LIN":"24鄰","STREET":"大和路","SECT":" ","MAREA":" ","LANE":"３３０巷","ALLEY":" ","HOUSE_NO":"９３號","E_COORD97":167055.78,"N_COORD97":2546184.6000000001,"ADDRESS":"大和路３３０巷９３號","OBJECTID":243906},"geometry":{"x":167055.78000000119,"y":2546184.5999999996}},{"attributes":{"ID":243911,"DIS_CODE":0,"TOWNNAME":"北區","LI":"大和里","LIN":"24鄰","STREET":"大和路","SECT":" ","MAREA":" ","LANE":"３３０巷","ALLEY":" ","HOUSE_NO":"９５號","E_COORD97":167057.28,"N_COORD97":2546180.1800000002,"ADDRESS":"大和路３３０巷９５號","OBJECTID":243907},"geometry":{"x":167057.28000000212,"y":2546180.1800000016}},{"attributes":{"ID":243912,"DIS_CODE":0,"TOWNNAME":"關廟區","LI":"香洋里","LIN":"24鄰","STREET":"民族街","SECT":" ","MAREA":" ","LANE":"１５７巷","ALLEY":" ","HOUSE_NO":"１０號","E_COORD97":181233.23999999999,"N_COORD97":2539850.29,"ADDRESS":"民族街１５７巷１０號","OBJECTID":243908},"geometry":{"x":181233.24000000115,"y":2539850.2899999991}},{"attributes":{"ID":243913,"DIS_CODE":0,"TOWNNAME":"關廟區","LI":"香洋里","LIN":"24鄰","STREET":"民族街","SECT":" ","MAREA":" ","LANE":"１５７巷","ALLEY":" ","HOUSE_NO":"３號","E_COORD97":181242.69,"N_COORD97":2539855.29,"ADDRESS":"民族街１５７巷３號","OBJECTID":243909},"geometry":{"x":181242.69000000041,"y":2539855.290000001}},{"attributes":{"ID":243914,"DIS_CODE":0,"TOWNNAME":"關廟區","LI":"香洋里","LIN":"24鄰","STREET":"民族街","SECT":" ","MAREA":" ","LANE":"１４７巷","ALLEY":" ","HOUSE_NO":"２號","E_COORD97":181254.98999999999,"N_COORD97":2539841.29,"ADDRESS":"民族街１４７巷２號","OBJECTID":243910},"geometry":{"x":181254.99000000115,"y":2539841.290000001}},{"attributes":{"ID":243915,"DIS_CODE":0,"TOWNNAME":"新營區","LI":"民榮里","LIN":"24鄰","STREET":"裕民路","SECT":" ","MAREA":" ","LANE":"１２巷","ALLEY":" ","HOUSE_NO":"２號","E_COORD97":179114.04000000001,"N_COORD97":2577963.3900000001,"ADDRESS":"裕民路１２巷２號","OBJECTID":243911},"geometry":{"x":179114.04000000004,"y":2577963.3900000043}},{"attributes":{"ID":243916,"DIS_CODE":0,"TOWNNAME":"新營區","LI":"民權里","LIN":"24鄰","STREET":"民治路","SECT":" ","MAREA":" ","LANE":"５３巷","ALLEY":" ","HOUSE_NO":"７之２號","E_COORD97":179696.04999999999,"N_COORD97":2578734.7999999998,"ADDRESS":"民治路５３巷７之２號","OBJECTID":243912},"geometry":{"x":179696.05000000168,"y":2578734.8000000026}},{"attributes":{"ID":243917,"DIS_CODE":0,"TOWNNAME":"新營區","LI":"民權里","LIN":"24鄰","STREET":"民治路","SECT":" ","MAREA":" ","LANE":"５３巷","ALLEY":" ","HOUSE_NO":"７號","E_COORD97":179683.20000000001,"N_COORD97":2578708.21,"ADDRESS":"民治路５３巷７號","OBJECTID":243913},"geometry":{"x":179683.20000000019,"y":2578708.2100000028}},{"attributes":{"ID":243918,"DIS_CODE":0,"TOWNNAME":"新營區","LI":"民榮里","LIN":"24鄰","STREET":"裕民路","SECT":" ","MAREA":" ","LANE":"１２巷","ALLEY":" ","HOUSE_NO":"１８號","E_COORD97":179079.42000000001,"N_COORD97":2577962.46,"ADDRESS":"裕民路１２巷１８號","OBJECTID":243914},"geometry":{"x":179079.41999999993,"y":2577962.4600000009}},{"attributes":{"ID":243919,"DIS_CODE":0,"TOWNNAME":"新營區","LI":"民權里","LIN":"24鄰","STREET":"民治路","SECT":" ","MAREA":" ","LANE":"５３巷","ALLEY":" ","HOUSE_NO":"７之１號","E_COORD97":179686.84,"N_COORD97":2578733.73,"ADDRESS":"民治路５３巷７之１號","OBJECTID":243915},"geometry":{"x":179686.83999999985,"y":2578733.7300000042}},{"attributes":{"ID":243920,"DIS_CODE":0,"TOWNNAME":"新營區","LI":"民榮里","LIN":"24鄰","STREET":"裕民路","SECT":" ","MAREA":" ","LANE":"１２巷","ALLEY":" ","HOUSE_NO":"２２號","E_COORD97":179070.28,"N_COORD97":2577962.5,"ADDRESS":"裕民路１２巷２２號","OBJECTID":243916},"geometry":{"x":179070.28000000026,"y":2577962.5000000019}},{"attributes":{"ID":243921,"DIS_CODE":0,"TOWNNAME":"北區","LI":"華興里","LIN":"11鄰","STREET":"南園街","SECT":" ","MAREA":" ","LANE":"１０５巷","ALLEY":" ","HOUSE_NO":"５２號","E_COORD97":170771.48999999999,"N_COORD97":2545424.9199999999,"ADDRESS":"南園街１０５巷５２號","OBJECTID":243917},"geometry":{"x":170771.49000000022,"y":2545424.9200000037}},{"attributes":{"ID":243922,"DIS_CODE":0,"TOWNNAME":"新營區","LI":"新北里","LIN":"24鄰","STREET":"民生路","SECT":" ","MAREA":" ","LANE":"４２０巷","ALLEY":" ","HOUSE_NO":"５０號","E_COORD97":178921.42999999999,"N_COORD97":2579354.1800000002,"ADDRESS":"民生路４２０巷５０號","OBJECTID":243918},"geometry":{"x":178921.4299999997,"y":2579354.1800000016}},{"attributes":{"ID":243923,"DIS_CODE":0,"TOWNNAME":"新營區","LI":"新北里","LIN":"24鄰","STREET":"民生路","SECT":" ","MAREA":" ","LANE":"４２０巷","ALLEY":" ","HOUSE_NO":"４０號","E_COORD97":178919.54999999999,"N_COORD97":2579377.4500000002,"ADDRESS":"民生路４２０巷４０號","OBJECTID":243919},"geometry":{"x":178919.55000000168,"y":2579377.4499999993}},{"attributes":{"ID":243924,"DIS_CODE":0,"TOWNNAME":"新化區","LI":"東榮里","LIN":"24鄰","STREET":"中正路","SECT":" ","MAREA":" ","LANE":"２７６巷","ALLEY":" ","HOUSE_NO":"２０號","E_COORD97":179181.56,"N_COORD97":2547903.25,"ADDRESS":"中正路２７６巷２０號","OBJECTID":243920},"geometry":{"x":179181.55999999959,"y":2547903.25}},{"attributes":{"ID":243925,"DIS_CODE":0,"TOWNNAME":"新市區","LI":"大營里","LIN":"15鄰","STREET":" ","SECT":" ","MAREA":"大營","LANE":" ","ALLEY":" ","HOUSE_NO":"２７９號","E_COORD97":179089.70999999999,"N_COORD97":2555477.5,"ADDRESS":"大營２７９號","OBJECTID":243921},"geometry":{"x":179089.70999999996,"y":2555477.5000000019}},{"attributes":{"ID":243926,"DIS_CODE":0,"TOWNNAME":"安平區","LI":"怡平里","LIN":"24鄰","STREET":"平通路","SECT":" ","MAREA":" ","LANE":"３３３巷","ALLEY":" ","HOUSE_NO":"８５之２號","E_COORD97":165733.53,"N_COORD97":2543624.8300000001,"ADDRESS":"平通路３３３巷８５之２號","OBJECTID":243922},"geometry":{"x":165733.53000000119,"y":2543624.8300000001}},{"attributes":{"ID":243927,"DIS_CODE":0,"TOWNNAME":"安平區","LI":"怡平里","LIN":"24鄰","STREET":"平通路","SECT":" ","MAREA":" ","LANE":"３３３巷","ALLEY":" ","HOUSE_NO":"８５之３號","E_COORD97":165737.34,"N_COORD97":2543622.1299999999,"ADDRESS":"平通路３３３巷８５之３號","OBJECTID":243923},"geometry":{"x":165737.33999999985,"y":2543622.1300000027}},{"attributes":{"ID":243928,"DIS_CODE":0,"TOWNNAME":"安平區","LI":"怡平里","LIN":"24鄰","STREET":"平通路","SECT":" ","MAREA":" ","LANE":"３３３巷","ALLEY":" ","HOUSE_NO":"８５之５號","E_COORD97":165741.94,"N_COORD97":2543624.5099999998,"ADDRESS":"平通路３３３巷８５之５號","OBJECTID":243924},"geometry":{"x":165741.94000000041,"y":2543624.5100000016}},{"attributes":{"ID":243929,"DIS_CODE":0,"TOWNNAME":"北區","LI":"振興里","LIN":"13鄰","STREET":"開元路","SECT":" ","MAREA":" ","LANE":"２１２巷","ALLEY":" ","HOUSE_NO":"５４號之１","E_COORD97":170276.53,"N_COORD97":2545185.9399999999,"ADDRESS":"開元路２１２巷５４號之１","OBJECTID":243925},"geometry":{"x":170276.53000000212,"y":2545185.9399999995}},{"attributes":{"ID":243930,"DIS_CODE":0,"TOWNNAME":"北區","LI":"振興里","LIN":"13鄰","STREET":"開元路","SECT":" ","MAREA":" ","LANE":"２１２巷","ALLEY":" ","HOUSE_NO":"５４號之２","E_COORD97":170264.75,"N_COORD97":2545194.2200000002,"ADDRESS":"開元路２１２巷５４號之２","OBJECTID":243926},"geometry":{"x":170264.75000000093,"y":2545194.2200000025}},{"attributes":{"ID":243931,"DIS_CODE":0,"TOWNNAME":"北區","LI":"振興里","LIN":"13鄰","STREET":"開元路","SECT":" ","MAREA":" ","LANE":"２１２巷","ALLEY":" ","HOUSE_NO":"５４號之３","E_COORD97":170257.98999999999,"N_COORD97":2545197.9300000002,"ADDRESS":"開元路２１２巷５４號之３","OBJECTID":243927},"geometry":{"x":170257.99000000209,"y":2545197.9300000016}},{"attributes":{"ID":243932,"DIS_CODE":0,"TOWNNAME":"安平區","LI":"怡平里","LIN":"24鄰","STREET":"平通路","SECT":" ","MAREA":" ","LANE":"３３３巷","ALLEY":" ","HOUSE_NO":"８５之６號","E_COORD97":165745.91,"N_COORD97":2543624.04,"ADDRESS":"平通路３３３巷８５之６號","OBJECTID":243928},"geometry":{"x":165745.91000000201,"y":2543624.040000001}},{"attributes":{"ID":243933,"DIS_CODE":0,"TOWNNAME":"安平區","LI":"怡平里","LIN":"24鄰","STREET":"平通路","SECT":" ","MAREA":" ","LANE":"３３３巷","ALLEY":" ","HOUSE_NO":"８５之７號","E_COORD97":165750.98999999999,"N_COORD97":2543625.4700000002,"ADDRESS":"平通路３３３巷８５之７號","OBJECTID":243929},"geometry":{"x":165750.99000000115,"y":2543625.4700000025}},{"attributes":{"ID":243934,"DIS_CODE":0,"TOWNNAME":"安平區","LI":"怡平里","LIN":"24鄰","STREET":"平通路","SECT":" ","MAREA":" ","LANE":"３３３巷","ALLEY":" ","HOUSE_NO":"８５之８號","E_COORD97":165755.60000000001,"N_COORD97":2543624.9900000002,"ADDRESS":"平通路３３３巷８５之８號","OBJECTID":243930},"geometry":{"x":165755.59999999963,"y":2543624.9900000021}},{"attributes":{"ID":243935,"DIS_CODE":0,"TOWNNAME":"安平區","LI":"怡平里","LIN":"24鄰","STREET":"平通路","SECT":" ","MAREA":" ","LANE":"３３３巷","ALLEY":" ","HOUSE_NO":"８５號","E_COORD97":165724.16,"N_COORD97":2543626.4199999999,"ADDRESS":"平通路３３３巷８５號","OBJECTID":243931},"geometry":{"x":165724.16000000108,"y":2543626.4199999999}},{"attributes":{"ID":243936,"DIS_CODE":0,"TOWNNAME":"安平區","LI":"怡平里","LIN":"24鄰","STREET":"平通路","SECT":" ","MAREA":" ","LANE":"３３３巷","ALLEY":" ","HOUSE_NO":"８７之１號","E_COORD97":165726.23000000001,"N_COORD97":2543603.0800000001,"ADDRESS":"平通路３３３巷８７之１號","OBJECTID":243932},"geometry":{"x":165726.23000000045,"y":2543603.0800000001}},{"attributes":{"ID":243937,"DIS_CODE":0,"TOWNNAME":"安平區","LI":"怡平里","LIN":"24鄰","STREET":"平通路","SECT":" ","MAREA":" ","LANE":"３３３巷","ALLEY":" ","HOUSE_NO":"８７之２號","E_COORD97":165730.51000000001,"N_COORD97":2543603.0800000001,"ADDRESS":"平通路３３３巷８７之２號","OBJECTID":243933},"geometry":{"x":165730.50999999978,"y":2543603.0800000001}},{"attributes":{"ID":243938,"DIS_CODE":0,"TOWNNAME":"安平區","LI":"怡平里","LIN":"24鄰","STREET":"平通路","SECT":" ","MAREA":" ","LANE":"３３３巷","ALLEY":" ","HOUSE_NO":"８７之３號","E_COORD97":165734.95999999999,"N_COORD97":2543604.5099999998,"ADDRESS":"平通路３３３巷８７之３號","OBJECTID":243934},"geometry":{"x":165734.95999999996,"y":2543604.5100000016}},{"attributes":{"ID":243939,"DIS_CODE":0,"TOWNNAME":"安平區","LI":"怡平里","LIN":"24鄰","STREET":"平通路","SECT":" ","MAREA":" ","LANE":"３３３巷","ALLEY":" ","HOUSE_NO":"８７之５號","E_COORD97":165740.04000000001,"N_COORD97":2543606.2599999998,"ADDRESS":"平通路３３３巷８７之５號","OBJECTID":243935},"geometry":{"x":165740.04000000097,"y":2543606.2600000016}},{"attributes":{"ID":243940,"DIS_CODE":0,"TOWNNAME":"東區","LI":"崇文里","LIN":"14鄰","STREET":"崇德十九街","SECT":" ","MAREA":" ","LANE":" ","ALLEY":" ","HOUSE_NO":"５５號三樓","E_COORD97":171002.10999999999,"N_COORD97":2540985.1800000002,"ADDRESS":"崇德十九街５５號三樓","OBJECTID":243936},"geometry":{"x":171002.11000000127,"y":2540985.1800000034}},{"attributes":{"ID":243941,"DIS_CODE":0,"TOWNNAME":"安平區","LI":"怡平里","LIN":"24鄰","STREET":"平通路","SECT":" ","MAREA":" ","LANE":"３３３巷","ALLEY":" ","HOUSE_NO":"８７之６號","E_COORD97":165744.48000000001,"N_COORD97":2543605.1499999999,"ADDRESS":"平通路３３３巷８７之６號","OBJECTID":243937},"geometry":{"x":165744.48000000138,"y":2543605.1500000004}},{"attributes":{"ID":243942,"DIS_CODE":0,"TOWNNAME":"東區","LI":"崇文里","LIN":"14鄰","STREET":"崇德十九街","SECT":" ","MAREA":" ","LANE":" ","ALLEY":" ","HOUSE_NO":"５５號七樓之１","E_COORD97":171002.10999999999,"N_COORD97":2540985.1800000002,"ADDRESS":"崇德十九街５５號七樓之１","OBJECTID":243938},"geometry":{"x":171002.11000000127,"y":2540985.1800000034}},{"attributes":{"ID":243943,"DIS_CODE":0,"TOWNNAME":"六甲區","LI":"龜港里","LIN":"11鄰","STREET":" ","SECT":" ","MAREA":"龜子港","LANE":"１６１巷","ALLEY":"６６弄","HOUSE_NO":"１０號","E_COORD97":179432.01000000001,"N_COORD97":2572391.6000000001,"ADDRESS":"龜子港１６１巷６６弄１０號","OBJECTID":243939},"geometry":{"x":179432.01000000071,"y":2572391.6000000015}},{"attributes":{"ID":243944,"DIS_CODE":0,"TOWNNAME":"安平區","LI":"怡平里","LIN":"24鄰","STREET":"平通路","SECT":" ","MAREA":" ","LANE":"３３３巷","ALLEY":" ","HOUSE_NO":"８７之７號","E_COORD97":165747.97,"N_COORD97":2543603.8799999999,"ADDRESS":"平通路３３３巷８７之７號","OBJECTID":243940},"geometry":{"x":165747.96999999974,"y":2543603.8800000008}},{"attributes":{"ID":243945,"DIS_CODE":0,"TOWNNAME":"六甲區","LI":"龜港里","LIN":"11鄰","STREET":" ","SECT":" ","MAREA":"龜子港","LANE":"１６１巷","ALLEY":" ","HOUSE_NO":"６８號","E_COORD97":179427.20999999999,"N_COORD97":2572346.21,"ADDRESS":"龜子港１６１巷６８號","OBJECTID":243941},"geometry":{"x":179427.21000000183,"y":2572346.2100000009}},{"attributes":{"ID":243946,"DIS_CODE":0,"TOWNNAME":"六甲區","LI":"龜港里","LIN":"11鄰","STREET":" ","SECT":" ","MAREA":"龜子港","LANE":"１６１巷","ALLEY":" ","HOUSE_NO":"７０號","E_COORD97":179403.16,"N_COORD97":2572340.9700000002,"ADDRESS":"龜子港１６１巷７０號","OBJECTID":243942},"geometry":{"x":179403.16000000108,"y":2572340.9700000007}},{"attributes":{"ID":243947,"DIS_CODE":0,"TOWNNAME":"六甲區","LI":"龜港里","LIN":"11鄰","STREET":" ","SECT":" ","MAREA":"龜子港","LANE":"１６１巷","ALLEY":" ","HOUSE_NO":"７２號","E_COORD97":179419.01999999999,"N_COORD97":2572364.5299999998,"ADDRESS":"龜子港１６１巷７２號","OBJECTID":243943},"geometry":{"x":179419.01999999955,"y":2572364.5300000012}},{"attributes":{"ID":243948,"DIS_CODE":0,"TOWNNAME":"六甲區","LI":"龜港里","LIN":"11鄰","STREET":" ","SECT":" ","MAREA":"龜子港","LANE":"１６１巷","ALLEY":" ","HOUSE_NO":"８４號","E_COORD97":179388.79999999999,"N_COORD97":2572385.9300000002,"ADDRESS":"龜子港１６１巷８４號","OBJECTID":243944},"geometry":{"x":179388.79999999981,"y":2572385.9300000016}},{"attributes":{"ID":243949,"DIS_CODE":0,"TOWNNAME":"六甲區","LI":"龜港里","LIN":"11鄰","STREET":" ","SECT":" ","MAREA":"龜子港","LANE":"１６１巷","ALLEY":" ","HOUSE_NO":"８６號","E_COORD97":179388.75,"N_COORD97":2572422.3700000001,"ADDRESS":"龜子港１６１巷８６號","OBJECTID":243945},"geometry":{"x":179388.75000000093,"y":2572422.370000001}},{"attributes":{"ID":243950,"DIS_CODE":0,"TOWNNAME":"六甲區","LI":"龜港里","LIN":"11鄰","STREET":" ","SECT":" ","MAREA":"龜子港","LANE":"１６１巷","ALLEY":" ","HOUSE_NO":"８８號","E_COORD97":179373.64999999999,"N_COORD97":2572399.1299999999,"ADDRESS":"龜子港１６１巷８８號","OBJECTID":243946},"geometry":{"x":179373.65000000037,"y":2572399.129999999}},{"attributes":{"ID":243951,"DIS_CODE":0,"TOWNNAME":"六甲區","LI":"龜港里","LIN":"11鄰","STREET":" ","SECT":" ","MAREA":"龜子港","LANE":"１６１巷","ALLEY":" ","HOUSE_NO":"９０號","E_COORD97":179373.67000000001,"N_COORD97":2572415.04,"ADDRESS":"龜子港１６１巷９０號","OBJECTID":243947},"geometry":{"x":179373.67000000086,"y":2572415.040000001}},{"attributes":{"ID":243952,"DIS_CODE":0,"TOWNNAME":"六甲區","LI":"龜港里","LIN":"11鄰","STREET":" ","SECT":" ","MAREA":"龜子港","LANE":"１６１巷","ALLEY":" ","HOUSE_NO":"９２號","E_COORD97":179368.79999999999,"N_COORD97":2572437.7799999998,"ADDRESS":"龜子港１６１巷９２號","OBJECTID":243948},"geometry":{"x":179368.80000000168,"y":2572437.7800000012}},{"attributes":{"ID":243953,"DIS_CODE":0,"TOWNNAME":"六甲區","LI":"龜港里","LIN":"11鄰","STREET":" ","SECT":" ","MAREA":"龜子港","LANE":"２８１巷","ALLEY":" ","HOUSE_NO":"３２號","E_COORD97":179511.34,"N_COORD97":2572362.54,"ADDRESS":"龜子港２８１巷３２號","OBJECTID":243949},"geometry":{"x":179511.34000000078,"y":2572362.5399999991}},{"attributes":{"ID":243954,"DIS_CODE":0,"TOWNNAME":"六甲區","LI":"龜港里","LIN":"11鄰","STREET":" ","SECT":" ","MAREA":"龜子港","LANE":"２８１巷","ALLEY":" ","HOUSE_NO":"４６號","E_COORD97":179482.35999999999,"N_COORD97":2572343.7000000002,"ADDRESS":"龜子港２８１巷４６號","OBJECTID":243950},"geometry":{"x":179482.36000000034,"y":2572343.6999999993}},{"attributes":{"ID":243955,"DIS_CODE":0,"TOWNNAME":"六甲區","LI":"龜港里","LIN":"11鄰","STREET":" ","SECT":" ","MAREA":"龜子港","LANE":"２８１巷","ALLEY":" ","HOUSE_NO":"４８號","E_COORD97":179478.44,"N_COORD97":2572341.8399999999,"ADDRESS":"龜子港２８１巷４８號","OBJECTID":243951},"geometry":{"x":179478.44000000041,"y":2572341.8400000036}},{"attributes":{"ID":243956,"DIS_CODE":0,"TOWNNAME":"六甲區","LI":"龜港里","LIN":"11鄰","STREET":" ","SECT":" ","MAREA":"龜子港","LANE":"２８１巷","ALLEY":" ","HOUSE_NO":"５２號","E_COORD97":179458.29000000001,"N_COORD97":2572345.8500000001,"ADDRESS":"龜子港２８１巷５２號","OBJECTID":243952},"geometry":{"x":179458.29000000004,"y":2572345.8500000015}},{"attributes":{"ID":243957,"DIS_CODE":0,"TOWNNAME":"六甲區","LI":"龜港里","LIN":"11鄰","STREET":" ","SECT":" ","MAREA":"龜子港","LANE":"２８１巷","ALLEY":" ","HOUSE_NO":"５４號","E_COORD97":179455.89000000001,"N_COORD97":2572328.9900000002,"ADDRESS":"龜子港２８１巷５４號","OBJECTID":243953},"geometry":{"x":179455.88999999966,"y":2572328.9900000021}},{"attributes":{"ID":243958,"DIS_CODE":0,"TOWNNAME":"關廟區","LI":"深坑里","LIN":"11鄰","STREET":"南雄路","SECT":"一段","MAREA":" ","LANE":"４０９巷","ALLEY":" ","HOUSE_NO":"２３號","E_COORD97":181689.17000000001,"N_COORD97":2537523.2999999998,"ADDRESS":"南雄路一段４０９巷２３號","OBJECTID":243954},"geometry":{"x":181689.17000000086,"y":2537523.3000000007}},{"attributes":{"ID":243959,"DIS_CODE":0,"TOWNNAME":"關廟區","LI":"南花里","LIN":"11鄰","STREET":"明德街","SECT":" ","MAREA":" ","LANE":"１５巷","ALLEY":" ","HOUSE_NO":"２０號","E_COORD97":181797.39000000001,"N_COORD97":2540001.27,"ADDRESS":"明德街１５巷２０號","OBJECTID":243955},"geometry":{"x":181797.3900000006,"y":2540001.2700000014}},{"attributes":{"ID":243960,"DIS_CODE":0,"TOWNNAME":"關廟區","LI":"南花里","LIN":"11鄰","STREET":"明德街","SECT":" ","MAREA":" ","LANE":"１５巷","ALLEY":" ","HOUSE_NO":"１１號","E_COORD97":181809.59,"N_COORD97":2540007.27,"ADDRESS":"明德街１５巷１１號","OBJECTID":243956},"geometry":{"x":181809.59000000171,"y":2540007.2699999996}},{"attributes":{"ID":243961,"DIS_CODE":0,"TOWNNAME":"關廟區","LI":"布袋里","LIN":"11鄰","STREET":"南雄南路","SECT":" ","MAREA":" ","LANE":"８５２巷","ALLEY":" ","HOUSE_NO":"２３０號","E_COORD97":182048.69,"N_COORD97":2533815.2999999998,"ADDRESS":"南雄南路８５２巷２３０號","OBJECTID":243957},"geometry":{"x":182048.69000000227,"y":2533815.3000000026}},{"attributes":{"ID":243962,"DIS_CODE":0,"TOWNNAME":"關廟區","LI":"五甲里","LIN":"11鄰","STREET":"五甲路","SECT":" ","MAREA":" ","LANE":"２１０巷","ALLEY":" ","HOUSE_NO":"２０號","E_COORD97":180975.32000000001,"N_COORD97":2538939.25,"ADDRESS":"五甲路２１０巷２０號","OBJECTID":243958},"geometry":{"x":180975.32000000123,"y":2538939.25}},{"attributes":{"ID":243963,"DIS_CODE":0,"TOWNNAME":"關廟區","LI":"埤頭里","LIN":"11鄰","STREET":"關新路","SECT":"二段","MAREA":" ","LANE":"２９８巷","ALLEY":" ","HOUSE_NO":"３５號","E_COORD97":179216.87,"N_COORD97":2544681.2999999998,"ADDRESS":"關新路二段２９８巷３５號","OBJECTID":243959},"geometry":{"x":179216.87000000104,"y":2544681.3000000026}},{"attributes":{"ID":243964,"DIS_CODE":0,"TOWNNAME":"關廟區","LI":"南花里","LIN":"11鄰","STREET":"明德街","SECT":" ","MAREA":" ","LANE":"１５巷","ALLEY":" ","HOUSE_NO":"２９號","E_COORD97":181799.69,"N_COORD97":2539979.27,"ADDRESS":"明德街１５巷２９號","OBJECTID":243960},"geometry":{"x":181799.69000000134,"y":2539979.2699999996}},{"attributes":{"ID":243965,"DIS_CODE":0,"TOWNNAME":"安平區","LI":"怡平里","LIN":"24鄰","STREET":"平通路","SECT":" ","MAREA":" ","LANE":"３３３巷","ALLEY":" ","HOUSE_NO":"８７之８號","E_COORD97":165752.89999999999,"N_COORD97":2543602.29,"ADDRESS":"平通路３３３巷８７之８號","OBJECTID":243961},"geometry":{"x":165752.90000000224,"y":2543602.290000001}},{"attributes":{"ID":243966,"DIS_CODE":0,"TOWNNAME":"安平區","LI":"怡平里","LIN":"24鄰","STREET":"平通路","SECT":" ","MAREA":" ","LANE":"３３３巷","ALLEY":" ","HOUSE_NO":"８７號","E_COORD97":165721.14999999999,"N_COORD97":2543603.3999999999,"ADDRESS":"平通路３３３巷８７號","OBJECTID":243962},"geometry":{"x":165721.1500000013,"y":2543603.4000000004}},{"attributes":{"ID":243967,"DIS_CODE":0,"TOWNNAME":"安平區","LI":"怡平里","LIN":"24鄰","STREET":"平通路","SECT":" ","MAREA":" ","LANE":"３３３巷","ALLEY":" ","HOUSE_NO":"８９之１號","E_COORD97":165723.37,"N_COORD97":2543590.8599999999,"ADDRESS":"平通路３３３巷８９之１號","OBJECTID":243963},"geometry":{"x":165723.37000000011,"y":2543590.8600000031}},{"attributes":{"ID":243968,"DIS_CODE":0,"TOWNNAME":"歸仁區","LI":"南保里","LIN":"24鄰","STREET":"民權六街","SECT":" ","MAREA":" ","LANE":"８１巷","ALLEY":" ","HOUSE_NO":"３號","E_COORD97":176772.41,"N_COORD97":2541067.25,"ADDRESS":"民權六街８１巷３號","OBJECTID":243964},"geometry":{"x":176772.41000000015,"y":2541067.2500000019}},{"attributes":{"ID":243969,"DIS_CODE":0,"TOWNNAME":"安平區","LI":"怡平里","LIN":"24鄰","STREET":"平通路","SECT":" ","MAREA":" ","LANE":"３３３巷","ALLEY":" ","HOUSE_NO":"８９之２號","E_COORD97":165728.45000000001,"N_COORD97":2543590.2200000002,"ADDRESS":"平通路３３３巷８９之２號","OBJECTID":243965},"geometry":{"x":165728.45000000019,"y":2543590.2200000025}},{"attributes":{"ID":243970,"DIS_CODE":0,"TOWNNAME":"東區","LI":"崇文里","LIN":"14鄰","STREET":"崇德十九街","SECT":" ","MAREA":" ","LANE":" ","ALLEY":" ","HOUSE_NO":"５５號九樓","E_COORD97":171002.10999999999,"N_COORD97":2540985.1800000002,"ADDRESS":"崇德十九街５５號九樓","OBJECTID":243966},"geometry":{"x":171002.11000000127,"y":2540985.1800000034}},{"attributes":{"ID":243971,"DIS_CODE":0,"TOWNNAME":"東區","LI":"崇文里","LIN":"14鄰","STREET":"崇德十九街","SECT":" ","MAREA":" ","LANE":" ","ALLEY":" ","HOUSE_NO":"５５號二樓","E_COORD97":171002.10999999999,"N_COORD97":2540985.1800000002,"ADDRESS":"崇德十九街５５號二樓","OBJECTID":243967},"geometry":{"x":171002.11000000127,"y":2540985.1800000034}},{"attributes":{"ID":243972,"DIS_CODE":0,"TOWNNAME":"東區","LI":"崇文里","LIN":"14鄰","STREET":"崇德十九街","SECT":" ","MAREA":" ","LANE":" ","ALLEY":" ","HOUSE_NO":"５５號八樓","E_COORD97":171002.10999999999,"N_COORD97":2540985.1800000002,"ADDRESS":"崇德十九街５５號八樓","OBJECTID":243968},"geometry":{"x":171002.11000000127,"y":2540985.1800000034}},{"attributes":{"ID":243973,"DIS_CODE":0,"TOWNNAME":"東區","LI":"崇文里","LIN":"14鄰","STREET":"崇德十九街","SECT":" ","MAREA":" ","LANE":" ","ALLEY":" ","HOUSE_NO":"５５號八樓之１","E_COORD97":171002.10999999999,"N_COORD97":2540985.1800000002,"ADDRESS":"崇德十九街５５號八樓之１","OBJECTID":243969},"geometry":{"x":171002.11000000127,"y":2540985.1800000034}},{"attributes":{"ID":243974,"DIS_CODE":0,"TOWNNAME":"東區","LI":"崇文里","LIN":"14鄰","STREET":"崇德十九街","SECT":" ","MAREA":" ","LANE":" ","ALLEY":" ","HOUSE_NO":"５５號三樓之１","E_COORD97":171002.10999999999,"N_COORD97":2540985.1800000002,"ADDRESS":"崇德十九街５５號三樓之１","OBJECTID":243970},"geometry":{"x":171002.11000000127,"y":2540985.1800000034}},{"attributes":{"ID":243975,"DIS_CODE":0,"TOWNNAME":"東區","LI":"崇文里","LIN":"14鄰","STREET":"崇德十九街","SECT":" ","MAREA":" ","LANE":" ","ALLEY":" ","HOUSE_NO":"５５號五樓","E_COORD97":171002.10999999999,"N_COORD97":2540985.1800000002,"ADDRESS":"崇德十九街５５號五樓","OBJECTID":243971},"geometry":{"x":171002.11000000127,"y":2540985.1800000034}},{"attributes":{"ID":243976,"DIS_CODE":0,"TOWNNAME":"關廟區","LI":"松腳里","LIN":"11鄰","STREET":"和平路","SECT":" ","MAREA":" ","LANE":" ","ALLEY":" ","HOUSE_NO":"１９２號","E_COORD97":181695.44,"N_COORD97":2539674.25,"ADDRESS":"和平路１９２號","OBJECTID":243972},"geometry":{"x":181695.44000000041,"y":2539674.2500000019}},{"attributes":{"ID":243977,"DIS_CODE":0,"TOWNNAME":"關廟區","LI":"南花里","LIN":"11鄰","STREET":"四維街","SECT":" ","MAREA":" ","LANE":"２０９巷","ALLEY":" ","HOUSE_NO":"２１號","E_COORD97":181810.82189200001,"N_COORD97":2540122.7529799999,"ADDRESS":"四維街２０９巷２１號","OBJECTID":243973},"geometry":{"x":181810.82189200073,"y":2540122.7529830001}},{"attributes":{"ID":243978,"DIS_CODE":0,"TOWNNAME":"關廟區","LI":"北花里","LIN":"11鄰","STREET":"中正路","SECT":" ","MAREA":" ","LANE":"７０６巷","ALLEY":" ","HOUSE_NO":"１２號","E_COORD97":181696.51000000001,"N_COORD97":2540378.25,"ADDRESS":"中正路７０６巷１２號","OBJECTID":243974},"geometry":{"x":181696.51000000164,"y":2540378.2500000019}},{"attributes":{"ID":243979,"DIS_CODE":0,"TOWNNAME":"關廟區","LI":"松腳里","LIN":"11鄰","STREET":"東興路","SECT":" ","MAREA":" ","LANE":"２２９巷","ALLEY":" ","HOUSE_NO":"１５號","E_COORD97":181797.92000000001,"N_COORD97":2539617.25,"ADDRESS":"東興路２２９巷１５號","OBJECTID":243975},"geometry":{"x":181797.92000000086,"y":2539617.25}},{"attributes":{"ID":243980,"DIS_CODE":0,"TOWNNAME":"關廟區","LI":"松腳里","LIN":"11鄰","STREET":"東興路","SECT":" ","MAREA":" ","LANE":"２２９巷","ALLEY":" ","HOUSE_NO":"３１號","E_COORD97":181813.22,"N_COORD97":2539668.25,"ADDRESS":"東興路２２９巷３１號","OBJECTID":243976},"geometry":{"x":181813.21999999974,"y":2539668.25}},{"attributes":{"ID":243981,"DIS_CODE":0,"TOWNNAME":"中西區","LI":"保安里","LIN":"10鄰","STREET":"國華街","SECT":"二段","MAREA":" ","LANE":"１８６巷","ALLEY":" ","HOUSE_NO":"１６號","E_COORD97":167736.76000000001,"N_COORD97":2543648.8700000001,"ADDRESS":"國華街二段１８６巷１６號","OBJECTID":243977},"geometry":{"x":167736.76000000164,"y":2543648.870000001}},{"attributes":{"ID":243982,"DIS_CODE":0,"TOWNNAME":"關廟區","LI":"山西里","LIN":"11鄰","STREET":"忠孝街","SECT":" ","MAREA":" ","LANE":"２０７巷","ALLEY":" ","HOUSE_NO":"３２號","E_COORD97":181076.98999999999,"N_COORD97":2540618.25,"ADDRESS":"忠孝街２０７巷３２號","OBJECTID":243978},"geometry":{"x":181076.99000000115,"y":2540618.25}},{"attributes":{"ID":243983,"DIS_CODE":0,"TOWNNAME":"安平區","LI":"怡平里","LIN":"24鄰","STREET":"平通路","SECT":" ","MAREA":" ","LANE":"３３３巷","ALLEY":" ","HOUSE_NO":"８９之３號","E_COORD97":165733.20999999999,"N_COORD97":2543590.3799999999,"ADDRESS":"平通路３３３巷８９之３號","OBJECTID":243979},"geometry":{"x":165733.20999999996,"y":2543590.3800000008}},{"attributes":{"ID":243984,"DIS_CODE":0,"TOWNNAME":"安平區","LI":"怡平里","LIN":"24鄰","STREET":"平通路","SECT":" ","MAREA":" ","LANE":"３３３巷","ALLEY":" ","HOUSE_NO":"８９之５號","E_COORD97":165737.34,"N_COORD97":2543590.0699999998,"ADDRESS":"平通路３３３巷８９之５號","OBJECTID":243980},"geometry":{"x":165737.33999999985,"y":2543590.070000004}},{"attributes":{"ID":243985,"DIS_CODE":0,"TOWNNAME":"安平區","LI":"怡平里","LIN":"24鄰","STREET":"平通路","SECT":" ","MAREA":" ","LANE":"３３３巷","ALLEY":" ","HOUSE_NO":"８９之６號","E_COORD97":165741.47,"N_COORD97":2543590.0699999998,"ADDRESS":"平通路３３３巷８９之６號","OBJECTID":243981},"geometry":{"x":165741.46999999974,"y":2543590.070000004}},{"attributes":{"ID":243986,"DIS_CODE":0,"TOWNNAME":"安平區","LI":"怡平里","LIN":"24鄰","STREET":"平通路","SECT":" ","MAREA":" ","LANE":"３３３巷","ALLEY":" ","HOUSE_NO":"８９號","E_COORD97":165719.23999999999,"N_COORD97":2543590.2200000002,"ADDRESS":"平通路３３３巷８９號","OBJECTID":243982},"geometry":{"x":165719.24000000022,"y":2543590.2200000025}},{"attributes":{"ID":243987,"DIS_CODE":0,"TOWNNAME":"安平區","LI":"怡平里","LIN":"24鄰","STREET":"平通路","SECT":" ","MAREA":" ","LANE":"３３３巷","ALLEY":" ","HOUSE_NO":"９１之１號","E_COORD97":165721.29999999999,"N_COORD97":2543569.1099999999,"ADDRESS":"平通路３３３巷９１之１號","OBJECTID":243983},"geometry":{"x":165721.30000000075,"y":2543569.1100000013}},{"attributes":{"ID":243988,"DIS_CODE":0,"TOWNNAME":"安平區","LI":"怡平里","LIN":"24鄰","STREET":"平通路","SECT":" ","MAREA":" ","LANE":"３３３巷","ALLEY":" ","HOUSE_NO":"９１之２號","E_COORD97":165726.38,"N_COORD97":2543566.8900000001,"ADDRESS":"平通路３３３巷９１之２號","OBJECTID":243984},"geometry":{"x":165726.37999999989,"y":2543566.8900000006}},{"attributes":{"ID":243989,"DIS_CODE":0,"TOWNNAME":"安平區","LI":"怡平里","LIN":"24鄰","STREET":"平通路","SECT":" ","MAREA":" ","LANE":"３３３巷","ALLEY":" ","HOUSE_NO":"９１之３號","E_COORD97":165730.35000000001,"N_COORD97":2543566.73,"ADDRESS":"平通路３３３巷９１之３號","OBJECTID":243985},"geometry":{"x":165730.3499999987,"y":2543566.7300000023}},{"attributes":{"ID":243990,"DIS_CODE":0,"TOWNNAME":"東區","LI":"崇文里","LIN":"14鄰","STREET":"崇德十九街","SECT":" ","MAREA":" ","LANE":" ","ALLEY":" ","HOUSE_NO":"５５號五樓之１","E_COORD97":171002.10999999999,"N_COORD97":2540985.1800000002,"ADDRESS":"崇德十九街５５號五樓之１","OBJECTID":243986},"geometry":{"x":171002.11000000127,"y":2540985.1800000034}},{"attributes":{"ID":243991,"DIS_CODE":0,"TOWNNAME":"東區","LI":"崇文里","LIN":"14鄰","STREET":"崇德十九街","SECT":" ","MAREA":" ","LANE":" ","ALLEY":" ","HOUSE_NO":"５５號六樓","E_COORD97":171002.10999999999,"N_COORD97":2540985.1800000002,"ADDRESS":"崇德十九街５５號六樓","OBJECTID":243987},"geometry":{"x":171002.11000000127,"y":2540985.1800000034}},{"attributes":{"ID":243992,"DIS_CODE":0,"TOWNNAME":"東區","LI":"崇文里","LIN":"14鄰","STREET":"崇德十九街","SECT":" ","MAREA":" ","LANE":" ","ALLEY":" ","HOUSE_NO":"５５號六樓之１","E_COORD97":171002.10999999999,"N_COORD97":2540985.1800000002,"ADDRESS":"崇德十九街５５號六樓之１","OBJECTID":243988},"geometry":{"x":171002.11000000127,"y":2540985.1800000034}},{"attributes":{"ID":243993,"DIS_CODE":0,"TOWNNAME":"東區","LI":"崇文里","LIN":"14鄰","STREET":"崇德十九街","SECT":" ","MAREA":" ","LANE":" ","ALLEY":" ","HOUSE_NO":"５５號四樓","E_COORD97":171002.10999999999,"N_COORD97":2540985.1800000002,"ADDRESS":"崇德十九街５５號四樓","OBJECTID":243989},"geometry":{"x":171002.11000000127,"y":2540985.1800000034}},{"attributes":{"ID":243994,"DIS_CODE":0,"TOWNNAME":"東區","LI":"崇文里","LIN":"14鄰","STREET":"崇德十九街","SECT":" ","MAREA":" ","LANE":" ","ALLEY":" ","HOUSE_NO":"５５號四樓之１","E_COORD97":171002.10999999999,"N_COORD97":2540985.1800000002,"ADDRESS":"崇德十九街５５號四樓之１","OBJECTID":243990},"geometry":{"x":171002.11000000127,"y":2540985.1800000034}},{"attributes":{"ID":243995,"DIS_CODE":0,"TOWNNAME":"東區","LI":"崇文里","LIN":"14鄰","STREET":"崇德十九街","SECT":" ","MAREA":" ","LANE":" ","ALLEY":" ","HOUSE_NO":"５９號七樓","E_COORD97":171016.73999999999,"N_COORD97":2540985.0800000001,"ADDRESS":"崇德十九街５９號七樓","OBJECTID":243991},"geometry":{"x":171016.74000000022,"y":2540985.0800000001}},{"attributes":{"ID":243996,"DIS_CODE":0,"TOWNNAME":"關廟區","LI":"山西里","LIN":"11鄰","STREET":"忠孝街","SECT":" ","MAREA":" ","LANE":"２０７巷","ALLEY":" ","HOUSE_NO":"２號","E_COORD97":181124.54000000001,"N_COORD97":2540599.25,"ADDRESS":"忠孝街２０７巷２號","OBJECTID":243992},"geometry":{"x":181124.54000000004,"y":2540599.2500000019}},{"attributes":{"ID":243997,"DIS_CODE":0,"TOWNNAME":"關廟區","LI":"五甲里","LIN":"11鄰","STREET":"五甲路","SECT":" ","MAREA":" ","LANE":"２１０巷","ALLEY":" ","HOUSE_NO":"１７號","E_COORD97":180969.62,"N_COORD97":2538918.25,"ADDRESS":"五甲路２１０巷１７號","OBJECTID":243993},"geometry":{"x":180969.62000000104,"y":2538918.2500000019}},{"attributes":{"ID":243998,"DIS_CODE":0,"TOWNNAME":"關廟區","LI":"山西里","LIN":"11鄰","STREET":"忠孝街","SECT":" ","MAREA":" ","LANE":"２０７巷","ALLEY":" ","HOUSE_NO":"６號","E_COORD97":181120.34,"N_COORD97":2540601.25,"ADDRESS":"忠孝街２０７巷６號","OBJECTID":243994},"geometry":{"x":181120.34000000078,"y":2540601.25}},{"attributes":{"ID":243999,"DIS_CODE":0,"TOWNNAME":"關廟區","LI":"山西里","LIN":"11鄰","STREET":"忠孝街","SECT":" ","MAREA":" ","LANE":"２０７巷","ALLEY":" ","HOUSE_NO":"１２號","E_COORD97":181108.09,"N_COORD97":2540605.25,"ADDRESS":"忠孝街２０７巷１２號","OBJECTID":243995},"geometry":{"x":181108.09000000078,"y":2540605.2500000037}},{"attributes":{"ID":244000,"DIS_CODE":0,"TOWNNAME":"永康區","LI":"永康里","LIN":"22鄰","STREET":"中山南路","SECT":" ","MAREA":" ","LANE":"５１７巷","ALLEY":" ","HOUSE_NO":"２６號","E_COORD97":173219.35982099999,"N_COORD97":2547123.0555400001,"ADDRESS":"中山南路５１７巷２６號","OBJECTID":243996},"geometry":{"x":173219.35982100014,"y":2547123.0555390008}},{"attributes":{"ID":244001,"DIS_CODE":0,"TOWNNAME":"關廟區","LI":"山西里","LIN":"11鄰","STREET":"忠孝街","SECT":" ","MAREA":" ","LANE":"２０７巷","ALLEY":" ","HOUSE_NO":"１０號","E_COORD97":181112.69,"N_COORD97":2540604.25,"ADDRESS":"忠孝街２０７巷１０號","OBJECTID":243997},"geometry":{"x":181112.69000000041,"y":2540604.25}},{"attributes":{"ID":244002,"DIS_CODE":0,"TOWNNAME":"關廟區","LI":"山西里","LIN":"11鄰","STREET":"南雄路","SECT":"二段","MAREA":" ","LANE":"４８５巷","ALLEY":" ","HOUSE_NO":"７號","E_COORD97":181032.19,"N_COORD97":2540758.2799999998,"ADDRESS":"南雄路二段４８５巷７號","OBJECTID":243998},"geometry":{"x":181032.19000000134,"y":2540758.2800000012}},{"attributes":{"ID":244003,"DIS_CODE":0,"TOWNNAME":"關廟區","LI":"北勢里","LIN":"11鄰","STREET":"成功路","SECT":" ","MAREA":" ","LANE":"２６２巷","ALLEY":" ","HOUSE_NO":"１２號","E_COORD97":181511.22,"N_COORD97":2540540.27,"ADDRESS":"成功路２６２巷１２號","OBJECTID":243999},"geometry":{"x":181511.21999999974,"y":2540540.2700000033}},{"attributes":{"ID":244004,"DIS_CODE":0,"TOWNNAME":"關廟區","LI":"北勢里","LIN":"11鄰","STREET":"成功路","SECT":" ","MAREA":" ","LANE":"２６２巷","ALLEY":" ","HOUSE_NO":"２０號","E_COORD97":181515.42000000001,"N_COORD97":2540560.27,"ADDRESS":"成功路２６２巷２０號","OBJECTID":244000},"geometry":{"x":181515.41999999993,"y":2540560.2700000033}}]}